"Interval"|"ms"|0|0|1,"Utc"|"ms"|0|0|1,"FuelLevel"|"F"|0|100|5,"OilTemp"|"F"|0.0|300.0|5,"Coolant"|"F"|0.0|300.0|5,"OilPress"|"PSI"|0|150|10,"EngineTemp"|"F"|0.0|300.0|5,"Battery"|"Volts"|0.0|20.0|1,"AccelX"|"G"|-3.0|3.0|50,"AccelY"|"G"|-3.0|3.0|50,"AccelZ"|"G"|-3.0|3.0|50,"Yaw"|"Deg/Sec"|-300.0|300.0|50,"Pitch"|"Deg/Sec"|-300.0|300.0|50,"Roll"|"Deg/Sec"|-300.0|300.0|50,"RPM"|""|0|10000|50,"Driveshaft"|"RPM"|0|5000|50,"GearRatio"|""|-5.0|5.0|10,"Gear"|""|-1|5|10,"Latitude"|"Degrees"|-180.0|180.0|10,"Longitude"|"Degrees"|-180.0|180.0|10,"Speed"|"MPH"|0.0|150.0|10,"Distance"|"Miles"|0.0|0.0|10,"Altitude"|"Feet"|0.0|4000.0|10,"GPSSats"|""|0|20|10,"GPSQual"|""|0|5|10,"GPSDOP"|""|0.0|20.0|10,"LapCount"|""|0|0|10,"LapTime"|"Min"|0.0|0.0|10,"Sector"|""|0|0|10,"SectorTime"|"Min"|0.0|0.0|10,"PredTime"|"Min"|0.0|0.0|5,"ElapsedTime"|"Min"|0.0|0.0|10,"CurrentLap"|""|0|0|10
25466,1469892301392,,,,,,,0.06,0.06,1.01,-5.0,0.2,-0.1,2400,16,,,,,,,,,,,,,,,,,
25486,1469892301412,,,,,,,0.05,0.06,1.0,-5.0,-0.3,-0.1,2360,16,,,,,,,,,,,,,,,,,
25506,1469892301432,,,,,,,0.06,0.06,1.01,-5.0,0.0,-0.2,2320,16,,,,,,,,,,,,,,,,,
25526,1469892301452,,,,,,,0.04,0.05,1.0,-5.0,0.1,-0.1,2280,16,,,,,,,,,,,,,,,,,
25546,1469892301475,,,,61,,,0.04,0.06,1.0,-5.0,-0.2,-0.1,2240,18,155.0,0,39.536678,-122.332237,0.0,0.0,341.7,5,3,0.0,0,0.0,-1,0.0,,0.0,0
25566,1469892301495,,,,,,,0.05,0.07,1.0,-5.0,-0.1,-0.1,2140,18,,,,,,,,,,,,,,,,,
25586,1469892301515,,,,,,,0.04,0.07,1.0,-5.0,-0.1,-0.0,2120,18,,,,,,,,,,,,,,,,,
25606,1469892301535,,,,,,,0.04,0.06,1.01,-5.0,-0.1,0.0,2100,18,,,,,,,,,,,,,,,,,
25626,1469892301555,,,,,,,0.04,0.06,1.01,-5.0,-0.2,0.0,2080,18,,,,,,,,,,,,,,,,,
25646,1469892301575,0,102.8,129.0,58,123.3,,0.04,0.07,1.0,-5.0,-0.3,-0.0,2080,18,115.556,0,39.536678,-122.332237,0.0,0.0,324.4,5,3,0.0,0,0.0,-1,0.0,0.0,0.0,0
25666,1469892301595,,,,,,,0.04,0.06,1.0,-5.0,-0.2,-0.1,2000,18,,,,,,,,,,,,,,,,,
25686,1469892301615,,,,,,,0.04,0.06,1.0,-5.0,-0.2,-0.1,2020,18,,,,,,,,,,,,,,,,,
25706,1469892301635,,,,,,,0.05,0.07,0.99,-5.0,-0.2,-0.2,1940,20,,,,,,,,,,,,,,,,,
25726,1469892301655,,,,,,,0.05,0.07,0.98,-5.0,-0.1,-0.2,1880,20,,,,,,,,,,,,,,,,,
25746,1469892301675,,,,59,,,0.05,0.07,0.98,-5.1,-0.1,-0.2,1840,20,91.0,0,39.536678,-122.332237,0.0,0.0,319.4,5,3,0.0,0,0.0,-1,0.0,,0.0,0
25766,1469892301695,,,,,,,0.06,0.07,0.98,-5.1,-0.2,-0.2,1780,20,,,,,,,,,,,,,,,,,
25786,1469892301715,,,,,,,0.05,0.07,0.98,-5.1,-0.3,-0.1,1720,20,,,,,,,,,,,,,,,,,
25806,1469892301735,,,,,,,0.04,0.07,0.98,-5.2,-0.2,-0.1,1660,20,,,,,,,,,,,,,,,,,
25826,1469892301755,,,,,,,0.05,0.06,0.98,-5.2,-0.1,-0.1,1460,20,,,,,,,,,,,,,,,,,
25846,1469892301774,0,101.2,127.4,56,121.8,,0.04,0.07,0.98,-5.3,-0.2,-0.0,1600,20,80.0,0,39.536678,-122.332237,0.0,0.0,318.6,5,3,0.0,0,0.0,-1,0.0,0.0,0.0,0
25866,1469892301794,,,,,,,0.04,0.07,0.99,-5.3,-0.3,-0.0,1540,20,,,,,,,,,,,,,,,,,
25886,1469892301814,,,,,,,0.04,0.07,0.99,-5.3,-0.1,0.1,1540,20,,,,,,,,,,,,,,,,,
25906,1469892301834,,,,,,,0.03,0.07,0.98,-5.3,-0.2,0.1,1560,21,,,,,,,,,,,,,,,,,
25926,1469892301854,,,,,,,0.03,0.08,0.98,-5.3,-0.3,0.1,1460,21,,,,,,,,,,,,,,,,,
25946,1469892301874,,,,54,,,0.03,0.07,0.99,-5.3,-0.1,0.1,1560,21,70.476,0,39.536678,-122.332237,0.0,0.0,320.4,5,3,0.0,0,0.0,-1,0.0,,0.0,0
25966,1469892301894,,,,,,,0.02,0.08,0.99,-5.4,-0.2,0.1,1600,21,,,,,,,,,,,,,,,,,
25986,1469892301914,,,,,,,0.03,0.06,1.01,-5.3,-0.1,0.1,1660,21,,,,,,,,,,,,,,,,,
26006,1469892301934,,,,,,,0.03,0.07,0.99,-5.3,-0.2,0.2,1740,21,,,,,,,,,,,,,,,,,
26026,1469892301954,,,,,,,0.03,0.09,1.0,-5.4,-0.1,0.2,1820,21,,,,,,,,,,,,,,,,,
26046,1469892301974,1,100.9,127.9,64,123.1,14.36,0.04,0.08,0.99,-5.3,-0.5,0.1,1960,23,82.609,0,39.536678,-122.332237,0.0,0.0,320.4,5,3,0.0,0,0.0,-1,0.0,0.0,0.0,0
26066,1469892302071,,,,,,,0.04,0.08,0.97,-5.5,-0.9,0.2,2060,23,,,,,,,,,,,,,,,,,
26086,1469892302091,,,,,,,0.03,0.08,0.95,-5.4,-1.4,0.2,2180,23,,,,,,,,,,,,,,,,,
26106,1469892302111,,,,,,,0.01,0.1,0.95,-5.4,-1.9,0.2,2320,23,,,,,,,,,,,,,,,,,
26126,1469892302131,,,,,,,0.04,0.1,0.97,-5.5,-2.5,0.3,2400,23,,,,,,,,,,,,,,,,,
26146,1469892302151,,,,69,,,0.06,0.12,0.99,-5.5,-1.6,0.1,2560,23,108.696,0,39.536678,-122.332237,0.0,0.0,314.1,5,3,0.0,0,0.0,-1,0.0,,0.0,0
26166,1469892302171,,,,,,,0.03,0.12,0.97,-5.5,-1.7,0.0,2560,23,,,,,,,,,,,,,,,,,
26186,1469892302191,,,,,,,0.06,0.11,0.98,-5.5,-1.6,-0.2,2500,23,,,,,,,,,,,,,,,,,
26206,1469892302211,,,,,,,0.05,0.12,0.97,-5.5,-1.3,-0.3,2460,23,,,,,,,,,,,,,,,,,
26226,1469892302231,,,,,,,0.05,0.11,0.98,-5.6,-1.0,-0.2,2420,23,,,,,,,,,,,,,,,,,
26246,1469892302174,0,100.1,127.6,66,122.7,,0.04,0.11,0.99,-5.6,-1.1,-0.2,2380,23,103.478,0,39.536678,-122.332237,0.0,0.0,309.1,5,3,0.0,0,0.0,-1,0.0,0.0,0.0,0
26266,1469892302194,,,,,,,0.05,0.12,1.0,-5.6,-1.0,-0.1,2300,23,,,,,,,,,,,,,,,,,
26286,1469892302214,,,,,,,0.04,0.09,1.01,-5.6,-0.6,-0.1,2340,23,,,,,,,,,,,,,,,,,
26306,1469892302234,,,,,,,0.03,0.1,1.0,-5.6,-0.7,-0.1,2240,23,,,,,,,,,,,,,,,,,
26326,1469892302254,,,,,,,0.04,0.11,1.0,-5.6,-0.7,-0.1,2180,23,,,,,,,,,,,,,,,,,
26346,1469892302273,,,,60,,,0.04,0.11,0.99,-5.6,-0.6,-0.1,2120,23,93.913,0,39.536674,-122.332237,0.0,0.001,304.4,5,3,0.0,0,0.0,-1,0.0,,0.0,0
26366,1469892302293,,,,,,,0.04,0.11,1.0,-5.6,-0.5,-0.1,2080,23,,,,,,,,,,,,,,,,,
26386,1469892302313,,,,,,,0.04,0.1,1.0,-5.6,-0.5,-0.1,2020,23,,,,,,,,,,,,,,,,,
26406,1469892302333,,,,,,,0.03,0.09,1.01,-5.6,-0.4,-0.0,2020,23,,,,,,,,,,,,,,,,,
26426,1469892302353,,,,,,,0.04,0.08,1.02,-5.5,-0.5,-0.0,2000,24,,,,,,,,,,,,,,,,,
26446,1469892302373,0,101.0,127.4,59,122.1,,0.03,0.07,1.02,-5.6,-0.4,-0.0,2040,24,82.5,0,39.536674,-122.332237,0.0,0.001,304.4,5,3,0.0,0,0.0,-1,0.0,0.0,0.0,0
26466,1469892302393,,,,,,,0.04,0.07,1.02,-5.6,-0.5,-0.0,1900,24,,,,,,,,,,,,,,,,,
26486,1469892302413,,,,,,,0.04,0.07,1.01,-5.6,-0.6,-0.1,1860,23,,,,,,,,,,,,,,,,,
26506,1469892302433,,,,,,,0.04,0.07,1.01,-5.6,-0.7,-0.1,1840,23,,,,,,,,,,,,,,,,,
26526,1469892302453,,,,,,,0.03,0.07,1.01,-5.6,-0.7,-0.1,1800,23,,,,,,,,,,,,,,,,,
26546,1469892302473,,,,64,,,0.03,0.07,1.01,-5.6,-0.6,-0.0,1780,23,77.391,0,39.536674,-122.332237,0.0,0.001,304.4,5,3,0.0,0,0.0,-1,0.0,,0.0,0
26566,1469892302493,,,,,,,0.03,0.08,1.0,-5.6,-0.3,-0.0,1680,23,,,,,,,,,,,,,,,,,
26586,1469892302513,,,,,,,0.03,0.07,1.0,-5.6,-0.4,-0.0,1660,23,,,,,,,,,,,,,,,,,
26606,1469892302533,,,,,,,0.03,0.07,1.0,-5.6,-0.6,-0.0,1620,23,,,,,,,,,,,,,,,,,
26626,1469892302553,,,,,,,0.03,0.07,1.0,-5.6,-0.5,-0.1,1580,23,,,,,,,,,,,,,,,,,
26646,1469892302572,0,102.6,128.1,58,122.5,,0.03,0.07,1.0,-5.5,-0.4,-0.1,1560,23,67.826,0,39.536674,-122.332237,0.0,0.001,304.4,5,3,0.0,0,0.0,-1,0.0,0.0,0.0,0
26666,1469892302592,,,,,,,0.03,0.07,0.99,-5.6,-0.4,-0.1,1560,23,,,,,,,,,,,,,,,,,
26686,1469892302612,,,,,,,0.03,0.07,1.0,-5.6,-0.2,-0.1,1540,23,,,,,,,,,,,,,,,,,
26706,1469892302632,,,,,,,0.03,0.07,1.0,-5.6,-0.3,-0.1,1540,23,,,,,,,,,,,,,,,,,
26726,1469892302652,,,,,,,0.03,0.07,1.0,-5.6,-0.2,-0.1,1500,23,,,,,,,,,,,,,,,,,
26746,1469892302673,,,,60,,,0.03,0.07,1.01,-5.6,-0.2,-0.1,1480,23,65.217,0,39.536674,-122.332237,0.0,0.001,304.4,5,3,0.0,0,0.0,-1,0.0,,0.0,0
26766,1469892302693,,,,,,,0.03,0.07,1.0,-5.6,-0.1,-0.1,1480,23,,,,,,,,,,,,,,,,,
26786,1469892302713,,,,,,,0.03,0.07,1.01,-5.6,-0.2,-0.1,1440,23,,,,,,,,,,,,,,,,,
26806,1469892302733,,,,,,,0.03,0.07,1.02,-5.5,-0.1,-0.1,1440,23,,,,,,,,,,,,,,,,,
26826,1469892302753,,,,,,,0.03,0.07,1.01,-5.5,-0.1,-0.1,1420,23,,,,,,,,,,,,,,,,,
26846,1469892302872,0,102.5,128.1,59,122.5,,0.03,0.07,1.01,-5.6,-0.1,-0.1,1420,23,61.739,0,39.536674,-122.332237,0.0,0.001,304.4,5,3,0.0,0,0.0,-1,0.0,0.0,0.0,0
26866,1469892302892,,,,,,,0.03,0.07,1.0,-5.6,-0.1,-0.1,1420,24,,,,,,,,,,,,,,,,,
26886,1469892302912,,,,,,,0.03,0.06,0.99,-5.6,-0.2,-0.1,1400,24,,,,,,,,,,,,,,,,,
26906,1469892302932,,,,,,,0.03,0.06,0.99,-5.6,-0.2,-0.1,1400,24,,,,,,,,,,,,,,,,,
26926,1469892302952,,,,,,,0.03,0.07,1.0,-5.6,-0.2,-0.1,1400,24,,,,,,,,,,,,,,,,,
26946,1469892302972,,,,58,,,0.03,0.07,1.0,-5.6,-0.1,-0.2,1380,24,57.5,0,39.536674,-122.332237,0.0,0.001,304.4,5,3,0.0,0,0.0,-1,0.0,,0.0,0
26966,1469892302992,,,,,,,0.03,0.08,1.0,-5.6,-0.2,-0.1,1380,24,,,,,,,,,,,,,,,,,
26986,1469892303012,,,,,,,0.03,0.07,0.99,-5.7,-0.2,-0.1,1380,24,,,,,,,,,,,,,,,,,
27006,1469892303032,,,,,,,0.03,0.06,1.0,-5.7,-0.2,-0.1,1400,24,,,,,,,,,,,,,,,,,
27026,1469892303052,,,,,,,0.03,0.07,1.0,-5.7,-0.0,-0.1,1440,24,,,,,,,,,,,,,,,,,
27046,1469892302965,0,100.7,127.2,57,122.1,14.35,0.03,0.08,1.01,-5.6,0.1,-0.1,1460,24,60.833,0,39.536674,-122.332237,0.0,0.001,304.4,5,3,0.0,0,0.0,-1,0.0,0.0,0.0,0
27066,1469892302985,,,,,,,0.03,0.08,1.01,-5.6,0.0,-0.0,1560,24,,,,,,,,,,,,,,,,,
27086,1469892303005,,,,,,,0.04,0.08,1.02,-5.6,0.0,-0.1,1580,24,,,,,,,,,,,,,,,,,
27106,1469892303025,,,,,,,0.04,0.05,1.01,-5.5,-0.1,-0.1,1720,26,,,,,,,,,,,,,,,,,
27126,1469892303045,,,,,,,0.02,0.07,1.0,-5.6,-0.2,0.1,1800,26,,,,,,,,,,,,,,,,,
27146,1469892303072,,,,57,,,0.02,0.08,0.99,-5.6,0.2,0.1,1900,26,70.769,0,39.536674,-122.332237,0.0,0.001,304.4,5,3,0.0,0,0.0,-1,0.0,,0.0,0
27166,1469892303092,,,,,,,0.05,0.09,1.0,-5.6,0.4,-0.0,2020,26,,,,,,,,,,,,,,,,,
27186,1469892303112,,,,,,,0.07,0.11,1.0,-5.7,0.5,-0.0,2040,26,,,,,,,,,,,,,,,,,
27206,1469892303132,,,,,,,0.08,0.11,1.01,-5.7,0.1,-0.1,2080,26,,,,,,,,,,,,,,,,,
27226,1469892303152,,,,,,,0.1,0.11,1.01,-5.8,0.2,-0.2,2040,26,,,,,,,,,,,,,,,,,
27246,1469892303169,0,100.3,127.5,63,123.0,,0.11,0.11,1.01,-5.8,0.3,-0.3,2040,26,76.923,0,39.536674,-122.332237,0.0,0.001,304.4,5,3,0.0,0,0.0,-1,0.0,0.0,0.0,0
27266,1469892303189,,,,,,,0.11,0.1,1.01,-5.8,0.4,-0.3,2000,26,,,,,,,,,,,,,,,,,
27286,1469892303209,,,,,,,0.1,0.09,1.0,-5.8,0.6,-0.3,2000,26,,,,,,,,,,,,,,,,,
27306,1469892303229,,,,,,,0.1,0.08,1.01,-5.8,0.7,-0.3,1900,26,,,,,,,,,,,,,,,,,
27326,1469892303249,,,,,,,0.1,0.08,1.0,-5.8,0.7,-0.4,1880,27,,,,,,,,,,,,,,,,,
27346,1469892303270,,,,62,,,0.1,0.08,1.0,-5.8,0.5,-0.4,1860,27,70.37,0,39.536674,-122.332237,0.0,0.001,304.4,5,3,0.0,0,0.0,-1,0.0,,0.0,0
27366,1469892303290,,,,,,,0.09,0.07,1.0,-5.9,0.3,-0.4,1820,27,,,,,,,,,,,,,,,,,
27386,1469892303310,,,,,,,0.08,0.07,0.99,-5.9,0.2,-0.3,1840,27,,,,,,,,,,,,,,,,,
27406,1469892303330,,,,,,,0.07,0.07,0.99,-5.9,0.2,-0.2,1760,27,,,,,,,,,,,,,,,,,
27426,1469892303350,,,,,,,0.07,0.08,0.99,-5.9,0.2,-0.2,1780,29,,,,,,,,,,,,,,,,,
27446,1469892303369,0,101.8,128.4,56,123.8,,0.07,0.07,0.99,-5.9,0.2,-0.1,1800,29,60.0,0,39.536674,-122.332237,0.0,0.001,304.4,5,3,0.0,0,0.0,-1,0.0,0.0,0.0,0
27466,1469892303389,,,,,,,0.07,0.07,0.99,-5.9,0.1,-0.1,1720,29,,,,,,,,,,,,,,,,,
27486,1469892303409,,,,,,,0.06,0.08,0.99,-6.0,-0.1,-0.1,1680,30,,,,,,,,,,,,,,,,,
27506,1469892303429,,,,,,,0.05,0.08,0.99,-6.0,0.0,-0.1,1640,30,,,,,,,,,,,,,,,,,
27526,1469892303449,,,,,,,0.06,0.08,1.0,-6.0,0.1,-0.1,1640,32,,,,,,,,,,,,,,,,,
27546,1469892303468,,,,63,,,0.05,0.08,1.0,-6.0,0.0,-0.1,1620,32,50.625,0,39.536671,-122.332237,0.0,0.001,288.4,8,3,2.1,0,0.0,-1,0.0,,0.0,0
27566,1469892303488,,,,,,,0.05,0.08,1.0,-6.0,0.0,-0.1,1580,30,,,,,,,,,,,,,,,,,
27586,1469892303508,,,,,,,0.05,0.07,0.99,-6.0,-0.0,-0.1,1580,30,,,,,,,,,,,,,,,,,
27606,1469892303528,,,,,,,0.05,0.08,1.0,-6.1,-0.1,-0.0,1600,30,,,,,,,,,,,,,,,,,
27626,1469892303548,,,,,,,0.05,0.08,0.99,-6.1,0.0,-0.0,1560,30,,,,,,,,,,,,,,,,,
27646,1469892303568,0,102.6,128.7,58,123.9,,0.04,0.09,1.0,-6.1,-0.0,-0.1,1580,30,53.333,0,39.536671,-122.332237,0.0,0.001,288.4,8,3,2.1,0,0.0,-1,0.0,0.0,0.0,0
27666,1469892303588,,,,,,,0.05,0.09,1.01,-6.1,-0.0,-0.1,1560,30,,,,,,,,,,,,,,,,,
27686,1469892303700,,,,,,,0.05,0.09,1.01,-6.1,0.0,-0.1,1560,30,,,,,,,,,,,,,,,,,
27706,1469892303720,,,,,,,0.04,0.08,1.0,-6.1,-0.1,-0.0,1600,32,,,,,,,,,,,,,,,,,
27726,1469892303740,,,,,,,0.04,0.09,0.99,-6.2,-0.2,-0.0,1600,32,,,,,,,,,,,,,,,,,
27746,1469892303760,,,,61,,,0.04,0.08,1.0,-6.2,-0.1,-0.0,1600,38,49.375,0,39.536671,-122.332237,0.0,0.001,290.3,11,3,1.3,0,0.0,-1,0.0,,0.0,0
27766,1469892303780,,,,,,,0.04,0.08,1.01,-6.2,-0.1,-0.0,1640,38,,,,,,,,,,,,,,,,,
27786,1469892303800,,,,,,,0.04,0.06,1.01,-6.2,-0.1,-0.0,1620,49,,,,,,,,,,,,,,,,,
27806,1469892303820,,,,,,,0.03,0.07,1.01,-6.2,-0.1,0.0,1700,86,,,,,,,,,,,,,,,,,
27826,1469892303840,,,,,,,0.02,0.08,1.02,-6.3,0.1,0.1,1740,100,,,,,,,,,,,,,,,,,
27846,1469892303860,0,100.0,127.1,64,122.9,,0.02,0.1,1.02,-6.3,0.0,0.1,1800,76,18.4,0,39.536671,-122.332237,0.0,0.001,290.3,11,3,1.3,0,0.0,-1,0.0,0.0,0.0,0
27866,1469892303880,,,,,,,0.03,0.09,1.0,-6.3,-0.2,0.1,1880,76,,,,,,,,,,,,,,,,,
27886,1469892303798,,,,,,,0.03,0.08,0.99,-6.4,-0.2,0.2,1940,76,,,,,,,,,,,,,,,,,
27906,1469892303818,,,,,,,0.01,0.08,1.0,-6.4,0.0,0.2,1980,30,,,,,,,,,,,,,,,,,
27926,1469892303838,,,,,,,-0.0,0.07,1.01,-6.4,0.2,0.2,2020,47,,,,,,,,,,,,,,,,,
27946,1469892303858,,,,62,,,-0.02,0.06,1.02,-6.4,0.5,0.1,2120,47,45.106,0,39.536671,-122.332237,0.0,0.001,290.3,11,3,1.3,0,0.0,-1,0.0,,0.0,0
27966,1469892303878,,,,,,,-0.05,0.05,1.02,-6.5,0.7,0.0,2240,72,,,,,,,,,,,,,,,,,
27986,1469892303891,,,,,,,-0.05,0.07,0.98,-6.5,0.4,-0.0,2280,72,,,,,,,,,,,,,,,,,
28006,1469892303911,,,,,,,-0.04,0.06,0.98,-6.6,-0.2,0.1,2340,72,,,,,,,,,,,,,,,,,
28026,1469892303931,,,,,,,-0.01,0.07,0.96,-6.5,0.1,-0.0,2440,23,,,,,,,,,,,,,,,,,
28046,1469892303951,0,100.0,127.0,66,122.5,14.28,-0.02,0.06,0.94,-6.6,0.3,-0.0,2500,55,45.455,0,39.536671,-122.332237,0.0,0.001,290.3,11,3,1.3,0,0.0,-1,0.0,0.0,0.0,0
28066,1469892303971,,,,,,,-0.01,0.07,0.92,-6.6,-0.2,0.0,2580,55,,,,,,,,,,,,,,,,,
28086,1469892304000,,,,,,,0.01,0.06,0.95,-6.7,0.4,0.0,2540,61,,,,,,,,,,,,,,,,,
28106,1469892304020,,,,,,,0.01,0.06,0.96,-6.7,0.1,-0.0,2480,61,,,,,,,,,,,,,,,,,
28126,1469892304040,,,,,,,0.01,0.08,0.97,-6.8,-0.0,-0.1,2420,27,,,,,,,,,,,,,,,,,
28146,1469892304060,,,,66,,,0.01,0.08,0.97,-6.9,-0.1,-0.1,2340,60,87.407,0,39.536671,-122.332237,0.0,0.001,290.3,11,3,1.3,0,0.0,-1,0.0,,0.0,0
28166,1469892304080,,,,,,,0.01,0.06,0.97,-7.0,0.2,-0.1,2320,60,,,,,,,,,,,,,,,,,
28186,1469892304100,,,,,,,0.0,0.07,0.97,-7.0,-0.0,-0.0,2260,60,,,,,,,,,,,,,,,,,
28206,1469892304120,,,,,,,0.02,0.08,0.98,-7.1,-0.1,-0.0,2200,38,,,,,,,,,,,,,,,,,
28226,1469892304140,,,,,,,0.02,0.08,0.98,-7.1,0.1,-0.1,2180,38,,,,,,,,,,,,,,,,,
28246,1469892304160,0,100.4,127.1,69,122.5,,0.01,0.08,0.99,-7.2,0.1,-0.1,2120,38,55.789,0,39.536671,-122.332237,0.0,0.001,290.3,11,3,1.3,0,0.0,-1,0.0,0.0,0.0,0
28266,1469892304180,,,,,,,0.01,0.08,0.99,-7.3,-0.1,-0.2,2060,58,,,,,,,,,,,,,,,,,
28286,1469892304200,,,,,,,0.02,0.08,0.99,-7.3,-0.1,-0.2,2040,58,,,,,,,,,,,,,,,,,
28306,1469892304220,,,,,,,0.02,0.07,0.98,-7.3,-0.1,-0.2,2000,38,,,,,,,,,,,,,,,,,
28326,1469892304240,,,,,,,0.02,0.08,0.98,-7.4,-0.1,-0.2,1920,46,,,,,,,,,,,,,,,,,
28346,1469892304260,,,,68,,,0.02,0.08,0.97,-7.4,-0.1,-0.2,1940,46,43.913,0,39.536671,-122.332237,0.0,0.001,290.3,11,3,1.3,0,0.0,-1,0.0,,0.0,0
28366,1469892304280,,,,,,,0.03,0.08,0.97,-7.5,-0.0,-0.3,1960,58,,,,,,,,,,,,,,,,,
28386,1469892304300,,,,,,,0.03,0.07,0.97,-7.5,0.1,-0.3,1840,43,,,,,,,,,,,,,,,,,
28406,1469892304320,,,,,,,0.04,0.07,0.97,-7.5,0.1,-0.3,1820,43,,,,,,,,,,,,,,,,,
28426,1469892304340,,,,,,,0.03,0.07,0.98,-7.6,-0.1,-0.3,1780,49,,,,,,,,,,,,,,,,,
28446,1469892304360,0,101.0,127.9,63,123.7,,0.03,0.07,0.98,-7.6,-0.3,-0.3,1760,58,30.345,0,39.536671,-122.332237,0.0,0.001,290.3,11,3,1.3,0,0.0,-1,0.0,0.0,0.0,0
28466,1469892304380,,,,,,,0.02,0.07,0.98,-7.7,-0.1,-0.2,1720,58,,,,,,,,,,,,,,,,,
28486,1469892304498,,,,,,,0.02,0.07,0.98,-7.7,0.0,-0.2,1620,47,,,,,,,,,,,,,,,,,
28506,1469892304518,,,,,,,0.03,0.07,0.98,-7.7,-0.1,-0.1,1660,50,,,,,,,,,,,,,,,,,
28526,1469892304538,,,,,,,0.02,0.08,0.98,-7.8,-0.2,-0.1,1640,60,,,,,,,,,,,,,,,,,
28546,1469892304558,,,,60,,,0.02,0.08,0.98,-7.8,-0.2,-0.2,1620,60,27.0,0,39.536671,-122.332237,0.0,0.001,290.3,11,3,1.3,0,0.0,-1,0.0,,0.0,0
28566,1469892304578,,,,,,,0.03,0.07,0.98,-7.8,-0.2,-0.2,1420,53,,,,,,,,,,,,,,,,,
28586,1469892304598,,,,,,,0.02,0.07,0.98,-7.9,-0.2,-0.2,1580,52,,,,,,,,,,,,,,,,,
28606,1469892304618,,,,,,,0.03,0.07,0.97,-7.9,-0.3,-0.2,1560,58,,,,,,,,,,,,,,,,,
28626,1469892304638,,,,,,,0.02,0.07,0.97,-7.9,-0.4,-0.2,1520,58,,,,,,,,,,,,,,,,,
28646,1469892304658,0,101.3,127.4,61,122.7,,0.02,0.08,0.98,-8.0,-0.3,-0.1,1480,60,24.667,0,39.536671,-122.332237,0.0,0.001,290.3,11,3,1.3,0,0.0,-1,0.0,0.0,0.0,0
28666,1469892304678,,,,,,,0.02,0.08,0.98,-8.0,-0.5,-0.1,1420,55,,,,,,,,,,,,,,,,,
28686,1469892304598,,,,,,,0.02,0.08,0.98,-8.1,-0.4,-0.1,1400,58,,,,,,,,,,,,,,,,,
28706,1469892304618,,,,,,,0.02,0.08,0.98,-8.1,-0.5,-0.1,1380,58,,,,,,,,,,,,,,,,,
28726,1469892304638,,,,,,,0.02,0.08,0.98,-8.1,-0.4,-0.1,1300,61,,,,,,,,,,,,,,,,,
28746,1469892304658,,,,55,,,0.02,0.08,0.98,-8.1,-0.4,-0.2,1280,60,21.333,0,39.536671,-122.332237,0.0,0.001,290.3,11,3,1.3,0,0.0,-1,0.0,,0.0,0
28766,1469892304678,,,,,,,0.02,0.08,0.98,-8.1,-0.4,-0.1,1240,58,,,,,,,,,,,,,,,,,
28786,1469892304697,,,,,,,0.02,0.09,0.98,-8.1,-0.3,-0.1,1220,63,,,,,,,,,,,,,,,,,
28806,1469892304717,,,,,,,0.01,0.08,0.99,-8.1,-0.3,-0.0,1160,63,,,,,,,,,,,,,,,,,
28826,1469892304737,,,,,,,0.01,0.09,0.99,-8.1,-0.3,-0.0,1120,64,,,,,,,,,,,,,,,,,
28846,1469892304757,0,102.0,128.4,57,124.2,,0.01,0.08,0.99,-8.1,-0.3,-0.0,1100,61,18.361,0,39.536671,-122.332237,0.0,0.001,290.3,11,3,1.3,0,0.0,-1,0.0,0.0,0.0,0
28866,1469892304777,,,,,,,0.01,0.08,1.0,-8.2,-0.3,-0.0,1080,63,,,,,,,,,,,,,,,,,
28886,1469892304797,,,,,,,0.01,0.08,1.0,-8.1,-0.3,-0.0,1060,66,,,,,,,,,,,,,,,,,
28906,1469892304817,,,,,,,0.01,0.08,1.0,-8.1,-0.4,-0.1,1040,67,,,,,,,,,,,,,,,,,
28926,1469892304837,,,,,,,0.01,0.08,1.0,-8.1,-0.4,-0.1,1020,64,,,,,,,,,,,,,,,,,
28946,1469892304857,,,,52,,,0.01,0.08,1.0,-8.1,-0.3,-0.1,1020,64,15.938,0,39.536671,-122.332237,0.0,0.001,290.3,11,3,1.3,0,0.0,-1,0.0,,0.0,0
28966,1469892304877,,,,,,,0.01,0.08,0.99,-8.1,-0.3,-0.1,1000,66,,,,,,,,,,,,,,,,,
28986,1469892304897,,,,,,,0.01,0.08,0.99,-8.1,-0.3,-0.2,1000,72,,,,,,,,,,,,,,,,,
29006,1469892304909,,,,,,,0.01,0.08,0.99,-8.1,-0.3,-0.2,980,70,,,,,,,,,,,,,,,,,
29026,1469892304929,,,,,,,0.01,0.08,0.99,-8.1,-0.3,-0.2,980,69,,,,,,,,,,,,,,,,,
29046,1469892304949,0,102.8,128.4,54,123.4,14.51,0.0,0.08,0.99,-8.1,-0.3,-0.2,960,69,13.913,0,39.536671,-122.332237,0.96,0.001,300.5,11,3,1.3,0,0.0,-1,0.0,0.0,0.0,0
29066,1469892304969,,,,,,,0.01,0.07,0.99,-8.0,-0.3,-0.3,960,73,,,,,,,,,,,,,,,,,
29086,1469892304996,,,,,,,0.01,0.07,0.98,-8.0,-0.3,-0.3,960,76,,,,,,,,,,,,,,,,,
29106,1469892305016,,,,,,,0.01,0.07,0.98,-8.0,-0.3,-0.4,960,72,,,,,,,,,,,,,,,,,
29126,1469892305036,,,,,,,0.02,0.07,0.98,-8.0,-0.3,-0.3,960,70,,,,,,,,,,,,,,,,,
29146,1469892305056,,,,52,,,0.02,0.07,0.99,-7.9,-0.2,-0.3,920,76,12.632,0,39.536671,-122.332237,1.02,0.001,300.2,11,3,1.3,0,0.0,-1,0.0,,0.0,0
29166,1469892305076,,,,,,,0.02,0.07,0.99,-7.9,-0.2,-0.3,920,78,,,,,,,,,,,,,,,,,
29186,1469892305096,,,,,,,0.02,0.07,0.98,-7.9,-0.3,-0.2,860,73,,,,,,,,,,,,,,,,,
29206,1469892305116,,,,,,,0.02,0.07,0.98,-7.9,-0.2,-0.2,860,73,,,,,,,,,,,,,,,,,
29226,1469892305136,,,,,,,0.02,0.07,0.98,-7.9,-0.1,-0.1,840,76,,,,,,,,,,,,,,,,,
29246,1469892305156,0,102.7,128.6,50,123.7,,0.03,0.07,0.98,-7.9,-0.2,-0.0,820,76,10.789,0,39.536671,-122.332237,1.12,0.001,299.7,11,3,1.3,0,0.0,-1,0.0,0.0,0.0,0
29266,1469892305176,,,,,,,0.02,0.07,0.99,-7.9,-0.3,-0.1,820,78,,,,,,,,,,,,,,,,,
29286,1469892305292,,,,,,,0.01,0.06,0.99,-7.8,-0.3,-0.2,720,80,,,,,,,,,,,,,,,,,
29306,1469892305312,,,,,,,0.01,0.06,0.99,-7.7,-0.3,-0.2,720,76,,,,,,,,,,,,,,,,,
29326,1469892305332,,,,,,,0.01,0.06,0.98,-7.7,-0.2,-0.0,820,76,,,,,,,,,,,,,,,,,
29346,1469892305352,,,,58,,,0.02,0.07,0.99,-7.7,-0.1,0.2,840,83,10.12,0,39.536671,-122.332237,0.94,0.001,299.2,11,3,1.3,0,0.0,-1,0.0,,0.0,0
29366,1469892305372,,,,,,,0.02,0.08,1.0,-7.7,-0.3,0.3,880,86,,,,,,,,,,,,,,,,,
29386,1469892305392,,,,,,,0.01,0.07,1.01,-7.6,-0.2,0.2,960,81,,,,,,,,,,,,,,,,,
29406,1469892305412,,,,,,,-0.0,0.07,1.01,-7.5,-0.3,0.1,1040,78,,,,,,,,,,,,,,,,,
29426,1469892305432,,,,,,,-0.01,0.08,1.01,-7.4,-0.3,0.2,1060,89,,,,,,,,,,,,,,,,,
29446,1469892305452,0,102.8,128.5,57,123.6,,-0.0,0.09,1.0,-7.5,-0.5,0.3,1100,87,12.36,0,39.536671,-122.332237,0.94,0.001,299.2,11,3,1.3,0,0.0,-1,0.0,0.0,0.0,0
29466,1469892305472,,,,,,,0.01,0.09,0.99,-7.5,-0.4,0.3,1200,86,,,,,,,,,,,,,,,,,
29486,1469892305396,,,,,,,0.01,0.08,0.99,-7.3,-0.2,0.3,1280,83,,,,,,,,,,,,,,,,,
29506,1469892305416,,,,,,,0.0,0.09,0.99,-7.2,-0.7,0.3,1360,86,,,,,,,,,,,,,,,,,
29526,1469892305436,,,,,,,0.01,0.09,0.98,-7.3,-0.7,0.3,1460,90,,,,,,,,,,,,,,,,,
29546,1469892305456,,,,62,,,0.01,0.08,0.97,-7.3,-0.5,0.2,1480,89,16.444,0,39.536671,-122.332237,1.4,0.001,298.8,11,3,1.3,0,0.0,-1,0.0,,0.0,0
29566,1469892305476,,,,,,,0.01,0.07,0.97,-7.2,-0.4,0.2,1560,87,,,,,,,,,,,,,,,,,
29586,1469892305497,,,,,,,0.01,0.08,0.96,-7.1,-0.5,0.2,1620,87,,,,,,,,,,,,,,,,,
29606,1469892305517,,,,,,,0.01,0.1,0.97,-7.2,-0.6,0.2,1620,92,,,,,,,,,,,,,,,,,
29626,1469892305537,,,,,,,0.01,0.11,0.96,-7.2,-0.7,0.2,1640,93,,,,,,,,,,,,,,,,,
29646,1469892305557,1,103.0,127.2,61,122.9,,0.0,0.11,0.97,-7.1,-0.5,0.2,1640,90,17.634,0,39.536671,-122.332237,1.09,0.001,297.8,11,3,1.3,0,0.0,-1,0.0,0.0,0.0,0
29666,1469892305577,,,,,,,0.01,0.09,0.99,-7.0,-0.6,0.2,1640,90,,,,,,,,,,,,,,,,,
29686,1469892305596,,,,,,,0.0,0.08,0.98,-6.9,-0.5,0.2,1620,92,,,,,,,,,,,,,,,,,
29706,1469892305616,,,,,,,0.01,0.08,0.99,-7.0,-0.4,0.2,1640,96,,,,,,,,,,,,,,,,,
29726,1469892305636,,,,,,,0.01,0.08,0.99,-7.0,-0.5,0.2,1620,96,,,,,,,,,,,,,,,,,
29746,1469892305656,,,,66,,,0.01,0.08,0.99,-7.0,-0.5,0.2,1600,96,16.667,0,39.536671,-122.332237,1.15,0.001,296.9,11,3,1.3,0,0.0,-1,0.0,,0.0,0
29766,1469892305676,,,,,,,0.01,0.08,0.98,-7.0,-0.5,0.3,1580,95,,,,,,,,,,,,,,,,,
29786,1469892305696,,,,,,,0.01,0.08,0.98,-7.0,-0.5,0.3,1540,98,,,,,,,,,,,,,,,,,
29806,1469892305716,,,,,,,0.01,0.08,0.98,-7.0,-0.5,0.3,1560,100,,,,,,,,,,,,,,,,,
29826,1469892305736,,,,,,,0.01,0.08,0.99,-7.0,-0.4,0.3,1520,100,,,,,,,,,,,,,,,,,
29846,1469892305756,0,100.2,126.8,55,122.9,,0.02,0.08,0.99,-6.9,-0.3,0.3,1500,98,15.306,0,39.536671,-122.332237,1.43,0.001,296.3,11,3,1.3,0,0.0,-1,0.0,0.0,0.0,0
29866,1469892305776,,,,,,,0.01,0.08,0.99,-6.9,-0.4,0.2,1480,98,,,,,,,,,,,,,,,,,
29886,1469892305795,,,,,,,0.02,0.08,0.99,-6.9,-0.4,0.2,1460,101,,,,,,,,,,,,,,,,,
29906,1469892305815,,,,,,,0.02,0.09,0.99,-6.8,-0.5,0.1,1400,104,,,,,,,,,,,,,,,,,
29926,1469892305835,,,,,,,0.02,0.09,0.99,-6.8,-0.3,0.1,1380,101,,,,,,,,,,,,,,,,,
29946,1469892305855,,,,58,,,0.01,0.09,0.98,-6.8,-0.4,0.1,1360,101,13.465,0,39.536671,-122.332237,1.49,0.001,296.4,11,3,1.3,0,0.0,-1,0.0,,0.0,0
29966,1469892305875,,,,,,,0.01,0.08,0.98,-6.8,-0.4,0.1,1340,101,,,,,,,,,,,,,,,,,
29986,1469892305895,,,,,,,0.02,0.08,0.98,-6.8,-0.3,0.1,1180,106,,,,,,,,,,,,,,,,,
30006,1469892305909,,,,,,,0.01,0.09,0.98,-6.8,-0.5,0.1,1280,106,,,,,,,,,,,,,,,,,
30026,1469892305929,,,,,,,0.02,0.08,0.98,-6.8,-0.4,0.1,1240,106,,,,,,,,,,,,,,,,,
30046,1469892305949,0,100.9,128.4,56,124.5,14.55,0.02,0.08,0.98,-6.7,-0.5,0.0,1200,106,11.698,0,39.536671,-122.332237,1.52,0.001,295.6,11,3,1.3,0,0.0,-1,0.0,0.0,0.0,0
30066,1469892305969,,,,,,,0.02,0.09,0.98,-6.7,-0.4,0.0,1180,107,,,,,,,,,,,,,,,,,
30086,1469892306096,,,,,,,0.02,0.08,0.98,-6.7,-0.4,0.0,1140,110,,,,,,,,,,,,,,,,,
30106,1469892306116,,,,,,,0.02,0.09,0.98,-6.6,-0.4,-0.0,1140,109,,,,,,,,,,,,,,,,,
30126,1469892306136,,,,,,,0.02,0.08,0.98,-6.6,-0.3,-0.0,1100,109,,,,,,,,,,,,,,,,,
30146,1469892306156,,,,53,,,0.02,0.08,0.98,-6.5,-0.3,-0.1,1060,110,9.636,0,39.536671,-122.332237,1.75,0.001,295.5,11,3,1.3,0,0.0,-1,0.0,,0.0,0
30166,1469892306176,,,,,,,0.02,0.08,0.98,-6.5,-0.4,-0.1,1040,110,,,,,,,,,,,,,,,,,
30186,1469892306196,,,,,,,0.02,0.08,0.99,-6.4,-0.3,-0.1,1000,113,,,,,,,,,,,,,,,,,
30206,1469892306216,,,,,,,0.02,0.08,0.98,-6.4,-0.4,-0.1,960,113,,,,,,,,,,,,,,,,,
30226,1469892306236,,,,,,,0.02,0.08,0.98,-6.3,-0.5,-0.1,940,110,,,,,,,,,,,,,,,,,
30246,1469892306256,0,99.5,126.9,54,123.4,,0.02,0.09,0.99,-6.3,-0.4,-0.1,920,112,8.214,0,39.536671,-122.332237,1.75,0.001,295.5,11,3,1.3,0,0.0,-1,0.0,0.0,0.0,0
30266,1469892306276,,,,,,,0.02,0.08,0.99,-6.2,-0.5,-0.2,880,116,,,,,,,,,,,,,,,,,
30286,1469892306197,,,,,,,0.02,0.08,0.99,-6.1,-0.5,-0.4,860,115,,,,,,,,,,,,,,,,,
30306,1469892306217,,,,,,,0.02,0.07,1.0,-6.0,-0.4,-0.4,840,118,,,,,,,,,,,,,,,,,
30326,1469892306237,,,,,,,0.02,0.07,0.99,-5.9,-0.4,-0.4,820,120,,,,,,,,,,,,,,,,,
30346,1469892306257,,,,53,,,0.02,0.07,0.99,-5.8,-0.4,-0.4,820,118,6.949,0,39.536667,-122.332237,1.96,0.001,295.5,11,3,1.3,0,0.0,-1,0.0,,0.0,0
30366,1469892306277,,,,,,,0.02,0.08,0.99,-5.8,-0.3,-0.3,800,116,,,,,,,,,,,,,,,,,
30386,1469892306296,,,,,,,0.02,0.08,0.99,-5.6,-0.3,-0.3,700,121,,,,,,,,,,,,,,,,,
30406,1469892306316,,,,,,,0.02,0.07,0.98,-5.5,-0.4,-0.4,800,123,,,,,,,,,,,,,,,,,
30426,1469892306336,,,,,,,0.02,0.06,0.98,-5.4,-0.2,-0.4,800,120,,,,,,,,,,,,,,,,,
30446,1469892306356,0,101.4,126.8,52,123.1,,0.01,0.07,0.98,-5.3,-0.3,-0.2,800,118,6.78,0,39.536667,-122.332237,2.04,0.001,295.5,11,3,1.3,0,0.0,-1,0.0,0.0,0.0,0
30466,1469892306376,,,,,,,0.03,0.08,0.98,-5.3,-0.2,0.0,860,126,,,,,,,,,,,,,,,,,
30486,1469892306397,,,,,,,0.03,0.08,1.0,-5.2,-0.4,0.1,900,126,,,,,,,,,,,,,,,,,
30506,1469892306417,,,,,,,0.03,0.08,1.0,-5.1,-0.4,0.1,960,120,,,,,,,,,,,,,,,,,
30526,1469892306437,,,,,,,0.02,0.07,1.0,-5.0,-0.5,0.0,1020,121,,,,,,,,,,,,,,,,,
30546,1469892306457,,,,59,,,0.01,0.07,1.0,-5.0,-0.5,-0.0,1040,126,8.254,0,39.536667,-122.332237,1.99,0.001,295.7,11,3,1.3,0,0.0,-1,0.0,,0.0,0
30566,1469892306477,,,,,,,0.01,0.08,0.99,-4.9,-0.7,0.1,1100,129,,,,,,,,,,,,,,,,,
30586,1469892306497,,,,,,,0.02,0.1,0.98,-4.8,-0.5,0.1,1220,129,,,,,,,,,,,,,,,,,
30606,1469892306517,,,,,,,0.02,0.09,0.99,-4.5,-0.5,-0.0,1280,126,,,,,,,,,,,,,,,,,
30626,1469892306537,,,,,,,0.01,0.1,0.99,-4.3,-0.7,-0.0,1340,124,,,,,,,,,,,,,,,,,
30646,1469892306557,0,100.5,127.3,59,123.7,,0.02,0.08,0.97,-4.3,-0.6,-0.0,1480,127,11.024,0,39.536667,-122.332237,2.34,0.001,295.7,11,3,1.3,0,0.0,-1,0.0,0.0,0.0,0
30666,1469892306577,,,,,,,0.01,0.08,0.96,-4.2,-0.6,-0.1,1540,132,,,,,,,,,,,,,,,,,
30686,1469892306597,,,,,,,0.01,0.08,0.95,-4.1,-0.7,-0.1,1660,129,,,,,,,,,,,,,,,,,
30706,1469892306617,,,,,,,0.0,0.09,0.96,-4.0,-0.7,-0.1,1760,126,,,,,,,,,,,,,,,,,
30726,1469892306637,,,,,,,-0.0,0.08,0.94,-3.7,-0.4,-0.2,1900,126,,,,,,,,,,,,,,,,,
30746,1469892306657,,,,61,,,0.02,0.08,0.95,-3.6,-0.1,-0.4,1900,132,14.729,0,39.536667,-122.332237,2.23,0.001,295.7,11,3,1.3,0,0.0,-1,0.0,,0.0,0
30766,1469892306677,,,,,,,0.03,0.06,0.95,-3.5,-0.4,-0.4,1860,135,,,,,,,,,,,,,,,,,
30786,1469892306697,,,,,,,0.04,0.05,0.94,-3.4,-0.4,-0.3,1900,133,,,,,,,,,,,,,,,,,
30806,1469892306717,,,,,,,0.03,0.05,0.94,-3.2,-0.9,-0.3,1940,130,,,,,,,,,,,,,,,,,
30826,1469892306737,,,,,,,0.01,0.06,0.95,-3.1,-1.1,-0.2,1920,133,,,,,,,,,,,,,,,,,
30846,1469892306757,0,100.3,127.4,63,123.9,,0.0,0.06,0.96,-2.9,-1.1,-0.2,1900,135,14.074,0,39.536663,-122.332237,2.38,0.001,295.8,11,3,1.3,0,0.0,-1,0.0,0.0,0.0,0
30866,1469892306777,,,,,,,-0.01,0.06,0.97,-2.8,-1.0,-0.2,1920,136,,,,,,,,,,,,,,,,,
30886,1469892306896,,,,,,,-0.02,0.06,0.97,-2.6,-0.8,-0.3,1860,133,,,,,,,,,,,,,,,,,
30906,1469892306916,,,,,,,-0.02,0.06,0.97,-2.5,-0.8,-0.3,1820,133,,,,,,,,,,,,,,,,,
30926,1469892306936,,,,,,,-0.01,0.05,0.97,-2.3,-0.5,-0.4,1780,136,,,,,,,,,,,,,,,,,
30946,1469892306956,,,,63,,,-0.0,0.06,0.97,-2.1,-0.5,-0.3,1780,136,13.088,0,39.536663,-122.332237,2.14,0.001,296.0,11,3,1.3,0,0.0,-1,0.0,,0.0,0
30966,1469892306976,,,,,,,0.0,0.06,0.98,-1.9,-0.6,-0.3,1680,138,,,,,,,,,,,,,,,,,
30986,1469892306996,,,,,,,0.01,0.06,0.98,-1.7,-0.5,-0.3,1640,140,,,,,,,,,,,,,,,,,
31006,1469892307016,,,,,,,0.01,0.06,0.98,-1.6,-0.4,-0.3,1600,141,,,,,,,,,,,,,,,,,
31026,1469892307036,,,,,,,0.0,0.06,0.98,-1.5,-0.6,-0.4,1540,141,,,,,,,,,,,,,,,,,
31046,1469892307056,0,102.1,127.4,58,123.3,14.45,0.0,0.05,0.98,-1.4,-0.4,-0.4,1500,143,10.638,0,39.536663,-122.332237,2.14,0.001,296.0,11,3,1.3,0,0.0,-1,0.0,0.0,0.0,0
31066,1469892307076,,,,,,,-0.0,0.05,0.98,-1.3,-0.5,-0.4,1460,143,,,,,,,,,,,,,,,,,
31086,1469892306995,,,,,,,0.01,0.05,0.99,-1.1,-0.3,-0.4,1440,144,,,,,,,,,,,,,,,,,
31106,1469892307015,,,,,,,0.0,0.05,0.99,-1.0,-0.3,-0.5,1380,143,,,,,,,,,,,,,,,,,
31126,1469892307035,,,,,,,0.0,0.05,0.99,-0.8,-0.3,-0.4,1340,144,,,,,,,,,,,,,,,,,
31146,1469892307055,,,,54,,,0.01,0.04,0.99,-0.6,-0.2,-0.4,1340,143,9.371,0,39.536663,-122.332252,2.09,0.002,296.4,11,3,1.3,0,0.0,-1,0.0,,0.0,0
31166,1469892307075,,,,,,,0.01,0.05,0.99,-0.4,-0.1,-0.5,1260,144,,,,,,,,,,,,,,,,,
31186,1469892307099,,,,,,,0.0,0.05,0.99,-0.2,-0.1,-0.5,1240,146,,,,,,,,,,,,,,,,,
31206,1469892307119,,,,,,,0.01,0.05,1.0,-0.1,-0.1,-0.5,1200,150,,,,,,,,,,,,,,,,,
31226,1469892307139,,,,,,,0.01,0.05,1.0,0.1,-0.1,-0.6,1040,149,,,,,,,,,,,,,,,,,
31246,1469892307159,0,100.6,127.0,53,123.7,,0.01,0.04,1.0,0.3,-0.0,-0.6,1120,146,7.619,0,39.536659,-122.332252,2.11,0.002,296.5,11,3,1.3,0,0.0,-1,0.0,0.0,0.0,0
31266,1469892307179,,,,,,,0.01,0.04,1.0,0.4,-0.0,-0.6,1100,149,,,,,,,,,,,,,,,,,
31286,1469892307197,,,,,,,0.01,0.04,0.99,0.6,-0.1,-0.5,1060,150,,,,,,,,,,,,,,,,,
31306,1469892307217,,,,,,,0.01,0.04,0.99,0.7,-0.2,-0.6,1020,150,,,,,,,,,,,,,,,,,
31326,1469892307237,,,,,,,0.01,0.05,0.99,0.8,-0.1,-0.6,1000,152,,,,,,,,,,,,,,,,,
31346,1469892307257,,,,56,,,0.01,0.05,1.0,0.9,-0.2,-0.6,940,147,6.309,0,39.536659,-122.332252,2.39,0.002,296.5,11,3,1.3,0,0.0,-1,0.0,,0.0,0
31366,1469892307277,,,,,,,0.01,0.05,1.0,1.1,-0.2,-0.6,920,149,,,,,,,,,,,,,,,,,
31386,1469892307297,,,,,,,0.02,0.05,1.0,1.2,-0.3,-0.5,920,158,,,,,,,,,,,,,,,,,
31406,1469892307317,,,,,,,0.02,0.05,1.0,1.4,-0.3,-0.5,880,156,,,,,,,,,,,,,,,,,
31426,1469892307337,,,,,,,0.01,0.04,1.0,1.6,-0.3,-0.5,840,152,,,,,,,,,,,,,,,,,
31446,1469892307357,0,101.5,128.0,52,124.5,,0.01,0.03,1.0,1.8,-0.2,-0.5,840,155,5.526,0,39.536659,-122.332252,2.23,0.002,296.5,11,3,1.3,0,0.0,-1,0.0,0.0,0.0,0
31466,1469892307377,,,,,,,0.02,0.03,1.0,1.9,-0.2,-0.5,840,158,,,,,,,,,,,,,,,,,
31486,1469892307399,,,,,,,0.02,0.03,1.0,2.1,-0.0,-0.4,820,155,,,,,,,,,,,,,,,,,
31506,1469892307419,,,,,,,0.02,0.04,1.0,2.3,-0.0,-0.3,820,153,,,,,,,,,,,,,,,,,
31526,1469892307439,,,,,,,0.02,0.03,1.0,2.5,0.0,-0.3,800,156,,,,,,,,,,,,,,,,,
31546,1469892307459,,,,53,,,0.01,0.03,1.0,2.7,0.0,-0.4,800,156,5.063,0,39.536659,-122.332252,2.58,0.002,296.4,11,3,1.3,0,0.0,-1,0.0,,0.0,0
31566,1469892307479,,,,,,,0.02,0.03,1.0,2.8,0.1,-0.3,780,155,,,,,,,,,,,,,,,,,
31586,1469892307497,,,,,,,0.02,0.03,0.99,3.0,0.0,-0.2,780,156,,,,,,,,,,,,,,,,,
31606,1469892307517,,,,,,,0.02,0.03,1.0,3.2,0.1,-0.1,760,161,,,,,,,,,,,,,,,,,
31626,1469892307537,,,,,,,0.03,0.03,1.01,3.3,0.1,-0.1,780,160,,,,,,,,,,,,,,,,,
31646,1469892307557,0,100.5,127.0,53,124.2,,0.02,0.03,1.0,3.5,-0.0,-0.1,760,155,5.032,0,39.536659,-122.332252,2.39,0.002,296.3,11,3,1.3,0,0.0,-1,0.0,0.0,0.0,0
31666,1469892307577,,,,,,,0.02,0.03,1.01,3.7,0.0,-0.1,760,158,,,,,,,,,,,,,,,,,
31686,1469892307698,,,,,,,0.02,0.03,1.01,3.8,0.1,0.0,740,163,,,,,,,,,,,,,,,,,
31706,1469892307718,,,,,,,0.02,0.04,1.01,4.0,0.1,0.0,780,160,,,,,,,,,,,,,,,,,
31726,1469892307738,,,,,,,0.02,0.04,1.01,4.2,0.0,-0.1,800,152,,,,,,,,,,,,,,,,,
31746,1469892307758,,,,55,,,0.01,0.03,1.01,4.4,0.1,-0.3,840,160,5.161,0,39.536655,-122.332252,2.57,0.003,296.3,11,3,1.3,0,0.0,-1,0.0,,0.0,0
31766,1469892307778,,,,,,,0.02,0.02,1.0,4.6,0.1,-0.3,900,164,,,,,,,,,,,,,,,,,
31786,1469892307798,,,,,,,0.01,0.01,0.99,4.7,0.1,-0.1,960,163,,,,,,,,,,,,,,,,,
31806,1469892307818,,,,,,,0.01,0.01,0.98,4.7,0.2,0.1,1040,161,,,,,,,,,,,,,,,,,
31826,1469892307838,,,,,,,-0.0,0.01,0.98,4.8,0.2,0.2,1100,163,,,,,,,,,,,,,,,,,
31846,1469892307858,0,102.0,127.6,54,123.5,,-0.02,0.01,0.98,4.9,0.0,0.2,1140,161,6.832,0,39.536655,-122.332252,2.57,0.003,296.3,11,3,1.3,0,0.0,-1,0.0,0.0,0.0,0
31866,1469892307878,,,,,,,-0.01,0.01,0.98,5.0,-0.5,0.1,1160,163,,,,,,,,,,,,,,,,,
31886,1469892307797,,,,,,,-0.0,0.02,0.99,5.1,-0.5,0.1,1220,164,,,,,,,,,,,,,,,,,
31906,1469892307817,,,,,,,0.0,0.03,0.98,5.2,-0.4,0.1,1260,163,,,,,,,,,,,,,,,,,
31926,1469892307837,,,,,,,0.01,0.02,0.97,5.4,-0.3,-0.0,1280,163,,,,,,,,,,,,,,,,,
31946,1469892307857,,,,57,,,0.01,0.0,0.98,5.6,-0.1,-0.1,1280,161,7.95,0,39.536655,-122.332252,2.42,0.003,296.4,11,3,1.3,0,0.0,-1,0.0,,0.0,0
31966,1469892307877,,,,,,,0.02,-0.0,0.99,5.7,-0.0,-0.1,1280,167,,,,,,,,,,,,,,,,,
31986,1469892307897,,,,,,,0.02,0.0,0.99,5.9,-0.2,-0.2,1320,169,,,,,,,,,,,,,,,,,
32006,1469892307907,,,,,,,0.01,0.01,0.99,6.1,-0.1,-0.4,1320,169,,,,,,,,,,,,,,,,,
32026,1469892307927,,,,,,,0.01,0.01,0.99,6.3,-0.2,-0.4,1340,163,,,,,,,,,,,,,,,,,
32046,1469892307947,0,101.7,128.0,59,124.5,14.6,0.02,0.01,0.99,6.5,-0.1,-0.4,1340,164,8.098,0,39.536655,-122.332252,2.61,0.003,296.5,11,3,1.3,0,0.0,-1,0.0,0.0,0.0,0
32066,1469892307967,,,,,,,0.02,0.01,0.98,6.6,-0.4,-0.4,1340,167,,,,,,,,,,,,,,,,,
32086,1469892307998,,,,,,,0.01,0.02,0.98,6.8,-0.5,-0.3,1360,169,,,,,,,,,,,,,,,,,
32106,1469892308018,,,,,,,0.02,0.01,0.97,7.0,-0.6,-0.1,1360,167,,,,,,,,,,,,,,,,,
32126,1469892308038,,,,,,,0.02,0.01,0.98,7.1,-0.7,0.0,1340,166,,,,,,,,,,,,,,,,,
32146,1469892308058,,,,55,,,0.02,0.01,0.98,7.3,-0.8,0.2,1340,172,8.024,0,39.536655,-122.332252,2.63,0.003,296.7,11,3,1.3,0,0.0,-1,0.0,,0.0,0
32166,1469892308078,,,,,,,0.02,0.01,0.98,7.5,-0.9,0.2,1340,173,,,,,,,,,,,,,,,,,
32186,1469892308098,,,,,,,0.02,0.01,0.99,7.6,-0.9,0.3,1320,172,,,,,,,,,,,,,,,,,
32206,1469892308118,,,,,,,0.03,0.01,1.0,7.8,-0.8,0.2,1300,170,,,,,,,,,,,,,,,,,
32226,1469892308138,,,,,,,0.02,0.02,1.0,8.0,-0.8,0.2,1300,170,,,,,,,,,,,,,,,,,
32246,1469892308158,0,101.1,127.5,58,124.6,,0.03,0.02,1.0,8.2,-0.8,0.1,1280,172,7.442,0,39.536652,-122.33226,2.65,0.003,296.8,11,3,1.3,0,0.0,-1,0.0,0.0,0.0,0
32266,1469892308178,,,,,,,0.03,0.03,1.01,8.4,-0.7,0.0,1280,172,,,,,,,,,,,,,,,,,
32286,1469892308199,,,,,,,0.03,0.03,1.0,8.7,-0.5,-0.1,1260,173,,,,,,,,,,,,,,,,,
32306,1469892308219,,,,,,,0.03,0.02,1.0,8.9,-0.4,-0.2,1140,172,,,,,,,,,,,,,,,,,
32326,1469892308239,,,,,,,0.03,0.02,0.99,9.2,-0.3,-0.6,1240,176,,,,,,,,,,,,,,,,,
32346,1469892308259,,,,61,,,0.03,0.01,0.98,9.5,-0.3,-1.1,1220,176,6.932,0,39.536652,-122.33226,2.77,0.003,296.9,11,3,1.3,0,0.0,-1,0.0,,0.0,0
32366,1469892308279,,,,,,,0.03,0.01,0.97,9.8,-0.5,-1.5,1200,176,,,,,,,,,,,,,,,,,
32386,1469892308299,,,,,,,0.03,0.01,0.97,10.1,-0.5,-1.9,1180,178,,,,,,,,,,,,,,,,,
32406,1469892308319,,,,,,,0.03,0.01,0.98,10.4,-0.5,-2.1,1160,176,,,,,,,,,,,,,,,,,
32426,1469892308339,,,,,,,0.03,0.01,0.98,10.6,-0.6,-2.1,1140,176,,,,,,,,,,,,,,,,,
32446,1469892308359,0,100.9,127.1,55,123.9,,0.03,0.01,0.99,10.8,-0.6,-2.1,1120,173,6.364,0,39.536652,-122.33226,2.68,0.003,297.0,11,3,1.3,0,0.0,-1,0.0,0.0,0.0,0
32466,1469892308379,,,,,,,0.04,0.0,1.0,11.0,-0.6,-2.1,1100,176,,,,,,,,,,,,,,,,,
32486,1469892308497,,,,,,,0.04,0.0,1.0,11.1,-0.6,-2.0,1100,184,,,,,,,,,,,,,,,,,
32506,1469892308517,,,,,,,0.05,-0.0,1.01,11.3,-0.4,-2.0,1080,181,,,,,,,,,,,,,,,,,
32526,1469892308537,,,,,,,0.05,-0.0,1.01,11.4,-0.3,-2.0,1060,180,,,,,,,,,,,,,,,,,
32546,1469892308557,,,,54,,,0.06,-0.01,1.01,11.6,-0.1,-1.8,1040,175,5.955,0,39.536652,-122.33226,3.37,0.003,297.3,11,3,1.3,0,0.0,-1,0.0,,0.0,0
32566,1469892308577,,,,,,,0.06,-0.01,1.02,11.9,-0.1,-1.7,1040,173,,,,,,,,,,,,,,,,,
32586,1469892308597,,,,,,,0.06,-0.01,1.01,12.2,-0.0,-1.6,1020,176,,,,,,,,,,,,,,,,,
32606,1469892308617,,,,,,,0.06,-0.01,1.01,12.5,-0.1,-1.3,1000,178,,,,,,,,,,,,,,,,,
32626,1469892308637,,,,,,,0.06,-0.01,1.0,12.8,-0.0,-1.2,1000,173,,,,,,,,,,,,,,,,,
32646,1469892308657,0,100.6,127.2,53,124.3,,0.06,-0.01,1.0,13.1,-0.0,-1.0,980,173,5.814,0,39.536652,-122.33226,3.37,0.003,297.3,11,3,1.3,0,0.0,-1,0.0,0.0,0.0,0
32666,1469892308677,,,,,,,0.06,-0.01,0.99,13.4,-0.1,-0.9,980,178,,,,,,,,,,,,,,,,,
32686,1469892308597,,,,,,,0.06,-0.01,0.99,13.6,-0.1,-0.8,980,178,,,,,,,,,,,,,,,,,
32706,1469892308617,,,,,,,0.06,-0.01,0.99,13.9,-0.2,-0.7,980,176,,,,,,,,,,,,,,,,,
32726,1469892308637,,,,,,,0.06,-0.0,0.98,14.0,-0.2,-0.5,960,176,,,,,,,,,,,,,,,,,
32746,1469892308657,,,,53,,,0.06,-0.01,0.99,14.2,-0.2,-0.4,960,173,5.486,0,39.536652,-122.33226,3.27,0.003,297.5,11,3,1.3,0,0.0,-1,0.0,,0.0,0
32766,1469892308677,,,,,,,0.06,-0.01,0.98,14.4,-0.3,-0.2,940,175,,,,,,,,,,,,,,,,,
32786,1469892308698,,,,,,,0.06,-0.0,0.98,14.5,-0.3,0.0,940,176,,,,,,,,,,,,,,,,,
32806,1469892308718,,,,,,,0.06,0.01,0.98,14.6,-0.3,0.2,960,175,,,,,,,,,,,,,,,,,
32826,1469892308738,,,,,,,0.06,0.02,0.99,14.8,-0.2,0.3,880,178,,,,,,,,,,,,,,,,,
32846,1469892308758,0,100.8,127.4,57,124.5,,0.05,0.03,0.99,14.9,-0.1,0.3,960,181,5.333,0,39.536652,-122.33226,3.13,0.003,297.8,11,3,1.3,0,0.0,-1,0.0,0.0,0.0,0
32866,1469892308778,,,,,,,0.06,0.03,1.0,15.1,0.0,0.3,960,178,,,,,,,,,,,,,,,,,
32886,1469892308799,,,,,,,0.07,0.04,0.99,15.2,-0.0,0.3,980,176,,,,,,,,,,,,,,,,,
32906,1469892308819,,,,,,,0.07,0.04,0.99,15.3,-0.2,0.2,980,178,,,,,,,,,,,,,,,,,
32926,1469892308839,,,,,,,0.08,0.04,0.99,15.4,-0.4,0.2,1020,178,,,,,,,,,,,,,,,,,
32946,1469892308859,,,,55,,,0.08,0.05,0.99,15.5,-0.4,0.2,1060,180,5.955,0,39.536652,-122.33226,2.87,0.003,298.1,11,3,1.3,0,0.0,-1,0.0,,0.0,0
32966,1469892308879,,,,,,,0.08,0.04,0.99,15.5,-0.2,0.1,1140,183,,,,,,,,,,,,,,,,,
32986,1469892308891,,,,,,,0.08,0.04,0.99,15.6,-0.2,-0.0,1180,181,,,,,,,,,,,,,,,,,
33006,1469892308911,,,,,,,0.06,0.04,1.0,15.7,-0.5,-0.1,1180,183,,,,,,,,,,,,,,,,,
33026,1469892308931,,,,,,,0.06,0.03,0.99,15.9,-0.7,-0.3,1200,184,,,,,,,,,,,,,,,,,
33046,1469892308951,0,102.0,128.1,57,124.3,14.5,0.07,0.03,0.99,16.0,-0.5,-0.3,1200,183,6.557,0,39.536652,-122.33226,3.14,0.003,298.6,11,3,1.3,0,0.0,-1,0.0,0.0,0.0,0
33066,1469892308971,,,,,,,0.06,0.03,0.98,16.0,-0.6,-0.2,1220,183,,,,,,,,,,,,,,,,,
33086,1469892308996,,,,,,,0.07,0.03,0.98,16.1,-0.6,-0.2,1220,180,,,,,,,,,,,,,,,,,
33106,1469892309016,,,,,,,0.06,0.01,0.99,16.2,-0.7,-0.2,1200,181,,,,,,,,,,,,,,,,,
33126,1469892309036,,,,,,,0.06,0.02,0.98,16.3,-0.8,-0.2,1200,183,,,,,,,,,,,,,,,,,
33146,1469892309056,,,,54,,,0.06,0.01,0.98,16.4,-0.8,-0.2,1220,186,6.63,0,39.536652,-122.332275,3.18,0.004,299.4,11,3,1.3,0,0.0,-1,0.0,,0.0,0
33166,1469892309076,,,,,,,0.06,0.01,0.97,16.4,-0.9,-0.2,1220,189,,,,,,,,,,,,,,,,,
33186,1469892309097,,,,,,,0.06,-0.0,0.97,16.5,-0.9,-0.2,1220,186,,,,,,,,,,,,,,,,,
33206,1469892309117,,,,,,,0.05,-0.01,0.97,16.6,-1.0,-0.2,1220,186,,,,,,,,,,,,,,,,,
33226,1469892309137,,,,,,,0.05,0.0,0.98,16.6,-1.1,-0.1,1220,184,,,,,,,,,,,,,,,,,
33246,1469892309157,0,101.7,127.9,57,124.9,,0.05,0.0,0.98,16.7,-1.0,-0.0,1220,186,6.63,0,39.536652,-122.332275,3.1,0.004,300.3,11,3,1.3,0,0.0,-1,0.0,0.0,0.0,0
33266,1469892309177,,,,,,,0.05,-0.01,0.98,16.7,-1.0,-0.0,1220,189,,,,,,,,,,,,,,,,,
33286,1469892309298,,,,,,,0.05,-0.01,0.99,16.8,-0.9,-0.1,1180,184,,,,,,,,,,,,,,,,,
33306,1469892309318,,,,,,,0.05,-0.01,0.99,16.9,-1.0,-0.2,1180,186,,,,,,,,,,,,,,,,,
33326,1469892309338,,,,,,,0.06,0.0,1.0,16.9,-0.9,-0.3,1180,189,,,,,,,,,,,,,,,,,
33346,1469892309358,,,,55,,,0.06,0.0,1.0,17.0,-0.8,-0.3,1200,192,6.211,0,39.536652,-122.332275,3.01,0.004,301.5,11,3,1.3,0,0.0,-1,0.0,,0.0,0
33366,1469892309378,,,,,,,0.06,-0.0,1.0,17.0,-0.6,-0.3,1180,192,,,,,,,,,,,,,,,,,
33386,1469892309398,,,,,,,0.05,-0.0,1.0,17.1,-0.6,-0.3,1180,187,,,,,,,,,,,,,,,,,
33406,1469892309418,,,,,,,0.05,-0.0,1.0,17.2,-0.7,-0.4,1180,186,,,,,,,,,,,,,,,,,
33426,1469892309438,,,,,,,0.06,0.0,1.0,17.2,-0.6,-0.4,1180,187,,,,,,,,,,,,,,,,,
33446,1469892309458,0,101.6,127.9,57,124.9,,0.05,0.0,1.0,17.2,-0.5,-0.4,1100,190,6.243,0,39.536652,-122.332275,3.01,0.004,301.5,11,3,1.3,0,0.0,-1,0.0,0.0,0.0,0
33466,1469892309478,,,,,,,0.05,-0.0,0.99,17.3,-0.6,-0.4,1180,195,,,,,,,,,,,,,,,,,
33486,1469892309398,,,,,,,0.05,0.0,0.99,17.3,-0.6,-0.5,1180,195,,,,,,,,,,,,,,,,,
33506,1469892309418,,,,,,,0.05,-0.0,0.98,17.3,-0.8,-0.5,1160,195,,,,,,,,,,,,,,,,,
33526,1469892309438,,,,,,,0.05,-0.0,0.98,17.4,-0.9,-0.6,1140,190,,,,,,,,,,,,,,,,,
33546,1469892309458,,,,53,,,0.05,-0.0,0.98,17.4,-0.7,-0.6,1160,189,6.138,0,39.536652,-122.332275,2.75,0.004,301.9,11,3,1.3,0,0.0,-1,0.0,,0.0,0
33566,1469892309478,,,,,,,0.06,-0.0,0.98,17.4,-0.7,-0.6,1140,192,,,,,,,,,,,,,,,,,
33586,1469892309500,,,,,,,0.06,-0.01,0.98,17.5,-0.5,-0.6,1140,192,,,,,,,,,,,,,,,,,
33606,1469892309520,,,,,,,0.06,-0.01,0.98,17.5,-0.4,-0.6,1120,193,,,,,,,,,,,,,,,,,
33626,1469892309540,,,,,,,0.05,-0.01,0.99,17.6,-0.6,-0.6,1120,195,,,,,,,,,,,,,,,,,
33646,1469892309560,0,100.8,127.0,50,123.9,,0.06,-0.01,0.99,17.7,-0.6,-0.6,1120,196,5.744,0,39.536652,-122.332275,3.15,0.004,302.5,11,3,1.3,0,0.0,-1,0.0,0.0,0.0,0
33666,1469892309580,,,,,,,0.07,-0.01,1.0,17.7,-0.5,-0.6,1120,200,,,,,,,,,,,,,,,,,
33686,1469892309599,,,,,,,0.06,-0.01,1.0,17.8,-0.4,-0.5,1120,195,,,,,,,,,,,,,,,,,
33706,1469892309619,,,,,,,0.07,-0.01,1.01,17.8,-0.5,-0.4,1120,190,,,,,,,,,,,,,,,,,
33726,1469892309639,,,,,,,0.07,-0.0,1.01,17.8,-0.4,-0.2,1100,190,,,,,,,,,,,,,,,,,
33746,1469892309659,,,,51,,,0.07,-0.0,1.01,17.8,-0.2,-0.1,1120,187,5.882,0,39.536652,-122.332291,2.8,0.005,303.1,11,3,1.3,0,0.0,-1,0.0,,0.0,0
33766,1469892309679,,,,,,,0.07,-0.01,1.0,17.8,-0.2,0.1,1120,187,,,,,,,,,,,,,,,,,
33786,1469892309699,,,,,,,0.06,-0.01,1.0,17.8,-0.3,0.2,1100,187,,,,,,,,,,,,,,,,,
33806,1469892309719,,,,,,,0.07,-0.01,1.0,17.9,-0.3,0.2,1100,186,,,,,,,,,,,,,,,,,
33826,1469892309739,,,,,,,0.07,-0.01,1.0,17.9,-0.3,0.2,1100,193,,,,,,,,,,,,,,,,,
33846,1469892309759,0,100.8,127.1,52,124.1,,0.07,-0.0,1.0,17.9,-0.0,0.1,1100,200,5.556,0,39.536655,-122.332291,2.85,0.005,303.5,11,3,1.3,0,0.0,-1,0.0,0.0,0.0,0
33866,1469892309779,,,,,,,0.07,0.0,0.99,18.0,-0.1,-0.0,1100,201,,,,,,,,,,,,,,,,,
33886,1469892309799,,,,,,,0.07,-0.0,0.98,18.1,0.0,-0.3,1100,200,,,,,,,,,,,,,,,,,
33906,1469892309819,,,,,,,0.07,0.01,0.98,18.1,0.1,-0.4,1100,195,,,,,,,,,,,,,,,,,
33926,1469892309839,,,,,,,0.07,0.01,0.98,18.2,0.2,-0.5,1080,193,,,,,,,,,,,,,,,,,
33946,1469892309859,,,,52,,,0.06,0.0,0.99,18.2,0.2,-0.4,1080,193,5.596,0,39.536655,-122.332291,3.95,0.005,304.1,11,3,1.3,0,0.0,-1,0.0,,0.0,0
33966,1469892309879,,,,,,,0.06,0.0,0.99,18.2,0.0,-0.4,1060,193,,,,,,,,,,,,,,,,,
33986,1469892309892,,,,,,,0.06,-0.0,0.99,18.2,-0.2,-0.5,1080,200,,,,,,,,,,,,,,,,,
34006,1469892309912,,,,,,,0.06,-0.0,0.99,18.2,-0.4,-0.8,1060,198,,,,,,,,,,,,,,,,,
34026,1469892309932,,,,,,,0.06,-0.01,0.99,18.2,-0.5,-1.0,1060,195,,,,,,,,,,,,,,,,,
34046,1469892309952,0,101.5,127.7,52,124.7,14.6,0.06,-0.01,0.99,18.2,-0.5,-1.2,1040,192,5.389,0,39.536655,-122.332291,3.16,0.005,304.4,11,3,1.3,0,0.0,-1,0.0,0.0,0.0,0
34066,1469892309972,,,,,,,0.06,-0.01,0.99,18.2,-0.6,-1.2,1040,190,,,,,,,,,,,,,,,,,
34086,1469892310096,,,,,,,0.06,-0.02,1.0,18.2,-0.6,-1.2,1040,193,,,,,,,,,,,,,,,,,
34106,1469892310116,,,,,,,0.06,-0.02,1.0,18.2,-0.6,-0.9,1040,198,,,,,,,,,,,,,,,,,
34126,1469892310136,,,,,,,0.06,-0.04,1.0,18.2,-0.5,-0.7,1020,203,,,,,,,,,,,,,,,,,
34146,1469892310156,,,,50,,,0.07,-0.04,0.99,18.2,-0.5,-0.5,1020,204,5.0,0,39.536655,-122.332291,2.76,0.005,304.6,11,3,1.3,0,0.0,-1,0.0,,0.0,0
34166,1469892310176,,,,,,,0.07,-0.03,1.0,18.1,-0.5,-0.5,1000,204,,,,,,,,,,,,,,,,,
34186,1469892310196,,,,,,,0.07,-0.03,1.0,18.1,-0.6,-0.5,1000,196,,,,,,,,,,,,,,,,,
34206,1469892310216,,,,,,,0.07,-0.02,1.0,18.2,-0.7,-0.5,1000,195,,,,,,,,,,,,,,,,,
34226,1469892310236,,,,,,,0.08,-0.01,1.0,18.2,-0.7,-0.6,1000,193,,,,,,,,,,,,,,,,,
34246,1469892310256,0,100.9,127.0,57,123.9,,0.08,0.0,1.0,18.3,-0.8,-0.6,1000,192,5.208,0,39.536655,-122.332291,2.76,0.005,304.6,11,3,1.3,0,0.0,-1,0.0,0.0,0.0,0
34266,1469892310276,,,,,,,0.08,0.02,1.0,18.3,-0.9,-0.5,1000,195,,,,,,,,,,,,,,,,,
34286,1469892310197,,,,,,,0.08,0.02,1.0,18.4,-1.0,-0.4,980,201,,,,,,,,,,,,,,,,,
34306,1469892310217,,,,,,,0.08,0.02,0.99,18.4,-1.0,-0.4,1000,200,,,,,,,,,,,,,,,,,
34326,1469892310237,,,,,,,0.09,0.02,0.99,18.4,-0.9,-0.4,1000,196,,,,,,,,,,,,,,,,,
34346,1469892310257,,,,55,,,0.08,0.03,0.99,18.3,-0.9,-0.5,1020,195,5.231,0,39.536655,-122.332291,2.51,0.005,304.5,11,3,1.3,0,0.0,-1,0.0,,0.0,0
34366,1469892310277,,,,,,,0.09,0.03,0.98,18.3,-0.8,-0.6,980,193,,,,,,,,,,,,,,,,,
34386,1469892310299,,,,,,,0.09,0.03,0.98,18.2,-0.8,-0.7,1000,196,,,,,,,,,,,,,,,,,
34406,1469892310319,,,,,,,0.09,0.03,0.98,18.1,-0.7,-0.6,1040,203,,,,,,,,,,,,,,,,,
34426,1469892310339,,,,,,,0.09,0.03,0.97,18.1,-0.6,-0.6,1080,204,,,,,,,,,,,,,,,,,
34446,1469892310359,0,100.9,127.3,55,124.6,,0.09,0.01,0.97,18.1,-0.5,-0.5,1120,203,5.294,0,39.536659,-122.332291,2.83,0.005,304.5,11,3,1.3,0,0.0,-1,0.0,0.0,0.0,0
34466,1469892310379,,,,,,,0.08,0.0,0.97,18.1,-0.4,-0.4,1140,200,,,,,,,,,,,,,,,,,
34486,1469892310400,,,,,,,0.07,-0.0,0.98,18.2,-0.5,-0.4,1160,193,,,,,,,,,,,,,,,,,
34506,1469892310420,,,,,,,0.08,0.0,0.98,18.2,-0.8,-0.4,1180,192,,,,,,,,,,,,,,,,,
34526,1469892310440,,,,,,,0.09,0.01,1.0,18.2,-0.4,-0.4,1260,189,,,,,,,,,,,,,,,,,
34546,1469892310460,,,,59,,,0.09,-0.0,0.99,18.4,-0.4,-0.4,1300,190,6.667,0,39.536659,-122.332291,2.99,0.005,304.4,11,3,1.3,0,0.0,-1,0.0,,0.0,0
34566,1469892310480,,,,,,,0.09,-0.02,1.0,18.5,-0.2,-0.5,1340,196,,,,,,,,,,,,,,,,,
34586,1469892310500,,,,,,,0.08,0.0,1.0,18.5,-0.5,-0.4,1400,198,,,,,,,,,,,,,,,,,
34606,1469892310495,,,,,,,0.08,-0.0,1.0,18.5,-0.4,-0.4,1440,206,,,,,,,,,,,,,,,,,
34626,1469892310515,,,,,,,0.08,-0.01,1.01,18.5,-0.3,-0.3,1500,206,,,,,,,,,,,,,,,,,
34646,1469892310535,0,100.8,127.0,60,124.3,,0.07,-0.02,1.0,18.5,-0.4,-0.3,1440,206,7.282,0,39.536659,-122.332306,3.66,0.006,304.4,11,3,1.3,0,0.0,-1,0.0,0.0,0.0,0
34666,1469892310555,,,,,,,0.07,-0.01,0.99,18.5,-0.3,-0.3,1620,201,,,,,,,,,,,,,,,,,
34686,1469892310599,,,,,,,0.07,0.0,0.99,18.4,-0.2,-0.3,1620,200,,,,,,,,,,,,,,,,,
34706,1469892310619,,,,,,,0.06,-0.01,1.0,18.3,-0.2,-0.4,1700,196,,,,,,,,,,,,,,,,,
34726,1469892310639,,,,,,,0.07,-0.02,0.99,18.4,-0.2,-0.5,1740,193,,,,,,,,,,,,,,,,,
34746,1469892310659,,,,59,,,0.08,-0.01,0.98,18.3,-0.4,-0.7,1840,193,9.43,0,39.536659,-122.332306,3.51,0.006,304.5,11,3,1.3,0,0.0,-1,0.0,,0.0,0
34766,1469892310679,,,,,,,0.07,-0.02,0.97,18.4,-0.5,-0.7,1940,196,,,,,,,,,,,,,,,,,
34786,1469892310699,,,,,,,0.07,-0.03,0.97,18.4,-0.6,-0.7,1940,201,,,,,,,,,,,,,,,,,
34806,1469892310719,,,,,,,0.05,-0.04,0.97,18.3,-0.6,-0.7,2020,201,,,,,,,,,,,,,,,,,
34826,1469892310739,,,,,,,0.05,-0.04,0.98,18.4,-0.7,-0.5,2060,200,,,,,,,,,,,,,,,,,
34846,1469892310759,0,101.3,127.2,61,124.1,,0.03,-0.05,0.98,18.4,-0.7,-0.5,2100,200,10.5,0,39.536663,-122.332306,3.23,0.006,304.6,11,3,1.3,0,0.0,-1,0.0,0.0,0.0,0
34866,1469892310779,,,,,,,0.02,-0.04,0.99,18.4,-0.8,-0.3,2140,201,,,,,,,,,,,,,,,,,
34886,1469892310897,,,,,,,0.01,-0.05,0.98,18.5,-1.1,-0.2,2160,200,,,,,,,,,,,,,,,,,
34906,1469892310917,,,,,,,0.02,-0.04,0.97,18.5,-1.5,-0.1,2200,196,,,,,,,,,,,,,,,,,
34926,1469892310937,,,,,,,0.03,-0.04,0.98,18.5,-1.3,-0.1,2200,195,,,,,,,,,,,,,,,,,
34946,1469892310957,,,,64,,,0.05,-0.03,0.97,18.5,-0.9,-0.1,2300,195,11.399,0,39.536663,-122.332306,3.55,0.006,305.0,11,3,1.3,0,0.0,-1,0.0,,0.0,0
34966,1469892310977,,,,,,,0.05,-0.04,1.0,18.4,-0.6,-0.0,2260,196,,,,,,,,,,,,,,,,,
34986,1469892310997,,,,,,,0.04,-0.03,1.0,18.4,-0.7,0.0,2220,198,,,,,,,,,,,,,,,,,
35006,1469892311017,,,,,,,0.04,-0.02,1.01,18.4,-0.9,0.1,2300,203,,,,,,,,,,,,,,,,,
35026,1469892311037,,,,,,,0.06,-0.03,0.98,18.4,-0.7,0.1,2260,203,,,,,,,,,,,,,,,,,
35046,1469892311057,0,102.3,128.2,61,125.2,14.53,0.05,-0.04,1.0,18.3,-0.2,0.2,2260,200,11.244,0,39.536663,-122.332306,3.55,0.006,305.0,11,3,1.3,0,0.0,-1,0.0,0.0,0.0,0
35066,1469892311077,,,,,,,0.05,-0.04,0.98,18.5,-0.6,0.2,2300,198,,,,,,,,,,,,,,,,,
35086,1469892310999,,,,,,,0.05,-0.04,0.98,18.4,-0.5,0.3,2280,196,,,,,,,,,,,,,,,,,
35106,1469892311019,,,,,,,0.06,-0.05,1.0,18.5,-0.2,0.2,2320,195,,,,,,,,,,,,,,,,,
35126,1469892311039,,,,,,,0.06,-0.03,0.97,18.5,-0.1,0.3,2280,193,,,,,,,,,,,,,,,,,
35146,1469892311059,,,,60,,,0.06,-0.04,0.98,18.5,-0.4,0.4,2280,195,11.692,0,39.536667,-122.332306,3.77,0.007,305.2,11,3,1.3,0,0.0,-1,0.0,,0.0,0
35166,1469892311079,,,,,,,0.07,-0.05,0.98,18.6,-0.3,0.4,2300,198,,,,,,,,,,,,,,,,,
35186,1469892311099,,,,,,,0.06,-0.05,0.96,18.5,0.1,0.4,2320,201,,,,,,,,,,,,,,,,,
35206,1469892311119,,,,,,,0.06,-0.04,0.97,18.5,-0.3,0.5,2380,201,,,,,,,,,,,,,,,,,
35226,1469892311139,,,,,,,0.07,-0.04,0.95,18.4,-0.3,0.5,2360,200,,,,,,,,,,,,,,,,,
35246,1469892311159,0,101.9,128.0,68,125.1,,0.06,-0.04,0.96,18.4,0.0,0.4,2360,198,11.515,0,39.536667,-122.332306,3.78,0.007,305.4,11,3,1.3,0,0.0,-1,0.0,0.0,0.0,0
35266,1469892311179,,,,,,,0.06,-0.01,0.97,18.4,-0.3,0.3,2340,196,,,,,,,,,,,,,,,,,
35286,1469892311198,,,,,,,0.07,-0.03,0.96,18.4,-0.2,0.3,2320,195,,,,,,,,,,,,,,,,,
35306,1469892311218,,,,,,,0.06,-0.03,0.96,18.3,0.2,0.3,2300,195,,,,,,,,,,,,,,,,,
35326,1469892311238,,,,,,,0.06,-0.03,0.95,18.4,-0.0,0.3,2320,195,,,,,,,,,,,,,,,,,
35346,1469892311258,,,,65,,,0.06,-0.03,0.95,18.3,-0.1,0.3,2280,195,11.897,0,39.536667,-122.332306,3.72,0.007,305.4,11,3,1.3,0,0.0,-1,0.0,,0.0,0
35366,1469892311278,,,,,,,0.06,-0.06,0.96,18.3,0.2,0.3,2300,196,,,,,,,,,,,,,,,,,
35386,1469892311299,,,,,,,0.06,-0.04,0.95,18.3,0.1,0.4,2300,196,,,,,,,,,,,,,,,,,
35406,1469892311319,,,,,,,0.07,-0.04,0.95,18.3,0.1,0.4,2240,195,,,,,,,,,,,,,,,,,
35426,1469892311339,,,,,,,0.06,-0.05,0.96,18.3,0.0,0.4,2260,193,,,,,,,,,,,,,,,,,
35446,1469892311359,0,100.9,127.2,62,124.4,,0.06,-0.05,0.97,18.3,-0.1,0.3,2220,193,11.399,0,39.536671,-122.332306,3.7,0.007,305.4,11,3,1.3,0,0.0,-1,0.0,0.0,0.0,0
35466,1469892311379,,,,,,,0.06,-0.04,0.97,18.3,-0.2,0.3,2140,193,,,,,,,,,,,,,,,,,
35486,1469892311396,,,,,,,0.06,-0.04,0.98,18.2,-0.1,0.3,2160,195,,,,,,,,,,,,,,,,,
35506,1469892311416,,,,,,,0.06,-0.04,0.98,18.3,-0.2,0.3,2140,198,,,,,,,,,,,,,,,,,
35526,1469892311436,,,,,,,0.06,-0.05,0.98,18.2,-0.3,0.3,2160,196,,,,,,,,,,,,,,,,,
35546,1469892311456,,,,62,,,0.06,-0.05,0.98,18.2,-0.4,0.3,2120,193,10.872,0,39.536671,-122.332306,3.87,0.007,305.4,11,3,1.3,0,0.0,-1,0.0,,0.0,0
35566,1469892311476,,,,,,,0.06,-0.04,0.98,18.2,-0.3,0.3,2100,192,,,,,,,,,,,,,,,,,
35586,1469892311495,,,,,,,0.07,-0.04,0.99,18.2,-0.3,0.3,2160,192,,,,,,,,,,,,,,,,,
35606,1469892311515,,,,,,,0.08,-0.03,0.98,18.1,-0.1,0.3,2040,190,,,,,,,,,,,,,,,,,
35626,1469892311535,,,,,,,0.07,-0.03,0.97,18.1,-0.0,0.3,2060,190,,,,,,,,,,,,,,,,,
35646,1469892311555,0,102.2,128.2,66,125.3,,0.07,-0.04,0.97,18.1,0.0,0.4,2020,195,10.466,0,39.536671,-122.332306,3.54,0.007,305.5,11,3,1.3,0,0.0,-1,0.0,0.0,0.0,0
35666,1469892311575,,,,,,,0.07,-0.04,0.98,18.1,0.3,0.4,1980,196,,,,,,,,,,,,,,,,,
35686,1469892311695,,,,,,,0.07,-0.03,0.97,18.1,0.3,0.5,2020,193,,,,,,,,,,,,,,,,,
35706,1469892311715,,,,,,,0.06,-0.03,0.96,18.1,0.4,0.4,2060,195,,,,,,,,,,,,,,,,,
35726,1469892311735,,,,,,,0.06,-0.03,0.97,18.0,0.6,0.4,2000,193,,,,,,,,,,,,,,,,,
35746,1469892311755,,,,65,,,0.06,-0.03,0.97,18.1,0.6,0.4,2020,192,10.521,0,39.536674,-122.332306,3.77,0.007,305.7,11,3,1.3,0,0.0,-1,0.0,,0.0,0
35766,1469892311775,,,,,,,0.06,-0.02,0.96,18.1,0.6,0.3,2000,192,,,,,,,,,,,,,,,,,
35786,1469892311795,,,,,,,0.06,-0.02,0.98,18.0,0.7,0.2,1940,190,,,,,,,,,,,,,,,,,
35806,1469892311815,,,,,,,0.05,-0.02,0.96,18.0,0.7,0.1,1980,189,,,,,,,,,,,,,,,,,
35826,1469892311835,,,,,,,0.05,-0.02,0.96,18.0,0.8,-0.0,2000,189,,,,,,,,,,,,,,,,,
35846,1469892311855,0,101.2,127.5,62,124.7,,0.05,-0.02,0.97,17.9,0.9,-0.2,1940,189,10.267,0,39.536674,-122.332306,3.77,0.007,305.7,11,3,1.3,0,0.0,-1,0.0,0.0,0.0,0
35866,1469892311875,,,,,,,0.05,-0.01,0.97,17.9,1.1,-0.3,1900,189,,,,,,,,,,,,,,,,,
35886,1469892311798,,,,,,,0.06,-0.02,0.97,17.9,1.1,-0.4,1940,190,,,,,,,,,,,,,,,,,
35906,1469892311818,,,,,,,0.06,-0.01,0.97,17.9,1.2,-0.4,1920,192,,,,,,,,,,,,,,,,,
35926,1469892311838,,,,,,,0.07,-0.02,0.99,17.8,1.2,-0.5,1940,195,,,,,,,,,,,,,,,,,
35946,1469892311858,,,,60,,,0.07,-0.02,1.01,17.8,1.1,-0.5,2000,198,9.697,0,39.536674,-122.332314,3.71,0.008,305.7,11,3,1.3,0,0.0,-1,0.0,,0.0,0
35966,1469892311878,,,,,,,0.08,-0.02,1.01,17.7,0.9,-0.5,1960,200,,,,,,,,,,,,,,,,,
35986,1469892311892,,,,,,,0.08,-0.01,1.01,17.7,0.7,-0.5,1960,203,,,,,,,,,,,,,,,,,
36006,1469892311912,,,,,,,0.08,-0.01,1.0,17.6,0.6,-0.4,2020,195,,,,,,,,,,,,,,,,,
36026,1469892311932,,,,,,,0.08,-0.01,1.0,17.6,0.4,-0.4,1960,178,,,,,,,,,,,,,,,,,
36046,1469892311952,0,102.6,128.2,63,125.3,14.57,0.08,-0.0,0.99,17.5,0.2,-0.3,1920,178,11.25,0,39.536674,-122.332314,3.95,0.008,305.9,11,3,1.3,0,0.0,-1,0.0,0.0,0.0,0
36066,1469892311972,,,,,,,0.08,-0.0,0.98,17.5,0.0,-0.3,2000,186,,,,,,,,,,,,,,,,,
36086,1469892311999,,,,,,,0.07,-0.0,0.99,17.4,-0.2,-0.2,1980,198,,,,,,,,,,,,,,,,,
36106,1469892312019,,,,,,,0.07,0.01,0.98,17.4,-0.4,-0.2,1920,204,,,,,,,,,,,,,,,,,
36126,1469892312039,,,,,,,0.07,0.01,0.97,17.3,-0.7,-0.1,2020,196,,,,,,,,,,,,,,,,,
36146,1469892312059,,,,58,,,0.06,0.0,0.96,17.3,-0.8,-0.1,2020,181,10.939,0,39.536678,-122.332314,3.48,0.008,306.0,11,3,1.3,0,0.0,-1,0.0,,0.0,0
36166,1469892312079,,,,,,,0.05,-0.0,0.96,17.2,-0.9,-0.1,2060,178,,,,,,,,,,,,,,,,,
36186,1469892312099,,,,,,,0.04,-0.01,0.95,17.1,-1.1,-0.1,2080,189,,,,,,,,,,,,,,,,,
36206,1469892312119,,,,,,,0.03,-0.0,0.96,16.9,-1.1,-0.1,1980,203,,,,,,,,,,,,,,,,,
36226,1469892312139,,,,,,,0.02,0.0,0.95,16.8,-1.3,-0.1,2020,196,,,,,,,,,,,,,,,,,
36246,1469892312159,0,101.4,127.3,59,124.5,,0.02,0.01,0.94,16.6,-1.3,-0.2,2020,186,10.833,0,39.536678,-122.332314,3.6,0.008,306.1,11,3,1.3,0,0.0,-1,0.0,0.0,0.0,0
36266,1469892312179,,,,,,,0.03,0.02,0.95,16.4,-1.5,-0.2,2060,181,,,,,,,,,,,,,,,,,
36286,1469892312200,,,,,,,0.04,0.02,0.96,16.2,-1.5,-0.2,2000,192,,,,,,,,,,,,,,,,,
36306,1469892312220,,,,,,,0.04,0.03,0.97,16.1,-1.7,-0.2,2020,198,,,,,,,,,,,,,,,,,
36326,1469892312240,,,,,,,0.05,0.04,0.95,16.0,-1.6,-0.2,2080,193,,,,,,,,,,,,,,,,,
36346,1469892312260,,,,68,,,0.05,0.02,0.95,15.9,-1.4,-0.2,2120,186,11.398,0,39.536682,-122.332314,3.58,0.008,306.1,11,3,1.3,0,0.0,-1,0.0,,0.0,0
36366,1469892312280,,,,,,,0.05,0.01,0.95,15.8,-1.1,-0.2,2120,187,,,,,,,,,,,,,,,,,
36386,1469892312300,,,,,,,0.06,0.01,0.95,15.7,-0.8,-0.2,2100,193,,,,,,,,,,,,,,,,,
36406,1469892312320,,,,,,,0.06,0.01,0.97,15.6,-0.6,-0.2,2120,200,,,,,,,,,,,,,,,,,
36426,1469892312340,,,,,,,0.05,0.01,0.98,15.4,-0.5,-0.2,2140,193,,,,,,,,,,,,,,,,,
36446,1469892312360,0,101.6,127.8,63,125.0,,0.03,0.01,1.0,15.3,-0.5,-0.1,2180,186,11.64,0,39.536682,-122.332314,3.73,0.008,306.2,11,3,1.3,0,0.0,-1,0.0,0.0,0.0,0
36466,1469892312380,,,,,,,0.03,0.01,0.99,15.2,-1.0,-0.0,2220,186,,,,,,,,,,,,,,,,,
36486,1469892312499,,,,,,,0.04,0.02,1.01,15.0,-1.0,0.1,2280,195,,,,,,,,,,,,,,,,,
36506,1469892312519,,,,,,,0.05,0.02,1.02,14.8,-0.5,0.1,2260,196,,,,,,,,,,,,,,,,,
36526,1469892312539,,,,,,,0.04,-0.0,1.02,14.7,-0.1,0.1,2380,195,,,,,,,,,,,,,,,,,
36546,1469892312559,,,,64,,,0.02,0.02,1.02,14.4,-0.4,0.1,2360,192,12.292,0,39.536686,-122.332314,3.67,0.008,306.4,11,3,1.3,0,0.0,-1,0.0,,0.0,0
36566,1469892312579,,,,,,,0.04,0.04,0.99,14.4,-0.5,0.2,2380,195,,,,,,,,,,,,,,,,,
36586,1469892312599,,,,,,,0.04,0.03,1.0,14.1,0.2,0.2,2460,198,,,,,,,,,,,,,,,,,
36606,1469892312619,,,,,,,0.02,0.02,1.02,14.0,-0.2,0.2,2420,198,,,,,,,,,,,,,,,,,
36626,1469892312639,,,,,,,0.04,0.01,1.02,14.0,0.2,0.0,2440,195,,,,,,,,,,,,,,,,,
36646,1469892312659,0,102.7,127.9,62,124.8,,0.02,0.02,1.01,13.7,0.3,0.1,2520,192,12.812,0,39.536686,-122.332314,3.67,0.008,306.4,11,3,1.3,0,0.0,-1,0.0,0.0,0.0,0
36666,1469892312679,,,,,,,0.04,0.03,0.98,13.6,0.3,0.0,2520,196,,,,,,,,,,,,,,,,,
36686,1469892312599,,,,,,,0.03,0.02,1.01,13.3,0.4,-0.0,2580,203,,,,,,,,,,,,,,,,,
36706,1469892312619,,,,,,,0.02,0.03,1.03,13.3,0.3,-0.2,2580,203,,,,,,,,,,,,,,,,,
36726,1469892312639,,,,,,,0.01,0.03,1.01,13.1,-0.1,-0.3,2620,200,,,,,,,,,,,,,,,,,
36746,1469892312659,,,,65,,,0.01,0.02,1.03,13.0,0.0,-0.3,2660,198,13.232,0,39.53669,-122.332314,3.38,0.009,306.6,11,3,1.3,0,0.0,-1,0.0,,0.0,0
36766,1469892312679,,,,,,,0.02,0.03,1.03,12.9,-0.1,-0.4,2700,201,,,,,,,,,,,,,,,,,
36786,1469892312699,,,,,,,0.02,0.03,1.02,12.6,-0.0,-0.3,2660,206,,,,,,,,,,,,,,,,,
36806,1469892312719,,,,,,,0.02,0.01,1.04,12.6,0.2,-0.3,2720,204,,,,,,,,,,,,,,,,,
36826,1469892312739,,,,,,,0.03,0.02,1.04,12.5,0.1,-0.3,2720,203,,,,,,,,,,,,,,,,,
36846,1469892312759,0,102.6,128.2,61,125.0,,0.03,0.04,1.03,12.2,-0.3,-0.3,2740,206,13.333,0,39.53669,-122.332314,3.48,0.009,306.9,11,3,1.3,0,0.0,-1,0.0,0.0,0.0,0
36866,1469892312779,,,,,,,0.02,0.02,1.04,12.1,-0.1,-0.4,2760,209,,,,,,,,,,,,,,,,,
36886,1469892312798,,,,,,,0.01,0.0,1.03,12.1,0.0,-0.5,2780,207,,,,,,,,,,,,,,,,,
36906,1469892312818,,,,,,,0.01,0.01,1.04,12.1,-0.2,-0.5,2800,203,,,,,,,,,,,,,,,,,
36926,1469892312838,,,,,,,0.01,0.02,1.04,12.0,-0.4,-0.5,2760,201,,,,,,,,,,,,,,,,,
36946,1469892312858,,,,67,,,0.01,-0.0,1.04,11.8,-0.5,-0.5,2800,204,13.627,0,39.53669,-122.332314,3.25,0.009,306.9,11,3,1.3,0,0.0,-1,0.0,,0.0,0
36966,1469892312878,,,,,,,-0.0,-0.0,1.05,11.7,-0.5,-0.4,2800,212,,,,,,,,,,,,,,,,,
36986,1469892312891,,,,,,,0.01,0.01,1.05,11.7,-0.3,-0.3,2780,212,,,,,,,,,,,,,,,,,
37006,1469892312911,,,,,,,0.0,0.0,1.04,11.6,-0.3,-0.2,2780,209,,,,,,,,,,,,,,,,,
37026,1469892312931,,,,,,,0.0,-0.01,1.01,11.4,-0.6,-0.2,2800,207,,,,,,,,,,,,,,,,,
37046,1469892312951,0,101.3,127.3,63,124.7,14.53,0.01,-0.01,1.0,11.2,-0.5,-0.1,2820,210,13.43,0,39.53669,-122.332314,3.48,0.009,307.1,11,3,1.3,0,0.0,-1,0.0,0.0,0.0,0
37066,1469892312971,,,,,,,0.01,-0.02,1.02,11.2,-0.2,0.0,2860,213,,,,,,,,,,,,,,,,,
37086,1469892312999,,,,,,,0.01,0.0,1.03,11.3,-0.1,0.0,2840,210,,,,,,,,,,,,,,,,,
37106,1469892313019,,,,,,,0.02,0.02,1.02,11.3,0.0,0.1,2840,210,,,,,,,,,,,,,,,,,
37126,1469892313039,,,,,,,0.02,0.02,1.01,11.2,0.0,0.1,2840,215,,,,,,,,,,,,,,,,,
37146,1469892313059,,,,72,,,0.0,0.02,1.0,11.0,-0.1,0.2,2920,221,13.211,0,39.536694,-122.332314,3.42,0.009,307.2,11,3,1.3,0,0.0,-1,0.0,,0.0,0
37166,1469892313079,,,,,,,0.0,0.01,1.0,10.9,-0.3,0.3,2920,218,,,,,,,,,,,,,,,,,
37186,1469892313100,,,,,,,-0.0,0.01,1.0,10.9,-0.5,0.3,2920,213,,,,,,,,,,,,,,,,,
37206,1469892313120,,,,,,,-0.0,0.02,0.98,10.7,-0.5,0.3,2920,213,,,,,,,,,,,,,,,,,
37226,1469892313140,,,,,,,-0.0,0.03,0.98,10.7,-0.7,0.2,3040,220,,,,,,,,,,,,,,,,,
37246,1469892313160,0,101.8,127.5,71,124.7,,-0.01,0.03,0.96,10.5,-0.6,0.2,3020,224,13.661,0,39.536694,-122.332314,3.48,0.009,307.3,11,3,1.3,0,0.0,-1,0.0,0.0,0.0,0
37266,1469892313180,,,,,,,-0.01,0.04,0.97,10.4,-0.7,0.2,3040,226,,,,,,,,,,,,,,,,,
37286,1469892313298,,,,,,,-0.02,0.05,0.96,10.2,-0.8,0.2,3120,226,,,,,,,,,,,,,,,,,
37306,1469892313318,,,,,,,-0.03,0.07,0.94,10.0,-0.7,0.1,3140,226,,,,,,,,,,,,,,,,,
37326,1469892313338,,,,,,,-0.03,0.08,0.94,9.9,-0.8,-0.0,3100,226,,,,,,,,,,,,,,,,,
37346,1469892313358,,,,64,,,-0.04,0.08,0.95,9.9,-0.3,-0.2,3240,224,14.107,0,39.536697,-122.332314,3.61,0.009,307.4,11,3,1.3,0,0.0,-1,0.0,,0.0,0
37366,1469892313378,,,,,,,-0.02,0.07,0.98,10.0,-0.2,-0.3,3200,226,,,,,,,,,,,,,,,,,
37386,1469892313398,,,,,,,-0.02,0.03,0.98,10.0,-0.2,-0.3,3260,233,,,,,,,,,,,,,,,,,
37406,1469892313418,,,,,,,-0.03,0.02,0.96,9.8,0.0,-0.2,3280,238,,,,,,,,,,,,,,,,,
37426,1469892313438,,,,,,,-0.04,0.05,0.95,9.6,-0.1,-0.3,3260,235,,,,,,,,,,,,,,,,,
37446,1469892313458,0,101.2,127.4,70,124.9,,-0.04,0.04,0.99,9.5,0.0,-0.4,3280,229,14.261,0,39.536697,-122.332314,3.61,0.009,307.4,11,3,1.3,0,0.0,-1,0.0,0.0,0.0,0
37466,1469892313478,,,,,,,-0.04,-0.01,1.0,9.8,-0.1,-0.4,3340,233,,,,,,,,,,,,,,,,,
37486,1469892313400,,,,,,,-0.05,0.01,0.99,9.8,-0.4,-0.3,3380,238,,,,,,,,,,,,,,,,,
37506,1469892313420,,,,,,,-0.05,0.03,1.03,9.5,-0.1,-0.4,3360,240,,,,,,,,,,,,,,,,,
37526,1469892313440,,,,,,,-0.04,0.0,1.02,9.7,-0.2,-0.2,3420,240,,,,,,,,,,,,,,,,,
37546,1469892313460,,,,73,,,-0.05,0.06,0.99,9.5,-0.3,0.0,3400,243,14.167,0,39.536701,-122.332314,3.51,0.009,307.5,11,3,1.3,0,0.0,-1,0.0,,0.0,0
37566,1469892313480,,,,,,,-0.04,0.02,0.99,9.3,0.2,0.1,3500,241,,,,,,,,,,,,,,,,,
37586,1469892313500,,,,,,,-0.06,0.01,0.95,9.4,0.5,0.3,3440,240,,,,,,,,,,,,,,,,,
37606,1469892313520,,,,,,,-0.06,-0.0,1.0,9.0,0.4,0.2,3440,240,,,,,,,,,,,,,,,,,
37626,1469892313540,,,,,,,-0.06,-0.02,0.98,9.3,0.3,0.2,3500,247,,,,,,,,,,,,,,,,,
37646,1469892313560,0,101.5,127.3,74,124.6,,-0.05,0.03,1.01,9.1,0.6,0.1,3500,255,13.889,0,39.536701,-122.332314,3.7,0.009,307.5,11,3,1.3,0,0.0,-1,0.0,0.0,0.0,0
37666,1469892313580,,,,,,,-0.05,0.0,0.97,9.3,0.4,0.2,3560,252,,,,,,,,,,,,,,,,,
37686,1469892313600,,,,,,,-0.04,0.04,1.01,9.1,0.4,0.1,3480,250,,,,,,,,,,,,,,,,,
37706,1469892313620,,,,,,,-0.05,0.01,0.97,9.2,0.7,0.1,3540,252,,,,,,,,,,,,,,,,,
37726,1469892313640,,,,,,,-0.05,0.04,1.01,8.9,0.5,-0.1,3500,253,,,,,,,,,,,,,,,,,
37746,1469892313660,,,,70,,,-0.05,0.01,0.97,9.1,0.2,-0.2,3500,255,13.49,0,39.536705,-122.332314,3.91,0.01,307.6,11,3,1.3,0,0.0,-1,0.0,,0.0,0
37766,1469892313680,,,,,,,-0.06,0.05,0.97,8.9,0.1,-0.3,3420,261,,,,,,,,,,,,,,,,,
37786,1469892313700,,,,,,,-0.05,0.04,0.98,8.8,0.1,-0.3,3440,264,,,,,,,,,,,,,,,,,
37806,1469892313720,,,,,,,-0.05,0.05,0.97,8.5,0.3,-0.2,3480,258,,,,,,,,,,,,,,,,,
37826,1469892313740,,,,,,,-0.04,0.02,1.0,8.3,0.5,-0.0,3360,258,,,,,,,,,,,,,,,,,
37846,1469892313760,0,102.9,128.5,68,125.4,,-0.05,0.01,0.98,8.3,0.5,0.1,3320,264,13.103,0,39.536705,-122.332314,4.12,0.01,307.8,11,3,1.3,0,0.0,-1,0.0,0.0,0.0,0
37866,1469892313780,,,,,,,-0.06,0.0,1.01,8.2,0.3,0.1,3280,270,,,,,,,,,,,,,,,,,
37886,1469892313800,,,,,,,-0.06,-0.01,1.0,8.2,0.1,0.2,3300,267,,,,,,,,,,,,,,,,,
37906,1469892313820,,,,,,,-0.06,0.02,0.99,8.0,0.0,0.1,3260,269,,,,,,,,,,,,,,,,,
