"Interval"|"ms"|0|0|1,"Utc"|"ms"|0|0|1,"FuelLevel"|"F"|0|100|5,"OilTemp"|"F"|0.0|300.0|5,"Coolant"|"F"|0.0|300.0|5,"OilPress"|"PSI"|0|150|10,"EngineTemp"|"F"|0.0|300.0|5,"Battery"|"Volts"|0.0|20.0|1,"AccelX"|"G"|-3.0|3.0|50,"AccelY"|"G"|-3.0|3.0|50,"AccelZ"|"G"|-3.0|3.0|50,"Yaw"|"Deg/Sec"|-300.0|300.0|50,"Pitch"|"Deg/Sec"|-300.0|300.0|50,"Roll"|"Deg/Sec"|-300.0|300.0|50,"RPM"|""|0|10000|50,"Driveshaft"|"RPM"|0|5000|50,"GearRatio"|""|-5.0|5.0|10,"Gear"|""|-1|5|10,"Latitude"|"Degrees"|-180.0|180.0|10,"Longitude"|"Degrees"|-180.0|180.0|10,"Speed"|"MPH"|0.0|150.0|10,"Distance"|"Miles"|0.0|0.0|10,"Altitude"|"Feet"|0.0|4000.0|10,"GPSSats"|""|0|20|10,"GPSQual"|""|0|5|10,"GPSDOP"|""|0.0|20.0|10,"LapCount"|""|0|0|10,"LapTime"|"Min"|0.0|0.0|10,"Sector"|""|0|0|10,"SectorTime"|"Min"|0.0|0.0|10,"PredTime"|"Min"|0.0|0.0|5,"ElapsedTime"|"Min"|0.0|0.0|10,"CurrentLap"|""|0|0|10
,,,,,,,,,,,,,,,,,,,,,,,,,,,,,,,,
206398,1469891723784,,,,,,,-0.01,0.08,1.0,-2.8,0.3,-0.4,280,0,,,,,,,,,,,,,,,,,
206418,1469891723804,,,,,,,-0.02,0.08,1.0,-2.8,0.4,-0.6,180,0,,,,,,,,,,,,,,,,,
206438,1469891723810,,,,,,,-0.01,0.07,1.0,-2.9,0.3,-0.5,180,0,,,,,,,,,,,,,,,,,
206458,1469891723830,0,72.4,69.4,0,71.5,,-0.01,0.07,0.99,-2.9,0.3,-0.4,180,0,0.0,0,39.540737,-122.332199,0.0,0.001,267.4,11,3,1.3,0,0.0,-1,0.0,0.0,0.0,0
206478,1469891723850,,,,,,,-0.01,0.07,0.99,-2.9,0.2,-0.3,180,0,,,,,,,,,,,,,,,,,
206498,1469891723870,,,,,,,-0.01,0.08,0.99,-2.9,0.2,-0.2,180,0,,,,,,,,,,,,,,,,,
206518,1469891723898,,,,,,,-0.0,0.08,1.0,-2.9,0.4,-0.3,180,0,,,,,,,,,,,,,,,,,
206538,1469891723918,,,,,,,-0.0,0.08,1.0,-2.9,0.2,-0.4,180,0,,,,,,,,,,,,,,,,,
206558,1469891723938,,,,0,,,-0.01,0.07,1.0,-2.8,0.3,-0.4,180,0,0.0,0,39.540737,-122.332199,0.0,0.001,267.4,11,3,1.3,0,0.0,-1,0.0,,0.0,0
206578,1469891723958,,,,,,,-0.01,0.06,1.01,-2.8,0.3,-0.4,180,0,,,,,,,,,,,,,,,,,
206598,1469891723978,,,,,,,-0.01,0.05,1.0,-2.9,0.5,-0.2,180,0,,,,,,,,,,,,,,,,,
206618,1469891724008,,,,,,,-0.01,0.06,1.0,-2.9,0.5,-0.1,180,0,,,,,,,,,,,,,,,,,
206638,1469891724028,,,,,,,-0.01,0.07,1.0,-3.0,0.5,0.0,180,0,,,,,,,,,,,,,,,,,
206658,1469891724048,0,70.3,68.0,0,72.3,,-0.01,0.06,1.0,-3.0,0.7,0.0,180,0,0.0,0,39.540737,-122.332199,0.0,0.001,267.4,11,3,1.3,0,0.0,-1,0.0,0.0,0.0,0
206678,1469891724068,,,,,,,-0.01,0.07,1.01,-3.0,0.6,0.0,180,0,,,,,,,,,,,,,,,,,
206698,1469891724088,,,,,,,-0.01,0.07,1.01,-3.0,0.5,-0.1,180,0,,,,,,,,,,,,,,,,,
206718,1469891724094,,,,,,,-0.02,0.06,1.01,-2.9,0.3,-0.3,180,0,,,,,,,,,,,,,,,,,
206738,1469891724114,,,,,,,-0.02,0.06,1.0,-2.9,0.3,-0.5,180,0,,,,,,,,,,,,,,,,,
206758,1469891724134,,,,0,,,-0.01,0.05,1.0,-2.9,0.2,-0.2,180,0,0.0,0,39.540737,-122.332199,0.0,0.001,267.4,11,3,1.3,0,0.0,-1,0.0,,0.0,0
206778,1469891724154,,,,,,,-0.01,0.05,1.0,-2.9,0.3,0.1,180,0,,,,,,,,,,,,,,,,,
206798,1469891724174,,,,,,,-0.01,0.05,1.01,-2.9,0.2,0.1,280,0,,,,,,,,,,,,,,,,,
206818,1469891724205,,,,,,,-0.01,0.06,1.01,-3.0,0.2,0.1,280,0,,,,,,,,,,,,,,,,,
206838,1469891724225,,,,,,,-0.01,0.06,1.01,-2.9,0.3,0.0,280,16,,,,,,,,,,,,,,,,,
206858,1469891724245,0,70.5,68.5,0,71.1,,-0.01,0.07,1.01,-2.9,0.3,0.1,400,1538461,0.0,0,39.540737,-122.332199,0.0,0.001,267.4,11,3,1.3,0,0.0,-1,0.0,0.0,0.0,0
206878,1469891724265,,,,,,,-0.01,0.07,1.01,-2.9,0.4,0.0,400,0,,,,,,,,,,,,,,,,,
206898,1469891724285,,,,,,,-0.01,0.07,1.01,-3.0,0.5,-0.0,480,0,,,,,,,,,,,,,,,,,
206918,1469891724291,,,,,,,-0.01,0.07,1.0,-3.0,0.4,-0.0,480,0,,,,,,,,,,,,,,,,,
206938,1469891724410,,,,,,,-0.01,0.08,1.0,-3.0,0.4,-0.1,440,0,,,,,,,,,,,,,,,,,
206958,1469891724430,,,,0,,,-0.02,0.07,1.0,-3.0,0.4,-0.1,440,0,0.0,0,39.540737,-122.332199,0.0,0.001,267.4,11,3,1.3,0,0.0,-1,0.0,,0.0,0
206978,1469891724450,,,,,,,-0.02,0.07,1.0,-2.9,0.4,-0.2,460,0,,,,,,,,,,,,,,,,,
206998,1469891724470,,,,,,,-0.02,0.07,1.0,-2.9,0.4,-0.2,460,0,,,,,,,,,,,,,,,,,
207018,1469891724490,,,,,,,-0.02,0.07,0.99,-2.9,0.3,-0.3,480,0,,,,,,,,,,,,,,,,,
207038,1469891724510,,,,,,,-0.02,0.05,1.0,-3.0,0.5,-0.1,480,0,,,,,,,,,,,,,,,,,
207058,1469891724530,0,72.2,70.6,0,72.2,12.75,-0.01,0.06,1.0,-3.0,0.3,0.0,460,0,0.0,0,39.540737,-122.332199,0.0,0.001,267.4,11,3,1.3,0,0.0,-1,0.0,0.0,0.0,0
207078,1469891724550,,,,,,,-0.01,0.06,1.0,-3.0,0.4,0.0,460,0,,,,,,,,,,,,,,,,,
207098,1469891724570,,,,,,,-0.01,0.06,1.01,-3.0,0.4,-0.1,580,0,,,,,,,,,,,,,,,,,
207118,1469891724590,,,,,,,-0.01,0.06,1.01,-3.0,0.4,-0.1,580,0,,,,,,,,,,,,,,,,,
207138,1469891724503,,,,,,,-0.01,0.06,1.01,-3.0,0.5,0.0,520,0,,,,,,,,,,,,,,,,,
207158,1469891724523,,,,0,,,-0.01,0.06,1.01,-3.0,0.4,-0.0,620,0,0.0,0,39.540737,-122.332199,0.0,0.001,267.4,11,3,1.3,0,0.0,-1,0.0,,0.0,0
207178,1469891724543,,,,,,,-0.01,0.07,1.0,-3.0,0.5,0.1,620,0,,,,,,,,,,,,,,,,,
207198,1469891724563,,,,,,,-0.0,0.07,1.01,-3.0,0.5,0.2,720,0,,,,,,,,,,,,,,,,,
207218,1469891724594,,,,,,,-0.0,0.07,1.0,-3.0,0.4,-0.1,800,0,,,,,,,,,,,,,,,,,
207238,1469891724614,,,,,,,-0.01,0.06,1.0,-2.9,0.5,-0.3,780,0,,,,,,,,,,,,,,,,,
207258,1469891724634,0,71.0,69.2,0,72.5,,-0.01,0.06,0.99,-3.0,0.0,-0.3,780,0,0.0,0,39.540737,-122.332199,0.0,0.001,267.4,11,3,1.3,0,0.0,-1,0.0,0.0,0.0,0
207278,1469891724654,,,,,,,-0.01,0.05,0.99,-3.1,0.3,-0.1,880,0,,,,,,,,,,,,,,,,,
207298,1469891724674,,,,,,,-0.01,0.05,1.0,-3.1,0.4,0.1,820,0,,,,,,,,,,,,,,,,,
207318,1469891724703,,,,,,,-0.01,0.05,1.0,-3.0,0.1,0.1,820,0,,,,,,,,,,,,,,,,,
207338,1469891724723,,,,,,,-0.01,0.06,1.0,-3.0,0.1,0.0,860,0,,,,,,,,,,,,,,,,,
207358,1469891724743,,,,0,,,-0.01,0.06,0.99,-3.0,0.2,-0.1,900,0,0.0,0,39.540737,-122.332199,0.0,0.001,267.4,11,3,1.3,0,0.0,-1,0.0,,0.0,0
207378,1469891724763,,,,,,,-0.01,0.05,1.0,-3.0,0.1,-0.2,940,0,,,,,,,,,,,,,,,,,
207398,1469891724783,,,,,,,-0.01,0.05,1.0,-2.9,0.1,-0.2,980,0,,,,,,,,,,,,,,,,,
207418,1469891724803,,,,,,,-0.01,0.05,0.99,-2.9,-0.1,-0.1,980,0,,,,,,,,,,,,,,,,,
207438,1469891724808,,,,,,,-0.02,0.04,0.98,-3.0,-0.2,0.0,1020,0,,,,,,,,,,,,,,,,,
207458,1469891724828,0,70.9,69.5,0,72.5,,-0.02,0.04,0.99,-3.0,-0.1,0.1,1080,0,0.0,0,39.540737,-122.332199,0.0,0.001,267.4,11,3,1.3,0,0.0,-1,0.0,0.0,0.0,0
207478,1469891724848,,,,,,,-0.02,0.03,0.99,-2.9,-0.2,0.1,1100,0,,,,,,,,,,,,,,,,,
207498,1469891724868,,,,,,,-0.02,0.03,0.99,-2.9,-0.2,0.0,1140,0,,,,,,,,,,,,,,,,,
207518,1469891724891,,,,,,,-0.01,0.05,1.0,-2.9,0.0,0.1,1160,0,,,,,,,,,,,,,,,,,
207538,1469891724911,,,,,,,-0.01,0.05,1.0,-2.9,0.1,0.0,1220,0,,,,,,,,,,,,,,,,,
207558,1469891724931,,,,0,,,-0.01,0.05,0.99,-2.9,0.2,0.0,1260,0,0.0,0,39.540737,-122.332199,0.0,0.001,267.4,11,3,1.3,0,0.0,-1,0.0,,0.0,0
207578,1469891724951,,,,,,,-0.01,0.04,1.0,-2.9,0.3,-0.0,1280,0,,,,,,,,,,,,,,,,,
207598,1469891724971,,,,,,,-0.02,0.05,1.0,-2.9,0.2,0.0,1300,0,,,,,,,,,,,,,,,,,
207618,1469891725004,,,,,,,-0.01,0.05,1.0,-3.0,0.3,0.0,1300,0,,,,,,,,,,,,,,,,,
207638,1469891725024,,,,,,,-0.0,0.06,1.0,-2.9,0.3,-0.1,1320,0,,,,,,,,,,,,,,,,,
207658,1469891725044,0,71.0,68.8,0,71.2,,-0.01,0.06,0.99,-2.9,0.2,-0.0,1340,0,0.0,0,39.540737,-122.332199,0.0,0.001,267.4,11,3,1.3,0,0.0,-1,0.0,0.0,0.0,0
207678,1469891725064,,,,,,,-0.01,0.05,0.98,-3.0,0.2,0.1,1340,0,,,,,,,,,,,,,,,,,
207698,1469891725084,,,,,,,-0.0,0.05,0.98,-2.9,0.3,-0.1,1320,0,,,,,,,,,,,,,,,,,
207718,1469891725104,,,,,,,-0.0,0.06,0.97,-2.9,0.2,-0.1,1340,0,,,,,,,,,,,,,,,,,
207738,1469891725206,,,,,,,-0.0,0.06,0.98,-3.0,0.2,-0.1,1340,0,,,,,,,,,,,,,,,,,
207758,1469891725226,,,,0,,,-0.0,0.05,0.98,-3.0,0.3,-0.2,1340,0,0.0,0,39.540737,-122.332199,0.0,0.001,267.4,11,3,1.3,0,0.0,-1,0.0,,0.0,0
207778,1469891725246,,,,,,,0.0,0.07,0.98,-3.0,0.2,-0.2,1280,0,,,,,,,,,,,,,,,,,
207798,1469891725266,,,,,,,-0.0,0.07,0.98,-3.0,0.3,-0.1,1260,0,,,,,,,,,,,,,,,,,
207818,1469891725286,,,,,,,0.01,0.06,0.98,-2.9,0.3,-0.1,1260,0,,,,,,,,,,,,,,,,,
207838,1469891725306,,,,,,,0.0,0.07,0.98,-3.0,0.2,-0.1,1240,0,,,,,,,,,,,,,,,,,
207858,1469891725326,0,71.0,68.9,0,70.9,,0.01,0.06,0.99,-3.0,0.4,-0.1,1220,0,0.0,0,39.540737,-122.332199,0.0,0.001,267.4,11,3,1.3,0,0.0,-1,0.0,0.0,0.0,0
207878,1469891725346,,,,,,,0.0,0.07,0.98,-3.0,0.3,-0.1,1160,0,,,,,,,,,,,,,,,,,
207898,1469891725366,,,,,,,0.0,0.07,0.99,-3.0,0.3,-0.1,1140,0,,,,,,,,,,,,,,,,,
207918,1469891725306,,,,,,,-0.0,0.07,0.99,-3.0,0.5,-0.1,1120,0,,,,,,,,,,,,,,,,,
207938,1469891725326,,,,,,,-0.0,0.07,0.99,-3.0,0.4,-0.1,1100,0,,,,,,,,,,,,,,,,,
207958,1469891725346,,,,0,,,-0.0,0.07,0.99,-2.9,0.3,-0.1,1080,0,0.0,0,39.540737,-122.332199,0.0,0.001,267.4,11,3,1.3,0,0.0,-1,0.0,,0.0,0
207978,1469891725366,,,,,,,-0.0,0.07,0.99,-2.9,0.4,-0.2,1060,0,,,,,,,,,,,,,,,,,
207998,1469891725386,,,,,,,-0.0,0.07,0.98,-3.0,0.4,-0.2,1020,0,,,,,,,,,,,,,,,,,
208018,1469891725391,,,,,,,-0.0,0.07,0.99,-2.9,0.4,-0.2,1000,0,,,,,,,,,,,,,,,,,
208038,1469891725411,,,,,,,-0.0,0.07,0.99,-2.9,0.4,-0.2,980,0,,,,,,,,,,,,,,,,,
208058,1469891725431,0,72.0,70.4,0,72.9,14.51,-0.0,0.08,1.0,-3.0,0.5,-0.1,960,0,0.0,0,39.540737,-122.332199,0.0,0.001,267.4,11,3,1.3,0,0.0,-1,0.0,0.0,0.0,0
208078,1469891725451,,,,,,,-0.01,0.08,0.99,-3.0,0.5,-0.2,940,0,,,,,,,,,,,,,,,,,
208098,1469891725471,,,,,,,-0.01,0.08,1.0,-3.0,0.5,-0.2,920,0,,,,,,,,,,,,,,,,,
208118,1469891725501,,,,,,,-0.01,0.07,0.99,-3.0,0.5,-0.2,900,0,,,,,,,,,,,,,,,,,
208138,1469891725521,,,,,,,-0.01,0.07,1.0,-2.9,0.5,-0.3,900,0,,,,,,,,,,,,,,,,,
208158,1469891725541,,,,0,,,-0.01,0.07,0.99,-2.9,0.4,-0.3,880,0,0.0,0,39.540737,-122.332199,0.0,0.001,267.4,11,3,1.3,0,0.0,-1,0.0,,0.0,0
208178,1469891725561,,,,,,,-0.01,0.07,0.99,-3.0,0.3,-0.2,880,0,,,,,,,,,,,,,,,,,
208198,1469891725581,,,,,,,-0.01,0.07,0.99,-3.0,0.4,-0.0,880,0,,,,,,,,,,,,,,,,,
208218,1469891725601,,,,,,,-0.01,0.07,0.99,-3.0,0.5,0.0,860,0,,,,,,,,,,,,,,,,,
208238,1469891725607,,,,,,,-0.0,0.08,0.99,-3.0,0.4,0.1,860,0,,,,,,,,,,,,,,,,,
208258,1469891725627,0,72.6,70.0,1,70.9,,-0.0,0.08,0.99,-3.0,0.3,0.0,820,0,0.0,0,39.540737,-122.332199,0.0,0.001,267.4,11,3,1.3,0,0.0,-1,0.0,0.0,0.0,0
208278,1469891725647,,,,,,,-0.01,0.07,0.99,-3.0,0.2,-0.0,820,0,,,,,,,,,,,,,,,,,
208298,1469891725667,,,,,,,-0.0,0.08,0.99,-3.0,0.3,-0.1,820,0,,,,,,,,,,,,,,,,,
208318,1469891725697,,,,,,,-0.0,0.07,0.99,-3.0,0.2,-0.1,820,0,,,,,,,,,,,,,,,,,
208338,1469891725717,,,,,,,0.0,0.07,0.99,-3.0,0.3,-0.0,820,0,,,,,,,,,,,,,,,,,
208358,1469891725737,,,,2,,,0.0,0.06,1.0,-3.0,0.3,0.1,800,0,0.0,0,39.540737,-122.332199,0.0,0.001,267.4,11,3,1.3,0,0.0,-1,0.0,,0.0,0
208378,1469891725757,,,,,,,-0.0,0.05,1.0,-2.9,0.2,0.1,800,0,,,,,,,,,,,,,,,,,
208398,1469891725777,,,,,,,-0.01,0.05,1.0,-2.9,0.2,-0.1,800,0,,,,,,,,,,,,,,,,,
208418,1469891725808,,,,,,,-0.01,0.05,1.0,-2.9,0.3,-0.2,820,0,,,,,,,,,,,,,,,,,
208438,1469891725828,,,,,,,-0.01,0.05,1.0,-2.9,0.3,-0.1,820,0,,,,,,,,,,,,,,,,,
208458,1469891725848,0,70.8,68.9,3,72.4,,-0.0,0.06,1.0,-3.0,0.4,0.1,820,0,0.0,0,39.540737,-122.332199,0.0,0.001,267.4,11,3,1.3,0,0.0,-1,0.0,0.0,0.0,0
208478,1469891725868,,,,,,,-0.0,0.06,1.0,-3.0,0.3,0.1,820,0,,,,,,,,,,,,,,,,,
208498,1469891725888,,,,,,,-0.0,0.07,1.01,-3.0,0.3,0.1,840,0,,,,,,,,,,,,,,,,,
208518,1469891725908,,,,,,,-0.01,0.07,1.01,-3.0,0.3,-0.1,860,0,,,,,,,,,,,,,,,,,
208538,1469891726009,,,,,,,-0.01,0.06,1.01,-3.0,0.3,-0.2,860,0,,,,,,,,,,,,,,,,,
208558,1469891726029,,,,6,,,-0.01,0.05,1.0,-2.9,0.2,-0.3,900,0,0.0,0,39.540737,-122.332199,0.0,0.001,267.4,11,3,1.3,0,0.0,-1,0.0,,0.0,0
208578,1469891726049,,,,,,,-0.01,0.05,0.99,-3.0,0.3,-0.1,900,0,,,,,,,,,,,,,,,,,
208598,1469891726069,,,,,,,-0.01,0.05,1.0,-3.0,0.4,0.0,900,0,,,,,,,,,,,,,,,,,
208618,1469891726089,,,,,,,-0.01,0.06,1.0,-3.1,0.5,0.2,920,0,,,,,,,,,,,,,,,,,
208638,1469891726109,,,,,,,-0.0,0.08,0.99,-3.1,0.4,0.3,940,0,,,,,,,,,,,,,,,,,
208658,1469891726129,0,70.9,68.9,11,71.0,,0.01,0.1,1.0,-3.2,0.4,0.3,940,0,0.0,0,39.540737,-122.332199,0.0,0.001,267.4,11,3,1.3,0,0.0,-1,0.0,0.0,0.0,0
208678,1469891726149,,,,,,,0.01,0.11,1.0,-3.2,0.3,0.3,960,0,,,,,,,,,,,,,,,,,
208698,1469891726169,,,,,,,0.0,0.11,1.0,-3.2,0.3,0.3,980,0,,,,,,,,,,,,,,,,,
208718,1469891726108,,,,,,,0.0,0.13,1.0,-3.2,0.2,0.3,960,0,,,,,,,,,,,,,,,,,
208738,1469891726128,,,,,,,0.0,0.13,1.0,-3.3,0.2,0.3,1020,0,,,,,,,,,,,,,,,,,
208758,1469891726148,,,,21,,,0.0,0.13,1.0,-3.3,0.2,0.3,1100,0,0.0,0,39.540737,-122.332199,0.0,0.001,267.4,11,3,1.3,0,0.0,-1,0.0,,0.0,0
208778,1469891726168,,,,,,,0.01,0.14,0.99,-3.4,0.2,0.2,1120,0,,,,,,,,,,,,,,,,,
208798,1469891726188,,,,,,,0.0,0.12,0.99,-3.3,0.4,0.1,1140,0,,,,,,,,,,,,,,,,,
208818,1469891726194,,,,,,,-0.01,0.12,1.0,-3.3,0.3,0.0,1180,0,,,,,,,,,,,,,,,,,
208838,1469891726214,,,,,,,0.0,0.12,1.0,-3.1,0.2,-0.0,1140,0,,,,,,,,,,,,,,,,,
208858,1469891726234,0,70.4,68.6,18,71.1,,0.01,0.13,1.02,-3.2,0.6,-0.0,1180,0,0.0,0,39.540737,-122.332199,0.0,0.001,267.4,11,3,1.3,0,0.0,-1,0.0,0.0,0.0,0
208878,1469891726254,,,,,,,-0.01,0.11,1.01,-3.1,0.5,-0.0,1140,0,,,,,,,,,,,,,,,,,
208898,1469891726274,,,,,,,0.0,0.1,1.01,-3.1,0.4,-0.2,1160,0,,,,,,,,,,,,,,,,,
208918,1469891726305,,,,,,,0.0,0.11,1.02,-3.3,0.6,-0.2,1120,0,,,,,,,,,,,,,,,,,
208938,1469891726325,,,,,,,-0.03,0.1,1.02,-3.3,0.5,-0.2,1160,0,,,,,,,,,,,,,,,,,
208958,1469891726345,,,,48,,,-0.02,0.1,1.02,-3.2,0.2,-0.2,1240,0,0.0,0,39.540737,-122.332199,0.0,0.001,267.4,11,3,1.3,0,0.0,-1,0.0,,0.0,0
208978,1469891726365,,,,,,,-0.01,0.09,1.02,-3.3,0.7,-0.0,1340,0,,,,,,,,,,,,,,,,,
208998,1469891726385,,,,,,,-0.01,0.09,1.0,-3.2,0.5,-0.1,1400,0,,,,,,,,,,,,,,,,,
209018,1469891726392,,,,,,,-0.02,0.1,1.0,-3.3,0.4,-0.1,1520,0,,,,,,,,,,,,,,,,,
209038,1469891726412,,,,,,,-0.02,0.09,1.0,-3.3,0.3,-0.1,1540,0,,,,,,,,,,,,,,,,,
209058,1469891726432,0,72.6,70.3,53,71.6,14.52,-0.02,0.08,0.99,-3.2,0.1,-0.0,1560,0,0.0,0,39.540737,-122.332199,0.0,0.001,267.4,11,3,1.3,0,0.0,-1,0.0,0.0,0.0,0
209078,1469891726452,,,,,,,-0.02,0.09,0.98,-3.2,0.3,-0.0,1580,0,,,,,,,,,,,,,,,,,
209098,1469891726472,,,,,,,-0.02,0.09,0.99,-3.2,0.3,0.0,1620,0,,,,,,,,,,,,,,,,,
209118,1469891726502,,,,,,,-0.03,0.09,0.99,-3.2,0.4,-0.0,1640,0,,,,,,,,,,,,,,,,,
209138,1469891726522,,,,,,,-0.02,0.07,1.01,-3.1,0.3,-0.0,1600,0,,,,,,,,,,,,,,,,,
209158,1469891726542,,,,57,,,-0.03,0.07,1.0,-3.1,0.2,-0.0,1620,0,0.0,0,39.540737,-122.332199,0.0,0.001,267.4,11,3,1.3,0,0.0,-1,0.0,,0.0,0
209178,1469891726562,,,,,,,-0.01,0.08,1.0,-3.2,0.3,-0.1,1600,0,,,,,,,,,,,,,,,,,
209198,1469891726582,,,,,,,-0.02,0.08,0.99,-3.2,0.1,-0.1,1520,0,,,,,,,,,,,,,,,,,
209218,1469891726602,,,,,,,-0.02,0.08,0.99,-3.1,0.2,-0.1,1500,0,,,,,,,,,,,,,,,,,
209238,1469891726608,,,,,,,-0.01,0.08,0.99,-3.1,0.3,-0.1,1440,0,,,,,,,,,,,,,,,,,
209258,1469891726628,0,72.4,70.5,51,72.6,,-0.02,0.08,1.0,-3.1,0.3,-0.1,1400,0,0.0,0,39.540737,-122.332199,0.0,0.001,267.4,11,3,1.3,0,0.0,-1,0.0,0.0,0.0,0
209278,1469891726648,,,,,,,-0.02,0.07,0.99,-3.1,0.2,-0.1,1340,0,,,,,,,,,,,,,,,,,
209298,1469891726668,,,,,,,-0.01,0.07,0.99,-3.1,0.2,-0.1,1300,0,,,,,,,,,,,,,,,,,
209318,1469891726797,,,,,,,-0.01,0.07,1.0,-3.1,0.3,-0.1,1280,0,,,,,,,,,,,,,,,,,
209338,1469891726817,,,,,,,-0.02,0.07,0.99,-3.0,0.1,-0.0,1240,0,,,,,,,,,,,,,,,,,
209358,1469891726837,,,,50,,,-0.02,0.07,1.0,-3.1,0.4,-0.1,1180,0,0.0,0,39.540737,-122.332199,0.0,0.001,267.4,11,3,1.3,0,0.0,-1,0.0,,0.0,0
209378,1469891726857,,,,,,,-0.02,0.07,0.99,-3.0,0.2,-0.0,1140,0,,,,,,,,,,,,,,,,,
209398,1469891726877,,,,,,,-0.02,0.07,0.99,-3.0,0.3,-0.0,1080,0,,,,,,,,,,,,,,,,,
209418,1469891726897,,,,,,,-0.02,0.07,0.99,-3.0,0.2,-0.1,1040,0,,,,,,,,,,,,,,,,,
209438,1469891726917,,,,,,,-0.02,0.07,0.99,-3.0,0.2,-0.1,1000,0,,,,,,,,,,,,,,,,,
209458,1469891726937,0,72.5,70.1,49,71.4,,-0.02,0.07,0.99,-3.0,0.1,-0.1,960,0,0.0,0,39.540737,-122.332199,0.0,0.001,267.4,11,3,1.3,0,0.0,-1,0.0,0.0,0.0,0
209478,1469891726957,,,,,,,-0.02,0.07,0.99,-3.0,0.1,-0.1,920,0,,,,,,,,,,,,,,,,,
209498,1469891726977,,,,,,,-0.02,0.05,0.99,-2.9,0.0,-0.1,880,0,,,,,,,,,,,,,,,,,
209518,1469891726891,,,,,,,-0.02,0.05,0.99,-2.9,0.2,-0.1,880,0,,,,,,,,,,,,,,,,,
209538,1469891726911,,,,,,,-0.02,0.06,0.99,-3.0,0.2,-0.0,840,0,,,,,,,,,,,,,,,,,
209558,1469891726931,,,,49,,,-0.02,0.06,1.0,-3.0,0.3,0.0,800,0,0.0,0,39.540737,-122.332199,0.0,0.001,267.4,11,3,1.3,0,0.0,-1,0.0,,0.0,0
209578,1469891726951,,,,,,,-0.02,0.06,1.0,-3.0,0.2,-0.0,800,0,,,,,,,,,,,,,,,,,
209598,1469891726971,,,,,,,-0.02,0.06,1.0,-3.0,0.3,-0.0,780,0,,,,,,,,,,,,,,,,,
209618,1469891727002,,,,,,,-0.02,0.06,1.0,-3.0,0.1,-0.0,780,0,,,,,,,,,,,,,,,,,
209638,1469891727022,,,,,,,-0.01,0.07,1.0,-3.0,0.3,0.0,760,0,,,,,,,,,,,,,,,,,
209658,1469891727042,0,72.0,70.4,49,72.8,,-0.01,0.07,1.0,-3.0,0.2,0.0,760,0,0.0,0,39.540737,-122.332199,0.0,0.001,267.4,11,3,1.3,0,0.0,-1,0.0,0.0,0.0,0
209678,1469891727062,,,,,,,-0.02,0.07,1.0,-3.0,0.1,-0.0,740,0,,,,,,,,,,,,,,,,,
209698,1469891727082,,,,,,,-0.01,0.07,1.0,-3.0,0.3,-0.0,740,0,,,,,,,,,,,,,,,,,
209718,1469891727102,,,,,,,-0.01,0.07,1.0,-3.0,0.3,-0.0,740,0,,,,,,,,,,,,,,,,,
209738,1469891727109,,,,,,,-0.01,0.08,1.0,-3.0,0.3,-0.0,720,0,,,,,,,,,,,,,,,,,
209758,1469891727129,,,,48,,,-0.01,0.07,1.0,-3.0,0.3,-0.1,700,0,0.0,0,39.540737,-122.332199,0.0,0.001,267.4,11,3,1.3,0,0.0,-1,0.0,,0.0,0
209778,1469891727149,,,,,,,-0.01,0.07,1.0,-3.0,0.3,-0.0,700,0,,,,,,,,,,,,,,,,,
209798,1469891727169,,,,,,,-0.01,0.08,1.0,-3.0,0.3,0.0,660,0,,,,,,,,,,,,,,,,,
209818,1469891727199,,,,,,,-0.01,0.07,1.0,-3.0,0.2,-0.0,660,0,,,,,,,,,,,,,,,,,
209838,1469891727219,,,,,,,-0.01,0.07,1.0,-3.0,0.4,-0.0,660,0,,,,,,,,,,,,,,,,,
209858,1469891727239,0,70.9,68.7,52,70.9,,-0.0,0.08,1.0,-3.0,0.4,0.0,620,0,0.0,0,39.540737,-122.332199,0.0,0.001,267.4,11,3,1.3,0,0.0,-1,0.0,0.0,0.0,0
209878,1469891727259,,,,,,,-0.0,0.07,1.0,-2.9,0.4,-0.0,640,0,,,,,,,,,,,,,,,,,
209898,1469891727279,,,,,,,-0.0,0.07,1.0,-3.0,0.4,-0.0,640,0,,,,,,,,,,,,,,,,,
209918,1469891727299,,,,,,,-0.0,0.07,0.99,-3.0,0.3,-0.0,660,0,,,,,,,,,,,,,,,,,
209938,1469891727306,,,,,,,-0.01,0.06,0.99,-3.0,0.3,-0.1,660,0,,,,,,,,,,,,,,,,,
209958,1469891727326,,,,54,,,-0.0,0.07,0.99,-3.0,0.3,0.0,660,0,0.0,0,39.540737,-122.332199,0.0,0.001,267.4,11,3,1.3,0,0.0,-1,0.0,,0.0,0
209978,1469891727346,,,,,,,-0.0,0.08,0.99,-3.0,0.3,0.1,680,0,,,,,,,,,,,,,,,,,
209998,1469891727366,,,,,,,-0.01,0.07,0.99,-2.9,0.1,-0.1,720,0,,,,,,,,,,,,,,,,,
210018,1469891727393,,,,,,,-0.01,0.07,0.99,-2.9,0.2,-0.1,720,0,,,,,,,,,,,,,,,,,
210038,1469891727413,,,,,,,0.0,0.08,0.99,-3.0,0.3,0.1,720,0,,,,,,,,,,,,,,,,,
210058,1469891727433,0,72.4,70.5,57,72.7,14.61,0.01,0.09,0.99,-3.0,0.3,0.1,800,0,0.0,0,39.540737,-122.332199,0.0,0.001,267.4,11,3,1.3,0,0.0,-1,0.0,0.0,0.0,0
210078,1469891727453,,,,,,,0.0,0.09,0.99,-3.0,0.2,-0.1,840,0,,,,,,,,,,,,,,,,,
210098,1469891727473,,,,,,,-0.0,0.07,0.99,-2.9,0.3,-0.4,920,0,,,,,,,,,,,,,,,,,
210118,1469891727605,,,,,,,-0.0,0.05,0.99,-2.9,0.1,-0.5,1000,0,,,,,,,,,,,,,,,,,
210138,1469891727625,,,,,,,-0.01,0.03,1.0,-2.8,0.0,-0.6,1040,0,,,,,,,,,,,,,,,,,
210158,1469891727645,,,,60,,,-0.0,0.02,0.99,-2.8,0.1,-0.5,1100,0,0.0,0,39.540737,-122.332199,0.0,0.001,267.4,11,3,1.3,0,0.0,-1,0.0,,0.0,0
210178,1469891727665,,,,,,,-0.0,0.04,0.99,-2.8,0.1,-0.4,1120,0,,,,,,,,,,,,,,,,,
210198,1469891727685,,,,,,,-0.01,0.03,1.0,-2.9,0.4,-0.1,1140,0,,,,,,,,,,,,,,,,,
210218,1469891727705,,,,,,,-0.01,0.05,1.0,-2.9,0.3,-0.1,1220,0,,,,,,,,,,,,,,,,,
210238,1469891727725,,,,,,,-0.01,0.04,1.0,-2.9,0.6,-0.2,1260,0,,,,,,,,,,,,,,,,,
210258,1469891727745,0,72.9,70.6,60,71.8,,-0.02,0.04,1.01,-2.9,0.5,-0.1,1320,0,0.0,0,39.540737,-122.332199,0.0,0.001,267.4,11,3,1.3,0,0.0,-1,0.0,0.0,0.0,0
210278,1469891727765,,,,,,,-0.0,0.06,1.02,-3.0,0.7,-0.1,1420,0,,,,,,,,,,,,,,,,,
210298,1469891727785,,,,,,,-0.01,0.07,1.01,-3.0,0.7,-0.1,1480,0,,,,,,,,,,,,,,,,,
210318,1469891727701,,,,,,,-0.01,0.05,1.0,-3.0,0.3,-0.1,1520,0,,,,,,,,,,,,,,,,,
210338,1469891727721,,,,,,,-0.02,0.04,1.0,-3.0,0.3,-0.2,1540,0,,,,,,,,,,,,,,,,,
210358,1469891727741,,,,61,,,-0.02,0.05,0.98,-3.0,-0.0,-0.1,1600,0,0.0,0,39.540737,-122.332199,0.0,0.001,267.4,11,3,1.3,0,0.0,-1,0.0,,0.0,0
210378,1469891727761,,,,,,,-0.01,0.05,0.98,-3.0,0.2,-0.1,1620,0,,,,,,,,,,,,,,,,,
210398,1469891727781,,,,,,,-0.01,0.05,0.99,-3.0,0.2,-0.1,1620,0,,,,,,,,,,,,,,,,,
210418,1469891727807,,,,,,,-0.02,0.05,0.99,-2.9,0.2,-0.2,1600,0,,,,,,,,,,,,,,,,,
210438,1469891727827,,,,,,,-0.01,0.05,0.98,-3.0,0.2,-0.2,1620,0,,,,,,,,,,,,,,,,,
210458,1469891727847,0,72.7,70.7,62,71.9,,-0.01,0.07,0.97,-3.1,-0.1,-0.1,1540,0,0.0,0,39.540737,-122.332199,0.0,0.001,267.4,11,3,1.3,0,0.0,-1,0.0,0.0,0.0,0
210478,1469891727867,,,,,,,-0.01,0.07,0.98,-3.0,0.2,-0.1,1520,0,,,,,,,,,,,,,,,,,
210498,1469891727887,,,,,,,-0.01,0.07,0.98,-3.0,0.0,-0.1,1460,0,,,,,,,,,,,,,,,,,
210518,1469891727907,,,,,,,-0.01,0.07,0.99,-3.0,0.1,-0.1,1420,0,,,,,,,,,,,,,,,,,
210538,1469891727908,,,,,,,-0.01,0.07,0.98,-3.0,0.1,-0.1,1360,0,,,,,,,,,,,,,,,,,
210558,1469891727928,,,,53,,,-0.01,0.07,0.98,-3.1,0.1,-0.1,1320,0,0.0,0,39.540737,-122.332199,0.0,0.001,267.4,11,3,1.3,0,0.0,-1,0.0,,0.0,0
210578,1469891727948,,,,,,,-0.01,0.07,0.98,-3.1,0.2,-0.1,1280,0,,,,,,,,,,,,,,,,,
210598,1469891727968,,,,,,,-0.01,0.07,0.98,-3.1,0.1,-0.1,1240,0,,,,,,,,,,,,,,,,,
210618,1469891727998,,,,,,,-0.01,0.07,0.99,-3.1,0.2,-0.1,1160,0,,,,,,,,,,,,,,,,,
210638,1469891728018,,,,,,,-0.01,0.07,0.98,-3.0,0.1,-0.1,1140,0,,,,,,,,,,,,,,,,,
210658,1469891728038,0,70.9,69.3,55,72.1,,-0.01,0.07,0.99,-3.0,0.3,-0.1,1100,0,0.0,0,39.540737,-122.332199,0.0,0.001,267.4,11,3,1.3,0,0.0,-1,0.0,0.0,0.0,0
210678,1469891728058,,,,,,,-0.01,0.07,0.99,-3.0,0.2,-0.1,1040,0,,,,,,,,,,,,,,,,,
210698,1469891728078,,,,,,,-0.01,0.07,0.99,-3.0,0.2,-0.1,1000,0,,,,,,,,,,,,,,,,,
210718,1469891728098,,,,,,,-0.01,0.07,0.99,-3.0,0.2,-0.1,940,0,,,,,,,,,,,,,,,,,
210738,1469891728105,,,,,,,-0.01,0.07,0.99,-3.0,0.0,-0.2,920,0,,,,,,,,,,,,,,,,,
210758,1469891728125,,,,50,,,-0.02,0.07,0.99,-3.0,0.1,-0.1,880,0,0.0,0,39.540737,-122.332199,0.0,0.001,267.4,11,3,1.3,0,0.0,-1,0.0,,0.0,0
210778,1469891728145,,,,,,,-0.01,0.06,0.99,-3.0,0.1,-0.1,880,0,,,,,,,,,,,,,,,,,
210798,1469891728165,,,,,,,-0.01,0.07,0.99,-3.0,0.2,-0.0,860,0,,,,,,,,,,,,,,,,,
210818,1469891728196,,,,,,,-0.01,0.07,0.99,-3.0,0.2,0.0,820,0,,,,,,,,,,,,,,,,,
210838,1469891728216,,,,,,,-0.01,0.08,0.99,-3.0,0.1,-0.0,820,0,,,,,,,,,,,,,,,,,
210858,1469891728236,0,72.5,70.8,53,72.6,,-0.01,0.07,0.99,-3.0,0.2,-0.1,800,0,0.0,0,39.540737,-122.332199,0.0,0.001,267.4,11,3,1.3,0,0.0,-1,0.0,0.0,0.0,0
210878,1469891728256,,,,,,,-0.01,0.07,0.99,-3.0,0.2,-0.1,780,0,,,,,,,,,,,,,,,,,
210898,1469891728276,,,,,,,-0.01,0.07,0.99,-3.0,0.2,-0.1,780,0,,,,,,,,,,,,,,,,,
210918,1469891728406,,,,,,,-0.01,0.08,0.99,-3.0,0.3,-0.1,780,0,,,,,,,,,,,,,,,,,
210938,1469891728426,,,,,,,-0.01,0.07,0.99,-3.0,0.3,-0.1,740,0,,,,,,,,,,,,,,,,,
210958,1469891728446,,,,50,,,-0.01,0.07,0.99,-3.0,0.4,-0.1,700,0,0.0,0,39.540737,-122.332199,0.0,0.001,267.4,11,3,1.3,0,0.0,-1,0.0,,0.0,0
210978,1469891728466,,,,,,,-0.01,0.08,0.99,-3.0,0.3,-0.1,700,0,,,,,,,,,,,,,,,,,
210998,1469891728486,,,,,,,-0.01,0.08,0.99,-3.0,0.3,-0.1,680,0,,,,,,,,,,,,,,,,,
211018,1469891728506,,,,,,,-0.01,0.07,0.99,-3.0,0.2,-0.1,640,0,,,,,,,,,,,,,,,,,
211038,1469891728526,,,,,,,-0.01,0.08,0.99,-3.0,0.3,-0.1,640,0,,,,,,,,,,,,,,,,,
211058,1469891728546,0,72.5,69.8,51,71.5,14.52,-0.01,0.08,0.99,-3.0,0.2,-0.1,620,0,0.0,0,39.540737,-122.332199,0.0,0.001,267.4,11,3,1.3,0,0.0,-1,0.0,0.0,0.0,0
211078,1469891728566,,,,,,,-0.01,0.07,0.99,-3.0,0.3,-0.1,620,0,,,,,,,,,,,,,,,,,
211098,1469891728586,,,,,,,-0.01,0.08,0.99,-3.1,0.3,-0.0,560,0,,,,,,,,,,,,,,,,,
211118,1469891728505,,,,,,,-0.01,0.08,0.99,-3.1,0.3,-0.0,580,0,,,,,,,,,,,,,,,,,
211138,1469891728525,,,,,,,-0.01,0.08,0.99,-3.1,0.4,-0.0,580,0,,,,,,,,,,,,,,,,,
211158,1469891728545,,,,51,,,-0.01,0.08,0.99,-3.0,0.4,-0.0,520,0,0.0,0,39.540737,-122.332199,0.0,0.001,267.4,11,3,1.3,0,0.0,-1,0.0,,0.0,0
211178,1469891728565,,,,,,,-0.01,0.08,0.99,-3.0,0.3,-0.1,520,0,,,,,,,,,,,,,,,,,
211198,1469891728585,,,,,,,-0.01,0.08,0.99,-3.0,0.3,-0.1,560,0,,,,,,,,,,,,,,,,,
211218,1469891728591,,,,,,,-0.01,0.08,0.99,-3.0,0.2,-0.2,560,0,,,,,,,,,,,,,,,,,
211238,1469891728611,,,,,,,-0.01,0.08,0.99,-3.1,0.2,-0.2,560,0,,,,,,,,,,,,,,,,,
211258,1469891728631,0,70.6,68.9,50,71.8,,-0.01,0.07,1.0,-3.0,0.3,-0.1,560,0,0.0,0,39.540737,-122.332199,0.0,0.001,267.4,11,3,1.3,0,0.0,-1,0.0,0.0,0.0,0
211278,1469891728651,,,,,,,-0.01,0.08,0.99,-3.0,0.2,-0.1,540,0,,,,,,,,,,,,,,,,,
211298,1469891728671,,,,,,,-0.01,0.07,0.99,-3.0,0.2,-0.1,540,0,,,,,,,,,,,,,,,,,
211318,1469891728702,,,,,,,-0.0,0.07,0.99,-3.0,0.4,-0.1,540,0,,,,,,,,,,,,,,,,,
211338,1469891728722,,,,,,,-0.0,0.07,0.99,-3.0,0.3,-0.1,580,0,,,,,,,,,,,,,,,,,
211358,1469891728742,,,,53,,,-0.01,0.07,0.99,-3.0,0.3,-0.1,580,0,0.0,0,39.540737,-122.332199,0.0,0.001,267.4,11,3,1.3,0,0.0,-1,0.0,,0.0,0
211378,1469891728762,,,,,,,-0.01,0.07,1.0,-3.0,0.4,-0.1,580,0,,,,,,,,,,,,,,,,,
211398,1469891728782,,,,,,,-0.01,0.06,0.99,-3.0,0.4,-0.2,580,0,,,,,,,,,,,,,,,,,
211418,1469891728802,,,,,,,-0.01,0.07,1.0,-3.0,0.4,-0.1,620,0,,,,,,,,,,,,,,,,,
211438,1469891728808,,,,,,,-0.01,0.06,1.0,-3.0,0.4,-0.0,660,0,,,,,,,,,,,,,,,,,
211458,1469891728828,0,71.5,69.1,53,70.9,,-0.01,0.07,1.0,-3.0,0.3,-0.1,660,0,0.0,0,39.540737,-122.332199,0.0,0.001,267.4,11,3,1.3,0,0.0,-1,0.0,0.0,0.0,0
211478,1469891728848,,,,,,,-0.02,0.08,1.0,-3.1,0.3,-0.1,680,0,,,,,,,,,,,,,,,,,
211498,1469891728868,,,,,,,-0.01,0.07,1.0,-3.0,0.3,-0.1,640,0,,,,,,,,,,,,,,,,,
211518,1469891728895,,,,,,,-0.02,0.08,1.0,-3.0,0.3,-0.1,720,0,,,,,,,,,,,,,,,,,
211538,1469891728915,,,,,,,-0.02,0.08,1.0,-3.1,0.4,-0.1,720,0,,,,,,,,,,,,,,,,,
211558,1469891728935,,,,54,,,-0.01,0.08,1.0,-3.0,0.3,-0.0,660,0,0.0,0,39.540737,-122.332199,0.0,0.001,267.4,11,3,1.3,0,0.0,-1,0.0,,0.0,0
211578,1469891728955,,,,,,,-0.02,0.07,0.99,-3.0,0.2,-0.1,740,0,,,,,,,,,,,,,,,,,
211598,1469891728975,,,,,,,-0.01,0.07,1.0,-3.0,0.1,-0.2,740,0,,,,,,,,,,,,,,,,,
211618,1469891729004,,,,,,,-0.01,0.08,0.99,-3.0,0.2,-0.1,760,0,,,,,,,,,,,,,,,,,
211638,1469891729024,,,,,,,-0.01,0.08,0.99,-3.0,0.1,-0.0,780,0,,,,,,,,,,,,,,,,,
211658,1469891729044,0,72.9,70.4,60,71.8,,-0.01,0.08,0.99,-3.0,-0.1,-0.1,800,0,0.0,0,39.540737,-122.332199,0.0,0.001,267.4,11,3,1.3,0,0.0,-1,0.0,0.0,0.0,0
211678,1469891729064,,,,,,,-0.02,0.07,0.99,-3.0,-0.1,-0.3,840,0,,,,,,,,,,,,,,,,,
211698,1469891729084,,,,,,,-0.01,0.07,1.0,-3.0,-0.2,-0.3,860,0,,,,,,,,,,,,,,,,,
211718,1469891729104,,,,,,,-0.01,0.05,0.99,-3.0,-0.1,-0.1,900,0,,,,,,,,,,,,,,,,,
211738,1469891729210,,,,,,,-0.01,0.06,0.99,-3.1,0.2,0.1,900,0,,,,,,,,,,,,,,,,,
211758,1469891729230,,,,57,,,0.0,0.08,0.99,-3.1,-0.0,0.1,920,0,0.0,0,39.540737,-122.332199,0.0,0.001,267.4,11,3,1.3,0,0.0,-1,0.0,,0.0,0
211778,1469891729250,,,,,,,0.01,0.09,0.99,-3.2,0.0,0.2,940,0,,,,,,,,,,,,,,,,,
211798,1469891729270,,,,,,,0.01,0.1,0.99,-3.2,-0.0,0.2,940,0,,,,,,,,,,,,,,,,,
211818,1469891729290,,,,,,,0.01,0.11,0.99,-3.2,-0.1,0.2,960,0,,,,,,,,,,,,,,,,,
211838,1469891729310,,,,,,,0.01,0.11,0.99,-3.2,-0.1,0.3,940,0,,,,,,,,,,,,,,,,,
211858,1469891729330,0,71.3,70.0,59,72.5,,0.0,0.12,0.99,-3.2,0.0,0.1,980,0,0.0,0,39.540737,-122.332199,0.0,0.001,267.4,11,3,1.3,0,0.0,-1,0.0,0.0,0.0,0
211878,1469891729350,,,,,,,-0.0,0.11,1.0,-3.1,0.1,0.0,1000,0,,,,,,,,,,,,,,,,,
211898,1469891729370,,,,,,,-0.0,0.11,0.99,-3.1,0.1,-0.1,1020,0,,,,,,,,,,,,,,,,,
211918,1469891729390,,,,,,,-0.01,0.1,0.99,-3.1,0.1,-0.1,1040,0,,,,,,,,,,,,,,,,,
211938,1469891729307,,,,,,,-0.01,0.11,0.99,-3.1,0.1,-0.1,1040,0,,,,,,,,,,,,,,,,,
211958,1469891729327,,,,55,,,-0.0,0.11,0.99,-3.1,0.1,-0.1,1060,0,0.0,0,39.540737,-122.332199,0.0,0.001,267.4,11,3,1.3,0,0.0,-1,0.0,,0.0,0
211978,1469891729347,,,,,,,-0.0,0.12,0.99,-3.1,0.1,-0.1,1060,0,,,,,,,,,,,,,,,,,
211998,1469891729367,,,,,,,0.0,0.1,0.99,-3.0,0.4,-0.2,1040,0,,,,,,,,,,,,,,,,,
212018,1469891729397,,,,,,,-0.0,0.11,0.98,-3.1,0.4,-0.2,1040,0,,,,,,,,,,,,,,,,,
212038,1469891729417,,,,,,,0.0,0.11,0.98,-3.1,0.3,-0.1,1040,0,,,,,,,,,,,,,,,,,
212058,1469891729437,0,72.4,70.7,59,72.8,14.59,-0.0,0.11,0.99,-3.1,0.4,-0.1,1020,0,0.0,0,39.540737,-122.332199,0.0,0.001,267.4,11,3,1.3,0,0.0,-1,0.0,0.0,0.0,0
212078,1469891729457,,,,,,,-0.01,0.1,0.98,-3.1,0.4,-0.1,1020,0,,,,,,,,,,,,,,,,,
212098,1469891729477,,,,,,,-0.01,0.09,0.99,-3.1,0.4,-0.1,1020,0,,,,,,,,,,,,,,,,,
212118,1469891729507,,,,,,,-0.01,0.09,0.99,-3.1,0.3,-0.0,1020,0,,,,,,,,,,,,,,,,,
212138,1469891729527,,,,,,,-0.01,0.08,0.99,-3.1,0.3,-0.1,1000,0,,,,,,,,,,,,,,,,,
212158,1469891729547,,,,62,,,-0.01,0.07,0.99,-3.0,0.3,-0.1,1000,0,0.0,0,39.540737,-122.332199,0.0,0.001,267.4,11,3,1.3,0,0.0,-1,0.0,,0.0,0
212178,1469891729567,,,,,,,-0.01,0.07,0.99,-3.0,0.2,-0.0,1000,0,,,,,,,,,,,,,,,,,
212198,1469891729587,,,,,,,-0.01,0.06,0.99,-3.0,0.2,-0.1,1000,0,,,,,,,,,,,,,,,,,
212218,1469891729593,,,,,,,-0.02,0.06,0.99,-3.0,0.1,-0.0,1000,0,,,,,,,,,,,,,,,,,
212238,1469891729613,,,,,,,-0.02,0.06,0.99,-3.0,0.1,0.0,980,13,,,,,,,,,,,,,,,,,
212258,1469891729633,0,70.6,68.9,56,71.2,,-0.01,0.06,1.0,-2.9,0.1,-0.0,980,13,0.0,0,39.540737,-122.332199,0.0,0.001,267.4,11,3,1.3,0,0.0,-1,0.0,0.0,0.0,0
212278,1469891729653,,,,,,,-0.01,0.06,1.0,-2.9,0.1,-0.0,980,13,,,,,,,,,,,,,,,,,
212298,1469891729673,,,,,,,-0.01,0.06,1.0,-2.9,0.1,-0.0,940,13,,,,,,,,,,,,,,,,,
212318,1469891729702,,,,,,,-0.01,0.05,0.99,-2.9,0.1,-0.0,960,769230,,,,,,,,,,,,,,,,,
212338,1469891729722,,,,,,,-0.02,0.06,0.99,-3.0,0.0,0.0,940,0,,,,,,,,,,,,,,,,,
212358,1469891729742,,,,54,,,-0.02,0.06,0.99,-2.9,-0.0,0.0,920,0,75.385,0,39.540737,-122.332199,0.0,0.001,267.4,11,3,1.3,0,0.0,-1,0.0,,0.0,0
212378,1469891729762,,,,,,,-0.02,0.05,0.99,-3.0,-0.0,0.1,920,0,,,,,,,,,,,,,,,,,
212398,1469891729782,,,,,,,-0.02,0.06,1.0,-2.9,0.0,0.1,920,0,,,,,,,,,,,,,,,,,
212418,1469891729802,,,,,,,-0.01,0.07,1.0,-3.0,0.1,0.2,900,0,,,,,,,,,,,,,,,,,
212438,1469891729807,,,,,,,-0.01,0.09,1.0,-3.0,0.1,0.2,900,0,,,,,,,,,,,,,,,,,
212458,1469891729827,0,72.4,70.7,56,72.9,,-0.01,0.09,1.0,-3.0,0.1,0.3,900,0,0.0,0,39.540737,-122.332199,0.0,0.001,267.4,11,3,1.3,0,0.0,-1,0.0,0.0,0.0,0
212478,1469891729847,,,,,,,-0.01,0.08,1.0,-3.0,0.1,0.2,900,0,,,,,,,,,,,,,,,,,
212498,1469891729867,,,,,,,-0.01,0.09,1.0,-3.0,0.2,0.1,900,0,,,,,,,,,,,,,,,,,
212518,1469891729991,,,,,,,-0.01,0.08,0.99,-2.9,0.1,-0.0,880,0,,,,,,,,,,,,,,,,,
212538,1469891730011,,,,,,,-0.01,0.07,0.99,-2.9,0.2,-0.1,860,0,,,,,,,,,,,,,,,,,
212558,1469891730031,,,,52,,,-0.01,0.06,0.99,-2.9,0.2,-0.1,840,0,0.0,0,39.540737,-122.332199,0.0,0.001,267.4,11,3,1.3,0,0.0,-1,0.0,,0.0,0
212578,1469891730051,,,,,,,-0.01,0.06,0.99,-3.0,0.1,-0.1,840,0,,,,,,,,,,,,,,,,,
212598,1469891730071,,,,,,,-0.01,0.07,0.99,-3.0,0.3,-0.0,840,0,,,,,,,,,,,,,,,,,
212618,1469891730091,,,,,,,-0.01,0.07,0.99,-3.0,0.3,0.0,840,0,,,,,,,,,,,,,,,,,
212638,1469891730111,,,,,,,-0.01,0.07,1.0,-3.0,0.3,-0.0,840,0,,,,,,,,,,,,,,,,,
212658,1469891730131,0,72.5,70.7,54,72.7,,-0.01,0.07,0.99,-3.0,0.2,-0.1,840,0,0.0,0,39.540737,-122.332199,0.0,0.001,267.4,11,3,1.3,0,0.0,-1,0.0,0.0,0.0,0
212678,1469891730151,,,,,,,-0.01,0.07,1.0,-3.0,0.3,-0.2,840,0,,,,,,,,,,,,,,,,,
212698,1469891730171,,,,,,,-0.01,0.06,0.99,-3.0,0.2,-0.2,840,0,,,,,,,,,,,,,,,,,
212718,1469891730191,,,,,,,-0.01,0.06,0.99,-3.0,0.2,-0.1,840,0,,,,,,,,,,,,,,,,,
212738,1469891730107,,,,,,,-0.01,0.06,0.99,-3.1,0.4,0.0,840,0,,,,,,,,,,,,,,,,,
212758,1469891730127,,,,52,,,-0.01,0.07,0.99,-3.1,0.3,0.0,860,0,0.0,0,39.540737,-122.332199,0.0,0.001,267.4,11,3,1.3,0,0.0,-1,0.0,,0.0,0
212778,1469891730147,,,,,,,-0.01,0.08,1.0,-3.1,0.3,-0.0,860,0,,,,,,,,,,,,,,,,,
212798,1469891730167,,,,,,,-0.01,0.07,1.0,-3.0,0.2,-0.1,860,0,,,,,,,,,,,,,,,,,
212818,1469891730199,,,,,,,-0.01,0.07,1.0,-3.0,0.3,-0.2,840,0,,,,,,,,,,,,,,,,,
212838,1469891730219,,,,,,,-0.01,0.07,0.99,-3.0,0.2,-0.2,820,0,,,,,,,,,,,,,,,,,
212858,1469891730239,0,71.4,69.1,53,70.8,,-0.01,0.06,0.99,-3.0,0.3,-0.1,820,0,0.0,0,39.540737,-122.332199,0.0,0.001,267.4,11,3,1.3,0,0.0,-1,0.0,0.0,0.0,0
212878,1469891730259,,,,,,,-0.01,0.08,0.99,-3.1,0.4,0.0,840,0,,,,,,,,,,,,,,,,,
212898,1469891730279,,,,,,,-0.0,0.07,1.0,-3.0,0.3,0.0,860,0,,,,,,,,,,,,,,,,,
212918,1469891730306,,,,,,,-0.01,0.08,1.0,-3.0,0.3,-0.1,880,0,,,,,,,,,,,,,,,,,
212938,1469891730326,,,,,,,-0.01,0.08,1.0,-3.0,0.2,-0.2,860,0,,,,,,,,,,,,,,,,,
212958,1469891730346,,,,57,,,-0.01,0.07,0.99,-3.0,0.3,-0.3,840,0,0.0,0,39.540737,-122.332199,0.0,0.001,267.4,11,3,1.3,0,0.0,-1,0.0,,0.0,0
212978,1469891730366,,,,,,,-0.01,0.07,0.99,-3.0,0.3,-0.3,860,0,,,,,,,,,,,,,,,,,
212998,1469891730386,,,,,,,-0.01,0.06,0.99,-3.1,0.2,-0.2,880,0,,,,,,,,,,,,,,,,,
213018,1469891730392,,,,,,,-0.01,0.07,0.99,-3.1,0.5,0.0,880,0,,,,,,,,,,,,,,,,,
213038,1469891730412,,,,,,,-0.01,0.08,0.99,-3.1,0.4,0.1,900,0,,,,,,,,,,,,,,,,,
213058,1469891730432,0,72.4,70.7,61,72.7,14.65,-0.01,0.09,0.99,-3.1,0.4,0.2,920,0,0.0,0,39.540737,-122.332199,0.0,0.001,267.4,11,3,1.3,0,0.0,-1,0.0,0.0,0.0,0
213078,1469891730452,,,,,,,-0.0,0.09,1.0,-3.1,0.4,0.1,920,0,,,,,,,,,,,,,,,,,
213098,1469891730472,,,,,,,-0.0,0.1,1.0,-3.1,0.3,-0.0,900,0,,,,,,,,,,,,,,,,,
213118,1469891730503,,,,,,,-0.01,0.1,0.99,-3.0,0.4,-0.2,900,0,,,,,,,,,,,,,,,,,
213138,1469891730523,,,,,,,-0.02,0.09,0.99,-3.0,0.4,-0.3,920,0,,,,,,,,,,,,,,,,,
213158,1469891730543,,,,64,,,-0.01,0.07,0.99,-3.0,0.4,-0.4,920,0,0.0,0,39.540737,-122.332199,0.0,0.001,267.4,11,3,1.3,0,0.0,-1,0.0,,0.0,0
213178,1469891730563,,,,,,,-0.01,0.07,0.99,-3.0,0.3,-0.4,940,0,,,,,,,,,,,,,,,,,
213198,1469891730583,,,,,,,-0.01,0.06,0.99,-2.9,0.2,-0.5,940,0,,,,,,,,,,,,,,,,,
213218,1469891730603,,,,,,,-0.01,0.06,0.99,-2.9,0.2,-0.3,920,0,,,,,,,,,,,,,,,,,
213238,1469891730608,,,,,,,-0.02,0.05,0.99,-3.0,0.2,-0.2,940,0,,,,,,,,,,,,,,,,,
213258,1469891730628,0,71.3,69.8,61,72.3,,-0.02,0.05,0.99,-3.0,0.3,-0.0,960,0,0.0,0,39.540737,-122.332199,0.0,0.001,267.4,11,3,1.3,0,0.0,-1,0.0,0.0,0.0,0
213278,1469891730648,,,,,,,-0.01,0.06,0.99,-3.0,0.4,0.2,960,0,,,,,,,,,,,,,,,,,
213298,1469891730668,,,,,,,-0.01,0.07,1.0,-3.0,0.5,0.2,960,0,,,,,,,,,,,,,,,,,
213318,1469891730797,,,,,,,-0.01,0.08,1.0,-3.1,0.5,0.3,960,0,,,,,,,,,,,,,,,,,
213338,1469891730817,,,,,,,-0.0,0.09,1.0,-3.1,0.6,0.3,960,0,,,,,,,,,,,,,,,,,
213358,1469891730837,,,,58,,,0.0,0.11,1.01,-3.1,0.6,0.4,940,0,0.0,0,39.540737,-122.332199,0.0,0.001,267.4,11,3,1.3,0,0.0,-1,0.0,,0.0,0
213378,1469891730857,,,,,,,0.0,0.11,1.01,-3.2,0.6,0.3,960,0,,,,,,,,,,,,,,,,,
213398,1469891730877,,,,,,,0.01,0.12,1.0,-3.2,0.5,0.3,960,0,,,,,,,,,,,,,,,,,
213418,1469891730897,,,,,,,0.01,0.12,1.0,-3.2,0.5,0.2,960,0,,,,,,,,,,,,,,,,,
213438,1469891730917,,,,,,,0.01,0.12,0.99,-3.1,0.4,0.1,980,0,,,,,,,,,,,,,,,,,
213458,1469891730937,0,71.8,69.2,62,70.8,,0.01,0.11,0.99,-3.1,0.4,-0.0,980,0,0.0,0,39.540737,-122.332199,0.0,0.001,267.4,11,3,1.3,0,0.0,-1,0.0,0.0,0.0,0
213478,1469891730957,,,,,,,0.0,0.11,0.99,-3.1,0.3,-0.0,960,0,,,,,,,,,,,,,,,,,
213498,1469891730977,,,,,,,0.0,0.1,0.98,-3.0,0.3,-0.1,940,0,,,,,,,,,,,,,,,,,
213518,1469891730997,,,,,,,0.0,0.1,0.99,-3.0,0.2,-0.2,960,0,,,,,,,,,,,,,,,,,
213538,1469891730909,,,,,,,-0.0,0.11,0.99,-2.9,0.2,-0.3,960,0,,,,,,,,,,,,,,,,,
213558,1469891730929,,,,55,,,-0.0,0.11,1.0,-3.0,0.2,-0.3,980,0,0.0,0,39.540737,-122.332199,0.0,0.001,267.4,11,3,1.3,0,0.0,-1,0.0,,0.0,0
213578,1469891730949,,,,,,,-0.01,0.11,1.0,-3.0,0.3,-0.4,960,0,,,,,,,,,,,,,,,,,
213598,1469891730969,,,,,,,-0.01,0.11,1.0,-3.0,0.3,-0.5,960,0,,,,,,,,,,,,,,,,,
213618,1469891731000,,,,,,,-0.02,0.09,1.01,-3.0,0.3,-0.5,960,0,,,,,,,,,,,,,,,,,
213638,1469891731020,,,,,,,-0.02,0.08,1.0,-2.9,0.2,-0.5,960,0,,,,,,,,,,,,,,,,,
213658,1469891731040,0,71.1,69.4,55,72.0,,-0.02,0.07,1.0,-2.9,0.3,-0.5,960,0,0.0,0,39.540737,-122.332199,0.0,0.001,267.4,11,3,1.3,0,0.0,-1,0.0,0.0,0.0,0
213678,1469891731060,,,,,,,-0.02,0.06,0.99,-2.9,0.2,-0.5,960,0,,,,,,,,,,,,,,,,,
213698,1469891731080,,,,,,,-0.02,0.05,0.99,-2.9,0.2,-0.5,960,0,,,,,,,,,,,,,,,,,
213718,1469891731100,,,,,,,-0.01,0.05,0.99,-2.9,0.3,-0.5,940,0,,,,,,,,,,,,,,,,,
213738,1469891731106,,,,,,,-0.01,0.05,1.0,-2.9,0.2,-0.5,940,0,,,,,,,,,,,,,,,,,
213758,1469891731126,,,,57,,,-0.01,0.05,0.99,-2.9,0.2,-0.4,940,0,0.0,0,39.540737,-122.332199,0.0,0.001,267.4,11,3,1.3,0,0.0,-1,0.0,,0.0,0
213778,1469891731146,,,,,,,-0.01,0.05,0.99,-2.9,0.2,-0.3,940,0,,,,,,,,,,,,,,,,,
213798,1469891731166,,,,,,,-0.01,0.04,0.99,-3.0,0.1,-0.2,960,0,,,,,,,,,,,,,,,,,
213818,1469891731197,,,,,,,-0.02,0.03,0.99,-3.0,0.1,-0.1,940,0,,,,,,,,,,,,,,,,,
213838,1469891731217,,,,,,,-0.02,0.03,0.99,-3.0,0.1,0.0,920,0,,,,,,,,,,,,,,,,,
213858,1469891731237,0,70.9,69.2,53,71.4,,-0.02,0.05,0.99,-3.0,0.2,0.1,920,0,0.0,0,39.540737,-122.332199,0.0,0.001,267.4,11,3,1.3,0,0.0,-1,0.0,0.0,0.0,0
213878,1469891731257,,,,,,,-0.01,0.07,1.0,-3.0,0.3,0.2,920,0,,,,,,,,,,,,,,,,,
213898,1469891731277,,,,,,,-0.01,0.08,1.0,-3.0,0.3,0.3,920,0,,,,,,,,,,,,,,,,,
213918,1469891731307,,,,,,,-0.01,0.08,1.0,-3.1,0.4,0.3,920,0,,,,,,,,,,,,,,,,,
213938,1469891731327,,,,,,,-0.01,0.09,0.99,-3.1,0.3,0.2,940,0,,,,,,,,,,,,,,,,,
213958,1469891731347,,,,55,,,-0.0,0.09,1.0,-3.0,0.3,0.1,920,0,0.0,0,39.540737,-122.332199,0.0,0.001,267.4,11,3,1.3,0,0.0,-1,0.0,,0.0,0
213978,1469891731367,,,,,,,-0.01,0.09,1.0,-3.0,0.3,-0.1,900,0,,,,,,,,,,,,,,,,,
213998,1469891731387,,,,,,,-0.01,0.09,1.0,-2.9,0.3,-0.2,900,0,,,,,,,,,,,,,,,,,
214018,1469891731394,,,,,,,-0.02,0.07,1.0,-2.9,0.3,-0.3,920,0,,,,,,,,,,,,,,,,,
214038,1469891731414,,,,,,,-0.01,0.07,1.0,-2.9,0.3,-0.4,920,0,,,,,,,,,,,,,,,,,
214058,1469891731434,0,72.4,70.6,55,72.6,14.61,-0.01,0.06,1.0,-2.9,0.3,-0.4,920,0,0.0,0,39.540737,-122.332199,0.0,0.001,267.4,11,3,1.3,0,0.0,-1,0.0,0.0,0.0,0
214078,1469891731454,,,,,,,-0.01,0.06,0.99,-2.9,0.2,-0.4,920,0,,,,,,,,,,,,,,,,,
214098,1469891731474,,,,,,,-0.01,0.05,0.99,-2.9,0.2,-0.3,900,0,,,,,,,,,,,,,,,,,
214118,1469891731603,,,,,,,-0.02,0.05,0.99,-3.0,0.4,-0.1,920,0,,,,,,,,,,,,,,,,,
214138,1469891731623,,,,,,,-0.01,0.05,1.0,-3.0,0.5,0.1,920,0,,,,,,,,,,,,,,,,,
214158,1469891731643,,,,54,,,-0.01,0.07,1.0,-3.0,0.5,0.2,920,0,0.0,0,39.540737,-122.332199,0.0,0.001,267.4,11,3,1.3,0,0.0,-1,0.0,,0.0,0
214178,1469891731663,,,,,,,-0.0,0.08,1.0,-3.1,0.5,0.2,940,0,,,,,,,,,,,,,,,,,
214198,1469891731683,,,,,,,-0.0,0.09,1.0,-3.1,0.4,0.2,960,0,,,,,,,,,,,,,,,,,
214218,1469891731703,,,,,,,-0.0,0.09,1.0,-3.1,0.4,0.2,940,0,,,,,,,,,,,,,,,,,
214238,1469891731723,,,,,,,-0.0,0.09,1.0,-3.0,0.3,0.1,900,0,,,,,,,,,,,,,,,,,
214258,1469891731743,0,72.1,70.4,54,72.5,,-0.0,0.1,1.0,-3.0,0.4,-0.0,920,0,0.0,0,39.540737,-122.332199,0.0,0.001,267.4,11,3,1.3,0,0.0,-1,0.0,0.0,0.0,0
214278,1469891731763,,,,,,,-0.01,0.1,1.0,-3.0,0.3,-0.2,940,0,,,,,,,,,,,,,,,,,
214298,1469891731783,,,,,,,-0.02,0.09,1.0,-2.9,0.3,-0.3,940,0,,,,,,,,,,,,,,,,,
214318,1469891731700,,,,,,,-0.02,0.07,0.99,-2.9,0.3,-0.4,960,0,,,,,,,,,,,,,,,,,
214338,1469891731720,,,,,,,-0.01,0.06,0.99,-2.9,0.3,-0.5,960,0,,,,,,,,,,,,,,,,,
214358,1469891731740,,,,53,,,-0.01,0.06,1.0,-2.9,0.3,-0.5,920,0,0.0,0,39.540737,-122.332199,0.0,0.001,267.4,11,3,1.3,0,0.0,-1,0.0,,0.0,0
214378,1469891731760,,,,,,,-0.01,0.05,1.0,-2.9,0.2,-0.5,940,0,,,,,,,,,,,,,,,,,
214398,1469891731780,,,,,,,-0.01,0.05,0.99,-2.9,0.2,-0.4,940,0,,,,,,,,,,,,,,,,,
214418,1469891731800,,,,,,,-0.01,0.05,0.99,-3.0,0.2,-0.3,940,0,,,,,,,,,,,,,,,,,
214438,1469891731803,,,,,,,-0.01,0.05,0.99,-3.0,0.2,-0.1,960,0,,,,,,,,,,,,,,,,,
214458,1469891731823,0,70.9,68.8,52,70.9,,-0.02,0.04,0.99,-3.0,0.2,-0.0,960,0,0.0,0,39.540737,-122.332199,0.0,0.001,267.4,11,3,1.3,0,0.0,-1,0.0,0.0,0.0,0
214478,1469891731843,,,,,,,-0.02,0.04,0.99,-3.1,0.2,0.1,920,0,,,,,,,,,,,,,,,,,
214498,1469891731863,,,,,,,-0.02,0.05,0.99,-3.0,0.4,0.2,920,0,,,,,,,,,,,,,,,,,
214518,1469891731893,,,,,,,-0.01,0.06,0.99,-3.1,0.4,0.3,940,0,,,,,,,,,,,,,,,,,
214538,1469891731913,,,,,,,-0.01,0.08,1.0,-3.1,0.4,0.3,940,0,,,,,,,,,,,,,,,,,
214558,1469891731933,,,,54,,,-0.0,0.08,1.0,-3.1,0.5,0.3,940,0,0.0,0,39.540737,-122.332199,0.0,0.001,267.4,11,3,1.3,0,0.0,-1,0.0,,0.0,0
214578,1469891731953,,,,,,,-0.0,0.09,0.99,-3.1,0.5,0.2,940,0,,,,,,,,,,,,,,,,,
214598,1469891731973,,,,,,,-0.0,0.09,0.99,-3.1,0.5,0.2,960,0,,,,,,,,,,,,,,,,,
214618,1469891732004,,,,,,,-0.0,0.09,1.0,-3.1,0.3,0.1,920,0,,,,,,,,,,,,,,,,,
214638,1469891732024,,,,,,,-0.0,0.09,1.0,-3.0,0.3,0.0,940,0,,,,,,,,,,,,,,,,,
214658,1469891732044,0,70.6,69.6,57,71.9,,-0.01,0.1,1.0,-3.0,0.3,-0.1,940,0,0.0,0,39.540737,-122.332199,0.0,0.001,267.4,11,3,1.3,0,0.0,-1,0.0,0.0,0.0,0
214678,1469891732064,,,,,,,-0.02,0.09,1.0,-3.0,0.4,-0.2,940,0,,,,,,,,,,,,,,,,,
214698,1469891732084,,,,,,,-0.02,0.08,1.0,-3.0,0.4,-0.3,960,0,,,,,,,,,,,,,,,,,
214718,1469891732104,,,,,,,-0.02,0.07,1.0,-3.0,0.3,-0.4,960,0,,,,,,,,,,,,,,,,,
214738,1469891732110,,,,,,,-0.02,0.06,1.0,-3.0,0.3,-0.4,920,0,,,,,,,,,,,,,,,,,
214758,1469891732130,,,,55,,,-0.01,0.05,1.0,-2.9,0.3,-0.5,940,0,0.0,0,39.540737,-122.332199,0.0,0.001,267.4,11,3,1.3,0,0.0,-1,0.0,,0.0,0
214778,1469891732150,,,,,,,-0.01,0.05,1.0,-2.9,0.3,-0.5,940,0,,,,,,,,,,,,,,,,,
214798,1469891732170,,,,,,,-0.01,0.05,1.0,-2.9,0.3,-0.4,940,0,,,,,,,,,,,,,,,,,
214818,1469891732197,,,,,,,-0.01,0.05,0.99,-2.9,0.3,-0.4,960,0,,,,,,,,,,,,,,,,,
214838,1469891732217,,,,,,,-0.01,0.05,0.99,-2.9,0.2,-0.3,960,0,,,,,,,,,,,,,,,,,
214858,1469891732237,0,71.9,70.7,51,72.9,,-0.02,0.05,0.99,-3.0,0.2,-0.2,940,0,0.0,0,39.540737,-122.332199,0.0,0.001,267.4,11,3,1.3,0,0.0,-1,0.0,0.0,0.0,0
214878,1469891732257,,,,,,,-0.02,0.04,0.99,-3.1,0.2,-0.1,940,0,,,,,,,,,,,,,,,,,
214898,1469891732277,,,,,,,-0.02,0.04,0.99,-3.1,0.2,0.1,960,0,,,,,,,,,,,,,,,,,
214918,1469891732297,,,,,,,-0.02,0.05,0.99,-3.1,0.3,0.3,960,0,,,,,,,,,,,,,,,,,
214938,1469891732406,,,,,,,-0.02,0.05,1.0,-3.1,0.3,0.4,980,0,,,,,,,,,,,,,,,,,
214958,1469891732426,,,,58,,,-0.02,0.06,1.0,-3.1,0.3,0.4,980,0,0.0,0,39.540737,-122.332199,0.0,0.001,267.4,11,3,1.3,0,0.0,-1,0.0,,0.0,0
214978,1469891732446,,,,,,,-0.01,0.08,1.0,-3.1,0.3,0.4,940,0,,,,,,,,,,,,,,,,,
214998,1469891732466,,,,,,,-0.01,0.09,1.0,-3.1,0.5,0.4,940,0,,,,,,,,,,,,,,,,,
215018,1469891732486,,,,,,,-0.0,0.1,1.0,-3.1,0.5,0.4,960,0,,,,,,,,,,,,,,,,,
215038,1469891732506,,,,,,,-0.0,0.12,1.0,-3.1,0.5,0.4,960,0,,,,,,,,,,,,,,,,,
215058,1469891732526,0,72.8,69.5,56,70.9,14.57,0.0,0.12,1.0,-3.2,0.6,0.3,960,0,0.0,0,39.540737,-122.332199,0.0,0.001,267.4,11,3,1.3,0,0.0,-1,0.0,0.0,0.0,0
215078,1469891732546,,,,,,,0.0,0.12,1.0,-3.2,0.6,0.3,980,0,,,,,,,,,,,,,,,,,
215098,1469891732566,,,,,,,0.0,0.12,1.0,-3.2,0.7,0.2,980,0,,,,,,,,,,,,,,,,,
215118,1469891732509,,,,,,,0.0,0.12,1.0,-3.1,0.6,0.1,940,0,,,,,,,,,,,,,,,,,
215138,1469891732529,,,,,,,0.0,0.11,0.99,-3.1,0.5,0.1,940,0,,,,,,,,,,,,,,,,,
215158,1469891732549,,,,59,,,0.01,0.11,1.0,-3.1,0.4,-0.0,960,27,0.0,0,39.540737,-122.332199,0.0,0.001,267.4,11,3,1.3,0,0.0,-1,0.0,,0.0,0
215178,1469891732569,,,,,,,0.0,0.12,1.0,-3.1,0.3,-0.1,960,27,,,,,,,,,,,,,,,,,
215198,1469891732589,,,,,,,0.0,0.11,1.0,-3.1,0.4,-0.2,960,27,,,,,,,,,,,,,,,,,
215218,1469891732593,,,,,,,0.0,0.12,1.0,-3.0,0.4,-0.3,960,27,,,,,,,,,,,,,,,,,
215238,1469891732613,,,,,,,-0.0,0.12,1.0,-3.1,0.4,-0.3,920,27,,,,,,,,,,,,,,,,,
215258,1469891732633,0,71.0,70.3,56,72.4,,-0.01,0.1,1.0,-3.0,0.4,-0.4,920,27,35.556,0,39.540737,-122.332199,0.0,0.001,267.4,11,3,1.3,0,0.0,-1,0.0,0.0,0.0,0
215278,1469891732653,,,,,,,-0.01,0.09,0.99,-3.0,0.4,-0.4,940,27,,,,,,,,,,,,,,,,,
215298,1469891732673,,,,,,,-0.01,0.07,0.99,-3.0,0.5,-0.5,940,27,,,,,,,,,,,,,,,,,
215318,1469891732708,,,,,,,-0.01,0.07,0.99,-2.9,0.5,-0.5,940,1538461,,,,,,,,,,,,,,,,,
215338,1469891732728,,,,,,,-0.01,0.06,1.0,-2.9,0.5,-0.5,940,0,,,,,,,,,,,,,,,,,
215358,1469891732748,,,,60,,,-0.01,0.07,0.99,-2.9,0.4,-0.5,900,0,34.074,0,39.540737,-122.332199,0.0,0.001,267.4,11,3,1.3,0,0.0,-1,0.0,,0.0,0
215378,1469891732768,,,,,,,-0.01,0.05,0.99,-3.0,0.4,-0.4,940,0,,,,,,,,,,,,,,,,,
215398,1469891732788,,,,,,,-0.01,0.04,0.99,-3.0,0.3,-0.2,940,0,,,,,,,,,,,,,,,,,
215418,1469891732791,,,,,,,-0.02,0.04,0.99,-3.0,0.4,-0.0,940,0,,,,,,,,,,,,,,,,,
215438,1469891732811,,,,,,,-0.02,0.06,1.0,-3.0,0.4,0.1,960,0,,,,,,,,,,,,,,,,,
215458,1469891732831,0,70.9,68.9,56,71.0,,-0.01,0.07,1.0,-3.0,0.5,0.1,960,0,0.0,0,39.540737,-122.332199,0.0,0.001,267.4,11,3,1.3,0,0.0,-1,0.0,0.0,0.0,0
215478,1469891732851,,,,,,,-0.01,0.09,1.0,-3.1,0.5,0.2,940,0,,,,,,,,,,,,,,,,,
215498,1469891732871,,,,,,,-0.01,0.09,0.99,-3.1,0.4,0.2,900,0,,,,,,,,,,,,,,,,,
215518,1469891732899,,,,,,,-0.01,0.09,0.99,-3.1,0.5,0.2,900,0,,,,,,,,,,,,,,,,,
215538,1469891732919,,,,,,,-0.0,0.09,0.99,-3.0,0.4,0.1,920,0,,,,,,,,,,,,,,,,,
215558,1469891732939,,,,53,,,-0.01,0.09,1.0,-3.0,0.4,-0.0,920,0,0.0,0,39.540737,-122.332199,0.0,0.001,267.4,11,3,1.3,0,0.0,-1,0.0,,0.0,0
215578,1469891732959,,,,,,,-0.02,0.09,1.0,-3.0,0.5,-0.1,940,0,,,,,,,,,,,,,,,,,
215598,1469891732979,,,,,,,-0.02,0.08,0.99,-3.0,0.4,-0.2,940,0,,,,,,,,,,,,,,,,,
215618,1469891732999,,,,,,,-0.02,0.07,0.99,-3.0,0.4,-0.3,900,0,,,,,,,,,,,,,,,,,
215638,1469891733005,,,,,,,-0.01,0.06,0.99,-2.9,0.4,-0.4,940,0,,,,,,,,,,,,,,,,,
215658,1469891733025,0,71.8,70.6,53,72.5,,-0.01,0.06,0.99,-2.9,0.3,-0.4,940,0,0.0,0,39.540737,-122.332199,0.0,0.001,267.4,11,3,1.3,0,0.0,-1,0.0,0.0,0.0,0
215678,1469891733045,,,,,,,-0.01,0.06,0.99,-2.9,0.3,-0.4,940,0,,,,,,,,,,,,,,,,,
215698,1469891733065,,,,,,,-0.01,0.06,0.98,-3.0,0.2,-0.2,940,27,,,,,,,,,,,,,,,,,
215718,1469891733195,,,,,,,-0.02,0.06,0.98,-3.0,0.2,-0.2,940,1538461,,,,,,,,,,,,,,,,,
215738,1469891733215,,,,,,,-0.01,0.05,0.99,-3.0,0.2,-0.1,900,0,,,,,,,,,,,,,,,,,
215758,1469891733235,,,,54,,,-0.02,0.06,0.99,-3.0,0.3,0.1,900,0,0.0,0,39.540737,-122.332199,0.0,0.001,267.4,11,3,1.3,0,0.0,-1,0.0,,0.0,0
215778,1469891733255,,,,,,,-0.01,0.07,0.99,-3.1,0.3,0.2,900,0,,,,,,,,,,,,,,,,,
215798,1469891733275,,,,,,,-0.0,0.08,1.0,-3.1,0.3,0.2,920,0,,,,,,,,,,,,,,,,,
215818,1469891733295,,,,,,,-0.0,0.09,1.0,-3.2,0.3,0.2,920,0,,,,,,,,,,,,,,,,,
215838,1469891733315,,,,,,,-0.0,0.09,1.0,-3.2,0.2,0.2,940,0,,,,,,,,,,,,,,,,,
215858,1469891733335,0,72.1,71.0,55,72.5,,0.0,0.09,1.01,-3.2,0.2,0.1,940,0,0.0,0,39.540737,-122.332199,0.0,0.001,267.4,11,3,1.3,0,0.0,-1,0.0,0.0,0.0,0
215878,1469891733355,,,,,,,-0.0,0.09,1.01,-3.1,0.2,-0.0,900,0,,,,,,,,,,,,,,,,,
215898,1469891733375,,,,,,,-0.01,0.09,1.01,-3.1,0.2,-0.2,920,0,,,,,,,,,,,,,,,,,
215918,1469891733295,,,,,,,-0.02,0.08,1.0,-3.1,0.1,-0.2,940,0,,,,,,,,,,,,,,,,,
215938,1469891733315,,,,,,,-0.01,0.07,1.0,-3.1,0.2,-0.3,920,0,,,,,,,,,,,,,,,,,
215958,1469891733335,,,,55,,,-0.01,0.06,1.0,-3.0,0.3,-0.3,940,0,0.0,0,39.540737,-122.332199,0.0,0.001,267.4,11,3,1.3,0,0.0,-1,0.0,,0.0,0
215978,1469891733355,,,,,,,-0.01,0.06,1.0,-3.0,0.2,-0.3,940,0,,,,,,,,,,,,,,,,,
215998,1469891733375,,,,,,,-0.01,0.06,0.99,-3.0,0.2,-0.3,920,0,,,,,,,,,,,,,,,,,
216018,1469891733407,,,,,,,-0.01,0.06,0.98,-3.0,0.2,-0.2,920,0,,,,,,,,,,,,,,,,,
216038,1469891733427,,,,,,,-0.01,0.05,0.98,-3.0,0.2,-0.1,940,0,,,,,,,,,,,,,,,,,
216058,1469891733447,0,71.9,71.0,52,72.7,14.62,-0.01,0.05,0.98,-3.1,0.4,0.1,940,0,0.0,0,39.540737,-122.332199,0.0,0.001,267.4,11,3,1.3,0,0.0,-1,0.0,0.0,0.0,0
216078,1469891733467,,,,,,,-0.01,0.06,0.99,-3.0,0.4,0.1,960,23,,,,,,,,,,,,,,,,,
216098,1469891733487,,,,,,,-0.01,0.07,1.0,-3.1,0.5,0.2,960,23,,,,,,,,,,,,,,,,,
216118,1469891733494,,,,,,,-0.0,0.08,1.0,-3.1,0.5,0.2,940,23,,,,,,,,,,,,,,,,,
216138,1469891733514,,,,,,,0.0,0.09,1.01,-3.1,0.5,0.2,920,23,,,,,,,,,,,,,,,,,
216158,1469891733534,,,,61,,,0.0,0.08,1.01,-3.1,0.5,0.2,940,23,0.0,0,39.540737,-122.332199,0.0,0.001,267.4,11,3,1.3,0,0.0,-1,0.0,,0.0,0
216178,1469891733554,,,,,,,0.0,0.09,1.01,-3.1,0.4,0.2,940,0,,,,,,,,,,,,,,,,,
216198,1469891733574,,,,,,,0.0,0.09,1.01,-3.1,0.3,0.1,940,0,,,,,,,,,,,,,,,,,
216218,1469891733606,,,,,,,-0.0,0.09,1.01,-3.0,0.3,0.0,960,0,,,,,,,,,,,,,,,,,
216238,1469891733626,,,,,,,-0.01,0.09,1.02,-3.0,0.3,-0.1,960,0,,,,,,,,,,,,,,,,,
216258,1469891733646,0,70.9,70.0,55,72.1,,-0.01,0.09,1.01,-3.0,0.3,-0.1,920,0,0.001,0,39.540737,-122.332199,0.0,0.001,267.4,11,3,1.3,0,0.0,-1,0.0,0.0,0.0,0
216278,1469891733666,,,,,,,-0.01,0.08,1.0,-3.0,0.3,-0.2,940,0,,,,,,,,,,,,,,,,,
216298,1469891733686,,,,,,,-0.02,0.07,1.0,-3.0,0.2,-0.3,940,0,,,,,,,,,,,,,,,,,
216318,1469891733693,,,,,,,-0.02,0.06,1.0,-3.0,0.3,-0.4,940,0,,,,,,,,,,,,,,,,,
216338,1469891733713,,,,,,,-0.01,0.06,0.99,-3.0,0.3,-0.4,960,0,,,,,,,,,,,,,,,,,
216358,1469891733733,,,,54,,,-0.01,0.06,0.99,-2.9,0.3,-0.4,960,0,0.0,0,39.540737,-122.332199,0.0,0.001,267.4,11,3,1.3,0,0.0,-1,0.0,,0.0,0
216378,1469891733753,,,,,,,-0.0,0.07,0.99,-2.9,0.4,-0.4,920,0,,,,,,,,,,,,,,,,,
216398,1469891733773,,,,,,,-0.0,0.06,0.98,-3.0,0.3,-0.3,920,0,,,,,,,,,,,,,,,,,
216418,1469891733804,,,,,,,-0.0,0.06,0.98,-3.0,0.3,-0.2,920,0,,,,,,,,,,,,,,,,,
216438,1469891733824,,,,,,,-0.0,0.06,0.98,-3.1,0.3,-0.1,920,0,,,,,,,,,,,,,,,,,
216458,1469891733844,0,72.9,69.5,55,70.9,,0.0,0.06,0.99,-3.1,0.4,-0.0,920,0,0.0,0,39.540737,-122.332199,0.0,0.001,267.4,11,3,1.3,0,0.0,-1,0.0,0.0,0.0,0
216478,1469891733864,,,,,,,0.01,0.08,0.99,-3.1,0.5,0.0,920,0,,,,,,,,,,,,,,,,,
216498,1469891733884,,,,,,,0.01,0.09,0.99,-3.1,0.5,0.0,920,0,,,,,,,,,,,,,,,,,
216518,1469891733904,,,,,,,0.02,0.09,1.0,-3.2,0.5,0.1,880,0,,,,,,,,,,,,,,,,,
216538,1469891734007,,,,,,,0.02,0.09,1.0,-3.2,0.4,-0.0,900,0,,,,,,,,,,,,,,,,,
216558,1469891734027,,,,54,,,0.02,0.09,1.01,-3.2,0.3,-0.2,900,0,0.0,0,39.540737,-122.332199,0.0,0.001,267.4,11,3,1.3,0,0.0,-1,0.0,,0.0,0
216578,1469891734047,,,,,,,0.01,0.09,1.01,-3.2,0.2,-0.3,900,0,,,,,,,,,,,,,,,,,
216598,1469891734067,,,,,,,0.0,0.08,1.0,-3.2,0.2,-0.3,900,0,,,,,,,,,,,,,,,,,
216618,1469891734087,,,,,,,0.01,0.07,1.0,-3.2,0.3,-0.3,880,0,,,,,,,,,,,,,,,,,
216638,1469891734107,,,,,,,0.01,0.07,0.99,-3.1,0.2,-0.2,840,0,,,,,,,,,,,,,,,,,
216658,1469891734127,0,71.3,70.8,50,72.7,,0.01,0.07,0.99,-3.2,0.3,-0.1,840,0,0.0,0,39.540737,-122.332199,0.0,0.001,267.4,11,3,1.3,0,0.0,-1,0.0,0.0,0.0,0
216678,1469891734147,,,,,,,0.02,0.08,0.99,-3.2,0.4,0.1,840,0,,,,,,,,,,,,,,,,,
216698,1469891734167,,,,,,,0.02,0.08,0.99,-3.2,0.3,0.1,860,0,,,,,,,,,,,,,,,,,
216718,1469891734110,,,,,,,0.02,0.08,1.01,-3.2,0.3,-0.0,840,13,,,,,,,,,,,,,,,,,
216738,1469891734130,,,,,,,0.01,0.08,1.0,-3.2,0.2,-0.2,860,13,,,,,,,,,,,,,,,,,
216758,1469891734150,,,,50,,,0.01,0.07,1.01,-3.2,0.3,-0.3,840,13,0.0,0,39.540737,-122.332199,0.0,0.001,267.4,11,3,1.3,0,0.0,-1,0.0,,0.0,0
216778,1469891734170,,,,,,,0.01,0.07,1.0,-3.2,0.2,-0.2,820,13,,,,,,,,,,,,,,,,,
216798,1469891734190,,,,,,,0.01,0.07,1.0,-3.2,0.4,-0.1,820,13,,,,,,,,,,,,,,,,,
216818,1469891734197,,,,,,,0.02,0.08,1.0,-3.3,0.4,0.1,820,12,,,,,,,,,,,,,,,,,
216838,1469891734217,,,,,,,0.02,0.08,1.0,-3.3,0.3,0.0,840,12,,,,,,,,,,,,,,,,,
216858,1469891734237,0,70.7,68.8,47,72.0,,0.02,0.08,1.01,-3.3,0.3,-0.1,840,12,64.615,0,39.540737,-122.332199,0.0,0.001,267.4,11,3,1.3,0,0.0,-1,0.0,0.0,0.0,0
216878,1469891734257,,,,,,,0.01,0.07,1.0,-3.2,0.3,-0.3,860,12,,,,,,,,,,,,,,,,,
216898,1469891734277,,,,,,,0.0,0.06,1.0,-3.2,0.3,-0.4,840,12,,,,,,,,,,,,,,,,,
216918,1469891734309,,,,,,,0.0,0.06,0.99,-3.2,0.2,-0.3,840,16,,,,,,,,,,,,,,,,,
216938,1469891734329,,,,,,,0.01,0.06,0.99,-3.3,0.4,-0.1,820,16,,,,,,,,,,,,,,,,,
216958,1469891734349,,,,45,,,0.02,0.08,0.99,-3.3,0.5,0.0,820,16,70.0,0,39.540737,-122.332199,0.0,0.001,267.4,11,3,1.3,0,0.0,-1,0.0,,0.0,0
216978,1469891734369,,,,,,,0.02,0.08,1.0,-3.3,0.4,-0.0,840,16,,,,,,,,,,,,,,,,,
216998,1469891734389,,,,,,,0.01,0.07,1.0,-3.2,0.4,-0.2,840,18,,,,,,,,,,,,,,,,,
217018,1469891734396,,,,,,,0.0,0.07,1.0,-3.2,0.4,-0.4,880,18,,,,,,,,,,,,,,,,,
217038,1469891734416,,,,,,,0.01,0.06,1.0,-3.2,0.3,-0.4,860,18,,,,,,,,,,,,,,,,,
217058,1469891734436,0,71.0,69.0,48,72.1,14.61,0.01,0.06,0.99,-3.2,0.2,-0.3,840,20,52.5,0,39.540737,-122.332199,0.0,0.001,267.4,11,3,1.3,0,0.0,-1,0.0,0.0,0.0,0
217078,1469891734456,,,,,,,0.01,0.06,0.99,-3.3,0.5,-0.1,840,20,,,,,,,,,,,,,,,,,
217098,1469891734476,,,,,,,0.02,0.07,0.99,-3.3,0.4,0.1,860,20,,,,,,,,,,,,,,,,,
217118,1469891734507,,,,,,,0.02,0.08,1.0,-3.3,0.4,0.0,880,20,,,,,,,,,,,,,,,,,
217138,1469891734527,,,,,,,0.02,0.08,1.01,-3.3,0.3,-0.1,880,20,,,,,,,,,,,,,,,,,
217158,1469891734547,,,,50,,,0.01,0.07,1.01,-3.3,0.3,-0.2,900,20,42.0,0,39.540737,-122.332199,0.0,0.001,267.4,11,3,1.3,0,0.0,-1,0.0,,0.0,0
217178,1469891734567,,,,,,,0.01,0.06,1.01,-3.3,0.2,-0.4,880,20,,,,,,,,,,,,,,,,,
217198,1469891734587,,,,,,,0.01,0.06,1.0,-3.3,0.3,-0.4,880,24,,,,,,,,,,,,,,,,,
217218,1469891734594,,,,,,,0.01,0.06,0.99,-3.3,0.2,-0.4,860,24,,,,,,,,,,,,,,,,,
217238,1469891734614,,,,,,,0.01,0.06,0.99,-3.4,0.2,-0.2,880,24,,,,,,,,,,,,,,,,,
217258,1469891734634,0,70.8,68.8,51,71.5,,0.01,0.06,0.99,-3.4,0.4,-0.0,880,24,45.0,0,39.540737,-122.332199,0.0,0.001,267.4,11,3,1.3,0,0.0,-1,0.0,0.0,0.0,0
217278,1469891734654,,,,,,,0.02,0.07,0.99,-3.4,0.5,0.0,900,24,,,,,,,,,,,,,,,,,
217298,1469891734674,,,,,,,0.02,0.08,1.0,-3.4,0.3,0.0,920,24,,,,,,,,,,,,,,,,,
217318,1469891734801,,,,,,,0.02,0.08,1.01,-3.5,0.4,-0.0,900,24,,,,,,,,,,,,,,,,,
217338,1469891734821,,,,,,,0.02,0.09,1.01,-3.5,0.3,-0.1,900,24,,,,,,,,,,,,,,,,,
217358,1469891734841,,,,52,,,0.01,0.08,1.01,-3.4,0.3,-0.3,900,24,37.5,0,39.540737,-122.332199,0.0,0.001,267.4,11,3,1.3,0,0.0,-1,0.0,,0.0,0
217378,1469891734861,,,,,,,0.0,0.07,1.01,-3.4,0.3,-0.4,920,26,,,,,,,,,,,,,,,,,
217398,1469891734881,,,,,,,0.0,0.07,1.0,-3.4,0.3,-0.5,920,26,,,,,,,,,,,,,,,,,
217418,1469891734901,,,,,,,0.01,0.06,1.0,-3.4,0.4,-0.5,940,27,,,,,,,,,,,,,,,,,
217438,1469891734921,,,,,,,0.01,0.06,1.0,-3.4,0.3,-0.6,920,27,,,,,,,,,,,,,,,,,
217458,1469891734941,0,71.0,69.0,53,71.5,,0.01,0.06,0.99,-3.4,0.2,-0.5,920,27,34.615,0,39.540737,-122.332199,0.0,0.001,267.4,11,3,1.3,0,0.0,-1,0.0,0.0,0.0,0
217478,1469891734961,,,,,,,0.01,0.04,0.98,-3.4,0.2,-0.4,920,29,,,,,,,,,,,,,,,,,
217498,1469891734981,,,,,,,0.0,0.05,0.99,-3.5,0.3,-0.3,940,29,,,,,,,,,,,,,,,,,
217518,1469891734896,,,,,,,0.0,0.06,0.99,-3.5,0.5,-0.1,940,29,,,,,,,,,,,,,,,,,
217538,1469891734916,,,,,,,0.0,0.07,1.0,-3.5,0.5,-0.0,940,29,,,,,,,,,,,,,,,,,
217558,1469891734936,,,,51,,,0.01,0.07,1.0,-3.6,0.5,-0.0,960,29,31.724,0,39.540737,-122.332199,0.0,0.001,267.4,11,3,1.3,0,0.0,-1,0.0,,0.0,0
217578,1469891734956,,,,,,,0.01,0.08,1.0,-3.6,0.5,0.0,940,29,,,,,,,,,,,,,,,,,
217598,1469891734976,,,,,,,0.01,0.08,1.0,-3.6,0.5,0.0,940,23,,,,,,,,,,,,,,,,,
217618,1469891734996,,,,,,,0.01,0.08,1.0,-3.7,0.4,0.0,940,23,,,,,,,,,,,,,,,,,
217638,1469891735008,,,,,,,0.01,0.08,1.01,-3.7,0.6,0.0,960,23,,,,,,,,,,,,,,,,,
217658,1469891735028,0,71.0,68.8,53,71.4,,0.01,0.08,1.0,-3.6,0.5,-0.1,960,23,32.414,0,39.540737,-122.332199,0.0,0.001,267.4,11,3,1.3,0,0.0,-1,0.0,0.0,0.0,0
217678,1469891735048,,,,,,,0.0,0.09,1.0,-3.7,0.5,-0.1,960,23,,,,,,,,,,,,,,,,,
217698,1469891735068,,,,,,,0.0,0.08,1.0,-3.6,0.5,-0.2,960,15,,,,,,,,,,,,,,,,,
217718,1469891735104,,,,,,,-0.0,0.09,1.01,-3.6,0.5,-0.3,960,15,,,,,,,,,,,,,,,,,
217738,1469891735124,,,,,,,-0.01,0.08,1.01,-3.6,0.5,-0.4,940,15,,,,,,,,,,,,,,,,,
217758,1469891735144,,,,57,,,-0.01,0.08,1.0,-3.6,0.5,-0.4,960,15,41.739,0,39.540737,-122.332199,0.0,0.001,267.4,11,3,1.3,0,0.0,-1,0.0,,0.0,0
217778,1469891735164,,,,,,,-0.02,0.07,1.0,-3.6,0.5,-0.5,960,15,,,,,,,,,,,,,,,,,
217798,1469891735184,,,,,,,-0.01,0.07,0.99,-3.5,0.5,-0.5,960,13,,,,,,,,,,,,,,,,,
217818,1469891735196,,,,,,,-0.01,0.06,0.98,-3.5,0.5,-0.6,960,13,,,,,,,,,,,,,,,,,
217838,1469891735216,,,,,,,-0.01,0.07,0.98,-3.6,0.5,-0.5,960,32,,,,,,,,,,,,,,,,,
217858,1469891735236,0,71.4,69.4,57,70.8,,-0.0,0.07,0.98,-3.6,0.4,-0.6,940,32,64.0,0,39.540737,-122.332199,0.0,0.001,267.4,11,3,1.3,0,0.0,-1,0.0,0.0,0.0,0
217878,1469891735256,,,,,,,-0.0,0.06,0.99,-3.6,0.5,-0.6,960,38,,,,,,,,,,,,,,,,,
217898,1469891735276,,,,,,,-0.0,0.06,0.99,-3.6,0.4,-0.6,960,38,,,,,,,,,,,,,,,,,
217918,1469891735296,,,,,,,-0.0,0.06,0.99,-3.6,0.4,-0.6,960,35,,,,,,,,,,,,,,,,,
217938,1469891735309,,,,,,,-0.0,0.06,0.99,-3.6,0.4,-0.5,980,35,,,,,,,,,,,,,,,,,
217958,1469891735329,,,,57,,,-0.0,0.05,0.99,-3.6,0.4,-0.5,960,30,24.737,0,39.540737,-122.332199,0.0,0.001,267.4,11,3,1.3,0,0.0,-1,0.0,,0.0,0
217978,1469891735349,,,,,,,-0.01,0.04,0.98,-3.6,0.3,-0.4,960,30,,,,,,,,,,,,,,,,,
217998,1469891735369,,,,,,,-0.0,0.04,0.98,-3.6,0.3,-0.3,960,33,,,,,,,,,,,,,,,,,
218018,1469891735405,,,,,,,-0.01,0.04,0.98,-3.6,0.3,-0.1,960,33,,,,,,,,,,,,,,,,,
218038,1469891735425,,,,,,,-0.01,0.04,0.98,-3.7,0.2,-0.1,960,36,,,,,,,,,,,,,,,,,
218058,1469891735445,0,72.5,70.9,58,72.6,14.67,-0.01,0.04,0.98,-3.6,0.2,-0.0,960,36,32.0,0,39.540737,-122.332199,0.0,0.001,267.4,11,3,1.3,0,0.0,-1,0.0,0.0,0.0,0
218078,1469891735465,,,,,,,-0.01,0.05,0.99,-3.7,0.2,0.0,940,36,,,,,,,,,,,,,,,,,
218098,1469891735485,,,,,,,-0.01,0.06,0.99,-3.7,0.3,0.1,940,33,,,,,,,,,,,,,,,,,
218118,1469891735596,,,,,,,-0.0,0.07,0.99,-3.7,0.2,0.2,940,33,,,,,,,,,,,,,,,,,
218138,1469891735616,,,,,,,-0.0,0.08,0.99,-3.8,0.2,0.2,940,33,,,,,,,,,,,,,,,,,
218158,1469891735636,,,,56,,,-0.0,0.08,0.99,-3.8,0.3,0.2,940,33,26.667,0,39.540737,-122.332199,0.0,0.001,267.4,11,3,1.3,0,0.0,-1,0.0,,0.0,0
218178,1469891735656,,,,,,,-0.0,0.08,0.99,-3.8,0.3,0.2,960,35,,,,,,,,,,,,,,,,,
218198,1469891735676,,,,,,,-0.0,0.07,1.0,-3.8,0.4,0.1,940,35,,,,,,,,,,,,,,,,,
218218,1469891735696,,,,,,,-0.0,0.07,0.99,-3.7,0.3,0.1,920,35,,,,,,,,,,,,,,,,,
218238,1469891735716,,,,,,,-0.0,0.07,0.99,-3.7,0.2,0.1,920,35,,,,,,,,,,,,,,,,,
218258,1469891735736,0,71.3,69.2,54,71.2,,-0.01,0.08,1.0,-3.6,0.3,-0.1,920,33,27.429,0,39.540737,-122.332199,0.0,0.001,267.4,11,3,1.3,0,0.0,-1,0.0,0.0,0.0,0
218278,1469891735756,,,,,,,-0.01,0.07,1.01,-3.6,0.2,-0.2,920,33,,,,,,,,,,,,,,,,,
218298,1469891735776,,,,,,,-0.02,0.08,1.0,-3.6,0.0,-0.3,940,33,,,,,,,,,,,,,,,,,
218318,1469891735703,,,,,,,-0.02,0.07,1.0,-3.5,0.1,-0.3,940,32,,,,,,,,,,,,,,,,,
218338,1469891735723,,,,,,,-0.02,0.06,1.0,-3.5,0.2,-0.4,920,32,,,,,,,,,,,,,,,,,
218358,1469891735743,,,,54,,,-0.01,0.06,0.99,-3.5,0.3,-0.3,920,35,27.879,0,39.540737,-122.332199,0.0,0.001,267.4,11,3,1.3,0,0.0,-1,0.0,,0.0,0
218378,1469891735763,,,,,,,-0.01,0.06,0.99,-3.5,0.1,-0.3,940,35,,,,,,,,,,,,,,,,,
218398,1469891735783,,,,,,,-0.01,0.06,0.98,-3.6,0.0,-0.2,940,33,,,,,,,,,,,,,,,,,
218418,1469891735795,,,,,,,-0.01,0.06,0.98,-3.7,0.2,-0.1,960,33,,,,,,,,,,,,,,,,,
218438,1469891735815,,,,,,,-0.01,0.06,0.97,-3.7,0.3,0.0,940,33,,,,,,,,,,,,,,,,,
218458,1469891735835,0,71.0,69.2,54,72.1,,-0.01,0.06,0.98,-3.7,0.4,0.1,920,33,26.286,0,39.540737,-122.332199,0.0,0.001,267.4,11,3,1.3,0,0.0,-1,0.0,0.0,0.0,0
218478,1469891735855,,,,,,,-0.01,0.06,0.99,-3.7,0.4,0.1,920,33,,,,,,,,,,,,,,,,,
218498,1469891735875,,,,,,,-0.01,0.07,0.99,-3.7,0.4,0.2,920,33,,,,,,,,,,,,,,,,,
218518,1469891735895,,,,,,,-0.0,0.09,0.99,-3.7,0.4,0.2,940,33,,,,,,,,,,,,,,,,,
218538,1469891735904,,,,,,,-0.0,0.08,1.0,-3.7,0.3,0.2,940,33,,,,,,,,,,,,,,,,,
218558,1469891735924,,,,60,,,-0.0,0.08,1.0,-3.8,0.3,0.2,960,33,27.879,0,39.540737,-122.332199,0.0,0.001,267.4,11,3,1.3,0,0.0,-1,0.0,,0.0,0
218578,1469891735944,,,,,,,-0.0,0.08,1.0,-3.8,0.2,0.2,960,33,,,,,,,,,,,,,,,,,
218598,1469891735964,,,,,,,-0.0,0.08,1.01,-3.7,0.1,0.1,940,33,,,,,,,,,,,,,,,,,
218618,1469891735998,,,,,,,-0.01,0.08,1.01,-3.7,0.1,0.1,940,32,,,,,,,,,,,,,,,,,
218638,1469891736018,,,,,,,-0.01,0.08,1.01,-3.7,0.2,-0.0,940,32,,,,,,,,,,,,,,,,,
218658,1469891736038,0,71.0,69.5,55,72.0,,-0.02,0.08,1.01,-3.6,0.2,-0.1,940,32,29.091,0,39.540737,-122.332199,0.0,0.001,267.4,11,3,1.3,0,0.0,-1,0.0,0.0,0.0,0
218678,1469891736058,,,,,,,-0.03,0.07,1.0,-3.6,0.2,-0.1,960,32,,,,,,,,,,,,,,,,,
218698,1469891736078,,,,,,,-0.03,0.07,1.0,-3.6,0.2,-0.1,960,32,,,,,,,,,,,,,,,,,
218718,1469891736098,,,,,,,-0.03,0.05,0.99,-3.6,0.2,-0.2,920,32,,,,,,,,,,,,,,,,,
218738,1469891736110,,,,,,,-0.02,0.05,0.99,-3.6,0.2,-0.2,940,32,,,,,,,,,,,,,,,,,
218758,1469891736130,,,,58,,,-0.02,0.05,0.99,-3.5,0.2,-0.3,940,32,30.0,0,39.540737,-122.332199,0.0,0.001,267.4,11,3,1.3,0,0.0,-1,0.0,,0.0,0
218778,1469891736150,,,,,,,-0.02,0.05,0.99,-3.5,0.2,-0.3,940,30,,,,,,,,,,,,,,,,,
218798,1469891736170,,,,,,,-0.02,0.05,0.98,-3.5,0.2,-0.2,960,30,,,,,,,,,,,,,,,,,
218818,1469891736204,,,,,,,-0.02,0.05,0.98,-3.5,0.1,-0.2,960,30,,,,,,,,,,,,,,,,,
218838,1469891736224,,,,,,,-0.02,0.05,0.98,-3.5,0.1,-0.1,940,30,,,,,,,,,,,,,,,,,
218858,1469891736244,0,72.8,71.2,54,70.9,,-0.02,0.05,0.98,-3.6,0.1,-0.0,940,30,31.333,0,39.540737,-122.332199,0.0,0.001,267.4,11,3,1.3,0,0.0,-1,0.0,0.0,0.0,0
218878,1469891736264,,,,,,,-0.02,0.05,0.98,-3.6,0.2,0.1,940,29,,,,,,,,,,,,,,,,,
218898,1469891736284,,,,,,,-0.02,0.07,0.99,-3.6,0.3,0.2,940,29,,,,,,,,,,,,,,,,,
218918,1469891736394,,,,,,,-0.02,0.07,0.99,-3.6,0.3,0.3,960,27,,,,,,,,,,,,,,,,,
218938,1469891736414,,,,,,,-0.01,0.08,0.99,-3.6,0.4,0.3,960,27,,,,,,,,,,,,,,,,,
218958,1469891736434,,,,57,,,-0.01,0.08,1.0,-3.6,0.4,0.3,960,27,32.414,0,39.540737,-122.332199,0.0,0.001,267.4,11,3,1.3,0,0.0,-1,0.0,,0.0,0
218978,1469891736454,,,,,,,-0.01,0.08,1.0,-3.6,0.4,0.3,940,27,,,,,,,,,,,,,,,,,
218998,1469891736474,,,,,,,-0.01,0.08,1.0,-3.6,0.4,0.3,940,27,,,,,,,,,,,,,,,,,
219018,1469891736494,,,,,,,-0.01,0.08,1.0,-3.6,0.3,0.3,960,27,,,,,,,,,,,,,,,,,
219038,1469891736514,,,,,,,-0.01,0.08,1.0,-3.6,0.3,0.2,960,26,,,,,,,,,,,,,,,,,
219058,1469891736534,0,71.9,70.5,54,72.7,14.68,-0.01,0.09,0.99,-3.6,0.2,0.2,960,26,34.815,0,39.540737,-122.332199,0.0,0.001,267.4,11,3,1.3,0,0.0,-1,0.0,0.0,0.0,0
219078,1469891736554,,,,,,,-0.01,0.09,0.99,-3.6,0.1,0.1,960,26,,,,,,,,,,,,,,,,,
219098,1469891736574,,,,,,,-0.01,0.09,1.0,-3.6,0.1,0.1,940,26,,,,,,,,,,,,,,,,,
219118,1469891736500,,,,,,,-0.02,0.09,1.0,-3.5,0.1,0.0,960,26,,,,,,,,,,,,,,,,,
