"Interval"|"ms"|0|0|1,"Utc"|"ms"|0|0|1,"FuelLevel"|"F"|0|100|5,"OilTemp"|"F"|0.0|300.0|5,"Coolant"|"F"|0.0|300.0|5,"OilPress"|"PSI"|0|150|10,"EngineTemp"|"F"|0.0|300.0|5,"Battery"|"Volts"|0.0|20.0|1,"AccelX"|"G"|-3.0|3.0|50,"AccelY"|"G"|-3.0|3.0|50,"AccelZ"|"G"|-3.0|3.0|50,"Yaw"|"Deg/Sec"|-300.0|300.0|50,"Pitch"|"Deg/Sec"|-300.0|300.0|50,"Roll"|"Deg/Sec"|-300.0|300.0|50,"RPM"|""|0|10000|50,"Driveshaft"|"RPM"|0|5000|50,"GearRatio"|""|-5.0|5.0|10,"Gear"|""|-1|5|10,"Latitude"|"Degrees"|-180.0|180.0|10,"Longitude"|"Degrees"|-180.0|180.0|10,"Speed"|"MPH"|0.0|150.0|10,"Distance"|"Miles"|0.0|0.0|10,"Altitude"|"Feet"|0.0|4000.0|10,"GPSSats"|""|0|20|10,"GPSQual"|""|0|5|10,"GPSDOP"|""|0.0|20.0|10,"LapCount"|""|0|0|10,"LapTime"|"Min"|0.0|0.0|10,"Sector"|""|0|0|10,"SectorTime"|"Min"|0.0|0.0|10,"PredTime"|"Min"|0.0|0.0|5,"ElapsedTime"|"Min"|0.0|0.0|10,"CurrentLap"|""|0|0|10
,,,,,,,,,,,,,,,,,,,,,,,,,,,,,,,,
8886,1469892055691,,,,,,,0.04,0.07,1.0,-3.3,-0.1,-0.1,1260,24,,,,,,,,,,,,,,,,,
8906,1469892055711,,,,,,,0.03,0.07,0.99,-3.3,-0.2,-0.1,1280,27,,,,,,,,,,,,,,,,,
8926,1469892055731,,,,,,,0.03,0.06,1.0,-3.3,-0.0,-0.1,1260,27,,,,,,,,,,,,,,,,,
8946,1469892055755,,,,59,,,0.03,0.06,1.0,-3.3,-0.2,-0.1,1260,27,53.333,0,39.536564,-122.332466,0.0,0.0,359.9,7,2,0.2,0,0.0,-1,0.0,,0.0,0
8966,1469892055775,,,,,,,0.03,0.07,1.0,-3.3,-0.2,-0.1,1240,27,,,,,,,,,,,,,,,,,
8986,1469892055795,,,,,,,0.03,0.07,1.0,-3.2,-0.3,-0.1,1240,27,,,,,,,,,,,,,,,,,
9006,1469892055815,,,,,,,0.03,0.06,1.0,-3.2,-0.2,-0.1,1240,27,,,,,,,,,,,,,,,,,
9026,1469892055835,,,,,,,0.03,0.06,1.0,-3.2,-0.2,-0.1,1220,27,,,,,,,,,,,,,,,,,
9046,1469892055855,0,95.6,124.3,60,117.2,14.66,0.03,0.06,1.0,-3.2,-0.2,-0.0,1200,27,53.333,0,39.536564,-122.332466,0.0,0.0,359.9,7,2,0.2,0,0.0,-1,0.0,0.0,0.0,0
9066,1469892055853,,,,,,,0.04,0.06,1.0,-3.2,-0.2,-0.0,1180,29,,,,,,,,,,,,,,,,,
9086,1469892055873,,,,,,,0.03,0.05,1.0,-3.2,-0.0,0.0,1180,29,,,,,,,,,,,,,,,,,
9106,1469892055893,,,,,,,0.03,0.06,1.0,-3.2,-0.1,0.0,1180,29,,,,,,,,,,,,,,,,,
9126,1469892055913,,,,,,,0.03,0.06,1.0,-3.2,-0.0,-0.0,1160,29,,,,,,,,,,,,,,,,,
9146,1469892055954,,,,55,,,0.03,0.07,1.0,-3.3,-0.1,-0.0,1160,29,41.379,0,39.536572,-122.332466,0.0,0.001,336.6,7,2,0.2,0,0.0,-1,0.0,,0.0,0
9166,1469892055974,,,,,,,0.03,0.07,1.01,-3.2,-0.2,-0.0,1140,30,,,,,,,,,,,,,,,,,
9186,1469892055994,,,,,,,0.03,0.07,1.01,-3.2,-0.0,-0.0,1140,30,,,,,,,,,,,,,,,,,
9206,1469892056014,,,,,,,0.03,0.06,1.01,-3.3,0.1,-0.1,1140,30,,,,,,,,,,,,,,,,,
9226,1469892056034,,,,,,,0.03,0.07,1.01,-3.3,-0.0,-0.1,1120,30,,,,,,,,,,,,,,,,,
9246,1469892056152,0,95.5,124.9,53,117.4,,0.04,0.07,1.01,-3.3,0.0,-0.1,1120,32,38.667,0,39.536572,-122.332458,0.0,0.001,329.8,7,2,0.2,0,0.0,-1,0.0,0.0,0.0,0
9266,1469892056172,,,,,,,0.04,0.07,1.0,-3.3,-0.0,-0.1,1100,32,,,,,,,,,,,,,,,,,
9286,1469892056192,,,,,,,0.04,0.07,1.0,-3.3,-0.0,-0.1,1100,32,,,,,,,,,,,,,,,,,
9306,1469892056212,,,,,,,0.04,0.07,1.0,-3.3,-0.0,-0.1,1100,32,,,,,,,,,,,,,,,,,
9326,1469892056232,,,,,,,0.05,0.07,1.0,-3.3,0.1,-0.1,1080,32,,,,,,,,,,,,,,,,,
9346,1469892056252,,,,48,,,0.05,0.07,1.0,-3.3,-0.1,-0.2,1080,30,34.375,0,39.536572,-122.332458,0.0,0.001,329.8,7,2,0.2,0,0.0,-1,0.0,,0.0,0
9366,1469892056272,,,,,,,0.04,0.07,1.0,-3.3,-0.1,-0.1,1060,30,,,,,,,,,,,,,,,,,
9386,1469892056292,,,,,,,0.04,0.06,0.99,-3.3,-0.1,-0.2,1060,30,,,,,,,,,,,,,,,,,
9406,1469892056312,,,,,,,0.05,0.06,0.99,-3.3,-0.1,-0.1,1060,30,,,,,,,,,,,,,,,,,
9426,1469892056332,,,,,,,0.05,0.05,0.99,-3.3,-0.1,-0.1,1060,30,,,,,,,,,,,,,,,,,
9446,1469892056252,0,96.7,125.2,47,117.3,,0.05,0.05,0.99,-3.3,-0.1,-0.1,1040,29,36.0,0,39.536572,-122.332458,0.0,0.001,327.2,7,2,0.2,0,0.0,-1,0.0,0.0,0.0,0
9466,1469892056272,,,,,,,0.05,0.05,0.99,-3.3,-0.1,-0.1,1020,29,,,,,,,,,,,,,,,,,
9486,1469892056292,,,,,,,0.05,0.06,0.99,-3.3,-0.0,-0.1,1020,29,,,,,,,,,,,,,,,,,
9506,1469892056312,,,,,,,0.05,0.06,0.99,-3.3,-0.0,-0.1,1020,29,,,,,,,,,,,,,,,,,
9526,1469892056332,,,,,,,0.05,0.06,1.0,-3.3,0.0,-0.2,1020,29,,,,,,,,,,,,,,,,,
9546,1469892056352,,,,47,,,0.05,0.06,0.99,-3.2,0.0,-0.2,1020,29,35.862,0,39.536572,-122.332458,0.0,0.001,325.7,7,2,0.2,0,0.0,-1,0.0,,0.0,0
9566,1469892056372,,,,,,,0.05,0.06,1.0,-3.2,0.0,-0.2,1000,27,,,,,,,,,,,,,,,,,
9586,1469892056392,,,,,,,0.05,0.05,1.0,-3.2,-0.2,-0.2,1000,33,,,,,,,,,,,,,,,,,
9606,1469892056412,,,,,,,0.04,0.1,0.98,-3.1,-0.2,-0.4,980,86,,,,,,,,,,,,,,,,,
9626,1469892056432,,,,,,,0.04,0.1,1.02,-3.1,-0.0,-0.4,980,347,,,,,,,,,,,,,,,,,
9646,1469892056452,0,95.5,125.5,57,118.5,,0.06,0.12,0.99,-2.9,-0.4,-0.6,980,100,37.778,0,39.536572,-122.332458,0.0,0.001,323.6,7,2,0.2,0,0.0,-1,0.0,0.0,0.0,0
9666,1469892056472,,,,,,,0.05,0.15,0.99,-3.0,-0.4,-0.6,980,100,,,,,,,,,,,,,,,,,
9686,1469892056492,,,,,,,0.04,0.13,1.0,-3.0,-0.3,-0.6,980,109,,,,,,,,,,,,,,,,,
9706,1469892056512,,,,,,,0.04,0.13,0.99,-2.9,-0.5,-0.7,960,109,,,,,,,,,,,,,,,,,
9726,1469892056532,,,,,,,0.05,0.11,0.99,-3.0,-0.5,-0.7,960,32,,,,,,,,,,,,,,,,,
9746,1469892056552,,,,58,,,0.04,0.1,0.98,-3.0,-0.5,-0.7,960,32,9.8,0,39.536572,-122.332458,0.0,0.001,321.9,7,2,0.2,0,0.0,-1,0.0,,0.0,0
9766,1469892056572,,,,,,,0.04,0.1,0.98,-3.0,-0.4,-0.7,960,36,,,,,,,,,,,,,,,,,
9786,1469892056592,,,,,,,0.05,0.09,0.98,-3.0,-0.4,-0.6,960,36,,,,,,,,,,,,,,,,,
9806,1469892056612,,,,,,,0.05,0.08,0.98,-3.0,-0.1,-0.5,940,30,,,,,,,,,,,,,,,,,
9826,1469892056632,,,,,,,0.05,0.08,0.98,-3.0,-0.1,-0.5,940,30,,,,,,,,,,,,,,,,,
9846,1469892056651,0,96.5,125.0,52,117.4,,0.05,0.08,0.98,-3.0,-0.1,-0.4,940,30,26.667,0,39.536572,-122.332458,0.0,0.001,321.9,7,2,0.2,0,0.0,-1,0.0,0.0,0.0,0
9866,1469892056671,,,,,,,0.06,0.07,0.97,-3.0,-0.0,-0.4,940,30,,,,,,,,,,,,,,,,,
9886,1469892056691,,,,,,,0.06,0.06,0.97,-3.1,-0.1,-0.3,940,30,,,,,,,,,,,,,,,,,
9906,1469892056711,,,,,,,0.06,0.06,0.97,-3.1,-0.1,-0.2,940,20,,,,,,,,,,,,,,,,,
9926,1469892056731,,,,,,,0.06,0.06,0.98,-3.1,-0.1,-0.1,940,20,,,,,,,,,,,,,,,,,
9946,1469892056751,,,,53,,,0.05,0.07,0.99,-3.1,-0.1,-0.1,940,20,31.333,0,39.536572,-122.332458,0.0,0.001,321.9,7,2,0.2,0,0.0,-1,0.0,,0.0,0
9966,1469892056771,,,,,,,0.06,0.07,0.99,-3.2,0.1,0.1,940,20,,,,,,,,,,,,,,,,,
9986,1469892056791,,,,,,,0.06,0.08,1.0,-3.2,0.1,0.1,940,1538461,,,,,,,,,,,,,,,,,
10006,1469892056811,,,,,,,0.06,0.08,1.0,-3.2,0.2,0.2,940,0,,,,,,,,,,,,,,,,,
10026,1469892056831,,,,,,,0.06,0.08,1.0,-3.2,0.2,0.1,940,0,,,,,,,,,,,,,,,,,
10046,1469892056943,0,96.0,125.7,55,119.0,14.7,0.07,0.08,1.0,-3.2,0.1,0.1,960,0,47.0,0,39.536572,-122.332458,0.0,0.001,321.9,7,2,0.2,0,0.0,-1,0.0,0.0,0.0,0
10066,1469892056963,,,,,,,0.07,0.08,1.0,-3.1,0.1,-0.0,940,0,,,,,,,,,,,,,,,,,
10086,1469892056983,,,,,,,0.07,0.08,1.0,-3.1,0.1,-0.1,940,23,,,,,,,,,,,,,,,,,
10106,1469892057003,,,,,,,0.07,0.08,1.01,-3.1,-0.0,-0.1,940,23,,,,,,,,,,,,,,,,,
10126,1469892057023,,,,,,,0.06,0.07,1.01,-3.1,-0.2,-0.2,940,23,,,,,,,,,,,,,,,,,
10146,1469892057043,,,,53,,,0.06,0.07,1.0,-3.1,-0.2,-0.3,960,23,0.0,0,39.536572,-122.332458,0.0,0.001,321.9,7,2,0.2,0,0.0,-1,0.0,,0.0,0
10166,1469892057063,,,,,,,0.05,0.06,1.0,-3.1,-0.3,-0.3,980,23,,,,,,,,,,,,,,,,,
10186,1469892057083,,,,,,,0.05,0.06,0.99,-3.1,-0.3,-0.3,960,18,,,,,,,,,,,,,,,,,
10206,1469892057103,,,,,,,0.05,0.06,0.99,-3.1,-0.3,-0.4,960,18,,,,,,,,,,,,,,,,,
10226,1469892057123,,,,,,,0.05,0.06,0.98,-3.1,-0.2,-0.5,960,18,,,,,,,,,,,,,,,,,
10246,1469892057047,0,95.3,124.7,58,117.8,,0.04,0.06,0.98,-3.0,-0.1,-0.5,960,18,41.739,0,39.536572,-122.332458,0.0,0.001,321.9,7,2,0.2,0,0.0,-1,0.0,0.0,0.0,0
10266,1469892057067,,,,,,,0.05,0.06,0.98,-3.0,-0.1,-0.5,980,1538461,,,,,,,,,,,,,,,,,
10286,1469892057087,,,,,,,0.05,0.05,0.98,-3.0,0.0,-0.5,1000,0,,,,,,,,,,,,,,,,,
10306,1469892057107,,,,,,,0.05,0.05,0.98,-2.9,0.1,-0.5,980,1889,,,,,,,,,,,,,,,,,
10326,1469892057127,,,,,,,0.05,0.06,0.98,-3.0,0.3,-0.5,980,1889,,,,,,,,,,,,,,,,,
10346,1469892057151,,,,54,,,0.04,0.05,0.98,-3.1,0.2,-0.5,980,1889,53.333,0,39.536572,-122.332458,0.0,0.001,321.9,7,2,0.2,0,0.0,-1,0.0,,0.0,0
10366,1469892057171,,,,,,,0.05,0.05,0.98,-3.1,0.4,-0.4,980,1889,,,,,,,,,,,,,,,,,
10386,1469892057191,,,,,,,0.04,0.04,0.98,-3.1,0.3,-0.3,980,1889,,,,,,,,,,,,,,,,,
10406,1469892057211,,,,,,,0.04,0.04,0.98,-3.1,0.3,-0.3,1000,13,,,,,,,,,,,,,,,,,
10426,1469892057231,,,,,,,0.04,0.04,0.98,-3.1,0.3,-0.2,980,13,,,,,,,,,,,,,,,,,
10446,1469892057249,0,95.5,125.4,56,119.1,,0.04,0.03,0.98,-3.1,0.2,-0.2,980,13,0.519,0,39.536572,-122.332458,0.0,0.001,321.9,7,2,0.2,0,0.0,-1,0.0,0.0,0.0,0
10466,1469892057269,,,,,,,0.04,0.03,0.97,-3.1,0.1,-0.1,980,13,,,,,,,,,,,,,,,,,
10486,1469892057289,,,,,,,0.04,0.03,0.97,-3.1,0.1,-0.1,980,13,,,,,,,,,,,,,,,,,
10506,1469892057309,,,,,,,0.04,0.03,0.97,-3.1,-0.0,-0.0,1000,13,,,,,,,,,,,,,,,,,
10526,1469892057329,,,,,,,0.04,0.03,0.98,-3.2,-0.1,0.0,1000,13,,,,,,,,,,,,,,,,,
10546,1469892057348,,,,58,,,0.04,0.03,0.98,-3.2,-0.2,0.1,1000,13,75.385,0,39.536575,-122.332458,0.0,0.001,317.6,11,2,1.3,0,0.0,-1,0.0,,0.0,0
10566,1469892057368,,,,,,,0.04,0.03,0.98,-3.2,-0.2,0.1,1000,13,,,,,,,,,,,,,,,,,
10586,1469892057388,,,,,,,0.04,0.03,0.98,-3.2,-0.2,0.1,1000,13,,,,,,,,,,,,,,,,,
10606,1469892057459,,,,,,,0.04,0.03,0.98,-3.2,-0.2,0.1,1000,13,,,,,,,,,,,,,,,,,
10626,1469892057479,,,,,,,0.05,0.03,0.98,-3.2,-0.3,0.1,1020,13,,,,,,,,,,,,,,,,,
10646,1469892057499,0,96.0,125.5,56,119.4,,0.05,0.03,0.98,-3.2,-0.2,0.1,1020,13,76.923,0,39.536575,-122.332458,0.0,0.001,317.6,11,2,1.3,0,0.0,-1,0.0,0.0,0.0,0
10666,1469892057519,,,,,,,0.05,0.02,0.98,-3.2,-0.2,0.1,1020,13,,,,,,,,,,,,,,,,,
10686,1469892057539,,,,,,,0.05,0.03,0.99,-3.1,-0.2,0.0,1020,13,,,,,,,,,,,,,,,,,
10706,1469892057508,,,,,,,0.06,0.02,0.99,-3.1,-0.2,0.0,1020,13,,,,,,,,,,,,,,,,,
10726,1469892057528,,,,,,,0.06,0.02,0.99,-3.1,-0.1,-0.1,1020,15,,,,,,,,,,,,,,,,,
10746,1469892057548,,,,59,,,0.06,0.02,0.99,-3.1,-0.0,-0.1,1020,15,78.462,0,39.536575,-122.332458,0.0,0.001,317.6,11,2,1.3,0,0.0,-1,0.0,,0.0,0
10766,1469892057568,,,,,,,0.06,0.03,0.98,-3.0,0.1,-0.2,1040,15,,,,,,,,,,,,,,,,,
10786,1469892057588,,,,,,,0.06,0.03,0.98,-3.0,0.1,-0.2,1040,15,,,,,,,,,,,,,,,,,
10806,1469892057707,,,,,,,0.06,0.03,0.98,-3.0,0.2,-0.3,1040,1538461,,,,,,,,,,,,,,,,,
10826,1469892057727,,,,,,,0.06,0.03,0.99,-3.0,0.2,-0.3,1020,0,,,,,,,,,,,,,,,,,
10846,1469892057747,0,95.1,124.8,60,118.5,,0.06,0.03,1.0,-3.1,0.3,-0.3,1020,0,69.333,0,39.536575,-122.332458,0.0,0.001,317.6,11,2,1.3,0,0.0,-1,0.0,0.0,0.0,0
10866,1469892057767,,,,,,,0.05,0.03,1.0,-3.1,0.2,-0.3,1040,0,,,,,,,,,,,,,,,,,
10886,1469892057787,,,,,,,0.05,0.04,1.0,-3.1,0.1,-0.2,1040,0,,,,,,,,,,,,,,,,,
10906,1469892057807,,,,,,,0.06,0.04,0.99,-3.1,0.0,-0.2,1020,0,,,,,,,,,,,,,,,,,
10926,1469892057827,,,,,,,0.06,0.04,0.98,-3.1,-0.1,-0.2,1020,0,,,,,,,,,,,,,,,,,
10946,1469892057847,,,,57,,,0.07,0.05,0.98,-3.1,-0.3,-0.3,1000,0,0.0,0,39.536575,-122.332458,0.0,0.001,317.6,11,2,1.3,0,0.0,-1,0.0,,0.0,0
10966,1469892057867,,,,,,,0.08,0.05,0.98,-3.1,-0.4,-0.2,1000,0,,,,,,,,,,,,,,,,,
10986,1469892057887,,,,,,,0.08,0.06,0.99,-3.1,-0.5,-0.3,1000,0,,,,,,,,,,,,,,,,,
11006,1469892057808,,,,,,,0.09,0.06,0.99,-3.1,-0.5,-0.3,1000,0,,,,,,,,,,,,,,,,,
11026,1469892057828,,,,,,,0.1,0.07,0.99,-3.1,-0.5,-0.3,980,0,,,,,,,,,,,,,,,,,
11046,1469892057848,0,95.5,125.4,56,119.2,14.69,0.11,0.07,0.99,-3.1,-0.5,-0.3,980,0,0.0,0,39.536575,-122.332458,0.0,0.001,317.6,11,2,1.3,0,0.0,-1,0.0,0.0,0.0,0
11066,1469892057868,,,,,,,0.11,0.07,1.0,-3.1,-0.5,-0.4,960,0,,,,,,,,,,,,,,,,,
11086,1469892057888,,,,,,,0.12,0.07,1.0,-3.1,-0.5,-0.4,940,0,,,,,,,,,,,,,,,,,
11106,1469892057901,,,,,,,0.12,0.08,1.0,-3.0,-0.6,-0.4,940,0,,,,,,,,,,,,,,,,,
11126,1469892057921,,,,,,,0.12,0.08,1.0,-3.0,-0.5,-0.4,940,84,,,,,,,,,,,,,,,,,
11146,1469892057941,,,,53,,,0.11,0.08,1.0,-3.0,-0.6,-0.4,920,84,0.0,0,39.536575,-122.332458,0.0,0.001,317.6,11,2,1.3,0,0.0,-1,0.0,,0.0,0
11166,1469892057961,,,,,,,0.1,0.07,1.0,-3.0,-0.7,-0.5,920,84,,,,,,,,,,,,,,,,,
11186,1469892057981,,,,,,,0.1,0.06,1.0,-3.0,-0.7,-0.5,900,84,,,,,,,,,,,,,,,,,
11206,1469892058008,,,,,,,0.09,0.06,0.99,-3.0,-0.7,-0.6,900,84,,,,,,,,,,,,,,,,,
11226,1469892058028,,,,,,,0.09,0.05,0.98,-2.9,-0.8,-0.5,900,0,,,,,,,,,,,,,,,,,
11246,1469892058048,0,95.2,124.8,48,118.3,,0.1,0.04,0.98,-2.9,-0.6,-0.4,880,0,10.952,0,39.536575,-122.332458,0.0,0.001,317.6,11,2,1.3,0,0.0,-1,0.0,0.0,0.0,0
11266,1469892058068,,,,,,,0.1,0.04,0.98,-2.9,-0.5,-0.3,880,741,,,,,,,,,,,,,,,,,
11286,1469892058088,,,,,,,0.1,0.04,0.99,-2.9,-0.4,-0.2,860,741,,,,,,,,,,,,,,,,,
11306,1469892058108,,,,,,,0.1,0.05,0.99,-3.0,-0.4,-0.1,840,741,,,,,,,,,,,,,,,,,
11326,1469892058128,,,,,,,0.1,0.05,0.99,-3.0,-0.3,-0.2,820,741,,,,,,,,,,,,,,,,,
11346,1469892058148,,,,47,,,0.09,0.05,0.99,-3.0,-0.4,-0.3,820,15,1.188,3,39.536575,-122.332458,0.0,0.001,317.6,11,2,1.3,0,0.0,-1,0.0,,0.0,0
11366,1469892058168,,,,,,,0.09,0.05,0.99,-3.0,-0.3,-0.3,820,15,,,,,,,,,,,,,,,,,
11386,1469892058188,,,,,,,0.09,0.05,0.98,-3.0,-0.3,-0.2,820,15,,,,,,,,,,,,,,,,,
11406,1469892058208,,,,,,,0.1,0.05,0.98,-3.0,-0.1,-0.1,820,21,,,,,,,,,,,,,,,,,
11426,1469892058228,,,,,,,0.1,0.06,0.99,-3.0,-0.2,-0.1,800,21,,,,,,,,,,,,,,,,,
11446,1469892058248,0,95.1,124.9,55,118.8,,0.1,0.06,0.99,-3.0,-0.2,-0.1,780,21,54.667,0,39.536575,-122.332458,0.0,0.001,317.6,11,2,1.3,0,0.0,-1,0.0,0.0,0.0,0
11466,1469892058268,,,,,,,0.09,0.05,0.99,-2.9,-0.1,-0.2,780,23,,,,,,,,,,,,,,,,,
11486,1469892058288,,,,,,,0.09,0.05,0.99,-2.9,-0.2,-0.2,780,23,,,,,,,,,,,,,,,,,
11506,1469892058308,,,,,,,0.1,0.05,0.99,-2.9,0.0,0.0,760,23,,,,,,,,,,,,,,,,,
11526,1469892058328,,,,,,,0.1,0.06,0.99,-2.9,-0.0,-0.0,760,27,,,,,,,,,,,,,,,,,
11546,1469892058348,,,,52,,,0.09,0.06,1.0,-2.9,-0.1,-0.1,760,27,37.143,0,39.536575,-122.332458,0.0,0.001,317.6,11,2,1.3,0,0.0,-1,0.0,,0.0,0
11566,1469892058368,,,,,,,0.1,0.05,0.99,-2.9,0.1,-0.1,760,30,,,,,,,,,,,,,,,,,
11586,1469892058388,,,,,,,0.1,0.06,0.99,-2.9,-0.0,-0.0,740,30,,,,,,,,,,,,,,,,,
11606,1469892058507,,,,,,,0.1,0.06,0.98,-2.9,-0.1,0.0,740,30,,,,,,,,,,,,,,,,,
11626,1469892058527,,,,,,,0.1,0.06,0.98,-2.9,-0.1,-0.1,720,30,,,,,,,,,,,,,,,,,
11646,1469892058547,0,95.1,124.9,52,118.9,,0.09,0.06,0.98,-2.9,-0.1,-0.1,720,30,28.148,0,39.536575,-122.332458,0.0,0.001,317.6,11,2,1.3,0,0.0,-1,0.0,0.0,0.0,0
11666,1469892058567,,,,,,,0.09,0.06,0.98,-2.9,0.1,-0.1,740,38,,,,,,,,,,,,,,,,,
11686,1469892058587,,,,,,,0.1,0.06,0.97,-2.9,-0.0,-0.1,740,38,,,,,,,,,,,,,,,,,
11706,1469892058607,,,,,,,0.09,0.05,0.98,-2.8,-0.1,-0.2,740,33,,,,,,,,,,,,,,,,,
11726,1469892058627,,,,,,,0.09,0.05,0.98,-2.8,0.2,-0.2,740,33,,,,,,,,,,,,,,,,,
11746,1469892058647,,,,53,,,0.09,0.06,0.98,-2.8,0.2,-0.1,720,43,19.474,0,39.536575,-122.332458,0.0,0.001,317.6,11,2,1.3,0,0.0,-1,0.0,,0.0,0
11766,1469892058667,,,,,,,0.09,0.05,0.98,-2.8,0.2,-0.1,720,43,,,,,,,,,,,,,,,,,
11786,1469892058687,,,,,,,0.09,0.05,0.99,-2.7,0.0,-0.2,720,38,,,,,,,,,,,,,,,,,
11806,1469892058608,,,,,,,0.08,0.05,0.99,-2.8,0.2,-0.1,720,41,,,,,,,,,,,,,,,,,
11826,1469892058628,,,,,,,0.09,0.06,0.99,-2.8,0.2,0.0,740,41,,,,,,,,,,,,,,,,,
11846,1469892058648,0,95.4,125.2,51,119.5,,0.09,0.06,0.98,-2.8,0.2,-0.0,740,49,16.744,0,39.536575,-122.332458,0.0,0.001,317.6,11,2,1.3,0,0.0,-1,0.0,0.0,0.0,0
11866,1469892058668,,,,,,,0.08,0.05,0.99,-2.7,0.2,-0.2,760,49,,,,,,,,,,,,,,,,,
11886,1469892058688,,,,,,,0.09,0.05,0.99,-2.8,0.3,-0.1,760,38,,,,,,,,,,,,,,,,,
11906,1469892058708,,,,,,,0.09,0.05,0.98,-2.8,0.3,0.0,760,50,,,,,,,,,,,,,,,,,
11926,1469892058728,,,,,,,0.09,0.05,0.99,-2.7,0.3,0.0,760,50,,,,,,,,,,,,,,,,,
11946,1469892058748,,,,53,,,0.08,0.04,0.99,-2.6,0.0,-0.2,760,50,15.102,0,39.536575,-122.332458,0.0,0.001,317.6,11,2,1.3,0,0.0,-1,0.0,,0.0,0
11966,1469892058768,,,,,,,0.08,0.04,0.99,-2.6,0.1,-0.2,760,44,,,,,,,,,,,,,,,,,
11986,1469892058788,,,,,,,0.08,0.04,0.98,-2.7,0.2,-0.0,800,44,,,,,,,,,,,,,,,,,
12006,1469892058808,,,,,,,0.09,0.05,0.99,-2.7,0.3,0.1,800,50,,,,,,,,,,,,,,,,,
12026,1469892058828,,,,,,,0.09,0.05,1.0,-2.6,0.2,-0.1,820,56,,,,,,,,,,,,,,,,,
12046,1469892058848,0,95.2,125.1,63,119.4,14.74,0.08,0.04,1.0,-2.6,0.1,-0.2,840,56,15.2,0,39.536575,-122.332458,0.0,0.001,317.6,11,2,1.3,0,0.0,-1,0.0,0.0,0.0,0
12066,1469892058868,,,,,,,0.08,0.04,0.99,-2.6,0.3,-0.3,820,52,,,,,,,,,,,,,,,,,
12086,1469892058888,,,,,,,0.07,0.04,0.99,-2.6,0.2,-0.2,820,47,,,,,,,,,,,,,,,,,
12106,1469892058901,,,,,,,0.07,0.04,0.98,-2.6,0.4,0.0,840,60,,,,,,,,,,,,,,,,,
12126,1469892058921,,,,,,,0.08,0.05,0.99,-2.6,0.2,0.1,860,60,,,,,,,,,,,,,,,,,
12146,1469892058941,,,,63,,,0.07,0.05,1.0,-2.7,0.3,0.1,880,60,16.154,0,39.536575,-122.332458,0.0,0.001,317.6,11,2,1.3,0,0.0,-1,0.0,,0.0,0
12166,1469892058961,,,,,,,0.07,0.06,1.01,-2.6,0.3,-0.1,880,50,,,,,,,,,,,,,,,,,
12186,1469892058981,,,,,,,0.07,0.07,1.01,-2.6,0.1,-0.2,880,50,,,,,,,,,,,,,,,,,
12206,1469892059007,,,,,,,0.06,0.06,1.0,-2.6,-0.0,-0.3,880,56,,,,,,,,,,,,,,,,,
12226,1469892059027,,,,,,,0.06,0.05,0.99,-2.6,0.1,-0.4,880,63,,,,,,,,,,,,,,,,,
12246,1469892059047,0,96.5,126.0,57,119.2,,0.06,0.05,0.98,-2.6,0.0,-0.3,880,60,14.667,0,39.536575,-122.332458,0.0,0.001,317.6,11,2,1.3,0,0.0,-1,0.0,0.0,0.0,0
12266,1469892059067,,,,,,,0.06,0.04,0.98,-2.6,0.1,-0.2,900,60,,,,,,,,,,,,,,,,,
12286,1469892059087,,,,,,,0.06,0.05,0.99,-2.7,0.2,-0.0,900,52,,,,,,,,,,,,,,,,,
12306,1469892059107,,,,,,,0.06,0.05,0.99,-2.7,0.3,0.1,900,61,,,,,,,,,,,,,,,,,
12326,1469892059127,,,,,,,0.07,0.05,1.0,-2.7,0.3,0.1,900,67,,,,,,,,,,,,,,,,,
12346,1469892059147,,,,54,,,0.07,0.06,1.01,-2.7,0.3,0.0,900,58,14.667,0,39.536575,-122.332458,0.0,0.001,317.6,11,2,1.3,0,0.0,-1,0.0,,0.0,0
12366,1469892059167,,,,,,,0.07,0.06,1.01,-2.6,0.2,-0.1,900,55,,,,,,,,,,,,,,,,,
12386,1469892059187,,,,,,,0.07,0.06,1.01,-2.6,0.1,-0.3,900,55,,,,,,,,,,,,,,,,,
12406,1469892059306,,,,,,,0.06,0.07,1.01,-2.5,0.1,-0.3,900,66,,,,,,,,,,,,,,,,,
12426,1469892059326,,,,,,,0.06,0.06,1.0,-2.5,-0.0,-0.3,900,67,,,,,,,,,,,,,,,,,
12446,1469892059346,0,98.0,126.9,55,118.9,,0.05,0.06,1.0,-2.5,0.0,-0.4,900,63,15.517,0,39.536575,-122.332458,0.0,0.001,317.6,11,2,1.3,0,0.0,-1,0.0,0.0,0.0,0
12466,1469892059366,,,,,,,0.06,0.06,0.99,-2.5,0.0,-0.3,880,61,,,,,,,,,,,,,,,,,
12486,1469892059386,,,,,,,0.06,0.06,0.98,-2.6,0.0,-0.2,880,67,,,,,,,,,,,,,,,,,
12506,1469892059406,,,,,,,0.06,0.05,0.98,-2.6,0.1,-0.1,880,70,,,,,,,,,,,,,,,,,
12526,1469892059426,,,,,,,0.07,0.06,0.99,-2.7,0.2,-0.0,880,70,,,,,,,,,,,,,,,,,
12546,1469892059446,,,,51,,,0.07,0.06,0.99,-2.7,0.2,-0.1,880,66,14.286,0,39.536575,-122.332458,0.0,0.001,317.6,11,2,1.3,0,0.0,-1,0.0,,0.0,0
12566,1469892059466,,,,,,,0.07,0.06,1.0,-2.6,0.2,-0.2,880,63,,,,,,,,,,,,,,,,,
12586,1469892059486,,,,,,,0.07,0.06,1.0,-2.6,0.0,-0.3,860,72,,,,,,,,,,,,,,,,,
12606,1469892059407,,,,,,,0.06,0.07,1.0,-2.6,-0.0,-0.4,840,73,,,,,,,,,,,,,,,,,
12626,1469892059427,,,,,,,0.06,0.06,0.99,-2.6,0.1,-0.4,820,67,,,,,,,,,,,,,,,,,
12646,1469892059447,0,96.0,125.6,50,120.1,,0.06,0.05,0.98,-2.6,0.2,-0.2,820,66,13.968,0,39.536575,-122.332458,0.0,0.001,317.6,11,2,1.3,0,0.0,-1,0.0,0.0,0.0,0
12666,1469892059467,,,,,,,0.07,0.06,0.99,-2.7,0.2,-0.1,820,70,,,,,,,,,,,,,,,,,
12686,1469892059487,,,,,,,0.07,0.06,1.0,-2.7,0.2,-0.2,820,73,,,,,,,,,,,,,,,,,
12706,1469892059506,,,,,,,0.07,0.06,1.0,-2.7,0.2,-0.3,840,72,,,,,,,,,,,,,,,,,
12726,1469892059526,,,,,,,0.06,0.06,1.0,-2.7,0.1,-0.4,820,70,,,,,,,,,,,,,,,,,
12746,1469892059546,,,,50,,,0.07,0.06,0.99,-2.8,0.1,-0.4,800,69,12.424,0,39.536575,-122.332458,0.0,0.001,317.6,11,2,1.3,0,0.0,-1,0.0,,0.0,0
12766,1469892059566,,,,,,,0.07,0.05,0.99,-2.9,0.2,-0.2,800,73,,,,,,,,,,,,,,,,,
12786,1469892059586,,,,,,,0.07,0.06,1.0,-2.9,0.2,-0.1,780,80,,,,,,,,,,,,,,,,,
12806,1469892059607,,,,,,,0.07,0.06,1.01,-3.0,0.2,-0.2,800,73,,,,,,,,,,,,,,,,,
12826,1469892059627,,,,,,,0.06,0.06,1.01,-3.0,0.0,-0.3,800,73,,,,,,,,,,,,,,,,,
12846,1469892059647,0,95.9,125.5,50,120.1,,0.06,0.06,1.0,-3.0,0.2,-0.3,800,73,11.594,0,39.536591,-122.33242,0.93,0.003,289.9,11,2,1.3,0,0.0,-1,0.0,0.0,0.0,0
12866,1469892059667,,,,,,,0.06,0.06,1.0,-3.2,0.1,-0.1,800,81,,,,,,,,,,,,,,,,,
12886,1469892059687,,,,,,,0.07,0.07,1.0,-3.2,0.1,-0.0,780,81,,,,,,,,,,,,,,,,,
12906,1469892059707,,,,,,,0.07,0.07,1.01,-3.2,0.1,-0.2,760,73,,,,,,,,,,,,,,,,,
12926,1469892059727,,,,,,,0.06,0.06,1.01,-3.3,0.0,-0.3,760,72,,,,,,,,,,,,,,,,,
12946,1469892059747,,,,51,,,0.06,0.06,1.0,-3.4,0.2,-0.2,760,78,10.959,0,39.536591,-122.33242,1.0,0.003,289.7,11,2,1.3,0,0.0,-1,0.0,,0.0,0
12966,1469892059767,,,,,,,0.07,0.06,1.0,-3.5,0.3,-0.1,760,81,,,,,,,,,,,,,,,,,
12986,1469892059787,,,,,,,0.06,0.06,1.0,-3.6,0.2,-0.0,780,80,,,,,,,,,,,,,,,,,
13006,1469892059807,,,,,,,0.06,0.06,1.0,-3.6,0.1,-0.2,780,80,,,,,,,,,,,,,,,,,
13026,1469892059827,,,,,,,0.05,0.06,1.0,-3.7,0.2,-0.4,760,80,,,,,,,,,,,,,,,,,
13046,1469892059847,0,93.6,123.8,50,118.1,14.63,0.06,0.06,1.0,-3.8,0.1,-0.3,760,76,9.744,0,39.536591,-122.332405,0.95,0.004,289.2,11,2,1.3,0,0.0,-1,0.0,0.0,0.0,0
13066,1469892059867,,,,,,,0.07,0.07,1.0,-3.9,0.2,-0.1,760,78,,,,,,,,,,,,,,,,,
13086,1469892059887,,,,,,,0.07,0.07,1.0,-3.9,0.2,-0.2,760,81,,,,,,,,,,,,,,,,,
13106,1469892059899,,,,,,,0.06,0.06,1.0,-3.9,0.1,-0.4,760,83,,,,,,,,,,,,,,,,,
13126,1469892059919,,,,,,,0.07,0.06,1.0,-4.0,0.3,-0.3,760,80,,,,,,,,,,,,,,,,,
13146,1469892059939,,,,50,,,0.07,0.06,1.0,-4.1,0.3,-0.2,760,78,10.0,0,39.536591,-122.332405,0.0,0.004,289.2,11,2,1.3,0,0.0,-1,0.0,,0.0,0
13166,1469892059959,,,,,,,0.07,0.05,0.99,-4.2,0.3,-0.2,780,83,,,,,,,,,,,,,,,,,
13186,1469892059979,,,,,,,0.06,0.06,0.99,-4.2,0.1,-0.4,760,86,,,,,,,,,,,,,,,,,
13206,1469892060106,,,,,,,0.06,0.06,0.99,-4.3,0.2,-0.4,760,83,,,,,,,,,,,,,,,,,
13226,1469892060126,,,,,,,0.06,0.06,0.98,-4.5,-0.0,-0.3,760,78,,,,,,,,,,,,,,,,,
13246,1469892060146,0,95.5,124.9,50,119.0,,0.07,0.07,0.98,-4.5,-0.0,-0.2,740,87,9.398,0,39.536591,-122.332405,1.05,0.004,288.6,11,2,1.3,0,0.0,-1,0.0,0.0,0.0,0
13266,1469892060166,,,,,,,0.07,0.07,0.99,-4.5,-0.1,-0.3,760,90,,,,,,,,,,,,,,,,,
13286,1469892060186,,,,,,,0.06,0.06,0.99,-4.6,-0.1,-0.5,780,87,,,,,,,,,,,,,,,,,
13306,1469892060206,,,,,,,0.06,0.06,0.99,-4.6,-0.1,-0.4,780,83,,,,,,,,,,,,,,,,,
13326,1469892060226,,,,,,,0.07,0.07,0.99,-4.7,0.1,-0.2,800,84,,,,,,,,,,,,,,,,,
13346,1469892060246,,,,52,,,0.07,0.06,0.99,-4.8,0.2,-0.2,780,87,8.506,0,39.536591,-122.332405,1.05,0.004,288.6,11,2,1.3,0,0.0,-1,0.0,,0.0,0
13366,1469892060266,,,,,,,0.06,0.07,0.99,-4.8,0.0,-0.4,760,90,,,,,,,,,,,,,,,,,
13386,1469892060286,,,,,,,0.06,0.06,0.99,-4.9,0.2,-0.5,780,89,,,,,,,,,,,,,,,,,
13406,1469892060207,,,,,,,0.07,0.07,0.99,-5.0,0.1,-0.3,780,89,,,,,,,,,,,,,,,,,
13426,1469892060227,,,,,,,0.08,0.08,0.99,-5.1,0.1,-0.1,780,89,,,,,,,,,,,,,,,,,
13446,1469892060247,0,95.8,125.3,53,120.3,,0.07,0.07,1.0,-5.1,0.2,-0.3,800,86,8.667,0,39.536591,-122.332405,1.13,0.004,288.1,11,2,1.3,0,0.0,-1,0.0,0.0,0.0,0
13466,1469892060267,,,,,,,0.07,0.07,1.0,-5.1,-0.0,-0.4,820,90,,,,,,,,,,,,,,,,,
13486,1469892060287,,,,,,,0.07,0.07,0.99,-5.2,0.1,-0.4,800,95,,,,,,,,,,,,,,,,,
13506,1469892060308,,,,,,,0.07,0.07,0.99,-5.3,0.1,-0.3,800,90,,,,,,,,,,,,,,,,,
13526,1469892060328,,,,,,,0.08,0.07,0.99,-5.3,0.2,-0.1,800,89,,,,,,,,,,,,,,,,,
13546,1469892060348,,,,52,,,0.08,0.06,1.0,-5.4,0.3,-0.1,800,93,8.889,0,39.536591,-122.332405,1.19,0.004,287.7,11,2,1.3,0,0.0,-1,0.0,,0.0,0
13566,1469892060368,,,,,,,0.07,0.06,1.01,-5.5,0.1,-0.2,800,95,,,,,,,,,,,,,,,,,
13586,1469892060388,,,,,,,0.07,0.06,1.01,-5.6,0.3,-0.4,820,93,,,,,,,,,,,,,,,,,
13606,1469892060407,,,,,,,0.07,0.07,1.0,-5.7,0.2,-0.2,840,92,,,,,,,,,,,,,,,,,
13626,1469892060427,,,,,,,0.07,0.06,1.0,-5.8,0.4,-0.0,840,96,,,,,,,,,,,,,,,,,
13646,1469892060447,0,95.6,125.4,54,120.4,,0.08,0.07,1.0,-5.9,0.4,0.0,820,98,8.163,0,39.536591,-122.332405,1.35,0.004,287.3,11,2,1.3,0,0.0,-1,0.0,0.0,0.0,0
13666,1469892060467,,,,,,,0.07,0.06,1.01,-6.0,0.4,-0.1,820,98,,,,,,,,,,,,,,,,,
13686,1469892060487,,,,,,,0.07,0.07,1.01,-5.9,0.2,-0.2,820,98,,,,,,,,,,,,,,,,,
13706,1469892060508,,,,,,,0.06,0.06,1.01,-6.0,0.2,-0.3,840,96,,,,,,,,,,,,,,,,,
13726,1469892060528,,,,,,,0.06,0.06,1.0,-6.1,0.1,-0.2,840,96,,,,,,,,,,,,,,,,,
13746,1469892060548,,,,55,,,0.07,0.06,1.0,-6.3,0.2,-0.0,840,98,8.367,0,39.536591,-122.332405,1.27,0.004,286.8,11,2,1.3,0,0.0,-1,0.0,,0.0,0
13766,1469892060568,,,,,,,0.08,0.06,1.01,-6.3,0.2,0.0,860,101,,,,,,,,,,,,,,,,,
13786,1469892060588,,,,,,,0.07,0.07,1.01,-6.4,0.2,-0.0,840,101,,,,,,,,,,,,,,,,,
13806,1469892060607,,,,,,,0.07,0.08,1.01,-6.5,0.2,-0.2,840,98,,,,,,,,,,,,,,,,,
13826,1469892060627,,,,,,,0.07,0.07,1.01,-6.5,0.1,-0.3,840,96,,,,,,,,,,,,,,,,,
13846,1469892060647,0,96.8,125.9,58,120.0,,0.06,0.07,1.0,-6.6,0.1,-0.3,860,103,8.515,0,39.536591,-122.332405,1.28,0.004,286.8,11,2,1.3,0,0.0,-1,0.0,0.0,0.0,0
13866,1469892060667,,,,,,,0.06,0.08,0.99,-6.7,0.1,-0.2,860,103,,,,,,,,,,,,,,,,,
13886,1469892060687,,,,,,,0.07,0.07,0.99,-6.8,0.2,-0.0,860,103,,,,,,,,,,,,,,,,,
13906,1469892060705,,,,,,,0.07,0.07,1.0,-6.9,0.3,0.0,880,104,,,,,,,,,,,,,,,,,
13926,1469892060725,,,,,,,0.07,0.07,1.01,-6.9,0.3,-0.0,860,104,,,,,,,,,,,,,,,,,
13946,1469892060745,,,,58,,,0.07,0.07,1.01,-7.0,0.3,-0.1,860,103,8.35,0,39.536591,-122.332405,1.67,0.004,286.4,11,2,1.3,0,0.0,-1,0.0,,0.0,0
13966,1469892060765,,,,,,,0.07,0.07,1.01,-6.9,0.2,-0.3,840,104,,,,,,,,,,,,,,,,,
13986,1469892060785,,,,,,,0.06,0.05,1.01,-6.9,0.2,-0.3,860,106,,,,,,,,,,,,,,,,,
14006,1469892060906,,,,,,,0.06,0.05,1.0,-6.9,0.3,-0.3,860,104,,,,,,,,,,,,,,,,,
14026,1469892060926,,,,,,,0.06,0.04,0.99,-6.9,0.4,-0.1,880,106,,,,,,,,,,,,,,,,,
14046,1469892060946,0,96.8,125.6,57,120.0,14.67,0.06,0.04,0.99,-6.9,0.4,0.0,880,109,8.35,0,39.536591,-122.332405,1.47,0.004,285.4,11,2,1.3,0,0.0,-1,0.0,0.0,0.0,0
14066,1469892060966,,,,,,,0.07,0.05,1.0,-6.9,0.3,0.1,860,106,,,,,,,,,,,,,,,,,
14086,1469892060986,,,,,,,0.07,0.06,1.0,-6.9,0.2,0.1,860,103,,,,,,,,,,,,,,,,,
14106,1469892061006,,,,,,,0.07,0.05,1.0,-6.9,0.2,0.1,860,107,,,,,,,,,,,,,,,,,
14126,1469892061026,,,,,,,0.06,0.05,1.0,-6.9,0.0,-0.0,860,110,,,,,,,,,,,,,,,,,
14146,1469892061046,,,,58,,,0.06,0.04,0.99,-6.9,0.1,-0.0,860,110,7.89,0,39.536591,-122.332405,1.47,0.004,285.4,11,2,1.3,0,0.0,-1,0.0,,0.0,0
14166,1469892061066,,,,,,,0.06,0.04,0.98,-6.9,0.1,0.1,880,110,,,,,,,,,,,,,,,,,
14186,1469892061086,,,,,,,0.06,0.04,0.98,-6.9,0.1,0.2,860,112,,,,,,,,,,,,,,,,,
14206,1469892061007,,,,,,,0.06,0.04,0.99,-6.9,0.2,0.3,860,107,,,,,,,,,,,,,,,,,
14226,1469892061027,,,,,,,0.06,0.04,0.99,-6.9,0.2,0.4,860,107,,,,,,,,,,,,,,,,,
14246,1469892061047,0,95.9,125.5,57,120.6,,0.06,0.05,1.0,-6.9,0.2,0.3,860,112,7.818,0,39.536591,-122.332405,1.54,0.004,285.0,11,2,1.3,0,0.0,-1,0.0,0.0,0.0,0
14266,1469892061067,,,,,,,0.06,0.05,1.01,-6.8,0.2,0.2,860,113,,,,,,,,,,,,,,,,,
14286,1469892061087,,,,,,,0.05,0.05,1.0,-6.7,0.1,0.1,860,110,,,,,,,,,,,,,,,,,
14306,1469892061103,,,,,,,0.04,0.05,1.0,-6.7,0.1,0.0,880,110,,,,,,,,,,,,,,,,,
14326,1469892061123,,,,,,,0.04,0.04,0.99,-6.6,0.2,0.0,860,110,,,,,,,,,,,,,,,,,
14346,1469892061143,,,,59,,,0.05,0.05,0.99,-6.6,0.2,0.2,860,107,7.679,0,39.536591,-122.332405,1.66,0.004,283.9,11,2,1.3,0,0.0,-1,0.0,,0.0,0
14366,1469892061163,,,,,,,0.05,0.05,1.0,-6.5,0.3,0.3,860,106,,,,,,,,,,,,,,,,,
14386,1469892061183,,,,,,,0.05,0.05,1.0,-6.5,0.3,0.3,860,109,,,,,,,,,,,,,,,,,
14406,1469892061206,,,,,,,0.05,0.05,1.0,-6.4,0.3,0.3,880,109,,,,,,,,,,,,,,,,,
14426,1469892061226,,,,,,,0.05,0.04,1.01,-6.3,0.1,0.2,880,110,,,,,,,,,,,,,,,,,
14446,1469892061246,0,95.9,124.9,57,119.5,,0.04,0.04,1.0,-6.2,0.1,0.1,900,110,8.113,0,39.536591,-122.332405,1.86,0.004,283.1,11,2,1.3,0,0.0,-1,0.0,0.0,0.0,0
14466,1469892061266,,,,,,,0.03,0.04,0.99,-6.1,0.0,0.0,880,110,,,,,,,,,,,,,,,,,
14486,1469892061286,,,,,,,0.03,0.03,0.99,-6.1,0.1,0.0,880,107,,,,,,,,,,,,,,,,,
14506,1469892061305,,,,,,,0.04,0.03,0.99,-6.0,0.1,0.0,880,106,,,,,,,,,,,,,,,,,
14526,1469892061325,,,,,,,0.03,0.04,0.98,-6.0,0.1,0.1,900,109,,,,,,,,,,,,,,,,,
14546,1469892061345,,,,60,,,0.04,0.04,0.99,-6.0,0.2,0.2,900,110,8.036,0,39.536591,-122.332405,1.83,0.004,282.5,11,2,1.3,0,0.0,-1,0.0,,0.0,0
14566,1469892061365,,,,,,,0.04,0.04,1.0,-5.9,0.2,0.3,900,110,,,,,,,,,,,,,,,,,
14586,1469892061385,,,,,,,0.04,0.05,1.0,-5.8,0.2,0.3,920,109,,,,,,,,,,,,,,,,,
14606,1469892061406,,,,,,,0.04,0.05,1.0,-5.8,0.2,0.3,900,107,,,,,,,,,,,,,,,,,
14626,1469892061426,,,,,,,0.04,0.04,1.0,-5.7,0.2,0.2,920,101,,,,,,,,,,,,,,,,,
14646,1469892061446,0,95.3,125.0,62,120.0,,0.03,0.04,1.0,-5.6,0.1,0.1,920,103,8.182,0,39.536591,-122.33239,1.67,0.005,282.0,11,2,1.3,0,0.0,-1,0.0,0.0,0.0,0
14666,1469892061466,,,,,,,0.03,0.04,1.0,-5.4,0.1,0.1,920,107,,,,,,,,,,,,,,,,,
14686,1469892061486,,,,,,,0.02,0.04,0.99,-5.4,0.1,0.0,920,107,,,,,,,,,,,,,,,,,
14706,1469892061506,,,,,,,0.02,0.03,0.98,-5.3,-0.0,0.0,940,106,,,,,,,,,,,,,,,,,
14726,1469892061526,,,,,,,0.02,0.03,0.98,-5.2,0.0,0.0,920,104,,,,,,,,,,,,,,,,,
14746,1469892061546,,,,58,,,0.02,0.02,0.98,-5.1,0.0,0.1,940,103,8.598,0,39.536591,-122.33239,1.85,0.005,281.5,11,2,1.3,0,0.0,-1,0.0,,0.0,0
14766,1469892061566,,,,,,,0.02,0.03,0.98,-5.1,0.2,0.1,920,101,,,,,,,,,,,,,,,,,
14786,1469892061586,,,,,,,0.02,0.03,0.98,-5.1,0.3,0.2,920,106,,,,,,,,,,,,,,,,,
14806,1469892061706,,,,,,,0.02,0.02,0.98,-5.0,0.3,0.3,940,104,,,,,,,,,,,,,,,,,
14826,1469892061726,,,,,,,0.02,0.02,0.98,-5.0,0.3,0.4,940,101,,,,,,,,,,,,,,,,,
14846,1469892061746,0,96.0,125.4,57,120.8,,0.02,0.03,0.99,-4.9,0.3,0.4,940,101,9.307,0,39.536591,-122.33239,1.3,0.005,280.9,11,2,1.3,0,0.0,-1,0.0,0.0,0.0,0
14866,1469892061766,,,,,,,0.02,0.04,0.99,-4.8,0.2,0.5,940,101,,,,,,,,,,,,,,,,,
14886,1469892061786,,,,,,,0.02,0.05,1.0,-4.8,0.3,0.5,940,100,,,,,,,,,,,,,,,,,
14906,1469892061806,,,,,,,0.02,0.06,1.0,-4.8,0.4,0.5,920,101,,,,,,,,,,,,,,,,,
14926,1469892061826,,,,,,,0.02,0.06,1.0,-4.7,0.4,0.5,940,101,,,,,,,,,,,,,,,,,
14946,1469892061846,,,,54,,,0.03,0.06,1.0,-4.6,0.4,0.3,940,96,9.307,0,39.536591,-122.33239,1.3,0.005,280.9,11,2,1.3,0,0.0,-1,0.0,,0.0,0
14966,1469892061866,,,,,,,0.03,0.06,0.99,-4.5,0.4,0.2,940,96,,,,,,,,,,,,,,,,,
14986,1469892061886,,,,,,,0.03,0.06,0.99,-4.3,0.4,0.2,940,100,,,,,,,,,,,,,,,,,
15006,1469892061807,,,,,,,0.03,0.06,0.99,-4.2,0.3,0.1,940,100,,,,,,,,,,,,,,,,,
15026,1469892061827,,,,,,,0.03,0.06,0.99,-4.1,0.2,0.1,920,100,,,,,,,,,,,,,,,,,
15046,1469892061847,0,96.2,125.4,58,121.0,14.73,0.02,0.05,0.99,-4.0,0.1,0.1,940,98,9.895,0,39.536591,-122.33239,1.88,0.005,280.8,11,2,1.3,0,0.0,-1,0.0,0.0,0.0,0
15066,1469892061867,,,,,,,0.02,0.04,0.99,-3.9,0.1,0.1,940,95,,,,,,,,,,,,,,,,,
15086,1469892061887,,,,,,,0.02,0.04,0.98,-3.8,0.1,0.1,940,95,,,,,,,,,,,,,,,,,
15106,1469892061899,,,,,,,0.02,0.03,0.98,-3.6,0.1,0.0,940,101,,,,,,,,,,,,,,,,,
15126,1469892061919,,,,,,,0.02,0.03,0.98,-3.5,0.3,0.1,940,98,,,,,,,,,,,,,,,,,
15146,1469892061939,,,,56,,,0.02,0.03,0.98,-3.4,0.3,0.1,920,95,9.592,0,39.536591,-122.33239,1.75,0.005,280.4,11,2,1.3,0,0.0,-1,0.0,,0.0,0
15166,1469892061959,,,,,,,0.02,0.02,0.98,-3.3,0.4,0.2,940,93,,,,,,,,,,,,,,,,,
15186,1469892061979,,,,,,,0.02,0.02,0.98,-3.2,0.5,0.4,940,95,,,,,,,,,,,,,,,,,
15206,1469892062007,,,,,,,0.02,0.02,0.98,-3.2,0.4,0.5,940,95,,,,,,,,,,,,,,,,,
15226,1469892062027,,,,,,,0.02,0.03,0.98,-3.1,0.5,0.5,940,98,,,,,,,,,,,,,,,,,
15246,1469892062047,0,95.6,125.1,54,120.7,,0.02,0.04,0.99,-3.0,0.5,0.6,940,96,9.892,0,39.536591,-122.33239,1.51,0.005,279.8,11,2,1.3,0,0.0,-1,0.0,0.0,0.0,0
15266,1469892062067,,,,,,,0.02,0.05,1.0,-3.0,0.5,0.6,940,89,,,,,,,,,,,,,,,,,
15286,1469892062087,,,,,,,0.02,0.05,1.0,-3.0,0.5,0.7,920,90,,,,,,,,,,,,,,,,,
15306,1469892062107,,,,,,,0.01,0.05,1.0,-2.9,0.4,0.7,920,95,,,,,,,,,,,,,,,,,
15326,1469892062127,,,,,,,0.02,0.04,1.0,-2.8,0.4,0.6,940,95,,,,,,,,,,,,,,,,,
15346,1469892062147,,,,54,,,0.02,0.05,1.0,-2.8,0.4,0.5,940,93,10.217,0,39.536591,-122.33239,1.61,0.005,279.5,11,2,1.3,0,0.0,-1,0.0,,0.0,0
15366,1469892062167,,,,,,,0.02,0.06,1.0,-2.7,0.3,0.4,940,90,,,,,,,,,,,,,,,,,
15386,1469892062187,,,,,,,0.02,0.07,1.0,-2.6,0.2,0.3,940,89,,,,,,,,,,,,,,,,,
15406,1469892062208,,,,,,,0.01,0.06,1.0,-2.6,0.1,0.2,940,89,,,,,,,,,,,,,,,,,
15426,1469892062228,,,,,,,0.01,0.06,0.99,-2.5,-0.0,0.1,940,93,,,,,,,,,,,,,,,,,
15446,1469892062248,0,96.2,125.4,56,121.0,,0.01,0.06,0.99,-2.4,-0.0,0.0,940,93,10.108,0,39.536591,-122.332382,1.31,0.006,279.3,11,2,1.3,0,0.0,-1,0.0,0.0,0.0,0
15466,1469892062268,,,,,,,0.01,0.06,0.99,-2.3,0.0,0.0,960,87,,,,,,,,,,,,,,,,,
15486,1469892062288,,,,,,,0.02,0.06,0.99,-2.2,0.1,0.0,920,87,,,,,,,,,,,,,,,,,
15506,1469892062309,,,,,,,0.02,0.06,0.99,-2.2,0.2,0.0,940,87,,,,,,,,,,,,,,,,,
15526,1469892062329,,,,,,,0.02,0.05,0.99,-2.2,0.2,0.2,920,86,,,,,,,,,,,,,,,,,
15546,1469892062349,,,,54,,,0.01,0.05,0.98,-2.2,0.1,0.3,940,87,10.444,0,39.536591,-122.332382,1.74,0.006,279.2,11,2,1.3,0,0.0,-1,0.0,,0.0,0
15566,1469892062369,,,,,,,0.01,0.05,0.99,-2.2,0.2,0.4,940,84,,,,,,,,,,,,,,,,,
15586,1469892062389,,,,,,,0.01,0.06,1.0,-2.1,0.1,0.4,940,78,,,,,,,,,,,,,,,,,
15606,1469892062507,,,,,,,0.01,0.07,1.0,-2.1,0.2,0.4,960,75,,,,,,,,,,,,,,,,,
15626,1469892062527,,,,,,,0.01,0.07,1.0,-2.0,0.2,0.4,940,73,,,,,,,,,,,,,,,,,
15646,1469892062547,0,98.6,126.3,56,120.2,,0.01,0.07,1.0,-2.0,0.2,0.4,940,69,11.19,0,39.536591,-122.332382,1.64,0.006,279.3,11,2,1.3,0,0.0,-1,0.0,0.0,0.0,0
15666,1469892062567,,,,,,,0.01,0.07,1.01,-2.0,0.3,0.4,940,64,,,,,,,,,,,,,,,,,
15686,1469892062587,,,,,,,0.01,0.07,1.01,-2.0,0.3,0.3,960,64,,,,,,,,,,,,,,,,,
15706,1469892062607,,,,,,,0.01,0.07,1.0,-1.9,0.3,0.2,960,58,,,,,,,,,,,,,,,,,
15726,1469892062627,,,,,,,0.01,0.08,1.0,-1.9,0.3,0.2,960,60,,,,,,,,,,,,,,,,,
15746,1469892062647,,,,60,,,0.01,0.08,1.0,-1.9,0.2,0.1,960,53,13.623,0,39.536591,-122.332382,1.64,0.006,279.3,11,2,1.3,0,0.0,-1,0.0,,0.0,0
15766,1469892062667,,,,,,,0.01,0.08,1.0,-1.9,0.1,0.0,960,53,,,,,,,,,,,,,,,,,
15786,1469892062687,,,,,,,0.01,0.08,0.99,-1.9,-0.0,-0.0,960,53,,,,,,,,,,,,,,,,,
15806,1469892062608,,,,,,,0.01,0.08,1.0,-1.8,-0.0,-0.1,960,56,,,,,,,,,,,,,,,,,
15826,1469892062628,,,,,,,-0.0,0.08,1.0,-1.8,-0.0,-0.2,960,61,,,,,,,,,,,,,,,,,
15846,1469892062648,0,95.9,124.8,57,119.7,,-0.01,0.08,1.01,-1.8,-0.1,-0.2,960,69,18.113,0,39.536594,-122.332382,1.14,0.006,278.7,11,2,1.3,0,0.0,-1,0.0,0.0,0.0,0
15866,1469892062668,,,,,,,-0.01,0.07,1.01,-1.8,-0.0,-0.3,960,80,,,,,,,,,,,,,,,,,
15886,1469892062688,,,,,,,-0.02,0.07,1.0,-1.8,0.0,-0.3,960,81,,,,,,,,,,,,,,,,,
15906,1469892062707,,,,,,,-0.02,0.07,1.0,-1.8,-0.0,-0.4,960,80,,,,,,,,,,,,,,,,,
15926,1469892062727,,,,,,,-0.02,0.07,1.0,-1.8,-0.0,-0.4,960,73,,,,,,,,,,,,,,,,,
15946,1469892062747,,,,59,,,-0.01,0.07,0.99,-1.8,-0.0,-0.4,960,70,13.913,0,39.536594,-122.332382,1.4,0.006,278.6,11,2,1.3,0,0.0,-1,0.0,,0.0,0
15966,1469892062767,,,,,,,-0.01,0.06,0.99,-1.8,0.0,-0.4,980,70,,,,,,,,,,,,,,,,,
15986,1469892062787,,,,,,,-0.01,0.06,0.99,-1.8,0.1,-0.4,980,70,,,,,,,,,,,,,,,,,
16006,1469892062807,,,,,,,-0.01,0.06,0.99,-1.8,0.1,-0.4,980,66,,,,,,,,,,,,,,,,,
16026,1469892062827,,,,,,,-0.01,0.05,0.99,-1.9,0.2,-0.4,980,61,,,,,,,,,,,,,,,,,
16046,1469892062847,0,96.4,125.6,61,121.5,14.75,-0.01,0.05,0.99,-1.9,0.3,-0.3,980,61,13.714,0,39.536594,-122.332382,1.41,0.006,278.3,11,2,1.3,0,0.0,-1,0.0,0.0,0.0,0
16066,1469892062867,,,,,,,-0.01,0.04,1.0,-1.9,0.3,-0.3,980,60,,,,,,,,,,,,,,,,,
16086,1469892062887,,,,,,,-0.01,0.04,1.0,-1.9,0.4,-0.2,1000,60,,,,,,,,,,,,,,,,,
16106,1469892062902,,,,,,,-0.0,0.04,1.0,-1.9,0.5,-0.2,980,60,,,,,,,,,,,,,,,,,
16126,1469892062922,,,,,,,-0.0,0.04,1.01,-1.9,0.5,-0.2,980,61,,,,,,,,,,,,,,,,,
16146,1469892062942,,,,58,,,-0.0,0.04,1.01,-1.9,0.5,-0.2,980,61,16.066,0,39.536594,-122.332382,1.02,0.006,278.0,11,2,1.3,0,0.0,-1,0.0,,0.0,0
16166,1469892062962,,,,,,,-0.0,0.04,1.0,-1.9,0.5,-0.2,980,60,,,,,,,,,,,,,,,,,
16186,1469892062982,,,,,,,-0.0,0.04,1.0,-1.9,0.4,-0.1,980,60,,,,,,,,,,,,,,,,,
16206,1469892063004,,,,,,,0.0,0.04,1.0,-1.9,0.4,-0.1,1000,58,,,,,,,,,,,,,,,,,
16226,1469892063024,,,,,,,0.0,0.05,1.0,-1.9,0.4,-0.0,980,56,,,,,,,,,,,,,,,,,
16246,1469892063044,0,96.2,125.0,58,120.2,,0.0,0.05,1.01,-2.0,0.4,0.0,980,55,16.066,0,39.536594,-122.332382,1.0,0.006,277.2,11,2,1.3,0,0.0,-1,0.0,0.0,0.0,0
16266,1469892063064,,,,,,,0.0,0.05,1.01,-2.0,0.4,-0.0,980,55,,,,,,,,,,,,,,,,,
16286,1469892063084,,,,,,,0.01,0.05,1.0,-2.0,0.4,0.0,980,53,,,,,,,,,,,,,,,,,
16306,1469892063109,,,,,,,0.0,0.05,1.0,-2.1,0.4,0.1,980,52,,,,,,,,,,,,,,,,,
16326,1469892063129,,,,,,,0.01,0.06,1.0,-2.1,0.3,0.1,1000,52,,,,,,,,,,,,,,,,,
16346,1469892063149,,,,61,,,0.0,0.06,1.0,-2.1,0.3,0.1,980,52,17.818,0,39.536594,-122.332382,0.0,0.006,277.1,11,2,1.3,0,0.0,-1,0.0,,0.0,0
16366,1469892063169,,,,,,,0.0,0.06,1.0,-2.2,0.2,0.1,980,50,,,,,,,,,,,,,,,,,
16386,1469892063189,,,,,,,0.0,0.05,0.99,-2.2,0.2,0.1,980,50,,,,,,,,,,,,,,,,,
16406,1469892063308,,,,,,,0.0,0.05,0.99,-2.2,0.1,0.2,980,49,,,,,,,,,,,,,,,,,
16426,1469892063328,,,,,,,0.0,0.06,1.0,-2.2,0.0,0.2,980,47,,,,,,,,,,,,,,,,,
16446,1469892063348,0,96.8,125.9,57,121.8,,0.0,0.06,1.0,-2.3,-0.1,0.2,980,47,18.846,0,39.536594,-122.332382,0.0,0.006,275.8,11,2,1.3,0,0.0,-1,0.0,0.0,0.0,0
16466,1469892063368,,,,,,,0.0,0.06,1.0,-2.3,-0.1,0.2,980,46,,,,,,,,,,,,,,,,,
16486,1469892063388,,,,,,,-0.0,0.06,0.99,-2.3,-0.1,0.2,980,46,,,,,,,,,,,,,,,,,
16506,1469892063408,,,,,,,-0.0,0.06,0.99,-2.3,-0.1,0.3,980,44,,,,,,,,,,,,,,,,,
16526,1469892063428,,,,,,,-0.0,0.06,0.99,-2.4,-0.2,0.3,980,44,,,,,,,,,,,,,,,,,
16546,1469892063448,,,,58,,,-0.0,0.06,1.0,-2.4,-0.2,0.3,980,41,20.851,0,39.536594,-122.332382,0.0,0.006,275.8,11,2,1.3,0,0.0,-1,0.0,,0.0,0
16566,1469892063468,,,,,,,-0.01,0.06,1.0,-2.4,-0.2,0.3,1000,40,,,,,,,,,,,,,,,,,
16586,1469892063488,,,,,,,-0.01,0.06,1.0,-2.4,-0.1,0.3,980,40,,,,,,,,,,,,,,,,,
16606,1469892063409,,,,,,,-0.01,0.06,1.0,-2.4,-0.1,0.3,980,38,,,,,,,,,,,,,,,,,
16626,1469892063429,,,,,,,-0.01,0.06,1.0,-2.4,-0.1,0.3,980,38,,,,,,,,,,,,,,,,,
16646,1469892063449,0,95.6,125.0,60,120.7,,-0.01,0.07,1.0,-2.4,-0.1,0.3,980,38,23.902,0,39.536594,-122.332382,0.0,0.006,275.7,11,2,1.3,0,0.0,-1,0.0,0.0,0.0,0
16666,1469892063469,,,,,,,-0.01,0.07,1.01,-2.5,-0.1,0.3,980,36,,,,,,,,,,,,,,,,,
16686,1469892063489,,,,,,,-0.02,0.07,1.01,-2.4,0.0,0.3,980,36,,,,,,,,,,,,,,,,,
16706,1469892063508,,,,,,,-0.02,0.07,1.01,-2.4,0.1,0.3,980,33,,,,,,,,,,,,,,,,,
16726,1469892063528,,,,,,,-0.01,0.07,1.01,-2.4,0.1,0.3,980,33,,,,,,,,,,,,,,,,,
16746,1469892063548,,,,58,,,-0.01,0.07,1.01,-2.4,0.2,0.3,980,32,27.222,0,39.536594,-122.332382,0.0,0.006,276.2,11,2,1.3,0,0.0,-1,0.0,,0.0,0
16766,1469892063568,,,,,,,-0.01,0.08,1.01,-2.4,0.2,0.3,960,32,,,,,,,,,,,,,,,,,
16786,1469892063588,,,,,,,-0.01,0.08,1.01,-2.4,0.3,0.3,980,32,,,,,,,,,,,,,,,,,
16806,1469892063607,,,,,,,-0.01,0.08,1.01,-2.4,0.4,0.2,980,29,,,,,,,,,,,,,,,,,
16826,1469892063627,,,,,,,-0.01,0.08,1.01,-2.4,0.4,0.2,980,29,,,,,,,,,,,,,,,,,
16846,1469892063647,0,97.3,125.9,60,120.8,,-0.0,0.08,1.01,-2.4,0.5,0.1,980,29,30.0,0,39.536594,-122.332367,0.0,0.007,275.9,11,2,1.3,0,0.0,-1,0.0,0.0,0.0,0
16866,1469892063667,,,,,,,-0.0,0.09,1.01,-2.5,0.5,0.1,960,26,,,,,,,,,,,,,,,,,
16886,1469892063687,,,,,,,0.0,0.08,1.01,-2.5,0.5,0.1,960,26,,,,,,,,,,,,,,,,,
16906,1469892063708,,,,,,,0.0,0.08,1.01,-2.6,0.5,0.1,980,26,,,,,,,,,,,,,,,,,
16926,1469892063728,,,,,,,0.0,0.09,1.01,-2.6,0.4,0.0,980,23,,,,,,,,,,,,,,,,,
16946,1469892063748,,,,59,,,0.0,0.08,1.0,-2.6,0.4,-0.0,980,23,36.923,0,39.536594,-122.332367,0.0,0.007,275.7,11,2,1.3,0,0.0,-1,0.0,,0.0,0
16966,1469892063768,,,,,,,0.0,0.08,1.0,-2.6,0.3,-0.0,980,23,,,,,,,,,,,,,,,,,
16986,1469892063788,,,,,,,0.0,0.08,0.99,-2.7,0.2,-0.0,960,23,,,,,,,,,,,,,,,,,
17006,1469892063807,,,,,,,0.0,0.08,0.99,-2.7,0.1,-0.0,960,23,,,,,,,,,,,,,,,,,
17026,1469892063827,,,,,,,0.0,0.08,0.99,-2.7,0.0,-0.1,960,18,,,,,,,,,,,,,,,,,
17046,1469892063847,0,97.4,126.1,57,121.2,14.77,0.0,0.08,0.99,-2.7,-0.1,-0.1,960,18,42.609,0,39.536594,-122.332367,0.0,0.007,275.5,11,2,1.3,0,0.0,-1,0.0,0.0,0.0,0
17066,1469892063867,,,,,,,-0.0,0.08,0.99,-2.7,-0.1,-0.1,980,18,,,,,,,,,,,,,,,,,
17086,1469892063887,,,,,,,-0.01,0.07,1.0,-2.6,-0.1,-0.1,960,18,,,,,,,,,,,,,,,,,
17106,1469892063899,,,,,,,-0.01,0.08,1.0,-2.6,-0.2,-0.2,960,1538461,,,,,,,,,,,,,,,,,
17126,1469892063919,,,,,,,-0.01,0.07,1.0,-2.6,-0.2,-0.2,960,0,,,,,,,,,,,,,,,,,
17146,1469892063939,,,,61,,,-0.02,0.08,1.0,-2.7,-0.3,-0.3,960,0,54.444,0,39.536594,-122.332367,0.0,0.007,275.5,11,2,1.3,0,0.0,-1,0.0,,0.0,0
17166,1469892063959,,,,,,,-0.02,0.08,0.99,-2.7,-0.2,-0.3,960,0,,,,,,,,,,,,,,,,,
17186,1469892063979,,,,,,,-0.02,0.08,0.99,-2.7,-0.3,-0.3,980,0,,,,,,,,,,,,,,,,,
17206,1469892064107,,,,,,,-0.02,0.08,0.99,-2.7,-0.3,-0.4,980,0,,,,,,,,,,,,,,,,,
17226,1469892064127,,,,,,,-0.02,0.09,0.98,-2.8,-0.3,-0.4,960,0,,,,,,,,,,,,,,,,,
17246,1469892064147,0,96.5,125.8,56,121.9,,-0.02,0.08,0.98,-2.8,-0.3,-0.4,960,0,0.0,0,39.536594,-122.332367,0.0,0.007,275.5,11,2,1.3,0,0.0,-1,0.0,0.0,0.0,0
17266,1469892064167,,,,,,,-0.02,0.08,0.98,-2.9,-0.2,-0.3,960,0,,,,,,,,,,,,,,,,,
17286,1469892064187,,,,,,,-0.01,0.08,0.98,-2.9,-0.2,-0.3,960,0,,,,,,,,,,,,,,,,,
17306,1469892064207,,,,,,,-0.01,0.07,0.98,-2.9,-0.1,-0.3,980,0,,,,,,,,,,,,,,,,,
17326,1469892064227,,,,,,,-0.01,0.07,0.98,-2.9,-0.0,-0.3,980,0,,,,,,,,,,,,,,,,,
17346,1469892064247,,,,58,,,-0.0,0.06,0.98,-2.9,0.1,-0.2,960,0,0.0,0,39.536594,-122.332367,0.0,0.007,275.5,11,2,1.3,0,0.0,-1,0.0,,0.0,0
17366,1469892064267,,,,,,,0.0,0.06,0.98,-2.9,0.1,-0.2,960,0,,,,,,,,,,,,,,,,,
17386,1469892064287,,,,,,,0.01,0.06,0.98,-2.9,0.2,-0.2,960,0,,,,,,,,,,,,,,,,,
17406,1469892064208,,,,,,,0.01,0.06,0.99,-2.9,0.1,-0.1,960,0,,,,,,,,,,,,,,,,,
17426,1469892064228,,,,,,,0.02,0.06,0.99,-2.9,0.1,-0.1,960,0,,,,,,,,,,,,,,,,,
17446,1469892064248,0,95.8,125.3,58,121.2,,0.02,0.05,0.99,-2.9,0.0,-0.1,960,0,0.0,0,39.536594,-122.332367,0.0,0.007,275.5,11,2,1.3,0,0.0,-1,0.0,0.0,0.0,0
17466,1469892064268,,,,,,,0.02,0.05,0.99,-2.9,-0.0,-0.0,940,0,,,,,,,,,,,,,,,,,
17486,1469892064288,,,,,,,0.02,0.05,0.99,-2.9,-0.1,0.0,960,0,,,,,,,,,,,,,,,,,
17506,1469892064308,,,,,,,0.02,0.06,0.99,-3.0,-0.1,0.1,960,0,,,,,,,,,,,,,,,,,
17526,1469892064328,,,,,,,0.02,0.06,1.0,-3.0,-0.1,0.1,960,0,,,,,,,,,,,,,,,,,
17546,1469892064348,,,,56,,,0.02,0.07,1.0,-3.1,-0.1,0.1,960,0,0.0,0,39.536594,-122.332367,0.0,0.007,275.5,11,2,1.3,0,0.0,-1,0.0,,0.0,0
17566,1469892064368,,,,,,,0.03,0.07,1.01,-3.1,-0.1,0.1,960,0,,,,,,,,,,,,,,,,,
17586,1469892064388,,,,,,,0.03,0.07,1.01,-3.1,-0.0,0.2,960,0,,,,,,,,,,,,,,,,,
17606,1469892064408,,,,,,,0.03,0.07,1.01,-3.1,0.0,0.2,940,0,,,,,,,,,,,,,,,,,
17626,1469892064428,,,,,,,0.03,0.06,1.01,-3.1,0.1,0.1,960,0,,,,,,,,,,,,,,,,,
17646,1469892064448,0,95.5,124.8,56,120.6,,0.03,0.06,1.01,-3.1,0.1,0.1,960,0,0.0,0,39.536594,-122.332367,0.0,0.007,275.5,11,2,1.3,0,0.0,-1,0.0,0.0,0.0,0
17666,1469892064468,,,,,,,0.04,0.06,1.01,-3.0,0.1,0.0,960,0,,,,,,,,,,,,,,,,,
17686,1469892064488,,,,,,,0.04,0.06,1.0,-3.0,0.1,-0.0,960,0,,,,,,,,,,,,,,,,,
17706,1469892064508,,,,,,,0.04,0.07,1.0,-3.0,0.0,-0.1,960,0,,,,,,,,,,,,,,,,,
17726,1469892064528,,,,,,,0.05,0.07,0.99,-3.0,-0.0,-0.1,940,0,,,,,,,,,,,,,,,,,
17746,1469892064548,,,,56,,,0.05,0.07,0.99,-3.0,-0.1,-0.2,960,0,0.0,0,39.536594,-122.332367,0.0,0.007,275.5,11,2,1.3,0,0.0,-1,0.0,,0.0,0
17766,1469892064568,,,,,,,0.05,0.08,0.99,-3.0,-0.1,-0.2,960,0,,,,,,,,,,,,,,,,,
17786,1469892064588,,,,,,,0.04,0.07,0.99,-3.0,-0.2,-0.2,960,0,,,,,,,,,,,,,,,,,
17806,1469892064608,,,,,,,0.03,0.07,0.99,-3.0,-0.2,-0.2,980,0,,,,,,,,,,,,,,,,,
17826,1469892064628,,,,,,,0.03,0.07,1.0,-3.0,-0.2,-0.3,960,0,,,,,,,,,,,,,,,,,
17846,1469892064648,0,95.9,124.9,58,120.7,,0.02,0.06,0.99,-3.0,-0.2,-0.3,940,0,0.0,0,39.536594,-122.332367,0.0,0.007,275.5,11,2,1.3,0,0.0,-1,0.0,0.0,0.0,0
17866,1469892064668,,,,,,,0.02,0.06,0.99,-3.0,-0.2,-0.3,960,0,,,,,,,,,,,,,,,,,
17886,1469892064688,,,,,,,0.02,0.06,0.99,-3.0,-0.2,-0.3,960,0,,,,,,,,,,,,,,,,,
17906,1469892064708,,,,,,,0.02,0.06,0.98,-3.0,-0.2,-0.3,960,0,,,,,,,,,,,,,,,,,
17926,1469892064728,,,,,,,0.02,0.06,0.98,-3.0,-0.2,-0.3,960,0,,,,,,,,,,,,,,,,,
17946,1469892064748,,,,58,,,0.02,0.06,0.98,-3.0,-0.1,-0.3,980,0,0.0,0,39.536594,-122.332367,0.0,0.007,275.5,11,2,1.3,0,0.0,-1,0.0,,0.0,0
17966,1469892064768,,,,,,,0.02,0.06,0.98,-3.0,0.0,-0.3,940,0,,,,,,,,,,,,,,,,,
17986,1469892064788,,,,,,,0.03,0.06,0.98,-3.0,0.1,-0.2,960,0,,,,,,,,,,,,,,,,,
18006,1469892064907,,,,,,,0.03,0.06,0.98,-3.0,0.2,-0.2,960,0,,,,,,,,,,,,,,,,,
18026,1469892064927,,,,,,,0.03,0.05,0.98,-3.0,0.2,-0.1,960,0,,,,,,,,,,,,,,,,,
18046,1469892064947,0,94.6,124.7,58,121.3,14.67,0.03,0.05,0.99,-3.1,0.3,-0.0,980,0,0.0,0,39.536594,-122.332367,0.0,0.007,275.5,11,2,1.3,0,0.0,-1,0.0,0.0,0.0,0
18066,1469892064967,,,,,,,0.03,0.04,0.99,-3.1,0.3,0.0,960,0,,,,,,,,,,,,,,,,,
18086,1469892064987,,,,,,,0.03,0.04,0.99,-3.1,0.3,0.1,960,0,,,,,,,,,,,,,,,,,
18106,1469892065007,,,,,,,0.03,0.04,0.99,-3.1,0.2,0.1,960,0,,,,,,,,,,,,,,,,,
18126,1469892065027,,,,,,,0.03,0.04,1.0,-3.0,0.2,0.2,960,0,,,,,,,,,,,,,,,,,
18146,1469892065047,,,,56,,,0.03,0.04,1.0,-3.0,0.2,0.2,960,0,0.0,0,39.536594,-122.332367,0.0,0.007,275.5,11,2,1.3,0,0.0,-1,0.0,,0.0,0
18166,1469892065067,,,,,,,0.03,0.05,1.0,-3.1,0.0,0.2,980,0,,,,,,,,,,,,,,,,,
18186,1469892065087,,,,,,,0.03,0.06,1.0,-3.1,0.0,0.2,980,0,,,,,,,,,,,,,,,,,
18206,1469892065009,,,,,,,0.03,0.06,1.0,-3.1,0.0,0.2,960,0,,,,,,,,,,,,,,,,,
18226,1469892065029,,,,,,,0.03,0.07,1.0,-3.1,0.0,0.2,960,0,,,,,,,,,,,,,,,,,
18246,1469892065049,0,95.6,124.9,61,121.0,,0.03,0.08,1.0,-3.1,0.0,0.2,960,0,0.0,0,39.536594,-122.332367,0.0,0.007,275.5,11,2,1.3,0,0.0,-1,0.0,0.0,0.0,0
18266,1469892065069,,,,,,,0.03,0.08,1.01,-3.1,0.1,0.2,960,0,,,,,,,,,,,,,,,,,
18286,1469892065089,,,,,,,0.03,0.08,1.01,-3.1,0.1,0.2,960,0,,,,,,,,,,,,,,,,,
18306,1469892065108,,,,,,,0.03,0.08,1.01,-3.1,0.2,0.2,980,0,,,,,,,,,,,,,,,,,
18326,1469892065128,,,,,,,0.03,0.07,1.01,-3.1,0.3,0.1,960,0,,,,,,,,,,,,,,,,,
18346,1469892065148,,,,57,,,0.04,0.07,1.01,-3.1,0.3,0.1,960,0,0.0,0,39.536594,-122.332367,0.0,0.007,275.5,11,2,1.3,0,0.0,-1,0.0,,0.0,0
18366,1469892065168,,,,,,,0.04,0.07,1.01,-3.0,0.4,0.0,960,0,,,,,,,,,,,,,,,,,
18386,1469892065188,,,,,,,0.04,0.07,1.01,-3.0,0.3,0.0,960,0,,,,,,,,,,,,,,,,,
18406,1469892065210,,,,,,,0.04,0.07,1.01,-3.0,0.3,-0.0,960,0,,,,,,,,,,,,,,,,,
18426,1469892065230,,,,,,,0.04,0.08,1.01,-3.0,0.3,-0.1,980,0,,,,,,,,,,,,,,,,,
18446,1469892065250,0,96.9,126.1,58,121.8,,0.04,0.08,1.0,-3.0,0.2,-0.1,960,0,0.0,0,39.536594,-122.332367,0.0,0.007,275.5,11,2,1.3,0,0.0,-1,0.0,0.0,0.0,0
18466,1469892065270,,,,,,,0.05,0.08,0.99,-3.0,0.1,-0.1,960,0,,,,,,,,,,,,,,,,,
18486,1469892065290,,,,,,,0.05,0.09,0.99,-3.0,-0.1,-0.2,960,0,,,,,,,,,,,,,,,,,
18506,1469892065309,,,,,,,0.05,0.09,0.99,-3.0,-0.1,-0.2,960,0,,,,,,,,,,,,,,,,,
18526,1469892065329,,,,,,,0.04,0.08,0.99,-3.0,-0.2,-0.2,960,0,,,,,,,,,,,,,,,,,
18546,1469892065349,,,,57,,,0.04,0.08,0.99,-3.0,-0.1,-0.2,980,0,0.0,0,39.536594,-122.332367,0.0,0.007,275.5,11,2,1.3,0,0.0,-1,0.0,,0.0,0
18566,1469892065369,,,,,,,0.03,0.08,0.99,-3.0,-0.2,-0.3,960,0,,,,,,,,,,,,,,,,,
18586,1469892065389,,,,,,,0.03,0.07,1.0,-3.0,-0.2,-0.3,960,0,,,,,,,,,,,,,,,,,
18606,1469892065410,,,,,,,0.02,0.06,1.0,-3.0,-0.2,-0.3,960,0,,,,,,,,,,,,,,,,,
18626,1469892065430,,,,,,,0.02,0.06,0.99,-3.0,-0.3,-0.3,960,0,,,,,,,,,,,,,,,,,
18646,1469892065450,0,96.1,126.0,58,122.3,,0.02,0.06,0.99,-3.0,-0.2,-0.3,960,0,0.0,0,39.536594,-122.332367,0.0,0.007,275.5,11,2,1.3,0,0.0,-1,0.0,0.0,0.0,0
18666,1469892065470,,,,,,,0.02,0.07,0.98,-3.0,-0.2,-0.3,960,0,,,,,,,,,,,,,,,,,
18686,1469892065490,,,,,,,0.02,0.06,0.98,-3.0,-0.2,-0.3,960,0,,,,,,,,,,,,,,,,,
18706,1469892065509,,,,,,,0.02,0.06,0.98,-3.0,-0.2,-0.3,960,0,,,,,,,,,,,,,,,,,
18726,1469892065529,,,,,,,0.02,0.06,0.98,-3.0,-0.1,-0.3,960,0,,,,,,,,,,,,,,,,,
18746,1469892065549,,,,60,,,0.02,0.06,0.98,-3.0,0.0,-0.3,960,0,0.0,0,39.536594,-122.332367,0.0,0.007,275.5,11,2,1.3,0,0.0,-1,0.0,,0.0,0
18766,1469892065569,,,,,,,0.02,0.06,0.98,-3.0,0.1,-0.2,960,0,,,,,,,,,,,,,,,,,
18786,1469892065589,,,,,,,0.03,0.05,0.98,-3.0,0.2,-0.2,980,0,,,,,,,,,,,,,,,,,
18806,1469892065709,,,,,,,0.03,0.05,0.98,-3.1,0.2,-0.1,960,0,,,,,,,,,,,,,,,,,
18826,1469892065729,,,,,,,0.03,0.05,0.99,-3.0,0.2,-0.1,960,0,,,,,,,,,,,,,,,,,
18846,1469892065749,0,95.6,125.4,55,122.0,,0.03,0.04,0.98,-3.1,0.2,-0.0,960,0,0.0,0,39.536594,-122.332367,0.0,0.007,275.5,11,2,1.3,0,0.0,-1,0.0,0.0,0.0,0
18866,1469892065769,,,,,,,0.03,0.04,0.99,-3.0,0.1,0.0,960,0,,,,,,,,,,,,,,,,,
18886,1469892065789,,,,,,,0.03,0.05,0.99,-3.0,0.1,0.1,960,0,,,,,,,,,,,,,,,,,
18906,1469892065809,,,,,,,0.03,0.05,0.99,-3.1,-0.0,0.1,960,0,,,,,,,,,,,,,,,,,
18926,1469892065829,,,,,,,0.03,0.05,0.99,-3.1,-0.0,0.1,960,0,,,,,,,,,,,,,,,,,
18946,1469892065849,,,,57,,,0.03,0.06,1.0,-3.1,-0.0,0.1,960,0,0.0,0,39.536594,-122.332367,0.0,0.007,275.5,11,2,1.3,0,0.0,-1,0.0,,0.0,0
18966,1469892065869,,,,,,,0.03,0.07,1.0,-3.1,0.0,0.1,940,0,,,,,,,,,,,,,,,,,
18986,1469892065889,,,,,,,0.03,0.08,1.0,-3.1,0.0,0.2,960,0,,,,,,,,,,,,,,,,,
19006,1469892065810,,,,,,,0.03,0.08,1.0,-3.1,0.1,0.2,960,0,,,,,,,,,,,,,,,,,
19026,1469892065830,,,,,,,0.04,0.08,1.01,-3.1,0.2,0.1,960,0,,,,,,,,,,,,,,,,,
19046,1469892065850,0,97.4,125.4,56,121.2,14.65,0.04,0.07,1.01,-3.1,0.2,0.1,980,0,0.0,0,39.536594,-122.332367,0.0,0.007,275.5,11,2,1.3,0,0.0,-1,0.0,0.0,0.0,0
19066,1469892065870,,,,,,,0.04,0.07,1.01,-3.1,0.3,0.0,960,0,,,,,,,,,,,,,,,,,
19086,1469892065890,,,,,,,0.04,0.07,1.0,-3.0,0.2,-0.0,960,0,,,,,,,,,,,,,,,,,
19106,1469892065900,,,,,,,0.05,0.08,1.0,-3.0,0.3,-0.1,960,0,,,,,,,,,,,,,,,,,
19126,1469892065920,,,,,,,0.05,0.08,1.0,-3.0,0.2,-0.2,960,0,,,,,,,,,,,,,,,,,
19146,1469892065940,,,,58,,,0.05,0.08,0.99,-3.0,0.1,-0.2,960,0,0.0,0,39.536594,-122.332367,0.0,0.007,275.5,11,2,1.3,0,0.0,-1,0.0,,0.0,0
19166,1469892065960,,,,,,,0.05,0.08,0.99,-3.0,-0.0,-0.2,980,0,,,,,,,,,,,,,,,,,
19186,1469892065980,,,,,,,0.05,0.08,0.99,-3.0,-0.1,-0.3,960,0,,,,,,,,,,,,,,,,,
19206,1469892066010,,,,,,,0.04,0.08,0.99,-3.0,-0.2,-0.3,960,0,,,,,,,,,,,,,,,,,
