"Interval"|"ms"|0|0|1,"Utc"|"ms"|0|0|1,"FuelLevel"|"F"|0|100|5,"OilTemp"|"F"|0.0|300.0|5,"Coolant"|"F"|0.0|300.0|5,"OilPress"|"PSI"|0|150|10,"EngineTemp"|"F"|0.0|300.0|5,"Battery"|"Volts"|0.0|20.0|1,"AccelX"|"G"|-3.0|3.0|50,"AccelY"|"G"|-3.0|3.0|50,"AccelZ"|"G"|-3.0|3.0|50,"Yaw"|"Deg/Sec"|-300.0|300.0|50,"Pitch"|"Deg/Sec"|-300.0|300.0|50,"Roll"|"Deg/Sec"|-300.0|300.0|50,"RPM"|""|0|10000|50,"Driveshaft"|"RPM"|0|5000|50,"GearRatio"|""|-5.0|5.0|10,"Gear"|""|-1|5|10,"Latitude"|"Degrees"|-180.0|180.0|10,"Longitude"|"Degrees"|-180.0|180.0|10,"Speed"|"MPH"|0.0|150.0|10,"Distance"|"Miles"|0.0|0.0|10,"Altitude"|"Feet"|0.0|4000.0|10,"GPSSats"|""|0|20|10,"GPSQual"|""|0|5|10,"GPSDOP"|""|0.0|20.0|10,"LapCount"|""|0|0|10,"LapTime"|"Min"|0.0|0.0|10,"Sector"|""|0|0|10,"SectorTime"|"Min"|0.0|0.0|10,"PredTime"|"Min"|0.0|0.0|5,"ElapsedTime"|"Min"|0.0|0.0|10,"CurrentLap"|""|0|0|10
4698686,1469897372410,,,,,,,0.03,0.11,0.99,-3.0,0.2,-0.2,140,0,,,,,,,,,,,,,,,,,
4698706,1469897372430,,,,,,,0.02,0.11,0.99,-3.0,0.1,-0.3,140,0,,,,,,,,,,,,,,,,,
4698726,1469897372450,,,,,,,0.03,0.11,1.0,-3.0,0.3,-0.3,140,0,,,,,,,,,,,,,,,,,
4698746,1469897372470,,,,4,,,0.03,0.11,1.0,-3.1,0.3,-0.2,140,0,0.0,0,39.539631,-122.331482,0.0,0.586,315.8,11,3,1.4,0,0.0,-1,0.0,,0.0,0
4698766,1469897372490,,,,,,,0.03,0.13,1.0,-3.1,0.4,-0.2,200,0,,,,,,,,,,,,,,,,,
4698786,1469897372510,,,,,,,0.03,0.14,1.0,-3.2,0.5,-0.1,200,0,,,,,,,,,,,,,,,,,
4698806,1469897372530,,,,,,,0.03,0.12,1.0,-3.1,0.3,-0.2,200,0,,,,,,,,,,,,,,,,,
4698826,1469897372550,,,,,,,0.03,0.13,1.0,-3.1,0.3,-0.2,300,0,,,,,,,,,,,,,,,,,
4698846,1469897372570,0,141.6,153.2,5,145.6,,0.03,0.12,1.0,-3.2,0.3,-0.3,300,0,0.0,0,39.539631,-122.331482,0.0,0.586,315.8,11,3,1.4,0,0.0,-1,0.0,0.0,0.0,0
4698866,1469897372590,,,,,,,0.02,0.12,1.0,-3.1,0.2,-0.3,300,0,,,,,,,,,,,,,,,,,
4698886,1469897372707,,,,,,,0.03,0.12,1.0,-3.1,0.2,-0.3,400,0,,,,,,,,,,,,,,,,,
4698906,1469897372727,,,,,,,0.03,0.12,1.0,-3.1,0.3,-0.3,400,0,,,,,,,,,,,,,,,,,
4698926,1469897372747,,,,,,,0.03,0.12,0.99,-3.1,0.1,-0.2,440,0,,,,,,,,,,,,,,,,,
4698946,1469897372767,,,,10,,,0.03,0.09,0.98,-3.0,0.3,-0.3,440,0,0.0,0,39.539631,-122.331482,0.0,0.586,315.8,11,3,1.4,0,0.0,-1,0.0,,0.0,0
4698966,1469897372787,,,,,,,0.02,0.1,0.99,-3.1,0.1,-0.1,580,0,,,,,,,,,,,,,,,,,
4698986,1469897372807,,,,,,,0.03,0.1,0.99,-3.0,-0.1,-0.2,700,0,,,,,,,,,,,,,,,,,
4699006,1469897372827,,,,,,,0.02,0.09,0.99,-3.0,0.1,-0.5,760,0,,,,,,,,,,,,,,,,,
4699026,1469897372847,,,,,,,0.01,0.1,0.99,-3.0,-0.0,-0.5,760,0,,,,,,,,,,,,,,,,,
4699046,1469897372867,0,142.3,153.9,20,146.4,12.03,0.02,0.09,0.99,-3.0,0.2,-0.3,740,0,0.0,0,39.539631,-122.331482,0.0,0.586,315.8,11,3,1.4,0,0.0,-1,0.0,0.0,0.0,0
4699066,1469897372887,,,,,,,0.02,0.09,1.0,-3.1,0.1,-0.1,720,0,,,,,,,,,,,,,,,,,
4699086,1469897372810,,,,,,,0.02,0.1,1.0,-3.0,-0.0,-0.2,700,0,,,,,,,,,,,,,,,,,
4699106,1469897372830,,,,,,,0.01,0.1,0.99,-3.0,0.0,-0.1,700,0,,,,,,,,,,,,,,,,,
4699126,1469897372850,,,,,,,0.02,0.1,1.0,-3.0,-0.0,-0.1,680,0,,,,,,,,,,,,,,,,,
4699146,1469897372870,,,,22,,,0.02,0.09,0.99,-3.0,0.0,-0.3,720,0,0.0,0,39.539631,-122.331482,0.0,0.586,315.8,11,3,1.4,0,0.0,-1,0.0,,0.0,0
4699166,1469897372890,,,,,,,0.01,0.08,0.99,-3.0,0.1,-0.3,720,0,,,,,,,,,,,,,,,,,
4699186,1469897372904,,,,,,,0.02,0.09,0.99,-3.0,0.2,-0.1,720,0,,,,,,,,,,,,,,,,,
4699206,1469897372924,,,,,,,0.03,0.09,1.0,-3.0,0.1,0.0,780,0,,,,,,,,,,,,,,,,,
4699226,1469897372944,,,,,,,0.02,0.09,1.0,-2.9,-0.1,-0.2,860,0,,,,,,,,,,,,,,,,,
4699246,1469897372964,0,141.8,153.7,30,146.2,,0.02,0.07,1.01,-2.9,0.1,-0.4,900,0,0.0,0,39.539631,-122.331482,0.0,0.586,315.8,11,3,1.4,0,0.0,-1,0.0,0.0,0.0,0
4699266,1469897372984,,,,,,,0.02,0.06,0.99,-2.9,-0.1,-0.5,940,0,,,,,,,,,,,,,,,,,
4699286,1469897373010,,,,,,,0.01,0.05,0.98,-2.9,-0.2,-0.5,980,0,,,,,,,,,,,,,,,,,
4699306,1469897373030,,,,,,,0.01,0.06,0.98,-3.0,-0.5,-0.2,1020,0,,,,,,,,,,,,,,,,,
4699326,1469897373050,,,,,,,-0.0,0.06,0.98,-3.0,-0.5,-0.1,1020,0,,,,,,,,,,,,,,,,,
4699346,1469897373070,,,,41,,,-0.01,0.06,0.98,-3.0,-0.4,-0.1,1060,0,0.0,0,39.539631,-122.331482,0.0,0.586,315.8,11,3,1.4,0,0.0,-1,0.0,,0.0,0
4699366,1469897373090,,,,,,,-0.01,0.06,0.99,-2.9,-0.4,-0.1,1100,0,,,,,,,,,,,,,,,,,
4699386,1469897373110,,,,,,,-0.0,0.07,0.99,-2.9,-0.4,-0.2,1120,0,,,,,,,,,,,,,,,,,
4699406,1469897373130,,,,,,,0.0,0.08,0.99,-2.9,-0.3,-0.3,1160,0,,,,,,,,,,,,,,,,,
4699426,1469897373150,,,,,,,0.01,0.08,0.99,-2.9,-0.3,-0.2,1220,0,,,,,,,,,,,,,,,,,
4699446,1469897373170,0,141.5,154.0,52,146.5,,0.01,0.08,0.98,-2.9,-0.1,-0.2,1260,0,0.0,0,39.539631,-122.331482,0.0,0.586,315.8,11,3,1.4,0,0.0,-1,0.0,0.0,0.0,0
4699466,1469897373190,,,,,,,0.01,0.08,0.99,-3.0,-0.0,-0.1,1280,0,,,,,,,,,,,,,,,,,
4699486,1469897373210,,,,,,,0.01,0.09,0.99,-3.0,-0.0,-0.1,1280,0,,,,,,,,,,,,,,,,,
4699506,1469897373230,,,,,,,0.01,0.09,0.99,-3.0,-0.1,-0.1,1320,0,,,,,,,,,,,,,,,,,
4699526,1469897373250,,,,,,,0.01,0.08,0.99,-2.9,0.0,-0.2,1320,0,,,,,,,,,,,,,,,,,
4699546,1469897373270,,,,53,,,0.01,0.1,1.0,-2.9,0.1,-0.3,1360,0,0.0,0,39.539631,-122.331482,0.0,0.586,315.8,11,3,1.4,0,0.0,-1,0.0,,0.0,0
4699566,1469897373290,,,,,,,0.02,0.1,1.0,-2.9,-0.0,-0.3,1360,0,,,,,,,,,,,,,,,,,
4699586,1469897373310,,,,,,,0.01,0.08,1.0,-2.9,0.0,-0.3,1360,0,,,,,,,,,,,,,,,,,
4699606,1469897373330,,,,,,,0.02,0.1,1.01,-2.9,0.1,-0.3,1360,0,,,,,,,,,,,,,,,,,
4699626,1469897373350,,,,,,,0.02,0.1,1.0,-2.9,0.0,-0.2,1380,0,,,,,,,,,,,,,,,,,
4699646,1469897373370,0,142.3,153.2,56,145.3,,0.02,0.1,1.0,-2.9,-0.1,-0.3,1380,0,0.0,0,39.539631,-122.331482,0.0,0.586,315.8,11,3,1.4,0,0.0,-1,0.0,0.0,0.0,0
4699666,1469897373390,,,,,,,0.02,0.09,0.99,-2.9,0.0,-0.3,1360,0,,,,,,,,,,,,,,,,,
4699686,1469897373509,,,,,,,0.01,0.09,0.99,-2.9,-0.0,-0.3,1340,0,,,,,,,,,,,,,,,,,
4699706,1469897373529,,,,,,,0.01,0.11,0.99,-2.9,-0.1,-0.3,1340,0,,,,,,,,,,,,,,,,,
4699726,1469897373549,,,,,,,0.01,0.11,0.99,-2.9,-0.0,-0.2,1320,0,,,,,,,,,,,,,,,,,
4699746,1469897373569,,,,54,,,0.01,0.1,1.0,-2.9,-0.0,-0.2,1300,0,0.0,0,39.539631,-122.331482,0.0,0.586,315.8,11,3,1.4,0,0.0,-1,0.0,,0.0,0
4699766,1469897373589,,,,,,,0.01,0.11,0.99,-2.9,-0.1,-0.2,1280,0,,,,,,,,,,,,,,,,,
4699786,1469897373609,,,,,,,0.02,0.1,0.99,-2.9,0.1,-0.2,1240,0,,,,,,,,,,,,,,,,,
4699806,1469897373629,,,,,,,0.02,0.1,0.99,-2.9,0.0,-0.2,1240,0,,,,,,,,,,,,,,,,,
4699826,1469897373649,,,,,,,0.01,0.09,0.99,-2.9,0.1,-0.2,1220,0,,,,,,,,,,,,,,,,,
4699846,1469897373669,0,142.3,153.0,54,145.1,,0.01,0.1,0.99,-2.9,0.0,-0.2,1220,0,0.0,0,39.539631,-122.331482,0.0,0.586,315.8,11,3,1.4,0,0.0,-1,0.0,0.0,0.0,0
4699866,1469897373689,,,,,,,0.02,0.1,0.98,-2.9,-0.0,-0.2,1140,0,,,,,,,,,,,,,,,,,
4699886,1469897373610,,,,,,,0.02,0.09,0.98,-2.9,0.0,-0.2,1120,0,,,,,,,,,,,,,,,,,
4699906,1469897373630,,,,,,,0.02,0.09,0.98,-2.9,0.0,-0.2,1120,0,,,,,,,,,,,,,,,,,
4699926,1469897373650,,,,,,,0.01,0.09,0.98,-2.9,-0.1,-0.2,1080,0,,,,,,,,,,,,,,,,,
4699946,1469897373670,,,,47,,,0.02,0.09,0.98,-2.9,0.0,-0.2,1040,0,0.0,0,39.539631,-122.331482,0.0,0.586,315.8,11,3,1.4,0,0.0,-1,0.0,,0.0,0
4699966,1469897373690,,,,,,,0.02,0.09,0.99,-2.9,0.1,-0.2,1040,0,,,,,,,,,,,,,,,,,
4699986,1469897373710,,,,,,,0.02,0.09,0.98,-2.9,-0.0,-0.1,1000,0,,,,,,,,,,,,,,,,,
4700006,1469897373730,,,,,,,0.02,0.09,0.98,-2.9,-0.0,-0.1,1000,0,,,,,,,,,,,,,,,,,
4700026,1469897373750,,,,,,,0.02,0.09,0.99,-2.9,-0.0,-0.1,940,0,,,,,,,,,,,,,,,,,
4700046,1469897373770,0,141.2,154.1,43,146.4,14.15,0.02,0.09,0.98,-2.9,-0.1,-0.1,920,0,0.0,0,39.539631,-122.331482,0.0,0.586,315.8,11,3,1.4,0,0.0,-1,0.0,0.0,0.0,0
4700066,1469897373790,,,,,,,0.02,0.09,0.98,-3.0,0.0,-0.1,900,0,,,,,,,,,,,,,,,,,
4700086,1469897373810,,,,,,,0.01,0.09,0.98,-3.0,0.0,-0.1,900,0,,,,,,,,,,,,,,,,,
4700106,1469897373830,,,,,,,0.01,0.09,0.98,-2.9,-0.1,-0.1,860,0,,,,,,,,,,,,,,,,,
4700126,1469897373850,,,,,,,0.02,0.09,0.98,-2.9,-0.1,-0.1,820,0,,,,,,,,,,,,,,,,,
4700146,1469897373870,,,,33,,,0.02,0.09,0.98,-2.9,-0.1,-0.1,800,0,0.0,0,39.539631,-122.331482,0.0,0.586,315.8,11,3,1.4,0,0.0,-1,0.0,,0.0,0
4700166,1469897373890,,,,,,,0.02,0.09,0.98,-2.9,-0.1,-0.1,780,0,,,,,,,,,,,,,,,,,
4700186,1469897373903,,,,,,,0.02,0.08,0.98,-2.9,0.1,-0.1,780,0,,,,,,,,,,,,,,,,,
4700206,1469897373923,,,,,,,0.01,0.09,0.98,-2.9,-0.0,-0.1,740,0,,,,,,,,,,,,,,,,,
4700226,1469897373943,,,,,,,0.02,0.09,0.98,-3.0,-0.1,-0.1,720,0,,,,,,,,,,,,,,,,,
4700246,1469897373963,0,142.3,153.1,28,145.2,,0.02,0.09,0.98,-3.0,-0.1,-0.1,660,0,0.0,0,39.539631,-122.331482,0.0,0.586,315.8,11,3,1.4,0,0.0,-1,0.0,0.0,0.0,0
4700266,1469897373983,,,,,,,0.02,0.09,0.98,-3.0,-0.0,-0.1,660,0,,,,,,,,,,,,,,,,,
4700286,1469897374010,,,,,,,0.02,0.09,0.98,-3.0,0.1,-0.1,640,0,,,,,,,,,,,,,,,,,
4700306,1469897374030,,,,,,,0.02,0.09,0.98,-2.9,0.1,-0.2,640,0,,,,,,,,,,,,,,,,,
4700326,1469897374050,,,,,,,0.02,0.09,0.98,-3.0,-0.0,-0.2,640,0,,,,,,,,,,,,,,,,,
4700346,1469897374070,,,,25,,,0.02,0.1,0.98,-3.0,-0.1,-0.2,620,0,0.0,0,39.539631,-122.331482,0.0,0.586,315.8,11,3,1.4,0,0.0,-1,0.0,,0.0,0
4700366,1469897374090,,,,,,,0.02,0.09,0.98,-3.0,-0.1,-0.2,620,0,,,,,,,,,,,,,,,,,
4700386,1469897374110,,,,,,,0.02,0.1,0.98,-3.0,-0.0,-0.2,600,0,,,,,,,,,,,,,,,,,
4700406,1469897374130,,,,,,,0.02,0.1,0.98,-2.9,0.0,-0.1,580,0,,,,,,,,,,,,,,,,,
4700426,1469897374150,,,,,,,0.02,0.1,0.98,-3.0,-0.0,-0.1,580,0,,,,,,,,,,,,,,,,,
4700446,1469897374170,0,141.1,153.5,21,146.0,,0.02,0.1,0.98,-3.0,0.1,-0.1,560,0,0.0,0,39.539631,-122.331482,0.0,0.586,315.8,11,3,1.4,0,0.0,-1,0.0,0.0,0.0,0
4700466,1469897374191,,,,,,,0.02,0.09,0.99,-3.0,0.0,-0.2,560,0,,,,,,,,,,,,,,,,,
4700486,1469897374310,,,,,,,0.02,0.1,0.99,-3.0,0.1,-0.1,560,0,,,,,,,,,,,,,,,,,
4700506,1469897374330,,,,,,,0.02,0.1,0.99,-3.0,0.1,-0.2,560,0,,,,,,,,,,,,,,,,,
4700526,1469897374350,,,,,,,0.02,0.1,0.99,-3.0,0.1,-0.1,560,0,,,,,,,,,,,,,,,,,
4700546,1469897374370,,,,20,,,0.02,0.11,0.99,-3.1,0.1,-0.1,560,0,0.0,0,39.539631,-122.331482,0.0,0.586,315.8,11,3,1.4,0,0.0,-1,0.0,,0.0,0
4700566,1469897374390,,,,,,,0.02,0.1,0.99,-3.1,0.2,-0.1,540,0,,,,,,,,,,,,,,,,,
4700586,1469897374410,,,,,,,0.02,0.1,0.99,-3.1,0.1,-0.1,520,0,,,,,,,,,,,,,,,,,
4700606,1469897374430,,,,,,,0.02,0.1,0.99,-3.0,0.1,-0.2,520,0,,,,,,,,,,,,,,,,,
4700626,1469897374450,,,,,,,0.02,0.1,0.99,-3.0,0.0,-0.2,520,0,,,,,,,,,,,,,,,,,
4700646,1469897374470,0,142.3,153.1,18,145.1,,0.02,0.1,0.99,-3.1,0.1,-0.2,520,0,0.0,0,39.539631,-122.331482,0.0,0.586,315.8,11,3,1.4,0,0.0,-1,0.0,0.0,0.0,0
4700666,1469897374490,,,,,,,0.02,0.1,0.99,-3.0,0.0,-0.1,500,0,,,,,,,,,,,,,,,,,
4700686,1469897374410,,,,,,,0.02,0.1,0.99,-3.0,-0.0,-0.1,500,0,,,,,,,,,,,,,,,,,
4700706,1469897374430,,,,,,,0.03,0.1,0.98,-3.0,0.1,-0.1,520,0,,,,,,,,,,,,,,,,,
4700726,1469897374450,,,,,,,0.02,0.1,0.98,-3.0,0.0,-0.1,520,0,,,,,,,,,,,,,,,,,
4700746,1469897374470,,,,19,,,0.02,0.09,0.99,-3.0,0.0,-0.1,520,0,0.0,0,39.539631,-122.331482,0.0,0.586,315.8,11,3,1.4,0,0.0,-1,0.0,,0.0,0
4700766,1469897374490,,,,,,,0.02,0.09,0.99,-3.0,-0.0,-0.2,520,0,,,,,,,,,,,,,,,,,
4700786,1469897374510,,,,,,,0.02,0.1,0.99,-3.0,-0.1,-0.2,540,0,,,,,,,,,,,,,,,,,
4700806,1469897374530,,,,,,,0.02,0.09,0.99,-3.0,0.0,-0.2,540,0,,,,,,,,,,,,,,,,,
4700826,1469897374550,,,,,,,0.02,0.09,0.98,-3.0,-0.0,-0.2,540,0,,,,,,,,,,,,,,,,,
4700846,1469897374570,0,141.7,153.9,19,145.9,,0.02,0.09,0.99,-3.0,-0.1,-0.2,540,0,0.0,0,39.539631,-122.331482,0.0,0.586,315.8,11,3,1.4,0,0.0,-1,0.0,0.0,0.0,0
4700866,1469897374590,,,,,,,0.02,0.09,0.98,-3.0,-0.0,-0.2,540,0,,,,,,,,,,,,,,,,,
4700886,1469897374610,,,,,,,0.02,0.09,0.98,-3.0,-0.1,-0.1,540,0,,,,,,,,,,,,,,,,,
4700906,1469897374630,,,,,,,0.02,0.08,0.98,-3.0,0.0,-0.2,540,0,,,,,,,,,,,,,,,,,
4700926,1469897374650,,,,,,,0.02,0.1,0.98,-3.1,-0.0,-0.1,580,0,,,,,,,,,,,,,,,,,
4700946,1469897374670,,,,21,,,0.02,0.09,0.98,-3.0,-0.0,-0.2,580,0,0.0,0,39.539631,-122.331482,0.0,0.586,315.8,11,3,1.4,0,0.0,-1,0.0,,0.0,0
4700966,1469897374690,,,,,,,0.02,0.09,0.98,-3.1,-0.1,-0.2,600,0,,,,,,,,,,,,,,,,,
4700986,1469897374710,,,,,,,0.02,0.09,0.98,-3.1,-0.0,-0.1,620,0,,,,,,,,,,,,,,,,,
4701006,1469897374730,,,,,,,0.01,0.08,0.98,-3.0,-0.1,-0.2,620,0,,,,,,,,,,,,,,,,,
4701026,1469897374750,,,,,,,0.02,0.09,0.98,-3.0,-0.1,-0.1,620,0,,,,,,,,,,,,,,,,,
4701046,1469897374770,0,141.4,154.1,23,146.4,13.75,0.02,0.08,0.98,-3.0,-0.1,-0.1,620,0,0.0,0,39.539631,-122.331482,0.0,0.586,315.8,11,3,1.4,0,0.0,-1,0.0,0.0,0.0,0
4701066,1469897374791,,,,,,,0.02,0.08,0.98,-3.0,0.0,-0.1,620,0,,,,,,,,,,,,,,,,,
4701086,1469897374811,,,,,,,0.02,0.09,0.98,-3.0,0.1,-0.0,620,0,,,,,,,,,,,,,,,,,
4701106,1469897374831,,,,,,,0.02,0.1,0.98,-3.0,0.0,-0.1,660,0,,,,,,,,,,,,,,,,,
4701126,1469897374851,,,,,,,0.02,0.09,0.98,-3.1,0.1,-0.1,660,0,,,,,,,,,,,,,,,,,
4701146,1469897374871,,,,25,,,0.02,0.1,0.99,-3.1,0.0,-0.1,660,0,0.0,0,39.539631,-122.331482,0.0,0.586,315.8,11,3,1.4,0,0.0,-1,0.0,,0.0,0
4701166,1469897374891,,,,,,,0.02,0.09,0.97,-3.0,-0.1,-0.2,680,0,,,,,,,,,,,,,,,,,
4701186,1469897374904,,,,,,,0.02,0.09,0.97,-3.0,-0.1,-0.2,680,0,,,,,,,,,,,,,,,,,
4701206,1469897374924,,,,,,,0.02,0.09,0.97,-3.0,-0.0,-0.1,700,0,,,,,,,,,,,,,,,,,
4701226,1469897374944,,,,,,,0.03,0.11,0.98,-3.0,-0.0,-0.2,700,0,,,,,,,,,,,,,,,,,
4701246,1469897374964,0,141.7,153.0,26,145.3,,0.02,0.1,0.98,-3.0,-0.1,-0.3,700,0,0.0,0,39.539631,-122.331482,0.0,0.586,315.8,11,3,1.4,0,0.0,-1,0.0,0.0,0.0,0
4701266,1469897374984,,,,,,,0.02,0.1,0.98,-3.1,-0.1,-0.2,700,0,,,,,,,,,,,,,,,,,
4701286,1469897375109,,,,,,,0.02,0.11,0.97,-3.2,-0.2,-0.1,720,0,,,,,,,,,,,,,,,,,
4701306,1469897375129,,,,,,,0.02,0.1,0.97,-3.1,-0.2,-0.3,720,0,,,,,,,,,,,,,,,,,
4701326,1469897375149,,,,,,,0.02,0.11,0.97,-3.0,-0.1,-0.3,720,0,,,,,,,,,,,,,,,,,
4701346,1469897375169,,,,29,,,0.02,0.11,0.98,-3.1,-0.1,-0.1,740,0,0.0,0,39.539631,-122.331482,0.0,0.586,315.8,11,3,1.4,0,0.0,-1,0.0,,0.0,0
4701366,1469897375189,,,,,,,0.02,0.12,0.97,-3.1,-0.2,-0.1,760,0,,,,,,,,,,,,,,,,,
4701386,1469897375209,,,,,,,0.02,0.11,0.98,-3.1,-0.1,-0.2,760,0,,,,,,,,,,,,,,,,,
4701406,1469897375229,,,,,,,0.01,0.11,0.97,-3.1,-0.2,-0.3,760,0,,,,,,,,,,,,,,,,,
4701426,1469897375249,,,,,,,0.01,0.1,0.97,-3.1,-0.2,-0.1,760,0,,,,,,,,,,,,,,,,,
4701446,1469897375269,0,141.3,153.0,31,145.5,,0.02,0.11,0.97,-3.1,-0.3,-0.1,760,0,0.0,0,39.539631,-122.331482,0.0,0.586,315.8,11,3,1.4,0,0.0,-1,0.0,0.0,0.0,0
4701466,1469897375289,,,,,,,0.02,0.11,0.98,-3.1,-0.3,-0.2,780,0,,,,,,,,,,,,,,,,,
4701486,1469897375210,,,,,,,0.01,0.1,0.98,-3.0,-0.3,-0.2,780,0,,,,,,,,,,,,,,,,,
4701506,1469897375230,,,,,,,0.01,0.1,0.98,-3.1,-0.1,-0.2,780,0,,,,,,,,,,,,,,,,,
4701526,1469897375250,,,,,,,0.01,0.11,0.98,-3.1,-0.1,-0.1,800,0,,,,,,,,,,,,,,,,,
4701546,1469897375270,,,,32,,,0.01,0.11,0.98,-3.2,-0.2,-0.1,780,0,0.0,0,39.539631,-122.331482,0.0,0.586,315.8,11,3,1.4,0,0.0,-1,0.0,,0.0,0
4701566,1469897375290,,,,,,,0.01,0.11,0.98,-3.1,-0.3,-0.2,800,0,,,,,,,,,,,,,,,,,
4701586,1469897375310,,,,,,,0.01,0.1,0.99,-3.0,-0.2,-0.3,800,0,,,,,,,,,,,,,,,,,
4701606,1469897375330,,,,,,,0.01,0.09,0.98,-3.0,-0.1,-0.3,800,0,,,,,,,,,,,,,,,,,
4701626,1469897375350,,,,,,,0.01,0.09,0.98,-3.1,-0.1,-0.2,800,0,,,,,,,,,,,,,,,,,
4701646,1469897375370,0,141.9,153.0,31,145.2,,0.01,0.09,0.99,-3.1,-0.0,-0.1,820,0,0.0,0,39.539631,-122.331482,0.0,0.586,315.8,11,3,1.4,0,0.0,-1,0.0,0.0,0.0,0
4701666,1469897375391,,,,,,,0.02,0.1,0.99,-3.1,-0.1,-0.1,820,0,,,,,,,,,,,,,,,,,
4701686,1469897375411,,,,,,,0.01,0.1,0.99,-3.0,-0.3,-0.2,820,0,,,,,,,,,,,,,,,,,
4701706,1469897375431,,,,,,,0.01,0.1,0.98,-3.0,-0.0,-0.2,820,0,,,,,,,,,,,,,,,,,
4701726,1469897375451,,,,,,,0.02,0.09,0.99,-3.0,-0.2,-0.2,820,0,,,,,,,,,,,,,,,,,
4701746,1469897375471,,,,33,,,0.02,0.1,0.98,-3.1,0.0,-0.1,800,0,0.0,0,39.539631,-122.331482,0.0,0.586,315.8,11,3,1.4,0,0.0,-1,0.0,,0.0,0
4701766,1469897375491,,,,,,,0.02,0.1,0.98,-3.1,-0.0,-0.1,820,0,,,,,,,,,,,,,,,,,
4701786,1469897375510,,,,,,,0.02,0.09,0.99,-3.1,0.0,-0.1,820,0,,,,,,,,,,,,,,,,,
4701806,1469897375530,,,,,,,0.01,0.1,0.98,-3.0,-0.1,-0.2,820,0,,,,,,,,,,,,,,,,,
4701826,1469897375550,,,,,,,0.02,0.1,0.99,-3.0,0.1,-0.3,800,0,,,,,,,,,,,,,,,,,
4701846,1469897375570,0,141.4,153.9,33,146.0,,0.02,0.1,0.98,-3.0,-0.0,-0.2,800,0,0.0,0,39.539631,-122.331482,0.0,0.586,315.8,11,3,1.4,0,0.0,-1,0.0,0.0,0.0,0
4701866,1469897375590,,,,,,,0.02,0.1,0.98,-3.0,0.2,-0.1,800,0,,,,,,,,,,,,,,,,,
4701886,1469897375608,,,,,,,0.01,0.1,0.98,-3.0,0.0,-0.1,800,0,,,,,,,,,,,,,,,,,
4701906,1469897375628,,,,,,,0.01,0.09,0.99,-3.0,0.0,-0.2,800,0,,,,,,,,,,,,,,,,,
4701926,1469897375648,,,,,,,0.01,0.09,0.99,-3.0,0.0,-0.2,800,0,,,,,,,,,,,,,,,,,
4701946,1469897375668,,,,34,,,0.02,0.09,0.98,-3.0,0.0,-0.2,800,0,0.0,0,39.539631,-122.331482,0.0,0.586,315.8,11,3,1.4,0,0.0,-1,0.0,,0.0,0
4701966,1469897375688,,,,,,,0.02,0.09,0.98,-3.0,0.1,-0.1,800,0,,,,,,,,,,,,,,,,,
4701986,1469897375710,,,,,,,0.02,0.1,0.99,-3.0,0.2,-0.1,800,0,,,,,,,,,,,,,,,,,
4702006,1469897375730,,,,,,,0.01,0.09,0.99,-3.0,0.0,-0.1,800,0,,,,,,,,,,,,,,,,,
4702026,1469897375750,,,,,,,0.01,0.09,0.99,-2.9,0.1,-0.2,800,0,,,,,,,,,,,,,,,,,
4702046,1469897375770,0,141.8,154.4,32,145.1,14.06,0.01,0.09,0.99,-2.9,-0.1,-0.2,800,0,0.0,0,39.539631,-122.331482,0.0,0.586,315.8,11,3,1.4,0,0.0,-1,0.0,0.0,0.0,0
4702066,1469897375791,,,,,,,0.01,0.09,0.99,-3.0,-0.1,-0.1,800,0,,,,,,,,,,,,,,,,,
4702086,1469897375910,,,,,,,0.02,0.1,0.99,-3.0,0.0,-0.1,800,0,,,,,,,,,,,,,,,,,
4702106,1469897375930,,,,,,,0.02,0.1,0.99,-3.0,-0.1,-0.2,800,0,,,,,,,,,,,,,,,,,
4702126,1469897375950,,,,,,,0.01,0.09,0.99,-3.0,-0.1,-0.2,780,0,,,,,,,,,,,,,,,,,
4702146,1469897375970,,,,32,,,0.01,0.09,0.99,-2.9,-0.1,-0.2,780,0,0.0,0,39.539631,-122.331482,0.0,0.586,315.8,11,3,1.4,0,0.0,-1,0.0,,0.0,0
4702166,1469897375990,,,,,,,0.01,0.1,0.99,-3.0,-0.2,-0.1,760,0,,,,,,,,,,,,,,,,,
4702186,1469897376010,,,,,,,0.02,0.1,0.99,-3.0,-0.3,-0.1,780,0,,,,,,,,,,,,,,,,,
4702206,1469897376030,,,,,,,0.02,0.1,0.99,-2.9,-0.2,-0.2,780,0,,,,,,,,,,,,,,,,,
4702226,1469897376050,,,,,,,0.02,0.09,0.99,-2.9,-0.1,-0.2,780,0,,,,,,,,,,,,,,,,,
4702246,1469897376070,0,141.7,154.4,31,145.2,,0.01,0.09,0.99,-2.9,-0.1,-0.2,780,0,0.0,0,39.539631,-122.331482,0.0,0.586,315.8,11,3,1.4,0,0.0,-1,0.0,0.0,0.0,0
4702266,1469897376090,,,,,,,0.02,0.1,0.98,-2.9,-0.2,-0.1,780,0,,,,,,,,,,,,,,,,,
4702286,1469897376003,,,,,,,0.01,0.1,0.98,-2.9,-0.1,-0.1,780,0,,,,,,,,,,,,,,,,,
4702306,1469897376023,,,,,,,0.01,0.09,0.98,-2.9,-0.3,-0.2,760,0,,,,,,,,,,,,,,,,,
4702326,1469897376043,,,,,,,0.01,0.09,0.98,-2.9,-0.1,-0.2,760,0,,,,,,,,,,,,,,,,,
4702346,1469897376063,,,,30,,,0.02,0.09,0.98,-2.9,-0.0,-0.1,760,0,0.0,0,39.539631,-122.331482,0.0,0.586,315.8,11,3,1.4,0,0.0,-1,0.0,,0.0,0
4702366,1469897376083,,,,,,,0.01,0.1,0.98,-3.0,-0.0,-0.1,760,0,,,,,,,,,,,,,,,,,
4702386,1469897376110,,,,,,,0.02,0.1,0.98,-3.0,-0.2,-0.2,760,0,,,,,,,,,,,,,,,,,
4702406,1469897376130,,,,,,,0.01,0.09,0.98,-3.0,-0.1,-0.2,760,0,,,,,,,,,,,,,,,,,
4702426,1469897376150,,,,,,,0.02,0.1,0.98,-2.9,-0.0,-0.2,760,0,,,,,,,,,,,,,,,,,
4702446,1469897376170,0,140.7,153.4,31,145.8,,0.02,0.1,0.98,-3.0,-0.0,-0.1,760,0,0.0,0,39.539631,-122.331482,0.0,0.586,315.8,11,3,1.4,0,0.0,-1,0.0,0.0,0.0,0
4702466,1469897376190,,,,,,,0.02,0.09,0.99,-2.9,0.0,-0.2,740,0,,,,,,,,,,,,,,,,,
4702486,1469897376210,,,,,,,0.01,0.09,0.98,-2.9,-0.0,-0.2,740,0,,,,,,,,,,,,,,,,,
4702506,1469897376230,,,,,,,0.01,0.09,0.98,-3.0,-0.0,-0.2,740,0,,,,,,,,,,,,,,,,,
4702526,1469897376250,,,,,,,0.02,0.1,0.98,-3.0,-0.1,-0.1,740,0,,,,,,,,,,,,,,,,,
4702546,1469897376270,,,,30,,,0.02,0.09,0.99,-3.0,0.0,-0.1,760,0,0.0,0,39.539631,-122.331482,0.0,0.586,315.8,11,3,1.4,0,0.0,-1,0.0,,0.0,0
4702566,1469897376290,,,,,,,0.01,0.09,0.98,-2.9,-0.0,-0.2,740,0,,,,,,,,,,,,,,,,,
4702586,1469897376310,,,,,,,0.02,0.09,0.99,-3.0,0.2,-0.2,740,0,,,,,,,,,,,,,,,,,
4702606,1469897376330,,,,,,,0.02,0.1,0.99,-3.0,0.1,-0.1,740,0,,,,,,,,,,,,,,,,,
4702626,1469897376350,,,,,,,0.02,0.1,0.99,-3.0,0.1,-0.2,740,0,,,,,,,,,,,,,,,,,
4702646,1469897376370,0,140.4,153.4,30,146.7,,0.02,0.09,0.98,-2.9,0.0,-0.3,740,0,0.0,0,39.539631,-122.331482,0.0,0.586,315.8,11,3,1.4,0,0.0,-1,0.0,0.0,0.0,0
4702666,1469897376390,,,,,,,0.02,0.1,0.98,-3.0,0.2,-0.2,740,0,,,,,,,,,,,,,,,,,
4702686,1469897376410,,,,,,,0.02,0.1,0.98,-3.0,0.2,-0.1,740,0,,,,,,,,,,,,,,,,,
4702706,1469897376430,,,,,,,0.02,0.09,0.99,-3.0,0.2,-0.2,740,0,,,,,,,,,,,,,,,,,
4702726,1469897376450,,,,,,,0.01,0.08,0.99,-2.9,0.1,-0.2,740,0,,,,,,,,,,,,,,,,,
4702746,1469897376470,,,,31,,,0.01,0.09,0.99,-2.9,0.2,-0.2,740,0,0.0,0,39.539631,-122.331482,0.0,0.586,315.8,11,3,1.4,0,0.0,-1,0.0,,0.0,0
4702766,1469897376491,,,,,,,0.02,0.09,0.99,-2.9,0.2,-0.1,740,0,,,,,,,,,,,,,,,,,
4702786,1469897376511,,,,,,,0.02,0.09,0.99,-2.9,0.1,-0.1,720,0,,,,,,,,,,,,,,,,,
4702806,1469897376531,,,,,,,0.02,0.08,0.99,-2.9,0.1,-0.2,740,0,,,,,,,,,,,,,,,,,
4702826,1469897376551,,,,,,,0.02,0.08,0.99,-3.0,0.3,-0.2,740,0,,,,,,,,,,,,,,,,,
4702846,1469897376571,0,141.2,153.9,29,145.4,,0.02,0.09,0.99,-3.0,0.3,-0.1,740,0,0.0,0,39.539631,-122.331482,0.0,0.586,315.8,11,3,1.4,0,0.0,-1,0.0,0.0,0.0,0
4702866,1469897376591,,,,,,,0.02,0.08,0.99,-2.9,0.2,-0.2,740,0,,,,,,,,,,,,,,,,,
4702886,1469897376710,,,,,,,0.01,0.08,0.99,-2.9,0.1,-0.2,740,0,,,,,,,,,,,,,,,,,
4702906,1469897376730,,,,,,,0.02,0.09,0.99,-3.0,0.3,-0.2,740,0,,,,,,,,,,,,,,,,,
4702926,1469897376750,,,,,,,0.03,0.1,0.98,-3.0,0.2,-0.1,740,0,,,,,,,,,,,,,,,,,
4702946,1469897376770,,,,29,,,0.03,0.09,0.99,-2.9,0.2,-0.2,720,0,0.0,0,39.539631,-122.331482,0.0,0.586,315.8,11,3,1.4,0,0.0,-1,0.0,,0.0,0
4702966,1469897376790,,,,,,,0.02,0.09,0.99,-2.9,0.2,-0.2,740,0,,,,,,,,,,,,,,,,,
4702986,1469897376810,,,,,,,0.02,0.09,0.98,-2.9,0.1,-0.2,740,0,,,,,,,,,,,,,,,,,
4703006,1469897376830,,,,,,,0.03,0.09,0.98,-2.9,0.2,-0.1,740,0,,,,,,,,,,,,,,,,,
4703026,1469897376850,,,,,,,0.03,0.09,0.98,-2.9,0.1,-0.2,740,0,,,,,,,,,,,,,,,,,
4703046,1469897376870,1,140.5,153.7,30,146.7,14.11,0.03,0.08,0.99,-2.9,0.1,-0.2,740,0,0.0,0,39.539631,-122.331482,0.0,0.586,315.8,11,3,1.4,0,0.0,-1,0.0,0.0,0.0,0
4703066,1469897376890,,,,,,,0.03,0.08,0.98,-3.0,0.2,-0.1,740,0,,,,,,,,,,,,,,,,,
4703086,1469897376810,,,,,,,0.03,0.09,0.98,-3.0,0.2,-0.1,720,0,,,,,,,,,,,,,,,,,
4703106,1469897376830,,,,,,,0.03,0.09,0.98,-2.9,0.1,-0.2,720,0,,,,,,,,,,,,,,,,,
4703126,1469897376850,,,,,,,0.02,0.08,0.98,-2.9,0.0,-0.2,720,0,,,,,,,,,,,,,,,,,
4703146,1469897376870,,,,29,,,0.02,0.09,0.98,-3.0,0.1,-0.1,720,0,0.0,0,39.539631,-122.331482,0.0,0.586,315.8,11,3,1.4,0,0.0,-1,0.0,,0.0,0
4703166,1469897376890,,,,,,,0.02,0.09,0.98,-3.0,-0.0,-0.1,720,0,,,,,,,,,,,,,,,,,
4703186,1469897376904,,,,,,,0.03,0.09,0.98,-3.0,-0.0,-0.1,740,0,,,,,,,,,,,,,,,,,
4703206,1469897376924,,,,,,,0.02,0.09,0.98,-3.0,0.0,-0.1,740,0,,,,,,,,,,,,,,,,,
4703226,1469897376944,,,,,,,0.03,0.09,0.98,-3.0,0.0,-0.0,720,0,,,,,,,,,,,,,,,,,
4703246,1469897376964,0,139.8,153.0,30,146.4,,0.03,0.09,0.98,-3.0,0.0,-0.0,720,0,0.0,0,39.539631,-122.331482,0.0,0.586,315.8,11,3,1.4,0,0.0,-1,0.0,0.0,0.0,0
4703266,1469897376991,,,,,,,0.02,0.09,0.98,-2.9,-0.1,-0.1,720,0,,,,,,,,,,,,,,,,,
4703286,1469897377011,,,,,,,0.02,0.09,0.98,-3.0,0.0,-0.1,720,0,,,,,,,,,,,,,,,,,
4703306,1469897377031,,,,,,,0.03,0.1,0.98,-3.0,-0.0,-0.0,720,0,,,,,,,,,,,,,,,,,
4703326,1469897377051,,,,,,,0.03,0.09,0.98,-3.0,0.1,-0.2,720,0,,,,,,,,,,,,,,,,,
4703346,1469897377071,,,,29,,,0.02,0.09,0.98,-2.9,0.1,-0.3,740,0,0.0,0,39.539631,-122.331482,0.0,0.586,315.8,11,3,1.4,0,0.0,-1,0.0,,0.0,0
4703366,1469897377091,,,,,,,0.03,0.1,0.98,-2.9,0.2,-0.1,740,0,,,,,,,,,,,,,,,,,
4703386,1469897377111,,,,,,,0.03,0.11,0.98,-2.9,0.1,-0.1,740,0,,,,,,,,,,,,,,,,,
4703406,1469897377131,,,,,,,0.03,0.1,0.99,-2.9,0.2,-0.2,720,0,,,,,,,,,,,,,,,,,
4703426,1469897377151,,,,,,,0.02,0.09,0.99,-2.9,0.2,-0.2,720,0,,,,,,,,,,,,,,,,,
4703446,1469897377171,0,140.5,153.6,29,146.5,,0.03,0.1,0.99,-3.0,0.3,-0.1,720,0,0.0,0,39.539631,-122.331482,0.0,0.586,315.8,11,3,1.4,0,0.0,-1,0.0,0.0,0.0,0
4703466,1469897377191,,,,,,,0.03,0.1,0.98,-3.0,0.1,-0.1,720,0,,,,,,,,,,,,,,,,,
4703486,1469897377211,,,,,,,0.03,0.1,0.99,-3.0,0.1,-0.2,720,0,,,,,,,,,,,,,,,,,
4703506,1469897377231,,,,,,,0.02,0.11,0.98,-3.0,0.1,-0.2,720,0,,,,,,,,,,,,,,,,,
4703526,1469897377251,,,,,,,0.03,0.11,0.98,-3.1,0.1,-0.1,740,0,,,,,,,,,,,,,,,,,
4703546,1469897377271,,,,31,,,0.03,0.11,0.98,-3.1,0.2,-0.1,740,0,0.0,0,39.539631,-122.331482,0.0,0.586,315.8,11,3,1.4,0,0.0,-1,0.0,,0.0,0
4703566,1469897377291,,,,,,,0.02,0.11,0.98,-3.0,0.1,-0.2,740,0,,,,,,,,,,,,,,,,,
4703586,1469897377311,,,,,,,0.03,0.1,0.98,-3.1,0.3,-0.2,740,0,,,,,,,,,,,,,,,,,
4703606,1469897377331,,,,,,,0.03,0.1,0.98,-3.1,0.2,-0.0,740,0,,,,,,,,,,,,,,,,,
4703626,1469897377351,,,,,,,0.03,0.11,0.99,-3.1,0.2,-0.1,740,0,,,,,,,,,,,,,,,,,
4703646,1469897377371,0,140.1,153.4,29,147.0,,0.02,0.1,0.98,-3.0,-0.0,-0.1,740,0,0.0,0,39.539631,-122.331482,0.0,0.586,315.8,11,3,1.4,0,0.0,-1,0.0,0.0,0.0,0
4703666,1469897377391,,,,,,,0.03,0.09,0.99,-3.0,0.1,-0.1,740,0,,,,,,,,,,,,,,,,,
4703686,1469897377507,,,,,,,0.02,0.09,0.98,-3.1,0.2,-0.1,760,0,,,,,,,,,,,,,,,,,
4703706,1469897377527,,,,,,,0.03,0.1,0.98,-3.0,0.1,-0.1,760,0,,,,,,,,,,,,,,,,,
4703726,1469897377547,,,,,,,0.02,0.09,0.98,-3.0,0.1,-0.1,740,0,,,,,,,,,,,,,,,,,
4703746,1469897377567,,,,30,,,0.02,0.09,0.98,-3.0,0.1,-0.1,740,0,0.0,0,39.539631,-122.331482,0.0,0.586,315.8,11,3,1.4,0,0.0,-1,0.0,,0.0,0
4703766,1469897377587,,,,,,,0.02,0.09,0.98,-3.1,0.1,-0.0,740,0,,,,,,,,,,,,,,,,,
4703786,1469897377607,,,,,,,0.03,0.1,0.98,-3.1,0.0,-0.1,740,0,,,,,,,,,,,,,,,,,
4703806,1469897377627,,,,,,,0.03,0.1,0.98,-3.0,0.1,-0.2,740,0,,,,,,,,,,,,,,,,,
4703826,1469897377647,,,,,,,0.02,0.09,0.98,-3.0,0.2,-0.2,740,0,,,,,,,,,,,,,,,,,
4703846,1469897377667,0,140.2,153.3,30,145.8,,0.02,0.1,0.98,-3.1,0.2,-0.1,760,0,0.0,0,39.539631,-122.331482,0.0,0.586,315.8,11,3,1.4,0,0.0,-1,0.0,0.0,0.0,0
4703866,1469897377591,,,,,,,0.02,0.1,0.98,-3.1,0.2,-0.1,760,0,,,,,,,,,,,,,,,,,
4703886,1469897377611,,,,,,,0.02,0.11,0.98,-3.0,0.1,-0.2,740,0,,,,,,,,,,,,,,,,,
4703906,1469897377631,,,,,,,0.02,0.1,0.98,-3.0,0.2,-0.2,740,0,,,,,,,,,,,,,,,,,
4703926,1469897377651,,,,,,,0.02,0.11,0.98,-3.1,0.1,-0.1,740,0,,,,,,,,,,,,,,,,,
4703946,1469897377671,,,,31,,,0.03,0.11,0.98,-3.1,0.2,-0.1,740,0,0.0,0,39.539631,-122.331482,0.0,0.586,315.8,11,3,1.4,0,0.0,-1,0.0,,0.0,0
4703966,1469897377691,,,,,,,0.02,0.11,0.98,-3.0,0.0,-0.2,740,0,,,,,,,,,,,,,,,,,
4703986,1469897377710,,,,,,,0.02,0.11,0.98,-3.0,0.2,-0.2,740,0,,,,,,,,,,,,,,,,,
4704006,1469897377730,,,,,,,0.02,0.11,0.98,-3.1,0.1,-0.1,740,0,,,,,,,,,,,,,,,,,
4704026,1469897377750,,,,,,,0.02,0.11,0.98,-3.1,0.1,-0.1,740,0,,,,,,,,,,,,,,,,,
4704046,1469897377770,0,139.3,152.8,30,145.6,14.22,0.02,0.11,0.98,-3.1,0.1,-0.2,740,0,0.0,0,39.539631,-122.331482,0.0,0.586,315.8,11,3,1.4,0,0.0,-1,0.0,0.0,0.0,0
4704066,1469897377791,,,,,,,0.01,0.1,0.98,-3.1,0.1,-0.2,740,0,,,,,,,,,,,,,,,,,
4704086,1469897377811,,,,,,,0.02,0.11,0.98,-3.0,0.2,-0.1,740,0,,,,,,,,,,,,,,,,,
4704106,1469897377831,,,,,,,0.03,0.11,0.98,-3.1,0.2,-0.1,740,0,,,,,,,,,,,,,,,,,
4704126,1469897377851,,,,,,,0.03,0.11,0.98,-3.0,0.2,-0.2,740,0,,,,,,,,,,,,,,,,,
4704146,1469897377871,,,,29,,,0.02,0.1,0.98,-3.0,0.2,-0.2,760,0,0.0,0,39.539631,-122.331482,0.0,0.586,315.8,11,3,1.4,0,0.0,-1,0.0,,0.0,0
4704166,1469897377891,,,,,,,0.02,0.11,0.98,-3.0,0.1,-0.1,760,0,,,,,,,,,,,,,,,,,
4704186,1469897377905,,,,,,,0.03,0.11,0.98,-3.0,0.2,-0.1,740,0,,,,,,,,,,,,,,,,,
4704206,1469897377925,,,,,,,0.02,0.1,0.98,-3.0,0.2,-0.1,740,0,,,,,,,,,,,,,,,,,
4704226,1469897377945,,,,,,,0.02,0.09,0.98,-3.0,0.2,-0.2,740,0,,,,,,,,,,,,,,,,,
4704246,1469897377965,0,140.8,154.1,31,147.0,,0.02,0.1,0.97,-3.0,0.1,-0.1,740,0,0.0,0,39.539631,-122.331482,0.0,0.586,315.8,11,3,1.4,0,0.0,-1,0.0,0.0,0.0,0
4704266,1469897377991,,,,,,,0.03,0.1,0.98,-3.0,0.2,-0.1,740,0,,,,,,,,,,,,,,,,,
4704286,1469897378011,,,,,,,0.02,0.1,0.98,-3.0,0.1,-0.2,740,0,,,,,,,,,,,,,,,,,
4704306,1469897378031,,,,,,,0.02,0.1,0.98,-3.0,0.2,-0.2,740,0,,,,,,,,,,,,,,,,,
4704326,1469897378051,,,,,,,0.02,0.1,0.98,-3.0,0.1,-0.1,740,0,,,,,,,,,,,,,,,,,
4704346,1469897378071,,,,30,,,0.03,0.11,0.98,-3.0,0.1,-0.1,740,0,0.0,0,39.539631,-122.331482,0.0,0.586,315.8,11,3,1.4,0,0.0,-1,0.0,,0.0,0
4704366,1469897378091,,,,,,,0.02,0.1,0.98,-3.0,0.0,-0.2,740,0,,,,,,,,,,,,,,,,,
4704386,1469897378109,,,,,,,0.02,0.09,0.98,-3.0,-0.0,-0.2,740,0,,,,,,,,,,,,,,,,,
4704406,1469897378129,,,,,,,0.02,0.1,0.98,-3.0,0.0,-0.1,740,0,,,,,,,,,,,,,,,,,
4704426,1469897378149,,,,,,,0.03,0.11,0.98,-3.0,0.0,-0.1,740,0,,,,,,,,,,,,,,,,,
4704446,1469897378169,0,139.4,152.9,30,145.8,,0.02,0.1,0.98,-3.0,0.1,-0.2,740,0,0.0,0,39.539631,-122.331482,0.0,0.586,315.8,11,3,1.4,0,0.0,-1,0.0,0.0,0.0,0
4704466,1469897378291,,,,,,,0.02,0.1,0.98,-3.0,0.0,-0.2,740,0,,,,,,,,,,,,,,,,,
4704486,1469897378311,,,,,,,0.02,0.1,0.98,-3.1,-0.0,-0.1,740,0,,,,,,,,,,,,,,,,,
4704506,1469897378331,,,,,,,0.03,0.11,0.98,-3.0,-0.1,-0.1,740,0,,,,,,,,,,,,,,,,,
4704526,1469897378351,,,,,,,0.03,0.11,0.98,-3.0,0.1,-0.2,740,0,,,,,,,,,,,,,,,,,
4704546,1469897378371,,,,29,,,0.02,0.1,0.98,-3.0,0.0,-0.3,740,0,0.0,0,39.539631,-122.331482,0.0,0.586,315.8,11,3,1.4,0,0.0,-1,0.0,,0.0,0
4704566,1469897378391,,,,,,,0.02,0.1,0.98,-3.0,0.0,-0.2,740,0,,,,,,,,,,,,,,,,,
4704586,1469897378411,,,,,,,0.03,0.11,0.97,-3.0,-0.0,-0.2,740,0,,,,,,,,,,,,,,,,,
4704606,1469897378431,,,,,,,0.02,0.1,0.98,-3.0,0.2,-0.2,740,0,,,,,,,,,,,,,,,,,
4704626,1469897378451,,,,,,,0.01,0.1,0.97,-3.0,0.1,-0.3,760,0,,,,,,,,,,,,,,,,,
4704646,1469897378471,0,139.4,152.8,30,145.8,,0.01,0.1,0.98,-3.0,0.1,-0.2,760,0,0.0,0,39.539631,-122.331482,0.0,0.586,315.8,11,3,1.4,0,0.0,-1,0.0,0.0,0.0,0
4704666,1469897378391,,,,,,,0.02,0.1,0.98,-3.0,0.1,-0.1,740,0,,,,,,,,,,,,,,,,,
4704686,1469897378411,,,,,,,0.02,0.1,0.98,-3.0,0.1,-0.2,740,0,,,,,,,,,,,,,,,,,
4704706,1469897378431,,,,,,,0.01,0.09,0.98,-3.0,0.1,-0.3,740,0,,,,,,,,,,,,,,,,,
4704726,1469897378451,,,,,,,0.02,0.1,0.98,-3.0,0.2,-0.2,740,0,,,,,,,,,,,,,,,,,
4704746,1469897378471,,,,32,,,0.02,0.1,0.98,-3.0,0.1,-0.1,740,0,0.0,0,39.539631,-122.331482,0.0,0.586,315.8,11,3,1.4,0,0.0,-1,0.0,,0.0,0
4704766,1469897378491,,,,,,,0.02,0.1,0.99,-3.0,0.1,-0.2,740,0,,,,,,,,,,,,,,,,,
4704786,1469897378511,,,,,,,0.02,0.1,0.98,-3.0,0.1,-0.3,760,0,,,,,,,,,,,,,,,,,
4704806,1469897378531,,,,,,,0.03,0.1,0.98,-3.0,0.1,-0.2,760,0,,,,,,,,,,,,,,,,,
4704826,1469897378551,,,,,,,0.03,0.1,0.98,-3.0,0.2,-0.1,740,0,,,,,,,,,,,,,,,,,
4704846,1469897378571,0,140.4,153.9,31,147.0,,0.02,0.1,0.98,-3.0,0.1,-0.2,740,0,0.0,0,39.539631,-122.331482,0.0,0.586,315.8,11,3,1.4,0,0.0,-1,0.0,0.0,0.0,0
4704866,1469897378591,,,,,,,0.02,0.09,0.98,-2.9,0.1,-0.2,740,0,,,,,,,,,,,,,,,,,
4704886,1469897378610,,,,,,,0.02,0.1,0.98,-2.9,0.1,-0.2,740,0,,,,,,,,,,,,,,,,,
4704906,1469897378630,,,,,,,0.03,0.1,0.98,-3.0,0.2,-0.1,740,0,,,,,,,,,,,,,,,,,
4704926,1469897378650,,,,,,,0.02,0.09,0.99,-2.9,0.1,-0.2,760,0,,,,,,,,,,,,,,,,,
4704946,1469897378670,,,,30,,,0.02,0.09,0.99,-2.9,0.2,-0.3,740,0,0.0,0,39.539631,-122.331482,0.0,0.586,315.8,11,3,1.4,0,0.0,-1,0.0,,0.0,0
4704966,1469897378690,,,,,,,0.02,0.1,0.99,-2.9,0.0,-0.2,740,0,,,,,,,,,,,,,,,,,
4704986,1469897378710,,,,,,,0.02,0.1,0.99,-2.9,0.2,-0.1,740,0,,,,,,,,,,,,,,,,,
4705006,1469897378730,,,,,,,0.02,0.09,0.99,-2.9,0.1,-0.2,740,0,,,,,,,,,,,,,,,,,
4705026,1469897378750,,,,,,,0.01,0.09,0.99,-2.9,0.1,-0.2,740,0,,,,,,,,,,,,,,,,,
4705046,1469897378770,0,140.7,154.0,30,147.1,14.21,0.02,0.09,0.98,-2.9,0.2,-0.2,740,0,0.0,0,39.539631,-122.331482,0.0,0.586,315.8,11,3,1.4,0,0.0,-1,0.0,0.0,0.0,0
4705066,1469897378791,,,,,,,0.02,0.1,0.98,-2.9,0.2,-0.1,740,0,,,,,,,,,,,,,,,,,
4705086,1469897378811,,,,,,,0.02,0.09,0.99,-2.9,0.2,-0.2,740,0,,,,,,,,,,,,,,,,,
4705106,1469897378831,,,,,,,0.01,0.09,0.99,-2.9,0.3,-0.2,760,0,,,,,,,,,,,,,,,,,
4705126,1469897378851,,,,,,,0.02,0.09,0.99,-2.9,0.3,-0.1,760,0,,,,,,,,,,,,,,,,,
4705146,1469897378871,,,,30,,,0.02,0.09,0.99,-2.9,0.2,-0.0,740,0,0.0,0,39.539631,-122.331482,0.0,0.586,315.8,11,3,1.4,0,0.0,-1,0.0,,0.0,0
4705166,1469897378891,,,,,,,0.02,0.09,0.99,-2.9,0.2,-0.1,740,0,,,,,,,,,,,,,,,,,
4705186,1469897378904,,,,,,,0.02,0.08,0.99,-2.9,-0.0,-0.2,740,0,,,,,,,,,,,,,,,,,
4705206,1469897378924,,,,,,,0.02,0.09,1.0,-2.9,0.2,-0.2,740,0,,,,,,,,,,,,,,,,,
4705226,1469897378944,,,,,,,0.02,0.1,1.0,-3.0,0.3,-0.1,740,0,,,,,,,,,,,,,,,,,
4705246,1469897378964,0,139.9,153.5,30,146.7,,0.02,0.09,1.0,-2.9,0.4,-0.1,740,0,0.0,0,39.539631,-122.331482,0.0,0.586,315.8,11,3,1.4,0,0.0,-1,0.0,0.0,0.0,0
4705266,1469897378991,,,,,,,0.01,0.09,1.0,-2.9,0.3,-0.2,760,0,,,,,,,,,,,,,,,,,
4705286,1469897379110,,,,,,,0.02,0.09,0.99,-2.9,0.5,-0.1,760,0,,,,,,,,,,,,,,,,,
4705306,1469897379130,,,,,,,0.02,0.1,0.99,-3.0,0.4,0.0,740,0,,,,,,,,,,,,,,,,,
4705326,1469897379150,,,,,,,0.02,0.1,1.0,-3.0,0.4,-0.0,740,0,,,,,,,,,,,,,,,,,
4705346,1469897379170,,,,29,,,0.02,0.09,1.0,-2.9,0.2,-0.1,740,0,0.0,0,39.539631,-122.331482,0.0,0.586,315.8,11,3,1.4,0,0.0,-1,0.0,,0.0,0
4705366,1469897379190,,,,,,,0.02,0.09,0.99,-3.0,0.3,-0.1,740,0,,,,,,,,,,,,,,,,,
4705386,1469897379210,,,,,,,0.02,0.1,0.99,-3.0,0.2,-0.0,740,0,,,,,,,,,,,,,,,,,
4705406,1469897379230,,,,,,,0.02,0.1,0.99,-3.0,0.3,-0.1,740,0,,,,,,,,,,,,,,,,,
4705426,1469897379250,,,,,,,0.01,0.09,0.99,-2.9,0.1,-0.2,760,0,,,,,,,,,,,,,,,,,
4705446,1469897379270,0,140.5,153.9,30,147.0,,0.02,0.09,0.99,-3.0,0.3,-0.2,760,0,0.0,0,39.539631,-122.331482,0.0,0.586,315.8,11,3,1.4,0,0.0,-1,0.0,0.0,0.0,0
4705466,1469897379191,,,,,,,0.01,0.1,0.99,-3.0,0.1,-0.1,760,0,,,,,,,,,,,,,,,,,
4705486,1469897379211,,,,,,,0.02,0.1,1.0,-3.0,0.1,-0.1,740,0,,,,,,,,,,,,,,,,,
4705506,1469897379231,,,,,,,0.02,0.09,0.99,-2.9,-0.1,-0.2,740,0,,,,,,,,,,,,,,,,,
4705526,1469897379251,,,,,,,0.02,0.09,0.99,-3.0,0.2,-0.2,740,0,,,,,,,,,,,,,,,,,
4705546,1469897379271,,,,30,,,0.01,0.1,0.99,-3.0,0.2,-0.1,760,0,0.0,0,39.539631,-122.331482,0.0,0.586,315.8,11,3,1.4,0,0.0,-1,0.0,,0.0,0
4705566,1469897379291,,,,,,,0.02,0.1,1.0,-3.0,0.2,-0.1,760,0,,,,,,,,,,,,,,,,,
4705586,1469897379311,,,,,,,0.01,0.1,0.99,-3.0,-0.0,-0.1,760,0,,,,,,,,,,,,,,,,,
4705606,1469897379331,,,,,,,0.02,0.09,0.99,-3.0,0.1,-0.2,760,0,,,,,,,,,,,,,,,,,
4705626,1469897379351,,,,,,,0.02,0.09,0.98,-3.0,0.1,-0.1,760,0,,,,,,,,,,,,,,,,,
4705646,1469897379371,0,139.5,153.1,30,146.3,,0.03,0.09,0.99,-3.0,0.2,-0.1,760,0,0.0,0,39.539631,-122.331482,0.0,0.586,315.8,11,3,1.4,0,0.0,-1,0.0,0.0,0.0,0
4705666,1469897379391,,,,,,,0.02,0.09,0.99,-3.0,0.0,-0.2,740,0,,,,,,,,,,,,,,,,,
4705686,1469897379411,,,,,,,0.02,0.09,0.99,-3.0,0.0,-0.2,760,0,,,,,,,,,,,,,,,,,
4705706,1469897379431,,,,,,,0.02,0.09,0.98,-3.0,-0.2,-0.1,760,0,,,,,,,,,,,,,,,,,
4705726,1469897379451,,,,,,,0.02,0.09,0.99,-3.0,0.1,-0.1,760,0,,,,,,,,,,,,,,,,,
4705746,1469897379471,,,,30,,,0.02,0.09,0.99,-3.0,0.0,-0.1,760,0,0.0,0,39.539631,-122.331482,0.0,0.586,315.8,11,3,1.4,0,0.0,-1,0.0,,0.0,0
4705766,1469897379491,,,,,,,0.01,0.09,0.99,-3.0,0.1,-0.2,760,0,,,,,,,,,,,,,,,,,
4705786,1469897379511,,,,,,,0.01,0.09,0.98,-3.0,0.1,-0.2,760,0,,,,,,,,,,,,,,,,,
4705806,1469897379531,,,,,,,0.01,0.09,0.98,-3.0,0.1,-0.1,760,0,,,,,,,,,,,,,,,,,
4705826,1469897379551,,,,,,,0.01,0.1,0.98,-3.0,0.1,-0.1,740,0,,,,,,,,,,,,,,,,,
4705846,1469897379571,0,140.4,153.9,31,147.2,,0.02,0.09,0.98,-3.0,0.0,-0.2,760,0,0.0,0,39.539631,-122.331482,0.0,0.586,315.8,11,3,1.4,0,0.0,-1,0.0,0.0,0.0,0
4705866,1469897379591,,,,,,,0.02,0.09,0.98,-3.0,0.2,-0.2,760,0,,,,,,,,,,,,,,,,,
4705886,1469897379611,,,,,,,0.02,0.1,0.98,-3.0,0.1,-0.1,760,0,,,,,,,,,,,,,,,,,
4705906,1469897379631,,,,,,,0.02,0.1,0.98,-3.0,0.1,-0.1,760,0,,,,,,,,,,,,,,,,,
4705926,1469897379651,,,,,,,0.01,0.09,0.98,-3.0,-0.1,-0.2,740,0,,,,,,,,,,,,,,,,,
4705946,1469897379671,,,,30,,,0.01,0.1,0.98,-3.0,0.0,-0.2,760,0,0.0,0,39.539631,-122.331482,0.0,0.586,315.8,11,3,1.4,0,0.0,-1,0.0,,0.0,0
4705966,1469897379691,,,,,,,0.01,0.09,0.98,-3.0,-0.1,-0.2,760,0,,,,,,,,,,,,,,,,,
4705986,1469897379711,,,,,,,0.02,0.09,0.98,-3.0,0.0,-0.1,740,0,,,,,,,,,,,,,,,,,
4706006,1469897379731,,,,,,,0.02,0.09,0.98,-3.0,-0.0,-0.2,740,0,,,,,,,,,,,,,,,,,
4706026,1469897379751,,,,,,,0.01,0.08,0.98,-2.9,0.1,-0.3,740,0,,,,,,,,,,,,,,,,,
4706046,1469897379771,0,140.2,153.7,30,147.1,14.19,0.01,0.09,0.98,-3.0,-0.0,-0.2,740,0,0.0,0,39.539631,-122.331482,0.0,0.586,315.8,11,3,1.4,0,0.0,-1,0.0,0.0,0.0,0
4706066,1469897379791,,,,,,,0.02,0.1,0.98,-3.0,-0.0,-0.1,760,0,,,,,,,,,,,,,,,,,
4706086,1469897379910,,,,,,,0.02,0.09,0.99,-3.0,-0.0,-0.2,740,0,,,,,,,,,,,,,,,,,
4706106,1469897379930,,,,,,,0.02,0.09,0.98,-3.0,-0.1,-0.2,740,0,,,,,,,,,,,,,,,,,
4706126,1469897379950,,,,,,,0.02,0.1,0.98,-3.0,-0.1,-0.2,740,0,,,,,,,,,,,,,,,,,
4706146,1469897379970,,,,29,,,0.02,0.1,0.98,-3.0,-0.1,-0.1,740,0,0.0,0,39.539631,-122.331482,0.0,0.586,315.8,11,3,1.4,0,0.0,-1,0.0,,0.0,0
4706166,1469897379990,,,,,,,0.02,0.09,0.98,-3.0,-0.0,-0.2,740,0,,,,,,,,,,,,,,,,,
4706186,1469897380010,,,,,,,0.01,0.09,0.98,-3.0,-0.2,-0.3,740,0,,,,,,,,,,,,,,,,,
4706206,1469897380030,,,,,,,0.01,0.09,0.98,-3.0,-0.2,-0.2,740,0,,,,,,,,,,,,,,,,,
4706226,1469897380050,,,,,,,0.02,0.1,0.98,-3.0,-0.1,-0.2,740,0,,,,,,,,,,,,,,,,,
4706246,1469897380070,0,140.2,153.8,31,147.1,,0.02,0.09,0.99,-3.0,-0.1,-0.2,740,0,0.0,0,39.539631,-122.331482,0.0,0.586,315.8,11,3,1.4,0,0.0,-1,0.0,0.0,0.0,0
4706266,1469897379991,,,,,,,0.02,0.09,0.99,-3.0,-0.0,-0.3,740,0,,,,,,,,,,,,,,,,,
4706286,1469897380011,,,,,,,0.02,0.09,0.98,-3.0,-0.1,-0.2,720,0,,,,,,,,,,,,,,,,,
4706306,1469897380031,,,,,,,0.02,0.09,0.99,-3.0,0.0,-0.2,720,0,,,,,,,,,,,,,,,,,
4706326,1469897380051,,,,,,,0.01,0.09,0.98,-3.0,-0.2,-0.3,740,0,,,,,,,,,,,,,,,,,
4706346,1469897380071,,,,29,,,0.01,0.09,0.98,-3.0,-0.1,-0.3,740,0,0.0,0,39.539631,-122.331482,0.0,0.586,315.8,11,3,1.4,0,0.0,-1,0.0,,0.0,0
4706366,1469897380091,,,,,,,0.01,0.1,0.98,-3.0,-0.2,-0.2,720,0,,,,,,,,,,,,,,,,,
4706386,1469897380111,,,,,,,0.02,0.1,0.98,-3.1,-0.2,-0.1,740,0,,,,,,,,,,,,,,,,,
4706406,1469897380131,,,,,,,0.02,0.09,0.98,-3.0,-0.2,-0.3,740,0,,,,,,,,,,,,,,,,,
4706426,1469897380151,,,,,,,0.01,0.09,0.98,-3.0,-0.3,-0.3,740,0,,,,,,,,,,,,,,,,,
4706446,1469897380171,0,139.4,153.1,29,146.5,,0.01,0.09,0.98,-3.0,-0.3,-0.2,720,0,0.0,0,39.539631,-122.331482,0.0,0.586,315.8,11,3,1.4,0,0.0,-1,0.0,0.0,0.0,0
4706466,1469897380191,,,,,,,0.01,0.1,0.97,-3.0,-0.4,-0.2,740,0,,,,,,,,,,,,,,,,,
4706486,1469897380211,,,,,,,0.01,0.09,0.97,-3.0,-0.3,-0.3,740,0,,,,,,,,,,,,,,,,,
4706506,1469897380231,,,,,,,0.01,0.09,0.97,-3.0,-0.2,-0.3,740,0,,,,,,,,,,,,,,,,,
4706526,1469897380251,,,,,,,0.01,0.08,0.97,-3.0,-0.1,-0.2,740,0,,,,,,,,,,,,,,,,,
4706546,1469897380271,,,,29,,,0.01,0.09,0.97,-3.0,-0.2,-0.2,760,0,0.0,0,39.539631,-122.331482,0.0,0.586,315.8,11,3,1.4,0,0.0,-1,0.0,,0.0,0
4706566,1469897380291,,,,,,,0.01,0.09,0.97,-3.0,-0.3,-0.3,740,0,,,,,,,,,,,,,,,,,
4706586,1469897380311,,,,,,,0.0,0.09,0.97,-3.0,-0.2,-0.3,740,0,,,,,,,,,,,,,,,,,
4706606,1469897380331,,,,,,,0.01,0.09,0.97,-3.0,-0.2,-0.2,720,0,,,,,,,,,,,,,,,,,
4706626,1469897380351,,,,,,,0.01,0.09,0.97,-3.0,-0.1,-0.2,740,0,,,,,,,,,,,,,,,,,
4706646,1469897380371,0,140.0,153.6,30,147.0,,0.01,0.08,0.98,-3.0,-0.2,-0.3,740,0,0.0,0,39.539631,-122.331482,0.0,0.586,315.8,11,3,1.4,0,0.0,-1,0.0,0.0,0.0,0
4706666,1469897380391,,,,,,,0.01,0.08,0.98,-3.0,-0.1,-0.3,740,0,,,,,,,,,,,,,,,,,
4706686,1469897380408,,,,,,,0.01,0.08,0.98,-3.0,-0.2,-0.1,740,0,,,,,,,,,,,,,,,,,
4706706,1469897380428,,,,,,,0.01,0.09,0.98,-3.0,-0.1,-0.2,760,0,,,,,,,,,,,,,,,,,
4706726,1469897380448,,,,,,,0.01,0.09,0.98,-3.0,-0.2,-0.3,740,0,,,,,,,,,,,,,,,,,
4706746,1469897380468,,,,31,,,0.01,0.09,0.98,-3.0,-0.0,-0.3,740,0,0.0,0,39.539631,-122.331482,0.0,0.586,315.8,11,3,1.4,0,0.0,-1,0.0,,0.0,0
4706766,1469897380491,,,,,,,0.01,0.09,0.97,-3.0,-0.1,-0.1,740,0,,,,,,,,,,,,,,,,,
4706786,1469897380511,,,,,,,0.01,0.1,0.97,-3.0,-0.1,-0.1,740,0,,,,,,,,,,,,,,,,,
4706806,1469897380531,,,,,,,0.01,0.1,0.97,-3.0,-0.0,-0.2,740,0,,,,,,,,,,,,,,,,,
4706826,1469897380551,,,,,,,0.01,0.1,0.97,-3.0,-0.1,-0.2,740,0,,,,,,,,,,,,,,,,,
4706846,1469897380571,0,139.6,153.0,28,146.2,,0.02,0.1,0.98,-3.0,0.0,-0.1,740,0,0.0,0,39.539631,-122.331482,0.0,0.586,315.8,11,3,1.4,0,0.0,-1,0.0,0.0,0.0,0
4706866,1469897380591,,,,,,,0.01,0.1,0.98,-3.0,-0.0,-0.1,760,0,,,,,,,,,,,,,,,,,
4706886,1469897380710,,,,,,,0.01,0.1,0.98,-3.0,-0.1,-0.2,740,0,,,,,,,,,,,,,,,,,
4706906,1469897380730,,,,,,,0.01,0.1,0.98,-3.0,-0.0,-0.2,740,0,,,,,,,,,,,,,,,,,
4706926,1469897380750,,,,,,,0.01,0.1,0.98,-3.0,-0.1,-0.1,720,0,,,,,,,,,,,,,,,,,
4706946,1469897380770,,,,29,,,0.02,0.1,0.98,-3.0,0.0,-0.1,720,0,0.0,0,39.539631,-122.331482,0.0,0.586,315.8,11,3,1.4,0,0.0,-1,0.0,,0.0,0
4706966,1469897380790,,,,,,,0.01,0.1,0.98,-3.0,0.0,-0.2,720,0,,,,,,,,,,,,,,,,,
4706986,1469897380810,,,,,,,0.02,0.1,0.98,-3.0,0.1,-0.2,720,0,,,,,,,,,,,,,,,,,
4707006,1469897380830,,,,,,,0.02,0.1,0.98,-3.0,0.1,-0.1,720,0,,,,,,,,,,,,,,,,,
4707026,1469897380850,,,,,,,0.02,0.1,0.98,-2.9,0.1,-0.2,740,0,,,,,,,,,,,,,,,,,
4707046,1469897380870,0,140.4,153.8,30,147.1,14.2,0.01,0.09,0.99,-2.9,0.1,-0.3,720,0,0.0,0,39.539631,-122.331482,0.0,0.586,315.8,11,3,1.4,0,0.0,-1,0.0,0.0,0.0,0
4707066,1469897380791,,,,,,,0.02,0.1,0.98,-2.9,0.1,-0.2,720,0,,,,,,,,,,,,,,,,,
4707086,1469897380811,,,,,,,0.02,0.1,0.98,-2.9,0.2,-0.1,720,0,,,,,,,,,,,,,,,,,
4707106,1469897380831,,,,,,,0.02,0.1,0.98,-2.9,0.1,-0.2,720,0,,,,,,,,,,,,,,,,,
4707126,1469897380851,,,,,,,0.02,0.09,0.98,-2.9,0.2,-0.3,720,0,,,,,,,,,,,,,,,,,
4707146,1469897380871,,,,28,,,0.02,0.1,0.98,-3.0,0.2,-0.1,720,0,0.0,0,39.539631,-122.331482,0.0,0.586,315.8,11,3,1.4,0,0.0,-1,0.0,,0.0,0
4707166,1469897380891,,,,,,,0.02,0.11,0.98,-3.0,0.2,-0.1,720,0,,,,,,,,,,,,,,,,,
4707186,1469897380904,,,,,,,0.02,0.1,0.98,-3.0,0.0,-0.2,740,0,,,,,,,,,,,,,,,,,
4707206,1469897380924,,,,,,,0.02,0.1,0.98,-3.0,0.2,-0.2,740,0,,,,,,,,,,,,,,,,,
4707226,1469897380944,,,,,,,0.02,0.1,0.98,-3.0,0.0,-0.1,720,0,,,,,,,,,,,,,,,,,
4707246,1469897380964,0,139.5,153.1,28,146.8,,0.02,0.11,0.98,-3.0,0.1,-0.1,720,0,0.0,0,39.539631,-122.331482,0.0,0.586,315.8,11,3,1.4,0,0.0,-1,0.0,0.0,0.0,0
4707266,1469897380991,,,,,,,0.02,0.1,0.98,-3.0,-0.1,-0.2,720,0,,,,,,,,,,,,,,,,,
4707286,1469897381011,,,,,,,0.02,0.1,0.98,-3.0,-0.1,-0.2,720,0,,,,,,,,,,,,,,,,,
4707306,1469897381031,,,,,,,0.02,0.1,0.98,-3.0,-0.0,-0.1,720,0,,,,,,,,,,,,,,,,,
4707326,1469897381051,,,,,,,0.02,0.1,0.97,-3.0,-0.1,-0.1,740,0,,,,,,,,,,,,,,,,,
4707346,1469897381071,,,,28,,,0.02,0.09,0.98,-2.9,-0.1,-0.2,760,0,0.0,0,39.539631,-122.331482,0.0,0.586,315.8,11,3,1.4,0,0.0,-1,0.0,,0.0,0
4707366,1469897381091,,,,,,,0.02,0.09,0.98,-2.9,-0.0,-0.1,760,0,,,,,,,,,,,,,,,,,
4707386,1469897381111,,,,,,,0.02,0.09,0.98,-3.0,0.0,-0.0,740,0,,,,,,,,,,,,,,,,,
4707406,1469897381131,,,,,,,0.02,0.09,0.98,-2.9,-0.1,-0.1,720,0,,,,,,,,,,,,,,,,,
4707426,1469897381151,,,,,,,0.02,0.08,0.98,-2.9,-0.1,-0.2,720,0,,,,,,,,,,,,,,,,,
4707446,1469897381171,0,139.3,152.7,29,146.5,,0.02,0.09,0.98,-2.9,-0.1,-0.1,720,0,0.0,0,39.539631,-122.331482,0.0,0.586,315.8,11,3,1.4,0,0.0,-1,0.0,0.0,0.0,0
4707466,1469897381191,,,,,,,0.03,0.1,0.98,-3.0,-0.0,-0.1,740,0,,,,,,,,,,,,,,,,,
4707486,1469897381211,,,,,,,0.03,0.1,0.98,-3.0,0.0,-0.1,740,0,,,,,,,,,,,,,,,,,
4707506,1469897381231,,,,,,,0.03,0.09,0.98,-2.9,0.0,-0.2,760,0,,,,,,,,,,,,,,,,,
4707526,1469897381251,,,,,,,0.02,0.09,0.98,-3.0,0.0,-0.2,760,0,,,,,,,,,,,,,,,,,
4707546,1469897381271,,,,31,,,0.03,0.1,0.98,-3.0,-0.0,-0.1,760,0,0.0,0,39.539631,-122.331482,0.0,0.586,315.8,11,3,1.4,0,0.0,-1,0.0,,0.0,0
4707566,1469897381291,,,,,,,0.03,0.09,0.98,-3.0,0.0,-0.2,720,0,,,,,,,,,,,,,,,,,
4707586,1469897381311,,,,,,,0.02,0.08,0.98,-2.9,0.0,-0.2,740,0,,,,,,,,,,,,,,,,,
4707606,1469897381331,,,,,,,0.03,0.09,0.99,-3.0,0.3,-0.2,740,0,,,,,,,,,,,,,,,,,
4707626,1469897381351,,,,,,,0.02,0.09,0.98,-3.0,0.2,-0.1,740,0,,,,,,,,,,,,,,,,,
4707646,1469897381371,0,140.4,153.7,30,147.3,,0.03,0.08,0.99,-3.0,0.2,-0.1,740,0,0.0,0,39.539631,-122.331482,0.0,0.586,315.8,11,3,1.4,0,0.0,-1,0.0,0.0,0.0,0
4707666,1469897381391,,,,,,,0.02,0.08,0.99,-3.0,0.0,-0.2,760,0,,,,,,,,,,,,,,,,,
4707686,1469897381510,,,,,,,0.03,0.09,0.99,-3.0,0.2,-0.1,760,0,,,,,,,,,,,,,,,,,
4707706,1469897381530,,,,,,,0.02,0.09,0.99,-3.0,0.2,-0.0,760,0,,,,,,,,,,,,,,,,,
4707726,1469897381550,,,,,,,0.02,0.09,0.99,-3.0,0.1,-0.0,740,0,,,,,,,,,,,,,,,,,
4707746,1469897381570,,,,30,,,0.02,0.09,0.99,-3.0,-0.1,-0.1,740,0,0.0,0,39.539631,-122.331482,0.0,0.586,315.8,11,3,1.4,0,0.0,-1,0.0,,0.0,0
4707766,1469897381590,,,,,,,0.02,0.09,0.99,-3.0,0.1,-0.1,740,0,,,,,,,,,,,,,,,,,
4707786,1469897381610,,,,,,,0.02,0.09,0.98,-3.0,0.1,-0.0,740,0,,,,,,,,,,,,,,,,,
4707806,1469897381630,,,,,,,0.02,0.1,0.98,-3.0,0.2,-0.0,740,0,,,,,,,,,,,,,,,,,
4707826,1469897381650,,,,,,,0.02,0.1,0.98,-2.9,0.0,-0.1,760,0,,,,,,,,,,,,,,,,,
4707846,1469897381670,0,139.5,153.2,30,147.0,,0.02,0.09,0.98,-2.9,0.1,-0.1,760,0,0.0,0,39.539631,-122.331482,0.0,0.586,315.8,11,3,1.4,0,0.0,-1,0.0,0.0,0.0,0
4707866,1469897381591,,,,,,,0.02,0.1,0.98,-2.9,0.1,-0.1,760,0,,,,,,,,,,,,,,,,,
4707886,1469897381611,,,,,,,0.02,0.1,0.98,-3.0,0.1,-0.1,740,0,,,,,,,,,,,,,,,,,
4707906,1469897381631,,,,,,,0.02,0.1,0.98,-2.9,0.1,-0.2,740,0,,,,,,,,,,,,,,,,,
4707926,1469897381651,,,,,,,0.01,0.1,0.98,-2.9,0.1,-0.2,740,0,,,,,,,,,,,,,,,,,
4707946,1469897381671,,,,31,,,0.02,0.09,0.98,-2.9,0.0,-0.1,740,0,0.0,0,39.539631,-122.331482,0.0,0.586,315.8,11,3,1.4,0,0.0,-1,0.0,,0.0,0
4707966,1469897381691,,,,,,,0.02,0.1,0.98,-2.9,-0.1,-0.1,740,0,,,,,,,,,,,,,,,,,
4707986,1469897381710,,,,,,,0.02,0.09,0.98,-2.9,0.0,-0.2,760,0,,,,,,,,,,,,,,,,,
4708006,1469897381730,,,,,,,0.01,0.09,0.98,-2.9,0.1,-0.2,760,0,,,,,,,,,,,,,,,,,
4708026,1469897381750,,,,,,,0.01,0.09,0.97,-2.9,0.0,-0.2,760,0,,,,,,,,,,,,,,,,,
4708046,1469897381770,0,138.7,152.2,29,146.0,14.23,0.02,0.09,0.98,-2.9,0.1,-0.1,740,0,0.0,0,39.539631,-122.331482,0.0,0.586,315.8,11,3,1.4,0,0.0,-1,0.0,0.0,0.0,0
4708066,1469897381790,,,,,,,0.02,0.09,0.98,-2.9,0.0,-0.2,740,0,,,,,,,,,,,,,,,,,
4708086,1469897381810,,,,,,,0.02,0.08,0.98,-2.9,0.0,-0.2,760,0,,,,,,,,,,,,,,,,,
4708106,1469897381830,,,,,,,0.02,0.09,0.98,-2.9,0.0,-0.2,760,0,,,,,,,,,,,,,,,,,
4708126,1469897381850,,,,,,,0.02,0.09,0.98,-3.0,0.1,-0.1,740,0,,,,,,,,,,,,,,,,,
4708146,1469897381870,,,,31,,,0.02,0.09,0.99,-2.9,0.1,-0.2,780,0,0.0,0,39.539631,-122.331482,0.0,0.586,315.8,11,3,1.4,0,0.0,-1,0.0,,0.0,0
4708166,1469897381890,,,,,,,0.01,0.09,0.98,-2.9,-0.1,-0.3,760,0,,,,,,,,,,,,,,,,,
4708186,1469897381904,,,,,,,0.02,0.09,0.98,-2.9,-0.0,-0.2,760,0,,,,,,,,,,,,,,,,,
4708206,1469897381924,,,,,,,0.02,0.09,0.98,-2.9,0.1,-0.2,740,0,,,,,,,,,,,,,,,,,
4708226,1469897381944,,,,,,,0.02,0.09,0.99,-3.0,0.1,-0.1,760,0,,,,,,,,,,,,,,,,,
4708246,1469897381964,0,139.2,152.7,30,146.6,,0.01,0.08,0.98,-2.9,0.0,-0.2,760,0,0.0,0,39.539631,-122.331482,0.0,0.586,315.8,11,3,1.4,0,0.0,-1,0.0,0.0,0.0,0
4708266,1469897381984,,,,,,,0.02,0.08,0.98,-2.9,0.1,-0.3,760,0,,,,,,,,,,,,,,,,,
4708286,1469897382010,,,,,,,0.01,0.08,0.98,-3.0,-0.1,-0.2,760,0,,,,,,,,,,,,,,,,,
4708306,1469897382030,,,,,,,0.02,0.09,0.98,-3.0,-0.0,-0.1,780,0,,,,,,,,,,,,,,,,,
4708326,1469897382050,,,,,,,0.02,0.09,0.98,-3.0,-0.1,-0.2,780,0,,,,,,,,,,,,,,,,,
4708346,1469897382070,,,,31,,,0.02,0.09,0.98,-3.0,0.0,-0.3,740,0,0.0,0,39.539631,-122.331482,0.0,0.586,315.8,11,3,1.4,0,0.0,-1,0.0,,0.0,0
4708366,1469897382091,,,,,,,0.02,0.09,0.97,-3.0,-0.2,-0.2,740,0,,,,,,,,,,,,,,,,,
4708386,1469897382111,,,,,,,0.02,0.09,0.98,-3.0,-0.0,-0.1,740,0,,,,,,,,,,,,,,,,,
4708406,1469897382131,,,,,,,0.02,0.09,0.98,-2.9,0.0,-0.2,760,0,,,,,,,,,,,,,,,,,
4708426,1469897382151,,,,,,,0.01,0.08,0.98,-3.0,0.0,-0.2,760,0,,,,,,,,,,,,,,,,,
4708446,1469897382171,0,140.0,153.5,30,147.3,,0.01,0.09,0.98,-3.0,-0.0,-0.2,760,0,0.0,0,39.539631,-122.331482,0.0,0.586,315.8,11,3,1.4,0,0.0,-1,0.0,0.0,0.0,0
4708466,1469897382191,,,,,,,0.02,0.09,0.98,-3.0,0.0,-0.1,780,0,,,,,,,,,,,,,,,,,
4708486,1469897382307,,,,,,,0.02,0.1,0.98,-3.0,-0.0,-0.1,780,0,,,,,,,,,,,,,,,,,
4708506,1469897382327,,,,,,,0.02,0.09,0.98,-3.0,-0.1,-0.2,740,0,,,,,,,,,,,,,,,,,
4708526,1469897382347,,,,,,,0.02,0.09,0.98,-3.0,0.0,-0.2,740,0,,,,,,,,,,,,,,,,,
4708546,1469897382367,,,,32,,,0.02,0.09,0.98,-3.0,-0.0,-0.1,760,0,0.0,0,39.539631,-122.331482,0.0,0.586,315.8,11,3,1.4,0,0.0,-1,0.0,,0.0,0
4708566,1469897382387,,,,,,,0.02,0.1,0.98,-3.0,-0.1,-0.1,760,0,,,,,,,,,,,,,,,,,
4708586,1469897382407,,,,,,,0.02,0.1,0.98,-3.0,-0.1,-0.2,760,0,,,,,,,,,,,,,,,,,
4708606,1469897382427,,,,,,,0.02,0.1,0.98,-3.0,-0.0,-0.2,780,0,,,,,,,,,,,,,,,,,
4708626,1469897382447,,,,,,,0.02,0.1,0.98,-3.0,-0.1,-0.1,780,0,,,,,,,,,,,,,,,,,
4708646,1469897382467,0,139.0,152.4,30,146.2,,0.03,0.1,0.98,-3.0,-0.1,-0.0,780,0,0.0,0,39.539631,-122.331482,0.0,0.586,315.8,11,3,1.4,0,0.0,-1,0.0,0.0,0.0,0
4708666,1469897382487,,,,,,,0.03,0.09,0.98,-3.0,-0.0,-0.1,740,0,,,,,,,,,,,,,,,,,
4708686,1469897382410,,,,,,,0.02,0.09,0.98,-2.9,-0.0,-0.2,740,0,,,,,,,,,,,,,,,,,
4708706,1469897382430,,,,,,,0.02,0.09,0.98,-3.0,0.1,-0.2,740,0,,,,,,,,,,,,,,,,,
4708726,1469897382450,,,,,,,0.02,0.1,0.98,-3.0,0.0,-0.1,760,0,,,,,,,,,,,,,,,,,
4708746,1469897382470,,,,31,,,0.02,0.1,0.98,-3.0,0.1,-0.1,760,0,0.0,0,39.539631,-122.331482,0.0,0.586,315.8,11,3,1.4,0,0.0,-1,0.0,,0.0,0
4708766,1469897382490,,,,,,,0.02,0.1,0.98,-3.0,-0.0,-0.2,780,0,,,,,,,,,,,,,,,,,
4708786,1469897382510,,,,,,,0.02,0.09,0.97,-3.0,0.1,-0.1,780,0,,,,,,,,,,,,,,,,,
4708806,1469897382530,,,,,,,0.02,0.1,0.97,-3.0,0.1,-0.0,780,0,,,,,,,,,,,,,,,,,
4708826,1469897382550,,,,,,,0.02,0.11,0.98,-3.1,0.0,-0.0,740,0,,,,,,,,,,,,,,,,,
4708846,1469897382570,0,139.3,152.8,30,146.9,,0.02,0.11,0.98,-3.0,-0.1,-0.2,760,0,0.0,0,39.539631,-122.331482,0.0,0.586,315.8,11,3,1.4,0,0.0,-1,0.0,0.0,0.0,0
4708866,1469897382590,,,,,,,0.02,0.1,0.98,-3.0,0.1,-0.2,760,0,,,,,,,,,,,,,,,,,
4708886,1469897382610,,,,,,,0.02,0.1,0.98,-3.0,0.0,-0.1,760,0,,,,,,,,,,,,,,,,,
4708906,1469897382630,,,,,,,0.02,0.1,0.98,-3.0,0.0,-0.1,760,0,,,,,,,,,,,,,,,,,
4708926,1469897382650,,,,,,,0.02,0.1,0.98,-3.0,-0.0,-0.2,760,0,,,,,,,,,,,,,,,,,
4708946,1469897382670,,,,31,,,0.01,0.09,0.98,-2.9,-0.0,-0.1,760,0,0.0,0,39.539631,-122.331482,0.0,0.586,315.8,11,3,1.4,0,0.0,-1,0.0,,0.0,0
4708966,1469897382690,,,,,,,0.02,0.08,0.98,-2.9,0.0,-0.1,760,0,,,,,,,,,,,,,,,,,
4708986,1469897382710,,,,,,,0.02,0.09,0.98,-3.0,0.1,-0.0,740,0,,,,,,,,,,,,,,,,,
4709006,1469897382730,,,,,,,0.02,0.08,0.98,-3.0,0.1,-0.1,740,0,,,,,,,,,,,,,,,,,
4709026,1469897382750,,,,,,,0.01,0.09,0.98,-2.9,-0.1,-0.2,740,0,,,,,,,,,,,,,,,,,
4709046,1469897382770,0,138.9,152.5,30,146.4,14.18,0.02,0.08,0.98,-3.0,-0.1,-0.1,740,0,0.0,0,39.539631,-122.331482,0.0,0.586,315.8,11,3,1.4,0,0.0,-1,0.0,0.0,0.0,0
4709066,1469897382790,,,,,,,0.02,0.09,0.98,-2.9,0.0,-0.1,740,0,,,,,,,,,,,,,,,,,
4709086,1469897382810,,,,,,,0.02,0.09,0.98,-2.9,-0.1,-0.1,780,0,,,,,,,,,,,,,,,,,
4709106,1469897382830,,,,,,,0.01,0.08,0.98,-2.9,-0.2,-0.2,760,0,,,,,,,,,,,,,,,,,
4709126,1469897382850,,,,,,,0.01,0.09,0.98,-2.9,-0.1,-0.2,760,0,,,,,,,,,,,,,,,,,
4709146,1469897382870,,,,30,,,0.02,0.09,0.98,-3.0,0.0,-0.1,740,0,0.0,0,39.539631,-122.331482,0.0,0.586,315.8,11,3,1.4,0,0.0,-1,0.0,,0.0,0
4709166,1469897382890,,,,,,,0.02,0.1,0.98,-3.0,0.0,-0.1,740,0,,,,,,,,,,,,,,,,,
4709186,1469897382903,,,,,,,0.01,0.09,0.98,-3.0,-0.0,-0.2,740,0,,,,,,,,,,,,,,,,,
4709206,1469897382923,,,,,,,0.02,0.1,0.98,-3.0,0.0,-0.2,740,0,,,,,,,,,,,,,,,,,
4709226,1469897382943,,,,,,,0.02,0.1,0.98,-3.0,-0.1,-0.1,760,0,,,,,,,,,,,,,,,,,
4709246,1469897382963,0,139.5,153.0,29,147.1,,0.02,0.1,0.98,-3.0,-0.1,-0.1,780,0,0.0,0,39.539631,-122.331482,0.0,0.586,315.8,11,3,1.4,0,0.0,-1,0.0,0.0,0.0,0
4709266,1469897382983,,,,,,,0.02,0.1,0.98,-3.0,-0.1,-0.2,760,0,,,,,,,,,,,,,,,,,
4709286,1469897383110,,,,,,,0.02,0.1,0.98,-3.0,-0.0,-0.2,720,0,,,,,,,,,,,,,,,,,
4709306,1469897383130,,,,,,,0.02,0.1,0.98,-3.0,-0.1,-0.1,720,0,,,,,,,,,,,,,,,,,
4709326,1469897383150,,,,,,,0.02,0.1,0.98,-3.0,-0.0,-0.1,740,0,,,,,,,,,,,,,,,,,
4709346,1469897383170,,,,32,,,0.02,0.09,0.98,-3.0,-0.1,-0.2,740,0,0.0,0,39.539631,-122.331482,0.0,0.586,315.8,11,3,1.4,0,0.0,-1,0.0,,0.0,0
4709366,1469897383190,,,,,,,0.02,0.09,0.98,-3.0,0.0,-0.2,740,0,,,,,,,,,,,,,,,,,
4709386,1469897383210,,,,,,,0.02,0.09,0.98,-3.0,-0.0,-0.1,740,0,,,,,,,,,,,,,,,,,
4709406,1469897383230,,,,,,,0.02,0.1,0.98,-3.0,0.2,-0.1,760,0,,,,,,,,,,,,,,,,,
4709426,1469897383250,,,,,,,0.02,0.09,0.99,-3.0,0.0,-0.1,760,0,,,,,,,,,,,,,,,,,
4709446,1469897383270,0,139.9,153.4,29,147.4,,0.02,0.09,0.99,-3.0,0.0,-0.2,720,0,0.0,0,39.539631,-122.331482,0.0,0.586,315.8,11,3,1.4,0,0.0,-1,0.0,0.0,0.0,0
4709466,1469897383290,,,,,,,0.02,0.1,0.98,-3.0,-0.1,-0.1,720,0,,,,,,,,,,,,,,,,,
4709486,1469897383210,,,,,,,0.02,0.1,0.99,-3.0,0.1,-0.1,740,0,,,,,,,,,,,,,,,,,
4709506,1469897383230,,,,,,,0.02,0.09,0.99,-3.0,-0.0,-0.2,740,0,,,,,,,,,,,,,,,,,
4709526,1469897383250,,,,,,,0.01,0.08,0.99,-2.9,0.0,-0.2,740,0,,,,,,,,,,,,,,,,,
4709546,1469897383270,,,,29,,,0.02,0.09,0.98,-3.0,-0.0,-0.1,740,0,0.0,0,39.539631,-122.331482,0.0,0.586,315.8,11,3,1.4,0,0.0,-1,0.0,,0.0,0
4709566,1469897383290,,,,,,,0.02,0.09,0.99,-3.0,0.1,-0.1,760,0,,,,,,,,,,,,,,,,,
4709586,1469897383310,,,,,,,0.02,0.09,0.99,-2.9,0.0,-0.1,760,0,,,,,,,,,,,,,,,,,
4709606,1469897383330,,,,,,,0.02,0.09,0.99,-3.0,0.1,-0.2,720,0,,,,,,,,,,,,,,,,,
4709626,1469897383350,,,,,,,0.02,0.09,0.98,-2.9,0.1,-0.1,720,0,,,,,,,,,,,,,,,,,
4709646,1469897383370,0,138.7,152.1,30,146.3,,0.02,0.09,0.98,-3.0,0.1,-0.0,740,0,0.0,0,39.539631,-122.331482,0.0,0.586,315.8,11,3,1.4,0,0.0,-1,0.0,0.0,0.0,0
4709666,1469897383390,,,,,,,0.02,0.09,0.99,-2.9,0.0,-0.1,740,0,,,,,,,,,,,,,,,,,
4709686,1469897383410,,,,,,,0.01,0.09,0.99,-2.9,-0.0,-0.2,740,0,,,,,,,,,,,,,,,,,
4709706,1469897383430,,,,,,,0.02,0.09,0.99,-2.9,0.1,-0.2,740,0,,,,,,,,,,,,,,,,,
4709726,1469897383450,,,,,,,0.02,0.1,0.99,-2.9,0.2,-0.1,760,0,,,,,,,,,,,,,,,,,
4709746,1469897383470,,,,31,,,0.02,0.1,0.99,-2.9,0.0,-0.1,760,0,0.0,0,39.539631,-122.331482,0.0,0.586,315.8,11,3,1.4,0,0.0,-1,0.0,,0.0,0
4709766,1469897383490,,,,,,,0.02,0.09,0.99,-2.9,-0.0,-0.2,720,0,,,,,,,,,,,,,,,,,
4709786,1469897383510,,,,,,,0.02,0.09,0.98,-2.9,0.0,-0.2,720,0,,,,,,,,,,,,,,,,,
4709806,1469897383530,,,,,,,0.03,0.09,0.98,-3.0,0.1,-0.1,740,0,,,,,,,,,,,,,,,,,
4709826,1469897383550,,,,,,,0.03,0.1,0.99,-2.9,0.0,-0.1,740,0,,,,,,,,,,,,,,,,,
4709846,1469897383570,0,138.8,152.1,29,146.2,,0.02,0.09,0.99,-2.9,-0.0,-0.2,740,0,0.0,0,39.539631,-122.331482,0.0,0.586,315.8,11,3,1.4,0,0.0,-1,0.0,0.0,0.0,0
4709866,1469897383590,,,,,,,0.02,0.09,0.98,-2.9,-0.0,-0.2,740,0,,,,,,,,,,,,,,,,,
4709886,1469897383610,,,,,,,0.02,0.1,0.98,-2.9,-0.0,-0.1,760,0,,,,,,,,,,,,,,,,,
4709906,1469897383630,,,,,,,0.03,0.1,0.99,-2.9,0.1,-0.1,740,0,,,,,,,,,,,,,,,,,
4709926,1469897383650,,,,,,,0.02,0.09,0.98,-2.9,-0.0,-0.2,720,0,,,,,,,,,,,,,,,,,
4709946,1469897383670,,,,29,,,0.02,0.09,0.98,-2.9,0.2,-0.2,720,0,0.0,0,39.539631,-122.331482,0.0,0.586,315.8,11,3,1.4,0,0.0,-1,0.0,,0.0,0
4709966,1469897383690,,,,,,,0.02,0.1,0.98,-3.0,0.1,-0.0,740,0,,,,,,,,,,,,,,,,,
4709986,1469897383709,,,,,,,0.02,0.1,0.99,-3.0,0.0,-0.1,740,0,,,,,,,,,,,,,,,,,
4710006,1469897383729,,,,,,,0.02,0.09,0.99,-2.9,-0.1,-0.2,740,0,,,,,,,,,,,,,,,,,
4710026,1469897383749,,,,,,,0.02,0.08,0.98,-3.0,0.0,-0.2,740,0,,,,,,,,,,,,,,,,,
4710046,1469897383769,0,139.8,152.0,29,146.2,14.27,0.02,0.09,0.99,-3.0,0.1,-0.1,760,0,0.0,0,39.539631,-122.331482,0.0,0.586,315.8,11,3,1.4,0,0.0,-1,0.0,0.0,0.0,0
4710066,1469897383789,,,,,,,0.02,0.09,0.99,-3.0,0.2,-0.1,740,0,,,,,,,,,,,,,,,,,
4710086,1469897383909,,,,,,,0.02,0.1,0.99,-2.9,0.1,-0.2,720,0,,,,,,,,,,,,,,,,,
4710106,1469897383929,,,,,,,0.02,0.09,0.99,-3.0,0.2,-0.2,720,0,,,,,,,,,,,,,,,,,
4710126,1469897383949,,,,,,,0.02,0.09,0.99,-3.0,0.2,-0.0,740,0,,,,,,,,,,,,,,,,,
4710146,1469897383969,,,,30,,,0.02,0.1,0.99,-3.0,0.1,-0.0,740,0,0.0,0,39.539631,-122.331482,0.0,0.586,315.8,11,3,1.4,0,0.0,-1,0.0,,0.0,0
4710166,1469897383989,,,,,,,0.02,0.09,0.99,-3.0,0.1,-0.2,740,0,,,,,,,,,,,,,,,,,
4710186,1469897384009,,,,,,,0.02,0.09,0.98,-3.0,0.2,-0.1,740,0,,,,,,,,,,,,,,,,,
4710206,1469897384029,,,,,,,0.02,0.09,0.99,-3.0,0.3,-0.1,780,0,,,,,,,,,,,,,,,,,
4710226,1469897384049,,,,,,,0.02,0.1,0.99,-3.0,0.2,-0.1,760,0,,,,,,,,,,,,,,,,,
4710246,1469897384069,0,140.0,151.9,30,146.2,,0.02,0.1,0.99,-3.0,0.3,-0.2,740,0,0.0,0,39.539631,-122.331482,0.0,0.586,315.8,11,3,1.4,0,0.0,-1,0.0,0.0,0.0,0
4710266,1469897384089,,,,,,,0.02,0.09,0.99,-3.0,0.2,-0.2,740,0,,,,,,,,,,,,,,,,,
4710286,1469897384010,,,,,,,0.02,0.1,0.98,-3.1,0.2,-0.1,740,0,,,,,,,,,,,,,,,,,
4710306,1469897384030,,,,,,,0.02,0.1,0.98,-3.1,0.1,-0.1,740,0,,,,,,,,,,,,,,,,,
4710326,1469897384050,,,,,,,0.02,0.1,0.98,-3.1,0.1,-0.2,740,0,,,,,,,,,,,,,,,,,
4710346,1469897384070,,,,29,,,0.02,0.1,0.98,-3.0,0.0,-0.2,760,0,0.0,0,39.539631,-122.331482,0.0,0.586,315.8,11,3,1.4,0,0.0,-1,0.0,,0.0,0
4710366,1469897384090,,,,,,,0.02,0.1,0.98,-3.1,-0.0,-0.1,760,0,,,,,,,,,,,,,,,,,
4710386,1469897384109,,,,,,,0.02,0.11,0.98,-3.0,0.0,-0.1,760,0,,,,,,,,,,,,,,,,,
4710406,1469897384129,,,,,,,0.02,0.1,0.98,-3.1,0.1,-0.1,740,0,,,,,,,,,,,,,,,,,
4710426,1469897384149,,,,,,,0.02,0.1,0.98,-3.0,0.1,-0.2,740,0,,,,,,,,,,,,,,,,,
4710446,1469897384169,0,139.2,153.3,30,147.6,,0.02,0.1,0.97,-3.0,0.1,-0.1,740,0,0.0,0,39.539631,-122.331482,0.0,0.586,315.8,11,3,1.4,0,0.0,-1,0.0,0.0,0.0,0
4710466,1469897384189,,,,,,,0.03,0.1,0.97,-3.1,0.1,-0.1,740,0,,,,,,,,,,,,,,,,,
4710486,1469897384210,,,,,,,0.02,0.1,0.98,-3.0,0.0,-0.1,740,0,,,,,,,,,,,,,,,,,
4710506,1469897384230,,,,,,,0.02,0.1,0.98,-3.1,0.0,-0.2,760,0,,,,,,,,,,,,,,,,,
4710526,1469897384250,,,,,,,0.02,0.1,0.98,-3.1,0.0,-0.1,760,0,,,,,,,,,,,,,,,,,
4710546,1469897384270,,,,31,,,0.02,0.11,0.98,-3.1,0.1,-0.0,760,0,0.0,0,39.539631,-122.331482,0.0,0.586,315.8,11,3,1.4,0,0.0,-1,0.0,,0.0,0
4710566,1469897384290,,,,,,,0.02,0.1,0.99,-3.0,0.1,-0.1,720,0,,,,,,,,,,,,,,,,,
4710586,1469897384310,,,,,,,0.01,0.09,0.98,-3.0,-0.0,-0.2,740,0,,,,,,,,,,,,,,,,,
4710606,1469897384330,,,,,,,0.02,0.09,0.98,-3.0,0.1,-0.1,740,0,,,,,,,,,,,,,,,,,
4710626,1469897384350,,,,,,,0.02,0.1,0.98,-3.0,0.1,-0.1,740,0,,,,,,,,,,,,,,,,,
4710646,1469897384370,0,139.8,152.1,30,146.2,,0.02,0.09,0.98,-3.0,0.1,-0.1,740,0,0.0,0,39.539631,-122.331482,0.0,0.586,315.8,11,3,1.4,0,0.0,-1,0.0,0.0,0.0,0
4710666,1469897384390,,,,,,,0.02,0.09,0.98,-3.0,0.0,-0.2,760,0,,,,,,,,,,,,,,,,,
4710686,1469897384410,,,,,,,0.02,0.09,0.98,-3.0,0.0,-0.1,760,0,,,,,,,,,,,,,,,,,
4710706,1469897384430,,,,,,,0.02,0.1,0.98,-3.0,0.1,-0.1,760,0,,,,,,,,,,,,,,,,,
4710726,1469897384450,,,,,,,0.02,0.1,0.98,-3.0,0.0,-0.1,720,0,,,,,,,,,,,,,,,,,
4710746,1469897384470,,,,29,,,0.02,0.09,0.99,-3.0,0.0,-0.2,740,0,0.0,0,39.539631,-122.331482,0.0,0.586,315.8,11,3,1.4,0,0.0,-1,0.0,,0.0,0
4710766,1469897384490,,,,,,,0.01,0.09,0.98,-3.0,-0.0,-0.1,740,0,,,,,,,,,,,,,,,,,
4710786,1469897384510,,,,,,,0.02,0.09,0.99,-3.0,0.1,-0.1,740,0,,,,,,,,,,,,,,,,,
4710806,1469897384530,,,,,,,0.02,0.09,0.98,-3.0,0.0,-0.1,740,0,,,,,,,,,,,,,,,,,
4710826,1469897384550,,,,,,,0.02,0.09,0.98,-3.0,0.1,-0.2,760,0,,,,,,,,,,,,,,,,,
4710846,1469897384570,0,139.9,152.1,29,146.4,,0.02,0.09,0.98,-3.0,0.1,-0.1,760,0,0.0,0,39.539631,-122.331482,0.0,0.586,315.8,11,3,1.4,0,0.0,-1,0.0,0.0,0.0,0
4710866,1469897384590,,,,,,,0.02,0.1,0.98,-3.0,0.2,-0.0,740,0,,,,,,,,,,,,,,,,,
4710886,1469897384709,,,,,,,0.02,0.1,0.99,-3.0,0.1,-0.1,720,0,,,,,,,,,,,,,,,,,
4710906,1469897384729,,,,,,,0.01,0.09,0.99,-3.0,0.1,-0.2,720,0,,,,,,,,,,,,,,,,,
4710926,1469897384749,,,,,,,0.02,0.09,0.99,-3.0,0.1,-0.1,720,0,,,,,,,,,,,,,,,,,
4710946,1469897384769,,,,30,,,0.02,0.1,0.99,-3.0,0.1,-0.0,740,0,0.0,0,39.539631,-122.331482,0.0,0.586,315.8,11,3,1.4,0,0.0,-1,0.0,,0.0,0
4710966,1469897384789,,,,,,,0.02,0.09,0.99,-3.0,0.1,-0.1,740,0,,,,,,,,,,,,,,,,,
4710986,1469897384809,,,,,,,0.02,0.09,0.99,-3.0,0.1,-0.2,760,0,,,,,,,,,,,,,,,,,
4711006,1469897384829,,,,,,,0.02,0.09,0.99,-3.0,0.1,-0.1,760,0,,,,,,,,,,,,,,,,,
4711026,1469897384849,,,,,,,0.02,0.1,0.99,-3.0,0.1,-0.0,740,0,,,,,,,,,,,,,,,,,
4711046,1469897384869,0,138.7,152.7,29,147.3,14.22,0.02,0.1,0.99,-2.9,0.0,-0.1,720,0,0.0,0,39.539631,-122.331482,0.0,0.586,315.8,11,3,1.4,0,0.0,-1,0.0,0.0,0.0,0
4711066,1469897384889,,,,,,,0.01,0.09,0.99,-2.9,0.0,-0.2,720,0,,,,,,,,,,,,,,,,,
4711086,1469897384810,,,,,,,0.02,0.1,0.99,-3.0,0.1,-0.1,720,0,,,,,,,,,,,,,,,,,
4711106,1469897384830,,,,,,,0.02,0.1,0.99,-3.0,0.2,-0.1,740,0,,,,,,,,,,,,,,,,,
4711126,1469897384850,,,,,,,0.02,0.1,1.0,-2.9,0.1,-0.2,740,0,,,,,,,,,,,,,,,,,
4711146,1469897384870,,,,29,,,0.01,0.1,0.99,-2.9,0.0,-0.2,760,0,0.0,0,39.539631,-122.331482,0.0,0.586,315.8,11,3,1.4,0,0.0,-1,0.0,,0.0,0
4711166,1469897384890,,,,,,,0.02,0.1,0.99,-2.9,0.1,-0.2,760,0,,,,,,,,,,,,,,,,,
4711186,1469897384903,,,,,,,0.02,0.1,0.99,-3.0,0.1,-0.1,740,0,,,,,,,,,,,,,,,,,
4711206,1469897384923,,,,,,,0.02,0.1,0.99,-2.9,0.1,-0.2,720,0,,,,,,,,,,,,,,,,,
4711226,1469897384943,,,,,,,0.01,0.1,0.99,-2.9,-0.0,-0.2,740,0,,,,,,,,,,,,,,,,,
4711246,1469897384963,0,140.0,152.0,30,146.3,,0.01,0.1,0.99,-2.9,0.1,-0.1,740,0,0.0,0,39.539631,-122.331482,0.0,0.586,315.8,11,3,1.4,0,0.0,-1,0.0,0.0,0.0,0
4711266,1469897384983,,,,,,,0.02,0.11,0.99,-2.9,0.2,-0.1,740,0,,,,,,,,,,,,,,,,,
4711286,1469897385009,,,,,,,0.01,0.1,0.99,-2.9,0.1,-0.2,740,0,,,,,,,,,,,,,,,,,
4711306,1469897385029,,,,,,,0.01,0.1,1.0,-2.9,0.1,-0.3,760,0,,,,,,,,,,,,,,,,,
