"Interval"|"ms"|0|0|1,"Utc"|"ms"|0|0|1,"FuelLevel"|"F"|0|100|5,"OilTemp"|"F"|0.0|300.0|5,"Coolant"|"F"|0.0|300.0|5,"OilPress"|"PSI"|0|150|10,"EngineTemp"|"F"|0.0|300.0|5,"Battery"|"Volts"|0.0|20.0|1,"AccelX"|"G"|-3.0|3.0|50,"AccelY"|"G"|-3.0|3.0|50,"AccelZ"|"G"|-3.0|3.0|50,"Yaw"|"Deg/Sec"|-300.0|300.0|50,"Pitch"|"Deg/Sec"|-300.0|300.0|50,"Roll"|"Deg/Sec"|-300.0|300.0|50,"RPM"|""|0|10000|50,"Driveshaft"|"RPM"|0|5000|50,"GearRatio"|""|-5.0|5.0|10,"Gear"|""|-1|5|10,"Latitude"|"Degrees"|-180.0|180.0|10,"Longitude"|"Degrees"|-180.0|180.0|10,"Speed"|"MPH"|0.0|150.0|10,"Distance"|"Miles"|0.0|0.0|10,"Altitude"|"Feet"|0.0|4000.0|10,"GPSSats"|""|0|20|10,"GPSQual"|""|0|5|10,"GPSDOP"|""|0.0|20.0|10,"LapCount"|""|0|0|10,"LapTime"|"Min"|0.0|0.0|10,"Sector"|""|0|0|10,"SectorTime"|"Min"|0.0|0.0|10,"PredTime"|"Min"|0.0|0.0|5,"ElapsedTime"|"Min"|0.0|0.0|10,"CurrentLap"|""|0|0|10
5066,1469897877796,,,,,,,-0.06,0.23,0.95,-12.2,0.2,0.8,1820,1792,,,,,,,,,,,,,,,,,
5086,1469897877716,,,,,,,-0.05,0.24,0.95,-12.2,0.3,0.7,1740,1780,,,,,,,,,,,,,,,,,
5106,1469897877736,,,,,,,-0.05,0.24,0.99,-12.3,0.7,0.4,1780,1796,,,,,,,,,,,,,,,,,
5126,1469897877756,,,,,,,-0.04,0.24,0.99,-12.2,0.5,0.2,1800,1813,,,,,,,,,,,,,,,,,
5146,1469897877776,,,,56,,,-0.05,0.26,0.99,-12.3,0.3,0.1,1760,1792,0.978,4,39.535866,-122.327286,30.77,0.001,311.8,10,2,1.5,0,0.0,-1,0.0,,0.0,0
5166,1469897877796,,,,,,,-0.04,0.26,1.0,-12.3,0.2,0.3,1780,1796,,,,,,,,,,,,,,,,,
5186,1469897877817,,,,,,,-0.06,0.29,0.99,-12.3,0.3,0.4,1800,1792,,,,,,,,,,,,,,,,,
5206,1469897877837,,,,,,,-0.05,0.31,1.01,-12.3,0.0,0.5,1820,1804,,,,,,,,,,,,,,,,,
5226,1469897877857,,,,,,,-0.05,0.28,1.01,-12.3,0.2,0.3,1760,1813,,,,,,,,,,,,,,,,,
5246,1469897877877,0,181.0,175.5,51,174.7,,-0.04,0.28,0.99,-12.4,-0.1,0.2,1860,1804,1.028,4,39.535873,-122.327255,31.05,0.003,310.7,10,2,1.5,0,0.0,-1,0.0,0.0,0.0,0
5266,1469897877897,,,,,,,-0.04,0.27,0.98,-12.5,0.0,0.2,1760,1813,,,,,,,,,,,,,,,,,
5286,1469897877912,,,,,,,-0.04,0.28,0.98,-12.5,-0.1,0.1,1780,1809,,,,,,,,,,,,,,,,,
5306,1469897877932,,,,,,,-0.03,0.29,1.02,-12.5,0.4,-0.1,1800,1830,,,,,,,,,,,,,,,,,
5326,1469897877952,,,,,,,-0.03,0.29,1.03,-12.5,0.1,-0.4,1780,1835,,,,,,,,,,,,,,,,,
5346,1469897877972,,,,50,,,-0.02,0.27,1.01,-12.4,-0.2,-0.5,1820,1826,0.999,4,39.535877,-122.327248,31.25,0.003,309.5,10,2,1.5,0,0.0,-1,0.0,,0.0,0
5366,1469897877992,,,,,,,-0.04,0.27,1.0,-12.4,-0.1,-0.5,1800,1813,,,,,,,,,,,,,,,,,
5386,1469897878017,,,,,,,-0.04,0.28,0.95,-12.3,-0.3,-0.5,1860,1809,,,,,,,,,,,,,,,,,
5406,1469897878037,,,,,,,-0.04,0.29,0.96,-12.4,0.1,-0.5,1760,1818,,,,,,,,,,,,,,,,,
5426,1469897878057,,,,,,,-0.02,0.32,0.97,-12.5,0.3,-0.6,1800,1835,,,,,,,,,,,,,,,,,
5446,1469897878077,0,181.0,175.6,58,174.8,,-0.02,0.31,0.98,-12.4,0.7,-0.8,1780,1847,1.027,4,39.535881,-122.327232,31.53,0.004,308.5,10,2,1.5,0,0.0,-1,0.0,0.0,0.0,0
5466,1469897878097,,,,,,,-0.04,0.29,0.99,-12.4,0.9,-0.6,1840,1840,,,,,,,,,,,,,,,,,
5486,1469897878117,,,,,,,-0.04,0.29,0.99,-12.3,0.8,-0.6,1880,1835,,,,,,,,,,,,,,,,,
5506,1469897878137,,,,,,,-0.05,0.3,0.99,-12.5,1.0,-0.7,1800,1818,,,,,,,,,,,,,,,,,
5526,1469897878157,,,,,,,-0.05,0.29,1.0,-12.4,1.3,-0.9,1840,1830,,,,,,,,,,,,,,,,,
5546,1469897878177,,,,46,,,-0.06,0.28,1.0,-12.4,1.5,-1.1,1820,1847,0.984,4,39.535889,-122.327217,31.66,0.005,307.6,10,2,1.5,0,0.0,-1,0.0,,0.0,0
5566,1469897878197,,,,,,,-0.06,0.27,0.97,-12.4,1.1,-1.0,1860,1856,,,,,,,,,,,,,,,,,
5586,1469897878217,,,,,,,-0.04,0.27,0.96,-12.4,1.0,-0.9,1840,1856,,,,,,,,,,,,,,,,,
5606,1469897878237,,,,,,,-0.05,0.27,0.97,-12.5,0.8,-1.0,1820,1847,,,,,,,,,,,,,,,,,
5626,1469897878257,,,,,,,-0.06,0.28,0.97,-12.5,0.5,-1.1,1820,1835,,,,,,,,,,,,,,,,,
5646,1469897878277,0,180.4,175.0,55,174.2,,-0.05,0.31,0.95,-12.5,0.3,-1.2,1800,1830,1.011,4,39.535896,-122.327209,31.84,0.006,306.7,10,2,1.5,0,0.0,-1,0.0,0.0,0.0,0
5666,1469897878297,,,,,,,-0.05,0.31,0.94,-12.6,0.4,-1.3,1800,1856,,,,,,,,,,,,,,,,,
5686,1469897878416,,,,,,,-0.04,0.3,0.96,-12.5,0.4,-1.1,1840,1861,,,,,,,,,,,,,,,,,
5706,1469897878436,,,,,,,-0.03,0.3,0.96,-12.5,0.2,-1.0,1840,1870,,,,,,,,,,,,,,,,,
5726,1469897878456,,,,,,,-0.03,0.27,0.98,-12.4,-0.1,-0.8,1820,1866,,,,,,,,,,,,,,,,,
5746,1469897878476,,,,52,,,-0.04,0.28,1.0,-12.5,-0.4,-0.8,1860,1866,0.992,4,39.535908,-122.327179,32.2,0.007,305.2,10,2,1.5,0,0.0,-1,0.0,,0.0,0
5766,1469897878496,,,,,,,-0.05,0.28,0.99,-12.4,-0.3,-0.9,1880,1856,,,,,,,,,,,,,,,,,
5786,1469897878516,,,,,,,-0.06,0.28,0.99,-12.4,0.0,-0.9,1820,1847,,,,,,,,,,,,,,,,,
5806,1469897878536,,,,,,,-0.05,0.28,0.99,-12.4,0.1,-0.7,1880,1875,,,,,,,,,,,,,,,,,
5826,1469897878556,,,,,,,-0.04,0.29,0.98,-12.4,-0.0,-0.4,1900,1880,,,,,,,,,,,,,,,,,
5846,1469897878576,1,180.4,175.0,56,174.2,,-0.04,0.29,0.96,-12.3,-0.1,-0.3,1840,1893,0.995,4,39.535908,-122.327179,32.2,0.007,305.2,10,2,1.5,0,0.0,-1,0.0,0.0,0.0,0
5866,1469897878596,,,,,,,-0.01,0.28,0.99,-12.4,-0.2,0.0,1880,1884,,,,,,,,,,,,,,,,,
5886,1469897878517,,,,,,,-0.04,0.28,0.97,-12.6,-0.1,0.2,1920,1884,,,,,,,,,,,,,,,,,
5906,1469897878537,,,,,,,-0.04,0.29,0.96,-12.5,0.1,0.3,1840,1875,,,,,,,,,,,,,,,,,
5926,1469897878557,,,,,,,-0.05,0.27,0.97,-12.4,0.4,0.2,1880,1875,,,,,,,,,,,,,,,,,
5946,1469897878577,,,,50,,,-0.07,0.26,0.98,-12.4,0.6,0.3,1860,1875,0.987,4,39.535915,-122.327171,32.46,0.008,304.5,10,2,1.5,0,0.0,-1,0.0,,0.0,0
5966,1469897878597,,,,,,,-0.06,0.26,1.0,-12.4,0.8,0.1,1880,1889,,,,,,,,,,,,,,,,,
5986,1469897878617,,,,,,,-0.04,0.28,1.02,-12.4,0.6,0.3,1900,1893,,,,,,,,,,,,,,,,,
6006,1469897878637,,,,,,,-0.03,0.29,1.0,-12.4,0.4,0.6,1940,1898,,,,,,,,,,,,,,,,,
6026,1469897878657,,,,,,,-0.02,0.28,0.99,-12.5,0.2,0.7,1840,1903,,,,,,,,,,,,,,,,,
6046,1469897878677,0,181.2,175.6,56,174.8,14.35,-0.04,0.28,1.02,-12.5,0.6,0.6,1920,1893,1.016,4,39.535919,-122.327156,32.63,0.009,303.9,10,2,1.5,0,0.0,-1,0.0,0.0,0.0,0
6066,1469897878697,,,,,,,-0.03,0.29,1.02,-12.5,0.3,0.4,1840,1898,,,,,,,,,,,,,,,,,
6086,1469897878717,,,,,,,-0.05,0.28,1.0,-12.5,0.7,0.4,1880,1893,,,,,,,,,,,,,,,,,
6106,1469897878737,,,,,,,-0.06,0.29,1.0,-12.5,0.7,0.6,1900,1898,,,,,,,,,,,,,,,,,
6126,1469897878757,,,,,,,-0.06,0.3,0.99,-12.5,0.8,0.5,1960,1898,,,,,,,,,,,,,,,,,
6146,1469897878777,,,,54,,,-0.04,0.3,1.0,-12.4,0.8,0.4,1900,1898,1.016,4,39.535927,-122.327133,32.97,0.01,303.5,10,2,1.5,0,0.0,-1,0.0,,0.0,0
6166,1469897878797,,,,,,,-0.03,0.29,1.0,-12.3,1.0,0.3,1860,1898,,,,,,,,,,,,,,,,,
6186,1469897878817,,,,,,,-0.02,0.3,0.99,-12.3,0.8,0.0,1900,1912,,,,,,,,,,,,,,,,,
6206,1469897878837,,,,,,,-0.02,0.29,0.98,-12.2,0.5,-0.1,1960,1927,,,,,,,,,,,,,,,,,
6226,1469897878857,,,,,,,-0.02,0.29,0.98,-12.2,0.3,-0.0,1960,1932,,,,,,,,,,,,,,,,,
6246,1469897878877,1,180.6,175.0,57,174.2,,-0.03,0.29,1.0,-12.3,-0.4,-0.1,1860,1923,1.001,4,39.535934,-122.327118,33.0,0.011,303.1,10,2,1.5,0,0.0,-1,0.0,0.0,0.0,0
6266,1469897878897,,,,,,,-0.05,0.3,1.0,-12.2,-0.4,-0.0,1980,1916,,,,,,,,,,,,,,,,,
6286,1469897878912,,,,,,,-0.03,0.31,1.0,-12.1,-0.5,-0.0,1960,1916,,,,,,,,,,,,,,,,,
6306,1469897878932,,,,,,,-0.04,0.29,1.02,-12.0,0.2,-0.1,1860,1916,,,,,,,,,,,,,,,,,
6326,1469897878952,,,,,,,-0.05,0.3,1.03,-12.0,0.5,-0.2,1880,1932,,,,,,,,,,,,,,,,,
6346,1469897878972,,,,51,,,-0.05,0.29,1.0,-12.0,0.5,-0.2,1880,1923,0.971,4,39.535942,-122.327103,33.16,0.012,302.8,10,2,1.5,0,0.0,-1,0.0,,0.0,0
6366,1469897878992,,,,,,,-0.04,0.29,1.01,-12.1,0.7,-0.0,1900,1916,,,,,,,,,,,,,,,,,
6386,1469897879017,,,,,,,-0.03,0.32,1.01,-12.2,0.8,0.1,2000,1912,,,,,,,,,,,,,,,,,
6406,1469897879037,,,,,,,-0.02,0.31,1.01,-12.0,0.9,0.0,1880,1923,,,,,,,,,,,,,,,,,
6426,1469897879057,,,,,,,-0.01,0.3,1.02,-12.0,0.9,-0.1,1880,1936,,,,,,,,,,,,,,,,,
6446,1469897879077,0,180.8,175.1,52,174.1,,0.0,0.31,1.02,-11.9,0.9,-0.2,1980,1936,1.007,4,39.53595,-122.327095,33.34,0.013,302.3,10,2,1.5,0,0.0,-1,0.0,0.0,0.0,0
6466,1469897879097,,,,,,,0.01,0.3,1.02,-11.8,0.5,-0.2,1900,1941,,,,,,,,,,,,,,,,,
6486,1469897879216,,,,,,,-0.0,0.3,1.01,-11.7,0.4,-0.2,1920,1946,,,,,,,,,,,,,,,,,
6506,1469897879236,,,,,,,0.01,0.31,0.98,-11.7,0.2,-0.1,1980,1952,,,,,,,,,,,,,,,,,
6526,1469897879256,,,,,,,-0.0,0.32,0.99,-11.7,-0.2,0.0,1920,1936,,,,,,,,,,,,,,,,,
6546,1469897879276,,,,58,,,-0.02,0.29,0.99,-11.7,-0.2,-0.1,1900,1936,0.994,4,39.535965,-122.327064,33.68,0.015,301.6,10,2,1.5,0,0.0,-1,0.0,,0.0,0
6566,1469897879296,,,,,,,-0.03,0.32,1.0,-11.8,-0.4,-0.2,1920,1936,,,,,,,,,,,,,,,,,
6586,1469897879316,,,,,,,-0.04,0.33,1.0,-11.7,-0.6,-0.4,1980,1941,,,,,,,,,,,,,,,,,
6606,1469897879336,,,,,,,-0.04,0.32,1.0,-11.8,-0.1,-0.4,1920,1936,,,,,,,,,,,,,,,,,
6626,1469897879356,,,,,,,-0.03,0.33,0.97,-11.8,-0.0,-0.3,1920,1952,,,,,,,,,,,,,,,,,
6646,1469897879376,0,180.4,175.0,48,174.3,,-0.03,0.31,0.96,-11.9,-0.2,-0.1,1960,1946,1.017,4,39.535965,-122.327064,33.68,0.015,301.6,10,2,1.5,0,0.0,-1,0.0,0.0,0.0,0
6666,1469897879396,,,,,,,-0.0,0.3,0.98,-11.8,0.2,-0.2,1940,1946,,,,,,,,,,,,,,,,,
6686,1469897879317,,,,,,,0.0,0.31,1.0,-11.8,0.7,-0.3,2000,1946,,,,,,,,,,,,,,,,,
6706,1469897879337,,,,,,,0.01,0.3,1.03,-11.8,0.9,-0.3,1900,1941,,,,,,,,,,,,,,,,,
6726,1469897879357,,,,,,,0.01,0.3,1.02,-11.9,1.0,-0.4,1940,1946,,,,,,,,,,,,,,,,,
6746,1469897879377,,,,57,,,0.03,0.31,1.01,-11.9,0.9,-0.6,1980,1956,0.989,4,39.535976,-122.327057,33.82,0.016,301.3,10,2,1.5,0,0.0,-1,0.0,,0.0,0
6766,1469897879397,,,,,,,0.03,0.31,1.02,-11.9,0.6,-0.7,1920,1956,,,,,,,,,,,,,,,,,
6786,1469897879417,,,,,,,0.04,0.32,1.0,-12.0,0.5,-0.6,1940,1952,,,,,,,,,,,,,,,,,
6806,1469897879437,,,,,,,0.07,0.32,1.01,-11.9,0.1,-0.6,1920,1952,,,,,,,,,,,,,,,,,
6826,1469897879457,,,,,,,0.04,0.3,1.0,-12.0,0.0,-0.7,1940,1956,,,,,,,,,,,,,,,,,
6846,1469897879477,0,180.5,175.1,49,174.3,,0.02,0.31,0.99,-12.1,-0.5,-0.6,1920,1961,0.992,4,39.535984,-122.327042,34.11,0.017,301.0,10,2,1.5,0,0.0,-1,0.0,0.0,0.0,0
6866,1469897879497,,,,,,,0.01,0.3,0.99,-12.0,-1.4,-0.5,1920,1956,,,,,,,,,,,,,,,,,
6886,1469897879517,,,,,,,-0.0,0.3,1.01,-12.0,-1.7,-0.3,1940,1961,,,,,,,,,,,,,,,,,
6906,1469897879537,,,,,,,0.0,0.29,1.0,-11.9,-1.5,-0.3,1960,1946,,,,,,,,,,,,,,,,,
6926,1469897879557,,,,,,,0.01,0.3,1.0,-11.8,-1.4,-0.5,1920,1946,,,,,,,,,,,,,,,,,
6946,1469897879577,,,,53,,,-0.01,0.29,1.01,-11.8,-0.9,-0.7,1980,1956,0.984,4,39.535992,-122.327026,33.99,0.018,300.7,10,2,1.5,0,0.0,-1,0.0,,0.0,0
6966,1469897879597,,,,,,,-0.02,0.3,0.99,-11.8,-0.8,-0.8,1920,1961,,,,,,,,,,,,,,,,,
6986,1469897879617,,,,,,,-0.02,0.28,1.0,-11.8,-0.5,-0.8,1940,1961,,,,,,,,,,,,,,,,,
7006,1469897879637,,,,,,,-0.02,0.28,0.99,-11.8,0.2,-0.6,1940,1966,,,,,,,,,,,,,,,,,
7026,1469897879657,,,,,,,-0.01,0.3,0.97,-11.8,0.5,-0.5,1920,1961,,,,,,,,,,,,,,,,,
7046,1469897879677,0,181.7,175.6,50,174.5,14.45,-0.02,0.28,0.98,-11.8,0.8,-0.6,1920,1952,0.994,4,39.535999,-122.327019,34.18,0.018,300.4,10,2,1.5,0,0.0,-1,0.0,0.0,0.0,0
7066,1469897879697,,,,,,,-0.02,0.26,0.99,-11.8,1.1,-0.7,1960,1952,,,,,,,,,,,,,,,,,
7086,1469897879717,,,,,,,-0.01,0.28,0.97,-11.6,0.8,-0.9,1940,1956,,,,,,,,,,,,,,,,,
7106,1469897879737,,,,,,,0.01,0.27,0.98,-11.5,0.7,-0.8,1920,1956,,,,,,,,,,,,,,,,,
7126,1469897879757,,,,,,,0.01,0.28,0.98,-11.6,0.6,-0.6,1940,1956,,,,,,,,,,,,,,,,,
7146,1469897879777,,,,53,,,0.03,0.29,1.0,-11.6,0.3,-0.6,1920,1956,0.982,4,39.536011,-122.327003,34.39,0.019,300.1,10,2,1.5,0,0.0,-1,0.0,,0.0,0
7166,1469897879797,,,,,,,0.02,0.27,0.99,-11.5,0.3,-0.5,1920,1952,,,,,,,,,,,,,,,,,
7186,1469897879817,,,,,,,0.04,0.29,0.97,-11.5,-0.3,-0.6,1940,1956,,,,,,,,,,,,,,,,,
7206,1469897879837,,,,,,,0.04,0.28,0.96,-11.4,-0.5,-0.8,1940,1956,,,,,,,,,,,,,,,,,
7226,1469897879857,,,,,,,0.04,0.27,0.97,-11.3,-0.5,-0.9,1960,1966,,,,,,,,,,,,,,,,,
7246,1469897879877,0,180.9,175.1,49,174.2,,0.03,0.29,0.96,-11.2,-0.6,-0.8,1980,1966,1.002,4,39.536018,-122.326988,34.34,0.02,299.8,10,2,1.5,0,0.0,-1,0.0,0.0,0.0,0
7266,1469897879897,,,,,,,0.03,0.28,0.97,-11.3,-0.5,-0.7,1960,1961,,,,,,,,,,,,,,,,,
7286,1469897880011,,,,,,,0.02,0.28,0.98,-11.4,-0.5,-0.6,1940,1966,,,,,,,,,,,,,,,,,
7306,1469897880031,,,,,,,0.02,0.3,0.98,-11.3,-0.6,-0.6,2000,1961,,,,,,,,,,,,,,,,,
7326,1469897880051,,,,,,,-0.0,0.3,0.98,-11.4,-0.7,-0.6,1920,1961,,,,,,,,,,,,,,,,,
7346,1469897880071,,,,54,,,0.0,0.3,0.99,-11.4,-1.2,-0.5,1940,1976,0.984,4,39.536037,-122.326965,34.37,0.022,299.0,10,2,1.5,0,0.0,-1,0.0,,0.0,0
7366,1469897880091,,,,,,,0.0,0.29,0.98,-11.4,-0.9,-0.3,1940,1966,,,,,,,,,,,,,,,,,
7386,1469897880111,,,,,,,-0.01,0.27,0.99,-11.4,-1.0,-0.2,1940,1961,,,,,,,,,,,,,,,,,
7406,1469897880131,,,,,,,-0.03,0.28,1.0,-11.4,-0.6,-0.1,1960,1961,,,,,,,,,,,,,,,,,
7426,1469897880151,,,,,,,-0.03,0.28,1.0,-11.4,-0.8,-0.0,1980,1961,,,,,,,,,,,,,,,,,
7446,1469897880171,0,180.6,174.9,49,174.1,,-0.04,0.29,1.0,-11.4,-0.7,-0.2,1980,1956,0.984,4,39.536037,-122.326965,34.37,0.022,299.0,10,2,1.5,0,0.0,-1,0.0,0.0,0.0,0
7466,1469897880191,,,,,,,-0.03,0.27,1.03,-11.4,-0.3,-0.2,1980,1956,,,,,,,,,,,,,,,,,
7486,1469897880117,,,,,,,-0.03,0.26,1.02,-11.4,0.4,-0.1,2000,1976,,,,,,,,,,,,,,,,,
7506,1469897880137,,,,,,,-0.04,0.27,1.02,-11.3,0.4,-0.1,2000,1961,,,,,,,,,,,,,,,,,
7526,1469897880157,,,,,,,-0.03,0.29,1.03,-11.4,0.6,0.0,1940,1972,,,,,,,,,,,,,,,,,
7546,1469897880177,,,,55,,,-0.02,0.28,1.0,-11.3,0.8,0.1,1960,1972,0.969,4,39.536049,-122.32695,34.33,0.023,298.6,10,2,1.5,0,0.0,-1,0.0,,0.0,0
7566,1469897880197,,,,,,,-0.01,0.28,0.99,-11.3,1.1,-0.0,2000,1966,,,,,,,,,,,,,,,,,
7586,1469897880217,,,,,,,0.01,0.29,0.99,-11.4,1.4,-0.2,1920,1961,,,,,,,,,,,,,,,,,
7606,1469897880237,,,,,,,0.02,0.28,0.99,-11.2,1.6,-0.2,1940,1976,,,,,,,,,,,,,,,,,
7626,1469897880257,,,,,,,0.02,0.27,0.97,-11.3,1.0,-0.0,2000,1966,,,,,,,,,,,,,,,,,
7646,1469897880277,0,181.8,175.5,53,174.5,,0.05,0.29,0.97,-11.4,1.1,0.0,1920,1961,0.989,4,39.536056,-122.326942,34.36,0.024,298.1,10,2,1.5,0,0.0,-1,0.0,0.0,0.0,0
7666,1469897880297,,,,,,,0.06,0.29,1.01,-11.4,1.1,-0.1,1980,1976,,,,,,,,,,,,,,,,,
7686,1469897880317,,,,,,,0.05,0.26,1.01,-11.3,1.1,-0.3,1960,1976,,,,,,,,,,,,,,,,,
7706,1469897880337,,,,,,,0.07,0.27,1.01,-11.4,0.9,-0.4,1940,1972,,,,,,,,,,,,,,,,,
7726,1469897880357,,,,,,,0.06,0.26,1.0,-11.5,1.0,-0.5,1940,1976,,,,,,,,,,,,,,,,,
7746,1469897880377,,,,59,,,0.04,0.24,1.01,-11.5,1.1,-0.6,1980,1981,0.994,4,39.536072,-122.326927,34.34,0.025,297.6,10,2,1.5,0,0.0,-1,0.0,,0.0,0
7766,1469897880397,,,,,,,0.04,0.25,0.99,-11.5,0.4,-0.3,1980,1976,,,,,,,,,,,,,,,,,
7786,1469897880417,,,,,,,0.05,0.26,0.97,-11.5,-0.0,-0.2,2000,1972,,,,,,,,,,,,,,,,,
7806,1469897880437,,,,,,,0.05,0.25,0.98,-11.5,-0.3,-0.1,1960,1976,,,,,,,,,,,,,,,,,
7826,1469897880457,,,,,,,0.05,0.26,0.98,-11.6,-0.4,-0.1,1960,1976,,,,,,,,,,,,,,,,,
7846,1469897880477,0,181.1,175.0,58,174.3,,0.05,0.26,0.98,-11.6,-0.5,-0.3,1980,1976,0.984,4,39.536079,-122.326912,34.48,0.026,297.2,10,2,1.5,0,0.0,-1,0.0,0.0,0.0,0
7866,1469897880497,,,,,,,0.04,0.27,0.96,-11.6,-0.8,-0.1,2000,1976,,,,,,,,,,,,,,,,,
7886,1469897880516,,,,,,,0.04,0.28,0.93,-11.7,-1.0,0.1,2000,1976,,,,,,,,,,,,,,,,,
7906,1469897880536,,,,,,,0.03,0.27,0.93,-11.7,-1.0,0.3,1920,1976,,,,,,,,,,,,,,,,,
7926,1469897880556,,,,,,,0.02,0.25,0.94,-11.6,-1.2,0.2,1960,1972,,,,,,,,,,,,,,,,,
7946,1469897880576,,,,50,,,0.01,0.25,0.97,-11.6,-0.9,0.2,1940,1981,0.982,4,39.536091,-122.326904,34.41,0.027,296.9,10,2,1.5,0,0.0,-1,0.0,,0.0,0
7966,1469897880596,,,,,,,0.0,0.27,0.98,-11.6,-1.1,0.3,1940,1976,,,,,,,,,,,,,,,,,
7986,1469897880615,,,,,,,-0.01,0.26,1.0,-11.6,-1.2,0.4,1960,1986,,,,,,,,,,,,,,,,,
8006,1469897880635,,,,,,,-0.0,0.26,1.01,-11.6,-1.0,0.5,1940,1976,,,,,,,,,,,,,,,,,
8026,1469897880655,,,,,,,-0.02,0.26,1.03,-11.6,-1.2,0.4,1960,1976,,,,,,,,,,,,,,,,,
8046,1469897880675,1,181.5,175.4,56,174.4,14.42,-0.03,0.26,1.04,-11.6,-0.9,0.5,2000,1972,0.979,4,39.536102,-122.326904,34.51,0.028,296.5,10,2,1.5,0,0.0,-1,0.0,0.0,0.0,0
8066,1469897880695,,,,,,,-0.01,0.29,1.03,-11.7,-0.8,0.5,1960,1976,,,,,,,,,,,,,,,,,
8086,1469897880815,,,,,,,-0.04,0.29,1.03,-11.8,-0.6,0.4,1960,1976,,,,,,,,,,,,,,,,,
8106,1469897880835,,,,,,,-0.02,0.28,1.02,-11.7,-0.4,0.3,1960,1981,,,,,,,,,,,,,,,,,
8126,1469897880855,,,,,,,-0.02,0.32,1.01,-11.8,0.0,0.3,1980,1981,,,,,,,,,,,,,,,,,
8146,1469897880875,,,,52,,,-0.01,0.32,1.02,-11.8,0.2,0.5,1980,1976,1.01,4,39.536121,-122.326874,34.79,0.03,295.7,10,2,1.5,0,0.0,-1,0.0,,0.0,0
8166,1469897880895,,,,,,,-0.01,0.31,1.04,-11.8,0.9,0.5,1980,1981,,,,,,,,,,,,,,,,,
8186,1469897880915,,,,,,,0.0,0.31,1.0,-11.7,1.2,0.3,1980,1986,,,,,,,,,,,,,,,,,
8206,1469897880935,,,,,,,-0.0,0.3,1.03,-11.9,1.2,0.1,1940,1981,,,,,,,,,,,,,,,,,
8226,1469897880955,,,,,,,-0.01,0.3,1.02,-11.9,1.3,0.1,1960,1976,,,,,,,,,,,,,,,,,
8246,1469897880975,0,181.8,174.8,52,174.1,,0.01,0.31,0.99,-11.8,1.4,0.1,1980,1981,0.989,4,39.536121,-122.326874,34.79,0.03,295.7,10,2,1.5,0,0.0,-1,0.0,0.0,0.0,0
8266,1469897880995,,,,,,,0.01,0.3,0.99,-11.8,1.6,0.1,2000,1976,,,,,,,,,,,,,,,,,
8286,1469897880911,,,,,,,0.01,0.3,0.99,-11.7,1.7,-0.1,1960,1986,,,,,,,,,,,,,,,,,
8306,1469897880931,,,,,,,0.03,0.31,0.98,-11.8,1.5,-0.3,1960,1981,,,,,,,,,,,,,,,,,
8326,1469897880951,,,,,,,0.02,0.33,0.98,-11.9,1.9,-0.5,1980,1976,,,,,,,,,,,,,,,,,
8346,1469897880971,,,,58,,,0.04,0.32,1.0,-12.0,1.7,-0.8,1960,1976,0.977,4,39.536137,-122.326859,34.81,0.031,295.4,10,2,1.5,0,0.0,-1,0.0,,0.0,0
8366,1469897880991,,,,,,,0.04,0.31,1.0,-12.0,2.0,-0.7,1980,1976,,,,,,,,,,,,,,,,,
8386,1469897881013,,,,,,,0.04,0.32,0.99,-11.9,1.6,-0.4,2000,1972,,,,,,,,,,,,,,,,,
8406,1469897881033,,,,,,,0.05,0.31,1.01,-12.1,1.9,-0.1,1980,1981,,,,,,,,,,,,,,,,,
8426,1469897881053,,,,,,,0.05,0.32,1.03,-12.2,2.2,-0.2,1980,1976,,,,,,,,,,,,,,,,,
8446,1469897881073,0,181.2,174.9,46,174.3,,0.05,0.31,1.02,-12.0,2.0,-0.3,1980,1981,0.999,4,39.536144,-122.326851,34.67,0.032,295.1,10,2,1.5,0,0.0,-1,0.0,0.0,0.0,0
8466,1469897881093,,,,,,,0.05,0.31,1.02,-12.0,1.9,-0.4,2000,1972,,,,,,,,,,,,,,,,,
8486,1469897881117,,,,,,,0.05,0.33,1.02,-12.1,2.3,-0.4,1980,1981,,,,,,,,,,,,,,,,,
8506,1469897881137,,,,,,,0.06,0.31,1.03,-12.0,1.9,-0.6,1960,1986,,,,,,,,,,,,,,,,,
8526,1469897881157,,,,,,,0.08,0.33,1.03,-12.2,1.8,-0.8,2000,1976,,,,,,,,,,,,,,,,,
8546,1469897881177,,,,54,,,0.07,0.31,1.02,-12.1,1.6,-0.9,1960,1981,0.979,4,39.536156,-122.326836,34.7,0.033,294.8,10,2,1.5,0,0.0,-1,0.0,,0.0,0
8566,1469897881197,,,,,,,0.07,0.29,1.01,-12.0,1.5,-0.9,1980,1981,,,,,,,,,,,,,,,,,
8586,1469897881217,,,,,,,0.09,0.32,0.99,-12.2,1.7,-0.7,1980,1986,,,,,,,,,,,,,,,,,
8606,1469897881237,,,,,,,0.09,0.3,1.0,-12.3,1.5,-0.6,1980,1986,,,,,,,,,,,,,,,,,
8626,1469897881257,,,,,,,0.08,0.3,0.98,-12.3,1.5,-0.4,1980,1996,,,,,,,,,,,,,,,,,
8646,1469897881277,0,180.8,175.6,53,174.9,,0.08,0.31,0.97,-12.2,1.1,-0.3,2000,1981,0.997,4,39.536167,-122.32682,34.76,0.034,294.6,10,2,1.5,0,0.0,-1,0.0,0.0,0.0,0
8666,1469897881297,,,,,,,0.09,0.3,0.98,-12.2,1.1,-0.4,1960,1976,,,,,,,,,,,,,,,,,
8686,1469897881317,,,,,,,0.07,0.3,0.97,-12.2,0.8,-0.6,2000,1992,,,,,,,,,,,,,,,,,
8706,1469897881337,,,,,,,0.06,0.28,0.96,-12.2,0.4,-0.4,1940,1981,,,,,,,,,,,,,,,,,
8726,1469897881357,,,,,,,0.05,0.3,0.99,-12.3,0.1,-0.4,1960,1981,,,,,,,,,,,,,,,,,
8746,1469897881377,,,,52,,,0.03,0.31,0.99,-12.3,-0.3,-0.3,1980,1981,1.007,4,39.536179,-122.32682,34.7,0.035,294.3,10,2,1.5,0,0.0,-1,0.0,,0.0,0
8766,1469897881397,,,,,,,0.01,0.3,0.99,-12.3,-0.9,0.0,2000,1981,,,,,,,,,,,,,,,,,
8786,1469897881417,,,,,,,0.03,0.31,0.99,-12.5,-1.2,0.2,1940,1976,,,,,,,,,,,,,,,,,
8806,1469897881437,,,,,,,0.02,0.31,0.99,-12.6,-1.3,0.3,1960,1981,,,,,,,,,,,,,,,,,
8826,1469897881457,,,,,,,0.02,0.31,0.98,-12.6,-1.0,0.2,2000,1981,,,,,,,,,,,,,,,,,
8846,1469897881477,0,180.8,175.5,54,174.8,,0.01,0.33,0.99,-12.6,-1.0,0.2,1940,1986,0.992,4,39.536194,-122.326813,34.71,0.036,293.9,10,2,1.5,0,0.0,-1,0.0,0.0,0.0,0
8866,1469897881497,,,,,,,0.0,0.32,0.98,-12.7,-0.9,0.3,1980,1996,,,,,,,,,,,,,,,,,
8886,1469897881616,,,,,,,-0.0,0.32,0.95,-12.6,-1.5,0.4,2020,1996,,,,,,,,,,,,,,,,,
8906,1469897881636,,,,,,,-0.01,0.34,0.96,-12.7,-1.6,0.5,1940,1981,,,,,,,,,,,,,,,,,
8926,1469897881656,,,,,,,-0.01,0.32,0.98,-12.8,-1.9,0.6,1960,1981,,,,,,,,,,,,,,,,,
8946,1469897881676,,,,50,,,-0.01,0.32,0.97,-12.7,-1.9,0.5,1960,1986,0.999,4,39.536217,-122.326782,34.72,0.039,293.3,10,2,1.5,0,0.0,-1,0.0,,0.0,0
8966,1469897881696,,,,,,,-0.03,0.32,0.99,-12.8,-2.0,0.6,1960,1981,,,,,,,,,,,,,,,,,
8986,1469897881716,,,,,,,-0.03,0.34,1.0,-12.9,-1.8,0.5,1980,1996,,,,,,,,,,,,,,,,,
9006,1469897881736,,,,,,,-0.03,0.33,0.98,-12.9,-1.5,0.5,2020,1986,,,,,,,,,,,,,,,,,
9026,1469897881756,,,,,,,-0.03,0.33,0.98,-12.8,-1.8,0.5,1940,1976,,,,,,,,,,,,,,,,,
9046,1469897881776,0,181.9,174.7,52,174.1,14.41,-0.04,0.34,0.99,-12.9,-1.1,0.5,1960,1996,0.987,4,39.536217,-122.326782,34.72,0.039,293.3,10,2,1.5,0,0.0,-1,0.0,0.0,0.0,0
9066,1469897881796,,,,,,,-0.04,0.31,0.98,-12.9,-1.2,0.4,2020,1986,,,,,,,,,,,,,,,,,
9086,1469897881717,,,,,,,-0.04,0.32,0.99,-12.9,-0.8,0.2,1960,1981,,,,,,,,,,,,,,,,,
9106,1469897881737,,,,,,,-0.05,0.32,0.99,-12.9,-0.5,0.3,2000,1986,,,,,,,,,,,,,,,,,
9126,1469897881757,,,,,,,-0.05,0.33,0.99,-13.0,-0.5,0.4,2020,1986,,,,,,,,,,,,,,,,,
9146,1469897881777,,,,58,,,-0.06,0.32,0.99,-13.0,-0.4,0.4,1960,1981,0.987,4,39.536228,-122.326782,34.86,0.039,293.0,10,2,1.5,0,0.0,-1,0.0,,0.0,0
9166,1469897881797,,,,,,,-0.05,0.31,1.01,-12.9,-0.3,0.2,2000,1981,,,,,,,,,,,,,,,,,
9186,1469897881817,,,,,,,-0.06,0.34,0.99,-12.9,-0.2,0.1,1980,1981,,,,,,,,,,,,,,,,,
9206,1469897881837,,,,,,,-0.05,0.32,1.0,-13.0,-0.4,0.1,2000,1981,,,,,,,,,,,,,,,,,
9226,1469897881857,,,,,,,-0.06,0.32,1.01,-13.2,0.1,0.2,2000,1996,,,,,,,,,,,,,,,,,
9246,1469897881877,0,181.6,175.7,58,174.6,,-0.07,0.33,0.99,-13.2,-0.2,0.3,1960,1986,0.984,4,39.53624,-122.326775,34.95,0.04,292.7,10,2,1.5,0,0.0,-1,0.0,0.0,0.0,0
9266,1469897881897,,,,,,,-0.06,0.32,1.0,-13.2,-0.2,0.4,1980,1981,,,,,,,,,,,,,,,,,
9286,1469897881911,,,,,,,-0.06,0.32,0.99,-13.2,0.2,0.7,1960,1992,,,,,,,,,,,,,,,,,
9306,1469897881931,,,,,,,-0.06,0.34,0.98,-13.3,0.2,0.6,1980,1986,,,,,,,,,,,,,,,,,
9326,1469897881951,,,,,,,-0.06,0.35,0.99,-13.2,0.1,0.1,2000,1986,,,,,,,,,,,,,,,,,
9346,1469897881971,,,,60,,,-0.04,0.34,0.98,-13.2,0.9,-0.1,1940,1981,1.012,4,39.536251,-122.326759,34.79,0.041,292.5,10,2,1.5,0,0.0,-1,0.0,,0.0,0
9366,1469897881991,,,,,,,-0.04,0.36,0.98,-13.2,0.7,-0.1,1980,1996,,,,,,,,,,,,,,,,,
9386,1469897882014,,,,,,,-0.03,0.36,0.98,-13.2,0.4,-0.2,2020,1996,,,,,,,,,,,,,,,,,
9406,1469897882034,,,,,,,-0.02,0.36,1.01,-13.2,1.1,-0.1,1940,1986,,,,,,,,,,,,,,,,,
9426,1469897882054,,,,,,,-0.01,0.34,0.96,-13.3,1.2,-0.3,1960,1996,,,,,,,,,,,,,,,,,
9446,1469897882074,0,180.6,175.5,51,174.7,,-0.02,0.35,0.97,-13.3,1.3,-0.5,1960,1986,1.004,4,39.536262,-122.326759,34.81,0.042,292.4,10,2,1.5,0,0.0,-1,0.0,0.0,0.0,0
9466,1469897882094,,,,,,,-0.01,0.35,0.98,-13.2,1.6,-0.4,1980,1996,,,,,,,,,,,,,,,,,
9486,1469897882118,,,,,,,-0.01,0.36,0.97,-13.1,1.9,-0.6,1960,2003,,,,,,,,,,,,,,,,,
9506,1469897882138,,,,,,,-0.01,0.35,0.95,-13.1,1.9,-0.5,1960,1986,,,,,,,,,,,,,,,,,
9526,1469897882158,,,,,,,0.01,0.36,0.96,-13.0,2.1,-0.3,1960,1996,,,,,,,,,,,,,,,,,
9546,1469897882178,,,,49,,,0.03,0.37,0.95,-13.1,2.3,-0.4,1980,1996,0.997,4,39.536274,-122.326744,34.94,0.043,292.2,10,2,1.5,0,0.0,-1,0.0,,0.0,0
9566,1469897882198,,,,,,,0.03,0.33,0.95,-13.1,2.5,-0.6,2020,1986,,,,,,,,,,,,,,,,,
9586,1469897882218,,,,,,,0.04,0.35,0.96,-13.1,2.7,-0.7,1940,1996,,,,,,,,,,,,,,,,,
9606,1469897882238,,,,,,,0.04,0.34,0.95,-13.1,2.4,-0.9,1980,1996,,,,,,,,,,,,,,,,,
9626,1469897882258,,,,,,,0.04,0.33,0.96,-13.2,2.5,-0.9,2020,1996,,,,,,,,,,,,,,,,,
9646,1469897882278,0,182.3,174.6,57,173.9,,0.05,0.33,0.97,-13.1,2.3,-0.8,1940,1992,0.989,4,39.536289,-122.326736,34.89,0.044,292.0,10,2,1.5,0,0.0,-1,0.0,0.0,0.0,0
9666,1469897882298,,,,,,,0.04,0.33,0.95,-13.1,2.2,-0.5,1960,1996,,,,,,,,,,,,,,,,,
9686,1469897882417,,,,,,,0.03,0.32,0.95,-13.2,2.0,-0.5,1980,1992,,,,,,,,,,,,,,,,,
9706,1469897882437,,,,,,,0.05,0.32,0.95,-13.1,1.8,-0.6,2000,1986,,,,,,,,,,,,,,,,,
9726,1469897882457,,,,,,,0.04,0.33,0.95,-13.1,2.1,-0.5,2000,1996,,,,,,,,,,,,,,,,,
9746,1469897882477,,,,63,,,0.05,0.32,0.93,-13.2,1.8,-0.4,1960,1996,1.002,4,39.536316,-122.326721,35.0,0.047,291.6,10,2,1.5,0,0.0,-1,0.0,,0.0,0
9766,1469897882497,,,,,,,0.06,0.32,0.94,-13.2,1.8,-0.4,1960,1986,,,,,,,,,,,,,,,,,
9786,1469897882517,,,,,,,0.07,0.31,0.94,-13.2,1.8,-0.5,1960,1996,,,,,,,,,,,,,,,,,
9806,1469897882537,,,,,,,0.08,0.32,0.94,-13.3,2.0,-0.4,2000,1986,,,,,,,,,,,,,,,,,
9826,1469897882557,,,,,,,0.08,0.34,0.95,-13.4,2.1,-0.5,1960,2003,,,,,,,,,,,,,,,,,
9846,1469897882577,0,181.4,175.9,56,174.8,,0.08,0.34,0.96,-13.3,2.3,-0.4,1960,1996,0.992,4,39.536316,-122.326721,35.0,0.047,291.6,10,2,1.5,0,0.0,-1,0.0,0.0,0.0,0
9866,1469897882597,,,,,,,0.08,0.32,0.96,-13.4,2.4,-0.3,1980,1986,,,,,,,,,,,,,,,,,
9886,1469897882515,,,,,,,0.08,0.34,0.96,-13.4,2.4,-0.2,1980,2003,,,,,,,,,,,,,,,,,
9906,1469897882535,,,,,,,0.08,0.32,0.97,-13.3,2.6,-0.2,1980,1996,,,,,,,,,,,,,,,,,
9926,1469897882555,,,,,,,0.09,0.3,0.97,-13.2,2.4,-0.2,2000,1986,,,,,,,,,,,,,,,,,
9946,1469897882575,,,,56,,,0.1,0.33,0.97,-13.1,2.3,-0.4,1980,2003,0.999,4,39.536327,-122.326721,34.93,0.047,291.4,10,2,1.5,0,0.0,-1,0.0,,0.0,0
9966,1469897882595,,,,,,,0.09,0.34,0.99,-13.1,2.4,-0.6,2020,1996,,,,,,,,,,,,,,,,,
9986,1469897882615,,,,,,,0.09,0.33,0.97,-13.1,1.9,-0.5,2020,1986,,,,,,,,,,,,,,,,,
10006,1469897882635,,,,,,,0.1,0.32,0.96,-13.0,1.5,-0.4,1940,1996,,,,,,,,,,,,,,,,,
10026,1469897882655,,,,,,,0.1,0.32,0.97,-12.9,1.2,-0.4,2020,1992,,,,,,,,,,,,,,,,,
10046,1469897882675,0,182.1,174.6,50,173.9,14.44,0.08,0.32,0.96,-13.0,1.0,-0.4,2000,1986,0.979,4,39.536339,-122.326706,34.81,0.048,291.2,10,2,1.5,0,0.0,-1,0.0,0.0,0.0,0
10066,1469897882695,,,,,,,0.1,0.32,0.96,-13.0,0.6,-0.5,1980,1981,,,,,,,,,,,,,,,,,
10086,1469897882715,,,,,,,0.09,0.33,0.96,-13.0,0.7,-0.6,2020,1986,,,,,,,,,,,,,,,,,
10106,1469897882735,,,,,,,0.08,0.31,0.97,-13.0,0.6,-0.5,2020,1996,,,,,,,,,,,,,,,,,
10126,1469897882755,,,,,,,0.1,0.31,0.97,-13.0,0.7,-0.3,1940,1981,,,,,,,,,,,,,,,,,
10146,1469897882775,,,,52,,,0.11,0.32,0.99,-13.1,0.7,-0.2,1960,1996,0.977,4,39.536354,-122.326706,34.9,0.05,291.0,10,2,1.5,0,0.0,-1,0.0,,0.0,0
10166,1469897882795,,,,,,,0.11,0.3,1.0,-13.1,0.5,-0.1,1980,1992,,,,,,,,,,,,,,,,,
10186,1469897882817,,,,,,,0.1,0.29,1.0,-13.2,0.5,0.2,1980,1996,,,,,,,,,,,,,,,,,
10206,1469897882837,,,,,,,0.1,0.31,1.0,-13.1,0.7,0.1,1960,1996,,,,,,,,,,,,,,,,,
10226,1469897882857,,,,,,,0.09,0.28,1.02,-13.1,0.8,-0.1,1980,1996,,,,,,,,,,,,,,,,,
10246,1469897882877,0,181.7,175.6,54,174.8,,0.09,0.26,1.0,-13.0,0.6,-0.0,1980,1996,1.012,4,39.536366,-122.326698,34.97,0.05,290.8,10,2,1.5,0,0.0,-1,0.0,0.0,0.0,0
10266,1469897882897,,,,,,,0.1,0.25,1.01,-13.0,0.6,0.1,2000,1986,,,,,,,,,,,,,,,,,
10286,1469897882912,,,,,,,0.08,0.26,1.01,-12.8,0.4,0.4,2020,1986,,,,,,,,,,,,,,,,,
10306,1469897882932,,,,,,,0.08,0.25,1.0,-12.9,0.3,0.5,1960,1992,,,,,,,,,,,,,,,,,
10326,1469897882952,,,,,,,0.05,0.27,0.98,-12.9,0.1,0.6,1980,1992,,,,,,,,,,,,,,,,,
10346,1469897882972,,,,58,,,0.05,0.26,0.99,-12.6,-0.1,0.8,2000,1996,0.982,4,39.536381,-122.326698,34.98,0.051,290.7,10,2,1.5,0,0.0,-1,0.0,,0.0,0
10366,1469897882992,,,,,,,0.05,0.28,0.97,-12.6,0.0,1.0,2000,1981,,,,,,,,,,,,,,,,,
10386,1469897883018,,,,,,,0.05,0.3,0.97,-12.5,-0.5,0.9,1960,1992,,,,,,,,,,,,,,,,,
10406,1469897883038,,,,,,,0.04,0.29,0.98,-12.5,-0.4,0.7,1980,1996,,,,,,,,,,,,,,,,,
10426,1469897883058,,,,,,,0.04,0.3,0.95,-12.5,-0.0,0.6,1980,1986,,,,,,,,,,,,,,,,,
10446,1469897883078,0,181.1,175.1,57,175.2,,0.06,0.29,0.95,-12.5,-0.2,0.5,1980,1986,0.987,4,39.536392,-122.326683,34.9,0.053,290.6,10,2,1.5,0,0.0,-1,0.0,0.0,0.0,0
10466,1469897883098,,,,,,,0.05,0.31,0.95,-12.5,-0.1,0.6,2000,1992,,,,,,,,,,,,,,,,,
10486,1469897883217,,,,,,,0.06,0.31,0.93,-12.5,-0.4,0.7,1960,1986,,,,,,,,,,,,,,,,,
10506,1469897883237,,,,,,,0.07,0.32,0.93,-12.6,-0.3,0.6,1960,1992,,,,,,,,,,,,,,,,,
10526,1469897883257,,,,,,,0.06,0.34,0.95,-12.7,-0.2,0.6,2000,1986,,,,,,,,,,,,,,,,,
10546,1469897883277,,,,51,,,0.06,0.32,0.93,-12.6,-0.2,0.5,1940,1986,0.992,4,39.536419,-122.326683,34.94,0.054,290.4,10,2,1.5,0,0.0,-1,0.0,,0.0,0
10566,1469897883297,,,,,,,0.05,0.35,0.93,-12.5,-0.4,0.1,1980,1981,,,,,,,,,,,,,,,,,
10586,1469897883317,,,,,,,0.04,0.34,0.94,-12.4,-0.2,0.1,2000,1992,,,,,,,,,,,,,,,,,
10606,1469897883337,,,,,,,0.04,0.3,0.94,-12.3,-0.1,0.1,1980,1986,,,,,,,,,,,,,,,,,
10626,1469897883357,,,,,,,0.03,0.3,0.93,-12.2,-0.3,0.1,1960,1986,,,,,,,,,,,,,,,,,
10646,1469897883377,0,181.2,175.2,55,175.2,,0.02,0.3,0.94,-12.2,-0.1,0.2,1980,1992,1.004,4,39.536419,-122.326683,34.94,0.054,290.4,10,2,1.5,0,0.0,-1,0.0,0.0,0.0,0
10666,1469897883397,,,,,,,0.02,0.31,0.93,-12.3,-0.1,0.2,1980,1981,,,,,,,,,,,,,,,,,
10686,1469897883318,,,,,,,0.02,0.31,0.93,-12.2,-0.1,0.0,1960,1981,,,,,,,,,,,,,,,,,
10706,1469897883338,,,,,,,0.01,0.32,0.94,-12.1,-0.3,-0.0,1960,1981,,,,,,,,,,,,,,,,,
10726,1469897883358,,,,,,,0.0,0.33,0.93,-12.0,0.0,0.0,1960,1986,,,,,,,,,,,,,,,,,
10746,1469897883378,,,,56,,,0.01,0.29,0.93,-11.9,-0.3,0.1,1960,1981,0.999,4,39.536434,-122.326668,34.88,0.056,290.3,10,2,1.5,0,0.0,-1,0.0,,0.0,0
10766,1469897883398,,,,,,,-0.0,0.3,0.97,-12.0,-0.2,0.1,2000,1986,,,,,,,,,,,,,,,,,
10786,1469897883415,,,,,,,-0.01,0.32,0.97,-11.9,-0.0,0.2,1960,1976,,,,,,,,,,,,,,,,,
10806,1469897883435,,,,,,,-0.01,0.29,0.97,-11.9,-0.5,0.1,1960,1972,,,,,,,,,,,,,,,,,
10826,1469897883455,,,,,,,-0.02,0.3,0.97,-11.9,-0.4,0.1,1980,1981,,,,,,,,,,,,,,,,,
10846,1469897883475,1,181.2,175.2,52,175.2,,0.0,0.32,0.98,-12.0,-0.3,0.0,1960,1981,0.992,4,39.536449,-122.326668,34.81,0.057,290.3,10,2,1.5,0,0.0,-1,0.0,0.0,0.0,0
10866,1469897883495,,,,,,,0.0,0.3,0.99,-11.8,-0.1,-0.1,1980,1976,,,,,,,,,,,,,,,,,
10886,1469897883516,,,,,,,0.01,0.31,1.0,-11.7,-0.0,-0.1,1980,1981,,,,,,,,,,,,,,,,,
10906,1469897883536,,,,,,,0.02,0.32,1.01,-11.7,0.5,-0.1,1980,1976,,,,,,,,,,,,,,,,,
10926,1469897883556,,,,,,,0.01,0.32,1.01,-11.8,0.9,-0.2,1980,1972,,,,,,,,,,,,,,,,,
10946,1469897883576,,,,54,,,0.02,0.3,0.98,-11.8,1.0,-0.1,2000,1981,0.992,4,39.536461,-122.32666,34.77,0.058,290.2,10,2,1.5,0,0.0,-1,0.0,,0.0,0
10966,1469897883596,,,,,,,0.02,0.32,0.95,-11.7,0.9,-0.1,1980,1986,,,,,,,,,,,,,,,,,
10986,1469897883607,,,,,,,0.02,0.32,0.96,-11.7,0.9,-0.1,1940,1981,,,,,,,,,,,,,,,,,
11006,1469897883627,,,,,,,0.02,0.3,0.96,-11.7,0.9,-0.0,1960,1976,,,,,,,,,,,,,,,,,
11026,1469897883647,,,,,,,0.03,0.31,0.96,-11.6,0.7,-0.2,1960,1981,,,,,,,,,,,,,,,,,
11046,1469897883667,0,181.9,175.4,57,174.4,14.38,0.03,0.3,0.98,-11.6,0.6,-0.3,1940,1981,0.989,4,39.536472,-122.32666,34.74,0.059,290.2,10,2,1.5,0,0.0,-1,0.0,0.0,0.0,0
11066,1469897883687,,,,,,,0.02,0.29,0.97,-11.5,0.9,-0.5,1940,1981,,,,,,,,,,,,,,,,,
11086,1469897883708,,,,,,,0.03,0.31,0.98,-11.6,1.0,-0.6,1940,1981,,,,,,,,,,,,,,,,,
11106,1469897883728,,,,,,,0.03,0.31,1.0,-11.7,0.7,-0.7,1940,1976,,,,,,,,,,,,,,,,,
11126,1469897883748,,,,,,,0.03,0.29,0.99,-11.6,0.9,-0.6,1940,1976,,,,,,,,,,,,,,,,,
11146,1469897883768,,,,53,,,0.06,0.28,0.99,-11.5,0.4,-0.5,1960,1976,1.002,4,39.536488,-122.32666,34.58,0.06,290.2,10,2,1.5,0,0.0,-1,0.0,,0.0,0
11166,1469897883788,,,,,,,0.06,0.27,1.0,-11.5,0.7,-0.6,1940,1976,,,,,,,,,,,,,,,,,
11186,1469897883810,,,,,,,0.08,0.29,1.0,-11.6,1.2,-0.7,1960,1976,,,,,,,,,,,,,,,,,
11206,1469897883830,,,,,,,0.08,0.3,1.0,-11.6,0.9,-0.6,1960,1976,,,,,,,,,,,,,,,,,
11226,1469897883850,,,,,,,0.07,0.3,1.0,-11.7,0.8,-0.5,1980,1972,,,,,,,,,,,,,,,,,
11246,1469897883870,0,181.4,175.3,56,175.2,,0.08,0.31,0.99,-11.7,0.6,-0.4,1960,1966,0.989,4,39.536499,-122.32666,34.75,0.06,290.1,10,2,1.5,0,0.0,-1,0.0,0.0,0.0,0
11266,1469897883890,,,,,,,0.07,0.31,0.98,-11.7,0.6,-0.5,1960,1976,,,,,,,,,,,,,,,,,
11286,1469897884004,,,,,,,0.1,0.3,0.99,-11.7,0.1,-0.3,1940,1976,,,,,,,,,,,,,,,,,
11306,1469897884024,,,,,,,0.07,0.3,0.95,-11.7,-0.1,-0.3,1960,1976,,,,,,,,,,,,,,,,,
11326,1469897884044,,,,,,,0.08,0.29,0.98,-11.7,-0.7,-0.5,1960,1976,,,,,,,,,,,,,,,,,
11346,1469897884064,,,,47,,,0.07,0.29,0.99,-11.5,-0.8,-0.4,1980,1981,0.999,4,39.53653,-122.326645,34.73,0.063,290.1,10,2,1.5,0,0.0,-1,0.0,,0.0,0
11366,1469897884084,,,,,,,0.09,0.3,0.97,-11.6,-1.4,-0.2,1980,1976,,,,,,,,,,,,,,,,,
11386,1469897884104,,,,,,,0.1,0.31,0.96,-11.6,-1.5,-0.1,1980,1972,,,,,,,,,,,,,,,,,
11406,1469897884124,,,,,,,0.09,0.3,0.97,-11.6,-1.4,0.1,1960,1976,,,,,,,,,,,,,,,,,
11426,1469897884144,,,,,,,0.09,0.28,0.96,-11.5,-1.0,0.1,1960,1976,,,,,,,,,,,,,,,,,
11446,1469897884164,0,182.3,175.9,53,174.0,,0.08,0.3,0.97,-11.5,-1.3,-0.2,1960,1972,0.982,4,39.53653,-122.326645,34.73,0.063,290.1,10,2,1.5,0,0.0,-1,0.0,0.0,0.0,0
11466,1469897884184,,,,,,,0.08,0.3,0.99,-11.5,-1.2,-0.1,1960,1976,,,,,,,,,,,,,,,,,
11486,1469897884110,,,,,,,0.07,0.31,0.99,-11.5,-1.2,-0.1,1960,1966,,,,,,,,,,,,,,,,,
11506,1469897884130,,,,,,,0.05,0.3,0.99,-11.4,-1.3,-0.1,1960,1966,,,,,,,,,,,,,,,,,
11526,1469897884150,,,,,,,0.04,0.28,1.01,-11.5,-1.5,0.0,1940,1966,,,,,,,,,,,,,,,,,
11546,1469897884170,,,,52,,,0.04,0.29,0.98,-11.4,-1.7,0.1,1960,1976,0.984,4,39.536541,-122.326645,34.58,0.064,290.0,10,2,1.5,0,0.0,-1,0.0,,0.0,0
11566,1469897884190,,,,,,,0.05,0.28,0.97,-11.4,-1.8,0.1,1940,1956,,,,,,,,,,,,,,,,,
11586,1469897884210,,,,,,,0.04,0.27,0.99,-11.5,-1.5,0.2,1960,1976,,,,,,,,,,,,,,,,,
11606,1469897884230,,,,,,,0.04,0.28,1.01,-11.5,-1.4,0.1,1980,1976,,,,,,,,,,,,,,,,,
11626,1469897884250,,,,,,,0.03,0.26,1.01,-11.4,-1.3,0.0,1960,1961,,,,,,,,,,,,,,,,,
11646,1469897884270,0,181.2,175.1,51,175.1,,0.03,0.28,1.0,-11.5,-0.9,0.0,1940,1972,0.994,4,39.536552,-122.326645,34.58,0.064,290.1,10,2,1.5,0,0.0,-1,0.0,0.0,0.0,0
11666,1469897884290,,,,,,,0.03,0.29,1.0,-11.5,-0.6,0.0,1980,1966,,,,,,,,,,,,,,,,,
11686,1469897884310,,,,,,,0.01,0.27,1.01,-11.4,-0.4,-0.1,1940,1961,,,,,,,,,,,,,,,,,
11706,1469897884330,,,,,,,0.01,0.27,1.0,-11.3,-0.2,-0.1,1940,1961,,,,,,,,,,,,,,,,,
11726,1469897884350,,,,,,,0.02,0.28,0.99,-11.3,-0.1,-0.0,1940,1976,,,,,,,,,,,,,,,,,
11746,1469897884370,,,,54,,,0.02,0.29,0.99,-11.4,0.2,-0.0,1960,1961,0.997,4,39.536572,-122.326645,34.64,0.066,290.1,10,2,1.5,0,0.0,-1,0.0,,0.0,0
11766,1469897884390,,,,,,,0.02,0.29,0.99,-11.5,0.2,-0.0,1940,1976,,,,,,,,,,,,,,,,,
11786,1469897884408,,,,,,,0.02,0.29,0.98,-11.5,0.3,-0.1,1940,1966,,,,,,,,,,,,,,,,,
11806,1469897884428,,,,,,,0.02,0.29,0.96,-11.6,0.4,-0.1,1940,1961,,,,,,,,,,,,,,,,,
11826,1469897884448,,,,,,,0.04,0.29,0.95,-11.6,0.1,-0.0,1960,1966,,,,,,,,,,,,,,,,,
11846,1469897884468,0,181.8,175.3,59,174.1,,0.04,0.29,0.97,-11.5,0.3,-0.0,1980,1966,0.987,4,39.536583,-122.326645,34.56,0.066,290.1,10,2,1.5,0,0.0,-1,0.0,0.0,0.0,0
11866,1469897884488,,,,,,,0.03,0.29,0.98,-11.6,0.1,-0.0,1940,1966,,,,,,,,,,,,,,,,,
11886,1469897884505,,,,,,,0.04,0.28,0.97,-11.5,0.3,-0.0,1960,1956,,,,,,,,,,,,,,,,,
11906,1469897884525,,,,,,,0.05,0.3,0.98,-11.5,0.3,-0.1,1940,1961,,,,,,,,,,,,,,,,,
11926,1469897884545,,,,,,,0.06,0.29,0.99,-11.7,0.3,-0.0,1940,1961,,,,,,,,,,,,,,,,,
11946,1469897884565,,,,51,,,0.06,0.29,0.97,-11.8,0.5,-0.2,1940,1956,0.989,4,39.536594,-122.32663,34.46,0.068,290.1,10,2,1.5,0,0.0,-1,0.0,,0.0,0
11966,1469897884585,,,,,,,0.07,0.29,0.98,-11.8,0.3,-0.3,1980,1961,,,,,,,,,,,,,,,,,
11986,1469897884607,,,,,,,0.06,0.27,0.98,-11.7,0.5,-0.2,1980,1966,,,,,,,,,,,,,,,,,
12006,1469897884627,,,,,,,0.07,0.27,0.96,-11.6,0.0,-0.3,1960,1961,,,,,,,,,,,,,,,,,
12026,1469897884647,,,,,,,0.06,0.27,0.98,-11.6,0.1,-0.3,1960,1966,,,,,,,,,,,,,,,,,
12046,1469897884667,0,180.9,174.8,54,174.6,14.45,0.05,0.27,0.98,-11.7,0.1,-0.5,1980,1966,0.987,4,39.53661,-122.32663,34.46,0.069,290.0,10,2,1.5,0,0.0,-1,0.0,0.0,0.0,0
12066,1469897884687,,,,,,,0.04,0.28,0.95,-11.7,-0.3,-0.5,1920,1966,,,,,,,,,,,,,,,,,
12086,1469897884806,,,,,,,0.03,0.3,0.95,-11.7,-0.3,-0.6,1940,1956,,,,,,,,,,,,,,,,,
12106,1469897884826,,,,,,,0.03,0.3,0.98,-11.9,-0.2,-0.6,1980,1972,,,,,,,,,,,,,,,,,
12126,1469897884846,,,,,,,0.03,0.3,0.98,-11.8,-0.1,-0.6,1920,1961,,,,,,,,,,,,,,,,,
12146,1469897884866,,,,53,,,0.03,0.28,0.99,-11.6,-0.3,-0.8,1980,1956,1.002,4,39.536636,-122.32663,34.37,0.07,289.9,10,2,1.5,0,0.0,-1,0.0,,0.0,0
12166,1469897884886,,,,,,,0.01,0.29,1.01,-11.7,-0.2,-0.8,1940,1956,,,,,,,,,,,,,,,,,
12186,1469897884906,,,,,,,0.01,0.29,1.01,-11.8,0.1,-0.9,1940,1956,,,,,,,,,,,,,,,,,
12206,1469897884926,,,,,,,0.01,0.27,1.02,-11.7,0.3,-0.9,1920,1956,,,,,,,,,,,,,,,,,
12226,1469897884946,,,,,,,-0.0,0.28,1.01,-11.7,0.5,-1.0,1940,1956,,,,,,,,,,,,,,,,,
12246,1469897884966,0,182.2,175.6,59,174.2,,-0.0,0.28,1.0,-11.8,0.5,-1.2,1940,1966,1.007,4,39.536636,-122.32663,34.37,0.07,289.9,10,2,1.5,0,0.0,-1,0.0,0.0,0.0,0
12266,1469897884986,,,,,,,-0.0,0.29,1.0,-11.8,0.4,-1.2,1940,1956,,,,,,,,,,,,,,,,,
12286,1469897884905,,,,,,,0.01,0.32,1.01,-11.9,0.7,-1.3,1980,1956,,,,,,,,,,,,,,,,,
12306,1469897884925,,,,,,,0.03,0.31,1.01,-11.9,0.9,-1.2,1960,1961,,,,,,,,,,,,,,,,,
12326,1469897884945,,,,,,,0.02,0.32,1.01,-12.0,1.0,-1.1,1960,1952,,,,,,,,,,,,,,,,,
12346,1469897884965,,,,66,,,0.04,0.33,1.0,-12.0,0.6,-1.0,1960,1961,0.977,4,39.536652,-122.32663,34.32,0.072,289.9,10,2,1.5,0,0.0,-1,0.0,,0.0,0
12366,1469897884985,,,,,,,0.06,0.29,0.99,-11.8,0.9,-0.9,1940,1956,,,,,,,,,,,,,,,,,
12386,1469897885009,,,,,,,0.06,0.28,0.98,-11.8,1.0,-0.8,1960,1956,,,,,,,,,,,,,,,,,
12406,1469897885029,,,,,,,0.07,0.31,0.98,-11.9,1.2,-0.7,1960,1956,,,,,,,,,,,,,,,,,
12426,1469897885049,,,,,,,0.06,0.3,0.98,-12.0,1.1,-0.7,1960,1956,,,,,,,,,,,,,,,,,
12446,1469897885069,0,181.4,175.2,58,174.6,,0.04,0.29,0.98,-12.0,1.0,-0.7,1960,1961,0.987,4,39.536667,-122.32663,34.34,0.073,289.9,10,2,1.5,0,0.0,-1,0.0,0.0,0.0,0
12466,1469897885089,,,,,,,0.05,0.28,0.97,-11.9,0.8,-0.6,1960,1952,,,,,,,,,,,,,,,,,
12486,1469897885109,,,,,,,0.04,0.26,1.0,-11.8,0.8,-0.6,1940,1956,,,,,,,,,,,,,,,,,
12506,1469897885129,,,,,,,0.03,0.26,1.03,-11.8,1.1,-0.6,1960,1956,,,,,,,,,,,,,,,,,
12526,1469897885149,,,,,,,0.02,0.27,1.03,-11.7,1.1,-0.5,1940,1961,,,,,,,,,,,,,,,,,
12546,1469897885169,,,,59,,,0.01,0.27,1.03,-11.8,1.1,-0.4,1940,1952,0.984,4,39.536678,-122.32663,34.3,0.073,289.8,10,2,1.5,0,0.0,-1,0.0,,0.0,0
12566,1469897885189,,,,,,,-0.01,0.28,1.02,-11.9,0.9,-0.1,1940,1956,,,,,,,,,,,,,,,,,
12586,1469897885210,,,,,,,-0.01,0.29,1.02,-11.9,0.8,0.0,1960,1952,,,,,,,,,,,,,,,,,
12606,1469897885230,,,,,,,-0.01,0.29,1.03,-11.9,0.9,0.0,1940,1946,,,,,,,,,,,,,,,,,
12626,1469897885250,,,,,,,-0.01,0.3,1.01,-11.9,0.6,0.1,1920,1956,,,,,,,,,,,,,,,,,
12646,1469897885270,0,181.1,174.9,56,174.2,,0.0,0.29,1.01,-11.8,0.4,0.2,1940,1952,0.997,4,39.53669,-122.32663,34.34,0.074,289.8,10,2,1.5,0,0.0,-1,0.0,0.0,0.0,0
12666,1469897885290,,,,,,,0.0,0.3,1.03,-12.0,0.9,0.1,1940,1952,,,,,,,,,,,,,,,,,
12686,1469897885310,,,,,,,0.01,0.3,1.04,-12.0,1.3,0.1,1960,1956,,,,,,,,,,,,,,,,,
12706,1469897885330,,,,,,,-0.0,0.3,1.02,-11.9,1.3,0.0,1940,1956,,,,,,,,,,,,,,,,,
12726,1469897885350,,,,,,,0.01,0.32,1.01,-12.0,1.1,-0.0,1940,1952,,,,,,,,,,,,,,,,,
12746,1469897885370,,,,57,,,0.03,0.3,1.0,-12.0,1.2,0.0,1940,1956,1.004,4,39.536709,-122.32663,34.21,0.075,289.8,10,2,1.5,0,0.0,-1,0.0,,0.0,0
12766,1469897885390,,,,,,,0.04,0.3,1.0,-11.9,1.1,0.0,1960,1952,,,,,,,,,,,,,,,,,
12786,1469897885407,,,,,,,0.04,0.31,1.01,-11.9,1.3,-0.1,1960,1946,,,,,,,,,,,,,,,,,
12806,1469897885427,,,,,,,0.04,0.31,1.01,-12.0,1.1,-0.1,1900,1946,,,,,,,,,,,,,,,,,
12826,1469897885447,,,,,,,0.06,0.31,1.01,-12.0,0.9,-0.1,1960,1941,,,,,,,,,,,,,,,,,
12846,1469897885467,0,182.3,175.8,54,175.0,,0.06,0.29,1.01,-12.0,0.8,0.0,1960,1952,0.982,4,39.53672,-122.32663,34.23,0.076,289.8,10,2,1.5,0,0.0,-1,0.0,0.0,0.0,0
12866,1469897885487,,,,,,,0.05,0.3,1.02,-12.0,0.6,0.1,1900,1941,,,,,,,,,,,,,,,,,
12886,1469897885606,,,,,,,0.05,0.29,1.0,-12.1,0.6,0.2,1920,1946,,,,,,,,,,,,,,,,,
12906,1469897885626,,,,,,,0.03,0.28,1.0,-12.1,0.4,0.2,1940,1936,,,,,,,,,,,,,,,,,
12926,1469897885646,,,,,,,0.03,0.27,1.0,-12.1,0.5,0.2,1940,1952,,,,,,,,,,,,,,,,,
12946,1469897885666,,,,48,,,0.03,0.27,0.99,-12.0,0.5,0.3,1940,1936,1.002,4,39.536751,-122.326645,34.12,0.079,289.8,10,2,1.5,0,0.0,-1,0.0,,0.0,0
12966,1469897885686,,,,,,,0.03,0.27,0.98,-12.0,0.3,0.1,1960,1936,,,,,,,,,,,,,,,,,
12986,1469897885706,,,,,,,0.02,0.27,0.99,-12.0,0.1,0.0,1920,1936,,,,,,,,,,,,,,,,,
13006,1469897885726,,,,,,,0.01,0.27,1.0,-12.0,0.3,-0.1,1920,1936,,,,,,,,,,,,,,,,,
13026,1469897885746,,,,,,,0.0,0.26,1.0,-11.9,0.5,0.0,1900,1912,,,,,,,,,,,,,,,,,
13046,1469897885766,0,180.8,174.8,48,174.0,14.41,0.02,0.25,0.99,-11.8,0.4,0.1,1900,1912,0.994,4,39.536751,-122.326645,34.12,0.079,289.8,10,2,1.5,0,0.0,-1,0.0,0.0,0.0,0
13066,1469897885786,,,,,,,0.01,0.26,0.99,-11.8,0.7,0.1,1880,1884,,,,,,,,,,,,,,,,,
13086,1469897885707,,,,,,,0.02,0.24,0.97,-11.7,0.8,-0.0,1860,1861,,,,,,,,,,,,,,,,,
13106,1469897885727,,,,,,,0.04,0.24,0.98,-11.7,0.8,-0.2,1820,1835,,,,,,,,,,,,,,,,,
13126,1469897885747,,,,,,,0.05,0.25,0.97,-11.7,0.1,-0.3,1800,1861,,,,,,,,,,,,,,,,,
13146,1469897885767,,,,50,,,0.07,0.24,0.96,-11.7,-0.2,-0.2,1820,1861,0.973,4,39.536762,-122.326645,33.99,0.08,289.9,10,2,1.5,0,0.0,-1,0.0,,0.0,0
13166,1469897885787,,,,,,,0.08,0.23,0.96,-11.7,-0.1,-0.2,1880,1907,,,,,,,,,,,,,,,,,
13186,1469897885810,,,,,,,0.09,0.24,0.96,-11.8,0.6,-0.2,1920,1961,,,,,,,,,,,,,,,,,
13206,1469897885830,,,,,,,0.08,0.26,0.96,-11.9,0.5,-0.2,2000,1986,,,,,,,,,,,,,,,,,
13226,1469897885850,,,,,,,0.08,0.26,0.95,-11.9,0.5,-0.4,2000,1956,,,,,,,,,,,,,,,,,
13246,1469897885870,0,180.8,174.9,53,174.1,,0.07,0.26,0.96,-11.9,0.7,-0.4,1940,1946,0.961,4,39.536774,-122.326645,33.99,0.08,289.9,10,2,1.5,0,0.0,-1,0.0,0.0,0.0,0
13266,1469897885890,,,,,,,0.09,0.25,0.95,-12.0,0.9,-0.6,1880,1912,,,,,,,,,,,,,,,,,
13286,1469897885904,,,,,,,0.09,0.26,0.94,-12.0,1.2,-0.7,1880,1889,,,,,,,,,,,,,,,,,
13306,1469897885924,,,,,,,0.12,0.29,0.93,-12.0,1.1,-0.9,1860,1870,,,,,,,,,,,,,,,,,
13326,1469897885944,,,,,,,0.12,0.3,0.93,-12.2,1.2,-1.0,1800,1861,,,,,,,,,,,,,,,,,
13346,1469897885964,,,,59,,,0.11,0.3,0.94,-12.3,0.9,-0.9,1880,1875,0.998,4,39.536789,-122.326645,33.98,0.081,290.0,10,2,1.5,0,0.0,-1,0.0,,0.0,0
13366,1469897885984,,,,,,,0.11,0.32,0.96,-12.3,0.6,-0.8,1580,1903,,,,,,,,,,,,,,,,,
13386,1469897886001,,,,,,,0.11,0.32,0.97,-12.2,0.3,-0.8,1920,1923,,,,,,,,,,,,,,,,,
13406,1469897886021,,,,,,,0.11,0.32,0.98,-12.2,0.3,-0.8,1920,1923,,,,,,,,,,,,,,,,,
13426,1469897886041,,,,,,,0.11,0.32,0.99,-12.2,0.3,-0.7,1900,1907,,,,,,,,,,,,,,,,,
13446,1469897886061,0,180.8,175.0,52,174.2,,0.09,0.31,1.0,-12.4,0.5,-0.7,1880,1893,0.995,4,39.5368,-122.326645,33.67,0.082,290.0,10,2,1.5,0,0.0,-1,0.0,0.0,0.0,0
13466,1469897886081,,,,,,,0.09,0.29,1.0,-12.2,0.6,-0.7,1860,1880,,,,,,,,,,,,,,,,,
13486,1469897886110,,,,,,,0.1,0.31,1.0,-12.2,0.6,-0.5,1840,1870,,,,,,,,,,,,,,,,,
13506,1469897886130,,,,,,,0.12,0.3,1.01,-12.1,0.2,-0.5,1860,1870,,,,,,,,,,,,,,,,,
13526,1469897886150,,,,,,,0.14,0.3,1.02,-12.1,0.0,-0.4,1880,1880,,,,,,,,,,,,,,,,,
13546,1469897886170,,,,49,,,0.14,0.3,1.01,-12.1,-0.2,-0.3,1880,1880,1.011,4,39.536812,-122.32666,33.62,0.083,290.1,10,2,1.5,0,0.0,-1,0.0,,0.0,0
13566,1469897886190,,,,,,,0.11,0.31,1.02,-12.2,-0.2,-0.3,1880,1893,,,,,,,,,,,,,,,,,
13586,1469897886210,,,,,,,0.1,0.31,1.0,-12.1,0.1,-0.3,1900,1893,,,,,,,,,,,,,,,,,
13606,1469897886230,,,,,,,0.09,0.3,0.98,-12.2,0.4,-0.4,1900,1880,,,,,,,,,,,,,,,,,
13626,1469897886250,,,,,,,0.09,0.3,0.99,-12.2,0.5,-0.3,1860,1880,,,,,,,,,,,,,,,,,
13646,1469897886270,0,182.5,175.9,51,175.2,,0.09,0.3,1.01,-12.2,0.8,-0.3,1840,1875,0.991,4,39.536831,-122.32666,33.38,0.085,290.1,10,2,1.5,0,0.0,-1,0.0,0.0,0.0,0
13666,1469897886290,,,,,,,0.1,0.25,1.0,-12.2,0.7,-0.1,1880,1875,,,,,,,,,,,,,,,,,
13686,1469897886409,,,,,,,0.09,0.26,1.0,-12.2,0.3,0.1,1840,1861,,,,,,,,,,,,,,,,,
13706,1469897886429,,,,,,,0.08,0.27,1.0,-12.2,-0.1,0.1,1860,1856,,,,,,,,,,,,,,,,,
13726,1469897886449,,,,,,,0.07,0.27,0.99,-12.2,-0.3,0.2,1860,1866,,,,,,,,,,,,,,,,,
13746,1469897886469,,,,55,,,0.07,0.27,0.99,-12.1,-0.2,0.1,1860,1875,0.989,4,39.536854,-122.32666,33.13,0.086,290.2,10,2,1.5,0,0.0,-1,0.0,,0.0,0
13766,1469897886489,,,,,,,0.08,0.27,1.01,-12.1,-0.0,0.1,1860,1875,,,,,,,,,,,,,,,,,
13786,1469897886509,,,,,,,0.08,0.28,1.01,-12.2,0.2,0.1,1840,1856,,,,,,,,,,,,,,,,,
13806,1469897886529,,,,,,,0.08,0.27,1.0,-12.1,0.0,0.2,1860,1861,,,,,,,,,,,,,,,,,
13826,1469897886549,,,,,,,0.09,0.26,1.01,-12.1,0.0,0.2,1820,1847,,,,,,,,,,,,,,,,,
13846,1469897886569,0,180.8,174.6,54,174.0,,0.09,0.27,1.0,-12.1,-0.1,0.2,1840,1852,0.981,4,39.536854,-122.32666,33.13,0.086,290.2,10,2,1.5,0,0.0,-1,0.0,0.0,0.0,0
13866,1469897886589,,,,,,,0.08,0.28,0.99,-12.1,0.0,0.1,1860,1844,,,,,,,,,,,,,,,,,
13886,1469897886508,,,,,,,0.08,0.28,1.0,-12.1,0.1,0.0,1840,1847,,,,,,,,,,,,,,,,,
13906,1469897886528,,,,,,,0.08,0.29,1.02,-12.1,0.6,-0.0,1840,1861,,,,,,,,,,,,,,,,,
13926,1469897886548,,,,,,,0.1,0.28,1.02,-12.1,0.8,0.2,1840,1861,,,,,,,,,,,,,,,,,
13946,1469897886568,,,,50,,,0.1,0.26,1.01,-12.1,0.6,0.3,1820,1847,0.991,4,39.536869,-122.326668,33.0,0.087,290.1,10,2,1.5,0,0.0,-1,0.0,,0.0,0
13966,1469897886588,,,,,,,0.11,0.26,1.02,-12.0,0.3,0.3,1840,1840,,,,,,,,,,,,,,,,,
13986,1469897886607,,,,,,,0.09,0.25,1.01,-12.1,0.5,0.3,1840,1840,,,,,,,,,,,,,,,,,
14006,1469897886627,,,,,,,0.07,0.26,1.01,-12.1,0.6,0.3,1820,1840,,,,,,,,,,,,,,,,,
14026,1469897886647,,,,,,,0.07,0.27,0.99,-12.1,0.7,0.1,1820,1835,,,,,,,,,,,,,,,,,
14046,1469897886667,0,181.2,174.8,61,174.0,14.42,0.08,0.27,0.99,-12.0,1.0,-0.0,1840,1852,0.989,4,39.53688,-122.326668,32.83,0.088,290.1,10,2,1.5,0,0.0,-1,0.0,0.0,0.0,0
14066,1469897886687,,,,,,,0.11,0.27,0.98,-12.0,1.0,-0.0,1820,1840,,,,,,,,,,,,,,,,,
14086,1469897886707,,,,,,,0.11,0.27,0.99,-12.0,0.7,0.1,1820,1835,,,,,,,,,,,,,,,,,
14106,1469897886727,,,,,,,0.1,0.27,0.98,-12.0,0.3,0.2,1840,1821,,,,,,,,,,,,,,,,,
14126,1469897886747,,,,,,,0.1,0.27,0.98,-12.0,0.4,0.1,1840,1818,,,,,,,,,,,,,,,,,
14146,1469897886767,,,,55,,,0.09,0.26,0.98,-12.0,0.8,-0.0,1800,1830,1.003,4,39.536892,-122.326683,32.75,0.089,290.0,10,2,1.5,0,0.0,-1,0.0,,0.0,0
14166,1469897886787,,,,,,,0.1,0.26,0.99,-12.0,1.0,0.0,1800,1830,,,,,,,,,,,,,,,,,
14186,1469897886810,,,,,,,0.1,0.25,0.99,-11.9,0.8,0.3,1820,1830,,,,,,,,,,,,,,,,,
14206,1469897886830,,,,,,,0.09,0.26,0.97,-11.9,0.4,0.5,1820,1813,,,,,,,,,,,,,,,,,
14226,1469897886850,,,,,,,0.08,0.26,0.99,-12.0,0.2,0.6,1780,1809,,,,,,,,,,,,,,,,,
14246,1469897886870,0,181.9,175.5,55,175.0,,0.06,0.24,1.0,-11.9,0.4,0.6,1820,1813,0.997,4,39.536907,-122.326683,32.53,0.09,289.9,10,2,1.5,0,0.0,-1,0.0,0.0,0.0,0
14266,1469897886890,,,,,,,0.06,0.23,1.0,-11.9,0.6,0.5,1800,1818,,,,,,,,,,,,,,,,,
14286,1469897886904,,,,,,,0.07,0.23,1.01,-11.9,0.5,0.3,1800,1813,,,,,,,,,,,,,,,,,
14306,1469897886924,,,,,,,0.1,0.24,1.02,-11.9,0.3,0.3,1800,1813,,,,,,,,,,,,,,,,,
14326,1469897886944,,,,,,,0.11,0.22,1.01,-11.9,-0.0,0.3,1820,1800,,,,,,,,,,,,,,,,,
14346,1469897886964,,,,55,,,0.1,0.22,1.01,-11.9,0.1,0.4,1800,1813,1.004,4,39.536919,-122.326683,32.32,0.091,289.8,10,2,1.5,0,0.0,-1,0.0,,0.0,0
14366,1469897886984,,,,,,,0.08,0.24,1.0,-11.9,0.5,0.4,1800,1813,,,,,,,,,,,,,,,,,
14386,1469897887010,,,,,,,0.08,0.25,1.0,-12.0,0.1,0.4,1820,1809,,,,,,,,,,,,,,,,,
14406,1469897887030,,,,,,,0.1,0.26,1.0,-12.1,0.1,0.3,1800,1800,,,,,,,,,,,,,,,,,
14426,1469897887050,,,,,,,0.11,0.26,0.98,-12.0,-0.2,0.3,1760,1796,,,,,,,,,,,,,,,,,
14446,1469897887070,0,182.4,175.4,57,174.5,,0.1,0.25,0.97,-12.0,0.1,0.4,1780,1809,0.982,4,39.53693,-122.326698,32.21,0.092,289.7,10,2,1.5,0,0.0,-1,0.0,0.0,0.0,0
14466,1469897887090,,,,,,,0.09,0.26,0.96,-12.0,0.7,0.5,1800,1809,,,,,,,,,,,,,,,,,
14486,1469897887209,,,,,,,0.1,0.25,0.97,-12.0,0.8,0.6,1780,1804,,,,,,,,,,,,,,,,,
14506,1469897887229,,,,,,,0.11,0.26,0.97,-12.0,0.7,0.7,1800,1796,,,,,,,,,,,,,,,,,
14526,1469897887249,,,,,,,0.13,0.26,0.96,-12.0,0.3,0.5,1800,1780,,,,,,,,,,,,,,,,,
14546,1469897887269,,,,55,,,0.11,0.27,0.95,-11.9,0.2,0.4,1780,1792,0.995,4,39.536953,-122.326706,31.83,0.094,289.6,10,2,1.5,0,0.0,-1,0.0,,0.0,0
14566,1469897887289,,,,,,,0.11,0.26,0.96,-11.9,0.6,0.1,1760,1792,,,,,,,,,,,,,,,,,
14586,1469897887309,,,,,,,0.11,0.25,0.96,-11.9,0.7,0.0,1780,1792,,,,,,,,,,,,,,,,,
14606,1469897887329,,,,,,,0.12,0.28,0.97,-11.9,0.2,0.1,1800,1784,,,,,,,,,,,,,,,,,
14626,1469897887349,,,,,,,0.12,0.29,0.98,-11.8,-0.3,-0.0,1780,1775,,,,,,,,,,,,,,,,,
14646,1469897887369,0,180.8,174.6,53,174.0,,0.11,0.28,0.97,-11.8,0.1,-0.0,1780,1775,0.985,4,39.536953,-122.326706,31.83,0.094,289.6,10,2,1.5,0,0.0,-1,0.0,0.0,0.0,0
14666,1469897887389,,,,,,,0.12,0.28,0.98,-11.9,0.3,0.0,1740,1780,,,,,,,,,,,,,,,,,
14686,1469897887310,,,,,,,0.12,0.26,0.98,-11.9,0.8,0.1,1740,1775,,,,,,,,,,,,,,,,,
14706,1469897887330,,,,,,,0.12,0.26,0.99,-11.9,0.3,0.0,1760,1775,,,,,,,,,,,,,,,,,
14726,1469897887350,,,,,,,0.11,0.27,0.99,-11.8,0.2,-0.1,1780,1763,,,,,,,,,,,,,,,,,
14746,1469897887370,,,,55,,,0.1,0.26,0.98,-11.8,0.2,0.0,1760,1780,0.998,4,39.536968,-122.326706,31.59,0.095,289.6,10,2,1.5,0,0.0,-1,0.0,,0.0,0
14766,1469897887390,,,,,,,0.11,0.26,0.98,-11.8,0.2,0.1,1760,1780,,,,,,,,,,,,,,,,,
14786,1469897887407,,,,,,,0.12,0.26,0.97,-11.7,-0.1,0.2,1760,1767,,,,,,,,,,,,,,,,,
14806,1469897887427,,,,,,,0.11,0.27,0.98,-11.8,-0.1,0.3,1740,1755,,,,,,,,,,,,,,,,,
14826,1469897887447,,,,,,,0.1,0.27,0.98,-11.8,0.1,0.1,1740,1760,,,,,,,,,,,,,,,,,
14846,1469897887467,0,182.4,175.7,53,175.2,,0.1,0.26,1.0,-11.8,0.5,0.0,1760,1760,0.989,4,39.53698,-122.326721,31.48,0.096,289.4,10,2,1.5,0,0.0,-1,0.0,0.0,0.0,0
14866,1469897887487,,,,,,,0.11,0.26,0.99,-11.8,0.4,-0.0,1740,1760,,,,,,,,,,,,,,,,,
14886,1469897887507,,,,,,,0.11,0.26,1.0,-11.8,-0.0,0.0,1740,1750,,,,,,,,,,,,,,,,,
14906,1469897887527,,,,,,,0.1,0.26,1.0,-11.8,0.2,-0.0,1740,1760,,,,,,,,,,,,,,,,,
14926,1469897887547,,,,,,,0.1,0.25,0.99,-11.8,0.5,0.0,1760,1760,,,,,,,,,,,,,,,,,
14946,1469897887567,,,,52,,,0.11,0.26,0.99,-11.8,0.6,0.2,1740,1743,1.0,4,39.536991,-122.326721,31.23,0.097,289.4,10,2,1.5,0,0.0,-1,0.0,,0.0,0
14966,1469897887587,,,,,,,0.12,0.26,1.0,-11.8,0.8,0.2,1700,1740,,,,,,,,,,,,,,,,,
14986,1469897887607,,,,,,,0.1,0.25,1.0,-11.8,0.8,0.2,1740,1755,,,,,,,,,,,,,,,,,
15006,1469897887627,,,,,,,0.08,0.24,0.99,-11.7,1.0,0.1,1720,1755,,,,,,,,,,,,,,,,,
15026,1469897887647,,,,,,,0.09,0.22,1.0,-11.7,1.0,0.2,1740,1747,,,,,,,,,,,,,,,,,
15046,1469897887667,0,181.9,175.1,49,174.2,14.37,0.1,0.24,1.0,-11.7,0.8,0.2,1760,1740,1.0,4,39.537003,-122.326736,31.15,0.098,289.4,10,2,1.5,0,0.0,-1,0.0,0.0,0.0,0
15066,1469897887687,,,,,,,0.09,0.26,1.0,-11.6,0.6,-0.0,1760,1740,,,,,,,,,,,,,,,,,
15086,1469897887707,,,,,,,0.09,0.26,1.0,-11.7,1.0,-0.0,1740,1740,,,,,,,,,,,,,,,,,
15106,1469897887727,,,,,,,0.1,0.27,0.98,-11.6,0.9,-0.1,1700,1724,,,,,,,,,,,,,,,,,
15126,1469897887747,,,,,,,0.09,0.27,0.99,-11.6,0.5,-0.2,1700,1735,,,,,,,,,,,,,,,,,
15146,1469897887767,,,,49,,,0.09,0.26,1.0,-11.7,0.5,-0.2,1700,1740,0.985,4,39.537014,-122.326736,31.08,0.099,289.4,10,2,1.5,0,0.0,-1,0.0,,0.0,0
15166,1469897887787,,,,,,,0.08,0.26,1.0,-11.7,0.7,-0.2,1720,1740,,,,,,,,,,,,,,,,,
15186,1469897887810,,,,,,,0.08,0.26,1.0,-11.7,0.4,-0.0,1700,1727,,,,,,,,,,,,,,,,,
15206,1469897887830,,,,,,,0.07,0.28,1.0,-11.7,-0.0,-0.0,1720,1724,,,,,,,,,,,,,,,,,
15226,1469897887850,,,,,,,0.06,0.26,1.01,-11.8,0.2,-0.0,1700,1720,,,,,,,,,,,,,,,,,
15246,1469897887870,1,182.6,175.9,55,175.2,,0.08,0.26,1.01,-11.8,0.4,-0.2,1700,1716,0.993,4,39.537025,-122.326744,30.9,0.1,289.3,10,2,1.5,0,0.0,-1,0.0,0.0,0.0,0
15266,1469897887890,,,,,,,0.08,0.27,1.0,-11.7,0.2,-0.4,1720,1712,,,,,,,,,,,,,,,,,
15286,1469897888003,,,,,,,0.08,0.28,0.99,-11.7,-0.1,-0.3,1720,1724,,,,,,,,,,,,,,,,,
15306,1469897888023,,,,,,,0.09,0.26,0.99,-11.6,0.2,-0.3,1680,1724,,,,,,,,,,,,,,,,,
15326,1469897888043,,,,,,,0.09,0.25,0.98,-11.6,0.3,-0.0,1720,1716,,,,,,,,,,,,,,,,,
15346,1469897888063,,,,55,,,0.1,0.28,0.99,-11.6,0.1,0.0,1720,1709,0.993,4,39.537048,-122.326759,30.47,0.102,289.3,10,2,1.5,0,0.0,-1,0.0,,0.0,0
15366,1469897888083,,,,,,,0.09,0.26,0.98,-11.7,0.3,0.0,1700,1704,,,,,,,,,,,,,,,,,
15386,1469897888103,,,,,,,0.1,0.26,0.99,-11.7,0.8,-0.1,1680,1696,,,,,,,,,,,,,,,,,
15406,1469897888123,,,,,,,0.1,0.27,0.99,-11.7,0.7,-0.3,1700,1696,,,,,,,,,,,,,,,,,
15426,1469897888143,,,,,,,0.1,0.24,1.0,-11.6,0.7,-0.5,1700,1712,,,,,,,,,,,,,,,,,
15446,1469897888163,0,181.5,174.9,49,174.1,,0.09,0.25,1.0,-11.5,0.8,-0.5,1680,1712,0.993,4,39.537048,-122.326759,30.47,0.102,289.3,10,2,1.5,0,0.0,-1,0.0,0.0,0.0,0
15466,1469897888183,,,,,,,0.09,0.25,1.0,-11.6,0.8,-0.4,1700,1696,,,,,,,,,,,,,,,,,
15486,1469897888110,,,,,,,0.08,0.25,0.99,-11.5,0.3,-0.4,1700,1696,,,,,,,,,,,,,,,,,
15506,1469897888130,,,,,,,0.08,0.23,0.98,-11.5,0.3,-0.4,1680,1693,,,,,,,,,,,,,,,,,
15526,1469897888150,,,,,,,0.09,0.23,0.97,-11.4,0.3,-0.2,1660,1683,,,,,,,,,,,,,,,,,
15546,1469897888170,,,,52,,,0.09,0.24,0.97,-11.5,0.1,-0.3,1680,1689,0.992,4,39.537056,-122.326759,30.29,0.102,289.3,10,2,1.5,0,0.0,-1,0.0,,0.0,0
15566,1469897888190,,,,,,,0.09,0.26,0.97,-11.6,0.1,-0.4,1660,1693,,,,,,,,,,,,,,,,,
15586,1469897888210,,,,,,,0.09,0.27,0.97,-11.6,0.3,-0.3,1680,1693,,,,,,,,,,,,,,,,,
15606,1469897888230,,,,,,,0.09,0.29,0.97,-11.6,0.2,-0.1,1680,1689,,,,,,,,,,,,,,,,,
15626,1469897888250,,,,,,,0.09,0.3,0.96,-11.6,-0.1,0.0,1680,1686,,,,,,,,,,,,,,,,,
15646,1469897888270,0,181.5,174.9,49,174.4,,0.09,0.29,0.97,-11.6,0.2,0.2,1660,1678,1.004,4,39.537067,-122.326775,30.03,0.103,289.3,10,2,1.5,0,0.0,-1,0.0,0.0,0.0,0
15666,1469897888290,,,,,,,0.1,0.28,0.97,-11.6,0.2,0.2,1640,1667,,,,,,,,,,,,,,,,,
15686,1469897888308,,,,,,,0.09,0.28,0.97,-11.6,0.1,-0.0,1680,1683,,,,,,,,,,,,,,,,,
15706,1469897888328,,,,,,,0.1,0.27,0.97,-11.5,0.1,-0.2,1640,1675,,,,,,,,,,,,,,,,,
15726,1469897888348,,,,,,,0.1,0.25,0.98,-11.5,0.3,-0.1,1660,1670,,,,,,,,,,,,,,,,,
15746,1469897888368,,,,48,,,0.09,0.27,1.01,-11.6,0.5,-0.0,1660,1683,0.994,4,39.537079,-122.326782,29.76,0.104,289.3,10,2,1.5,0,0.0,-1,0.0,,0.0,0
15766,1469897888388,,,,,,,0.08,0.26,1.01,-11.6,0.5,-0.1,1680,1670,,,,,,,,,,,,,,,,,
15786,1469897888408,,,,,,,0.07,0.25,1.01,-11.5,0.7,0.1,1640,1664,,,,,,,,,,,,,,,,,
15806,1469897888428,,,,,,,0.06,0.27,1.03,-11.5,0.8,0.1,1660,1664,,,,,,,,,,,,,,,,,
15826,1469897888448,,,,,,,0.06,0.25,1.02,-11.5,1.0,0.1,1660,1660,,,,,,,,,,,,,,,,,
15846,1469897888468,0,181.4,174.8,49,174.0,,0.08,0.26,1.01,-11.4,1.1,0.1,1660,1660,1.003,4,39.53709,-122.326782,29.75,0.105,289.3,10,2,1.5,0,0.0,-1,0.0,0.0,0.0,0
15866,1469897888488,,,,,,,0.08,0.25,1.01,-11.3,1.1,-0.0,1640,1664,,,,,,,,,,,,,,,,,
15886,1469897888507,,,,,,,0.08,0.25,1.01,-11.3,1.1,-0.0,1640,1664,,,,,,,,,,,,,,,,,
15906,1469897888527,,,,,,,0.08,0.25,1.0,-11.2,0.9,0.0,1660,1656,,,,,,,,,,,,,,,,,
15926,1469897888547,,,,,,,0.08,0.25,0.99,-11.2,0.8,0.0,1640,1660,,,,,,,,,,,,,,,,,
15946,1469897888567,,,,51,,,0.06,0.27,1.0,-11.3,0.9,0.0,1620,1646,0.996,4,39.537102,-122.326798,29.58,0.106,289.3,10,2,1.5,0,0.0,-1,0.0,,0.0,0
15966,1469897888587,,,,,,,0.07,0.27,1.0,-11.2,0.6,-0.0,1640,1643,,,,,,,,,,,,,,,,,
15986,1469897888607,,,,,,,0.07,0.28,1.0,-11.3,0.2,-0.1,1640,1646,,,,,,,,,,,,,,,,,
16006,1469897888627,,,,,,,0.08,0.27,1.0,-11.3,0.2,-0.1,1660,1643,,,,,,,,,,,,,,,,,
16026,1469897888647,,,,,,,0.09,0.28,1.0,-11.3,0.2,-0.1,1600,1646,,,,,,,,,,,,,,,,,
16046,1469897888667,0,182.6,175.8,50,175.1,14.41,0.08,0.27,1.0,-11.3,0.2,-0.1,1640,1643,0.988,4,39.537109,-122.326798,29.34,0.107,289.4,10,2,1.5,0,0.0,-1,0.0,0.0,0.0,0
16066,1469897888687,,,,,,,0.07,0.26,1.0,-11.2,0.2,-0.1,1620,1632,,,,,,,,,,,,,,,,,
16086,1469897888806,,,,,,,0.07,0.26,1.0,-11.3,0.4,-0.1,1600,1640,,,,,,,,,,,,,,,,,
16106,1469897888826,,,,,,,0.08,0.25,1.0,-11.3,0.4,-0.1,1600,1632,,,,,,,,,,,,,,,,,
16126,1469897888846,,,,,,,0.07,0.24,1.01,-11.3,0.8,-0.0,1620,1632,,,,,,,,,,,,,,,,,
16146,1469897888866,,,,45,,,0.08,0.24,1.01,-11.3,0.9,-0.1,1640,1640,1.003,4,39.537128,-122.32682,29.03,0.108,289.4,10,2,1.5,0,0.0,-1,0.0,,0.0,0
16166,1469897888886,,,,,,,0.08,0.24,1.02,-11.3,1.0,-0.1,1600,1635,,,,,,,,,,,,,,,,,
16186,1469897888906,,,,,,,0.08,0.23,1.03,-11.3,0.8,-0.0,1620,1632,,,,,,,,,,,,,,,,,
16206,1469897888926,,,,,,,0.09,0.22,1.02,-11.2,0.7,-0.1,1640,1632,,,,,,,,,,,,,,,,,
16226,1469897888946,,,,,,,0.09,0.22,1.04,-11.3,1.0,-0.1,1600,1621,,,,,,,,,,,,,,,,,
16246,1469897888966,0,181.4,175.0,49,174.4,,0.09,0.22,1.03,-11.3,0.9,-0.0,1600,1618,0.991,4,39.537128,-122.32682,29.03,0.108,289.4,10,2,1.5,0,0.0,-1,0.0,0.0,0.0,0
16266,1469897888986,,,,,,,0.09,0.22,1.03,-11.2,1.1,-0.1,1600,1618,,,,,,,,,,,,,,,,,
16286,1469897888904,,,,,,,0.09,0.23,1.02,-11.3,1.4,-0.1,1620,1615,,,,,,,,,,,,,,,,,
16306,1469897888924,,,,,,,0.1,0.22,1.02,-11.2,1.0,-0.3,1580,1618,,,,,,,,,,,,,,,,,
16326,1469897888944,,,,,,,0.11,0.22,1.02,-11.1,1.2,-0.3,1600,1621,,,,,,,,,,,,,,,,,
16346,1469897888964,,,,49,,,0.11,0.23,1.01,-11.2,1.1,-0.1,1620,1621,0.987,4,39.53714,-122.32682,28.84,0.109,289.5,10,2,1.5,0,0.0,-1,0.0,,0.0,0
16366,1469897888984,,,,,,,0.11,0.23,1.01,-11.1,1.0,-0.1,1620,1615,,,,,,,,,,,,,,,,,
16386,1469897889010,,,,,,,0.1,0.22,1.01,-11.1,1.0,-0.2,1600,1601,,,,,,,,,,,,,,,,,
16406,1469897889030,,,,,,,0.1,0.22,1.01,-11.1,0.7,-0.2,1580,1604,,,,,,,,,,,,,,,,,
16426,1469897889050,,,,,,,0.1,0.22,0.99,-11.0,0.8,-0.4,1620,1604,,,,,,,,,,,,,,,,,
16446,1469897889070,0,181.7,174.9,45,174.2,,0.1,0.23,0.98,-11.1,0.7,-0.4,1580,1598,1.001,4,39.537148,-122.326836,28.63,0.11,289.5,10,2,1.5,0,0.0,-1,0.0,0.0,0.0,0
16466,1469897889090,,,,,,,0.11,0.22,0.98,-11.0,0.3,-0.4,1600,1609,,,,,,,,,,,,,,,,,
16486,1469897889110,,,,,,,0.11,0.21,0.99,-10.9,0.2,-0.4,1580,1604,,,,,,,,,,,,,,,,,
16506,1469897889130,,,,,,,0.12,0.22,0.99,-10.9,0.1,-0.3,1600,1598,,,,,,,,,,,,,,,,,
16526,1469897889150,,,,,,,0.12,0.21,0.98,-10.9,-0.2,-0.2,1580,1589,,,,,,,,,,,,,,,,,
16546,1469897889170,,,,46,,,0.11,0.21,0.97,-11.0,-0.2,-0.2,1580,1581,0.98,4,39.537159,-122.326851,28.56,0.111,289.5,10,2,1.5,0,0.0,-1,0.0,,0.0,0
16566,1469897889190,,,,,,,0.11,0.19,0.98,-10.9,-0.2,-0.3,1580,1581,,,,,,,,,,,,,,,,,
16586,1469897889210,,,,,,,0.11,0.19,0.98,-10.8,0.0,-0.4,1580,1581,,,,,,,,,,,,,,,,,
16606,1469897889230,,,,,,,0.1,0.21,0.98,-10.9,0.0,-0.3,1560,1589,,,,,,,,,,,,,,,,,
16626,1469897889250,,,,,,,0.1,0.21,0.98,-10.9,0.0,-0.2,1580,1592,,,,,,,,,,,,,,,,,
16646,1469897889270,0,181.9,175.0,47,174.2,,0.09,0.21,0.98,-10.8,-0.1,-0.0,1580,1584,0.992,4,39.537167,-122.326859,28.39,0.112,289.5,10,2,1.5,0,0.0,-1,0.0,0.0,0.0,0
16666,1469897889290,,,,,,,0.09,0.21,0.98,-10.8,-0.1,-0.0,1580,1584,,,,,,,,,,,,,,,,,
16686,1469897889308,,,,,,,0.1,0.22,0.98,-10.7,0.1,0.0,1560,1581,,,,,,,,,,,,,,,,,
16706,1469897889328,,,,,,,0.1,0.22,0.98,-10.8,0.1,-0.0,1560,1575,,,,,,,,,,,,,,,,,
16726,1469897889348,,,,,,,0.08,0.22,0.99,-10.8,-0.0,-0.0,1560,1569,,,,,,,,,,,,,,,,,
16746,1469897889368,,,,50,,,0.08,0.23,1.01,-10.8,0.0,-0.3,1560,1575,0.994,4,39.537174,-122.326859,28.16,0.113,289.5,10,2,1.5,0,0.0,-1,0.0,,0.0,0
16766,1469897889388,,,,,,,0.07,0.22,1.0,-10.7,-0.1,-0.4,1560,1572,,,,,,,,,,,,,,,,,
16786,1469897889408,,,,,,,0.07,0.23,1.0,-10.7,0.1,-0.4,1560,1572,,,,,,,,,,,,,,,,,
16806,1469897889428,,,,,,,0.06,0.23,0.99,-10.8,-0.2,-0.4,1560,1572,,,,,,,,,,,,,,,,,
16826,1469897889448,,,,,,,0.07,0.22,0.98,-10.9,0.2,-0.2,1580,1563,,,,,,,,,,,,,,,,,
16846,1469897889468,0,181.1,174.9,45,174.3,,0.07,0.23,0.98,-10.9,0.0,-0.0,1540,1560,0.982,4,39.537186,-122.326874,28.02,0.114,289.4,10,2,1.5,0,0.0,-1,0.0,0.0,0.0,0
16866,1469897889488,,,,,,,0.08,0.23,1.0,-11.0,0.2,0.0,1540,1556,,,,,,,,,,,,,,,,,
16886,1469897889606,,,,,,,0.08,0.22,1.01,-10.9,0.3,-0.0,1560,1556,,,,,,,,,,,,,,,,,
16906,1469897889626,,,,,,,0.07,0.23,1.0,-10.9,0.4,-0.1,1540,1560,,,,,,,,,,,,,,,,,
16926,1469897889646,,,,,,,0.08,0.23,0.99,-10.9,0.3,-0.2,1540,1560,,,,,,,,,,,,,,,,,
16946,1469897889666,,,,47,,,0.08,0.22,0.97,-10.9,0.4,-0.3,1540,1560,0.99,4,39.537205,-122.326889,27.52,0.115,289.3,10,2,1.5,0,0.0,-1,0.0,,0.0,0
16966,1469897889686,,,,,,,0.08,0.25,0.99,-10.9,0.4,-0.3,1560,1550,,,,,,,,,,,,,,,,,
16986,1469897889706,,,,,,,0.08,0.25,1.0,-11.0,0.4,-0.2,1540,1544,,,,,,,,,,,,,,,,,
17006,1469897889726,,,,,,,0.08,0.25,1.0,-10.9,0.4,-0.2,1540,1538,,,,,,,,,,,,,,,,,
17026,1469897889746,,,,,,,0.07,0.26,1.0,-10.9,0.3,-0.2,1540,1544,,,,,,,,,,,,,,,,,
17046,1469897889766,0,181.1,174.9,42,174.3,14.34,0.08,0.25,1.0,-10.9,0.4,-0.3,1540,1538,0.99,4,39.537205,-122.326889,27.52,0.115,289.3,10,2,1.5,0,0.0,-1,0.0,0.0,0.0,0
17066,1469897889786,,,,,,,0.09,0.24,1.0,-10.9,0.5,-0.3,1520,1541,,,,,,,,,,,,,,,,,
17086,1469897889707,,,,,,,0.08,0.25,1.0,-11.0,0.2,-0.3,1520,1541,,,,,,,,,,,,,,,,,
17106,1469897889727,,,,,,,0.06,0.26,0.99,-11.0,-0.1,-0.2,1540,1550,,,,,,,,,,,,,,,,,
17126,1469897889747,,,,,,,0.07,0.24,0.99,-11.0,-0.0,-0.0,1540,1535,,,,,,,,,,,,,,,,,
17146,1469897889767,,,,44,,,0.06,0.25,0.98,-10.9,-0.2,0.1,1520,1532,0.999,4,39.537209,-122.326904,27.38,0.116,289.3,10,2,1.5,0,0.0,-1,0.0,,0.0,0
17166,1469897889787,,,,,,,0.07,0.23,0.98,-10.9,-0.5,-0.0,1520,1532,,,,,,,,,,,,,,,,,
17186,1469897889810,,,,,,,0.06,0.23,0.99,-10.9,-0.4,-0.1,1520,1520,,,,,,,,,,,,,,,,,
17206,1469897889830,,,,,,,0.07,0.26,0.98,-10.8,-0.4,-0.1,1520,1526,,,,,,,,,,,,,,,,,
17226,1469897889850,,,,,,,0.07,0.24,0.98,-10.9,-0.4,-0.1,1500,1529,,,,,,,,,,,,,,,,,
17246,1469897889870,0,182.8,175.8,40,175.2,,0.06,0.25,0.98,-10.9,-0.1,-0.2,1500,1532,0.994,4,39.53722,-122.326912,27.11,0.117,289.4,10,2,1.5,0,0.0,-1,0.0,0.0,0.0,0
17266,1469897889890,,,,,,,0.07,0.24,0.99,-10.8,-0.1,-0.1,1520,1526,,,,,,,,,,,,,,,,,
17286,1469897889903,,,,,,,0.06,0.24,1.0,-10.8,0.1,-0.0,1520,1523,,,,,,,,,,,,,,,,,
