"Interval"|"ms"|0|0|1,"Utc"|"ms"|0|0|1,"FuelLevel"|"F"|0|100|5,"OilTemp"|"F"|0.0|300.0|5,"Coolant"|"F"|0.0|300.0|5,"OilPress"|"PSI"|0|150|10,"EngineTemp"|"F"|0.0|300.0|5,"Battery"|"Volts"|0.0|20.0|1,"AccelX"|"G"|-3.0|3.0|50,"AccelY"|"G"|-3.0|3.0|50,"AccelZ"|"G"|-3.0|3.0|50,"Yaw"|"Deg/Sec"|-300.0|300.0|50,"Pitch"|"Deg/Sec"|-300.0|300.0|50,"Roll"|"Deg/Sec"|-300.0|300.0|50,"RPM"|""|0|10000|50,"Driveshaft"|"RPM"|0|5000|50,"GearRatio"|""|-5.0|5.0|10,"Gear"|""|-1|5|10,"Latitude"|"Degrees"|-180.0|180.0|10,"Longitude"|"Degrees"|-180.0|180.0|10,"Speed"|"MPH"|0.0|150.0|10,"Distance"|"Miles"|0.0|0.0|10,"Altitude"|"Feet"|0.0|4000.0|10,"GPSSats"|""|0|20|10,"GPSQual"|""|0|5|10,"GPSDOP"|""|0.0|20.0|10,"LapCount"|""|0|0|10,"LapTime"|"Min"|0.0|0.0|10,"Sector"|""|0|0|10,"SectorTime"|"Min"|0.0|0.0|10,"PredTime"|"Min"|0.0|0.0|5,"ElapsedTime"|"Min"|0.0|0.0|10,"CurrentLap"|""|0|0|10
,,,,,,,,,,,,,,,,,,,,,,,,,,,,,,,,
22586,1469892696228,,,,,,,-0.01,0.08,0.99,-3.8,0.3,-0.3,700,75,,,,,,,,,,,,,,,,,
22606,1469892696248,,,,,,,-0.02,0.08,0.99,-3.8,0.3,-0.3,740,78,,,,,,,,,,,,,,,,,
22626,1469892696268,,,,,,,-0.01,0.08,0.99,-3.8,0.4,-0.4,740,83,,,,,,,,,,,,,,,,,
22646,1469892696292,0,134.8,161.2,33,155.9,,-0.01,0.08,0.99,-3.8,0.4,-0.3,720,83,9.211,0,39.540524,-122.331955,0.0,0.002,385.3,8,2,2.0,0,0.0,-1,0.0,0.0,0.0,0
22666,1469892696312,,,,,,,-0.01,0.08,0.99,-3.8,0.4,-0.4,700,80,,,,,,,,,,,,,,,,,
22686,1469892696332,,,,,,,-0.02,0.07,0.99,-3.8,0.4,-0.5,700,76,,,,,,,,,,,,,,,,,
22706,1469892696352,,,,,,,-0.01,0.08,0.99,-3.8,0.5,-0.5,700,76,,,,,,,,,,,,,,,,,
22726,1469892696372,,,,,,,-0.01,0.08,0.99,-3.8,0.4,-0.4,720,76,,,,,,,,,,,,,,,,,
22746,1469892696392,,,,30,,,-0.01,0.07,0.99,-3.8,0.4,-0.5,720,76,9.211,0,39.540527,-122.33197,0.0,0.003,370.4,8,2,2.0,0,0.0,-1,0.0,,0.0,0
22766,1469892696412,,,,,,,-0.01,0.07,0.99,-3.8,0.4,-0.5,720,81,,,,,,,,,,,,,,,,,
22786,1469892696432,,,,,,,-0.01,0.08,0.99,-3.8,0.4,-0.5,740,83,,,,,,,,,,,,,,,,,
22806,1469892696452,,,,,,,-0.01,0.07,0.98,-3.8,0.4,-0.5,720,83,,,,,,,,,,,,,,,,,
22826,1469892696472,,,,,,,-0.01,0.07,0.99,-3.8,0.4,-0.6,700,78,,,,,,,,,,,,,,,,,
22846,1469892696491,0,134.4,160.9,30,155.4,,-0.01,0.07,0.99,-3.8,0.4,-0.5,700,76,9.231,0,39.540527,-122.33197,0.0,0.003,361.2,8,2,2.0,0,0.0,-1,0.0,0.0,0.0,0
22866,1469892696511,,,,,,,-0.01,0.07,0.98,-3.8,0.4,-0.4,700,76,,,,,,,,,,,,,,,,,
22886,1469892696531,,,,,,,-0.01,0.07,0.98,-3.8,0.3,-0.4,720,78,,,,,,,,,,,,,,,,,
22906,1469892696551,,,,,,,-0.02,0.06,0.98,-3.8,0.3,-0.4,720,80,,,,,,,,,,,,,,,,,
22926,1469892696571,,,,,,,-0.01,0.07,0.98,-3.8,0.3,-0.3,720,83,,,,,,,,,,,,,,,,,
22946,1469892696690,,,,31,,,-0.01,0.07,0.98,-3.8,0.3,-0.2,740,87,9.211,0,39.540531,-122.33197,0.0,0.003,352.1,8,2,2.0,0,0.0,-1,0.0,,0.0,0
22966,1469892696710,,,,,,,-0.01,0.06,0.98,-3.7,0.1,-0.3,720,100,,,,,,,,,,,,,,,,,
22986,1469892696730,,,,,,,-0.0,0.07,0.99,-3.8,0.2,-0.3,720,101,,,,,,,,,,,,,,,,,
23006,1469892696750,,,,,,,0.0,0.08,0.98,-3.8,0.3,-0.2,700,95,,,,,,,,,,,,,,,,,
23026,1469892696770,,,,,,,0.0,0.08,0.98,-3.7,0.2,-0.2,700,81,,,,,,,,,,,,,,,,,
23046,1469892696790,0,134.8,161.1,31,155.8,14.47,-0.0,0.07,0.98,-3.7,0.2,-0.2,700,73,7.957,0,39.540531,-122.33197,0.0,0.003,352.1,8,2,2.0,0,0.0,-1,0.0,0.0,0.0,0
23066,1469892696810,,,,,,,0.0,0.08,0.98,-3.8,0.2,-0.1,700,80,,,,,,,,,,,,,,,,,
23086,1469892696830,,,,,,,0.0,0.08,0.98,-3.8,0.2,-0.1,700,90,,,,,,,,,,,,,,,,,
23106,1469892696850,,,,,,,0.0,0.07,0.98,-3.9,0.1,-0.2,720,96,,,,,,,,,,,,,,,,,
23126,1469892696870,,,,,,,0.01,0.07,0.98,-3.9,0.2,-0.2,720,89,,,,,,,,,,,,,,,,,
23146,1469892696790,,,,31,,,0.01,0.08,0.98,-3.9,0.2,-0.2,680,80,8.75,0,39.540531,-122.33197,1.07,0.003,348.5,8,2,2.0,0,0.0,-1,0.0,,0.0,0
23166,1469892696810,,,,,,,0.01,0.07,0.98,-3.9,0.2,-0.3,660,78,,,,,,,,,,,,,,,,,
23186,1469892696830,,,,,,,0.01,0.07,0.98,-3.8,0.3,-0.3,660,87,,,,,,,,,,,,,,,,,
23206,1469892696850,,,,,,,0.01,0.08,0.98,-3.9,0.3,-0.3,680,98,,,,,,,,,,,,,,,,,
23226,1469892696870,,,,,,,0.01,0.07,0.98,-3.9,0.3,-0.2,680,95,,,,,,,,,,,,,,,,,
23246,1469892696890,0,133.5,159.8,30,154.9,,0.01,0.07,0.98,-3.9,0.3,-0.3,680,84,8.718,0,39.540535,-122.33197,1.04,0.003,345.2,9,2,1.9,0,0.0,-1,0.0,0.0,0.0,0
23266,1469892696910,,,,,,,0.01,0.07,0.99,-3.9,0.3,-0.3,680,80,,,,,,,,,,,,,,,,,
23286,1469892696930,,,,,,,0.01,0.07,0.98,-3.9,0.2,-0.3,700,87,,,,,,,,,,,,,,,,,
23306,1469892696950,,,,,,,0.01,0.07,0.98,-3.9,0.2,-0.4,700,96,,,,,,,,,,,,,,,,,
23326,1469892696970,,,,,,,0.01,0.07,0.98,-3.9,0.1,-0.4,660,98,,,,,,,,,,,,,,,,,
23346,1469892696990,,,,29,,,0.01,0.07,0.98,-3.9,0.0,-0.4,660,92,8.095,0,39.540535,-122.331985,1.07,0.004,342.0,9,2,1.9,0,0.0,-1,0.0,,0.0,0
23366,1469892697010,,,,,,,0.01,0.06,0.98,-3.9,0.1,-0.4,660,87,,,,,,,,,,,,,,,,,
23386,1469892697030,,,,,,,0.01,0.07,0.98,-3.9,0.1,-0.4,660,90,,,,,,,,,,,,,,,,,
23406,1469892697050,,,,,,,0.01,0.07,0.98,-3.9,0.1,-0.4,660,93,,,,,,,,,,,,,,,,,
23426,1469892697070,,,,,,,0.01,0.07,0.98,-3.9,0.1,-0.4,660,95,,,,,,,,,,,,,,,,,
23446,1469892697088,0,133.3,160.1,27,155.6,,0.02,0.07,0.98,-4.0,0.3,-0.5,660,95,7.586,0,39.540535,-122.331985,1.19,0.004,339.4,9,2,1.9,0,0.0,-1,0.0,0.0,0.0,0
23466,1469892697108,,,,,,,0.02,0.08,0.98,-3.9,0.3,-0.6,700,93,,,,,,,,,,,,,,,,,
23486,1469892697128,,,,,,,0.02,0.08,0.97,-3.9,0.3,-0.7,680,90,,,,,,,,,,,,,,,,,
23506,1469892697148,,,,,,,0.02,0.08,0.97,-3.9,0.4,-0.7,680,87,,,,,,,,,,,,,,,,,
23526,1469892697168,,,,,,,0.03,0.08,0.97,-3.9,0.4,-0.6,680,84,,,,,,,,,,,,,,,,,
23546,1469892697188,,,,30,,,0.02,0.07,0.98,-3.9,0.4,-0.7,680,84,7.527,0,39.540539,-122.331985,1.27,0.004,336.4,9,2,1.9,0,0.0,-1,0.0,,0.0,0
23566,1469892697208,,,,,,,0.02,0.07,0.98,-3.9,0.4,-0.7,680,75,,,,,,,,,,,,,,,,,
23586,1469892697228,,,,,,,0.02,0.08,0.98,-3.9,0.5,-0.6,680,75,,,,,,,,,,,,,,,,,
23606,1469892697248,,,,,,,0.01,0.07,0.98,-3.9,0.4,-0.6,700,73,,,,,,,,,,,,,,,,,
23626,1469892697268,,,,,,,0.01,0.07,0.99,-3.9,0.3,-0.6,700,72,,,,,,,,,,,,,,,,,
23646,1469892697288,0,134.4,160.9,29,156.4,,0.0,0.07,0.98,-3.9,0.3,-0.5,720,69,8.095,0,39.540539,-122.331985,1.84,0.004,333.8,9,2,1.9,0,0.0,-1,0.0,0.0,0.0,0
23666,1469892697308,,,,,,,0.0,0.07,0.99,-4.0,0.3,-0.5,720,70,,,,,,,,,,,,,,,,,
23686,1469892697328,,,,,,,-0.01,0.07,0.99,-4.0,0.1,-0.6,700,100,,,,,,,,,,,,,,,,,
23706,1469892697348,,,,,,,-0.01,0.07,0.99,-4.1,0.1,-0.6,700,116,,,,,,,,,,,,,,,,,
23726,1469892697368,,,,,,,-0.01,0.08,0.98,-4.1,0.0,-0.5,720,124,,,,,,,,,,,,,,,,,
23746,1469892697488,,,,34,,,-0.01,0.07,0.98,-4.1,-0.1,-0.5,720,120,10.286,0,39.540539,-122.331985,1.78,0.004,329.8,9,2,1.9,0,0.0,-1,0.0,,0.0,0
23766,1469892697508,,,,,,,-0.01,0.07,0.99,-4.1,-0.1,-0.5,720,113,,,,,,,,,,,,,,,,,
23786,1469892697528,,,,,,,-0.0,0.07,0.99,-4.1,-0.1,-0.6,720,109,,,,,,,,,,,,,,,,,
23806,1469892697548,,,,,,,-0.0,0.07,0.98,-4.2,-0.0,-0.7,740,98,,,,,,,,,,,,,,,,,
23826,1469892697568,,,,,,,-0.0,0.07,0.99,-4.1,0.0,-0.7,720,95,,,,,,,,,,,,,,,,,
23846,1469892697588,0,134.4,160.8,33,156.2,,-0.01,0.07,0.99,-4.1,0.0,-0.8,720,96,6.606,0,39.540539,-122.331985,1.78,0.004,329.8,9,2,1.9,0,0.0,-1,0.0,0.0,0.0,0
23866,1469892697608,,,,,,,-0.01,0.07,0.99,-4.1,0.0,-0.7,720,89,,,,,,,,,,,,,,,,,
23886,1469892697628,,,,,,,-0.01,0.07,0.99,-4.2,0.1,-0.7,720,101,,,,,,,,,,,,,,,,,
23906,1469892697648,,,,,,,-0.01,0.06,0.99,-4.1,0.1,-0.7,740,112,,,,,,,,,,,,,,,,,
23926,1469892697668,,,,,,,-0.01,0.06,0.99,-4.1,0.1,-0.8,720,116,,,,,,,,,,,,,,,,,
23946,1469892697590,,,,30,,,-0.01,0.06,0.99,-4.2,-0.0,-0.7,720,113,7.826,0,39.540539,-122.331985,1.94,0.004,328.5,9,2,1.9,0,0.0,-1,0.0,,0.0,0
23966,1469892697610,,,,,,,-0.01,0.06,0.99,-4.2,0.0,-0.7,740,107,,,,,,,,,,,,,,,,,
23986,1469892697630,,,,,,,-0.01,0.06,0.99,-4.2,-0.1,-0.7,720,112,,,,,,,,,,,,,,,,,
24006,1469892697650,,,,,,,-0.01,0.06,0.99,-4.2,-0.1,-0.8,720,106,,,,,,,,,,,,,,,,,
24026,1469892697670,,,,,,,-0.01,0.07,0.98,-4.3,-0.1,-0.7,700,101,,,,,,,,,,,,,,,,,
24046,1469892697681,0,133.4,159.7,30,155.0,14.6,-0.01,0.06,0.98,-4.3,-0.1,-0.6,720,103,6.607,0,39.540539,-122.331985,1.93,0.004,327.3,9,2,1.9,0,0.0,-1,0.0,0.0,0.0,0
24066,1469892697701,,,,,,,-0.01,0.06,0.98,-4.3,-0.1,-0.6,720,112,,,,,,,,,,,,,,,,,
24086,1469892697721,,,,,,,-0.01,0.06,0.99,-4.3,-0.1,-0.6,720,113,,,,,,,,,,,,,,,,,
24106,1469892697741,,,,,,,-0.01,0.06,0.98,-4.3,-0.1,-0.5,720,113,,,,,,,,,,,,,,,,,
24126,1469892697761,,,,,,,-0.0,0.06,0.98,-4.3,-0.2,-0.5,760,110,,,,,,,,,,,,,,,,,
24146,1469892697789,,,,34,,,-0.01,0.05,0.98,-4.3,-0.2,-0.5,720,109,6.429,0,39.540543,-122.331985,1.67,0.005,326.7,9,2,1.9,0,0.0,-1,0.0,,0.0,0
24166,1469892697809,,,,,,,-0.01,0.05,0.99,-4.3,-0.1,-0.4,720,106,,,,,,,,,,,,,,,,,
24186,1469892697829,,,,,,,-0.01,0.05,0.99,-4.3,-0.0,-0.2,720,106,,,,,,,,,,,,,,,,,
24206,1469892697849,,,,,,,-0.01,0.05,0.99,-4.2,-0.1,-0.2,740,106,,,,,,,,,,,,,,,,,
24226,1469892697869,,,,,,,-0.01,0.05,0.99,-4.2,-0.0,-0.2,740,109,,,,,,,,,,,,,,,,,
24246,1469892697887,0,134.7,160.8,33,155.7,,-0.01,0.05,0.99,-4.2,-0.1,-0.1,740,112,6.792,0,39.540543,-122.331985,1.79,0.005,324.4,9,2,1.9,0,0.0,-1,0.0,0.0,0.0,0
24266,1469892697907,,,,,,,-0.01,0.05,0.98,-4.2,-0.0,0.0,720,113,,,,,,,,,,,,,,,,,
24286,1469892697927,,,,,,,-0.01,0.05,0.99,-4.2,0.0,0.1,740,112,,,,,,,,,,,,,,,,,
24306,1469892697947,,,,,,,-0.02,0.05,0.99,-4.2,0.0,0.1,720,109,,,,,,,,,,,,,,,,,
24326,1469892697967,,,,,,,-0.01,0.06,0.98,-4.2,0.1,0.1,720,109,,,,,,,,,,,,,,,,,
24346,1469892697988,,,,34,,,-0.01,0.06,0.98,-4.2,0.2,0.2,720,107,6.607,0,39.540543,-122.331985,1.93,0.005,323.0,9,2,1.9,0,0.0,-1,0.0,,0.0,0
24366,1469892698008,,,,,,,-0.01,0.06,0.99,-4.2,0.1,0.2,720,107,,,,,,,,,,,,,,,,,
24386,1469892698028,,,,,,,-0.02,0.06,0.99,-4.2,0.1,0.1,720,109,,,,,,,,,,,,,,,,,
24406,1469892698048,,,,,,,-0.02,0.06,0.99,-4.3,-0.0,0.1,720,110,,,,,,,,,,,,,,,,,
24426,1469892698068,,,,,,,-0.01,0.06,0.99,-4.3,0.0,0.1,720,110,,,,,,,,,,,,,,,,,
24446,1469892698088,0,133.2,160.0,33,155.7,,-0.02,0.06,0.99,-4.3,0.0,0.0,740,109,6.606,0,39.540543,-122.331985,1.92,0.005,321.8,9,2,1.9,0,0.0,-1,0.0,0.0,0.0,0
24466,1469892698108,,,,,,,-0.02,0.05,0.99,-4.3,0.1,0.0,740,109,,,,,,,,,,,,,,,,,
24486,1469892698128,,,,,,,-0.02,0.06,0.99,-4.3,0.0,0.1,720,109,,,,,,,,,,,,,,,,,
24506,1469892698148,,,,,,,-0.02,0.06,0.99,-4.3,-0.0,0.1,720,109,,,,,,,,,,,,,,,,,
24526,1469892698168,,,,,,,-0.02,0.05,0.99,-4.2,-0.1,-0.0,720,112,,,,,,,,,,,,,,,,,
24546,1469892698287,,,,33,,,-0.02,0.05,0.99,-4.2,-0.1,-0.0,720,112,6.606,0,39.540543,-122.331985,1.83,0.005,319.9,10,2,1.5,0,0.0,-1,0.0,,0.0,0
24566,1469892698307,,,,,,,-0.02,0.05,0.99,-4.3,0.0,0.0,740,112,,,,,,,,,,,,,,,,,
24586,1469892698327,,,,,,,-0.02,0.06,0.98,-4.2,0.0,0.0,740,112,,,,,,,,,,,,,,,,,
24606,1469892698347,,,,,,,-0.02,0.05,0.99,-4.2,-0.0,0.0,760,109,,,,,,,,,,,,,,,,,
24626,1469892698367,,,,,,,-0.02,0.06,0.98,-4.2,0.1,0.0,760,109,,,,,,,,,,,,,,,,,
24646,1469892698387,0,134.2,160.7,35,156.5,,-0.02,0.06,0.98,-4.3,0.1,0.1,740,109,6.607,0,39.540543,-122.331985,1.83,0.005,319.9,10,2,1.5,0,0.0,-1,0.0,0.0,0.0,0
24666,1469892698407,,,,,,,-0.02,0.06,0.98,-4.3,0.0,0.2,740,110,,,,,,,,,,,,,,,,,
24686,1469892698427,,,,,,,-0.02,0.06,0.98,-4.3,-0.0,0.1,720,110,,,,,,,,,,,,,,,,,
24706,1469892698447,,,,,,,-0.01,0.06,0.98,-4.3,0.0,0.1,720,110,,,,,,,,,,,,,,,,,
24726,1469892698467,,,,,,,-0.02,0.06,0.99,-4.3,0.1,0.1,740,110,,,,,,,,,,,,,,,,,
24746,1469892698487,,,,30,,,-0.02,0.07,0.98,-4.3,-0.0,0.1,740,110,6.727,0,39.540543,-122.331985,1.83,0.005,319.9,10,2,1.5,0,0.0,-1,0.0,,0.0,0
24766,1469892698405,,,,,,,-0.02,0.07,0.98,-4.4,0.0,0.0,760,110,,,,,,,,,,,,,,,,,
24786,1469892698425,,,,,,,-0.01,0.07,0.98,-4.4,0.0,-0.0,760,110,,,,,,,,,,,,,,,,,
24806,1469892698445,,,,,,,-0.01,0.08,0.98,-4.4,0.1,0.0,740,110,,,,,,,,,,,,,,,,,
24826,1469892698465,,,,,,,-0.01,0.08,0.98,-4.4,-0.0,0.0,740,112,,,,,,,,,,,,,,,,,
24846,1469892698485,0,133.3,160.0,33,155.6,,-0.02,0.08,0.99,-4.4,-0.0,-0.0,740,113,6.909,0,39.540543,-122.331985,1.61,0.005,319.3,10,2,1.5,0,0.0,-1,0.0,0.0,0.0,0
24866,1469892698504,,,,,,,-0.02,0.07,0.98,-4.4,0.0,-0.1,740,113,,,,,,,,,,,,,,,,,
24886,1469892698524,,,,,,,-0.02,0.07,0.99,-4.4,0.1,0.0,740,112,,,,,,,,,,,,,,,,,
24906,1469892698544,,,,,,,-0.02,0.07,0.99,-4.3,0.0,0.1,740,112,,,,,,,,,,,,,,,,,
24926,1469892698564,,,,,,,-0.02,0.07,0.98,-4.3,0.0,0.2,760,110,,,,,,,,,,,,,,,,,
24946,1469892698584,,,,30,,,-0.02,0.07,0.99,-4.3,0.1,0.2,760,109,6.607,0,39.540543,-122.331985,1.98,0.005,318.6,10,2,1.5,0,0.0,-1,0.0,,0.0,0
24966,1469892698604,,,,,,,-0.03,0.06,0.99,-4.3,0.2,0.4,720,107,,,,,,,,,,,,,,,,,
24986,1469892698624,,,,,,,-0.03,0.06,0.99,-4.3,0.1,0.5,720,107,,,,,,,,,,,,,,,,,
25006,1469892698644,,,,,,,-0.03,0.06,0.99,-4.3,0.2,0.6,720,107,,,,,,,,,,,,,,,,,
25026,1469892698664,,,,,,,-0.03,0.06,0.99,-4.3,0.3,0.6,720,109,,,,,,,,,,,,,,,,,
25046,1469892698684,0,134.6,161.0,31,156.5,14.61,-0.03,0.07,0.98,-4.3,0.5,0.8,740,109,6.729,0,39.540543,-122.331985,1.92,0.005,318.0,10,2,1.5,0,0.0,-1,0.0,0.0,0.0,0
25066,1469892698705,,,,,,,-0.03,0.07,0.98,-4.3,0.4,0.9,720,109,,,,,,,,,,,,,,,,,
25086,1469892698725,,,,,,,-0.03,0.08,0.98,-4.3,0.4,0.9,760,106,,,,,,,,,,,,,,,,,
25106,1469892698745,,,,,,,-0.03,0.07,0.98,-4.3,0.5,0.9,760,106,,,,,,,,,,,,,,,,,
25126,1469892698765,,,,,,,-0.03,0.08,0.97,-4.3,0.5,1.0,720,104,,,,,,,,,,,,,,,,,
25146,1469892698785,,,,34,,,-0.03,0.08,0.97,-4.2,0.5,1.0,720,103,6.792,0,39.540543,-122.331985,1.8,0.005,317.7,10,2,1.5,0,0.0,-1,0.0,,0.0,0
25166,1469892698805,,,,,,,-0.03,0.07,0.98,-4.2,0.5,0.9,720,103,,,,,,,,,,,,,,,,,
25186,1469892698825,,,,,,,-0.03,0.08,0.97,-4.2,0.5,0.8,720,104,,,,,,,,,,,,,,,,,
25206,1469892698845,,,,,,,-0.03,0.08,0.97,-4.2,0.6,0.8,740,104,,,,,,,,,,,,,,,,,
25226,1469892698865,,,,,,,-0.03,0.07,0.98,-4.2,0.6,0.7,720,104,,,,,,,,,,,,,,,,,
25246,1469892698885,0,134.0,160.1,30,155.4,,-0.03,0.08,0.98,-4.2,0.6,0.6,760,103,6.923,0,39.540543,-122.331985,1.91,0.005,317.5,10,2,1.5,0,0.0,-1,0.0,0.0,0.0,0
25266,1469892698897,,,,,,,-0.03,0.08,0.98,-4.2,0.5,0.7,760,103,,,,,,,,,,,,,,,,,
25286,1469892698917,,,,,,,-0.03,0.07,0.98,-4.2,0.6,0.7,720,101,,,,,,,,,,,,,,,,,
25306,1469892698937,,,,,,,-0.03,0.07,0.99,-4.2,0.5,0.6,740,103,,,,,,,,,,,,,,,,,
25326,1469892698957,,,,,,,-0.03,0.07,0.99,-4.2,0.5,0.5,740,103,,,,,,,,,,,,,,,,,
25346,1469892698977,,,,31,,,-0.03,0.07,0.98,-4.2,0.5,0.5,720,103,6.99,0,39.540543,-122.331985,1.82,0.005,317.1,10,2,1.5,0,0.0,-1,0.0,,0.0,0
25366,1469892699103,,,,,,,-0.03,0.07,0.98,-4.2,0.5,0.6,740,103,,,,,,,,,,,,,,,,,
25386,1469892699123,,,,,,,-0.03,0.07,0.99,-4.2,0.6,0.5,740,103,,,,,,,,,,,,,,,,,
25406,1469892699143,,,,,,,-0.03,0.07,0.99,-4.2,0.6,0.5,760,103,,,,,,,,,,,,,,,,,
25426,1469892699163,,,,,,,-0.03,0.08,0.98,-4.3,0.5,0.5,760,103,,,,,,,,,,,,,,,,,
25446,1469892699183,0,134.8,161.1,34,156.5,,-0.03,0.08,0.98,-4.3,0.5,0.5,720,103,7.184,0,39.540543,-122.331985,1.82,0.005,316.5,10,2,1.5,0,0.0,-1,0.0,0.0,0.0,0
25466,1469892699203,,,,,,,-0.03,0.08,0.98,-4.3,0.5,0.5,720,103,,,,,,,,,,,,,,,,,
25486,1469892699223,,,,,,,-0.03,0.08,0.98,-4.4,0.5,0.4,720,101,,,,,,,,,,,,,,,,,
25506,1469892699243,,,,,,,-0.03,0.08,0.98,-4.4,0.5,0.4,720,101,,,,,,,,,,,,,,,,,
25526,1469892699263,,,,,,,-0.02,0.08,0.98,-4.5,0.4,0.4,720,100,,,,,,,,,,,,,,,,,
25546,1469892699283,,,,30,,,-0.03,0.08,0.98,-4.5,0.3,0.2,700,100,7.129,0,39.540543,-122.331985,1.82,0.005,316.5,10,2,1.5,0,0.0,-1,0.0,,0.0,0
25566,1469892699204,,,,,,,-0.02,0.08,0.98,-4.5,0.4,0.1,700,101,,,,,,,,,,,,,,,,,
25586,1469892699224,,,,,,,-0.02,0.09,0.98,-4.6,0.4,0.1,720,101,,,,,,,,,,,,,,,,,
25606,1469892699244,,,,,,,-0.02,0.09,0.98,-4.6,0.4,-0.0,700,103,,,,,,,,,,,,,,,,,
25626,1469892699264,,,,,,,-0.03,0.08,0.98,-4.7,0.4,-0.1,700,103,,,,,,,,,,,,,,,,,
25646,1469892699284,0,133.2,159.7,29,155.7,,-0.02,0.09,0.98,-4.8,0.3,-0.1,700,103,7.129,0,39.540543,-122.331985,1.86,0.005,316.4,10,2,1.5,0,0.0,-1,0.0,0.0,0.0,0
25666,1469892699304,,,,,,,-0.02,0.09,0.98,-4.8,0.3,-0.2,700,103,,,,,,,,,,,,,,,,,
25686,1469892699324,,,,,,,-0.02,0.08,0.98,-4.9,0.3,-0.3,700,103,,,,,,,,,,,,,,,,,
25706,1469892699344,,,,,,,-0.02,0.08,0.98,-5.0,0.3,-0.3,700,103,,,,,,,,,,,,,,,,,
25726,1469892699364,,,,,,,-0.02,0.08,0.98,-5.1,0.3,-0.3,700,103,,,,,,,,,,,,,,,,,
25746,1469892699384,,,,32,,,-0.02,0.09,0.99,-5.2,0.3,-0.3,720,103,6.796,0,39.540543,-122.33197,1.77,0.006,316.2,10,2,1.5,0,0.0,-1,0.0,,0.0,0
25766,1469892699401,,,,,,,-0.02,0.09,0.99,-5.2,0.2,-0.4,720,103,,,,,,,,,,,,,,,,,
25786,1469892699421,,,,,,,-0.02,0.09,0.99,-5.4,0.2,-0.3,700,103,,,,,,,,,,,,,,,,,
25806,1469892699441,,,,,,,-0.02,0.09,0.99,-5.5,0.2,-0.3,680,101,,,,,,,,,,,,,,,,,
25826,1469892699461,,,,,,,-0.02,0.09,0.99,-5.5,0.1,-0.4,680,103,,,,,,,,,,,,,,,,,
25846,1469892699481,0,133.6,160.2,30,156.1,,-0.02,0.09,0.99,-5.7,0.2,-0.4,680,101,6.796,0,39.540543,-122.33197,1.71,0.006,316.3,10,2,1.5,0,0.0,-1,0.0,0.0,0.0,0
25866,1469892699504,,,,,,,-0.01,0.09,0.99,-5.8,0.1,-0.3,700,101,,,,,,,,,,,,,,,,,
25886,1469892699524,,,,,,,-0.02,0.09,0.99,-5.9,0.1,-0.4,700,101,,,,,,,,,,,,,,,,,
25906,1469892699544,,,,,,,-0.02,0.09,0.99,-6.0,0.1,-0.4,700,101,,,,,,,,,,,,,,,,,
25926,1469892699564,,,,,,,-0.02,0.09,0.99,-6.2,0.1,-0.4,720,100,,,,,,,,,,,,,,,,,
25946,1469892699584,,,,31,,,-0.02,0.09,0.99,-6.3,0.1,-0.4,680,100,6.931,0,39.540546,-122.33197,1.68,0.006,316.1,10,2,1.5,0,0.0,-1,0.0,,0.0,0
25966,1469892699604,,,,,,,-0.02,0.09,0.99,-6.4,0.0,-0.5,680,100,,,,,,,,,,,,,,,,,
25986,1469892699624,,,,,,,-0.02,0.09,1.0,-6.6,0.1,-0.4,680,100,,,,,,,,,,,,,,,,,
26006,1469892699644,,,,,,,-0.02,0.09,0.99,-6.7,0.0,-0.5,680,101,,,,,,,,,,,,,,,,,
26026,1469892699664,,,,,,,-0.02,0.09,0.99,-6.9,-0.0,-0.6,680,103,,,,,,,,,,,,,,,,,
26046,1469892699684,0,134.0,160.0,29,155.4,14.6,-0.02,0.09,1.0,-7.0,0.0,-0.6,680,106,6.8,0,39.540546,-122.33197,1.85,0.006,316.1,10,2,1.5,0,0.0,-1,0.0,0.0,0.0,0
26066,1469892699704,,,,,,,-0.02,0.09,0.99,-7.1,0.1,-0.6,680,106,,,,,,,,,,,,,,,,,
26086,1469892699724,,,,,,,-0.02,0.09,0.99,-7.3,0.1,-0.6,700,106,,,,,,,,,,,,,,,,,
26106,1469892699744,,,,,,,-0.02,0.09,0.99,-7.4,0.1,-0.7,700,104,,,,,,,,,,,,,,,,,
26126,1469892699764,,,,,,,-0.02,0.09,0.99,-7.6,0.1,-0.6,680,104,,,,,,,,,,,,,,,,,
26146,1469892699784,,,,30,,,-0.02,0.09,0.99,-7.8,0.1,-0.7,660,103,6.415,0,39.540546,-122.33197,1.94,0.006,316.2,10,2,1.5,0,0.0,-1,0.0,,0.0,0
26166,1469892699903,,,,,,,-0.03,0.09,0.99,-8.0,0.1,-0.7,660,101,,,,,,,,,,,,,,,,,
26186,1469892699923,,,,,,,-0.02,0.1,0.99,-8.2,0.1,-0.6,660,101,,,,,,,,,,,,,,,,,
26206,1469892699943,,,,,,,-0.02,0.09,0.98,-8.4,0.1,-0.6,680,101,,,,,,,,,,,,,,,,,
26226,1469892699963,,,,,,,-0.03,0.08,0.98,-8.6,0.0,-0.6,680,101,,,,,,,,,,,,,,,,,
26246,1469892699983,0,134.7,161.0,27,156.8,,-0.03,0.09,0.99,-8.8,-0.0,-0.6,680,101,6.535,0,39.540546,-122.33197,1.87,0.006,316.5,10,2,1.5,0,0.0,-1,0.0,0.0,0.0,0
26266,1469892700003,,,,,,,-0.02,0.09,0.98,-9.0,-0.1,-0.7,700,101,,,,,,,,,,,,,,,,,
26286,1469892700023,,,,,,,-0.03,0.08,0.98,-9.1,-0.2,-0.8,700,101,,,,,,,,,,,,,,,,,
26306,1469892700043,,,,,,,-0.02,0.09,0.98,-9.3,-0.2,-0.8,660,101,,,,,,,,,,,,,,,,,
26326,1469892700063,,,,,,,-0.02,0.09,0.98,-9.5,-0.2,-0.8,660,103,,,,,,,,,,,,,,,,,
26346,1469892700083,,,,30,,,-0.02,0.09,0.98,-9.7,-0.2,-0.8,660,103,6.931,0,39.540546,-122.33197,1.87,0.006,316.5,10,2,1.5,0,0.0,-1,0.0,,0.0,0
26366,1469892700002,,,,,,,-0.02,0.09,0.98,-9.9,-0.2,-0.8,660,101,,,,,,,,,,,,,,,,,
26386,1469892700022,,,,,,,-0.02,0.09,0.98,-10.1,-0.2,-0.8,660,101,,,,,,,,,,,,,,,,,
26406,1469892700042,,,,,,,-0.02,0.08,0.98,-10.2,-0.3,-0.8,660,100,,,,,,,,,,,,,,,,,
26426,1469892700062,,,,,,,-0.02,0.09,0.98,-10.5,-0.2,-0.8,660,100,,,,,,,,,,,,,,,,,
26446,1469892700082,0,134.6,160.9,29,156.9,,-0.02,0.09,0.99,-10.7,-0.3,-0.8,680,100,6.535,0,39.540546,-122.33197,1.89,0.006,316.3,10,2,1.5,0,0.0,-1,0.0,0.0,0.0,0
26466,1469892700100,,,,,,,-0.02,0.08,0.98,-10.8,-0.4,-1.0,660,101,,,,,,,,,,,,,,,,,
26486,1469892700120,,,,,,,-0.02,0.09,0.98,-11.0,-0.4,-1.0,660,103,,,,,,,,,,,,,,,,,
26506,1469892700140,,,,,,,-0.01,0.09,0.98,-11.2,-0.4,-1.0,660,103,,,,,,,,,,,,,,,,,
26526,1469892700160,,,,,,,-0.01,0.08,0.97,-11.3,-0.5,-1.0,640,104,,,,,,,,,,,,,,,,,
26546,1469892700180,,,,28,,,-0.01,0.09,0.97,-11.6,-0.4,-1.1,640,103,6.408,0,39.540546,-122.33197,1.82,0.006,316.6,10,2,1.5,0,0.0,-1,0.0,,0.0,0
26566,1469892700202,,,,,,,-0.01,0.09,0.97,-11.7,-0.5,-1.0,660,103,,,,,,,,,,,,,,,,,
26586,1469892700222,,,,,,,-0.01,0.08,0.97,-11.8,-0.5,-1.1,660,104,,,,,,,,,,,,,,,,,
26606,1469892700242,,,,,,,-0.01,0.08,0.98,-12.0,-0.5,-1.1,660,104,,,,,,,,,,,,,,,,,
26626,1469892700262,,,,,,,-0.0,0.08,0.98,-12.1,-0.5,-1.0,680,106,,,,,,,,,,,,,,,,,
26646,1469892700282,0,134.8,161.1,31,157.1,,-0.0,0.08,0.97,-12.2,-0.5,-1.0,660,106,6.408,0,39.540546,-122.33197,1.85,0.006,316.6,10,2,1.5,0,0.0,-1,0.0,0.0,0.0,0
26666,1469892700302,,,,,,,-0.0,0.07,0.98,-12.4,-0.3,-1.0,660,104,,,,,,,,,,,,,,,,,
26686,1469892700322,,,,,,,-0.0,0.07,0.98,-12.5,-0.2,-0.9,660,103,,,,,,,,,,,,,,,,,
26706,1469892700342,,,,,,,-0.0,0.07,0.98,-12.6,-0.3,-0.8,660,101,,,,,,,,,,,,,,,,,
26726,1469892700362,,,,,,,-0.01,0.06,0.99,-12.7,-0.2,-0.7,660,101,,,,,,,,,,,,,,,,,
26746,1469892700382,,,,30,,,-0.01,0.06,0.99,-12.8,-0.0,-0.6,660,101,6.408,0,39.540546,-122.33197,1.94,0.006,316.8,10,2,1.5,0,0.0,-1,0.0,,0.0,0
26766,1469892700402,,,,,,,-0.0,0.07,0.99,-12.9,-0.1,-0.6,660,103,,,,,,,,,,,,,,,,,
26786,1469892700422,,,,,,,-0.01,0.07,0.99,-13.0,-0.0,-0.5,660,104,,,,,,,,,,,,,,,,,
26806,1469892700442,,,,,,,-0.0,0.07,0.99,-13.1,-0.0,-0.4,700,106,,,,,,,,,,,,,,,,,
26826,1469892700462,,,,,,,-0.01,0.06,0.99,-13.2,0.0,-0.3,680,104,,,,,,,,,,,,,,,,,
26846,1469892700482,0,134.4,160.8,28,156.9,,-0.01,0.06,0.98,-13.3,0.0,-0.3,680,104,6.346,0,39.540546,-122.33197,2.25,0.006,316.6,10,2,1.5,0,0.0,-1,0.0,0.0,0.0,0
26866,1469892700503,,,,,,,-0.01,0.06,0.98,-13.4,0.0,-0.2,660,103,,,,,,,,,,,,,,,,,
26886,1469892700523,,,,,,,-0.01,0.06,0.99,-13.5,0.0,-0.3,640,101,,,,,,,,,,,,,,,,,
26906,1469892700543,,,,,,,-0.02,0.06,0.99,-13.5,0.0,-0.4,640,101,,,,,,,,,,,,,,,,,
26926,1469892700563,,,,,,,-0.01,0.05,0.99,-13.6,0.1,-0.3,660,101,,,,,,,,,,,,,,,,,
26946,1469892700583,,,,27,,,-0.01,0.05,0.99,-13.7,0.1,-0.4,640,101,6.535,0,39.540546,-122.33197,2.13,0.006,316.1,10,2,1.5,0,0.0,-1,0.0,,0.0,0
26966,1469892700701,,,,,,,-0.02,0.05,0.99,-13.8,0.1,-0.4,640,101,,,,,,,,,,,,,,,,,
26986,1469892700721,,,,,,,-0.01,0.05,0.99,-13.9,0.1,-0.3,660,103,,,,,,,,,,,,,,,,,
27006,1469892700741,,,,,,,-0.01,0.03,0.98,-13.9,0.1,-0.3,620,103,,,,,,,,,,,,,,,,,
27026,1469892700761,,,,,,,-0.01,0.04,0.99,-13.9,0.2,-0.2,620,101,,,,,,,,,,,,,,,,,
27046,1469892700781,0,133.5,160.1,24,156.2,14.6,-0.01,0.03,0.99,-14.0,0.2,-0.2,620,103,6.408,0,39.540546,-122.33197,1.96,0.006,315.7,10,2,1.5,0,0.0,-1,0.0,0.0,0.0,0
27066,1469892700801,,,,,,,-0.01,0.02,0.98,-14.0,0.2,-0.2,620,101,,,,,,,,,,,,,,,,,
27086,1469892700821,,,,,,,-0.01,0.03,0.99,-14.0,0.3,-0.2,600,103,,,,,,,,,,,,,,,,,
27106,1469892700841,,,,,,,-0.01,0.02,0.99,-14.0,0.3,-0.1,600,104,,,,,,,,,,,,,,,,,
27126,1469892700861,,,,,,,-0.01,0.02,0.99,-14.0,0.3,0.0,600,104,,,,,,,,,,,,,,,,,
27146,1469892700881,,,,24,,,-0.01,0.03,1.0,-14.0,0.3,0.1,600,104,5.825,0,39.540546,-122.33197,1.96,0.006,315.7,10,2,1.5,0,0.0,-1,0.0,,0.0,0
27166,1469892700803,,,,,,,-0.01,0.03,0.99,-14.1,0.3,0.1,600,104,,,,,,,,,,,,,,,,,
27186,1469892700823,,,,,,,-0.01,0.04,0.99,-14.1,0.4,0.2,620,104,,,,,,,,,,,,,,,,,
27206,1469892700843,,,,,,,-0.01,0.03,0.99,-14.2,0.4,0.1,580,104,,,,,,,,,,,,,,,,,
27226,1469892700863,,,,,,,-0.01,0.04,0.99,-14.2,0.3,0.1,580,103,,,,,,,,,,,,,,,,,
27246,1469892700883,0,134.7,160.9,24,156.2,,-0.01,0.04,0.99,-14.3,0.3,0.1,580,103,5.962,0,39.540546,-122.33197,1.76,0.006,315.7,10,2,1.5,0,0.0,-1,0.0,0.0,0.0,0
27266,1469892700893,,,,,,,-0.01,0.03,0.98,-14.3,0.3,0.0,580,103,,,,,,,,,,,,,,,,,
27286,1469892700913,,,,,,,-0.01,0.04,0.99,-14.3,0.2,0.1,560,104,,,,,,,,,,,,,,,,,
27306,1469892700933,,,,,,,-0.01,0.04,0.99,-14.4,0.2,0.0,560,106,,,,,,,,,,,,,,,,,
27326,1469892700953,,,,,,,-0.01,0.04,0.98,-14.4,0.3,0.0,560,104,,,,,,,,,,,,,,,,,
27346,1469892700973,,,,23,,,-0.01,0.03,0.99,-14.5,0.2,0.0,560,104,5.385,0,39.540546,-122.33197,1.74,0.006,315.7,10,2,1.5,0,0.0,-1,0.0,,0.0,0
27366,1469892701003,,,,,,,-0.01,0.03,0.99,-14.5,0.3,-0.0,560,104,,,,,,,,,,,,,,,,,
27386,1469892701023,,,,,,,-0.01,0.04,0.99,-14.5,0.2,-0.1,580,106,,,,,,,,,,,,,,,,,
27406,1469892701043,,,,,,,-0.01,0.03,0.99,-14.5,0.2,-0.1,580,107,,,,,,,,,,,,,,,,,
27426,1469892701063,,,,,,,-0.01,0.03,0.99,-14.6,0.2,-0.0,560,109,,,,,,,,,,,,,,,,,
27446,1469892701083,0,133.8,160.4,23,156.5,,-0.01,0.03,0.99,-14.6,0.2,-0.1,560,109,5.472,0,39.540546,-122.33197,1.94,0.006,315.7,10,2,1.5,0,0.0,-1,0.0,0.0,0.0,0
27466,1469892701101,,,,,,,-0.01,0.03,0.99,-14.7,0.3,-0.1,560,107,,,,,,,,,,,,,,,,,
27486,1469892701121,,,,,,,-0.0,0.03,0.99,-14.7,0.3,-0.1,540,107,,,,,,,,,,,,,,,,,
27506,1469892701141,,,,,,,-0.01,0.03,0.98,-14.7,0.3,-0.1,540,107,,,,,,,,,,,,,,,,,
27526,1469892701161,,,,,,,-0.01,0.03,0.98,-14.7,0.3,-0.1,580,107,,,,,,,,,,,,,,,,,
27546,1469892701181,,,,24,,,-0.01,0.03,0.98,-14.8,0.3,-0.1,580,107,5.234,0,39.540546,-122.33197,1.74,0.006,315.6,10,2,1.5,0,0.0,-1,0.0,,0.0,0
27566,1469892701201,,,,,,,-0.01,0.04,0.98,-14.8,0.2,-0.1,580,109,,,,,,,,,,,,,,,,,
27586,1469892701221,,,,,,,-0.0,0.03,0.98,-14.8,0.3,-0.1,600,109,,,,,,,,,,,,,,,,,
27606,1469892701241,,,,,,,-0.01,0.04,0.98,-14.8,0.3,-0.2,600,110,,,,,,,,,,,,,,,,,
27626,1469892701261,,,,,,,-0.0,0.04,0.99,-14.8,0.2,-0.2,580,112,,,,,,,,,,,,,,,,,
27646,1469892701281,0,134.0,160.0,24,155.7,,-0.0,0.03,0.98,-14.9,0.2,-0.3,580,110,5.321,0,39.540546,-122.331955,2.09,0.007,315.6,10,2,1.5,0,0.0,-1,0.0,0.0,0.0,0
27666,1469892701301,,,,,,,-0.0,0.04,0.98,-15.0,0.2,-0.3,580,110,,,,,,,,,,,,,,,,,
27686,1469892701321,,,,,,,0.0,0.03,0.98,-15.0,0.2,-0.4,580,110,,,,,,,,,,,,,,,,,
27706,1469892701341,,,,,,,-0.0,0.03,0.98,-15.0,0.2,-0.3,580,110,,,,,,,,,,,,,,,,,
27726,1469892701361,,,,,,,0.0,0.03,0.99,-15.0,0.2,-0.2,600,112,,,,,,,,,,,,,,,,,
27746,1469892701381,,,,25,,,-0.0,0.02,0.98,-15.1,0.2,-0.3,600,110,5.273,0,39.540546,-122.331955,1.91,0.007,315.4,10,2,1.5,0,0.0,-1,0.0,,0.0,0
27766,1469892701500,,,,,,,-0.0,0.03,0.99,-15.1,0.3,-0.2,600,109,,,,,,,,,,,,,,,,,
27786,1469892701520,,,,,,,-0.0,0.02,0.99,-15.1,0.2,-0.2,640,110,,,,,,,,,,,,,,,,,
27806,1469892701540,,,,,,,-0.0,0.03,0.98,-15.1,0.3,-0.2,640,110,,,,,,,,,,,,,,,,,
27826,1469892701560,,,,,,,-0.0,0.04,0.99,-15.2,0.3,-0.0,640,110,,,,,,,,,,,,,,,,,
27846,1469892701580,0,134.2,160.2,27,156.0,,-0.0,0.03,0.98,-15.1,0.3,0.0,640,110,5.505,0,39.540546,-122.331955,1.67,0.007,315.5,10,2,1.5,0,0.0,-1,0.0,0.0,0.0,0
27866,1469892701600,,,,,,,-0.01,0.03,0.98,-15.2,0.3,0.1,640,112,,,,,,,,,,,,,,,,,
27886,1469892701620,,,,,,,-0.01,0.03,0.98,-15.2,0.3,0.2,640,113,,,,,,,,,,,,,,,,,
27906,1469892701640,,,,,,,-0.01,0.02,0.98,-15.2,0.2,0.1,660,115,,,,,,,,,,,,,,,,,
27926,1469892701660,,,,,,,-0.01,0.02,0.98,-15.2,0.3,0.1,660,115,,,,,,,,,,,,,,,,,
27946,1469892701680,,,,30,,,-0.01,0.02,0.99,-15.3,0.2,0.1,680,115,5.664,0,39.540546,-122.331955,1.67,0.007,315.5,10,2,1.5,0,0.0,-1,0.0,,0.0,0
27966,1469892701601,,,,,,,-0.01,0.02,0.98,-15.2,0.3,0.1,700,116,,,,,,,,,,,,,,,,,
27986,1469892701621,,,,,,,-0.01,0.02,0.98,-15.2,0.3,0.0,700,116,,,,,,,,,,,,,,,,,
28006,1469892701641,,,,,,,-0.01,0.03,0.99,-15.3,0.3,0.1,700,116,,,,,,,,,,,,,,,,,
28026,1469892701661,,,,,,,-0.01,0.03,0.98,-15.3,0.3,0.0,700,115,,,,,,,,,,,,,,,,,
28046,1469892701681,0,135.0,161.0,30,156.5,14.6,-0.01,0.03,0.98,-15.3,0.2,-0.1,720,112,6.034,0,39.540546,-122.331955,2.02,0.007,315.8,10,2,1.5,0,0.0,-1,0.0,0.0,0.0,0
28066,1469892701701,,,,,,,-0.01,0.03,0.98,-15.3,0.2,-0.2,720,112,,,,,,,,,,,,,,,,,
28086,1469892701721,,,,,,,-0.0,0.03,0.98,-15.3,0.2,-0.1,720,112,,,,,,,,,,,,,,,,,
28106,1469892701741,,,,,,,-0.01,0.03,0.98,-15.3,0.1,-0.2,720,112,,,,,,,,,,,,,,,,,
28126,1469892701761,,,,,,,-0.01,0.02,0.99,-15.2,0.1,-0.2,740,112,,,,,,,,,,,,,,,,,
28146,1469892701781,,,,34,,,-0.0,0.02,0.99,-15.2,0.2,-0.2,740,112,6.429,0,39.540546,-122.331955,1.92,0.007,315.9,10,2,1.5,0,0.0,-1,0.0,,0.0,0
28166,1469892701802,,,,,,,-0.0,0.02,0.99,-15.2,0.2,-0.2,720,112,,,,,,,,,,,,,,,,,
28186,1469892701822,,,,,,,-0.0,0.02,0.99,-15.2,0.2,-0.2,720,112,,,,,,,,,,,,,,,,,
28206,1469892701842,,,,,,,-0.0,0.01,1.0,-15.2,0.2,-0.3,740,112,,,,,,,,,,,,,,,,,
28226,1469892701862,,,,,,,-0.0,0.01,0.99,-15.2,0.3,-0.3,740,113,,,,,,,,,,,,,,,,,
28246,1469892701882,0,134.0,160.4,33,156.6,,-0.0,0.01,1.0,-15.2,0.3,-0.2,740,113,6.429,0,39.540546,-122.331955,2.02,0.007,316.0,10,2,1.5,0,0.0,-1,0.0,0.0,0.0,0
28266,1469892701894,,,,,,,-0.0,0.01,1.0,-15.2,0.4,-0.2,720,120,,,,,,,,,,,,,,,,,
28286,1469892701914,,,,,,,-0.0,0.01,1.0,-15.2,0.4,-0.3,740,123,,,,,,,,,,,,,,,,,
28306,1469892701934,,,,,,,-0.0,0.02,1.0,-15.2,0.3,-0.2,740,129,,,,,,,,,,,,,,,,,
28326,1469892701954,,,,,,,0.0,0.02,1.0,-15.3,0.4,-0.2,740,133,,,,,,,,,,,,,,,,,
28346,1469892701974,,,,31,,,-0.0,0.02,1.0,-15.3,0.4,-0.2,720,138,5.854,0,39.540546,-122.331955,2.29,0.007,316.0,10,2,1.5,0,0.0,-1,0.0,,0.0,0
28366,1469892702002,,,,,,,-0.0,0.02,1.0,-15.3,0.4,-0.3,720,143,,,,,,,,,,,,,,,,,
28386,1469892702022,,,,,,,-0.0,0.02,1.0,-15.3,0.4,-0.1,720,150,,,,,,,,,,,,,,,,,
28406,1469892702042,,,,,,,0.01,0.02,0.99,-15.3,0.4,-0.1,740,153,,,,,,,,,,,,,,,,,
28426,1469892702062,,,,,,,0.01,0.02,1.0,-15.3,0.4,-0.1,740,156,,,,,,,,,,,,,,,,,
28446,1469892702082,0,134.7,161.0,32,157.2,,0.01,0.02,0.99,-15.3,0.4,-0.1,740,147,4.8,0,39.540546,-122.331955,2.16,0.007,316.1,10,2,1.5,0,0.0,-1,0.0,0.0,0.0,0
28466,1469892702102,,,,,,,0.01,0.02,0.99,-15.4,0.4,-0.0,760,112,,,,,,,,,,,,,,,,,
28486,1469892702122,,,,,,,0.02,0.02,0.99,-15.4,0.5,0.0,740,92,,,,,,,,,,,,,,,,,
28506,1469892702142,,,,,,,0.01,0.01,1.0,-15.4,0.5,-0.1,740,87,,,,,,,,,,,,,,,,,
28526,1469892702162,,,,,,,0.0,0.02,1.0,-15.5,0.5,-0.1,740,95,,,,,,,,,,,,,,,,,
28546,1469892702182,,,,30,,,0.0,0.02,1.0,-15.5,0.5,-0.0,740,113,6.607,0,39.54055,-122.331955,2.2,0.007,316.1,10,2,1.5,0,0.0,-1,0.0,,0.0,0
28566,1469892702301,,,,,,,0.01,0.02,0.99,-15.5,0.5,0.0,740,126,,,,,,,,,,,,,,,,,
28586,1469892702321,,,,,,,0.0,0.02,0.99,-15.5,0.4,-0.0,740,130,,,,,,,,,,,,,,,,,
28606,1469892702341,,,,,,,0.0,0.02,0.99,-15.6,0.4,-0.1,740,136,,,,,,,,,,,,,,,,,
28626,1469892702361,,,,,,,0.01,0.02,0.99,-15.6,0.3,0.0,740,138,,,,,,,,,,,,,,,,,
28646,1469892702381,0,134.7,161.1,35,157.2,,0.01,0.02,0.99,-15.7,0.3,0.1,720,129,5.692,0,39.54055,-122.331955,2.19,0.007,316.1,10,2,1.5,0,0.0,-1,0.0,0.0,0.0,0
28666,1469892702401,,,,,,,0.01,0.02,0.99,-15.7,0.3,0.1,720,103,,,,,,,,,,,,,,,,,
28686,1469892702421,,,,,,,0.01,0.02,0.99,-15.7,0.5,0.1,720,101,,,,,,,,,,,,,,,,,
28706,1469892702441,,,,,,,0.01,0.02,0.99,-15.8,0.5,0.3,720,112,,,,,,,,,,,,,,,,,
28726,1469892702461,,,,,,,0.01,0.02,0.99,-15.8,0.5,0.3,720,115,,,,,,,,,,,,,,,,,
28746,1469892702481,,,,32,,,0.0,0.02,0.99,-15.8,0.5,0.3,720,121,7.129,0,39.54055,-122.331955,2.19,0.007,316.1,10,2,1.5,0,0.0,-1,0.0,,0.0,0
28766,1469892702401,,,,,,,0.0,0.02,0.99,-15.8,0.5,0.4,720,124,,,,,,,,,,,,,,,,,
28786,1469892702421,,,,,,,0.0,0.02,0.99,-15.9,0.6,0.5,740,133,,,,,,,,,,,,,,,,,
28806,1469892702441,,,,,,,0.0,0.02,0.99,-15.9,0.5,0.5,720,136,,,,,,,,,,,,,,,,,
28826,1469892702461,,,,,,,0.0,0.02,0.99,-15.9,0.5,0.5,720,129,,,,,,,,,,,,,,,,,
28846,1469892702481,0,133.4,160.0,30,156.2,,0.0,0.02,0.99,-16.0,0.4,0.6,700,112,5.564,0,39.54055,-122.331955,2.17,0.007,316.1,10,2,1.5,0,0.0,-1,0.0,0.0,0.0,0
28866,1469892702501,,,,,,,0.01,0.03,0.99,-16.0,0.4,0.6,700,110,,,,,,,,,,,,,,,,,
28886,1469892702521,,,,,,,0.0,0.02,0.98,-16.0,0.4,0.5,700,121,,,,,,,,,,,,,,,,,
28906,1469892702541,,,,,,,0.01,0.03,0.99,-16.1,0.4,0.5,700,132,,,,,,,,,,,,,,,,,
28926,1469892702561,,,,,,,0.01,0.03,0.98,-16.1,0.4,0.5,700,138,,,,,,,,,,,,,,,,,
28946,1469892702581,,,,29,,,0.01,0.02,0.99,-16.1,0.4,0.4,720,135,5.785,0,39.54055,-122.331955,2.27,0.007,316.2,10,2,1.5,0,0.0,-1,0.0,,0.0,0
28966,1469892702600,,,,,,,0.01,0.02,0.99,-16.1,0.3,0.3,720,120,,,,,,,,,,,,,,,,,
28986,1469892702620,,,,,,,0.01,0.02,0.99,-16.1,0.3,0.3,700,112,,,,,,,,,,,,,,,,,
29006,1469892702640,,,,,,,0.01,0.02,0.99,-16.1,0.3,0.2,700,115,,,,,,,,,,,,,,,,,
29026,1469892702660,,,,,,,0.0,0.02,0.99,-16.1,0.3,0.1,700,132,,,,,,,,,,,,,,,,,
29046,1469892702680,0,134.4,160.9,32,156.5,14.61,0.01,0.01,0.99,-16.1,0.4,0.1,700,136,6.25,0,39.54055,-122.331955,2.19,0.007,316.4,10,2,1.5,0,0.0,-1,0.0,0.0,0.0,0
29066,1469892702701,,,,,,,0.01,0.02,0.99,-16.2,0.4,0.1,700,130,,,,,,,,,,,,,,,,,
29086,1469892702721,,,,,,,0.01,0.01,0.99,-16.2,0.4,0.1,700,115,,,,,,,,,,,,,,,,,
29106,1469892702741,,,,,,,0.0,0.01,0.99,-16.2,0.3,0.0,700,113,,,,,,,,,,,,,,,,,
29126,1469892702761,,,,,,,0.0,0.01,0.99,-16.3,0.3,0.0,720,126,,,,,,,,,,,,,,,,,
29146,1469892702781,,,,30,,,0.0,0.01,0.98,-16.4,0.2,0.1,700,136,5.691,0,39.54055,-122.331955,2.41,0.007,316.4,10,2,1.5,0,0.0,-1,0.0,,0.0,0
29166,1469892702801,,,,,,,0.0,0.01,0.98,-16.4,0.1,-0.0,680,136,,,,,,,,,,,,,,,,,
29186,1469892702821,,,,,,,0.01,0.01,0.98,-16.5,0.1,0.0,680,132,,,,,,,,,,,,,,,,,
29206,1469892702841,,,,,,,0.01,0.02,0.98,-16.5,0.1,0.1,700,124,,,,,,,,,,,,,,,,,
29226,1469892702861,,,,,,,0.01,0.01,0.98,-16.6,0.1,0.1,680,121,,,,,,,,,,,,,,,,,
29246,1469892702881,0,133.5,160.5,29,156.9,,0.0,0.01,0.98,-16.6,0.1,0.0,680,124,5.0,0,39.54055,-122.331955,2.58,0.007,316.4,10,2,1.5,0,0.0,-1,0.0,0.0,0.0,0
29266,1469892702893,,,,,,,0.0,0.02,0.99,-16.6,0.1,0.0,680,135,,,,,,,,,,,,,,,,,
29286,1469892702913,,,,,,,0.0,0.01,0.99,-16.6,0.1,-0.0,700,136,,,,,,,,,,,,,,,,,
29306,1469892702933,,,,,,,0.0,0.01,0.99,-16.6,0.1,-0.1,700,132,,,,,,,,,,,,,,,,,
29326,1469892702953,,,,,,,0.0,0.02,0.99,-16.6,0.1,-0.1,680,120,,,,,,,,,,,,,,,,,
29346,1469892702973,,,,29,,,0.0,0.02,0.99,-16.7,0.2,-0.1,680,120,5.147,0,39.54055,-122.331947,2.19,0.007,316.4,10,2,1.5,0,0.0,-1,0.0,,0.0,0
29366,1469892703101,,,,,,,0.0,0.01,0.99,-16.7,0.1,-0.2,700,130,,,,,,,,,,,,,,,,,
29386,1469892703121,,,,,,,0.0,0.02,0.99,-16.7,0.1,-0.2,700,138,,,,,,,,,,,,,,,,,
29406,1469892703141,,,,,,,0.01,0.02,0.99,-16.8,0.2,-0.2,700,133,,,,,,,,,,,,,,,,,
29426,1469892703161,,,,,,,0.0,0.02,0.99,-16.8,0.2,-0.3,700,127,,,,,,,,,,,,,,,,,
29446,1469892703181,0,133.4,160.2,29,156.6,,0.0,0.01,0.99,-16.8,0.1,-0.4,700,124,5.147,0,39.540554,-122.331947,2.39,0.008,316.3,10,2,1.5,0,0.0,-1,0.0,0.0,0.0,0
29466,1469892703201,,,,,,,0.0,0.02,0.99,-16.9,0.1,-0.3,720,132,,,,,,,,,,,,,,,,,
29486,1469892703221,,,,,,,0.0,0.01,0.99,-16.9,0.0,-0.3,680,135,,,,,,,,,,,,,,,,,
29506,1469892703241,,,,,,,-0.0,0.01,0.99,-16.9,-0.0,-0.2,680,133,,,,,,,,,,,,,,,,,
29526,1469892703261,,,,,,,0.0,0.01,0.99,-16.9,0.0,-0.1,680,130,,,,,,,,,,,,,,,,,
29546,1469892703281,,,,31,,,0.01,0.01,0.99,-16.9,0.0,0.1,680,130,5.037,0,39.540554,-122.331947,2.39,0.008,316.3,10,2,1.5,0,0.0,-1,0.0,,0.0,0
29566,1469892703204,,,,,,,0.0,0.0,0.99,-16.9,0.0,0.1,680,130,,,,,,,,,,,,,,,,,
29586,1469892703224,,,,,,,0.01,0.0,1.0,-16.9,0.3,0.3,680,130,,,,,,,,,,,,,,,,,
29606,1469892703244,,,,,,,0.01,0.01,0.99,-17.0,0.3,0.4,680,133,,,,,,,,,,,,,,,,,
29626,1469892703264,,,,,,,0.01,0.0,0.99,-17.0,0.4,0.5,700,136,,,,,,,,,,,,,,,,,
29646,1469892703284,0,133.3,160.7,32,157.1,,0.0,0.01,0.99,-17.0,0.5,0.6,700,136,5.231,0,39.540554,-122.331947,2.41,0.008,315.9,10,2,1.5,0,0.0,-1,0.0,0.0,0.0,0
29666,1469892703303,,,,,,,0.0,0.01,0.99,-17.0,0.5,0.8,680,129,,,,,,,,,,,,,,,,,
29686,1469892703323,,,,,,,0.0,0.01,0.98,-17.0,0.5,0.9,680,126,,,,,,,,,,,,,,,,,
29706,1469892703343,,,,,,,-0.01,0.0,0.98,-17.0,0.5,1.0,680,127,,,,,,,,,,,,,,,,,
29726,1469892703363,,,,,,,-0.0,0.01,0.98,-17.0,0.5,1.1,680,135,,,,,,,,,,,,,,,,,
29746,1469892703383,,,,31,,,0.0,0.01,0.98,-17.0,0.3,1.1,680,135,5.397,0,39.540554,-122.331947,2.67,0.008,315.5,10,2,1.5,0,0.0,-1,0.0,,0.0,0
29766,1469892703403,,,,,,,0.0,0.01,0.98,-17.0,0.2,1.1,680,130,,,,,,,,,,,,,,,,,
29786,1469892703423,,,,,,,0.01,0.01,0.98,-17.1,0.2,1.2,680,130,,,,,,,,,,,,,,,,,
29806,1469892703443,,,,,,,0.01,0.02,0.98,-17.1,0.1,1.2,700,133,,,,,,,,,,,,,,,,,
29826,1469892703463,,,,,,,0.01,0.01,0.98,-17.1,0.0,1.1,660,136,,,,,,,,,,,,,,,,,
29846,1469892703483,0,133.7,161.0,28,157.4,,0.01,0.02,0.98,-17.2,0.1,1.2,660,136,5.231,0,39.540554,-122.331947,2.59,0.008,315.2,10,2,1.5,0,0.0,-1,0.0,0.0,0.0,0
29866,1469892703504,,,,,,,0.02,0.02,0.98,-17.3,0.1,1.2,660,135,,,,,,,,,,,,,,,,,
29886,1469892703524,,,,,,,0.02,0.02,0.98,-17.3,0.0,1.2,660,138,,,,,,,,,,,,,,,,,
29906,1469892703544,,,,,,,0.02,0.02,0.99,-17.4,0.0,1.2,660,138,,,,,,,,,,,,,,,,,
29926,1469892703564,,,,,,,0.02,0.03,0.99,-17.4,-0.0,1.2,680,133,,,,,,,,,,,,,,,,,
29946,1469892703584,,,,29,,,0.02,0.02,0.98,-17.4,-0.1,1.2,680,133,4.783,0,39.540554,-122.331947,2.19,0.008,314.7,10,2,1.5,0,0.0,-1,0.0,,0.0,0
29966,1469892703603,,,,,,,0.02,0.02,0.99,-17.5,-0.1,1.1,680,138,,,,,,,,,,,,,,,,,
29986,1469892703623,,,,,,,0.02,0.03,0.99,-17.5,-0.1,1.1,700,144,,,,,,,,,,,,,,,,,
30006,1469892703643,,,,,,,0.02,0.03,0.99,-17.5,-0.1,1.1,680,141,,,,,,,,,,,,,,,,,
30026,1469892703663,,,,,,,0.02,0.02,0.99,-17.6,-0.2,1.1,680,135,,,,,,,,,,,,,,,,,
30046,1469892703683,0,132.9,160.3,26,157.0,14.55,0.02,0.02,0.99,-17.7,-0.2,1.1,660,136,4.861,0,39.540558,-122.331947,2.68,0.008,314.5,10,2,1.5,0,0.0,-1,0.0,0.0,0.0,0
30066,1469892703703,,,,,,,0.02,0.02,0.98,-17.7,-0.3,1.1,660,144,,,,,,,,,,,,,,,,,
30086,1469892703723,,,,,,,0.01,0.02,0.99,-17.8,-0.3,1.0,660,146,,,,,,,,,,,,,,,,,
30106,1469892703743,,,,,,,0.02,0.02,0.99,-17.9,-0.4,1.0,680,143,,,,,,,,,,,,,,,,,
30126,1469892703763,,,,,,,0.02,0.02,0.98,-17.9,-0.4,1.0,680,138,,,,,,,,,,,,,,,,,
30146,1469892703783,,,,29,,,0.02,0.02,0.98,-17.9,-0.4,0.9,700,138,4.521,0,39.540558,-122.331947,2.41,0.008,314.2,10,2,1.5,0,0.0,-1,0.0,,0.0,0
30166,1469892703903,,,,,,,0.02,0.02,0.98,-18.0,-0.3,0.9,700,143,,,,,,,,,,,,,,,,,
30186,1469892703923,,,,,,,0.02,0.03,0.97,-18.0,-0.3,0.9,660,141,,,,,,,,,,,,,,,,,
30206,1469892703943,,,,,,,0.02,0.02,0.98,-18.1,-0.3,0.8,660,141,,,,,,,,,,,,,,,,,
30226,1469892703963,,,,,,,0.03,0.02,0.98,-18.1,-0.2,0.7,660,143,,,,,,,,,,,,,,,,,
30246,1469892703983,0,133.8,161.1,29,157.5,,0.03,0.03,0.98,-18.1,-0.2,0.6,660,141,4.615,0,39.540558,-122.331947,2.77,0.008,314.1,10,2,1.5,0,0.0,-1,0.0,0.0,0.0,0
30266,1469892704003,,,,,,,0.03,0.02,0.98,-18.2,-0.2,0.6,660,132,,,,,,,,,,,,,,,,,
30286,1469892704023,,,,,,,0.03,0.02,0.99,-18.2,-0.1,0.5,660,127,,,,,,,,,,,,,,,,,
30306,1469892704043,,,,,,,0.03,0.03,0.99,-18.2,-0.1,0.5,680,116,,,,,,,,,,,,,,,,,
30326,1469892704063,,,,,,,0.02,0.03,0.99,-18.3,-0.1,0.5,700,112,,,,,,,,,,,,,,,,,
30346,1469892704083,,,,31,,,0.02,0.03,0.99,-18.3,-0.1,0.5,700,113,5.197,0,39.540558,-122.331947,2.77,0.008,314.1,10,2,1.5,0,0.0,-1,0.0,,0.0,0
30366,1469892704004,,,,,,,0.02,0.03,0.99,-18.4,-0.0,0.5,700,107,,,,,,,,,,,,,,,,,
30386,1469892704024,,,,,,,0.02,0.02,0.99,-18.4,0.0,0.4,680,100,,,,,,,,,,,,,,,,,
30406,1469892704044,,,,,,,0.01,0.02,0.99,-18.4,-0.0,0.2,680,100,,,,,,,,,,,,,,,,,
30426,1469892704064,,,,,,,0.01,0.02,0.99,-18.5,0.1,0.2,700,103,,,,,,,,,,,,,,,,,
30446,1469892704084,0,133.5,160.1,33,156.5,,0.01,0.03,0.99,-18.5,0.0,0.1,720,135,6.733,0,39.540562,-122.331947,2.64,0.008,314.0,10,2,1.5,0,0.0,-1,0.0,0.0,0.0,0
30466,1469892704104,,,,,,,0.01,0.03,0.99,-18.5,-0.1,-0.0,720,173,,,,,,,,,,,,,,,,,
30486,1469892704124,,,,,,,0.01,0.02,0.99,-18.4,0.0,-0.2,720,167,,,,,,,,,,,,,,,,,
30506,1469892704144,,,,,,,0.01,0.03,0.99,-18.4,0.0,-0.2,760,160,,,,,,,,,,,,,,,,,
30526,1469892704164,,,,,,,0.01,0.03,0.98,-18.4,-0.1,-0.2,740,158,,,,,,,,,,,,,,,,,
30546,1469892704184,,,,33,,,0.01,0.02,0.98,-18.4,-0.1,-0.2,720,152,4.186,0,39.540562,-122.331947,2.5,0.008,313.9,10,2,1.5,0,0.0,-1,0.0,,0.0,0
30566,1469892704201,,,,,,,0.01,0.02,0.98,-18.4,-0.1,-0.1,720,144,,,,,,,,,,,,,,,,,
30586,1469892704221,,,,,,,0.02,0.02,0.97,-18.5,-0.2,-0.0,740,136,,,,,,,,,,,,,,,,,
30606,1469892704241,,,,,,,0.02,0.02,0.98,-18.5,-0.3,0.0,740,133,,,,,,,,,,,,,,,,,
30626,1469892704261,,,,,,,0.02,0.01,0.98,-18.5,-0.4,-0.0,740,129,,,,,,,,,,,,,,,,,
30646,1469892704281,0,134.0,161.0,32,157.5,,0.02,0.01,0.98,-18.5,-0.3,-0.1,740,127,5.248,0,39.540562,-122.331947,2.9,0.008,313.7,10,2,1.5,0,0.0,-1,0.0,0.0,0.0,0
30666,1469892704303,,,,,,,0.01,0.0,0.98,-18.5,-0.4,-0.0,760,120,,,,,,,,,,,,,,,,,
30686,1469892704323,,,,,,,0.01,0.0,0.98,-18.5,-0.3,-0.0,740,126,,,,,,,,,,,,,,,,,
30706,1469892704343,,,,,,,0.01,0.0,0.98,-18.5,-0.3,-0.1,740,149,,,,,,,,,,,,,,,,,
30726,1469892704363,,,,,,,0.0,0.0,0.99,-18.5,-0.1,-0.1,740,161,,,,,,,,,,,,,,,,,
30746,1469892704383,,,,34,,,0.0,0.0,0.99,-18.5,-0.1,-0.1,760,160,6.167,0,39.540562,-122.331947,2.53,0.008,313.5,10,2,1.5,0,0.0,-1,0.0,,0.0,0
30766,1469892704404,,,,,,,0.01,0.01,0.98,-18.4,-0.0,-0.1,760,156,,,,,,,,,,,,,,,,,
30786,1469892704424,,,,,,,0.01,0.01,0.99,-18.4,0.1,-0.2,760,147,,,,,,,,,,,,,,,,,
30806,1469892704444,,,,,,,0.0,0.01,0.99,-18.3,0.1,-0.2,780,140,,,,,,,,,,,,,,,,,
30826,1469892704464,,,,,,,0.0,0.01,0.98,-18.3,0.0,-0.2,780,138,,,,,,,,,,,,,,,,,
30846,1469892704484,0,133.5,160.5,34,157.1,,0.01,0.01,0.98,-18.3,0.1,-0.1,760,136,5.0,0,39.540566,-122.331947,2.3,0.008,313.5,10,2,1.5,0,0.0,-1,0.0,0.0,0.0,0
30866,1469892704503,,,,,,,0.0,0.01,0.99,-18.3,0.1,-0.1,740,132,,,,,,,,,,,,,,,,,
30886,1469892704523,,,,,,,-0.01,-0.0,0.99,-18.2,-0.0,-0.2,740,124,,,,,,,,,,,,,,,,,
30906,1469892704543,,,,,,,-0.0,-0.0,0.99,-18.2,0.0,-0.1,740,123,,,,,,,,,,,,,,,,,
30926,1469892704563,,,,,,,-0.01,0.0,0.99,-18.2,0.1,-0.1,760,126,,,,,,,,,,,,,,,,,
30946,1469892704583,,,,30,,,-0.01,0.01,0.99,-18.1,-0.0,-0.1,760,136,5.736,0,39.540566,-122.331947,2.6,0.008,313.4,10,2,1.5,0,0.0,-1,0.0,,0.0,0
30966,1469892704698,,,,,,,-0.02,0.0,0.99,-18.0,-0.1,-0.1,760,147,,,,,,,,,,,,,,,,,
30986,1469892704718,,,,,,,-0.01,0.0,0.99,-17.9,-0.0,-0.1,760,146,,,,,,,,,,,,,,,,,
31006,1469892704738,,,,,,,-0.02,0.0,0.98,-17.9,-0.1,-0.1,760,144,,,,,,,,,,,,,,,,,
31026,1469892704758,,,,,,,-0.02,0.0,0.98,-17.8,-0.1,-0.1,740,140,,,,,,,,,,,,,,,,,
31046,1469892704778,0,134.4,161.2,33,157.3,14.57,-0.02,0.0,0.98,-17.7,-0.1,-0.2,760,130,5.17,0,39.540566,-122.331947,2.82,0.008,313.3,10,2,1.5,0,0.0,-1,0.0,0.0,0.0,0
31066,1469892704798,,,,,,,-0.03,-0.0,0.98,-17.5,0.1,-0.2,760,126,,,,,,,,,,,,,,,,,
31086,1469892704818,,,,,,,-0.03,-0.01,0.98,-17.5,0.1,-0.1,760,126,,,,,,,,,,,,,,,,,
31106,1469892704838,,,,,,,-0.03,-0.0,0.98,-17.3,0.1,-0.1,760,124,,,,,,,,,,,,,,,,,
31126,1469892704858,,,,,,,-0.03,-0.01,0.99,-17.2,0.2,-0.1,780,115,,,,,,,,,,,,,,,,,
31146,1469892704878,,,,35,,,-0.04,-0.01,0.99,-17.0,0.2,-0.2,760,112,6.032,0,39.540566,-122.331947,2.82,0.008,313.3,10,2,1.5,0,0.0,-1,0.0,,0.0,0
31166,1469892704804,,,,,,,-0.04,-0.01,0.99,-16.9,0.3,-0.2,760,110,,,,,,,,,,,,,,,,,
31186,1469892704824,,,,,,,-0.04,-0.0,0.99,-16.8,0.3,-0.2,760,110,,,,,,,,,,,,,,,,,
31206,1469892704844,,,,,,,-0.05,-0.0,0.99,-16.6,0.3,-0.2,760,112,,,,,,,,,,,,,,,,,
31226,1469892704864,,,,,,,-0.05,-0.01,0.99,-16.5,0.3,-0.3,760,116,,,,,,,,,,,,,,,,,
31246,1469892704884,0,133.5,160.0,35,157.3,,-0.05,-0.01,0.98,-16.3,0.3,-0.2,760,116,6.909,0,39.540566,-122.331947,2.6,0.008,313.3,10,2,1.5,0,0.0,-1,0.0,0.0,0.0,0
31266,1469892704894,,,,,,,-0.05,-0.01,0.98,-16.1,0.3,-0.2,760,113,,,,,,,,,,,,,,,,,
31286,1469892704914,,,,,,,-0.05,-0.0,0.98,-15.9,0.2,-0.1,780,112,,,,,,,,,,,,,,,,,
31306,1469892704934,,,,,,,-0.06,-0.01,0.99,-15.7,0.1,-0.2,760,109,,,,,,,,,,,,,,,,,
31326,1469892704954,,,,,,,-0.06,-0.01,0.99,-15.5,0.2,-0.2,760,106,,,,,,,,,,,,,,,,,
31346,1469892704974,,,,32,,,-0.06,-0.01,0.99,-15.3,0.1,-0.1,760,104,6.964,0,39.540566,-122.331947,2.44,0.008,313.2,10,2,1.5,0,0.0,-1,0.0,,0.0,0
31366,1469892705003,,,,,,,-0.06,-0.01,0.99,-15.1,0.2,0.0,760,96,,,,,,,,,,,,,,,,,
31386,1469892705023,,,,,,,-0.07,-0.02,0.99,-14.8,0.2,-0.0,760,93,,,,,,,,,,,,,,,,,
31406,1469892705043,,,,,,,-0.08,-0.02,0.99,-14.5,0.2,-0.1,760,89,,,,,,,,,,,,,,,,,
31426,1469892705063,,,,,,,-0.08,-0.02,0.98,-14.3,0.3,-0.1,760,86,,,,,,,,,,,,,,,,,
31446,1469892705083,0,133.6,160.3,35,157.4,,-0.08,-0.02,0.98,-14.1,0.3,0.0,780,83,7.917,0,39.540566,-122.331947,2.35,0.008,313.1,10,2,1.5,0,0.0,-1,0.0,0.0,0.0,0
31466,1469892705104,,,,,,,-0.08,-0.02,0.99,-13.8,0.2,-0.0,760,81,,,,,,,,,,,,,,,,,
31486,1469892705124,,,,,,,-0.09,-0.02,0.98,-13.6,0.2,-0.1,760,80,,,,,,,,,,,,,,,,,
31506,1469892705144,,,,,,,-0.08,-0.02,0.98,-13.3,0.3,-0.1,760,76,,,,,,,,,,,,,,,,,
31526,1469892705164,,,,,,,-0.09,-0.02,0.98,-13.1,0.2,0.0,760,76,,,,,,,,,,,,,,,,,
31546,1469892705184,,,,35,,,-0.09,-0.02,0.98,-12.9,0.1,-0.0,760,73,9.5,0,39.540569,-122.331947,2.17,0.009,312.9,10,2,1.5,0,0.0,-1,0.0,,0.0,0
31566,1469892705204,,,,,,,-0.09,-0.02,0.98,-12.6,0.1,-0.1,760,72,,,,,,,,,,,,,,,,,
31586,1469892705224,,,,,,,-0.09,-0.02,0.98,-12.3,0.1,-0.1,780,70,,,,,,,,,,,,,,,,,
31606,1469892705244,,,,,,,-0.09,-0.02,0.98,-12.1,0.0,-0.1,780,69,,,,,,,,,,,,,,,,,
31626,1469892705264,,,,,,,-0.09,-0.02,0.98,-11.8,0.0,-0.0,760,67,,,,,,,,,,,,,,,,,
31646,1469892705284,0,134.5,161.0,35,157.6,,-0.09,-0.02,0.99,-11.6,0.1,-0.1,740,67,10.857,0,39.540569,-122.331947,1.84,0.009,312.6,10,2,1.5,0,0.0,-1,0.0,0.0,0.0,0
31666,1469892705304,,,,,,,-0.1,-0.03,0.99,-11.3,0.0,-0.1,740,64,,,,,,,,,,,,,,,,,
31686,1469892705324,,,,,,,-0.1,-0.02,0.99,-11.0,0.1,-0.1,740,61,,,,,,,,,,,,,,,,,
31706,1469892705344,,,,,,,-0.09,-0.02,0.99,-10.8,0.2,0.0,740,56,,,,,,,,,,,,,,,,,
31726,1469892705364,,,,,,,-0.1,-0.03,0.99,-10.5,0.1,0.0,740,56,,,,,,,,,,,,,,,,,
31746,1469892705384,,,,32,,,-0.1,-0.03,0.99,-10.2,0.1,-0.0,760,52,12.131,0,39.540569,-122.331947,1.55,0.009,312.3,10,2,1.5,0,0.0,-1,0.0,,0.0,0
31766,1469892705504,,,,,,,-0.1,-0.02,0.99,-9.9,0.1,0.0,760,47,,,,,,,,,,,,,,,,,
31786,1469892705524,,,,,,,-0.09,-0.02,0.99,-9.7,0.1,0.1,740,47,,,,,,,,,,,,,,,,,
31806,1469892705544,,,,,,,-0.09,-0.02,0.99,-9.4,0.1,0.1,740,43,,,,,,,,,,,,,,,,,
31826,1469892705564,,,,,,,-0.1,-0.02,0.99,-9.1,0.1,-0.0,740,43,,,,,,,,,,,,,,,,,
31846,1469892705584,0,135.0,161.3,33,156.6,,-0.1,-0.01,0.99,-8.9,0.1,-0.0,740,38,15.745,0,39.540569,-122.331947,0.97,0.009,311.9,10,2,1.5,0,0.0,-1,0.0,0.0,0.0,0
31866,1469892705604,,,,,,,-0.1,-0.01,0.99,-8.6,0.2,0.1,760,38,,,,,,,,,,,,,,,,,
31886,1469892705624,,,,,,,-0.1,-0.01,0.99,-8.4,0.1,0.0,740,38,,,,,,,,,,,,,,,,,
31906,1469892705644,,,,,,,-0.1,-0.01,0.99,-8.1,0.1,-0.0,780,33,,,,,,,,,,,,,,,,,
31926,1469892705664,,,,,,,-0.1,-0.01,0.99,-7.9,0.1,-0.1,780,33,,,,,,,,,,,,,,,,,
31946,1469892705684,,,,34,,,-0.1,-0.01,0.98,-7.6,0.1,-0.0,740,33,19.474,0,39.540569,-122.331947,0.97,0.009,311.9,10,2,1.5,0,0.0,-1,0.0,,0.0,0
31966,1469892705605,,,,,,,-0.1,-0.01,0.98,-7.3,0.0,-0.0,740,27,,,,,,,,,,,,,,,,,
31986,1469892705625,,,,,,,-0.1,-0.01,0.98,-7.1,-0.0,-0.1,740,27,,,,,,,,,,,,,,,,,
32006,1469892705645,,,,,,,-0.1,-0.01,0.98,-6.8,-0.0,-0.2,740,27,,,,,,,,,,,,,,,,,
32026,1469892705665,,,,,,,-0.1,-0.01,0.98,-6.6,-0.0,-0.1,760,27,,,,,,,,,,,,,,,,,
32046,1469892705685,0,134.0,160.6,34,157.7,14.59,-0.1,-0.01,0.98,-6.3,-0.1,-0.0,740,20,27.407,0,39.540569,-122.331947,0.0,0.009,311.5,10,2,1.5,0,0.0,-1,0.0,0.0,0.0,0
32066,1469892705706,,,,,,,-0.1,-0.01,0.99,-6.1,0.0,-0.1,780,20,,,,,,,,,,,,,,,,,
32086,1469892705726,,,,,,,-0.1,-0.01,0.98,-5.8,0.0,-0.1,740,20,,,,,,,,,,,,,,,,,
32106,1469892705746,,,,,,,-0.1,-0.01,0.98,-5.5,0.0,-0.1,740,20,,,,,,,,,,,,,,,,,
32126,1469892705766,,,,,,,-0.09,-0.0,0.98,-5.3,0.0,-0.0,740,1538461,,,,,,,,,,,,,,,,,
32146,1469892705786,,,,31,,,-0.09,-0.01,0.99,-5.0,0.1,-0.1,740,0,39.0,0,39.540569,-122.331947,0.0,0.009,311.2,10,2,1.5,0,0.0,-1,0.0,,0.0,0
32166,1469892705805,,,,,,,-0.09,-0.01,0.98,-4.7,0.1,-0.1,740,0,,,,,,,,,,,,,,,,,
32186,1469892705825,,,,,,,-0.08,0.0,0.98,-4.5,-0.0,-0.0,740,0,,,,,,,,,,,,,,,,,
32206,1469892705845,,,,,,,-0.06,0.01,0.98,-4.3,-0.0,0.2,740,0,,,,,,,,,,,,,,,,,
32226,1469892705865,,,,,,,-0.05,0.01,0.99,-4.2,-0.1,0.2,780,0,,,,,,,,,,,,,,,,,
32246,1469892705885,0,133.8,160.6,36,157.6,,-0.05,0.01,0.99,-4.0,-0.1,0.2,760,0,0.0,0,39.540573,-122.331947,0.0,0.009,310.9,10,2,1.5,0,0.0,-1,0.0,0.0,0.0,0
32266,1469892705898,,,,,,,-0.03,0.02,0.99,-4.0,-0.1,0.2,760,0,,,,,,,,,,,,,,,,,
32286,1469892705918,,,,,,,-0.03,0.02,0.99,-3.9,-0.1,0.3,740,0,,,,,,,,,,,,,,,,,
32306,1469892705938,,,,,,,-0.02,0.02,0.99,-3.8,-0.1,0.2,740,0,,,,,,,,,,,,,,,,,
32326,1469892705958,,,,,,,-0.02,0.02,0.99,-3.7,-0.2,0.1,760,0,,,,,,,,,,,,,,,,,
32346,1469892705978,,,,31,,,-0.02,0.02,0.99,-3.6,-0.1,0.0,760,0,0.0,0,39.540573,-122.331947,0.0,0.009,310.6,10,2,1.5,0,0.0,-1,0.0,,0.0,0
32366,1469892706006,,,,,,,-0.02,0.02,1.0,-3.6,-0.1,0.0,740,0,,,,,,,,,,,,,,,,,
32386,1469892706026,,,,,,,-0.02,0.02,1.0,-3.5,-0.1,0.0,780,0,,,,,,,,,,,,,,,,,
32406,1469892706046,,,,,,,-0.02,0.02,0.99,-3.4,-0.1,-0.0,740,0,,,,,,,,,,,,,,,,,
32426,1469892706066,,,,,,,-0.02,0.02,0.99,-3.4,-0.0,-0.1,740,0,,,,,,,,,,,,,,,,,
32446,1469892706086,0,135.0,161.4,33,156.9,,-0.01,0.03,0.98,-3.4,0.0,0.0,740,0,0.0,0,39.540573,-122.331947,0.0,0.009,310.5,10,2,1.5,0,0.0,-1,0.0,0.0,0.0,0
32466,1469892706105,,,,,,,-0.01,0.03,0.99,-3.3,-0.0,-0.0,740,0,,,,,,,,,,,,,,,,,
32486,1469892706125,,,,,,,-0.01,0.03,0.98,-3.3,-0.0,-0.1,740,0,,,,,,,,,,,,,,,,,
32506,1469892706145,,,,,,,-0.01,0.03,0.98,-3.3,0.0,-0.1,740,0,,,,,,,,,,,,,,,,,
32526,1469892706165,,,,,,,-0.01,0.03,0.98,-3.3,-0.1,-0.1,740,0,,,,,,,,,,,,,,,,,
32546,1469892706185,,,,32,,,-0.0,0.03,0.98,-3.3,-0.2,-0.0,760,0,0.0,0,39.540573,-122.331947,0.0,0.009,310.5,10,2,1.5,0,0.0,-1,0.0,,0.0,0
32566,1469892706305,,,,,,,-0.0,0.03,0.98,-3.2,-0.2,-0.1,740,0,,,,,,,,,,,,,,,,,
32586,1469892706325,,,,,,,-0.0,0.03,0.98,-3.2,-0.1,-0.2,740,0,,,,,,,,,,,,,,,,,
32606,1469892706345,,,,,,,-0.01,0.03,0.98,-3.2,-0.1,-0.1,720,0,,,,,,,,,,,,,,,,,
32626,1469892706365,,,,,,,-0.0,0.04,0.98,-3.2,-0.1,-0.0,740,0,,,,,,,,,,,,,,,,,
32646,1469892706385,0,133.8,160.1,33,156.7,,-0.0,0.03,0.98,-3.2,-0.1,-0.1,740,0,0.0,0,39.540573,-122.331947,0.0,0.009,310.5,10,2,1.5,0,0.0,-1,0.0,0.0,0.0,0
32666,1469892706405,,,,,,,0.0,0.03,0.98,-3.2,-0.0,-0.2,740,0,,,,,,,,,,,,,,,,,
32686,1469892706425,,,,,,,-0.0,0.03,0.98,-3.2,-0.1,-0.1,740,0,,,,,,,,,,,,,,,,,
32706,1469892706445,,,,,,,0.0,0.03,0.98,-3.2,-0.2,-0.1,760,0,,,,,,,,,,,,,,,,,
32726,1469892706465,,,,,,,-0.0,0.03,0.98,-3.1,-0.3,-0.2,720,0,,,,,,,,,,,,,,,,,
32746,1469892706485,,,,33,,,-0.0,0.03,0.98,-3.1,-0.2,-0.2,720,24,0.0,0,39.540573,-122.331947,0.0,0.009,310.5,10,2,1.5,0,0.0,-1,0.0,,0.0,0
32766,1469892706405,,,,,,,-0.0,0.03,0.97,-3.1,-0.3,-0.1,720,24,,,,,,,,,,,,,,,,,
32786,1469892706425,,,,,,,-0.0,0.03,0.97,-3.1,-0.3,-0.1,720,24,,,,,,,,,,,,,,,,,
32806,1469892706445,,,,,,,-0.0,0.03,0.97,-3.0,-0.2,-0.1,740,24,,,,,,,,,,,,,,,,,
32826,1469892706465,,,,,,,0.0,0.03,0.97,-3.1,-0.1,-0.2,740,24,,,,,,,,,,,,,,,,,
32846,1469892706485,0,133.5,160.0,29,157.2,,0.0,0.03,0.97,-3.1,-0.1,-0.1,740,1538461,30.0,0,39.540573,-122.331947,0.0,0.009,310.5,10,2,1.5,0,0.0,-1,0.0,0.0,0.0,0
32866,1469892706505,,,,,,,0.0,0.03,0.97,-3.1,-0.2,-0.1,760,0,,,,,,,,,,,,,,,,,
32886,1469892706525,,,,,,,0.0,0.03,0.97,-3.1,-0.3,-0.1,740,0,,,,,,,,,,,,,,,,,
32906,1469892706545,,,,,,,0.0,0.03,0.97,-3.1,-0.2,-0.1,740,0,,,,,,,,,,,,,,,,,
32926,1469892706565,,,,,,,0.0,0.03,0.98,-3.1,-0.1,-0.0,720,0,,,,,,,,,,,,,,,,,
32946,1469892706585,,,,31,,,0.0,0.04,0.98,-3.1,-0.2,-0.0,740,0,0.0,0,39.540573,-122.331947,0.0,0.009,310.5,10,2,1.5,0,0.0,-1,0.0,,0.0,0
32966,1469892706605,,,,,,,0.0,0.03,0.98,-3.0,-0.1,-0.1,740,0,,,,,,,,,,,,,,,,,
32986,1469892706625,,,,,,,0.0,0.03,0.98,-3.0,-0.0,-0.2,740,0,,,,,,,,,,,,,,,,,
33006,1469892706645,,,,,,,0.0,0.03,0.98,-3.1,-0.0,-0.1,740,0,,,,,,,,,,,,,,,,,
33026,1469892706665,,,,,,,0.0,0.03,0.98,-3.1,-0.1,-0.1,760,0,,,,,,,,,,,,,,,,,
33046,1469892706685,0,134.0,160.5,31,157.9,14.55,0.0,0.03,0.98,-3.0,-0.2,-0.1,720,0,0.0,0,39.540573,-122.331947,0.0,0.009,310.5,10,2,1.5,0,0.0,-1,0.0,0.0,0.0,0
33066,1469892706705,,,,,,,0.0,0.03,0.98,-3.0,-0.1,-0.1,720,0,,,,,,,,,,,,,,,,,
33086,1469892706725,,,,,,,0.0,0.03,0.98,-3.1,-0.0,-0.0,720,0,,,,,,,,,,,,,,,,,
33106,1469892706745,,,,,,,0.01,0.04,0.98,-3.0,-0.1,-0.0,740,0,,,,,,,,,,,,,,,,,
33126,1469892706765,,,,,,,0.01,0.04,0.99,-3.0,-0.0,-0.1,740,0,,,,,,,,,,,,,,,,,
33146,1469892706785,,,,32,,,0.01,0.03,0.98,-3.0,0.0,-0.2,740,0,0.0,0,39.540573,-122.331947,0.0,0.009,310.5,10,2,1.5,0,0.0,-1,0.0,,0.0,0
33166,1469892706805,,,,,,,0.01,0.03,0.98,-3.0,0.1,-0.1,740,0,,,,,,,,,,,,,,,,,
33186,1469892706825,,,,,,,0.01,0.03,0.98,-3.0,0.0,-0.1,760,0,,,,,,,,,,,,,,,,,
33206,1469892706845,,,,,,,0.0,0.03,0.99,-3.0,-0.1,-0.2,740,0,,,,,,,,,,,,,,,,,
33226,1469892706865,,,,,,,0.01,0.03,0.98,-3.0,0.0,-0.2,740,0,,,,,,,,,,,,,,,,,
33246,1469892706885,0,134.7,161.3,30,157.0,,0.01,0.03,0.99,-3.0,0.1,-0.1,720,0,0.0,0,39.540573,-122.331947,0.0,0.009,310.5,10,2,1.5,0,0.0,-1,0.0,0.0,0.0,0
33266,1469892706898,,,,,,,0.01,0.04,0.99,-3.0,0.0,-0.1,720,0,,,,,,,,,,,,,,,,,
33286,1469892706918,,,,,,,0.0,0.03,0.99,-2.9,-0.0,-0.1,740,0,,,,,,,,,,,,,,,,,
33306,1469892706938,,,,,,,0.01,0.04,0.98,-2.9,-0.0,-0.1,740,0,,,,,,,,,,,,,,,,,
33326,1469892706958,,,,,,,0.01,0.04,0.98,-3.0,0.1,-0.1,740,0,,,,,,,,,,,,,,,,,
33346,1469892706978,,,,33,,,0.0,0.04,0.99,-2.9,0.0,-0.1,760,0,0.0,0,39.540573,-122.331947,0.0,0.009,310.5,10,2,1.5,0,0.0,-1,0.0,,0.0,0
33366,1469892707105,,,,,,,0.0,0.03,0.99,-2.9,0.0,-0.1,720,0,,,,,,,,,,,,,,,,,
33386,1469892707125,,,,,,,0.01,0.04,0.99,-2.9,0.1,-0.1,720,0,,,,,,,,,,,,,,,,,
33406,1469892707145,,,,,,,0.01,0.04,0.99,-2.9,0.2,-0.1,720,0,,,,,,,,,,,,,,,,,
33426,1469892707165,,,,,,,0.01,0.04,0.99,-2.9,0.1,-0.1,740,0,,,,,,,,,,,,,,,,,
33446,1469892707185,0,133.5,160.3,35,157.8,,0.0,0.04,0.99,-2.9,0.1,-0.1,740,0,0.0,0,39.540573,-122.331947,0.0,0.009,310.5,10,2,1.5,0,0.0,-1,0.0,0.0,0.0,0
33466,1469892707205,,,,,,,0.01,0.04,0.99,-2.9,0.0,-0.1,740,0,,,,,,,,,,,,,,,,,
33486,1469892707225,,,,,,,0.01,0.04,0.99,-3.0,0.1,-0.0,740,0,,,,,,,,,,,,,,,,,
33506,1469892707245,,,,,,,0.01,0.04,0.99,-3.0,0.1,-0.1,760,0,,,,,,,,,,,,,,,,,
33526,1469892707265,,,,,,,0.0,0.04,0.99,-3.0,0.1,-0.1,720,0,,,,,,,,,,,,,,,,,
33546,1469892707285,,,,34,,,0.01,0.04,0.99,-3.0,0.2,-0.1,720,0,0.0,0,39.540573,-122.331947,0.0,0.009,310.5,10,2,1.5,0,0.0,-1,0.0,,0.0,0
33566,1469892707206,,,,,,,0.01,0.04,0.99,-3.0,0.2,-0.0,720,0,,,,,,,,,,,,,,,,,
33586,1469892707226,,,,,,,0.01,0.04,0.99,-3.0,0.1,-0.0,720,0,,,,,,,,,,,,,,,,,
33606,1469892707246,,,,,,,0.01,0.04,0.99,-3.0,0.1,-0.1,740,0,,,,,,,,,,,,,,,,,
33626,1469892707266,,,,,,,0.01,0.04,0.99,-3.0,0.1,-0.1,740,0,,,,,,,,,,,,,,,,,
33646,1469892707286,0,135.1,161.4,32,157.8,,0.01,0.04,0.99,-3.0,0.2,-0.0,720,0,0.0,0,39.540573,-122.331947,0.0,0.009,310.5,10,2,1.5,0,0.0,-1,0.0,0.0,0.0,0
33666,1469892707305,,,,,,,0.01,0.04,0.99,-3.0,0.1,-0.1,760,0,,,,,,,,,,,,,,,,,
33686,1469892707325,,,,,,,0.0,0.03,0.99,-3.0,0.2,-0.1,760,0,,,,,,,,,,,,,,,,,
33706,1469892707345,,,,,,,0.0,0.04,0.99,-3.1,0.1,-0.0,720,0,,,,,,,,,,,,,,,,,
33726,1469892707365,,,,,,,0.01,0.04,0.99,-3.1,0.1,-0.0,720,0,,,,,,,,,,,,,,,,,
33746,1469892707385,,,,30,,,0.0,0.03,0.99,-3.1,0.0,-0.1,720,0,0.0,0,39.540573,-122.331947,0.0,0.009,310.5,10,2,1.5,0,0.0,-1,0.0,,0.0,0
33766,1469892707405,,,,,,,0.0,0.03,0.98,-3.1,0.1,-0.1,720,0,,,,,,,,,,,,,,,,,
33786,1469892707425,,,,,,,0.0,0.04,0.99,-3.1,0.1,0.0,720,0,,,,,,,,,,,,,,,,,
33806,1469892707445,,,,,,,0.0,0.04,0.99,-3.1,0.0,0.0,720,0,,,,,,,,,,,,,,,,,
33826,1469892707465,,,,,,,0.0,0.04,0.99,-3.0,0.0,-0.1,760,0,,,,,,,,,,,,,,,,,
33846,1469892707485,0,135.0,160.9,31,157.2,,0.01,0.04,0.99,-3.0,0.1,-0.1,760,0,0.0,0,39.540573,-122.331947,0.0,0.009,310.5,10,2,1.5,0,0.0,-1,0.0,0.0,0.0,0
33866,1469892707505,,,,,,,0.01,0.04,0.99,-3.1,0.1,0.0,720,0,,,,,,,,,,,,,,,,,
33886,1469892707507,,,,,,,0.01,0.04,0.99,-3.0,0.1,0.0,720,0,,,,,,,,,,,,,,,,,
33906,1469892707527,,,,,,,0.0,0.03,0.99,-3.0,0.1,-0.1,720,0,,,,,,,,,,,,,,,,,
33926,1469892707547,,,,,,,0.01,0.04,0.99,-3.0,0.2,-0.1,720,0,,,,,,,,,,,,,,,,,
33946,1469892707567,,,,34,,,0.01,0.04,0.99,-3.0,0.3,0.0,740,0,0.0,0,39.540573,-122.331947,0.0,0.009,310.5,10,2,1.5,0,0.0,-1,0.0,,0.0,0
33966,1469892707605,,,,,,,0.01,0.04,0.99,-3.0,0.2,-0.0,740,0,,,,,,,,,,,,,,,,,
33986,1469892707625,,,,,,,0.01,0.04,0.99,-3.0,0.2,-0.1,760,0,,,,,,,,,,,,,,,,,
34006,1469892707645,,,,,,,0.01,0.04,0.99,-3.1,0.1,-0.1,760,0,,,,,,,,,,,,,,,,,
34026,1469892707665,,,,,,,0.01,0.04,0.99,-3.1,0.2,0.0,740,0,,,,,,,,,,,,,,,,,
34046,1469892707685,0,134.1,160.3,33,156.5,14.57,0.01,0.03,1.0,-3.0,0.2,-0.0,740,0,0.0,0,39.540573,-122.331947,0.0,0.009,310.5,10,2,1.5,0,0.0,-1,0.0,0.0,0.0,0
34066,1469892707705,,,,,,,0.0,0.03,1.0,-3.0,0.2,-0.1,740,0,,,,,,,,,,,,,,,,,
34086,1469892707725,,,,,,,0.0,0.03,1.0,-3.0,0.2,-0.1,740,0,,,,,,,,,,,,,,,,,
34106,1469892707745,,,,,,,0.01,0.03,1.0,-3.0,0.3,-0.0,740,0,,,,,,,,,,,,,,,,,
34126,1469892707765,,,,,,,0.01,0.03,1.0,-3.0,0.3,-0.0,740,0,,,,,,,,,,,,,,,,,
34146,1469892707785,,,,33,,,0.0,0.03,1.0,-3.0,0.2,-0.1,760,0,0.0,0,39.540573,-122.331947,0.0,0.009,310.5,10,2,1.5,0,0.0,-1,0.0,,0.0,0
34166,1469892707905,,,,,,,0.01,0.03,1.0,-3.0,0.2,-0.1,760,0,,,,,,,,,,,,,,,,,
34186,1469892707925,,,,,,,0.01,0.03,1.0,-3.0,0.3,-0.0,740,0,,,,,,,,,,,,,,,,,
34206,1469892707945,,,,,,,0.01,0.03,1.0,-3.0,0.2,-0.0,740,0,,,,,,,,,,,,,,,,,
34226,1469892707965,,,,,,,0.0,0.03,1.0,-3.0,0.2,-0.1,740,0,,,,,,,,,,,,,,,,,
34246,1469892707985,0,134.5,160.7,34,156.9,,0.0,0.03,1.0,-3.0,0.2,-0.1,740,0,0.0,0,39.540573,-122.331947,0.0,0.009,310.5,10,2,1.5,0,0.0,-1,0.0,0.0,0.0,0
34266,1469892708005,,,,,,,0.01,0.03,1.0,-3.0,0.3,-0.0,740,0,,,,,,,,,,,,,,,,,
34286,1469892708025,,,,,,,0.01,0.03,1.0,-3.0,0.2,-0.0,740,0,,,,,,,,,,,,,,,,,
34306,1469892708045,,,,,,,0.0,0.03,1.0,-3.0,0.1,-0.1,760,0,,,,,,,,,,,,,,,,,
34326,1469892708065,,,,,,,0.0,0.03,0.99,-2.9,0.1,-0.1,760,1649,,,,,,,,,,,,,,,,,
34346,1469892708085,,,,32,,,-0.0,0.03,0.99,-3.0,0.2,-0.0,720,1649,0.0,0,39.540573,-122.331947,0.0,0.009,310.5,10,2,1.5,0,0.0,-1,0.0,,0.0,0
34366,1469892708105,,,,,,,-0.0,0.03,1.0,-2.9,0.1,-0.0,720,1649,,,,,,,,,,,,,,,,,
34386,1469892707991,,,,,,,-0.01,0.02,1.0,-2.9,0.1,-0.1,720,1649,,,,,,,,,,,,,,,,,
34406,1469892708011,,,,,,,-0.0,0.02,1.0,-2.9,0.2,-0.1,720,1649,,,,,,,,,,,,,,,,,
34426,1469892708031,,,,,,,0.0,0.03,1.0,-2.9,0.2,-0.0,720,0,,,,,,,,,,,,,,,,,
34446,1469892708051,0,133.7,160.1,31,156.8,,-0.0,0.02,1.0,-2.9,0.2,-0.1,720,0,0.437,0,39.540573,-122.331947,0.0,0.009,310.5,10,2,1.5,0,0.0,-1,0.0,0.0,0.0,0
34466,1469892708105,,,,,,,-0.0,0.03,1.0,-2.9,0.2,-0.2,720,0,,,,,,,,,,,,,,,,,
34486,1469892708125,,,,,,,-0.0,0.04,0.99,-3.0,0.1,-0.1,740,0,,,,,,,,,,,,,,,,,
34506,1469892708145,,,,,,,-0.0,0.04,0.99,-3.0,0.1,0.0,720,0,,,,,,,,,,,,,,,,,
34526,1469892708165,,,,,,,-0.01,0.03,0.99,-3.0,0.1,-0.1,720,0,,,,,,,,,,,,,,,,,
34546,1469892708185,,,,29,,,-0.01,0.03,0.99,-3.0,0.2,-0.1,720,0,0.0,0,39.540573,-122.331947,0.0,0.009,310.5,10,2,1.5,0,0.0,-1,0.0,,0.0,0
34566,1469892708205,,,,,,,-0.01,0.04,0.99,-3.0,0.2,0.0,700,0,,,,,,,,,,,,,,,,,
34586,1469892708225,,,,,,,-0.0,0.04,0.99,-2.9,0.2,0.0,720,0,,,,,,,,,,,,,,,,,
34606,1469892708245,,,,,,,-0.01,0.03,0.99,-2.9,0.0,-0.1,720,0,,,,,,,,,,,,,,,,,
34626,1469892708265,,,,,,,-0.01,0.03,0.99,-2.9,0.1,-0.1,720,0,,,,,,,,,,,,,,,,,
34646,1469892708285,0,135.0,161.3,31,158.1,,-0.01,0.03,0.99,-2.9,0.3,-0.0,740,0,0.0,0,39.540573,-122.331947,0.0,0.009,310.5,10,2,1.5,0,0.0,-1,0.0,0.0,0.0,0
34666,1469892708305,,,,,,,-0.01,0.03,1.0,-2.8,0.2,-0.1,720,0,,,,,,,,,,,,,,,,,
34686,1469892708325,,,,,,,-0.02,0.03,1.0,-2.8,0.1,-0.2,720,0,,,,,,,,,,,,,,,,,
34706,1469892708345,,,,,,,-0.01,0.03,1.0,-2.8,0.1,-0.1,720,0,,,,,,,,,,,,,,,,,
34726,1469892708365,,,,,,,-0.01,0.03,0.99,-2.8,0.2,0.0,720,0,,,,,,,,,,,,,,,,,
34746,1469892708385,,,,35,,,-0.01,0.03,0.99,-2.7,0.1,-0.1,740,0,0.0,0,39.540573,-122.331947,0.0,0.009,310.5,10,2,1.5,0,0.0,-1,0.0,,0.0,0
34766,1469892708403,,,,,,,-0.02,0.03,0.99,-2.6,0.2,-0.2,740,0,,,,,,,,,,,,,,,,,
34786,1469892708423,,,,,,,-0.03,0.04,0.99,-2.7,0.2,-0.1,740,43,,,,,,,,,,,,,,,,,
34806,1469892708443,,,,,,,-0.01,0.05,0.99,-2.7,0.2,0.1,780,43,,,,,,,,,,,,,,,,,
34826,1469892708463,,,,,,,-0.01,0.04,0.99,-2.6,0.3,0.0,780,43,,,,,,,,,,,,,,,,,
34846,1469892708483,0,135.1,161.5,33,157.7,,-0.02,0.03,0.99,-2.5,0.2,-0.2,760,1538461,17.209,0,39.540573,-122.331947,0.0,0.009,310.5,10,2,1.5,0,0.0,-1,0.0,0.0,0.0,0
34866,1469892708503,,,,,,,-0.02,0.04,0.99,-2.4,0.4,-0.2,760,0,,,,,,,,,,,,,,,,,
34886,1469892708523,,,,,,,-0.02,0.04,0.98,-2.4,0.4,0.1,780,306,,,,,,,,,,,,,,,,,
34906,1469892708543,,,,,,,-0.02,0.04,0.97,-2.4,0.3,0.3,800,306,,,,,,,,,,,,,,,,,
34926,1469892708563,,,,,,,-0.02,0.04,0.98,-2.3,0.2,0.1,820,306,,,,,,,,,,,,,,,,,
34946,1469892708583,,,,36,,,-0.03,0.03,0.98,-2.1,0.2,-0.1,860,306,2.549,0,39.540573,-122.331947,0.0,0.009,310.5,10,2,1.5,0,0.0,-1,0.0,,0.0,0
34966,1469892708700,,,,,,,-0.03,0.02,0.98,-2.1,0.2,-0.2,860,16,,,,,,,,,,,,,,,,,
34986,1469892708720,,,,,,,-0.04,0.02,0.98,-2.0,0.0,-0.0,860,16,,,,,,,,,,,,,,,,,
35006,1469892708740,,,,,,,-0.04,0.02,0.98,-2.1,0.2,0.3,860,16,,,,,,,,,,,,,,,,,
35026,1469892708760,,,,,,,-0.03,0.03,0.98,-2.0,0.3,0.5,880,16,,,,,,,,,,,,,,,,,
35046,1469892708780,0,135.4,161.5,40,157.7,14.6,-0.02,0.05,0.98,-2.1,0.3,0.5,900,18,53.75,0,39.540573,-122.331947,0.0,0.009,310.5,10,2,1.5,0,0.0,-1,0.0,0.0,0.0,0
35066,1469892708800,,,,,,,-0.02,0.03,0.98,-2.0,0.2,0.4,920,18,,,,,,,,,,,,,,,,,
35086,1469892708820,,,,,,,-0.02,0.03,0.99,-1.9,0.2,0.3,960,18,,,,,,,,,,,,,,,,,
35106,1469892708840,,,,,,,-0.03,0.03,1.0,-1.8,0.1,0.2,960,18,,,,,,,,,,,,,,,,,
35126,1469892708860,,,,,,,-0.03,0.03,1.0,-1.7,0.0,0.2,960,24,,,,,,,,,,,,,,,,,
