"Interval"|"ms"|0|0|1,"Utc"|"ms"|0|0|1,"FuelLevel"|"F"|0|100|5,"OilTemp"|"F"|0.0|300.0|5,"Coolant"|"F"|0.0|300.0|5,"OilPress"|"PSI"|0|150|10,"EngineTemp"|"F"|0.0|300.0|5,"Battery"|"Volts"|0.0|20.0|1,"AccelX"|"G"|-3.0|3.0|50,"AccelY"|"G"|-3.0|3.0|50,"AccelZ"|"G"|-3.0|3.0|50,"Yaw"|"Deg/Sec"|-300.0|300.0|50,"Pitch"|"Deg/Sec"|-300.0|300.0|50,"Roll"|"Deg/Sec"|-300.0|300.0|50,"RPM"|""|0|10000|50,"Driveshaft"|"RPM"|0|5000|50,"GearRatio"|""|-5.0|5.0|10,"Gear"|""|-1|5|10,"Latitude"|"Degrees"|-180.0|180.0|10,"Longitude"|"Degrees"|-180.0|180.0|10,"Speed"|"MPH"|0.0|150.0|10,"Distance"|"Miles"|0.0|0.0|10,"Altitude"|"Feet"|0.0|4000.0|10,"GPSSats"|""|0|20|10,"GPSQual"|""|0|5|10,"GPSDOP"|""|0.0|20.0|10,"LapCount"|""|0|0|10,"LapTime"|"Min"|0.0|0.0|10,"Sector"|""|0|0|10,"SectorTime"|"Min"|0.0|0.0|10,"PredTime"|"Min"|0.0|0.0|5,"ElapsedTime"|"Min"|0.0|0.0|10,"CurrentLap"|""|0|0|10
5066,1469898031238,,,,,,,-0.19,0.04,0.96,-2.3,-3.2,-0.2,2180,2727,,,,,,,,,,,,,,,,,
5086,1469898031258,,,,,,,-0.17,0.07,0.94,-2.3,-4.2,-0.3,2120,2736,,,,,,,,,,,,,,,,,
5106,1469898031278,,,,,,,-0.13,0.08,0.9,-2.2,-4.3,-0.4,2100,2727,,,,,,,,,,,,,,,,,
5126,1469898031298,,,,,,,-0.08,0.08,0.91,-2.2,-3.1,-0.5,2120,2707,,,,,,,,,,,,,,,,,
5146,1469898031318,,,,54,,,-0.05,0.06,0.93,-2.2,-1.4,-0.5,2120,2707,0.775,5,39.543655,-122.335205,47.42,0.001,373.7,9,2,1.6,0,0.0,-1,0.0,,0.0,0
5166,1469898031338,,,,,,,-0.05,0.02,0.95,-2.2,0.5,-0.4,2120,2727,,,,,,,,,,,,,,,,,
5186,1469898031358,,,,,,,-0.06,0.01,0.97,-2.2,0.7,-0.1,2100,2736,,,,,,,,,,,,,,,,,
5206,1469898031378,,,,,,,-0.11,0.02,0.97,-2.3,-0.0,0.1,2120,2746,,,,,,,,,,,,,,,,,
5226,1469898031398,,,,,,,-0.12,0.05,1.01,-2.3,-2.0,0.0,2120,2756,,,,,,,,,,,,,,,,,
5246,1469898031418,0,191.2,178.1,52,176.2,,-0.12,0.07,0.98,-2.0,-3.5,-0.1,2120,2716,0.772,5,39.543644,-122.33522,47.61,0.002,374.0,9,2,1.6,0,0.0,-1,0.0,0.0,0.0,0
5266,1469898031438,,,,,,,-0.09,0.11,0.97,-2.1,-3.4,-0.1,2100,2716,,,,,,,,,,,,,,,,,
5286,1469898031458,,,,,,,-0.06,0.1,0.93,-2.2,-1.8,-0.2,2120,2736,,,,,,,,,,,,,,,,,
5306,1469898031478,,,,,,,-0.05,0.06,0.93,-2.3,-0.3,-0.1,2120,2746,,,,,,,,,,,,,,,,,
5326,1469898031498,,,,,,,-0.07,0.03,0.95,-2.4,0.3,-0.0,2080,2736,,,,,,,,,,,,,,,,,
5346,1469898031518,,,,63,,,-0.14,0.04,0.95,-2.4,0.3,0.0,2140,2736,0.779,5,39.543625,-122.335243,47.53,0.004,374.3,9,2,1.6,0,0.0,-1,0.0,,0.0,0
5366,1469898031538,,,,,,,-0.16,0.07,0.96,-2.3,-1.3,0.1,2140,2707,,,,,,,,,,,,,,,,,
5386,1469898031558,,,,,,,-0.15,0.1,0.93,-2.2,-2.7,0.1,2120,2716,,,,,,,,,,,,,,,,,
5406,1469898031578,,,,,,,-0.12,0.1,0.94,-2.3,-2.6,0.0,2140,2727,,,,,,,,,,,,,,,,,
5426,1469898031598,,,,,,,-0.09,0.1,0.93,-2.2,-1.1,-0.1,2140,2746,,,,,,,,,,,,,,,,,
5446,1469898031619,1,191.3,177.9,52,176.3,,-0.04,0.08,1.0,-2.2,0.4,-0.1,2160,2746,0.776,5,39.543613,-122.335258,47.59,0.005,374.7,9,2,1.6,0,0.0,-1,0.0,0.0,0.0,0
5466,1469898031639,,,,,,,-0.05,0.05,1.0,-2.4,0.9,-0.0,2140,2736,,,,,,,,,,,,,,,,,
5486,1469898031659,,,,,,,-0.12,0.04,1.0,-2.5,0.8,0.1,2140,2736,,,,,,,,,,,,,,,,,
5506,1469898031679,,,,,,,-0.16,0.06,1.0,-2.4,-0.6,0.1,2080,2746,,,,,,,,,,,,,,,,,
5526,1469898031699,,,,,,,-0.15,0.08,0.96,-2.3,-1.8,0.2,2120,2727,,,,,,,,,,,,,,,,,
5546,1469898031719,,,,51,,,-0.11,0.1,0.95,-2.2,-2.8,0.2,2100,2746,0.795,5,39.543602,-122.335274,47.65,0.006,375.1,9,2,1.6,0,0.0,-1,0.0,,0.0,0
5566,1469898031739,,,,,,,-0.07,0.1,0.96,-2.2,-2.1,0.0,2120,2736,,,,,,,,,,,,,,,,,
5586,1469898031759,,,,,,,-0.06,0.09,0.98,-2.3,-0.6,-0.2,2140,2716,,,,,,,,,,,,,,,,,
5606,1469898031779,,,,,,,-0.09,0.07,0.98,-2.3,0.4,-0.3,2120,2727,,,,,,,,,,,,,,,,,
5626,1469898031799,,,,,,,-0.13,0.06,1.0,-2.3,1.1,-0.2,2160,2756,,,,,,,,,,,,,,,,,
5646,1469898031918,0,191.7,178.4,60,176.8,,-0.14,0.07,1.0,-2.3,0.5,-0.2,2120,2746,0.782,5,39.543572,-122.335312,47.75,0.009,376.2,9,2,1.6,0,0.0,-1,0.0,0.0,0.0,0
5666,1469898031938,,,,,,,-0.12,0.1,0.99,-2.3,-1.0,-0.1,2140,2746,,,,,,,,,,,,,,,,,
5686,1469898031958,,,,,,,-0.08,0.08,1.0,-2.2,-2.0,-0.2,2140,2736,,,,,,,,,,,,,,,,,
5706,1469898031978,,,,,,,-0.07,0.09,1.01,-2.2,-0.9,-0.4,2140,2727,,,,,,,,,,,,,,,,,
5726,1469898031998,,,,,,,-0.06,0.05,1.04,-2.2,0.8,-0.5,2100,2727,,,,,,,,,,,,,,,,,
5746,1469898032018,,,,58,,,-0.09,0.01,1.03,-2.2,2.1,-0.4,2120,2756,0.799,5,39.543572,-122.335312,47.75,0.009,376.2,9,2,1.6,0,0.0,-1,0.0,,0.0,0
5766,1469898032038,,,,,,,-0.12,0.01,1.01,-2.2,2.0,-0.2,2140,2756,,,,,,,,,,,,,,,,,
5786,1469898032058,,,,,,,-0.17,0.06,0.97,-2.2,0.8,-0.2,2120,2746,,,,,,,,,,,,,,,,,
5806,1469898032078,,,,,,,-0.17,0.05,0.96,-2.1,-0.9,-0.2,2160,2736,,,,,,,,,,,,,,,,,
5826,1469898032098,,,,,,,-0.13,0.07,0.95,-2.0,-1.2,-0.3,2160,2727,,,,,,,,,,,,,,,,,
5846,1469898032019,0,191.8,178.7,47,176.9,,-0.09,0.06,0.95,-2.0,0.3,-0.5,2140,2736,0.776,5,39.54356,-122.335335,47.79,0.01,376.5,9,2,1.6,0,0.0,-1,0.0,0.0,0.0,0
5866,1469898032039,,,,,,,-0.06,0.04,0.99,-2.2,1.6,-0.4,2140,2756,,,,,,,,,,,,,,,,,
5886,1469898032059,,,,,,,-0.07,0.01,1.02,-2.3,2.4,-0.2,2140,2766,,,,,,,,,,,,,,,,,
5906,1469898032079,,,,,,,-0.1,0.0,1.03,-2.4,1.9,0.1,2160,2766,,,,,,,,,,,,,,,,,
5926,1469898032099,,,,,,,-0.13,0.0,1.04,-2.4,0.6,0.2,2160,2736,,,,,,,,,,,,,,,,,
5946,1469898032119,,,,52,,,-0.11,0.01,1.01,-2.2,-1.3,-0.0,2140,2736,0.787,5,39.543545,-122.33535,47.76,0.012,376.9,9,2,1.6,0,0.0,-1,0.0,,0.0,0
5966,1469898032139,,,,,,,-0.09,0.03,0.97,-2.2,-1.5,-0.4,2160,2746,,,,,,,,,,,,,,,,,
5986,1469898032159,,,,,,,-0.05,0.03,0.97,-2.1,-0.0,-0.6,2120,2736,,,,,,,,,,,,,,,,,
6006,1469898032179,,,,,,,-0.04,-0.01,0.98,-2.1,1.5,-0.6,2120,2776,,,,,,,,,,,,,,,,,
6026,1469898032199,,,,,,,-0.07,-0.02,0.98,-2.2,1.8,-0.6,2160,2756,,,,,,,,,,,,,,,,,
6046,1469898032219,0,192.4,178.8,55,176.7,14.1,-0.14,-0.02,0.96,-2.3,0.8,-0.5,2180,2736,0.766,5,39.54353,-122.335358,47.91,0.013,377.2,9,2,1.6,0,0.0,-1,0.0,0.0,0.0,0
6066,1469898032239,,,,,,,-0.16,0.01,0.99,-2.2,-0.8,-0.4,2140,2746,,,,,,,,,,,,,,,,,
6086,1469898032259,,,,,,,-0.13,0.01,0.96,-2.3,-1.6,-0.2,2140,2746,,,,,,,,,,,,,,,,,
6106,1469898032279,,,,,,,-0.08,0.02,0.96,-2.4,-0.6,-0.2,2180,2756,,,,,,,,,,,,,,,,,
6126,1469898032299,,,,,,,-0.03,0.04,1.02,-2.3,0.8,-0.3,2120,2766,,,,,,,,,,,,,,,,,
6146,1469898032316,,,,53,,,-0.02,0.03,1.03,-2.5,1.2,-0.3,2100,2766,0.794,5,39.543518,-122.335388,47.97,0.015,377.6,9,2,1.6,0,0.0,-1,0.0,,0.0,0
6166,1469898032336,,,,,,,-0.08,-0.01,1.04,-2.5,1.0,-0.3,2140,2746,,,,,,,,,,,,,,,,,
6186,1469898032356,,,,,,,-0.12,-0.01,1.02,-2.3,0.0,-0.2,2160,2746,,,,,,,,,,,,,,,,,
6206,1469898032376,,,,,,,-0.09,-0.01,0.99,-2.3,-1.2,-0.3,2160,2756,,,,,,,,,,,,,,,,,
6226,1469898032396,,,,,,,-0.05,-0.0,0.97,-2.2,-1.3,-0.4,2160,2756,,,,,,,,,,,,,,,,,
6246,1469898032416,0,191.7,178.5,59,176.7,,-0.02,0.02,0.94,-2.2,-0.1,-0.3,2120,2766,0.769,5,39.543503,-122.335403,47.96,0.016,378.1,9,2,1.6,0,0.0,-1,0.0,0.0,0.0,0
6266,1469898032436,,,,,,,-0.02,0.02,0.97,-2.5,1.1,0.0,2140,2756,,,,,,,,,,,,,,,,,
6286,1469898032456,,,,,,,-0.06,0.01,0.95,-2.7,1.4,0.1,2120,2746,,,,,,,,,,,,,,,,,
6306,1469898032476,,,,,,,-0.11,0.03,0.95,-2.6,0.7,0.2,2160,2746,,,,,,,,,,,,,,,,,
6326,1469898032496,,,,,,,-0.09,0.04,0.94,-2.5,-1.2,0.2,2180,2756,,,,,,,,,,,,,,,,,
6346,1469898032516,,,,63,,,-0.05,0.01,0.93,-2.4,-2.3,0.3,2160,2766,0.762,5,39.543491,-122.335426,47.88,0.018,378.6,9,2,1.6,0,0.0,-1,0.0,,0.0,0
6366,1469898032536,,,,,,,-0.01,0.02,0.94,-2.2,-1.5,0.1,2160,2766,,,,,,,,,,,,,,,,,
6386,1469898032556,,,,,,,0.02,0.04,1.0,-2.4,-0.2,0.1,2160,2766,,,,,,,,,,,,,,,,,
6406,1469898032576,,,,,,,-0.0,0.02,1.01,-2.6,1.0,0.3,2140,2756,,,,,,,,,,,,,,,,,
6426,1469898032596,,,,,,,-0.07,0.05,1.02,-2.7,1.3,0.4,2140,2766,,,,,,,,,,,,,,,,,
6446,1469898032715,0,192.4,179.0,60,177.4,,-0.08,0.05,1.0,-2.9,-0.3,0.5,2120,2736,0.798,5,39.543465,-122.335449,47.98,0.02,379.5,9,2,1.6,0,0.0,-1,0.0,0.0,0.0,0
6466,1469898032735,,,,,,,-0.09,0.05,0.97,-2.8,-1.7,0.3,2160,2756,,,,,,,,,,,,,,,,,
6486,1469898032755,,,,,,,-0.07,0.04,0.95,-2.6,-1.5,0.1,2140,2776,,,,,,,,,,,,,,,,,
6506,1469898032775,,,,,,,-0.03,0.04,0.95,-2.7,0.3,-0.0,2140,2776,,,,,,,,,,,,,,,,,
6526,1469898032795,,,,,,,-0.01,0.02,0.97,-2.7,1.4,0.2,2160,2766,,,,,,,,,,,,,,,,,
6546,1469898032815,,,,64,,,-0.06,0.03,0.99,-2.9,1.4,0.4,2180,2746,0.781,5,39.543465,-122.335449,47.98,0.02,379.5,9,2,1.6,0,0.0,-1,0.0,,0.0,0
6566,1469898032835,,,,,,,-0.11,0.09,1.0,-3.1,0.3,0.3,2100,2756,,,,,,,,,,,,,,,,,
6586,1469898032855,,,,,,,-0.11,0.08,0.99,-3.0,-0.8,0.3,2160,2766,,,,,,,,,,,,,,,,,
6606,1469898032875,,,,,,,-0.08,0.09,0.98,-3.0,-1.2,0.3,2160,2776,,,,,,,,,,,,,,,,,
6626,1469898032895,,,,,,,-0.02,0.09,1.0,-3.2,-0.4,0.2,2140,2776,,,,,,,,,,,,,,,,,
6646,1469898032819,0,191.8,178.3,57,176.2,,-0.01,0.04,1.01,-3.2,0.4,0.1,2160,2786,0.778,5,39.543449,-122.33548,47.98,0.022,380.0,9,2,1.6,0,0.0,-1,0.0,0.0,0.0,0
6666,1469898032839,,,,,,,-0.07,0.02,1.04,-3.3,0.6,0.3,2140,2746,,,,,,,,,,,,,,,,,
6686,1469898032859,,,,,,,-0.12,0.03,1.04,-3.3,0.0,0.4,2160,2766,,,,,,,,,,,,,,,,,
6706,1469898032879,,,,,,,-0.13,0.01,0.99,-3.2,-1.3,0.3,2160,2756,,,,,,,,,,,,,,,,,
6726,1469898032899,,,,,,,-0.11,0.03,0.97,-3.1,-1.5,0.0,2100,2776,,,,,,,,,,,,,,,,,
6746,1469898032913,,,,57,,,-0.07,0.05,0.97,-3.1,-0.4,-0.3,2160,2766,0.784,5,39.543438,-122.335487,48.27,0.023,380.5,9,2,1.6,0,0.0,-1,0.0,,0.0,0
6766,1469898032933,,,,,,,-0.06,0.01,0.98,-3.2,1.0,-0.3,2180,2786,,,,,,,,,,,,,,,,,
6786,1469898032953,,,,,,,-0.1,0.03,0.97,-3.5,1.2,-0.2,2160,2756,,,,,,,,,,,,,,,,,
6806,1469898032973,,,,,,,-0.14,0.05,0.98,-3.5,0.4,-0.3,2160,2756,,,,,,,,,,,,,,,,,
6826,1469898032993,,,,,,,-0.13,0.08,0.97,-3.5,-0.9,-0.1,2160,2766,,,,,,,,,,,,,,,,,
6846,1469898033019,0,192.2,178.8,46,176.9,,-0.09,0.07,0.96,-3.6,-1.4,-0.0,2120,2766,0.764,5,39.543423,-122.335518,48.15,0.025,381.0,9,2,1.6,0,0.0,-1,0.0,0.0,0.0,0
6866,1469898033039,,,,,,,-0.07,0.06,0.98,-3.5,-0.4,-0.1,2160,2796,,,,,,,,,,,,,,,,,
6886,1469898033059,,,,,,,-0.05,0.06,1.03,-3.6,0.4,-0.0,2140,2776,,,,,,,,,,,,,,,,,
6906,1469898033079,,,,,,,-0.08,0.05,1.02,-3.8,0.8,0.1,2160,2786,,,,,,,,,,,,,,,,,
6926,1469898033099,,,,,,,-0.11,0.05,1.02,-3.8,-0.4,0.1,2160,2756,,,,,,,,,,,,,,,,,
6946,1469898033119,,,,43,,,-0.11,0.06,0.98,-3.7,-2.3,0.1,2180,2776,0.781,5,39.543407,-122.335526,48.19,0.026,381.5,9,2,1.6,0,0.0,-1,0.0,,0.0,0
6966,1469898033139,,,,,,,-0.1,0.07,0.95,-3.7,-3.0,-0.1,2200,2766,,,,,,,,,,,,,,,,,
6986,1469898033159,,,,,,,-0.07,0.06,0.95,-3.5,-1.6,-0.2,2160,2786,,,,,,,,,,,,,,,,,
7006,1469898033179,,,,,,,-0.07,0.03,0.96,-3.7,0.0,-0.2,2160,2786,,,,,,,,,,,,,,,,,
7026,1469898033199,,,,,,,-0.1,0.03,0.95,-3.9,0.1,-0.1,2160,2766,,,,,,,,,,,,,,,,,
7046,1469898033218,0,192.3,178.7,52,177.0,14.08,-0.13,0.05,0.92,-3.9,-0.7,0.0,2200,2756,0.765,5,39.543396,-122.335541,48.35,0.027,381.9,9,2,1.6,0,0.0,-1,0.0,0.0,0.0,0
7066,1469898033238,,,,,,,-0.11,0.06,0.92,-4.0,-2.2,0.1,2160,2776,,,,,,,,,,,,,,,,,
7086,1469898033258,,,,,,,-0.09,0.08,0.91,-3.9,-2.1,-0.0,2180,2766,,,,,,,,,,,,,,,,,
7106,1469898033278,,,,,,,-0.06,0.06,0.94,-3.9,-0.7,-0.2,2200,2786,,,,,,,,,,,,,,,,,
7126,1469898033298,,,,,,,-0.04,0.06,0.96,-3.9,0.3,-0.4,2180,2786,,,,,,,,,,,,,,,,,
7146,1469898033319,,,,56,,,-0.08,0.08,1.0,-4.0,0.2,-0.2,2160,2786,0.788,5,39.543385,-122.335564,48.4,0.028,382.4,9,2,1.6,0,0.0,-1,0.0,,0.0,0
7166,1469898033339,,,,,,,-0.08,0.09,0.98,-4.0,-1.1,-0.2,2160,2776,,,,,,,,,,,,,,,,,
7186,1469898033359,,,,,,,-0.09,0.09,0.96,-3.9,-2.3,-0.2,2180,2766,,,,,,,,,,,,,,,,,
7206,1469898033379,,,,,,,-0.06,0.08,0.94,-3.8,-1.7,-0.4,2180,2776,,,,,,,,,,,,,,,,,
7226,1469898033399,,,,,,,-0.04,0.06,0.92,-3.8,0.1,-0.5,2140,2796,,,,,,,,,,,,,,,,,
7246,1469898033516,0,191.6,177.8,49,176.0,,-0.03,0.05,0.92,-4.0,1.1,-0.4,2180,2786,0.788,5,39.543354,-122.335602,48.47,0.031,383.4,9,2,1.6,0,0.0,-1,0.0,0.0,0.0,0
7266,1469898033536,,,,,,,-0.09,0.06,0.92,-4.1,1.0,-0.3,2160,2806,,,,,,,,,,,,,,,,,
7286,1469898033556,,,,,,,-0.12,0.09,0.93,-4.1,-0.5,-0.2,2160,2796,,,,,,,,,,,,,,,,,
7306,1469898033576,,,,,,,-0.09,0.09,0.9,-3.9,-1.6,-0.2,2180,2776,,,,,,,,,,,,,,,,,
7326,1469898033596,,,,,,,-0.08,0.1,0.9,-3.9,-0.4,-0.2,2180,2756,,,,,,,,,,,,,,,,,
7346,1469898033616,,,,49,,,-0.04,0.11,0.95,-4.1,0.7,-0.2,2140,2776,0.78,5,39.543354,-122.335602,48.47,0.031,383.4,9,2,1.6,0,0.0,-1,0.0,,0.0,0
7366,1469898033636,,,,,,,-0.06,0.1,0.94,-4.2,1.0,-0.1,2140,2786,,,,,,,,,,,,,,,,,
7386,1469898033656,,,,,,,-0.1,0.1,0.96,-4.2,0.5,-0.0,2140,2786,,,,,,,,,,,,,,,,,
7406,1469898033676,,,,,,,-0.1,0.1,0.96,-4.1,-1.3,0.0,2140,2796,,,,,,,,,,,,,,,,,
7426,1469898033696,,,,,,,-0.09,0.1,0.95,-3.9,-1.4,-0.1,2160,2786,,,,,,,,,,,,,,,,,
7446,1469898033608,0,192.2,178.1,63,175.7,,-0.05,0.07,0.98,-3.9,-0.1,-0.3,2120,2786,0.787,5,39.543343,-122.335617,48.48,0.032,383.8,9,2,1.6,0,0.0,-1,0.0,0.0,0.0,0
7466,1469898033628,,,,,,,-0.05,0.06,1.0,-4.0,1.0,-0.2,2160,2786,,,,,,,,,,,,,,,,,
7486,1469898033648,,,,,,,-0.1,0.07,0.99,-4.2,1.3,-0.0,2180,2806,,,,,,,,,,,,,,,,,
7506,1469898033668,,,,,,,-0.14,0.09,1.0,-4.2,-0.0,-0.1,2180,2796,,,,,,,,,,,,,,,,,
7526,1469898033688,,,,,,,-0.12,0.09,0.95,-4.0,-0.8,-0.2,2180,2796,,,,,,,,,,,,,,,,,
7546,1469898033708,,,,50,,,-0.09,0.11,0.92,-4.0,0.0,-0.4,2160,2806,0.77,5,39.543327,-122.335632,48.56,0.034,384.2,9,2,1.6,0,0.0,-1,0.0,,0.0,0
7566,1469898033728,,,,,,,-0.06,0.1,0.95,-4.1,1.3,-0.3,2180,2806,,,,,,,,,,,,,,,,,
7586,1469898033748,,,,,,,-0.08,0.11,0.96,-4.2,1.7,-0.3,2200,2796,,,,,,,,,,,,,,,,,
7606,1469898033768,,,,,,,-0.1,0.13,0.95,-4.3,0.8,-0.1,2180,2756,,,,,,,,,,,,,,,,,
7626,1469898033788,,,,,,,-0.09,0.14,0.93,-4.2,-0.7,-0.0,2200,2786,,,,,,,,,,,,,,,,,
7646,1469898033810,0,191.5,177.5,64,175.8,,-0.07,0.15,0.93,-4.2,-0.5,-0.2,2200,2776,0.787,5,39.543312,-122.335655,48.6,0.035,384.6,10,2,1.5,0,0.0,-1,0.0,0.0,0.0,0
7666,1469898033830,,,,,,,-0.05,0.12,0.95,-4.1,1.0,-0.3,2140,2806,,,,,,,,,,,,,,,,,
7686,1469898033850,,,,,,,-0.05,0.09,0.96,-4.0,1.7,-0.2,2140,2776,,,,,,,,,,,,,,,,,
7706,1469898033870,,,,,,,-0.08,0.04,0.93,-3.8,1.9,-0.4,2120,2766,,,,,,,,,,,,,,,,,
7726,1469898033890,,,,,,,-0.08,0.05,0.95,-3.7,1.0,-0.6,2100,2746,,,,,,,,,,,,,,,,,
7746,1469898033904,,,,68,,,-0.06,0.08,0.94,-3.7,-0.1,-0.8,2180,2766,0.794,5,39.543301,-122.33567,48.7,0.036,385.0,10,2,1.5,0,0.0,-1,0.0,,0.0,0
7766,1469898033924,,,,,,,-0.04,0.07,0.93,-3.7,-0.3,-0.8,2120,2766,,,,,,,,,,,,,,,,,
7786,1469898033944,,,,,,,-0.02,0.08,0.94,-3.7,-0.2,-0.8,2200,2796,,,,,,,,,,,,,,,,,
7806,1469898033964,,,,,,,-0.02,0.09,0.93,-3.7,-0.1,-0.8,2140,2776,,,,,,,,,,,,,,,,,
7826,1469898033991,,,,,,,-0.02,0.09,0.91,-3.8,-0.2,-0.8,2140,2736,,,,,,,,,,,,,,,,,
7846,1469898034011,0,191.4,178.1,61,175.9,,-0.01,0.08,0.92,-3.8,-0.1,-0.8,2140,2716,0.772,5,39.543285,-122.335678,48.66,0.038,385.5,10,2,1.5,0,0.0,-1,0.0,0.0,0.0,0
7866,1469898034031,,,,,,,0.01,0.09,0.93,-3.8,0.1,-0.9,2060,2689,,,,,,,,,,,,,,,,,
7886,1469898034051,,,,,,,0.02,0.08,0.96,-3.8,0.2,-1.0,2060,2652,,,,,,,,,,,,,,,,,
7906,1469898034071,,,,,,,0.02,0.07,0.98,-3.8,0.3,-0.9,2040,2633,,,,,,,,,,,,,,,,,
7926,1469898034091,,,,,,,0.02,0.06,1.0,-3.8,0.2,-1.0,2040,2633,,,,,,,,,,,,,,,,,
7946,1469898034110,,,,52,,,0.02,0.05,1.0,-3.7,0.0,-0.9,2080,2716,0.771,5,39.54327,-122.335709,48.7,0.039,386.0,10,2,1.5,0,0.0,-1,0.0,,0.0,0
7966,1469898034130,,,,,,,0.03,0.03,0.99,-3.6,0.1,-0.8,2200,2786,,,,,,,,,,,,,,,,,
7986,1469898034150,,,,,,,0.02,0.03,0.97,-3.7,0.1,-0.7,2180,2816,,,,,,,,,,,,,,,,,
8006,1469898034170,,,,,,,0.02,0.03,0.95,-3.7,-0.2,-0.6,2200,2746,,,,,,,,,,,,,,,,,
8026,1469898034291,,,,,,,0.03,0.08,0.96,-3.7,-0.8,-0.8,2160,2736,,,,,,,,,,,,,,,,,
8046,1469898034311,0,192.6,177.5,58,175.6,13.98,0.05,0.09,0.97,-3.8,-0.7,-0.9,2120,2716,0.777,5,39.543243,-122.335747,48.24,0.042,386.8,9,2,1.6,0,0.0,-1,0.0,0.0,0.0,0
8066,1469898034331,,,,,,,0.07,0.09,0.98,-3.8,-0.6,-1.1,2100,2680,,,,,,,,,,,,,,,,,
8086,1469898034351,,,,,,,0.06,0.08,0.98,-3.8,-0.1,-1.1,2080,2680,,,,,,,,,,,,,,,,,
8106,1469898034371,,,,,,,0.05,0.06,0.98,-3.7,0.0,-1.0,2020,2670,,,,,,,,,,,,,,,,,
8126,1469898034391,,,,,,,0.04,0.06,0.97,-3.7,-0.1,-0.8,2100,2698,,,,,,,,,,,,,,,,,
8146,1469898034411,,,,51,,,0.02,0.06,0.98,-3.7,-0.1,-0.9,2120,2736,0.763,5,39.543243,-122.335747,48.24,0.042,386.8,9,2,1.6,0,0.0,-1,0.0,,0.0,0
8166,1469898034431,,,,,,,0.01,0.04,0.99,-3.7,-0.4,-0.8,2160,2727,,,,,,,,,,,,,,,,,
8186,1469898034451,,,,,,,0.02,0.04,0.98,-3.8,-0.9,-0.8,2120,2707,,,,,,,,,,,,,,,,,
8206,1469898034471,,,,,,,0.04,0.03,0.96,-3.7,-1.0,-0.8,2120,2698,,,,,,,,,,,,,,,,,
8226,1469898034491,,,,,,,0.05,0.04,0.95,-3.8,-0.6,-0.9,2060,2689,,,,,,,,,,,,,,,,,
8246,1469898034410,0,192.5,177.7,55,175.7,,0.06,0.05,0.94,-3.8,0.1,-0.9,2060,2661,0.784,5,39.543228,-122.335762,47.89,0.044,387.3,9,2,1.6,0,0.0,-1,0.0,0.0,0.0,0
8266,1469898034430,,,,,,,0.08,0.06,0.93,-3.7,0.4,-0.9,2060,2652,,,,,,,,,,,,,,,,,
8286,1469898034450,,,,,,,0.09,0.06,0.95,-3.7,0.1,-0.8,2080,2661,,,,,,,,,,,,,,,,,
8306,1469898034470,,,,,,,0.08,0.04,0.96,-3.7,-0.1,-0.7,2080,2680,,,,,,,,,,,,,,,,,
8326,1469898034490,,,,,,,0.07,0.03,0.97,-3.6,-0.6,-0.5,2100,2689,,,,,,,,,,,,,,,,,
8346,1469898034509,,,,53,,,0.05,0.02,0.99,-3.5,-0.8,-0.6,2080,2670,0.791,5,39.543217,-122.33577,47.54,0.045,387.7,9,2,1.6,0,0.0,-1,0.0,,0.0,0
8366,1469898034529,,,,,,,0.05,0.02,0.98,-3.5,-1.3,-0.6,2120,2670,,,,,,,,,,,,,,,,,
8386,1469898034549,,,,,,,0.05,0.03,0.96,-3.5,-1.1,-0.6,2060,2661,,,,,,,,,,,,,,,,,
8406,1469898034569,,,,,,,0.07,0.03,0.94,-3.5,-1.0,-0.5,2060,2652,,,,,,,,,,,,,,,,,
8426,1469898034589,,,,,,,0.09,0.03,0.93,-3.5,-0.9,-0.6,2080,2652,,,,,,,,,,,,,,,,,
8446,1469898034598,0,192.0,177.6,52,175.8,,0.1,0.04,0.95,-3.6,-0.6,-0.6,2060,2633,0.769,5,39.543201,-122.3358,47.29,0.046,388.1,9,2,1.6,0,0.0,-1,0.0,0.0,0.0,0
8466,1469898034618,,,,,,,0.1,0.04,0.95,-3.6,-0.3,-0.6,2080,2661,,,,,,,,,,,,,,,,,
8486,1469898034638,,,,,,,0.1,0.03,0.98,-3.7,-0.0,-0.7,2100,2661,,,,,,,,,,,,,,,,,
8506,1469898034658,,,,,,,0.07,0.04,0.99,-3.7,0.3,-0.7,2060,2643,,,,,,,,,,,,,,,,,
8526,1469898034678,,,,,,,0.07,0.04,1.0,-3.6,0.3,-0.7,2040,2643,,,,,,,,,,,,,,,,,
8546,1469898034709,,,,59,,,0.06,0.06,1.0,-3.7,0.5,-0.7,2040,2633,0.777,5,39.543186,-122.335808,46.97,0.048,388.5,9,2,1.6,0,0.0,-1,0.0,,0.0,0
8566,1469898034729,,,,,,,0.06,0.07,0.98,-3.7,0.6,-0.7,2040,2633,,,,,,,,,,,,,,,,,
8586,1469898034749,,,,,,,0.06,0.06,0.98,-3.7,0.8,-0.6,2020,2633,,,,,,,,,,,,,,,,,
8606,1469898034769,,,,,,,0.07,0.08,0.99,-3.8,1.0,-0.5,2040,2606,,,,,,,,,,,,,,,,,
8626,1469898034792,,,,,,,0.06,0.09,1.0,-3.9,1.0,-0.5,2040,2615,,,,,,,,,,,,,,,,,
8646,1469898034812,1,192.8,177.5,53,175.5,,0.06,0.07,1.03,-3.9,0.6,-0.4,2040,2633,0.777,5,39.543175,-122.335823,46.49,0.049,388.9,9,2,1.6,0,0.0,-1,0.0,0.0,0.0,0
8666,1469898034832,,,,,,,0.04,0.07,1.05,-3.9,0.4,-0.4,2040,2606,,,,,,,,,,,,,,,,,
8686,1469898034852,,,,,,,0.03,0.07,1.05,-3.8,-0.3,-0.4,2040,2606,,,,,,,,,,,,,,,,,
8706,1469898034872,,,,,,,0.03,0.07,1.02,-4.0,-0.5,-0.3,2020,2589,,,,,,,,,,,,,,,,,
8726,1469898034892,,,,,,,0.04,0.07,1.0,-3.9,-0.1,-0.4,2020,2606,,,,,,,,,,,,,,,,,
8746,1469898034906,,,,58,,,0.06,0.06,0.97,-4.0,0.2,-0.5,2000,2598,0.783,5,39.543163,-122.335846,46.29,0.05,389.3,9,2,1.6,0,0.0,-1,0.0,,0.0,0
8766,1469898034926,,,,,,,0.08,0.08,0.96,-4.0,0.0,-0.6,2020,2606,,,,,,,,,,,,,,,,,
8786,1469898034946,,,,,,,0.08,0.07,0.96,-4.1,-0.3,-0.6,2000,2624,,,,,,,,,,,,,,,,,
8806,1469898034966,,,,,,,0.08,0.06,0.96,-4.1,-0.3,-0.8,1940,2589,,,,,,,,,,,,,,,,,
8826,1469898034991,,,,,,,0.09,0.07,0.95,-4.2,-0.1,-0.8,1920,2563,,,,,,,,,,,,,,,,,
8846,1469898035110,0,191.4,178.1,49,176.2,,0.1,0.07,0.94,-4.3,-0.3,-0.8,1900,2572,0.741,5,39.543133,-122.335876,45.6,0.053,390.2,9,2,1.6,0,0.0,-1,0.0,0.0,0.0,0
8866,1469898035130,,,,,,,0.08,0.09,0.95,-4.3,-0.7,-0.9,1840,2589,,,,,,,,,,,,,,,,,
8886,1469898035150,,,,,,,0.09,0.08,0.94,-4.3,-1.0,-0.9,1860,2589,,,,,,,,,,,,,,,,,
8906,1469898035170,,,,,,,0.08,0.11,0.95,-4.4,-1.0,-1.1,1800,2580,,,,,,,,,,,,,,,,,
8926,1469898035190,,,,,,,0.05,0.1,0.95,-4.5,-0.7,-1.1,1760,2572,,,,,,,,,,,,,,,,,
8946,1469898035210,,,,48,,,0.06,0.1,0.96,-4.5,-0.6,-1.2,1720,2555,0.687,5,39.543133,-122.335876,45.6,0.053,390.2,9,2,1.6,0,0.0,-1,0.0,,0.0,0
8966,1469898035230,,,,,,,0.06,0.11,0.96,-4.6,-0.0,-1.1,1720,2572,,,,,,,,,,,,,,,,,
8986,1469898035250,,,,,,,0.06,0.09,0.95,-4.6,-0.2,-1.0,1680,2572,,,,,,,,,,,,,,,,,
9006,1469898035270,,,,,,,0.05,0.09,0.94,-4.6,-0.2,-1.0,1620,2563,,,,,,,,,,,,,,,,,
9026,1469898035191,,,,,,,0.06,0.08,0.94,-4.6,-0.2,-0.8,1620,2572,,,,,,,,,,,,,,,,,
9046,1469898035211,0,191.9,178.8,42,176.5,14.08,0.06,0.11,0.96,-4.8,-0.8,-0.7,1580,2555,0.626,0,39.543121,-122.335884,45.34,0.054,390.6,9,2,1.6,0,0.0,-1,0.0,0.0,0.0,0
9066,1469898035231,,,,,,,0.04,0.12,0.96,-5.0,-1.1,-0.5,1540,2546,,,,,,,,,,,,,,,,,
9086,1469898035251,,,,,,,0.05,0.11,0.94,-5.1,-1.3,-0.5,1500,2555,,,,,,,,,,,,,,,,,
9106,1469898035271,,,,,,,0.05,0.1,0.93,-5.2,-1.0,-0.6,1480,2496,,,,,,,,,,,,,,,,,
9126,1469898035291,,,,,,,0.06,0.09,0.91,-5.3,-1.0,-0.5,1440,2563,,,,,,,,,,,,,,,,,
9146,1469898035311,,,,37,,,0.05,0.08,0.91,-5.4,-1.0,-0.4,1440,2529,0.571,0,39.543106,-122.335915,45.22,0.056,390.9,9,2,1.6,0,0.0,-1,0.0,,0.0,0
9166,1469898035331,,,,,,,0.06,0.1,0.91,-5.5,-1.1,-0.2,1380,2563,,,,,,,,,,,,,,,,,
9186,1469898035351,,,,,,,0.06,0.13,0.93,-5.8,-0.7,-0.2,1360,2563,,,,,,,,,,,,,,,,,
9206,1469898035371,,,,,,,0.06,0.14,0.94,-6.1,-0.8,-0.0,1320,2521,,,,,,,,,,,,,,,,,
9226,1469898035391,,,,,,,0.06,0.13,0.93,-6.4,-0.5,0.2,1260,2521,,,,,,,,,,,,,,,,,
9246,1469898035408,0,192.4,178.4,33,176.0,,0.07,0.15,0.95,-6.8,-0.4,0.3,1260,2555,0.495,0,39.543095,-122.335922,44.98,0.057,391.3,9,2,1.6,0,0.0,-1,0.0,0.0,0.0,0
9266,1469898035428,,,,,,,0.07,0.16,0.96,-7.1,-0.2,0.5,1240,2538,,,,,,,,,,,,,,,,,
9286,1469898035448,,,,,,,0.06,0.16,0.95,-7.3,0.1,0.5,1220,2529,,,,,,,,,,,,,,,,,
9306,1469898035468,,,,,,,0.06,0.17,0.96,-7.6,0.0,0.4,1160,2529,,,,,,,,,,,,,,,,,
9326,1469898035488,,,,,,,0.06,0.16,0.98,-7.8,-0.3,0.4,1120,2521,,,,,,,,,,,,,,,,,
9346,1469898035508,,,,21,,,0.05,0.12,0.98,-7.9,-0.5,0.4,1100,2504,0.446,0,39.543083,-122.335938,44.75,0.058,391.7,9,2,1.6,0,0.0,-1,0.0,,0.0,0
9366,1469898035528,,,,,,,0.05,0.13,1.01,-8.1,-0.0,0.4,1060,2529,,,,,,,,,,,,,,,,,
9386,1469898035548,,,,,,,0.05,0.15,0.99,-8.2,-0.5,0.5,1040,2512,,,,,,,,,,,,,,,,,
9406,1469898035568,,,,,,,0.06,0.14,1.0,-8.2,-0.4,0.4,1040,2496,,,,,,,,,,,,,,,,,
9426,1469898035588,,,,,,,0.07,0.17,0.99,-8.4,-0.2,0.2,1020,2504,,,,,,,,,,,,,,,,,
9446,1469898035608,0,192.4,178.4,19,176.1,,0.06,0.16,0.99,-8.5,-0.3,-0.0,1000,2496,0.398,0,39.543068,-122.335953,44.49,0.059,392.0,9,2,1.6,0,0.0,-1,0.0,0.0,0.0,0
9466,1469898035628,,,,,,,0.05,0.18,1.03,-8.7,0.2,-0.1,980,2489,,,,,,,,,,,,,,,,,
9486,1469898035648,,,,,,,0.04,0.18,1.03,-8.8,0.5,-0.3,980,2504,,,,,,,,,,,,,,,,,
9506,1469898035668,,,,,,,0.04,0.18,1.02,-8.7,0.1,-0.4,980,2410,,,,,,,,,,,,,,,,,
9526,1469898035688,,,,,,,0.07,0.19,1.0,-8.6,0.1,-0.5,980,2449,,,,,,,,,,,,,,,,,
9546,1469898035708,,,,21,,,0.07,0.18,0.99,-8.7,-0.3,-0.6,1000,2449,0.403,0,39.543056,-122.33596,44.21,0.06,392.2,9,2,1.6,0,0.0,-1,0.0,,0.0,0
9566,1469898035728,,,,,,,0.09,0.19,1.0,-8.7,-0.6,-0.6,1040,2480,,,,,,,,,,,,,,,,,
9586,1469898035748,,,,,,,0.08,0.18,1.01,-8.7,-0.4,-0.7,1080,2456,,,,,,,,,,,,,,,,,
9606,1469898035768,,,,,,,0.09,0.18,1.0,-8.7,-0.3,-0.6,1140,2464,,,,,,,,,,,,,,,,,
9626,1469898035791,,,,,,,0.1,0.2,0.99,-8.7,-0.4,-0.8,1240,2449,,,,,,,,,,,,,,,,,
9646,1469898035910,0,191.7,178.4,30,176.4,,0.11,0.19,0.99,-8.7,-0.4,-0.9,1300,2449,0.505,0,39.543026,-122.335999,43.68,0.063,392.7,9,2,1.6,0,0.0,-1,0.0,0.0,0.0,0
9666,1469898035930,,,,,,,0.12,0.2,1.0,-8.7,-0.3,-1.1,1320,2433,,,,,,,,,,,,,,,,,
9686,1469898035950,,,,,,,0.1,0.19,0.99,-8.6,-0.3,-1.2,1380,2441,,,,,,,,,,,,,,,,,
9706,1469898035970,,,,,,,0.1,0.18,1.0,-8.6,-0.3,-1.2,1420,2426,,,,,,,,,,,,,,,,,
9726,1469898035990,,,,,,,0.11,0.19,0.98,-8.5,-0.5,-1.2,1460,2426,,,,,,,,,,,,,,,,,
9746,1469898036010,,,,36,,,0.11,0.2,0.97,-8.6,-0.6,-1.1,1480,2418,0.606,0,39.543026,-122.335999,43.68,0.063,392.7,9,2,1.6,0,0.0,-1,0.0,,0.0,0
9766,1469898036030,,,,,,,0.12,0.2,0.97,-8.6,-0.6,-1.2,1520,2418,,,,,,,,,,,,,,,,,
9786,1469898036050,,,,,,,0.12,0.19,0.97,-8.6,-0.9,-1.2,1560,2387,,,,,,,,,,,,,,,,,
9806,1469898036070,,,,,,,0.12,0.19,0.98,-8.5,-0.9,-1.2,1620,2403,,,,,,,,,,,,,,,,,
9826,1469898035991,,,,,,,0.14,0.2,0.97,-8.4,-1.0,-1.2,1660,2387,,,,,,,,,,,,,,,,,
9846,1469898036011,0,192.1,178.6,49,176.4,,0.14,0.19,0.98,-8.3,-0.9,-1.1,1700,2380,0.712,5,39.543014,-122.336014,43.31,0.064,393.0,9,2,1.6,0,0.0,-1,0.0,0.0,0.0,0
9866,1469898036031,,,,,,,0.15,0.19,0.98,-8.2,-0.9,-1.1,1800,2373,,,,,,,,,,,,,,,,,
9886,1469898036051,,,,,,,0.14,0.19,0.99,-8.2,-0.6,-1.2,1860,2380,,,,,,,,,,,,,,,,,
9906,1469898036071,,,,,,,0.16,0.2,0.99,-8.2,-0.4,-1.1,1920,2373,,,,,,,,,,,,,,,,,
9926,1469898036091,,,,,,,0.17,0.2,0.98,-8.3,-0.9,-1.0,2020,2366,,,,,,,,,,,,,,,,,
9946,1469898036111,,,,65,,,0.18,0.21,0.95,-8.2,-1.2,-1.1,2080,2336,0.874,4,39.543003,-122.336029,42.74,0.065,393.1,9,2,1.6,0,0.0,-1,0.0,,0.0,0
9966,1469898036131,,,,,,,0.2,0.22,0.93,-8.1,-1.1,-1.0,2160,2358,,,,,,,,,,,,,,,,,
9986,1469898036151,,,,,,,0.2,0.22,0.92,-8.2,-0.9,-1.0,2260,2344,,,,,,,,,,,,,,,,,
10006,1469898036171,,,,,,,0.22,0.22,0.94,-8.1,-0.5,-1.2,2320,2344,,,,,,,,,,,,,,,,,
10026,1469898036191,,,,,,,0.21,0.23,0.94,-8.1,-0.3,-1.2,2340,2387,,,,,,,,,,,,,,,,,
10046,1469898036211,0,192.2,178.6,53,176.4,14.0,0.21,0.22,0.94,-8.1,-0.5,-1.2,2400,2395,0.993,4,39.542988,-122.336037,42.37,0.066,393.2,9,2,1.6,0,0.0,-1,0.0,0.0,0.0,0
10066,1469898036231,,,,,,,0.19,0.22,0.93,-8.0,-1.0,-1.3,2380,2380,,,,,,,,,,,,,,,,,
10086,1469898036251,,,,,,,0.17,0.2,0.95,-8.1,-0.3,-1.2,2360,2358,,,,,,,,,,,,,,,,,
10106,1469898036271,,,,,,,0.14,0.21,0.94,-8.0,-0.8,-1.1,2320,2323,,,,,,,,,,,,,,,,,
10126,1469898036291,,,,,,,0.13,0.19,0.93,-8.1,-0.4,-1.0,2280,2303,,,,,,,,,,,,,,,,,
10146,1469898036311,,,,57,,,0.13,0.19,0.94,-8.2,-0.3,-0.9,2320,2295,0.981,4,39.542973,-122.336052,41.93,0.068,393.3,9,2,1.6,0,0.0,-1,0.0,,0.0,0
10166,1469898036331,,,,,,,0.14,0.19,0.94,-8.1,-0.5,-0.8,2240,2295,,,,,,,,,,,,,,,,,
10186,1469898036351,,,,,,,0.15,0.2,0.96,-8.1,-0.2,-0.8,2280,2323,,,,,,,,,,,,,,,,,
10206,1469898036371,,,,,,,0.14,0.22,0.96,-8.2,-0.1,-0.8,2320,2344,,,,,,,,,,,,,,,,,
10226,1469898036391,,,,,,,0.13,0.21,0.96,-8.2,-0.5,-0.7,2360,2352,,,,,,,,,,,,,,,,,
10246,1469898036409,0,191.7,177.0,51,176.1,,0.12,0.2,0.96,-8.2,-0.7,-0.6,2380,2336,0.993,4,39.542961,-122.336067,41.41,0.069,393.4,9,2,1.6,0,0.0,-1,0.0,0.0,0.0,0
10266,1469898036429,,,,,,,0.12,0.17,0.96,-8.3,-0.3,-0.6,2280,2316,,,,,,,,,,,,,,,,,
10286,1469898036449,,,,,,,0.11,0.17,0.96,-8.2,-0.6,-0.5,2300,2303,,,,,,,,,,,,,,,,,
10306,1469898036469,,,,,,,0.12,0.18,0.95,-8.3,-0.5,-0.7,2240,2281,,,,,,,,,,,,,,,,,
10326,1469898036489,,,,,,,0.11,0.19,0.96,-8.5,-0.5,-0.7,2280,2281,,,,,,,,,,,,,,,,,
10346,1469898036508,,,,65,,,0.11,0.19,0.96,-8.5,-0.9,-0.5,2260,2295,0.985,4,39.542946,-122.336075,40.94,0.07,393.5,9,2,1.6,0,0.0,-1,0.0,,0.0,0
10366,1469898036528,,,,,,,0.12,0.19,0.96,-8.6,-1.2,-0.3,2280,2275,,,,,,,,,,,,,,,,,
10386,1469898036548,,,,,,,0.12,0.2,0.97,-8.7,-1.0,-0.3,2300,2303,,,,,,,,,,,,,,,,,
10406,1469898036568,,,,,,,0.12,0.2,0.96,-8.8,-1.0,-0.3,2260,2289,,,,,,,,,,,,,,,,,
10426,1469898036588,,,,,,,0.09,0.22,0.95,-9.0,-1.2,-0.4,2280,2289,,,,,,,,,,,,,,,,,
10446,1469898036707,0,192.4,177.9,53,175.8,,0.1,0.21,0.96,-9.1,-1.1,-0.6,2240,2267,1.014,4,39.542923,-122.336105,40.5,0.072,393.9,9,2,1.6,0,0.0,-1,0.0,0.0,0.0,0
10466,1469898036727,,,,,,,0.1,0.21,0.96,-9.2,-0.6,-0.7,2260,2267,,,,,,,,,,,,,,,,,
10486,1469898036747,,,,,,,0.1,0.22,0.95,-9.3,-1.1,-0.7,2220,2261,,,,,,,,,,,,,,,,,
10506,1469898036767,,,,,,,0.11,0.22,0.96,-9.4,-1.2,-0.7,2260,2261,,,,,,,,,,,,,,,,,
10526,1469898036787,,,,,,,0.11,0.22,0.97,-9.6,-0.6,-0.6,2260,2255,,,,,,,,,,,,,,,,,
10546,1469898036807,,,,54,,,0.1,0.2,0.97,-9.7,-0.2,-0.5,2240,2275,1.006,4,39.542923,-122.336105,40.5,0.072,393.9,9,2,1.6,0,0.0,-1,0.0,,0.0,0
10566,1469898036827,,,,,,,0.09,0.22,0.95,-9.8,-0.6,-0.6,2300,2267,,,,,,,,,,,,,,,,,
10586,1469898036847,,,,,,,0.1,0.22,0.95,-9.8,-0.5,-0.5,2240,2275,,,,,,,,,,,,,,,,,
10606,1469898036867,,,,,,,0.1,0.23,0.97,-10.1,0.2,-0.4,2300,2261,,,,,,,,,,,,,,,,,
10626,1469898036791,,,,,,,0.09,0.23,0.96,-10.2,0.2,-0.4,2240,2255,,,,,,,,,,,,,,,,,
10646,1469898036811,0,192.2,177.3,60,175.4,,0.09,0.23,0.96,-10.2,-0.3,-0.5,2220,2241,0.982,4,39.542908,-122.336113,40.24,0.073,394.1,9,2,1.6,0,0.0,-1,0.0,0.0,0.0,0
10666,1469898036831,,,,,,,0.1,0.23,0.96,-10.3,-0.3,-0.3,2220,2247,,,,,,,,,,,,,,,,,
10686,1469898036851,,,,,,,0.09,0.24,0.97,-10.5,0.3,-0.3,2220,2241,,,,,,,,,,,,,,,,,
10706,1469898036871,,,,,,,0.09,0.23,0.95,-10.7,0.1,-0.1,2220,2247,,,,,,,,,,,,,,,,,
10726,1469898036891,,,,,,,0.09,0.26,0.95,-10.8,-0.2,0.0,2280,2241,,,,,,,,,,,,,,,,,
10746,1469898036905,,,,54,,,0.09,0.25,0.96,-10.9,-0.4,0.1,2200,2235,0.987,4,39.542892,-122.336128,39.87,0.075,394.3,9,2,1.6,0,0.0,-1,0.0,,0.0,0
10766,1469898036925,,,,,,,0.1,0.25,0.97,-11.1,0.2,0.2,2280,2223,,,,,,,,,,,,,,,,,
10786,1469898036945,,,,,,,0.08,0.27,0.99,-11.3,0.5,0.3,2200,2229,,,,,,,,,,,,,,,,,
10806,1469898036965,,,,,,,0.08,0.27,0.99,-11.5,0.3,0.4,2240,2215,,,,,,,,,,,,,,,,,
10826,1469898036991,,,,,,,0.08,0.28,0.99,-11.7,0.2,0.5,2220,2229,,,,,,,,,,,,,,,,,
10846,1469898037011,1,193.1,178.3,48,175.1,,0.09,0.29,1.0,-11.8,0.7,0.6,2180,2215,0.978,4,39.542881,-122.336144,39.67,0.076,394.5,9,2,1.6,0,0.0,-1,0.0,0.0,0.0,0
10866,1469898037031,,,,,,,0.07,0.31,1.01,-12.0,1.1,0.7,2200,2223,,,,,,,,,,,,,,,,,
10886,1469898037051,,,,,,,0.07,0.32,1.01,-12.3,0.9,0.8,2240,2209,,,,,,,,,,,,,,,,,
10906,1469898037071,,,,,,,0.06,0.33,1.0,-12.5,0.7,0.9,2180,2223,,,,,,,,,,,,,,,,,
10926,1469898037091,,,,,,,0.08,0.32,1.01,-12.6,0.8,1.0,2180,2209,,,,,,,,,,,,,,,,,
10946,1469898037106,,,,57,,,0.1,0.34,1.0,-12.8,1.2,1.0,2160,2209,1.023,4,39.54287,-122.336159,39.43,0.077,394.6,9,2,1.6,0,0.0,-1,0.0,,0.0,0
10966,1469898037126,,,,,,,0.09,0.34,1.0,-13.0,0.8,0.9,2160,2203,,,,,,,,,,,,,,,,,
10986,1469898037146,,,,,,,0.09,0.34,1.0,-13.0,0.4,1.0,2200,2209,,,,,,,,,,,,,,,,,
11006,1469898037166,,,,,,,0.1,0.34,0.99,-13.0,-0.0,1.0,2200,2196,,,,,,,,,,,,,,,,,
11026,1469898037191,,,,,,,0.11,0.34,1.01,-13.0,0.4,0.8,2180,2184,,,,,,,,,,,,,,,,,
11046,1469898037211,0,192.1,177.3,49,176.3,13.96,0.1,0.33,1.03,-13.1,0.5,0.9,2180,2178,1.01,4,39.54285,-122.336166,39.18,0.078,394.8,9,2,1.6,0,0.0,-1,0.0,0.0,0.0,0
11066,1469898037231,,,,,,,0.08,0.33,1.02,-13.2,0.5,1.0,2200,2178,,,,,,,,,,,,,,,,,
11086,1469898037251,,,,,,,0.08,0.35,1.02,-13.3,-0.0,1.0,2260,2209,,,,,,,,,,,,,,,,,
11106,1469898037271,,,,,,,0.1,0.37,1.03,-13.4,0.1,0.9,2200,2196,,,,,,,,,,,,,,,,,
11126,1469898037291,,,,,,,0.08,0.33,1.02,-13.3,0.4,0.7,2200,2209,,,,,,,,,,,,,,,,,
11146,1469898037311,,,,54,,,0.09,0.33,1.04,-13.3,0.7,0.6,2220,2203,1.026,4,39.542839,-122.336166,38.86,0.079,394.9,9,2,1.6,0,0.0,-1,0.0,,0.0,0
11166,1469898037331,,,,,,,0.08,0.33,1.04,-13.4,1.0,0.7,2260,2235,,,,,,,,,,,,,,,,,
11186,1469898037351,,,,,,,0.07,0.32,1.01,-13.6,0.9,0.6,2200,2241,,,,,,,,,,,,,,,,,
11206,1469898037371,,,,,,,0.06,0.33,1.01,-13.8,1.0,0.9,2200,2241,,,,,,,,,,,,,,,,,
11226,1469898037391,,,,,,,0.07,0.35,1.01,-14.0,1.3,1.1,2260,2241,,,,,,,,,,,,,,,,,
11246,1469898037508,0,191.7,177.0,57,175.8,,0.03,0.36,0.98,-14.0,1.1,1.0,2220,2241,0.988,4,39.542809,-122.336197,38.18,0.082,395.0,10,2,1.5,0,0.0,-1,0.0,0.0,0.0,0
11266,1469898037528,,,,,,,0.03,0.4,1.01,-14.2,1.0,0.7,2280,2196,,,,,,,,,,,,,,,,,
11286,1469898037548,,,,,,,0.02,0.43,1.02,-14.4,0.8,0.6,2160,2160,,,,,,,,,,,,,,,,,
11306,1469898037568,,,,,,,0.01,0.42,1.01,-14.3,0.8,0.5,2100,2141,,,,,,,,,,,,,,,,,
11326,1469898037588,,,,,,,0.02,0.42,1.01,-14.3,1.2,0.5,2100,2153,,,,,,,,,,,,,,,,,
11346,1469898037608,,,,58,,,0.01,0.39,1.04,-14.4,1.2,0.7,2140,2178,0.994,4,39.542809,-122.336197,38.18,0.082,395.0,10,2,1.5,0,0.0,-1,0.0,,0.0,0
11366,1469898037628,,,,,,,0.0,0.38,1.04,-14.5,1.2,0.8,2260,2190,,,,,,,,,,,,,,,,,
11386,1469898037648,,,,,,,-0.01,0.36,1.02,-14.4,1.2,0.7,2240,2223,,,,,,,,,,,,,,,,,
11406,1469898037668,,,,,,,0.01,0.36,1.04,-14.3,0.8,0.6,2280,2203,,,,,,,,,,,,,,,,,
11426,1469898037688,,,,,,,0.01,0.38,1.06,-14.4,1.9,0.5,2120,2190,,,,,,,,,,,,,,,,,
11446,1469898037608,0,192.4,177.6,67,176.0,,0.01,0.37,1.08,-14.5,2.5,0.5,2100,2184,1.025,4,39.542797,-122.336205,38.19,0.083,395.2,10,2,1.5,0,0.0,-1,0.0,0.0,0.0,0
11466,1469898037628,,,,,,,-0.03,0.37,1.05,-14.5,2.3,0.5,2120,2178,,,,,,,,,,,,,,,,,
11486,1469898037648,,,,,,,-0.05,0.37,1.04,-14.5,1.6,0.5,2160,2178,,,,,,,,,,,,,,,,,
11506,1469898037668,,,,,,,-0.03,0.38,1.04,-14.6,1.5,0.7,2180,2196,,,,,,,,,,,,,,,,,
11526,1469898037688,,,,,,,-0.0,0.38,0.99,-14.5,1.9,0.7,2180,2203,,,,,,,,,,,,,,,,,
11546,1469898037708,,,,53,,,-0.01,0.38,1.01,-14.5,2.6,0.7,2220,2209,0.99,4,39.542786,-122.336205,38.0,0.084,395.3,10,2,1.5,0,0.0,-1,0.0,,0.0,0
11566,1469898037728,,,,,,,-0.03,0.36,1.05,-14.6,2.6,0.9,2200,2196,,,,,,,,,,,,,,,,,
11586,1469898037748,,,,,,,-0.06,0.36,1.02,-14.6,2.2,1.0,2200,2178,,,,,,,,,,,,,,,,,
11606,1469898037768,,,,,,,-0.05,0.36,1.03,-14.5,1.6,1.0,2120,2184,,,,,,,,,,,,,,,,,
11626,1469898037791,,,,,,,-0.05,0.36,1.04,-14.5,1.9,0.8,2120,2178,,,,,,,,,,,,,,,,,
11646,1469898037811,0,192.1,176.9,57,175.3,,-0.05,0.38,1.06,-14.5,2.8,0.9,2180,2203,0.993,4,39.542767,-122.33622,37.92,0.085,395.4,10,2,1.5,0,0.0,-1,0.0,0.0,0.0,0
11666,1469898037831,,,,,,,-0.05,0.38,1.08,-14.7,3.2,1.1,2200,2209,,,,,,,,,,,,,,,,,
11686,1469898037851,,,,,,,-0.08,0.4,1.06,-14.8,3.0,1.3,2160,2209,,,,,,,,,,,,,,,,,
11706,1469898037871,,,,,,,-0.07,0.4,1.05,-14.8,2.3,1.4,2200,2209,,,,,,,,,,,,,,,,,
11726,1469898037891,,,,,,,-0.06,0.42,1.06,-15.0,3.1,1.9,2220,2209,,,,,,,,,,,,,,,,,
11746,1469898037905,,,,57,,,-0.05,0.43,1.09,-15.2,4.2,2.0,2200,2203,0.99,4,39.542755,-122.336235,38.09,0.086,395.6,10,2,1.5,0,0.0,-1,0.0,,0.0,0
11766,1469898037925,,,,,,,-0.07,0.41,1.08,-15.3,4.8,2.2,2200,2203,,,,,,,,,,,,,,,,,
11786,1469898037945,,,,,,,-0.1,0.41,1.07,-15.4,4.2,2.4,2180,2190,,,,,,,,,,,,,,,,,
11806,1469898037965,,,,,,,-0.09,0.41,1.08,-15.5,3.7,2.6,2200,2215,,,,,,,,,,,,,,,,,
11826,1469898037991,,,,,,,-0.07,0.43,1.06,-15.4,3.5,2.6,2220,2203,,,,,,,,,,,,,,,,,
11846,1469898038011,0,191.8,176.6,58,175.5,,-0.05,0.41,1.11,-15.5,4.5,2.8,2180,2223,1.005,4,39.54274,-122.336235,38.08,0.087,395.9,10,2,1.5,0,0.0,-1,0.0,0.0,0.0,0
11866,1469898038031,,,,,,,-0.08,0.36,1.07,-15.5,3.9,3.0,2200,2196,,,,,,,,,,,,,,,,,
11886,1469898038051,,,,,,,-0.11,0.37,1.04,-15.6,3.0,3.1,2200,2196,,,,,,,,,,,,,,,,,
11906,1469898038071,,,,,,,-0.07,0.38,1.02,-15.6,1.7,3.0,2220,2203,,,,,,,,,,,,,,,,,
11926,1469898038091,,,,,,,-0.08,0.39,1.02,-15.5,2.1,2.5,2220,2209,,,,,,,,,,,,,,,,,
11946,1469898038111,,,,59,,,-0.07,0.39,1.05,-15.5,2.7,2.1,2200,2215,0.999,4,39.542728,-122.336243,38.35,0.088,396.3,10,2,1.5,0,0.0,-1,0.0,,0.0,0
11966,1469898038131,,,,,,,-0.1,0.38,1.04,-15.6,2.4,2.0,2240,2203,,,,,,,,,,,,,,,,,
11986,1469898038151,,,,,,,-0.11,0.38,1.01,-15.6,1.1,1.9,2160,2203,,,,,,,,,,,,,,,,,
12006,1469898038171,,,,,,,-0.08,0.42,1.02,-15.7,0.1,1.9,2140,2209,,,,,,,,,,,,,,,,,
12026,1469898038291,,,,,,,-0.06,0.45,1.02,-16.0,0.9,2.0,2220,2223,,,,,,,,,,,,,,,,,
12046,1469898038311,0,192.3,176.9,57,175.2,14.08,-0.06,0.42,1.04,-16.3,1.4,1.8,2200,2215,0.993,4,39.542698,-122.336258,38.6,0.091,397.0,10,2,1.5,0,0.0,-1,0.0,0.0,0.0,0
12066,1469898038331,,,,,,,-0.09,0.48,1.02,-16.5,1.1,1.7,2220,2229,,,,,,,,,,,,,,,,,
12086,1469898038351,,,,,,,-0.08,0.46,1.0,-16.7,0.2,1.5,2220,2209,,,,,,,,,,,,,,,,,
12106,1469898038371,,,,,,,-0.06,0.48,0.98,-16.9,0.1,1.2,2220,2223,,,,,,,,,,,,,,,,,
12126,1469898038391,,,,,,,-0.04,0.51,1.01,-17.2,1.1,1.3,2240,2229,,,,,,,,,,,,,,,,,
12146,1469898038411,,,,55,,,-0.02,0.5,1.01,-17.5,1.6,1.5,2240,2229,0.987,4,39.542698,-122.336258,38.6,0.091,397.0,10,2,1.5,0,0.0,-1,0.0,,0.0,0
12166,1469898038431,,,,,,,-0.07,0.49,0.99,-17.7,1.2,1.5,2200,2209,,,,,,,,,,,,,,,,,
12186,1469898038451,,,,,,,-0.06,0.49,1.0,-17.8,0.3,1.7,2160,2229,,,,,,,,,,,,,,,,,
12206,1469898038471,,,,,,,-0.05,0.52,0.98,-17.9,0.8,1.5,2260,2229,,,,,,,,,,,,,,,,,
12226,1469898038491,,,,,,,-0.04,0.49,1.01,-18.2,1.6,1.6,2180,2241,,,,,,,,,,,,,,,,,
12246,1469898038409,0,192.1,177.4,48,175.8,,-0.05,0.48,1.01,-18.2,1.5,1.6,2200,2229,1.002,4,39.542683,-122.336258,38.6,0.092,397.4,10,2,1.5,0,0.0,-1,0.0,0.0,0.0,0
12266,1469898038429,,,,,,,-0.06,0.51,0.99,-18.4,0.6,1.7,2240,2235,,,,,,,,,,,,,,,,,
12286,1469898038449,,,,,,,-0.04,0.53,0.98,-18.6,0.5,1.7,2240,2235,,,,,,,,,,,,,,,,,
12306,1469898038469,,,,,,,-0.02,0.53,1.02,-18.9,1.5,1.7,2240,2241,,,,,,,,,,,,,,,,,
12326,1469898038489,,,,,,,-0.05,0.52,1.05,-19.1,1.9,1.6,2200,2241,,,,,,,,,,,,,,,,,
12346,1469898038508,,,,56,,,-0.08,0.53,1.03,-19.2,1.3,1.7,2240,2247,0.988,4,39.542667,-122.336273,38.81,0.093,397.8,10,2,1.5,0,0.0,-1,0.0,,0.0,0
12366,1469898038528,,,,,,,-0.07,0.52,1.0,-19.2,0.7,1.5,2240,2235,,,,,,,,,,,,,,,,,
12386,1469898038548,,,,,,,-0.06,0.5,1.01,-19.3,1.7,1.3,2220,2255,,,,,,,,,,,,,,,,,
12406,1469898038568,,,,,,,-0.07,0.49,1.0,-19.3,1.9,1.4,2240,2235,,,,,,,,,,,,,,,,,
12426,1469898038588,,,,,,,-0.08,0.47,0.97,-19.4,1.0,1.7,2220,2229,,,,,,,,,,,,,,,,,
12446,1469898038608,0,193.3,178.1,44,175.7,,-0.06,0.46,0.96,-19.3,-0.2,1.7,2240,2235,1.0,4,39.542652,-122.336273,38.84,0.094,398.2,10,2,1.5,0,0.0,-1,0.0,0.0,0.0,0
12466,1469898038628,,,,,,,-0.05,0.5,1.0,-19.3,0.4,1.7,2200,2247,,,,,,,,,,,,,,,,,
12486,1469898038648,,,,,,,-0.06,0.47,1.04,-19.5,1.0,1.6,2200,2241,,,,,,,,,,,,,,,,,
12506,1469898038668,,,,,,,-0.1,0.49,1.01,-19.8,0.4,1.6,2240,2235,,,,,,,,,,,,,,,,,
12526,1469898038688,,,,,,,-0.1,0.51,0.98,-19.9,-0.7,1.4,2240,2247,,,,,,,,,,,,,,,,,
12546,1469898038708,,,,65,,,-0.09,0.51,0.99,-20.0,-0.2,1.3,2220,2255,0.991,4,39.542637,-122.336273,38.79,0.095,398.6,10,2,1.5,0,0.0,-1,0.0,,0.0,0
12566,1469898038728,,,,,,,-0.09,0.5,1.01,-20.2,0.4,1.5,2260,2255,,,,,,,,,,,,,,,,,
12586,1469898038748,,,,,,,-0.13,0.53,1.01,-20.6,0.5,1.8,2240,2247,,,,,,,,,,,,,,,,,
12606,1469898038768,,,,,,,-0.11,0.52,0.98,-20.8,-0.5,1.9,2240,2247,,,,,,,,,,,,,,,,,
12626,1469898038791,,,,,,,-0.09,0.54,1.03,-20.9,0.4,2.0,2240,2261,,,,,,,,,,,,,,,,,
12646,1469898038811,0,192.1,176.7,67,174.8,,-0.1,0.54,1.07,-21.2,1.4,1.9,2220,2255,0.993,4,39.542622,-122.336281,39.06,0.096,398.9,10,2,1.5,0,0.0,-1,0.0,0.0,0.0,0
12666,1469898038831,,,,,,,-0.14,0.56,1.05,-21.4,1.1,1.9,2260,2247,,,,,,,,,,,,,,,,,
12686,1469898038851,,,,,,,-0.13,0.58,1.02,-21.4,0.4,1.9,2260,2261,,,,,,,,,,,,,,,,,
12706,1469898038871,,,,,,,-0.1,0.56,1.04,-21.4,1.2,1.9,2260,2275,,,,,,,,,,,,,,,,,
12726,1469898038891,,,,,,,-0.12,0.54,1.04,-21.4,1.5,2.1,2260,2255,,,,,,,,,,,,,,,,,
12746,1469898038905,,,,54,,,-0.12,0.54,1.03,-21.4,1.0,2.2,2240,2261,0.993,4,39.542606,-122.336281,38.93,0.097,399.2,10,2,1.5,0,0.0,-1,0.0,,0.0,0
12766,1469898038925,,,,,,,-0.1,0.53,0.99,-21.2,0.3,2.3,2240,2247,,,,,,,,,,,,,,,,,
12786,1469898038945,,,,,,,-0.09,0.55,1.01,-21.2,0.9,2.4,2260,2275,,,,,,,,,,,,,,,,,
12806,1469898038965,,,,,,,-0.12,0.53,1.02,-21.4,1.2,2.5,2240,2267,,,,,,,,,,,,,,,,,
12826,1469898038991,,,,,,,-0.13,0.51,1.02,-21.5,0.5,2.5,2280,2281,,,,,,,,,,,,,,,,,
12846,1469898039110,0,193.0,177.8,66,175.6,,-0.12,0.56,1.03,-21.4,0.0,2.3,2260,2261,0.987,4,39.542572,-122.336281,39.16,0.1,399.7,10,2,1.5,0,0.0,-1,0.0,0.0,0.0,0
12866,1469898039130,,,,,,,-0.11,0.56,1.04,-21.4,0.8,2.2,2260,2289,,,,,,,,,,,,,,,,,
12886,1469898039150,,,,,,,-0.12,0.54,1.03,-21.6,0.8,2.2,2260,2247,,,,,,,,,,,,,,,,,
12906,1469898039170,,,,,,,-0.14,0.56,1.01,-21.7,-0.0,2.4,2260,2267,,,,,,,,,,,,,,,,,
12926,1469898039190,,,,,,,-0.12,0.56,0.98,-21.6,-0.2,2.3,2260,2275,,,,,,,,,,,,,,,,,
12946,1469898039210,,,,51,,,-0.09,0.57,1.0,-21.8,0.4,2.4,2260,2267,1.011,4,39.542572,-122.336281,39.16,0.1,399.7,10,2,1.5,0,0.0,-1,0.0,,0.0,0
12966,1469898039230,,,,,,,-0.13,0.56,1.01,-21.8,0.2,2.3,2240,2267,,,,,,,,,,,,,,,,,
12986,1469898039250,,,,,,,-0.12,0.55,1.0,-21.7,-0.8,2.4,2260,2281,,,,,,,,,,,,,,,,,
13006,1469898039270,,,,,,,-0.11,0.59,1.0,-21.7,-0.7,2.2,2280,2281,,,,,,,,,,,,,,,,,
13026,1469898039290,,,,,,,-0.09,0.57,1.03,-21.8,-0.3,2.4,2240,2281,,,,,,,,,,,,,,,,,
13046,1469898039210,0,193.3,177.8,47,175.4,14.08,-0.12,0.57,1.04,-21.9,-0.4,2.4,2260,2267,0.988,4,39.542557,-122.336281,39.12,0.101,400.0,10,2,1.5,0,0.0,-1,0.0,0.0,0.0,0
13066,1469898039230,,,,,,,-0.12,0.6,1.03,-21.9,-0.7,2.3,2280,2275,,,,,,,,,,,,,,,,,
13086,1469898039250,,,,,,,-0.09,0.63,1.04,-22.0,0.3,2.1,2280,2289,,,,,,,,,,,,,,,,,
13106,1469898039270,,,,,,,-0.09,0.62,1.05,-22.2,0.9,2.1,2280,2281,,,,,,,,,,,,,,,,,
13126,1469898039290,,,,,,,-0.1,0.64,1.04,-22.3,-0.2,2.2,2260,2281,,,,,,,,,,,,,,,,,
13146,1469898039310,,,,68,,,-0.1,0.66,1.02,-22.3,-0.0,2.3,2280,2281,0.996,4,39.542542,-122.336281,39.22,0.102,400.3,10,2,1.5,0,0.0,-1,0.0,,0.0,0
13166,1469898039330,,,,,,,-0.08,0.64,1.03,-22.3,0.6,2.3,2260,2289,,,,,,,,,,,,,,,,,
13186,1469898039350,,,,,,,-0.1,0.65,1.02,-22.3,1.0,2.1,2260,2281,,,,,,,,,,,,,,,,,
13206,1469898039370,,,,,,,-0.09,0.66,1.0,-22.2,0.1,1.9,2280,2275,,,,,,,,,,,,,,,,,
13226,1469898039390,,,,,,,-0.06,0.68,0.99,-22.1,0.5,1.7,2260,2303,,,,,,,,,,,,,,,,,
13246,1469898039397,0,192.7,177.3,61,175.4,,-0.05,0.68,1.0,-22.2,1.2,1.7,2280,2275,0.987,4,39.54253,-122.336281,39.34,0.103,400.5,10,2,1.5,0,0.0,-1,0.0,0.0,0.0,0
13266,1469898039417,,,,,,,-0.06,0.67,0.99,-22.2,0.8,1.7,2280,2289,,,,,,,,,,,,,,,,,
13286,1469898039437,,,,,,,-0.08,0.66,0.98,-22.1,0.7,1.5,2260,2289,,,,,,,,,,,,,,,,,
13306,1469898039457,,,,,,,-0.06,0.64,1.01,-22.2,1.3,1.5,2280,2295,,,,,,,,,,,,,,,,,
13326,1469898039477,,,,,,,-0.08,0.61,0.98,-22.2,1.5,1.7,2280,2289,,,,,,,,,,,,,,,,,
13346,1469898039508,,,,44,,,-0.08,0.64,0.97,-22.3,0.5,1.6,2240,2295,0.976,4,39.542511,-122.336281,39.39,0.104,400.7,10,2,1.5,0,0.0,-1,0.0,,0.0,0
13366,1469898039528,,,,,,,-0.06,0.64,0.99,-22.2,0.7,1.5,2260,2295,,,,,,,,,,,,,,,,,
13386,1469898039548,,,,,,,-0.07,0.6,1.0,-22.1,1.3,1.4,2220,2281,,,,,,,,,,,,,,,,,
13406,1469898039568,,,,,,,-0.07,0.63,0.99,-22.2,0.9,1.3,2240,2281,,,,,,,,,,,,,,,,,
13426,1469898039588,,,,,,,-0.06,0.66,1.0,-22.2,0.4,1.3,2280,2281,,,,,,,,,,,,,,,,,
13446,1469898039604,0,193.2,177.9,54,175.6,,-0.04,0.63,1.03,-22.2,0.9,1.4,2280,2295,0.993,4,39.542496,-122.336281,39.64,0.105,401.0,10,2,1.5,0,0.0,-1,0.0,0.0,0.0,0
13466,1469898039624,,,,,,,-0.08,0.65,1.05,-22.3,1.2,1.5,2300,2295,,,,,,,,,,,,,,,,,
13486,1469898039644,,,,,,,-0.09,0.66,1.02,-22.5,0.4,1.6,2280,2289,,,,,,,,,,,,,,,,,
13506,1469898039664,,,,,,,-0.07,0.64,1.03,-22.4,0.7,1.3,2300,2289,,,,,,,,,,,,,,,,,
13526,1469898039684,,,,,,,-0.09,0.66,1.03,-22.5,1.5,1.3,2280,2295,,,,,,,,,,,,,,,,,
13546,1469898039707,,,,48,,,-0.09,0.64,1.02,-22.4,0.6,1.2,2240,2295,0.993,4,39.54248,-122.336281,39.71,0.106,401.2,10,2,1.5,0,0.0,-1,0.0,,0.0,0
13566,1469898039727,,,,,,,-0.08,0.68,0.99,-22.3,-0.1,1.3,2280,2295,,,,,,,,,,,,,,,,,
13586,1469898039747,,,,,,,-0.05,0.68,1.01,-22.4,0.2,1.4,2300,2295,,,,,,,,,,,,,,,,,
13606,1469898039767,,,,,,,-0.08,0.7,1.0,-22.3,0.4,1.4,2260,2289,,,,,,,,,,,,,,,,,
13626,1469898039787,,,,,,,-0.09,0.71,0.98,-22.2,-0.8,1.2,2280,2267,,,,,,,,,,,,,,,,,
13646,1469898039909,0,192.4,176.8,59,175.1,,-0.07,0.72,0.94,-22.0,-0.6,1.2,2240,2289,0.987,4,39.54245,-122.336273,39.48,0.108,401.6,10,2,1.5,0,0.0,-1,0.0,0.0,0.0,0
13666,1469898039929,,,,,,,-0.04,0.71,0.97,-21.9,-0.3,1.5,2240,2275,,,,,,,,,,,,,,,,,
13686,1469898039949,,,,,,,-0.04,0.71,0.97,-21.9,-0.8,1.6,2320,2289,,,,,,,,,,,,,,,,,
13706,1469898039969,,,,,,,-0.06,0.7,0.98,-21.9,-1.3,1.5,2240,2275,,,,,,,,,,,,,,,,,
13726,1469898039989,,,,,,,-0.03,0.71,0.98,-21.7,-1.0,1.4,2260,2275,,,,,,,,,,,,,,,,,
13746,1469898040009,,,,52,,,-0.03,0.68,0.98,-21.8,-0.6,1.7,2280,2281,1.002,4,39.54245,-122.336273,39.48,0.108,401.6,10,2,1.5,0,0.0,-1,0.0,,0.0,0
13766,1469898040029,,,,,,,-0.04,0.66,0.97,-21.8,-1.4,1.7,2320,2261,,,,,,,,,,,,,,,,,
13786,1469898040049,,,,,,,-0.03,0.64,0.98,-21.6,-1.4,1.7,2240,2261,,,,,,,,,,,,,,,,,
13806,1469898040069,,,,,,,-0.01,0.61,1.01,-21.6,-1.0,1.8,2240,2261,,,,,,,,,,,,,,,,,
13826,1469898040089,,,,,,,-0.02,0.58,0.99,-21.4,-0.9,1.8,2260,2255,,,,,,,,,,,,,,,,,
13846,1469898040002,0,191.9,176.2,48,174.6,,-0.01,0.58,0.97,-21.2,-1.3,1.6,2220,2261,0.984,4,39.542431,-122.336273,39.7,0.109,401.8,10,2,1.5,0,0.0,-1,0.0,0.0,0.0,0
13866,1469898040022,,,,,,,-0.0,0.58,0.99,-21.2,-0.9,1.5,2220,2261,,,,,,,,,,,,,,,,,
13886,1469898040042,,,,,,,0.01,0.55,1.0,-21.0,-0.9,1.4,2260,2247,,,,,,,,,,,,,,,,,
13906,1469898040062,,,,,,,-0.0,0.54,0.99,-20.8,-0.7,1.7,2280,2255,,,,,,,,,,,,,,,,,
13926,1469898040091,,,,,,,0.01,0.53,0.97,-20.6,-1.1,1.6,2220,2255,,,,,,,,,,,,,,,,,
13946,1469898040111,,,,51,,,0.02,0.54,0.97,-20.4,-0.6,1.6,2240,2241,1.029,4,39.542416,-122.336273,39.83,0.111,401.9,10,2,1.5,0,0.0,-1,0.0,,0.0,0
13966,1469898040131,,,,,,,0.02,0.53,0.99,-20.3,-0.4,1.4,2260,2241,,,,,,,,,,,,,,,,,
13986,1469898040151,,,,,,,0.01,0.51,0.98,-20.1,-0.5,1.4,2220,2241,,,,,,,,,,,,,,,,,
14006,1469898040171,,,,,,,0.02,0.53,0.96,-19.9,-0.7,1.0,2280,2261,,,,,,,,,,,,,,,,,
14026,1469898040191,,,,,,,0.02,0.54,0.96,-19.7,-0.5,0.5,2220,2241,,,,,,,,,,,,,,,,,
14046,1469898040211,0,193.1,177.5,58,175.5,14.09,0.03,0.53,0.94,-19.3,-0.8,0.4,2220,2235,1.005,4,39.5424,-122.336258,39.83,0.112,402.0,10,2,1.5,0,0.0,-1,0.0,0.0,0.0,0
14066,1469898040231,,,,,,,0.04,0.54,0.94,-19.1,-0.9,0.4,2200,2235,,,,,,,,,,,,,,,,,
14086,1469898040251,,,,,,,0.04,0.51,0.93,-18.8,-1.4,0.5,2240,2235,,,,,,,,,,,,,,,,,
14106,1469898040271,,,,,,,0.04,0.51,0.95,-18.4,-1.4,0.4,2160,2235,,,,,,,,,,,,,,,,,
14126,1469898040291,,,,,,,0.04,0.52,0.96,-18.2,-1.7,0.5,2200,2235,,,,,,,,,,,,,,,,,
14146,1469898040311,,,,59,,,0.04,0.47,0.95,-18.0,-1.8,0.3,2260,2223,0.975,4,39.542385,-122.336258,39.51,0.113,402.1,10,2,1.5,0,0.0,-1,0.0,,0.0,0
14166,1469898040331,,,,,,,0.04,0.49,0.9,-17.6,-2.2,0.0,2220,2223,,,,,,,,,,,,,,,,,
14186,1469898040351,,,,,,,0.05,0.47,0.91,-17.3,-2.1,-0.3,2220,2215,,,,,,,,,,,,,,,,,
14206,1469898040371,,,,,,,0.05,0.44,0.92,-17.0,-1.8,-0.4,2260,2229,,,,,,,,,,,,,,,,,
14226,1469898040391,,,,,,,0.06,0.44,0.93,-16.7,-1.9,-0.5,2160,2223,,,,,,,,,,,,,,,,,
14246,1469898040409,0,192.2,176.3,47,174.6,,0.06,0.44,0.94,-16.5,-1.9,-0.7,2220,2229,1.011,4,39.54237,-122.336243,39.29,0.114,402.1,10,2,1.5,0,0.0,-1,0.0,0.0,0.0,0
14266,1469898040429,,,,,,,0.05,0.41,0.91,-16.1,-1.8,-0.8,2180,2209,,,,,,,,,,,,,,,,,
14286,1469898040449,,,,,,,0.04,0.41,0.93,-15.7,-1.7,-0.7,2160,2223,,,,,,,,,,,,,,,,,
14306,1469898040469,,,,,,,0.05,0.41,0.96,-15.4,-1.6,-0.8,2160,2223,,,,,,,,,,,,,,,,,
14326,1469898040489,,,,,,,0.06,0.41,0.96,-15.0,-1.8,-0.8,2160,2215,,,,,,,,,,,,,,,,,
14346,1469898040508,,,,48,,,0.05,0.39,0.95,-14.6,-1.7,-0.9,2200,2203,1.008,4,39.542355,-122.336235,39.05,0.115,402.2,10,2,1.5,0,0.0,-1,0.0,,0.0,0
14366,1469898040528,,,,,,,0.04,0.39,0.97,-14.4,-1.5,-1.0,2200,2215,,,,,,,,,,,,,,,,,
14386,1469898040548,,,,,,,0.04,0.4,0.95,-14.0,-1.5,-1.1,2200,2209,,,,,,,,,,,,,,,,,
14406,1469898040568,,,,,,,0.04,0.38,0.94,-13.6,-1.4,-1.2,2160,2209,,,,,,,,,,,,,,,,,
14426,1469898040588,,,,,,,0.04,0.34,0.93,-13.3,-1.7,-1.1,2200,2209,,,,,,,,,,,,,,,,,
14446,1469898040708,0,192.7,176.8,53,175.1,,0.04,0.34,0.93,-12.9,-1.3,-1.0,2160,2209,0.987,4,39.542328,-122.33622,38.89,0.118,402.4,10,2,1.5,0,0.0,-1,0.0,0.0,0.0,0
14466,1469898040728,,,,,,,0.05,0.31,0.92,-12.5,-1.2,-1.0,2180,2203,,,,,,,,,,,,,,,,,
14486,1469898040748,,,,,,,0.04,0.29,0.94,-12.1,-0.9,-0.9,2200,2190,,,,,,,,,,,,,,,,,
14506,1469898040768,,,,,,,0.03,0.3,0.94,-11.7,-1.0,-1.1,2140,2203,,,,,,,,,,,,,,,,,
14526,1469898040788,,,,,,,0.03,0.27,0.94,-11.3,-1.1,-1.1,2120,2184,,,,,,,,,,,,,,,,,
14546,1469898040808,,,,55,,,0.04,0.24,0.91,-10.8,-1.1,-1.2,2160,2190,1.02,4,39.542328,-122.33622,38.89,0.118,402.4,10,2,1.5,0,0.0,-1,0.0,,0.0,0
14566,1469898040828,,,,,,,0.05,0.25,0.94,-10.4,-1.1,-1.2,2140,2190,,,,,,,,,,,,,,,,,
14586,1469898040848,,,,,,,0.04,0.23,0.95,-10.2,-0.9,-1.1,2160,2178,,,,,,,,,,,,,,,,,
14606,1469898040868,,,,,,,0.05,0.23,0.95,-9.9,-0.9,-1.0,2180,2190,,,,,,,,,,,,,,,,,
14626,1469898040791,,,,,,,0.04,0.25,0.93,-9.6,-0.7,-1.0,2220,2184,,,,,,,,,,,,,,,,,
14646,1469898040811,0,193.1,177.2,43,175.0,,0.04,0.24,0.95,-9.4,-0.5,-1.1,2240,2190,0.968,4,39.542313,-122.33622,38.69,0.119,402.5,10,2,1.5,0,0.0,-1,0.0,0.0,0.0,0
14666,1469898040831,,,,,,,0.05,0.22,0.96,-9.0,-0.2,-1.1,2120,2184,,,,,,,,,,,,,,,,,
14686,1469898040851,,,,,,,0.05,0.22,0.96,-8.8,-0.1,-1.1,2140,2184,,,,,,,,,,,,,,,,,
14706,1469898040871,,,,,,,0.05,0.2,0.94,-8.6,-0.1,-1.1,2180,2178,,,,,,,,,,,,,,,,,
14726,1469898040891,,,,,,,0.04,0.17,0.96,-8.4,-0.5,-1.0,2160,2184,,,,,,,,,,,,,,,,,
14746,1469898040905,,,,63,,,0.03,0.18,0.95,-8.1,-0.6,-0.9,2220,2184,0.986,4,39.542297,-122.336205,38.62,0.12,402.6,10,2,1.5,0,0.0,-1,0.0,,0.0,0
14766,1469898040925,,,,,,,0.04,0.15,0.92,-7.9,-1.5,-0.7,2200,2178,,,,,,,,,,,,,,,,,
14786,1469898040945,,,,,,,0.04,0.15,0.93,-7.6,-1.9,-0.6,2120,2172,,,,,,,,,,,,,,,,,
14806,1469898040965,,,,,,,0.04,0.16,0.95,-7.4,-1.7,-0.6,2140,2166,,,,,,,,,,,,,,,,,
14826,1469898040991,,,,,,,0.05,0.14,0.94,-7.2,-1.7,-0.6,2180,2172,,,,,,,,,,,,,,,,,
14846,1469898041011,0,193.1,177.1,49,175.3,,0.03,0.13,0.93,-6.9,-1.4,-0.6,2120,2166,0.997,4,39.542282,-122.336197,38.38,0.121,402.8,10,2,1.5,0,0.0,-1,0.0,0.0,0.0,0
14866,1469898041031,,,,,,,0.03,0.13,0.96,-6.8,-1.7,-0.8,2140,2166,,,,,,,,,,,,,,,,,
14886,1469898041051,,,,,,,0.03,0.11,0.96,-6.5,-1.7,-0.8,2180,2178,,,,,,,,,,,,,,,,,
14906,1469898041071,,,,,,,0.04,0.11,0.95,-6.2,-1.8,-0.7,2140,2172,,,,,,,,,,,,,,,,,
14926,1469898041091,,,,,,,0.04,0.1,0.95,-6.0,-1.4,-0.6,2140,2166,,,,,,,,,,,,,,,,,
14946,1469898041111,,,,49,,,0.04,0.08,0.94,-5.8,-1.4,-0.7,2140,2160,1.009,4,39.542271,-122.336197,38.31,0.122,402.9,10,2,1.5,0,0.0,-1,0.0,,0.0,0
14966,1469898041131,,,,,,,0.03,0.07,0.95,-5.5,-1.0,-0.5,2160,2178,,,,,,,,,,,,,,,,,
14986,1469898041151,,,,,,,0.02,0.07,0.93,-5.3,-1.2,-0.6,2180,2166,,,,,,,,,,,,,,,,,
15006,1469898041171,,,,,,,0.03,0.08,0.93,-5.1,-1.4,-0.7,2120,2160,,,,,,,,,,,,,,,,,
15026,1469898041191,,,,,,,0.03,0.08,0.94,-5.0,-1.2,-0.8,2140,2160,,,,,,,,,,,,,,,,,
15046,1469898041211,0,192.8,177.0,46,175.4,14.02,0.03,0.08,0.93,-4.9,-1.2,-0.8,2140,2147,1.009,4,39.542252,-122.336182,38.14,0.123,403.0,10,2,1.5,0,0.0,-1,0.0,0.0,0.0,0
15066,1469898041231,,,,,,,0.03,0.06,0.93,-4.6,-1.2,-0.6,2160,2160,,,,,,,,,,,,,,,,,
15086,1469898041251,,,,,,,0.02,0.05,0.93,-4.5,-1.7,-0.5,2180,2153,,,,,,,,,,,,,,,,,
15106,1469898041271,,,,,,,0.01,0.03,0.91,-4.3,-2.0,-0.3,2120,2172,,,,,,,,,,,,,,,,,
15126,1469898041291,,,,,,,0.0,0.02,0.91,-4.0,-2.5,-0.2,2160,2160,,,,,,,,,,,,,,,,,
15146,1469898041311,,,,43,,,0.03,0.03,0.9,-3.9,-3.0,-0.3,2140,2153,0.994,4,39.54224,-122.336166,38.1,0.125,403.0,10,2,1.5,0,0.0,-1,0.0,,0.0,0
15166,1469898041331,,,,,,,0.02,0.01,0.89,-3.7,-2.9,-0.3,2140,2160,,,,,,,,,,,,,,,,,
15186,1469898041351,,,,,,,0.03,0.03,0.91,-3.5,-2.5,-0.4,2120,2147,,,,,,,,,,,,,,,,,
15206,1469898041371,,,,,,,0.02,0.03,0.93,-3.5,-2.5,-0.4,2120,2160,,,,,,,,,,,,,,,,,
15226,1469898041391,,,,,,,0.01,-0.02,0.93,-3.4,-2.5,-0.2,2140,2160,,,,,,,,,,,,,,,,,
15246,1469898041508,0,193.5,177.5,47,175.4,,0.0,0.0,0.94,-3.3,-2.7,0.1,2100,2153,0.991,4,39.542213,-122.336159,37.99,0.126,403.0,10,2,1.5,0,0.0,-1,0.0,0.0,0.0,0
15266,1469898041528,,,,,,,0.01,-0.02,0.93,-3.2,-3.0,0.3,2140,2172,,,,,,,,,,,,,,,,,
15286,1469898041548,,,,,,,0.01,-0.02,0.92,-3.0,-2.6,0.2,2140,2153,,,,,,,,,,,,,,,,,
15306,1469898041568,,,,,,,0.01,0.0,0.93,-2.9,-2.0,0.1,2140,2153,,,,,,,,,,,,,,,,,
15326,1469898041588,,,,,,,0.01,-0.01,0.93,-2.8,-1.9,0.2,2160,2166,,,,,,,,,,,,,,,,,
15346,1469898041608,,,,54,,,-0.01,-0.0,0.9,-2.7,-2.0,0.1,2220,2172,0.981,4,39.542213,-122.336159,37.99,0.126,403.0,10,2,1.5,0,0.0,-1,0.0,,0.0,0
15366,1469898041628,,,,,,,-0.02,0.02,0.91,-2.7,-2.5,0.0,2120,2160,,,,,,,,,,,,,,,,,
15386,1469898041648,,,,,,,-0.02,0.0,0.9,-2.6,-2.7,0.2,2160,2160,,,,,,,,,,,,,,,,,
15406,1469898041668,,,,,,,-0.01,0.01,0.88,-2.5,-3.0,0.2,2200,2147,,,,,,,,,,,,,,,,,
15426,1469898041688,,,,,,,-0.01,0.01,0.89,-2.4,-2.4,0.1,2100,2153,,,,,,,,,,,,,,,,,
15446,1469898041608,0,192.8,176.7,51,175.1,,-0.02,-0.02,0.89,-2.3,-2.6,0.1,2180,2160,0.987,4,39.542198,-122.336144,37.86,0.128,402.9,10,2,1.5,0,0.0,-1,0.0,0.0,0.0,0
15466,1469898041628,,,,,,,-0.03,-0.01,0.88,-2.3,-2.6,0.0,2120,2160,,,,,,,,,,,,,,,,,
15486,1469898041648,,,,,,,-0.05,-0.02,0.87,-2.2,-3.1,0.1,2160,2153,,,,,,,,,,,,,,,,,
15506,1469898041668,,,,,,,-0.03,-0.01,0.87,-2.0,-3.6,0.1,2200,2160,,,,,,,,,,,,,,,,,
15526,1469898041688,,,,,,,-0.02,0.01,0.87,-2.0,-3.9,0.1,2140,2160,,,,,,,,,,,,,,,,,
15546,1469898041708,,,,50,,,0.01,-0.01,0.86,-1.8,-3.8,-0.1,2120,2153,1.016,4,39.542183,-122.336144,37.88,0.129,402.8,10,2,1.5,0,0.0,-1,0.0,,0.0,0
15566,1469898041728,,,,,,,0.01,-0.03,0.89,-1.5,-3.1,-0.3,2140,2166,,,,,,,,,,,,,,,,,
15586,1469898041748,,,,,,,-0.01,-0.04,0.89,-1.5,-3.1,-0.3,2220,2160,,,,,,,,,,,,,,,,,
15606,1469898041768,,,,,,,-0.03,-0.04,0.88,-1.4,-3.0,-0.4,2200,2153,,,,,,,,,,,,,,,,,
15626,1469898041791,,,,,,,-0.02,-0.03,0.88,-1.2,-3.7,-0.5,2240,2166,,,,,,,,,,,,,,,,,
15646,1469898041811,0,193.3,177.2,58,175.3,,0.0,-0.03,0.89,-1.1,-4.2,-0.5,2180,2160,1.006,4,39.542172,-122.336128,37.89,0.13,402.7,10,2,1.5,0,0.0,-1,0.0,0.0,0.0,0
15666,1469898041831,,,,,,,0.0,-0.02,0.88,-1.0,-3.7,-0.5,2160,2166,,,,,,,,,,,,,,,,,
15686,1469898041851,,,,,,,0.02,-0.01,0.89,-1.0,-3.2,-0.5,2100,2160,,,,,,,,,,,,,,,,,
15706,1469898041871,,,,,,,0.02,-0.03,0.91,-1.0,-3.0,-0.3,2160,2178,,,,,,,,,,,,,,,,,
15726,1469898041891,,,,,,,0.01,-0.05,0.91,-1.0,-3.2,-0.2,2220,2166,,,,,,,,,,,,,,,,,
15746,1469898041900,,,,52,,,-0.02,-0.05,0.9,-1.0,-3.5,-0.2,2220,2166,0.967,4,39.542156,-122.336113,37.85,0.131,402.4,10,2,1.5,0,0.0,-1,0.0,,0.0,0
15766,1469898041920,,,,,,,0.0,-0.04,0.89,-0.8,-3.5,-0.2,2160,2172,,,,,,,,,,,,,,,,,
15786,1469898041940,,,,,,,0.0,-0.03,0.88,-0.8,-2.7,-0.4,2140,2178,,,,,,,,,,,,,,,,,
15806,1469898041960,,,,,,,-0.01,-0.05,0.89,-0.9,-2.1,-0.3,2160,2184,,,,,,,,,,,,,,,,,
15826,1469898041991,,,,,,,-0.0,-0.05,0.91,-0.9,-2.0,-0.1,2120,2178,,,,,,,,,,,,,,,,,
15846,1469898042011,0,193.3,177.0,59,175.3,,-0.03,-0.05,0.89,-1.0,-2.2,-0.0,2180,2178,1.01,4,39.542141,-122.336113,37.96,0.132,402.3,10,2,1.5,0,0.0,-1,0.0,0.0,0.0,0
15866,1469898042031,,,,,,,-0.02,-0.05,0.89,-0.9,-2.8,0.1,2200,2166,,,,,,,,,,,,,,,,,
15886,1469898042051,,,,,,,-0.01,-0.03,0.92,-1.0,-2.8,0.1,2140,2178,,,,,,,,,,,,,,,,,
15906,1469898042071,,,,,,,-0.01,-0.04,0.91,-0.9,-2.3,0.0,2140,2178,,,,,,,,,,,,,,,,,
15926,1469898042091,,,,,,,0.01,-0.06,0.92,-0.9,-1.6,-0.0,2120,2184,,,,,,,,,,,,,,,,,
15946,1469898042111,,,,61,,,-0.0,-0.06,0.93,-0.9,-1.6,-0.0,2160,2178,1.016,4,39.54213,-122.336105,38.06,0.133,402.1,10,2,1.5,0,0.0,-1,0.0,,0.0,0
15966,1469898042131,,,,,,,-0.02,-0.06,0.92,-0.9,-1.8,0.1,2200,2184,,,,,,,,,,,,,,,,,
15986,1469898042151,,,,,,,-0.01,-0.05,0.92,-0.8,-2.2,0.0,2200,2178,,,,,,,,,,,,,,,,,
16006,1469898042171,,,,,,,0.0,-0.04,0.94,-0.8,-1.9,0.0,2120,2184,,,,,,,,,,,,,,,,,
16026,1469898042191,,,,,,,0.0,-0.03,0.95,-0.9,-1.0,0.1,2160,2184,,,,,,,,,,,,,,,,,
16046,1469898042310,0,193.4,177.2,47,175.2,14.09,0.0,-0.04,0.95,-0.9,-0.8,0.3,2160,2184,1.019,4,39.542099,-122.33609,38.2,0.136,401.9,10,2,1.5,0,0.0,-1,0.0,0.0,0.0,0
16066,1469898042330,,,,,,,-0.02,-0.03,0.91,-0.9,-0.9,0.4,2180,2190,,,,,,,,,,,,,,,,,
16086,1469898042350,,,,,,,-0.02,-0.02,0.91,-1.0,-1.5,0.5,2220,2184,,,,,,,,,,,,,,,,,
16106,1469898042370,,,,,,,-0.03,-0.02,0.93,-1.0,-1.6,0.6,2100,2190,,,,,,,,,,,,,,,,,
16126,1469898042390,,,,,,,-0.02,0.0,0.92,-1.0,-1.1,0.7,2160,2190,,,,,,,,,,,,,,,,,
16146,1469898042410,,,,54,,,-0.02,-0.01,0.91,-1.0,-1.1,0.7,2120,2196,1.014,4,39.542099,-122.33609,38.2,0.136,401.9,10,2,1.5,0,0.0,-1,0.0,,0.0,0
16166,1469898042430,,,,,,,-0.03,-0.05,0.91,-1.0,-1.4,0.8,2160,2190,,,,,,,,,,,,,,,,,
16186,1469898042450,,,,,,,-0.04,-0.04,0.92,-1.0,-2.1,0.8,2140,2184,,,,,,,,,,,,,,,,,
16206,1469898042470,,,,,,,-0.03,-0.04,0.91,-0.9,-2.7,0.8,2160,2190,,,,,,,,,,,,,,,,,
16226,1469898042490,,,,,,,-0.03,-0.06,0.9,-0.9,-2.5,0.6,2160,2184,,,,,,,,,,,,,,,,,
16246,1469898042409,0,192.8,176.2,47,174.4,,-0.03,-0.06,0.92,-0.8,-2.1,0.5,2200,2203,1.017,4,39.542084,-122.336075,38.21,0.137,401.8,10,2,1.5,0,0.0,-1,0.0,0.0,0.0,0
16266,1469898042429,,,,,,,-0.03,-0.08,0.93,-0.9,-1.8,0.6,2200,2209,,,,,,,,,,,,,,,,,
16286,1469898042449,,,,,,,-0.05,-0.06,0.92,-1.0,-2.0,0.6,2160,2203,,,,,,,,,,,,,,,,,
16306,1469898042469,,,,,,,-0.01,-0.04,0.9,-1.0,-2.6,0.4,2200,2203,,,,,,,,,,,,,,,,,
16326,1469898042489,,,,,,,-0.0,-0.04,0.89,-1.0,-2.0,0.3,2240,2215,,,,,,,,,,,,,,,,,
16346,1469898042508,,,,49,,,0.02,-0.02,0.92,-1.0,-1.5,0.2,2160,2203,0.987,4,39.542072,-122.336067,38.42,0.138,401.6,10,2,1.5,0,0.0,-1,0.0,,0.0,0
16366,1469898042528,,,,,,,-0.0,0.01,0.92,-1.0,-1.2,0.1,2160,2209,,,,,,,,,,,,,,,,,
16386,1469898042548,,,,,,,-0.02,0.02,0.93,-1.1,-1.6,0.1,2160,2203,,,,,,,,,,,,,,,,,
16406,1469898042568,,,,,,,-0.02,-0.01,0.92,-1.0,-2.1,0.2,2180,2209,,,,,,,,,,,,,,,,,
16426,1469898042588,,,,,,,-0.01,0.01,0.91,-0.9,-2.1,0.1,2180,2203,,,,,,,,,,,,,,,,,
16446,1469898042608,0,192.4,175.8,55,174.3,,-0.01,-0.02,0.91,-0.9,-1.5,-0.0,2280,2209,0.978,4,39.542053,-122.336067,38.49,0.139,401.5,10,2,1.5,0,0.0,-1,0.0,0.0,0.0,0
16466,1469898042628,,,,,,,-0.01,-0.04,0.9,-1.0,-1.6,0.0,2180,2203,,,,,,,,,,,,,,,,,
16486,1469898042648,,,,,,,-0.02,-0.02,0.88,-1.1,-1.7,0.1,2180,2215,,,,,,,,,,,,,,,,,
16506,1469898042668,,,,,,,-0.01,-0.04,0.89,-0.8,-2.4,0.1,2280,2215,,,,,,,,,,,,,,,,,
16526,1469898042688,,,,,,,-0.02,-0.04,0.89,-0.7,-1.9,-0.0,2180,2215,,,,,,,,,,,,,,,,,
16546,1469898042708,,,,50,,,-0.01,-0.03,0.92,-0.8,-1.9,-0.1,2140,2209,0.996,4,39.542042,-122.336052,38.6,0.14,401.3,10,2,1.5,0,0.0,-1,0.0,,0.0,0
16566,1469898042728,,,,,,,-0.03,-0.04,0.91,-0.9,-1.8,-0.0,2200,2209,,,,,,,,,,,,,,,,,
16586,1469898042748,,,,,,,-0.03,-0.04,0.89,-0.7,-2.4,-0.2,2180,2215,,,,,,,,,,,,,,,,,
16606,1469898042768,,,,,,,-0.02,-0.02,0.9,-0.7,-2.3,-0.3,2260,2223,,,,,,,,,,,,,,,,,
16626,1469898042791,,,,,,,-0.03,-0.02,0.9,-0.7,-1.9,-0.2,2260,2235,,,,,,,,,,,,,,,,,
16646,1469898042811,0,192.2,175.7,48,174.3,,-0.04,-0.03,0.91,-0.8,-1.7,-0.1,2240,2229,0.972,4,39.542026,-122.336052,38.75,0.141,401.1,10,2,1.5,0,0.0,-1,0.0,0.0,0.0,0
16666,1469898042831,,,,,,,-0.07,-0.01,0.89,-0.8,-2.1,-0.1,2280,2235,,,,,,,,,,,,,,,,,
16686,1469898042851,,,,,,,-0.05,-0.01,0.86,-0.7,-2.9,-0.0,2300,2229,,,,,,,,,,,,,,,,,
16706,1469898042871,,,,,,,-0.03,-0.02,0.86,-0.6,-3.0,-0.1,2140,2235,,,,,,,,,,,,,,,,,
16726,1469898042891,,,,,,,-0.01,0.0,0.89,-0.5,-2.3,-0.2,2180,2235,,,,,,,,,,,,,,,,,
16746,1469898042905,,,,68,,,-0.03,-0.01,0.89,-0.5,-2.2,-0.2,2220,2229,1.008,4,39.542015,-122.336037,38.71,0.143,400.9,10,2,1.5,0,0.0,-1,0.0,,0.0,0
16766,1469898042925,,,,,,,-0.03,-0.02,0.89,-0.3,-3.0,-0.3,2200,2229,,,,,,,,,,,,,,,,,
16786,1469898042945,,,,,,,-0.02,-0.02,0.89,-0.1,-3.1,-0.4,2240,2235,,,,,,,,,,,,,,,,,
16806,1469898042965,,,,,,,-0.0,0.01,0.89,-0.0,-2.6,-0.5,2200,2235,,,,,,,,,,,,,,,,,
16826,1469898042991,,,,,,,-0.02,-0.01,0.89,0.0,-2.3,-0.4,2220,2247,,,,,,,,,,,,,,,,,
16846,1469898043110,0,192.8,176.4,50,174.9,,-0.04,-0.02,0.89,0.2,-2.5,-0.3,2240,2235,1.005,4,39.541985,-122.336029,39.19,0.145,400.3,10,2,1.5,0,0.0,-1,0.0,0.0,0.0,0
16866,1469898043130,,,,,,,-0.04,-0.02,0.91,0.4,-2.7,-0.3,2180,2235,,,,,,,,,,,,,,,,,
16886,1469898043150,,,,,,,-0.04,-0.0,0.92,0.6,-2.0,-0.4,2220,2235,,,,,,,,,,,,,,,,,
16906,1469898043170,,,,,,,-0.04,-0.04,0.93,0.7,-1.7,-0.3,2220,2247,,,,,,,,,,,,,,,,,
16926,1469898043190,,,,,,,-0.05,-0.04,0.91,0.9,-1.8,-0.5,2280,2241,,,,,,,,,,,,,,,,,
16946,1469898043210,,,,60,,,-0.03,-0.03,0.91,1.0,-2.4,-0.6,2220,2261,0.988,4,39.541985,-122.336029,39.19,0.145,400.3,10,2,1.5,0,0.0,-1,0.0,,0.0,0
16966,1469898043230,,,,,,,-0.02,-0.03,0.92,1.2,-2.3,-0.7,2240,2241,,,,,,,,,,,,,,,,,
16986,1469898043250,,,,,,,-0.02,-0.05,0.92,1.4,-2.1,-0.6,2320,2247,,,,,,,,,,,,,,,,,
17006,1469898043270,,,,,,,-0.04,-0.04,0.95,1.4,-2.3,-0.6,2200,2255,,,,,,,,,,,,,,,,,
17026,1469898043191,,,,,,,-0.03,-0.04,0.93,1.5,-2.8,-0.5,2220,2255,,,,,,,,,,,,,,,,,
17046,1469898043211,0,193.5,176.9,45,175.2,14.01,-0.02,-0.06,0.93,1.9,-2.4,-0.5,2240,2255,0.991,4,39.541969,-122.336014,39.2,0.146,400.0,10,2,1.5,0,0.0,-1,0.0,0.0,0.0,0
17066,1469898043231,,,,,,,-0.02,-0.09,0.93,2.0,-1.8,-0.7,2280,2255,,,,,,,,,,,,,,,,,
17086,1469898043251,,,,,,,-0.03,-0.09,0.91,2.0,-2.0,-0.9,2260,2247,,,,,,,,,,,,,,,,,
17106,1469898043271,,,,,,,-0.03,-0.1,0.9,2.1,-2.4,-0.7,2220,2261,,,,,,,,,,,,,,,,,
17126,1469898043291,,,,,,,-0.01,-0.12,0.9,2.3,-2.4,-0.6,2220,2255,,,,,,,,,,,,,,,,,
17146,1469898043311,,,,53,,,0.0,-0.14,0.92,2.5,-1.9,-0.5,2240,2267,0.991,4,39.541954,-122.336014,39.31,0.147,399.5,10,2,1.5,0,0.0,-1,0.0,,0.0,0
17166,1469898043331,,,,,,,-0.02,-0.11,0.93,2.5,-1.9,-0.7,2240,2267,,,,,,,,,,,,,,,,,
17186,1469898043351,,,,,,,-0.03,-0.12,0.92,2.5,-2.1,-0.7,2220,2255,,,,,,,,,,,,,,,,,
17206,1469898043371,,,,,,,-0.02,-0.1,0.9,2.5,-1.7,-0.8,2240,2255,,,,,,,,,,,,,,,,,
17226,1469898043391,,,,,,,-0.01,-0.11,0.92,2.3,-1.3,-0.8,2200,2267,,,,,,,,,,,,,,,,,
17246,1469898043409,0,193.4,176.6,47,175.2,,-0.03,-0.11,0.9,2.2,-1.7,-0.8,2240,2261,1.006,4,39.541939,-122.335999,39.48,0.148,399.1,10,2,1.5,0,0.0,-1,0.0,0.0,0.0,0
17266,1469898043429,,,,,,,-0.02,-0.12,0.89,2.1,-2.1,-0.5,2300,2275,,,,,,,,,,,,,,,,,
