"Interval"|"ms"|0|0|1,"Utc"|"ms"|0|0|1,"FuelLevel"|"F"|0|100|5,"OilTemp"|"F"|0.0|300.0|5,"Coolant"|"F"|0.0|300.0|5,"OilPress"|"PSI"|0|150|10,"EngineTemp"|"F"|0.0|300.0|5,"Battery"|"Volts"|0.0|20.0|1,"AccelX"|"G"|-3.0|3.0|50,"AccelY"|"G"|-3.0|3.0|50,"AccelZ"|"G"|-3.0|3.0|50,"Yaw"|"Deg/Sec"|-300.0|300.0|50,"Pitch"|"Deg/Sec"|-300.0|300.0|50,"Roll"|"Deg/Sec"|-300.0|300.0|50,"RPM"|""|0|10000|50,"Driveshaft"|"RPM"|0|5000|50,"GearRatio"|""|-5.0|5.0|10,"Gear"|""|-1|5|10,"Latitude"|"Degrees"|-180.0|180.0|10,"Longitude"|"Degrees"|-180.0|180.0|10,"Speed"|"MPH"|0.0|150.0|10,"Distance"|"Miles"|0.0|0.0|10,"Altitude"|"Feet"|0.0|4000.0|10,"GPSSats"|""|0|20|10,"GPSQual"|""|0|5|10,"GPSDOP"|""|0.0|20.0|10,"LapCount"|""|0|0|10,"LapTime"|"Min"|0.0|0.0|10,"Sector"|""|0|0|10,"SectorTime"|"Min"|0.0|0.0|10,"PredTime"|"Min"|0.0|0.0|5,"ElapsedTime"|"Min"|0.0|0.0|10,"CurrentLap"|""|0|0|10
54546,1469892482431,,,,2,,,0.02,0.1,0.98,-3.1,0.0,0.4,220,0,0.0,0,39.540585,-122.331955,0.0,0.01,317.0,10,3,1.5,0,0.0,-1,0.0,,0.0,0
54566,1469892482451,,,,,,,0.02,0.11,0.98,-3.1,0.0,0.4,220,0,,,,,,,,,,,,,,,,,
54586,1469892482471,,,,,,,0.03,0.12,0.98,-3.1,0.1,0.3,240,0,,,,,,,,,,,,,,,,,
54606,1469892482391,,,,,,,0.02,0.12,0.98,-3.1,0.0,0.2,240,0,,,,,,,,,,,,,,,,,
54626,1469892482411,,,,,,,0.02,0.1,0.98,-3.0,-0.0,0.0,240,0,,,,,,,,,,,,,,,,,
54646,1469892482431,0,125.0,153.4,8,149.7,,0.03,0.12,0.99,-3.0,0.0,0.1,400,0,0.0,0,39.540585,-122.331955,0.0,0.01,317.0,10,3,1.5,0,0.0,-1,0.0,0.0,0.0,0
54666,1469892482451,,,,,,,0.02,0.11,0.99,-3.0,-0.1,-0.0,560,0,,,,,,,,,,,,,,,,,
54686,1469892482471,,,,,,,0.02,0.11,0.98,-3.0,0.0,-0.1,560,0,,,,,,,,,,,,,,,,,
54706,1469892482491,,,,,,,0.03,0.12,0.99,-3.1,-0.1,0.0,640,0,,,,,,,,,,,,,,,,,
54726,1469892482511,,,,,,,0.02,0.1,0.99,-3.0,-0.0,-0.2,700,0,,,,,,,,,,,,,,,,,
54746,1469892482531,,,,22,,,0.03,0.11,0.99,-3.1,-0.0,0.0,700,0,0.0,0,39.540585,-122.331955,0.0,0.01,317.0,10,3,1.5,0,0.0,-1,0.0,,0.0,0
54766,1469892482551,,,,,,,0.03,0.13,0.99,-3.1,0.3,0.2,800,0,,,,,,,,,,,,,,,,,
54786,1469892482571,,,,,,,0.05,0.15,0.99,-3.2,0.2,0.4,880,0,,,,,,,,,,,,,,,,,
54806,1469892482591,,,,,,,0.04,0.15,0.98,-3.2,0.1,0.3,960,0,,,,,,,,,,,,,,,,,
54826,1469892482607,,,,,,,0.04,0.15,0.98,-3.2,-0.2,0.1,1020,0,,,,,,,,,,,,,,,,,
54846,1469892482627,0,124.9,153.3,37,149.9,,0.04,0.16,0.98,-3.2,-0.3,0.1,1040,0,0.0,0,39.540585,-122.331955,0.0,0.01,317.0,10,3,1.5,0,0.0,-1,0.0,0.0,0.0,0
54866,1469892482647,,,,,,,0.05,0.16,0.97,-3.3,-0.3,0.2,1060,0,,,,,,,,,,,,,,,,,
54886,1469892482667,,,,,,,0.06,0.15,0.97,-3.2,-0.1,0.1,1160,0,,,,,,,,,,,,,,,,,
54906,1469892482691,,,,,,,0.06,0.15,0.97,-3.2,0.3,0.1,1180,0,,,,,,,,,,,,,,,,,
54926,1469892482711,,,,,,,0.04,0.14,0.97,-3.2,-0.0,0.0,1200,0,,,,,,,,,,,,,,,,,
54946,1469892482731,,,,51,,,0.05,0.14,0.98,-3.1,0.1,-0.1,1220,0,0.0,0,39.540585,-122.331955,0.0,0.01,317.0,10,3,1.5,0,0.0,-1,0.0,,0.0,0
54966,1469892482751,,,,,,,0.04,0.13,0.98,-3.0,0.3,-0.1,1280,0,,,,,,,,,,,,,,,,,
54986,1469892482771,,,,,,,0.04,0.13,0.98,-3.0,0.2,-0.2,1300,0,,,,,,,,,,,,,,,,,
55006,1469892482791,,,,,,,0.03,0.14,0.98,-3.1,0.2,-0.2,1300,0,,,,,,,,,,,,,,,,,
55026,1469892482811,,,,,,,0.04,0.13,0.99,-3.1,0.3,-0.2,1340,0,,,,,,,,,,,,,,,,,
55046,1469892482831,0,125.9,154.2,53,150.3,12.29,0.04,0.12,0.98,-3.0,0.2,-0.2,1360,0,0.0,0,39.540585,-122.331955,0.0,0.01,317.0,10,3,1.5,0,0.0,-1,0.0,0.0,0.0,0
55066,1469892482851,,,,,,,0.03,0.13,0.99,-3.0,0.0,-0.3,1360,0,,,,,,,,,,,,,,,,,
55086,1469892482871,,,,,,,0.03,0.12,0.99,-3.1,0.1,-0.2,1380,0,,,,,,,,,,,,,,,,,
55106,1469892482891,,,,,,,0.03,0.11,0.99,-3.0,0.1,-0.2,1400,0,,,,,,,,,,,,,,,,,
55126,1469892482903,,,,,,,0.03,0.11,1.0,-3.0,0.1,-0.2,1380,0,,,,,,,,,,,,,,,,,
55146,1469892482923,,,,57,,,0.03,0.12,0.98,-3.1,0.2,-0.1,1480,0,0.0,0,39.540585,-122.331955,0.0,0.01,317.0,10,3,1.5,0,0.0,-1,0.0,,0.0,0
55166,1469892482943,,,,,,,0.03,0.11,0.97,-3.1,-0.1,-0.1,1400,0,,,,,,,,,,,,,,,,,
55186,1469892482963,,,,,,,0.04,0.11,0.97,-3.1,-0.0,-0.0,1420,0,,,,,,,,,,,,,,,,,
55206,1469892482991,,,,,,,0.03,0.1,0.98,-3.1,0.0,-0.1,1420,0,,,,,,,,,,,,,,,,,
55226,1469892483110,,,,,,,0.03,0.11,0.98,-3.1,0.1,-0.1,1420,0,,,,,,,,,,,,,,,,,
55246,1469892483130,0,124.5,153.0,57,149.1,,0.03,0.11,0.97,-3.0,0.2,-0.1,1420,0,0.0,0,39.540585,-122.331955,0.0,0.01,317.0,10,3,1.5,0,0.0,-1,0.0,0.0,0.0,0
55266,1469892483150,,,,,,,0.03,0.12,0.97,-3.0,0.2,-0.1,1440,0,,,,,,,,,,,,,,,,,
55286,1469892483170,,,,,,,0.03,0.12,0.97,-3.0,0.2,-0.1,1440,0,,,,,,,,,,,,,,,,,
55306,1469892483190,,,,,,,0.02,0.11,0.96,-3.0,0.1,-0.1,1440,0,,,,,,,,,,,,,,,,,
55326,1469892483210,,,,,,,0.03,0.11,0.97,-3.1,0.1,-0.1,1420,0,,,,,,,,,,,,,,,,,
55346,1469892483230,,,,56,,,0.02,0.1,0.98,-3.0,0.1,-0.1,1400,0,0.0,0,39.540585,-122.331955,0.0,0.01,317.0,10,3,1.5,0,0.0,-1,0.0,,0.0,0
55366,1469892483250,,,,,,,0.03,0.1,0.99,-3.0,0.1,-0.1,1420,0,,,,,,,,,,,,,,,,,
55386,1469892483270,,,,,,,0.03,0.11,1.0,-3.0,0.2,-0.1,1400,0,,,,,,,,,,,,,,,,,
55406,1469892483191,,,,,,,0.03,0.11,1.0,-2.9,0.1,-0.1,1360,0,,,,,,,,,,,,,,,,,
55426,1469892483211,,,,,,,0.03,0.11,1.01,-2.9,0.1,-0.1,1340,0,,,,,,,,,,,,,,,,,
55446,1469892483231,0,125.6,154.1,59,150.5,,0.03,0.1,1.01,-3.0,0.1,-0.1,1360,0,0.0,0,39.540585,-122.331955,0.0,0.01,317.0,10,3,1.5,0,0.0,-1,0.0,0.0,0.0,0
55466,1469892483251,,,,,,,0.03,0.1,1.01,-3.0,0.1,-0.1,1320,0,,,,,,,,,,,,,,,,,
55486,1469892483271,,,,,,,0.03,0.11,1.01,-3.0,0.0,-0.1,1300,0,,,,,,,,,,,,,,,,,
55506,1469892483291,,,,,,,0.03,0.11,1.02,-3.0,0.0,-0.1,1280,0,,,,,,,,,,,,,,,,,
55526,1469892483311,,,,,,,0.03,0.1,1.02,-3.0,0.1,-0.1,1280,0,,,,,,,,,,,,,,,,,
55546,1469892483331,,,,59,,,0.03,0.1,1.02,-3.0,0.1,-0.1,1240,0,0.0,0,39.540585,-122.331955,0.0,0.01,317.0,10,3,1.5,0,0.0,-1,0.0,,0.0,0
55566,1469892483351,,,,,,,0.03,0.11,1.01,-3.0,0.1,-0.0,1220,0,,,,,,,,,,,,,,,,,
55586,1469892483371,,,,,,,0.03,0.11,1.0,-3.0,0.1,-0.0,1200,0,,,,,,,,,,,,,,,,,
55606,1469892483391,,,,,,,0.03,0.11,1.0,-3.0,0.2,-0.1,1180,0,,,,,,,,,,,,,,,,,
55626,1469892483411,,,,,,,0.02,0.11,1.0,-3.0,0.2,-0.0,1160,0,,,,,,,,,,,,,,,,,
55646,1469892483431,0,124.6,153.1,56,149.7,,0.02,0.11,1.0,-3.0,0.1,-0.0,1160,0,0.0,0,39.540585,-122.331955,0.0,0.01,317.0,10,3,1.5,0,0.0,-1,0.0,0.0,0.0,0
55666,1469892483451,,,,,,,0.02,0.1,1.0,-3.0,0.2,-0.1,1120,0,,,,,,,,,,,,,,,,,
55686,1469892483471,,,,,,,0.02,0.1,0.99,-3.0,0.2,-0.1,1100,0,,,,,,,,,,,,,,,,,
55706,1469892483491,,,,,,,0.02,0.1,0.99,-3.0,0.1,-0.0,1080,0,,,,,,,,,,,,,,,,,
55726,1469892483511,,,,,,,0.02,0.1,0.99,-3.0,0.2,-0.0,1080,0,,,,,,,,,,,,,,,,,
55746,1469892483531,,,,49,,,0.02,0.1,0.99,-3.0,0.2,-0.0,1060,0,0.0,0,39.540585,-122.331955,0.0,0.01,317.0,10,3,1.5,0,0.0,-1,0.0,,0.0,0
55766,1469892483551,,,,,,,0.02,0.1,1.0,-3.0,0.2,-0.0,1040,0,,,,,,,,,,,,,,,,,
55786,1469892483571,,,,,,,0.02,0.1,1.0,-3.0,0.1,-0.0,1040,0,,,,,,,,,,,,,,,,,
55806,1469892483591,,,,,,,0.02,0.1,1.0,-3.0,0.1,-0.0,1000,0,,,,,,,,,,,,,,,,,
55826,1469892483610,,,,,,,0.02,0.1,0.99,-3.0,0.0,-0.1,1000,0,,,,,,,,,,,,,,,,,
55846,1469892483630,0,125.1,153.3,47,149.3,,0.02,0.1,0.99,-3.0,0.0,-0.1,1000,0,0.0,0,39.540585,-122.331955,0.0,0.01,317.0,10,3,1.5,0,0.0,-1,0.0,0.0,0.0,0
55866,1469892483650,,,,,,,0.02,0.11,0.99,-3.0,-0.1,-0.1,1000,0,,,,,,,,,,,,,,,,,
55886,1469892483670,,,,,,,0.03,0.1,0.98,-2.9,-0.1,-0.1,1000,0,,,,,,,,,,,,,,,,,
55906,1469892483690,,,,,,,0.03,0.1,0.98,-2.9,-0.0,-0.1,1000,0,,,,,,,,,,,,,,,,,
55926,1469892483710,,,,,,,0.03,0.11,0.99,-2.9,-0.1,-0.1,1000,0,,,,,,,,,,,,,,,,,
55946,1469892483730,,,,50,,,0.03,0.11,0.99,-2.9,-0.1,-0.2,960,0,0.0,0,39.540585,-122.331955,0.0,0.01,317.0,10,3,1.5,0,0.0,-1,0.0,,0.0,0
55966,1469892483750,,,,,,,0.03,0.11,0.99,-2.9,-0.2,-0.1,1040,0,,,,,,,,,,,,,,,,,
55986,1469892483770,,,,,,,0.04,0.12,0.99,-2.9,-0.2,-0.1,1080,0,,,,,,,,,,,,,,,,,
56006,1469892483791,,,,,,,0.04,0.12,0.99,-3.0,-0.0,-0.0,1220,0,,,,,,,,,,,,,,,,,
56026,1469892483910,,,,,,,0.04,0.11,0.98,-3.0,0.2,-0.1,1300,0,,,,,,,,,,,,,,,,,
56046,1469892483930,0,125.5,153.9,50,150.3,14.26,0.02,0.1,0.97,-3.0,-0.2,-0.0,1380,0,0.0,0,39.540585,-122.331955,0.0,0.01,317.0,10,3,1.5,0,0.0,-1,0.0,0.0,0.0,0
56066,1469892483950,,,,,,,0.03,0.09,0.97,-3.1,-0.2,0.0,1540,0,,,,,,,,,,,,,,,,,
56086,1469892483970,,,,,,,0.03,0.09,0.97,-3.1,-0.2,0.0,1680,0,,,,,,,,,,,,,,,,,
56106,1469892483990,,,,,,,0.02,0.11,0.96,-3.1,-0.1,-0.1,1800,0,,,,,,,,,,,,,,,,,
56126,1469892484010,,,,,,,0.03,0.08,0.96,-3.0,-0.4,-0.1,1860,0,,,,,,,,,,,,,,,,,
56146,1469892484030,,,,63,,,0.02,0.08,0.98,-3.0,-0.4,0.0,1960,0,0.0,0,39.540585,-122.331955,0.0,0.01,317.0,10,3,1.5,0,0.0,-1,0.0,,0.0,0
56166,1469892484050,,,,,,,0.01,0.08,0.99,-3.0,-0.3,-0.0,2000,0,,,,,,,,,,,,,,,,,
56186,1469892484070,,,,,,,-0.02,0.08,1.0,-3.1,-0.5,0.0,2040,0,,,,,,,,,,,,,,,,,
56206,1469892483991,,,,,,,-0.02,0.08,1.01,-3.1,-0.2,0.1,2100,0,,,,,,,,,,,,,,,,,
56226,1469892484011,,,,,,,-0.03,0.07,1.02,-3.1,-0.3,0.1,2100,0,,,,,,,,,,,,,,,,,
56246,1469892484031,0,124.7,153.2,60,149.7,,-0.04,0.07,1.02,-3.1,-0.4,0.1,2120,0,0.0,0,39.540585,-122.331955,0.0,0.01,317.0,10,3,1.5,0,0.0,-1,0.0,0.0,0.0,0
56266,1469892484051,,,,,,,-0.03,0.07,1.02,-3.1,-0.4,0.1,2140,0,,,,,,,,,,,,,,,,,
56286,1469892484071,,,,,,,-0.01,0.08,1.02,-3.0,-0.5,0.0,2140,0,,,,,,,,,,,,,,,,,
56306,1469892484091,,,,,,,-0.01,0.09,1.02,-3.0,-0.2,-0.1,2100,0,,,,,,,,,,,,,,,,,
56326,1469892484111,,,,,,,-0.0,0.09,1.02,-3.1,0.1,-0.0,2080,0,,,,,,,,,,,,,,,,,
56346,1469892484131,,,,55,,,-0.01,0.1,1.02,-3.0,-0.1,-0.0,2020,0,0.0,0,39.540585,-122.331955,0.0,0.01,317.0,10,3,1.5,0,0.0,-1,0.0,,0.0,0
56366,1469892484151,,,,,,,-0.01,0.1,1.02,-3.1,-0.2,-0.0,2020,0,,,,,,,,,,,,,,,,,
56386,1469892484171,,,,,,,-0.02,0.11,1.01,-3.1,-0.1,0.0,1980,0,,,,,,,,,,,,,,,,,
56406,1469892484191,,,,,,,-0.02,0.11,1.01,-3.0,-0.3,0.0,1960,0,,,,,,,,,,,,,,,,,
56426,1469892484211,,,,,,,-0.02,0.11,1.01,-3.0,-0.3,0.0,1900,0,,,,,,,,,,,,,,,,,
56446,1469892484231,0,124.5,153.2,61,149.1,,-0.02,0.11,1.01,-3.0,-0.1,0.0,1880,0,0.0,0,39.540585,-122.331955,0.0,0.01,317.0,10,3,1.5,0,0.0,-1,0.0,0.0,0.0,0
56466,1469892484251,,,,,,,-0.03,0.11,1.02,-3.0,-0.0,0.0,1840,0,,,,,,,,,,,,,,,,,
56486,1469892484271,,,,,,,-0.02,0.12,1.01,-3.0,0.2,0.1,1800,0,,,,,,,,,,,,,,,,,
56506,1469892484291,,,,,,,-0.02,0.11,1.01,-3.0,0.3,0.1,1780,0,,,,,,,,,,,,,,,,,
56526,1469892484311,,,,,,,-0.01,0.11,1.01,-3.1,0.3,0.0,1760,0,,,,,,,,,,,,,,,,,
56546,1469892484331,,,,60,,,-0.0,0.12,1.0,-3.0,0.3,0.0,1780,0,0.0,0,39.540585,-122.331955,0.0,0.01,317.0,10,3,1.5,0,0.0,-1,0.0,,0.0,0
56566,1469892484351,,,,,,,-0.0,0.12,1.0,-3.0,0.3,-0.0,1760,0,,,,,,,,,,,,,,,,,
56586,1469892484371,,,,,,,0.0,0.11,1.0,-3.0,0.4,-0.0,1740,0,,,,,,,,,,,,,,,,,
56606,1469892484391,,,,,,,0.0,0.11,1.0,-3.0,0.5,-0.0,1460,0,,,,,,,,,,,,,,,,,
56626,1469892484411,,,,,,,0.01,0.12,1.0,-3.0,0.1,-0.0,1720,0,,,,,,,,,,,,,,,,,
56646,1469892484431,0,126.0,153.9,56,149.4,,0.0,0.12,0.99,-3.0,0.2,-0.1,1700,0,0.0,0,39.540585,-122.331955,0.0,0.01,317.0,10,3,1.5,0,0.0,-1,0.0,0.0,0.0,0
56666,1469892484451,,,,,,,-0.0,0.1,0.99,-3.0,0.4,-0.1,1620,0,,,,,,,,,,,,,,,,,
56686,1469892484471,,,,,,,0.01,0.1,0.99,-3.0,0.4,-0.1,1620,86,,,,,,,,,,,,,,,,,
56706,1469892484491,,,,,,,0.01,0.11,0.98,-3.0,0.3,-0.1,1600,86,,,,,,,,,,,,,,,,,
56726,1469892484511,,,,,,,0.02,0.11,0.99,-3.0,0.4,-0.1,1580,86,,,,,,,,,,,,,,,,,
56746,1469892484531,,,,65,,,0.02,0.11,0.99,-2.9,0.4,-0.1,1540,86,18.14,0,39.540585,-122.331955,0.0,0.01,317.0,10,3,1.5,0,0.0,-1,0.0,,0.0,0
56766,1469892484551,,,,,,,0.02,0.11,0.99,-2.9,0.4,-0.1,1520,86,,,,,,,,,,,,,,,,,
56786,1469892484571,,,,,,,0.02,0.11,0.99,-2.9,0.3,-0.1,1520,86,,,,,,,,,,,,,,,,,
56806,1469892484591,,,,,,,0.02,0.1,0.98,-2.9,0.4,-0.1,1500,0,,,,,,,,,,,,,,,,,
56826,1469892484710,,,,,,,0.03,0.1,0.99,-2.9,0.3,-0.1,1460,0,,,,,,,,,,,,,,,,,
56846,1469892484730,0,125.3,153.6,48,149.1,,0.02,0.1,0.99,-2.9,0.3,-0.1,1440,0,0.0,0,39.540585,-122.331955,0.0,0.01,317.0,10,3,1.5,0,0.0,-1,0.0,0.0,0.0,0
56866,1469892484750,,,,,,,0.02,0.1,0.98,-2.8,0.3,-0.1,1440,0,,,,,,,,,,,,,,,,,
56886,1469892484770,,,,,,,0.02,0.1,0.99,-2.9,0.2,-0.0,1400,0,,,,,,,,,,,,,,,,,
56906,1469892484790,,,,,,,0.02,0.11,0.99,-2.9,0.2,-0.1,1380,0,,,,,,,,,,,,,,,,,
56926,1469892484810,,,,,,,0.03,0.11,0.99,-2.9,0.2,-0.0,1340,0,,,,,,,,,,,,,,,,,
56946,1469892484830,,,,55,,,0.03,0.11,0.99,-2.9,0.2,-0.0,1360,0,0.0,0,39.540585,-122.331955,0.0,0.01,317.0,10,3,1.5,0,0.0,-1,0.0,,0.0,0
56966,1469892484850,,,,,,,0.02,0.1,0.99,-2.8,0.2,-0.0,1340,0,,,,,,,,,,,,,,,,,
56986,1469892484870,,,,,,,0.02,0.1,0.99,-2.8,0.1,-0.1,1280,0,,,,,,,,,,,,,,,,,
57006,1469892484791,,,,,,,0.03,0.1,0.99,-2.8,0.2,-0.1,1300,0,,,,,,,,,,,,,,,,,
57026,1469892484811,,,,,,,0.03,0.1,0.99,-2.9,0.2,-0.1,1260,0,,,,,,,,,,,,,,,,,
57046,1469892484831,0,126.0,154.7,61,150.6,14.39,0.02,0.1,0.99,-2.9,0.1,-0.1,1280,0,0.0,0,39.540585,-122.331955,0.0,0.01,317.0,10,3,1.5,0,0.0,-1,0.0,0.0,0.0,0
57066,1469892484851,,,,,,,0.02,0.1,0.99,-2.9,0.1,-0.1,1240,0,,,,,,,,,,,,,,,,,
57086,1469892484871,,,,,,,0.02,0.1,0.99,-2.9,0.0,-0.1,1260,0,,,,,,,,,,,,,,,,,
57106,1469892484891,,,,,,,0.02,0.1,0.99,-2.9,0.1,-0.1,1240,0,,,,,,,,,,,,,,,,,
57126,1469892484904,,,,,,,0.02,0.1,0.99,-2.9,-0.0,-0.1,1220,0,,,,,,,,,,,,,,,,,
57146,1469892484924,,,,54,,,0.02,0.09,0.99,-2.9,0.1,-0.1,1220,0,0.0,0,39.540585,-122.331955,0.0,0.01,317.0,10,3,1.5,0,0.0,-1,0.0,,0.0,0
57166,1469892484944,,,,,,,0.02,0.09,0.99,-2.9,0.0,-0.0,1220,0,,,,,,,,,,,,,,,,,
57186,1469892484964,,,,,,,0.03,0.1,1.0,-2.9,0.1,-0.0,1200,0,,,,,,,,,,,,,,,,,
57206,1469892484991,,,,,,,0.02,0.1,0.99,-2.9,-0.0,-0.0,1200,0,,,,,,,,,,,,,,,,,
57226,1469892485011,,,,,,,0.03,0.11,0.99,-2.9,-0.0,-0.0,1200,0,,,,,,,,,,,,,,,,,
57246,1469892485031,0,124.4,153.4,57,149.6,,0.03,0.1,0.99,-2.9,0.0,-0.1,1200,0,0.0,0,39.540585,-122.331955,0.0,0.01,317.0,10,3,1.5,0,0.0,-1,0.0,0.0,0.0,0
57266,1469892485051,,,,,,,0.03,0.1,0.98,-2.9,-0.0,-0.1,1180,0,,,,,,,,,,,,,,,,,
57286,1469892485071,,,,,,,0.03,0.1,0.99,-2.9,0.0,-0.1,1180,0,,,,,,,,,,,,,,,,,
57306,1469892485091,,,,,,,0.03,0.11,0.98,-2.9,-0.1,-0.1,1180,0,,,,,,,,,,,,,,,,,
57326,1469892485111,,,,,,,0.03,0.11,0.98,-2.9,-0.1,-0.0,1180,0,,,,,,,,,,,,,,,,,
57346,1469892485131,,,,55,,,0.03,0.1,0.98,-2.9,0.1,-0.1,1180,0,0.0,0,39.540585,-122.331955,0.0,0.01,317.0,10,3,1.5,0,0.0,-1,0.0,,0.0,0
57366,1469892485151,,,,,,,0.03,0.1,0.98,-2.8,-0.1,-0.1,1180,0,,,,,,,,,,,,,,,,,
57386,1469892485171,,,,,,,0.03,0.11,0.99,-2.8,-0.1,-0.1,1160,0,,,,,,,,,,,,,,,,,
57406,1469892485191,,,,,,,0.03,0.11,0.99,-2.8,-0.0,-0.1,1160,0,,,,,,,,,,,,,,,,,
57426,1469892485207,,,,,,,0.03,0.11,0.99,-2.8,-0.1,-0.1,1160,0,,,,,,,,,,,,,,,,,
57446,1469892485227,0,125.9,154.7,55,150.5,,0.03,0.11,1.0,-2.8,0.1,-0.0,1160,0,0.0,0,39.540585,-122.331955,0.0,0.01,317.0,10,3,1.5,0,0.0,-1,0.0,0.0,0.0,0
57466,1469892485247,,,,,,,0.03,0.11,0.99,-2.8,0.1,-0.0,1160,0,,,,,,,,,,,,,,,,,
57486,1469892485267,,,,,,,0.03,0.11,0.99,-2.8,-0.1,-0.0,1140,0,,,,,,,,,,,,,,,,,
57506,1469892485292,,,,,,,0.03,0.11,0.99,-2.8,0.0,-0.1,1140,0,,,,,,,,,,,,,,,,,
57526,1469892485312,,,,,,,0.03,0.11,0.99,-2.8,-0.0,-0.0,1160,0,,,,,,,,,,,,,,,,,
57546,1469892485332,,,,57,,,0.03,0.11,0.99,-2.8,-0.1,-0.0,1140,29,38.621,0,39.540585,-122.331955,0.0,0.01,317.0,10,3,1.5,0,0.0,-1,0.0,,0.0,0
57566,1469892485352,,,,,,,0.03,0.11,0.99,-2.8,0.1,-0.0,1140,29,,,,,,,,,,,,,,,,,
57586,1469892485372,,,,,,,0.03,0.1,0.99,-2.7,0.2,-0.0,1120,29,,,,,,,,,,,,,,,,,
57606,1469892485491,,,,,,,0.02,0.11,0.99,-2.7,0.0,-0.1,1120,29,,,,,,,,,,,,,,,,,
57626,1469892485511,,,,,,,0.02,0.1,0.99,-2.7,0.0,-0.0,1120,29,,,,,,,,,,,,,,,,,
57646,1469892485531,0,125.0,154.0,55,150.0,,0.03,0.11,0.99,-2.7,0.1,-0.1,1120,29,38.621,0,39.540585,-122.331955,0.0,0.01,317.0,10,3,1.5,0,0.0,-1,0.0,0.0,0.0,0
57666,1469892485551,,,,,,,0.02,0.1,0.99,-2.7,0.1,-0.1,1120,12,,,,,,,,,,,,,,,,,
57686,1469892485571,,,,,,,0.02,0.1,0.99,-2.7,-0.0,-0.1,1100,12,,,,,,,,,,,,,,,,,
57706,1469892485591,,,,,,,0.03,0.11,0.99,-2.7,0.1,-0.0,1100,12,,,,,,,,,,,,,,,,,
57726,1469892485611,,,,,,,0.03,0.11,0.98,-2.7,0.2,-0.0,1120,12,,,,,,,,,,,,,,,,,
57746,1469892485631,,,,52,,,0.03,0.11,0.98,-2.7,0.3,-0.0,1100,12,93.333,0,39.540585,-122.331955,0.0,0.01,317.0,10,3,1.5,0,0.0,-1,0.0,,0.0,0
57766,1469892485651,,,,,,,0.02,0.1,0.99,-2.7,0.1,-0.0,1120,13,,,,,,,,,,,,,,,,,
57786,1469892485671,,,,,,,0.02,0.1,0.98,-2.7,-0.0,-0.1,1100,13,,,,,,,,,,,,,,,,,
57806,1469892485591,,,,,,,0.03,0.1,0.98,-2.7,0.0,-0.1,1100,13,,,,,,,,,,,,,,,,,
57826,1469892485611,,,,,,,0.03,0.1,0.99,-2.6,0.1,-0.1,1100,13,,,,,,,,,,,,,,,,,
57846,1469892485631,0,125.8,154.9,50,150.6,,0.02,0.11,0.99,-2.6,0.0,-0.1,1120,13,86.154,0,39.540585,-122.331955,0.0,0.01,317.0,10,3,1.5,0,0.0,-1,0.0,0.0,0.0,0
57866,1469892485651,,,,,,,0.03,0.11,0.98,-2.6,-0.0,-0.0,1100,15,,,,,,,,,,,,,,,,,
57886,1469892485671,,,,,,,0.03,0.11,0.99,-2.6,0.1,-0.0,1120,15,,,,,,,,,,,,,,,,,
57906,1469892485691,,,,,,,0.03,0.1,0.99,-2.6,0.2,-0.0,1100,15,,,,,,,,,,,,,,,,,
57926,1469892485711,,,,,,,0.02,0.1,0.98,-2.6,0.2,-0.1,1100,15,,,,,,,,,,,,,,,,,
57946,1469892485731,,,,58,,,0.02,0.1,0.99,-2.6,-0.0,-0.1,1100,15,73.333,0,39.540585,-122.331955,0.0,0.01,317.0,10,3,1.5,0,0.0,-1,0.0,,0.0,0
57966,1469892485751,,,,,,,0.02,0.1,0.98,-2.6,-0.1,-0.1,1120,16,,,,,,,,,,,,,,,,,
57986,1469892485771,,,,,,,0.03,0.1,0.99,-2.6,0.0,-0.1,1120,16,,,,,,,,,,,,,,,,,
58006,1469892485792,,,,,,,0.03,0.1,0.99,-2.6,-0.0,-0.1,1120,16,,,,,,,,,,,,,,,,,
58026,1469892485812,,,,,,,0.03,0.11,0.99,-2.6,-0.1,-0.1,1120,16,,,,,,,,,,,,,,,,,
58046,1469892485832,0,125.8,154.9,55,150.6,14.43,0.03,0.11,0.99,-2.6,0.0,-0.0,1120,16,70.0,0,39.540585,-122.331955,0.0,0.01,317.0,10,3,1.5,0,0.0,-1,0.0,0.0,0.0,0
58066,1469892485852,,,,,,,0.03,0.11,0.99,-2.7,0.2,-0.0,1140,16,,,,,,,,,,,,,,,,,
58086,1469892485872,,,,,,,0.02,0.1,0.99,-2.6,0.0,-0.0,1140,16,,,,,,,,,,,,,,,,,
58106,1469892485892,,,,,,,0.02,0.09,0.98,-2.6,-0.2,-0.1,1140,16,,,,,,,,,,,,,,,,,
58126,1469892485905,,,,,,,0.02,0.1,0.99,-2.7,-0.1,-0.1,1140,18,,,,,,,,,,,,,,,,,
58146,1469892485925,,,,61,,,0.02,0.09,0.99,-2.7,-0.1,-0.1,1140,18,63.333,0,39.540585,-122.331955,0.0,0.01,317.0,10,3,1.5,0,0.0,-1,0.0,,0.0,0
58166,1469892485945,,,,,,,0.02,0.1,0.99,-2.6,-0.1,-0.1,1160,18,,,,,,,,,,,,,,,,,
58186,1469892485965,,,,,,,0.03,0.09,0.99,-2.6,-0.1,-0.1,1160,18,,,,,,,,,,,,,,,,,
58206,1469892485992,,,,,,,0.02,0.09,0.99,-2.7,0.1,-0.0,1180,18,,,,,,,,,,,,,,,,,
58226,1469892486012,,,,,,,0.02,0.09,0.99,-2.6,-0.2,-0.1,1140,18,,,,,,,,,,,,,,,,,
58246,1469892486032,0,125.3,154.5,55,150.5,,0.02,0.09,0.99,-2.6,-0.2,-0.1,1160,18,64.444,0,39.540585,-122.331955,0.0,0.01,317.0,10,3,1.5,0,0.0,-1,0.0,0.0,0.0,0
58266,1469892486052,,,,,,,0.02,0.09,1.0,-2.6,-0.1,-0.1,1180,20,,,,,,,,,,,,,,,,,
58286,1469892486072,,,,,,,0.02,0.1,0.99,-2.6,-0.2,-0.1,1180,20,,,,,,,,,,,,,,,,,
58306,1469892486092,,,,,,,0.03,0.1,0.99,-2.6,-0.0,-0.1,1200,20,,,,,,,,,,,,,,,,,
58326,1469892486112,,,,,,,0.02,0.09,0.99,-2.6,-0.1,-0.1,1160,20,,,,,,,,,,,,,,,,,
58346,1469892486132,,,,57,,,0.02,0.09,0.99,-2.5,-0.4,-0.1,1180,21,56.19,0,39.540585,-122.331955,0.0,0.01,317.0,10,3,1.5,0,0.0,-1,0.0,,0.0,0
58366,1469892486152,,,,,,,0.03,0.09,0.99,-2.5,-0.1,-0.1,1180,21,,,,,,,,,,,,,,,,,
58386,1469892486172,,,,,,,0.02,0.1,0.99,-2.6,-0.2,-0.1,1200,21,,,,,,,,,,,,,,,,,
58406,1469892486291,,,,,,,0.03,0.1,0.98,-2.5,-0.1,-0.1,1200,21,,,,,,,,,,,,,,,,,
58426,1469892486311,,,,,,,0.03,0.1,0.99,-2.6,-0.0,-0.1,1180,21,,,,,,,,,,,,,,,,,
58446,1469892486331,0,124.6,154.0,55,149.8,,0.03,0.1,0.98,-2.5,-0.3,-0.1,1180,27,56.19,0,39.540585,-122.331955,0.0,0.01,317.0,10,3,1.5,0,0.0,-1,0.0,0.0,0.0,0
58466,1469892486351,,,,,,,0.04,0.1,0.99,-2.5,-0.1,-0.1,1200,27,,,,,,,,,,,,,,,,,
58486,1469892486371,,,,,,,0.04,0.11,0.98,-2.5,-0.2,-0.1,1200,27,,,,,,,,,,,,,,,,,
58506,1469892486391,,,,,,,0.04,0.11,0.98,-2.5,-0.1,-0.1,1200,29,,,,,,,,,,,,,,,,,
58526,1469892486411,,,,,,,0.04,0.1,0.99,-2.5,-0.1,-0.1,1180,29,,,,,,,,,,,,,,,,,
58546,1469892486431,,,,52,,,0.04,0.1,0.98,-2.5,-0.3,-0.2,1180,33,40.69,0,39.540585,-122.331955,0.0,0.01,317.0,10,3,1.5,0,0.0,-1,0.0,,0.0,0
58566,1469892486451,,,,,,,0.05,0.11,0.99,-2.5,-0.2,-0.2,1180,33,,,,,,,,,,,,,,,,,
58586,1469892486471,,,,,,,0.05,0.11,0.98,-2.5,-0.3,-0.2,1180,33,,,,,,,,,,,,,,,,,
58606,1469892486392,,,,,,,0.06,0.11,0.98,-2.4,-0.2,-0.1,1180,30,,,,,,,,,,,,,,,,,
58626,1469892486412,,,,,,,0.05,0.1,0.98,-2.4,0.0,-0.2,1160,30,,,,,,,,,,,,,,,,,
58646,1469892486432,0,125.0,154.1,54,150.1,,0.05,0.1,0.98,-2.4,-0.2,-0.2,1160,33,35.152,0,39.540585,-122.331955,0.0,0.01,317.0,10,3,1.5,0,0.0,-1,0.0,0.0,0.0,0
58666,1469892486452,,,,,,,0.06,0.11,0.99,-2.4,-0.2,-0.2,1140,33,,,,,,,,,,,,,,,,,
58686,1469892486472,,,,,,,0.06,0.11,0.99,-2.4,-0.0,-0.2,1160,35,,,,,,,,,,,,,,,,,
58706,1469892486492,,,,,,,0.06,0.12,0.99,-2.4,-0.2,-0.2,1160,35,,,,,,,,,,,,,,,,,
58726,1469892486512,,,,,,,0.07,0.11,0.99,-2.4,-0.1,-0.2,1100,38,,,,,,,,,,,,,,,,,
58746,1469892486532,,,,59,,,0.06,0.1,0.99,-2.4,0.1,-0.2,1140,38,28.947,0,39.540585,-122.331955,0.0,0.01,317.0,10,3,1.5,0,0.0,-1,0.0,,0.0,0
58766,1469892486552,,,,,,,0.05,0.1,0.99,-2.4,-0.0,-0.2,1120,41,,,,,,,,,,,,,,,,,
58786,1469892486572,,,,,,,0.06,0.1,0.98,-2.3,-0.2,-0.2,1140,43,,,,,,,,,,,,,,,,,
58806,1469892486592,,,,,,,0.06,0.1,0.99,-2.2,-0.0,-0.2,1120,43,,,,,,,,,,,,,,,,,
58826,1469892486612,,,,,,,0.06,0.1,0.99,-2.2,-0.1,-0.2,1120,49,,,,,,,,,,,,,,,,,
58846,1469892486632,0,124.9,153.9,55,149.7,,0.07,0.1,0.99,-2.2,-0.1,-0.2,1100,47,22.449,0,39.540585,-122.331955,0.0,0.01,317.0,10,3,1.5,0,0.0,-1,0.0,0.0,0.0,0
58866,1469892486652,,,,,,,0.07,0.11,0.99,-2.2,-0.1,-0.1,1100,47,,,,,,,,,,,,,,,,,
58886,1469892486672,,,,,,,0.07,0.1,0.99,-2.2,0.1,-0.1,1100,46,,,,,,,,,,,,,,,,,
58906,1469892486692,,,,,,,0.07,0.09,0.99,-2.1,0.1,-0.1,1100,53,,,,,,,,,,,,,,,,,
58926,1469892486712,,,,,,,0.07,0.09,0.99,-2.1,0.1,-0.1,1080,53,,,,,,,,,,,,,,,,,
58946,1469892486732,,,,55,,,0.07,0.09,0.99,-2.1,-0.2,-0.1,1080,53,20.377,0,39.540585,-122.331955,0.0,0.01,317.0,10,3,1.5,0,0.0,-1,0.0,,0.0,0
58966,1469892486752,,,,,,,0.08,0.1,0.98,-2.1,-0.2,-0.2,1060,52,,,,,,,,,,,,,,,,,
58986,1469892486772,,,,,,,0.08,0.1,0.99,-2.1,-0.1,-0.2,1060,55,,,,,,,,,,,,,,,,,
59006,1469892486792,,,,,,,0.08,0.1,0.99,-2.1,-0.0,-0.3,1080,55,,,,,,,,,,,,,,,,,
59026,1469892486812,,,,,,,0.08,0.1,0.99,-2.0,-0.0,-0.3,1060,61,,,,,,,,,,,,,,,,,
59046,1469892486832,0,124.6,154.2,53,150.1,14.45,0.07,0.1,0.99,-2.0,-0.1,-0.3,1060,61,17.377,0,39.540585,-122.331955,0.0,0.01,317.0,10,3,1.5,0,0.0,-1,0.0,0.0,0.0,0
59066,1469892486852,,,,,,,0.08,0.1,0.99,-2.0,-0.2,-0.2,1060,60,,,,,,,,,,,,,,,,,
59086,1469892486872,,,,,,,0.08,0.11,0.99,-2.0,-0.2,-0.2,1040,63,,,,,,,,,,,,,,,,,
59106,1469892486892,,,,,,,0.09,0.11,0.99,-2.0,-0.1,-0.2,1040,66,,,,,,,,,,,,,,,,,
59126,1469892486906,,,,,,,0.09,0.11,0.99,-2.0,0.1,-0.2,1060,66,,,,,,,,,,,,,,,,,
59146,1469892486926,,,,51,,,0.09,0.11,1.0,-2.0,0.1,-0.2,1040,67,15.821,0,39.540585,-122.331947,1.01,0.01,313.7,10,3,1.5,0,0.0,-1,0.0,,0.0,0
59166,1469892486946,,,,,,,0.08,0.1,1.0,-1.9,0.2,-0.2,1020,67,,,,,,,,,,,,,,,,,
59186,1469892486966,,,,,,,0.07,0.1,0.99,-1.9,0.1,-0.1,1040,69,,,,,,,,,,,,,,,,,
59206,1469892487091,,,,,,,0.07,0.11,0.99,-1.9,0.0,-0.1,1020,70,,,,,,,,,,,,,,,,,
59226,1469892487111,,,,,,,0.06,0.11,0.99,-1.9,-0.1,-0.1,1040,73,,,,,,,,,,,,,,,,,
59246,1469892487131,0,125.3,154.7,56,150.8,,0.06,0.11,0.99,-1.9,-0.2,-0.1,1040,75,13.867,0,39.540585,-122.331947,1.21,0.01,313.8,10,3,1.5,0,0.0,-1,0.0,0.0,0.0,0
59266,1469892487151,,,,,,,0.07,0.11,0.99,-2.0,-0.2,-0.1,1020,75,,,,,,,,,,,,,,,,,
59286,1469892487171,,,,,,,0.07,0.1,0.99,-2.0,-0.3,-0.1,1000,73,,,,,,,,,,,,,,,,,
59306,1469892487191,,,,,,,0.07,0.1,0.99,-2.0,-0.2,-0.1,1000,78,,,,,,,,,,,,,,,,,
59326,1469892487211,,,,,,,0.08,0.1,0.99,-2.0,-0.3,-0.2,1020,80,,,,,,,,,,,,,,,,,
59346,1469892487231,,,,51,,,0.08,0.09,0.99,-2.0,-0.3,-0.2,1020,81,12.593,0,39.540585,-122.331947,1.21,0.01,313.8,10,3,1.5,0,0.0,-1,0.0,,0.0,0
59366,1469892487251,,,,,,,0.08,0.1,0.98,-2.0,-0.3,-0.3,1020,81,,,,,,,,,,,,,,,,,
59386,1469892487271,,,,,,,0.07,0.1,0.98,-2.1,-0.2,-0.3,1000,81,,,,,,,,,,,,,,,,,
59406,1469892487193,,,,,,,0.07,0.1,0.98,-2.1,-0.1,-0.3,1000,84,,,,,,,,,,,,,,,,,
59426,1469892487213,,,,,,,0.07,0.1,0.98,-2.1,-0.0,-0.4,1000,84,,,,,,,,,,,,,,,,,
59446,1469892487233,0,126.5,155.6,55,151.4,,0.07,0.1,0.98,-2.1,0.0,-0.4,1000,84,11.905,0,39.540585,-122.331947,1.17,0.01,313.8,10,3,1.5,0,0.0,-1,0.0,0.0,0.0,0
59466,1469892487253,,,,,,,0.06,0.1,0.98,-2.2,0.1,-0.4,1020,86,,,,,,,,,,,,,,,,,
59486,1469892487273,,,,,,,0.06,0.1,0.98,-2.2,0.2,-0.5,1020,87,,,,,,,,,,,,,,,,,
59506,1469892487293,,,,,,,0.05,0.1,0.99,-2.3,0.3,-0.5,1020,86,,,,,,,,,,,,,,,,,
59526,1469892487313,,,,,,,0.05,0.1,0.99,-2.4,0.3,-0.5,1000,89,,,,,,,,,,,,,,,,,
59546,1469892487333,,,,55,,,0.05,0.1,1.0,-2.5,0.3,-0.6,1020,93,11.461,0,39.540585,-122.331947,1.01,0.01,313.9,10,3,1.5,0,0.0,-1,0.0,,0.0,0
59566,1469892487353,,,,,,,0.04,0.1,1.0,-2.6,0.2,-0.6,1020,93,,,,,,,,,,,,,,,,,
59586,1469892487373,,,,,,,0.04,0.09,1.0,-2.6,0.2,-0.7,1040,93,,,,,,,,,,,,,,,,,
59606,1469892487393,,,,,,,0.04,0.09,1.0,-2.7,0.1,-0.7,1040,93,,,,,,,,,,,,,,,,,
59626,1469892487409,,,,,,,0.04,0.1,0.99,-2.7,-0.1,-0.7,1040,92,,,,,,,,,,,,,,,,,
59646,1469892487429,0,125.9,155.1,60,151.1,,0.04,0.1,0.99,-2.8,-0.2,-0.6,1020,96,11.087,0,39.540585,-122.331947,1.31,0.01,313.9,10,3,1.5,0,0.0,-1,0.0,0.0,0.0,0
59666,1469892487449,,,,,,,0.05,0.1,0.98,-2.9,-0.2,-0.6,1040,96,,,,,,,,,,,,,,,,,
59686,1469892487469,,,,,,,0.05,0.11,0.99,-3.0,-0.1,-0.6,1040,95,,,,,,,,,,,,,,,,,
59706,1469892487492,,,,,,,0.06,0.11,0.99,-3.1,0.0,-0.6,1060,95,,,,,,,,,,,,,,,,,
59726,1469892487512,,,,,,,0.06,0.11,0.99,-3.2,0.1,-0.6,1060,96,,,,,,,,,,,,,,,,,
59746,1469892487532,,,,54,,,0.05,0.11,0.99,-3.3,0.3,-0.5,1040,98,10.816,0,39.540585,-122.331947,1.41,0.01,313.9,10,3,1.5,0,0.0,-1,0.0,,0.0,0
59766,1469892487552,,,,,,,0.04,0.1,0.98,-3.4,0.3,-0.4,1060,98,,,,,,,,,,,,,,,,,
59786,1469892487572,,,,,,,0.04,0.1,0.98,-3.5,0.2,-0.4,1060,96,,,,,,,,,,,,,,,,,
59806,1469892487593,,,,,,,0.04,0.11,0.98,-3.5,0.0,-0.4,1080,100,,,,,,,,,,,,,,,,,
59826,1469892487613,,,,,,,0.04,0.1,0.99,-3.6,-0.1,-0.3,1080,104,,,,,,,,,,,,,,,,,
59846,1469892487633,0,126.0,155.2,50,151.0,,0.04,0.11,0.99,-3.7,-0.1,-0.4,1080,101,10.385,0,39.540581,-122.331947,1.41,0.01,314.0,10,3,1.5,0,0.0,-1,0.0,0.0,0.0,0
59866,1469892487653,,,,,,,0.05,0.11,0.98,-3.8,0.0,-0.4,1060,100,,,,,,,,,,,,,,,,,
59886,1469892487673,,,,,,,0.05,0.11,0.99,-3.9,0.2,-0.5,1060,100,,,,,,,,,,,,,,,,,
59906,1469892487693,,,,,,,0.04,0.11,0.99,-4.0,0.1,-0.5,1080,103,,,,,,,,,,,,,,,,,
59926,1469892487713,,,,,,,0.04,0.11,0.99,-4.1,0.1,-0.5,1080,104,,,,,,,,,,,,,,,,,
59946,1469892487733,,,,51,,,0.04,0.11,0.98,-4.2,0.0,-0.5,1080,103,10.385,0,39.540581,-122.331947,1.41,0.01,314.0,10,3,1.5,0,0.0,-1,0.0,,0.0,0
59966,1469892487753,,,,,,,0.05,0.12,0.98,-4.3,0.2,-0.5,1080,101,,,,,,,,,,,,,,,,,
59986,1469892487773,,,,,,,0.05,0.11,0.99,-4.4,0.3,-0.4,1080,103,,,,,,,,,,,,,,,,,
60006,1469892487892,,,,,,,0.04,0.1,0.99,-4.4,0.3,-0.4,1100,103,,,,,,,,,,,,,,,,,
60026,1469892487912,,,,,,,0.03,0.1,0.99,-4.5,0.2,-0.4,1100,104,,,,,,,,,,,,,,,,,
60046,1469892487932,0,124.8,153.9,57,150.0,14.48,0.04,0.1,0.99,-4.6,0.0,-0.4,1100,106,10.377,0,39.540581,-122.331947,1.51,0.01,314.0,10,3,1.5,0,0.0,-1,0.0,0.0,0.0,0
60066,1469892487952,,,,,,,0.04,0.1,0.99,-4.7,0.0,-0.4,1100,106,,,,,,,,,,,,,,,,,
60086,1469892487972,,,,,,,0.04,0.11,1.0,-4.8,0.1,-0.4,1100,107,,,,,,,,,,,,,,,,,
60106,1469892487992,,,,,,,0.04,0.11,1.0,-4.9,0.1,-0.3,1100,107,,,,,,,,,,,,,,,,,
60126,1469892488012,,,,,,,0.04,0.11,1.0,-5.0,0.0,-0.3,1120,106,,,,,,,,,,,,,,,,,
60146,1469892488032,,,,51,,,0.04,0.11,1.0,-5.1,0.2,-0.2,1120,107,10.467,0,39.540581,-122.331947,1.51,0.01,314.0,10,3,1.5,0,0.0,-1,0.0,,0.0,0
60166,1469892488052,,,,,,,0.04,0.11,0.99,-5.1,0.3,-0.2,1120,107,,,,,,,,,,,,,,,,,
60186,1469892488072,,,,,,,0.03,0.11,0.99,-5.2,0.3,-0.3,1120,104,,,,,,,,,,,,,,,,,
60206,1469892487992,,,,,,,0.02,0.11,1.0,-5.3,0.0,-0.3,1120,103,,,,,,,,,,,,,,,,,
60226,1469892488012,,,,,,,0.03,0.11,0.99,-5.4,-0.0,-0.3,1140,103,,,,,,,,,,,,,,,,,
60246,1469892488032,0,125.2,154.6,53,150.9,,0.04,0.12,1.0,-5.5,0.2,-0.3,1140,107,10.654,0,39.540581,-122.331947,1.43,0.01,314.1,10,3,1.5,0,0.0,-1,0.0,0.0,0.0,0
60266,1469892488052,,,,,,,0.03,0.12,0.99,-5.6,0.1,-0.3,1160,109,,,,,,,,,,,,,,,,,
60286,1469892488072,,,,,,,0.03,0.12,0.99,-5.7,0.1,-0.3,1140,107,,,,,,,,,,,,,,,,,
60306,1469892488092,,,,,,,0.03,0.11,0.99,-5.8,0.3,-0.3,1160,104,,,,,,,,,,,,,,,,,
60326,1469892488112,,,,,,,0.02,0.1,0.99,-5.8,0.2,-0.3,1160,104,,,,,,,,,,,,,,,,,
60346,1469892488132,,,,48,,,0.02,0.11,0.99,-5.9,-0.0,-0.3,1180,107,11.028,0,39.540577,-122.331947,1.53,0.011,314.2,10,3,1.5,0,0.0,-1,0.0,,0.0,0
60366,1469892488152,,,,,,,0.03,0.11,0.99,-5.9,0.2,-0.3,1180,110,,,,,,,,,,,,,,,,,
60386,1469892488172,,,,,,,0.02,0.11,0.99,-6.0,0.1,-0.3,1180,110,,,,,,,,,,,,,,,,,
60406,1469892488192,,,,,,,0.03,0.11,0.98,-6.1,0.1,-0.2,1180,107,,,,,,,,,,,,,,,,,
60426,1469892488212,,,,,,,0.02,0.1,0.99,-6.1,0.4,-0.2,1180,106,,,,,,,,,,,,,,,,,
60446,1469892488232,0,124.7,153.9,53,150.3,,0.02,0.1,0.99,-6.1,0.1,-0.3,1200,106,11.321,0,39.540577,-122.331947,1.71,0.011,314.2,10,3,1.5,0,0.0,-1,0.0,0.0,0.0,0
60466,1469892488252,,,,,,,0.03,0.11,0.99,-6.2,0.2,-0.3,1200,110,,,,,,,,,,,,,,,,,
60486,1469892488272,,,,,,,0.02,0.11,0.99,-6.3,0.2,-0.3,1200,110,,,,,,,,,,,,,,,,,
60506,1469892488292,,,,,,,0.03,0.11,0.98,-6.4,0.1,-0.3,1200,106,,,,,,,,,,,,,,,,,
60526,1469892488312,,,,,,,0.02,0.1,0.99,-6.4,0.3,-0.2,1200,104,,,,,,,,,,,,,,,,,
60546,1469892488332,,,,52,,,0.02,0.1,0.98,-6.4,-0.0,-0.2,1220,109,11.509,0,39.540577,-122.331947,1.93,0.011,314.3,10,3,1.5,0,0.0,-1,0.0,,0.0,0
60566,1469892488352,,,,,,,0.02,0.1,0.99,-6.5,0.1,-0.3,1220,110,,,,,,,,,,,,,,,,,
60586,1469892488372,,,,,,,0.02,0.11,0.98,-6.6,-0.1,-0.3,1200,109,,,,,,,,,,,,,,,,,
60606,1469892488393,,,,,,,0.03,0.11,0.98,-6.6,0.1,-0.2,1200,106,,,,,,,,,,,,,,,,,
60626,1469892488413,,,,,,,0.02,0.1,0.98,-6.7,0.0,-0.2,1220,106,,,,,,,,,,,,,,,,,
60646,1469892488433,0,125.8,154.9,64,150.6,,0.02,0.11,0.98,-6.7,-0.0,-0.2,1200,109,11.215,0,39.540577,-122.331947,1.82,0.011,314.3,10,3,1.5,0,0.0,-1,0.0,0.0,0.0,0
60666,1469892488453,,,,,,,0.02,0.1,0.98,-6.8,0.1,-0.2,1220,110,,,,,,,,,,,,,,,,,
60686,1469892488473,,,,,,,0.02,0.11,0.98,-6.9,0.0,-0.2,1180,109,,,,,,,,,,,,,,,,,
60706,1469892488493,,,,,,,0.02,0.1,0.98,-7.0,0.2,-0.1,1220,109,,,,,,,,,,,,,,,,,
60726,1469892488513,,,,,,,0.02,0.1,0.98,-7.0,-0.1,-0.1,1220,107,,,,,,,,,,,,,,,,,
60746,1469892488533,,,,48,,,0.02,0.1,0.99,-7.1,0.0,-0.1,1220,107,11.509,0,39.540577,-122.331947,2.06,0.011,314.4,10,3,1.5,0,0.0,-1,0.0,,0.0,0
60766,1469892488553,,,,,,,0.02,0.1,0.99,-7.1,-0.0,-0.1,1220,109,,,,,,,,,,,,,,,,,
60786,1469892488573,,,,,,,0.02,0.1,0.98,-7.2,0.1,-0.1,1200,109,,,,,,,,,,,,,,,,,
60806,1469892488692,,,,,,,0.02,0.09,0.99,-7.2,0.1,-0.1,1220,107,,,,,,,,,,,,,,,,,
60826,1469892488712,,,,,,,0.03,0.1,0.99,-7.2,0.0,-0.1,1200,104,,,,,,,,,,,,,,,,,
60846,1469892488732,0,124.9,154.4,53,150.6,,0.02,0.09,0.99,-7.3,0.1,-0.0,1220,109,11.509,0,39.540573,-122.331947,1.86,0.011,314.5,10,3,1.5,0,0.0,-1,0.0,0.0,0.0,0
60866,1469892488752,,,,,,,0.03,0.1,0.99,-7.4,-0.0,0.0,1220,110,,,,,,,,,,,,,,,,,
60886,1469892488772,,,,,,,0.02,0.09,1.0,-7.4,0.1,-0.0,1200,107,,,,,,,,,,,,,,,,,
60906,1469892488792,,,,,,,0.02,0.09,0.99,-7.4,-0.0,-0.0,1200,107,,,,,,,,,,,,,,,,,
60926,1469892488812,,,,,,,0.03,0.09,1.0,-7.5,0.2,-0.1,1200,106,,,,,,,,,,,,,,,,,
60946,1469892488832,,,,57,,,0.02,0.1,0.99,-7.5,0.0,0.0,1220,107,11.402,0,39.540573,-122.331947,1.86,0.011,314.5,10,3,1.5,0,0.0,-1,0.0,,0.0,0
60966,1469892488852,,,,,,,0.03,0.1,0.99,-7.5,0.1,0.0,1220,107,,,,,,,,,,,,,,,,,
60986,1469892488872,,,,,,,0.02,0.09,0.99,-7.5,0.0,0.0,1220,110,,,,,,,,,,,,,,,,,
61006,1469892488793,,,,,,,0.02,0.09,0.99,-7.5,-0.0,-0.0,1220,109,,,,,,,,,,,,,,,,,
61026,1469892488813,,,,,,,0.02,0.1,0.98,-7.6,0.0,-0.0,1220,107,,,,,,,,,,,,,,,,,
61046,1469892488833,0,125.3,155.1,60,151.4,14.52,0.02,0.1,0.98,-7.6,-0.0,-0.0,1220,106,11.509,0,39.540573,-122.331947,1.9,0.011,314.5,10,3,1.5,0,0.0,-1,0.0,0.0,0.0,0
61066,1469892488853,,,,,,,0.02,0.09,0.99,-7.6,0.0,-0.1,1220,107,,,,,,,,,,,,,,,,,
61086,1469892488873,,,,,,,0.02,0.09,0.99,-7.5,-0.1,-0.1,1220,107,,,,,,,,,,,,,,,,,
61106,1469892488893,,,,,,,0.02,0.09,1.0,-7.6,0.0,-0.1,1220,107,,,,,,,,,,,,,,,,,
61126,1469892488906,,,,,,,0.02,0.09,1.0,-7.6,-0.1,-0.0,1220,106,,,,,,,,,,,,,,,,,
61146,1469892488926,,,,55,,,0.02,0.09,1.0,-7.7,0.1,0.0,1240,107,11.589,0,39.540573,-122.331947,1.97,0.011,314.6,10,3,1.5,0,0.0,-1,0.0,,0.0,0
61166,1469892488946,,,,,,,0.02,0.09,1.0,-7.7,-0.1,0.0,1220,107,,,,,,,,,,,,,,,,,
61186,1469892488966,,,,,,,0.02,0.09,1.0,-7.8,0.1,0.0,1220,106,,,,,,,,,,,,,,,,,
61206,1469892488993,,,,,,,0.02,0.1,0.99,-7.8,-0.0,0.1,1220,106,,,,,,,,,,,,,,,,,
61226,1469892489013,,,,,,,0.02,0.1,0.99,-7.9,0.1,0.1,1240,106,,,,,,,,,,,,,,,,,
61246,1469892489033,0,126.2,154.9,57,150.8,,0.02,0.1,0.99,-7.9,-0.1,0.0,1240,106,11.698,0,39.540569,-122.331947,1.92,0.011,314.6,10,3,1.5,0,0.0,-1,0.0,0.0,0.0,0
61266,1469892489053,,,,,,,0.03,0.11,0.99,-7.9,-0.0,0.0,1220,104,,,,,,,,,,,,,,,,,
61286,1469892489073,,,,,,,0.02,0.1,0.99,-8.0,0.0,0.0,1220,103,,,,,,,,,,,,,,,,,
61306,1469892489093,,,,,,,0.02,0.1,0.98,-8.0,0.1,0.1,1220,100,,,,,,,,,,,,,,,,,
61326,1469892489113,,,,,,,0.02,0.08,0.99,-8.0,0.2,0.0,1240,98,,,,,,,,,,,,,,,,,
61346,1469892489133,,,,58,,,0.01,0.09,0.99,-8.0,0.3,-0.0,1220,95,12.842,0,39.540569,-122.331955,1.75,0.012,314.7,10,3,1.5,0,0.0,-1,0.0,,0.0,0
61366,1469892489153,,,,,,,0.01,0.08,1.0,-8.1,0.2,-0.0,1200,92,,,,,,,,,,,,,,,,,
61386,1469892489173,,,,,,,0.01,0.09,1.0,-8.1,0.2,-0.0,1200,86,,,,,,,,,,,,,,,,,
61406,1469892489193,,,,,,,0.01,0.09,1.01,-8.2,0.4,-0.0,1200,80,,,,,,,,,,,,,,,,,
61426,1469892489213,,,,,,,0.0,0.09,1.01,-8.3,0.4,-0.1,1200,76,,,,,,,,,,,,,,,,,
61446,1469892489233,0,125.0,154.3,49,150.7,,0.01,0.09,1.01,-8.4,0.5,-0.1,1200,78,15.385,0,39.540569,-122.331955,1.76,0.012,314.7,10,3,1.5,0,0.0,-1,0.0,0.0,0.0,0
61466,1469892489253,,,,,,,0.0,0.1,1.0,-8.4,0.4,-0.1,1160,69,,,,,,,,,,,,,,,,,
61486,1469892489273,,,,,,,-0.0,0.1,1.0,-8.4,0.4,-0.1,1140,67,,,,,,,,,,,,,,,,,
61506,1469892489293,,,,,,,-0.0,0.1,1.0,-8.5,0.5,-0.2,1120,66,,,,,,,,,,,,,,,,,
61526,1469892489313,,,,,,,-0.01,0.1,1.0,-8.5,0.5,-0.2,1120,67,,,,,,,,,,,,,,,,,
61546,1469892489333,,,,58,,,-0.01,0.1,1.0,-8.5,0.4,-0.2,1120,73,15.342,0,39.540569,-122.331955,1.86,0.012,314.8,10,3,1.5,0,0.0,-1,0.0,,0.0,0
61566,1469892489353,,,,,,,-0.01,0.1,1.0,-8.6,0.4,-0.2,1100,107,,,,,,,,,,,,,,,,,
61586,1469892489373,,,,,,,-0.01,0.1,1.0,-8.6,0.4,-0.3,1060,116,,,,,,,,,,,,,,,,,
61606,1469892489492,,,,,,,-0.01,0.09,0.99,-8.7,0.4,-0.4,1060,113,,,,,,,,,,,,,,,,,
61626,1469892489512,,,,,,,-0.01,0.09,0.99,-8.7,0.3,-0.4,1040,104,,,,,,,,,,,,,,,,,
61646,1469892489532,0,126.5,154.3,56,150.4,,-0.01,0.1,0.99,-8.8,0.2,-0.4,1040,104,10.0,0,39.540566,-122.331955,1.77,0.012,314.9,10,3,1.5,0,0.0,-1,0.0,0.0,0.0,0
61666,1469892489552,,,,,,,-0.01,0.1,0.99,-8.9,0.1,-0.3,1020,101,,,,,,,,,,,,,,,,,
61686,1469892489572,,,,,,,-0.0,0.1,0.99,-8.9,0.1,-0.3,1000,93,,,,,,,,,,,,,,,,,
61706,1469892489592,,,,,,,-0.0,0.09,0.99,-8.9,0.1,-0.3,980,90,,,,,,,,,,,,,,,,,
61726,1469892489612,,,,,,,-0.0,0.09,0.99,-8.9,0.1,-0.3,960,87,,,,,,,,,,,,,,,,,
61746,1469892489632,,,,45,,,-0.0,0.09,0.99,-8.9,0.1,-0.4,940,86,10.93,0,39.540566,-122.331955,1.77,0.012,314.9,10,3,1.5,0,0.0,-1,0.0,,0.0,0
61766,1469892489652,,,,,,,-0.0,0.1,0.99,-9.0,0.1,-0.4,940,80,,,,,,,,,,,,,,,,,
61786,1469892489672,,,,,,,-0.0,0.1,0.99,-9.0,0.0,-0.4,920,78,,,,,,,,,,,,,,,,,
61806,1469892489593,,,,,,,-0.0,0.09,0.99,-9.0,0.1,-0.4,900,76,,,,,,,,,,,,,,,,,
61826,1469892489613,,,,,,,-0.01,0.09,0.99,-8.9,0.0,-0.5,880,80,,,,,,,,,,,,,,,,,
61846,1469892489633,0,125.5,155.1,48,151.6,,-0.01,0.09,0.99,-8.9,-0.0,-0.5,880,83,10.602,0,39.540566,-122.331955,1.82,0.012,315.0,10,3,1.5,0,0.0,-1,0.0,0.0,0.0,0
61866,1469892489653,,,,,,,-0.01,0.08,0.99,-8.9,0.1,-0.5,860,90,,,,,,,,,,,,,,,,,
61886,1469892489673,,,,,,,-0.01,0.08,0.98,-8.9,0.0,-0.4,860,89,,,,,,,,,,,,,,,,,
61906,1469892489693,,,,,,,-0.01,0.08,0.98,-8.9,-0.1,-0.4,860,87,,,,,,,,,,,,,,,,,
61926,1469892489713,,,,,,,-0.01,0.08,0.98,-8.9,-0.0,-0.3,860,84,,,,,,,,,,,,,,,,,
61946,1469892489733,,,,39,,,-0.01,0.09,0.99,-8.9,0.0,-0.3,840,81,10.37,0,39.540566,-122.331955,1.36,0.012,315.2,10,3,1.5,0,0.0,-1,0.0,,0.0,0
61966,1469892489753,,,,,,,-0.01,0.09,0.99,-8.8,-0.0,-0.3,820,80,,,,,,,,,,,,,,,,,
61986,1469892489773,,,,,,,-0.01,0.08,0.99,-8.7,-0.0,-0.3,820,78,,,,,,,,,,,,,,,,,
62006,1469892489793,,,,,,,-0.01,0.08,0.99,-8.7,0.1,-0.3,800,78,,,,,,,,,,,,,,,,,
62026,1469892489813,,,,,,,-0.01,0.08,0.98,-8.7,0.0,-0.3,800,78,,,,,,,,,,,,,,,,,
62046,1469892489833,0,126.2,154.7,42,150.8,14.49,-0.01,0.08,0.99,-8.6,0.0,-0.2,820,78,10.513,0,39.540566,-122.331955,1.71,0.012,315.3,10,3,1.5,0,0.0,-1,0.0,0.0,0.0,0
62066,1469892489853,,,,,,,-0.01,0.09,0.99,-8.6,0.0,-0.2,800,78,,,,,,,,,,,,,,,,,
62086,1469892489873,,,,,,,-0.01,0.09,0.99,-8.6,-0.0,-0.3,800,78,,,,,,,,,,,,,,,,,
62106,1469892489893,,,,,,,-0.01,0.08,0.99,-8.5,-0.0,-0.3,780,76,,,,,,,,,,,,,,,,,
62126,1469892489906,,,,,,,-0.01,0.08,0.98,-8.5,0.1,-0.2,780,76,,,,,,,,,,,,,,,,,
62146,1469892489926,,,,41,,,-0.01,0.08,0.98,-8.4,0.1,-0.1,780,75,10.4,0,39.540566,-122.331955,1.42,0.012,315.4,10,3,1.5,0,0.0,-1,0.0,,0.0,0
62166,1469892489946,,,,,,,-0.01,0.08,0.99,-8.3,0.0,-0.2,780,73,,,,,,,,,,,,,,,,,
62186,1469892489966,,,,,,,-0.01,0.08,0.99,-8.3,0.1,-0.2,780,86,,,,,,,,,,,,,,,,,
62206,1469892489986,,,,,,,-0.01,0.07,0.98,-8.2,0.1,-0.3,780,76,,,,,,,,,,,,,,,,,
62226,1469892490010,,,,,,,-0.01,0.08,0.98,-8.2,0.2,-0.2,780,76,,,,,,,,,,,,,,,,,
62246,1469892490030,0,125.1,154.8,39,151.5,,-0.01,0.09,0.98,-8.2,0.2,-0.2,760,56,13.571,0,39.540566,-122.331955,1.42,0.012,315.5,10,3,1.5,0,0.0,-1,0.0,0.0,0.0,0
62266,1469892490050,,,,,,,-0.01,0.09,0.99,-8.1,0.2,-0.2,740,95,,,,,,,,,,,,,,,,,
62286,1469892490070,,,,,,,-0.01,0.08,1.0,-8.0,0.2,-0.3,760,96,,,,,,,,,,,,,,,,,
62306,1469892490093,,,,,,,-0.01,0.08,1.0,-7.9,0.2,-0.2,760,81,,,,,,,,,,,,,,,,,
62326,1469892490113,,,,,,,-0.01,0.08,1.0,-7.8,0.2,-0.1,740,64,,,,,,,,,,,,,,,,,
62346,1469892490133,,,,38,,,-0.01,0.08,1.0,-7.7,0.1,-0.1,760,72,11.875,0,39.540566,-122.331955,1.29,0.012,315.6,10,3,1.5,0,0.0,-1,0.0,,0.0,0
62366,1469892490153,,,,,,,-0.01,0.08,1.0,-7.6,0.1,-0.2,760,72,,,,,,,,,,,,,,,,,
62386,1469892490173,,,,,,,-0.01,0.07,0.99,-7.5,-0.0,-0.1,760,64,,,,,,,,,,,,,,,,,
62406,1469892490293,,,,,,,-0.01,0.07,1.0,-7.4,0.1,0.0,740,64,,,,,,,,,,,,,,,,,
62426,1469892490313,,,,,,,-0.01,0.08,1.0,-7.3,0.0,0.0,740,41,,,,,,,,,,,,,,,,,
62446,1469892490333,0,126.1,155.3,37,151.5,,-0.02,0.07,1.0,-7.2,0.0,-0.1,740,46,16.087,0,39.540566,-122.331955,1.0,0.012,315.8,10,3,1.5,0,0.0,-1,0.0,0.0,0.0,0
62466,1469892490353,,,,,,,-0.01,0.08,1.0,-7.2,0.1,-0.1,740,64,,,,,,,,,,,,,,,,,
62486,1469892490373,,,,,,,-0.02,0.07,1.0,-7.1,0.1,0.0,740,69,,,,,,,,,,,,,,,,,
62506,1469892490393,,,,,,,-0.02,0.07,1.0,-7.0,0.0,0.0,760,66,,,,,,,,,,,,,,,,,
62526,1469892490413,,,,,,,-0.02,0.08,1.0,-7.0,-0.1,-0.1,760,66,,,,,,,,,,,,,,,,,
62546,1469892490433,,,,35,,,-0.02,0.08,1.0,-6.9,0.0,-0.1,760,60,12.667,0,39.540566,-122.331955,1.0,0.012,315.8,10,3,1.5,0,0.0,-1,0.0,,0.0,0
62566,1469892490453,,,,,,,-0.02,0.07,1.0,-6.9,0.1,0.0,740,55,,,,,,,,,,,,,,,,,
62586,1469892490473,,,,,,,-0.01,0.08,1.0,-6.8,-0.0,0.0,740,55,,,,,,,,,,,,,,,,,
62606,1469892490393,,,,,,,-0.01,0.08,0.99,-6.7,-0.1,-0.1,740,55,,,,,,,,,,,,,,,,,
62626,1469892490413,,,,,,,-0.01,0.08,0.99,-6.6,-0.1,-0.1,740,47,,,,,,,,,,,,,,,,,
62646,1469892490433,0,126.5,154.7,38,150.8,,-0.01,0.07,0.98,-6.5,0.0,0.0,740,32,23.125,0,39.540566,-122.331955,0.99,0.012,315.9,10,3,1.5,0,0.0,-1,0.0,0.0,0.0,0
62666,1469892490453,,,,,,,-0.01,0.07,0.99,-6.4,0.0,0.0,760,61,,,,,,,,,,,,,,,,,
62686,1469892490473,,,,,,,-0.01,0.07,0.99,-6.3,-0.1,-0.1,760,63,,,,,,,,,,,,,,,,,
62706,1469892490494,,,,,,,-0.01,0.07,0.99,-6.2,-0.0,-0.1,760,63,,,,,,,,,,,,,,,,,
62726,1469892490514,,,,,,,-0.02,0.07,0.99,-6.2,-0.1,-0.0,760,56,,,,,,,,,,,,,,,,,
62746,1469892490534,,,,36,,,-0.01,0.08,0.99,-6.1,0.0,0.0,740,56,13.214,0,39.540566,-122.331955,0.99,0.012,316.0,10,3,1.5,0,0.0,-1,0.0,,0.0,0
62766,1469892490554,,,,,,,-0.01,0.07,0.99,-6.0,0.0,-0.1,760,47,,,,,,,,,,,,,,,,,
62786,1469892490574,,,,,,,-0.02,0.06,0.99,-6.0,0.1,-0.2,760,47,,,,,,,,,,,,,,,,,
62806,1469892490594,,,,,,,-0.01,0.07,0.99,-5.9,0.0,-0.1,760,40,,,,,,,,,,,,,,,,,
62826,1469892490614,,,,,,,-0.01,0.08,0.99,-5.9,0.1,-0.0,760,41,,,,,,,,,,,,,,,,,
62846,1469892490634,0,126.0,155.1,38,151.8,,-0.01,0.08,0.99,-5.8,0.1,-0.1,760,41,18.537,0,39.540562,-122.331955,0.0,0.012,316.1,10,3,1.5,0,0.0,-1,0.0,0.0,0.0,0
62866,1469892490654,,,,,,,-0.01,0.07,1.0,-5.7,0.1,-0.2,740,46,,,,,,,,,,,,,,,,,
62886,1469892490674,,,,,,,-0.01,0.09,1.01,-5.6,0.0,-0.1,740,46,,,,,,,,,,,,,,,,,
62906,1469892490694,,,,,,,-0.0,0.1,1.0,-5.6,0.1,0.0,740,46,,,,,,,,,,,,,,,,,
62926,1469892490714,,,,,,,-0.0,0.1,1.01,-5.5,0.0,-0.1,740,44,,,,,,,,,,,,,,,,,
62946,1469892490734,,,,36,,,-0.01,0.09,1.0,-5.4,0.0,-0.1,740,44,16.818,0,39.540562,-122.331955,0.0,0.012,316.2,10,3,1.5,0,0.0,-1,0.0,,0.0,0
62966,1469892490754,,,,,,,-0.0,0.09,1.0,-5.4,0.1,-0.1,740,43,,,,,,,,,,,,,,,,,
62986,1469892490774,,,,,,,-0.0,0.09,1.0,-5.3,0.1,-0.0,760,43,,,,,,,,,,,,,,,,,
63006,1469892490794,,,,,,,-0.0,0.1,1.0,-5.2,0.0,-0.0,740,40,,,,,,,,,,,,,,,,,
63026,1469892490814,,,,,,,-0.0,0.09,1.0,-5.1,-0.1,-0.2,740,40,,,,,,,,,,,,,,,,,
63046,1469892490834,0,125.6,154.5,36,151.8,14.48,-0.0,0.1,1.0,-5.1,0.1,-0.1,740,38,19.474,0,39.540562,-122.331955,0.0,0.012,316.3,10,3,1.5,0,0.0,-1,0.0,0.0,0.0,0
63066,1469892490854,,,,,,,0.0,0.09,1.0,-5.1,0.1,-0.0,740,38,,,,,,,,,,,,,,,,,
63086,1469892490874,,,,,,,0.0,0.09,1.0,-5.0,0.0,0.0,740,35,,,,,,,,,,,,,,,,,
63106,1469892490894,,,,,,,-0.0,0.09,1.0,-4.9,-0.1,-0.1,780,35,,,,,,,,,,,,,,,,,
63126,1469892490907,,,,,,,-0.0,0.09,0.99,-4.9,0.1,-0.2,780,33,,,,,,,,,,,,,,,,,
63146,1469892490927,,,,40,,,-0.01,0.09,0.99,-4.9,0.0,-0.0,800,33,24.242,0,39.540562,-122.331955,0.0,0.012,316.4,10,3,1.5,0,0.0,-1,0.0,,0.0,0
63166,1469892490947,,,,,,,0.0,0.09,0.99,-4.9,0.0,0.1,800,33,,,,,,,,,,,,,,,,,
63186,1469892490967,,,,,,,0.0,0.09,1.0,-4.8,0.0,-0.1,800,32,,,,,,,,,,,,,,,,,
63206,1469892491093,,,,,,,-0.01,0.08,1.0,-4.7,-0.1,-0.2,800,32,,,,,,,,,,,,,,,,,
63226,1469892491113,,,,,,,-0.01,0.08,0.99,-4.6,0.0,-0.2,820,32,,,,,,,,,,,,,,,,,
63246,1469892491133,0,126.1,154.9,42,152.0,,-0.0,0.08,0.99,-4.5,-0.0,-0.1,820,32,25.625,0,39.540562,-122.331955,0.0,0.012,316.5,10,3,1.5,0,0.0,-1,0.0,0.0,0.0,0
63266,1469892491153,,,,,,,0.0,0.08,0.99,-4.5,0.2,0.1,860,33,,,,,,,,,,,,,,,,,
63286,1469892491173,,,,,,,0.01,0.09,1.0,-4.4,0.0,0.1,880,33,,,,,,,,,,,,,,,,,
63306,1469892491193,,,,,,,0.01,0.09,1.0,-4.4,-0.0,0.1,880,33,,,,,,,,,,,,,,,,,
63326,1469892491213,,,,,,,0.01,0.09,1.01,-4.3,0.1,-0.1,880,33,,,,,,,,,,,,,,,,,
63346,1469892491233,,,,45,,,-0.0,0.09,1.0,-4.2,-0.0,-0.2,900,33,27.273,0,39.540562,-122.331955,0.0,0.012,316.5,10,3,1.5,0,0.0,-1,0.0,,0.0,0
63366,1469892491253,,,,,,,-0.0,0.08,1.0,-4.2,-0.1,-0.2,900,29,,,,,,,,,,,,,,,,,
63386,1469892491273,,,,,,,-0.0,0.07,1.0,-4.1,0.0,-0.2,920,29,,,,,,,,,,,,,,,,,
63406,1469892491193,,,,,,,0.0,0.07,1.0,-4.1,0.0,-0.2,940,29,,,,,,,,,,,,,,,,,
63426,1469892491213,,,,,,,0.0,0.07,0.99,-4.0,0.1,-0.1,940,29,,,,,,,,,,,,,,,,,
63446,1469892491233,0,125.9,154.7,47,152.1,,0.0,0.07,0.99,-4.0,0.1,0.0,940,24,39.167,0,39.540562,-122.331955,0.0,0.012,316.5,10,3,1.5,0,0.0,-1,0.0,0.0,0.0,0
63466,1469892491253,,,,,,,0.0,0.07,0.98,-4.0,0.2,0.1,940,24,,,,,,,,,,,,,,,,,
63486,1469892491273,,,,,,,0.0,0.07,0.99,-4.0,0.2,0.2,940,24,,,,,,,,,,,,,,,,,
63506,1469892491293,,,,,,,0.0,0.07,0.99,-3.9,0.3,0.3,940,24,,,,,,,,,,,,,,,,,
63526,1469892491313,,,,,,,-0.0,0.09,0.99,-3.9,0.4,0.4,940,24,,,,,,,,,,,,,,,,,
63546,1469892491333,,,,48,,,-0.0,0.09,1.0,-3.9,0.5,0.4,960,24,40.0,0,39.540562,-122.331955,0.0,0.012,316.5,10,3,1.5,0,0.0,-1,0.0,,0.0,0
63566,1469892491353,,,,,,,-0.0,0.1,1.0,-3.8,0.5,0.4,960,24,,,,,,,,,,,,,,,,,
63586,1469892491373,,,,,,,-0.0,0.1,1.0,-3.8,0.5,0.4,940,24,,,,,,,,,,,,,,,,,
63606,1469892491393,,,,,,,-0.0,0.09,1.0,-3.7,0.5,0.4,940,24,,,,,,,,,,,,,,,,,
63626,1469892491413,,,,,,,-0.01,0.1,1.0,-3.7,0.5,0.3,940,24,,,,,,,,,,,,,,,,,
63646,1469892491433,0,126.6,155.4,48,151.6,,-0.01,0.1,1.0,-3.6,0.4,0.3,940,24,39.167,0,39.540562,-122.331955,0.0,0.012,316.5,10,3,1.5,0,0.0,-1,0.0,0.0,0.0,0
63666,1469892491453,,,,,,,-0.02,0.1,1.01,-3.6,0.3,0.2,940,13,,,,,,,,,,,,,,,,,
63686,1469892491473,,,,,,,-0.03,0.1,1.01,-3.5,0.3,0.2,920,13,,,,,,,,,,,,,,,,,
63706,1469892491493,,,,,,,-0.03,0.1,1.01,-3.5,0.2,0.2,900,13,,,,,,,,,,,,,,,,,
63726,1469892491513,,,,,,,-0.04,0.09,1.0,-3.4,0.2,0.1,900,13,,,,,,,,,,,,,,,,,
63746,1469892491533,,,,47,,,-0.04,0.08,1.0,-3.4,0.2,0.1,900,13,69.231,0,39.540562,-122.331955,0.0,0.012,316.5,10,3,1.5,0,0.0,-1,0.0,,0.0,0
63766,1469892491553,,,,,,,-0.04,0.08,0.99,-3.3,0.2,0.1,900,21,,,,,,,,,,,,,,,,,
63786,1469892491573,,,,,,,-0.04,0.08,0.98,-3.3,0.3,0.1,900,21,,,,,,,,,,,,,,,,,
63806,1469892491593,,,,,,,-0.04,0.08,0.98,-3.4,0.3,0.2,900,21,,,,,,,,,,,,,,,,,
63826,1469892491613,,,,,,,-0.04,0.1,0.98,-3.4,0.5,0.3,880,21,,,,,,,,,,,,,,,,,
63846,1469892491633,0,126.9,155.5,44,151.0,,-0.03,0.11,0.98,-3.3,0.4,0.3,880,0,0.001,0,39.540562,-122.331955,0.0,0.012,316.5,10,3,1.5,0,0.0,-1,0.0,0.0,0.0,0
63866,1469892491653,,,,,,,-0.03,0.12,0.98,-3.3,0.3,0.2,860,0,,,,,,,,,,,,,,,,,
63886,1469892491673,,,,,,,-0.03,0.12,0.99,-3.3,0.2,0.1,820,0,,,,,,,,,,,,,,,,,
63906,1469892491693,,,,,,,-0.04,0.11,0.98,-3.3,0.3,0.0,780,0,,,,,,,,,,,,,,,,,
63926,1469892491713,,,,,,,-0.04,0.11,0.98,-3.3,0.2,0.0,780,0,,,,,,,,,,,,,,,,,
63946,1469892491733,,,,38,,,-0.04,0.1,0.99,-3.3,0.2,0.1,760,0,0.0,0,39.540562,-122.331955,0.0,0.012,316.5,10,3,1.5,0,0.0,-1,0.0,,0.0,0
63966,1469892491753,,,,,,,-0.03,0.11,0.98,-3.3,0.1,0.1,720,0,,,,,,,,,,,,,,,,,
63986,1469892491773,,,,,,,-0.04,0.1,0.98,-3.3,-0.0,0.1,700,0,,,,,,,,,,,,,,,,,
64006,1469892491892,,,,,,,-0.03,0.1,0.98,-3.3,0.2,0.1,700,0,,,,,,,,,,,,,,,,,
64026,1469892491912,,,,,,,-0.03,0.11,0.98,-3.3,0.2,0.2,700,0,,,,,,,,,,,,,,,,,
64046,1469892491932,0,126.7,155.0,35,150.8,14.51,-0.03,0.11,0.98,-3.3,0.1,0.1,720,0,0.0,0,39.540562,-122.331955,0.0,0.012,316.5,10,3,1.5,0,0.0,-1,0.0,0.0,0.0,0
64066,1469892491952,,,,,,,-0.04,0.1,0.99,-3.3,0.2,0.0,720,0,,,,,,,,,,,,,,,,,
64086,1469892491972,,,,,,,-0.03,0.11,0.98,-3.4,0.2,0.2,720,0,,,,,,,,,,,,,,,,,
64106,1469892491992,,,,,,,-0.02,0.12,0.98,-3.4,0.1,0.3,760,0,,,,,,,,,,,,,,,,,
64126,1469892492012,,,,,,,-0.02,0.1,0.99,-3.4,0.2,0.2,780,0,,,,,,,,,,,,,,,,,
64146,1469892492032,,,,38,,,-0.03,0.1,0.99,-3.5,0.2,0.1,780,10,0.0,0,39.540562,-122.331955,0.0,0.012,316.5,10,3,1.5,0,0.0,-1,0.0,,0.0,0
64166,1469892492052,,,,,,,-0.03,0.09,0.99,-3.5,0.1,0.2,780,10,,,,,,,,,,,,,,,,,
64186,1469892492072,,,,,,,-0.02,0.1,0.98,-3.6,0.2,0.4,800,10,,,,,,,,,,,,,,,,,
64206,1469892491993,,,,,,,-0.01,0.11,0.98,-3.6,0.1,0.5,820,10,,,,,,,,,,,,,,,,,
64226,1469892492013,,,,,,,-0.02,0.11,0.99,-3.5,0.0,0.3,860,10,,,,,,,,,,,,,,,,,
64246,1469892492033,0,126.1,154.9,47,152.2,,-0.03,0.11,0.99,-3.5,0.0,0.2,900,15,60.0,0,39.540562,-122.331955,0.0,0.012,316.5,10,3,1.5,0,0.0,-1,0.0,0.0,0.0,0
64266,1469892492053,,,,,,,-0.04,0.1,0.99,-3.5,-0.1,-0.0,940,15,,,,,,,,,,,,,,,,,
64286,1469892492073,,,,,,,-0.04,0.09,0.99,-3.5,-0.2,-0.1,960,15,,,,,,,,,,,,,,,,,
64306,1469892492093,,,,,,,-0.04,0.09,0.99,-3.5,-0.3,-0.2,980,16,,,,,,,,,,,,,,,,,
64326,1469892492113,,,,,,,-0.03,0.09,0.98,-3.5,-0.3,-0.3,1020,16,,,,,,,,,,,,,,,,,
64346,1469892492133,,,,46,,,-0.03,0.07,0.97,-3.4,-0.2,-0.3,1060,16,66.25,0,39.540562,-122.331955,0.0,0.012,316.5,10,3,1.5,0,0.0,-1,0.0,,0.0,0
64366,1469892492153,,,,,,,-0.03,0.07,0.96,-3.4,-0.3,-0.4,1100,16,,,,,,,,,,,,,,,,,
64386,1469892492173,,,,,,,-0.02,0.09,0.97,-3.5,-0.2,-0.5,1140,20,,,,,,,,,,,,,,,,,
64406,1469892492193,,,,,,,-0.02,0.1,0.98,-3.7,0.0,-0.3,1180,20,,,,,,,,,,,,,,,,,
64426,1469892492209,,,,,,,-0.02,0.1,0.98,-3.8,0.1,-0.2,1240,20,,,,,,,,,,,,,,,,,
64446,1469892492229,0,125.6,154.2,52,151.9,,-0.02,0.09,0.98,-3.8,0.2,-0.2,1280,21,60.952,0,39.540562,-122.331955,0.0,0.012,316.5,10,3,1.5,0,0.0,-1,0.0,0.0,0.0,0
64466,1469892492249,,,,,,,-0.03,0.09,0.99,-3.9,0.1,-0.2,1340,21,,,,,,,,,,,,,,,,,
64486,1469892492269,,,,,,,-0.02,0.09,0.98,-3.9,0.0,-0.0,1400,21,,,,,,,,,,,,,,,,,
64506,1469892492293,,,,,,,-0.02,0.1,0.98,-4.0,0.1,-0.1,1400,27,,,,,,,,,,,,,,,,,
64526,1469892492313,,,,,,,-0.02,0.11,0.98,-4.1,-0.0,-0.0,1440,27,,,,,,,,,,,,,,,,,
64546,1469892492333,,,,59,,,-0.01,0.11,0.98,-4.2,0.0,-0.0,1480,26,54.815,0,39.540562,-122.331955,0.0,0.012,316.5,10,3,1.5,0,0.0,-1,0.0,,0.0,0
64566,1469892492353,,,,,,,-0.02,0.11,0.97,-4.3,0.0,0.0,1480,26,,,,,,,,,,,,,,,,,
64586,1469892492373,,,,,,,-0.01,0.11,0.97,-4.4,-0.0,0.1,1480,26,,,,,,,,,,,,,,,,,
64606,1469892492393,,,,,,,-0.02,0.11,0.97,-4.5,-0.1,0.1,1480,27,,,,,,,,,,,,,,,,,
64626,1469892492413,,,,,,,-0.01,0.12,0.96,-4.6,-0.2,0.1,1500,27,,,,,,,,,,,,,,,,,
64646,1469892492433,0,127.0,155.2,56,151.2,,-0.01,0.11,0.97,-4.6,-0.1,0.1,1460,32,54.815,0,39.540562,-122.331955,0.0,0.012,316.5,10,3,1.5,0,0.0,-1,0.0,0.0,0.0,0
64666,1469892492453,,,,,,,-0.01,0.12,0.97,-4.7,-0.2,0.1,1440,32,,,,,,,,,,,,,,,,,
64686,1469892492473,,,,,,,-0.01,0.12,0.97,-4.7,-0.2,0.1,1420,32,,,,,,,,,,,,,,,,,
64706,1469892492493,,,,,,,-0.01,0.12,0.97,-4.8,-0.1,0.1,1400,30,,,,,,,,,,,,,,,,,
64726,1469892492513,,,,,,,-0.01,0.11,0.98,-4.8,-0.1,0.1,1400,30,,,,,,,,,,,,,,,,,
64746,1469892492533,,,,55,,,-0.01,0.12,0.98,-4.9,-0.1,0.1,1360,38,36.316,0,39.540562,-122.331955,0.0,0.012,316.5,10,3,1.5,0,0.0,-1,0.0,,0.0,0
64766,1469892492553,,,,,,,-0.02,0.12,0.98,-5.0,-0.1,0.1,1360,38,,,,,,,,,,,,,,,,,
64786,1469892492573,,,,,,,-0.02,0.12,0.98,-5.1,-0.1,0.1,1360,35,,,,,,,,,,,,,,,,,
64806,1469892492693,,,,,,,-0.02,0.12,0.98,-5.1,-0.1,0.1,1340,40,,,,,,,,,,,,,,,,,
64826,1469892492713,,,,,,,-0.02,0.12,0.98,-5.2,-0.0,0.1,1340,40,,,,,,,,,,,,,,,,,
64846,1469892492733,0,125.7,154.6,66,152.2,,-0.02,0.12,0.99,-5.3,-0.1,0.0,1300,41,32.5,0,39.540562,-122.331955,0.0,0.012,316.5,10,3,1.5,0,0.0,-1,0.0,0.0,0.0,0
64866,1469892492753,,,,,,,-0.02,0.12,0.98,-5.4,0.0,0.1,1300,41,,,,,,,,,,,,,,,,,
64886,1469892492773,,,,,,,-0.02,0.12,0.98,-5.4,-0.0,0.1,1300,40,,,,,,,,,,,,,,,,,
64906,1469892492793,,,,,,,-0.03,0.12,0.98,-5.5,-0.0,0.1,1280,40,,,,,,,,,,,,,,,,,
64926,1469892492813,,,,,,,-0.02,0.12,0.98,-5.7,-0.0,0.1,1260,46,,,,,,,,,,,,,,,,,
64946,1469892492833,,,,57,,,-0.02,0.12,0.99,-5.8,0.0,0.1,1240,41,27.391,0,39.540562,-122.331955,0.0,0.012,316.5,10,3,1.5,0,0.0,-1,0.0,,0.0,0
64966,1469892492853,,,,,,,-0.02,0.11,0.99,-5.8,0.2,0.1,1060,41,,,,,,,,,,,,,,,,,
64986,1469892492873,,,,,,,-0.03,0.11,0.99,-6.0,0.1,0.0,1240,47,,,,,,,,,,,,,,,,,
65006,1469892492792,,,,,,,-0.02,0.11,0.99,-6.1,0.2,0.0,1220,47,,,,,,,,,,,,,,,,,
65026,1469892492812,,,,,,,-0.02,0.12,0.99,-6.2,0.1,0.1,1160,49,,,,,,,,,,,,,,,,,
65046,1469892492832,0,126.7,154.9,53,151.0,14.53,-0.02,0.12,0.98,-6.3,0.1,0.1,1180,47,24.681,0,39.540562,-122.331955,0.0,0.012,316.5,10,3,1.5,0,0.0,-1,0.0,0.0,0.0,0
65066,1469892492852,,,,,,,-0.02,0.11,0.98,-6.4,0.4,0.1,1160,53,,,,,,,,,,,,,,,,,
65086,1469892492872,,,,,,,-0.03,0.11,0.98,-6.5,0.2,0.1,1160,53,,,,,,,,,,,,,,,,,
65106,1469892492892,,,,,,,-0.02,0.12,0.98,-6.6,0.2,-0.0,1140,53,,,,,,,,,,,,,,,,,
65126,1469892492906,,,,,,,-0.02,0.13,0.99,-6.8,0.3,-0.0,1140,50,,,,,,,,,,,,,,,,,
65146,1469892492926,,,,55,,,-0.02,0.13,0.99,-6.9,0.1,0.0,1120,50,22.4,0,39.540562,-122.331955,0.0,0.012,316.5,10,3,1.5,0,0.0,-1,0.0,,0.0,0
65166,1469892492946,,,,,,,-0.01,0.13,0.99,-7.1,0.2,0.1,1120,56,,,,,,,,,,,,,,,,,
65186,1469892492966,,,,,,,-0.01,0.13,0.99,-7.2,0.4,0.1,1120,58,,,,,,,,,,,,,,,,,
65206,1469892492986,,,,,,,-0.02,0.12,0.99,-7.3,0.3,0.1,1120,55,,,,,,,,,,,,,,,,,
65226,1469892493005,,,,,,,-0.03,0.12,0.99,-7.4,0.1,0.1,1100,55,,,,,,,,,,,,,,,,,
65246,1469892493025,0,126.1,154.5,52,151.2,,-0.03,0.11,0.98,-7.5,0.0,0.1,1100,61,18.033,0,39.540562,-122.331955,0.0,0.012,316.5,10,3,1.5,0,0.0,-1,0.0,0.0,0.0,0
65266,1469892493045,,,,,,,-0.02,0.12,0.99,-7.7,0.1,0.0,1100,66,,,,,,,,,,,,,,,,,
65286,1469892493065,,,,,,,-0.03,0.13,0.99,-7.8,0.2,0.0,1100,63,,,,,,,,,,,,,,,,,
65306,1469892493093,,,,,,,-0.03,0.13,0.99,-7.9,-0.0,0.1,1120,66,,,,,,,,,,,,,,,,,
65326,1469892493113,,,,,,,-0.03,0.14,0.99,-8.0,0.0,0.2,1100,70,,,,,,,,,,,,,,,,,
65346,1469892493133,,,,53,,,-0.02,0.14,0.99,-8.1,0.4,0.2,1080,70,15.714,0,39.540562,-122.331955,1.01,0.012,317.8,10,3,1.5,0,0.0,-1,0.0,,0.0,0
65366,1469892493153,,,,,,,-0.03,0.13,0.99,-8.3,0.5,0.2,1100,72,,,,,,,,,,,,,,,,,
65386,1469892493173,,,,,,,-0.05,0.12,0.98,-8.4,0.4,0.2,1100,69,,,,,,,,,,,,,,,,,
65406,1469892493194,,,,,,,-0.05,0.11,0.98,-8.5,0.2,0.2,1120,73,,,,,,,,,,,,,,,,,
65426,1469892493214,,,,,,,-0.04,0.12,0.98,-8.6,0.1,0.1,1120,81,,,,,,,,,,,,,,,,,
65446,1469892493234,0,126.2,154.4,56,151.3,,-0.04,0.13,0.99,-8.7,0.2,0.1,1120,76,13.827,0,39.540562,-122.331955,1.04,0.012,317.9,10,3,1.5,0,0.0,-1,0.0,0.0,0.0,0
65466,1469892493254,,,,,,,-0.04,0.13,1.0,-8.9,0.2,0.1,1120,73,,,,,,,,,,,,,,,,,
65486,1469892493274,,,,,,,-0.04,0.14,0.99,-9.1,0.1,0.2,1140,80,,,,,,,,,,,,,,,,,
65506,1469892493294,,,,,,,-0.03,0.14,0.99,-9.2,0.4,0.2,1140,86,,,,,,,,,,,,,,,,,
65526,1469892493314,,,,,,,-0.04,0.13,0.98,-9.4,0.5,0.2,1160,86,,,,,,,,,,,,,,,,,
65546,1469892493334,,,,50,,,-0.06,0.13,0.99,-9.5,0.2,0.1,1140,80,14.25,0,39.540562,-122.331955,1.15,0.012,318.0,10,3,1.5,0,0.0,-1,0.0,,0.0,0
65566,1469892493354,,,,,,,-0.05,0.13,0.98,-9.5,0.0,0.1,1160,83,,,,,,,,,,,,,,,,,
65586,1469892493374,,,,,,,-0.05,0.14,0.99,-9.7,0.3,0.0,1160,90,,,,,,,,,,,,,,,,,
65606,1469892493493,,,,,,,-0.05,0.14,0.99,-9.8,0.3,0.0,1180,90,,,,,,,,,,,,,,,,,
65626,1469892493513,,,,,,,-0.05,0.14,0.98,-9.9,0.3,0.0,1200,92,,,,,,,,,,,,,,,,,
65646,1469892493533,0,127.0,155.5,49,152.4,,-0.06,0.13,0.98,-10.0,0.4,-0.0,1200,93,12.903,0,39.540566,-122.331955,1.55,0.012,318.0,10,3,1.5,0,0.0,-1,0.0,0.0,0.0,0
65666,1469892493553,,,,,,,-0.07,0.13,0.98,-10.1,0.1,-0.1,1200,98,,,,,,,,,,,,,,,,,
65686,1469892493573,,,,,,,-0.06,0.14,0.98,-10.2,0.1,-0.0,1200,101,,,,,,,,,,,,,,,,,
65706,1469892493593,,,,,,,-0.06,0.14,0.98,-10.4,0.1,0.0,1220,101,,,,,,,,,,,,,,,,,
65726,1469892493613,,,,,,,-0.06,0.13,0.98,-10.4,0.2,-0.0,1220,101,,,,,,,,,,,,,,,,,
65746,1469892493633,,,,58,,,-0.07,0.12,0.99,-10.6,0.3,-0.1,1220,104,12.079,0,39.540566,-122.331955,1.55,0.012,318.0,10,3,1.5,0,0.0,-1,0.0,,0.0,0
65766,1469892493653,,,,,,,-0.07,0.13,0.99,-10.6,-0.1,-0.1,1220,109,,,,,,,,,,,,,,,,,
65786,1469892493673,,,,,,,-0.06,0.13,1.0,-10.8,0.1,-0.1,1240,107,,,,,,,,,,,,,,,,,
65806,1469892493594,,,,,,,-0.06,0.14,0.99,-10.9,0.0,-0.1,1240,106,,,,,,,,,,,,,,,,,
65826,1469892493614,,,,,,,-0.07,0.13,1.0,-11.0,0.2,-0.1,1260,116,,,,,,,,,,,,,,,,,
65846,1469892493634,0,125.8,154.3,52,151.2,,-0.07,0.13,0.99,-11.1,-0.2,-0.1,1240,116,10.69,0,39.540566,-122.331955,1.9,0.012,318.1,10,3,1.5,0,0.0,-1,0.0,0.0,0.0,0
65866,1469892493654,,,,,,,-0.06,0.13,0.99,-11.2,-0.0,-0.1,1260,112,,,,,,,,,,,,,,,,,
65886,1469892493674,,,,,,,-0.06,0.13,0.99,-11.2,-0.2,-0.1,1260,112,,,,,,,,,,,,,,,,,
65906,1469892493693,,,,,,,-0.06,0.12,0.99,-11.3,-0.0,-0.2,1260,124,,,,,,,,,,,,,,,,,
65926,1469892493713,,,,,,,-0.06,0.13,0.99,-11.4,-0.1,-0.2,1280,123,,,,,,,,,,,,,,,,,
65946,1469892493733,,,,51,,,-0.05,0.13,1.0,-11.5,0.0,-0.2,1260,118,10.678,0,39.540566,-122.331955,1.91,0.012,318.1,10,3,1.5,0,0.0,-1,0.0,,0.0,0
65966,1469892493753,,,,,,,-0.05,0.13,0.99,-11.6,-0.1,-0.1,1260,124,,,,,,,,,,,,,,,,,
65986,1469892493773,,,,,,,-0.06,0.12,0.99,-11.8,-0.2,-0.1,1280,132,,,,,,,,,,,,,,,,,
66006,1469892493793,,,,,,,-0.05,0.13,1.0,-11.8,-0.2,-0.1,1280,132,,,,,,,,,,,,,,,,,
66026,1469892493813,,,,,,,-0.05,0.13,1.0,-11.9,-0.2,-0.1,1280,129,,,,,,,,,,,,,,,,,
66046,1469892493833,0,127.2,155.6,57,152.6,14.51,-0.05,0.12,1.0,-12.0,-0.0,-0.1,1280,132,9.922,0,39.540566,-122.331955,2.33,0.012,318.1,10,3,1.5,0,0.0,-1,0.0,0.0,0.0,0
66066,1469892493853,,,,,,,-0.06,0.13,0.99,-12.1,-0.2,-0.1,1280,133,,,,,,,,,,,,,,,,,
66086,1469892493873,,,,,,,-0.05,0.13,1.0,-12.2,-0.1,-0.0,1280,138,,,,,,,,,,,,,,,,,
66106,1469892493893,,,,,,,-0.05,0.13,0.99,-12.3,-0.1,-0.1,1280,141,,,,,,,,,,,,,,,,,
66126,1469892493906,,,,,,,-0.05,0.13,0.98,-12.4,-0.1,-0.0,1280,135,,,,,,,,,,,,,,,,,
66146,1469892493926,,,,63,,,-0.04,0.13,0.99,-12.5,-0.0,0.0,1280,138,9.481,0,39.540566,-122.331955,2.29,0.012,318.1,10,3,1.5,0,0.0,-1,0.0,,0.0,0
66166,1469892493946,,,,,,,-0.05,0.13,0.99,-12.6,-0.1,0.0,1280,147,,,,,,,,,,,,,,,,,
66186,1469892493966,,,,,,,-0.05,0.13,0.99,-12.6,-0.0,-0.1,1300,150,,,,,,,,,,,,,,,,,
66206,1469892493993,,,,,,,-0.05,0.13,0.99,-12.6,-0.0,-0.1,1300,147,,,,,,,,,,,,,,,,,
66226,1469892494013,,,,,,,-0.05,0.13,0.99,-12.7,-0.0,-0.1,1280,143,,,,,,,,,,,,,,,,,
66246,1469892494033,0,126.0,154.4,53,151.7,,-0.05,0.13,0.99,-12.7,0.1,-0.2,1280,152,8.421,0,39.540566,-122.331955,2.48,0.012,318.1,10,3,1.5,0,0.0,-1,0.0,0.0,0.0,0
66266,1469892494053,,,,,,,-0.05,0.14,0.98,-12.8,-0.1,-0.3,1280,158,,,,,,,,,,,,,,,,,
66286,1469892494073,,,,,,,-0.05,0.13,0.99,-12.8,0.0,-0.3,1300,153,,,,,,,,,,,,,,,,,
66306,1469892494093,,,,,,,-0.05,0.13,0.98,-12.8,-0.0,-0.3,1280,147,,,,,,,,,,,,,,,,,
66326,1469892494113,,,,,,,-0.05,0.13,0.98,-12.9,-0.0,-0.3,1280,155,,,,,,,,,,,,,,,,,
66346,1469892494133,,,,53,,,-0.05,0.13,0.99,-12.9,0.0,-0.2,1300,161,8.075,0,39.540566,-122.331955,2.72,0.012,318.2,10,3,1.5,0,0.0,-1,0.0,,0.0,0
66366,1469892494153,,,,,,,-0.05,0.13,0.99,-13.0,0.1,-0.2,1280,158,,,,,,,,,,,,,,,,,
66386,1469892494173,,,,,,,-0.06,0.12,0.99,-13.0,0.1,-0.2,1300,160,,,,,,,,,,,,,,,,,
66406,1469892494292,,,,,,,-0.06,0.13,1.0,-13.0,0.1,-0.1,1300,166,,,,,,,,,,,,,,,,,
66426,1469892494312,,,,,,,-0.06,0.13,1.0,-13.1,0.2,-0.0,1280,170,,,,,,,,,,,,,,,,,
66446,1469892494332,0,127.0,155.5,57,152.5,,-0.06,0.12,1.0,-13.1,0.3,-0.0,1280,167,7.665,0,39.540569,-122.331955,3.27,0.013,318.3,10,3,1.5,0,0.0,-1,0.0,0.0,0.0,0
66466,1469892494352,,,,,,,-0.06,0.13,0.99,-13.1,0.2,0.1,1300,167,,,,,,,,,,,,,,,,,
66486,1469892494372,,,,,,,-0.06,0.13,0.99,-13.1,0.3,0.2,1300,170,,,,,,,,,,,,,,,,,
66506,1469892494392,,,,,,,-0.05,0.12,0.99,-13.1,0.3,0.2,1300,173,,,,,,,,,,,,,,,,,
66526,1469892494412,,,,,,,-0.06,0.12,0.99,-13.1,0.2,0.2,1280,172,,,,,,,,,,,,,,,,,
66546,1469892494432,,,,55,,,-0.05,0.12,0.98,-13.1,0.3,0.4,1300,172,7.558,0,39.540569,-122.331955,3.27,0.013,318.3,10,3,1.5,0,0.0,-1,0.0,,0.0,0
66566,1469892494452,,,,,,,-0.05,0.13,0.97,-13.1,0.3,0.4,1300,181,,,,,,,,,,,,,,,,,
66586,1469892494472,,,,,,,-0.05,0.13,0.98,-13.1,0.3,0.4,1300,181,,,,,,,,,,,,,,,,,
66606,1469892494393,,,,,,,-0.05,0.13,0.98,-13.0,0.3,0.5,1280,178,,,,,,,,,,,,,,,,,
66626,1469892494413,,,,,,,-0.05,0.13,0.98,-13.0,0.2,0.5,1300,180,,,,,,,,,,,,,,,,,
66646,1469892494433,0,126.1,154.7,59,151.8,,-0.05,0.12,0.99,-13.0,0.3,0.4,1320,187,7.059,0,39.540569,-122.331955,3.15,0.013,318.4,10,3,1.5,0,0.0,-1,0.0,0.0,0.0,0
66666,1469892494453,,,,,,,-0.05,0.13,0.99,-13.0,0.3,0.4,1320,186,,,,,,,,,,,,,,,,,
66686,1469892494473,,,,,,,-0.05,0.13,0.98,-13.1,0.3,0.5,1300,181,,,,,,,,,,,,,,,,,
66706,1469892494493,,,,,,,-0.05,0.13,0.99,-13.1,0.3,0.4,1300,186,,,,,,,,,,,,,,,,,
66726,1469892494513,,,,,,,-0.06,0.13,0.99,-13.1,0.2,0.3,1300,195,,,,,,,,,,,,,,,,,
66746,1469892494533,,,,57,,,-0.05,0.13,0.99,-13.1,0.2,0.3,1320,198,6.6,0,39.540573,-122.331955,3.17,0.013,318.5,10,3,1.5,0,0.0,-1,0.0,,0.0,0
66766,1469892494553,,,,,,,-0.05,0.13,0.98,-13.0,0.2,0.3,1300,192,,,,,,,,,,,,,,,,,
66786,1469892494573,,,,,,,-0.05,0.13,0.98,-13.0,0.1,0.3,1300,187,,,,,,,,,,,,,,,,,
66806,1469892494593,,,,,,,-0.05,0.13,0.99,-13.0,0.3,0.4,1300,193,,,,,,,,,,,,,,,,,
66826,1469892494613,,,,,,,-0.05,0.13,0.99,-13.0,0.2,0.4,1320,203,,,,,,,,,,,,,,,,,
66846,1469892494633,0,126.5,154.8,61,152.2,,-0.05,0.13,0.99,-13.0,0.1,0.5,1320,198,6.667,0,39.540573,-122.331955,3.16,0.013,318.5,10,3,1.5,0,0.0,-1,0.0,0.0,0.0,0
66866,1469892494653,,,,,,,-0.05,0.13,0.99,-13.1,0.2,0.6,1320,192,,,,,,,,,,,,,,,,,
66886,1469892494673,,,,,,,-0.05,0.13,0.99,-13.1,0.2,0.6,1300,203,,,,,,,,,,,,,,,,,
66906,1469892494693,,,,,,,-0.05,0.13,0.99,-13.1,0.2,0.7,1320,210,,,,,,,,,,,,,,,,,
66926,1469892494713,,,,,,,-0.05,0.14,0.99,-13.2,0.2,0.7,1320,206,,,,,,,,,,,,,,,,,
66946,1469892494733,,,,56,,,-0.05,0.14,0.99,-13.2,0.1,0.8,1300,195,6.667,0,39.540573,-122.33197,3.32,0.014,318.4,10,3,1.5,0,0.0,-1,0.0,,0.0,0
66966,1469892494753,,,,,,,-0.05,0.14,1.0,-13.3,0.1,0.8,1300,196,,,,,,,,,,,,,,,,,
66986,1469892494773,,,,,,,-0.04,0.14,1.0,-13.4,0.2,0.8,1320,209,,,,,,,,,,,,,,,,,
67006,1469892494793,,,,,,,-0.04,0.15,1.0,-13.5,0.1,0.8,1320,212,,,,,,,,,,,,,,,,,
67026,1469892494809,,,,,,,-0.04,0.15,1.01,-13.6,0.2,0.8,1320,206,,,,,,,,,,,,,,,,,
67046,1469892494829,0,126.5,155.0,52,152.2,14.48,-0.04,0.16,1.02,-13.7,0.1,0.7,1320,201,6.567,0,39.540573,-122.33197,3.55,0.014,318.4,10,3,1.5,0,0.0,-1,0.0,0.0,0.0,0
67066,1469892494849,,,,,,,-0.04,0.16,1.02,-13.9,0.2,0.7,1320,212,,,,,,,,,,,,,,,,,
67086,1469892494869,,,,,,,-0.04,0.15,1.02,-14.0,0.3,0.6,1320,216,,,,,,,,,,,,,,,,,
67106,1469892494889,,,,,,,-0.04,0.16,1.02,-14.1,0.3,0.6,1340,210,,,,,,,,,,,,,,,,,
67126,1469892494906,,,,,,,-0.04,0.17,1.02,-14.2,0.3,0.6,1320,203,,,,,,,,,,,,,,,,,
