"Interval"|"ms"|0|0|1,"Utc"|"ms"|0|0|1,"FuelLevel"|"F"|0|100|5,"OilTemp"|"F"|0.0|300.0|5,"Coolant"|"F"|0.0|300.0|5,"OilPress"|"PSI"|0|150|10,"EngineTemp"|"F"|0.0|300.0|5,"Battery"|"Volts"|0.0|20.0|1,"AccelX"|"G"|-3.0|3.0|50,"AccelY"|"G"|-3.0|3.0|50,"AccelZ"|"G"|-3.0|3.0|50,"Yaw"|"Deg/Sec"|-300.0|300.0|50,"Pitch"|"Deg/Sec"|-300.0|300.0|50,"Roll"|"Deg/Sec"|-300.0|300.0|50,"RPM"|""|0|10000|50,"Driveshaft"|"RPM"|0|5000|50,"GearRatio"|""|-5.0|5.0|10,"Gear"|""|-1|5|10,"Latitude"|"Degrees"|-180.0|180.0|10,"Longitude"|"Degrees"|-180.0|180.0|10,"Speed"|"MPH"|0.0|150.0|10,"Distance"|"Miles"|0.0|0.0|10,"Altitude"|"Feet"|0.0|4000.0|10,"GPSSats"|""|0|20|10,"GPSQual"|""|0|5|10,"GPSDOP"|""|0.0|20.0|10,"LapCount"|""|0|0|10,"LapTime"|"Min"|0.0|0.0|10,"Sector"|""|0|0|10,"SectorTime"|"Min"|0.0|0.0|10,"PredTime"|"Min"|0.0|0.0|5,"ElapsedTime"|"Min"|0.0|0.0|10,"CurrentLap"|""|0|0|10
4054686,1469896728399,,,,,,,-0.01,0.1,0.98,-3.1,0.2,0.2,140,0,,,,,,,,,,,,,,,,,
4054706,1469896728419,,,,,,,-0.01,0.09,0.98,-3.1,0.1,0.1,140,0,,,,,,,,,,,,,,,,,
4054726,1469896728439,,,,,,,-0.02,0.1,0.98,-3.0,0.1,0.1,140,0,,,,,,,,,,,,,,,,,
4054746,1469896728459,,,,0,,,-0.01,0.1,0.99,-3.0,0.1,-0.0,280,0,0.0,0,39.540642,-122.332046,0.98,0.416,350.8,11,2,1.8,0,0.0,-1,0.0,,0.0,0
4054766,1469896728479,,,,,,,-0.01,0.08,0.99,-3.0,-0.1,-0.2,280,0,,,,,,,,,,,,,,,,,
4054786,1469896728500,,,,,,,-0.01,0.1,0.98,-3.0,-0.3,-0.1,480,0,,,,,,,,,,,,,,,,,
4054806,1469896728520,,,,,,,-0.01,0.08,0.98,-2.8,-0.5,-0.3,660,0,,,,,,,,,,,,,,,,,
4054826,1469896728540,,,,,,,-0.02,0.08,0.98,-2.9,-0.4,-0.3,660,0,,,,,,,,,,,,,,,,,
4054846,1469896728560,0,132.5,136.8,0,133.3,,-0.01,0.09,0.97,-3.0,0.1,0.1,800,0,0.0,0,39.540642,-122.332046,2.4,0.416,350.8,11,2,1.8,0,0.0,-1,0.0,0.0,0.0,0
4054866,1469896728580,,,,,,,-0.0,0.11,0.97,-3.1,0.2,0.2,920,0,,,,,,,,,,,,,,,,,
4054886,1469896728699,,,,,,,-0.01,0.11,0.97,-3.1,0.1,0.1,1040,0,,,,,,,,,,,,,,,,,
4054906,1469896728719,,,,,,,-0.01,0.11,0.97,-3.1,-0.1,-0.1,1040,0,,,,,,,,,,,,,,,,,
4054926,1469896728739,,,,,,,-0.01,0.1,0.98,-3.1,-0.1,-0.1,1060,0,,,,,,,,,,,,,,,,,
4054946,1469896728759,,,,0,,,-0.01,0.08,0.97,-3.0,0.0,-0.2,1100,0,0.0,0,39.540638,-122.332046,3.03,0.416,350.7,11,3,1.8,0,0.0,-1,0.0,,0.0,0
4054966,1469896728779,,,,,,,-0.01,0.06,0.96,-3.0,0.0,-0.2,1080,0,,,,,,,,,,,,,,,,,
4054986,1469896728799,,,,,,,-0.02,0.05,0.96,-3.0,0.0,-0.2,1140,0,,,,,,,,,,,,,,,,,
4055006,1469896728819,,,,,,,-0.02,0.05,0.96,-3.0,-0.3,-0.0,1140,0,,,,,,,,,,,,,,,,,
4055026,1469896728839,,,,,,,-0.01,0.06,0.96,-3.0,-0.2,-0.1,1120,0,,,,,,,,,,,,,,,,,
4055046,1469896728859,0,133.1,137.3,0,133.7,13.72,-0.01,0.06,0.97,-3.0,0.1,-0.2,1100,0,0.0,0,39.540638,-122.332046,3.03,0.416,350.7,11,3,1.8,0,0.0,-1,0.0,0.0,0.0,0
4055066,1469896728879,,,,,,,-0.01,0.06,0.96,-3.0,0.1,-0.1,1160,0,,,,,,,,,,,,,,,,,
4055086,1469896728798,,,,,,,-0.01,0.06,0.96,-3.0,-0.1,-0.0,1200,0,,,,,,,,,,,,,,,,,
4055106,1469896728818,,,,,,,-0.0,0.06,0.97,-3.0,0.0,-0.0,1240,0,,,,,,,,,,,,,,,,,
4055126,1469896728838,,,,,,,-0.01,0.06,0.96,-3.0,-0.3,-0.0,1240,0,,,,,,,,,,,,,,,,,
4055146,1469896728858,,,,0,,,-0.0,0.06,0.97,-3.0,-0.3,-0.1,1300,0,0.0,0,39.540638,-122.332046,2.99,0.416,350.7,11,2,1.8,0,0.0,-1,0.0,,0.0,0
4055166,1469896728878,,,,,,,-0.01,0.07,0.97,-3.0,-0.3,-0.1,1320,0,,,,,,,,,,,,,,,,,
4055186,1469896728895,,,,,,,-0.01,0.06,0.98,-3.0,-0.2,-0.1,1340,0,,,,,,,,,,,,,,,,,
4055206,1469896728915,,,,,,,-0.01,0.07,0.99,-3.0,-0.0,-0.1,1360,0,,,,,,,,,,,,,,,,,
4055226,1469896728935,,,,,,,-0.01,0.08,0.99,-3.0,-0.0,-0.0,1400,0,,,,,,,,,,,,,,,,,
4055246,1469896728955,0,132.9,137.2,0,133.6,,-0.01,0.08,0.98,-3.1,-0.2,-0.0,1420,0,0.0,0,39.540634,-122.332046,2.41,0.416,350.6,11,2,1.8,0,0.0,-1,0.0,0.0,0.0,0
4055266,1469896728975,,,,,,,-0.01,0.08,0.98,-3.0,-0.1,-0.0,1420,0,,,,,,,,,,,,,,,,,
4055286,1469896729002,,,,,,,-0.01,0.09,0.99,-3.0,-0.2,-0.1,1440,0,,,,,,,,,,,,,,,,,
4055306,1469896729022,,,,,,,-0.01,0.09,1.0,-3.0,-0.2,0.0,1460,0,,,,,,,,,,,,,,,,,
4055326,1469896729042,,,,,,,-0.01,0.09,1.0,-3.0,-0.1,-0.0,1460,0,,,,,,,,,,,,,,,,,
4055346,1469896729062,,,,0,,,-0.01,0.09,1.0,-3.0,-0.1,0.0,1460,0,0.0,0,39.540634,-122.332046,1.94,0.416,350.6,11,2,1.9,0,0.0,-1,0.0,,0.0,0
4055366,1469896729082,,,,,,,-0.01,0.08,1.0,-3.0,0.1,-0.0,1480,0,,,,,,,,,,,,,,,,,
4055386,1469896729101,,,,,,,-0.01,0.08,1.0,-3.0,-0.0,-0.1,1480,0,,,,,,,,,,,,,,,,,
4055406,1469896729121,,,,,,,-0.01,0.08,1.0,-3.0,0.1,-0.1,1480,0,,,,,,,,,,,,,,,,,
4055426,1469896729141,,,,,,,-0.02,0.08,1.0,-3.0,-0.0,-0.1,1440,0,,,,,,,,,,,,,,,,,
4055446,1469896729161,0,132.1,136.2,0,132.8,,-0.01,0.08,1.0,-3.0,0.1,-0.1,1440,0,0.0,0,39.540634,-122.332031,1.23,0.417,350.6,11,2,1.9,0,0.0,-1,0.0,0.0,0.0,0
4055466,1469896729181,,,,,,,-0.01,0.09,0.99,-3.0,0.0,-0.1,1440,0,,,,,,,,,,,,,,,,,
4055486,1469896729201,,,,,,,-0.01,0.09,0.99,-3.0,-0.0,-0.1,1420,0,,,,,,,,,,,,,,,,,
4055506,1469896729221,,,,,,,-0.01,0.09,0.99,-3.0,-0.1,-0.2,1400,0,,,,,,,,,,,,,,,,,
4055526,1469896729241,,,,,,,-0.01,0.09,0.99,-3.0,-0.1,-0.2,1360,0,,,,,,,,,,,,,,,,,
4055546,1469896729261,,,,0,,,-0.01,0.1,0.99,-3.0,-0.0,-0.1,1360,0,0.0,0,39.540634,-122.332031,1.3,0.417,350.5,11,2,1.9,0,0.0,-1,0.0,,0.0,0
4055566,1469896729281,,,,,,,-0.01,0.09,0.99,-3.0,-0.0,-0.1,1360,0,,,,,,,,,,,,,,,,,
4055586,1469896729301,,,,,,,-0.01,0.09,0.99,-3.0,-0.0,-0.1,1320,0,,,,,,,,,,,,,,,,,
4055606,1469896729321,,,,,,,-0.01,0.09,0.99,-3.0,0.1,-0.1,1300,0,,,,,,,,,,,,,,,,,
4055626,1469896729341,,,,,,,-0.01,0.09,0.98,-3.0,-0.0,-0.1,1280,0,,,,,,,,,,,,,,,,,
4055646,1469896729361,0,132.8,136.8,0,132.7,,-0.01,0.08,0.98,-2.9,0.1,-0.1,1260,0,0.0,0,39.540634,-122.332031,0.0,0.417,350.5,11,3,1.9,0,0.0,-1,0.0,0.0,0.0,0
4055666,1469896729381,,,,,,,-0.01,0.09,0.98,-2.9,-0.1,-0.2,1240,0,,,,,,,,,,,,,,,,,
4055686,1469896729496,,,,,,,-0.01,0.08,0.98,-3.0,0.0,-0.2,1220,0,,,,,,,,,,,,,,,,,
4055706,1469896729516,,,,,,,-0.01,0.08,0.98,-3.0,-0.1,-0.2,1160,0,,,,,,,,,,,,,,,,,
4055726,1469896729536,,,,,,,-0.01,0.07,0.99,-3.0,0.0,-0.2,1180,0,,,,,,,,,,,,,,,,,
4055746,1469896729556,,,,1,,,-0.01,0.08,0.98,-3.0,-0.1,-0.2,1140,0,0.0,0,39.540634,-122.332031,0.0,0.417,350.5,11,3,1.9,0,0.0,-1,0.0,,0.0,0
4055766,1469896729576,,,,,,,-0.01,0.08,0.98,-3.0,-0.0,-0.2,1120,0,,,,,,,,,,,,,,,,,
4055786,1469896729596,,,,,,,-0.01,0.08,0.98,-3.0,-0.0,-0.2,1080,0,,,,,,,,,,,,,,,,,
4055806,1469896729616,,,,,,,-0.01,0.08,0.99,-3.0,-0.0,-0.2,1040,0,,,,,,,,,,,,,,,,,
4055826,1469896729636,,,,,,,-0.01,0.07,0.99,-3.0,-0.1,-0.2,1040,0,,,,,,,,,,,,,,,,,
4055846,1469896729656,0,132.5,136.3,3,132.5,,-0.01,0.08,0.98,-3.0,-0.2,-0.2,1020,0,0.0,0,39.540634,-122.332031,0.0,0.417,350.5,11,3,1.9,0,0.0,-1,0.0,0.0,0.0,0
4055866,1469896729676,,,,,,,-0.01,0.07,0.99,-3.0,-0.2,-0.2,1000,0,,,,,,,,,,,,,,,,,
4055886,1469896729601,,,,,,,-0.01,0.07,0.99,-3.0,-0.2,-0.2,1000,0,,,,,,,,,,,,,,,,,
4055906,1469896729621,,,,,,,-0.01,0.07,0.99,-3.0,-0.2,-0.2,980,0,,,,,,,,,,,,,,,,,
4055926,1469896729641,,,,,,,-0.01,0.07,0.98,-3.0,-0.1,-0.2,940,0,,,,,,,,,,,,,,,,,
4055946,1469896729661,,,,7,,,-0.01,0.07,0.98,-3.0,-0.1,-0.2,940,0,0.0,0,39.540634,-122.332031,0.0,0.417,350.5,11,3,1.9,0,0.0,-1,0.0,,0.0,0
4055966,1469896729681,,,,,,,-0.01,0.07,0.98,-3.0,-0.1,-0.2,920,0,,,,,,,,,,,,,,,,,
4055986,1469896729701,,,,,,,-0.01,0.07,0.98,-3.0,-0.2,-0.1,920,0,,,,,,,,,,,,,,,,,
4056006,1469896729721,,,,,,,-0.01,0.07,0.98,-3.0,-0.2,-0.1,880,0,,,,,,,,,,,,,,,,,
4056026,1469896729741,,,,,,,-0.01,0.07,0.98,-3.0,-0.2,-0.1,880,0,,,,,,,,,,,,,,,,,
4056046,1469896729761,0,133.4,137.6,10,133.9,14.13,-0.01,0.08,0.98,-3.0,-0.1,0.0,860,0,0.0,0,39.540634,-122.332031,0.0,0.417,350.5,11,3,1.9,0,0.0,-1,0.0,0.0,0.0,0
4056066,1469896729781,,,,,,,-0.01,0.08,0.98,-3.0,-0.2,0.0,840,0,,,,,,,,,,,,,,,,,
4056086,1469896729801,,,,,,,-0.01,0.08,0.99,-3.0,-0.1,-0.0,840,0,,,,,,,,,,,,,,,,,
4056106,1469896729821,,,,,,,-0.01,0.08,0.98,-3.0,-0.1,-0.1,840,0,,,,,,,,,,,,,,,,,
4056126,1469896729841,,,,,,,-0.01,0.08,0.98,-3.0,-0.1,-0.2,820,0,,,,,,,,,,,,,,,,,
4056146,1469896729861,,,,12,,,-0.01,0.07,0.98,-3.0,-0.2,-0.2,820,0,0.0,0,39.540634,-122.332031,0.0,0.417,350.5,11,3,1.9,0,0.0,-1,0.0,,0.0,0
4056166,1469896729881,,,,,,,-0.01,0.07,0.98,-3.0,-0.0,-0.1,800,0,,,,,,,,,,,,,,,,,
4056186,1469896729893,,,,,,,-0.01,0.08,0.98,-3.0,-0.1,-0.0,800,0,,,,,,,,,,,,,,,,,
4056206,1469896729913,,,,,,,-0.01,0.08,0.99,-3.0,-0.2,-0.1,780,0,,,,,,,,,,,,,,,,,
4056226,1469896729933,,,,,,,-0.01,0.08,0.98,-3.0,-0.1,-0.1,760,0,,,,,,,,,,,,,,,,,
4056246,1469896729953,0,132.0,137.2,16,133.7,,-0.01,0.07,0.98,-3.0,-0.1,-0.1,760,0,0.0,0,39.540634,-122.332031,0.0,0.417,350.4,11,3,1.9,0,0.0,-1,0.0,0.0,0.0,0
4056266,1469896729973,,,,,,,-0.01,0.08,0.99,-3.0,-0.1,-0.0,760,0,,,,,,,,,,,,,,,,,
4056286,1469896730000,,,,,,,-0.01,0.07,0.99,-3.0,-0.1,-0.0,780,0,,,,,,,,,,,,,,,,,
4056306,1469896730020,,,,,,,-0.02,0.07,0.99,-3.0,-0.2,-0.1,760,0,,,,,,,,,,,,,,,,,
4056326,1469896730040,,,,,,,-0.02,0.07,0.98,-3.0,-0.0,-0.2,760,0,,,,,,,,,,,,,,,,,
4056346,1469896730060,,,,17,,,-0.02,0.07,0.99,-3.0,0.1,-0.1,760,0,0.0,0,39.540634,-122.332031,0.0,0.417,350.4,11,3,1.4,0,0.0,-1,0.0,,0.0,0
4056366,1469896730080,,,,,,,-0.02,0.08,0.99,-3.0,0.0,-0.1,740,0,,,,,,,,,,,,,,,,,
4056386,1469896730100,,,,,,,-0.02,0.07,0.99,-3.0,-0.0,-0.2,740,0,,,,,,,,,,,,,,,,,
4056406,1469896730120,,,,,,,-0.02,0.07,0.99,-3.0,0.1,-0.2,740,0,,,,,,,,,,,,,,,,,
4056426,1469896730140,,,,,,,-0.02,0.07,0.99,-3.1,0.0,-0.1,740,0,,,,,,,,,,,,,,,,,
4056446,1469896730160,0,132.1,137.3,18,133.6,,-0.02,0.08,0.99,-3.1,0.0,-0.0,740,0,0.0,0,39.540634,-122.332031,0.0,0.417,350.4,11,3,1.4,0,0.0,-1,0.0,0.0,0.0,0
4056466,1469896730180,,,,,,,-0.02,0.08,0.99,-3.0,-0.1,-0.1,740,0,,,,,,,,,,,,,,,,,
4056486,1469896730299,,,,,,,-0.02,0.08,0.98,-3.0,-0.1,-0.2,740,0,,,,,,,,,,,,,,,,,
4056506,1469896730319,,,,,,,-0.02,0.08,0.99,-3.0,-0.1,-0.1,740,0,,,,,,,,,,,,,,,,,
4056526,1469896730339,,,,,,,-0.02,0.08,0.98,-3.0,-0.0,-0.1,740,0,,,,,,,,,,,,,,,,,
4056546,1469896730359,,,,17,,,-0.02,0.07,0.98,-3.0,-0.1,-0.2,740,0,0.0,0,39.540634,-122.332031,0.0,0.417,350.4,11,3,1.4,0,0.0,-1,0.0,,0.0,0
4056566,1469896730379,,,,,,,-0.02,0.08,0.98,-3.0,-0.0,-0.3,740,0,,,,,,,,,,,,,,,,,
4056586,1469896730399,,,,,,,-0.01,0.08,0.99,-3.0,-0.1,-0.2,760,0,,,,,,,,,,,,,,,,,
4056606,1469896730419,,,,,,,-0.01,0.08,0.99,-3.0,-0.1,-0.1,760,0,,,,,,,,,,,,,,,,,
4056626,1469896730439,,,,,,,-0.01,0.08,0.99,-3.0,-0.2,-0.3,760,0,,,,,,,,,,,,,,,,,
4056646,1469896730459,0,133.4,136.7,19,132.8,,-0.02,0.07,0.98,-3.0,-0.1,-0.3,760,0,0.0,0,39.540634,-122.332031,0.0,0.417,350.4,11,3,1.4,0,0.0,-1,0.0,0.0,0.0,0
4056666,1469896730479,,,,,,,-0.02,0.07,0.98,-3.0,-0.1,-0.2,760,0,,,,,,,,,,,,,,,,,
4056686,1469896730398,,,,,,,-0.01,0.08,0.99,-3.0,-0.1,-0.1,760,0,,,,,,,,,,,,,,,,,
4056706,1469896730418,,,,,,,-0.02,0.08,0.99,-3.0,-0.1,-0.1,760,0,,,,,,,,,,,,,,,,,
4056726,1469896730438,,,,,,,-0.02,0.07,0.99,-3.0,-0.1,-0.3,780,0,,,,,,,,,,,,,,,,,
4056746,1469896730458,,,,22,,,-0.02,0.07,0.98,-3.0,-0.0,-0.2,780,0,0.0,0,39.540634,-122.332031,0.0,0.417,350.4,11,3,1.4,0,0.0,-1,0.0,,0.0,0
4056766,1469896730478,,,,,,,-0.01,0.08,0.98,-3.0,0.0,-0.1,800,0,,,,,,,,,,,,,,,,,
4056786,1469896730498,,,,,,,-0.01,0.08,0.98,-3.0,0.0,-0.0,780,0,,,,,,,,,,,,,,,,,
4056806,1469896730518,,,,,,,-0.01,0.08,0.98,-3.0,-0.2,-0.1,800,0,,,,,,,,,,,,,,,,,
4056826,1469896730538,,,,,,,-0.01,0.07,0.98,-3.0,0.0,-0.2,800,0,,,,,,,,,,,,,,,,,
4056846,1469896730558,0,133.1,137.4,21,133.4,,-0.01,0.07,0.98,-3.0,-0.0,-0.2,800,0,0.0,0,39.540634,-122.332031,0.0,0.417,350.4,11,3,1.4,0,0.0,-1,0.0,0.0,0.0,0
4056866,1469896730578,,,,,,,-0.01,0.08,0.98,-3.0,0.1,-0.1,800,0,,,,,,,,,,,,,,,,,
4056886,1469896730598,,,,,,,-0.01,0.08,0.99,-3.0,0.2,-0.0,820,0,,,,,,,,,,,,,,,,,
4056906,1469896730618,,,,,,,-0.01,0.08,0.99,-3.0,0.2,-0.1,840,0,,,,,,,,,,,,,,,,,
4056926,1469896730638,,,,,,,-0.02,0.07,0.99,-3.0,0.2,-0.2,820,0,,,,,,,,,,,,,,,,,
4056946,1469896730658,,,,23,,,-0.01,0.07,0.99,-3.0,0.2,-0.2,820,0,0.0,0,39.540634,-122.332031,0.0,0.417,350.4,11,3,1.4,0,0.0,-1,0.0,,0.0,0
4056966,1469896730678,,,,,,,-0.01,0.07,0.99,-3.0,0.1,-0.2,820,0,,,,,,,,,,,,,,,,,
4056986,1469896730698,,,,,,,-0.01,0.07,0.99,-3.0,0.2,-0.1,820,0,,,,,,,,,,,,,,,,,
4057006,1469896730718,,,,,,,-0.01,0.08,0.99,-3.0,0.1,0.0,840,0,,,,,,,,,,,,,,,,,
4057026,1469896730738,,,,,,,-0.01,0.08,0.99,-3.0,0.1,-0.0,840,0,,,,,,,,,,,,,,,,,
4057046,1469896730758,0,132.8,137.7,27,133.7,14.21,-0.02,0.08,0.99,-3.0,0.0,-0.1,860,0,0.0,0,39.540634,-122.332031,0.0,0.417,350.4,11,3,1.4,0,0.0,-1,0.0,0.0,0.0,0
4057066,1469896730778,,,,,,,-0.01,0.07,0.99,-3.0,0.1,-0.2,860,0,,,,,,,,,,,,,,,,,
4057086,1469896730798,,,,,,,-0.01,0.07,0.99,-3.0,0.0,-0.3,840,0,,,,,,,,,,,,,,,,,
4057106,1469896730818,,,,,,,-0.01,0.07,0.99,-3.0,0.1,-0.1,840,0,,,,,,,,,,,,,,,,,
4057126,1469896730838,,,,,,,-0.01,0.07,0.99,-3.0,0.1,0.0,860,0,,,,,,,,,,,,,,,,,
4057146,1469896730858,,,,32,,,-0.01,0.08,0.98,-3.1,0.1,0.1,860,0,0.0,0,39.540634,-122.332031,0.0,0.417,350.4,11,3,1.4,0,0.0,-1,0.0,,0.0,0
4057166,1469896730878,,,,,,,-0.01,0.08,0.99,-3.0,0.1,0.1,860,0,,,,,,,,,,,,,,,,,
4057186,1469896730891,,,,,,,-0.01,0.08,0.99,-3.0,0.1,-0.0,880,0,,,,,,,,,,,,,,,,,
4057206,1469896730911,,,,,,,-0.02,0.08,0.98,-3.0,0.1,-0.2,880,0,,,,,,,,,,,,,,,,,
4057226,1469896730931,,,,,,,-0.02,0.08,0.99,-3.0,0.0,-0.3,860,0,,,,,,,,,,,,,,,,,
4057246,1469896730951,0,132.1,136.7,35,133.1,,-0.01,0.07,0.99,-3.0,-0.0,-0.3,860,0,0.0,0,39.540634,-122.332031,0.0,0.417,350.4,11,3,1.4,0,0.0,-1,0.0,0.0,0.0,0
4057266,1469896730971,,,,,,,-0.01,0.07,0.98,-3.0,-0.0,-0.1,860,0,,,,,,,,,,,,,,,,,
4057286,1469896731098,,,,,,,-0.01,0.07,0.99,-3.1,-0.0,0.0,860,0,,,,,,,,,,,,,,,,,
4057306,1469896731118,,,,,,,-0.01,0.08,0.98,-3.1,0.1,0.1,880,0,,,,,,,,,,,,,,,,,
4057326,1469896731138,,,,,,,-0.01,0.08,0.98,-3.1,0.0,0.0,880,0,,,,,,,,,,,,,,,,,
4057346,1469896731158,,,,38,,,-0.01,0.08,0.99,-3.0,-0.0,-0.1,880,0,0.0,0,39.540634,-122.332031,0.0,0.417,350.4,11,3,1.4,0,0.0,-1,0.0,,0.0,0
4057366,1469896731178,,,,,,,-0.01,0.08,0.98,-3.0,-0.1,-0.2,860,0,,,,,,,,,,,,,,,,,
4057386,1469896731198,,,,,,,-0.01,0.08,0.98,-3.0,0.0,-0.3,860,0,,,,,,,,,,,,,,,,,
4057406,1469896731218,,,,,,,-0.01,0.07,0.98,-3.0,-0.0,-0.3,880,0,,,,,,,,,,,,,,,,,
4057426,1469896731238,,,,,,,-0.01,0.07,0.98,-3.0,-0.1,-0.2,880,0,,,,,,,,,,,,,,,,,
4057446,1469896731258,0,131.9,137.1,36,133.5,,-0.01,0.07,0.99,-3.0,0.0,-0.1,860,0,0.0,0,39.540634,-122.332031,0.0,0.417,350.4,11,3,1.4,0,0.0,-1,0.0,0.0,0.0,0
4057466,1469896731278,,,,,,,-0.01,0.07,0.99,-3.0,0.0,0.0,880,0,,,,,,,,,,,,,,,,,
4057486,1469896731199,,,,,,,-0.01,0.08,0.98,-3.0,0.1,0.0,880,0,,,,,,,,,,,,,,,,,
4057506,1469896731219,,,,,,,-0.01,0.08,0.99,-3.0,0.1,-0.1,860,0,,,,,,,,,,,,,,,,,
4057526,1469896731239,,,,,,,-0.01,0.08,0.99,-3.0,0.0,-0.2,860,0,,,,,,,,,,,,,,,,,
4057546,1469896731259,,,,36,,,-0.01,0.07,0.98,-2.9,0.0,-0.3,860,0,0.0,0,39.540634,-122.332031,0.0,0.417,350.4,11,3,1.4,0,0.0,-1,0.0,,0.0,0
4057566,1469896731279,,,,,,,-0.01,0.07,0.98,-2.9,0.0,-0.3,860,0,,,,,,,,,,,,,,,,,
4057586,1469896731299,,,,,,,-0.01,0.07,0.98,-3.0,-0.1,-0.3,880,0,,,,,,,,,,,,,,,,,
4057606,1469896731319,,,,,,,-0.02,0.07,0.98,-3.0,-0.1,-0.2,880,0,,,,,,,,,,,,,,,,,
4057626,1469896731339,,,,,,,-0.02,0.07,0.98,-3.0,-0.1,-0.0,880,0,,,,,,,,,,,,,,,,,
4057646,1469896731359,0,133.1,136.3,35,133.0,,-0.01,0.08,0.98,-3.1,-0.1,0.0,860,0,0.0,0,39.540634,-122.332031,0.0,0.417,350.4,11,3,1.4,0,0.0,-1,0.0,0.0,0.0,0
4057666,1469896731379,,,,,,,-0.01,0.08,0.98,-3.0,-0.0,-0.0,880,0,,,,,,,,,,,,,,,,,
4057686,1469896731399,,,,,,,-0.01,0.09,0.99,-3.0,-0.1,-0.2,880,0,,,,,,,,,,,,,,,,,
4057706,1469896731419,,,,,,,-0.01,0.08,0.98,-3.0,-0.1,-0.3,880,0,,,,,,,,,,,,,,,,,
4057726,1469896731439,,,,,,,-0.01,0.07,0.98,-2.9,-0.0,-0.4,880,0,,,,,,,,,,,,,,,,,
4057746,1469896731459,,,,37,,,-0.01,0.07,0.98,-2.9,-0.1,-0.4,880,0,0.0,0,39.540634,-122.332031,0.0,0.417,350.4,11,3,1.4,0,0.0,-1,0.0,,0.0,0
4057766,1469896731479,,,,,,,-0.01,0.07,0.98,-3.0,-0.1,-0.3,880,0,,,,,,,,,,,,,,,,,
4057786,1469896731499,,,,,,,-0.0,0.07,0.98,-3.0,-0.0,-0.1,880,0,,,,,,,,,,,,,,,,,
4057806,1469896731519,,,,,,,-0.0,0.08,0.98,-3.0,0.0,-0.0,880,0,,,,,,,,,,,,,,,,,
4057826,1469896731539,,,,,,,0.0,0.08,0.98,-3.0,-0.0,-0.0,880,0,,,,,,,,,,,,,,,,,
4057846,1469896731559,0,132.4,136.2,38,132.6,,0.0,0.08,0.99,-3.0,-0.1,-0.1,880,0,0.0,0,39.540634,-122.332031,0.0,0.417,350.4,11,3,1.4,0,0.0,-1,0.0,0.0,0.0,0
4057866,1469896731579,,,,,,,0.0,0.08,0.99,-2.9,-0.2,-0.2,880,0,,,,,,,,,,,,,,,,,
4057886,1469896731599,,,,,,,-0.0,0.07,0.99,-2.9,-0.2,-0.3,880,0,,,,,,,,,,,,,,,,,
4057906,1469896731619,,,,,,,0.0,0.07,0.99,-2.9,-0.1,-0.3,880,0,,,,,,,,,,,,,,,,,
4057926,1469896731639,,,,,,,0.0,0.07,0.98,-2.9,-0.2,-0.2,880,0,,,,,,,,,,,,,,,,,
4057946,1469896731659,,,,41,,,0.0,0.07,0.98,-3.0,-0.2,-0.2,880,0,0.0,0,39.540634,-122.332031,0.0,0.417,350.4,11,3,1.4,0,0.0,-1,0.0,,0.0,0
4057966,1469896731679,,,,,,,0.01,0.07,0.98,-3.0,-0.0,-0.0,880,0,,,,,,,,,,,,,,,,,
4057986,1469896731696,,,,,,,0.01,0.08,0.99,-3.0,0.0,-0.0,880,0,,,,,,,,,,,,,,,,,
4058006,1469896731716,,,,,,,0.01,0.08,0.98,-3.0,-0.1,-0.0,880,0,,,,,,,,,,,,,,,,,
4058026,1469896731736,,,,,,,0.01,0.08,0.99,-3.0,-0.1,-0.1,880,0,,,,,,,,,,,,,,,,,
4058046,1469896731756,0,132.9,136.8,41,132.8,14.22,0.01,0.08,0.99,-3.0,-0.1,-0.2,880,0,0.0,0,39.540634,-122.332031,0.0,0.417,350.4,11,3,1.4,0,0.0,-1,0.0,0.0,0.0,0
4058066,1469896731776,,,,,,,0.0,0.07,0.99,-3.0,-0.1,-0.2,860,0,,,,,,,,,,,,,,,,,
4058086,1469896731899,,,,,,,0.0,0.07,0.99,-2.9,-0.1,-0.3,880,18,,,,,,,,,,,,,,,,,
4058106,1469896731919,,,,,,,0.0,0.07,0.98,-3.0,-0.2,-0.2,880,18,,,,,,,,,,,,,,,,,
4058126,1469896731939,,,,,,,0.01,0.07,0.98,-3.0,-0.2,-0.1,880,18,,,,,,,,,,,,,,,,,
4058146,1469896731959,,,,44,,,0.01,0.07,0.98,-3.0,-0.1,-0.0,880,18,48.889,0,39.540634,-122.332031,0.0,0.417,350.4,11,3,1.4,0,0.0,-1,0.0,,0.0,0
4058166,1469896731979,,,,,,,0.01,0.08,0.99,-3.0,-0.0,-0.0,880,18,,,,,,,,,,,,,,,,,
4058186,1469896731999,,,,,,,0.01,0.08,0.99,-3.0,0.0,-0.1,880,18,,,,,,,,,,,,,,,,,
4058206,1469896732019,,,,,,,0.01,0.08,0.99,-3.0,-0.1,-0.1,860,12,,,,,,,,,,,,,,,,,
4058226,1469896732039,,,,,,,0.01,0.08,0.99,-3.0,-0.1,-0.2,860,12,,,,,,,,,,,,,,,,,
4058246,1469896732059,0,132.6,137.3,43,133.2,,0.01,0.07,0.99,-2.9,-0.0,-0.3,860,12,48.889,0,39.540634,-122.332031,0.0,0.417,350.4,11,3,1.4,0,0.0,-1,0.0,0.0,0.0,0
4058266,1469896732079,,,,,,,0.01,0.07,0.99,-2.9,-0.1,-0.2,880,12,,,,,,,,,,,,,,,,,
4058286,1469896731998,,,,,,,0.01,0.06,0.98,-3.0,-0.1,-0.1,880,15,,,,,,,,,,,,,,,,,
4058306,1469896732018,,,,,,,0.01,0.07,0.98,-3.0,-0.1,-0.0,860,15,,,,,,,,,,,,,,,,,
4058326,1469896732038,,,,,,,0.01,0.08,0.99,-3.0,-0.1,0.0,860,15,,,,,,,,,,,,,,,,,
4058346,1469896732058,,,,36,,,0.01,0.08,0.98,-3.0,-0.0,-0.0,860,15,73.333,0,39.540634,-122.332031,0.0,0.417,350.4,11,3,1.4,0,0.0,-1,0.0,,0.0,0
4058366,1469896732078,,,,,,,0.01,0.08,0.99,-3.0,-0.1,-0.1,860,15,,,,,,,,,,,,,,,,,
4058386,1469896732099,,,,,,,0.0,0.07,0.99,-3.0,-0.1,-0.2,860,16,,,,,,,,,,,,,,,,,
4058406,1469896732119,,,,,,,0.0,0.08,0.99,-3.0,-0.1,-0.3,860,16,,,,,,,,,,,,,,,,,
4058426,1469896732139,,,,,,,0.0,0.07,0.99,-3.0,-0.2,-0.2,860,16,,,,,,,,,,,,,,,,,
4058446,1469896732159,0,132.8,136.2,41,132.3,,0.0,0.07,0.99,-3.0,-0.1,-0.1,860,18,53.75,0,39.540634,-122.332031,0.0,0.417,350.4,11,3,1.4,0,0.0,-1,0.0,0.0,0.0,0
4058466,1469896732179,,,,,,,0.0,0.08,0.99,-3.0,-0.1,-0.0,860,18,,,,,,,,,,,,,,,,,
4058486,1469896732199,,,,,,,0.0,0.09,0.99,-3.1,-0.1,0.0,860,18,,,,,,,,,,,,,,,,,
4058506,1469896732219,,,,,,,0.0,0.08,1.0,-3.1,-0.0,-0.0,860,18,,,,,,,,,,,,,,,,,
4058526,1469896732239,,,,,,,-0.0,0.09,1.0,-3.0,-0.1,-0.1,860,20,,,,,,,,,,,,,,,,,
4058546,1469896732259,,,,39,,,-0.0,0.08,0.99,-3.0,-0.0,-0.2,860,20,47.778,0,39.540634,-122.332031,0.0,0.417,350.4,11,3,1.4,0,0.0,-1,0.0,,0.0,0
4058566,1469896732279,,,,,,,-0.0,0.07,0.99,-3.0,0.0,-0.3,860,20,,,,,,,,,,,,,,,,,
4058586,1469896732297,,,,,,,-0.0,0.07,0.99,-3.0,-0.1,-0.3,860,20,,,,,,,,,,,,,,,,,
4058606,1469896732317,,,,,,,-0.0,0.07,0.99,-3.1,-0.0,-0.2,860,20,,,,,,,,,,,,,,,,,
4058626,1469896732337,,,,,,,-0.0,0.08,0.98,-3.1,-0.0,-0.1,840,20,,,,,,,,,,,,,,,,,
4058646,1469896732357,0,131.3,136.1,39,133.6,,-0.0,0.08,0.99,-3.1,0.0,-0.0,860,20,43.0,0,39.540634,-122.332031,0.0,0.417,350.4,11,3,1.4,0,0.0,-1,0.0,0.0,0.0,0
4058666,1469896732377,,,,,,,-0.01,0.08,1.0,-3.1,-0.1,-0.1,860,20,,,,,,,,,,,,,,,,,
4058686,1469896732398,,,,,,,-0.01,0.08,0.99,-3.0,-0.1,-0.2,860,20,,,,,,,,,,,,,,,,,
4058706,1469896732418,,,,,,,-0.01,0.07,0.99,-3.0,-0.1,-0.4,860,20,,,,,,,,,,,,,,,,,
4058726,1469896732438,,,,,,,-0.01,0.07,0.99,-3.0,-0.1,-0.3,860,20,,,,,,,,,,,,,,,,,
4058746,1469896732458,,,,39,,,-0.01,0.06,0.99,-3.0,-0.1,-0.2,860,20,43.0,0,39.540634,-122.332031,0.0,0.417,350.4,11,3,1.3,0,0.0,-1,0.0,,0.0,0
4058766,1469896732478,,,,,,,-0.01,0.07,0.99,-3.0,-0.1,-0.1,840,20,,,,,,,,,,,,,,,,,
4058786,1469896732498,,,,,,,-0.01,0.07,0.99,-3.0,-0.1,0.0,860,20,,,,,,,,,,,,,,,,,
4058806,1469896732518,,,,,,,-0.01,0.08,0.99,-3.0,-0.1,-0.1,860,20,,,,,,,,,,,,,,,,,
4058826,1469896732538,,,,,,,-0.02,0.08,0.99,-3.0,-0.1,-0.2,860,20,,,,,,,,,,,,,,,,,
4058846,1469896732558,0,132.5,137.5,38,132.8,,-0.02,0.07,0.99,-2.9,-0.1,-0.3,860,20,43.0,0,39.540634,-122.332031,0.0,0.417,350.4,11,3,1.3,0,0.0,-1,0.0,0.0,0.0,0
4058866,1469896732578,,,,,,,-0.02,0.07,0.99,-2.9,-0.1,-0.4,860,20,,,,,,,,,,,,,,,,,
4058886,1469896732697,,,,,,,-0.02,0.07,0.99,-3.0,-0.1,-0.3,860,20,,,,,,,,,,,,,,,,,
4058906,1469896732717,,,,,,,-0.02,0.07,0.98,-3.0,-0.1,-0.2,860,18,,,,,,,,,,,,,,,,,
4058926,1469896732737,,,,,,,-0.02,0.08,0.98,-3.0,-0.1,-0.1,860,18,,,,,,,,,,,,,,,,,
4058946,1469896732757,,,,36,,,-0.02,0.08,0.98,-3.0,0.0,-0.1,860,18,43.0,0,39.540634,-122.332031,0.0,0.417,350.4,11,3,1.3,0,0.0,-1,0.0,,0.0,0
4058966,1469896732777,,,,,,,-0.02,0.08,0.99,-3.0,0.0,-0.1,880,18,,,,,,,,,,,,,,,,,
4058986,1469896732797,,,,,,,-0.03,0.08,0.99,-3.0,-0.0,-0.2,860,18,,,,,,,,,,,,,,,,,
4059006,1469896732817,,,,,,,-0.03,0.08,0.99,-3.0,-0.1,-0.3,860,15,,,,,,,,,,,,,,,,,
4059026,1469896732837,,,,,,,-0.03,0.07,0.99,-3.0,-0.1,-0.4,860,15,,,,,,,,,,,,,,,,,
4059046,1469896732857,1,131.1,136.1,41,133.1,14.19,-0.03,0.07,0.99,-3.0,-0.1,-0.3,860,15,47.778,0,39.540634,-122.332031,0.0,0.417,350.4,11,3,1.3,0,0.0,-1,0.0,0.0,0.0,0
4059066,1469896732877,,,,,,,-0.03,0.07,0.99,-3.0,-0.1,-0.1,860,15,,,,,,,,,,,,,,,,,
4059086,1469896732798,,,,,,,-0.03,0.08,0.98,-3.0,-0.0,-0.0,860,0,,,,,,,,,,,,,,,,,
4059106,1469896732818,,,,,,,-0.03,0.08,0.98,-3.0,-0.0,-0.0,860,0,,,,,,,,,,,,,,,,,
4059126,1469896732838,,,,,,,-0.03,0.08,0.99,-3.0,-0.0,-0.1,860,0,,,,,,,,,,,,,,,,,
4059146,1469896732858,,,,36,,,-0.03,0.08,0.99,-2.9,-0.1,-0.2,860,283,0.001,0,39.540634,-122.332031,0.0,0.417,350.4,11,3,1.3,0,0.0,-1,0.0,,0.0,0
4059166,1469896732878,,,,,,,-0.03,0.07,0.99,-2.9,-0.0,-0.3,840,283,,,,,,,,,,,,,,,,,
4059186,1469896732892,,,,,,,-0.03,0.07,0.98,-2.9,-0.1,-0.3,860,283,,,,,,,,,,,,,,,,,
4059206,1469896732912,,,,,,,-0.03,0.07,0.98,-3.0,-0.1,-0.2,860,283,,,,,,,,,,,,,,,,,
4059226,1469896732932,,,,,,,-0.03,0.08,0.98,-2.9,-0.0,-0.1,840,0,,,,,,,,,,,,,,,,,
4059246,1469896732952,0,131.5,136.6,39,133.7,,-0.03,0.08,0.98,-3.0,0.0,-0.0,860,0,2.968,0,39.540634,-122.332031,0.0,0.417,350.4,11,3,1.3,0,0.0,-1,0.0,0.0,0.0,0
4059266,1469896732972,,,,,,,-0.03,0.08,0.98,-3.0,0.0,-0.1,840,0,,,,,,,,,,,,,,,,,
4059286,1469896732998,,,,,,,-0.03,0.07,0.99,-3.0,-0.0,-0.2,840,0,,,,,,,,,,,,,,,,,
4059306,1469896733018,,,,,,,-0.03,0.07,0.99,-2.9,0.0,-0.3,840,0,,,,,,,,,,,,,,,,,
4059326,1469896733038,,,,,,,-0.03,0.07,0.98,-2.9,0.0,-0.3,840,0,,,,,,,,,,,,,,,,,
4059346,1469896733058,,,,39,,,-0.02,0.07,0.98,-3.0,0.0,-0.1,840,0,0.0,0,39.540634,-122.332031,0.0,0.417,350.4,11,3,1.3,0,0.0,-1,0.0,,0.0,0
4059366,1469896733078,,,,,,,-0.02,0.07,0.98,-3.0,0.0,-0.0,840,0,,,,,,,,,,,,,,,,,
4059386,1469896733098,,,,,,,-0.02,0.07,0.98,-3.0,0.0,-0.0,860,0,,,,,,,,,,,,,,,,,
4059406,1469896733118,,,,,,,-0.01,0.07,0.99,-2.9,0.0,-0.1,860,0,,,,,,,,,,,,,,,,,
4059426,1469896733138,,,,,,,-0.02,0.07,0.98,-2.9,-0.0,-0.2,860,0,,,,,,,,,,,,,,,,,
4059446,1469896733158,0,131.7,137.1,37,133.5,,-0.02,0.07,0.99,-2.9,0.0,-0.3,840,0,0.0,0,39.540634,-122.332031,0.0,0.417,350.4,11,3,1.3,0,0.0,-1,0.0,0.0,0.0,0
4059466,1469896733178,,,,,,,-0.01,0.06,0.98,-2.9,0.1,-0.3,860,0,,,,,,,,,,,,,,,,,
4059486,1469896733198,,,,,,,-0.01,0.06,0.98,-3.0,0.0,-0.2,860,0,,,,,,,,,,,,,,,,,
4059506,1469896733218,,,,,,,-0.01,0.07,0.98,-2.9,0.1,-0.1,860,0,,,,,,,,,,,,,,,,,
4059526,1469896733238,,,,,,,-0.01,0.07,0.98,-3.0,0.1,-0.0,860,0,,,,,,,,,,,,,,,,,
4059546,1469896733258,,,,38,,,-0.01,0.08,0.98,-3.0,0.1,-0.0,860,0,0.0,0,39.540634,-122.332031,0.0,0.417,350.4,11,3,1.3,0,0.0,-1,0.0,,0.0,0
4059566,1469896733278,,,,,,,-0.01,0.08,0.98,-2.9,0.1,-0.1,860,0,,,,,,,,,,,,,,,,,
4059586,1469896733298,,,,,,,-0.01,0.08,0.98,-2.9,0.0,-0.2,860,0,,,,,,,,,,,,,,,,,
4059606,1469896733318,,,,,,,-0.01,0.07,0.98,-2.9,0.0,-0.3,860,0,,,,,,,,,,,,,,,,,
4059626,1469896733338,,,,,,,-0.01,0.07,0.98,-2.9,-0.1,-0.3,860,0,,,,,,,,,,,,,,,,,
4059646,1469896733358,0,131.9,137.3,38,132.9,,-0.01,0.07,0.98,-3.0,-0.1,-0.2,860,0,0.0,0,39.540634,-122.332031,0.0,0.417,350.4,11,3,1.3,0,0.0,-1,0.0,0.0,0.0,0
4059666,1469896733378,,,,,,,-0.01,0.08,0.98,-3.0,0.0,-0.1,880,0,,,,,,,,,,,,,,,,,
4059686,1469896733497,,,,,,,-0.01,0.08,0.98,-3.0,0.0,-0.1,880,0,,,,,,,,,,,,,,,,,
4059706,1469896733517,,,,,,,-0.01,0.08,0.98,-3.0,0.0,-0.1,860,0,,,,,,,,,,,,,,,,,
4059726,1469896733537,,,,,,,-0.01,0.08,0.99,-3.0,-0.0,-0.2,860,0,,,,,,,,,,,,,,,,,
4059746,1469896733557,,,,38,,,-0.01,0.08,0.99,-3.0,-0.0,-0.3,860,0,0.0,0,39.540634,-122.332031,0.0,0.417,350.4,11,3,1.3,0,0.0,-1,0.0,,0.0,0
4059766,1469896733577,,,,,,,-0.01,0.07,0.99,-3.0,-0.0,-0.4,860,0,,,,,,,,,,,,,,,,,
4059786,1469896733597,,,,,,,-0.01,0.07,0.98,-3.0,-0.1,-0.3,880,0,,,,,,,,,,,,,,,,,
4059806,1469896733617,,,,,,,-0.01,0.07,0.98,-3.0,-0.1,-0.2,880,0,,,,,,,,,,,,,,,,,
4059826,1469896733637,,,,,,,-0.01,0.07,0.99,-3.0,-0.1,-0.1,880,0,,,,,,,,,,,,,,,,,
4059846,1469896733657,0,131.1,136.5,36,133.5,,-0.01,0.08,0.99,-3.0,-0.0,-0.0,860,0,0.0,0,39.540634,-122.332031,0.0,0.417,350.4,11,3,1.3,0,0.0,-1,0.0,0.0,0.0,0
4059866,1469896733677,,,,,,,-0.0,0.08,0.99,-3.0,-0.0,-0.0,860,0,,,,,,,,,,,,,,,,,
4059886,1469896733598,,,,,,,-0.01,0.08,0.99,-3.0,-0.1,-0.1,860,0,,,,,,,,,,,,,,,,,
4059906,1469896733618,,,,,,,-0.01,0.08,0.98,-3.0,-0.0,-0.2,860,0,,,,,,,,,,,,,,,,,
4059926,1469896733638,,,,,,,-0.01,0.07,0.99,-3.0,-0.0,-0.3,880,0,,,,,,,,,,,,,,,,,
4059946,1469896733658,,,,36,,,-0.01,0.07,0.98,-3.0,-0.1,-0.3,880,0,0.0,0,39.540634,-122.332031,0.0,0.417,350.4,11,3,1.3,0,0.0,-1,0.0,,0.0,0
4059966,1469896733678,,,,,,,-0.01,0.07,0.98,-3.0,-0.1,-0.2,880,0,,,,,,,,,,,,,,,,,
4059986,1469896733697,,,,,,,-0.01,0.07,0.98,-3.0,-0.0,-0.0,860,0,,,,,,,,,,,,,,,,,
4060006,1469896733717,,,,,,,-0.01,0.08,0.98,-3.0,0.0,0.0,860,0,,,,,,,,,,,,,,,,,
4060026,1469896733737,,,,,,,-0.01,0.08,0.99,-3.1,-0.0,0.0,860,0,,,,,,,,,,,,,,,,,
4060046,1469896733757,0,130.8,136.2,39,132.6,14.26,-0.01,0.08,0.99,-3.0,-0.1,-0.1,860,0,0.0,0,39.540634,-122.332031,0.0,0.417,350.4,11,3,1.3,0,0.0,-1,0.0,0.0,0.0,0
4060066,1469896733777,,,,,,,-0.01,0.08,0.99,-3.0,-0.1,-0.2,880,0,,,,,,,,,,,,,,,,,
4060086,1469896733798,,,,,,,-0.01,0.07,0.98,-3.0,-0.1,-0.3,880,0,,,,,,,,,,,,,,,,,
4060106,1469896733818,,,,,,,-0.01,0.07,0.98,-2.9,-0.1,-0.3,860,0,,,,,,,,,,,,,,,,,
4060126,1469896733838,,,,,,,-0.01,0.07,0.98,-3.0,-0.2,-0.2,860,0,,,,,,,,,,,,,,,,,
4060146,1469896733858,,,,39,,,-0.01,0.07,0.98,-3.0,-0.1,-0.1,860,0,0.0,0,39.540634,-122.332031,0.0,0.417,350.4,11,3,1.3,0,0.0,-1,0.0,,0.0,0
4060166,1469896733878,,,,,,,-0.01,0.08,0.98,-3.0,-0.1,0.0,860,0,,,,,,,,,,,,,,,,,
4060186,1469896733891,,,,,,,-0.0,0.08,0.98,-3.1,-0.0,-0.0,860,0,,,,,,,,,,,,,,,,,
4060206,1469896733911,,,,,,,-0.0,0.08,0.98,-3.0,-0.0,-0.1,880,0,,,,,,,,,,,,,,,,,
4060226,1469896733931,,,,,,,-0.01,0.08,0.99,-3.0,-0.1,-0.2,880,0,,,,,,,,,,,,,,,,,
4060246,1469896733951,0,131.5,136.8,37,133.2,,-0.01,0.08,0.98,-3.0,-0.1,-0.3,880,0,0.0,0,39.540634,-122.332031,0.0,0.417,350.4,11,3,1.3,0,0.0,-1,0.0,0.0,0.0,0
4060266,1469896733971,,,,,,,-0.01,0.07,0.98,-3.0,-0.0,-0.3,860,0,,,,,,,,,,,,,,,,,
4060286,1469896733998,,,,,,,-0.01,0.07,0.98,-3.0,-0.1,-0.2,860,0,,,,,,,,,,,,,,,,,
4060306,1469896734018,,,,,,,-0.01,0.07,0.98,-3.0,-0.0,-0.1,860,0,,,,,,,,,,,,,,,,,
4060326,1469896734038,,,,,,,-0.01,0.07,0.98,-3.0,0.0,-0.0,860,0,,,,,,,,,,,,,,,,,
4060346,1469896734058,,,,36,,,-0.01,0.08,0.98,-3.0,0.1,-0.0,880,0,0.0,0,39.540634,-122.332031,0.0,0.417,350.4,11,3,1.3,0,0.0,-1,0.0,,0.0,0
4060366,1469896734078,,,,,,,-0.01,0.08,0.98,-3.0,0.1,-0.1,880,0,,,,,,,,,,,,,,,,,
4060386,1469896734097,,,,,,,-0.0,0.08,0.99,-3.0,0.0,-0.2,860,0,,,,,,,,,,,,,,,,,
4060406,1469896734117,,,,,,,-0.01,0.08,0.98,-3.0,-0.0,-0.2,860,0,,,,,,,,,,,,,,,,,
4060426,1469896734137,,,,,,,-0.01,0.07,0.98,-2.9,0.0,-0.3,880,0,,,,,,,,,,,,,,,,,
4060446,1469896734157,0,131.1,136.4,35,132.3,,-0.01,0.07,0.98,-2.9,-0.1,-0.3,860,0,0.0,0,39.540634,-122.332031,0.0,0.417,350.4,11,3,1.3,0,0.0,-1,0.0,0.0,0.0,0
4060466,1469896734177,,,,,,,-0.01,0.07,0.98,-3.0,-0.1,-0.2,880,0,,,,,,,,,,,,,,,,,
4060486,1469896734292,,,,,,,-0.01,0.07,0.98,-3.0,-0.0,-0.0,880,0,,,,,,,,,,,,,,,,,
4060506,1469896734312,,,,,,,-0.01,0.08,0.98,-3.0,0.0,0.0,880,0,,,,,,,,,,,,,,,,,
4060526,1469896734332,,,,,,,-0.01,0.08,0.98,-3.0,0.0,0.0,880,0,,,,,,,,,,,,,,,,,
4060546,1469896734352,,,,39,,,-0.0,0.08,0.98,-3.0,-0.0,-0.0,860,0,0.0,0,39.540634,-122.332031,0.0,0.417,350.4,11,3,1.3,0,0.0,-1,0.0,,0.0,0
4060566,1469896734372,,,,,,,-0.01,0.09,0.98,-3.0,-0.1,-0.2,880,0,,,,,,,,,,,,,,,,,
4060586,1469896734392,,,,,,,-0.01,0.08,0.98,-2.9,-0.1,-0.3,880,0,,,,,,,,,,,,,,,,,
4060606,1469896734412,,,,,,,-0.01,0.07,0.98,-2.9,-0.0,-0.3,880,0,,,,,,,,,,,,,,,,,
4060626,1469896734432,,,,,,,-0.01,0.07,0.98,-2.9,-0.1,-0.3,880,0,,,,,,,,,,,,,,,,,
4060646,1469896734452,0,131.4,136.8,40,133.5,,-0.01,0.07,0.98,-3.0,-0.1,-0.2,880,0,0.0,0,39.540634,-122.332031,0.0,0.417,350.4,11,3,1.3,0,0.0,-1,0.0,0.0,0.0,0
4060666,1469896734472,,,,,,,-0.01,0.07,0.98,-3.0,-0.0,-0.1,880,0,,,,,,,,,,,,,,,,,
4060686,1469896734397,,,,,,,-0.01,0.08,0.98,-3.0,-0.0,-0.0,860,0,,,,,,,,,,,,,,,,,
4060706,1469896734417,,,,,,,-0.0,0.07,0.98,-3.0,0.0,-0.0,880,0,,,,,,,,,,,,,,,,,
4060726,1469896734437,,,,,,,-0.01,0.08,0.99,-3.0,0.0,-0.1,860,0,,,,,,,,,,,,,,,,,
4060746,1469896734457,,,,40,,,-0.01,0.08,0.98,-3.0,-0.0,-0.2,880,0,0.0,0,39.540634,-122.332031,0.0,0.417,350.4,11,3,1.3,0,0.0,-1,0.0,,0.0,0
4060766,1469896734477,,,,,,,-0.01,0.07,0.98,-2.9,-0.1,-0.3,880,0,,,,,,,,,,,,,,,,,
4060786,1469896734497,,,,,,,-0.01,0.07,0.98,-2.9,-0.0,-0.3,880,0,,,,,,,,,,,,,,,,,
4060806,1469896734517,,,,,,,-0.01,0.06,0.98,-3.0,-0.1,-0.2,860,0,,,,,,,,,,,,,,,,,
4060826,1469896734537,,,,,,,-0.01,0.07,0.98,-3.0,-0.0,-0.1,860,0,,,,,,,,,,,,,,,,,
4060846,1469896734557,0,131.1,136.6,40,133.2,,-0.01,0.07,0.98,-3.0,-0.0,0.0,880,0,0.0,0,39.540634,-122.332031,0.0,0.417,350.4,11,3,1.3,0,0.0,-1,0.0,0.0,0.0,0
4060866,1469896734577,,,,,,,-0.0,0.08,0.98,-3.0,0.0,-0.0,880,0,,,,,,,,,,,,,,,,,
4060886,1469896734597,,,,,,,-0.0,0.08,0.99,-3.0,0.0,-0.1,880,0,,,,,,,,,,,,,,,,,
4060906,1469896734617,,,,,,,-0.01,0.08,0.99,-3.0,-0.0,-0.2,860,0,,,,,,,,,,,,,,,,,
4060926,1469896734637,,,,,,,-0.01,0.07,0.99,-3.0,-0.0,-0.3,860,0,,,,,,,,,,,,,,,,,
4060946,1469896734657,,,,39,,,-0.01,0.07,0.99,-2.9,-0.0,-0.3,860,0,0.0,0,39.540634,-122.332031,0.0,0.417,350.4,11,3,1.3,0,0.0,-1,0.0,,0.0,0
4060966,1469896734677,,,,,,,-0.01,0.07,0.98,-3.0,-0.1,-0.2,860,0,,,,,,,,,,,,,,,,,
4060986,1469896734697,,,,,,,-0.01,0.07,0.99,-3.0,-0.0,-0.1,860,0,,,,,,,,,,,,,,,,,
4061006,1469896734717,,,,,,,-0.01,0.07,0.98,-3.0,0.0,-0.0,860,0,,,,,,,,,,,,,,,,,
4061026,1469896734737,,,,,,,-0.0,0.08,0.98,-3.0,0.0,-0.0,880,0,,,,,,,,,,,,,,,,,
4061046,1469896734757,0,131.7,137.2,40,132.9,14.28,-0.0,0.08,0.99,-3.0,0.0,-0.1,860,0,0.0,0,39.540634,-122.332031,0.0,0.417,350.4,11,3,1.3,0,0.0,-1,0.0,0.0,0.0,0
4061066,1469896734777,,,,,,,-0.01,0.08,0.99,-2.9,-0.0,-0.2,860,0,,,,,,,,,,,,,,,,,
4061086,1469896734798,,,,,,,-0.01,0.07,0.99,-2.9,-0.0,-0.3,860,0,,,,,,,,,,,,,,,,,
4061106,1469896734818,,,,,,,-0.01,0.07,0.98,-2.9,-0.0,-0.3,860,0,,,,,,,,,,,,,,,,,
4061126,1469896734838,,,,,,,-0.01,0.07,0.98,-2.9,-0.0,-0.2,860,0,,,,,,,,,,,,,,,,,
4061146,1469896734858,,,,38,,,-0.01,0.07,0.98,-3.0,0.0,-0.1,860,0,0.0,0,39.540634,-122.332031,0.0,0.417,350.4,11,3,1.3,0,0.0,-1,0.0,,0.0,0
4061166,1469896734878,,,,,,,-0.0,0.08,0.99,-3.0,0.0,-0.0,880,0,,,,,,,,,,,,,,,,,
4061186,1469896734891,,,,,,,-0.0,0.08,0.99,-3.0,0.0,-0.1,840,0,,,,,,,,,,,,,,,,,
4061206,1469896734911,,,,,,,-0.0,0.08,0.99,-3.0,-0.0,-0.2,860,0,,,,,,,,,,,,,,,,,
4061226,1469896734931,,,,,,,-0.01,0.07,0.98,-2.9,-0.0,-0.3,840,0,,,,,,,,,,,,,,,,,
4061246,1469896734951,0,130.6,136.0,35,131.7,,-0.01,0.07,0.99,-2.9,0.0,-0.3,860,0,0.0,0,39.540634,-122.332031,0.0,0.417,350.4,11,3,1.3,0,0.0,-1,0.0,0.0,0.0,0
4061266,1469896734971,,,,,,,-0.01,0.07,0.98,-2.9,-0.1,-0.3,860,0,,,,,,,,,,,,,,,,,
4061286,1469896735096,,,,,,,-0.01,0.07,0.98,-3.0,-0.0,-0.2,860,0,,,,,,,,,,,,,,,,,
4061306,1469896735116,,,,,,,-0.0,0.07,0.98,-3.0,0.0,-0.0,880,0,,,,,,,,,,,,,,,,,
4061326,1469896735136,,,,,,,-0.0,0.08,0.98,-3.0,0.0,-0.0,840,0,,,,,,,,,,,,,,,,,
4061346,1469896735156,,,,38,,,-0.0,0.08,0.99,-3.0,0.0,-0.1,860,0,0.0,0,39.540634,-122.332031,0.0,0.417,350.4,11,3,1.3,0,0.0,-1,0.0,,0.0,0
4061366,1469896735176,,,,,,,-0.01,0.08,0.98,-2.9,-0.0,-0.2,840,0,,,,,,,,,,,,,,,,,
4061386,1469896735196,,,,,,,-0.01,0.07,0.99,-2.9,0.0,-0.3,860,0,,,,,,,,,,,,,,,,,
4061406,1469896735216,,,,,,,-0.01,0.07,0.98,-2.9,-0.1,-0.3,860,40,,,,,,,,,,,,,,,,,
4061426,1469896735236,,,,,,,-0.01,0.07,0.98,-3.0,-0.1,-0.2,880,40,,,,,,,,,,,,,,,,,
4061446,1469896735256,0,131.0,136.6,36,132.5,,-0.0,0.07,0.98,-3.0,0.0,-0.1,880,40,0.0,0,39.540634,-122.332031,0.0,0.417,350.4,11,3,1.3,0,0.0,-1,0.0,0.0,0.0,0
4061466,1469896735276,,,,,,,-0.0,0.08,0.98,-3.0,0.0,-0.0,860,40,,,,,,,,,,,,,,,,,
4061486,1469896735197,,,,,,,-0.0,0.08,0.99,-3.0,0.0,-0.0,860,1538461,,,,,,,,,,,,,,,,,
4061506,1469896735217,,,,,,,-0.0,0.08,0.99,-3.0,-0.0,-0.1,860,0,,,,,,,,,,,,,,,,,
4061526,1469896735237,,,,,,,-0.01,0.08,0.99,-3.0,-0.0,-0.2,860,0,,,,,,,,,,,,,,,,,
4061546,1469896735257,,,,42,,,-0.01,0.07,0.99,-2.9,0.0,-0.3,860,344,21.5,0,39.540634,-122.332031,0.0,0.417,350.4,11,3,1.3,0,0.0,-1,0.0,,0.0,0
4061566,1469896735277,,,,,,,-0.01,0.07,0.98,-2.9,-0.1,-0.2,880,344,,,,,,,,,,,,,,,,,
4061586,1469896735298,,,,,,,-0.01,0.06,0.98,-3.0,-0.1,-0.2,880,344,,,,,,,,,,,,,,,,,
4061606,1469896735318,,,,,,,-0.0,0.07,0.98,-3.0,-0.0,-0.1,860,344,,,,,,,,,,,,,,,,,
4061626,1469896735338,,,,,,,-0.0,0.08,0.98,-3.0,-0.0,0.0,860,0,,,,,,,,,,,,,,,,,
4061646,1469896735358,0,131.2,136.6,38,131.9,,-0.0,0.08,0.99,-3.0,0.0,-0.0,840,0,2.558,0,39.540634,-122.332031,0.0,0.417,350.4,11,3,1.3,0,0.0,-1,0.0,0.0,0.0,0
4061666,1469896735378,,,,,,,-0.0,0.08,0.99,-3.0,-0.0,-0.1,860,409,,,,,,,,,,,,,,,,,
4061686,1469896735398,,,,,,,-0.01,0.08,0.98,-3.0,-0.0,-0.2,860,409,,,,,,,,,,,,,,,,,
4061706,1469896735418,,,,,,,-0.0,0.07,0.98,-3.0,0.0,-0.3,880,409,,,,,,,,,,,,,,,,,
4061726,1469896735438,,,,,,,-0.0,0.07,0.98,-2.9,-0.1,-0.2,860,409,,,,,,,,,,,,,,,,,
4061746,1469896735458,,,,38,,,-0.0,0.07,0.98,-3.0,-0.0,-0.1,860,409,2.103,0,39.540634,-122.332031,0.0,0.417,350.4,11,3,1.3,0,0.0,-1,0.0,,0.0,0
4061766,1469896735478,,,,,,,-0.0,0.08,0.98,-3.0,0.0,0.0,860,409,,,,,,,,,,,,,,,,,
4061786,1469896735498,,,,,,,0.0,0.08,0.98,-3.0,0.0,0.0,860,409,,,,,,,,,,,,,,,,,
4061806,1469896735518,,,,,,,0.0,0.08,0.99,-3.0,0.0,-0.0,860,12,,,,,,,,,,,,,,,,,
4061826,1469896735538,,,,,,,-0.0,0.08,0.99,-2.9,0.0,-0.1,860,12,,,,,,,,,,,,,,,,,
4061846,1469896735558,0,131.6,137.1,38,132.3,,-0.0,0.07,0.99,-2.9,0.1,-0.2,880,12,2.103,0,39.540634,-122.332031,0.0,0.417,350.4,11,3,1.3,0,0.0,-1,0.0,0.0,0.0,0
4061866,1469896735578,,,,,,,-0.0,0.07,0.99,-2.9,0.0,-0.2,860,12,,,,,,,,,,,,,,,,,
4061886,1469896735598,,,,,,,-0.0,0.07,0.98,-2.9,-0.0,-0.2,860,12,,,,,,,,,,,,,,,,,
4061906,1469896735618,,,,,,,-0.0,0.07,0.98,-2.9,0.1,-0.1,860,12,,,,,,,,,,,,,,,,,
4061926,1469896735638,,,,,,,-0.0,0.08,0.98,-2.9,0.1,0.0,840,12,,,,,,,,,,,,,,,,,
4061946,1469896735658,,,,39,,,0.0,0.08,0.98,-3.0,0.1,0.0,860,12,71.667,0,39.540634,-122.332031,0.0,0.417,350.4,11,3,1.3,0,0.0,-1,0.0,,0.0,0
4061966,1469896735678,,,,,,,-0.0,0.07,0.99,-2.9,0.0,-0.1,860,12,,,,,,,,,,,,,,,,,
4061986,1469896735698,,,,,,,-0.01,0.07,0.99,-2.9,0.0,-0.1,880,12,,,,,,,,,,,,,,,,,
4062006,1469896735718,,,,,,,-0.01,0.07,0.99,-2.9,0.0,-0.2,860,12,,,,,,,,,,,,,,,,,
4062026,1469896735738,,,,,,,-0.01,0.06,0.98,-2.9,-0.1,-0.2,840,13,,,,,,,,,,,,,,,,,
4062046,1469896735758,0,131.6,137.1,38,132.3,14.24,-0.01,0.06,0.98,-2.9,-0.0,-0.1,840,13,73.333,0,39.540634,-122.332031,0.0,0.417,350.4,11,3,1.3,0,0.0,-1,0.0,0.0,0.0,0
4062066,1469896735778,,,,,,,-0.01,0.07,0.98,-3.0,-0.0,0.1,860,13,,,,,,,,,,,,,,,,,
4062086,1469896735898,,,,,,,-0.0,0.07,0.98,-3.0,-0.0,0.1,860,13,,,,,,,,,,,,,,,,,
4062106,1469896735918,,,,,,,-0.0,0.07,0.99,-3.0,-0.1,0.0,860,13,,,,,,,,,,,,,,,,,
4062126,1469896735938,,,,,,,-0.01,0.08,0.99,-2.9,-0.1,-0.1,880,13,,,,,,,,,,,,,,,,,
4062146,1469896735958,,,,39,,,-0.01,0.07,0.99,-2.9,-0.1,-0.2,840,13,66.154,0,39.540634,-122.332031,0.0,0.417,350.4,11,3,1.3,0,0.0,-1,0.0,,0.0,0
4062166,1469896735978,,,,,,,-0.01,0.07,0.98,-2.9,-0.1,-0.3,860,13,,,,,,,,,,,,,,,,,
4062186,1469896735998,,,,,,,-0.01,0.06,0.98,-3.0,-0.1,-0.1,860,13,,,,,,,,,,,,,,,,,
4062206,1469896736018,,,,,,,-0.01,0.07,0.98,-3.0,-0.3,0.0,860,13,,,,,,,,,,,,,,,,,
4062226,1469896736038,,,,,,,-0.01,0.07,0.98,-3.1,-0.2,0.1,860,13,,,,,,,,,,,,,,,,,
4062246,1469896736058,0,131.1,136.4,36,131.9,,-0.0,0.07,0.98,-3.1,-0.2,0.1,860,13,66.154,0,39.540634,-122.332031,0.0,0.417,350.4,11,3,1.3,0,0.0,-1,0.0,0.0,0.0,0
4062266,1469896736078,,,,,,,-0.0,0.07,0.99,-3.1,-0.3,0.0,880,13,,,,,,,,,,,,,,,,,
4062286,1469896735999,,,,,,,-0.01,0.07,0.99,-3.0,-0.3,-0.1,860,13,,,,,,,,,,,,,,,,,
4062306,1469896736019,,,,,,,-0.01,0.07,0.99,-2.9,-0.3,-0.2,860,13,,,,,,,,,,,,,,,,,
4062326,1469896736039,,,,,,,-0.01,0.07,0.98,-2.9,-0.3,-0.2,860,15,,,,,,,,,,,,,,,,,
4062346,1469896736059,,,,38,,,-0.01,0.06,0.98,-2.9,-0.5,-0.2,860,15,66.154,0,39.540634,-122.332031,0.0,0.417,350.4,11,3,1.3,0,0.0,-1,0.0,,0.0,0
4062366,1469896736079,,,,,,,-0.01,0.06,0.98,-3.0,-0.3,-0.1,860,15,,,,,,,,,,,,,,,,,
4062386,1469896736099,,,,,,,-0.01,0.07,0.97,-2.9,-0.2,-0.0,880,15,,,,,,,,,,,,,,,,,
4062406,1469896736119,,,,,,,-0.0,0.07,0.98,-3.0,-0.2,0.0,900,15,,,,,,,,,,,,,,,,,
4062426,1469896736139,,,,,,,0.0,0.08,0.98,-2.9,-0.2,0.0,860,15,,,,,,,,,,,,,,,,,
4062446,1469896736159,0,131.5,136.7,39,132.0,,-0.0,0.08,0.99,-2.9,-0.2,-0.0,860,15,58.667,0,39.540634,-122.332031,0.0,0.417,350.4,11,3,1.3,0,0.0,-1,0.0,0.0,0.0,0
4062466,1469896736179,,,,,,,-0.01,0.07,0.98,-2.9,-0.2,-0.1,860,15,,,,,,,,,,,,,,,,,
4062486,1469896736199,,,,,,,-0.01,0.07,0.99,-2.9,-0.2,-0.2,860,15,,,,,,,,,,,,,,,,,
4062506,1469896736219,,,,,,,-0.01,0.06,0.98,-2.9,-0.2,-0.2,860,15,,,,,,,,,,,,,,,,,
4062526,1469896736239,,,,,,,-0.01,0.06,0.98,-3.0,-0.3,-0.1,860,15,,,,,,,,,,,,,,,,,
4062546,1469896736259,,,,38,,,-0.0,0.07,0.98,-3.0,-0.1,0.0,900,15,57.333,0,39.540634,-122.332031,0.0,0.417,350.4,11,3,1.3,0,0.0,-1,0.0,,0.0,0
4062566,1469896736279,,,,,,,-0.0,0.08,0.98,-3.0,0.0,0.1,860,15,,,,,,,,,,,,,,,,,
4062586,1469896736299,,,,,,,-0.0,0.06,0.99,-3.0,0.4,0.0,880,15,,,,,,,,,,,,,,,,,
4062606,1469896736319,,,,,,,-0.0,0.07,0.99,-3.0,0.3,-0.0,880,16,,,,,,,,,,,,,,,,,
4062626,1469896736339,,,,,,,-0.01,0.07,0.99,-3.0,0.3,-0.2,860,16,,,,,,,,,,,,,,,,,
4062646,1469896736359,0,130.2,135.7,39,131.4,,-0.01,0.06,0.99,-3.0,0.3,-0.3,860,16,58.667,0,39.540634,-122.332031,0.0,0.417,350.4,11,3,1.3,0,0.0,-1,0.0,0.0,0.0,0
4062666,1469896736379,,,,,,,-0.01,0.07,0.99,-3.0,0.2,-0.2,900,16,,,,,,,,,,,,,,,,,
4062686,1469896736399,,,,,,,-0.02,0.06,0.99,-3.0,0.1,-0.1,860,16,,,,,,,,,,,,,,,,,
4062706,1469896736419,,,,,,,-0.03,0.06,0.99,-3.0,0.2,-0.1,860,16,,,,,,,,,,,,,,,,,
4062726,1469896736439,,,,,,,-0.03,0.07,0.99,-3.1,0.2,-0.0,860,16,,,,,,,,,,,,,,,,,
4062746,1469896736459,,,,35,,,-0.04,0.07,0.99,-3.1,0.2,-0.0,860,16,56.25,0,39.540634,-122.332031,0.0,0.417,350.4,11,3,1.3,0,0.0,-1,0.0,,0.0,0
4062766,1469896736479,,,,,,,-0.05,0.08,0.99,-3.1,0.2,-0.1,860,16,,,,,,,,,,,,,,,,,
4062786,1469896736495,,,,,,,-0.06,0.08,0.99,-3.1,0.2,-0.2,860,0,,,,,,,,,,,,,,,,,
4062806,1469896736515,,,,,,,-0.07,0.07,0.99,-3.0,0.3,-0.3,880,0,,,,,,,,,,,,,,,,,
4062826,1469896736535,,,,,,,-0.07,0.07,0.99,-3.0,0.2,-0.3,840,0,,,,,,,,,,,,,,,,,
4062846,1469896736555,0,131.3,136.4,38,131.5,,-0.07,0.07,0.98,-3.0,0.1,-0.2,840,0,0.001,0,39.540634,-122.332031,0.0,0.417,350.4,11,3,1.3,0,0.0,-1,0.0,0.0,0.0,0
4062866,1469896736575,,,,,,,-0.06,0.07,0.98,-3.0,0.2,-0.1,860,0,,,,,,,,,,,,,,,,,
4062886,1469896736698,,,,,,,-0.05,0.07,0.98,-3.0,0.2,-0.0,860,0,,,,,,,,,,,,,,,,,
4062906,1469896736718,,,,,,,-0.04,0.07,0.99,-3.0,0.0,-0.1,860,0,,,,,,,,,,,,,,,,,
4062926,1469896736738,,,,,,,-0.03,0.07,0.98,-2.9,-0.1,-0.2,860,0,,,,,,,,,,,,,,,,,
4062946,1469896736758,,,,37,,,-0.02,0.07,0.98,-2.9,-0.1,-0.2,880,0,0.0,0,39.540634,-122.332031,0.0,0.417,350.4,11,3,1.3,0,0.0,-1,0.0,,0.0,0
4062966,1469896736778,,,,,,,-0.02,0.06,0.98,-2.9,-0.2,-0.3,840,0,,,,,,,,,,,,,,,,,
4062986,1469896736798,,,,,,,-0.01,0.06,0.98,-2.9,-0.2,-0.2,860,0,,,,,,,,,,,,,,,,,
4063006,1469896736818,,,,,,,-0.01,0.06,0.98,-3.0,-0.1,-0.1,860,0,,,,,,,,,,,,,,,,,
4063026,1469896736838,,,,,,,-0.02,0.07,0.98,-3.0,-0.1,0.0,860,0,,,,,,,,,,,,,,,,,
4063046,1469896736858,0,131.6,137.0,39,132.5,14.31,-0.02,0.07,0.99,-3.0,0.0,0.1,860,0,0.0,0,39.540634,-122.332031,0.0,0.417,350.4,11,3,1.3,0,0.0,-1,0.0,0.0,0.0,0
4063066,1469896736878,,,,,,,-0.02,0.07,0.99,-3.1,0.0,0.1,860,0,,,,,,,,,,,,,,,,,
4063086,1469896736798,,,,,,,-0.02,0.07,0.99,-3.0,0.1,-0.0,880,0,,,,,,,,,,,,,,,,,
4063106,1469896736818,,,,,,,-0.02,0.07,0.99,-3.0,0.1,-0.1,840,0,,,,,,,,,,,,,,,,,
4063126,1469896736838,,,,,,,-0.02,0.07,0.99,-3.0,0.1,-0.2,860,0,,,,,,,,,,,,,,,,,
4063146,1469896736858,,,,39,,,-0.02,0.07,0.98,-3.0,-0.0,-0.1,860,0,0.0,0,39.540634,-122.332031,0.0,0.417,350.4,11,3,1.3,0,0.0,-1,0.0,,0.0,0
4063166,1469896736878,,,,,,,-0.01,0.07,0.98,-3.0,-0.0,-0.0,860,0,,,,,,,,,,,,,,,,,
4063186,1469896736891,,,,,,,-0.01,0.08,0.98,-3.1,-0.0,0.0,860,0,,,,,,,,,,,,,,,,,
4063206,1469896736911,,,,,,,-0.01,0.08,0.98,-3.1,-0.1,0.0,860,0,,,,,,,,,,,,,,,,,
4063226,1469896736931,,,,,,,-0.01,0.08,0.99,-3.1,-0.1,-0.1,880,0,,,,,,,,,,,,,,,,,
4063246,1469896736951,0,131.4,136.9,38,132.5,,-0.01,0.08,0.99,-3.0,-0.1,-0.2,840,0,0.0,0,39.540634,-122.332031,0.0,0.417,350.4,11,3,1.3,0,0.0,-1,0.0,0.0,0.0,0
4063266,1469896736971,,,,,,,-0.02,0.07,0.99,-3.0,-0.1,-0.3,860,0,,,,,,,,,,,,,,,,,
4063286,1469896736999,,,,,,,-0.01,0.07,0.99,-3.0,-0.0,-0.3,860,0,,,,,,,,,,,,,,,,,
4063306,1469896737019,,,,,,,-0.01,0.07,0.98,-3.0,-0.1,-0.2,860,0,,,,,,,,,,,,,,,,,
4063326,1469896737039,,,,,,,-0.01,0.07,0.99,-3.0,-0.0,-0.0,860,0,,,,,,,,,,,,,,,,,
4063346,1469896737059,,,,39,,,-0.01,0.07,0.99,-3.0,0.1,0.0,880,0,0.0,0,39.540634,-122.332031,0.0,0.417,350.4,11,3,1.3,0,0.0,-1,0.0,,0.0,0
4063366,1469896737079,,,,,,,-0.01,0.07,0.99,-3.0,0.0,0.0,900,0,,,,,,,,,,,,,,,,,
4063386,1469896737098,,,,,,,-0.01,0.07,0.99,-3.0,0.0,-0.1,860,0,,,,,,,,,,,,,,,,,
4063406,1469896737118,,,,,,,-0.01,0.08,0.99,-3.0,-0.1,-0.2,880,0,,,,,,,,,,,,,,,,,
4063426,1469896737138,,,,,,,-0.02,0.07,0.98,-2.9,-0.1,-0.3,860,0,,,,,,,,,,,,,,,,,
4063446,1469896737158,0,131.3,136.7,40,132.4,,-0.01,0.07,0.98,-2.9,-0.0,-0.3,860,0,0.0,0,39.540634,-122.332031,0.0,0.417,350.4,11,3,1.3,0,0.0,-1,0.0,0.0,0.0,0
4063466,1469896737178,,,,,,,-0.01,0.06,0.98,-3.0,-0.1,-0.2,860,0,,,,,,,,,,,,,,,,,
4063486,1469896737199,,,,,,,-0.01,0.06,0.98,-3.0,-0.1,-0.1,860,0,,,,,,,,,,,,,,,,,
4063506,1469896737219,,,,,,,-0.01,0.07,0.99,-3.0,-0.0,-0.0,900,0,,,,,,,,,,,,,,,,,
4063526,1469896737239,,,,,,,-0.01,0.08,0.99,-3.0,0.0,0.0,860,0,,,,,,,,,,,,,,,,,
4063546,1469896737259,,,,40,,,-0.01,0.07,0.99,-3.0,0.0,-0.0,860,0,0.0,0,39.540634,-122.332031,0.0,0.417,350.4,11,3,1.3,0,0.0,-1,0.0,,0.0,0
4063566,1469896737279,,,,,,,-0.01,0.08,0.99,-3.0,-0.0,-0.1,860,0,,,,,,,,,,,,,,,,,
4063586,1469896737298,,,,,,,-0.01,0.08,0.99,-3.0,-0.0,-0.2,860,0,,,,,,,,,,,,,,,,,
4063606,1469896737318,,,,,,,-0.01,0.07,0.99,-3.0,0.0,-0.3,860,0,,,,,,,,,,,,,,,,,
4063626,1469896737338,,,,,,,-0.01,0.07,0.98,-3.0,-0.1,-0.2,900,0,,,,,,,,,,,,,,,,,
4063646,1469896737358,0,130.7,136.4,39,132.3,,-0.01,0.07,0.98,-3.0,-0.1,-0.2,900,0,0.0,0,39.540634,-122.332031,0.0,0.417,350.4,11,3,1.3,0,0.0,-1,0.0,0.0,0.0,0
4063666,1469896737378,,,,,,,-0.01,0.07,0.99,-3.0,-0.0,-0.0,840,0,,,,,,,,,,,,,,,,,
4063686,1469896737498,,,,,,,-0.01,0.07,0.99,-3.0,0.0,0.0,860,0,,,,,,,,,,,,,,,,,
4063706,1469896737518,,,,,,,-0.01,0.07,0.99,-3.1,0.0,-0.0,860,0,,,,,,,,,,,,,,,,,
4063726,1469896737538,,,,,,,-0.01,0.08,0.99,-3.0,0.0,-0.1,860,0,,,,,,,,,,,,,,,,,
4063746,1469896737558,,,,34,,,-0.01,0.08,0.99,-3.0,0.0,-0.2,860,0,0.0,0,39.540634,-122.332031,0.0,0.417,350.4,11,3,1.3,0,0.0,-1,0.0,,0.0,0
4063766,1469896737578,,,,,,,-0.01,0.07,0.99,-2.9,0.0,-0.3,900,0,,,,,,,,,,,,,,,,,
4063786,1469896737598,,,,,,,-0.01,0.07,0.98,-2.9,0.0,-0.3,860,0,,,,,,,,,,,,,,,,,
4063806,1469896737618,,,,,,,-0.01,0.07,0.98,-3.0,-0.1,-0.2,860,0,,,,,,,,,,,,,,,,,
4063826,1469896737638,,,,,,,-0.01,0.07,0.99,-3.0,0.0,-0.1,860,0,,,,,,,,,,,,,,,,,
4063846,1469896737658,0,130.0,135.5,41,131.6,,-0.01,0.07,0.99,-3.0,0.1,-0.0,860,0,0.0,0,39.540634,-122.332031,0.0,0.417,350.4,11,3,1.3,0,0.0,-1,0.0,0.0,0.0,0
4063866,1469896737678,,,,,,,-0.01,0.07,0.99,-3.0,0.1,-0.0,860,0,,,,,,,,,,,,,,,,,
4063886,1469896737598,,,,,,,-0.01,0.08,0.99,-3.0,-0.0,-0.1,860,0,,,,,,,,,,,,,,,,,
4063906,1469896737618,,,,,,,-0.01,0.07,0.99,-3.0,-0.0,-0.2,880,0,,,,,,,,,,,,,,,,,
4063926,1469896737638,,,,,,,-0.01,0.07,0.99,-2.9,-0.0,-0.3,840,0,,,,,,,,,,,,,,,,,
4063946,1469896737658,,,,39,,,-0.01,0.07,0.98,-2.9,-0.1,-0.3,860,0,0.0,0,39.540634,-122.332031,0.0,0.417,350.4,11,3,1.3,0,0.0,-1,0.0,,0.0,0
4063966,1469896737678,,,,,,,-0.01,0.06,0.98,-3.0,-0.1,-0.1,860,0,,,,,,,,,,,,,,,,,
4063986,1469896737698,,,,,,,-0.01,0.07,0.98,-3.0,-0.0,0.0,860,0,,,,,,,,,,,,,,,,,
4064006,1469896737718,,,,,,,-0.01,0.07,0.98,-3.0,-0.0,0.1,860,0,,,,,,,,,,,,,,,,,
4064026,1469896737738,,,,,,,-0.01,0.07,0.99,-3.0,-0.1,0.0,860,0,,,,,,,,,,,,,,,,,
4064046,1469896737758,0,131.3,136.7,38,132.4,14.34,-0.01,0.07,0.99,-3.0,-0.1,-0.1,900,0,0.0,0,39.540634,-122.332031,0.0,0.417,350.4,11,3,1.3,0,0.0,-1,0.0,0.0,0.0,0
4064066,1469896737778,,,,,,,-0.01,0.07,0.98,-3.0,-0.1,-0.2,860,0,,,,,,,,,,,,,,,,,
4064086,1469896737799,,,,,,,-0.01,0.07,0.98,-2.9,-0.1,-0.3,860,0,,,,,,,,,,,,,,,,,
4064106,1469896737819,,,,,,,-0.01,0.06,0.98,-3.0,-0.2,-0.3,860,0,,,,,,,,,,,,,,,,,
4064126,1469896737839,,,,,,,-0.01,0.06,0.98,-3.0,-0.2,-0.1,860,0,,,,,,,,,,,,,,,,,
4064146,1469896737859,,,,41,,,-0.01,0.07,0.98,-3.0,-0.1,-0.0,860,0,0.0,0,39.540634,-122.332031,0.0,0.417,350.4,11,3,1.3,0,0.0,-1,0.0,,0.0,0
4064166,1469896737879,,,,,,,-0.01,0.07,0.98,-3.0,-0.0,0.0,860,0,,,,,,,,,,,,,,,,,
4064186,1469896737893,,,,,,,-0.01,0.07,0.98,-3.0,-0.0,-0.0,900,0,,,,,,,,,,,,,,,,,
4064206,1469896737913,,,,,,,-0.01,0.07,0.99,-3.0,-0.1,-0.1,860,0,,,,,,,,,,,,,,,,,
4064226,1469896737933,,,,,,,-0.01,0.07,0.98,-3.0,-0.1,-0.2,880,0,,,,,,,,,,,,,,,,,
4064246,1469896737953,0,131.4,136.4,40,131.8,,-0.01,0.06,0.98,-2.9,-0.0,-0.3,880,0,0.0,0,39.540634,-122.332031,0.0,0.417,350.4,11,3,1.3,0,0.0,-1,0.0,0.0,0.0,0
4064266,1469896737973,,,,,,,-0.01,0.06,0.98,-2.9,-0.0,-0.3,880,0,,,,,,,,,,,,,,,,,
4064286,1469896737999,,,,,,,-0.01,0.06,0.98,-3.0,-0.1,-0.2,880,0,,,,,,,,,,,,,,,,,
4064306,1469896738019,,,,,,,-0.01,0.06,0.98,-3.0,0.0,-0.1,860,0,,,,,,,,,,,,,,,,,
4064326,1469896738039,,,,,,,-0.01,0.07,0.98,-3.0,0.0,0.0,900,0,,,,,,,,,,,,,,,,,
4064346,1469896738059,,,,38,,,-0.01,0.07,0.98,-3.0,0.1,0.0,860,0,0.0,0,39.540634,-122.332031,0.0,0.417,350.4,11,3,1.3,0,0.0,-1,0.0,,0.0,0
4064366,1469896738079,,,,,,,-0.01,0.07,0.99,-3.0,0.0,-0.1,860,0,,,,,,,,,,,,,,,,,
4064386,1469896738099,,,,,,,-0.01,0.07,0.98,-3.0,0.0,-0.2,860,0,,,,,,,,,,,,,,,,,
4064406,1469896738119,,,,,,,-0.01,0.07,0.98,-2.9,-0.0,-0.3,860,0,,,,,,,,,,,,,,,,,
4064426,1469896738139,,,,,,,-0.01,0.06,0.98,-2.9,-0.0,-0.3,860,0,,,,,,,,,,,,,,,,,
4064446,1469896738159,0,131.1,136.5,38,132.4,,-0.01,0.06,0.98,-2.9,-0.1,-0.2,900,0,0.0,0,39.540634,-122.332031,0.0,0.417,350.4,11,3,1.3,0,0.0,-1,0.0,0.0,0.0,0
4064466,1469896738179,,,,,,,-0.01,0.06,0.98,-3.0,-0.0,-0.1,900,0,,,,,,,,,,,,,,,,,
4064486,1469896738298,,,,,,,-0.01,0.07,0.98,-3.0,0.0,-0.0,860,0,,,,,,,,,,,,,,,,,
4064506,1469896738318,,,,,,,-0.01,0.07,0.98,-3.0,-0.0,-0.0,860,0,,,,,,,,,,,,,,,,,
4064526,1469896738338,,,,,,,-0.0,0.07,0.99,-3.0,-0.1,-0.1,860,0,,,,,,,,,,,,,,,,,
4064546,1469896738358,,,,38,,,-0.01,0.08,0.98,-2.9,-0.1,-0.2,860,0,0.0,0,39.540634,-122.332031,0.0,0.417,350.4,11,3,1.3,0,0.0,-1,0.0,,0.0,0
4064566,1469896738378,,,,,,,-0.01,0.07,0.98,-2.9,-0.0,-0.3,860,0,,,,,,,,,,,,,,,,,
4064586,1469896738398,,,,,,,-0.01,0.07,0.98,-2.9,-0.0,-0.3,880,0,,,,,,,,,,,,,,,,,
4064606,1469896738418,,,,,,,-0.01,0.06,0.98,-2.9,-0.1,-0.2,840,0,,,,,,,,,,,,,,,,,
4064626,1469896738438,,,,,,,-0.01,0.06,0.98,-3.0,-0.1,-0.1,840,0,,,,,,,,,,,,,,,,,
4064646,1469896738458,0,130.9,136.4,39,132.3,,-0.01,0.07,0.98,-3.0,0.0,0.0,860,0,0.0,0,39.540634,-122.332031,0.0,0.417,350.4,11,3,1.3,0,0.0,-1,0.0,0.0,0.0,0
4064666,1469896738478,,,,,,,-0.01,0.07,0.98,-3.0,0.1,0.0,860,0,,,,,,,,,,,,,,,,,
4064686,1469896738398,,,,,,,-0.01,0.08,0.99,-3.0,0.0,-0.1,860,0,,,,,,,,,,,,,,,,,
4064706,1469896738418,,,,,,,-0.01,0.08,0.99,-3.0,0.0,-0.2,860,0,,,,,,,,,,,,,,,,,
4064726,1469896738438,,,,,,,-0.01,0.07,0.98,-2.9,0.0,-0.3,900,0,,,,,,,,,,,,,,,,,
4064746,1469896738458,,,,40,,,-0.01,0.07,0.98,-2.9,0.0,-0.4,860,0,0.0,0,39.540634,-122.332031,0.0,0.417,350.4,11,3,1.3,0,0.0,-1,0.0,,0.0,0
4064766,1469896738478,,,,,,,-0.01,0.07,0.98,-2.9,-0.0,-0.3,860,0,,,,,,,,,,,,,,,,,
4064786,1469896738498,,,,,,,-0.01,0.07,0.99,-3.0,-0.0,-0.1,860,0,,,,,,,,,,,,,,,,,
4064806,1469896738518,,,,,,,-0.01,0.07,0.99,-3.0,0.1,-0.0,860,0,,,,,,,,,,,,,,,,,
4064826,1469896738538,,,,,,,-0.01,0.07,0.99,-3.0,0.0,-0.0,860,0,,,,,,,,,,,,,,,,,
4064846,1469896738558,0,131.0,136.2,38,132.1,,-0.01,0.07,0.99,-3.0,-0.0,-0.1,860,0,0.0,0,39.540634,-122.332031,0.0,0.417,350.4,11,3,1.3,0,0.0,-1,0.0,0.0,0.0,0
4064866,1469896738578,,,,,,,-0.01,0.08,0.99,-3.0,0.0,-0.2,900,0,,,,,,,,,,,,,,,,,
4064886,1469896738598,,,,,,,-0.01,0.07,0.99,-2.9,0.1,-0.3,860,0,,,,,,,,,,,,,,,,,
4064906,1469896738618,,,,,,,-0.01,0.07,0.99,-2.9,0.1,-0.3,860,0,,,,,,,,,,,,,,,,,
4064926,1469896738638,,,,,,,-0.01,0.06,0.98,-3.0,-0.0,-0.3,860,0,,,,,,,,,,,,,,,,,
4064946,1469896738658,,,,36,,,-0.01,0.06,0.98,-3.0,0.0,-0.2,860,0,0.0,0,39.540634,-122.332031,0.0,0.417,350.4,11,3,1.3,0,0.0,-1,0.0,,0.0,0
4064966,1469896738678,,,,,,,-0.01,0.07,0.98,-3.0,0.1,-0.0,860,0,,,,,,,,,,,,,,,,,
4064986,1469896738699,,,,,,,-0.01,0.07,0.98,-3.0,0.1,-0.0,860,0,,,,,,,,,,,,,,,,,
4065006,1469896738719,,,,,,,-0.01,0.07,0.99,-3.0,0.1,-0.1,900,0,,,,,,,,,,,,,,,,,
4065026,1469896738739,,,,,,,-0.01,0.08,0.99,-3.0,0.1,-0.2,860,0,,,,,,,,,,,,,,,,,
4065046,1469896738759,0,130.1,135.2,36,131.0,14.32,-0.01,0.08,0.99,-3.0,-0.0,-0.3,880,0,0.0,0,39.540634,-122.332031,0.0,0.417,350.4,11,3,1.3,0,0.0,-1,0.0,0.0,0.0,0
4065066,1469896738779,,,,,,,-0.01,0.07,0.99,-2.9,0.1,-0.3,860,0,,,,,,,,,,,,,,,,,
4065086,1469896738799,,,,,,,-0.01,0.07,0.98,-3.0,0.0,-0.2,880,0,,,,,,,,,,,,,,,,,
4065106,1469896738819,,,,,,,-0.01,0.07,0.98,-3.0,-0.1,-0.1,880,0,,,,,,,,,,,,,,,,,
4065126,1469896738839,,,,,,,-0.01,0.07,0.98,-3.0,0.0,-0.0,860,0,,,,,,,,,,,,,,,,,
4065146,1469896738859,,,,42,,,-0.01,0.08,0.98,-3.0,0.1,0.0,900,0,0.0,0,39.540634,-122.332031,0.0,0.417,350.4,11,3,1.4,0,0.0,-1,0.0,,0.0,0
4065166,1469896738879,,,,,,,-0.01,0.08,0.98,-3.0,0.1,0.0,860,0,,,,,,,,,,,,,,,,,
4065186,1469896738892,,,,,,,-0.01,0.08,0.99,-3.0,0.1,-0.1,860,0,,,,,,,,,,,,,,,,,
4065206,1469896738912,,,,,,,-0.01,0.08,0.98,-3.0,0.0,-0.2,860,0,,,,,,,,,,,,,,,,,
4065226,1469896738932,,,,,,,-0.01,0.08,0.98,-3.0,0.0,-0.3,860,0,,,,,,,,,,,,,,,,,
4065246,1469896738952,0,131.2,136.5,39,132.2,,-0.01,0.07,0.98,-3.0,-0.0,-0.3,860,0,0.0,0,39.540634,-122.332031,0.0,0.417,350.4,11,3,1.4,0,0.0,-1,0.0,0.0,0.0,0
4065266,1469896738972,,,,,,,-0.01,0.07,0.97,-3.0,-0.1,-0.2,900,0,,,,,,,,,,,,,,,,,
4065286,1469896738992,,,,,,,-0.01,0.07,0.98,-3.0,-0.0,-0.1,900,0,,,,,,,,,,,,,,,,,
4065306,1469896739107,,,,,,,-0.01,0.08,0.98,-3.0,0.0,-0.0,860,0,,,,,,,,,,,,,,,,,
4065326,1469896739127,,,,,,,-0.01,0.08,0.98,-3.0,0.1,0.0,880,0,,,,,,,,,,,,,,,,,
4065346,1469896739147,,,,39,,,-0.01,0.08,0.98,-3.0,0.0,-0.0,860,0,0.0,0,39.540634,-122.332031,0.0,0.417,350.4,11,3,1.4,0,0.0,-1,0.0,,0.0,0
4065366,1469896739167,,,,,,,-0.01,0.08,0.98,-3.0,-0.0,-0.2,860,0,,,,,,,,,,,,,,,,,
4065386,1469896739187,,,,,,,-0.01,0.08,0.98,-3.0,-0.0,-0.2,860,0,,,,,,,,,,,,,,,,,
4065406,1469896739207,,,,,,,-0.01,0.08,0.98,-3.0,0.0,-0.3,900,0,,,,,,,,,,,,,,,,,
4065426,1469896739227,,,,,,,-0.01,0.07,0.98,-3.0,-0.1,-0.2,840,0,,,,,,,,,,,,,,,,,
4065446,1469896739247,0,130.7,135.7,38,131.4,,-0.01,0.07,0.98,-3.0,-0.1,-0.1,840,0,0.0,0,39.540634,-122.332031,0.0,0.417,350.4,11,3,1.4,0,0.0,-1,0.0,0.0,0.0,0
4065466,1469896739267,,,,,,,-0.01,0.08,0.98,-3.0,-0.0,-0.0,860,0,,,,,,,,,,,,,,,,,
4065486,1469896739200,,,,,,,-0.01,0.08,0.98,-3.0,0.1,0.0,860,0,,,,,,,,,,,,,,,,,
4065506,1469896739220,,,,,,,-0.01,0.08,0.99,-3.0,0.0,-0.0,860,0,,,,,,,,,,,,,,,,,
4065526,1469896739240,,,,,,,-0.01,0.08,0.99,-3.0,0.0,-0.2,860,0,,,,,,,,,,,,,,,,,
4065546,1469896739260,,,,38,,,-0.01,0.08,0.99,-3.0,0.0,-0.3,900,0,0.0,0,39.540634,-122.332031,0.0,0.417,350.4,11,3,1.4,0,0.0,-1,0.0,,0.0,0
4065566,1469896739280,,,,,,,-0.01,0.07,0.99,-2.9,0.0,-0.4,860,0,,,,,,,,,,,,,,,,,
4065586,1469896739300,,,,,,,-0.01,0.07,0.98,-3.0,-0.0,-0.3,880,0,,,,,,,,,,,,,,,,,
4065606,1469896739320,,,,,,,-0.01,0.07,0.98,-3.0,-0.1,-0.2,880,0,,,,,,,,,,,,,,,,,
4065626,1469896739340,,,,,,,-0.01,0.07,0.98,-3.0,-0.0,-0.1,860,0,,,,,,,,,,,,,,,,,
4065646,1469896739360,0,130.5,135.9,40,131.9,,-0.01,0.07,0.98,-3.0,0.0,0.0,860,0,0.0,0,39.540623,-122.332031,2.07,0.418,346.1,11,3,1.4,0,0.0,-1,0.0,0.0,0.0,0
4065666,1469896739380,,,,,,,-0.01,0.07,0.99,-3.0,0.0,-0.0,860,0,,,,,,,,,,,,,,,,,
4065686,1469896739400,,,,,,,-0.01,0.08,0.99,-3.0,-0.0,-0.1,900,0,,,,,,,,,,,,,,,,,
4065706,1469896739420,,,,,,,-0.01,0.08,0.99,-3.0,-0.1,-0.2,860,0,,,,,,,,,,,,,,,,,
4065726,1469896739440,,,,,,,-0.01,0.07,0.98,-3.0,-0.0,-0.3,880,0,,,,,,,,,,,,,,,,,
4065746,1469896739460,,,,38,,,-0.01,0.07,0.98,-3.0,-0.0,-0.3,860,0,0.0,0,39.540623,-122.332031,1.59,0.418,345.8,11,2,1.4,0,0.0,-1,0.0,,0.0,0
4065766,1469896739480,,,,,,,-0.01,0.06,0.98,-3.0,-0.0,-0.2,860,0,,,,,,,,,,,,,,,,,
4065786,1469896739496,,,,,,,-0.01,0.07,0.99,-3.0,0.0,-0.1,860,0,,,,,,,,,,,,,,,,,
4065806,1469896739516,,,,,,,-0.01,0.07,0.98,-3.0,0.1,-0.0,880,0,,,,,,,,,,,,,,,,,
4065826,1469896739536,,,,,,,-0.01,0.07,0.98,-3.0,0.1,0.0,900,0,,,,,,,,,,,,,,,,,
4065846,1469896739556,0,130.9,136.1,39,132.1,,-0.01,0.07,0.99,-3.0,0.1,-0.1,860,0,0.0,0,39.540623,-122.332031,0.0,0.418,345.7,11,3,1.4,0,0.0,-1,0.0,0.0,0.0,0
4065866,1469896739576,,,,,,,-0.01,0.08,0.99,-3.0,-0.0,-0.2,880,0,,,,,,,,,,,,,,,,,
4065886,1469896739594,,,,,,,-0.01,0.07,0.98,-2.9,-0.0,-0.3,880,0,,,,,,,,,,,,,,,,,
4065906,1469896739614,,,,,,,-0.01,0.07,0.98,-2.9,0.0,-0.3,860,0,,,,,,,,,,,,,,,,,
4065926,1469896739634,,,,,,,-0.01,0.07,0.98,-3.0,-0.1,-0.3,880,0,,,,,,,,,,,,,,,,,
4065946,1469896739654,,,,39,,,-0.01,0.07,0.98,-3.0,-0.1,-0.2,880,0,0.0,0,39.540623,-122.332031,0.0,0.418,345.3,11,3,1.4,0,0.0,-1,0.0,,0.0,0
4065966,1469896739674,,,,,,,-0.01,0.07,0.98,-3.0,-0.0,-0.0,900,0,,,,,,,,,,,,,,,,,
4065986,1469896739695,,,,,,,-0.01,0.07,0.98,-3.0,0.0,-0.0,860,0,,,,,,,,,,,,,,,,,
4066006,1469896739715,,,,,,,-0.01,0.07,0.98,-3.0,0.0,-0.0,860,0,,,,,,,,,,,,,,,,,
4066026,1469896739735,,,,,,,-0.01,0.08,0.99,-3.0,-0.1,-0.1,860,0,,,,,,,,,,,,,,,,,
4066046,1469896739755,0,130.3,135.6,39,131.8,14.32,-0.01,0.08,0.98,-3.0,-0.1,-0.2,860,0,0.0,0,39.540623,-122.332031,2.4,0.418,345.3,11,3,1.4,0,0.0,-1,0.0,0.0,0.0,0
4066066,1469896739775,,,,,,,-0.01,0.07,0.99,-3.0,-0.1,-0.3,860,0,,,,,,,,,,,,,,,,,
4066086,1469896739893,,,,,,,-0.01,0.07,0.98,-3.0,-0.1,-0.3,900,0,,,,,,,,,,,,,,,,,
4066106,1469896739913,,,,,,,-0.01,0.06,0.98,-3.0,-0.1,-0.2,860,0,,,,,,,,,,,,,,,,,
4066126,1469896739933,,,,,,,-0.01,0.06,0.98,-3.0,-0.1,-0.1,860,0,,,,,,,,,,,,,,,,,
4066146,1469896739953,,,,37,,,-0.01,0.07,0.98,-3.0,0.0,0.0,860,0,0.0,0,39.540623,-122.332031,0.0,0.418,344.4,11,3,1.4,0,0.0,-1,0.0,,0.0,0
4066166,1469896739973,,,,,,,-0.01,0.07,0.98,-3.1,0.1,0.0,860,0,,,,,,,,,,,,,,,,,
4066186,1469896739993,,,,,,,-0.01,0.08,0.99,-3.0,0.1,-0.1,860,0,,,,,,,,,,,,,,,,,
4066206,1469896740013,,,,,,,-0.01,0.08,0.99,-3.0,0.0,-0.2,880,0,,,,,,,,,,,,,,,,,
4066226,1469896740033,,,,,,,-0.01,0.08,0.98,-2.9,-0.0,-0.3,900,0,,,,,,,,,,,,,,,,,
4066246,1469896740053,0,131.1,136.0,37,131.8,,-0.01,0.07,0.98,-2.9,0.0,-0.4,860,0,0.0,0,39.540623,-122.332031,0.0,0.418,344.4,11,3,1.4,0,0.0,-1,0.0,0.0,0.0,0
4066266,1469896740073,,,,,,,-0.01,0.07,0.98,-2.9,0.0,-0.3,880,0,,,,,,,,,,,,,,,,,
4066286,1469896739999,,,,,,,-0.01,0.07,0.98,-3.0,-0.0,-0.2,880,0,,,,,,,,,,,,,,,,,
4066306,1469896740019,,,,,,,-0.01,0.07,0.98,-3.0,0.0,-0.1,880,0,,,,,,,,,,,,,,,,,
4066326,1469896740039,,,,,,,-0.01,0.07,0.98,-3.0,0.0,0.0,880,0,,,,,,,,,,,,,,,,,
4066346,1469896740059,,,,36,,,-0.01,0.08,0.98,-3.1,0.1,-0.0,880,0,0.0,0,39.540623,-122.332031,0.0,0.418,344.3,11,2,0.1,0,0.0,-1,0.0,,0.0,0
4066366,1469896740079,,,,,,,-0.01,0.08,0.99,-3.1,0.1,-0.1,900,0,,,,,,,,,,,,,,,,,
4066386,1469896740100,,,,,,,-0.01,0.09,0.99,-3.0,-0.0,-0.2,860,0,,,,,,,,,,,,,,,,,
4066406,1469896740120,,,,,,,-0.01,0.08,0.98,-3.0,0.0,-0.3,880,0,,,,,,,,,,,,,,,,,
4066426,1469896740140,,,,,,,-0.01,0.07,0.98,-3.0,0.0,-0.3,860,0,,,,,,,,,,,,,,,,,
4066446,1469896740160,0,131.1,136.2,37,132.4,,-0.01,0.07,0.98,-3.0,-0.0,-0.2,860,0,0.0,0,39.540623,-122.332031,1.05,0.418,344.3,11,2,0.0,0,0.0,-1,0.0,0.0,0.0,0
4066466,1469896740180,,,,,,,-0.01,0.07,0.98,-3.0,0.0,-0.1,860,0,,,,,,,,,,,,,,,,,
4066486,1469896740199,,,,,,,-0.01,0.07,0.98,-3.0,0.1,-0.0,860,0,,,,,,,,,,,,,,,,,
4066506,1469896740219,,,,,,,-0.01,0.08,0.98,-3.0,0.1,-0.0,900,0,,,,,,,,,,,,,,,,,
4066526,1469896740239,,,,,,,-0.01,0.07,0.98,-3.0,0.1,-0.1,860,0,,,,,,,,,,,,,,,,,
4066546,1469896740259,,,,40,,,-0.01,0.08,0.99,-3.0,0.0,-0.2,860,0,0.0,0,39.540623,-122.332031,1.06,0.418,344.3,11,3,0.0,0,0.0,-1,0.0,,0.0,0
4066566,1469896740279,,,,,,,-0.01,0.07,0.98,-2.9,0.0,-0.3,860,0,,,,,,,,,,,,,,,,,
4066586,1469896740300,,,,,,,-0.01,0.07,0.98,-2.9,0.0,-0.3,860,0,,,,,,,,,,,,,,,,,
4066606,1469896740320,,,,,,,-0.01,0.07,0.98,-2.9,-0.1,-0.2,860,0,,,,,,,,,,,,,,,,,
4066626,1469896740340,,,,,,,-0.01,0.07,0.98,-3.0,-0.1,-0.2,860,0,,,,,,,,,,,,,,,,,
4066646,1469896740360,0,130.4,135.6,41,131.9,,-0.01,0.08,0.98,-3.0,-0.0,-0.0,900,0,0.0,0,39.540623,-122.332031,1.07,0.418,344.3,11,2,0.0,0,0.0,-1,0.0,0.0,0.0,0
4066666,1469896740380,,,,,,,-0.01,0.08,0.98,-3.0,0.1,0.0,860,0,,,,,,,,,,,,,,,,,
4066686,1469896740399,,,,,,,-0.01,0.08,0.99,-3.0,0.1,-0.0,860,0,,,,,,,,,,,,,,,,,
4066706,1469896740419,,,,,,,-0.01,0.08,0.99,-3.0,0.0,-0.1,860,0,,,,,,,,,,,,,,,,,
4066726,1469896740439,,,,,,,-0.01,0.08,0.99,-2.9,-0.0,-0.2,860,0,,,,,,,,,,,,,,,,,
4066746,1469896740459,,,,35,,,-0.01,0.07,0.99,-2.9,0.0,-0.3,860,0,0.0,0,39.540623,-122.332031,1.01,0.418,344.3,11,3,0.0,0,0.0,-1,0.0,,0.0,0
4066766,1469896740479,,,,,,,-0.01,0.07,0.99,-2.9,-0.0,-0.2,880,0,,,,,,,,,,,,,,,,,
4066786,1469896740500,,,,,,,-0.01,0.07,0.99,-2.9,-0.0,-0.1,880,0,,,,,,,,,,,,,,,,,
4066806,1469896740520,,,,,,,-0.01,0.07,0.99,-2.9,0.0,0.0,840,0,,,,,,,,,,,,,,,,,
4066826,1469896740540,,,,,,,-0.01,0.07,0.99,-3.0,0.0,0.0,860,0,,,,,,,,,,,,,,,,,
4066846,1469896740560,0,131.1,135.1,38,131.0,,-0.01,0.07,0.99,-3.0,0.0,-0.0,860,0,0.0,0,39.540623,-122.332031,1.0,0.418,344.3,11,2,0.0,0,0.0,-1,0.0,0.0,0.0,0
4066866,1469896740580,,,,,,,-0.01,0.08,0.99,-2.9,-0.0,-0.1,860,0,,,,,,,,,,,,,,,,,
4066886,1469896740699,,,,,,,-0.01,0.07,0.99,-2.9,-0.0,-0.2,860,0,,,,,,,,,,,,,,,,,
4066906,1469896740719,,,,,,,-0.01,0.07,0.98,-2.9,-0.0,-0.3,880,0,,,,,,,,,,,,,,,,,
4066926,1469896740739,,,,,,,-0.01,0.06,0.98,-3.0,-0.1,-0.2,840,0,,,,,,,,,,,,,,,,,
4066946,1469896740759,,,,39,,,-0.01,0.07,0.98,-3.0,-0.0,-0.0,840,0,0.0,0,39.540623,-122.332031,0.95,0.418,344.3,11,2,0.0,0,0.0,-1,0.0,,0.0,0
4066966,1469896740779,,,,,,,-0.01,0.07,0.98,-3.0,0.0,0.1,860,0,,,,,,,,,,,,,,,,,
4066986,1469896740799,,,,,,,-0.0,0.07,0.98,-3.0,0.0,0.1,860,0,,,,,,,,,,,,,,,,,
4067006,1469896740819,,,,,,,-0.01,0.08,0.99,-3.0,0.0,-0.0,860,0,,,,,,,,,,,,,,,,,
4067026,1469896740839,,,,,,,-0.01,0.08,0.99,-3.0,0.0,-0.2,860,0,,,,,,,,,,,,,,,,,
4067046,1469896740859,0,130.6,136.2,38,132.2,14.33,-0.01,0.07,0.99,-3.0,0.0,-0.3,900,0,0.0,0,39.540623,-122.332031,0.95,0.418,344.3,11,2,0.0,0,0.0,-1,0.0,0.0,0.0,0
4067066,1469896740879,,,,,,,-0.01,0.07,0.99,-3.0,0.0,-0.3,840,0,,,,,,,,,,,,,,,,,
