"Interval"|"ms"|0|0|1,"Utc"|"ms"|0|0|1,"FuelLevel"|"F"|0|100|5,"OilTemp"|"F"|0.0|300.0|5,"Coolant"|"F"|0.0|300.0|5,"OilPress"|"PSI"|0|150|10,"EngineTemp"|"F"|0.0|300.0|5,"Battery"|"Volts"|0.0|20.0|1,"AccelX"|"G"|-3.0|3.0|50,"AccelY"|"G"|-3.0|3.0|50,"AccelZ"|"G"|-3.0|3.0|50,"Yaw"|"Deg/Sec"|-300.0|300.0|50,"Pitch"|"Deg/Sec"|-300.0|300.0|50,"Roll"|"Deg/Sec"|-300.0|300.0|50,"RPM"|""|0|10000|50,"Driveshaft"|"RPM"|0|5000|50,"GearRatio"|""|-5.0|5.0|10,"Gear"|""|-1|5|10,"Latitude"|"Degrees"|-180.0|180.0|10,"Longitude"|"Degrees"|-180.0|180.0|10,"Speed"|"MPH"|0.0|150.0|10,"Distance"|"Miles"|0.0|0.0|10,"Altitude"|"Feet"|0.0|4000.0|10,"GPSSats"|""|0|20|10,"GPSQual"|""|0|5|10,"GPSDOP"|""|0.0|20.0|10,"LapCount"|""|0|0|10,"LapTime"|"Min"|0.0|0.0|10,"Sector"|""|0|0|10,"SectorTime"|"Min"|0.0|0.0|10,"PredTime"|"Min"|0.0|0.0|5,"ElapsedTime"|"Min"|0.0|0.0|10,"CurrentLap"|""|0|0|10
375986,1469893049631,,,,,,,0.08,0.06,1.0,-3.0,0.1,-0.1,380,0,,,,,,,,,,,,,,,,,
376006,1469893049651,,,,,,,0.08,0.06,0.99,-3.0,0.1,-0.2,380,0,,,,,,,,,,,,,,,,,
376026,1469893049671,,,,,,,0.08,0.06,0.99,-2.9,0.1,-0.2,380,0,,,,,,,,,,,,,,,,,
376046,1469893049692,0,152.1,172.3,2,166.2,11.02,0.07,0.05,0.99,-2.9,-0.0,-0.2,380,0,0.0,0,39.538677,-122.332443,0.0,0.172,309.7,10,3,1.5,0,0.0,-1,0.0,0.0,0.0,0
376066,1469893049712,,,,,,,0.08,0.05,0.99,-3.0,0.1,-0.2,200,0,,,,,,,,,,,,,,,,,
376086,1469893049732,,,,,,,0.07,0.06,0.99,-3.0,0.1,-0.1,200,0,,,,,,,,,,,,,,,,,
376106,1469893049752,,,,,,,0.07,0.07,0.98,-3.0,0.1,-0.1,200,0,,,,,,,,,,,,,,,,,
376126,1469893049772,,,,,,,0.07,0.07,0.99,-3.0,-0.0,-0.1,280,0,,,,,,,,,,,,,,,,,
376146,1469893049792,,,,4,,,0.07,0.06,0.99,-3.0,-0.0,-0.1,280,0,0.0,0,39.538677,-122.332443,0.0,0.172,309.7,10,3,1.5,0,0.0,-1,0.0,,0.0,0
376166,1469893049812,,,,,,,0.07,0.06,0.98,-3.0,-0.1,-0.1,280,0,,,,,,,,,,,,,,,,,
376186,1469893049832,,,,,,,0.07,0.07,0.99,-3.0,-0.1,-0.1,380,0,,,,,,,,,,,,,,,,,
376206,1469893049852,,,,,,,0.07,0.06,0.99,-3.0,-0.1,-0.2,380,0,,,,,,,,,,,,,,,,,
376226,1469893049872,,,,,,,0.07,0.06,0.99,-3.0,-0.2,-0.2,420,0,,,,,,,,,,,,,,,,,
376246,1469893049892,0,152.4,172.8,7,166.5,,0.07,0.06,0.98,-3.0,-0.3,-0.1,420,0,0.0,0,39.538677,-122.332443,0.0,0.172,309.7,10,3,1.5,0,0.0,-1,0.0,0.0,0.0,0
376266,1469893049904,,,,,,,0.07,0.04,0.99,-3.0,-0.2,-0.1,480,0,,,,,,,,,,,,,,,,,
376286,1469893049924,,,,,,,0.06,0.02,0.98,-2.9,-0.6,-0.0,480,0,,,,,,,,,,,,,,,,,
376306,1469893049944,,,,,,,0.07,0.04,0.99,-3.0,-0.2,0.1,620,0,,,,,,,,,,,,,,,,,
376326,1469893049964,,,,,,,0.07,0.04,1.0,-2.9,-0.2,-0.0,740,0,,,,,,,,,,,,,,,,,
376346,1469893049991,,,,19,,,0.06,0.04,0.99,-2.9,-0.4,-0.4,840,0,0.0,0,39.538677,-122.332443,0.0,0.172,309.7,10,3,1.5,0,0.0,-1,0.0,,0.0,0
376366,1469893050011,,,,,,,0.08,0.04,0.99,-2.9,-0.4,-0.5,920,0,,,,,,,,,,,,,,,,,
376386,1469893050031,,,,,,,0.06,0.02,0.99,-2.9,-0.3,-0.3,940,0,,,,,,,,,,,,,,,,,
376406,1469893050051,,,,,,,0.06,0.02,0.99,-2.9,-0.3,-0.1,1000,0,,,,,,,,,,,,,,,,,
376426,1469893050071,,,,,,,0.06,0.02,0.99,-2.9,-0.3,0.0,1020,0,,,,,,,,,,,,,,,,,
376446,1469893050091,0,152.2,172.6,32,166.2,,0.05,0.03,0.99,-3.0,-0.3,0.0,1000,0,0.0,0,39.538677,-122.332443,0.0,0.172,309.7,10,3,1.5,0,0.0,-1,0.0,0.0,0.0,0
376466,1469893050111,,,,,,,0.04,0.04,0.99,-3.0,-0.2,0.1,1020,0,,,,,,,,,,,,,,,,,
376486,1469893050131,,,,,,,0.03,0.04,0.99,-3.1,-0.3,0.1,1060,0,,,,,,,,,,,,,,,,,
376506,1469893050151,,,,,,,0.03,0.05,1.0,-3.1,-0.4,0.2,1100,0,,,,,,,,,,,,,,,,,
376526,1469893050171,,,,,,,0.03,0.05,1.0,-3.0,-0.7,0.2,1100,0,,,,,,,,,,,,,,,,,
376546,1469893050291,,,,41,,,0.04,0.04,1.0,-3.0,-0.7,0.0,1120,0,0.0,0,39.538677,-122.332443,0.0,0.172,309.7,10,3,1.5,0,0.0,-1,0.0,,0.0,0
376566,1469893050311,,,,,,,0.04,0.06,1.0,-3.0,-0.5,-0.0,1140,0,,,,,,,,,,,,,,,,,
376586,1469893050331,,,,,,,0.04,0.05,0.99,-3.0,-0.5,-0.0,1200,0,,,,,,,,,,,,,,,,,
376606,1469893050351,,,,,,,0.05,0.05,0.98,-3.0,-0.5,-0.0,1240,0,,,,,,,,,,,,,,,,,
376626,1469893050371,,,,,,,0.05,0.05,0.99,-3.0,-0.3,-0.1,1240,0,,,,,,,,,,,,,,,,,
376646,1469893050391,0,152.3,172.4,37,166.0,,0.04,0.05,0.98,-3.0,-0.5,-0.1,1280,0,0.0,0,39.538677,-122.332443,0.0,0.172,309.7,10,3,1.5,0,0.0,-1,0.0,0.0,0.0,0
376666,1469893050411,,,,,,,0.05,0.05,0.99,-3.0,-0.3,-0.1,1300,0,,,,,,,,,,,,,,,,,
376686,1469893050431,,,,,,,0.05,0.05,0.99,-2.9,-0.3,-0.1,1340,0,,,,,,,,,,,,,,,,,
376706,1469893050451,,,,,,,0.05,0.06,0.98,-3.0,-0.4,-0.0,1360,0,,,,,,,,,,,,,,,,,
376726,1469893050471,,,,,,,0.06,0.04,0.99,-3.0,-0.2,-0.0,1340,0,,,,,,,,,,,,,,,,,
376746,1469893050391,,,,52,,,0.06,0.04,0.98,-2.9,-0.3,-0.0,1340,0,0.0,0,39.538677,-122.332443,0.0,0.172,309.7,10,3,1.5,0,0.0,-1,0.0,,0.0,0
376766,1469893050411,,,,,,,0.05,0.05,0.97,-2.9,-0.4,-0.1,1360,0,,,,,,,,,,,,,,,,,
376786,1469893050431,,,,,,,0.06,0.05,0.97,-3.0,-0.3,-0.1,1380,0,,,,,,,,,,,,,,,,,
376806,1469893050451,,,,,,,0.06,0.04,0.97,-3.0,-0.3,-0.1,1360,0,,,,,,,,,,,,,,,,,
376826,1469893050471,,,,,,,0.06,0.05,0.97,-2.9,-0.3,-0.2,1360,0,,,,,,,,,,,,,,,,,
376846,1469893050491,0,152.6,173.0,58,166.3,,0.06,0.05,0.97,-2.9,-0.3,-0.1,1320,0,0.0,0,39.538677,-122.332443,0.0,0.172,309.7,10,3,1.5,0,0.0,-1,0.0,0.0,0.0,0
376866,1469893050511,,,,,,,0.06,0.05,0.97,-3.0,-0.3,-0.1,1340,0,,,,,,,,,,,,,,,,,
376886,1469893050531,,,,,,,0.06,0.05,0.98,-3.0,-0.2,-0.0,1300,0,,,,,,,,,,,,,,,,,
376906,1469893050551,,,,,,,0.06,0.05,0.97,-3.0,-0.2,-0.0,1320,0,,,,,,,,,,,,,,,,,
376926,1469893050571,,,,,,,0.06,0.05,0.97,-3.0,-0.3,-0.0,1280,0,,,,,,,,,,,,,,,,,
376946,1469893050591,,,,51,,,0.07,0.04,0.97,-3.0,-0.1,-0.1,1280,0,0.0,0,39.538677,-122.332443,0.0,0.172,309.7,10,3,1.5,0,0.0,-1,0.0,,0.0,0
376966,1469893050611,,,,,,,0.06,0.05,0.97,-3.0,-0.1,-0.1,1260,0,,,,,,,,,,,,,,,,,
376986,1469893050631,,,,,,,0.07,0.05,0.98,-3.0,-0.1,-0.1,1260,0,,,,,,,,,,,,,,,,,
377006,1469893050651,,,,,,,0.07,0.06,0.98,-3.0,-0.0,-0.1,1240,0,,,,,,,,,,,,,,,,,
377026,1469893050671,,,,,,,0.07,0.06,0.99,-3.0,-0.1,-0.1,1240,0,,,,,,,,,,,,,,,,,
377046,1469893050691,0,153.0,172.7,50,166.0,14.28,0.07,0.06,0.99,-2.9,-0.1,-0.2,1180,0,0.0,0,39.538677,-122.332443,0.0,0.172,309.7,10,3,1.5,0,0.0,-1,0.0,0.0,0.0,0
377066,1469893050711,,,,,,,0.07,0.05,0.99,-3.0,-0.0,-0.2,1200,0,,,,,,,,,,,,,,,,,
377086,1469893050731,,,,,,,0.07,0.05,0.99,-3.0,-0.1,-0.1,1140,0,,,,,,,,,,,,,,,,,
377106,1469893050751,,,,,,,0.07,0.05,0.99,-3.0,-0.0,-0.1,1140,0,,,,,,,,,,,,,,,,,
377126,1469893050771,,,,,,,0.07,0.05,0.99,-3.0,-0.1,-0.1,1120,0,,,,,,,,,,,,,,,,,
377146,1469893050792,,,,44,,,0.07,0.06,0.99,-3.0,-0.1,-0.2,1140,0,0.0,0,39.538677,-122.332443,0.0,0.172,309.7,10,3,1.5,0,0.0,-1,0.0,,0.0,0
377166,1469893050812,,,,,,,0.07,0.05,0.99,-3.0,-0.0,-0.2,1100,0,,,,,,,,,,,,,,,,,
377186,1469893050832,,,,,,,0.07,0.05,0.99,-3.0,-0.0,-0.2,1020,0,,,,,,,,,,,,,,,,,
377206,1469893050852,,,,,,,0.06,0.05,0.98,-2.9,-0.0,-0.2,1040,0,,,,,,,,,,,,,,,,,
377226,1469893050872,,,,,,,0.06,0.06,0.98,-2.9,-0.1,-0.2,1020,0,,,,,,,,,,,,,,,,,
377246,1469893050892,0,152.5,172.7,40,166.1,,0.06,0.06,0.98,-3.0,-0.1,-0.1,1000,0,0.0,0,39.538677,-122.332443,0.0,0.172,309.7,10,3,1.5,0,0.0,-1,0.0,0.0,0.0,0
377266,1469893050902,,,,,,,0.06,0.06,0.98,-3.0,-0.1,-0.2,960,0,,,,,,,,,,,,,,,,,
377286,1469893050922,,,,,,,0.06,0.05,0.98,-3.0,-0.2,-0.1,980,0,,,,,,,,,,,,,,,,,
377306,1469893050942,,,,,,,0.06,0.06,0.98,-3.0,-0.2,-0.1,960,0,,,,,,,,,,,,,,,,,
377326,1469893050962,,,,,,,0.06,0.05,0.98,-3.0,-0.2,-0.1,920,0,,,,,,,,,,,,,,,,,
377346,1469893051091,,,,36,,,0.06,0.06,0.97,-3.0,-0.2,-0.1,920,0,0.0,0,39.538677,-122.332443,0.0,0.172,309.7,10,3,1.5,0,0.0,-1,0.0,,0.0,0
377366,1469893051111,,,,,,,0.06,0.06,0.98,-3.0,-0.2,-0.0,920,0,,,,,,,,,,,,,,,,,
377386,1469893051131,,,,,,,0.06,0.06,0.98,-3.0,-0.1,-0.0,900,0,,,,,,,,,,,,,,,,,
377406,1469893051151,,,,,,,0.06,0.07,0.98,-3.0,-0.1,-0.0,900,0,,,,,,,,,,,,,,,,,
377426,1469893051171,,,,,,,0.06,0.06,0.98,-3.0,-0.1,-0.1,880,0,,,,,,,,,,,,,,,,,
377446,1469893051191,0,153.1,172.5,28,166.0,,0.07,0.07,0.98,-3.0,-0.1,-0.1,860,0,0.0,0,39.538677,-122.332443,0.0,0.172,309.7,10,3,1.5,0,0.0,-1,0.0,0.0,0.0,0
377466,1469893051211,,,,,,,0.07,0.07,0.98,-3.0,-0.2,-0.2,820,0,,,,,,,,,,,,,,,,,
377486,1469893051231,,,,,,,0.07,0.07,0.98,-3.0,-0.1,-0.2,800,0,,,,,,,,,,,,,,,,,
377506,1469893051251,,,,,,,0.06,0.07,0.98,-3.0,-0.2,-0.2,800,0,,,,,,,,,,,,,,,,,
377526,1469893051271,,,,,,,0.07,0.07,0.98,-3.0,-0.1,-0.1,800,0,,,,,,,,,,,,,,,,,
377546,1469893051192,,,,27,,,0.07,0.07,0.98,-3.0,-0.1,-0.1,780,0,0.0,0,39.538677,-122.332443,0.0,0.172,309.7,10,3,1.5,0,0.0,-1,0.0,,0.0,0
377566,1469893051212,,,,,,,0.06,0.07,0.98,-3.0,-0.1,-0.2,760,0,,,,,,,,,,,,,,,,,
377586,1469893051232,,,,,,,0.06,0.07,0.97,-3.0,-0.1,-0.2,760,0,,,,,,,,,,,,,,,,,
377606,1469893051252,,,,,,,0.06,0.06,0.97,-3.0,-0.1,-0.2,740,0,,,,,,,,,,,,,,,,,
377626,1469893051272,,,,,,,0.06,0.06,0.97,-3.0,-0.1,-0.2,720,0,,,,,,,,,,,,,,,,,
377646,1469893051292,0,152.6,173.3,25,166.7,,0.06,0.06,0.97,-3.0,-0.2,-0.2,720,0,0.0,0,39.538677,-122.332443,0.0,0.172,309.7,10,3,1.5,0,0.0,-1,0.0,0.0,0.0,0
377666,1469893051312,,,,,,,0.06,0.06,0.97,-3.0,-0.2,-0.2,720,0,,,,,,,,,,,,,,,,,
377686,1469893051332,,,,,,,0.06,0.06,0.97,-3.0,-0.2,-0.2,720,0,,,,,,,,,,,,,,,,,
377706,1469893051352,,,,,,,0.06,0.05,0.97,-3.0,-0.2,-0.2,720,0,,,,,,,,,,,,,,,,,
377726,1469893051372,,,,,,,0.06,0.05,0.97,-3.0,-0.2,-0.2,720,0,,,,,,,,,,,,,,,,,
377746,1469893051392,,,,23,,,0.06,0.05,0.98,-3.0,-0.1,-0.2,700,0,0.0,0,39.538677,-122.332443,0.0,0.172,309.7,10,3,1.5,0,0.0,-1,0.0,,0.0,0
377766,1469893051412,,,,,,,0.06,0.05,0.98,-3.0,-0.1,-0.1,680,0,,,,,,,,,,,,,,,,,
377786,1469893051432,,,,,,,0.06,0.04,0.98,-3.0,-0.1,-0.2,680,0,,,,,,,,,,,,,,,,,
377806,1469893051452,,,,,,,0.07,0.05,0.99,-3.0,-0.1,-0.1,640,0,,,,,,,,,,,,,,,,,
377826,1469893051472,,,,,,,0.07,0.06,0.99,-3.0,-0.1,-0.0,660,0,,,,,,,,,,,,,,,,,
377846,1469893051491,0,151.9,172.7,23,166.3,,0.07,0.05,0.98,-3.0,-0.1,-0.0,660,0,0.0,0,39.538677,-122.332443,0.0,0.172,309.7,10,3,1.5,0,0.0,-1,0.0,0.0,0.0,0
377866,1469893051511,,,,,,,0.07,0.05,0.99,-3.0,-0.2,-0.1,640,0,,,,,,,,,,,,,,,,,
377886,1469893051531,,,,,,,0.07,0.06,0.99,-3.0,-0.2,-0.1,640,0,,,,,,,,,,,,,,,,,
377906,1469893051551,,,,,,,0.07,0.05,0.98,-3.0,-0.2,-0.1,640,0,,,,,,,,,,,,,,,,,
377926,1469893051571,,,,,,,0.07,0.06,0.99,-3.0,-0.0,-0.1,640,0,,,,,,,,,,,,,,,,,
377946,1469893051591,,,,21,,,0.07,0.06,0.99,-3.0,-0.0,-0.1,620,0,0.0,0,39.538677,-122.332443,0.0,0.172,309.7,10,3,1.5,0,0.0,-1,0.0,,0.0,0
377966,1469893051611,,,,,,,0.07,0.06,0.99,-3.0,-0.1,-0.1,620,0,,,,,,,,,,,,,,,,,
377986,1469893051631,,,,,,,0.07,0.06,0.99,-3.0,-0.1,-0.1,620,0,,,,,,,,,,,,,,,,,
378006,1469893051651,,,,,,,0.06,0.06,0.99,-3.0,-0.1,-0.1,620,0,,,,,,,,,,,,,,,,,
378026,1469893051671,,,,,,,0.07,0.06,0.99,-3.0,-0.0,-0.1,620,0,,,,,,,,,,,,,,,,,
378046,1469893051691,0,152.7,173.3,21,166.4,14.36,0.07,0.06,0.99,-3.0,-0.1,-0.1,640,0,0.0,0,39.538677,-122.332443,0.0,0.172,309.7,10,3,1.5,0,0.0,-1,0.0,0.0,0.0,0
378066,1469893051711,,,,,,,0.06,0.06,0.99,-3.0,-0.1,-0.1,640,0,,,,,,,,,,,,,,,,,
378086,1469893051731,,,,,,,0.06,0.06,0.99,-3.0,-0.0,-0.1,640,0,,,,,,,,,,,,,,,,,
378106,1469893051751,,,,,,,0.07,0.07,0.99,-3.0,-0.1,-0.1,640,0,,,,,,,,,,,,,,,,,
378126,1469893051771,,,,,,,0.07,0.06,0.99,-3.0,-0.0,-0.1,640,0,,,,,,,,,,,,,,,,,
378146,1469893051791,,,,18,,,0.07,0.06,0.99,-3.0,0.1,-0.1,640,0,0.0,0,39.538677,-122.332443,0.0,0.172,309.7,10,3,1.5,0,0.0,-1,0.0,,0.0,0
378166,1469893051910,,,,,,,0.07,0.07,0.99,-3.0,0.1,-0.1,620,0,,,,,,,,,,,,,,,,,
378186,1469893051930,,,,,,,0.07,0.06,0.98,-2.9,0.0,-0.2,620,0,,,,,,,,,,,,,,,,,
378206,1469893051950,,,,,,,0.07,0.07,0.98,-3.0,0.0,-0.1,640,0,,,,,,,,,,,,,,,,,
378226,1469893051970,,,,,,,0.07,0.06,0.98,-3.0,0.0,-0.1,660,0,,,,,,,,,,,,,,,,,
378246,1469893051990,0,151.8,172.6,21,166.0,,0.07,0.05,0.98,-3.0,0.1,-0.2,660,0,0.0,0,39.538677,-122.332443,0.0,0.172,309.7,10,3,1.5,0,0.0,-1,0.0,0.0,0.0,0
378266,1469893052010,,,,,,,0.07,0.06,0.98,-3.0,0.1,-0.1,680,0,,,,,,,,,,,,,,,,,
378286,1469893052030,,,,,,,0.07,0.06,0.98,-3.0,-0.0,-0.1,680,0,,,,,,,,,,,,,,,,,
378306,1469893052050,,,,,,,0.07,0.06,0.98,-3.0,0.0,-0.1,680,0,,,,,,,,,,,,,,,,,
378326,1469893052070,,,,,,,0.07,0.06,0.98,-3.1,0.0,-0.1,680,0,,,,,,,,,,,,,,,,,
378346,1469893051991,,,,23,,,0.07,0.07,0.98,-3.1,0.0,-0.0,680,0,0.0,0,39.538677,-122.332443,0.0,0.172,309.7,10,3,1.5,0,0.0,-1,0.0,,0.0,0
378366,1469893052011,,,,,,,0.07,0.06,0.98,-3.0,-0.0,-0.1,700,0,,,,,,,,,,,,,,,,,
378386,1469893052031,,,,,,,0.07,0.06,0.98,-3.0,0.0,-0.2,700,0,,,,,,,,,,,,,,,,,
378406,1469893052051,,,,,,,0.07,0.06,0.98,-3.0,0.1,-0.0,700,0,,,,,,,,,,,,,,,,,
378426,1469893052071,,,,,,,0.08,0.06,0.98,-3.0,0.1,-0.1,720,0,,,,,,,,,,,,,,,,,
378446,1469893052092,0,152.3,172.4,27,165.7,,0.07,0.05,0.99,-3.0,0.0,-0.2,740,0,0.0,0,39.538677,-122.332443,0.0,0.172,309.7,10,3,1.5,0,0.0,-1,0.0,0.0,0.0,0
378466,1469893052112,,,,,,,0.07,0.05,0.98,-3.0,0.0,-0.2,740,0,,,,,,,,,,,,,,,,,
378486,1469893052132,,,,,,,0.07,0.05,0.98,-3.0,0.1,-0.1,720,0,,,,,,,,,,,,,,,,,
378506,1469893052152,,,,,,,0.07,0.05,0.98,-3.0,0.0,-0.2,720,0,,,,,,,,,,,,,,,,,
378526,1469893052172,,,,,,,0.07,0.04,0.98,-3.0,-0.0,-0.3,720,0,,,,,,,,,,,,,,,,,
378546,1469893052192,,,,26,,,0.07,0.05,0.98,-3.0,0.0,-0.2,740,0,0.0,0,39.538677,-122.332443,0.0,0.172,309.7,10,3,1.5,0,0.0,-1,0.0,,0.0,0
378566,1469893052212,,,,,,,0.07,0.05,0.98,-3.0,0.0,-0.1,760,0,,,,,,,,,,,,,,,,,
378586,1469893052232,,,,,,,0.07,0.05,0.99,-3.0,0.1,-0.2,780,0,,,,,,,,,,,,,,,,,
378606,1469893052252,,,,,,,0.06,0.04,0.99,-3.0,0.1,-0.3,780,0,,,,,,,,,,,,,,,,,
378626,1469893052272,,,,,,,0.07,0.05,0.99,-3.0,0.2,-0.3,780,0,,,,,,,,,,,,,,,,,
378646,1469893052292,0,152.5,172.5,30,165.8,,0.07,0.05,0.99,-3.0,0.2,-0.1,780,0,0.0,0,39.538677,-122.332443,0.0,0.172,309.7,10,3,1.5,0,0.0,-1,0.0,0.0,0.0,0
378666,1469893052312,,,,,,,0.07,0.06,0.99,-3.0,0.1,-0.1,780,0,,,,,,,,,,,,,,,,,
378686,1469893052332,,,,,,,0.07,0.06,0.99,-3.0,0.0,-0.2,800,0,,,,,,,,,,,,,,,,,
378706,1469893052352,,,,,,,0.06,0.05,0.99,-3.0,0.1,-0.3,800,0,,,,,,,,,,,,,,,,,
378726,1469893052372,,,,,,,0.07,0.05,0.99,-3.0,0.1,-0.2,800,0,,,,,,,,,,,,,,,,,
378746,1469893052392,,,,31,,,0.07,0.05,0.99,-3.0,0.2,-0.1,820,0,0.0,0,39.538677,-122.332443,0.0,0.172,309.7,10,3,1.5,0,0.0,-1,0.0,,0.0,0
378766,1469893052412,,,,,,,0.07,0.06,0.99,-3.0,0.2,-0.0,820,0,,,,,,,,,,,,,,,,,
378786,1469893052432,,,,,,,0.07,0.05,0.99,-3.0,0.2,-0.0,820,0,,,,,,,,,,,,,,,,,
378806,1469893052452,,,,,,,0.06,0.05,0.98,-3.0,0.1,-0.2,820,0,,,,,,,,,,,,,,,,,
378826,1469893052472,,,,,,,0.06,0.05,0.98,-2.9,0.2,-0.3,820,0,,,,,,,,,,,,,,,,,
378846,1469893052492,0,151.7,172.7,31,166.0,,0.06,0.04,0.98,-3.0,0.1,-0.2,820,0,0.0,0,39.538677,-122.332443,0.0,0.172,309.7,10,3,1.5,0,0.0,-1,0.0,0.0,0.0,0
378866,1469893052512,,,,,,,0.06,0.05,0.98,-3.0,0.1,-0.1,840,0,,,,,,,,,,,,,,,,,
378886,1469893052532,,,,,,,0.07,0.05,0.99,-3.0,0.1,0.0,840,0,,,,,,,,,,,,,,,,,
378906,1469893052552,,,,,,,0.07,0.05,0.99,-3.0,0.1,-0.0,840,0,,,,,,,,,,,,,,,,,
378926,1469893052572,,,,,,,0.07,0.06,0.99,-3.0,0.1,-0.1,840,0,,,,,,,,,,,,,,,,,
378946,1469893052691,,,,30,,,0.06,0.05,0.99,-3.0,0.0,-0.2,820,0,0.0,0,39.538677,-122.332443,0.0,0.172,309.7,10,3,1.5,0,0.0,-1,0.0,,0.0,0
378966,1469893052711,,,,,,,0.07,0.05,0.98,-3.0,0.0,-0.3,840,0,,,,,,,,,,,,,,,,,
378986,1469893052731,,,,,,,0.06,0.05,0.98,-3.0,-0.1,-0.2,840,0,,,,,,,,,,,,,,,,,
379006,1469893052751,,,,,,,0.06,0.06,0.98,-3.0,-0.1,-0.1,840,0,,,,,,,,,,,,,,,,,
379026,1469893052771,,,,,,,0.07,0.06,0.98,-3.0,-0.0,-0.0,840,0,,,,,,,,,,,,,,,,,
379046,1469893052791,0,151.3,173.0,32,166.4,14.41,0.07,0.06,0.98,-3.0,-0.1,-0.1,860,0,0.0,0,39.538677,-122.332443,0.0,0.172,309.7,10,3,1.5,0,0.0,-1,0.0,0.0,0.0,0
379066,1469893052811,,,,,,,0.07,0.06,0.98,-3.0,-0.1,-0.1,840,0,,,,,,,,,,,,,,,,,
379086,1469893052831,,,,,,,0.06,0.05,0.98,-3.0,-0.0,-0.3,840,0,,,,,,,,,,,,,,,,,
379106,1469893052851,,,,,,,0.06,0.05,0.98,-3.0,-0.1,-0.3,840,0,,,,,,,,,,,,,,,,,
379126,1469893052871,,,,,,,0.06,0.05,0.98,-3.0,-0.1,-0.1,840,0,,,,,,,,,,,,,,,,,
379146,1469893052792,,,,27,,,0.06,0.06,0.98,-3.0,-0.1,-0.0,840,0,0.0,0,39.538677,-122.332443,0.0,0.172,309.7,10,3,1.5,0,0.0,-1,0.0,,0.0,0
379166,1469893052812,,,,,,,0.07,0.07,0.98,-3.0,-0.1,0.0,840,0,,,,,,,,,,,,,,,,,
379186,1469893052832,,,,,,,0.07,0.07,0.98,-3.0,-0.1,-0.0,860,0,,,,,,,,,,,,,,,,,
379206,1469893052852,,,,,,,0.07,0.07,0.98,-3.0,-0.1,-0.2,840,0,,,,,,,,,,,,,,,,,
379226,1469893052872,,,,,,,0.07,0.06,0.98,-3.0,-0.2,-0.3,840,0,,,,,,,,,,,,,,,,,
379246,1469893052892,0,151.4,172.7,29,165.9,,0.06,0.06,0.98,-3.0,-0.2,-0.3,840,0,0.0,0,39.538677,-122.332443,0.0,0.172,309.7,10,3,1.5,0,0.0,-1,0.0,0.0,0.0,0
379266,1469893052905,,,,,,,0.06,0.05,0.98,-3.1,-0.2,-0.1,840,0,,,,,,,,,,,,,,,,,
379286,1469893052925,,,,,,,0.07,0.06,0.98,-3.1,-0.1,-0.0,840,0,,,,,,,,,,,,,,,,,
379306,1469893052945,,,,,,,0.07,0.06,0.98,-3.1,-0.1,0.0,860,0,,,,,,,,,,,,,,,,,
379326,1469893052965,,,,,,,0.07,0.06,0.98,-3.0,-0.1,-0.1,860,0,,,,,,,,,,,,,,,,,
379346,1469893052992,,,,34,,,0.07,0.06,0.98,-3.0,-0.1,-0.2,840,0,0.0,0,39.538677,-122.332443,0.0,0.172,309.7,10,3,1.5,0,0.0,-1,0.0,,0.0,0
379366,1469893053012,,,,,,,0.07,0.06,0.97,-3.0,-0.1,-0.2,840,0,,,,,,,,,,,,,,,,,
379386,1469893053032,,,,,,,0.07,0.06,0.97,-3.0,-0.1,-0.2,840,0,,,,,,,,,,,,,,,,,
379406,1469893053052,,,,,,,0.07,0.06,0.98,-3.0,-0.1,-0.2,840,0,,,,,,,,,,,,,,,,,
379426,1469893053072,,,,,,,0.07,0.06,0.98,-3.0,-0.0,-0.1,840,0,,,,,,,,,,,,,,,,,
379446,1469893053092,0,152.1,173.5,33,165.7,,0.07,0.06,0.98,-3.1,-0.1,-0.0,840,0,0.0,0,39.538677,-122.332443,0.0,0.172,309.7,10,3,1.5,0,0.0,-1,0.0,0.0,0.0,0
379466,1469893053112,,,,,,,0.07,0.06,0.98,-3.1,-0.2,-0.1,840,0,,,,,,,,,,,,,,,,,
379486,1469893053132,,,,,,,0.06,0.06,0.98,-3.0,-0.2,-0.1,820,0,,,,,,,,,,,,,,,,,
379506,1469893053152,,,,,,,0.06,0.05,0.97,-3.0,-0.1,-0.2,820,0,,,,,,,,,,,,,,,,,
379526,1469893053172,,,,,,,0.07,0.05,0.98,-3.0,-0.2,-0.1,820,0,,,,,,,,,,,,,,,,,
379546,1469893053192,,,,29,,,0.07,0.06,0.98,-3.0,-0.1,0.0,820,0,0.0,0,39.538677,-122.332443,0.0,0.172,309.7,10,3,1.5,0,0.0,-1,0.0,,0.0,0
379566,1469893053212,,,,,,,0.07,0.06,0.99,-3.0,-0.0,0.0,820,0,,,,,,,,,,,,,,,,,
379586,1469893053232,,,,,,,0.07,0.06,0.99,-3.0,-0.1,-0.0,840,0,,,,,,,,,,,,,,,,,
379606,1469893053252,,,,,,,0.06,0.06,0.98,-3.0,-0.1,-0.1,840,0,,,,,,,,,,,,,,,,,
379626,1469893053272,,,,,,,0.06,0.06,0.98,-3.0,-0.0,-0.2,820,0,,,,,,,,,,,,,,,,,
379646,1469893053291,0,152.0,173.6,28,166.0,,0.06,0.06,0.98,-3.0,-0.1,-0.2,820,0,0.0,0,39.538677,-122.332443,0.0,0.172,309.7,10,3,1.5,0,0.0,-1,0.0,0.0,0.0,0
379666,1469893053311,,,,,,,0.06,0.06,0.98,-3.0,-0.0,-0.1,800,0,,,,,,,,,,,,,,,,,
379686,1469893053331,,,,,,,0.06,0.06,0.98,-3.0,-0.0,-0.0,820,0,,,,,,,,,,,,,,,,,
379706,1469893053351,,,,,,,0.07,0.06,0.98,-3.0,-0.1,-0.1,820,0,,,,,,,,,,,,,,,,,
379726,1469893053371,,,,,,,0.06,0.05,0.98,-2.9,-0.1,-0.2,820,0,,,,,,,,,,,,,,,,,
379746,1469893053391,,,,29,,,0.06,0.05,0.98,-2.9,0.0,-0.2,820,0,0.0,0,39.538677,-122.332443,0.0,0.172,309.7,10,3,1.5,0,0.0,-1,0.0,,0.0,0
379766,1469893053510,,,,,,,0.06,0.05,0.98,-2.9,-0.1,-0.2,820,0,,,,,,,,,,,,,,,,,
379786,1469893053530,,,,,,,0.07,0.06,0.98,-3.0,-0.0,-0.1,800,0,,,,,,,,,,,,,,,,,
379806,1469893053550,,,,,,,0.07,0.06,0.98,-3.0,-0.1,-0.0,800,0,,,,,,,,,,,,,,,,,
379826,1469893053570,,,,,,,0.07,0.06,0.98,-3.0,-0.1,-0.1,800,0,,,,,,,,,,,,,,,,,
379846,1469893053590,0,150.7,172.5,31,166.2,,0.06,0.05,0.98,-2.9,-0.1,-0.2,800,0,0.0,0,39.538677,-122.332443,0.0,0.172,309.7,10,3,1.5,0,0.0,-1,0.0,0.0,0.0,0
379866,1469893053610,,,,,,,0.07,0.05,0.98,-3.0,-0.1,-0.2,800,0,,,,,,,,,,,,,,,,,
379886,1469893053630,,,,,,,0.06,0.05,0.98,-3.0,-0.1,-0.1,820,0,,,,,,,,,,,,,,,,,
379906,1469893053650,,,,,,,0.06,0.06,0.98,-3.0,-0.0,-0.0,800,0,,,,,,,,,,,,,,,,,
379926,1469893053670,,,,,,,0.06,0.06,0.98,-3.0,-0.0,-0.0,800,0,,,,,,,,,,,,,,,,,
379946,1469893053591,,,,28,,,0.06,0.05,0.98,-3.0,-0.1,-0.1,780,0,0.0,0,39.538677,-122.332443,0.0,0.172,309.7,10,3,1.5,0,0.0,-1,0.0,,0.0,0
379966,1469893053611,,,,,,,0.06,0.06,0.98,-3.0,-0.0,-0.1,780,0,,,,,,,,,,,,,,,,,
379986,1469893053631,,,,,,,0.06,0.06,0.98,-3.0,-0.1,-0.1,800,0,,,,,,,,,,,,,,,,,
380006,1469893053651,,,,,,,0.06,0.06,0.98,-3.0,-0.0,0.0,800,0,,,,,,,,,,,,,,,,,
380026,1469893053671,,,,,,,0.07,0.06,0.98,-3.0,-0.0,-0.1,800,0,,,,,,,,,,,,,,,,,
380046,1469893053691,0,150.7,172.7,28,166.6,14.41,0.06,0.05,0.98,-3.0,-0.1,-0.2,800,0,0.0,0,39.538677,-122.332443,0.0,0.172,309.7,10,3,1.5,0,0.0,-1,0.0,0.0,0.0,0
380066,1469893053711,,,,,,,0.06,0.05,0.98,-3.0,-0.0,-0.2,800,0,,,,,,,,,,,,,,,,,
380086,1469893053731,,,,,,,0.06,0.05,0.98,-3.0,-0.0,-0.1,780,0,,,,,,,,,,,,,,,,,
380106,1469893053751,,,,,,,0.07,0.05,0.98,-3.0,-0.0,-0.0,780,0,,,,,,,,,,,,,,,,,
380126,1469893053771,,,,,,,0.07,0.05,0.99,-3.0,0.0,-0.1,780,0,,,,,,,,,,,,,,,,,
380146,1469893053791,,,,29,,,0.06,0.04,0.98,-3.0,-0.1,-0.2,780,0,0.0,0,39.538677,-122.332443,0.0,0.172,309.7,10,3,1.5,0,0.0,-1,0.0,,0.0,0
380166,1469893053811,,,,,,,0.06,0.05,0.98,-3.0,-0.0,-0.2,780,0,,,,,,,,,,,,,,,,,
380186,1469893053831,,,,,,,0.06,0.05,0.98,-3.0,0.0,-0.0,800,0,,,,,,,,,,,,,,,,,
380206,1469893053851,,,,,,,0.06,0.05,0.98,-3.0,0.0,0.0,800,0,,,,,,,,,,,,,,,,,
380226,1469893053871,,,,,,,0.06,0.06,0.99,-3.0,0.1,-0.0,780,0,,,,,,,,,,,,,,,,,
380246,1469893053891,0,151.0,173.0,27,166.8,,0.06,0.05,0.98,-3.0,0.0,-0.1,780,0,0.0,0,39.538677,-122.332443,0.0,0.172,309.7,10,3,1.5,0,0.0,-1,0.0,0.0,0.0,0
380266,1469893053905,,,,,,,0.06,0.05,0.98,-3.0,0.1,-0.1,780,0,,,,,,,,,,,,,,,,,
380286,1469893053925,,,,,,,0.06,0.05,0.98,-3.0,0.1,-0.0,780,0,,,,,,,,,,,,,,,,,
380306,1469893053945,,,,,,,0.07,0.06,0.99,-3.0,0.1,0.0,780,0,,,,,,,,,,,,,,,,,
380326,1469893053965,,,,,,,0.06,0.06,0.99,-3.0,0.1,-0.1,800,0,,,,,,,,,,,,,,,,,
380346,1469893053991,,,,29,,,0.06,0.05,0.97,-3.0,0.0,-0.2,800,0,0.0,0,39.538677,-122.332443,0.0,0.172,309.7,10,3,1.5,0,0.0,-1,0.0,,0.0,0
380366,1469893054011,,,,,,,0.06,0.04,0.97,-3.0,0.1,-0.2,800,0,,,,,,,,,,,,,,,,,
380386,1469893054031,,,,,,,0.06,0.05,0.97,-3.0,0.0,-0.1,800,0,,,,,,,,,,,,,,,,,
380406,1469893054051,,,,,,,0.06,0.05,0.97,-3.0,0.0,-0.0,780,0,,,,,,,,,,,,,,,,,
380426,1469893054071,,,,,,,0.06,0.05,0.98,-3.0,0.0,-0.1,780,0,,,,,,,,,,,,,,,,,
380446,1469893054091,0,150.6,172.9,29,166.8,,0.06,0.04,0.97,-3.0,0.0,-0.2,780,0,0.0,0,39.538677,-122.332443,0.0,0.172,309.7,10,3,1.5,0,0.0,-1,0.0,0.0,0.0,0
380466,1469893054111,,,,,,,0.06,0.04,0.97,-3.0,0.0,-0.1,780,0,,,,,,,,,,,,,,,,,
380486,1469893054131,,,,,,,0.06,0.04,0.98,-3.1,0.0,-0.0,800,0,,,,,,,,,,,,,,,,,
380506,1469893054151,,,,,,,0.07,0.05,0.98,-3.0,0.1,-0.0,800,0,,,,,,,,,,,,,,,,,
380526,1469893054171,,,,,,,0.06,0.05,0.98,-3.0,0.1,-0.1,780,0,,,,,,,,,,,,,,,,,
380546,1469893054191,,,,27,,,0.06,0.05,0.98,-3.0,0.1,-0.2,780,0,0.0,0,39.538677,-122.332443,0.0,0.172,309.7,10,3,1.5,0,0.0,-1,0.0,,0.0,0
380566,1469893054310,,,,,,,0.06,0.05,0.98,-3.0,0.1,-0.1,780,0,,,,,,,,,,,,,,,,,
380586,1469893054330,,,,,,,0.06,0.05,0.98,-3.1,0.2,-0.0,780,0,,,,,,,,,,,,,,,,,
380606,1469893054350,,,,,,,0.06,0.05,0.98,-3.0,0.2,0.0,780,0,,,,,,,,,,,,,,,,,
380626,1469893054370,,,,,,,0.06,0.05,0.98,-3.0,0.1,-0.1,800,0,,,,,,,,,,,,,,,,,
380646,1469893054390,0,150.4,173.0,30,166.7,,0.06,0.05,0.98,-3.0,0.1,-0.2,800,0,0.0,0,39.538677,-122.332443,0.0,0.172,309.7,10,3,1.5,0,0.0,-1,0.0,0.0,0.0,0
380666,1469893054410,,,,,,,0.06,0.05,0.98,-3.0,0.1,-0.1,800,0,,,,,,,,,,,,,,,,,
380686,1469893054430,,,,,,,0.06,0.05,0.98,-3.0,0.1,-0.0,780,0,,,,,,,,,,,,,,,,,
380706,1469893054450,,,,,,,0.06,0.05,0.99,-3.0,0.1,0.0,780,0,,,,,,,,,,,,,,,,,
380726,1469893054470,,,,,,,0.06,0.05,0.99,-3.0,0.1,-0.1,800,0,,,,,,,,,,,,,,,,,
380746,1469893054391,,,,29,,,0.06,0.05,0.98,-2.9,0.1,-0.2,800,0,0.0,0,39.538677,-122.332443,0.0,0.172,309.7,10,3,1.5,0,0.0,-1,0.0,,0.0,0
380766,1469893054411,,,,,,,0.06,0.05,0.98,-3.0,0.0,-0.2,800,0,,,,,,,,,,,,,,,,,
380786,1469893054431,,,,,,,0.06,0.05,0.98,-3.0,0.1,-0.0,800,0,,,,,,,,,,,,,,,,,
380806,1469893054451,,,,,,,0.06,0.06,0.98,-3.0,0.1,0.0,800,0,,,,,,,,,,,,,,,,,
380826,1469893054471,,,,,,,0.06,0.06,0.99,-3.0,0.1,-0.0,800,0,,,,,,,,,,,,,,,,,
380846,1469893054491,0,151.3,173.3,28,165.9,,0.06,0.05,0.98,-3.0,0.0,-0.1,800,0,0.0,0,39.538677,-122.332443,0.0,0.172,309.7,10,3,1.5,0,0.0,-1,0.0,0.0,0.0,0
380866,1469893054511,,,,,,,0.06,0.05,0.98,-3.0,0.0,-0.1,800,0,,,,,,,,,,,,,,,,,
380886,1469893054531,,,,,,,0.06,0.05,0.98,-3.0,0.0,-0.0,800,0,,,,,,,,,,,,,,,,,
380906,1469893054551,,,,,,,0.06,0.06,0.98,-3.0,0.0,0.0,800,0,,,,,,,,,,,,,,,,,
380926,1469893054571,,,,,,,0.07,0.06,0.98,-3.0,0.0,0.0,820,0,,,,,,,,,,,,,,,,,
380946,1469893054591,,,,31,,,0.07,0.06,0.98,-3.0,-0.1,-0.1,820,0,0.0,0,39.538677,-122.332443,0.0,0.172,309.7,10,3,1.5,0,0.0,-1,0.0,,0.0,0
380966,1469893054611,,,,,,,0.07,0.06,0.98,-3.0,-0.1,-0.1,800,0,,,,,,,,,,,,,,,,,
380986,1469893054631,,,,,,,0.07,0.06,0.98,-3.0,-0.1,-0.1,800,0,,,,,,,,,,,,,,,,,
381006,1469893054651,,,,,,,0.07,0.06,0.98,-3.0,-0.0,-0.0,800,0,,,,,,,,,,,,,,,,,
381026,1469893054671,,,,,,,0.07,0.06,0.98,-3.0,-0.0,0.0,800,0,,,,,,,,,,,,,,,,,
381046,1469893054691,0,150.9,173.1,28,166.0,14.41,0.07,0.06,0.99,-3.0,-0.1,-0.1,800,0,0.0,0,39.538677,-122.332443,0.0,0.172,309.7,10,3,1.5,0,0.0,-1,0.0,0.0,0.0,0
381066,1469893054711,,,,,,,0.07,0.05,0.99,-2.9,-0.0,-0.2,820,0,,,,,,,,,,,,,,,,,
381086,1469893054731,,,,,,,0.07,0.05,0.99,-3.0,-0.0,-0.2,820,0,,,,,,,,,,,,,,,,,
381106,1469893054751,,,,,,,0.07,0.05,0.99,-3.0,-0.0,-0.1,800,0,,,,,,,,,,,,,,,,,
381126,1469893054771,,,,,,,0.07,0.06,0.99,-3.0,0.0,-0.1,800,0,,,,,,,,,,,,,,,,,
381146,1469893054791,,,,28,,,0.07,0.05,0.99,-3.0,-0.0,-0.1,800,0,0.0,0,39.538677,-122.332443,0.0,0.172,309.7,10,3,1.5,0,0.0,-1,0.0,,0.0,0
381166,1469893054811,,,,,,,0.06,0.05,0.99,-2.9,-0.1,-0.2,800,0,,,,,,,,,,,,,,,,,
381186,1469893054831,,,,,,,0.07,0.05,0.99,-2.9,-0.0,-0.2,800,0,,,,,,,,,,,,,,,,,
381206,1469893054851,,,,,,,0.07,0.05,0.99,-3.0,-0.0,-0.2,800,0,,,,,,,,,,,,,,,,,
381226,1469893054871,,,,,,,0.07,0.05,0.99,-3.0,0.1,-0.1,820,0,,,,,,,,,,,,,,,,,
381246,1469893054891,0,150.2,172.7,30,166.4,,0.07,0.06,0.99,-3.0,0.0,-0.1,820,0,0.0,0,39.538677,-122.332443,0.0,0.172,309.7,10,3,1.5,0,0.0,-1,0.0,0.0,0.0,0
381266,1469893054904,,,,,,,0.07,0.06,0.99,-2.9,-0.1,-0.2,800,0,,,,,,,,,,,,,,,,,
381286,1469893054924,,,,,,,0.07,0.05,0.99,-2.9,0.0,-0.2,800,0,,,,,,,,,,,,,,,,,
381306,1469893054944,,,,,,,0.07,0.05,0.99,-2.9,0.0,-0.2,800,0,,,,,,,,,,,,,,,,,
381326,1469893054964,,,,,,,0.07,0.06,0.99,-2.9,0.1,-0.0,800,0,,,,,,,,,,,,,,,,,
381346,1469893054991,,,,31,,,0.07,0.06,0.99,-3.0,0.1,-0.0,800,0,0.0,0,39.538677,-122.332443,0.0,0.172,309.7,10,3,1.5,0,0.0,-1,0.0,,0.0,0
381366,1469893055110,,,,,,,0.07,0.06,0.99,-2.9,0.0,-0.1,820,0,,,,,,,,,,,,,,,,,
381386,1469893055130,,,,,,,0.06,0.05,0.99,-2.9,0.0,-0.2,820,0,,,,,,,,,,,,,,,,,
381406,1469893055150,,,,,,,0.06,0.05,0.98,-2.9,0.1,-0.2,820,0,,,,,,,,,,,,,,,,,
381426,1469893055170,,,,,,,0.06,0.06,0.98,-3.0,-0.0,-0.1,800,0,,,,,,,,,,,,,,,,,
381446,1469893055190,0,150.5,173.4,29,167.2,,0.06,0.06,0.99,-3.0,0.1,-0.0,800,0,0.0,0,39.538677,-122.332443,0.0,0.172,309.7,10,3,1.5,0,0.0,-1,0.0,0.0,0.0,0
381466,1469893055210,,,,,,,0.07,0.06,0.99,-3.0,0.0,-0.1,800,0,,,,,,,,,,,,,,,,,
381486,1469893055230,,,,,,,0.06,0.06,0.98,-3.0,-0.0,-0.2,800,0,,,,,,,,,,,,,,,,,
381506,1469893055250,,,,,,,0.06,0.06,0.98,-3.0,0.0,-0.2,820,0,,,,,,,,,,,,,,,,,
381526,1469893055270,,,,,,,0.06,0.06,0.98,-3.0,-0.1,-0.2,820,0,,,,,,,,,,,,,,,,,
381546,1469893055191,,,,31,,,0.06,0.05,0.98,-3.0,-0.1,-0.0,820,0,0.0,0,39.538677,-122.332443,0.0,0.172,309.7,10,3,1.5,0,0.0,-1,0.0,,0.0,0
381566,1469893055211,,,,,,,0.07,0.06,0.98,-3.0,-0.1,-0.0,800,0,,,,,,,,,,,,,,,,,
381586,1469893055231,,,,,,,0.07,0.06,0.99,-3.0,-0.1,-0.1,800,0,,,,,,,,,,,,,,,,,
381606,1469893055251,,,,,,,0.06,0.05,0.99,-3.0,-0.1,-0.2,800,0,,,,,,,,,,,,,,,,,
381626,1469893055271,,,,,,,0.07,0.05,0.98,-3.0,-0.1,-0.2,800,0,,,,,,,,,,,,,,,,,
381646,1469893055291,0,150.0,173.0,27,166.6,,0.06,0.06,0.98,-3.0,-0.1,-0.2,800,0,0.0,0,39.538677,-122.332443,0.0,0.172,309.7,10,3,1.5,0,0.0,-1,0.0,0.0,0.0,0
381666,1469893055311,,,,,,,0.07,0.06,0.99,-3.0,0.0,-0.1,820,0,,,,,,,,,,,,,,,,,
381686,1469893055331,,,,,,,0.07,0.06,0.99,-3.0,-0.0,-0.1,820,0,,,,,,,,,,,,,,,,,
381706,1469893055351,,,,,,,0.06,0.06,0.98,-3.0,-0.1,-0.2,800,0,,,,,,,,,,,,,,,,,
381726,1469893055371,,,,,,,0.07,0.06,0.98,-3.0,-0.0,-0.2,800,0,,,,,,,,,,,,,,,,,
381746,1469893055391,,,,31,,,0.07,0.06,0.98,-3.0,-0.1,-0.2,800,0,0.0,0,39.538677,-122.332443,0.0,0.172,309.7,10,3,1.5,0,0.0,-1,0.0,,0.0,0
381766,1469893055411,,,,,,,0.07,0.06,0.99,-3.0,-0.1,-0.1,800,0,,,,,,,,,,,,,,,,,
381786,1469893055431,,,,,,,0.07,0.06,0.99,-3.0,-0.1,-0.1,800,0,,,,,,,,,,,,,,,,,
381806,1469893055451,,,,,,,0.07,0.06,0.98,-3.0,-0.2,-0.2,800,0,,,,,,,,,,,,,,,,,
381826,1469893055471,,,,,,,0.07,0.06,0.98,-3.0,-0.0,-0.2,800,0,,,,,,,,,,,,,,,,,
381846,1469893055491,0,149.8,172.7,28,166.3,,0.07,0.06,0.98,-3.0,-0.1,-0.2,800,0,0.0,0,39.538677,-122.332443,0.0,0.172,309.7,10,3,1.5,0,0.0,-1,0.0,0.0,0.0,0
381866,1469893055511,,,,,,,0.07,0.06,0.98,-3.0,-0.0,-0.1,800,0,,,,,,,,,,,,,,,,,
381886,1469893055531,,,,,,,0.07,0.07,0.99,-3.0,0.0,-0.1,780,0,,,,,,,,,,,,,,,,,
381906,1469893055551,,,,,,,0.07,0.06,0.99,-3.0,-0.1,-0.2,780,0,,,,,,,,,,,,,,,,,
381926,1469893055571,,,,,,,0.06,0.06,0.99,-2.9,-0.0,-0.3,780,0,,,,,,,,,,,,,,,,,
381946,1469893055591,,,,27,,,0.07,0.06,0.98,-3.0,-0.0,-0.2,780,0,0.0,0,39.538677,-122.332443,0.0,0.172,309.7,10,3,1.5,0,0.0,-1,0.0,,0.0,0
381966,1469893055611,,,,,,,0.07,0.06,0.99,-3.0,0.0,-0.1,800,0,,,,,,,,,,,,,,,,,
381986,1469893055631,,,,,,,0.07,0.07,0.99,-3.0,0.0,-0.1,800,0,,,,,,,,,,,,,,,,,
382006,1469893055651,,,,,,,0.06,0.07,0.99,-3.0,-0.0,-0.2,780,0,,,,,,,,,,,,,,,,,
382026,1469893055671,,,,,,,0.06,0.06,0.98,-2.9,-0.0,-0.3,780,0,,,,,,,,,,,,,,,,,
382046,1469893055691,0,150.2,173.0,28,166.3,14.4,0.06,0.06,0.98,-3.0,0.0,-0.2,780,0,0.0,0,39.538677,-122.332443,0.0,0.172,309.7,10,3,1.5,0,0.0,-1,0.0,0.0,0.0,0
382066,1469893055708,,,,,,,0.07,0.06,0.99,-3.0,0.0,-0.1,780,0,,,,,,,,,,,,,,,,,
382086,1469893055728,,,,,,,0.07,0.07,0.99,-3.0,0.0,-0.0,800,0,,,,,,,,,,,,,,,,,
382106,1469893055748,,,,,,,0.07,0.07,0.99,-3.0,-0.0,-0.1,820,0,,,,,,,,,,,,,,,,,
382126,1469893055768,,,,,,,0.06,0.06,0.99,-3.0,-0.0,-0.2,800,0,,,,,,,,,,,,,,,,,
382146,1469893055791,,,,30,,,0.06,0.06,0.98,-3.0,-0.1,-0.1,800,0,0.0,0,39.538677,-122.332443,0.0,0.172,309.7,10,3,1.5,0,0.0,-1,0.0,,0.0,0
382166,1469893055910,,,,,,,0.06,0.07,0.99,-3.0,-0.1,-0.1,780,0,,,,,,,,,,,,,,,,,
382186,1469893055930,,,,,,,0.07,0.07,0.99,-3.0,-0.1,-0.0,780,0,,,,,,,,,,,,,,,,,
382206,1469893055950,,,,,,,0.06,0.07,0.99,-3.0,-0.1,-0.1,800,0,,,,,,,,,,,,,,,,,
382226,1469893055970,,,,,,,0.06,0.06,0.99,-3.0,-0.1,-0.2,800,0,,,,,,,,,,,,,,,,,
382246,1469893055990,0,150.6,173.5,27,167.2,,0.06,0.06,0.98,-3.0,-0.1,-0.2,800,0,0.0,0,39.538677,-122.332443,0.0,0.172,309.7,10,3,1.5,0,0.0,-1,0.0,0.0,0.0,0
382266,1469893056010,,,,,,,0.06,0.06,0.98,-3.0,-0.1,-0.1,820,0,,,,,,,,,,,,,,,,,
382286,1469893056030,,,,,,,0.06,0.06,0.98,-3.0,-0.0,-0.0,800,0,,,,,,,,,,,,,,,,,
382306,1469893056050,,,,,,,0.06,0.06,0.99,-3.0,-0.0,-0.1,800,0,,,,,,,,,,,,,,,,,
382326,1469893056070,,,,,,,0.06,0.05,0.98,-2.9,-0.1,-0.1,780,0,,,,,,,,,,,,,,,,,
382346,1469893055992,,,,32,,,0.06,0.05,0.98,-3.0,-0.0,-0.1,780,0,0.0,0,39.538677,-122.332443,0.0,0.172,309.7,10,3,1.5,0,0.0,-1,0.0,,0.0,0
382366,1469893056012,,,,,,,0.06,0.05,0.98,-3.0,-0.0,-0.0,800,0,,,,,,,,,,,,,,,,,
382386,1469893056032,,,,,,,0.06,0.06,0.98,-3.0,-0.0,0.0,800,0,,,,,,,,,,,,,,,,,
382406,1469893056052,,,,,,,0.06,0.06,0.98,-3.0,-0.0,-0.0,820,0,,,,,,,,,,,,,,,,,
382426,1469893056072,,,,,,,0.06,0.06,0.98,-3.0,-0.1,-0.1,800,0,,,,,,,,,,,,,,,,,
382446,1469893056092,0,150.0,173.1,30,166.7,,0.06,0.06,0.98,-3.0,-0.1,-0.2,800,0,0.0,0,39.538677,-122.332443,0.0,0.172,309.7,10,3,1.5,0,0.0,-1,0.0,0.0,0.0,0
382466,1469893056112,,,,,,,0.06,0.06,0.98,-3.0,-0.2,-0.1,800,0,,,,,,,,,,,,,,,,,
382486,1469893056132,,,,,,,0.06,0.06,0.98,-3.0,-0.2,-0.0,800,0,,,,,,,,,,,,,,,,,
382506,1469893056152,,,,,,,0.06,0.06,0.99,-3.0,-0.1,-0.0,800,0,,,,,,,,,,,,,,,,,
382526,1469893056172,,,,,,,0.06,0.05,0.98,-3.0,-0.2,-0.1,800,0,,,,,,,,,,,,,,,,,
382546,1469893056192,,,,27,,,0.06,0.05,0.98,-3.0,-0.1,-0.2,820,0,0.0,0,39.538677,-122.332443,0.0,0.172,309.7,10,3,1.5,0,0.0,-1,0.0,,0.0,0
382566,1469893056212,,,,,,,0.06,0.05,0.98,-3.0,-0.2,-0.1,820,0,,,,,,,,,,,,,,,,,
382586,1469893056232,,,,,,,0.07,0.05,0.98,-3.0,-0.2,-0.0,800,0,,,,,,,,,,,,,,,,,
382606,1469893056252,,,,,,,0.07,0.06,0.98,-3.0,-0.2,-0.0,780,0,,,,,,,,,,,,,,,,,
382626,1469893056272,,,,,,,0.07,0.05,0.99,-3.0,-0.3,-0.1,800,0,,,,,,,,,,,,,,,,,
382646,1469893056291,0,149.8,172.7,30,166.4,,0.06,0.05,0.99,-2.9,-0.2,-0.2,800,0,0.0,0,39.538677,-122.332443,0.0,0.172,309.7,10,3,1.5,0,0.0,-1,0.0,0.0,0.0,0
382666,1469893056311,,,,,,,0.07,0.05,0.98,-3.0,-0.2,-0.2,800,0,,,,,,,,,,,,,,,,,
382686,1469893056331,,,,,,,0.07,0.05,0.99,-3.0,-0.2,-0.1,800,0,,,,,,,,,,,,,,,,,
382706,1469893056351,,,,,,,0.07,0.05,0.99,-3.0,-0.1,-0.0,820,0,,,,,,,,,,,,,,,,,
382726,1469893056371,,,,,,,0.07,0.05,0.99,-3.0,-0.2,-0.1,780,0,,,,,,,,,,,,,,,,,
382746,1469893056391,,,,30,,,0.06,0.05,0.99,-2.9,-0.2,-0.2,780,0,0.0,0,39.538677,-122.332443,0.0,0.172,309.7,10,3,1.5,0,0.0,-1,0.0,,0.0,0
382766,1469893056411,,,,,,,0.07,0.05,0.99,-3.0,-0.1,-0.2,780,0,,,,,,,,,,,,,,,,,
382786,1469893056431,,,,,,,0.07,0.05,0.99,-3.0,-0.1,-0.1,780,0,,,,,,,,,,,,,,,,,
382806,1469893056451,,,,,,,0.07,0.06,0.99,-3.0,-0.0,-0.1,780,0,,,,,,,,,,,,,,,,,
382826,1469893056471,,,,,,,0.07,0.05,0.99,-3.0,-0.1,-0.1,780,0,,,,,,,,,,,,,,,,,
382846,1469893056491,0,149.5,172.9,27,166.7,,0.07,0.05,0.99,-2.9,-0.0,-0.2,800,0,0.0,0,39.538677,-122.332443,0.0,0.172,309.7,10,3,1.5,0,0.0,-1,0.0,0.0,0.0,0
382866,1469893056511,,,,,,,0.07,0.05,0.99,-3.0,0.0,-0.2,800,0,,,,,,,,,,,,,,,,,
382886,1469893056531,,,,,,,0.07,0.05,0.99,-3.0,0.0,-0.1,780,0,,,,,,,,,,,,,,,,,
382906,1469893056551,,,,,,,0.07,0.05,0.99,-3.0,0.0,-0.0,780,0,,,,,,,,,,,,,,,,,
382926,1469893056571,,,,,,,0.07,0.05,0.99,-3.0,0.0,-0.1,780,0,,,,,,,,,,,,,,,,,
382946,1469893056691,,,,28,,,0.06,0.05,0.99,-3.0,0.0,-0.2,780,0,0.0,0,39.538677,-122.332443,0.0,0.172,309.7,10,3,1.5,0,0.0,-1,0.0,,0.0,0
382966,1469893056711,,,,,,,0.07,0.05,0.98,-3.0,0.0,-0.2,780,0,,,,,,,,,,,,,,,,,
382986,1469893056731,,,,,,,0.07,0.06,0.99,-3.0,0.1,-0.1,780,0,,,,,,,,,,,,,,,,,
383006,1469893056751,,,,,,,0.07,0.05,0.98,-3.1,-0.0,-0.1,820,0,,,,,,,,,,,,,,,,,
383026,1469893056771,,,,,,,0.07,0.05,0.99,-3.0,-0.1,-0.2,780,0,,,,,,,,,,,,,,,,,
383046,1469893056791,0,149.9,173.1,28,167.1,14.47,0.06,0.05,0.99,-3.0,-0.1,-0.3,780,0,0.0,0,39.538677,-122.332443,0.0,0.172,309.7,10,3,1.5,0,0.0,-1,0.0,0.0,0.0,0
383066,1469893056811,,,,,,,0.07,0.05,0.98,-3.0,-0.1,-0.2,780,0,,,,,,,,,,,,,,,,,
383086,1469893056831,,,,,,,0.07,0.06,0.99,-3.1,-0.0,-0.1,780,0,,,,,,,,,,,,,,,,,
383106,1469893056851,,,,,,,0.07,0.05,0.99,-3.1,-0.0,-0.1,780,0,,,,,,,,,,,,,,,,,
383126,1469893056871,,,,,,,0.07,0.05,0.99,-3.0,-0.2,-0.2,800,0,,,,,,,,,,,,,,,,,
383146,1469893056792,,,,27,,,0.07,0.05,0.98,-3.0,-0.1,-0.3,820,0,0.0,0,39.538677,-122.332443,0.0,0.172,309.7,10,3,1.5,0,0.0,-1,0.0,,0.0,0
383166,1469893056812,,,,,,,0.07,0.05,0.98,-3.0,-0.1,-0.2,820,0,,,,,,,,,,,,,,,,,
383186,1469893056832,,,,,,,0.07,0.05,0.98,-3.1,-0.1,-0.1,780,0,,,,,,,,,,,,,,,,,
383206,1469893056852,,,,,,,0.07,0.05,0.98,-3.1,-0.1,-0.0,780,0,,,,,,,,,,,,,,,,,
383226,1469893056872,,,,,,,0.07,0.05,0.98,-3.0,-0.2,-0.1,780,0,,,,,,,,,,,,,,,,,
383246,1469893056892,1,150.5,173.6,28,167.2,,0.07,0.05,0.98,-3.0,-0.1,-0.2,780,0,0.0,0,39.538677,-122.332443,0.0,0.172,309.7,10,3,1.5,0,0.0,-1,0.0,0.0,0.0,0
383266,1469893056905,,,,,,,0.07,0.05,0.98,-3.0,-0.1,-0.1,780,0,,,,,,,,,,,,,,,,,
383286,1469893056925,,,,,,,0.07,0.05,0.98,-3.1,-0.1,-0.0,800,0,,,,,,,,,,,,,,,,,
383306,1469893056945,,,,,,,0.07,0.05,0.98,-3.1,-0.1,-0.1,820,0,,,,,,,,,,,,,,,,,
383326,1469893056965,,,,,,,0.07,0.05,0.98,-3.0,-0.2,-0.2,780,0,,,,,,,,,,,,,,,,,
383346,1469893056991,,,,30,,,0.06,0.05,0.98,-3.0,-0.2,-0.2,780,0,0.0,0,39.538677,-122.332443,0.0,0.172,309.7,10,3,1.5,0,0.0,-1,0.0,,0.0,0
383366,1469893057011,,,,,,,0.07,0.05,0.98,-3.0,-0.1,-0.2,780,0,,,,,,,,,,,,,,,,,
383386,1469893057031,,,,,,,0.07,0.05,0.99,-3.1,-0.1,-0.0,780,0,,,,,,,,,,,,,,,,,
383406,1469893057051,,,,,,,0.07,0.06,0.99,-3.1,-0.1,-0.0,800,0,,,,,,,,,,,,,,,,,
383426,1469893057071,,,,,,,0.07,0.05,0.99,-3.0,-0.2,-0.1,800,0,,,,,,,,,,,,,,,,,
383446,1469893057091,0,149.5,172.9,28,166.9,,0.07,0.05,0.99,-3.0,-0.1,-0.2,820,0,0.0,0,39.538677,-122.332443,0.0,0.172,309.7,10,3,1.5,0,0.0,-1,0.0,0.0,0.0,0
383466,1469893057111,,,,,,,0.07,0.05,0.98,-3.0,-0.1,-0.2,820,0,,,,,,,,,,,,,,,,,
383486,1469893057131,,,,,,,0.07,0.05,0.99,-3.0,-0.0,-0.1,780,0,,,,,,,,,,,,,,,,,
383506,1469893057151,,,,,,,0.07,0.05,0.98,-3.1,-0.1,-0.1,780,0,,,,,,,,,,,,,,,,,
383526,1469893057171,,,,,,,0.07,0.05,0.98,-3.0,-0.1,-0.2,800,0,,,,,,,,,,,,,,,,,
383546,1469893057191,,,,31,,,0.07,0.05,0.98,-3.0,-0.1,-0.3,800,0,0.0,0,39.538677,-122.332443,0.0,0.172,309.7,10,3,1.5,0,0.0,-1,0.0,,0.0,0
383566,1469893057211,,,,,,,0.07,0.05,0.98,-3.0,-0.1,-0.3,800,0,,,,,,,,,,,,,,,,,
383586,1469893057231,,,,,,,0.07,0.05,0.98,-3.0,-0.1,-0.2,800,0,,,,,,,,,,,,,,,,,
383606,1469893057251,,,,,,,0.07,0.05,0.98,-3.1,-0.0,-0.1,820,0,,,,,,,,,,,,,,,,,
383626,1469893057271,,,,,,,0.07,0.05,0.98,-3.0,-0.0,-0.2,780,0,,,,,,,,,,,,,,,,,
383646,1469893057291,0,150.4,173.6,28,167.2,,0.07,0.05,0.98,-3.0,-0.1,-0.2,800,0,0.0,0,39.538677,-122.332443,0.0,0.172,309.7,10,3,1.5,0,0.0,-1,0.0,0.0,0.0,0
383666,1469893057311,,,,,,,0.07,0.04,0.98,-3.0,0.0,-0.2,800,0,,,,,,,,,,,,,,,,,
383686,1469893057331,,,,,,,0.07,0.05,0.98,-3.0,0.0,-0.2,780,0,,,,,,,,,,,,,,,,,
383706,1469893057351,,,,,,,0.07,0.05,0.98,-3.0,0.0,-0.1,780,0,,,,,,,,,,,,,,,,,
383726,1469893057371,,,,,,,0.07,0.06,0.98,-3.0,0.0,-0.1,800,0,,,,,,,,,,,,,,,,,
383746,1469893057491,,,,27,,,0.07,0.05,0.98,-3.0,-0.0,-0.2,820,0,0.0,0,39.538677,-122.332443,0.0,0.172,309.7,10,3,1.5,0,0.0,-1,0.0,,0.0,0
383766,1469893057511,,,,,,,0.07,0.05,0.97,-3.0,0.1,-0.3,780,0,,,,,,,,,,,,,,,,,
383786,1469893057531,,,,,,,0.07,0.05,0.97,-3.0,0.0,-0.2,780,0,,,,,,,,,,,,,,,,,
383806,1469893057551,,,,,,,0.07,0.06,0.97,-3.0,0.1,-0.1,780,0,,,,,,,,,,,,,,,,,
383826,1469893057571,,,,,,,0.07,0.06,0.98,-3.0,0.0,-0.1,780,0,,,,,,,,,,,,,,,,,
383846,1469893057591,0,149.5,172.6,30,166.6,,0.07,0.06,0.98,-3.0,-0.0,-0.2,800,0,0.0,0,39.538677,-122.332443,0.0,0.172,309.7,10,3,1.5,0,0.0,-1,0.0,0.0,0.0,0
383866,1469893057611,,,,,,,0.07,0.06,0.98,-3.0,0.1,-0.2,800,0,,,,,,,,,,,,,,,,,
383886,1469893057631,,,,,,,0.07,0.06,0.98,-3.0,0.0,-0.2,800,0,,,,,,,,,,,,,,,,,
383906,1469893057651,,,,,,,0.07,0.07,0.98,-3.0,0.1,-0.1,820,0,,,,,,,,,,,,,,,,,
383926,1469893057671,,,,,,,0.07,0.07,0.98,-3.0,0.1,-0.1,760,0,,,,,,,,,,,,,,,,,
383946,1469893057591,,,,27,,,0.07,0.06,0.98,-3.0,-0.0,-0.2,760,0,0.0,0,39.538677,-122.332443,0.0,0.172,309.7,10,3,1.5,0,0.0,-1,0.0,,0.0,0
383966,1469893057611,,,,,,,0.07,0.06,0.98,-3.0,0.1,-0.2,760,0,,,,,,,,,,,,,,,,,
383986,1469893057631,,,,,,,0.07,0.06,0.98,-3.0,0.1,-0.1,740,0,,,,,,,,,,,,,,,,,
384006,1469893057651,,,,,,,0.07,0.06,0.98,-3.0,-0.0,-0.1,760,0,,,,,,,,,,,,,,,,,
384026,1469893057671,,,,,,,0.07,0.06,0.98,-2.9,-0.0,-0.2,760,0,,,,,,,,,,,,,,,,,
384046,1469893057691,0,150.4,173.8,27,167.1,14.42,0.07,0.05,0.98,-2.9,0.0,-0.2,760,0,0.0,0,39.538677,-122.332443,0.0,0.172,309.7,10,3,1.5,0,0.0,-1,0.0,0.0,0.0,0
384066,1469893057711,,,,,,,0.07,0.05,0.98,-3.0,-0.0,-0.1,780,0,,,,,,,,,,,,,,,,,
384086,1469893057731,,,,,,,0.07,0.06,0.98,-3.0,0.1,-0.1,740,0,,,,,,,,,,,,,,,,,
384106,1469893057751,,,,,,,0.07,0.05,0.99,-2.9,0.0,-0.2,760,0,,,,,,,,,,,,,,,,,
384126,1469893057771,,,,,,,0.07,0.05,0.98,-2.9,0.0,-0.2,740,0,,,,,,,,,,,,,,,,,
384146,1469893057791,,,,29,,,0.07,0.05,0.98,-3.0,0.1,-0.2,740,0,0.0,0,39.538677,-122.332443,0.0,0.172,309.7,10,3,1.5,0,0.0,-1,0.0,,0.0,0
384166,1469893057811,,,,,,,0.07,0.06,0.99,-3.0,0.1,-0.1,760,0,,,,,,,,,,,,,,,,,
384186,1469893057831,,,,,,,0.07,0.05,0.99,-3.0,0.1,-0.1,760,0,,,,,,,,,,,,,,,,,
384206,1469893057851,,,,,,,0.07,0.05,0.99,-3.0,0.0,-0.2,780,0,,,,,,,,,,,,,,,,,
384226,1469893057871,,,,,,,0.07,0.05,0.98,-3.0,0.1,-0.2,780,0,,,,,,,,,,,,,,,,,
384246,1469893057891,0,150.3,173.5,27,167.2,,0.07,0.05,0.99,-3.0,0.1,-0.1,760,0,0.0,0,39.538677,-122.332443,0.0,0.172,309.7,10,3,1.5,0,0.0,-1,0.0,0.0,0.0,0
384266,1469893057904,,,,,,,0.07,0.06,0.98,-3.0,0.1,-0.1,760,0,,,,,,,,,,,,,,,,,
384286,1469893057924,,,,,,,0.07,0.06,0.98,-3.0,-0.0,-0.2,760,0,,,,,,,,,,,,,,,,,
384306,1469893057944,,,,,,,0.06,0.05,0.98,-3.0,0.0,-0.2,760,0,,,,,,,,,,,,,,,,,
384326,1469893057964,,,,,,,0.07,0.05,0.98,-3.0,-0.0,-0.1,760,0,,,,,,,,,,,,,,,,,
384346,1469893057991,,,,28,,,0.07,0.06,0.98,-3.0,0.1,-0.1,760,0,0.0,0,39.538677,-122.332443,0.0,0.172,309.7,10,3,1.5,0,0.0,-1,0.0,,0.0,0
384366,1469893058011,,,,,,,0.07,0.05,0.99,-3.0,0.0,-0.1,800,0,,,,,,,,,,,,,,,,,
384386,1469893058031,,,,,,,0.06,0.04,0.99,-3.0,-0.0,-0.3,760,0,,,,,,,,,,,,,,,,,
384406,1469893058051,,,,,,,0.06,0.04,0.98,-3.0,0.1,-0.3,760,0,,,,,,,,,,,,,,,,,
384426,1469893058071,,,,,,,0.06,0.04,0.99,-3.0,0.0,-0.1,780,0,,,,,,,,,,,,,,,,,
384446,1469893058091,0,150.2,173.6,29,167.8,,0.07,0.05,0.99,-3.0,0.1,-0.1,780,0,0.0,0,39.538677,-122.332443,0.0,0.172,309.7,10,3,1.5,0,0.0,-1,0.0,0.0,0.0,0
384466,1469893058111,,,,,,,0.06,0.06,0.99,-3.0,-0.0,-0.2,780,0,,,,,,,,,,,,,,,,,
384486,1469893058131,,,,,,,0.06,0.05,0.98,-3.0,0.0,-0.2,780,0,,,,,,,,,,,,,,,,,
384506,1469893058151,,,,,,,0.06,0.05,0.99,-3.0,-0.0,-0.2,780,0,,,,,,,,,,,,,,,,,
384526,1469893058171,,,,,,,0.06,0.05,0.99,-3.0,0.1,-0.1,820,0,,,,,,,,,,,,,,,,,
384546,1469893058191,,,,31,,,0.07,0.05,0.99,-3.0,0.0,-0.0,780,0,0.0,0,39.538677,-122.332443,0.0,0.172,309.7,10,3,1.5,0,0.0,-1,0.0,,0.0,0
384566,1469893058310,,,,,,,0.07,0.05,0.99,-3.0,-0.0,-0.2,780,0,,,,,,,,,,,,,,,,,
384586,1469893058330,,,,,,,0.06,0.05,0.98,-3.0,0.1,-0.2,780,0,,,,,,,,,,,,,,,,,
384606,1469893058350,,,,,,,0.07,0.05,0.98,-3.1,0.0,-0.2,780,0,,,,,,,,,,,,,,,,,
384626,1469893058370,,,,,,,0.07,0.06,0.99,-3.1,0.1,-0.1,780,0,,,,,,,,,,,,,,,,,
384646,1469893058390,0,150.2,173.6,29,167.7,,0.07,0.06,0.99,-3.1,0.1,-0.1,800,0,0.0,0,39.538677,-122.332443,0.0,0.172,309.7,10,3,1.5,0,0.0,-1,0.0,0.0,0.0,0
384666,1469893058410,,,,,,,0.07,0.06,0.99,-3.1,0.0,-0.2,800,0,,,,,,,,,,,,,,,,,
384686,1469893058430,,,,,,,0.06,0.06,0.98,-3.1,0.1,-0.2,780,0,,,,,,,,,,,,,,,,,
384706,1469893058450,,,,,,,0.07,0.05,0.98,-3.1,0.0,-0.2,780,0,,,,,,,,,,,,,,,,,
384726,1469893058470,,,,,,,0.07,0.06,0.99,-3.1,0.1,-0.1,780,0,,,,,,,,,,,,,,,,,
384746,1469893058391,,,,29,,,0.07,0.07,0.99,-3.1,0.1,-0.1,780,0,0.0,0,39.538677,-122.332443,0.0,0.172,309.7,10,3,1.5,0,0.0,-1,0.0,,0.0,0
384766,1469893058411,,,,,,,0.07,0.06,0.99,-3.0,0.0,-0.2,780,0,,,,,,,,,,,,,,,,,
384786,1469893058431,,,,,,,0.07,0.06,0.98,-3.0,0.1,-0.2,780,0,,,,,,,,,,,,,,,,,
384806,1469893058451,,,,,,,0.07,0.06,0.98,-3.0,0.0,-0.1,780,0,,,,,,,,,,,,,,,,,
384826,1469893058471,,,,,,,0.07,0.07,0.98,-3.0,0.1,-0.0,820,0,,,,,,,,,,,,,,,,,
384846,1469893058491,0,149.0,172.5,31,166.9,,0.07,0.06,0.97,-3.0,-0.1,-0.1,780,0,0.0,0,39.538677,-122.332443,0.0,0.172,309.7,10,3,1.5,0,0.0,-1,0.0,0.0,0.0,0
384866,1469893058511,,,,,,,0.07,0.06,0.97,-3.0,-0.1,-0.2,780,0,,,,,,,,,,,,,,,,,
384886,1469893058531,,,,,,,0.07,0.06,0.97,-3.0,-0.1,-0.2,780,0,,,,,,,,,,,,,,,,,
384906,1469893058551,,,,,,,0.07,0.06,0.97,-3.0,-0.2,-0.2,760,0,,,,,,,,,,,,,,,,,
384926,1469893058571,,,,,,,0.07,0.07,0.97,-3.0,-0.2,-0.1,780,0,,,,,,,,,,,,,,,,,
384946,1469893058591,,,,25,,,0.07,0.06,0.98,-3.0,-0.2,-0.1,780,0,0.0,0,39.538677,-122.332443,0.0,0.172,309.7,10,3,1.5,0,0.0,-1,0.0,,0.0,0
384966,1469893058611,,,,,,,0.07,0.06,0.98,-3.0,-0.2,-0.2,800,0,,,,,,,,,,,,,,,,,
384986,1469893058631,,,,,,,0.07,0.06,0.98,-3.0,-0.1,-0.2,800,0,,,,,,,,,,,,,,,,,
385006,1469893058651,,,,,,,0.07,0.06,0.98,-3.0,-0.0,-0.1,760,0,,,,,,,,,,,,,,,,,
385026,1469893058671,,,,,,,0.07,0.06,0.98,-3.0,-0.1,-0.1,760,0,,,,,,,,,,,,,,,,,
385046,1469893058691,0,149.7,172.8,30,166.9,14.48,0.07,0.06,0.98,-3.0,-0.1,-0.2,760,0,0.0,0,39.538677,-122.332443,0.0,0.172,309.7,10,3,1.5,0,0.0,-1,0.0,0.0,0.0,0
385066,1469893058711,,,,,,,0.07,0.06,0.98,-3.0,-0.1,-0.2,780,0,,,,,,,,,,,,,,,,,
385086,1469893058731,,,,,,,0.07,0.06,0.97,-3.0,-0.2,-0.2,780,0,,,,,,,,,,,,,,,,,
385106,1469893058751,,,,,,,0.07,0.06,0.97,-3.0,-0.1,-0.1,780,0,,,,,,,,,,,,,,,,,
385126,1469893058771,,,,,,,0.07,0.06,0.98,-3.0,-0.2,-0.1,800,0,,,,,,,,,,,,,,,,,
385146,1469893058791,,,,27,,,0.07,0.06,0.98,-3.0,-0.2,-0.2,760,0,0.0,0,39.538677,-122.332443,0.0,0.172,309.7,10,3,1.5,0,0.0,-1,0.0,,0.0,0
385166,1469893058811,,,,,,,0.07,0.05,0.97,-3.0,-0.1,-0.2,760,0,,,,,,,,,,,,,,,,,
385186,1469893058831,,,,,,,0.07,0.06,0.98,-3.0,-0.2,-0.1,760,0,,,,,,,,,,,,,,,,,
385206,1469893058851,,,,,,,0.07,0.06,0.98,-3.0,-0.1,-0.0,760,0,,,,,,,,,,,,,,,,,
385226,1469893058871,,,,,,,0.07,0.06,0.98,-3.0,-0.1,-0.1,760,0,,,,,,,,,,,,,,,,,
385246,1469893058891,0,149.2,172.8,29,167.3,,0.06,0.06,0.98,-3.0,-0.1,-0.2,760,0,0.0,0,39.538677,-122.332443,0.0,0.172,309.7,10,3,1.5,0,0.0,-1,0.0,0.0,0.0,0
385266,1469893058906,,,,,,,0.07,0.06,0.98,-3.0,-0.1,-0.1,760,0,,,,,,,,,,,,,,,,,
385286,1469893058926,,,,,,,0.07,0.07,0.98,-3.0,-0.0,-0.0,780,0,,,,,,,,,,,,,,,,,
385306,1469893058946,,,,,,,0.07,0.06,0.98,-3.0,-0.1,-0.0,760,0,,,,,,,,,,,,,,,,,
385326,1469893058966,,,,,,,0.07,0.07,0.98,-3.0,-0.1,-0.1,760,0,,,,,,,,,,,,,,,,,
385346,1469893059091,,,,26,,,0.07,0.06,0.98,-3.0,0.0,-0.2,760,0,0.0,0,39.538677,-122.332443,0.0,0.172,309.7,10,3,1.5,0,0.0,-1,0.0,,0.0,0
385366,1469893059111,,,,,,,0.07,0.06,0.98,-3.0,-0.0,-0.1,740,0,,,,,,,,,,,,,,,,,
385386,1469893059131,,,,,,,0.07,0.07,0.98,-3.0,-0.0,-0.0,760,0,,,,,,,,,,,,,,,,,
385406,1469893059151,,,,,,,0.07,0.06,0.98,-3.0,-0.1,-0.1,760,0,,,,,,,,,,,,,,,,,
385426,1469893059171,,,,,,,0.07,0.06,0.98,-3.0,-0.0,-0.1,760,0,,,,,,,,,,,,,,,,,
385446,1469893059191,0,150.0,173.2,28,167.4,,0.07,0.06,0.98,-3.0,-0.1,-0.0,780,0,0.0,0,39.538677,-122.332443,0.0,0.172,309.7,10,3,1.5,0,0.0,-1,0.0,0.0,0.0,0
385466,1469893059211,,,,,,,0.07,0.06,0.98,-3.0,-0.0,0.0,740,0,,,,,,,,,,,,,,,,,
385486,1469893059231,,,,,,,0.07,0.06,0.99,-3.0,-0.1,-0.1,760,0,,,,,,,,,,,,,,,,,
385506,1469893059251,,,,,,,0.06,0.05,0.98,-3.0,-0.0,-0.1,740,0,,,,,,,,,,,,,,,,,
385526,1469893059271,,,,,,,0.07,0.06,0.98,-3.0,-0.0,-0.1,740,0,,,,,,,,,,,,,,,,,
385546,1469893059192,,,,28,,,0.07,0.06,0.99,-3.0,0.0,0.0,760,0,0.0,0,39.538677,-122.332443,0.0,0.172,309.7,10,3,1.5,0,0.0,-1,0.0,,0.0,0
385566,1469893059212,,,,,,,0.07,0.06,0.99,-3.0,-0.0,-0.0,760,0,,,,,,,,,,,,,,,,,
385586,1469893059232,,,,,,,0.07,0.06,0.99,-3.0,-0.0,-0.1,780,0,,,,,,,,,,,,,,,,,
385606,1469893059252,,,,,,,0.07,0.06,0.99,-3.0,-0.0,-0.1,780,0,,,,,,,,,,,,,,,,,
385626,1469893059272,,,,,,,0.07,0.07,0.99,-3.0,0.0,-0.0,740,0,,,,,,,,,,,,,,,,,
385646,1469893059291,0,148.9,172.5,25,167.1,,0.07,0.06,0.99,-3.0,0.1,-0.0,760,0,0.0,0,39.538677,-122.332443,0.0,0.172,309.7,10,3,1.5,0,0.0,-1,0.0,0.0,0.0,0
385666,1469893059311,,,,,,,0.07,0.06,1.0,-3.0,-0.1,-0.1,720,0,,,,,,,,,,,,,,,,,
385686,1469893059331,,,,,,,0.07,0.07,1.0,-3.0,0.0,-0.1,720,0,,,,,,,,,,,,,,,,,
385706,1469893059351,,,,,,,0.07,0.07,1.0,-3.0,0.0,-0.1,740,24,,,,,,,,,,,,,,,,,
385726,1469893059371,,,,,,,0.07,0.06,1.0,-2.9,-0.0,-0.1,740,24,,,,,,,,,,,,,,,,,
385746,1469893059391,,,,25,,,0.07,0.05,1.0,-2.9,-0.1,-0.1,760,24,0.0,0,39.538677,-122.332443,0.0,0.172,309.7,10,3,1.5,0,0.0,-1,0.0,,0.0,0
385766,1469893059411,,,,,,,0.07,0.05,1.0,-2.9,-0.0,-0.1,760,24,,,,,,,,,,,,,,,,,
385786,1469893059431,,,,,,,0.07,0.05,1.0,-2.9,0.0,-0.0,740,24,,,,,,,,,,,,,,,,,
385806,1469893059451,,,,,,,0.07,0.05,1.0,-2.9,0.0,-0.0,740,1538461,,,,,,,,,,,,,,,,,
385826,1469893059471,,,,,,,0.07,0.05,1.0,-2.9,-0.1,-0.1,740,0,,,,,,,,,,,,,,,,,
385846,1469893059491,0,149.7,173.0,27,167.2,,0.07,0.04,0.99,-2.9,-0.0,-0.1,740,0,30.833,0,39.538677,-122.332443,0.0,0.172,309.7,10,3,1.5,0,0.0,-1,0.0,0.0,0.0,0
385866,1469893059511,,,,,,,0.07,0.05,0.99,-3.0,0.0,-0.0,740,0,,,,,,,,,,,,,,,,,
385886,1469893059531,,,,,,,0.07,0.05,0.99,-3.0,-0.1,-0.0,740,0,,,,,,,,,,,,,,,,,
385906,1469893059551,,,,,,,0.07,0.05,0.99,-3.0,-0.2,-0.1,780,0,,,,,,,,,,,,,,,,,
385926,1469893059571,,,,,,,0.07,0.05,0.99,-3.0,-0.0,-0.1,780,0,,,,,,,,,,,,,,,,,
385946,1469893059592,,,,26,,,0.07,0.05,0.99,-3.0,-0.1,-0.1,740,0,0.0,0,39.538677,-122.332443,0.0,0.172,309.7,10,3,1.5,0,0.0,-1,0.0,,0.0,0
385966,1469893059612,,,,,,,0.07,0.06,0.99,-3.0,-0.1,-0.0,740,0,,,,,,,,,,,,,,,,,
385986,1469893059632,,,,,,,0.07,0.05,0.99,-3.0,-0.1,-0.1,740,0,,,,,,,,,,,,,,,,,
386006,1469893059652,,,,,,,0.07,0.05,0.98,-3.0,-0.1,-0.2,740,0,,,,,,,,,,,,,,,,,
386026,1469893059672,,,,,,,0.07,0.06,0.98,-3.0,-0.1,-0.1,760,0,,,,,,,,,,,,,,,,,
386046,1469893059691,0,149.7,173.3,29,168.0,14.48,0.07,0.06,0.99,-3.0,-0.1,-0.1,760,0,0.0,0,39.538677,-122.332443,0.0,0.172,309.7,10,3,1.5,0,0.0,-1,0.0,0.0,0.0,0
386066,1469893059711,,,,,,,0.07,0.06,0.99,-3.0,-0.1,-0.1,780,0,,,,,,,,,,,,,,,,,
386086,1469893059731,,,,,,,0.06,0.06,0.99,-3.0,-0.1,-0.2,760,0,,,,,,,,,,,,,,,,,
386106,1469893059751,,,,,,,0.07,0.06,0.98,-3.0,-0.0,-0.2,760,0,,,,,,,,,,,,,,,,,
386126,1469893059771,,,,,,,0.07,0.06,0.99,-3.0,0.0,-0.1,760,0,,,,,,,,,,,,,,,,,
386146,1469893059891,,,,25,,,0.07,0.06,0.99,-3.0,0.0,-0.1,740,0,0.0,0,39.538677,-122.332443,0.0,0.172,309.7,10,3,1.5,0,0.0,-1,0.0,,0.0,0
386166,1469893059911,,,,,,,0.07,0.06,0.99,-3.0,0.0,-0.2,760,0,,,,,,,,,,,,,,,,,
386186,1469893059931,,,,,,,0.07,0.06,0.99,-3.0,0.0,-0.2,760,0,,,,,,,,,,,,,,,,,
386206,1469893059951,,,,,,,0.07,0.06,0.98,-3.1,0.0,-0.1,740,0,,,,,,,,,,,,,,,,,
386226,1469893059971,,,,,,,0.07,0.06,0.99,-3.1,-0.0,-0.1,780,0,,,,,,,,,,,,,,,,,
386246,1469893059991,0,148.8,172.4,28,167.0,,0.07,0.06,0.99,-3.0,-0.1,-0.2,740,0,0.0,0,39.538677,-122.332443,0.0,0.172,309.7,10,3,1.5,0,0.0,-1,0.0,0.0,0.0,0
386266,1469893060011,,,,,,,0.07,0.06,0.98,-3.0,-0.0,-0.2,740,0,,,,,,,,,,,,,,,,,
386286,1469893060031,,,,,,,0.07,0.06,0.99,-3.1,-0.0,-0.1,760,0,,,,,,,,,,,,,,,,,
386306,1469893060051,,,,,,,0.07,0.06,0.99,-3.1,-0.0,-0.1,740,0,,,,,,,,,,,,,,,,,
386326,1469893060071,,,,,,,0.07,0.06,0.99,-3.0,-0.1,-0.2,760,0,,,,,,,,,,,,,,,,,
386346,1469893060091,,,,27,,,0.07,0.06,0.99,-3.0,-0.0,-0.2,760,0,0.0,0,39.538677,-122.332443,0.0,0.172,309.7,10,3,1.5,0,0.0,-1,0.0,,0.0,0
386366,1469893060005,,,,,,,0.07,0.06,0.99,-3.0,-0.0,-0.1,760,0,,,,,,,,,,,,,,,,,
386386,1469893060025,,,,,,,0.07,0.06,0.99,-3.0,-0.1,-0.1,780,0,,,,,,,,,,,,,,,,,
386406,1469893060045,,,,,,,0.07,0.06,0.99,-3.0,-0.1,-0.2,740,0,,,,,,,,,,,,,,,,,
386426,1469893060065,,,,,,,0.06,0.06,0.99,-3.0,-0.0,-0.2,760,0,,,,,,,,,,,,,,,,,
386446,1469893060091,0,149.3,172.8,26,167.8,,0.07,0.06,0.98,-3.0,-0.1,-0.2,760,0,0.0,0,39.538677,-122.332443,0.0,0.172,309.7,10,3,1.5,0,0.0,-1,0.0,0.0,0.0,0
386466,1469893060111,,,,,,,0.07,0.06,0.99,-3.0,-0.0,-0.1,740,0,,,,,,,,,,,,,,,,,
386486,1469893060131,,,,,,,0.07,0.06,0.99,-3.0,-0.0,-0.2,760,0,,,,,,,,,,,,,,,,,
386506,1469893060151,,,,,,,0.06,0.05,0.99,-2.9,-0.0,-0.2,760,0,,,,,,,,,,,,,,,,,
386526,1469893060171,,,,,,,0.06,0.05,0.99,-3.0,0.0,-0.2,760,0,,,,,,,,,,,,,,,,,
386546,1469893060192,,,,24,,,0.07,0.06,0.99,-3.0,0.0,-0.1,780,0,0.0,0,39.538677,-122.332443,0.0,0.172,309.7,10,3,1.5,0,0.0,-1,0.0,,0.0,0
386566,1469893060212,,,,,,,0.07,0.06,0.99,-3.0,-0.0,-0.1,740,0,,,,,,,,,,,,,,,,,
386586,1469893060232,,,,,,,0.07,0.06,0.99,-3.0,-0.1,-0.2,740,0,,,,,,,,,,,,,,,,,
386606,1469893060252,,,,,,,0.07,0.06,0.99,-3.0,0.0,-0.2,740,0,,,,,,,,,,,,,,,,,
386626,1469893060272,,,,,,,0.07,0.06,0.98,-3.0,0.0,-0.1,740,0,,,,,,,,,,,,,,,,,
386646,1469893060291,0,148.8,172.6,29,167.3,,0.07,0.06,0.98,-3.0,-0.0,-0.1,740,0,0.0,0,39.538677,-122.332443,0.0,0.172,309.7,10,3,1.5,0,0.0,-1,0.0,0.0,0.0,0
386666,1469893060311,,,,,,,0.07,0.06,0.98,-3.0,-0.1,-0.2,760,0,,,,,,,,,,,,,,,,,
386686,1469893060331,,,,,,,0.07,0.06,0.98,-2.9,-0.1,-0.2,760,0,,,,,,,,,,,,,,,,,
386706,1469893060351,,,,,,,0.06,0.06,0.98,-3.0,-0.1,-0.2,780,0,,,,,,,,,,,,,,,,,
386726,1469893060371,,,,,,,0.07,0.06,0.98,-3.0,-0.1,-0.1,740,0,,,,,,,,,,,,,,,,,
386746,1469893060391,,,,26,,,0.07,0.06,0.98,-3.0,-0.1,-0.2,740,0,0.0,0,39.538677,-122.332443,0.0,0.172,309.7,10,3,1.5,0,0.0,-1,0.0,,0.0,0
386766,1469893060411,,,,,,,0.06,0.05,0.98,-3.0,-0.0,-0.2,740,0,,,,,,,,,,,,,,,,,
386786,1469893060431,,,,,,,0.07,0.06,0.97,-3.0,-0.0,-0.1,740,0,,,,,,,,,,,,,,,,,
386806,1469893060451,,,,,,,0.07,0.07,0.98,-3.0,-0.0,-0.1,740,0,,,,,,,,,,,,,,,,,
386826,1469893060471,,,,,,,0.07,0.06,0.98,-3.0,0.0,-0.1,740,0,,,,,,,,,,,,,,,,,
386846,1469893060491,0,148.7,172.6,25,167.4,,0.07,0.06,0.98,-3.0,0.1,-0.2,780,0,0.0,0,39.538677,-122.332443,0.0,0.172,309.7,10,3,1.5,0,0.0,-1,0.0,0.0,0.0,0
386866,1469893060508,,,,,,,0.07,0.07,0.98,-3.0,0.0,-0.1,780,0,,,,,,,,,,,,,,,,,
386886,1469893060528,,,,,,,0.07,0.07,0.98,-3.0,0.1,-0.0,740,0,,,,,,,,,,,,,,,,,
386906,1469893060548,,,,,,,0.07,0.06,0.99,-3.0,0.1,-0.1,740,0,,,,,,,,,,,,,,,,,
386926,1469893060568,,,,,,,0.07,0.06,0.99,-3.0,-0.0,-0.2,740,0,,,,,,,,,,,,,,,,,
386946,1469893060591,,,,27,,,0.06,0.06,0.98,-3.0,0.1,-0.1,740,0,0.0,0,39.538677,-122.332443,0.0,0.172,309.7,10,3,1.5,0,0.0,-1,0.0,,0.0,0
386966,1469893060710,,,,,,,0.07,0.06,0.99,-3.0,0.0,-0.0,760,0,,,,,,,,,,,,,,,,,
386986,1469893060730,,,,,,,0.07,0.06,0.99,-3.0,0.0,-0.0,760,0,,,,,,,,,,,,,,,,,
387006,1469893060750,,,,,,,0.06,0.05,0.99,-3.0,-0.1,-0.1,780,0,,,,,,,,,,,,,,,,,
387026,1469893060770,,,,,,,0.07,0.05,0.98,-3.0,-0.0,-0.0,780,0,,,,,,,,,,,,,,,,,
387046,1469893060790,0,148.7,172.6,28,167.6,14.52,0.07,0.06,0.98,-3.0,0.0,0.0,740,0,0.0,0,39.538677,-122.332443,0.0,0.172,309.7,10,3,1.5,0,0.0,-1,0.0,0.0,0.0,0
387066,1469893060810,,,,,,,0.07,0.06,0.99,-3.0,-0.0,0.0,740,0,,,,,,,,,,,,,,,,,
387086,1469893060830,,,,,,,0.07,0.06,0.99,-2.9,-0.1,-0.1,740,0,,,,,,,,,,,,,,,,,
387106,1469893060850,,,,,,,0.07,0.06,0.98,-2.9,-0.0,-0.1,740,0,,,,,,,,,,,,,,,,,
387126,1469893060870,,,,,,,0.06,0.05,0.98,-2.9,0.0,-0.1,760,0,,,,,,,,,,,,,,,,,
387146,1469893060791,,,,26,,,0.06,0.06,0.99,-2.9,0.0,-0.0,760,0,0.0,0,39.538677,-122.332443,0.0,0.172,309.7,10,3,1.5,0,0.0,-1,0.0,,0.0,0
387166,1469893060811,,,,,,,0.06,0.05,0.98,-2.9,-0.0,-0.1,780,0,,,,,,,,,,,,,,,,,
387186,1469893060831,,,,,,,0.06,0.05,0.98,-3.0,0.0,-0.1,740,0,,,,,,,,,,,,,,,,,
387206,1469893060851,,,,,,,0.06,0.06,0.98,-3.0,0.0,-0.1,740,0,,,,,,,,,,,,,,,,,
387226,1469893060871,,,,,,,0.07,0.06,0.98,-3.0,0.1,-0.1,740,0,,,,,,,,,,,,,,,,,
387246,1469893060891,0,149.6,173.2,27,168.1,,0.06,0.05,0.99,-3.0,0.1,-0.1,760,0,0.0,0,39.538677,-122.332443,0.0,0.172,309.7,10,3,1.5,0,0.0,-1,0.0,0.0,0.0,0
387266,1469893060904,,,,,,,0.07,0.05,0.98,-2.9,0.0,-0.2,760,0,,,,,,,,,,,,,,,,,
387286,1469893060924,,,,,,,0.07,0.06,0.98,-3.0,0.0,-0.2,760,0,,,,,,,,,,,,,,,,,
387306,1469893060944,,,,,,,0.07,0.06,0.98,-2.9,-0.0,-0.1,740,0,,,,,,,,,,,,,,,,,
387326,1469893060964,,,,,,,0.07,0.05,0.99,-2.9,0.0,-0.1,780,0,,,,,,,,,,,,,,,,,
387346,1469893060991,,,,29,,,0.06,0.05,0.98,-2.9,-0.0,-0.2,740,0,0.0,0,39.538677,-122.332443,0.0,0.172,309.7,10,3,1.5,0,0.0,-1,0.0,,0.0,0
387366,1469893061011,,,,,,,0.07,0.05,0.98,-2.9,0.0,-0.2,740,0,,,,,,,,,,,,,,,,,
387386,1469893061031,,,,,,,0.07,0.05,0.99,-2.9,0.1,-0.1,740,0,,,,,,,,,,,,,,,,,
387406,1469893061051,,,,,,,0.07,0.05,0.98,-2.9,0.0,-0.1,740,0,,,,,,,,,,,,,,,,,
387426,1469893061071,,,,,,,0.06,0.05,0.99,-2.9,0.0,-0.2,740,0,,,,,,,,,,,,,,,,,
387446,1469893061091,0,149.6,172.3,27,167.1,,0.07,0.05,0.98,-2.9,0.0,-0.2,740,0,0.0,0,39.538677,-122.332443,0.0,0.172,309.7,10,3,1.5,0,0.0,-1,0.0,0.0,0.0,0
387466,1469893061111,,,,,,,0.06,0.05,0.98,-2.9,0.1,-0.1,740,0,,,,,,,,,,,,,,,,,
387486,1469893061131,,,,,,,0.06,0.05,0.98,-2.9,0.1,-0.1,780,0,,,,,,,,,,,,,,,,,
387506,1469893061151,,,,,,,0.06,0.05,0.98,-2.9,-0.0,-0.1,740,0,,,,,,,,,,,,,,,,,
387526,1469893061171,,,,,,,0.06,0.05,0.98,-2.9,0.0,-0.1,740,0,,,,,,,,,,,,,,,,,
387546,1469893061191,,,,27,,,0.06,0.05,0.98,-2.9,0.0,-0.1,740,0,0.0,0,39.538677,-122.332443,0.0,0.172,309.7,10,3,1.5,0,0.0,-1,0.0,,0.0,0
387566,1469893061211,,,,,,,0.06,0.06,0.98,-2.9,0.0,-0.0,740,0,,,,,,,,,,,,,,,,,
387586,1469893061231,,,,,,,0.06,0.05,0.98,-2.9,-0.0,-0.1,740,0,,,,,,,,,,,,,,,,,
387606,1469893061251,,,,,,,0.06,0.05,0.98,-2.9,0.1,-0.1,740,0,,,,,,,,,,,,,,,,,
387626,1469893061271,,,,,,,0.06,0.06,0.98,-2.9,0.0,-0.1,740,0,,,,,,,,,,,,,,,,,
387646,1469893061291,0,149.8,172.4,25,167.2,,0.06,0.06,0.98,-2.9,-0.0,-0.0,760,0,0.0,0,39.538677,-122.332443,0.0,0.172,309.7,10,3,1.5,0,0.0,-1,0.0,0.0,0.0,0
387666,1469893061311,,,,,,,0.06,0.06,0.98,-2.9,-0.1,-0.1,720,0,,,,,,,,,,,,,,,,,
387686,1469893061331,,,,,,,0.06,0.06,0.97,-2.9,-0.0,-0.1,720,0,,,,,,,,,,,,,,,,,
387706,1469893061351,,,,,,,0.06,0.06,0.97,-2.9,0.0,-0.0,740,0,,,,,,,,,,,,,,,,,
387726,1469893061371,,,,,,,0.06,0.06,0.97,-2.9,-0.1,-0.1,720,0,,,,,,,,,,,,,,,,,
387746,1469893061491,,,,28,,,0.06,0.06,0.97,-2.9,-0.1,-0.1,740,0,0.0,0,39.538677,-122.332443,0.0,0.172,309.7,10,3,1.5,0,0.0,-1,0.0,,0.0,0
387766,1469893061511,,,,,,,0.06,0.06,0.97,-2.9,-0.0,-0.2,740,0,,,,,,,,,,,,,,,,,
387786,1469893061531,,,,,,,0.06,0.05,0.97,-2.9,-0.0,-0.1,740,0,,,,,,,,,,,,,,,,,
387806,1469893061551,,,,,,,0.06,0.06,0.97,-2.9,-0.1,-0.1,760,0,,,,,,,,,,,,,,,,,
387826,1469893061571,,,,,,,0.06,0.05,0.98,-2.8,-0.1,-0.1,720,0,,,,,,,,,,,,,,,,,
387846,1469893061591,0,149.2,173.4,26,168.2,,0.06,0.05,0.98,-2.8,-0.0,-0.1,720,0,0.0,0,39.538677,-122.332443,0.0,0.172,309.7,10,3,1.5,0,0.0,-1,0.0,0.0,0.0,0
387866,1469893061611,,,,,,,0.06,0.06,0.98,-2.8,-0.0,-0.0,720,0,,,,,,,,,,,,,,,,,
387886,1469893061631,,,,,,,0.06,0.06,0.97,-2.8,-0.1,-0.1,740,0,,,,,,,,,,,,,,,,,
387906,1469893061651,,,,,,,0.06,0.05,0.98,-2.7,-0.1,-0.1,740,0,,,,,,,,,,,,,,,,,
387926,1469893061671,,,,,,,0.06,0.05,0.98,-2.7,-0.1,-0.1,740,0,,,,,,,,,,,,,,,,,
387946,1469893061591,,,,27,,,0.06,0.05,0.97,-2.7,-0.1,-0.1,740,0,0.0,0,39.538677,-122.332443,0.0,0.172,309.7,10,3,1.5,0,0.0,-1,0.0,,0.0,0
387966,1469893061611,,,,,,,0.06,0.05,0.98,-2.7,-0.1,-0.1,760,0,,,,,,,,,,,,,,,,,
387986,1469893061631,,,,,,,0.06,0.05,0.98,-2.7,-0.1,-0.1,740,0,,,,,,,,,,,,,,,,,
388006,1469893061651,,,,,,,0.06,0.05,0.98,-2.6,-0.0,-0.1,740,0,,,,,,,,,,,,,,,,,
388026,1469893061671,,,,,,,0.06,0.05,0.97,-2.6,0.1,-0.0,740,0,,,,,,,,,,,,,,,,,
388046,1469893061691,0,149.6,172.2,26,167.3,14.52,0.06,0.06,0.98,-2.6,-0.0,-0.0,740,0,0.0,0,39.538677,-122.332443,0.0,0.172,309.7,10,3,1.5,0,0.0,-1,0.0,0.0,0.0,0
388066,1469893061711,,,,,,,0.05,0.05,0.98,-2.5,-0.0,-0.1,740,0,,,,,,,,,,,,,,,,,
388086,1469893061731,,,,,,,0.06,0.05,0.98,-2.5,0.0,-0.1,740,0,,,,,,,,,,,,,,,,,
388106,1469893061751,,,,,,,0.05,0.05,0.98,-2.5,0.1,-0.1,740,0,,,,,,,,,,,,,,,,,
388126,1469893061771,,,,,,,0.06,0.05,0.98,-2.5,0.0,-0.0,760,0,,,,,,,,,,,,,,,,,
388146,1469893061791,,,,27,,,0.05,0.04,0.98,-2.4,-0.0,-0.1,740,0,0.0,0,39.538677,-122.332443,0.0,0.172,309.7,10,3,1.5,0,0.0,-1,0.0,,0.0,0
388166,1469893061811,,,,,,,0.05,0.05,0.98,-2.4,0.1,-0.1,740,0,,,,,,,,,,,,,,,,,
388186,1469893061831,,,,,,,0.05,0.05,0.98,-2.4,0.1,-0.1,720,0,,,,,,,,,,,,,,,,,
388206,1469893061851,,,,,,,0.06,0.05,0.97,-2.3,-0.0,-0.1,720,0,,,,,,,,,,,,,,,,,
388226,1469893061871,,,,,,,0.06,0.04,0.98,-2.3,0.0,-0.1,720,0,,,,,,,,,,,,,,,,,
388246,1469893061891,0,149.4,173.0,28,167.8,,0.06,0.04,0.98,-2.3,-0.0,-0.1,720,0,0.0,0,39.538677,-122.332443,0.0,0.172,309.7,10,3,1.5,0,0.0,-1,0.0,0.0,0.0,0
388266,1469893061905,,,,,,,0.06,0.04,0.98,-2.3,0.0,-0.0,720,0,,,,,,,,,,,,,,,,,
388286,1469893061925,,,,,,,0.06,0.05,0.98,-2.3,0.0,-0.0,740,0,,,,,,,,,,,,,,,,,
388306,1469893061945,,,,,,,0.06,0.04,0.98,-2.3,-0.0,-0.0,740,0,,,,,,,,,,,,,,,,,
388326,1469893061965,,,,,,,0.07,0.05,0.98,-2.3,-0.0,0.0,700,0,,,,,,,,,,,,,,,,,
388346,1469893061991,,,,22,,,0.07,0.05,0.98,-2.3,-0.0,0.0,680,0,0.0,0,39.538677,-122.332443,0.0,0.172,309.7,10,3,1.5,0,0.0,-1,0.0,,0.0,0
388366,1469893062011,,,,,,,0.07,0.05,0.98,-2.3,-0.1,0.0,680,0,,,,,,,,,,,,,,,,,
388386,1469893062031,,,,,,,0.08,0.05,0.98,-2.4,-0.1,0.0,680,0,,,,,,,,,,,,,,,,,
388406,1469893062051,,,,,,,0.08,0.06,0.98,-2.4,-0.0,0.0,680,0,,,,,,,,,,,,,,,,,
388426,1469893062071,,,,,,,0.08,0.06,0.98,-2.5,-0.1,-0.0,680,0,,,,,,,,,,,,,,,,,
388446,1469893062091,0,148.5,172.4,22,167.7,,0.08,0.06,0.99,-2.5,-0.1,-0.1,680,0,0.0,0,39.538677,-122.332443,0.0,0.172,309.7,10,3,1.5,0,0.0,-1,0.0,0.0,0.0,0
388466,1469893062111,,,,,,,0.08,0.06,0.99,-2.6,-0.1,-0.1,680,0,,,,,,,,,,,,,,,,,
388486,1469893062131,,,,,,,0.08,0.06,0.99,-2.6,-0.1,-0.1,660,0,,,,,,,,,,,,,,,,,
388506,1469893062151,,,,,,,0.08,0.06,0.99,-2.7,-0.1,-0.1,660,0,,,,,,,,,,,,,,,,,
388526,1469893062171,,,,,,,0.08,0.06,0.99,-2.7,-0.1,-0.1,640,0,,,,,,,,,,,,,,,,,
388546,1469893062291,,,,21,,,0.08,0.05,0.98,-2.7,-0.1,-0.1,640,0,0.0,0,39.538677,-122.332443,0.0,0.172,309.7,10,3,1.5,0,0.0,-1,0.0,,0.0,0
388566,1469893062311,,,,,,,0.08,0.05,0.99,-2.8,-0.1,-0.1,640,0,,,,,,,,,,,,,,,,,
388586,1469893062331,,,,,,,0.09,0.06,0.99,-2.8,-0.1,-0.1,620,0,,,,,,,,,,,,,,,,,
388606,1469893062351,,,,,,,0.08,0.05,0.98,-2.8,-0.1,-0.1,620,0,,,,,,,,,,,,,,,,,
388626,1469893062371,,,,,,,0.09,0.06,0.98,-2.9,-0.1,-0.1,620,0,,,,,,,,,,,,,,,,,
