"Interval"|"ms"|0|0|1,"Utc"|"ms"|0|0|1,"FuelLevel"|"F"|0|100|5,"OilTemp"|"F"|0.0|300.0|5,"Coolant"|"F"|0.0|300.0|5,"OilPress"|"PSI"|0|150|10,"EngineTemp"|"F"|0.0|300.0|5,"Battery"|"Volts"|0.0|20.0|1,"AccelX"|"G"|-3.0|3.0|50,"AccelY"|"G"|-3.0|3.0|50,"AccelZ"|"G"|-3.0|3.0|50,"Yaw"|"Deg/Sec"|-300.0|300.0|50,"Pitch"|"Deg/Sec"|-300.0|300.0|50,"Roll"|"Deg/Sec"|-300.0|300.0|50,"RPM"|""|0|10000|50,"Driveshaft"|"RPM"|0|5000|50,"GearRatio"|""|-5.0|5.0|10,"Gear"|""|-1|5|10,"Latitude"|"Degrees"|-180.0|180.0|10,"Longitude"|"Degrees"|-180.0|180.0|10,"Speed"|"MPH"|0.0|150.0|10,"Distance"|"Miles"|0.0|0.0|10,"Altitude"|"Feet"|0.0|4000.0|10,"GPSSats"|""|0|20|10,"GPSQual"|""|0|5|10,"GPSDOP"|""|0.0|20.0|10,"LapCount"|""|0|0|10,"LapTime"|"Min"|0.0|0.0|10,"Sector"|""|0|0|10,"SectorTime"|"Min"|0.0|0.0|10,"PredTime"|"Min"|0.0|0.0|5,"ElapsedTime"|"Min"|0.0|0.0|10,"CurrentLap"|""|0|0|10
5066,1469892432858,,,,,,,0.04,0.12,0.99,-4.5,0.3,0.4,1440,341,,,,,,,,,,,,,,,,,
5086,1469892432878,,,,,,,0.04,0.12,0.99,-4.5,0.4,0.5,1420,341,,,,,,,,,,,,,,,,,
5106,1469892432898,,,,,,,0.04,0.13,0.99,-4.5,0.5,0.4,1360,341,,,,,,,,,,,,,,,,,
5126,1469892432912,,,,,,,0.04,0.12,0.98,-4.5,0.5,0.3,1340,346,,,,,,,,,,,,,,,,,
5146,1469892432932,,,,55,,,0.04,0.13,0.99,-4.6,0.3,0.2,1340,341,3.93,0,39.540466,-122.331985,6.1,0.0,314.6,11,2,1.3,0,0.0,-1,0.0,,0.0,0
5166,1469892432952,,,,,,,0.03,0.12,0.98,-4.6,0.4,0.2,1280,340,,,,,,,,,,,,,,,,,
5186,1469892432972,,,,,,,0.03,0.12,0.98,-4.5,0.0,0.2,1240,341,,,,,,,,,,,,,,,,,
5206,1469892432992,,,,,,,0.03,0.12,0.99,-4.6,0.0,0.1,1220,338,,,,,,,,,,,,,,,,,
5226,1469892433018,,,,,,,0.03,0.12,0.98,-4.6,-0.1,0.0,1220,340,,,,,,,,,,,,,,,,,
5246,1469892433038,0,123.5,150.6,55,149.4,,0.03,0.12,0.99,-4.6,0.2,-0.0,1180,340,3.471,0,39.540466,-122.331985,6.01,0.0,314.6,11,2,1.3,0,0.0,-1,0.0,0.0,0.0,0
5266,1469892433058,,,,,,,0.03,0.12,0.99,-4.6,-0.0,-0.0,1120,341,,,,,,,,,,,,,,,,,
5286,1469892433078,,,,,,,0.04,0.11,0.99,-4.7,0.1,-0.1,1100,343,,,,,,,,,,,,,,,,,
5306,1469892433098,,,,,,,0.04,0.11,0.99,-4.7,0.2,-0.0,1080,336,,,,,,,,,,,,,,,,,
5326,1469892433118,,,,,,,0.04,0.12,1.0,-4.7,0.2,0.0,1060,335,,,,,,,,,,,,,,,,,
5346,1469892433138,,,,51,,,0.04,0.11,1.0,-4.7,0.3,0.1,1060,333,3.155,1,39.54047,-122.331985,6.15,0.0,314.7,11,2,1.3,0,0.0,-1,0.0,,0.0,0
5366,1469892433158,,,,,,,0.03,0.11,1.01,-4.7,0.4,0.2,1020,335,,,,,,,,,,,,,,,,,
5386,1469892433178,,,,,,,0.03,0.11,1.01,-4.7,0.3,0.3,1000,333,,,,,,,,,,,,,,,,,
5406,1469892433198,,,,,,,0.03,0.11,1.01,-4.8,0.1,0.3,980,332,,,,,,,,,,,,,,,,,
5426,1469892433219,,,,,,,0.03,0.11,1.0,-4.8,0.0,0.3,960,333,,,,,,,,,,,,,,,,,
5446,1469892433239,0,123.8,150.9,49,149.7,,0.03,0.11,1.0,-4.8,-0.1,0.3,940,333,2.909,0,39.540474,-122.331985,6.02,0.001,314.9,11,2,1.3,0,0.0,-1,0.0,0.0,0.0,0
5466,1469892433259,,,,,,,0.03,0.11,0.99,-4.9,-0.2,0.3,940,332,,,,,,,,,,,,,,,,,
5486,1469892433279,,,,,,,0.03,0.11,0.99,-4.9,-0.1,0.4,940,330,,,,,,,,,,,,,,,,,
5506,1469892433299,,,,,,,0.04,0.11,0.99,-4.9,-0.3,0.4,900,330,,,,,,,,,,,,,,,,,
5526,1469892433319,,,,,,,0.04,0.11,0.99,-4.9,-0.3,0.4,900,329,,,,,,,,,,,,,,,,,
5546,1469892433339,,,,49,,,0.04,0.11,0.99,-4.9,-0.5,0.3,880,332,2.675,0,39.540478,-122.331985,5.76,0.001,315.0,11,2,1.3,0,0.0,-1,0.0,,0.0,0
5566,1469892433359,,,,,,,0.04,0.11,0.99,-4.9,-0.5,0.2,860,330,,,,,,,,,,,,,,,,,
5586,1469892433379,,,,,,,0.04,0.11,0.99,-4.9,-0.5,0.2,840,327,,,,,,,,,,,,,,,,,
5606,1469892433399,,,,,,,0.04,0.11,0.99,-4.8,-0.5,0.1,840,329,,,,,,,,,,,,,,,,,
5626,1469892433517,,,,,,,0.03,0.11,0.99,-4.8,-0.5,0.0,820,329,,,,,,,,,,,,,,,,,
5646,1469892433537,0,124.4,151.0,43,149.2,,0.03,0.11,0.99,-4.8,-0.5,-0.0,800,330,2.492,0,39.540482,-122.331985,5.78,0.001,315.2,11,2,1.3,0,0.0,-1,0.0,0.0,0.0,0
5666,1469892433557,,,,,,,0.03,0.11,0.99,-4.8,-0.5,-0.1,800,329,,,,,,,,,,,,,,,,,
5686,1469892433577,,,,,,,0.03,0.11,1.0,-4.9,-0.4,-0.1,780,324,,,,,,,,,,,,,,,,,
5706,1469892433597,,,,,,,0.03,0.11,1.0,-4.9,-0.3,-0.2,760,326,,,,,,,,,,,,,,,,,
5726,1469892433617,,,,,,,0.03,0.11,1.0,-4.9,-0.2,-0.2,760,326,,,,,,,,,,,,,,,,,
5746,1469892433637,,,,37,,,0.03,0.11,0.99,-4.9,-0.1,-0.2,760,326,2.331,0,39.540482,-122.331985,5.78,0.001,315.2,11,2,1.3,0,0.0,-1,0.0,,0.0,0
5766,1469892433657,,,,,,,0.04,0.11,0.99,-5.0,0.0,-0.1,760,326,,,,,,,,,,,,,,,,,
5786,1469892433677,,,,,,,0.03,0.11,0.99,-5.0,0.1,-0.1,740,324,,,,,,,,,,,,,,,,,
5806,1469892433697,,,,,,,0.04,0.11,0.99,-5.0,0.1,-0.1,720,323,,,,,,,,,,,,,,,,,
5826,1469892433618,,,,,,,0.04,0.11,0.98,-5.1,0.1,-0.1,720,326,,,,,,,,,,,,,,,,,
5846,1469892433638,0,124.2,150.7,36,149.1,,0.03,0.11,0.98,-5.1,0.1,-0.1,700,324,2.147,0,39.540485,-122.331985,5.64,0.001,315.2,11,2,1.3,0,0.0,-1,0.0,0.0,0.0,0
5866,1469892433658,,,,,,,0.04,0.12,0.98,-5.1,-0.1,-0.2,700,321,,,,,,,,,,,,,,,,,
5886,1469892433678,,,,,,,0.04,0.12,0.98,-5.1,-0.0,-0.3,700,320,,,,,,,,,,,,,,,,,
5906,1469892433698,,,,,,,0.04,0.12,0.98,-5.2,0.0,-0.4,700,323,,,,,,,,,,,,,,,,,
5926,1469892433718,,,,,,,0.04,0.12,0.99,-5.3,0.1,-0.4,700,323,,,,,,,,,,,,,,,,,
5946,1469892433738,,,,33,,,0.04,0.12,0.99,-5.3,0.2,-0.4,700,321,2.181,0,39.540485,-122.331985,5.84,0.001,315.4,11,2,1.3,0,0.0,-1,0.0,,0.0,0
5966,1469892433758,,,,,,,0.04,0.12,0.99,-5.3,0.2,-0.5,700,320,,,,,,,,,,,,,,,,,
5986,1469892433778,,,,,,,0.04,0.12,0.99,-5.3,0.2,-0.5,700,321,,,,,,,,,,,,,,,,,
6006,1469892433798,,,,,,,0.04,0.11,1.0,-5.3,0.1,-0.5,680,321,,,,,,,,,,,,,,,,,
6026,1469892433819,,,,,,,0.04,0.1,1.0,-5.4,0.1,-0.6,680,321,,,,,,,,,,,,,,,,,
6046,1469892433839,0,123.9,150.9,36,149.7,14.76,0.05,0.11,1.01,-5.4,0.2,-0.5,700,316,2.201,0,39.540485,-122.331985,5.68,0.001,315.5,11,2,1.3,0,0.0,-1,0.0,0.0,0.0,0
6066,1469892433859,,,,,,,0.05,0.11,1.0,-5.4,0.2,-0.3,700,315,,,,,,,,,,,,,,,,,
6086,1469892433879,,,,,,,0.05,0.1,1.0,-5.4,0.3,-0.2,720,316,,,,,,,,,,,,,,,,,
6106,1469892433899,,,,,,,0.05,0.09,1.01,-5.4,0.4,0.0,720,316,,,,,,,,,,,,,,,,,
6126,1469892433912,,,,,,,0.05,0.09,1.01,-5.4,0.5,0.4,740,315,,,,,,,,,,,,,,,,,
6146,1469892433932,,,,35,,,0.05,0.1,1.01,-5.3,0.5,0.7,740,315,2.364,0,39.540489,-122.331985,5.68,0.002,315.6,11,2,1.3,0,0.0,-1,0.0,,0.0,0
6166,1469892433952,,,,,,,0.04,0.09,1.01,-5.3,0.5,0.8,760,315,,,,,,,,,,,,,,,,,
6186,1469892433972,,,,,,,0.05,0.09,0.99,-5.3,0.7,1.0,760,316,,,,,,,,,,,,,,,,,
6206,1469892433992,,,,,,,0.04,0.1,0.99,-5.4,0.8,1.3,780,316,,,,,,,,,,,,,,,,,
6226,1469892434019,,,,,,,0.04,0.1,0.98,-5.4,0.8,1.5,800,312,,,,,,,,,,,,,,,,,
6246,1469892434039,0,124.4,151.2,40,149.5,,0.04,0.11,0.99,-5.4,0.9,1.5,840,309,2.71,0,39.540493,-122.331985,5.73,0.002,315.7,11,2,1.3,0,0.0,-1,0.0,0.0,0.0,0
6266,1469892434059,,,,,,,0.03,0.11,0.98,-5.3,0.7,1.4,880,309,,,,,,,,,,,,,,,,,
6286,1469892434079,,,,,,,0.04,0.11,0.97,-5.3,0.6,1.3,880,310,,,,,,,,,,,,,,,,,
6306,1469892434099,,,,,,,0.04,0.11,0.97,-5.2,0.4,1.2,920,310,,,,,,,,,,,,,,,,,
6326,1469892434119,,,,,,,0.04,0.11,0.97,-5.1,0.2,1.2,960,309,,,,,,,,,,,,,,,,,
6346,1469892434139,,,,46,,,0.03,0.11,0.97,-5.2,0.1,1.1,980,307,3.127,0,39.540497,-122.331985,5.55,0.002,315.8,11,2,1.3,0,0.0,-1,0.0,,0.0,0
6366,1469892434159,,,,,,,0.03,0.11,0.97,-5.2,-0.1,1.0,1020,306,,,,,,,,,,,,,,,,,
6386,1469892434179,,,,,,,0.03,0.09,0.97,-5.1,-0.3,0.8,1060,309,,,,,,,,,,,,,,,,,
6406,1469892434199,,,,,,,0.03,0.09,0.98,-5.1,-0.4,0.7,1040,309,,,,,,,,,,,,,,,,,
6426,1469892434318,,,,,,,0.03,0.09,0.99,-5.2,-0.5,0.5,1080,304,,,,,,,,,,,,,,,,,
6446,1469892434338,0,124.3,151.2,55,149.5,,0.04,0.08,0.99,-5.2,-0.8,0.4,1120,304,-3.684,-1,39.540501,-122.331985,5.49,0.002,316.2,11,2,1.3,0,0.0,-1,0.0,0.0,0.0,0
6466,1469892434358,,,,,,,0.04,0.09,0.99,-5.2,-0.5,0.3,1140,304,,,,,,,,,,,,,,,,,
6486,1469892434378,,,,,,,0.04,0.08,1.0,-5.2,-0.3,0.2,1140,307,,,,,,,,,,,,,,,,,
6506,1469892434398,,,,,,,0.04,0.1,0.99,-5.3,-0.4,0.2,1160,306,,,,,,,,,,,,,,,,,
6526,1469892434418,,,,,,,0.05,0.09,0.99,-5.3,-0.2,0.2,1160,303,,,,,,,,,,,,,,,,,
6546,1469892434438,,,,54,,,0.04,0.09,0.99,-5.3,-0.0,0.2,1160,304,-3.816,-1,39.540501,-122.331985,5.49,0.002,316.2,11,2,1.3,0,0.0,-1,0.0,,0.0,0
6566,1469892434458,,,,,,,0.04,0.09,0.99,-5.3,-0.1,0.1,1140,303,,,,,,,,,,,,,,,,,
6586,1469892434478,,,,,,,0.05,0.1,0.98,-5.2,0.0,0.1,1160,304,,,,,,,,,,,,,,,,,
6606,1469892434498,,,,,,,0.04,0.1,0.98,-5.2,0.2,0.2,1140,304,,,,,,,,,,,,,,,,,
6626,1469892434417,,,,,,,0.04,0.1,0.98,-5.2,0.1,0.2,1120,303,,,,,,,,,,,,,,,,,
6646,1469892434437,0,123.8,150.7,55,149.1,,0.04,0.1,0.98,-5.2,0.1,0.1,1080,300,-3.667,-1,39.540504,-122.331985,5.43,0.003,316.4,11,2,1.3,0,0.0,-1,0.0,0.0,0.0,0
6666,1469892434457,,,,,,,0.04,0.11,0.98,-5.2,0.2,0.0,1060,301,,,,,,,,,,,,,,,,,
6686,1469892434477,,,,,,,0.04,0.11,0.98,-5.1,0.1,-0.1,1020,301,,,,,,,,,,,,,,,,,
6706,1469892434497,,,,,,,0.04,0.11,0.98,-5.1,-0.0,-0.1,1000,300,,,,,,,,,,,,,,,,,
6726,1469892434516,,,,,,,0.03,0.11,0.98,-5.1,-0.2,-0.2,960,298,,,,,,,,,,,,,,,,,
6746,1469892434536,,,,50,,,0.03,0.11,0.98,-5.1,-0.2,-0.2,940,300,3.189,1,39.540504,-122.331985,5.32,0.003,316.5,11,2,1.3,0,0.0,-1,0.0,,0.0,0
6766,1469892434556,,,,,,,0.03,0.11,0.99,-5.0,-0.3,-0.3,940,298,,,,,,,,,,,,,,,,,
6786,1469892434576,,,,,,,0.03,0.11,0.99,-5.0,-0.2,-0.3,900,300,,,,,,,,,,,,,,,,,
6806,1469892434596,,,,,,,0.03,0.11,0.99,-4.9,-0.2,-0.4,880,296,,,,,,,,,,,,,,,,,
6826,1469892434614,,,,,,,0.04,0.11,0.99,-4.9,-0.3,-0.5,860,293,,,,,,,,,,,,,,,,,
6846,1469892434634,0,123.7,150.6,45,149.1,,0.03,0.1,0.99,-4.8,-0.2,-0.5,860,293,2.935,0,39.540504,-122.331985,5.47,0.003,316.6,11,2,1.3,0,0.0,-1,0.0,0.0,0.0,0
6866,1469892434654,,,,,,,0.03,0.1,0.99,-4.7,-0.3,-0.5,820,293,,,,,,,,,,,,,,,,,
6886,1469892434674,,,,,,,0.04,0.09,0.98,-4.6,-0.2,-0.5,800,296,,,,,,,,,,,,,,,,,
6906,1469892434694,,,,,,,0.04,0.09,0.98,-4.5,-0.2,-0.4,800,292,,,,,,,,,,,,,,,,,
6926,1469892434716,,,,,,,0.04,0.08,0.98,-4.4,-0.2,-0.4,800,290,,,,,,,,,,,,,,,,,
6946,1469892434736,,,,40,,,0.04,0.09,0.99,-4.2,-0.2,-0.5,780,292,2.69,0,39.540508,-122.331985,5.16,0.003,316.7,11,2,1.3,0,0.0,-1,0.0,,0.0,0
6966,1469892434756,,,,,,,0.04,0.08,0.99,-4.0,-0.2,-0.6,780,290,,,,,,,,,,,,,,,,,
6986,1469892434776,,,,,,,0.04,0.08,0.99,-3.8,-0.2,-0.7,780,292,,,,,,,,,,,,,,,,,
7006,1469892434796,,,,,,,0.04,0.08,0.99,-3.5,-0.2,-0.8,740,289,,,,,,,,,,,,,,,,,
7026,1469892434819,,,,,,,0.05,0.08,0.99,-3.3,-0.1,-0.9,720,286,,,,,,,,,,,,,,,,,
7046,1469892434839,0,124.2,151.4,33,150.1,14.75,0.05,0.08,0.99,-3.0,-0.1,-1.0,700,283,2.535,0,39.540508,-122.331985,5.14,0.003,316.9,11,2,1.3,0,0.0,-1,0.0,0.0,0.0,0
7066,1469892434859,,,,,,,0.05,0.08,0.99,-2.8,-0.1,-1.1,700,283,,,,,,,,,,,,,,,,,
7086,1469892434879,,,,,,,0.05,0.08,0.99,-2.5,-0.1,-1.2,680,284,,,,,,,,,,,,,,,,,
7106,1469892434899,,,,,,,0.05,0.07,0.98,-2.3,-0.1,-1.3,660,284,,,,,,,,,,,,,,,,,
7126,1469892434912,,,,,,,0.05,0.07,0.98,-2.0,-0.1,-1.4,660,283,,,,,,,,,,,,,,,,,
7146,1469892434932,,,,30,,,0.05,0.07,0.99,-1.8,-0.2,-1.3,640,283,2.261,0,39.540512,-122.331985,5.11,0.003,316.9,11,2,1.3,0,0.0,-1,0.0,,0.0,0
7166,1469892434952,,,,,,,0.06,0.06,0.99,-1.5,-0.2,-1.3,600,284,,,,,,,,,,,,,,,,,
7186,1469892434972,,,,,,,0.06,0.05,0.99,-1.2,-0.3,-1.2,600,286,,,,,,,,,,,,,,,,,
7206,1469892434992,,,,,,,0.06,0.05,1.0,-1.0,-0.3,-1.1,560,284,,,,,,,,,,,,,,,,,
7226,1469892435119,,,,,,,0.05,0.04,1.0,-0.7,-0.4,-0.9,560,283,,,,,,,,,,,,,,,,,
7246,1469892435139,0,124.4,151.5,26,150.2,,0.06,0.03,1.01,-0.4,-0.6,-0.8,540,280,1.922,2,39.540516,-122.331985,4.94,0.003,316.8,11,2,1.3,0,0.0,-1,0.0,0.0,0.0,0
7266,1469892435159,,,,,,,0.05,0.03,1.01,-0.1,-0.7,-0.7,540,280,,,,,,,,,,,,,,,,,
7286,1469892435179,,,,,,,0.06,0.02,1.0,0.3,-0.8,-0.5,500,280,,,,,,,,,,,,,,,,,
7306,1469892435199,,,,,,,0.06,0.02,1.0,0.6,-0.9,-0.4,500,280,,,,,,,,,,,,,,,,,
7326,1469892435219,,,,,,,0.05,0.02,1.0,1.0,-0.9,-0.3,480,280,,,,,,,,,,,,,,,,,
7346,1469892435239,,,,20,,,0.06,0.02,0.99,1.4,-0.9,-0.2,480,276,1.727,0,39.540516,-122.331985,4.94,0.003,316.8,11,2,1.3,0,0.0,-1,0.0,,0.0,0
7366,1469892435259,,,,,,,0.06,0.02,0.99,1.8,-0.8,-0.2,440,273,,,,,,,,,,,,,,,,,
7386,1469892435279,,,,,,,0.06,0.02,0.98,2.2,-0.7,-0.3,440,272,,,,,,,,,,,,,,,,,
7406,1469892435299,,,,,,,0.06,0.02,0.98,2.7,-0.5,-0.3,440,272,,,,,,,,,,,,,,,,,
7426,1469892435219,,,,,,,0.06,0.03,0.98,3.1,-0.4,-0.4,400,276,,,,,,,,,,,,,,,,,
7446,1469892435239,0,123.8,151.0,18,149.9,,0.06,0.03,0.98,3.4,-0.3,-0.4,400,275,1.455,0,39.54052,-122.331985,4.94,0.004,316.8,11,2,1.3,0,0.0,-1,0.0,0.0,0.0,0
7466,1469892435259,,,,,,,0.05,0.03,0.98,3.8,-0.4,-0.5,380,273,,,,,,,,,,,,,,,,,
7486,1469892435279,,,,,,,0.05,0.04,0.98,4.1,-0.3,-0.6,380,270,,,,,,,,,,,,,,,,,
7506,1469892435299,,,,,,,0.05,0.04,0.98,4.4,-0.2,-0.7,380,269,,,,,,,,,,,,,,,,,
7526,1469892435320,,,,,,,0.05,0.04,0.98,4.7,-0.0,-0.8,320,272,,,,,,,,,,,,,,,,,
7546,1469892435340,,,,15,,,0.05,0.04,0.98,4.9,-0.1,-0.8,320,270,1.176,3,39.54052,-122.331985,4.72,0.004,316.8,11,2,1.3,0,0.0,-1,0.0,,0.0,0
7566,1469892435360,,,,,,,0.05,0.05,0.98,5.1,-0.2,-0.9,320,270,,,,,,,,,,,,,,,,,
7586,1469892435380,,,,,,,0.06,0.04,0.98,5.3,-0.2,-0.9,320,270,,,,,,,,,,,,,,,,,
7606,1469892435400,,,,,,,0.06,0.04,0.99,5.5,-0.2,-0.9,320,270,,,,,,,,,,,,,,,,,
7626,1469892435416,,,,,,,0.06,0.04,0.99,5.7,-0.2,-0.9,320,269,,,,,,,,,,,,,,,,,
7646,1469892435436,0,123.5,150.7,13,149.5,,0.06,0.04,1.0,5.9,-0.3,-0.9,320,270,1.185,3,39.540524,-122.331985,4.78,0.004,316.8,11,2,1.3,0,0.0,-1,0.0,0.0,0.0,0
7666,1469892435456,,,,,,,0.06,0.03,1.0,6.1,-0.3,-0.8,280,267,,,,,,,,,,,,,,,,,
7686,1469892435476,,,,,,,0.07,0.03,1.0,6.4,-0.2,-0.7,280,266,,,,,,,,,,,,,,,,,
7706,1469892435496,,,,,,,0.07,0.03,1.0,6.6,-0.2,-0.7,280,263,,,,,,,,,,,,,,,,,
7726,1469892435519,,,,,,,0.07,0.02,1.01,6.8,-0.2,-0.5,280,263,,,,,,,,,,,,,,,,,
7746,1469892435539,,,,9,,,0.07,0.02,1.01,7.0,-0.2,-0.4,280,266,1.061,4,39.540524,-122.331985,4.58,0.004,316.7,11,2,1.3,0,0.0,-1,0.0,,0.0,0
7766,1469892435559,,,,,,,0.07,0.02,1.0,7.3,-0.2,-0.3,180,263,,,,,,,,,,,,,,,,,
7786,1469892435579,,,,,,,0.06,0.02,1.0,7.5,-0.2,-0.2,180,263,,,,,,,,,,,,,,,,,
7806,1469892435599,,,,,,,0.06,0.02,1.0,7.7,-0.1,-0.0,180,261,,,,,,,,,,,,,,,,,
7826,1469892435610,,,,,,,0.06,0.02,0.99,7.9,0.0,0.1,180,261,,,,,,,,,,,,,,,,,
7846,1469892435630,0,123.7,151.3,6,150.1,,0.06,0.03,0.99,8.0,0.0,0.1,180,264,0.69,5,39.540524,-122.331985,4.71,0.004,316.7,11,2,1.3,0,0.0,-1,0.0,0.0,0.0,0
7866,1469892435650,,,,,,,0.06,0.04,0.99,8.2,0.2,0.1,180,264,,,,,,,,,,,,,,,,,
7886,1469892435670,,,,,,,0.05,0.04,0.99,8.3,0.2,0.1,180,261,,,,,,,,,,,,,,,,,
7906,1469892435690,,,,,,,0.05,0.05,0.99,8.4,0.2,0.1,10000000,261,,,,,,,,,,,,,,,,,
7926,1469892435709,,,,,,,0.05,0.05,0.99,8.4,0.2,0.1,0,260,,,,,,,,,,,,,,,,,
7946,1469892435729,,,,3,,,0.05,0.05,0.99,8.5,0.2,0.1,0,261,0.0,0,39.540527,-122.331985,4.25,0.004,316.7,11,2,1.3,0,0.0,-1,0.0,,0.0,0
7966,1469892435749,,,,,,,0.05,0.05,0.99,8.5,0.2,0.0,0,264,,,,,,,,,,,,,,,,,
7986,1469892435769,,,,,,,0.05,0.06,0.98,8.5,0.2,-0.1,0,263,,,,,,,,,,,,,,,,,
8006,1469892435891,,,,,,,0.05,0.06,0.98,8.5,0.3,-0.1,0,260,,,,,,,,,,,,,,,,,
8026,1469892435911,,,,,,,0.05,0.06,0.98,8.5,0.2,-0.2,0,258,,,,,,,,,,,,,,,,,
8046,1469892435931,0,124.2,150.8,2,149.4,13.52,0.05,0.06,0.98,8.5,0.3,-0.3,0,258,0.0,0,39.540531,-122.331985,4.56,0.004,316.6,11,2,1.3,0,0.0,-1,0.0,0.0,0.0,0
8066,1469892435951,,,,,,,0.05,0.06,0.98,8.5,0.3,-0.3,0,258,,,,,,,,,,,,,,,,,
8086,1469892435971,,,,,,,0.05,0.06,0.98,8.5,0.3,-0.3,0,261,,,,,,,,,,,,,,,,,
8106,1469892435991,,,,,,,0.04,0.06,0.98,8.4,0.3,-0.3,0,261,,,,,,,,,,,,,,,,,
8126,1469892436011,,,,,,,0.05,0.06,0.98,8.4,0.2,-0.3,0,258,,,,,,,,,,,,,,,,,
8146,1469892436031,,,,1,,,0.04,0.06,0.98,8.3,0.3,-0.3,0,256,0.0,0,39.540531,-122.331985,4.56,0.004,316.6,11,2,1.3,0,0.0,-1,0.0,,0.0,0
8166,1469892436051,,,,,,,0.05,0.06,0.98,8.3,0.2,-0.3,0,256,,,,,,,,,,,,,,,,,
8186,1469892436071,,,,,,,0.04,0.06,0.98,8.2,0.2,-0.3,0,258,,,,,,,,,,,,,,,,,
8206,1469892435993,,,,,,,0.04,0.06,0.98,8.1,0.1,-0.4,0,260,,,,,,,,,,,,,,,,,
8226,1469892436013,,,,,,,0.04,0.06,0.99,8.1,0.1,-0.4,0,258,,,,,,,,,,,,,,,,,
8246,1469892436033,0,123.7,151.6,0,150.3,,0.04,0.06,0.99,8.0,0.1,-0.4,0,256,0.0,0,39.540531,-122.331985,4.53,0.004,316.5,11,2,1.3,0,0.0,-1,0.0,0.0,0.0,0
8266,1469892436053,,,,,,,0.04,0.06,0.99,7.9,0.1,-0.4,0,255,,,,,,,,,,,,,,,,,
8286,1469892436073,,,,,,,0.04,0.06,0.99,7.9,0.1,-0.4,0,255,,,,,,,,,,,,,,,,,
8306,1469892436093,,,,,,,0.04,0.06,0.99,7.8,0.1,-0.4,0,256,,,,,,,,,,,,,,,,,
8326,1469892436113,,,,,,,0.04,0.06,0.98,7.7,0.1,-0.4,0,258,,,,,,,,,,,,,,,,,
8346,1469892436133,,,,0,,,0.04,0.06,0.98,7.5,0.1,-0.4,0,256,0.0,0,39.540535,-122.331985,4.31,0.005,316.3,11,2,1.3,0,0.0,-1,0.0,,0.0,0
8366,1469892436153,,,,,,,0.03,0.07,0.98,7.4,0.1,-0.4,0,255,,,,,,,,,,,,,,,,,
8386,1469892436173,,,,,,,0.04,0.07,0.98,7.3,0.0,-0.4,0,253,,,,,,,,,,,,,,,,,
8406,1469892436192,,,,,,,0.04,0.07,0.99,7.1,0.1,-0.4,0,252,,,,,,,,,,,,,,,,,
8426,1469892436212,,,,,,,0.04,0.07,0.99,7.0,0.1,-0.4,0,253,,,,,,,,,,,,,,,,,
8446,1469892436232,0,124.0,150.8,0,149.5,,0.04,0.07,0.99,6.8,0.1,-0.4,0,256,0.0,0,39.540535,-122.331985,4.1,0.005,316.2,11,2,1.3,0,0.0,-1,0.0,0.0,0.0,0
8466,1469892436252,,,,,,,0.03,0.08,0.99,6.6,0.1,-0.4,0,255,,,,,,,,,,,,,,,,,
8486,1469892436272,,,,,,,0.04,0.08,1.0,6.5,0.2,-0.4,0,253,,,,,,,,,,,,,,,,,
8506,1469892436293,,,,,,,0.04,0.08,1.0,6.3,0.2,-0.4,0,253,,,,,,,,,,,,,,,,,
8526,1469892436313,,,,,,,0.04,0.08,1.0,6.1,0.2,-0.4,0,252,,,,,,,,,,,,,,,,,
8546,1469892436333,,,,0,,,0.04,0.08,1.0,5.9,0.1,-0.4,0,255,0.0,0,39.540539,-122.331985,4.52,0.005,316.1,11,2,1.3,0,0.0,-1,0.0,,0.0,0
8566,1469892436353,,,,,,,0.04,0.08,1.0,5.7,0.1,-0.4,0,255,,,,,,,,,,,,,,,,,
8586,1469892436373,,,,,,,0.04,0.08,1.0,5.5,0.1,-0.3,0,252,,,,,,,,,,,,,,,,,
8606,1469892436393,,,,,,,0.04,0.08,1.0,5.3,0.1,-0.2,0,249,,,,,,,,,,,,,,,,,
8626,1469892436410,,,,,,,0.04,0.09,1.0,5.1,0.0,-0.2,0,249,,,,,,,,,,,,,,,,,
8646,1469892436430,0,123.7,151.6,0,150.4,,0.04,0.09,1.0,4.8,0.0,-0.0,0,249,0.0,0,39.540539,-122.33197,4.23,0.006,316.0,11,2,1.3,0,0.0,-1,0.0,0.0,0.0,0
8666,1469892436450,,,,,,,0.04,0.09,0.99,4.6,-0.0,0.1,0,249,,,,,,,,,,,,,,,,,
8686,1469892436470,,,,,,,0.04,0.1,0.99,4.3,-0.1,0.2,0,250,,,,,,,,,,,,,,,,,
8706,1469892436490,,,,,,,0.04,0.1,0.98,4.1,-0.0,0.2,0,249,,,,,,,,,,,,,,,,,
8726,1469892436510,,,,,,,0.04,0.1,0.98,3.8,0.0,0.2,0,246,,,,,,,,,,,,,,,,,
8746,1469892436530,,,,0,,,0.04,0.1,0.98,3.6,0.1,0.2,0,247,0.0,0,39.540543,-122.33197,4.25,0.006,316.0,11,2,1.3,0,0.0,-1,0.0,,0.0,0
8766,1469892436550,,,,,,,0.04,0.1,0.98,3.3,0.0,0.3,0,247,,,,,,,,,,,,,,,,,
8786,1469892436570,,,,,,,0.04,0.1,0.98,3.1,0.1,0.3,0,249,,,,,,,,,,,,,,,,,
8806,1469892436590,,,,,,,0.04,0.1,0.98,2.9,0.1,0.3,0,250,,,,,,,,,,,,,,,,,
8826,1469892436710,,,,,,,0.04,0.11,0.98,2.7,0.1,0.3,0,246,,,,,,,,,,,,,,,,,
8846,1469892436730,0,123.7,150.9,0,149.8,,0.04,0.1,0.99,2.5,0.2,0.3,0,244,0.0,0,39.540543,-122.33197,4.41,0.006,315.9,11,2,1.3,0,0.0,-1,0.0,0.0,0.0,0
8866,1469892436750,,,,,,,0.04,0.1,0.99,2.3,0.2,0.2,0,244,,,,,,,,,,,,,,,,,
8886,1469892436770,,,,,,,0.04,0.1,0.99,2.1,0.2,0.2,0,244,,,,,,,,,,,,,,,,,
8906,1469892436790,,,,,,,0.04,0.1,0.99,1.9,0.2,0.1,0,246,,,,,,,,,,,,,,,,,
8926,1469892436810,,,,,,,0.04,0.11,0.99,1.7,0.3,0.1,0,247,,,,,,,,,,,,,,,,,
8946,1469892436830,,,,0,,,0.04,0.11,0.99,1.5,0.3,0.1,0,244,0.0,0,39.540543,-122.33197,4.41,0.006,315.9,11,2,1.3,0,0.0,-1,0.0,,0.0,0
8966,1469892436850,,,,,,,0.04,0.11,0.99,1.3,0.3,0.1,0,243,,,,,,,,,,,,,,,,,
8986,1469892436870,,,,,,,0.04,0.11,0.99,1.1,0.3,0.1,0,243,,,,,,,,,,,,,,,,,
9006,1469892436792,,,,,,,0.04,0.11,0.99,0.9,0.3,0.1,0,243,,,,,,,,,,,,,,,,,
9026,1469892436812,,,,,,,0.04,0.11,0.99,0.7,0.2,0.1,0,246,,,,,,,,,,,,,,,,,
9046,1469892436832,0,124.4,151.0,0,149.5,13.46,0.03,0.11,0.99,0.5,0.2,0.1,0,246,0.0,0,39.540543,-122.33197,4.31,0.006,315.9,11,2,1.3,0,0.0,-1,0.0,0.0,0.0,0
9066,1469892436852,,,,,,,0.04,0.11,1.0,0.3,0.1,0.1,0,241,,,,,,,,,,,,,,,,,
9086,1469892436872,,,,,,,0.03,0.11,0.99,0.2,0.1,0.1,0,240,,,,,,,,,,,,,,,,,
9106,1469892436892,,,,,,,0.03,0.11,0.99,0.0,0.1,0.1,0,238,,,,,,,,,,,,,,,,,
9126,1469892436906,,,,,,,0.04,0.11,0.99,-0.2,0.0,0.2,0,240,,,,,,,,,,,,,,,,,
9146,1469892436926,,,,0,,,0.04,0.11,0.99,-0.3,-0.0,0.3,0,241,0.0,0,39.540546,-122.33197,4.12,0.006,316.0,11,2,1.3,0,0.0,-1,0.0,,0.0,0
9166,1469892436946,,,,,,,0.04,0.11,0.99,-0.5,-0.0,0.2,0,243,,,,,,,,,,,,,,,,,
9186,1469892436966,,,,,,,0.04,0.11,1.0,-0.6,0.0,0.1,0,240,,,,,,,,,,,,,,,,,
9206,1469892436991,,,,,,,0.04,0.11,1.0,-0.8,0.0,-0.0,0,238,,,,,,,,,,,,,,,,,
9226,1469892437011,,,,,,,0.04,0.12,1.0,-0.9,-0.0,-0.1,0,236,,,,,,,,,,,,,,,,,
9246,1469892437031,0,123.8,150.7,0,149.8,,0.04,0.12,1.0,-1.1,0.0,-0.1,0,240,0.0,0,39.540546,-122.33197,4.08,0.006,316.0,11,2,1.3,0,0.0,-1,0.0,0.0,0.0,0
9266,1469892437051,,,,,,,0.04,0.12,1.0,-1.2,0.1,-0.1,0,238,,,,,,,,,,,,,,,,,
9286,1469892437071,,,,,,,0.04,0.12,1.0,-1.4,0.2,-0.1,0,240,,,,,,,,,,,,,,,,,
9306,1469892437092,,,,,,,0.04,0.12,1.0,-1.6,0.2,-0.1,0,238,,,,,,,,,,,,,,,,,
9326,1469892437112,,,,,,,0.04,0.12,0.99,-1.8,0.2,-0.2,0,235,,,,,,,,,,,,,,,,,
9346,1469892437132,,,,0,,,0.04,0.12,0.99,-1.9,0.2,-0.3,0,232,0.0,0,39.54055,-122.33197,4.28,0.007,316.1,11,2,1.3,0,0.0,-1,0.0,,0.0,0
9366,1469892437152,,,,,,,0.04,0.11,0.99,-2.1,0.1,-0.3,0,232,,,,,,,,,,,,,,,,,
9386,1469892437172,,,,,,,0.04,0.11,0.99,-2.2,0.2,-0.3,0,233,,,,,,,,,,,,,,,,,
9406,1469892437192,,,,,,,0.04,0.11,0.98,-2.3,0.1,-0.2,0,235,,,,,,,,,,,,,,,,,
9426,1469892437208,,,,,,,0.05,0.11,0.98,-2.5,0.1,-0.2,0,233,,,,,,,,,,,,,,,,,
9446,1469892437228,0,124.5,152.2,0,150.8,,0.05,0.11,0.99,-2.6,0.1,-0.0,0,232,0.0,0,39.54055,-122.33197,4.16,0.007,316.2,11,2,1.3,0,0.0,-1,0.0,0.0,0.0,0
9466,1469892437248,,,,,,,0.05,0.11,0.99,-2.7,0.1,0.1,0,229,,,,,,,,,,,,,,,,,
9486,1469892437268,,,,,,,0.04,0.11,0.99,-2.8,0.2,0.1,0,229,,,,,,,,,,,,,,,,,
9506,1469892437291,,,,,,,0.04,0.11,0.99,-2.9,0.2,0.2,0,230,,,,,,,,,,,,,,,,,
9526,1469892437311,,,,,,,0.04,0.11,0.99,-3.0,0.2,0.2,0,232,,,,,,,,,,,,,,,,,
9546,1469892437331,,,,0,,,0.04,0.11,0.99,-3.1,0.3,0.3,0,232,0.0,0,39.54055,-122.33197,4.23,0.007,316.3,11,2,1.3,0,0.0,-1,0.0,,0.0,0
9566,1469892437351,,,,,,,0.04,0.11,0.99,-3.2,0.2,0.3,0,229,,,,,,,,,,,,,,,,,
9586,1469892437371,,,,,,,0.05,0.11,0.99,-3.3,0.2,0.4,0,224,,,,,,,,,,,,,,,,,
9606,1469892437391,,,,,,,0.05,0.11,0.98,-3.5,0.2,0.4,0,223,,,,,,,,,,,,,,,,,
9626,1469892437506,,,,,,,0.05,0.11,0.98,-3.6,0.1,0.4,0,221,,,,,,,,,,,,,,,,,
9646,1469892437526,0,123.9,152.0,0,150.7,,0.05,0.11,0.98,-3.7,0.2,0.4,0,223,0.0,0,39.540554,-122.33197,3.83,0.007,316.4,11,2,1.3,0,0.0,-1,0.0,0.0,0.0,0
9666,1469892437546,,,,,,,0.05,0.12,0.98,-3.9,0.1,0.4,0,226,,,,,,,,,,,,,,,,,
9686,1469892437566,,,,,,,0.05,0.12,0.98,-3.9,0.1,0.3,0,226,,,,,,,,,,,,,,,,,
9706,1469892437586,,,,,,,0.05,0.12,0.98,-4.0,0.1,0.3,0,224,,,,,,,,,,,,,,,,,
9726,1469892437606,,,,,,,0.05,0.11,0.98,-4.1,0.2,0.2,0,223,,,,,,,,,,,,,,,,,
9746,1469892437626,,,,0,,,0.05,0.12,0.98,-4.2,0.2,0.2,0,221,0.0,0,39.540554,-122.33197,3.83,0.007,316.4,11,2,1.3,0,0.0,-1,0.0,,0.0,0
9766,1469892437646,,,,,,,0.05,0.12,0.99,-4.3,0.2,0.2,0,224,,,,,,,,,,,,,,,,,
9786,1469892437666,,,,,,,0.05,0.12,0.98,-4.4,0.2,0.1,0,224,,,,,,,,,,,,,,,,,
9806,1469892437686,,,,,,,0.05,0.12,0.99,-4.4,0.3,0.1,0,224,,,,,,,,,,,,,,,,,
9826,1469892437608,,,,,,,0.05,0.12,0.99,-4.5,0.3,0.1,0,223,,,,,,,,,,,,,,,,,
9846,1469892437628,0,124.1,151.0,0,149.6,,0.05,0.12,0.99,-4.6,0.2,0.2,0,220,0.0,0,39.540554,-122.33197,3.85,0.007,316.4,11,2,1.3,0,0.0,-1,0.0,0.0,0.0,0
9866,1469892437648,,,,,,,0.05,0.12,0.99,-4.8,0.2,0.2,0,218,,,,,,,,,,,,,,,,,
9886,1469892437668,,,,,,,0.05,0.12,0.99,-4.9,0.1,0.2,0,216,,,,,,,,,,,,,,,,,
9906,1469892437688,,,,,,,0.05,0.12,0.99,-5.0,0.1,0.2,0,220,,,,,,,,,,,,,,,,,
9926,1469892437708,,,,,,,0.05,0.12,0.99,-5.1,0.0,0.1,0,221,,,,,,,,,,,,,,,,,
9946,1469892437728,,,,0,,,0.05,0.12,1.0,-5.1,0.0,0.0,0,221,0.0,0,39.540558,-122.33197,3.95,0.007,316.5,11,2,1.3,0,0.0,-1,0.0,,0.0,0
9966,1469892437748,,,,,,,0.05,0.12,1.0,-5.2,0.0,-0.0,0,220,,,,,,,,,,,,,,,,,
9986,1469892437768,,,,,,,0.05,0.12,1.0,-5.3,0.0,-0.0,0,220,,,,,,,,,,,,,,,,,
10006,1469892437791,,,,,,,0.05,0.12,1.0,-5.4,0.1,-0.1,0,218,,,,,,,,,,,,,,,,,
10026,1469892437811,,,,,,,0.05,0.12,1.0,-5.4,0.1,-0.1,0,218,,,,,,,,,,,,,,,,,
10046,1469892437831,0,124.1,152.0,0,150.7,13.38,0.05,0.12,1.0,-5.5,0.1,-0.1,0,216,0.0,0,39.540558,-122.33197,3.81,0.007,316.5,11,2,1.3,0,0.0,-1,0.0,0.0,0.0,0
10066,1469892437851,,,,,,,0.05,0.11,0.99,-5.5,0.1,-0.1,0,216,,,,,,,,,,,,,,,,,
10086,1469892437871,,,,,,,0.05,0.11,0.99,-5.6,0.1,-0.2,0,215,,,,,,,,,,,,,,,,,
10106,1469892437891,,,,,,,0.05,0.11,0.99,-5.6,0.1,-0.2,0,213,,,,,,,,,,,,,,,,,
10126,1469892437903,,,,,,,0.05,0.11,0.99,-5.7,0.1,-0.1,0,212,,,,,,,,,,,,,,,,,
10146,1469892437923,,,,0,,,0.05,0.11,0.99,-5.7,0.0,-0.1,0,209,0.0,0,39.540562,-122.33197,3.62,0.007,316.5,11,2,1.3,0,0.0,-1,0.0,,0.0,0
10166,1469892437943,,,,,,,0.05,0.11,0.99,-5.8,0.0,0.0,0,209,,,,,,,,,,,,,,,,,
10186,1469892437963,,,,,,,0.05,0.11,1.0,-5.9,0.1,0.1,0,207,,,,,,,,,,,,,,,,,
10206,1469892437992,,,,,,,0.05,0.12,0.99,-6.0,0.0,0.2,0,207,,,,,,,,,,,,,,,,,
10226,1469892438012,,,,,,,0.05,0.12,0.99,-6.1,0.1,0.2,0,207,,,,,,,,,,,,,,,,,
10246,1469892438032,0,124.8,152.1,0,149.9,,0.05,0.12,0.99,-6.2,0.1,0.1,0,207,0.0,0,39.540562,-122.33197,3.84,0.007,316.5,11,2,1.3,0,0.0,-1,0.0,0.0,0.0,0
10266,1469892438052,,,,,,,0.05,0.12,0.99,-6.3,0.0,0.1,0,207,,,,,,,,,,,,,,,,,
10286,1469892438072,,,,,,,0.05,0.13,0.99,-6.4,0.0,0.1,0,207,,,,,,,,,,,,,,,,,
10306,1469892438092,,,,,,,0.05,0.13,0.99,-6.5,0.0,0.2,0,209,,,,,,,,,,,,,,,,,
10326,1469892438112,,,,,,,0.05,0.13,0.99,-6.6,-0.0,0.2,0,207,,,,,,,,,,,,,,,,,
10346,1469892438132,,,,0,,,0.05,0.13,0.99,-6.7,-0.0,0.1,0,204,0.0,0,39.540562,-122.33197,3.8,0.007,316.5,11,2,1.3,0,0.0,-1,0.0,,0.0,0
10366,1469892438152,,,,,,,0.05,0.13,0.99,-6.7,0.0,0.1,0,203,,,,,,,,,,,,,,,,,
10386,1469892438172,,,,,,,0.05,0.13,0.99,-6.9,0.0,-0.0,0,201,,,,,,,,,,,,,,,,,
10406,1469892438291,,,,,,,0.05,0.13,0.99,-7.0,0.1,-0.0,0,198,,,,,,,,,,,,,,,,,
10426,1469892438311,,,,,,,0.05,0.13,0.99,-7.1,0.1,-0.0,0,198,,,,,,,,,,,,,,,,,
10446,1469892438331,0,124.0,151.4,0,150.7,,0.06,0.13,0.99,-7.1,0.1,-0.0,0,198,0.0,0,39.540566,-122.331955,3.48,0.008,316.6,11,2,1.3,0,0.0,-1,0.0,0.0,0.0,0
10466,1469892438351,,,,,,,0.06,0.13,0.99,-7.2,0.1,0.0,0,198,,,,,,,,,,,,,,,,,
10486,1469892438371,,,,,,,0.06,0.12,0.99,-7.3,0.1,0.0,0,196,,,,,,,,,,,,,,,,,
10506,1469892438391,,,,,,,0.06,0.12,0.99,-7.4,0.1,-0.0,0,195,,,,,,,,,,,,,,,,,
10526,1469892438411,,,,,,,0.06,0.12,0.99,-7.5,0.1,-0.1,0,195,,,,,,,,,,,,,,,,,
10546,1469892438431,,,,0,,,0.06,0.12,0.99,-7.5,0.0,-0.1,0,192,0.0,0,39.540566,-122.331955,3.48,0.008,316.6,11,2,1.3,0,0.0,-1,0.0,,0.0,0
10566,1469892438451,,,,,,,0.06,0.12,0.99,-7.6,0.1,-0.1,0,190,,,,,,,,,,,,,,,,,
10586,1469892438471,,,,,,,0.06,0.12,0.99,-7.7,0.1,-0.1,0,190,,,,,,,,,,,,,,,,,
10606,1469892438491,,,,,,,0.07,0.12,0.99,-7.7,0.1,-0.1,0,190,,,,,,,,,,,,,,,,,
10626,1469892438407,,,,,,,0.07,0.12,0.99,-7.7,0.1,-0.1,0,190,,,,,,,,,,,,,,,,,
10646,1469892438427,0,124.6,152.1,0,150.8,,0.07,0.12,0.99,-7.8,0.2,-0.0,0,189,0.0,0,39.540566,-122.331955,3.64,0.008,316.6,11,2,1.3,0,0.0,-1,0.0,0.0,0.0,0
10666,1469892438447,,,,,,,0.07,0.12,0.99,-7.8,0.2,-0.1,0,187,,,,,,,,,,,,,,,,,
10686,1469892438467,,,,,,,0.07,0.12,1.0,-7.8,0.3,-0.1,0,186,,,,,,,,,,,,,,,,,
10706,1469892438487,,,,,,,0.07,0.12,1.0,-7.8,0.3,-0.2,0,184,,,,,,,,,,,,,,,,,
10726,1469892438509,,,,,,,0.07,0.12,0.99,-7.8,0.3,-0.2,0,181,,,,,,,,,,,,,,,,,
10746,1469892438529,,,,0,,,0.07,0.12,0.99,-7.8,0.2,-0.2,0,181,0.0,0,39.540566,-122.331955,3.49,0.008,316.7,11,2,1.3,0,0.0,-1,0.0,,0.0,0
10766,1469892438549,,,,,,,0.07,0.12,0.99,-7.8,0.2,-0.2,0,180,,,,,,,,,,,,,,,,,
10786,1469892438569,,,,,,,0.07,0.11,0.99,-7.7,0.2,-0.2,0,178,,,,,,,,,,,,,,,,,
10806,1469892438589,,,,,,,0.07,0.11,0.99,-7.8,0.1,-0.2,0,176,,,,,,,,,,,,,,,,,
10826,1469892438608,,,,,,,0.07,0.11,0.99,-7.7,0.0,-0.1,0,175,,,,,,,,,,,,,,,,,
10846,1469892438628,0,123.6,151.0,0,150.4,,0.07,0.11,0.99,-7.7,0.0,-0.1,0,173,0.0,0,39.540566,-122.331955,3.28,0.008,316.7,11,2,1.3,0,0.0,-1,0.0,0.0,0.0,0
10866,1469892438648,,,,,,,0.07,0.11,0.99,-7.7,0.0,-0.1,0,172,,,,,,,,,,,,,,,,,
10886,1469892438668,,,,,,,0.07,0.11,0.99,-7.7,0.0,-0.0,0,170,,,,,,,,,,,,,,,,,
10906,1469892438688,,,,,,,0.07,0.1,1.0,-7.7,-0.0,-0.0,0,169,,,,,,,,,,,,,,,,,
10926,1469892438708,,,,,,,0.07,0.1,0.99,-7.6,-0.0,0.0,0,169,,,,,,,,,,,,,,,,,
10946,1469892438728,,,,0,,,0.07,0.11,1.0,-7.6,0.0,0.1,0,169,0.0,0,39.540569,-122.331955,3.13,0.009,316.8,11,2,1.3,0,0.0,-1,0.0,,0.0,0
10966,1469892438748,,,,,,,0.07,0.1,1.0,-7.6,0.1,0.1,0,167,,,,,,,,,,,,,,,,,
10986,1469892438768,,,,,,,0.08,0.1,0.99,-7.6,0.0,0.1,0,166,,,,,,,,,,,,,,,,,
11006,1469892438792,,,,,,,0.08,0.1,0.99,-7.5,0.0,0.1,0,166,,,,,,,,,,,,,,,,,
11026,1469892438812,,,,,,,0.08,0.1,0.99,-7.5,0.0,0.1,0,164,,,,,,,,,,,,,,,,,
11046,1469892438832,0,124.0,151.9,0,150.9,13.34,0.08,0.11,0.99,-7.5,-0.0,0.0,0,160,0.0,0,39.540569,-122.331955,3.16,0.009,316.9,11,2,1.3,0,0.0,-1,0.0,0.0,0.0,0
11066,1469892438852,,,,,,,0.07,0.11,0.99,-7.4,0.0,0.0,0,156,,,,,,,,,,,,,,,,,
11086,1469892438872,,,,,,,0.07,0.11,1.0,-7.4,-0.0,0.0,0,155,,,,,,,,,,,,,,,,,
11106,1469892438892,,,,,,,0.08,0.11,1.0,-7.4,-0.0,0.1,0,155,,,,,,,,,,,,,,,,,
11126,1469892438905,,,,,,,0.08,0.11,1.0,-7.4,-0.1,0.1,0,153,,,,,,,,,,,,,,,,,
11146,1469892438925,,,,0,,,0.08,0.1,1.0,-7.4,-0.1,0.1,0,153,0.0,0,39.540569,-122.331955,3.1,0.009,316.9,11,2,1.3,0,0.0,-1,0.0,,0.0,0
11166,1469892438945,,,,,,,0.08,0.1,1.0,-7.4,-0.1,0.0,0,152,,,,,,,,,,,,,,,,,
11186,1469892438965,,,,,,,0.08,0.1,1.0,-7.3,-0.1,0.0,0,150,,,,,,,,,,,,,,,,,
11206,1469892439091,,,,,,,0.08,0.1,1.0,-7.3,-0.1,-0.0,0,147,,,,,,,,,,,,,,,,,
11226,1469892439111,,,,,,,0.08,0.1,1.0,-7.3,-0.1,-0.0,0,146,,,,,,,,,,,,,,,,,
11246,1469892439131,0,123.7,151.4,0,150.4,,0.08,0.1,1.0,-7.2,-0.0,0.0,0,144,0.0,0,39.540573,-122.331955,2.53,0.009,316.9,11,2,1.3,0,0.0,-1,0.0,0.0,0.0,0
11266,1469892439151,,,,,,,0.08,0.1,0.99,-7.2,-0.0,0.0,0,143,,,,,,,,,,,,,,,,,
11286,1469892439171,,,,,,,0.08,0.1,0.99,-7.1,-0.0,0.0,0,141,,,,,,,,,,,,,,,,,
11306,1469892439191,,,,,,,0.08,0.1,0.99,-7.0,-0.0,0.0,0,140,,,,,,,,,,,,,,,,,
11326,1469892439211,,,,,,,0.08,0.1,0.99,-7.0,0.0,0.0,0,140,,,,,,,,,,,,,,,,,
11346,1469892439231,,,,0,,,0.08,0.1,0.99,-7.0,-0.0,0.0,0,138,0.0,0,39.540573,-122.331955,2.53,0.009,316.9,11,2,1.3,0,0.0,-1,0.0,,0.0,0
11366,1469892439251,,,,,,,0.08,0.11,0.99,-6.9,-0.0,0.1,0,136,,,,,,,,,,,,,,,,,
11386,1469892439271,,,,,,,0.08,0.1,0.99,-6.9,0.0,0.1,0,135,,,,,,,,,,,,,,,,,
11406,1469892439192,,,,,,,0.08,0.1,0.99,-6.9,0.0,0.1,0,135,,,,,,,,,,,,,,,,,
11426,1469892439212,,,,,,,0.08,0.1,0.99,-6.8,0.0,0.1,0,132,,,,,,,,,,,,,,,,,
11446,1469892439232,0,124.1,151.9,0,150.9,,0.08,0.1,0.99,-6.8,0.1,0.1,0,129,0.0,0,39.540573,-122.331955,2.6,0.009,316.9,11,2,1.3,0,0.0,-1,0.0,0.0,0.0,0
11466,1469892439252,,,,,,,0.08,0.1,0.99,-6.8,0.1,0.1,0,127,,,,,,,,,,,,,,,,,
11486,1469892439272,,,,,,,0.09,0.1,0.99,-6.7,0.1,0.1,0,124,,,,,,,,,,,,,,,,,
11506,1469892439292,,,,,,,0.09,0.1,0.99,-6.7,0.1,0.1,0,124,,,,,,,,,,,,,,,,,
11526,1469892439312,,,,,,,0.09,0.1,0.99,-6.6,0.1,0.0,0,121,,,,,,,,,,,,,,,,,
11546,1469892439332,,,,0,,,0.09,0.1,0.99,-6.6,0.1,0.1,0,120,0.0,0,39.540577,-122.331955,2.47,0.009,316.9,11,2,1.3,0,0.0,-1,0.0,,0.0,0
11566,1469892439352,,,,,,,0.09,0.1,0.99,-6.5,0.1,0.1,0,120,,,,,,,,,,,,,,,,,
11586,1469892439372,,,,,,,0.09,0.1,0.98,-6.5,0.1,0.0,0,118,,,,,,,,,,,,,,,,,
11606,1469892439392,,,,,,,0.09,0.1,0.98,-6.4,0.2,0.0,0,115,,,,,,,,,,,,,,,,,
11626,1469892439405,,,,,,,0.09,0.1,0.99,-6.4,0.2,0.0,0,113,,,,,,,,,,,,,,,,,
11646,1469892439425,0,124.0,151.7,0,150.8,,0.09,0.1,0.99,-6.3,0.1,0.1,0,112,0.0,0,39.540577,-122.331955,2.45,0.009,317.0,11,2,1.3,0,0.0,-1,0.0,0.0,0.0,0
11666,1469892439445,,,,,,,0.09,0.1,0.99,-6.3,0.1,0.1,0,110,,,,,,,,,,,,,,,,,
11686,1469892439465,,,,,,,0.09,0.1,0.99,-6.3,0.2,0.1,0,107,,,,,,,,,,,,,,,,,
11706,1469892439485,,,,,,,0.09,0.1,0.99,-6.2,0.2,0.1,0,106,,,,,,,,,,,,,,,,,
11726,1469892439510,,,,,,,0.1,0.1,0.99,-6.2,0.2,0.1,0,104,,,,,,,,,,,,,,,,,
11746,1469892439530,,,,0,,,0.1,0.1,0.99,-6.1,0.2,0.1,0,101,0.0,0,39.540577,-122.331955,2.05,0.009,317.0,11,2,1.3,0,0.0,-1,0.0,,0.0,0
11766,1469892439550,,,,,,,0.1,0.1,0.99,-6.1,0.2,0.1,0,100,,,,,,,,,,,,,,,,,
11786,1469892439570,,,,,,,0.1,0.1,0.99,-6.0,0.2,0.1,0,96,,,,,,,,,,,,,,,,,
11806,1469892439590,,,,,,,0.1,0.1,0.99,-5.9,0.2,0.1,0,95,,,,,,,,,,,,,,,,,
11826,1469892439608,,,,,,,0.1,0.1,0.99,-5.9,0.1,0.1,0,92,,,,,,,,,,,,,,,,,
11846,1469892439628,0,124.6,152.3,0,150.2,,0.1,0.1,0.99,-5.8,0.1,0.1,0,90,0.0,0,39.540577,-122.331955,2.16,0.009,317.0,11,2,1.3,0,0.0,-1,0.0,0.0,0.0,0
11866,1469892439648,,,,,,,0.1,0.1,0.99,-5.7,0.1,0.0,0,89,,,,,,,,,,,,,,,,,
11886,1469892439668,,,,,,,0.11,0.1,0.99,-5.7,0.1,0.0,0,87,,,,,,,,,,,,,,,,,
11906,1469892439688,,,,,,,0.11,0.1,0.99,-5.6,0.1,-0.0,0,86,,,,,,,,,,,,,,,,,
11926,1469892439706,,,,,,,0.11,0.1,0.99,-5.6,0.1,0.0,0,84,,,,,,,,,,,,,,,,,
11946,1469892439726,,,,0,,,0.11,0.1,0.99,-5.5,0.1,0.0,0,81,0.0,0,39.540581,-122.331955,1.94,0.01,317.0,11,2,1.3,0,0.0,-1,0.0,,0.0,0
11966,1469892439746,,,,,,,0.11,0.1,0.99,-5.5,0.1,-0.0,0,78,,,,,,,,,,,,,,,,,
11986,1469892439766,,,,,,,0.11,0.1,0.99,-5.4,0.1,-0.0,0,76,,,,,,,,,,,,,,,,,
12006,1469892439891,,,,,,,0.11,0.1,0.99,-5.3,0.1,-0.0,0,73,,,,,,,,,,,,,,,,,
12026,1469892439911,,,,,,,0.11,0.1,0.99,-5.3,0.1,-0.0,0,72,,,,,,,,,,,,,,,,,
12046,1469892439931,0,124.4,151.8,0,150.1,13.36,0.11,0.1,0.99,-5.2,0.1,-0.0,0,69,0.0,0,39.540581,-122.331955,1.36,0.01,317.1,11,2,1.3,0,0.0,-1,0.0,0.0,0.0,0
12066,1469892439951,,,,,,,0.11,0.1,0.99,-5.1,0.1,-0.0,0,66,,,,,,,,,,,,,,,,,
12086,1469892439971,,,,,,,0.11,0.1,0.99,-5.0,0.1,-0.0,0,63,,,,,,,,,,,,,,,,,
12106,1469892439991,,,,,,,0.11,0.1,0.99,-5.0,0.1,-0.0,0,63,,,,,,,,,,,,,,,,,
12126,1469892440011,,,,,,,0.11,0.1,0.99,-4.9,0.1,-0.1,0,60,,,,,,,,,,,,,,,,,
12146,1469892440031,,,,0,,,0.11,0.1,0.99,-4.9,0.1,-0.1,0,56,0.0,0,39.540581,-122.331955,1.36,0.01,317.1,11,2,1.3,0,0.0,-1,0.0,,0.0,0
12166,1469892440051,,,,,,,0.11,0.1,0.99,-4.8,0.1,-0.1,0,53,,,,,,,,,,,,,,,,,
12186,1469892440071,,,,,,,0.11,0.1,0.99,-4.8,0.1,-0.1,0,53,,,,,,,,,,,,,,,,,
12206,1469892439992,,,,,,,0.11,0.1,0.99,-4.8,0.1,-0.1,0,50,,,,,,,,,,,,,,,,,
12226,1469892440012,,,,,,,0.11,0.1,0.99,-4.7,0.0,-0.1,0,50,,,,,,,,,,,,,,,,,
12246,1469892440032,0,123.5,151.3,0,150.5,,0.11,0.09,0.99,-4.7,0.0,-0.1,0,47,0.0,0,39.540581,-122.331955,1.19,0.01,317.1,11,2,1.3,0,0.0,-1,0.0,0.0,0.0,0
12266,1469892440052,,,,,,,0.11,0.09,0.99,-4.6,0.0,-0.1,0,43,,,,,,,,,,,,,,,,,
12286,1469892440072,,,,,,,0.11,0.09,0.99,-4.5,0.1,-0.1,0,43,,,,,,,,,,,,,,,,,
12306,1469892440092,,,,,,,0.11,0.09,0.99,-4.4,0.0,-0.1,0,40,,,,,,,,,,,,,,,,,
12326,1469892440112,,,,,,,0.11,0.09,0.99,-4.3,0.0,-0.1,0,40,,,,,,,,,,,,,,,,,
12346,1469892440132,,,,0,,,0.11,0.09,0.99,-4.3,0.0,-0.1,0,40,0.0,0,39.540581,-122.331955,1.09,0.01,317.1,11,2,1.3,0,0.0,-1,0.0,,0.0,0
12366,1469892440152,,,,,,,0.11,0.09,0.99,-4.2,0.0,-0.1,0,35,,,,,,,,,,,,,,,,,
12386,1469892440172,,,,,,,0.11,0.09,0.99,-4.2,0.0,-0.1,0,35,,,,,,,,,,,,,,,,,
12406,1469892440192,,,,,,,0.11,0.09,0.99,-4.1,0.0,-0.2,0,29,,,,,,,,,,,,,,,,,
12426,1469892440212,,,,,,,0.11,0.09,0.99,-4.1,0.0,-0.1,0,29,,,,,,,,,,,,,,,,,
12446,1469892440232,0,123.9,151.5,0,150.2,,0.11,0.09,0.99,-4.0,0.0,-0.1,0,29,0.0,0,39.540585,-122.331955,0.0,0.01,317.2,11,2,1.3,0,0.0,-1,0.0,0.0,0.0,0
12466,1469892440252,,,,,,,0.11,0.09,0.99,-4.0,0.0,-0.1,0,29,,,,,,,,,,,,,,,,,
12486,1469892440272,,,,,,,0.11,0.09,0.99,-3.9,0.1,-0.1,0,23,,,,,,,,,,,,,,,,,
12506,1469892440292,,,,,,,0.11,0.09,0.99,-3.9,0.1,-0.1,0,23,,,,,,,,,,,,,,,,,
12526,1469892440312,,,,,,,0.11,0.09,0.99,-3.8,0.0,-0.1,0,23,,,,,,,,,,,,,,,,,
12546,1469892440332,,,,0,,,0.1,0.09,0.99,-3.7,0.0,-0.1,0,23,0.0,0,39.540585,-122.331955,0.0,0.01,317.3,11,2,1.3,0,0.0,-1,0.0,,0.0,0
12566,1469892440352,,,,,,,0.1,0.09,0.99,-3.7,0.1,-0.1,0,23,,,,,,,,,,,,,,,,,
12586,1469892440372,,,,,,,0.1,0.09,0.99,-3.6,0.1,-0.1,0,1538461,,,,,,,,,,,,,,,,,
12606,1469892440392,,,,,,,0.1,0.09,0.99,-3.5,0.1,-0.1,0,0,,,,,,,,,,,,,,,,,
12626,1469892440410,,,,,,,0.1,0.09,0.99,-3.5,0.0,-0.1,0,0,,,,,,,,,,,,,,,,,
12646,1469892440430,0,124.7,152.5,0,150.7,,0.1,0.09,0.99,-3.4,0.0,-0.1,0,0,0.0,0,39.540585,-122.331955,0.0,0.01,317.3,11,2,1.3,0,0.0,-1,0.0,0.0,0.0,0
12666,1469892440450,,,,,,,0.1,0.09,0.99,-3.4,-0.0,-0.1,0,0,,,,,,,,,,,,,,,,,
12686,1469892440470,,,,,,,0.09,0.09,0.99,-3.3,-0.1,-0.1,0,0,,,,,,,,,,,,,,,,,
12706,1469892440490,,,,,,,0.09,0.09,0.99,-3.3,0.0,-0.1,0,0,,,,,,,,,,,,,,,,,
12726,1469892440509,,,,,,,0.08,0.1,0.99,-3.3,0.1,-0.1,0,0,,,,,,,,,,,,,,,,,
12746,1469892440529,,,,0,,,0.07,0.1,0.99,-3.3,0.2,-0.0,0,0,0.0,0,39.540585,-122.331955,0.0,0.01,317.3,11,2,1.3,0,0.0,-1,0.0,,0.0,0
12766,1469892440549,,,,,,,0.06,0.1,0.99,-3.2,0.1,-0.0,0,0,,,,,,,,,,,,,,,,,
12786,1469892440569,,,,,,,0.05,0.1,0.99,-3.2,0.1,-0.0,0,0,,,,,,,,,,,,,,,,,
12806,1469892440589,,,,,,,0.04,0.1,0.99,-3.2,0.2,-0.0,0,0,,,,,,,,,,,,,,,,,
12826,1469892440709,,,,,,,0.04,0.1,0.99,-3.2,0.2,-0.1,0,0,,,,,,,,,,,,,,,,,
12846,1469892440729,0,124.7,152.4,0,150.7,,0.04,0.1,0.99,-3.2,0.2,-0.1,0,0,0.0,0,39.540585,-122.331955,0.0,0.01,317.2,11,2,1.3,0,0.0,-1,0.0,0.0,0.0,0
12866,1469892440749,,,,,,,0.03,0.1,0.99,-3.1,0.1,-0.1,0,0,,,,,,,,,,,,,,,,,
12886,1469892440769,,,,,,,0.03,0.1,0.99,-3.1,0.1,-0.1,0,0,,,,,,,,,,,,,,,,,
12906,1469892440789,,,,,,,0.03,0.1,0.99,-3.1,0.0,-0.1,0,0,,,,,,,,,,,,,,,,,
12926,1469892440809,,,,,,,0.03,0.1,0.99,-3.1,0.0,-0.1,0,0,,,,,,,,,,,,,,,,,
12946,1469892440829,,,,0,,,0.03,0.1,0.99,-3.1,0.0,-0.1,0,0,0.0,0,39.540585,-122.331955,0.0,0.01,317.2,11,2,1.3,0,0.0,-1,0.0,,0.0,0
12966,1469892440849,,,,,,,0.03,0.1,0.99,-3.1,0.0,-0.1,0,0,,,,,,,,,,,,,,,,,
12986,1469892440869,,,,,,,0.03,0.1,0.99,-3.1,0.1,-0.1,0,0,,,,,,,,,,,,,,,,,
13006,1469892440792,,,,,,,0.03,0.1,0.99,-3.1,0.1,-0.1,0,0,,,,,,,,,,,,,,,,,
13026,1469892440812,,,,,,,0.03,0.1,0.99,-3.1,0.1,-0.1,0,0,,,,,,,,,,,,,,,,,
13046,1469892440832,0,124.6,152.0,0,150.2,13.3,0.03,0.1,0.99,-3.1,0.1,-0.0,0,0,0.0,0,39.540585,-122.331955,0.0,0.01,317.1,11,2,1.3,0,0.0,-1,0.0,0.0,0.0,0
13066,1469892440852,,,,,,,0.02,0.1,0.99,-3.1,0.1,-0.0,0,0,,,,,,,,,,,,,,,,,
13086,1469892440872,,,,,,,0.02,0.1,0.99,-3.0,0.1,-0.0,0,0,,,,,,,,,,,,,,,,,
13106,1469892440892,,,,,,,0.02,0.1,0.99,-3.0,0.0,-0.1,0,0,,,,,,,,,,,,,,,,,
13126,1469892440904,,,,,,,0.02,0.11,0.99,-3.0,0.0,-0.1,0,0,,,,,,,,,,,,,,,,,
13146,1469892440924,,,,0,,,0.02,0.11,0.99,-3.0,0.0,-0.1,0,0,0.0,0,39.540585,-122.331955,0.0,0.01,317.0,11,2,1.3,0,0.0,-1,0.0,,0.0,0
13166,1469892440944,,,,,,,0.02,0.1,0.99,-3.0,0.0,-0.1,0,0,,,,,,,,,,,,,,,,,
13186,1469892440964,,,,,,,0.02,0.11,0.99,-3.0,0.0,-0.1,0,0,,,,,,,,,,,,,,,,,
13206,1469892440984,,,,,,,0.02,0.1,0.99,-3.0,0.0,-0.1,0,0,,,,,,,,,,,,,,,,,
13226,1469892441003,,,,,,,0.02,0.1,0.99,-3.0,-0.0,-0.1,0,0,,,,,,,,,,,,,,,,,
13246,1469892441023,0,124.6,152.5,0,151.2,,0.02,0.1,0.99,-3.0,0.0,-0.1,0,0,0.0,0,39.540585,-122.331955,0.0,0.01,317.0,11,2,1.3,0,0.0,-1,0.0,0.0,0.0,0
13266,1469892441043,,,,,,,0.02,0.1,0.99,-3.0,0.0,-0.1,0,0,,,,,,,,,,,,,,,,,
13286,1469892441063,,,,,,,0.02,0.1,0.99,-3.0,0.0,-0.1,0,0,,,,,,,,,,,,,,,,,
13306,1469892441092,,,,,,,0.02,0.1,0.99,-3.0,0.1,-0.1,0,0,,,,,,,,,,,,,,,,,
13326,1469892441112,,,,,,,0.02,0.1,0.98,-3.0,0.1,-0.1,0,0,,,,,,,,,,,,,,,,,
13346,1469892441132,,,,0,,,0.02,0.11,0.99,-3.0,0.1,-0.1,0,0,0.0,0,39.540585,-122.331955,0.0,0.01,317.0,11,2,1.3,0,0.0,-1,0.0,,0.0,0
13366,1469892441152,,,,,,,0.02,0.11,0.99,-3.0,0.1,-0.1,0,0,,,,,,,,,,,,,,,,,
13386,1469892441172,,,,,,,0.02,0.11,0.99,-3.0,0.1,-0.1,0,0,,,,,,,,,,,,,,,,,
13406,1469892441192,,,,,,,0.02,0.1,0.99,-3.0,0.1,-0.1,0,0,,,,,,,,,,,,,,,,,
13426,1469892441212,,,,,,,0.02,0.1,0.99,-3.0,0.1,-0.1,0,0,,,,,,,,,,,,,,,,,
13446,1469892441232,0,124.4,152.5,0,151.0,,0.02,0.1,0.99,-3.0,0.1,-0.2,0,0,0.0,0,39.540585,-122.331955,0.0,0.01,317.0,11,2,1.3,0,0.0,-1,0.0,0.0,0.0,0
13466,1469892441252,,,,,,,0.02,0.1,0.99,-3.0,0.1,-0.1,0,0,,,,,,,,,,,,,,,,,
13486,1469892441272,,,,,,,0.02,0.1,0.99,-3.0,0.1,-0.1,0,0,,,,,,,,,,,,,,,,,
13506,1469892441292,,,,,,,0.02,0.1,0.99,-3.0,0.1,-0.1,0,0,,,,,,,,,,,,,,,,,
13526,1469892441312,,,,,,,0.02,0.1,0.99,-3.0,0.0,-0.1,0,0,,,,,,,,,,,,,,,,,
13546,1469892441332,,,,0,,,0.02,0.1,0.99,-3.0,0.0,-0.0,0,0,0.0,0,39.540585,-122.331955,0.0,0.01,317.0,11,2,1.3,0,0.0,-1,0.0,,0.0,0
13566,1469892441352,,,,,,,0.02,0.1,0.99,-3.0,0.0,-0.0,0,0,,,,,,,,,,,,,,,,,
13586,1469892441372,,,,,,,0.02,0.1,0.99,-3.0,0.1,-0.0,0,0,,,,,,,,,,,,,,,,,
13606,1469892441392,,,,,,,0.02,0.11,0.99,-3.0,0.1,-0.0,0,0,,,,,,,,,,,,,,,,,
13626,1469892441509,,,,,,,0.02,0.11,0.99,-3.0,0.1,-0.0,0,0,,,,,,,,,,,,,,,,,
13646,1469892441529,0,124.7,152.6,0,151.1,,0.02,0.11,0.99,-3.0,0.1,-0.1,0,0,0.0,0,39.540585,-122.331955,0.0,0.01,317.0,11,2,1.3,0,0.0,-1,0.0,0.0,0.0,0
13666,1469892441549,,,,,,,0.02,0.11,0.99,-3.0,0.1,-0.1,0,0,,,,,,,,,,,,,,,,,
13686,1469892441569,,,,,,,0.02,0.11,0.99,-3.0,0.1,-0.1,0,0,,,,,,,,,,,,,,,,,
13706,1469892441589,,,,,,,0.02,0.11,0.99,-3.0,0.1,-0.1,0,0,,,,,,,,,,,,,,,,,
13726,1469892441609,,,,,,,0.02,0.1,0.99,-3.0,0.1,-0.1,0,0,,,,,,,,,,,,,,,,,
13746,1469892441629,,,,0,,,0.02,0.1,0.99,-3.0,0.1,-0.1,0,0,0.0,0,39.540585,-122.331955,0.0,0.01,317.0,11,2,1.3,0,0.0,-1,0.0,,0.0,0
13766,1469892441649,,,,,,,0.02,0.1,0.99,-3.0,0.1,-0.1,0,0,,,,,,,,,,,,,,,,,
13786,1469892441669,,,,,,,0.02,0.1,0.99,-3.0,0.1,-0.1,0,0,,,,,,,,,,,,,,,,,
13806,1469892441689,,,,,,,0.02,0.1,0.99,-3.0,0.1,-0.1,0,0,,,,,,,,,,,,,,,,,
13826,1469892441609,,,,,,,0.02,0.1,0.99,-3.0,0.1,-0.1,0,0,,,,,,,,,,,,,,,,,
13846,1469892441629,0,123.9,152.1,0,150.9,,0.02,0.1,0.99,-3.0,0.1,-0.1,0,0,0.0,0,39.540585,-122.331955,0.0,0.01,317.0,11,2,1.3,0,0.0,-1,0.0,0.0,0.0,0
13866,1469892441649,,,,,,,0.02,0.11,0.99,-3.0,0.1,-0.1,0,0,,,,,,,,,,,,,,,,,
13886,1469892441669,,,,,,,0.02,0.11,0.99,-3.0,0.1,-0.0,0,0,,,,,,,,,,,,,,,,,
13906,1469892441689,,,,,,,0.02,0.11,0.99,-3.0,0.1,-0.1,0,0,,,,,,,,,,,,,,,,,
13926,1469892441709,,,,,,,0.02,0.11,0.99,-3.0,0.1,-0.1,0,0,,,,,,,,,,,,,,,,,
13946,1469892441729,,,,0,,,0.02,0.1,0.99,-3.0,0.1,-0.1,0,0,0.0,0,39.540585,-122.331955,0.0,0.01,317.0,11,2,1.3,0,0.0,-1,0.0,,0.0,0
13966,1469892441749,,,,,,,0.02,0.1,0.99,-3.0,0.1,-0.1,0,0,,,,,,,,,,,,,,,,,
13986,1469892441769,,,,,,,0.02,0.1,0.99,-3.0,0.1,-0.1,0,0,,,,,,,,,,,,,,,,,
14006,1469892441791,,,,,,,0.02,0.1,0.99,-3.0,0.1,-0.1,0,0,,,,,,,,,,,,,,,,,
14026,1469892441811,,,,,,,0.02,0.1,0.99,-3.0,0.1,-0.1,0,0,,,,,,,,,,,,,,,,,
14046,1469892441831,0,124.7,152.6,0,151.2,13.27,0.02,0.1,0.99,-3.0,0.1,-0.1,0,0,0.0,0,39.540585,-122.331955,0.0,0.01,317.0,11,2,1.3,0,0.0,-1,0.0,0.0,0.0,0
14066,1469892441851,,,,,,,0.02,0.1,0.99,-3.0,0.1,-0.0,0,0,,,,,,,,,,,,,,,,,
14086,1469892441871,,,,,,,0.02,0.1,0.99,-3.0,0.1,-0.0,0,0,,,,,,,,,,,,,,,,,
14106,1469892441891,,,,,,,0.02,0.1,0.99,-3.0,0.1,-0.0,0,0,,,,,,,,,,,,,,,,,
14126,1469892441905,,,,,,,0.02,0.1,0.99,-3.0,0.1,-0.0,0,0,,,,,,,,,,,,,,,,,
14146,1469892441925,,,,0,,,0.02,0.1,0.99,-3.0,0.1,-0.0,0,0,0.0,0,39.540585,-122.331955,0.0,0.01,317.0,11,2,1.3,0,0.0,-1,0.0,,0.0,0
14166,1469892441945,,,,,,,0.02,0.1,0.99,-3.0,0.1,-0.0,0,0,,,,,,,,,,,,,,,,,
14186,1469892441965,,,,,,,0.02,0.1,0.99,-3.0,0.1,-0.0,0,0,,,,,,,,,,,,,,,,,
14206,1469892441985,,,,,,,0.02,0.1,0.99,-3.0,0.1,-0.0,0,0,,,,,,,,,,,,,,,,,
14226,1469892442008,,,,,,,0.02,0.1,0.99,-3.0,0.1,-0.0,0,0,,,,,,,,,,,,,,,,,
14246,1469892442028,0,124.2,152.3,0,151.0,,0.02,0.1,0.99,-3.0,0.1,-0.1,0,0,0.0,0,39.540585,-122.331955,0.0,0.01,317.0,11,2,1.3,0,0.0,-1,0.0,0.0,0.0,0
14266,1469892442048,,,,,,,0.02,0.1,0.99,-3.0,0.1,-0.1,0,0,,,,,,,,,,,,,,,,,
14286,1469892442068,,,,,,,0.02,0.1,0.99,-3.0,0.1,-0.1,0,0,,,,,,,,,,,,,,,,,
14306,1469892442092,,,,,,,0.02,0.1,0.99,-3.0,0.1,-0.1,0,0,,,,,,,,,,,,,,,,,
14326,1469892442112,,,,,,,0.02,0.11,0.99,-3.0,0.1,-0.1,0,0,,,,,,,,,,,,,,,,,
14346,1469892442132,,,,0,,,0.02,0.1,0.99,-3.0,0.1,-0.1,0,0,0.0,0,39.540585,-122.331955,0.0,0.01,317.0,11,2,1.3,0,0.0,-1,0.0,,0.0,0
14366,1469892442152,,,,,,,0.02,0.11,0.99,-3.0,0.1,-0.0,0,0,,,,,,,,,,,,,,,,,
14386,1469892442172,,,,,,,0.02,0.1,0.99,-3.0,0.1,-0.1,0,0,,,,,,,,,,,,,,,,,
14406,1469892442291,,,,,,,0.02,0.1,0.99,-3.0,0.1,-0.0,0,0,,,,,,,,,,,,,,,,,
14426,1469892442311,,,,,,,0.02,0.1,0.99,-3.0,0.1,-0.1,0,0,,,,,,,,,,,,,,,,,
14446,1469892442331,0,125.0,152.8,0,150.7,,0.02,0.1,0.99,-3.0,0.1,-0.0,0,0,0.0,0,39.540585,-122.331955,0.0,0.01,317.0,11,2,1.3,0,0.0,-1,0.0,0.0,0.0,0
14466,1469892442351,,,,,,,0.02,0.1,0.99,-3.0,0.1,-0.1,0,0,,,,,,,,,,,,,,,,,
14486,1469892442371,,,,,,,0.02,0.1,0.99,-3.0,0.1,-0.1,0,0,,,,,,,,,,,,,,,,,
14506,1469892442391,,,,,,,0.02,0.1,0.99,-3.0,0.1,-0.1,0,0,,,,,,,,,,,,,,,,,
14526,1469892442411,,,,,,,0.02,0.1,0.99,-3.0,0.1,-0.1,0,0,,,,,,,,,,,,,,,,,
14546,1469892442431,,,,0,,,0.02,0.1,0.99,-3.0,0.1,-0.1,0,0,0.0,0,39.540585,-122.331955,0.0,0.01,317.0,11,2,1.3,0,0.0,-1,0.0,,0.0,0
14566,1469892442451,,,,,,,0.02,0.1,0.99,-3.0,0.1,-0.1,0,0,,,,,,,,,,,,,,,,,
14586,1469892442471,,,,,,,0.02,0.1,0.99,-3.0,0.1,-0.1,0,0,,,,,,,,,,,,,,,,,
14606,1469892442491,,,,,,,0.02,0.1,0.99,-3.0,0.0,-0.0,0,0,,,,,,,,,,,,,,,,,
14626,1469892442410,,,,,,,0.02,0.1,0.99,-3.0,0.0,-0.0,0,0,,,,,,,,,,,,,,,,,
14646,1469892442430,0,124.9,152.7,0,150.7,,0.02,0.1,0.99,-3.0,0.0,-0.1,0,0,0.0,0,39.540585,-122.331955,0.0,0.01,317.0,11,2,1.3,0,0.0,-1,0.0,0.0,0.0,0
14666,1469892442450,,,,,,,0.02,0.11,0.99,-3.0,0.0,-0.1,0,0,,,,,,,,,,,,,,,,,
14686,1469892442470,,,,,,,0.02,0.11,0.99,-3.0,0.1,-0.1,0,0,,,,,,,,,,,,,,,,,
14706,1469892442490,,,,,,,0.02,0.11,0.99,-3.0,0.0,-0.1,0,0,,,,,,,,,,,,,,,,,
14726,1469892442509,,,,,,,0.02,0.11,0.99,-3.0,0.1,-0.1,0,0,,,,,,,,,,,,,,,,,
14746,1469892442529,,,,0,,,0.02,0.11,0.99,-3.0,0.0,-0.1,0,0,0.0,0,39.540585,-122.331955,0.0,0.01,317.0,11,2,1.3,0,0.0,-1,0.0,,0.0,0
14766,1469892442549,,,,,,,0.02,0.11,0.99,-3.0,0.0,-0.1,0,0,,,,,,,,,,,,,,,,,
14786,1469892442569,,,,,,,0.02,0.1,0.99,-3.0,0.0,-0.1,0,0,,,,,,,,,,,,,,,,,
14806,1469892442589,,,,,,,0.02,0.1,0.99,-3.0,0.0,-0.1,0,0,,,,,,,,,,,,,,,,,
14826,1469892442609,,,,,,,0.02,0.1,0.99,-3.0,0.0,-0.1,0,0,,,,,,,,,,,,,,,,,
14846,1469892442629,0,123.9,152.1,0,150.8,,0.02,0.1,0.99,-3.0,0.0,-0.1,0,0,0.0,0,39.540585,-122.331955,0.0,0.01,317.0,11,2,1.3,0,0.0,-1,0.0,0.0,0.0,0
14866,1469892442649,,,,,,,0.02,0.1,0.99,-3.0,0.0,-0.1,0,0,,,,,,,,,,,,,,,,,
14886,1469892442669,,,,,,,0.02,0.1,0.99,-3.0,0.1,-0.0,0,0,,,,,,,,,,,,,,,,,
14906,1469892442689,,,,,,,0.02,0.1,0.99,-3.0,0.1,-0.1,0,0,,,,,,,,,,,,,,,,,
14926,1469892442709,,,,,,,0.02,0.1,0.99,-3.0,0.1,-0.1,0,0,,,,,,,,,,,,,,,,,
14946,1469892442729,,,,0,,,0.02,0.11,0.99,-3.0,0.1,-0.1,0,0,0.0,0,39.540585,-122.331955,0.0,0.01,317.0,11,2,1.3,0,0.0,-1,0.0,,0.0,0
14966,1469892442749,,,,,,,0.02,0.11,0.99,-3.0,0.1,-0.1,0,0,,,,,,,,,,,,,,,,,
14986,1469892442769,,,,,,,0.02,0.11,0.99,-3.0,0.1,-0.1,0,0,,,,,,,,,,,,,,,,,
15006,1469892442792,,,,,,,0.02,0.11,0.99,-3.0,0.1,-0.1,0,0,,,,,,,,,,,,,,,,,
15026,1469892442812,,,,,,,0.02,0.11,0.99,-3.0,0.1,-0.1,0,0,,,,,,,,,,,,,,,,,
15046,1469892442832,0,123.6,151.6,0,149.9,13.25,0.02,0.1,0.99,-3.0,0.1,-0.1,0,0,0.0,0,39.540585,-122.331955,0.0,0.01,317.0,11,2,1.3,0,0.0,-1,0.0,0.0,0.0,0
15066,1469892442852,,,,,,,0.02,0.1,0.99,-3.0,0.1,-0.1,0,0,,,,,,,,,,,,,,,,,
15086,1469892442872,,,,,,,0.02,0.1,0.99,-3.0,0.1,-0.1,0,0,,,,,,,,,,,,,,,,,
15106,1469892442892,,,,,,,0.02,0.1,0.99,-3.0,0.1,-0.1,0,0,,,,,,,,,,,,,,,,,
15126,1469892442904,,,,,,,0.02,0.1,0.99,-3.0,0.0,-0.1,0,0,,,,,,,,,,,,,,,,,
15146,1469892442924,,,,0,,,0.02,0.1,0.99,-3.0,0.1,-0.1,0,0,0.0,0,39.540585,-122.331955,0.0,0.01,317.0,11,2,1.3,0,0.0,-1,0.0,,0.0,0
15166,1469892442944,,,,,,,0.02,0.1,0.99,-3.0,0.0,-0.0,0,0,,,,,,,,,,,,,,,,,
15186,1469892442964,,,,,,,0.02,0.1,0.99,-3.0,0.0,-0.1,0,0,,,,,,,,,,,,,,,,,
15206,1469892443091,,,,,,,0.02,0.1,0.99,-3.0,0.0,-0.0,0,0,,,,,,,,,,,,,,,,,
15226,1469892443111,,,,,,,0.02,0.1,0.99,-3.0,0.0,-0.0,0,0,,,,,,,,,,,,,,,,,
15246,1469892443131,0,124.5,152.7,0,151.3,,0.02,0.11,0.99,-3.0,0.1,-0.0,0,0,0.0,0,39.540585,-122.331955,0.0,0.01,317.0,11,2,1.3,0,0.0,-1,0.0,0.0,0.0,0
15266,1469892443151,,,,,,,0.02,0.11,0.99,-3.0,0.1,-0.1,0,0,,,,,,,,,,,,,,,,,
15286,1469892443171,,,,,,,0.02,0.11,0.99,-3.0,0.1,-0.1,0,0,,,,,,,,,,,,,,,,,
15306,1469892443191,,,,,,,0.02,0.11,0.99,-3.0,0.1,-0.1,0,0,,,,,,,,,,,,,,,,,
15326,1469892443211,,,,,,,0.02,0.11,0.99,-3.0,0.1,-0.1,0,0,,,,,,,,,,,,,,,,,
15346,1469892443231,,,,0,,,0.02,0.11,0.99,-3.0,0.1,-0.1,0,0,0.0,0,39.540585,-122.331955,0.0,0.01,317.0,11,2,1.3,0,0.0,-1,0.0,,0.0,0
15366,1469892443251,,,,,,,0.02,0.1,0.99,-3.0,0.1,-0.1,0,0,,,,,,,,,,,,,,,,,
15386,1469892443271,,,,,,,0.02,0.11,0.99,-3.0,0.0,-0.1,0,0,,,,,,,,,,,,,,,,,
15406,1469892443291,,,,,,,0.02,0.1,0.99,-3.0,-0.0,-0.0,0,0,,,,,,,,,,,,,,,,,
15426,1469892443210,,,,,,,0.02,0.1,0.99,-3.0,-0.0,-0.0,0,0,,,,,,,,,,,,,,,,,
15446,1469892443230,0,123.4,151.6,0,150.4,,0.02,0.1,0.99,-3.0,0.0,-0.0,0,0,0.0,0,39.540585,-122.331955,0.0,0.01,317.0,11,2,1.3,0,0.0,-1,0.0,0.0,0.0,0
15466,1469892443250,,,,,,,0.02,0.1,0.99,-3.0,0.0,-0.0,0,0,,,,,,,,,,,,,,,,,
15486,1469892443270,,,,,,,0.02,0.1,0.99,-3.0,0.1,-0.0,0,0,,,,,,,,,,,,,,,,,
15506,1469892443290,,,,,,,0.02,0.1,0.99,-3.0,0.0,-0.0,0,0,,,,,,,,,,,,,,,,,
15526,1469892443309,,,,,,,0.02,0.1,0.99,-3.0,0.1,-0.0,0,0,,,,,,,,,,,,,,,,,
15546,1469892443329,,,,0,,,0.02,0.1,0.99,-3.0,0.0,-0.0,0,0,0.0,0,39.540585,-122.331955,0.0,0.01,317.0,11,2,1.3,0,0.0,-1,0.0,,0.0,0
15566,1469892443349,,,,,,,0.02,0.1,0.99,-3.0,0.1,-0.0,0,0,,,,,,,,,,,,,,,,,
15586,1469892443369,,,,,,,0.02,0.1,0.99,-3.0,0.1,-0.0,0,0,,,,,,,,,,,,,,,,,
15606,1469892443389,,,,,,,0.02,0.1,0.99,-3.0,0.0,-0.1,0,0,,,,,,,,,,,,,,,,,
15626,1469892443407,,,,,,,0.02,0.1,0.99,-3.0,0.1,-0.1,0,0,,,,,,,,,,,,,,,,,
15646,1469892443427,0,124.1,152.4,0,151.0,,0.02,0.1,0.99,-3.0,0.0,-0.1,0,0,0.0,0,39.540585,-122.331955,0.0,0.01,317.0,11,2,1.3,0,0.0,-1,0.0,0.0,0.0,0
15666,1469892443447,,,,,,,0.02,0.1,0.99,-3.0,0.1,-0.1,0,0,,,,,,,,,,,,,,,,,
15686,1469892443467,,,,,,,0.02,0.1,0.99,-3.0,0.0,-0.1,0,0,,,,,,,,,,,,,,,,,
15706,1469892443487,,,,,,,0.02,0.1,0.99,-3.0,0.1,-0.1,0,0,,,,,,,,,,,,,,,,,
15726,1469892443506,,,,,,,0.02,0.1,0.99,-3.0,0.0,-0.0,0,0,,,,,,,,,,,,,,,,,
15746,1469892443526,,,,0,,,0.02,0.1,0.99,-3.0,0.1,-0.0,0,0,0.0,0,39.540585,-122.331955,0.0,0.01,317.0,11,2,1.3,0,0.0,-1,0.0,,0.0,0
15766,1469892443546,,,,,,,0.02,0.1,0.99,-3.0,0.1,-0.0,0,0,,,,,,,,,,,,,,,,,
15786,1469892443566,,,,,,,0.02,0.1,0.99,-3.0,0.1,-0.0,0,0,,,,,,,,,,,,,,,,,
15806,1469892443586,,,,,,,0.02,0.1,0.99,-3.0,0.1,-0.1,0,0,,,,,,,,,,,,,,,,,
15826,1469892443606,,,,,,,0.02,0.11,0.99,-3.0,0.0,-0.1,0,0,,,,,,,,,,,,,,,,,
15846,1469892443626,0,123.8,151.8,0,149.9,,0.02,0.1,0.99,-3.0,0.1,-0.1,0,0,0.0,0,39.540585,-122.331955,0.0,0.01,317.0,11,2,1.3,0,0.0,-1,0.0,0.0,0.0,0
15866,1469892443646,,,,,,,0.02,0.1,0.99,-3.0,0.1,-0.1,0,0,,,,,,,,,,,,,,,,,
15886,1469892443666,,,,,,,0.02,0.1,0.99,-3.0,0.1,-0.1,0,0,,,,,,,,,,,,,,,,,
15906,1469892443686,,,,,,,0.02,0.1,0.99,-3.0,0.0,-0.1,0,0,,,,,,,,,,,,,,,,,
15926,1469892443706,,,,,,,0.02,0.1,0.99,-3.0,0.1,-0.1,0,0,,,,,,,,,,,,,,,,,
15946,1469892443726,,,,0,,,0.02,0.1,0.99,-3.0,0.0,-0.1,0,0,0.0,0,39.540585,-122.331955,0.0,0.01,317.0,11,2,1.3,0,0.0,-1,0.0,,0.0,0
15966,1469892443746,,,,,,,0.02,0.1,0.99,-3.0,0.1,-0.1,0,0,,,,,,,,,,,,,,,,,
15986,1469892443766,,,,,,,0.02,0.1,0.99,-3.0,0.0,-0.1,0,0,,,,,,,,,,,,,,,,,
16006,1469892443786,,,,,,,0.02,0.1,0.99,-3.0,0.1,-0.1,0,0,,,,,,,,,,,,,,,,,
16026,1469892443909,,,,,,,0.02,0.1,0.99,-3.0,0.0,-0.1,0,0,,,,,,,,,,,,,,,,,
16046,1469892443929,0,124.1,152.5,0,150.9,13.21,0.02,0.1,0.99,-3.0,0.0,-0.1,0,0,0.0,0,39.540585,-122.331955,0.0,0.01,317.0,11,2,1.3,0,0.0,-1,0.0,0.0,0.0,0
16066,1469892443949,,,,,,,0.02,0.1,0.99,-3.0,0.1,-0.1,0,0,,,,,,,,,,,,,,,,,
16086,1469892443969,,,,,,,0.02,0.1,0.99,-3.0,0.0,-0.1,0,0,,,,,,,,,,,,,,,,,
16106,1469892443989,,,,,,,0.02,0.1,0.99,-3.0,0.0,-0.1,0,0,,,,,,,,,,,,,,,,,
16126,1469892444009,,,,,,,0.02,0.1,0.99,-3.0,0.0,-0.0,0,0,,,,,,,,,,,,,,,,,
16146,1469892444029,,,,0,,,0.02,0.1,0.99,-3.0,0.1,-0.1,0,0,0.0,0,39.540585,-122.331955,0.0,0.01,317.0,11,2,1.3,0,0.0,-1,0.0,,0.0,0
16166,1469892444049,,,,,,,0.02,0.1,0.99,-3.0,0.0,-0.0,0,0,,,,,,,,,,,,,,,,,
16186,1469892444069,,,,,,,0.02,0.1,0.99,-3.0,0.0,-0.0,0,0,,,,,,,,,,,,,,,,,
16206,1469892444089,,,,,,,0.02,0.1,0.99,-3.0,0.1,-0.1,0,0,,,,,,,,,,,,,,,,,
16226,1469892444010,,,,,,,0.02,0.1,0.99,-3.0,0.0,-0.1,0,0,,,,,,,,,,,,,,,,,
16246,1469892444030,0,124.6,152.8,0,151.3,,0.02,0.1,0.99,-3.0,0.1,-0.1,0,0,0.0,0,39.540585,-122.331955,0.0,0.01,317.0,11,2,1.3,0,0.0,-1,0.0,0.0,0.0,0
16266,1469892444050,,,,,,,0.02,0.1,0.99,-3.0,0.0,-0.1,0,0,,,,,,,,,,,,,,,,,
16286,1469892444070,,,,,,,0.02,0.1,0.99,-3.0,0.1,-0.1,0,0,,,,,,,,,,,,,,,,,
16306,1469892444090,,,,,,,0.02,0.1,0.99,-3.0,0.0,-0.1,0,0,,,,,,,,,,,,,,,,,
16326,1469892444110,,,,,,,0.02,0.1,0.99,-3.0,0.1,-0.1,0,0,,,,,,,,,,,,,,,,,
16346,1469892444130,,,,0,,,0.02,0.1,0.99,-3.0,0.1,-0.1,0,0,0.0,0,39.540585,-122.331955,0.0,0.01,317.0,11,2,1.3,0,0.0,-1,0.0,,0.0,0
16366,1469892444150,,,,,,,0.02,0.1,0.99,-3.0,0.1,-0.1,0,0,,,,,,,,,,,,,,,,,
16386,1469892444170,,,,,,,0.02,0.1,0.99,-3.0,0.1,-0.1,0,0,,,,,,,,,,,,,,,,,
16406,1469892444190,,,,,,,0.02,0.1,0.99,-3.0,0.0,-0.1,0,0,,,,,,,,,,,,,,,,,
16426,1469892444205,,,,,,,0.02,0.1,0.99,-3.0,0.1,-0.1,0,0,,,,,,,,,,,,,,,,,
16446,1469892444225,0,124.4,152.2,0,150.2,,0.02,0.1,0.99,-3.0,0.0,-0.1,0,0,0.0,0,39.540585,-122.331955,0.0,0.01,317.0,11,2,1.3,0,0.0,-1,0.0,0.0,0.0,0
16466,1469892444245,,,,,,,0.02,0.1,0.99,-3.0,0.0,-0.1,0,0,,,,,,,,,,,,,,,,,
16486,1469892444265,,,,,,,0.02,0.1,0.99,-3.0,0.0,-0.1,0,0,,,,,,,,,,,,,,,,,
16506,1469892444285,,,,,,,0.02,0.1,0.99,-3.0,0.0,-0.1,0,0,,,,,,,,,,,,,,,,,
16526,1469892444309,,,,,,,0.02,0.1,0.99,-3.0,0.0,-0.1,0,0,,,,,,,,,,,,,,,,,
16546,1469892444329,,,,0,,,0.02,0.1,0.99,-3.0,0.0,-0.1,0,0,0.0,0,39.540585,-122.331955,0.0,0.01,317.0,11,2,1.3,0,0.0,-1,0.0,,0.0,0
16566,1469892444349,,,,,,,0.02,0.1,0.99,-3.0,0.1,-0.1,0,0,,,,,,,,,,,,,,,,,
16586,1469892444369,,,,,,,0.02,0.1,0.99,-3.0,0.0,-0.1,0,0,,,,,,,,,,,,,,,,,
16606,1469892444389,,,,,,,0.02,0.1,0.99,-3.0,0.1,-0.1,0,0,,,,,,,,,,,,,,,,,
16626,1469892444406,,,,,,,0.02,0.1,0.99,-3.0,0.0,-0.1,0,0,,,,,,,,,,,,,,,,,
16646,1469892444426,0,124.6,152.8,0,151.2,,0.02,0.1,0.99,-3.0,0.1,-0.1,0,0,0.0,0,39.540585,-122.331955,0.0,0.01,317.0,11,2,1.3,0,0.0,-1,0.0,0.0,0.0,0
16666,1469892444446,,,,,,,0.02,0.1,0.99,-3.0,0.0,-0.1,0,0,,,,,,,,,,,,,,,,,
16686,1469892444466,,,,,,,0.02,0.1,0.99,-3.0,0.0,-0.1,0,0,,,,,,,,,,,,,,,,,
16706,1469892444486,,,,,,,0.02,0.1,0.99,-3.0,0.1,-0.1,0,0,,,,,,,,,,,,,,,,,
16726,1469892444505,,,,,,,0.02,0.1,0.99,-3.0,0.0,-0.1,0,0,,,,,,,,,,,,,,,,,
16746,1469892444525,,,,0,,,0.02,0.1,0.99,-3.0,0.1,-0.1,0,0,0.0,0,39.540585,-122.331955,0.0,0.01,317.0,11,2,1.3,0,0.0,-1,0.0,,0.0,0
16766,1469892444545,,,,,,,0.02,0.1,0.99,-3.0,0.1,-0.1,0,0,,,,,,,,,,,,,,,,,
16786,1469892444565,,,,,,,0.02,0.1,0.99,-3.0,0.1,-0.1,0,0,,,,,,,,,,,,,,,,,
16806,1469892444585,,,,,,,0.02,0.1,0.99,-3.1,0.1,-0.1,0,0,,,,,,,,,,,,,,,,,
16826,1469892444705,,,,,,,0.02,0.1,0.99,-3.0,0.0,-0.1,0,0,,,,,,,,,,,,,,,,,
16846,1469892444725,0,123.4,152.1,0,150.4,,0.02,0.1,0.99,-3.0,0.1,-0.1,0,0,0.0,0,39.540585,-122.331955,0.0,0.01,317.0,11,2,1.3,0,0.0,-1,0.0,0.0,0.0,0
16866,1469892444745,,,,,,,0.02,0.1,0.99,-3.0,0.0,-0.1,0,0,,,,,,,,,,,,,,,,,
16886,1469892444765,,,,,,,0.02,0.1,0.99,-3.0,0.1,-0.1,0,0,,,,,,,,,,,,,,,,,
16906,1469892444785,,,,,,,0.02,0.1,0.99,-3.0,0.0,-0.1,0,0,,,,,,,,,,,,,,,,,
16926,1469892444805,,,,,,,0.02,0.1,0.99,-3.0,0.0,-0.0,0,0,,,,,,,,,,,,,,,,,
16946,1469892444825,,,,0,,,0.02,0.1,0.99,-3.0,0.0,-0.1,0,0,0.0,0,39.540585,-122.331955,0.0,0.01,317.0,11,2,1.3,0,0.0,-1,0.0,,0.0,0
16966,1469892444845,,,,,,,0.02,0.1,0.99,-3.0,0.0,-0.1,0,0,,,,,,,,,,,,,,,,,
16986,1469892444865,,,,,,,0.02,0.1,0.99,-3.0,0.1,-0.1,0,0,,,,,,,,,,,,,,,,,
17006,1469892444885,,,,,,,0.02,0.1,0.99,-3.0,0.1,-0.1,0,0,,,,,,,,,,,,,,,,,
17026,1469892444809,,,,,,,0.02,0.1,0.99,-3.0,0.1,-0.1,0,0,,,,,,,,,,,,,,,,,
17046,1469892444829,0,123.7,151.9,0,150.0,13.17,0.02,0.1,0.99,-3.0,0.1,-0.1,0,0,0.0,0,39.540585,-122.331955,0.0,0.01,317.0,11,2,1.3,0,0.0,-1,0.0,0.0,0.0,0
17066,1469892444849,,,,,,,0.02,0.1,0.99,-3.0,0.1,-0.1,0,0,,,,,,,,,,,,,,,,,
17086,1469892444869,,,,,,,0.02,0.1,0.99,-3.0,0.1,-0.1,0,0,,,,,,,,,,,,,,,,,
17106,1469892444889,,,,,,,0.02,0.1,0.99,-3.0,0.1,-0.1,0,0,,,,,,,,,,,,,,,,,
17126,1469892444902,,,,,,,0.02,0.1,0.99,-3.0,0.1,-0.1,0,0,,,,,,,,,,,,,,,,,
17146,1469892444922,,,,0,,,0.02,0.1,0.99,-3.0,0.1,-0.1,0,0,0.0,0,39.540585,-122.331955,0.0,0.01,317.0,11,2,1.3,0,0.0,-1,0.0,,0.0,0
17166,1469892444942,,,,,,,0.02,0.1,0.99,-3.0,0.1,-0.1,0,0,,,,,,,,,,,,,,,,,
17186,1469892444962,,,,,,,0.02,0.1,0.99,-3.0,0.0,-0.1,0,0,,,,,,,,,,,,,,,,,
17206,1469892444982,,,,,,,0.02,0.1,0.99,-3.0,0.0,-0.1,0,0,,,,,,,,,,,,,,,,,
17226,1469892445009,,,,,,,0.02,0.1,0.99,-3.0,0.1,-0.1,0,0,,,,,,,,,,,,,,,,,
17246,1469892445029,0,123.9,152.3,0,150.6,,0.02,0.1,0.99,-3.0,0.0,-0.1,0,0,0.0,0,39.540585,-122.331955,0.0,0.01,317.0,11,2,1.3,0,0.0,-1,0.0,0.0,0.0,0
17266,1469892445049,,,,,,,0.02,0.1,0.99,-3.0,0.0,-0.1,0,0,,,,,,,,,,,,,,,,,
17286,1469892445069,,,,,,,0.02,0.1,0.99,-3.0,0.0,-0.1,0,0,,,,,,,,,,,,,,,,,
17306,1469892445089,,,,,,,0.02,0.1,0.99,-3.0,0.0,-0.1,0,0,,,,,,,,,,,,,,,,,
17326,1469892445110,,,,,,,0.02,0.1,0.99,-3.0,0.0,-0.1,0,0,,,,,,,,,,,,,,,,,
17346,1469892445130,,,,0,,,0.02,0.1,0.99,-3.0,0.0,-0.1,0,0,0.0,0,39.540585,-122.331955,0.0,0.01,317.0,11,2,1.3,0,0.0,-1,0.0,,0.0,0
17366,1469892445150,,,,,,,0.02,0.1,0.99,-3.0,0.0,-0.1,0,0,,,,,,,,,,,,,,,,,
17386,1469892445170,,,,,,,0.02,0.1,0.99,-3.0,0.0,-0.1,0,0,,,,,,,,,,,,,,,,,
17406,1469892445190,,,,,,,0.02,0.1,0.99,-3.0,0.0,-0.1,0,0,,,,,,,,,,,,,,,,,
17426,1469892445210,,,,,,,0.02,0.1,0.99,-3.0,0.0,-0.1,0,0,,,,,,,,,,,,,,,,,
17446,1469892445230,0,124.6,152.6,0,150.4,,0.02,0.1,0.99,-3.0,0.0,-0.1,0,0,0.0,0,39.540585,-122.331955,0.0,0.01,317.0,11,2,1.3,0,0.0,-1,0.0,0.0,0.0,0
17466,1469892445250,,,,,,,0.02,0.1,0.99,-3.0,0.0,-0.1,0,0,,,,,,,,,,,,,,,,,
17486,1469892445270,,,,,,,0.02,0.1,0.99,-3.1,0.0,-0.1,0,0,,,,,,,,,,,,,,,,,
17506,1469892445290,,,,,,,0.02,0.1,0.99,-3.0,0.0,-0.1,0,0,,,,,,,,,,,,,,,,,
17526,1469892445310,,,,,,,0.02,0.1,0.99,-3.0,0.0,-0.1,0,0,,,,,,,,,,,,,,,,,
17546,1469892445330,,,,0,,,0.02,0.1,0.99,-3.0,-0.0,-0.1,0,0,0.0,0,39.540585,-122.331955,0.0,0.01,317.0,11,2,1.3,0,0.0,-1,0.0,,0.0,0
17566,1469892445350,,,,,,,0.02,0.1,0.99,-3.0,-0.0,-0.1,0,0,,,,,,,,,,,,,,,,,
17586,1469892445370,,,,,,,0.02,0.1,0.99,-3.0,-0.0,-0.1,0,0,,,,,,,,,,,,,,,,,
17606,1469892445390,,,,,,,0.02,0.1,0.99,-3.0,0.0,-0.1,0,0,,,,,,,,,,,,,,,,,
17626,1469892445506,,,,,,,0.02,0.1,0.99,-3.0,-0.0,-0.1,0,0,,,,,,,,,,,,,,,,,
17646,1469892445526,0,124.3,152.8,0,151.0,,0.02,0.1,0.99,-3.0,0.0,-0.1,0,0,0.0,0,39.540585,-122.331955,0.0,0.01,317.0,11,2,1.3,0,0.0,-1,0.0,0.0,0.0,0
17666,1469892445546,,,,,,,0.02,0.1,0.99,-3.0,0.0,-0.1,0,0,,,,,,,,,,,,,,,,,
17686,1469892445566,,,,,,,0.02,0.1,0.99,-3.0,0.0,-0.1,0,0,,,,,,,,,,,,,,,,,
17706,1469892445586,,,,,,,0.02,0.1,0.99,-3.0,0.0,-0.1,0,0,,,,,,,,,,,,,,,,,
17726,1469892445606,,,,,,,0.02,0.1,0.99,-3.0,0.0,-0.1,0,0,,,,,,,,,,,,,,,,,
17746,1469892445626,,,,0,,,0.02,0.1,0.99,-3.0,0.0,-0.1,0,0,0.0,0,39.540585,-122.331955,0.0,0.01,317.0,11,2,1.3,0,0.0,-1,0.0,,0.0,0
17766,1469892445646,,,,,,,0.02,0.1,0.99,-3.0,0.0,-0.1,0,0,,,,,,,,,,,,,,,,,
17786,1469892445666,,,,,,,0.02,0.1,0.99,-3.0,0.0,-0.1,0,0,,,,,,,,,,,,,,,,,
17806,1469892445686,,,,,,,0.02,0.1,0.99,-3.0,0.1,-0.1,0,0,,,,,,,,,,,,,,,,,
17826,1469892445606,,,,,,,0.02,0.1,0.99,-3.0,0.0,-0.1,0,0,,,,,,,,,,,,,,,,,
17846,1469892445626,0,123.1,151.6,0,149.8,,0.02,0.1,0.99,-3.0,0.1,-0.1,0,0,0.0,0,39.540585,-122.331955,0.0,0.01,317.0,11,2,1.3,0,0.0,-1,0.0,0.0,0.0,0
17866,1469892445646,,,,,,,0.02,0.1,0.99,-3.0,0.0,-0.1,0,0,,,,,,,,,,,,,,,,,
17886,1469892445666,,,,,,,0.02,0.1,0.99,-3.0,0.0,-0.1,0,0,,,,,,,,,,,,,,,,,
17906,1469892445686,,,,,,,0.02,0.1,0.99,-3.0,0.1,-0.1,0,0,,,,,,,,,,,,,,,,,
17926,1469892445706,,,,,,,0.02,0.1,0.99,-3.0,0.0,-0.1,0,0,,,,,,,,,,,,,,,,,
17946,1469892445726,,,,0,,,0.02,0.1,0.99,-3.0,0.1,-0.1,0,0,0.0,0,39.540585,-122.331955,0.0,0.01,317.0,11,2,1.3,0,0.0,-1,0.0,,0.0,0
17966,1469892445746,,,,,,,0.02,0.1,0.99,-3.0,0.0,-0.1,0,0,,,,,,,,,,,,,,,,,
17986,1469892445766,,,,,,,0.02,0.1,0.99,-3.0,0.0,-0.0,0,0,,,,,,,,,,,,,,,,,
18006,1469892445786,,,,,,,0.02,0.1,0.99,-3.0,0.0,-0.0,0,0,,,,,,,,,,,,,,,,,
18026,1469892445810,,,,,,,0.02,0.1,0.99,-3.0,0.0,-0.0,0,0,,,,,,,,,,,,,,,,,
18046,1469892445830,0,124.7,153.1,0,150.7,13.14,0.02,0.1,0.99,-3.0,0.0,-0.0,0,0,0.0,0,39.540585,-122.331955,0.0,0.01,317.0,11,2,1.3,0,0.0,-1,0.0,0.0,0.0,0
18066,1469892445850,,,,,,,0.02,0.1,0.99,-3.0,0.0,-0.0,0,0,,,,,,,,,,,,,,,,,
18086,1469892445870,,,,,,,0.02,0.1,0.99,-3.0,0.1,-0.0,0,0,,,,,,,,,,,,,,,,,
18106,1469892445890,,,,,,,0.02,0.1,0.99,-3.0,0.0,-0.0,0,0,,,,,,,,,,,,,,,,,
18126,1469892445902,,,,,,,0.02,0.1,0.99,-3.0,0.0,-0.0,0,0,,,,,,,,,,,,,,,,,
18146,1469892445922,,,,0,,,0.02,0.1,0.99,-3.0,0.1,-0.0,0,0,0.0,0,39.540585,-122.331955,0.0,0.01,317.0,11,2,1.3,0,0.0,-1,0.0,,0.0,0
18166,1469892445942,,,,,,,0.02,0.1,0.99,-3.0,0.1,-0.1,0,0,,,,,,,,,,,,,,,,,
18186,1469892445962,,,,,,,0.02,0.1,0.99,-3.0,0.1,-0.1,0,0,,,,,,,,,,,,,,,,,
18206,1469892445982,,,,,,,0.02,0.1,0.99,-3.0,0.1,-0.1,0,0,,,,,,,,,,,,,,,,,
