"Interval"|"ms"|0|0|1,"Utc"|"ms"|0|0|1,"FuelLevel"|"F"|0|100|5,"OilTemp"|"F"|0.0|300.0|5,"Coolant"|"F"|0.0|300.0|5,"OilPress"|"PSI"|0|150|10,"EngineTemp"|"F"|0.0|300.0|5,"Battery"|"Volts"|0.0|20.0|1,"AccelX"|"G"|-3.0|3.0|50,"AccelY"|"G"|-3.0|3.0|50,"AccelZ"|"G"|-3.0|3.0|50,"Yaw"|"Deg/Sec"|-300.0|300.0|50,"Pitch"|"Deg/Sec"|-300.0|300.0|50,"Roll"|"Deg/Sec"|-300.0|300.0|50,"RPM"|""|0|10000|50,"Driveshaft"|"RPM"|0|5000|50,"GearRatio"|""|-5.0|5.0|10,"Gear"|""|-1|5|10,"Latitude"|"Degrees"|-180.0|180.0|10,"Longitude"|"Degrees"|-180.0|180.0|10,"Speed"|"MPH"|0.0|150.0|10,"Distance"|"Miles"|0.0|0.0|10,"Altitude"|"Feet"|0.0|4000.0|10,"GPSSats"|""|0|20|10,"GPSQual"|""|0|5|10,"GPSDOP"|""|0.0|20.0|10,"LapCount"|""|0|0|10,"LapTime"|"Min"|0.0|0.0|10,"Sector"|""|0|0|10,"SectorTime"|"Min"|0.0|0.0|10,"PredTime"|"Min"|0.0|0.0|5,"ElapsedTime"|"Min"|0.0|0.0|10,"CurrentLap"|""|0|0|10
5066,1469899288338,,,,,,,0.52,0.03,0.96,-3.1,0.0,1.3,680,3027,,,,,,,,,,,,,,,,,
5086,1469899288358,,,,,,,0.51,0.04,0.99,-3.2,-0.1,1.3,660,3015,,,,,,,,,,,,,,,,,
5106,1469899288378,,,,,,,0.52,0.02,0.97,-3.3,-0.7,1.1,660,3015,,,,,,,,,,,,,,,,,
5126,1469899288398,,,,,,,0.53,-0.01,1.0,-3.2,-0.6,1.2,660,3004,,,,,,,,,,,,,,,,,
5146,1469899288418,,,,7,,,0.52,-0.0,0.99,-3.2,-0.8,1.3,640,2992,0.211,0,39.54332,-122.332863,55.03,0.002,319.5,9,2,1.6,0,0.0,-1,0.0,,0.0,0
5166,1469899288438,,,,,,,0.51,0.01,1.0,-3.4,-1.0,1.3,640,2980,,,,,,,,,,,,,,,,,
5186,1469899288458,,,,,,,0.51,0.0,1.0,-3.5,-1.4,1.4,620,2980,,,,,,,,,,,,,,,,,
5206,1469899288478,,,,,,,0.5,-0.0,1.01,-3.4,-1.5,1.4,600,2980,,,,,,,,,,,,,,,,,
5226,1469899288498,,,,,,,0.49,0.0,1.03,-3.5,-1.6,1.4,600,2946,,,,,,,,,,,,,,,,,
5246,1469899288518,0,221.5,173.5,6,174.6,,0.49,0.0,1.03,-3.4,-1.5,1.4,600,2946,0.203,0,39.543343,-122.332863,54.18,0.003,319.0,9,2,1.6,0,0.0,-1,0.0,0.0,0.0,0
5266,1469899288538,,,,,,,0.48,-0.01,1.03,-3.3,-1.3,1.5,600,2924,,,,,,,,,,,,,,,,,
5286,1469899288558,,,,,,,0.47,-0.02,1.05,-3.2,-1.2,1.7,580,2827,,,,,,,,,,,,,,,,,
5306,1469899288578,,,,,,,0.47,-0.03,1.04,-3.0,-0.9,1.9,600,2912,,,,,,,,,,,,,,,,,
5326,1469899288598,,,,,,,0.49,-0.01,1.04,-3.1,-0.7,1.9,600,2816,,,,,,,,,,,,,,,,,
5346,1469899288618,,,,10,,,0.5,-0.0,1.04,-3.0,-0.5,2.0,660,2880,0.231,0,39.543362,-122.332863,53.23,0.004,318.5,9,2,1.6,0,0.0,-1,0.0,,0.0,0
5366,1469899288638,,,,,,,0.51,0.01,1.03,-2.9,-0.7,1.9,800,2816,,,,,,,,,,,,,,,,,
5386,1469899288658,,,,,,,0.52,0.02,1.02,-2.8,-0.8,2.0,940,2816,,,,,,,,,,,,,,,,,
5406,1469899288678,,,,,,,0.53,0.03,0.99,-2.6,-1.0,1.8,1060,2796,,,,,,,,,,,,,,,,,
5426,1469899288698,,,,,,,0.54,0.03,0.98,-2.5,-1.2,1.6,1140,2776,,,,,,,,,,,,,,,,,
5446,1469899288719,0,220.7,172.7,22,173.9,,0.56,0.03,0.97,-2.3,-1.2,1.4,1340,2776,0.447,0,39.543385,-122.332863,52.33,0.006,318.1,9,2,1.6,0,0.0,-1,0.0,0.0,0.0,0
5466,1469899288739,,,,,,,0.55,0.02,0.97,-2.1,-0.9,1.3,1420,2756,,,,,,,,,,,,,,,,,
5486,1469899288759,,,,,,,0.55,0.01,0.96,-1.9,-0.6,1.1,1540,2746,,,,,,,,,,,,,,,,,
5506,1469899288779,,,,,,,0.56,0.02,0.96,-1.7,-0.8,0.8,1620,2727,,,,,,,,,,,,,,,,,
5526,1469899288799,,,,,,,0.57,0.03,0.99,-1.6,-1.0,0.7,1760,2727,,,,,,,,,,,,,,,,,
5546,1469899288819,,,,38,,,0.56,0.02,1.0,-1.6,-1.2,0.8,1860,2707,0.675,5,39.543404,-122.332855,51.48,0.007,317.8,9,2,1.6,0,0.0,-1,0.0,,0.0,0
5566,1469899288839,,,,,,,0.55,-0.0,1.01,-1.5,-0.9,0.8,2000,2680,,,,,,,,,,,,,,,,,
5586,1469899288859,,,,,,,0.55,-0.01,1.02,-1.4,-0.4,1.0,2120,2670,,,,,,,,,,,,,,,,,
5606,1469899288879,,,,,,,0.56,-0.02,1.02,-1.2,0.2,1.0,2220,2652,,,,,,,,,,,,,,,,,
5626,1469899288899,,,,,,,0.58,-0.01,1.01,-1.1,0.7,1.0,2340,2633,,,,,,,,,,,,,,,,,
5646,1469899289011,0,221.4,173.4,41,174.5,,0.56,0.01,1.02,-1.1,0.6,0.9,2420,2633,0.934,4,39.543442,-122.332855,49.21,0.01,317.3,9,2,1.6,0,0.0,-1,0.0,0.0,0.0,0
5666,1469899289031,,,,,,,0.57,0.02,1.0,-1.1,0.5,0.6,2640,2615,,,,,,,,,,,,,,,,,
5686,1469899289051,,,,,,,0.59,0.01,1.02,-1.0,0.5,0.4,2700,2689,,,,,,,,,,,,,,,,,
5706,1469899289071,,,,,,,0.58,0.03,0.99,-1.1,0.3,0.4,2700,2707,,,,,,,,,,,,,,,,,
5726,1469899289091,,,,,,,0.55,0.0,0.99,-1.1,0.0,0.6,2740,2689,,,,,,,,,,,,,,,,,
5746,1469899289111,,,,52,,,0.55,0.01,1.02,-1.0,0.3,0.5,2680,2670,1.004,4,39.543442,-122.332855,49.21,0.01,317.3,9,2,1.6,0,0.0,-1,0.0,,0.0,0
5766,1469899289131,,,,,,,0.54,0.02,1.01,-1.0,0.4,0.2,2680,2643,,,,,,,,,,,,,,,,,
5786,1469899289151,,,,,,,0.53,-0.01,1.0,-0.9,0.4,-0.1,2620,2624,,,,,,,,,,,,,,,,,
5806,1469899289171,,,,,,,0.51,-0.03,0.99,-0.9,0.7,-0.5,2620,2580,,,,,,,,,,,,,,,,,
5826,1469899289191,,,,,,,0.5,0.0,0.98,-0.9,0.7,-0.7,2560,2563,,,,,,,,,,,,,,,,,
5846,1469899289119,0,220.8,172.6,63,173.8,,0.5,-0.03,0.98,-0.9,0.5,-0.4,2540,2555,0.995,4,39.543465,-122.332855,47.95,0.012,317.0,9,2,1.6,0,0.0,-1,0.0,0.0,0.0,0
5866,1469899289139,,,,,,,0.49,-0.03,0.98,-0.9,0.3,-0.3,2580,2546,,,,,,,,,,,,,,,,,
5886,1469899289159,,,,,,,0.48,-0.04,0.99,-1.1,0.1,-0.1,2580,2555,,,,,,,,,,,,,,,,,
5906,1469899289179,,,,,,,0.49,-0.0,0.98,-1.4,0.5,0.0,2620,2580,,,,,,,,,,,,,,,,,
5926,1469899289199,,,,,,,0.46,0.01,0.99,-1.6,0.6,0.2,2520,2580,,,,,,,,,,,,,,,,,
5946,1469899289218,,,,45,,,0.44,-0.02,0.98,-1.6,0.6,0.2,2540,2572,1.022,4,39.543484,-122.332855,46.86,0.013,316.8,9,2,1.6,0,0.0,-1,0.0,,0.0,0
5966,1469899289238,,,,,,,0.41,-0.01,0.97,-1.6,0.8,-0.0,2540,2546,,,,,,,,,,,,,,,,,
5986,1469899289258,,,,,,,0.38,-0.02,1.0,-1.7,1.4,-0.1,2480,2538,,,,,,,,,,,,,,,,,
6006,1469899289278,,,,,,,0.35,0.04,1.01,-1.8,1.4,-0.2,2500,2529,,,,,,,,,,,,,,,,,
6026,1469899289298,,,,,,,0.34,0.04,1.03,-2.0,1.4,0.1,2520,2538,,,,,,,,,,,,,,,,,
6046,1469899289319,0,221.3,173.0,56,174.1,14.01,0.32,0.04,1.02,-2.0,1.5,0.1,2540,2538,1.005,4,39.543503,-122.332855,45.95,0.014,316.6,9,2,1.6,0,0.0,-1,0.0,0.0,0.0,0
6066,1469899289339,,,,,,,0.31,0.05,1.03,-2.0,1.8,0.1,2520,2538,,,,,,,,,,,,,,,,,
6086,1469899289359,,,,,,,0.3,0.06,1.02,-2.0,1.5,-0.0,2520,2538,,,,,,,,,,,,,,,,,
6106,1469899289379,,,,,,,0.28,0.06,1.02,-1.9,1.5,-0.0,2560,2546,,,,,,,,,,,,,,,,,
6126,1469899289399,,,,,,,0.27,0.05,1.02,-1.8,1.7,0.0,2600,2529,,,,,,,,,,,,,,,,,
6146,1469899289419,,,,42,,,0.24,0.04,1.01,-1.8,1.4,0.2,2560,2538,0.981,4,39.543522,-122.332855,45.09,0.016,316.4,9,2,1.6,0,0.0,-1,0.0,,0.0,0
6166,1469899289439,,,,,,,0.23,0.03,1.04,-1.8,1.7,0.1,2480,2546,,,,,,,,,,,,,,,,,
6186,1469899289459,,,,,,,0.21,0.03,1.0,-1.8,1.5,0.1,2520,2538,,,,,,,,,,,,,,,,,
6206,1469899289479,,,,,,,0.21,0.04,0.98,-1.7,1.3,0.1,2500,2512,,,,,,,,,,,,,,,,,
6226,1469899289499,,,,,,,0.2,0.06,0.94,-1.7,0.9,0.1,2540,2529,,,,,,,,,,,,,,,,,
6246,1469899289520,0,221.1,173.2,55,174.4,,0.2,0.03,0.97,-1.6,0.9,0.1,2500,2529,1.0,4,39.543541,-122.33284,44.83,0.017,316.2,9,2,1.6,0,0.0,-1,0.0,0.0,0.0,0
6266,1469899289540,,,,,,,0.2,0.06,0.95,-1.5,0.5,0.2,2560,2521,,,,,,,,,,,,,,,,,
6286,1469899289560,,,,,,,0.2,0.05,0.98,-1.4,0.2,0.1,2580,2529,,,,,,,,,,,,,,,,,
6306,1469899289580,,,,,,,0.2,0.05,0.96,-1.3,0.1,0.1,2460,2529,,,,,,,,,,,,,,,,,
6326,1469899289600,,,,,,,0.19,0.04,0.96,-1.2,0.1,0.0,2440,2504,,,,,,,,,,,,,,,,,
6346,1469899289619,,,,50,,,0.18,0.06,0.95,-1.1,0.1,-0.1,2480,2521,0.99,4,39.543556,-122.33284,44.62,0.018,316.0,9,2,1.6,0,0.0,-1,0.0,,0.0,0
6366,1469899289639,,,,,,,0.19,0.01,0.98,-1.0,0.5,-0.2,2480,2512,,,,,,,,,,,,,,,,,
6386,1469899289659,,,,,,,0.19,0.01,0.98,-0.8,0.0,-0.2,2460,2504,,,,,,,,,,,,,,,,,
6406,1469899289679,,,,,,,0.19,0.01,1.01,-0.7,0.2,-0.2,2500,2521,,,,,,,,,,,,,,,,,
6426,1469899289699,,,,,,,0.18,-0.01,0.99,-0.5,0.2,-0.3,2500,2521,,,,,,,,,,,,,,,,,
6446,1469899289819,0,220.6,172.7,59,174.1,,0.17,-0.03,1.0,-0.3,0.2,-0.5,2540,2496,0.998,4,39.543591,-122.33284,44.4,0.021,315.5,9,2,1.6,0,0.0,-1,0.0,0.0,0.0,0
6466,1469899289839,,,,,,,0.14,-0.01,0.99,-0.2,0.2,-0.7,2440,2504,,,,,,,,,,,,,,,,,
6486,1469899289859,,,,,,,0.15,-0.04,1.01,0.0,0.5,-0.8,2500,2504,,,,,,,,,,,,,,,,,
6506,1469899289879,,,,,,,0.15,-0.03,1.0,0.4,0.1,-0.9,2500,2496,,,,,,,,,,,,,,,,,
6526,1469899289899,,,,,,,0.13,-0.06,1.03,0.7,0.0,-1.0,2460,2504,,,,,,,,,,,,,,,,,
6546,1469899289919,,,,50,,,0.11,-0.06,1.02,1.0,-0.0,-1.2,2500,2512,0.99,4,39.543591,-122.33284,44.4,0.021,315.5,9,2,1.6,0,0.0,-1,0.0,,0.0,0
6566,1469899289939,,,,,,,0.1,-0.08,1.01,1.3,-0.0,-1.3,2520,2496,,,,,,,,,,,,,,,,,
6586,1469899289959,,,,,,,0.1,-0.08,1.0,1.8,-0.1,-1.6,2480,2504,,,,,,,,,,,,,,,,,
6606,1469899289979,,,,,,,0.11,-0.11,1.01,2.2,0.3,-1.8,2520,2496,,,,,,,,,,,,,,,,,
6626,1469899289999,,,,,,,0.12,-0.09,0.98,2.7,-0.0,-1.9,2460,2480,,,,,,,,,,,,,,,,,
6646,1469899289909,0,220.8,173.0,53,174.2,,0.12,-0.13,1.01,3.1,0.0,-1.9,2460,2512,1.008,4,39.54361,-122.33284,44.05,0.022,315.1,9,2,1.6,0,0.0,-1,0.0,0.0,0.0,0
6666,1469899289929,,,,,,,0.11,-0.14,0.98,3.7,-0.3,-2.1,2480,2496,,,,,,,,,,,,,,,,,
6686,1469899289949,,,,,,,0.12,-0.18,0.97,4.3,-0.2,-2.1,2460,2472,,,,,,,,,,,,,,,,,
6706,1469899289969,,,,,,,0.11,-0.16,0.94,4.8,-0.3,-2.2,2540,2496,,,,,,,,,,,,,,,,,
6726,1469899289989,,,,,,,0.14,-0.2,0.95,5.4,-0.4,-2.3,2480,2489,,,,,,,,,,,,,,,,,
6746,1469899290019,,,,54,,,0.14,-0.21,0.96,6.0,-0.7,-2.3,2440,2472,1.004,4,39.543629,-122.332825,44.09,0.023,314.7,9,2,1.6,0,0.0,-1,0.0,,0.0,0
6766,1469899290039,,,,,,,0.14,-0.25,0.98,6.6,-0.8,-2.2,2480,2489,,,,,,,,,,,,,,,,,
6786,1469899290059,,,,,,,0.14,-0.26,0.98,7.1,-0.8,-2.1,2440,2496,,,,,,,,,,,,,,,,,
6806,1469899290079,,,,,,,0.12,-0.3,0.97,7.7,-0.6,-1.9,2440,2472,,,,,,,,,,,,,,,,,
6826,1469899290099,,,,,,,0.12,-0.29,0.96,8.1,-0.5,-1.8,2480,2489,,,,,,,,,,,,,,,,,
6846,1469899290119,0,221.8,173.4,53,174.4,,0.13,-0.31,0.99,8.4,-0.3,-1.8,2440,2472,0.988,4,39.543644,-122.332825,43.95,0.025,314.3,9,2,1.6,0,0.0,-1,0.0,0.0,0.0,0
6866,1469899290139,,,,,,,0.12,-0.29,0.97,8.7,-0.6,-1.7,2500,2472,,,,,,,,,,,,,,,,,
6886,1469899290159,,,,,,,0.12,-0.32,1.01,9.0,-0.4,-1.5,2460,2480,,,,,,,,,,,,,,,,,
6906,1469899290179,,,,,,,0.12,-0.34,1.0,9.3,-0.4,-1.4,2480,2489,,,,,,,,,,,,,,,,,
6926,1469899290199,,,,,,,0.12,-0.39,0.98,9.9,-0.3,-1.4,2520,2504,,,,,,,,,,,,,,,,,
6946,1469899290220,,,,47,,,0.1,-0.35,0.98,10.1,-0.5,-1.4,2480,2504,0.994,4,39.543663,-122.332825,43.74,0.026,313.9,9,2,1.6,0,0.0,-1,0.0,,0.0,0
6966,1469899290240,,,,,,,0.1,-0.39,0.98,10.3,-0.3,-1.4,2500,2546,,,,,,,,,,,,,,,,,
6986,1469899290260,,,,,,,0.11,-0.39,0.98,10.6,-0.1,-1.2,2540,2546,,,,,,,,,,,,,,,,,
7006,1469899290280,,,,,,,0.12,-0.38,1.01,10.7,-0.0,-1.3,2520,2606,,,,,,,,,,,,,,,,,
7026,1469899290300,,,,,,,0.11,-0.37,0.97,11.0,-0.2,-1.4,2600,2589,,,,,,,,,,,,,,,,,
7046,1469899290319,1,220.8,173.1,59,174.3,13.93,0.1,-0.41,0.97,11.2,0.4,-1.6,2560,2589,0.997,4,39.543682,-122.332825,43.55,0.027,313.5,9,2,1.6,0,0.0,-1,0.0,0.0,0.0,0
7066,1469899290339,,,,,,,0.08,-0.37,0.95,11.6,0.8,-2.0,2500,2512,,,,,,,,,,,,,,,,,
7086,1469899290359,,,,,,,0.07,-0.42,0.96,11.7,0.4,-2.0,2480,2456,,,,,,,,,,,,,,,,,
7106,1469899290379,,,,,,,0.07,-0.42,0.97,11.9,1.1,-2.3,2400,2449,,,,,,,,,,,,,,,,,
7126,1469899290399,,,,,,,0.05,-0.44,0.97,11.9,1.5,-2.2,2380,2496,,,,,,,,,,,,,,,,,
7146,1469899290419,,,,49,,,0.07,-0.4,0.96,12.1,1.9,-2.4,2520,2529,0.949,4,39.543697,-122.332817,43.62,0.028,313.1,9,2,1.6,0,0.0,-1,0.0,,0.0,0
7166,1469899290439,,,,,,,0.06,-0.41,0.96,11.8,2.0,-2.4,2560,2555,,,,,,,,,,,,,,,,,
7186,1469899290459,,,,,,,0.05,-0.4,0.97,11.9,2.2,-2.4,2540,2589,,,,,,,,,,,,,,,,,
7206,1469899290479,,,,,,,0.04,-0.42,0.97,11.8,1.6,-2.5,2580,2563,,,,,,,,,,,,,,,,,
7226,1469899290499,,,,,,,0.02,-0.44,0.99,12.0,2.0,-2.7,2580,2529,,,,,,,,,,,,,,,,,
7246,1469899290619,1,221.5,173.4,41,174.3,,-0.01,-0.43,0.95,11.8,2.0,-2.7,2460,2504,1.008,4,39.543732,-122.332802,43.8,0.031,312.4,9,2,1.6,0,0.0,-1,0.0,0.0,0.0,0
7266,1469899290639,,,,,,,-0.0,-0.47,0.96,11.8,2.2,-2.6,2460,2512,,,,,,,,,,,,,,,,,
7286,1469899290659,,,,,,,0.0,-0.43,0.94,11.7,1.4,-2.3,2480,2521,,,,,,,,,,,,,,,,,
7306,1469899290679,,,,,,,-0.0,-0.49,0.93,11.9,1.4,-2.2,2540,2538,,,,,,,,,,,,,,,,,
7326,1469899290699,,,,,,,-0.02,-0.48,0.9,11.9,1.1,-2.3,2540,2572,,,,,,,,,,,,,,,,,
7346,1469899290719,,,,54,,,-0.03,-0.53,0.93,11.8,1.4,-2.4,2540,2555,1.002,4,39.543732,-122.332802,43.8,0.031,312.4,9,2,1.6,0,0.0,-1,0.0,,0.0,0
7366,1469899290739,,,,,,,-0.02,-0.47,0.91,11.7,1.0,-2.4,2520,2538,,,,,,,,,,,,,,,,,
7386,1469899290759,,,,,,,-0.03,-0.49,0.95,11.6,1.1,-2.0,2560,2555,,,,,,,,,,,,,,,,,
7406,1469899290779,,,,,,,-0.04,-0.43,0.94,11.8,0.5,-2.0,2520,2538,,,,,,,,,,,,,,,,,
7426,1469899290799,,,,,,,-0.05,-0.47,0.95,11.6,0.0,-1.9,2560,2529,,,,,,,,,,,,,,,,,
7446,1469899290719,0,221.7,173.6,48,174.5,,-0.04,-0.48,0.95,11.9,-0.2,-2.2,2580,2546,1.003,4,39.543751,-122.332802,44.03,0.032,312.1,9,2,1.6,0,0.0,-1,0.0,0.0,0.0,0
7466,1469899290739,,,,,,,-0.04,-0.5,0.96,12.1,-0.7,-2.3,2500,2529,,,,,,,,,,,,,,,,,
7486,1469899290759,,,,,,,-0.04,-0.51,0.98,12.5,-0.8,-2.4,2500,2521,,,,,,,,,,,,,,,,,
7506,1469899290779,,,,,,,-0.04,-0.53,0.97,12.7,-0.9,-2.2,2480,2529,,,,,,,,,,,,,,,,,
7526,1469899290799,,,,,,,-0.0,-0.52,0.97,13.0,-0.9,-2.3,2500,2504,,,,,,,,,,,,,,,,,
7546,1469899290819,,,,49,,,0.01,-0.49,0.95,13.3,-1.0,-2.3,2420,2464,1.003,4,39.543766,-122.332787,44.13,0.034,311.7,9,2,1.6,0,0.0,-1,0.0,,0.0,0
7566,1469899290839,,,,,,,0.01,-0.5,0.96,13.4,-0.5,-2.1,2440,2433,,,,,,,,,,,,,,,,,
7586,1469899290859,,,,,,,0.01,-0.48,0.95,13.6,-1.2,-2.1,2380,2403,,,,,,,,,,,,,,,,,
7606,1469899290879,,,,,,,0.0,-0.51,1.02,14.2,-0.9,-2.2,2380,2380,,,,,,,,,,,,,,,,,
7626,1469899290899,,,,,,,-0.01,-0.51,1.01,14.7,-1.1,-2.4,2340,2489,,,,,,,,,,,,,,,,,
7646,1469899290912,1,221.6,173.7,47,174.8,,0.0,-0.51,0.98,15.3,-1.6,-2.6,2460,2529,0.986,4,39.543781,-122.332787,44.25,0.035,311.5,9,2,1.6,0,0.0,-1,0.0,0.0,0.0,0
7666,1469899290932,,,,,,,0.02,-0.53,0.98,15.8,-1.4,-2.6,2540,2563,,,,,,,,,,,,,,,,,
7686,1469899290952,,,,,,,0.04,-0.51,0.97,16.3,-1.9,-2.7,2580,2555,,,,,,,,,,,,,,,,,
7706,1469899290972,,,,,,,0.06,-0.52,1.0,16.8,-1.7,-2.9,2540,2538,,,,,,,,,,,,,,,,,
7726,1469899290992,,,,,,,0.07,-0.51,0.98,17.4,-1.8,-3.1,2580,2521,,,,,,,,,,,,,,,,,
7746,1469899291019,,,,55,,,0.09,-0.54,1.0,17.8,-1.2,-3.3,2420,2489,0.976,4,39.5438,-122.332779,44.48,0.036,311.2,9,2,1.6,0,0.0,-1,0.0,,0.0,0
7766,1469899291039,,,,,,,0.11,-0.57,0.99,18.4,-0.7,-3.5,2380,2472,,,,,,,,,,,,,,,,,
7786,1469899291059,,,,,,,0.12,-0.58,1.0,18.8,-0.4,-3.7,2440,2456,,,,,,,,,,,,,,,,,
7806,1469899291079,,,,,,,0.13,-0.6,0.98,19.4,0.0,-3.8,2480,2480,,,,,,,,,,,,,,,,,
7826,1469899291099,,,,,,,0.15,-0.61,1.0,19.8,0.6,-3.9,2480,2504,,,,,,,,,,,,,,,,,
7846,1469899291119,0,220.5,173.2,49,174.4,,0.15,-0.65,1.0,20.1,0.2,-3.7,2560,2504,0.979,4,39.543819,-122.332779,44.29,0.037,310.7,9,2,1.6,0,0.0,-1,0.0,0.0,0.0,0
7866,1469899291139,,,,,,,0.14,-0.69,1.03,20.5,-0.3,-3.5,2540,2504,,,,,,,,,,,,,,,,,
7886,1469899291159,,,,,,,0.11,-0.71,1.0,20.6,-0.7,-3.3,2440,2496,,,,,,,,,,,,,,,,,
7906,1469899291179,,,,,,,0.1,-0.75,1.01,21.0,-1.0,-3.3,2460,2472,,,,,,,,,,,,,,,,,
7926,1469899291199,,,,,,,0.1,-0.72,0.98,21.3,-1.4,-3.3,2480,2464,,,,,,,,,,,,,,,,,
7946,1469899291219,,,,55,,,0.11,-0.75,1.0,21.6,-1.4,-3.1,2120,2456,0.966,4,39.543835,-122.332764,44.0,0.039,310.4,9,2,1.6,0,0.0,-1,0.0,,0.0,0
7966,1469899291239,,,,,,,0.1,-0.72,0.97,21.7,-1.9,-2.9,2500,2449,,,,,,,,,,,,,,,,,
7986,1469899291259,,,,,,,0.11,-0.73,0.97,21.9,-1.5,-2.6,2420,2480,,,,,,,,,,,,,,,,,
8006,1469899291279,,,,,,,0.13,-0.73,0.95,21.8,-1.6,-2.1,2420,2464,,,,,,,,,,,,,,,,,
8026,1469899291299,,,,,,,0.13,-0.74,0.93,21.9,-1.6,-1.9,2500,2472,,,,,,,,,,,,,,,,,
8046,1469899291419,0,221.1,173.4,56,174.5,13.95,0.13,-0.73,0.9,21.8,-2.1,-1.8,2500,2472,0.977,4,39.543865,-122.332741,43.75,0.041,309.7,9,2,1.6,0,0.0,-1,0.0,0.0,0.0,0
8066,1469899291439,,,,,,,0.14,-0.71,0.9,21.8,-2.0,-1.7,2480,2449,,,,,,,,,,,,,,,,,
8086,1469899291459,,,,,,,0.14,-0.74,0.91,21.6,-2.2,-1.3,2480,2472,,,,,,,,,,,,,,,,,
8106,1469899291479,,,,,,,0.15,-0.72,0.9,21.7,-2.4,-1.3,2420,2441,,,,,,,,,,,,,,,,,
8126,1469899291499,,,,,,,0.17,-0.73,0.9,21.5,-2.0,-1.1,2380,2449,,,,,,,,,,,,,,,,,
8146,1469899291519,,,,53,,,0.15,-0.71,0.91,21.3,-2.3,-1.0,2460,2456,0.991,4,39.543865,-122.332741,43.75,0.041,309.7,9,2,1.6,0,0.0,-1,0.0,,0.0,0
8166,1469899291539,,,,,,,0.16,-0.72,0.92,21.1,-1.8,-0.9,2400,2441,,,,,,,,,,,,,,,,,
8186,1469899291559,,,,,,,0.15,-0.74,0.93,21.1,-1.1,-0.6,2400,2426,,,,,,,,,,,,,,,,,
8206,1469899291579,,,,,,,0.16,-0.75,0.94,21.0,-1.1,-0.6,2420,2449,,,,,,,,,,,,,,,,,
8226,1469899291599,,,,,,,0.15,-0.76,0.92,21.1,-0.8,-0.7,2400,2433,,,,,,,,,,,,,,,,,
8246,1469899291519,0,220.4,173.5,54,174.6,,0.15,-0.77,0.93,21.1,-1.1,-0.6,2380,2426,1.001,4,39.54388,-122.332726,43.23,0.042,309.4,9,2,1.6,0,0.0,-1,0.0,0.0,0.0,0
8266,1469899291539,,,,,,,0.14,-0.77,0.9,20.9,-1.4,-0.6,2420,2433,,,,,,,,,,,,,,,,,
8286,1469899291559,,,,,,,0.14,-0.75,0.9,20.8,-1.4,-0.5,2400,2418,,,,,,,,,,,,,,,,,
8306,1469899291579,,,,,,,0.13,-0.79,0.95,20.6,-0.9,-0.3,2420,2433,,,,,,,,,,,,,,,,,
8326,1469899291599,,,,,,,0.1,-0.78,0.93,20.6,-0.8,-0.3,2460,2433,,,,,,,,,,,,,,,,,
8346,1469899291618,,,,39,,,0.09,-0.81,0.93,20.6,-0.1,-0.3,2480,2433,0.976,4,39.543896,-122.33271,43.05,0.044,309.1,9,2,1.6,0,0.0,-1,0.0,,0.0,0
8366,1469899291638,,,,,,,0.08,-0.8,0.92,20.5,-0.3,-0.3,2400,2426,,,,,,,,,,,,,,,,,
8386,1469899291658,,,,,,,0.08,-0.79,0.92,20.5,-0.5,-0.1,2440,2410,,,,,,,,,,,,,,,,,
8406,1469899291678,,,,,,,0.06,-0.81,0.95,20.3,-0.5,0.2,2380,2418,,,,,,,,,,,,,,,,,
8426,1469899291698,,,,,,,0.07,-0.81,0.94,20.5,-0.7,0.1,2380,2403,,,,,,,,,,,,,,,,,
8446,1469899291718,0,220.7,173.8,40,174.9,,0.09,-0.81,0.94,20.5,-0.5,-0.0,2400,2426,1.012,4,39.543907,-122.332703,42.98,0.045,309.0,9,2,1.6,0,0.0,-1,0.0,0.0,0.0,0
8466,1469899291738,,,,,,,0.09,-0.8,0.9,20.6,-0.7,0.0,2380,2418,,,,,,,,,,,,,,,,,
8486,1469899291758,,,,,,,0.1,-0.8,0.91,20.6,-0.5,-0.1,2360,2395,,,,,,,,,,,,,,,,,
8506,1469899291778,,,,,,,0.1,-0.79,0.94,20.4,-0.1,-0.1,2340,2410,,,,,,,,,,,,,,,,,
8526,1469899291798,,,,,,,0.08,-0.84,0.93,20.6,-0.3,-0.1,2420,2387,,,,,,,,,,,,,,,,,
8546,1469899291820,,,,47,,,0.1,-0.8,0.92,20.8,-0.0,-0.0,2380,2395,0.985,4,39.543919,-122.332687,42.82,0.046,308.8,9,2,1.6,0,0.0,-1,0.0,,0.0,0
8566,1469899291840,,,,,,,0.09,-0.8,0.94,20.9,0.1,0.1,2400,2395,,,,,,,,,,,,,,,,,
8586,1469899291860,,,,,,,0.1,-0.81,0.93,20.9,-0.4,0.2,2380,2387,,,,,,,,,,,,,,,,,
8606,1469899291880,,,,,,,0.09,-0.8,0.96,21.0,-0.4,0.4,2360,2403,,,,,,,,,,,,,,,,,
8626,1469899291900,,,,,,,0.07,-0.85,0.96,21.3,-0.7,0.4,2360,2395,,,,,,,,,,,,,,,,,
8646,1469899291913,0,221.9,172.9,50,174.0,,0.08,-0.84,0.97,21.5,-0.5,0.3,2380,2387,1.005,4,39.543938,-122.332672,42.34,0.047,308.5,9,2,1.6,0,0.0,-1,0.0,0.0,0.0,0
8666,1469899291933,,,,,,,0.08,-0.82,0.95,21.6,-0.7,0.2,2420,2387,,,,,,,,,,,,,,,,,
8686,1469899291953,,,,,,,0.1,-0.87,0.96,21.9,-0.5,0.3,2420,2366,,,,,,,,,,,,,,,,,
8706,1469899291973,,,,,,,0.09,-0.86,0.97,22.1,-0.4,0.0,2360,2387,,,,,,,,,,,,,,,,,
8726,1469899291993,,,,,,,0.09,-0.89,0.96,22.4,-0.8,-0.1,2360,2373,,,,,,,,,,,,,,,,,
8746,1469899292020,,,,47,,,0.11,-0.89,0.98,22.7,-0.6,-0.1,2380,2380,1.006,4,39.543949,-122.332657,41.87,0.048,308.2,9,2,1.6,0,0.0,-1,0.0,,0.0,0
8766,1469899292040,,,,,,,0.12,-0.86,0.95,22.7,-0.9,-0.3,2340,2395,,,,,,,,,,,,,,,,,
8786,1469899292060,,,,,,,0.11,-0.87,0.97,22.7,-1.0,-0.1,2320,2366,,,,,,,,,,,,,,,,,
8806,1469899292080,,,,,,,0.1,-0.87,0.96,22.7,-0.9,0.0,2340,2387,,,,,,,,,,,,,,,,,
8826,1469899292100,,,,,,,0.11,-0.88,0.94,22.7,-1.2,0.1,2360,2352,,,,,,,,,,,,,,,,,
8846,1469899292219,0,221.1,173.2,47,174.2,,0.12,-0.9,0.95,22.9,-0.9,0.2,2380,2358,1.018,4,39.543972,-122.332619,41.6,0.051,307.5,9,2,1.6,0,0.0,-1,0.0,0.0,0.0,0
8866,1469899292239,,,,,,,0.12,-0.89,0.96,22.7,-1.2,0.4,2400,2358,,,,,,,,,,,,,,,,,
8886,1469899292259,,,,,,,0.11,-0.88,0.98,22.7,-1.2,0.5,2360,2387,,,,,,,,,,,,,,,,,
8906,1469899292279,,,,,,,0.11,-0.88,0.98,22.7,-0.9,0.7,2340,2403,,,,,,,,,,,,,,,,,
8926,1469899292299,,,,,,,0.1,-0.89,0.98,22.6,-0.8,1.0,2360,2433,,,,,,,,,,,,,,,,,
8946,1469899292319,,,,41,,,0.1,-0.89,0.97,22.7,-0.8,1.0,2480,2496,0.998,4,39.543972,-122.332619,41.6,0.051,307.5,9,2,1.6,0,0.0,-1,0.0,,0.0,0
8966,1469899292339,,,,,,,0.11,-0.95,1.0,22.8,-0.4,1.2,2520,2496,,,,,,,,,,,,,,,,,
8986,1469899292359,,,,,,,0.1,-0.91,1.01,22.7,-0.5,1.3,2560,2538,,,,,,,,,,,,,,,,,
9006,1469899292379,,,,,,,0.06,-0.91,1.03,22.6,-0.4,1.4,2520,2449,,,,,,,,,,,,,,,,,
9026,1469899292399,,,,,,,0.02,-0.87,1.06,22.7,0.4,1.2,2440,2441,,,,,,,,,,,,,,,,,
9046,1469899292320,0,220.5,173.8,51,175.0,13.95,-0.03,-0.87,1.06,22.4,1.6,1.3,2380,2395,0.996,4,39.54398,-122.332611,41.53,0.052,307.2,9,2,1.6,0,0.0,-1,0.0,0.0,0.0,0
9066,1469899292340,,,,,,,-0.03,-0.82,1.09,22.4,2.3,1.2,2380,2403,,,,,,,,,,,,,,,,,
9086,1469899292360,,,,,,,-0.07,-0.86,1.14,22.1,3.7,1.3,2360,2410,,,,,,,,,,,,,,,,,
9106,1469899292380,,,,,,,-0.09,-0.83,1.13,21.7,4.0,1.5,2400,2433,,,,,,,,,,,,,,,,,
9126,1469899292400,,,,,,,-0.12,-0.84,1.15,21.5,3.8,1.2,2460,2449,,,,,,,,,,,,,,,,,
9146,1469899292418,,,,48,,,-0.14,-0.84,1.13,21.1,3.4,0.9,2420,2449,0.985,4,39.543991,-122.332596,41.38,0.053,306.9,9,2,1.6,0,0.0,-1,0.0,,0.0,0
9166,1469899292438,,,,,,,-0.17,-0.84,1.13,21.1,2.7,0.8,2440,2449,,,,,,,,,,,,,,,,,
9186,1469899292458,,,,,,,-0.17,-0.91,1.1,20.9,2.9,0.8,2400,2433,,,,,,,,,,,,,,,,,
9206,1469899292478,,,,,,,-0.15,-0.83,1.09,20.8,3.4,0.7,2420,2433,,,,,,,,,,,,,,,,,
9226,1469899292498,,,,,,,-0.12,-0.88,1.13,20.4,2.6,0.8,2420,2449,,,,,,,,,,,,,,,,,
9246,1469899292517,0,221.1,173.4,49,174.3,,-0.11,-0.84,1.09,20.4,1.4,0.7,2420,2441,0.988,4,39.543999,-122.332573,41.5,0.054,306.7,9,2,1.6,0,0.0,-1,0.0,0.0,0.0,0
9266,1469899292537,,,,,,,-0.09,-0.86,1.06,20.3,1.6,0.7,2440,2456,,,,,,,,,,,,,,,,,
9286,1469899292557,,,,,,,-0.09,-0.84,1.03,20.1,0.4,0.7,2420,2433,,,,,,,,,,,,,,,,,
9306,1469899292577,,,,,,,-0.06,-0.81,1.04,20.2,0.6,0.4,2460,2441,,,,,,,,,,,,,,,,,
9326,1469899292597,,,,,,,-0.06,-0.88,1.0,20.2,0.1,0.5,2440,2464,,,,,,,,,,,,,,,,,
9346,1469899292617,,,,47,,,-0.05,-0.83,0.99,20.7,0.3,0.3,2460,2441,0.982,4,39.54401,-122.332558,41.77,0.055,306.5,9,2,1.6,0,0.0,-1,0.0,,0.0,0
9366,1469899292637,,,,,,,-0.06,-0.83,1.01,20.6,0.5,0.3,2440,2456,,,,,,,,,,,,,,,,,
9386,1469899292657,,,,,,,-0.08,-0.82,1.01,20.7,0.7,-0.1,2460,2464,,,,,,,,,,,,,,,,,
9406,1469899292677,,,,,,,-0.08,-0.82,1.03,21.0,1.2,-0.4,2420,2456,,,,,,,,,,,,,,,,,
9426,1469899292697,,,,,,,-0.08,-0.81,1.03,21.1,1.2,-0.5,2460,2464,,,,,,,,,,,,,,,,,
9446,1469899292717,0,220.5,173.7,42,174.9,,-0.09,-0.85,1.08,21.5,1.4,-0.6,2460,2456,0.99,4,39.544018,-122.332535,42.04,0.057,306.3,9,2,1.6,0,0.0,-1,0.0,0.0,0.0,0
9466,1469899292737,,,,,,,-0.07,-0.84,1.04,21.9,1.4,-0.6,2500,2464,,,,,,,,,,,,,,,,,
9486,1469899292757,,,,,,,-0.08,-0.88,1.01,22.2,1.7,-0.7,2420,2472,,,,,,,,,,,,,,,,,
9506,1469899292777,,,,,,,-0.09,-0.86,0.99,22.0,1.0,-0.7,2480,2449,,,,,,,,,,,,,,,,,
9526,1469899292797,,,,,,,-0.08,-0.86,1.0,22.5,0.9,-1.0,2460,2441,,,,,,,,,,,,,,,,,
9546,1469899292820,,,,52,,,-0.09,-0.88,1.01,22.4,0.8,-0.9,2420,2456,0.982,4,39.544025,-122.33252,42.28,0.058,306.1,9,2,1.6,0,0.0,-1,0.0,,0.0,0
9566,1469899292840,,,,,,,-0.1,-0.84,0.99,22.5,0.6,-0.8,2440,2441,,,,,,,,,,,,,,,,,
9586,1469899292860,,,,,,,-0.13,-0.85,0.99,22.3,0.8,-0.7,2420,2441,,,,,,,,,,,,,,,,,
9606,1469899292880,,,,,,,-0.13,-0.83,0.98,22.4,0.2,-0.6,2480,2464,,,,,,,,,,,,,,,,,
9626,1469899292900,,,,,,,-0.12,-0.84,1.0,22.4,0.2,-0.5,2440,2449,,,,,,,,,,,,,,,,,
9646,1469899293013,0,220.7,173.2,53,174.3,,-0.13,-0.81,0.99,22.4,-0.5,-0.4,2420,2449,0.996,4,39.544041,-122.332466,42.63,0.061,305.8,9,2,1.6,0,0.0,-1,0.0,0.0,0.0,0
9666,1469899293033,,,,,,,-0.12,-0.85,1.02,22.6,-0.6,-0.3,2460,2456,,,,,,,,,,,,,,,,,
9686,1469899293053,,,,,,,-0.1,-0.86,0.98,22.8,-1.2,-0.3,2400,2464,,,,,,,,,,,,,,,,,
9706,1469899293073,,,,,,,-0.07,-0.88,0.96,23.3,-1.6,-0.6,2440,2449,,,,,,,,,,,,,,,,,
9726,1469899293093,,,,,,,-0.06,-0.88,0.95,23.3,-2.1,-0.6,2440,2456,,,,,,,,,,,,,,,,,
9746,1469899293113,,,,57,,,-0.04,-0.84,0.97,23.6,-2.4,-0.5,2420,2449,0.99,4,39.544041,-122.332466,42.63,0.061,305.8,9,2,1.6,0,0.0,-1,0.0,,0.0,0
9766,1469899293133,,,,,,,-0.04,-0.88,0.98,23.7,-2.4,-0.1,2440,2464,,,,,,,,,,,,,,,,,
9786,1469899293153,,,,,,,-0.04,-0.86,0.96,23.8,-2.3,-0.1,2400,2441,,,,,,,,,,,,,,,,,
9806,1469899293173,,,,,,,-0.03,-0.9,0.96,24.3,-1.8,-0.1,2420,2449,,,,,,,,,,,,,,,,,
9826,1469899293193,,,,,,,-0.03,-0.89,0.96,24.5,-1.5,0.1,2360,2464,,,,,,,,,,,,,,,,,
9846,1469899293120,0,221.1,173.0,34,174.2,,-0.0,-0.89,0.97,24.9,-0.9,0.0,2420,2464,1.034,4,39.544048,-122.332458,42.49,0.062,305.7,9,2,1.6,0,0.0,-1,0.0,0.0,0.0,0
9866,1469899293140,,,,,,,-0.0,-0.89,0.99,24.9,-0.8,0.3,2460,2441,,,,,,,,,,,,,,,,,
9886,1469899293160,,,,,,,0.01,-0.9,0.98,25.0,-0.8,0.4,2440,2456,,,,,,,,,,,,,,,,,
9906,1469899293180,,,,,,,0.03,-0.89,0.95,25.0,-1.0,0.3,2460,2426,,,,,,,,,,,,,,,,,
9926,1469899293200,,,,,,,0.04,-0.89,0.92,25.0,-1.3,0.4,2480,2456,,,,,,,,,,,,,,,,,
9946,1469899293220,,,,36,,,0.04,-0.92,0.95,25.1,-1.5,0.6,2500,2449,1.024,4,39.544052,-122.332428,42.41,0.063,305.6,9,2,1.6,0,0.0,-1,0.0,,0.0,0
9966,1469899293240,,,,,,,0.05,-0.92,0.91,25.3,-1.6,0.7,2440,2441,,,,,,,,,,,,,,,,,
9986,1469899293260,,,,,,,0.04,-0.96,0.94,25.2,-1.5,0.9,2400,2449,,,,,,,,,,,,,,,,,
10006,1469899293280,,,,,,,0.05,-0.93,0.94,25.3,-1.6,0.8,2420,2456,,,,,,,,,,,,,,,,,
10026,1469899293300,,,,,,,0.05,-0.96,0.92,25.2,-1.2,1.0,2460,2456,,,,,,,,,,,,,,,,,
10046,1469899293320,0,220.4,173.6,32,174.8,14.01,0.04,-0.9,0.92,24.9,-1.5,1.1,2440,2472,0.974,4,39.54406,-122.332405,42.63,0.064,305.5,9,2,1.6,0,0.0,-1,0.0,0.0,0.0,0
10066,1469899293340,,,,,,,0.03,-0.92,0.94,24.6,-0.7,1.2,2440,2464,,,,,,,,,,,,,,,,,
10086,1469899293360,,,,,,,0.01,-0.89,0.94,24.1,-0.9,1.3,2460,2472,,,,,,,,,,,,,,,,,
10106,1469899293380,,,,,,,0.01,-0.86,0.95,23.8,-0.8,1.0,2480,2496,,,,,,,,,,,,,,,,,
10126,1469899293400,,,,,,,0.02,-0.86,0.93,23.4,-0.7,1.1,2480,2489,,,,,,,,,,,,,,,,,
10146,1469899293418,,,,30,,,0.02,-0.86,0.92,23.3,0.0,1.0,2500,2504,1.004,4,39.54406,-122.33239,42.55,0.065,305.4,9,2,1.6,0,0.0,-1,0.0,,0.0,0
10166,1469899293438,,,,,,,-0.01,-0.84,0.94,22.7,-0.6,1.4,2460,2496,,,,,,,,,,,,,,,,,
10186,1469899293458,,,,,,,-0.01,-0.86,0.98,22.7,-0.2,1.5,2500,2489,,,,,,,,,,,,,,,,,
10206,1469899293478,,,,,,,-0.03,-0.83,1.0,22.2,-0.1,1.8,2500,2472,,,,,,,,,,,,,,,,,
10226,1469899293502,,,,,,,-0.04,-0.82,1.0,22.1,0.6,1.5,2480,2489,,,,,,,,,,,,,,,,,
10246,1469899293522,0,220.7,173.3,37,175.0,,-0.05,-0.78,0.97,21.4,0.8,1.4,2480,2464,0.996,4,39.544064,-122.332367,42.44,0.067,305.3,9,2,1.6,0,0.0,-1,0.0,0.0,0.0,0
10266,1469899293542,,,,,,,-0.03,-0.81,0.97,21.4,1.2,1.2,2480,2504,,,,,,,,,,,,,,,,,
10286,1469899293562,,,,,,,-0.05,-0.77,0.96,20.6,0.8,1.2,2500,2489,,,,,,,,,,,,,,,,,
10306,1469899293582,,,,,,,-0.05,-0.79,0.97,20.5,1.1,1.1,2480,2496,,,,,,,,,,,,,,,,,
10326,1469899293602,,,,,,,-0.08,-0.81,0.98,20.1,0.5,1.5,2480,2504,,,,,,,,,,,,,,,,,
10346,1469899293610,,,,44,,,-0.1,-0.78,1.01,19.9,0.8,1.2,2500,2504,0.998,4,39.544064,-122.332344,42.7,0.068,305.3,9,2,1.6,0,0.0,-1,0.0,,0.0,0
10366,1469899293630,,,,,,,-0.1,-0.81,0.98,19.6,0.3,1.5,2480,2480,,,,,,,,,,,,,,,,,
10386,1469899293650,,,,,,,-0.12,-0.78,0.98,19.9,1.0,1.3,2500,2504,,,,,,,,,,,,,,,,,
10406,1469899293670,,,,,,,-0.13,-0.79,0.99,19.7,0.7,1.0,2480,2504,,,,,,,,,,,,,,,,,
10426,1469899293690,,,,,,,-0.15,-0.82,1.02,19.9,1.1,0.8,2520,2496,,,,,,,,,,,,,,,,,
10446,1469899293809,0,220.9,173.2,45,174.9,,-0.16,-0.78,1.03,19.7,0.6,1.1,2520,2521,1.006,4,39.544067,-122.332306,43.13,0.07,305.2,9,2,1.6,0,0.0,-1,0.0,0.0,0.0,0
10466,1469899293829,,,,,,,-0.17,-0.72,1.0,19.8,0.6,0.8,2500,2529,,,,,,,,,,,,,,,,,
10486,1469899293849,,,,,,,-0.19,-0.74,0.99,19.6,0.2,1.1,2520,2521,,,,,,,,,,,,,,,,,
10506,1469899293869,,,,,,,-0.2,-0.75,0.98,20.0,0.0,1.0,2520,2538,,,,,,,,,,,,,,,,,
10526,1469899293889,,,,,,,-0.19,-0.74,0.96,20.0,-0.7,0.8,2520,2521,,,,,,,,,,,,,,,,,
10546,1469899293909,,,,44,,,-0.17,-0.78,0.98,20.2,0.1,0.4,2480,2504,0.996,4,39.544067,-122.332306,43.13,0.07,305.2,9,2,1.6,0,0.0,-1,0.0,,0.0,0
10566,1469899293929,,,,,,,-0.17,-0.77,0.97,20.0,-0.7,0.2,2520,2521,,,,,,,,,,,,,,,,,
10586,1469899293949,,,,,,,-0.17,-0.77,0.98,20.1,-0.7,-0.5,2500,2546,,,,,,,,,,,,,,,,,
10606,1469899293969,,,,,,,-0.14,-0.74,0.96,20.4,-1.5,-0.9,2600,2521,,,,,,,,,,,,,,,,,
10626,1469899293989,,,,,,,-0.11,-0.74,0.97,20.6,-1.1,-1.4,2580,2546,,,,,,,,,,,,,,,,,
10646,1469899293907,0,220.9,173.4,47,174.7,,-0.12,-0.7,0.95,20.6,-1.0,-1.5,2520,2572,0.993,4,39.544067,-122.332275,43.1,0.071,305.1,9,2,1.6,0,0.0,-1,0.0,0.0,0.0,0
10666,1469899293927,,,,,,,-0.11,-0.75,0.97,21.1,-0.2,-1.6,2540,2546,,,,,,,,,,,,,,,,,
10686,1469899293947,,,,,,,-0.09,-0.72,0.94,21.5,0.2,-1.8,2520,2538,,,,,,,,,,,,,,,,,
10706,1469899293967,,,,,,,-0.08,-0.79,0.99,21.9,0.7,-2.0,2540,2538,,,,,,,,,,,,,,,,,
10726,1469899293993,,,,,,,-0.08,-0.76,1.0,22.4,1.4,-2.8,2560,2538,,,,,,,,,,,,,,,,,
10746,1469899294013,,,,59,,,-0.09,-0.79,0.99,22.7,1.8,-3.1,2540,2504,1.001,4,39.544064,-122.332252,43.29,0.073,305.1,9,2,1.6,0,0.0,-1,0.0,,0.0,0
10766,1469899294033,,,,,,,-0.1,-0.79,0.97,23.1,1.7,-3.4,2540,2546,,,,,,,,,,,,,,,,,
10786,1469899294053,,,,,,,-0.09,-0.8,0.96,23.2,0.9,-3.4,2540,2529,,,,,,,,,,,,,,,,,
10806,1469899294073,,,,,,,-0.07,-0.8,0.98,23.5,0.1,-3.1,2560,2521,,,,,,,,,,,,,,,,,
10826,1469899294093,,,,,,,-0.09,-0.84,0.99,23.6,-0.0,-2.6,2560,2538,,,,,,,,,,,,,,,,,
10846,1469899294113,0,221.5,173.8,39,174.1,,-0.07,-0.86,0.98,23.9,-0.3,-2.3,2520,2529,0.996,4,39.544064,-122.332222,43.35,0.074,305.2,9,2,1.6,0,0.0,-1,0.0,0.0,0.0,0
10866,1469899294133,,,,,,,-0.05,-0.87,0.95,24.0,-0.5,-1.9,2480,2512,,,,,,,,,,,,,,,,,
10886,1469899294153,,,,,,,-0.04,-0.87,0.96,24.0,-0.4,-1.8,2500,2529,,,,,,,,,,,,,,,,,
10906,1469899294173,,,,,,,-0.05,-0.88,0.93,24.1,-0.3,-1.5,2560,2529,,,,,,,,,,,,,,,,,
10926,1469899294193,,,,,,,-0.05,-0.9,0.97,24.2,0.3,-1.4,2500,2504,,,,,,,,,,,,,,,,,
10946,1469899294213,,,,40,,,-0.05,-0.9,0.95,24.2,-0.4,-1.2,2520,2512,0.996,4,39.54406,-122.332214,43.53,0.075,305.3,9,2,1.6,0,0.0,-1,0.0,,0.0,0
10966,1469899294233,,,,,,,-0.04,-0.94,0.96,24.6,-0.9,-1.1,2520,2529,,,,,,,,,,,,,,,,,
10986,1469899294253,,,,,,,-0.06,-0.89,0.96,24.6,-1.3,-1.2,2500,2521,,,,,,,,,,,,,,,,,
11006,1469899294273,,,,,,,-0.06,-0.93,0.96,24.7,-1.3,-1.1,2540,2512,,,,,,,,,,,,,,,,,
11026,1469899294293,,,,,,,-0.06,-0.9,0.94,24.9,-1.8,-1.0,2500,2529,,,,,,,,,,,,,,,,,
11046,1469899294313,0,221.4,173.9,44,174.1,14.01,-0.03,-0.91,0.93,24.9,-1.6,-1.0,2480,2521,1.003,4,39.54406,-122.332184,43.65,0.076,305.4,9,2,1.6,0,0.0,-1,0.0,0.0,0.0,0
11066,1469899294333,,,,,,,0.0,-0.86,0.9,24.8,-2.0,-0.8,2500,2512,,,,,,,,,,,,,,,,,
11086,1469899294353,,,,,,,0.02,-0.9,0.93,24.8,-1.7,-0.6,2520,2529,,,,,,,,,,,,,,,,,
11106,1469899294373,,,,,,,0.03,-0.89,0.91,24.8,-1.6,-0.5,2480,2529,,,,,,,,,,,,,,,,,
11126,1469899294392,,,,,,,0.04,-0.88,0.92,24.6,-1.2,-0.5,2500,2504,,,,,,,,,,,,,,,,,
11146,1469899294412,,,,30,,,0.04,-0.87,0.91,24.3,-1.5,-0.5,2520,2504,0.994,4,39.544056,-122.332161,43.25,0.078,305.6,9,2,1.6,0,0.0,-1,0.0,,0.0,0
11166,1469899294432,,,,,,,0.05,-0.85,0.92,23.8,-1.3,-0.4,2560,2504,,,,,,,,,,,,,,,,,
11186,1469899294452,,,,,,,0.04,-0.81,0.88,23.4,-1.4,-0.0,2540,2496,,,,,,,,,,,,,,,,,
11206,1469899294472,,,,,,,0.05,-0.84,0.89,22.9,-1.6,0.6,2580,2529,,,,,,,,,,,,,,,,,
11226,1469899294492,,,,,,,0.04,-0.78,0.88,22.7,-1.5,0.9,2440,2521,,,,,,,,,,,,,,,,,
11246,1469899294609,0,220.5,173.0,25,174.6,,0.03,-0.8,0.9,22.2,-2.1,1.1,2500,2512,0.992,4,39.544044,-122.332123,43.39,0.08,305.7,9,2,1.6,0,0.0,-1,0.0,0.0,0.0,0
11266,1469899294629,,,,,,,-0.0,-0.78,0.89,21.8,-2.0,1.1,2460,2512,,,,,,,,,,,,,,,,,
11286,1469899294649,,,,,,,0.02,-0.8,0.89,21.4,-1.7,0.9,2500,2504,,,,,,,,,,,,,,,,,
11306,1469899294669,,,,,,,0.02,-0.78,0.87,21.1,-2.0,1.0,2500,2496,,,,,,,,,,,,,,,,,
11326,1469899294689,,,,,,,0.01,-0.81,0.9,20.5,-2.0,1.3,2460,2512,,,,,,,,,,,,,,,,,
11346,1469899294709,,,,32,,,0.0,-0.76,0.88,20.2,-2.0,1.4,2480,2512,0.995,4,39.544044,-122.332123,43.39,0.08,305.7,9,2,1.6,0,0.0,-1,0.0,,0.0,0
11366,1469899294729,,,,,,,-0.01,-0.77,0.88,19.7,-1.7,1.5,2500,2512,,,,,,,,,,,,,,,,,
11386,1469899294749,,,,,,,-0.03,-0.75,0.86,19.1,-2.3,1.4,2480,2504,,,,,,,,,,,,,,,,,
11406,1469899294769,,,,,,,-0.03,-0.76,0.87,18.5,-2.9,1.3,2480,2504,,,,,,,,,,,,,,,,,
11426,1469899294789,,,,,,,-0.02,-0.73,0.88,18.0,-3.4,1.2,2460,2504,,,,,,,,,,,,,,,,,
11446,1469899294710,0,221.5,173.9,36,174.0,,-0.02,-0.73,0.87,17.5,-3.9,1.2,2500,2521,0.998,4,39.544041,-122.3321,43.26,0.081,305.8,9,2,1.6,0,0.0,-1,0.0,0.0,0.0,0
11466,1469899294730,,,,,,,-0.03,-0.7,0.86,17.3,-3.4,1.0,2460,2504,,,,,,,,,,,,,,,,,
11486,1469899294750,,,,,,,-0.03,-0.69,0.86,16.9,-3.1,1.0,2480,2496,,,,,,,,,,,,,,,,,
11506,1469899294770,,,,,,,-0.03,-0.65,0.89,16.6,-2.6,0.8,2500,2521,,,,,,,,,,,,,,,,,
11526,1469899294793,,,,,,,-0.03,-0.67,0.89,16.1,-2.6,0.8,2520,2512,,,,,,,,,,,,,,,,,
11546,1469899294813,,,,46,,,-0.02,-0.64,0.9,15.9,-2.7,0.5,2500,2504,0.995,4,39.544029,-122.332069,43.36,0.083,306.0,9,2,1.6,0,0.0,-1,0.0,,0.0,0
11566,1469899294833,,,,,,,-0.03,-0.63,0.91,15.6,-2.4,0.4,2540,2529,,,,,,,,,,,,,,,,,
11586,1469899294853,,,,,,,-0.02,-0.59,0.92,15.4,-1.8,0.1,2500,2529,,,,,,,,,,,,,,,,,
11606,1469899294873,,,,,,,-0.02,-0.55,0.91,15.0,-1.8,0.1,2500,2521,,,,,,,,,,,,,,,,,
11626,1469899294893,,,,,,,-0.01,-0.55,0.89,14.9,-1.5,0.1,2520,2529,,,,,,,,,,,,,,,,,
11646,1469899294906,1,221.0,173.5,50,174.4,,-0.01,-0.55,0.88,14.6,-2.1,0.1,2560,2512,0.976,4,39.544022,-122.332062,43.39,0.084,306.1,9,2,1.6,0,0.0,-1,0.0,0.0,0.0,0
11666,1469899294926,,,,,,,0.0,-0.56,0.94,14.5,-1.7,-0.3,2480,2521,,,,,,,,,,,,,,,,,
11686,1469899294946,,,,,,,-0.01,-0.56,0.94,14.2,-1.6,-0.2,2520,2521,,,,,,,,,,,,,,,,,
11706,1469899294966,,,,,,,0.01,-0.56,0.99,14.0,-1.2,-0.4,2500,2538,,,,,,,,,,,,,,,,,
11726,1469899294992,,,,,,,0.01,-0.54,0.95,13.7,-1.9,-0.5,2540,2504,,,,,,,,,,,,,,,,,
11746,1469899295012,,,,50,,,-0.0,-0.57,0.96,13.9,-1.3,-0.8,2580,2538,0.965,4,39.544018,-122.332031,43.28,0.085,306.1,9,2,1.6,0,0.0,-1,0.0,,0.0,0
11766,1469899295032,,,,,,,-0.02,-0.53,0.95,13.8,-2.0,-1.0,2540,2538,,,,,,,,,,,,,,,,,
11786,1469899295052,,,,,,,-0.04,-0.56,0.94,13.7,-1.4,-1.0,2460,2538,,,,,,,,,,,,,,,,,
11806,1469899295072,,,,,,,-0.04,-0.51,0.95,13.4,-2.0,-1.0,2520,2529,,,,,,,,,,,,,,,,,
11826,1469899295092,,,,,,,-0.03,-0.57,0.96,13.2,-1.9,-1.0,2520,2555,,,,,,,,,,,,,,,,,
11846,1469899295112,0,220.4,172.8,49,174.7,,-0.02,-0.53,0.96,13.3,-1.8,-1.0,2480,2529,0.99,4,39.544006,-122.332024,43.58,0.086,306.1,9,2,1.6,0,0.0,-1,0.0,0.0,0.0,0
11866,1469899295132,,,,,,,-0.02,-0.54,0.99,13.1,-1.3,-1.1,2520,2538,,,,,,,,,,,,,,,,,
11886,1469899295152,,,,,,,-0.05,-0.52,0.97,12.8,-0.6,-1.0,2560,2538,,,,,,,,,,,,,,,,,
11906,1469899295172,,,,,,,-0.03,-0.55,0.99,12.4,-0.0,-0.7,2580,2538,,,,,,,,,,,,,,,,,
11926,1469899295193,,,,,,,-0.04,-0.5,0.99,12.0,-0.1,-0.4,2520,2529,,,,,,,,,,,,,,,,,
11946,1469899295213,,,,51,,,-0.04,-0.5,1.0,11.5,-0.0,-0.0,2600,2529,0.973,4,39.543999,-122.331993,43.64,0.088,306.2,9,2,1.6,0,0.0,-1,0.0,,0.0,0
11966,1469899295233,,,,,,,-0.04,-0.43,1.02,11.0,0.5,0.2,2560,2546,,,,,,,,,,,,,,,,,
11986,1469899295253,,,,,,,-0.04,-0.42,1.01,10.3,0.2,0.6,2480,2538,,,,,,,,,,,,,,,,,
12006,1469899295273,,,,,,,-0.04,-0.4,0.99,10.0,0.2,0.8,2520,2546,,,,,,,,,,,,,,,,,
12026,1469899295392,,,,,,,-0.04,-0.37,0.98,9.3,-0.2,1.0,2480,2546,,,,,,,,,,,,,,,,,
12046,1469899295412,0,220.8,173.1,53,174.3,13.99,-0.04,-0.39,1.01,9.0,0.3,1.0,2580,2546,0.994,4,39.54398,-122.331955,44.03,0.09,306.2,9,2,1.6,0,0.0,-1,0.0,0.0,0.0,0
12066,1469899295432,,,,,,,-0.04,-0.35,0.98,8.4,0.1,1.3,2540,2546,,,,,,,,,,,,,,,,,
12086,1469899295452,,,,,,,-0.05,-0.39,1.02,7.9,0.5,1.4,2480,2555,,,,,,,,,,,,,,,,,
12106,1469899295472,,,,,,,-0.04,-0.33,0.98,7.5,-0.1,1.4,2500,2555,,,,,,,,,,,,,,,,,
12126,1469899295492,,,,,,,-0.05,-0.36,0.99,7.1,0.1,1.5,2520,2546,,,,,,,,,,,,,,,,,
12146,1469899295512,,,,47,,,-0.03,-0.3,0.98,6.8,0.2,1.2,2540,2563,1.032,4,39.54398,-122.331955,44.03,0.09,306.2,9,2,1.6,0,0.0,-1,0.0,,0.0,0
12166,1469899295532,,,,,,,-0.0,-0.31,0.98,6.3,-0.2,1.3,2540,2546,,,,,,,,,,,,,,,,,
12186,1469899295552,,,,,,,0.02,-0.28,1.01,5.9,0.2,1.3,2520,2546,,,,,,,,,,,,,,,,,
12206,1469899295572,,,,,,,0.0,-0.27,1.02,5.3,0.4,1.7,2520,2563,,,,,,,,,,,,,,,,,
12226,1469899295592,,,,,,,0.01,-0.28,1.04,5.0,0.8,1.6,2560,2572,,,,,,,,,,,,,,,,,
12246,1469899295510,0,221.1,173.6,58,174.3,,0.0,-0.26,1.01,4.5,0.2,1.7,2600,2572,0.975,4,39.543968,-122.331947,44.12,0.091,306.4,9,2,1.6,0,0.0,-1,0.0,0.0,0.0,0
12266,1469899295530,,,,,,,-0.01,-0.27,1.0,4.3,0.4,1.6,2600,2563,,,,,,,,,,,,,,,,,
12286,1469899295550,,,,,,,-0.03,-0.19,0.97,3.9,0.1,1.8,2580,2572,,,,,,,,,,,,,,,,,
12306,1469899295570,,,,,,,-0.03,-0.23,0.96,3.5,-0.3,2.1,2540,2572,,,,,,,,,,,,,,,,,
12326,1469899295590,,,,,,,-0.02,-0.18,0.98,3.2,-1.1,2.3,2500,2555,,,,,,,,,,,,,,,,,
12346,1469899295610,,,,49,,,-0.02,-0.19,1.0,2.9,-1.3,2.7,2540,2555,1.013,4,39.543957,-122.331917,44.36,0.093,306.4,9,2,1.6,0,0.0,-1,0.0,,0.0,0
12366,1469899295630,,,,,,,-0.01,-0.17,1.01,2.7,-1.0,2.8,2620,2572,,,,,,,,,,,,,,,,,
12386,1469899295650,,,,,,,-0.01,-0.16,0.99,2.3,-1.6,3.1,2460,2572,,,,,,,,,,,,,,,,,
12406,1469899295670,,,,,,,-0.01,-0.18,0.98,2.4,-1.4,3.2,2540,2572,,,,,,,,,,,,,,,,,
12426,1469899295690,,,,,,,-0.04,-0.12,0.97,2.0,-1.0,3.3,2600,2598,,,,,,,,,,,,,,,,,
12446,1469899295709,0,220.4,172.9,52,173.7,,-0.03,-0.16,0.97,1.8,-0.5,3.4,2560,2580,0.981,4,39.543945,-122.331909,44.57,0.094,306.5,9,2,1.6,0,0.0,-1,0.0,0.0,0.0,0
12466,1469899295729,,,,,,,-0.03,-0.11,0.98,1.8,-0.5,3.6,2560,2580,,,,,,,,,,,,,,,,,
12486,1469899295749,,,,,,,-0.05,-0.12,1.01,1.5,-0.6,4.0,2560,2580,,,,,,,,,,,,,,,,,
12506,1469899295769,,,,,,,-0.06,-0.12,1.0,1.5,-0.6,4.0,2660,2598,,,,,,,,,,,,,,,,,
12526,1469899295792,,,,,,,-0.05,-0.08,0.98,1.2,-1.5,3.9,2600,2580,,,,,,,,,,,,,,,,,
12546,1469899295812,,,,48,,,-0.05,-0.08,0.99,1.2,-1.3,3.7,2540,2580,0.989,4,39.543938,-122.331879,44.7,0.096,306.6,9,2,1.6,0,0.0,-1,0.0,,0.0,0
12566,1469899295832,,,,,,,-0.06,-0.04,0.96,1.0,-1.4,3.5,2620,2598,,,,,,,,,,,,,,,,,
12586,1469899295852,,,,,,,-0.05,-0.08,0.97,0.8,-1.1,3.5,2560,2589,,,,,,,,,,,,,,,,,
12606,1469899295872,,,,,,,-0.04,-0.04,0.97,0.7,-1.3,3.1,2580,2589,,,,,,,,,,,,,,,,,
12626,1469899295892,,,,,,,-0.04,-0.06,1.01,0.5,-0.9,3.0,2560,2598,,,,,,,,,,,,,,,,,
12646,1469899295905,0,221.0,173.5,50,174.5,,-0.04,-0.05,1.0,0.4,-0.3,2.5,2560,2606,1.016,4,39.543922,-122.331863,44.88,0.097,306.6,9,2,1.6,0,0.0,-1,0.0,0.0,0.0,0
12666,1469899295925,,,,,,,-0.03,-0.05,0.98,0.3,-0.9,2.4,2560,2615,,,,,,,,,,,,,,,,,
12686,1469899295945,,,,,,,-0.06,-0.06,1.01,0.1,-0.4,2.2,2580,2580,,,,,,,,,,,,,,,,,
12706,1469899295965,,,,,,,-0.06,-0.02,0.98,0.2,-0.4,2.0,2580,2624,,,,,,,,,,,,,,,,,
12726,1469899295992,,,,,,,-0.05,-0.06,0.98,0.1,-0.7,1.7,2680,2624,,,,,,,,,,,,,,,,,
12746,1469899296012,,,,47,,,-0.04,-0.06,1.0,0.3,-0.6,1.1,2580,2615,0.979,4,39.543915,-122.33184,45.12,0.098,306.6,9,2,1.8,0,0.0,-1,0.0,,0.0,0
12766,1469899296032,,,,,,,-0.06,-0.03,0.95,0.2,-0.7,0.8,2560,2615,,,,,,,,,,,,,,,,,
12786,1469899296052,,,,,,,-0.05,-0.09,1.0,0.2,-0.4,0.6,2560,2633,,,,,,,,,,,,,,,,,
12806,1469899296072,,,,,,,-0.06,-0.03,1.03,0.1,-0.5,0.5,2600,2624,,,,,,,,,,,,,,,,,
12826,1469899296191,,,,,,,-0.06,-0.04,1.01,-0.3,-1.0,0.6,2580,2624,,,,,,,,,,,,,,,,,
12846,1469899296211,0,221.5,173.7,45,174.5,,-0.08,-0.07,1.02,-0.1,-0.9,0.6,2640,2633,1.002,4,39.543888,-122.331802,45.48,0.101,306.6,9,2,1.8,0,0.0,-1,0.0,0.0,0.0,0
12866,1469899296231,,,,,,,-0.09,-0.03,0.98,-0.2,-0.9,0.7,2620,2643,,,,,,,,,,,,,,,,,
12886,1469899296251,,,,,,,-0.09,-0.07,0.99,-0.3,-0.9,0.6,2640,2633,,,,,,,,,,,,,,,,,
12906,1469899296271,,,,,,,-0.09,-0.04,0.99,-0.3,-1.0,0.4,2560,2624,,,,,,,,,,,,,,,,,
12926,1469899296291,,,,,,,-0.1,-0.01,0.94,-0.6,-1.0,0.5,2600,2633,,,,,,,,,,,,,,,,,
12946,1469899296311,,,,50,,,-0.1,-0.05,0.96,-0.7,-0.2,0.5,2640,2652,1.006,4,39.543888,-122.331802,45.48,0.101,306.6,9,2,1.8,0,0.0,-1,0.0,,0.0,0
12966,1469899296331,,,,,,,-0.08,-0.01,0.95,-0.6,-0.4,0.5,2720,2652,,,,,,,,,,,,,,,,,
12986,1469899296351,,,,,,,-0.09,-0.01,0.94,-0.7,-0.7,0.6,2680,2624,,,,,,,,,,,,,,,,,
13006,1469899296371,,,,,,,-0.11,-0.04,0.97,-0.6,-0.2,0.3,2560,2633,,,,,,,,,,,,,,,,,
13026,1469899296291,,,,,,,-0.11,-0.01,0.92,-0.5,-0.4,0.1,2620,2661,,,,,,,,,,,,,,,,,
13046,1469899296311,0,221.0,173.3,55,174.0,13.98,-0.11,-0.02,0.94,-0.7,-0.8,-0.1,2620,2652,0.999,4,39.54388,-122.331787,45.88,0.102,306.5,9,2,1.8,0,0.0,-1,0.0,0.0,0.0,0
13066,1469899296331,,,,,,,-0.09,-0.06,0.94,-0.4,-0.8,-0.2,2620,2643,,,,,,,,,,,,,,,,,
13086,1469899296351,,,,,,,-0.09,0.0,0.93,-0.4,-0.7,-0.2,2540,2643,,,,,,,,,,,,,,,,,
13106,1469899296371,,,,,,,-0.11,-0.02,0.94,-0.5,-0.5,-0.2,2640,2670,,,,,,,,,,,,,,,,,
13126,1469899296391,,,,,,,-0.09,-0.03,0.97,-0.4,-0.8,-0.4,2700,2670,,,,,,,,,,,,,,,,,
13146,1469899296409,,,,49,,,-0.1,0.03,0.97,-0.4,-1.5,-0.5,2640,2643,1.004,4,39.543865,-122.331764,45.89,0.104,306.4,9,2,1.8,0,0.0,-1,0.0,,0.0,0
13166,1469899296429,,,,,,,-0.09,-0.02,0.95,-0.4,-1.3,-0.7,2700,2643,,,,,,,,,,,,,,,,,
13186,1469899296449,,,,,,,-0.07,-0.0,0.96,-0.0,-0.7,-1.0,2740,2680,,,,,,,,,,,,,,,,,
13206,1469899296469,,,,,,,-0.09,0.0,0.94,-0.1,-0.1,-1.0,2640,2680,,,,,,,,,,,,,,,,,
13226,1469899296489,,,,,,,-0.09,-0.05,0.94,-0.0,-0.4,-1.0,2680,2680,,,,,,,,,,,,,,,,,
13246,1469899296503,0,221.1,173.6,54,174.7,,-0.08,-0.01,1.0,0.4,-0.5,-1.2,2720,2661,0.974,4,39.543854,-122.331749,46.2,0.105,306.3,9,2,1.8,0,0.0,-1,0.0,0.0,0.0,0
13266,1469899296523,,,,,,,-0.07,-0.0,0.97,0.3,-0.4,-1.0,2680,2680,,,,,,,,,,,,,,,,,
13286,1469899296543,,,,,,,-0.06,-0.05,1.03,0.3,0.3,-0.8,2660,2698,,,,,,,,,,,,,,,,,
13306,1469899296563,,,,,,,-0.04,-0.0,1.05,0.3,0.5,-1.0,2680,2689,,,,,,,,,,,,,,,,,
13326,1469899296583,,,,,,,-0.04,0.03,1.04,0.2,0.1,-1.1,2680,2680,,,,,,,,,,,,,,,,,
13346,1469899296609,,,,52,,,-0.05,-0.03,1.01,0.2,0.1,-1.3,2680,2670,1.008,4,39.543842,-122.331726,46.35,0.106,306.2,9,2,1.8,0,0.0,-1,0.0,,0.0,0
13366,1469899296629,,,,,,,-0.06,-0.02,1.0,0.6,0.3,-1.5,2680,2689,,,,,,,,,,,,,,,,,
13386,1469899296649,,,,,,,-0.05,0.0,0.96,0.7,0.0,-1.5,2700,2698,,,,,,,,,,,,,,,,,
13406,1469899296669,,,,,,,-0.05,-0.05,1.0,0.7,-0.2,-1.3,2660,2707,,,,,,,,,,,,,,,,,
13426,1469899296689,,,,,,,-0.04,-0.05,1.02,1.0,-0.2,-1.3,2680,2689,,,,,,,,,,,,,,,,,
13446,1469899296709,0,220.3,172.8,50,174.0,,-0.04,-0.02,1.02,1.0,-0.3,-1.4,2660,2689,0.99,4,39.543831,-122.331711,46.57,0.107,306.1,9,2,1.8,0,0.0,-1,0.0,0.0,0.0,0
13466,1469899296729,,,,,,,-0.06,-0.05,1.01,0.8,-0.4,-1.3,2660,2698,,,,,,,,,,,,,,,,,
13486,1469899296749,,,,,,,-0.04,-0.07,1.02,0.9,-0.3,-1.3,2740,2707,,,,,,,,,,,,,,,,,
13506,1469899296769,,,,,,,-0.02,-0.02,1.02,1.1,-0.4,-1.3,2680,2716,,,,,,,,,,,,,,,,,
13526,1469899296793,,,,,,,-0.02,-0.05,1.02,1.0,-0.7,-1.1,2700,2698,,,,,,,,,,,,,,,,,
13546,1469899296813,,,,58,,,-0.06,-0.12,1.01,1.1,-0.2,-1.2,2700,2698,0.99,4,39.543819,-122.331703,46.85,0.108,305.9,9,2,1.8,0,0.0,-1,0.0,,0.0,0
13566,1469899296833,,,,,,,-0.06,-0.08,1.0,1.3,0.1,-1.5,2700,2707,,,,,,,,,,,,,,,,,
13586,1469899296853,,,,,,,-0.07,-0.03,0.94,1.2,0.1,-1.5,2640,2736,,,,,,,,,,,,,,,,,
13606,1469899296873,,,,,,,-0.07,-0.07,0.96,0.9,-0.2,-1.2,2720,2727,,,,,,,,,,,,,,,,,
13626,1469899296893,,,,,,,-0.07,-0.1,0.97,1.0,-0.2,-1.1,2720,2707,,,,,,,,,,,,,,,,,
13646,1469899297005,0,221.4,173.7,54,174.6,,-0.08,-0.07,1.05,1.1,0.2,-1.0,2680,2716,0.994,4,39.543793,-122.331665,47.15,0.111,305.7,9,2,1.8,0,0.0,-1,0.0,0.0,0.0,0
13666,1469899297025,,,,,,,-0.07,-0.11,1.02,0.9,0.5,-0.6,2700,2727,,,,,,,,,,,,,,,,,
13686,1469899297045,,,,,,,-0.07,-0.14,1.06,1.0,0.5,-0.3,2680,2736,,,,,,,,,,,,,,,,,
13706,1469899297065,,,,,,,-0.05,-0.12,1.06,1.0,0.6,-0.2,2740,2746,,,,,,,,,,,,,,,,,
13726,1469899297085,,,,,,,-0.06,-0.07,1.06,1.0,0.4,-0.4,2720,2736,,,,,,,,,,,,,,,,,
13746,1469899297105,,,,50,,,-0.07,-0.09,1.01,0.9,0.3,-0.6,2740,2736,0.98,4,39.543793,-122.331665,47.15,0.111,305.7,9,2,1.8,0,0.0,-1,0.0,,0.0,0
13766,1469899297125,,,,,,,-0.08,-0.14,1.0,0.9,0.5,-0.6,2720,2736,,,,,,,,,,,,,,,,,
13786,1469899297145,,,,,,,-0.09,-0.12,0.98,1.1,0.9,-0.5,2680,2736,,,,,,,,,,,,,,,,,
13806,1469899297165,,,,,,,-0.09,-0.05,0.94,0.8,0.9,-0.4,2700,2776,,,,,,,,,,,,,,,,,
13826,1469899297093,,,,,,,-0.1,-0.07,0.96,0.4,0.3,-0.3,2720,2766,,,,,,,,,,,,,,,,,
13846,1469899297113,1,220.5,173.0,48,173.9,,-0.09,-0.1,0.98,0.5,0.1,-0.3,2720,2746,0.976,4,39.543781,-122.331635,47.54,0.113,305.6,9,2,1.8,0,0.0,-1,0.0,0.0,0.0,0
13866,1469899297133,,,,,,,-0.09,-0.1,1.02,0.6,0.3,-0.5,2720,2746,,,,,,,,,,,,,,,,,
13886,1469899297153,,,,,,,-0.09,-0.06,1.02,0.5,0.5,-0.3,2720,2746,,,,,,,,,,,,,,,,,
13906,1469899297173,,,,,,,-0.09,-0.07,0.96,0.3,0.8,-0.1,2700,2756,,,,,,,,,,,,,,,,,
13926,1469899297193,,,,,,,-0.08,-0.08,1.01,0.4,0.9,-0.4,2720,2776,,,,,,,,,,,,,,,,,
13946,1469899297210,,,,52,,,-0.08,-0.03,1.01,0.6,1.0,-0.6,2840,2786,0.998,4,39.543766,-122.331627,47.62,0.114,305.6,9,2,1.8,0,0.0,-1,0.0,,0.0,0
13966,1469899297230,,,,,,,-0.08,-0.03,1.02,0.7,1.0,-0.7,2780,2796,,,,,,,,,,,,,,,,,
13986,1469899297250,,,,,,,-0.07,-0.08,0.98,0.7,0.7,-0.7,2760,2766,,,,,,,,,,,,,,,,,
14006,1469899297270,,,,,,,-0.1,-0.1,1.01,0.5,1.0,-0.7,2800,2786,,,,,,,,,,,,,,,,,
14026,1469899297290,,,,,,,-0.11,-0.08,1.01,0.8,1.1,-0.7,2760,2776,,,,,,,,,,,,,,,,,
14046,1469899297310,0,221.1,173.5,54,174.6,13.94,-0.11,-0.02,0.95,1.1,1.3,-0.7,2780,2786,0.998,4,39.543755,-122.331596,47.98,0.116,305.4,9,2,1.8,0,0.0,-1,0.0,0.0,0.0,0
14066,1469899297330,,,,,,,-0.11,-0.03,0.93,0.8,1.8,-0.5,2760,2816,,,,,,,,,,,,,,,,,
14086,1469899297350,,,,,,,-0.1,-0.07,0.95,0.6,1.6,-0.5,2780,2806,,,,,,,,,,,,,,,,,
14106,1469899297370,,,,,,,-0.08,-0.1,0.95,0.8,1.0,-0.6,2760,2816,,,,,,,,,,,,,,,,,
14126,1469899297390,,,,,,,-0.08,-0.11,1.01,1.1,0.9,-0.6,2780,2776,,,,,,,,,,,,,,,,,
14146,1469899297409,,,,51,,,-0.11,-0.06,1.04,1.1,1.0,-0.5,2800,2806,0.994,4,39.543743,-122.331589,48.21,0.117,305.3,9,2,1.6,0,0.0,-1,0.0,,0.0,0
14166,1469899297429,,,,,,,-0.11,-0.05,0.96,0.8,0.3,-0.2,2780,2806,,,,,,,,,,,,,,,,,
14186,1469899297449,,,,,,,-0.11,-0.08,1.01,0.8,-0.1,0.1,2820,2806,,,,,,,,,,,,,,,,,
14206,1469899297469,,,,,,,-0.09,-0.15,1.03,1.2,-0.0,-0.1,2800,2816,,,,,,,,,,,,,,,,,
14226,1469899297489,,,,,,,-0.08,-0.12,1.01,1.6,0.0,-0.3,2820,2827,,,,,,,,,,,,,,,,,
14246,1469899297509,0,221.2,173.7,55,174.7,,-0.06,-0.09,1.0,1.7,-0.2,-0.4,2800,2827,0.987,4,39.543728,-122.331558,48.52,0.119,305.2,9,2,1.6,0,0.0,-1,0.0,0.0,0.0,0
14266,1469899297529,,,,,,,-0.04,-0.08,1.01,1.6,-0.9,-0.6,2820,2838,,,,,,,,,,,,,,,,,
14286,1469899297549,,,,,,,-0.06,-0.13,0.96,1.7,-1.1,-0.8,2860,2816,,,,,,,,,,,,,,,,,
14306,1469899297569,,,,,,,-0.08,-0.14,0.93,1.9,-1.2,-1.0,2820,2816,,,,,,,,,,,,,,,,,
14326,1469899297589,,,,,,,-0.08,-0.16,0.99,2.3,-0.4,-1.3,2840,2816,,,,,,,,,,,,,,,,,
14346,1469899297609,,,,55,,,-0.1,-0.16,0.97,2.8,0.4,-1.5,2820,2827,0.994,4,39.543716,-122.331551,48.93,0.12,305.1,9,2,1.6,0,0.0,-1,0.0,,0.0,0
14366,1469899297629,,,,,,,-0.1,-0.11,0.94,2.8,0.5,-1.8,2820,2858,,,,,,,,,,,,,,,,,
14386,1469899297649,,,,,,,-0.11,-0.09,0.94,2.6,0.4,-2.0,2840,2858,,,,,,,,,,,,,,,,,
14406,1469899297669,,,,,,,-0.11,-0.11,0.91,2.5,0.2,-2.0,2780,2869,,,,,,,,,,,,,,,,,
14426,1469899297689,,,,,,,-0.09,-0.17,0.91,2.9,-0.4,-2.2,2860,2847,,,,,,,,,,,,,,,,,
14446,1469899297808,1,221.3,173.8,50,174.8,,-0.09,-0.19,0.92,3.3,-0.7,-2.4,2820,2858,1.001,4,39.543686,-122.331505,49.28,0.123,304.8,9,2,1.6,0,0.0,-1,0.0,0.0,0.0,0
14466,1469899297828,,,,,,,-0.08,-0.17,0.92,3.7,-0.6,-2.7,2840,2847,,,,,,,,,,,,,,,,,
14486,1469899297848,,,,,,,-0.08,-0.18,0.97,3.9,-0.5,-2.6,2860,2858,,,,,,,,,,,,,,,,,
14506,1469899297868,,,,,,,-0.08,-0.18,1.0,3.9,-0.8,-2.6,2860,2869,,,,,,,,,,,,,,,,,
14526,1469899297888,,,,,,,-0.07,-0.19,0.96,3.9,-1.0,-2.5,2860,2869,,,,,,,,,,,,,,,,,
14546,1469899297908,,,,52,,,-0.09,-0.2,0.92,4.0,-1.0,-2.2,2780,2869,0.997,4,39.543686,-122.331505,49.28,0.123,304.8,9,2,1.6,0,0.0,-1,0.0,,0.0,0
14566,1469899297928,,,,,,,-0.08,-0.27,0.94,4.5,-0.6,-2.0,2920,2869,,,,,,,,,,,,,,,,,
14586,1469899297948,,,,,,,-0.08,-0.32,0.97,5.1,-0.2,-1.7,2880,2890,,,,,,,,,,,,,,,,,
14606,1469899297968,,,,,,,-0.07,-0.31,0.94,5.5,-0.1,-1.8,2860,2901,,,,,,,,,,,,,,,,,
14626,1469899297988,,,,,,,-0.06,-0.28,0.96,5.8,-0.4,-1.9,2860,2912,,,,,,,,,,,,,,,,,
14646,1469899297905,0,220.3,172.8,54,174.0,,-0.05,-0.28,0.98,6.1,-1.1,-2.0,2900,2901,1.024,4,39.543674,-122.331497,49.5,0.124,304.6,9,2,1.6,0,0.0,-1,0.0,0.0,0.0,0
14666,1469899297925,,,,,,,-0.06,-0.24,0.95,6.1,-1.4,-1.9,2840,2924,,,,,,,,,,,,,,,,,
14686,1469899297945,,,,,,,-0.06,-0.26,0.9,6.0,-1.9,-2.0,2920,2924,,,,,,,,,,,,,,,,,
14706,1469899297965,,,,,,,-0.08,-0.32,0.87,6.2,-2.2,-1.9,2860,2901,,,,,,,,,,,,,,,,,
14726,1469899297992,,,,,,,-0.1,-0.33,0.83,6.5,-2.4,-2.0,2880,2924,,,,,,,,,,,,,,,,,
14746,1469899298012,,,,61,,,-0.13,-0.38,0.82,6.8,-2.6,-1.9,2860,2912,0.978,4,39.543659,-122.331467,49.79,0.126,304.5,9,2,1.6,0,0.0,-1,0.0,,0.0,0
14766,1469899298032,,,,,,,-0.15,-0.4,0.83,7.2,-2.8,-1.8,2860,2912,,,,,,,,,,,,,,,,,
14786,1469899298052,,,,,,,-0.15,-0.43,0.85,7.6,-2.3,-1.9,2880,2912,,,,,,,,,,,,,,,,,
14806,1469899298072,,,,,,,-0.16,-0.43,0.89,8.0,-1.8,-1.8,2940,2924,,,,,,,,,,,,,,,,,
14826,1469899298092,,,,,,,-0.15,-0.43,0.91,8.4,-1.6,-1.9,2960,2924,,,,,,,,,,,,,,,,,
14846,1469899298112,1,220.0,172.8,58,174.0,,-0.15,-0.44,0.9,8.7,-0.7,-2.1,2880,2946,1.005,4,39.543644,-122.331459,50.24,0.127,304.3,9,2,1.6,0,0.0,-1,0.0,0.0,0.0,0
14866,1469899298132,,,,,,,-0.14,-0.41,0.9,8.9,-0.0,-2.3,2920,2935,,,,,,,,,,,,,,,,,
14886,1469899298152,,,,,,,-0.11,-0.38,0.86,9.1,0.5,-2.6,2920,2924,,,,,,,,,,,,,,,,,
14906,1469899298172,,,,,,,-0.08,-0.34,0.84,9.1,0.7,-2.9,2940,2958,,,,,,,,,,,,,,,,,
14926,1469899298192,,,,,,,-0.09,-0.33,0.8,9.3,0.4,-2.9,2860,2958,,,,,,,,,,,,,,,,,
14946,1469899298212,,,,55,,,-0.08,-0.32,0.76,9.6,-0.1,-3.0,2940,2980,0.99,4,39.543629,-122.331444,50.54,0.128,304.2,9,2,1.6,0,0.0,-1,0.0,,0.0,0
14966,1469899298232,,,,,,,-0.05,-0.32,0.78,9.8,-0.1,-3.4,2960,2980,,,,,,,,,,,,,,,,,
14986,1469899298252,,,,,,,-0.04,-0.34,0.75,10.0,0.0,-3.5,2940,2992,,,,,,,,,,,,,,,,,
15006,1469899298272,,,,,,,-0.02,-0.37,0.8,10.4,-0.2,-3.7,2900,2980,,,,,,,,,,,,,,,,,
15026,1469899298292,,,,,,,-0.04,-0.39,0.75,10.7,-0.2,-3.9,2940,2992,,,,,,,,,,,,,,,,,
15046,1469899298312,0,221.8,174.2,40,175.3,13.92,-0.04,-0.42,0.77,11.3,-0.8,-4.2,3000,3015,0.99,4,39.543613,-122.331421,50.81,0.13,303.9,9,2,1.6,0,0.0,-1,0.0,0.0,0.0,0
15066,1469899298332,,,,,,,-0.05,-0.49,0.75,12.0,-1.1,-4.3,2920,3004,,,,,,,,,,,,,,,,,
15086,1469899298352,,,,,,,-0.04,-0.5,0.78,12.7,-1.2,-4.6,2960,3015,,,,,,,,,,,,,,,,,
15106,1469899298372,,,,,,,-0.04,-0.53,0.76,13.3,-1.1,-4.7,2960,3015,,,,,,,,,,,,,,,,,
15126,1469899298392,,,,,,,-0.03,-0.57,0.78,14.0,-1.2,-5.1,2980,3015,,,,,,,,,,,,,,,,,
15146,1469899298410,,,,38,,,-0.04,-0.63,0.78,14.6,-1.2,-5.2,2980,3015,1.003,4,39.543598,-122.331406,51.25,0.131,303.7,9,2,1.6,0,0.0,-1,0.0,,0.0,0
15166,1469899298430,,,,,,,-0.04,-0.66,0.81,15.2,-0.9,-5.4,2940,3015,,,,,,,,,,,,,,,,,
15186,1469899298450,,,,,,,-0.03,-0.71,0.79,15.8,-0.7,-5.2,2980,3015,,,,,,,,,,,,,,,,,
15206,1469899298470,,,,,,,-0.02,-0.74,0.83,16.2,-0.5,-5.0,3000,3027,,,,,,,,,,,,,,,,,
15226,1469899298490,,,,,,,-0.01,-0.74,0.82,16.5,-0.6,-4.8,2980,3040,,,,,,,,,,,,,,,,,
15246,1469899298608,0,221.5,173.7,72,174.5,,-0.01,-0.74,0.86,16.8,-0.6,-4.8,3040,3015,0.999,4,39.543564,-122.331368,51.76,0.134,303.2,9,2,1.6,0,0.0,-1,0.0,0.0,0.0,0
15266,1469899298628,,,,,,,-0.01,-0.75,0.84,17.1,-0.5,-4.6,2900,3052,,,,,,,,,,,,,,,,,
15286,1469899298648,,,,,,,-0.02,-0.76,0.86,17.3,-0.7,-4.2,3000,3027,,,,,,,,,,,,,,,,,
15306,1469899298668,,,,,,,-0.02,-0.82,0.83,17.6,-0.3,-4.0,2980,3052,,,,,,,,,,,,,,,,,
15326,1469899298688,,,,,,,-0.01,-0.8,0.85,17.7,-0.1,-3.8,3000,3052,,,,,,,,,,,,,,,,,
15346,1469899298708,,,,40,,,-0.02,-0.81,0.81,17.7,-0.1,-3.5,2980,3052,0.991,4,39.543564,-122.331368,51.76,0.134,303.2,9,2,1.6,0,0.0,-1,0.0,,0.0,0
15366,1469899298728,,,,,,,-0.01,-0.83,0.82,17.9,0.0,-3.4,3080,3040,,,,,,,,,,,,,,,,,
15386,1469899298748,,,,,,,-0.01,-0.82,0.77,17.8,-0.2,-3.3,3080,3040,,,,,,,,,,,,,,,,,
15406,1469899298768,,,,,,,-0.01,-0.85,0.78,17.8,-0.2,-3.1,3020,3052,,,,,,,,,,,,,,,,,
15426,1469899298788,,,,,,,-0.03,-0.82,0.76,17.6,0.0,-2.8,2980,3064,,,,,,,,,,,,,,,,,
15446,1469899298709,0,220.7,173.1,58,174.1,,-0.05,-0.81,0.76,17.3,0.4,-2.5,3060,3040,0.986,4,39.543545,-122.331352,51.95,0.136,303.0,9,2,1.6,0,0.0,-1,0.0,0.0,0.0,0
15466,1469899298729,,,,,,,-0.05,-0.79,0.77,17.2,0.2,-2.1,3020,3052,,,,,,,,,,,,,,,,,
15486,1469899298749,,,,,,,-0.06,-0.78,0.77,17.0,0.6,-1.7,3040,3076,,,,,,,,,,,,,,,,,
15506,1469899298769,,,,,,,-0.07,-0.72,0.78,16.7,0.7,-1.5,3040,3040,,,,,,,,,,,,,,,,,
15526,1469899298792,,,,,,,-0.08,-0.69,0.79,16.4,1.5,-1.3,3080,3064,,,,,,,,,,,,,,,,,
15546,1469899298812,,,,59,,,-0.08,-0.69,0.83,16.4,1.5,-1.1,3100,3076,0.986,4,39.543526,-122.331345,52.32,0.137,302.8,9,2,1.6,0,0.0,-1,0.0,,0.0,0
15566,1469899298832,,,,,,,-0.08,-0.69,0.86,16.5,1.3,-1.1,3020,3052,,,,,,,,,,,,,,,,,
15586,1469899298852,,,,,,,-0.08,-0.7,0.89,16.7,1.2,-1.2,3060,3064,,,,,,,,,,,,,,,,,
15606,1469899298872,,,,,,,-0.1,-0.7,0.93,16.7,1.4,-0.9,3060,3052,,,,,,,,,,,,,,,,,
15626,1469899298892,,,,,,,-0.11,-0.73,0.91,17.0,1.3,-0.6,3040,3089,,,,,,,,,,,,,,,,,
15646,1469899298905,0,221.2,173.7,48,174.9,,-0.12,-0.76,0.89,17.3,0.8,-0.5,3020,3089,0.997,4,39.54351,-122.331329,52.57,0.139,302.6,9,2,1.6,0,0.0,-1,0.0,0.0,0.0,0
15666,1469899298925,,,,,,,-0.13,-0.77,0.86,17.5,0.1,-0.3,3120,3064,,,,,,,,,,,,,,,,,
15686,1469899298945,,,,,,,-0.14,-0.82,0.8,17.6,-0.0,-0.5,3120,3076,,,,,,,,,,,,,,,,,
15706,1469899298965,,,,,,,-0.19,-0.83,0.76,18.0,-0.0,-0.6,3020,3113,,,,,,,,,,,,,,,,,
15726,1469899298992,,,,,,,-0.18,-0.85,0.8,18.1,-1.0,-0.7,3040,3113,,,,,,,,,,,,,,,,,
15746,1469899299012,,,,52,,,-0.16,-0.83,0.8,18.0,-1.7,-0.7,3120,3101,0.982,4,39.543491,-122.331314,52.51,0.14,302.5,9,2,1.6,0,0.0,-1,0.0,,0.0,0
15766,1469899299032,,,,,,,-0.16,-0.85,0.86,17.8,-2.1,-0.5,3080,3138,,,,,,,,,,,,,,,,,
15786,1469899299052,,,,,,,-0.14,-0.87,0.93,17.8,-1.7,-0.4,3100,3126,,,,,,,,,,,,,,,,,
15806,1469899299072,,,,,,,-0.12,-0.85,0.93,17.8,-1.4,-0.6,3100,3113,,,,,,,,,,,,,,,,,
15826,1469899299092,,,,,,,-0.11,-0.85,0.97,17.8,-1.6,-0.7,3160,3113,,,,,,,,,,,,,,,,,
15846,1469899299112,0,220.3,172.8,79,173.8,,-0.08,-0.84,1.01,17.9,-1.0,-0.7,3100,3113,1.006,4,39.543472,-122.331306,52.91,0.141,302.4,9,2,1.6,0,0.0,-1,0.0,0.0,0.0,0
15866,1469899299132,,,,,,,-0.08,-0.87,0.95,18.2,-0.9,-0.5,3140,3089,,,,,,,,,,,,,,,,,
15886,1469899299152,,,,,,,-0.07,-0.87,0.9,18.4,-0.9,-0.5,3100,3138,,,,,,,,,,,,,,,,,
15906,1469899299172,,,,,,,-0.07,-0.88,0.95,18.3,-0.3,-0.4,3120,3113,,,,,,,,,,,,,,,,,
15926,1469899299192,,,,,,,-0.12,-0.84,0.98,17.7,0.3,-0.4,3120,3126,,,,,,,,,,,,,,,,,
15946,1469899299212,,,,62,,,-0.12,-0.86,1.01,17.6,0.2,-0.3,3080,3113,1.013,4,39.543449,-122.331291,53.45,0.143,302.3,9,2,1.6,0,0.0,-1,0.0,,0.0,0
15966,1469899299232,,,,,,,-0.11,-0.86,1.05,17.2,0.2,-0.4,3060,3152,,,,,,,,,,,,,,,,,
15986,1469899299252,,,,,,,-0.08,-0.83,1.0,17.0,-0.4,-0.5,3140,3152,,,,,,,,,,,,,,,,,
16006,1469899299272,,,,,,,-0.07,-0.88,1.01,16.8,-0.9,-0.3,3080,3152,,,,,,,,,,,,,,,,,
16026,1469899299391,,,,,,,-0.06,-0.89,1.0,17.0,-1.3,-0.4,3160,3178,,,,,,,,,,,,,,,,,
16046,1469899299411,0,220.2,172.8,54,173.9,14.01,-0.06,-0.93,0.92,17.1,-1.6,-0.4,3060,3178,1.013,4,39.543411,-122.331268,53.83,0.146,302.1,9,2,1.6,0,0.0,-1,0.0,0.0,0.0,0
16066,1469899299431,,,,,,,-0.04,-0.91,0.87,17.1,-1.2,-0.5,3160,3152,,,,,,,,,,,,,,,,,
16086,1469899299451,,,,,,,-0.05,-0.84,0.88,16.6,0.2,-0.6,3160,3138,,,,,,,,,,,,,,,,,
16106,1469899299471,,,,,,,-0.07,-0.86,0.88,16.1,0.8,-0.5,3080,3126,,,,,,,,,,,,,,,,,
16126,1469899299491,,,,,,,-0.09,-0.88,0.94,16.0,0.6,-0.9,3200,3138,,,,,,,,,,,,,,,,,
16146,1469899299511,,,,43,,,-0.12,-0.87,0.95,15.9,0.5,-1.0,3140,3126,0.988,4,39.543411,-122.331268,53.83,0.146,302.1,9,2,1.6,0,0.0,-1,0.0,,0.0,0
16166,1469899299531,,,,,,,-0.14,-0.86,0.9,16.0,-0.1,-1.1,3120,3152,,,,,,,,,,,,,,,,,
16186,1469899299551,,,,,,,-0.15,-0.82,0.85,16.0,-0.3,-1.2,3180,3164,,,,,,,,,,,,,,,,,
16206,1469899299571,,,,,,,-0.17,-0.81,0.86,15.8,-0.7,-0.9,3200,3190,,,,,,,,,,,,,,,,,
16226,1469899299591,,,,,,,-0.18,-0.81,0.86,15.5,-1.0,-0.7,3140,3178,,,,,,,,,,,,,,,,,
16246,1469899299509,0,221.0,173.7,52,174.6,,-0.18,-0.78,0.94,15.2,-1.4,-0.8,3220,3164,0.994,4,39.543388,-122.331268,53.98,0.148,302.1,9,2,1.6,0,0.0,-1,0.0,0.0,0.0,0
16266,1469899299529,,,,,,,-0.14,-0.77,0.97,15.0,-1.4,-0.7,3160,3152,,,,,,,,,,,,,,,,,
16286,1469899299549,,,,,,,-0.11,-0.79,0.93,15.1,-1.0,-0.7,3100,3164,,,,,,,,,,,,,,,,,
16306,1469899299569,,,,,,,-0.11,-0.8,0.9,15.1,0.0,-0.9,3140,3178,,,,,,,,,,,,,,,,,
16326,1469899299589,,,,,,,-0.12,-0.78,0.99,14.9,0.8,-1.0,3200,3178,,,,,,,,,,,,,,,,,
16346,1469899299609,,,,46,,,-0.13,-0.77,1.04,14.6,1.4,-1.1,3100,3204,0.997,4,39.543366,-122.331253,54.43,0.15,302.2,9,2,1.6,0,0.0,-1,0.0,,0.0,0
16366,1469899299629,,,,,,,-0.13,-0.79,1.03,14.4,0.4,-1.1,3180,3218,,,,,,,,,,,,,,,,,
16386,1469899299649,,,,,,,-0.16,-0.8,0.99,14.4,-0.8,-1.0,3200,3230,,,,,,,,,,,,,,,,,
16406,1469899299669,,,,,,,-0.15,-0.76,0.93,14.4,-1.4,-1.2,3220,3204,,,,,,,,,,,,,,,,,
16426,1469899299689,,,,,,,-0.12,-0.69,0.92,14.0,-1.4,-1.1,3120,3190,,,,,,,,,,,,,,,,,
16446,1469899299709,0,221.5,173.8,67,174.8,,-0.1,-0.69,0.93,13.5,-0.4,-0.9,3200,3204,0.997,4,39.543346,-122.331253,54.61,0.151,302.2,9,2,1.6,0,0.0,-1,0.0,0.0,0.0,0
16466,1469899299729,,,,,,,-0.08,-0.7,0.96,13.2,-0.3,-1.0,3220,3190,,,,,,,,,,,,,,,,,
16486,1469899299749,,,,,,,-0.11,-0.69,0.91,13.3,-0.2,-1.0,3140,3204,,,,,,,,,,,,,,,,,
16506,1469899299769,,,,,,,-0.14,-0.71,0.88,13.2,-0.7,-0.8,3260,3230,,,,,,,,,,,,,,,,,
16526,1469899299792,,,,,,,-0.17,-0.7,0.87,12.9,-1.6,-0.3,3140,3230,,,,,,,,,,,,,,,,,
16546,1469899299812,,,,56,,,-0.19,-0.68,0.9,12.4,-1.9,0.1,3200,3230,0.999,4,39.543324,-122.331238,55.05,0.153,302.2,9,2,1.6,0,0.0,-1,0.0,,0.0,0
16566,1469899299832,,,,,,,-0.17,-0.64,0.94,12.0,-2.2,0.4,3260,3218,,,,,,,,,,,,,,,,,
16586,1469899299852,,,,,,,-0.16,-0.66,0.89,11.8,-1.6,0.8,3220,3204,,,,,,,,,,,,,,,,,
16606,1469899299872,,,,,,,-0.15,-0.69,0.89,11.7,-1.1,0.7,3240,3230,,,,,,,,,,,,,,,,,
16626,1469899299892,,,,,,,-0.16,-0.69,0.95,11.3,-0.4,0.5,3200,3230,,,,,,,,,,,,,,,,,
16646,1469899299905,0,220.7,173.3,57,174.2,,-0.17,-0.66,1.01,10.8,-0.2,0.7,3240,3258,0.999,4,39.543304,-122.331238,55.34,0.154,302.3,9,2,1.6,0,0.0,-1,0.0,0.0,0.0,0
16666,1469899299925,,,,,,,-0.17,-0.68,0.99,10.7,-1.5,0.9,3240,3272,,,,,,,,,,,,,,,,,
16686,1469899299945,,,,,,,-0.19,-0.72,0.93,10.8,-2.3,1.2,3180,3244,,,,,,,,,,,,,,,,,
16706,1469899299965,,,,,,,-0.17,-0.64,0.89,10.6,-2.1,1.0,3140,3244,,,,,,,,,,,,,,,,,
16726,1469899299992,,,,,,,-0.15,-0.61,0.92,10.1,-1.2,0.9,3300,3230,,,,,,,,,,,,,,,,,
16746,1469899300012,,,,58,,,-0.14,-0.62,0.93,9.8,-0.2,1.1,3140,3230,1.011,4,39.543282,-122.33123,55.59,0.156,302.2,9,2,1.6,0,0.0,-1,0.0,,0.0,0
16766,1469899300032,,,,,,,-0.14,-0.6,0.91,9.7,0.3,1.2,3240,3272,,,,,,,,,,,,,,,,,
16786,1469899300052,,,,,,,-0.16,-0.61,0.9,9.5,-0.2,1.4,3240,3244,,,,,,,,,,,,,,,,,
16806,1469899300072,,,,,,,-0.18,-0.57,0.94,8.8,-0.0,1.9,3240,3244,,,,,,,,,,,,,,,,,
16826,1469899300191,,,,,,,-0.17,-0.55,0.96,8.4,-0.5,2.3,3280,3258,,,,,,,,,,,,,,,,,
16846,1469899300211,0,220.4,173.1,60,174.1,,-0.16,-0.58,0.9,8.3,-0.5,2.6,3280,3244,0.99,4,39.543236,-122.33123,56.21,0.159,302.2,9,2,1.6,0,0.0,-1,0.0,0.0,0.0,0
16866,1469899300231,,,,,,,-0.14,-0.55,0.91,8.2,0.4,2.5,3200,3244,,,,,,,,,,,,,,,,,
16886,1469899300251,,,,,,,-0.16,-0.57,0.98,7.8,1.3,2.5,3240,3272,,,,,,,,,,,,,,,,,
16906,1469899300271,,,,,,,-0.16,-0.58,1.0,7.7,0.7,2.7,3260,3300,,,,,,,,,,,,,,,,,
16926,1469899300291,,,,,,,-0.17,-0.55,0.96,7.6,0.0,2.6,3240,3300,,,,,,,,,,,,,,,,,
16946,1469899300311,,,,47,,,-0.16,-0.49,0.95,7.4,0.3,2.3,3240,3286,1.01,4,39.543236,-122.33123,56.21,0.159,302.2,9,2,1.6,0,0.0,-1,0.0,,0.0,0
16966,1469899300331,,,,,,,-0.14,-0.48,0.99,7.2,1.1,2.0,3200,3286,,,,,,,,,,,,,,,,,
16986,1469899300351,,,,,,,-0.11,-0.47,0.96,7.1,0.8,2.0,3200,3286,,,,,,,,,,,,,,,,,
17006,1469899300371,,,,,,,-0.14,-0.44,0.93,6.8,0.9,2.1,3280,3286,,,,,,,,,,,,,,,,,
17026,1469899300292,,,,,,,-0.16,-0.43,0.97,6.3,0.6,2.2,3300,3300,,,,,,,,,,,,,,,,,
17046,1469899300312,0,220.4,172.7,53,173.8,13.95,-0.16,-0.42,0.99,6.0,-0.0,2.3,3280,3286,1.01,4,39.543213,-122.331215,56.52,0.161,302.3,9,2,1.6,0,0.0,-1,0.0,0.0,0.0,0
17066,1469899300332,,,,,,,-0.15,-0.41,0.94,5.8,-0.1,2.6,3280,3286,,,,,,,,,,,,,,,,,
17086,1469899300352,,,,,,,-0.15,-0.36,0.98,5.5,0.5,2.4,3300,3300,,,,,,,,,,,,,,,,,
17106,1469899300372,,,,,,,-0.14,-0.38,0.99,5.2,0.4,2.0,3300,3315,,,,,,,,,,,,,,,,,
17126,1469899300392,,,,,,,-0.15,-0.41,0.95,5.2,-0.5,2.3,3320,3329,,,,,,,,,,,,,,,,,
17146,1469899300410,,,,65,,,-0.14,-0.35,0.89,5.1,-0.7,2.1,3240,3300,0.995,4,39.54319,-122.331215,56.78,0.162,302.3,9,2,1.6,0,0.0,-1,0.0,,0.0,0
17166,1469899300430,,,,,,,-0.11,-0.31,0.95,4.8,-0.6,1.6,3320,3300,,,,,,,,,,,,,,,,,
17186,1469899300450,,,,,,,-0.14,-0.32,0.9,4.7,-0.2,1.6,3340,3315,,,,,,,,,,,,,,,,,
17206,1469899300470,,,,,,,-0.15,-0.3,0.84,4.5,-0.2,1.7,3400,3343,,,,,,,,,,,,,,,,,
17226,1469899300490,,,,,,,-0.17,-0.27,0.89,3.9,-0.5,1.6,3260,3315,,,,,,,,,,,,,,,,,
17246,1469899300509,0,220.8,173.4,55,174.7,,-0.17,-0.3,0.85,3.6,-0.6,1.8,3340,3329,0.983,4,39.543167,-122.331215,57.15,0.164,302.4,9,2,1.6,0,0.0,-1,0.0,0.0,0.0,0
