"Interval"|"ms"|0|0|1,"Utc"|"ms"|0|0|1,"FuelLevel"|"F"|0|100|5,"OilTemp"|"F"|0.0|300.0|5,"Coolant"|"F"|0.0|300.0|5,"OilPress"|"PSI"|0|150|10,"EngineTemp"|"F"|0.0|300.0|5,"Battery"|"Volts"|0.0|20.0|1,"AccelX"|"G"|-3.0|3.0|50,"AccelY"|"G"|-3.0|3.0|50,"AccelZ"|"G"|-3.0|3.0|50,"Yaw"|"Deg/Sec"|-300.0|300.0|50,"Pitch"|"Deg/Sec"|-300.0|300.0|50,"Roll"|"Deg/Sec"|-300.0|300.0|50,"RPM"|""|0|10000|50,"Driveshaft"|"RPM"|0|5000|50,"GearRatio"|""|-5.0|5.0|10,"Gear"|""|-1|5|10,"Latitude"|"Degrees"|-180.0|180.0|10,"Longitude"|"Degrees"|-180.0|180.0|10,"Speed"|"MPH"|0.0|150.0|10,"Distance"|"Miles"|0.0|0.0|10,"Altitude"|"Feet"|0.0|4000.0|10,"GPSSats"|""|0|20|10,"GPSQual"|""|0|5|10,"GPSDOP"|""|0.0|20.0|10,"LapCount"|""|0|0|10,"LapTime"|"Min"|0.0|0.0|10,"Sector"|""|0|0|10,"SectorTime"|"Min"|0.0|0.0|10,"PredTime"|"Min"|0.0|0.0|5,"ElapsedTime"|"Min"|0.0|0.0|10,"CurrentLap"|""|0|0|10
5066,1469901483652,,,,,,,-0.08,0.06,1.04,-1.6,0.4,-0.6,4620,4633,,,,,,,,,,,,,,,,,
5086,1469901483672,,,,,,,-0.09,0.03,1.07,-1.7,1.3,-0.0,4580,4633,,,,,,,,,,,,,,,,,
5106,1469901483692,,,,,,,-0.06,0.01,1.01,-1.5,0.4,-0.1,4760,4606,,,,,,,,,,,,,,,,,
5126,1469901483712,,,,,,,-0.1,-0.12,1.02,-1.4,0.0,0.1,4660,4606,,,,,,,,,,,,,,,,,
5146,1469901483732,,,,77,,,-0.03,-0.14,1.0,-1.3,0.9,0.1,4700,4606,0.973,4,39.542152,-122.332802,79.86,0.002,355.2,10,2,1.4,0,0.0,-1,0.0,,0.0,0
5166,1469901483752,,,,,,,-0.06,-0.27,0.96,-1.4,-0.2,0.5,4700,4633,,,,,,,,,,,,,,,,,
5186,1469901483772,,,,,,,-0.02,-0.27,0.92,-1.2,-0.2,0.5,4660,4606,,,,,,,,,,,,,,,,,
5206,1469901483792,,,,,,,-0.07,-0.27,0.9,-1.0,-1.1,0.2,4500,4661,,,,,,,,,,,,,,,,,
5226,1469901483812,,,,,,,-0.05,-0.22,0.97,-1.4,0.4,0.3,4660,4661,,,,,,,,,,,,,,,,,
5246,1469901483832,0,225.3,184.6,40,184.4,,-0.06,-0.14,0.99,-1.8,-0.9,0.2,4720,4718,0.989,4,39.542187,-122.332802,80.1,0.005,355.3,10,2,1.4,0,0.0,-1,0.0,0.0,0.0,0
5266,1469901483852,,,,,,,-0.11,-0.07,0.94,-2.2,0.8,0.2,4600,4661,,,,,,,,,,,,,,,,,
5286,1469901483872,,,,,,,-0.07,0.03,0.98,-2.3,-0.7,-0.5,4540,4606,,,,,,,,,,,,,,,,,
5306,1469901483892,,,,,,,-0.15,0.07,0.94,-2.7,0.7,-0.3,4600,4633,,,,,,,,,,,,,,,,,
5326,1469901483907,,,,,,,-0.09,0.1,0.93,-2.6,0.5,-0.5,4620,4661,,,,,,,,,,,,,,,,,
5346,1469901483927,,,,43,,,-0.15,0.09,0.96,-2.7,0.8,-0.2,4460,4633,1.038,4,39.542217,-122.332817,79.99,0.007,355.2,10,2,1.4,0,0.0,-1,0.0,,0.0,0
5366,1469901483947,,,,,,,-0.09,0.07,0.93,-2.4,0.6,-0.5,4840,4606,,,,,,,,,,,,,,,,,
5386,1469901483967,,,,,,,-0.14,-0.03,0.92,-2.4,-0.5,-0.2,4480,4633,,,,,,,,,,,,,,,,,
5406,1469901483987,,,,,,,-0.05,-0.06,0.91,-2.5,-0.1,-0.1,4640,4661,,,,,,,,,,,,,,,,,
5426,1469901484013,,,,,,,-0.13,-0.09,0.89,-2.5,-1.6,-0.1,4760,4718,,,,,,,,,,,,,,,,,
5446,1469901484033,1,225.9,185.8,61,185.5,,-0.1,-0.06,0.94,-2.8,-0.3,0.2,4640,4633,0.961,4,39.542252,-122.332817,80.01,0.009,355.1,10,2,1.4,0,0.0,-1,0.0,0.0,0.0,0
5466,1469901484053,,,,,,,-0.09,0.02,0.97,-2.8,-1.5,0.0,4460,4661,,,,,,,,,,,,,,,,,
5486,1469901484073,,,,,,,-0.14,0.06,0.91,-3.2,0.0,0.1,4720,4661,,,,,,,,,,,,,,,,,
5506,1469901484093,,,,,,,-0.08,0.17,0.9,-3.2,-1.9,-0.2,4720,4661,,,,,,,,,,,,,,,,,
5526,1469901484111,,,,,,,-0.14,0.15,0.92,-3.2,-0.5,0.1,4660,4661,,,,,,,,,,,,,,,,,
5546,1469901484131,,,,54,,,-0.09,0.17,0.94,-2.9,-0.7,-0.1,4780,4689,1.02,4,39.542282,-122.332817,80.58,0.011,355.3,10,2,1.4,0,0.0,-1,0.0,,0.0,0
5566,1469901484151,,,,,,,-0.13,0.07,0.92,-2.9,-1.1,0.4,4520,4633,,,,,,,,,,,,,,,,,
5586,1469901484171,,,,,,,-0.04,0.02,0.92,-2.7,0.0,0.2,4680,4689,,,,,,,,,,,,,,,,,
5606,1469901484191,,,,,,,-0.1,0.01,0.92,-2.6,-1.7,0.3,4860,4718,,,,,,,,,,,,,,,,,
5626,1469901484311,,,,,,,-0.1,0.01,0.92,-2.8,-0.5,0.7,4600,4661,,,,,,,,,,,,,,,,,
5646,1469901484331,0,225.8,184.8,66,184.6,,-0.06,0.1,0.95,-3.0,-2.4,0.2,4520,4776,1.017,4,39.542351,-122.332817,81.31,0.016,355.1,10,2,1.4,0,0.0,-1,0.0,0.0,0.0,0
5666,1469901484351,,,,,,,-0.11,0.16,0.9,-3.3,-0.8,0.3,4740,4689,,,,,,,,,,,,,,,,,
5686,1469901484371,,,,,,,-0.06,0.23,0.91,-3.1,-2.6,-0.1,4760,4718,,,,,,,,,,,,,,,,,
5706,1469901484391,,,,,,,-0.09,0.11,0.96,-2.9,-1.9,0.2,4460,4661,,,,,,,,,,,,,,,,,
5726,1469901484411,,,,,,,-0.01,0.08,0.94,-2.6,-2.1,0.2,4820,4747,,,,,,,,,,,,,,,,,
5746,1469901484431,,,,44,,,-0.07,0.04,0.9,-2.4,-2.3,0.2,4480,4718,1.03,4,39.542351,-122.332817,81.31,0.016,355.1,10,2,1.4,0,0.0,-1,0.0,,0.0,0
5766,1469901484451,,,,,,,-0.05,0.02,0.93,-2.6,-0.8,0.4,4620,4689,,,,,,,,,,,,,,,,,
5786,1469901484471,,,,,,,-0.13,0.02,0.94,-2.7,-2.3,0.3,4920,4776,,,,,,,,,,,,,,,,,
5806,1469901484491,,,,,,,-0.13,0.05,0.91,-3.0,-0.4,0.3,4520,4689,,,,,,,,,,,,,,,,,
5826,1469901484412,,,,,,,-0.09,0.14,0.95,-3.1,-2.0,-0.3,4800,4718,,,,,,,,,,,,,,,,,
5846,1469901484432,0,225.7,184.9,60,184.8,,-0.16,0.14,0.92,-3.2,-0.9,-0.5,4680,4718,1.011,4,39.542381,-122.332817,81.8,0.018,354.9,10,2,1.4,0,0.0,-1,0.0,0.0,0.0,0
5866,1469901484452,,,,,,,-0.1,0.17,0.98,-3.0,-0.5,-1.1,4800,4718,,,,,,,,,,,,,,,,,
5886,1469901484472,,,,,,,-0.14,0.07,0.96,-3.2,-1.1,-0.6,4900,4747,,,,,,,,,,,,,,,,,
5906,1469901484492,,,,,,,-0.06,0.06,0.95,-3.3,0.0,-0.5,4880,4633,,,,,,,,,,,,,,,,,
5926,1469901484512,,,,,,,-0.1,0.07,1.01,-3.3,-1.4,-0.5,4640,4633,,,,,,,,,,,,,,,,,
5946,1469901484532,,,,70,,,-0.1,0.1,1.03,-3.5,-0.3,-0.3,4500,4578,1.014,4,39.542412,-122.332817,82.08,0.02,354.6,10,2,1.4,0,0.0,-1,0.0,,0.0,0
5966,1469901484552,,,,,,,-0.04,0.2,1.03,-3.3,-1.9,-0.7,4500,4578,,,,,,,,,,,,,,,,,
5986,1469901484572,,,,,,,-0.05,0.18,1.0,-3.5,-0.8,-0.6,4520,4606,,,,,,,,,,,,,,,,,
6006,1469901484592,,,,,,,-0.0,0.21,0.88,-3.2,-1.7,-0.6,4460,4606,,,,,,,,,,,,,,,,,
6026,1469901484612,,,,,,,0.02,0.29,0.92,-3.6,-1.5,-0.6,4660,4578,,,,,,,,,,,,,,,,,
6046,1469901484632,0,225.6,185.2,67,184.8,14.11,0.08,0.37,0.8,-3.9,-2.4,-0.8,4640,4633,0.992,4,39.54245,-122.332817,82.36,0.023,354.4,10,2,1.4,0,0.0,-1,0.0,0.0,0.0,0
6066,1469901484652,,,,,,,0.06,0.39,0.86,-4.2,-1.1,-0.8,4780,4661,,,,,,,,,,,,,,,,,
6086,1469901484672,,,,,,,0.05,0.4,0.81,-4.0,-2.1,-1.3,4700,4661,,,,,,,,,,,,,,,,,
6106,1469901484692,,,,,,,0.03,0.26,0.8,-3.5,-1.1,-1.0,4620,4661,,,,,,,,,,,,,,,,,
6126,1469901484712,,,,,,,0.12,0.23,0.91,-3.3,-1.7,-1.3,4580,4606,,,,,,,,,,,,,,,,,
6146,1469901484732,,,,68,,,0.06,0.16,0.89,-3.6,-2.3,-1.2,4480,4661,0.99,4,39.54248,-122.332817,82.37,0.025,354.1,10,2,1.4,0,0.0,-1,0.0,,0.0,0
6166,1469901484752,,,,,,,0.11,0.08,0.89,-3.2,-2.0,-1.3,4580,4578,,,,,,,,,,,,,,,,,
6186,1469901484772,,,,,,,0.09,0.02,0.98,-2.7,-1.2,-1.1,4500,4606,,,,,,,,,,,,,,,,,
6206,1469901484792,,,,,,,0.13,-0.01,0.93,-2.5,-0.3,-0.9,4680,4606,,,,,,,,,,,,,,,,,
6226,1469901484812,,,,,,,0.11,0.05,0.94,-2.4,-0.7,-0.5,4640,4661,,,,,,,,,,,,,,,,,
6246,1469901484832,0,225.8,184.8,83,184.4,,0.15,0.09,0.98,-2.6,-1.1,-0.5,4620,4606,0.978,4,39.542511,-122.332825,82.36,0.027,353.7,10,2,1.4,0,0.0,-1,0.0,0.0,0.0,0
6266,1469901484852,,,,,,,0.14,0.14,0.93,-2.9,-1.6,-0.4,4540,4633,,,,,,,,,,,,,,,,,
6286,1469901484872,,,,,,,0.11,0.18,1.01,-3.3,-0.1,-0.8,4540,4689,,,,,,,,,,,,,,,,,
6306,1469901484892,,,,,,,0.18,0.3,0.96,-3.5,-1.9,-0.7,4520,4606,,,,,,,,,,,,,,,,,
6326,1469901484906,,,,,,,0.17,0.27,0.98,-3.4,-0.8,-1.2,4480,4578,,,,,,,,,,,,,,,,,
6346,1469901484926,,,,71,,,0.22,0.35,0.96,-3.2,-1.2,-1.0,4420,4606,0.948,4,39.542549,-122.332825,82.11,0.03,353.4,10,2,1.4,0,0.0,-1,0.0,,0.0,0
6366,1469901484946,,,,,,,0.15,0.41,0.99,-3.4,-1.1,-1.1,4400,4606,,,,,,,,,,,,,,,,,
6386,1469901484966,,,,,,,0.18,0.43,0.96,-3.9,-1.8,-0.8,4240,4633,,,,,,,,,,,,,,,,,
6406,1469901484986,,,,,,,0.15,0.47,0.83,-3.9,-2.1,-0.8,4240,4578,,,,,,,,,,,,,,,,,
6426,1469901485111,,,,,,,0.22,0.49,0.78,-3.7,-2.3,-0.6,3480,4550,,,,,,,,,,,,,,,,,
6446,1469901485131,0,225.7,185.1,62,185.5,,0.23,0.48,0.77,-3.6,-3.0,-0.8,4240,4578,0.897,4,39.54261,-122.332825,81.52,0.034,353.0,10,2,1.4,0,0.0,-1,0.0,0.0,0.0,0
6466,1469901485151,,,,,,,0.24,0.47,0.83,-4.0,-2.2,-0.7,4120,4578,,,,,,,,,,,,,,,,,
6486,1469901485171,,,,,,,0.19,0.47,0.76,-4.1,-2.0,-0.8,4100,4578,,,,,,,,,,,,,,,,,
6506,1469901485191,,,,,,,0.23,0.49,0.77,-4.5,-1.3,-0.7,4060,4578,,,,,,,,,,,,,,,,,
6526,1469901485211,,,,,,,0.22,0.43,0.72,-4.5,-2.2,-0.2,3900,4470,,,,,,,,,,,,,,,,,
6546,1469901485231,,,,51,,,0.26,0.39,0.64,-4.5,-2.3,-0.5,3880,4446,0.89,4,39.54261,-122.332825,81.52,0.034,353.0,10,2,1.4,0,0.0,-1,0.0,,0.0,0
6566,1469901485251,,,,,,,0.22,0.36,0.71,-4.5,-3.4,-0.6,3880,4524,,,,,,,,,,,,,,,,,
6586,1469901485271,,,,,,,0.21,0.26,0.78,-4.6,-2.8,-0.2,3780,4470,,,,,,,,,,,,,,,,,
6606,1469901485291,,,,,,,0.19,0.19,0.87,-4.3,-3.2,0.1,3820,4550,,,,,,,,,,,,,,,,,
6626,1469901485212,,,,,,,0.21,0.18,0.87,-4.3,-3.0,0.0,3840,4550,,,,,,,,,,,,,,,,,
6646,1469901485232,1,225.9,185.2,50,184.8,,0.16,0.11,0.88,-4.1,-3.1,-0.1,3760,4524,0.831,5,39.542648,-122.332825,80.79,0.037,352.7,10,2,1.4,0,0.0,-1,0.0,0.0,0.0,0
6666,1469901485252,,,,,,,0.18,-0.01,0.83,-3.8,-1.4,0.2,3700,4524,,,,,,,,,,,,,,,,,
6686,1469901485272,,,,,,,0.18,-0.05,0.84,-3.4,-2.1,0.4,3740,4470,,,,,,,,,,,,,,,,,
6706,1469901485292,,,,,,,0.22,-0.11,0.88,-3.2,-1.5,0.3,3660,4496,,,,,,,,,,,,,,,,,
6726,1469901485312,,,,,,,0.2,-0.12,0.93,-2.9,-1.9,0.5,3680,4496,,,,,,,,,,,,,,,,,
6746,1469901485332,,,,50,,,0.21,-0.09,0.91,-2.9,-1.0,0.6,3680,4496,0.814,5,39.542679,-122.332825,80.4,0.039,352.4,10,2,1.4,0,0.0,-1,0.0,,0.0,0
6766,1469901485352,,,,,,,0.21,-0.1,0.94,-3.0,-1.5,0.6,3640,4470,,,,,,,,,,,,,,,,,
6786,1469901485372,,,,,,,0.24,-0.12,0.88,-3.1,-0.9,0.5,3700,4470,,,,,,,,,,,,,,,,,
6806,1469901485392,,,,,,,0.24,-0.15,0.97,-3.1,-2.0,0.6,3660,4470,,,,,,,,,,,,,,,,,
6826,1469901485412,,,,,,,0.27,-0.07,1.01,-3.3,-1.0,0.5,3720,4470,,,,,,,,,,,,,,,,,
6846,1469901485432,0,225.9,185.0,40,184.8,,0.24,-0.05,1.06,-3.6,-2.1,0.5,3720,4395,0.832,5,39.542709,-122.332825,80.04,0.041,352.0,10,2,1.4,0,0.0,-1,0.0,0.0,0.0,0
6866,1469901485452,,,,,,,0.23,-0.07,1.01,-3.8,-1.6,0.5,3680,4446,,,,,,,,,,,,,,,,,
6886,1469901485472,,,,,,,0.23,-0.11,0.99,-3.5,-1.7,0.8,3740,4446,,,,,,,,,,,,,,,,,
6906,1469901485492,,,,,,,0.25,-0.06,1.04,-3.6,-1.0,1.0,3820,4446,,,,,,,,,,,,,,,,,
6926,1469901485508,,,,,,,0.21,-0.06,1.04,-3.4,-0.9,1.0,3760,4446,,,,,,,,,,,,,,,,,
6946,1469901485528,,,,56,,,0.24,-0.11,1.0,-3.1,-1.0,1.3,3760,4446,0.842,5,39.542744,-122.332825,79.61,0.043,351.6,10,2,1.4,0,0.0,-1,0.0,,0.0,0
6966,1469901485548,,,,,,,0.2,-0.15,0.99,-2.8,-0.4,1.3,3660,4420,,,,,,,,,,,,,,,,,
6986,1469901485568,,,,,,,0.23,-0.15,1.02,-2.7,0.3,0.8,3720,4420,,,,,,,,,,,,,,,,,
7006,1469901485588,,,,,,,0.21,-0.16,1.02,-3.1,0.9,0.7,3620,4395,,,,,,,,,,,,,,,,,
7026,1469901485612,,,,,,,0.27,-0.1,1.05,-3.5,0.5,0.8,3600,4446,,,,,,,,,,,,,,,,,
7046,1469901485632,0,226.1,185.1,62,184.8,14.01,0.23,-0.03,1.03,-3.9,1.5,0.8,3580,4470,0.792,5,39.542774,-122.332825,79.23,0.046,351.1,10,2,1.4,0,0.0,-1,0.0,0.0,0.0,0
7066,1469901485652,,,,,,,0.23,0.05,1.03,-4.2,0.9,0.8,3440,4470,,,,,,,,,,,,,,,,,
7086,1469901485672,,,,,,,0.22,0.03,1.05,-4.2,1.3,0.6,3420,4446,,,,,,,,,,,,,,,,,
7106,1469901485692,,,,,,,0.22,0.04,1.07,-4.3,0.5,0.7,3360,4344,,,,,,,,,,,,,,,,,
7126,1469901485712,,,,,,,0.19,0.02,1.06,-4.2,1.1,0.6,3360,4320,,,,,,,,,,,,,,,,,
7146,1469901485732,,,,51,,,0.21,0.01,1.08,-4.0,0.5,0.5,3380,4369,0.764,5,39.542809,-122.33284,78.62,0.048,350.7,10,2,1.4,0,0.0,-1,0.0,,0.0,0
7166,1469901485752,,,,,,,0.22,0.03,1.02,-3.7,0.8,0.6,3280,4369,,,,,,,,,,,,,,,,,
7186,1469901485772,,,,,,,0.2,0.06,1.06,-4.1,0.1,0.8,3300,4446,,,,,,,,,,,,,,,,,
7206,1469901485792,,,,,,,0.22,0.02,1.05,-4.6,1.2,0.8,3180,4420,,,,,,,,,,,,,,,,,
7226,1469901485911,,,,,,,0.2,-0.02,1.07,-4.3,0.6,1.1,3200,4369,,,,,,,,,,,,,,,,,
7246,1469901485931,0,225.8,184.6,54,184.3,,0.22,-0.03,1.03,-3.8,0.3,1.2,3100,4395,0.719,5,39.54287,-122.33284,77.83,0.052,349.7,10,2,1.4,0,0.0,-1,0.0,0.0,0.0,0
7266,1469901485951,,,,,,,0.19,0.01,0.98,-3.7,-0.7,0.9,3080,4344,,,,,,,,,,,,,,,,,
7286,1469901485971,,,,,,,0.22,0.04,1.03,-3.9,-1.1,0.4,3060,4395,,,,,,,,,,,,,,,,,
7306,1469901485991,,,,,,,0.18,0.04,1.04,-3.9,-1.1,0.3,3020,4420,,,,,,,,,,,,,,,,,
7326,1469901486011,,,,,,,0.22,0.12,1.04,-4.0,-1.8,-0.1,2920,4395,,,,,,,,,,,,,,,,,
7346,1469901486031,,,,58,,,0.17,0.12,1.01,-4.0,-1.1,-0.2,2920,4344,0.683,5,39.54287,-122.33284,77.83,0.052,349.7,10,2,1.4,0,0.0,-1,0.0,,0.0,0
7366,1469901486051,,,,,,,0.2,0.14,1.04,-3.8,-1.6,-0.3,2940,4369,,,,,,,,,,,,,,,,,
7386,1469901486071,,,,,,,0.21,0.12,1.07,-3.6,-1.0,-0.4,2440,4344,,,,,,,,,,,,,,,,,
7406,1469901486091,,,,,,,0.2,0.14,1.1,-3.4,-2.0,-0.6,2860,4344,,,,,,,,,,,,,,,,,
7426,1469901486012,,,,,,,0.22,0.15,1.05,-3.5,-1.3,-0.7,2860,4226,,,,,,,,,,,,,,,,,
7446,1469901486032,0,226.2,185.1,40,184.8,,0.21,0.1,1.04,-3.4,-1.8,-0.6,2840,4226,0.675,5,39.542904,-122.33284,77.48,0.055,349.3,10,2,1.4,0,0.0,-1,0.0,0.0,0.0,0
7466,1469901486052,,,,,,,0.27,0.06,1.0,-3.1,-2.4,-0.2,2820,4249,,,,,,,,,,,,,,,,,
7486,1469901486072,,,,,,,0.26,0.03,1.0,-2.8,-1.7,-0.4,2880,4249,,,,,,,,,,,,,,,,,
7506,1469901486092,,,,,,,0.3,0.12,1.05,-2.6,-1.7,-0.5,2920,4272,,,,,,,,,,,,,,,,,
7526,1469901486112,,,,,,,0.31,0.21,1.14,-2.8,0.4,-0.4,2940,4344,,,,,,,,,,,,,,,,,
7546,1469901486132,,,,57,,,0.31,0.2,1.12,-3.1,-0.5,-0.1,2900,4249,0.701,5,39.542934,-122.33284,77.04,0.057,348.8,10,2,1.4,0,0.0,-1,0.0,,0.0,0
7566,1469901486152,,,,,,,0.35,0.12,1.11,-2.9,-0.4,0.2,3040,4272,,,,,,,,,,,,,,,,,
7586,1469901486172,,,,,,,0.3,0.04,1.07,-2.3,-0.1,0.3,2920,4226,,,,,,,,,,,,,,,,,
7606,1469901486192,,,,,,,0.31,0.04,1.08,-1.9,-0.1,0.0,3020,4226,,,,,,,,,,,,,,,,,
7626,1469901486212,,,,,,,0.29,0.14,1.08,-2.0,1.7,-0.4,3000,4226,,,,,,,,,,,,,,,,,
7646,1469901486232,0,226.0,184.9,59,184.7,,0.28,0.24,1.12,-2.6,0.9,-0.2,3020,4135,0.727,5,39.542965,-122.33284,76.48,0.059,348.2,10,2,1.4,0,0.0,-1,0.0,0.0,0.0,0
7666,1469901486252,,,,,,,0.33,0.2,1.12,-2.7,1.0,0.0,3060,4112,,,,,,,,,,,,,,,,,
7686,1469901486272,,,,,,,0.29,0.16,1.06,-2.2,1.1,-0.1,3140,4090,,,,,,,,,,,,,,,,,
7706,1469901486292,,,,,,,0.31,0.2,1.11,-1.8,0.7,-0.3,3120,4112,,,,,,,,,,,,,,,,,
7726,1469901486312,,,,,,,0.38,0.25,1.18,-1.9,1.2,-0.4,3280,4090,,,,,,,,,,,,,,,,,
7746,1469901486332,,,,78,,,0.34,0.15,1.12,-2.0,0.5,-0.0,3280,4090,0.788,5,39.542995,-122.33284,75.88,0.061,347.7,10,2,1.4,0,0.0,-1,0.0,,0.0,0
7766,1469901486352,,,,,,,0.38,0.07,1.15,-1.6,-0.9,0.0,3320,4006,,,,,,,,,,,,,,,,,
7786,1469901486372,,,,,,,0.38,0.17,1.16,-1.5,0.1,-0.5,3440,4069,,,,,,,,,,,,,,,,,
7806,1469901486392,,,,,,,0.34,0.18,1.14,-1.6,-0.5,-0.5,3540,4069,,,,,,,,,,,,,,,,,
7826,1469901486412,,,,,,,0.4,0.16,1.12,-1.5,-2.0,-0.2,3520,4006,,,,,,,,,,,,,,,,,
7846,1469901486432,0,225.8,185.0,57,184.8,,0.37,0.15,1.05,-1.8,-1.3,-0.6,3620,4026,0.909,4,39.543026,-122.332855,75.27,0.063,347.1,10,2,1.4,0,0.0,-1,0.0,0.0,0.0,0
7866,1469901486452,,,,,,,0.36,0.12,1.05,-1.8,-2.1,-0.6,3740,4006,,,,,,,,,,,,,,,,,
7886,1469901486472,,,,,,,0.41,0.03,0.99,-1.5,-2.7,-0.5,3740,3984,,,,,,,,,,,,,,,,,
7906,1469901486492,,,,,,,0.39,0.08,0.95,-1.6,-1.8,-0.5,3820,4026,,,,,,,,,,,,,,,,,
7926,1469901486512,,,,,,,0.37,0.07,1.01,-1.9,-1.5,-0.2,3780,3984,,,,,,,,,,,,,,,,,
7946,1469901486532,,,,80,,,0.45,0.04,0.97,-1.7,-3.0,0.1,3940,3904,0.979,4,39.543056,-122.332855,74.34,0.065,346.6,10,2,1.4,0,0.0,-1,0.0,,0.0,0
7966,1469901486552,,,,,,,0.38,0.05,0.98,-1.9,-1.5,0.1,3880,3964,,,,,,,,,,,,,,,,,
7986,1469901486572,,,,,,,0.35,0.01,0.95,-1.8,-1.9,0.5,3980,3904,,,,,,,,,,,,,,,,,
8006,1469901486592,,,,,,,0.38,-0.0,0.99,-1.6,-2.8,0.3,4080,3864,,,,,,,,,,,,,,,,,
8026,1469901486711,,,,,,,0.39,0.06,1.01,-1.7,-0.7,0.3,4140,3864,,,,,,,,,,,,,,,,,
8046,1469901486731,0,225.7,184.8,60,184.8,14.1,0.33,-0.04,1.04,-1.7,-0.3,0.4,4200,3807,1.045,4,39.543118,-122.332855,72.09,0.07,345.7,10,2,1.4,0,0.0,-1,0.0,0.0,0.0,0
8066,1469901486751,,,,,,,0.36,-0.04,1.07,-1.3,-1.5,0.1,4080,3807,,,,,,,,,,,,,,,,,
8086,1469901486771,,,,,,,0.41,-0.02,1.08,-1.6,-0.6,0.3,4240,3769,,,,,,,,,,,,,,,,,
8106,1469901486791,,,,,,,0.37,-0.01,1.0,-1.6,1.3,0.1,4340,3789,,,,,,,,,,,,,,,,,
8126,1469901486811,,,,,,,0.37,0.08,0.94,-1.8,-0.3,0.4,4340,3789,,,,,,,,,,,,,,,,,
8146,1469901486831,,,,59,,,0.42,0.04,1.04,-1.8,-1.4,0.3,4340,3715,1.157,3,39.543118,-122.332855,72.09,0.07,345.7,10,2,1.4,0,0.0,-1,0.0,,0.0,0
8166,1469901486851,,,,,,,0.49,0.05,1.0,-1.3,-2.1,0.4,4420,3789,,,,,,,,,,,,,,,,,
8186,1469901486871,,,,,,,0.49,-0.05,1.02,-1.0,-0.3,0.4,4460,3769,,,,,,,,,,,,,,,,,
8206,1469901486891,,,,,,,0.47,-0.15,1.05,-0.8,-0.5,0.5,4560,3769,,,,,,,,,,,,,,,,,
8226,1469901486808,,,,,,,0.5,-0.16,1.03,-0.5,-2.5,0.2,4580,3769,,,,,,,,,,,,,,,,,
8246,1469901486828,0,225.8,184.4,57,184.0,,0.55,-0.18,1.07,-0.4,-1.2,0.0,4480,3752,1.167,3,39.543144,-122.332855,70.98,0.071,345.3,10,2,1.4,0,0.0,-1,0.0,0.0,0.0,0
8266,1469901486848,,,,,,,0.52,-0.25,1.04,-0.4,0.3,-0.4,4460,3733,,,,,,,,,,,,,,,,,
8286,1469901486868,,,,,,,0.5,-0.24,0.98,-0.4,0.4,-0.1,4580,3752,,,,,,,,,,,,,,,,,
8306,1469901486888,,,,,,,0.51,-0.26,0.98,-0.2,0.0,-0.3,4640,3715,,,,,,,,,,,,,,,,,
8326,1469901486906,,,,,,,0.56,-0.28,0.94,-0.1,0.2,-0.3,4620,3696,,,,,,,,,,,,,,,,,
8346,1469901486926,,,,46,,,0.53,-0.34,1.02,0.2,2.6,-0.4,4520,3696,1.233,3,39.543175,-122.332855,69.85,0.073,344.8,10,2,1.4,0,0.0,-1,0.0,,0.0,0
8366,1469901486946,,,,,,,0.52,-0.35,0.91,0.1,1.6,-0.4,4720,3696,,,,,,,,,,,,,,,,,
8386,1469901486966,,,,,,,0.49,-0.3,0.96,0.0,0.3,0.1,4680,3715,,,,,,,,,,,,,,,,,
8406,1469901486986,,,,,,,0.53,-0.32,1.01,-0.4,0.4,0.3,4620,3680,,,,,,,,,,,,,,,,,
8426,1469901487012,,,,,,,0.54,-0.19,0.88,-0.9,0.5,-0.0,4660,3644,,,,,,,,,,,,,,,,,
8446,1469901487032,0,225.9,184.8,61,184.4,,0.49,-0.12,0.88,-1.7,0.7,0.2,4760,3644,1.334,3,39.543201,-122.332855,68.67,0.075,344.3,10,2,1.4,0,0.0,-1,0.0,0.0,0.0,0
8466,1469901487052,,,,,,,0.47,-0.03,0.96,-2.1,-0.3,-0.0,4620,3627,,,,,,,,,,,,,,,,,
8486,1469901487072,,,,,,,0.51,-0.02,0.89,-2.6,-0.6,-0.1,4780,3593,,,,,,,,,,,,,,,,,
8506,1469901487092,,,,,,,0.61,-0.0,0.92,-2.5,-1.2,0.2,4680,3593,,,,,,,,,,,,,,,,,
8526,1469901487112,,,,,,,0.58,-0.03,0.99,-2.7,0.7,0.5,4680,3593,,,,,,,,,,,,,,,,,
8546,1469901487132,,,,59,,,0.51,-0.03,0.98,-2.8,0.3,0.6,4820,3593,1.33,3,39.543228,-122.332855,67.56,0.077,343.7,10,2,1.4,0,0.0,-1,0.0,,0.0,0
8566,1469901487152,,,,,,,0.49,0.0,0.96,-2.9,-1.2,0.6,4780,3610,,,,,,,,,,,,,,,,,
8586,1469901487172,,,,,,,0.54,0.05,1.0,-3.4,-1.3,0.5,4900,3593,,,,,,,,,,,,,,,,,
8606,1469901487192,,,,,,,0.6,0.07,1.04,-3.6,-2.5,0.6,4840,3544,,,,,,,,,,,,,,,,,
8626,1469901487212,,,,,,,0.61,0.02,1.05,-3.6,-0.3,0.4,4880,3544,,,,,,,,,,,,,,,,,
8646,1469901487232,0,225.6,184.8,69,185.1,,0.6,0.02,0.98,-3.6,-0.9,0.6,4960,3495,1.39,3,39.543255,-122.332855,66.32,0.079,343.2,10,2,1.4,0,0.0,-1,0.0,0.0,0.0,0
8666,1469901487252,,,,,,,0.54,0.09,0.95,-3.8,-1.9,0.3,4940,3449,,,,,,,,,,,,,,,,,
8686,1469901487272,,,,,,,0.56,0.09,0.95,-4.1,-1.5,0.2,4940,3403,,,,,,,,,,,,,,,,,
8706,1469901487292,,,,,,,0.6,0.05,0.92,-3.9,-2.2,0.4,4900,3433,,,,,,,,,,,,,,,,,
8726,1469901487312,,,,,,,0.62,0.22,0.89,-4.2,-1.8,0.4,5040,3480,,,,,,,,,,,,,,,,,
8746,1469901487332,,,,65,,,0.66,0.16,0.86,-4.3,-0.4,0.4,5060,3418,1.502,0,39.543285,-122.332855,65.27,0.081,342.7,10,2,1.4,0,0.0,-1,0.0,,0.0,0
8766,1469901487352,,,,,,,0.65,0.1,0.76,-3.7,-0.3,0.4,5100,3387,,,,,,,,,,,,,,,,,
8786,1469901487372,,,,,,,0.58,0.05,0.81,-3.8,-0.5,-0.0,5280,3329,,,,,,,,,,,,,,,,,
8806,1469901487392,,,,,,,0.53,0.04,0.77,-3.4,-0.8,-0.2,5200,3372,,,,,,,,,,,,,,,,,
8826,1469901487511,,,,,,,0.6,0.09,0.83,-3.6,-1.1,0.1,5360,3286,,,,,,,,,,,,,,,,,
8846,1469901487531,1,226.0,185.7,72,185.3,,0.61,0.06,0.77,-2.9,-3.6,-0.1,5360,3286,1.626,0,39.543335,-122.332863,62.81,0.085,341.9,10,2,1.4,0,0.0,-1,0.0,0.0,0.0,0
8866,1469901487551,,,,,,,0.58,0.13,0.89,-3.1,-4.2,-0.2,5460,3258,,,,,,,,,,,,,,,,,
8886,1469901487571,,,,,,,0.58,0.09,0.78,-2.6,-3.2,-0.1,5480,3218,,,,,,,,,,,,,,,,,
8906,1469901487591,,,,,,,0.63,0.06,0.81,-2.5,-1.8,-0.7,5460,3178,,,,,,,,,,,,,,,,,
8926,1469901487611,,,,,,,0.7,0.15,0.77,-2.3,-0.7,-0.6,5440,3178,,,,,,,,,,,,,,,,,
8946,1469901487631,,,,100,,,0.72,0.07,0.7,-2.1,-1.9,-0.7,5580,3300,1.674,0,39.543335,-122.332863,62.81,0.085,341.9,10,2,1.4,0,0.0,-1,0.0,,0.0,0
8966,1469901487651,,,,,,,0.72,0.04,0.78,-2.0,-2.1,-0.7,5660,3204,,,,,,,,,,,,,,,,,
8986,1469901487671,,,,,,,0.7,0.07,0.84,-2.0,-0.7,-0.9,5680,3244,,,,,,,,,,,,,,,,,
9006,1469901487691,,,,,,,0.69,0.12,0.83,-1.9,1.8,-0.6,5780,3178,,,,,,,,,,,,,,,,,
9026,1469901487613,,,,,,,0.66,0.09,0.84,-2.0,3.1,-0.4,5780,3178,,,,,,,,,,,,,,,,,
9046,1469901487633,0,225.7,184.8,65,184.6,14.16,0.67,0.11,0.87,-2.1,2.2,-0.1,5640,3190,1.802,2,39.543362,-122.332863,61.5,0.086,341.6,10,2,1.4,0,0.0,-1,0.0,0.0,0.0,0
9066,1469901487653,,,,,,,0.73,0.12,0.85,-1.8,1.6,0.0,5780,3178,,,,,,,,,,,,,,,,,
9086,1469901487673,,,,,,,0.75,0.19,0.86,-1.9,0.4,-0.1,5880,3152,,,,,,,,,,,,,,,,,
9106,1469901487693,,,,,,,0.72,0.23,0.92,-1.7,0.5,-0.3,5800,3138,,,,,,,,,,,,,,,,,
9126,1469901487713,,,,,,,0.69,0.25,0.96,-1.6,-0.3,-0.5,5900,3113,,,,,,,,,,,,,,,,,
9146,1469901487733,,,,47,,,0.63,0.28,1.01,-1.7,-1.2,-0.4,5880,3138,1.884,2,39.543385,-122.332863,60.08,0.088,341.2,10,2,1.4,0,0.0,-1,0.0,,0.0,0
9166,1469901487753,,,,,,,0.59,0.33,1.03,-1.8,-2.5,-0.7,5960,3152,,,,,,,,,,,,,,,,,
9186,1469901487773,,,,,,,0.56,0.32,1.08,-1.8,-4.0,-0.8,5740,3178,,,,,,,,,,,,,,,,,
9206,1469901487793,,,,,,,0.52,0.31,1.08,-1.7,-5.3,-1.0,5880,3164,,,,,,,,,,,,,,,,,
9226,1469901487812,,,,,,,0.44,0.29,1.07,-1.6,-7.0,-0.9,5980,3178,,,,,,,,,,,,,,,,,
9246,1469901487832,0,226.1,184.8,54,184.5,,0.39,0.29,1.05,-1.5,-8.5,-1.0,5860,3113,1.884,2,39.543407,-122.332863,59.03,0.09,340.9,10,2,1.4,0,0.0,-1,0.0,0.0,0.0,0
9266,1469901487852,,,,,,,0.33,0.25,1.01,-1.4,-8.9,-0.5,5880,3138,,,,,,,,,,,,,,,,,
9286,1469901487872,,,,,,,0.29,0.23,0.97,-1.4,-9.5,-0.0,5900,3126,,,,,,,,,,,,,,,,,
9306,1469901487892,,,,,,,0.24,0.18,0.91,-1.6,-9.6,0.5,5820,3101,,,,,,,,,,,,,,,,,
9326,1469901487906,,,,,,,0.21,0.18,0.87,-1.4,-9.3,0.8,5720,3152,,,,,,,,,,,,,,,,,
9346,1469901487926,,,,71,,,0.2,0.16,0.92,-1.6,-7.8,1.1,5880,3138,1.86,2,39.54343,-122.332863,57.49,0.091,340.6,10,2,1.4,0,0.0,-1,0.0,,0.0,0
9366,1469901487946,,,,,,,0.19,0.09,0.98,-1.7,-5.3,0.9,5860,3113,,,,,,,,,,,,,,,,,
9386,1469901487966,,,,,,,0.21,0.05,1.05,-1.6,-2.3,0.7,5840,3064,,,,,,,,,,,,,,,,,
9406,1469901487986,,,,,,,0.24,-0.04,1.07,-1.3,0.8,0.5,5760,3064,,,,,,,,,,,,,,,,,
9426,1469901488013,,,,,,,0.28,-0.06,1.06,-1.0,3.3,0.3,5720,2969,,,,,,,,,,,,,,,,,
9446,1469901488033,0,226.0,184.8,51,185.1,,0.36,-0.1,0.98,-0.7,4.7,-0.1,5660,3040,1.899,2,39.543457,-122.332863,55.99,0.093,340.5,10,2,1.4,0,0.0,-1,0.0,0.0,0.0,0
9466,1469901488053,,,,,,,0.46,-0.09,0.92,-0.6,5.5,-0.4,5800,3015,,,,,,,,,,,,,,,,,
9486,1469901488073,,,,,,,0.6,-0.05,0.91,-0.4,5.6,-0.6,5740,3015,,,,,,,,,,,,,,,,,
9506,1469901488093,,,,,,,0.68,0.04,0.96,-0.5,5.5,-0.6,5660,3004,,,,,,,,,,,,,,,,,
9526,1469901488113,,,,,,,0.72,0.08,0.95,-0.5,4.2,-0.7,5700,2980,,,,,,,,,,,,,,,,,
9546,1469901488133,,,,87,,,0.69,0.03,0.88,-0.2,2.5,-1.1,5440,2992,1.935,2,39.54348,-122.332863,55.23,0.095,340.1,10,2,1.4,0,0.0,-1,0.0,,0.0,0
9566,1469901488153,,,,,,,0.65,-0.01,0.91,-0.0,1.5,-1.2,5640,2958,,,,,,,,,,,,,,,,,
9586,1469901488173,,,,,,,0.61,-0.03,0.93,0.0,3.0,-1.1,5580,2946,,,,,,,,,,,,,,,,,
9606,1469901488193,,,,,,,0.63,-0.02,0.91,0.3,4.9,-0.9,5680,2935,,,,,,,,,,,,,,,,,
9626,1469901488312,,,,,,,0.68,-0.0,0.88,0.4,7.3,-0.9,5700,2958,,,,,,,,,,,,,,,,,
9646,1469901488332,1,226.2,184.8,54,184.2,,0.77,0.03,0.93,0.4,7.6,-1.1,5520,2924,1.854,2,39.543522,-122.332863,53.48,0.098,339.6,10,2,1.4,0,0.0,-1,0.0,0.0,0.0,0
9666,1469901488352,,,,,,,0.81,0.05,0.85,0.6,6.0,-1.1,5480,2958,,,,,,,,,,,,,,,,,
9686,1469901488372,,,,,,,0.79,-0.0,0.77,1.1,3.8,-1.6,5420,2924,,,,,,,,,,,,,,,,,
9706,1469901488392,,,,,,,0.73,0.04,0.88,1.0,2.9,-1.9,5500,2924,,,,,,,,,,,,,,,,,
9726,1469901488412,,,,,,,0.67,0.02,0.87,1.1,3.3,-2.1,5480,2869,,,,,,,,,,,,,,,,,
9746,1469901488432,,,,55,,,0.7,-0.05,0.8,1.5,4.1,-2.1,5440,2901,1.868,2,39.543522,-122.332863,53.48,0.098,339.6,10,2,1.4,0,0.0,-1,0.0,,0.0,0
9766,1469901488452,,,,,,,0.75,0.01,0.88,1.3,4.0,-2.1,5400,2858,,,,,,,,,,,,,,,,,
9786,1469901488472,,,,,,,0.72,0.04,0.82,1.6,1.5,-2.1,5320,2858,,,,,,,,,,,,,,,,,
9806,1469901488492,,,,,,,0.66,-0.04,0.86,1.6,-1.6,-2.0,5440,2858,,,,,,,,,,,,,,,,,
9826,1469901488410,,,,,,,0.54,-0.03,0.9,1.7,-1.0,-2.4,5440,2816,,,,,,,,,,,,,,,,,
9846,1469901488430,0,226.2,184.3,88,183.8,,0.52,-0.06,0.84,2.2,0.7,-2.4,5300,2816,1.868,2,39.543545,-122.332863,52.43,0.099,339.1,10,2,1.4,0,0.0,-1,0.0,0.0,0.0,0
9866,1469901488450,,,,,,,0.53,-0.03,0.93,1.7,1.8,-2.0,5320,2838,,,,,,,,,,,,,,,,,
9886,1469901488470,,,,,,,0.52,-0.1,0.84,2.2,-0.5,-1.8,5260,2796,,,,,,,,,,,,,,,,,
9906,1469901488490,,,,,,,0.5,-0.06,0.91,2.3,-0.9,-1.7,5380,2816,,,,,,,,,,,,,,,,,
9926,1469901488510,,,,,,,0.47,-0.0,0.94,2.8,0.9,-1.4,5240,2806,,,,,,,,,,,,,,,,,
9946,1469901488530,,,,66,,,0.52,-0.11,0.84,2.8,1.9,-1.6,5160,2786,1.895,2,39.543564,-122.332863,51.19,0.1,339.5,10,2,1.4,0,0.0,-1,0.0,,0.0,0
9966,1469901488550,,,,,,,0.52,-0.06,0.87,3.1,0.7,-1.6,5280,2786,,,,,,,,,,,,,,,,,
9986,1469901488570,,,,,,,0.49,-0.14,0.91,3.1,-1.4,-1.4,5160,2766,,,,,,,,,,,,,,,,,
10006,1469901488590,,,,,,,0.42,-0.08,1.01,3.5,0.4,-1.4,5180,2766,,,,,,,,,,,,,,,,,
10026,1469901488610,,,,,,,0.48,-0.11,0.83,3.5,1.8,-1.5,5160,2727,,,,,,,,,,,,,,,,,
10046,1469901488630,0,226.5,184.7,64,184.2,14.0,0.51,-0.12,0.78,3.8,-0.3,-1.6,5160,2727,1.914,2,39.543583,-122.332863,50.19,0.102,339.5,10,2,1.4,0,0.0,-1,0.0,0.0,0.0,0
10066,1469901488650,,,,,,,0.49,-0.13,0.85,3.9,-2.0,-1.6,5080,2707,,,,,,,,,,,,,,,,,
10086,1469901488670,,,,,,,0.44,-0.12,0.94,4.2,-0.7,-0.9,5140,2716,,,,,,,,,,,,,,,,,
10106,1469901488690,,,,,,,0.47,-0.15,1.04,4.0,1.0,-0.5,5080,2736,,,,,,,,,,,,,,,,,
10126,1469901488710,,,,,,,0.44,-0.15,0.89,4.4,-1.7,-0.2,5160,2698,,,,,,,,,,,,,,,,,
10146,1469901488730,,,,64,,,0.36,-0.12,0.86,4.4,-0.2,-0.4,5100,2689,1.952,2,39.543602,-122.332863,49.77,0.103,339.4,10,2,1.4,0,0.0,-1,0.0,,0.0,0
10166,1469901488750,,,,,,,0.4,-0.15,0.68,4.5,1.1,-0.6,5080,2698,,,,,,,,,,,,,,,,,
10186,1469901488770,,,,,,,0.41,-0.21,0.6,5.0,-0.9,-0.6,5120,2652,,,,,,,,,,,,,,,,,
10206,1469901488790,,,,,,,0.35,-0.1,0.57,4.9,-0.5,-0.9,5040,2661,,,,,,,,,,,,,,,,,
10226,1469901488813,,,,,,,0.38,-0.21,0.44,5.3,1.0,-0.9,4940,2624,,,,,,,,,,,,,,,,,
10246,1469901488833,1,225.9,184.5,64,185.2,,0.4,-0.14,0.34,5.5,-0.4,-1.1,5060,2652,1.869,2,39.543625,-122.332863,48.76,0.105,339.3,10,2,1.4,0,0.0,-1,0.0,0.0,0.0,0
10266,1469901488853,,,,,,,0.35,-0.19,0.36,5.4,-0.9,-1.2,5060,2643,,,,,,,,,,,,,,,,,
10286,1469901488873,,,,,,,0.36,-0.27,0.25,5.9,0.7,-1.1,4980,2606,,,,,,,,,,,,,,,,,
10306,1469901488893,,,,,,,0.37,-0.27,0.26,5.6,0.0,-1.0,4940,2598,,,,,,,,,,,,,,,,,
10326,1469901488907,,,,,,,0.31,-0.23,0.31,5.5,-0.7,-1.3,4960,2624,,,,,,,,,,,,,,,,,
10346,1469901488927,,,,62,,,0.32,-0.34,0.25,6.0,0.7,-1.0,4860,2615,1.889,2,39.543644,-122.332855,48.15,0.106,339.2,10,2,1.4,0,0.0,-1,0.0,,0.0,0
10366,1469901488947,,,,,,,0.36,-0.24,0.21,6.0,-0.5,-1.1,4900,2572,,,,,,,,,,,,,,,,,
10386,1469901488967,,,,,,,0.28,-0.26,0.26,5.5,-0.1,-1.4,4840,2606,,,,,,,,,,,,,,,,,
10406,1469901488987,,,,,,,0.32,-0.3,0.16,5.9,1.2,-1.4,4940,2615,,,,,,,,,,,,,,,,,
10426,1469901489112,,,,,,,0.31,-0.29,0.16,6.1,-0.7,-1.2,4900,2598,,,,,,,,,,,,,,,,,
10446,1469901489132,0,225.7,184.3,78,184.7,,0.21,-0.22,0.19,5.7,-0.1,-1.2,4900,2589,1.922,2,39.543682,-122.332855,46.68,0.109,338.7,10,2,1.4,0,0.0,-1,0.0,0.0,0.0,0
10466,1469901489152,,,,,,,0.26,-0.31,0.28,5.7,2.1,-0.7,4780,2624,,,,,,,,,,,,,,,,,
10486,1469901489172,,,,,,,0.26,-0.33,0.31,6.2,-0.7,-0.2,4840,2598,,,,,,,,,,,,,,,,,
10506,1469901489192,,,,,,,0.24,-0.26,0.43,6.3,0.4,-0.1,4800,2538,,,,,,,,,,,,,,,,,
10526,1469901489212,,,,,,,0.33,-0.24,0.58,5.7,0.8,-0.3,4780,2538,,,,,,,,,,,,,,,,,
10546,1469901489232,,,,60,,,0.32,-0.29,0.71,6.0,-0.1,-0.5,4860,2555,1.91,2,39.543682,-122.332855,46.68,0.109,338.7,10,2,1.4,0,0.0,-1,0.0,,0.0,0
10566,1469901489252,,,,,,,0.33,-0.33,0.73,6.6,1.8,-0.4,4840,2572,,,,,,,,,,,,,,,,,
10586,1469901489272,,,,,,,0.32,-0.25,0.7,6.8,-1.2,-0.5,4800,2563,,,,,,,,,,,,,,,,,
10606,1469901489292,,,,,,,0.25,-0.24,0.69,7.0,-0.2,-0.8,4880,2546,,,,,,,,,,,,,,,,,
10626,1469901489213,,,,,,,0.33,-0.27,0.7,7.1,-0.1,-0.7,4820,2538,,,,,,,,,,,,,,,,,
10646,1469901489233,0,226.2,184.3,62,185.2,,0.34,-0.41,0.71,8.1,-1.2,-0.6,4700,2504,1.893,2,39.543701,-122.332855,45.96,0.11,338.3,10,2,1.4,0,0.0,-1,0.0,0.0,0.0,0
10666,1469901489253,,,,,,,0.31,-0.43,0.72,9.0,0.7,-0.5,4700,2512,,,,,,,,,,,,,,,,,
10686,1469901489273,,,,,,,0.33,-0.32,0.7,9.2,-1.6,-0.5,4640,2504,,,,,,,,,,,,,,,,,
10706,1469901489293,,,,,,,0.27,-0.29,0.74,9.1,-1.5,-0.4,4640,2480,,,,,,,,,,,,,,,,,
10726,1469901489314,,,,,,,0.32,-0.3,0.79,9.0,-0.8,-0.3,4760,2480,,,,,,,,,,,,,,,,,
10746,1469901489334,,,,66,,,0.3,-0.36,0.84,9.5,-0.8,-0.6,4680,2496,1.871,2,39.54372,-122.332855,45.46,0.111,337.9,10,2,1.4,0,0.0,-1,0.0,,0.0,0
10766,1469901489354,,,,,,,0.31,-0.48,0.86,10.1,0.8,-0.7,4720,2472,,,,,,,,,,,,,,,,,
10786,1469901489374,,,,,,,0.32,-0.5,0.83,10.8,-0.4,-0.6,4680,2441,,,,,,,,,,,,,,,,,
10806,1469901489394,,,,,,,0.3,-0.52,0.86,11.4,0.6,-0.4,4680,2472,,,,,,,,,,,,,,,,,
10826,1469901489412,,,,,,,0.31,-0.57,0.83,11.5,-0.2,-0.3,4700,2449,,,,,,,,,,,,,,,,,
10846,1469901489432,0,226.3,184.3,64,185.0,,0.26,-0.54,0.82,11.1,0.5,0.1,4540,2464,1.919,2,39.543739,-122.33284,44.75,0.113,337.6,10,2,1.4,0,0.0,-1,0.0,0.0,0.0,0
10866,1469901489452,,,,,,,0.29,-0.42,0.86,11.1,-1.5,-0.0,4680,2433,,,,,,,,,,,,,,,,,
10886,1469901489472,,,,,,,0.3,-0.42,0.82,11.0,-0.7,-0.5,4620,2418,,,,,,,,,,,,,,,,,
10906,1469901489492,,,,,,,0.32,-0.38,0.81,10.9,-0.7,-0.8,4580,2441,,,,,,,,,,,,,,,,,
10926,1469901489515,,,,,,,0.29,-0.37,0.86,11.1,-1.5,-1.3,4580,2410,,,,,,,,,,,,,,,,,
10946,1469901489535,,,,66,,,0.33,-0.39,0.81,11.4,-1.0,-1.1,4640,2418,1.887,2,39.543755,-122.33284,43.88,0.114,337.2,10,2,1.4,0,0.0,-1,0.0,,0.0,0
10966,1469901489555,,,,,,,0.31,-0.42,0.84,11.7,-1.2,-1.2,4580,2395,,,,,,,,,,,,,,,,,
10986,1469901489575,,,,,,,0.34,-0.46,0.81,12.1,-1.0,-0.9,4560,2387,,,,,,,,,,,,,,,,,
11006,1469901489595,,,,,,,0.32,-0.44,0.84,12.4,-1.6,-1.1,4520,2373,,,,,,,,,,,,,,,,,
11026,1469901489603,,,,,,,0.32,-0.54,0.87,13.1,-2.0,-1.2,4500,2373,,,,,,,,,,,,,,,,,
11046,1469901489623,0,226.6,184.8,65,184.4,14.08,0.3,-0.57,0.97,13.6,-1.1,-1.2,4480,2403,1.874,2,39.543774,-122.33284,43.52,0.115,336.9,10,2,1.4,0,0.0,-1,0.0,0.0,0.0,0
11066,1469901489643,,,,,,,0.35,-0.61,0.96,13.9,-0.9,-1.1,4340,2366,,,,,,,,,,,,,,,,,
11086,1469901489663,,,,,,,0.31,-0.66,0.98,14.5,-0.4,-1.0,4420,2358,,,,,,,,,,,,,,,,,
11106,1469901489683,,,,,,,0.36,-0.67,0.96,14.9,-0.1,-0.9,4460,2366,,,,,,,,,,,,,,,,,
11126,1469901489703,,,,,,,0.33,-0.71,1.04,15.1,0.2,-0.7,4380,2352,,,,,,,,,,,,,,,,,
11146,1469901489723,,,,56,,,0.33,-0.73,1.02,15.2,0.9,-0.6,4520,2366,1.871,2,39.543789,-122.332825,43.13,0.117,336.5,10,2,1.4,0,0.0,-1,0.0,,0.0,0
11166,1469901489743,,,,,,,0.31,-0.7,1.04,15.3,0.0,-1.0,4440,2323,,,,,,,,,,,,,,,,,
11186,1469901489763,,,,,,,0.33,-0.66,0.99,15.2,0.2,-1.4,4380,2358,,,,,,,,,,,,,,,,,
11206,1469901489783,,,,,,,0.33,-0.67,1.0,15.3,0.3,-1.6,4360,2309,,,,,,,,,,,,,,,,,
11226,1469901489905,,,,,,,0.3,-0.64,0.99,14.9,0.1,-1.4,4260,2309,,,,,,,,,,,,,,,,,
11246,1469901489925,0,226.9,184.9,45,184.4,,0.29,-0.64,0.93,14.8,0.0,-1.1,4420,2323,1.914,2,39.543819,-122.332817,42.0,0.119,335.7,10,2,1.4,0,0.0,-1,0.0,0.0,0.0,0
11266,1469901489945,,,,,,,0.3,-0.64,0.95,14.8,-1.3,-1.1,4420,2303,,,,,,,,,,,,,,,,,
11286,1469901489965,,,,,,,0.3,-0.58,0.93,14.4,-1.1,-1.1,4260,2316,,,,,,,,,,,,,,,,,
11306,1469901489985,,,,,,,0.3,-0.56,1.0,14.3,-1.7,-1.5,4380,2295,,,,,,,,,,,,,,,,,
11326,1469901490005,,,,,,,0.29,-0.55,1.02,14.1,-1.2,-1.4,4260,2255,,,,,,,,,,,,,,,,,
11346,1469901490025,,,,55,,,0.27,-0.53,0.92,14.2,-1.2,-1.3,4320,2289,1.87,2,39.543819,-122.332817,42.0,0.119,335.7,10,2,1.4,0,0.0,-1,0.0,,0.0,0
11366,1469901490045,,,,,,,0.34,-0.54,0.98,14.3,-1.3,-1.1,4320,2261,,,,,,,,,,,,,,,,,
11386,1469901490065,,,,,,,0.3,-0.59,1.04,14.4,-1.3,-1.1,4220,2255,,,,,,,,,,,,,,,,,
11406,1469901490085,,,,,,,0.29,-0.6,0.91,14.7,-0.9,-1.0,4260,2235,,,,,,,,,,,,,,,,,
11426,1469901490005,,,,,,,0.33,-0.63,0.91,14.8,-0.2,-0.8,4220,2261,,,,,,,,,,,,,,,,,
11446,1469901490025,0,226.5,183.8,59,184.8,,0.36,-0.62,0.95,15.0,-0.6,-0.7,4180,2229,1.933,2,39.543838,-122.332817,41.4,0.12,334.9,10,2,1.4,0,0.0,-1,0.0,0.0,0.0,0
11466,1469901490045,,,,,,,0.32,-0.64,1.03,14.8,-0.2,-0.8,4220,2235,,,,,,,,,,,,,,,,,
11486,1469901490065,,,,,,,0.29,-0.63,1.02,15.1,-0.2,-0.9,4260,2223,,,,,,,,,,,,,,,,,
11506,1469901490085,,,,,,,0.28,-0.58,0.95,15.2,-0.2,-0.6,4220,2235,,,,,,,,,,,,,,,,,
11526,1469901490105,,,,,,,0.34,-0.59,0.95,15.3,-0.4,-0.7,4220,2241,,,,,,,,,,,,,,,,,
11546,1469901490125,,,,57,,,0.32,-0.59,1.01,15.2,-0.8,-0.7,4240,2196,1.874,2,39.543854,-122.332802,40.6,0.121,334.1,10,2,1.4,0,0.0,-1,0.0,,0.0,0
11566,1469901490145,,,,,,,0.33,-0.62,1.03,15.3,-0.7,-0.4,4220,2178,,,,,,,,,,,,,,,,,
11586,1469901490165,,,,,,,0.32,-0.57,0.98,15.4,-0.1,-0.1,4120,2215,,,,,,,,,,,,,,,,,
11606,1469901490185,,,,,,,0.34,-0.54,0.94,15.3,0.2,0.0,4120,2196,,,,,,,,,,,,,,,,,
11626,1469901490205,,,,,,,0.35,-0.56,0.94,15.1,0.3,-0.2,4120,2184,,,,,,,,,,,,,,,,,
11646,1469901490225,0,226.9,184.8,66,184.2,,0.33,-0.57,1.01,15.0,0.6,-0.2,4120,2178,1.885,2,39.543869,-122.332802,40.16,0.122,333.5,10,2,1.4,0,0.0,-1,0.0,0.0,0.0,0
11666,1469901490245,,,,,,,0.32,-0.58,1.01,15.0,0.7,-0.2,4200,2178,,,,,,,,,,,,,,,,,
11686,1469901490265,,,,,,,0.29,-0.58,1.05,15.1,0.2,-0.5,4120,2160,,,,,,,,,,,,,,,,,
11706,1469901490285,,,,,,,0.25,-0.58,1.02,15.3,-0.4,-0.5,4160,2147,,,,,,,,,,,,,,,,,
11726,1469901490305,,,,,,,0.24,-0.55,0.98,15.6,-0.5,-0.4,4040,2153,,,,,,,,,,,,,,,,,
11746,1469901490325,,,,52,,,0.19,-0.55,0.97,16.1,0.3,-0.6,4140,2153,1.919,2,39.543884,-122.332787,39.2,0.124,333.0,10,2,1.4,0,0.0,-1,0.0,,0.0,0
11766,1469901490345,,,,,,,0.2,-0.54,0.97,16.3,-0.4,-0.6,4020,2160,,,,,,,,,,,,,,,,,
11786,1469901490365,,,,,,,0.2,-0.57,0.98,16.4,-0.2,-0.7,4040,2160,,,,,,,,,,,,,,,,,
11806,1469901490385,,,,,,,0.21,-0.6,0.96,16.6,-0.7,-0.8,4100,2147,,,,,,,,,,,,,,,,,
11826,1469901490403,,,,,,,0.25,-0.63,1.03,16.7,-0.3,-1.1,3960,2141,,,,,,,,,,,,,,,,,
11846,1469901490423,0,226.5,184.3,56,184.4,,0.28,-0.65,1.04,16.7,-0.2,-1.5,4040,2160,1.914,2,39.5439,-122.332779,38.39,0.125,332.5,10,2,1.4,0,0.0,-1,0.0,0.0,0.0,0
11866,1469901490443,,,,,,,0.31,-0.65,1.1,16.7,-0.3,-1.5,4060,2141,,,,,,,,,,,,,,,,,
11886,1469901490463,,,,,,,0.34,-0.7,1.12,16.8,0.1,-1.1,4100,2135,,,,,,,,,,,,,,,,,
11906,1469901490483,,,,,,,0.33,-0.68,1.15,16.8,-0.3,-0.9,4020,2147,,,,,,,,,,,,,,,,,
11926,1469901490503,,,,,,,0.31,-0.7,1.15,16.9,-1.0,-0.5,4000,2112,,,,,,,,,,,,,,,,,
11946,1469901490523,,,,52,,,0.3,-0.7,1.11,17.2,-1.2,-0.1,4040,2135,1.902,2,39.543915,-122.332779,38.19,0.126,331.9,10,2,1.4,0,0.0,-1,0.0,,0.0,0
11966,1469901490543,,,,,,,0.26,-0.67,1.09,17.2,-1.2,-0.0,4020,2118,,,,,,,,,,,,,,,,,
11986,1469901490563,,,,,,,0.21,-0.64,1.03,17.3,-1.6,-0.0,4000,2118,,,,,,,,,,,,,,,,,
12006,1469901490583,,,,,,,0.18,-0.55,1.01,17.2,-0.9,0.0,3960,2118,,,,,,,,,,,,,,,,,
12026,1469901490701,,,,,,,0.13,-0.54,0.98,17.2,-0.7,-0.0,3980,2112,,,,,,,,,,,,,,,,,
12046,1469901490721,0,226.5,184.2,48,184.5,14.07,0.08,-0.55,0.92,17.3,-1.2,-0.0,3980,2101,1.889,2,39.543942,-122.332748,37.83,0.128,330.8,10,2,1.4,0,0.0,-1,0.0,0.0,0.0,0
12066,1469901490741,,,,,,,0.08,-0.51,0.94,17.4,-1.0,0.1,3980,2095,,,,,,,,,,,,,,,,,
12086,1469901490761,,,,,,,0.05,-0.51,0.94,17.4,-0.2,0.0,3960,2112,,,,,,,,,,,,,,,,,
12106,1469901490781,,,,,,,0.03,-0.54,0.97,17.3,-0.9,0.1,4000,2095,,,,,,,,,,,,,,,,,
12126,1469901490801,,,,,,,0.01,-0.54,0.97,17.6,-0.7,0.4,4020,2089,,,,,,,,,,,,,,,,,
12146,1469901490821,,,,51,,,0.0,-0.54,0.98,17.7,-0.7,0.3,4000,2101,1.894,2,39.543942,-122.332748,37.83,0.128,330.8,10,2,1.4,0,0.0,-1,0.0,,0.0,0
12166,1469901490841,,,,,,,-0.01,-0.58,1.01,17.7,-0.6,0.4,4000,2084,,,,,,,,,,,,,,,,,
12186,1469901490861,,,,,,,-0.02,-0.63,1.02,17.7,-0.7,0.4,4020,2089,,,,,,,,,,,,,,,,,
12206,1469901490881,,,,,,,-0.01,-0.62,1.03,17.8,-0.4,0.1,3980,2101,,,,,,,,,,,,,,,,,
12226,1469901490805,,,,,,,-0.02,-0.64,1.04,17.6,-1.2,0.0,4000,2124,,,,,,,,,,,,,,,,,
12246,1469901490825,0,226.9,184.4,57,184.4,,-0.01,-0.67,1.02,17.8,-1.8,0.0,4120,2135,1.883,2,39.543953,-122.332741,37.43,0.129,330.3,10,2,1.4,0,0.0,-1,0.0,0.0,0.0,0
12266,1469901490845,,,,,,,-0.0,-0.64,0.99,17.9,-2.5,-0.1,4080,2147,,,,,,,,,,,,,,,,,
12286,1469901490865,,,,,,,0.02,-0.62,1.03,17.9,-3.1,0.0,4000,2135,,,,,,,,,,,,,,,,,
12306,1469901490885,,,,,,,0.01,-0.64,1.01,18.0,-3.2,-0.2,4040,2153,,,,,,,,,,,,,,,,,
12326,1469901490900,,,,,,,-0.0,-0.59,0.92,18.3,-3.8,-0.6,3980,2153,,,,,,,,,,,,,,,,,
12346,1469901490920,,,,52,,,0.01,-0.55,0.92,18.3,-3.6,-0.5,4080,2141,1.914,2,39.543964,-122.332726,37.04,0.13,329.8,10,2,1.4,0,0.0,-1,0.0,,0.0,0
12366,1469901490940,,,,,,,0.0,-0.6,0.91,18.5,-3.8,-0.3,4100,2141,,,,,,,,,,,,,,,,,
12386,1469901490960,,,,,,,-0.02,-0.59,0.89,18.8,-3.9,-0.5,4120,2166,,,,,,,,,,,,,,,,,
12406,1469901490980,,,,,,,-0.04,-0.57,0.82,18.8,-2.8,-0.3,4080,2135,,,,,,,,,,,,,,,,,
12426,1469901491005,,,,,,,-0.06,-0.55,0.86,18.6,-2.1,-0.4,3980,2130,,,,,,,,,,,,,,,,,
12446,1469901491025,0,226.7,184.2,57,183.8,,-0.08,-0.57,0.92,18.7,-1.0,-0.4,3960,2130,1.864,2,39.543976,-122.33271,36.87,0.132,329.5,10,2,1.4,0,0.0,-1,0.0,0.0,0.0,0
12466,1469901491045,,,,,,,-0.06,-0.56,0.94,18.5,-0.9,-0.4,4040,2112,,,,,,,,,,,,,,,,,
12486,1469901491065,,,,,,,-0.05,-0.57,0.87,18.3,-0.7,-0.1,4020,2112,,,,,,,,,,,,,,,,,
12506,1469901491085,,,,,,,-0.01,-0.56,0.92,18.2,-0.9,0.2,3980,2072,,,,,,,,,,,,,,,,,
12526,1469901491105,,,,,,,0.02,-0.6,0.95,18.1,0.2,0.3,3900,2089,,,,,,,,,,,,,,,,,
12546,1469901491125,,,,70,,,0.03,-0.57,0.95,18.1,0.8,0.2,3980,2078,1.9,2,39.543987,-122.332703,36.49,0.132,329.2,10,2,1.4,0,0.0,-1,0.0,,0.0,0
12566,1469901491145,,,,,,,0.02,-0.61,0.96,18.2,1.1,0.3,3920,2084,,,,,,,,,,,,,,,,,
12586,1469901491165,,,,,,,0.01,-0.57,0.91,18.2,0.9,0.5,3900,2067,,,,,,,,,,,,,,,,,
12606,1469901491185,,,,,,,0.01,-0.57,0.92,18.2,1.1,1.0,3900,2084,,,,,,,,,,,,,,,,,
12626,1469901491204,,,,,,,0.01,-0.6,0.88,18.7,0.8,1.0,3900,2089,,,,,,,,,,,,,,,,,
12646,1469901491224,0,226.6,184.5,55,184.7,,0.0,-0.57,0.9,19.0,0.1,1.1,3880,2078,1.886,2,39.543999,-122.332687,36.6,0.134,329.0,10,2,1.4,0,0.0,-1,0.0,0.0,0.0,0
12666,1469901491244,,,,,,,-0.0,-0.57,0.91,19.2,-0.3,0.9,3900,2050,,,,,,,,,,,,,,,,,
12686,1469901491264,,,,,,,0.01,-0.62,0.95,19.5,-0.1,0.5,3860,2067,,,,,,,,,,,,,,,,,
12706,1469901491284,,,,,,,0.03,-0.62,1.0,19.7,0.1,0.2,3920,2067,,,,,,,,,,,,,,,,,
12726,1469901491305,,,,,,,0.05,-0.64,1.0,19.9,0.8,0.4,3860,2023,,,,,,,,,,,,,,,,,
12746,1469901491325,,,,63,,,0.06,-0.65,1.04,20.0,1.4,0.6,3800,2029,1.878,2,39.54401,-122.332672,36.24,0.135,328.8,10,2,1.4,0,0.0,-1,0.0,,0.0,0
12766,1469901491345,,,,,,,0.08,-0.66,1.05,20.2,1.5,0.9,3860,1996,,,,,,,,,,,,,,,,,
12786,1469901491365,,,,,,,0.09,-0.67,1.02,20.4,1.8,1.0,3800,2018,,,,,,,,,,,,,,,,,
12806,1469901491385,,,,,,,0.1,-0.71,1.06,20.6,1.2,1.0,3820,2040,,,,,,,,,,,,,,,,,
12826,1469901491502,,,,,,,0.15,-0.7,1.07,20.7,1.1,0.8,3860,2084,,,,,,,,,,,,,,,,,
12846,1469901491522,0,226.6,183.6,87,183.9,,0.15,-0.7,1.05,20.5,0.8,0.8,3920,2089,1.867,2,39.544029,-122.332649,36.54,0.137,328.4,10,2,1.4,0,0.0,-1,0.0,0.0,0.0,0
12866,1469901491542,,,,,,,0.18,-0.72,1.05,20.5,1.0,0.9,3860,2072,,,,,,,,,,,,,,,,,
12886,1469901491562,,,,,,,0.19,-0.74,1.06,20.4,1.2,1.0,3980,2067,,,,,,,,,,,,,,,,,
12906,1469901491582,,,,,,,0.15,-0.73,1.04,20.6,1.5,1.0,3880,2072,,,,,,,,,,,,,,,,,
12926,1469901491602,,,,,,,0.14,-0.68,0.97,20.8,1.4,1.0,3900,2040,,,,,,,,,,,,,,,,,
12946,1469901491622,,,,73,,,0.1,-0.66,0.96,21.0,1.5,0.9,3820,2018,1.878,2,39.544029,-122.332649,36.54,0.137,328.4,10,2,1.4,0,0.0,-1,0.0,,0.0,0
12966,1469901491642,,,,,,,0.06,-0.7,0.96,21.4,1.7,0.5,3760,2023,,,,,,,,,,,,,,,,,
12986,1469901491662,,,,,,,0.08,-0.64,1.0,21.6,1.5,0.3,3860,2012,,,,,,,,,,,,,,,,,
13006,1469901491682,,,,,,,0.1,-0.65,1.06,21.7,1.9,0.4,3840,2023,,,,,,,,,,,,,,,,,
13026,1469901491602,,,,,,,0.11,-0.66,1.06,21.7,1.9,0.3,3800,2007,,,,,,,,,,,,,,,,,
13046,1469901491622,1,226.4,184.2,56,184.7,14.09,0.13,-0.67,1.01,21.7,2.2,0.5,3820,1996,1.854,2,39.544037,-122.332634,36.19,0.138,328.3,10,2,1.4,0,0.0,-1,0.0,0.0,0.0,0
13066,1469901491642,,,,,,,0.14,-0.67,0.96,21.7,1.6,0.6,3740,1992,,,,,,,,,,,,,,,,,
13086,1469901491662,,,,,,,0.13,-0.65,0.98,21.4,1.3,0.7,3780,2003,,,,,,,,,,,,,,,,,
13106,1469901491682,,,,,,,0.14,-0.65,1.0,21.2,0.4,0.9,3820,2012,,,,,,,,,,,,,,,,,
13126,1469901491702,,,,,,,0.12,-0.66,1.0,21.1,0.3,0.9,3760,2018,,,,,,,,,,,,,,,,,
13146,1469901491722,,,,59,,,0.11,-0.66,0.95,20.9,-0.4,0.9,3760,2007,1.923,2,39.544044,-122.332619,35.85,0.139,328.2,10,2,1.4,0,0.0,-1,0.0,,0.0,0
13166,1469901491742,,,,,,,0.1,-0.63,0.9,20.8,-0.4,0.7,3720,2012,,,,,,,,,,,,,,,,,
13186,1469901491762,,,,,,,0.09,-0.62,0.89,20.8,-0.4,0.8,3800,2023,,,,,,,,,,,,,,,,,
13206,1469901491782,,,,,,,0.09,-0.61,0.93,20.7,-0.8,1.0,3840,2040,,,,,,,,,,,,,,,,,
13226,1469901491805,,,,,,,0.09,-0.63,0.97,20.5,-0.4,1.1,3840,2029,,,,,,,,,,,,,,,,,
13246,1469901491825,0,226.8,184.1,76,184.7,,0.09,-0.61,1.05,20.3,0.4,0.9,3800,2050,1.908,2,39.544052,-122.332611,35.34,0.139,328.2,10,2,1.4,0,0.0,-1,0.0,0.0,0.0,0
13266,1469901491845,,,,,,,0.09,-0.61,1.04,20.1,1.2,0.6,3860,2040,,,,,,,,,,,,,,,,,
13286,1469901491865,,,,,,,0.09,-0.6,1.08,20.0,2.0,0.4,3940,2055,,,,,,,,,,,,,,,,,
13306,1469901491885,,,,,,,0.06,-0.59,1.02,19.7,2.6,0.5,3940,2078,,,,,,,,,,,,,,,,,
13326,1469901491898,,,,,,,0.07,-0.57,1.01,19.5,2.5,0.4,3980,2089,,,,,,,,,,,,,,,,,
13346,1469901491918,,,,94,,,0.06,-0.55,0.97,19.4,2.2,0.6,3880,2095,1.921,2,39.54406,-122.332581,35.19,0.141,328.1,10,2,1.4,0,0.0,-1,0.0,,0.0,0
13366,1469901491938,,,,,,,0.09,-0.58,0.98,19.2,2.5,0.5,3960,2095,,,,,,,,,,,,,,,,,
13386,1469901491958,,,,,,,0.07,-0.57,0.98,19.2,2.2,0.0,3860,2061,,,,,,,,,,,,,,,,,
13406,1469901491978,,,,,,,0.08,-0.55,0.96,19.0,1.5,-0.1,3840,2055,,,,,,,,,,,,,,,,,
13426,1469901491996,,,,,,,0.09,-0.61,0.99,18.8,2.5,0.0,3780,2033,,,,,,,,,,,,,,,,,
13446,1469901492016,0,226.7,184.1,45,184.4,,0.09,-0.57,0.98,18.5,2.4,-0.2,3800,2018,1.907,2,39.544067,-122.332573,35.32,0.142,328.1,10,2,1.4,0,0.0,-1,0.0,0.0,0.0,0
13466,1469901492036,,,,,,,0.07,-0.57,1.03,18.2,3.0,0.1,3680,2012,,,,,,,,,,,,,,,,,
13486,1469901492056,,,,,,,0.05,-0.56,1.01,18.0,3.4,0.0,3760,2007,,,,,,,,,,,,,,,,,
13506,1469901492076,,,,,,,0.03,-0.56,0.96,17.9,3.0,-0.2,3760,2012,,,,,,,,,,,,,,,,,
13526,1469901492104,,,,,,,0.04,-0.56,0.95,17.8,2.1,-0.4,3780,2023,,,,,,,,,,,,,,,,,
13546,1469901492124,,,,48,,,0.05,-0.54,0.95,17.7,2.0,-0.6,3800,2023,1.883,2,39.544075,-122.332558,34.96,0.143,328.1,10,2,1.4,0,0.0,-1,0.0,,0.0,0
13566,1469901492144,,,,,,,0.05,-0.61,1.02,17.8,2.2,-0.7,3860,2029,,,,,,,,,,,,,,,,,
13586,1469901492164,,,,,,,0.04,-0.6,1.0,18.1,2.5,-1.3,3820,2023,,,,,,,,,,,,,,,,,
13606,1469901492184,,,,,,,0.01,-0.59,0.99,18.1,3.2,-1.7,3760,2029,,,,,,,,,,,,,,,,,
13626,1469901492303,,,,,,,0.02,-0.53,0.95,18.1,2.9,-1.8,3860,2033,,,,,,,,,,,,,,,,,
13646,1469901492323,0,227.2,184.1,43,184.6,,0.05,-0.54,1.01,18.0,3.0,-1.7,3800,2033,1.918,2,39.544083,-122.33252,35.08,0.145,328.0,10,2,1.4,0,0.0,-1,0.0,0.0,0.0,0
13666,1469901492343,,,,,,,0.08,-0.53,1.01,17.9,2.3,-1.4,3820,2029,,,,,,,,,,,,,,,,,
13686,1469901492363,,,,,,,0.08,-0.52,1.03,17.8,2.1,-1.3,3860,2029,,,,,,,,,,,,,,,,,
13706,1469901492383,,,,,,,0.07,-0.52,1.02,17.7,2.0,-1.2,3780,2012,,,,,,,,,,,,,,,,,
13726,1469901492403,,,,,,,0.02,-0.55,1.03,17.8,1.8,-1.3,3800,2012,,,,,,,,,,,,,,,,,
13746,1469901492423,,,,52,,,0.0,-0.55,0.99,18.1,0.7,-1.9,3780,2012,1.903,2,39.544083,-122.33252,35.08,0.145,328.0,10,2,1.4,0,0.0,-1,0.0,,0.0,0
13766,1469901492443,,,,,,,0.0,-0.51,0.98,18.3,-0.6,-2.1,3740,2007,,,,,,,,,,,,,,,,,
13786,1469901492463,,,,,,,0.02,-0.56,0.98,18.4,-0.8,-2.0,3800,2003,,,,,,,,,,,,,,,,,
13806,1469901492483,,,,,,,0.01,-0.55,1.0,18.5,-0.9,-2.0,3780,2003,,,,,,,,,,,,,,,,,
13826,1469901492402,,,,,,,0.01,-0.57,1.02,18.8,-0.4,-2.0,3800,2003,,,,,,,,,,,,,,,,,
13846,1469901492422,0,226.6,183.8,55,184.1,,0.01,-0.57,0.98,19.1,-0.2,-2.0,3780,2012,1.878,2,39.54409,-122.332504,35.34,0.146,327.8,10,2,1.4,0,0.0,-1,0.0,0.0,0.0,0
13866,1469901492442,,,,,,,0.03,-0.54,0.98,19.1,-0.4,-2.3,3780,2018,,,,,,,,,,,,,,,,,
13886,1469901492462,,,,,,,0.04,-0.54,0.97,19.1,-0.4,-2.3,3820,2018,,,,,,,,,,,,,,,,,
13906,1469901492482,,,,,,,0.05,-0.55,0.97,19.3,-0.3,-2.3,3760,2023,,,,,,,,,,,,,,,,,
13926,1469901492502,,,,,,,0.04,-0.57,0.94,19.5,-0.2,-2.5,3780,2029,,,,,,,,,,,,,,,,,
13946,1469901492522,,,,48,,,0.04,-0.56,0.92,19.6,-0.8,-2.4,3800,2023,1.878,2,39.544094,-122.332481,35.45,0.147,327.6,10,2,1.4,0,0.0,-1,0.0,,0.0,0
13966,1469901492542,,,,,,,0.05,-0.59,0.93,19.9,-1.6,-2.4,3780,2044,,,,,,,,,,,,,,,,,
13986,1469901492562,,,,,,,0.08,-0.58,0.93,20.0,-1.9,-2.5,3820,2033,,,,,,,,,,,,,,,,,
14006,1469901492582,,,,,,,0.09,-0.6,1.0,20.1,-1.4,-2.4,3840,2033,,,,,,,,,,,,,,,,,
14026,1469901492601,,,,,,,0.09,-0.61,0.99,20.1,-0.6,-2.5,3820,2044,,,,,,,,,,,,,,,,,
14046,1469901492621,1,226.9,184.0,48,184.5,14.08,0.06,-0.59,1.01,20.1,0.1,-2.4,3820,2033,1.918,2,39.544098,-122.332466,35.4,0.148,327.4,10,2,1.4,0,0.0,-1,0.0,0.0,0.0,0
14066,1469901492641,,,,,,,0.05,-0.57,0.99,20.1,-0.1,-2.5,3860,2050,,,,,,,,,,,,,,,,,
14086,1469901492661,,,,,,,0.04,-0.62,0.97,20.2,-0.2,-2.4,3900,2050,,,,,,,,,,,,,,,,,
14106,1469901492681,,,,,,,0.05,-0.64,0.93,20.4,-0.8,-2.6,3840,2044,,,,,,,,,,,,,,,,,
14126,1469901492701,,,,,,,0.08,-0.63,0.91,20.3,-1.2,-2.5,3820,2044,,,,,,,,,,,,,,,,,
14146,1469901492721,,,,51,,,0.1,-0.68,0.91,20.2,-1.6,-2.3,3820,2033,1.883,2,39.544102,-122.332458,35.38,0.148,327.1,10,2,1.4,0,0.0,-1,0.0,,0.0,0
14166,1469901492741,,,,,,,0.08,-0.69,0.93,20.3,-0.9,-2.3,3860,2012,,,,,,,,,,,,,,,,,
14186,1469901492761,,,,,,,0.07,-0.66,0.96,20.4,-0.9,-2.0,3720,2023,,,,,,,,,,,,,,,,,
14206,1469901492781,,,,,,,0.05,-0.64,0.93,20.4,-1.2,-1.8,3780,2007,,,,,,,,,,,,,,,,,
14226,1469901492802,,,,,,,0.06,-0.65,0.9,20.5,-1.4,-1.5,3860,2023,,,,,,,,,,,,,,,,,
14246,1469901492822,0,226.5,184.1,44,184.5,,0.06,-0.61,0.96,20.3,-0.9,-1.5,3840,2018,1.888,2,39.544106,-122.332428,35.22,0.15,326.9,10,2,1.4,0,0.0,-1,0.0,0.0,0.0,0
14266,1469901492842,,,,,,,0.06,-0.62,0.98,20.1,-0.4,-1.4,3760,2044,,,,,,,,,,,,,,,,,
14286,1469901492862,,,,,,,0.06,-0.63,1.02,20.0,0.4,-1.2,3900,2018,,,,,,,,,,,,,,,,,
14306,1469901492882,,,,,,,0.02,-0.61,1.0,20.0,1.3,-1.2,3840,2012,,,,,,,,,,,,,,,,,
14326,1469901492899,,,,,,,-0.0,-0.6,1.02,20.0,1.9,-0.9,3840,2033,,,,,,,,,,,,,,,,,
14346,1469901492919,,,,42,,,-0.0,-0.58,1.0,20.1,1.9,-0.6,3800,2040,1.882,2,39.544106,-122.33242,35.12,0.15,326.7,10,2,1.4,0,0.0,-1,0.0,,0.0,0
14366,1469901492939,,,,,,,0.03,-0.62,1.03,20.0,2.4,-0.2,3840,2044,,,,,,,,,,,,,,,,,
14386,1469901492959,,,,,,,0.07,-0.62,1.02,19.6,2.3,-0.2,3900,2050,,,,,,,,,,,,,,,,,
14406,1469901492979,,,,,,,0.09,-0.62,0.98,19.4,1.7,0.1,3880,2044,,,,,,,,,,,,,,,,,
14426,1469901493104,,,,,,,0.1,-0.64,0.99,19.2,2.5,0.4,3880,2050,,,,,,,,,,,,,,,,,
14446,1469901493124,1,227.4,184.7,59,185.0,,0.09,-0.6,1.01,18.8,2.5,0.6,3880,2033,1.853,2,39.544109,-122.332382,35.61,0.152,326.2,10,2,1.4,0,0.0,-1,0.0,0.0,0.0,0
14466,1469901493144,,,,,,,0.05,-0.6,0.99,18.6,2.5,0.7,3880,2040,,,,,,,,,,,,,,,,,
14486,1469901493164,,,,,,,0.02,-0.59,0.99,18.6,1.4,0.8,3860,2029,,,,,,,,,,,,,,,,,
14506,1469901493184,,,,,,,0.03,-0.59,0.94,18.6,-0.0,1.0,3880,2033,,,,,,,,,,,,,,,,,
14526,1469901493204,,,,,,,0.03,-0.59,0.92,18.5,-0.8,1.1,3860,2033,,,,,,,,,,,,,,,,,
14546,1469901493224,,,,46,,,0.04,-0.59,0.95,18.2,-0.8,1.0,3880,2033,1.883,2,39.544109,-122.332382,35.61,0.152,326.2,10,2,1.4,0,0.0,-1,0.0,,0.0,0
14566,1469901493244,,,,,,,0.04,-0.64,1.0,18.2,-0.1,1.0,3860,2029,,,,,,,,,,,,,,,,,
14586,1469901493264,,,,,,,0.01,-0.61,0.92,18.4,0.5,0.6,3760,2029,,,,,,,,,,,,,,,,,
14606,1469901493284,,,,,,,0.0,-0.6,0.96,18.4,1.1,0.4,3840,2040,,,,,,,,,,,,,,,,,
14626,1469901493205,,,,,,,0.02,-0.57,0.96,18.2,0.8,0.5,3760,2055,,,,,,,,,,,,,,,,,
14646,1469901493225,0,226.9,184.2,47,184.7,,0.03,-0.58,0.99,18.3,0.5,0.6,3900,2040,1.888,2,39.544109,-122.332367,35.53,0.153,326.0,10,2,1.4,0,0.0,-1,0.0,0.0,0.0,0
14666,1469901493245,,,,,,,0.07,-0.57,1.01,18.2,0.5,0.6,3900,2044,,,,,,,,,,,,,,,,,
14686,1469901493265,,,,,,,0.07,-0.55,1.01,18.3,0.4,0.7,3920,2040,,,,,,,,,,,,,,,,,
14706,1469901493285,,,,,,,0.06,-0.61,0.96,18.4,1.0,0.8,3880,2033,,,,,,,,,,,,,,,,,
14726,1469901493304,,,,,,,0.06,-0.59,0.95,18.7,1.4,0.5,3920,2050,,,,,,,,,,,,,,,,,
14746,1469901493324,,,,63,,,0.05,-0.58,0.93,19.0,1.4,0.1,3880,2050,1.863,2,39.544109,-122.332344,35.56,0.154,325.6,10,2,1.4,0,0.0,-1,0.0,,0.0,0
14766,1469901493344,,,,,,,0.05,-0.56,0.93,19.0,1.1,-0.1,3880,2050,,,,,,,,,,,,,,,,,
14786,1469901493364,,,,,,,0.08,-0.58,0.94,19.1,0.0,-0.2,3960,2050,,,,,,,,,,,,,,,,,
14806,1469901493384,,,,,,,0.06,-0.6,0.92,19.1,-0.6,-0.2,3860,2072,,,,,,,,,,,,,,,,,
14826,1469901493403,,,,,,,0.05,-0.59,0.93,19.0,-1.6,-0.0,3880,2067,,,,,,,,,,,,,,,,,
14846,1469901493423,0,227.3,184.2,57,184.7,,0.01,-0.64,0.95,18.9,-1.3,0.5,3920,2072,1.863,2,39.544109,-122.332329,35.39,0.155,325.4,10,2,1.4,0,0.0,-1,0.0,0.0,0.0,0
14866,1469901493443,,,,,,,-0.0,-0.65,1.01,18.9,-1.0,0.4,3940,2061,,,,,,,,,,,,,,,,,
14886,1469901493463,,,,,,,-0.02,-0.65,1.06,18.9,-0.4,0.3,3900,2084,,,,,,,,,,,,,,,,,
14906,1469901493483,,,,,,,-0.07,-0.63,1.09,18.9,-0.1,0.2,3860,2067,,,,,,,,,,,,,,,,,
14926,1469901493502,,,,,,,-0.1,-0.64,1.08,18.9,0.8,-0.1,3940,2078,,,,,,,,,,,,,,,,,
14946,1469901493522,,,,64,,,-0.17,-0.63,1.06,19.2,1.1,-0.2,3940,2072,1.867,2,39.544106,-122.332306,35.77,0.156,325.2,10,2,1.4,0,0.0,-1,0.0,,0.0,0
14966,1469901493542,,,,,,,-0.18,-0.6,1.05,19.2,1.4,-0.1,3940,2061,,,,,,,,,,,,,,,,,
14986,1469901493562,,,,,,,-0.19,-0.58,1.01,19.2,1.4,-0.1,4000,2095,,,,,,,,,,,,,,,,,
15006,1469901493582,,,,,,,-0.19,-0.58,1.01,19.2,1.7,-0.2,4000,2084,,,,,,,,,,,,,,,,,
15026,1469901493602,,,,,,,-0.18,-0.55,0.97,19.0,1.2,0.3,4020,2106,,,,,,,,,,,,,,,,,
15046,1469901493622,0,226.9,183.9,60,184.4,14.08,-0.17,-0.59,0.92,19.0,1.4,0.3,3940,2112,1.909,2,39.544106,-122.332291,35.8,0.157,324.9,10,2,1.4,0,0.0,-1,0.0,0.0,0.0,0
15066,1469901493642,,,,,,,-0.16,-0.61,0.93,19.1,1.7,0.2,4040,2112,,,,,,,,,,,,,,,,,
15086,1469901493662,,,,,,,-0.14,-0.55,0.87,18.8,1.4,0.5,3880,2106,,,,,,,,,,,,,,,,,
15106,1469901493682,,,,,,,-0.14,-0.58,0.84,18.5,1.7,0.8,3940,2124,,,,,,,,,,,,,,,,,
15126,1469901493702,,,,,,,-0.14,-0.58,0.86,18.3,1.7,0.7,4080,2124,,,,,,,,,,,,,,,,,
15146,1469901493722,,,,46,,,-0.13,-0.57,0.83,18.2,1.0,0.8,3980,2106,1.851,2,39.544102,-122.33226,35.96,0.159,324.8,10,2,1.4,0,0.0,-1,0.0,,0.0,0
15166,1469901493742,,,,,,,-0.12,-0.56,0.83,18.0,1.4,0.9,4020,2089,,,,,,,,,,,,,,,,,
15186,1469901493762,,,,,,,-0.11,-0.61,0.86,18.1,1.4,0.8,4040,2130,,,,,,,,,,,,,,,,,
15206,1469901493782,,,,,,,-0.08,-0.55,0.85,17.9,1.3,1.0,4020,2112,,,,,,,,,,,,,,,,,
15226,1469901493904,,,,,,,-0.04,-0.57,0.9,17.7,1.7,1.1,4060,2106,,,,,,,,,,,,,,,,,
15246,1469901493924,0,226.9,184.1,66,184.5,,-0.04,-0.56,0.9,17.8,2.5,0.8,4080,2118,1.893,2,39.544098,-122.332222,36.2,0.161,324.7,10,2,1.4,0,0.0,-1,0.0,0.0,0.0,0
15266,1469901493944,,,,,,,-0.01,-0.52,0.91,17.6,2.5,1.0,4060,2141,,,,,,,,,,,,,,,,,
15286,1469901493964,,,,,,,0.02,-0.53,0.93,17.6,2.8,1.0,4000,2147,,,,,,,,,,,,,,,,,
15306,1469901493984,,,,,,,0.02,-0.55,0.92,17.7,3.3,0.6,4200,2141,,,,,,,,,,,,,,,,,
15326,1469901494004,,,,,,,0.04,-0.5,0.87,17.6,3.2,0.8,4040,2153,,,,,,,,,,,,,,,,,
15346,1469901494024,,,,57,,,0.05,-0.55,0.85,17.6,3.7,0.6,4040,2147,1.874,2,39.544098,-122.332222,36.2,0.161,324.7,10,2,1.4,0,0.0,-1,0.0,,0.0,0
15366,1469901494044,,,,,,,0.01,-0.54,0.87,17.6,3.3,0.2,4120,2135,,,,,,,,,,,,,,,,,
15386,1469901494064,,,,,,,0.03,-0.53,0.83,17.7,4.4,0.2,3960,2135,,,,,,,,,,,,,,,,,
15406,1469901494084,,,,,,,0.0,-0.55,0.82,17.8,4.6,-0.1,3980,2135,,,,,,,,,,,,,,,,,
15426,1469901494005,,,,,,,-0.04,-0.56,0.88,17.8,5.0,-0.2,4020,2153,,,,,,,,,,,,,,,,,
15446,1469901494025,0,227.0,184.1,73,184.1,,-0.05,-0.53,0.95,17.7,5.4,-0.1,4140,2147,1.867,2,39.544094,-122.332214,36.51,0.161,324.7,10,2,1.4,0,0.0,-1,0.0,0.0,0.0,0
15466,1469901494045,,,,,,,-0.11,-0.51,1.0,17.5,5.3,-0.3,3980,2160,,,,,,,,,,,,,,,,,
15486,1469901494065,,,,,,,-0.14,-0.54,1.0,17.3,4.8,-0.1,4160,2178,,,,,,,,,,,,,,,,,
15506,1469901494085,,,,,,,-0.16,-0.61,0.99,17.2,3.6,0.3,4080,2166,,,,,,,,,,,,,,,,,
15526,1469901494103,,,,,,,-0.15,-0.6,1.0,17.2,3.0,0.2,3980,2166,,,,,,,,,,,,,,,,,
15546,1469901494123,,,,52,,,-0.14,-0.55,1.0,16.9,1.4,0.4,4080,2166,1.934,2,39.544086,-122.332184,37.0,0.163,324.7,10,2,1.4,0,0.0,-1,0.0,,0.0,0
15566,1469901494143,,,,,,,-0.14,-0.59,0.96,16.8,1.0,0.3,4000,2184,,,,,,,,,,,,,,,,,
15586,1469901494163,,,,,,,-0.14,-0.52,0.93,16.6,0.0,-0.0,4280,2196,,,,,,,,,,,,,,,,,
15606,1469901494183,,,,,,,-0.15,-0.46,0.89,16.2,-0.7,0.2,4160,2184,,,,,,,,,,,,,,,,,
15626,1469901494205,,,,,,,-0.12,-0.47,0.9,16.1,-0.8,-0.0,4260,2184,,,,,,,,,,,,,,,,,
15646,1469901494225,0,226.8,184.1,65,184.5,,-0.1,-0.43,0.97,15.6,-1.3,0.3,4240,2209,1.837,2,39.544083,-122.332176,37.08,0.164,324.6,10,2,1.4,0,0.0,-1,0.0,0.0,0.0,0
15666,1469901494245,,,,,,,-0.1,-0.53,1.01,15.3,-0.5,0.6,4200,2215,,,,,,,,,,,,,,,,,
15686,1469901494265,,,,,,,-0.11,-0.47,0.99,15.2,-0.5,0.3,4260,2196,,,,,,,,,,,,,,,,,
15706,1469901494285,,,,,,,-0.12,-0.43,0.93,14.7,-0.1,0.6,4320,2196,,,,,,,,,,,,,,,,,
15726,1469901494305,,,,,,,-0.1,-0.45,0.91,14.6,-0.1,0.5,4060,2209,,,,,,,,,,,,,,,,,
15746,1469901494325,,,,50,,,-0.12,-0.44,0.94,14.5,0.0,0.2,4200,2235,1.817,2,39.544079,-122.332161,37.4,0.164,324.7,10,2,1.4,0,0.0,-1,0.0,,0.0,0
15766,1469901494345,,,,,,,-0.13,-0.46,1.02,14.2,0.5,0.4,4120,2223,,,,,,,,,,,,,,,,,
15786,1469901494365,,,,,,,-0.13,-0.45,1.03,13.8,0.6,0.2,4140,2223,,,,,,,,,,,,,,,,,
15806,1469901494385,,,,,,,-0.17,-0.45,1.01,13.7,0.1,0.3,4220,2209,,,,,,,,,,,,,,,,,
15826,1469901494403,,,,,,,-0.16,-0.43,0.95,13.6,0.6,0.1,4300,2235,,,,,,,,,,,,,,,,,
15846,1469901494423,0,227.0,184.3,57,184.8,,-0.2,-0.39,0.92,13.6,-0.6,0.1,4380,2229,1.889,2,39.544071,-122.332138,37.76,0.166,324.7,10,2,1.4,0,0.0,-1,0.0,0.0,0.0,0
15866,1469901494443,,,,,,,-0.16,-0.45,0.91,13.6,-0.6,0.3,4220,2229,,,,,,,,,,,,,,,,,
15886,1469901494463,,,,,,,-0.15,-0.41,0.89,13.2,-0.1,0.3,4380,2247,,,,,,,,,,,,,,,,,
15906,1469901494483,,,,,,,-0.17,-0.4,0.87,12.4,0.2,0.7,4100,2229,,,,,,,,,,,,,,,,,
15926,1469901494502,,,,,,,-0.17,-0.4,0.86,12.1,1.2,0.5,4120,2247,,,,,,,,,,,,,,,,,
15946,1469901494522,,,,47,,,-0.15,-0.37,0.92,11.8,0.2,0.4,4280,2247,1.938,2,39.544064,-122.332123,37.75,0.167,324.6,10,2,1.4,0,0.0,-1,0.0,,0.0,0
15966,1469901494542,,,,,,,-0.18,-0.41,0.91,11.3,0.4,0.7,4200,2247,,,,,,,,,,,,,,,,,
15986,1469901494562,,,,,,,-0.2,-0.4,0.9,11.0,-0.1,0.8,4380,2255,,,,,,,,,,,,,,,,,
16006,1469901494582,,,,,,,-0.24,-0.34,0.86,10.7,-1.0,1.1,4320,2247,,,,,,,,,,,,,,,,,
16026,1469901494702,,,,,,,-0.18,-0.34,0.91,10.5,-1.0,1.0,4420,2275,,,,,,,,,,,,,,,,,
16046,1469901494722,0,226.7,184.0,74,184.7,13.98,-0.17,-0.32,0.91,10.0,-1.1,1.0,4400,2235,1.866,2,39.544052,-122.332085,38.81,0.169,324.6,10,2,1.4,0,0.0,-1,0.0,0.0,0.0,0
16066,1469901494742,,,,,,,-0.17,-0.33,0.89,9.7,-1.1,0.8,4120,2267,,,,,,,,,,,,,,,,,
16086,1469901494762,,,,,,,-0.19,-0.33,0.91,9.6,-0.7,0.4,4260,2275,,,,,,,,,,,,,,,,,
16106,1469901494782,,,,,,,-0.16,-0.38,0.94,9.3,-1.4,0.6,4240,2275,,,,,,,,,,,,,,,,,
16126,1469901494802,,,,,,,-0.2,-0.34,0.88,9.3,-1.7,0.2,4480,2289,,,,,,,,,,,,,,,,,
16146,1469901494822,,,,65,,,-0.18,-0.28,0.87,9.1,-1.6,0.4,4280,2289,1.973,2,39.544052,-122.332085,38.81,0.169,324.6,10,2,1.4,0,0.0,-1,0.0,,0.0,0
16166,1469901494842,,,,,,,-0.13,-0.28,0.85,8.9,-1.9,0.3,4520,2303,,,,,,,,,,,,,,,,,
16186,1469901494862,,,,,,,-0.14,-0.27,0.82,8.6,-1.2,0.3,4160,2295,,,,,,,,,,,,,,,,,
16206,1469901494882,,,,,,,-0.15,-0.25,0.85,8.3,-1.1,0.1,4140,2309,,,,,,,,,,,,,,,,,
16226,1469901494806,,,,,,,-0.15,-0.29,0.88,8.1,-1.3,0.3,4340,2309,,,,,,,,,,,,,,,,,
16246,1469901494826,0,227.0,184.6,57,185.2,,-0.18,-0.27,0.84,7.9,-2.3,0.2,4520,2295,1.966,2,39.544041,-122.332069,39.49,0.17,324.5,10,2,1.4,0,0.0,-1,0.0,0.0,0.0,0
16266,1469901494846,,,,,,,-0.18,-0.27,0.88,8.1,-1.9,-0.2,4520,2309,,,,,,,,,,,,,,,,,
16286,1469901494866,,,,,,,-0.14,-0.31,0.9,8.0,-1.7,0.1,4440,2309,,,,,,,,,,,,,,,,,
16306,1469901494886,,,,,,,-0.15,-0.28,0.93,8.0,-0.5,-0.2,4460,2323,,,,,,,,,,,,,,,,,
16326,1469901494899,,,,,,,-0.12,-0.29,1.0,7.6,-0.6,0.1,4360,2344,,,,,,,,,,,,,,,,,
16346,1469901494919,,,,66,,,-0.16,-0.25,0.93,7.5,-0.2,-0.2,4520,2316,1.917,2,39.544037,-122.332046,39.51,0.171,324.4,10,2,1.4,0,0.0,-1,0.0,,0.0,0
16366,1469901494939,,,,,,,-0.13,-0.24,0.95,7.2,-0.9,-0.4,4400,2316,,,,,,,,,,,,,,,,,
16386,1469901494959,,,,,,,-0.13,-0.27,0.96,7.1,-0.9,-1.0,4540,2336,,,,,,,,,,,,,,,,,
16406,1469901494979,,,,,,,-0.14,-0.21,0.95,6.8,-0.7,-1.1,4240,2336,,,,,,,,,,,,,,,,,
16426,1469901495005,,,,,,,-0.13,-0.22,0.98,6.5,-0.0,-1.4,4280,2344,,,,,,,,,,,,,,,,,
16446,1469901495025,1,227.2,184.2,57,184.7,,-0.14,-0.22,0.94,6.3,-0.8,-1.3,4440,2330,1.954,2,39.544025,-122.332031,40.04,0.173,324.3,10,2,1.4,0,0.0,-1,0.0,0.0,0.0,0
16466,1469901495045,,,,,,,-0.16,-0.19,0.9,6.3,-1.0,-1.4,4420,2358,,,,,,,,,,,,,,,,,
16486,1469901495065,,,,,,,-0.13,-0.2,0.93,6.3,-0.9,-1.1,4520,2323,,,,,,,,,,,,,,,,,
16506,1469901495085,,,,,,,-0.14,-0.2,0.89,6.3,-0.5,-1.2,4340,2358,,,,,,,,,,,,,,,,,
16526,1469901495105,,,,,,,-0.12,-0.17,0.97,6.0,-0.2,-1.0,4460,2330,,,,,,,,,,,,,,,,,
16546,1469901495125,,,,91,,,-0.15,-0.18,0.93,5.7,-0.4,-0.6,4620,2358,1.945,2,39.544018,-122.332008,40.21,0.174,324.1,10,2,1.4,0,0.0,-1,0.0,,0.0,0
16566,1469901495145,,,,,,,-0.15,-0.17,0.97,5.5,-0.6,-0.4,4480,2336,,,,,,,,,,,,,,,,,
16586,1469901495165,,,,,,,-0.15,-0.19,0.98,5.5,-0.8,-0.3,4340,2352,,,,,,,,,,,,,,,,,
16606,1469901495185,,,,,,,-0.16,-0.2,1.0,5.5,-0.6,-0.7,4400,2373,,,,,,,,,,,,,,,,,
16626,1469901495205,,,,,,,-0.15,-0.22,0.98,5.4,-0.7,-0.3,4660,2358,,,,,,,,,,,,,,,,,
16646,1469901495225,0,226.6,183.6,74,184.5,,-0.14,-0.19,0.97,5.5,-0.9,-0.4,4520,2373,1.851,2,39.544006,-122.331993,40.45,0.175,324.0,10,2,1.4,0,0.0,-1,0.0,0.0,0.0,0
16666,1469901495245,,,,,,,-0.12,-0.22,1.02,5.4,-0.6,-0.0,4300,2380,,,,,,,,,,,,,,,,,
16686,1469901495265,,,,,,,-0.11,-0.21,1.0,5.4,-0.3,-0.0,4460,2403,,,,,,,,,,,,,,,,,
16706,1469901495285,,,,,,,-0.11,-0.25,0.99,5.2,-0.6,0.4,4480,2380,,,,,,,,,,,,,,,,,
16726,1469901495305,,,,,,,-0.12,-0.21,0.98,5.1,-0.5,0.2,4620,2380,,,,,,,,,,,,,,,,,
16746,1469901495325,,,,58,,,-0.12,-0.24,1.03,4.9,-0.3,0.5,4400,2366,1.867,2,39.543999,-122.331985,40.62,0.176,323.9,10,2,1.4,0,0.0,-1,0.0,,0.0,0
16766,1469901495345,,,,,,,-0.13,-0.23,1.03,4.8,0.4,0.1,4480,2380,,,,,,,,,,,,,,,,,
16786,1469901495365,,,,,,,-0.14,-0.25,1.02,4.6,0.1,0.4,4640,2395,,,,,,,,,,,,,,,,,
16806,1469901495385,,,,,,,-0.14,-0.22,1.03,4.5,0.2,0.2,4600,2410,,,,,,,,,,,,,,,,,
16826,1469901495502,,,,,,,-0.13,-0.22,0.99,4.5,0.2,0.3,4420,2387,,,,,,,,,,,,,,,,,
16846,1469901495522,0,227.5,184.7,62,185.0,,-0.15,-0.2,1.06,4.3,0.5,0.2,4480,2380,1.971,2,39.54398,-122.331947,41.27,0.178,323.6,10,2,1.4,0,0.0,-1,0.0,0.0,0.0,0
16866,1469901495542,,,,,,,-0.14,-0.18,1.0,4.2,0.3,0.3,4700,2395,,,,,,,,,,,,,,,,,
16886,1469901495562,,,,,,,-0.14,-0.16,1.05,4.0,-0.5,0.4,4660,2395,,,,,,,,,,,,,,,,,
16906,1469901495582,,,,,,,-0.13,-0.14,0.95,3.9,-0.1,0.4,4380,2418,,,,,,,,,,,,,,,,,
16926,1469901495602,,,,,,,-0.14,-0.15,0.99,3.6,-0.4,0.4,4620,2387,,,,,,,,,,,,,,,,,
16946,1469901495622,,,,63,,,-0.13,-0.1,0.92,3.5,-1.0,0.4,4700,2426,1.876,2,39.54398,-122.331947,41.27,0.178,323.6,10,2,1.4,0,0.0,-1,0.0,,0.0,0
16966,1469901495642,,,,,,,-0.13,-0.13,0.92,3.3,-0.8,0.6,4520,2433,,,,,,,,,,,,,,,,,
16986,1469901495662,,,,,,,-0.1,-0.08,0.95,3.1,-1.5,0.3,4500,2426,,,,,,,,,,,,,,,,,
17006,1469901495682,,,,,,,-0.12,-0.07,0.84,2.8,-1.1,0.3,4600,2433,,,,,,,,,,,,,,,,,
17026,1469901495602,,,,,,,-0.11,-0.08,0.9,2.6,-1.4,0.3,4580,2433,,,,,,,,,,,,,,,,,
17046,1469901495622,0,227.1,183.9,63,184.7,14.09,-0.11,-0.11,0.89,2.4,-0.6,0.5,4360,2433,1.965,2,39.543972,-122.331932,41.82,0.179,323.4,10,2,1.4,0,0.0,-1,0.0,0.0,0.0,0
17066,1469901495642,,,,,,,-0.11,-0.1,0.93,2.3,-1.1,0.6,4640,2464,,,,,,,,,,,,,,,,,
17086,1469901495662,,,,,,,-0.13,-0.1,0.9,2.1,-0.6,0.9,4600,2456,,,,,,,,,,,,,,,,,
17106,1469901495682,,,,,,,-0.1,-0.08,0.94,2.1,-0.2,0.7,4660,2441,,,,,,,,,,,,,,,,,
17126,1469901495701,,,,,,,-0.09,-0.13,0.96,1.8,0.1,0.9,4760,2449,,,,,,,,,,,,,,,,,
17146,1469901495721,,,,42,,,-0.09,-0.1,0.94,1.8,-0.2,1.0,4620,2433,1.866,2,39.543961,-122.331909,41.99,0.181,323.3,10,2,1.4,0,0.0,-1,0.0,,0.0,0
17166,1469901495741,,,,,,,-0.1,-0.13,1.0,1.8,0.3,1.4,4540,2449,,,,,,,,,,,,,,,,,
17186,1469901495761,,,,,,,-0.12,-0.14,1.01,1.5,0.5,1.8,4580,2433,,,,,,,,,,,,,,,,,
17206,1469901495781,,,,,,,-0.15,-0.11,0.95,1.4,-0.3,1.9,4820,2464,,,,,,,,,,,,,,,,,
17226,1469901495804,,,,,,,-0.15,-0.11,0.97,1.2,0.3,2.0,4400,2464,,,,,,,,,,,,,,,,,
17246,1469901495824,1,227.1,184.1,63,184.4,,-0.15,-0.06,0.92,0.9,-0.7,1.7,4800,2433,1.851,2,39.543949,-122.331894,42.49,0.182,323.1,10,2,1.4,0,0.0,-1,0.0,0.0,0.0,0
17266,1469901495844,,,,,,,-0.17,-0.06,0.87,0.6,-0.5,1.9,4700,2489,,,,,,,,,,,,,,,,,
17286,1469901495864,,,,,,,-0.16,-0.02,0.95,0.6,-0.3,1.6,4640,2464,,,,,,,,,,,,,,,,,
