"Interval"|"ms"|0|0|1,"Utc"|"ms"|0|0|1,"FuelLevel"|"F"|0|100|5,"OilTemp"|"F"|0.0|300.0|5,"Coolant"|"F"|0.0|300.0|5,"OilPress"|"PSI"|0|150|10,"EngineTemp"|"F"|0.0|300.0|5,"Battery"|"Volts"|0.0|20.0|1,"AccelX"|"G"|-3.0|3.0|50,"AccelY"|"G"|-3.0|3.0|50,"AccelZ"|"G"|-3.0|3.0|50,"Yaw"|"Deg/Sec"|-300.0|300.0|50,"Pitch"|"Deg/Sec"|-300.0|300.0|50,"Roll"|"Deg/Sec"|-300.0|300.0|50,"RPM"|""|0|10000|50,"Driveshaft"|"RPM"|0|5000|50,"GearRatio"|""|-5.0|5.0|10,"Gear"|""|-1|5|10,"Latitude"|"Degrees"|-180.0|180.0|10,"Longitude"|"Degrees"|-180.0|180.0|10,"Speed"|"MPH"|0.0|150.0|10,"Distance"|"Miles"|0.0|0.0|10,"Altitude"|"Feet"|0.0|4000.0|10,"GPSSats"|""|0|20|10,"GPSQual"|""|0|5|10,"GPSDOP"|""|0.0|20.0|10,"LapCount"|""|0|0|10,"LapTime"|"Min"|0.0|0.0|10,"Sector"|""|0|0|10,"SectorTime"|"Min"|0.0|0.0|10,"PredTime"|"Min"|0.0|0.0|5,"ElapsedTime"|"Min"|0.0|0.0|10,"CurrentLap"|""|0|0|10
5086,1469901729502,,,,,,,0.15,0.7,1.09,-18.3,2.4,-0.3,5620,2901,,,,,,,,,,,,,,,,,
5106,1469901729522,,,,,,,0.17,0.7,1.11,-18.4,2.2,-0.1,5480,2901,,,,,,,,,,,,,,,,,
5126,1469901729542,,,,,,,0.15,0.64,0.98,-18.3,2.5,-0.2,5480,2869,,,,,,,,,,,,,,,,,
5146,1469901729562,,,,61,,,0.12,0.63,1.03,-18.1,2.2,-0.3,5480,2890,1.895,2,39.536198,-122.326813,52.59,0.001,304.8,9,2,2.0,0,0.0,-1,0.0,,0.0,0
5166,1469901729582,,,,,,,0.12,0.67,1.08,-18.3,1.3,-0.4,5540,2858,,,,,,,,,,,,,,,,,
5186,1469901729602,,,,,,,0.09,0.6,1.09,-18.1,1.6,-0.1,5520,2869,,,,,,,,,,,,,,,,,
5206,1469901729622,,,,,,,0.07,0.56,1.04,-18.2,3.2,-0.1,5400,2838,,,,,,,,,,,,,,,,,
5226,1469901729642,,,,,,,0.13,0.7,1.13,-17.9,3.9,-0.0,5380,2912,,,,,,,,,,,,,,,,,
5246,1469901729662,0,260.9,197.5,65,200.5,,0.15,0.69,0.99,-18.6,3.8,0.0,5300,2869,1.84,2,39.536217,-122.326798,52.39,0.003,304.6,9,2,2.0,0,0.0,-1,0.0,0.0,0.0,0
5266,1469901729682,,,,,,,0.18,0.63,1.08,-18.8,2.4,0.3,5360,2912,,,,,,,,,,,,,,,,,
5286,1469901729702,,,,,,,0.2,0.59,1.06,-18.4,2.5,-0.0,5380,2858,,,,,,,,,,,,,,,,,
5306,1469901729722,,,,,,,0.21,0.6,1.01,-18.5,2.3,-0.3,5480,2901,,,,,,,,,,,,,,,,,
5326,1469901729742,,,,,,,0.22,0.68,1.05,-18.4,0.3,-0.1,5540,2901,,,,,,,,,,,,,,,,,
5346,1469901729762,,,,61,,,0.18,0.65,0.93,-18.6,0.9,-0.0,5480,2935,1.903,2,39.536236,-122.326782,52.03,0.004,304.4,9,2,2.0,0,0.0,-1,0.0,,0.0,0
5366,1469901729782,,,,,,,0.16,0.64,0.99,-18.8,1.2,0.1,5420,2901,,,,,,,,,,,,,,,,,
5386,1469901729802,,,,,,,0.14,0.71,0.94,-18.8,-0.3,0.0,5340,2946,,,,,,,,,,,,,,,,,
5406,1469901729822,,,,,,,0.11,0.71,0.87,-18.8,-0.7,-0.3,5480,2935,,,,,,,,,,,,,,,,,
5426,1469901729842,,,,,,,0.06,0.67,0.87,-18.7,0.2,-0.4,5460,2901,,,,,,,,,,,,,,,,,
5446,1469901729862,1,259.9,197.5,57,200.0,,0.09,0.73,0.93,-18.7,1.1,-0.5,5480,2901,1.916,2,39.536255,-122.326759,52.27,0.006,304.4,9,2,2.0,0,0.0,-1,0.0,0.0,0.0,0
5466,1469901729882,,,,,,,0.09,0.79,0.86,-18.7,2.1,-0.7,5380,2880,,,,,,,,,,,,,,,,,
5486,1469901729902,,,,,,,0.09,0.78,0.89,-18.9,1.3,-0.4,5520,2890,,,,,,,,,,,,,,,,,
5506,1469901729917,,,,,,,0.09,0.66,0.89,-18.7,-0.6,-0.3,5380,2901,,,,,,,,,,,,,,,,,
5526,1469901729937,,,,,,,0.06,0.69,0.89,-18.8,-0.8,-0.7,5480,2924,,,,,,,,,,,,,,,,,
5546,1469901729957,,,,77,,,0.06,0.73,0.89,-18.5,-0.5,-0.8,5540,2901,1.915,2,39.53627,-122.326759,51.5,0.007,304.4,9,2,2.0,0,0.0,-1,0.0,,0.0,0
5566,1469901729977,,,,,,,0.1,0.76,0.91,-17.9,0.0,-0.9,5420,2912,,,,,,,,,,,,,,,,,
5586,1469901730002,,,,,,,0.07,0.8,0.88,-17.9,1.4,-1.2,5460,2890,,,,,,,,,,,,,,,,,
5606,1469901730022,,,,,,,0.09,0.79,0.91,-18.0,-0.2,-1.0,5540,2946,,,,,,,,,,,,,,,,,
5626,1469901730042,,,,,,,0.08,0.71,0.91,-17.7,-3.0,-1.0,5480,2935,,,,,,,,,,,,,,,,,
5646,1469901730062,0,261.1,198.2,61,200.7,,0.04,0.73,0.86,-17.4,-3.6,-1.3,5600,2912,1.862,2,39.536289,-122.326744,50.92,0.009,304.4,9,2,2.0,0,0.0,-1,0.0,0.0,0.0,0
5666,1469901730082,,,,,,,0.02,0.68,0.88,-17.1,-2.2,-1.6,5540,2924,,,,,,,,,,,,,,,,,
5686,1469901730202,,,,,,,0.07,0.78,0.94,-17.0,-1.0,-1.7,5600,2901,,,,,,,,,,,,,,,,,
5706,1469901730222,,,,,,,0.1,0.76,0.93,-16.8,1.0,-1.7,5440,2946,,,,,,,,,,,,,,,,,
5726,1469901730242,,,,,,,0.1,0.7,0.93,-16.8,1.3,-1.5,5380,2901,,,,,,,,,,,,,,,,,
5746,1469901730262,,,,71,,,0.1,0.66,1.02,-16.8,0.3,-1.4,5520,2935,1.888,2,39.536324,-122.326721,50.55,0.012,304.6,9,2,2.0,0,0.0,-1,0.0,,0.0,0
5766,1469901730282,,,,,,,0.07,0.64,1.03,-16.6,0.5,-1.6,5440,2858,,,,,,,,,,,,,,,,,
5786,1469901730302,,,,,,,0.03,0.62,1.04,-16.4,2.7,-1.7,5600,2901,,,,,,,,,,,,,,,,,
5806,1469901730322,,,,,,,0.05,0.61,1.13,-16.0,3.7,-2.0,5460,2890,,,,,,,,,,,,,,,,,
5826,1469901730342,,,,,,,0.12,0.69,1.05,-15.7,5.0,-2.4,5480,2901,,,,,,,,,,,,,,,,,
5846,1469901730362,0,260.4,197.5,90,200.0,,0.13,0.64,1.03,-15.9,5.9,-2.2,5560,2880,1.896,2,39.536324,-122.326721,50.55,0.012,304.6,9,2,2.0,0,0.0,-1,0.0,0.0,0.0,0
5866,1469901730382,,,,,,,0.12,0.58,1.08,-15.8,3.7,-1.8,5480,2946,,,,,,,,,,,,,,,,,
5886,1469901730302,,,,,,,0.1,0.59,1.04,-15.2,1.6,-2.0,5520,2924,,,,,,,,,,,,,,,,,
5906,1469901730322,,,,,,,0.05,0.63,0.98,-14.9,1.4,-1.9,5480,2912,,,,,,,,,,,,,,,,,
5926,1469901730342,,,,,,,0.05,0.63,1.01,-14.9,1.5,-2.0,5560,2880,,,,,,,,,,,,,,,,,
5946,1469901730362,,,,42,,,0.1,0.67,1.01,-14.8,2.0,-1.9,5560,2935,1.896,2,39.536343,-122.326706,50.56,0.013,304.6,9,2,2.0,0,0.0,-1,0.0,,0.0,0
5966,1469901730382,,,,,,,0.08,0.67,0.92,-14.9,2.3,-1.6,5380,2912,,,,,,,,,,,,,,,,,
5986,1469901730402,,,,,,,0.06,0.62,0.99,-15.2,1.4,-1.0,5600,2969,,,,,,,,,,,,,,,,,
6006,1469901730422,,,,,,,-0.04,0.65,0.98,-15.6,0.4,-1.1,5580,2890,,,,,,,,,,,,,,,,,
6026,1469901730442,,,,,,,-0.12,0.6,1.01,-15.7,1.5,-0.9,5400,2924,,,,,,,,,,,,,,,,,
6046,1469901730462,0,260.3,197.1,52,200.0,13.93,-0.11,0.61,1.1,-15.4,2.5,-0.6,5440,2924,1.896,2,39.536362,-122.326706,50.98,0.014,304.9,9,2,2.0,0,0.0,-1,0.0,0.0,0.0,0
6066,1469901730482,,,,,,,-0.08,0.68,0.98,-15.6,3.3,-0.2,5460,2924,,,,,,,,,,,,,,,,,
6086,1469901730503,,,,,,,-0.09,0.72,0.97,-16.2,4.4,-0.2,5460,2912,,,,,,,,,,,,,,,,,
6106,1469901730523,,,,,,,-0.05,0.63,1.06,-16.4,4.1,0.1,5500,2901,,,,,,,,,,,,,,,,,
6126,1469901730543,,,,,,,-0.04,0.65,1.05,-16.1,3.7,-0.2,5600,2912,,,,,,,,,,,,,,,,,
6146,1469901730563,,,,73,,,-0.04,0.66,1.02,-16.1,4.3,-0.1,5620,2958,1.886,2,39.536381,-122.326698,50.67,0.016,305.0,9,2,2.0,0,0.0,-1,0.0,,0.0,0
6166,1469901730583,,,,,,,0.01,0.62,1.08,-16.2,4.3,-0.3,5640,2890,,,,,,,,,,,,,,,,,
6186,1469901730603,,,,,,,0.06,0.7,1.06,-15.9,4.2,-0.3,5380,2912,,,,,,,,,,,,,,,,,
6206,1469901730623,,,,,,,0.09,0.68,0.96,-15.8,3.9,-0.2,5400,2912,,,,,,,,,,,,,,,,,
6226,1469901730643,,,,,,,0.09,0.64,0.97,-15.7,2.1,0.0,5460,2946,,,,,,,,,,,,,,,,,
6246,1469901730663,0,261.3,197.6,52,200.2,,0.07,0.62,0.97,-15.5,0.3,-0.1,5480,2946,1.882,2,39.5364,-122.326683,50.65,0.017,305.0,9,2,2.0,0,0.0,-1,0.0,0.0,0.0,0
6266,1469901730683,,,,,,,0.06,0.6,0.96,-15.2,0.4,-0.2,5560,2958,,,,,,,,,,,,,,,,,
6286,1469901730701,,,,,,,0.07,0.63,1.02,-15.4,0.7,-0.2,5500,2912,,,,,,,,,,,,,,,,,
6306,1469901730721,,,,,,,0.1,0.69,1.05,-15.3,0.4,0.1,5460,2890,,,,,,,,,,,,,,,,,
6326,1469901730741,,,,,,,0.09,0.7,0.95,-15.3,0.1,0.3,5440,2912,,,,,,,,,,,,,,,,,
6346,1469901730761,,,,60,,,0.04,0.63,1.03,-15.7,-0.2,0.5,5500,2901,1.894,2,39.536419,-122.326683,50.91,0.019,305.1,9,2,2.0,0,0.0,-1,0.0,,0.0,0
6366,1469901730781,,,,,,,0.02,0.6,1.07,-15.7,-2.2,0.7,5620,2912,,,,,,,,,,,,,,,,,
6386,1469901730802,,,,,,,-0.03,0.57,1.05,-15.2,-2.7,0.3,5420,2890,,,,,,,,,,,,,,,,,
6406,1469901730822,,,,,,,-0.09,0.55,1.02,-15.1,-1.6,0.2,5600,2924,,,,,,,,,,,,,,,,,
6426,1469901730842,,,,,,,-0.09,0.58,1.1,-15.2,0.2,0.1,5660,2912,,,,,,,,,,,,,,,,,
6446,1469901730862,0,260.9,197.6,76,200.1,,-0.05,0.61,1.06,-15.3,1.9,0.1,5520,2935,1.875,2,39.536438,-122.326668,50.63,0.02,305.2,9,2,2.0,0,0.0,-1,0.0,0.0,0.0,0
6466,1469901730882,,,,,,,-0.01,0.59,1.04,-15.5,2.7,0.3,5440,2901,,,,,,,,,,,,,,,,,
6486,1469901730902,,,,,,,-0.01,0.55,1.05,-15.4,1.7,0.5,5580,2901,,,,,,,,,,,,,,,,,
6506,1469901731016,,,,,,,-0.01,0.51,1.05,-15.4,0.5,0.2,5580,2912,,,,,,,,,,,,,,,,,
6526,1469901731036,,,,,,,-0.03,0.56,1.03,-15.7,1.6,0.2,5660,2946,,,,,,,,,,,,,,,,,
6546,1469901731056,,,,68,,,-0.0,0.57,1.1,-15.4,2.1,0.1,5480,2935,1.895,2,39.53648,-122.32666,51.04,0.023,305.2,9,2,2.0,0,0.0,-1,0.0,,0.0,0
6566,1469901731076,,,,,,,0.07,0.6,1.03,-15.2,1.8,0.3,5480,2924,,,,,,,,,,,,,,,,,
6586,1469901731096,,,,,,,0.07,0.57,0.94,-15.5,2.2,0.6,5460,2912,,,,,,,,,,,,,,,,,
6606,1469901731116,,,,,,,0.06,0.56,1.0,-16.0,0.5,0.7,5580,2924,,,,,,,,,,,,,,,,,
6626,1469901731136,,,,,,,0.05,0.6,1.0,-16.3,-0.7,0.5,5520,2890,,,,,,,,,,,,,,,,,
6646,1469901731156,0,261.9,197.9,77,200.2,,0.01,0.61,1.01,-16.8,0.6,0.4,5580,2890,1.903,2,39.53648,-122.32666,51.04,0.023,305.2,9,2,2.0,0,0.0,-1,0.0,0.0,0.0,0
6666,1469901731176,,,,,,,0.06,0.61,1.1,-17.0,0.9,0.5,5480,2924,,,,,,,,,,,,,,,,,
6686,1469901731103,,,,,,,0.08,0.68,1.05,-17.1,1.5,0.3,5480,2890,,,,,,,,,,,,,,,,,
6706,1469901731123,,,,,,,0.09,0.71,1.07,-17.4,1.9,0.4,5440,2890,,,,,,,,,,,,,,,,,
6726,1469901731143,,,,,,,0.1,0.64,1.06,-17.9,0.5,0.9,5480,2858,,,,,,,,,,,,,,,,,
6746,1469901731163,,,,53,,,0.08,0.64,1.03,-18.2,-0.1,0.4,5500,2858,1.96,2,39.536499,-122.32666,51.3,0.025,305.5,9,2,2.0,0,0.0,-1,0.0,,0.0,0
6766,1469901731183,,,,,,,0.08,0.69,1.03,-18.2,0.8,0.0,5560,2890,,,,,,,,,,,,,,,,,
6786,1469901731202,,,,,,,0.13,0.72,1.01,-18.0,1.1,0.3,5340,2890,,,,,,,,,,,,,,,,,
6806,1469901731222,,,,,,,0.1,0.73,0.92,-18.6,1.7,0.6,5520,2890,,,,,,,,,,,,,,,,,
6826,1469901731242,,,,,,,0.11,0.7,0.99,-18.8,0.3,0.8,5520,2869,,,,,,,,,,,,,,,,,
6846,1469901731262,0,261.8,197.2,56,199.7,,0.11,0.67,1.01,-18.4,-1.7,0.6,5460,2880,1.84,2,39.536518,-122.32666,51.3,0.026,305.7,9,2,2.0,0,0.0,-1,0.0,0.0,0.0,0
6866,1469901731282,,,,,,,0.06,0.69,1.0,-18.4,-0.9,0.2,5360,2901,,,,,,,,,,,,,,,,,
6886,1469901731302,,,,,,,0.07,0.69,1.04,-18.4,0.3,0.1,5420,2890,,,,,,,,,,,,,,,,,
6906,1469901731322,,,,,,,0.14,0.72,1.06,-18.2,1.2,-0.0,5460,2912,,,,,,,,,,,,,,,,,
6926,1469901731342,,,,,,,0.13,0.71,0.99,-18.4,1.9,-0.1,5560,2912,,,,,,,,,,,,,,,,,
6946,1469901731362,,,,86,,,0.11,0.65,0.98,-18.4,0.3,0.2,5600,2969,1.889,2,39.536541,-122.326645,51.05,0.028,306.1,9,2,2.0,0,0.0,-1,0.0,,0.0,0
6966,1469901731382,,,,,,,0.08,0.6,0.94,-18.3,-1.2,0.1,5580,2946,,,,,,,,,,,,,,,,,
6986,1469901731402,,,,,,,0.05,0.6,0.91,-18.0,-1.1,-0.2,5600,2946,,,,,,,,,,,,,,,,,
7006,1469901731422,,,,,,,0.06,0.64,0.95,-17.8,0.3,-0.4,5460,2946,,,,,,,,,,,,,,,,,
7026,1469901731442,,,,,,,0.09,0.68,0.99,-17.3,1.1,-0.5,5440,2901,,,,,,,,,,,,,,,,,
7046,1469901731462,0,261.8,197.9,55,200.6,14.08,0.12,0.74,0.9,-17.3,1.6,-0.6,5500,2935,1.881,2,39.53656,-122.326645,50.86,0.029,306.5,9,2,2.0,0,0.0,-1,0.0,0.0,0.0,0
7066,1469901731482,,,,,,,0.13,0.66,0.96,-17.5,1.6,-0.2,5460,2869,,,,,,,,,,,,,,,,,
7086,1469901731502,,,,,,,0.13,0.59,1.06,-17.2,0.5,-0.3,5540,2935,,,,,,,,,,,,,,,,,
7106,1469901731522,,,,,,,0.11,0.57,1.05,-16.8,0.5,-1.0,5540,2880,,,,,,,,,,,,,,,,,
7126,1469901731542,,,,,,,0.09,0.6,1.0,-16.9,1.5,-1.1,5420,2912,,,,,,,,,,,,,,,,,
7146,1469901731562,,,,59,,,0.15,0.61,1.09,-16.6,2.3,-0.8,5420,2912,1.888,2,39.536579,-122.326645,50.89,0.03,306.8,9,2,2.0,0,0.0,-1,0.0,,0.0,0
7166,1469901731582,,,,,,,0.18,0.67,1.03,-16.5,3.0,-0.9,5480,2912,,,,,,,,,,,,,,,,,
7186,1469901731602,,,,,,,0.19,0.68,0.99,-16.8,2.0,-0.8,5380,2890,,,,,,,,,,,,,,,,,
7206,1469901731622,,,,,,,0.2,0.63,0.97,-16.7,-1.0,-0.8,5580,2946,,,,,,,,,,,,,,,,,
7226,1469901731642,,,,,,,0.15,0.58,0.97,-16.5,-1.9,-1.2,5560,2901,,,,,,,,,,,,,,,,,
7246,1469901731662,0,263.0,198.3,70,200.6,,0.09,0.6,0.96,-16.6,-0.7,-1.3,5540,2901,1.91,2,39.536598,-122.326645,50.79,0.032,307.1,9,2,2.0,0,0.0,-1,0.0,0.0,0.0,0
7266,1469901731682,,,,,,,0.08,0.63,1.03,-16.5,-0.3,-1.3,5540,2901,,,,,,,,,,,,,,,,,
7286,1469901731702,,,,,,,0.09,0.67,0.97,-16.5,0.5,-1.4,5520,2935,,,,,,,,,,,,,,,,,
7306,1469901731818,,,,,,,0.04,0.63,1.07,-17.1,1.3,-1.2,5640,2924,,,,,,,,,,,,,,,,,
7326,1469901731838,,,,,,,0.05,0.59,1.1,-17.3,-0.2,-1.0,5540,2946,,,,,,,,,,,,,,,,,
7346,1469901731858,,,,56,,,0.0,0.64,1.06,-17.3,-0.5,-1.6,5540,2901,1.882,2,39.53664,-122.326645,51.26,0.034,307.4,9,2,2.0,0,0.0,-1,0.0,,0.0,0
7366,1469901731878,,,,,,,-0.03,0.67,1.05,-17.3,0.6,-2.0,5500,2901,,,,,,,,,,,,,,,,,
7386,1469901731898,,,,,,,-0.01,0.7,1.1,-17.3,2.3,-2.1,5640,2924,,,,,,,,,,,,,,,,,
7406,1469901731918,,,,,,,0.05,0.79,1.01,-17.2,4.0,-2.0,5580,2946,,,,,,,,,,,,,,,,,
7426,1469901731938,,,,,,,0.07,0.75,1.02,-17.4,4.3,-1.8,5460,2890,,,,,,,,,,,,,,,,,
7446,1469901731958,0,261.6,197.5,56,200.2,,0.1,0.71,1.03,-17.3,3.3,-1.5,5600,2935,1.896,2,39.53664,-122.326645,51.26,0.034,307.4,9,2,2.0,0,0.0,-1,0.0,0.0,0.0,0
7466,1469901731978,,,,,,,0.09,0.68,1.03,-16.9,2.4,-1.8,5460,2890,,,,,,,,,,,,,,,,,
7486,1469901731998,,,,,,,0.07,0.71,1.05,-16.9,2.9,-1.7,5420,2946,,,,,,,,,,,,,,,,,
7506,1469901731917,,,,,,,0.1,0.7,1.12,-16.7,3.1,-1.6,5420,2935,,,,,,,,,,,,,,,,,
7526,1469901731937,,,,,,,0.14,0.73,1.0,-16.1,2.1,-1.3,5500,2924,,,,,,,,,,,,,,,,,
7546,1469901731957,,,,75,,,0.1,0.76,0.98,-16.4,2.4,-1.1,5400,2924,1.868,2,39.536663,-122.326645,51.29,0.036,307.5,9,2,2.0,0,0.0,-1,0.0,,0.0,0
7566,1469901731977,,,,,,,0.08,0.72,1.04,-16.8,0.4,-0.5,5520,2924,,,,,,,,,,,,,,,,,
7586,1469901732003,,,,,,,0.06,0.67,1.01,-16.7,-2.0,-0.6,5560,2924,,,,,,,,,,,,,,,,,
7606,1469901732023,,,,,,,-0.01,0.67,0.98,-16.6,-1.6,-0.6,5540,2924,,,,,,,,,,,,,,,,,
7626,1469901732043,,,,,,,-0.04,0.67,1.04,-16.6,-0.4,-0.8,5500,2890,,,,,,,,,,,,,,,,,
7646,1469901732063,1,261.4,197.8,39,200.4,,-0.02,0.7,1.1,-16.7,0.5,-0.6,5540,2890,1.853,2,39.536682,-122.326645,51.09,0.037,307.6,9,2,2.0,0,0.0,-1,0.0,0.0,0.0,0
7666,1469901732083,,,,,,,-0.01,0.69,1.01,-16.8,1.2,-0.6,5480,2924,,,,,,,,,,,,,,,,,
7686,1469901732102,,,,,,,-0.04,0.66,1.07,-16.9,1.0,-0.4,5440,2901,,,,,,,,,,,,,,,,,
7706,1469901732122,,,,,,,-0.06,0.57,1.09,-16.8,-0.3,-0.3,5440,2935,,,,,,,,,,,,,,,,,
7726,1469901732142,,,,,,,-0.07,0.59,1.07,-16.9,0.2,-0.7,5580,2912,,,,,,,,,,,,,,,,,
7746,1469901732162,,,,61,,,-0.07,0.6,1.08,-16.6,1.4,-0.4,5440,2912,1.903,2,39.536701,-122.326645,51.19,0.039,307.6,9,2,2.0,0,0.0,-1,0.0,,0.0,0
7766,1469901732182,,,,,,,-0.01,0.6,1.17,-16.4,2.1,-0.2,5600,2901,,,,,,,,,,,,,,,,,
7786,1469901732202,,,,,,,0.02,0.68,1.05,-16.3,3.4,-0.6,5480,2935,,,,,,,,,,,,,,,,,
7806,1469901732222,,,,,,,0.04,0.71,1.05,-16.6,4.1,-0.5,5540,2935,,,,,,,,,,,,,,,,,
7826,1469901732242,,,,,,,0.06,0.62,1.1,-16.8,2.9,-0.0,5540,2969,,,,,,,,,,,,,,,,,
7846,1469901732262,0,261.3,198.1,54,200.7,,0.08,0.6,1.04,-16.6,1.1,-0.3,5500,2969,1.847,2,39.536724,-122.326645,51.27,0.04,307.7,9,2,2.0,0,0.0,-1,0.0,0.0,0.0,0
7866,1469901732282,,,,,,,0.05,0.63,1.02,-16.5,0.1,-0.4,5640,2935,,,,,,,,,,,,,,,,,
7886,1469901732302,,,,,,,0.05,0.56,1.02,-16.4,0.2,-0.5,5600,2946,,,,,,,,,,,,,,,,,
7906,1469901732322,,,,,,,0.08,0.64,1.06,-16.2,0.2,-0.4,5580,2935,,,,,,,,,,,,,,,,,
7926,1469901732342,,,,,,,0.13,0.72,0.95,-16.1,1.0,-0.2,5500,2958,,,,,,,,,,,,,,,,,
7946,1469901732362,,,,56,,,0.13,0.68,0.91,-16.0,0.2,-0.2,5620,2924,1.866,2,39.536743,-122.32666,51.33,0.042,307.7,9,2,2.0,0,0.0,-1,0.0,,0.0,0
7966,1469901732382,,,,,,,0.1,0.62,0.91,-16.0,-2.5,-0.3,5540,2946,,,,,,,,,,,,,,,,,
7986,1469901732403,,,,,,,0.01,0.65,0.87,-16.1,-4.3,-0.7,5600,2935,,,,,,,,,,,,,,,,,
8006,1469901732423,,,,,,,-0.06,0.59,0.85,-16.3,-4.8,-0.5,5480,2924,,,,,,,,,,,,,,,,,
8026,1469901732443,,,,,,,-0.11,0.58,0.89,-16.3,-4.5,-0.7,5480,2946,,,,,,,,,,,,,,,,,
8046,1469901732463,0,260.9,197.9,96,200.5,14.01,-0.08,0.68,0.86,-15.9,-4.9,-0.6,5580,2935,1.9,2,39.536766,-122.32666,51.27,0.043,307.8,9,2,2.0,0,0.0,-1,0.0,0.0,0.0,0
8066,1469901732483,,,,,,,-0.11,0.71,0.81,-16.1,-3.6,-0.3,5500,2969,,,,,,,,,,,,,,,,,
8086,1469901732602,,,,,,,-0.15,0.64,0.9,-16.6,-3.0,-0.1,5500,2901,,,,,,,,,,,,,,,,,
8106,1469901732622,,,,,,,-0.14,0.56,0.93,-16.7,-3.8,0.2,5600,2980,,,,,,,,,,,,,,,,,
8126,1469901732642,,,,,,,-0.15,0.54,0.92,-16.7,-4.4,-0.2,5580,2946,,,,,,,,,,,,,,,,,
8146,1469901732662,,,,77,,,-0.19,0.61,0.92,-16.8,-3.1,-0.3,5640,2969,1.93,2,39.536808,-122.326668,51.6,0.046,307.8,9,2,2.0,0,0.0,-1,0.0,,0.0,0
8166,1469901732682,,,,,,,-0.19,0.6,1.0,-16.8,-1.7,-0.3,5520,2969,,,,,,,,,,,,,,,,,
8186,1469901732702,,,,,,,-0.13,0.66,1.03,-16.8,-0.6,-0.5,5580,2924,,,,,,,,,,,,,,,,,
8206,1469901732722,,,,,,,-0.12,0.73,0.94,-17.0,1.1,-0.6,5500,2969,,,,,,,,,,,,,,,,,
8226,1469901732742,,,,,,,-0.1,0.65,0.91,-17.3,1.9,-0.5,5560,2912,,,,,,,,,,,,,,,,,
8246,1469901732762,0,261.6,198.2,59,200.5,,-0.07,0.61,0.91,-17.4,1.0,-0.7,5620,2958,1.896,2,39.536808,-122.326668,51.6,0.046,307.8,9,2,2.0,0,0.0,-1,0.0,0.0,0.0,0
8266,1469901732782,,,,,,,-0.06,0.59,0.9,-17.3,0.5,-0.8,5620,2935,,,,,,,,,,,,,,,,,
8286,1469901732702,,,,,,,-0.04,0.61,0.89,-17.3,1.2,-0.7,5520,2946,,,,,,,,,,,,,,,,,
8306,1469901732722,,,,,,,-0.02,0.67,0.94,-17.4,2.2,-0.7,5660,2980,,,,,,,,,,,,,,,,,
8326,1469901732742,,,,,,,0.08,0.71,0.96,-17.1,2.3,-0.6,5680,2935,,,,,,,,,,,,,,,,,
8346,1469901732762,,,,67,,,0.14,0.76,0.88,-17.2,3.3,-0.5,5500,2958,1.92,2,39.536827,-122.326668,51.41,0.048,307.7,9,2,2.0,0,0.0,-1,0.0,,0.0,0
8366,1469901732782,,,,,,,0.14,0.77,0.88,-17.7,3.5,-0.5,5580,2958,,,,,,,,,,,,,,,,,
8386,1469901732802,,,,,,,0.14,0.73,0.97,-18.1,1.7,-0.2,5640,2958,,,,,,,,,,,,,,,,,
8406,1469901732822,,,,,,,0.17,0.67,0.96,-18.2,-0.6,-0.1,5620,2980,,,,,,,,,,,,,,,,,
8426,1469901732842,,,,,,,0.14,0.73,0.95,-17.9,-0.9,-0.1,5620,2924,,,,,,,,,,,,,,,,,
8446,1469901732862,0,262.1,197.8,51,200.1,,0.1,0.74,0.93,-17.8,-0.7,-0.2,5560,2992,1.879,2,39.53685,-122.326668,51.73,0.049,307.7,9,2,2.0,0,0.0,-1,0.0,0.0,0.0,0
8466,1469901732882,,,,,,,0.12,0.75,1.0,-17.9,-1.0,-0.1,5700,2969,,,,,,,,,,,,,,,,,
8486,1469901732902,,,,,,,0.15,0.76,1.0,-17.8,-0.9,0.3,5680,2992,,,,,,,,,,,,,,,,,
8506,1469901732917,,,,,,,0.14,0.79,0.92,-17.6,-0.4,0.4,5540,3004,,,,,,,,,,,,,,,,,
8526,1469901732937,,,,,,,0.1,0.83,0.86,-17.8,-0.9,0.3,5640,2980,,,,,,,,,,,,,,,,,
8546,1469901732957,,,,86,,,0.12,0.78,0.88,-17.9,-3.4,0.5,5640,2969,1.877,2,39.536869,-122.326683,51.85,0.051,307.6,9,2,2.0,0,0.0,-1,0.0,,0.0,0
8566,1469901732977,,,,,,,0.11,0.73,0.92,-17.8,-4.9,0.3,5640,2992,,,,,,,,,,,,,,,,,
8586,1469901733003,,,,,,,0.05,0.74,0.91,-17.6,-5.1,0.2,5620,2935,,,,,,,,,,,,,,,,,
8606,1469901733023,,,,,,,0.05,0.75,0.94,-17.6,-5.2,0.3,5580,2992,,,,,,,,,,,,,,,,,
8626,1469901733043,,,,,,,0.06,0.7,1.03,-17.3,-5.5,0.4,5660,2958,,,,,,,,,,,,,,,,,
8646,1469901733063,1,261.9,198.4,53,200.8,,0.04,0.8,0.92,-16.9,-5.1,0.6,5640,2969,1.886,2,39.536888,-122.326698,51.81,0.052,307.4,9,2,2.0,0,0.0,-1,0.0,0.0,0.0,0
8666,1469901733083,,,,,,,-0.02,0.84,0.87,-17.2,-4.2,0.7,5580,3015,,,,,,,,,,,,,,,,,
8686,1469901733103,,,,,,,-0.05,0.75,0.97,-17.8,-4.5,0.7,5560,2980,,,,,,,,,,,,,,,,,
8706,1469901733123,,,,,,,-0.06,0.65,1.02,-17.9,-6.6,1.2,5660,2992,,,,,,,,,,,,,,,,,
8726,1469901733143,,,,,,,-0.11,0.61,1.03,-17.8,-7.2,1.2,5640,2980,,,,,,,,,,,,,,,,,
8746,1469901733163,,,,49,,,-0.19,0.68,1.02,-17.6,-7.6,0.9,5480,2946,1.879,2,39.536911,-122.326698,51.77,0.054,307.4,9,2,2.0,0,0.0,-1,0.0,,0.0,0
8766,1469901733183,,,,,,,-0.22,0.69,1.01,-17.6,-7.8,1.2,5560,2958,,,,,,,,,,,,,,,,,
8786,1469901733202,,,,,,,-0.22,0.66,1.03,-17.9,-6.6,1.0,5620,3004,,,,,,,,,,,,,,,,,
8806,1469901733222,,,,,,,-0.22,0.71,1.03,-17.8,-4.3,1.0,5760,2980,,,,,,,,,,,,,,,,,
8826,1469901733242,,,,,,,-0.25,0.73,1.03,-17.6,-1.7,0.8,5580,3015,,,,,,,,,,,,,,,,,
8846,1469901733262,0,261.3,197.9,61,200.5,,-0.25,0.7,1.02,-17.8,-1.2,0.7,5440,2992,1.884,2,39.53693,-122.326706,51.69,0.055,307.2,9,2,2.0,0,0.0,-1,0.0,0.0,0.0,0
8866,1469901733282,,,,,,,-0.24,0.64,1.05,-18.0,-1.6,1.0,5580,2969,,,,,,,,,,,,,,,,,
8886,1469901733402,,,,,,,-0.25,0.55,1.07,-18.3,-1.7,1.2,5680,2980,,,,,,,,,,,,,,,,,
8906,1469901733422,,,,,,,-0.28,0.61,1.08,-18.5,-1.9,0.7,5660,2935,,,,,,,,,,,,,,,,,
8926,1469901733442,,,,,,,-0.29,0.59,1.09,-18.3,-1.5,0.7,5620,2946,,,,,,,,,,,,,,,,,
8946,1469901733462,,,,69,,,-0.27,0.54,1.12,-18.2,-0.7,0.5,5660,3015,1.864,2,39.536968,-122.326721,52.16,0.058,306.9,9,2,2.0,0,0.0,-1,0.0,,0.0,0
8966,1469901733482,,,,,,,-0.23,0.59,1.2,-17.9,0.5,0.4,5620,2969,,,,,,,,,,,,,,,,,
8986,1469901733502,,,,,,,-0.19,0.66,1.13,-17.5,2.3,0.3,5640,3004,,,,,,,,,,,,,,,,,
9006,1469901733522,,,,,,,-0.19,0.71,1.03,-17.7,4.1,0.1,5620,2969,,,,,,,,,,,,,,,,,
9026,1469901733542,,,,,,,-0.19,0.67,1.08,-18.3,4.2,0.0,5580,2935,,,,,,,,,,,,,,,,,
9046,1469901733562,3,261.1,197.9,60,200.6,13.89,-0.19,0.57,1.14,-18.7,3.9,0.4,5620,2969,1.842,2,39.536968,-122.326721,52.16,0.058,306.9,9,2,2.0,0,0.0,-1,0.0,0.0,0.0,0
9066,1469901733582,,,,,,,-0.19,0.54,1.1,-18.4,3.5,0.2,5720,3004,,,,,,,,,,,,,,,,,
9086,1469901733502,,,,,,,-0.22,0.54,1.1,-18.0,3.4,-0.2,5680,2958,,,,,,,,,,,,,,,,,
9106,1469901733522,,,,,,,-0.27,0.57,1.09,-18.0,3.7,-0.3,5660,3004,,,,,,,,,,,,,,,,,
9126,1469901733542,,,,,,,-0.25,0.55,1.11,-18.0,4.6,-0.4,5580,2969,,,,,,,,,,,,,,,,,
9146,1469901733562,,,,65,,,-0.23,0.52,1.18,-18.1,6.9,-0.3,5640,2946,1.851,2,39.536987,-122.326736,52.24,0.06,306.8,9,2,2.0,0,0.0,-1,0.0,,0.0,0
9166,1469901733582,,,,,,,-0.2,0.62,1.18,-17.9,9.3,-0.6,5640,3004,,,,,,,,,,,,,,,,,
9186,1469901733603,,,,,,,-0.19,0.68,1.09,-17.6,10.1,-0.7,5560,3004,,,,,,,,,,,,,,,,,
9206,1469901733623,,,,,,,-0.19,0.67,1.11,-17.6,9.8,-0.7,5640,2946,,,,,,,,,,,,,,,,,
9226,1469901733643,,,,,,,-0.2,0.59,1.12,-17.9,9.2,-0.3,5580,2980,,,,,,,,,,,,,,,,,
9246,1469901733663,0,263.0,198.2,72,200.8,,-0.18,0.53,1.1,-18.0,7.8,-0.1,5700,3027,1.899,2,39.53701,-122.326744,52.24,0.061,306.6,9,2,2.0,0,0.0,-1,0.0,0.0,0.0,0
9266,1469901733683,,,,,,,-0.18,0.52,1.12,-18.1,7.4,-0.3,5740,2969,,,,,,,,,,,,,,,,,
9286,1469901733703,,,,,,,-0.17,0.55,1.17,-18.1,7.3,-0.5,5680,2958,,,,,,,,,,,,,,,,,
9306,1469901733723,,,,,,,-0.11,0.52,1.22,-17.8,8.5,-0.3,5620,3004,,,,,,,,,,,,,,,,,
9326,1469901733743,,,,,,,-0.05,0.62,1.25,-17.2,9.3,-0.5,5760,3004,,,,,,,,,,,,,,,,,
9346,1469901733763,,,,35,,,-0.01,0.71,1.16,-16.7,10.4,-0.7,5780,2969,1.892,2,39.537029,-122.326759,52.28,0.063,306.4,9,2,2.0,0,0.0,-1,0.0,,0.0,0
9366,1469901733783,,,,,,,0.0,0.78,1.07,-17.0,11.6,-1.1,5560,2992,,,,,,,,,,,,,,,,,
9386,1469901733803,,,,,,,-0.01,0.73,1.13,-17.5,12.1,-0.9,5660,3015,,,,,,,,,,,,,,,,,
9406,1469901733823,,,,,,,-0.01,0.61,1.19,-18.0,11.9,-0.2,5620,2958,,,,,,,,,,,,,,,,,
9426,1469901733843,,,,,,,-0.04,0.52,1.18,-18.1,10.8,0.3,5680,3004,,,,,,,,,,,,,,,,,
9446,1469901733863,0,261.9,198.2,73,200.8,,-0.1,0.45,1.14,-17.4,8.9,0.1,5560,3040,1.939,2,39.537044,-122.326775,52.54,0.064,306.3,9,2,2.0,0,0.0,-1,0.0,0.0,0.0,0
9466,1469901733883,,,,,,,-0.17,0.47,1.17,-17.0,8.2,-0.5,5660,2980,,,,,,,,,,,,,,,,,
9486,1469901733903,,,,,,,-0.19,0.54,1.18,-17.0,8.0,-0.7,5740,2969,,,,,,,,,,,,,,,,,
9506,1469901733917,,,,,,,-0.18,0.52,1.21,-17.5,8.6,-0.6,5700,3027,,,,,,,,,,,,,,,,,
9526,1469901733937,,,,,,,-0.18,0.51,1.24,-17.8,10.2,-0.5,5700,2992,,,,,,,,,,,,,,,,,
9546,1469901733957,,,,57,,,-0.16,0.56,1.24,-17.8,12.0,-0.3,5840,2969,1.857,2,39.537064,-122.326782,52.53,0.066,306.1,9,2,2.0,0,0.0,-1,0.0,,0.0,0
9566,1469901733977,,,,,,,-0.15,0.68,1.21,-17.9,13.5,-0.4,5740,3052,,,,,,,,,,,,,,,,,
9586,1469901734003,,,,,,,-0.16,0.67,1.15,-17.9,13.6,-0.5,5760,3015,,,,,,,,,,,,,,,,,
9606,1469901734023,,,,,,,-0.18,0.59,1.17,-18.2,12.7,-0.2,5660,3015,,,,,,,,,,,,,,,,,
9626,1469901734043,,,,,,,-0.2,0.55,1.17,-18.6,10.9,0.3,5580,3040,,,,,,,,,,,,,,,,,
9646,1469901734063,0,263.1,198.2,52,200.8,,-0.22,0.49,1.17,-18.8,8.7,0.5,5700,3040,1.924,2,39.537083,-122.326798,52.46,0.067,306.0,9,2,2.0,0,0.0,-1,0.0,0.0,0.0,0
9666,1469901734083,,,,,,,-0.28,0.5,1.17,-18.9,7.2,0.2,5700,3040,,,,,,,,,,,,,,,,,
9686,1469901734202,,,,,,,-0.34,0.5,1.22,-18.9,6.8,0.1,5740,2992,,,,,,,,,,,,,,,,,
9706,1469901734222,,,,,,,-0.39,0.46,1.27,-18.7,7.4,0.0,5740,3004,,,,,,,,,,,,,,,,,
9726,1469901734242,,,,,,,-0.38,0.44,1.27,-18.2,7.5,-0.0,5780,3052,,,,,,,,,,,,,,,,,
9746,1469901734262,,,,51,,,-0.35,0.42,1.3,-17.7,8.0,-0.2,5680,3015,1.899,2,39.537117,-122.32682,52.86,0.07,305.6,9,2,2.0,0,0.0,-1,0.0,,0.0,0
9766,1469901734282,,,,,,,-0.28,0.53,1.28,-17.4,9.1,-0.4,5640,3027,,,,,,,,,,,,,,,,,
9786,1469901734302,,,,,,,-0.21,0.65,1.2,-17.5,9.7,-0.5,5660,3027,,,,,,,,,,,,,,,,,
9806,1469901734322,,,,,,,-0.18,0.75,1.1,-18.1,8.9,-0.7,5640,3076,,,,,,,,,,,,,,,,,
9826,1469901734342,,,,,,,-0.19,0.73,1.04,-18.3,7.2,-0.4,5800,3052,,,,,,,,,,,,,,,,,
9846,1469901734362,0,263.0,198.0,50,200.3,,-0.21,0.64,1.04,-18.4,4.5,0.2,5680,3052,1.851,2,39.537117,-122.32682,52.86,0.07,305.6,9,2,2.0,0,0.0,-1,0.0,0.0,0.0,0
9866,1469901734382,,,,,,,-0.2,0.54,1.06,-18.3,1.0,0.6,5800,3052,,,,,,,,,,,,,,,,,
9886,1469901734303,,,,,,,-0.21,0.46,1.05,-17.9,-2.1,0.6,5780,3101,,,,,,,,,,,,,,,,,
9906,1469901734323,,,,,,,-0.29,0.5,1.07,-17.5,-3.7,0.2,5720,3064,,,,,,,,,,,,,,,,,
9926,1469901734343,,,,,,,-0.34,0.57,1.1,-17.2,-5.7,-0.1,5760,3076,,,,,,,,,,,,,,,,,
9946,1469901734363,,,,75,,,-0.39,0.62,1.06,-17.2,-6.4,-0.3,5920,3027,1.849,2,39.537136,-122.326851,52.68,0.072,305.4,9,2,2.0,0,0.0,-1,0.0,,0.0,0
9966,1469901734383,,,,,,,-0.37,0.68,1.02,-17.5,-6.4,-0.4,5880,3064,,,,,,,,,,,,,,,,,
9986,1469901734403,,,,,,,-0.31,0.64,0.99,-17.7,-5.4,-0.3,5840,3064,,,,,,,,,,,,,,,,,
10006,1469901734420,,,,,,,-0.23,0.71,0.98,-17.7,-4.4,-0.5,5780,3101,,,,,,,,,,,,,,,,,
10026,1469901734440,,,,,,,-0.15,0.75,1.0,-17.4,-2.6,-0.5,5780,3064,,,,,,,,,,,,,,,,,
10046,1469901734460,1,263.3,199.0,36,201.4,14.01,-0.1,0.86,0.97,-16.9,-0.9,-0.6,5760,3052,1.913,2,39.537151,-122.326859,52.99,0.073,305.2,9,2,2.0,0,0.0,-1,0.0,0.0,0.0,0
10066,1469901734480,,,,,,,-0.06,0.92,0.91,-16.5,0.6,-0.6,5780,3101,,,,,,,,,,,,,,,,,
10086,1469901734500,,,,,,,-0.03,0.9,0.93,-16.2,0.9,-0.6,5720,3076,,,,,,,,,,,,,,,,,
10106,1469901734520,,,,,,,-0.02,0.87,0.92,-16.3,0.8,-0.4,5660,3101,,,,,,,,,,,,,,,,,
10126,1469901734540,,,,,,,0.0,0.83,0.9,-16.4,-0.9,0.1,5760,3040,,,,,,,,,,,,,,,,,
10146,1469901734560,,,,35,,,-0.0,0.8,0.91,-16.9,-2.3,0.7,5620,3040,1.886,2,39.53717,-122.326874,53.09,0.075,305.0,9,2,2.0,0,0.0,-1,0.0,,0.0,0
10166,1469901734580,,,,,,,-0.01,0.69,0.88,-17.4,-3.4,0.8,5860,3089,,,,,,,,,,,,,,,,,
10186,1469901734600,,,,,,,-0.08,0.66,0.8,-17.8,-3.6,0.5,5780,3089,,,,,,,,,,,,,,,,,
10206,1469901734620,,,,,,,-0.15,0.62,0.81,-18.1,-3.8,0.0,5920,3089,,,,,,,,,,,,,,,,,
10226,1469901734640,,,,,,,-0.23,0.59,0.88,-18.2,-3.0,-0.0,5840,3101,,,,,,,,,,,,,,,,,
10246,1469901734660,0,262.8,197.7,71,200.9,,-0.3,0.56,0.98,-18.1,-1.9,-0.2,5800,3052,1.878,2,39.53719,-122.326904,53.24,0.077,304.8,9,2,2.0,0,0.0,-1,0.0,0.0,0.0,0
10266,1469901734680,,,,,,,-0.33,0.46,1.05,-17.7,-0.9,0.1,5960,3064,,,,,,,,,,,,,,,,,
10286,1469901734700,,,,,,,-0.35,0.43,1.07,-17.3,-0.5,0.2,5980,3089,,,,,,,,,,,,,,,,,
10306,1469901734720,,,,,,,-0.33,0.39,1.03,-16.8,0.4,0.1,5980,3126,,,,,,,,,,,,,,,,,
10326,1469901734740,,,,,,,-0.28,0.4,0.95,-16.3,1.1,0.1,5820,3113,,,,,,,,,,,,,,,,,
10346,1469901734760,,,,89,,,-0.22,0.43,0.97,-16.0,2.0,-0.2,5720,3113,1.861,2,39.537205,-122.326912,53.59,0.078,304.6,9,2,2.0,0,0.0,-1,0.0,,0.0,0
10366,1469901734780,,,,,,,-0.13,0.47,1.02,-15.9,2.2,-0.2,5920,3101,,,,,,,,,,,,,,,,,
10386,1469901734803,,,,,,,-0.05,0.59,1.07,-15.8,2.5,-0.5,5860,3126,,,,,,,,,,,,,,,,,
10406,1469901734823,,,,,,,0.02,0.73,1.05,-15.7,2.6,-0.6,5860,3113,,,,,,,,,,,,,,,,,
10426,1469901734843,,,,,,,0.08,0.86,1.07,-15.8,3.1,-0.8,5860,3089,,,,,,,,,,,,,,,,,
10446,1469901734863,1,262.4,198.3,106,201.5,,0.12,0.98,1.06,-16.3,3.5,-0.9,5880,3089,1.9,2,39.537224,-122.326927,53.67,0.079,304.5,9,2,2.0,0,0.0,-1,0.0,0.0,0.0,0
10466,1469901734883,,,,,,,0.16,1.09,1.05,-16.7,3.9,-0.9,6000,3076,,,,,,,,,,,,,,,,,
10486,1469901734903,,,,,,,0.19,1.17,1.0,-17.0,3.9,-0.9,5860,3138,,,,,,,,,,,,,,,,,
10506,1469901735016,,,,,,,0.19,1.21,0.97,-17.4,3.7,-0.8,5860,3152,,,,,,,,,,,,,,,,,
10526,1469901735036,,,,,,,0.17,1.2,0.95,-17.7,2.5,-0.7,5960,3113,,,,,,,,,,,,,,,,,
10546,1469901735056,,,,68,,,0.13,1.16,0.93,-18.0,1.4,-0.1,5940,3113,1.951,2,39.537254,-122.326965,54.18,0.082,304.2,9,2,2.0,0,0.0,-1,0.0,,0.0,0
10566,1469901735076,,,,,,,0.1,1.02,0.9,-18.0,-0.2,0.4,6020,3126,,,,,,,,,,,,,,,,,
10586,1469901735096,,,,,,,0.04,0.88,0.92,-18.1,-2.1,1.3,5860,3126,,,,,,,,,,,,,,,,,
10606,1469901735116,,,,,,,-0.0,0.72,0.93,-17.9,-4.5,1.9,6000,3126,,,,,,,,,,,,,,,,,
10626,1469901735136,,,,,,,-0.04,0.59,0.94,-17.7,-7.0,2.3,5980,3126,,,,,,,,,,,,,,,,,
10646,1469901735156,1,262.6,197.5,84,201.0,,-0.07,0.52,0.9,-17.7,-8.6,2.4,5820,3126,1.887,2,39.537254,-122.326965,54.18,0.082,304.2,9,2,2.0,0,0.0,-1,0.0,0.0,0.0,0
10666,1469901735176,,,,,,,-0.11,0.47,0.9,-17.7,-9.7,2.4,5920,3101,,,,,,,,,,,,,,,,,
10686,1469901735104,,,,,,,-0.14,0.38,0.89,-17.6,-9.7,2.3,5940,3101,,,,,,,,,,,,,,,,,
10706,1469901735124,,,,,,,-0.16,0.34,0.86,-17.3,-9.9,2.3,5820,3152,,,,,,,,,,,,,,,,,
10726,1469901735144,,,,,,,-0.18,0.31,0.88,-17.3,-8.9,2.1,5920,3178,,,,,,,,,,,,,,,,,
10746,1469901735164,,,,47,,,-0.21,0.29,0.87,-16.9,-7.7,2.0,5740,3190,1.857,2,39.537266,-122.326988,54.25,0.084,304.1,9,2,2.0,0,0.0,-1,0.0,,0.0,0
10766,1469901735184,,,,,,,-0.24,0.26,0.95,-16.7,-6.3,1.9,5860,3204,,,,,,,,,,,,,,,,,
10786,1469901735203,,,,,,,-0.3,0.24,1.01,-16.7,-5.7,1.7,5760,3204,,,,,,,,,,,,,,,,,
10806,1469901735223,,,,,,,-0.38,0.24,1.05,-16.8,-4.8,1.3,5980,3218,,,,,,,,,,,,,,,,,
10826,1469901735243,,,,,,,-0.44,0.17,1.09,-16.8,-4.7,1.1,6060,3218,,,,,,,,,,,,,,,,,
10846,1469901735263,0,264.5,198.6,40,200.9,,-0.51,0.15,1.17,-16.6,-4.0,0.9,6080,3230,1.861,2,39.537285,-122.327019,54.45,0.086,304.1,9,2,2.0,0,0.0,-1,0.0,0.0,0.0,0
10866,1469901735283,,,,,,,-0.53,0.12,1.22,-16.4,-3.6,0.8,5880,3178,,,,,,,,,,,,,,,,,
10886,1469901735303,,,,,,,-0.56,0.12,1.29,-16.4,-3.2,0.6,5920,3190,,,,,,,,,,,,,,,,,
10906,1469901735323,,,,,,,-0.57,0.09,1.34,-16.3,-3.1,0.4,6080,3164,,,,,,,,,,,,,,,,,
10926,1469901735343,,,,,,,-0.56,0.05,1.4,-16.0,-1.8,0.3,6120,3178,,,,,,,,,,,,,,,,,
10946,1469901735363,,,,52,,,-0.58,0.06,1.45,-16.1,-0.4,0.1,5900,3190,1.84,2,39.5373,-122.327026,54.66,0.087,304.0,9,2,2.0,0,0.0,-1,0.0,,0.0,0
10966,1469901735383,,,,,,,-0.62,0.04,1.46,-16.0,0.4,-0.1,5940,3190,,,,,,,,,,,,,,,,,
10986,1469901735401,,,,,,,-0.62,0.02,1.5,-15.9,1.0,0.0,6040,3190,,,,,,,,,,,,,,,,,
11006,1469901735421,,,,,,,-0.62,-0.0,1.5,-16.0,0.6,0.1,6060,3164,,,,,,,,,,,,,,,,,
11026,1469901735441,,,,,,,-0.66,-0.02,1.51,-15.9,0.5,0.2,5940,3244,,,,,,,,,,,,,,,,,
11046,1469901735461,0,262.6,197.6,54,201.0,13.99,-0.67,-0.01,1.5,-15.9,-0.2,0.1,5940,3230,1.877,2,39.537312,-122.327057,54.65,0.089,303.8,9,2,2.0,0,0.0,-1,0.0,0.0,0.0,0
11066,1469901735481,,,,,,,-0.68,0.03,1.51,-16.0,-0.1,0.2,5980,3204,,,,,,,,,,,,,,,,,
11086,1469901735501,,,,,,,-0.68,-0.0,1.53,-16.1,0.5,0.0,5940,3204,,,,,,,,,,,,,,,,,
11106,1469901735519,,,,,,,-0.7,-0.04,1.57,-16.2,1.7,0.1,5980,3204,,,,,,,,,,,,,,,,,
11126,1469901735539,,,,,,,-0.71,-0.04,1.6,-16.3,3.0,0.1,6020,3218,,,,,,,,,,,,,,,,,
11146,1469901735559,,,,72,,,-0.74,-0.06,1.6,-16.3,3.6,0.3,6020,3204,1.89,2,39.537327,-122.32708,54.85,0.09,303.7,9,2,2.0,0,0.0,-1,0.0,,0.0,0
11166,1469901735579,,,,,,,-0.78,-0.09,1.58,-16.3,4.8,0.2,6040,3204,,,,,,,,,,,,,,,,,
11186,1469901735593,,,,,,,-0.8,-0.13,1.59,-16.4,4.1,0.1,5980,3218,,,,,,,,,,,,,,,,,
11206,1469901735613,,,,,,,-0.83,-0.12,1.6,-16.3,3.7,0.1,6120,3190,,,,,,,,,,,,,,,,,
11226,1469901735633,,,,,,,-0.83,-0.15,1.61,-16.1,2.5,0.3,6100,3204,,,,,,,,,,,,,,,,,
11246,1469901735653,1,263.3,198.3,52,200.6,,-0.81,-0.17,1.63,-16.0,2.0,0.4,6080,3204,1.897,2,39.537342,-122.327103,55.14,0.092,303.4,9,2,2.0,0,0.0,-1,0.0,0.0,0.0,0
11266,1469901735673,,,,,,,-0.76,-0.17,1.65,-15.9,1.4,0.3,6100,3218,,,,,,,,,,,,,,,,,
11286,1469901735792,,,,,,,-0.74,-0.18,1.66,-15.8,1.7,0.4,6120,3190,,,,,,,,,,,,,,,,,
11306,1469901735812,,,,,,,-0.69,-0.26,1.64,-15.6,1.1,0.7,5980,3204,,,,,,,,,,,,,,,,,
11326,1469901735832,,,,,,,-0.7,-0.33,1.6,-15.6,-0.2,1.0,5960,3204,,,,,,,,,,,,,,,,,
11346,1469901735852,,,,78,,,-0.7,-0.33,1.55,-15.3,-1.7,1.0,6100,3230,1.896,2,39.537365,-122.327141,55.45,0.095,303.0,9,2,2.0,0,0.0,-1,0.0,,0.0,0
11366,1469901735872,,,,,,,-0.71,-0.34,1.49,-15.5,-3.1,1.2,6100,3190,,,,,,,,,,,,,,,,,
11386,1469901735892,,,,,,,-0.7,-0.36,1.45,-15.5,-4.9,1.5,6140,3178,,,,,,,,,,,,,,,,,
11406,1469901735912,,,,,,,-0.72,-0.34,1.38,-15.5,-6.2,1.6,5940,3230,,,,,,,,,,,,,,,,,
11426,1469901735932,,,,,,,-0.7,-0.33,1.34,-15.4,-7.3,1.6,6000,3218,,,,,,,,,,,,,,,,,
11446,1469901735952,0,263.6,198.6,54,200.8,,-0.7,-0.3,1.34,-15.4,-8.7,1.8,6060,3230,1.862,2,39.537365,-122.327141,55.45,0.095,303.0,9,2,2.0,0,0.0,-1,0.0,0.0,0.0,0
11466,1469901735972,,,,,,,-0.66,-0.23,1.23,-15.4,-10.6,1.9,5760,3244,,,,,,,,,,,,,,,,,
11486,1469901735992,,,,,,,-0.63,-0.14,1.15,-15.4,-12.6,1.8,6120,3244,,,,,,,,,,,,,,,,,
11506,1469901735910,,,,,,,-0.57,0.01,1.0,-15.5,-14.1,1.4,6180,3286,,,,,,,,,,,,,,,,,
11526,1469901735930,,,,,,,-0.5,0.17,0.84,-15.6,-14.9,1.2,6200,3190,,,,,,,,,,,,,,,,,
11546,1469901735950,,,,69,,,-0.41,0.35,0.74,-15.5,-14.3,0.9,6060,3218,1.866,2,39.53738,-122.327171,55.66,0.097,302.9,9,2,2.0,0,0.0,-1,0.0,,0.0,0
11566,1469901735970,,,,,,,-0.33,0.52,0.71,-15.4,-12.4,0.3,6160,3204,,,,,,,,,,,,,,,,,
11586,1469901735996,,,,,,,-0.24,0.67,0.72,-15.6,-10.2,-0.5,6160,3230,,,,,,,,,,,,,,,,,
11606,1469901736016,,,,,,,-0.16,0.81,0.8,-15.6,-8.6,-1.0,6020,3286,,,,,,,,,,,,,,,,,
11626,1469901736036,,,,,,,-0.06,0.86,0.88,-15.4,-6.3,-1.3,6100,3286,,,,,,,,,,,,,,,,,
11646,1469901736056,0,263.8,198.5,65,201.1,,0.02,0.9,0.99,-15.0,-4.2,-1.9,6080,3272,1.845,2,39.537392,-122.327194,55.91,0.098,302.8,9,2,2.0,0,0.0,-1,0.0,0.0,0.0,0
11666,1469901736076,,,,,,,0.12,0.87,1.0,-14.5,-1.6,-2.0,6040,3244,,,,,,,,,,,,,,,,,
11686,1469901736096,,,,,,,0.18,0.83,1.01,-14.1,1.1,-1.9,6160,3230,,,,,,,,,,,,,,,,,
11706,1469901736116,,,,,,,0.17,0.77,0.98,-13.9,3.7,-1.6,6180,3244,,,,,,,,,,,,,,,,,
11726,1469901736136,,,,,,,0.11,0.67,1.0,-13.9,5.1,-1.2,6200,3218,,,,,,,,,,,,,,,,,
11746,1469901736156,,,,62,,,0.02,0.53,1.01,-14.0,5.5,-0.8,6120,3286,1.88,2,39.537403,-122.327217,55.94,0.099,302.8,9,2,2.0,0,0.0,-1,0.0,,0.0,0
11766,1469901736176,,,,,,,-0.09,0.4,1.05,-14.3,5.4,-0.6,6180,3244,,,,,,,,,,,,,,,,,
11786,1469901736196,,,,,,,-0.2,0.31,1.07,-14.6,5.3,-0.3,6080,3230,,,,,,,,,,,,,,,,,
11806,1469901736216,,,,,,,-0.28,0.19,1.12,-15.0,5.2,-0.0,6060,3244,,,,,,,,,,,,,,,,,
11826,1469901736236,,,,,,,-0.35,0.18,1.1,-15.6,4.0,0.4,6140,3258,,,,,,,,,,,,,,,,,
11846,1469901736256,0,263.5,198.6,56,201.2,,-0.38,0.23,1.09,-16.0,2.1,0.8,6120,3315,1.921,2,39.537415,-122.327248,56.17,0.101,302.6,9,2,2.0,0,0.0,-1,0.0,0.0,0.0,0
11866,1469901736276,,,,,,,-0.42,0.22,1.07,-16.2,-1.8,0.9,6100,3329,,,,,,,,,,,,,,,,,
11886,1469901736296,,,,,,,-0.44,0.26,1.07,-15.9,-4.4,0.6,6120,3315,,,,,,,,,,,,,,,,,
11906,1469901736316,,,,,,,-0.4,0.4,1.05,-15.0,-5.3,0.5,6060,3272,,,,,,,,,,,,,,,,,
11926,1469901736336,,,,,,,-0.37,0.51,0.96,-14.2,-5.1,0.2,6220,3244,,,,,,,,,,,,,,,,,
11946,1469901736356,,,,64,,,-0.34,0.66,0.89,-13.5,-3.9,-0.5,6180,3329,1.907,2,39.537426,-122.32727,56.38,0.103,302.5,9,2,2.0,0,0.0,-1,0.0,,0.0,0
11966,1469901736376,,,,,,,-0.3,0.78,0.88,-12.8,-3.1,-1.3,6180,3300,,,,,,,,,,,,,,,,,
11986,1469901736394,,,,,,,-0.23,0.76,0.93,-12.6,-2.2,-1.4,6360,3329,,,,,,,,,,,,,,,,,
12006,1469901736414,,,,,,,-0.12,0.82,0.97,-12.4,-0.9,-1.3,6300,3300,,,,,,,,,,,,,,,,,
12026,1469901736434,,,,,,,-0.01,0.79,1.0,-12.4,0.1,-1.3,6340,3286,,,,,,,,,,,,,,,,,
12046,1469901736454,0,264.6,198.6,67,201.2,13.95,0.0,0.69,1.03,-12.8,2.0,-1.3,6380,3300,1.898,2,39.537434,-122.327301,56.63,0.104,302.6,9,2,2.0,0,0.0,-1,0.0,0.0,0.0,0
12066,1469901736474,,,,,,,-0.06,0.59,1.03,-13.1,2.9,-0.9,6420,3329,,,,,,,,,,,,,,,,,
12086,1469901736592,,,,,,,-0.17,0.39,1.04,-13.3,3.0,-0.2,6340,3315,,,,,,,,,,,,,,,,,
12106,1469901736612,,,,,,,-0.32,0.24,1.1,-13.0,3.4,-0.0,6240,3272,,,,,,,,,,,,,,,,,
12126,1469901736632,,,,,,,-0.4,0.22,1.14,-12.8,2.1,0.3,6320,3300,,,,,,,,,,,,,,,,,
12146,1469901736652,,,,50,,,-0.39,0.3,1.07,-12.4,0.3,0.6,6280,3300,1.911,2,39.537456,-122.327347,57.2,0.107,302.6,9,2,2.0,0,0.0,-1,0.0,,0.0,0
12166,1469901736672,,,,,,,-0.34,0.47,0.87,-12.1,-2.1,0.3,6380,3329,,,,,,,,,,,,,,,,,
12186,1469901736692,,,,,,,-0.27,0.63,0.83,-11.7,-3.3,-0.4,6320,3300,,,,,,,,,,,,,,,,,
12206,1469901736712,,,,,,,-0.15,0.71,0.94,-11.2,-1.5,-0.7,6240,3329,,,,,,,,,,,,,,,,,
12226,1469901736732,,,,,,,-0.04,0.72,1.04,-11.0,1.2,-0.6,6300,3329,,,,,,,,,,,,,,,,,
12246,1469901736752,0,262.6,198.3,63,201.3,,0.0,0.61,1.08,-10.7,3.9,-0.5,6440,3343,1.904,2,39.537456,-122.327347,57.2,0.107,302.6,9,2,2.0,0,0.0,-1,0.0,0.0,0.0,0
12266,1469901736772,,,,,,,-0.01,0.45,0.99,-10.7,4.7,-0.3,6400,3387,,,,,,,,,,,,,,,,,
12286,1469901736693,,,,,,,-0.1,0.36,0.92,-11.2,4.5,0.3,6140,3315,,,,,,,,,,,,,,,,,
12306,1469901736713,,,,,,,-0.2,0.26,0.92,-11.8,3.7,1.2,6260,3286,,,,,,,,,,,,,,,,,
12326,1469901736733,,,,,,,-0.28,0.23,0.99,-12.3,2.7,1.1,6240,3315,,,,,,,,,,,,,,,,,
12346,1469901736753,,,,57,,,-0.31,0.29,1.05,-12.5,1.1,1.2,6260,3329,1.843,2,39.537468,-122.327377,57.4,0.109,302.6,9,2,2.0,0,0.0,-1,0.0,,0.0,0
12366,1469901736773,,,,,,,-0.28,0.45,0.91,-11.8,-0.8,1.1,6240,3343,,,,,,,,,,,,,,,,,
12386,1469901736796,,,,,,,-0.23,0.58,0.81,-10.9,-1.9,0.7,6200,3358,,,,,,,,,,,,,,,,,
12406,1469901736816,,,,,,,-0.11,0.68,0.89,-10.2,-1.1,0.1,6440,3403,,,,,,,,,,,,,,,,,
12426,1469901736836,,,,,,,-0.03,0.68,0.98,-10.1,0.5,0.1,6420,3343,,,,,,,,,,,,,,,,,
12446,1469901736856,0,263.6,198.7,104,201.5,,-0.04,0.55,1.0,-10.5,1.6,0.1,6300,3358,1.92,2,39.537476,-122.327415,57.61,0.111,302.6,9,2,2.0,0,0.0,-1,0.0,0.0,0.0,0
12466,1469901736876,,,,,,,-0.07,0.37,0.97,-10.8,2.3,0.2,6180,3358,,,,,,,,,,,,,,,,,
12486,1469901736896,,,,,,,-0.18,0.21,0.99,-10.9,2.8,0.2,6200,3358,,,,,,,,,,,,,,,,,
12506,1469901736910,,,,,,,-0.27,0.04,0.99,-10.9,2.5,0.4,6280,3358,,,,,,,,,,,,,,,,,
12526,1469901736930,,,,,,,-0.37,0.01,1.08,-10.9,0.8,0.8,6360,3372,,,,,,,,,,,,,,,,,
12546,1469901736950,,,,82,,,-0.38,0.12,0.96,-10.8,-2.1,0.6,6180,3272,1.849,2,39.537483,-122.327438,58.04,0.113,302.6,9,2,2.0,0,0.0,-1,0.0,,0.0,0
12566,1469901736970,,,,,,,-0.29,0.31,0.84,-10.5,-3.4,0.1,6280,3358,,,,,,,,,,,,,,,,,
12586,1469901736995,,,,,,,-0.15,0.49,0.87,-10.4,-2.7,-0.6,6460,3403,,,,,,,,,,,,,,,,,
12606,1469901737015,,,,,,,-0.05,0.5,0.97,-10.2,-0.2,-1.0,6500,3418,,,,,,,,,,,,,,,,,
12626,1469901737035,,,,,,,-0.02,0.32,1.03,-10.0,2.5,-0.9,6440,3372,,,,,,,,,,,,,,,,,
12646,1469901737055,0,265.8,199.4,67,201.9,,-0.06,0.16,0.98,-10.5,3.9,-0.8,6280,3358,1.904,2,39.537491,-122.327461,58.28,0.114,302.6,9,2,2.0,0,0.0,-1,0.0,0.0,0.0,0
12666,1469901737075,,,,,,,-0.12,0.08,0.94,-11.1,3.9,-0.7,6080,3329,,,,,,,,,,,,,,,,,
12686,1469901737095,,,,,,,-0.21,0.08,0.96,-11.6,2.3,-0.4,6360,3315,,,,,,,,,,,,,,,,,
12706,1469901737115,,,,,,,-0.28,0.05,0.96,-11.5,-0.2,-0.6,6360,3358,,,,,,,,,,,,,,,,,
12726,1469901737135,,,,,,,-0.26,0.21,0.88,-11.2,-3.3,-0.5,6460,3329,,,,,,,,,,,,,,,,,
12746,1469901737155,,,,73,,,-0.22,0.38,0.83,-10.4,-3.6,-1.1,6360,3387,1.843,2,39.537502,-122.327492,58.45,0.116,302.7,9,2,2.0,0,0.0,-1,0.0,,0.0,0
12766,1469901737175,,,,,,,-0.09,0.48,0.91,-9.9,-2.1,-1.7,6460,3418,,,,,,,,,,,,,,,,,
12786,1469901737195,,,,,,,-0.05,0.47,1.01,-10.0,0.4,-2.1,6520,3403,,,,,,,,,,,,,,,,,
12806,1469901737215,,,,,,,-0.08,0.28,1.03,-10.7,2.5,-1.8,6280,3387,,,,,,,,,,,,,,,,,
12826,1469901737235,,,,,,,-0.19,0.06,0.99,-10.7,3.0,-1.0,6520,3358,,,,,,,,,,,,,,,,,
12846,1469901737255,2,265.6,199.2,84,201.8,,-0.27,0.06,1.08,-10.2,1.7,-0.9,6520,3372,1.931,2,39.53751,-122.327515,58.54,0.117,302.8,9,2,2.0,0,0.0,-1,0.0,0.0,0.0,0
12866,1469901737275,,,,,,,-0.28,0.25,0.92,-10.0,-0.7,-0.6,6280,3343,,,,,,,,,,,,,,,,,
12886,1469901737394,,,,,,,-0.22,0.43,0.9,-10.0,-1.7,-1.0,6460,3358,,,,,,,,,,,,,,,,,
12906,1469901737414,,,,,,,-0.1,0.47,0.98,-9.6,-0.1,-1.5,6440,3403,,,,,,,,,,,,,,,,,
12926,1469901737434,,,,,,,-0.04,0.35,1.08,-9.1,2.8,-1.7,6380,3433,,,,,,,,,,,,,,,,,
12946,1469901737454,,,,63,,,-0.07,0.15,1.03,-9.2,5.1,-1.3,6300,3343,1.852,2,39.537525,-122.327576,58.67,0.12,303.0,9,2,2.0,0,0.0,-1,0.0,,0.0,0
12966,1469901737474,,,,,,,-0.13,0.01,1.03,-9.7,5.4,-0.6,6340,3272,,,,,,,,,,,,,,,,,
12986,1469901737494,,,,,,,-0.24,0.04,1.04,-10.4,4.8,-0.1,6300,3387,,,,,,,,,,,,,,,,,
13006,1469901737514,,,,,,,-0.27,0.15,1.06,-10.3,2.7,0.0,6480,3358,,,,,,,,,,,,,,,,,
13026,1469901737534,,,,,,,-0.26,0.34,0.95,-9.9,1.1,0.2,6500,3372,,,,,,,,,,,,,,,,,
13046,1469901737554,1,263.8,198.7,63,201.4,14.01,-0.15,0.42,0.86,-8.9,-0.1,-0.1,6620,3449,1.88,2,39.537525,-122.327576,58.67,0.12,303.0,9,2,2.0,0,0.0,-1,0.0,0.0,0.0,0
13066,1469901737574,,,,,,,-0.06,0.43,0.97,-8.5,0.8,-0.4,6480,3329,,,,,,,,,,,,,,,,,
13086,1469901737492,,,,,,,-0.06,0.33,0.92,-8.8,3.3,-0.4,6120,3358,,,,,,,,,,,,,,,,,
13106,1469901737512,,,,,,,-0.05,0.18,0.96,-9.1,4.2,-0.3,6080,3343,,,,,,,,,,,,,,,,,
13126,1469901737532,,,,,,,-0.09,0.07,0.95,-9.1,3.5,0.1,6160,3258,,,,,,,,,,,,,,,,,
13146,1469901737552,,,,56,,,-0.15,-0.01,0.98,-9.2,2.7,0.2,6140,3272,1.93,2,39.537533,-122.327606,58.96,0.122,303.1,9,2,2.0,0,0.0,-1,0.0,,0.0,0
13166,1469901737572,,,,,,,-0.19,-0.06,0.98,-9.2,1.4,0.2,6200,3300,,,,,,,,,,,,,,,,,
13186,1469901737592,,,,,,,-0.26,-0.21,0.97,-9.3,0.2,0.6,6120,3403,,,,,,,,,,,,,,,,,
13206,1469901737612,,,,,,,-0.32,-0.24,0.9,-9.2,-2.9,0.6,5960,3372,,,,,,,,,,,,,,,,,
13226,1469901737632,,,,,,,-0.31,-0.23,0.85,-9.1,-7.1,0.7,5860,3387,,,,,,,,,,,,,,,,,
13246,1469901737652,0,264.6,198.6,71,201.4,,-0.29,-0.24,0.8,-9.0,-8.8,0.8,5780,3433,1.885,2,39.53754,-122.327644,59.26,0.124,303.3,9,2,2.0,0,0.0,-1,0.0,0.0,0.0,0
13266,1469901737672,,,,,,,-0.27,-0.25,0.77,-8.9,-10.3,1.0,5820,3512,,,,,,,,,,,,,,,,,
13286,1469901737692,,,,,,,-0.26,-0.28,0.75,-9.0,-10.1,1.1,5720,3329,,,,,,,,,,,,,,,,,
13306,1469901737712,,,,,,,-0.25,-0.29,0.74,-8.8,-8.1,0.8,5540,3372,,,,,,,,,,,,,,,,,
13326,1469901737732,,,,,,,-0.23,-0.26,0.79,-8.3,-5.5,0.4,5640,3329,,,,,,,,,,,,,,,,,
13346,1469901737752,,,,61,,,-0.2,-0.18,0.85,-8.1,-2.3,-0.2,5520,3300,1.648,0,39.537544,-122.327667,59.14,0.126,303.4,9,2,2.0,0,0.0,-1,0.0,,0.0,0
13366,1469901737772,,,,,,,-0.09,-0.11,0.83,-8.0,-1.8,-0.4,5480,3258,,,,,,,,,,,,,,,,,
13386,1469901737795,,,,,,,-0.01,-0.07,0.88,-7.8,-1.5,-0.2,5440,3258,,,,,,,,,,,,,,,,,
13406,1469901737815,,,,,,,-0.01,-0.08,0.92,-7.7,-1.5,-0.0,5480,3329,,,,,,,,,,,,,,,,,
13426,1469901737835,,,,,,,-0.01,-0.04,0.95,-7.9,-3.1,0.0,5320,3403,,,,,,,,,,,,,,,,,
13446,1469901737855,0,264.5,198.6,60,201.5,,-0.03,-0.0,1.02,-7.6,-1.5,-0.5,5400,3343,1.739,0,39.537556,-122.327698,59.05,0.127,303.6,9,2,2.0,0,0.0,-1,0.0,0.0,0.0,0
13466,1469901737875,,,,,,,0.01,0.01,0.89,-7.0,-0.1,-1.0,5360,3286,,,,,,,,,,,,,,,,,
13486,1469901737895,,,,,,,0.06,0.02,0.93,-7.0,0.4,-0.3,5260,3329,,,,,,,,,,,,,,,,,
13506,1469901737909,,,,,,,0.09,0.05,0.9,-7.2,-1.9,-0.4,5240,3258,,,,,,,,,,,,,,,,,
13526,1469901737929,,,,,,,0.04,0.07,0.89,-7.0,-2.1,-0.4,5300,3358,,,,,,,,,,,,,,,,,
13546,1469901737949,,,,62,,,0.0,0.08,0.92,-6.7,0.4,-1.0,5320,3343,1.599,0,39.537563,-122.327721,58.88,0.129,303.8,9,2,2.0,0,0.0,-1,0.0,,0.0,0
13566,1469901737969,,,,,,,0.06,0.11,0.95,-6.7,2.8,-1.0,5360,3464,,,,,,,,,,,,,,,,,
13586,1469901737989,,,,,,,0.14,0.14,0.97,-6.9,1.7,-0.9,5440,3627,,,,,,,,,,,,,,,,,
13606,1469901738006,,,,,,,0.15,0.08,0.96,-6.8,-1.1,-0.9,5480,3272,,,,,,,,,,,,,,,,,
13626,1469901738026,,,,,,,0.08,0.09,0.95,-6.6,-0.9,-1.3,5540,3527,,,,,,,,,,,,,,,,,
13646,1469901738046,0,264.8,198.9,69,201.9,,0.07,0.08,0.9,-6.1,0.9,-2.1,5360,3372,1.581,0,39.537567,-122.327759,58.79,0.131,304.0,9,2,2.0,0,0.0,-1,0.0,0.0,0.0,0
13666,1469901738066,,,,,,,0.1,0.12,0.95,-6.1,2.0,-2.2,5180,3387,,,,,,,,,,,,,,,,,
13686,1469901738194,,,,,,,0.1,0.16,0.84,-5.9,1.0,-1.7,5320,3372,,,,,,,,,,,,,,,,,
13706,1469901738214,,,,,,,0.04,0.19,0.8,-6.1,-1.7,-1.7,5140,3372,,,,,,,,,,,,,,,,,
13726,1469901738234,,,,,,,-0.01,0.22,0.81,-5.5,-2.2,-1.9,5340,3403,,,,,,,,,,,,,,,,,
13746,1469901738254,,,,62,,,-0.03,0.12,0.91,-5.5,0.3,-1.8,4880,3418,1.614,0,39.537582,-122.327812,58.55,0.134,304.2,9,2,2.0,0,0.0,-1,0.0,,0.0,0
13766,1469901738274,,,,,,,0.0,0.17,0.9,-5.2,-0.6,-1.2,5120,3449,,,,,,,,,,,,,,,,,
13786,1469901738294,,,,,,,0.02,0.22,0.88,-5.5,-1.7,-1.5,5120,3433,,,,,,,,,,,,,,,,,
13806,1469901738314,,,,,,,0.0,0.16,0.82,-5.4,0.1,-1.5,5060,3387,,,,,,,,,,,,,,,,,
13826,1469901738334,,,,,,,0.04,0.24,0.87,-5.4,-0.2,-0.7,4700,3403,,,,,,,,,,,,,,,,,
13846,1469901738354,0,266.3,199.7,53,202.3,,-0.0,0.32,0.94,-5.6,-1.5,-0.8,5060,3418,1.516,0,39.537582,-122.327812,58.55,0.134,304.2,9,2,2.0,0,0.0,-1,0.0,0.0,0.0,0
13866,1469901738374,,,,,,,-0.05,0.2,0.95,-5.4,0.0,-1.0,4760,3418,,,,,,,,,,,,,,,,,
13886,1469901738295,,,,,,,-0.04,0.16,0.98,-5.4,0.6,-0.4,4920,3387,,,,,,,,,,,,,,,,,
13906,1469901738315,,,,,,,-0.06,0.22,1.06,-5.1,-1.1,-0.8,4920,3433,,,,,,,,,,,,,,,,,
13926,1469901738335,,,,,,,-0.05,0.2,1.03,-5.1,0.9,-0.6,5000,3449,,,,,,,,,,,,,,,,,
13946,1469901738355,,,,43,,,-0.02,0.17,1.01,-5.2,1.2,-0.1,4620,3418,1.432,0,39.537586,-122.32785,58.62,0.136,304.4,9,2,2.0,0,0.0,-1,0.0,,0.0,0
13966,1469901738375,,,,,,,-0.06,0.21,0.92,-4.9,-1.0,-0.8,4940,3418,,,,,,,,,,,,,,,,,
13986,1469901738393,,,,,,,-0.07,0.16,0.94,-5.1,1.2,-0.2,4720,3449,,,,,,,,,,,,,,,,,
14006,1469901738413,,,,,,,-0.04,0.19,0.93,-5.0,-0.7,0.1,4820,3433,,,,,,,,,,,,,,,,,
14026,1469901738433,,,,,,,-0.1,0.14,0.96,-4.8,0.2,-0.0,4940,3449,,,,,,,,,,,,,,,,,
14046,1469901738453,0,266.0,199.3,66,201.9,14.02,-0.03,0.12,0.98,-4.7,1.2,0.3,4720,3449,1.374,3,39.53759,-122.327873,59.12,0.137,304.6,9,2,2.0,0,0.0,-1,0.0,0.0,0.0,0
14066,1469901738473,,,,,,,-0.04,0.2,0.96,-4.7,-1.3,-0.1,4800,3464,,,,,,,,,,,,,,,,,
14086,1469901738492,,,,,,,-0.08,0.1,0.94,-5.0,1.2,-0.1,4640,3464,,,,,,,,,,,,,,,,,
14106,1469901738512,,,,,,,-0.05,0.16,0.88,-4.8,-0.1,-0.3,4780,3464,,,,,,,,,,,,,,,,,
14126,1469901738532,,,,,,,-0.1,0.13,0.85,-4.6,-0.9,-0.1,4740,3449,,,,,,,,,,,,,,,,,
14146,1469901738552,,,,48,,,-0.09,0.07,0.88,-4.8,0.1,0.5,4680,3464,1.385,3,39.537598,-122.327896,59.46,0.138,304.7,9,2,2.0,0,0.0,-1,0.0,,0.0,0
14166,1469901738572,,,,,,,-0.1,0.13,0.92,-4.9,-2.3,-0.2,4800,3464,,,,,,,,,,,,,,,,,
14186,1469901738592,,,,,,,-0.12,0.1,0.87,-5.0,-2.1,-0.3,4700,3480,,,,,,,,,,,,,,,,,
14206,1469901738612,,,,,,,-0.08,0.15,0.92,-5.1,-1.7,-0.6,4660,3480,,,,,,,,,,,,,,,,,
14226,1469901738632,,,,,,,-0.12,0.06,0.91,-4.9,-0.5,-0.6,4760,3495,,,,,,,,,,,,,,,,,
14246,1469901738652,0,263.8,198.7,54,201.5,,-0.11,0.06,0.97,-4.8,0.2,-0.6,4840,3480,1.385,3,39.537605,-122.327934,59.76,0.14,304.9,9,2,2.0,0,0.0,-1,0.0,0.0,0.0,0
14266,1469901738672,,,,,,,-0.14,0.09,0.99,-4.7,0.0,-0.6,4460,3495,,,,,,,,,,,,,,,,,
14286,1469901738692,,,,,,,-0.17,0.12,1.02,-5.2,0.4,-0.4,4640,3464,,,,,,,,,,,,,,,,,
14306,1469901738712,,,,,,,-0.16,0.19,1.03,-5.1,-0.6,-0.7,4640,3495,,,,,,,,,,,,,,,,,
14326,1469901738732,,,,,,,-0.17,0.15,1.01,-5.0,-0.0,-0.5,4500,3495,,,,,,,,,,,,,,,,,
14346,1469901738752,,,,53,,,-0.14,0.1,0.97,-4.8,-0.6,-0.4,4780,3495,1.315,3,39.537609,-122.327965,60.07,0.142,305.2,9,2,2.0,0,0.0,-1,0.0,,0.0,0
14366,1469901738772,,,,,,,-0.14,0.07,0.98,-4.7,-0.5,-0.5,4600,3512,,,,,,,,,,,,,,,,,
14386,1469901738795,,,,,,,-0.16,0.09,1.02,-4.4,0.0,-1.0,4640,3495,,,,,,,,,,,,,,,,,
14406,1469901738815,,,,,,,-0.17,0.01,1.02,-4.4,0.5,-1.0,4460,3495,,,,,,,,,,,,,,,,,
14426,1469901738835,,,,,,,-0.2,0.03,1.05,-3.9,0.1,-1.2,4700,3512,,,,,,,,,,,,,,,,,
14446,1469901738855,0,264.8,199.0,48,201.6,,-0.21,0.01,1.05,-3.8,1.1,-1.0,4480,3544,1.355,3,39.537617,-122.327988,60.41,0.143,305.4,9,2,2.0,0,0.0,-1,0.0,0.0,0.0,0
14466,1469901738875,,,,,,,-0.23,0.04,1.03,-3.8,1.3,-1.3,4520,3512,,,,,,,,,,,,,,,,,
14486,1469901738895,,,,,,,-0.25,0.03,0.98,-3.8,1.0,-1.3,4740,3512,,,,,,,,,,,,,,,,,
14506,1469901739009,,,,,,,-0.28,0.06,0.98,-3.8,1.2,-1.2,4540,3527,,,,,,,,,,,,,,,,,
14526,1469901739029,,,,,,,-0.28,-0.02,1.02,-3.6,1.5,-1.0,4400,3512,,,,,,,,,,,,,,,,,
14546,1469901739049,,,,55,,,-0.23,0.03,1.02,-3.3,0.7,-1.2,4480,3560,1.27,3,39.537624,-122.328056,60.95,0.147,305.9,9,2,2.0,0,0.0,-1,0.0,,0.0,0
14566,1469901739069,,,,,,,-0.23,-0.01,0.96,-3.2,1.2,-1.0,4660,3512,,,,,,,,,,,,,,,,,
14586,1469901739089,,,,,,,-0.25,-0.0,0.95,-3.0,1.8,-1.2,4660,3527,,,,,,,,,,,,,,,,,
14606,1469901739109,,,,,,,-0.23,-0.02,0.98,-2.6,2.2,-1.1,4360,3527,,,,,,,,,,,,,,,,,
14626,1469901739129,,,,,,,-0.23,-0.05,0.98,-2.5,1.3,-1.2,4480,3527,,,,,,,,,,,,,,,,,
14646,1469901739149,0,264.8,199.0,48,201.8,,-0.24,-0.13,1.06,-2.5,1.2,-1.0,4360,3449,1.27,3,39.537624,-122.328056,60.95,0.147,305.9,9,2,2.0,0,0.0,-1,0.0,0.0,0.0,0
14666,1469901739169,,,,,,,-0.22,-0.12,1.04,-2.1,0.9,-1.0,4400,3449,,,,,,,,,,,,,,,,,
14686,1469901739095,,,,,,,-0.17,-0.13,1.09,-1.7,0.5,-0.9,4360,3387,,,,,,,,,,,,,,,,,
14706,1469901739115,,,,,,,-0.16,-0.17,1.05,-1.2,-0.3,-0.9,4300,3387,,,,,,,,,,,,,,,,,
14726,1469901739135,,,,,,,-0.15,-0.16,0.97,-1.2,0.6,-0.7,4260,3387,,,,,,,,,,,,,,,,,
14746,1469901739155,,,,73,,,-0.11,-0.12,0.99,-1.3,0.2,-0.8,4260,3593,1.264,3,39.537632,-122.328094,61.17,0.149,306.1,9,2,2.0,0,0.0,-1,0.0,,0.0,0
14766,1469901739175,,,,,,,-0.11,-0.02,1.0,-1.5,-1.2,-0.8,4220,3560,,,,,,,,,,,,,,,,,
14786,1469901739195,,,,,,,-0.1,-0.07,0.95,-1.8,-1.8,-0.7,4160,3512,,,,,,,,,,,,,,,,,
14806,1469901739215,,,,,,,-0.1,-0.06,0.93,-1.6,-2.2,-1.0,4120,3480,,,,,,,,,,,,,,,,,
14826,1469901739235,,,,,,,-0.06,-0.04,0.88,-1.5,-1.0,-1.0,4140,3464,,,,,,,,,,,,,,,,,
14846,1469901739255,0,264.6,198.7,77,201.9,,-0.02,0.01,0.88,-1.4,-1.1,-1.1,3940,3464,1.163,3,39.53764,-122.328117,61.55,0.151,306.4,9,2,2.0,0,0.0,-1,0.0,0.0,0.0,0
14866,1469901739275,,,,,,,-0.01,0.09,0.88,-1.5,-1.4,-1.2,4040,3449,,,,,,,,,,,,,,,,,
14886,1469901739295,,,,,,,-0.06,-0.01,0.87,-1.5,-1.0,-1.0,3900,3433,,,,,,,,,,,,,,,,,
14906,1469901739315,,,,,,,-0.05,0.01,0.97,-1.3,-1.3,-1.4,3900,3527,,,,,,,,,,,,,,,,,
14926,1469901739335,,,,,,,-0.02,0.03,0.97,-1.2,-1.8,-1.5,3880,3495,,,,,,,,,,,,,,,,,
14946,1469901739355,,,,59,,,-0.02,0.05,0.89,-1.2,-1.9,-1.4,3820,3464,1.183,3,39.537643,-122.328156,61.54,0.153,306.6,9,2,2.0,0,0.0,-1,0.0,,0.0,0
14966,1469901739375,,,,,,,-0.03,0.05,0.86,-1.4,-1.6,-1.5,3780,3449,,,,,,,,,,,,,,,,,
14986,1469901739393,,,,,,,-0.03,0.07,0.84,-1.4,-1.1,-1.4,3740,3433,,,,,,,,,,,,,,,,,
15006,1469901739413,,,,,,,-0.05,0.02,0.89,-1.4,-1.2,-1.3,3740,3418,,,,,,,,,,,,,,,,,
15026,1469901739433,,,,,,,-0.02,-0.02,0.91,-1.3,-1.4,-0.9,3680,3449,,,,,,,,,,,,,,,,,
15046,1469901739453,0,264.3,198.6,54,201.3,13.96,0.01,-0.01,0.88,-1.2,-1.3,-0.8,3620,3464,1.091,4,39.537651,-122.328178,61.32,0.154,306.8,9,2,2.0,0,0.0,-1,0.0,0.0,0.0,0
15066,1469901739473,,,,,,,0.03,-0.02,0.86,-1.1,-2.0,-0.7,3620,3433,,,,,,,,,,,,,,,,,
15086,1469901739492,,,,,,,0.05,-0.01,0.89,-1.2,-1.8,-0.5,3580,3372,,,,,,,,,,,,,,,,,
15106,1469901739512,,,,,,,0.06,-0.0,0.91,-1.1,-1.7,-0.7,3580,3464,,,,,,,,,,,,,,,,,
15126,1469901739532,,,,,,,0.06,-0.02,0.9,-1.3,-1.4,-0.7,3520,3418,,,,,,,,,,,,,,,,,
15146,1469901739552,,,,54,,,0.06,-0.04,0.88,-1.2,-1.3,-0.5,3520,3418,1.061,4,39.537655,-122.328217,61.06,0.156,307.1,9,2,2.0,0,0.0,-1,0.0,,0.0,0
15166,1469901739572,,,,,,,0.06,-0.04,0.94,-1.4,-1.5,-0.3,3420,3433,,,,,,,,,,,,,,,,,
15186,1469901739592,,,,,,,0.05,-0.06,0.94,-1.4,-1.7,-0.3,3360,3433,,,,,,,,,,,,,,,,,
15206,1469901739612,,,,,,,0.08,-0.04,0.98,-1.4,-1.4,-0.3,3320,3449,,,,,,,,,,,,,,,,,
15226,1469901739632,,,,,,,0.11,-0.04,0.98,-1.4,-1.6,-0.3,3260,3449,,,,,,,,,,,,,,,,,
15246,1469901739652,0,264.6,198.8,50,201.7,,0.12,-0.03,0.94,-1.0,-2.3,-0.3,3200,3387,1.004,4,39.537662,-122.328247,60.84,0.158,307.3,9,2,2.0,0,0.0,-1,0.0,0.0,0.0,0
15266,1469901739672,,,,,,,0.12,-0.02,0.93,-1.0,-1.5,-0.1,3140,3464,,,,,,,,,,,,,,,,,
15286,1469901739792,,,,,,,0.09,-0.03,0.98,-1.5,-0.8,0.1,3240,3464,,,,,,,,,,,,,,,,,
15306,1469901739812,,,,,,,0.08,-0.02,1.03,-1.6,-0.7,0.2,3120,3464,,,,,,,,,,,,,,,,,
15326,1469901739832,,,,,,,0.07,-0.01,1.06,-1.8,-0.4,0.2,3120,3418,,,,,,,,,,,,,,,,,
15346,1469901739852,,,,41,,,0.07,-0.04,1.02,-1.6,-1.0,0.2,3120,3387,0.93,4,39.537674,-122.328308,60.51,0.161,307.8,9,2,2.0,0,0.0,-1,0.0,,0.0,0
15366,1469901739872,,,,,,,0.08,-0.04,0.98,-1.5,-1.3,0.3,3020,3358,,,,,,,,,,,,,,,,,
15386,1469901739892,,,,,,,0.1,-0.02,0.97,-1.5,-1.1,0.4,3080,3403,,,,,,,,,,,,,,,,,
15406,1469901739912,,,,,,,0.1,-0.05,0.9,-1.4,-0.1,0.1,2980,3372,,,,,,,,,,,,,,,,,
15426,1469901739932,,,,,,,0.12,-0.07,0.87,-1.3,-0.5,0.1,2900,3358,,,,,,,,,,,,,,,,,
15446,1469901739952,0,265.1,199.0,43,201.9,,0.11,-0.1,0.84,-1.4,-0.7,0.2,2840,3372,0.915,4,39.537674,-122.328308,60.51,0.161,307.8,9,2,2.0,0,0.0,-1,0.0,0.0,0.0,0
15466,1469901739972,,,,,,,0.15,-0.07,0.84,-1.4,-1.2,0.1,2820,3258,,,,,,,,,,,,,,,,,
15486,1469901739992,,,,,,,0.16,-0.11,0.84,-1.2,-1.0,0.4,2960,3258,,,,,,,,,,,,,,,,,
15506,1469901739909,,,,,,,0.16,-0.1,0.85,-1.0,-1.6,0.4,2840,3343,,,,,,,,,,,,,,,,,
15526,1469901739929,,,,,,,0.16,-0.1,0.89,-0.9,-1.6,0.3,2940,3329,,,,,,,,,,,,,,,,,
15546,1469901739949,,,,59,,,0.17,-0.07,0.88,-0.8,-1.8,0.2,2980,3329,0.861,4,39.537682,-122.328331,60.07,0.162,308.0,9,2,2.0,0,0.0,-1,0.0,,0.0,0
15566,1469901739969,,,,,,,0.18,-0.01,0.9,-0.6,-1.3,-0.0,3020,3329,,,,,,,,,,,,,,,,,
15586,1469901739995,,,,,,,0.2,-0.01,0.9,-0.6,-0.6,-0.2,3100,3315,,,,,,,,,,,,,,,,,
15606,1469901740015,,,,,,,0.19,-0.01,0.93,-0.5,-0.6,-0.5,3160,3286,,,,,,,,,,,,,,,,,
15626,1469901740035,,,,,,,0.2,-0.04,0.93,-0.2,-1.2,-0.6,3100,3258,,,,,,,,,,,,,,,,,
15646,1469901740055,0,265.0,199.3,48,202.1,,0.22,-0.06,0.95,0.1,-1.2,-0.7,3100,3244,0.905,4,39.537685,-122.328369,59.9,0.164,308.2,9,2,2.0,0,0.0,-1,0.0,0.0,0.0,0
15666,1469901740075,,,,,,,0.24,-0.08,0.94,0.5,-1.2,-0.7,3160,3258,,,,,,,,,,,,,,,,,
15686,1469901740095,,,,,,,0.24,-0.07,0.96,0.5,-0.8,-0.8,3200,3258,,,,,,,,,,,,,,,,,
15706,1469901740115,,,,,,,0.26,-0.07,1.0,0.4,-0.7,-0.7,3220,3244,,,,,,,,,,,,,,,,,
15726,1469901740135,,,,,,,0.27,-0.09,1.01,0.4,-0.2,-0.6,3280,3258,,,,,,,,,,,,,,,,,
15746,1469901740155,,,,40,,,0.27,-0.1,0.97,0.7,-0.3,-0.5,3240,3230,0.954,4,39.537693,-122.3284,59.29,0.166,308.5,9,2,2.0,0,0.0,-1,0.0,,0.0,0
15766,1469901740175,,,,,,,0.29,-0.1,0.92,0.9,-0.5,-0.4,3300,3204,,,,,,,,,,,,,,,,,
15786,1469901740195,,,,,,,0.3,-0.09,0.89,1.0,0.0,-0.3,3340,3230,,,,,,,,,,,,,,,,,
15806,1469901740215,,,,,,,0.3,-0.09,0.87,1.1,0.0,-0.3,3300,3178,,,,,,,,,,,,,,,,,
15826,1469901740235,,,,,,,0.3,-0.11,0.86,1.3,0.0,-0.1,3440,3190,,,,,,,,,,,,,,,,,
15846,1469901740255,0,265.5,199.3,66,201.6,,0.29,-0.11,0.86,1.4,-0.1,-0.0,3500,3178,1.022,4,39.537697,-122.328423,58.79,0.167,308.7,9,2,2.0,0,0.0,-1,0.0,0.0,0.0,0
15866,1469901740275,,,,,,,0.29,-0.12,0.85,1.5,-0.5,0.2,3540,3126,,,,,,,,,,,,,,,,,
15886,1469901740291,,,,,,,0.29,-0.11,0.88,1.5,-0.9,0.2,3540,3126,,,,,,,,,,,,,,,,,
15906,1469901740311,,,,,,,0.27,-0.13,0.86,1.6,-0.9,-0.1,3540,3126,,,,,,,,,,,,,,,,,
15926,1469901740331,,,,,,,0.28,-0.12,0.86,1.8,-1.1,-0.3,3660,3138,,,,,,,,,,,,,,,,,
15946,1469901740351,,,,47,,,0.28,-0.12,0.86,1.8,-1.3,-0.2,3700,3101,1.104,4,39.537704,-122.328453,58.14,0.169,308.9,9,2,2.0,0,0.0,-1,0.0,,0.0,0
15966,1469901740371,,,,,,,0.29,-0.13,0.91,2.0,-1.3,-0.3,3740,3126,,,,,,,,,,,,,,,,,
15986,1469901740393,,,,,,,0.29,-0.12,0.92,2.2,-1.6,-0.7,3700,3101,,,,,,,,,,,,,,,,,
16006,1469901740413,,,,,,,0.26,-0.08,0.94,2.2,-1.1,-1.0,3720,3089,,,,,,,,,,,,,,,,,
16026,1469901740433,,,,,,,0.24,-0.09,0.97,2.4,-1.7,-1.2,3920,3101,,,,,,,,,,,,,,,,,
16046,1469901740453,0,265.0,199.1,58,202.0,13.98,0.24,-0.14,1.03,2.4,-1.1,-1.3,3880,3101,1.169,3,39.537708,-122.328491,57.71,0.171,309.1,9,2,2.0,0,0.0,-1,0.0,0.0,0.0,0
16066,1469901740473,,,,,,,0.22,-0.17,1.06,2.5,-0.3,-1.8,3960,3113,,,,,,,,,,,,,,,,,
16086,1469901740591,,,,,,,0.21,-0.21,1.13,2.4,0.0,-1.8,4060,3040,,,,,,,,,,,,,,,,,
16106,1469901740611,,,,,,,0.25,-0.29,1.16,2.5,-0.8,-1.4,4060,3064,,,,,,,,,,,,,,,,,
16126,1469901740631,,,,,,,0.23,-0.36,1.19,2.7,-1.0,-1.4,4060,3064,,,,,,,,,,,,,,,,,
16146,1469901740651,,,,69,,,0.21,-0.33,1.22,2.5,-1.4,-1.3,4060,3015,1.273,3,39.537724,-122.328537,56.24,0.174,309.4,9,2,2.0,0,0.0,-1,0.0,,0.0,0
16166,1469901740671,,,,,,,0.22,-0.36,1.25,2.6,-0.6,-1.2,4180,3015,,,,,,,,,,,,,,,,,
16186,1469901740691,,,,,,,0.24,-0.31,1.19,2.7,-0.3,-1.2,4200,3027,,,,,,,,,,,,,,,,,
16206,1469901740711,,,,,,,0.29,-0.34,1.11,2.9,-1.0,-0.9,4260,3004,,,,,,,,,,,,,,,,,
16226,1469901740731,,,,,,,0.32,-0.38,1.04,3.1,-2.3,-0.7,4380,3027,,,,,,,,,,,,,,,,,
16246,1469901740751,0,266.0,199.4,85,202.0,,0.29,-0.37,1.12,3.1,-2.2,-0.5,4380,2992,1.361,3,39.537724,-122.328537,56.24,0.174,309.4,9,2,2.0,0,0.0,-1,0.0,0.0,0.0,0
16266,1469901740771,,,,,,,0.28,-0.27,1.09,2.9,-1.6,-0.3,4380,2969,,,,,,,,,,,,,,,,,
16286,1469901740692,,,,,,,0.28,-0.21,1.13,3.0,-1.8,-0.4,4440,2958,,,,,,,,,,,,,,,,,
16306,1469901740712,,,,,,,0.28,-0.25,1.13,3.0,-1.5,-0.0,4480,2958,,,,,,,,,,,,,,,,,
16326,1469901740732,,,,,,,0.29,-0.3,1.11,3.3,-1.9,0.1,4460,2958,,,,,,,,,,,,,,,,,
16346,1469901740752,,,,77,,,0.27,-0.33,1.15,3.4,-1.6,0.7,4440,2969,1.471,0,39.537727,-122.328568,55.39,0.175,309.6,9,2,2.0,0,0.0,-1,0.0,,0.0,0
16366,1469901740772,,,,,,,0.27,-0.3,1.13,3.7,-2.6,0.9,4620,2969,,,,,,,,,,,,,,,,,
16386,1469901740795,,,,,,,0.28,-0.3,1.13,3.8,-2.0,1.4,4680,2946,,,,,,,,,,,,,,,,,
16406,1469901740815,,,,,,,0.26,-0.27,1.18,3.7,-2.4,1.5,4680,2980,,,,,,,,,,,,,,,,,
16426,1469901740835,,,,,,,0.25,-0.29,1.18,3.3,-2.2,1.8,4620,2935,,,,,,,,,,,,,,,,,
16446,1469901740855,0,265.8,199.5,67,202.6,,0.19,-0.21,1.18,2.9,-2.6,1.6,4760,2912,1.537,0,39.537735,-122.32859,54.74,0.177,309.8,9,2,2.0,0,0.0,-1,0.0,0.0,0.0,0
16466,1469901740875,,,,,,,0.18,-0.15,1.16,2.4,-2.3,1.2,4640,2958,,,,,,,,,,,,,,,,,
16486,1469901740895,,,,,,,0.19,-0.16,1.17,2.0,-2.6,1.4,4780,2912,,,,,,,,,,,,,,,,,
16506,1469901740909,,,,,,,0.18,-0.18,1.21,2.0,-3.0,1.6,4840,2912,,,,,,,,,,,,,,,,,
16526,1469901740929,,,,,,,0.15,-0.28,1.24,2.4,-1.4,1.9,4880,2890,,,,,,,,,,,,,,,,,
16546,1469901740949,,,,72,,,0.13,-0.33,1.19,2.9,-2.1,2.0,4740,2890,1.616,0,39.537743,-122.328629,53.77,0.179,310.0,9,2,2.0,0,0.0,-1,0.0,,0.0,0
16566,1469901740969,,,,,,,0.14,-0.29,1.13,2.9,-1.2,1.9,4820,2880,,,,,,,,,,,,,,,,,
16586,1469901740995,,,,,,,0.2,-0.23,1.17,2.1,-0.7,1.8,4860,2858,,,,,,,,,,,,,,,,,
16606,1469901741015,,,,,,,0.22,-0.2,1.17,1.9,-0.9,1.3,4820,2890,,,,,,,,,,,,,,,,,
16626,1469901741035,,,,,,,0.24,-0.32,1.13,2.4,0.9,1.2,4860,2847,,,,,,,,,,,,,,,,,
16646,1469901741055,0,267.0,200.0,56,202.6,,0.27,-0.23,0.96,2.4,-0.6,1.4,4900,2869,1.661,0,39.53775,-122.328651,53.03,0.18,310.1,9,2,2.0,0,0.0,-1,0.0,0.0,0.0,0
16666,1469901741075,,,,,,,0.22,-0.2,0.89,1.8,-0.6,1.0,4920,2858,,,,,,,,,,,,,,,,,
16686,1469901741095,,,,,,,0.25,-0.2,0.79,1.7,-0.3,1.0,4960,2847,,,,,,,,,,,,,,,,,
16706,1469901741115,,,,,,,0.27,-0.22,0.77,2.1,-2.0,1.0,5080,2816,,,,,,,,,,,,,,,,,
16726,1469901741135,,,,,,,0.21,-0.12,0.73,1.9,-2.2,0.8,4960,2816,,,,,,,,,,,,,,,,,
16746,1469901741155,,,,76,,,0.24,-0.2,0.71,1.8,-0.5,1.0,5120,2796,1.763,2,39.537758,-122.328682,52.25,0.182,310.3,9,2,2.0,0,0.0,-1,0.0,,0.0,0
16766,1469901741175,,,,,,,0.25,-0.16,0.56,2.2,-2.2,1.0,5000,2776,,,,,,,,,,,,,,,,,
16786,1469901741195,,,,,,,0.22,-0.16,0.55,1.9,-1.9,0.3,5120,2796,,,,,,,,,,,,,,,,,
16806,1469901741215,,,,,,,0.29,-0.22,0.52,2.4,-0.9,-0.0,5220,2766,,,,,,,,,,,,,,,,,
16826,1469901741235,,,,,,,0.3,-0.22,0.58,2.3,-1.3,0.1,5120,2756,,,,,,,,,,,,,,,,,
16846,1469901741255,0,267.0,200.0,63,202.5,,0.3,-0.21,0.7,2.2,-2.9,0.0,5240,2746,1.832,2,39.537766,-122.328705,51.69,0.183,310.4,9,2,2.0,0,0.0,-1,0.0,0.0,0.0,0
16866,1469901741275,,,,,,,0.23,-0.19,0.77,2.4,-1.9,0.1,5200,2796,,,,,,,,,,,,,,,,,
16886,1469901741394,,,,,,,0.27,-0.25,0.73,2.4,0.2,-0.1,5260,2766,,,,,,,,,,,,,,,,,
16906,1469901741414,,,,,,,0.27,-0.18,0.72,2.5,-1.7,-0.0,5200,2796,,,,,,,,,,,,,,,,,
16926,1469901741434,,,,,,,0.23,-0.27,0.82,2.4,-2.8,0.0,5300,2806,,,,,,,,,,,,,,,,,
16946,1469901741454,,,,58,,,0.2,-0.22,0.9,3.1,-1.3,0.1,5200,2806,1.86,2,39.537777,-122.328758,50.35,0.186,310.7,9,2,2.0,0,0.0,-1,0.0,,0.0,0
16966,1469901741474,,,,,,,0.27,-0.21,0.76,2.9,-0.1,0.1,5240,2736,,,,,,,,,,,,,,,,,
16986,1469901741494,,,,,,,0.27,-0.23,0.76,3.0,-1.6,0.1,5280,2727,,,,,,,,,,,,,,,,,
17006,1469901741514,,,,,,,0.23,-0.28,0.87,3.0,-2.4,-0.2,5260,2756,,,,,,,,,,,,,,,,,
17026,1469901741534,,,,,,,0.18,-0.18,0.9,3.0,-0.3,0.1,5220,2756,,,,,,,,,,,,,,,,,
17046,1469901741554,0,266.3,199.7,63,202.3,13.99,0.26,-0.26,0.85,2.8,0.4,-0.0,5180,2766,1.867,2,39.537777,-122.328758,50.35,0.186,310.7,9,2,2.0,0,0.0,-1,0.0,0.0,0.0,0
17066,1469901741574,,,,,,,0.26,-0.16,0.81,3.2,-2.4,-0.3,5200,2716,,,,,,,,,,,,,,,,,
17086,1469901741492,,,,,,,0.2,-0.17,0.8,2.6,-1.9,-0.6,5160,2716,,,,,,,,,,,,,,,,,
17106,1469901741512,,,,,,,0.2,-0.2,0.75,3.1,-0.9,-0.5,5120,2707,,,,,,,,,,,,,,,,,
17126,1469901741532,,,,,,,0.21,-0.19,0.87,2.5,-0.8,-0.3,5200,2736,,,,,,,,,,,,,,,,,
17146,1469901741552,,,,90,,,0.2,-0.26,0.93,3.1,-2.5,-0.2,5060,2746,1.881,2,39.537785,-122.328766,49.63,0.187,310.7,9,2,2.0,0,0.0,-1,0.0,,0.0,0
17166,1469901741572,,,,,,,0.18,-0.14,0.91,2.9,-1.2,-0.5,5080,2746,,,,,,,,,,,,,,,,,
17186,1469901741592,,,,,,,0.23,-0.27,0.79,3.1,-1.0,-0.7,5100,2689,,,,,,,,,,,,,,,,,
17206,1469901741612,,,,,,,0.2,-0.22,0.67,3.4,-2.5,-1.1,5040,2661,,,,,,,,,,,,,,,,,
17226,1469901741632,,,,,,,0.18,-0.22,0.68,3.1,-2.3,-1.6,5080,2689,,,,,,,,,,,,,,,,,
17246,1469901741652,0,267.0,200.0,55,202.6,,0.23,-0.21,0.66,3.6,-1.2,-1.9,5040,2670,1.886,2,39.537792,-122.328796,49.01,0.189,310.8,9,2,2.0,0,0.0,-1,0.0,0.0,0.0,0
17266,1469901741672,,,,,,,0.27,-0.22,0.79,3.1,-1.8,-1.8,5060,2670,,,,,,,,,,,,,,,,,
