"Interval"|"ms"|0|0|1,"Utc"|"ms"|0|0|1,"FuelLevel"|"F"|0|100|5,"OilTemp"|"F"|0.0|300.0|5,"Coolant"|"F"|0.0|300.0|5,"OilPress"|"PSI"|0|150|10,"EngineTemp"|"F"|0.0|300.0|5,"Battery"|"Volts"|0.0|20.0|1,"AccelX"|"G"|-3.0|3.0|50,"AccelY"|"G"|-3.0|3.0|50,"AccelZ"|"G"|-3.0|3.0|50,"Yaw"|"Deg/Sec"|-300.0|300.0|50,"Pitch"|"Deg/Sec"|-300.0|300.0|50,"Roll"|"Deg/Sec"|-300.0|300.0|50,"RPM"|""|0|10000|50,"Driveshaft"|"RPM"|0|5000|50,"GearRatio"|""|-5.0|5.0|10,"Gear"|""|-1|5|10,"Latitude"|"Degrees"|-180.0|180.0|10,"Longitude"|"Degrees"|-180.0|180.0|10,"Speed"|"MPH"|0.0|150.0|10,"Distance"|"Miles"|0.0|0.0|10,"Altitude"|"Feet"|0.0|4000.0|10,"GPSSats"|""|0|20|10,"GPSQual"|""|0|5|10,"GPSDOP"|""|0.0|20.0|10,"LapCount"|""|0|0|10,"LapTime"|"Min"|0.0|0.0|10,"Sector"|""|0|0|10,"SectorTime"|"Min"|0.0|0.0|10,"PredTime"|"Min"|0.0|0.0|5,"ElapsedTime"|"Min"|0.0|0.0|10,"CurrentLap"|""|0|0|10
1254280,1469900537569,,,,,,,0.02,0.1,0.98,-3.0,0.2,-0.1,200,0,,,,,,,,,,,,,,,,,
1254300,1469900537589,,,,,,,0.02,0.1,0.98,-3.0,0.2,-0.0,320,0,,,,,,,,,,,,,,,,,
1254320,1469900537609,,,,,,,0.02,0.1,0.98,-3.1,0.3,-0.0,320,0,,,,,,,,,,,,,,,,,
1254342,1469900537631,0,200.9,175.8,0,180.6,,0.02,0.09,0.98,-3.0,0.2,-0.1,320,136,0.0,0,39.538696,-122.332184,0.0,2.967,285.0,11,2,1.3,1,11.34,12,0.34,13.4313,9.025,2
1254361,1469900537650,,,,,,,0.02,0.1,0.98,-3.0,0.2,-0.1,440,136,,,,,,,,,,,,,,,,,
1254381,1469900537670,,,,,,,0.02,0.1,0.98,-3.0,0.2,-0.1,440,136,,,,,,,,,,,,,,,,,
1254401,1469900537690,,,,,,,0.02,0.11,0.98,-3.0,0.2,-0.1,440,136,,,,,,,,,,,,,,,,,
1254421,1469900537809,,,,,,,0.03,0.08,0.98,-2.9,0.3,-0.2,440,136,,,,,,,,,,,,,,,,,
1254441,1469900537829,,,,1,,,0.03,0.1,0.99,-2.9,0.1,-0.1,500,136,3.235,1,39.538696,-122.332184,0.0,2.967,285.0,11,2,1.3,1,11.34,12,0.34,,9.0283,2
1254461,1469900537849,,,,,,,0.02,0.09,0.97,-2.8,0.1,-0.2,620,0,,,,,,,,,,,,,,,,,
1254481,1469900537869,,,,,,,0.02,0.07,0.97,-2.8,-0.1,-0.4,620,0,,,,,,,,,,,,,,,,,
1254501,1469900537889,,,,,,,0.03,0.09,0.99,-2.9,0.2,-0.2,780,0,,,,,,,,,,,,,,,,,
1254521,1469900537909,,,,,,,0.04,0.09,0.99,-2.9,0.1,-0.3,720,0,,,,,,,,,,,,,,,,,
1254543,1469900537931,0,201.6,176.8,5,181.0,,0.02,0.07,0.99,-2.8,-0.0,-0.5,820,0,0.0,0,39.538696,-122.332184,0.0,2.967,285.0,11,2,1.3,1,11.34,12,0.34,13.4363,9.0283,2
1254562,1469900537950,,,,,,,0.01,0.05,1.0,-2.7,-0.1,-0.6,900,0,,,,,,,,,,,,,,,,,
1254582,1469900537970,,,,,,,0.01,0.03,1.0,-2.8,-0.3,-0.4,960,0,,,,,,,,,,,,,,,,,
1254602,1469900537990,,,,,,,0.0,0.03,0.99,-2.9,-0.5,-0.1,1000,0,,,,,,,,,,,,,,,,,
1254622,1469900537904,,,,,,,-0.01,0.05,0.99,-2.9,-0.6,-0.1,1040,0,,,,,,,,,,,,,,,,,
1254642,1469900537924,,,,8,,,-0.03,0.06,0.98,-3.0,-0.6,-0.2,1040,0,0.0,0,39.538696,-122.332184,0.0,2.967,285.0,11,2,1.3,1,11.34,12,0.34,,9.03,2
1254662,1469900537944,,,,,,,-0.03,0.08,0.99,-3.0,-0.9,-0.1,1100,0,,,,,,,,,,,,,,,,,
1254682,1469900537964,,,,,,,-0.03,0.09,0.99,-3.0,-1.3,-0.0,1120,0,,,,,,,,,,,,,,,,,
1254702,1469900537991,,,,,,,-0.02,0.11,0.98,-3.0,-1.4,-0.0,1160,0,,,,,,,,,,,,,,,,,
1254722,1469900538011,,,,,,,-0.01,0.11,0.99,-3.0,-0.9,-0.1,1160,0,,,,,,,,,,,,,,,,,
1254744,1469900538033,0,201.3,176.8,11,181.7,13.35,-0.0,0.11,0.98,-3.0,-0.8,-0.1,1180,0,0.0,0,39.538696,-122.332184,0.0,2.967,285.0,11,2,1.4,1,11.34,12,0.34,13.4381,9.0317,2
1254763,1469900538052,,,,,,,0.0,0.11,0.97,-3.0,-0.6,-0.1,1200,0,,,,,,,,,,,,,,,,,
1254783,1469900538072,,,,,,,-0.0,0.11,0.97,-3.0,-0.6,-0.1,1240,0,,,,,,,,,,,,,,,,,
1254803,1469900538092,,,,,,,0.01,0.12,0.98,-3.0,-0.6,-0.0,1220,0,,,,,,,,,,,,,,,,,
1254823,1469900538112,,,,,,,0.01,0.12,0.98,-3.0,-0.3,-0.1,1260,0,,,,,,,,,,,,,,,,,
1254843,1469900538132,,,,17,,,0.01,0.12,0.98,-3.0,-0.3,-0.2,1240,0,0.0,0,39.538696,-122.332184,0.0,2.967,285.0,11,2,1.4,1,11.34,12,0.34,,9.0333,2
1254863,1469900538152,,,,,,,0.02,0.11,0.98,-3.0,-0.3,-0.2,1280,0,,,,,,,,,,,,,,,,,
1254883,1469900538172,,,,,,,0.02,0.1,0.99,-3.0,-0.3,-0.2,1260,0,,,,,,,,,,,,,,,,,
1254903,1469900538192,,,,,,,0.02,0.1,0.98,-3.0,-0.3,-0.2,1260,0,,,,,,,,,,,,,,,,,
1254923,1469900538212,,,,,,,0.02,0.1,0.99,-2.9,-0.3,-0.2,1280,0,,,,,,,,,,,,,,,,,
1254945,1469900538234,0,201.9,177.3,24,180.5,,0.02,0.11,0.98,-3.0,-0.3,-0.2,1260,0,0.0,0,39.538696,-122.332184,0.0,2.967,285.0,11,2,1.4,1,11.34,12,0.34,13.4414,9.035,2
1254964,1469900538253,,,,,,,0.02,0.1,0.98,-3.0,-0.2,-0.2,1280,0,,,,,,,,,,,,,,,,,
1254984,1469900538273,,,,,,,0.02,0.1,0.97,-2.9,-0.2,-0.3,1220,0,,,,,,,,,,,,,,,,,
1255004,1469900538293,,,,,,,0.02,0.1,0.97,-2.9,-0.2,-0.2,1240,0,,,,,,,,,,,,,,,,,
1255024,1469900538313,,,,,,,0.02,0.11,0.98,-2.9,-0.2,-0.3,1220,0,,,,,,,,,,,,,,,,,
1255044,1469900538333,,,,23,,,0.02,0.11,0.98,-3.0,-0.0,-0.3,1200,0,0.0,0,39.538696,-122.332184,0.0,2.967,285.0,11,2,1.4,1,11.34,12,0.34,,9.0367,2
1255064,1469900538353,,,,,,,0.02,0.1,0.98,-3.0,-0.0,-0.3,1160,0,,,,,,,,,,,,,,,,,
1255084,1469900538373,,,,,,,0.02,0.1,0.99,-3.0,0.1,-0.2,1120,0,,,,,,,,,,,,,,,,,
1255104,1469900538391,,,,,,,0.02,0.1,0.99,-3.0,0.1,-0.2,1120,0,,,,,,,,,,,,,,,,,
1255124,1469900538411,,,,,,,0.02,0.1,0.98,-2.9,0.1,-0.2,1100,0,,,,,,,,,,,,,,,,,
1255146,1469900538433,0,201.4,176.7,20,181.5,,0.02,0.1,0.99,-2.9,0.1,-0.2,1100,0,0.0,0,39.538696,-122.332184,0.0,2.967,285.0,11,2,1.4,1,11.34,12,0.34,13.4447,9.0383,2
1255165,1469900538452,,,,,,,0.02,0.1,0.99,-2.9,0.1,-0.2,1080,0,,,,,,,,,,,,,,,,,
1255185,1469900538472,,,,,,,0.02,0.1,0.98,-2.9,0.1,-0.3,1100,0,,,,,,,,,,,,,,,,,
1255205,1469900538593,,,,,,,0.03,0.1,0.98,-2.9,0.1,-0.2,1040,0,,,,,,,,,,,,,,,,,
1255225,1469900538613,,,,,,,0.03,0.1,0.98,-2.9,0.1,-0.2,1060,0,,,,,,,,,,,,,,,,,
1255245,1469900538633,,,,21,,,0.03,0.1,0.98,-3.0,0.2,-0.2,1040,0,0.0,0,39.538696,-122.332184,0.0,2.967,285.0,11,2,1.4,1,11.34,12,0.34,,9.0417,2
1255265,1469900538653,,,,,,,0.02,0.1,0.98,-3.0,0.2,-0.2,1020,0,,,,,,,,,,,,,,,,,
1255285,1469900538673,,,,,,,0.02,0.09,0.98,-3.0,0.1,-0.2,1020,0,,,,,,,,,,,,,,,,,
1255305,1469900538693,,,,,,,0.02,0.09,0.98,-3.0,0.1,-0.2,960,0,,,,,,,,,,,,,,,,,
1255325,1469900538713,,,,,,,0.02,0.09,0.98,-3.0,0.1,-0.2,960,0,,,,,,,,,,,,,,,,,
1255347,1469900538735,0,201.7,177.2,20,180.6,,0.02,0.1,0.98,-3.0,-0.0,-0.1,960,0,0.0,0,39.538696,-122.332184,0.0,2.967,285.0,11,2,1.4,1,11.34,12,0.34,13.4497,9.0417,2
1255366,1469900538754,,,,,,,0.02,0.1,0.98,-3.0,-0.1,-0.1,940,0,,,,,,,,,,,,,,,,,
1255386,1469900538774,,,,,,,0.02,0.09,0.98,-2.9,-0.1,-0.1,940,0,,,,,,,,,,,,,,,,,
1255406,1469900538695,,,,,,,0.02,0.09,0.98,-2.9,-0.0,-0.1,920,0,,,,,,,,,,,,,,,,,
1255426,1469900538715,,,,,,,0.02,0.1,0.98,-2.9,-0.0,-0.1,920,0,,,,,,,,,,,,,,,,,
1255446,1469900538735,,,,18,,,0.02,0.1,0.98,-2.9,-0.0,-0.1,880,0,0.0,0,39.538696,-122.332184,0.0,2.967,285.0,11,2,1.4,1,11.34,12,0.34,,9.0433,2
1255466,1469900538755,,,,,,,0.02,0.1,0.98,-2.9,-0.0,-0.2,840,0,,,,,,,,,,,,,,,,,
1255486,1469900538775,,,,,,,0.02,0.09,0.98,-2.9,-0.0,-0.3,840,0,,,,,,,,,,,,,,,,,
1255506,1469900538795,,,,,,,0.02,0.09,0.98,-2.9,-0.0,-0.2,840,0,,,,,,,,,,,,,,,,,
1255526,1469900538815,,,,,,,0.02,0.09,0.98,-2.9,-0.0,-0.2,840,0,,,,,,,,,,,,,,,,,
1255548,1469900538837,0,200.9,176.3,15,181.2,,0.02,0.09,0.98,-3.0,0.0,-0.2,800,0,0.0,0,39.538696,-122.332184,0.0,2.967,285.0,11,2,1.4,1,11.34,12,0.34,13.4515,9.045,2
1255567,1469900538856,,,,,,,0.02,0.09,0.98,-3.0,0.0,-0.1,800,0,,,,,,,,,,,,,,,,,
1255587,1469900538876,,,,,,,0.02,0.09,0.98,-3.0,0.0,-0.1,800,0,,,,,,,,,,,,,,,,,
1255607,1469900538896,,,,,,,0.02,0.09,0.98,-2.9,-0.0,-0.2,740,0,,,,,,,,,,,,,,,,,
1255627,1469900538909,,,,,,,0.02,0.09,0.98,-2.9,0.0,-0.2,740,0,,,,,,,,,,,,,,,,,
1255647,1469900538929,,,,14,,,0.02,0.09,0.98,-3.0,0.1,-0.1,760,0,0.0,0,39.538696,-122.332184,0.0,2.967,285.0,11,2,1.4,1,11.34,12,0.34,,9.0467,2
1255667,1469900538949,,,,,,,0.02,0.09,0.98,-3.0,0.1,-0.1,760,0,,,,,,,,,,,,,,,,,
1255687,1469900538969,,,,,,,0.02,0.09,0.98,-3.0,0.1,-0.2,740,0,,,,,,,,,,,,,,,,,
1255707,1469900538994,,,,,,,0.02,0.09,0.98,-3.0,0.2,-0.2,740,0,,,,,,,,,,,,,,,,,
1255727,1469900539014,,,,,,,0.03,0.09,0.98,-3.0,0.2,-0.1,720,0,,,,,,,,,,,,,,,,,
1255749,1469900539036,0,200.9,176.2,11,181.8,13.14,0.03,0.1,0.98,-3.0,0.2,-0.1,720,0,0.0,0,39.538696,-122.332184,0.0,2.967,285.0,11,2,1.3,1,11.34,12,0.34,13.4548,9.0483,2
1255768,1469900539055,,,,,,,0.03,0.09,0.98,-3.0,0.2,-0.2,680,0,,,,,,,,,,,,,,,,,
1255788,1469900539075,,,,,,,0.02,0.09,0.98,-2.9,0.2,-0.2,680,0,,,,,,,,,,,,,,,,,
1255808,1469900539097,,,,,,,0.03,0.1,0.98,-3.0,0.1,-0.2,700,0,,,,,,,,,,,,,,,,,
1255828,1469900539117,,,,,,,0.03,0.09,0.98,-2.9,0.1,-0.2,680,0,,,,,,,,,,,,,,,,,
1255848,1469900539137,,,,12,,,0.03,0.09,0.98,-2.9,0.1,-0.2,680,0,0.0,0,39.538696,-122.332184,0.0,2.967,285.0,11,2,1.3,1,11.34,12,0.34,,9.05,2
1255868,1469900539157,,,,,,,0.03,0.09,0.99,-2.9,0.1,-0.1,680,0,,,,,,,,,,,,,,,,,
1255888,1469900539177,,,,,,,0.03,0.09,0.98,-2.9,0.1,-0.2,660,0,,,,,,,,,,,,,,,,,
1255908,1469900539197,,,,,,,0.03,0.09,0.98,-2.9,0.1,-0.2,660,0,,,,,,,,,,,,,,,,,
1255928,1469900539217,,,,,,,0.03,0.1,0.99,-3.0,0.2,-0.1,660,0,,,,,,,,,,,,,,,,,
1255950,1469900539239,0,201.4,177.1,10,181.8,,0.03,0.09,0.98,-3.0,0.2,-0.2,620,0,0.0,0,39.538696,-122.332184,0.0,2.967,285.0,11,2,1.3,1,11.34,12,0.34,13.4581,9.0517,2
1255969,1469900539258,,,,,,,0.03,0.08,0.98,-3.0,0.3,-0.3,620,0,,,,,,,,,,,,,,,,,
1255989,1469900539278,,,,,,,0.03,0.09,0.98,-3.0,0.3,-0.2,640,0,,,,,,,,,,,,,,,,,
1256009,1469900539397,,,,,,,0.03,0.09,0.98,-3.0,0.2,-0.2,640,0,,,,,,,,,,,,,,,,,
1256029,1469900539417,,,,,,,0.03,0.09,0.98,-3.0,0.2,-0.2,640,0,,,,,,,,,,,,,,,,,
1256049,1469900539437,,,,10,,,0.03,0.1,0.98,-3.1,0.2,-0.2,640,0,0.0,0,39.538696,-122.332184,0.0,2.967,285.0,11,2,1.3,1,11.34,12,0.34,,9.055,2
1256069,1469900539457,,,,,,,0.03,0.09,0.97,-3.0,0.1,-0.2,640,0,,,,,,,,,,,,,,,,,
1256089,1469900539477,,,,,,,0.03,0.09,0.98,-3.0,0.1,-0.2,640,0,,,,,,,,,,,,,,,,,
1256109,1469900539497,,,,,,,0.03,0.1,0.98,-3.1,0.0,-0.2,640,0,,,,,,,,,,,,,,,,,
1256129,1469900539517,,,,,,,0.03,0.09,0.98,-3.0,-0.0,-0.2,620,0,,,,,,,,,,,,,,,,,
1256151,1469900539539,0,200.9,176.5,9,181.9,,0.03,0.09,0.98,-3.0,-0.1,-0.2,620,0,0.0,0,39.538696,-122.332184,0.0,2.967,285.0,11,2,1.3,1,11.34,12,0.34,13.4632,9.055,2
1256170,1469900539558,,,,,,,0.03,0.1,0.98,-3.1,-0.1,-0.1,640,0,,,,,,,,,,,,,,,,,
1256190,1469900539578,,,,,,,0.03,0.09,0.98,-3.0,-0.2,-0.2,640,0,,,,,,,,,,,,,,,,,
1256210,1469900539499,,,,,,,0.03,0.09,0.98,-3.0,-0.2,-0.2,640,0,,,,,,,,,,,,,,,,,
1256230,1469900539519,,,,,,,0.02,0.1,0.98,-3.0,-0.3,-0.1,660,0,,,,,,,,,,,,,,,,,
1256250,1469900539539,,,,10,,,0.02,0.09,0.98,-3.0,-0.2,-0.2,660,0,0.0,0,39.538696,-122.332184,0.0,2.967,285.0,11,2,1.3,1,11.34,12,0.34,,9.0567,2
1256270,1469900539559,,,,,,,0.02,0.1,0.99,-3.0,-0.2,-0.1,660,0,,,,,,,,,,,,,,,,,
1256290,1469900539579,,,,,,,0.01,0.1,0.99,-3.0,-0.2,-0.1,640,0,,,,,,,,,,,,,,,,,
1256310,1469900539599,,,,,,,0.01,0.09,0.98,-2.9,-0.2,-0.2,640,0,,,,,,,,,,,,,,,,,
1256330,1469900539619,,,,,,,0.01,0.1,0.99,-3.0,-0.1,-0.2,640,0,,,,,,,,,,,,,,,,,
1256352,1469900539641,0,200.9,176.4,10,180.8,,0.01,0.1,0.99,-3.0,-0.1,-0.1,660,0,0.0,0,39.538696,-122.332184,0.0,2.967,285.0,11,2,1.3,1,11.34,12,0.34,13.4649,9.0583,2
1256371,1469900539660,,,,,,,0.01,0.1,0.99,-2.9,-0.1,-0.2,660,0,,,,,,,,,,,,,,,,,
1256391,1469900539680,,,,,,,0.01,0.1,0.99,-3.0,-0.1,-0.2,660,0,,,,,,,,,,,,,,,,,
1256411,1469900539700,,,,,,,0.01,0.1,0.99,-3.0,-0.1,-0.1,680,0,,,,,,,,,,,,,,,,,
1256431,1469900539720,,,,,,,0.01,0.1,0.99,-2.9,-0.1,-0.2,680,0,,,,,,,,,,,,,,,,,
1256451,1469900539740,,,,11,,,0.0,0.09,0.98,-2.9,-0.2,-0.2,680,0,0.0,0,39.538696,-122.332184,0.0,2.967,285.0,11,2,1.3,1,11.34,12,0.34,,9.06,2
1256471,1469900539760,,,,,,,0.01,0.1,0.99,-3.0,-0.2,-0.1,680,0,,,,,,,,,,,,,,,,,
1256491,1469900539780,,,,,,,0.01,0.1,0.98,-2.9,-0.2,-0.2,660,0,,,,,,,,,,,,,,,,,
1256511,1469900539800,,,,,,,0.0,0.09,0.98,-2.9,-0.2,-0.2,660,0,,,,,,,,,,,,,,,,,
1256531,1469900539820,,,,,,,0.01,0.1,0.98,-3.0,-0.2,-0.1,680,0,,,,,,,,,,,,,,,,,
1256553,1469900539842,0,201.7,177.6,11,180.2,,0.01,0.1,0.97,-2.9,-0.3,-0.1,680,0,0.0,0,39.538696,-122.332184,0.0,2.967,285.0,11,2,1.3,1,11.34,12,0.34,13.4682,9.0617,2
1256572,1469900539861,,,,,,,0.01,0.09,0.97,-2.9,-0.2,-0.2,700,0,,,,,,,,,,,,,,,,,
1256592,1469900539881,,,,,,,0.02,0.1,0.98,-3.0,-0.1,-0.2,700,0,,,,,,,,,,,,,,,,,
1256612,1469900539894,,,,,,,0.02,0.1,0.98,-2.9,0.1,-0.2,700,0,,,,,,,,,,,,,,,,,
1256632,1469900539914,,,,,,,0.02,0.09,0.98,-2.9,0.1,-0.3,700,0,,,,,,,,,,,,,,,,,
1256652,1469900539934,,,,11,,,0.02,0.09,0.98,-3.0,0.2,-0.3,700,0,0.0,0,39.538696,-122.332184,0.0,2.967,285.0,11,2,1.3,1,11.34,12,0.34,,9.0633,2
1256672,1469900539954,,,,,,,0.02,0.1,0.98,-3.0,0.1,-0.2,680,0,,,,,,,,,,,,,,,,,
1256692,1469900539974,,,,,,,0.02,0.1,0.98,-3.1,-0.0,-0.2,700,0,,,,,,,,,,,,,,,,,
1256712,1469900540001,,,,,,,0.02,0.1,0.98,-3.0,-0.1,-0.2,700,0,,,,,,,,,,,,,,,,,
1256732,1469900540021,,,,,,,0.02,0.11,0.98,-3.0,-0.2,-0.2,700,0,,,,,,,,,,,,,,,,,
1256754,1469900540043,0,200.4,176.3,12,180.2,13.17,0.02,0.11,0.98,-3.0,-0.1,-0.1,700,0,0.0,0,39.538696,-122.332184,0.0,2.967,285.0,11,2,1.3,1,11.34,12,0.34,13.4716,9.065,2
1256773,1469900540062,,,,,,,0.02,0.11,0.98,-3.0,-0.1,-0.2,700,0,,,,,,,,,,,,,,,,,
1256793,1469900540082,,,,,,,0.02,0.11,0.98,-3.0,-0.0,-0.2,700,0,,,,,,,,,,,,,,,,,
1256813,1469900540201,,,,,,,0.03,0.11,0.98,-3.0,-0.0,-0.1,700,0,,,,,,,,,,,,,,,,,
1256833,1469900540221,,,,,,,0.02,0.1,0.98,-3.0,-0.1,-0.1,680,0,,,,,,,,,,,,,,,,,
1256853,1469900540241,,,,11,,,0.02,0.09,0.98,-2.9,-0.1,-0.2,680,0,0.0,0,39.538696,-122.332184,0.0,2.967,285.0,11,2,1.3,1,11.34,12,0.34,,9.0683,2
1256873,1469900540261,,,,,,,0.02,0.1,0.98,-3.0,-0.1,-0.2,700,0,,,,,,,,,,,,,,,,,
1256893,1469900540281,,,,,,,0.03,0.1,0.98,-3.0,-0.2,-0.1,700,0,,,,,,,,,,,,,,,,,
1256913,1469900540301,,,,,,,0.03,0.09,0.98,-3.0,-0.2,-0.2,700,0,,,,,,,,,,,,,,,,,
1256933,1469900540321,,,,,,,0.03,0.09,0.98,-3.0,-0.1,-0.2,700,0,,,,,,,,,,,,,,,,,
1256955,1469900540343,0,200.3,176.3,12,181.2,,0.03,0.1,0.98,-3.0,-0.1,-0.1,700,0,0.0,0,39.538696,-122.332184,0.0,2.967,285.0,11,2,1.3,1,11.34,12,0.34,13.4766,9.0683,2
1256974,1469900540362,,,,,,,0.03,0.09,0.98,-2.9,-0.2,-0.2,700,0,,,,,,,,,,,,,,,,,
1256994,1469900540382,,,,,,,0.02,0.09,0.98,-3.0,-0.2,-0.2,700,0,,,,,,,,,,,,,,,,,
1257014,1469900540303,,,,,,,0.03,0.1,0.98,-3.0,-0.2,-0.1,680,0,,,,,,,,,,,,,,,,,
1257034,1469900540323,,,,,,,0.03,0.1,0.98,-3.0,-0.2,-0.1,700,0,,,,,,,,,,,,,,,,,
1257054,1469900540343,,,,12,,,0.03,0.1,0.98,-3.0,-0.2,-0.2,700,0,0.0,0,39.538696,-122.332184,0.0,2.967,285.0,11,2,1.3,1,11.34,12,0.34,,9.07,2
1257074,1469900540363,,,,,,,0.03,0.1,0.98,-3.0,-0.1,-0.2,700,0,,,,,,,,,,,,,,,,,
1257094,1469900540383,,,,,,,0.03,0.1,0.98,-3.0,0.1,-0.1,700,0,,,,,,,,,,,,,,,,,
1257114,1469900540403,,,,,,,0.03,0.1,0.98,-2.9,0.0,-0.2,700,0,,,,,,,,,,,,,,,,,
1257134,1469900540423,,,,,,,0.03,0.09,0.98,-2.9,0.0,-0.3,700,0,,,,,,,,,,,,,,,,,
1257156,1469900540445,0,200.4,176.6,12,180.1,,0.03,0.1,0.98,-3.0,-0.0,-0.1,700,0,0.0,0,39.538696,-122.332184,0.0,2.967,285.0,11,2,1.3,1,11.34,12,0.34,13.4782,9.0717,2
1257175,1469900540464,,,,,,,0.03,0.1,0.98,-2.9,-0.1,-0.1,680,0,,,,,,,,,,,,,,,,,
1257195,1469900540484,,,,,,,0.03,0.09,0.98,-2.9,-0.1,-0.3,700,0,,,,,,,,,,,,,,,,,
1257215,1469900540504,,,,,,,0.03,0.09,0.99,-3.0,-0.1,-0.2,700,0,,,,,,,,,,,,,,,,,
1257235,1469900540524,,,,,,,0.03,0.1,0.98,-3.0,0.0,-0.2,700,0,,,,,,,,,,,,,,,,,
1257255,1469900540544,,,,11,,,0.03,0.09,0.98,-2.9,-0.0,-0.2,700,0,0.0,0,39.538696,-122.332184,0.0,2.967,285.0,11,2,1.3,1,11.34,12,0.34,,9.0733,2
1257275,1469900540564,,,,,,,0.02,0.09,0.99,-2.9,0.0,-0.2,700,0,,,,,,,,,,,,,,,,,
1257295,1469900540584,,,,,,,0.02,0.1,0.98,-3.0,-0.0,-0.1,700,0,,,,,,,,,,,,,,,,,
1257315,1469900540604,,,,,,,0.03,0.1,0.98,-3.0,-0.1,-0.1,700,0,,,,,,,,,,,,,,,,,
1257335,1469900540624,,,,,,,0.02,0.09,0.98,-2.9,-0.2,-0.2,680,0,,,,,,,,,,,,,,,,,
1257357,1469900540646,0,201.5,177.9,11,179.9,,0.02,0.1,0.98,-3.0,-0.1,-0.2,680,0,0.0,0,39.538696,-122.332184,0.0,2.967,285.0,11,2,1.3,1,11.34,12,0.34,13.4816,9.075,2
1257376,1469900540665,,,,,,,0.03,0.1,0.99,-3.0,0.0,-0.1,700,0,,,,,,,,,,,,,,,,,
1257396,1469900540685,,,,,,,0.02,0.1,0.99,-3.0,0.1,-0.2,700,0,,,,,,,,,,,,,,,,,
1257416,1469900540705,,,,,,,0.02,0.1,0.99,-3.0,0.1,-0.2,700,0,,,,,,,,,,,,,,,,,
1257436,1469900540725,,,,,,,0.02,0.1,0.99,-3.0,0.1,-0.2,720,0,,,,,,,,,,,,,,,,,
1257456,1469900540745,,,,12,,,0.02,0.1,0.98,-3.0,-0.1,-0.2,700,0,0.0,0,39.538696,-122.332184,0.0,2.967,285.0,11,2,1.3,1,11.34,12,0.34,,9.0767,2
1257476,1469900540765,,,,,,,0.02,0.09,0.98,-3.0,-0.1,-0.3,700,0,,,,,,,,,,,,,,,,,
1257496,1469900540785,,,,,,,0.02,0.09,0.98,-3.0,-0.0,-0.2,700,0,,,,,,,,,,,,,,,,,
1257516,1469900540805,,,,,,,0.03,0.09,0.98,-3.0,0.1,-0.1,700,0,,,,,,,,,,,,,,,,,
1257536,1469900540825,,,,,,,0.03,0.08,0.98,-3.0,0.1,-0.2,700,0,,,,,,,,,,,,,,,,,
1257558,1469900540847,0,201.0,177.6,12,180.8,,0.02,0.08,0.98,-3.0,0.1,-0.2,700,0,0.0,0,39.538696,-122.332184,0.0,2.967,285.0,11,2,1.3,1,11.34,12,0.34,13.485,9.0783,2
1257577,1469900540866,,,,,,,0.02,0.09,0.98,-3.0,0.1,-0.1,700,0,,,,,,,,,,,,,,,,,
1257597,1469900540886,,,,,,,0.03,0.1,0.98,-3.0,-0.0,-0.1,700,0,,,,,,,,,,,,,,,,,
1257617,1469900540998,,,,,,,0.03,0.09,0.98,-3.0,-0.1,-0.2,700,0,,,,,,,,,,,,,,,,,
1257637,1469900541018,,,,,,,0.03,0.1,0.98,-3.0,-0.1,-0.2,700,0,,,,,,,,,,,,,,,,,
1257657,1469900541038,,,,10,,,0.03,0.1,0.98,-3.0,0.1,-0.1,700,0,0.0,0,39.538696,-122.332184,0.0,2.967,285.0,11,2,1.3,1,11.34,12,0.34,,9.0817,2
1257677,1469900541058,,,,,,,0.03,0.09,0.98,-3.0,0.1,-0.2,700,0,,,,,,,,,,,,,,,,,
1257697,1469900541078,,,,,,,0.03,0.09,0.98,-2.9,0.1,-0.3,700,0,,,,,,,,,,,,,,,,,
1257717,1469900541098,,,,,,,0.03,0.1,0.98,-3.0,0.1,-0.2,700,0,,,,,,,,,,,,,,,,,
1257737,1469900541118,,,,,,,0.02,0.09,0.97,-3.0,-0.0,-0.2,700,0,,,,,,,,,,,,,,,,,
1257759,1469900541140,0,201.0,177.8,11,179.8,13.24,0.02,0.09,0.98,-3.0,-0.0,-0.3,700,0,0.0,0,39.538696,-122.332184,0.0,2.967,285.0,11,2,1.3,1,11.34,12,0.34,13.4898,9.0817,2
1257778,1469900541159,,,,,,,0.03,0.09,0.98,-3.0,0.0,-0.2,700,0,,,,,,,,,,,,,,,,,
1257798,1469900541179,,,,,,,0.03,0.09,0.98,-3.0,0.1,-0.1,700,0,,,,,,,,,,,,,,,,,
1257818,1469900541107,,,,,,,0.03,0.09,0.98,-2.9,0.2,-0.2,700,0,,,,,,,,,,,,,,,,,
1257838,1469900541127,,,,,,,0.02,0.09,0.98,-3.0,0.2,-0.2,700,0,,,,,,,,,,,,,,,,,
1257858,1469900541147,,,,11,,,0.02,0.1,0.98,-3.0,0.2,-0.1,680,0,0.0,0,39.538696,-122.332184,0.0,2.967,285.0,11,2,1.3,1,11.34,12,0.34,,9.0833,2
1257878,1469900541167,,,,,,,0.02,0.1,0.98,-3.0,0.1,-0.2,700,0,,,,,,,,,,,,,,,,,
1257898,1469900541187,,,,,,,0.02,0.09,0.98,-3.0,0.0,-0.2,700,0,,,,,,,,,,,,,,,,,
1257918,1469900541207,,,,,,,0.02,0.1,0.98,-3.0,-0.1,-0.2,700,0,,,,,,,,,,,,,,,,,
1257938,1469900541227,,,,,,,0.03,0.11,0.98,-3.0,-0.0,-0.2,700,0,,,,,,,,,,,,,,,,,
1257960,1469900541249,0,201.4,178.2,11,180.8,,0.03,0.1,0.98,-3.0,-0.0,-0.2,700,0,0.0,0,39.538696,-122.332184,0.0,2.967,285.0,11,2,1.3,1,11.34,12,0.34,13.4916,9.085,2
1257979,1469900541268,,,,,,,0.03,0.1,0.98,-3.0,0.0,-0.3,700,0,,,,,,,,,,,,,,,,,
1257999,1469900541288,,,,,,,0.03,0.1,0.98,-3.0,0.0,-0.1,700,0,,,,,,,,,,,,,,,,,
1258019,1469900541308,,,,,,,0.02,0.1,0.98,-3.0,-0.1,-0.2,680,0,,,,,,,,,,,,,,,,,
1258039,1469900541328,,,,,,,0.02,0.09,0.98,-3.0,-0.1,-0.3,680,0,,,,,,,,,,,,,,,,,
1258059,1469900541348,,,,11,,,0.02,0.1,0.98,-3.0,-0.1,-0.2,700,0,0.0,0,39.538696,-122.332184,0.0,2.967,285.0,11,2,1.3,1,11.34,12,0.34,,9.0867,2
1258079,1469900541368,,,,,,,0.03,0.1,0.98,-3.0,-0.1,-0.2,700,0,,,,,,,,,,,,,,,,,
1258099,1469900541388,,,,,,,0.03,0.09,0.98,-3.0,-0.1,-0.2,700,0,,,,,,,,,,,,,,,,,
1258119,1469900541408,,,,,,,0.03,0.09,0.98,-3.0,-0.1,-0.2,700,0,,,,,,,,,,,,,,,,,
1258139,1469900541428,,,,,,,0.03,0.09,0.98,-3.0,0.1,-0.1,700,0,,,,,,,,,,,,,,,,,
1258161,1469900541450,0,200.9,178.0,11,179.4,,0.02,0.09,0.98,-2.9,0.1,-0.2,700,0,0.0,0,39.538696,-122.332184,0.0,2.967,285.0,11,2,1.3,1,11.34,12,0.34,13.495,9.0883,2
1258180,1469900541469,,,,,,,0.02,0.08,0.98,-2.9,0.0,-0.2,700,0,,,,,,,,,,,,,,,,,
1258200,1469900541489,,,,,,,0.02,0.09,0.98,-3.0,0.0,-0.1,680,0,,,,,,,,,,,,,,,,,
1258220,1469900541509,,,,,,,0.03,0.1,0.98,-3.0,-0.0,-0.1,700,0,,,,,,,,,,,,,,,,,
1258240,1469900541529,,,,,,,0.03,0.1,0.98,-2.9,-0.1,-0.2,700,0,,,,,,,,,,,,,,,,,
1258260,1469900541549,,,,12,,,0.03,0.1,0.99,-2.9,0.0,-0.2,700,0,0.0,0,39.538696,-122.332184,0.0,2.967,285.0,11,2,1.3,1,11.34,12,0.34,,9.09,2
1258280,1469900541569,,,,,,,0.03,0.1,0.99,-2.9,0.2,-0.2,700,0,,,,,,,,,,,,,,,,,
1258300,1469900541589,,,,,,,0.03,0.1,0.99,-2.9,0.1,-0.2,700,0,,,,,,,,,,,,,,,,,
1258320,1469900541609,,,,,,,0.03,0.09,0.99,-2.9,0.1,-0.3,700,0,,,,,,,,,,,,,,,,,
1258340,1469900541629,,,,,,,0.03,0.1,0.99,-3.0,0.1,-0.2,700,0,,,,,,,,,,,,,,,,,
1258362,1469900541651,0,199.7,176.7,12,179.2,,0.03,0.1,0.98,-3.0,-0.0,-0.2,680,0,0.0,0,39.538696,-122.332184,0.0,2.967,285.0,11,2,1.3,1,11.34,12,0.34,13.4984,9.0917,2
1258381,1469900541670,,,,,,,0.03,0.09,0.99,-2.9,-0.0,-0.3,700,0,,,,,,,,,,,,,,,,,
1258401,1469900541690,,,,,,,0.03,0.09,0.99,-3.0,-0.0,-0.2,700,0,,,,,,,,,,,,,,,,,
1258421,1469900541809,,,,,,,0.03,0.09,0.99,-3.0,0.1,-0.2,700,0,,,,,,,,,,,,,,,,,
1258441,1469900541829,,,,,,,0.03,0.09,0.99,-3.0,0.1,-0.2,700,0,,,,,,,,,,,,,,,,,
1258461,1469900541849,,,,12,,,0.02,0.08,0.99,-3.0,0.2,-0.3,700,0,0.0,0,39.538696,-122.332184,0.0,2.967,285.0,11,2,1.3,1,11.34,12,0.34,,9.095,2
1258481,1469900541869,,,,,,,0.02,0.09,0.99,-3.0,0.1,-0.2,700,0,,,,,,,,,,,,,,,,,
1258501,1469900541889,,,,,,,0.03,0.1,0.98,-3.0,0.0,-0.2,700,0,,,,,,,,,,,,,,,,,
1258521,1469900541909,,,,,,,0.02,0.09,0.99,-3.0,-0.0,-0.3,700,0,,,,,,,,,,,,,,,,,
1258541,1469900541929,,,,,,,0.03,0.09,0.98,-3.0,0.0,-0.2,700,0,,,,,,,,,,,,,,,,,
1258563,1469900541951,0,200.0,177.0,12,179.5,,0.03,0.1,0.99,-3.0,0.1,-0.2,700,0,0.0,0,39.538696,-122.332184,0.0,2.967,285.0,11,2,1.3,1,11.34,12,0.34,13.5034,9.095,2
1258582,1469900541970,,,,,,,0.02,0.09,0.99,-3.0,0.1,-0.2,700,0,,,,,,,,,,,,,,,,,
1258602,1469900541990,,,,,,,0.02,0.09,0.99,-3.0,0.1,-0.3,700,0,,,,,,,,,,,,,,,,,
1258622,1469900541904,,,,,,,0.02,0.1,0.99,-3.0,0.1,-0.2,720,0,,,,,,,,,,,,,,,,,
1258642,1469900541924,,,,,,,0.02,0.1,0.98,-3.0,0.0,-0.2,700,0,,,,,,,,,,,,,,,,,
1258662,1469900541944,,,,12,,,0.02,0.09,0.98,-3.0,-0.0,-0.3,700,0,0.0,0,39.538696,-122.332184,0.0,2.967,285.0,11,2,1.3,1,11.34,12,0.34,,9.0967,2
1258682,1469900541964,,,,,,,0.02,0.09,0.99,-3.0,0.0,-0.2,700,0,,,,,,,,,,,,,,,,,
1258702,1469900541991,,,,,,,0.03,0.09,0.98,-3.0,0.1,-0.1,700,0,,,,,,,,,,,,,,,,,
1258722,1469900542011,,,,,,,0.03,0.09,0.98,-2.9,0.1,-0.2,700,0,,,,,,,,,,,,,,,,,
1258742,1469900542031,,,,,,,0.02,0.09,0.98,-2.9,0.1,-0.2,700,0,,,,,,,,,,,,,,,,,
1258764,1469900542053,0,199.7,177.0,12,179.0,13.32,0.02,0.1,0.98,-3.0,0.1,-0.2,700,0,0.0,0,39.538696,-122.332184,0.0,2.967,285.0,11,2,1.3,1,11.34,12,0.34,13.505,9.0983,2
1258783,1469900542072,,,,,,,0.03,0.1,0.98,-3.0,0.0,-0.2,700,0,,,,,,,,,,,,,,,,,
1258803,1469900542092,,,,,,,0.03,0.09,0.98,-2.9,-0.0,-0.2,700,0,,,,,,,,,,,,,,,,,
1258823,1469900542112,,,,,,,0.03,0.09,0.98,-2.9,-0.0,-0.2,700,0,,,,,,,,,,,,,,,,,
1258843,1469900542132,,,,,,,0.03,0.09,0.98,-2.9,0.1,-0.1,700,0,,,,,,,,,,,,,,,,,
1258863,1469900542152,,,,12,,,0.03,0.09,0.98,-2.9,0.1,-0.2,700,0,0.0,0,39.538696,-122.332184,0.0,2.967,285.0,11,2,1.3,1,11.34,12,0.34,,9.1,2
1258883,1469900542172,,,,,,,0.02,0.08,0.98,-2.8,0.1,-0.3,700,0,,,,,,,,,,,,,,,,,
1258903,1469900542192,,,,,,,0.02,0.09,0.98,-2.9,0.1,-0.2,700,0,,,,,,,,,,,,,,,,,
1258923,1469900542212,,,,,,,0.03,0.09,0.98,-2.9,0.0,-0.1,700,0,,,,,,,,,,,,,,,,,
1258943,1469900542232,,,,,,,0.02,0.08,0.98,-2.9,0.0,-0.2,720,0,,,,,,,,,,,,,,,,,
1258965,1469900542254,0,200.4,177.9,12,179.3,,0.02,0.08,0.98,-2.9,0.1,-0.2,720,0,0.0,0,39.538696,-122.332184,0.0,2.967,285.0,11,2,1.3,1,11.34,12,0.34,13.5084,9.1017,2
1258984,1469900542273,,,,,,,0.03,0.09,0.98,-3.0,0.2,-0.1,720,0,,,,,,,,,,,,,,,,,
1259004,1469900542292,,,,,,,0.02,0.09,0.98,-2.9,0.1,-0.1,700,0,,,,,,,,,,,,,,,,,
1259024,1469900542312,,,,,,,0.02,0.08,0.98,-2.9,-0.0,-0.2,700,0,,,,,,,,,,,,,,,,,
1259044,1469900542332,,,,,,,0.02,0.08,0.98,-2.9,-0.0,-0.1,700,0,,,,,,,,,,,,,,,,,
1259064,1469900542352,,,,12,,,0.02,0.09,0.98,-2.9,0.0,-0.1,700,0,0.0,0,39.538696,-122.332184,0.0,2.967,285.0,11,2,1.3,1,11.34,12,0.34,,9.1033,2
1259084,1469900542372,,,,,,,0.02,0.09,0.98,-2.9,0.1,-0.2,700,0,,,,,,,,,,,,,,,,,
1259104,1469900542393,,,,,,,0.02,0.09,0.98,-2.9,0.1,-0.2,700,0,,,,,,,,,,,,,,,,,
1259124,1469900542413,,,,,,,0.02,0.1,0.99,-3.0,0.2,-0.1,720,0,,,,,,,,,,,,,,,,,
1259144,1469900542433,,,,,,,0.02,0.1,0.98,-2.9,0.1,-0.1,720,0,,,,,,,,,,,,,,,,,
1259166,1469900542455,0,199.8,177.2,12,179.0,,0.02,0.09,0.98,-2.9,0.1,-0.2,700,0,0.0,0,39.538696,-122.332184,0.0,2.967,285.0,11,2,1.3,1,11.34,12,0.34,13.5118,9.105,2
1259185,1469900542474,,,,,,,0.03,0.09,0.99,-2.9,0.2,-0.1,700,0,,,,,,,,,,,,,,,,,
1259205,1469900542593,,,,,,,0.03,0.09,0.98,-2.9,0.2,-0.1,700,0,,,,,,,,,,,,,,,,,
1259225,1469900542613,,,,,,,0.03,0.08,0.98,-2.9,0.1,-0.2,700,0,,,,,,,,,,,,,,,,,
1259245,1469900542633,,,,,,,0.02,0.08,0.98,-2.9,0.2,-0.2,700,0,,,,,,,,,,,,,,,,,
1259265,1469900542653,,,,12,,,0.02,0.09,0.98,-3.0,0.1,-0.1,700,0,0.0,0,39.538696,-122.332184,0.0,2.967,285.0,11,2,1.3,1,11.34,12,0.34,,9.1083,2
1259285,1469900542673,,,,,,,0.02,0.09,0.98,-3.0,0.0,-0.1,720,0,,,,,,,,,,,,,,,,,
1259305,1469900542693,,,,,,,0.02,0.08,0.98,-3.0,-0.1,-0.2,700,0,,,,,,,,,,,,,,,,,
1259325,1469900542713,,,,,,,0.02,0.09,0.98,-3.0,-0.1,-0.1,700,0,,,,,,,,,,,,,,,,,
1259345,1469900542733,,,,,,,0.02,0.09,0.98,-3.0,0.0,-0.1,700,0,,,,,,,,,,,,,,,,,
1259367,1469900542755,0,200.8,178.6,12,178.3,,0.02,0.09,0.98,-2.9,0.1,-0.2,700,0,0.0,0,39.538696,-122.332184,0.0,2.967,285.0,11,2,1.3,1,11.34,12,0.34,13.5168,9.1083,2
1259386,1469900542774,,,,,,,0.02,0.09,0.98,-2.9,0.1,-0.3,700,0,,,,,,,,,,,,,,,,,
1259406,1469900542695,,,,,,,0.02,0.09,0.98,-3.0,0.1,-0.2,700,0,,,,,,,,,,,,,,,,,
1259426,1469900542715,,,,,,,0.02,0.09,0.98,-2.9,-0.1,-0.2,700,0,,,,,,,,,,,,,,,,,
1259446,1469900542735,,,,,,,0.02,0.08,0.98,-2.9,-0.1,-0.2,720,0,,,,,,,,,,,,,,,,,
1259466,1469900542755,,,,11,,,0.02,0.08,0.98,-2.9,0.0,-0.1,720,0,0.0,0,39.538696,-122.332184,0.0,2.967,285.0,11,2,1.3,1,11.34,12,0.34,,9.11,2
1259486,1469900542775,,,,,,,0.03,0.09,0.98,-2.9,0.1,-0.1,700,0,,,,,,,,,,,,,,,,,
1259506,1469900542795,,,,,,,0.03,0.08,0.98,-2.9,0.2,-0.2,700,0,,,,,,,,,,,,,,,,,
1259526,1469900542815,,,,,,,0.02,0.08,0.98,-2.9,0.2,-0.2,700,0,,,,,,,,,,,,,,,,,
1259546,1469900542835,,,,,,,0.02,0.1,0.98,-3.0,0.2,-0.1,700,0,,,,,,,,,,,,,,,,,
1259568,1469900542857,0,199.7,177.3,12,178.6,,0.03,0.1,0.98,-3.0,0.1,-0.1,700,0,0.0,0,39.538696,-122.332184,0.0,2.967,285.0,11,2,1.3,1,11.34,12,0.34,13.5184,9.1117,2
1259587,1469900542876,,,,,,,0.03,0.09,0.98,-3.0,0.1,-0.2,700,0,,,,,,,,,,,,,,,,,
1259607,1469900542896,,,,,,,0.03,0.09,0.98,-3.0,0.1,-0.2,700,0,,,,,,,,,,,,,,,,,
1259627,1469900542909,,,,,,,0.03,0.09,0.98,-3.0,0.3,-0.2,720,0,,,,,,,,,,,,,,,,,
1259647,1469900542929,,,,,,,0.03,0.09,0.99,-2.9,0.3,-0.2,700,0,,,,,,,,,,,,,,,,,
1259667,1469900542949,,,,12,,,0.03,0.09,0.99,-2.9,0.3,-0.3,700,0,0.0,0,39.538696,-122.332184,0.0,2.967,285.0,11,2,1.3,1,11.34,12,0.34,,9.1133,2
1259687,1469900542969,,,,,,,0.02,0.1,0.99,-3.0,0.2,-0.2,700,0,,,,,,,,,,,,,,,,,
1259707,1469900542996,,,,,,,0.03,0.1,0.99,-2.9,0.2,-0.2,700,0,,,,,,,,,,,,,,,,,
1259727,1469900543016,,,,,,,0.02,0.09,0.99,-2.9,0.1,-0.3,700,0,,,,,,,,,,,,,,,,,
1259747,1469900543036,,,,,,,0.03,0.09,0.99,-3.0,0.2,-0.2,700,0,,,,,,,,,,,,,,,,,
1259769,1469900543058,0,199.1,176.7,11,179.5,13.33,0.03,0.09,0.99,-3.0,0.3,-0.2,700,0,0.0,0,39.538696,-122.332184,0.0,2.967,285.0,11,2,1.4,1,11.34,12,0.34,13.5218,9.115,2
1259788,1469900543077,,,,,,,0.03,0.08,0.99,-2.9,0.2,-0.2,720,0,,,,,,,,,,,,,,,,,
1259808,1469900543097,,,,,,,0.02,0.08,0.99,-2.9,0.2,-0.3,720,0,,,,,,,,,,,,,,,,,
1259828,1469900543117,,,,,,,0.03,0.08,0.99,-2.9,0.2,-0.2,720,0,,,,,,,,,,,,,,,,,
1259848,1469900543137,,,,,,,0.03,0.09,0.99,-2.9,0.1,-0.1,700,0,,,,,,,,,,,,,,,,,
1259868,1469900543157,,,,12,,,0.03,0.08,0.99,-2.9,0.1,-0.2,700,0,0.0,0,39.538696,-122.332184,0.0,2.967,285.0,11,2,1.4,1,11.34,12,0.34,,9.1167,2
1259888,1469900543177,,,,,,,0.03,0.09,0.99,-3.0,0.1,-0.2,700,0,,,,,,,,,,,,,,,,,
1259908,1469900543195,,,,,,,0.03,0.09,0.99,-3.0,0.1,-0.1,700,0,,,,,,,,,,,,,,,,,
1259928,1469900543215,,,,,,,0.03,0.09,0.99,-3.0,0.1,-0.2,700,0,,,,,,,,,,,,,,,,,
1259948,1469900543235,,,,,,,0.02,0.08,0.99,-2.9,0.0,-0.2,720,0,,,,,,,,,,,,,,,,,
1259970,1469900543257,0,200.1,178.0,11,179.2,,0.03,0.09,1.0,-2.9,0.1,-0.1,720,0,0.0,0,39.538696,-122.332184,0.0,2.967,285.0,11,2,1.4,1,11.34,12,0.34,13.5251,9.1183,2
1259989,1469900543276,,,,,,,0.03,0.09,0.99,-3.0,0.2,-0.1,720,0,,,,,,,,,,,,,,,,,
1260009,1469900543397,,,,,,,0.03,0.09,0.99,-2.9,0.2,-0.2,700,0,,,,,,,,,,,,,,,,,
1260029,1469900543417,,,,,,,0.02,0.08,0.99,-2.9,0.1,-0.2,700,0,,,,,,,,,,,,,,,,,
1260049,1469900543437,,,,,,,0.03,0.09,0.99,-3.0,0.2,-0.1,700,0,,,,,,,,,,,,,,,,,
1260069,1469900543457,,,,12,,,0.03,0.1,0.99,-2.9,0.2,-0.1,720,0,0.0,0,39.538696,-122.332184,0.0,2.967,285.0,11,2,1.4,1,11.34,12,0.34,,9.1217,2
1260089,1469900543477,,,,,,,0.03,0.09,0.99,-2.9,0.1,-0.2,720,0,,,,,,,,,,,,,,,,,
1260109,1469900543497,,,,,,,0.03,0.09,0.99,-2.9,0.1,-0.2,720,0,,,,,,,,,,,,,,,,,
1260129,1469900543517,,,,,,,0.03,0.09,0.99,-3.0,0.2,-0.1,720,0,,,,,,,,,,,,,,,,,
1260149,1469900543537,,,,,,,0.03,0.09,0.99,-2.9,0.1,-0.2,720,0,,,,,,,,,,,,,,,,,
1260171,1469900543559,1,199.2,176.8,12,177.5,,0.03,0.09,0.99,-2.9,0.1,-0.2,700,0,0.0,0,39.538696,-122.332184,0.0,2.967,285.0,11,2,1.4,1,11.34,12,0.34,13.5302,9.1217,2
1260190,1469900543578,,,,,,,0.03,0.09,0.99,-2.9,0.1,-0.1,700,0,,,,,,,,,,,,,,,,,
1260210,1469900543499,,,,,,,0.03,0.09,0.99,-2.9,0.1,-0.1,700,0,,,,,,,,,,,,,,,,,
1260230,1469900543519,,,,,,,0.03,0.09,0.98,-2.9,0.1,-0.2,720,0,,,,,,,,,,,,,,,,,
1260250,1469900543539,,,,,,,0.03,0.09,0.99,-2.9,0.1,-0.2,720,0,,,,,,,,,,,,,,,,,
1260270,1469900543559,,,,12,,,0.03,0.1,0.98,-3.0,0.1,-0.2,720,0,0.0,0,39.538696,-122.332184,0.0,2.967,285.0,11,2,1.4,1,11.34,12,0.34,,9.1233,2
1260290,1469900543579,,,,,,,0.03,0.1,0.98,-3.0,0.0,-0.1,720,0,,,,,,,,,,,,,,,,,
1260310,1469900543599,,,,,,,0.03,0.09,0.98,-2.9,-0.1,-0.2,700,0,,,,,,,,,,,,,,,,,
1260330,1469900543619,,,,,,,0.03,0.09,0.98,-2.9,-0.1,-0.2,700,0,,,,,,,,,,,,,,,,,
1260350,1469900543639,,,,,,,0.03,0.09,0.98,-2.9,0.0,-0.1,700,0,,,,,,,,,,,,,,,,,
1260372,1469900543661,0,199.0,176.7,12,177.5,,0.03,0.09,0.98,-2.9,0.0,-0.2,700,0,0.0,0,39.538696,-122.332184,0.0,2.967,285.0,11,2,1.4,1,11.34,12,0.34,13.5318,9.125,2
1260391,1469900543680,,,,,,,0.03,0.09,0.98,-2.9,0.0,-0.3,700,0,,,,,,,,,,,,,,,,,
1260411,1469900543699,,,,,,,0.03,0.09,0.98,-2.9,0.2,-0.2,720,0,,,,,,,,,,,,,,,,,
1260431,1469900543719,,,,,,,0.03,0.09,0.98,-3.0,0.2,-0.2,720,0,,,,,,,,,,,,,,,,,
1260451,1469900543739,,,,,,,0.03,0.08,0.98,-2.9,0.2,-0.3,740,0,,,,,,,,,,,,,,,,,
1260471,1469900543759,,,,13,,,0.03,0.08,0.99,-3.0,0.3,-0.3,740,0,0.0,0,39.538696,-122.332184,0.0,2.967,285.0,11,2,1.4,1,11.34,12,0.34,,9.1267,2
1260491,1469900543779,,,,,,,0.03,0.09,0.98,-3.0,0.3,-0.2,700,0,,,,,,,,,,,,,,,,,
1260511,1469900543800,,,,,,,0.03,0.09,0.98,-3.0,0.3,-0.2,700,0,,,,,,,,,,,,,,,,,
1260531,1469900543820,,,,,,,0.03,0.09,0.98,-3.0,0.1,-0.3,700,0,,,,,,,,,,,,,,,,,
1260551,1469900543840,,,,,,,0.03,0.09,0.98,-3.0,0.1,-0.1,700,0,,,,,,,,,,,,,,,,,
1260573,1469900543862,0,199.3,177.0,11,177.8,,0.03,0.09,0.98,-3.0,0.2,-0.1,700,0,0.0,0,39.538696,-122.332184,0.0,2.967,285.0,11,2,1.4,1,11.34,12,0.34,13.5352,9.1283,2
1260592,1469900543881,,,,,,,0.03,0.09,0.98,-3.0,0.2,-0.2,700,0,,,,,,,,,,,,,,,,,
1260612,1469900543894,,,,,,,0.03,0.09,0.98,-3.0,0.2,-0.2,700,0,,,,,,,,,,,,,,,,,
1260632,1469900543914,,,,,,,0.03,0.1,0.99,-3.0,0.1,-0.1,720,0,,,,,,,,,,,,,,,,,
1260652,1469900543934,,,,,,,0.03,0.1,0.99,-3.0,0.1,-0.1,700,0,,,,,,,,,,,,,,,,,
1260672,1469900543954,,,,12,,,0.02,0.09,0.98,-3.0,0.0,-0.2,700,0,0.0,0,39.538696,-122.332184,0.0,2.967,285.0,11,2,1.4,1,11.34,12,0.34,,9.13,2
1260692,1469900543974,,,,,,,0.02,0.09,0.98,-3.0,0.0,-0.1,700,0,,,,,,,,,,,,,,,,,
1260712,1469900544001,,,,,,,0.03,0.09,0.98,-3.0,0.0,-0.1,680,0,,,,,,,,,,,,,,,,,
1260732,1469900544021,,,,,,,0.03,0.08,0.98,-3.0,0.0,-0.1,700,0,,,,,,,,,,,,,,,,,
1260752,1469900544041,,,,,,,0.02,0.08,0.98,-3.0,0.0,-0.2,700,0,,,,,,,,,,,,,,,,,
1260774,1469900544063,0,199.9,177.5,13,177.8,13.38,0.02,0.09,0.98,-3.0,-0.0,-0.1,700,0,0.0,0,39.538696,-122.332184,0.0,2.967,285.0,11,2,1.8,1,11.34,12,0.34,13.5386,9.1317,2
1260793,1469900544082,,,,,,,0.03,0.1,0.98,-3.0,-0.0,-0.1,740,0,,,,,,,,,,,,,,,,,
1260813,1469900544201,,,,,,,0.03,0.1,0.98,-3.0,-0.0,-0.2,700,0,,,,,,,,,,,,,,,,,
1260833,1469900544221,,,,,,,0.03,0.1,0.98,-3.0,0.0,-0.2,700,0,,,,,,,,,,,,,,,,,
1260853,1469900544241,,,,,,,0.03,0.1,0.99,-3.1,0.1,-0.1,700,0,,,,,,,,,,,,,,,,,
1260873,1469900544261,,,,11,,,0.03,0.1,0.98,-3.0,0.1,-0.2,700,0,0.0,0,39.538696,-122.332184,0.0,2.967,285.0,11,2,1.8,1,11.34,12,0.34,,9.135,2
1260893,1469900544281,,,,,,,0.03,0.09,0.98,-3.0,0.0,-0.2,720,0,,,,,,,,,,,,,,,,,
1260913,1469900544301,,,,,,,0.03,0.09,0.99,-3.1,0.1,-0.2,720,0,,,,,,,,,,,,,,,,,
1260933,1469900544321,,,,,,,0.03,0.09,0.98,-3.1,0.1,-0.1,720,0,,,,,,,,,,,,,,,,,
1260953,1469900544341,,,,,,,0.03,0.09,0.98,-3.0,0.1,-0.2,740,0,,,,,,,,,,,,,,,,,
1260975,1469900544363,0,198.6,176.4,13,176.8,,0.03,0.09,0.99,-3.1,0.2,-0.2,740,0,0.0,0,39.538696,-122.332184,0.0,2.967,285.0,11,2,1.8,1,11.34,12,0.34,13.5436,9.135,2
1260994,1469900544382,,,,,,,0.03,0.1,0.98,-3.1,0.2,-0.1,700,0,,,,,,,,,,,,,,,,,
1261014,1469900544303,,,,,,,0.03,0.1,0.98,-3.1,0.2,-0.1,700,0,,,,,,,,,,,,,,,,,
1261034,1469900544323,,,,,,,0.03,0.1,0.98,-3.0,0.0,-0.2,700,0,,,,,,,,,,,,,,,,,
1261054,1469900544343,,,,,,,0.03,0.1,0.98,-3.1,0.1,-0.2,700,0,,,,,,,,,,,,,,,,,
1261074,1469900544363,,,,12,,,0.03,0.1,0.99,-3.1,0.1,-0.1,720,0,0.0,0,39.538696,-122.332184,0.0,2.967,285.0,11,2,1.8,1,11.34,12,0.34,,9.1367,2
1261094,1469900544383,,,,,,,0.03,0.1,0.99,-3.0,0.1,-0.2,700,0,,,,,,,,,,,,,,,,,
1261114,1469900544403,,,,,,,0.03,0.1,0.99,-3.0,0.0,-0.2,700,0,,,,,,,,,,,,,,,,,
1261134,1469900544423,,,,,,,0.03,0.1,0.99,-3.1,0.0,-0.1,740,0,,,,,,,,,,,,,,,,,
1261154,1469900544443,,,,,,,0.03,0.11,0.99,-3.1,0.0,-0.1,700,0,,,,,,,,,,,,,,,,,
1261176,1469900544465,0,198.8,176.4,12,176.7,,0.03,0.1,0.99,-3.1,0.0,-0.2,700,0,0.0,0,39.538696,-122.332184,0.0,2.967,285.0,11,2,1.8,1,11.34,12,0.34,13.5452,9.1383,2
1261195,1469900544484,,,,,,,0.02,0.09,0.99,-3.0,0.1,-0.2,700,0,,,,,,,,,,,,,,,,,
1261215,1469900544504,,,,,,,0.03,0.1,0.99,-3.1,0.2,-0.1,700,0,,,,,,,,,,,,,,,,,
1261235,1469900544524,,,,,,,0.03,0.11,0.99,-3.1,0.1,-0.1,720,0,,,,,,,,,,,,,,,,,
1261255,1469900544544,,,,,,,0.03,0.1,0.99,-3.0,0.0,-0.2,720,0,,,,,,,,,,,,,,,,,
1261275,1469900544564,,,,11,,,0.03,0.1,0.99,-3.1,0.1,-0.2,720,0,0.0,0,39.538696,-122.332184,0.0,2.967,285.0,11,2,1.8,1,11.34,12,0.34,,9.14,2
1261295,1469900544584,,,,,,,0.03,0.1,0.99,-3.1,0.1,-0.1,740,0,,,,,,,,,,,,,,,,,
1261315,1469900544604,,,,,,,0.03,0.1,0.99,-3.0,0.0,-0.2,720,0,,,,,,,,,,,,,,,,,
1261335,1469900544624,,,,,,,0.03,0.1,0.99,-3.0,0.0,-0.2,720,0,,,,,,,,,,,,,,,,,
1261355,1469900544644,,,,,,,0.03,0.1,0.99,-3.0,0.1,-0.1,720,0,,,,,,,,,,,,,,,,,
1261377,1469900544666,0,199.8,177.7,12,178.1,,0.03,0.1,0.99,-3.0,0.1,-0.1,720,0,0.0,0,39.538696,-122.332184,0.0,2.967,285.0,11,2,1.8,1,11.34,12,0.34,13.5486,9.1417,2
1261396,1469900544685,,,,,,,0.03,0.09,0.99,-2.9,0.0,-0.2,720,0,,,,,,,,,,,,,,,,,
1261416,1469900544705,,,,,,,0.02,0.08,0.99,-2.9,-0.0,-0.2,720,0,,,,,,,,,,,,,,,,,
1261436,1469900544725,,,,,,,0.02,0.09,0.99,-2.9,-0.0,-0.2,720,0,,,,,,,,,,,,,,,,,
1261456,1469900544745,,,,,,,0.03,0.1,0.99,-3.0,0.0,-0.1,740,0,,,,,,,,,,,,,,,,,
1261476,1469900544765,,,,12,,,0.03,0.1,0.99,-2.9,0.0,-0.2,720,0,0.0,0,39.538696,-122.332184,0.0,2.967,285.0,11,2,1.8,1,11.34,12,0.34,,9.1433,2
1261496,1469900544785,,,,,,,0.02,0.1,0.99,-3.0,0.0,-0.2,720,0,,,,,,,,,,,,,,,,,
1261516,1469900544805,,,,,,,0.02,0.1,0.99,-3.0,-0.0,-0.1,700,0,,,,,,,,,,,,,,,,,
1261536,1469900544825,,,,,,,0.03,0.11,0.98,-3.0,-0.1,-0.1,720,0,,,,,,,,,,,,,,,,,
1261556,1469900544845,,,,,,,0.03,0.1,0.98,-3.0,-0.0,-0.3,720,0,,,,,,,,,,,,,,,,,
1261578,1469900544867,0,200.0,177.8,11,177.6,,0.03,0.1,0.99,-3.0,0.1,-0.3,720,0,0.0,0,39.538696,-122.332184,0.0,2.967,285.0,11,2,1.8,1,11.34,12,0.34,13.552,9.145,2
1261597,1469900544886,,,,,,,0.02,0.1,0.98,-3.0,0.2,-0.2,720,0,,,,,,,,,,,,,,,,,
1261617,1469900544998,,,,,,,0.02,0.09,0.98,-3.0,0.0,-0.2,740,0,,,,,,,,,,,,,,,,,
1261637,1469900545018,,,,,,,0.02,0.09,0.98,-2.9,-0.0,-0.3,720,0,,,,,,,,,,,,,,,,,
1261657,1469900545038,,,,,,,0.02,0.09,0.98,-3.0,0.0,-0.2,720,0,,,,,,,,,,,,,,,,,
1261677,1469900545058,,,,13,,,0.02,0.09,0.98,-3.0,0.2,-0.1,720,0,0.0,0,39.538696,-122.332184,0.0,2.967,285.0,11,2,1.4,1,11.34,12,0.34,,9.1483,2
1261697,1469900545078,,,,,,,0.02,0.09,0.98,-2.9,0.2,-0.1,720,0,,,,,,,,,,,,,,,,,
1261717,1469900545098,,,,,,,0.02,0.08,0.98,-2.9,0.1,-0.2,720,0,,,,,,,,,,,,,,,,,
1261737,1469900545118,,,,,,,0.02,0.09,0.98,-2.9,0.0,-0.1,720,0,,,,,,,,,,,,,,,,,
1261757,1469900545138,,,,,,,0.03,0.09,0.98,-2.9,0.0,-0.1,720,0,,,,,,,,,,,,,,,,,
1261779,1469900545160,0,199.0,176.7,12,176.3,13.43,0.03,0.09,0.99,-2.9,0.1,-0.2,740,0,0.0,0,39.538696,-122.332184,0.0,2.967,285.0,11,2,1.4,1,11.34,12,0.34,13.5568,9.1483,2
1261798,1469900545179,,,,,,,0.02,0.09,0.99,-2.9,0.1,-0.3,740,0,,,,,,,,,,,,,,,,,
1261818,1469900545107,,,,,,,0.03,0.09,0.98,-3.0,0.0,-0.2,720,0,,,,,,,,,,,,,,,,,
1261838,1469900545127,,,,,,,0.03,0.1,0.98,-3.0,0.0,-0.1,720,0,,,,,,,,,,,,,,,,,
1261858,1469900545147,,,,,,,0.04,0.1,0.98,-2.9,0.0,-0.2,720,0,,,,,,,,,,,,,,,,,
1261878,1469900545167,,,,13,,,0.03,0.1,0.99,-3.0,0.1,-0.2,720,0,0.0,0,39.538696,-122.332184,0.0,2.967,285.0,11,2,1.4,1,11.34,12,0.34,,9.15,2
1261898,1469900545187,,,,,,,0.03,0.1,0.99,-3.0,-0.0,-0.1,720,0,,,,,,,,,,,,,,,,,
1261918,1469900545207,,,,,,,0.03,0.1,0.98,-3.0,-0.2,-0.1,720,0,,,,,,,,,,,,,,,,,
1261938,1469900545227,,,,,,,0.03,0.1,0.98,-2.9,-0.2,-0.2,760,0,,,,,,,,,,,,,,,,,
1261958,1469900545247,,,,,,,0.03,0.1,0.99,-3.0,-0.0,-0.1,760,0,,,,,,,,,,,,,,,,,
1261980,1469900545269,0,200.0,177.5,13,177.2,,0.03,0.1,0.98,-3.0,0.1,-0.1,720,0,0.0,0,39.538696,-122.332184,0.0,2.967,285.0,11,2,1.4,1,11.34,12,0.34,13.5586,9.1517,2
1261999,1469900545288,,,,,,,0.03,0.1,0.98,-3.0,-0.1,-0.0,720,0,,,,,,,,,,,,,,,,,
1262019,1469900545308,,,,,,,0.03,0.09,0.98,-2.9,-0.2,-0.1,720,0,,,,,,,,,,,,,,,,,
1262039,1469900545328,,,,,,,0.03,0.09,0.98,-2.9,-0.0,-0.1,720,0,,,,,,,,,,,,,,,,,
1262059,1469900545348,,,,,,,0.03,0.1,0.98,-3.0,0.1,0.0,720,0,,,,,,,,,,,,,,,,,
1262079,1469900545368,,,,12,,,0.03,0.09,0.99,-2.9,0.2,-0.1,720,0,0.0,0,39.538696,-122.332184,0.0,2.967,285.0,11,2,1.4,1,11.34,12,0.34,,9.1533,2
1262099,1469900545388,,,,,,,0.02,0.09,0.99,-2.9,0.1,-0.2,740,0,,,,,,,,,,,,,,,,,
1262119,1469900545408,,,,,,,0.03,0.1,0.99,-2.9,0.0,-0.1,740,0,,,,,,,,,,,,,,,,,
1262139,1469900545428,,,,,,,0.03,0.1,0.99,-2.9,0.1,-0.1,720,0,,,,,,,,,,,,,,,,,
1262159,1469900545448,,,,,,,0.03,0.09,0.99,-2.9,0.1,-0.2,700,0,,,,,,,,,,,,,,,,,
1262181,1469900545470,0,199.8,177.5,13,176.7,,0.03,0.09,1.0,-2.9,0.2,-0.3,700,0,0.0,0,39.538696,-122.332184,0.0,2.967,285.0,11,2,1.4,1,11.34,12,0.34,13.562,9.155,2
1262200,1469900545489,,,,,,,0.03,0.09,0.99,-2.9,0.1,-0.2,700,0,,,,,,,,,,,,,,,,,
1262220,1469900545509,,,,,,,0.03,0.1,0.99,-2.9,0.1,-0.1,720,0,,,,,,,,,,,,,,,,,
1262240,1469900545529,,,,,,,0.04,0.1,0.99,-2.9,0.1,-0.2,720,0,,,,,,,,,,,,,,,,,
1262260,1469900545549,,,,,,,0.03,0.09,0.99,-3.0,0.2,-0.2,720,0,,,,,,,,,,,,,,,,,
1262280,1469900545569,,,,12,,,0.03,0.1,0.99,-3.0,0.2,-0.1,740,0,0.0,0,39.538696,-122.332184,0.0,2.967,285.0,11,2,1.4,1,11.34,12,0.34,,9.1567,2
1262300,1469900545589,,,,,,,0.03,0.09,0.99,-3.0,0.1,-0.1,720,0,,,,,,,,,,,,,,,,,
1262320,1469900545609,,,,,,,0.03,0.09,0.99,-2.9,0.1,-0.2,700,0,,,,,,,,,,,,,,,,,
1262340,1469900545629,,,,,,,0.03,0.09,0.99,-3.0,0.2,-0.1,700,0,,,,,,,,,,,,,,,,,
1262360,1469900545649,,,,,,,0.03,0.09,0.99,-2.9,0.2,-0.1,700,0,,,,,,,,,,,,,,,,,
1262382,1469900545671,0,198.9,176.4,12,175.6,,0.03,0.08,0.98,-2.9,0.2,-0.1,720,0,0.0,0,39.538696,-122.332184,0.0,2.967,285.0,11,2,1.4,1,11.34,12,0.34,13.5653,9.1583,2
1262401,1469900545690,,,,,,,0.03,0.08,0.99,-2.9,0.1,-0.2,720,0,,,,,,,,,,,,,,,,,
1262421,1469900545809,,,,,,,0.03,0.09,0.98,-2.9,0.1,-0.1,720,0,,,,,,,,,,,,,,,,,
1262441,1469900545829,,,,,,,0.03,0.09,0.98,-2.9,0.1,-0.1,740,0,,,,,,,,,,,,,,,,,
1262461,1469900545849,,,,,,,0.03,0.09,0.98,-2.9,-0.0,-0.2,720,0,,,,,,,,,,,,,,,,,
1262481,1469900545869,,,,13,,,0.03,0.09,0.98,-2.9,-0.0,-0.2,720,0,0.0,0,39.538696,-122.332184,0.0,2.967,285.0,11,2,1.4,1,11.34,12,0.34,,9.1617,2
1262501,1469900545889,,,,,,,0.03,0.1,0.98,-3.0,-0.0,-0.1,700,0,,,,,,,,,,,,,,,,,
1262521,1469900545909,,,,,,,0.03,0.1,0.98,-2.9,-0.1,-0.1,700,0,,,,,,,,,,,,,,,,,
1262541,1469900545929,,,,,,,0.03,0.09,0.99,-2.9,-0.1,-0.2,720,0,,,,,,,,,,,,,,,,,
1262561,1469900545949,,,,,,,0.03,0.09,0.99,-3.0,0.0,-0.1,720,0,,,,,,,,,,,,,,,,,
1262583,1469900545971,0,198.4,175.8,12,175.1,,0.03,0.09,0.99,-3.0,0.1,-0.1,720,0,0.0,0,39.538696,-122.332184,0.0,2.967,285.0,11,2,1.4,1,11.34,12,0.34,13.5703,9.1617,2
1262602,1469900545990,,,,,,,0.03,0.09,0.99,-3.0,0.1,-0.1,740,0,,,,,,,,,,,,,,,,,
1262622,1469900545904,,,,,,,0.02,0.09,0.99,-3.0,0.1,-0.2,740,0,,,,,,,,,,,,,,,,,
1262642,1469900545924,,,,,,,0.03,0.09,0.99,-3.0,0.2,-0.1,720,0,,,,,,,,,,,,,,,,,
1262662,1469900545944,,,,,,,0.03,0.1,0.99,-3.0,0.2,-0.1,700,0,,,,,,,,,,,,,,,,,
1262682,1469900545964,,,,12,,,0.03,0.09,0.99,-3.0,0.2,-0.2,700,0,0.0,0,39.538696,-122.332184,0.0,2.967,285.0,11,2,1.4,1,11.34,12,0.34,,9.1633,2
1262702,1469900545991,,,,,,,0.03,0.1,0.99,-3.0,0.2,-0.2,700,0,,,,,,,,,,,,,,,,,
1262722,1469900546011,,,,,,,0.03,0.1,0.99,-3.0,0.2,-0.1,720,0,,,,,,,,,,,,,,,,,
1262742,1469900546031,,,,,,,0.03,0.1,0.99,-3.0,0.1,-0.1,720,0,,,,,,,,,,,,,,,,,
1262762,1469900546051,,,,,,,0.03,0.1,0.99,-3.0,0.0,-0.2,740,0,,,,,,,,,,,,,,,,,
1262784,1469900546073,0,199.7,177.2,12,176.1,13.48,0.03,0.1,0.99,-3.0,0.1,-0.1,740,0,0.0,0,39.538696,-122.332184,0.0,2.967,285.0,11,2,1.3,1,11.34,12,0.34,13.5721,9.165,2
1262803,1469900546092,,,,,,,0.03,0.1,0.99,-3.0,0.2,-0.0,700,0,,,,,,,,,,,,,,,,,
1262823,1469900546112,,,,,,,0.03,0.09,0.99,-2.9,0.1,-0.1,700,0,,,,,,,,,,,,,,,,,
1262843,1469900546132,,,,,,,0.02,0.08,0.99,-2.9,0.1,-0.2,700,0,,,,,,,,,,,,,,,,,
1262863,1469900546152,,,,,,,0.03,0.09,0.99,-2.9,0.2,-0.1,700,0,,,,,,,,,,,,,,,,,
1262883,1469900546172,,,,13,,,0.03,0.09,0.99,-2.9,0.2,-0.0,720,0,0.0,0,39.538696,-122.332184,0.0,2.967,285.0,11,2,1.3,1,11.34,12,0.34,,9.1667,2
1262903,1469900546192,,,,,,,0.03,0.09,0.99,-2.9,0.2,-0.2,720,0,,,,,,,,,,,,,,,,,
1262923,1469900546212,,,,,,,0.03,0.09,0.99,-2.9,0.2,-0.2,720,0,,,,,,,,,,,,,,,,,
1262943,1469900546232,,,,,,,0.03,0.1,0.99,-2.9,0.2,-0.1,740,0,,,,,,,,,,,,,,,,,
1262963,1469900546252,,,,,,,0.03,0.09,0.99,-2.9,0.2,-0.1,720,0,,,,,,,,,,,,,,,,,
1262985,1469900546274,0,199.1,176.1,12,175.1,,0.03,0.09,0.99,-2.9,0.1,-0.2,720,0,0.0,0,39.538696,-122.332184,0.0,2.967,285.0,11,2,1.3,1,11.34,12,0.34,13.5754,9.1683,2
1263004,1469900546293,,,,,,,0.03,0.08,0.98,-2.9,0.3,-0.2,720,0,,,,,,,,,,,,,,,,,
1263024,1469900546313,,,,,,,0.03,0.09,0.98,-3.0,0.2,-0.1,700,0,,,,,,,,,,,,,,,,,
1263044,1469900546333,,,,,,,0.03,0.09,0.98,-3.0,0.1,-0.1,720,0,,,,,,,,,,,,,,,,,
1263064,1469900546353,,,,,,,0.03,0.09,0.99,-3.0,-0.0,-0.2,720,0,,,,,,,,,,,,,,,,,
1263084,1469900546373,,,,12,,,0.03,0.09,0.99,-3.0,0.0,-0.2,720,0,0.0,0,39.538696,-122.332184,0.0,2.967,285.0,11,2,1.3,1,11.34,12,0.34,,9.17,2
1263104,1469900546393,,,,,,,0.03,0.1,0.99,-3.0,0.1,-0.1,740,0,,,,,,,,,,,,,,,,,
1263124,1469900546413,,,,,,,0.03,0.09,0.99,-3.0,0.1,-0.2,700,0,,,,,,,,,,,,,,,,,
1263144,1469900546433,,,,,,,0.03,0.09,0.99,-2.9,0.1,-0.3,700,0,,,,,,,,,,,,,,,,,
1263164,1469900546453,,,,,,,0.03,0.1,0.99,-3.0,0.0,-0.2,700,0,,,,,,,,,,,,,,,,,
1263186,1469900546475,0,199.0,176.5,13,175.2,,0.03,0.1,0.99,-2.9,-0.0,-0.2,680,0,0.0,0,39.538696,-122.332184,0.0,2.967,285.0,11,2,1.3,1,11.34,12,0.34,13.5787,9.1717,2
1263205,1469900546593,,,,,,,0.03,0.09,0.99,-2.9,-0.1,-0.3,700,0,,,,,,,,,,,,,,,,,
1263225,1469900546613,,,,,,,0.03,0.09,0.99,-2.9,-0.1,-0.2,700,0,,,,,,,,,,,,,,,,,
1263245,1469900546633,,,,,,,0.03,0.09,0.99,-2.9,-0.1,-0.2,700,0,,,,,,,,,,,,,,,,,
1263265,1469900546653,,,,,,,0.02,0.09,0.99,-2.9,-0.0,-0.3,720,0,,,,,,,,,,,,,,,,,
1263285,1469900546673,,,,12,,,0.02,0.09,0.99,-2.9,0.0,-0.3,720,0,0.0,0,39.538696,-122.332184,0.0,2.967,285.0,11,2,1.3,1,11.34,12,0.34,,9.175,2
1263305,1469900546693,,,,,,,0.02,0.1,0.98,-3.0,0.0,-0.2,700,0,,,,,,,,,,,,,,,,,
1263325,1469900546713,,,,,,,0.02,0.1,0.98,-3.0,-0.1,-0.2,700,0,,,,,,,,,,,,,,,,,
1263345,1469900546733,,,,,,,0.02,0.09,0.98,-2.9,-0.2,-0.2,680,0,,,,,,,,,,,,,,,,,
1263365,1469900546753,,,,,,,0.02,0.09,0.98,-3.0,-0.1,-0.2,680,0,,,,,,,,,,,,,,,,,
1263387,1469900546775,0,198.5,175.6,11,174.5,,0.03,0.09,0.98,-3.0,0.1,-0.2,700,0,0.0,0,39.538696,-122.332184,0.0,2.967,285.0,11,2,1.3,1,11.34,12,0.34,13.5837,9.175,2
1263406,1469900546695,,,,,,,0.03,0.09,0.99,-2.9,0.1,-0.2,700,0,,,,,,,,,,,,,,,,,
1263426,1469900546715,,,,,,,0.02,0.09,0.99,-3.0,0.1,-0.3,700,0,,,,,,,,,,,,,,,,,
1263446,1469900546735,,,,,,,0.03,0.11,0.98,-3.0,0.0,-0.2,740,0,,,,,,,,,,,,,,,,,
1263466,1469900546755,,,,,,,0.03,0.1,0.98,-3.0,-0.0,-0.1,700,0,,,,,,,,,,,,,,,,,
1263486,1469900546775,,,,12,,,0.03,0.1,0.98,-3.0,0.0,-0.2,700,0,0.0,0,39.538696,-122.332184,0.0,2.967,285.0,11,2,1.3,1,11.34,12,0.34,,9.1767,2
1263506,1469900546795,,,,,,,0.03,0.09,0.98,-3.0,0.0,-0.2,700,0,,,,,,,,,,,,,,,,,
1263526,1469900546815,,,,,,,0.03,0.1,0.98,-3.0,0.1,-0.1,680,0,,,,,,,,,,,,,,,,,
1263546,1469900546835,,,,,,,0.03,0.09,0.98,-3.0,0.0,-0.2,700,0,,,,,,,,,,,,,,,,,
1263566,1469900546855,,,,,,,0.03,0.09,0.99,-3.0,0.0,-0.3,700,0,,,,,,,,,,,,,,,,,
1263588,1469900546877,0,199.1,176.5,13,175.0,,0.03,0.1,0.98,-3.0,-0.1,-0.2,700,0,0.0,0,39.538696,-122.332184,0.0,2.967,285.0,11,2,1.3,1,11.34,12,0.34,13.5855,9.1783,2
1263607,1469900546896,,,,,,,0.03,0.1,0.98,-3.0,-0.1,-0.1,740,0,,,,,,,,,,,,,,,,,
1263627,1469900546909,,,,,,,0.03,0.1,0.98,-3.0,-0.0,-0.2,700,0,,,,,,,,,,,,,,,,,
1263647,1469900546929,,,,,,,0.03,0.11,0.98,-3.0,-0.0,-0.2,700,0,,,,,,,,,,,,,,,,,
1263667,1469900546949,,,,,,,0.04,0.11,0.98,-3.1,-0.0,-0.1,700,0,,,,,,,,,,,,,,,,,
1263687,1469900546969,,,,12,,,0.03,0.1,0.98,-3.0,-0.1,-0.1,700,0,0.0,0,39.538696,-122.332184,0.0,2.967,285.0,11,2,1.3,1,11.34,12,0.34,,9.18,2
1263707,1469900546996,,,,,,,0.03,0.1,0.98,-3.0,-0.1,-0.2,700,0,,,,,,,,,,,,,,,,,
1263727,1469900547016,,,,,,,0.03,0.1,0.98,-3.0,0.0,-0.2,700,0,,,,,,,,,,,,,,,,,
1263747,1469900547036,,,,,,,0.03,0.1,0.98,-3.0,0.0,-0.1,700,0,,,,,,,,,,,,,,,,,
1263767,1469900547056,,,,,,,0.03,0.09,0.98,-3.0,0.0,-0.2,740,0,,,,,,,,,,,,,,,,,
1263789,1469900547078,0,199.7,176.5,13,175.0,13.42,0.03,0.09,0.99,-3.0,0.1,-0.2,740,0,0.0,0,39.538696,-122.332184,0.0,2.967,285.0,11,2,1.3,1,11.34,12,0.34,13.5888,9.1817,2
1263808,1469900547097,,,,,,,0.03,0.1,0.98,-3.1,0.1,-0.1,700,0,,,,,,,,,,,,,,,,,
1263828,1469900547117,,,,,,,0.03,0.1,0.99,-3.0,0.1,-0.1,700,0,,,,,,,,,,,,,,,,,
1263848,1469900547137,,,,,,,0.03,0.09,0.99,-3.0,0.1,-0.2,700,0,,,,,,,,,,,,,,,,,
1263868,1469900547157,,,,,,,0.03,0.1,0.98,-3.0,0.1,-0.2,700,0,,,,,,,,,,,,,,,,,
1263888,1469900547177,,,,12,,,0.03,0.1,0.99,-3.0,0.1,-0.1,700,0,0.0,0,39.538696,-122.332184,0.0,2.967,285.0,11,2,1.3,1,11.34,12,0.34,,9.1833,2
1263908,1469900547197,,,,,,,0.02,0.1,0.99,-3.0,0.0,-0.2,720,0,,,,,,,,,,,,,,,,,
1263928,1469900547217,,,,,,,0.02,0.1,0.99,-3.0,-0.0,-0.2,740,0,,,,,,,,,,,,,,,,,
1263948,1469900547237,,,,,,,0.02,0.1,0.99,-3.0,0.0,-0.1,740,0,,,,,,,,,,,,,,,,,
1263968,1469900547257,,,,,,,0.02,0.11,0.99,-3.1,-0.0,-0.1,700,0,,,,,,,,,,,,,,,,,
1263990,1469900547279,0,199.7,175.6,12,174.4,,0.02,0.1,0.99,-3.0,0.0,-0.2,700,0,0.0,0,39.538696,-122.332184,0.0,2.967,285.0,11,2,1.3,1,11.34,12,0.34,13.5921,9.185,2
1264009,1469900547397,,,,,,,0.02,0.09,0.99,-3.0,0.1,-0.2,700,0,,,,,,,,,,,,,,,,,
1264029,1469900547417,,,,,,,0.03,0.1,0.99,-3.0,0.1,-0.1,700,0,,,,,,,,,,,,,,,,,
1264049,1469900547437,,,,,,,0.03,0.11,0.99,-3.0,0.1,-0.1,720,0,,,,,,,,,,,,,,,,,
1264069,1469900547457,,,,,,,0.03,0.1,0.99,-3.0,0.1,-0.2,720,0,,,,,,,,,,,,,,,,,
1264089,1469900547477,,,,11,,,0.03,0.1,0.99,-3.0,0.1,-0.2,720,0,0.0,0,39.538696,-122.332184,0.0,2.967,285.0,11,2,1.3,1,11.34,12,0.34,,9.1883,2
1264109,1469900547497,,,,,,,0.03,0.11,0.99,-3.0,0.2,-0.1,740,0,,,,,,,,,,,,,,,,,
1264129,1469900547517,,,,,,,0.03,0.1,0.99,-3.0,0.1,-0.2,700,0,,,,,,,,,,,,,,,,,
1264149,1469900547537,,,,,,,0.03,0.1,0.99,-3.0,0.1,-0.3,700,0,,,,,,,,,,,,,,,,,
1264169,1469900547557,,,,,,,0.03,0.11,0.99,-3.0,0.1,-0.1,720,0,,,,,,,,,,,,,,,,,
1264191,1469900547579,0,199.6,176.1,12,174.7,,0.03,0.11,0.99,-3.0,0.1,-0.1,700,0,0.0,0,39.538696,-122.332184,0.0,2.967,285.0,11,2,1.3,1,11.34,12,0.34,13.5971,9.1883,2
1264210,1469900547499,,,,,,,0.03,0.1,0.99,-2.9,0.1,-0.2,720,0,,,,,,,,,,,,,,,,,
1264230,1469900547519,,,,,,,0.02,0.09,0.99,-2.9,0.1,-0.2,720,0,,,,,,,,,,,,,,,,,
1264250,1469900547539,,,,,,,0.02,0.1,0.99,-3.0,0.1,-0.1,720,0,,,,,,,,,,,,,,,,,
1264270,1469900547559,,,,,,,0.03,0.1,0.98,-3.0,0.0,-0.1,740,0,,,,,,,,,,,,,,,,,
1264290,1469900547579,,,,11,,,0.02,0.1,0.98,-2.9,-0.1,-0.2,700,0,0.0,0,39.538696,-122.332184,0.0,2.967,285.0,11,2,1.3,1,11.34,12,0.34,,9.19,2
1264310,1469900547594,,,,,,,0.02,0.1,0.98,-2.9,-0.0,-0.2,700,0,,,,,,,,,,,,,,,,,
1264330,1469900547614,,,,,,,0.02,0.1,0.98,-3.0,0.0,-0.2,700,0,,,,,,,,,,,,,,,,,
1264350,1469900547634,,,,,,,0.02,0.1,0.98,-2.9,0.0,-0.2,700,0,,,,,,,,,,,,,,,,,
1264370,1469900547654,,,,,,,0.02,0.09,0.98,-2.9,0.0,-0.3,700,0,,,,,,,,,,,,,,,,,
1264392,1469900547676,0,199.7,175.2,12,173.7,,0.02,0.09,0.99,-3.0,0.1,-0.2,700,0,0.0,0,39.538696,-122.332184,0.0,2.967,285.0,11,2,1.3,1,11.34,12,0.34,13.5988,9.1917,2
1264411,1469900547694,,,,,,,0.03,0.09,0.99,-3.0,0.1,-0.2,700,0,,,,,,,,,,,,,,,,,
1264431,1469900547714,,,,,,,0.02,0.09,0.99,-3.0,0.1,-0.2,740,0,,,,,,,,,,,,,,,,,
1264451,1469900547734,,,,,,,0.02,0.08,0.99,-3.0,0.2,-0.2,740,0,,,,,,,,,,,,,,,,,
1264471,1469900547754,,,,,,,0.02,0.09,0.99,-3.0,0.1,-0.1,700,0,,,,,,,,,,,,,,,,,
1264491,1469900547774,,,,12,,,0.03,0.1,0.98,-3.0,0.1,-0.1,700,0,0.0,0,39.538696,-122.332184,0.0,2.967,285.0,11,2,1.3,1,11.34,12,0.34,,9.1933,2
1264511,1469900547795,,,,,,,0.03,0.09,0.99,-3.0,-0.1,-0.2,700,0,,,,,,,,,,,,,,,,,
1264531,1469900547815,,,,,,,0.03,0.1,0.98,-3.0,-0.0,-0.1,700,0,,,,,,,,,,,,,,,,,
1264551,1469900547835,,,,,,,0.03,0.1,0.99,-3.0,-0.0,-0.1,720,0,,,,,,,,,,,,,,,,,
1264571,1469900547855,,,,,,,0.03,0.1,0.99,-3.0,-0.0,-0.2,720,0,,,,,,,,,,,,,,,,,
1264593,1469900547877,0,197.9,175.2,13,173.8,,0.02,0.1,0.99,-3.0,-0.0,-0.2,720,0,0.0,0,39.538696,-122.332184,0.0,2.967,285.0,11,2,1.3,1,11.34,12,0.34,13.6021,9.195,2
1264612,1469900547896,,,,,,,0.02,0.1,0.98,-3.0,-0.1,-0.1,740,0,,,,,,,,,,,,,,,,,
1264632,1469900547910,,,,,,,0.03,0.1,0.99,-3.0,-0.1,-0.1,700,0,,,,,,,,,,,,,,,,,
1264652,1469900547930,,,,,,,0.03,0.1,0.99,-3.0,-0.0,-0.2,700,0,,,,,,,,,,,,,,,,,
1264672,1469900547950,,,,,,,0.02,0.09,0.98,-3.0,0.0,-0.2,700,0,,,,,,,,,,,,,,,,,
1264692,1469900547970,,,,12,,,0.03,0.1,0.98,-3.1,-0.0,-0.0,700,0,0.0,0,39.53865,-122.332176,1.12,2.97,183.2,11,2,1.3,1,11.34,12,0.34,,9.1967,2
1264712,1469900547995,,,,,,,0.03,0.1,0.99,-3.1,-0.1,-0.1,720,0,,,,,,,,,,,,,,,,,
1264732,1469900548015,,,,,,,0.02,0.1,0.99,-3.0,-0.2,-0.2,720,0,,,,,,,,,,,,,,,,,
1264752,1469900548035,,,,,,,0.02,0.1,0.99,-3.1,-0.1,-0.1,720,0,,,,,,,,,,,,,,,,,
1264772,1469900548055,,,,,,,0.03,0.11,0.99,-3.1,-0.1,-0.1,740,0,,,,,,,,,,,,,,,,,
1264794,1469900548077,0,201.5,173.9,13,172.4,13.42,0.02,0.1,0.99,-3.0,-0.1,-0.2,700,0,0.0,0,39.53865,-122.332176,1.13,2.97,183.2,11,2,1.4,1,11.34,12,0.34,13.575,9.1983,2
1264813,1469900548197,,,,,,,0.02,0.1,0.99,-3.0,-0.1,-0.2,700,0,,,,,,,,,,,,,,,,,
1264833,1469900548217,,,,,,,0.02,0.11,0.99,-3.1,-0.1,-0.1,700,0,,,,,,,,,,,,,,,,,
1264853,1469900548237,,,,,,,0.02,0.1,0.99,-3.0,-0.1,-0.1,700,0,,,,,,,,,,,,,,,,,
1264873,1469900548257,,,,,,,0.02,0.09,0.99,-3.0,-0.1,-0.2,700,0,,,,,,,,,,,,,,,,,
1264893,1469900548277,,,,11,,,0.02,0.09,0.99,-3.0,-0.0,-0.2,700,0,0.0,0,39.53865,-122.332176,1.03,2.97,183.2,11,2,1.4,1,11.34,12,0.34,,9.2017,2
1264913,1469900548297,,,,,,,0.02,0.09,0.99,-3.0,0.0,-0.2,700,0,,,,,,,,,,,,,,,,,
1264933,1469900548317,,,,,,,0.02,0.09,0.99,-3.0,0.1,-0.2,720,0,,,,,,,,,,,,,,,,,
1264953,1469900548337,,,,,,,0.01,0.09,0.99,-3.0,0.2,-0.2,720,0,,,,,,,,,,,,,,,,,
1264973,1469900548357,,,,,,,0.01,0.1,0.99,-3.1,0.1,-0.1,680,0,,,,,,,,,,,,,,,,,
1264995,1469900548379,0,198.4,175.0,11,173.3,,0.02,0.1,0.98,-3.1,0.1,-0.0,700,0,0.0,0,39.53865,-122.332176,1.03,2.97,183.2,11,2,1.4,1,11.34,12,0.34,13.5801,9.2017,2
1265014,1469900548297,,,,,,,0.02,0.1,0.98,-3.0,0.1,-0.1,700,0,,,,,,,,,,,,,,,,,
1265034,1469900548317,,,,,,,0.02,0.1,0.98,-3.1,0.1,-0.1,700,0,,,,,,,,,,,,,,,,,
1265054,1469900548337,,,,,,,0.03,0.11,0.99,-3.1,0.2,0.0,700,0,,,,,,,,,,,,,,,,,
1265074,1469900548357,,,,,,,0.02,0.1,0.99,-3.0,0.1,-0.1,700,0,,,,,,,,,,,,,,,,,
1265094,1469900548377,,,,12,,,0.02,0.1,0.99,-3.0,0.1,-0.1,700,0,0.0,0,39.53865,-122.332176,1.19,2.97,183.2,11,2,1.4,1,11.34,12,0.34,,9.2033,2
1265114,1469900548399,,,,,,,0.02,0.11,0.99,-3.1,0.0,-0.0,740,0,,,,,,,,,,,,,,,,,
1265134,1469900548419,,,,,,,0.03,0.11,0.99,-3.1,-0.0,-0.0,700,0,,,,,,,,,,,,,,,,,
1265154,1469900548439,,,,,,,0.03,0.1,0.98,-3.0,-0.0,-0.1,700,0,,,,,,,,,,,,,,,,,
1265174,1469900548459,,,,,,,0.03,0.09,0.99,-3.1,-0.0,-0.1,700,0,,,,,,,,,,,,,,,,,
1265196,1469900548481,0,201.6,173.6,12,171.8,,0.03,0.09,0.98,-3.1,0.1,-0.0,700,0,0.0,0,39.53865,-122.332176,1.14,2.97,183.2,11,2,1.4,1,11.34,12,0.34,13.5818,9.205,2
1265215,1469900548498,,,,,,,0.03,0.09,0.99,-3.0,0.0,-0.1,700,0,,,,,,,,,,,,,,,,,
1265235,1469900548518,,,,,,,0.03,0.09,0.99,-3.0,0.0,-0.2,700,0,,,,,,,,,,,,,,,,,
1265255,1469900548538,,,,,,,0.03,0.1,0.98,-3.0,-0.1,-0.1,700,0,,,,,,,,,,,,,,,,,
1265275,1469900548558,,,,,,,0.03,0.1,0.98,-3.0,-0.1,-0.1,740,0,,,,,,,,,,,,,,,,,
1265295,1469900548578,,,,11,,,0.03,0.09,0.98,-3.0,-0.1,-0.2,700,0,0.0,0,39.53865,-122.332176,1.14,2.97,183.2,11,2,1.4,1,11.34,12,0.34,,9.2067,2
1265315,1469900548606,,,,,,,0.03,0.1,0.98,-3.0,-0.0,-0.2,700,0,,,,,,,,,,,,,,,,,
1265335,1469900548626,,,,,,,0.03,0.1,0.98,-3.0,0.1,-0.1,700,0,,,,,,,,,,,,,,,,,
1265355,1469900548646,,,,,,,0.03,0.1,0.98,-3.0,0.1,-0.2,700,0,,,,,,,,,,,,,,,,,
1265375,1469900548666,,,,,,,0.03,0.09,0.98,-2.9,0.1,-0.2,700,0,,,,,,,,,,,,,,,,,
1265397,1469900548688,0,198.2,174.8,11,173.3,,0.03,0.1,0.98,-3.0,0.1,-0.1,700,0,0.0,0,39.53865,-122.332176,1.12,2.97,183.2,11,2,1.4,1,11.34,12,0.34,13.5852,9.2083,2
1265416,1469900548708,,,,,,,0.03,0.1,0.98,-3.0,0.0,-0.1,700,0,,,,,,,,,,,,,,,,,
1265436,1469900548728,,,,,,,0.03,0.1,0.98,-3.0,0.1,-0.2,740,0,,,,,,,,,,,,,,,,,
1265456,1469900548748,,,,,,,0.03,0.09,0.98,-3.0,0.1,-0.2,740,0,,,,,,,,,,,,,,,,,
1265476,1469900548768,,,,,,,0.03,0.1,0.97,-3.0,0.2,-0.1,700,0,,,,,,,,,,,,,,,,,
1265496,1469900548788,,,,12,,,0.03,0.1,0.98,-3.0,0.1,-0.1,700,0,0.0,0,39.53865,-122.332176,1.12,2.97,183.2,11,2,1.4,1,11.34,12,0.34,,9.21,2
1265516,1469900548807,,,,,,,0.02,0.09,0.98,-3.0,0.0,-0.2,700,0,,,,,,,,,,,,,,,,,
1265536,1469900548827,,,,,,,0.03,0.09,0.98,-3.0,0.0,-0.1,700,0,,,,,,,,,,,,,,,,,
1265556,1469900548847,,,,,,,0.03,0.1,0.98,-3.0,0.1,-0.1,700,0,,,,,,,,,,,,,,,,,
1265576,1469900548867,,,,,,,0.03,0.1,0.98,-3.0,0.1,-0.2,700,0,,,,,,,,,,,,,,,,,
1265598,1469900548889,0,199.8,174.7,13,172.9,,0.03,0.1,0.98,-3.0,0.1,-0.2,700,0,0.0,0,39.53865,-122.332176,1.04,2.97,183.2,11,2,1.4,1,11.34,12,0.34,13.5886,9.2117,2
1265617,1469900549000,,,,,,,0.03,0.11,0.98,-3.1,0.1,-0.0,740,0,,,,,,,,,,,,,,,,,
1265637,1469900549020,,,,,,,0.03,0.1,0.98,-3.0,0.0,-0.0,700,0,,,,,,,,,,,,,,,,,
1265657,1469900549040,,,,,,,0.02,0.1,0.98,-3.0,0.0,-0.1,700,0,,,,,,,,,,,,,,,,,
1265677,1469900549060,,,,,,,0.03,0.09,0.98,-3.1,0.0,-0.1,700,0,,,,,,,,,,,,,,,,,
1265697,1469900549080,,,,11,,,0.03,0.1,0.98,-3.1,0.1,-0.0,700,0,0.0,0,39.53865,-122.332176,1.04,2.97,183.2,11,2,1.5,1,11.34,12,0.34,,9.215,2
1265717,1469900549100,,,,,,,0.03,0.09,0.97,-3.0,0.0,-0.1,700,0,,,,,,,,,,,,,,,,,
1265737,1469900549120,,,,,,,0.03,0.09,0.98,-3.0,-0.0,-0.2,700,0,,,,,,,,,,,,,,,,,
1265757,1469900549140,,,,,,,0.02,0.1,0.97,-3.0,-0.0,-0.1,700,0,,,,,,,,,,,,,,,,,
1265777,1469900549160,,,,,,,0.03,0.1,0.97,-3.0,-0.1,-0.1,740,0,,,,,,,,,,,,,,,,,
1265799,1469900549182,0,199.0,175.1,10,173.5,13.42,0.02,0.09,0.97,-2.9,-0.2,-0.2,700,0,0.0,0,39.53865,-122.332176,1.04,2.97,183.2,11,2,1.5,1,11.34,12,0.34,13.5934,9.215,2
1265818,1469900549109,,,,,,,0.03,0.1,0.97,-3.0,-0.2,-0.2,700,0,,,,,,,,,,,,,,,,,
1265838,1469900549129,,,,,,,0.03,0.1,0.98,-3.0,-0.1,-0.1,700,0,,,,,,,,,,,,,,,,,
1265858,1469900549149,,,,,,,0.03,0.09,0.98,-3.0,-0.1,-0.2,700,0,,,,,,,,,,,,,,,,,
1265878,1469900549169,,,,,,,0.02,0.09,0.98,-2.9,-0.0,-0.3,700,0,,,,,,,,,,,,,,,,,
1265898,1469900549189,,,,12,,,0.03,0.1,0.98,-3.0,0.1,-0.1,700,0,0.0,0,39.53865,-122.332176,0.97,2.97,183.2,11,2,1.5,1,11.34,12,0.34,,9.2167,2
1265918,1469900549209,,,,,,,0.03,0.1,0.98,-3.0,0.1,-0.1,720,0,,,,,,,,,,,,,,,,,
1265938,1469900549229,,,,,,,0.02,0.09,0.98,-3.0,0.1,-0.2,740,0,,,,,,,,,,,,,,,,,
1265958,1469900549249,,,,,,,0.03,0.08,0.98,-3.0,0.2,-0.2,740,0,,,,,,,,,,,,,,,,,
1265978,1469900549269,,,,,,,0.03,0.09,0.98,-3.0,0.2,-0.1,700,0,,,,,,,,,,,,,,,,,
1266000,1469900549293,0,199.1,175.0,10,173.4,,0.03,0.09,0.98,-3.0,0.1,-0.1,700,0,0.0,0,39.53865,-122.332176,0.0,2.97,183.2,11,2,1.5,1,11.34,12,0.34,13.5953,9.22,2
1266019,1469900549312,,,,,,,0.03,0.08,0.98,-3.0,0.1,-0.2,700,0,,,,,,,,,,,,,,,,,
1266039,1469900549332,,,,,,,0.03,0.08,0.98,-3.0,0.1,-0.1,700,0,,,,,,,,,,,,,,,,,
1266059,1469900549352,,,,,,,0.03,0.09,0.98,-3.0,0.1,-0.1,700,0,,,,,,,,,,,,,,,,,
1266079,1469900549372,,,,,,,0.03,0.09,0.99,-3.0,0.2,-0.2,700,0,,,,,,,,,,,,,,,,,
1266099,1469900549392,,,,12,,,0.03,0.09,0.99,-3.0,0.2,-0.2,700,0,0.0,0,39.53865,-122.332176,0.0,2.97,183.2,11,2,1.5,1,11.34,12,0.34,,9.22,2
1266119,1469900549405,,,,,,,0.02,0.1,0.99,-3.0,0.2,-0.1,740,0,,,,,,,,,,,,,,,,,
1266139,1469900549425,,,,,,,0.03,0.09,0.98,-3.0,0.1,-0.0,700,0,,,,,,,,,,,,,,,,,
1266159,1469900549445,,,,,,,0.02,0.09,0.98,-3.0,0.1,-0.2,700,0,,,,,,,,,,,,,,,,,
1266179,1469900549465,,,,,,,0.03,0.08,0.98,-3.0,0.1,-0.1,700,0,,,,,,,,,,,,,,,,,
1266201,1469900549494,0,199.4,175.2,12,173.4,,0.03,0.09,0.98,-3.0,0.1,-0.0,700,0,0.0,0,39.53865,-122.332176,0.0,2.97,183.2,11,2,1.5,1,11.34,12,0.34,13.5986,9.2233,2
1266220,1469900549513,,,,,,,0.03,0.09,0.98,-3.0,0.1,-0.1,720,0,,,,,,,,,,,,,,,,,
1266240,1469900549533,,,,,,,0.03,0.09,0.98,-3.0,0.0,-0.2,720,0,,,,,,,,,,,,,,,,,
1266260,1469900549553,,,,,,,0.03,0.1,0.98,-3.1,0.0,-0.1,720,0,,,,,,,,,,,,,,,,,
1266280,1469900549573,,,,,,,0.03,0.1,0.99,-3.1,0.1,-0.1,740,0,,,,,,,,,,,,,,,,,
1266300,1469900549593,,,,13,,,0.03,0.1,0.99,-3.0,0.1,-0.2,700,0,0.0,0,39.53865,-122.332176,0.0,2.97,183.2,11,2,1.5,1,11.34,12,0.34,,9.225,2
1266320,1469900549613,,,,,,,0.03,0.09,0.99,-3.0,0.1,-0.2,700,0,,,,,,,,,,,,,,,,,
1266340,1469900549633,,,,,,,0.03,0.1,0.99,-3.1,0.1,-0.2,720,0,,,,,,,,,,,,,,,,,
1266360,1469900549653,,,,,,,0.03,0.1,0.99,-3.0,0.1,-0.1,700,0,,,,,,,,,,,,,,,,,
1266380,1469900549673,,,,,,,0.03,0.09,0.98,-3.0,0.2,-0.2,700,0,,,,,,,,,,,,,,,,,
1266402,1469900549793,0,198.6,175.1,11,173.3,,0.03,0.09,0.99,-3.0,0.2,-0.2,700,0,0.0,0,39.53865,-122.332176,0.0,2.97,183.2,11,2,1.4,1,11.34,12,0.34,13.6036,9.2283,2
1266421,1469900549812,,,,,,,0.03,0.09,0.99,-3.1,0.3,-0.1,700,0,,,,,,,,,,,,,,,,,
1266441,1469900549832,,,,,,,0.03,0.1,0.99,-3.0,0.3,-0.2,740,0,,,,,,,,,,,,,,,,,
1266461,1469900549852,,,,,,,0.02,0.09,0.99,-3.0,0.3,-0.2,740,0,,,,,,,,,,,,,,,,,
1266481,1469900549872,,,,,,,0.02,0.1,0.98,-3.1,0.2,-0.1,700,0,,,,,,,,,,,,,,,,,
1266501,1469900549892,,,,11,,,0.03,0.1,0.99,-3.0,0.2,-0.1,700,0,0.0,0,39.53865,-122.332176,0.0,2.97,183.2,11,2,1.4,1,11.34,12,0.34,,9.2283,2
1266521,1469900549912,,,,,,,0.03,0.09,0.99,-3.0,0.2,-0.2,700,0,,,,,,,,,,,,,,,,,
1266541,1469900549932,,,,,,,0.03,0.09,0.99,-3.0,0.2,-0.2,700,0,,,,,,,,,,,,,,,,,
1266561,1469900549952,,,,,,,0.03,0.1,0.99,-3.0,0.2,-0.1,700,0,,,,,,,,,,,,,,,,,
1266581,1469900549972,,,,,,,0.03,0.1,0.99,-3.0,0.1,-0.1,720,0,,,,,,,,,,,,,,,,,
1266603,1469900549994,0,199.1,174.7,11,173.0,,0.03,0.1,0.99,-3.0,0.1,-0.2,740,0,0.0,0,39.53865,-122.332176,0.0,2.97,183.2,11,2,1.4,1,11.34,12,0.34,13.607,9.2283,2
1266622,1469900549903,,,,,,,0.03,0.1,1.0,-3.0,0.2,-0.1,740,0,,,,,,,,,,,,,,,,,
1266642,1469900549923,,,,,,,0.03,0.1,0.99,-3.0,0.3,-0.0,700,0,,,,,,,,,,,,,,,,,
1266662,1469900549943,,,,,,,0.03,0.1,0.99,-3.0,0.2,-0.1,700,0,,,,,,,,,,,,,,,,,
1266682,1469900549963,,,,,,,0.03,0.09,0.99,-3.0,0.3,-0.2,700,0,,,,,,,,,,,,,,,,,
1266702,1469900549983,,,,11,,,0.03,0.1,0.99,-3.0,0.3,-0.1,700,0,0.0,0,39.53865,-122.332176,0.0,2.97,183.2,11,2,1.4,1,11.34,12,0.34,,9.23,2
1266722,1469900550009,,,,,,,0.03,0.11,0.99,-3.0,0.3,-0.1,720,0,,,,,,,,,,,,,,,,,
1266742,1469900550029,,,,,,,0.03,0.1,0.99,-3.0,0.3,-0.2,700,0,,,,,,,,,,,,,,,,,
1266762,1469900550049,,,,,,,0.03,0.1,0.99,-3.0,0.3,-0.1,700,0,,,,,,,,,,,,,,,,,
