"Interval"|"ms"|0|0|1,"Utc"|"ms"|0|0|1,"FuelLevel"|"F"|0|100|5,"OilTemp"|"F"|0.0|300.0|5,"Coolant"|"F"|0.0|300.0|5,"OilPress"|"PSI"|0|150|10,"EngineTemp"|"F"|0.0|300.0|5,"Battery"|"Volts"|0.0|20.0|1,"AccelX"|"G"|-3.0|3.0|50,"AccelY"|"G"|-3.0|3.0|50,"AccelZ"|"G"|-3.0|3.0|50,"Yaw"|"Deg/Sec"|-300.0|300.0|50,"Pitch"|"Deg/Sec"|-300.0|300.0|50,"Roll"|"Deg/Sec"|-300.0|300.0|50,"RPM"|""|0|10000|50,"Driveshaft"|"RPM"|0|5000|50,"GearRatio"|""|-5.0|5.0|10,"Gear"|""|-1|5|10,"Latitude"|"Degrees"|-180.0|180.0|10,"Longitude"|"Degrees"|-180.0|180.0|10,"Speed"|"MPH"|0.0|150.0|10,"Distance"|"Miles"|0.0|0.0|10,"Altitude"|"Feet"|0.0|4000.0|10,"GPSSats"|""|0|20|10,"GPSQual"|""|0|5|10,"GPSDOP"|""|0.0|20.0|10,"LapCount"|""|0|0|10,"LapTime"|"Min"|0.0|0.0|10,"Sector"|""|0|0|10,"SectorTime"|"Min"|0.0|0.0|10,"PredTime"|"Min"|0.0|0.0|5,"ElapsedTime"|"Min"|0.0|0.0|10,"CurrentLap"|""|0|0|10
425086,1469899708361,,,,,,,0.01,0.07,0.98,-3.0,0.2,0.2,320,0,,,,,,,,,,,,,,,,,
425106,1469899708381,,,,,,,0.01,0.08,0.98,-3.0,0.2,0.1,320,0,,,,,,,,,,,,,,,,,
425126,1469899708401,,,,,,,0.01,0.08,0.98,-3.1,0.2,0.0,240,0,,,,,,,,,,,,,,,,,
425146,1469899708421,,,,0,,,0.01,0.08,0.98,-3.0,0.0,-0.1,240,0,0.0,0,39.538837,-122.332214,0.0,2.973,310.1,9,2,1.6,0,0.0,12,0.3217,,6.545,1
425166,1469899708441,,,,,,,0.01,0.08,0.98,-3.0,-0.0,-0.1,360,0,,,,,,,,,,,,,,,,,
425186,1469899708461,,,,,,,0.01,0.09,0.98,-3.1,0.1,0.0,360,0,,,,,,,,,,,,,,,,,
425206,1469899708481,,,,,,,0.01,0.08,0.97,-3.0,-0.0,0.1,460,0,,,,,,,,,,,,,,,,,
425226,1469899708500,,,,,,,0.02,0.09,0.97,-3.1,0.1,0.1,460,0,,,,,,,,,,,,,,,,,
425246,1469899708520,0,211.2,171.3,1,184.1,,0.02,0.1,0.98,-3.1,0.1,0.1,600,0,0.0,0,39.538837,-122.332214,0.0,2.973,310.1,9,2,1.6,0,0.0,12,0.3217,0.0,6.5467,1
425266,1469899708540,,,,,,,0.01,0.06,0.97,-2.9,0.1,-0.3,740,0,,,,,,,,,,,,,,,,,
425286,1469899708560,,,,,,,-0.0,0.05,0.97,-3.0,0.2,-0.1,740,0,,,,,,,,,,,,,,,,,
425306,1469899708580,,,,,,,-0.0,0.08,0.99,-3.1,0.6,0.3,860,0,,,,,,,,,,,,,,,,,
425326,1469899708602,,,,,,,-0.01,0.11,0.98,-3.2,0.7,0.4,960,0,,,,,,,,,,,,,,,,,
425346,1469899708622,,,,9,,,0.01,0.11,0.97,-3.1,0.9,0.1,1000,0,0.0,0,39.538837,-122.332214,0.0,2.973,310.1,9,2,1.6,0,0.0,12,0.3217,,6.5483,1
425366,1469899708642,,,,,,,0.01,0.12,0.98,-3.1,1.4,0.1,1020,0,,,,,,,,,,,,,,,,,
425386,1469899708662,,,,,,,0.02,0.1,0.98,-3.1,1.7,0.2,1080,0,,,,,,,,,,,,,,,,,
425406,1469899708682,,,,,,,0.01,0.09,0.97,-3.2,1.8,0.2,1140,0,,,,,,,,,,,,,,,,,
425426,1469899708701,,,,,,,-0.01,0.1,0.99,-3.3,1.7,0.3,1160,0,,,,,,,,,,,,,,,,,
425446,1469899708721,0,211.3,171.2,17,183.7,,-0.02,0.1,0.97,-3.3,1.2,0.3,1200,0,0.0,0,39.538837,-122.332214,0.0,2.973,310.1,9,2,1.6,0,0.0,12,0.3217,0.0,6.55,1
425466,1469899708741,,,,,,,-0.01,0.11,0.98,-3.2,0.9,0.2,1220,0,,,,,,,,,,,,,,,,,
425486,1469899708761,,,,,,,-0.01,0.11,0.97,-3.2,1.0,0.2,1220,0,,,,,,,,,,,,,,,,,
425506,1469899708781,,,,,,,-0.0,0.13,0.96,-3.2,0.7,0.1,1280,0,,,,,,,,,,,,,,,,,
425526,1469899708801,,,,,,,-0.0,0.12,0.96,-3.2,0.5,0.1,1300,0,,,,,,,,,,,,,,,,,
425546,1469899708821,,,,23,,,0.01,0.13,0.96,-3.2,0.3,0.1,1320,0,0.0,0,39.538837,-122.332214,0.0,2.973,310.1,9,2,1.6,0,0.0,12,0.3217,,6.5517,1
425566,1469899708841,,,,,,,0.01,0.12,0.96,-3.2,0.3,0.0,1360,0,,,,,,,,,,,,,,,,,
425586,1469899708861,,,,,,,0.0,0.11,0.96,-3.1,0.1,-0.1,1360,0,,,,,,,,,,,,,,,,,
425606,1469899708881,,,,,,,0.01,0.1,0.96,-3.1,-0.0,-0.1,1420,0,,,,,,,,,,,,,,,,,
425626,1469899708994,,,,,,,0.01,0.09,0.96,-3.0,0.0,-0.1,1420,0,,,,,,,,,,,,,,,,,
425646,1469899709014,0,210.9,170.9,30,183.5,,0.01,0.1,0.97,-2.9,-0.2,-0.2,1460,0,0.0,0,39.538837,-122.332214,0.0,2.973,310.1,9,2,1.6,0,0.0,12,0.3217,0.0,6.555,1
425666,1469899709034,,,,,,,0.01,0.1,0.97,-2.9,0.2,-0.3,1420,0,,,,,,,,,,,,,,,,,
425686,1469899709054,,,,,,,0.01,0.1,0.98,-3.0,-0.0,-0.3,1460,0,,,,,,,,,,,,,,,,,
425706,1469899709074,,,,,,,0.02,0.1,0.99,-3.0,0.1,-0.3,1460,0,,,,,,,,,,,,,,,,,
425726,1469899709094,,,,,,,0.01,0.1,0.98,-3.1,-0.0,-0.3,1440,0,,,,,,,,,,,,,,,,,
425746,1469899709114,,,,34,,,0.02,0.1,0.98,-3.1,-0.1,-0.2,1440,0,0.0,0,39.538837,-122.332214,0.0,2.973,310.1,9,2,1.6,0,0.0,12,0.3217,,6.555,1
425766,1469899709134,,,,,,,0.01,0.09,0.98,-3.1,-0.1,-0.2,1460,0,,,,,,,,,,,,,,,,,
425786,1469899709154,,,,,,,0.02,0.1,0.97,-3.1,-0.3,-0.2,1420,0,,,,,,,,,,,,,,,,,
425806,1469899709174,,,,,,,0.02,0.09,0.97,-3.0,-0.2,-0.1,1420,0,,,,,,,,,,,,,,,,,
425826,1469899709101,,,,,,,0.02,0.1,0.98,-3.1,-0.3,-0.1,1380,0,,,,,,,,,,,,,,,,,
425846,1469899709121,0,210.9,170.8,35,183.2,,0.02,0.1,0.98,-3.1,-0.1,-0.1,1420,0,0.0,0,39.538837,-122.332214,0.0,2.973,310.1,9,2,1.6,0,0.0,12,0.3217,0.0,6.5567,1
425866,1469899709141,,,,,,,0.01,0.11,0.99,-3.1,-0.2,-0.1,1360,0,,,,,,,,,,,,,,,,,
425886,1469899709161,,,,,,,0.02,0.1,0.99,-3.1,-0.2,-0.1,1340,0,,,,,,,,,,,,,,,,,
425906,1469899709181,,,,,,,0.01,0.1,1.0,-3.1,-0.0,-0.1,1340,0,,,,,,,,,,,,,,,,,
425926,1469899709201,,,,,,,0.01,0.1,0.99,-3.0,-0.2,-0.1,1320,0,,,,,,,,,,,,,,,,,
425946,1469899709221,,,,30,,,0.01,0.1,0.99,-3.0,0.0,-0.1,1320,0,0.0,0,39.538837,-122.332214,0.0,2.973,310.1,9,2,1.6,0,0.0,12,0.3217,,6.5583,1
425966,1469899709241,,,,,,,0.01,0.1,0.99,-3.0,-0.0,-0.1,1280,0,,,,,,,,,,,,,,,,,
425986,1469899709261,,,,,,,0.01,0.09,0.99,-3.0,0.2,-0.2,1260,0,,,,,,,,,,,,,,,,,
426006,1469899709281,,,,,,,0.01,0.09,0.98,-3.0,0.0,-0.1,1260,0,,,,,,,,,,,,,,,,,
426026,1469899709301,,,,,,,0.01,0.09,0.98,-3.0,0.1,-0.1,1220,0,,,,,,,,,,,,,,,,,
426046,1469899709321,0,210.6,171.1,25,183.5,13.43,0.01,0.09,0.97,-3.0,0.1,-0.1,1240,0,0.0,0,39.538837,-122.332214,0.0,2.973,310.1,9,2,1.6,0,0.0,12,0.3217,0.0,6.56,1
426066,1469899709341,,,,,,,0.01,0.08,0.98,-3.0,0.0,-0.2,1180,0,,,,,,,,,,,,,,,,,
426086,1469899709361,,,,,,,0.01,0.09,0.98,-3.0,0.0,-0.1,1180,0,,,,,,,,,,,,,,,,,
426106,1469899709381,,,,,,,0.02,0.09,0.98,-3.0,0.1,-0.2,1140,0,,,,,,,,,,,,,,,,,
426126,1469899709401,,,,,,,0.01,0.09,0.98,-3.0,0.1,-0.2,1140,0,,,,,,,,,,,,,,,,,
426146,1469899709421,,,,25,,,0.01,0.08,0.98,-3.0,0.1,-0.2,1140,0,0.0,0,39.538837,-122.332214,0.0,2.973,310.1,9,2,1.6,0,0.0,12,0.3217,,6.5617,1
426166,1469899709441,,,,,,,0.01,0.09,0.98,-3.0,0.1,-0.2,1100,0,,,,,,,,,,,,,,,,,
426186,1469899709461,,,,,,,0.01,0.08,0.98,-3.0,0.1,-0.2,1080,0,,,,,,,,,,,,,,,,,
426206,1469899709481,,,,,,,0.01,0.08,0.98,-3.0,0.0,-0.2,1060,0,,,,,,,,,,,,,,,,,
426226,1469899709501,,,,,,,0.01,0.09,0.98,-3.0,-0.1,-0.2,1060,0,,,,,,,,,,,,,,,,,
426246,1469899709521,0,211.3,171.6,20,184.4,,0.01,0.09,0.98,-3.0,-0.0,-0.2,1020,0,0.0,0,39.538837,-122.332214,0.0,2.973,310.1,9,2,1.6,0,0.0,12,0.3217,0.0,6.5633,1
426266,1469899709541,,,,,,,0.01,0.09,0.98,-3.0,0.0,-0.2,1040,0,,,,,,,,,,,,,,,,,
426286,1469899709561,,,,,,,0.02,0.09,0.98,-3.0,0.1,-0.2,980,0,,,,,,,,,,,,,,,,,
426306,1469899709581,,,,,,,0.02,0.09,0.98,-3.0,0.2,-0.2,960,0,,,,,,,,,,,,,,,,,
426326,1469899709600,,,,,,,0.02,0.09,0.98,-3.0,0.2,-0.2,940,0,,,,,,,,,,,,,,,,,
426346,1469899709620,,,,18,,,0.02,0.08,0.99,-3.0,0.3,-0.2,940,0,0.0,0,39.538837,-122.332214,0.0,2.973,310.1,9,2,1.6,0,0.0,12,0.3217,,6.565,1
426366,1469899709640,,,,,,,0.02,0.08,0.98,-3.0,0.3,-0.2,920,0,,,,,,,,,,,,,,,,,
426386,1469899709660,,,,,,,0.02,0.08,0.98,-3.0,0.3,-0.3,900,0,,,,,,,,,,,,,,,,,
426406,1469899709680,,,,,,,0.02,0.08,0.98,-3.0,0.3,-0.3,900,0,,,,,,,,,,,,,,,,,
426426,1469899709800,,,,,,,0.02,0.07,0.98,-2.9,0.2,-0.3,840,0,,,,,,,,,,,,,,,,,
426446,1469899709820,0,210.9,171.3,15,184.0,,0.01,0.08,0.98,-2.9,0.2,-0.3,860,0,0.0,0,39.538837,-122.332214,0.0,2.973,310.1,9,2,1.6,0,0.0,12,0.3217,0.0,6.5683,1
426466,1469899709840,,,,,,,0.02,0.08,0.98,-2.9,0.2,-0.2,860,0,,,,,,,,,,,,,,,,,
426486,1469899709860,,,,,,,0.02,0.08,0.98,-2.9,0.2,-0.2,820,0,,,,,,,,,,,,,,,,,
426506,1469899709880,,,,,,,0.02,0.09,0.98,-3.0,0.2,-0.2,820,0,,,,,,,,,,,,,,,,,
426526,1469899709900,,,,,,,0.02,0.09,0.98,-3.0,0.2,-0.2,780,0,,,,,,,,,,,,,,,,,
426546,1469899709920,,,,12,,,0.01,0.08,0.99,-2.9,0.2,-0.3,780,0,0.0,0,39.538837,-122.332214,0.0,2.973,310.1,9,2,1.6,0,0.0,12,0.3217,,6.5683,1
426566,1469899709940,,,,,,,0.02,0.08,0.99,-2.9,0.2,-0.2,780,0,,,,,,,,,,,,,,,,,
426586,1469899709960,,,,,,,0.01,0.09,0.98,-3.0,0.2,-0.1,760,0,,,,,,,,,,,,,,,,,
426606,1469899709980,,,,,,,0.01,0.09,0.98,-3.0,0.1,-0.1,740,0,,,,,,,,,,,,,,,,,
426626,1469899709895,,,,,,,0.01,0.08,0.99,-3.0,0.1,-0.2,740,0,,,,,,,,,,,,,,,,,
426646,1469899709915,0,210.2,170.8,12,183.0,,0.01,0.08,0.99,-3.0,0.1,-0.2,740,0,0.0,0,39.538837,-122.332214,0.0,2.973,310.1,9,2,1.6,0,0.0,12,0.3217,0.0,6.57,1
426666,1469899709935,,,,,,,0.01,0.08,0.99,-3.0,0.1,-0.1,740,0,,,,,,,,,,,,,,,,,
426686,1469899709955,,,,,,,0.01,0.07,0.99,-2.9,0.1,-0.1,720,0,,,,,,,,,,,,,,,,,
426706,1469899709975,,,,,,,0.01,0.07,0.99,-2.9,0.0,-0.2,700,0,,,,,,,,,,,,,,,,,
426726,1469899710001,,,,,,,0.01,0.07,0.99,-3.0,0.1,-0.1,700,0,,,,,,,,,,,,,,,,,
426746,1469899710021,,,,11,,,0.01,0.07,0.99,-3.0,0.0,-0.1,660,0,0.0,0,39.538837,-122.332214,0.0,2.973,310.1,9,2,1.6,0,0.0,12,0.3217,,6.5717,1
426766,1469899710041,,,,,,,0.01,0.07,0.99,-3.0,-0.0,-0.1,680,0,,,,,,,,,,,,,,,,,
426786,1469899710061,,,,,,,0.01,0.07,0.99,-3.0,-0.0,-0.2,680,0,,,,,,,,,,,,,,,,,
426806,1469899710081,,,,,,,0.01,0.08,0.99,-3.0,0.0,-0.1,680,0,,,,,,,,,,,,,,,,,
426826,1469899710101,,,,,,,0.01,0.08,0.99,-3.0,0.0,-0.1,660,0,,,,,,,,,,,,,,,,,
426846,1469899710121,0,211.0,171.5,10,183.6,,0.01,0.08,0.99,-3.0,0.0,-0.1,660,0,0.0,0,39.538837,-122.332214,0.0,2.973,310.1,9,2,1.6,0,0.0,12,0.3217,0.0,6.5733,1
426866,1469899710141,,,,,,,0.01,0.08,0.99,-3.0,0.1,-0.0,640,0,,,,,,,,,,,,,,,,,
426886,1469899710161,,,,,,,0.01,0.08,0.98,-3.0,0.1,-0.1,640,0,,,,,,,,,,,,,,,,,
426906,1469899710181,,,,,,,0.01,0.08,0.98,-3.0,0.1,-0.1,640,0,,,,,,,,,,,,,,,,,
426926,1469899710201,,,,,,,0.01,0.09,0.98,-3.1,0.0,-0.0,620,0,,,,,,,,,,,,,,,,,
426946,1469899710221,,,,9,,,0.01,0.08,0.98,-3.0,0.0,-0.1,620,0,0.0,0,39.538837,-122.332214,0.0,2.973,310.1,9,2,1.6,0,0.0,12,0.3217,,6.575,1
426966,1469899710241,,,,,,,0.01,0.08,0.98,-3.0,0.1,-0.1,640,0,,,,,,,,,,,,,,,,,
426986,1469899710261,,,,,,,0.01,0.09,0.98,-3.0,0.1,-0.1,640,0,,,,,,,,,,,,,,,,,
427006,1469899710281,,,,,,,0.01,0.08,0.98,-3.0,0.1,-0.2,640,0,,,,,,,,,,,,,,,,,
427026,1469899710301,,,,,,,0.01,0.08,0.98,-3.0,0.2,-0.1,640,0,,,,,,,,,,,,,,,,,
427046,1469899710321,0,211.5,171.8,10,183.8,13.03,0.01,0.09,0.98,-2.9,0.1,-0.1,640,0,0.0,0,39.538837,-122.332214,0.0,2.973,310.1,9,2,1.6,0,0.0,12,0.3217,0.0,6.5767,1
427066,1469899710341,,,,,,,0.01,0.08,0.98,-2.9,0.1,-0.2,640,0,,,,,,,,,,,,,,,,,
427086,1469899710361,,,,,,,0.01,0.08,0.98,-3.0,0.1,-0.2,640,0,,,,,,,,,,,,,,,,,
427106,1469899710381,,,,,,,0.01,0.08,0.98,-3.0,0.0,-0.2,620,0,,,,,,,,,,,,,,,,,
427126,1469899710401,,,,,,,0.01,0.08,0.98,-3.0,0.1,-0.2,620,0,,,,,,,,,,,,,,,,,
427146,1469899710421,,,,8,,,0.01,0.08,0.98,-3.0,0.2,-0.1,640,0,0.0,0,39.538837,-122.332214,0.0,2.973,310.1,9,2,1.6,0,0.0,12,0.3217,,6.5783,1
427166,1469899710441,,,,,,,0.01,0.07,0.98,-3.0,0.0,-0.2,640,0,,,,,,,,,,,,,,,,,
427186,1469899710461,,,,,,,0.01,0.08,0.98,-2.9,0.1,-0.2,640,0,,,,,,,,,,,,,,,,,
427206,1469899710481,,,,,,,0.01,0.08,0.98,-3.0,0.1,-0.1,660,0,,,,,,,,,,,,,,,,,
427226,1469899710600,,,,,,,0.01,0.08,0.98,-3.0,-0.2,-0.1,660,0,,,,,,,,,,,,,,,,,
427246,1469899710620,0,210.3,171.2,11,183.0,,0.01,0.08,0.98,-3.0,-0.2,-0.2,660,0,0.0,0,39.538837,-122.332214,0.0,2.973,310.1,9,2,1.6,0,0.0,12,0.3217,0.0,6.5817,1
427266,1469899710640,,,,,,,0.01,0.08,0.98,-2.9,-0.1,-0.1,660,0,,,,,,,,,,,,,,,,,
427286,1469899710660,,,,,,,0.01,0.07,0.98,-2.9,0.0,-0.2,640,0,,,,,,,,,,,,,,,,,
427306,1469899710680,,,,,,,0.01,0.07,0.98,-2.9,0.1,-0.2,640,0,,,,,,,,,,,,,,,,,
427326,1469899710700,,,,,,,0.01,0.07,0.99,-2.9,0.3,-0.1,660,0,,,,,,,,,,,,,,,,,
427346,1469899710720,,,,10,,,0.01,0.07,0.99,-2.8,0.2,-0.2,680,0,0.0,0,39.538837,-122.332214,0.0,2.973,310.1,9,2,1.6,0,0.0,12,0.3217,,6.5817,1
427366,1469899710740,,,,,,,0.01,0.07,0.99,-2.9,0.2,-0.2,680,0,,,,,,,,,,,,,,,,,
427386,1469899710760,,,,,,,0.01,0.07,0.99,-2.9,0.2,-0.1,680,0,,,,,,,,,,,,,,,,,
427406,1469899710780,,,,,,,0.01,0.06,0.99,-2.9,0.2,-0.1,680,0,,,,,,,,,,,,,,,,,
427426,1469899710701,,,,,,,0.01,0.07,0.99,-2.9,0.1,-0.2,680,0,,,,,,,,,,,,,,,,,
427446,1469899710721,0,211.3,172.2,10,184.1,,0.02,0.08,0.99,-2.9,0.1,-0.1,680,0,0.0,0,39.538837,-122.332214,0.0,2.973,310.1,9,2,1.6,0,0.0,12,0.3217,0.0,6.5833,1
427466,1469899710741,,,,,,,0.02,0.08,0.99,-2.9,0.1,-0.2,680,0,,,,,,,,,,,,,,,,,
427486,1469899710761,,,,,,,0.02,0.06,0.99,-2.9,0.1,-0.3,700,0,,,,,,,,,,,,,,,,,
427506,1469899710781,,,,,,,0.02,0.07,0.99,-2.9,0.2,-0.2,700,0,,,,,,,,,,,,,,,,,
427526,1469899710801,,,,,,,0.02,0.07,0.99,-2.9,0.2,-0.1,700,0,,,,,,,,,,,,,,,,,
427546,1469899710821,,,,9,,,0.01,0.06,0.99,-2.9,0.2,-0.2,720,0,0.0,0,39.538837,-122.332214,0.0,2.973,310.1,9,2,1.6,0,0.0,12,0.3217,,6.585,1
427566,1469899710841,,,,,,,0.01,0.06,0.99,-2.9,0.2,-0.2,720,0,,,,,,,,,,,,,,,,,
427586,1469899710861,,,,,,,0.01,0.07,0.98,-3.0,0.1,-0.2,700,0,,,,,,,,,,,,,,,,,
427606,1469899710881,,,,,,,0.01,0.07,0.98,-3.0,0.1,-0.2,720,0,,,,,,,,,,,,,,,,,
427626,1469899710894,,,,,,,0.01,0.07,0.98,-2.9,-0.1,-0.3,700,0,,,,,,,,,,,,,,,,,
427646,1469899710914,0,208.8,170.9,10,182.6,,0.01,0.08,0.98,-2.9,-0.0,-0.2,700,0,0.0,0,39.538837,-122.332214,0.0,2.973,310.1,9,2,1.6,0,0.0,12,0.3217,0.0,6.5867,1
427666,1469899710934,,,,,,,0.01,0.08,0.98,-2.9,0.0,-0.1,720,0,,,,,,,,,,,,,,,,,
427686,1469899710954,,,,,,,0.01,0.08,0.99,-2.9,0.0,-0.2,720,0,,,,,,,,,,,,,,,,,
427706,1469899710974,,,,,,,0.01,0.08,0.99,-2.9,-0.1,-0.3,720,0,,,,,,,,,,,,,,,,,
427726,1469899711001,,,,,,,0.01,0.09,0.99,-3.0,-0.1,-0.2,720,0,,,,,,,,,,,,,,,,,
427746,1469899711021,,,,11,,,0.01,0.09,0.99,-3.0,0.0,-0.1,720,0,0.0,0,39.538837,-122.332214,0.0,2.973,310.1,9,2,1.6,0,0.0,12,0.3217,,6.5883,1
427766,1469899711041,,,,,,,0.01,0.08,0.99,-3.0,0.1,-0.2,720,0,,,,,,,,,,,,,,,,,
427786,1469899711061,,,,,,,0.01,0.07,0.99,-3.0,0.2,-0.2,720,0,,,,,,,,,,,,,,,,,
427806,1469899711081,,,,,,,0.01,0.08,0.99,-3.0,0.2,-0.1,720,0,,,,,,,,,,,,,,,,,
427826,1469899711100,,,,,,,0.02,0.09,0.99,-3.0,0.2,-0.1,720,0,,,,,,,,,,,,,,,,,
427846,1469899711120,0,211.4,172.6,10,184.1,,0.01,0.08,0.99,-3.0,0.1,-0.2,720,0,0.0,0,39.538837,-122.332214,0.0,2.973,310.1,9,2,1.6,0,0.0,12,0.3217,0.0,6.59,1
427866,1469899711140,,,,,,,0.01,0.08,0.98,-3.0,0.2,-0.2,720,0,,,,,,,,,,,,,,,,,
427886,1469899711160,,,,,,,0.01,0.08,0.98,-3.0,0.2,-0.1,740,0,,,,,,,,,,,,,,,,,
427906,1469899711180,,,,,,,0.01,0.09,0.98,-3.0,0.1,-0.1,720,0,,,,,,,,,,,,,,,,,
427926,1469899711201,,,,,,,0.01,0.08,0.98,-2.9,0.2,-0.2,720,0,,,,,,,,,,,,,,,,,
427946,1469899711221,,,,11,,,0.02,0.08,0.98,-3.0,0.3,-0.2,720,0,0.0,0,39.538837,-122.332214,0.0,2.973,310.1,9,2,1.6,0,0.0,12,0.3217,,6.5917,1
427966,1469899711241,,,,,,,0.02,0.09,0.98,-3.0,0.3,-0.1,700,0,,,,,,,,,,,,,,,,,
427986,1469899711261,,,,,,,0.02,0.08,0.98,-2.9,0.2,-0.1,720,0,,,,,,,,,,,,,,,,,
428006,1469899711281,,,,,,,0.01,0.08,0.98,-2.9,0.1,-0.2,720,0,,,,,,,,,,,,,,,,,
428026,1469899711399,,,,,,,0.02,0.09,0.98,-2.9,0.0,-0.1,720,0,,,,,,,,,,,,,,,,,
428046,1469899711419,0,210.9,172.2,10,183.4,13.23,0.02,0.09,0.99,-2.9,0.1,-0.1,720,0,0.0,0,39.538837,-122.332214,0.0,2.973,310.1,9,2,1.6,0,0.0,12,0.3217,0.0,6.595,1
428066,1469899711439,,,,,,,0.02,0.09,0.99,-2.9,0.1,-0.2,720,0,,,,,,,,,,,,,,,,,
428086,1469899711459,,,,,,,0.02,0.09,0.99,-2.9,0.1,-0.2,720,0,,,,,,,,,,,,,,,,,
428106,1469899711479,,,,,,,0.02,0.09,0.99,-3.0,0.0,-0.1,720,0,,,,,,,,,,,,,,,,,
428126,1469899711499,,,,,,,0.02,0.09,0.99,-3.0,0.0,-0.1,700,0,,,,,,,,,,,,,,,,,
428146,1469899711519,,,,10,,,0.01,0.09,0.98,-3.0,0.1,-0.3,720,0,0.0,0,39.538837,-122.332214,0.0,2.973,310.1,9,2,1.6,0,0.0,12,0.3217,,6.595,1
428166,1469899711539,,,,,,,0.01,0.08,0.98,-3.0,0.2,-0.3,720,0,,,,,,,,,,,,,,,,,
428186,1469899711559,,,,,,,0.01,0.08,0.98,-3.0,0.2,-0.2,720,0,,,,,,,,,,,,,,,,,
428206,1469899711579,,,,,,,0.01,0.09,0.98,-3.0,0.0,-0.2,720,0,,,,,,,,,,,,,,,,,
428226,1469899711500,,,,,,,0.01,0.08,0.98,-3.0,-0.1,-0.2,720,0,,,,,,,,,,,,,,,,,
428246,1469899711520,0,211.4,172.6,12,183.5,,0.01,0.08,0.98,-3.0,0.0,-0.2,720,0,0.0,0,39.538837,-122.332214,0.0,2.973,310.1,9,2,1.6,0,0.0,12,0.3217,0.0,6.5967,1
428266,1469899711540,,,,,,,0.01,0.09,0.98,-3.0,0.1,-0.2,720,0,,,,,,,,,,,,,,,,,
428286,1469899711560,,,,,,,0.01,0.08,0.99,-3.0,0.1,-0.2,700,0,,,,,,,,,,,,,,,,,
428306,1469899711580,,,,,,,0.01,0.08,0.98,-2.9,0.0,-0.3,700,0,,,,,,,,,,,,,,,,,
428326,1469899711600,,,,,,,0.01,0.08,0.98,-3.0,0.0,-0.2,720,0,,,,,,,,,,,,,,,,,
428346,1469899711620,,,,10,,,0.02,0.09,0.98,-3.0,0.0,-0.2,720,0,0.0,0,39.538837,-122.332214,0.0,2.973,310.1,9,2,1.6,0,0.0,12,0.3217,,6.5983,1
428366,1469899711640,,,,,,,0.01,0.08,0.99,-3.0,-0.0,-0.3,720,0,,,,,,,,,,,,,,,,,
428386,1469899711660,,,,,,,0.01,0.08,0.98,-3.0,0.1,-0.3,720,0,,,,,,,,,,,,,,,,,
428406,1469899711680,,,,,,,0.01,0.08,0.98,-3.0,0.1,-0.2,720,0,,,,,,,,,,,,,,,,,
428426,1469899711701,,,,,,,0.02,0.08,0.98,-3.0,-0.1,-0.2,720,0,,,,,,,,,,,,,,,,,
428446,1469899711721,0,210.8,172.1,11,182.6,,0.01,0.08,0.98,-2.9,-0.2,-0.3,700,0,0.0,0,39.538837,-122.332214,0.0,2.973,310.1,9,2,1.6,0,0.0,12,0.3217,0.0,6.6,1
428466,1469899711741,,,,,,,0.02,0.08,0.98,-3.0,-0.0,-0.2,700,0,,,,,,,,,,,,,,,,,
428486,1469899711761,,,,,,,0.02,0.08,0.98,-3.0,0.1,-0.1,720,0,,,,,,,,,,,,,,,,,
428506,1469899711781,,,,,,,0.02,0.08,0.99,-3.0,0.1,-0.2,720,0,,,,,,,,,,,,,,,,,
428526,1469899711801,,,,,,,0.01,0.08,0.98,-3.0,0.1,-0.2,720,0,,,,,,,,,,,,,,,,,
428546,1469899711821,,,,11,,,0.02,0.09,0.98,-3.0,0.0,-0.1,720,0,0.0,0,39.538837,-122.332214,0.0,2.973,310.1,9,2,1.6,0,0.0,12,0.3217,,6.6017,1
428566,1469899711841,,,,,,,0.02,0.09,0.99,-3.0,0.1,-0.1,720,0,,,,,,,,,,,,,,,,,
428586,1469899711861,,,,,,,0.01,0.08,0.99,-3.0,0.1,-0.2,720,0,,,,,,,,,,,,,,,,,
428606,1469899711881,,,,,,,0.01,0.08,0.99,-3.0,0.2,-0.2,720,0,,,,,,,,,,,,,,,,,
428626,1469899711893,,,,,,,0.01,0.08,0.99,-3.1,0.2,-0.0,700,0,,,,,,,,,,,,,,,,,
428646,1469899711913,0,210.2,171.9,11,182.3,,0.02,0.08,0.99,-3.1,0.1,-0.0,720,0,0.0,0,39.538837,-122.332214,0.0,2.973,310.1,9,2,1.6,0,0.0,12,0.3217,0.0,6.6033,1
428666,1469899711933,,,,,,,0.01,0.08,0.99,-3.0,0.1,-0.2,720,0,,,,,,,,,,,,,,,,,
428686,1469899711953,,,,,,,0.01,0.08,0.98,-3.0,0.2,-0.2,720,0,,,,,,,,,,,,,,,,,
428706,1469899711973,,,,,,,0.01,0.08,0.98,-3.0,0.2,-0.1,720,0,,,,,,,,,,,,,,,,,
428726,1469899712000,,,,,,,0.01,0.08,0.99,-3.0,0.1,-0.1,720,0,,,,,,,,,,,,,,,,,
428746,1469899712020,,,,10,,,0.01,0.08,0.99,-3.0,0.1,-0.2,720,0,0.0,0,39.538837,-122.332214,0.0,2.973,310.1,9,2,1.6,0,0.0,12,0.3217,,6.605,1
428766,1469899712040,,,,,,,0.02,0.08,0.99,-3.0,0.1,-0.1,720,0,,,,,,,,,,,,,,,,,
428786,1469899712060,,,,,,,0.02,0.09,0.99,-3.0,0.1,-0.1,700,0,,,,,,,,,,,,,,,,,
428806,1469899712080,,,,,,,0.02,0.08,0.99,-3.0,0.1,-0.2,720,0,,,,,,,,,,,,,,,,,
428826,1469899712200,,,,,,,0.01,0.08,0.99,-3.0,0.1,-0.2,720,0,,,,,,,,,,,,,,,,,
428846,1469899712220,0,211.4,173.1,11,183.5,,0.01,0.09,0.98,-3.1,0.1,-0.1,720,0,0.0,0,39.538837,-122.332214,0.0,2.973,310.1,9,2,1.6,0,0.0,12,0.3217,0.0,6.6083,1
428866,1469899712240,,,,,,,0.01,0.09,0.98,-3.1,-0.0,-0.1,720,0,,,,,,,,,,,,,,,,,
428886,1469899712260,,,,,,,0.01,0.08,0.98,-3.0,-0.1,-0.2,720,0,,,,,,,,,,,,,,,,,
428906,1469899712280,,,,,,,0.01,0.08,0.98,-3.0,-0.1,-0.2,720,0,,,,,,,,,,,,,,,,,
428926,1469899712300,,,,,,,0.01,0.08,0.98,-3.0,-0.0,-0.1,720,0,,,,,,,,,,,,,,,,,
428946,1469899712320,,,,12,,,0.01,0.08,0.98,-3.0,-0.1,-0.2,700,0,0.0,0,39.538837,-122.332214,0.0,2.973,310.1,9,2,1.6,0,0.0,12,0.3217,,6.6083,1
428966,1469899712340,,,,,,,0.01,0.07,0.98,-2.9,-0.1,-0.3,700,0,,,,,,,,,,,,,,,,,
428986,1469899712360,,,,,,,0.02,0.08,0.98,-2.9,-0.1,-0.2,720,0,,,,,,,,,,,,,,,,,
429006,1469899712380,,,,,,,0.02,0.08,0.98,-2.9,-0.1,-0.2,720,0,,,,,,,,,,,,,,,,,
429026,1469899712300,,,,,,,0.02,0.08,0.99,-2.9,-0.0,-0.2,720,0,,,,,,,,,,,,,,,,,
429046,1469899712320,0,211.5,173.2,11,183.5,13.26,0.02,0.07,0.99,-2.9,0.0,-0.2,720,0,0.0,0,39.538837,-122.332214,0.0,2.973,310.1,9,2,1.6,0,0.0,12,0.3217,0.0,6.61,1
429066,1469899712340,,,,,,,0.02,0.07,0.98,-3.0,0.1,-0.1,700,0,,,,,,,,,,,,,,,,,
429086,1469899712360,,,,,,,0.02,0.08,0.98,-3.0,-0.0,-0.1,700,0,,,,,,,,,,,,,,,,,
429106,1469899712380,,,,,,,0.01,0.07,0.98,-2.9,-0.2,-0.2,700,0,,,,,,,,,,,,,,,,,
429126,1469899712400,,,,,,,0.02,0.07,0.98,-2.9,-0.2,-0.2,700,0,,,,,,,,,,,,,,,,,
429146,1469899712420,,,,10,,,0.02,0.08,0.98,-2.9,-0.1,-0.2,700,0,0.0,0,39.538837,-122.332214,0.0,2.973,310.1,9,2,1.6,0,0.0,12,0.3217,,6.6117,1
429166,1469899712440,,,,,,,0.02,0.07,0.98,-2.9,-0.1,-0.2,700,0,,,,,,,,,,,,,,,,,
429186,1469899712460,,,,,,,0.02,0.07,0.98,-3.0,-0.0,-0.2,700,0,,,,,,,,,,,,,,,,,
429206,1469899712480,,,,,,,0.01,0.08,0.98,-3.0,-0.1,-0.1,720,0,,,,,,,,,,,,,,,,,
429226,1469899712501,,,,,,,0.01,0.08,0.98,-3.0,-0.1,-0.2,700,0,,,,,,,,,,,,,,,,,
429246,1469899712521,0,211.0,173.0,11,183.2,,0.02,0.08,0.98,-3.0,-0.1,-0.2,700,0,0.0,0,39.538837,-122.332214,0.0,2.973,310.1,9,2,1.6,0,0.0,12,0.3217,0.0,6.6133,1
429266,1469899712541,,,,,,,0.02,0.08,0.98,-3.0,0.0,-0.1,700,0,,,,,,,,,,,,,,,,,
429286,1469899712561,,,,,,,0.02,0.08,0.98,-3.0,0.0,-0.1,680,0,,,,,,,,,,,,,,,,,
429306,1469899712581,,,,,,,0.02,0.08,0.98,-2.9,0.0,-0.2,700,0,,,,,,,,,,,,,,,,,
429326,1469899712601,,,,,,,0.02,0.07,0.98,-3.0,0.1,-0.2,700,0,,,,,,,,,,,,,,,,,
429346,1469899712621,,,,11,,,0.01,0.08,0.98,-3.0,0.1,-0.1,700,0,0.0,0,39.538837,-122.332214,0.0,2.973,310.1,9,2,1.6,0,0.0,12,0.3217,,6.615,1
429366,1469899712641,,,,,,,0.01,0.08,0.98,-3.0,0.0,-0.1,700,0,,,,,,,,,,,,,,,,,
429386,1469899712661,,,,,,,0.01,0.07,0.99,-2.9,-0.0,-0.2,700,0,,,,,,,,,,,,,,,,,
429406,1469899712681,,,,,,,0.01,0.08,0.98,-3.0,-0.0,-0.1,700,0,,,,,,,,,,,,,,,,,
429426,1469899712701,,,,,,,0.01,0.09,0.98,-3.0,0.0,-0.1,700,0,,,,,,,,,,,,,,,,,
429446,1469899712721,0,210.7,172.5,9,182.1,,0.01,0.08,0.98,-2.9,0.0,-0.2,680,0,0.0,0,39.538837,-122.332214,0.0,2.973,310.1,9,2,1.6,0,0.0,12,0.3217,0.0,6.6167,1
429466,1469899712741,,,,,,,0.01,0.09,0.98,-2.9,-0.0,-0.2,680,0,,,,,,,,,,,,,,,,,
429486,1469899712761,,,,,,,0.01,0.09,0.98,-3.0,-0.1,-0.1,700,0,,,,,,,,,,,,,,,,,
429506,1469899712781,,,,,,,0.01,0.09,0.98,-3.0,-0.1,-0.1,700,0,,,,,,,,,,,,,,,,,
429526,1469899712801,,,,,,,0.01,0.09,0.98,-2.9,-0.2,-0.2,700,0,,,,,,,,,,,,,,,,,
429546,1469899712821,,,,10,,,0.01,0.09,0.98,-3.0,-0.1,-0.2,720,0,0.0,0,39.538837,-122.332214,0.0,2.973,310.1,9,2,1.6,0,0.0,12,0.3217,,6.6183,1
429566,1469899712841,,,,,,,0.01,0.09,0.98,-3.0,-0.0,-0.1,700,0,,,,,,,,,,,,,,,,,
429586,1469899712861,,,,,,,0.01,0.08,0.98,-3.0,0.1,-0.2,700,0,,,,,,,,,,,,,,,,,
429606,1469899712881,,,,,,,0.01,0.08,0.98,-3.0,0.3,-0.2,700,0,,,,,,,,,,,,,,,,,
429626,1469899712993,,,,,,,0.01,0.08,0.98,-3.0,0.2,-0.1,700,0,,,,,,,,,,,,,,,,,
429646,1469899713013,0,210.6,173.4,12,183.3,,0.01,0.08,0.98,-3.0,0.2,-0.1,700,0,0.0,0,39.538837,-122.332214,0.0,2.973,310.1,9,2,1.6,0,0.0,12,0.3217,0.0,6.6217,1
429666,1469899713033,,,,,,,0.01,0.08,0.98,-3.0,0.1,-0.2,700,0,,,,,,,,,,,,,,,,,
429686,1469899713053,,,,,,,0.01,0.09,0.98,-3.0,-0.0,-0.1,700,0,,,,,,,,,,,,,,,,,
429706,1469899713073,,,,,,,0.01,0.09,0.98,-3.0,-0.1,-0.1,700,0,,,,,,,,,,,,,,,,,
429726,1469899713093,,,,,,,0.01,0.08,0.98,-2.9,-0.1,-0.2,700,0,,,,,,,,,,,,,,,,,
429746,1469899713113,,,,11,,,0.01,0.09,0.98,-3.0,-0.0,-0.2,700,0,0.0,0,39.538837,-122.332214,0.0,2.973,310.1,9,2,1.6,0,0.0,12,0.3217,,6.6217,1
429766,1469899713133,,,,,,,0.01,0.09,0.98,-3.0,0.0,-0.1,700,0,,,,,,,,,,,,,,,,,
429786,1469899713153,,,,,,,0.01,0.09,0.98,-3.0,0.0,-0.2,680,0,,,,,,,,,,,,,,,,,
429806,1469899713173,,,,,,,0.0,0.08,0.98,-2.9,-0.1,-0.2,680,0,,,,,,,,,,,,,,,,,
429826,1469899713100,,,,,,,0.01,0.08,0.98,-3.0,-0.0,-0.1,700,0,,,,,,,,,,,,,,,,,
429846,1469899713120,0,210.7,172.7,10,182.3,,0.0,0.07,0.98,-2.9,-0.1,-0.2,700,0,0.0,0,39.538837,-122.332214,0.0,2.973,310.1,9,2,1.6,0,0.0,12,0.3217,0.0,6.6233,1
429866,1469899713140,,,,,,,0.01,0.07,0.98,-2.9,-0.1,-0.2,700,0,,,,,,,,,,,,,,,,,
429886,1469899713160,,,,,,,0.01,0.08,0.98,-3.0,-0.0,-0.2,700,0,,,,,,,,,,,,,,,,,
429906,1469899713180,,,,,,,0.01,0.08,0.98,-3.0,0.1,-0.1,700,0,,,,,,,,,,,,,,,,,
429926,1469899713200,,,,,,,0.01,0.08,0.98,-3.0,0.1,-0.2,700,0,,,,,,,,,,,,,,,,,
429946,1469899713220,,,,11,,,0.01,0.08,0.98,-3.0,0.1,-0.2,700,0,0.0,0,39.538837,-122.332214,0.0,2.973,310.1,9,2,1.6,0,0.0,12,0.3217,,6.625,1
429966,1469899713240,,,,,,,0.01,0.08,0.98,-3.0,0.1,-0.1,700,0,,,,,,,,,,,,,,,,,
429986,1469899713260,,,,,,,0.01,0.09,0.98,-3.1,0.1,-0.1,700,0,,,,,,,,,,,,,,,,,
430006,1469899713280,,,,,,,0.01,0.08,0.98,-3.0,-0.0,-0.2,700,0,,,,,,,,,,,,,,,,,
430026,1469899713301,,,,,,,0.01,0.09,0.98,-3.1,-0.0,-0.1,700,0,,,,,,,,,,,,,,,,,
430046,1469899713321,0,211.3,172.3,11,181.5,13.31,0.01,0.08,0.98,-3.0,0.1,-0.1,700,0,0.0,0,39.538837,-122.332214,0.0,2.973,310.1,9,2,1.6,0,0.0,12,0.3217,0.0,6.6267,1
430066,1469899713341,,,,,,,0.01,0.08,0.98,-3.0,0.0,-0.2,700,0,,,,,,,,,,,,,,,,,
430086,1469899713361,,,,,,,0.0,0.08,0.98,-3.0,0.0,-0.2,700,0,,,,,,,,,,,,,,,,,
430106,1469899713381,,,,,,,0.0,0.08,0.98,-3.0,-0.0,-0.1,700,0,,,,,,,,,,,,,,,,,
430126,1469899713401,,,,,,,0.0,0.07,0.98,-2.9,-0.1,-0.2,680,0,,,,,,,,,,,,,,,,,
430146,1469899713421,,,,11,,,-0.0,0.06,0.98,-2.9,-0.1,-0.3,680,0,0.0,0,39.538837,-122.332214,0.0,2.973,310.1,9,2,1.6,0,0.0,12,0.3217,,6.6283,1
430166,1469899713441,,,,,,,0.0,0.07,0.98,-2.9,-0.2,-0.1,700,0,,,,,,,,,,,,,,,,,
430186,1469899713461,,,,,,,0.0,0.07,0.97,-2.9,-0.2,-0.1,700,0,,,,,,,,,,,,,,,,,
430206,1469899713481,,,,,,,0.0,0.07,0.97,-2.9,-0.0,-0.2,700,0,,,,,,,,,,,,,,,,,
430226,1469899713501,,,,,,,0.0,0.07,0.98,-2.9,0.1,-0.2,700,0,,,,,,,,,,,,,,,,,
430246,1469899713521,0,210.2,174.9,10,184.8,,0.01,0.08,0.98,-2.9,0.2,-0.1,700,0,0.0,0,39.538837,-122.332214,0.0,2.973,310.1,9,2,1.6,0,0.0,12,0.3217,0.0,6.63,1
430266,1469899713541,,,,,,,0.0,0.07,0.98,-2.9,0.2,-0.2,700,0,,,,,,,,,,,,,,,,,
430286,1469899713561,,,,,,,-0.0,0.07,0.98,-3.0,0.1,-0.2,700,0,,,,,,,,,,,,,,,,,
430306,1469899713581,,,,,,,0.0,0.08,0.98,-3.0,0.0,-0.1,700,0,,,,,,,,,,,,,,,,,
430326,1469899713600,,,,,,,0.0,0.08,0.98,-3.0,-0.0,-0.2,700,0,,,,,,,,,,,,,,,,,
430346,1469899713620,,,,10,,,0.0,0.08,0.98,-3.0,-0.0,-0.2,700,0,0.0,0,39.538837,-122.332214,0.0,2.973,310.1,9,2,1.6,0,0.0,12,0.3217,,6.6317,1
430366,1469899713640,,,,,,,0.01,0.08,0.98,-3.0,0.0,-0.2,700,0,,,,,,,,,,,,,,,,,
430386,1469899713660,,,,,,,0.01,0.09,0.98,-3.0,0.1,-0.1,700,0,,,,,,,,,,,,,,,,,
430406,1469899713680,,,,,,,0.01,0.08,0.98,-3.0,0.1,-0.2,700,0,,,,,,,,,,,,,,,,,
430426,1469899713799,,,,,,,0.0,0.08,0.98,-3.0,0.1,-0.2,700,0,,,,,,,,,,,,,,,,,
430446,1469899713819,0,209.8,173.6,11,183.0,,0.0,0.09,0.98,-3.0,0.1,-0.1,700,0,0.0,0,39.538837,-122.332214,0.0,2.973,310.1,9,2,1.6,0,0.0,12,0.3217,0.0,6.635,1
430466,1469899713839,,,,,,,-0.0,0.08,0.98,-3.0,0.0,-0.2,700,0,,,,,,,,,,,,,,,,,
430486,1469899713859,,,,,,,-0.0,0.08,0.98,-3.0,0.0,-0.2,700,0,,,,,,,,,,,,,,,,,
430506,1469899713879,,,,,,,0.0,0.09,0.98,-3.0,-0.0,-0.1,700,0,,,,,,,,,,,,,,,,,
430526,1469899713899,,,,,,,0.0,0.08,0.98,-3.0,-0.0,-0.1,700,0,,,,,,,,,,,,,,,,,
430546,1469899713919,,,,10,,,0.0,0.08,0.98,-3.0,0.0,-0.2,720,0,0.0,0,39.538837,-122.332214,0.0,2.973,310.1,9,2,1.6,0,0.0,12,0.3217,,6.635,1
430566,1469899713939,,,,,,,0.01,0.07,0.98,-3.0,0.1,-0.2,720,0,,,,,,,,,,,,,,,,,
430586,1469899713959,,,,,,,0.01,0.08,0.98,-3.0,0.2,-0.1,700,0,,,,,,,,,,,,,,,,,
430606,1469899713979,,,,,,,0.01,0.07,0.98,-3.0,0.1,-0.1,700,0,,,,,,,,,,,,,,,,,
430626,1469899713894,,,,,,,0.0,0.07,0.98,-2.9,0.0,-0.2,700,0,,,,,,,,,,,,,,,,,
430646,1469899713914,0,210.6,172.8,10,181.7,,0.01,0.08,0.98,-3.0,0.0,-0.1,700,0,0.0,0,39.538837,-122.332214,0.0,2.973,310.1,9,2,1.6,0,0.0,12,0.3217,0.0,6.6367,1
430666,1469899713934,,,,,,,0.01,0.08,0.98,-3.0,0.0,-0.1,700,0,,,,,,,,,,,,,,,,,
430686,1469899713954,,,,,,,0.01,0.08,0.98,-3.0,0.0,-0.2,700,0,,,,,,,,,,,,,,,,,
430706,1469899713974,,,,,,,0.01,0.08,0.98,-3.0,0.2,-0.2,700,0,,,,,,,,,,,,,,,,,
430726,1469899714001,,,,,,,0.01,0.08,0.98,-3.0,0.2,-0.1,720,0,,,,,,,,,,,,,,,,,
430746,1469899714021,,,,11,,,0.01,0.08,0.98,-3.0,0.1,-0.2,700,0,0.0,0,39.538837,-122.332214,0.0,2.973,310.1,9,2,1.6,0,0.0,12,0.3217,,6.6383,1
430766,1469899714041,,,,,,,0.01,0.07,0.98,-2.9,-0.0,-0.2,700,0,,,,,,,,,,,,,,,,,
430786,1469899714061,,,,,,,0.01,0.08,0.98,-3.0,-0.0,-0.1,700,0,,,,,,,,,,,,,,,,,
430806,1469899714081,,,,,,,0.01,0.08,0.98,-3.0,0.0,-0.1,700,0,,,,,,,,,,,,,,,,,
430826,1469899714101,,,,,,,0.01,0.07,0.98,-2.9,-0.0,-0.2,700,0,,,,,,,,,,,,,,,,,
430846,1469899714121,0,210.9,172.9,10,181.3,,0.01,0.07,0.98,-2.9,0.1,-0.2,700,0,0.0,0,39.538837,-122.332214,0.0,2.973,310.1,9,2,1.6,0,0.0,12,0.3217,0.0,6.64,1
430866,1469899714141,,,,,,,0.01,0.08,0.98,-3.0,0.1,-0.1,700,0,,,,,,,,,,,,,,,,,
430886,1469899714161,,,,,,,0.01,0.08,0.99,-2.9,0.1,-0.2,720,0,,,,,,,,,,,,,,,,,
430906,1469899714181,,,,,,,0.0,0.08,0.99,-2.9,-0.0,-0.2,720,0,,,,,,,,,,,,,,,,,
430926,1469899714200,,,,,,,0.01,0.08,0.98,-2.9,-0.1,-0.1,700,0,,,,,,,,,,,,,,,,,
430946,1469899714220,,,,10,,,0.01,0.08,0.98,-2.9,0.0,-0.1,700,0,0.0,0,39.538837,-122.332214,0.0,2.973,310.1,9,2,1.6,0,0.0,12,0.3217,,6.6417,1
430966,1469899714240,,,,,,,0.01,0.08,0.99,-2.9,-0.0,-0.2,700,0,,,,,,,,,,,,,,,,,
430986,1469899714260,,,,,,,0.01,0.09,0.99,-3.0,0.1,-0.2,700,0,,,,,,,,,,,,,,,,,
431006,1469899714280,,,,,,,0.01,0.09,0.99,-3.0,0.0,-0.1,700,0,,,,,,,,,,,,,,,,,
431026,1469899714300,,,,,,,0.01,0.09,0.98,-3.0,0.0,-0.1,720,0,,,,,,,,,,,,,,,,,
431046,1469899714320,0,210.6,173.0,10,181.4,13.38,0.01,0.09,0.98,-3.0,-0.1,-0.2,740,0,0.0,0,39.538837,-122.332214,0.0,2.973,310.1,9,2,1.6,0,0.0,12,0.3217,0.0,6.6433,1
431066,1469899714340,,,,,,,0.02,0.09,0.98,-3.0,-0.1,-0.1,740,0,,,,,,,,,,,,,,,,,
431086,1469899714360,,,,,,,0.02,0.09,0.98,-3.0,0.0,-0.1,720,0,,,,,,,,,,,,,,,,,
431106,1469899714380,,,,,,,0.02,0.08,0.98,-3.0,0.0,-0.1,720,0,,,,,,,,,,,,,,,,,
431126,1469899714402,,,,,,,0.01,0.08,0.98,-3.0,0.1,-0.2,720,0,,,,,,,,,,,,,,,,,
431146,1469899714422,,,,10,,,0.01,0.09,0.98,-3.0,0.1,-0.1,700,0,0.0,0,39.538837,-122.332214,0.0,2.973,310.1,9,2,1.6,0,0.0,12,0.3217,,6.645,1
431166,1469899714442,,,,,,,0.02,0.09,0.98,-3.0,0.1,-0.1,720,0,,,,,,,,,,,,,,,,,
431186,1469899714462,,,,,,,0.01,0.09,0.98,-3.0,0.0,-0.2,720,0,,,,,,,,,,,,,,,,,
431206,1469899714482,,,,,,,0.02,0.09,0.98,-3.0,0.1,-0.2,720,0,,,,,,,,,,,,,,,,,
431226,1469899714600,,,,,,,0.02,0.09,0.98,-3.1,0.2,-0.1,720,0,,,,,,,,,,,,,,,,,
431246,1469899714620,0,211.3,172.6,12,180.7,,0.02,0.09,0.98,-3.0,0.1,-0.2,700,0,0.0,0,39.538837,-122.332214,0.0,2.973,310.1,9,2,1.6,0,0.0,12,0.3217,0.0,6.6483,1
431266,1469899714640,,,,,,,0.01,0.08,0.98,-2.9,0.1,-0.2,700,0,,,,,,,,,,,,,,,,,
431286,1469899714660,,,,,,,0.01,0.08,0.98,-3.0,0.1,-0.1,720,0,,,,,,,,,,,,,,,,,
431306,1469899714680,,,,,,,0.01,0.08,0.98,-3.0,0.1,-0.1,700,0,,,,,,,,,,,,,,,,,
431326,1469899714700,,,,,,,0.01,0.08,0.98,-2.9,0.1,-0.2,720,0,,,,,,,,,,,,,,,,,
431346,1469899714720,,,,12,,,0.01,0.08,0.98,-2.9,0.2,-0.2,720,0,0.0,0,39.538837,-122.332214,0.0,2.973,310.1,9,2,1.6,0,0.0,12,0.3217,,6.6483,1
431366,1469899714740,,,,,,,0.01,0.08,0.98,-3.0,0.2,-0.1,700,0,,,,,,,,,,,,,,,,,
431386,1469899714760,,,,,,,0.02,0.08,0.98,-3.0,0.1,-0.1,720,0,,,,,,,,,,,,,,,,,
431406,1469899714780,,,,,,,0.01,0.08,0.98,-2.9,-0.0,-0.2,700,0,,,,,,,,,,,,,,,,,
431426,1469899714701,,,,,,,0.01,0.08,0.98,-2.9,-0.0,-0.2,700,0,,,,,,,,,,,,,,,,,
431446,1469899714721,0,210.9,173.0,10,180.8,,0.01,0.08,0.98,-2.9,0.0,-0.2,700,0,0.0,0,39.538837,-122.332214,0.0,2.973,310.1,9,2,1.6,0,0.0,12,0.3217,0.0,6.65,1
431466,1469899714741,,,,,,,0.01,0.08,0.98,-2.9,0.0,-0.3,680,0,,,,,,,,,,,,,,,,,
431486,1469899714761,,,,,,,0.01,0.08,0.98,-2.9,0.1,-0.2,680,0,,,,,,,,,,,,,,,,,
431506,1469899714781,,,,,,,0.01,0.08,0.98,-3.0,0.1,-0.1,700,0,,,,,,,,,,,,,,,,,
431526,1469899714801,,,,,,,0.01,0.08,0.98,-2.9,0.1,-0.2,700,0,,,,,,,,,,,,,,,,,
431546,1469899714821,,,,10,,,0.01,0.09,0.98,-2.9,-0.0,-0.2,720,0,0.0,0,39.538837,-122.332214,0.0,2.973,310.1,9,2,1.6,0,0.0,12,0.3217,,6.6517,1
431566,1469899714841,,,,,,,0.01,0.09,0.98,-2.9,0.0,-0.2,720,0,,,,,,,,,,,,,,,,,
431586,1469899714861,,,,,,,0.01,0.09,0.98,-3.0,0.1,-0.1,680,0,,,,,,,,,,,,,,,,,
431606,1469899714881,,,,,,,0.01,0.08,0.98,-2.9,0.0,-0.2,700,0,,,,,,,,,,,,,,,,,
431626,1469899714894,,,,,,,0.01,0.08,0.98,-2.9,0.1,-0.2,700,0,,,,,,,,,,,,,,,,,
431646,1469899714914,0,210.5,173.2,10,181.3,,0.01,0.08,0.98,-3.0,0.1,-0.1,680,0,0.0,0,39.538837,-122.332214,0.0,2.973,310.1,9,2,1.6,0,0.0,12,0.3217,0.0,6.6533,1
431666,1469899714934,,,,,,,0.01,0.08,0.98,-3.0,0.1,-0.2,700,0,,,,,,,,,,,,,,,,,
431686,1469899714954,,,,,,,0.01,0.08,0.99,-3.0,0.1,-0.2,700,0,,,,,,,,,,,,,,,,,
431706,1469899714974,,,,,,,0.01,0.08,0.98,-3.0,0.0,-0.1,700,0,,,,,,,,,,,,,,,,,
431726,1469899715001,,,,,,,0.02,0.08,0.98,-3.0,0.0,-0.1,740,0,,,,,,,,,,,,,,,,,
431746,1469899715021,,,,10,,,0.01,0.08,0.98,-2.9,-0.0,-0.2,700,0,0.0,0,39.538837,-122.332214,0.0,2.973,310.1,9,2,1.6,0,0.0,12,0.3217,,6.655,1
431766,1469899715041,,,,,,,0.01,0.08,0.98,-2.9,0.1,-0.2,700,0,,,,,,,,,,,,,,,,,
431786,1469899715061,,,,,,,0.01,0.09,0.99,-3.0,0.1,-0.1,700,0,,,,,,,,,,,,,,,,,
431806,1469899715081,,,,,,,0.01,0.08,0.99,-2.9,0.1,-0.2,700,0,,,,,,,,,,,,,,,,,
431826,1469899715102,,,,,,,0.01,0.08,0.99,-2.9,0.1,-0.2,700,0,,,,,,,,,,,,,,,,,
431846,1469899715122,0,211.2,173.8,11,180.2,,0.01,0.08,0.99,-3.0,0.0,-0.1,700,0,0.0,0,39.538837,-122.332214,0.0,2.973,310.1,9,2,1.6,0,0.0,12,0.3217,0.0,6.6567,1
431866,1469899715142,,,,,,,0.01,0.08,0.98,-3.0,0.1,-0.1,700,0,,,,,,,,,,,,,,,,,
431886,1469899715162,,,,,,,0.01,0.07,0.98,-2.9,0.1,-0.2,740,0,,,,,,,,,,,,,,,,,
431906,1469899715182,,,,,,,0.01,0.07,0.98,-3.0,0.2,-0.2,740,0,,,,,,,,,,,,,,,,,
431926,1469899715201,,,,,,,0.01,0.07,0.98,-3.0,0.3,-0.1,700,0,,,,,,,,,,,,,,,,,
431946,1469899715221,,,,12,,,0.01,0.07,0.98,-3.0,0.2,-0.2,700,0,0.0,0,39.538837,-122.332214,0.0,2.973,310.1,9,2,1.6,0,0.0,12,0.3217,,6.6583,1
431966,1469899715241,,,,,,,0.01,0.07,0.98,-2.9,0.1,-0.2,700,0,,,,,,,,,,,,,,,,,
431986,1469899715261,,,,,,,0.01,0.07,0.98,-2.9,-0.0,-0.1,700,0,,,,,,,,,,,,,,,,,
432006,1469899715281,,,,,,,0.01,0.08,0.98,-2.9,0.0,-0.1,720,0,,,,,,,,,,,,,,,,,
432026,1469899715400,,,,,,,0.01,0.08,0.98,-2.9,-0.0,-0.2,700,0,,,,,,,,,,,,,,,,,
432046,1469899715420,0,210.0,172.8,10,181.6,13.38,0.01,0.08,0.98,-3.0,0.1,-0.3,700,0,0.0,0,39.538837,-122.332214,0.0,2.973,310.1,9,2,1.6,0,0.0,12,0.3217,0.0,6.6617,1
432066,1469899715440,,,,,,,0.01,0.08,0.99,-3.0,0.1,-0.1,740,0,,,,,,,,,,,,,,,,,
432086,1469899715460,,,,,,,0.01,0.08,0.99,-2.9,0.1,-0.2,700,0,,,,,,,,,,,,,,,,,
432106,1469899715480,,,,,,,0.01,0.08,0.99,-2.9,-0.0,-0.2,700,0,,,,,,,,,,,,,,,,,
432126,1469899715500,,,,,,,0.01,0.08,0.99,-3.0,0.0,-0.1,700,0,,,,,,,,,,,,,,,,,
432146,1469899715520,,,,11,,,0.01,0.08,0.99,-3.0,0.1,-0.1,700,0,0.0,0,39.538837,-122.332214,0.0,2.973,310.1,9,2,1.6,0,0.0,12,0.3217,,6.6617,1
432166,1469899715540,,,,,,,0.01,0.07,0.99,-2.9,-0.0,-0.2,720,0,,,,,,,,,,,,,,,,,
432186,1469899715560,,,,,,,0.01,0.07,0.99,-2.9,0.1,-0.3,720,0,,,,,,,,,,,,,,,,,
432206,1469899715580,,,,,,,0.01,0.08,0.99,-3.0,0.1,-0.2,700,0,,,,,,,,,,,,,,,,,
432226,1469899715501,,,,,,,0.01,0.08,0.99,-3.0,0.0,-0.2,740,0,,,,,,,,,,,,,,,,,
432246,1469899715521,0,210.6,173.3,10,180.4,,0.01,0.08,0.99,-2.9,-0.1,-0.2,700,0,0.0,0,39.538837,-122.332214,0.0,2.973,310.1,9,2,1.6,0,0.0,12,0.3217,0.0,6.6633,1
432266,1469899715541,,,,,,,0.01,0.08,0.98,-2.9,-0.1,-0.2,700,0,,,,,,,,,,,,,,,,,
432286,1469899715561,,,,,,,0.01,0.08,0.98,-2.9,0.1,-0.1,700,0,,,,,,,,,,,,,,,,,
432306,1469899715581,,,,,,,0.01,0.08,0.99,-3.0,0.1,-0.2,700,0,,,,,,,,,,,,,,,,,
432326,1469899715601,,,,,,,0.01,0.09,0.98,-3.0,0.1,-0.2,700,0,,,,,,,,,,,,,,,,,
432346,1469899715621,,,,11,,,0.01,0.09,0.98,-3.0,0.0,-0.1,720,0,0.0,0,39.538837,-122.332214,0.0,2.973,310.1,9,2,1.6,0,0.0,12,0.3217,,6.665,1
432366,1469899715641,,,,,,,0.01,0.09,0.98,-3.0,0.0,-0.1,700,0,,,,,,,,,,,,,,,,,
432386,1469899715661,,,,,,,0.01,0.08,0.98,-2.9,-0.1,-0.2,740,0,,,,,,,,,,,,,,,,,
432406,1469899715681,,,,,,,0.02,0.08,0.98,-2.9,-0.0,-0.1,740,0,,,,,,,,,,,,,,,,,
432426,1469899715701,,,,,,,0.02,0.08,0.97,-2.9,0.0,-0.0,700,0,,,,,,,,,,,,,,,,,
432446,1469899715721,0,210.3,173.1,11,181.2,,0.02,0.08,0.98,-2.9,-0.0,-0.1,700,0,0.0,0,39.538837,-122.332214,0.0,2.973,310.1,9,2,1.6,0,0.0,12,0.3217,0.0,6.6667,1
432466,1469899715741,,,,,,,0.01,0.08,0.98,-2.9,0.0,-0.2,700,0,,,,,,,,,,,,,,,,,
432486,1469899715761,,,,,,,0.01,0.08,0.98,-3.0,0.0,-0.1,700,0,,,,,,,,,,,,,,,,,
432506,1469899715781,,,,,,,0.02,0.09,0.98,-2.9,-0.0,-0.1,720,0,,,,,,,,,,,,,,,,,
432526,1469899715801,,,,,,,0.02,0.08,0.98,-2.9,-0.1,-0.2,700,0,,,,,,,,,,,,,,,,,
432546,1469899715821,,,,11,,,0.02,0.08,0.98,-3.0,-0.0,-0.2,700,0,0.0,0,39.538837,-122.332214,0.0,2.973,310.1,9,2,1.6,0,0.0,12,0.3217,,6.6683,1
432566,1469899715841,,,,,,,0.02,0.09,0.97,-3.0,0.0,-0.1,740,0,,,,,,,,,,,,,,,,,
432586,1469899715861,,,,,,,0.02,0.08,0.98,-2.9,0.1,-0.1,700,0,,,,,,,,,,,,,,,,,
432606,1469899715881,,,,,,,0.01,0.08,0.98,-2.9,0.0,-0.3,720,0,,,,,,,,,,,,,,,,,
432626,1469899715895,,,,,,,0.02,0.08,0.98,-2.9,0.1,-0.2,720,0,,,,,,,,,,,,,,,,,
432646,1469899715915,0,210.4,173.3,11,180.8,,0.02,0.08,0.98,-3.0,0.1,-0.1,720,0,0.0,0,39.538837,-122.332214,0.0,2.973,310.1,9,2,1.6,0,0.0,12,0.3217,0.0,6.67,1
432666,1469899715935,,,,,,,0.01,0.08,0.98,-2.9,0.0,-0.2,720,0,,,,,,,,,,,,,,,,,
432686,1469899715955,,,,,,,0.01,0.08,0.98,-3.0,0.1,-0.2,720,0,,,,,,,,,,,,,,,,,
432706,1469899715975,,,,,,,0.01,0.08,0.98,-3.0,0.1,-0.1,720,0,,,,,,,,,,,,,,,,,
432726,1469899716001,,,,,,,0.01,0.09,0.98,-3.0,0.0,-0.1,740,0,,,,,,,,,,,,,,,,,
432746,1469899716021,,,,10,,,0.01,0.08,0.98,-2.9,-0.1,-0.2,700,0,0.0,0,39.538837,-122.332214,0.0,2.973,310.1,9,2,1.6,0,0.0,12,0.3217,,6.6717,1
432766,1469899716041,,,,,,,0.01,0.08,0.97,-2.9,-0.0,-0.3,700,0,,,,,,,,,,,,,,,,,
432786,1469899716061,,,,,,,0.01,0.09,0.98,-3.0,0.0,-0.2,720,0,,,,,,,,,,,,,,,,,
432806,1469899716081,,,,,,,0.01,0.08,0.98,-3.0,0.0,-0.2,700,0,,,,,,,,,,,,,,,,,
432826,1469899716201,,,,,,,0.01,0.08,0.98,-2.9,0.0,-0.3,720,0,,,,,,,,,,,,,,,,,
432846,1469899716221,0,211.0,173.6,10,179.6,,0.01,0.08,0.98,-3.0,0.1,-0.2,720,0,0.0,0,39.538837,-122.332214,0.0,2.973,310.1,9,2,1.6,0,0.0,12,0.3217,0.0,6.675,1
432866,1469899716241,,,,,,,0.01,0.08,0.98,-3.0,0.1,-0.1,720,0,,,,,,,,,,,,,,,,,
432886,1469899716261,,,,,,,0.01,0.08,0.99,-2.9,0.1,-0.2,760,0,,,,,,,,,,,,,,,,,
432906,1469899716281,,,,,,,0.0,0.08,0.99,-2.9,0.1,-0.3,760,0,,,,,,,,,,,,,,,,,
432926,1469899716301,,,,,,,0.0,0.08,0.98,-3.0,0.1,-0.2,720,0,,,,,,,,,,,,,,,,,
432946,1469899716321,,,,12,,,0.01,0.08,0.99,-3.0,0.2,-0.1,740,0,0.0,0,39.538837,-122.332214,0.0,2.973,310.1,9,2,1.6,0,0.0,12,0.3217,,6.675,1
432966,1469899716341,,,,,,,0.01,0.08,0.99,-3.0,0.1,-0.2,740,0,,,,,,,,,,,,,,,,,
432986,1469899716361,,,,,,,0.0,0.08,0.98,-3.0,0.0,-0.3,740,0,,,,,,,,,,,,,,,,,
433006,1469899716381,,,,,,,0.0,0.08,0.98,-3.0,-0.0,-0.1,740,0,,,,,,,,,,,,,,,,,
433026,1469899716302,,,,,,,0.01,0.07,0.98,-3.0,0.1,-0.1,760,0,,,,,,,,,,,,,,,,,
433046,1469899716322,0,210.9,173.7,12,179.3,13.59,0.01,0.07,0.99,-3.0,0.1,-0.2,800,0,0.0,0,39.538837,-122.332214,0.0,2.973,310.1,9,2,1.6,0,0.0,12,0.3217,0.0,6.6767,1
433066,1469899716342,,,,,,,-0.01,0.06,0.99,-2.9,0.0,-0.3,760,0,,,,,,,,,,,,,,,,,
433086,1469899716362,,,,,,,0.0,0.06,0.98,-2.9,0.0,-0.3,760,0,,,,,,,,,,,,,,,,,
433106,1469899716382,,,,,,,0.01,0.06,0.99,-2.9,0.1,-0.1,780,0,,,,,,,,,,,,,,,,,
433126,1469899716402,,,,,,,0.0,0.06,0.99,-2.9,0.2,-0.1,780,0,,,,,,,,,,,,,,,,,
433146,1469899716422,,,,12,,,0.0,0.06,0.99,-2.9,0.1,-0.3,780,0,0.0,0,39.538837,-122.332214,0.0,2.973,310.1,9,2,1.6,0,0.0,12,0.3217,,6.6783,1
433166,1469899716442,,,,,,,-0.0,0.06,0.99,-2.9,0.3,-0.3,800,0,,,,,,,,,,,,,,,,,
433186,1469899716462,,,,,,,0.0,0.06,0.98,-3.0,0.2,-0.2,800,0,,,,,,,,,,,,,,,,,
433206,1469899716482,,,,,,,0.0,0.07,0.98,-3.0,0.3,-0.0,820,0,,,,,,,,,,,,,,,,,
433226,1469899716501,,,,,,,0.01,0.08,0.98,-3.0,0.3,-0.0,800,0,,,,,,,,,,,,,,,,,
433246,1469899716521,0,210.4,173.1,12,179.4,,0.01,0.08,0.99,-3.0,0.3,-0.2,820,0,0.0,0,39.538837,-122.332214,0.0,2.973,310.1,9,2,1.6,0,0.0,12,0.3217,0.0,6.68,1
433266,1469899716541,,,,,,,0.0,0.08,0.98,-3.0,0.3,-0.3,800,18,,,,,,,,,,,,,,,,,
433286,1469899716561,,,,,,,0.01,0.07,0.98,-2.9,0.3,-0.3,820,0,,,,,,,,,,,,,,,,,
433306,1469899716581,,,,,,,0.01,0.07,0.97,-3.0,0.3,-0.2,820,0,,,,,,,,,,,,,,,,,
433326,1469899716601,,,,,,,0.01,0.08,0.97,-3.0,0.4,-0.1,820,0,,,,,,,,,,,,,,,,,
433346,1469899716621,,,,13,,,0.01,0.09,0.97,-3.0,0.3,-0.1,840,0,0.001,0,39.538837,-122.332214,0.0,2.973,310.1,9,2,1.6,0,0.0,12,0.3217,,6.6817,1
433366,1469899716641,,,,,,,0.01,0.09,0.98,-3.0,0.3,-0.2,820,26,,,,,,,,,,,,,,,,,
433386,1469899716661,,,,,,,0.01,0.08,0.98,-2.9,0.3,-0.3,800,26,,,,,,,,,,,,,,,,,
433406,1469899716681,,,,,,,0.0,0.07,0.98,-2.9,0.3,-0.3,800,40,,,,,,,,,,,,,,,,,
433426,1469899716701,,,,,,,-0.0,0.08,0.97,-2.9,0.4,-0.2,820,40,,,,,,,,,,,,,,,,,
433446,1469899716721,0,210.9,173.7,13,179.0,,0.0,0.09,0.97,-3.0,0.4,-0.1,820,40,30.769,0,39.538837,-122.332214,0.0,2.973,310.1,9,2,1.6,0,0.0,12,0.3217,0.0,6.6833,1
433466,1469899716741,,,,,,,0.01,0.09,0.98,-3.0,0.5,-0.1,820,32,,,,,,,,,,,,,,,,,
433486,1469899716761,,,,,,,0.0,0.09,0.98,-2.9,0.4,-0.2,840,32,,,,,,,,,,,,,,,,,
433506,1469899716781,,,,,,,-0.01,0.08,0.98,-2.9,0.5,-0.3,800,32,,,,,,,,,,,,,,,,,
433526,1469899716801,,,,,,,-0.01,0.08,0.98,-2.9,0.4,-0.3,800,32,,,,,,,,,,,,,,,,,
433546,1469899716821,,,,12,,,-0.0,0.08,0.98,-2.9,0.4,-0.2,800,32,26.25,0,39.538837,-122.332214,0.0,2.973,310.1,9,2,1.6,0,0.0,12,0.3217,,6.685,1
433566,1469899716841,,,,,,,0.0,0.09,0.98,-2.9,0.3,-0.2,800,1538461,,,,,,,,,,,,,,,,,
433586,1469899716861,,,,,,,0.0,0.09,0.98,-2.9,0.2,-0.2,800,0,,,,,,,,,,,,,,,,,
433606,1469899716881,,,,,,,-0.0,0.08,0.99,-2.9,0.1,-0.3,780,0,,,,,,,,,,,,,,,,,
433626,1469899716994,,,,,,,-0.0,0.08,0.99,-2.9,0.1,-0.3,780,0,,,,,,,,,,,,,,,,,
433646,1469899717014,0,209.8,172.8,12,180.0,,-0.01,0.08,0.98,-3.0,0.1,-0.2,800,0,0.0,0,39.538837,-122.332214,0.0,2.973,310.1,9,2,1.6,0,0.0,12,0.3217,0.0,6.6883,1
433666,1469899717034,,,,,,,-0.0,0.08,0.98,-3.0,0.2,-0.1,780,0,,,,,,,,,,,,,,,,,
433686,1469899717054,,,,,,,0.0,0.08,0.99,-3.0,0.1,-0.2,780,0,,,,,,,,,,,,,,,,,
433706,1469899717074,,,,,,,-0.01,0.08,0.99,-2.9,0.1,-0.3,760,0,,,,,,,,,,,,,,,,,
433726,1469899717094,,,,,,,-0.0,0.07,0.98,-3.0,0.1,-0.3,760,0,,,,,,,,,,,,,,,,,
433746,1469899717114,,,,13,,,0.0,0.08,0.99,-3.0,0.2,-0.1,760,0,0.0,0,39.538837,-122.332214,0.0,2.973,310.1,9,2,1.6,0,0.0,12,0.3217,,6.6883,1
433766,1469899717134,,,,,,,0.0,0.09,0.99,-3.0,0.2,-0.1,760,206,,,,,,,,,,,,,,,,,
433786,1469899717154,,,,,,,-0.0,0.08,0.99,-3.0,0.1,-0.3,780,206,,,,,,,,,,,,,,,,,
433806,1469899717174,,,,,,,-0.0,0.08,0.98,-2.9,0.3,-0.3,780,206,,,,,,,,,,,,,,,,,
433826,1469899717102,,,,,,,-0.0,0.07,0.98,-2.9,0.2,-0.2,740,0,,,,,,,,,,,,,,,,,
433846,1469899717122,0,210.3,173.1,12,179.0,,0.0,0.08,0.98,-2.9,0.2,-0.1,740,0,-3.786,-1,39.538837,-122.332214,0.0,2.973,310.1,9,2,1.6,0,0.0,12,0.3217,0.0,6.69,1
433866,1469899717142,,,,,,,0.0,0.08,0.98,-2.9,0.1,-0.3,740,0,,,,,,,,,,,,,,,,,
433886,1469899717162,,,,,,,-0.0,0.08,0.99,-2.9,0.2,-0.3,740,0,,,,,,,,,,,,,,,,,
433906,1469899717182,,,,,,,-0.0,0.08,0.99,-3.0,0.0,-0.2,740,0,,,,,,,,,,,,,,,,,
433926,1469899717201,,,,,,,0.0,0.09,0.98,-3.0,0.0,-0.1,740,0,,,,,,,,,,,,,,,,,
433946,1469899717221,,,,11,,,0.0,0.09,0.98,-3.1,-0.1,-0.2,760,15,0.0,0,39.538837,-122.332214,0.0,2.973,310.1,9,2,1.6,0,0.0,12,0.3217,,6.6917,1
433966,1469899717241,,,,,,,-0.0,0.09,0.98,-3.1,0.1,-0.3,760,15,,,,,,,,,,,,,,,,,
433986,1469899717261,,,,,,,-0.0,0.09,0.98,-3.1,-0.0,-0.2,740,15,,,,,,,,,,,,,,,,,
434006,1469899717281,,,,,,,0.0,0.11,0.98,-3.1,-0.1,-0.2,720,15,,,,,,,,,,,,,,,,,
434026,1469899717302,,,,,,,0.0,0.1,0.98,-3.1,-0.1,-0.3,720,15,,,,,,,,,,,,,,,,,
434046,1469899717322,0,209.9,172.7,11,179.3,13.53,-0.0,0.1,0.98,-3.1,0.1,-0.3,720,15,49.333,0,39.538837,-122.332214,0.0,2.973,310.1,9,2,1.6,0,0.0,12,0.3217,0.0,6.6933,1
434066,1469899717342,,,,,,,-0.0,0.11,0.99,-3.1,-0.1,-0.2,720,15,,,,,,,,,,,,,,,,,
434086,1469899717362,,,,,,,0.0,0.11,0.98,-3.1,-0.0,-0.2,720,15,,,,,,,,,,,,,,,,,
434106,1469899717382,,,,,,,-0.0,0.11,0.98,-3.0,-0.1,-0.3,740,13,,,,,,,,,,,,,,,,,
434126,1469899717401,,,,,,,0.0,0.11,0.99,-3.1,0.1,-0.2,740,13,,,,,,,,,,,,,,,,,
434146,1469899717421,,,,10,,,0.0,0.1,0.99,-3.1,0.1,-0.1,700,13,48.0,0,39.538837,-122.332214,0.0,2.973,310.1,9,2,1.6,0,0.0,12,0.3217,,6.695,1
434166,1469899717441,,,,,,,-0.0,0.1,0.99,-3.1,0.1,-0.2,700,769230,,,,,,,,,,,,,,,,,
434186,1469899717461,,,,,,,-0.01,0.1,0.99,-3.1,0.1,-0.3,700,187,,,,,,,,,,,,,,,,,
434206,1469899717481,,,,,,,-0.01,0.11,0.99,-3.1,0.2,-0.1,680,187,,,,,,,,,,,,,,,,,
434226,1469899717502,,,,,,,-0.0,0.11,0.99,-3.1,0.2,-0.1,680,187,,,,,,,,,,,,,,,,,
434246,1469899717522,0,212.5,174.6,10,180.0,,-0.01,0.1,0.99,-3.1,0.1,-0.3,680,187,0.0,0,39.538837,-122.332214,0.0,2.973,310.1,9,2,1.6,0,0.0,12,0.3217,0.0,6.6967,1
434266,1469899717542,,,,,,,-0.0,0.11,0.99,-3.1,0.2,-0.2,680,187,,,,,,,,,,,,,,,,,
434286,1469899717562,,,,,,,-0.0,0.1,0.98,-3.1,0.3,-0.1,680,16,,,,,,,,,,,,,,,,,
434306,1469899717582,,,,,,,-0.0,0.09,0.99,-3.0,0.2,-0.3,660,16,,,,,,,,,,,,,,,,,
434326,1469899717602,,,,,,,-0.0,0.09,0.99,-3.0,0.5,-0.2,660,16,,,,,,,,,,,,,,,,,
434346,1469899717622,,,,10,,,-0.0,0.09,0.99,-3.0,0.4,-0.2,660,16,42.5,0,39.538837,-122.332214,0.0,2.973,310.1,9,2,1.6,0,0.0,12,0.3217,,6.6983,1
434366,1469899717642,,,,,,,-0.01,0.08,0.99,-3.0,0.4,-0.3,640,18,,,,,,,,,,,,,,,,,
434386,1469899717662,,,,,,,-0.01,0.09,0.99,-3.1,0.4,-0.2,640,18,,,,,,,,,,,,,,,,,
434406,1469899717682,,,,,,,-0.01,0.1,0.99,-3.1,0.3,-0.2,640,18,,,,,,,,,,,,,,,,,
434426,1469899717801,,,,,,,-0.01,0.09,0.99,-3.0,0.2,-0.3,660,18,,,,,,,,,,,,,,,,,
434446,1469899717821,0,213.1,175.2,10,181.1,,-0.01,0.09,0.99,-3.1,0.3,-0.2,660,20,35.556,0,39.538837,-122.332214,0.0,2.973,310.1,9,2,1.6,0,0.0,12,0.3217,0.0,6.7017,1
434466,1469899717841,,,,,,,-0.02,0.1,0.98,-3.1,0.2,-0.1,660,20,,,,,,,,,,,,,,,,,
434486,1469899717861,,,,,,,-0.02,0.09,0.98,-3.0,0.2,-0.2,660,20,,,,,,,,,,,,,,,,,
434506,1469899717881,,,,,,,-0.02,0.09,0.98,-3.0,0.2,-0.2,660,41,,,,,,,,,,,,,,,,,
434526,1469899717901,,,,,,,-0.02,0.1,0.98,-3.0,0.1,-0.1,640,41,,,,,,,,,,,,,,,,,
434546,1469899717921,,,,9,,,-0.03,0.08,0.98,-3.0,0.0,-0.2,640,21,33.0,0,39.538837,-122.332214,0.0,2.973,310.1,9,2,1.6,0,0.0,12,0.3217,,6.7017,1
434566,1469899717941,,,,,,,-0.02,0.09,0.99,-3.1,0.1,-0.1,640,21,,,,,,,,,,,,,,,,,
434586,1469899717961,,,,,,,-0.02,0.09,0.99,-3.1,0.1,-0.1,640,21,,,,,,,,,,,,,,,,,
434606,1469899717981,,,,,,,-0.02,0.08,0.98,-3.1,0.0,-0.2,640,23,,,,,,,,,,,,,,,,,
434626,1469899717896,,,,,,,-0.02,0.1,0.99,-3.2,0.0,-0.1,640,47,,,,,,,,,,,,,,,,,
434646,1469899717916,0,210.0,172.7,9,177.5,,-0.02,0.09,0.99,-3.2,0.0,-0.1,660,47,30.476,0,39.538837,-122.332214,0.0,2.973,310.1,9,2,1.6,0,0.0,12,0.3217,0.0,6.7033,1
434666,1469899717936,,,,,,,-0.03,0.08,0.99,-3.1,0.1,-0.2,660,47,,,,,,,,,,,,,,,,,
434686,1469899717956,,,,,,,-0.02,0.1,0.99,-3.2,0.0,-0.1,640,26,,,,,,,,,,,,,,,,,
434706,1469899717976,,,,,,,-0.02,0.09,0.99,-3.2,-0.0,-0.1,640,26,,,,,,,,,,,,,,,,,
434726,1469899718002,,,,,,,-0.03,0.09,0.99,-3.3,0.0,-0.1,640,49,,,,,,,,,,,,,,,,,
434746,1469899718022,,,,9,,,-0.02,0.09,0.99,-3.3,-0.0,0.0,620,49,13.617,0,39.538837,-122.332214,0.0,2.973,310.1,9,2,1.6,0,0.0,12,0.3217,,6.705,1
434766,1469899718042,,,,,,,-0.02,0.08,0.99,-3.2,-0.0,-0.0,620,49,,,,,,,,,,,,,,,,,
434786,1469899718062,,,,,,,-0.01,0.09,0.99,-3.3,0.1,-0.0,620,29,,,,,,,,,,,,,,,,,
434806,1469899718082,,,,,,,-0.01,0.1,0.99,-3.3,0.1,0.0,640,44,,,,,,,,,,,,,,,,,
434826,1469899718101,,,,,,,-0.02,0.09,0.99,-3.3,0.2,-0.1,640,44,,,,,,,,,,,,,,,,,
434846,1469899718121,0,211.1,173.6,10,178.3,,-0.01,0.1,0.99,-3.3,0.3,0.0,660,53,21.379,0,39.538837,-122.332214,0.0,2.973,310.1,9,2,1.6,0,0.0,12,0.3217,0.0,6.7067,1
434866,1469899718141,,,,,,,-0.01,0.1,0.99,-3.4,0.3,0.0,640,53,,,,,,,,,,,,,,,,,
434886,1469899718161,,,,,,,-0.02,0.09,0.99,-3.4,0.3,-0.1,640,29,,,,,,,,,,,,,,,,,
434906,1469899718181,,,,,,,-0.02,0.1,0.99,-3.5,0.3,0.0,640,56,,,,,,,,,,,,,,,,,
434926,1469899718202,,,,,,,-0.02,0.09,0.99,-3.4,0.2,-0.0,620,56,,,,,,,,,,,,,,,,,
434946,1469899718222,,,,9,,,-0.02,0.08,0.98,-3.4,0.2,-0.1,620,56,22.069,0,39.538837,-122.332214,0.0,2.973,310.1,9,2,1.6,0,0.0,12,0.3217,,6.7083,1
434966,1469899718242,,,,,,,-0.02,0.09,0.99,-3.5,0.3,0.1,640,35,,,,,,,,,,,,,,,,,
434986,1469899718262,,,,,,,-0.02,0.09,0.99,-3.5,0.1,-0.0,640,47,,,,,,,,,,,,,,,,,
435006,1469899718282,,,,,,,-0.03,0.08,0.99,-3.5,0.1,-0.1,640,47,,,,,,,,,,,,,,,,,
435026,1469899718302,,,,,,,-0.03,0.09,0.99,-3.5,0.2,0.0,660,55,,,,,,,,,,,,,,,,,
435046,1469899718322,0,210.9,173.1,9,177.4,13.27,-0.03,0.09,0.99,-3.5,0.1,-0.0,660,38,13.617,0,39.538837,-122.332214,0.0,2.973,310.1,9,2,1.6,0,0.0,12,0.3217,0.0,6.71,1
435066,1469899718342,,,,,,,-0.03,0.09,0.99,-3.6,0.2,-0.1,660,38,,,,,,,,,,,,,,,,,
435086,1469899718362,,,,,,,-0.03,0.1,1.0,-3.7,0.3,0.0,640,52,,,,,,,,,,,,,,,,,
435106,1469899718382,,,,,,,-0.03,0.09,0.99,-3.7,0.3,-0.1,640,58,,,,,,,,,,,,,,,,,
435126,1469899718402,,,,,,,-0.03,0.09,0.99,-3.8,0.3,-0.1,640,58,,,,,,,,,,,,,,,,,
435146,1469899718422,,,,9,,,-0.02,0.11,0.99,-3.8,0.3,0.0,640,40,12.308,0,39.538837,-122.332214,0.0,2.973,310.1,9,2,1.6,0,0.0,12,0.3217,,6.7117,1
435166,1469899718442,,,,,,,-0.02,0.1,0.98,-3.9,0.3,-0.0,660,40,,,,,,,,,,,,,,,,,
435186,1469899718462,,,,,,,-0.01,0.1,0.98,-4.0,0.3,-0.0,660,44,,,,,,,,,,,,,,,,,
435206,1469899718482,,,,,,,-0.0,0.11,0.99,-4.1,0.2,0.0,680,44,,,,,,,,,,,,,,,,,
435226,1469899718602,,,,,,,-0.0,0.11,0.99,-4.1,0.1,-0.0,680,38,,,,,,,,,,,,,,,,,
435246,1469899718622,0,210.5,173.0,11,177.5,,0.0,0.1,0.98,-4.2,0.1,-0.1,680,38,15.0,0,39.538837,-122.332214,0.0,2.973,310.1,9,2,1.6,0,0.0,12,0.3217,0.0,6.715,1
435266,1469899718642,,,,,,,0.0,0.11,0.99,-4.2,-0.0,0.0,680,38,,,,,,,,,,,,,,,,,
435286,1469899718662,,,,,,,-0.0,0.1,0.98,-4.2,-0.1,-0.0,680,27,,,,,,,,,,,,,,,,,
435306,1469899718682,,,,,,,-0.01,0.1,0.98,-4.2,-0.2,-0.1,680,27,,,,,,,,,,,,,,,,,
435326,1469899718702,,,,,,,-0.0,0.11,0.98,-4.3,-0.3,0.0,700,27,,,,,,,,,,,,,,,,,
435346,1469899718722,,,,10,,,0.0,0.1,0.97,-4.4,-0.3,0.1,700,27,25.185,0,39.538837,-122.332214,0.0,2.973,310.1,9,2,1.6,0,0.0,12,0.3217,,6.715,1
435366,1469899718742,,,,,,,0.01,0.09,0.97,-4.4,-0.4,-0.0,720,27,,,,,,,,,,,,,,,,,
435386,1469899718762,,,,,,,0.01,0.1,0.96,-4.5,-0.3,-0.0,720,30,,,,,,,,,,,,,,,,,
435406,1469899718782,,,,,,,0.02,0.1,0.96,-4.5,-0.2,0.0,700,30,,,,,,,,,,,,,,,,,
435426,1469899718702,,,,,,,0.01,0.09,0.97,-4.5,-0.3,0.0,700,40,,,,,,,,,,,,,,,,,
435446,1469899718722,0,211.0,173.4,10,177.9,,0.01,0.08,0.97,-4.5,-0.3,-0.1,700,49,24.0,0,39.538837,-122.332214,0.0,2.973,310.1,9,2,1.6,0,0.0,12,0.3217,0.0,6.7167,1
435466,1469899718742,,,,,,,0.02,0.09,0.97,-4.5,-0.4,0.1,700,52,,,,,,,,,,,,,,,,,
435486,1469899718762,,,,,,,0.02,0.08,0.97,-4.6,-0.3,0.1,680,52,,,,,,,,,,,,,,,,,
435506,1469899718782,,,,,,,0.02,0.08,0.98,-4.6,-0.4,0.0,680,53,,,,,,,,,,,,,,,,,
435526,1469899718802,,,,,,,0.03,0.08,0.98,-4.6,-0.2,0.0,680,52,,,,,,,,,,,,,,,,,
435546,1469899718822,,,,10,,,0.03,0.09,0.98,-4.7,-0.1,0.1,700,52,13.077,0,39.538837,-122.332214,0.0,2.973,310.1,9,2,1.6,0,0.0,12,0.3217,,6.7183,1
435566,1469899718842,,,,,,,0.03,0.08,0.98,-4.6,-0.1,0.0,680,49,,,,,,,,,,,,,,,,,
435586,1469899718862,,,,,,,0.02,0.08,0.98,-4.7,-0.1,0.0,680,49,,,,,,,,,,,,,,,,,
435606,1469899718882,,,,,,,0.02,0.09,0.98,-4.7,-0.2,0.1,680,49,,,,,,,,,,,,,,,,,
435626,1469899718896,,,,,,,0.02,0.09,0.98,-4.7,-0.3,0.0,680,47,,,,,,,,,,,,,,,,,
435646,1469899718916,0,210.6,173.0,11,177.1,,0.02,0.08,0.98,-4.7,-0.4,-0.0,680,47,13.878,0,39.538837,-122.332214,0.0,2.973,310.1,9,2,1.6,0,0.0,12,0.3217,0.0,6.72,1
435666,1469899718936,,,,,,,0.03,0.09,0.98,-4.8,-0.4,0.0,680,46,,,,,,,,,,,,,,,,,
435686,1469899718956,,,,,,,0.03,0.09,0.97,-4.8,-0.4,0.0,680,46,,,,,,,,,,,,,,,,,
435706,1469899718976,,,,,,,0.03,0.08,0.98,-4.8,-0.3,-0.1,700,46,,,,,,,,,,,,,,,,,
435726,1469899719003,,,,,,,0.03,0.09,0.98,-4.8,-0.2,-0.0,700,47,,,,,,,,,,,,,,,,,
435746,1469899719023,,,,11,,,0.03,0.09,0.98,-4.8,-0.1,0.0,680,47,14.783,0,39.538837,-122.332214,0.0,2.973,310.1,9,2,1.6,0,0.0,12,0.3217,,6.7217,1
435766,1469899719043,,,,,,,0.03,0.08,0.98,-4.8,-0.1,-0.1,680,47,,,,,,,,,,,,,,,,,
435786,1469899719063,,,,,,,0.03,0.08,0.98,-4.8,-0.1,-0.1,680,47,,,,,,,,,,,,,,,,,
435806,1469899719083,,,,,,,0.03,0.09,0.98,-4.8,-0.1,0.0,680,47,,,,,,,,,,,,,,,,,
435826,1469899719103,,,,,,,0.03,0.09,0.98,-4.8,-0.2,-0.0,680,46,,,,,,,,,,,,,,,,,
435846,1469899719123,0,211.3,173.7,11,178.2,,0.03,0.09,0.98,-4.8,-0.2,-0.1,680,46,14.468,0,39.538837,-122.332214,0.0,2.973,310.1,9,2,1.6,0,0.0,12,0.3217,0.0,6.7233,1
435866,1469899719143,,,,,,,0.03,0.1,0.97,-4.9,-0.3,-0.0,700,44,,,,,,,,,,,,,,,,,
435886,1469899719163,,,,,,,0.03,0.1,0.97,-4.9,-0.3,-0.0,720,43,,,,,,,,,,,,,,,,,
435906,1469899719183,,,,,,,0.03,0.09,0.98,-4.9,-0.4,-0.1,700,43,,,,,,,,,,,,,,,,,
435926,1469899719204,,,,,,,0.04,0.1,0.97,-4.9,-0.4,-0.1,700,43,,,,,,,,,,,,,,,,,
435946,1469899719224,,,,9,,,0.04,0.09,0.97,-4.9,-0.2,-0.1,680,43,16.744,0,39.538837,-122.332214,0.0,2.973,310.1,9,2,1.6,0,0.0,12,0.3217,,6.725,1
435966,1469899719244,,,,,,,0.04,0.09,0.98,-4.8,-0.2,-0.2,680,43,,,,,,,,,,,,,,,,,
435986,1469899719264,,,,,,,0.03,0.09,0.98,-4.9,-0.1,-0.2,680,43,,,,,,,,,,,,,,,,,
436006,1469899719284,,,,,,,0.03,0.1,0.98,-4.9,-0.1,-0.1,680,41,,,,,,,,,,,,,,,,,
436026,1469899719402,,,,,,,0.03,0.09,0.99,-4.9,-0.1,-0.1,680,41,,,,,,,,,,,,,,,,,
436046,1469899719422,0,210.4,172.8,10,176.8,13.49,0.03,0.09,0.99,-4.8,-0.1,-0.2,680,38,15.814,0,39.538837,-122.332214,0.0,2.973,310.1,9,2,1.6,0,0.0,12,0.3217,0.0,6.7283,1
436066,1469899719442,,,,,,,0.03,0.09,0.98,-4.9,-0.2,-0.1,700,38,,,,,,,,,,,,,,,,,
436086,1469899719462,,,,,,,0.03,0.1,0.98,-4.8,-0.2,-0.1,700,35,,,,,,,,,,,,,,,,,
436106,1469899719482,,,,,,,0.02,0.09,0.98,-4.8,-0.3,-0.2,680,35,,,,,,,,,,,,,,,,,
436126,1469899719502,,,,,,,0.03,0.1,0.98,-4.8,-0.2,-0.1,680,33,,,,,,,,,,,,,,,,,
436146,1469899719522,,,,10,,,0.03,0.1,0.98,-4.8,-0.2,-0.0,680,33,20.0,0,39.538837,-122.332214,0.0,2.973,310.1,9,2,1.6,0,0.0,12,0.3217,,6.7283,1
436166,1469899719542,,,,,,,0.02,0.09,0.98,-4.7,-0.2,-0.2,700,33,,,,,,,,,,,,,,,,,
436186,1469899719562,,,,,,,0.03,0.09,0.98,-4.7,-0.1,-0.2,700,30,,,,,,,,,,,,,,,,,
436206,1469899719582,,,,,,,0.03,0.09,0.98,-4.8,-0.2,-0.1,700,30,,,,,,,,,,,,,,,,,
436226,1469899719502,,,,,,,0.03,0.09,0.99,-4.7,-0.2,-0.1,720,32,,,,,,,,,,,,,,,,,
436246,1469899719522,0,210.7,173.3,11,177.5,,0.02,0.08,0.99,-4.7,-0.3,-0.2,720,32,23.333,0,39.538837,-122.332214,0.0,2.973,310.1,9,2,1.6,0,0.0,12,0.3217,0.0,6.73,1
436266,1469899719542,,,,,,,0.03,0.09,0.98,-4.7,-0.3,-0.1,700,33,,,,,,,,,,,,,,,,,
436286,1469899719562,,,,,,,0.03,0.09,0.98,-4.6,-0.1,-0.1,700,33,,,,,,,,,,,,,,,,,
436306,1469899719582,,,,,,,0.03,0.09,0.98,-4.6,-0.2,-0.2,680,33,,,,,,,,,,,,,,,,,
436326,1469899719602,,,,,,,0.03,0.09,0.98,-4.7,-0.1,-0.2,680,33,,,,,,,,,,,,,,,,,
436346,1469899719622,,,,9,,,0.03,0.1,0.98,-4.7,-0.1,-0.1,700,33,21.212,0,39.538837,-122.332214,0.0,2.973,310.1,9,2,1.6,0,0.0,12,0.3217,,6.7317,1
436366,1469899719642,,,,,,,0.03,0.09,0.99,-4.6,-0.1,-0.2,700,30,,,,,,,,,,,,,,,,,
436386,1469899719662,,,,,,,0.02,0.09,0.99,-4.6,-0.2,-0.2,700,30,,,,,,,,,,,,,,,,,
436406,1469899719682,,,,,,,0.02,0.09,0.99,-4.7,-0.3,-0.1,720,29,,,,,,,,,,,,,,,,,
436426,1469899719702,,,,,,,0.02,0.09,0.99,-4.6,-0.2,-0.1,700,29,,,,,,,,,,,,,,,,,
436446,1469899719722,0,209.9,172.5,10,176.1,,0.02,0.09,0.99,-4.6,-0.2,-0.2,680,29,23.333,0,39.538837,-122.332214,0.0,2.973,310.1,9,2,1.6,0,0.0,12,0.3217,0.0,6.7333,1
436466,1469899719742,,,,,,,0.03,0.09,0.99,-4.6,-0.0,-0.2,680,29,,,,,,,,,,,,,,,,,
436486,1469899719762,,,,,,,0.03,0.09,0.99,-4.5,0.0,-0.1,680,29,,,,,,,,,,,,,,,,,
436506,1469899719782,,,,,,,0.03,0.08,0.99,-4.5,-0.1,-0.2,700,29,,,,,,,,,,,,,,,,,
436526,1469899719802,,,,,,,0.02,0.08,0.99,-4.5,-0.0,-0.3,700,29,,,,,,,,,,,,,,,,,
436546,1469899719822,,,,11,,,0.03,0.09,0.98,-4.5,-0.2,-0.1,700,29,23.448,0,39.538837,-122.332214,0.0,2.973,310.1,9,2,1.6,0,0.0,12,0.3217,,6.735,1
436566,1469899719842,,,,,,,0.03,0.09,0.98,-4.5,-0.3,-0.2,740,27,,,,,,,,,,,,,,,,,
436586,1469899719862,,,,,,,0.03,0.08,0.98,-4.4,-0.4,-0.3,700,27,,,,,,,,,,,,,,,,,
436606,1469899719882,,,,,,,0.03,0.09,0.98,-4.4,-0.3,-0.2,700,27,,,,,,,,,,,,,,,,,
436626,1469899719895,,,,,,,0.04,0.08,0.98,-4.4,-0.1,-0.1,700,26,,,,,,,,,,,,,,,,,
436646,1469899719915,0,210.9,173.4,10,177.5,,0.03,0.08,0.99,-4.3,-0.1,-0.2,700,26,27.407,0,39.538837,-122.332214,0.0,2.973,310.1,9,2,1.6,0,0.0,12,0.3217,0.0,6.7367,1
436666,1469899719935,,,,,,,0.03,0.08,0.99,-4.3,-0.1,-0.1,700,26,,,,,,,,,,,,,,,,,
436686,1469899719955,,,,,,,0.03,0.09,0.99,-4.3,-0.2,0.0,720,26,,,,,,,,,,,,,,,,,
436706,1469899719975,,,,,,,0.03,0.09,0.98,-4.3,-0.3,0.0,720,26,,,,,,,,,,,,,,,,,
436726,1469899720000,,,,,,,0.03,0.09,0.99,-4.3,-0.3,-0.0,740,26,,,,,,,,,,,,,,,,,
436746,1469899720020,,,,11,,,0.04,0.09,0.98,-4.3,-0.1,-0.0,740,26,27.692,0,39.538837,-122.332214,0.0,2.973,310.1,9,2,1.6,0,0.0,12,0.3217,,6.7383,1
436766,1469899720040,,,,,,,0.03,0.09,0.98,-4.3,-0.0,0.0,720,26,,,,,,,,,,,,,,,,,
436786,1469899720060,,,,,,,0.03,0.08,0.99,-4.2,-0.1,-0.1,700,26,,,,,,,,,,,,,,,,,
436806,1469899720080,,,,,,,0.03,0.08,0.98,-4.1,-0.2,-0.2,700,24,,,,,,,,,,,,,,,,,
436826,1469899720201,,,,,,,0.03,0.08,0.98,-4.1,-0.1,-0.2,720,24,,,,,,,,,,,,,,,,,
436846,1469899720221,0,209.9,172.4,11,175.8,,0.04,0.08,0.98,-4.1,0.0,-0.1,720,24,26.923,0,39.538837,-122.332214,0.0,2.973,310.1,9,2,1.6,0,0.0,12,0.3217,0.0,6.7417,1
436866,1469899720241,,,,,,,0.03,0.08,0.99,-4.1,-0.0,-0.2,720,24,,,,,,,,,,,,,,,,,
436886,1469899720261,,,,,,,0.03,0.08,0.99,-4.1,0.0,-0.2,720,24,,,,,,,,,,,,,,,,,
436906,1469899720281,,,,,,,0.03,0.09,0.98,-4.2,-0.0,-0.1,740,24,,,,,,,,,,,,,,,,,
436926,1469899720301,,,,,,,0.03,0.09,0.98,-4.2,-0.0,-0.1,720,23,,,,,,,,,,,,,,,,,
436946,1469899720321,,,,11,,,0.03,0.08,0.98,-4.1,-0.0,-0.2,700,23,30.0,0,39.538837,-122.332214,0.0,2.973,310.1,9,2,1.6,0,0.0,12,0.3217,,6.7417,1
436966,1469899720341,,,,,,,0.03,0.08,0.98,-4.1,0.1,-0.2,700,23,,,,,,,,,,,,,,,,,
436986,1469899720361,,,,,,,0.03,0.09,0.97,-4.1,0.1,-0.1,700,23,,,,,,,,,,,,,,,,,
437006,1469899720381,,,,,,,0.03,0.09,0.97,-4.1,-0.0,-0.1,700,21,,,,,,,,,,,,,,,,,
437026,1469899720301,,,,,,,0.03,0.08,0.97,-4.0,-0.0,-0.2,700,21,,,,,,,,,,,,,,,,,
437046,1469899720321,0,210.9,173.2,11,177.0,13.65,0.03,0.09,0.97,-4.0,-0.0,-0.1,720,21,30.435,0,39.538837,-122.332214,0.0,2.973,310.1,9,2,1.6,0,0.0,12,0.3217,0.0,6.7433,1
437066,1469899720341,,,,,,,0.04,0.09,0.98,-4.0,0.1,-0.1,740,21,,,,,,,,,,,,,,,,,
437086,1469899720361,,,,,,,0.04,0.08,0.98,-3.9,0.1,-0.1,720,20,,,,,,,,,,,,,,,,,
437106,1469899720381,,,,,,,0.03,0.08,0.98,-3.9,0.1,-0.2,720,20,,,,,,,,,,,,,,,,,
437126,1469899720401,,,,,,,0.04,0.09,0.98,-4.0,0.0,-0.1,700,20,,,,,,,,,,,,,,,,,
437146,1469899720421,,,,11,,,0.04,0.09,0.98,-3.9,0.1,-0.1,700,20,36.0,0,39.538837,-122.332214,0.0,2.973,310.1,9,2,1.6,0,0.0,12,0.3217,,6.745,1
437166,1469899720441,,,,,,,0.03,0.08,0.99,-3.9,0.1,-0.2,700,18,,,,,,,,,,,,,,,,,
437186,1469899720461,,,,,,,0.04,0.08,0.99,-3.9,0.2,-0.1,700,18,,,,,,,,,,,,,,,,,
437206,1469899720481,,,,,,,0.04,0.08,0.98,-3.9,0.3,-0.0,720,18,,,,,,,,,,,,,,,,,
437226,1469899720502,,,,,,,0.04,0.08,0.98,-3.9,0.2,-0.1,740,18,,,,,,,,,,,,,,,,,
437246,1469899720522,0,211.2,173.3,11,177.1,,0.03,0.07,0.98,-3.8,0.2,-0.2,740,18,38.889,0,39.538837,-122.332214,0.0,2.973,310.1,9,2,1.6,0,0.0,12,0.3217,0.0,6.7467,1
437266,1469899720542,,,,,,,0.03,0.08,0.98,-3.8,0.0,-0.2,720,15,,,,,,,,,,,,,,,,,
437286,1469899720562,,,,,,,0.04,0.09,0.98,-3.8,0.1,-0.1,700,15,,,,,,,,,,,,,,,,,
437306,1469899720582,,,,,,,0.04,0.08,0.99,-3.8,0.1,-0.3,700,15,,,,,,,,,,,,,,,,,
437326,1469899720601,,,,,,,0.04,0.09,0.99,-3.7,0.2,-0.2,700,15,,,,,,,,,,,,,,,,,
437346,1469899720621,,,,11,,,0.04,0.09,0.99,-3.7,0.1,-0.1,700,1538461,46.667,0,39.538837,-122.332214,0.0,2.973,310.1,9,2,1.6,0,0.0,12,0.3217,,6.7483,1
437366,1469899720641,,,,,,,0.04,0.08,0.99,-3.7,0.0,-0.2,700,0,,,,,,,,,,,,,,,,,
437386,1469899720661,,,,,,,0.04,0.08,0.99,-3.6,-0.0,-0.3,740,0,,,,,,,,,,,,,,,,,
437406,1469899720681,,,,,,,0.05,0.08,0.98,-3.6,-0.0,-0.2,740,0,,,,,,,,,,,,,,,,,
437426,1469899720700,,,,,,,0.05,0.08,0.98,-3.5,0.1,-0.2,720,0,,,,,,,,,,,,,,,,,
437446,1469899720720,0,212.1,173.7,11,176.9,,0.05,0.08,0.99,-3.5,0.1,-0.2,700,0,0.0,0,39.538837,-122.332214,0.0,2.973,310.1,9,2,1.6,0,0.0,12,0.3217,0.0,6.75,1
437466,1469899720740,,,,,,,0.05,0.07,0.99,-3.5,0.1,-0.2,700,0,,,,,,,,,,,,,,,,,
437486,1469899720760,,,,,,,0.05,0.08,0.99,-3.5,0.1,-0.1,700,0,,,,,,,,,,,,,,,,,
437506,1469899720780,,,,,,,0.05,0.08,0.99,-3.4,0.0,-0.1,700,0,,,,,,,,,,,,,,,,,
437526,1469899720802,,,,,,,0.05,0.08,0.99,-3.4,-0.0,-0.2,700,0,,,,,,,,,,,,,,,,,
437546,1469899720822,,,,10,,,0.06,0.08,0.98,-3.3,-0.0,-0.2,700,0,0.0,0,39.538837,-122.332214,0.0,2.973,310.1,9,2,1.6,0,0.0,12,0.3217,,6.7517,1
437566,1469899720842,,,,,,,0.06,0.08,0.99,-3.3,0.2,-0.1,720,0,,,,,,,,,,,,,,,,,
437586,1469899720862,,,,,,,0.05,0.08,0.99,-3.2,0.2,-0.2,700,0,,,,,,,,,,,,,,,,,
437606,1469899720882,,,,,,,0.04,0.08,0.99,-3.1,0.3,-0.2,700,0,,,,,,,,,,,,,,,,,
437626,1469899720994,,,,,,,0.04,0.09,0.99,-3.2,0.2,-0.1,700,0,,,,,,,,,,,,,,,,,
