"Interval"|"ms"|0|0|1,"Utc"|"ms"|0|0|1,"FuelLevel"|"F"|0|100|5,"OilTemp"|"F"|0.0|300.0|5,"Coolant"|"F"|0.0|300.0|5,"OilPress"|"PSI"|0|150|10,"EngineTemp"|"F"|0.0|300.0|5,"Battery"|"Volts"|0.0|20.0|1,"AccelX"|"G"|-3.0|3.0|50,"AccelY"|"G"|-3.0|3.0|50,"AccelZ"|"G"|-3.0|3.0|50,"Yaw"|"Deg/Sec"|-300.0|300.0|50,"Pitch"|"Deg/Sec"|-300.0|300.0|50,"Roll"|"Deg/Sec"|-300.0|300.0|50,"RPM"|""|0|10000|50,"Driveshaft"|"RPM"|0|5000|50,"GearRatio"|""|-5.0|5.0|10,"Gear"|""|-1|5|10,"Latitude"|"Degrees"|-180.0|180.0|10,"Longitude"|"Degrees"|-180.0|180.0|10,"Speed"|"MPH"|0.0|150.0|10,"Distance"|"Miles"|0.0|0.0|10,"Altitude"|"Feet"|0.0|4000.0|10,"GPSSats"|""|0|20|10,"GPSQual"|""|0|5|10,"GPSDOP"|""|0.0|20.0|10,"LapCount"|""|0|0|10,"LapTime"|"Min"|0.0|0.0|10,"Sector"|""|0|0|10,"SectorTime"|"Min"|0.0|0.0|10,"PredTime"|"Min"|0.0|0.0|5,"ElapsedTime"|"Min"|0.0|0.0|10,"CurrentLap"|""|0|0|10
5066,1469902611314,,,,,,,0.33,0.35,1.16,-8.5,2.4,-0.4,2980,3576,,,,,,,,,,,,,,,,,
5086,1469902611334,,,,,,,0.32,0.33,1.17,-8.6,2.8,-0.2,2920,3593,,,,,,,,,,,,,,,,,
5106,1469902611354,,,,,,,0.31,0.32,1.21,-8.6,2.0,-0.4,2920,3544,,,,,,,,,,,,,,,,,
5126,1469902611374,,,,,,,0.34,0.39,1.24,-8.6,2.3,-0.7,2900,3593,,,,,,,,,,,,,,,,,
5146,1469902611394,,,,46,,,0.35,0.39,1.25,-8.9,3.3,-0.6,2840,3576,0.828,5,39.537308,-122.331215,65.29,0.002,309.0,9,2,2.0,0,0.0,-1,0.0,,0.0,0
5166,1469902611412,,,,,,,0.35,0.41,1.2,-8.8,3.3,-0.7,2820,3593,,,,,,,,,,,,,,,,,
5186,1469902611432,,,,,,,0.35,0.42,1.17,-9.0,3.6,-0.4,2880,3544,,,,,,,,,,,,,,,,,
5206,1469902611452,,,,,,,0.34,0.41,1.14,-9.2,2.9,-0.1,2760,3593,,,,,,,,,,,,,,,,,
5226,1469902611472,,,,,,,0.33,0.33,1.1,-9.1,2.2,0.1,2700,3544,,,,,,,,,,,,,,,,,
5246,1469902611492,0,285.2,210.1,41,211.6,,0.33,0.36,1.12,-8.8,2.0,-0.1,2700,3527,0.766,5,39.537277,-122.331215,64.5,0.004,308.4,9,2,2.0,0,0.0,-1,0.0,0.0,0.0,0
5266,1469902611515,,,,,,,0.34,0.39,1.12,-9.0,1.9,-0.4,2660,3544,,,,,,,,,,,,,,,,,
5286,1469902611535,,,,,,,0.3,0.44,1.08,-9.4,1.8,0.0,2620,3544,,,,,,,,,,,,,,,,,
5306,1469902611555,,,,,,,0.29,0.38,1.07,-9.5,1.1,0.1,2580,3512,,,,,,,,,,,,,,,,,
5326,1469902611575,,,,,,,0.3,0.42,1.12,-9.4,0.3,0.1,2560,3527,,,,,,,,,,,,,,,,,
5346,1469902611595,,,,42,,,0.27,0.4,1.12,-9.7,0.2,0.6,2520,3480,0.741,5,39.53725,-122.3312,63.76,0.006,308.3,9,2,2.0,0,0.0,-1,0.0,,0.0,0
5366,1469902611600,,,,,,,0.29,0.35,1.1,-9.3,0.8,0.8,2580,3527,,,,,,,,,,,,,,,,,
5386,1469902611620,,,,,,,0.32,0.38,1.08,-9.2,1.3,1.2,2520,3418,,,,,,,,,,,,,,,,,
5406,1469902611640,,,,,,,0.33,0.35,1.08,-9.2,1.5,1.0,2400,3527,,,,,,,,,,,,,,,,,
5426,1469902611660,,,,,,,0.3,0.37,1.05,-9.4,1.1,1.1,2380,3527,,,,,,,,,,,,,,,,,
5446,1469902611680,0,285.7,210.4,31,211.8,,0.3,0.38,1.11,-9.7,0.9,1.0,2420,3464,0.681,5,39.537228,-122.3312,63.21,0.007,308.0,9,2,2.0,0,0.0,-1,0.0,0.0,0.0,0
5466,1469902611704,,,,,,,0.32,0.41,1.18,-9.7,0.6,0.8,2340,3464,,,,,,,,,,,,,,,,,
5486,1469902611724,,,,,,,0.34,0.4,1.16,-9.9,1.3,1.1,2320,3480,,,,,,,,,,,,,,,,,
5506,1469902611744,,,,,,,0.33,0.4,1.15,-10.1,2.2,1.3,2300,3449,,,,,,,,,,,,,,,,,
5526,1469902611764,,,,,,,0.32,0.45,1.12,-10.1,2.1,0.6,2240,3449,,,,,,,,,,,,,,,,,
5546,1469902611784,,,,35,,,0.33,0.43,1.09,-9.8,1.9,0.2,2220,3449,0.641,5,39.537201,-122.3312,62.55,0.009,308.0,9,2,2.0,0,0.0,-1,0.0,,0.0,0
5566,1469902611807,,,,,,,0.3,0.38,1.09,-9.8,1.4,0.5,2160,3433,,,,,,,,,,,,,,,,,
5586,1469902611827,,,,,,,0.29,0.37,1.1,-9.9,1.1,0.7,2140,3449,,,,,,,,,,,,,,,,,
5606,1469902611847,,,,,,,0.29,0.36,1.1,-9.8,0.7,0.6,2120,3403,,,,,,,,,,,,,,,,,
5626,1469902611867,,,,,,,0.31,0.36,1.11,-9.8,0.8,0.5,2100,3403,,,,,,,,,,,,,,,,,
5646,1469902611887,0,286.0,210.5,34,211.8,,0.35,0.39,1.06,-10.0,1.3,0.5,2060,3403,0.614,0,39.537178,-122.331192,61.93,0.011,308.1,9,2,2.0,0,0.0,-1,0.0,0.0,0.0,0
5666,1469902612000,,,,,,,0.37,0.38,1.02,-10.0,1.4,0.6,2000,3433,,,,,,,,,,,,,,,,,
5686,1469902612020,,,,,,,0.35,0.39,1.02,-10.2,2.3,0.6,2020,3387,,,,,,,,,,,,,,,,,
5706,1469902612040,,,,,,,0.3,0.37,1.0,-10.5,2.7,1.1,1960,3387,,,,,,,,,,,,,,,,,
5726,1469902612060,,,,,,,0.28,0.34,1.0,-10.6,2.6,1.6,1960,3387,,,,,,,,,,,,,,,,,
5746,1469902612080,,,,27,,,0.28,0.4,1.05,-10.8,2.3,1.6,1920,3387,0.567,0,39.537128,-122.331192,60.56,0.014,308.2,9,2,2.0,0,0.0,-1,0.0,,0.0,0
5766,1469902612100,,,,,,,0.29,0.42,1.06,-10.9,2.2,1.4,1860,3343,,,,,,,,,,,,,,,,,
5786,1469902612120,,,,,,,0.31,0.48,1.09,-11.1,2.6,1.4,1840,3358,,,,,,,,,,,,,,,,,
5806,1469902612140,,,,,,,0.31,0.47,1.04,-11.0,2.9,1.6,1800,3343,,,,,,,,,,,,,,,,,
5826,1469902612160,,,,,,,0.29,0.47,1.0,-10.9,2.7,1.5,1780,3387,,,,,,,,,,,,,,,,,
5846,1469902612180,0,285.2,210.1,23,211.5,,0.25,0.46,0.98,-10.8,2.4,1.5,1740,3343,0.526,0,39.537128,-122.331192,60.56,0.014,308.2,9,2,2.0,0,0.0,-1,0.0,0.0,0.0,0
5866,1469902612107,,,,,,,0.22,0.5,0.97,-11.0,1.8,1.5,1720,3343,,,,,,,,,,,,,,,,,
5886,1469902612127,,,,,,,0.2,0.51,0.97,-11.1,1.7,1.3,1700,3329,,,,,,,,,,,,,,,,,
5906,1469902612147,,,,,,,0.23,0.48,1.02,-11.0,1.1,1.0,1660,3343,,,,,,,,,,,,,,,,,
5926,1469902612167,,,,,,,0.22,0.5,0.99,-11.1,0.9,1.2,1600,3329,,,,,,,,,,,,,,,,,
5946,1469902612187,,,,15,,,0.25,0.45,0.97,-11.1,0.9,1.1,1580,3300,0.477,0,39.537106,-122.331177,60.06,0.016,308.5,9,2,2.0,0,0.0,-1,0.0,,0.0,0
5966,1469902612207,,,,,,,0.26,0.45,0.95,-11.1,-0.1,0.6,1560,3343,,,,,,,,,,,,,,,,,
5986,1469902612227,,,,,,,0.25,0.49,0.97,-11.3,-0.5,0.5,1520,3464,,,,,,,,,,,,,,,,,
6006,1469902612247,,,,,,,0.27,0.51,0.96,-11.4,0.0,0.5,1520,3272,,,,,,,,,,,,,,,,,
6026,1469902612267,,,,,,,0.25,0.44,0.94,-11.5,-0.8,0.5,1500,3286,,,,,,,,,,,,,,,,,
6046,1469902612287,0,286.4,210.9,17,212.4,13.88,0.26,0.44,0.95,-11.4,-0.7,0.4,1420,3258,0.446,0,39.537083,-122.331177,59.55,0.018,308.8,9,2,2.0,0,0.0,-1,0.0,0.0,0.0,0
6066,1469902612307,,,,,,,0.24,0.46,0.95,-11.7,-0.9,0.5,1400,3218,,,,,,,,,,,,,,,,,
6086,1469902612327,,,,,,,0.24,0.47,1.01,-11.8,-0.2,0.6,1360,3244,,,,,,,,,,,,,,,,,
6106,1469902612347,,,,,,,0.25,0.5,1.02,-12.2,-0.3,0.6,1340,3258,,,,,,,,,,,,,,,,,
6126,1469902612367,,,,,,,0.25,0.53,1.06,-12.4,-0.7,0.6,1340,3258,,,,,,,,,,,,,,,,,
6146,1469902612387,,,,14,,,0.28,0.48,1.06,-12.4,-0.7,0.7,1280,3272,0.391,0,39.537056,-122.331162,59.13,0.02,308.9,9,2,2.0,0,0.0,-1,0.0,,0.0,0
6166,1469902612405,,,,,,,0.28,0.49,1.05,-12.7,-0.8,0.7,1240,3258,,,,,,,,,,,,,,,,,
6186,1469902612425,,,,,,,0.27,0.51,1.06,-12.5,-0.3,0.3,1220,3258,,,,,,,,,,,,,,,,,
6206,1469902612445,,,,,,,0.28,0.53,1.05,-12.8,0.3,0.5,1180,3258,,,,,,,,,,,,,,,,,
6226,1469902612465,,,,,,,0.32,0.54,1.04,-12.9,0.6,0.6,1140,3230,,,,,,,,,,,,,,,,,
6246,1469902612485,0,285.7,210.6,11,212.0,,0.32,0.53,1.01,-12.7,0.7,0.6,1140,3218,0.353,0,39.537033,-122.331162,58.59,0.021,309.0,9,2,2.0,0,0.0,-1,0.0,0.0,0.0,0
6266,1469902612504,,,,,,,0.31,0.54,1.01,-13.1,1.0,0.4,1100,3230,,,,,,,,,,,,,,,,,
6286,1469902612524,,,,,,,0.3,0.52,1.0,-13.2,0.6,0.1,1040,3190,,,,,,,,,,,,,,,,,
6306,1469902612544,,,,,,,0.3,0.53,0.99,-13.5,0.5,0.2,1000,3204,,,,,,,,,,,,,,,,,
6326,1469902612564,,,,,,,0.31,0.53,1.0,-13.7,0.3,0.4,980,3218,,,,,,,,,,,,,,,,,
6346,1469902612584,,,,9,,,0.29,0.54,1.01,-13.8,0.4,0.5,980,3204,0.303,0,39.53701,-122.331154,57.99,0.023,309.1,9,2,2.0,0,0.0,-1,0.0,,0.0,0
6366,1469902612604,,,,,,,0.28,0.57,1.06,-14.0,0.8,0.6,920,3178,,,,,,,,,,,,,,,,,
6386,1469902612624,,,,,,,0.27,0.58,1.05,-14.3,0.6,0.5,920,3190,,,,,,,,,,,,,,,,,
6406,1469902612644,,,,,,,0.25,0.55,1.07,-14.4,0.9,0.3,900,3178,,,,,,,,,,,,,,,,,
6426,1469902612664,,,,,,,0.24,0.58,1.07,-14.6,1.1,0.1,880,3152,,,,,,,,,,,,,,,,,
6446,1469902612684,0,287.2,211.3,5,212.7,,0.23,0.6,1.04,-14.8,1.1,-0.0,840,3138,0.265,0,39.536991,-122.331154,57.27,0.024,309.3,9,2,2.0,0,0.0,-1,0.0,0.0,0.0,0
6466,1469902612804,,,,,,,0.22,0.63,1.03,-15.1,1.0,-0.4,840,3138,,,,,,,,,,,,,,,,,
6486,1469902612824,,,,,,,0.22,0.61,1.01,-15.4,1.0,-0.4,820,3101,,,,,,,,,,,,,,,,,
6506,1469902612844,,,,,,,0.23,0.61,1.01,-15.4,0.5,-0.5,820,3138,,,,,,,,,,,,,,,,,
6526,1469902612864,,,,,,,0.23,0.62,1.0,-15.6,0.4,-0.2,820,3113,,,,,,,,,,,,,,,,,
6546,1469902612884,,,,8,,,0.23,0.62,1.0,-15.4,0.5,-0.3,840,3126,0.271,0,39.536945,-122.331123,56.2,0.028,309.6,9,2,2.0,0,0.0,-1,0.0,,0.0,0
6566,1469902612904,,,,,,,0.24,0.61,0.99,-15.5,0.9,-0.4,880,3138,,,,,,,,,,,,,,,,,
6586,1469902612924,,,,,,,0.23,0.63,0.98,-15.6,1.3,-0.3,920,3138,,,,,,,,,,,,,,,,,
6606,1469902612944,,,,,,,0.2,0.62,0.99,-15.6,1.4,-0.4,960,3113,,,,,,,,,,,,,,,,,
6626,1469902612964,,,,,,,0.18,0.63,0.99,-15.5,1.4,-0.4,980,3113,,,,,,,,,,,,,,,,,
6646,1469902612984,0,286.5,210.8,6,212.2,,0.17,0.64,1.01,-15.4,1.7,-0.6,1020,3126,0.328,0,39.536945,-122.331123,56.2,0.028,309.6,9,2,2.0,0,0.0,-1,0.0,0.0,0.0,0
6666,1469902612901,,,,,,,0.16,0.66,0.98,-15.5,1.1,-0.8,1040,3101,,,,,,,,,,,,,,,,,
6686,1469902612921,,,,,,,0.14,0.67,0.98,-15.5,0.4,-0.7,1080,3101,,,,,,,,,,,,,,,,,
6706,1469902612941,,,,,,,0.13,0.65,0.95,-15.6,0.2,-0.6,1100,3126,,,,,,,,,,,,,,,,,
6726,1469902612961,,,,,,,0.13,0.66,0.95,-15.6,0.1,-0.5,1120,3101,,,,,,,,,,,,,,,,,
6746,1469902612981,,,,9,,,0.13,0.69,0.97,-15.6,-0.1,-0.6,1140,3101,0.363,0,39.536922,-122.331123,55.88,0.029,309.7,9,2,2.0,0,0.0,-1,0.0,,0.0,0
6766,1469902613006,,,,,,,0.14,0.7,0.99,-15.7,-0.6,-0.5,1140,3101,,,,,,,,,,,,,,,,,
6786,1469902613026,,,,,,,0.15,0.69,1.02,-15.8,-0.3,-0.5,1160,3089,,,,,,,,,,,,,,,,,
6806,1469902613046,,,,,,,0.15,0.69,1.03,-15.7,0.1,-0.4,1160,3101,,,,,,,,,,,,,,,,,
6826,1469902613066,,,,,,,0.16,0.69,1.03,-15.7,0.3,-0.4,1180,3064,,,,,,,,,,,,,,,,,
6846,1469902613086,0,286.9,211.1,10,212.5,,0.17,0.66,1.02,-15.7,-0.1,-0.3,1160,3089,0.376,0,39.5369,-122.331108,55.41,0.031,309.8,9,2,2.0,0,0.0,-1,0.0,0.0,0.0,0
6866,1469902613106,,,,,,,0.19,0.67,1.06,-15.7,-0.1,-0.3,1180,3076,,,,,,,,,,,,,,,,,
6886,1469902613126,,,,,,,0.19,0.67,1.08,-15.9,-0.1,-0.1,1220,3064,,,,,,,,,,,,,,,,,
6906,1469902613146,,,,,,,0.17,0.66,1.08,-15.9,-0.3,-0.1,1180,3052,,,,,,,,,,,,,,,,,
6926,1469902613166,,,,,,,0.15,0.59,1.1,-15.7,-0.5,0.0,1260,3040,,,,,,,,,,,,,,,,,
6946,1469902613186,,,,13,,,0.14,0.6,1.09,-15.8,-0.7,-0.0,1300,3040,0.419,0,39.53688,-122.3311,55.02,0.032,310.0,9,2,2.0,0,0.0,-1,0.0,,0.0,0
6966,1469902613207,,,,,,,0.13,0.63,1.11,-15.8,-1.1,-0.2,1360,3040,,,,,,,,,,,,,,,,,
6986,1469902613227,,,,,,,0.11,0.61,1.1,-15.9,-1.7,-0.1,1460,3052,,,,,,,,,,,,,,,,,
7006,1469902613247,,,,,,,0.09,0.6,1.11,-16.1,-2.0,0.2,1520,3027,,,,,,,,,,,,,,,,,
7026,1469902613267,,,,,,,0.06,0.61,1.08,-16.2,-2.3,0.3,1600,3040,,,,,,,,,,,,,,,,,
7046,1469902613287,0,285.2,210.0,19,211.4,13.81,0.07,0.61,1.09,-16.2,-2.5,0.6,1660,3040,0.542,0,39.536858,-122.331085,54.61,0.034,310.1,9,2,2.0,0,0.0,-1,0.0,0.0,0.0,0
7066,1469902613307,,,,,,,0.08,0.58,1.08,-16.4,-2.8,1.1,1760,3015,,,,,,,,,,,,,,,,,
7086,1469902613327,,,,,,,0.07,0.6,1.1,-16.5,-2.5,1.5,1840,3015,,,,,,,,,,,,,,,,,
7106,1469902613347,,,,,,,0.08,0.65,1.11,-16.6,-2.0,1.5,1960,3040,,,,,,,,,,,,,,,,,
7126,1469902613367,,,,,,,0.11,0.68,1.12,-16.7,-1.9,1.5,2140,3015,,,,,,,,,,,,,,,,,
7146,1469902613387,,,,24,,,0.12,0.69,1.13,-16.9,-1.1,1.3,2240,3004,0.743,5,39.536839,-122.33107,54.34,0.036,310.3,9,2,2.0,0,0.0,-1,0.0,,0.0,0
7166,1469902613404,,,,,,,0.16,0.67,1.14,-17.1,-0.3,1.3,2340,3015,,,,,,,,,,,,,,,,,
7186,1469902613424,,,,,,,0.16,0.67,1.08,-17.2,-0.6,1.3,2480,3015,,,,,,,,,,,,,,,,,
7206,1469902613444,,,,,,,0.16,0.72,1.04,-17.2,-0.9,1.2,2640,3004,,,,,,,,,,,,,,,,,
7226,1469902613464,,,,,,,0.16,0.67,1.02,-17.2,-1.6,1.3,2840,3015,,,,,,,,,,,,,,,,,
7246,1469902613484,0,285.2,210.5,38,212.0,,0.15,0.68,1.02,-16.8,-1.5,1.2,2980,2992,0.999,4,39.536819,-122.331062,54.19,0.037,310.3,9,2,2.0,0,0.0,-1,0.0,0.0,0.0,0
7266,1469902613603,,,,,,,0.15,0.69,1.06,-16.9,-1.1,1.0,3180,2992,,,,,,,,,,,,,,,,,
7286,1469902613623,,,,,,,0.15,0.73,1.06,-17.2,-1.5,0.9,3180,2980,,,,,,,,,,,,,,,,,
7306,1469902613643,,,,,,,0.12,0.7,1.07,-17.3,-1.7,0.5,3220,2992,,,,,,,,,,,,,,,,,
7326,1469902613663,,,,,,,0.1,0.7,1.06,-17.2,-2.1,0.0,3260,2992,,,,,,,,,,,,,,,,,
7346,1469902613683,,,,45,,,0.1,0.72,1.08,-17.2,-2.3,-0.3,3240,2980,1.09,4,39.536781,-122.331047,53.26,0.04,310.7,9,2,2.0,0,0.0,-1,0.0,,0.0,0
7366,1469902613703,,,,,,,0.1,0.69,1.1,-17.4,-2.3,-0.3,3240,2992,,,,,,,,,,,,,,,,,
7386,1469902613723,,,,,,,0.09,0.68,1.09,-17.3,-2.7,-0.3,3200,2958,,,,,,,,,,,,,,,,,
7406,1469902613743,,,,,,,0.06,0.68,1.06,-17.1,-2.6,-0.2,3320,2946,,,,,,,,,,,,,,,,,
7426,1469902613763,,,,,,,0.07,0.66,1.04,-17.0,-2.7,-0.2,3340,2958,,,,,,,,,,,,,,,,,
7446,1469902613783,0,286.5,211.0,49,212.4,,0.05,0.67,1.05,-17.0,-2.6,-0.2,3500,2969,1.136,3,39.536781,-122.331047,53.26,0.04,310.7,9,2,2.0,0,0.0,-1,0.0,0.0,0.0,0
7466,1469902613703,,,,,,,0.04,0.71,0.99,-16.9,-3.1,-0.4,3460,2958,,,,,,,,,,,,,,,,,
7486,1469902613723,,,,,,,0.04,0.73,1.01,-17.1,-2.7,-0.4,3560,2924,,,,,,,,,,,,,,,,,
7506,1469902613743,,,,,,,0.05,0.73,0.99,-17.1,-2.4,-0.2,3680,2958,,,,,,,,,,,,,,,,,
7526,1469902613763,,,,,,,0.05,0.72,1.07,-17.0,-2.2,0.0,3680,2958,,,,,,,,,,,,,,,,,
7546,1469902613783,,,,64,,,0.03,0.72,1.13,-17.2,-0.9,0.2,3840,2980,1.289,3,39.536762,-122.331024,52.85,0.042,310.9,9,2,2.0,0,0.0,-1,0.0,,0.0,0
7566,1469902613807,,,,,,,0.02,0.67,1.14,-17.3,-0.5,0.3,3800,2992,,,,,,,,,,,,,,,,,
7586,1469902613827,,,,,,,0.01,0.61,1.18,-17.4,-0.1,0.3,3740,2969,,,,,,,,,,,,,,,,,
7606,1469902613847,,,,,,,0.03,0.66,1.13,-17.3,-0.3,0.2,3820,2969,,,,,,,,,,,,,,,,,
7626,1469902613867,,,,,,,0.04,0.67,1.15,-17.3,-0.6,0.2,3680,2935,,,,,,,,,,,,,,,,,
7646,1469902613887,0,285.5,210.5,47,211.9,,0.06,0.68,1.13,-17.6,-1.0,0.5,3640,2935,1.291,3,39.536743,-122.331009,52.71,0.043,311.0,9,2,2.0,0,0.0,-1,0.0,0.0,0.0,0
7666,1469902613900,,,,,,,0.07,0.67,1.13,-17.6,-1.0,0.6,3700,2912,,,,,,,,,,,,,,,,,
7686,1469902613920,,,,,,,0.07,0.64,1.14,-17.6,-1.5,1.1,3700,2935,,,,,,,,,,,,,,,,,
7706,1469902613940,,,,,,,0.05,0.68,1.15,-17.8,-1.3,1.1,3740,2946,,,,,,,,,,,,,,,,,
7726,1469902613960,,,,,,,0.07,0.63,1.1,-17.4,-2.2,1.0,3780,2980,,,,,,,,,,,,,,,,,
7746,1469902613980,,,,38,,,0.08,0.63,1.11,-17.4,-2.5,1.0,3760,2992,1.285,3,39.536728,-122.330994,52.56,0.045,311.1,9,2,2.0,0,0.0,-1,0.0,,0.0,0
7766,1469902614007,,,,,,,0.08,0.65,1.07,-17.4,-1.9,0.8,3940,3113,,,,,,,,,,,,,,,,,
7786,1469902614027,,,,,,,0.1,0.68,1.14,-17.4,-1.7,1.0,4000,3089,,,,,,,,,,,,,,,,,
7806,1469902614047,,,,,,,0.09,0.73,1.19,-17.6,-1.1,0.9,4000,2935,,,,,,,,,,,,,,,,,
7826,1469902614067,,,,,,,0.1,0.7,1.14,-17.4,0.3,0.9,4200,2992,,,,,,,,,,,,,,,,,
7846,1469902614087,0,285.0,211.1,64,212.5,,0.1,0.65,1.18,-17.5,1.2,1.1,4060,2980,1.365,3,39.536709,-122.330986,52.13,0.046,311.3,9,2,2.0,0,0.0,-1,0.0,0.0,0.0,0
7866,1469902614107,,,,,,,0.09,0.67,1.26,-17.8,1.2,1.0,4060,2992,,,,,,,,,,,,,,,,,
7886,1469902614127,,,,,,,0.1,0.67,1.21,-17.8,1.5,0.6,4120,2992,,,,,,,,,,,,,,,,,
7906,1469902614147,,,,,,,0.14,0.66,1.15,-17.7,1.0,0.5,4120,2992,,,,,,,,,,,,,,,,,
7926,1469902614167,,,,,,,0.14,0.67,1.14,-17.6,1.0,0.7,4020,3004,,,,,,,,,,,,,,,,,
7946,1469902614187,,,,52,,,0.09,0.68,1.07,-17.4,1.2,0.3,4160,3004,1.318,3,39.53669,-122.330971,51.78,0.048,311.5,9,2,2.0,0,0.0,-1,0.0,,0.0,0
7966,1469902614207,,,,,,,0.08,0.65,0.98,-17.3,0.6,0.2,4020,3004,,,,,,,,,,,,,,,,,
7986,1469902614227,,,,,,,0.05,0.66,0.99,-17.2,-0.8,-0.1,3980,3004,,,,,,,,,,,,,,,,,
8006,1469902614247,,,,,,,0.01,0.67,0.97,-16.7,-1.8,-0.4,3960,2992,,,,,,,,,,,,,,,,,
8026,1469902614267,,,,,,,0.01,0.66,0.85,-16.6,-3.6,-0.4,4100,3004,,,,,,,,,,,,,,,,,
8046,1469902614287,0,286.2,210.4,66,211.7,13.88,0.0,0.69,0.84,-16.4,-4.5,-0.6,3960,3004,1.318,3,39.536674,-122.330956,51.55,0.049,311.8,9,2,2.0,0,0.0,-1,0.0,0.0,0.0,0
8066,1469902614406,,,,,,,-0.04,0.65,0.81,-16.1,-5.2,-1.0,3920,2992,,,,,,,,,,,,,,,,,
8086,1469902614426,,,,,,,-0.03,0.65,0.7,-15.8,-6.4,-1.0,3840,3015,,,,,,,,,,,,,,,,,
8106,1469902614446,,,,,,,-0.05,0.67,0.74,-15.6,-7.4,-0.8,3960,3004,,,,,,,,,,,,,,,,,
8126,1469902614466,,,,,,,-0.08,0.66,0.74,-15.4,-7.7,-1.1,3900,3015,,,,,,,,,,,,,,,,,
8146,1469902614486,,,,42,,,-0.1,0.67,0.76,-15.5,-7.1,-0.9,3900,3004,1.275,3,39.53664,-122.330917,51.84,0.052,312.3,9,2,2.0,0,0.0,-1,0.0,,0.0,0
8166,1469902614506,,,,,,,-0.08,0.67,0.85,-15.7,-6.6,-0.7,3840,3015,,,,,,,,,,,,,,,,,
8186,1469902614526,,,,,,,-0.09,0.66,0.83,-15.8,-5.9,-0.6,3880,3027,,,,,,,,,,,,,,,,,
8206,1469902614546,,,,,,,-0.13,0.72,0.94,-15.9,-5.4,-0.6,3840,3040,,,,,,,,,,,,,,,,,
8226,1469902614566,,,,,,,-0.13,0.72,0.91,-16.1,-4.9,-0.4,3880,3040,,,,,,,,,,,,,,,,,
8246,1469902614586,0,285.4,210.9,49,212.2,,-0.12,0.71,0.91,-16.1,-5.2,-0.4,3800,3040,1.277,3,39.53664,-122.330917,51.84,0.052,312.3,9,2,2.0,0,0.0,-1,0.0,0.0,0.0,0
8266,1469902614504,,,,,,,-0.11,0.71,0.77,-16.1,-6.5,-0.4,3820,3040,,,,,,,,,,,,,,,,,
8286,1469902614524,,,,,,,-0.09,0.73,0.73,-16.2,-8.4,-0.2,3880,3040,,,,,,,,,,,,,,,,,
8306,1469902614544,,,,,,,-0.05,0.75,0.71,-16.4,-9.7,0.2,3860,3040,,,,,,,,,,,,,,,,,
8326,1469902614564,,,,,,,-0.06,0.74,0.83,-16.3,-11.1,0.0,3780,3040,,,,,,,,,,,,,,,,,
8346,1469902614584,,,,45,,,-0.07,0.74,0.87,-16.6,-12.3,0.0,3920,3052,1.271,3,39.536625,-122.33091,51.96,0.053,312.5,9,2,2.0,0,0.0,-1,0.0,,0.0,0
8366,1469902614604,,,,,,,-0.11,0.77,0.94,-16.8,-12.5,-0.0,3840,3052,,,,,,,,,,,,,,,,,
8386,1469902614624,,,,,,,-0.11,0.76,0.89,-16.9,-13.0,0.2,3920,3052,,,,,,,,,,,,,,,,,
8406,1469902614644,,,,,,,-0.12,0.79,0.93,-16.9,-14.1,0.5,3860,3052,,,,,,,,,,,,,,,,,
8426,1469902614664,,,,,,,-0.1,0.8,0.86,-17.2,-14.9,0.9,3800,3064,,,,,,,,,,,,,,,,,
8446,1469902614684,0,285.4,210.6,54,212.3,,-0.09,0.82,0.9,-17.4,-14.1,1.2,3880,3064,1.27,3,39.536613,-122.330879,52.24,0.055,312.7,9,2,2.0,0,0.0,-1,0.0,0.0,0.0,0
8466,1469902614704,,,,,,,-0.03,0.84,0.88,-17.5,-14.1,1.3,3920,3064,,,,,,,,,,,,,,,,,
8486,1469902614724,,,,,,,0.01,0.86,0.92,-17.6,-13.1,1.5,3860,3076,,,,,,,,,,,,,,,,,
8506,1469902614744,,,,,,,0.06,0.87,0.95,-17.8,-11.6,1.9,3940,3064,,,,,,,,,,,,,,,,,
8526,1469902614764,,,,,,,0.09,0.86,1.0,-18.0,-9.3,1.9,3800,3064,,,,,,,,,,,,,,,,,
8546,1469902614784,,,,45,,,0.13,0.88,1.08,-18.3,-8.3,1.8,3900,3064,1.253,3,39.536594,-122.330872,52.64,0.056,312.9,9,2,2.0,0,0.0,-1,0.0,,0.0,0
8566,1469902614807,,,,,,,0.15,0.87,1.06,-18.4,-7.2,2.0,3820,3052,,,,,,,,,,,,,,,,,
8586,1469902614827,,,,,,,0.17,0.9,1.1,-18.5,-5.9,1.8,3960,3064,,,,,,,,,,,,,,,,,
8606,1469902614847,,,,,,,0.25,0.88,1.0,-18.5,-5.6,1.5,3860,3064,,,,,,,,,,,,,,,,,
8626,1469902614867,,,,,,,0.27,0.86,0.97,-18.7,-4.8,1.5,3920,3052,,,,,,,,,,,,,,,,,
8646,1469902614887,0,286.0,210.4,56,211.7,,0.26,0.81,0.94,-18.7,-4.3,1.6,3900,3052,1.258,3,39.536579,-122.330841,52.78,0.058,313.1,9,2,2.0,0,0.0,-1,0.0,0.0,0.0,0
8666,1469902614901,,,,,,,0.24,0.82,1.04,-18.6,-3.4,1.3,3820,3064,,,,,,,,,,,,,,,,,
8686,1469902614921,,,,,,,0.2,0.83,1.06,-18.9,-3.0,1.1,3920,3064,,,,,,,,,,,,,,,,,
8706,1469902614941,,,,,,,0.11,0.79,1.15,-19.1,-2.6,1.4,3860,3052,,,,,,,,,,,,,,,,,
8726,1469902614961,,,,,,,0.02,0.78,1.17,-19.0,-2.1,0.9,3920,3064,,,,,,,,,,,,,,,,,
8746,1469902614981,,,,56,,,-0.05,0.81,1.21,-19.0,-2.0,0.4,3960,3089,1.269,3,39.536564,-122.330833,52.82,0.059,313.3,9,2,2.0,0,0.0,-1,0.0,,0.0,0
8766,1469902615007,,,,,,,-0.1,0.76,1.26,-19.1,-1.8,0.4,3760,3076,,,,,,,,,,,,,,,,,
8786,1469902615027,,,,,,,-0.16,0.78,1.17,-19.1,-2.6,0.6,3960,3089,,,,,,,,,,,,,,,,,
8806,1469902615047,,,,,,,-0.23,0.77,1.16,-19.1,-3.3,0.6,3880,3089,,,,,,,,,,,,,,,,,
8826,1469902615067,,,,,,,-0.25,0.8,1.12,-19.0,-4.3,0.7,3920,3101,,,,,,,,,,,,,,,,,
8846,1469902615087,0,286.4,210.1,54,211.5,,-0.27,0.77,1.01,-18.9,-5.0,0.5,3960,3089,1.256,3,39.536552,-122.330803,53.01,0.061,313.4,9,2,2.0,0,0.0,-1,0.0,0.0,0.0,0
8866,1469902615206,,,,,,,-0.29,0.77,0.96,-18.9,-6.0,0.2,3860,3101,,,,,,,,,,,,,,,,,
8886,1469902615226,,,,,,,-0.29,0.84,0.87,-19.0,-7.0,0.2,3960,3101,,,,,,,,,,,,,,,,,
8906,1469902615246,,,,,,,-0.25,0.88,0.88,-19.1,-6.8,0.5,3980,3113,,,,,,,,,,,,,,,,,
8926,1469902615266,,,,,,,-0.18,0.88,0.85,-18.9,-6.3,0.4,3880,3113,,,,,,,,,,,,,,,,,
8946,1469902615286,,,,60,,,-0.09,0.91,0.83,-19.0,-5.8,0.2,4000,3089,1.269,3,39.536522,-122.330765,53.54,0.064,313.5,9,2,2.0,0,0.0,-1,0.0,,0.0,0
8966,1469902615306,,,,,,,-0.03,0.9,0.88,-19.2,-5.3,0.3,3920,3113,,,,,,,,,,,,,,,,,
8986,1469902615326,,,,,,,0.02,0.93,0.86,-19.1,-3.9,-0.1,4000,3113,,,,,,,,,,,,,,,,,
9006,1469902615346,,,,,,,0.04,0.92,0.84,-19.0,-1.4,-0.1,3900,3101,,,,,,,,,,,,,,,,,
9026,1469902615366,,,,,,,0.05,0.8,0.91,-19.2,0.6,0.2,4000,3113,,,,,,,,,,,,,,,,,
9046,1469902615386,0,287.2,210.6,70,212.2,13.93,0.06,0.8,0.92,-19.1,2.0,0.0,4000,3126,1.287,3,39.536522,-122.330765,53.54,0.064,313.5,9,2,2.0,0,0.0,-1,0.0,0.0,0.0,0
9066,1469902615307,,,,,,,0.07,0.82,1.0,-19.2,3.0,0.2,4000,3113,,,,,,,,,,,,,,,,,
9086,1469902615327,,,,,,,0.04,0.78,1.02,-19.3,3.3,0.5,4000,3152,,,,,,,,,,,,,,,,,
9106,1469902615347,,,,,,,0.05,0.75,1.02,-19.2,2.6,0.4,4020,3152,,,,,,,,,,,,,,,,,
9126,1469902615367,,,,,,,0.05,0.74,1.07,-19.0,1.3,0.0,3940,3152,,,,,,,,,,,,,,,,,
9146,1469902615387,,,,50,,,0.03,0.74,1.08,-19.1,-0.4,0.1,3920,3138,1.24,3,39.53651,-122.330742,53.71,0.066,313.5,9,2,2.0,0,0.0,-1,0.0,,0.0,0
9166,1469902615405,,,,,,,0.04,0.76,1.11,-19.1,-0.7,-0.0,4120,3138,,,,,,,,,,,,,,,,,
9186,1469902615425,,,,,,,0.06,0.81,1.17,-19.1,-0.2,-0.1,4000,3152,,,,,,,,,,,,,,,,,
9206,1469902615445,,,,,,,0.12,0.79,1.16,-18.9,0.4,-0.1,4020,3152,,,,,,,,,,,,,,,,,
9226,1469902615465,,,,,,,0.17,0.82,1.2,-18.8,1.3,-0.2,3980,3126,,,,,,,,,,,,,,,,,
9246,1469902615485,1,285.4,212.1,62,213.4,,0.18,0.79,1.22,-18.6,2.9,-0.5,4120,3126,1.269,3,39.536495,-122.330711,53.93,0.068,313.6,9,2,2.0,0,0.0,-1,0.0,0.0,0.0,0
9266,1469902615504,,,,,,,0.19,0.81,1.19,-18.5,5.3,-0.5,4020,3113,,,,,,,,,,,,,,,,,
9286,1469902615524,,,,,,,0.21,0.84,1.21,-18.5,7.2,-0.4,4040,3138,,,,,,,,,,,,,,,,,
9306,1469902615544,,,,,,,0.18,0.8,1.24,-18.4,8.2,-0.4,4000,3164,,,,,,,,,,,,,,,,,
9326,1469902615564,,,,,,,0.15,0.72,1.2,-18.3,7.6,-0.2,3980,3164,,,,,,,,,,,,,,,,,
9346,1469902615584,,,,43,,,0.12,0.7,1.26,-18.3,7.4,0.2,4200,3164,1.277,3,39.536484,-122.330688,54.13,0.069,313.5,9,2,2.0,0,0.0,-1,0.0,,0.0,0
9366,1469902615604,,,,,,,0.09,0.72,1.28,-18.2,7.1,0.3,4040,3164,,,,,,,,,,,,,,,,,
9386,1469902615624,,,,,,,0.07,0.74,1.19,-17.9,6.8,0.4,4080,3178,,,,,,,,,,,,,,,,,
9406,1469902615644,,,,,,,0.08,0.76,1.19,-17.7,6.3,0.2,4040,3178,,,,,,,,,,,,,,,,,
9426,1469902615664,,,,,,,0.08,0.76,1.21,-17.9,7.0,0.1,4220,3178,,,,,,,,,,,,,,,,,
9446,1469902615684,0,286.0,211.4,58,212.5,,0.07,0.7,1.21,-17.9,8.0,0.2,3980,3178,1.283,3,39.536472,-122.330666,54.57,0.07,313.5,9,2,2.0,0,0.0,-1,0.0,0.0,0.0,0
9466,1469902615704,,,,,,,0.09,0.71,1.17,-17.6,9.6,-0.3,4200,3190,,,,,,,,,,,,,,,,,
9486,1469902615724,,,,,,,0.1,0.72,1.15,-17.5,9.6,-0.4,4180,3204,,,,,,,,,,,,,,,,,
9506,1469902615744,,,,,,,0.05,0.69,1.23,-17.6,9.5,-0.3,4100,3204,,,,,,,,,,,,,,,,,
9526,1469902615764,,,,,,,-0.01,0.64,1.19,-17.1,8.6,-0.7,4060,3204,,,,,,,,,,,,,,,,,
9546,1469902615784,,,,78,,,-0.07,0.7,1.14,-17.0,7.4,-0.9,4160,3178,1.221,3,39.536461,-122.33065,54.43,0.072,313.6,9,2,2.0,0,0.0,-1,0.0,,0.0,0
9566,1469902615807,,,,,,,-0.07,0.73,1.12,-16.6,6.9,-1.2,4080,3190,,,,,,,,,,,,,,,,,
9586,1469902615827,,,,,,,-0.05,0.71,1.1,-15.6,6.9,-2.0,4220,3178,,,,,,,,,,,,,,,,,
9606,1469902615847,,,,,,,-0.03,0.71,1.09,-15.1,7.4,-2.3,4220,3164,,,,,,,,,,,,,,,,,
9626,1469902615867,,,,,,,-0.05,0.75,1.07,-14.9,7.5,-2.4,4060,3178,,,,,,,,,,,,,,,,,
9646,1469902615887,1,284.9,211.0,48,212.0,,-0.1,0.65,1.12,-14.3,8.5,-2.5,4000,3218,1.255,3,39.536453,-122.330627,54.69,0.073,313.6,9,2,2.0,0,0.0,-1,0.0,0.0,0.0,0
9666,1469902615999,,,,,,,-0.13,0.62,1.16,-14.2,8.3,-2.4,3960,3204,,,,,,,,,,,,,,,,,
9686,1469902616019,,,,,,,-0.16,0.62,1.13,-13.9,6.7,-2.4,3960,3244,,,,,,,,,,,,,,,,,
9706,1469902616039,,,,,,,-0.18,0.58,1.03,-13.7,4.3,-2.5,4160,3218,,,,,,,,,,,,,,,,,
9726,1469902616059,,,,,,,-0.2,0.55,0.99,-13.6,2.1,-1.9,4060,3230,,,,,,,,,,,,,,,,,
9746,1469902616079,,,,68,,,-0.21,0.55,0.96,-13.4,0.7,-1.6,3900,3230,1.288,3,39.53643,-122.330574,55.36,0.076,313.6,9,2,2.0,0,0.0,-1,0.0,,0.0,0
9766,1469902616099,,,,,,,-0.25,0.59,0.93,-13.4,-0.2,-1.3,4100,3218,,,,,,,,,,,,,,,,,
9786,1469902616119,,,,,,,-0.26,0.57,0.9,-13.4,0.0,-1.0,4060,3244,,,,,,,,,,,,,,,,,
9806,1469902616139,,,,,,,-0.23,0.54,0.87,-13.3,-0.2,-1.1,3980,3258,,,,,,,,,,,,,,,,,
9826,1469902616159,,,,,,,-0.18,0.54,0.91,-13.0,-0.9,-0.9,4080,3244,,,,,,,,,,,,,,,,,
9846,1469902616179,0,286.4,211.1,42,212.4,,-0.13,0.56,0.98,-13.0,-1.4,-0.5,4300,3258,1.33,3,39.53643,-122.330574,55.36,0.076,313.6,9,2,2.0,0,0.0,-1,0.0,0.0,0.0,0
9866,1469902616107,,,,,,,-0.09,0.6,1.03,-12.8,-1.8,-0.4,4200,3244,,,,,,,,,,,,,,,,,
9886,1469902616127,,,,,,,-0.09,0.49,1.08,-12.5,-0.7,0.2,4100,3230,,,,,,,,,,,,,,,,,
9906,1469902616147,,,,,,,-0.04,0.51,1.1,-12.3,1.1,0.1,4260,3258,,,,,,,,,,,,,,,,,
9926,1469902616167,,,,,,,-0.04,0.51,1.07,-12.5,2.7,0.0,4240,3258,,,,,,,,,,,,,,,,,
9946,1469902616187,,,,44,,,-0.08,0.46,1.08,-12.4,3.3,0.1,4220,3272,1.253,3,39.536419,-122.330551,55.53,0.078,313.6,9,2,2.0,0,0.0,-1,0.0,,0.0,0
9966,1469902616207,,,,,,,-0.11,0.46,1.06,-12.1,3.1,-0.2,4160,3286,,,,,,,,,,,,,,,,,
9986,1469902616227,,,,,,,-0.11,0.49,1.07,-11.7,2.2,0.0,4040,3244,,,,,,,,,,,,,,,,,
10006,1469902616247,,,,,,,-0.09,0.53,1.09,-11.5,1.1,-0.4,4060,3272,,,,,,,,,,,,,,,,,
10026,1469902616267,,,,,,,-0.12,0.5,1.04,-11.5,1.0,-0.6,4240,3286,,,,,,,,,,,,,,,,,
10046,1469902616287,0,285.4,210.8,61,212.0,13.88,-0.15,0.44,0.93,-11.3,0.5,-0.6,3960,3286,1.315,3,39.536411,-122.330513,56.03,0.08,313.6,9,2,2.0,0,0.0,-1,0.0,0.0,0.0,0
10066,1469902616307,,,,,,,-0.18,0.38,0.86,-10.8,-0.2,-0.8,4080,3300,,,,,,,,,,,,,,,,,
10086,1469902616327,,,,,,,-0.18,0.41,0.91,-10.6,-1.0,-0.9,4240,3286,,,,,,,,,,,,,,,,,
10106,1469902616347,,,,,,,-0.09,0.43,0.99,-10.2,-2.4,-1.2,4340,3286,,,,,,,,,,,,,,,,,
10126,1469902616367,,,,,,,-0.06,0.47,1.04,-10.3,-2.1,-1.1,4180,3315,,,,,,,,,,,,,,,,,
10146,1469902616387,,,,45,,,-0.08,0.39,1.07,-10.3,-1.4,-0.7,4220,3329,1.268,3,39.536404,-122.330482,56.26,0.081,313.7,9,2,2.0,0,0.0,-1,0.0,,0.0,0
10166,1469902616401,,,,,,,-0.15,0.38,1.05,-9.9,0.4,-1.2,4280,3329,,,,,,,,,,,,,,,,,
10186,1469902616421,,,,,,,-0.17,0.4,1.1,-9.8,1.7,-1.1,4180,3329,,,,,,,,,,,,,,,,,
10206,1469902616441,,,,,,,-0.14,0.42,1.16,-9.6,1.4,-1.3,4140,3315,,,,,,,,,,,,,,,,,
10226,1469902616461,,,,,,,-0.17,0.46,1.09,-9.8,2.1,-1.3,4200,3343,,,,,,,,,,,,,,,,,
10246,1469902616481,0,284.9,210.2,78,212.2,,-0.21,0.4,1.0,-9.9,1.7,-1.2,4180,3343,1.303,3,39.536392,-122.33046,56.55,0.083,313.8,9,2,2.0,0,0.0,-1,0.0,0.0,0.0,0
10266,1469902616504,,,,,,,-0.24,0.38,1.0,-9.4,1.2,-1.7,4340,3343,,,,,,,,,,,,,,,,,
10286,1469902616524,,,,,,,-0.17,0.33,1.0,-9.1,0.2,-1.4,4260,3329,,,,,,,,,,,,,,,,,
10306,1469902616544,,,,,,,-0.13,0.32,1.0,-8.8,0.0,-1.6,4340,3315,,,,,,,,,,,,,,,,,
10326,1469902616564,,,,,,,-0.17,0.34,0.96,-8.9,1.3,-1.7,4420,3343,,,,,,,,,,,,,,,,,
10346,1469902616584,,,,41,,,-0.2,0.36,0.98,-9.2,2.5,-1.4,4140,3372,1.292,3,39.536385,-122.330437,56.96,0.084,313.9,9,2,2.0,0,0.0,-1,0.0,,0.0,0
10366,1469902616604,,,,,,,-0.18,0.35,0.96,-9.0,1.9,-1.5,4300,3358,,,,,,,,,,,,,,,,,
10386,1469902616624,,,,,,,-0.15,0.3,0.9,-8.7,1.2,-1.1,4160,3329,,,,,,,,,,,,,,,,,
10406,1469902616644,,,,,,,-0.18,0.3,0.86,-8.2,1.4,-1.5,4100,3372,,,,,,,,,,,,,,,,,
10426,1469902616664,,,,,,,-0.18,0.29,0.88,-8.1,1.8,-1.4,4260,3387,,,,,,,,,,,,,,,,,
10446,1469902616684,0,285.0,210.3,46,212.0,,-0.1,0.29,0.92,-8.1,0.8,-1.2,4360,3387,1.234,3,39.536377,-122.330406,57.29,0.086,314.0,9,2,2.0,0,0.0,-1,0.0,0.0,0.0,0
10466,1469902616803,,,,,,,-0.1,0.31,0.86,-8.4,-0.2,-0.9,4420,3343,,,,,,,,,,,,,,,,,
10486,1469902616823,,,,,,,-0.13,0.33,0.88,-8.4,1.1,-0.9,4120,3358,,,,,,,,,,,,,,,,,
10506,1469902616843,,,,,,,-0.15,0.29,0.91,-8.3,2.0,-1.0,4400,3403,,,,,,,,,,,,,,,,,
10526,1469902616863,,,,,,,-0.17,0.26,0.84,-8.2,0.4,-0.5,4180,3358,,,,,,,,,,,,,,,,,
10546,1469902616883,,,,42,,,-0.2,0.26,0.75,-7.7,-0.0,-1.1,4400,3387,1.275,3,39.536358,-122.33036,58.02,0.089,314.3,9,2,2.0,0,0.0,-1,0.0,,0.0,0
10566,1469902616903,,,,,,,-0.21,0.33,0.79,-7.6,0.6,-1.1,4340,3372,,,,,,,,,,,,,,,,,
10586,1469902616923,,,,,,,-0.18,0.38,0.9,-7.6,0.6,-1.3,4500,3403,,,,,,,,,,,,,,,,,
10606,1469902616943,,,,,,,-0.18,0.37,0.86,-8.1,0.5,-1.2,4380,3387,,,,,,,,,,,,,,,,,
10626,1469902616963,,,,,,,-0.16,0.38,0.85,-8.1,1.2,-1.4,4180,3387,,,,,,,,,,,,,,,,,
10646,1469902616983,0,285.7,210.5,50,211.0,,-0.13,0.36,0.92,-8.0,1.4,-1.3,4280,3403,1.305,3,39.536358,-122.33036,58.02,0.089,314.3,9,2,2.0,0,0.0,-1,0.0,0.0,0.0,0
10666,1469902616900,,,,,,,-0.14,0.29,0.83,-7.9,1.7,-1.1,4420,3418,,,,,,,,,,,,,,,,,
10686,1469902616920,,,,,,,-0.18,0.28,0.79,-7.5,1.5,-1.2,4400,3418,,,,,,,,,,,,,,,,,
10706,1469902616940,,,,,,,-0.12,0.29,0.78,-7.0,0.8,-0.8,4380,3403,,,,,,,,,,,,,,,,,
10726,1469902616960,,,,,,,-0.12,0.26,0.76,-6.6,1.9,-1.2,4320,3433,,,,,,,,,,,,,,,,,
10746,1469902616980,,,,55,,,-0.15,0.23,0.78,-6.7,1.4,-1.0,4280,3433,1.235,3,39.536354,-122.330315,58.35,0.091,314.4,9,2,2.0,0,0.0,-1,0.0,,0.0,0
10766,1469902617007,,,,,,,-0.13,0.25,0.88,-6.7,-0.2,-1.0,4220,3433,,,,,,,,,,,,,,,,,
10786,1469902617027,,,,,,,-0.17,0.28,0.87,-6.6,-1.0,-0.9,4380,3418,,,,,,,,,,,,,,,,,
10806,1469902617047,,,,,,,-0.16,0.32,0.94,-6.9,-1.0,-0.6,4500,3464,,,,,,,,,,,,,,,,,
10826,1469902617067,,,,,,,-0.18,0.35,0.88,-7.1,-1.2,-0.3,4480,3449,,,,,,,,,,,,,,,,,
10846,1469902617087,0,285.4,210.6,54,211.4,,-0.19,0.32,0.85,-7.3,-0.4,-0.3,4200,3449,1.276,3,39.536343,-122.330292,58.71,0.093,314.5,9,2,2.0,0,0.0,-1,0.0,0.0,0.0,0
10866,1469902617107,,,,,,,-0.19,0.32,0.9,-7.5,-0.5,-0.0,4520,3464,,,,,,,,,,,,,,,,,
10886,1469902617127,,,,,,,-0.23,0.28,0.82,-7.5,-1.7,0.1,4520,3464,,,,,,,,,,,,,,,,,
10906,1469902617147,,,,,,,-0.23,0.26,0.87,-7.1,-1.5,-0.2,4420,3433,,,,,,,,,,,,,,,,,
10926,1469902617167,,,,,,,-0.2,0.18,0.93,-6.8,-0.7,0.1,4400,3449,,,,,,,,,,,,,,,,,
10946,1469902617187,,,,56,,,-0.2,0.16,0.97,-6.3,0.6,-0.4,4420,3495,1.241,3,39.536335,-122.330269,59.03,0.094,314.7,9,2,2.0,0,0.0,-1,0.0,,0.0,0
10966,1469902617207,,,,,,,-0.17,0.14,0.93,-6.2,0.1,-0.1,4180,3480,,,,,,,,,,,,,,,,,
10986,1469902617227,,,,,,,-0.19,0.17,0.86,-5.7,-0.2,-0.5,4500,3480,,,,,,,,,,,,,,,,,
11006,1469902617247,,,,,,,-0.2,0.15,0.9,-5.9,0.4,-0.2,4420,3480,,,,,,,,,,,,,,,,,
11026,1469902617267,,,,,,,-0.21,0.12,0.93,-5.8,0.4,-0.5,4420,3480,,,,,,,,,,,,,,,,,
11046,1469902617287,0,285.0,210.6,56,212.1,13.94,-0.23,0.12,1.0,-5.7,0.9,-0.4,4200,3464,1.207,3,39.536327,-122.330238,59.49,0.096,314.9,9,2,2.0,0,0.0,-1,0.0,0.0,0.0,0
11066,1469902617307,,,,,,,-0.2,0.13,1.0,-5.7,0.5,-0.3,4340,3527,,,,,,,,,,,,,,,,,
11086,1469902617327,,,,,,,-0.23,0.21,0.95,-6.0,1.1,-0.5,4380,3512,,,,,,,,,,,,,,,,,
11106,1469902617347,,,,,,,-0.18,0.21,0.92,-6.0,1.6,-0.6,4640,3480,,,,,,,,,,,,,,,,,
11126,1469902617367,,,,,,,-0.22,0.21,0.94,-6.3,2.7,-0.5,4420,3527,,,,,,,,,,,,,,,,,
11146,1469902617387,,,,76,,,-0.2,0.21,1.0,-6.5,1.4,-0.7,4400,3512,1.253,3,39.53632,-122.3302,59.71,0.098,315.0,9,2,2.0,0,0.0,-1,0.0,,0.0,0
11166,1469902617405,,,,,,,-0.22,0.28,0.99,-6.6,1.1,-0.7,4400,3495,,,,,,,,,,,,,,,,,
11186,1469902617425,,,,,,,-0.16,0.3,1.02,-6.8,1.3,-0.7,4600,3544,,,,,,,,,,,,,,,,,
11206,1469902617445,,,,,,,-0.14,0.26,0.94,-7.1,1.5,-0.5,4240,3512,,,,,,,,,,,,,,,,,
11226,1469902617465,,,,,,,-0.12,0.28,0.97,-7.1,1.6,-0.6,4360,3527,,,,,,,,,,,,,,,,,
11246,1469902617485,0,285.0,209.8,56,211.7,,-0.14,0.29,0.92,-7.1,1.1,-0.4,4480,3544,1.316,3,39.536316,-122.330177,60.17,0.099,315.1,9,2,2.0,0,0.0,-1,0.0,0.0,0.0,0
11266,1469902617603,,,,,,,-0.15,0.32,0.94,-7.2,0.5,-0.3,4600,3544,,,,,,,,,,,,,,,,,
11286,1469902617623,,,,,,,-0.11,0.32,0.9,-7.2,0.4,-0.2,4380,3512,,,,,,,,,,,,,,,,,
11306,1469902617643,,,,,,,-0.1,0.35,0.98,-7.3,0.8,-0.2,4420,3560,,,,,,,,,,,,,,,,,
11326,1469902617663,,,,,,,-0.11,0.35,0.9,-7.4,0.4,-0.0,4560,3544,,,,,,,,,,,,,,,,,
11346,1469902617683,,,,52,,,-0.1,0.37,0.89,-7.1,0.5,0.1,4700,3560,1.213,3,39.536297,-122.330116,60.84,0.103,315.4,9,2,2.0,0,0.0,-1,0.0,,0.0,0
11366,1469902617703,,,,,,,-0.1,0.36,0.87,-7.4,0.6,0.1,4280,3576,,,,,,,,,,,,,,,,,
11386,1469902617723,,,,,,,-0.1,0.39,0.96,-7.6,0.6,-0.5,4480,3527,,,,,,,,,,,,,,,,,
11406,1469902617743,,,,,,,-0.11,0.39,0.94,-7.5,0.7,-0.5,4560,3576,,,,,,,,,,,,,,,,,
11426,1469902617763,,,,,,,-0.1,0.39,0.96,-7.5,0.8,-0.4,4660,3576,,,,,,,,,,,,,,,,,
11446,1469902617783,0,286.0,210.4,76,209.8,,-0.1,0.33,0.95,-7.1,1.4,-0.5,4400,3560,1.258,3,39.536297,-122.330116,60.84,0.103,315.4,9,2,2.0,0,0.0,-1,0.0,0.0,0.0,0
11466,1469902617704,,,,,,,-0.1,0.3,0.98,-6.7,1.1,-0.7,4620,3593,,,,,,,,,,,,,,,,,
11486,1469902617724,,,,,,,-0.13,0.34,0.97,-6.7,0.9,-0.6,4540,3593,,,,,,,,,,,,,,,,,
11506,1469902617744,,,,,,,-0.14,0.39,1.01,-6.6,1.2,-0.7,4600,3544,,,,,,,,,,,,,,,,,
11526,1469902617764,,,,,,,-0.14,0.37,1.0,-6.7,1.7,-0.5,4480,3593,,,,,,,,,,,,,,,,,
11546,1469902617784,,,,61,,,-0.17,0.38,0.98,-6.5,1.7,-0.6,4640,3593,1.264,3,39.536293,-122.330086,61.26,0.104,315.4,9,2,2.0,0,0.0,-1,0.0,,0.0,0
11566,1469902617807,,,,,,,-0.19,0.32,1.0,-6.4,2.2,-0.4,4580,3593,,,,,,,,,,,,,,,,,
11586,1469902617827,,,,,,,-0.21,0.26,1.02,-6.0,1.8,-0.6,4580,3610,,,,,,,,,,,,,,,,,
11606,1469902617847,,,,,,,-0.19,0.24,1.04,-5.6,1.0,-1.0,4740,3593,,,,,,,,,,,,,,,,,
11626,1469902617867,,,,,,,-0.21,0.25,0.99,-5.2,1.2,-1.4,4660,3627,,,,,,,,,,,,,,,,,
11646,1469902617887,0,285.9,211.3,82,209.9,,-0.19,0.2,0.98,-5.1,1.0,-1.3,4440,3610,1.275,3,39.536285,-122.330063,61.61,0.106,315.5,9,2,2.0,0,0.0,-1,0.0,0.0,0.0,0
11666,1469902617901,,,,,,,-0.23,0.18,0.98,-5.1,0.7,-1.2,4680,3627,,,,,,,,,,,,,,,,,
11686,1469902617921,,,,,,,-0.26,0.18,0.92,-4.7,-0.8,-1.2,4800,3627,,,,,,,,,,,,,,,,,
11706,1469902617941,,,,,,,-0.24,0.14,0.92,-4.6,-1.0,-0.8,4580,3610,,,,,,,,,,,,,,,,,
11726,1469902617961,,,,,,,-0.2,0.17,0.91,-4.4,-1.2,-1.1,4440,3627,,,,,,,,,,,,,,,,,
11746,1469902617981,,,,60,,,-0.22,0.16,0.92,-4.2,-1.1,-1.2,4620,3610,1.263,3,39.536274,-122.330025,62.02,0.108,315.5,9,2,2.0,0,0.0,-1,0.0,,0.0,0
11766,1469902618007,,,,,,,-0.19,0.2,0.93,-4.2,-0.8,-1.2,4720,3661,,,,,,,,,,,,,,,,,
11786,1469902618027,,,,,,,-0.19,0.18,1.03,-4.3,0.2,-0.7,4480,3644,,,,,,,,,,,,,,,,,
11806,1469902618047,,,,,,,-0.16,0.2,1.07,-4.1,0.2,-0.8,4740,3644,,,,,,,,,,,,,,,,,
11826,1469902618067,,,,,,,-0.17,0.12,1.03,-4.2,1.0,-0.7,4700,3627,,,,,,,,,,,,,,,,,
11846,1469902618087,0,285.4,210.3,74,211.6,,-0.18,0.13,1.04,-3.8,2.0,-0.8,4720,3644,1.268,3,39.53627,-122.330002,62.49,0.109,315.5,9,2,2.0,0,0.0,-1,0.0,0.0,0.0,0
11866,1469902618107,,,,,,,-0.14,0.08,1.02,-3.8,2.1,-0.6,4780,3644,,,,,,,,,,,,,,,,,
11886,1469902618127,,,,,,,-0.17,0.07,1.04,-3.7,1.4,-0.2,4700,3610,,,,,,,,,,,,,,,,,
11906,1469902618147,,,,,,,-0.17,0.06,1.06,-3.7,1.6,-0.1,4540,3696,,,,,,,,,,,,,,,,,
11926,1469902618167,,,,,,,-0.2,0.03,0.99,-4.0,1.1,0.1,4620,3680,,,,,,,,,,,,,,,,,
11946,1469902618187,,,,63,,,-0.22,0.06,0.94,-3.8,1.2,-0.2,4820,3696,1.223,3,39.536262,-122.329956,62.74,0.111,315.4,9,2,2.0,0,0.0,-1,0.0,,0.0,0
11966,1469902618207,,,,,,,-0.24,0.06,0.95,-4.1,0.7,-0.1,4520,3680,,,,,,,,,,,,,,,,,
11986,1469902618227,,,,,,,-0.19,0.09,0.93,-3.9,-0.3,-0.3,4860,3644,,,,,,,,,,,,,,,,,
12006,1469902618247,,,,,,,-0.18,0.05,0.91,-3.9,-0.4,-0.1,4640,3661,,,,,,,,,,,,,,,,,
12026,1469902618267,,,,,,,-0.14,0.1,0.98,-3.5,0.4,-0.5,4780,3696,,,,,,,,,,,,,,,,,
12046,1469902618287,0,285.2,209.6,77,211.8,14.02,-0.12,0.04,0.96,-3.5,0.2,-0.5,4720,3696,1.297,3,39.536255,-122.329933,63.0,0.113,315.4,9,2,2.0,0,0.0,-1,0.0,0.0,0.0,0
12066,1469902618406,,,,,,,-0.13,0.05,0.96,-3.2,-0.0,-0.3,4780,3661,,,,,,,,,,,,,,,,,
12086,1469902618426,,,,,,,-0.11,0.03,1.0,-2.9,0.2,-0.5,4500,3733,,,,,,,,,,,,,,,,,
12106,1469902618446,,,,,,,-0.12,0.02,0.99,-3.1,0.4,-0.1,4780,3696,,,,,,,,,,,,,,,,,
12126,1469902618466,,,,,,,-0.12,0.07,0.96,-3.2,-0.0,-0.5,4800,3715,,,,,,,,,,,,,,,,,
12146,1469902618486,,,,62,,,-0.16,0.07,0.96,-3.7,0.2,-0.2,4620,3696,1.293,3,39.53624,-122.329872,63.73,0.116,315.3,9,2,2.0,0,0.0,-1,0.0,,0.0,0
12166,1469902618506,,,,,,,-0.12,0.11,0.97,-3.4,-1.2,-0.5,4820,3733,,,,,,,,,,,,,,,,,
12186,1469902618526,,,,,,,-0.11,0.04,0.95,-3.4,-1.2,-0.2,4500,3733,,,,,,,,,,,,,,,,,
12206,1469902618546,,,,,,,-0.1,0.08,0.91,-3.3,-1.3,-0.0,4740,3715,,,,,,,,,,,,,,,,,
12226,1469902618566,,,,,,,-0.12,0.07,0.89,-3.2,-2.5,0.0,4800,3733,,,,,,,,,,,,,,,,,
12246,1469902618586,0,285.5,210.2,90,210.8,,-0.14,0.08,0.93,-3.4,-1.7,0.2,4640,3715,1.215,3,39.53624,-122.329872,63.73,0.116,315.3,9,2,2.0,0,0.0,-1,0.0,0.0,0.0,0
12266,1469902618504,,,,,,,-0.09,0.11,0.88,-3.5,-2.7,-0.1,4880,3733,,,,,,,,,,,,,,,,,
12286,1469902618524,,,,,,,-0.14,0.06,0.89,-3.7,-1.1,-0.1,4820,3733,,,,,,,,,,,,,,,,,
12306,1469902618544,,,,,,,-0.12,0.04,0.91,-3.6,-1.6,-0.1,4820,3752,,,,,,,,,,,,,,,,,
12326,1469902618564,,,,,,,-0.16,0.03,0.98,-3.3,-2.4,-0.1,4940,3752,,,,,,,,,,,,,,,,,
12346,1469902618584,,,,63,,,-0.13,0.03,0.96,-3.4,-2.3,0.3,4600,3733,1.247,3,39.536236,-122.329834,64.1,0.118,315.2,9,2,2.0,0,0.0,-1,0.0,,0.0,0
12366,1469902618604,,,,,,,-0.14,0.13,0.95,-3.3,-3.3,-0.2,4880,3733,,,,,,,,,,,,,,,,,
12386,1469902618624,,,,,,,-0.16,0.1,0.93,-3.4,-2.4,-0.1,4800,3733,,,,,,,,,,,,,,,,,
12406,1469902618644,,,,,,,-0.09,0.14,1.03,-3.2,-3.4,-0.7,4800,3769,,,,,,,,,,,,,,,,,
12426,1469902618664,,,,,,,-0.12,0.07,1.04,-3.2,-2.4,-0.8,5000,3752,,,,,,,,,,,,,,,,,
12446,1469902618684,1,285.5,209.9,52,211.2,,-0.08,0.06,1.01,-3.1,-1.4,-0.4,4760,3752,1.22,3,39.536224,-122.329803,64.55,0.12,315.2,9,2,2.0,0,0.0,-1,0.0,0.0,0.0,0
12466,1469902618704,,,,,,,-0.13,0.1,1.03,-3.2,-1.6,-0.6,4720,3769,,,,,,,,,,,,,,,,,
12486,1469902618724,,,,,,,-0.13,0.13,1.05,-3.4,-1.2,-0.5,4840,3752,,,,,,,,,,,,,,,,,
12506,1469902618744,,,,,,,-0.13,0.18,1.12,-3.2,-1.1,-1.1,4840,3846,,,,,,,,,,,,,,,,,
12526,1469902618764,,,,,,,-0.12,0.15,1.03,-3.1,-0.4,-1.0,4900,3789,,,,,,,,,,,,,,,,,
12546,1469902618784,,,,54,,,-0.13,0.14,1.06,-3.2,-0.0,-0.4,4800,3769,1.225,3,39.536217,-122.329765,64.84,0.122,315.1,9,2,2.0,0,0.0,-1,0.0,,0.0,0
12566,1469902618807,,,,,,,-0.15,0.14,1.08,-3.0,-0.8,-0.7,4980,3769,,,,,,,,,,,,,,,,,
12586,1469902618827,,,,,,,-0.12,0.07,1.07,-3.0,-0.0,-0.3,4880,3769,,,,,,,,,,,,,,,,,
12606,1469902618847,,,,,,,-0.09,0.12,1.12,-2.7,0.6,-0.8,4900,3807,,,,,,,,,,,,,,,,,
12626,1469902618867,,,,,,,-0.11,0.02,1.08,-2.6,-0.2,-0.6,5040,3807,,,,,,,,,,,,,,,,,
12646,1469902618887,0,288.4,212.2,49,214.0,,-0.08,0.02,1.07,-2.3,-1.1,0.1,4560,3807,1.219,3,39.536213,-122.329742,65.07,0.123,315.0,9,2,2.0,0,0.0,-1,0.0,0.0,0.0,0
12666,1469902618901,,,,,,,-0.1,0.07,1.02,-2.3,-2.4,-0.2,4920,3789,,,,,,,,,,,,,,,,,
12686,1469902618921,,,,,,,-0.09,0.08,0.99,-2.3,-0.5,-0.3,4940,3769,,,,,,,,,,,,,,,,,
12706,1469902618941,,,,,,,-0.07,0.1,1.05,-2.5,-0.9,-0.5,4860,3769,,,,,,,,,,,,,,,,,
12726,1469902618961,,,,,,,-0.08,0.04,1.05,-2.0,-0.4,-0.6,4940,3846,,,,,,,,,,,,,,,,,
12746,1469902618981,,,,52,,,-0.03,0.02,1.03,-2.0,0.2,-0.1,4860,3846,1.242,3,39.536202,-122.329704,65.37,0.126,314.8,9,2,2.0,0,0.0,-1,0.0,,0.0,0
12766,1469902619007,,,,,,,-0.06,0.1,1.0,-1.9,-2.0,-0.8,5060,3864,,,,,,,,,,,,,,,,,
12786,1469902619027,,,,,,,-0.08,0.03,1.01,-2.3,-0.6,-0.8,4760,3789,,,,,,,,,,,,,,,,,
12806,1469902619047,,,,,,,-0.04,-0.0,0.99,-2.6,-1.7,-0.5,4900,3826,,,,,,,,,,,,,,,,,
12826,1469902619067,,,,,,,-0.1,0.01,0.91,-2.3,-1.9,-1.0,4840,3807,,,,,,,,,,,,,,,,,
12846,1469902619087,0,285.4,209.6,44,210.9,,-0.07,0.0,0.96,-2.5,-0.2,-0.6,4720,3846,1.27,3,39.536194,-122.329681,65.61,0.127,314.7,9,2,2.0,0,0.0,-1,0.0,0.0,0.0,0
12866,1469902619206,,,,,,,-0.05,0.03,1.04,-2.3,-2.7,-0.8,4960,3826,,,,,,,,,,,,,,,,,
12886,1469902619226,,,,,,,-0.08,-0.04,1.02,-2.3,-1.3,-0.9,4740,3846,,,,,,,,,,,,,,,,,
12906,1469902619246,,,,,,,-0.06,-0.05,0.94,-2.2,-2.2,-1.0,4900,3864,,,,,,,,,,,,,,,,,
12926,1469902619266,,,,,,,-0.13,-0.0,0.97,-2.1,-3.7,-1.5,4920,3846,,,,,,,,,,,,,,,,,
12946,1469902619286,,,,39,,,-0.12,-0.04,0.91,-2.2,-1.5,-1.6,5060,3864,1.32,3,39.536179,-122.329613,66.45,0.131,314.5,9,2,2.0,0,0.0,-1,0.0,,0.0,0
12966,1469902619306,,,,,,,-0.1,-0.06,0.84,-2.2,-2.2,-1.5,4800,3846,,,,,,,,,,,,,,,,,
12986,1469902619326,,,,,,,-0.14,-0.05,0.82,-1.8,-1.8,-1.9,4960,3826,,,,,,,,,,,,,,,,,
13006,1469902619346,,,,,,,-0.09,-0.08,0.87,-1.7,-1.3,-1.7,4760,3807,,,,,,,,,,,,,,,,,
13026,1469902619366,,,,,,,-0.07,-0.06,0.89,-1.6,-3.1,-1.7,4920,3864,,,,,,,,,,,,,,,,,
13046,1469902619386,0,285.9,210.1,52,211.1,13.96,-0.1,-0.1,0.84,-1.4,-0.4,-1.4,5060,3864,1.242,3,39.536179,-122.329613,66.45,0.131,314.5,9,2,2.0,0,0.0,-1,0.0,0.0,0.0,0
13066,1469902619307,,,,,,,-0.07,-0.07,0.94,-1.5,-0.7,-0.6,4840,3864,,,,,,,,,,,,,,,,,
13086,1469902619327,,,,,,,-0.09,0.01,1.0,-1.3,-2.3,-0.7,4980,3904,,,,,,,,,,,,,,,,,
13106,1469902619347,,,,,,,-0.06,-0.09,0.93,-1.2,0.5,-0.5,4640,3846,,,,,,,,,,,,,,,,,
13126,1469902619367,,,,,,,-0.03,-0.1,0.92,-1.1,-1.4,-0.3,4940,3864,,,,,,,,,,,,,,,,,
13146,1469902619387,,,,60,,,-0.11,-0.01,0.92,-1.0,-2.4,-0.6,4960,3846,1.214,3,39.536175,-122.329575,66.7,0.133,314.4,9,2,2.0,0,0.0,-1,0.0,,0.0,0
13166,1469902619405,,,,,,,-0.03,-0.02,0.92,-1.3,-0.9,-0.5,4980,3826,,,,,,,,,,,,,,,,,
13186,1469902619425,,,,,,,-0.04,-0.0,0.98,-1.4,-2.9,-0.3,4780,3864,,,,,,,,,,,,,,,,,
13206,1469902619445,,,,,,,-0.08,-0.02,0.93,-1.1,-2.2,-0.3,4940,3864,,,,,,,,,,,,,,,,,
13226,1469902619465,,,,,,,-0.05,0.02,0.95,-1.1,-1.4,-0.1,4760,3884,,,,,,,,,,,,,,,,,
13246,1469902619485,0,284.5,209.5,52,211.3,,-0.07,0.05,0.99,-1.3,-3.0,0.1,4880,3846,1.336,3,39.536167,-122.329536,66.94,0.135,314.2,9,2,2.0,0,0.0,-1,0.0,0.0,0.0,0
13266,1469902619504,,,,,,,-0.09,0.02,0.94,-1.0,-0.5,0.0,5020,3864,,,,,,,,,,,,,,,,,
13286,1469902619524,,,,,,,-0.07,0.01,0.96,-1.2,-1.5,0.5,4680,3864,,,,,,,,,,,,,,,,,
13306,1469902619544,,,,,,,-0.08,0.09,0.97,-1.3,-2.9,0.3,5040,3924,,,,,,,,,,,,,,,,,
13326,1469902619564,,,,,,,-0.05,0.01,0.96,-1.3,-0.2,0.3,4740,3904,,,,,,,,,,,,,,,,,
13346,1469902619584,,,,86,,,-0.03,-0.03,0.96,-1.3,-1.9,0.6,5000,3904,1.304,3,39.536156,-122.329514,67.2,0.136,314.1,9,2,2.0,0,0.0,-1,0.0,,0.0,0
13366,1469902619604,,,,,,,-0.07,0.04,0.96,-1.1,-2.1,0.0,4960,3924,,,,,,,,,,,,,,,,,
13386,1469902619624,,,,,,,-0.02,-0.01,0.94,-1.3,0.8,0.1,5020,3904,,,,,,,,,,,,,,,,,
13406,1469902619644,,,,,,,-0.01,-0.03,0.93,-1.1,-0.4,0.3,4860,3904,,,,,,,,,,,,,,,,,
13426,1469902619664,,,,,,,-0.05,0.05,0.88,-1.0,-0.7,-0.0,5140,3884,,,,,,,,,,,,,,,,,
13446,1469902619684,0,286.9,210.6,47,211.6,,0.01,-0.02,0.95,-1.4,1.5,0.2,4820,3904,1.284,3,39.536152,-122.329475,67.37,0.138,313.9,9,2,2.0,0,0.0,-1,0.0,0.0,0.0,0
13466,1469902619704,,,,,,,-0.03,-0.01,0.96,-1.6,-0.6,0.5,4960,3904,,,,,,,,,,,,,,,,,
13486,1469902619724,,,,,,,-0.09,-0.02,0.92,-1.5,-0.3,0.2,4980,3864,,,,,,,,,,,,,,,,,
13506,1469902619744,,,,,,,-0.02,-0.03,0.9,-1.6,0.8,0.3,5080,3884,,,,,,,,,,,,,,,,,
13526,1469902619764,,,,,,,-0.02,0.01,0.95,-2.0,-0.6,0.6,4920,3864,,,,,,,,,,,,,,,,,
13546,1469902619784,,,,56,,,-0.06,-0.0,0.9,-1.7,0.3,0.2,5200,3884,1.286,3,39.53614,-122.329445,67.6,0.14,313.7,9,2,2.0,0,0.0,-1,0.0,,0.0,0
13566,1469902619807,,,,,,,-0.01,0.03,0.98,-2.1,1.2,0.4,4880,3884,,,,,,,,,,,,,,,,,
13586,1469902619827,,,,,,,-0.04,0.03,0.97,-2.6,-0.6,0.7,5040,3884,,,,,,,,,,,,,,,,,
13606,1469902619847,,,,,,,-0.1,0.01,0.89,-2.3,0.8,0.4,4880,3924,,,,,,,,,,,,,,,,,
13626,1469902619867,,,,,,,-0.04,0.03,0.92,-2.6,0.8,0.8,5120,3846,,,,,,,,,,,,,,,,,
13646,1469902619887,1,284.9,209.4,56,211.3,,-0.07,0.04,0.97,-2.8,-1.7,0.6,4820,3864,1.251,3,39.536137,-122.329407,67.7,0.142,313.5,9,2,2.0,0,0.0,-1,0.0,0.0,0.0,0
13666,1469902620000,,,,,,,-0.11,0.0,0.89,-2.2,1.1,0.0,5000,3924,,,,,,,,,,,,,,,,,
13686,1469902620020,,,,,,,-0.06,0.02,0.89,-2.4,0.2,0.5,5060,3884,,,,,,,,,,,,,,,,,
13706,1469902620040,,,,,,,-0.07,0.07,0.92,-2.5,-1.2,0.1,4960,3884,,,,,,,,,,,,,,,,,
13726,1469902620060,,,,,,,-0.07,0.06,0.84,-2.8,1.2,0.2,5140,3904,,,,,,,,,,,,,,,,,
13746,1469902620080,,,,60,,,-0.04,0.02,0.83,-2.4,-0.2,0.7,4820,3924,1.322,3,39.536118,-122.329346,68.15,0.146,313.0,9,2,2.0,0,0.0,-1,0.0,,0.0,0
13766,1469902620100,,,,,,,-0.07,0.1,0.87,-2.2,-2.3,0.2,5100,3904,,,,,,,,,,,,,,,,,
13786,1469902620120,,,,,,,-0.06,-0.0,0.78,-2.3,0.4,0.2,4780,3924,,,,,,,,,,,,,,,,,
13806,1469902620140,,,,,,,-0.05,0.0,0.76,-2.1,-1.3,0.4,4940,3924,,,,,,,,,,,,,,,,,
13826,1469902620160,,,,,,,-0.11,0.07,0.81,-2.3,-2.9,-0.0,4880,3884,,,,,,,,,,,,,,,,,
13846,1469902620180,0,285.4,209.5,57,210.8,,-0.08,0.0,0.86,-2.6,-0.3,0.0,5180,3924,1.204,3,39.536118,-122.329346,68.15,0.146,313.0,9,2,2.0,0,0.0,-1,0.0,0.0,0.0,0
13866,1469902620107,,,,,,,-0.05,0.01,0.85,-2.3,-1.8,0.3,4800,3944,,,,,,,,,,,,,,,,,
13886,1469902620127,,,,,,,-0.11,0.04,0.88,-2.2,-2.8,-0.1,5100,3904,,,,,,,,,,,,,,,,,
13906,1469902620147,,,,,,,-0.04,-0.0,0.97,-2.2,-0.2,-0.3,4820,3944,,,,,,,,,,,,,,,,,
13926,1469902620167,,,,,,,-0.01,-0.03,0.92,-2.3,-1.5,0.1,4960,3924,,,,,,,,,,,,,,,,,
13946,1469902620187,,,,57,,,-0.05,0.0,0.98,-2.0,-2.0,-0.5,5060,3944,1.251,3,39.53611,-122.329308,68.34,0.148,312.8,9,2,2.0,0,0.0,-1,0.0,,0.0,0
13966,1469902620207,,,,,,,-0.0,0.03,1.07,-2.4,0.2,-0.4,5040,3944,,,,,,,,,,,,,,,,,
13986,1469902620227,,,,,,,0.02,-0.03,1.09,-2.4,-0.9,0.1,4800,3904,,,,,,,,,,,,,,,,,
14006,1469902620247,,,,,,,-0.05,0.06,1.05,-2.0,-0.4,-0.4,5080,3964,,,,,,,,,,,,,,,,,
14026,1469902620267,,,,,,,-0.0,-0.01,1.09,-2.3,1.5,-0.0,4760,3924,,,,,,,,,,,,,,,,,
14046,1469902620287,0,286.2,210.0,50,211.4,14.0,0.03,-0.04,1.1,-2.1,-0.9,0.2,5060,3944,1.29,3,39.536098,-122.329269,68.48,0.15,312.5,9,2,2.0,0,0.0,-1,0.0,0.0,0.0,0
14066,1469902620307,,,,,,,0.02,0.06,1.15,-2.0,-0.6,-0.2,5080,3944,,,,,,,,,,,,,,,,,
14086,1469902620327,,,,,,,0.07,-0.01,1.17,-2.3,0.6,-0.1,5080,3904,,,,,,,,,,,,,,,,,
14106,1469902620347,,,,,,,0.1,0.01,1.17,-2.3,-1.1,-0.1,4780,3944,,,,,,,,,,,,,,,,,
14126,1469902620367,,,,,,,0.06,0.06,1.11,-2.2,-1.1,-0.4,4920,3944,,,,,,,,,,,,,,,,,
14146,1469902620387,,,,66,,,0.1,-0.05,1.17,-2.4,1.0,-0.1,4900,3924,1.253,3,39.536091,-122.329247,68.58,0.151,312.2,9,2,2.0,0,0.0,-1,0.0,,0.0,0
14166,1469902620405,,,,,,,0.12,-0.02,1.22,-2.6,-2.1,0.1,5040,3944,,,,,,,,,,,,,,,,,
14186,1469902620425,,,,,,,0.08,0.01,1.17,-2.6,-1.3,-0.1,5020,3944,,,,,,,,,,,,,,,,,
14206,1469902620445,,,,,,,0.12,0.01,1.14,-2.9,-0.2,-0.0,4920,3944,,,,,,,,,,,,,,,,,
14226,1469902620465,,,,,,,0.12,0.02,1.16,-3.2,-3.7,0.2,5040,3884,,,,,,,,,,,,,,,,,
14246,1469902620485,0,285.0,209.2,43,210.6,,0.06,0.04,1.14,-2.6,-3.0,-0.1,4960,3924,1.274,3,39.536083,-122.329208,68.63,0.154,311.9,9,2,2.0,0,0.0,-1,0.0,0.0,0.0,0
14266,1469902620504,,,,,,,0.1,0.04,1.22,-2.8,-0.7,0.1,4940,3924,,,,,,,,,,,,,,,,,
14286,1469902620524,,,,,,,0.07,-0.01,1.2,-3.0,-2.9,0.6,4980,3904,,,,,,,,,,,,,,,,,
14306,1469902620544,,,,,,,0.07,0.0,1.15,-2.3,-2.1,-0.2,4920,3924,,,,,,,,,,,,,,,,,
14326,1469902620564,,,,,,,0.11,0.05,1.17,-2.6,-0.1,-0.2,5040,3924,,,,,,,,,,,,,,,,,
14346,1469902620584,,,,54,,,0.1,0.01,1.14,-3.0,-1.4,0.1,4960,3904,1.284,3,39.536076,-122.329163,68.75,0.156,311.5,9,2,2.0,0,0.0,-1,0.0,,0.0,0
14366,1469902620604,,,,,,,0.07,0.03,1.07,-2.6,-0.8,-0.5,4940,3944,,,,,,,,,,,,,,,,,
14386,1469902620624,,,,,,,0.09,0.02,1.13,-2.7,0.9,-0.3,5060,3904,,,,,,,,,,,,,,,,,
14406,1469902620644,,,,,,,0.05,-0.01,1.14,-3.0,-0.1,-0.1,4940,3924,,,,,,,,,,,,,,,,,
14426,1469902620664,,,,,,,0.04,0.02,1.14,-2.4,-0.1,-0.9,5040,3924,,,,,,,,,,,,,,,,,
14446,1469902620684,0,286.7,210.6,82,211.7,,0.06,0.01,1.18,-2.5,2.0,-0.6,5000,3944,1.269,3,39.536064,-122.32914,68.8,0.158,311.2,9,2,2.0,0,0.0,-1,0.0,0.0,0.0,0
14466,1469902620803,,,,,,,0.03,0.1,1.15,-2.9,1.1,-0.6,5060,3964,,,,,,,,,,,,,,,,,
14486,1469902620823,,,,,,,0.0,0.08,1.06,-2.9,0.5,-0.8,4960,3924,,,,,,,,,,,,,,,,,
14506,1469902620843,,,,,,,0.04,0.06,1.06,-2.9,2.1,-0.4,4880,3964,,,,,,,,,,,,,,,,,
14526,1469902620863,,,,,,,0.02,0.12,1.0,-3.4,0.6,-0.3,5000,3944,,,,,,,,,,,,,,,,,
14546,1469902620883,,,,60,,,-0.02,0.04,0.93,-3.2,0.3,-0.2,4880,3924,1.29,3,39.536049,-122.329063,68.88,0.162,310.3,9,2,2.0,0,0.0,-1,0.0,,0.0,0
14566,1469902620903,,,,,,,0.03,0.03,0.93,-3.1,0.9,-0.2,5040,3924,,,,,,,,,,,,,,,,,
14586,1469902620923,,,,,,,0.02,0.03,0.9,-3.3,-0.9,0.2,5020,3924,,,,,,,,,,,,,,,,,
14606,1469902620943,,,,,,,-0.04,-0.03,0.84,-2.8,-1.0,0.3,5000,3904,,,,,,,,,,,,,,,,,
14626,1469902620963,,,,,,,0.01,0.02,0.89,-2.9,-0.1,0.5,4980,3944,,,,,,,,,,,,,,,,,
14646,1469902620983,0,286.2,209.9,48,211.3,,0.0,0.02,0.84,-3.6,-2.4,1.0,5080,3884,1.27,3,39.536049,-122.329063,68.88,0.162,310.3,9,2,2.0,0,0.0,-1,0.0,0.0,0.0,0
14666,1469902620901,,,,,,,-0.04,0.03,0.79,-3.2,-1.8,0.7,4900,3924,,,,,,,,,,,,,,,,,
14686,1469902620921,,,,,,,0.0,0.08,0.81,-3.6,-1.6,0.9,5000,3904,,,,,,,,,,,,,,,,,
14706,1469902620941,,,,,,,0.01,-0.01,0.82,-3.9,-3.1,1.3,4980,3864,,,,,,,,,,,,,,,,,
14726,1469902620961,,,,,,,-0.05,0.01,0.75,-3.1,-1.5,1.0,4880,3904,,,,,,,,,,,,,,,,,
14746,1469902620981,,,,57,,,-0.02,0.03,0.72,-3.0,-2.0,1.1,4960,3884,1.262,3,39.536037,-122.329041,68.93,0.163,310.0,9,2,2.0,0,0.0,-1,0.0,,0.0,0
14766,1469902621007,,,,,,,-0.0,0.03,0.76,-3.2,-4.3,1.0,5000,3884,,,,,,,,,,,,,,,,,
14786,1469902621027,,,,,,,0.0,0.12,0.76,-3.4,-2.8,0.4,5000,3924,,,,,,,,,,,,,,,,,
14806,1469902621047,,,,,,,-0.01,0.07,0.82,-3.5,-1.9,0.2,4960,3924,,,,,,,,,,,,,,,,,
14826,1469902621067,,,,,,,-0.01,0.05,0.9,-3.5,-3.4,0.2,5000,3904,,,,,,,,,,,,,,,,,
14846,1469902621087,0,286.7,210.6,54,211.7,,-0.01,0.05,0.92,-3.4,-2.2,-0.5,4860,3924,1.286,3,39.536034,-122.329002,69.01,0.165,309.6,9,2,2.0,0,0.0,-1,0.0,0.0,0.0,0
14866,1469902621107,,,,,,,0.03,0.03,0.92,-3.3,-1.5,-0.6,4940,3924,,,,,,,,,,,,,,,,,
14886,1469902621127,,,,,,,-0.03,0.08,0.98,-3.3,-3.0,-0.8,4960,3904,,,,,,,,,,,,,,,,,
14906,1469902621147,,,,,,,0.02,0.1,0.96,-3.3,-0.8,-1.4,4920,3924,,,,,,,,,,,,,,,,,
14926,1469902621167,,,,,,,0.04,0.09,0.97,-3.8,-0.3,-1.0,4900,3924,,,,,,,,,,,,,,,,,
14946,1469902621187,,,,59,,,0.04,0.06,1.01,-3.5,-1.7,-1.0,5080,3944,1.227,3,39.536022,-122.328964,69.04,0.167,309.3,9,2,2.0,0,0.0,-1,0.0,,0.0,0
14966,1469902621204,,,,,,,0.1,0.09,1.02,-3.8,-0.2,-1.1,4900,3884,,,,,,,,,,,,,,,,,
14986,1469902621224,,,,,,,0.11,0.11,0.98,-4.1,-0.1,-0.5,4960,3944,,,,,,,,,,,,,,,,,
15006,1469902621244,,,,,,,0.07,0.09,1.01,-3.9,-1.5,-0.8,5020,3984,,,,,,,,,,,,,,,,,
15026,1469902621264,,,,,,,0.1,0.09,1.0,-3.8,-0.2,-0.8,4880,3924,,,,,,,,,,,,,,,,,
15046,1469902621284,0,285.5,209.9,49,211.2,14.05,0.15,0.08,0.98,-3.8,-0.4,-0.5,5020,3924,1.264,3,39.536015,-122.328934,68.99,0.169,308.9,9,2,2.0,0,0.0,-1,0.0,0.0,0.0,0
15066,1469902621307,,,,,,,0.08,0.09,0.98,-3.7,-0.6,-0.9,4860,3924,,,,,,,,,,,,,,,,,
15086,1469902621327,,,,,,,0.09,0.1,0.93,-4.2,0.4,-0.9,4980,3944,,,,,,,,,,,,,,,,,
15106,1469902621347,,,,,,,0.13,0.08,0.86,-4.0,-0.9,-0.6,4960,3884,,,,,,,,,,,,,,,,,
15126,1469902621367,,,,,,,0.07,0.14,0.85,-4.0,-0.7,-1.1,4960,3904,,,,,,,,,,,,,,,,,
15146,1469902621387,,,,56,,,0.12,0.07,0.78,-3.9,-0.5,-1.0,4980,3864,1.263,3,39.536007,-122.328896,68.89,0.171,308.5,9,2,2.0,0,0.0,-1,0.0,,0.0,0
15166,1469902621405,,,,,,,0.15,0.05,0.77,-3.6,-1.4,-0.7,4820,3769,,,,,,,,,,,,,,,,,
15186,1469902621425,,,,,,,0.11,0.12,0.69,-3.1,-1.1,-0.9,4700,3769,,,,,,,,,,,,,,,,,
15206,1469902621445,,,,,,,0.1,-0.01,0.7,-2.9,0.0,-0.8,4780,3826,,,,,,,,,,,,,,,,,
15226,1469902621465,,,,,,,0.11,0.04,0.77,-3.0,-1.5,-0.6,4820,3752,,,,,,,,,,,,,,,,,
15246,1469902621485,0,285.5,209.4,66,210.6,,0.12,0.05,0.73,-2.8,-2.0,-0.4,4860,3826,1.269,3,39.535996,-122.328857,68.93,0.173,308.1,9,2,2.0,0,0.0,-1,0.0,0.0,0.0,0
15266,1469902621604,,,,,,,0.14,0.07,0.76,-3.1,-1.3,-0.1,4900,3864,,,,,,,,,,,,,,,,,
15286,1469902621624,,,,,,,0.09,0.12,0.76,-3.7,-1.5,-0.2,4820,3904,,,,,,,,,,,,,,,,,
15306,1469902621644,,,,,,,0.12,0.07,0.81,-3.9,-1.0,0.0,4940,3944,,,,,,,,,,,,,,,,,
15326,1469902621664,,,,,,,0.18,0.07,0.79,-4.0,-2.7,0.8,4980,3884,,,,,,,,,,,,,,,,,
15346,1469902621684,,,,44,,,0.12,0.08,0.88,-3.3,-2.7,0.5,4900,3884,1.26,3,39.535976,-122.328796,68.92,0.177,307.3,9,2,2.0,0,0.0,-1,0.0,,0.0,0
15366,1469902621704,,,,,,,0.1,0.12,0.99,-3.7,-1.6,0.9,4860,3864,,,,,,,,,,,,,,,,,
15386,1469902621724,,,,,,,0.14,0.02,1.06,-3.9,-1.5,1.3,4780,3846,,,,,,,,,,,,,,,,,
15406,1469902621744,,,,,,,0.11,0.06,1.0,-3.2,-1.2,0.8,4900,3789,,,,,,,,,,,,,,,,,
15426,1469902621764,,,,,,,0.11,0.06,1.06,-3.3,0.8,0.8,4740,3789,,,,,,,,,,,,,,,,,
15446,1469902621784,0,286.4,209.5,58,210.9,,0.12,0.07,1.12,-3.9,0.2,0.7,4960,3846,1.253,3,39.535976,-122.328796,68.92,0.177,307.3,9,2,2.0,0,0.0,-1,0.0,0.0,0.0,0
15466,1469902621705,,,,,,,0.14,0.06,1.01,-3.6,0.8,0.5,4780,3846,,,,,,,,,,,,,,,,,
15486,1469902621725,,,,,,,0.12,0.05,0.92,-3.2,1.2,0.6,4900,3884,,,,,,,,,,,,,,,,,
15506,1469902621745,,,,,,,0.1,0.12,0.91,-3.4,-0.1,0.3,4880,3846,,,,,,,,,,,,,,,,,
15526,1469902621765,,,,,,,0.12,-0.02,0.94,-3.6,1.0,0.4,4980,3864,,,,,,,,,,,,,,,,,
15546,1469902621785,,,,63,,,0.12,0.03,0.87,-3.6,-0.4,0.7,4900,3807,1.291,3,39.535973,-122.328758,68.63,0.179,306.8,9,2,2.0,0,0.0,-1,0.0,,0.0,0
15566,1469902621808,,,,,,,0.05,0.02,0.9,-3.2,-0.5,0.5,4880,3826,,,,,,,,,,,,,,,,,
15586,1469902621828,,,,,,,0.08,0.03,0.97,-3.6,-0.2,0.1,4880,3789,,,,,,,,,,,,,,,,,
15606,1469902621848,,,,,,,0.12,0.01,1.0,-3.7,-0.9,0.3,4840,3807,,,,,,,,,,,,,,,,,
15626,1469902621868,,,,,,,0.12,0.0,0.94,-3.4,-0.5,0.3,4860,3846,,,,,,,,,,,,,,,,,
15646,1469902621888,0,286.2,210.2,56,211.4,,0.12,0.09,0.88,-3.1,-1.4,0.1,4900,3826,1.279,3,39.535961,-122.328728,68.36,0.181,306.4,9,2,2.0,0,0.0,-1,0.0,0.0,0.0,0
15666,1469902621900,,,,,,,0.12,0.07,0.89,-3.3,-1.7,0.0,4800,3846,,,,,,,,,,,,,,,,,
15686,1469902621920,,,,,,,0.15,0.0,0.82,-3.6,-1.4,0.5,4880,3807,,,,,,,,,,,,,,,,,
15706,1469902621940,,,,,,,0.13,-0.06,0.9,-3.5,-1.4,0.8,4840,3769,,,,,,,,,,,,,,,,,
15726,1469902621960,,,,,,,0.13,0.04,0.9,-3.3,-1.6,0.7,4800,3752,,,,,,,,,,,,,,,,,
15746,1469902621980,,,,57,,,0.2,0.09,0.97,-3.6,-0.7,0.7,4800,3807,1.284,3,39.535954,-122.32869,68.19,0.183,305.9,9,2,2.0,0,0.0,-1,0.0,,0.0,0
15766,1469902622008,,,,,,,0.19,0.14,0.93,-4.2,-1.0,0.4,4900,3769,,,,,,,,,,,,,,,,,
15786,1469902622028,,,,,,,0.23,0.15,0.91,-4.8,0.6,0.5,4860,3789,,,,,,,,,,,,,,,,,
15806,1469902622048,,,,,,,0.25,0.07,0.96,-4.4,-0.8,0.7,4700,3733,,,,,,,,,,,,,,,,,
15826,1469902622068,,,,,,,0.24,0.08,0.98,-3.7,-0.4,0.2,4760,3769,,,,,,,,,,,,,,,,,
15846,1469902622088,0,285.2,209.5,46,211.1,,0.28,0.19,0.98,-3.9,0.5,-0.0,4840,3769,1.302,3,39.535946,-122.328651,67.99,0.185,305.5,9,2,2.0,0,0.0,-1,0.0,0.0,0.0,0
15866,1469902622107,,,,,,,0.23,0.18,1.01,-4.4,1.6,0.1,4760,3789,,,,,,,,,,,,,,,,,
15886,1469902622127,,,,,,,0.23,0.14,0.99,-4.7,1.2,0.3,4800,3733,,,,,,,,,,,,,,,,,
15906,1469902622147,,,,,,,0.3,0.14,1.03,-4.2,1.2,0.6,4660,3733,,,,,,,,,,,,,,,,,
15926,1469902622167,,,,,,,0.34,0.14,1.01,-4.0,1.4,0.9,4760,3715,,,,,,,,,,,,,,,,,
15946,1469902622187,,,,57,,,0.32,0.1,0.95,-4.0,2.0,1.1,4740,3715,1.271,3,39.535938,-122.328629,67.76,0.186,305.0,9,2,2.0,0,0.0,-1,0.0,,0.0,0
15966,1469902622207,,,,,,,0.3,0.11,0.96,-4.3,1.1,0.9,4700,3680,,,,,,,,,,,,,,,,,
15986,1469902622227,,,,,,,0.33,0.14,0.94,-5.0,1.0,0.9,4640,3661,,,,,,,,,,,,,,,,,
16006,1469902622247,,,,,,,0.37,0.11,0.99,-4.8,0.9,1.2,4640,3696,,,,,,,,,,,,,,,,,
16026,1469902622267,,,,,,,0.37,0.15,1.01,-4.7,2.0,0.9,4600,3696,,,,,,,,,,,,,,,,,
16046,1469902622287,0,287.4,210.5,56,211.7,13.98,0.32,0.07,0.94,-4.4,1.0,1.3,4680,3680,1.248,3,39.535931,-122.32859,67.28,0.188,304.5,9,2,2.0,0,0.0,-1,0.0,0.0,0.0,0
16066,1469902622407,,,,,,,0.32,0.13,0.89,-4.0,0.9,1.2,4720,3680,,,,,,,,,,,,,,,,,
16086,1469902622427,,,,,,,0.37,0.11,0.93,-4.1,0.5,1.0,4700,3680,,,,,,,,,,,,,,,,,
16106,1469902622447,,,,,,,0.37,0.27,0.87,-4.9,0.3,0.9,4640,3627,,,,,,,,,,,,,,,,,
16126,1469902622467,,,,,,,0.36,0.24,0.81,-5.6,1.3,0.9,4620,3680,,,,,,,,,,,,,,,,,
16146,1469902622487,,,,51,,,0.33,0.24,0.91,-6.0,0.6,1.2,4580,3627,1.29,3,39.535915,-122.328529,66.21,0.192,303.5,9,2,2.0,0,0.0,-1,0.0,,0.0,0
16166,1469902622507,,,,,,,0.36,0.18,0.93,-6.0,0.8,1.0,4580,3610,,,,,,,,,,,,,,,,,
16186,1469902622527,,,,,,,0.43,0.19,0.91,-5.9,0.1,1.3,4620,3610,,,,,,,,,,,,,,,,,
16206,1469902622547,,,,,,,0.43,0.16,1.01,-5.6,1.3,1.3,4480,3593,,,,,,,,,,,,,,,,,
16226,1469902622567,,,,,,,0.39,0.16,0.93,-5.4,0.5,1.1,4680,3593,,,,,,,,,,,,,,,,,
16246,1469902622587,0,286.0,209.6,58,210.8,,0.35,0.18,0.94,-5.2,0.0,1.5,4680,3593,1.28,3,39.535915,-122.328529,66.21,0.192,303.5,9,2,2.0,0,0.0,-1,0.0,0.0,0.0,0
16266,1469902622505,,,,,,,0.34,0.11,1.0,-5.0,-0.4,1.6,4580,3560,,,,,,,,,,,,,,,,,
16286,1469902622525,,,,,,,0.34,0.2,0.93,-4.8,-0.7,1.2,4520,3610,,,,,,,,,,,,,,,,,
16306,1469902622545,,,,,,,0.32,0.26,1.0,-5.3,-0.2,0.9,4500,3576,,,,,,,,,,,,,,,,,
16326,1469902622565,,,,,,,0.26,0.25,0.92,-5.7,0.2,0.8,4560,3610,,,,,,,,,,,,,,,,,
16346,1469902622585,,,,61,,,0.25,0.26,0.99,-6.0,0.1,0.6,4640,3560,1.252,3,39.535904,-122.328491,65.49,0.194,303.0,9,2,2.0,0,0.0,-1,0.0,,0.0,0
16366,1469902622605,,,,,,,0.25,0.36,0.98,-6.3,-0.5,0.1,4480,3560,,,,,,,,,,,,,,,,,
16386,1469902622625,,,,,,,0.3,0.42,0.94,-6.8,-0.0,-0.2,4540,3593,,,,,,,,,,,,,,,,,
16406,1469902622645,,,,,,,0.28,0.41,0.98,-7.0,0.1,-0.6,4440,3527,,,,,,,,,,,,,,,,,
16426,1469902622665,,,,,,,0.29,0.4,1.03,-7.2,0.4,-0.9,4480,3610,,,,,,,,,,,,,,,,,
16446,1469902622685,0,285.7,209.8,57,211.2,,0.24,0.42,0.95,-7.5,-1.4,-1.2,4520,3544,1.27,3,39.535896,-122.328461,64.81,0.196,302.6,9,2,2.0,0,0.0,-1,0.0,0.0,0.0,0
16466,1469902622705,,,,,,,0.25,0.41,0.94,-7.6,-1.3,-0.9,4500,3576,,,,,,,,,,,,,,,,,
16486,1469902622725,,,,,,,0.25,0.38,0.94,-7.5,-1.6,-1.1,4520,3544,,,,,,,,,,,,,,,,,
16506,1469902622745,,,,,,,0.28,0.45,0.88,-7.9,-1.4,-1.1,4540,3544,,,,,,,,,,,,,,,,,
16526,1469902622765,,,,,,,0.26,0.46,0.88,-8.0,-1.7,-1.2,4480,3527,,,,,,,,,,,,,,,,,
16546,1469902622785,,,,78,,,0.26,0.44,0.81,-8.1,-1.5,-0.8,4480,3527,1.304,3,39.535889,-122.328423,64.31,0.198,302.0,9,2,2.0,0,0.0,-1,0.0,,0.0,0
16566,1469902622807,,,,,,,0.25,0.47,0.9,-8.3,-1.4,-1.1,4500,3464,,,,,,,,,,,,,,,,,
16586,1469902622827,,,,,,,0.27,0.48,0.84,-8.6,-0.9,-0.8,4500,3512,,,,,,,,,,,,,,,,,
16606,1469902622847,,,,,,,0.27,0.48,0.85,-8.7,-1.7,-0.9,4540,3495,,,,,,,,,,,,,,,,,
16626,1469902622867,,,,,,,0.28,0.48,0.76,-8.8,-1.4,-0.6,4520,3527,,,,,,,,,,,,,,,,,
16646,1469902622887,0,285.9,210.5,54,211.7,,0.28,0.5,0.78,-9.1,-1.2,-0.7,4520,3480,1.247,3,39.535881,-122.3284,63.62,0.199,301.6,9,2,2.0,0,0.0,-1,0.0,0.0,0.0,0
16666,1469902622901,,,,,,,0.25,0.51,0.75,-9.5,-1.5,-0.4,4460,3544,,,,,,,,,,,,,,,,,
16686,1469902622921,,,,,,,0.23,0.55,0.77,-9.7,-3.1,-0.5,4440,3464,,,,,,,,,,,,,,,,,
16706,1469902622941,,,,,,,0.24,0.54,0.81,-9.9,-2.7,-0.3,4540,3495,,,,,,,,,,,,,,,,,
16726,1469902622961,,,,,,,0.25,0.58,0.78,-10.2,-2.3,-0.3,4340,3512,,,,,,,,,,,,,,,,,
16746,1469902622981,,,,56,,,0.27,0.56,0.81,-10.6,-1.4,0.1,4400,3480,1.276,3,39.535877,-122.328362,63.16,0.201,301.1,9,2,2.0,0,0.0,-1,0.0,,0.0,0
16766,1469902623007,,,,,,,0.28,0.57,0.78,-10.6,-0.9,0.1,4320,3495,,,,,,,,,,,,,,,,,
16786,1469902623027,,,,,,,0.26,0.56,0.82,-10.8,-1.3,0.1,4460,3464,,,,,,,,,,,,,,,,,
16806,1469902623047,,,,,,,0.26,0.62,0.8,-10.9,-1.9,0.1,4320,3480,,,,,,,,,,,,,,,,,
16826,1469902623067,,,,,,,0.26,0.6,0.86,-11.1,-1.5,0.5,4380,3418,,,,,,,,,,,,,,,,,
16846,1469902623087,0,286.0,209.6,54,211.7,,0.23,0.56,0.91,-10.9,-0.7,0.6,4500,3495,1.299,3,39.53587,-122.328331,62.88,0.203,300.6,9,2,2.0,0,0.0,-1,0.0,0.0,0.0,0
16866,1469902623207,,,,,,,0.25,0.54,0.87,-10.7,0.1,0.8,4420,3464,,,,,,,,,,,,,,,,,
16886,1469902623227,,,,,,,0.23,0.47,0.89,-10.3,0.8,1.1,4380,3449,,,,,,,,,,,,,,,,,
16906,1469902623247,,,,,,,0.22,0.48,0.88,-10.0,1.5,0.8,4380,3480,,,,,,,,,,,,,,,,,
16926,1469902623267,,,,,,,0.22,0.41,0.99,-9.9,2.0,0.7,4400,3464,,,,,,,,,,,,,,,,,
16946,1469902623287,,,,45,,,0.24,0.41,1.03,-9.7,1.9,0.5,4360,3433,1.282,3,39.535858,-122.32827,61.89,0.206,299.7,9,2,2.0,0,0.0,-1,0.0,,0.0,0
16966,1469902623307,,,,,,,0.28,0.39,1.05,-9.5,1.6,0.6,4400,3433,,,,,,,,,,,,,,,,,
16986,1469902623327,,,,,,,0.31,0.37,1.1,-9.1,0.8,0.2,4400,3433,,,,,,,,,,,,,,,,,
17006,1469902623347,,,,,,,0.34,0.42,0.98,-9.4,0.8,0.5,4420,3449,,,,,,,,,,,,,,,,,
17026,1469902623367,,,,,,,0.35,0.39,1.0,-9.7,0.4,0.3,4340,3403,,,,,,,,,,,,,,,,,
17046,1469902623387,0,285.2,209.6,62,211.0,13.94,0.29,0.39,0.99,-9.9,0.6,0.5,4320,3403,1.241,3,39.535858,-122.32827,61.89,0.206,299.7,9,2,2.0,0,0.0,-1,0.0,0.0,0.0,0
17066,1469902623307,,,,,,,0.23,0.44,0.97,-10.1,0.3,0.7,4400,3418,,,,,,,,,,,,,,,,,
17086,1469902623327,,,,,,,0.26,0.4,0.95,-10.2,-0.9,0.7,4280,3372,,,,,,,,,,,,,,,,,
17106,1469902623347,,,,,,,0.26,0.32,1.01,-10.2,-1.2,0.8,4260,3372,,,,,,,,,,,,,,,,,
17126,1469902623367,,,,,,,0.27,0.33,0.99,-10.1,-0.1,0.7,4280,3433,,,,,,,,,,,,,,,,,
17146,1469902623387,,,,69,,,0.3,0.35,0.97,-10.2,0.4,0.9,4240,3403,1.293,3,39.53585,-122.328232,61.36,0.208,299.2,9,2,2.0,0,0.0,-1,0.0,,0.0,0
17166,1469902623406,,,,,,,0.31,0.32,1.0,-10.0,-0.5,0.9,4240,3343,,,,,,,,,,,,,,,,,
17186,1469902623426,,,,,,,0.27,0.41,0.98,-10.4,0.4,1.2,4260,3372,,,,,,,,,,,,,,,,,
17206,1469902623446,,,,,,,0.26,0.46,0.94,-10.6,-0.2,1.2,4260,3387,,,,,,,,,,,,,,,,,
17226,1469902623466,,,,,,,0.25,0.4,0.95,-10.9,-1.3,1.4,4340,3343,,,,,,,,,,,,,,,,,
17246,1469902623486,0,284.9,209.1,89,211.1,,0.22,0.36,0.95,-10.8,-2.1,1.3,4280,3343,1.286,3,39.535843,-122.328209,60.87,0.21,298.7,9,2,2.0,0,0.0,-1,0.0,0.0,0.0,0
17266,1469902623505,,,,,,,0.23,0.37,0.97,-10.9,-1.5,1.2,4300,3358,,,,,,,,,,,,,,,,,
17286,1469902623525,,,,,,,0.26,0.37,0.98,-10.9,-1.2,1.2,4320,3358,,,,,,,,,,,,,,,,,
17306,1469902623545,,,,,,,0.28,0.34,1.04,-10.7,-1.0,1.1,4160,3343,,,,,,,,,,,,,,,,,
17326,1469902623565,,,,,,,0.24,0.42,0.99,-10.9,-0.3,1.3,4220,3329,,,,,,,,,,,,,,,,,
