"Interval"|"ms"|0|0|1,"Utc"|"ms"|0|0|1,"FuelLevel"|"F"|0|100|5,"OilTemp"|"F"|0.0|300.0|5,"Coolant"|"F"|0.0|300.0|5,"OilPress"|"PSI"|0|150|10,"EngineTemp"|"F"|0.0|300.0|5,"Battery"|"Volts"|0.0|20.0|1,"AccelX"|"G"|-3.0|3.0|50,"AccelY"|"G"|-3.0|3.0|50,"AccelZ"|"G"|-3.0|3.0|50,"Yaw"|"Deg/Sec"|-300.0|300.0|50,"Pitch"|"Deg/Sec"|-300.0|300.0|50,"Roll"|"Deg/Sec"|-300.0|300.0|50,"RPM"|""|0|10000|50,"Driveshaft"|"RPM"|0|5000|50,"GearRatio"|""|-5.0|5.0|10,"Gear"|""|-1|5|10,"Latitude"|"Degrees"|-180.0|180.0|10,"Longitude"|"Degrees"|-180.0|180.0|10,"Speed"|"MPH"|0.0|150.0|10,"Distance"|"Miles"|0.0|0.0|10,"Altitude"|"Feet"|0.0|4000.0|10,"GPSSats"|""|0|20|10,"GPSQual"|""|0|5|10,"GPSDOP"|""|0.0|20.0|10,"LapCount"|""|0|0|10,"LapTime"|"Min"|0.0|0.0|10,"Sector"|""|0|0|10,"SectorTime"|"Min"|0.0|0.0|10,"PredTime"|"Min"|0.0|0.0|5,"ElapsedTime"|"Min"|0.0|0.0|10,"CurrentLap"|""|0|0|10
1942987,1469901226291,,,,,,,-0.01,0.05,0.98,-2.9,0.5,-0.1,640,0,,,,,,,,,,,,,,,,,
1943007,1469901226310,,,,,,,-0.0,0.06,0.99,-2.9,0.2,-0.2,640,0,,,,,,,,,,,,,,,,,
1943027,1469901226330,,,,,,,-0.0,0.07,1.0,-2.9,-0.1,-0.4,160,0,,,,,,,,,,,,,,,,,
1943047,1469901226350,,,,,,,-0.01,0.07,1.0,-2.9,-0.2,-0.5,160,0,,,,,,,,,,,,,,,,,
1943067,1469901226370,,,,0,,,-0.01,0.05,0.99,-2.9,-0.1,-0.4,160,0,0.0,0,39.540688,-122.332085,0.0,3.307,329.5,11,3,1.3,1,11.34,12,0.34,,20.5033,2
1943087,1469901226391,,,,,,,-0.01,0.04,0.99,-2.9,-0.1,-0.2,160,0,,,,,,,,,,,,,,,,,
1943107,1469901226411,,,,,,,-0.01,0.04,1.0,-2.9,-0.0,-0.2,260,0,,,,,,,,,,,,,,,,,
1943127,1469901226431,,,,,,,-0.01,0.04,0.99,-2.9,0.1,-0.2,260,0,,,,,,,,,,,,,,,,,
1943147,1469901226451,,,,,,,-0.01,0.04,0.99,-2.9,0.1,-0.3,260,0,,,,,,,,,,,,,,,,,
1943169,1469901226473,0,180.1,171.2,0,165.8,10.98,-0.01,0.05,0.99,-2.9,0.1,-0.2,380,0,0.0,0,39.540688,-122.332085,0.0,3.307,329.5,11,3,1.3,1,11.34,12,0.34,27.6702,20.505,2
1943188,1469901226591,,,,,,,-0.01,0.05,0.99,-2.9,0.1,-0.1,380,0,,,,,,,,,,,,,,,,,
1943208,1469901226611,,,,,,,-0.01,0.05,0.98,-2.9,0.1,-0.2,420,0,,,,,,,,,,,,,,,,,
1943228,1469901226631,,,,,,,-0.02,0.03,0.98,-2.8,0.1,-0.2,420,0,,,,,,,,,,,,,,,,,
1943248,1469901226651,,,,,,,-0.02,0.05,0.98,-2.8,0.2,-0.1,460,0,,,,,,,,,,,,,,,,,
1943268,1469901226671,,,,0,,,-0.02,0.03,0.97,-2.9,0.1,-0.0,460,0,0.0,0,39.540688,-122.332085,0.0,3.307,329.5,11,3,1.3,1,11.34,12,0.34,,20.5083,2
1943288,1469901226691,,,,,,,-0.01,0.05,0.97,-2.8,0.2,0.1,600,0,,,,,,,,,,,,,,,,,
1943308,1469901226711,,,,,,,-0.02,0.06,0.97,-2.8,0.0,-0.2,740,0,,,,,,,,,,,,,,,,,
1943328,1469901226731,,,,,,,-0.01,0.05,0.97,-2.7,-0.0,-0.5,840,0,,,,,,,,,,,,,,,,,
1943348,1469901226751,,,,,,,-0.01,0.04,0.97,-2.7,-0.1,-0.3,920,0,,,,,,,,,,,,,,,,,
1943370,1469901226773,1,180.3,171.4,0,166.9,,-0.01,0.04,0.96,-2.8,0.3,0.1,980,0,0.0,0,39.540688,-122.332085,0.0,3.307,329.5,11,3,1.3,1,11.34,12,0.34,27.6752,20.5083,2
1943389,1469901226692,,,,,,,-0.02,0.05,0.96,-2.8,0.4,0.2,1040,0,,,,,,,,,,,,,,,,,
1943409,1469901226712,,,,,,,-0.02,0.08,0.97,-2.9,0.7,0.2,1060,0,,,,,,,,,,,,,,,,,
1943429,1469901226732,,,,,,,-0.02,0.1,0.98,-3.0,0.8,0.2,1120,0,,,,,,,,,,,,,,,,,
1943449,1469901226752,,,,,,,-0.03,0.08,0.97,-3.0,0.6,-0.0,1080,0,,,,,,,,,,,,,,,,,
1943469,1469901226772,,,,0,,,-0.03,0.09,0.97,-2.9,0.3,-0.1,1120,0,0.0,0,39.540688,-122.332085,0.0,3.307,329.5,11,3,1.3,1,11.34,12,0.34,,20.51,2
1943489,1469901226793,,,,,,,-0.02,0.11,0.97,-3.0,0.2,-0.1,1140,0,,,,,,,,,,,,,,,,,
1943509,1469901226813,,,,,,,-0.01,0.1,0.97,-3.0,0.3,-0.1,1140,0,,,,,,,,,,,,,,,,,
1943529,1469901226833,,,,,,,-0.02,0.1,0.97,-3.0,0.2,-0.1,1160,0,,,,,,,,,,,,,,,,,
1943549,1469901226853,,,,,,,-0.02,0.1,0.96,-2.9,0.2,-0.1,1180,0,,,,,,,,,,,,,,,,,
1943571,1469901226875,0,179.3,170.6,0,166.3,,-0.02,0.09,0.97,-2.9,0.2,-0.1,1220,0,0.0,0,39.540688,-122.332085,0.0,3.307,329.5,11,3,1.3,1,11.34,12,0.34,27.6769,20.5117,2
1943590,1469901226894,,,,,,,-0.02,0.1,0.96,-2.9,0.1,-0.1,1240,0,,,,,,,,,,,,,,,,,
1943610,1469901226906,,,,,,,-0.02,0.1,0.97,-3.0,0.3,-0.1,1260,0,,,,,,,,,,,,,,,,,
1943630,1469901226926,,,,,,,-0.02,0.1,0.97,-2.9,0.3,-0.1,1280,0,,,,,,,,,,,,,,,,,
1943650,1469901226946,,,,,,,-0.03,0.09,0.97,-2.9,0.3,-0.1,1280,0,,,,,,,,,,,,,,,,,
1943670,1469901226966,,,,0,,,-0.02,0.09,0.98,-2.9,0.3,-0.2,1320,0,0.0,0,39.540688,-122.332085,0.0,3.307,329.5,11,3,1.3,1,11.34,12,0.34,,20.5133,2
1943690,1469901226993,,,,,,,-0.02,0.1,0.98,-2.9,0.2,-0.2,1300,0,,,,,,,,,,,,,,,,,
1943710,1469901227013,,,,,,,-0.02,0.09,0.98,-2.9,0.2,-0.2,1320,0,,,,,,,,,,,,,,,,,
1943730,1469901227033,,,,,,,-0.02,0.09,0.99,-2.9,0.2,-0.1,1300,0,,,,,,,,,,,,,,,,,
1943750,1469901227053,,,,,,,-0.02,0.09,0.99,-3.0,0.3,-0.1,1320,0,,,,,,,,,,,,,,,,,
1943772,1469901227075,0,180.4,171.5,0,166.9,,-0.02,0.08,1.0,-2.9,0.5,-0.1,1300,0,0.0,0,39.540688,-122.332085,0.0,3.307,329.5,11,3,1.3,1,11.34,12,0.34,27.6802,20.515,2
1943791,1469901227092,,,,,,,-0.02,0.09,1.0,-2.9,0.4,-0.1,1260,0,,,,,,,,,,,,,,,,,
1943811,1469901227112,,,,,,,-0.02,0.09,1.0,-2.9,0.5,-0.1,1280,0,,,,,,,,,,,,,,,,,
1943831,1469901227132,,,,,,,-0.02,0.09,1.0,-2.9,0.5,-0.2,1260,0,,,,,,,,,,,,,,,,,
1943851,1469901227152,,,,,,,-0.01,0.09,1.0,-2.9,0.5,-0.2,1280,0,,,,,,,,,,,,,,,,,
1943871,1469901227172,,,,3,,,-0.01,0.08,1.0,-2.9,0.5,-0.2,1220,0,0.0,0,39.540688,-122.332085,0.0,3.307,329.5,11,3,1.3,1,11.34,12,0.34,,20.5167,2
1943891,1469901227194,,,,,,,-0.01,0.09,0.99,-3.0,0.5,-0.1,1220,0,,,,,,,,,,,,,,,,,
1943911,1469901227214,,,,,,,-0.01,0.09,0.99,-3.0,0.5,-0.2,1220,0,,,,,,,,,,,,,,,,,
1943931,1469901227234,,,,,,,-0.01,0.09,0.99,-3.0,0.4,-0.2,1200,0,,,,,,,,,,,,,,,,,
1943951,1469901227254,,,,,,,-0.01,0.09,0.99,-3.0,0.4,-0.2,1160,0,,,,,,,,,,,,,,,,,
1943973,1469901227276,0,179.6,170.7,11,166.1,,-0.01,0.09,0.99,-3.0,0.4,-0.2,1120,0,0.0,0,39.540688,-122.332085,0.0,3.307,329.5,11,3,1.3,1,11.34,12,0.34,27.6836,20.5183,2
1943992,1469901227394,,,,,,,-0.02,0.08,0.98,-3.0,0.4,-0.2,1120,0,,,,,,,,,,,,,,,,,
1944012,1469901227414,,,,,,,-0.02,0.08,0.98,-3.0,0.3,-0.2,1100,0,,,,,,,,,,,,,,,,,
1944032,1469901227434,,,,,,,-0.02,0.08,0.98,-3.0,0.2,-0.2,1080,0,,,,,,,,,,,,,,,,,
1944052,1469901227454,,,,,,,-0.01,0.08,0.98,-3.0,0.2,-0.2,1080,0,,,,,,,,,,,,,,,,,
1944072,1469901227474,,,,15,,,-0.01,0.08,0.98,-3.0,0.2,-0.2,1060,0,0.0,0,39.540688,-122.332085,0.0,3.307,329.5,11,3,1.3,1,11.34,12,0.34,,20.5217,2
1944092,1469901227494,,,,,,,-0.01,0.08,0.98,-3.0,0.2,-0.2,1040,0,,,,,,,,,,,,,,,,,
1944112,1469901227514,,,,,,,-0.01,0.08,0.99,-3.0,0.2,-0.2,1000,0,,,,,,,,,,,,,,,,,
1944132,1469901227534,,,,,,,-0.01,0.08,0.99,-3.0,0.2,-0.2,1000,0,,,,,,,,,,,,,,,,,
1944152,1469901227554,,,,,,,-0.01,0.08,0.99,-3.0,0.1,-0.2,1000,0,,,,,,,,,,,,,,,,,
1944174,1469901227576,0,180.1,171.5,18,166.9,13.05,-0.01,0.08,0.99,-3.0,0.1,-0.2,980,0,0.0,0,39.540688,-122.332085,0.0,3.307,329.5,11,3,1.3,1,11.34,12,0.34,27.6886,20.5217,2
1944193,1469901227495,,,,,,,-0.01,0.08,0.99,-3.0,0.0,-0.2,960,0,,,,,,,,,,,,,,,,,
1944213,1469901227515,,,,,,,-0.01,0.08,0.99,-3.0,-0.0,-0.2,940,0,,,,,,,,,,,,,,,,,
1944233,1469901227535,,,,,,,-0.01,0.07,0.99,-3.0,-0.0,-0.2,920,0,,,,,,,,,,,,,,,,,
1944253,1469901227555,,,,,,,-0.01,0.07,0.99,-3.0,-0.1,-0.2,900,0,,,,,,,,,,,,,,,,,
1944273,1469901227575,,,,16,,,-0.01,0.07,0.99,-3.0,-0.0,-0.2,880,0,0.0,0,39.540688,-122.332085,0.0,3.307,329.5,11,3,1.3,1,11.34,12,0.34,,20.5233,2
1944293,1469901227596,,,,,,,-0.01,0.07,0.99,-3.0,0.0,-0.2,880,0,,,,,,,,,,,,,,,,,
1944313,1469901227616,,,,,,,-0.01,0.07,0.98,-3.0,0.1,-0.1,880,0,,,,,,,,,,,,,,,,,
1944333,1469901227636,,,,,,,-0.01,0.07,0.98,-3.0,0.1,-0.1,860,0,,,,,,,,,,,,,,,,,
1944353,1469901227656,,,,,,,-0.01,0.08,0.99,-3.0,0.1,-0.1,840,0,,,,,,,,,,,,,,,,,
1944375,1469901227678,0,180.0,171.0,17,165.8,,-0.01,0.08,0.99,-3.0,0.1,-0.1,780,0,0.0,0,39.540688,-122.332085,0.0,3.307,329.5,11,3,1.3,1,11.34,12,0.34,27.6903,20.525,2
1944394,1469901227696,,,,,,,-0.01,0.08,0.99,-2.9,0.1,-0.2,780,0,,,,,,,,,,,,,,,,,
1944414,1469901227716,,,,,,,-0.01,0.07,0.98,-2.9,0.2,-0.2,780,0,,,,,,,,,,,,,,,,,
1944434,1469901227736,,,,,,,-0.01,0.07,0.98,-2.9,0.2,-0.2,780,0,,,,,,,,,,,,,,,,,
1944454,1469901227756,,,,,,,-0.01,0.08,0.98,-2.9,0.2,-0.2,760,0,,,,,,,,,,,,,,,,,
1944474,1469901227776,,,,14,,,-0.01,0.07,0.99,-2.9,0.2,-0.2,740,0,0.0,0,39.540688,-122.332085,0.0,3.307,329.5,11,3,1.3,1,11.34,12,0.34,,20.5267,2
1944494,1469901227797,,,,,,,-0.01,0.07,0.99,-2.9,0.1,-0.2,720,0,,,,,,,,,,,,,,,,,
1944514,1469901227817,,,,,,,-0.01,0.07,0.98,-2.9,0.1,-0.1,720,0,,,,,,,,,,,,,,,,,
1944534,1469901227837,,,,,,,-0.0,0.08,0.98,-2.9,0.1,-0.1,700,0,,,,,,,,,,,,,,,,,
1944554,1469901227857,,,,,,,-0.01,0.07,0.98,-2.9,0.1,-0.1,700,0,,,,,,,,,,,,,,,,,
1944576,1469901227879,0,178.9,170.4,13,165.7,,-0.01,0.07,0.99,-2.9,0.1,-0.2,700,0,0.0,0,39.540688,-122.332085,0.0,3.307,329.5,11,3,1.3,1,11.34,12,0.34,27.6936,20.5283,2
1944595,1469901227898,,,,,,,-0.01,0.08,0.98,-2.9,0.1,-0.1,700,0,,,,,,,,,,,,,,,,,
1944615,1469901227910,,,,,,,-0.01,0.08,0.98,-3.0,0.1,-0.1,680,0,,,,,,,,,,,,,,,,,
1944635,1469901227930,,,,,,,-0.01,0.07,0.98,-3.0,0.1,-0.1,660,0,,,,,,,,,,,,,,,,,
1944655,1469901227950,,,,,,,-0.01,0.08,0.98,-3.0,0.1,-0.1,660,0,,,,,,,,,,,,,,,,,
1944675,1469901227970,,,,16,,,-0.01,0.08,0.98,-3.0,0.1,-0.1,660,0,0.0,0,39.540688,-122.332085,0.0,3.307,329.5,11,3,1.3,1,11.34,12,0.34,,20.53,2
1944695,1469901227995,,,,,,,-0.01,0.07,0.98,-2.9,0.1,-0.2,660,0,,,,,,,,,,,,,,,,,
1944715,1469901228015,,,,,,,-0.01,0.08,0.98,-3.0,0.2,-0.1,640,0,,,,,,,,,,,,,,,,,
1944735,1469901228035,,,,,,,-0.0,0.08,0.98,-3.0,0.1,-0.1,640,0,,,,,,,,,,,,,,,,,
1944755,1469901228055,,,,,,,-0.01,0.07,0.98,-2.9,0.1,-0.1,640,0,,,,,,,,,,,,,,,,,
1944777,1469901228077,0,179.3,170.8,13,166.4,,-0.0,0.08,0.98,-2.9,0.1,-0.1,640,0,0.0,0,39.540688,-122.332085,0.0,3.307,329.5,11,3,1.3,1,11.34,12,0.34,27.6969,20.5317,2
1944796,1469901228198,,,,,,,-0.0,0.08,0.98,-3.0,0.1,-0.1,640,0,,,,,,,,,,,,,,,,,
1944816,1469901228218,,,,,,,-0.0,0.07,0.98,-2.9,0.1,-0.1,640,0,,,,,,,,,,,,,,,,,
1944836,1469901228238,,,,,,,-0.0,0.08,0.99,-3.0,0.1,-0.0,620,0,,,,,,,,,,,,,,,,,
1944856,1469901228258,,,,,,,-0.01,0.08,0.99,-2.9,0.1,-0.1,620,0,,,,,,,,,,,,,,,,,
1944876,1469901228278,,,,11,,,-0.01,0.07,0.98,-3.0,0.2,-0.0,620,0,0.0,0,39.540688,-122.332085,0.0,3.307,329.5,11,3,1.3,1,11.34,12,0.34,,20.535,2
1944896,1469901228298,,,,,,,-0.01,0.09,0.98,-3.0,0.2,0.0,600,0,,,,,,,,,,,,,,,,,
1944916,1469901228318,,,,,,,-0.01,0.09,0.98,-3.0,0.1,-0.1,600,0,,,,,,,,,,,,,,,,,
1944936,1469901228338,,,,,,,-0.01,0.08,0.98,-3.0,0.2,-0.1,620,0,,,,,,,,,,,,,,,,,
1944956,1469901228358,,,,,,,-0.01,0.08,0.98,-3.0,0.3,-0.0,620,0,,,,,,,,,,,,,,,,,
1944978,1469901228380,0,179.1,170.4,11,165.7,,-0.01,0.07,0.98,-2.9,0.3,-0.1,620,0,0.0,0,39.540688,-122.332085,0.0,3.307,329.5,11,3,1.3,1,11.34,12,0.34,27.702,20.535,2
1944997,1469901228299,,,,,,,-0.0,0.08,0.98,-3.0,0.3,-0.1,640,0,,,,,,,,,,,,,,,,,
1945017,1469901228319,,,,,,,-0.0,0.08,0.98,-2.9,0.2,-0.1,620,0,,,,,,,,,,,,,,,,,
1945037,1469901228339,,,,,,,-0.0,0.08,0.98,-2.9,0.1,-0.1,620,0,,,,,,,,,,,,,,,,,
1945057,1469901228359,,,,,,,-0.0,0.08,0.98,-2.9,0.1,-0.1,620,0,,,,,,,,,,,,,,,,,
1945077,1469901228379,,,,10,,,-0.01,0.06,0.97,-2.8,-0.0,-0.2,600,0,0.0,0,39.540688,-122.332085,0.0,3.307,329.5,11,3,1.3,1,11.34,12,0.34,,20.5367,2
1945097,1469901228399,,,,,,,-0.01,0.07,0.98,-2.8,0.0,-0.2,600,0,,,,,,,,,,,,,,,,,
1945117,1469901228419,,,,,,,-0.01,0.07,0.98,-2.8,0.1,-0.2,620,0,,,,,,,,,,,,,,,,,
1945137,1469901228439,,,,,,,-0.01,0.06,0.98,-2.8,0.2,-0.2,620,0,,,,,,,,,,,,,,,,,
1945157,1469901228459,,,,,,,-0.0,0.07,0.98,-2.9,0.2,-0.1,620,0,,,,,,,,,,,,,,,,,
1945179,1469901228481,0,180.4,171.5,11,165.3,12.83,-0.0,0.06,0.98,-2.9,0.2,-0.1,640,0,0.0,0,39.540688,-122.332085,0.0,3.307,329.5,11,3,1.3,1,11.34,12,0.34,27.7036,20.5383,2
1945198,1469901228500,,,,,,,-0.01,0.06,0.98,-2.8,0.2,-0.2,640,0,,,,,,,,,,,,,,,,,
1945218,1469901228520,,,,,,,-0.0,0.07,0.98,-2.9,0.1,-0.1,620,0,,,,,,,,,,,,,,,,,
1945238,1469901228540,,,,,,,-0.0,0.07,0.98,-2.9,0.1,-0.2,640,0,,,,,,,,,,,,,,,,,
1945258,1469901228560,,,,,,,-0.01,0.06,0.98,-2.8,0.1,-0.2,640,0,,,,,,,,,,,,,,,,,
1945278,1469901228580,,,,11,,,-0.01,0.08,0.98,-2.9,0.1,-0.1,640,0,0.0,0,39.540688,-122.332085,0.0,3.307,329.5,11,3,1.3,1,11.34,12,0.34,,20.54,2
1945298,1469901228600,,,,,,,-0.01,0.08,0.98,-2.9,-0.1,-0.1,640,0,,,,,,,,,,,,,,,,,
1945318,1469901228620,,,,,,,-0.01,0.06,0.98,-2.9,-0.0,-0.2,640,0,,,,,,,,,,,,,,,,,
1945338,1469901228640,,,,,,,-0.01,0.08,0.98,-2.9,0.0,-0.1,660,0,,,,,,,,,,,,,,,,,
1945358,1469901228660,,,,,,,-0.01,0.08,0.98,-2.9,0.1,-0.1,680,0,,,,,,,,,,,,,,,,,
1945380,1469901228682,0,180.1,171.5,12,166.3,,-0.01,0.06,0.98,-2.9,0.1,-0.2,680,0,0.0,0,39.540688,-122.332085,0.0,3.307,329.5,11,3,1.3,1,11.34,12,0.34,27.707,20.5417,2
1945399,1469901228701,,,,,,,-0.01,0.08,0.98,-2.9,0.1,-0.2,680,0,,,,,,,,,,,,,,,,,
1945419,1469901228721,,,,,,,-0.02,0.08,0.99,-3.0,0.1,-0.2,680,0,,,,,,,,,,,,,,,,,
1945439,1469901228741,,,,,,,-0.02,0.07,0.98,-2.9,0.0,-0.2,680,0,,,,,,,,,,,,,,,,,
1945459,1469901228761,,,,,,,-0.02,0.08,0.98,-2.9,0.1,-0.1,660,0,,,,,,,,,,,,,,,,,
1945479,1469901228781,,,,13,,,-0.02,0.08,0.98,-2.9,0.1,-0.1,680,0,0.0,0,39.540688,-122.332085,0.0,3.307,329.5,11,3,1.3,1,11.34,12,0.34,,20.5433,2
1945499,1469901228801,,,,,,,-0.02,0.07,0.98,-2.9,0.0,-0.2,680,0,,,,,,,,,,,,,,,,,
1945519,1469901228821,,,,,,,-0.02,0.08,0.98,-3.0,-0.0,-0.2,680,0,,,,,,,,,,,,,,,,,
1945539,1469901228841,,,,,,,-0.02,0.09,0.98,-2.9,-0.0,-0.1,700,0,,,,,,,,,,,,,,,,,
1945559,1469901228861,,,,,,,-0.02,0.08,0.98,-2.9,-0.1,-0.2,680,0,,,,,,,,,,,,,,,,,
1945581,1469901228883,0,179.3,171.3,13,165.9,,-0.02,0.07,0.98,-2.9,-0.0,-0.2,680,0,0.0,0,39.540688,-122.332085,0.0,3.307,329.5,11,3,1.3,1,11.34,12,0.34,27.7104,20.545,2
1945600,1469901228995,,,,,,,-0.02,0.08,0.98,-3.0,-0.0,-0.1,680,0,,,,,,,,,,,,,,,,,
1945620,1469901229015,,,,,,,-0.02,0.08,0.98,-2.9,0.0,-0.3,680,0,,,,,,,,,,,,,,,,,
1945640,1469901229035,,,,,,,-0.02,0.07,0.98,-2.9,0.0,-0.3,680,0,,,,,,,,,,,,,,,,,
1945660,1469901229055,,,,,,,-0.02,0.08,0.99,-2.9,0.1,-0.2,700,0,,,,,,,,,,,,,,,,,
1945680,1469901229075,,,,11,,,-0.02,0.07,0.98,-2.9,0.0,-0.2,700,0,0.0,0,39.540688,-122.332085,0.0,3.307,329.5,11,3,1.3,1,11.34,12,0.34,,20.5483,2
1945700,1469901229095,,,,,,,-0.02,0.07,0.99,-2.9,0.0,-0.3,700,0,,,,,,,,,,,,,,,,,
1945720,1469901229115,,,,,,,-0.02,0.07,0.99,-3.0,0.1,-0.2,700,0,,,,,,,,,,,,,,,,,
1945740,1469901229135,,,,,,,-0.02,0.08,0.98,-3.0,0.1,-0.1,700,0,,,,,,,,,,,,,,,,,
1945760,1469901229155,,,,,,,-0.02,0.08,0.99,-3.0,0.1,-0.1,700,0,,,,,,,,,,,,,,,,,
1945782,1469901229177,0,179.1,171.2,13,165.8,,-0.02,0.07,0.99,-2.9,0.1,-0.2,700,0,0.0,0,39.540688,-122.332085,0.0,3.307,329.5,11,3,1.3,1,11.34,12,0.34,27.7152,20.5483,2
1945801,1469901229104,,,,,,,-0.01,0.08,0.99,-3.0,0.1,-0.1,700,0,,,,,,,,,,,,,,,,,
1945821,1469901229124,,,,,,,-0.01,0.08,0.99,-3.0,0.2,-0.1,700,0,,,,,,,,,,,,,,,,,
1945841,1469901229144,,,,,,,-0.01,0.07,0.99,-2.9,0.1,-0.2,700,0,,,,,,,,,,,,,,,,,
1945861,1469901229164,,,,,,,-0.01,0.08,0.99,-3.0,0.1,-0.2,700,0,,,,,,,,,,,,,,,,,
1945881,1469901229184,,,,13,,,-0.01,0.08,0.99,-3.0,0.2,-0.1,720,75,0.0,0,39.540688,-122.332085,0.0,3.307,329.5,11,3,1.3,1,11.34,12,0.34,,20.55,2
1945901,1469901229204,,,,,,,-0.01,0.08,1.0,-2.9,0.2,-0.2,700,75,,,,,,,,,,,,,,,,,
1945921,1469901229224,,,,,,,-0.02,0.08,0.99,-2.9,0.2,-0.2,700,75,,,,,,,,,,,,,,,,,
1945941,1469901229244,,,,,,,-0.02,0.08,0.98,-2.9,0.1,-0.2,700,75,,,,,,,,,,,,,,,,,
1945961,1469901229264,,,,,,,-0.01,0.08,0.98,-2.9,0.1,-0.2,700,0,,,,,,,,,,,,,,,,,
1945983,1469901229286,0,179.7,171.6,12,165.2,,-0.01,0.08,0.98,-2.9,0.2,-0.3,700,0,9.6,0,39.540688,-122.332085,0.0,3.307,329.5,11,3,1.3,1,11.34,12,0.34,27.7171,20.5517,2
1946002,1469901229304,,,,,,,-0.01,0.08,0.98,-2.9,0.2,-0.3,700,0,,,,,,,,,,,,,,,,,
1946022,1469901229324,,,,,,,-0.01,0.08,0.98,-2.9,0.3,-0.2,700,0,,,,,,,,,,,,,,,,,
1946042,1469901229344,,,,,,,-0.01,0.08,0.98,-2.8,0.2,-0.3,700,0,,,,,,,,,,,,,,,,,
1946062,1469901229364,,,,,,,-0.01,0.07,0.98,-2.8,0.2,-0.3,700,0,,,,,,,,,,,,,,,,,
1946082,1469901229384,,,,13,,,-0.01,0.07,0.98,-2.9,0.1,-0.2,700,0,0.0,0,39.540688,-122.332085,0.0,3.307,329.5,11,3,1.3,1,11.34,12,0.34,,20.5533,2
1946102,1469901229405,,,,,,,-0.01,0.07,0.98,-2.9,0.2,-0.2,700,0,,,,,,,,,,,,,,,,,
1946122,1469901229425,,,,,,,-0.01,0.07,0.98,-2.8,0.0,-0.3,680,0,,,,,,,,,,,,,,,,,
1946142,1469901229445,,,,,,,-0.01,0.07,0.98,-2.9,0.1,-0.3,680,0,,,,,,,,,,,,,,,,,
1946162,1469901229465,,,,,,,-0.0,0.08,0.98,-2.9,0.1,-0.2,700,0,,,,,,,,,,,,,,,,,
1946184,1469901229487,0,179.6,171.7,14,165.8,12.98,-0.01,0.07,0.98,-2.9,0.0,-0.3,700,0,0.0,0,39.540688,-122.332085,0.0,3.307,329.5,11,3,1.3,1,11.34,12,0.34,27.7204,20.555,2
1946203,1469901229506,,,,,,,-0.01,0.06,0.98,-2.9,0.1,-0.3,700,0,,,,,,,,,,,,,,,,,
1946223,1469901229526,,,,,,,-0.01,0.07,0.98,-2.9,0.1,-0.2,700,0,,,,,,,,,,,,,,,,,
1946243,1469901229546,,,,,,,-0.01,0.07,0.98,-2.9,0.1,-0.2,700,0,,,,,,,,,,,,,,,,,
1946263,1469901229566,,,,,,,-0.01,0.07,0.98,-2.9,0.1,-0.2,680,0,,,,,,,,,,,,,,,,,
1946283,1469901229586,,,,12,,,-0.01,0.07,0.98,-2.9,0.1,-0.2,680,0,0.0,0,39.540688,-122.332085,0.0,3.307,329.5,11,3,1.3,1,11.34,12,0.34,,20.5567,2
1946303,1469901229606,,,,,,,-0.01,0.07,0.98,-2.9,0.1,-0.1,680,0,,,,,,,,,,,,,,,,,
1946323,1469901229626,,,,,,,-0.0,0.07,0.98,-2.9,0.1,-0.2,680,0,,,,,,,,,,,,,,,,,
1946343,1469901229646,,,,,,,-0.0,0.06,0.98,-2.9,0.2,-0.2,680,0,,,,,,,,,,,,,,,,,
1946363,1469901229666,,,,,,,-0.0,0.07,0.98,-3.0,0.2,-0.2,680,0,,,,,,,,,,,,,,,,,
1946385,1469901229688,0,178.0,170.9,13,166.1,,-0.0,0.07,0.98,-2.9,0.2,-0.2,700,0,0.0,0,39.540688,-122.332085,0.0,3.307,329.5,11,3,1.3,1,11.34,12,0.34,27.7238,20.5583,2
1946404,1469901229806,,,,,,,-0.01,0.06,0.98,-2.9,0.2,-0.2,700,0,,,,,,,,,,,,,,,,,
1946424,1469901229826,,,,,,,-0.01,0.07,0.98,-2.9,0.2,-0.2,700,0,,,,,,,,,,,,,,,,,
1946444,1469901229846,,,,,,,-0.0,0.07,0.98,-2.9,0.2,-0.2,680,0,,,,,,,,,,,,,,,,,
1946464,1469901229866,,,,,,,-0.01,0.07,0.98,-2.9,0.2,-0.3,680,0,,,,,,,,,,,,,,,,,
1946484,1469901229886,,,,14,,,-0.01,0.07,0.98,-2.9,0.2,-0.2,680,0,0.0,0,39.540688,-122.332085,0.0,3.307,329.5,11,3,1.3,1,11.34,12,0.34,,20.5617,2
1946504,1469901229906,,,,,,,-0.01,0.08,0.98,-3.0,0.2,-0.2,700,0,,,,,,,,,,,,,,,,,
1946524,1469901229926,,,,,,,-0.01,0.07,0.98,-2.9,0.2,-0.2,680,0,,,,,,,,,,,,,,,,,
1946544,1469901229946,,,,,,,-0.01,0.07,0.98,-2.9,0.2,-0.3,680,0,,,,,,,,,,,,,,,,,
1946564,1469901229966,,,,,,,-0.01,0.07,0.98,-3.0,0.2,-0.1,700,0,,,,,,,,,,,,,,,,,
1946586,1469901229988,0,178.2,171.2,14,165.1,,-0.01,0.07,0.98,-3.0,0.1,-0.2,700,0,0.0,0,39.540688,-122.332085,0.0,3.307,329.5,11,3,1.3,1,11.34,12,0.34,27.7288,20.5617,2
1946605,1469901229901,,,,,,,-0.01,0.07,0.98,-3.0,0.1,-0.3,700,0,,,,,,,,,,,,,,,,,
1946625,1469901229921,,,,,,,-0.01,0.08,0.99,-3.0,0.2,-0.2,700,0,,,,,,,,,,,,,,,,,
1946645,1469901229941,,,,,,,-0.01,0.08,0.98,-3.0,0.1,-0.1,680,0,,,,,,,,,,,,,,,,,
1946665,1469901229961,,,,,,,-0.01,0.07,0.98,-3.0,0.1,-0.2,700,0,,,,,,,,,,,,,,,,,
1946685,1469901229981,,,,14,,,-0.01,0.07,0.98,-3.0,0.1,-0.2,700,0,0.0,0,39.540688,-122.332085,0.0,3.307,329.5,11,3,1.3,1,11.34,12,0.34,,20.5633,2
1946705,1469901230004,,,,,,,-0.01,0.08,0.98,-3.0,0.1,-0.1,700,0,,,,,,,,,,,,,,,,,
1946725,1469901230024,,,,,,,-0.01,0.08,0.98,-3.0,0.0,-0.1,700,0,,,,,,,,,,,,,,,,,
1946745,1469901230044,,,,,,,-0.01,0.07,0.99,-3.0,0.0,-0.2,700,0,,,,,,,,,,,,,,,,,
1946765,1469901230064,,,,,,,-0.01,0.07,0.98,-3.0,0.0,-0.1,700,0,,,,,,,,,,,,,,,,,
1946787,1469901230086,0,177.9,171.1,13,165.9,,-0.01,0.07,0.98,-3.0,0.1,-0.1,700,0,0.0,0,39.540688,-122.332085,0.0,3.307,329.5,11,3,1.3,1,11.34,12,0.34,27.7304,20.565,2
1946806,1469901230109,,,,,,,-0.0,0.07,0.98,-3.0,0.0,-0.2,680,0,,,,,,,,,,,,,,,,,
1946826,1469901230129,,,,,,,-0.0,0.06,0.98,-3.0,0.1,-0.2,680,0,,,,,,,,,,,,,,,,,
1946846,1469901230149,,,,,,,0.0,0.07,0.98,-3.0,0.1,-0.2,700,0,,,,,,,,,,,,,,,,,
1946866,1469901230169,,,,,,,0.0,0.07,0.99,-2.9,0.1,-0.2,700,0,,,,,,,,,,,,,,,,,
1946886,1469901230189,,,,13,,,0.0,0.07,0.99,-2.9,0.1,-0.3,700,0,0.0,0,39.540688,-122.332085,0.0,3.307,329.5,11,3,1.3,1,11.34,12,0.34,,20.5667,2
1946906,1469901230209,,,,,,,0.0,0.07,0.98,-3.0,0.1,-0.2,700,0,,,,,,,,,,,,,,,,,
1946926,1469901230229,,,,,,,0.01,0.06,0.99,-2.9,0.1,-0.2,700,0,,,,,,,,,,,,,,,,,
1946946,1469901230249,,,,,,,0.01,0.07,0.99,-2.9,0.2,-0.2,680,0,,,,,,,,,,,,,,,,,
1946966,1469901230269,,,,,,,0.02,0.07,0.99,-2.9,0.2,-0.1,680,0,,,,,,,,,,,,,,,,,
1946988,1469901230291,0,178.6,171.8,13,165.4,,0.02,0.08,0.98,-3.0,0.1,-0.0,680,0,0.0,0,39.540688,-122.332085,0.0,3.307,329.5,11,3,1.3,1,11.34,12,0.34,27.7338,20.5683,2
1947007,1469901230309,,,,,,,0.01,0.07,0.99,-2.9,-0.1,-0.1,700,0,,,,,,,,,,,,,,,,,
1947027,1469901230329,,,,,,,0.01,0.07,0.99,-2.9,-0.1,-0.1,700,0,,,,,,,,,,,,,,,,,
1947047,1469901230349,,,,,,,0.01,0.08,0.98,-2.9,-0.1,-0.1,680,0,,,,,,,,,,,,,,,,,
1947067,1469901230369,,,,,,,0.01,0.07,0.98,-3.0,-0.0,-0.1,700,0,,,,,,,,,,,,,,,,,
1947087,1469901230389,,,,13,,,0.0,0.07,0.99,-3.0,-0.0,-0.2,700,0,0.0,0,39.540688,-122.332085,0.0,3.307,329.5,11,3,1.3,1,11.34,12,0.34,,20.57,2
1947107,1469901230408,,,,,,,0.0,0.07,0.98,-3.0,-0.1,-0.2,700,0,,,,,,,,,,,,,,,,,
1947127,1469901230428,,,,,,,0.0,0.07,0.98,-3.0,-0.1,-0.1,680,0,,,,,,,,,,,,,,,,,
1947147,1469901230448,,,,,,,0.0,0.07,0.98,-2.9,-0.1,-0.2,680,0,,,,,,,,,,,,,,,,,
1947167,1469901230468,,,,,,,0.0,0.07,0.98,-3.0,-0.1,-0.1,680,0,,,,,,,,,,,,,,,,,
1947189,1469901230490,0,177.5,171.0,14,165.6,13.04,0.0,0.07,0.98,-3.0,-0.1,-0.1,680,0,0.0,0,39.540688,-122.332085,0.0,3.307,329.5,11,3,1.3,1,11.34,12,0.34,27.7371,20.5717,2
1947208,1469901230609,,,,,,,0.0,0.07,0.98,-3.0,-0.1,-0.2,680,0,,,,,,,,,,,,,,,,,
1947228,1469901230629,,,,,,,0.0,0.07,0.98,-3.0,0.0,-0.2,680,0,,,,,,,,,,,,,,,,,
1947248,1469901230649,,,,,,,0.01,0.07,0.98,-3.0,-0.0,-0.1,700,0,,,,,,,,,,,,,,,,,
1947268,1469901230669,,,,,,,0.0,0.07,0.98,-3.0,0.0,-0.1,700,0,,,,,,,,,,,,,,,,,
1947288,1469901230689,,,,13,,,0.0,0.07,0.99,-2.9,0.1,-0.2,680,0,0.0,0,39.540688,-122.332085,0.0,3.307,329.5,11,3,1.3,1,11.34,12,0.34,,20.575,2
1947308,1469901230709,,,,,,,0.0,0.07,0.99,-3.0,0.1,-0.1,680,0,,,,,,,,,,,,,,,,,
1947328,1469901230729,,,,,,,0.0,0.08,0.98,-3.0,0.1,-0.1,680,0,,,,,,,,,,,,,,,,,
1947348,1469901230749,,,,,,,-0.0,0.07,0.98,-2.9,0.0,-0.1,700,0,,,,,,,,,,,,,,,,,
1947368,1469901230769,,,,,,,-0.0,0.08,0.99,-3.0,0.0,-0.2,700,0,,,,,,,,,,,,,,,,,
1947390,1469901230693,0,179.2,172.2,14,165.3,,-0.0,0.08,0.98,-3.0,-0.0,-0.1,700,0,0.0,0,39.540688,-122.332085,0.0,3.307,329.5,11,3,1.3,1,11.34,12,0.34,27.7405,20.5767,2
1947409,1469901230712,,,,,,,-0.0,0.07,0.98,-2.9,0.0,-0.2,700,0,,,,,,,,,,,,,,,,,
1947429,1469901230732,,,,,,,0.0,0.07,0.99,-3.0,0.3,-0.2,700,0,,,,,,,,,,,,,,,,,
1947449,1469901230752,,,,,,,0.0,0.08,0.99,-3.1,0.4,-0.2,700,0,,,,,,,,,,,,,,,,,
1947469,1469901230772,,,,,,,-0.0,0.07,0.99,-3.1,0.4,-0.1,680,0,,,,,,,,,,,,,,,,,
1947489,1469901230794,,,,13,,,-0.01,0.07,0.99,-3.0,0.3,-0.2,680,0,0.0,0,39.540688,-122.332085,0.0,3.307,329.5,11,3,1.3,1,11.34,12,0.34,,20.5783,2
1947509,1469901230814,,,,,,,-0.0,0.08,0.99,-3.0,0.3,-0.2,680,0,,,,,,,,,,,,,,,,,
1947529,1469901230834,,,,,,,-0.0,0.09,0.98,-3.1,0.3,-0.1,700,0,,,,,,,,,,,,,,,,,
1947549,1469901230854,,,,,,,-0.01,0.08,0.98,-3.1,0.2,-0.2,680,0,,,,,,,,,,,,,,,,,
1947569,1469901230874,,,,,,,-0.01,0.08,0.98,-3.1,0.2,-0.2,680,0,,,,,,,,,,,,,,,,,
1947591,1469901230896,0,177.8,171.4,14,164.6,,-0.0,0.09,0.98,-3.1,0.2,-0.1,700,0,0.0,0,39.540688,-122.332085,0.0,3.307,329.5,11,3,1.3,1,11.34,12,0.34,27.7439,20.5783,2
1947610,1469901230906,,,,,,,-0.0,0.08,0.98,-3.1,0.3,-0.1,700,0,,,,,,,,,,,,,,,,,
1947630,1469901230926,,,,,,,-0.01,0.08,0.99,-3.1,0.2,-0.1,700,0,,,,,,,,,,,,,,,,,
1947650,1469901230946,,,,,,,-0.0,0.08,0.99,-3.1,0.3,-0.1,700,0,,,,,,,,,,,,,,,,,
1947670,1469901230966,,,,,,,-0.0,0.08,0.99,-3.1,0.2,-0.0,680,0,,,,,,,,,,,,,,,,,
1947690,1469901230993,,,,15,,,-0.01,0.07,0.99,-3.0,0.1,-0.1,700,0,0.0,0,39.540688,-122.332085,0.0,3.307,329.5,11,3,1.3,1,11.34,12,0.34,,20.5817,2
1947710,1469901231013,,,,,,,-0.0,0.07,0.99,-3.0,0.1,-0.2,700,0,,,,,,,,,,,,,,,,,
1947730,1469901231033,,,,,,,0.0,0.08,0.98,-3.0,0.1,-0.1,700,0,,,,,,,,,,,,,,,,,
1947750,1469901231053,,,,,,,0.0,0.08,0.98,-3.0,0.2,-0.2,700,0,,,,,,,,,,,,,,,,,
1947770,1469901231073,,,,,,,-0.0,0.07,0.98,-3.0,0.2,-0.2,700,24,,,,,,,,,,,,,,,,,
1947792,1469901231096,0,176.9,170.9,14,164.0,,-0.0,0.07,0.98,-3.0,0.3,-0.2,700,24,0.0,0,39.540688,-122.332085,0.0,3.307,329.5,11,3,1.3,1,11.34,12,0.34,27.7472,20.5833,2
1947811,1469901231115,,,,,,,-0.0,0.07,0.98,-3.0,0.3,-0.1,700,24,,,,,,,,,,,,,,,,,
1947831,1469901231135,,,,,,,-0.0,0.07,0.98,-3.0,0.2,-0.2,680,24,,,,,,,,,,,,,,,,,
1947851,1469901231155,,,,,,,-0.0,0.07,0.98,-3.0,0.2,-0.2,680,24,,,,,,,,,,,,,,,,,
1947871,1469901231175,,,,,,,0.0,0.08,0.97,-3.0,0.2,-0.1,700,24,,,,,,,,,,,,,,,,,
1947891,1469901231195,,,,14,,,0.0,0.07,0.97,-3.0,0.2,-0.2,700,12,29.167,0,39.540688,-122.332085,0.0,3.307,329.5,11,3,1.3,1,11.34,12,0.34,,20.585,2
1947911,1469901231215,,,,,,,0.0,0.07,0.98,-2.9,0.2,-0.2,700,12,,,,,,,,,,,,,,,,,
1947931,1469901231235,,,,,,,0.01,0.07,0.98,-3.0,0.2,-0.1,700,12,,,,,,,,,,,,,,,,,
1947951,1469901231255,,,,,,,0.01,0.07,0.98,-3.0,0.3,-0.1,700,12,,,,,,,,,,,,,,,,,
1947971,1469901231275,,,,,,,0.0,0.06,0.98,-2.9,0.3,-0.2,700,12,,,,,,,,,,,,,,,,,
1947993,1469901231396,0,178.3,171.9,15,163.7,,0.0,0.07,0.98,-2.9,0.4,-0.1,700,12,58.333,0,39.540688,-122.332085,0.0,3.307,329.5,11,3,1.3,1,11.34,12,0.34,27.7522,20.5883,2
1948012,1469901231415,,,,,,,0.01,0.08,0.98,-3.0,0.3,-0.1,700,12,,,,,,,,,,,,,,,,,
1948032,1469901231435,,,,,,,0.01,0.08,0.98,-3.0,0.3,-0.1,700,12,,,,,,,,,,,,,,,,,
1948052,1469901231455,,,,,,,0.0,0.08,0.98,-3.0,0.3,-0.1,700,12,,,,,,,,,,,,,,,,,
1948072,1469901231475,,,,,,,0.0,0.08,0.98,-3.1,0.3,-0.1,700,12,,,,,,,,,,,,,,,,,
1948092,1469901231495,,,,14,,,0.01,0.08,0.98,-3.0,0.2,-0.1,700,12,58.333,0,39.540688,-122.332085,0.0,3.307,329.5,11,3,1.3,1,11.34,12,0.34,,20.5883,2
1948112,1469901231515,,,,,,,0.0,0.07,0.98,-3.0,0.1,-0.1,700,12,,,,,,,,,,,,,,,,,
1948132,1469901231535,,,,,,,0.0,0.07,0.98,-2.9,0.2,-0.2,700,12,,,,,,,,,,,,,,,,,
1948152,1469901231555,,,,,,,0.0,0.08,0.98,-2.9,0.2,-0.1,700,12,,,,,,,,,,,,,,,,,
1948172,1469901231575,,,,,,,0.0,0.08,0.98,-2.9,0.2,-0.2,680,12,,,,,,,,,,,,,,,,,
1948194,1469901231498,0,176.8,171.2,13,163.9,13.05,0.0,0.07,0.98,-2.9,0.2,-0.2,680,12,58.333,0,39.540688,-122.332085,0.0,3.307,329.5,11,3,1.3,1,11.34,12,0.34,27.7539,20.59,2
1948213,1469901231517,,,,,,,0.0,0.07,0.99,-2.9,0.2,-0.1,700,12,,,,,,,,,,,,,,,,,
1948233,1469901231537,,,,,,,0.0,0.07,0.98,-2.9,0.3,-0.1,700,13,,,,,,,,,,,,,,,,,
1948253,1469901231557,,,,,,,-0.0,0.06,0.99,-2.9,0.2,-0.2,700,13,,,,,,,,,,,,,,,,,
1948273,1469901231577,,,,,,,-0.0,0.07,0.99,-2.9,0.3,-0.2,700,13,,,,,,,,,,,,,,,,,
1948293,1469901231597,,,,14,,,0.0,0.07,0.98,-2.9,0.3,-0.1,700,13,58.333,0,39.540688,-122.332085,0.0,3.307,329.5,11,3,1.3,1,11.34,12,0.34,,20.5917,2
1948313,1469901231617,,,,,,,-0.0,0.06,0.98,-2.9,0.3,-0.1,700,13,,,,,,,,,,,,,,,,,
1948333,1469901231637,,,,,,,-0.0,0.07,0.98,-2.9,0.4,-0.2,700,13,,,,,,,,,,,,,,,,,
1948353,1469901231657,,,,,,,0.0,0.08,0.98,-3.0,0.4,-0.1,680,13,,,,,,,,,,,,,,,,,
1948373,1469901231677,,,,,,,0.0,0.08,0.99,-2.9,0.3,-0.1,700,13,,,,,,,,,,,,,,,,,
1948395,1469901231699,1,178.3,172.2,14,163.8,,-0.0,0.07,0.99,-2.9,0.3,-0.2,700,13,53.846,0,39.540688,-122.332085,0.0,3.307,329.5,11,3,1.3,1,11.34,12,0.34,27.7573,20.5933,2
1948414,1469901231718,,,,,,,-0.0,0.07,0.99,-2.9,0.3,-0.1,700,15,,,,,,,,,,,,,,,,,
1948434,1469901231738,,,,,,,-0.0,0.08,0.98,-2.9,0.3,-0.1,700,15,,,,,,,,,,,,,,,,,
1948454,1469901231758,,,,,,,-0.0,0.08,0.98,-2.9,0.2,-0.2,700,15,,,,,,,,,,,,,,,,,
1948474,1469901231778,,,,,,,0.0,0.08,0.98,-2.9,0.2,-0.2,700,15,,,,,,,,,,,,,,,,,
1948494,1469901231798,,,,12,,,0.0,0.08,0.98,-3.0,0.2,-0.1,680,15,53.846,0,39.540688,-122.332085,0.0,3.307,329.5,11,3,1.3,1,11.34,12,0.34,,20.595,2
1948514,1469901231818,,,,,,,0.0,0.08,0.98,-3.0,0.2,-0.1,680,16,,,,,,,,,,,,,,,,,
1948534,1469901231838,,,,,,,-0.0,0.07,0.99,-2.9,0.2,-0.2,680,16,,,,,,,,,,,,,,,,,
1948554,1469901231858,,,,,,,-0.0,0.07,0.99,-3.0,0.2,-0.1,700,16,,,,,,,,,,,,,,,,,
1948574,1469901231878,,,,,,,-0.0,0.07,0.98,-3.0,0.2,-0.1,700,16,,,,,,,,,,,,,,,,,
1948596,1469901231900,0,176.4,170.9,14,163.3,,-0.02,0.06,0.98,-3.0,0.3,-0.1,700,16,45.333,0,39.540688,-122.332085,0.0,3.307,329.5,11,3,1.3,1,11.34,12,0.34,27.7606,20.595,2
1948615,1469901231909,,,,,,,-0.01,0.06,0.99,-3.1,0.3,-0.2,700,16,,,,,,,,,,,,,,,,,
1948635,1469901231929,,,,,,,-0.01,0.07,1.0,-3.2,0.2,-0.1,700,16,,,,,,,,,,,,,,,,,
1948655,1469901231949,,,,,,,-0.02,0.07,0.99,-3.1,0.3,-0.1,680,16,,,,,,,,,,,,,,,,,
1948675,1469901231969,,,,,,,-0.03,0.08,0.99,-3.2,0.4,-0.1,680,18,,,,,,,,,,,,,,,,,
1948695,1469901231999,,,,13,,,-0.03,0.1,1.0,-3.3,0.4,-0.0,680,18,43.75,0,39.540688,-122.332085,0.0,3.307,329.5,11,3,1.3,1,11.34,12,0.34,,20.5983,2
1948715,1469901232019,,,,,,,-0.03,0.11,1.0,-3.4,0.4,-0.0,680,18,,,,,,,,,,,,,,,,,
1948735,1469901232039,,,,,,,-0.04,0.1,1.0,-3.4,0.3,-0.1,680,18,,,,,,,,,,,,,,,,,
1948755,1469901232059,,,,,,,-0.04,0.1,1.0,-3.5,0.3,-0.1,680,18,,,,,,,,,,,,,,,,,
1948775,1469901232079,,,,,,,-0.04,0.1,0.99,-3.4,0.3,-0.1,700,18,,,,,,,,,,,,,,,,,
1948797,1469901232201,0,177.0,171.3,14,163.6,,-0.05,0.09,0.99,-3.4,0.2,-0.2,680,15,37.778,0,39.540688,-122.332085,0.0,3.307,329.5,11,3,1.3,1,11.34,12,0.34,27.7656,20.6017,2
1948816,1469901232220,,,,,,,-0.05,0.09,0.99,-3.3,0.2,-0.2,680,15,,,,,,,,,,,,,,,,,
1948836,1469901232240,,,,,,,-0.05,0.09,0.99,-3.3,0.2,-0.1,680,15,,,,,,,,,,,,,,,,,
1948856,1469901232260,,,,,,,-0.05,0.09,0.99,-3.2,0.2,-0.2,680,1538461,,,,,,,,,,,,,,,,,
1948876,1469901232280,,,,,,,-0.06,0.08,0.99,-3.1,0.2,-0.2,680,0,,,,,,,,,,,,,,,,,
1948896,1469901232300,,,,14,,,-0.06,0.08,1.0,-3.1,0.2,-0.2,680,0,45.333,0,39.540688,-122.332085,0.0,3.307,329.5,11,3,1.3,1,11.34,12,0.34,,20.6017,2
1948916,1469901232320,,,,,,,-0.06,0.08,0.99,-3.1,0.2,-0.2,680,0,,,,,,,,,,,,,,,,,
1948936,1469901232340,,,,,,,-0.06,0.08,0.99,-3.0,0.2,-0.3,700,0,,,,,,,,,,,,,,,,,
1948956,1469901232360,,,,,,,-0.05,0.08,0.99,-3.1,0.2,-0.1,700,0,,,,,,,,,,,,,,,,,
1948976,1469901232380,,,,,,,-0.04,0.08,0.99,-3.1,0.1,-0.1,680,0,,,,,,,,,,,,,,,,,
1948998,1469901232295,0,176.1,170.9,12,163.0,,-0.04,0.07,0.99,-3.0,0.1,-0.2,680,0,0.0,0,39.540688,-122.332085,0.0,3.307,329.5,11,3,1.3,1,11.34,12,0.34,27.7672,20.6033,2
1949017,1469901232314,,,,,,,-0.03,0.07,0.99,-3.0,0.1,-0.2,680,0,,,,,,,,,,,,,,,,,
1949037,1469901232334,,,,,,,-0.02,0.09,0.99,-3.0,0.1,-0.1,680,0,,,,,,,,,,,,,,,,,
1949057,1469901232354,,,,,,,-0.02,0.08,0.99,-2.9,0.1,-0.2,680,0,,,,,,,,,,,,,,,,,
1949077,1469901232374,,,,,,,-0.02,0.08,0.99,-3.0,0.2,-0.2,680,0,,,,,,,,,,,,,,,,,
1949097,1469901232401,,,,13,,,-0.02,0.08,0.98,-3.0,0.2,-0.1,680,0,0.0,0,39.540688,-122.332085,0.0,3.307,329.5,11,2,1.3,1,11.34,12,0.34,,20.605,2
1949117,1469901232421,,,,,,,-0.02,0.08,0.98,-3.0,0.2,-0.2,700,0,,,,,,,,,,,,,,,,,
1949137,1469901232441,,,,,,,-0.02,0.08,0.99,-3.0,0.2,-0.2,700,0,,,,,,,,,,,,,,,,,
1949157,1469901232461,,,,,,,-0.02,0.08,0.99,-3.0,0.3,-0.2,680,0,,,,,,,,,,,,,,,,,
1949177,1469901232481,,,,,,,-0.02,0.09,0.99,-3.1,0.2,-0.1,680,0,,,,,,,,,,,,,,,,,
1949199,1469901232498,0,178.0,172.3,13,163.1,13.1,-0.02,0.08,0.98,-3.0,0.1,-0.2,680,0,0.0,0,39.540688,-122.332085,0.0,3.307,329.5,11,3,1.3,1,11.34,12,0.34,27.7706,20.6067,2
1949218,1469901232517,,,,,,,-0.02,0.08,0.99,-3.0,0.1,-0.2,680,0,,,,,,,,,,,,,,,,,
1949238,1469901232537,,,,,,,-0.02,0.08,0.99,-3.0,0.1,-0.1,680,0,,,,,,,,,,,,,,,,,
1949258,1469901232557,,,,,,,-0.02,0.08,0.99,-2.9,0.2,-0.2,680,0,,,,,,,,,,,,,,,,,
1949278,1469901232577,,,,,,,-0.02,0.08,0.99,-3.0,0.2,-0.2,680,0,,,,,,,,,,,,,,,,,
1949298,1469901232597,,,,12,,,-0.01,0.09,0.99,-3.0,0.1,-0.2,700,0,0.0,0,39.540688,-122.332085,0.0,3.307,329.5,11,3,1.3,1,11.34,12,0.34,,20.6083,2
1949318,1469901232617,,,,,,,-0.01,0.08,0.99,-3.0,0.1,-0.2,680,0,,,,,,,,,,,,,,,,,
1949338,1469901232637,,,,,,,-0.02,0.08,0.99,-2.9,0.1,-0.2,680,0,,,,,,,,,,,,,,,,,
1949358,1469901232657,,,,,,,-0.01,0.08,0.99,-3.0,0.2,-0.2,680,0,,,,,,,,,,,,,,,,,
1949378,1469901232677,,,,,,,-0.01,0.08,0.99,-3.0,0.1,-0.2,680,0,,,,,,,,,,,,,,,,,
1949400,1469901232697,0,176.8,171.8,12,163.9,,-0.01,0.07,0.99,-2.9,0.1,-0.3,700,0,0.0,0,39.540688,-122.332085,0.0,3.307,329.5,11,2,1.3,1,11.34,12,0.34,27.7739,20.61,2
1949419,1469901232716,,,,,,,-0.01,0.07,0.99,-2.9,0.2,-0.3,700,0,,,,,,,,,,,,,,,,,
1949439,1469901232736,,,,,,,-0.01,0.07,0.99,-2.9,0.2,-0.2,700,0,,,,,,,,,,,,,,,,,
1949459,1469901232756,,,,,,,-0.01,0.07,0.99,-2.9,0.2,-0.2,700,0,,,,,,,,,,,,,,,,,
1949479,1469901232776,,,,,,,-0.02,0.07,0.99,-2.9,0.2,-0.2,700,0,,,,,,,,,,,,,,,,,
1949499,1469901232798,,,,14,,,-0.01,0.07,0.99,-2.9,0.2,-0.2,680,0,0.0,0,39.540688,-122.332085,0.0,3.307,329.5,11,3,1.3,1,11.34,12,0.34,,20.6117,2
1949519,1469901232818,,,,,,,-0.01,0.07,0.99,-2.9,0.1,-0.1,680,0,,,,,,,,,,,,,,,,,
1949539,1469901232838,,,,,,,-0.01,0.06,0.99,-2.9,0.1,-0.2,680,0,,,,,,,,,,,,,,,,,
1949559,1469901232858,,,,,,,-0.01,0.07,0.99,-2.9,0.2,-0.2,680,0,,,,,,,,,,,,,,,,,
1949579,1469901232878,,,,,,,-0.01,0.08,0.99,-2.9,0.2,-0.1,680,0,,,,,,,,,,,,,,,,,
1949601,1469901233000,0,177.8,172.1,13,163.0,,-0.01,0.07,0.99,-2.9,0.2,-0.2,680,0,0.0,0,39.540684,-122.332069,1.1,3.308,380.6,11,2,2.5,1,11.34,12,0.34,27.7761,20.615,2
1949620,1469901233019,,,,,,,-0.01,0.08,0.99,-2.9,0.2,-0.3,680,0,,,,,,,,,,,,,,,,,
1949640,1469901233039,,,,,,,-0.01,0.08,0.99,-2.9,0.2,-0.2,700,0,,,,,,,,,,,,,,,,,
1949660,1469901233059,,,,,,,-0.01,0.07,0.99,-2.9,0.2,-0.2,680,0,,,,,,,,,,,,,,,,,
1949680,1469901233079,,,,,,,-0.01,0.07,0.99,-2.9,0.2,-0.3,680,0,,,,,,,,,,,,,,,,,
1949700,1469901233099,,,,14,,,-0.01,0.08,0.99,-2.9,0.2,-0.2,680,0,0.0,0,39.540684,-122.332069,1.1,3.308,380.6,11,2,2.5,1,11.34,12,0.34,,20.615,2
1949720,1469901233119,,,,,,,-0.01,0.08,0.99,-2.9,0.1,-0.2,680,0,,,,,,,,,,,,,,,,,
1949740,1469901233139,,,,,,,-0.01,0.07,0.99,-2.9,0.1,-0.3,680,0,,,,,,,,,,,,,,,,,
1949760,1469901233159,,,,,,,-0.01,0.07,0.99,-2.9,0.1,-0.3,680,0,,,,,,,,,,,,,,,,,
1949780,1469901233179,,,,,,,-0.01,0.07,0.99,-2.9,0.1,-0.2,680,0,,,,,,,,,,,,,,,,,
1949802,1469901233109,0,177.1,171.6,14,163.3,,-0.01,0.07,0.99,-2.9,0.1,-0.3,700,0,0.0,0,39.540684,-122.332069,1.24,3.308,380.6,11,2,2.5,1,11.34,12,0.34,27.7779,20.6167,2
1949821,1469901233128,,,,,,,-0.01,0.06,0.99,-2.9,0.1,-0.2,700,0,,,,,,,,,,,,,,,,,
1949841,1469901233148,,,,,,,-0.01,0.07,0.98,-3.0,0.1,-0.1,680,0,,,,,,,,,,,,,,,,,
1949861,1469901233168,,,,,,,-0.01,0.07,0.98,-2.9,0.1,-0.1,680,0,,,,,,,,,,,,,,,,,
1949881,1469901233188,,,,,,,-0.01,0.07,0.98,-2.9,-0.0,-0.2,680,0,,,,,,,,,,,,,,,,,
1949901,1469901233208,,,,12,,,-0.01,0.07,0.98,-3.0,0.0,-0.1,680,0,0.0,0,39.540684,-122.332069,1.93,3.308,380.6,11,2,2.5,1,11.34,12,0.34,,20.6183,2
1949921,1469901233228,,,,,,,-0.01,0.07,0.98,-2.9,-0.0,-0.1,680,0,,,,,,,,,,,,,,,,,
1949941,1469901233248,,,,,,,-0.01,0.06,0.98,-2.9,-0.0,-0.2,680,0,,,,,,,,,,,,,,,,,
1949961,1469901233268,,,,,,,-0.01,0.07,0.99,-2.9,-0.0,-0.2,680,0,,,,,,,,,,,,,,,,,
1949981,1469901233288,,,,,,,-0.01,0.08,0.99,-2.9,0.1,-0.1,700,0,,,,,,,,,,,,,,,,,
1950003,1469901233311,0,177.2,171.8,12,162.2,,-0.01,0.07,0.98,-2.9,0.1,-0.2,680,0,0.0,0,39.540684,-122.332069,2.24,3.308,380.7,11,2,2.5,1,11.34,12,0.34,27.7812,20.62,2
1950022,1469901233330,,,,,,,-0.01,0.07,0.99,-2.9,0.1,-0.2,680,0,,,,,,,,,,,,,,,,,
1950042,1469901233350,,,,,,,-0.01,0.07,0.99,-2.9,0.1,-0.1,680,0,,,,,,,,,,,,,,,,,
1950062,1469901233370,,,,,,,-0.01,0.07,0.99,-2.9,0.1,-0.1,680,0,,,,,,,,,,,,,,,,,
1950082,1469901233390,,,,,,,-0.01,0.07,0.99,-2.9,0.1,-0.2,700,0,,,,,,,,,,,,,,,,,
1950102,1469901233408,,,,14,,,-0.01,0.07,0.99,-3.0,0.1,-0.2,700,0,0.0,0,39.540684,-122.332069,2.24,3.308,380.8,11,2,2.5,1,11.34,12,0.34,,20.6217,2
1950122,1469901233428,,,,,,,-0.01,0.07,0.98,-3.0,0.0,-0.1,700,0,,,,,,,,,,,,,,,,,
1950142,1469901233448,,,,,,,-0.01,0.06,0.98,-2.9,0.1,-0.2,720,0,,,,,,,,,,,,,,,,,
1950162,1469901233468,,,,,,,-0.01,0.06,0.98,-3.0,0.2,-0.2,720,0,,,,,,,,,,,,,,,,,
1950182,1469901233488,,,,,,,-0.01,0.08,0.98,-3.0,0.2,-0.1,680,0,,,,,,,,,,,,,,,,,
1950204,1469901233511,0,175.5,170.4,17,161.9,13.15,-0.01,0.08,0.98,-3.0,0.2,-0.1,700,0,0.0,0,39.540684,-122.332069,2.83,3.308,380.9,11,2,2.5,1,11.34,12,0.34,27.7846,20.6233,2
1950223,1469901233530,,,,,,,-0.01,0.07,0.99,-3.0,0.1,-0.2,700,0,,,,,,,,,,,,,,,,,
1950243,1469901233550,,,,,,,-0.01,0.07,0.98,-3.0,0.2,-0.2,700,0,,,,,,,,,,,,,,,,,
1950263,1469901233570,,,,,,,-0.01,0.07,0.98,-3.0,0.2,-0.1,700,0,,,,,,,,,,,,,,,,,
1950283,1469901233590,,,,,,,-0.01,0.07,0.98,-3.0,0.2,-0.2,700,0,,,,,,,,,,,,,,,,,
1950303,1469901233610,,,,14,,,-0.01,0.07,0.99,-3.0,0.1,-0.2,700,0,0.0,0,39.540688,-122.332069,2.61,3.308,381.0,11,2,2.5,1,11.34,12,0.34,,20.625,2
1950323,1469901233630,,,,,,,-0.01,0.08,0.99,-3.0,0.2,-0.1,720,0,,,,,,,,,,,,,,,,,
1950343,1469901233650,,,,,,,-0.01,0.08,0.99,-3.0,0.2,-0.1,680,0,,,,,,,,,,,,,,,,,
1950363,1469901233670,,,,,,,-0.01,0.07,0.99,-3.0,0.2,-0.2,680,0,,,,,,,,,,,,,,,,,
1950383,1469901233690,,,,,,,-0.01,0.08,0.99,-3.0,0.2,-0.1,700,0,,,,,,,,,,,,,,,,,
1950405,1469901233812,0,177.0,171.8,14,162.4,,-0.01,0.07,0.98,-3.0,0.2,-0.1,700,0,0.0,0,39.540688,-122.332069,3.61,3.308,381.1,11,3,2.5,1,11.34,12,0.34,27.7915,20.6283,2
1950424,1469901233831,,,,,,,-0.01,0.07,0.98,-2.9,0.2,-0.2,700,0,,,,,,,,,,,,,,,,,
1950444,1469901233851,,,,,,,-0.01,0.07,0.98,-3.0,0.2,-0.2,700,0,,,,,,,,,,,,,,,,,
1950464,1469901233871,,,,,,,-0.01,0.07,0.98,-3.0,0.2,-0.1,700,0,,,,,,,,,,,,,,,,,
1950484,1469901233891,,,,,,,-0.01,0.07,0.99,-2.9,0.2,-0.2,720,0,,,,,,,,,,,,,,,,,
1950504,1469901233911,,,,13,,,-0.01,0.07,0.99,-2.9,0.2,-0.3,720,0,0.0,0,39.540688,-122.332069,3.61,3.308,381.1,11,3,2.5,1,11.34,12,0.34,,20.6283,2
1950524,1469901233931,,,,,,,-0.01,0.07,0.99,-3.0,0.1,-0.2,700,0,,,,,,,,,,,,,,,,,
1950544,1469901233951,,,,,,,-0.01,0.08,0.99,-3.0,0.1,-0.2,700,0,,,,,,,,,,,,,,,,,
1950564,1469901233971,,,,,,,-0.01,0.07,0.99,-2.9,-0.0,-0.2,680,0,,,,,,,,,,,,,,,,,
1950584,1469901233991,,,,,,,-0.01,0.08,0.98,-3.0,0.1,-0.2,680,0,,,,,,,,,,,,,,,,,
1950606,1469901233903,0,175.4,170.5,15,161.9,,-0.01,0.08,0.99,-3.0,0.1,-0.1,700,0,0.0,0,39.540691,-122.332069,4.09,3.309,381.4,11,2,2.5,1,11.34,12,0.34,27.7948,20.63,2
1950625,1469901233922,,,,,,,-0.01,0.08,0.98,-3.0,0.1,-0.2,700,0,,,,,,,,,,,,,,,,,
1950645,1469901233942,,,,,,,-0.01,0.07,0.99,-3.0,0.1,-0.2,700,0,,,,,,,,,,,,,,,,,
1950665,1469901233962,,,,,,,-0.01,0.08,0.99,-3.0,0.1,-0.1,720,0,,,,,,,,,,,,,,,,,
1950685,1469901233982,,,,,,,-0.01,0.07,0.99,-3.0,0.1,-0.1,680,0,,,,,,,,,,,,,,,,,
1950705,1469901234002,,,,14,,,-0.01,0.07,0.99,-3.0,0.1,-0.2,700,0,0.0,0,39.540691,-122.332069,4.41,3.309,381.5,11,3,0.4,1,11.34,12,0.34,,20.6317,2
1950725,1469901234022,,,,,,,-0.01,0.08,0.99,-3.0,0.1,-0.1,700,0,,,,,,,,,,,,,,,,,
1950745,1469901234042,,,,,,,-0.01,0.08,1.0,-3.1,0.1,-0.1,680,0,,,,,,,,,,,,,,,,,
1950765,1469901234062,,,,,,,-0.01,0.07,0.99,-3.0,0.1,-0.2,700,0,,,,,,,,,,,,,,,,,
1950785,1469901234082,,,,,,,-0.01,0.06,0.99,-2.9,0.1,-0.3,700,0,,,,,,,,,,,,,,,,,
1950807,1469901234111,0,175.4,170.3,16,163.0,,-0.0,0.07,0.99,-3.0,0.1,-0.2,700,0,0.0,0,39.540695,-122.332069,4.36,3.309,381.8,11,3,0.4,1,11.34,12,0.34,27.8002,20.6333,2
1950826,1469901234130,,,,,,,-0.0,0.07,0.99,-3.0,0.0,-0.2,720,0,,,,,,,,,,,,,,,,,
1950846,1469901234150,,,,,,,-0.01,0.07,1.0,-2.9,0.0,-0.2,680,0,,,,,,,,,,,,,,,,,
1950866,1469901234170,,,,,,,-0.01,0.07,0.99,-3.0,-0.0,-0.1,680,0,,,,,,,,,,,,,,,,,
1950886,1469901234192,,,,,,,-0.01,0.07,0.99,-3.0,0.0,-0.1,680,0,,,,,,,,,,,,,,,,,
1950906,1469901234212,,,,14,,,-0.01,0.07,0.99,-3.0,-0.1,-0.2,680,0,0.0,0,39.540695,-122.332069,4.28,3.309,382.2,11,3,0.4,1,11.34,12,0.34,,20.635,2
1950926,1469901234232,,,,,,,-0.01,0.07,0.99,-3.0,-0.1,-0.2,680,0,,,,,,,,,,,,,,,,,
1950946,1469901234252,,,,,,,-0.0,0.08,0.99,-3.0,-0.0,-0.1,680,0,,,,,,,,,,,,,,,,,
1950966,1469901234272,,,,,,,-0.0,0.08,0.99,-3.0,0.0,-0.2,680,0,,,,,,,,,,,,,,,,,
1950986,1469901234292,,,,,,,-0.01,0.07,0.99,-3.0,0.1,-0.2,680,0,,,,,,,,,,,,,,,,,
1951008,1469901234314,0,175.9,171.0,13,162.6,,-0.0,0.08,0.99,-3.0,0.1,-0.2,720,0,0.0,0,39.540695,-122.332069,4.52,3.309,382.5,11,3,0.4,1,11.34,12,0.34,27.8036,20.6367,2
1951027,1469901234333,,,,,,,-0.01,0.08,0.99,-3.0,0.1,-0.1,680,0,,,,,,,,,,,,,,,,,
1951047,1469901234353,,,,,,,-0.01,0.07,0.99,-3.0,0.1,-0.3,680,0,,,,,,,,,,,,,,,,,
1951067,1469901234373,,,,,,,-0.01,0.08,0.99,-3.0,0.2,-0.2,680,0,,,,,,,,,,,,,,,,,
1951087,1469901234393,,,,,,,-0.0,0.08,0.98,-3.0,0.1,-0.1,700,0,,,,,,,,,,,,,,,,,
1951107,1469901234413,,,,12,,,-0.01,0.07,0.98,-3.0,0.0,-0.2,700,0,0.0,0,39.540699,-122.332069,4.72,3.309,382.9,11,3,0.4,1,11.34,12,0.34,,20.6383,2
1951127,1469901234433,,,,,,,-0.01,0.07,0.99,-3.0,0.1,-0.2,700,0,,,,,,,,,,,,,,,,,
1951147,1469901234453,,,,,,,-0.01,0.07,0.99,-3.0,0.1,-0.1,700,0,,,,,,,,,,,,,,,,,
1951167,1469901234473,,,,,,,-0.0,0.08,0.98,-3.0,0.1,-0.1,720,0,,,,,,,,,,,,,,,,,
1951187,1469901234491,,,,,,,-0.0,0.07,0.99,-3.0,0.0,-0.2,680,0,,,,,,,,,,,,,,,,,
1951209,1469901234612,0,175.7,170.5,15,162.4,13.19,-0.0,0.07,0.99,-3.0,0.1,-0.2,680,0,0.0,0,39.540703,-122.332069,3.48,3.309,383.5,11,2,0.4,1,11.34,12,0.34,27.8123,20.6417,2
1951228,1469901234631,,,,,,,-0.0,0.08,0.99,-3.0,0.1,-0.1,700,0,,,,,,,,,,,,,,,,,
1951248,1469901234651,,,,,,,-0.0,0.07,0.99,-3.0,0.0,-0.3,700,0,,,,,,,,,,,,,,,,,
1951268,1469901234671,,,,,,,-0.01,0.07,0.99,-3.0,-0.0,-0.3,700,0,,,,,,,,,,,,,,,,,
1951288,1469901234691,,,,,,,-0.0,0.08,0.99,-3.0,-0.0,-0.2,700,0,,,,,,,,,,,,,,,,,
1951308,1469901234711,,,,16,,,-0.0,0.07,0.99,-3.0,-0.0,-0.2,700,0,0.0,0,39.540703,-122.332069,3.48,3.309,383.5,11,2,0.4,1,11.34,12,0.34,,20.6417,2
1951328,1469901234731,,,,,,,-0.01,0.06,0.99,-2.9,0.0,-0.3,740,0,,,,,,,,,,,,,,,,,
1951348,1469901234751,,,,,,,-0.01,0.07,0.99,-3.0,0.0,-0.2,740,0,,,,,,,,,,,,,,,,,
1951368,1469901234771,,,,,,,-0.01,0.07,0.99,-2.9,0.0,-0.2,700,0,,,,,,,,,,,,,,,,,
1951388,1469901234694,,,,,,,-0.01,0.06,0.98,-2.9,0.0,-0.2,700,0,,,,,,,,,,,,,,,,,
1951410,1469901234716,0,175.3,170.3,13,161.7,,-0.01,0.07,0.99,-2.9,0.1,-0.2,700,0,0.0,0,39.540703,-122.332069,3.48,3.309,383.6,11,2,0.4,1,11.34,12,0.34,27.814,20.6433,2
1951429,1469901234735,,,,,,,-0.01,0.08,0.98,-3.0,0.0,-0.1,700,0,,,,,,,,,,,,,,,,,
1951449,1469901234755,,,,,,,-0.0,0.08,0.99,-3.0,-0.0,-0.2,700,0,,,,,,,,,,,,,,,,,
1951469,1469901234775,,,,,,,-0.01,0.08,0.99,-3.0,0.0,-0.2,700,0,,,,,,,,,,,,,,,,,
1951489,1469901234791,,,,,,,-0.01,0.08,0.99,-3.0,0.1,-0.2,700,0,,,,,,,,,,,,,,,,,
1951509,1469901234811,,,,14,,,-0.0,0.08,0.99,-3.0,0.1,-0.1,720,0,0.0,0,39.540703,-122.332069,2.73,3.309,383.7,11,3,0.4,1,11.34,12,0.34,,20.645,2
1951529,1469901234831,,,,,,,-0.01,0.08,0.98,-2.9,0.0,-0.2,680,0,,,,,,,,,,,,,,,,,
1951549,1469901234851,,,,,,,-0.01,0.08,0.98,-3.0,0.0,-0.3,680,0,,,,,,,,,,,,,,,,,
1951569,1469901234871,,,,,,,-0.0,0.09,0.98,-3.0,0.1,-0.2,700,0,,,,,,,,,,,,,,,,,
1951589,1469901234891,,,,,,,-0.0,0.08,0.98,-3.0,0.1,-0.2,680,0,,,,,,,,,,,,,,,,,
1951611,1469901234910,0,176.8,171.5,11,161.6,,-0.01,0.07,0.98,-2.9,0.1,-0.3,680,0,0.0,0,39.540703,-122.332069,2.19,3.309,383.9,11,3,0.4,1,11.34,12,0.34,27.8173,20.6467,2
1951630,1469901234929,,,,,,,-0.01,0.07,0.99,-3.0,0.1,-0.2,700,0,,,,,,,,,,,,,,,,,
1951650,1469901234949,,,,,,,-0.01,0.07,0.98,-3.0,0.1,-0.2,700,0,,,,,,,,,,,,,,,,,
1951670,1469901234969,,,,,,,-0.01,0.06,0.98,-2.9,0.1,-0.3,720,0,,,,,,,,,,,,,,,,,
1951690,1469901234996,,,,,,,-0.01,0.06,0.98,-2.9,0.2,-0.2,720,0,,,,,,,,,,,,,,,,,
1951710,1469901235016,,,,14,,,-0.01,0.07,0.98,-3.0,0.2,-0.1,700,0,0.0,0,39.540703,-122.332069,1.61,3.309,384.0,11,3,2.0,1,11.34,12,0.34,,20.6483,2
1951730,1469901235036,,,,,,,-0.01,0.07,0.98,-3.0,0.2,-0.1,700,0,,,,,,,,,,,,,,,,,
1951750,1469901235056,,,,,,,-0.01,0.06,0.98,-3.0,0.2,-0.2,700,0,,,,,,,,,,,,,,,,,
1951770,1469901235076,,,,,,,-0.01,0.07,0.98,-3.0,0.2,-0.1,700,0,,,,,,,,,,,,,,,,,
1951790,1469901235096,,,,,,,-0.01,0.07,0.98,-3.0,0.2,-0.1,700,0,,,,,,,,,,,,,,,,,
1951812,1469901235118,0,176.5,171.3,12,162.5,,-0.01,0.06,0.98,-2.9,0.2,-0.1,700,0,0.0,0,39.540703,-122.332069,0.0,3.309,384.0,11,3,2.0,1,11.34,12,0.34,27.8207,20.65,2
1951831,1469901235137,,,,,,,-0.01,0.07,0.98,-3.0,0.1,-0.2,700,0,,,,,,,,,,,,,,,,,
1951851,1469901235157,,,,,,,-0.01,0.07,0.99,-3.0,0.1,-0.0,720,0,,,,,,,,,,,,,,,,,
1951871,1469901235177,,,,,,,-0.01,0.07,0.99,-2.9,0.1,-0.1,680,0,,,,,,,,,,,,,,,,,
1951891,1469901235197,,,,,,,-0.01,0.06,0.99,-2.9,0.2,-0.2,700,0,,,,,,,,,,,,,,,,,
1951911,1469901235217,,,,13,,,-0.01,0.07,0.99,-2.9,0.2,-0.1,700,0,0.0,0,39.540703,-122.332069,0.0,3.309,383.9,11,3,2.0,1,11.34,12,0.34,,20.6517,2
1951931,1469901235237,,,,,,,-0.01,0.07,0.99,-2.9,0.2,-0.1,700,0,,,,,,,,,,,,,,,,,
1951951,1469901235257,,,,,,,-0.01,0.06,0.99,-2.9,0.2,-0.2,700,0,,,,,,,,,,,,,,,,,
1951971,1469901235277,,,,,,,-0.01,0.06,0.99,-2.8,0.2,-0.2,700,0,,,,,,,,,,,,,,,,,
1951991,1469901235396,,,,,,,-0.0,0.07,0.99,-2.9,0.2,-0.1,700,0,,,,,,,,,,,,,,,,,
1952013,1469901235418,0,175.2,169.8,14,162.1,,-0.0,0.07,0.99,-2.9,0.2,-0.1,720,0,0.0,0,39.540703,-122.332069,0.0,3.309,383.7,11,3,2.0,1,11.34,12,0.34,27.8257,20.655,2
1952032,1469901235437,,,,,,,-0.01,0.06,0.99,-2.9,0.1,-0.2,680,0,,,,,,,,,,,,,,,,,
1952052,1469901235457,,,,,,,-0.01,0.06,0.99,-2.9,0.0,-0.1,680,0,,,,,,,,,,,,,,,,,
1952072,1469901235477,,,,,,,-0.01,0.06,0.99,-2.9,0.1,-0.1,700,0,,,,,,,,,,,,,,,,,
1952092,1469901235497,,,,,,,-0.01,0.06,0.99,-2.9,0.1,-0.2,700,0,,,,,,,,,,,,,,,,,
1952112,1469901235517,,,,11,,,-0.01,0.06,0.99,-2.9,0.1,-0.2,700,0,0.0,0,39.540703,-122.332069,0.0,3.309,383.7,11,3,2.0,1,11.34,12,0.34,,20.655,2
1952132,1469901235537,,,,,,,-0.01,0.07,0.99,-2.9,0.1,-0.1,700,0,,,,,,,,,,,,,,,,,
1952152,1469901235557,,,,,,,-0.01,0.07,0.99,-2.9,0.1,-0.2,700,0,,,,,,,,,,,,,,,,,
1952172,1469901235577,,,,,,,-0.01,0.07,0.99,-2.9,0.1,-0.2,720,0,,,,,,,,,,,,,,,,,
1952192,1469901235498,,,,,,,-0.01,0.07,0.99,-3.0,0.1,-0.1,720,0,,,,,,,,,,,,,,,,,
1952214,1469901235520,0,175.0,169.7,15,160.8,13.25,-0.01,0.08,0.99,-3.0,0.1,-0.1,680,0,0.0,0,39.540703,-122.332069,0.0,3.309,383.7,11,3,2.0,1,11.34,12,0.34,27.8274,20.6567,2
1952233,1469901235539,,,,,,,-0.01,0.07,0.99,-3.0,0.1,-0.2,680,0,,,,,,,,,,,,,,,,,
1952253,1469901235559,,,,,,,-0.01,0.07,0.98,-3.0,0.2,-0.2,680,0,,,,,,,,,,,,,,,,,
1952273,1469901235579,,,,,,,-0.0,0.08,0.99,-3.0,0.3,-0.1,680,0,,,,,,,,,,,,,,,,,
1952293,1469901235599,,,,,,,-0.01,0.08,0.99,-3.0,0.3,-0.2,700,0,,,,,,,,,,,,,,,,,
1952313,1469901235619,,,,14,,,-0.01,0.08,0.99,-3.0,0.3,-0.2,700,0,0.0,0,39.540703,-122.332069,0.0,3.309,383.6,11,3,2.0,1,11.34,12,0.34,,20.6583,2
1952333,1469901235639,,,,,,,-0.01,0.08,0.99,-3.0,0.3,-0.1,700,0,,,,,,,,,,,,,,,,,
1952353,1469901235659,,,,,,,-0.01,0.08,0.99,-3.0,0.2,-0.1,720,0,,,,,,,,,,,,,,,,,
1952373,1469901235679,,,,,,,-0.01,0.07,0.99,-2.9,0.2,-0.3,680,0,,,,,,,,,,,,,,,,,
1952393,1469901235699,,,,,,,-0.01,0.08,0.99,-3.0,0.2,-0.2,680,0,,,,,,,,,,,,,,,,,
1952415,1469901235721,0,176.3,170.7,14,161.6,,-0.01,0.09,0.99,-3.0,0.3,-0.1,680,0,0.0,0,39.540703,-122.332069,0.0,3.309,383.5,11,3,2.0,1,11.34,12,0.34,27.8308,20.66,2
1952434,1469901235740,,,,,,,-0.01,0.08,0.99,-3.0,0.3,-0.2,700,0,,,,,,,,,,,,,,,,,
1952454,1469901235760,,,,,,,-0.01,0.07,0.99,-3.0,0.3,-0.2,700,0,,,,,,,,,,,,,,,,,
1952474,1469901235780,,,,,,,-0.01,0.07,0.99,-3.0,0.3,-0.1,700,0,,,,,,,,,,,,,,,,,
1952494,1469901235800,,,,,,,-0.01,0.07,0.98,-3.0,0.2,-0.2,700,0,,,,,,,,,,,,,,,,,
1952514,1469901235820,,,,14,,,-0.01,0.07,0.98,-3.0,0.2,-0.2,720,0,0.0,0,39.540703,-122.332069,0.0,3.309,383.4,11,3,2.0,1,11.34,12,0.34,,20.6617,2
1952534,1469901235840,,,,,,,-0.01,0.07,0.99,-3.0,0.2,-0.2,720,0,,,,,,,,,,,,,,,,,
1952554,1469901235860,,,,,,,-0.01,0.07,0.99,-3.0,0.3,-0.1,680,0,,,,,,,,,,,,,,,,,
1952574,1469901235880,,,,,,,-0.01,0.07,0.99,-3.0,0.3,-0.2,700,0,,,,,,,,,,,,,,,,,
1952594,1469901235892,,,,,,,-0.01,0.06,0.99,-2.9,0.3,-0.2,700,0,,,,,,,,,,,,,,,,,
1952616,1469901235914,0,174.9,169.6,13,160.8,,-0.01,0.07,0.98,-3.0,0.2,-0.1,700,0,0.0,0,39.540703,-122.332069,0.0,3.309,383.4,11,3,2.0,1,11.34,12,0.34,27.834,20.6633,2
1952635,1469901235933,,,,,,,-0.0,0.08,0.99,-3.0,0.2,-0.1,700,0,,,,,,,,,,,,,,,,,
1952655,1469901235953,,,,,,,-0.01,0.07,0.99,-2.9,0.2,-0.2,700,0,,,,,,,,,,,,,,,,,
1952675,1469901235973,,,,,,,-0.01,0.08,0.99,-2.9,0.2,-0.2,700,0,,,,,,,,,,,,,,,,,
1952695,1469901236000,,,,,,,-0.01,0.08,0.99,-3.0,0.2,-0.1,720,0,,,,,,,,,,,,,,,,,
1952715,1469901236020,,,,13,,,-0.01,0.08,0.99,-2.9,0.2,-0.2,700,0,0.0,0,39.540703,-122.332069,0.0,3.309,383.2,11,3,1.4,1,11.34,12,0.34,,20.665,2
1952735,1469901236040,,,,,,,-0.01,0.08,0.99,-2.9,0.1,-0.2,700,0,,,,,,,,,,,,,,,,,
1952755,1469901236060,,,,,,,-0.0,0.09,0.99,-3.0,0.1,-0.1,700,0,,,,,,,,,,,,,,,,,
1952775,1469901236080,,,,,,,-0.0,0.09,0.99,-2.9,0.1,-0.1,700,0,,,,,,,,,,,,,,,,,
1952795,1469901236198,,,,,,,-0.01,0.08,0.99,-2.9,0.1,-0.2,700,0,,,,,,,,,,,,,,,,,
1952817,1469901236220,0,175.7,170.1,14,161.2,,-0.01,0.08,0.99,-3.0,0.2,-0.2,700,0,0.0,0,39.540703,-122.332069,0.0,3.309,383.1,11,3,1.4,1,11.34,12,0.34,27.8391,20.6683,2
1952836,1469901236239,,,,,,,-0.0,0.08,0.99,-3.0,0.2,-0.1,700,0,,,,,,,,,,,,,,,,,
1952856,1469901236259,,,,,,,-0.01,0.07,0.99,-2.9,0.2,-0.2,740,0,,,,,,,,,,,,,,,,,
1952876,1469901236279,,,,,,,-0.01,0.07,0.99,-2.9,0.2,-0.3,740,0,,,,,,,,,,,,,,,,,
1952896,1469901236299,,,,,,,-0.01,0.07,0.98,-3.0,0.2,-0.2,700,0,,,,,,,,,,,,,,,,,
1952916,1469901236319,,,,11,,,-0.01,0.08,0.98,-3.0,0.1,-0.1,700,0,0.0,0,39.540703,-122.332069,0.0,3.309,383.1,11,3,1.4,1,11.34,12,0.34,,20.6683,2
1952936,1469901236339,,,,,,,-0.01,0.08,0.98,-3.0,0.1,-0.2,700,0,,,,,,,,,,,,,,,,,
1952956,1469901236359,,,,,,,-0.01,0.08,0.98,-3.0,0.1,-0.2,700,0,,,,,,,,,,,,,,,,,
1952976,1469901236379,,,,,,,-0.01,0.09,0.98,-3.1,0.2,-0.1,700,0,,,,,,,,,,,,,,,,,
1952996,1469901236300,,,,,,,-0.01,0.08,0.98,-3.0,0.2,-0.1,700,0,,,,,,,,,,,,,,,,,
1953018,1469901236322,0,175.0,169.6,14,160.6,,-0.01,0.08,0.98,-3.0,0.1,-0.2,700,0,0.0,0,39.540703,-122.332069,0.0,3.309,383.1,11,3,1.4,1,11.34,12,0.34,27.8408,20.67,2
1953037,1469901236341,,,,,,,-0.01,0.09,0.98,-3.0,0.1,-0.1,720,0,,,,,,,,,,,,,,,,,
1953057,1469901236361,,,,,,,-0.0,0.09,0.98,-3.1,0.1,-0.1,700,0,,,,,,,,,,,,,,,,,
1953077,1469901236381,,,,,,,-0.01,0.08,0.98,-3.0,0.1,-0.2,700,0,,,,,,,,,,,,,,,,,
1953097,1469901236402,,,,,,,-0.01,0.08,0.98,-3.0,0.2,-0.3,700,0,,,,,,,,,,,,,,,,,
1953117,1469901236422,,,,14,,,-0.01,0.08,0.98,-3.0,0.1,-0.1,700,0,0.0,0,39.540703,-122.332069,0.0,3.309,383.1,11,3,1.4,1,11.34,12,0.34,,20.6717,2
1953137,1469901236442,,,,,,,-0.01,0.08,0.98,-3.0,0.1,-0.2,700,0,,,,,,,,,,,,,,,,,
1953157,1469901236462,,,,,,,-0.01,0.08,0.98,-3.0,0.2,-0.2,700,0,,,,,,,,,,,,,,,,,
1953177,1469901236482,,,,,,,-0.01,0.08,0.98,-3.0,0.3,-0.2,700,0,,,,,,,,,,,,,,,,,
1953197,1469901236502,,,,,,,-0.01,0.08,0.98,-3.0,0.3,-0.1,740,0,,,,,,,,,,,,,,,,,
1953219,1469901236524,0,175.4,169.6,16,160.6,13.27,-0.01,0.08,0.98,-3.0,0.2,-0.2,700,0,0.0,0,39.540703,-122.332069,0.0,3.309,383.1,11,3,1.4,1,11.34,12,0.34,27.8442,20.6733,2
1953238,1469901236543,,,,,,,-0.01,0.09,0.98,-3.0,0.2,-0.3,700,0,,,,,,,,,,,,,,,,,
1953258,1469901236563,,,,,,,-0.01,0.09,0.98,-3.0,0.2,-0.2,700,0,,,,,,,,,,,,,,,,,
1953278,1469901236583,,,,,,,-0.01,0.09,0.98,-3.0,0.2,-0.2,700,0,,,,,,,,,,,,,,,,,
1953298,1469901236603,,,,,,,-0.01,0.08,0.98,-3.0,0.2,-0.3,700,0,,,,,,,,,,,,,,,,,
1953318,1469901236623,,,,14,,,-0.01,0.08,0.98,-3.0,0.2,-0.2,700,0,0.0,0,39.540703,-122.332069,0.0,3.309,383.1,11,3,1.4,1,11.34,12,0.34,,20.675,2
1953338,1469901236643,,,,,,,-0.01,0.08,0.98,-3.0,0.1,-0.2,700,0,,,,,,,,,,,,,,,,,
1953358,1469901236663,,,,,,,-0.01,0.07,0.98,-3.0,0.1,-0.3,720,0,,,,,,,,,,,,,,,,,
1953378,1469901236683,,,,,,,-0.02,0.07,0.98,-3.0,0.2,-0.3,720,0,,,,,,,,,,,,,,,,,
1953398,1469901236701,,,,,,,-0.01,0.08,0.98,-3.0,0.1,-0.2,680,0,,,,,,,,,,,,,,,,,
1953420,1469901236723,0,175.1,169.6,16,160.9,,-0.01,0.08,0.98,-3.0,0.0,-0.2,700,0,0.0,0,39.540703,-122.332069,0.0,3.309,383.1,11,3,1.4,1,11.34,12,0.34,27.8475,20.6767,2
1953439,1469901236742,,,,,,,-0.01,0.08,0.98,-3.0,-0.1,-0.2,700,0,,,,,,,,,,,,,,,,,
1953459,1469901236762,,,,,,,-0.01,0.08,0.98,-3.0,0.1,-0.2,700,0,,,,,,,,,,,,,,,,,
1953479,1469901236782,,,,,,,-0.01,0.08,0.98,-3.0,0.1,-0.1,700,0,,,,,,,,,,,,,,,,,
1953499,1469901236804,,,,,,,-0.01,0.07,0.98,-3.0,0.1,-0.2,700,0,,,,,,,,,,,,,,,,,
1953519,1469901236824,,,,13,,,-0.01,0.08,0.99,-3.0,0.1,-0.2,700,0,0.0,0,39.540703,-122.332069,0.0,3.309,383.1,11,3,1.4,1,11.34,12,0.34,,20.6783,2
1953539,1469901236844,,,,,,,-0.01,0.08,0.98,-3.0,0.1,-0.1,720,0,,,,,,,,,,,,,,,,,
1953559,1469901236864,,,,,,,-0.01,0.08,0.98,-3.0,0.1,-0.1,700,0,,,,,,,,,,,,,,,,,
1953579,1469901236884,,,,,,,-0.01,0.07,0.98,-3.0,0.1,-0.2,700,0,,,,,,,,,,,,,,,,,
1953599,1469901236995,,,,,,,-0.01,0.07,0.98,-3.0,0.2,-0.2,700,0,,,,,,,,,,,,,,,,,
1953621,1469901237017,0,174.9,169.1,15,160.4,,-0.01,0.08,0.98,-3.0,0.1,-0.2,700,0,0.0,0,39.540703,-122.332069,0.0,3.309,381.6,11,3,1.4,1,11.34,12,0.34,27.8524,20.6817,2
1953640,1469901237036,,,,,,,-0.01,0.07,0.98,-3.0,0.1,-0.2,700,0,,,,,,,,,,,,,,,,,
1953660,1469901237056,,,,,,,-0.01,0.06,0.98,-3.0,0.2,-0.3,700,0,,,,,,,,,,,,,,,,,
1953680,1469901237076,,,,,,,-0.01,0.07,0.98,-3.0,0.2,-0.2,700,0,,,,,,,,,,,,,,,,,
1953700,1469901237096,,,,,,,-0.01,0.07,0.98,-3.0,0.1,-0.2,720,0,,,,,,,,,,,,,,,,,
1953720,1469901237116,,,,13,,,-0.01,0.07,0.98,-2.9,0.0,-0.3,680,0,0.0,0,39.540703,-122.332069,0.0,3.309,381.6,11,3,1.4,1,11.34,12,0.34,,20.6817,2
1953740,1469901237136,,,,,,,-0.01,0.08,0.98,-3.0,0.1,-0.2,680,0,,,,,,,,,,,,,,,,,
1953760,1469901237156,,,,,,,-0.01,0.08,0.98,-3.0,0.1,-0.1,700,0,,,,,,,,,,,,,,,,,
1953780,1469901237176,,,,,,,-0.01,0.07,0.98,-2.9,0.1,-0.2,700,0,,,,,,,,,,,,,,,,,
1953800,1469901237104,,,,,,,-0.01,0.07,0.99,-2.9,0.1,-0.2,700,0,,,,,,,,,,,,,,,,,
1953822,1469901237126,0,176.0,170.2,15,161.4,,-0.01,0.08,0.99,-2.9,0.1,-0.1,700,0,0.0,0,39.540703,-122.332069,0.0,3.309,381.6,11,3,1.4,1,11.34,12,0.34,27.8542,20.6833,2
1953841,1469901237145,,,,,,,-0.01,0.08,0.98,-2.9,0.1,-0.1,700,0,,,,,,,,,,,,,,,,,
1953861,1469901237165,,,,,,,-0.01,0.07,0.99,-2.9,0.1,-0.2,720,0,,,,,,,,,,,,,,,,,
1953881,1469901237185,,,,,,,-0.01,0.07,0.99,-3.0,0.2,-0.2,720,0,,,,,,,,,,,,,,,,,
1953901,1469901237205,,,,,,,-0.01,0.07,0.98,-3.0,0.2,-0.1,700,0,,,,,,,,,,,,,,,,,
1953921,1469901237225,,,,12,,,-0.01,0.07,0.98,-2.9,0.1,-0.2,700,0,0.0,0,39.540703,-122.332069,0.0,3.309,381.6,11,3,1.4,1,11.34,12,0.34,,20.685,2
1953941,1469901237245,,,,,,,-0.01,0.06,0.98,-2.9,0.2,-0.2,700,0,,,,,,,,,,,,,,,,,
1953961,1469901237265,,,,,,,-0.01,0.07,0.98,-3.0,0.2,-0.1,700,0,,,,,,,,,,,,,,,,,
1953981,1469901237285,,,,,,,-0.0,0.08,0.98,-3.0,0.2,-0.1,700,0,,,,,,,,,,,,,,,,,
1954001,1469901237305,,,,,,,-0.01,0.07,0.99,-2.9,0.1,-0.2,700,0,,,,,,,,,,,,,,,,,
1954023,1469901237327,0,174.8,169.0,13,160.3,,-0.01,0.07,0.99,-2.9,0.2,-0.2,700,0,0.0,0,39.540703,-122.332069,0.0,3.309,381.6,11,3,1.4,1,11.34,12,0.34,27.8575,20.6867,2
1954042,1469901237346,,,,,,,-0.01,0.08,0.99,-3.0,0.3,-0.1,720,0,,,,,,,,,,,,,,,,,
1954062,1469901237366,,,,,,,-0.01,0.07,0.99,-2.9,0.2,-0.2,700,0,,,,,,,,,,,,,,,,,
1954082,1469901237386,,,,,,,-0.01,0.07,0.99,-2.9,0.2,-0.2,700,0,,,,,,,,,,,,,,,,,
1954102,1469901237407,,,,,,,-0.01,0.07,0.99,-2.9,0.2,-0.1,700,0,,,,,,,,,,,,,,,,,
1954122,1469901237427,,,,14,,,-0.0,0.07,0.99,-2.9,0.3,-0.1,700,0,0.0,0,39.540703,-122.332069,0.0,3.309,381.6,11,3,1.4,1,11.34,12,0.34,,20.6883,2
1954142,1469901237447,,,,,,,-0.01,0.07,0.99,-2.9,0.3,-0.3,700,0,,,,,,,,,,,,,,,,,
1954162,1469901237467,,,,,,,-0.01,0.07,0.99,-2.9,0.3,-0.2,700,0,,,,,,,,,,,,,,,,,
1954182,1469901237487,,,,,,,-0.01,0.08,0.99,-3.0,0.3,-0.2,700,0,,,,,,,,,,,,,,,,,
1954202,1469901237507,,,,,,,-0.01,0.08,0.99,-2.9,0.3,-0.2,740,0,,,,,,,,,,,,,,,,,
1954224,1469901237529,0,175.2,169.1,16,159.9,13.22,-0.01,0.07,0.99,-2.9,0.3,-0.3,740,0,0.0,0,39.540703,-122.332069,0.0,3.309,381.6,11,3,1.4,1,11.34,12,0.34,27.8609,20.69,2
1954243,1469901237548,,,,,,,-0.01,0.07,0.99,-2.9,0.3,-0.2,700,0,,,,,,,,,,,,,,,,,
1954263,1469901237568,,,,,,,-0.01,0.07,0.99,-2.9,0.3,-0.2,700,0,,,,,,,,,,,,,,,,,
1954283,1469901237588,,,,,,,-0.01,0.07,0.99,-2.9,0.2,-0.3,700,0,,,,,,,,,,,,,,,,,
1954303,1469901237607,,,,,,,-0.01,0.07,0.99,-2.9,0.2,-0.3,700,0,,,,,,,,,,,,,,,,,
1954323,1469901237627,,,,14,,,-0.01,0.08,0.99,-3.0,0.3,-0.2,700,0,0.0,0,39.540703,-122.332069,0.0,3.309,381.6,11,3,1.4,1,11.34,12,0.34,,20.6917,2
1954343,1469901237647,,,,,,,-0.01,0.08,0.99,-2.9,0.3,-0.2,700,0,,,,,,,,,,,,,,,,,
1954363,1469901237667,,,,,,,-0.01,0.07,0.99,-2.9,0.3,-0.2,720,0,,,,,,,,,,,,,,,,,
1954383,1469901237687,,,,,,,-0.01,0.07,0.99,-3.0,0.3,-0.1,720,0,,,,,,,,,,,,,,,,,
1954403,1469901237807,,,,,,,-0.01,0.07,0.99,-3.0,0.3,-0.1,700,0,,,,,,,,,,,,,,,,,
1954425,1469901237829,0,175.5,169.5,19,160.7,,-0.01,0.06,0.99,-2.9,0.2,-0.2,700,0,0.0,0,39.540703,-122.332069,0.0,3.309,381.6,11,3,1.4,1,11.34,12,0.34,27.8659,20.695,2
1954444,1469901237848,,,,,,,-0.02,0.06,0.99,-2.9,0.2,-0.3,700,0,,,,,,,,,,,,,,,,,
1954464,1469901237868,,,,,,,-0.01,0.07,0.99,-3.0,0.3,-0.2,700,0,,,,,,,,,,,,,,,,,
1954484,1469901237888,,,,,,,-0.01,0.08,0.99,-3.0,0.2,-0.2,720,0,,,,,,,,,,,,,,,,,
1954504,1469901237908,,,,,,,-0.01,0.08,0.99,-2.9,0.1,-0.2,720,0,,,,,,,,,,,,,,,,,
1954524,1469901237928,,,,13,,,-0.01,0.08,0.99,-2.9,0.2,-0.2,720,0,0.0,0,39.540703,-122.332069,0.0,3.309,381.6,11,3,1.4,1,11.34,12,0.34,,20.695,2
1954544,1469901237948,,,,,,,-0.01,0.08,0.99,-3.0,0.2,-0.1,740,0,,,,,,,,,,,,,,,,,
1954564,1469901237968,,,,,,,-0.01,0.07,0.99,-2.9,0.1,-0.2,700,0,,,,,,,,,,,,,,,,,
1954584,1469901237988,,,,,,,-0.01,0.07,0.99,-2.9,0.1,-0.3,720,0,,,,,,,,,,,,,,,,,
1954604,1469901237901,,,,,,,-0.01,0.07,0.99,-2.9,0.2,-0.2,720,0,,,,,,,,,,,,,,,,,
1954626,1469901237923,0,174.6,168.5,15,159.5,,-0.01,0.08,0.99,-2.9,0.1,-0.1,700,0,0.0,0,39.540703,-122.332069,0.0,3.309,381.6,11,3,1.4,1,11.34,12,0.34,27.8675,20.6967,2
1954645,1469901237942,,,,,,,-0.01,0.07,0.99,-2.9,0.1,-0.2,720,0,,,,,,,,,,,,,,,,,
1954665,1469901237962,,,,,,,-0.01,0.06,0.99,-2.9,0.1,-0.3,720,0,,,,,,,,,,,,,,,,,
1954685,1469901237982,,,,,,,-0.01,0.07,0.99,-2.9,0.1,-0.2,720,0,,,,,,,,,,,,,,,,,
1954705,1469901238010,,,,,,,-0.0,0.08,0.99,-2.9,0.1,-0.2,740,0,,,,,,,,,,,,,,,,,
1954725,1469901238030,,,,13,,,-0.0,0.07,0.99,-2.9,0.0,-0.3,700,0,0.0,0,39.540703,-122.332069,0.0,3.309,381.6,11,3,1.4,1,11.34,12,0.34,,20.6983,2
1954745,1469901238050,,,,,,,-0.0,0.08,0.99,-2.9,0.1,-0.3,700,0,,,,,,,,,,,,,,,,,
1954765,1469901238070,,,,,,,-0.0,0.08,0.99,-3.0,0.1,-0.1,720,0,,,,,,,,,,,,,,,,,
1954785,1469901238090,,,,,,,-0.0,0.08,0.99,-2.9,0.2,-0.2,720,0,,,,,,,,,,,,,,,,,
1954805,1469901238108,,,,,,,-0.0,0.08,0.99,-2.9,0.1,-0.3,720,0,,,,,,,,,,,,,,,,,
1954827,1469901238130,0,175.5,169.2,15,160.4,,-0.0,0.07,0.99,-3.0,0.2,-0.2,720,0,0.0,0,39.540703,-122.332069,0.0,3.309,381.6,11,3,1.4,1,11.34,12,0.34,27.8709,20.7,2
1954846,1469901238149,,,,,,,-0.0,0.07,0.99,-3.0,0.2,-0.2,720,0,,,,,,,,,,,,,,,,,
1954866,1469901238169,,,,,,,-0.01,0.07,0.99,-2.9,0.2,-0.2,740,0,,,,,,,,,,,,,,,,,
1954886,1469901238189,,,,,,,-0.01,0.06,0.99,-2.9,0.2,-0.3,700,0,,,,,,,,,,,,,,,,,
1954906,1469901238210,,,,,,,-0.01,0.07,0.98,-2.9,0.2,-0.2,700,0,,,,,,,,,,,,,,,,,
1954926,1469901238230,,,,16,,,-0.01,0.07,0.98,-2.9,0.3,-0.1,720,0,0.0,0,39.540703,-122.332069,0.0,3.309,381.6,11,3,1.4,1,11.34,12,0.34,,20.7017,2
1954946,1469901238250,,,,,,,-0.01,0.07,0.98,-2.9,0.2,-0.2,700,0,,,,,,,,,,,,,,,,,
1954966,1469901238270,,,,,,,-0.01,0.06,0.98,-2.9,0.2,-0.2,700,0,,,,,,,,,,,,,,,,,
1954986,1469901238290,,,,,,,-0.01,0.07,0.98,-2.9,0.2,-0.2,720,0,,,,,,,,,,,,,,,,,
1955006,1469901238310,,,,,,,-0.01,0.08,0.98,-2.9,0.3,-0.2,720,0,,,,,,,,,,,,,,,,,
1955028,1469901238332,0,175.3,168.8,14,160.0,,-0.01,0.07,0.98,-2.9,0.2,-0.2,740,0,0.0,0,39.540703,-122.332069,0.0,3.309,381.6,11,3,1.4,1,11.34,12,0.34,27.8743,20.7033,2
1955047,1469901238351,,,,,,,-0.01,0.07,0.98,-2.9,0.3,-0.2,740,0,,,,,,,,,,,,,,,,,
1955067,1469901238371,,,,,,,-0.01,0.07,0.98,-3.0,0.2,-0.1,700,0,,,,,,,,,,,,,,,,,
1955087,1469901238391,,,,,,,-0.01,0.07,0.99,-2.9,0.2,-0.1,700,0,,,,,,,,,,,,,,,,,
1955107,1469901238410,,,,,,,-0.01,0.05,0.98,-2.9,0.2,-0.2,700,0,,,,,,,,,,,,,,,,,
1955127,1469901238430,,,,13,,,-0.01,0.06,0.98,-2.9,0.3,-0.1,700,0,0.0,0,39.540703,-122.332069,0.0,3.309,381.6,11,3,1.4,1,11.34,12,0.34,,20.705,2
1955147,1469901238450,,,,,,,-0.0,0.07,0.98,-2.9,0.2,-0.1,720,0,,,,,,,,,,,,,,,,,
1955167,1469901238470,,,,,,,-0.01,0.07,0.98,-2.9,0.1,-0.2,720,0,,,,,,,,,,,,,,,,,
1955187,1469901238591,,,,,,,-0.01,0.07,0.98,-2.9,0.1,-0.2,720,0,,,,,,,,,,,,,,,,,
1955207,1469901238611,,,,,,,-0.0,0.08,0.98,-3.0,0.1,-0.1,740,0,,,,,,,,,,,,,,,,,
1955229,1469901238633,0,174.5,168.0,16,159.3,13.79,-0.0,0.08,0.98,-3.0,0.1,-0.1,700,0,0.0,0,39.540703,-122.332069,0.0,3.309,381.6,11,3,1.4,1,11.34,12,0.34,27.8793,20.7083,2
1955248,1469901238652,,,,,,,-0.0,0.08,0.98,-3.0,0.1,-0.2,720,0,,,,,,,,,,,,,,,,,
1955268,1469901238672,,,,,,,-0.0,0.07,0.98,-3.0,0.2,-0.1,720,0,,,,,,,,,,,,,,,,,
1955288,1469901238692,,,,,,,-0.0,0.08,0.98,-3.0,0.1,-0.1,700,0,,,,,,,,,,,,,,,,,
1955308,1469901238712,,,,,,,-0.0,0.07,0.98,-3.0,0.2,-0.1,720,0,,,,,,,,,,,,,,,,,
