"Interval"|"ms"|0|0|1,"Utc"|"ms"|0|0|1,"FuelLevel"|"F"|0|100|5,"OilTemp"|"F"|0.0|300.0|5,"Coolant"|"F"|0.0|300.0|5,"OilPress"|"PSI"|0|150|10,"EngineTemp"|"F"|0.0|300.0|5,"Battery"|"Volts"|0.0|20.0|1,"AccelX"|"G"|-3.0|3.0|50,"AccelY"|"G"|-3.0|3.0|50,"AccelZ"|"G"|-3.0|3.0|50,"Yaw"|"Deg/Sec"|-300.0|300.0|50,"Pitch"|"Deg/Sec"|-300.0|300.0|50,"Roll"|"Deg/Sec"|-300.0|300.0|50,"RPM"|""|0|10000|50,"Driveshaft"|"RPM"|0|5000|50,"GearRatio"|""|-5.0|5.0|10,"Gear"|""|-1|5|10,"Latitude"|"Degrees"|-180.0|180.0|10,"Longitude"|"Degrees"|-180.0|180.0|10,"Speed"|"MPH"|0.0|150.0|10,"Distance"|"Miles"|0.0|0.0|10,"Altitude"|"Feet"|0.0|4000.0|10,"GPSSats"|""|0|20|10,"GPSQual"|""|0|5|10,"GPSDOP"|""|0.0|20.0|10,"LapCount"|""|0|0|10,"LapTime"|"Min"|0.0|0.0|10,"Sector"|""|0|0|10,"SectorTime"|"Min"|0.0|0.0|10,"PredTime"|"Min"|0.0|0.0|5,"ElapsedTime"|"Min"|0.0|0.0|10,"CurrentLap"|""|0|0|10
5086,1469903771423,,,,,,,0.09,0.21,1.0,-4.0,0.6,-0.1,4220,4203,,,,,,,,,,,,,,,,,
5106,1469903771443,,,,,,,0.13,0.23,1.03,-4.1,-0.7,-0.4,4120,4226,,,,,,,,,,,,,,,,,
5126,1469903771463,,,,,,,0.11,0.21,1.01,-4.5,0.4,0.2,4160,4203,,,,,,,,,,,,,,,,,
5146,1469903771483,,,,47,,,0.07,0.17,0.98,-4.2,-0.2,0.2,4200,4226,0.983,4,39.542763,-122.332817,81.5,0.002,335.3,9,2,1.9,0,0.0,-1,0.0,,0.0,0
5166,1469903771503,,,,,,,0.17,0.19,0.99,-3.9,-0.0,0.0,4120,4249,,,,,,,,,,,,,,,,,
5186,1469903771523,,,,,,,0.18,0.18,0.98,-3.9,-0.3,0.1,4260,4180,,,,,,,,,,,,,,,,,
5206,1469903771543,,,,,,,0.2,0.2,1.01,-4.0,-1.8,-0.1,4260,4203,,,,,,,,,,,,,,,,,
5226,1469903771563,,,,,,,0.15,0.19,1.02,-4.4,0.0,0.2,4120,4203,,,,,,,,,,,,,,,,,
5246,1469903771583,0,284.2,209.8,51,211.8,,0.15,0.2,0.96,-4.5,0.1,0.0,4160,4135,0.974,4,39.542793,-122.332817,80.96,0.004,335.3,9,2,1.9,0,0.0,-1,0.0,0.0,0.0,0
5266,1469903771604,,,,,,,0.22,0.24,0.96,-4.4,0.5,0.2,4120,4180,,,,,,,,,,,,,,,,,
5286,1469903771624,,,,,,,0.26,0.29,0.87,-4.3,0.8,0.3,4120,4203,,,,,,,,,,,,,,,,,
5306,1469903771644,,,,,,,0.32,0.29,0.89,-4.2,-1.2,0.2,4020,4203,,,,,,,,,,,,,,,,,
5326,1469903771664,,,,,,,0.3,0.23,0.94,-4.2,-0.1,0.7,4100,4226,,,,,,,,,,,,,,,,,
5346,1469903771684,,,,51,,,0.24,0.24,0.99,-3.9,-0.6,0.5,4060,4156,0.961,4,39.542828,-122.332817,80.71,0.007,335.3,9,2,1.9,0,0.0,-1,0.0,,0.0,0
5366,1469903771704,,,,,,,0.24,0.23,1.0,-4.4,-1.4,0.5,4000,4180,,,,,,,,,,,,,,,,,
5386,1469903771724,,,,,,,0.21,0.2,0.99,-4.6,-0.8,0.8,4020,4112,,,,,,,,,,,,,,,,,
5406,1469903771744,,,,,,,0.23,0.16,1.03,-4.6,-1.5,0.6,3980,4135,,,,,,,,,,,,,,,,,
5426,1469903771764,,,,,,,0.27,0.15,0.99,-4.8,-1.6,0.4,3820,4180,,,,,,,,,,,,,,,,,
5446,1469903771784,0,285.2,210.6,43,212.4,,0.24,0.12,0.95,-4.8,-1.8,0.7,3840,4156,0.967,4,39.542862,-122.332817,78.12,0.009,335.3,9,2,1.9,0,0.0,-1,0.0,0.0,0.0,0
5466,1469903771804,,,,,,,0.23,0.15,0.97,-5.0,-2.3,0.6,3820,4090,,,,,,,,,,,,,,,,,
5486,1469903771824,,,,,,,0.26,0.15,0.93,-5.0,-1.3,0.4,3720,4135,,,,,,,,,,,,,,,,,
5506,1469903771844,,,,,,,0.2,0.12,0.9,-4.8,-1.6,0.6,3660,4112,,,,,,,,,,,,,,,,,
5526,1469903771864,,,,,,,0.24,0.17,0.93,-4.7,-2.4,0.4,3780,4069,,,,,,,,,,,,,,,,,
5546,1469903771884,,,,55,,,0.24,0.17,0.93,-4.8,-0.8,0.4,3640,4090,0.929,4,39.542889,-122.332817,76.19,0.011,335.3,9,2,1.9,0,0.0,-1,0.0,,0.0,0
5566,1469903771904,,,,,,,0.24,0.11,0.88,-4.5,-0.3,0.5,3720,4090,,,,,,,,,,,,,,,,,
5586,1469903771918,,,,,,,0.3,0.18,0.9,-4.4,-0.6,0.1,3540,4069,,,,,,,,,,,,,,,,,
5606,1469903771938,,,,,,,0.29,0.17,0.9,-4.6,0.0,0.2,3540,4069,,,,,,,,,,,,,,,,,
5626,1469903771958,,,,,,,0.26,0.1,0.93,-4.4,-0.7,0.4,3520,4069,,,,,,,,,,,,,,,,,
5646,1469903771978,0,285.0,210.6,52,212.5,,0.32,0.16,1.01,-4.1,-0.6,0.3,3540,4069,0.88,4,39.542923,-122.332825,73.9,0.013,335.3,9,2,1.9,0,0.0,-1,0.0,0.0,0.0,0
5666,1469903772001,,,,,,,0.3,0.19,0.97,-4.4,0.7,0.2,3480,4069,,,,,,,,,,,,,,,,,
5686,1469903772120,,,,,,,0.3,0.16,1.02,-4.3,0.4,0.2,3340,4026,,,,,,,,,,,,,,,,,
5706,1469903772140,,,,,,,0.33,0.18,1.04,-3.8,0.7,-0.2,3340,4047,,,,,,,,,,,,,,,,,
5726,1469903772160,,,,,,,0.3,0.23,1.04,-4.0,1.3,-0.2,3360,3984,,,,,,,,,,,,,,,,,
5746,1469903772180,,,,64,,,0.32,0.26,1.06,-4.1,0.3,-0.2,3280,4006,0.86,4,39.54298,-122.332825,73.12,0.017,335.4,9,2,2.5,0,0.0,-1,0.0,,0.0,0
5766,1469903772200,,,,,,,0.36,0.26,1.0,-3.8,0.2,-0.3,3220,4026,,,,,,,,,,,,,,,,,
5786,1469903772220,,,,,,,0.34,0.23,0.96,-3.7,0.9,-0.2,3180,4006,,,,,,,,,,,,,,,,,
5806,1469903772240,,,,,,,0.32,0.22,0.97,-3.5,0.3,-0.1,3140,3984,,,,,,,,,,,,,,,,,
5826,1469903772260,,,,,,,0.36,0.21,0.93,-3.0,0.1,-0.4,3160,4026,,,,,,,,,,,,,,,,,
5846,1469903772280,0,286.2,211.3,48,212.9,,0.35,0.18,0.86,-2.8,0.6,-0.5,3100,3944,0.8,5,39.54298,-122.332825,73.12,0.017,335.4,9,2,2.5,0,0.0,-1,0.0,0.0,0.0,0
5866,1469903772204,,,,,,,0.37,0.18,0.94,-3.0,-0.5,-0.7,3080,3924,,,,,,,,,,,,,,,,,
5886,1469903772224,,,,,,,0.39,0.2,0.89,-3.3,-0.1,-0.8,3060,3984,,,,,,,,,,,,,,,,,
5906,1469903772244,,,,,,,0.4,0.2,0.9,-3.9,1.0,-0.6,3060,3924,,,,,,,,,,,,,,,,,
5926,1469903772264,,,,,,,0.38,0.17,0.98,-4.1,0.0,-0.6,2980,3924,,,,,,,,,,,,,,,,,
5946,1469903772284,,,,50,,,0.42,0.17,1.01,-3.9,0.0,-0.7,2980,3964,0.795,5,39.543007,-122.332825,71.85,0.019,335.6,9,2,2.5,0,0.0,-1,0.0,,0.0,0
5966,1469903772308,,,,,,,0.42,0.17,1.04,-3.9,0.4,-0.4,2860,3864,,,,,,,,,,,,,,,,,
5986,1469903772328,,,,,,,0.43,0.07,0.99,-3.6,0.2,-0.7,2880,3904,,,,,,,,,,,,,,,,,
6006,1469903772348,,,,,,,0.46,0.12,0.94,-3.1,-0.5,-0.9,2880,3904,,,,,,,,,,,,,,,,,
6026,1469903772368,,,,,,,0.46,0.16,0.94,-3.1,-0.6,-0.7,2820,3884,,,,,,,,,,,,,,,,,
6046,1469903772388,0,284.9,210.6,46,212.5,13.88,0.46,0.14,0.93,-3.0,-0.2,-0.9,2760,3904,0.754,5,39.543034,-122.332825,71.17,0.021,335.8,9,2,2.5,0,0.0,-1,0.0,0.0,0.0,0
6066,1469903772408,,,,,,,0.49,0.21,0.99,-2.7,-0.6,-1.2,2780,3864,,,,,,,,,,,,,,,,,
6086,1469903772428,,,,,,,0.47,0.2,0.95,-2.8,0.1,-1.0,2640,3904,,,,,,,,,,,,,,,,,
6106,1469903772448,,,,,,,0.46,0.15,0.91,-2.5,0.8,-1.1,2720,3904,,,,,,,,,,,,,,,,,
6126,1469903772468,,,,,,,0.45,0.13,0.93,-2.5,-0.4,-0.9,2580,3826,,,,,,,,,,,,,,,,,
6146,1469903772488,,,,45,,,0.44,0.14,0.97,-2.3,-0.2,-1.2,2640,3864,0.707,5,39.54306,-122.332825,70.46,0.023,335.8,9,2,2.5,0,0.0,-1,0.0,,0.0,0
6166,1469903772508,,,,,,,0.43,0.18,0.93,-2.6,0.1,-0.9,2520,3807,,,,,,,,,,,,,,,,,
6186,1469903772528,,,,,,,0.39,0.04,0.93,-2.4,0.3,-0.5,2600,3826,,,,,,,,,,,,,,,,,
6206,1469903772548,,,,,,,0.39,0.12,0.93,-2.2,-0.1,-0.7,2560,3846,,,,,,,,,,,,,,,,,
6226,1469903772568,,,,,,,0.41,0.09,0.91,-2.4,-0.5,-0.4,2440,3826,,,,,,,,,,,,,,,,,
6246,1469903772588,0,284.7,210.1,37,212.0,,0.41,0.13,0.86,-2.2,-0.4,-0.7,2400,3807,0.666,5,39.543087,-122.33284,69.92,0.025,335.8,9,2,2.5,0,0.0,-1,0.0,0.0,0.0,0
6266,1469903772608,,,,,,,0.39,0.1,0.9,-2.4,-0.2,-0.6,2460,3807,,,,,,,,,,,,,,,,,
6286,1469903772628,,,,,,,0.4,0.14,0.9,-2.3,-0.8,-0.7,2360,3826,,,,,,,,,,,,,,,,,
6306,1469903772648,,,,,,,0.39,0.12,0.92,-2.4,-0.1,-0.7,2340,3807,,,,,,,,,,,,,,,,,
6326,1469903772668,,,,,,,0.37,0.15,0.88,-2.7,0.3,-0.6,2300,3752,,,,,,,,,,,,,,,,,
6346,1469903772688,,,,31,,,0.33,0.18,0.92,-2.7,-0.4,-0.6,2280,3789,0.625,0,39.543114,-122.33284,69.31,0.027,335.7,9,2,2.5,0,0.0,-1,0.0,,0.0,0
6366,1469903772708,,,,,,,0.37,0.14,0.96,-2.7,-0.4,-0.8,2240,3752,,,,,,,,,,,,,,,,,
6386,1469903772728,,,,,,,0.4,0.12,0.92,-2.4,-0.5,-0.7,2240,3769,,,,,,,,,,,,,,,,,
6406,1469903772748,,,,,,,0.4,0.16,0.92,-2.3,-0.0,-0.8,2180,3752,,,,,,,,,,,,,,,,,
6426,1469903772768,,,,,,,0.37,0.1,0.93,-2.4,-0.4,-0.6,2160,3733,,,,,,,,,,,,,,,,,
6446,1469903772788,0,286.0,211.0,29,212.9,,0.39,0.08,0.97,-2.1,-0.7,-0.7,2140,3752,0.597,0,39.54314,-122.33284,68.55,0.029,335.7,9,2,2.5,0,0.0,-1,0.0,0.0,0.0,0
6466,1469903772907,,,,,,,0.4,0.06,0.99,-2.1,-0.2,-0.9,2080,3769,,,,,,,,,,,,,,,,,
6486,1469903772927,,,,,,,0.38,0.07,0.97,-2.2,0.5,-0.8,2060,3733,,,,,,,,,,,,,,,,,
6506,1469903772947,,,,,,,0.31,0.07,0.94,-2.2,0.2,-0.8,2040,3715,,,,,,,,,,,,,,,,,
6526,1469903772967,,,,,,,0.33,0.07,0.95,-2.1,-1.2,-0.9,2020,3696,,,,,,,,,,,,,,,,,
6546,1469903772987,,,,33,,,0.34,0.07,0.97,-2.0,-0.9,-0.6,1960,3696,0.565,0,39.54319,-122.33284,67.18,0.032,335.4,9,2,2.5,0,0.0,-1,0.0,,0.0,0
6566,1469903773007,,,,,,,0.33,0.09,0.92,-1.7,-0.7,-0.6,1920,3715,,,,,,,,,,,,,,,,,
6586,1469903773027,,,,,,,0.3,0.04,0.92,-1.4,-0.4,-0.5,1920,3680,,,,,,,,,,,,,,,,,
6606,1469903773047,,,,,,,0.28,0.06,0.94,-1.3,-1.7,-0.5,1860,3610,,,,,,,,,,,,,,,,,
6626,1469903773067,,,,,,,0.27,0.02,0.93,-1.2,-1.9,-0.5,1860,3560,,,,,,,,,,,,,,,,,
6646,1469903773087,0,285.4,211.0,25,212.8,,0.33,0.02,0.91,-1.0,-1.8,-0.4,1860,3610,0.517,0,39.54319,-122.33284,67.18,0.032,335.4,9,2,2.5,0,0.0,-1,0.0,0.0,0.0,0
6666,1469903773007,,,,,,,0.32,-0.01,0.93,-1.0,-0.8,-0.5,1840,3544,,,,,,,,,,,,,,,,,
6686,1469903773027,,,,,,,0.32,-0.03,0.94,-1.1,-0.5,-0.3,1920,3527,,,,,,,,,,,,,,,,,
6706,1469903773047,,,,,,,0.32,-0.05,0.94,-0.9,-1.1,-0.3,1940,3527,,,,,,,,,,,,,,,,,
6726,1469903773067,,,,,,,0.38,-0.01,0.98,-0.8,-1.4,-0.3,2020,3512,,,,,,,,,,,,,,,,,
6746,1469903773087,,,,24,,,0.45,-0.05,0.99,-0.8,-0.7,-0.2,2100,3495,0.512,0,39.543217,-122.33284,66.53,0.034,335.5,9,2,2.5,0,0.0,-1,0.0,,0.0,0
6766,1469903773107,,,,,,,0.51,-0.03,0.96,-0.6,-0.0,-0.3,2160,3512,,,,,,,,,,,,,,,,,
6786,1469903773127,,,,,,,0.5,-0.03,0.97,-0.7,0.5,-0.2,2200,3495,,,,,,,,,,,,,,,,,
6806,1469903773147,,,,,,,0.46,-0.05,1.01,-0.5,0.8,-0.4,2240,3495,,,,,,,,,,,,,,,,,
6826,1469903773167,,,,,,,0.43,-0.05,1.01,-0.4,0.6,-0.6,2280,3495,,,,,,,,,,,,,,,,,
6846,1469903773187,0,285.0,210.4,37,212.2,,0.48,-0.04,1.02,-0.2,-0.8,-0.6,2360,3480,0.606,0,39.54324,-122.332855,65.79,0.036,335.5,9,2,2.5,0,0.0,-1,0.0,0.0,0.0,0
6866,1469903773208,,,,,,,0.49,-0.05,1.06,-0.2,-0.0,-0.8,2400,3464,,,,,,,,,,,,,,,,,
6886,1469903773228,,,,,,,0.49,-0.04,1.01,-0.5,1.1,-0.8,2400,3464,,,,,,,,,,,,,,,,,
6906,1469903773248,,,,,,,0.46,-0.03,0.96,-0.3,0.7,-1.0,2440,3464,,,,,,,,,,,,,,,,,
6926,1469903773268,,,,,,,0.44,-0.07,0.97,-0.2,0.5,-1.0,2460,3433,,,,,,,,,,,,,,,,,
6946,1469903773288,,,,34,,,0.41,-0.08,0.99,-0.1,0.6,-1.0,2580,3449,0.681,5,39.543266,-122.332855,65.12,0.038,335.4,9,2,2.5,0,0.0,-1,0.0,,0.0,0
6966,1469903773306,,,,,,,0.43,-0.08,1.03,0.2,0.2,-1.1,2520,3418,,,,,,,,,,,,,,,,,
6986,1469903773326,,,,,,,0.45,-0.07,1.06,0.1,0.2,-1.1,2600,3464,,,,,,,,,,,,,,,,,
7006,1469903773346,,,,,,,0.47,-0.11,1.06,0.2,1.1,-1.1,2680,3403,,,,,,,,,,,,,,,,,
7026,1469903773366,,,,,,,0.46,-0.02,1.0,0.2,1.5,-1.2,2660,3403,,,,,,,,,,,,,,,,,
7046,1469903773386,0,284.7,210.2,34,212.0,13.82,0.45,-0.08,0.96,0.2,1.2,-0.9,2660,3403,0.74,5,39.543285,-122.332855,63.99,0.039,335.0,9,2,2.5,0,0.0,-1,0.0,0.0,0.0,0
7066,1469903773407,,,,,,,0.45,-0.11,0.97,0.5,1.6,-1.1,2700,3372,,,,,,,,,,,,,,,,,
7086,1469903773427,,,,,,,0.45,-0.09,1.0,0.6,1.7,-1.3,2760,3343,,,,,,,,,,,,,,,,,
7106,1469903773447,,,,,,,0.44,-0.12,1.01,0.3,1.2,-1.0,2740,3358,,,,,,,,,,,,,,,,,
7126,1469903773467,,,,,,,0.48,-0.18,1.03,0.4,0.6,-1.1,2940,3315,,,,,,,,,,,,,,,,,
7146,1469903773487,,,,51,,,0.49,-0.16,1.05,0.5,0.5,-0.9,2960,3272,0.819,5,39.543308,-122.332855,62.99,0.04,334.8,9,2,2.0,0,0.0,-1,0.0,,0.0,0
7166,1469903773506,,,,,,,0.5,-0.11,1.06,0.5,0.8,-1.0,3000,3300,,,,,,,,,,,,,,,,,
7186,1469903773526,,,,,,,0.48,-0.06,1.02,0.3,0.9,-0.9,2960,3286,,,,,,,,,,,,,,,,,
7206,1469903773546,,,,,,,0.49,-0.04,1.03,0.3,0.9,-0.8,2980,3343,,,,,,,,,,,,,,,,,
7226,1469903773566,,,,,,,0.47,-0.02,0.98,0.3,0.8,-1.1,2980,3300,,,,,,,,,,,,,,,,,
7246,1469903773586,0,285.5,210.9,51,212.9,,0.48,-0.01,0.96,0.2,0.6,-1.1,3000,3286,0.861,4,39.543335,-122.332855,61.79,0.042,334.5,9,2,2.0,0,0.0,-1,0.0,0.0,0.0,0
7266,1469903773706,,,,,,,0.47,-0.03,0.94,0.0,0.5,-1.0,3140,3244,,,,,,,,,,,,,,,,,
7286,1469903773726,,,,,,,0.47,-0.01,0.95,0.1,0.3,-1.0,3140,3258,,,,,,,,,,,,,,,,,
7306,1469903773746,,,,,,,0.47,-0.03,0.99,-0.1,-0.0,-0.8,3080,3230,,,,,,,,,,,,,,,,,
7326,1469903773766,,,,,,,0.46,-0.03,1.01,-0.2,-0.2,-0.5,3260,3204,,,,,,,,,,,,,,,,,
7346,1469903773786,,,,52,,,0.48,-0.07,1.02,-0.2,-0.7,-0.5,3120,3218,0.949,4,39.543381,-122.332855,60.1,0.045,334.2,9,2,2.0,0,0.0,-1,0.0,,0.0,0
7366,1469903773806,,,,,,,0.49,-0.1,1.01,-0.2,-0.5,-0.2,3180,3218,,,,,,,,,,,,,,,,,
7386,1469903773826,,,,,,,0.5,-0.07,1.02,-0.3,0.1,-0.2,3360,3204,,,,,,,,,,,,,,,,,
7406,1469903773846,,,,,,,0.51,-0.07,1.03,-0.2,0.2,-0.1,3220,3178,,,,,,,,,,,,,,,,,
7426,1469903773866,,,,,,,0.54,-0.07,0.97,-0.1,0.7,-0.2,3380,3178,,,,,,,,,,,,,,,,,
7446,1469903773886,0,284.0,210.0,51,211.9,,0.55,-0.04,0.96,-0.0,1.1,-0.4,3380,3138,1.001,4,39.543381,-122.332855,60.1,0.045,334.2,9,2,2.0,0,0.0,-1,0.0,0.0,0.0,0
7466,1469903773807,,,,,,,0.53,-0.02,0.95,-0.1,1.8,-0.3,3380,3152,,,,,,,,,,,,,,,,,
7486,1469903773827,,,,,,,0.55,0.0,0.92,-0.0,1.6,-0.3,3500,3126,,,,,,,,,,,,,,,,,
7506,1469903773847,,,,,,,0.54,0.01,0.9,-0.1,2.1,-0.3,3480,3138,,,,,,,,,,,,,,,,,
7526,1469903773867,,,,,,,0.53,-0.02,0.86,-0.2,1.6,-0.1,3600,3138,,,,,,,,,,,,,,,,,
7546,1469903773887,,,,53,,,0.5,-0.01,0.9,-0.1,1.5,-0.1,3580,3113,1.075,4,39.543404,-122.332863,58.99,0.047,333.6,9,2,2.0,0,0.0,-1,0.0,,0.0,0
7566,1469903773901,,,,,,,0.52,-0.02,0.88,0.1,0.8,-0.3,3660,3076,,,,,,,,,,,,,,,,,
7586,1469903773921,,,,,,,0.53,-0.0,0.87,0.2,0.6,-0.4,3620,3101,,,,,,,,,,,,,,,,,
7606,1469903773941,,,,,,,0.53,-0.02,0.82,0.3,0.3,-0.4,3620,3052,,,,,,,,,,,,,,,,,
7626,1469903773961,,,,,,,0.53,-0.03,0.84,0.4,0.2,-0.2,3740,3076,,,,,,,,,,,,,,,,,
7646,1469903773981,0,285.0,210.7,51,212.4,,0.55,-0.03,0.86,0.5,0.6,-0.4,3760,3064,1.146,3,39.543426,-122.332863,57.87,0.049,333.4,9,2,2.0,0,0.0,-1,0.0,0.0,0.0,0
7666,1469903774006,,,,,,,0.56,-0.02,0.89,0.8,0.8,-0.6,3720,3040,,,,,,,,,,,,,,,,,
7686,1469903774026,,,,,,,0.55,0.01,0.86,0.7,0.3,-0.6,3740,3015,,,,,,,,,,,,,,,,,
7706,1469903774046,,,,,,,0.56,0.02,0.91,0.6,0.4,-0.3,3900,3015,,,,,,,,,,,,,,,,,
7726,1469903774066,,,,,,,0.57,0.03,0.93,0.6,0.0,-0.5,3900,2980,,,,,,,,,,,,,,,,,
7746,1469903774086,,,,51,,,0.59,-0.0,0.92,0.8,-0.3,-0.5,3880,2992,1.23,3,39.543449,-122.332863,57.13,0.05,333.3,9,2,2.0,0,0.0,-1,0.0,,0.0,0
7766,1469903774107,,,,,,,0.58,0.0,0.92,0.8,-0.0,-0.7,3840,2958,,,,,,,,,,,,,,,,,
7786,1469903774127,,,,,,,0.56,0.02,0.91,0.6,-0.2,-0.7,3980,2958,,,,,,,,,,,,,,,,,
7806,1469903774147,,,,,,,0.57,0.03,0.92,0.7,-0.4,-0.9,4100,2946,,,,,,,,,,,,,,,,,
7826,1469903774167,,,,,,,0.58,0.03,0.92,0.8,-0.7,-1.2,4120,2958,,,,,,,,,,,,,,,,,
7846,1469903774187,0,284.7,210.4,47,212.0,,0.56,-0.01,0.86,1.1,-1.2,-1.2,4120,2946,1.31,3,39.543472,-122.332863,56.35,0.052,333.2,9,2,2.0,0,0.0,-1,0.0,0.0,0.0,0
7866,1469903774207,,,,,,,0.55,0.04,0.85,1.1,-1.8,-1.1,4160,2946,,,,,,,,,,,,,,,,,
7886,1469903774227,,,,,,,0.57,0.04,0.83,1.1,-2.6,-1.1,4100,2935,,,,,,,,,,,,,,,,,
7906,1469903774247,,,,,,,0.54,-0.02,0.82,1.2,-3.1,-1.3,4100,2890,,,,,,,,,,,,,,,,,
7926,1469903774267,,,,,,,0.52,-0.06,0.87,1.1,-3.6,-1.1,4200,2869,,,,,,,,,,,,,,,,,
7946,1469903774287,,,,52,,,0.48,-0.04,0.88,1.2,-3.8,-1.0,4260,2847,1.4,3,39.543495,-122.332863,55.22,0.053,333.1,9,2,2.0,0,0.0,-1,0.0,,0.0,0
7966,1469903774307,,,,,,,0.49,0.0,0.78,1.4,-4.3,-1.2,4360,2847,,,,,,,,,,,,,,,,,
7986,1469903774327,,,,,,,0.5,-0.08,0.82,1.7,-4.5,-1.1,4160,2827,,,,,,,,,,,,,,,,,
8006,1469903774347,,,,,,,0.46,-0.12,0.9,2.2,-4.4,-1.1,4260,2827,,,,,,,,,,,,,,,,,
8026,1469903774367,,,,,,,0.45,-0.09,0.83,2.2,-3.2,-1.1,4220,2847,,,,,,,,,,,,,,,,,
8046,1469903774387,0,285.4,210.7,62,212.6,13.82,0.5,-0.09,0.81,2.2,-2.5,-1.5,4400,2838,1.471,0,39.543514,-122.332863,53.96,0.055,332.9,9,2,2.0,0,0.0,-1,0.0,0.0,0.0,0
8066,1469903774504,,,,,,,0.53,-0.05,0.86,1.9,-2.1,-1.6,4420,2786,,,,,,,,,,,,,,,,,
8086,1469903774524,,,,,,,0.55,-0.02,0.83,1.8,-2.2,-1.6,4400,2827,,,,,,,,,,,,,,,,,
8106,1469903774544,,,,,,,0.55,0.01,0.9,1.7,-2.4,-1.7,4560,2786,,,,,,,,,,,,,,,,,
8126,1469903774564,,,,,,,0.53,0.02,0.9,1.6,-2.4,-1.3,4500,2776,,,,,,,,,,,,,,,,,
8146,1469903774584,,,,53,,,0.52,0.03,0.94,1.4,-2.7,-1.1,4500,2776,1.549,0,39.543556,-122.332863,52.03,0.058,332.2,9,2,2.0,0,0.0,-1,0.0,,0.0,0
8166,1469903774604,,,,,,,0.49,0.02,0.9,1.5,-2.5,-0.7,4600,2776,,,,,,,,,,,,,,,,,
8186,1469903774624,,,,,,,0.46,0.04,0.93,1.4,-2.2,-0.5,4600,2766,,,,,,,,,,,,,,,,,
8206,1469903774644,,,,,,,0.48,0.0,0.88,1.5,-1.8,-0.1,4580,2766,,,,,,,,,,,,,,,,,
8226,1469903774664,,,,,,,0.48,0.02,0.98,1.5,-2.0,0.0,4620,2746,,,,,,,,,,,,,,,,,
8246,1469903774684,0,284.2,210.6,55,212.3,,0.5,0.0,0.87,1.7,-2.9,-0.0,4640,2736,1.66,0,39.543556,-122.332863,52.03,0.058,332.2,9,2,2.0,0,0.0,-1,0.0,0.0,0.0,0
8266,1469903774604,,,,,,,0.48,0.01,0.91,1.8,-3.0,0.2,4580,2698,,,,,,,,,,,,,,,,,
8286,1469903774624,,,,,,,0.46,-0.03,0.87,1.9,-3.1,-0.2,4680,2698,,,,,,,,,,,,,,,,,
8306,1469903774644,,,,,,,0.51,0.01,0.87,1.4,-3.3,0.1,4620,2689,,,,,,,,,,,,,,,,,
8326,1469903774664,,,,,,,0.49,0.01,0.9,1.3,-4.0,-0.0,4640,2670,,,,,,,,,,,,,,,,,
8346,1469903774684,,,,65,,,0.51,-0.08,0.88,1.4,-3.3,-0.1,4660,2661,1.723,0,39.543579,-122.332863,50.95,0.059,331.8,9,2,2.0,0,0.0,-1,0.0,,0.0,0
8366,1469903774703,,,,,,,0.52,-0.11,0.86,1.4,-4.1,0.1,4680,2643,,,,,,,,,,,,,,,,,
8386,1469903774723,,,,,,,0.5,-0.15,0.93,1.9,-2.7,0.5,4820,2652,,,,,,,,,,,,,,,,,
8406,1469903774743,,,,,,,0.51,-0.2,0.9,2.7,-3.1,0.4,4740,2598,,,,,,,,,,,,,,,,,
8426,1469903774763,,,,,,,0.51,-0.13,0.82,3.2,-3.0,0.3,4740,2580,,,,,,,,,,,,,,,,,
8446,1469903774783,0,284.9,210.7,68,212.5,,0.56,-0.07,0.91,3.2,-3.9,0.1,4880,2572,1.775,2,39.543594,-122.332855,50.02,0.06,331.3,9,2,2.0,0,0.0,-1,0.0,0.0,0.0,0
8466,1469903774807,,,,,,,0.54,-0.1,0.98,3.0,-3.4,-0.3,4920,2580,,,,,,,,,,,,,,,,,
8486,1469903774827,,,,,,,0.56,-0.13,0.9,3.1,-2.9,-0.0,4920,2633,,,,,,,,,,,,,,,,,
8506,1469903774847,,,,,,,0.55,-0.21,0.93,3.8,-4.9,0.3,4960,2606,,,,,,,,,,,,,,,,,
8526,1469903774867,,,,,,,0.48,-0.17,1.02,3.9,-4.4,0.2,4920,2633,,,,,,,,,,,,,,,,,
8546,1469903774887,,,,52,,,0.57,-0.18,1.11,3.7,-1.8,0.4,4940,2624,1.862,2,39.543613,-122.332855,49.13,0.062,330.8,9,2,2.0,0,0.0,-1,0.0,,0.0,0
8566,1469903774907,,,,,,,0.54,-0.24,1.2,4.0,-4.1,0.6,4980,2615,,,,,,,,,,,,,,,,,
8586,1469903774920,,,,,,,0.51,-0.23,1.21,4.9,-2.0,0.3,4920,2563,,,,,,,,,,,,,,,,,
8606,1469903774940,,,,,,,0.55,-0.17,1.25,4.3,-1.3,0.5,4920,2563,,,,,,,,,,,,,,,,,
8626,1469903774960,,,,,,,0.51,-0.13,1.26,4.0,-2.3,0.1,4880,2572,,,,,,,,,,,,,,,,,
8646,1469903774980,0,285.2,210.5,48,212.3,,0.5,-0.28,1.16,4.5,-1.1,0.1,4840,2563,1.876,2,39.543632,-122.332855,48.14,0.063,330.4,9,2,2.0,0,0.0,-1,0.0,0.0,0.0,0
8666,1469903775008,,,,,,,0.49,-0.22,1.02,4.9,-2.4,0.1,4920,2563,,,,,,,,,,,,,,,,,
8686,1469903775028,,,,,,,0.41,-0.18,0.92,4.7,-1.9,-0.3,4800,2589,,,,,,,,,,,,,,,,,
8706,1469903775048,,,,,,,0.46,-0.24,0.89,4.5,-1.0,-0.2,4900,2580,,,,,,,,,,,,,,,,,
8726,1469903775068,,,,,,,0.44,-0.33,0.89,5.1,-3.0,0.1,4660,2489,,,,,,,,,,,,,,,,,
8746,1469903775088,,,,50,,,0.42,-0.3,0.9,5.5,-1.6,0.1,4800,2512,1.931,2,39.543652,-122.332855,46.32,0.064,329.7,9,2,2.0,0,0.0,-1,0.0,,0.0,0
8766,1469903775108,,,,,,,0.45,-0.19,0.91,5.2,-2.4,0.1,4840,2529,,,,,,,,,,,,,,,,,
8786,1469903775128,,,,,,,0.35,-0.2,0.92,4.9,-2.8,-0.1,4680,2512,,,,,,,,,,,,,,,,,
8806,1469903775148,,,,,,,0.37,-0.25,0.91,4.6,-0.5,-0.1,4800,2521,,,,,,,,,,,,,,,,,
8826,1469903775168,,,,,,,0.39,-0.31,0.93,5.2,-1.8,-0.1,4720,2504,,,,,,,,,,,,,,,,,
8846,1469903775188,0,284.9,209.9,46,211.6,,0.38,-0.34,0.92,5.7,-1.0,0.1,4760,2496,1.855,2,39.543671,-122.332855,46.12,0.066,329.0,9,2,2.0,0,0.0,-1,0.0,0.0,0.0,0
8866,1469903775308,,,,,,,0.4,-0.29,0.87,6.0,-2.2,-0.1,4760,2496,,,,,,,,,,,,,,,,,
8886,1469903775328,,,,,,,0.34,-0.3,0.83,6.1,-2.1,-0.3,4600,2456,,,,,,,,,,,,,,,,,
8906,1469903775348,,,,,,,0.37,-0.26,0.94,5.7,-1.9,-0.3,4720,2472,,,,,,,,,,,,,,,,,
8926,1469903775368,,,,,,,0.34,-0.23,1.0,5.6,-2.2,-0.5,4660,2489,,,,,,,,,,,,,,,,,
8946,1469903775388,,,,50,,,0.35,-0.36,0.98,6.0,-0.4,-0.3,4580,2449,1.864,2,39.543705,-122.332855,44.97,0.068,327.8,9,2,2.0,0,0.0,-1,0.0,,0.0,0
8966,1469903775408,,,,,,,0.36,-0.41,0.98,6.6,-1.6,0.0,4760,2449,,,,,,,,,,,,,,,,,
8986,1469903775428,,,,,,,0.33,-0.41,1.01,7.3,-0.5,0.2,4640,2464,,,,,,,,,,,,,,,,,
9006,1469903775448,,,,,,,0.35,-0.43,1.01,7.7,-1.5,0.0,4500,2403,,,,,,,,,,,,,,,,,
9026,1469903775468,,,,,,,0.29,-0.4,0.94,8.1,-1.6,0.3,4500,2449,,,,,,,,,,,,,,,,,
9046,1469903775488,0,284.5,210.8,63,212.4,13.94,0.3,-0.34,0.96,8.5,-2.4,0.2,4560,2433,1.914,2,39.543705,-122.332855,44.97,0.068,327.8,9,2,2.0,0,0.0,-1,0.0,0.0,0.0,0
9066,1469903775406,,,,,,,0.29,-0.34,0.95,8.6,-2.5,0.2,4640,2418,,,,,,,,,,,,,,,,,
9086,1469903775426,,,,,,,0.3,-0.32,0.93,8.5,-2.8,-0.1,4620,2433,,,,,,,,,,,,,,,,,
9106,1469903775446,,,,,,,0.28,-0.3,0.92,8.3,-3.6,-0.3,4540,2387,,,,,,,,,,,,,,,,,
9126,1469903775466,,,,,,,0.27,-0.29,0.92,8.3,-4.2,-0.4,4560,2410,,,,,,,,,,,,,,,,,
9146,1469903775486,,,,69,,,0.27,-0.27,0.91,8.3,-3.3,-0.7,4600,2395,1.86,2,39.54372,-122.33284,44.22,0.069,327.2,9,2,2.0,0,0.0,-1,0.0,,0.0,0
9166,1469903775510,,,,,,,0.27,-0.24,0.93,8.2,-3.4,-0.8,4520,2380,,,,,,,,,,,,,,,,,
9186,1469903775530,,,,,,,0.25,-0.23,0.84,8.8,-2.8,-1.2,4500,2366,,,,,,,,,,,,,,,,,
9206,1469903775550,,,,,,,0.31,-0.23,0.82,9.3,-2.2,-1.1,4480,2395,,,,,,,,,,,,,,,,,
9226,1469903775570,,,,,,,0.29,-0.27,0.92,9.9,-2.0,-1.4,4480,2380,,,,,,,,,,,,,,,,,
9246,1469903775590,0,284.2,210.5,60,212.7,,0.31,-0.28,0.83,10.2,-1.9,-1.1,4500,2387,1.844,2,39.543743,-122.33284,43.71,0.071,326.6,9,2,2.0,0,0.0,-1,0.0,0.0,0.0,0
9266,1469903775599,,,,,,,0.3,-0.28,0.88,10.5,-2.8,-1.3,4500,2352,,,,,,,,,,,,,,,,,
9286,1469903775619,,,,,,,0.31,-0.32,0.81,10.9,-3.2,-1.3,4520,2380,,,,,,,,,,,,,,,,,
9306,1469903775639,,,,,,,0.28,-0.31,0.88,11.2,-3.2,-1.8,4440,2330,,,,,,,,,,,,,,,,,
9326,1469903775659,,,,,,,0.32,-0.28,0.87,11.4,-4.0,-1.8,4460,2358,,,,,,,,,,,,,,,,,
9346,1469903775679,,,,64,,,0.34,-0.29,0.88,11.5,-3.1,-2.0,4400,2344,1.874,2,39.543758,-122.33284,43.05,0.072,326.0,9,2,2.0,0,0.0,-1,0.0,,0.0,0
9366,1469903775699,,,,,,,0.35,-0.32,0.88,11.9,-4.0,-1.8,4360,2344,,,,,,,,,,,,,,,,,
9386,1469903775719,,,,,,,0.34,-0.35,0.89,12.2,-3.0,-1.9,4360,2336,,,,,,,,,,,,,,,,,
9406,1469903775739,,,,,,,0.35,-0.3,0.96,12.1,-3.7,-2.1,4340,2303,,,,,,,,,,,,,,,,,
9426,1469903775759,,,,,,,0.3,-0.34,0.89,12.1,-2.6,-1.9,4400,2336,,,,,,,,,,,,,,,,,
9446,1469903775779,0,284.5,211.0,56,212.4,,0.31,-0.33,0.97,12.4,-2.7,-2.2,4340,2295,1.92,2,39.543774,-122.332825,42.44,0.073,325.6,9,2,2.0,0,0.0,-1,0.0,0.0,0.0,0
9466,1469903775801,,,,,,,0.28,-0.3,0.94,12.6,-1.8,-2.3,4340,2316,,,,,,,,,,,,,,,,,
9486,1469903775821,,,,,,,0.24,-0.29,0.94,12.6,-1.1,-2.2,4300,2316,,,,,,,,,,,,,,,,,
9506,1469903775841,,,,,,,0.23,-0.35,0.99,12.7,-0.1,-1.6,4440,2289,,,,,,,,,,,,,,,,,
9526,1469903775861,,,,,,,0.21,-0.37,0.93,13.3,-0.1,-1.6,4400,2267,,,,,,,,,,,,,,,,,
9546,1469903775881,,,,52,,,0.22,-0.41,1.01,13.8,0.6,-1.6,4320,2309,1.928,2,39.543789,-122.332825,42.14,0.074,325.1,9,2,2.0,0,0.0,-1,0.0,,0.0,0
9566,1469903775895,,,,,,,0.24,-0.46,1.02,14.5,0.3,-2.3,4280,2261,,,,,,,,,,,,,,,,,
9586,1469903775915,,,,,,,0.24,-0.46,0.99,15.0,-0.5,-2.4,4340,2289,,,,,,,,,,,,,,,,,
9606,1469903775935,,,,,,,0.23,-0.48,0.92,15.1,-0.2,-2.2,4280,2289,,,,,,,,,,,,,,,,,
9626,1469903775955,,,,,,,0.24,-0.51,0.98,15.2,-0.7,-2.1,4360,2255,,,,,,,,,,,,,,,,,
9646,1469903775975,0,284.0,210.7,60,212.8,,0.23,-0.49,0.94,15.2,-1.0,-1.9,4200,2267,1.868,2,39.543804,-122.332817,40.86,0.075,324.7,9,2,2.0,0,0.0,-1,0.0,0.0,0.0,0
9666,1469903776101,,,,,,,0.16,-0.46,0.87,15.3,-0.7,-1.6,4240,2261,,,,,,,,,,,,,,,,,
9686,1469903776121,,,,,,,0.18,-0.52,0.96,15.6,-0.8,-1.2,4200,2275,,,,,,,,,,,,,,,,,
9706,1469903776141,,,,,,,0.19,-0.55,0.97,16.1,-0.8,-1.3,4180,2235,,,,,,,,,,,,,,,,,
9726,1469903776161,,,,,,,0.21,-0.53,0.93,16.2,-0.5,-1.5,4220,2247,,,,,,,,,,,,,,,,,
9746,1469903776181,,,,57,,,0.19,-0.54,0.92,16.0,0.6,-1.5,4320,2255,1.889,2,39.543838,-122.332802,40.57,0.078,324.3,9,2,2.0,0,0.0,-1,0.0,,0.0,0
9766,1469903776201,,,,,,,0.22,-0.59,0.98,16.2,0.3,-1.4,4240,2261,,,,,,,,,,,,,,,,,
9786,1469903776221,,,,,,,0.19,-0.55,0.97,16.1,0.2,-1.0,4220,2235,,,,,,,,,,,,,,,,,
9806,1469903776241,,,,,,,0.16,-0.53,0.95,16.1,-0.3,-0.7,4320,2247,,,,,,,,,,,,,,,,,
9826,1469903776261,,,,,,,0.14,-0.51,0.89,16.0,-0.6,-0.5,4240,2235,,,,,,,,,,,,,,,,,
9846,1469903776281,0,286.2,210.5,66,212.5,,0.13,-0.59,0.9,16.2,-0.8,-0.5,4200,2241,1.896,2,39.543838,-122.332802,40.57,0.078,324.3,9,2,2.0,0,0.0,-1,0.0,0.0,0.0,0
9866,1469903776201,,,,,,,0.17,-0.59,0.95,16.4,-1.7,-0.7,4280,2209,,,,,,,,,,,,,,,,,
9886,1469903776221,,,,,,,0.18,-0.56,0.95,16.2,-1.1,-0.8,4240,2223,,,,,,,,,,,,,,,,,
9906,1469903776241,,,,,,,0.15,-0.53,0.88,16.2,-0.5,-0.7,4160,2241,,,,,,,,,,,,,,,,,
9926,1469903776261,,,,,,,0.18,-0.58,0.85,16.5,-0.2,-0.4,4100,2215,,,,,,,,,,,,,,,,,
9946,1469903776281,,,,63,,,0.17,-0.63,0.89,16.7,0.2,-0.7,4160,2209,1.914,2,39.54385,-122.332802,40.12,0.079,324.0,9,2,2.0,0,0.0,-1,0.0,,0.0,0
9966,1469903776301,,,,,,,0.18,-0.66,0.94,16.9,-0.4,-1.1,4240,2203,,,,,,,,,,,,,,,,,
9986,1469903776321,,,,,,,0.19,-0.63,0.95,17.1,0.1,-1.1,4080,2203,,,,,,,,,,,,,,,,,
10006,1469903776341,,,,,,,0.17,-0.56,0.86,17.4,0.9,-1.0,4120,2196,,,,,,,,,,,,,,,,,
10026,1469903776361,,,,,,,0.18,-0.54,0.87,17.4,1.0,-0.5,4200,2215,,,,,,,,,,,,,,,,,
10046,1469903776381,0,285.2,210.0,54,211.7,13.89,0.17,-0.57,0.94,17.7,0.9,-0.6,4200,2196,1.928,2,39.543865,-122.332787,39.75,0.08,323.7,9,2,2.0,0,0.0,-1,0.0,0.0,0.0,0
10066,1469903776400,,,,,,,0.2,-0.57,1.0,17.9,0.7,-0.9,4120,2203,,,,,,,,,,,,,,,,,
10086,1469903776420,,,,,,,0.23,-0.64,1.02,17.9,0.9,-0.9,4200,2196,,,,,,,,,,,,,,,,,
10106,1469903776440,,,,,,,0.23,-0.63,1.03,18.5,1.3,-1.4,4180,2178,,,,,,,,,,,,,,,,,
10126,1469903776460,,,,,,,0.24,-0.62,0.92,18.8,1.6,-1.4,4140,2190,,,,,,,,,,,,,,,,,
10146,1469903776480,,,,50,,,0.22,-0.57,0.89,19.0,2.0,-1.1,4040,2215,1.849,2,39.54388,-122.332779,39.43,0.081,323.5,9,2,2.0,0,0.0,-1,0.0,,0.0,0
10166,1469903776500,,,,,,,0.18,-0.61,0.9,19.0,2.2,-0.9,4140,2190,,,,,,,,,,,,,,,,,
10186,1469903776520,,,,,,,0.2,-0.65,0.99,19.0,2.3,-0.6,4180,2178,,,,,,,,,,,,,,,,,
10206,1469903776540,,,,,,,0.19,-0.7,1.05,19.0,2.3,-0.5,4140,2178,,,,,,,,,,,,,,,,,
10226,1469903776560,,,,,,,0.2,-0.71,1.05,19.0,1.3,-0.4,4120,2153,,,,,,,,,,,,,,,,,
10246,1469903776580,0,285.9,210.9,49,212.4,,0.19,-0.7,1.04,19.0,0.6,-0.3,4080,2153,1.881,2,39.543896,-122.332779,39.09,0.082,323.3,9,2,0.1,0,0.0,-1,0.0,0.0,0.0,0
10266,1469903776600,,,,,,,0.16,-0.69,1.01,19.2,0.6,-0.6,4040,2135,,,,,,,,,,,,,,,,,
10286,1469903776620,,,,,,,0.15,-0.64,0.93,19.4,0.8,-0.7,4080,2172,,,,,,,,,,,,,,,,,
10306,1469903776640,,,,,,,0.16,-0.57,0.9,19.1,0.7,-0.7,4080,2172,,,,,,,,,,,,,,,,,
10326,1469903776660,,,,,,,0.17,-0.59,0.96,19.1,1.5,-0.7,4100,2160,,,,,,,,,,,,,,,,,
10346,1469903776680,,,,47,,,0.21,-0.61,0.99,19.3,1.7,-0.5,4020,2166,1.87,2,39.543907,-122.332764,38.91,0.084,323.1,9,2,0.1,0,0.0,-1,0.0,,0.0,0
10366,1469903776700,,,,,,,0.25,-0.62,1.0,19.3,2.6,-0.1,4040,2141,,,,,,,,,,,,,,,,,
10386,1469903776720,,,,,,,0.27,-0.65,1.03,19.2,3.6,0.2,4080,2141,,,,,,,,,,,,,,,,,
10406,1469903776740,,,,,,,0.36,-0.7,1.09,19.3,3.4,-0.0,3980,2141,,,,,,,,,,,,,,,,,
10426,1469903776760,,,,,,,0.37,-0.71,1.08,19.3,3.5,-0.2,4000,2135,,,,,,,,,,,,,,,,,
10446,1469903776780,0,284.2,209.9,60,212.5,,0.37,-0.69,1.09,19.0,3.3,-0.0,3960,2130,1.849,2,39.543919,-122.332748,38.9,0.085,322.9,9,2,0.1,0,0.0,-1,0.0,0.0,0.0,0
10466,1469903776902,,,,,,,0.45,-0.76,1.13,19.2,3.2,-0.0,4060,2130,,,,,,,,,,,,,,,,,
10486,1469903776922,,,,,,,0.47,-0.79,1.16,19.5,2.5,-0.2,4040,2135,,,,,,,,,,,,,,,,,
10506,1469903776942,,,,,,,0.5,-0.76,1.19,19.4,1.5,-0.3,4060,2101,,,,,,,,,,,,,,,,,
10526,1469903776962,,,,,,,0.53,-0.78,1.2,19.7,1.3,-0.1,3980,2124,,,,,,,,,,,,,,,,,
10546,1469903776982,,,,51,,,0.54,-0.81,1.2,19.8,1.0,-0.2,4020,2112,1.835,2,39.543945,-122.332726,38.0,0.087,322.3,9,2,0.1,0,0.0,-1,0.0,,0.0,0
10566,1469903777002,,,,,,,0.53,-0.81,1.2,20.0,1.0,-0.4,3960,2095,,,,,,,,,,,,,,,,,
10586,1469903777022,,,,,,,0.55,-0.85,1.19,20.3,0.7,-0.2,3940,2101,,,,,,,,,,,,,,,,,
10606,1469903777042,,,,,,,0.54,-0.87,1.2,20.7,0.3,-0.2,3940,2095,,,,,,,,,,,,,,,,,
10626,1469903777062,,,,,,,0.51,-0.84,1.2,20.6,-0.5,-0.0,3940,2095,,,,,,,,,,,,,,,,,
10646,1469903777082,0,284.7,210.6,53,211.9,,0.53,-0.87,1.24,20.7,-1.4,0.2,3940,2084,1.861,2,39.543945,-122.332726,38.0,0.087,322.3,9,2,0.1,0,0.0,-1,0.0,0.0,0.0,0
10666,1469903777002,,,,,,,0.51,-0.91,1.23,21.0,-1.4,0.3,4020,2112,,,,,,,,,,,,,,,,,
10686,1469903777022,,,,,,,0.5,-0.94,1.24,20.9,-2.3,0.5,3900,2089,,,,,,,,,,,,,,,,,
10706,1469903777042,,,,,,,0.51,-0.96,1.27,20.9,-2.1,0.7,4000,2084,,,,,,,,,,,,,,,,,
10726,1469903777062,,,,,,,0.5,-0.96,1.26,20.6,-1.9,0.9,3980,2095,,,,,,,,,,,,,,,,,
10746,1469903777082,,,,48,,,0.51,-0.98,1.25,20.4,-2.3,1.0,3880,2095,1.894,2,39.543961,-122.33271,37.88,0.088,322.1,9,2,0.1,0,0.0,-1,0.0,,0.0,0
10766,1469903777102,,,,,,,0.51,-1.02,1.26,20.5,-1.4,1.3,4060,2106,,,,,,,,,,,,,,,,,
10786,1469903777122,,,,,,,0.52,-1.0,1.24,20.3,-0.9,1.2,4020,2112,,,,,,,,,,,,,,,,,
10806,1469903777142,,,,,,,0.5,-1.01,1.18,20.3,-0.7,1.5,4060,2101,,,,,,,,,,,,,,,,,
10826,1469903777162,,,,,,,0.47,-0.98,1.17,20.3,-0.5,1.8,4060,2118,,,,,,,,,,,,,,,,,
10846,1469903777182,0,284.5,210.4,45,212.0,,0.44,-0.96,1.14,20.2,0.2,2.2,3940,2118,1.861,2,39.543972,-122.332703,37.62,0.089,322.1,9,2,0.1,0,0.0,-1,0.0,0.0,0.0,0
10866,1469903777201,,,,,,,0.41,-0.97,1.14,20.4,0.6,2.3,4040,2106,,,,,,,,,,,,,,,,,
10886,1469903777221,,,,,,,0.38,-0.96,1.16,20.5,1.8,2.3,4060,2101,,,,,,,,,,,,,,,,,
10906,1469903777241,,,,,,,0.35,-0.94,1.15,20.6,2.6,2.2,4000,2101,,,,,,,,,,,,,,,,,
10926,1469903777261,,,,,,,0.31,-0.91,1.13,20.7,3.6,1.8,4020,2106,,,,,,,,,,,,,,,,,
10946,1469903777281,,,,53,,,0.3,-0.84,1.15,20.6,4.3,1.3,4000,2095,1.88,2,39.54398,-122.332687,37.44,0.09,322.0,9,2,0.1,0,0.0,-1,0.0,,0.0,0
10966,1469903777301,,,,,,,0.28,-0.81,1.15,20.7,5.1,0.9,3940,2101,,,,,,,,,,,,,,,,,
10986,1469903777321,,,,,,,0.26,-0.79,1.14,20.6,6.1,1.0,4020,2124,,,,,,,,,,,,,,,,,
11006,1469903777341,,,,,,,0.25,-0.76,1.15,20.6,6.3,1.3,3940,2112,,,,,,,,,,,,,,,,,
11026,1469903777361,,,,,,,0.22,-0.79,1.16,20.6,7.7,1.4,4020,2106,,,,,,,,,,,,,,,,,
11046,1469903777381,0,284.9,210.9,45,211.9,14.02,0.19,-0.8,1.17,20.5,8.2,1.4,4000,2095,1.875,2,39.543991,-122.332672,37.19,0.091,321.9,9,2,0.1,0,0.0,-1,0.0,0.0,0.0,0
11066,1469903777400,,,,,,,0.15,-0.82,1.2,20.4,8.4,1.3,4060,2130,,,,,,,,,,,,,,,,,
11086,1469903777420,,,,,,,0.13,-0.8,1.12,20.2,8.6,1.0,3960,2112,,,,,,,,,,,,,,,,,
11106,1469903777440,,,,,,,0.11,-0.77,1.17,19.9,8.4,0.9,4100,2118,,,,,,,,,,,,,,,,,
11126,1469903777460,,,,,,,0.09,-0.75,1.21,19.7,7.9,1.0,3960,2141,,,,,,,,,,,,,,,,,
11146,1469903777480,,,,49,,,0.03,-0.76,1.16,19.4,7.6,0.8,4080,2135,1.866,2,39.543999,-122.332657,36.79,0.092,321.7,9,2,0.1,0,0.0,-1,0.0,,0.0,0
11166,1469903777499,,,,,,,-0.01,-0.72,1.17,19.0,7.7,1.2,4100,2135,,,,,,,,,,,,,,,,,
11186,1469903777519,,,,,,,-0.03,-0.71,1.21,18.8,7.6,1.5,4020,2124,,,,,,,,,,,,,,,,,
11206,1469903777539,,,,,,,-0.07,-0.69,1.26,18.5,7.5,1.2,3940,2106,,,,,,,,,,,,,,,,,
11226,1469903777559,,,,,,,-0.07,-0.65,1.24,18.4,6.8,1.1,4000,2112,,,,,,,,,,,,,,,,,
11246,1469903777579,0,284.5,210.6,59,212.0,,-0.06,-0.65,1.23,18.2,7.2,1.0,3960,2078,1.883,2,39.54401,-122.332649,36.63,0.093,321.5,9,2,0.1,0,0.0,-1,0.0,0.0,0.0,0
11266,1469903777699,,,,,,,-0.07,-0.62,1.26,18.2,7.2,0.7,3940,2089,,,,,,,,,,,,,,,,,
11286,1469903777719,,,,,,,-0.09,-0.62,1.26,18.2,7.9,0.7,3860,2067,,,,,,,,,,,,,,,,,
11306,1469903777739,,,,,,,-0.08,-0.58,1.25,18.3,7.9,0.6,3940,2061,,,,,,,,,,,,,,,,,
11326,1469903777759,,,,,,,-0.11,-0.61,1.18,18.2,8.4,0.5,3880,2072,,,,,,,,,,,,,,,,,
11346,1469903777779,,,,48,,,-0.1,-0.6,1.22,18.5,7.7,0.3,3920,2106,1.867,2,39.544029,-122.332611,36.5,0.096,320.9,9,2,0.1,0,0.0,-1,0.0,,0.0,0
11366,1469903777799,,,,,,,-0.1,-0.62,1.2,19.0,7.5,0.1,3920,2067,,,,,,,,,,,,,,,,,
11386,1469903777819,,,,,,,-0.08,-0.66,1.16,19.3,7.4,-0.2,3920,2101,,,,,,,,,,,,,,,,,
11406,1469903777839,,,,,,,-0.06,-0.66,1.16,19.7,6.8,-0.5,3960,2101,,,,,,,,,,,,,,,,,
11426,1469903777859,,,,,,,-0.05,-0.63,1.1,20.1,5.7,-0.4,4000,2101,,,,,,,,,,,,,,,,,
11446,1469903777879,0,284.9,210.3,51,212.3,,-0.06,-0.66,1.06,20.4,5.5,-0.5,4000,2095,1.91,2,39.544029,-122.332611,36.5,0.096,320.9,9,2,0.1,0,0.0,-1,0.0,0.0,0.0,0
11466,1469903777801,,,,,,,-0.02,-0.63,1.06,20.9,4.6,-0.8,4020,2089,,,,,,,,,,,,,,,,,
11486,1469903777821,,,,,,,0.01,-0.64,1.03,21.2,3.9,-0.7,3920,2106,,,,,,,,,,,,,,,,,
11506,1469903777841,,,,,,,0.04,-0.66,1.02,21.5,3.7,-0.8,4020,2078,,,,,,,,,,,,,,,,,
11526,1469903777861,,,,,,,0.06,-0.65,1.01,21.6,3.2,-0.9,3940,2095,,,,,,,,,,,,,,,,,
11546,1469903777881,,,,61,,,0.08,-0.6,0.95,21.5,1.7,-0.7,4000,2089,1.886,2,39.544037,-122.332596,36.71,0.097,320.6,9,2,0.1,0,0.0,-1,0.0,,0.0,0
11566,1469903777896,,,,,,,0.07,-0.66,1.01,21.5,1.6,-0.4,4000,2106,,,,,,,,,,,,,,,,,
11586,1469903777916,,,,,,,0.09,-0.64,1.01,21.5,1.1,-0.4,3840,2089,,,,,,,,,,,,,,,,,
11606,1469903777936,,,,,,,0.11,-0.67,0.99,21.4,0.1,-0.4,4000,2089,,,,,,,,,,,,,,,,,
11626,1469903777956,,,,,,,0.11,-0.66,1.05,21.3,-0.2,-0.4,4020,2106,,,,,,,,,,,,,,,,,
11646,1469903777976,0,284.5,209.8,51,212.7,,0.13,-0.64,0.99,21.2,-0.6,-0.5,4020,2112,1.904,2,39.544041,-122.332581,36.74,0.098,320.3,9,2,0.1,0,0.0,-1,0.0,0.0,0.0,0
11666,1469903778002,,,,,,,0.16,-0.62,0.96,21.1,-1.2,-0.3,3920,2089,,,,,,,,,,,,,,,,,
11686,1469903778022,,,,,,,0.18,-0.66,1.04,21.1,-1.6,-0.3,3940,2101,,,,,,,,,,,,,,,,,
11706,1469903778042,,,,,,,0.21,-0.67,0.97,21.4,-1.5,-0.4,3940,2118,,,,,,,,,,,,,,,,,
11726,1469903778062,,,,,,,0.18,-0.68,1.04,21.6,-1.6,-0.4,3920,2101,,,,,,,,,,,,,,,,,
11746,1469903778082,,,,48,,,0.2,-0.66,0.98,21.9,-1.4,-0.5,3920,2095,1.899,2,39.544052,-122.332558,36.9,0.099,320.1,9,2,0.1,0,0.0,-1,0.0,,0.0,0
11766,1469903778102,,,,,,,0.2,-0.67,0.99,22.1,-1.4,-0.6,4000,2106,,,,,,,,,,,,,,,,,
11786,1469903778122,,,,,,,0.17,-0.68,1.05,22.3,-1.2,-0.9,3940,2112,,,,,,,,,,,,,,,,,
11806,1469903778142,,,,,,,0.14,-0.67,1.0,22.3,-0.6,-0.8,3940,2095,,,,,,,,,,,,,,,,,
11826,1469903778162,,,,,,,0.12,-0.65,0.99,22.3,0.2,-1.0,3960,2112,,,,,,,,,,,,,,,,,
11846,1469903778182,0,284.7,211.0,45,212.0,,0.09,-0.61,1.02,22.4,0.7,-1.0,3980,2118,1.899,2,39.54406,-122.332542,36.81,0.1,320.0,9,2,0.1,0,0.0,-1,0.0,0.0,0.0,0
11866,1469903778201,,,,,,,0.09,-0.6,0.96,22.1,0.7,-1.0,3960,2106,,,,,,,,,,,,,,,,,
11886,1469903778221,,,,,,,0.07,-0.61,1.0,22.0,1.1,-0.9,4000,2112,,,,,,,,,,,,,,,,,
11906,1469903778241,,,,,,,0.05,-0.61,1.02,21.9,1.0,-1.0,4000,2106,,,,,,,,,,,,,,,,,
11926,1469903778261,,,,,,,0.03,-0.57,0.96,21.6,1.3,-0.9,4000,2118,,,,,,,,,,,,,,,,,
11946,1469903778281,,,,49,,,0.02,-0.55,1.02,21.1,1.3,-0.9,4040,2118,1.871,2,39.54406,-122.33252,36.74,0.101,319.9,9,2,0.1,0,0.0,-1,0.0,,0.0,0
11966,1469903778302,,,,,,,-0.01,-0.53,1.08,20.7,1.4,-1.2,4000,2118,,,,,,,,,,,,,,,,,
11986,1469903778322,,,,,,,-0.02,-0.51,1.01,20.5,1.7,-1.2,3980,2106,,,,,,,,,,,,,,,,,
12006,1469903778342,,,,,,,-0.04,-0.51,1.07,20.3,2.0,-1.3,3960,2106,,,,,,,,,,,,,,,,,
12026,1469903778362,,,,,,,-0.05,-0.51,1.12,20.2,2.5,-1.2,4000,2106,,,,,,,,,,,,,,,,,
12046,1469903778382,0,284.4,210.2,54,212.0,13.92,-0.04,-0.46,1.03,20.1,2.3,-1.3,4020,2118,1.875,2,39.544067,-122.332504,36.82,0.102,319.8,9,2,0.1,0,0.0,-1,0.0,0.0,0.0,0
12066,1469903778499,,,,,,,-0.06,-0.46,1.06,19.9,2.7,-1.3,4060,2101,,,,,,,,,,,,,,,,,
12086,1469903778519,,,,,,,-0.08,-0.51,1.12,20.0,2.3,-1.5,3940,2106,,,,,,,,,,,,,,,,,
12106,1469903778539,,,,,,,-0.07,-0.53,1.05,20.1,2.7,-1.5,3980,2101,,,,,,,,,,,,,,,,,
12126,1469903778559,,,,,,,-0.08,-0.51,1.08,20.0,3.3,-1.8,3960,2118,,,,,,,,,,,,,,,,,
12146,1469903778579,,,,60,,,-0.09,-0.52,1.12,20.1,3.1,-1.9,3860,2106,1.847,2,39.544079,-122.332466,36.79,0.104,319.6,9,2,0.1,0,0.0,-1,0.0,,0.0,0
12166,1469903778599,,,,,,,-0.1,-0.53,1.04,20.1,3.2,-1.7,4060,2106,,,,,,,,,,,,,,,,,
12186,1469903778619,,,,,,,-0.12,-0.51,1.06,20.0,2.7,-1.6,4040,2112,,,,,,,,,,,,,,,,,
12206,1469903778639,,,,,,,-0.13,-0.52,1.11,20.0,2.2,-1.8,3940,2118,,,,,,,,,,,,,,,,,
12226,1469903778659,,,,,,,-0.13,-0.52,1.01,19.8,1.7,-1.7,4040,2135,,,,,,,,,,,,,,,,,
12246,1469903778679,0,285.0,210.4,49,211.6,,-0.13,-0.56,1.04,19.9,1.4,-1.8,4060,2106,1.922,2,39.544079,-122.332466,36.79,0.104,319.6,9,2,0.1,0,0.0,-1,0.0,0.0,0.0,0
12266,1469903778597,,,,,,,-0.14,-0.52,1.11,19.9,1.6,-2.0,4000,2112,,,,,,,,,,,,,,,,,
12286,1469903778617,,,,,,,-0.11,-0.53,1.03,19.7,1.8,-1.8,4040,2124,,,,,,,,,,,,,,,,,
12306,1469903778637,,,,,,,-0.08,-0.54,1.04,19.7,1.4,-1.9,4080,2112,,,,,,,,,,,,,,,,,
12326,1469903778657,,,,,,,-0.08,-0.57,1.1,19.6,1.5,-2.0,4020,2130,,,,,,,,,,,,,,,,,
12346,1469903778677,,,,54,,,-0.05,-0.56,1.05,19.4,1.4,-1.9,3960,2118,1.893,2,39.544079,-122.332458,36.73,0.105,319.1,9,2,0.1,0,0.0,-1,0.0,,0.0,0
12366,1469903778697,,,,,,,-0.08,-0.57,1.08,19.3,1.6,-1.8,4040,2135,,,,,,,,,,,,,,,,,
12386,1469903778717,,,,,,,-0.11,-0.55,1.13,19.1,1.7,-1.9,3940,2130,,,,,,,,,,,,,,,,,
12406,1469903778737,,,,,,,-0.11,-0.58,1.07,19.0,2.0,-1.7,4060,2124,,,,,,,,,,,,,,,,,
12426,1469903778757,,,,,,,-0.12,-0.57,1.09,19.0,2.0,-1.9,4060,2135,,,,,,,,,,,,,,,,,
12446,1469903778777,0,284.5,210.5,60,212.4,,-0.12,-0.59,1.14,19.1,1.9,-1.7,3980,2130,1.893,2,39.544083,-122.332428,35.4,0.106,318.9,9,2,0.1,0,0.0,-1,0.0,0.0,0.0,0
12466,1469903778801,,,,,,,-0.12,-0.58,1.1,19.0,2.0,-1.5,4080,2147,,,,,,,,,,,,,,,,,
12486,1469903778821,,,,,,,-0.11,-0.54,1.08,18.8,2.3,-1.3,3900,2135,,,,,,,,,,,,,,,,,
12506,1469903778841,,,,,,,-0.09,-0.56,1.14,18.7,3.1,-0.7,4060,2141,,,,,,,,,,,,,,,,,
12526,1469903778861,,,,,,,-0.06,-0.59,1.11,18.7,3.7,-0.3,4080,2130,,,,,,,,,,,,,,,,,
12546,1469903778881,,,,49,,,-0.03,-0.58,1.08,18.5,3.3,-0.3,4020,2135,1.915,2,39.544083,-122.33242,36.6,0.107,318.8,9,2,0.1,0,0.0,-1,0.0,,0.0,0
12566,1469903778896,,,,,,,-0.01,-0.62,1.09,18.3,2.9,-0.1,4020,2141,,,,,,,,,,,,,,,,,
12586,1469903778916,,,,,,,0.03,-0.63,1.13,18.2,3.1,0.1,4060,2135,,,,,,,,,,,,,,,,,
12606,1469903778936,,,,,,,0.06,-0.64,1.08,18.0,2.4,-0.0,3980,2141,,,,,,,,,,,,,,,,,
12626,1469903778956,,,,,,,0.07,-0.64,1.03,18.0,1.8,0.4,3980,2135,,,,,,,,,,,,,,,,,
12646,1469903778976,0,284.9,210.2,53,212.3,,0.08,-0.7,1.08,18.1,1.5,1.0,4040,2135,1.887,2,39.544086,-122.33239,36.63,0.109,318.5,9,2,0.1,0,0.0,-1,0.0,0.0,0.0,0
12666,1469903779001,,,,,,,0.09,-0.66,1.07,18.2,0.8,1.0,4020,2130,,,,,,,,,,,,,,,,,
12686,1469903779021,,,,,,,0.1,-0.65,1.01,18.0,-0.3,1.5,4080,2124,,,,,,,,,,,,,,,,,
12706,1469903779041,,,,,,,0.1,-0.69,0.99,18.2,-0.3,1.6,4080,2124,,,,,,,,,,,,,,,,,
12726,1469903779061,,,,,,,0.08,-0.69,1.03,18.5,-0.5,1.3,3960,2130,,,,,,,,,,,,,,,,,
12746,1469903779081,,,,54,,,0.07,-0.64,1.01,18.4,-0.5,1.0,4060,2141,1.92,2,39.544086,-122.332382,36.79,0.109,318.2,9,2,0.1,0,0.0,-1,0.0,,0.0,0
12766,1469903779101,,,,,,,0.07,-0.62,0.93,18.4,0.1,0.8,4040,2135,,,,,,,,,,,,,,,,,
12786,1469903779121,,,,,,,0.03,-0.62,0.97,18.3,0.8,0.6,4060,2135,,,,,,,,,,,,,,,,,
12806,1469903779141,,,,,,,0.0,-0.58,1.01,18.2,1.9,0.4,4060,2141,,,,,,,,,,,,,,,,,
12826,1469903779161,,,,,,,-0.01,-0.56,0.99,18.3,2.2,0.1,4000,2141,,,,,,,,,,,,,,,,,
12846,1469903779181,0,285.2,210.5,72,212.4,,-0.03,-0.57,0.98,18.4,2.2,0.0,4060,2153,1.874,2,39.54409,-122.332352,37.0,0.111,318.0,9,2,0.1,0,0.0,-1,0.0,0.0,0.0,0
12866,1469903779301,,,,,,,-0.02,-0.56,1.03,18.4,2.5,0.2,4000,2153,,,,,,,,,,,,,,,,,
12886,1469903779321,,,,,,,-0.04,-0.64,1.1,18.5,3.2,0.0,4020,2166,,,,,,,,,,,,,,,,,
12906,1469903779341,,,,,,,-0.03,-0.63,1.09,18.1,3.1,-0.0,4020,2160,,,,,,,,,,,,,,,,,
12926,1469903779361,,,,,,,-0.01,-0.7,1.08,18.0,3.5,0.0,3940,2160,,,,,,,,,,,,,,,,,
12946,1469903779381,,,,56,,,-0.0,-0.74,1.05,18.3,2.1,-0.2,3980,2153,1.874,2,39.54409,-122.332314,37.13,0.113,317.7,9,2,0.1,0,0.0,-1,0.0,,0.0,0
12966,1469903779401,,,,,,,0.0,-0.71,1.05,18.4,0.9,-0.1,4060,2147,,,,,,,,,,,,,,,,,
12986,1469903779421,,,,,,,-0.02,-0.77,0.98,18.5,-0.0,0.1,4040,2153,,,,,,,,,,,,,,,,,
13006,1469903779441,,,,,,,-0.01,-0.7,0.93,18.7,-1.3,-0.1,4100,2147,,,,,,,,,,,,,,,,,
13026,1469903779461,,,,,,,-0.04,-0.69,0.97,18.7,-1.9,-0.0,4040,2153,,,,,,,,,,,,,,,,,
13046,1469903779481,0,284.2,210.4,55,212.4,13.85,-0.06,-0.74,0.95,18.9,-1.9,-0.0,4220,2160,1.893,2,39.54409,-122.332314,37.13,0.113,317.7,9,2,0.1,0,0.0,-1,0.0,0.0,0.0,0
13066,1469903779400,,,,,,,-0.06,-0.7,0.93,19.2,-0.7,-0.0,4240,2172,,,,,,,,,,,,,,,,,
13086,1469903779420,,,,,,,-0.06,-0.65,0.89,19.3,0.0,0.1,4060,2160,,,,,,,,,,,,,,,,,
13106,1469903779440,,,,,,,-0.06,-0.66,0.92,19.4,0.3,0.1,4220,2184,,,,,,,,,,,,,,,,,
13126,1469903779460,,,,,,,-0.08,-0.67,0.98,19.4,0.2,-0.0,4220,2190,,,,,,,,,,,,,,,,,
13146,1469903779480,,,,55,,,-0.08,-0.66,0.98,19.4,0.6,-0.1,4120,2190,1.874,2,39.54409,-122.332306,37.42,0.113,317.5,9,2,0.1,0,0.0,-1,0.0,,0.0,0
13166,1469903779496,,,,,,,-0.05,-0.62,0.94,19.2,0.4,-0.4,4280,2190,,,,,,,,,,,,,,,,,
13186,1469903779516,,,,,,,-0.04,-0.67,0.93,19.0,-0.1,-0.2,4100,2172,,,,,,,,,,,,,,,,,
13206,1469903779536,,,,,,,-0.02,-0.72,0.91,19.2,0.6,0.0,4100,2184,,,,,,,,,,,,,,,,,
13226,1469903779556,,,,,,,-0.04,-0.67,0.92,19.3,1.1,-0.2,4220,2190,,,,,,,,,,,,,,,,,
13246,1469903779576,0,284.4,210.2,61,212.9,,-0.03,-0.6,0.98,18.9,1.6,-0.1,4060,2209,1.919,2,39.544086,-122.332275,37.43,0.115,317.4,9,2,0.1,0,0.0,-1,0.0,0.0,0.0,0
13266,1469903779599,,,,,,,-0.04,-0.6,1.01,18.6,1.9,-0.5,4020,2215,,,,,,,,,,,,,,,,,
13286,1469903779619,,,,,,,-0.04,-0.63,1.0,18.4,1.1,-0.3,4220,2223,,,,,,,,,,,,,,,,,
13306,1469903779639,,,,,,,-0.06,-0.68,0.9,18.4,1.4,-0.3,4060,2215,,,,,,,,,,,,,,,,,
13326,1469903779659,,,,,,,-0.08,-0.67,0.91,18.6,0.6,-0.5,4300,2229,,,,,,,,,,,,,,,,,
13346,1469903779679,,,,56,,,-0.08,-0.66,0.92,18.7,0.3,-0.3,4120,2209,1.894,2,39.544083,-122.33226,37.77,0.116,317.2,9,2,2.5,0,0.0,-1,0.0,,0.0,0
13366,1469903779696,,,,,,,-0.05,-0.6,0.94,18.6,0.2,-0.4,4380,2223,,,,,,,,,,,,,,,,,
13386,1469903779716,,,,,,,-0.04,-0.64,0.98,18.3,0.6,-0.3,4320,2229,,,,,,,,,,,,,,,,,
13406,1469903779736,,,,,,,-0.04,-0.67,1.05,18.0,0.9,-0.3,4120,2215,,,,,,,,,,,,,,,,,
13426,1469903779756,,,,,,,-0.07,-0.63,1.05,18.2,2.2,-0.6,4180,2209,,,,,,,,,,,,,,,,,
13446,1469903779776,0,284.5,211.0,57,213.2,,-0.07,-0.54,1.11,17.5,3.0,-0.5,4140,2235,1.947,2,39.544083,-122.332237,37.48,0.117,317.1,9,2,2.5,0,0.0,-1,0.0,0.0,0.0,0
13466,1469903779801,,,,,,,-0.07,-0.5,1.12,17.0,3.4,-0.4,4100,2235,,,,,,,,,,,,,,,,,
13486,1469903779821,,,,,,,-0.09,-0.57,1.08,16.8,2.2,-0.1,4180,2229,,,,,,,,,,,,,,,,,
13506,1469903779841,,,,,,,-0.12,-0.61,0.99,17.0,1.6,-0.1,4020,2247,,,,,,,,,,,,,,,,,
13526,1469903779861,,,,,,,-0.16,-0.51,0.98,16.9,0.9,-0.3,4300,2241,,,,,,,,,,,,,,,,,
13546,1469903779881,,,,43,,,-0.16,-0.55,0.96,16.8,0.6,0.2,4180,2247,1.851,2,39.544079,-122.332222,37.85,0.118,316.7,9,2,2.0,0,0.0,-1,0.0,,0.0,0
13566,1469903779895,,,,,,,-0.14,-0.54,0.91,16.8,-0.6,0.2,4400,2241,,,,,,,,,,,,,,,,,
13586,1469903779915,,,,,,,-0.16,-0.54,0.88,16.5,-1.1,0.5,4340,2255,,,,,,,,,,,,,,,,,
13606,1469903779935,,,,,,,-0.18,-0.59,0.87,16.8,-0.3,0.5,4220,2261,,,,,,,,,,,,,,,,,
13626,1469903779955,,,,,,,-0.16,-0.58,0.89,16.9,0.1,0.5,4240,2281,,,,,,,,,,,,,,,,,
13646,1469903779975,0,283.2,209.5,60,212.0,,-0.15,-0.61,0.85,16.7,-0.3,0.7,4100,2275,1.969,2,39.544075,-122.332199,38.02,0.119,316.4,9,2,2.0,0,0.0,-1,0.0,0.0,0.0,0
13666,1469903780095,,,,,,,-0.17,-0.56,0.81,16.6,-0.8,0.5,4480,2289,,,,,,,,,,,,,,,,,
13686,1469903780115,,,,,,,-0.2,-0.49,0.83,15.9,-0.5,0.7,4320,2309,,,,,,,,,,,,,,,,,
13706,1469903780135,,,,,,,-0.18,-0.53,0.81,15.7,-0.7,0.5,4380,2267,,,,,,,,,,,,,,,,,
13726,1469903780155,,,,,,,-0.16,-0.56,0.78,16.0,-0.1,0.5,4300,2303,,,,,,,,,,,,,,,,,
13746,1469903780175,,,,48,,,-0.15,-0.51,0.84,16.0,1.0,0.1,4260,2303,1.925,2,39.544064,-122.332161,38.48,0.121,315.8,9,2,2.1,0,0.0,-1,0.0,,0.0,0
13766,1469903780195,,,,,,,-0.14,-0.55,0.8,15.6,-0.0,0.5,4360,2295,,,,,,,,,,,,,,,,,
13786,1469903780215,,,,,,,-0.16,-0.53,0.78,15.6,-0.9,0.3,4520,2316,,,,,,,,,,,,,,,,,
13806,1469903780235,,,,,,,-0.19,-0.46,0.83,15.2,-0.5,0.2,4560,2330,,,,,,,,,,,,,,,,,
13826,1469903780255,,,,,,,-0.17,-0.47,0.86,14.8,-0.2,0.2,4340,2316,,,,,,,,,,,,,,,,,
13846,1469903780275,0,283.7,210.1,56,212.4,,-0.18,-0.46,0.92,14.3,0.4,0.1,4380,2316,1.852,2,39.544064,-122.332161,38.48,0.121,315.8,9,2,2.1,0,0.0,-1,0.0,0.0,0.0,0
13866,1469903780200,,,,,,,-0.19,-0.47,0.96,14.0,0.6,0.4,4220,2323,,,,,,,,,,,,,,,,,
13886,1469903780220,,,,,,,-0.18,-0.48,0.91,14.1,0.2,0.4,4500,2323,,,,,,,,,,,,,,,,,
13906,1469903780240,,,,,,,-0.21,-0.45,0.89,13.9,-0.0,0.8,4440,2330,,,,,,,,,,,,,,,,,
13926,1469903780260,,,,,,,-0.17,-0.5,0.89,14.0,0.6,0.9,4360,2336,,,,,,,,,,,,,,,,,
13946,1469903780280,,,,51,,,-0.2,-0.54,0.92,14.0,0.8,0.9,4360,2352,1.86,2,39.54406,-122.332146,38.71,0.122,315.4,9,2,2.1,0,0.0,-1,0.0,,0.0,0
13966,1469903780300,,,,,,,-0.16,-0.55,0.98,13.8,0.6,0.7,4260,2358,,,,,,,,,,,,,,,,,
13986,1469903780320,,,,,,,-0.19,-0.52,0.98,13.3,-0.4,0.5,4380,2344,,,,,,,,,,,,,,,,,
14006,1469903780340,,,,,,,-0.16,-0.49,0.98,12.9,-0.2,0.1,4620,2344,,,,,,,,,,,,,,,,,
14026,1469903780360,,,,,,,-0.12,-0.44,0.98,12.2,-1.1,0.3,4400,2366,,,,,,,,,,,,,,,,,
14046,1469903780380,0,284.9,210.3,61,212.7,13.89,-0.13,-0.4,1.02,11.6,-0.5,0.2,4380,2352,1.888,2,39.544056,-122.332123,39.29,0.123,315.0,9,2,2.1,0,0.0,-1,0.0,0.0,0.0,0
14066,1469903780399,,,,,,,-0.14,-0.38,0.99,11.1,-0.8,0.5,4400,2352,,,,,,,,,,,,,,,,,
14086,1469903780419,,,,,,,-0.12,-0.33,0.98,10.7,-1.5,0.4,4680,2373,,,,,,,,,,,,,,,,,
14106,1469903780439,,,,,,,-0.1,-0.33,0.97,10.4,-1.9,0.8,4500,2387,,,,,,,,,,,,,,,,,
14126,1469903780459,,,,,,,-0.13,-0.32,1.02,9.8,-1.6,0.6,4320,2410,,,,,,,,,,,,,,,,,
14146,1469903780479,,,,53,,,-0.14,-0.26,0.94,9.1,-2.5,0.7,4500,2395,1.834,2,39.544048,-122.332108,39.64,0.124,314.6,9,2,2.1,0,0.0,-1,0.0,,0.0,0
14166,1469903780496,,,,,,,-0.13,-0.2,0.99,8.6,-3.4,0.3,4680,2395,,,,,,,,,,,,,,,,,
14186,1469903780516,,,,,,,-0.15,-0.18,0.95,8.1,-3.2,0.5,4400,2380,,,,,,,,,,,,,,,,,
14206,1469903780536,,,,,,,-0.14,-0.12,1.01,7.6,-3.3,0.3,4380,2395,,,,,,,,,,,,,,,,,
14226,1469903780556,,,,,,,-0.15,-0.09,1.01,7.3,-2.8,0.4,4600,2410,,,,,,,,,,,,,,,,,
14246,1469903780576,0,284.0,210.2,58,213.1,,-0.11,-0.08,1.01,7.2,-3.1,0.1,4700,2403,1.904,2,39.544041,-122.332085,40.27,0.125,314.3,9,2,2.1,0,0.0,-1,0.0,0.0,0.0,0
14266,1469903780596,,,,,,,-0.15,-0.06,1.04,6.7,-2.1,0.4,4560,2426,,,,,,,,,,,,,,,,,
14286,1469903780616,,,,,,,-0.11,-0.06,1.08,6.4,-2.9,-0.1,4720,2433,,,,,,,,,,,,,,,,,
14306,1469903780636,,,,,,,-0.14,-0.04,0.99,6.2,-2.5,-0.2,4620,2456,,,,,,,,,,,,,,,,,
14326,1469903780656,,,,,,,-0.11,-0.03,1.06,6.1,-2.9,-0.3,4580,2433,,,,,,,,,,,,,,,,,
14346,1469903780676,,,,54,,,-0.13,-0.03,1.01,5.8,-2.8,-0.4,4500,2426,1.805,2,39.544033,-122.332069,40.51,0.126,314.0,9,2,1.9,0,0.0,-1,0.0,,0.0,0
14366,1469903780696,,,,,,,-0.15,-0.02,1.02,6.1,-2.9,-0.5,4840,2456,,,,,,,,,,,,,,,,,
14386,1469903780716,,,,,,,-0.17,-0.11,1.04,6.5,-3.3,-0.4,4440,2441,,,,,,,,,,,,,,,,,
14406,1469903780736,,,,,,,-0.16,-0.14,1.06,7.0,-2.4,-0.4,4640,2441,,,,,,,,,,,,,,,,,
14426,1469903780756,,,,,,,-0.17,-0.19,1.07,7.5,-2.7,-0.2,4640,2472,,,,,,,,,,,,,,,,,
14446,1469903780776,0,284.2,210.2,69,213.1,,-0.14,-0.23,1.02,7.8,-2.4,-0.0,4600,2449,1.854,2,39.544025,-122.332046,41.24,0.128,313.7,9,2,1.9,0,0.0,-1,0.0,0.0,0.0,0
14466,1469903780898,,,,,,,-0.17,-0.26,1.04,7.9,-1.9,-0.3,4480,2472,,,,,,,,,,,,,,,,,
14486,1469903780918,,,,,,,-0.2,-0.27,1.03,7.8,-1.8,-0.2,4660,2472,,,,,,,,,,,,,,,,,
14506,1469903780938,,,,,,,-0.19,-0.24,0.98,7.9,-1.9,-0.6,4700,2480,,,,,,,,,,,,,,,,,
14526,1469903780958,,,,,,,-0.2,-0.23,1.02,7.3,-0.8,-0.1,4540,2489,,,,,,,,,,,,,,,,,
14546,1469903780978,,,,55,,,-0.19,-0.21,1.02,7.1,-1.6,0.0,4800,2512,1.865,2,39.544006,-122.332008,42.22,0.13,313.0,9,2,1.9,0,0.0,-1,0.0,,0.0,0
14566,1469903780998,,,,,,,-0.19,-0.25,1.01,7.1,-0.3,0.2,4540,2496,,,,,,,,,,,,,,,,,
14586,1469903781018,,,,,,,-0.21,-0.24,1.01,6.7,-0.4,0.4,4640,2504,,,,,,,,,,,,,,,,,
14606,1469903781038,,,,,,,-0.26,-0.22,0.97,6.7,-0.2,0.1,4840,2512,,,,,,,,,,,,,,,,,
14626,1469903781058,,,,,,,-0.26,-0.28,0.99,6.6,0.4,0.6,4660,2512,,,,,,,,,,,,,,,,,
14646,1469903781078,0,285.4,210.5,61,212.7,,-0.26,-0.27,0.99,6.6,-0.6,0.2,4800,2504,1.952,2,39.544006,-122.332008,42.22,0.13,313.0,9,2,1.9,0,0.0,-1,0.0,0.0,0.0,0
14666,1469903780999,,,,,,,-0.25,-0.28,1.03,6.3,1.1,0.3,4720,2504,,,,,,,,,,,,,,,,,
14686,1469903781019,,,,,,,-0.23,-0.25,1.04,6.1,0.1,0.4,4800,2529,,,,,,,,,,,,,,,,,
14706,1469903781039,,,,,,,-0.26,-0.21,1.02,5.9,0.6,0.5,4900,2538,,,,,,,,,,,,,,,,,
14726,1469903781059,,,,,,,-0.26,-0.23,1.01,5.7,0.9,0.9,4680,2546,,,,,,,,,,,,,,,,,
14746,1469903781079,,,,52,,,-0.27,-0.2,0.95,5.7,0.1,0.5,5020,2546,1.967,2,39.543999,-122.331993,42.53,0.131,312.7,9,2,1.9,0,0.0,-1,0.0,,0.0,0
14766,1469903781099,,,,,,,-0.24,-0.22,0.94,5.4,1.3,0.6,4840,2538,,,,,,,,,,,,,,,,,
14786,1469903781119,,,,,,,-0.2,-0.18,0.94,5.1,0.4,0.7,4840,2563,,,,,,,,,,,,,,,,,
14806,1469903781139,,,,,,,-0.19,-0.18,0.97,4.9,0.6,0.9,4920,2589,,,,,,,,,,,,,,,,,
14826,1469903781159,,,,,,,-0.18,-0.18,1.04,4.8,0.0,1.4,4600,2555,,,,,,,,,,,,,,,,,
14846,1469903781179,0,283.8,209.5,59,211.8,,-0.21,-0.14,1.05,4.8,-0.4,0.9,5020,2598,1.966,2,39.543987,-122.33197,43.22,0.133,312.3,9,2,1.9,0,0.0,-1,0.0,0.0,0.0,0
14866,1469903781199,,,,,,,-0.2,-0.19,1.1,4.4,1.5,1.2,4660,2589,,,,,,,,,,,,,,,,,
14886,1469903781219,,,,,,,-0.19,-0.2,1.05,4.1,1.4,1.4,4820,2580,,,,,,,,,,,,,,,,,
14906,1469903781239,,,,,,,-0.2,-0.18,0.98,4.1,1.6,1.1,5000,2589,,,,,,,,,,,,,,,,,
14926,1469903781259,,,,,,,-0.18,-0.15,1.02,3.6,2.3,1.5,4740,2580,,,,,,,,,,,,,,,,,
14946,1469903781279,,,,59,,,-0.16,-0.07,1.03,3.5,0.5,0.8,5000,2589,1.907,2,39.54398,-122.331955,43.65,0.134,312.0,9,2,1.9,0,0.0,-1,0.0,,0.0,0
14966,1469903781299,,,,,,,-0.17,-0.14,0.98,3.3,1.2,0.8,4680,2598,,,,,,,,,,,,,,,,,
14986,1469903781319,,,,,,,-0.2,-0.18,0.92,3.0,-0.5,1.1,4940,2633,,,,,,,,,,,,,,,,,
15006,1469903781339,,,,,,,-0.24,-0.11,0.87,3.0,-1.3,0.3,4960,2633,,,,,,,,,,,,,,,,,
15026,1469903781359,,,,,,,-0.23,-0.16,0.79,2.7,-0.7,0.6,5140,2624,,,,,,,,,,,,,,,,,
15046,1469903781379,0,284.0,209.8,75,212.0,13.91,-0.24,-0.16,0.78,2.4,-2.1,1.1,4780,2606,1.888,2,39.543968,-122.331947,44.06,0.134,311.7,9,2,1.9,0,0.0,-1,0.0,0.0,0.0,0
15066,1469903781397,,,,,,,-0.24,-0.14,0.74,2.5,-2.2,0.7,5160,2624,,,,,,,,,,,,,,,,,
15086,1469903781417,,,,,,,-0.19,-0.16,0.82,2.3,-0.9,0.8,4760,2652,,,,,,,,,,,,,,,,,
15106,1469903781437,,,,,,,-0.19,-0.16,0.79,2.1,-3.5,1.0,4920,2633,,,,,,,,,,,,,,,,,
15126,1469903781457,,,,,,,-0.23,-0.13,0.81,2.0,-2.7,0.6,4940,2624,,,,,,,,,,,,,,,,,
15146,1469903781477,,,,68,,,-0.22,-0.13,0.83,1.6,-1.2,1.1,5020,2652,1.948,2,39.543961,-122.331917,44.48,0.136,311.4,9,2,1.9,0,0.0,-1,0.0,,0.0,0
15166,1469903781496,,,,,,,-0.2,-0.14,0.88,1.5,-2.9,1.2,4920,2633,,,,,,,,,,,,,,,,,
15186,1469903781516,,,,,,,-0.21,-0.13,0.83,1.8,-2.4,0.8,5080,2643,,,,,,,,,,,,,,,,,
15206,1469903781536,,,,,,,-0.22,-0.11,0.91,1.4,-0.2,1.3,4880,2643,,,,,,,,,,,,,,,,,
15226,1469903781556,,,,,,,-0.24,-0.1,0.9,0.8,-0.8,1.5,5100,2670,,,,,,,,,,,,,,,,,
15246,1469903781576,0,284.0,210.2,55,213.3,,-0.25,-0.1,0.89,0.8,0.3,1.1,5140,2661,1.916,2,39.543945,-122.331909,44.94,0.137,311.2,9,2,1.9,0,0.0,-1,0.0,0.0,0.0,0
15266,1469903781695,,,,,,,-0.23,-0.07,0.88,0.5,0.6,1.3,5160,2689,,,,,,,,,,,,,,,,,
15286,1469903781715,,,,,,,-0.22,-0.09,0.85,0.3,-1.5,1.2,4920,2652,,,,,,,,,,,,,,,,,
15306,1469903781735,,,,,,,-0.25,-0.07,0.88,0.5,-1.1,0.7,5260,2680,,,,,,,,,,,,,,,,,
15326,1469903781755,,,,,,,-0.23,-0.11,0.94,0.2,0.3,0.9,4940,2689,,,,,,,,,,,,,,,,,
15346,1469903781775,,,,59,,,-0.24,-0.14,0.95,-0.1,-1.7,1.1,5040,2707,1.854,2,39.543922,-122.331863,45.85,0.14,310.7,9,2,1.9,0,0.0,-1,0.0,,0.0,0
15366,1469903781795,,,,,,,-0.26,-0.1,0.99,0.3,-1.4,0.5,5120,2680,,,,,,,,,,,,,,,,,
15386,1469903781815,,,,,,,-0.23,-0.14,1.05,-0.0,-0.5,0.6,5240,2680,,,,,,,,,,,,,,,,,
15406,1469903781835,,,,,,,-0.25,-0.12,1.08,0.0,-1.4,1.1,4960,2707,,,,,,,,,,,,,,,,,
15426,1469903781855,,,,,,,-0.25,-0.03,1.13,0.0,-1.0,0.6,5200,2680,,,,,,,,,,,,,,,,,
15446,1469903781875,0,284.7,210.0,61,212.8,,-0.2,-0.11,1.12,0.0,1.6,0.5,5220,2680,1.843,2,39.543922,-122.331863,45.85,0.14,310.7,9,2,1.9,0,0.0,-1,0.0,0.0,0.0,0
15466,1469903781799,,,,,,,-0.19,-0.05,1.11,-0.1,0.5,1.1,4980,2689,,,,,,,,,,,,,,,,,
15486,1469903781819,,,,,,,-0.23,-0.05,1.07,-0.5,-0.3,1.0,5240,2670,,,,,,,,,,,,,,,,,
15506,1469903781839,,,,,,,-0.24,-0.0,0.97,-0.3,1.0,0.4,5100,2698,,,,,,,,,,,,,,,,,
15526,1469903781859,,,,,,,-0.17,0.0,1.0,-0.7,2.3,0.4,5260,2716,,,,,,,,,,,,,,,,,
15546,1469903781879,,,,52,,,-0.13,-0.01,0.98,-0.9,-0.7,0.4,4840,2716,1.922,2,39.543915,-122.33184,46.22,0.142,310.6,9,2,1.9,0,0.0,-1,0.0,,0.0,0
15566,1469903781893,,,,,,,-0.15,0.06,1.01,-0.5,-0.3,-0.1,5340,2716,,,,,,,,,,,,,,,,,
15586,1469903781913,,,,,,,-0.13,-0.04,1.03,-0.8,1.5,0.5,4960,2698,,,,,,,,,,,,,,,,,
15606,1469903781933,,,,,,,-0.11,-0.03,0.96,-0.8,0.5,1.1,5060,2716,,,,,,,,,,,,,,,,,
15626,1469903781953,,,,,,,-0.1,0.02,1.04,-1.0,0.6,0.6,5200,2698,,,,,,,,,,,,,,,,,
15646,1469903781973,0,283.8,209.8,56,212.5,,-0.05,-0.03,0.95,-0.8,1.7,0.3,5100,2736,1.883,2,39.5439,-122.331818,46.65,0.143,310.4,9,2,1.9,0,0.0,-1,0.0,0.0,0.0,0
15666,1469903782000,,,,,,,-0.04,-0.02,0.96,-1.0,1.3,0.4,5240,2727,,,,,,,,,,,,,,,,,
15686,1469903782020,,,,,,,-0.06,-0.03,0.9,-1.2,-0.8,0.3,5240,2736,,,,,,,,,,,,,,,,,
15706,1469903782040,,,,,,,-0.1,0.02,0.9,-0.9,0.9,0.1,5360,2716,,,,,,,,,,,,,,,,,
15726,1469903782060,,,,,,,-0.02,0.0,0.94,-1.4,2.8,-0.1,5020,2736,,,,,,,,,,,,,,,,,
15746,1469903782080,,,,69,,,0.0,0.04,0.92,-1.3,1.1,0.1,4980,2736,1.848,2,39.543888,-122.331802,46.93,0.144,310.2,9,2,1.9,0,0.0,-1,0.0,,0.0,0
15766,1469903782100,,,,,,,-0.02,0.12,0.91,-1.7,-1.0,-0.0,5260,2716,,,,,,,,,,,,,,,,,
15786,1469903782120,,,,,,,-0.04,0.11,0.86,-1.4,-0.4,-0.6,5080,2698,,,,,,,,,,,,,,,,,
15806,1469903782140,,,,,,,-0.02,0.08,0.9,-1.8,0.5,-0.4,5140,2727,,,,,,,,,,,,,,,,,
15826,1469903782160,,,,,,,-0.02,0.07,0.89,-1.9,-0.7,-0.2,5280,2756,,,,,,,,,,,,,,,,,
15846,1469903782180,0,284.0,210.1,48,213.0,,-0.03,0.12,0.94,-1.5,-0.7,-0.7,5240,2727,1.857,2,39.54388,-122.331779,47.22,0.146,310.0,9,2,1.9,0,0.0,-1,0.0,0.0,0.0,0
15866,1469903782200,,,,,,,0.02,0.03,0.94,-1.5,0.2,-0.7,5180,2716,,,,,,,,,,,,,,,,,
15886,1469903782220,,,,,,,0.03,0.06,0.92,-1.3,-1.4,-0.3,5040,2698,,,,,,,,,,,,,,,,,
15906,1469903782240,,,,,,,-0.0,0.1,0.91,-1.7,-2.8,-0.4,5140,2707,,,,,,,,,,,,,,,,,
15926,1469903782260,,,,,,,-0.0,0.07,0.85,-1.5,-1.1,-1.0,5260,2716,,,,,,,,,,,,,,,,,
15946,1469903782280,,,,62,,,0.06,0.1,0.83,-1.6,-0.4,-0.9,5080,2727,1.914,2,39.543865,-122.331764,47.53,0.147,309.7,9,2,1.9,0,0.0,-1,0.0,,0.0,0
15966,1469903782300,,,,,,,0.1,0.09,0.87,-1.8,-4.1,-0.7,5140,2727,,,,,,,,,,,,,,,,,
15986,1469903782320,,,,,,,0.05,0.09,0.88,-1.4,-4.0,-1.2,5080,2727,,,,,,,,,,,,,,,,,
16006,1469903782340,,,,,,,0.06,0.07,0.94,-1.5,-1.8,-1.1,5160,2716,,,,,,,,,,,,,,,,,
16026,1469903782360,,,,,,,0.06,0.06,0.96,-1.5,-2.9,-0.8,5000,2707,,,,,,,,,,,,,,,,,
16046,1469903782380,0,284.2,210.2,66,212.4,14.03,0.02,0.09,1.0,-1.5,-4.4,-1.2,5120,2707,1.925,2,39.543854,-122.331741,47.81,0.148,309.5,9,2,1.9,0,0.0,-1,0.0,0.0,0.0,0
16066,1469903782497,,,,,,,0.01,0.08,1.02,-1.3,-1.9,-1.7,5080,2716,,,,,,,,,,,,,,,,,
16086,1469903782517,,,,,,,0.07,0.04,0.99,-1.0,-1.1,-1.4,5120,2736,,,,,,,,,,,,,,,,,
16106,1469903782537,,,,,,,0.07,0.03,0.98,-1.1,-3.3,-1.2,5100,2707,,,,,,,,,,,,,,,,,
16126,1469903782557,,,,,,,0.01,0.12,0.97,-0.9,-2.3,-1.6,5140,2716,,,,,,,,,,,,,,,,,
16146,1469903782577,,,,54,,,0.05,0.09,1.0,-1.0,-0.4,-1.5,5140,2716,1.899,2,39.543827,-122.331703,48.0,0.151,308.9,9,2,1.9,0,0.0,-1,0.0,,0.0,0
16166,1469903782597,,,,,,,0.1,0.07,1.04,-0.9,-2.0,-1.3,5000,2698,,,,,,,,,,,,,,,,,
16186,1469903782617,,,,,,,0.06,0.11,1.02,-0.9,-4.1,-1.3,5200,2727,,,,,,,,,,,,,,,,,
16206,1469903782637,,,,,,,0.01,0.07,1.03,-0.7,-2.2,-1.6,5280,2727,,,,,,,,,,,,,,,,,
16226,1469903782657,,,,,,,0.05,0.05,1.03,-0.6,-1.3,-1.2,5120,2727,,,,,,,,,,,,,,,,,
16246,1469903782677,0,283.8,210.2,62,212.2,,0.03,0.06,1.01,-0.9,-3.9,-1.0,5140,2689,1.914,2,39.543827,-122.331703,48.0,0.151,308.9,9,2,1.9,0,0.0,-1,0.0,0.0,0.0,0
16266,1469903782597,,,,,,,-0.02,0.11,0.97,-0.5,-3.5,-1.5,5100,2698,,,,,,,,,,,,,,,,,
16286,1469903782617,,,,,,,0.03,0.03,0.96,-0.6,-0.8,-1.5,5040,2707,,,,,,,,,,,,,,,,,
16306,1469903782637,,,,,,,0.06,0.07,0.94,-0.6,-2.2,-1.5,5160,2707,,,,,,,,,,,,,,,,,
16326,1469903782657,,,,,,,-0.02,0.03,0.97,-0.5,-2.8,-1.5,5140,2707,,,,,,,,,,,,,,,,,
16346,1469903782677,,,,61,,,0.0,0.05,0.95,-0.2,-0.2,-1.9,4960,2670,1.87,2,39.543816,-122.331688,47.96,0.152,308.6,9,2,1.9,0,0.0,-1,0.0,,0.0,0
16366,1469903782697,,,,,,,0.06,0.02,0.97,-0.6,-0.5,-1.4,5040,2652,,,,,,,,,,,,,,,,,
16386,1469903782717,,,,,,,0.04,-0.01,1.02,-0.4,-3.0,-1.3,5060,2680,,,,,,,,,,,,,,,,,
16406,1469903782737,,,,,,,-0.0,0.03,0.96,-0.4,-1.0,-1.6,4980,2661,,,,,,,,,,,,,,,,,
16426,1469903782757,,,,,,,0.06,-0.03,0.98,-0.4,0.3,-1.3,4900,2652,,,,,,,,,,,,,,,,,
16446,1469903782777,0,283.5,210.1,62,212.4,,0.05,-0.05,0.95,-0.5,-2.2,-1.0,5060,2670,1.925,2,39.543804,-122.331665,47.84,0.154,308.4,9,2,1.9,0,0.0,-1,0.0,0.0,0.0,0
16466,1469903782800,,,,,,,0.03,-0.04,0.94,0.1,-0.8,-1.2,5140,2716,,,,,,,,,,,,,,,,,
16486,1469903782820,,,,,,,0.09,0.03,1.03,-0.5,1.1,-1.0,5100,2707,,,,,,,,,,,,,,,,,
16506,1469903782840,,,,,,,0.1,-0.1,1.02,-0.6,-1.4,-0.6,5060,2716,,,,,,,,,,,,,,,,,
16526,1469903782860,,,,,,,0.06,0.0,1.07,-0.1,-0.7,-0.6,5120,2727,,,,,,,,,,,,,,,,,
16546,1469903782880,,,,57,,,0.1,-0.07,1.1,-0.6,1.1,-0.5,5160,2736,1.85,2,39.543793,-122.33165,47.84,0.155,308.1,9,2,1.9,0,0.0,-1,0.0,,0.0,0
16566,1469903782893,,,,,,,0.13,-0.07,1.04,0.0,-1.2,-0.6,5040,2727,,,,,,,,,,,,,,,,,
16586,1469903782913,,,,,,,0.07,-0.07,1.07,0.0,-1.5,-0.7,5140,2707,,,,,,,,,,,,,,,,,
16606,1469903782933,,,,,,,0.06,-0.06,1.04,0.1,0.4,-1.4,5060,2727,,,,,,,,,,,,,,,,,
16626,1469903782953,,,,,,,0.09,-0.11,1.04,0.2,0.5,-1.1,5220,2689,,,,,,,,,,,,,,,,,
16646,1469903782973,0,284.2,209.8,76,212.1,,0.06,-0.14,1.02,0.5,-2.3,-1.1,5140,2670,1.871,2,39.543781,-122.331627,47.8,0.156,307.9,9,2,1.9,0,0.0,-1,0.0,0.0,0.0,0
16666,1469903783000,,,,,,,0.0,-0.07,0.96,0.8,-0.5,-1.7,4940,2670,,,,,,,,,,,,,,,,,
16686,1469903783020,,,,,,,0.07,-0.16,1.02,0.6,1.6,-1.2,5080,2689,,,,,,,,,,,,,,,,,
16706,1469903783040,,,,,,,0.08,-0.16,1.03,0.9,-0.7,-1.1,5140,2670,,,,,,,,,,,,,,,,,
16726,1469903783060,,,,,,,0.0,-0.16,1.1,1.3,0.2,-1.2,5080,2689,,,,,,,,,,,,,,,,,
16746,1469903783080,,,,55,,,0.03,-0.13,1.11,1.3,2.8,-0.9,5040,2670,1.888,2,39.543766,-122.331612,47.66,0.158,307.7,9,2,1.9,0,0.0,-1,0.0,,0.0,0
16766,1469903783100,,,,,,,0.08,-0.22,1.12,1.4,0.6,-0.3,5120,2680,,,,,,,,,,,,,,,,,
16786,1469903783120,,,,,,,0.01,-0.16,1.15,1.7,0.5,-0.6,5120,2643,,,,,,,,,,,,,,,,,
16806,1469903783140,,,,,,,0.01,-0.22,1.04,1.6,2.7,-0.6,4920,2670,,,,,,,,,,,,,,,,,
16826,1469903783160,,,,,,,0.04,-0.19,0.97,2.1,1.3,-0.5,5060,2652,,,,,,,,,,,,,,,,,
16846,1469903783180,0,283.2,209.5,59,212.4,,0.0,-0.16,0.93,1.8,0.8,-0.6,5060,2689,1.91,2,39.543755,-122.331589,47.43,0.159,307.3,9,2,1.9,0,0.0,-1,0.0,0.0,0.0,0
16866,1469903783299,,,,,,,0.03,-0.2,0.88,2.2,1.9,-1.0,5120,2670,,,,,,,,,,,,,,,,,
16886,1469903783319,,,,,,,0.05,-0.22,0.85,2.3,1.4,-0.6,5080,2661,,,,,,,,,,,,,,,,,
16906,1469903783339,,,,,,,0.04,-0.19,0.82,2.1,-0.5,-0.7,5140,2689,,,,,,,,,,,,,,,,,
16926,1469903783359,,,,,,,0.05,-0.19,0.74,2.6,0.9,-1.1,5100,2661,,,,,,,,,,,,,,,,,
16946,1469903783379,,,,61,,,0.09,-0.24,0.78,2.9,2.0,-1.0,5040,2652,1.861,2,39.543728,-122.331551,47.21,0.162,306.9,9,2,1.9,0,0.0,-1,0.0,,0.0,0
16966,1469903783399,,,,,,,0.07,-0.2,0.76,2.7,-0.8,-1.0,5040,2661,,,,,,,,,,,,,,,,,
16986,1469903783419,,,,,,,0.05,-0.23,0.74,3.2,0.3,-1.1,4980,2707,,,,,,,,,,,,,,,,,
17006,1469903783439,,,,,,,0.09,-0.22,0.75,3.2,1.8,-0.9,5120,2643,,,,,,,,,,,,,,,,,
17026,1469903783459,,,,,,,0.09,-0.22,0.75,3.1,-1.1,-0.9,5040,2652,,,,,,,,,,,,,,,,,
17046,1469903783479,0,283.3,210.1,59,212.2,13.88,0.05,-0.19,0.75,3.8,-0.5,-1.2,4980,2661,1.9,2,39.543728,-122.331551,47.21,0.162,306.9,9,2,1.9,0,0.0,-1,0.0,0.0,0.0,0
17066,1469903783398,,,,,,,0.11,-0.21,0.86,3.6,0.8,-1.0,4900,2689,,,,,,,,,,,,,,,,,
17086,1469903783418,,,,,,,0.11,-0.2,0.87,4.1,-1.6,-1.1,5120,2670,,,,,,,,,,,,,,,,,
17106,1469903783438,,,,,,,0.06,-0.16,0.95,4.2,-0.2,-1.4,4920,2661,,,,,,,,,,,,,,,,,
17126,1469903783458,,,,,,,0.12,-0.18,1.0,4.0,0.9,-1.5,5020,2661,,,,,,,,,,,,,,,,,
17146,1469903783478,,,,57,,,0.11,-0.28,0.98,4.5,-2.3,-1.1,5060,2643,1.944,2,39.543716,-122.331535,47.15,0.163,306.7,9,2,1.9,0,0.0,-1,0.0,,0.0,0
17166,1469903783497,,,,,,,0.03,-0.15,1.06,4.6,-1.3,-1.7,4960,2661,,,,,,,,,,,,,,,,,
17186,1469903783517,,,,,,,0.06,-0.24,1.08,4.1,0.8,-1.6,4940,2670,,,,,,,,,,,,,,,,,
17206,1469903783537,,,,,,,0.08,-0.21,1.05,4.7,-2.1,-1.5,5020,2661,,,,,,,,,,,,,,,,,
17226,1469903783557,,,,,,,0.01,-0.19,1.08,4.9,-0.9,-1.9,5100,2643,,,,,,,,,,,,,,,,,
17246,1469903783577,0,284.0,210.3,58,212.6,,0.08,-0.21,1.08,5.2,0.8,-2.1,5080,2680,1.949,2,39.543701,-122.331505,46.91,0.165,306.4,9,2,1.9,0,0.0,-1,0.0,0.0,0.0,0
17266,1469903783597,,,,,,,0.11,-0.25,1.07,5.7,-1.6,-1.9,5000,2680,,,,,,,,,,,,,,,,,
17286,1469903783617,,,,,,,0.06,-0.17,1.13,6.1,-0.2,-2.6,4960,2652,,,,,,,,,,,,,,,,,
17306,1469903783637,,,,,,,0.1,-0.29,1.12,6.2,1.7,-2.5,4900,2643,,,,,,,,,,,,,,,,,
17326,1469903783657,,,,,,,0.11,-0.26,1.05,7.0,-0.9,-2.4,4900,2652,,,,,,,,,,,,,,,,,
