"Interval"|"ms"|0|0|1,"Utc"|"ms"|0|0|1,"FuelLevel"|"F"|0|100|5,"OilTemp"|"F"|0.0|300.0|5,"Coolant"|"F"|0.0|300.0|5,"OilPress"|"PSI"|0|150|10,"EngineTemp"|"F"|0.0|300.0|5,"Battery"|"Volts"|0.0|20.0|1,"AccelX"|"G"|-3.0|3.0|50,"AccelY"|"G"|-3.0|3.0|50,"AccelZ"|"G"|-3.0|3.0|50,"Yaw"|"Deg/Sec"|-300.0|300.0|50,"Pitch"|"Deg/Sec"|-300.0|300.0|50,"Roll"|"Deg/Sec"|-300.0|300.0|50,"RPM"|""|0|10000|50,"Driveshaft"|"RPM"|0|5000|50,"GearRatio"|""|-5.0|5.0|10,"Gear"|""|-1|5|10,"Latitude"|"Degrees"|-180.0|180.0|10,"Longitude"|"Degrees"|-180.0|180.0|10,"Speed"|"MPH"|0.0|150.0|10,"Distance"|"Miles"|0.0|0.0|10,"Altitude"|"Feet"|0.0|4000.0|10,"GPSSats"|""|0|20|10,"GPSQual"|""|0|5|10,"GPSDOP"|""|0.0|20.0|10,"LapCount"|""|0|0|10,"LapTime"|"Min"|0.0|0.0|10,"Sector"|""|0|0|10,"SectorTime"|"Min"|0.0|0.0|10,"PredTime"|"Min"|0.0|0.0|5,"ElapsedTime"|"Min"|0.0|0.0|10,"CurrentLap"|""|0|0|10
5066,1469902161360,,,,,,,0.09,0.07,1.2,-4.6,3.8,1.0,3820,4090,,,,,,,,,,,,,,,,,
5086,1469902161380,,,,,,,0.13,0.13,1.12,-4.4,1.3,0.9,3760,4180,,,,,,,,,,,,,,,,,
5106,1469902161400,,,,,,,0.09,0.18,1.05,-4.5,0.7,1.0,3740,4090,,,,,,,,,,,,,,,,,
5126,1469902161420,,,,,,,0.06,0.14,1.03,-4.6,0.3,1.1,3720,4069,,,,,,,,,,,,,,,,,
5146,1469902161440,,,,47,,,0.1,0.13,1.03,-4.4,0.0,0.7,3680,4156,0.895,4,39.545074,-122.332481,73.16,0.002,292.0,9,2,2.0,0,0.0,-1,0.0,,0.0,0
5166,1469902161460,,,,,,,0.09,0.17,0.99,-4.4,0.2,0.6,3720,4135,,,,,,,,,,,,,,,,,
5186,1469902161480,,,,,,,0.09,0.15,0.98,-4.6,-0.1,0.8,3660,4112,,,,,,,,,,,,,,,,,
5206,1469902161500,,,,,,,0.18,0.19,1.0,-4.5,-0.7,0.8,3560,4090,,,,,,,,,,,,,,,,,
5226,1469902161520,,,,,,,0.14,0.14,1.0,-4.4,-0.3,0.9,3500,4047,,,,,,,,,,,,,,,,,
5246,1469902161540,0,278.8,207.4,56,209.6,,0.13,0.2,1.04,-4.7,-1.2,0.9,3560,4069,0.885,4,39.545074,-122.33252,72.76,0.004,292.3,9,2,2.0,0,0.0,-1,0.0,0.0,0.0,0
5266,1469902161560,,,,,,,0.15,0.16,1.0,-4.6,-0.1,0.9,3440,4112,,,,,,,,,,,,,,,,,
5286,1469902161580,,,,,,,0.09,0.15,0.99,-4.6,0.1,1.1,3420,4112,,,,,,,,,,,,,,,,,
5306,1469902161600,,,,,,,0.13,0.21,1.0,-5.0,-0.7,1.3,3380,4090,,,,,,,,,,,,,,,,,
5326,1469902161620,,,,,,,0.13,0.21,0.93,-5.1,0.0,1.4,3380,4069,,,,,,,,,,,,,,,,,
5346,1469902161640,,,,53,,,0.09,0.2,0.89,-5.0,-0.3,1.8,3340,3984,0.81,5,39.545074,-122.332558,72.57,0.006,292.5,9,2,2.0,0,0.0,-1,0.0,,0.0,0
5366,1469902161660,,,,,,,0.14,0.31,0.99,-5.6,0.2,1.7,3340,3944,,,,,,,,,,,,,,,,,
5386,1469902161680,,,,,,,0.17,0.29,0.99,-5.9,0.1,1.7,3280,4026,,,,,,,,,,,,,,,,,
5406,1469902161700,,,,,,,0.14,0.19,0.95,-5.7,-0.0,2.0,3340,3924,,,,,,,,,,,,,,,,,
5426,1469902161720,,,,,,,0.15,0.26,1.02,-5.7,-0.6,1.8,3500,4006,,,,,,,,,,,,,,,,,
5446,1469902161740,0,277.4,206.9,51,208.8,,0.22,0.28,1.01,-6.0,0.4,1.9,3620,3984,0.898,4,39.545074,-122.332596,72.15,0.008,292.7,9,2,2.0,0,0.0,-1,0.0,0.0,0.0,0
5466,1469902161760,,,,,,,0.15,0.16,0.95,-5.8,0.3,2.2,3600,4006,,,,,,,,,,,,,,,,,
5486,1469902161780,,,,,,,0.24,0.24,1.0,-5.6,-0.7,2.0,3620,3924,,,,,,,,,,,,,,,,,
5506,1469902161800,,,,,,,0.29,0.24,1.0,-6.1,-1.0,2.0,3600,4006,,,,,,,,,,,,,,,,,
5526,1469902161820,,,,,,,0.21,0.16,0.97,-5.8,-1.4,1.6,3800,3924,,,,,,,,,,,,,,,,,
5546,1469902161840,,,,58,,,0.21,0.27,1.04,-5.9,-2.1,1.3,3740,3944,0.969,4,39.545074,-122.332619,71.82,0.009,292.9,9,2,2.0,0,0.0,-1,0.0,,0.0,0
5566,1469902161860,,,,,,,0.26,0.23,1.06,-6.4,-1.8,1.5,3900,3944,,,,,,,,,,,,,,,,,
5586,1469902161880,,,,,,,0.22,0.22,1.02,-6.1,-0.9,1.0,3860,3924,,,,,,,,,,,,,,,,,
5606,1469902161900,,,,,,,0.23,0.32,1.03,-6.7,-1.1,1.0,3900,3846,,,,,,,,,,,,,,,,,
5626,1469902162014,,,,,,,0.28,0.24,0.97,-6.8,-1.8,1.1,3920,3944,,,,,,,,,,,,,,,,,
5646,1469902162034,0,277.8,206.7,46,209.0,,0.27,0.32,0.97,-6.6,-1.5,0.6,3900,3964,0.989,4,39.545071,-122.332703,70.66,0.014,293.2,9,2,2.0,0,0.0,-1,0.0,0.0,0.0,0
5666,1469902162054,,,,,,,0.24,0.28,0.9,-6.9,-1.8,0.9,3960,3904,,,,,,,,,,,,,,,,,
5686,1469902162074,,,,,,,0.27,0.3,0.92,-6.8,-2.6,0.4,4000,3924,,,,,,,,,,,,,,,,,
5706,1469902162094,,,,,,,0.32,0.39,0.95,-7.4,-2.4,-0.0,4100,3924,,,,,,,,,,,,,,,,,
5726,1469902162114,,,,,,,0.25,0.24,0.99,-7.5,-1.7,0.3,4160,3904,,,,,,,,,,,,,,,,,
5746,1469902162134,,,,53,,,0.23,0.29,1.06,-7.3,-1.7,-0.1,4180,3846,1.091,4,39.545071,-122.332703,70.66,0.014,293.2,9,2,2.0,0,0.0,-1,0.0,,0.0,0
5766,1469902162154,,,,,,,0.25,0.31,1.04,-7.8,-1.6,0.2,4240,3864,,,,,,,,,,,,,,,,,
5786,1469902162174,,,,,,,0.28,0.2,0.93,-7.2,-1.0,0.0,4380,3904,,,,,,,,,,,,,,,,,
5806,1469902162194,,,,,,,0.3,0.34,0.98,-7.7,-2.4,-0.3,4320,3846,,,,,,,,,,,,,,,,,
5826,1469902162120,,,,,,,0.25,0.36,0.96,-8.4,-2.0,0.4,4460,3864,,,,,,,,,,,,,,,,,
5846,1469902162140,0,277.8,206.5,59,208.8,,0.27,0.49,0.91,-8.5,-2.5,-0.5,4440,3846,1.181,3,39.545071,-122.332741,70.05,0.016,292.9,9,2,2.0,0,0.0,-1,0.0,0.0,0.0,0
5866,1469902162160,,,,,,,0.23,0.44,0.95,-9.0,-1.6,0.1,4520,3846,,,,,,,,,,,,,,,,,
5886,1469902162180,,,,,,,0.23,0.46,0.95,-9.0,-2.6,-0.3,4600,3846,,,,,,,,,,,,,,,,,
5906,1469902162200,,,,,,,0.24,0.51,0.9,-9.6,-2.2,0.5,4680,3807,,,,,,,,,,,,,,,,,
5926,1469902162220,,,,,,,0.2,0.49,0.89,-9.4,-2.3,0.2,4640,3807,,,,,,,,,,,,,,,,,
5946,1469902162240,,,,61,,,0.19,0.5,0.84,-9.9,-1.5,0.6,4780,3789,1.224,3,39.545071,-122.332779,69.36,0.018,293.1,9,2,2.0,0,0.0,-1,0.0,,0.0,0
5966,1469902162260,,,,,,,0.21,0.45,0.95,-10.1,-2.4,0.5,4720,3807,,,,,,,,,,,,,,,,,
5986,1469902162280,,,,,,,0.22,0.52,0.94,-10.3,-1.9,0.8,4860,3807,,,,,,,,,,,,,,,,,
6006,1469902162300,,,,,,,0.22,0.41,0.96,-10.4,-0.7,1.1,4840,3846,,,,,,,,,,,,,,,,,
6026,1469902162320,,,,,,,0.2,0.46,0.95,-10.1,-2.2,1.3,4800,3789,,,,,,,,,,,,,,,,,
6046,1469902162340,1,277.6,206.6,59,208.8,13.91,0.19,0.44,0.91,-10.4,-1.0,1.6,4900,3826,1.291,3,39.545071,-122.332817,68.99,0.02,293.2,9,2,2.0,0,0.0,-1,0.0,0.0,0.0,0
6066,1469902162360,,,,,,,0.21,0.45,0.84,-10.8,-1.7,1.6,4920,3826,,,,,,,,,,,,,,,,,
6086,1469902162380,,,,,,,0.14,0.48,0.77,-10.8,-0.9,1.8,4940,3864,,,,,,,,,,,,,,,,,
6106,1469902162400,,,,,,,0.14,0.43,0.79,-10.8,-0.7,2.1,4860,3846,,,,,,,,,,,,,,,,,
6126,1469902162417,,,,,,,0.14,0.48,0.84,-10.7,-1.8,2.1,4780,3846,,,,,,,,,,,,,,,,,
6146,1469902162437,,,,51,,,0.13,0.45,0.93,-11.0,0.4,2.3,4960,3807,1.232,3,39.545071,-122.332855,68.37,0.022,293.3,9,2,2.0,0,0.0,-1,0.0,,0.0,0
6166,1469902162457,,,,,,,0.11,0.42,0.99,-11.1,1.0,2.1,4880,3807,,,,,,,,,,,,,,,,,
6186,1469902162477,,,,,,,0.15,0.43,0.93,-10.7,0.1,1.6,4900,3789,,,,,,,,,,,,,,,,,
6206,1469902162501,,,,,,,0.13,0.45,0.88,-10.9,0.8,1.4,4820,3769,,,,,,,,,,,,,,,,,
6226,1469902162521,,,,,,,0.15,0.51,0.81,-11.2,0.8,1.0,4760,3807,,,,,,,,,,,,,,,,,
6246,1469902162541,0,278.1,206.7,59,209.0,,0.12,0.48,0.79,-11.7,0.5,1.4,4800,3769,1.279,3,39.545067,-122.332878,67.88,0.023,293.6,9,2,2.0,0,0.0,-1,0.0,0.0,0.0,0
6266,1469902162561,,,,,,,0.15,0.48,0.91,-11.9,1.0,1.9,4820,3769,,,,,,,,,,,,,,,,,
6286,1469902162581,,,,,,,0.18,0.54,0.95,-11.9,-0.1,1.9,4660,3733,,,,,,,,,,,,,,,,,
6306,1469902162601,,,,,,,0.14,0.54,0.94,-12.6,1.2,1.9,4860,3752,,,,,,,,,,,,,,,,,
6326,1469902162620,,,,,,,0.12,0.64,0.94,-13.0,0.3,1.7,4840,3789,,,,,,,,,,,,,,,,,
6346,1469902162640,,,,74,,,0.14,0.58,0.99,-13.4,1.1,2.1,4760,3807,1.275,3,39.545067,-122.332916,67.08,0.025,293.7,9,2,2.0,0,0.0,-1,0.0,,0.0,0
6366,1469902162660,,,,,,,0.21,0.55,1.0,-13.5,0.8,2.7,4680,3752,,,,,,,,,,,,,,,,,
6386,1469902162680,,,,,,,0.2,0.53,1.06,-13.1,1.2,2.3,4900,3769,,,,,,,,,,,,,,,,,
6406,1469902162700,,,,,,,0.16,0.55,1.05,-13.6,1.9,2.3,4820,3769,,,,,,,,,,,,,,,,,
6426,1469902162819,,,,,,,0.2,0.62,1.05,-13.9,1.0,1.6,4920,3789,,,,,,,,,,,,,,,,,
6446,1469902162839,0,277.6,206.5,50,208.7,,0.2,0.59,1.05,-14.3,1.5,1.6,4820,3752,1.306,3,39.545063,-122.332977,66.62,0.029,293.3,9,2,2.0,0,0.0,-1,0.0,0.0,0.0,0
6466,1469902162859,,,,,,,0.18,0.53,1.08,-14.2,2.3,1.2,4800,3769,,,,,,,,,,,,,,,,,
6486,1469902162879,,,,,,,0.19,0.57,1.14,-14.2,1.1,0.9,4840,3752,,,,,,,,,,,,,,,,,
6506,1469902162899,,,,,,,0.16,0.61,1.13,-14.4,2.3,1.0,4760,3789,,,,,,,,,,,,,,,,,
6526,1469902162919,,,,,,,0.21,0.62,1.09,-14.5,1.5,0.7,4820,3769,,,,,,,,,,,,,,,,,
6546,1469902162939,,,,57,,,0.17,0.6,1.15,-14.8,1.7,0.8,4740,3752,1.295,3,39.545063,-122.332977,66.62,0.029,293.3,9,2,2.0,0,0.0,-1,0.0,,0.0,0
6566,1469902162959,,,,,,,0.17,0.58,1.22,-15.0,1.7,0.7,4720,3715,,,,,,,,,,,,,,,,,
6586,1469902162979,,,,,,,0.16,0.59,1.19,-14.7,0.8,0.4,4820,3752,,,,,,,,,,,,,,,,,
6606,1469902162999,,,,,,,0.14,0.61,1.09,-14.7,1.9,0.3,4720,3733,,,,,,,,,,,,,,,,,
6626,1469902162915,,,,,,,0.16,0.66,1.11,-14.8,1.1,-0.1,4680,3715,,,,,,,,,,,,,,,,,
6646,1469902162935,0,279.5,207.9,86,210.0,,0.14,0.64,1.17,-15.3,1.1,-0.1,4760,3715,1.31,3,39.545055,-122.333015,66.35,0.031,293.5,9,2,2.0,0,0.0,-1,0.0,0.0,0.0,0
6666,1469902162955,,,,,,,0.17,0.72,1.15,-15.7,-0.0,-0.3,4800,3715,,,,,,,,,,,,,,,,,
6686,1469902162975,,,,,,,0.18,0.73,1.1,-15.9,-0.0,-0.1,4780,3696,,,,,,,,,,,,,,,,,
6706,1469902162995,,,,,,,0.19,0.68,1.11,-16.0,0.9,-0.2,4600,3680,,,,,,,,,,,,,,,,,
6726,1469902163020,,,,,,,0.16,0.67,1.05,-15.7,0.2,-0.6,4760,3715,,,,,,,,,,,,,,,,,
6746,1469902163040,,,,53,,,0.17,0.71,1.0,-15.5,0.1,-0.8,4740,3696,1.276,3,39.545052,-122.333061,66.29,0.033,293.5,9,2,2.0,0,0.0,-1,0.0,,0.0,0
6766,1469902163060,,,,,,,0.19,0.7,1.01,-15.7,0.3,-0.8,4740,3696,,,,,,,,,,,,,,,,,
6786,1469902163080,,,,,,,0.17,0.71,0.96,-16.2,0.5,-0.6,4700,3680,,,,,,,,,,,,,,,,,
6806,1469902163100,,,,,,,0.16,0.72,0.92,-16.4,0.3,-0.7,4740,3715,,,,,,,,,,,,,,,,,
6826,1469902163120,,,,,,,0.16,0.7,0.92,-16.5,-1.0,-0.4,4620,3696,,,,,,,,,,,,,,,,,
6846,1469902163140,0,277.8,206.7,62,208.9,,0.17,0.71,1.02,-16.5,-0.9,-0.4,4720,3680,1.265,3,39.545052,-122.333099,65.82,0.035,293.6,9,2,2.0,0,0.0,-1,0.0,0.0,0.0,0
6866,1469902163160,,,,,,,0.17,0.78,1.01,-16.8,-0.8,-0.5,4760,3715,,,,,,,,,,,,,,,,,
6886,1469902163180,,,,,,,0.1,0.77,0.92,-17.2,1.3,-0.4,4740,3661,,,,,,,,,,,,,,,,,
6906,1469902163200,,,,,,,0.1,0.72,0.96,-17.3,0.5,-0.8,4740,3696,,,,,,,,,,,,,,,,,
6926,1469902163220,,,,,,,0.06,0.73,1.0,-17.5,1.0,-0.9,4680,3680,,,,,,,,,,,,,,,,,
6946,1469902163240,,,,55,,,0.1,0.74,0.9,-17.3,-0.5,-1.0,4740,3680,1.233,3,39.545048,-122.333122,65.7,0.036,293.5,9,2,2.0,0,0.0,-1,0.0,,0.0,0
6966,1469902163260,,,,,,,0.06,0.8,0.91,-17.5,-0.5,-0.4,4700,3696,,,,,,,,,,,,,,,,,
6986,1469902163280,,,,,,,0.09,0.78,0.96,-17.9,-0.8,-0.3,4740,3696,,,,,,,,,,,,,,,,,
7006,1469902163300,,,,,,,0.06,0.82,0.96,-18.0,-2.3,-0.8,4640,3715,,,,,,,,,,,,,,,,,
7026,1469902163320,,,,,,,0.12,0.84,0.91,-17.9,-2.5,-0.8,4760,3752,,,,,,,,,,,,,,,,,
7046,1469902163340,0,278.1,207.1,54,208.8,13.95,0.12,0.86,0.97,-17.8,-2.9,-1.0,4680,3752,1.26,3,39.54504,-122.33316,65.37,0.038,293.5,9,2,2.0,0,0.0,-1,0.0,0.0,0.0,0
7066,1469902163360,,,,,,,0.07,0.8,0.88,-17.9,-1.7,-0.6,4960,3752,,,,,,,,,,,,,,,,,
7086,1469902163380,,,,,,,0.08,0.79,0.97,-18.1,-2.1,-0.5,4640,3733,,,,,,,,,,,,,,,,,
7106,1469902163401,,,,,,,0.08,0.78,0.95,-18.0,-1.9,-0.5,4560,3752,,,,,,,,,,,,,,,,,
7126,1469902163421,,,,,,,0.1,0.8,0.92,-18.0,-1.0,-0.2,4760,3715,,,,,,,,,,,,,,,,,
7146,1469902163441,,,,46,,,0.07,0.85,0.96,-18.1,-1.4,-0.3,4740,3733,1.232,3,39.545032,-122.333183,65.28,0.04,293.7,9,2,2.0,0,0.0,-1,0.0,,0.0,0
7166,1469902163461,,,,,,,0.04,0.85,0.96,-18.6,-0.8,0.3,4700,3680,,,,,,,,,,,,,,,,,
7186,1469902163481,,,,,,,0.08,0.92,1.06,-18.8,-0.2,0.2,4880,3733,,,,,,,,,,,,,,,,,
7206,1469902163501,,,,,,,0.11,0.9,1.1,-18.9,0.3,0.3,4580,3733,,,,,,,,,,,,,,,,,
7226,1469902163619,,,,,,,0.1,0.84,1.14,-18.8,1.8,0.5,4740,3696,,,,,,,,,,,,,,,,,
7246,1469902163639,0,278.3,207.3,70,209.5,,0.08,0.9,1.13,-18.5,1.9,0.5,4880,3733,1.248,3,39.545021,-122.33326,64.62,0.044,293.8,9,2,2.0,0,0.0,-1,0.0,0.0,0.0,0
7266,1469902163659,,,,,,,0.05,0.85,1.19,-18.4,4.0,1.0,4580,3752,,,,,,,,,,,,,,,,,
7286,1469902163679,,,,,,,0.11,0.88,1.16,-18.1,3.4,0.8,4940,3696,,,,,,,,,,,,,,,,,
7306,1469902163699,,,,,,,0.06,0.86,1.2,-17.9,5.1,0.5,4660,3715,,,,,,,,,,,,,,,,,
7326,1469902163719,,,,,,,0.04,0.76,1.2,-17.5,4.4,-0.1,4780,3696,,,,,,,,,,,,,,,,,
7346,1469902163739,,,,48,,,-0.02,0.78,1.22,-17.0,2.7,-0.7,4900,3733,1.297,3,39.545021,-122.33326,64.62,0.044,293.8,9,2,2.0,0,0.0,-1,0.0,,0.0,0
7366,1469902163759,,,,,,,0.0,0.72,1.16,-16.3,2.3,-0.8,4560,3680,,,,,,,,,,,,,,,,,
7386,1469902163779,,,,,,,0.0,0.76,1.08,-15.5,1.1,-1.8,4860,3696,,,,,,,,,,,,,,,,,
7406,1469902163799,,,,,,,-0.05,0.81,1.01,-15.3,0.4,-2.5,4620,3733,,,,,,,,,,,,,,,,,
7426,1469902163720,,,,,,,-0.03,0.83,1.1,-15.2,0.0,-3.0,4780,3715,,,,,,,,,,,,,,,,,
7446,1469902163740,0,278.5,207.5,54,209.5,,-0.03,0.7,1.07,-15.1,-0.6,-2.9,4840,3715,1.318,3,39.545013,-122.33329,64.54,0.046,294.1,9,2,2.0,0,0.0,-1,0.0,0.0,0.0,0
7466,1469902163760,,,,,,,-0.02,0.71,1.07,-15.1,-0.1,-2.4,4860,3715,,,,,,,,,,,,,,,,,
7486,1469902163780,,,,,,,-0.06,0.68,1.1,-14.9,-0.5,-1.6,4540,3769,,,,,,,,,,,,,,,,,
7506,1469902163800,,,,,,,-0.07,0.6,1.12,-14.9,-0.3,-1.2,4680,3715,,,,,,,,,,,,,,,,,
7526,1469902163820,,,,,,,-0.06,0.68,1.09,-14.6,-1.2,-1.2,4800,3715,,,,,,,,,,,,,,,,,
7546,1469902163840,,,,61,,,-0.04,0.75,1.06,-15.2,0.0,-0.7,4540,3715,1.318,3,39.545006,-122.333328,64.46,0.048,294.3,9,2,2.0,0,0.0,-1,0.0,,0.0,0
7566,1469902163860,,,,,,,-0.05,0.72,1.1,-15.5,-0.4,-0.5,4880,3769,,,,,,,,,,,,,,,,,
7586,1469902163880,,,,,,,-0.06,0.7,1.14,-15.3,-0.6,-0.4,4480,3733,,,,,,,,,,,,,,,,,
7606,1469902163900,,,,,,,-0.06,0.65,1.13,-15.3,-0.7,0.1,4800,3733,,,,,,,,,,,,,,,,,
7626,1469902163914,,,,,,,-0.07,0.72,1.09,-15.3,-0.4,-0.0,4920,3696,,,,,,,,,,,,,,,,,
7646,1469902163934,0,278.1,207.3,47,208.9,,-0.09,0.73,1.17,-15.4,2.1,0.1,4700,3752,1.302,3,39.544994,-122.333351,64.76,0.049,294.6,9,2,2.0,0,0.0,-1,0.0,0.0,0.0,0
7666,1469902163954,,,,,,,-0.09,0.72,1.19,-15.5,1.1,-0.2,4860,3733,,,,,,,,,,,,,,,,,
7686,1469902163974,,,,,,,-0.1,0.71,1.2,-15.8,2.8,0.2,4620,3752,,,,,,,,,,,,,,,,,
7706,1469902163994,,,,,,,-0.07,0.69,1.17,-16.0,2.9,0.1,4800,3733,,,,,,,,,,,,,,,,,
7726,1469902164020,,,,,,,-0.08,0.73,1.15,-16.0,2.6,0.4,4920,3752,,,,,,,,,,,,,,,,,
7746,1469902164040,,,,52,,,-0.09,0.74,1.19,-16.2,2.3,1.0,4600,3752,1.259,3,39.544987,-122.333374,64.59,0.051,294.8,9,2,2.0,0,0.0,-1,0.0,,0.0,0
7766,1469902164060,,,,,,,-0.06,0.74,1.2,-16.1,0.7,1.1,4940,3715,,,,,,,,,,,,,,,,,
7786,1469902164080,,,,,,,-0.08,0.75,1.15,-16.3,2.0,1.3,4620,3715,,,,,,,,,,,,,,,,,
7806,1469902164100,,,,,,,-0.07,0.73,1.16,-16.2,2.5,1.3,4780,3733,,,,,,,,,,,,,,,,,
7826,1469902164120,,,,,,,-0.1,0.67,1.15,-15.9,1.2,1.8,4960,3752,,,,,,,,,,,,,,,,,
7846,1469902164140,0,278.6,206.8,55,209.0,,-0.09,0.65,1.12,-15.6,1.3,1.8,4540,3752,1.226,3,39.544971,-122.333412,64.67,0.053,295.6,9,2,2.0,0,0.0,-1,0.0,0.0,0.0,0
7866,1469902164160,,,,,,,-0.07,0.66,1.07,-15.4,0.0,1.7,5000,3715,,,,,,,,,,,,,,,,,
7886,1469902164180,,,,,,,-0.1,0.67,1.05,-15.4,1.0,1.6,4820,3733,,,,,,,,,,,,,,,,,
7906,1469902164200,,,,,,,-0.08,0.7,1.08,-15.5,0.7,1.6,4760,3752,,,,,,,,,,,,,,,,,
7926,1469902164220,,,,,,,-0.04,0.72,1.09,-15.5,-0.6,1.8,4860,3769,,,,,,,,,,,,,,,,,
7946,1469902164240,,,,51,,,-0.06,0.69,1.03,-15.5,0.7,2.0,4780,3769,1.215,3,39.544964,-122.333443,64.69,0.055,296.2,9,2,2.0,0,0.0,-1,0.0,,0.0,0
7966,1469902164260,,,,,,,-0.02,0.74,1.02,-15.1,0.4,2.0,4860,3733,,,,,,,,,,,,,,,,,
7986,1469902164280,,,,,,,-0.09,0.75,0.99,-15.1,0.7,2.1,4860,3752,,,,,,,,,,,,,,,,,
8006,1469902164301,,,,,,,-0.07,0.81,1.08,-15.2,-0.0,2.0,4820,3807,,,,,,,,,,,,,,,,,
8026,1469902164420,,,,,,,-0.09,0.71,1.04,-15.6,-1.3,2.5,4920,3789,,,,,,,,,,,,,,,,,
8046,1469902164440,0,278.3,206.9,72,209.1,14.02,-0.07,0.69,0.99,-15.6,0.3,2.3,4800,3807,1.208,3,39.544941,-122.333504,65.15,0.058,297.4,9,2,2.0,0,0.0,-1,0.0,0.0,0.0,0
8066,1469902164460,,,,,,,-0.07,0.68,0.95,-15.4,-1.1,1.8,5040,3752,,,,,,,,,,,,,,,,,
8086,1469902164480,,,,,,,-0.1,0.76,0.91,-15.4,-0.8,1.5,4820,3789,,,,,,,,,,,,,,,,,
8106,1469902164500,,,,,,,-0.04,0.78,0.99,-15.4,-0.8,1.4,4760,3769,,,,,,,,,,,,,,,,,
8126,1469902164520,,,,,,,-0.05,0.77,1.01,-15.3,-1.1,1.5,4900,3826,,,,,,,,,,,,,,,,,
8146,1469902164540,,,,61,,,-0.09,0.76,0.98,-15.3,-0.1,1.4,4560,3807,1.219,3,39.544941,-122.333504,65.15,0.058,297.4,9,2,2.0,0,0.0,-1,0.0,,0.0,0
8166,1469902164560,,,,,,,-0.07,0.81,0.95,-15.2,-1.8,0.8,4900,3846,,,,,,,,,,,,,,,,,
8186,1469902164580,,,,,,,-0.11,0.88,0.95,-15.4,-0.1,0.7,4600,3789,,,,,,,,,,,,,,,,,
8206,1469902164600,,,,,,,-0.09,0.84,0.95,-15.6,0.9,0.9,4800,3807,,,,,,,,,,,,,,,,,
8226,1469902164519,,,,,,,-0.1,0.82,0.98,-15.2,-0.9,1.0,5000,3789,,,,,,,,,,,,,,,,,
8246,1469902164539,0,279.6,207.0,58,209.4,,-0.13,0.78,1.01,-15.0,1.6,1.3,4660,3807,1.235,3,39.54493,-122.333534,65.15,0.06,297.8,9,2,2.0,0,0.0,-1,0.0,0.0,0.0,0
8266,1469902164559,,,,,,,-0.1,0.86,0.98,-14.9,0.8,1.0,4920,3826,,,,,,,,,,,,,,,,,
8286,1469902164579,,,,,,,-0.14,0.79,0.99,-15.0,1.6,1.3,4680,3826,,,,,,,,,,,,,,,,,
8306,1469902164599,,,,,,,-0.12,0.76,0.99,-14.8,1.8,1.6,4920,3789,,,,,,,,,,,,,,,,,
8326,1469902164616,,,,,,,-0.13,0.71,0.93,-14.6,1.2,1.5,4840,3807,,,,,,,,,,,,,,,,,
8346,1469902164636,,,,58,,,-0.16,0.76,0.92,-15.0,3.6,1.4,4760,3807,1.307,3,39.544914,-122.333572,65.57,0.062,298.2,9,2,2.0,0,0.0,-1,0.0,,0.0,0
8366,1469902164656,,,,,,,-0.15,0.72,1.0,-14.8,2.8,0.6,4960,3826,,,,,,,,,,,,,,,,,
8386,1469902164676,,,,,,,-0.16,0.7,1.02,-14.7,3.3,0.5,4740,3846,,,,,,,,,,,,,,,,,
8406,1469902164696,,,,,,,-0.14,0.73,1.03,-14.4,4.1,0.8,4880,3807,,,,,,,,,,,,,,,,,
8426,1469902164720,,,,,,,-0.14,0.72,1.07,-13.9,3.4,0.2,4940,3864,,,,,,,,,,,,,,,,,
8446,1469902164740,0,277.8,207.2,45,209.8,,-0.18,0.67,1.01,-13.8,3.7,-0.1,5040,3807,1.302,3,39.544899,-122.333595,65.47,0.064,298.7,9,2,2.0,0,0.0,-1,0.0,0.0,0.0,0
8466,1469902164760,,,,,,,-0.12,0.61,0.99,-13.7,4.3,-0.0,4620,3846,,,,,,,,,,,,,,,,,
8486,1469902164780,,,,,,,-0.12,0.66,0.96,-13.4,3.3,-0.2,5120,3807,,,,,,,,,,,,,,,,,
8506,1469902164801,,,,,,,-0.16,0.67,0.97,-13.0,4.3,-0.6,4920,3826,,,,,,,,,,,,,,,,,
8526,1469902164821,,,,,,,-0.12,0.71,1.06,-12.8,3.4,-0.9,4820,3826,,,,,,,,,,,,,,,,,
8546,1469902164841,,,,44,,,-0.11,0.69,1.01,-12.5,2.4,-0.9,5060,3864,1.287,3,39.544888,-122.333618,65.72,0.065,299.2,9,2,2.0,0,0.0,-1,0.0,,0.0,0
8566,1469902164861,,,,,,,-0.14,0.63,1.01,-12.4,4.2,-1.2,4820,3864,,,,,,,,,,,,,,,,,
8586,1469902164881,,,,,,,-0.13,0.7,1.07,-12.1,2.7,-1.7,4980,3864,,,,,,,,,,,,,,,,,
8606,1469902164901,,,,,,,-0.16,0.6,1.06,-11.8,3.4,-1.7,4820,3904,,,,,,,,,,,,,,,,,
8626,1469902164915,,,,,,,-0.11,0.52,0.98,-11.9,2.9,-1.4,4940,3846,,,,,,,,,,,,,,,,,
8646,1469902164935,0,278.1,208.0,57,210.1,,-0.13,0.54,0.95,-11.6,0.8,-2.0,4980,3884,1.227,3,39.544872,-122.333656,65.92,0.068,300.5,9,2,2.0,0,0.0,-1,0.0,0.0,0.0,0
8666,1469902164955,,,,,,,-0.16,0.59,0.94,-12.0,1.1,-1.9,4900,3864,,,,,,,,,,,,,,,,,
8686,1469902164975,,,,,,,-0.1,0.58,1.03,-11.9,0.1,-1.8,4680,3846,,,,,,,,,,,,,,,,,
8706,1469902165001,,,,,,,-0.12,0.58,0.99,-11.7,-0.5,-2.0,5180,3846,,,,,,,,,,,,,,,,,
8726,1469902165021,,,,,,,-0.14,0.62,1.0,-11.8,1.0,-1.8,4880,3846,,,,,,,,,,,,,,,,,
8746,1469902165041,,,,61,,,-0.1,0.64,1.09,-12.1,-0.2,-1.8,4960,3904,1.292,3,39.544853,-122.333687,66.24,0.07,301.5,9,2,2.0,0,0.0,-1,0.0,,0.0,0
8766,1469902165061,,,,,,,-0.11,0.63,1.08,-11.9,0.5,-1.8,5140,3884,,,,,,,,,,,,,,,,,
8786,1469902165081,,,,,,,-0.1,0.58,1.11,-12.3,2.3,-1.3,4920,3904,,,,,,,,,,,,,,,,,
8806,1469902165101,,,,,,,-0.1,0.66,1.17,-12.4,-0.1,-1.1,5120,3864,,,,,,,,,,,,,,,,,
8826,1469902165219,,,,,,,-0.11,0.61,1.14,-12.4,1.5,-1.3,4840,3904,,,,,,,,,,,,,,,,,
8846,1469902165239,0,280.3,206.4,63,209.3,,-0.08,0.62,1.11,-12.3,1.9,-1.0,4920,3904,1.301,3,39.544823,-122.333733,66.97,0.073,303.3,9,2,2.0,0,0.0,-1,0.0,0.0,0.0,0
8866,1469902165259,,,,,,,-0.12,0.67,1.14,-12.2,0.2,-1.2,4900,3904,,,,,,,,,,,,,,,,,
8886,1469902165279,,,,,,,-0.1,0.67,1.07,-12.2,1.5,-1.2,5100,3924,,,,,,,,,,,,,,,,,
8906,1469902165299,,,,,,,-0.03,0.61,1.05,-12.1,1.9,-0.8,4680,3884,,,,,,,,,,,,,,,,,
8926,1469902165319,,,,,,,-0.08,0.68,1.0,-11.7,0.2,-1.3,5020,3924,,,,,,,,,,,,,,,,,
8946,1469902165339,,,,83,,,-0.1,0.62,1.02,-11.3,2.0,-1.5,4840,3904,1.286,3,39.544823,-122.333733,66.97,0.073,303.3,9,2,2.0,0,0.0,-1,0.0,,0.0,0
8966,1469902165359,,,,,,,-0.09,0.56,0.92,-11.4,1.3,-1.1,4960,3884,,,,,,,,,,,,,,,,,
8986,1469902165379,,,,,,,-0.1,0.61,0.93,-11.1,0.7,-1.6,5020,3924,,,,,,,,,,,,,,,,,
9006,1469902165301,,,,,,,-0.12,0.58,0.93,-11.3,2.0,-1.5,5100,3884,,,,,,,,,,,,,,,,,
9026,1469902165321,,,,,,,-0.04,0.47,0.89,-11.1,1.4,-1.3,4740,3904,,,,,,,,,,,,,,,,,
9046,1469902165341,0,278.8,206.6,48,209.1,13.8,-0.07,0.52,0.83,-10.7,0.1,-1.5,5100,3924,1.258,3,39.544804,-122.333771,67.06,0.075,304.3,9,2,2.0,0,0.0,-1,0.0,0.0,0.0,0
9066,1469902165361,,,,,,,-0.1,0.47,0.85,-10.7,1.6,-1.2,4780,3904,,,,,,,,,,,,,,,,,
9086,1469902165381,,,,,,,-0.07,0.46,0.82,-10.8,0.1,-1.1,5020,3944,,,,,,,,,,,,,,,,,
9106,1469902165401,,,,,,,-0.12,0.5,0.78,-10.5,0.6,-1.4,5060,3924,,,,,,,,,,,,,,,,,
9126,1469902165421,,,,,,,-0.16,0.46,0.78,-10.6,2.3,-1.1,5140,3924,,,,,,,,,,,,,,,,,
9146,1469902165441,,,,58,,,-0.11,0.43,0.77,-10.5,0.4,-1.1,4880,3924,1.225,3,39.544785,-122.333801,67.56,0.077,305.2,9,2,2.0,0,0.0,-1,0.0,,0.0,0
9166,1469902165461,,,,,,,-0.11,0.46,0.73,-10.4,0.3,-1.0,5180,3904,,,,,,,,,,,,,,,,,
9186,1469902165481,,,,,,,-0.11,0.41,0.83,-10.4,2.2,-0.9,4800,3924,,,,,,,,,,,,,,,,,
9206,1469902165501,,,,,,,-0.11,0.43,0.79,-10.4,-0.8,-0.7,5080,3924,,,,,,,,,,,,,,,,,
9226,1469902165521,,,,,,,-0.16,0.43,0.78,-10.1,0.2,-1.0,5080,3944,,,,,,,,,,,,,,,,,
9246,1469902165541,0,278.3,206.7,64,209.2,,-0.13,0.45,0.79,-10.2,1.8,-0.8,5180,3984,1.305,3,39.544769,-122.333824,67.63,0.079,306.0,9,2,2.0,0,0.0,-1,0.0,0.0,0.0,0
9266,1469902165561,,,,,,,-0.13,0.39,0.83,-10.3,0.0,-0.4,4900,3924,,,,,,,,,,,,,,,,,
9286,1469902165581,,,,,,,-0.16,0.41,0.83,-9.8,-0.5,-0.9,5120,3944,,,,,,,,,,,,,,,,,
9306,1469902165601,,,,,,,-0.12,0.44,0.87,-9.9,1.1,-0.7,4840,3964,,,,,,,,,,,,,,,,,
9326,1469902165621,,,,,,,-0.16,0.38,0.87,-9.9,-0.8,-0.4,5040,3944,,,,,,,,,,,,,,,,,
9346,1469902165641,,,,65,,,-0.19,0.4,0.82,-9.6,-0.7,-0.9,5000,3964,1.251,3,39.54475,-122.333855,68.05,0.081,306.6,9,2,2.0,0,0.0,-1,0.0,,0.0,0
9366,1469902165661,,,,,,,-0.16,0.41,0.83,-9.6,1.6,-1.0,5140,3984,,,,,,,,,,,,,,,,,
9386,1469902165681,,,,,,,-0.18,0.34,0.81,-9.6,0.4,-0.7,4900,3984,,,,,,,,,,,,,,,,,
9406,1469902165701,,,,,,,-0.2,0.4,0.77,-9.0,-1.3,-1.7,5260,4006,,,,,,,,,,,,,,,,,
9426,1469902165721,,,,,,,-0.16,0.35,0.78,-8.9,0.7,-1.6,4840,3984,,,,,,,,,,,,,,,,,
9446,1469902165741,0,278.8,208.4,71,210.3,,-0.16,0.33,0.77,-8.8,-0.7,-0.9,5020,3984,1.288,3,39.544731,-122.333878,68.22,0.083,307.1,9,2,2.0,0,0.0,-1,0.0,0.0,0.0,0
9466,1469902165761,,,,,,,-0.16,0.42,0.89,-8.5,-2.6,-1.7,5020,4006,,,,,,,,,,,,,,,,,
9486,1469902165781,,,,,,,-0.16,0.37,0.9,-8.5,-0.5,-1.5,5140,3944,,,,,,,,,,,,,,,,,
9506,1469902165801,,,,,,,-0.15,0.33,0.96,-8.7,-0.1,-0.6,5200,3984,,,,,,,,,,,,,,,,,
9526,1469902165821,,,,,,,-0.17,0.41,1.03,-8.6,-2.0,-1.1,4980,3984,,,,,,,,,,,,,,,,,
9546,1469902165841,,,,53,,,-0.18,0.36,0.96,-8.4,-0.3,-1.0,5260,3984,1.3,3,39.544716,-122.3339,68.61,0.085,307.6,9,2,2.0,0,0.0,-1,0.0,,0.0,0
9566,1469902165861,,,,,,,-0.15,0.38,0.99,-8.2,-0.2,-0.4,4980,4006,,,,,,,,,,,,,,,,,
9586,1469902165881,,,,,,,-0.14,0.39,0.98,-8.3,-2.3,-0.4,5140,4006,,,,,,,,,,,,,,,,,
9606,1469902165901,,,,,,,-0.16,0.37,0.94,-8.2,-0.7,-0.5,5160,4006,,,,,,,,,,,,,,,,,
9626,1469902166014,,,,,,,-0.16,0.37,0.91,-8.2,0.2,-0.3,5140,4026,,,,,,,,,,,,,,,,,
9646,1469902166034,0,280.8,205.5,49,207.9,,-0.14,0.34,0.87,-8.2,-1.8,-0.2,4940,4026,1.235,3,39.544674,-122.333954,69.12,0.089,309.0,9,2,2.0,0,0.0,-1,0.0,0.0,0.0,0
9666,1469902166054,,,,,,,-0.17,0.4,0.84,-7.7,-3.0,-0.8,5280,4026,,,,,,,,,,,,,,,,,
9686,1469902166074,,,,,,,-0.21,0.32,0.87,-7.7,-0.7,-1.0,4880,4047,,,,,,,,,,,,,,,,,
9706,1469902166094,,,,,,,-0.15,0.35,0.85,-7.4,-2.0,-0.6,5200,4026,,,,,,,,,,,,,,,,,
9726,1469902166114,,,,,,,-0.17,0.37,0.89,-7.4,-3.7,-0.8,5140,4006,,,,,,,,,,,,,,,,,
9746,1469902166134,,,,51,,,-0.2,0.31,0.87,-6.9,-1.3,-1.0,5100,4006,1.25,3,39.544674,-122.333954,69.12,0.089,309.0,9,2,2.0,0,0.0,-1,0.0,,0.0,0
9766,1469902166154,,,,,,,-0.16,0.34,0.84,-7.1,-0.9,-0.6,5200,4047,,,,,,,,,,,,,,,,,
9786,1469902166174,,,,,,,-0.12,0.27,0.8,-7.4,-2.3,-0.4,5080,4026,,,,,,,,,,,,,,,,,
9806,1469902166101,,,,,,,-0.19,0.3,0.81,-6.8,-2.1,-1.0,5300,4047,,,,,,,,,,,,,,,,,
9826,1469902166121,,,,,,,-0.13,0.24,0.83,-6.9,-0.7,-1.1,4860,4069,,,,,,,,,,,,,,,,,
9846,1469902166141,0,278.8,207.7,66,209.4,,-0.09,0.27,0.8,-6.8,-1.3,-0.9,5200,4047,1.267,3,39.544655,-122.333977,69.25,0.09,309.6,9,2,2.0,0,0.0,-1,0.0,0.0,0.0,0
9866,1469902166161,,,,,,,-0.14,0.24,0.87,-6.9,-2.5,-1.2,5260,4026,,,,,,,,,,,,,,,,,
9886,1469902166181,,,,,,,-0.13,0.24,0.81,-6.7,-1.4,-1.2,5140,4090,,,,,,,,,,,,,,,,,
9906,1469902166201,,,,,,,-0.08,0.26,0.78,-6.6,-0.2,-0.9,5080,4047,,,,,,,,,,,,,,,,,
9926,1469902166220,,,,,,,-0.13,0.23,0.83,-6.7,-1.7,-0.8,5060,4047,,,,,,,,,,,,,,,,,
9946,1469902166240,,,,50,,,-0.14,0.27,0.79,-6.6,-1.9,-1.0,5280,4047,1.28,3,39.544636,-122.334007,69.61,0.092,310.3,9,2,2.0,0,0.0,-1,0.0,,0.0,0
9966,1469902166260,,,,,,,-0.09,0.24,0.82,-6.6,1.1,-1.1,5040,4069,,,,,,,,,,,,,,,,,
9986,1469902166280,,,,,,,-0.12,0.23,0.78,-6.7,0.1,-0.8,5260,4047,,,,,,,,,,,,,,,,,
10006,1469902166300,,,,,,,-0.14,0.26,0.87,-7.0,-1.1,-1.0,5320,4026,,,,,,,,,,,,,,,,,
10026,1469902166320,,,,,,,-0.14,0.24,0.82,-6.7,1.3,-1.3,5120,4069,,,,,,,,,,,,,,,,,
10046,1469902166340,0,278.8,207.0,45,209.1,13.89,-0.13,0.24,0.79,-6.8,1.9,-0.9,5120,4069,1.322,3,39.544617,-122.33403,69.8,0.094,311.1,9,2,2.0,0,0.0,-1,0.0,0.0,0.0,0
10066,1469902166360,,,,,,,-0.15,0.19,0.76,-6.8,0.6,-0.7,5180,4112,,,,,,,,,,,,,,,,,
10086,1469902166380,,,,,,,-0.21,0.27,0.8,-6.2,0.6,-1.3,5220,4090,,,,,,,,,,,,,,,,,
10106,1469902166400,,,,,,,-0.19,0.2,0.87,-6.2,2.3,-1.1,5200,4069,,,,,,,,,,,,,,,,,
10126,1469902166418,,,,,,,-0.13,0.23,0.86,-6.0,1.9,-0.7,5100,4090,,,,,,,,,,,,,,,,,
10146,1469902166438,,,,62,,,-0.21,0.23,0.86,-6.1,-0.4,-0.8,5300,4090,1.274,3,39.544594,-122.334053,70.2,0.096,311.8,9,2,2.0,0,0.0,-1,0.0,,0.0,0
10166,1469902166458,,,,,,,-0.27,0.26,0.87,-5.9,0.2,-0.8,5200,4090,,,,,,,,,,,,,,,,,
10186,1469902166478,,,,,,,-0.2,0.29,0.9,-5.9,2.5,-0.7,5220,4090,,,,,,,,,,,,,,,,,
10206,1469902166498,,,,,,,-0.2,0.22,0.93,-5.9,1.2,-0.3,5260,4090,,,,,,,,,,,,,,,,,
10226,1469902166518,,,,,,,-0.22,0.27,0.97,-5.7,-1.3,-0.4,5100,4090,,,,,,,,,,,,,,,,,
10246,1469902166538,0,279.0,207.1,67,209.5,,-0.24,0.28,0.91,-5.6,0.8,-0.6,5420,4090,1.296,3,39.544575,-122.334084,70.39,0.098,312.6,9,2,2.0,0,0.0,-1,0.0,0.0,0.0,0
10266,1469902166558,,,,,,,-0.23,0.22,0.95,-5.5,2.4,-0.5,4980,4112,,,,,,,,,,,,,,,,,
10286,1469902166578,,,,,,,-0.16,0.25,0.9,-5.3,-0.1,-0.5,5360,4112,,,,,,,,,,,,,,,,,
10306,1469902166598,,,,,,,-0.21,0.25,0.93,-5.5,-0.5,-0.7,5340,4112,,,,,,,,,,,,,,,,,
10326,1469902166618,,,,,,,-0.24,0.19,0.92,-5.0,0.9,-1.0,5220,4069,,,,,,,,,,,,,,,,,
10346,1469902166638,,,,53,,,-0.15,0.19,0.94,-5.0,1.7,-0.8,5240,4135,1.271,3,39.544556,-122.334106,70.64,0.1,313.0,9,2,2.0,0,0.0,-1,0.0,,0.0,0
10366,1469902166658,,,,,,,-0.18,0.16,0.97,-5.0,0.7,-0.8,5280,4135,,,,,,,,,,,,,,,,,
10386,1469902166678,,,,,,,-0.23,0.22,1.0,-4.9,-0.9,-1.2,5280,4112,,,,,,,,,,,,,,,,,
10406,1469902166698,,,,,,,-0.2,0.16,0.94,-4.7,0.7,-1.3,5300,4135,,,,,,,,,,,,,,,,,
10426,1469902166817,,,,,,,-0.21,0.13,0.97,-4.5,2.0,-0.9,5000,4135,,,,,,,,,,,,,,,,,
10446,1469902166837,0,278.5,206.9,51,209.6,,-0.19,0.18,0.91,-4.6,-1.0,-0.8,5380,4156,1.282,3,39.544518,-122.33416,71.14,0.104,313.9,9,2,2.0,0,0.0,-1,0.0,0.0,0.0,0
10466,1469902166857,,,,,,,-0.24,0.15,0.91,-4.6,-1.1,-1.0,5300,4135,,,,,,,,,,,,,,,,,
10486,1469902166877,,,,,,,-0.29,0.11,0.88,-4.1,0.9,-1.3,5280,4112,,,,,,,,,,,,,,,,,
10506,1469902166897,,,,,,,-0.18,0.16,0.93,-4.0,1.4,-1.2,5320,4135,,,,,,,,,,,,,,,,,
10526,1469902166917,,,,,,,-0.19,0.13,0.94,-4.4,0.4,-0.8,5280,4156,,,,,,,,,,,,,,,,,
10546,1469902166937,,,,69,,,-0.23,0.12,0.95,-4.3,-1.1,-1.0,5160,4156,1.23,3,39.544518,-122.33416,71.14,0.104,313.9,9,2,2.0,0,0.0,-1,0.0,,0.0,0
10566,1469902166957,,,,,,,-0.23,0.15,0.91,-4.2,0.9,-1.3,5400,4135,,,,,,,,,,,,,,,,,
10586,1469902166977,,,,,,,-0.21,0.12,0.94,-4.3,2.9,-0.9,5120,4156,,,,,,,,,,,,,,,,,
10606,1469902166997,,,,,,,-0.19,0.18,0.87,-4.3,0.7,-0.9,5120,4135,,,,,,,,,,,,,,,,,
10626,1469902166914,,,,,,,-0.24,0.19,0.89,-4.7,-0.3,-0.6,5400,4180,,,,,,,,,,,,,,,,,
10646,1469902166934,0,277.9,206.2,66,209.5,,-0.28,0.16,0.86,-4.5,1.7,-0.7,5300,4156,1.295,3,39.544495,-122.334183,71.44,0.106,314.4,9,2,2.0,0,0.0,-1,0.0,0.0,0.0,0
10666,1469902166954,,,,,,,-0.18,0.18,0.89,-4.3,3.3,-0.7,5240,4156,,,,,,,,,,,,,,,,,
10686,1469902166974,,,,,,,-0.17,0.18,0.85,-4.2,1.9,-0.3,5280,4156,,,,,,,,,,,,,,,,,
10706,1469902167001,,,,,,,-0.19,0.18,0.85,-4.6,-0.6,-0.0,5180,4180,,,,,,,,,,,,,,,,,
10726,1469902167021,,,,,,,-0.2,0.2,0.81,-4.2,0.3,-0.2,5400,4180,,,,,,,,,,,,,,,,,
10746,1469902167041,,,,40,,,-0.16,0.08,0.85,-4.2,1.9,-0.4,5460,4156,1.299,3,39.544476,-122.334206,71.66,0.108,314.7,9,2,2.0,0,0.0,-1,0.0,,0.0,0
10766,1469902167061,,,,,,,-0.06,0.17,0.87,-4.0,1.7,0.1,5300,4203,,,,,,,,,,,,,,,,,
10786,1469902167081,,,,,,,-0.1,0.15,0.86,-4.2,-0.3,0.2,5340,4203,,,,,,,,,,,,,,,,,
10806,1469902167101,,,,,,,-0.14,0.16,0.97,-4.4,-0.4,0.2,5340,4203,,,,,,,,,,,,,,,,,
10826,1469902167121,,,,,,,-0.08,0.16,0.89,-4.2,2.8,0.1,5280,4203,,,,,,,,,,,,,,,,,
10846,1469902167141,0,278.6,207.1,71,209.2,,-0.05,0.16,0.98,-4.3,3.2,0.3,5300,4156,1.275,3,39.544456,-122.334236,72.06,0.11,315.0,9,2,2.0,0,0.0,-1,0.0,0.0,0.0,0
10866,1469902167161,,,,,,,-0.04,0.13,0.98,-4.3,1.7,0.7,5440,4180,,,,,,,,,,,,,,,,,
10886,1469902167181,,,,,,,-0.13,0.16,1.01,-4.3,1.1,0.5,5220,4226,,,,,,,,,,,,,,,,,
10906,1469902167201,,,,,,,-0.2,0.2,0.99,-4.1,1.5,-0.0,5320,4203,,,,,,,,,,,,,,,,,
10926,1469902167217,,,,,,,-0.15,0.12,1.0,-4.1,4.0,-0.3,5500,4180,,,,,,,,,,,,,,,,,
10946,1469902167237,,,,66,,,-0.13,0.14,1.04,-3.8,4.3,-0.1,5140,4203,1.237,3,39.544434,-122.334259,72.27,0.112,315.3,9,2,2.0,0,0.0,-1,0.0,,0.0,0
10966,1469902167257,,,,,,,-0.14,0.11,1.05,-4.0,0.8,-0.2,5400,4180,,,,,,,,,,,,,,,,,
10986,1469902167277,,,,,,,-0.21,0.13,1.1,-3.8,1.5,-0.5,5440,4203,,,,,,,,,,,,,,,,,
11006,1469902167301,,,,,,,-0.21,0.12,1.07,-3.4,3.5,-0.7,5260,4203,,,,,,,,,,,,,,,,,
11026,1469902167321,,,,,,,-0.08,0.11,1.12,-3.3,4.0,-0.3,5360,4180,,,,,,,,,,,,,,,,,
11046,1469902167341,0,279.5,208.1,67,208.8,13.95,-0.07,0.06,1.06,-3.3,2.0,-0.0,5360,4180,1.278,3,39.544414,-122.33429,72.37,0.114,315.6,9,2,2.0,0,0.0,-1,0.0,0.0,0.0,0
11066,1469902167361,,,,,,,-0.07,0.04,1.07,-3.2,-0.5,-0.0,5340,4226,,,,,,,,,,,,,,,,,
11086,1469902167381,,,,,,,-0.11,0.1,1.06,-3.0,1.0,-0.3,5520,4226,,,,,,,,,,,,,,,,,
11106,1469902167401,,,,,,,-0.1,0.04,1.02,-3.1,1.6,-0.5,5480,4203,,,,,,,,,,,,,,,,,
11126,1469902167418,,,,,,,-0.03,0.06,1.04,-2.9,1.7,-0.0,5200,4226,,,,,,,,,,,,,,,,,
11146,1469902167438,,,,66,,,-0.09,0.05,0.99,-3.1,0.2,0.2,5160,4180,1.285,3,39.544392,-122.334312,72.52,0.116,315.9,9,2,2.0,0,0.0,-1,0.0,,0.0,0
11166,1469902167458,,,,,,,-0.15,0.01,0.97,-3.3,-0.8,0.2,5500,4226,,,,,,,,,,,,,,,,,
11186,1469902167478,,,,,,,-0.19,0.08,1.04,-3.0,2.1,0.0,5300,4272,,,,,,,,,,,,,,,,,
11206,1469902167591,,,,,,,-0.12,0.12,1.02,-3.4,2.5,-0.0,5380,4203,,,,,,,,,,,,,,,,,
11226,1469902167611,,,,,,,-0.04,0.1,0.94,-3.3,2.1,0.6,5240,4226,,,,,,,,,,,,,,,,,
11246,1469902167631,0,278.6,208.1,64,208.9,,-0.1,0.04,0.98,-3.3,-0.4,0.7,5340,4249,1.287,3,39.54435,-122.334366,73.17,0.12,316.6,9,2,2.0,0,0.0,-1,0.0,0.0,0.0,0
11266,1469902167651,,,,,,,-0.11,0.12,1.0,-3.3,-1.7,0.3,5400,4226,,,,,,,,,,,,,,,,,
11286,1469902167671,,,,,,,-0.12,0.11,0.91,-3.2,0.4,-0.1,5500,4249,,,,,,,,,,,,,,,,,
11306,1469902167691,,,,,,,-0.07,0.1,0.99,-3.2,2.0,-0.3,5500,4226,,,,,,,,,,,,,,,,,
11326,1469902167711,,,,,,,-0.03,0.15,0.96,-3.3,2.1,-0.0,5260,4203,,,,,,,,,,,,,,,,,
11346,1469902167731,,,,57,,,-0.15,0.1,0.95,-3.7,-0.9,0.0,5520,4203,1.247,3,39.54435,-122.334366,73.17,0.12,316.6,9,2,2.0,0,0.0,-1,0.0,,0.0,0
11366,1469902167751,,,,,,,-0.2,0.1,1.05,-3.7,-0.4,-0.2,5460,4226,,,,,,,,,,,,,,,,,
11386,1469902167771,,,,,,,-0.18,0.11,0.95,-3.4,2.6,-0.4,5380,4249,,,,,,,,,,,,,,,,,
11406,1469902167691,,,,,,,-0.09,0.15,1.04,-3.3,2.3,-0.4,5340,4226,,,,,,,,,,,,,,,,,
11426,1469902167711,,,,,,,-0.03,0.14,0.99,-3.4,0.7,0.1,5280,4249,,,,,,,,,,,,,,,,,
11446,1469902167731,0,278.6,206.2,45,209.9,,-0.14,0.08,0.99,-3.6,-2.0,0.2,5240,4226,1.32,3,39.544327,-122.334389,73.31,0.122,316.9,9,2,2.0,0,0.0,-1,0.0,0.0,0.0,0
11466,1469902167751,,,,,,,-0.15,0.1,1.02,-3.5,-1.0,-0.1,5440,4249,,,,,,,,,,,,,,,,,
11486,1469902167771,,,,,,,-0.18,0.09,0.96,-3.4,2.6,-0.4,5380,4249,,,,,,,,,,,,,,,,,
11506,1469902167794,,,,,,,-0.09,0.12,1.02,-3.5,3.4,-0.5,5540,4226,,,,,,,,,,,,,,,,,
11526,1469902167814,,,,,,,-0.06,0.17,0.98,-3.3,2.5,-0.3,5360,4272,,,,,,,,,,,,,,,,,
11546,1469902167834,,,,41,,,-0.14,0.13,0.99,-3.6,-1.0,-0.2,5540,4226,1.28,3,39.544308,-122.334427,73.5,0.125,317.3,9,2,2.0,0,0.0,-1,0.0,,0.0,0
11566,1469902167854,,,,,,,-0.14,0.07,1.05,-3.7,-0.4,-0.2,5320,4249,,,,,,,,,,,,,,,,,
11586,1469902167874,,,,,,,-0.16,0.06,1.01,-3.3,1.8,-0.7,5360,4249,,,,,,,,,,,,,,,,,
11606,1469902167894,,,,,,,-0.06,0.08,1.02,-3.4,2.3,-0.6,5420,4249,,,,,,,,,,,,,,,,,
11626,1469902167908,,,,,,,-0.04,0.13,0.97,-3.5,1.4,-0.0,5400,4296,,,,,,,,,,,,,,,,,
11646,1469902167928,1,278.5,207.1,65,209.0,,-0.12,0.1,0.98,-3.7,-1.4,-0.3,5300,4272,1.294,3,39.544285,-122.33445,73.6,0.127,317.7,9,2,2.0,0,0.0,-1,0.0,0.0,0.0,0
11666,1469902167948,,,,,,,-0.13,0.09,1.03,-3.6,-1.3,-0.6,5320,4249,,,,,,,,,,,,,,,,,
11686,1469902167968,,,,,,,-0.17,0.09,1.0,-3.3,0.5,-0.9,5520,4249,,,,,,,,,,,,,,,,,
11706,1469902167994,,,,,,,-0.08,0.05,1.0,-3.5,1.8,-1.3,5500,4226,,,,,,,,,,,,,,,,,
11726,1469902168014,,,,,,,-0.05,0.09,1.03,-3.4,2.1,-1.1,5320,4296,,,,,,,,,,,,,,,,,
11746,1469902168034,,,,60,,,-0.07,0.12,0.99,-3.4,-0.7,-0.9,5280,4249,1.273,3,39.544262,-122.33448,73.82,0.129,318.1,9,2,2.0,0,0.0,-1,0.0,,0.0,0
11766,1469902168054,,,,,,,-0.15,0.04,1.03,-3.5,-0.9,-0.7,5540,4296,,,,,,,,,,,,,,,,,
11786,1469902168074,,,,,,,-0.24,0.08,1.12,-3.2,1.2,-1.1,5500,4249,,,,,,,,,,,,,,,,,
11806,1469902168093,,,,,,,-0.15,0.02,1.01,-3.1,3.6,-1.1,5540,4249,,,,,,,,,,,,,,,,,
11826,1469902168113,,,,,,,-0.1,0.04,1.07,-3.0,2.9,-0.6,5420,4226,,,,,,,,,,,,,,,,,
11846,1469902168133,0,279.0,207.1,42,209.1,,-0.07,0.08,1.02,-3.2,-0.2,-0.5,5500,4296,1.266,3,39.544239,-122.334503,73.99,0.131,318.6,9,2,2.0,0,0.0,-1,0.0,0.0,0.0,0
11866,1469902168153,,,,,,,-0.15,0.1,1.02,-3.6,-1.3,-0.2,5520,4296,,,,,,,,,,,,,,,,,
11886,1469902168173,,,,,,,-0.19,0.1,1.01,-3.6,-0.5,-0.2,5420,4272,,,,,,,,,,,,,,,,,
11906,1469902168193,,,,,,,-0.12,0.04,0.97,-3.5,2.1,-0.6,5400,4296,,,,,,,,,,,,,,,,,
11926,1469902168213,,,,,,,-0.09,0.08,1.02,-3.3,2.3,-0.4,5380,4226,,,,,,,,,,,,,,,,,
11946,1469902168233,,,,53,,,-0.04,0.11,0.94,-3.3,-0.0,-0.2,5320,4272,1.292,3,39.54422,-122.334526,74.01,0.133,319.0,9,2,2.0,0,0.0,-1,0.0,,0.0,0
11966,1469902168253,,,,,,,-0.13,0.03,0.96,-3.5,-2.5,-0.3,5520,4296,,,,,,,,,,,,,,,,,
11986,1469902168273,,,,,,,-0.17,0.02,1.02,-3.3,-2.2,-0.6,5400,4296,,,,,,,,,,,,,,,,,
12006,1469902168393,,,,,,,-0.13,0.07,0.95,-3.2,1.9,-0.9,5340,4296,,,,,,,,,,,,,,,,,
12026,1469902168413,,,,,,,-0.07,0.09,1.05,-3.4,2.2,-0.6,5380,4296,,,,,,,,,,,,,,,,,
12046,1469902168433,0,279.1,207.3,66,209.5,13.77,-0.01,0.06,0.98,-3.3,1.2,-0.1,5440,4272,1.299,3,39.544178,-122.334579,74.34,0.137,320.1,9,2,2.0,0,0.0,-1,0.0,0.0,0.0,0
12066,1469902168453,,,,,,,-0.11,0.02,1.01,-3.4,-1.6,0.1,5500,4249,,,,,,,,,,,,,,,,,
12086,1469902168473,,,,,,,-0.13,0.04,1.04,-3.5,-2.5,-0.1,5400,4296,,,,,,,,,,,,,,,,,
12106,1469902168493,,,,,,,-0.15,0.07,1.01,-3.2,0.3,-0.8,5600,4272,,,,,,,,,,,,,,,,,
12126,1469902168513,,,,,,,-0.06,0.08,1.03,-3.2,1.3,-1.0,5400,4296,,,,,,,,,,,,,,,,,
12146,1469902168533,,,,75,,,0.0,0.15,1.07,-3.3,1.9,-0.4,5460,4296,1.248,3,39.544178,-122.334579,74.34,0.137,320.1,9,2,2.0,0,0.0,-1,0.0,,0.0,0
12166,1469902168553,,,,,,,-0.07,0.11,0.99,-3.4,-0.8,-0.1,5360,4249,,,,,,,,,,,,,,,,,
12186,1469902168573,,,,,,,-0.09,0.06,1.05,-3.6,-2.6,0.2,5480,4272,,,,,,,,,,,,,,,,,
12206,1469902168491,,,,,,,-0.16,0.06,1.11,-3.4,-0.8,0.1,5480,4249,,,,,,,,,,,,,,,,,
12226,1469902168511,,,,,,,-0.1,0.01,1.03,-3.2,1.8,-0.2,5480,4272,,,,,,,,,,,,,,,,,
12246,1469902168531,1,278.8,207.1,86,208.8,,-0.01,0.08,1.06,-3.3,3.0,0.3,5460,4296,1.294,3,39.544155,-122.33461,74.47,0.139,320.7,9,2,2.0,0,0.0,-1,0.0,0.0,0.0,0
12266,1469902168551,,,,,,,-0.03,0.05,1.0,-3.2,0.1,0.9,5340,4296,,,,,,,,,,,,,,,,,
12286,1469902168571,,,,,,,-0.09,0.03,1.05,-3.5,-1.0,1.0,5540,4272,,,,,,,,,,,,,,,,,
12306,1469902168591,,,,,,,-0.15,0.04,1.13,-3.6,-1.3,0.8,5500,4272,,,,,,,,,,,,,,,,,
12326,1469902168610,,,,,,,-0.12,-0.0,1.08,-3.3,1.8,0.5,5540,4272,,,,,,,,,,,,,,,,,
12346,1469902168630,,,,41,,,-0.08,-0.06,1.04,-3.1,2.9,-0.0,5580,4272,1.306,3,39.544132,-122.334633,74.43,0.141,321.3,9,2,2.0,0,0.0,-1,0.0,,0.0,0
12366,1469902168650,,,,,,,-0.01,-0.03,1.11,-2.8,1.8,0.2,5420,4320,,,,,,,,,,,,,,,,,
12386,1469902168670,,,,,,,-0.07,0.05,1.0,-2.8,-0.1,0.3,5380,4296,,,,,,,,,,,,,,,,,
12406,1469902168690,,,,,,,-0.14,0.03,1.06,-3.1,-2.3,0.4,5520,4320,,,,,,,,,,,,,,,,,
12426,1469902168710,,,,,,,-0.15,0.05,1.11,-2.9,0.3,-0.1,5520,4272,,,,,,,,,,,,,,,,,
12446,1469902168730,0,278.6,206.6,70,208.7,,-0.16,-0.01,1.03,-2.6,2.4,-0.4,5340,4296,1.266,3,39.544109,-122.334656,74.53,0.143,321.9,9,2,2.0,0,0.0,-1,0.0,0.0,0.0,0
12466,1469902168750,,,,,,,-0.02,-0.03,1.08,-2.7,2.8,-0.1,5460,4296,,,,,,,,,,,,,,,,,
12486,1469902168770,,,,,,,-0.03,0.04,1.03,-2.7,0.9,-0.0,5500,4296,,,,,,,,,,,,,,,,,
12506,1469902168793,,,,,,,-0.07,0.05,1.04,-3.2,-2.2,0.2,5440,4272,,,,,,,,,,,,,,,,,
12526,1469902168813,,,,,,,-0.12,0.08,1.09,-3.2,-0.7,0.0,5460,4296,,,,,,,,,,,,,,,,,
12546,1469902168833,,,,77,,,-0.14,0.01,1.03,-2.8,1.7,-0.5,5340,4320,1.266,3,39.54409,-122.334686,74.73,0.145,322.5,9,2,2.0,0,0.0,-1,0.0,,0.0,0
12566,1469902168853,,,,,,,0.01,0.0,1.09,-2.8,2.6,-0.5,5380,4226,,,,,,,,,,,,,,,,,
12586,1469902168873,,,,,,,-0.01,0.04,1.06,-2.6,0.5,-0.1,5240,4272,,,,,,,,,,,,,,,,,
12606,1469902168893,,,,,,,-0.04,0.01,1.03,-2.7,-2.1,-0.0,5360,4272,,,,,,,,,,,,,,,,,
12626,1469902168908,,,,,,,-0.12,0.01,1.03,-2.8,-1.8,-0.1,5540,4296,,,,,,,,,,,,,,,,,
12646,1469902168928,1,277.9,207.2,52,209.2,,-0.13,0.04,1.04,-2.5,1.2,-0.7,5540,4272,1.224,3,39.544067,-122.334709,74.63,0.147,323.1,9,2,2.0,0,0.0,-1,0.0,0.0,0.0,0
12666,1469902168948,,,,,,,-0.03,0.04,0.99,-2.7,2.8,-1.0,5540,4320,,,,,,,,,,,,,,,,,
12686,1469902168968,,,,,,,0.01,0.03,0.99,-2.6,0.8,-0.5,5380,4272,,,,,,,,,,,,,,,,,
12706,1469902168993,,,,,,,0.02,-0.02,0.94,-2.6,-2.0,-0.1,5380,4226,,,,,,,,,,,,,,,,,
12726,1469902169013,,,,,,,-0.06,-0.02,0.98,-2.7,-3.1,-0.4,5440,4296,,,,,,,,,,,,,,,,,
12746,1469902169033,,,,65,,,-0.08,-0.0,0.98,-2.3,-0.8,-1.0,5480,4249,1.266,3,39.544044,-122.334732,74.61,0.149,323.8,9,2,2.0,0,0.0,-1,0.0,,0.0,0
12766,1469902169053,,,,,,,-0.04,-0.0,0.94,-2.4,2.7,-1.3,5480,4320,,,,,,,,,,,,,,,,,
12786,1469902169073,,,,,,,0.04,0.01,1.03,-2.5,1.6,-0.8,5480,4272,,,,,,,,,,,,,,,,,
12806,1469902169193,,,,,,,0.06,0.03,0.9,-2.3,-0.7,-0.8,5460,4249,,,,,,,,,,,,,,,,,
12826,1469902169213,,,,,,,-0.02,-0.03,0.91,-2.6,-2.7,-0.6,5420,4249,,,,,,,,,,,,,,,,,
12846,1469902169233,0,278.8,206.9,52,208.9,,-0.03,-0.01,0.94,-2.6,-1.1,-0.6,5520,4226,1.283,3,39.543999,-122.334785,74.58,0.153,325.2,9,2,2.0,0,0.0,-1,0.0,0.0,0.0,0
12866,1469902169253,,,,,,,-0.03,0.0,0.88,-2.5,2.0,-1.1,5460,4272,,,,,,,,,,,,,,,,,
12886,1469902169273,,,,,,,0.07,0.03,0.96,-2.6,1.8,-0.8,5280,4249,,,,,,,,,,,,,,,,,
12906,1469902169293,,,,,,,0.07,0.03,0.88,-2.4,1.0,-0.4,5360,4296,,,,,,,,,,,,,,,,,
12926,1469902169313,,,,,,,0.01,0.01,0.93,-2.8,-1.5,-0.3,5560,4249,,,,,,,,,,,,,,,,,
12946,1469902169333,,,,56,,,0.01,0.0,0.99,-2.7,-0.7,-0.3,5460,4226,1.276,3,39.543999,-122.334785,74.58,0.153,325.2,9,2,2.0,0,0.0,-1,0.0,,0.0,0
12966,1469902169353,,,,,,,-0.05,-0.06,0.94,-2.1,1.5,-0.7,5500,4249,,,,,,,,,,,,,,,,,
12986,1469902169373,,,,,,,0.05,-0.01,0.99,-2.2,2.5,-0.7,5360,4249,,,,,,,,,,,,,,,,,
13006,1469902169293,,,,,,,0.05,0.11,1.02,-2.2,2.1,-0.6,5380,4272,,,,,,,,,,,,,,,,,
13026,1469902169313,,,,,,,-0.01,0.05,1.02,-2.7,-1.0,-0.1,5300,4272,,,,,,,,,,,,,,,,,
13046,1469902169333,0,279.0,207.2,63,209.8,13.94,-0.06,0.0,1.03,-2.5,0.0,-0.1,5480,4203,1.273,3,39.54398,-122.334808,74.73,0.155,325.9,9,2,2.0,0,0.0,-1,0.0,0.0,0.0,0
13066,1469902169353,,,,,,,-0.09,-0.03,1.0,-2.2,1.9,-0.5,5500,4226,,,,,,,,,,,,,,,,,
13086,1469902169373,,,,,,,0.03,-0.02,1.01,-2.3,1.7,-0.3,5340,4226,,,,,,,,,,,,,,,,,
13106,1469902169391,,,,,,,0.04,0.01,0.96,-2.4,0.7,0.2,5360,4249,,,,,,,,,,,,,,,,,
13126,1469902169411,,,,,,,0.02,0.02,0.99,-2.7,-2.4,0.3,5440,4249,,,,,,,,,,,,,,,,,
13146,1469902169431,,,,75,,,-0.03,0.05,1.04,-2.4,-0.9,0.2,5400,4226,1.23,3,39.543961,-122.334839,74.47,0.157,326.6,9,2,2.0,0,0.0,-1,0.0,,0.0,0
13166,1469902169451,,,,,,,-0.08,0.02,0.96,-2.3,1.2,-0.2,5280,4226,,,,,,,,,,,,,,,,,
13186,1469902169471,,,,,,,0.02,-0.06,0.98,-2.3,2.5,0.2,5380,4203,,,,,,,,,,,,,,,,,
13206,1469902169491,,,,,,,-0.05,-0.02,0.87,-2.0,1.9,0.3,5340,4226,,,,,,,,,,,,,,,,,
13226,1469902169511,,,,,,,-0.1,0.04,0.9,-2.6,-0.7,0.3,5420,4226,,,,,,,,,,,,,,,,,
13246,1469902169531,0,278.8,206.9,60,209.1,,-0.08,0.01,0.91,-2.5,1.6,0.1,5420,4203,1.264,3,39.543938,-122.334862,74.45,0.159,327.2,9,2,2.0,0,0.0,-1,0.0,0.0,0.0,0
13266,1469902169551,,,,,,,-0.06,-0.04,0.89,-2.4,2.6,-0.3,5380,4180,,,,,,,,,,,,,,,,,
13286,1469902169571,,,,,,,0.05,-0.04,0.95,-2.3,2.4,0.4,5360,4249,,,,,,,,,,,,,,,,,
13306,1469902169591,,,,,,,0.01,0.01,0.93,-2.5,0.8,0.5,5380,4180,,,,,,,,,,,,,,,,,
13326,1469902169611,,,,,,,-0.04,0.08,0.98,-2.7,-1.5,0.3,5420,4203,,,,,,,,,,,,,,,,,
13346,1469902169631,,,,61,,,-0.02,-0.01,0.92,-2.2,1.0,-0.1,5380,4156,1.266,3,39.543915,-122.3349,74.17,0.162,327.8,9,2,2.0,0,0.0,-1,0.0,,0.0,0
13366,1469902169651,,,,,,,0.02,-0.0,0.96,-2.3,1.4,0.0,5140,4180,,,,,,,,,,,,,,,,,
13386,1469902169671,,,,,,,0.08,0.08,0.96,-2.6,0.5,0.1,5240,4156,,,,,,,,,,,,,,,,,
13406,1469902169691,,,,,,,0.02,0.04,1.0,-3.3,-0.4,0.4,5180,4069,,,,,,,,,,,,,,,,,
13426,1469902169708,,,,,,,-0.02,-0.02,0.98,-2.5,0.4,0.2,5080,4026,,,,,,,,,,,,,,,,,
13446,1469902169728,1,279.1,207.3,70,209.3,,0.07,-0.0,0.99,-2.3,2.0,0.2,5060,4069,1.287,3,39.543892,-122.334923,74.0,0.164,328.2,9,2,2.0,0,0.0,-1,0.0,0.0,0.0,0
13466,1469902169748,,,,,,,0.08,-0.08,0.97,-2.2,0.9,0.3,4940,4047,,,,,,,,,,,,,,,,,
13486,1469902169768,,,,,,,0.07,0.04,0.92,-2.6,-0.1,0.2,5220,4090,,,,,,,,,,,,,,,,,
13506,1469902169794,,,,,,,0.12,-0.06,0.8,-2.5,0.4,0.3,5160,4090,,,,,,,,,,,,,,,,,
13526,1469902169814,,,,,,,0.11,-0.02,0.91,-2.7,1.1,0.2,5260,4180,,,,,,,,,,,,,,,,,
13546,1469902169834,,,,59,,,0.14,-0.01,0.85,-2.7,-1.6,0.3,5220,4180,1.289,3,39.543873,-122.334953,73.92,0.166,328.9,9,2,2.0,0,0.0,-1,0.0,,0.0,0
13566,1469902169854,,,,,,,0.12,-0.05,0.88,-3.0,-0.5,-0.2,5300,4090,,,,,,,,,,,,,,,,,
13586,1469902169874,,,,,,,0.11,-0.06,0.83,-2.7,0.3,-0.7,5360,4090,,,,,,,,,,,,,,,,,
13606,1469902169894,,,,,,,0.16,-0.04,0.94,-3.3,0.7,-0.2,5320,4112,,,,,,,,,,,,,,,,,
13626,1469902170007,,,,,,,0.14,-0.09,0.95,-3.0,-0.2,-0.3,5180,4135,,,,,,,,,,,,,,,,,
13646,1469902170027,0,278.3,207.3,76,209.2,,0.1,0.06,0.99,-3.2,-0.2,-0.8,5240,4047,1.247,3,39.543827,-122.335007,73.14,0.17,330.1,9,2,2.0,0,0.0,-1,0.0,0.0,0.0,0
13666,1469902170047,,,,,,,0.12,-0.13,0.82,-2.8,1.3,-1.0,5220,4006,,,,,,,,,,,,,,,,,
13686,1469902170067,,,,,,,0.13,-0.05,0.93,-2.6,1.9,-1.4,5060,4112,,,,,,,,,,,,,,,,,
13706,1469902170087,,,,,,,0.11,-0.04,0.94,-2.8,-0.8,-1.1,5240,4112,,,,,,,,,,,,,,,,,
13726,1469902170107,,,,,,,0.11,-0.05,1.04,-2.4,0.8,-0.8,5100,4069,,,,,,,,,,,,,,,,,
13746,1469902170127,,,,63,,,0.1,-0.08,0.89,-2.6,1.8,-0.8,5100,4069,1.285,3,39.543827,-122.335007,73.14,0.17,330.1,9,2,2.0,0,0.0,-1,0.0,,0.0,0
13766,1469902170147,,,,,,,0.11,-0.1,0.92,-2.6,0.6,-0.7,5180,4069,,,,,,,,,,,,,,,,,
13786,1469902170167,,,,,,,0.09,-0.05,0.94,-3.1,0.8,-0.7,5160,4026,,,,,,,,,,,,,,,,,
13806,1469902170094,,,,,,,0.04,-0.05,0.9,-2.6,1.5,-0.5,5100,4026,,,,,,,,,,,,,,,,,
13826,1469902170114,,,,,,,0.11,-0.09,1.0,-2.6,2.6,-0.6,5000,4069,,,,,,,,,,,,,,,,,
13846,1469902170134,0,278.5,206.8,91,209.1,,0.13,-0.1,0.98,-2.5,0.4,-0.1,5200,4069,1.231,3,39.543808,-122.33503,72.72,0.172,330.7,9,2,2.0,0,0.0,-1,0.0,0.0,0.0,0
13866,1469902170154,,,,,,,0.08,-0.09,1.08,-2.4,1.0,-0.2,5020,4047,,,,,,,,,,,,,,,,,
13886,1469902170174,,,,,,,0.16,0.0,1.0,-2.5,1.9,-0.4,5100,3984,,,,,,,,,,,,,,,,,
13906,1469902170194,,,,,,,0.17,-0.06,0.95,-2.8,1.1,-0.2,5140,4026,,,,,,,,,,,,,,,,,
13926,1469902170214,,,,,,,0.09,-0.06,0.92,-3.1,-0.0,-0.2,5100,3984,,,,,,,,,,,,,,,,,
13946,1469902170234,,,,72,,,0.12,-0.09,0.83,-2.8,0.8,-0.2,5160,3984,1.27,3,39.543785,-122.335052,72.28,0.174,331.2,9,2,2.0,0,0.0,-1,0.0,,0.0,0
13966,1469902170254,,,,,,,0.14,-0.01,0.93,-3.2,1.9,0.1,5080,4047,,,,,,,,,,,,,,,,,
13986,1469902170274,,,,,,,0.1,-0.09,0.95,-3.1,-0.6,0.4,4980,4006,,,,,,,,,,,,,,,,,
14006,1469902170293,,,,,,,0.12,-0.1,1.05,-2.5,0.6,0.4,5160,4026,,,,,,,,,,,,,,,,,
14026,1469902170313,,,,,,,0.16,-0.03,1.08,-2.8,1.0,0.4,5140,4026,,,,,,,,,,,,,,,,,
14046,1469902170333,0,279.6,207.3,51,209.2,13.84,0.14,-0.17,1.09,-2.3,-1.0,0.7,5100,3984,1.268,3,39.543766,-122.335083,71.86,0.176,331.8,9,2,2.0,0,0.0,-1,0.0,0.0,0.0,0
14066,1469902170353,,,,,,,0.14,-0.06,1.06,-2.2,-1.0,0.2,5060,3964,,,,,,,,,,,,,,,,,
14086,1469902170373,,,,,,,0.14,-0.13,0.94,-2.3,0.4,-0.1,5060,3944,,,,,,,,,,,,,,,,,
14106,1469902170391,,,,,,,0.12,-0.07,0.8,-1.8,-0.7,-0.5,5100,3944,,,,,,,,,,,,,,,,,
14126,1469902170411,,,,,,,0.12,-0.07,0.78,-2.5,-1.8,-0.6,5100,3964,,,,,,,,,,,,,,,,,
14146,1469902170431,,,,63,,,0.1,-0.03,0.61,-2.1,-0.2,-1.2,5080,3944,1.287,3,39.543743,-122.335106,71.45,0.178,332.5,9,2,2.0,0,0.0,-1,0.0,,0.0,0
14166,1469902170451,,,,,,,0.07,-0.05,0.6,-2.3,-0.2,-1.1,5080,3944,,,,,,,,,,,,,,,,,
14186,1469902170471,,,,,,,0.07,-0.02,0.63,-2.6,-1.5,-1.4,5040,3964,,,,,,,,,,,,,,,,,
14206,1469902170491,,,,,,,0.06,0.04,0.59,-2.3,-0.2,-1.4,5040,3964,,,,,,,,,,,,,,,,,
14226,1469902170510,,,,,,,0.08,-0.04,0.71,-2.3,1.1,-1.2,5060,3984,,,,,,,,,,,,,,,,,
14246,1469902170530,0,279.1,208.0,57,209.9,,0.12,0.08,0.73,-2.6,-1.8,-1.5,5080,4006,1.278,3,39.543724,-122.335129,70.96,0.18,333.2,9,2,2.0,0,0.0,-1,0.0,0.0,0.0,0
14266,1469902170550,,,,,,,0.11,0.07,0.77,-2.8,-0.4,-1.4,4980,4006,,,,,,,,,,,,,,,,,
14286,1469902170570,,,,,,,0.13,0.07,0.8,-2.4,0.8,-1.2,5000,4026,,,,,,,,,,,,,,,,,
14306,1469902170590,,,,,,,0.18,0.08,0.85,-2.8,-0.7,-0.8,5120,4006,,,,,,,,,,,,,,,,,
14326,1469902170610,,,,,,,0.15,0.03,0.89,-2.4,-0.7,-1.1,5120,4026,,,,,,,,,,,,,,,,,
14346,1469902170630,,,,42,,,0.11,0.02,0.84,-2.3,0.2,-1.4,5020,4026,1.277,3,39.543705,-122.335159,70.53,0.182,333.9,9,2,2.0,0,0.0,-1,0.0,,0.0,0
14366,1469902170650,,,,,,,0.18,0.01,0.87,-2.3,-0.8,-1.2,5140,4006,,,,,,,,,,,,,,,,,
14386,1469902170670,,,,,,,0.13,0.04,0.87,-2.6,-1.8,-1.0,5040,4006,,,,,,,,,,,,,,,,,
14406,1469902170690,,,,,,,0.07,-0.05,0.85,-2.1,-0.5,-1.2,5140,4006,,,,,,,,,,,,,,,,,
14426,1469902170809,,,,,,,0.12,0.02,0.96,-2.5,0.4,-1.1,5100,3984,,,,,,,,,,,,,,,,,
14446,1469902170829,0,279.8,207.3,59,209.1,,0.12,-0.01,0.93,-3.0,-1.6,-0.5,5020,3944,1.279,3,39.543663,-122.335197,69.67,0.185,335.0,9,2,2.0,0,0.0,-1,0.0,0.0,0.0,0
14466,1469902170849,,,,,,,0.04,0.04,0.93,-2.4,-0.7,-0.8,4980,3944,,,,,,,,,,,,,,,,,
14486,1469902170869,,,,,,,0.11,0.06,1.03,-3.0,0.5,-0.6,4920,3944,,,,,,,,,,,,,,,,,
14506,1469902170889,,,,,,,0.09,0.03,0.97,-3.4,-0.9,-0.2,4980,3944,,,,,,,,,,,,,,,,,
14526,1469902170909,,,,,,,0.06,0.08,0.94,-3.1,0.6,-0.2,5080,3984,,,,,,,,,,,,,,,,,
14546,1469902170929,,,,61,,,0.07,0.04,0.95,-3.6,0.9,0.1,5040,3964,1.245,3,39.543663,-122.335197,69.67,0.185,335.0,9,2,2.0,0,0.0,-1,0.0,,0.0,0
14566,1469902170949,,,,,,,0.1,0.01,0.94,-3.7,-0.3,0.5,5020,3984,,,,,,,,,,,,,,,,,
14586,1469902170969,,,,,,,0.05,0.13,0.92,-3.5,0.1,0.2,5120,4006,,,,,,,,,,,,,,,,,
14606,1469902170989,,,,,,,0.05,0.08,1.01,-4.0,2.3,0.4,5060,3944,,,,,,,,,,,,,,,,,
14626,1469902170906,,,,,,,0.09,0.07,1.02,-4.0,0.3,0.6,5120,3944,,,,,,,,,,,,,,,,,
14646,1469902170926,0,279.1,207.3,60,209.2,,0.04,0.13,1.11,-4.0,0.2,0.3,5060,3944,1.278,3,39.543644,-122.33522,69.48,0.187,335.6,9,2,2.0,0,0.0,-1,0.0,0.0,0.0,0
14666,1469902170946,,,,,,,0.06,0.1,1.16,-4.2,2.2,0.5,5140,3924,,,,,,,,,,,,,,,,,
14686,1469902170966,,,,,,,0.1,0.09,1.23,-4.1,0.4,1.0,4900,3944,,,,,,,,,,,,,,,,,
14706,1469902170993,,,,,,,0.07,0.23,1.25,-4.0,-0.2,0.6,5020,3944,,,,,,,,,,,,,,,,,
14726,1469902171013,,,,,,,0.05,0.15,1.25,-4.5,2.8,0.6,5060,3944,,,,,,,,,,,,,,,,,
14746,1469902171033,,,,60,,,0.09,0.21,1.27,-4.4,0.4,1.1,5040,3944,1.279,3,39.543621,-122.335243,69.26,0.189,336.2,9,2,2.0,0,0.0,-1,0.0,,0.0,0
14766,1469902171053,,,,,,,0.06,0.23,1.31,-4.4,0.3,0.8,5060,3924,,,,,,,,,,,,,,,,,
14786,1469902171073,,,,,,,0.06,0.21,1.33,-4.3,3.0,0.7,5080,3944,,,,,,,,,,,,,,,,,
14806,1469902171093,,,,,,,0.07,0.27,1.35,-4.6,1.4,1.3,4840,3944,,,,,,,,,,,,,,,,,
14826,1469902171113,,,,,,,0.06,0.29,1.37,-4.3,0.5,0.6,4980,3924,,,,,,,,,,,,,,,,,
14846,1469902171133,0,279.3,208.0,64,209.8,,0.07,0.28,1.31,-4.5,3.7,0.2,5060,3944,1.279,3,39.543602,-122.335274,69.08,0.191,336.7,9,2,2.0,0,0.0,-1,0.0,0.0,0.0,0
14866,1469902171153,,,,,,,0.13,0.24,1.3,-4.5,1.3,0.8,5040,3904,,,,,,,,,,,,,,,,,
14886,1469902171173,,,,,,,0.08,0.31,1.36,-4.1,0.6,-0.2,5000,3924,,,,,,,,,,,,,,,,,
14906,1469902171192,,,,,,,0.11,0.25,1.34,-4.4,3.2,-0.2,4980,3924,,,,,,,,,,,,,,,,,
14926,1469902171212,,,,,,,0.13,0.2,1.33,-4.1,1.1,0.1,4840,3944,,,,,,,,,,,,,,,,,
14946,1469902171232,,,,62,,,0.08,0.28,1.35,-3.8,0.1,-0.8,5180,3944,1.244,3,39.543583,-122.335297,69.01,0.193,337.3,9,2,2.0,0,0.0,-1,0.0,,0.0,0
14966,1469902171252,,,,,,,0.11,0.22,1.29,-4.1,3.2,-0.5,4840,3924,,,,,,,,,,,,,,,,,
14986,1469902171272,,,,,,,0.11,0.2,1.25,-3.8,0.9,-0.3,4980,3924,,,,,,,,,,,,,,,,,
15006,1469902171294,,,,,,,0.06,0.32,1.28,-3.6,-0.2,-0.8,4900,3944,,,,,,,,,,,,,,,,,
15026,1469902171314,,,,,,,0.08,0.23,1.26,-4.0,2.3,-0.4,5180,3944,,,,,,,,,,,,,,,,,
15046,1469902171334,0,279.8,207.6,65,209.3,13.88,0.07,0.22,1.23,-3.8,1.2,-0.1,4920,3964,1.291,3,39.543564,-122.33532,68.86,0.195,337.9,9,2,2.0,0,0.0,-1,0.0,0.0,0.0,0
15066,1469902171354,,,,,,,0.0,0.32,1.25,-3.7,-0.5,-0.5,5000,3924,,,,,,,,,,,,,,,,,
15086,1469902171374,,,,,,,0.01,0.18,1.26,-3.8,2.4,-0.5,4780,3944,,,,,,,,,,,,,,,,,
15106,1469902171391,,,,,,,0.07,0.24,1.18,-3.8,-0.2,-0.2,4980,3924,,,,,,,,,,,,,,,,,
15126,1469902171411,,,,,,,0.01,0.22,1.23,-3.6,-1.0,-0.6,5000,3944,,,,,,,,,,,,,,,,,
15146,1469902171431,,,,63,,,0.06,0.19,1.23,-4.0,1.2,-0.7,5120,3964,1.311,3,39.543545,-122.33535,68.67,0.197,338.5,9,2,2.0,0,0.0,-1,0.0,,0.0,0
15166,1469902171451,,,,,,,0.08,0.12,1.16,-4.1,-1.9,-0.1,4920,3924,,,,,,,,,,,,,,,,,
15186,1469902171471,,,,,,,0.04,0.16,1.11,-3.4,-2.3,-0.8,5060,3924,,,,,,,,,,,,,,,,,
15206,1469902171491,,,,,,,0.1,0.13,1.19,-3.8,-0.4,-0.6,4780,3904,,,,,,,,,,,,,,,,,
15226,1469902171610,,,,,,,0.06,0.05,1.2,-3.8,-3.0,-0.1,4940,3924,,,,,,,,,,,,,,,,,
15246,1469902171630,0,280.8,208.0,74,209.8,,-0.0,0.13,1.08,-3.2,-1.5,-0.9,4880,3944,1.237,3,39.543503,-122.335403,68.49,0.201,339.7,9,2,2.0,0,0.0,-1,0.0,0.0,0.0,0
15266,1469902171650,,,,,,,0.02,0.09,1.11,-3.9,-0.5,-0.6,5000,3884,,,,,,,,,,,,,,,,,
15286,1469902171670,,,,,,,0.04,0.03,1.09,-3.9,-3.3,-0.2,4720,3924,,,,,,,,,,,,,,,,,
15306,1469902171690,,,,,,,-0.01,0.11,1.04,-3.4,-2.0,-0.7,5080,3924,,,,,,,,,,,,,,,,,
15326,1469902171710,,,,,,,-0.0,0.03,1.09,-3.7,-1.0,-0.6,4880,3904,,,,,,,,,,,,,,,,,
15346,1469902171730,,,,65,,,-0.02,0.07,1.04,-3.7,-3.8,-0.6,5000,3904,1.29,3,39.543503,-122.335403,68.49,0.201,339.7,9,2,2.0,0,0.0,-1,0.0,,0.0,0
15366,1469902171750,,,,,,,-0.03,0.09,0.94,-3.4,-2.4,-0.8,4960,3846,,,,,,,,,,,,,,,,,
15386,1469902171770,,,,,,,-0.0,0.07,0.93,-3.5,-1.0,-0.6,5040,3884,,,,,,,,,,,,,,,,,
15406,1469902171691,,,,,,,-0.03,0.1,0.96,-3.9,-3.5,-0.4,4820,3884,,,,,,,,,,,,,,,,,
15426,1469902171711,,,,,,,-0.06,0.02,0.88,-3.3,-1.6,-0.8,5180,3846,,,,,,,,,,,,,,,,,
15446,1469902171731,0,279.1,207.3,88,209.2,,-0.02,0.08,0.9,-3.2,-0.3,-0.7,4900,3884,1.298,3,39.543484,-122.335426,68.29,0.203,340.3,9,2,2.0,0,0.0,-1,0.0,0.0,0.0,0
15466,1469902171751,,,,,,,-0.1,0.09,0.87,-3.7,-2.6,-0.6,4960,3846,,,,,,,,,,,,,,,,,
15486,1469902171771,,,,,,,-0.08,0.05,0.82,-3.2,-0.3,-1.2,4920,3884,,,,,,,,,,,,,,,,,
15506,1469902171793,,,,,,,-0.03,0.07,0.82,-3.3,-0.3,-0.5,5080,3904,,,,,,,,,,,,,,,,,
15526,1469902171813,,,,,,,-0.1,0.07,0.88,-3.5,-1.8,-0.7,5020,3904,,,,,,,,,,,,,,,,,
15546,1469902171833,,,,57,,,-0.09,0.04,0.88,-3.3,0.2,-1.0,4800,3904,1.265,3,39.543465,-122.335442,68.24,0.204,340.9,9,2,2.0,0,0.0,-1,0.0,,0.0,0
15566,1469902171853,,,,,,,-0.03,0.05,0.78,-3.0,-1.0,-0.5,5080,3864,,,,,,,,,,,,,,,,,
15586,1469902171873,,,,,,,-0.06,0.13,0.81,-2.9,-1.7,-1.1,4940,3864,,,,,,,,,,,,,,,,,
15606,1469902171893,,,,,,,-0.02,0.09,0.8,-3.3,0.1,-0.7,4880,3846,,,,,,,,,,,,,,,,,
15626,1469902171905,,,,,,,0.02,0.01,0.75,-2.7,-1.5,-0.2,4860,3826,,,,,,,,,,,,,,,,,
15646,1469902171925,0,279.3,207.3,76,209.1,,-0.05,0.13,0.69,-2.6,-1.4,-0.9,4780,3826,1.271,3,39.543442,-122.335464,68.25,0.206,341.5,9,2,2.0,0,0.0,-1,0.0,0.0,0.0,0
15666,1469902171945,,,,,,,-0.04,0.03,0.76,-2.8,0.9,-0.7,4700,3752,,,,,,,,,,,,,,,,,
15686,1469902171965,,,,,,,0.01,0.04,0.87,-2.4,-1.2,-0.4,4840,3733,,,,,,,,,,,,,,,,,
15706,1469902171993,,,,,,,-0.0,0.09,0.87,-2.3,-0.1,-0.5,4620,3752,,,,,,,,,,,,,,,,,
15726,1469902172013,,,,,,,0.05,0.07,0.94,-2.5,0.6,-0.3,4760,3924,,,,,,,,,,,,,,,,,
15746,1469902172033,,,,57,,,0.02,0.1,0.88,-2.6,-1.3,-0.4,4680,3864,1.237,3,39.543423,-122.335487,68.01,0.208,342.0,9,2,2.0,0,0.0,-1,0.0,,0.0,0
15766,1469902172053,,,,,,,0.06,0.06,0.86,-2.4,-0.6,-0.3,4600,3846,,,,,,,,,,,,,,,,,
15786,1469902172073,,,,,,,0.08,-0.01,0.88,-2.1,-0.9,-0.5,4580,3884,,,,,,,,,,,,,,,,,
15806,1469902172093,,,,,,,0.09,0.01,0.92,-1.8,0.3,-0.5,4440,3826,,,,,,,,,,,,,,,,,
15826,1469902172113,,,,,,,0.08,-0.01,0.93,-1.6,-1.0,-0.5,4600,3826,,,,,,,,,,,,,,,,,
15846,1469902172133,1,279.6,207.3,53,209.1,,0.12,-0.06,0.98,-1.6,-0.7,-0.2,4440,3826,1.194,3,39.543404,-122.335518,68.17,0.21,342.6,9,2,2.0,0,0.0,-1,0.0,0.0,0.0,0
15866,1469902172153,,,,,,,0.1,-0.14,0.94,-1.3,-0.2,-0.2,4420,3846,,,,,,,,,,,,,,,,,
15886,1469902172173,,,,,,,0.12,-0.11,0.9,-1.1,-0.4,-0.3,4460,3807,,,,,,,,,,,,,,,,,
15906,1469902172193,,,,,,,0.1,-0.17,0.91,-0.9,-1.6,-0.4,4280,3826,,,,,,,,,,,,,,,,,
15926,1469902172213,,,,,,,0.13,-0.17,0.89,-0.6,-0.9,-0.4,4340,3807,,,,,,,,,,,,,,,,,
15946,1469902172233,,,,57,,,0.18,-0.1,0.85,-0.9,-0.8,-0.8,4200,3807,1.129,3,39.543385,-122.335541,67.69,0.212,343.1,9,2,2.0,0,0.0,-1,0.0,,0.0,0
15966,1469902172253,,,,,,,0.14,-0.1,0.96,-1.1,-1.1,-0.9,4240,3807,,,,,,,,,,,,,,,,,
15986,1469902172273,,,,,,,0.09,-0.06,0.98,-1.5,-1.2,-0.9,4060,3789,,,,,,,,,,,,,,,,,
16006,1469902172392,,,,,,,0.13,0.0,0.93,-1.4,-1.5,-1.2,4160,3752,,,,,,,,,,,,,,,,,
16026,1469902172412,,,,,,,0.14,0.02,0.9,-1.4,-1.3,-1.0,4020,3807,,,,,,,,,,,,,,,,,
16046,1469902172432,0,278.6,207.2,53,209.1,13.85,0.15,-0.08,0.94,-1.2,-1.8,-1.0,4100,3826,1.083,4,39.543343,-122.335594,67.07,0.216,344.2,9,2,2.0,0,0.0,-1,0.0,0.0,0.0,0
16066,1469902172452,,,,,,,0.17,-0.04,1.04,-1.3,-1.9,-1.0,4000,3733,,,,,,,,,,,,,,,,,
16086,1469902172472,,,,,,,0.17,-0.09,1.02,-1.6,-1.8,-0.6,3980,3789,,,,,,,,,,,,,,,,,
16106,1469902172492,,,,,,,0.16,-0.14,1.01,-1.5,-1.2,-0.7,3960,3733,,,,,,,,,,,,,,,,,
16126,1469902172512,,,,,,,0.13,-0.17,1.05,-1.9,-0.8,-0.2,3960,3733,,,,,,,,,,,,,,,,,
16146,1469902172532,,,,53,,,0.15,-0.18,1.08,-2.0,-1.6,-0.1,3800,3769,1.061,4,39.543343,-122.335594,67.07,0.216,344.2,9,2,2.0,0,0.0,-1,0.0,,0.0,0
16166,1469902172552,,,,,,,0.17,-0.19,1.13,-1.9,-0.5,-0.2,3740,3733,,,,,,,,,,,,,,,,,
16186,1469902172572,,,,,,,0.19,-0.13,1.11,-1.9,-0.0,-0.3,3720,3769,,,,,,,,,,,,,,,,,
16206,1469902172491,,,,,,,0.18,-0.1,1.05,-2.2,0.4,-0.4,3660,3715,,,,,,,,,,,,,,,,,
16226,1469902172511,,,,,,,0.21,-0.11,1.07,-2.1,0.1,-0.5,3760,3752,,,,,,,,,,,,,,,,,
16246,1469902172531,1,280.0,207.7,53,209.6,,0.23,-0.09,1.08,-2.1,-0.0,-0.5,3680,3752,0.985,4,39.543324,-122.335602,66.71,0.218,344.7,9,2,2.0,0,0.0,-1,0.0,0.0,0.0,0
16266,1469902172551,,,,,,,0.21,-0.06,1.08,-2.2,-0.1,-0.6,3540,3752,,,,,,,,,,,,,,,,,
16286,1469902172571,,,,,,,0.17,-0.07,1.07,-2.4,0.0,-0.3,3680,3769,,,,,,,,,,,,,,,,,
16306,1469902172591,,,,,,,0.17,-0.1,1.09,-2.2,0.1,-0.2,3560,3752,,,,,,,,,,,,,,,,,
16326,1469902172611,,,,,,,0.2,-0.08,1.03,-2.3,0.3,-0.5,3440,3715,,,,,,,,,,,,,,,,,
16346,1469902172631,,,,52,,,0.19,-0.04,1.07,-2.3,1.1,-0.5,3540,3696,0.925,4,39.543304,-122.335632,66.41,0.22,345.2,9,2,2.0,0,0.0,-1,0.0,,0.0,0
16366,1469902172651,,,,,,,0.16,-0.08,1.04,-2.2,0.8,-0.5,3400,3696,,,,,,,,,,,,,,,,,
16386,1469902172671,,,,,,,0.13,-0.05,1.13,-2.2,0.3,-0.6,3440,3644,,,,,,,,,,,,,,,,,
16406,1469902172691,,,,,,,0.17,-0.04,1.13,-2.1,-0.0,-0.5,3380,3644,,,,,,,,,,,,,,,,,
16426,1469902172711,,,,,,,0.17,0.02,1.17,-2.5,0.7,-0.6,3400,3696,,,,,,,,,,,,,,,,,
16446,1469902172731,0,280.1,207.9,54,209.7,,0.14,-0.02,1.12,-2.5,0.4,-0.5,3320,3696,0.888,4,39.543285,-122.335655,66.17,0.221,345.8,9,2,2.0,0,0.0,-1,0.0,0.0,0.0,0
16466,1469902172751,,,,,,,0.12,-0.02,1.04,-2.3,-0.1,-0.5,3180,3715,,,,,,,,,,,,,,,,,
16486,1469902172771,,,,,,,0.13,-0.0,1.1,-2.4,-0.6,-0.6,3300,3696,,,,,,,,,,,,,,,,,
16506,1469902172793,,,,,,,0.14,-0.01,1.07,-2.6,0.5,-0.8,3160,3661,,,,,,,,,,,,,,,,,
16526,1469902172813,,,,,,,0.14,-0.01,1.06,-2.7,0.9,-0.9,3220,3680,,,,,,,,,,,,,,,,,
16546,1469902172833,,,,44,,,0.12,-0.02,1.05,-2.5,0.1,-1.0,3080,3661,0.875,4,39.543266,-122.335678,65.71,0.223,346.4,9,2,2.0,0,0.0,-1,0.0,,0.0,0
16566,1469902172853,,,,,,,0.12,-0.02,1.07,-2.4,-0.4,-0.9,3100,3644,,,,,,,,,,,,,,,,,
16586,1469902172873,,,,,,,0.13,0.0,1.02,-2.4,-0.7,-1.0,3060,3661,,,,,,,,,,,,,,,,,
16606,1469902172893,,,,,,,0.14,-0.0,0.99,-2.4,-0.1,-1.0,3000,3610,,,,,,,,,,,,,,,,,
16626,1469902172907,,,,,,,0.12,0.0,0.97,-2.5,0.5,-1.4,3020,3627,,,,,,,,,,,,,,,,,
16646,1469902172927,0,281.0,208.4,47,210.2,,0.09,-0.02,0.98,-2.6,-0.7,-1.2,2940,3593,0.837,5,39.543247,-122.335709,65.22,0.225,346.9,9,2,2.0,0,0.0,-1,0.0,0.0,0.0,0
16666,1469902172947,,,,,,,0.11,-0.04,1.03,-2.5,-0.7,-1.2,2920,3593,,,,,,,,,,,,,,,,,
16686,1469902172967,,,,,,,0.14,-0.02,1.04,-2.4,-1.2,-1.2,2900,3576,,,,,,,,,,,,,,,,,
16706,1469902172993,,,,,,,0.19,-0.03,1.09,-2.6,-0.2,-0.9,2960,3576,,,,,,,,,,,,,,,,,
16726,1469902173013,,,,,,,0.16,-0.08,1.06,-2.5,-0.5,-1.0,2980,3544,,,,,,,,,,,,,,,,,
16746,1469902173033,,,,46,,,0.14,-0.02,1.1,-2.5,-0.4,-1.0,3100,3560,0.828,5,39.543228,-122.335716,64.91,0.227,347.5,9,2,2.0,0,0.0,-1,0.0,,0.0,0
16766,1469902173053,,,,,,,0.14,-0.05,1.14,-2.5,-0.5,-1.1,3080,3544,,,,,,,,,,,,,,,,,
16786,1469902173073,,,,,,,0.18,-0.05,1.16,-2.4,-1.4,-1.3,3000,3560,,,,,,,,,,,,,,,,,
16806,1469902173193,,,,,,,0.2,0.01,1.16,-2.6,-0.3,-1.2,3120,3527,,,,,,,,,,,,,,,,,
16826,1469902173213,,,,,,,0.21,-0.0,1.12,-2.5,-0.1,-1.4,3080,3527,,,,,,,,,,,,,,,,,
16846,1469902173233,0,280.0,207.8,48,209.8,,0.2,-0.02,1.12,-2.3,-0.6,-1.3,3140,3544,0.886,4,39.54319,-122.33577,64.0,0.231,348.8,9,2,2.0,0,0.0,-1,0.0,0.0,0.0,0
16866,1469902173253,,,,,,,0.18,-0.01,1.14,-2.2,-0.8,-1.2,3140,3495,,,,,,,,,,,,,,,,,
16886,1469902173273,,,,,,,0.21,-0.07,1.15,-1.7,-1.5,-1.2,3200,3480,,,,,,,,,,,,,,,,,
16906,1469902173293,,,,,,,0.25,-0.03,1.1,-1.4,-2.1,-1.1,3200,3495,,,,,,,,,,,,,,,,,
16926,1469902173313,,,,,,,0.26,-0.01,1.1,-1.2,-1.7,-1.2,3280,3495,,,,,,,,,,,,,,,,,
16946,1469902173333,,,,55,,,0.23,-0.03,1.1,-1.2,-0.1,-1.3,3240,3464,0.934,4,39.54319,-122.33577,64.0,0.231,348.8,9,2,2.0,0,0.0,-1,0.0,,0.0,0
16966,1469902173353,,,,,,,0.25,-0.05,1.06,-1.3,0.3,-1.1,3280,3512,,,,,,,,,,,,,,,,,
16986,1469902173373,,,,,,,0.25,-0.05,1.05,-1.2,-0.5,-0.9,3280,3449,,,,,,,,,,,,,,,,,
17006,1469902173293,,,,,,,0.23,0.02,1.04,-1.3,-0.8,-0.9,3380,3464,,,,,,,,,,,,,,,,,
17026,1469902173313,,,,,,,0.25,-0.01,1.06,-1.3,-0.9,-1.2,3240,3449,,,,,,,,,,,,,,,,,
17046,1469902173333,0,280.1,208.1,79,210.2,13.76,0.27,-0.02,1.04,-1.2,-0.7,-1.4,3440,3418,0.951,4,39.543171,-122.3358,63.29,0.233,349.3,9,2,2.0,0,0.0,-1,0.0,0.0,0.0,0
17066,1469902173353,,,,,,,0.3,-0.0,1.03,-1.2,-0.3,-1.4,3400,3433,,,,,,,,,,,,,,,,,
17086,1469902173373,,,,,,,0.3,-0.01,1.01,-1.2,-0.4,-1.6,3460,3433,,,,,,,,,,,,,,,,,
17106,1469902173391,,,,,,,0.28,-0.01,1.0,-1.2,-0.8,-1.5,3380,3387,,,,,,,,,,,,,,,,,
17126,1469902173411,,,,,,,0.26,0.03,0.98,-1.3,-1.0,-1.2,3560,3418,,,,,,,,,,,,,,,,,
17146,1469902173431,,,,53,,,0.25,0.04,1.04,-1.4,-0.8,-1.2,3580,3358,1.057,4,39.543156,-122.335823,62.7,0.234,350.0,9,2,2.0,0,0.0,-1,0.0,,0.0,0
17166,1469902173451,,,,,,,0.27,-0.02,1.05,-1.6,-0.9,-1.1,3600,3343,,,,,,,,,,,,,,,,,
17186,1469902173471,,,,,,,0.29,-0.01,1.07,-1.6,-0.7,-1.1,3620,3358,,,,,,,,,,,,,,,,,
17206,1469902173491,,,,,,,0.32,-0.03,1.02,-1.4,-0.7,-1.1,3580,3343,,,,,,,,,,,,,,,,,
17226,1469902173511,,,,,,,0.34,0.01,0.99,-1.2,0.0,-1.3,3680,3329,,,,,,,,,,,,,,,,,
17246,1469902173531,0,278.3,206.5,52,208.6,,0.34,-0.04,1.0,-1.2,0.2,-1.2,3700,3343,1.092,4,39.543137,-122.335838,61.78,0.236,350.6,9,2,2.0,0,0.0,-1,0.0,0.0,0.0,0
17266,1469902173551,,,,,,,0.31,-0.06,0.98,-1.3,-0.6,-1.2,3760,3343,,,,,,,,,,,,,,,,,
17286,1469902173571,,,,,,,0.27,-0.06,1.0,-1.2,-1.3,-1.2,3680,3300,,,,,,,,,,,,,,,,,
17306,1469902173591,,,,,,,0.26,-0.04,1.05,-1.1,-2.1,-1.2,3840,3286,,,,,,,,,,,,,,,,,
