"Interval"|"ms"|0|0|1,"Utc"|"ms"|0|0|1,"FuelLevel"|"F"|0|100|5,"OilTemp"|"F"|0.0|300.0|5,"Coolant"|"F"|0.0|300.0|5,"OilPress"|"PSI"|0|150|10,"EngineTemp"|"F"|0.0|300.0|5,"Battery"|"Volts"|0.0|20.0|1,"AccelX"|"G"|-3.0|3.0|50,"AccelY"|"G"|-3.0|3.0|50,"AccelZ"|"G"|-3.0|3.0|50,"Yaw"|"Deg/Sec"|-300.0|300.0|50,"Pitch"|"Deg/Sec"|-300.0|300.0|50,"Roll"|"Deg/Sec"|-300.0|300.0|50,"RPM"|""|0|10000|50,"Driveshaft"|"RPM"|0|5000|50,"GearRatio"|""|-5.0|5.0|10,"Gear"|""|-1|5|10,"Latitude"|"Degrees"|-180.0|180.0|10,"Longitude"|"Degrees"|-180.0|180.0|10,"Speed"|"MPH"|0.0|150.0|10,"Distance"|"Miles"|0.0|0.0|10,"Altitude"|"Feet"|0.0|4000.0|10,"GPSSats"|""|0|20|10,"GPSQual"|""|0|5|10,"GPSDOP"|""|0.0|20.0|10,"LapCount"|""|0|0|10,"LapTime"|"Min"|0.0|0.0|10,"Sector"|""|0|0|10,"SectorTime"|"Min"|0.0|0.0|10,"PredTime"|"Min"|0.0|0.0|5,"ElapsedTime"|"Min"|0.0|0.0|10,"CurrentLap"|""|0|0|10
884566,1469904650911,,,,,,,-0.01,0.07,0.98,-2.9,0.2,-0.2,380,0,,,,,,,,,,,,,,,,,
884586,1469904650931,,,,,,,-0.0,0.08,0.98,-2.9,0.3,-0.1,380,0,,,,,,,,,,,,,,,,,
884606,1469904650951,,,,,,,-0.0,0.08,0.99,-2.9,0.4,-0.1,380,0,,,,,,,,,,,,,,,,,
884626,1469904650971,,,,,,,-0.0,0.08,0.99,-2.9,0.4,-0.2,160,0,,,,,,,,,,,,,,,,,
884646,1469904650993,0,220.0,189.2,0,188.1,,-0.0,0.08,0.99,-2.9,0.3,-0.3,160,0,0.0,0,39.54026,-122.331787,3.91,3.279,379.2,8,3,2.2,0,0.0,12,0.2467,0.0,14.1167,1
884666,1469904651013,,,,,,,-0.01,0.08,0.99,-2.9,0.2,-0.3,160,0,,,,,,,,,,,,,,,,,
884686,1469904651033,,,,,,,-0.01,0.08,0.99,-2.9,0.2,-0.3,160,0,,,,,,,,,,,,,,,,,
884706,1469904651053,,,,,,,-0.01,0.07,0.99,-2.9,0.2,-0.4,160,0,,,,,,,,,,,,,,,,,
884726,1469904651073,,,,,,,-0.01,0.07,0.99,-2.9,0.2,-0.4,160,0,,,,,,,,,,,,,,,,,
884746,1469904651099,,,,0,,,-0.01,0.07,0.98,-2.9,0.1,-0.4,160,0,0.0,0,39.540256,-122.331787,4.14,3.28,379.7,8,3,2.2,0,0.0,12,0.2467,,14.1183,1
884766,1469904651119,,,,,,,-0.01,0.07,0.98,-2.9,0.1,-0.4,160,0,,,,,,,,,,,,,,,,,
884786,1469904651139,,,,,,,-0.01,0.07,0.98,-2.9,0.2,-0.3,160,0,,,,,,,,,,,,,,,,,
884806,1469904651159,,,,,,,-0.01,0.07,0.98,-2.9,0.1,-0.3,160,0,,,,,,,,,,,,,,,,,
884826,1469904651179,,,,,,,-0.01,0.06,0.99,-3.0,0.3,-0.2,160,0,,,,,,,,,,,,,,,,,
884846,1469904651297,0,221.1,188.8,0,187.3,,-0.01,0.07,0.98,-3.1,0.2,0.0,160,0,0.0,0,39.540256,-122.331787,3.56,3.28,380.5,8,3,2.2,0,0.0,12,0.2467,0.0,14.1217,1
884866,1469904651317,,,,,,,-0.01,0.07,0.98,-3.1,0.4,0.1,160,0,,,,,,,,,,,,,,,,,
884886,1469904651337,,,,,,,-0.01,0.08,0.98,-3.0,0.3,0.0,160,0,,,,,,,,,,,,,,,,,
884906,1469904651357,,,,,,,-0.01,0.09,0.98,-3.0,0.1,-0.0,160,0,,,,,,,,,,,,,,,,,
884926,1469904651377,,,,,,,-0.0,0.1,0.99,-3.0,0.0,0.0,160,0,,,,,,,,,,,,,,,,,
884946,1469904651397,,,,0,,,0.01,0.09,0.99,-3.0,0.2,0.1,160,0,0.0,0,39.540256,-122.331787,3.56,3.28,380.5,8,3,2.2,0,0.0,12,0.2467,,14.1217,1
884966,1469904651417,,,,,,,0.01,0.08,0.99,-3.0,0.5,-0.1,160,0,,,,,,,,,,,,,,,,,
884986,1469904651437,,,,,,,0.0,0.08,0.99,-3.0,0.4,-0.2,160,0,,,,,,,,,,,,,,,,,
885006,1469904651457,,,,,,,-0.0,0.08,0.99,-3.0,0.4,-0.3,160,0,,,,,,,,,,,,,,,,,
885026,1469904651477,,,,,,,0.0,0.08,0.98,-3.0,0.4,-0.3,160,0,,,,,,,,,,,,,,,,,
885046,1469904651399,0,220.7,187.4,0,186.4,10.43,0.01,0.09,0.99,-3.1,0.4,-0.2,160,0,0.0,0,39.540256,-122.331787,3.56,3.28,380.5,8,3,2.2,0,0.0,12,0.2467,0.0,14.1233,1
885066,1469904651419,,,,,,,0.01,0.08,0.99,-3.0,0.4,-0.1,160,0,,,,,,,,,,,,,,,,,
885086,1469904651439,,,,,,,0.01,0.08,0.99,-3.0,0.5,-0.2,160,0,,,,,,,,,,,,,,,,,
885106,1469904651459,,,,,,,0.0,0.08,0.98,-2.9,0.4,-0.3,160,0,,,,,,,,,,,,,,,,,
885126,1469904651479,,,,,,,0.0,0.08,0.98,-2.9,0.3,-0.3,160,0,,,,,,,,,,,,,,,,,
885146,1469904651499,,,,0,,,0.01,0.08,0.99,-2.9,0.3,-0.2,160,0,0.0,0,39.540256,-122.331787,2.91,3.28,380.9,8,3,2.2,0,0.0,12,0.2467,,14.125,1
885166,1469904651519,,,,,,,0.01,0.08,0.98,-3.0,0.5,-0.1,160,0,,,,,,,,,,,,,,,,,
885186,1469904651539,,,,,,,0.0,0.08,0.98,-3.0,0.4,-0.1,160,0,,,,,,,,,,,,,,,,,
885206,1469904651559,,,,,,,0.0,0.08,0.98,-3.0,0.3,-0.0,160,0,,,,,,,,,,,,,,,,,
885226,1469904651579,,,,,,,0.0,0.08,0.99,-3.0,0.2,-0.1,160,0,,,,,,,,,,,,,,,,,
885246,1469904651599,0,219.9,187.9,0,188.1,,0.0,0.08,0.98,-3.0,0.2,-0.2,160,0,0.0,0,39.540256,-122.331787,2.22,3.28,380.8,8,3,2.2,0,0.0,12,0.2467,0.0,14.1267,1
885266,1469904651619,,,,,,,0.0,0.09,0.98,-3.0,0.1,-0.1,160,0,,,,,,,,,,,,,,,,,
885286,1469904651639,,,,,,,0.01,0.08,0.98,-2.9,0.3,-0.1,160,0,,,,,,,,,,,,,,,,,
885306,1469904651659,,,,,,,0.01,0.07,0.98,-2.9,0.3,-0.2,180,0,,,,,,,,,,,,,,,,,
885326,1469904651679,,,,,,,0.0,0.07,0.98,-2.9,0.2,-0.4,180,0,,,,,,,,,,,,,,,,,
885346,1469904651699,,,,0,,,-0.0,0.06,0.97,-2.9,0.2,-0.4,180,0,0.0,0,39.540256,-122.331787,1.71,3.28,380.5,8,3,2.2,0,0.0,12,0.2467,,14.1283,1
885366,1469904651719,,,,,,,-0.0,0.06,0.97,-2.9,0.3,-0.3,180,0,,,,,,,,,,,,,,,,,
885386,1469904651739,,,,,,,-0.0,0.07,0.98,-2.9,0.3,-0.3,180,0,,,,,,,,,,,,,,,,,
885406,1469904651759,,,,,,,-0.0,0.08,0.98,-2.9,0.3,-0.3,180,0,,,,,,,,,,,,,,,,,
885426,1469904651779,,,,,,,-0.0,0.07,0.98,-2.9,0.2,-0.3,160,0,,,,,,,,,,,,,,,,,
885446,1469904651799,0,220.1,188.4,0,187.0,,-0.0,0.07,0.98,-2.9,0.1,-0.3,160,0,0.0,0,39.540256,-122.331787,0.0,3.28,380.2,8,3,2.2,0,0.0,12,0.2467,0.0,14.13,1
885466,1469904651819,,,,,,,-0.0,0.07,0.98,-2.9,0.1,-0.4,160,0,,,,,,,,,,,,,,,,,
885486,1469904651839,,,,,,,-0.0,0.06,0.98,-2.8,0.2,-0.4,160,0,,,,,,,,,,,,,,,,,
885506,1469904651859,,,,,,,-0.01,0.05,0.98,-2.9,0.3,-0.3,160,0,,,,,,,,,,,,,,,,,
885526,1469904651879,,,,,,,-0.01,0.06,0.98,-3.0,0.2,-0.1,160,0,,,,,,,,,,,,,,,,,
885546,1469904651899,,,,0,,,-0.01,0.08,0.98,-3.0,0.3,0.1,160,0,0.0,0,39.540256,-122.331787,0.0,3.28,380.2,8,3,2.2,0,0.0,12,0.2467,,14.13,1
885566,1469904651910,,,,,,,-0.0,0.07,0.98,-3.0,0.3,0.1,160,0,,,,,,,,,,,,,,,,,
885586,1469904651930,,,,,,,-0.0,0.08,0.99,-2.9,0.2,-0.0,160,0,,,,,,,,,,,,,,,,,
885606,1469904651950,,,,,,,0.0,0.09,0.99,-3.0,0.1,0.0,160,0,,,,,,,,,,,,,,,,,
885626,1469904651970,,,,,,,-0.0,0.11,1.0,-3.2,0.2,0.1,160,0,,,,,,,,,,,,,,,,,
885646,1469904652098,0,220.9,189.0,0,187.7,,0.0,0.11,0.99,-3.2,0.4,0.1,180,0,0.0,0,39.540256,-122.331787,0.0,3.28,379.6,8,3,2.2,0,0.0,12,0.2467,0.0,14.135,1
885666,1469904652118,,,,,,,0.0,0.11,0.98,-3.2,0.4,-0.1,180,0,,,,,,,,,,,,,,,,,
885686,1469904652138,,,,,,,0.0,0.11,0.98,-3.1,0.2,-0.2,180,0,,,,,,,,,,,,,,,,,
885706,1469904652158,,,,,,,-0.0,0.1,0.98,-3.1,0.2,-0.2,180,0,,,,,,,,,,,,,,,,,
885726,1469904652178,,,,,,,0.0,0.09,0.98,-3.0,0.2,-0.2,180,0,,,,,,,,,,,,,,,,,
885746,1469904652198,,,,0,,,0.0,0.08,0.98,-2.9,0.4,-0.4,160,0,0.0,0,39.540256,-122.331787,0.0,3.28,379.6,8,3,2.2,0,0.0,12,0.2467,,14.135,1
885766,1469904652218,,,,,,,-0.0,0.08,0.98,-2.9,0.2,-0.5,160,0,,,,,,,,,,,,,,,,,
885786,1469904652238,,,,,,,-0.0,0.07,0.98,-2.9,0.2,-0.5,160,0,,,,,,,,,,,,,,,,,
885806,1469904652258,,,,,,,-0.0,0.07,0.98,-2.9,0.3,-0.4,160,0,,,,,,,,,,,,,,,,,
885826,1469904652278,,,,,,,0.0,0.08,0.98,-3.0,0.3,-0.3,160,0,,,,,,,,,,,,,,,,,
885846,1469904652199,0,219.6,187.6,0,187.9,,0.0,0.09,0.98,-3.1,0.5,-0.1,160,0,0.0,0,39.540256,-122.331787,0.0,3.28,379.4,8,3,2.2,0,0.0,12,0.2467,0.0,14.1367,1
885866,1469904652219,,,,,,,-0.0,0.09,0.97,-3.1,0.6,-0.0,180,0,,,,,,,,,,,,,,,,,
885886,1469904652239,,,,,,,0.01,0.08,0.96,-3.0,0.3,-0.0,180,0,,,,,,,,,,,,,,,,,
885906,1469904652259,,,,,,,0.02,0.01,0.99,-2.9,-0.1,0.0,180,0,,,,,,,,,,,,,,,,,
885926,1469904652279,,,,,,,-0.04,0.03,0.98,-3.0,1.7,0.0,180,0,,,,,,,,,,,,,,,,,
885946,1469904652299,,,,0,,,-0.05,-0.04,0.95,-2.9,0.8,-0.1,180,0,0.0,0,39.540256,-122.331802,0.0,3.28,379.3,8,3,2.2,0,0.0,12,0.2467,,14.1383,1
885966,1469904652319,,,,,,,-0.08,-0.03,0.94,-3.0,1.2,0.0,180,0,,,,,,,,,,,,,,,,,
885986,1469904652339,,,,,,,-0.05,-0.04,0.97,-3.0,0.1,-0.3,180,0,,,,,,,,,,,,,,,,,
886006,1469904652359,,,,,,,-0.06,-0.01,0.95,-2.8,0.2,-0.2,180,0,,,,,,,,,,,,,,,,,
886026,1469904652379,,,,,,,-0.05,0.02,0.95,-2.9,-0.0,-0.2,180,0,,,,,,,,,,,,,,,,,
886046,1469904652399,0,220.7,188.7,0,186.2,10.42,-0.05,-0.01,0.94,-2.8,-0.4,-0.1,180,0,0.0,0,39.540256,-122.331802,0.0,3.28,379.2,8,3,2.0,0,0.0,12,0.2467,0.0,14.14,1
886066,1469904652419,,,,,,,-0.04,-0.01,0.96,-2.9,-0.2,-0.3,180,0,,,,,,,,,,,,,,,,,
886086,1469904652439,,,,,,,-0.04,-0.01,0.96,-3.0,-0.3,-0.5,160,0,,,,,,,,,,,,,,,,,
886106,1469904652459,,,,,,,-0.04,0.0,0.96,-3.0,-0.4,-0.5,160,0,,,,,,,,,,,,,,,,,
886126,1469904652479,,,,,,,-0.03,0.01,0.96,-3.0,-0.4,-0.5,160,0,,,,,,,,,,,,,,,,,
886146,1469904652499,,,,0,,,-0.03,0.01,0.97,-3.0,-0.4,-0.5,160,0,0.0,0,39.540256,-122.331802,0.0,3.28,379.1,8,3,2.0,0,0.0,12,0.2467,,14.1417,1
886166,1469904652519,,,,,,,-0.03,0.0,0.97,-2.9,-0.2,-0.5,160,0,,,,,,,,,,,,,,,,,
886186,1469904652539,,,,,,,-0.03,0.01,0.97,-2.8,-0.4,-0.7,160,0,,,,,,,,,,,,,,,,,
886206,1469904652559,,,,,,,-0.04,0.0,0.97,-2.9,-0.1,-0.7,160,0,,,,,,,,,,,,,,,,,
886226,1469904652579,,,,,,,-0.03,0.01,0.97,-2.9,-0.1,-0.5,160,0,,,,,,,,,,,,,,,,,
886246,1469904652598,0,221.0,189.1,0,186.8,,-0.03,0.01,0.96,-2.9,-0.0,-0.3,160,0,0.0,0,39.540256,-122.331802,0.0,3.28,379.5,8,3,2.0,0,0.0,12,0.2467,0.0,14.1433,1
886266,1469904652618,,,,,,,-0.03,0.03,0.97,-3.0,-0.1,-0.3,160,0,,,,,,,,,,,,,,,,,
886286,1469904652638,,,,,,,-0.03,0.04,0.97,-3.1,0.0,-0.1,160,0,,,,,,,,,,,,,,,,,
886306,1469904652658,,,,,,,-0.03,0.05,0.97,-3.1,0.2,-0.0,180,0,,,,,,,,,,,,,,,,,
886326,1469904652678,,,,,,,-0.03,0.06,0.98,-3.1,0.3,-0.0,180,0,,,,,,,,,,,,,,,,,
886346,1469904652698,,,,0,,,-0.03,0.06,0.98,-3.0,0.2,-0.1,180,0,0.0,0,39.540256,-122.331802,0.0,3.28,379.5,8,3,2.0,0,0.0,12,0.2467,,14.145,1
886366,1469904652718,,,,,,,-0.02,0.06,0.98,-3.0,0.2,-0.2,180,0,,,,,,,,,,,,,,,,,
886386,1469904652738,,,,,,,-0.02,0.08,0.99,-3.0,0.1,-0.2,180,0,,,,,,,,,,,,,,,,,
886406,1469904652758,,,,,,,-0.01,0.08,0.99,-3.0,0.5,-0.1,180,0,,,,,,,,,,,,,,,,,
886426,1469904652778,,,,,,,0.0,0.07,0.99,-3.0,0.8,-0.2,180,0,,,,,,,,,,,,,,,,,
886446,1469904652897,0,221.0,189.2,0,187.0,,0.0,0.07,0.99,-3.0,0.7,-0.2,180,0,0.0,0,39.540256,-122.331802,0.0,3.28,379.5,8,3,2.0,0,0.0,12,0.2467,0.0,14.1483,1
886466,1469904652917,,,,,,,0.0,0.06,0.99,-2.9,0.6,-0.3,180,0,,,,,,,,,,,,,,,,,
886486,1469904652937,,,,,,,0.0,0.07,0.99,-3.0,0.5,-0.3,180,0,,,,,,,,,,,,,,,,,
886506,1469904652957,,,,,,,0.0,0.06,0.99,-3.0,0.6,-0.3,260,0,,,,,,,,,,,,,,,,,
886526,1469904652977,,,,,,,0.0,0.06,0.98,-2.9,0.6,-0.3,260,0,,,,,,,,,,,,,,,,,
886546,1469904652997,,,,0,,,0.0,0.06,0.98,-2.9,0.5,-0.3,260,0,0.0,0,39.540256,-122.331802,0.0,3.28,379.5,8,3,2.0,0,0.0,12,0.2467,,14.1483,1
886566,1469904653017,,,,,,,-0.0,0.07,0.99,-2.9,0.5,-0.2,280,0,,,,,,,,,,,,,,,,,
886586,1469904653037,,,,,,,-0.01,0.08,0.99,-2.9,0.3,-0.2,280,0,,,,,,,,,,,,,,,,,
886606,1469904653057,,,,,,,-0.01,0.08,0.98,-2.9,0.2,-0.2,280,0,,,,,,,,,,,,,,,,,
886626,1469904653077,,,,,,,-0.0,0.1,0.99,-3.0,0.2,-0.2,320,0,,,,,,,,,,,,,,,,,
886646,1469904652998,0,221.1,189.0,0,185.5,,-0.0,0.08,0.99,-3.0,0.3,-0.2,320,0,0.0,0,39.540256,-122.331802,0.0,3.28,379.5,8,3,2.0,0,0.0,12,0.2467,0.0,14.15,1
886666,1469904653018,,,,,,,0.0,0.09,0.99,-3.0,0.2,-0.2,420,0,,,,,,,,,,,,,,,,,
886686,1469904653038,,,,,,,0.0,0.1,1.01,-3.1,0.2,-0.1,420,0,,,,,,,,,,,,,,,,,
886706,1469904653058,,,,,,,0.0,0.11,1.0,-3.1,0.2,-0.0,560,0,,,,,,,,,,,,,,,,,
886726,1469904653078,,,,,,,-0.01,0.07,0.98,-2.9,0.1,-0.3,680,0,,,,,,,,,,,,,,,,,
886746,1469904653098,,,,2,,,-0.0,0.07,0.99,-3.1,-0.0,0.1,680,0,0.0,0,39.540256,-122.331802,0.0,3.28,379.5,8,3,2.0,0,0.0,12,0.2467,,14.1517,1
886766,1469904653118,,,,,,,0.01,0.11,0.99,-3.2,0.0,0.3,800,0,,,,,,,,,,,,,,,,,
886786,1469904653138,,,,,,,0.02,0.08,0.99,-3.0,-0.2,0.2,900,0,,,,,,,,,,,,,,,,,
886806,1469904653158,,,,,,,0.01,0.09,1.0,-2.9,-0.1,0.0,960,0,,,,,,,,,,,,,,,,,
886826,1469904653178,,,,,,,-0.0,0.11,1.0,-3.0,0.0,-0.0,1000,0,,,,,,,,,,,,,,,,,
886846,1469904653198,0,219.6,187.8,5,189.0,,-0.01,0.11,1.0,-3.0,0.1,-0.1,940,0,0.0,0,39.540256,-122.331802,0.0,3.28,379.5,8,3,2.0,0,0.0,12,0.2467,0.0,14.1533,1
886866,1469904653218,,,,,,,-0.02,0.1,1.0,-3.0,0.1,-0.2,980,0,,,,,,,,,,,,,,,,,
886886,1469904653238,,,,,,,-0.02,0.11,1.02,-3.1,0.1,-0.2,1020,0,,,,,,,,,,,,,,,,,
886906,1469904653258,,,,,,,-0.02,0.11,1.03,-3.2,0.1,-0.3,1040,0,,,,,,,,,,,,,,,,,
886926,1469904653278,,,,,,,-0.03,0.1,1.02,-3.2,0.4,-0.3,1020,0,,,,,,,,,,,,,,,,,
886946,1469904653298,,,,6,,,-0.03,0.09,1.01,-3.2,0.5,-0.3,1060,0,0.0,0,39.540256,-122.331802,0.0,3.28,379.5,8,3,2.0,0,0.0,12,0.2467,,14.155,1
886966,1469904653318,,,,,,,-0.03,0.1,1.03,-3.2,0.3,-0.3,1000,0,,,,,,,,,,,,,,,,,
886986,1469904653338,,,,,,,-0.03,0.1,1.02,-3.2,0.1,-0.2,1040,0,,,,,,,,,,,,,,,,,
887006,1469904653358,,,,,,,-0.03,0.1,1.0,-3.1,0.1,-0.2,1060,0,,,,,,,,,,,,,,,,,
887026,1469904653378,,,,,,,-0.03,0.1,1.01,-3.2,0.0,-0.1,1080,0,,,,,,,,,,,,,,,,,
887046,1469904653398,0,220.2,187.3,8,186.6,12.91,-0.03,0.1,1.0,-3.1,-0.0,-0.1,1100,0,0.0,0,39.540256,-122.331802,0.0,3.28,379.5,8,3,2.0,0,0.0,12,0.2467,0.0,14.1567,1
887066,1469904653418,,,,,,,-0.02,0.09,0.99,-3.0,0.1,-0.1,1060,0,,,,,,,,,,,,,,,,,
887086,1469904653438,,,,,,,-0.01,0.08,1.0,-3.1,0.2,-0.1,1080,0,,,,,,,,,,,,,,,,,
887106,1469904653458,,,,,,,-0.02,0.08,0.99,-3.1,0.2,-0.1,1100,0,,,,,,,,,,,,,,,,,
887126,1469904653478,,,,,,,-0.02,0.07,0.99,-3.1,0.0,-0.0,1120,0,,,,,,,,,,,,,,,,,
887146,1469904653498,,,,7,,,-0.01,0.08,0.99,-3.0,-0.1,-0.1,1060,0,0.0,0,39.540256,-122.331802,0.0,3.28,379.5,8,3,2.0,0,0.0,12,0.2467,,14.1583,1
887166,1469904653518,,,,,,,-0.01,0.09,0.98,-3.0,-0.0,-0.2,1080,0,,,,,,,,,,,,,,,,,
887186,1469904653538,,,,,,,-0.0,0.09,0.99,-3.0,0.2,-0.2,1060,0,,,,,,,,,,,,,,,,,
887206,1469904653558,,,,,,,-0.0,0.09,0.99,-3.0,0.3,-0.3,1000,0,,,,,,,,,,,,,,,,,
887226,1469904653578,,,,,,,-0.0,0.08,0.99,-3.0,0.3,-0.3,1040,0,,,,,,,,,,,,,,,,,
887246,1469904653697,0,220.4,187.4,7,187.0,,-0.01,0.08,0.99,-3.0,0.2,-0.2,1040,0,0.0,0,39.540256,-122.331802,0.0,3.28,379.5,8,3,2.0,0,0.0,12,0.2467,0.0,14.1617,1
887266,1469904653717,,,,,,,-0.01,0.08,0.98,-2.9,-0.0,-0.1,980,0,,,,,,,,,,,,,,,,,
887286,1469904653737,,,,,,,-0.01,0.07,0.98,-3.0,-0.1,-0.1,980,0,,,,,,,,,,,,,,,,,
887306,1469904653757,,,,,,,-0.01,0.08,0.98,-3.0,-0.1,-0.1,960,0,,,,,,,,,,,,,,,,,
887326,1469904653777,,,,,,,-0.01,0.08,0.98,-3.0,-0.0,-0.1,920,0,,,,,,,,,,,,,,,,,
887346,1469904653797,,,,7,,,-0.0,0.08,0.99,-3.0,-0.0,-0.2,920,0,0.0,0,39.540256,-122.331802,0.0,3.28,379.5,8,3,2.0,0,0.0,12,0.2467,,14.1617,1
887366,1469904653817,,,,,,,-0.0,0.08,0.99,-3.0,0.0,-0.2,920,0,,,,,,,,,,,,,,,,,
887386,1469904653837,,,,,,,-0.01,0.08,0.99,-2.9,0.0,-0.3,880,0,,,,,,,,,,,,,,,,,
887406,1469904653857,,,,,,,-0.01,0.08,0.99,-2.9,-0.0,-0.4,880,0,,,,,,,,,,,,,,,,,
887426,1469904653877,,,,,,,-0.02,0.08,0.99,-2.9,-0.0,-0.4,880,0,,,,,,,,,,,,,,,,,
887446,1469904653798,0,221.1,189.3,8,186.6,,-0.01,0.07,0.98,-3.0,0.0,-0.3,880,0,0.0,0,39.540256,-122.331802,0.0,3.28,379.5,8,3,2.0,0,0.0,12,0.2467,0.0,14.1633,1
887466,1469904653818,,,,,,,-0.01,0.07,0.98,-3.0,0.1,-0.2,880,0,,,,,,,,,,,,,,,,,
887486,1469904653838,,,,,,,-0.01,0.08,0.98,-3.1,0.2,-0.1,880,0,,,,,,,,,,,,,,,,,
887506,1469904653858,,,,,,,-0.01,0.08,0.98,-3.1,0.3,-0.0,880,0,,,,,,,,,,,,,,,,,
887526,1469904653878,,,,,,,-0.01,0.08,0.98,-3.0,0.2,-0.1,880,0,,,,,,,,,,,,,,,,,
887546,1469904653891,,,,9,,,-0.01,0.08,0.98,-3.0,0.2,-0.2,840,0,0.0,0,39.540256,-122.331802,0.0,3.28,379.5,8,3,2.0,0,0.0,12,0.2467,,14.165,1
887566,1469904653911,,,,,,,-0.01,0.08,0.98,-3.0,0.2,-0.3,860,0,,,,,,,,,,,,,,,,,
887586,1469904653931,,,,,,,-0.01,0.08,0.98,-2.9,0.3,-0.3,840,0,,,,,,,,,,,,,,,,,
887606,1469904653951,,,,,,,-0.01,0.07,0.98,-3.0,0.2,-0.2,840,0,,,,,,,,,,,,,,,,,
887626,1469904653971,,,,,,,-0.01,0.07,0.98,-3.0,0.3,-0.1,840,0,,,,,,,,,,,,,,,,,
887646,1469904653998,0,221.3,189.6,9,188.0,,-0.01,0.08,0.98,-3.0,0.3,-0.1,840,0,0.0,0,39.540256,-122.331802,0.0,3.28,379.5,8,3,2.0,0,0.0,12,0.2467,0.0,14.1667,1
887666,1469904654018,,,,,,,-0.0,0.08,0.98,-3.0,0.3,-0.1,820,0,,,,,,,,,,,,,,,,,
887686,1469904654038,,,,,,,-0.01,0.08,0.98,-3.0,0.1,-0.2,800,0,,,,,,,,,,,,,,,,,
887706,1469904654058,,,,,,,-0.01,0.07,0.98,-2.9,0.1,-0.3,800,0,,,,,,,,,,,,,,,,,
887726,1469904654078,,,,,,,-0.01,0.08,0.98,-2.9,0.1,-0.3,800,0,,,,,,,,,,,,,,,,,
887746,1469904654098,,,,8,,,-0.0,0.07,0.98,-3.0,0.2,-0.2,780,0,0.0,0,39.540256,-122.331802,0.0,3.28,379.5,8,3,2.0,0,0.0,12,0.2467,,14.1683,1
887766,1469904654118,,,,,,,-0.0,0.07,0.98,-3.0,0.2,-0.2,780,0,,,,,,,,,,,,,,,,,
887786,1469904654138,,,,,,,-0.0,0.08,0.98,-3.0,0.2,-0.2,780,0,,,,,,,,,,,,,,,,,
887806,1469904654158,,,,,,,-0.01,0.07,0.98,-2.9,0.2,-0.3,760,0,,,,,,,,,,,,,,,,,
887826,1469904654178,,,,,,,-0.01,0.08,0.98,-2.9,0.3,-0.2,760,0,,,,,,,,,,,,,,,,,
887846,1469904654198,0,219.6,187.7,9,186.0,,-0.01,0.08,0.98,-3.0,0.3,-0.2,720,0,0.0,0,39.540256,-122.331802,0.0,3.28,379.5,8,3,2.0,0,0.0,12,0.2467,0.0,14.17,1
887866,1469904654218,,,,,,,-0.01,0.08,0.99,-3.0,0.3,-0.2,740,0,,,,,,,,,,,,,,,,,
887886,1469904654238,,,,,,,-0.01,0.07,0.99,-3.0,0.4,-0.3,740,0,,,,,,,,,,,,,,,,,
887906,1469904654258,,,,,,,-0.01,0.08,0.99,-3.0,0.4,-0.2,740,0,,,,,,,,,,,,,,,,,
887926,1469904654278,,,,,,,-0.01,0.08,0.99,-3.0,0.3,-0.1,720,0,,,,,,,,,,,,,,,,,
887946,1469904654298,,,,7,,,-0.01,0.08,0.99,-3.0,0.3,-0.2,720,0,0.0,0,39.540256,-122.331802,0.0,3.28,379.5,8,3,2.0,0,0.0,12,0.2467,,14.1717,1
887966,1469904654318,,,,,,,-0.01,0.08,0.99,-3.0,0.3,-0.3,720,0,,,,,,,,,,,,,,,,,
887986,1469904654338,,,,,,,-0.01,0.09,0.99,-3.1,0.3,-0.2,700,0,,,,,,,,,,,,,,,,,
888006,1469904654358,,,,,,,-0.01,0.08,0.99,-3.1,0.2,-0.2,680,0,,,,,,,,,,,,,,,,,
888026,1469904654378,,,,,,,-0.01,0.08,0.99,-3.0,0.2,-0.3,680,0,,,,,,,,,,,,,,,,,
888046,1469904654497,0,219.6,188.0,8,186.4,12.9,-0.01,0.08,0.99,-3.1,0.3,-0.3,680,0,0.0,0,39.540256,-122.331802,0.0,3.28,379.5,8,3,2.0,0,0.0,12,0.2467,0.0,14.175,1
888066,1469904654517,,,,,,,-0.01,0.08,0.99,-3.0,0.3,-0.2,680,0,,,,,,,,,,,,,,,,,
888086,1469904654537,,,,,,,-0.01,0.07,0.99,-3.0,0.3,-0.3,680,0,,,,,,,,,,,,,,,,,
888106,1469904654557,,,,,,,-0.02,0.07,0.99,-3.0,0.3,-0.3,680,0,,,,,,,,,,,,,,,,,
888126,1469904654577,,,,,,,-0.01,0.07,0.98,-3.0,0.3,-0.2,680,0,,,,,,,,,,,,,,,,,
888146,1469904654597,,,,6,,,-0.01,0.07,0.99,-3.0,0.3,-0.2,660,0,0.0,0,39.540256,-122.331802,0.0,3.28,379.5,8,3,2.0,0,0.0,12,0.2467,,14.175,1
888166,1469904654617,,,,,,,-0.02,0.07,0.98,-3.0,0.4,-0.2,660,0,,,,,,,,,,,,,,,,,
888186,1469904654637,,,,,,,-0.01,0.08,0.98,-3.0,0.3,-0.1,660,0,,,,,,,,,,,,,,,,,
888206,1469904654657,,,,,,,-0.02,0.08,0.98,-3.0,0.3,-0.2,660,0,,,,,,,,,,,,,,,,,
888226,1469904654677,,,,,,,-0.02,0.07,0.98,-3.0,0.2,-0.2,660,0,,,,,,,,,,,,,,,,,
888246,1469904654597,0,220.2,188.7,5,186.8,,-0.02,0.08,0.98,-3.0,0.2,-0.2,660,0,0.0,0,39.540256,-122.331802,0.0,3.28,379.5,8,3,2.0,0,0.0,12,0.2467,0.0,14.1767,1
888266,1469904654617,,,,,,,-0.02,0.08,0.98,-3.0,0.1,-0.2,660,0,,,,,,,,,,,,,,,,,
888286,1469904654637,,,,,,,-0.02,0.08,0.98,-3.0,0.1,-0.2,660,0,,,,,,,,,,,,,,,,,
888306,1469904654657,,,,,,,-0.02,0.09,0.98,-3.0,-0.0,-0.2,660,0,,,,,,,,,,,,,,,,,
888326,1469904654677,,,,,,,-0.02,0.08,0.98,-3.0,0.0,-0.2,660,0,,,,,,,,,,,,,,,,,
888346,1469904654698,,,,9,,,-0.02,0.08,0.98,-3.0,0.1,-0.2,660,0,0.0,0,39.540256,-122.331802,0.0,3.28,379.5,8,3,2.0,0,0.0,12,0.2467,,14.1783,1
888366,1469904654718,,,,,,,-0.02,0.08,0.98,-2.9,0.0,-0.1,620,0,,,,,,,,,,,,,,,,,
888386,1469904654738,,,,,,,-0.02,0.08,0.98,-2.9,-0.0,-0.2,640,0,,,,,,,,,,,,,,,,,
888406,1469904654758,,,,,,,-0.02,0.08,0.97,-2.9,0.0,-0.2,640,32,,,,,,,,,,,,,,,,,
888426,1469904654778,,,,,,,-0.02,0.08,0.97,-2.9,0.1,-0.1,640,32,,,,,,,,,,,,,,,,,
888446,1469904654798,0,220.6,189.7,7,187.3,,-0.02,0.07,0.97,-2.9,0.2,-0.2,640,32,0.0,0,39.540256,-122.331802,0.0,3.28,379.5,8,3,2.0,0,0.0,12,0.2467,0.0,14.18,1
888466,1469904654818,,,,,,,-0.01,0.07,0.98,-2.9,0.3,-0.2,640,32,,,,,,,,,,,,,,,,,
888486,1469904654838,,,,,,,-0.01,0.07,0.98,-2.9,0.3,-0.1,660,32,,,,,,,,,,,,,,,,,
888506,1469904654858,,,,,,,-0.02,0.07,0.98,-2.9,0.4,-0.2,660,32,,,,,,,,,,,,,,,,,
888526,1469904654878,,,,,,,-0.01,0.07,0.99,-2.9,0.5,-0.2,640,1538461,,,,,,,,,,,,,,,,,
888546,1469904654891,,,,6,,,-0.01,0.07,0.99,-2.9,0.5,-0.2,640,0,20.0,0,39.540256,-122.331802,0.0,3.28,379.5,8,3,2.0,0,0.0,12,0.2467,,14.1817,1
888566,1469904654911,,,,,,,-0.02,0.06,0.99,-2.9,0.5,-0.3,640,0,,,,,,,,,,,,,,,,,
888586,1469904654931,,,,,,,-0.01,0.07,0.99,-2.9,0.5,-0.2,640,0,,,,,,,,,,,,,,,,,
888606,1469904654951,,,,,,,-0.01,0.07,0.98,-2.9,0.4,-0.2,640,0,,,,,,,,,,,,,,,,,
888626,1469904654971,,,,,,,-0.01,0.06,0.98,-2.9,0.4,-0.2,640,0,,,,,,,,,,,,,,,,,
888646,1469904654998,0,220.4,189.1,6,185.6,,-0.01,0.07,0.98,-3.0,0.4,-0.1,640,0,0.0,0,39.540256,-122.331802,0.0,3.28,379.5,8,3,2.0,0,0.0,12,0.2467,0.0,14.1833,1
888666,1469904655018,,,,,,,-0.01,0.07,0.98,-2.9,0.4,-0.1,640,0,,,,,,,,,,,,,,,,,
888686,1469904655038,,,,,,,-0.01,0.07,0.98,-2.9,0.4,-0.1,640,0,,,,,,,,,,,,,,,,,
888706,1469904655058,,,,,,,-0.0,0.07,0.98,-2.9,0.4,-0.0,640,0,,,,,,,,,,,,,,,,,
888726,1469904655078,,,,,,,-0.0,0.07,0.98,-2.8,0.3,-0.1,640,0,,,,,,,,,,,,,,,,,
888746,1469904655097,,,,7,,,-0.01,0.08,0.98,-2.9,0.2,-0.1,640,0,0.0,0,39.540256,-122.331802,0.0,3.28,379.5,8,3,2.0,0,0.0,12,0.2467,,14.185,1
888766,1469904655117,,,,,,,-0.0,0.08,0.99,-2.9,0.3,-0.1,640,0,,,,,,,,,,,,,,,,,
888786,1469904655137,,,,,,,-0.0,0.07,0.98,-2.9,0.2,-0.1,640,0,,,,,,,,,,,,,,,,,
888806,1469904655157,,,,,,,-0.0,0.07,0.98,-2.9,0.2,-0.1,640,0,,,,,,,,,,,,,,,,,
888826,1469904655177,,,,,,,-0.0,0.08,0.99,-3.0,0.1,-0.1,660,0,,,,,,,,,,,,,,,,,
888846,1469904655297,0,221.3,190.3,6,187.1,,-0.0,0.07,0.99,-2.9,0.2,-0.1,660,0,0.0,0,39.540256,-122.331802,0.0,3.28,379.5,8,3,2.0,0,0.0,12,0.2467,0.0,14.1883,1
888866,1469904655317,,,,,,,-0.0,0.07,0.99,-2.9,0.1,-0.2,660,0,,,,,,,,,,,,,,,,,
888886,1469904655337,,,,,,,-0.0,0.08,0.99,-3.0,0.2,-0.2,640,0,,,,,,,,,,,,,,,,,
888906,1469904655357,,,,,,,-0.01,0.07,0.99,-2.9,0.2,-0.3,640,0,,,,,,,,,,,,,,,,,
888926,1469904655377,,,,,,,-0.01,0.08,0.99,-3.0,0.2,-0.2,640,0,,,,,,,,,,,,,,,,,
888946,1469904655397,,,,7,,,-0.01,0.08,0.98,-3.0,0.2,-0.2,640,0,0.0,0,39.540256,-122.331802,0.0,3.28,379.5,8,3,2.0,0,0.0,12,0.2467,,14.1883,1
888966,1469904655417,,,,,,,-0.01,0.07,0.98,-2.9,0.2,-0.2,660,0,,,,,,,,,,,,,,,,,
888986,1469904655437,,,,,,,-0.01,0.07,0.98,-2.9,0.4,-0.2,660,0,,,,,,,,,,,,,,,,,
889006,1469904655457,,,,,,,-0.01,0.07,0.98,-2.9,0.4,-0.1,660,0,,,,,,,,,,,,,,,,,
889026,1469904655477,,,,,,,-0.01,0.06,0.98,-2.9,0.5,-0.2,660,0,,,,,,,,,,,,,,,,,
889046,1469904655398,0,220.4,188.9,7,185.4,12.96,-0.01,0.07,0.98,-2.9,0.6,-0.2,660,0,0.0,0,39.540256,-122.331802,0.0,3.28,379.5,8,3,2.0,0,0.0,12,0.2467,0.0,14.19,1
889066,1469904655418,,,,,,,-0.01,0.07,0.98,-2.9,0.7,-0.2,640,0,,,,,,,,,,,,,,,,,
889086,1469904655438,,,,,,,-0.01,0.06,0.98,-2.9,0.7,-0.3,640,0,,,,,,,,,,,,,,,,,
889106,1469904655458,,,,,,,-0.0,0.07,0.98,-2.9,0.8,-0.2,640,0,,,,,,,,,,,,,,,,,
889126,1469904655478,,,,,,,-0.0,0.07,0.98,-2.9,0.8,-0.1,660,0,,,,,,,,,,,,,,,,,
889146,1469904655498,,,,7,,,-0.0,0.06,0.98,-2.9,0.8,-0.2,660,0,0.0,0,39.540256,-122.331802,0.0,3.28,379.5,8,3,2.0,0,0.0,12,0.2467,,14.1917,1
889166,1469904655518,,,,,,,0.0,0.07,0.98,-2.9,0.8,-0.2,660,0,,,,,,,,,,,,,,,,,
889186,1469904655538,,,,,,,0.0,0.07,0.98,-3.0,0.9,-0.1,660,0,,,,,,,,,,,,,,,,,
889206,1469904655558,,,,,,,0.0,0.07,0.98,-2.9,0.8,-0.2,680,0,,,,,,,,,,,,,,,,,
889226,1469904655578,,,,,,,0.0,0.07,0.98,-2.9,0.9,-0.2,680,0,,,,,,,,,,,,,,,,,
889246,1469904655598,0,220.9,190.5,9,187.0,,0.0,0.09,0.98,-3.0,0.9,-0.1,660,0,0.0,0,39.540256,-122.331802,0.0,3.28,379.5,8,3,2.0,0,0.0,12,0.2467,0.0,14.1933,1
889266,1469904655618,,,,,,,0.01,0.07,0.98,-2.9,0.6,-0.2,660,0,,,,,,,,,,,,,,,,,
889286,1469904655638,,,,,,,0.0,0.06,0.98,-2.9,0.8,-0.2,660,0,,,,,,,,,,,,,,,,,
889306,1469904655658,,,,,,,0.0,0.06,0.98,-2.9,0.9,-0.2,680,0,,,,,,,,,,,,,,,,,
889326,1469904655678,,,,,,,0.01,0.06,0.98,-2.9,0.9,-0.2,680,0,,,,,,,,,,,,,,,,,
889346,1469904655698,,,,8,,,0.01,0.06,0.98,-2.9,0.9,-0.2,680,0,0.0,0,39.540256,-122.331802,0.0,3.28,379.5,8,3,2.0,0,0.0,12,0.2467,,14.195,1
889366,1469904655718,,,,,,,0.01,0.06,0.98,-2.9,0.9,-0.1,680,0,,,,,,,,,,,,,,,,,
889386,1469904655738,,,,,,,0.0,0.05,0.98,-2.9,0.7,-0.2,680,0,,,,,,,,,,,,,,,,,
889406,1469904655758,,,,,,,0.0,0.05,0.98,-2.9,0.7,-0.2,680,0,,,,,,,,,,,,,,,,,
889426,1469904655778,,,,,,,0.0,0.06,0.99,-3.0,0.7,-0.1,660,0,,,,,,,,,,,,,,,,,
889446,1469904655799,0,220.3,189.2,7,185.0,,0.0,0.05,0.98,-2.9,0.6,-0.2,660,0,0.0,0,39.540256,-122.331802,0.0,3.28,379.5,8,3,2.0,0,0.0,12,0.2467,0.0,14.1967,1
889466,1469904655819,,,,,,,-0.01,0.05,0.99,-2.9,0.6,-0.2,660,0,,,,,,,,,,,,,,,,,
889486,1469904655839,,,,,,,-0.0,0.06,0.99,-2.9,0.6,-0.1,680,0,,,,,,,,,,,,,,,,,
889506,1469904655859,,,,,,,-0.01,0.05,0.98,-2.9,0.5,-0.1,680,0,,,,,,,,,,,,,,,,,
889526,1469904655879,,,,,,,-0.01,0.05,0.98,-2.8,0.4,-0.2,680,0,,,,,,,,,,,,,,,,,
889546,1469904655894,,,,7,,,-0.01,0.06,0.98,-2.9,0.4,-0.1,680,0,0.0,0,39.540256,-122.331802,0.0,3.28,379.5,8,3,2.0,0,0.0,12,0.2467,,14.1983,1
889566,1469904655914,,,,,,,-0.01,0.06,0.97,-2.9,0.3,-0.1,680,0,,,,,,,,,,,,,,,,,
889586,1469904655934,,,,,,,-0.01,0.06,0.98,-2.9,0.3,-0.2,680,0,,,,,,,,,,,,,,,,,
889606,1469904655954,,,,,,,-0.0,0.07,0.98,-3.0,0.3,-0.2,660,0,,,,,,,,,,,,,,,,,
889626,1469904655974,,,,,,,-0.0,0.07,0.98,-2.9,0.2,-0.2,660,0,,,,,,,,,,,,,,,,,
889646,1469904656099,0,221.3,191.1,8,186.5,,-0.01,0.07,0.98,-2.9,0.2,-0.3,660,0,0.0,0,39.540256,-122.331802,0.0,3.28,379.5,8,2,2.0,0,0.0,12,0.2467,0.0,14.2017,1
889666,1469904656119,,,,,,,-0.0,0.07,0.98,-2.9,0.2,-0.3,660,0,,,,,,,,,,,,,,,,,
889686,1469904656139,,,,,,,-0.0,0.08,0.98,-3.0,0.2,-0.2,660,0,,,,,,,,,,,,,,,,,
889706,1469904656159,,,,,,,-0.01,0.07,0.98,-2.9,0.2,-0.3,660,0,,,,,,,,,,,,,,,,,
889726,1469904656179,,,,,,,-0.0,0.07,0.99,-2.9,0.2,-0.3,660,0,,,,,,,,,,,,,,,,,
889746,1469904656199,,,,7,,,-0.0,0.08,0.98,-3.0,0.2,-0.2,680,0,0.0,0,39.540256,-122.331802,0.0,3.28,379.5,8,2,2.0,0,0.0,12,0.2467,,14.2017,1
889766,1469904656219,,,,,,,-0.0,0.07,0.99,-2.9,0.1,-0.3,660,0,,,,,,,,,,,,,,,,,
889786,1469904656239,,,,,,,0.0,0.07,0.99,-2.9,0.2,-0.2,660,0,,,,,,,,,,,,,,,,,
889806,1469904656259,,,,,,,0.0,0.08,0.99,-3.0,0.2,-0.1,640,0,,,,,,,,,,,,,,,,,
889826,1469904656279,,,,,,,0.0,0.07,0.99,-2.9,0.2,-0.2,680,0,,,,,,,,,,,,,,,,,
889846,1469904656196,0,220.1,189.4,7,184.9,,-0.0,0.07,0.99,-2.9,0.3,-0.2,680,0,0.0,0,39.540256,-122.331802,0.0,3.28,379.5,8,3,2.0,0,0.0,12,0.2467,0.0,14.2033,1
889866,1469904656216,,,,,,,0.0,0.07,0.99,-2.9,0.3,-0.1,660,0,,,,,,,,,,,,,,,,,
889886,1469904656236,,,,,,,-0.0,0.07,0.99,-2.9,0.3,-0.2,680,0,,,,,,,,,,,,,,,,,
889906,1469904656256,,,,,,,-0.01,0.07,0.99,-2.9,0.3,-0.2,680,0,,,,,,,,,,,,,,,,,
889926,1469904656276,,,,,,,-0.01,0.08,0.99,-2.9,0.3,-0.2,680,0,,,,,,,,,,,,,,,,,
889946,1469904656296,,,,6,,,-0.01,0.07,0.98,-2.9,0.4,-0.2,640,0,0.0,0,39.540256,-122.331802,0.0,3.28,379.5,8,2,2.0,0,0.0,12,0.2467,,14.205,1
889966,1469904656316,,,,,,,-0.01,0.07,0.98,-2.9,0.5,-0.2,640,0,,,,,,,,,,,,,,,,,
889986,1469904656336,,,,,,,-0.01,0.08,0.99,-3.0,0.5,-0.1,640,0,,,,,,,,,,,,,,,,,
890006,1469904656356,,,,,,,-0.01,0.08,0.98,-2.9,0.5,-0.2,660,0,,,,,,,,,,,,,,,,,
890026,1469904656376,,,,,,,-0.01,0.08,0.98,-2.9,0.5,-0.2,660,0,,,,,,,,,,,,,,,,,
890046,1469904656397,0,219.4,189.5,9,185.0,12.98,-0.01,0.08,0.98,-3.0,0.5,-0.1,660,0,0.0,0,39.540256,-122.331802,0.0,3.28,379.5,8,3,2.0,0,0.0,12,0.2467,0.0,14.2067,1
890066,1469904656417,,,,,,,-0.01,0.08,0.98,-2.9,0.5,-0.2,660,0,,,,,,,,,,,,,,,,,
890086,1469904656437,,,,,,,-0.01,0.08,0.98,-2.9,0.4,-0.3,660,0,,,,,,,,,,,,,,,,,
890106,1469904656457,,,,,,,-0.01,0.08,0.98,-2.9,0.4,-0.2,660,0,,,,,,,,,,,,,,,,,
890126,1469904656477,,,,,,,-0.01,0.08,0.99,-2.9,0.4,-0.3,660,0,,,,,,,,,,,,,,,,,
890146,1469904656495,,,,9,,,-0.02,0.08,0.98,-3.0,0.5,-0.3,660,0,0.0,0,39.540256,-122.331802,0.0,3.28,379.5,8,3,2.0,0,0.0,12,0.2467,,14.2083,1
890166,1469904656515,,,,,,,-0.02,0.08,0.99,-3.0,0.5,-0.2,640,0,,,,,,,,,,,,,,,,,
890186,1469904656535,,,,,,,-0.02,0.07,0.98,-2.9,0.4,-0.3,660,0,,,,,,,,,,,,,,,,,
890206,1469904656555,,,,,,,-0.02,0.07,0.98,-2.9,0.5,-0.3,660,0,,,,,,,,,,,,,,,,,
890226,1469904656575,,,,,,,-0.02,0.08,0.98,-3.0,0.5,-0.2,660,0,,,,,,,,,,,,,,,,,
890246,1469904656596,0,220.7,191.1,6,185.8,,-0.02,0.08,0.98,-2.9,0.5,-0.3,680,0,0.0,0,39.540256,-122.331802,0.0,3.28,379.5,8,2,2.0,0,0.0,12,0.2467,0.0,14.21,1
890266,1469904656616,,,,,,,-0.03,0.07,0.98,-2.9,0.4,-0.3,680,0,,,,,,,,,,,,,,,,,
890286,1469904656636,,,,,,,-0.03,0.08,0.98,-2.9,0.3,-0.2,680,0,,,,,,,,,,,,,,,,,
890306,1469904656656,,,,,,,-0.03,0.08,0.98,-2.9,0.3,-0.3,660,0,,,,,,,,,,,,,,,,,
890326,1469904656676,,,,,,,-0.03,0.07,0.98,-2.9,0.3,-0.3,660,0,,,,,,,,,,,,,,,,,
890346,1469904656695,,,,6,,,-0.03,0.08,0.98,-3.0,0.3,-0.2,660,0,0.0,0,39.540256,-122.331802,0.0,3.28,379.5,8,3,2.0,0,0.0,12,0.2467,,14.2117,1
890366,1469904656715,,,,,,,-0.03,0.08,0.98,-3.0,0.3,-0.3,680,0,,,,,,,,,,,,,,,,,
890386,1469904656735,,,,,,,-0.04,0.08,0.98,-2.9,0.2,-0.3,680,0,,,,,,,,,,,,,,,,,
890406,1469904656755,,,,,,,-0.03,0.09,0.98,-3.0,0.2,-0.2,660,0,,,,,,,,,,,,,,,,,
890426,1469904656775,,,,,,,-0.03,0.08,0.97,-3.0,0.2,-0.2,660,0,,,,,,,,,,,,,,,,,
890446,1469904656900,0,220.0,190.4,5,184.8,,-0.03,0.08,0.97,-2.9,0.1,-0.3,660,0,0.0,0,39.540256,-122.331802,0.0,3.28,379.5,8,2,2.0,0,0.0,12,0.2467,0.0,14.215,1
890466,1469904656920,,,,,,,-0.03,0.09,0.98,-2.9,0.1,-0.2,660,0,,,,,,,,,,,,,,,,,
890486,1469904656940,,,,,,,-0.03,0.08,0.97,-2.9,0.0,-0.3,660,0,,,,,,,,,,,,,,,,,
890506,1469904656960,,,,,,,-0.03,0.08,0.97,-2.9,-0.0,-0.3,660,0,,,,,,,,,,,,,,,,,
890526,1469904656980,,,,,,,-0.03,0.08,0.97,-2.9,0.0,-0.2,640,0,,,,,,,,,,,,,,,,,
890546,1469904657000,,,,7,,,-0.02,0.08,0.97,-2.9,0.0,-0.2,660,0,0.0,0,39.540256,-122.331802,0.0,3.28,379.5,8,2,2.0,0,0.0,12,0.2467,,14.215,1
890566,1469904657020,,,,,,,-0.03,0.08,0.98,-2.9,0.0,-0.2,660,0,,,,,,,,,,,,,,,,,
890586,1469904657040,,,,,,,-0.02,0.09,0.98,-2.9,0.1,-0.1,660,0,,,,,,,,,,,,,,,,,
890606,1469904657060,,,,,,,-0.02,0.08,0.98,-2.9,0.0,-0.1,660,0,,,,,,,,,,,,,,,,,
890626,1469904657080,,,,,,,-0.02,0.08,0.98,-2.9,-0.0,-0.2,660,0,,,,,,,,,,,,,,,,,
890646,1469904656998,0,220.4,191.1,6,185.2,,-0.02,0.09,0.98,-2.9,0.0,-0.1,680,0,0.0,0,39.540256,-122.331802,0.0,3.28,379.5,9,2,2.3,0,0.0,12,0.2467,0.0,14.2167,1
890666,1469904657018,,,,,,,-0.02,0.08,0.97,-2.9,-0.1,-0.1,660,0,,,,,,,,,,,,,,,,,
890686,1469904657038,,,,,,,-0.02,0.08,0.97,-2.9,-0.1,-0.2,660,0,,,,,,,,,,,,,,,,,
890706,1469904657058,,,,,,,-0.02,0.08,0.97,-2.9,-0.0,-0.1,660,0,,,,,,,,,,,,,,,,,
890726,1469904657078,,,,,,,-0.01,0.08,0.97,-2.9,-0.1,-0.1,660,0,,,,,,,,,,,,,,,,,
890746,1469904657099,,,,8,,,-0.02,0.08,0.98,-2.9,-0.2,-0.1,660,0,0.0,0,39.540256,-122.331802,0.0,3.28,379.5,9,3,2.3,0,0.0,12,0.2467,,14.2183,1
890766,1469904657119,,,,,,,-0.01,0.08,0.98,-2.9,-0.1,-0.1,660,0,,,,,,,,,,,,,,,,,
890786,1469904657139,,,,,,,-0.01,0.09,0.98,-2.9,-0.0,-0.0,660,0,,,,,,,,,,,,,,,,,
890806,1469904657159,,,,,,,-0.01,0.08,0.98,-2.9,-0.1,-0.1,680,0,,,,,,,,,,,,,,,,,
890826,1469904657179,,,,,,,-0.0,0.08,0.98,-2.9,-0.1,-0.1,680,0,,,,,,,,,,,,,,,,,
890846,1469904657200,0,220.0,190.8,5,184.5,,-0.0,0.09,0.98,-2.9,-0.1,-0.1,660,0,0.0,0,39.540256,-122.331802,0.0,3.28,379.5,9,3,2.3,0,0.0,12,0.2467,0.0,14.22,1
890866,1469904657220,,,,,,,-0.0,0.08,0.98,-2.9,-0.2,-0.2,660,0,,,,,,,,,,,,,,,,,
890886,1469904657240,,,,,,,0.0,0.08,0.99,-2.9,-0.1,-0.1,660,0,,,,,,,,,,,,,,,,,
890906,1469904657260,,,,,,,0.0,0.09,0.99,-3.0,-0.1,-0.1,660,0,,,,,,,,,,,,,,,,,
890926,1469904657280,,,,,,,0.0,0.08,0.98,-3.0,-0.2,-0.1,660,0,,,,,,,,,,,,,,,,,
890946,1469904657300,,,,7,,,0.0,0.08,0.98,-3.0,-0.1,-0.1,660,0,0.0,0,39.540256,-122.331802,0.0,3.28,379.5,9,3,2.3,0,0.0,12,0.2467,,14.2217,1
890966,1469904657320,,,,,,,0.0,0.09,0.99,-3.0,-0.0,-0.1,680,0,,,,,,,,,,,,,,,,,
890986,1469904657340,,,,,,,0.0,0.08,0.99,-3.0,-0.0,-0.1,680,0,,,,,,,,,,,,,,,,,
891006,1469904657360,,,,,,,0.0,0.08,0.99,-3.0,0.1,-0.2,680,0,,,,,,,,,,,,,,,,,
891026,1469904657380,,,,,,,0.0,0.08,0.99,-3.0,0.2,-0.1,660,0,,,,,,,,,,,,,,,,,
891046,1469904657395,0,220.4,191.5,8,185.3,13.04,-0.0,0.07,0.99,-3.0,0.2,-0.2,640,0,0.0,0,39.540256,-122.331802,0.0,3.28,379.5,9,3,2.3,0,0.0,12,0.2467,0.0,14.2233,1
891066,1469904657415,,,,,,,-0.0,0.07,0.99,-2.9,0.2,-0.2,640,0,,,,,,,,,,,,,,,,,
891086,1469904657435,,,,,,,0.0,0.07,0.99,-3.0,0.2,-0.1,680,0,,,,,,,,,,,,,,,,,
891106,1469904657455,,,,,,,-0.0,0.06,0.99,-2.9,0.2,-0.2,660,0,,,,,,,,,,,,,,,,,
891126,1469904657475,,,,,,,-0.0,0.06,0.99,-2.9,0.2,-0.2,660,0,,,,,,,,,,,,,,,,,
891146,1469904657500,,,,7,,,-0.0,0.06,0.99,-3.0,0.2,-0.1,680,0,0.0,0,39.540256,-122.331802,0.0,3.28,379.5,9,3,2.3,0,0.0,12,0.2467,,14.225,1
891166,1469904657520,,,,,,,-0.0,0.06,0.99,-2.9,0.2,-0.1,660,0,,,,,,,,,,,,,,,,,
891186,1469904657540,,,,,,,-0.01,0.06,0.99,-2.9,0.2,-0.2,660,0,,,,,,,,,,,,,,,,,
891206,1469904657560,,,,,,,-0.0,0.07,0.99,-3.0,0.2,-0.1,660,0,,,,,,,,,,,,,,,,,
891226,1469904657580,,,,,,,-0.01,0.06,0.99,-2.9,0.2,-0.2,660,0,,,,,,,,,,,,,,,,,
891246,1469904657699,0,219.6,191.2,6,185.1,,-0.01,0.06,0.99,-2.9,0.2,-0.3,660,0,0.0,0,39.540256,-122.331802,0.0,3.28,379.5,9,3,2.3,0,0.0,12,0.2467,0.0,14.2283,1
891266,1469904657719,,,,,,,-0.01,0.06,0.99,-2.9,0.2,-0.2,660,0,,,,,,,,,,,,,,,,,
891286,1469904657739,,,,,,,-0.01,0.06,0.98,-2.9,0.2,-0.2,660,0,,,,,,,,,,,,,,,,,
891306,1469904657759,,,,,,,-0.02,0.06,0.98,-2.9,0.2,-0.2,660,0,,,,,,,,,,,,,,,,,
891326,1469904657779,,,,,,,-0.01,0.07,0.98,-2.9,0.2,-0.2,680,0,,,,,,,,,,,,,,,,,
891346,1469904657799,,,,10,,,-0.02,0.06,0.98,-2.9,0.2,-0.2,680,0,0.0,0,39.540256,-122.331802,0.0,3.28,379.5,9,3,2.3,0,0.0,12,0.2467,,14.2283,1
891366,1469904657819,,,,,,,-0.02,0.06,0.98,-2.9,0.2,-0.2,680,0,,,,,,,,,,,,,,,,,
891386,1469904657839,,,,,,,-0.02,0.08,0.98,-3.0,0.1,-0.1,660,0,,,,,,,,,,,,,,,,,
891406,1469904657859,,,,,,,-0.02,0.08,0.97,-3.0,0.0,-0.1,660,0,,,,,,,,,,,,,,,,,
891426,1469904657879,,,,,,,-0.02,0.07,0.98,-2.9,0.0,-0.2,660,0,,,,,,,,,,,,,,,,,
891446,1469904657800,0,219.4,190.5,6,183.7,,-0.02,0.08,0.98,-3.0,0.0,-0.1,680,0,0.0,0,39.540256,-122.331802,0.0,3.28,379.5,9,3,2.3,0,0.0,12,0.2467,0.0,14.23,1
891466,1469904657820,,,,,,,-0.02,0.08,0.97,-3.0,-0.1,-0.1,680,0,,,,,,,,,,,,,,,,,
891486,1469904657840,,,,,,,-0.02,0.07,0.98,-3.0,-0.0,-0.2,680,0,,,,,,,,,,,,,,,,,
891506,1469904657860,,,,,,,-0.01,0.07,0.98,-3.0,0.1,-0.2,680,0,,,,,,,,,,,,,,,,,
891526,1469904657880,,,,,,,-0.01,0.08,0.98,-3.0,0.0,-0.1,680,0,,,,,,,,,,,,,,,,,
891546,1469904657893,,,,7,,,-0.01,0.07,0.98,-3.0,0.0,-0.2,660,0,0.0,0,39.540256,-122.331802,0.0,3.28,379.5,9,3,2.3,0,0.0,12,0.2467,,14.2317,1
891566,1469904657913,,,,,,,-0.01,0.07,0.98,-3.0,0.1,-0.2,660,0,,,,,,,,,,,,,,,,,
891586,1469904657933,,,,,,,-0.01,0.07,0.99,-2.9,0.0,-0.1,660,0,,,,,,,,,,,,,,,,,
891606,1469904657953,,,,,,,-0.01,0.07,0.98,-2.9,0.0,-0.2,660,0,,,,,,,,,,,,,,,,,
891626,1469904657973,,,,,,,-0.0,0.07,0.99,-2.9,0.0,-0.2,660,0,,,,,,,,,,,,,,,,,
891646,1469904657999,0,220.1,191.7,6,184.8,,-0.0,0.07,0.99,-2.9,0.0,-0.1,660,0,0.0,0,39.540256,-122.331802,0.0,3.28,379.5,9,3,2.3,0,0.0,12,0.2467,0.0,14.2333,1
891666,1469904658019,,,,,,,-0.0,0.07,0.98,-2.9,-0.0,-0.1,660,0,,,,,,,,,,,,,,,,,
891686,1469904658039,,,,,,,-0.01,0.07,0.99,-2.9,0.0,-0.2,660,0,,,,,,,,,,,,,,,,,
891706,1469904658059,,,,,,,-0.0,0.07,0.99,-2.9,0.0,-0.1,680,0,,,,,,,,,,,,,,,,,
891726,1469904658079,,,,,,,-0.0,0.07,0.99,-2.9,0.1,-0.1,640,0,,,,,,,,,,,,,,,,,
891746,1469904658099,,,,6,,,-0.01,0.07,0.99,-2.9,0.2,-0.1,640,0,0.0,0,39.540256,-122.331802,0.0,3.28,379.5,9,3,2.3,0,0.0,12,0.2467,,14.235,1
891766,1469904658119,,,,,,,-0.0,0.08,0.98,-2.9,0.2,-0.1,660,0,,,,,,,,,,,,,,,,,
891786,1469904658139,,,,,,,-0.01,0.08,0.98,-2.9,0.2,-0.2,660,0,,,,,,,,,,,,,,,,,
891806,1469904658159,,,,,,,-0.01,0.07,0.98,-2.9,0.3,-0.3,660,0,,,,,,,,,,,,,,,,,
891826,1469904658179,,,,,,,-0.0,0.07,0.98,-2.9,0.2,-0.2,660,0,,,,,,,,,,,,,,,,,
891846,1469904658199,0,220.0,191.6,8,184.2,,-0.0,0.07,0.98,-2.9,0.2,-0.3,660,0,0.0,0,39.540256,-122.331802,0.0,3.28,379.5,9,3,2.3,0,0.0,12,0.2467,0.0,14.2367,1
891866,1469904658219,,,,,,,-0.01,0.07,0.98,-2.9,0.3,-0.3,660,0,,,,,,,,,,,,,,,,,
891886,1469904658239,,,,,,,-0.0,0.08,0.98,-2.9,0.3,-0.2,680,0,,,,,,,,,,,,,,,,,
891906,1469904658259,,,,,,,-0.0,0.08,0.98,-2.9,0.3,-0.2,660,0,,,,,,,,,,,,,,,,,
891926,1469904658279,,,,,,,-0.01,0.07,0.98,-2.9,0.3,-0.2,660,0,,,,,,,,,,,,,,,,,
891946,1469904658298,,,,8,,,-0.01,0.08,0.98,-3.0,0.4,-0.2,660,0,0.0,0,39.540256,-122.331802,0.0,3.28,379.5,9,3,2.3,0,0.0,12,0.2467,,14.2383,1
891966,1469904658318,,,,,,,-0.01,0.08,0.98,-2.9,0.4,-0.2,660,0,,,,,,,,,,,,,,,,,
891986,1469904658338,,,,,,,-0.01,0.07,0.98,-2.9,0.4,-0.2,660,0,,,,,,,,,,,,,,,,,
892006,1469904658358,,,,,,,-0.01,0.08,0.98,-3.0,0.4,-0.2,660,0,,,,,,,,,,,,,,,,,
892026,1469904658378,,,,,,,-0.01,0.08,0.98,-2.9,0.4,-0.2,680,0,,,,,,,,,,,,,,,,,
892046,1469904658497,0,219.0,190.8,7,183.7,13.03,-0.01,0.08,0.99,-2.9,0.4,-0.2,680,0,0.0,0,39.540256,-122.331802,0.0,3.28,379.5,9,3,2.0,0,0.0,12,0.2467,0.0,14.2417,1
892066,1469904658517,,,,,,,-0.01,0.08,0.99,-3.0,0.4,-0.2,680,0,,,,,,,,,,,,,,,,,
892086,1469904658537,,,,,,,-0.01,0.08,0.99,-2.9,0.3,-0.2,660,0,,,,,,,,,,,,,,,,,
892106,1469904658557,,,,,,,-0.02,0.08,0.99,-2.9,0.3,-0.2,660,0,,,,,,,,,,,,,,,,,
892126,1469904658577,,,,,,,-0.01,0.08,0.99,-2.9,0.3,-0.1,660,0,,,,,,,,,,,,,,,,,
892146,1469904658597,,,,10,,,-0.01,0.08,0.98,-2.9,0.3,-0.1,680,0,0.0,0,39.540256,-122.331802,0.0,3.28,379.5,9,3,2.0,0,0.0,12,0.2467,,14.2417,1
892166,1469904658617,,,,,,,-0.02,0.08,0.99,-2.9,0.2,-0.2,680,0,,,,,,,,,,,,,,,,,
892186,1469904658637,,,,,,,-0.02,0.09,0.99,-2.9,0.2,-0.1,680,0,,,,,,,,,,,,,,,,,
892206,1469904658657,,,,,,,-0.01,0.09,0.98,-2.9,0.2,-0.1,680,0,,,,,,,,,,,,,,,,,
892226,1469904658677,,,,,,,-0.02,0.08,0.98,-2.9,0.1,-0.1,680,0,,,,,,,,,,,,,,,,,
892246,1469904658598,0,219.5,191.1,7,183.2,,-0.01,0.08,0.98,-2.9,0.1,-0.1,680,0,0.0,0,39.540256,-122.331802,0.0,3.28,379.5,9,3,2.0,0,0.0,12,0.2467,0.0,14.2433,1
892266,1469904658618,,,,,,,-0.01,0.09,0.98,-2.9,0.0,-0.1,680,0,,,,,,,,,,,,,,,,,
892286,1469904658638,,,,,,,-0.01,0.08,0.98,-2.9,0.0,-0.1,660,0,,,,,,,,,,,,,,,,,
892306,1469904658658,,,,,,,-0.01,0.08,0.98,-2.9,0.1,-0.1,660,0,,,,,,,,,,,,,,,,,
892326,1469904658678,,,,,,,-0.0,0.08,0.98,-2.9,0.1,-0.1,680,0,,,,,,,,,,,,,,,,,
892346,1469904658698,,,,6,,,-0.0,0.08,0.98,-2.9,0.2,-0.1,680,0,0.0,0,39.540256,-122.331802,0.0,3.28,379.5,9,3,2.0,0,0.0,12,0.2467,,14.245,1
892366,1469904658718,,,,,,,-0.0,0.07,0.99,-2.9,0.2,-0.2,680,0,,,,,,,,,,,,,,,,,
892386,1469904658738,,,,,,,-0.0,0.08,0.99,-2.9,0.2,-0.1,680,0,,,,,,,,,,,,,,,,,
892406,1469904658758,,,,,,,-0.01,0.08,0.99,-2.9,0.2,-0.1,680,0,,,,,,,,,,,,,,,,,
892426,1469904658778,,,,,,,-0.01,0.08,0.99,-2.9,0.3,-0.2,680,0,,,,,,,,,,,,,,,,,
892446,1469904658798,0,218.4,190.0,8,182.0,,-0.0,0.08,0.99,-3.0,0.3,-0.1,660,0,0.0,0,39.540256,-122.331802,0.0,3.28,379.5,9,3,2.0,0,0.0,12,0.2467,0.0,14.2467,1
892466,1469904658818,,,,,,,-0.01,0.07,0.99,-2.9,0.2,-0.2,660,0,,,,,,,,,,,,,,,,,
892486,1469904658838,,,,,,,-0.01,0.07,0.99,-2.9,0.2,-0.3,660,0,,,,,,,,,,,,,,,,,
892506,1469904658858,,,,,,,-0.01,0.07,0.99,-2.9,0.3,-0.2,680,0,,,,,,,,,,,,,,,,,
892526,1469904658878,,,,,,,-0.01,0.07,0.98,-2.9,0.2,-0.2,680,0,,,,,,,,,,,,,,,,,
892546,1469904658892,,,,8,,,-0.02,0.07,0.98,-2.9,0.2,-0.3,680,0,0.0,0,39.540256,-122.331802,0.0,3.28,379.5,9,3,2.0,0,0.0,12,0.2467,,14.2483,1
892566,1469904658912,,,,,,,-0.01,0.07,0.98,-2.9,0.2,-0.2,680,0,,,,,,,,,,,,,,,,,
892586,1469904658932,,,,,,,-0.01,0.07,0.97,-2.9,0.2,-0.2,680,0,,,,,,,,,,,,,,,,,
892606,1469904658952,,,,,,,-0.02,0.07,0.98,-2.8,0.1,-0.2,680,0,,,,,,,,,,,,,,,,,
892626,1469904658972,,,,,,,-0.01,0.07,0.98,-2.8,0.1,-0.2,680,0,,,,,,,,,,,,,,,,,
892646,1469904658998,0,219.8,191.7,8,183.6,,-0.01,0.08,0.98,-2.9,0.1,-0.2,680,0,0.0,0,39.540256,-122.331802,0.0,3.28,379.5,8,3,2.0,0,0.0,12,0.2467,0.0,14.25,1
892666,1469904659018,,,,,,,-0.01,0.07,0.98,-2.8,0.1,-0.2,680,0,,,,,,,,,,,,,,,,,
892686,1469904659038,,,,,,,-0.01,0.07,0.98,-2.8,0.1,-0.2,680,0,,,,,,,,,,,,,,,,,
892706,1469904659058,,,,,,,-0.01,0.08,0.98,-2.9,0.0,-0.1,680,0,,,,,,,,,,,,,,,,,
892726,1469904659078,,,,,,,-0.01,0.08,0.98,-2.8,0.0,-0.2,700,0,,,,,,,,,,,,,,,,,
892746,1469904659098,,,,6,,,-0.01,0.07,0.99,-2.8,0.1,-0.2,700,0,0.0,0,39.540256,-122.331802,0.0,3.28,379.5,8,3,2.0,0,0.0,12,0.2467,,14.2517,1
892766,1469904659118,,,,,,,-0.01,0.07,0.99,-2.9,0.1,-0.2,680,0,,,,,,,,,,,,,,,,,
892786,1469904659138,,,,,,,-0.01,0.07,0.99,-2.9,0.2,-0.2,680,0,,,,,,,,,,,,,,,,,
892806,1469904659158,,,,,,,-0.01,0.07,0.99,-2.9,0.1,-0.2,680,0,,,,,,,,,,,,,,,,,
892826,1469904659178,,,,,,,-0.01,0.08,0.99,-2.9,0.2,-0.1,660,0,,,,,,,,,,,,,,,,,
892846,1469904659297,0,219.6,191.7,9,183.5,,-0.01,0.08,0.98,-2.9,0.2,-0.1,680,0,0.0,0,39.540256,-122.331802,0.0,3.28,379.5,8,3,2.0,0,0.0,12,0.2467,0.0,14.255,1
892866,1469904659317,,,,,,,-0.01,0.07,0.99,-2.9,0.2,-0.2,680,0,,,,,,,,,,,,,,,,,
892886,1469904659337,,,,,,,-0.01,0.07,0.99,-2.9,0.2,-0.2,680,0,,,,,,,,,,,,,,,,,
892906,1469904659357,,,,,,,-0.01,0.08,0.99,-2.9,0.3,-0.1,700,0,,,,,,,,,,,,,,,,,
892926,1469904659377,,,,,,,-0.01,0.07,0.99,-2.9,0.2,-0.2,680,0,,,,,,,,,,,,,,,,,
892946,1469904659397,,,,8,,,-0.01,0.08,0.99,-2.9,0.2,-0.2,680,0,0.0,0,39.540256,-122.331802,0.0,3.28,379.5,8,3,2.0,0,0.0,12,0.2467,,14.255,1
892966,1469904659417,,,,,,,-0.01,0.08,0.98,-2.9,0.1,-0.2,680,0,,,,,,,,,,,,,,,,,
892986,1469904659437,,,,,,,-0.01,0.07,0.99,-2.9,0.1,-0.2,680,0,,,,,,,,,,,,,,,,,
893006,1469904659457,,,,,,,-0.01,0.07,0.99,-2.9,0.1,-0.3,680,0,,,,,,,,,,,,,,,,,
893026,1469904659477,,,,,,,-0.01,0.07,0.99,-2.9,0.1,-0.2,680,0,,,,,,,,,,,,,,,,,
893046,1469904659397,0,218.8,190.6,11,181.6,13.1,-0.01,0.07,0.98,-2.9,0.2,-0.2,680,0,0.0,0,39.540256,-122.331802,0.0,3.28,379.5,8,3,2.0,0,0.0,12,0.2467,0.0,14.2567,1
893066,1469904659417,,,,,,,-0.01,0.07,0.98,-2.8,0.2,-0.3,680,0,,,,,,,,,,,,,,,,,
893086,1469904659437,,,,,,,-0.01,0.08,0.98,-2.9,0.1,-0.2,700,0,,,,,,,,,,,,,,,,,
893106,1469904659457,,,,,,,-0.01,0.08,0.98,-2.9,0.2,-0.2,680,0,,,,,,,,,,,,,,,,,
893126,1469904659477,,,,,,,-0.01,0.07,0.98,-2.9,0.1,-0.2,680,0,,,,,,,,,,,,,,,,,
893146,1469904659496,,,,7,,,-0.01,0.07,0.98,-2.9,0.2,-0.2,680,0,0.0,0,39.540256,-122.331802,0.0,3.28,379.5,8,3,2.0,0,0.0,12,0.2467,,14.2583,1
893166,1469904659516,,,,,,,-0.01,0.08,0.98,-2.9,0.2,-0.1,680,0,,,,,,,,,,,,,,,,,
893186,1469904659536,,,,,,,-0.01,0.07,0.98,-2.8,0.1,-0.2,680,0,,,,,,,,,,,,,,,,,
893206,1469904659556,,,,,,,-0.01,0.07,0.98,-2.8,0.1,-0.2,680,0,,,,,,,,,,,,,,,,,
893226,1469904659576,,,,,,,-0.01,0.07,0.98,-2.8,0.1,-0.1,680,0,,,,,,,,,,,,,,,,,
893246,1469904659597,0,218.3,190.2,8,181.6,,-0.01,0.07,0.99,-2.8,0.1,-0.2,720,0,0.0,0,39.540298,-122.33184,0.0,3.284,384.1,8,3,1.8,0,0.0,12,0.2467,0.0,14.26,1
893266,1469904659617,,,,,,,-0.01,0.07,0.99,-2.8,0.1,-0.3,720,0,,,,,,,,,,,,,,,,,
893286,1469904659637,,,,,,,-0.01,0.08,0.98,-2.9,0.2,-0.2,680,0,,,,,,,,,,,,,,,,,
893306,1469904659657,,,,,,,-0.0,0.08,0.98,-2.9,0.2,-0.1,680,0,,,,,,,,,,,,,,,,,
893326,1469904659677,,,,,,,-0.01,0.08,0.98,-2.8,0.1,-0.2,680,0,,,,,,,,,,,,,,,,,
893346,1469904659697,,,,9,,,-0.01,0.08,0.98,-2.9,0.2,-0.2,680,0,0.0,0,39.540298,-122.33184,0.0,3.284,384.1,8,3,1.8,0,0.0,12,0.2467,,14.2617,1
893366,1469904659717,,,,,,,-0.01,0.08,0.99,-2.9,0.2,-0.1,700,0,,,,,,,,,,,,,,,,,
893386,1469904659737,,,,,,,-0.01,0.08,0.98,-2.9,0.2,-0.2,680,0,,,,,,,,,,,,,,,,,
893406,1469904659757,,,,,,,-0.01,0.07,0.98,-2.9,0.2,-0.2,680,0,,,,,,,,,,,,,,,,,
893426,1469904659777,,,,,,,-0.01,0.07,0.98,-2.9,0.2,-0.1,700,0,,,,,,,,,,,,,,,,,
893446,1469904659797,0,218.5,190.6,7,182.2,,-0.01,0.07,0.98,-2.8,0.1,-0.2,680,0,0.0,0,39.540298,-122.33184,0.0,3.284,384.1,8,3,1.8,0,0.0,12,0.2467,0.0,14.2633,1
893466,1469904659817,,,,,,,-0.01,0.07,0.98,-2.8,0.1,-0.3,680,0,,,,,,,,,,,,,,,,,
893486,1469904659837,,,,,,,-0.01,0.08,0.98,-2.9,0.0,-0.2,680,0,,,,,,,,,,,,,,,,,
893506,1469904659857,,,,,,,-0.01,0.08,0.98,-2.9,0.0,-0.2,660,0,,,,,,,,,,,,,,,,,
893526,1469904659877,,,,,,,-0.01,0.08,0.98,-2.9,0.1,-0.3,660,0,,,,,,,,,,,,,,,,,
893546,1469904659897,,,,8,,,-0.01,0.08,0.98,-2.9,0.1,-0.2,680,0,0.0,0,39.540298,-122.33184,0.0,3.284,384.1,8,3,1.8,0,0.0,12,0.2467,,14.2633,1
893566,1469904659909,,,,,,,-0.01,0.08,0.98,-2.9,0.0,-0.1,680,0,,,,,,,,,,,,,,,,,
893586,1469904659929,,,,,,,-0.02,0.08,0.98,-2.9,0.0,-0.2,700,0,,,,,,,,,,,,,,,,,
893606,1469904659949,,,,,,,-0.01,0.08,0.98,-2.9,0.1,-0.2,700,0,,,,,,,,,,,,,,,,,
893626,1469904659969,,,,,,,-0.01,0.08,0.98,-2.9,0.1,-0.1,680,0,,,,,,,,,,,,,,,,,
893646,1469904660095,0,219.8,191.2,7,182.2,,-0.01,0.07,0.98,-2.9,0.1,-0.2,680,0,0.0,0,39.540298,-122.33184,0.0,3.284,384.1,8,3,1.8,0,0.0,12,0.2467,0.0,14.2683,1
893666,1469904660115,,,,,,,-0.01,0.07,0.98,-2.9,0.2,-0.2,680,0,,,,,,,,,,,,,,,,,
893686,1469904660135,,,,,,,-0.01,0.08,0.98,-2.9,0.2,-0.1,660,0,,,,,,,,,,,,,,,,,
893706,1469904660155,,,,,,,-0.01,0.07,0.98,-2.9,0.2,-0.2,680,0,,,,,,,,,,,,,,,,,
893726,1469904660175,,,,,,,-0.01,0.08,0.98,-2.9,0.2,-0.2,680,0,,,,,,,,,,,,,,,,,
893746,1469904660195,,,,7,,,-0.0,0.08,0.98,-2.9,0.3,-0.2,680,0,0.0,0,39.540298,-122.33184,0.0,3.284,384.1,8,3,1.8,0,0.0,12,0.2467,,14.2683,1
893766,1469904660215,,,,,,,-0.0,0.08,0.98,-2.9,0.3,-0.2,700,0,,,,,,,,,,,,,,,,,
893786,1469904660235,,,,,,,-0.01,0.08,0.98,-2.9,0.3,-0.2,700,0,,,,,,,,,,,,,,,,,
893806,1469904660255,,,,,,,-0.01,0.08,0.98,-2.9,0.3,-0.1,660,0,,,,,,,,,,,,,,,,,
893826,1469904660275,,,,,,,-0.01,0.08,0.98,-2.9,0.3,-0.1,680,0,,,,,,,,,,,,,,,,,
893846,1469904660196,0,218.9,189.9,7,180.9,,-0.01,0.08,0.98,-2.9,0.2,-0.2,680,0,0.0,0,39.540298,-122.33184,0.0,3.284,384.1,8,3,1.8,0,0.0,12,0.2467,0.0,14.27,1
893866,1469904660216,,,,,,,-0.01,0.08,0.98,-2.9,0.2,-0.1,660,0,,,,,,,,,,,,,,,,,
893886,1469904660236,,,,,,,-0.01,0.08,0.98,-2.9,0.1,-0.1,680,0,,,,,,,,,,,,,,,,,
893906,1469904660256,,,,,,,-0.02,0.07,0.98,-2.9,0.1,-0.1,680,0,,,,,,,,,,,,,,,,,
893926,1469904660276,,,,,,,-0.01,0.08,0.98,-2.9,0.1,-0.1,680,0,,,,,,,,,,,,,,,,,
893946,1469904660296,,,,8,,,-0.01,0.08,0.98,-2.9,0.1,-0.1,700,0,0.0,0,39.540298,-122.33184,0.0,3.284,384.1,8,3,1.8,0,0.0,12,0.2467,,14.2717,1
893966,1469904660316,,,,,,,-0.01,0.07,0.98,-2.9,0.1,-0.2,680,0,,,,,,,,,,,,,,,,,
893986,1469904660336,,,,,,,-0.01,0.07,0.98,-2.9,0.2,-0.2,680,0,,,,,,,,,,,,,,,,,
894006,1469904660356,,,,,,,-0.01,0.08,0.98,-2.9,0.2,-0.2,660,0,,,,,,,,,,,,,,,,,
894026,1469904660376,,,,,,,-0.01,0.07,0.98,-2.8,0.2,-0.3,660,0,,,,,,,,,,,,,,,,,
894046,1469904660396,0,219.6,190.5,10,180.9,13.19,-0.01,0.07,0.98,-2.8,0.2,-0.2,660,0,0.0,0,39.540298,-122.33184,0.0,3.284,384.1,8,3,1.8,0,0.0,12,0.2467,0.0,14.2733,1
894066,1469904660416,,,,,,,-0.0,0.08,0.98,-2.9,0.3,-0.1,680,0,,,,,,,,,,,,,,,,,
894086,1469904660436,,,,,,,-0.01,0.08,0.98,-2.9,0.4,-0.2,680,0,,,,,,,,,,,,,,,,,
894106,1469904660456,,,,,,,-0.01,0.07,0.98,-2.9,0.4,-0.2,680,0,,,,,,,,,,,,,,,,,
894126,1469904660476,,,,,,,-0.01,0.07,0.98,-2.9,0.3,-0.1,700,0,,,,,,,,,,,,,,,,,
894146,1469904660496,,,,7,,,-0.01,0.07,0.98,-2.9,0.4,-0.2,660,0,0.0,0,39.540298,-122.33184,0.0,3.284,384.1,8,3,1.8,0,0.0,12,0.2467,,14.275,1
894166,1469904660516,,,,,,,-0.02,0.07,0.99,-2.9,0.3,-0.2,660,0,,,,,,,,,,,,,,,,,
894186,1469904660536,,,,,,,-0.02,0.08,0.99,-2.9,0.3,-0.1,680,0,,,,,,,,,,,,,,,,,
894206,1469904660556,,,,,,,-0.02,0.07,0.98,-2.9,0.2,-0.1,660,0,,,,,,,,,,,,,,,,,
894226,1469904660576,,,,,,,-0.02,0.06,0.98,-2.9,0.1,-0.3,660,0,,,,,,,,,,,,,,,,,
894246,1469904660597,0,219.5,190.9,8,181.6,,-0.02,0.07,0.98,-2.9,0.1,-0.2,680,0,0.0,0,39.540298,-122.33184,0.0,3.284,384.1,8,3,1.8,0,0.0,12,0.2467,0.0,14.2767,1
894266,1469904660617,,,,,,,-0.02,0.06,0.97,-2.9,0.0,-0.2,680,0,,,,,,,,,,,,,,,,,
894286,1469904660637,,,,,,,-0.02,0.06,0.98,-2.9,0.0,-0.3,700,0,,,,,,,,,,,,,,,,,
894306,1469904660657,,,,,,,-0.01,0.07,0.98,-2.9,0.1,-0.3,700,0,,,,,,,,,,,,,,,,,
894326,1469904660677,,,,,,,-0.01,0.07,0.97,-2.9,0.1,-0.2,680,0,,,,,,,,,,,,,,,,,
894346,1469904660697,,,,7,,,-0.01,0.07,0.98,-2.9,0.2,-0.2,680,0,0.0,0,39.540298,-122.33184,0.0,3.284,384.1,8,3,1.8,0,0.0,12,0.2467,,14.2783,1
894366,1469904660717,,,,,,,-0.01,0.07,0.98,-2.9,0.2,-0.2,680,0,,,,,,,,,,,,,,,,,
894386,1469904660737,,,,,,,-0.01,0.08,0.98,-2.9,0.2,-0.2,680,0,,,,,,,,,,,,,,,,,
894406,1469904660757,,,,,,,-0.01,0.08,0.98,-2.9,0.3,-0.2,680,0,,,,,,,,,,,,,,,,,
894426,1469904660777,,,,,,,-0.01,0.07,0.99,-2.9,0.4,-0.2,680,0,,,,,,,,,,,,,,,,,
894446,1469904660896,0,219.4,190.6,6,181.2,,-0.01,0.08,0.98,-2.9,0.3,-0.1,680,0,0.0,0,39.540298,-122.33184,0.0,3.284,384.1,8,3,1.8,0,0.0,12,0.2467,0.0,14.2817,1
894466,1469904660916,,,,,,,-0.01,0.08,0.98,-2.9,0.3,-0.1,700,0,,,,,,,,,,,,,,,,,
894486,1469904660936,,,,,,,-0.01,0.08,0.99,-2.9,0.3,-0.2,700,0,,,,,,,,,,,,,,,,,
894506,1469904660956,,,,,,,-0.01,0.08,0.99,-3.0,0.3,-0.1,660,0,,,,,,,,,,,,,,,,,
894526,1469904660976,,,,,,,-0.01,0.08,0.98,-3.0,0.3,-0.1,680,0,,,,,,,,,,,,,,,,,
894546,1469904660996,,,,9,,,-0.01,0.07,0.98,-2.9,0.2,-0.2,660,0,0.0,0,39.540298,-122.33184,0.0,3.284,384.1,8,3,1.8,0,0.0,12,0.2467,,14.2817,1
894566,1469904661016,,,,,,,-0.01,0.08,0.98,-2.9,0.2,-0.1,660,0,,,,,,,,,,,,,,,,,
894586,1469904661036,,,,,,,-0.01,0.08,0.98,-3.0,0.1,-0.1,680,0,,,,,,,,,,,,,,,,,
894606,1469904661056,,,,,,,-0.01,0.07,0.97,-2.9,0.1,-0.1,680,0,,,,,,,,,,,,,,,,,
894626,1469904661076,,,,,,,-0.0,0.07,0.98,-2.9,0.2,-0.1,680,0,,,,,,,,,,,,,,,,,
894646,1469904660997,0,218.4,191.4,8,182.2,,-0.0,0.08,0.98,-2.9,0.2,-0.1,700,0,0.0,0,39.540298,-122.33184,0.0,3.284,384.1,8,3,1.8,0,0.0,12,0.2467,0.0,14.2833,1
894666,1469904661017,,,,,,,-0.0,0.07,0.98,-2.9,0.2,-0.2,660,0,,,,,,,,,,,,,,,,,
894686,1469904661037,,,,,,,-0.0,0.07,0.98,-2.9,0.2,-0.2,660,0,,,,,,,,,,,,,,,,,
894706,1469904661057,,,,,,,-0.0,0.08,0.98,-2.9,0.2,-0.2,660,0,,,,,,,,,,,,,,,,,
894726,1469904661077,,,,,,,-0.0,0.08,0.98,-2.9,0.2,-0.2,660,89,,,,,,,,,,,,,,,,,
894746,1469904661097,,,,9,,,-0.0,0.08,0.98,-2.9,0.2,-0.3,660,89,0.0,0,39.540298,-122.33184,0.0,3.284,384.1,8,3,1.8,0,0.0,12,0.2467,,14.285,1
894766,1469904661117,,,,,,,0.0,0.08,0.98,-2.9,0.2,-0.2,660,30,,,,,,,,,,,,,,,,,
894786,1469904661137,,,,,,,0.01,0.08,0.98,-2.9,0.3,-0.2,660,30,,,,,,,,,,,,,,,,,
894806,1469904661157,,,,,,,0.01,0.07,0.98,-2.9,0.4,-0.2,660,30,,,,,,,,,,,,,,,,,
894826,1469904661177,,,,,,,0.01,0.08,0.98,-2.9,0.3,-0.2,680,30,,,,,,,,,,,,,,,,,
894846,1469904661197,0,218.7,189.5,6,180.2,,0.0,0.07,0.98,-2.9,0.3,-0.2,640,30,22.0,0,39.540298,-122.33184,0.0,3.284,384.1,8,3,1.8,0,0.0,12,0.2467,0.0,14.2867,1
894866,1469904661217,,,,,,,0.0,0.07,0.99,-2.9,0.3,-0.3,640,30,,,,,,,,,,,,,,,,,
894886,1469904661237,,,,,,,0.0,0.07,0.98,-2.9,0.3,-0.2,640,1538461,,,,,,,,,,,,,,,,,
894906,1469904661257,,,,,,,0.0,0.07,0.98,-2.8,0.3,-0.3,640,0,,,,,,,,,,,,,,,,,
894926,1469904661277,,,,,,,0.0,0.07,0.99,-2.9,0.4,-0.3,640,0,,,,,,,,,,,,,,,,,
894946,1469904661296,,,,8,,,0.01,0.07,0.99,-2.9,0.5,-0.2,660,0,21.333,0,39.540298,-122.33184,0.0,3.284,384.1,8,3,1.8,0,0.0,12,0.2467,,14.2883,1
894966,1469904661316,,,,,,,0.01,0.06,0.98,-2.9,0.5,-0.3,640,127,,,,,,,,,,,,,,,,,
894986,1469904661336,,,,,,,0.01,0.06,0.98,-2.9,0.6,-0.3,640,127,,,,,,,,,,,,,,,,,
895006,1469904661356,,,,,,,0.01,0.07,0.99,-2.9,0.7,-0.3,660,127,,,,,,,,,,,,,,,,,
895026,1469904661376,,,,,,,0.01,0.06,0.98,-2.8,0.7,-0.3,640,0,,,,,,,,,,,,,,,,,
895046,1469904661397,0,219.2,189.5,7,180.0,13.16,0.01,0.07,0.98,-2.8,0.7,-0.3,640,0,5.039,0,39.540298,-122.33184,0.0,3.284,384.1,8,3,1.8,0,0.0,12,0.2467,0.0,14.29,1
895066,1469904661417,,,,,,,0.02,0.07,0.99,-2.8,0.7,-0.3,620,0,,,,,,,,,,,,,,,,,
895086,1469904661437,,,,,,,0.01,0.06,0.98,-2.7,0.7,-0.4,620,33,,,,,,,,,,,,,,,,,
895106,1469904661457,,,,,,,0.01,0.06,0.98,-2.8,0.7,-0.4,620,33,,,,,,,,,,,,,,,,,
895126,1469904661477,,,,,,,0.02,0.06,0.98,-2.7,0.6,-0.3,640,33,,,,,,,,,,,,,,,,,
895146,1469904661497,,,,7,,,0.01,0.06,0.98,-2.7,0.5,-0.4,640,33,0.0,0,39.540298,-122.33184,0.0,3.284,384.1,8,3,1.8,0,0.0,12,0.2467,,14.2917,1
895166,1469904661517,,,,,,,0.01,0.07,0.98,-2.8,0.5,-0.3,640,33,,,,,,,,,,,,,,,,,
895186,1469904661537,,,,,,,0.01,0.06,0.98,-2.8,0.4,-0.3,660,13,,,,,,,,,,,,,,,,,
895206,1469904661557,,,,,,,0.01,0.05,0.98,-2.8,0.4,-0.3,660,13,,,,,,,,,,,,,,,,,
895226,1469904661577,,,,,,,0.01,0.06,0.98,-2.8,0.5,-0.3,640,13,,,,,,,,,,,,,,,,,
895246,1469904661697,0,219.2,189.5,6,179.8,,0.01,0.06,0.98,-2.8,0.4,-0.3,640,13,19.394,0,39.540298,-122.33184,0.0,3.284,384.1,8,3,1.8,0,0.0,12,0.2467,0.0,14.295,1
895266,1469904661717,,,,,,,0.0,0.05,0.98,-2.8,0.5,-0.2,640,13,,,,,,,,,,,,,,,,,
895286,1469904661737,,,,,,,0.01,0.06,0.98,-2.8,0.5,-0.1,640,15,,,,,,,,,,,,,,,,,
895306,1469904661757,,,,,,,0.01,0.06,0.98,-2.8,0.4,-0.2,660,15,,,,,,,,,,,,,,,,,
895326,1469904661777,,,,,,,0.01,0.06,0.98,-2.8,0.4,-0.2,660,15,,,,,,,,,,,,,,,,,
895346,1469904661797,,,,5,,,0.01,0.07,0.98,-2.8,0.5,-0.1,640,15,49.231,0,39.540298,-122.33184,0.0,3.284,384.1,8,3,1.8,0,0.0,12,0.2467,,14.295,1
895366,1469904661817,,,,,,,0.01,0.06,0.98,-2.8,0.5,-0.2,680,16,,,,,,,,,,,,,,,,,
895386,1469904661837,,,,,,,0.01,0.06,0.98,-2.8,0.5,-0.2,680,16,,,,,,,,,,,,,,,,,
895406,1469904661857,,,,,,,0.02,0.07,0.99,-2.8,0.5,-0.2,660,16,,,,,,,,,,,,,,,,,
895426,1469904661877,,,,,,,0.02,0.06,0.98,-2.8,0.6,-0.2,660,16,,,,,,,,,,,,,,,,,
895446,1469904661798,0,218.6,189.4,8,179.9,,0.01,0.06,0.98,-2.8,0.6,-0.2,660,26,42.5,0,39.540298,-122.33184,0.0,3.284,384.1,8,3,1.8,0,0.0,12,0.2467,0.0,14.2967,1
895466,1469904661818,,,,,,,0.02,0.07,0.98,-2.9,0.6,-0.2,660,26,,,,,,,,,,,,,,,,,
895486,1469904661838,,,,,,,0.01,0.07,0.98,-2.8,0.5,-0.3,680,26,,,,,,,,,,,,,,,,,
895506,1469904661858,,,,,,,0.01,0.06,0.98,-2.8,0.6,-0.3,680,21,,,,,,,,,,,,,,,,,
895526,1469904661878,,,,,,,0.01,0.07,0.98,-2.8,0.7,-0.3,660,21,,,,,,,,,,,,,,,,,
895546,1469904661891,,,,8,,,0.01,0.07,0.98,-2.8,0.8,-0.4,680,21,25.385,0,39.540298,-122.33184,0.0,3.284,384.1,8,3,1.8,0,0.0,12,0.2467,,14.2983,1
895566,1469904661911,,,,,,,0.01,0.06,0.98,-2.8,0.8,-0.4,680,21,,,,,,,,,,,,,,,,,
895586,1469904661931,,,,,,,0.01,0.07,0.98,-2.8,0.8,-0.3,680,21,,,,,,,,,,,,,,,,,
895606,1469904661951,,,,,,,0.01,0.06,0.98,-2.8,0.8,-0.4,680,21,,,,,,,,,,,,,,,,,
895626,1469904661971,,,,,,,0.0,0.06,0.98,-2.8,0.8,-0.4,680,29,,,,,,,,,,,,,,,,,
895646,1469904661998,0,218.2,191.2,7,181.5,,0.01,0.07,0.98,-2.8,0.9,-0.3,680,29,32.381,0,39.540298,-122.33184,0.0,3.284,384.1,8,3,1.8,0,0.0,12,0.2467,0.0,14.3,1
895666,1469904662018,,,,,,,0.01,0.07,0.98,-2.8,0.7,-0.3,680,26,,,,,,,,,,,,,,,,,
895686,1469904662038,,,,,,,0.0,0.07,0.98,-2.8,0.6,-0.4,680,26,,,,,,,,,,,,,,,,,
895706,1469904662058,,,,,,,0.01,0.07,0.98,-2.8,0.7,-0.2,680,26,,,,,,,,,,,,,,,,,
895726,1469904662078,,,,,,,0.01,0.08,0.97,-2.8,0.6,-0.2,700,29,,,,,,,,,,,,,,,,,
895746,1469904662097,,,,7,,,0.01,0.07,0.97,-2.7,0.5,-0.2,680,29,26.154,0,39.540298,-122.33184,0.0,3.284,384.1,8,3,1.8,0,0.0,12,0.2467,,14.3017,1
895766,1469904662117,,,,,,,0.01,0.07,0.98,-2.7,0.5,-0.2,680,30,,,,,,,,,,,,,,,,,
895786,1469904662137,,,,,,,0.01,0.08,0.97,-2.7,0.5,-0.2,680,30,,,,,,,,,,,,,,,,,
895806,1469904662157,,,,,,,0.01,0.07,0.97,-2.7,0.5,-0.3,660,30,,,,,,,,,,,,,,,,,
895826,1469904662177,,,,,,,0.01,0.07,0.98,-2.7,0.5,-0.3,660,32,,,,,,,,,,,,,,,,,
895846,1469904662193,0,219.0,190.7,8,179.5,,0.02,0.07,0.98,-2.7,0.5,-0.2,680,32,22.667,0,39.540298,-122.33184,0.0,3.284,384.1,8,3,1.8,0,0.0,12,0.2467,0.0,14.3033,1
895866,1469904662213,,,,,,,0.02,0.06,0.98,-2.7,0.6,-0.3,680,32,,,,,,,,,,,,,,,,,
895886,1469904662233,,,,,,,0.01,0.05,0.98,-2.7,0.6,-0.3,680,32,,,,,,,,,,,,,,,,,
895906,1469904662253,,,,,,,0.01,0.06,0.98,-2.7,0.6,-0.2,700,35,,,,,,,,,,,,,,,,,
895926,1469904662273,,,,,,,0.01,0.06,0.98,-2.7,0.6,-0.2,680,35,,,,,,,,,,,,,,,,,
895946,1469904662298,,,,8,,,0.01,0.06,0.98,-2.7,0.5,-0.3,680,36,21.25,0,39.540298,-122.33184,0.0,3.284,384.1,8,3,1.8,0,0.0,12,0.2467,,14.305,1
895966,1469904662318,,,,,,,0.01,0.07,0.99,-2.8,0.5,-0.2,680,36,,,,,,,,,,,,,,,,,
895986,1469904662338,,,,,,,0.01,0.06,0.98,-2.7,0.4,-0.1,680,35,,,,,,,,,,,,,,,,,
896006,1469904662358,,,,,,,0.01,0.06,0.99,-2.7,0.3,-0.2,680,35,,,,,,,,,,,,,,,,,
896026,1469904662378,,,,,,,0.01,0.07,0.99,-2.7,0.2,-0.3,680,44,,,,,,,,,,,,,,,,,
896046,1469904662497,0,219.3,191.0,7,180.3,13.23,0.01,0.07,0.99,-2.7,0.1,-0.2,680,44,18.889,0,39.540298,-122.33184,0.0,3.284,384.1,8,3,1.8,0,0.0,12,0.2467,0.0,14.3083,1
896066,1469904662517,,,,,,,0.01,0.06,0.98,-2.7,0.2,-0.3,700,35,,,,,,,,,,,,,,,,,
896086,1469904662537,,,,,,,0.01,0.06,0.99,-2.7,0.3,-0.3,700,44,,,,,,,,,,,,,,,,,
896106,1469904662557,,,,,,,0.02,0.07,0.99,-2.7,0.2,-0.2,680,44,,,,,,,,,,,,,,,,,
896126,1469904662577,,,,,,,0.02,0.07,0.99,-2.7,0.2,-0.1,680,46,,,,,,,,,,,,,,,,,
896146,1469904662597,,,,6,,,0.01,0.06,0.99,-2.7,0.1,-0.2,680,46,20.0,0,39.540298,-122.33184,0.0,3.284,384.1,8,3,1.8,0,0.0,12,0.2467,,14.3083,1
896166,1469904662617,,,,,,,0.02,0.07,0.98,-2.8,0.2,-0.1,680,40,,,,,,,,,,,,,,,,,
896186,1469904662637,,,,,,,0.02,0.07,0.98,-2.8,0.2,-0.0,700,40,,,,,,,,,,,,,,,,,
896206,1469904662657,,,,,,,0.02,0.07,0.98,-2.7,0.1,-0.1,700,47,,,,,,,,,,,,,,,,,
896226,1469904662677,,,,,,,0.02,0.08,0.99,-2.8,0.2,-0.1,700,47,,,,,,,,,,,,,,,,,
896246,1469904662598,0,219.0,190.7,8,179.4,,0.03,0.08,0.99,-2.8,0.2,-0.0,700,47,17.0,0,39.540298,-122.33184,0.0,3.284,384.1,8,3,1.8,0,0.0,12,0.2467,0.0,14.31,1
896266,1469904662618,,,,,,,0.03,0.08,0.99,-2.8,0.2,-0.1,700,47,,,,,,,,,,,,,,,,,
896286,1469904662638,,,,,,,0.02,0.07,0.99,-2.7,0.1,-0.2,700,47,,,,,,,,,,,,,,,,,
896306,1469904662658,,,,,,,0.02,0.07,0.98,-2.7,0.1,-0.1,700,47,,,,,,,,,,,,,,,,,
896326,1469904662678,,,,,,,0.02,0.07,0.98,-2.7,0.1,-0.1,680,50,,,,,,,,,,,,,,,,,
896346,1469904662698,,,,8,,,0.02,0.07,0.98,-2.7,0.1,-0.2,700,55,14.894,0,39.540298,-122.33184,0.0,3.284,384.1,8,3,1.8,0,0.0,12,0.2467,,14.3117,1
896366,1469904662718,,,,,,,0.02,0.08,0.98,-2.7,0.1,-0.1,700,55,,,,,,,,,,,,,,,,,
896386,1469904662738,,,,,,,0.02,0.08,0.98,-2.7,0.0,-0.1,680,47,,,,,,,,,,,,,,,,,
896406,1469904662758,,,,,,,0.02,0.07,0.98,-2.7,0.1,-0.1,700,47,,,,,,,,,,,,,,,,,
896426,1469904662778,,,,,,,0.02,0.07,0.99,-2.7,0.2,-0.1,700,47,,,,,,,,,,,,,,,,,
896446,1469904662798,0,217.7,189.2,7,181.2,,0.02,0.07,0.99,-2.7,0.2,-0.0,700,60,12.727,0,39.540298,-122.33184,0.0,3.284,384.1,8,3,1.8,0,0.0,12,0.2467,0.0,14.3133,1
896466,1469904662818,,,,,,,0.02,0.07,0.99,-2.7,0.2,-0.0,700,56,,,,,,,,,,,,,,,,,
896486,1469904662838,,,,,,,0.01,0.06,0.99,-2.7,0.1,-0.1,700,49,,,,,,,,,,,,,,,,,
896506,1469904662858,,,,,,,0.02,0.07,0.99,-2.7,0.2,0.0,680,49,,,,,,,,,,,,,,,,,
896526,1469904662878,,,,,,,0.02,0.07,0.98,-2.7,0.2,0.1,700,55,,,,,,,,,,,,,,,,,
896546,1469904662891,,,,7,,,0.02,0.07,0.98,-2.7,0.1,-0.0,700,60,12.5,0,39.540298,-122.33184,0.0,3.284,384.1,8,3,1.8,0,0.0,12,0.2467,,14.315,1
896566,1469904662911,,,,,,,0.02,0.07,0.98,-2.6,0.3,-0.1,700,58,,,,,,,,,,,,,,,,,
896586,1469904662931,,,,,,,0.02,0.08,0.98,-2.7,0.3,0.0,720,58,,,,,,,,,,,,,,,,,
896606,1469904662951,,,,,,,0.02,0.08,0.99,-2.7,0.3,-0.1,700,58,,,,,,,,,,,,,,,,,
896626,1469904662971,,,,,,,0.02,0.07,0.99,-2.7,0.2,-0.1,700,56,,,,,,,,,,,,,,,,,
896646,1469904662998,0,218.2,189.6,9,179.6,,0.02,0.07,0.99,-2.7,0.2,-0.0,700,56,12.069,0,39.540298,-122.33184,0.0,3.284,384.1,8,3,1.8,0,0.0,12,0.2467,0.0,14.3167,1
896666,1469904663018,,,,,,,0.02,0.07,0.98,-2.6,0.1,-0.0,700,63,,,,,,,,,,,,,,,,,
896686,1469904663038,,,,,,,0.02,0.07,0.99,-2.6,0.1,-0.2,700,63,,,,,,,,,,,,,,,,,
896706,1469904663058,,,,,,,0.02,0.08,0.98,-2.6,0.2,-0.2,700,61,,,,,,,,,,,,,,,,,
896726,1469904663078,,,,,,,0.02,0.08,0.99,-2.7,0.3,-0.1,700,56,,,,,,,,,,,,,,,,,
896746,1469904663098,,,,9,,,0.02,0.07,0.99,-2.7,0.3,-0.1,720,56,12.5,0,39.540298,-122.33184,0.0,3.284,384.1,8,3,1.8,0,0.0,12,0.2467,,14.3183,1
896766,1469904663118,,,,,,,0.01,0.07,0.99,-2.7,0.4,-0.1,720,55,,,,,,,,,,,,,,,,,
896786,1469904663138,,,,,,,0.01,0.06,0.99,-2.7,0.3,-0.1,720,53,,,,,,,,,,,,,,,,,
896806,1469904663158,,,,,,,0.01,0.07,0.98,-2.6,0.2,-0.0,720,52,,,,,,,,,,,,,,,,,
896826,1469904663178,,,,,,,0.0,0.07,0.98,-2.5,0.1,-0.2,700,52,,,,,,,,,,,,,,,,,
896846,1469904663297,0,218.7,190.6,11,180.4,,0.01,0.08,0.98,-2.6,0.3,-0.2,700,49,13.091,0,39.54031,-122.331863,1.07,3.285,375.7,8,3,1.8,0,0.0,12,0.2467,0.0,14.3217,1
896866,1469904663317,,,,,,,0.01,0.09,0.98,-2.7,0.4,-0.1,720,52,,,,,,,,,,,,,,,,,
896886,1469904663337,,,,,,,0.01,0.09,0.98,-2.7,0.4,-0.1,720,52,,,,,,,,,,,,,,,,,
896906,1469904663357,,,,,,,0.0,0.09,0.98,-2.8,0.3,-0.2,740,50,,,,,,,,,,,,,,,,,
896926,1469904663377,,,,,,,0.01,0.09,0.98,-2.8,0.3,-0.1,740,49,,,,,,,,,,,,,,,,,
896946,1469904663397,,,,8,,,0.01,0.09,0.98,-2.8,0.3,-0.0,720,49,13.846,0,39.54031,-122.331863,1.07,3.285,375.7,8,3,1.8,0,0.0,12,0.2467,,14.3217,1
896966,1469904663417,,,,,,,0.01,0.08,0.99,-2.8,0.4,-0.1,720,49,,,,,,,,,,,,,,,,,
896986,1469904663437,,,,,,,0.0,0.07,0.99,-2.7,0.5,-0.2,720,50,,,,,,,,,,,,,,,,,
897006,1469904663457,,,,,,,0.0,0.06,0.99,-2.7,0.5,-0.1,720,50,,,,,,,,,,,,,,,,,
897026,1469904663477,,,,,,,0.01,0.07,0.98,-2.6,0.5,-0.1,740,53,,,,,,,,,,,,,,,,,
897046,1469904663398,0,218.7,190.9,10,181.6,13.21,0.01,0.06,0.98,-2.6,0.5,-0.2,720,55,14.694,0,39.54031,-122.331863,1.0,3.285,375.9,8,3,1.8,0,0.0,12,0.2467,0.0,14.3233,1
897066,1469904663418,,,,,,,0.0,0.06,0.99,-2.5,0.6,-0.3,760,60,,,,,,,,,,,,,,,,,
897086,1469904663438,,,,,,,-0.0,0.06,0.99,-2.6,0.5,-0.3,760,60,,,,,,,,,,,,,,,,,
897106,1469904663458,,,,,,,-0.0,0.06,0.98,-2.6,0.5,-0.2,740,63,,,,,,,,,,,,,,,,,
