"Interval"|"ms"|0|0|1,"Utc"|"ms"|0|0|1,"FuelLevel"|"F"|0|100|5,"OilTemp"|"F"|0.0|300.0|5,"Coolant"|"F"|0.0|300.0|5,"OilPress"|"PSI"|0|150|10,"EngineTemp"|"F"|0.0|300.0|5,"Battery"|"Volts"|0.0|20.0|1,"AccelX"|"G"|-3.0|3.0|50,"AccelY"|"G"|-3.0|3.0|50,"AccelZ"|"G"|-3.0|3.0|50,"Yaw"|"Deg/Sec"|-300.0|300.0|50,"Pitch"|"Deg/Sec"|-300.0|300.0|50,"Roll"|"Deg/Sec"|-300.0|300.0|50,"RPM"|""|0|10000|50,"Driveshaft"|"RPM"|0|5000|50,"GearRatio"|""|-5.0|5.0|10,"Gear"|""|-1|5|10,"Latitude"|"Degrees"|-180.0|180.0|10,"Longitude"|"Degrees"|-180.0|180.0|10,"Speed"|"MPH"|0.0|150.0|10,"Distance"|"Miles"|0.0|0.0|10,"Altitude"|"Feet"|0.0|4000.0|10,"GPSSats"|""|0|20|10,"GPSQual"|""|0|5|10,"GPSDOP"|""|0.0|20.0|10,"LapCount"|""|0|0|10,"LapTime"|"Min"|0.0|0.0|10,"Sector"|""|0|0|10,"SectorTime"|"Min"|0.0|0.0|10,"PredTime"|"Min"|0.0|0.0|5,"ElapsedTime"|"Min"|0.0|0.0|10,"CurrentLap"|""|0|0|10
5066,1469906390699,,,,,,,0.35,0.28,1.19,-6.7,-2.4,0.8,4740,4718,,,,,,,,,,,,,,,,,
5086,1469906390619,,,,,,,0.33,0.26,1.16,-6.8,-1.9,1.1,4660,4578,,,,,,,,,,,,,,,,,
5106,1469906390639,,,,,,,0.35,0.36,1.16,-6.8,-2.0,1.3,4600,4578,,,,,,,,,,,,,,,,,
5126,1469906390659,,,,,,,0.3,0.37,1.11,-6.8,-1.6,1.2,4600,4578,,,,,,,,,,,,,,,,,
5146,1469906390679,,,,43,,,0.36,0.45,1.05,-6.9,-1.3,1.2,4580,4550,0.984,4,39.545067,-122.332481,84.51,0.002,316.3,8,2,1.6,0,0.0,-1,0.0,,0.0,0
5166,1469906390699,,,,,,,0.31,0.47,1.07,-7.3,-0.4,1.5,4640,4578,,,,,,,,,,,,,,,,,
5186,1469906390719,,,,,,,0.35,0.5,1.01,-7.6,-0.9,1.3,4480,4550,,,,,,,,,,,,,,,,,
5206,1469906390739,,,,,,,0.34,0.54,1.02,-8.1,-0.4,1.2,4480,4550,,,,,,,,,,,,,,,,,
5226,1469906390759,,,,,,,0.41,0.54,0.99,-8.6,-0.6,1.2,4480,4496,,,,,,,,,,,,,,,,,
5246,1469906390779,0,275.3,207.1,49,209.3,,0.4,0.49,0.99,-8.6,-0.8,1.4,4540,4496,1.002,4,39.545067,-122.332535,83.64,0.005,316.8,8,2,1.6,0,0.0,-1,0.0,0.0,0.0,0
5266,1469906390801,,,,,,,0.46,0.53,0.99,-8.9,-1.5,1.3,4460,4524,,,,,,,,,,,,,,,,,
5286,1469906390821,,,,,,,0.44,0.46,1.0,-8.8,-1.5,1.2,4500,4550,,,,,,,,,,,,,,,,,
5306,1469906390841,,,,,,,0.47,0.48,0.98,-8.9,-1.2,1.2,4520,4470,,,,,,,,,,,,,,,,,
5326,1469906390861,,,,,,,0.43,0.5,1.02,-9.3,-1.3,1.4,4560,4524,,,,,,,,,,,,,,,,,
5346,1469906390881,,,,85,,,0.46,0.46,0.98,-9.1,-1.9,1.0,4440,4524,0.99,4,39.545067,-122.332573,82.6,0.007,317.4,8,2,1.6,0,0.0,-1,0.0,,0.0,0
5366,1469906390901,,,,,,,0.45,0.52,0.96,-9.3,-2.0,0.9,4580,4496,,,,,,,,,,,,,,,,,
5386,1469906390915,,,,,,,0.46,0.55,0.98,-9.8,-2.4,0.4,4560,4470,,,,,,,,,,,,,,,,,
5406,1469906390935,,,,,,,0.39,0.65,0.99,-10.3,-2.9,0.4,4360,4524,,,,,,,,,,,,,,,,,
5426,1469906390955,,,,,,,0.4,0.66,0.97,-10.7,-2.8,0.2,4460,4420,,,,,,,,,,,,,,,,,
5446,1469906390975,0,275.3,207.1,55,209.7,,0.34,0.63,0.93,-10.8,-1.6,0.2,4460,4420,1.017,4,39.545063,-122.332611,81.9,0.009,317.8,8,2,1.6,0,0.0,-1,0.0,0.0,0.0,0
5466,1469906391001,,,,,,,0.4,0.6,0.94,-10.6,-1.7,0.0,4500,4369,,,,,,,,,,,,,,,,,
5486,1469906391021,,,,,,,0.36,0.6,0.94,-10.6,-1.4,0.1,4460,4470,,,,,,,,,,,,,,,,,
5506,1469906391041,,,,,,,0.4,0.59,0.89,-10.4,-2.2,-0.2,4400,4446,,,,,,,,,,,,,,,,,
5526,1469906391061,,,,,,,0.34,0.63,0.94,-10.7,-1.1,-0.2,4460,4446,,,,,,,,,,,,,,,,,
5546,1469906391081,,,,41,,,0.39,0.65,0.87,-10.8,-1.8,-0.2,4440,4420,0.982,4,39.545063,-122.332657,80.88,0.011,318.2,8,2,1.6,0,0.0,-1,0.0,,0.0,0
5566,1469906391101,,,,,,,0.35,0.62,0.9,-11.0,-1.3,0.1,4360,4470,,,,,,,,,,,,,,,,,
5586,1469906391121,,,,,,,0.35,0.69,0.86,-11.3,-1.9,0.5,4420,4470,,,,,,,,,,,,,,,,,
5606,1469906391141,,,,,,,0.31,0.65,0.84,-11.3,-1.9,0.6,4380,4446,,,,,,,,,,,,,,,,,
5626,1469906391161,,,,,,,0.29,0.71,0.83,-11.2,-1.5,0.9,4440,4446,,,,,,,,,,,,,,,,,
5646,1469906391181,0,275.6,207.1,41,209.3,,0.26,0.64,0.85,-11.0,-0.6,1.0,4420,4369,0.99,4,39.545063,-122.332703,80.01,0.014,318.3,8,2,1.6,0,0.0,-1,0.0,0.0,0.0,0
5666,1469906391201,,,,,,,0.21,0.72,0.88,-11.1,-0.6,1.1,4280,4446,,,,,,,,,,,,,,,,,
5686,1469906391314,,,,,,,0.21,0.71,0.84,-11.0,0.0,1.0,4380,4420,,,,,,,,,,,,,,,,,
5706,1469906391334,,,,,,,0.19,0.67,0.88,-10.7,-0.9,1.2,4340,4395,,,,,,,,,,,,,,,,,
5726,1469906391354,,,,,,,0.2,0.63,0.89,-10.6,0.6,1.3,4380,4420,,,,,,,,,,,,,,,,,
5746,1469906391374,,,,36,,,0.22,0.56,0.97,-10.4,0.3,1.2,4340,4420,1.014,4,39.545059,-122.332779,78.67,0.018,318.8,8,2,1.6,0,0.0,-1,0.0,,0.0,0
5766,1469906391394,,,,,,,0.2,0.52,0.99,-10.3,0.7,1.2,4420,4420,,,,,,,,,,,,,,,,,
5786,1469906391414,,,,,,,0.18,0.5,1.0,-10.5,0.3,1.3,4380,4395,,,,,,,,,,,,,,,,,
5806,1469906391434,,,,,,,0.2,0.51,1.02,-10.8,0.2,1.3,4360,4369,,,,,,,,,,,,,,,,,
5826,1469906391454,,,,,,,0.12,0.58,1.02,-11.5,1.0,1.5,4400,4369,,,,,,,,,,,,,,,,,
5846,1469906391474,0,275.8,208.2,56,210.3,,0.18,0.68,0.99,-12.1,0.1,1.8,4500,4344,0.993,4,39.545059,-122.332779,78.67,0.018,318.8,8,2,1.6,0,0.0,-1,0.0,0.0,0.0,0
5866,1469906391494,,,,,,,0.14,0.66,0.98,-12.9,0.4,2.3,4560,4395,,,,,,,,,,,,,,,,,
5886,1469906391420,,,,,,,0.14,0.71,0.95,-13.1,-0.4,2.4,4460,4496,,,,,,,,,,,,,,,,,
5906,1469906391440,,,,,,,0.09,0.72,0.87,-13.2,0.1,2.5,4500,4524,,,,,,,,,,,,,,,,,
5926,1469906391460,,,,,,,0.12,0.71,0.87,-13.2,-0.8,2.6,4480,4496,,,,,,,,,,,,,,,,,
5946,1469906391480,,,,60,,,0.05,0.66,0.8,-13.3,0.6,2.9,4380,4470,0.983,4,39.545055,-122.332825,78.24,0.02,319.0,8,2,1.6,0,0.0,-1,0.0,,0.0,0
5966,1469906391503,,,,,,,0.05,0.7,0.76,-13.3,0.6,2.4,4300,4420,,,,,,,,,,,,,,,,,
5986,1469906391523,,,,,,,-0.03,0.63,0.8,-13.4,0.8,2.1,4360,4395,,,,,,,,,,,,,,,,,
6006,1469906391543,,,,,,,-0.05,0.67,0.83,-13.7,1.0,2.2,4400,4395,,,,,,,,,,,,,,,,,
6026,1469906391563,,,,,,,-0.05,0.73,0.82,-14.0,1.6,2.2,4460,4344,,,,,,,,,,,,,,,,,
6046,1469906391583,0,276.6,208.0,72,209.8,13.99,-0.04,0.69,0.9,-14.2,1.1,2.7,4320,4344,1.014,4,39.545052,-122.332863,77.9,0.022,319.2,8,2,1.6,0,0.0,-1,0.0,0.0,0.0,0
6066,1469906391592,,,,,,,0.02,0.76,0.94,-14.3,2.1,2.6,4380,4420,,,,,,,,,,,,,,,,,
6086,1469906391612,,,,,,,0.04,0.74,0.91,-14.6,1.3,3.1,4440,4446,,,,,,,,,,,,,,,,,
6106,1469906391632,,,,,,,0.06,0.77,0.95,-14.5,2.5,3.3,4420,4420,,,,,,,,,,,,,,,,,
6126,1469906391652,,,,,,,0.05,0.72,0.95,-14.6,1.5,3.8,4340,4470,,,,,,,,,,,,,,,,,
6146,1469906391672,,,,38,,,0.07,0.74,0.97,-14.6,2.1,3.7,4340,4446,0.977,4,39.545052,-122.332901,77.7,0.024,319.4,8,2,1.6,0,0.0,-1,0.0,,0.0,0
6166,1469906391692,,,,,,,0.06,0.74,0.98,-14.8,1.7,3.8,4360,4395,,,,,,,,,,,,,,,,,
6186,1469906391712,,,,,,,0.12,0.7,1.06,-14.7,0.9,3.1,4520,4369,,,,,,,,,,,,,,,,,
6206,1469906391732,,,,,,,0.06,0.69,1.02,-14.9,1.0,2.7,4300,4369,,,,,,,,,,,,,,,,,
6226,1469906391752,,,,,,,0.15,0.74,0.99,-14.6,-0.6,2.1,4520,4395,,,,,,,,,,,,,,,,,
6246,1469906391772,1,275.4,207.3,49,209.5,,0.07,0.76,0.96,-14.7,0.3,1.5,4200,4420,0.978,4,39.545048,-122.332939,77.53,0.027,319.5,8,2,1.6,0,0.0,-1,0.0,0.0,0.0,0
6266,1469906391795,,,,,,,0.09,0.79,0.93,-14.5,-0.4,0.6,4300,4369,,,,,,,,,,,,,,,,,
6286,1469906391815,,,,,,,0.02,0.71,0.9,-14.5,0.5,0.2,4440,4369,,,,,,,,,,,,,,,,,
6306,1469906391835,,,,,,,0.02,0.72,0.89,-14.5,-0.6,-0.5,4500,4395,,,,,,,,,,,,,,,,,
6326,1469906391855,,,,,,,0.03,0.74,0.86,-14.3,-0.4,-1.1,4400,4420,,,,,,,,,,,,,,,,,
6346,1469906391875,,,,85,,,0.02,0.76,0.9,-14.1,-1.8,-1.2,4220,4395,1.006,4,39.54504,-122.332977,77.32,0.029,319.8,8,2,1.6,0,0.0,-1,0.0,,0.0,0
6366,1469906391895,,,,,,,0.05,0.74,0.92,-13.8,-0.3,-1.6,4420,4395,,,,,,,,,,,,,,,,,
6386,1469906391908,,,,,,,0.01,0.72,0.92,-13.6,-1.0,-1.6,4240,4369,,,,,,,,,,,,,,,,,
6406,1469906391928,,,,,,,0.06,0.71,0.94,-13.6,-0.6,-1.9,4300,4344,,,,,,,,,,,,,,,,,
6426,1469906391948,,,,,,,0.04,0.73,0.93,-13.9,-0.9,-1.8,4300,4344,,,,,,,,,,,,,,,,,
6446,1469906391968,1,275.4,207.4,51,209.7,,0.12,0.71,0.92,-14.2,-3.1,-1.9,4400,4320,0.976,4,39.545036,-122.333015,77.23,0.031,320.1,8,2,1.6,0,0.0,-1,0.0,0.0,0.0,0
6466,1469906392094,,,,,,,0.04,0.73,0.93,-14.7,-1.5,-2.1,4360,4344,,,,,,,,,,,,,,,,,
6486,1469906392114,,,,,,,0.09,0.79,0.88,-15.1,-2.5,-2.2,4400,4369,,,,,,,,,,,,,,,,,
6506,1469906392134,,,,,,,0.08,0.75,0.88,-15.2,-1.6,-2.0,4380,4320,,,,,,,,,,,,,,,,,
6526,1469906392154,,,,,,,0.04,0.79,0.88,-15.3,-2.0,-2.2,4460,4395,,,,,,,,,,,,,,,,,
6546,1469906392174,,,,40,,,0.08,0.79,0.88,-15.3,-1.9,-2.3,4320,4395,0.984,4,39.545025,-122.333099,76.71,0.035,320.5,8,2,1.6,0,0.0,-1,0.0,,0.0,0
6566,1469906392194,,,,,,,0.07,0.78,0.92,-15.5,-2.2,-1.9,4220,4420,,,,,,,,,,,,,,,,,
6586,1469906392214,,,,,,,0.11,0.78,0.99,-15.7,-0.4,-2.0,4340,4420,,,,,,,,,,,,,,,,,
6606,1469906392234,,,,,,,0.07,0.77,0.98,-16.0,-0.8,-1.5,4200,4420,,,,,,,,,,,,,,,,,
6626,1469906392254,,,,,,,0.11,0.75,0.96,-16.1,-1.1,-1.8,4480,4369,,,,,,,,,,,,,,,,,
6646,1469906392274,0,275.8,207.5,39,210.6,,0.06,0.74,0.94,-16.4,-1.2,-1.5,4340,4395,1.001,4,39.545025,-122.333099,76.71,0.035,320.5,8,2,1.6,0,0.0,-1,0.0,0.0,0.0,0
6666,1469906392194,,,,,,,0.15,0.77,0.9,-16.6,-2.7,-1.4,4500,4320,,,,,,,,,,,,,,,,,
6686,1469906392214,,,,,,,0.11,0.82,0.89,-17.3,-2.0,-1.0,4300,4344,,,,,,,,,,,,,,,,,
6706,1469906392234,,,,,,,0.15,0.9,0.89,-17.8,-2.5,-0.8,4180,4395,,,,,,,,,,,,,,,,,
6726,1469906392254,,,,,,,0.1,0.9,0.9,-18.2,-1.1,-0.2,4320,4320,,,,,,,,,,,,,,,,,
6746,1469906392274,,,,55,,,0.05,0.9,0.91,-18.5,-0.7,0.5,4480,4369,1.003,4,39.545013,-122.333138,76.59,0.037,320.3,8,2,1.6,0,0.0,-1,0.0,,0.0,0
6766,1469906392295,,,,,,,0.04,1.01,0.91,-18.6,-0.3,0.5,4500,4369,,,,,,,,,,,,,,,,,
6786,1469906392315,,,,,,,-0.0,0.96,0.99,-18.6,-0.8,0.7,4300,4344,,,,,,,,,,,,,,,,,
6806,1469906392335,,,,,,,0.04,0.95,1.06,-18.6,1.1,0.8,4320,4369,,,,,,,,,,,,,,,,,
6826,1469906392355,,,,,,,0.03,0.94,1.13,-18.7,1.7,1.0,4320,4344,,,,,,,,,,,,,,,,,
6846,1469906392375,1,276.8,207.9,68,209.9,,0.09,0.94,1.21,-18.5,1.3,0.4,4360,4320,0.999,4,39.54501,-122.333176,76.41,0.039,320.5,8,2,1.6,0,0.0,-1,0.0,0.0,0.0,0
6866,1469906392392,,,,,,,0.05,1.05,1.21,-18.7,2.5,-0.3,4380,4395,,,,,,,,,,,,,,,,,
6886,1469906392412,,,,,,,0.16,1.15,1.2,-19.0,2.8,-1.3,4500,4369,,,,,,,,,,,,,,,,,
6906,1469906392432,,,,,,,0.13,1.17,1.15,-19.6,4.5,-1.2,4180,4395,,,,,,,,,,,,,,,,,
6926,1469906392452,,,,,,,0.17,1.26,1.15,-19.9,4.2,-1.0,4220,4420,,,,,,,,,,,,,,,,,
6946,1469906392472,,,,86,,,0.11,1.24,1.17,-19.8,5.6,-0.6,4360,4344,1.023,4,39.544998,-122.333214,76.24,0.042,320.7,8,2,1.6,0,0.0,-1,0.0,,0.0,0
6966,1469906392492,,,,,,,0.03,1.32,1.15,-19.1,4.1,-0.8,4480,4344,,,,,,,,,,,,,,,,,
6986,1469906392512,,,,,,,0.03,1.28,1.11,-18.3,4.8,-0.8,4520,4320,,,,,,,,,,,,,,,,,
7006,1469906392532,,,,,,,0.01,1.26,1.08,-17.3,4.2,-0.6,4340,4320,,,,,,,,,,,,,,,,,
7026,1469906392552,,,,,,,0.03,1.31,1.11,-16.7,3.9,-1.2,4420,4320,,,,,,,,,,,,,,,,,
7046,1469906392572,0,275.4,207.5,36,209.7,13.95,0.0,1.28,1.14,-16.2,4.5,-1.7,4300,4296,1.009,4,39.544991,-122.333252,75.9,0.044,320.0,8,2,1.6,0,0.0,-1,0.0,0.0,0.0,0
7066,1469906392592,,,,,,,0.05,1.17,1.07,-16.1,3.4,-1.9,4200,4320,,,,,,,,,,,,,,,,,
7086,1469906392612,,,,,,,0.01,1.09,1.04,-16.1,3.7,-2.3,4400,4320,,,,,,,,,,,,,,,,,
7106,1469906392632,,,,,,,-0.02,1.13,1.03,-15.9,1.7,-2.7,4500,4320,,,,,,,,,,,,,,,,,
7126,1469906392652,,,,,,,-0.03,1.1,1.04,-15.7,1.9,-2.4,4460,4344,,,,,,,,,,,,,,,,,
7146,1469906392672,,,,37,,,-0.06,1.15,1.01,-15.6,1.9,-2.0,4260,4395,1.028,4,39.544979,-122.33329,75.45,0.046,319.7,8,2,1.6,0,0.0,-1,0.0,,0.0,0
7166,1469906392692,,,,,,,-0.03,1.11,1.08,-15.7,2.4,-1.5,4300,4344,,,,,,,,,,,,,,,,,
7186,1469906392712,,,,,,,-0.06,1.07,1.1,-15.5,1.3,-0.6,4140,4369,,,,,,,,,,,,,,,,,
7206,1469906392732,,,,,,,-0.03,1.05,1.04,-15.4,2.2,-0.6,4500,4344,,,,,,,,,,,,,,,,,
7226,1469906392752,,,,,,,-0.04,1.03,1.12,-15.3,1.7,-0.2,4380,4320,,,,,,,,,,,,,,,,,
7246,1469906392772,0,275.3,207.1,69,209.3,,0.01,0.94,1.09,-15.0,1.0,-0.1,4420,4296,0.977,4,39.544971,-122.333328,75.62,0.048,319.6,8,2,1.6,0,0.0,-1,0.0,0.0,0.0,0
7266,1469906392894,,,,,,,-0.01,0.89,1.06,-15.1,1.2,0.3,4200,4344,,,,,,,,,,,,,,,,,
7286,1469906392914,,,,,,,0.01,0.94,1.12,-15.5,-0.0,0.1,4240,4320,,,,,,,,,,,,,,,,,
7306,1469906392934,,,,,,,-0.03,0.89,1.1,-15.8,0.8,0.4,4400,4369,,,,,,,,,,,,,,,,,
7326,1469906392954,,,,,,,-0.07,0.98,1.07,-16.0,0.1,0.6,4500,4344,,,,,,,,,,,,,,,,,
7346,1469906392974,,,,48,,,-0.06,1.03,1.12,-16.0,0.6,0.8,4460,4320,0.962,4,39.544945,-122.333405,75.66,0.052,320.0,8,2,1.6,0,0.0,-1,0.0,,0.0,0
7366,1469906392994,,,,,,,-0.09,1.05,1.11,-15.9,0.2,1.1,4360,4369,,,,,,,,,,,,,,,,,
7386,1469906393014,,,,,,,-0.04,1.03,1.16,-15.7,2.2,1.1,4400,4344,,,,,,,,,,,,,,,,,
7406,1469906393034,,,,,,,-0.05,0.99,1.18,-15.7,2.9,1.9,4160,4369,,,,,,,,,,,,,,,,,
7426,1469906393054,,,,,,,0.0,0.92,1.14,-15.6,2.2,2.0,4440,4320,,,,,,,,,,,,,,,,,
7446,1469906393074,0,275.6,207.1,33,209.0,,-0.07,0.83,1.11,-15.4,2.4,2.0,4400,4369,1.022,4,39.544945,-122.333405,75.66,0.052,320.0,8,2,1.6,0,0.0,-1,0.0,0.0,0.0,0
7466,1469906392993,,,,,,,-0.0,0.79,1.05,-15.6,0.8,2.1,4500,4344,,,,,,,,,,,,,,,,,
7486,1469906393013,,,,,,,-0.04,0.83,0.99,-16.1,1.3,2.1,4280,4395,,,,,,,,,,,,,,,,,
7506,1469906393033,,,,,,,-0.02,0.84,1.0,-16.2,0.4,2.4,4280,4420,,,,,,,,,,,,,,,,,
7526,1469906393053,,,,,,,-0.03,0.87,0.97,-16.5,1.1,2.9,4400,4395,,,,,,,,,,,,,,,,,
7546,1469906393073,,,,60,,,-0.09,0.91,0.91,-16.7,1.0,2.9,4520,4420,1.017,4,39.544933,-122.333443,75.6,0.055,320.6,8,2,1.6,0,0.0,-1,0.0,,0.0,0
7566,1469906393094,,,,,,,-0.07,0.91,0.97,-16.6,2.2,2.4,4440,4420,,,,,,,,,,,,,,,,,
7586,1469906393114,,,,,,,-0.12,0.86,0.93,-16.3,1.1,3.0,4320,4369,,,,,,,,,,,,,,,,,
7606,1469906393134,,,,,,,-0.08,0.86,0.94,-15.9,1.0,2.7,4440,4320,,,,,,,,,,,,,,,,,
7626,1469906393154,,,,,,,-0.12,0.8,0.99,-15.5,0.6,2.8,4260,4344,,,,,,,,,,,,,,,,,
7646,1469906393174,0,274.9,206.9,66,209.1,,-0.08,0.73,0.98,-15.3,-0.9,2.6,4200,4320,0.997,4,39.544918,-122.333466,75.52,0.056,321.3,8,2,1.6,0,0.0,-1,0.0,0.0,0.0,0
7666,1469906393193,,,,,,,-0.14,0.68,0.94,-15.4,-1.0,2.5,4360,4369,,,,,,,,,,,,,,,,,
7686,1469906393213,,,,,,,-0.07,0.74,0.93,-15.6,-2.0,2.3,4460,4344,,,,,,,,,,,,,,,,,
7706,1469906393233,,,,,,,-0.02,0.79,0.96,-16.0,-1.7,3.0,4400,4369,,,,,,,,,,,,,,,,,
7726,1469906393253,,,,,,,-0.03,0.89,0.96,-16.5,-2.4,3.7,4200,4446,,,,,,,,,,,,,,,,,
7746,1469906393273,,,,81,,,-0.04,0.94,0.97,-16.6,-1.4,3.0,4360,4420,1.033,4,39.544907,-122.333504,75.58,0.058,321.8,8,2,1.6,0,0.0,-1,0.0,,0.0,0
7766,1469906393294,,,,,,,-0.1,0.91,0.95,-16.6,-1.2,3.2,4540,4395,,,,,,,,,,,,,,,,,
7786,1469906393314,,,,,,,-0.06,0.9,1.0,-16.1,0.6,3.0,4520,4395,,,,,,,,,,,,,,,,,
7806,1469906393334,,,,,,,-0.07,0.89,1.03,-15.8,-0.1,3.4,4320,4369,,,,,,,,,,,,,,,,,
7826,1469906393354,,,,,,,0.0,0.95,1.06,-15.5,-0.6,2.1,4380,4344,,,,,,,,,,,,,,,,,
7846,1469906393374,0,275.6,207.4,81,209.6,,-0.02,0.9,1.15,-15.6,-0.7,2.0,4220,4420,1.025,4,39.544891,-122.333542,75.66,0.061,322.2,8,2,1.6,0,0.0,-1,0.0,0.0,0.0,0
7866,1469906393392,,,,,,,0.06,0.89,1.17,-15.2,-1.0,2.0,4220,4395,,,,,,,,,,,,,,,,,
7886,1469906393412,,,,,,,-0.02,0.87,1.18,-15.1,1.5,1.7,4380,4395,,,,,,,,,,,,,,,,,
7906,1469906393432,,,,,,,0.05,0.82,1.16,-14.5,0.5,1.3,4500,4344,,,,,,,,,,,,,,,,,
7926,1469906393452,,,,,,,-0.0,0.82,1.1,-14.4,1.2,1.3,4220,4369,,,,,,,,,,,,,,,,,
7946,1469906393472,,,,79,,,0.02,0.87,1.11,-14.4,0.2,0.9,4180,4420,1.012,4,39.544872,-122.333572,75.68,0.063,322.4,8,2,2.3,0,0.0,-1,0.0,,0.0,0
7966,1469906393492,,,,,,,-0.02,0.83,1.01,-14.4,0.5,0.9,4400,4395,,,,,,,,,,,,,,,,,
7986,1469906393512,,,,,,,-0.07,0.87,1.04,-14.3,0.2,0.5,4540,4470,,,,,,,,,,,,,,,,,
8006,1469906393532,,,,,,,-0.04,0.84,1.01,-13.9,1.0,0.0,4480,4420,,,,,,,,,,,,,,,,,
8026,1469906393552,,,,,,,-0.07,0.83,0.92,-13.3,0.1,-0.3,4220,4420,,,,,,,,,,,,,,,,,
8046,1469906393572,0,274.6,207.4,59,210.2,14.04,-0.04,0.77,0.99,-12.6,0.9,-1.0,4400,4420,0.982,4,39.544857,-122.333611,75.88,0.065,323.1,8,2,2.3,0,0.0,-1,0.0,0.0,0.0,0
8066,1469906393691,,,,,,,-0.09,0.71,0.94,-12.2,0.1,-1.3,4340,4420,,,,,,,,,,,,,,,,,
8086,1469906393711,,,,,,,-0.07,0.66,0.91,-11.6,-0.4,-2.1,4420,4420,,,,,,,,,,,,,,,,,
8106,1469906393731,,,,,,,-0.09,0.61,0.92,-11.4,-1.0,-2.3,4460,4369,,,,,,,,,,,,,,,,,
8126,1469906393751,,,,,,,-0.06,0.58,0.86,-11.0,-1.4,-2.8,4360,4395,,,,,,,,,,,,,,,,,
8146,1469906393771,,,,34,,,-0.1,0.54,0.97,-11.0,-0.9,-2.8,4200,4420,0.97,4,39.544826,-122.333672,75.95,0.069,324.0,8,2,2.3,0,0.0,-1,0.0,,0.0,0
8166,1469906393791,,,,,,,-0.03,0.6,0.94,-11.2,-2.9,-2.8,4280,4420,,,,,,,,,,,,,,,,,
8186,1469906393811,,,,,,,-0.1,0.61,0.94,-11.9,-2.5,-2.3,4440,4369,,,,,,,,,,,,,,,,,
8206,1469906393831,,,,,,,-0.06,0.67,0.95,-12.3,-3.9,-1.7,4540,4446,,,,,,,,,,,,,,,,,
8226,1469906393851,,,,,,,-0.11,0.7,0.89,-12.6,-3.1,-1.0,4280,4420,,,,,,,,,,,,,,,,,
8246,1469906393871,0,275.9,207.4,52,209.5,,-0.08,0.73,0.91,-12.7,-4.2,-0.5,4200,4395,0.98,4,39.544826,-122.333672,75.95,0.069,324.0,8,2,2.3,0,0.0,-1,0.0,0.0,0.0,0
8266,1469906393794,,,,,,,-0.12,0.7,0.92,-12.8,-3.9,0.3,4380,4369,,,,,,,,,,,,,,,,,
8286,1469906393814,,,,,,,-0.16,0.71,0.92,-12.8,-4.3,0.6,4520,4420,,,,,,,,,,,,,,,,,
8306,1469906393834,,,,,,,-0.14,0.76,0.93,-12.8,-3.6,1.1,4500,4395,,,,,,,,,,,,,,,,,
8326,1469906393854,,,,,,,-0.18,0.81,0.97,-12.7,-3.6,1.1,4280,4446,,,,,,,,,,,,,,,,,
8346,1469906393874,,,,61,,,-0.14,0.8,1.04,-12.3,-2.5,0.6,4500,4395,0.969,4,39.544807,-122.33371,76.35,0.071,324.8,8,2,2.3,0,0.0,-1,0.0,,0.0,0
8366,1469906393894,,,,,,,-0.16,0.73,1.02,-12.0,-2.3,0.9,4220,4446,,,,,,,,,,,,,,,,,
8386,1469906393907,,,,,,,-0.12,0.69,0.99,-11.3,-1.2,0.3,4540,4446,,,,,,,,,,,,,,,,,
8406,1469906393927,,,,,,,-0.15,0.63,1.03,-11.3,-0.6,0.0,4460,4446,,,,,,,,,,,,,,,,,
8426,1469906393947,,,,,,,-0.1,0.62,1.01,-10.9,0.1,-0.6,4480,4470,,,,,,,,,,,,,,,,,
8446,1469906393967,0,276.1,207.8,38,209.7,,-0.13,0.59,1.1,-11.3,0.8,-0.4,4320,4395,1.003,4,39.544792,-122.333748,76.55,0.074,325.8,8,2,2.3,0,0.0,-1,0.0,0.0,0.0,0
8466,1469906393994,,,,,,,-0.06,0.57,1.09,-11.2,-0.0,-0.7,4600,4420,,,,,,,,,,,,,,,,,
8486,1469906394014,,,,,,,-0.13,0.58,1.1,-11.5,0.3,-0.7,4480,4446,,,,,,,,,,,,,,,,,
8506,1469906394034,,,,,,,-0.08,0.62,1.01,-11.7,-0.8,-0.9,4560,4369,,,,,,,,,,,,,,,,,
8526,1469906394054,,,,,,,-0.14,0.62,0.96,-12.3,0.1,-0.6,4300,4470,,,,,,,,,,,,,,,,,
8546,1469906394074,,,,52,,,-0.09,0.68,0.97,-12.7,-1.4,-0.7,4280,4395,0.994,4,39.544773,-122.333771,76.66,0.076,326.6,8,2,2.3,0,0.0,-1,0.0,,0.0,0
8566,1469906394094,,,,,,,-0.15,0.65,0.93,-13.4,-0.9,-0.2,4460,4420,,,,,,,,,,,,,,,,,
8586,1469906394114,,,,,,,-0.12,0.71,0.92,-13.6,-2.4,-0.2,4520,4446,,,,,,,,,,,,,,,,,
8606,1469906394134,,,,,,,-0.15,0.72,0.85,-13.8,-1.6,0.2,4320,4446,,,,,,,,,,,,,,,,,
8626,1469906394154,,,,,,,-0.15,0.77,0.9,-13.7,-2.2,0.1,4260,4470,,,,,,,,,,,,,,,,,
8646,1469906394174,0,275.3,208.2,77,210.1,,-0.16,0.77,0.86,-13.8,-0.9,0.4,4400,4420,1.012,4,39.544754,-122.333809,76.69,0.078,327.4,8,2,2.3,0,0.0,-1,0.0,0.0,0.0,0
8666,1469906394194,,,,,,,-0.2,0.8,0.88,-13.9,-1.2,0.4,4640,4496,,,,,,,,,,,,,,,,,
8686,1469906394214,,,,,,,-0.18,0.83,0.91,-13.8,0.2,0.2,4500,4446,,,,,,,,,,,,,,,,,
8706,1469906394234,,,,,,,-0.21,0.84,0.93,-13.3,-0.3,0.2,4240,4446,,,,,,,,,,,,,,,,,
8726,1469906394254,,,,,,,-0.18,0.79,0.97,-12.9,1.3,0.2,4420,4470,,,,,,,,,,,,,,,,,
8746,1469906394274,,,,39,,,-0.23,0.78,0.93,-12.5,0.9,0.3,4620,4446,1.034,4,39.544735,-122.333839,77.01,0.08,328.2,8,2,2.3,0,0.0,-1,0.0,,0.0,0
8766,1469906394295,,,,,,,-0.21,0.75,1.02,-12.0,2.1,0.1,4560,4496,,,,,,,,,,,,,,,,,
8786,1469906394315,,,,,,,-0.22,0.73,0.96,-11.6,2.0,0.5,4280,4470,,,,,,,,,,,,,,,,,
8806,1469906394335,,,,,,,-0.17,0.71,1.02,-11.0,3.4,0.2,4400,4496,,,,,,,,,,,,,,,,,
8826,1469906394355,,,,,,,-0.21,0.61,1.04,-10.8,3.4,0.3,4400,4496,,,,,,,,,,,,,,,,,
8846,1469906394375,0,275.4,208.0,50,209.9,,-0.2,0.61,1.07,-10.3,3.8,-0.2,4580,4470,0.999,4,39.544716,-122.333862,77.15,0.082,329.0,8,2,2.3,0,0.0,-1,0.0,0.0,0.0,0
8866,1469906394391,,,,,,,-0.21,0.61,1.03,-10.1,3.2,0.2,4500,4446,,,,,,,,,,,,,,,,,
8886,1469906394510,,,,,,,-0.15,0.63,1.06,-9.7,3.6,-0.2,4520,4470,,,,,,,,,,,,,,,,,
8906,1469906394530,,,,,,,-0.17,0.59,1.05,-9.8,3.1,0.1,4440,4470,,,,,,,,,,,,,,,,,
8926,1469906394550,,,,,,,-0.16,0.58,1.04,-9.6,3.1,0.1,4480,4524,,,,,,,,,,,,,,,,,
8946,1469906394570,,,,47,,,-0.19,0.56,1.08,-9.8,3.1,0.4,4460,4446,1.008,4,39.544674,-122.333931,77.5,0.087,330.7,8,2,2.3,0,0.0,-1,0.0,,0.0,0
8966,1469906394590,,,,,,,-0.14,0.55,1.07,-9.7,3.3,-0.2,4560,4496,,,,,,,,,,,,,,,,,
8986,1469906394610,,,,,,,-0.18,0.54,1.12,-9.7,3.0,0.1,4260,4446,,,,,,,,,,,,,,,,,
9006,1469906394630,,,,,,,-0.08,0.54,1.08,-9.6,2.1,0.1,4540,4524,,,,,,,,,,,,,,,,,
9026,1469906394650,,,,,,,-0.11,0.54,1.1,-9.9,2.4,0.2,4500,4446,,,,,,,,,,,,,,,,,
9046,1469906394670,0,275.6,207.1,50,209.1,13.85,-0.05,0.58,1.11,-9.9,1.8,-0.3,4520,4470,0.971,4,39.544674,-122.333931,77.5,0.087,330.7,8,2,2.3,0,0.0,-1,0.0,0.0,0.0,0
9066,1469906394690,,,,,,,-0.13,0.54,1.17,-10.2,1.4,-0.0,4300,4524,,,,,,,,,,,,,,,,,
9086,1469906394610,,,,,,,-0.06,0.54,1.14,-10.2,-0.3,-0.3,4620,4446,,,,,,,,,,,,,,,,,
9106,1469906394630,,,,,,,-0.12,0.54,1.13,-10.3,-0.2,-0.5,4520,4524,,,,,,,,,,,,,,,,,
9126,1469906394650,,,,,,,-0.06,0.57,1.08,-10.3,-0.4,-0.7,4440,4470,,,,,,,,,,,,,,,,,
9146,1469906394670,,,,41,,,-0.13,0.53,1.08,-10.5,0.2,-0.5,4440,4446,0.981,4,39.544655,-122.333969,77.7,0.089,331.6,8,2,2.3,0,0.0,-1,0.0,,0.0,0
9166,1469906394690,,,,,,,-0.05,0.56,1.08,-10.5,-1.0,-0.7,4560,4524,,,,,,,,,,,,,,,,,
9186,1469906394710,,,,,,,-0.12,0.54,1.08,-10.8,-1.5,-0.6,4500,4470,,,,,,,,,,,,,,,,,
9206,1469906394730,,,,,,,-0.05,0.58,1.07,-10.8,-2.8,-0.8,4540,4524,,,,,,,,,,,,,,,,,
9226,1469906394750,,,,,,,-0.12,0.56,1.08,-11.0,-2.1,-0.6,4340,4470,,,,,,,,,,,,,,,,,
9246,1469906394770,0,274.1,208.4,38,211.1,,-0.05,0.57,1.1,-11.3,-2.9,-1.0,4320,4470,1.004,4,39.544632,-122.333992,77.88,0.091,332.4,8,2,2.3,0,0.0,-1,0.0,0.0,0.0,0
9266,1469906394793,,,,,,,-0.11,0.56,1.09,-11.4,-2.2,-1.0,4540,4550,,,,,,,,,,,,,,,,,
9286,1469906394813,,,,,,,-0.06,0.56,1.03,-11.4,-2.8,-1.1,4680,4446,,,,,,,,,,,,,,,,,
9306,1469906394833,,,,,,,-0.12,0.53,1.05,-11.5,-2.3,-1.0,4460,4470,,,,,,,,,,,,,,,,,
9326,1469906394853,,,,,,,-0.05,0.54,1.03,-11.7,-3.1,-1.2,4400,4524,,,,,,,,,,,,,,,,,
9346,1469906394873,,,,59,,,-0.1,0.49,1.0,-11.7,-3.1,-1.1,4520,4496,1.029,4,39.544609,-122.334015,77.91,0.093,333.4,8,2,2.3,0,0.0,-1,0.0,,0.0,0
9366,1469906394893,,,,,,,-0.05,0.52,0.96,-11.5,-3.5,-1.2,4480,4470,,,,,,,,,,,,,,,,,
9386,1469906394906,,,,,,,-0.1,0.51,1.01,-11.4,-3.0,-1.0,4500,4550,,,,,,,,,,,,,,,,,
9406,1469906394926,,,,,,,-0.04,0.47,0.99,-11.4,-4.3,-1.3,4600,4550,,,,,,,,,,,,,,,,,
9426,1469906394946,,,,,,,-0.08,0.43,1.01,-11.5,-3.2,-1.2,4420,4470,,,,,,,,,,,,,,,,,
9446,1469906394966,1,275.6,208.0,57,210.2,,-0.01,0.46,1.04,-11.3,-3.7,-1.4,4560,4524,0.964,4,39.544586,-122.334053,78.19,0.095,334.3,8,2,2.3,0,0.0,-1,0.0,0.0,0.0,0
9466,1469906394993,,,,,,,-0.08,0.4,1.08,-11.3,-2.4,-1.4,4360,4524,,,,,,,,,,,,,,,,,
9486,1469906395013,,,,,,,0.0,0.37,1.05,-11.0,-2.5,-1.6,4580,4470,,,,,,,,,,,,,,,,,
9506,1469906395033,,,,,,,-0.05,0.35,1.07,-11.0,-2.7,-1.7,4560,4496,,,,,,,,,,,,,,,,,
9526,1469906395053,,,,,,,0.01,0.35,1.08,-10.6,-2.6,-2.3,4640,4496,,,,,,,,,,,,,,,,,
9546,1469906395073,,,,39,,,-0.05,0.31,1.12,-10.7,-2.1,-1.8,4360,4550,1.017,4,39.544563,-122.334084,78.28,0.098,335.1,8,2,2.3,0,0.0,-1,0.0,,0.0,0
9566,1469906395093,,,,,,,-0.0,0.26,1.12,-10.4,-2.0,-2.0,4640,4470,,,,,,,,,,,,,,,,,
9586,1469906395113,,,,,,,-0.04,0.22,1.1,-10.0,-1.9,-1.8,4440,4524,,,,,,,,,,,,,,,,,
9606,1469906395133,,,,,,,0.02,0.29,1.09,-9.7,-1.6,-2.2,4620,4550,,,,,,,,,,,,,,,,,
9626,1469906395153,,,,,,,-0.03,0.2,1.13,-9.4,-1.8,-1.5,4380,4550,,,,,,,,,,,,,,,,,
9646,1469906395173,0,274.6,207.4,69,210.5,,0.02,0.15,1.11,-8.8,-2.0,-1.7,4600,4524,1.011,4,39.54454,-122.334106,78.43,0.1,335.8,8,2,2.3,0,0.0,-1,0.0,0.0,0.0,0
9666,1469906395293,,,,,,,-0.03,0.11,1.09,-8.5,-2.3,-1.7,4560,4470,,,,,,,,,,,,,,,,,
9686,1469906395313,,,,,,,0.02,0.1,1.12,-8.1,-2.3,-2.2,4520,4550,,,,,,,,,,,,,,,,,
9706,1469906395333,,,,,,,-0.03,0.06,1.12,-7.8,-2.4,-2.0,4420,4550,,,,,,,,,,,,,,,,,
9726,1469906395353,,,,,,,0.04,0.09,1.11,-7.3,-2.3,-2.1,4660,4578,,,,,,,,,,,,,,,,,
9746,1469906395373,,,,54,,,-0.03,0.03,1.12,-7.2,-2.0,-2.2,4520,4606,1.007,4,39.544495,-122.334167,79.07,0.104,337.3,8,2,2.3,0,0.0,-1,0.0,,0.0,0
9766,1469906395393,,,,,,,0.01,0.02,1.18,-6.7,-0.4,-2.5,4580,4524,,,,,,,,,,,,,,,,,
9786,1469906395413,,,,,,,-0.04,-0.04,1.12,-6.2,-0.6,-2.4,4640,4550,,,,,,,,,,,,,,,,,
9806,1469906395433,,,,,,,-0.01,-0.04,1.13,-5.7,0.1,-2.7,4720,4578,,,,,,,,,,,,,,,,,
9826,1469906395453,,,,,,,-0.02,-0.02,1.16,-5.2,0.2,-2.6,4340,4606,,,,,,,,,,,,,,,,,
9846,1469906395473,0,273.9,208.8,40,210.8,,0.02,-0.01,1.2,-5.0,1.5,-2.5,4500,4606,1.029,4,39.544495,-122.334167,79.07,0.104,337.3,8,2,2.3,0,0.0,-1,0.0,0.0,0.0,0
9866,1469906395391,,,,,,,-0.02,-0.01,1.19,-4.5,1.0,-2.4,4720,4550,,,,,,,,,,,,,,,,,
9886,1469906395411,,,,,,,-0.03,0.01,1.18,-4.2,1.9,-2.3,4700,4524,,,,,,,,,,,,,,,,,
9906,1469906395431,,,,,,,-0.04,0.07,1.16,-3.9,1.4,-2.2,4400,4550,,,,,,,,,,,,,,,,,
9926,1469906395451,,,,,,,-0.07,0.13,1.13,-4.2,2.5,-1.8,4540,4550,,,,,,,,,,,,,,,,,
9946,1469906395471,,,,42,,,-0.09,0.19,1.11,-4.1,1.6,-1.7,4760,4606,1.015,4,39.544476,-122.334198,79.01,0.106,338.1,8,2,2.3,0,0.0,-1,0.0,,0.0,0
9966,1469906395491,,,,,,,-0.1,0.22,1.05,-4.1,1.4,-1.5,4760,4578,,,,,,,,,,,,,,,,,
9986,1469906395510,,,,,,,-0.09,0.27,1.03,-3.8,0.4,-1.8,4460,4633,,,,,,,,,,,,,,,,,
10006,1469906395530,,,,,,,-0.13,0.27,1.0,-3.9,1.4,-1.5,4600,4633,,,,,,,,,,,,,,,,,
10026,1469906395550,,,,,,,-0.11,0.35,0.97,-3.8,0.9,-1.7,4580,4578,,,,,,,,,,,,,,,,,
10046,1469906395570,0,275.4,208.0,53,210.2,13.85,-0.16,0.32,0.99,-4.0,2.2,-1.5,4440,4606,0.971,4,39.544449,-122.334221,79.16,0.109,338.7,8,2,2.3,0,0.0,-1,0.0,0.0,0.0,0
10066,1469906395590,,,,,,,-0.11,0.33,0.96,-4.0,0.6,-1.6,4360,4606,,,,,,,,,,,,,,,,,
10086,1469906395610,,,,,,,-0.14,0.33,0.98,-4.0,1.3,-1.1,4520,4578,,,,,,,,,,,,,,,,,
10106,1469906395630,,,,,,,-0.08,0.32,0.98,-4.1,0.9,-1.2,4760,4578,,,,,,,,,,,,,,,,,
10126,1469906395650,,,,,,,-0.12,0.27,1.07,-4.3,2.0,-1.0,4380,4524,,,,,,,,,,,,,,,,,
10146,1469906395670,,,,58,,,-0.08,0.24,1.09,-4.3,0.9,-1.1,4720,4578,0.979,4,39.544426,-122.334251,79.27,0.111,339.3,8,2,2.3,0,0.0,-1,0.0,,0.0,0
10166,1469906395690,,,,,,,-0.11,0.16,1.09,-4.3,0.5,-0.7,4580,4550,,,,,,,,,,,,,,,,,
10186,1469906395710,,,,,,,-0.08,0.14,1.17,-4.2,0.4,-1.2,4680,4578,,,,,,,,,,,,,,,,,
10206,1469906395730,,,,,,,-0.1,0.07,1.11,-4.2,0.9,-0.8,4540,4550,,,,,,,,,,,,,,,,,
10226,1469906395750,,,,,,,-0.07,0.02,1.12,-4.1,1.3,-0.7,4540,4606,,,,,,,,,,,,,,,,,
10246,1469906395770,0,275.4,207.8,45,210.0,,-0.1,-0.01,1.1,-4.1,1.2,-0.6,4540,4578,0.981,4,39.544403,-122.334274,79.36,0.113,339.9,8,2,2.3,0,0.0,-1,0.0,0.0,0.0,0
10266,1469906395793,,,,,,,-0.04,-0.01,1.14,-4.0,1.5,-0.6,4580,4578,,,,,,,,,,,,,,,,,
10286,1469906395813,,,,,,,-0.06,-0.06,1.06,-3.9,0.8,-0.5,4680,4606,,,,,,,,,,,,,,,,,
10306,1469906395833,,,,,,,-0.06,-0.01,1.07,-3.8,1.7,-0.5,4660,4578,,,,,,,,,,,,,,,,,
10326,1469906395853,,,,,,,-0.09,-0.01,1.07,-3.7,1.7,-0.6,4460,4633,,,,,,,,,,,,,,,,,
10346,1469906395873,,,,35,,,-0.1,-0.02,1.02,-3.5,2.2,-0.4,4680,4661,1.007,4,39.544376,-122.334312,79.63,0.116,340.5,8,2,2.3,0,0.0,-1,0.0,,0.0,0
10366,1469906395893,,,,,,,-0.13,0.01,1.02,-3.1,1.0,-0.5,4620,4578,,,,,,,,,,,,,,,,,
10386,1469906395906,,,,,,,-0.14,0.02,0.96,-2.9,2.1,-0.2,4360,4661,,,,,,,,,,,,,,,,,
10406,1469906395926,,,,,,,-0.11,0.08,0.96,-2.6,0.7,-0.6,4420,4661,,,,,,,,,,,,,,,,,
10426,1469906395946,,,,,,,-0.18,0.07,0.97,-2.6,1.9,-0.5,4600,4606,,,,,,,,,,,,,,,,,
10446,1469906395966,0,275.3,207.5,68,210.2,,-0.13,0.07,0.91,-2.5,0.3,-0.7,4760,4550,0.983,4,39.544357,-122.334335,79.76,0.117,341.2,8,2,2.3,0,0.0,-1,0.0,0.0,0.0,0
10466,1469906395986,,,,,,,-0.19,0.05,1.0,-2.9,1.4,-0.4,4500,4606,,,,,,,,,,,,,,,,,
10486,1469906396104,,,,,,,-0.14,0.04,0.97,-3.1,0.3,-0.5,4640,4550,,,,,,,,,,,,,,,,,
10506,1469906396124,,,,,,,-0.18,0.0,0.96,-3.3,-0.3,-0.3,4640,4578,,,,,,,,,,,,,,,,,
10526,1469906396144,,,,,,,-0.1,0.02,1.06,-3.6,-0.1,-0.8,4700,4578,,,,,,,,,,,,,,,,,
10546,1469906396164,,,,55,,,-0.12,-0.08,1.01,-4.0,-0.5,-0.2,4540,4661,1.004,4,39.544308,-122.334389,80.14,0.122,342.4,8,2,1.6,0,0.0,-1,0.0,,0.0,0
10566,1469906396184,,,,,,,-0.09,-0.04,1.06,-3.8,-0.9,-0.6,4740,4661,,,,,,,,,,,,,,,,,
10586,1469906396204,,,,,,,-0.1,-0.05,1.06,-3.5,-1.1,-0.6,4500,4689,,,,,,,,,,,,,,,,,
10606,1469906396224,,,,,,,-0.11,-0.09,1.07,-3.3,-0.3,-0.4,4640,4633,,,,,,,,,,,,,,,,,
10626,1469906396244,,,,,,,-0.16,-0.04,1.09,-2.8,0.3,-0.5,4820,4661,,,,,,,,,,,,,,,,,
10646,1469906396264,1,276.9,207.7,40,209.6,,-0.17,-0.01,1.01,-2.6,1.6,-0.3,4440,4633,0.953,4,39.544308,-122.334389,80.14,0.122,342.4,8,2,1.6,0,0.0,-1,0.0,0.0,0.0,0
10666,1469906396192,,,,,,,-0.14,0.06,0.99,-2.2,1.1,-0.6,4480,4578,,,,,,,,,,,,,,,,,
10686,1469906396212,,,,,,,-0.16,0.08,1.02,-2.3,2.5,-0.4,4660,4633,,,,,,,,,,,,,,,,,
10706,1469906396232,,,,,,,-0.12,0.1,0.97,-2.4,1.8,-0.4,4760,4661,,,,,,,,,,,,,,,,,
10726,1469906396252,,,,,,,-0.16,0.04,1.04,-2.5,2.3,-0.6,4480,4661,,,,,,,,,,,,,,,,,
10746,1469906396272,,,,68,,,-0.07,0.07,1.01,-2.5,0.9,-1.0,4820,4633,0.996,4,39.544285,-122.334412,80.19,0.124,342.9,8,2,1.6,0,0.0,-1,0.0,,0.0,0
10766,1469906396293,,,,,,,-0.1,-0.02,1.02,-2.7,0.5,-0.4,4600,4606,,,,,,,,,,,,,,,,,
10786,1469906396313,,,,,,,-0.04,-0.03,1.07,-2.5,0.1,-0.8,4700,4633,,,,,,,,,,,,,,,,,
10806,1469906396333,,,,,,,-0.09,-0.09,1.02,-2.5,-0.6,-0.5,4820,4718,,,,,,,,,,,,,,,,,
10826,1469906396353,,,,,,,-0.07,-0.11,1.02,-2.1,-0.1,-0.9,4700,4689,,,,,,,,,,,,,,,,,
10846,1469906396373,0,275.6,207.1,40,209.5,,-0.08,-0.07,1.05,-1.8,0.1,-0.9,4460,4689,0.997,4,39.544258,-122.33445,80.47,0.127,343.4,8,2,1.6,0,0.0,-1,0.0,0.0,0.0,0
10866,1469906396391,,,,,,,-0.06,-0.07,1.03,-1.8,1.5,-0.7,4620,4633,,,,,,,,,,,,,,,,,
10886,1469906396411,,,,,,,-0.07,-0.01,1.07,-1.4,-0.1,-1.0,4780,4661,,,,,,,,,,,,,,,,,
10906,1469906396431,,,,,,,-0.09,-0.01,1.01,-1.3,0.8,-0.6,4620,4718,,,,,,,,,,,,,,,,,
10926,1469906396451,,,,,,,-0.08,0.04,1.01,-1.3,-0.4,-0.6,4580,4689,,,,,,,,,,,,,,,,,
10946,1469906396471,,,,34,,,-0.15,0.08,1.04,-1.5,0.4,-0.3,4720,4606,1.038,4,39.544239,-122.33448,80.49,0.129,343.9,8,2,1.6,0,0.0,-1,0.0,,0.0,0
10966,1469906396491,,,,,,,-0.1,0.12,1.0,-1.7,0.5,-0.5,4660,4606,,,,,,,,,,,,,,,,,
10986,1469906396510,,,,,,,-0.15,0.04,1.05,-2.1,0.3,-0.1,4620,4689,,,,,,,,,,,,,,,,,
11006,1469906396530,,,,,,,-0.09,0.06,1.05,-2.1,-0.0,-0.3,4880,4661,,,,,,,,,,,,,,,,,
11026,1469906396550,,,,,,,-0.12,-0.04,1.06,-2.2,-0.5,0.1,4440,4633,,,,,,,,,,,,,,,,,
11046,1469906396570,0,274.7,207.3,68,210.3,13.81,-0.06,-0.07,1.1,-1.9,0.2,-0.2,4600,4689,1.019,4,39.544216,-122.334503,80.64,0.131,344.4,8,2,1.6,0,0.0,-1,0.0,0.0,0.0,0
11066,1469906396590,,,,,,,-0.07,-0.05,1.08,-1.8,-0.8,-0.3,4820,4718,,,,,,,,,,,,,,,,,
11086,1469906396610,,,,,,,-0.08,-0.03,1.04,-1.7,-0.2,-0.1,4620,4633,,,,,,,,,,,,,,,,,
11106,1469906396630,,,,,,,-0.08,0.03,1.04,-1.6,-1.3,-0.3,4460,4633,,,,,,,,,,,,,,,,,
11126,1469906396650,,,,,,,-0.17,0.04,1.02,-1.7,-0.9,-0.3,4680,4689,,,,,,,,,,,,,,,,,
11146,1469906396670,,,,75,,,-0.13,0.07,0.92,-1.8,-1.4,-0.5,4680,4633,0.981,4,39.544189,-122.334526,80.9,0.133,345.0,8,2,1.6,0,0.0,-1,0.0,,0.0,0
11166,1469906396690,,,,,,,-0.21,-0.01,1.02,-2.2,-1.3,-0.0,4600,4689,,,,,,,,,,,,,,,,,
11186,1469906396710,,,,,,,-0.15,0.01,1.0,-2.4,-1.4,-0.4,4800,4689,,,,,,,,,,,,,,,,,
11206,1469906396730,,,,,,,-0.16,-0.06,0.98,-2.6,-2.0,-0.1,4500,4689,,,,,,,,,,,,,,,,,
11226,1469906396750,,,,,,,-0.08,-0.08,1.07,-2.6,-1.0,-0.5,4600,4689,,,,,,,,,,,,,,,,,
11246,1469906396770,0,276.8,208.5,77,208.4,,-0.12,-0.06,1.06,-2.5,-2.2,-0.3,4860,4689,1.01,4,39.544167,-122.334557,80.94,0.135,345.7,8,2,1.6,0,0.0,-1,0.0,0.0,0.0,0
11266,1469906396892,,,,,,,-0.12,-0.03,0.99,-2.4,-1.2,0.2,4480,4689,,,,,,,,,,,,,,,,,
11286,1469906396912,,,,,,,-0.11,0.05,0.99,-2.3,-2.4,0.2,4540,4689,,,,,,,,,,,,,,,,,
11306,1469906396932,,,,,,,-0.21,0.06,1.03,-2.3,-1.0,0.4,4700,4633,,,,,,,,,,,,,,,,,
11326,1469906396952,,,,,,,-0.15,0.09,0.98,-2.2,-1.6,0.3,4700,4661,,,,,,,,,,,,,,,,,
11346,1469906396972,,,,71,,,-0.19,0.03,1.03,-2.5,-1.0,0.8,4540,4633,1.027,4,39.544117,-122.334618,81.31,0.14,347.2,8,2,1.6,0,0.0,-1,0.0,,0.0,0
11366,1469906396992,,,,,,,-0.12,0.01,1.1,-2.4,-0.8,0.6,4760,4661,,,,,,,,,,,,,,,,,
11386,1469906397012,,,,,,,-0.15,-0.11,1.1,-2.4,-0.6,1.0,4540,4776,,,,,,,,,,,,,,,,,
11406,1469906397032,,,,,,,-0.12,-0.09,1.14,-2.5,0.3,1.1,4620,4661,,,,,,,,,,,,,,,,,
11426,1469906397052,,,,,,,-0.11,-0.04,1.17,-2.3,-0.2,0.9,4820,4747,,,,,,,,,,,,,,,,,
11446,1469906397072,0,276.1,206.9,69,209.5,,-0.15,-0.03,1.11,-2.4,1.8,1.3,4460,4689,0.987,4,39.544117,-122.334618,81.31,0.14,347.2,8,2,1.6,0,0.0,-1,0.0,0.0,0.0,0
11466,1469906396993,,,,,,,-0.11,0.04,1.05,-2.0,0.3,0.9,4480,4661,,,,,,,,,,,,,,,,,
11486,1469906397013,,,,,,,-0.15,0.08,1.04,-1.9,0.9,1.1,4740,4689,,,,,,,,,,,,,,,,,
11506,1469906397033,,,,,,,-0.09,0.12,0.96,-2.0,-0.2,1.0,4660,4661,,,,,,,,,,,,,,,,,
11526,1469906397053,,,,,,,-0.14,0.06,1.03,-2.5,-0.3,1.3,4500,4718,,,,,,,,,,,,,,,,,
11546,1469906397073,,,,55,,,-0.07,0.06,1.07,-2.5,-0.4,1.0,4820,4661,0.986,4,39.544094,-122.334648,81.36,0.142,347.9,8,2,1.6,0,0.0,-1,0.0,,0.0,0
11566,1469906397093,,,,,,,-0.11,-0.03,1.08,-2.4,-0.7,1.0,4480,4776,,,,,,,,,,,,,,,,,
11586,1469906397113,,,,,,,-0.09,-0.02,1.07,-2.3,0.6,1.0,4740,4689,,,,,,,,,,,,,,,,,
11606,1469906397133,,,,,,,-0.1,0.04,1.1,-2.2,0.2,0.8,4800,4747,,,,,,,,,,,,,,,,,
11626,1469906397153,,,,,,,-0.15,0.04,1.04,-2.0,1.3,0.9,4680,4689,,,,,,,,,,,,,,,,,
11646,1469906397173,1,278.1,209.4,42,207.8,,-0.08,0.12,0.99,-2.1,0.4,0.4,4820,4776,1.015,4,39.544071,-122.334671,81.65,0.144,348.6,8,2,1.6,0,0.0,-1,0.0,0.0,0.0,0
11666,1469906397193,,,,,,,-0.17,0.11,0.96,-2.4,0.5,0.7,4720,4689,,,,,,,,,,,,,,,,,
11686,1469906397213,,,,,,,-0.1,0.08,1.0,-2.6,0.5,-0.2,4640,4776,,,,,,,,,,,,,,,,,
11706,1469906397233,,,,,,,-0.17,-0.03,0.93,-2.6,-0.7,-0.2,4880,4718,,,,,,,,,,,,,,,,,
11726,1469906397253,,,,,,,-0.13,-0.03,0.96,-2.5,0.8,-0.2,4820,4776,,,,,,,,,,,,,,,,,
11746,1469906397273,,,,57,,,-0.16,-0.01,0.97,-2.0,-0.2,-0.5,4520,4718,0.99,4,39.544044,-122.334709,81.69,0.147,349.3,8,2,1.6,0,0.0,-1,0.0,,0.0,0
11766,1469906397293,,,,,,,-0.19,0.01,0.94,-1.8,0.9,-0.3,4740,4776,,,,,,,,,,,,,,,,,
11786,1469906397313,,,,,,,-0.13,0.09,0.88,-2.0,-0.7,-0.7,4640,4689,,,,,,,,,,,,,,,,,
11806,1469906397333,,,,,,,-0.19,0.04,0.95,-2.4,0.8,-0.4,4560,4718,,,,,,,,,,,,,,,,,
11826,1469906397353,,,,,,,-0.11,0.1,0.95,-2.5,-0.1,-0.9,4880,4689,,,,,,,,,,,,,,,,,
11846,1469906397373,1,276.3,207.4,46,208.8,,-0.17,0.0,0.94,-2.7,-0.2,-0.6,4580,4747,0.998,4,39.544022,-122.334732,81.81,0.149,350.0,8,2,1.6,0,0.0,-1,0.0,0.0,0.0,0
11866,1469906397391,,,,,,,-0.11,-0.01,0.97,-2.6,0.5,-0.4,4700,4776,,,,,,,,,,,,,,,,,
11886,1469906397411,,,,,,,-0.11,0.07,0.96,-2.3,-0.9,-0.4,4820,4718,,,,,,,,,,,,,,,,,
11906,1469906397431,,,,,,,-0.13,0.06,0.97,-2.5,0.7,-0.1,4620,4776,,,,,,,,,,,,,,,,,
11926,1469906397451,,,,,,,-0.06,0.07,0.88,-2.5,-1.6,-0.2,4920,4689,,,,,,,,,,,,,,,,,
11946,1469906397471,,,,50,,,-0.17,0.01,0.94,-2.7,-0.4,-0.2,4700,4747,1.013,4,39.543999,-122.334763,81.99,0.151,350.8,8,2,1.6,0,0.0,-1,0.0,,0.0,0
11966,1469906397491,,,,,,,-0.07,0.03,1.04,-2.9,-0.8,-0.8,4700,4807,,,,,,,,,,,,,,,,,
11986,1469906397510,,,,,,,-0.16,-0.04,1.05,-3.2,-0.6,-0.7,4820,4747,,,,,,,,,,,,,,,,,
12006,1469906397530,,,,,,,-0.15,-0.05,1.02,-3.2,1.6,-0.6,4520,4747,,,,,,,,,,,,,,,,,
12026,1469906397550,,,,,,,-0.14,0.05,1.04,-3.1,0.4,-0.7,4600,4689,,,,,,,,,,,,,,,,,
12046,1469906397570,0,276.8,207.7,36,208.8,13.8,-0.21,0.06,1.06,-3.1,2.4,-0.3,4660,4689,1.028,4,39.543976,-122.334785,82.04,0.153,351.6,8,2,1.6,0,0.0,-1,0.0,0.0,0.0,0
12066,1469906397590,,,,,,,-0.13,0.11,1.05,-2.8,1.3,-0.5,4720,4747,,,,,,,,,,,,,,,,,
12086,1469906397709,,,,,,,-0.16,0.04,1.02,-3.1,1.8,-0.0,4600,4747,,,,,,,,,,,,,,,,,
12106,1469906397729,,,,,,,-0.08,0.0,1.11,-3.0,2.9,-0.4,4840,4747,,,,,,,,,,,,,,,,,
12126,1469906397749,,,,,,,-0.12,-0.13,1.1,-2.7,2.7,-0.0,4680,4807,,,,,,,,,,,,,,,,,
12146,1469906397769,,,,82,,,-0.13,-0.13,1.06,-2.6,3.7,0.3,4740,4718,1.028,4,39.543926,-122.334846,82.39,0.158,353.4,8,2,1.6,0,0.0,-1,0.0,,0.0,0
12166,1469906397789,,,,,,,-0.1,-0.07,1.05,-2.2,1.7,0.2,4860,4747,,,,,,,,,,,,,,,,,
12186,1469906397809,,,,,,,-0.16,-0.03,1.14,-2.5,3.3,0.5,4660,4807,,,,,,,,,,,,,,,,,
12206,1469906397829,,,,,,,-0.08,-0.01,1.09,-2.5,2.4,0.0,4920,4689,,,,,,,,,,,,,,,,,
12226,1469906397849,,,,,,,-0.15,-0.12,1.07,-2.6,2.7,0.5,4580,4807,,,,,,,,,,,,,,,,,
12246,1469906397869,0,275.9,207.0,48,209.8,,-0.08,-0.13,1.16,-2.8,3.5,0.3,4740,4807,1.001,4,39.543926,-122.334846,82.39,0.158,353.4,8,2,1.6,0,0.0,-1,0.0,0.0,0.0,0
12266,1469906397793,,,,,,,-0.16,-0.14,1.15,-2.5,2.4,-0.0,4800,4747,,,,,,,,,,,,,,,,,
12286,1469906397813,,,,,,,-0.18,-0.13,1.08,-2.5,4.2,0.2,4520,4776,,,,,,,,,,,,,,,,,
12306,1469906397833,,,,,,,-0.12,-0.02,1.02,-2.3,2.2,-0.2,4920,4807,,,,,,,,,,,,,,,,,
12326,1469906397853,,,,,,,-0.17,-0.03,1.04,-2.7,2.9,-0.1,4840,4776,,,,,,,,,,,,,,,,,
12346,1469906397873,,,,41,,,-0.1,-0.01,1.13,-2.7,2.2,-0.6,4820,4718,1.009,4,39.5439,-122.334877,82.6,0.16,354.3,8,2,1.6,0,0.0,-1,0.0,,0.0,0
12366,1469906397893,,,,,,,-0.16,-0.06,1.09,-2.7,1.7,-0.7,4800,4836,,,,,,,,,,,,,,,,,
12386,1469906397906,,,,,,,-0.13,-0.09,1.02,-2.7,2.5,-0.3,4720,4807,,,,,,,,,,,,,,,,,
12406,1469906397926,,,,,,,-0.12,0.02,1.03,-2.7,-0.0,-0.3,4540,4689,,,,,,,,,,,,,,,,,
12426,1469906397946,,,,,,,-0.19,0.02,1.02,-2.6,0.9,-0.2,4780,4689,,,,,,,,,,,,,,,,,
12446,1469906397966,0,275.8,207.1,53,209.1,,-0.12,0.09,1.02,-2.6,-0.4,-0.7,4760,4807,0.986,4,39.54388,-122.334915,82.67,0.163,355.3,8,2,1.6,0,0.0,-1,0.0,0.0,0.0,0
12466,1469906397993,,,,,,,-0.18,-0.02,0.95,-2.9,-0.3,-0.3,4880,4836,,,,,,,,,,,,,,,,,
12486,1469906398013,,,,,,,-0.12,-0.04,1.0,-2.9,0.5,-0.3,5020,4776,,,,,,,,,,,,,,,,,
12506,1469906398033,,,,,,,-0.13,-0.0,1.06,-2.7,-0.2,-0.7,4640,4747,,,,,,,,,,,,,,,,,
12526,1469906398053,,,,,,,-0.18,-0.01,1.02,-2.5,1.3,-0.8,4800,4747,,,,,,,,,,,,,,,,,
12546,1469906398073,,,,47,,,-0.12,0.06,0.99,-2.3,-0.3,-1.2,4700,4807,0.992,4,39.543854,-122.334938,82.8,0.165,356.2,8,2,1.6,0,0.0,-1,0.0,,0.0,0
12566,1469906398093,,,,,,,-0.21,0.0,0.99,-2.8,0.5,-0.6,4720,4867,,,,,,,,,,,,,,,,,
12586,1469906398113,,,,,,,-0.14,-0.02,1.09,-2.9,1.8,-0.8,4900,4747,,,,,,,,,,,,,,,,,
12606,1469906398133,,,,,,,-0.19,-0.02,1.12,-2.8,0.6,-1.1,4700,4747,,,,,,,,,,,,,,,,,
12626,1469906398153,,,,,,,-0.24,-0.06,1.07,-2.7,2.4,-0.8,4780,4776,,,,,,,,,,,,,,,,,
12646,1469906398173,1,275.9,207.0,59,209.1,,-0.18,0.02,0.99,-2.5,0.9,-0.9,4860,4807,0.959,4,39.543831,-122.334961,82.85,0.167,357.3,8,2,1.6,0,0.0,-1,0.0,0.0,0.0,0
12666,1469906398193,,,,,,,-0.24,-0.07,1.05,-2.7,2.6,-0.2,4740,4807,,,,,,,,,,,,,,,,,
12686,1469906398213,,,,,,,-0.15,-0.03,1.13,-2.7,2.3,-0.8,4860,4747,,,,,,,,,,,,,,,,,
12706,1469906398233,,,,,,,-0.19,-0.04,1.14,-2.8,2.1,-0.7,4600,4776,,,,,,,,,,,,,,,,,
12726,1469906398253,,,,,,,-0.2,-0.06,1.06,-2.7,3.7,-0.5,4760,4807,,,,,,,,,,,,,,,,,
12746,1469906398273,,,,45,,,-0.18,-0.02,1.04,-2.3,1.0,-0.5,4780,4836,0.967,4,39.543804,-122.335007,83.02,0.17,358.3,8,2,1.6,0,0.0,-1,0.0,,0.0,0
12766,1469906398293,,,,,,,-0.23,0.01,1.12,-2.6,2.5,-0.2,4640,4776,,,,,,,,,,,,,,,,,
12786,1469906398313,,,,,,,-0.15,0.06,1.07,-2.5,0.5,-0.7,4900,4836,,,,,,,,,,,,,,,,,
12806,1469906398333,,,,,,,-0.22,-0.07,1.05,-2.6,0.1,-0.5,4700,4807,,,,,,,,,,,,,,,,,
12826,1469906398353,,,,,,,-0.16,-0.06,1.07,-2.6,1.6,-0.1,4880,4776,,,,,,,,,,,,,,,,,
12846,1469906398373,5,273.1,207.4,39,209.4,,-0.17,-0.06,1.03,-2.5,-0.8,-0.0,5060,4776,0.951,4,39.543781,-122.33503,83.14,0.172,359.3,8,2,1.6,0,0.0,-1,0.0,0.0,0.0,0
12866,1469906398393,,,,,,,-0.22,-0.02,1.1,-2.6,0.9,0.4,4720,4776,,,,,,,,,,,,,,,,,
12886,1469906398509,,,,,,,-0.14,0.05,1.09,-2.5,-1.1,-0.0,4880,4807,,,,,,,,,,,,,,,,,
12906,1469906398529,,,,,,,-0.21,-0.06,1.05,-2.7,-1.1,0.4,4720,4898,,,,,,,,,,,,,,,,,
12926,1469906398549,,,,,,,-0.16,-0.1,1.08,-2.6,-0.3,0.6,4820,4867,,,,,,,,,,,,,,,,,
12946,1469906398569,,,,51,,,-0.19,-0.07,1.04,-2.1,-1.8,0.1,4840,4776,0.974,4,39.543732,-122.335083,83.47,0.177,361.4,8,2,1.6,0,0.0,-1,0.0,,0.0,0
12966,1469906398589,,,,,,,-0.23,-0.04,1.1,-2.2,0.5,0.3,4660,4836,,,,,,,,,,,,,,,,,
12986,1469906398609,,,,,,,-0.17,0.05,1.09,-2.2,-1.4,-0.3,4980,4776,,,,,,,,,,,,,,,,,
13006,1469906398629,,,,,,,-0.23,-0.07,1.08,-2.4,-0.6,-0.0,4720,4807,,,,,,,,,,,,,,,,,
13026,1469906398649,,,,,,,-0.17,-0.08,1.04,-2.2,0.4,-0.0,4840,4776,,,,,,,,,,,,,,,,,
13046,1469906398669,0,276.4,206.9,77,208.6,13.95,-0.14,-0.04,1.02,-1.8,-1.2,-0.5,4900,4776,0.978,4,39.543732,-122.335083,83.47,0.177,361.4,8,2,1.6,0,0.0,-1,0.0,0.0,0.0,0
13066,1469906398689,,,,,,,-0.17,-0.04,1.11,-1.9,1.1,-0.3,4780,4747,,,,,,,,,,,,,,,,,
13086,1469906398610,,,,,,,-0.08,0.04,1.09,-1.8,-0.3,-0.6,4900,4807,,,,,,,,,,,,,,,,,
13106,1469906398630,,,,,,,-0.15,-0.05,1.07,-1.8,-0.3,-0.5,4680,4836,,,,,,,,,,,,,,,,,
13126,1469906398650,,,,,,,-0.14,-0.08,1.02,-1.9,1.2,-0.3,4820,4836,,,,,,,,,,,,,,,,,
13146,1469906398670,,,,41,,,-0.09,-0.03,0.98,-1.8,-0.5,-0.7,4760,4807,0.969,4,39.543709,-122.335121,83.54,0.179,362.4,8,2,1.6,0,0.0,-1,0.0,,0.0,0
13166,1469906398690,,,,,,,-0.14,0.01,1.03,-2.1,1.0,-0.3,4760,4867,,,,,,,,,,,,,,,,,
13186,1469906398710,,,,,,,-0.08,0.07,1.02,-2.1,-1.0,-0.5,4880,4836,,,,,,,,,,,,,,,,,
13206,1469906398730,,,,,,,-0.15,-0.0,0.97,-2.2,-0.9,-0.4,4640,4930,,,,,,,,,,,,,,,,,
13226,1469906398750,,,,,,,-0.15,-0.02,0.93,-2.3,-0.1,-0.0,4880,4898,,,,,,,,,,,,,,,,,
13246,1469906398770,0,276.8,207.7,40,209.3,,-0.13,0.04,0.88,-2.2,-2.1,-0.3,4880,4807,0.97,4,39.543682,-122.335144,83.67,0.181,363.4,8,2,1.6,0,0.0,-1,0.0,0.0,0.0,0
13266,1469906398793,,,,,,,-0.18,0.03,0.93,-2.6,-0.1,0.2,4760,4867,,,,,,,,,,,,,,,,,
13286,1469906398813,,,,,,,-0.1,0.06,0.94,-2.7,-1.7,-0.0,4960,4836,,,,,,,,,,,,,,,,,
13306,1469906398833,,,,,,,-0.17,-0.01,0.92,-2.6,-1.1,-0.2,4740,4836,,,,,,,,,,,,,,,,,
13326,1469906398853,,,,,,,-0.16,-0.01,0.89,-2.7,-0.3,0.0,4860,4836,,,,,,,,,,,,,,,,,
13346,1469906398873,,,,68,,,-0.14,0.04,0.83,-2.6,-2.3,-0.1,4780,4867,0.982,4,39.543663,-122.335167,83.78,0.183,364.4,8,2,1.6,0,0.0,-1,0.0,,0.0,0
13366,1469906398893,,,,,,,-0.19,-0.05,0.82,-3.0,-0.4,0.5,4800,4776,,,,,,,,,,,,,,,,,
13386,1469906398907,,,,,,,-0.14,0.01,0.86,-3.0,-2.4,0.2,5060,4807,,,,,,,,,,,,,,,,,
13406,1469906398927,,,,,,,-0.22,-0.08,0.84,-2.7,-1.6,-0.3,4620,4867,,,,,,,,,,,,,,,,,
13426,1469906398947,,,,,,,-0.2,-0.07,0.8,-2.7,-0.6,-0.3,4820,4776,,,,,,,,,,,,,,,,,
13446,1469906398967,0,276.3,207.1,48,209.8,,-0.19,-0.01,0.72,-2.8,-3.0,-0.5,4880,4747,0.982,4,39.543636,-122.335205,83.86,0.186,365.4,8,2,1.6,0,0.0,-1,0.0,0.0,0.0,0
13466,1469906398987,,,,,,,-0.21,-0.04,0.78,-2.9,-1.9,-0.1,4860,4807,,,,,,,,,,,,,,,,,
13486,1469906399006,,,,,,,-0.12,-0.01,0.86,-3.0,-2.6,-0.2,4920,4776,,,,,,,,,,,,,,,,,
13506,1469906399026,,,,,,,-0.18,-0.06,0.88,-2.8,-2.4,-0.5,4660,4807,,,,,,,,,,,,,,,,,
13526,1469906399046,,,,,,,-0.17,-0.04,0.87,-2.5,-0.4,0.0,4800,4776,,,,,,,,,,,,,,,,,
13546,1469906399066,,,,74,,,-0.14,0.0,0.79,-2.3,-2.7,-0.1,4780,4807,0.994,4,39.54361,-122.335236,84.05,0.188,366.3,8,2,1.6,0,0.0,-1,0.0,,0.0,0
13566,1469906399092,,,,,,,-0.19,-0.08,0.77,-2.3,-1.8,-0.0,4880,4836,,,,,,,,,,,,,,,,,
13586,1469906399112,,,,,,,-0.08,-0.06,0.86,-2.4,-1.3,-0.1,4760,4807,,,,,,,,,,,,,,,,,
13606,1469906399132,,,,,,,-0.11,-0.04,0.9,-2.3,-2.1,-0.3,4620,4776,,,,,,,,,,,,,,,,,
13626,1469906399152,,,,,,,-0.14,0.04,0.89,-2.1,0.3,0.2,4900,4776,,,,,,,,,,,,,,,,,
13646,1469906399172,0,276.4,207.3,54,209.1,,-0.08,0.13,0.91,-2.3,-1.6,-0.5,4820,4807,0.951,4,39.543587,-122.335258,84.13,0.19,367.3,8,2,1.6,0,0.0,-1,0.0,0.0,0.0,0
13666,1469906399293,,,,,,,-0.16,0.02,0.85,-2.5,-1.0,-0.4,4920,4836,,,,,,,,,,,,,,,,,
13686,1469906399313,,,,,,,-0.08,0.04,0.82,-2.4,-1.1,-0.3,4680,4836,,,,,,,,,,,,,,,,,
13706,1469906399333,,,,,,,-0.08,0.09,0.79,-2.2,-3.7,-0.6,4880,4836,,,,,,,,,,,,,,,,,
13726,1469906399353,,,,,,,-0.12,0.11,0.86,-2.1,-0.8,-0.2,4900,4776,,,,,,,,,,,,,,,,,
13746,1469906399373,,,,47,,,-0.04,0.16,0.93,-2.3,-2.7,-0.6,4740,4807,1.057,4,39.543537,-122.33532,84.33,0.195,369.1,8,2,2.3,0,0.0,-1,0.0,,0.0,0
13766,1469906399393,,,,,,,-0.13,0.09,0.94,-2.4,-2.2,-0.5,5040,4836,,,,,,,,,,,,,,,,,
13786,1469906399413,,,,,,,-0.11,0.09,0.89,-2.3,-1.0,-0.2,4600,4867,,,,,,,,,,,,,,,,,
13806,1469906399433,,,,,,,-0.1,0.17,0.81,-2.2,-3.5,-0.7,5060,4867,,,,,,,,,,,,,,,,,
13826,1469906399453,,,,,,,-0.14,0.07,0.87,-2.4,-1.1,-0.5,4740,4898,,,,,,,,,,,,,,,,,
13846,1469906399473,0,276.4,207.7,84,209.5,,-0.07,0.06,0.93,-2.8,-2.0,-0.7,4760,4867,1.018,4,39.543537,-122.33532,84.33,0.195,369.1,8,2,2.3,0,0.0,-1,0.0,0.0,0.0,0
13866,1469906399392,,,,,,,-0.12,0.03,0.93,-2.6,-2.1,-0.6,4980,4930,,,,,,,,,,,,,,,,,
13886,1469906399412,,,,,,,-0.13,0.08,0.97,-2.5,-0.5,-0.3,4760,4898,,,,,,,,,,,,,,,,,
13906,1469906399432,,,,,,,-0.13,0.19,0.93,-2.5,-3.8,-0.9,4880,4898,,,,,,,,,,,,,,,,,
13926,1469906399452,,,,,,,-0.19,0.07,0.89,-2.7,-1.7,-0.8,4760,4898,,,,,,,,,,,,,,,,,
13946,1469906399472,,,,51,,,-0.14,0.02,0.89,-2.8,-1.9,-0.5,4840,4836,0.998,4,39.543514,-122.33535,84.41,0.197,370.0,8,2,2.3,0,0.0,-1,0.0,,0.0,0
13966,1469906399491,,,,,,,-0.14,0.05,0.81,-2.4,-2.6,-0.5,4860,4867,,,,,,,,,,,,,,,,,
13986,1469906399511,,,,,,,-0.18,0.06,0.88,-2.4,-0.7,-0.1,4600,4807,,,,,,,,,,,,,,,,,
14006,1469906399531,,,,,,,-0.14,0.12,0.9,-2.7,-3.2,-0.4,4660,4689,,,,,,,,,,,,,,,,,
14026,1469906399551,,,,,,,-0.18,0.1,0.91,-3.4,-2.3,0.1,4580,4689,,,,,,,,,,,,,,,,,
14046,1469906399571,0,276.3,207.3,39,209.1,13.95,-0.11,0.09,0.91,-3.4,-3.3,0.3,4640,4633,1.0,4,39.543488,-122.335388,84.34,0.2,371.0,8,2,2.3,0,0.0,-1,0.0,0.0,0.0,0
14066,1469906399591,,,,,,,-0.16,-0.01,0.92,-3.0,-4.6,0.4,4680,4661,,,,,,,,,,,,,,,,,
14086,1469906399611,,,,,,,-0.05,-0.07,0.93,-2.8,-4.0,0.7,4760,4689,,,,,,,,,,,,,,,,,
14106,1469906399631,,,,,,,-0.04,-0.01,1.02,-2.4,-6.3,0.7,4700,4807,,,,,,,,,,,,,,,,,
14126,1469906399651,,,,,,,-0.07,-0.08,0.96,-2.0,-5.9,0.8,4840,4807,,,,,,,,,,,,,,,,,
14146,1469906399671,,,,41,,,-0.04,-0.01,0.93,-1.9,-5.8,0.4,4700,4747,1.011,4,39.543465,-122.335411,84.43,0.202,371.9,8,2,2.3,0,0.0,-1,0.0,,0.0,0
14166,1469906399691,,,,,,,-0.06,0.01,0.98,-2.7,-4.8,0.6,4720,4689,,,,,,,,,,,,,,,,,
14186,1469906399711,,,,,,,-0.02,0.03,0.99,-2.8,-5.1,0.2,4720,4718,,,,,,,,,,,,,,,,,
14206,1469906399731,,,,,,,-0.06,-0.08,1.04,-2.8,-4.2,0.4,4680,4718,,,,,,,,,,,,,,,,,
14226,1469906399751,,,,,,,-0.03,-0.12,1.06,-2.6,-3.4,0.3,4720,4747,,,,,,,,,,,,,,,,,
14246,1469906399771,0,275.3,207.0,70,209.0,,-0.01,-0.08,1.09,-2.1,-3.3,0.0,4700,4689,1.008,4,39.543442,-122.335449,84.67,0.205,372.9,8,2,2.3,0,0.0,-1,0.0,0.0,0.0,0
14266,1469906399794,,,,,,,-0.02,-0.07,1.13,-2.1,-1.3,0.1,4700,4689,,,,,,,,,,,,,,,,,
14286,1469906399814,,,,,,,0.01,0.03,0.98,-2.0,-2.0,-0.3,4680,4718,,,,,,,,,,,,,,,,,
14306,1469906399834,,,,,,,0.02,0.05,1.0,-2.2,-1.2,-0.1,4660,4661,,,,,,,,,,,,,,,,,
14326,1469906399854,,,,,,,0.06,0.02,1.08,-2.6,-0.2,-0.2,4660,4718,,,,,,,,,,,,,,,,,
14346,1469906399874,,,,58,,,0.07,-0.06,1.03,-2.5,-0.5,0.0,4600,4689,0.988,4,39.543415,-122.33548,84.37,0.207,373.9,8,2,2.3,0,0.0,-1,0.0,,0.0,0
14366,1469906399894,,,,,,,0.12,-0.09,1.02,-2.1,-0.6,0.1,4640,4689,,,,,,,,,,,,,,,,,
14386,1469906399907,,,,,,,0.16,-0.12,1.06,-1.7,-1.1,0.2,4540,4689,,,,,,,,,,,,,,,,,
14406,1469906399927,,,,,,,0.16,-0.09,1.0,-1.2,-1.7,0.4,4640,4606,,,,,,,,,,,,,,,,,
14426,1469906399947,,,,,,,0.22,0.03,0.93,-1.0,-2.3,0.5,4720,4606,,,,,,,,,,,,,,,,,
14446,1469906399967,0,276.6,207.6,81,209.0,,0.2,0.09,0.95,-1.6,-2.4,0.3,4720,4661,1.009,4,39.543392,-122.335503,83.86,0.209,374.9,8,2,2.3,0,0.0,-1,0.0,0.0,0.0,0
14466,1469906400093,,,,,,,0.24,0.14,0.9,-2.3,-2.2,-0.1,4480,4606,,,,,,,,,,,,,,,,,
14486,1469906400113,,,,,,,0.24,0.14,0.9,-2.9,-2.1,-0.3,4600,4578,,,,,,,,,,,,,,,,,
14506,1469906400133,,,,,,,0.28,0.08,0.94,-3.2,-2.2,-0.5,4560,4550,,,,,,,,,,,,,,,,,
14526,1469906400153,,,,,,,0.28,0.02,0.87,-3.3,-2.3,-0.5,4480,4578,,,,,,,,,,,,,,,,,
14546,1469906400173,,,,91,,,0.3,-0.03,0.96,-3.1,-1.8,-0.7,4520,4578,0.989,4,39.543343,-122.335564,82.88,0.214,376.7,8,3,2.3,0,0.0,-1,0.0,,0.0,0
14566,1469906400193,,,,,,,0.3,-0.1,0.93,-2.8,-1.0,-0.7,4600,4496,,,,,,,,,,,,,,,,,
14586,1469906400213,,,,,,,0.35,-0.13,1.03,-2.6,-0.8,-0.7,4620,4550,,,,,,,,,,,,,,,,,
14606,1469906400233,,,,,,,0.36,-0.22,1.02,-2.3,-0.6,-0.7,4480,4524,,,,,,,,,,,,,,,,,
14626,1469906400253,,,,,,,0.42,-0.28,1.1,-1.7,-0.8,-0.8,4480,4550,,,,,,,,,,,,,,,,,
14646,1469906400273,0,275.4,206.3,40,208.3,,0.4,-0.28,1.05,-1.5,-0.3,-0.6,4540,4446,1.001,4,39.543343,-122.335564,82.88,0.214,376.7,8,3,2.3,0,0.0,-1,0.0,0.0,0.0,0
14666,1469906400193,,,,,,,0.44,-0.29,1.11,-1.4,-0.2,-0.5,4480,4446,,,,,,,,,,,,,,,,,
14686,1469906400213,,,,,,,0.4,-0.28,1.06,-1.4,0.2,-0.6,4440,4446,,,,,,,,,,,,,,,,,
14706,1469906400233,,,,,,,0.48,-0.27,1.12,-1.5,1.2,-0.8,4400,4446,,,,,,,,,,,,,,,,,
14726,1469906400253,,,,,,,0.47,-0.17,1.01,-1.9,1.3,-0.6,4440,4420,,,,,,,,,,,,,,,,,
14746,1469906400273,,,,45,,,0.5,-0.13,1.09,-2.4,1.1,-0.8,4480,4420,1.0,4,39.54332,-122.335594,82.05,0.216,377.5,8,3,2.3,0,0.0,-1,0.0,,0.0,0
14766,1469906400294,,,,,,,0.47,-0.06,1.01,-2.9,0.3,-0.7,4480,4420,,,,,,,,,,,,,,,,,
14786,1469906400314,,,,,,,0.5,-0.01,1.01,-3.1,-0.7,-1.2,4320,4420,,,,,,,,,,,,,,,,,
14806,1469906400334,,,,,,,0.45,0.03,0.97,-3.6,0.1,-0.9,4400,4395,,,,,,,,,,,,,,,,,
14826,1469906400354,,,,,,,0.5,0.13,0.92,-3.9,-0.6,-1.3,4280,4369,,,,,,,,,,,,,,,,,
14846,1469906400374,1,276.3,207.3,40,209.1,,0.47,0.16,0.96,-4.3,-0.2,-1.2,4460,4320,1.001,4,39.543297,-122.335632,81.15,0.219,378.2,8,3,2.3,0,0.0,-1,0.0,0.0,0.0,0
14866,1469906400392,,,,,,,0.45,0.26,0.9,-4.4,-1.6,-1.1,4300,4344,,,,,,,,,,,,,,,,,
14886,1469906400412,,,,,,,0.45,0.25,0.91,-4.5,-1.1,-0.9,4340,4272,,,,,,,,,,,,,,,,,
14906,1469906400432,,,,,,,0.41,0.14,0.96,-4.1,-1.0,-0.9,4380,4320,,,,,,,,,,,,,,,,,
14926,1469906400452,,,,,,,0.44,0.08,0.93,-3.4,0.0,-1.1,4300,4320,,,,,,,,,,,,,,,,,
14946,1469906400472,,,,74,,,0.44,0.02,0.99,-2.7,-0.1,-1.0,4300,4296,0.987,4,39.54327,-122.335655,80.3,0.221,379.1,8,3,2.3,0,0.0,-1,0.0,,0.0,0
14966,1469906400491,,,,,,,0.47,0.01,1.03,-2.4,-0.5,-1.5,4240,4249,,,,,,,,,,,,,,,,,
14986,1469906400511,,,,,,,0.44,0.04,0.96,-2.8,0.2,-1.4,4180,4249,,,,,,,,,,,,,,,,,
15006,1469906400531,,,,,,,0.5,0.1,0.92,-2.9,-1.0,-1.4,4180,4296,,,,,,,,,,,,,,,,,
15026,1469906400551,,,,,,,0.53,0.11,0.95,-2.8,-1.1,-1.5,4320,4226,,,,,,,,,,,,,,,,,
15046,1469906400571,0,275.6,207.0,58,208.8,13.75,0.5,0.07,0.98,-2.7,-1.6,-1.5,4240,4180,0.984,4,39.543247,-122.335678,79.11,0.223,380.0,8,3,2.3,0,0.0,-1,0.0,0.0,0.0,0
15066,1469906400591,,,,,,,0.52,0.06,0.95,-2.6,-0.3,-1.2,4220,4180,,,,,,,,,,,,,,,,,
15086,1469906400611,,,,,,,0.51,0.03,0.9,-2.4,0.1,-0.9,4140,4203,,,,,,,,,,,,,,,,,
15106,1469906400631,,,,,,,0.58,0.04,0.9,-2.1,-1.7,-1.2,4200,4226,,,,,,,,,,,,,,,,,
15126,1469906400651,,,,,,,0.54,0.07,0.95,-2.5,-0.8,-1.0,4200,4156,,,,,,,,,,,,,,,,,
15146,1469906400671,,,,86,,,0.5,0.03,0.95,-2.9,-1.0,-0.7,4140,4112,0.987,4,39.543224,-122.335709,78.09,0.225,380.9,8,3,2.3,0,0.0,-1,0.0,,0.0,0
15166,1469906400691,,,,,,,0.51,0.01,0.98,-2.9,-0.7,-0.7,4040,4112,,,,,,,,,,,,,,,,,
15186,1469906400710,,,,,,,0.5,0.03,0.92,-2.9,-0.6,-0.5,4040,4135,,,,,,,,,,,,,,,,,
15206,1469906400730,,,,,,,0.54,0.09,0.91,-3.2,-1.8,-0.6,3980,4180,,,,,,,,,,,,,,,,,
15226,1469906400750,,,,,,,0.58,0.11,0.87,-3.2,-1.7,-0.8,4080,4135,,,,,,,,,,,,,,,,,
15246,1469906400770,0,276.4,207.1,43,208.8,,0.56,0.08,0.93,-3.3,-2.3,-0.5,4060,4090,1.013,4,39.543205,-122.335732,76.62,0.227,381.7,8,3,2.3,0,0.0,-1,0.0,0.0,0.0,0
15266,1469906400790,,,,,,,0.57,0.07,0.95,-3.5,-3.0,-0.7,4040,4135,,,,,,,,,,,,,,,,,
15286,1469906400904,,,,,,,0.58,0.06,0.93,-3.7,-2.3,-0.8,4020,4090,,,,,,,,,,,,,,,,,
15306,1469906400924,,,,,,,0.56,0.04,0.99,-3.8,-1.9,-0.6,3920,4006,,,,,,,,,,,,,,,,,
15326,1469906400944,,,,,,,0.6,0.02,1.04,-4.0,-1.9,-0.7,4000,4026,,,,,,,,,,,,,,,,,
15346,1469906400964,,,,73,,,0.59,0.01,1.01,-4.1,-0.6,-0.7,4020,4026,0.993,4,39.54316,-122.3358,74.15,0.232,383.3,8,3,2.3,0,0.0,-1,0.0,,0.0,0
15366,1469906400984,,,,,,,0.56,-0.05,1.09,-4.3,0.1,-0.4,3920,3964,,,,,,,,,,,,,,,,,
15386,1469906401004,,,,,,,0.6,-0.06,1.11,-4.2,-0.2,-0.5,3840,4026,,,,,,,,,,,,,,,,,
15406,1469906401024,,,,,,,0.61,-0.07,1.08,-4.1,0.6,-0.4,3980,3964,,,,,,,,,,,,,,,,,
15426,1469906401044,,,,,,,0.6,-0.11,1.16,-4.0,0.8,-0.1,3860,3964,,,,,,,,,,,,,,,,,
15446,1469906401064,0,276.9,207.3,69,209.0,,0.63,-0.07,1.17,-3.9,0.6,-0.4,3960,3964,0.989,4,39.54316,-122.3358,74.15,0.232,383.3,8,3,2.3,0,0.0,-1,0.0,0.0,0.0,0
15466,1469906400994,,,,,,,0.66,-0.07,1.11,-4.2,1.4,-0.4,3900,3884,,,,,,,,,,,,,,,,,
15486,1469906401014,,,,,,,0.65,-0.1,1.06,-4.0,1.5,-0.3,3900,3904,,,,,,,,,,,,,,,,,
15506,1469906401034,,,,,,,0.66,0.03,1.09,-3.9,0.8,-0.4,3900,3924,,,,,,,,,,,,,,,,,
15526,1469906401054,,,,,,,0.69,0.01,1.08,-3.9,1.0,-0.2,3820,3826,,,,,,,,,,,,,,,,,
15546,1469906401074,,,,53,,,0.68,0.06,1.05,-3.7,1.3,-0.4,3920,3826,0.973,4,39.54314,-122.335823,72.79,0.234,384.1,8,3,2.3,0,0.0,-1,0.0,,0.0,0
15566,1469906401093,,,,,,,0.66,0.07,1.0,-3.9,0.3,-0.4,3840,3807,,,,,,,,,,,,,,,,,
15586,1469906401113,,,,,,,0.7,0.04,0.97,-4.0,-0.9,-0.5,3820,3846,,,,,,,,,,,,,,,,,
15606,1469906401133,,,,,,,0.7,0.13,0.93,-4.4,-0.9,-0.7,3720,3807,,,,,,,,,,,,,,,,,
15626,1469906401153,,,,,,,0.65,0.08,0.9,-4.5,-0.9,-0.6,3660,3769,,,,,,,,,,,,,,,,,
15646,1469906401173,0,276.8,207.7,52,209.2,,0.62,0.12,0.9,-4.3,-1.5,-0.8,3700,3769,0.997,4,39.543118,-122.335846,71.39,0.236,384.8,8,3,2.3,0,0.0,-1,0.0,0.0,0.0,0
15666,1469906401193,,,,,,,0.64,0.09,0.87,-4.2,-2.5,-1.0,3740,3733,,,,,,,,,,,,,,,,,
15686,1469906401213,,,,,,,0.66,0.08,0.86,-4.1,-2.0,-0.7,3680,3715,,,,,,,,,,,,,,,,,
15706,1469906401233,,,,,,,0.65,0.02,0.86,-3.8,-1.4,-0.6,3640,3733,,,,,,,,,,,,,,,,,
15726,1469906401253,,,,,,,0.66,-0.01,0.85,-3.6,-1.7,-0.9,3760,3680,,,,,,,,,,,,,,,,,
15746,1469906401273,,,,59,,,0.69,0.0,0.84,-3.5,-2.1,-1.0,3620,3680,1.022,4,39.543098,-122.335876,70.1,0.238,385.5,8,3,2.3,0,0.0,-1,0.0,,0.0,0
15766,1469906401293,,,,,,,0.71,0.03,0.78,-3.6,-1.9,-0.8,3680,3696,,,,,,,,,,,,,,,,,
15786,1469906401313,,,,,,,0.67,0.01,0.78,-3.8,-2.0,-0.6,3560,3680,,,,,,,,,,,,,,,,,
15806,1469906401333,,,,,,,0.64,0.0,0.76,-3.9,-2.5,-0.3,3620,3644,,,,,,,,,,,,,,,,,
15826,1469906401353,,,,,,,0.63,0.02,0.83,-4.2,-2.6,-0.2,3580,3627,,,,,,,,,,,,,,,,,
15846,1469906401373,0,276.1,206.5,44,208.0,,0.66,0.07,0.82,-4.3,-2.7,-0.2,3600,3610,0.976,4,39.543079,-122.335899,68.69,0.24,386.3,8,3,2.3,0,0.0,-1,0.0,0.0,0.0,0
15866,1469906401393,,,,,,,0.67,0.07,0.79,-4.7,-2.1,-0.3,3560,3610,,,,,,,,,,,,,,,,,
15886,1469906401410,,,,,,,0.65,0.09,0.8,-5.4,-1.7,-0.1,3560,3593,,,,,,,,,,,,,,,,,
15906,1469906401430,,,,,,,0.62,0.08,0.8,-6.1,-2.0,0.1,3460,3576,,,,,,,,,,,,,,,,,
15926,1469906401450,,,,,,,0.6,0.09,0.86,-6.5,-1.9,0.2,3600,3544,,,,,,,,,,,,,,,,,
15946,1469906401470,,,,41,,,0.63,0.09,0.87,-6.6,-1.6,0.1,3600,3527,0.97,4,39.543056,-122.335922,67.52,0.242,387.1,8,3,2.3,0,0.0,-1,0.0,,0.0,0
15966,1469906401490,,,,,,,0.65,0.15,0.87,-6.8,-1.3,0.2,3520,3527,,,,,,,,,,,,,,,,,
15986,1469906401510,,,,,,,0.61,0.15,0.87,-7.0,-1.4,0.1,3540,3495,,,,,,,,,,,,,,,,,
16006,1469906401530,,,,,,,0.57,0.21,0.89,-7.5,-1.7,0.3,3500,3480,,,,,,,,,,,,,,,,,
16026,1469906401550,,,,,,,0.55,0.22,0.85,-8.1,-1.5,0.3,3500,3464,,,,,,,,,,,,,,,,,
16046,1469906401570,0,275.6,206.6,43,208.3,13.74,0.55,0.25,0.9,-8.9,-1.3,0.3,3440,3495,1.0,4,39.543037,-122.335938,66.05,0.243,387.9,8,3,2.3,0,0.0,-1,0.0,0.0,0.0,0
16066,1469906401590,,,,,,,0.55,0.25,0.88,-9.3,-1.6,0.5,3460,3480,,,,,,,,,,,,,,,,,
16086,1469906401710,,,,,,,0.55,0.3,0.88,-9.7,-1.2,0.4,3460,3418,,,,,,,,,,,,,,,,,
16106,1469906401730,,,,,,,0.54,0.33,0.86,-10.3,-0.9,0.4,3340,3418,,,,,,,,,,,,,,,,,
16126,1469906401750,,,,,,,0.52,0.37,0.89,-10.8,-0.9,0.7,3440,3449,,,,,,,,,,,,,,,,,
16146,1469906401770,,,,54,,,0.5,0.36,0.92,-11.3,-1.2,0.9,3400,3403,1.005,4,39.542999,-122.335991,63.33,0.247,389.4,8,3,2.3,0,0.0,-1,0.0,,0.0,0
16166,1469906401790,,,,,,,0.5,0.43,0.91,-11.7,-1.1,0.8,3340,3387,,,,,,,,,,,,,,,,,
16186,1469906401810,,,,,,,0.5,0.47,0.96,-12.5,-1.1,0.9,3300,3358,,,,,,,,,,,,,,,,,
16206,1469906401830,,,,,,,0.5,0.43,0.93,-12.7,-1.7,1.2,3280,3387,,,,,,,,,,,,,,,,,
16226,1469906401850,,,,,,,0.49,0.44,0.98,-13.1,-1.1,1.3,3400,3358,,,,,,,,,,,,,,,,,
16246,1469906401870,0,276.4,207.2,46,208.7,,0.48,0.45,0.92,-13.5,-0.5,1.2,3260,3343,1.021,4,39.542999,-122.335991,63.33,0.247,389.4,8,3,2.3,0,0.0,-1,0.0,0.0,0.0,0
16266,1469906401793,,,,,,,0.48,0.45,0.9,-13.6,-0.9,1.3,3260,3329,,,,,,,,,,,,,,,,,
16286,1469906401813,,,,,,,0.48,0.48,0.92,-13.9,-0.7,1.3,3400,3343,,,,,,,,,,,,,,,,,
16306,1469906401833,,,,,,,0.46,0.48,0.9,-14.2,-1.2,1.4,3240,3343,,,,,,,,,,,,,,,,,
16326,1469906401853,,,,,,,0.43,0.5,0.88,-14.3,-1.9,1.5,3360,3315,,,,,,,,,,,,,,,,,
16346,1469906401873,,,,51,,,0.38,0.48,0.89,-14.5,-1.2,1.5,3260,3272,1.014,4,39.542984,-122.336014,61.89,0.249,390.1,8,3,2.3,0,0.0,-1,0.0,,0.0,0
16366,1469906401893,,,,,,,0.38,0.5,0.88,-14.5,-1.1,1.3,3340,3272,,,,,,,,,,,,,,,,,
16386,1469906401907,,,,,,,0.37,0.5,0.88,-14.5,-1.0,1.2,3300,3300,,,,,,,,,,,,,,,,,
16406,1469906401927,,,,,,,0.35,0.55,0.89,-14.5,-0.3,1.1,3360,3300,,,,,,,,,,,,,,,,,
16426,1469906401947,,,,,,,0.35,0.54,0.89,-14.7,0.0,1.2,3300,3315,,,,,,,,,,,,,,,,,
16446,1469906401967,0,276.6,207.9,53,209.6,,0.32,0.57,0.86,-14.6,0.2,1.1,3220,3258,0.994,4,39.542965,-122.336029,60.7,0.25,390.8,8,3,2.3,0,0.0,-1,0.0,0.0,0.0,0
16466,1469906401995,,,,,,,0.3,0.61,0.87,-14.6,0.4,0.9,3240,3272,,,,,,,,,,,,,,,,,
16486,1469906402015,,,,,,,0.28,0.6,0.89,-14.8,0.2,0.9,3220,3286,,,,,,,,,,,,,,,,,
16506,1469906402035,,,,,,,0.24,0.6,0.89,-14.9,0.5,1.1,3320,3286,,,,,,,,,,,,,,,,,
16526,1469906402055,,,,,,,0.24,0.61,0.89,-14.8,0.2,1.1,3280,3286,,,,,,,,,,,,,,,,,
16546,1469906402075,,,,50,,,0.2,0.6,0.86,-14.8,-0.3,0.9,3200,3244,1.002,4,39.542946,-122.336052,59.81,0.252,391.6,8,3,2.3,0,0.0,-1,0.0,,0.0,0
16566,1469906402094,,,,,,,0.18,0.57,0.89,-14.9,0.3,0.8,3300,3272,,,,,,,,,,,,,,,,,
16586,1469906402114,,,,,,,0.18,0.59,0.9,-14.7,0.4,0.6,3320,3218,,,,,,,,,,,,,,,,,
16606,1469906402134,,,,,,,0.17,0.6,0.91,-14.5,-0.4,0.4,3180,3258,,,,,,,,,,,,,,,,,
16626,1469906402154,,,,,,,0.18,0.59,0.9,-14.8,-0.6,0.3,3200,3244,,,,,,,,,,,,,,,,,
16646,1469906402174,0,276.1,207.2,35,208.9,,0.17,0.63,0.93,-15.2,-0.9,0.3,3240,3286,0.997,4,39.542927,-122.336075,58.69,0.254,392.3,8,3,2.3,0,0.0,-1,0.0,0.0,0.0,0
16666,1469906402195,,,,,,,0.16,0.65,0.92,-15.3,-0.6,0.1,3300,3218,,,,,,,,,,,,,,,,,
16686,1469906402215,,,,,,,0.17,0.67,0.86,-15.4,-0.6,0.1,3160,3244,,,,,,,,,,,,,,,,,
16706,1469906402235,,,,,,,0.15,0.69,0.83,-15.6,-1.1,0.0,3280,3218,,,,,,,,,,,,,,,,,
16726,1469906402255,,,,,,,0.16,0.69,0.84,-16.1,-0.7,0.2,3260,3244,,,,,,,,,,,,,,,,,
16746,1469906402275,,,,45,,,0.14,0.7,0.86,-16.5,-0.5,0.4,3220,3244,0.997,4,39.542908,-122.33609,57.91,0.255,392.4,8,3,2.3,0,0.0,-1,0.0,,0.0,0
16766,1469906402295,,,,,,,0.12,0.7,0.88,-16.9,-0.7,0.7,3260,3230,,,,,,,,,,,,,,,,,
16786,1469906402315,,,,,,,0.1,0.7,0.89,-17.2,-0.8,0.9,3200,3218,,,,,,,,,,,,,,,,,
16806,1469906402335,,,,,,,0.11,0.7,0.92,-17.6,-1.2,1.0,3200,3218,,,,,,,,,,,,,,,,,
16826,1469906402355,,,,,,,0.1,0.7,0.97,-18.2,-0.7,1.1,3140,3204,,,,,,,,,,,,,,,,,
16846,1469906402375,0,276.3,207.4,49,209.1,,0.11,0.68,0.96,-18.7,-0.4,1.2,3100,3178,0.991,4,39.542889,-122.336105,57.74,0.257,393.0,8,3,2.3,0,0.0,-1,0.0,0.0,0.0,0
16866,1469906402493,,,,,,,0.12,0.69,0.99,-19.0,-0.7,1.3,3260,3218,,,,,,,,,,,,,,,,,
16886,1469906402513,,,,,,,0.13,0.73,1.0,-19.5,-0.8,1.6,3200,3218,,,,,,,,,,,,,,,,,
16906,1469906402533,,,,,,,0.13,0.76,1.01,-20.0,-0.7,1.6,3160,3204,,,,,,,,,,,,,,,,,
16926,1469906402553,,,,,,,0.11,0.79,1.01,-20.6,-0.4,1.8,3140,3204,,,,,,,,,,,,,,,,,
16946,1469906402573,,,,44,,,0.11,0.83,0.96,-20.9,0.1,2.0,3220,3218,1.022,4,39.54285,-122.336144,56.91,0.26,394.1,8,3,2.3,0,0.0,-1,0.0,,0.0,0
16966,1469906402593,,,,,,,0.1,0.84,0.94,-21.1,0.6,2.2,3180,3178,,,,,,,,,,,,,,,,,
16986,1469906402613,,,,,,,0.09,0.86,0.95,-21.5,1.4,2.4,3180,3218,,,,,,,,,,,,,,,,,
17006,1469906402633,,,,,,,0.11,0.84,0.93,-21.9,1.0,2.6,3220,3218,,,,,,,,,,,,,,,,,
17026,1469906402653,,,,,,,0.11,0.84,0.93,-22.1,0.4,2.9,3180,3218,,,,,,,,,,,,,,,,,
17046,1469906402673,0,275.9,207.0,51,208.7,13.81,0.1,0.85,0.93,-22.3,0.5,3.0,3180,3230,1.007,4,39.54285,-122.336144,56.91,0.26,394.1,8,3,2.3,0,0.0,-1,0.0,0.0,0.0,0
17066,1469906402592,,,,,,,0.1,0.9,0.98,-22.6,0.2,3.4,3240,3244,,,,,,,,,,,,,,,,,
17086,1469906402612,,,,,,,0.08,0.91,0.92,-22.7,0.2,3.4,3300,3218,,,,,,,,,,,,,,,,,
17106,1469906402632,,,,,,,0.1,0.96,0.95,-23.1,0.5,3.4,3240,3244,,,,,,,,,,,,,,,,,
17126,1469906402652,,,,,,,0.12,0.93,0.98,-23.5,0.3,3.5,3220,3218,,,,,,,,,,,,,,,,,
17146,1469906402672,,,,51,,,0.13,0.94,0.98,-23.7,1.0,3.3,3240,3204,0.997,4,39.542831,-122.336159,56.54,0.262,394.5,8,3,2.3,0,0.0,-1,0.0,,0.0,0
17166,1469906402693,,,,,,,0.13,0.93,0.97,-23.8,0.7,3.3,3160,3190,,,,,,,,,,,,,,,,,
17186,1469906402713,,,,,,,0.11,0.97,0.98,-24.0,0.3,3.1,3260,3204,,,,,,,,,,,,,,,,,
17206,1469906402733,,,,,,,0.14,1.0,0.99,-24.5,-1.0,2.6,3160,3204,,,,,,,,,,,,,,,,,
17226,1469906402753,,,,,,,0.13,0.99,0.99,-24.5,-0.6,2.5,3160,3190,,,,,,,,,,,,,,,,,
17246,1469906402773,0,275.6,206.8,43,208.5,,0.13,1.04,0.98,-24.4,-0.6,2.7,3100,3204,1.02,4,39.542812,-122.336166,56.12,0.263,395.0,8,3,2.3,0,0.0,-1,0.0,0.0,0.0,0
17266,1469906402795,,,,,,,0.13,1.06,0.97,-24.6,0.1,2.5,3140,3190,,,,,,,,,,,,,,,,,
