"Interval"|"ms"|0|0|1,"Utc"|"ms"|0|0|1,"FuelLevel"|"F"|0|100|5,"OilTemp"|"F"|0.0|300.0|5,"Coolant"|"F"|0.0|300.0|5,"OilPress"|"PSI"|0|150|10,"EngineTemp"|"F"|0.0|300.0|5,"Battery"|"Volts"|0.0|20.0|1,"AccelX"|"G"|-3.0|3.0|50,"AccelY"|"G"|-3.0|3.0|50,"AccelZ"|"G"|-3.0|3.0|50,"Yaw"|"Deg/Sec"|-300.0|300.0|50,"Pitch"|"Deg/Sec"|-300.0|300.0|50,"Roll"|"Deg/Sec"|-300.0|300.0|50,"RPM"|""|0|10000|50,"Driveshaft"|"RPM"|0|5000|50,"GearRatio"|""|-5.0|5.0|10,"Gear"|""|-1|5|10,"Latitude"|"Degrees"|-180.0|180.0|10,"Longitude"|"Degrees"|-180.0|180.0|10,"Speed"|"MPH"|0.0|150.0|10,"Distance"|"Miles"|0.0|0.0|10,"Altitude"|"Feet"|0.0|4000.0|10,"GPSSats"|""|0|20|10,"GPSQual"|""|0|5|10,"GPSDOP"|""|0.0|20.0|10,"LapCount"|""|0|0|10,"LapTime"|"Min"|0.0|0.0|10,"Sector"|""|0|0|10,"SectorTime"|"Min"|0.0|0.0|10,"PredTime"|"Min"|0.0|0.0|5,"ElapsedTime"|"Min"|0.0|0.0|10,"CurrentLap"|""|0|0|10
5066,1469905422967,,,,,,,0.51,0.17,0.97,-4.3,-1.2,0.0,2940,2289,,,,,,,,,,,,,,,,,
5086,1469905422987,,,,,,,0.52,0.17,0.96,-4.8,-1.9,0.3,2940,2255,,,,,,,,,,,,,,,,,
5106,1469905422901,,,,,,,0.5,0.16,0.91,-5.3,-2.7,0.5,2840,2247,,,,,,,,,,,,,,,,,
5126,1469905422921,,,,,,,0.51,0.15,0.9,-5.7,-3.0,0.6,2800,2203,,,,,,,,,,,,,,,,,
5146,1469905422941,,,,64,,,0.49,0.14,0.86,-6.2,-3.2,0.9,2820,2229,1.293,3,39.540844,-122.329193,43.27,0.001,308.4,7,2,2.3,0,0.0,-1,0.0,,0.0,0
5166,1469905422961,,,,,,,0.51,0.14,0.85,-6.9,-3.3,1.2,2780,2184,,,,,,,,,,,,,,,,,
5186,1469905422981,,,,,,,0.53,0.22,0.86,-7.4,-3.7,1.0,2760,2184,,,,,,,,,,,,,,,,,
5206,1469905423008,,,,,,,0.54,0.27,0.89,-8.1,-3.1,1.1,2720,2147,,,,,,,,,,,,,,,,,
5226,1469905423028,,,,,,,0.52,0.24,0.9,-8.5,-3.2,1.2,2720,2166,,,,,,,,,,,,,,,,,
5246,1469905423048,0,277.4,204.4,45,206.6,,0.53,0.21,0.88,-9.0,-2.7,1.2,2700,2147,1.308,3,39.540863,-122.329193,41.92,0.003,309.3,7,2,2.3,0,0.0,-1,0.0,0.0,0.0,0
5266,1469905423068,,,,,,,0.54,0.24,0.92,-9.7,-2.3,1.1,2780,2135,,,,,,,,,,,,,,,,,
5286,1469905423088,,,,,,,0.53,0.3,0.92,-10.7,-1.7,0.9,2640,2135,,,,,,,,,,,,,,,,,
5306,1469905423108,,,,,,,0.53,0.32,0.93,-11.5,-1.8,1.1,2700,2118,,,,,,,,,,,,,,,,,
5326,1469905423128,,,,,,,0.53,0.29,0.94,-12.2,-1.5,1.4,2720,2106,,,,,,,,,,,,,,,,,
5346,1469905423148,,,,42,,,0.52,0.31,0.96,-12.6,-1.3,1.0,2620,2095,1.264,3,39.540878,-122.329193,40.67,0.004,310.2,7,2,2.3,0,0.0,-1,0.0,,0.0,0
5366,1469905423168,,,,,,,0.52,0.35,0.93,-13.3,-0.9,1.0,2680,2072,,,,,,,,,,,,,,,,,
5386,1469905423188,,,,,,,0.53,0.36,0.93,-14.1,-0.8,1.2,2580,2050,,,,,,,,,,,,,,,,,
5406,1469905423208,,,,,,,0.54,0.39,0.93,-14.6,-0.6,1.1,2660,2023,,,,,,,,,,,,,,,,,
5426,1469905423228,,,,,,,0.52,0.38,0.94,-15.2,-0.2,1.2,2540,2033,,,,,,,,,,,,,,,,,
5446,1469905423248,0,277.1,204.4,32,206.6,,0.53,0.39,0.93,-15.5,-0.3,1.3,2620,1996,1.256,3,39.54089,-122.329208,39.18,0.005,311.3,7,2,2.3,0,0.0,-1,0.0,0.0,0.0,0
5466,1469905423268,,,,,,,0.54,0.43,0.88,-15.9,-0.7,1.3,2480,1981,,,,,,,,,,,,,,,,,
5486,1469905423288,,,,,,,0.54,0.46,0.91,-16.7,-1.3,1.8,2460,1972,,,,,,,,,,,,,,,,,
5506,1469905423308,,,,,,,0.56,0.49,0.92,-17.5,-1.7,2.1,2460,1956,,,,,,,,,,,,,,,,,
5526,1469905423328,,,,,,,0.55,0.5,0.91,-18.0,-2.3,2.3,2520,1927,,,,,,,,,,,,,,,,,
5546,1469905423348,,,,43,,,0.54,0.54,0.9,-18.4,-2.5,2.5,2500,1927,1.24,3,39.540905,-122.329208,37.68,0.006,312.3,7,2,2.3,0,0.0,-1,0.0,,0.0,0
5566,1469905423368,,,,,,,0.53,0.59,0.89,-19.1,-2.8,2.6,2420,1912,,,,,,,,,,,,,,,,,
5586,1469905423388,,,,,,,0.53,0.59,0.91,-19.4,-2.7,2.8,2380,1889,,,,,,,,,,,,,,,,,
5606,1469905423408,,,,,,,0.52,0.54,0.9,-20.0,-2.8,3.0,2420,1852,,,,,,,,,,,,,,,,,
5626,1469905423428,,,,,,,0.52,0.57,0.91,-20.7,-2.8,3.5,2360,1856,,,,,,,,,,,,,,,,,
5646,1469905423448,0,277.8,204.8,35,206.9,,0.51,0.58,0.9,-21.4,-2.7,3.8,2340,1847,1.285,3,39.54092,-122.329208,36.2,0.007,313.4,7,2,2.3,0,0.0,-1,0.0,0.0,0.0,0
5666,1469905423468,,,,,,,0.52,0.57,0.9,-22.3,-3.1,4.5,2340,1826,,,,,,,,,,,,,,,,,
5686,1469905423488,,,,,,,0.5,0.61,0.89,-23.1,-3.1,4.7,2320,1821,,,,,,,,,,,,,,,,,
5706,1469905423607,,,,,,,0.48,0.62,0.89,-23.9,-2.8,4.9,2340,1800,,,,,,,,,,,,,,,,,
5726,1469905423627,,,,,,,0.45,0.65,0.89,-24.8,-3.3,5.4,2300,1813,,,,,,,,,,,,,,,,,
5746,1469905423647,,,,33,,,0.42,0.67,0.89,-25.5,-3.3,5.7,2260,1809,1.256,3,39.540943,-122.329216,33.93,0.009,314.7,7,2,2.3,0,0.0,-1,0.0,,0.0,0
5766,1469905423667,,,,,,,0.41,0.68,0.89,-26.2,-3.4,6.2,2260,1800,,,,,,,,,,,,,,,,,
5786,1469905423687,,,,,,,0.39,0.69,0.92,-27.0,-3.2,6.5,2260,1792,,,,,,,,,,,,,,,,,
5806,1469905423707,,,,,,,0.36,0.69,0.9,-27.7,-3.1,6.8,2300,1800,,,,,,,,,,,,,,,,,
5826,1469905423727,,,,,,,0.35,0.73,0.91,-28.5,-3.1,6.7,2320,1796,,,,,,,,,,,,,,,,,
5846,1469905423747,0,278.1,204.9,35,207.2,,0.33,0.77,0.92,-29.3,-3.1,6.5,2240,1792,1.27,3,39.540943,-122.329216,33.93,0.009,314.7,7,2,2.3,0,0.0,-1,0.0,0.0,0.0,0
5866,1469905423767,,,,,,,0.32,0.78,0.89,-30.1,-3.3,6.3,2300,1780,,,,,,,,,,,,,,,,,
5886,1469905423787,,,,,,,0.31,0.82,0.87,-30.7,-3.2,6.0,2240,1775,,,,,,,,,,,,,,,,,
5906,1469905423708,,,,,,,0.29,0.82,0.88,-31.5,-2.8,5.8,2260,1775,,,,,,,,,,,,,,,,,
5926,1469905423728,,,,,,,0.27,0.83,0.87,-32.1,-3.1,5.5,2200,1767,,,,,,,,,,,,,,,,,
5946,1469905423748,,,,40,,,0.26,0.87,0.88,-32.9,-3.2,5.3,2240,1763,1.284,3,39.540958,-122.329231,32.48,0.01,315.1,7,2,2.3,0,0.0,-1,0.0,,0.0,0
5966,1469905423768,,,,,,,0.25,0.86,0.88,-33.6,-2.9,5.2,2220,1750,,,,,,,,,,,,,,,,,
5986,1469905423788,,,,,,,0.25,0.87,0.89,-34.2,-2.6,5.1,2220,1747,,,,,,,,,,,,,,,,,
6006,1469905423808,,,,,,,0.24,0.88,0.89,-34.7,-3.0,4.8,2200,1740,,,,,,,,,,,,,,,,,
6026,1469905423828,,,,,,,0.22,0.85,0.88,-35.1,-3.3,4.4,2220,1743,,,,,,,,,,,,,,,,,
6046,1469905423848,0,278.3,204.5,30,206.7,13.88,0.23,0.86,0.88,-35.3,-2.6,4.2,2200,1755,1.274,3,39.540966,-122.329247,32.1,0.011,315.5,7,2,2.3,0,0.0,-1,0.0,0.0,0.0,0
6066,1469905423868,,,,,,,0.21,0.9,0.88,-35.7,-2.4,4.5,2200,1735,,,,,,,,,,,,,,,,,
6086,1469905423888,,,,,,,0.21,0.92,0.89,-36.0,-2.7,4.5,2180,1732,,,,,,,,,,,,,,,,,
6106,1469905423902,,,,,,,0.2,0.93,0.89,-36.2,-2.9,4.2,2200,1716,,,,,,,,,,,,,,,,,
6126,1469905423922,,,,,,,0.2,0.91,0.86,-36.3,-3.0,3.7,2160,1712,,,,,,,,,,,,,,,,,
6146,1469905423942,,,,20,,,0.2,0.91,0.87,-36.4,-2.8,3.2,2180,1709,1.287,3,39.540978,-122.329247,31.58,0.012,315.7,7,2,2.3,0,0.0,-1,0.0,,0.0,0
6166,1469905423962,,,,,,,0.21,0.99,0.86,-36.5,-2.6,3.1,2200,1701,,,,,,,,,,,,,,,,,
6186,1469905423982,,,,,,,0.19,1.05,0.88,-36.7,-2.8,3.3,2200,1709,,,,,,,,,,,,,,,,,
6206,1469905424009,,,,,,,0.2,0.98,0.86,-36.8,-3.4,3.6,2160,1693,,,,,,,,,,,,,,,,,
6226,1469905424029,,,,,,,0.2,0.96,0.87,-36.9,-3.7,3.6,2160,1712,,,,,,,,,,,,,,,,,
6246,1469905424049,0,278.1,205.0,34,207.1,,0.18,0.98,0.85,-37.1,-3.7,3.6,2200,1716,1.297,3,39.540985,-122.329254,31.05,0.012,316.1,7,2,2.3,0,0.0,-1,0.0,0.0,0.0,0
6266,1469905424069,,,,,,,0.18,1.0,0.85,-37.2,-4.2,3.6,2220,1747,,,,,,,,,,,,,,,,,
6286,1469905424089,,,,,,,0.16,0.97,0.82,-37.2,-4.6,3.1,2220,1743,,,,,,,,,,,,,,,,,
6306,1469905424109,,,,,,,0.18,0.92,0.81,-37.2,-5.0,2.6,2240,1772,,,,,,,,,,,,,,,,,
6326,1469905424129,,,,,,,0.18,0.9,0.75,-37.0,-5.2,2.0,2280,1800,,,,,,,,,,,,,,,,,
6346,1469905424149,,,,33,,,0.15,0.91,0.77,-36.9,-4.8,1.5,2320,1856,1.303,3,39.540997,-122.329269,30.69,0.014,316.4,7,2,2.3,0,0.0,-1,0.0,,0.0,0
6366,1469905424169,,,,,,,0.14,0.88,0.76,-36.8,-4.5,1.1,2340,1813,,,,,,,,,,,,,,,,,
6386,1469905424189,,,,,,,0.1,0.87,0.73,-36.5,-4.9,0.8,2300,1767,,,,,,,,,,,,,,,,,
6406,1469905424209,,,,,,,0.09,0.84,0.71,-36.1,-5.2,0.6,2220,1720,,,,,,,,,,,,,,,,,
6426,1469905424229,,,,,,,0.08,0.84,0.73,-35.8,-5.4,0.2,2180,1712,,,,,,,,,,,,,,,,,
6446,1469905424249,0,277.4,205.0,30,206.9,,0.04,0.83,0.73,-35.4,-4.8,-0.1,2220,1727,1.247,3,39.541004,-122.329269,30.08,0.014,316.6,7,2,2.3,0,0.0,-1,0.0,0.0,0.0,0
6466,1469905424269,,,,,,,-0.01,0.83,0.72,-35.0,-6.3,-0.1,2180,1735,,,,,,,,,,,,,,,,,
6486,1469905424289,,,,,,,-0.06,0.79,0.67,-34.4,-8.0,0.3,2220,1743,,,,,,,,,,,,,,,,,
6506,1469905424408,,,,,,,-0.04,0.79,0.69,-33.9,-8.9,0.5,2260,1760,,,,,,,,,,,,,,,,,
6526,1469905424428,,,,,,,-0.05,0.73,0.72,-33.4,-8.1,0.5,2240,1780,,,,,,,,,,,,,,,,,
6546,1469905424448,,,,35,,,-0.04,0.74,0.71,-33.1,-8.0,0.3,2280,1787,1.256,3,39.541019,-122.329292,30.08,0.016,316.8,7,2,2.3,0,0.0,-1,0.0,,0.0,0
6566,1469905424468,,,,,,,-0.07,0.8,0.74,-33.3,-8.6,0.5,2300,1800,,,,,,,,,,,,,,,,,
6586,1469905424488,,,,,,,-0.08,0.81,0.72,-33.5,-9.0,0.7,2240,1796,,,,,,,,,,,,,,,,,
6606,1469905424508,,,,,,,-0.08,0.8,0.76,-33.8,-7.5,0.8,2340,1809,,,,,,,,,,,,,,,,,
6626,1469905424528,,,,,,,-0.09,0.82,0.78,-34.4,-7.8,0.9,2320,1821,,,,,,,,,,,,,,,,,
6646,1469905424548,0,278.8,205.6,36,207.9,,-0.1,0.84,0.8,-34.8,-7.6,1.0,2300,1809,1.275,3,39.541019,-122.329292,30.08,0.016,316.8,7,2,2.3,0,0.0,-1,0.0,0.0,0.0,0
6666,1469905424568,,,,,,,-0.08,0.82,0.8,-35.0,-6.1,0.8,2300,1813,,,,,,,,,,,,,,,,,
6686,1469905424588,,,,,,,-0.08,0.84,0.78,-35.3,-5.6,1.1,2240,1787,,,,,,,,,,,,,,,,,
6706,1469905424507,,,,,,,-0.09,0.86,0.79,-35.4,-7.0,1.5,2200,1772,,,,,,,,,,,,,,,,,
6726,1469905424527,,,,,,,-0.11,0.81,0.77,-35.3,-6.4,1.7,2240,1784,,,,,,,,,,,,,,,,,
6746,1469905424547,,,,23,,,-0.09,0.82,0.79,-35.2,-6.0,1.9,2340,1796,1.251,3,39.541027,-122.329308,30.27,0.017,317.0,7,2,2.3,0,0.0,-1,0.0,,0.0,0
6766,1469905424567,,,,,,,-0.09,0.8,0.81,-35.0,-6.9,1.9,2300,1809,,,,,,,,,,,,,,,,,
6786,1469905424587,,,,,,,-0.11,0.8,0.77,-34.5,-8.0,1.7,2320,1813,,,,,,,,,,,,,,,,,
6806,1469905424607,,,,,,,-0.1,0.78,0.81,-34.0,-7.5,1.0,2260,1821,,,,,,,,,,,,,,,,,
6826,1469905424627,,,,,,,-0.1,0.77,0.8,-33.9,-8.0,1.0,2280,1821,,,,,,,,,,,,,,,,,
6846,1469905424647,0,277.1,204.6,33,206.7,,-0.1,0.82,0.78,-33.3,-9.2,0.4,2300,1813,1.265,3,39.541035,-122.329323,30.15,0.018,317.4,7,2,2.3,0,0.0,-1,0.0,0.0,0.0,0
6866,1469905424667,,,,,,,-0.08,0.78,0.8,-32.7,-9.0,-0.4,2340,1844,,,,,,,,,,,,,,,,,
6886,1469905424687,,,,,,,-0.11,0.76,0.8,-32.5,-9.1,-0.8,2360,1818,,,,,,,,,,,,,,,,,
6906,1469905424708,,,,,,,-0.09,0.77,0.79,-32.0,-9.4,-1.1,2280,1818,,,,,,,,,,,,,,,,,
6926,1469905424728,,,,,,,-0.07,0.74,0.8,-31.4,-8.3,-1.6,2340,1835,,,,,,,,,,,,,,,,,
6946,1469905424748,,,,31,,,-0.08,0.69,0.79,-30.9,-8.1,-1.7,2320,1818,1.258,3,39.541042,-122.32933,30.29,0.018,317.3,7,2,2.3,0,0.0,-1,0.0,,0.0,0
6966,1469905424768,,,,,,,-0.09,0.72,0.79,-30.1,-8.9,-1.9,2320,1830,,,,,,,,,,,,,,,,,
6986,1469905424788,,,,,,,-0.1,0.64,0.8,-29.0,-8.5,-2.5,2320,1830,,,,,,,,,,,,,,,,,
7006,1469905424810,,,,,,,-0.11,0.62,0.82,-28.3,-8.2,-2.9,2320,1840,,,,,,,,,,,,,,,,,
7026,1469905424830,,,,,,,-0.11,0.65,0.8,-27.3,-9.1,-3.0,2360,1844,,,,,,,,,,,,,,,,,
7046,1469905424850,0,278.6,205.5,31,207.7,13.86,-0.11,0.63,0.8,-26.1,-8.4,-3.2,2380,1852,1.267,3,39.541046,-122.329346,30.98,0.019,317.2,7,2,2.3,0,0.0,-1,0.0,0.0,0.0,0
7066,1469905424870,,,,,,,-0.13,0.56,0.76,-25.1,-8.3,-3.0,2360,1856,,,,,,,,,,,,,,,,,
7086,1469905424890,,,,,,,-0.12,0.58,0.74,-24.1,-9.0,-3.1,2380,1852,,,,,,,,,,,,,,,,,
7106,1469905424903,,,,,,,-0.09,0.53,0.79,-23.4,-8.3,-3.3,2380,1856,,,,,,,,,,,,,,,,,
7126,1469905424923,,,,,,,-0.1,0.5,0.77,-22.9,-8.0,-3.0,2400,1866,,,,,,,,,,,,,,,,,
7146,1469905424943,,,,27,,,-0.12,0.5,0.72,-22.0,-8.5,-3.3,2380,1875,1.269,3,39.541054,-122.329369,31.73,0.02,317.3,7,2,2.3,0,0.0,-1,0.0,,0.0,0
7166,1469905424963,,,,,,,-0.13,0.41,0.78,-21.3,-7.8,-3.5,2400,1893,,,,,,,,,,,,,,,,,
7186,1469905424983,,,,,,,-0.12,0.47,0.74,-20.8,-8.6,-3.6,2440,1912,,,,,,,,,,,,,,,,,
7206,1469905425010,,,,,,,-0.11,0.47,0.69,-20.0,-7.9,-3.9,2440,1916,,,,,,,,,,,,,,,,,
7226,1469905425030,,,,,,,-0.1,0.43,0.66,-19.5,-8.1,-3.6,2440,1907,,,,,,,,,,,,,,,,,
7246,1469905425050,1,277.6,205.0,23,207.1,,-0.09,0.47,0.65,-18.8,-8.4,-3.6,2420,1916,1.258,3,39.541058,-122.329384,32.06,0.021,317.2,7,2,2.3,0,0.0,-1,0.0,0.0,0.0,0
7266,1469905425070,,,,,,,-0.1,0.4,0.69,-18.2,-7.4,-3.3,2380,1912,,,,,,,,,,,,,,,,,
7286,1469905425090,,,,,,,-0.09,0.43,0.67,-17.7,-7.1,-3.1,2440,1923,,,,,,,,,,,,,,,,,
7306,1469905425210,,,,,,,-0.07,0.4,0.67,-17.2,-6.1,-2.9,2480,1927,,,,,,,,,,,,,,,,,
7326,1469905425230,,,,,,,-0.08,0.35,0.64,-16.7,-6.6,-2.7,2460,1932,,,,,,,,,,,,,,,,,
7346,1469905425250,,,,36,,,-0.07,0.35,0.66,-15.8,-6.0,-2.9,2460,1952,1.281,3,39.541065,-122.329407,32.85,0.023,316.8,7,2,2.3,0,0.0,-1,0.0,,0.0,0
7366,1469905425270,,,,,,,-0.1,0.33,0.66,-15.5,-5.9,-2.7,2460,1946,,,,,,,,,,,,,,,,,
7386,1469905425290,,,,,,,-0.11,0.33,0.66,-14.6,-5.2,-2.9,2460,1961,,,,,,,,,,,,,,,,,
7406,1469905425310,,,,,,,-0.11,0.28,0.66,-14.2,-5.6,-2.6,2500,1956,,,,,,,,,,,,,,,,,
7426,1469905425330,,,,,,,-0.11,0.32,0.66,-13.6,-4.2,-2.6,2520,1972,,,,,,,,,,,,,,,,,
7446,1469905425350,0,277.4,204.8,37,206.9,,-0.12,0.26,0.67,-13.3,-4.7,-1.9,2520,1976,1.272,3,39.541065,-122.329407,32.85,0.023,316.8,7,2,2.3,0,0.0,-1,0.0,0.0,0.0,0
7466,1469905425370,,,,,,,-0.12,0.3,0.68,-12.6,-4.6,-1.9,2480,2003,,,,,,,,,,,,,,,,,
7486,1469905425390,,,,,,,-0.13,0.27,0.68,-12.6,-4.7,-1.5,2520,1992,,,,,,,,,,,,,,,,,
7506,1469905425310,,,,,,,-0.15,0.29,0.69,-11.8,-4.3,-1.9,2540,2003,,,,,,,,,,,,,,,,,
7526,1469905425330,,,,,,,-0.14,0.25,0.65,-11.7,-4.9,-1.8,2540,2018,,,,,,,,,,,,,,,,,
7546,1469905425350,,,,29,,,-0.13,0.22,0.71,-11.1,-4.5,-1.8,2540,2018,1.278,3,39.541069,-122.329422,33.53,0.023,316.4,7,2,2.3,0,0.0,-1,0.0,,0.0,0
7566,1469905425370,,,,,,,-0.13,0.28,0.71,-10.8,-4.5,-1.4,2600,2029,,,,,,,,,,,,,,,,,
7586,1469905425390,,,,,,,-0.12,0.21,0.72,-10.5,-4.7,-1.1,2600,2033,,,,,,,,,,,,,,,,,
7606,1469905425408,,,,,,,-0.12,0.28,0.73,-9.8,-4.4,-1.2,2600,2040,,,,,,,,,,,,,,,,,
7626,1469905425428,,,,,,,-0.12,0.23,0.74,-9.8,-4.8,-1.1,2600,2040,,,,,,,,,,,,,,,,,
7646,1469905425448,0,279.1,206.0,38,208.0,,-0.1,0.21,0.74,-9.2,-4.1,-1.3,2600,2061,1.262,3,39.541077,-122.329445,34.15,0.025,316.0,7,2,2.3,0,0.0,-1,0.0,0.0,0.0,0
7666,1469905425468,,,,,,,-0.13,0.23,0.74,-8.9,-3.9,-1.0,2620,2078,,,,,,,,,,,,,,,,,
7686,1469905425488,,,,,,,-0.13,0.12,0.78,-8.4,-3.8,-0.5,2640,2078,,,,,,,,,,,,,,,,,
7706,1469905425511,,,,,,,-0.12,0.14,0.82,-7.8,-3.2,-0.6,2680,2089,,,,,,,,,,,,,,,,,
7726,1469905425531,,,,,,,-0.14,0.14,0.79,-7.4,-3.3,-0.2,2660,2112,,,,,,,,,,,,,,,,,
7746,1469905425551,,,,46,,,-0.14,0.04,0.85,-6.9,-3.1,-0.2,2680,2101,1.27,3,39.54108,-122.32946,34.79,0.026,315.6,7,2,2.3,0,0.0,-1,0.0,,0.0,0
7766,1469905425571,,,,,,,-0.14,0.08,0.84,-6.0,-2.2,-0.8,2680,2101,,,,,,,,,,,,,,,,,
7786,1469905425591,,,,,,,-0.15,0.07,0.81,-5.6,-2.8,-0.7,2680,2130,,,,,,,,,,,,,,,,,
7806,1469905425600,,,,,,,-0.13,-0.01,0.83,-4.9,-3.0,-0.8,2720,2135,,,,,,,,,,,,,,,,,
7826,1469905425620,,,,,,,-0.13,0.03,0.83,-4.1,-2.6,-1.0,2700,2141,,,,,,,,,,,,,,,,,
7846,1469905425640,0,276.6,206.2,45,208.5,,-0.13,0.06,0.8,-3.8,-3.1,-0.8,2740,2153,1.28,3,39.541084,-122.329475,35.42,0.027,315.2,7,2,2.3,0,0.0,-1,0.0,0.0,0.0,0
7866,1469905425660,,,,,,,-0.14,0.0,0.79,-3.3,-3.2,-0.8,2720,2160,,,,,,,,,,,,,,,,,
7886,1469905425680,,,,,,,-0.15,-0.04,0.79,-2.1,-3.2,-1.0,2740,2147,,,,,,,,,,,,,,,,,
7906,1469905425700,,,,,,,-0.14,0.03,0.82,-1.3,-2.9,-1.3,2740,2172,,,,,,,,,,,,,,,,,
7926,1469905425720,,,,,,,-0.15,0.01,0.77,-1.1,-3.4,-0.8,2760,2196,,,,,,,,,,,,,,,,,
7946,1469905425740,,,,33,,,-0.16,-0.08,0.8,-0.7,-4.1,-0.4,2820,2184,1.269,3,39.541088,-122.329498,36.14,0.028,314.6,7,2,2.3,0,0.0,-1,0.0,,0.0,0
7966,1469905425760,,,,,,,-0.16,-0.14,0.83,0.5,-4.3,-0.6,2780,2196,,,,,,,,,,,,,,,,,
7986,1469905425780,,,,,,,-0.13,-0.08,0.86,1.4,-3.8,-0.9,2780,2229,,,,,,,,,,,,,,,,,
8006,1469905425802,,,,,,,-0.14,-0.05,0.84,1.8,-3.9,-1.0,2800,2223,,,,,,,,,,,,,,,,,
8026,1469905425822,,,,,,,-0.18,-0.1,0.84,2.2,-4.0,-0.8,2840,2235,,,,,,,,,,,,,,,,,
8046,1469905425842,0,278.6,205.1,36,207.2,13.83,-0.19,-0.19,0.79,2.9,-5.1,-0.6,2840,2229,1.246,3,39.541096,-122.329514,36.83,0.029,314.0,7,2,2.3,0,0.0,-1,0.0,0.0,0.0,0
8066,1469905425862,,,,,,,-0.16,-0.26,0.8,4.1,-5.6,-0.8,2880,2255,,,,,,,,,,,,,,,,,
8086,1469905425882,,,,,,,-0.16,-0.24,0.86,5.2,-5.6,-1.2,2860,2247,,,,,,,,,,,,,,,,,
8106,1469905425995,,,,,,,-0.15,-0.19,0.92,5.9,-5.2,-1.5,2900,2267,,,,,,,,,,,,,,,,,
8126,1469905426015,,,,,,,-0.18,-0.14,0.9,6.1,-4.7,-1.5,2880,2275,,,,,,,,,,,,,,,,,
8146,1469905426035,,,,40,,,-0.19,-0.15,0.87,6.3,-4.2,-1.2,2900,2289,1.288,3,39.541103,-122.329552,38.14,0.031,312.7,7,2,2.3,0,0.0,-1,0.0,,0.0,0
8166,1469905426055,,,,,,,-0.21,-0.21,0.85,6.9,-4.0,-0.7,2920,2303,,,,,,,,,,,,,,,,,
8186,1469905426075,,,,,,,-0.2,-0.26,0.85,7.8,-4.1,-0.5,2920,2295,,,,,,,,,,,,,,,,,
8206,1469905426095,,,,,,,-0.2,-0.35,0.85,8.7,-3.4,-0.2,2940,2295,,,,,,,,,,,,,,,,,
8226,1469905426115,,,,,,,-0.16,-0.37,0.84,9.5,-3.5,0.2,2960,2323,,,,,,,,,,,,,,,,,
8246,1469905426135,0,277.3,205.2,32,207.6,,-0.13,-0.5,0.78,10.6,-3.9,0.4,2900,2330,1.304,3,39.541103,-122.329552,38.14,0.031,312.7,7,2,2.3,0,0.0,-1,0.0,0.0,0.0,0
8266,1469905426155,,,,,,,-0.1,-0.5,0.79,11.6,-4.3,0.4,2960,2344,,,,,,,,,,,,,,,,,
8286,1469905426175,,,,,,,-0.11,-0.57,0.78,12.4,-4.8,0.6,2980,2352,,,,,,,,,,,,,,,,,
8306,1469905426103,,,,,,,-0.09,-0.6,0.79,13.2,-4.4,0.8,3000,2358,,,,,,,,,,,,,,,,,
8326,1469905426123,,,,,,,-0.09,-0.66,0.75,13.9,-4.7,0.9,3020,2395,,,,,,,,,,,,,,,,,
8346,1469905426143,,,,32,,,-0.1,-0.71,0.76,14.5,-4.7,0.7,3000,2380,1.273,3,39.541111,-122.329559,38.77,0.032,311.9,7,2,2.3,0,0.0,-1,0.0,,0.0,0
8366,1469905426163,,,,,,,-0.11,-0.69,0.76,14.6,-5.1,0.8,3040,2395,,,,,,,,,,,,,,,,,
8386,1469905426183,,,,,,,-0.13,-0.72,0.75,15.0,-4.8,0.9,3000,2380,,,,,,,,,,,,,,,,,
8406,1469905426203,,,,,,,-0.14,-0.75,0.73,15.5,-3.7,0.9,3060,2403,,,,,,,,,,,,,,,,,
8426,1469905426223,,,,,,,-0.15,-0.76,0.73,15.8,-3.9,0.9,3060,2403,,,,,,,,,,,,,,,,,
8446,1469905426243,0,276.6,206.1,31,208.3,,-0.16,-0.77,0.74,16.2,-3.5,1.0,3120,2410,1.274,3,39.541119,-122.32959,39.53,0.033,311.1,7,2,2.3,0,0.0,-1,0.0,0.0,0.0,0
8466,1469905426263,,,,,,,-0.18,-0.73,0.73,16.3,-3.0,1.2,3060,2441,,,,,,,,,,,,,,,,,
8486,1469905426283,,,,,,,-0.19,-0.68,0.77,16.2,-2.5,1.6,3080,2433,,,,,,,,,,,,,,,,,
8506,1469905426303,,,,,,,-0.19,-0.64,0.83,16.0,-2.1,1.8,3080,2441,,,,,,,,,,,,,,,,,
8526,1469905426323,,,,,,,-0.18,-0.61,0.89,15.5,-2.1,1.9,3100,2464,,,,,,,,,,,,,,,,,
8546,1469905426343,,,,34,,,-0.17,-0.66,0.95,15.4,-2.3,1.7,3140,2456,1.27,3,39.541122,-122.329605,40.2,0.034,310.2,7,2,2.3,0,0.0,-1,0.0,,0.0,0
8566,1469905426363,,,,,,,-0.16,-0.64,0.97,15.4,-2.7,1.3,3180,2464,,,,,,,,,,,,,,,,,
8586,1469905426383,,,,,,,-0.16,-0.61,0.95,15.3,-3.5,1.3,3100,2489,,,,,,,,,,,,,,,,,
8606,1469905426402,,,,,,,-0.14,-0.6,0.9,15.6,-3.5,1.4,3200,2480,,,,,,,,,,,,,,,,,
8626,1469905426422,,,,,,,-0.14,-0.59,0.89,15.9,-2.9,1.4,3120,2504,,,,,,,,,,,,,,,,,
8646,1469905426442,0,277.8,205.2,41,207.3,,-0.11,-0.57,0.87,16.1,-2.0,1.3,3220,2521,1.282,3,39.541134,-122.329628,40.95,0.036,309.3,7,2,2.3,0,0.0,-1,0.0,0.0,0.0,0
8666,1469905426462,,,,,,,-0.11,-0.57,0.91,16.0,-1.1,1.3,3100,2512,,,,,,,,,,,,,,,,,
8686,1469905426482,,,,,,,-0.1,-0.57,0.9,16.1,-1.1,1.3,3260,2529,,,,,,,,,,,,,,,,,
8706,1469905426501,,,,,,,-0.1,-0.6,0.92,16.5,-1.2,1.3,3160,2529,,,,,,,,,,,,,,,,,
8726,1469905426521,,,,,,,-0.09,-0.62,0.96,16.6,-0.9,1.2,3220,2512,,,,,,,,,,,,,,,,,
8746,1469905426541,,,,35,,,-0.11,-0.66,0.99,16.7,-0.5,1.2,3280,2538,1.249,3,39.541142,-122.329643,41.62,0.037,308.3,7,2,2.3,0,0.0,-1,0.0,,0.0,0
8766,1469905426561,,,,,,,-0.1,-0.69,0.97,16.9,-0.3,1.0,3180,2572,,,,,,,,,,,,,,,,,
8786,1469905426581,,,,,,,-0.08,-0.72,0.92,16.9,-0.9,1.0,3280,2572,,,,,,,,,,,,,,,,,
8806,1469905426601,,,,,,,-0.12,-0.72,0.89,17.1,-1.1,0.9,3240,2580,,,,,,,,,,,,,,,,,
8826,1469905426621,,,,,,,-0.14,-0.73,0.94,16.9,-0.7,0.9,3260,2580,,,,,,,,,,,,,,,,,
8846,1469905426641,0,276.6,205.8,48,208.5,,-0.15,-0.75,0.92,16.9,-1.6,1.1,3200,2580,1.287,3,39.541149,-122.329666,42.44,0.038,307.2,7,2,2.3,0,0.0,-1,0.0,0.0,0.0,0
8866,1469905426661,,,,,,,-0.15,-0.74,0.86,16.9,-2.0,1.4,3280,2589,,,,,,,,,,,,,,,,,
8886,1469905426681,,,,,,,-0.16,-0.77,0.87,16.9,-1.5,1.6,3260,2598,,,,,,,,,,,,,,,,,
8906,1469905426800,,,,,,,-0.13,-0.79,0.91,16.8,-1.6,1.4,3320,2633,,,,,,,,,,,,,,,,,
8926,1469905426820,,,,,,,-0.1,-0.76,0.92,17.1,-2.1,1.1,3240,2598,,,,,,,,,,,,,,,,,
8946,1469905426840,,,,33,,,-0.13,-0.77,0.99,17.1,-1.3,1.2,3360,2615,1.284,3,39.541168,-122.329689,44.01,0.04,305.0,7,2,2.3,0,0.0,-1,0.0,,0.0,0
8966,1469905426860,,,,,,,-0.12,-0.78,1.04,17.0,-1.0,1.3,3340,2652,,,,,,,,,,,,,,,,,
8986,1469905426880,,,,,,,-0.16,-0.81,1.02,17.4,-0.8,1.5,3380,2670,,,,,,,,,,,,,,,,,
9006,1469905426900,,,,,,,-0.16,-0.75,1.04,17.4,-0.2,1.2,3400,2652,,,,,,,,,,,,,,,,,
9026,1469905426920,,,,,,,-0.14,-0.72,1.01,17.3,-1.2,1.2,3360,2652,,,,,,,,,,,,,,,,,
9046,1469905426940,1,276.9,205.9,27,207.8,13.85,-0.14,-0.72,0.95,17.5,-0.9,1.3,3460,2670,1.281,3,39.541168,-122.329689,44.01,0.04,305.0,7,2,2.3,0,0.0,-1,0.0,0.0,0.0,0
9066,1469905426960,,,,,,,-0.11,-0.76,0.98,17.4,-0.6,1.2,3320,2680,,,,,,,,,,,,,,,,,
9086,1469905426980,,,,,,,-0.08,-0.75,0.93,17.3,-1.0,1.3,3440,2698,,,,,,,,,,,,,,,,,
9106,1469905426895,,,,,,,-0.09,-0.74,0.97,17.3,-1.3,1.1,3380,2689,,,,,,,,,,,,,,,,,
9126,1469905426915,,,,,,,-0.12,-0.75,0.94,17.3,-2.1,1.2,3420,2698,,,,,,,,,,,,,,,,,
9146,1469905426935,,,,25,,,-0.16,-0.74,0.95,17.4,-1.8,1.2,3480,2727,1.245,3,39.54118,-122.32972,44.72,0.041,304.0,7,2,2.3,0,0.0,-1,0.0,,0.0,0
9166,1469905426955,,,,,,,-0.14,-0.71,0.94,17.4,-1.9,0.9,3420,2736,,,,,,,,,,,,,,,,,
9186,1469905426975,,,,,,,-0.12,-0.71,0.87,17.7,-2.8,1.2,3480,2727,,,,,,,,,,,,,,,,,
9206,1469905427001,,,,,,,-0.12,-0.72,0.95,17.6,-2.6,1.3,3480,2707,,,,,,,,,,,,,,,,,
9226,1469905427021,,,,,,,-0.12,-0.74,0.89,17.5,-2.5,1.6,3460,2727,,,,,,,,,,,,,,,,,
9246,1469905427041,0,276.9,205.6,24,207.7,,-0.12,-0.79,0.94,17.8,-1.7,1.6,3460,2756,1.287,3,39.541191,-122.329727,45.42,0.042,302.9,7,2,2.3,0,0.0,-1,0.0,0.0,0.0,0
9266,1469905427061,,,,,,,-0.09,-0.81,0.89,18.1,-1.7,1.6,3560,2786,,,,,,,,,,,,,,,,,
9286,1469905427081,,,,,,,-0.05,-0.75,0.97,18.0,-2.7,1.2,3520,2776,,,,,,,,,,,,,,,,,
9306,1469905427101,,,,,,,-0.06,-0.72,0.9,18.1,-3.1,1.2,3500,2786,,,,,,,,,,,,,,,,,
9326,1469905427121,,,,,,,-0.08,-0.7,0.93,17.7,-3.3,1.6,3540,2776,,,,,,,,,,,,,,,,,
9346,1469905427141,,,,24,,,-0.12,-0.69,0.87,17.7,-3.2,1.8,3520,2786,1.257,3,39.541203,-122.329758,46.26,0.044,301.8,7,2,2.3,0,0.0,-1,0.0,,0.0,0
9366,1469905427161,,,,,,,-0.14,-0.68,0.93,17.4,-2.3,1.5,3560,2806,,,,,,,,,,,,,,,,,
9386,1469905427181,,,,,,,-0.14,-0.69,0.95,17.4,-1.3,1.2,3480,2806,,,,,,,,,,,,,,,,,
9406,1469905427202,,,,,,,-0.11,-0.61,0.93,17.1,-1.6,1.0,3620,2847,,,,,,,,,,,,,,,,,
9426,1469905427222,,,,,,,-0.11,-0.6,0.98,17.1,-1.8,1.1,3540,2838,,,,,,,,,,,,,,,,,
9446,1469905427242,0,276.8,205.8,23,207.9,,-0.12,-0.6,0.87,17.1,-2.3,1.2,3620,2858,1.239,3,39.541218,-122.329765,46.91,0.045,300.8,7,2,2.3,0,0.0,-1,0.0,0.0,0.0,0
9466,1469905427262,,,,,,,-0.12,-0.6,0.92,17.3,-2.4,1.0,3580,2827,,,,,,,,,,,,,,,,,
9486,1469905427282,,,,,,,-0.15,-0.66,0.95,17.4,-1.5,0.9,3640,2827,,,,,,,,,,,,,,,,,
9506,1469905427302,,,,,,,-0.15,-0.64,0.91,17.6,-1.4,0.9,3580,2838,,,,,,,,,,,,,,,,,
9526,1469905427322,,,,,,,-0.16,-0.66,0.97,17.6,-0.2,1.3,3560,2838,,,,,,,,,,,,,,,,,
9546,1469905427342,,,,27,,,-0.15,-0.7,0.92,17.6,1.0,1.6,3620,2858,1.267,3,39.541229,-122.329796,47.78,0.047,299.7,7,2,2.3,0,0.0,-1,0.0,,0.0,0
9566,1469905427362,,,,,,,-0.14,-0.64,0.93,17.5,1.5,1.6,3640,2869,,,,,,,,,,,,,,,,,
9586,1469905427382,,,,,,,-0.12,-0.66,0.99,17.4,1.7,1.8,3720,2901,,,,,,,,,,,,,,,,,
9606,1469905427400,,,,,,,-0.08,-0.61,0.96,17.2,0.8,1.8,3620,2912,,,,,,,,,,,,,,,,,
9626,1469905427420,,,,,,,-0.08,-0.61,0.92,17.1,-0.2,1.8,3680,2924,,,,,,,,,,,,,,,,,
9646,1469905427440,0,278.3,205.5,29,207.4,,-0.06,-0.66,0.95,17.2,-0.7,2.0,3660,2935,1.257,3,39.541244,-122.329803,48.2,0.048,298.6,7,2,2.3,0,0.0,-1,0.0,0.0,0.0,0
9666,1469905427460,,,,,,,-0.08,-0.68,0.92,17.4,-1.3,1.8,3620,2946,,,,,,,,,,,,,,,,,
9686,1469905427480,,,,,,,-0.1,-0.63,0.82,17.2,-2.5,1.7,3740,2935,,,,,,,,,,,,,,,,,
9706,1469905427598,,,,,,,-0.12,-0.66,0.9,17.0,-2.5,2.0,3760,2935,,,,,,,,,,,,,,,,,
9726,1469905427618,,,,,,,-0.16,-0.73,0.93,16.9,-1.2,1.7,3800,2924,,,,,,,,,,,,,,,,,
9746,1469905427638,,,,31,,,-0.21,-0.77,0.94,17.4,-1.0,1.2,3800,2935,1.271,3,39.541275,-122.329834,49.64,0.051,296.4,7,2,2.3,0,0.0,-1,0.0,,0.0,0
9766,1469905427658,,,,,,,-0.22,-0.73,0.88,17.7,-1.4,1.1,3780,2946,,,,,,,,,,,,,,,,,
9786,1469905427678,,,,,,,-0.22,-0.75,0.85,17.9,-1.4,1.0,3760,2958,,,,,,,,,,,,,,,,,
9806,1469905427698,,,,,,,-0.24,-0.78,0.93,18.4,-0.8,0.5,3820,2958,,,,,,,,,,,,,,,,,
9826,1469905427718,,,,,,,-0.25,-0.76,0.84,18.9,-0.3,0.0,3820,2969,,,,,,,,,,,,,,,,,
9846,1469905427738,0,276.9,205.9,27,207.9,,-0.25,-0.73,0.83,19.0,0.8,-0.2,3860,2980,1.265,3,39.541275,-122.329834,49.64,0.051,296.4,7,2,2.3,0,0.0,-1,0.0,0.0,0.0,0
9866,1469905427758,,,,,,,-0.24,-0.8,0.9,19.2,1.5,-0.1,3880,2980,,,,,,,,,,,,,,,,,
9886,1469905427778,,,,,,,-0.25,-0.83,0.95,19.5,3.1,-0.1,3780,3004,,,,,,,,,,,,,,,,,
9906,1469905427699,,,,,,,-0.26,-0.88,1.0,19.7,3.3,0.1,3720,2992,,,,,,,,,,,,,,,,,
9926,1469905427719,,,,,,,-0.29,-0.82,0.91,19.6,3.8,0.5,3880,2992,,,,,,,,,,,,,,,,,
9946,1469905427739,,,,22,,,-0.31,-0.85,0.87,19.6,3.8,0.8,3860,3004,1.265,3,39.54129,-122.329857,50.35,0.053,295.4,7,2,2.3,0,0.0,-1,0.0,,0.0,0
9966,1469905427759,,,,,,,-0.32,-0.9,0.83,19.6,3.2,0.9,3800,3004,,,,,,,,,,,,,,,,,
9986,1469905427779,,,,,,,-0.31,-0.88,0.89,19.1,2.9,1.6,3860,3015,,,,,,,,,,,,,,,,,
10006,1469905427801,,,,,,,-0.3,-0.93,0.92,18.6,2.6,2.4,3820,3027,,,,,,,,,,,,,,,,,
10026,1469905427821,,,,,,,-0.3,-0.91,0.97,18.5,3.3,2.8,3840,3052,,,,,,,,,,,,,,,,,
10046,1469905427841,0,276.9,205.8,29,207.9,13.83,-0.31,-0.98,1.0,19.0,3.9,2.7,3940,3064,1.269,3,39.541306,-122.329872,50.87,0.054,294.5,7,2,2.3,0,0.0,-1,0.0,0.0,0.0,0
10066,1469905427861,,,,,,,-0.32,-0.97,1.07,19.4,4.4,2.9,3920,3089,,,,,,,,,,,,,,,,,
10086,1469905427881,,,,,,,-0.33,-1.04,1.09,20.0,4.9,2.6,3960,3113,,,,,,,,,,,,,,,,,
10106,1469905427894,,,,,,,-0.35,-1.05,1.07,20.7,4.6,1.7,3900,3101,,,,,,,,,,,,,,,,,
10126,1469905427914,,,,,,,-0.32,-1.03,1.11,21.0,4.6,0.8,3900,3113,,,,,,,,,,,,,,,,,
10146,1469905427934,,,,31,,,-0.33,-1.07,1.03,21.0,4.6,0.0,3920,3101,1.232,3,39.541325,-122.32988,51.44,0.055,293.7,7,2,2.3,0,0.0,-1,0.0,,0.0,0
10166,1469905427954,,,,,,,-0.33,-1.03,0.95,21.2,3.8,-0.7,3860,3113,,,,,,,,,,,,,,,,,
10186,1469905427974,,,,,,,-0.29,-0.95,0.94,21.3,3.1,-0.4,4040,3113,,,,,,,,,,,,,,,,,
10206,1469905428002,,,,,,,-0.27,-1.02,0.88,21.0,2.2,0.3,3880,3113,,,,,,,,,,,,,,,,,
10226,1469905428022,,,,,,,-0.24,-1.0,0.93,20.9,1.0,0.6,3980,3113,,,,,,,,,,,,,,,,,
10246,1469905428042,0,277.9,205.9,31,207.7,,-0.25,-0.95,0.89,20.5,0.3,1.2,4000,3126,1.273,3,39.54134,-122.329895,51.91,0.057,292.7,7,2,2.3,0,0.0,-1,0.0,0.0,0.0,0
10266,1469905428062,,,,,,,-0.21,-1.03,0.82,20.3,1.3,2.6,4040,3138,,,,,,,,,,,,,,,,,
10286,1469905428082,,,,,,,-0.17,-0.94,0.84,19.9,1.4,3.1,3860,3152,,,,,,,,,,,,,,,,,
10306,1469905428102,,,,,,,-0.16,-0.96,0.8,19.6,0.3,3.5,4040,3138,,,,,,,,,,,,,,,,,
10326,1469905428122,,,,,,,-0.18,-0.98,0.78,19.5,1.0,4.0,3800,3152,,,,,,,,,,,,,,,,,
10346,1469905428142,,,,34,,,-0.18,-0.95,0.75,19.2,0.0,4.0,4080,3164,1.246,3,39.541359,-122.32991,52.31,0.058,292.1,7,2,2.3,0,0.0,-1,0.0,,0.0,0
10366,1469905428162,,,,,,,-0.22,-0.89,0.71,19.4,-1.1,3.8,4060,3178,,,,,,,,,,,,,,,,,
10386,1469905428182,,,,,,,-0.21,-0.96,0.64,19.7,-0.8,3.7,3920,3190,,,,,,,,,,,,,,,,,
10406,1469905428202,,,,,,,-0.21,-0.95,0.64,20.2,-2.5,2.9,3940,3204,,,,,,,,,,,,,,,,,
10426,1469905428222,,,,,,,-0.23,-0.91,0.7,20.3,-3.2,2.6,4040,3218,,,,,,,,,,,,,,,,,
10446,1469905428242,0,277.3,205.8,30,207.7,,-0.24,-0.91,0.75,20.7,-3.2,2.2,3940,3218,1.31,3,39.541378,-122.329918,52.89,0.059,291.6,7,2,2.3,0,0.0,-1,0.0,0.0,0.0,0
10466,1469905428262,,,,,,,-0.23,-0.89,0.74,21.1,-2.7,1.6,3980,3190,,,,,,,,,,,,,,,,,
10486,1469905428282,,,,,,,-0.19,-0.82,0.83,20.9,-1.3,1.5,4160,3178,,,,,,,,,,,,,,,,,
10506,1469905428402,,,,,,,-0.2,-0.86,0.92,20.9,-0.2,1.5,4160,3218,,,,,,,,,,,,,,,,,
10526,1469905428422,,,,,,,-0.21,-0.9,0.93,20.8,1.1,1.4,4120,3218,,,,,,,,,,,,,,,,,
10546,1469905428442,,,,29,,,-0.2,-0.95,0.97,20.4,2.0,2.0,4140,3218,1.299,3,39.54142,-122.329948,54.06,0.063,290.0,7,2,2.3,0,0.0,-1,0.0,,0.0,0
10566,1469905428462,,,,,,,-0.17,-0.92,1.03,19.9,1.2,2.3,4080,3244,,,,,,,,,,,,,,,,,
10586,1469905428482,,,,,,,-0.15,-0.99,1.06,19.8,0.6,2.8,4260,3230,,,,,,,,,,,,,,,,,
10606,1469905428502,,,,,,,-0.14,-1.06,1.01,19.9,1.0,3.1,4060,3204,,,,,,,,,,,,,,,,,
10626,1469905428522,,,,,,,-0.12,-0.99,0.92,19.8,1.0,2.9,4240,3218,,,,,,,,,,,,,,,,,
10646,1469905428542,0,277.9,205.9,33,207.3,,-0.14,-0.99,0.89,19.6,0.2,3.2,4240,3230,1.248,3,39.54142,-122.329948,54.06,0.063,290.0,7,2,2.3,0,0.0,-1,0.0,0.0,0.0,0
10666,1469905428562,,,,,,,-0.17,-0.96,0.9,19.7,1.1,3.2,4160,3286,,,,,,,,,,,,,,,,,
10686,1469905428582,,,,,,,-0.2,-0.97,1.01,20.0,1.6,3.4,4240,3286,,,,,,,,,,,,,,,,,
10706,1469905428498,,,,,,,-0.16,-0.95,1.1,20.1,3.2,3.3,4020,3286,,,,,,,,,,,,,,,,,
10726,1469905428518,,,,,,,-0.14,-0.96,1.09,19.9,4.1,3.3,4040,3272,,,,,,,,,,,,,,,,,
10746,1469905428538,,,,33,,,-0.11,-0.92,1.03,19.8,3.1,3.0,4160,3272,1.309,3,39.541439,-122.329956,54.58,0.064,289.3,7,2,2.3,0,0.0,-1,0.0,,0.0,0
10766,1469905428558,,,,,,,-0.15,-0.95,0.92,20.0,3.4,2.6,3960,3300,,,,,,,,,,,,,,,,,
10786,1469905428578,,,,,,,-0.19,-0.94,0.93,20.2,2.4,2.2,4180,3315,,,,,,,,,,,,,,,,,
10806,1469905428599,,,,,,,-0.22,-0.96,1.02,19.9,2.9,2.3,4220,3286,,,,,,,,,,,,,,,,,
10826,1469905428619,,,,,,,-0.14,-1.06,0.96,20.0,2.7,2.2,4300,3286,,,,,,,,,,,,,,,,,
10846,1469905428639,0,276.3,205.7,39,208.7,,-0.1,-1.01,1.02,19.9,0.9,3.0,4300,3272,1.243,3,39.541462,-122.329956,54.86,0.066,288.7,7,2,2.3,0,0.0,-1,0.0,0.0,0.0,0
10866,1469905428659,,,,,,,-0.09,-0.99,1.04,19.8,1.5,3.3,4260,3315,,,,,,,,,,,,,,,,,
10886,1469905428679,,,,,,,-0.11,-0.94,1.13,19.8,2.1,3.3,4180,3329,,,,,,,,,,,,,,,,,
10906,1469905428699,,,,,,,-0.11,-0.93,1.21,19.5,3.9,3.9,4160,3329,,,,,,,,,,,,,,,,,
10926,1469905428719,,,,,,,-0.12,-0.92,1.18,19.0,4.2,3.9,4120,3300,,,,,,,,,,,,,,,,,
10946,1469905428739,,,,39,,,-0.13,-0.89,1.07,18.6,2.4,4.3,4220,3300,1.304,3,39.541481,-122.329971,55.47,0.067,288.2,7,2,2.3,0,0.0,-1,0.0,,0.0,0
10966,1469905428759,,,,,,,-0.18,-0.93,1.02,18.2,2.0,4.3,4380,3343,,,,,,,,,,,,,,,,,
10986,1469905428779,,,,,,,-0.18,-0.9,1.06,17.6,1.0,4.4,4240,3343,,,,,,,,,,,,,,,,,
11006,1469905428801,,,,,,,-0.14,-0.97,1.03,17.3,1.4,5.1,4260,3329,,,,,,,,,,,,,,,,,
11026,1469905428821,,,,,,,-0.17,-0.98,0.91,16.8,1.1,5.0,4360,3300,,,,,,,,,,,,,,,,,
11046,1469905428841,0,277.9,206.5,41,208.6,13.88,-0.18,-1.02,0.94,16.6,0.7,5.2,4340,3343,1.233,3,39.541504,-122.329971,56.41,0.069,287.6,7,2,2.3,0,0.0,-1,0.0,0.0,0.0,0
11066,1469905428861,,,,,,,-0.19,-1.08,0.98,16.7,1.6,4.6,4180,3403,,,,,,,,,,,,,,,,,
11086,1469905428881,,,,,,,-0.19,-1.03,0.94,16.7,0.9,4.5,4300,3403,,,,,,,,,,,,,,,,,
11106,1469905428895,,,,,,,-0.18,-0.97,0.89,16.5,1.7,4.2,4180,3343,,,,,,,,,,,,,,,,,
11126,1469905428915,,,,,,,-0.23,-0.89,0.93,16.4,2.7,3.3,4420,3387,,,,,,,,,,,,,,,,,
11146,1469905428935,,,,48,,,-0.22,-0.94,1.01,16.2,3.4,3.1,4300,3387,1.269,3,39.541527,-122.329987,56.54,0.071,287.1,7,2,2.3,0,0.0,-1,0.0,,0.0,0
11166,1469905428955,,,,,,,-0.23,-0.98,0.96,16.1,2.5,2.0,4440,3358,,,,,,,,,,,,,,,,,
11186,1469905428975,,,,,,,-0.21,-0.94,0.88,16.2,1.6,1.7,4260,3343,,,,,,,,,,,,,,,,,
11206,1469905429001,,,,,,,-0.22,-0.98,0.96,16.2,2.6,1.2,4160,3387,,,,,,,,,,,,,,,,,
11226,1469905429021,,,,,,,-0.2,-0.94,0.99,16.1,1.1,1.1,4240,3387,,,,,,,,,,,,,,,,,
11246,1469905429041,0,277.3,206.4,45,207.9,,-0.21,-0.99,0.93,16.0,2.0,1.1,4140,3403,1.311,3,39.54155,-122.329987,57.03,0.072,286.5,7,2,2.3,0,0.0,-1,0.0,0.0,0.0,0
11266,1469905429061,,,,,,,-0.26,-0.92,0.97,16.1,1.1,0.6,4460,3387,,,,,,,,,,,,,,,,,
11286,1469905429081,,,,,,,-0.24,-0.97,1.03,16.2,1.7,0.6,4260,3433,,,,,,,,,,,,,,,,,
11306,1469905429201,,,,,,,-0.21,-0.95,0.93,16.6,1.5,0.2,4340,3433,,,,,,,,,,,,,,,,,
11326,1469905429221,,,,,,,-0.16,-0.89,1.03,16.8,2.4,0.2,4140,3433,,,,,,,,,,,,,,,,,
11346,1469905429241,,,,45,,,-0.16,-0.92,1.02,17.0,3.7,-0.1,4240,3403,1.281,3,39.541595,-122.330002,58.05,0.076,285.6,7,2,2.3,0,0.0,-1,0.0,,0.0,0
11366,1469905429261,,,,,,,-0.17,-0.94,0.99,17.1,2.7,-0.2,4380,3449,,,,,,,,,,,,,,,,,
11386,1469905429281,,,,,,,-0.18,-0.91,1.06,17.3,3.3,-0.3,4440,3449,,,,,,,,,,,,,,,,,
11406,1469905429301,,,,,,,-0.19,-0.91,1.04,17.4,2.0,-0.2,4500,3418,,,,,,,,,,,,,,,,,
11426,1469905429321,,,,,,,-0.16,-0.9,1.04,17.3,2.8,-0.1,4180,3418,,,,,,,,,,,,,,,,,
11446,1469905429341,0,277.4,206.0,49,208.0,,-0.18,-0.91,1.05,16.9,1.6,0.3,4320,3464,1.282,3,39.541595,-122.330002,58.05,0.076,285.6,7,2,2.3,0,0.0,-1,0.0,0.0,0.0,0
11466,1469905429361,,,,,,,-0.18,-0.91,0.97,16.6,1.2,0.8,4340,3449,,,,,,,,,,,,,,,,,
11486,1469905429381,,,,,,,-0.23,-0.89,0.97,16.8,0.3,0.7,4540,3433,,,,,,,,,,,,,,,,,
11506,1469905429301,,,,,,,-0.23,-0.98,0.96,16.8,1.2,1.3,4380,3480,,,,,,,,,,,,,,,,,
11526,1469905429321,,,,,,,-0.29,-0.92,0.94,16.9,0.7,0.7,4520,3512,,,,,,,,,,,,,,,,,
11546,1469905429341,,,,55,,,-0.28,-0.98,1.02,17.1,2.0,1.0,4240,3480,1.311,3,39.541618,-122.330002,58.56,0.077,285.2,7,2,2.3,0,0.0,-1,0.0,,0.0,0
11566,1469905429361,,,,,,,-0.31,-0.96,0.97,17.6,1.4,0.2,4520,3495,,,,,,,,,,,,,,,,,
11586,1469905429381,,,,,,,-0.29,-0.98,1.03,17.8,2.0,0.4,4340,3480,,,,,,,,,,,,,,,,,
11606,1469905429399,,,,,,,-0.28,-1.07,0.91,18.2,2.6,0.2,4540,3464,,,,,,,,,,,,,,,,,
11626,1469905429419,,,,,,,-0.24,-1.02,1.01,18.1,3.2,0.7,4220,3464,,,,,,,,,,,,,,,,,
11646,1469905429439,0,278.1,206.7,50,208.0,,-0.26,-1.05,0.97,17.9,3.6,0.8,4280,3495,1.276,3,39.541641,-122.330002,58.9,0.079,284.8,7,2,2.3,0,0.0,-1,0.0,0.0,0.0,0
11666,1469905429459,,,,,,,-0.24,-1.04,1.01,17.5,2.7,1.2,4460,3480,,,,,,,,,,,,,,,,,
11686,1469905429479,,,,,,,-0.2,-1.04,1.04,17.3,2.5,1.0,4600,3495,,,,,,,,,,,,,,,,,
11706,1469905429499,,,,,,,-0.17,-1.03,1.01,16.8,1.3,1.6,4240,3495,,,,,,,,,,,,,,,,,
11726,1469905429519,,,,,,,-0.13,-1.0,1.09,16.3,2.6,1.4,4360,3495,,,,,,,,,,,,,,,,,
11746,1469905429539,,,,51,,,-0.12,-0.97,1.07,15.8,2.1,1.9,4380,3480,1.298,3,39.541668,-122.330002,59.16,0.081,284.4,7,2,2.3,0,0.0,-1,0.0,,0.0,0
11766,1469905429559,,,,,,,-0.16,-0.96,1.08,15.3,3.7,1.6,4600,3527,,,,,,,,,,,,,,,,,
11786,1469905429579,,,,,,,-0.15,-0.92,1.09,14.8,2.7,2.2,4640,3512,,,,,,,,,,,,,,,,,
11806,1469905429599,,,,,,,-0.15,-0.83,1.01,14.6,3.0,1.3,4280,3544,,,,,,,,,,,,,,,,,
11826,1469905429619,,,,,,,-0.15,-0.76,1.06,13.9,1.9,1.4,4480,3527,,,,,,,,,,,,,,,,,
11846,1469905429639,0,277.4,206.5,52,207.3,,-0.18,-0.8,1.03,13.8,2.5,1.0,4660,3527,1.333,3,39.541691,-122.330002,59.55,0.082,284.1,7,2,2.3,0,0.0,-1,0.0,0.0,0.0,0
11866,1469905429659,,,,,,,-0.18,-0.78,1.06,13.6,1.6,1.2,4580,3495,,,,,,,,,,,,,,,,,
11886,1469905429679,,,,,,,-0.17,-0.78,1.02,13.5,3.2,1.2,4340,3544,,,,,,,,,,,,,,,,,
11906,1469905429699,,,,,,,-0.19,-0.74,1.03,13.1,0.7,1.4,4480,3495,,,,,,,,,,,,,,,,,
11926,1469905429719,,,,,,,-0.19,-0.72,1.0,12.9,1.5,1.2,4580,3560,,,,,,,,,,,,,,,,,
11946,1469905429739,,,,48,,,-0.19,-0.65,1.03,12.6,-0.1,1.7,4580,3544,1.236,3,39.541718,-122.330002,59.94,0.084,283.7,7,2,2.3,0,0.0,-1,0.0,,0.0,0
11966,1469905429759,,,,,,,-0.21,-0.65,0.99,12.5,0.3,1.6,4320,3527,,,,,,,,,,,,,,,,,
11986,1469905429779,,,,,,,-0.22,-0.61,1.0,12.4,-0.8,1.6,4620,3576,,,,,,,,,,,,,,,,,
12006,1469905429801,,,,,,,-0.24,-0.65,0.98,12.4,0.3,1.7,4640,3593,,,,,,,,,,,,,,,,,
12026,1469905429821,,,,,,,-0.24,-0.65,0.95,12.3,-1.5,1.7,4620,3544,,,,,,,,,,,,,,,,,
12046,1469905429841,0,277.8,206.2,51,207.3,13.89,-0.22,-0.66,1.03,12.2,0.4,1.6,4360,3593,1.275,3,39.541737,-122.329987,60.18,0.086,283.5,7,2,2.3,0,0.0,-1,0.0,0.0,0.0,0
12066,1469905429861,,,,,,,-0.21,-0.59,0.96,11.9,-0.8,1.5,4560,3544,,,,,,,,,,,,,,,,,
12086,1469905429881,,,,,,,-0.19,-0.6,1.0,11.8,1.2,1.2,4680,3560,,,,,,,,,,,,,,,,,
12106,1469905429994,,,,,,,-0.19,-0.59,0.93,11.7,-0.1,1.2,4340,3610,,,,,,,,,,,,,,,,,
12126,1469905430014,,,,,,,-0.19,-0.59,0.99,11.6,0.5,0.6,4420,3576,,,,,,,,,,,,,,,,,
12146,1469905430034,,,,55,,,-0.22,-0.57,1.02,11.7,0.1,0.6,4580,3610,1.313,3,39.541786,-122.329987,60.96,0.089,283.4,7,2,2.3,0,0.0,-1,0.0,,0.0,0
12166,1469905430054,,,,,,,-0.24,-0.57,0.98,11.8,1.3,0.1,4760,3593,,,,,,,,,,,,,,,,,
12186,1469905430074,,,,,,,-0.21,-0.58,1.06,11.8,1.0,0.2,4520,3610,,,,,,,,,,,,,,,,,
12206,1469905430094,,,,,,,-0.25,-0.64,1.01,11.8,1.9,-0.3,4700,3593,,,,,,,,,,,,,,,,,
12226,1469905430114,,,,,,,-0.23,-0.63,1.04,11.5,1.4,-0.1,4640,3560,,,,,,,,,,,,,,,,,
12246,1469905430134,1,278.6,206.7,51,208.0,,-0.25,-0.68,1.0,11.7,0.8,-0.6,4560,3593,1.252,3,39.541786,-122.329987,60.96,0.089,283.4,7,2,2.3,0,0.0,-1,0.0,0.0,0.0,0
12266,1469905430154,,,,,,,-0.23,-0.7,1.04,11.6,0.3,0.1,4440,3593,,,,,,,,,,,,,,,,,
12286,1469905430174,,,,,,,-0.25,-0.67,0.95,12.0,-0.1,-0.2,4700,3593,,,,,,,,,,,,,,,,,
12306,1469905430102,,,,,,,-0.2,-0.79,0.97,12.1,0.3,0.8,4600,3610,,,,,,,,,,,,,,,,,
12326,1469905430122,,,,,,,-0.21,-0.79,0.97,12.6,0.1,1.2,4680,3644,,,,,,,,,,,,,,,,,
12346,1469905430142,,,,50,,,-0.17,-0.82,0.98,13.1,-0.1,1.5,4700,3627,1.301,3,39.541813,-122.329971,61.24,0.091,283.3,7,2,2.3,0,0.0,-1,0.0,,0.0,0
12366,1469905430162,,,,,,,-0.18,-0.81,0.99,13.5,0.2,1.5,4700,3610,,,,,,,,,,,,,,,,,
12386,1469905430182,,,,,,,-0.17,-0.84,1.01,13.7,0.9,1.6,4540,3627,,,,,,,,,,,,,,,,,
12406,1469905430202,,,,,,,-0.19,-0.83,1.03,13.6,1.1,1.9,4640,3610,,,,,,,,,,,,,,,,,
12426,1469905430222,,,,,,,-0.23,-0.87,1.03,14.1,2.4,1.6,4700,3610,,,,,,,,,,,,,,,,,
12446,1469905430242,0,276.4,205.2,49,207.8,,-0.22,-0.82,1.0,14.0,1.9,1.1,4640,3644,1.219,3,39.541836,-122.329956,61.7,0.093,283.3,7,2,2.3,0,0.0,-1,0.0,0.0,0.0,0
12466,1469905430262,,,,,,,-0.21,-0.81,1.02,13.6,2.4,0.4,4440,3627,,,,,,,,,,,,,,,,,
12486,1469905430282,,,,,,,-0.19,-0.74,1.02,13.1,2.7,0.4,4620,3661,,,,,,,,,,,,,,,,,
12506,1469905430302,,,,,,,-0.21,-0.81,0.97,13.0,3.3,0.0,4760,3644,,,,,,,,,,,,,,,,,
12526,1469905430322,,,,,,,-0.19,-0.74,1.06,12.6,2.8,0.5,4640,3627,,,,,,,,,,,,,,,,,
12546,1469905430342,,,,47,,,-0.24,-0.72,1.03,12.8,2.5,-0.1,4820,3680,1.279,3,39.541859,-122.329956,62.06,0.094,283.2,7,2,2.3,0,0.0,-1,0.0,,0.0,0
12566,1469905430362,,,,,,,-0.2,-0.82,1.01,12.8,2.4,0.4,4460,3627,,,,,,,,,,,,,,,,,
12586,1469905430382,,,,,,,-0.24,-0.8,1.04,12.9,2.2,0.3,4580,3680,,,,,,,,,,,,,,,,,
12606,1469905430401,,,,,,,-0.26,-0.83,0.98,13.0,3.1,0.7,4740,3696,,,,,,,,,,,,,,,,,
12626,1469905430421,,,,,,,-0.25,-0.75,0.9,13.1,1.0,0.9,4440,3680,,,,,,,,,,,,,,,,,
12646,1469905430441,0,276.4,205.5,44,208.0,,-0.21,-0.75,0.9,12.9,1.8,0.8,4580,3680,1.272,3,39.541882,-122.329948,62.21,0.096,283.1,7,2,2.3,0,0.0,-1,0.0,0.0,0.0,0
12666,1469905430461,,,,,,,-0.2,-0.64,0.88,12.8,0.5,1.0,4660,3661,,,,,,,,,,,,,,,,,
12686,1469905430481,,,,,,,-0.22,-0.75,0.84,12.7,1.2,1.0,4660,3696,,,,,,,,,,,,,,,,,
12706,1469905430500,,,,,,,-0.18,-0.72,0.9,12.6,0.6,1.3,4820,3680,,,,,,,,,,,,,,,,,
12726,1469905430520,,,,,,,-0.2,-0.74,0.93,13.0,1.2,0.9,4860,3696,,,,,,,,,,,,,,,,,
12746,1469905430540,,,,55,,,-0.15,-0.82,0.93,13.2,1.7,1.0,4580,3661,1.234,3,39.541908,-122.329933,62.61,0.098,283.0,7,2,2.3,0,0.0,-1,0.0,,0.0,0
12766,1469905430560,,,,,,,-0.19,-0.89,0.98,13.1,1.6,1.0,4680,3696,,,,,,,,,,,,,,,,,
12786,1469905430580,,,,,,,-0.19,-0.8,0.97,13.2,2.6,1.1,4880,3696,,,,,,,,,,,,,,,,,
12806,1469905430600,,,,,,,-0.2,-0.8,1.02,13.2,1.4,1.0,4600,3733,,,,,,,,,,,,,,,,,
12826,1469905430620,,,,,,,-0.15,-0.8,0.92,13.1,1.3,0.4,4820,3696,,,,,,,,,,,,,,,,,
12846,1469905430640,0,276.8,205.4,54,207.5,,-0.12,-0.85,1.02,13.1,0.8,0.6,4800,3733,1.238,3,39.541931,-122.329918,62.85,0.1,282.9,7,2,2.3,0,0.0,-1,0.0,0.0,0.0,0
12866,1469905430660,,,,,,,-0.21,-0.82,0.96,12.8,1.8,0.1,4680,3715,,,,,,,,,,,,,,,,,
12886,1469905430680,,,,,,,-0.18,-0.78,0.95,12.6,1.9,0.6,4820,3752,,,,,,,,,,,,,,,,,
12906,1469905430799,,,,,,,-0.17,-0.82,0.89,12.8,0.6,1.0,4620,3696,,,,,,,,,,,,,,,,,
12926,1469905430819,,,,,,,-0.16,-0.77,0.91,12.5,1.8,1.2,4600,3715,,,,,,,,,,,,,,,,,
12946,1469905430839,,,,46,,,-0.21,-0.8,0.89,12.2,0.6,1.3,4780,3733,1.299,3,39.541977,-122.329895,63.56,0.103,282.6,7,2,2.3,0,0.0,-1,0.0,,0.0,0
12966,1469905430859,,,,,,,-0.23,-0.81,0.82,12.3,1.0,1.2,4640,3769,,,,,,,,,,,,,,,,,
12986,1469905430879,,,,,,,-0.17,-0.9,0.85,12.2,-0.0,1.5,4940,3715,,,,,,,,,,,,,,,,,
13006,1469905430899,,,,,,,-0.18,-0.86,0.87,12.3,-0.8,1.3,4780,3733,,,,,,,,,,,,,,,,,
13026,1469905430919,,,,,,,-0.21,-0.87,0.88,12.3,0.3,1.6,4700,3789,,,,,,,,,,,,,,,,,
13046,1469905430939,0,276.8,206.0,54,208.1,14.02,-0.2,-0.72,0.81,12.5,-2.0,1.8,4820,3733,1.274,3,39.541977,-122.329895,63.56,0.103,282.6,7,2,2.3,0,0.0,-1,0.0,0.0,0.0,0
13066,1469905430959,,,,,,,-0.16,-0.7,0.83,12.6,-1.2,1.8,4840,3752,,,,,,,,,,,,,,,,,
13086,1469905430979,,,,,,,-0.14,-0.72,0.91,12.1,-1.4,2.2,4700,3733,,,,,,,,,,,,,,,,,
13106,1469905430895,,,,,,,-0.14,-0.68,0.86,12.2,-0.2,1.7,4900,3752,,,,,,,,,,,,,,,,,
13126,1469905430915,,,,,,,-0.1,-0.72,0.88,12.3,-0.6,2.0,4700,3752,,,,,,,,,,,,,,,,,
13146,1469905430935,,,,53,,,-0.12,-0.76,0.89,12.4,-1.9,2.0,4840,3769,1.282,3,39.542004,-122.32988,63.97,0.105,282.6,7,2,2.3,0,0.0,-1,0.0,,0.0,0
13166,1469905430955,,,,,,,-0.08,-0.69,0.88,12.3,-0.3,1.9,4720,3769,,,,,,,,,,,,,,,,,
13186,1469905430975,,,,,,,-0.1,-0.71,0.97,11.8,-0.3,2.3,4760,3807,,,,,,,,,,,,,,,,,
13206,1469905430996,,,,,,,-0.14,-0.67,0.93,11.8,-0.4,2.3,4940,3789,,,,,,,,,,,,,,,,,
13226,1469905431016,,,,,,,-0.07,-0.76,0.94,12.0,0.1,2.6,4720,3789,,,,,,,,,,,,,,,,,
13246,1469905431036,0,277.6,206.1,51,208.4,,-0.04,-0.73,0.92,12.0,-1.7,2.7,4840,3752,1.298,3,39.542026,-122.329872,63.95,0.107,282.7,7,2,2.3,0,0.0,-1,0.0,0.0,0.0,0
13266,1469905431056,,,,,,,-0.05,-0.71,0.94,12.0,-0.0,2.6,4900,3769,,,,,,,,,,,,,,,,,
13286,1469905431076,,,,,,,-0.07,-0.69,0.98,11.7,-1.4,2.6,4700,3769,,,,,,,,,,,,,,,,,
13306,1469905431102,,,,,,,-0.1,-0.65,0.98,11.7,-1.4,1.9,4900,3789,,,,,,,,,,,,,,,,,
13326,1469905431122,,,,,,,-0.11,-0.75,0.99,11.6,-1.3,2.2,4580,3807,,,,,,,,,,,,,,,,,
13346,1469905431142,,,,50,,,-0.16,-0.78,1.04,11.5,-1.1,2.4,4920,3826,1.309,3,39.542049,-122.329857,64.46,0.109,282.8,7,2,2.3,0,0.0,-1,0.0,,0.0,0
13366,1469905431162,,,,,,,-0.14,-0.69,0.99,11.7,0.5,1.9,4800,3807,,,,,,,,,,,,,,,,,
13386,1469905431182,,,,,,,-0.09,-0.78,1.03,11.5,0.7,1.9,4840,3789,,,,,,,,,,,,,,,,,
13406,1469905431202,,,,,,,-0.12,-0.74,1.05,11.8,0.7,1.3,5000,3807,,,,,,,,,,,,,,,,,
13426,1469905431222,,,,,,,-0.14,-0.75,1.01,11.3,1.5,1.5,4680,3789,,,,,,,,,,,,,,,,,
13446,1469905431242,0,277.8,206.1,54,208.0,,-0.18,-0.71,0.93,11.4,-0.9,1.5,4860,3846,1.302,3,39.542072,-122.329842,64.8,0.11,282.8,7,2,2.3,0,0.0,-1,0.0,0.0,0.0,0
13466,1469905431262,,,,,,,-0.18,-0.76,0.97,11.6,0.2,1.1,4880,3807,,,,,,,,,,,,,,,,,
13486,1469905431282,,,,,,,-0.11,-0.78,1.0,11.8,0.1,0.9,4980,3846,,,,,,,,,,,,,,,,,
13506,1469905431303,,,,,,,-0.12,-0.78,0.91,11.9,-0.3,1.0,4740,3826,,,,,,,,,,,,,,,,,
13526,1469905431323,,,,,,,-0.13,-0.8,0.91,12.1,0.6,0.8,4940,3826,,,,,,,,,,,,,,,,,
13546,1469905431343,,,,62,,,-0.13,-0.84,0.99,12.2,-0.8,0.9,4920,3789,1.284,3,39.542091,-122.329819,65.11,0.112,282.9,7,2,2.3,0,0.0,-1,0.0,,0.0,0
13566,1469905431363,,,,,,,-0.19,-0.88,1.0,12.4,0.4,0.5,4860,3846,,,,,,,,,,,,,,,,,
13586,1469905431383,,,,,,,-0.2,-0.81,0.96,12.3,1.3,1.0,4940,3846,,,,,,,,,,,,,,,,,
13606,1469905431401,,,,,,,-0.2,-0.72,1.03,12.0,-0.1,1.3,4840,3846,,,,,,,,,,,,,,,,,
13626,1469905431421,,,,,,,-0.2,-0.64,1.05,11.7,1.6,0.8,5040,3884,,,,,,,,,,,,,,,,,
13646,1469905431441,0,278.1,206.5,74,208.5,,-0.19,-0.72,1.07,11.7,3.2,1.4,4700,3846,1.291,3,39.542114,-122.329803,65.54,0.114,283.0,7,2,2.3,0,0.0,-1,0.0,0.0,0.0,0
13666,1469905431461,,,,,,,-0.18,-0.72,1.04,11.9,1.6,1.6,4880,3846,,,,,,,,,,,,,,,,,
13686,1469905431481,,,,,,,-0.14,-0.67,1.0,11.7,2.3,1.7,4920,3826,,,,,,,,,,,,,,,,,
13706,1469905431599,,,,,,,-0.14,-0.66,1.04,11.3,1.5,2.2,5040,3884,,,,,,,,,,,,,,,,,
13726,1469905431619,,,,,,,-0.21,-0.62,1.01,11.0,2.2,2.6,5020,3846,,,,,,,,,,,,,,,,,
13746,1469905431639,,,,64,,,-0.17,-0.68,1.03,10.9,2.3,2.7,4700,3846,1.299,3,39.54216,-122.329765,65.93,0.118,283.0,7,2,2.3,0,0.0,-1,0.0,,0.0,0
13766,1469905431659,,,,,,,-0.15,-0.63,1.08,10.8,0.8,2.7,4960,3864,,,,,,,,,,,,,,,,,
13786,1469905431679,,,,,,,-0.16,-0.63,1.06,10.7,2.8,2.1,4900,3884,,,,,,,,,,,,,,,,,
13806,1469905431699,,,,,,,-0.08,-0.62,1.0,11.0,2.8,1.7,5040,3904,,,,,,,,,,,,,,,,,
13826,1469905431719,,,,,,,-0.09,-0.61,0.93,11.0,1.3,1.7,4800,3846,,,,,,,,,,,,,,,,,
13846,1469905431739,0,278.3,206.6,73,208.4,,-0.06,-0.57,0.86,11.0,2.7,0.6,5160,3924,1.282,3,39.54216,-122.329765,65.93,0.118,283.0,7,2,2.3,0,0.0,-1,0.0,0.0,0.0,0
13866,1469905431759,,,,,,,-0.05,-0.66,0.89,11.2,2.7,0.7,4760,3904,,,,,,,,,,,,,,,,,
13886,1469905431779,,,,,,,-0.05,-0.68,0.86,11.3,1.4,-0.2,4920,3884,,,,,,,,,,,,,,,,,
13906,1469905431700,,,,,,,-0.04,-0.66,0.89,11.3,2.6,-1.1,4980,3884,,,,,,,,,,,,,,,,,
13926,1469905431720,,,,,,,-0.05,-0.65,0.95,11.1,3.4,-1.3,5040,3884,,,,,,,,,,,,,,,,,
13946,1469905431740,,,,52,,,-0.08,-0.68,0.91,11.3,2.8,-1.8,4720,3884,1.239,3,39.542179,-122.329742,66.44,0.12,283.1,7,2,2.3,0,0.0,-1,0.0,,0.0,0
13966,1469905431760,,,,,,,-0.04,-0.74,0.93,11.4,3.6,-1.9,5040,3864,,,,,,,,,,,,,,,,,
13986,1469905431780,,,,,,,-0.04,-0.7,0.99,11.5,3.8,-1.9,4760,3924,,,,,,,,,,,,,,,,,
14006,1469905431802,,,,,,,-0.04,-0.71,0.95,11.4,3.6,-1.7,4980,3904,,,,,,,,,,,,,,,,,
14026,1469905431822,,,,,,,-0.01,-0.75,1.0,11.4,4.5,-1.6,4980,3864,,,,,,,,,,,,,,,,,
14046,1469905431842,1,276.9,206.3,55,208.2,14.0,-0.02,-0.71,1.04,11.1,3.2,-0.9,5180,3924,1.279,3,39.542202,-122.329727,66.65,0.121,283.1,7,2,2.3,0,0.0,-1,0.0,0.0,0.0,0
14066,1469905431862,,,,,,,-0.08,-0.73,0.99,11.0,2.9,-0.9,4860,3904,,,,,,,,,,,,,,,,,
14086,1469905431882,,,,,,,-0.07,-0.72,1.0,11.0,1.4,-0.9,5060,3904,,,,,,,,,,,,,,,,,
14106,1469905431895,,,,,,,-0.09,-0.69,1.08,10.8,-0.1,-0.2,5000,3904,,,,,,,,,,,,,,,,,
14126,1469905431915,,,,,,,-0.16,-0.76,1.07,10.9,0.6,-0.2,5040,3924,,,,,,,,,,,,,,,,,
14146,1469905431935,,,,47,,,-0.15,-0.78,1.01,11.1,0.7,0.0,5080,3944,1.255,3,39.542221,-122.329704,67.17,0.123,283.1,7,2,2.3,0,0.0,-1,0.0,,0.0,0
14166,1469905431955,,,,,,,-0.15,-0.71,1.07,10.9,-0.7,0.4,4900,3884,,,,,,,,,,,,,,,,,
14186,1469905431975,,,,,,,-0.16,-0.72,1.06,11.0,0.8,0.3,5100,3924,,,,,,,,,,,,,,,,,
14206,1469905432002,,,,,,,-0.11,-0.67,1.04,10.8,0.6,0.5,5120,3944,,,,,,,,,,,,,,,,,
14226,1469905432022,,,,,,,-0.08,-0.64,1.06,10.6,-0.9,0.5,5060,3924,,,,,,,,,,,,,,,,,
14246,1469905432042,1,276.6,206.1,58,208.3,,-0.12,-0.7,1.03,10.7,-0.4,0.3,5020,3944,1.32,3,39.542244,-122.329681,67.44,0.125,283.1,7,2,2.3,0,0.0,-1,0.0,0.0,0.0,0
14266,1469905432062,,,,,,,-0.11,-0.63,0.99,10.7,-0.5,0.2,4920,3944,,,,,,,,,,,,,,,,,
14286,1469905432082,,,,,,,-0.1,-0.65,1.03,10.6,-1.7,0.3,5100,3944,,,,,,,,,,,,,,,,,
14306,1469905432102,,,,,,,-0.12,-0.66,1.02,10.5,-1.3,-0.1,4940,3964,,,,,,,,,,,,,,,,,
14326,1469905432122,,,,,,,-0.14,-0.62,0.96,10.3,-0.5,-0.4,5180,3944,,,,,,,,,,,,,,,,,
14346,1469905432142,,,,51,,,-0.13,-0.63,0.98,10.3,-1.3,-0.6,4800,3924,1.275,3,39.542263,-122.329651,67.77,0.127,283.0,7,2,2.3,0,0.0,-1,0.0,,0.0,0
14366,1469905432162,,,,,,,-0.14,-0.6,1.06,9.8,-1.6,-0.6,5060,3964,,,,,,,,,,,,,,,,,
14386,1469905432182,,,,,,,-0.18,-0.61,1.04,10.2,-0.0,-1.0,5020,3944,,,,,,,,,,,,,,,,,
14406,1469905432202,,,,,,,-0.17,-0.58,1.03,10.2,-0.5,-1.1,5140,3984,,,,,,,,,,,,,,,,,
14426,1469905432222,,,,,,,-0.16,-0.6,1.03,10.0,-1.0,-0.9,4820,4026,,,,,,,,,,,,,,,,,
14446,1469905432242,0,277.4,206.3,73,208.4,,-0.18,-0.6,0.98,10.3,-0.3,-1.1,5180,3984,1.278,3,39.542282,-122.329628,67.98,0.129,283.1,7,2,2.3,0,0.0,-1,0.0,0.0,0.0,0
14466,1469905432262,,,,,,,-0.16,-0.65,1.02,10.4,-0.4,-1.1,4940,3984,,,,,,,,,,,,,,,,,
14486,1469905432282,,,,,,,-0.15,-0.67,1.04,10.5,-1.9,-1.2,5060,3984,,,,,,,,,,,,,,,,,
14506,1469905432402,,,,,,,-0.16,-0.65,1.04,10.8,-0.8,-1.6,5120,4006,,,,,,,,,,,,,,,,,
14526,1469905432422,,,,,,,-0.14,-0.66,1.01,10.5,-0.6,-1.4,5180,4006,,,,,,,,,,,,,,,,,
14546,1469905432442,,,,50,,,-0.13,-0.62,1.04,10.4,-1.6,-0.9,5020,4006,1.298,3,39.54232,-122.329575,68.75,0.133,283.1,7,2,2.3,0,0.0,-1,0.0,,0.0,0
14566,1469905432462,,,,,,,-0.18,-0.6,1.05,10.4,-0.8,-1.1,5220,3984,,,,,,,,,,,,,,,,,
14586,1469905432482,,,,,,,-0.17,-0.62,0.99,10.2,-1.8,-1.0,5180,4006,,,,,,,,,,,,,,,,,
14606,1469905432502,,,,,,,-0.16,-0.59,1.02,9.9,-2.8,-0.6,4960,4006,,,,,,,,,,,,,,,,,
14626,1469905432522,,,,,,,-0.24,-0.68,0.94,9.4,-2.1,-0.2,5220,4006,,,,,,,,,,,,,,,,,
14646,1469905432542,0,277.4,206.3,51,209.1,,-0.24,-0.66,0.93,9.1,-1.9,-0.1,4980,4026,1.252,3,39.54232,-122.329575,68.75,0.133,283.1,7,2,2.3,0,0.0,-1,0.0,0.0,0.0,0
14666,1469905432562,,,,,,,-0.2,-0.65,0.97,8.4,-2.1,0.2,5240,4026,,,,,,,,,,,,,,,,,
14686,1469905432582,,,,,,,-0.27,-0.74,0.97,8.1,-2.1,0.7,5000,4026,,,,,,,,,,,,,,,,,
14706,1469905432500,,,,,,,-0.28,-0.73,0.96,8.1,-2.3,0.3,5260,4026,,,,,,,,,,,,,,,,,
14726,1469905432520,,,,,,,-0.24,-0.73,0.94,7.8,-1.8,0.2,4920,4026,,,,,,,,,,,,,,,,,
14746,1469905432540,,,,87,,,-0.26,-0.71,0.91,7.6,-1.8,0.6,4840,4026,1.283,3,39.542339,-122.329552,68.97,0.135,283.1,7,2,2.3,0,0.0,-1,0.0,,0.0,0
14766,1469905432560,,,,,,,-0.28,-0.72,0.89,7.2,-1.9,0.6,5060,4006,,,,,,,,,,,,,,,,,
14786,1469905432580,,,,,,,-0.26,-0.66,0.91,7.1,-1.0,0.5,5180,4069,,,,,,,,,,,,,,,,,
14806,1469905432600,,,,,,,-0.26,-0.68,0.91,6.8,0.1,0.9,5280,4026,,,,,,,,,,,,,,,,,
14826,1469905432620,,,,,,,-0.25,-0.69,0.95,6.7,-0.1,0.7,5040,4026,,,,,,,,,,,,,,,,,
14846,1469905432640,0,278.1,206.5,79,208.3,,-0.21,-0.57,0.99,6.4,0.1,0.5,5280,4047,1.273,3,39.542358,-122.329521,69.3,0.137,283.1,7,2,2.3,0,0.0,-1,0.0,0.0,0.0,0
14866,1469905432660,,,,,,,-0.23,-0.6,0.9,5.9,1.9,0.5,4980,4047,,,,,,,,,,,,,,,,,
14886,1469905432680,,,,,,,-0.17,-0.59,0.96,5.9,1.8,0.4,4920,4047,,,,,,,,,,,,,,,,,
14906,1469905432700,,,,,,,-0.12,-0.57,0.97,5.2,1.9,0.5,5280,4069,,,,,,,,,,,,,,,,,
14926,1469905432720,,,,,,,-0.11,-0.48,0.95,4.7,2.7,0.5,5200,4069,,,,,,,,,,,,,,,,,
14946,1469905432740,,,,50,,,-0.08,-0.5,1.05,4.4,2.5,0.6,5340,4047,1.281,3,39.542378,-122.329498,69.54,0.139,283.2,7,2,2.3,0,0.0,-1,0.0,,0.0,0
14966,1469905432760,,,,,,,-0.06,-0.47,1.07,3.7,2.8,0.7,5220,4069,,,,,,,,,,,,,,,,,
14986,1469905432780,,,,,,,-0.07,-0.38,1.04,3.2,2.4,0.6,5240,4047,,,,,,,,,,,,,,,,,
15006,1469905432802,,,,,,,-0.06,-0.46,1.04,2.8,1.8,0.4,5360,4026,,,,,,,,,,,,,,,,,
15026,1469905432822,,,,,,,-0.07,-0.38,0.97,2.6,2.0,0.5,5020,4069,,,,,,,,,,,,,,,,,
15046,1469905432842,0,276.6,206.1,57,208.4,14.02,-0.12,-0.32,0.87,1.7,0.2,1.1,5180,4090,1.267,3,39.542393,-122.329475,70.06,0.14,283.2,7,2,2.3,0,0.0,-1,0.0,0.0,0.0,0
15066,1469905432862,,,,,,,-0.11,-0.29,0.88,1.7,0.3,1.0,5220,4090,,,,,,,,,,,,,,,,,
15086,1469905432882,,,,,,,-0.09,-0.32,0.93,1.6,1.2,1.3,5340,4112,,,,,,,,,,,,,,,,,
15106,1469905432895,,,,,,,-0.1,-0.3,0.98,1.2,-0.3,1.9,5200,4090,,,,,,,,,,,,,,,,,
15126,1469905432915,,,,,,,-0.12,-0.23,0.97,0.8,-1.6,2.0,5140,4069,,,,,,,,,,,,,,,,,
15146,1469905432935,,,,55,,,-0.17,-0.25,0.9,0.7,-0.5,1.8,5300,4112,1.307,3,39.542412,-122.329437,70.32,0.143,283.2,7,2,2.3,0,0.0,-1,0.0,,0.0,0
15166,1469905432955,,,,,,,-0.15,-0.26,0.93,0.5,-0.2,1.9,5040,4112,,,,,,,,,,,,,,,,,
15186,1469905432975,,,,,,,-0.14,-0.21,0.92,0.3,-2.0,1.8,5320,4090,,,,,,,,,,,,,,,,,
15206,1469905433002,,,,,,,-0.17,-0.16,0.94,0.0,-2.0,1.5,5360,4090,,,,,,,,,,,,,,,,,
15226,1469905433022,,,,,,,-0.13,-0.19,0.89,0.3,-0.9,1.0,5140,4090,,,,,,,,,,,,,,,,,
15246,1469905433042,0,277.3,206.2,49,208.7,,-0.09,-0.15,0.91,0.1,-0.3,0.9,5140,4135,1.279,3,39.542431,-122.329407,70.59,0.145,283.3,7,2,2.3,0,0.0,-1,0.0,0.0,0.0,0
15266,1469905433062,,,,,,,-0.12,-0.15,0.95,-0.2,-2.2,0.9,5000,4135,,,,,,,,,,,,,,,,,
15286,1469905433082,,,,,,,-0.12,-0.07,0.95,-0.3,-2.5,0.6,5160,4090,,,,,,,,,,,,,,,,,
15306,1469905433202,,,,,,,-0.13,-0.16,0.85,-0.3,-1.3,0.2,5140,4156,,,,,,,,,,,,,,,,,
15326,1469905433222,,,,,,,-0.09,-0.13,0.9,-0.2,-2.0,0.2,5260,4135,,,,,,,,,,,,,,,,,
15346,1469905433242,,,,48,,,-0.1,-0.07,0.93,-0.6,-4.1,0.4,5180,4156,1.285,3,39.542465,-122.329346,71.44,0.149,283.3,7,2,2.3,0,0.0,-1,0.0,,0.0,0
15366,1469905433262,,,,,,,-0.16,-0.07,0.88,-0.8,-4.3,0.2,5220,4156,,,,,,,,,,,,,,,,,
15386,1469905433282,,,,,,,-0.16,-0.05,0.83,-0.4,-3.2,-0.3,5280,4135,,,,,,,,,,,,,,,,,
15406,1469905433302,,,,,,,-0.09,-0.04,0.87,-0.5,-2.7,-0.1,5280,4156,,,,,,,,,,,,,,,,,
15426,1469905433322,,,,,,,-0.12,-0.02,0.85,-0.5,-4.4,0.3,5320,4180,,,,,,,,,,,,,,,,,
15446,1469905433342,0,277.3,206.2,58,208.7,,-0.14,0.04,0.83,-0.6,-5.0,0.3,5360,4135,1.223,3,39.542465,-122.329346,71.44,0.149,283.3,7,2,2.3,0,0.0,-1,0.0,0.0,0.0,0
15466,1469905433362,,,,,,,-0.16,0.02,0.84,-0.5,-3.7,0.1,5340,4135,,,,,,,,,,,,,,,,,
15486,1469905433382,,,,,,,-0.12,-0.09,0.87,-0.4,-3.2,-0.2,5120,4156,,,,,,,,,,,,,,,,,
15506,1469905433302,,,,,,,-0.1,-0.03,0.89,-0.1,-4.2,0.1,5240,4203,,,,,,,,,,,,,,,,,
15526,1469905433322,,,,,,,-0.16,-0.01,0.84,-0.7,-5.1,0.5,5440,4180,,,,,,,,,,,,,,,,,
15546,1469905433342,,,,58,,,-0.15,-0.02,0.94,-0.1,-3.3,-0.3,5280,4156,1.292,3,39.54248,-122.329323,71.79,0.15,283.1,7,2,2.3,0,0.0,-1,0.0,,0.0,0
15566,1469905433362,,,,,,,-0.11,-0.08,0.85,-0.1,-0.9,-0.5,5340,4180,,,,,,,,,,,,,,,,,
15586,1469905433382,,,,,,,-0.07,-0.06,0.86,-0.0,-1.8,-0.0,5300,4180,,,,,,,,,,,,,,,,,
15606,1469905433401,,,,,,,-0.07,-0.06,0.96,-0.3,-3.0,-0.1,5260,4180,,,,,,,,,,,,,,,,,
15626,1469905433421,,,,,,,-0.13,-0.02,0.9,0.0,-1.4,-0.4,5220,4069,,,,,,,,,,,,,,,,,
15646,1469905433441,1,277.4,206.1,53,208.2,,-0.07,-0.15,0.89,0.1,-1.2,-0.2,5140,4069,1.287,3,39.542496,-122.329292,72.11,0.152,282.9,7,2,2.3,0,0.0,-1,0.0,0.0,0.0,0
15666,1469905433461,,,,,,,-0.05,-0.03,0.96,-0.1,-1.9,-0.2,5000,3924,,,,,,,,,,,,,,,,,
15686,1469905433481,,,,,,,-0.08,-0.07,0.87,-0.6,-3.7,0.0,5040,4026,,,,,,,,,,,,,,,,,
15706,1469905433500,,,,,,,-0.11,-0.1,0.81,-0.3,-1.9,-0.4,5120,3964,,,,,,,,,,,,,,,,,
15726,1469905433520,,,,,,,-0.06,-0.03,0.77,-0.8,-2.4,-0.5,5100,4069,,,,,,,,,,,,,,,,,
15746,1469905433540,,,,56,,,-0.01,-0.11,0.75,-0.8,-2.2,-0.1,5260,4090,1.258,3,39.542515,-122.329254,72.55,0.155,282.8,7,2,2.3,0,0.0,-1,0.0,,0.0,0
15766,1469905433560,,,,,,,-0.04,-0.06,0.78,-0.7,-1.8,0.3,5180,4090,,,,,,,,,,,,,,,,,
15786,1469905433580,,,,,,,0.06,-0.03,0.9,-0.9,-0.4,0.3,5140,4112,,,,,,,,,,,,,,,,,
15806,1469905433600,,,,,,,0.09,0.03,0.82,-0.8,-1.0,0.2,5160,4090,,,,,,,,,,,,,,,,,
15826,1469905433620,,,,,,,0.04,-0.05,0.83,-1.3,-2.1,0.5,5220,4069,,,,,,,,,,,,,,,,,
15846,1469905433640,0,277.1,206.2,56,208.4,,0.05,0.01,0.8,-0.7,-0.6,-0.3,5160,4069,1.288,3,39.54253,-122.329231,72.76,0.156,282.6,7,2,2.3,0,0.0,-1,0.0,0.0,0.0,0
15866,1469905433660,,,,,,,0.1,0.08,0.9,-1.2,1.6,-0.1,5060,4112,,,,,,,,,,,,,,,,,
15886,1469905433680,,,,,,,0.12,0.01,0.91,-1.2,-0.4,0.4,5240,4026,,,,,,,,,,,,,,,,,
15906,1469905433700,,,,,,,0.11,0.15,0.98,-1.4,-0.7,-0.5,5200,4026,,,,,,,,,,,,,,,,,
15926,1469905433720,,,,,,,0.09,0.05,0.85,-1.7,1.8,-0.6,5060,4047,,,,,,,,,,,,,,,,,
15946,1469905433740,,,,61,,,0.14,0.14,0.9,-1.8,2.2,-0.6,5240,4090,1.25,3,39.542549,-122.329193,72.62,0.159,282.3,7,2,2.3,0,0.0,-1,0.0,,0.0,0
15966,1469905433760,,,,,,,0.19,0.03,0.91,-2.3,0.3,-0.3,5120,4069,,,,,,,,,,,,,,,,,
15986,1469905433780,,,,,,,0.11,0.05,1.01,-1.9,1.5,-0.4,5260,4112,,,,,,,,,,,,,,,,,
16006,1469905433802,,,,,,,0.17,0.13,1.0,-2.6,1.3,-0.0,5160,4090,,,,,,,,,,,,,,,,,
16026,1469905433822,,,,,,,0.19,0.04,0.96,-2.5,0.5,-0.0,5240,4026,,,,,,,,,,,,,,,,,
16046,1469905433842,0,277.3,206.2,62,208.0,13.91,0.13,0.08,0.94,-2.7,-0.7,-0.5,5240,4006,1.24,3,39.542564,-122.329163,72.4,0.161,282.1,7,2,2.3,0,0.0,-1,0.0,0.0,0.0,0
16066,1469905433862,,,,,,,0.11,0.1,0.85,-3.3,-0.1,-0.5,5100,4026,,,,,,,,,,,,,,,,,
16086,1469905433882,,,,,,,0.21,0.16,0.96,-3.6,0.4,-0.8,5020,4047,,,,,,,,,,,,,,,,,
16106,1469905433995,,,,,,,0.16,0.12,0.92,-4.3,-1.9,-0.0,5000,4026,,,,,,,,,,,,,,,,,
16126,1469905434015,,,,,,,0.17,0.17,1.02,-4.1,-1.8,0.2,4280,4026,,,,,,,,,,,,,,,,,
16146,1469905434035,,,,74,,,0.25,0.26,0.93,-5.0,-0.6,0.5,5060,4026,1.275,3,39.542599,-122.329102,71.7,0.165,281.6,7,2,2.3,0,0.0,-1,0.0,,0.0,0
16166,1469905434055,,,,,,,0.26,0.11,0.87,-5.0,-2.1,1.3,5040,4006,,,,,,,,,,,,,,,,,
16186,1469905434075,,,,,,,0.24,0.27,0.85,-5.2,-3.3,1.1,5080,4006,,,,,,,,,,,,,,,,,
16206,1469905434095,,,,,,,0.25,0.18,0.72,-5.6,-2.0,1.0,5160,3984,,,,,,,,,,,,,,,,,
16226,1469905434115,,,,,,,0.25,0.18,0.78,-5.2,-1.4,1.0,5080,3964,,,,,,,,,,,,,,,,,
16246,1469905434135,0,277.4,206.6,58,208.8,,0.28,0.15,0.81,-5.9,-3.7,1.7,5040,3984,1.278,3,39.542599,-122.329102,71.7,0.165,281.6,7,2,2.3,0,0.0,-1,0.0,0.0,0.0,0
16266,1469905434155,,,,,,,0.25,0.2,0.86,-5.8,-2.8,1.6,5160,3944,,,,,,,,,,,,,,,,,
16286,1469905434175,,,,,,,0.27,0.12,0.85,-6.2,-1.1,1.7,5020,3924,,,,,,,,,,,,,,,,,
16306,1469905434102,,,,,,,0.32,0.18,0.94,-6.8,-2.4,2.0,5000,3964,,,,,,,,,,,,,,,,,
16326,1469905434122,,,,,,,0.31,0.18,0.88,-7.2,-2.9,2.6,4900,3944,,,,,,,,,,,,,,,,,
16346,1469905434142,,,,73,,,0.33,0.21,0.94,-7.6,0.2,2.1,5020,3924,1.255,3,39.542614,-122.329079,71.33,0.166,281.3,7,2,2.3,0,0.0,-1,0.0,,0.0,0
16366,1469905434162,,,,,,,0.34,0.22,1.01,-8.6,-1.8,2.7,4940,3884,,,,,,,,,,,,,,,,,
16386,1469905434182,,,,,,,0.33,0.27,1.0,-8.7,-1.4,2.8,4920,3904,,,,,,,,,,,,,,,,,
16406,1469905434202,,,,,,,0.35,0.29,1.0,-9.3,0.6,2.5,5020,3904,,,,,,,,,,,,,,,,,
16426,1469905434222,,,,,,,0.37,0.28,1.05,-9.8,-0.6,2.4,4940,3826,,,,,,,,,,,,,,,,,
16446,1469905434242,0,277.4,206.4,60,209.2,,0.36,0.31,0.99,-10.3,-1.2,2.2,4900,3846,1.278,3,39.542629,-122.329041,70.85,0.169,281.0,7,2,2.3,0,0.0,-1,0.0,0.0,0.0,0
16466,1469905434262,,,,,,,0.41,0.41,0.92,-10.6,0.2,1.6,4800,3826,,,,,,,,,,,,,,,,,
16486,1469905434282,,,,,,,0.39,0.4,1.0,-11.5,-0.1,1.5,4900,3846,,,,,,,,,,,,,,,,,
16506,1469905434302,,,,,,,0.4,0.46,0.87,-11.7,-1.2,1.6,4900,3826,,,,,,,,,,,,,,,,,
16526,1469905434322,,,,,,,0.41,0.32,0.79,-11.8,-0.9,1.8,4880,3884,,,,,,,,,,,,,,,,,
16546,1469905434342,,,,45,,,0.4,0.48,0.8,-11.9,-1.5,1.4,4900,3864,1.269,3,39.542648,-122.32901,70.23,0.171,280.7,7,2,2.3,0,0.0,-1,0.0,,0.0,0
16566,1469905434362,,,,,,,0.37,0.41,0.85,-12.5,0.0,1.8,4840,3846,,,,,,,,,,,,,,,,,
16586,1469905434382,,,,,,,0.4,0.36,0.91,-12.6,0.0,1.9,4760,3826,,,,,,,,,,,,,,,,,
16606,1469905434401,,,,,,,0.43,0.42,0.96,-12.1,0.1,2.1,4860,3733,,,,,,,,,,,,,,,,,
16626,1469905434421,,,,,,,0.41,0.44,0.99,-12.5,1.0,1.9,4820,3789,,,,,,,,,,,,,,,,,
16646,1469905434441,0,279.0,207.2,64,209.1,,0.44,0.47,1.09,-13.1,-0.2,1.3,4760,3752,1.295,3,39.542664,-122.328987,69.38,0.172,280.4,7,2,2.3,0,0.0,-1,0.0,0.0,0.0,0
16666,1469905434461,,,,,,,0.47,0.44,1.05,-13.3,0.3,1.1,4780,3807,,,,,,,,,,,,,,,,,
16686,1469905434481,,,,,,,0.49,0.5,0.94,-13.1,-0.3,1.2,4820,3752,,,,,,,,,,,,,,,,,
16706,1469905434500,,,,,,,0.46,0.53,0.92,-12.9,0.4,0.9,4760,3715,,,,,,,,,,,,,,,,,
16726,1469905434520,,,,,,,0.47,0.6,0.92,-13.4,0.2,0.9,4760,3715,,,,,,,,,,,,,,,,,
16746,1469905434540,,,,55,,,0.52,0.65,1.02,-13.7,-0.2,0.2,4600,3752,1.276,3,39.542679,-122.328949,68.4,0.175,280.2,7,2,2.3,0,0.0,-1,0.0,,0.0,0
16766,1469905434560,,,,,,,0.55,0.56,1.02,-14.0,0.7,0.7,4740,3715,,,,,,,,,,,,,,,,,
16786,1469905434580,,,,,,,0.53,0.54,1.06,-14.2,0.5,0.1,4800,3680,,,,,,,,,,,,,,,,,
16806,1469905434600,,,,,,,0.5,0.58,1.04,-13.7,1.1,0.0,4580,3696,,,,,,,,,,,,,,,,,
16826,1469905434620,,,,,,,0.46,0.61,1.1,-13.8,1.2,0.7,4760,3680,,,,,,,,,,,,,,,,,
16846,1469905434640,1,278.8,206.7,56,208.8,,0.47,0.67,1.0,-14.1,0.4,0.7,4700,3661,1.255,3,39.542694,-122.328926,67.49,0.176,280.0,7,2,2.3,0,0.0,-1,0.0,0.0,0.0,0
16866,1469905434660,,,,,,,0.5,0.72,0.96,-14.3,1.2,0.6,4600,3680,,,,,,,,,,,,,,,,,
16886,1469905434680,,,,,,,0.46,0.74,1.05,-14.9,0.8,0.5,4620,3661,,,,,,,,,,,,,,,,,
16906,1469905434799,,,,,,,0.47,0.67,1.02,-15.2,0.3,0.2,4620,3610,,,,,,,,,,,,,,,,,
16926,1469905434819,,,,,,,0.52,0.72,1.11,-15.0,-0.2,0.1,4560,3680,,,,,,,,,,,,,,,,,
16946,1469905434839,,,,57,,,0.52,0.63,1.14,-14.9,-0.0,0.0,4640,3610,1.285,3,39.542728,-122.328873,65.66,0.18,279.6,7,2,2.3,0,0.0,-1,0.0,,0.0,0
16966,1469905434859,,,,,,,0.55,0.66,1.1,-14.7,-0.8,-0.0,4640,3593,,,,,,,,,,,,,,,,,
16986,1469905434879,,,,,,,0.5,0.65,1.12,-14.3,-0.4,0.4,4500,3610,,,,,,,,,,,,,,,,,
17006,1469905434899,,,,,,,0.49,0.64,1.09,-14.4,-0.8,0.1,4480,3527,,,,,,,,,,,,,,,,,
17026,1469905434919,,,,,,,0.44,0.59,1.11,-14.5,-0.3,0.5,4480,3593,,,,,,,,,,,,,,,,,
17046,1469905434939,1,277.9,206.7,62,208.7,13.99,0.46,0.55,1.07,-14.3,-0.3,0.5,4480,3544,1.264,3,39.542728,-122.328873,65.66,0.18,279.6,7,2,2.3,0,0.0,-1,0.0,0.0,0.0,0
17066,1469905434959,,,,,,,0.44,0.56,1.03,-14.1,0.2,0.9,4560,3560,,,,,,,,,,,,,,,,,
17086,1469905434979,,,,,,,0.41,0.55,1.03,-14.4,0.8,1.0,4460,3560,,,,,,,,,,,,,,,,,
17106,1469905434895,,,,,,,0.39,0.6,0.99,-14.7,-0.6,1.0,4520,3576,,,,,,,,,,,,,,,,,
17126,1469905434915,,,,,,,0.4,0.6,1.06,-15.6,-0.1,0.8,4420,3527,,,,,,,,,,,,,,,,,
17146,1469905434935,,,,48,,,0.38,0.66,1.0,-15.7,0.4,0.4,4580,3576,1.248,3,39.542748,-122.32885,64.83,0.182,279.3,7,2,2.3,0,0.0,-1,0.0,,0.0,0
17166,1469905434955,,,,,,,0.37,0.64,1.05,-16.4,0.9,0.9,4340,3512,,,,,,,,,,,,,,,,,
17186,1469905434975,,,,,,,0.35,0.69,0.94,-16.8,0.3,0.6,4440,3527,,,,,,,,,,,,,,,,,
17206,1469905435002,,,,,,,0.31,0.72,0.95,-17.3,-0.1,0.5,4380,3480,,,,,,,,,,,,,,,,,
17226,1469905435022,,,,,,,0.36,0.75,0.86,-18.0,-1.1,0.8,4540,3495,,,,,,,,,,,,,,,,,
17246,1469905435042,0,278.1,206.7,57,208.9,,0.34,0.69,0.94,-18.5,-0.5,1.1,4460,3433,1.225,3,39.542767,-122.328819,63.97,0.184,279.2,7,2,2.3,0,0.0,-1,0.0,0.0,0.0,0
