"Interval"|"ms"|0|0|1,"Utc"|"ms"|0|0|1,"FuelLevel"|"F"|0|100|5,"OilTemp"|"F"|0.0|300.0|5,"Coolant"|"F"|0.0|300.0|5,"OilPress"|"PSI"|0|150|10,"EngineTemp"|"F"|0.0|300.0|5,"Battery"|"Volts"|0.0|20.0|1,"AccelX"|"G"|-3.0|3.0|50,"AccelY"|"G"|-3.0|3.0|50,"AccelZ"|"G"|-3.0|3.0|50,"Yaw"|"Deg/Sec"|-300.0|300.0|50,"Pitch"|"Deg/Sec"|-300.0|300.0|50,"Roll"|"Deg/Sec"|-300.0|300.0|50,"RPM"|""|0|10000|50,"Driveshaft"|"RPM"|0|5000|50,"GearRatio"|""|-5.0|5.0|10,"Gear"|""|-1|5|10,"Latitude"|"Degrees"|-180.0|180.0|10,"Longitude"|"Degrees"|-180.0|180.0|10,"Speed"|"MPH"|0.0|150.0|10,"Distance"|"Miles"|0.0|0.0|10,"Altitude"|"Feet"|0.0|4000.0|10,"GPSSats"|""|0|20|10,"GPSQual"|""|0|5|10,"GPSDOP"|""|0.0|20.0|10,"LapCount"|""|0|0|10,"LapTime"|"Min"|0.0|0.0|10,"Sector"|""|0|0|10,"SectorTime"|"Min"|0.0|0.0|10,"PredTime"|"Min"|0.0|0.0|5,"ElapsedTime"|"Min"|0.0|0.0|10,"CurrentLap"|""|0|0|10
5066,1469909083889,,,,,,,0.07,0.63,1.04,-19.0,2.5,0.7,2480,2472,,,,,,,,,,,,,,,,,
5086,1469909083810,,,,,,,0.05,0.61,1.06,-19.0,3.1,1.1,2500,2472,,,,,,,,,,,,,,,,,
5106,1469909083830,,,,,,,0.06,0.64,1.04,-18.8,3.1,1.1,2420,2456,,,,,,,,,,,,,,,,,
5126,1469909083850,,,,,,,0.05,0.61,1.09,-18.8,3.3,1.2,2460,2489,,,,,,,,,,,,,,,,,
5146,1469909083870,,,,36,,,0.02,0.63,1.07,-18.8,3.3,1.3,2540,2538,1.036,4,39.543121,-122.328491,43.63,0.001,279.8,8,2,1.8,0,0.0,-1,0.0,,0.0,0
5166,1469909083890,,,,,,,0.02,0.61,1.07,-18.7,3.6,1.3,2540,2529,,,,,,,,,,,,,,,,,
5186,1469909083905,,,,,,,0.01,0.62,1.05,-18.5,3.1,1.4,2520,2512,,,,,,,,,,,,,,,,,
5206,1469909083925,,,,,,,-0.0,0.59,1.09,-18.4,3.5,1.4,2500,2521,,,,,,,,,,,,,,,,,
5226,1469909083945,,,,,,,-0.01,0.65,1.05,-18.2,2.7,1.1,2480,2496,,,,,,,,,,,,,,,,,
5246,1469909083965,0,229.7,185.5,46,187.6,,-0.02,0.61,1.08,-18.0,2.6,1.0,2500,2489,0.993,4,39.543137,-122.328491,43.41,0.002,280.5,8,2,1.8,0,0.0,-1,0.0,0.0,0.0,0
5266,1469909083985,,,,,,,-0.02,0.67,1.03,-17.7,2.5,0.7,2480,2521,,,,,,,,,,,,,,,,,
5286,1469909084010,,,,,,,0.0,0.61,1.07,-17.6,2.9,0.6,2520,2512,,,,,,,,,,,,,,,,,
5306,1469909084030,,,,,,,0.02,0.64,1.03,-17.2,1.9,0.5,2520,2521,,,,,,,,,,,,,,,,,
5326,1469909084050,,,,,,,-0.0,0.58,1.07,-17.1,1.7,0.5,2500,2538,,,,,,,,,,,,,,,,,
5346,1469909084070,,,,54,,,-0.01,0.61,1.05,-16.7,0.9,0.2,2540,2538,0.99,4,39.543156,-122.328476,43.55,0.004,281.5,8,2,1.8,0,0.0,-1,0.0,,0.0,0
5366,1469909084090,,,,,,,-0.02,0.55,1.06,-16.6,1.0,0.3,2480,2521,,,,,,,,,,,,,,,,,
5386,1469909084110,,,,,,,-0.03,0.61,1.07,-16.5,1.2,0.2,2520,2521,,,,,,,,,,,,,,,,,
5406,1469909084130,,,,,,,-0.03,0.56,1.05,-16.5,0.8,0.3,2520,2529,,,,,,,,,,,,,,,,,
5426,1469909084150,,,,,,,-0.02,0.63,1.02,-16.2,0.8,0.1,2520,2512,,,,,,,,,,,,,,,,,
5446,1469909084170,0,228.9,184.6,46,186.7,,-0.03,0.59,1.01,-16.5,0.7,0.1,2520,2546,1.0,4,39.543171,-122.328476,43.46,0.005,281.7,8,2,1.8,0,0.0,-1,0.0,0.0,0.0,0
5466,1469909084190,,,,,,,-0.04,0.59,1.01,-16.3,1.2,-0.1,2520,2538,,,,,,,,,,,,,,,,,
5486,1469909084210,,,,,,,-0.08,0.58,1.0,-16.6,1.2,0.0,2580,2538,,,,,,,,,,,,,,,,,
5506,1469909084230,,,,,,,-0.06,0.55,1.02,-16.3,1.3,-0.0,2480,2521,,,,,,,,,,,,,,,,,
5526,1469909084250,,,,,,,-0.06,0.54,1.01,-16.4,1.3,0.3,2520,2546,,,,,,,,,,,,,,,,,
5546,1469909084270,,,,52,,,-0.06,0.53,1.02,-16.3,1.7,0.2,2540,2546,0.971,4,39.543186,-122.328476,43.53,0.006,282.0,8,2,1.8,0,0.0,-1,0.0,,0.0,0
5566,1469909084290,,,,,,,-0.06,0.55,1.02,-16.2,0.9,0.0,2540,2563,,,,,,,,,,,,,,,,,
5586,1469909084310,,,,,,,-0.07,0.51,1.05,-16.0,1.3,-0.2,2600,2555,,,,,,,,,,,,,,,,,
5606,1469909084330,,,,,,,-0.08,0.58,1.02,-16.0,0.9,-0.1,2540,2563,,,,,,,,,,,,,,,,,
5626,1469909084350,,,,,,,-0.1,0.51,1.07,-15.6,0.6,-0.3,2560,2563,,,,,,,,,,,,,,,,,
5646,1469909084370,0,229.5,185.3,45,187.3,,-0.09,0.57,1.06,-15.4,1.0,-0.4,2540,2546,0.993,4,39.543205,-122.328476,43.89,0.007,282.4,8,2,1.8,0,0.0,-1,0.0,0.0,0.0,0
5666,1469909084390,,,,,,,-0.09,0.54,1.04,-15.3,1.4,-0.1,2520,2563,,,,,,,,,,,,,,,,,
5686,1469909084507,,,,,,,-0.07,0.57,1.03,-14.7,1.0,-0.3,2520,2546,,,,,,,,,,,,,,,,,
5706,1469909084527,,,,,,,-0.09,0.52,0.99,-14.8,1.1,-0.3,2540,2555,,,,,,,,,,,,,,,,,
5726,1469909084547,,,,,,,-0.09,0.55,0.99,-14.2,1.2,-0.6,2480,2555,,,,,,,,,,,,,,,,,
5746,1469909084567,,,,46,,,-0.1,0.51,0.99,-14.2,0.4,-0.6,2620,2555,0.994,4,39.54324,-122.328476,44.21,0.009,283.6,8,2,1.8,0,0.0,-1,0.0,,0.0,0
5766,1469909084587,,,,,,,-0.09,0.46,0.96,-13.5,-0.0,-0.8,2520,2572,,,,,,,,,,,,,,,,,
5786,1469909084607,,,,,,,-0.07,0.47,0.94,-13.3,-0.0,-0.6,2560,2572,,,,,,,,,,,,,,,,,
5806,1469909084627,,,,,,,-0.06,0.4,0.99,-13.0,0.4,-0.4,2540,2563,,,,,,,,,,,,,,,,,
5826,1469909084647,,,,,,,-0.05,0.49,1.0,-12.6,0.2,-0.6,2580,2555,,,,,,,,,,,,,,,,,
5846,1469909084667,1,229.4,185.2,40,187.3,,-0.06,0.4,0.98,-12.7,0.3,-0.5,2640,2572,0.988,4,39.54324,-122.328476,44.21,0.009,283.6,8,2,1.8,0,0.0,-1,0.0,0.0,0.0,0
5866,1469909084687,,,,,,,-0.07,0.45,0.98,-12.3,0.1,-0.7,2520,2580,,,,,,,,,,,,,,,,,
5886,1469909084607,,,,,,,-0.08,0.43,0.98,-12.5,-0.3,-0.4,2580,2572,,,,,,,,,,,,,,,,,
5906,1469909084627,,,,,,,-0.09,0.39,0.96,-12.1,-0.9,-0.6,2600,2580,,,,,,,,,,,,,,,,,
5926,1469909084647,,,,,,,-0.09,0.41,0.96,-12.1,-0.8,-0.4,2560,2598,,,,,,,,,,,,,,,,,
5946,1469909084667,,,,46,,,-0.06,0.35,1.01,-12.1,-0.0,-0.4,2660,2580,1.003,4,39.543259,-122.328461,44.41,0.011,283.8,8,2,1.8,0,0.0,-1,0.0,,0.0,0
5966,1469909084687,,,,,,,-0.06,0.43,1.0,-12.0,0.1,-0.4,2540,2572,,,,,,,,,,,,,,,,,
5986,1469909084707,,,,,,,-0.08,0.36,0.99,-12.1,0.3,-0.1,2560,2589,,,,,,,,,,,,,,,,,
6006,1469909084727,,,,,,,-0.08,0.39,1.0,-12.0,0.4,-0.0,2580,2589,,,,,,,,,,,,,,,,,
6026,1469909084747,,,,,,,-0.07,0.4,0.99,-12.4,-0.1,0.3,2580,2589,,,,,,,,,,,,,,,,,
6046,1469909084767,0,229.5,185.5,54,187.4,13.72,-0.08,0.37,1.0,-12.3,-0.2,0.2,2560,2589,1.003,4,39.543274,-122.328461,44.64,0.012,284.1,8,2,1.8,0,0.0,-1,0.0,0.0,0.0,0
6066,1469909084787,,,,,,,-0.09,0.47,0.97,-12.7,-0.5,0.5,2580,2589,,,,,,,,,,,,,,,,,
6086,1469909084810,,,,,,,-0.07,0.38,1.0,-13.0,-0.5,0.9,2580,2598,,,,,,,,,,,,,,,,,
6106,1469909084830,,,,,,,-0.08,0.48,1.01,-13.4,-0.3,0.8,2600,2580,,,,,,,,,,,,,,,,,
6126,1469909084850,,,,,,,-0.08,0.46,0.97,-14.1,-0.4,0.9,2540,2615,,,,,,,,,,,,,,,,,
6146,1469909084870,,,,45,,,-0.07,0.41,1.0,-14.2,-0.1,0.9,2560,2615,1.008,4,39.543293,-122.328461,44.86,0.013,284.8,8,2,1.8,0,0.0,-1,0.0,,0.0,0
6166,1469909084890,,,,,,,-0.07,0.48,1.0,-14.5,-0.4,0.9,2580,2624,,,,,,,,,,,,,,,,,
6186,1469909084903,,,,,,,-0.1,0.44,1.04,-14.8,-0.3,1.1,2600,2598,,,,,,,,,,,,,,,,,
6206,1469909084923,,,,,,,-0.1,0.51,1.05,-14.9,-0.0,1.0,2620,2606,,,,,,,,,,,,,,,,,
6226,1469909084943,,,,,,,-0.08,0.52,1.02,-15.5,-0.5,1.2,2620,2624,,,,,,,,,,,,,,,,,
6246,1469909084963,0,229.1,184.5,46,186.5,,-0.05,0.5,1.02,-15.6,-0.7,1.0,2640,2633,1.001,4,39.543308,-122.328461,44.82,0.014,284.8,8,2,1.8,0,0.0,-1,0.0,0.0,0.0,0
6266,1469909084983,,,,,,,-0.05,0.6,0.98,-15.7,-1.1,1.0,2580,2615,,,,,,,,,,,,,,,,,
6286,1469909085010,,,,,,,-0.07,0.53,0.94,-16.0,-1.2,1.0,2620,2615,,,,,,,,,,,,,,,,,
6306,1469909085030,,,,,,,-0.07,0.54,0.98,-15.8,-0.3,0.5,2600,2624,,,,,,,,,,,,,,,,,
6326,1469909085050,,,,,,,-0.08,0.54,0.97,-16.3,-0.7,0.5,2620,2624,,,,,,,,,,,,,,,,,
6346,1469909085070,,,,49,,,-0.1,0.51,0.99,-16.3,-0.4,0.3,2600,2615,0.991,4,39.543327,-122.328461,45.06,0.016,284.8,8,2,1.8,0,0.0,-1,0.0,,0.0,0
6366,1469909085090,,,,,,,-0.12,0.57,1.0,-16.4,0.4,0.4,2620,2624,,,,,,,,,,,,,,,,,
6386,1469909085110,,,,,,,-0.11,0.51,0.97,-16.5,0.4,0.7,2620,2633,,,,,,,,,,,,,,,,,
6406,1469909085130,,,,,,,-0.08,0.51,0.99,-16.0,0.7,0.5,2600,2661,,,,,,,,,,,,,,,,,
6426,1469909085150,,,,,,,-0.08,0.56,0.96,-15.8,0.6,0.3,2660,2624,,,,,,,,,,,,,,,,,
6446,1469909085170,1,229.1,184.6,53,186.5,,-0.09,0.48,0.97,-16.0,1.0,-0.0,2620,2643,0.984,4,39.543343,-122.328476,45.49,0.017,284.5,8,2,1.8,0,0.0,-1,0.0,0.0,0.0,0
6466,1469909085190,,,,,,,-0.08,0.54,0.98,-15.7,1.3,-0.5,2640,2652,,,,,,,,,,,,,,,,,
6486,1469909085309,,,,,,,-0.07,0.51,0.95,-15.7,0.2,-0.5,2640,2643,,,,,,,,,,,,,,,,,
6506,1469909085329,,,,,,,-0.1,0.46,0.98,-15.4,-0.1,-0.9,2620,2624,,,,,,,,,,,,,,,,,
6526,1469909085349,,,,,,,-0.11,0.53,0.99,-15.2,0.2,-1.0,2620,2624,,,,,,,,,,,,,,,,,
6546,1469909085369,,,,44,,,-0.1,0.54,0.97,-15.7,0.0,-0.5,2620,2652,0.998,4,39.543385,-122.328476,45.9,0.02,284.2,8,2,1.8,0,0.0,-1,0.0,,0.0,0
6566,1469909085389,,,,,,,-0.07,0.48,0.99,-15.4,-0.2,-0.5,2680,2633,,,,,,,,,,,,,,,,,
6586,1469909085409,,,,,,,-0.09,0.57,0.96,-15.2,-0.8,-0.6,2620,2624,,,,,,,,,,,,,,,,,
6606,1469909085429,,,,,,,-0.1,0.5,0.93,-15.3,-0.4,-0.6,2680,2661,,,,,,,,,,,,,,,,,
6626,1469909085449,,,,,,,-0.09,0.53,0.97,-15.1,0.2,-0.9,2640,2661,,,,,,,,,,,,,,,,,
6646,1469909085469,0,229.6,185.6,44,187.5,,-0.09,0.58,0.95,-15.3,0.1,-0.9,2640,2652,1.018,4,39.543385,-122.328476,45.9,0.02,284.2,8,2,1.8,0,0.0,-1,0.0,0.0,0.0,0
6666,1469909085489,,,,,,,-0.09,0.53,0.96,-15.6,-0.3,-0.7,2640,2652,,,,,,,,,,,,,,,,,
6686,1469909085409,,,,,,,-0.09,0.52,0.95,-15.0,0.0,-0.7,2640,2643,,,,,,,,,,,,,,,,,
6706,1469909085429,,,,,,,-0.09,0.6,0.94,-15.2,0.2,-0.4,2660,2643,,,,,,,,,,,,,,,,,
6726,1469909085449,,,,,,,-0.07,0.51,0.96,-15.2,0.3,-0.1,2620,2661,,,,,,,,,,,,,,,,,
6746,1469909085469,,,,46,,,-0.06,0.56,0.95,-15.0,0.7,-0.0,2680,2670,0.992,4,39.543404,-122.328476,45.92,0.021,284.1,8,2,1.8,0,0.0,-1,0.0,,0.0,0
6766,1469909085489,,,,,,,-0.07,0.61,0.92,-15.1,-0.4,-0.1,2640,2661,,,,,,,,,,,,,,,,,
6786,1469909085511,,,,,,,-0.09,0.6,0.9,-15.5,-0.2,-0.1,2660,2661,,,,,,,,,,,,,,,,,
6806,1469909085531,,,,,,,-0.06,0.6,0.92,-15.4,0.0,-0.3,2660,2680,,,,,,,,,,,,,,,,,
6826,1469909085551,,,,,,,-0.04,0.63,0.89,-15.7,-0.5,-0.2,2640,2680,,,,,,,,,,,,,,,,,
6846,1469909085571,0,228.9,184.7,51,186.6,,-0.05,0.51,0.92,-15.8,-1.2,0.1,2660,2670,0.978,4,39.543419,-122.328476,46.11,0.022,284.0,8,2,1.8,0,0.0,-1,0.0,0.0,0.0,0
6866,1469909085591,,,,,,,-0.06,0.55,0.92,-15.7,-0.7,0.0,2680,2689,,,,,,,,,,,,,,,,,
6886,1469909085599,,,,,,,-0.06,0.63,0.93,-16.2,-0.2,0.2,2680,2689,,,,,,,,,,,,,,,,,
6906,1469909085619,,,,,,,-0.03,0.56,0.87,-16.6,-0.9,0.7,2680,2698,,,,,,,,,,,,,,,,,
6926,1469909085639,,,,,,,-0.0,0.58,0.88,-16.5,-1.3,1.0,2680,2689,,,,,,,,,,,,,,,,,
6946,1469909085659,,,,47,,,-0.02,0.67,0.88,-16.9,-2.0,1.1,2680,2680,1.0,4,39.543438,-122.328491,46.18,0.024,284.0,8,2,1.8,0,0.0,-1,0.0,,0.0,0
6966,1469909085679,,,,,,,-0.03,0.62,0.9,-17.9,-1.9,1.2,2720,2698,,,,,,,,,,,,,,,,,
6986,1469909085700,,,,,,,-0.01,0.59,0.96,-17.7,-0.8,0.9,2680,2707,,,,,,,,,,,,,,,,,
7006,1469909085720,,,,,,,0.01,0.68,0.94,-17.6,-0.9,1.0,2700,2716,,,,,,,,,,,,,,,,,
7026,1469909085740,,,,,,,-0.01,0.64,0.93,-18.2,-1.5,1.3,2680,2707,,,,,,,,,,,,,,,,,
7046,1469909085760,0,228.7,184.5,52,186.6,13.68,-0.02,0.6,0.96,-18.1,-1.5,1.3,2700,2698,0.993,4,39.543457,-122.328491,46.42,0.025,283.9,8,2,1.8,0,0.0,-1,0.0,0.0,0.0,0
7066,1469909085780,,,,,,,-0.04,0.65,1.0,-17.9,-0.7,1.2,2700,2707,,,,,,,,,,,,,,,,,
7086,1469909085803,,,,,,,-0.06,0.64,1.01,-18.5,-0.2,1.3,2720,2727,,,,,,,,,,,,,,,,,
7106,1469909085823,,,,,,,-0.05,0.59,1.01,-18.9,-0.2,1.6,2680,2736,,,,,,,,,,,,,,,,,
7126,1469909085843,,,,,,,-0.07,0.62,1.06,-18.7,0.6,1.4,2700,2727,,,,,,,,,,,,,,,,,
7146,1469909085863,,,,56,,,-0.09,0.7,1.06,-18.7,0.5,1.1,2720,2727,0.987,4,39.543476,-122.328499,46.67,0.027,283.8,8,2,1.8,0,0.0,-1,0.0,,0.0,0
7166,1469909085883,,,,,,,-0.13,0.67,1.02,-19.3,0.8,0.9,2720,2716,,,,,,,,,,,,,,,,,
7186,1469909085896,,,,,,,-0.14,0.58,1.03,-19.0,1.4,0.8,2720,2716,,,,,,,,,,,,,,,,,
7206,1469909085916,,,,,,,-0.12,0.64,1.05,-18.6,2.2,0.2,2700,2756,,,,,,,,,,,,,,,,,
7226,1469909085936,,,,,,,-0.1,0.73,1.05,-19.1,2.2,0.1,2720,2746,,,,,,,,,,,,,,,,,
7246,1469909085956,0,229.4,185.3,53,187.4,,-0.1,0.69,1.04,-19.6,1.5,0.5,2700,2736,0.983,4,39.543491,-122.328499,46.95,0.028,283.8,8,2,1.8,0,0.0,-1,0.0,0.0,0.0,0
7266,1469909085976,,,,,,,-0.12,0.64,1.05,-19.0,1.6,0.5,2720,2727,,,,,,,,,,,,,,,,,
7286,1469909086102,,,,,,,-0.13,0.68,1.09,-18.9,2.3,0.5,2720,2746,,,,,,,,,,,,,,,,,
7306,1469909086122,,,,,,,-0.15,0.69,1.07,-19.6,3.1,0.7,2760,2746,,,,,,,,,,,,,,,,,
7326,1469909086142,,,,,,,-0.13,0.67,1.06,-19.6,2.5,0.7,2760,2766,,,,,,,,,,,,,,,,,
7346,1469909086162,,,,41,,,-0.12,0.59,1.06,-19.1,2.1,0.6,2760,2756,0.998,4,39.54353,-122.328514,47.39,0.031,284.2,8,2,1.8,0,0.0,-1,0.0,,0.0,0
7366,1469909086182,,,,,,,-0.12,0.67,1.04,-19.1,2.2,0.2,2740,2766,,,,,,,,,,,,,,,,,
7386,1469909086202,,,,,,,-0.16,0.7,1.01,-19.4,1.9,0.4,2740,2746,,,,,,,,,,,,,,,,,
7406,1469909086222,,,,,,,-0.17,0.64,0.99,-19.7,2.1,0.5,2760,2746,,,,,,,,,,,,,,,,,
7426,1469909086242,,,,,,,-0.17,0.63,1.02,-19.3,2.3,0.1,2740,2776,,,,,,,,,,,,,,,,,
7446,1469909086262,0,229.4,185.3,76,187.3,,-0.16,0.68,1.0,-19.2,2.3,-0.1,2760,2776,0.991,4,39.54353,-122.328514,47.39,0.031,284.2,8,2,1.8,0,0.0,-1,0.0,0.0,0.0,0
7466,1469909086282,,,,,,,-0.16,0.76,0.97,-19.9,1.8,0.2,2760,2786,,,,,,,,,,,,,,,,,
7486,1469909086203,,,,,,,-0.17,0.72,0.97,-20.3,0.8,0.8,2760,2776,,,,,,,,,,,,,,,,,
7506,1469909086223,,,,,,,-0.18,0.67,1.0,-20.0,0.2,0.6,2760,2776,,,,,,,,,,,,,,,,,
7526,1469909086243,,,,,,,-0.18,0.68,1.01,-19.7,1.0,0.5,2780,2766,,,,,,,,,,,,,,,,,
7546,1469909086263,,,,52,,,-0.2,0.67,1.06,-20.1,1.9,0.4,2800,2796,1.001,4,39.543549,-122.328529,47.6,0.032,284.5,8,2,1.8,0,0.0,-1,0.0,,0.0,0
7566,1469909086283,,,,,,,-0.18,0.67,1.02,-20.4,1.9,0.9,2800,2776,,,,,,,,,,,,,,,,,
7586,1469909086303,,,,,,,-0.14,0.61,1.04,-20.2,1.1,1.3,2800,2816,,,,,,,,,,,,,,,,,
7606,1469909086323,,,,,,,-0.13,0.62,1.07,-19.5,0.8,0.9,2800,2796,,,,,,,,,,,,,,,,,
7626,1469909086343,,,,,,,-0.14,0.7,1.08,-19.7,0.1,0.6,2780,2796,,,,,,,,,,,,,,,,,
7646,1469909086363,0,228.8,184.5,41,186.6,,-0.19,0.72,1.03,-20.3,-0.4,0.8,2760,2796,0.987,4,39.543564,-122.328529,47.68,0.033,284.8,8,2,1.8,0,0.0,-1,0.0,0.0,0.0,0
7666,1469909086383,,,,,,,-0.21,0.7,0.98,-20.6,-0.0,1.0,2800,2806,,,,,,,,,,,,,,,,,
7686,1469909086401,,,,,,,-0.2,0.61,0.99,-20.3,0.5,0.8,2800,2806,,,,,,,,,,,,,,,,,
7706,1469909086421,,,,,,,-0.16,0.68,1.0,-19.9,0.8,0.5,2800,2806,,,,,,,,,,,,,,,,,
7726,1469909086441,,,,,,,-0.15,0.79,1.01,-20.2,1.0,0.4,2800,2838,,,,,,,,,,,,,,,,,
7746,1469909086461,,,,63,,,-0.13,0.81,0.98,-20.9,0.1,0.6,2800,2827,0.99,4,39.543583,-122.328537,47.89,0.034,285.1,8,2,1.8,0,0.0,-1,0.0,,0.0,0
7766,1469909086481,,,,,,,-0.12,0.78,0.95,-20.9,-1.0,0.8,2780,2816,,,,,,,,,,,,,,,,,
7786,1469909086499,,,,,,,-0.12,0.75,0.99,-20.6,-1.8,0.9,2800,2827,,,,,,,,,,,,,,,,,
7806,1469909086519,,,,,,,-0.12,0.72,1.01,-20.0,-1.5,0.8,2800,2827,,,,,,,,,,,,,,,,,
7826,1469909086539,,,,,,,-0.15,0.78,1.03,-19.8,0.3,0.2,2840,2827,,,,,,,,,,,,,,,,,
7846,1469909086559,0,229.3,184.4,56,186.4,,-0.16,0.81,1.03,-20.2,1.6,0.3,2820,2816,1.001,4,39.543602,-122.328552,48.47,0.036,285.3,8,2,1.8,0,0.0,-1,0.0,0.0,0.0,0
7866,1469909086579,,,,,,,-0.15,0.82,1.07,-20.6,2.2,0.4,2840,2827,,,,,,,,,,,,,,,,,
7886,1469909086600,,,,,,,-0.15,0.77,1.05,-20.8,2.6,0.6,2840,2847,,,,,,,,,,,,,,,,,
7906,1469909086620,,,,,,,-0.12,0.66,0.99,-20.2,1.1,0.6,2840,2847,,,,,,,,,,,,,,,,,
7926,1469909086640,,,,,,,-0.1,0.65,1.02,-19.7,0.3,0.3,2840,2838,,,,,,,,,,,,,,,,,
7946,1469909086660,,,,40,,,-0.1,0.74,1.08,-19.7,-0.4,-0.1,2840,2858,0.994,4,39.543621,-122.328568,48.58,0.038,285.5,8,2,1.8,0,0.0,-1,0.0,,0.0,0
7966,1469909086680,,,,,,,-0.13,0.79,1.03,-19.9,-1.0,-0.4,2860,2858,,,,,,,,,,,,,,,,,
7986,1469909086700,,,,,,,-0.16,0.81,0.99,-20.2,-0.9,-0.4,2820,2858,,,,,,,,,,,,,,,,,
8006,1469909086720,,,,,,,-0.19,0.8,0.96,-20.3,-0.6,0.1,2840,2838,,,,,,,,,,,,,,,,,
8026,1469909086740,,,,,,,-0.19,0.7,0.91,-19.8,-0.2,0.4,2840,2827,,,,,,,,,,,,,,,,,
8046,1469909086760,0,229.4,184.8,61,186.6,13.78,-0.19,0.66,0.92,-19.2,0.7,0.2,2860,2847,1.001,4,39.54364,-122.328575,48.8,0.039,285.8,8,2,1.8,0,0.0,-1,0.0,0.0,0.0,0
8066,1469909086780,,,,,,,-0.17,0.71,0.93,-19.0,1.8,-0.2,2820,2880,,,,,,,,,,,,,,,,,
8086,1469909086902,,,,,,,-0.14,0.75,0.96,-18.9,2.1,-0.4,2860,2890,,,,,,,,,,,,,,,,,
8106,1469909086922,,,,,,,-0.11,0.8,0.99,-19.3,2.2,-0.4,2840,2912,,,,,,,,,,,,,,,,,
8126,1469909086942,,,,,,,-0.1,0.86,0.96,-19.6,1.6,-0.3,2880,2890,,,,,,,,,,,,,,,,,
8146,1469909086962,,,,49,,,-0.09,0.85,0.94,-19.6,0.0,0.3,2860,2880,0.994,4,39.543674,-122.328606,49.38,0.042,286.3,8,2,1.8,0,0.0,-1,0.0,,0.0,0
8166,1469909086982,,,,,,,-0.1,0.77,0.92,-19.3,-1.2,0.8,2860,2880,,,,,,,,,,,,,,,,,
8186,1469909087002,,,,,,,-0.14,0.73,0.93,-19.0,-1.8,0.9,2880,2880,,,,,,,,,,,,,,,,,
8206,1469909087022,,,,,,,-0.15,0.72,0.92,-18.5,-2.2,0.7,2860,2880,,,,,,,,,,,,,,,,,
8226,1469909087042,,,,,,,-0.2,0.74,1.0,-18.5,-1.4,0.7,2860,2880,,,,,,,,,,,,,,,,,
8246,1469909087062,0,229.1,185.0,54,187.0,,-0.19,0.76,1.06,-18.8,-0.2,0.6,2900,2880,0.997,4,39.543674,-122.328606,49.38,0.042,286.3,8,2,1.8,0,0.0,-1,0.0,0.0,0.0,0
8266,1469909087082,,,,,,,-0.2,0.77,1.08,-19.3,1.5,0.9,2940,2880,,,,,,,,,,,,,,,,,
8286,1469909087002,,,,,,,-0.21,0.77,1.13,-19.7,2.9,1.0,2880,2869,,,,,,,,,,,,,,,,,
8306,1469909087022,,,,,,,-0.19,0.77,1.1,-20.1,3.9,1.0,2900,2890,,,,,,,,,,,,,,,,,
8326,1469909087042,,,,,,,-0.21,0.74,1.06,-20.3,4.7,1.3,2880,2901,,,,,,,,,,,,,,,,,
8346,1469909087062,,,,78,,,-0.16,0.71,1.05,-20.1,3.7,1.3,2940,2901,1.01,4,39.54369,-122.328613,49.51,0.043,286.5,8,2,1.8,0,0.0,-1,0.0,,0.0,0
8366,1469909087082,,,,,,,-0.12,0.69,1.01,-19.6,3.5,1.1,2880,2924,,,,,,,,,,,,,,,,,
8386,1469909087102,,,,,,,-0.07,0.71,1.02,-19.1,2.1,0.6,2920,2912,,,,,,,,,,,,,,,,,
8406,1469909087122,,,,,,,-0.02,0.7,1.03,-18.8,1.2,0.2,2900,2935,,,,,,,,,,,,,,,,,
8426,1469909087142,,,,,,,-0.02,0.74,1.02,-18.5,0.7,-0.3,2920,2935,,,,,,,,,,,,,,,,,
8446,1469909087162,0,228.7,185.5,41,187.4,,-0.04,0.79,1.08,-18.6,0.1,-0.8,2900,2946,1.0,4,39.543709,-122.328629,49.64,0.045,286.7,8,2,1.8,0,0.0,-1,0.0,0.0,0.0,0
8466,1469909087182,,,,,,,-0.06,0.83,1.05,-18.8,-0.3,-1.0,2940,2935,,,,,,,,,,,,,,,,,
8486,1469909087202,,,,,,,-0.1,0.85,1.01,-18.9,-0.5,-1.1,2900,2935,,,,,,,,,,,,,,,,,
8506,1469909087222,,,,,,,-0.15,0.88,1.0,-19.4,-0.8,-1.1,2900,2924,,,,,,,,,,,,,,,,,
8526,1469909087242,,,,,,,-0.19,0.91,0.98,-19.6,-0.7,-1.3,2880,2924,,,,,,,,,,,,,,,,,
8546,1469909087262,,,,53,,,-0.22,0.84,0.96,-19.5,-0.9,-1.4,2940,2924,1.003,4,39.543724,-122.328644,49.8,0.046,287.0,8,2,1.8,0,0.0,-1,0.0,,0.0,0
8566,1469909087282,,,,,,,-0.26,0.77,0.97,-19.1,-0.6,-1.4,2900,2935,,,,,,,,,,,,,,,,,
8586,1469909087302,,,,,,,-0.27,0.72,0.93,-18.7,0.4,-1.4,2920,2935,,,,,,,,,,,,,,,,,
8606,1469909087322,,,,,,,-0.28,0.66,0.89,-18.3,1.4,-1.2,2920,2958,,,,,,,,,,,,,,,,,
8626,1469909087342,,,,,,,-0.3,0.58,0.81,-17.8,1.5,-0.9,2960,2958,,,,,,,,,,,,,,,,,
8646,1469909087362,0,228.8,185.6,52,187.5,,-0.29,0.51,0.78,-17.4,2.3,-0.8,2960,2924,0.991,4,39.543743,-122.328651,50.3,0.047,287.3,8,2,1.8,0,0.0,-1,0.0,0.0,0.0,0
8666,1469909087382,,,,,,,-0.28,0.49,0.75,-17.1,2.4,-0.7,2980,2969,,,,,,,,,,,,,,,,,
8686,1469909087401,,,,,,,-0.24,0.49,0.73,-17.1,2.6,-0.4,2920,2969,,,,,,,,,,,,,,,,,
8706,1469909087421,,,,,,,-0.23,0.5,0.77,-17.2,3.0,-0.2,2960,2958,,,,,,,,,,,,,,,,,
8726,1469909087441,,,,,,,-0.18,0.5,0.77,-17.3,3.2,0.0,2980,2946,,,,,,,,,,,,,,,,,
8746,1469909087461,,,,42,,,-0.16,0.54,0.83,-17.7,3.6,-0.0,2960,2980,0.987,4,39.543762,-122.328682,50.65,0.049,287.6,8,2,1.8,0,0.0,-1,0.0,,0.0,0
8766,1469909087481,,,,,,,-0.13,0.62,0.88,-18.0,3.7,0.1,2920,2980,,,,,,,,,,,,,,,,,
8786,1469909087499,,,,,,,-0.09,0.7,0.93,-18.2,4.4,-0.0,2980,2980,,,,,,,,,,,,,,,,,
8806,1469909087519,,,,,,,-0.04,0.77,0.97,-18.3,4.3,-0.1,2940,2980,,,,,,,,,,,,,,,,,
8826,1469909087539,,,,,,,-0.01,0.88,1.01,-18.6,5.6,-0.3,2980,2980,,,,,,,,,,,,,,,,,
8846,1469909087559,1,229.7,184.7,37,186.5,,0.02,0.94,1.02,-18.8,5.6,-0.5,2940,2980,1.004,4,39.543777,-122.32869,50.9,0.05,288.0,8,2,1.8,0,0.0,-1,0.0,0.0,0.0,0
8866,1469909087579,,,,,,,0.06,0.96,0.98,-18.9,5.5,-0.6,3000,3004,,,,,,,,,,,,,,,,,
8886,1469909087698,,,,,,,0.07,0.99,1.01,-19.1,4.9,-0.9,2940,3004,,,,,,,,,,,,,,,,,
8906,1469909087718,,,,,,,0.08,1.03,0.97,-19.3,4.7,-1.2,3000,3004,,,,,,,,,,,,,,,,,
8926,1469909087738,,,,,,,0.08,1.07,0.98,-19.3,4.2,-1.4,2900,3027,,,,,,,,,,,,,,,,,
8946,1469909087758,,,,59,,,0.08,1.09,0.96,-19.4,3.4,-1.4,3000,3004,1.0,4,39.543808,-122.328728,51.47,0.053,288.4,8,2,1.8,0,0.0,-1,0.0,,0.0,0
8966,1469909087778,,,,,,,0.09,1.1,0.96,-19.2,3.0,-1.5,2940,3027,,,,,,,,,,,,,,,,,
8986,1469909087798,,,,,,,0.1,1.12,0.94,-19.2,2.9,-1.5,2980,3004,,,,,,,,,,,,,,,,,
9006,1469909087818,,,,,,,0.1,1.11,0.97,-19.1,3.0,-1.6,2940,3027,,,,,,,,,,,,,,,,,
9026,1469909087838,,,,,,,0.1,1.1,0.95,-19.0,2.3,-1.8,3000,3027,,,,,,,,,,,,,,,,,
9046,1469909087858,0,229.2,184.3,58,186.3,13.76,0.09,1.11,0.98,-18.8,2.7,-1.9,3060,3027,1.0,4,39.543808,-122.328728,51.47,0.053,288.4,8,2,1.8,0,0.0,-1,0.0,0.0,0.0,0
9066,1469909087878,,,,,,,0.1,1.09,0.99,-18.5,2.2,-2.0,2960,3015,,,,,,,,,,,,,,,,,
9086,1469909087800,,,,,,,0.11,1.07,1.0,-18.3,2.7,-2.3,3000,3040,,,,,,,,,,,,,,,,,
9106,1469909087820,,,,,,,0.1,1.11,1.02,-18.2,3.2,-2.3,3060,3027,,,,,,,,,,,,,,,,,
9126,1469909087840,,,,,,,0.11,1.07,1.05,-17.9,3.6,-2.5,3000,3040,,,,,,,,,,,,,,,,,
9146,1469909087860,,,,50,,,0.12,1.03,1.06,-17.3,3.8,-2.7,3020,3015,1.022,4,39.543823,-122.328743,51.81,0.055,288.3,8,2,1.8,0,0.0,-1,0.0,,0.0,0
9166,1469909087880,,,,,,,0.15,0.99,1.08,-16.8,3.5,-3.0,3040,3040,,,,,,,,,,,,,,,,,
9186,1469909087895,,,,,,,0.16,1.01,1.11,-16.4,3.9,-3.2,2980,3040,,,,,,,,,,,,,,,,,
9206,1469909087915,,,,,,,0.21,0.98,1.14,-16.0,4.0,-3.4,3020,3027,,,,,,,,,,,,,,,,,
9226,1469909087935,,,,,,,0.22,0.96,1.17,-15.5,4.2,-3.5,3080,3015,,,,,,,,,,,,,,,,,
9246,1469909087955,0,228.6,185.8,45,187.7,,0.28,0.91,1.15,-14.7,3.7,-3.8,3060,3040,0.995,4,39.543838,-122.328766,51.94,0.056,288.4,8,2,1.8,0,0.0,-1,0.0,0.0,0.0,0
9266,1469909087975,,,,,,,0.3,0.87,1.14,-14.0,4.3,-4.0,3040,3052,,,,,,,,,,,,,,,,,
9286,1469909088002,,,,,,,0.32,0.81,1.16,-13.3,4.7,-4.2,3020,3040,,,,,,,,,,,,,,,,,
9306,1469909088022,,,,,,,0.3,0.78,1.1,-12.8,5.8,-4.3,3040,3040,,,,,,,,,,,,,,,,,
9326,1469909088042,,,,,,,0.29,0.75,1.09,-12.3,5.4,-4.3,3040,3027,,,,,,,,,,,,,,,,,
9346,1469909088062,,,,49,,,0.27,0.69,1.02,-11.5,6.5,-4.2,3040,3064,1.018,4,39.543854,-122.328781,52.43,0.058,288.3,8,2,1.8,0,0.0,-1,0.0,,0.0,0
9366,1469909088082,,,,,,,0.25,0.61,1.01,-10.7,6.8,-4.3,3080,3040,,,,,,,,,,,,,,,,,
9386,1469909088102,,,,,,,0.21,0.57,0.94,-10.0,7.2,-4.3,3080,3040,,,,,,,,,,,,,,,,,
9406,1469909088122,,,,,,,0.18,0.54,0.9,-9.3,7.3,-4.4,3060,3064,,,,,,,,,,,,,,,,,
9426,1469909088142,,,,,,,0.14,0.5,0.86,-8.7,8.3,-4.4,3060,3064,,,,,,,,,,,,,,,,,
9446,1469909088162,0,229.5,185.3,48,187.2,,0.1,0.44,0.81,-8.1,8.7,-4.3,3060,3052,0.976,4,39.543869,-122.328804,52.68,0.059,288.0,8,2,1.8,0,0.0,-1,0.0,0.0,0.0,0
9466,1469909088182,,,,,,,0.05,0.41,0.81,-7.6,9.2,-4.0,3020,3089,,,,,,,,,,,,,,,,,
9486,1469909088202,,,,,,,-0.0,0.34,0.79,-7.3,8.8,-3.6,3100,3064,,,,,,,,,,,,,,,,,
9506,1469909088222,,,,,,,-0.08,0.32,0.84,-7.1,8.6,-3.4,3080,3064,,,,,,,,,,,,,,,,,
9526,1469909088242,,,,,,,-0.13,0.31,0.84,-6.9,7.7,-3.0,3060,3076,,,,,,,,,,,,,,,,,
9546,1469909088262,,,,58,,,-0.18,0.29,0.88,-6.9,7.2,-2.8,3040,3101,0.988,4,39.54388,-122.328819,52.93,0.06,287.7,8,2,1.8,0,0.0,-1,0.0,,0.0,0
9566,1469909088282,,,,,,,-0.2,0.28,0.92,-6.8,6.1,-2.7,3120,3089,,,,,,,,,,,,,,,,,
9586,1469909088302,,,,,,,-0.23,0.24,0.94,-6.8,4.9,-2.4,3040,3089,,,,,,,,,,,,,,,,,
9606,1469909088322,,,,,,,-0.22,0.19,0.92,-6.6,2.7,-2.4,3060,3076,,,,,,,,,,,,,,,,,
9626,1469909088342,,,,,,,-0.22,0.19,0.93,-6.5,0.9,-2.1,3080,3113,,,,,,,,,,,,,,,,,
9646,1469909088362,0,229.4,184.7,43,186.8,,-0.22,0.14,0.92,-6.2,-1.1,-1.8,3080,3089,1.005,4,39.5439,-122.32885,53.24,0.063,287.3,8,2,1.8,0,0.0,-1,0.0,0.0,0.0,0
9666,1469909088382,,,,,,,-0.21,0.14,0.95,-5.9,-1.8,-1.5,3060,3089,,,,,,,,,,,,,,,,,
9686,1469909088499,,,,,,,-0.19,0.15,0.91,-5.5,-2.7,-1.7,3120,3076,,,,,,,,,,,,,,,,,
9706,1469909088519,,,,,,,-0.16,0.16,0.96,-5.2,-2.8,-1.7,3060,3101,,,,,,,,,,,,,,,,,
9726,1469909088539,,,,,,,-0.13,0.16,0.97,-4.9,-2.7,-1.5,3080,3089,,,,,,,,,,,,,,,,,
9746,1469909088559,,,,58,,,-0.1,0.13,0.98,-4.6,-1.3,-1.4,3040,3076,0.988,4,39.543926,-122.328888,53.6,0.065,286.7,8,2,1.8,0,0.0,-1,0.0,,0.0,0
9766,1469909088579,,,,,,,-0.09,0.11,0.98,-4.3,-0.8,-1.2,3060,3076,,,,,,,,,,,,,,,,,
9786,1469909088599,,,,,,,-0.07,0.09,0.99,-4.0,0.9,-1.1,3180,3101,,,,,,,,,,,,,,,,,
9806,1469909088619,,,,,,,-0.09,0.05,1.06,-3.8,1.8,-1.4,3080,3089,,,,,,,,,,,,,,,,,
9826,1469909088639,,,,,,,-0.08,0.04,1.15,-3.9,3.6,-1.4,3100,3076,,,,,,,,,,,,,,,,,
9846,1469909088659,0,229.0,185.3,52,187.1,,-0.09,0.04,1.17,-4.0,3.9,-1.3,3080,3064,0.997,4,39.543926,-122.328888,53.6,0.065,286.7,8,2,1.8,0,0.0,-1,0.0,0.0,0.0,0
9866,1469909088679,,,,,,,-0.1,0.03,1.19,-3.9,4.5,-1.2,3060,3064,,,,,,,,,,,,,,,,,
9886,1469909088599,,,,,,,-0.11,0.02,1.2,-3.8,3.8,-1.2,3040,3064,,,,,,,,,,,,,,,,,
9906,1469909088619,,,,,,,-0.1,0.0,1.15,-3.7,3.5,-1.0,3040,3089,,,,,,,,,,,,,,,,,
9926,1469909088639,,,,,,,-0.12,-0.01,1.15,-3.5,2.3,-0.9,3060,3089,,,,,,,,,,,,,,,,,
9946,1469909088659,,,,77,,,-0.14,-0.02,1.1,-3.3,1.7,-0.8,3100,3113,1.014,4,39.543942,-122.328911,53.84,0.067,286.6,8,2,1.8,0,0.0,-1,0.0,,0.0,0
9966,1469909088679,,,,,,,-0.14,-0.04,1.07,-2.9,0.4,-0.8,3060,3076,,,,,,,,,,,,,,,,,
9986,1469909088699,,,,,,,-0.13,-0.04,1.05,-2.6,0.0,-0.8,3100,3113,,,,,,,,,,,,,,,,,
10006,1469909088719,,,,,,,-0.11,-0.02,1.06,-2.5,-1.0,-0.9,3120,3113,,,,,,,,,,,,,,,,,
10026,1469909088739,,,,,,,-0.09,-0.01,1.01,-2.4,-1.5,-1.0,3020,3101,,,,,,,,,,,,,,,,,
10046,1469909088759,0,228.9,185.6,60,187.3,13.82,-0.1,0.01,0.99,-2.4,-1.7,-1.1,3100,3076,0.991,4,39.543957,-122.328926,53.87,0.068,286.4,8,2,1.8,0,0.0,-1,0.0,0.0,0.0,0
10066,1469909088779,,,,,,,-0.09,0.04,0.97,-2.4,-1.2,-1.3,3120,3101,,,,,,,,,,,,,,,,,
10086,1469909088802,,,,,,,-0.05,0.08,0.98,-2.6,-0.9,-1.4,3080,3089,,,,,,,,,,,,,,,,,
10106,1469909088822,,,,,,,-0.01,0.11,0.99,-2.7,-0.5,-1.3,3100,3089,,,,,,,,,,,,,,,,,
10126,1469909088842,,,,,,,0.02,0.14,0.97,-2.6,0.1,-1.3,3040,3064,,,,,,,,,,,,,,,,,
10146,1469909088862,,,,66,,,0.06,0.15,0.97,-2.5,0.6,-1.3,3020,3089,1.016,4,39.543968,-122.328949,54.09,0.07,286.3,8,2,1.8,0,0.0,-1,0.0,,0.0,0
10166,1469909088882,,,,,,,0.06,0.14,0.96,-2.5,1.3,-1.3,3080,3064,,,,,,,,,,,,,,,,,
10186,1469909088895,,,,,,,0.06,0.11,0.93,-2.2,1.4,-1.2,3100,3076,,,,,,,,,,,,,,,,,
10206,1469909088915,,,,,,,0.03,0.06,0.85,-1.9,1.9,-1.0,3100,3052,,,,,,,,,,,,,,,,,
10226,1469909088935,,,,,,,0.03,0.05,0.84,-1.6,2.5,-0.9,3000,3064,,,,,,,,,,,,,,,,,
10246,1469909088955,0,229.1,184.3,58,186.9,,0.0,0.01,0.81,-1.5,2.6,-0.7,3000,3064,0.988,4,39.543983,-122.328972,54.04,0.071,286.2,8,2,1.8,0,0.0,-1,0.0,0.0,0.0,0
10266,1469909088975,,,,,,,-0.01,-0.03,0.81,-1.4,2.9,-0.6,3120,3040,,,,,,,,,,,,,,,,,
10286,1469909089002,,,,,,,-0.04,-0.05,0.86,-1.3,3.1,-0.4,3020,3089,,,,,,,,,,,,,,,,,
10306,1469909089022,,,,,,,-0.05,-0.04,0.89,-1.5,3.2,-0.4,3020,3089,,,,,,,,,,,,,,,,,
10326,1469909089042,,,,,,,-0.06,-0.02,0.91,-1.7,2.6,-0.4,3060,3089,,,,,,,,,,,,,,,,,
10346,1469909089062,,,,54,,,-0.06,0.0,0.95,-1.8,2.4,-0.3,3100,3064,0.974,4,39.543999,-122.328987,54.11,0.073,286.2,8,2,1.8,0,0.0,-1,0.0,,0.0,0
10366,1469909089082,,,,,,,-0.07,0.01,0.94,-1.9,1.6,-0.3,3020,3089,,,,,,,,,,,,,,,,,
10386,1469909089102,,,,,,,-0.06,0.02,0.95,-1.9,1.1,-0.2,3080,3076,,,,,,,,,,,,,,,,,
10406,1469909089122,,,,,,,-0.05,0.03,0.97,-1.9,0.2,-0.2,3040,3089,,,,,,,,,,,,,,,,,
10426,1469909089142,,,,,,,-0.05,0.03,0.94,-2.0,-0.4,0.1,3040,3064,,,,,,,,,,,,,,,,,
10446,1469909089162,0,227.6,182.8,55,188.7,,-0.05,0.01,0.97,-1.8,-0.9,0.1,3080,3076,1.008,4,39.544014,-122.32901,54.2,0.074,286.2,8,2,1.8,0,0.0,-1,0.0,0.0,0.0,0
10466,1469909089182,,,,,,,-0.05,-0.01,0.95,-1.7,-0.5,0.2,3080,3076,,,,,,,,,,,,,,,,,
10486,1469909089301,,,,,,,-0.03,-0.01,0.98,-1.6,-0.7,0.1,3000,3076,,,,,,,,,,,,,,,,,
10506,1469909089321,,,,,,,-0.02,-0.02,0.98,-1.5,-0.7,-0.0,3000,3064,,,,,,,,,,,,,,,,,
10526,1469909089341,,,,,,,-0.02,-0.05,0.96,-1.5,-0.4,0.0,3060,3076,,,,,,,,,,,,,,,,,
10546,1469909089361,,,,39,,,-0.0,-0.04,0.98,-1.5,0.3,0.2,3100,3076,0.996,4,39.544041,-122.329048,53.93,0.077,286.5,8,2,1.8,0,0.0,-1,0.0,,0.0,0
10566,1469909089381,,,,,,,-0.0,-0.05,0.99,-1.6,0.7,0.1,3100,3040,,,,,,,,,,,,,,,,,
10586,1469909089401,,,,,,,0.0,-0.03,1.03,-1.9,1.0,0.2,3040,3052,,,,,,,,,,,,,,,,,
10606,1469909089421,,,,,,,0.0,-0.05,1.07,-2.1,1.6,0.3,3100,3076,,,,,,,,,,,,,,,,,
10626,1469909089441,,,,,,,-0.01,-0.05,1.11,-2.2,2.2,0.0,3040,3052,,,,,,,,,,,,,,,,,
10646,1469909089461,0,229.1,184.8,44,187.3,,-0.0,-0.05,1.13,-2.3,2.4,-0.2,3080,3052,0.996,4,39.544041,-122.329048,53.93,0.077,286.5,8,2,1.8,0,0.0,-1,0.0,0.0,0.0,0
10666,1469909089481,,,,,,,0.01,-0.03,1.17,-2.4,2.9,-0.1,3020,3076,,,,,,,,,,,,,,,,,
10686,1469909089400,,,,,,,-0.0,-0.0,1.19,-2.5,3.3,-0.2,3080,3064,,,,,,,,,,,,,,,,,
10706,1469909089420,,,,,,,0.01,-0.01,1.19,-2.5,3.1,-0.2,3060,3040,,,,,,,,,,,,,,,,,
10726,1469909089440,,,,,,,0.01,0.01,1.17,-2.4,2.9,-0.2,2980,3076,,,,,,,,,,,,,,,,,
10746,1469909089460,,,,53,,,-0.0,0.01,1.17,-2.4,2.2,-0.3,3080,3064,0.982,4,39.54406,-122.329079,54.01,0.079,286.7,8,2,1.8,0,0.0,-1,0.0,,0.0,0
10766,1469909089480,,,,,,,-0.02,0.0,1.11,-2.2,1.8,-0.4,2960,3076,,,,,,,,,,,,,,,,,
10786,1469909089500,,,,,,,-0.02,0.01,1.13,-2.2,1.2,-0.4,3040,3064,,,,,,,,,,,,,,,,,
10806,1469909089520,,,,,,,-0.02,-0.01,1.08,-2.1,0.4,-0.2,3060,3064,,,,,,,,,,,,,,,,,
10826,1469909089540,,,,,,,-0.02,-0.0,1.09,-1.9,-0.1,-0.1,3080,3064,,,,,,,,,,,,,,,,,
10846,1469909089560,0,229.1,185.2,51,187.0,,-0.02,-0.01,1.05,-1.9,-0.9,0.0,3100,3064,1.013,4,39.544071,-122.329102,53.87,0.081,286.9,8,2,1.8,0,0.0,-1,0.0,0.0,0.0,0
10866,1469909089580,,,,,,,-0.01,-0.02,1.03,-1.8,-1.4,0.2,3000,3052,,,,,,,,,,,,,,,,,
10886,1469909089598,,,,,,,-0.02,-0.02,1.0,-1.8,-2.2,0.1,3000,3076,,,,,,,,,,,,,,,,,
10906,1469909089618,,,,,,,-0.01,0.01,0.97,-1.9,-2.5,0.1,3000,3076,,,,,,,,,,,,,,,,,
10926,1469909089638,,,,,,,-0.02,0.03,0.96,-2.1,-2.3,0.2,3040,3064,,,,,,,,,,,,,,,,,
10946,1469909089658,,,,52,,,0.01,0.04,0.95,-2.3,-2.1,0.2,3060,3064,0.983,4,39.544086,-122.329117,53.8,0.082,287.1,8,2,1.8,0,0.0,-1,0.0,,0.0,0
10966,1469909089678,,,,,,,0.02,0.06,0.94,-2.4,-2.1,0.0,3060,3076,,,,,,,,,,,,,,,,,
10986,1469909089700,,,,,,,0.05,0.09,0.94,-2.4,-1.8,-0.1,3000,3040,,,,,,,,,,,,,,,,,
11006,1469909089720,,,,,,,0.09,0.1,0.96,-2.5,-1.7,-0.1,3100,3064,,,,,,,,,,,,,,,,,
11026,1469909089740,,,,,,,0.13,0.11,0.97,-2.4,-0.9,-0.2,3040,3052,,,,,,,,,,,,,,,,,
11046,1469909089760,0,228.6,184.3,48,187.0,13.82,0.15,0.11,0.96,-2.3,-0.8,-0.4,3020,3040,0.98,4,39.544098,-122.32914,53.73,0.084,287.3,8,2,1.8,0,0.0,-1,0.0,0.0,0.0,0
11066,1469909089780,,,,,,,0.18,0.14,0.97,-2.2,-0.5,-0.5,2960,3064,,,,,,,,,,,,,,,,,
11086,1469909089802,,,,,,,0.19,0.13,0.99,-2.1,-0.1,-0.6,3060,3052,,,,,,,,,,,,,,,,,
11106,1469909089822,,,,,,,0.18,0.12,0.99,-2.0,0.6,-0.4,3100,3040,,,,,,,,,,,,,,,,,
11126,1469909089842,,,,,,,0.17,0.1,0.99,-1.8,1.3,-0.5,3080,3064,,,,,,,,,,,,,,,,,
11146,1469909089862,,,,50,,,0.17,0.09,0.95,-1.6,2.2,-0.6,3040,3052,1.004,4,39.544117,-122.329155,53.76,0.085,287.5,8,2,1.8,0,0.0,-1,0.0,,0.0,0
11166,1469909089882,,,,,,,0.16,0.08,0.95,-1.5,2.6,-0.5,3000,3027,,,,,,,,,,,,,,,,,
11186,1469909089896,,,,,,,0.15,0.06,0.92,-1.3,2.9,-0.4,3080,3052,,,,,,,,,,,,,,,,,
11206,1469909089916,,,,,,,0.11,0.03,0.89,-1.2,3.5,-0.4,3060,3040,,,,,,,,,,,,,,,,,
11226,1469909089936,,,,,,,0.09,0.03,0.87,-1.1,4.1,-0.4,2960,3015,,,,,,,,,,,,,,,,,
11246,1469909089956,0,228.6,184.3,52,187.0,,0.07,0.02,0.83,-1.1,4.1,-0.4,3060,3027,1.013,4,39.544132,-122.329178,53.63,0.087,287.7,8,2,1.8,0,0.0,-1,0.0,0.0,0.0,0
11266,1469909089976,,,,,,,0.05,0.01,0.79,-1.1,4.1,-0.5,3000,3040,,,,,,,,,,,,,,,,,
11286,1469909090102,,,,,,,0.04,0.0,0.77,-1.1,4.2,-0.7,3100,3064,,,,,,,,,,,,,,,,,
11306,1469909090122,,,,,,,0.02,-0.01,0.79,-1.2,4.0,-0.7,3060,3040,,,,,,,,,,,,,,,,,
11326,1469909090142,,,,,,,0.03,-0.04,0.76,-1.2,3.3,-0.6,3060,3027,,,,,,,,,,,,,,,,,
11346,1469909090162,,,,58,,,0.01,-0.04,0.79,-1.3,2.3,-0.4,3100,3064,0.975,4,39.544159,-122.329216,53.58,0.09,288.1,8,2,1.8,0,0.0,-1,0.0,,0.0,0
11366,1469909090182,,,,,,,-0.02,-0.03,0.77,-1.5,1.8,-0.1,3020,3040,,,,,,,,,,,,,,,,,
11386,1469909090202,,,,,,,-0.05,-0.04,0.79,-1.8,0.7,0.1,2960,3040,,,,,,,,,,,,,,,,,
11406,1469909090222,,,,,,,-0.08,-0.03,0.8,-2.1,0.1,0.0,3040,3027,,,,,,,,,,,,,,,,,
11426,1469909090242,,,,,,,-0.11,-0.02,0.82,-2.3,-0.7,-0.0,3040,3064,,,,,,,,,,,,,,,,,
11446,1469909090262,0,229.2,185.1,52,187.1,,-0.12,-0.0,0.84,-2.5,-1.1,0.0,3040,3064,1.012,4,39.544159,-122.329216,53.58,0.09,288.1,8,2,1.8,0,0.0,-1,0.0,0.0,0.0,0
11466,1469909090282,,,,,,,-0.13,-0.01,0.86,-2.6,-1.9,-0.0,3000,3040,,,,,,,,,,,,,,,,,
11486,1469909090202,,,,,,,-0.13,0.01,0.89,-2.7,-2.0,-0.1,3080,3064,,,,,,,,,,,,,,,,,
11506,1469909090222,,,,,,,-0.14,0.02,0.9,-2.8,-2.7,-0.3,2940,3064,,,,,,,,,,,,,,,,,
11526,1469909090242,,,,,,,-0.14,0.02,0.93,-3.0,-2.4,-0.5,3120,3076,,,,,,,,,,,,,,,,,
11546,1469909090262,,,,47,,,-0.12,0.03,0.94,-3.0,-3.2,-0.7,3040,3076,1.018,4,39.544174,-122.329247,53.55,0.092,288.3,8,2,1.8,0,0.0,-1,0.0,,0.0,0
11566,1469909090282,,,,,,,-0.11,0.04,0.96,-3.0,-3.4,-0.7,3020,3052,,,,,,,,,,,,,,,,,
11586,1469909090303,,,,,,,-0.09,0.04,0.96,-2.9,-3.9,-0.8,3060,3064,,,,,,,,,,,,,,,,,
11606,1469909090323,,,,,,,-0.07,0.0,0.95,-2.7,-3.9,-0.6,3060,3076,,,,,,,,,,,,,,,,,
11626,1469909090343,,,,,,,-0.06,-0.01,0.98,-2.4,-4.4,-0.5,3060,3040,,,,,,,,,,,,,,,,,
11646,1469909090363,0,228.9,184.6,58,187.1,,-0.06,-0.03,0.95,-2.3,-4.2,-0.3,3080,3064,0.992,4,39.544189,-122.329254,53.37,0.093,288.4,8,2,1.8,0,0.0,-1,0.0,0.0,0.0,0
11666,1469909090383,,,,,,,-0.05,-0.03,0.97,-2.0,-4.6,-0.3,3100,3064,,,,,,,,,,,,,,,,,
11686,1469909090401,,,,,,,-0.02,-0.06,0.95,-1.8,-4.5,-0.3,3040,3027,,,,,,,,,,,,,,,,,
11706,1469909090421,,,,,,,-0.01,-0.08,0.96,-1.7,-4.4,-0.2,3020,3052,,,,,,,,,,,,,,,,,
11726,1469909090441,,,,,,,-0.01,-0.08,0.93,-1.7,-4.0,0.1,3000,3040,,,,,,,,,,,,,,,,,
11746,1469909090461,,,,51,,,-0.0,-0.09,0.91,-1.7,-3.3,0.1,3000,3027,0.974,4,39.544205,-122.329285,53.32,0.095,288.6,8,2,1.8,0,0.0,-1,0.0,,0.0,0
11766,1469909090481,,,,,,,0.02,-0.09,0.94,-1.9,-3.0,0.2,3060,3040,,,,,,,,,,,,,,,,,
11786,1469909090501,,,,,,,0.02,-0.1,0.94,-2.0,-2.1,0.2,3020,3040,,,,,,,,,,,,,,,,,
11806,1469909090521,,,,,,,0.03,-0.08,0.97,-2.1,-1.3,0.2,3080,3052,,,,,,,,,,,,,,,,,
11826,1469909090541,,,,,,,0.01,-0.07,1.02,-2.2,-0.2,0.1,3060,3040,,,,,,,,,,,,,,,,,
11846,1469909090561,0,229.4,185.2,50,186.6,,0.02,-0.05,1.07,-2.5,0.3,0.0,3020,3040,1.003,4,39.544216,-122.329292,53.34,0.096,288.8,8,2,1.8,0,0.0,-1,0.0,0.0,0.0,0
11866,1469909090581,,,,,,,0.02,-0.04,1.06,-2.7,1.5,-0.1,3020,3052,,,,,,,,,,,,,,,,,
11886,1469909090600,,,,,,,0.03,-0.02,1.1,-3.0,1.8,-0.1,3080,3052,,,,,,,,,,,,,,,,,
11906,1469909090620,,,,,,,0.01,-0.01,1.14,-3.2,2.6,-0.1,2980,3064,,,,,,,,,,,,,,,,,
11926,1469909090640,,,,,,,-0.01,0.0,1.18,-3.3,2.8,-0.1,3000,3040,,,,,,,,,,,,,,,,,
11946,1469909090660,,,,56,,,-0.03,0.02,1.22,-3.5,3.2,-0.3,3100,3040,0.99,4,39.544235,-122.329323,53.37,0.098,289.0,8,2,1.8,0,0.0,-1,0.0,,0.0,0
11966,1469909090680,,,,,,,-0.04,0.03,1.24,-3.6,3.4,-0.3,3020,3064,,,,,,,,,,,,,,,,,
11986,1469909090700,,,,,,,-0.04,0.04,1.21,-3.5,3.2,-0.6,3020,3064,,,,,,,,,,,,,,,,,
12006,1469909090720,,,,,,,-0.06,0.03,1.2,-3.3,2.4,-0.6,3080,3064,,,,,,,,,,,,,,,,,
12026,1469909090740,,,,,,,-0.07,0.01,1.15,-3.2,1.8,-0.6,3120,3089,,,,,,,,,,,,,,,,,
12046,1469909090760,0,229.2,184.9,45,187.0,13.73,-0.07,-0.0,1.14,-3.0,0.8,-0.5,3060,3064,1.021,4,39.544247,-122.329346,53.43,0.099,289.2,8,2,1.8,0,0.0,-1,0.0,0.0,0.0,0
12066,1469909090780,,,,,,,-0.07,-0.0,1.07,-2.8,-0.4,-0.4,3060,3076,,,,,,,,,,,,,,,,,
12086,1469909090902,,,,,,,-0.08,-0.02,1.04,-2.7,-1.8,-0.3,3040,3076,,,,,,,,,,,,,,,,,
12106,1469909090922,,,,,,,-0.08,-0.03,1.01,-2.6,-2.3,-0.3,3100,3076,,,,,,,,,,,,,,,,,
12126,1469909090942,,,,,,,-0.07,-0.01,0.98,-2.6,-2.8,-0.3,3060,3089,,,,,,,,,,,,,,,,,
12146,1469909090962,,,,89,,,-0.05,-0.0,0.96,-2.7,-3.1,-0.3,3080,3101,1.003,4,39.544277,-122.329384,53.59,0.102,289.5,8,2,1.8,0,0.0,-1,0.0,,0.0,0
12166,1469909090982,,,,,,,-0.03,0.02,0.94,-2.8,-3.3,-0.5,3060,3089,,,,,,,,,,,,,,,,,
12186,1469909091002,,,,,,,-0.02,0.04,0.92,-2.9,-2.9,-0.4,3100,3076,,,,,,,,,,,,,,,,,
12206,1469909091022,,,,,,,0.01,0.08,0.93,-3.1,-2.1,-0.6,3020,3089,,,,,,,,,,,,,,,,,
12226,1469909091042,,,,,,,0.02,0.13,0.96,-3.4,-1.1,-0.9,3060,3089,,,,,,,,,,,,,,,,,
12246,1469909091062,0,229.7,185.7,59,186.6,,0.05,0.14,1.0,-3.5,-0.3,-1.0,3020,3076,0.984,4,39.544277,-122.329384,53.59,0.102,289.5,8,2,1.8,0,0.0,-1,0.0,0.0,0.0,0
12266,1469909091082,,,,,,,0.08,0.13,1.0,-3.3,0.4,-1.3,3000,3064,,,,,,,,,,,,,,,,,
12286,1469909091002,,,,,,,0.1,0.13,0.98,-3.1,1.5,-1.2,3040,3089,,,,,,,,,,,,,,,,,
12306,1469909091022,,,,,,,0.11,0.13,0.92,-3.0,1.7,-0.9,3160,3089,,,,,,,,,,,,,,,,,
12326,1469909091042,,,,,,,0.09,0.11,0.86,-2.8,1.9,-0.8,3060,3076,,,,,,,,,,,,,,,,,
12346,1469909091062,,,,50,,,0.07,0.07,0.8,-2.6,2.3,-0.7,3040,3064,0.984,4,39.544292,-122.329399,53.63,0.103,289.8,8,2,1.8,0,0.0,-1,0.0,,0.0,0
12366,1469909091082,,,,,,,0.03,0.06,0.78,-2.3,3.1,-0.7,3080,3076,,,,,,,,,,,,,,,,,
12386,1469909091103,,,,,,,0.01,0.06,0.75,-2.2,3.2,-0.7,3140,3064,,,,,,,,,,,,,,,,,
12406,1469909091123,,,,,,,-0.01,0.06,0.79,-2.3,2.9,-0.5,3060,3101,,,,,,,,,,,,,,,,,
12426,1469909091143,,,,,,,-0.03,0.05,0.8,-2.3,3.3,-0.3,3100,3064,,,,,,,,,,,,,,,,,
12446,1469909091163,0,229.1,184.7,86,186.3,,-0.05,0.07,0.81,-2.4,2.7,-0.3,3080,3089,0.98,4,39.544308,-122.329422,53.73,0.105,289.9,8,2,1.8,0,0.0,-1,0.0,0.0,0.0,0
12466,1469909091183,,,,,,,-0.05,0.06,0.84,-2.5,2.5,-0.3,3100,3089,,,,,,,,,,,,,,,,,
12486,1469909091202,,,,,,,-0.07,0.07,0.82,-2.7,1.4,-0.2,3000,3101,,,,,,,,,,,,,,,,,
12506,1469909091222,,,,,,,-0.08,0.05,0.86,-2.7,1.2,-0.3,3120,3076,,,,,,,,,,,,,,,,,
12526,1469909091242,,,,,,,-0.1,0.06,0.89,-2.8,0.1,-0.3,3060,3089,,,,,,,,,,,,,,,,,
12546,1469909091262,,,,63,,,-0.09,0.05,0.89,-2.7,-0.4,-0.2,3080,3101,0.988,4,39.544319,-122.329445,53.77,0.106,290.1,8,2,1.8,0,0.0,-1,0.0,,0.0,0
12566,1469909091282,,,,,,,-0.08,0.04,0.9,-2.5,-1.2,-0.1,3060,3101,,,,,,,,,,,,,,,,,
12586,1469909091302,,,,,,,-0.08,0.01,0.87,-2.4,-1.0,0.1,3080,3076,,,,,,,,,,,,,,,,,
12606,1469909091322,,,,,,,-0.06,0.03,0.89,-2.3,-1.3,0.2,3120,3076,,,,,,,,,,,,,,,,,
12626,1469909091342,,,,,,,-0.05,0.01,0.89,-2.4,-0.9,0.5,3080,3076,,,,,,,,,,,,,,,,,
12646,1469909091362,1,230.0,185.7,65,187.4,,-0.05,0.01,0.89,-2.4,-0.8,0.5,3060,3076,0.983,4,39.544338,-122.32946,53.89,0.108,290.4,8,2,1.8,0,0.0,-1,0.0,0.0,0.0,0
12666,1469909091382,,,,,,,-0.03,0.01,0.89,-2.4,-0.2,0.4,3040,3040,,,,,,,,,,,,,,,,,
12686,1469909091401,,,,,,,-0.01,-0.01,0.91,-2.6,0.4,0.5,3040,3027,,,,,,,,,,,,,,,,,
12706,1469909091421,,,,,,,-0.01,-0.03,0.95,-2.5,0.4,0.6,3000,3027,,,,,,,,,,,,,,,,,
12726,1469909091441,,,,,,,-0.0,-0.05,0.97,-2.6,0.5,0.6,2980,3015,,,,,,,,,,,,,,,,,
12746,1469909091461,,,,39,,,-0.0,-0.08,1.01,-2.5,1.1,0.6,3040,3015,1.009,4,39.544354,-122.329483,53.89,0.11,290.7,8,2,1.8,0,0.0,-1,0.0,,0.0,0
12766,1469909091481,,,,,,,0.03,-0.05,1.06,-2.5,1.0,0.5,3000,2980,,,,,,,,,,,,,,,,,
12786,1469909091501,,,,,,,0.03,-0.05,1.07,-2.4,0.9,0.4,2940,2935,,,,,,,,,,,,,,,,,
12806,1469909091521,,,,,,,0.04,-0.06,1.07,-2.3,0.4,0.4,2820,2935,,,,,,,,,,,,,,,,,
12826,1469909091541,,,,,,,0.03,-0.09,1.09,-2.2,0.8,0.5,3020,2969,,,,,,,,,,,,,,,,,
12846,1469909091561,0,229.6,185.2,45,187.0,,0.05,-0.1,1.12,-2.2,0.4,0.6,3060,3040,1.007,4,39.544365,-122.329498,53.98,0.111,291.0,8,2,1.8,0,0.0,-1,0.0,0.0,0.0,0
12866,1469909091581,,,,,,,0.05,-0.12,1.11,-2.4,0.5,0.7,3080,3076,,,,,,,,,,,,,,,,,
12886,1469909091699,,,,,,,0.07,-0.12,1.14,-2.3,0.6,0.7,3000,3076,,,,,,,,,,,,,,,,,
12906,1469909091719,,,,,,,0.06,-0.12,1.16,-2.3,0.9,0.4,3080,3064,,,,,,,,,,,,,,,,,
12926,1469909091739,,,,,,,0.09,-0.12,1.18,-2.4,0.5,0.2,3060,3027,,,,,,,,,,,,,,,,,
12946,1469909091759,,,,53,,,0.1,-0.09,1.21,-2.3,0.4,-0.1,3060,2992,0.991,4,39.544395,-122.329552,53.9,0.114,291.5,8,2,1.8,0,0.0,-1,0.0,,0.0,0
12966,1469909091779,,,,,,,0.09,-0.08,1.21,-2.2,0.5,-0.4,2900,2980,,,,,,,,,,,,,,,,,
12986,1469909091799,,,,,,,0.11,-0.08,1.21,-2.2,0.7,-0.5,3020,2980,,,,,,,,,,,,,,,,,
13006,1469909091819,,,,,,,0.12,-0.05,1.24,-2.2,0.8,-0.5,3000,2980,,,,,,,,,,,,,,,,,
13026,1469909091839,,,,,,,0.13,-0.06,1.23,-2.2,0.7,-0.5,3000,3027,,,,,,,,,,,,,,,,,
13046,1469909091859,0,229.1,184.3,59,186.2,13.82,0.13,-0.05,1.24,-2.2,1.1,-0.5,3040,3015,1.016,4,39.544395,-122.329552,53.9,0.114,291.5,8,2,1.8,0,0.0,-1,0.0,0.0,0.0,0
13066,1469909091879,,,,,,,0.11,-0.05,1.25,-2.3,0.8,-0.7,3020,3004,,,,,,,,,,,,,,,,,
13086,1469909091803,,,,,,,0.1,-0.04,1.22,-2.3,1.0,-0.7,2960,3015,,,,,,,,,,,,,,,,,
13106,1469909091823,,,,,,,0.1,-0.03,1.25,-2.5,0.9,-0.7,3040,2992,,,,,,,,,,,,,,,,,
13126,1469909091843,,,,,,,0.1,-0.03,1.27,-2.7,1.1,-0.8,2900,2992,,,,,,,,,,,,,,,,,
13146,1469909091863,,,,47,,,0.1,-0.02,1.26,-2.8,1.2,-0.7,2940,2980,0.998,4,39.544411,-122.329559,53.6,0.115,291.7,8,2,1.8,0,0.0,-1,0.0,,0.0,0
13166,1469909091883,,,,,,,0.09,-0.03,1.29,-2.9,1.7,-0.6,3040,2980,,,,,,,,,,,,,,,,,
13186,1469909091891,,,,,,,0.09,-0.0,1.26,-3.1,1.6,-0.5,3040,2980,,,,,,,,,,,,,,,,,
13206,1469909091911,,,,,,,0.09,-0.0,1.26,-3.4,1.9,-0.3,2900,2992,,,,,,,,,,,,,,,,,
13226,1469909091931,,,,,,,0.06,-0.01,1.27,-3.5,1.7,-0.2,3000,2969,,,,,,,,,,,,,,,,,
13246,1469909091951,0,229.8,185.1,61,186.7,,0.07,-0.03,1.25,-3.5,2.3,-0.2,3040,2992,0.973,4,39.544426,-122.32959,53.36,0.117,292.0,8,2,1.8,0,0.0,-1,0.0,0.0,0.0,0
13266,1469909091971,,,,,,,0.06,-0.01,1.25,-3.5,2.2,0.0,3040,2980,,,,,,,,,,,,,,,,,
13286,1469909091997,,,,,,,0.05,-0.01,1.26,-3.7,2.2,0.1,2880,2946,,,,,,,,,,,,,,,,,
13306,1469909092017,,,,,,,0.05,-0.01,1.21,-3.7,1.8,0.1,2980,2969,,,,,,,,,,,,,,,,,
13326,1469909092037,,,,,,,0.05,-0.01,1.23,-3.9,2.1,0.1,2980,2946,,,,,,,,,,,,,,,,,
13346,1469909092057,,,,72,,,0.05,-0.05,1.2,-4.0,2.2,0.3,3020,2935,1.024,4,39.544441,-122.329605,53.13,0.119,292.3,8,2,1.8,0,0.0,-1,0.0,,0.0,0
13366,1469909092077,,,,,,,0.06,-0.06,1.2,-4.0,2.3,0.5,3060,2935,,,,,,,,,,,,,,,,,
13386,1469909092103,,,,,,,0.05,-0.07,1.16,-4.1,2.4,0.6,2980,2946,,,,,,,,,,,,,,,,,
13406,1469909092123,,,,,,,0.07,-0.07,1.15,-4.2,2.2,0.7,2940,2946,,,,,,,,,,,,,,,,,
13426,1469909092143,,,,,,,0.06,-0.08,1.13,-4.2,2.6,0.8,3000,2969,,,,,,,,,,,,,,,,,
13446,1469909092163,0,229.1,184.3,58,186.2,,0.07,-0.08,1.09,-4.2,2.6,0.7,3020,2992,0.97,4,39.544456,-122.329628,52.98,0.12,292.5,8,2,1.8,0,0.0,-1,0.0,0.0,0.0,0
13466,1469909092183,,,,,,,0.07,-0.07,1.12,-4.2,2.9,0.9,3080,3015,,,,,,,,,,,,,,,,,
13486,1469909092203,,,,,,,0.07,-0.07,1.09,-4.0,2.6,1.0,2940,2958,,,,,,,,,,,,,,,,,
13506,1469909092223,,,,,,,0.07,-0.06,1.09,-4.0,2.2,1.1,2960,3015,,,,,,,,,,,,,,,,,
13526,1469909092243,,,,,,,0.05,-0.07,1.1,-4.1,2.0,1.2,3020,3015,,,,,,,,,,,,,,,,,
13546,1469909092263,,,,33,,,0.06,-0.08,1.07,-4.2,1.7,1.4,3000,3064,0.989,4,39.544472,-122.329643,52.53,0.122,292.8,8,2,1.8,0,0.0,-1,0.0,,0.0,0
13566,1469909092283,,,,,,,0.04,-0.05,1.13,-4.3,2.0,1.4,2980,3052,,,,,,,,,,,,,,,,,
13586,1469909092303,,,,,,,0.02,-0.03,1.1,-4.3,1.6,1.5,3060,3040,,,,,,,,,,,,,,,,,
13606,1469909092323,,,,,,,-0.01,-0.05,1.1,-4.4,1.8,1.5,3020,3015,,,,,,,,,,,,,,,,,
13626,1469909092343,,,,,,,-0.04,-0.03,1.1,-4.4,1.9,1.5,2940,2969,,,,,,,,,,,,,,,,,
13646,1469909092363,0,229.1,184.6,58,186.6,,-0.01,-0.02,1.09,-4.6,2.2,1.6,2980,2958,0.996,4,39.544483,-122.329666,52.47,0.123,293.0,8,2,1.8,0,0.0,-1,0.0,0.0,0.0,0
13666,1469909092383,,,,,,,-0.03,0.02,1.11,-4.8,2.9,1.9,2960,2969,,,,,,,,,,,,,,,,,
13686,1469909092500,,,,,,,-0.01,0.02,1.07,-4.9,2.8,2.0,2960,3004,,,,,,,,,,,,,,,,,
13706,1469909092520,,,,,,,-0.02,0.06,1.05,-5.1,3.3,2.3,3040,3027,,,,,,,,,,,,,,,,,
13726,1469909092540,,,,,,,0.01,0.06,1.02,-5.1,2.9,2.4,2980,3040,,,,,,,,,,,,,,,,,
13746,1469909092560,,,,42,,,0.0,0.04,1.03,-5.2,2.7,2.7,2980,3027,1.039,4,39.544518,-122.329704,52.2,0.126,293.4,8,2,1.8,0,0.0,-1,0.0,,0.0,0
13766,1469909092580,,,,,,,0.0,0.06,0.99,-5.3,2.0,2.7,2980,2992,,,,,,,,,,,,,,,,,
13786,1469909092600,,,,,,,0.01,0.04,0.97,-5.4,2.3,2.9,3000,3004,,,,,,,,,,,,,,,,,
13806,1469909092620,,,,,,,0.02,0.05,0.95,-5.6,2.0,2.9,2940,2992,,,,,,,,,,,,,,,,,
13826,1469909092640,,,,,,,0.02,0.06,0.94,-5.7,2.4,3.2,3020,3015,,,,,,,,,,,,,,,,,
13846,1469909092660,0,229.0,184.4,47,186.8,,0.03,0.06,0.89,-5.8,2.0,3.3,2980,3004,0.999,4,39.544518,-122.329704,52.2,0.126,293.4,8,2,1.8,0,0.0,-1,0.0,0.0,0.0,0
13866,1469909092680,,,,,,,0.05,0.06,0.89,-5.9,2.3,3.5,2960,3015,,,,,,,,,,,,,,,,,
13886,1469909092597,,,,,,,0.05,0.08,0.85,-6.1,2.5,3.3,3080,3015,,,,,,,,,,,,,,,,,
13906,1469909092617,,,,,,,0.07,0.11,0.86,-6.2,3.0,3.2,3020,3027,,,,,,,,,,,,,,,,,
13926,1469909092637,,,,,,,0.06,0.11,0.85,-6.4,3.6,3.0,3080,3015,,,,,,,,,,,,,,,,,
13946,1469909092657,,,,53,,,0.07,0.15,0.89,-6.7,3.7,2.9,3020,3027,1.008,4,39.544529,-122.329727,52.16,0.128,293.7,8,2,1.8,0,0.0,-1,0.0,,0.0,0
13966,1469909092677,,,,,,,0.06,0.17,0.87,-7.0,4.0,2.7,3020,3015,,,,,,,,,,,,,,,,,
13986,1469909092700,,,,,,,0.07,0.17,0.93,-7.3,4.5,2.5,3020,3040,,,,,,,,,,,,,,,,,
14006,1469909092720,,,,,,,0.05,0.18,0.96,-7.7,5.6,2.3,3020,3027,,,,,,,,,,,,,,,,,
14026,1469909092740,,,,,,,0.02,0.19,1.0,-7.8,5.8,1.8,3000,3040,,,,,,,,,,,,,,,,,
14046,1469909092760,0,229.9,185.4,42,187.2,13.76,-0.01,0.21,1.09,-8.0,6.8,1.6,3000,3040,0.987,4,39.544544,-122.329742,52.28,0.129,293.9,8,2,1.8,0,0.0,-1,0.0,0.0,0.0,0
14066,1469909092780,,,,,,,-0.04,0.21,1.13,-8.2,7.6,1.4,3000,3040,,,,,,,,,,,,,,,,,
14086,1469909092802,,,,,,,-0.06,0.21,1.2,-8.5,8.5,1.3,3040,3040,,,,,,,,,,,,,,,,,
14106,1469909092822,,,,,,,-0.09,0.21,1.22,-8.6,8.2,1.2,2980,3027,,,,,,,,,,,,,,,,,
14126,1469909092842,,,,,,,-0.12,0.22,1.27,-8.9,9.2,1.0,3100,3027,,,,,,,,,,,,,,,,,
14146,1469909092862,,,,56,,,-0.14,0.21,1.27,-8.9,9.1,0.8,3000,3040,1.037,4,39.544556,-122.329765,52.5,0.13,294.2,8,2,1.8,0,0.0,-1,0.0,,0.0,0
14166,1469909092882,,,,,,,-0.18,0.19,1.27,-8.9,9.3,0.9,3000,3040,,,,,,,,,,,,,,,,,
14186,1469909092896,,,,,,,-0.2,0.16,1.23,-8.8,7.9,0.5,3060,3040,,,,,,,,,,,,,,,,,
14206,1469909092916,,,,,,,-0.23,0.13,1.2,-8.9,7.3,0.5,3080,3089,,,,,,,,,,,,,,,,,
14226,1469909092936,,,,,,,-0.22,0.16,1.19,-9.0,6.0,0.5,3060,3052,,,,,,,,,,,,,,,,,
14246,1469909092956,0,228.9,184.6,34,186.8,,-0.22,0.16,1.13,-8.9,5.0,0.6,3020,3076,0.99,4,39.544575,-122.329781,52.81,0.132,294.4,8,2,1.8,0,0.0,-1,0.0,0.0,0.0,0
14266,1469909092976,,,,,,,-0.2,0.18,1.08,-8.6,2.7,0.6,3080,3089,,,,,,,,,,,,,,,,,
14286,1469909093003,,,,,,,-0.21,0.19,0.99,-8.5,1.4,0.5,3020,3076,,,,,,,,,,,,,,,,,
14306,1469909093023,,,,,,,-0.19,0.19,0.92,-8.4,-0.4,0.4,3120,3089,,,,,,,,,,,,,,,,,
14326,1469909093043,,,,,,,-0.2,0.21,0.88,-8.3,-1.3,0.7,3000,3113,,,,,,,,,,,,,,,,,
14346,1469909093063,,,,43,,,-0.19,0.23,0.87,-8.5,-2.4,0.8,3140,3113,0.991,4,39.544586,-122.329803,53.16,0.133,294.6,8,2,1.8,0,0.0,-1,0.0,,0.0,0
14366,1469909093083,,,,,,,-0.21,0.27,0.84,-8.6,-2.5,0.6,3100,3089,,,,,,,,,,,,,,,,,
14386,1469909093103,,,,,,,-0.18,0.32,0.85,-8.8,-2.8,0.4,3000,3089,,,,,,,,,,,,,,,,,
14406,1469909093123,,,,,,,-0.17,0.37,0.87,-9.0,-2.2,0.1,3120,3113,,,,,,,,,,,,,,,,,
14426,1469909093143,,,,,,,-0.14,0.42,0.92,-9.2,-1.6,-0.0,3100,3101,,,,,,,,,,,,,,,,,
14446,1469909093163,0,229.1,184.8,42,187.0,,-0.12,0.41,0.94,-9.2,-0.9,-0.2,3180,3089,1.008,4,39.544601,-122.329834,53.2,0.135,294.8,8,2,1.8,0,0.0,-1,0.0,0.0,0.0,0
14466,1469909093183,,,,,,,-0.03,0.43,0.96,-9.2,-0.3,-0.3,3120,3101,,,,,,,,,,,,,,,,,
14486,1469909093302,,,,,,,-0.01,0.42,0.94,-9.0,0.3,-0.1,3080,3064,,,,,,,,,,,,,,,,,
14506,1469909093322,,,,,,,0.0,0.39,0.87,-8.7,0.4,-0.2,3040,3101,,,,,,,,,,,,,,,,,
14526,1469909093342,,,,,,,-0.01,0.37,0.81,-8.6,0.8,-0.1,3100,3101,,,,,,,,,,,,,,,,,
14546,1469909093362,,,,54,,,-0.02,0.34,0.81,-8.4,1.3,-0.1,3060,3113,0.985,4,39.544632,-122.329872,53.7,0.138,294.8,8,2,1.8,0,0.0,-1,0.0,,0.0,0
14566,1469909093382,,,,,,,-0.07,0.37,0.82,-8.6,1.8,-0.2,3100,3113,,,,,,,,,,,,,,,,,
14586,1469909093402,,,,,,,-0.09,0.39,0.83,-8.8,2.1,-0.2,3060,3138,,,,,,,,,,,,,,,,,
14606,1469909093422,,,,,,,-0.13,0.4,0.88,-9.1,1.8,-0.3,3080,3113,,,,,,,,,,,,,,,,,
14626,1469909093442,,,,,,,-0.13,0.38,0.88,-9.1,1.0,-0.3,3080,3113,,,,,,,,,,,,,,,,,
14646,1469909093462,0,229.8,185.3,87,187.0,,-0.13,0.35,0.87,-9.1,-0.1,-0.2,3060,3126,1.013,4,39.544632,-122.329872,53.7,0.138,294.8,8,2,1.8,0,0.0,-1,0.0,0.0,0.0,0
14666,1469909093482,,,,,,,-0.12,0.37,0.9,-9.2,-1.6,-0.1,3180,3126,,,,,,,,,,,,,,,,,
14686,1469909093401,,,,,,,-0.13,0.36,0.89,-9.1,-2.2,-0.3,3080,3126,,,,,,,,,,,,,,,,,
14706,1469909093421,,,,,,,-0.09,0.39,0.9,-8.9,-2.6,-0.3,3080,3113,,,,,,,,,,,,,,,,,
14726,1469909093441,,,,,,,-0.07,0.37,0.92,-8.9,-2.1,-0.0,3140,3152,,,,,,,,,,,,,,,,,
14746,1469909093461,,,,51,,,-0.05,0.38,0.95,-8.9,-1.6,-0.1,3120,3138,0.977,4,39.544643,-122.329895,53.9,0.14,294.9,8,2,1.8,0,0.0,-1,0.0,,0.0,0
14766,1469909093481,,,,,,,-0.06,0.41,1.0,-9.1,-0.7,-0.2,3140,3126,,,,,,,,,,,,,,,,,
14786,1469909093500,,,,,,,-0.07,0.38,1.05,-9.3,0.7,-0.3,3060,3126,,,,,,,,,,,,,,,,,
14806,1469909093520,,,,,,,-0.08,0.37,1.06,-9.5,0.8,-0.4,3160,3126,,,,,,,,,,,,,,,,,
14826,1469909093540,,,,,,,-0.08,0.32,1.05,-9.6,0.6,-0.3,3160,3178,,,,,,,,,,,,,,,,,
14846,1469909093560,0,229.4,185.0,61,187.0,,-0.09,0.3,1.02,-9.5,-0.6,-0.4,3160,3164,0.996,4,39.544659,-122.32991,54.31,0.141,294.8,8,2,1.8,0,0.0,-1,0.0,0.0,0.0,0
14866,1469909093580,,,,,,,-0.11,0.3,0.96,-9.4,-1.1,-0.4,3200,3190,,,,,,,,,,,,,,,,,
14886,1469909093601,,,,,,,-0.13,0.31,0.95,-9.5,-2.2,-0.4,3200,3178,,,,,,,,,,,,,,,,,
14906,1469909093621,,,,,,,-0.12,0.36,0.97,-9.6,-1.6,-0.8,3120,3178,,,,,,,,,,,,,,,,,
14926,1469909093641,,,,,,,-0.07,0.4,0.97,-9.6,-1.2,-1.1,3140,3164,,,,,,,,,,,,,,,,,
14946,1469909093661,,,,47,,,-0.04,0.41,0.99,-9.5,-0.5,-1.3,3120,3152,1.024,4,39.544674,-122.329933,54.38,0.143,294.9,8,2,1.8,0,0.0,-1,0.0,,0.0,0
14966,1469909093681,,,,,,,0.01,0.43,0.96,-9.6,0.1,-1.5,3100,3152,,,,,,,,,,,,,,,,,
14986,1469909093701,,,,,,,0.02,0.41,0.87,-9.5,1.2,-1.6,3140,3152,,,,,,,,,,,,,,,,,
15006,1469909093721,,,,,,,0.01,0.41,0.88,-9.5,2.2,-1.5,3180,3164,,,,,,,,,,,,,,,,,
15026,1469909093741,,,,,,,-0.04,0.42,0.95,-9.5,3.0,-1.5,3140,3190,,,,,,,,,,,,,,,,,
15046,1469909093761,0,229.5,185.7,32,187.6,13.84,-0.06,0.41,0.93,-9.7,2.4,-1.4,3180,3178,0.992,4,39.544685,-122.329956,54.67,0.144,295.0,8,2,1.8,0,0.0,-1,0.0,0.0,0.0,0
15066,1469909093781,,,,,,,-0.09,0.4,0.89,-9.9,1.3,-1.3,3140,3178,,,,,,,,,,,,,,,,,
15086,1469909093802,,,,,,,-0.11,0.37,0.94,-10.0,-0.1,-1.2,3200,3178,,,,,,,,,,,,,,,,,
15106,1469909093822,,,,,,,-0.11,0.35,0.92,-9.8,-1.1,-1.2,3180,3178,,,,,,,,,,,,,,,,,
15126,1469909093842,,,,,,,-0.09,0.33,0.92,-9.5,-1.0,-1.2,3220,3190,,,,,,,,,,,,,,,,,
15146,1469909093862,,,,47,,,-0.08,0.33,0.96,-9.2,-0.2,-1.4,3220,3190,0.996,4,39.544697,-122.329971,54.9,0.145,295.0,8,2,1.8,0,0.0,-1,0.0,,0.0,0
15166,1469909093882,,,,,,,-0.1,0.31,1.03,-9.1,1.1,-1.3,3200,3190,,,,,,,,,,,,,,,,,
15186,1469909093896,,,,,,,-0.07,0.28,1.08,-9.0,1.4,-1.3,3140,3190,,,,,,,,,,,,,,,,,
15206,1469909093916,,,,,,,-0.08,0.29,1.08,-8.8,1.2,-1.4,3260,3218,,,,,,,,,,,,,,,,,
15226,1469909093936,,,,,,,-0.09,0.3,1.05,-8.6,0.1,-1.6,3260,3204,,,,,,,,,,,,,,,,,
15246,1469909093956,0,228.9,184.4,67,186.5,,-0.1,0.31,1.02,-8.4,0.1,-1.9,3200,3244,0.997,4,39.544712,-122.330002,55.2,0.147,295.1,8,2,1.8,0,0.0,-1,0.0,0.0,0.0,0
15266,1469909093976,,,,,,,-0.1,0.32,1.03,-8.0,0.4,-2.0,3180,3190,,,,,,,,,,,,,,,,,
15286,1469909094102,,,,,,,-0.08,0.31,1.02,-7.7,0.5,-2.1,3120,3164,,,,,,,,,,,,,,,,,
15306,1469909094122,,,,,,,-0.08,0.27,0.96,-7.2,1.7,-2.0,3160,3230,,,,,,,,,,,,,,,,,
15326,1469909094142,,,,,,,-0.1,0.27,0.95,-6.9,2.0,-2.0,3180,3204,,,,,,,,,,,,,,,,,
15346,1469909094162,,,,54,,,-0.13,0.26,0.93,-6.8,2.3,-2.0,3140,3204,1.013,4,39.544735,-122.330048,55.64,0.15,295.2,8,2,1.8,0,0.0,-1,0.0,,0.0,0
15366,1469909094182,,,,,,,-0.15,0.21,0.93,-6.8,1.3,-1.9,3260,3230,,,,,,,,,,,,,,,,,
15386,1469909094202,,,,,,,-0.15,0.23,0.93,-6.7,-0.0,-1.7,3240,3230,,,,,,,,,,,,,,,,,
15406,1469909094222,,,,,,,-0.15,0.24,0.95,-6.6,-0.7,-1.5,3200,3230,,,,,,,,,,,,,,,,,
15426,1469909094242,,,,,,,-0.13,0.23,0.96,-6.3,-1.4,-1.4,3240,3218,,,,,,,,,,,,,,,,,
15446,1469909094262,0,230.1,185.9,42,187.6,,-0.12,0.2,1.0,-6.1,-0.5,-1.4,3200,3218,0.978,4,39.544735,-122.330048,55.64,0.15,295.2,8,2,1.8,0,0.0,-1,0.0,0.0,0.0,0
15466,1469909094282,,,,,,,-0.11,0.16,1.03,-6.1,0.1,-1.2,3180,3204,,,,,,,,,,,,,,,,,
15486,1469909094202,,,,,,,-0.12,0.12,1.03,-5.9,0.2,-1.1,3220,3244,,,,,,,,,,,,,,,,,
15506,1469909094222,,,,,,,-0.15,0.12,0.98,-5.7,0.2,-1.0,3220,3244,,,,,,,,,,,,,,,,,
15526,1469909094242,,,,,,,-0.14,0.16,1.01,-5.6,-0.2,-1.2,3240,3230,,,,,,,,,,,,,,,,,
15546,1469909094262,,,,58,,,-0.1,0.19,1.01,-5.7,-0.1,-1.3,3240,3244,1.007,4,39.54475,-122.330078,55.82,0.152,295.3,8,2,1.8,0,0.0,-1,0.0,,0.0,0
15566,1469909094282,,,,,,,-0.09,0.2,0.98,-5.6,0.0,-1.0,3200,3244,,,,,,,,,,,,,,,,,
15586,1469909094303,,,,,,,-0.06,0.2,0.91,-5.2,0.2,-0.8,3260,3230,,,,,,,,,,,,,,,,,
15606,1469909094323,,,,,,,-0.08,0.22,0.94,-5.1,0.7,-0.6,3240,3258,,,,,,,,,,,,,,,,,
15626,1469909094343,,,,,,,-0.09,0.21,1.0,-5.4,1.2,-0.7,3260,3244,,,,,,,,,,,,,,,,,
15646,1469909094363,0,229.4,185.1,39,187.8,,-0.11,0.18,0.98,-5.2,0.6,-0.8,3140,3272,1.011,4,39.544762,-122.330101,55.97,0.154,295.3,8,2,1.8,0,0.0,-1,0.0,0.0,0.0,0
15666,1469909094383,,,,,,,-0.13,0.15,0.92,-5.1,-0.1,-0.5,3280,3244,,,,,,,,,,,,,,,,,
15686,1469909094399,,,,,,,-0.1,0.17,0.93,-5.0,-0.6,-0.0,3180,3244,,,,,,,,,,,,,,,,,
15706,1469909094419,,,,,,,-0.11,0.18,0.93,-5.1,0.5,-0.1,3280,3230,,,,,,,,,,,,,,,,,
15726,1469909094439,,,,,,,-0.1,0.16,0.96,-5.2,0.9,-0.1,3280,3272,,,,,,,,,,,,,,,,,
15746,1469909094459,,,,86,,,-0.08,0.16,1.0,-5.2,0.1,0.3,3280,3258,0.994,4,39.544773,-122.330116,56.28,0.155,295.3,8,2,1.8,0,0.0,-1,0.0,,0.0,0
15766,1469909094479,,,,,,,-0.1,0.17,0.97,-5.2,-0.5,0.2,3300,3286,,,,,,,,,,,,,,,,,
15786,1469909094501,,,,,,,-0.08,0.2,1.02,-5.4,-0.7,0.2,3240,3272,,,,,,,,,,,,,,,,,
15806,1469909094521,,,,,,,-0.04,0.23,1.03,-5.4,-1.0,0.2,3260,3230,,,,,,,,,,,,,,,,,
15826,1469909094541,,,,,,,-0.03,0.24,0.95,-5.5,-0.1,0.5,3280,3244,,,,,,,,,,,,,,,,,
15846,1469909094561,0,230.0,185.7,51,187.3,,-0.07,0.26,0.92,-5.6,1.2,0.6,3340,3286,0.974,4,39.544788,-122.330139,56.35,0.156,295.3,8,2,1.8,0,0.0,-1,0.0,0.0,0.0,0
15866,1469909094581,,,,,,,-0.1,0.24,0.92,-6.0,1.6,0.8,3160,3272,,,,,,,,,,,,,,,,,
15886,1469909094601,,,,,,,-0.11,0.19,0.88,-6.3,0.4,1.2,3280,3286,,,,,,,,,,,,,,,,,
15906,1469909094621,,,,,,,-0.11,0.19,0.86,-6.5,-0.3,1.2,3280,3244,,,,,,,,,,,,,,,,,
15926,1469909094641,,,,,,,-0.09,0.2,0.92,-6.5,-0.1,1.3,3300,3286,,,,,,,,,,,,,,,,,
15946,1469909094661,,,,47,,,-0.08,0.2,0.99,-6.9,0.8,1.4,3300,3272,1.021,4,39.5448,-122.330162,56.69,0.158,295.3,8,2,1.8,0,0.0,-1,0.0,,0.0,0
15966,1469909094681,,,,,,,-0.08,0.19,1.0,-7.0,0.5,1.5,3220,3300,,,,,,,,,,,,,,,,,
15986,1469909094701,,,,,,,-0.09,0.21,0.98,-7.2,-0.1,1.8,3240,3300,,,,,,,,,,,,,,,,,
16006,1469909094721,,,,,,,-0.07,0.23,1.02,-7.7,-0.2,1.7,3320,3300,,,,,,,,,,,,,,,,,
16026,1469909094741,,,,,,,-0.04,0.23,1.03,-7.9,-0.1,1.6,3200,3300,,,,,,,,,,,,,,,,,
16046,1469909094761,0,229.2,184.8,86,186.7,13.68,-0.04,0.28,0.99,-7.9,-0.1,1.7,3240,3272,0.992,4,39.544815,-122.330193,56.9,0.16,295.1,8,2,1.8,0,0.0,-1,0.0,0.0,0.0,0
16066,1469909094781,,,,,,,-0.06,0.3,1.06,-8.4,1.2,1.8,3260,3300,,,,,,,,,,,,,,,,,
16086,1469909094902,,,,,,,-0.1,0.27,1.05,-8.9,1.3,1.9,3300,3315,,,,,,,,,,,,,,,,,
16106,1469909094922,,,,,,,-0.1,0.25,1.01,-9.1,0.5,2.0,3300,3286,,,,,,,,,,,,,,,,,
16126,1469909094942,,,,,,,-0.08,0.29,1.01,-9.3,-0.3,2.2,3320,3286,,,,,,,,,,,,,,,,,
16146,1469909094962,,,,39,,,-0.09,0.27,1.05,-9.5,0.2,1.8,3280,3300,1.0,4,39.544838,-122.330238,57.28,0.163,295.0,8,2,1.8,0,0.0,-1,0.0,,0.0,0
16166,1469909094982,,,,,,,-0.08,0.23,1.01,-9.8,0.6,1.7,3240,3329,,,,,,,,,,,,,,,,,
16186,1469909095002,,,,,,,-0.07,0.24,0.98,-10.1,-0.7,1.7,3300,3329,,,,,,,,,,,,,,,,,
16206,1469909095022,,,,,,,-0.12,0.34,0.96,-10.6,-0.6,1.4,3260,3358,,,,,,,,,,,,,,,,,
16226,1469909095042,,,,,,,-0.11,0.36,0.97,-10.8,-0.7,1.3,3260,3343,,,,,,,,,,,,,,,,,
16246,1469909095062,1,229.1,184.8,49,186.2,,-0.1,0.38,0.9,-11.1,-0.6,1.4,3300,3300,1.012,4,39.544838,-122.330238,57.28,0.163,295.0,8,2,1.8,0,0.0,-1,0.0,0.0,0.0,0
16266,1469909095082,,,,,,,-0.1,0.39,0.94,-11.4,0.3,1.6,3320,3329,,,,,,,,,,,,,,,,,
16286,1469909095003,,,,,,,-0.1,0.34,0.98,-11.7,0.1,1.7,3340,3358,,,,,,,,,,,,,,,,,
16306,1469909095023,,,,,,,-0.1,0.34,0.99,-11.8,-0.7,1.6,3260,3315,,,,,,,,,,,,,,,,,
16326,1469909095043,,,,,,,-0.1,0.38,1.01,-11.8,-0.1,1.3,3280,3329,,,,,,,,,,,,,,,,,
16346,1469909095063,,,,49,,,-0.11,0.39,1.09,-12.1,0.4,1.4,3340,3329,0.983,4,39.544853,-122.330269,57.64,0.165,294.9,8,2,1.8,0,0.0,-1,0.0,,0.0,0
16366,1469909095083,,,,,,,-0.09,0.39,1.09,-12.0,0.4,1.5,3340,3358,,,,,,,,,,,,,,,,,
16386,1469909095102,,,,,,,-0.11,0.43,1.09,-12.1,0.3,1.5,3280,3372,,,,,,,,,,,,,,,,,
16406,1469909095122,,,,,,,-0.09,0.45,1.1,-12.3,0.6,1.4,3260,3343,,,,,,,,,,,,,,,,,
16426,1469909095142,,,,,,,-0.06,0.4,1.05,-12.3,0.6,1.7,3240,3300,,,,,,,,,,,,,,,,,
16446,1469909095162,0,229.3,184.5,45,186.1,,-0.08,0.45,1.06,-12.5,1.2,1.8,3360,3358,0.977,4,39.544861,-122.330292,57.77,0.166,294.9,8,2,1.8,0,0.0,-1,0.0,0.0,0.0,0
16466,1469909095182,,,,,,,-0.1,0.44,1.07,-12.8,0.9,1.7,3380,3358,,,,,,,,,,,,,,,,,
16486,1469909095203,,,,,,,-0.09,0.4,1.05,-12.8,-0.1,1.7,3260,3329,,,,,,,,,,,,,,,,,
16506,1469909095223,,,,,,,-0.1,0.44,1.05,-12.7,-0.2,1.5,3320,3329,,,,,,,,,,,,,,,,,
16526,1469909095243,,,,,,,-0.11,0.44,1.09,-12.9,0.4,1.3,3300,3358,,,,,,,,,,,,,,,,,
16546,1469909095263,,,,37,,,-0.1,0.45,1.04,-12.9,-0.7,1.4,3320,3387,0.991,4,39.544872,-122.330315,57.82,0.167,294.9,8,2,1.8,0,0.0,-1,0.0,,0.0,0
16566,1469909095283,,,,,,,-0.13,0.54,1.03,-13.1,-0.4,1.3,3400,3387,,,,,,,,,,,,,,,,,
16586,1469909095303,,,,,,,-0.1,0.52,0.99,-13.3,-0.4,1.1,3340,3358,,,,,,,,,,,,,,,,,
16606,1469909095323,,,,,,,-0.12,0.51,0.94,-13.2,-0.0,1.0,3380,3358,,,,,,,,,,,,,,,,,
16626,1469909095343,,,,,,,-0.12,0.5,0.94,-13.3,0.1,1.0,3360,3358,,,,,,,,,,,,,,,,,
16646,1469909095363,0,228.0,183.2,50,185.3,,-0.12,0.46,0.91,-13.5,-0.4,1.1,3400,3358,1.001,4,39.544884,-122.330345,58.2,0.169,294.8,8,2,1.8,0,0.0,-1,0.0,0.0,0.0,0
16666,1469909095383,,,,,,,-0.1,0.46,0.87,-13.5,-1.1,1.1,3380,3358,,,,,,,,,,,,,,,,,
16686,1469909095402,,,,,,,-0.08,0.49,0.93,-13.6,-0.5,0.8,3420,3343,,,,,,,,,,,,,,,,,
16706,1469909095422,,,,,,,-0.05,0.47,0.85,-13.7,-1.5,0.8,3420,3403,,,,,,,,,,,,,,,,,
16726,1469909095442,,,,,,,-0.06,0.51,0.88,-13.8,-1.8,0.7,3340,3372,,,,,,,,,,,,,,,,,
16746,1469909095462,,,,53,,,-0.04,0.49,0.86,-13.7,-1.9,0.6,3360,3372,0.983,4,39.544895,-122.330368,57.61,0.171,294.8,8,2,1.8,0,0.0,-1,0.0,,0.0,0
16766,1469909095482,,,,,,,-0.04,0.52,0.87,-13.6,-1.3,0.7,3420,3372,,,,,,,,,,,,,,,,,
16786,1469909095501,,,,,,,-0.05,0.56,0.93,-13.9,-0.6,0.7,3400,3387,,,,,,,,,,,,,,,,,
16806,1469909095521,,,,,,,-0.07,0.57,0.98,-14.1,-0.8,0.7,3360,3372,,,,,,,,,,,,,,,,,
16826,1469909095541,,,,,,,-0.08,0.58,0.99,-14.1,-1.2,0.8,3340,3372,,,,,,,,,,,,,,,,,
16846,1469909095561,0,231.0,186.8,58,188.2,,-0.08,0.56,1.08,-14.2,-0.0,0.8,3300,3403,0.993,4,39.544907,-122.330399,58.04,0.173,294.9,8,2,1.8,0,0.0,-1,0.0,0.0,0.0,0
16866,1469909095581,,,,,,,-0.05,0.51,1.05,-14.1,-0.8,1.1,3420,3403,,,,,,,,,,,,,,,,,
16886,1469909095700,,,,,,,-0.08,0.56,1.08,-14.2,-0.5,0.9,3380,3418,,,,,,,,,,,,,,,,,
16906,1469909095720,,,,,,,-0.06,0.62,1.07,-14.4,-0.2,0.7,3320,3433,,,,,,,,,,,,,,,,,
16926,1469909095740,,,,,,,-0.1,0.65,1.02,-14.5,0.5,0.7,3380,3433,,,,,,,,,,,,,,,,,
16946,1469909095760,,,,63,,,-0.1,0.63,1.01,-14.7,0.3,0.6,3380,3433,1.008,4,39.54493,-122.330444,59.08,0.175,294.9,8,2,1.8,0,0.0,-1,0.0,,0.0,0
16966,1469909095780,,,,,,,-0.12,0.58,0.99,-14.5,-0.2,0.6,3440,3403,,,,,,,,,,,,,,,,,
16986,1469909095800,,,,,,,-0.11,0.56,1.04,-14.4,0.3,0.4,3420,3387,,,,,,,,,,,,,,,,,
17006,1469909095820,,,,,,,-0.06,0.53,1.07,-14.4,-0.3,0.1,3460,3418,,,,,,,,,,,,,,,,,
17026,1469909095840,,,,,,,-0.07,0.55,1.06,-14.5,-0.5,0.1,3420,3418,,,,,,,,,,,,,,,,,
17046,1469909095860,0,230.0,185.6,54,187.4,13.75,-0.04,0.64,1.07,-14.7,-0.9,-0.1,3460,3449,0.985,4,39.54493,-122.330444,59.08,0.175,294.9,8,2,1.8,0,0.0,-1,0.0,0.0,0.0,0
17066,1469909095880,,,,,,,-0.06,0.63,1.02,-14.7,-0.8,0.2,3420,3449,,,,,,,,,,,,,,,,,
17086,1469909095802,,,,,,,-0.08,0.62,1.0,-14.7,-1.0,0.4,3420,3418,,,,,,,,,,,,,,,,,
17106,1469909095822,,,,,,,-0.13,0.53,0.95,-14.7,-1.2,0.8,3420,3418,,,,,,,,,,,,,,,,,
17126,1469909095842,,,,,,,-0.14,0.54,0.99,-14.5,-0.8,0.7,3440,3403,,,,,,,,,,,,,,,,,
17146,1469909095862,,,,48,,,-0.11,0.48,1.03,-14.3,-1.1,0.7,3440,3449,0.976,4,39.544937,-122.330482,59.5,0.178,295.0,8,2,1.8,0,0.0,-1,0.0,,0.0,0
17166,1469909095882,,,,,,,-0.12,0.54,1.01,-14.1,-1.1,0.6,3440,3480,,,,,,,,,,,,,,,,,
17186,1469909095896,,,,,,,-0.09,0.53,1.0,-13.9,-1.4,0.5,3460,3449,,,,,,,,,,,,,,,,,
17206,1469909095916,,,,,,,-0.1,0.54,0.97,-13.8,-1.0,0.8,3440,3433,,,,,,,,,,,,,,,,,
17226,1469909095936,,,,,,,-0.13,0.54,0.96,-13.8,-0.2,0.9,3440,3464,,,,,,,,,,,,,,,,,
17246,1469909095956,1,228.8,184.3,54,186.5,,-0.15,0.51,0.96,-13.8,-0.1,1.2,3480,3464,1.008,4,39.544949,-122.330513,59.64,0.179,295.1,8,2,1.8,0,0.0,-1,0.0,0.0,0.0,0
17266,1469909095976,,,,,,,-0.14,0.52,1.0,-13.7,0.3,1.1,3480,3433,,,,,,,,,,,,,,,,,
17286,1469909096003,,,,,,,-0.13,0.47,1.03,-13.6,0.0,1.0,3440,3480,,,,,,,,,,,,,,,,,
