"Interval"|"ms"|0|0|1,"Utc"|"ms"|0|0|1,"FuelLevel"|"F"|0|100|5,"OilTemp"|"F"|0.0|300.0|5,"Coolant"|"F"|0.0|300.0|5,"OilPress"|"PSI"|0|150|10,"EngineTemp"|"F"|0.0|300.0|5,"Battery"|"Volts"|0.0|20.0|1,"AccelX"|"G"|-3.0|3.0|50,"AccelY"|"G"|-3.0|3.0|50,"AccelZ"|"G"|-3.0|3.0|50,"Yaw"|"Deg/Sec"|-300.0|300.0|50,"Pitch"|"Deg/Sec"|-300.0|300.0|50,"Roll"|"Deg/Sec"|-300.0|300.0|50,"RPM"|""|0|10000|50,"Driveshaft"|"RPM"|0|5000|50,"GearRatio"|""|-5.0|5.0|10,"Gear"|""|-1|5|10,"Latitude"|"Degrees"|-180.0|180.0|10,"Longitude"|"Degrees"|-180.0|180.0|10,"Speed"|"MPH"|0.0|150.0|10,"Distance"|"Miles"|0.0|0.0|10,"Altitude"|"Feet"|0.0|4000.0|10,"GPSSats"|""|0|20|10,"GPSQual"|""|0|5|10,"GPSDOP"|""|0.0|20.0|10,"LapCount"|""|0|0|10,"LapTime"|"Min"|0.0|0.0|10,"Sector"|""|0|0|10,"SectorTime"|"Min"|0.0|0.0|10,"PredTime"|"Min"|0.0|0.0|5,"ElapsedTime"|"Min"|0.0|0.0|10,"CurrentLap"|""|0|0|10
5066,1469904965421,,,,,,,-0.01,-0.85,1.01,13.5,3.9,-0.8,4600,3544,,,,,,,,,,,,,,,,,
5086,1469904965441,,,,,,,0.01,-0.82,1.04,12.9,3.5,-0.1,4300,3560,,,,,,,,,,,,,,,,,
5106,1469904965461,,,,,,,0.0,-0.79,1.09,12.3,2.9,-0.4,4680,3576,,,,,,,,,,,,,,,,,
5126,1469904965481,,,,,,,0.0,-0.79,1.02,12.1,2.7,0.1,4480,3593,,,,,,,,,,,,,,,,,
5146,1469904965501,,,,56,,,-0.03,-0.76,0.99,11.9,2.1,0.4,4540,3560,1.281,3,39.542141,-122.329781,61.22,0.002,299.0,8,2,1.7,0,0.0,-1,0.0,,0.0,0
5166,1469904965521,,,,,,,-0.03,-0.7,1.03,11.4,1.3,1.3,4460,3593,,,,,,,,,,,,,,,,,
5186,1469904965541,,,,,,,-0.07,-0.7,0.99,11.5,-0.2,1.3,4660,3593,,,,,,,,,,,,,,,,,
5206,1469904965561,,,,,,,-0.06,-0.63,1.05,11.2,0.2,1.6,4480,3576,,,,,,,,,,,,,,,,,
5226,1469904965581,,,,,,,-0.08,-0.68,0.99,11.3,0.1,1.3,4520,3593,,,,,,,,,,,,,,,,,
5246,1469904965601,2,243.6,194.3,57,196.1,,-0.08,-0.7,1.03,11.1,0.1,1.6,4760,3560,1.23,3,39.54216,-122.329758,61.59,0.002,298.9,8,2,1.7,0,0.0,-1,0.0,0.0,0.0,0
5266,1469904965621,,,,,,,-0.13,-0.63,1.02,11.5,-0.6,0.6,4740,3610,,,,,,,,,,,,,,,,,
5286,1469904965641,,,,,,,-0.13,-0.75,1.03,11.4,-0.7,0.8,4420,3576,,,,,,,,,,,,,,,,,
5306,1469904965661,,,,,,,-0.11,-0.7,0.99,11.5,-1.3,0.7,4660,3610,,,,,,,,,,,,,,,,,
5326,1469904965681,,,,,,,-0.1,-0.68,0.94,11.6,-1.2,0.7,4760,3610,,,,,,,,,,,,,,,,,
5346,1469904965701,,,,53,,,-0.12,-0.73,0.92,12.0,-2.1,0.5,4680,3593,1.303,3,39.54216,-122.329758,61.59,0.004,298.9,8,2,1.7,0,0.0,-1,0.0,,0.0,0
5366,1469904965720,,,,,,,-0.11,-0.76,0.9,12.3,-0.9,0.2,4380,3627,,,,,,,,,,,,,,,,,
5386,1469904965740,,,,,,,-0.12,-0.77,0.94,12.6,-1.9,-0.1,4580,3593,,,,,,,,,,,,,,,,,
5406,1469904965760,,,,,,,-0.08,-0.74,0.96,12.7,-0.5,-0.7,4580,3593,,,,,,,,,,,,,,,,,
5426,1469904965780,,,,,,,-0.06,-0.75,0.99,12.5,-0.6,-0.5,4340,3644,,,,,,,,,,,,,,,,,
5446,1469904965801,0,246.4,194.9,56,196.8,,-0.07,-0.67,1.0,12.6,0.2,-1.1,4480,3576,1.241,3,39.542198,-122.32972,61.96,0.007,298.6,8,2,1.7,0,0.0,-1,0.0,0.0,0.0,0
5466,1469904965821,,,,,,,-0.11,-0.69,0.95,12.4,-0.6,-0.6,4640,3627,,,,,,,,,,,,,,,,,
5486,1469904965841,,,,,,,-0.14,-0.68,0.99,12.2,0.2,-1.2,4540,3593,,,,,,,,,,,,,,,,,
5506,1469904965861,,,,,,,-0.1,-0.68,1.0,11.7,0.2,-0.8,4460,3644,,,,,,,,,,,,,,,,,
5526,1469904965881,,,,,,,-0.12,-0.67,0.99,11.3,-0.3,-1.0,4740,3644,,,,,,,,,,,,,,,,,
5546,1469904965901,,,,70,,,-0.12,-0.66,1.03,11.1,-0.3,-0.6,4680,3610,1.284,3,39.542198,-122.32972,61.96,0.007,298.6,8,2,1.7,0,0.0,-1,0.0,,0.0,0
5566,1469904965916,,,,,,,-0.15,-0.73,1.01,11.8,-0.2,-1.0,4560,3644,,,,,,,,,,,,,,,,,
5586,1469904965936,,,,,,,-0.13,-0.8,1.05,11.7,0.0,-0.4,4580,3610,,,,,,,,,,,,,,,,,
5606,1469904965956,,,,,,,-0.13,-0.75,1.02,11.8,-0.9,-0.7,4800,3627,,,,,,,,,,,,,,,,,
5626,1469904965976,,,,,,,-0.14,-0.86,1.06,12.1,0.2,-0.4,4460,3644,,,,,,,,,,,,,,,,,
5646,1469904965996,0,246.3,194.2,52,196.0,,-0.16,-0.87,1.05,12.2,0.1,-0.1,4680,3627,1.284,3,39.542217,-122.329689,62.3,0.009,298.4,8,2,1.7,0,0.0,-1,0.0,0.0,0.0,0
5666,1469904966120,,,,,,,-0.18,-0.8,1.05,12.1,0.9,0.3,4780,3661,,,,,,,,,,,,,,,,,
5686,1469904966140,,,,,,,-0.18,-0.84,1.04,12.4,-0.2,0.7,4620,3627,,,,,,,,,,,,,,,,,
5706,1469904966160,,,,,,,-0.16,-0.74,1.02,11.9,0.9,0.2,4520,3627,,,,,,,,,,,,,,,,,
5726,1469904966180,,,,,,,-0.14,-0.7,0.99,11.6,0.2,0.3,4620,3661,,,,,,,,,,,,,,,,,
5746,1469904966200,,,,48,,,-0.09,-0.64,0.95,11.6,-0.2,0.3,4640,3644,1.312,3,39.542255,-122.329651,62.86,0.012,298.2,8,2,1.7,0,0.0,-1,0.0,,0.0,0
5766,1469904966220,,,,,,,-0.07,-0.68,1.02,11.3,-0.4,0.4,4480,3644,,,,,,,,,,,,,,,,,
5786,1469904966240,,,,,,,-0.08,-0.58,0.98,11.3,-0.8,-0.2,4840,3661,,,,,,,,,,,,,,,,,
5806,1469904966260,,,,,,,-0.03,-0.62,1.07,11.1,0.0,-0.3,4600,3696,,,,,,,,,,,,,,,,,
5826,1469904966280,,,,,,,-0.08,-0.63,1.02,11.0,-0.2,-0.6,4740,3644,,,,,,,,,,,,,,,,,
5846,1469904966201,0,246.1,194.2,89,196.2,,-0.06,-0.69,0.98,11.3,0.7,-0.9,4780,3680,1.306,3,39.542274,-122.329628,63.07,0.014,298.1,8,2,1.7,0,0.0,-1,0.0,0.0,0.0,0
5866,1469904966221,,,,,,,-0.06,-0.72,0.97,11.2,0.1,-0.9,4540,3661,,,,,,,,,,,,,,,,,
5886,1469904966241,,,,,,,-0.05,-0.65,1.0,11.3,0.0,-1.3,4500,3680,,,,,,,,,,,,,,,,,
5906,1469904966261,,,,,,,-0.04,-0.6,0.97,11.2,-0.2,-1.0,4760,3715,,,,,,,,,,,,,,,,,
5926,1469904966281,,,,,,,-0.04,-0.59,0.96,11.4,0.3,-1.4,4740,3661,,,,,,,,,,,,,,,,,
5946,1469904966301,,,,57,,,-0.01,-0.61,0.98,11.0,0.7,-1.1,4420,3680,1.19,3,39.542274,-122.329628,63.07,0.014,298.1,8,2,1.7,0,0.0,-1,0.0,,0.0,0
5966,1469904966320,,,,,,,0.0,-0.58,0.98,10.9,0.3,-1.4,4860,3680,,,,,,,,,,,,,,,,,
5986,1469904966340,,,,,,,-0.01,-0.6,1.03,10.4,1.7,-0.8,4560,3715,,,,,,,,,,,,,,,,,
6006,1469904966360,,,,,,,-0.03,-0.56,1.03,9.7,2.2,-0.6,4760,3680,,,,,,,,,,,,,,,,,
6026,1469904966380,,,,,,,-0.07,-0.58,0.98,9.2,2.8,-0.0,4780,3715,,,,,,,,,,,,,,,,,
6046,1469904966400,0,246.3,194.0,57,195.7,14.1,-0.06,-0.59,0.97,9.2,1.8,0.5,4600,3696,1.245,3,39.542294,-122.329605,63.43,0.016,298.4,8,2,1.7,0,0.0,-1,0.0,0.0,0.0,0
6066,1469904966420,,,,,,,-0.06,-0.52,0.97,8.9,1.3,0.3,4840,3752,,,,,,,,,,,,,,,,,
6086,1469904966440,,,,,,,-0.07,-0.47,0.97,8.2,1.5,0.6,4800,3696,,,,,,,,,,,,,,,,,
6106,1469904966460,,,,,,,-0.08,-0.46,0.92,8.1,1.1,0.3,4720,3733,,,,,,,,,,,,,,,,,
6126,1469904966480,,,,,,,-0.09,-0.5,0.94,7.7,0.9,0.6,4940,3696,,,,,,,,,,,,,,,,,
6146,1469904966501,,,,60,,,-0.06,-0.44,0.95,7.4,0.3,1.0,4620,3715,1.288,3,39.542332,-122.329552,63.85,0.02,298.6,8,2,1.7,0,0.0,-1,0.0,,0.0,0
6166,1469904966521,,,,,,,-0.11,-0.45,0.91,7.1,1.1,1.2,4620,3733,,,,,,,,,,,,,,,,,
6186,1469904966541,,,,,,,-0.09,-0.42,0.81,7.0,-0.0,1.3,4800,3752,,,,,,,,,,,,,,,,,
6206,1469904966561,,,,,,,-0.13,-0.4,0.92,6.8,-0.4,1.0,4800,3715,,,,,,,,,,,,,,,,,
6226,1469904966581,,,,,,,-0.12,-0.42,0.98,6.1,0.6,1.1,4760,3715,,,,,,,,,,,,,,,,,
6246,1469904966601,0,246.4,193.9,75,195.5,,-0.13,-0.36,1.03,5.7,0.4,0.8,4880,3752,1.301,3,39.542332,-122.329552,63.85,0.02,298.6,8,2,1.7,0,0.0,-1,0.0,0.0,0.0,0
6266,1469904966620,,,,,,,-0.16,-0.38,0.99,5.3,2.1,0.4,4620,3733,,,,,,,,,,,,,,,,,
6286,1469904966640,,,,,,,-0.14,-0.34,0.97,4.9,1.1,0.8,4740,3752,,,,,,,,,,,,,,,,,
6306,1469904966660,,,,,,,-0.14,-0.32,1.0,4.7,0.8,0.3,4820,3715,,,,,,,,,,,,,,,,,
6326,1469904966680,,,,,,,-0.14,-0.37,1.02,4.3,1.7,0.6,4620,3752,,,,,,,,,,,,,,,,,
6346,1469904966700,,,,57,,,-0.15,-0.31,0.98,4.5,1.0,0.3,4840,3752,1.297,3,39.542347,-122.329521,64.2,0.022,298.4,8,2,1.7,0,0.0,-1,0.0,,0.0,0
6366,1469904966720,,,,,,,-0.16,-0.41,1.02,4.6,1.4,0.2,4660,3769,,,,,,,,,,,,,,,,,
6386,1469904966740,,,,,,,-0.14,-0.41,1.04,4.4,0.8,0.0,4760,3733,,,,,,,,,,,,,,,,,
6406,1469904966760,,,,,,,-0.13,-0.39,0.96,4.4,1.1,-0.5,4740,3769,,,,,,,,,,,,,,,,,
6426,1469904966780,,,,,,,-0.15,-0.4,1.0,3.9,2.1,0.0,4680,3733,,,,,,,,,,,,,,,,,
6446,1469904966800,0,246.6,194.4,50,196.1,,-0.13,-0.33,1.0,4.1,1.1,-0.4,4920,3769,1.305,3,39.542362,-122.329498,64.43,0.024,298.6,8,2,1.7,0,0.0,-1,0.0,0.0,0.0,0
6466,1469904966919,,,,,,,-0.12,-0.41,1.08,3.9,1.5,-0.1,4640,3769,,,,,,,,,,,,,,,,,
6486,1469904966939,,,,,,,-0.13,-0.37,1.09,3.5,1.7,0.3,4820,3789,,,,,,,,,,,,,,,,,
6506,1469904966959,,,,,,,-0.15,-0.39,1.06,3.5,1.1,-0.0,4800,3769,,,,,,,,,,,,,,,,,
6526,1469904966979,,,,,,,-0.18,-0.37,1.14,3.0,2.8,0.6,4660,3789,,,,,,,,,,,,,,,,,
6546,1469904966999,,,,53,,,-0.16,-0.29,1.16,2.9,1.3,0.3,5000,3789,1.32,3,39.542397,-122.329445,65.11,0.027,299.0,8,2,1.7,0,0.0,-1,0.0,,0.0,0
6566,1469904967019,,,,,,,-0.13,-0.35,1.19,2.8,3.0,0.3,4600,3789,,,,,,,,,,,,,,,,,
6586,1469904967039,,,,,,,-0.12,-0.33,1.18,2.4,1.9,0.6,4760,3789,,,,,,,,,,,,,,,,,
6606,1469904967059,,,,,,,-0.13,-0.27,1.1,2.3,1.0,0.4,4900,3789,,,,,,,,,,,,,,,,,
6626,1469904967079,,,,,,,-0.1,-0.24,1.15,1.8,2.0,1.0,4700,3789,,,,,,,,,,,,,,,,,
6646,1469904967099,0,246.4,194.6,60,196.3,,-0.13,-0.18,1.15,1.6,1.1,0.9,4920,3789,1.292,3,39.542397,-122.329445,65.11,0.027,299.0,8,2,1.7,0,0.0,-1,0.0,0.0,0.0,0
6666,1469904967020,,,,,,,-0.13,-0.21,1.06,1.5,1.8,1.0,4600,3807,,,,,,,,,,,,,,,,,
6686,1469904967040,,,,,,,-0.13,-0.23,1.1,1.2,0.8,1.6,4840,3807,,,,,,,,,,,,,,,,,
6706,1469904967060,,,,,,,-0.11,-0.14,1.07,1.2,-0.4,1.1,4760,3846,,,,,,,,,,,,,,,,,
6726,1469904967080,,,,,,,-0.1,-0.24,1.01,1.0,0.9,1.3,5080,3807,,,,,,,,,,,,,,,,,
6746,1469904967100,,,,57,,,-0.1,-0.21,0.96,0.9,-0.2,1.3,4860,3826,1.3,3,39.542412,-122.329422,65.48,0.029,298.9,8,2,1.7,0,0.0,-1,0.0,,0.0,0
6766,1469904967120,,,,,,,-0.11,-0.21,0.95,0.7,-1.1,1.0,4580,3789,,,,,,,,,,,,,,,,,
6786,1469904967140,,,,,,,-0.09,-0.15,0.95,0.3,-0.1,1.2,4820,3826,,,,,,,,,,,,,,,,,
6806,1469904967160,,,,,,,-0.12,-0.08,0.97,0.0,-1.6,0.6,4780,3846,,,,,,,,,,,,,,,,,
6826,1469904967180,,,,,,,-0.15,-0.16,0.99,-0.0,0.1,0.8,4960,3864,,,,,,,,,,,,,,,,,
6846,1469904967200,0,247.5,194.9,66,196.4,,-0.12,-0.12,1.08,-0.2,-0.7,1.2,4760,3864,1.238,3,39.542431,-122.329399,65.73,0.031,299.1,8,2,1.7,0,0.0,-1,0.0,0.0,0.0,0
6866,1469904967220,,,,,,,-0.14,-0.08,1.04,-0.2,-0.9,0.4,5040,3846,,,,,,,,,,,,,,,,,
6886,1469904967240,,,,,,,-0.16,-0.13,1.0,-0.5,0.9,0.5,4760,3864,,,,,,,,,,,,,,,,,
6906,1469904967260,,,,,,,-0.15,-0.18,1.0,-0.7,-0.0,0.8,4920,3826,,,,,,,,,,,,,,,,,
6926,1469904967280,,,,,,,-0.15,-0.12,0.94,-0.5,-0.7,0.0,5000,3864,,,,,,,,,,,,,,,,,
6946,1469904967300,,,,64,,,-0.15,-0.15,0.93,-1.0,0.5,0.4,5140,3846,1.19,3,39.542446,-122.329369,66.07,0.033,299.2,8,2,1.7,0,0.0,-1,0.0,,0.0,0
6966,1469904967320,,,,,,,-0.19,-0.04,0.95,-1.0,-1.5,-0.0,5040,3846,,,,,,,,,,,,,,,,,
6986,1469904967340,,,,,,,-0.2,-0.13,0.92,-1.0,-0.7,-0.0,4780,3826,,,,,,,,,,,,,,,,,
7006,1469904967360,,,,,,,-0.15,-0.06,0.95,-1.4,-0.6,0.8,4780,3789,,,,,,,,,,,,,,,,,
7026,1469904967380,,,,,,,-0.17,0.04,0.98,-1.7,-2.4,0.3,4820,3715,,,,,,,,,,,,,,,,,
7046,1469904967400,0,245.9,194.1,57,195.9,13.94,-0.15,-0.06,0.96,-1.9,-0.6,0.3,4660,3696,1.255,3,39.542461,-122.329346,66.49,0.034,299.3,8,2,1.7,0,0.0,-1,0.0,0.0,0.0,0
7066,1469904967420,,,,,,,-0.13,-0.07,0.99,-1.8,-2.2,0.4,4780,3696,,,,,,,,,,,,,,,,,
7086,1469904967440,,,,,,,-0.09,-0.13,1.03,-1.7,-1.0,0.8,4700,3696,,,,,,,,,,,,,,,,,
7106,1469904967460,,,,,,,0.02,-0.11,0.95,-1.6,-1.1,1.3,4660,3661,,,,,,,,,,,,,,,,,
7126,1469904967480,,,,,,,-0.02,-0.08,0.94,-1.5,-1.3,1.4,4880,3769,,,,,,,,,,,,,,,,,
7146,1469904967501,,,,58,,,-0.01,-0.04,0.99,-1.8,-2.5,1.5,4820,3807,1.279,3,39.542492,-122.329285,67.11,0.038,299.4,8,2,1.7,0,0.0,-1,0.0,,0.0,0
7166,1469904967521,,,,,,,0.03,0.06,0.98,-1.8,-3.3,1.1,4820,3826,,,,,,,,,,,,,,,,,
7186,1469904967541,,,,,,,0.08,-0.01,0.98,-2.1,-1.4,1.3,4820,3789,,,,,,,,,,,,,,,,,
7206,1469904967561,,,,,,,0.05,-0.04,1.0,-2.1,-2.1,1.5,4840,3769,,,,,,,,,,,,,,,,,
7226,1469904967581,,,,,,,0.06,0.03,1.01,-1.5,-1.8,0.9,4680,3769,,,,,,,,,,,,,,,,,
7246,1469904967601,0,246.4,194.3,61,196.7,,0.09,0.03,1.03,-1.6,-1.5,0.7,4760,3789,1.256,3,39.542507,-122.329254,67.19,0.04,299.3,8,2,1.7,0,0.0,-1,0.0,0.0,0.0,0
7266,1469904967720,,,,,,,0.09,0.17,0.96,-2.0,-1.1,0.2,4800,3752,,,,,,,,,,,,,,,,,
7286,1469904967740,,,,,,,0.08,-0.01,0.92,-2.0,0.2,0.3,4740,3733,,,,,,,,,,,,,,,,,
7306,1469904967760,,,,,,,0.09,0.02,0.88,-1.9,-1.2,0.5,4700,3715,,,,,,,,,,,,,,,,,
7326,1469904967780,,,,,,,0.11,0.01,0.88,-1.4,-1.1,0.3,4800,3752,,,,,,,,,,,,,,,,,
7346,1469904967800,,,,61,,,0.14,0.08,0.92,-1.8,-0.4,0.4,4740,3769,1.276,3,39.542522,-122.329231,66.81,0.042,299.2,8,2,1.7,0,0.0,-1,0.0,,0.0,0
7366,1469904967820,,,,,,,0.11,0.17,0.87,-2.2,-0.8,-0.2,4740,3752,,,,,,,,,,,,,,,,,
7386,1469904967840,,,,,,,0.12,0.11,0.87,-2.5,-0.5,-0.2,4620,3715,,,,,,,,,,,,,,,,,
7406,1469904967860,,,,,,,0.15,0.06,0.95,-2.8,-1.8,-0.2,4740,3752,,,,,,,,,,,,,,,,,
7426,1469904967880,,,,,,,0.14,0.09,0.92,-2.5,-1.2,-0.4,4740,3733,,,,,,,,,,,,,,,,,
7446,1469904967801,0,247.1,194.3,53,195.9,,0.11,0.01,0.9,-2.4,-0.6,0.1,4660,3715,1.261,3,39.542538,-122.329193,66.69,0.044,299.1,8,2,1.7,0,0.0,-1,0.0,0.0,0.0,0
7466,1469904967821,,,,,,,0.08,0.12,0.82,-2.5,-1.8,0.1,4700,3680,,,,,,,,,,,,,,,,,
7486,1469904967841,,,,,,,0.14,0.1,0.88,-2.8,-1.0,0.0,4740,3752,,,,,,,,,,,,,,,,,
7506,1469904967861,,,,,,,0.18,0.07,0.98,-3.2,-1.1,-0.1,4740,3680,,,,,,,,,,,,,,,,,
7526,1469904967881,,,,,,,0.19,0.05,0.94,-3.4,-0.4,-0.1,4660,3680,,,,,,,,,,,,,,,,,
7546,1469904967901,,,,57,,,0.21,-0.01,0.95,-3.5,-1.8,0.3,4720,3661,1.277,3,39.542538,-122.329193,66.69,0.044,299.1,8,2,1.7,0,0.0,-1,0.0,,0.0,0
7566,1469904967916,,,,,,,0.23,0.02,1.0,-3.3,-1.1,0.5,4640,3680,,,,,,,,,,,,,,,,,
7586,1469904967936,,,,,,,0.28,-0.01,0.94,-3.3,-2.3,0.6,4620,3627,,,,,,,,,,,,,,,,,
7606,1469904967956,,,,,,,0.3,0.08,0.88,-3.4,-2.3,0.7,4720,3627,,,,,,,,,,,,,,,,,
7626,1469904967976,,,,,,,0.29,0.03,0.91,-4.1,-2.0,0.6,4620,3644,,,,,,,,,,,,,,,,,
7646,1469904968001,1,246.8,194.6,53,196.8,,0.25,0.13,0.82,-4.7,-3.0,0.4,4580,3593,1.274,3,39.542568,-122.32914,65.97,0.047,298.7,8,2,1.7,0,0.0,-1,0.0,0.0,0.0,0
7666,1469904968021,,,,,,,0.3,0.16,0.89,-5.4,-1.9,0.2,4600,3661,,,,,,,,,,,,,,,,,
7686,1469904968041,,,,,,,0.3,0.19,0.95,-6.0,-2.3,0.1,4580,3593,,,,,,,,,,,,,,,,,
7706,1469904968061,,,,,,,0.36,0.24,0.82,-6.6,-1.8,0.0,4600,3560,,,,,,,,,,,,,,,,,
7726,1469904968081,,,,,,,0.33,0.28,0.93,-6.9,-2.0,-0.4,4600,3576,,,,,,,,,,,,,,,,,
7746,1469904968101,,,,47,,,0.36,0.3,0.91,-7.3,-0.7,-0.1,4500,3544,1.264,3,39.542583,-122.329117,65.33,0.049,298.4,8,2,1.7,0,0.0,-1,0.0,,0.0,0
7766,1469904968121,,,,,,,0.41,0.27,1.01,-7.5,-1.3,0.0,4460,3593,,,,,,,,,,,,,,,,,
7786,1469904968141,,,,,,,0.45,0.26,1.0,-7.7,-1.0,0.4,4560,3527,,,,,,,,,,,,,,,,,
7806,1469904968161,,,,,,,0.47,0.27,1.05,-7.6,-0.7,0.6,4560,3544,,,,,,,,,,,,,,,,,
7826,1469904968181,,,,,,,0.43,0.22,1.01,-7.6,0.6,0.6,4580,3527,,,,,,,,,,,,,,,,,
7846,1469904968201,0,245.8,195.0,60,197.3,,0.45,0.22,1.05,-7.7,-0.4,0.7,4540,3527,1.287,3,39.542599,-122.329086,64.46,0.051,298.1,8,2,1.7,0,0.0,-1,0.0,0.0,0.0,0
7866,1469904968221,,,,,,,0.45,0.23,1.04,-7.8,-1.2,0.8,4540,3495,,,,,,,,,,,,,,,,,
7886,1469904968241,,,,,,,0.48,0.21,1.03,-7.6,-1.0,0.9,4500,3544,,,,,,,,,,,,,,,,,
7906,1469904968261,,,,,,,0.47,0.24,1.01,-7.8,-1.2,1.0,4400,3480,,,,,,,,,,,,,,,,,
7926,1469904968281,,,,,,,0.49,0.26,1.06,-8.0,-0.7,1.2,4440,3464,,,,,,,,,,,,,,,,,
7946,1469904968301,,,,58,,,0.45,0.27,0.98,-8.2,-0.3,1.4,4320,3464,1.241,3,39.54261,-122.329063,63.51,0.052,297.8,8,2,1.7,0,0.0,-1,0.0,,0.0,0
7966,1469904968321,,,,,,,0.45,0.27,1.05,-8.1,-0.8,0.9,4340,3433,,,,,,,,,,,,,,,,,
7986,1469904968341,,,,,,,0.46,0.33,1.0,-8.5,-0.7,0.9,4360,3449,,,,,,,,,,,,,,,,,
8006,1469904968361,,,,,,,0.51,0.36,1.09,-9.0,-1.1,0.6,4420,3403,,,,,,,,,,,,,,,,,
8026,1469904968381,,,,,,,0.49,0.37,1.03,-9.8,-0.6,1.0,4340,3449,,,,,,,,,,,,,,,,,
8046,1469904968401,0,246.6,195.3,66,197.0,14.12,0.53,0.47,0.94,-10.0,-1.4,0.8,4380,3433,1.27,3,39.54261,-122.329063,63.51,0.052,297.8,8,2,1.7,0,0.0,-1,0.0,0.0,0.0,0
8066,1469904968517,,,,,,,0.5,0.45,1.0,-10.4,-0.9,0.8,4380,3372,,,,,,,,,,,,,,,,,
8086,1469904968537,,,,,,,0.46,0.49,0.95,-10.8,-0.7,0.9,4440,3418,,,,,,,,,,,,,,,,,
8106,1469904968557,,,,,,,0.46,0.47,0.95,-10.9,-0.4,0.7,4340,3418,,,,,,,,,,,,,,,,,
8126,1469904968577,,,,,,,0.45,0.42,1.05,-11.0,-0.2,0.6,4280,3358,,,,,,,,,,,,,,,,,
8146,1469904968597,,,,80,,,0.44,0.42,1.03,-10.8,0.6,0.3,4240,3372,1.268,3,39.542641,-122.329002,61.84,0.056,297.2,8,2,1.7,0,0.0,-1,0.0,,0.0,0
8166,1469904968617,,,,,,,0.45,0.41,1.01,-10.8,1.0,0.6,4280,3403,,,,,,,,,,,,,,,,,
8186,1469904968637,,,,,,,0.49,0.38,1.06,-10.7,0.6,0.3,4260,3358,,,,,,,,,,,,,,,,,
8206,1469904968657,,,,,,,0.47,0.36,1.07,-10.9,1.0,0.4,4280,3329,,,,,,,,,,,,,,,,,
8226,1469904968677,,,,,,,0.47,0.43,1.0,-11.1,1.6,0.5,4280,3358,,,,,,,,,,,,,,,,,
8246,1469904968697,0,246.6,194.4,52,196.2,,0.51,0.4,0.94,-11.1,1.5,0.4,4340,3358,1.292,3,39.542641,-122.329002,61.84,0.056,297.2,8,2,1.7,0,0.0,-1,0.0,0.0,0.0,0
8266,1469904968618,,,,,,,0.46,0.35,1.04,-11.1,1.5,0.4,4340,3343,,,,,,,,,,,,,,,,,
8286,1469904968638,,,,,,,0.43,0.33,1.07,-10.9,1.4,0.4,4240,3343,,,,,,,,,,,,,,,,,
8306,1469904968658,,,,,,,0.41,0.41,0.99,-10.9,0.4,0.8,4200,3329,,,,,,,,,,,,,,,,,
8326,1469904968678,,,,,,,0.45,0.46,0.98,-11.0,-0.7,0.3,4200,3329,,,,,,,,,,,,,,,,,
8346,1469904968698,,,,51,,,0.42,0.46,1.02,-11.4,-0.6,0.1,4220,3315,1.273,3,39.542656,-122.328972,61.01,0.058,296.9,8,2,1.7,0,0.0,-1,0.0,,0.0,0
8366,1469904968718,,,,,,,0.38,0.42,1.02,-11.3,-0.1,-0.1,4200,3300,,,,,,,,,,,,,,,,,
8386,1469904968738,,,,,,,0.36,0.42,0.97,-11.1,1.1,0.1,4240,3300,,,,,,,,,,,,,,,,,
8406,1469904968758,,,,,,,0.39,0.47,0.96,-11.2,1.0,-0.1,4140,3272,,,,,,,,,,,,,,,,,
8426,1469904968778,,,,,,,0.4,0.46,0.93,-11.3,0.9,-0.5,4160,3258,,,,,,,,,,,,,,,,,
8446,1469904968801,0,246.3,194.9,63,196.7,,0.34,0.44,0.98,-11.6,0.6,-0.1,4160,3244,1.277,3,39.542686,-122.328934,59.4,0.061,296.8,8,2,1.7,0,0.0,-1,0.0,0.0,0.0,0
8466,1469904968821,,,,,,,0.3,0.38,1.02,-11.6,0.5,-0.0,4160,3230,,,,,,,,,,,,,,,,,
8486,1469904968841,,,,,,,0.27,0.4,1.06,-11.7,1.4,-0.2,4220,3244,,,,,,,,,,,,,,,,,
8506,1469904968861,,,,,,,0.3,0.5,1.02,-11.9,0.3,0.1,4200,3230,,,,,,,,,,,,,,,,,
8526,1469904968881,,,,,,,0.36,0.5,0.99,-12.1,-0.2,0.2,4060,3244,,,,,,,,,,,,,,,,,
8546,1469904968901,,,,58,,,0.4,0.5,0.93,-12.0,-1.0,-0.1,4000,3230,1.238,3,39.542686,-122.328934,59.4,0.061,296.8,8,2,1.7,0,0.0,-1,0.0,,0.0,0
8566,1469904968915,,,,,,,0.41,0.5,1.0,-12.1,-1.7,-0.4,4060,3244,,,,,,,,,,,,,,,,,
8586,1469904968935,,,,,,,0.39,0.49,1.02,-12.5,-0.8,-0.7,4000,3244,,,,,,,,,,,,,,,,,
8606,1469904968955,,,,,,,0.36,0.49,1.05,-12.9,-0.4,-0.2,4000,3218,,,,,,,,,,,,,,,,,
8626,1469904968975,,,,,,,0.36,0.43,1.07,-12.7,0.6,-0.1,4060,3190,,,,,,,,,,,,,,,,,
8646,1469904969001,0,247.5,194.8,53,196.6,,0.31,0.43,1.1,-12.5,1.8,-0.7,4100,3178,1.28,3,39.542717,-122.328888,58.01,0.064,296.9,8,2,1.7,0,0.0,-1,0.0,0.0,0.0,0
8666,1469904969021,,,,,,,0.3,0.43,1.04,-12.4,2.2,-0.5,4020,3164,,,,,,,,,,,,,,,,,
8686,1469904969041,,,,,,,0.3,0.45,1.01,-12.4,3.0,-0.5,4060,3164,,,,,,,,,,,,,,,,,
8706,1469904969061,,,,,,,0.28,0.46,0.97,-12.1,3.6,-0.6,4020,3164,,,,,,,,,,,,,,,,,
8726,1469904969081,,,,,,,0.29,0.51,0.87,-12.2,2.5,-0.4,4020,3178,,,,,,,,,,,,,,,,,
8746,1469904969101,,,,65,,,0.29,0.51,0.86,-12.2,2.0,-0.7,4100,3178,1.245,3,39.542732,-122.328857,57.25,0.066,296.8,8,2,1.7,0,0.0,-1,0.0,,0.0,0
8766,1469904969121,,,,,,,0.25,0.57,0.85,-12.2,1.5,-0.9,4000,3190,,,,,,,,,,,,,,,,,
8786,1469904969141,,,,,,,0.28,0.62,0.83,-12.4,0.2,-1.0,4100,3178,,,,,,,,,,,,,,,,,
8806,1469904969161,,,,,,,0.28,0.66,0.84,-12.5,-0.1,-1.0,4000,3152,,,,,,,,,,,,,,,,,
8826,1469904969181,,,,,,,0.29,0.67,0.83,-12.5,-0.5,-0.7,4000,3152,,,,,,,,,,,,,,,,,
8846,1469904969201,0,246.9,195.6,57,197.2,,0.3,0.72,0.84,-12.7,-0.7,-0.5,3980,3152,1.268,3,39.542748,-122.328835,56.72,0.068,296.8,8,2,1.7,0,0.0,-1,0.0,0.0,0.0,0
8866,1469904969320,,,,,,,0.35,0.69,0.86,-13.1,-1.4,-0.7,4000,3164,,,,,,,,,,,,,,,,,
8886,1469904969340,,,,,,,0.32,0.67,0.84,-13.2,-0.5,-0.7,4020,3164,,,,,,,,,,,,,,,,,
8906,1469904969360,,,,,,,0.34,0.72,0.83,-13.5,-0.3,-0.8,4000,3178,,,,,,,,,,,,,,,,,
8926,1469904969380,,,,,,,0.32,0.74,0.8,-13.8,-0.3,-1.0,4060,3178,,,,,,,,,,,,,,,,,
8946,1469904969400,,,,54,,,0.29,0.73,0.83,-13.9,0.2,-1.0,4040,3190,1.277,3,39.542767,-122.328819,56.22,0.07,296.8,8,2,1.7,0,0.0,-1,0.0,,0.0,0
8966,1469904969420,,,,,,,0.29,0.78,0.83,-14.3,0.2,-0.7,4060,3190,,,,,,,,,,,,,,,,,
8986,1469904969440,,,,,,,0.28,0.82,0.83,-14.7,0.2,-0.7,4100,3178,,,,,,,,,,,,,,,,,
9006,1469904969460,,,,,,,0.25,0.86,0.8,-14.7,-0.8,-0.6,3980,3164,,,,,,,,,,,,,,,,,
9026,1469904969480,,,,,,,0.26,0.88,0.84,-15.0,-0.7,-0.5,4080,3190,,,,,,,,,,,,,,,,,
9046,1469904969500,0,248.6,192.8,49,194.9,13.79,0.27,0.89,0.83,-15.2,-1.0,-0.3,4080,3204,1.279,3,39.542767,-122.328819,56.22,0.07,296.8,8,2,1.7,0,0.0,-1,0.0,0.0,0.0,0
9066,1469904969420,,,,,,,0.27,0.83,0.82,-15.7,-1.2,0.2,4100,3190,,,,,,,,,,,,,,,,,
9086,1469904969440,,,,,,,0.24,0.77,0.89,-16.1,-0.9,0.5,4060,3204,,,,,,,,,,,,,,,,,
9106,1469904969460,,,,,,,0.26,0.76,0.84,-16.3,-0.2,0.4,3960,3190,,,,,,,,,,,,,,,,,
9126,1469904969480,,,,,,,0.25,0.75,0.86,-16.7,-0.4,0.9,4040,3178,,,,,,,,,,,,,,,,,
9146,1469904969502,,,,46,,,0.23,0.67,0.9,-17.1,-0.2,1.3,4020,3190,1.266,3,39.542797,-122.328781,55.59,0.073,296.6,8,2,1.7,0,0.0,-1,0.0,,0.0,0
9166,1469904969522,,,,,,,0.22,0.68,0.99,-17.3,0.6,1.1,4080,3218,,,,,,,,,,,,,,,,,
9186,1469904969542,,,,,,,0.19,0.71,0.96,-17.8,1.2,1.0,4060,3204,,,,,,,,,,,,,,,,,
9206,1469904969562,,,,,,,0.2,0.71,0.95,-18.2,0.6,0.9,3980,3152,,,,,,,,,,,,,,,,,
9226,1469904969582,,,,,,,0.19,0.71,1.03,-18.4,1.7,0.5,4100,3152,,,,,,,,,,,,,,,,,
9246,1469904969592,0,244.4,197.1,54,198.7,,0.18,0.76,1.01,-18.8,1.6,0.3,3920,3152,1.249,3,39.542812,-122.328758,55.41,0.074,296.5,8,2,1.7,0,0.0,-1,0.0,0.0,0.0,0
9266,1469904969612,,,,,,,0.17,0.76,0.99,-18.9,2.2,0.1,4000,3164,,,,,,,,,,,,,,,,,
9286,1469904969632,,,,,,,0.12,0.7,1.04,-18.9,2.3,-0.1,4040,3152,,,,,,,,,,,,,,,,,
9306,1469904969652,,,,,,,0.1,0.77,1.06,-18.9,2.0,-0.2,4000,3138,,,,,,,,,,,,,,,,,
9326,1469904969672,,,,,,,0.1,0.78,1.01,-18.9,1.4,-0.3,4000,3152,,,,,,,,,,,,,,,,,
9346,1469904969692,,,,63,,,0.07,0.78,1.05,-18.5,1.4,-0.8,4020,3138,1.275,3,39.542828,-122.328728,55.45,0.076,296.4,8,2,1.7,0,0.0,-1,0.0,,0.0,0
9366,1469904969712,,,,,,,0.09,0.81,1.1,-18.3,0.3,-0.9,3980,3138,,,,,,,,,,,,,,,,,
9386,1469904969732,,,,,,,0.13,0.81,1.01,-17.9,-0.2,-1.1,3980,3164,,,,,,,,,,,,,,,,,
9406,1469904969752,,,,,,,0.14,0.82,1.01,-17.8,-0.2,-1.2,4020,3152,,,,,,,,,,,,,,,,,
9426,1469904969772,,,,,,,0.14,0.84,0.94,-17.8,-0.8,-1.0,4020,3164,,,,,,,,,,,,,,,,,
9446,1469904969794,0,247.3,194.8,83,196.5,,0.18,0.81,0.9,-17.5,-1.1,-1.1,4000,3138,1.264,3,39.542847,-122.32872,55.27,0.077,296.4,8,2,1.7,0,0.0,-1,0.0,0.0,0.0,0
9466,1469904969814,,,,,,,0.2,0.81,0.94,-17.5,-0.7,-1.4,4000,3138,,,,,,,,,,,,,,,,,
9486,1469904969834,,,,,,,0.22,0.84,0.91,-17.8,-0.6,-1.4,3920,3126,,,,,,,,,,,,,,,,,
9506,1469904969854,,,,,,,0.23,0.83,0.91,-17.8,-0.2,-1.5,4000,3126,,,,,,,,,,,,,,,,,
9526,1469904969874,,,,,,,0.22,0.81,0.93,-18.0,1.3,-1.4,4000,3126,,,,,,,,,,,,,,,,,
9546,1469904969894,,,,47,,,0.24,0.83,0.9,-18.3,0.9,-1.1,3980,3126,1.268,3,39.542847,-122.32872,55.27,0.077,296.4,8,2,1.7,0,0.0,-1,0.0,,0.0,0
9566,1469904969909,,,,,,,0.24,0.81,0.87,-18.3,1.1,-1.0,3940,3126,,,,,,,,,,,,,,,,,
9586,1469904969929,,,,,,,0.23,0.85,0.91,-18.2,1.4,-1.1,3940,3113,,,,,,,,,,,,,,,,,
9606,1469904969949,,,,,,,0.23,0.89,0.87,-18.5,1.6,-0.7,4020,3101,,,,,,,,,,,,,,,,,
9626,1469904969969,,,,,,,0.25,0.88,0.86,-18.6,2.0,-0.6,3960,3101,,,,,,,,,,,,,,,,,
9646,1469904970094,0,247.3,194.2,40,196.3,,0.26,0.86,0.87,-18.4,2.2,-0.5,3960,3076,1.268,3,39.5429,-122.328667,54.98,0.082,296.7,8,2,1.7,0,0.0,-1,0.0,0.0,0.0,0
9666,1469904970114,,,,,,,0.27,0.88,0.83,-18.7,1.7,-0.5,3940,3089,,,,,,,,,,,,,,,,,
9686,1469904970134,,,,,,,0.29,0.86,0.85,-18.9,2.1,-0.4,3940,3064,,,,,,,,,,,,,,,,,
9706,1469904970154,,,,,,,0.29,0.85,0.87,-19.1,2.7,-0.6,3740,3040,,,,,,,,,,,,,,,,,
9726,1469904970174,,,,,,,0.27,0.82,0.87,-19.2,2.8,-0.4,3800,3027,,,,,,,,,,,,,,,,,
9746,1469904970194,,,,61,,,0.28,0.84,0.94,-19.3,2.7,-0.0,3800,3027,1.26,3,39.5429,-122.328667,54.98,0.082,296.7,8,2,1.7,0,0.0,-1,0.0,,0.0,0
9766,1469904970214,,,,,,,0.27,0.89,0.96,-19.5,2.3,0.1,3860,3040,,,,,,,,,,,,,,,,,
9786,1469904970234,,,,,,,0.26,0.88,0.96,-19.6,1.8,0.2,3880,3076,,,,,,,,,,,,,,,,,
9806,1469904970254,,,,,,,0.24,0.9,0.93,-19.6,1.3,0.1,3880,3064,,,,,,,,,,,,,,,,,
9826,1469904970274,,,,,,,0.22,0.86,0.91,-19.7,0.5,-0.0,3960,3076,,,,,,,,,,,,,,,,,
9846,1469904970194,1,246.8,194.8,63,196.4,,0.22,0.87,0.93,-19.8,0.5,-0.2,3940,3089,1.279,3,39.542919,-122.328651,54.88,0.084,296.6,8,2,1.7,0,0.0,-1,0.0,0.0,0.0,0
9866,1469904970214,,,,,,,0.22,0.88,0.92,-20.3,0.0,0.1,3960,3064,,,,,,,,,,,,,,,,,
9886,1469904970234,,,,,,,0.23,0.76,0.96,-20.5,0.3,0.3,3900,3064,,,,,,,,,,,,,,,,,
9906,1469904970254,,,,,,,0.23,0.79,0.99,-20.6,0.6,0.0,3880,3076,,,,,,,,,,,,,,,,,
9926,1469904970274,,,,,,,0.23,0.8,0.97,-21.1,0.8,0.5,3960,3089,,,,,,,,,,,,,,,,,
9946,1469904970294,,,,46,,,0.22,0.78,0.96,-21.4,1.0,0.8,3800,3089,1.24,3,39.542938,-122.328629,54.67,0.086,296.4,8,2,1.7,0,0.0,-1,0.0,,0.0,0
9966,1469904970314,,,,,,,0.21,0.82,0.94,-21.4,0.6,0.6,3900,3089,,,,,,,,,,,,,,,,,
9986,1469904970334,,,,,,,0.18,0.8,0.95,-21.6,0.9,0.8,3920,3089,,,,,,,,,,,,,,,,,
10006,1469904970354,,,,,,,0.18,0.85,0.94,-21.7,0.8,1.2,3880,3089,,,,,,,,,,,,,,,,,
10026,1469904970374,,,,,,,0.17,0.87,0.9,-21.5,0.7,1.2,3900,3076,,,,,,,,,,,,,,,,,
10046,1469904970392,0,247.3,195.4,42,197.1,14.0,0.18,0.86,0.93,-21.6,0.6,1.2,3880,3076,1.277,3,39.542957,-122.328613,54.42,0.087,296.3,8,2,1.7,0,0.0,-1,0.0,0.0,0.0,0
10066,1469904970412,,,,,,,0.21,0.9,0.89,-21.7,0.3,1.3,3800,3064,,,,,,,,,,,,,,,,,
10086,1469904970432,,,,,,,0.22,0.85,0.9,-21.6,0.2,1.3,3920,3089,,,,,,,,,,,,,,,,,
10106,1469904970452,,,,,,,0.22,0.89,0.86,-21.4,0.5,0.9,3960,3113,,,,,,,,,,,,,,,,,
10126,1469904970472,,,,,,,0.22,0.85,0.81,-21.6,-0.0,0.9,3860,3076,,,,,,,,,,,,,,,,,
10146,1469904970492,,,,49,,,0.19,0.86,0.8,-21.5,0.1,1.0,3940,3089,1.275,3,39.542973,-122.328606,54.1,0.088,296.1,8,2,1.7,0,0.0,-1,0.0,,0.0,0
10166,1469904970512,,,,,,,0.2,0.91,0.81,-21.3,-0.4,0.8,3920,3076,,,,,,,,,,,,,,,,,
10186,1469904970532,,,,,,,0.15,0.89,0.83,-21.6,0.2,1.1,3900,3052,,,,,,,,,,,,,,,,,
10206,1469904970552,,,,,,,0.13,0.92,0.81,-21.7,1.6,1.0,4000,3101,,,,,,,,,,,,,,,,,
10226,1469904970572,,,,,,,0.12,0.95,0.87,-21.6,2.7,0.9,3940,3113,,,,,,,,,,,,,,,,,
10246,1469904970591,1,250.1,196.7,90,196.5,,0.1,0.97,0.91,-21.7,2.9,0.9,3860,3101,1.235,3,39.542995,-122.32859,53.98,0.09,295.8,8,2,1.7,0,0.0,-1,0.0,0.0,0.0,0
10266,1469904970611,,,,,,,0.1,0.98,0.9,-21.8,2.7,0.9,3920,3113,,,,,,,,,,,,,,,,,
10286,1469904970631,,,,,,,0.1,0.98,0.97,-21.7,1.6,0.9,4020,3126,,,,,,,,,,,,,,,,,
10306,1469904970651,,,,,,,0.09,0.94,0.95,-21.5,0.9,1.0,4000,3126,,,,,,,,,,,,,,,,,
10326,1469904970671,,,,,,,0.07,0.97,0.93,-21.6,0.6,1.0,4000,3101,,,,,,,,,,,,,,,,,
10346,1469904970692,,,,36,,,0.06,1.0,0.99,-21.7,0.8,0.9,3960,3089,1.287,3,39.543014,-122.328575,53.75,0.092,296.3,8,2,1.7,0,0.0,-1,0.0,,0.0,0
10366,1469904970712,,,,,,,0.07,0.94,0.96,-21.6,0.1,0.7,3800,3076,,,,,,,,,,,,,,,,,
10386,1469904970732,,,,,,,0.04,0.96,0.97,-21.6,-1.0,0.6,3860,3064,,,,,,,,,,,,,,,,,
10406,1469904970752,,,,,,,0.05,0.95,0.91,-21.7,-1.5,0.8,3900,3064,,,,,,,,,,,,,,,,,
10426,1469904970772,,,,,,,0.07,0.94,0.87,-21.9,-1.1,0.6,3900,3064,,,,,,,,,,,,,,,,,
10446,1469904970893,0,246.6,194.3,78,196.9,,0.05,0.94,0.84,-21.9,-1.6,0.5,3940,3076,1.275,3,39.543053,-122.328568,53.5,0.094,296.5,8,2,1.7,0,0.0,-1,0.0,0.0,0.0,0
10466,1469904970913,,,,,,,0.08,0.91,0.8,-21.6,-2.2,0.5,3980,3064,,,,,,,,,,,,,,,,,
10486,1469904970933,,,,,,,0.07,0.94,0.87,-21.5,-1.8,0.6,3940,3076,,,,,,,,,,,,,,,,,
10506,1469904970953,,,,,,,0.08,1.02,0.92,-21.8,-1.6,0.8,3940,3064,,,,,,,,,,,,,,,,,
10526,1469904970973,,,,,,,0.09,0.99,0.97,-22.0,-0.4,0.8,3920,3052,,,,,,,,,,,,,,,,,
10546,1469904970993,,,,82,,,0.12,1.01,1.04,-21.9,0.6,0.2,3920,3064,1.284,3,39.543053,-122.328568,53.5,0.094,296.5,8,2,1.7,0,0.0,-1,0.0,,0.0,0
10566,1469904971013,,,,,,,0.12,1.03,1.13,-22.0,2.5,0.1,3940,3052,,,,,,,,,,,,,,,,,
10586,1469904971033,,,,,,,0.16,1.04,1.19,-22.1,3.6,0.1,3820,3040,,,,,,,,,,,,,,,,,
10606,1469904971053,,,,,,,0.19,1.02,1.16,-22.2,4.7,0.1,3920,3040,,,,,,,,,,,,,,,,,
10626,1469904971073,,,,,,,0.21,1.06,1.22,-22.2,6.2,-0.3,3840,3052,,,,,,,,,,,,,,,,,
10646,1469904970993,0,246.6,195.0,53,197.0,,0.22,1.14,1.21,-22.7,7.2,-0.1,3920,3064,1.274,3,39.543076,-122.328552,53.49,0.096,296.5,8,2,1.7,0,0.0,-1,0.0,0.0,0.0,0
10666,1469904971013,,,,,,,0.31,1.13,1.2,-22.7,7.5,0.1,3860,3064,,,,,,,,,,,,,,,,,
10686,1469904971033,,,,,,,0.33,1.13,1.15,-22.7,7.7,0.0,3920,3089,,,,,,,,,,,,,,,,,
10706,1469904971053,,,,,,,0.33,1.15,1.16,-23.1,7.8,0.3,3880,3089,,,,,,,,,,,,,,,,,
10726,1469904971073,,,,,,,0.34,1.18,1.17,-23.3,8.7,0.6,3860,3089,,,,,,,,,,,,,,,,,
10746,1469904971093,,,,46,,,0.34,1.21,1.18,-23.4,8.8,0.3,3900,3101,1.268,3,39.543095,-122.328537,53.41,0.098,296.4,8,2,1.7,0,0.0,-1,0.0,,0.0,0
10766,1469904971113,,,,,,,0.28,1.22,1.25,-23.7,8.4,0.6,3920,3126,,,,,,,,,,,,,,,,,
10786,1469904971133,,,,,,,0.24,1.2,1.22,-23.9,7.2,0.7,3860,3101,,,,,,,,,,,,,,,,,
10806,1469904971153,,,,,,,0.2,1.21,1.23,-24.1,6.5,0.7,3900,3101,,,,,,,,,,,,,,,,,
10826,1469904971173,,,,,,,0.19,1.21,1.19,-23.9,5.2,0.5,3820,3113,,,,,,,,,,,,,,,,,
10846,1469904971193,0,247.5,195.0,55,197.2,,0.19,1.25,1.16,-23.8,3.0,0.6,3940,3089,1.275,3,39.543118,-122.328537,53.36,0.099,296.4,8,2,1.7,0,0.0,-1,0.0,0.0,0.0,0
10866,1469904971213,,,,,,,0.18,1.2,1.11,-23.7,0.7,0.6,3880,3101,,,,,,,,,,,,,,,,,
10886,1469904971233,,,,,,,0.16,1.19,0.99,-23.3,-1.0,0.5,3920,3064,,,,,,,,,,,,,,,,,
10906,1469904971253,,,,,,,0.19,1.25,0.91,-23.0,-3.2,0.3,3960,3076,,,,,,,,,,,,,,,,,
10926,1469904971273,,,,,,,0.18,1.2,0.83,-22.7,-4.3,0.2,3880,3064,,,,,,,,,,,,,,,,,
10946,1469904971293,,,,71,,,0.2,1.24,0.85,-22.4,-5.5,-0.6,3900,3076,1.263,3,39.543137,-122.328529,53.54,0.1,296.3,8,2,1.7,0,0.0,-1,0.0,,0.0,0
10966,1469904971313,,,,,,,0.21,1.28,0.81,-22.4,-6.1,-0.7,3980,3052,,,,,,,,,,,,,,,,,
10986,1469904971333,,,,,,,0.25,1.29,0.88,-22.3,-5.8,-0.5,3920,3064,,,,,,,,,,,,,,,,,
11006,1469904971353,,,,,,,0.27,1.25,0.93,-22.3,-4.5,-0.6,3900,3076,,,,,,,,,,,,,,,,,
11026,1469904971373,,,,,,,0.27,1.24,0.99,-22.3,-3.2,-0.9,3860,3052,,,,,,,,,,,,,,,,,
11046,1469904971391,0,247.6,195.2,57,196.7,13.98,0.28,1.23,1.03,-22.2,-2.1,-0.8,3880,3064,1.276,3,39.54316,-122.328529,53.53,0.102,296.2,8,2,1.7,0,0.0,-1,0.0,0.0,0.0,0
11066,1469904971411,,,,,,,0.32,1.23,0.97,-22.1,-1.4,-0.9,3940,3040,,,,,,,,,,,,,,,,,
11086,1469904971431,,,,,,,0.29,1.16,1.01,-22.1,-0.2,-0.8,3960,3064,,,,,,,,,,,,,,,,,
11106,1469904971451,,,,,,,0.29,1.21,0.97,-22.4,0.6,-0.6,3880,3064,,,,,,,,,,,,,,,,,
11126,1469904971471,,,,,,,0.29,1.13,0.95,-22.5,1.0,-0.0,3980,3076,,,,,,,,,,,,,,,,,
11146,1469904971491,,,,46,,,0.28,1.17,0.91,-22.4,1.2,-0.0,3820,3076,1.242,3,39.54316,-122.328529,53.53,0.102,296.2,8,2,1.7,0,0.0,-1,0.0,,0.0,0
11166,1469904971510,,,,,,,0.24,1.18,0.88,-22.6,1.3,0.3,3920,3089,,,,,,,,,,,,,,,,,
11186,1469904971530,,,,,,,0.23,1.14,0.95,-22.7,1.6,0.4,3900,3089,,,,,,,,,,,,,,,,,
11206,1469904971550,,,,,,,0.24,1.16,0.9,-22.5,0.9,0.4,3860,3101,,,,,,,,,,,,,,,,,
11226,1469904971570,,,,,,,0.21,1.2,0.88,-22.5,-0.4,0.9,3980,3089,,,,,,,,,,,,,,,,,
11246,1469904971590,0,248.6,195.7,53,196.8,,0.2,1.15,0.85,-22.2,-2.6,0.9,3920,3101,1.264,3,39.543182,-122.328514,53.17,0.104,296.0,8,2,1.7,0,0.0,-1,0.0,0.0,0.0,0
11266,1469904971709,,,,,,,0.18,1.14,0.85,-22.0,-4.8,0.5,3960,3113,,,,,,,,,,,,,,,,,
11286,1469904971729,,,,,,,0.11,1.12,0.83,-21.6,-6.4,0.4,3960,3113,,,,,,,,,,,,,,,,,
11306,1469904971749,,,,,,,0.07,1.14,0.79,-21.3,-8.5,0.4,3860,3076,,,,,,,,,,,,,,,,,
11326,1469904971769,,,,,,,0.03,1.07,0.81,-21.2,-8.9,0.5,3820,3076,,,,,,,,,,,,,,,,,
11346,1469904971789,,,,53,,,0.01,1.08,0.76,-20.8,-10.3,-0.0,3960,3064,1.287,3,39.543224,-122.328514,53.34,0.107,295.9,8,2,1.7,0,0.0,-1,0.0,,0.0,0
11366,1469904971809,,,,,,,0.0,1.1,0.77,-20.5,-10.6,-0.1,3960,3076,,,,,,,,,,,,,,,,,
11386,1469904971829,,,,,,,0.01,1.12,0.69,-20.0,-11.3,-0.2,3940,3076,,,,,,,,,,,,,,,,,
11406,1469904971849,,,,,,,0.01,1.08,0.69,-19.8,-11.0,-0.6,3820,3076,,,,,,,,,,,,,,,,,
11426,1469904971869,,,,,,,-0.01,1.07,0.67,-19.8,-11.8,-0.8,3980,3076,,,,,,,,,,,,,,,,,
11446,1469904971793,0,247.3,195.3,65,196.6,,0.04,1.03,0.69,-19.6,-12.1,-0.7,3840,3089,1.243,3,39.543243,-122.328514,53.59,0.108,295.8,8,2,1.7,0,0.0,-1,0.0,0.0,0.0,0
11466,1469904971813,,,,,,,0.07,1.01,0.74,-19.2,-12.1,-1.0,3940,3089,,,,,,,,,,,,,,,,,
11486,1469904971833,,,,,,,0.04,1.01,0.77,-19.5,-11.2,-1.1,4000,3089,,,,,,,,,,,,,,,,,
11506,1469904971853,,,,,,,0.03,1.02,0.86,-19.6,-10.4,-1.1,3940,3101,,,,,,,,,,,,,,,,,
11526,1469904971873,,,,,,,0.05,1.09,0.92,-19.5,-10.1,-1.2,3940,3113,,,,,,,,,,,,,,,,,
11546,1469904971893,,,,44,,,0.05,1.17,0.95,-19.7,-9.6,-1.0,4020,3113,1.301,3,39.543243,-122.328514,53.59,0.108,295.8,8,2,1.7,0,0.0,-1,0.0,,0.0,0
11566,1469904971908,,,,,,,0.03,1.16,1.04,-20.3,-7.7,-0.6,4000,3138,,,,,,,,,,,,,,,,,
11586,1469904971928,,,,,,,0.01,1.17,1.11,-20.4,-6.6,-0.9,3980,3138,,,,,,,,,,,,,,,,,
11606,1469904971948,,,,,,,0.01,1.19,1.11,-20.3,-5.5,-0.7,3980,3126,,,,,,,,,,,,,,,,,
11626,1469904971968,,,,,,,0.06,1.26,1.17,-20.3,-4.8,-0.4,3980,3089,,,,,,,,,,,,,,,,,
11646,1469904971993,1,247.3,195.0,36,197.1,,0.09,1.23,1.12,-20.4,-4.2,-0.3,3980,3126,1.273,3,39.543285,-122.328514,53.88,0.111,295.5,8,2,1.7,0,0.0,-1,0.0,0.0,0.0,0
11666,1469904972013,,,,,,,0.11,1.3,1.18,-20.4,-2.9,-0.5,3920,3113,,,,,,,,,,,,,,,,,
11686,1469904972033,,,,,,,0.13,1.3,1.22,-20.4,-1.0,-0.3,3960,3089,,,,,,,,,,,,,,,,,
11706,1469904972053,,,,,,,0.18,1.3,1.17,-20.0,0.5,-0.3,3880,3101,,,,,,,,,,,,,,,,,
11726,1469904972073,,,,,,,0.23,1.29,1.18,-19.7,2.4,-0.4,3920,3113,,,,,,,,,,,,,,,,,
11746,1469904972093,,,,56,,,0.24,1.29,1.19,-19.6,3.5,-0.6,3960,3126,1.267,3,39.543308,-122.328514,53.89,0.113,295.3,8,2,1.7,0,0.0,-1,0.0,,0.0,0
11766,1469904972113,,,,,,,0.23,1.21,1.13,-19.8,5.4,-0.6,3920,3101,,,,,,,,,,,,,,,,,
11786,1469904972133,,,,,,,0.21,1.18,1.17,-19.6,7.0,-1.0,4120,3113,,,,,,,,,,,,,,,,,
11806,1469904972153,,,,,,,0.2,1.2,1.12,-19.7,7.3,-1.1,3920,3126,,,,,,,,,,,,,,,,,
11826,1469904972173,,,,,,,0.15,1.15,1.06,-19.7,7.9,-1.0,4040,3138,,,,,,,,,,,,,,,,,
11846,1469904972193,0,247.8,195.0,47,196.8,,0.1,1.09,1.08,-19.6,9.0,-1.1,3920,3126,1.254,3,39.543331,-122.328514,53.94,0.114,295.2,8,2,1.7,0,0.0,-1,0.0,0.0,0.0,0
11866,1469904972213,,,,,,,0.08,1.09,1.06,-19.7,8.5,-0.8,4080,3126,,,,,,,,,,,,,,,,,
11886,1469904972233,,,,,,,0.07,1.03,0.99,-19.4,7.9,-0.8,3960,3126,,,,,,,,,,,,,,,,,
11906,1469904972253,,,,,,,0.07,0.98,0.96,-19.2,8.6,-1.1,4140,3113,,,,,,,,,,,,,,,,,
11926,1469904972273,,,,,,,0.03,1.0,0.91,-19.4,8.8,-0.7,4020,3113,,,,,,,,,,,,,,,,,
11946,1469904972293,,,,47,,,0.05,0.97,0.95,-19.4,9.5,-0.7,4020,3113,1.291,3,39.543354,-122.328514,54.13,0.116,295.1,8,2,1.7,0,0.0,-1,0.0,,0.0,0
11966,1469904972313,,,,,,,0.07,0.99,0.93,-19.2,10.5,-1.3,4000,3126,,,,,,,,,,,,,,,,,
11986,1469904972333,,,,,,,0.06,1.01,0.89,-19.4,10.7,-1.3,4120,3138,,,,,,,,,,,,,,,,,
12006,1469904972353,,,,,,,0.05,0.93,0.94,-19.5,10.0,-1.1,3960,3138,,,,,,,,,,,,,,,,,
12026,1469904972373,,,,,,,-0.02,0.84,0.88,-19.2,10.0,-1.4,4140,3138,,,,,,,,,,,,,,,,,
12046,1469904972491,0,248.6,195.4,43,196.4,13.91,-0.04,0.88,0.81,-19.5,9.7,-1.0,3920,3178,1.249,3,39.543396,-122.328529,54.63,0.119,294.9,8,2,1.7,0,0.0,-1,0.0,0.0,0.0,0
12066,1469904972511,,,,,,,-0.03,0.84,0.79,-19.6,8.8,-1.2,3940,3164,,,,,,,,,,,,,,,,,
12086,1469904972531,,,,,,,-0.04,0.85,0.77,-19.6,6.9,-1.6,4080,3164,,,,,,,,,,,,,,,,,
12106,1469904972551,,,,,,,-0.06,0.87,0.73,-19.8,5.0,-1.4,4040,3152,,,,,,,,,,,,,,,,,
12126,1469904972571,,,,,,,-0.04,0.88,0.71,-20.1,4.4,-1.3,3960,3138,,,,,,,,,,,,,,,,,
12146,1469904972591,,,,45,,,-0.01,0.92,0.7,-19.8,4.0,-1.9,4060,3138,1.294,3,39.543396,-122.328529,54.63,0.119,294.9,8,2,1.7,0,0.0,-1,0.0,,0.0,0
12166,1469904972611,,,,,,,0.03,0.97,0.65,-19.7,2.7,-2.0,4000,3138,,,,,,,,,,,,,,,,,
12186,1469904972631,,,,,,,0.07,0.89,0.62,-19.6,2.0,-1.8,3980,3126,,,,,,,,,,,,,,,,,
12206,1469904972651,,,,,,,0.06,0.9,0.66,-19.6,2.5,-2.0,4160,3138,,,,,,,,,,,,,,,,,
12226,1469904972671,,,,,,,0.1,0.96,0.62,-19.5,2.2,-2.1,4060,3138,,,,,,,,,,,,,,,,,
12246,1469904972691,1,247.3,195.1,66,197.1,,0.14,0.95,0.59,-19.4,1.9,-2.0,4060,3164,1.25,3,39.543396,-122.328529,54.63,0.119,294.9,8,2,1.7,0,0.0,-1,0.0,0.0,0.0,0
12266,1469904972610,,,,,,,0.12,0.97,0.67,-19.4,2.6,-2.1,4000,3178,,,,,,,,,,,,,,,,,
12286,1469904972630,,,,,,,0.12,1.01,0.66,-19.6,2.3,-1.7,3960,3164,,,,,,,,,,,,,,,,,
12306,1469904972650,,,,,,,0.12,1.0,0.69,-19.8,2.9,-1.4,3940,3178,,,,,,,,,,,,,,,,,
12326,1469904972670,,,,,,,0.11,1.01,0.79,-19.8,4.3,-1.5,4100,3152,,,,,,,,,,,,,,,,,
12346,1469904972690,,,,70,,,0.1,1.03,0.91,-19.9,5.4,-1.3,4020,3152,1.275,3,39.543419,-122.328529,54.77,0.12,294.8,8,2,1.7,0,0.0,-1,0.0,,0.0,0
12366,1469904972710,,,,,,,0.07,0.97,1.01,-19.9,6.7,-1.2,3900,3164,,,,,,,,,,,,,,,,,
12386,1469904972730,,,,,,,0.01,0.91,1.05,-20.1,7.3,-0.8,4080,3178,,,,,,,,,,,,,,,,,
12406,1469904972750,,,,,,,-0.05,0.81,1.14,-20.3,7.3,-0.3,3980,3178,,,,,,,,,,,,,,,,,
12426,1469904972770,,,,,,,-0.12,0.77,1.19,-20.4,7.4,-0.2,4040,3218,,,,,,,,,,,,,,,,,
12446,1469904972793,0,247.3,194.8,72,196.7,,-0.14,0.71,1.15,-20.4,6.5,-0.0,4020,3230,1.245,3,39.543465,-122.328537,54.81,0.124,294.7,8,2,1.7,0,0.0,-1,0.0,0.0,0.0,0
12466,1469904972813,,,,,,,-0.16,0.65,1.12,-20.6,4.8,0.4,4000,3230,,,,,,,,,,,,,,,,,
12486,1469904972833,,,,,,,-0.14,0.69,1.09,-20.4,3.1,0.1,4020,3190,,,,,,,,,,,,,,,,,
12506,1469904972853,,,,,,,-0.16,0.7,1.05,-20.5,2.2,0.0,4120,3178,,,,,,,,,,,,,,,,,
12526,1469904972873,,,,,,,-0.19,0.74,1.05,-20.6,2.1,0.3,4020,3190,,,,,,,,,,,,,,,,,
12546,1469904972893,,,,42,,,-0.14,0.75,1.02,-20.2,1.9,-0.0,3960,3190,1.236,3,39.543465,-122.328537,54.81,0.124,294.7,8,2,1.7,0,0.0,-1,0.0,,0.0,0
12566,1469904972905,,,,,,,-0.11,0.83,0.97,-20.3,1.3,0.1,4140,3178,,,,,,,,,,,,,,,,,
12586,1469904972925,,,,,,,-0.09,0.84,0.9,-20.3,-0.4,-0.1,4040,3204,,,,,,,,,,,,,,,,,
12606,1469904972945,,,,,,,-0.09,0.85,0.85,-20.2,-0.8,-0.2,3900,3218,,,,,,,,,,,,,,,,,
12626,1469904972965,,,,,,,-0.1,0.87,0.87,-20.4,-1.7,0.2,4040,3218,,,,,,,,,,,,,,,,,
12646,1469904972993,1,246.6,194.5,71,196.8,,-0.08,0.89,0.92,-20.5,-1.9,0.3,4180,3204,1.216,3,39.543503,-122.328568,55.24,0.127,294.6,8,2,1.7,0,0.0,-1,0.0,0.0,0.0,0
12666,1469904973013,,,,,,,-0.08,0.9,0.97,-20.3,-0.7,0.1,4180,3204,,,,,,,,,,,,,,,,,
12686,1469904973033,,,,,,,-0.11,0.92,0.93,-20.7,-0.4,-0.0,4100,3204,,,,,,,,,,,,,,,,,
12706,1469904973053,,,,,,,-0.12,0.95,1.0,-20.7,-0.2,-0.3,4140,3230,,,,,,,,,,,,,,,,,
12726,1469904973073,,,,,,,-0.15,0.89,1.04,-20.6,-0.2,0.0,4260,3218,,,,,,,,,,,,,,,,,
12746,1469904973094,,,,46,,,-0.18,0.85,1.02,-20.8,-1.1,0.6,4000,3244,1.228,3,39.543522,-122.328568,55.48,0.128,294.5,8,3,1.7,0,0.0,-1,0.0,,0.0,0
12766,1469904973114,,,,,,,-0.13,0.87,0.94,-20.6,-2.1,0.2,4220,3244,,,,,,,,,,,,,,,,,
12786,1469904973134,,,,,,,-0.08,0.97,0.86,-20.6,-2.9,0.2,4160,3218,,,,,,,,,,,,,,,,,
12806,1469904973154,,,,,,,-0.02,0.94,0.84,-20.7,-2.9,0.2,4040,3230,,,,,,,,,,,,,,,,,
12826,1469904973174,,,,,,,0.02,0.96,0.87,-20.6,-1.6,-0.1,4140,3218,,,,,,,,,,,,,,,,,
12846,1469904973194,1,246.4,194.5,70,196.5,,0.01,0.99,0.85,-20.4,-0.2,0.1,4060,3218,1.294,3,39.543522,-122.328568,55.48,0.128,294.5,8,3,1.7,0,0.0,-1,0.0,0.0,0.0,0
12866,1469904973309,,,,,,,0.03,0.97,0.86,-20.3,0.7,0.1,4040,3230,,,,,,,,,,,,,,,,,
12886,1469904973329,,,,,,,0.02,0.91,0.91,-20.2,1.7,0.0,4160,3258,,,,,,,,,,,,,,,,,
12906,1469904973349,,,,,,,-0.02,0.91,0.95,-20.4,1.4,0.7,4020,3244,,,,,,,,,,,,,,,,,
12926,1469904973369,,,,,,,-0.04,0.87,1.02,-20.6,0.7,0.7,3960,3230,,,,,,,,,,,,,,,,,
12946,1469904973389,,,,47,,,-0.13,0.93,1.01,-20.9,0.8,0.6,4060,3218,1.257,3,39.543564,-122.32859,55.72,0.131,294.4,8,3,1.7,0,0.0,-1,0.0,,0.0,0
12966,1469904973409,,,,,,,-0.17,0.91,0.95,-21.0,0.2,0.7,4060,3230,,,,,,,,,,,,,,,,,
12986,1469904973429,,,,,,,-0.19,0.93,0.95,-20.9,0.0,0.5,4020,3244,,,,,,,,,,,,,,,,,
13006,1469904973449,,,,,,,-0.18,0.94,0.9,-20.9,-0.5,0.7,4100,3272,,,,,,,,,,,,,,,,,
13026,1469904973469,,,,,,,-0.13,0.92,0.96,-20.7,-0.8,0.6,4220,3272,,,,,,,,,,,,,,,,,
13046,1469904973392,0,247.6,195.3,46,197.2,13.94,-0.09,0.91,0.91,-20.2,-0.7,0.5,4220,3244,1.295,3,39.543587,-122.328606,55.77,0.133,294.5,8,3,1.7,0,0.0,-1,0.0,0.0,0.0,0
13066,1469904973412,,,,,,,-0.1,0.91,0.93,-20.3,0.4,0.5,4180,3258,,,,,,,,,,,,,,,,,
13086,1469904973432,,,,,,,-0.11,0.88,0.92,-20.2,0.6,0.2,4200,3244,,,,,,,,,,,,,,,,,
13106,1469904973452,,,,,,,-0.16,0.89,0.86,-20.4,1.3,0.4,4240,3230,,,,,,,,,,,,,,,,,
13126,1469904973472,,,,,,,-0.15,0.82,0.84,-20.4,1.5,0.6,4160,3258,,,,,,,,,,,,,,,,,
13146,1469904973492,,,,63,,,-0.14,0.83,0.88,-20.0,1.5,0.1,4160,3258,1.308,3,39.543587,-122.328606,55.77,0.133,294.5,8,3,1.7,0,0.0,-1,0.0,,0.0,0
13166,1469904973510,,,,,,,-0.13,0.87,0.86,-20.0,0.6,-0.2,4060,3258,,,,,,,,,,,,,,,,,
13186,1469904973530,,,,,,,-0.09,0.88,0.86,-19.8,-0.0,-0.4,4040,3258,,,,,,,,,,,,,,,,,
13206,1469904973550,,,,,,,-0.1,0.85,0.83,-19.8,0.6,-0.3,4200,3258,,,,,,,,,,,,,,,,,
13226,1469904973570,,,,,,,-0.1,0.88,0.84,-19.8,0.7,-0.0,4080,3244,,,,,,,,,,,,,,,,,
13246,1469904973590,0,247.6,195.0,78,197.0,,-0.08,0.85,0.84,-19.5,1.2,-0.5,4020,3286,1.229,3,39.543606,-122.328613,56.02,0.134,294.4,8,3,1.7,0,0.0,-1,0.0,0.0,0.0,0
13266,1469904973610,,,,,,,-0.12,0.84,0.84,-19.3,1.0,-0.3,4200,3258,,,,,,,,,,,,,,,,,
13286,1469904973630,,,,,,,-0.11,0.82,0.85,-19.3,0.0,-0.3,4260,3286,,,,,,,,,,,,,,,,,
13306,1469904973650,,,,,,,-0.08,0.79,0.86,-19.2,-0.2,-0.4,4260,3286,,,,,,,,,,,,,,,,,
13326,1469904973670,,,,,,,-0.08,0.82,0.83,-18.9,-0.9,-0.3,4180,3272,,,,,,,,,,,,,,,,,
13346,1469904973690,,,,50,,,-0.08,0.82,0.8,-18.6,-1.6,-0.5,4300,3272,1.314,3,39.543625,-122.328629,56.14,0.136,294.3,8,3,1.7,0,0.0,-1,0.0,,0.0,0
13366,1469904973710,,,,,,,-0.11,0.8,0.74,-18.6,-2.0,-0.3,4260,3300,,,,,,,,,,,,,,,,,
13386,1469904973730,,,,,,,-0.1,0.79,0.79,-18.5,-1.8,0.1,4040,3300,,,,,,,,,,,,,,,,,
13406,1469904973750,,,,,,,-0.05,0.76,0.9,-18.3,-0.4,0.0,4200,3300,,,,,,,,,,,,,,,,,
13426,1469904973770,,,,,,,-0.02,0.74,0.95,-18.2,0.3,0.2,4080,3315,,,,,,,,,,,,,,,,,
13446,1469904973793,0,247.1,195.3,71,197.2,,-0.02,0.72,0.95,-18.1,0.6,-0.4,4060,3315,1.225,3,39.543663,-122.328667,56.65,0.139,294.5,8,3,1.7,0,0.0,-1,0.0,0.0,0.0,0
13466,1469904973813,,,,,,,-0.09,0.67,0.9,-17.9,0.6,-0.3,4260,3358,,,,,,,,,,,,,,,,,
13486,1469904973833,,,,,,,-0.07,0.72,0.97,-18.4,-0.6,-0.2,4320,3343,,,,,,,,,,,,,,,,,
13506,1469904973853,,,,,,,-0.05,0.74,0.95,-18.2,-1.0,0.0,4380,3343,,,,,,,,,,,,,,,,,
13526,1469904973873,,,,,,,-0.08,0.81,0.91,-18.0,-1.3,-0.0,4220,3315,,,,,,,,,,,,,,,,,
13546,1469904973893,,,,79,,,-0.12,0.76,0.95,-17.4,0.7,-0.6,4180,3343,1.322,3,39.543663,-122.328667,56.65,0.139,294.5,8,3,1.7,0,0.0,-1,0.0,,0.0,0
13566,1469904973907,,,,,,,-0.19,0.74,1.05,-17.2,1.6,-1.0,4200,3343,,,,,,,,,,,,,,,,,
13586,1469904973927,,,,,,,-0.15,0.69,1.14,-17.1,1.3,-1.7,4060,3329,,,,,,,,,,,,,,,,,
13606,1469904973947,,,,,,,-0.14,0.68,1.08,-17.2,1.8,-1.9,4320,3315,,,,,,,,,,,,,,,,,
13626,1469904973967,,,,,,,-0.19,0.69,1.06,-17.1,1.2,-2.0,4340,3343,,,,,,,,,,,,,,,,,
13646,1469904973987,0,247.8,195.3,60,196.8,,-0.17,0.73,1.09,-16.7,2.4,-2.2,4340,3387,1.287,3,39.543682,-122.328682,56.87,0.141,294.5,8,3,1.7,0,0.0,-1,0.0,0.0,0.0,0
13666,1469904974106,,,,,,,-0.15,0.7,1.03,-16.7,1.8,-1.8,4300,3358,,,,,,,,,,,,,,,,,
13686,1469904974126,,,,,,,-0.15,0.71,0.98,-16.2,0.7,-2.0,4340,3358,,,,,,,,,,,,,,,,,
13706,1469904974146,,,,,,,-0.18,0.68,1.01,-16.2,1.6,-1.9,4080,3358,,,,,,,,,,,,,,,,,
13726,1469904974166,,,,,,,-0.18,0.7,1.06,-16.4,1.3,-1.7,4160,3403,,,,,,,,,,,,,,,,,
13746,1469904974186,,,,42,,,-0.19,0.7,1.0,-16.6,1.2,-1.4,4340,3358,1.287,3,39.54372,-122.32872,57.51,0.144,294.8,8,3,1.7,0,0.0,-1,0.0,,0.0,0
13766,1469904974206,,,,,,,-0.18,0.62,0.92,-16.6,1.1,-0.9,4420,3358,,,,,,,,,,,,,,,,,
13786,1469904974226,,,,,,,-0.17,0.6,0.93,-16.0,1.9,-0.9,4360,3372,,,,,,,,,,,,,,,,,
13806,1469904974246,,,,,,,-0.16,0.6,0.94,-15.7,1.6,-0.5,4320,3418,,,,,,,,,,,,,,,,,
13826,1469904974266,,,,,,,-0.14,0.61,0.88,-15.4,1.4,-0.5,4440,3372,,,,,,,,,,,,,,,,,
13846,1469904974193,0,246.9,194.7,46,196.7,,-0.14,0.66,0.89,-15.3,2.6,-0.2,4140,3387,1.217,3,39.543743,-122.328728,57.84,0.146,294.8,8,3,1.7,0,0.0,-1,0.0,0.0,0.0,0
13866,1469904974213,,,,,,,-0.07,0.67,0.97,-15.3,2.9,-0.3,4160,3387,,,,,,,,,,,,,,,,,
13886,1469904974233,,,,,,,-0.08,0.68,0.91,-15.9,2.3,-0.4,4400,3433,,,,,,,,,,,,,,,,,
13906,1469904974253,,,,,,,-0.14,0.66,0.92,-15.8,1.0,-0.3,4420,3387,,,,,,,,,,,,,,,,,
13926,1469904974273,,,,,,,-0.11,0.63,1.01,-15.7,0.8,-0.1,4500,3387,,,,,,,,,,,,,,,,,
13946,1469904974293,,,,59,,,-0.13,0.6,0.98,-15.1,0.4,0.0,4320,3403,1.275,3,39.543762,-122.328758,58.21,0.148,295.0,8,3,1.7,0,0.0,-1,0.0,,0.0,0
13966,1469904974313,,,,,,,-0.13,0.57,1.0,-14.7,0.9,-0.3,4400,3433,,,,,,,,,,,,,,,,,
13986,1469904974333,,,,,,,-0.17,0.53,1.01,-14.6,0.8,-0.3,4200,3433,,,,,,,,,,,,,,,,,
14006,1469904974353,,,,,,,-0.17,0.55,0.99,-14.3,0.8,-1.0,4480,3403,,,,,,,,,,,,,,,,,
14026,1469904974373,,,,,,,-0.2,0.56,1.01,-14.2,1.4,-1.1,4400,3449,,,,,,,,,,,,,,,,,
14046,1469904974391,0,248.3,196.0,36,197.7,13.92,-0.19,0.53,0.97,-14.4,0.2,-0.7,4560,3433,1.322,3,39.543777,-122.328766,58.56,0.149,295.1,8,3,1.7,0,0.0,-1,0.0,0.0,0.0,0
14066,1469904974411,,,,,,,-0.23,0.56,0.99,-14.4,0.7,-0.6,4280,3433,,,,,,,,,,,,,,,,,
14086,1469904974431,,,,,,,-0.21,0.57,1.08,-14.8,1.5,-0.5,4240,3464,,,,,,,,,,,,,,,,,
14106,1469904974451,,,,,,,-0.23,0.56,0.99,-14.7,1.6,-0.7,4460,3464,,,,,,,,,,,,,,,,,
14126,1469904974471,,,,,,,-0.24,0.6,0.99,-14.6,2.3,-0.8,4520,3464,,,,,,,,,,,,,,,,,
14146,1469904974491,,,,61,,,-0.22,0.59,0.97,-14.4,3.6,-0.6,4460,3433,1.288,3,39.543777,-122.328766,58.56,0.149,295.1,8,3,1.7,0,0.0,-1,0.0,,0.0,0
14166,1469904974510,,,,,,,-0.22,0.59,0.98,-14.0,3.1,-0.5,4280,3480,,,,,,,,,,,,,,,,,
14186,1469904974530,,,,,,,-0.22,0.54,0.99,-13.4,3.6,-0.5,4460,3449,,,,,,,,,,,,,,,,,
14206,1469904974550,,,,,,,-0.23,0.52,0.92,-12.9,3.2,-0.4,4560,3449,,,,,,,,,,,,,,,,,
14226,1469904974570,,,,,,,-0.23,0.5,1.0,-12.0,4.4,-1.0,4500,3495,,,,,,,,,,,,,,,,,
14246,1469904974590,0,248.1,195.1,64,196.9,,-0.21,0.41,0.93,-11.3,3.3,-1.0,4460,3464,1.282,3,39.543797,-122.328796,58.97,0.151,295.3,8,3,1.7,0,0.0,-1,0.0,0.0,0.0,0
14266,1469904974610,,,,,,,-0.19,0.46,0.93,-10.4,3.6,-1.6,4420,3495,,,,,,,,,,,,,,,,,
14286,1469904974630,,,,,,,-0.19,0.46,0.96,-10.0,4.8,-1.3,4240,3495,,,,,,,,,,,,,,,,,
14306,1469904974650,,,,,,,-0.21,0.41,0.92,-9.5,4.3,-1.7,4460,3495,,,,,,,,,,,,,,,,,
14326,1469904974670,,,,,,,-0.21,0.38,0.95,-9.4,3.9,-1.7,4440,3464,,,,,,,,,,,,,,,,,
14346,1469904974690,,,,74,,,-0.17,0.37,0.98,-8.8,2.6,-2.2,4500,3527,1.305,3,39.543812,-122.328804,59.22,0.152,295.4,8,3,1.7,0,0.0,-1,0.0,,0.0,0
14366,1469904974710,,,,,,,-0.17,0.42,1.03,-8.8,3.6,-2.2,4360,3544,,,,,,,,,,,,,,,,,
14386,1469904974730,,,,,,,-0.13,0.44,1.01,-8.8,3.4,-2.7,4360,3495,,,,,,,,,,,,,,,,,
14406,1469904974750,,,,,,,-0.13,0.45,0.96,-8.7,3.5,-2.8,4460,3512,,,,,,,,,,,,,,,,,
14426,1469904974770,,,,,,,-0.09,0.44,0.97,-8.6,2.5,-2.9,4620,3495,,,,,,,,,,,,,,,,,
14446,1469904974892,0,247.8,195.4,67,197.4,,-0.13,0.43,1.0,-8.9,3.4,-3.1,4380,3495,1.253,3,39.543865,-122.328888,60.55,0.158,295.8,8,3,1.7,0,0.0,-1,0.0,0.0,0.0,0
14466,1469904974912,,,,,,,-0.08,0.47,1.07,-8.9,2.4,-3.4,4380,3544,,,,,,,,,,,,,,,,,
14486,1469904974932,,,,,,,-0.1,0.49,0.99,-8.9,1.6,-3.4,4400,3527,,,,,,,,,,,,,,,,,
14506,1469904974952,,,,,,,-0.06,0.53,0.97,-8.8,0.8,-3.3,4660,3512,,,,,,,,,,,,,,,,,
14526,1469904974972,,,,,,,-0.09,0.51,0.97,-8.9,1.3,-3.3,4340,3560,,,,,,,,,,,,,,,,,
14546,1469904974992,,,,51,,,-0.08,0.49,0.97,-8.8,-0.2,-3.5,4400,3512,1.242,3,39.543865,-122.328888,60.55,0.158,295.8,8,3,1.7,0,0.0,-1,0.0,,0.0,0
14566,1469904975012,,,,,,,-0.1,0.54,0.95,-8.7,-0.7,-3.4,4540,3560,,,,,,,,,,,,,,,,,
14586,1469904975032,,,,,,,-0.07,0.51,0.97,-8.6,-1.2,-3.4,4640,3560,,,,,,,,,,,,,,,,,
14606,1469904975052,,,,,,,-0.07,0.5,0.97,-8.6,-0.4,-3.3,4460,3560,,,,,,,,,,,,,,,,,
14626,1469904975072,,,,,,,-0.01,0.52,0.94,-8.2,-0.9,-3.4,4640,3544,,,,,,,,,,,,,,,,,
14646,1469904974993,0,247.6,195.5,44,197.4,,-0.05,0.49,0.95,-8.4,0.2,-3.2,4580,3576,1.281,3,39.54388,-122.328896,60.88,0.159,296.1,8,3,1.7,0,0.0,-1,0.0,0.0,0.0,0
14666,1469904975013,,,,,,,-0.05,0.49,0.95,-8.1,-0.4,-3.5,4660,3544,,,,,,,,,,,,,,,,,
14686,1469904975033,,,,,,,-0.05,0.55,1.02,-8.0,0.4,-3.3,4440,3610,,,,,,,,,,,,,,,,,
14706,1469904975053,,,,,,,-0.02,0.52,1.0,-7.7,0.8,-3.4,4740,3593,,,,,,,,,,,,,,,,,
14726,1469904975073,,,,,,,-0.02,0.49,0.99,-7.7,1.7,-3.1,4580,3560,,,,,,,,,,,,,,,,,
14746,1469904975093,,,,58,,,-0.05,0.47,1.05,-7.3,2.8,-3.6,4540,3627,1.264,3,39.5439,-122.328926,61.27,0.161,296.3,8,3,1.7,0,0.0,-1,0.0,,0.0,0
14766,1469904975113,,,,,,,-0.07,0.42,1.01,-7.2,3.4,-3.1,4400,3560,,,,,,,,,,,,,,,,,
14786,1469904975133,,,,,,,-0.08,0.44,0.98,-6.7,3.0,-2.8,4680,3593,,,,,,,,,,,,,,,,,
14806,1469904975153,,,,,,,-0.11,0.35,0.98,-6.5,2.8,-2.5,4360,3627,,,,,,,,,,,,,,,,,
14826,1469904975173,,,,,,,-0.13,0.35,0.98,-6.1,3.1,-2.3,4680,3610,,,,,,,,,,,,,,,,,
14846,1469904975193,0,246.4,194.7,67,196.9,,-0.16,0.3,0.96,-5.8,3.0,-2.1,4720,3644,1.307,3,39.543919,-122.328949,61.64,0.163,296.5,8,3,1.7,0,0.0,-1,0.0,0.0,0.0,0
14866,1469904975213,,,,,,,-0.18,0.22,0.94,-5.5,2.6,-1.8,4720,3593,,,,,,,,,,,,,,,,,
14886,1469904975233,,,,,,,-0.16,0.24,0.97,-5.0,2.6,-2.0,4400,3627,,,,,,,,,,,,,,,,,
14906,1469904975253,,,,,,,-0.19,0.22,0.92,-5.2,2.5,-1.7,4700,3627,,,,,,,,,,,,,,,,,
14926,1469904975273,,,,,,,-0.22,0.26,0.93,-5.1,2.7,-1.8,4580,3627,,,,,,,,,,,,,,,,,
14946,1469904975293,,,,75,,,-0.25,0.22,0.92,-5.4,2.4,-1.6,4580,3644,1.257,3,39.543934,-122.328972,62.13,0.165,296.7,8,3,1.7,0,0.0,-1,0.0,,0.0,0
14966,1469904975313,,,,,,,-0.24,0.22,0.89,-5.5,0.4,-1.7,4500,3610,,,,,,,,,,,,,,,,,
14986,1469904975333,,,,,,,-0.25,0.22,0.9,-5.4,-1.0,-1.6,4580,3680,,,,,,,,,,,,,,,,,
15006,1469904975353,,,,,,,-0.24,0.26,0.87,-5.3,-1.1,-1.9,4640,3661,,,,,,,,,,,,,,,,,
15026,1469904975373,,,,,,,-0.25,0.28,0.9,-5.2,-1.5,-1.7,4640,3627,,,,,,,,,,,,,,,,,
15046,1469904975392,0,248.3,195.1,86,197.1,14.02,-0.23,0.29,0.84,-4.6,-1.8,-1.8,4780,3661,1.299,3,39.543953,-122.329002,62.44,0.167,296.9,8,3,1.7,0,0.0,-1,0.0,0.0,0.0,0
15066,1469904975412,,,,,,,-0.24,0.26,0.85,-4.4,-2.5,-1.5,4500,3644,,,,,,,,,,,,,,,,,
15086,1469904975432,,,,,,,-0.18,0.22,0.94,-4.0,-1.4,-1.2,4740,3696,,,,,,,,,,,,,,,,,
15106,1469904975452,,,,,,,-0.17,0.16,0.92,-3.7,-0.8,-0.9,4760,3680,,,,,,,,,,,,,,,,,
15126,1469904975472,,,,,,,-0.14,0.13,0.88,-3.6,0.5,-0.3,4640,3696,,,,,,,,,,,,,,,,,
15146,1469904975491,,,,45,,,-0.16,0.14,0.97,-3.8,-0.5,-0.2,4460,3661,1.212,3,39.543968,-122.32901,62.93,0.168,297.1,8,3,1.7,0,0.0,-1,0.0,,0.0,0
15166,1469904975511,,,,,,,-0.19,0.13,0.96,-3.8,-0.2,-0.1,4680,3696,,,,,,,,,,,,,,,,,
15186,1469904975531,,,,,,,-0.17,0.2,0.96,-3.9,0.1,-0.4,4740,3696,,,,,,,,,,,,,,,,,
15206,1469904975551,,,,,,,-0.19,0.19,0.97,-4.1,0.7,-0.3,4680,3661,,,,,,,,,,,,,,,,,
15226,1469904975571,,,,,,,-0.21,0.17,0.98,-3.7,1.3,-0.6,4860,3715,,,,,,,,,,,,,,,,,
15246,1469904975591,0,248.5,195.7,72,197.4,,-0.23,0.11,0.96,-3.2,0.2,-0.7,4480,3715,1.224,3,39.543968,-122.32901,62.93,0.168,297.1,8,3,1.7,0,0.0,-1,0.0,0.0,0.0,0
15266,1469904975709,,,,,,,-0.21,0.05,0.99,-3.3,0.7,-0.1,4760,3715,,,,,,,,,,,,,,,,,
15286,1469904975729,,,,,,,-0.19,0.09,0.96,-3.2,-0.3,-0.0,4880,3715,,,,,,,,,,,,,,,,,
15306,1469904975749,,,,,,,-0.22,0.11,0.98,-3.4,0.8,0.1,4640,3733,,,,,,,,,,,,,,,,,
15326,1469904975769,,,,,,,-0.19,0.17,0.94,-3.5,0.1,-0.1,4820,3696,,,,,,,,,,,,,,,,,
15346,1469904975789,,,,51,,,-0.2,0.11,1.02,-3.3,1.0,-0.1,4580,3752,1.264,3,39.544003,-122.329063,63.73,0.172,297.2,8,3,1.7,0,0.0,-1,0.0,,0.0,0
15366,1469904975809,,,,,,,-0.18,0.11,1.04,-3.3,2.1,-0.1,4680,3733,,,,,,,,,,,,,,,,,
15386,1469904975829,,,,,,,-0.22,0.1,1.06,-3.2,1.8,-0.4,4860,3769,,,,,,,,,,,,,,,,,
15406,1469904975849,,,,,,,-0.24,0.02,0.99,-3.3,2.3,0.3,4640,3715,,,,,,,,,,,,,,,,,
15426,1469904975869,,,,,,,-0.2,0.11,1.01,-3.1,0.2,-0.3,4900,3769,,,,,,,,,,,,,,,,,
15446,1469904975793,0,246.9,195.0,102,197.4,,-0.21,0.08,1.0,-3.4,0.9,-0.0,4840,3715,1.29,3,39.544022,-122.329086,64.18,0.174,297.3,8,3,1.7,0,0.0,-1,0.0,0.0,0.0,0
15466,1469904975813,,,,,,,-0.16,0.15,1.01,-3.4,-0.1,-0.4,4700,3769,,,,,,,,,,,,,,,,,
15486,1469904975833,,,,,,,-0.22,0.05,1.02,-3.1,-0.1,-0.3,4860,3752,,,,,,,,,,,,,,,,,
15506,1469904975853,,,,,,,-0.18,0.04,0.99,-3.0,0.2,0.1,4660,3769,,,,,,,,,,,,,,,,,
15526,1469904975873,,,,,,,-0.19,0.05,1.02,-3.0,-0.4,-0.1,4580,3733,,,,,,,,,,,,,,,,,
15546,1469904975893,,,,31,,,-0.21,0.04,0.98,-2.8,-0.1,0.1,4960,3789,1.316,3,39.544022,-122.329086,64.18,0.174,297.3,8,3,1.7,0,0.0,-1,0.0,,0.0,0
15566,1469904975907,,,,,,,-0.2,0.1,1.02,-2.8,-1.8,0.0,4740,3769,,,,,,,,,,,,,,,,,
15586,1469904975927,,,,,,,-0.25,0.09,1.02,-2.3,-2.4,-0.1,4940,3826,,,,,,,,,,,,,,,,,
15606,1469904975947,,,,,,,-0.21,0.05,1.02,-2.5,-1.6,0.6,4720,3789,,,,,,,,,,,,,,,,,
15626,1469904975967,,,,,,,-0.23,0.12,1.03,-2.2,-2.6,0.2,4960,3789,,,,,,,,,,,,,,,,,
15646,1469904975993,0,248.5,195.5,42,198.3,,-0.22,0.09,0.98,-2.5,-0.9,0.8,4920,3789,1.298,3,39.54406,-122.32914,64.97,0.177,297.6,8,3,1.7,0,0.0,-1,0.0,0.0,0.0,0
15666,1469904976013,,,,,,,-0.17,0.15,1.07,-2.3,-1.4,0.6,4780,3846,,,,,,,,,,,,,,,,,
15686,1469904976033,,,,,,,-0.21,0.09,1.06,-2.3,-0.9,0.7,4960,3807,,,,,,,,,,,,,,,,,
15706,1469904976053,,,,,,,-0.18,0.09,1.04,-2.2,0.2,1.2,4580,3807,,,,,,,,,,,,,,,,,
15726,1469904976073,,,,,,,-0.21,0.06,1.05,-2.2,-1.2,0.8,5000,3807,,,,,,,,,,,,,,,,,
15746,1469904976093,,,,49,,,-0.2,0.04,1.05,-2.2,1.3,1.1,4620,3807,1.273,3,39.544075,-122.329163,65.27,0.179,297.6,8,3,1.7,0,0.0,-1,0.0,,0.0,0
15766,1469904976113,,,,,,,-0.15,0.08,1.05,-2.2,1.1,1.1,4860,3789,,,,,,,,,,,,,,,,,
15786,1469904976133,,,,,,,-0.23,0.06,1.02,-2.0,1.1,0.8,5040,3807,,,,,,,,,,,,,,,,,
15806,1469904976153,,,,,,,-0.2,0.03,1.05,-2.1,1.1,1.0,4780,3826,,,,,,,,,,,,,,,,,
15826,1469904976173,,,,,,,-0.18,0.1,1.06,-2.0,-0.3,0.5,5040,3864,,,,,,,,,,,,,,,,,
15846,1469904976193,0,248.3,195.0,42,197.1,,-0.2,0.02,1.03,-1.9,1.8,0.1,4780,3864,1.249,3,39.544094,-122.329193,65.75,0.181,297.7,8,3,1.7,0,0.0,-1,0.0,0.0,0.0,0
15866,1469904976213,,,,,,,-0.18,-0.01,1.04,-2.2,1.4,0.3,4900,3846,,,,,,,,,,,,,,,,,
15886,1469904976233,,,,,,,-0.19,0.05,1.03,-2.1,0.1,-0.2,4800,3884,,,,,,,,,,,,,,,,,
15906,1469904976253,,,,,,,-0.18,0.02,1.01,-2.4,2.2,0.3,4960,3846,,,,,,,,,,,,,,,,,
15926,1469904976273,,,,,,,-0.17,0.03,0.99,-2.2,1.4,0.1,4640,3846,,,,,,,,,,,,,,,,,
15946,1469904976293,,,,40,,,-0.22,0.04,1.04,-2.2,0.9,-0.4,5080,3846,1.232,3,39.544113,-122.329216,66.15,0.183,297.8,8,3,1.7,0,0.0,-1,0.0,,0.0,0
15966,1469904976313,,,,,,,-0.16,0.07,1.04,-2.3,2.2,-0.2,4900,3826,,,,,,,,,,,,,,,,,
15986,1469904976333,,,,,,,-0.14,0.13,1.0,-2.2,0.0,-0.6,4860,3846,,,,,,,,,,,,,,,,,
16006,1469904976353,,,,,,,-0.2,0.04,0.99,-2.1,0.7,-0.6,5060,3864,,,,,,,,,,,,,,,,,
16026,1469904976373,,,,,,,-0.17,0.08,1.07,-2.1,0.1,-0.3,4820,3944,,,,,,,,,,,,,,,,,
16046,1469904976391,0,247.8,195.2,45,197.4,13.78,-0.21,0.17,1.01,-2.1,-1.6,-0.8,5040,3904,1.298,3,39.544128,-122.329247,66.48,0.185,297.9,8,3,1.7,0,0.0,-1,0.0,0.0,0.0,0
16066,1469904976510,,,,,,,-0.23,0.05,0.97,-2.0,-0.1,-0.8,4820,3904,,,,,,,,,,,,,,,,,
16086,1469904976530,,,,,,,-0.21,0.1,1.01,-2.4,-1.0,-0.6,5020,3904,,,,,,,,,,,,,,,,,
16106,1469904976550,,,,,,,-0.23,0.1,1.01,-2.4,-1.0,-1.2,4980,3904,,,,,,,,,,,,,,,,,
16126,1469904976570,,,,,,,-0.22,0.09,0.96,-2.5,0.7,-1.1,5140,3944,,,,,,,,,,,,,,,,,
16146,1469904976590,,,,41,,,-0.19,0.06,0.96,-2.5,-0.5,-0.6,4900,3904,1.262,3,39.544148,-122.329269,66.88,0.187,298.1,8,3,1.7,0,0.0,-1,0.0,,0.0,0
16166,1469904976610,,,,,,,-0.19,0.15,0.9,-2.3,-1.8,-1.2,5140,3944,,,,,,,,,,,,,,,,,
16186,1469904976630,,,,,,,-0.2,0.07,0.87,-2.4,0.4,-1.0,4760,3924,,,,,,,,,,,,,,,,,
16206,1469904976650,,,,,,,-0.18,0.06,0.89,-2.5,-0.6,-0.8,5020,3924,,,,,,,,,,,,,,,,,
16226,1469904976670,,,,,,,-0.18,0.1,0.85,-2.3,-1.4,-1.3,5000,3944,,,,,,,,,,,,,,,,,
16246,1469904976690,0,249.6,195.9,81,197.9,,-0.13,0.08,0.87,-2.6,0.3,-1.0,5060,3904,1.296,3,39.544148,-122.329269,66.88,0.187,298.1,8,3,1.7,0,0.0,-1,0.0,0.0,0.0,0
16266,1469904976610,,,,,,,-0.13,0.09,0.89,-2.6,-0.4,-0.7,4740,3944,,,,,,,,,,,,,,,,,
16286,1469904976630,,,,,,,-0.15,0.08,0.89,-2.7,-1.6,-1.3,5180,3964,,,,,,,,,,,,,,,,,
16306,1469904976650,,,,,,,-0.12,0.02,0.94,-2.8,1.2,-1.2,4780,3964,,,,,,,,,,,,,,,,,
16326,1469904976670,,,,,,,-0.13,0.02,0.94,-2.8,0.1,-0.9,5040,3944,,,,,,,,,,,,,,,,,
16346,1469904976690,,,,48,,,-0.16,0.02,0.98,-2.7,0.2,-1.2,5120,3964,1.292,3,39.544167,-122.329292,67.44,0.188,298.1,8,3,1.7,0,0.0,-1,0.0,,0.0,0
16366,1469904976710,,,,,,,-0.11,-0.0,0.93,-2.9,2.3,-1.1,5060,3984,,,,,,,,,,,,,,,,,
16386,1469904976730,,,,,,,-0.07,0.02,0.92,-3.0,1.1,-0.8,4980,3984,,,,,,,,,,,,,,,,,
16406,1469904976750,,,,,,,-0.11,0.02,0.94,-2.9,-0.1,-0.9,5200,3964,,,,,,,,,,,,,,,,,
16426,1469904976770,,,,,,,-0.07,-0.05,1.01,-2.7,1.1,-0.7,4800,3984,,,,,,,,,,,,,,,,,
16446,1469904976793,0,247.3,195.6,98,197.7,,-0.09,-0.01,0.98,-3.0,0.5,-0.2,5100,3984,1.287,3,39.544205,-122.329346,68.07,0.192,298.3,8,3,1.7,0,0.0,-1,0.0,0.0,0.0,0
16466,1469904976813,,,,,,,-0.12,-0.04,1.04,-2.8,-1.0,-0.5,5040,3984,,,,,,,,,,,,,,,,,
16486,1469904976833,,,,,,,-0.12,-0.0,1.02,-2.7,-0.5,-0.2,5100,3984,,,,,,,,,,,,,,,,,
16506,1469904976853,,,,,,,-0.12,-0.01,1.06,-3.1,-0.2,0.5,5040,3984,,,,,,,,,,,,,,,,,
16526,1469904976873,,,,,,,-0.2,0.03,1.03,-3.1,-2.3,0.3,4980,3984,,,,,,,,,,,,,,,,,
16546,1469904976893,,,,58,,,-0.2,0.01,1.04,-3.1,-1.4,0.4,5280,4026,1.191,3,39.544205,-122.329346,68.07,0.192,298.3,8,3,1.7,0,0.0,-1,0.0,,0.0,0
16566,1469904976908,,,,,,,-0.18,0.04,1.06,-3.0,-0.9,0.7,4900,3984,,,,,,,,,,,,,,,,,
16586,1469904976928,,,,,,,-0.25,-0.04,1.04,-3.1,-1.8,1.0,5220,3964,,,,,,,,,,,,,,,,,
16606,1469904976948,,,,,,,-0.25,-0.02,1.03,-2.8,-1.0,0.4,5060,4026,,,,,,,,,,,,,,,,,
16626,1469904976968,,,,,,,-0.2,0.01,0.96,-3.1,0.2,0.4,5340,4006,,,,,,,,,,,,,,,,,
16646,1469904976993,0,248.6,195.8,82,197.5,,-0.2,-0.07,0.97,-3.0,-0.8,0.6,5080,4006,1.268,3,39.544243,-122.329399,68.96,0.196,298.4,8,3,1.7,0,0.0,-1,0.0,0.0,0.0,0
16666,1469904977013,,,,,,,-0.19,0.07,1.03,-2.9,-1.0,0.1,5320,4047,,,,,,,,,,,,,,,,,
16686,1469904977033,,,,,,,-0.18,-0.01,0.99,-3.0,1.0,0.0,5080,4006,,,,,,,,,,,,,,,,,
16706,1469904977053,,,,,,,-0.15,0.02,0.96,-2.7,0.6,0.2,5040,4006,,,,,,,,,,,,,,,,,
16726,1469904977073,,,,,,,-0.13,0.05,1.0,-3.0,-0.0,0.1,5200,4026,,,,,,,,,,,,,,,,,
16746,1469904977093,,,,50,,,-0.17,0.07,0.94,-2.9,1.5,-0.1,5060,4026,1.257,3,39.544262,-122.329422,69.24,0.198,298.5,8,3,1.7,0,0.0,-1,0.0,,0.0,0
16766,1469904977113,,,,,,,-0.15,0.04,0.94,-3.0,2.2,0.5,5260,4026,,,,,,,,,,,,,,,,,
16786,1469904977133,,,,,,,-0.11,0.05,0.96,-3.1,1.1,0.7,5000,4047,,,,,,,,,,,,,,,,,
16806,1469904977153,,,,,,,-0.14,0.13,1.0,-3.1,1.0,0.3,5300,4069,,,,,,,,,,,,,,,,,
16826,1469904977173,,,,,,,-0.13,0.04,1.0,-3.0,2.8,0.6,5100,4047,,,,,,,,,,,,,,,,,
16846,1469904977292,1,249.0,196.0,64,198.4,,-0.11,0.08,0.95,-2.9,1.0,0.7,5040,4047,1.283,3,39.5443,-122.329475,69.96,0.202,298.5,8,3,1.7,0,0.0,-1,0.0,0.0,0.0,0
16866,1469904977312,,,,,,,-0.13,0.13,0.95,-3.1,-0.7,0.7,5220,4069,,,,,,,,,,,,,,,,,
16886,1469904977332,,,,,,,-0.17,0.1,0.92,-2.9,-0.4,0.4,5240,4069,,,,,,,,,,,,,,,,,
16906,1469904977352,,,,,,,-0.13,0.13,0.91,-2.8,0.5,0.2,5180,4047,,,,,,,,,,,,,,,,,
16926,1469904977372,,,,,,,-0.11,0.12,0.93,-3.1,-0.4,0.4,5100,4090,,,,,,,,,,,,,,,,,
16946,1469904977392,,,,33,,,-0.17,0.15,1.0,-3.0,-1.8,0.2,5360,4090,1.311,3,39.5443,-122.329475,69.96,0.202,298.5,8,3,1.7,0,0.0,-1,0.0,,0.0,0
16966,1469904977412,,,,,,,-0.16,0.1,0.96,-3.1,-0.0,-0.0,5340,4069,,,,,,,,,,,,,,,,,
16986,1469904977432,,,,,,,-0.18,0.12,0.94,-3.2,0.3,0.3,5000,4069,,,,,,,,,,,,,,,,,
17006,1469904977452,,,,,,,-0.22,0.13,0.91,-3.7,-2.5,0.5,5300,4135,,,,,,,,,,,,,,,,,
17026,1469904977472,,,,,,,-0.28,0.13,0.95,-3.5,-1.7,-0.2,5300,4090,,,,,,,,,,,,,,,,,
17046,1469904977392,1,249.0,195.7,74,197.9,13.85,-0.27,0.08,0.96,-3.3,-0.6,-0.3,5260,4069,1.242,3,39.544319,-122.329498,70.33,0.204,298.6,8,3,1.7,0,0.0,-1,0.0,0.0,0.0,0
17066,1469904977412,,,,,,,-0.22,0.15,0.99,-4.0,-0.8,0.4,5220,4112,,,,,,,,,,,,,,,,,
17086,1469904977432,,,,,,,-0.24,0.13,0.92,-4.2,-2.4,0.4,5140,4112,,,,,,,,,,,,,,,,,
17106,1469904977452,,,,,,,-0.29,0.14,0.97,-4.0,-1.6,0.0,5260,4135,,,,,,,,,,,,,,,,,
17126,1469904977472,,,,,,,-0.23,0.08,1.03,-4.3,0.7,-0.1,5040,4112,,,,,,,,,,,,,,,,,
17146,1469904977492,,,,84,,,-0.23,0.11,0.98,-4.4,-0.1,-0.1,5100,4112,1.282,3,39.544319,-122.329498,70.33,0.204,298.6,8,3,1.7,0,0.0,-1,0.0,,0.0,0
17166,1469904977510,,,,,,,-0.26,0.11,0.93,-4.8,-1.8,0.3,5360,4180,,,,,,,,,,,,,,,,,
17186,1469904977530,,,,,,,-0.3,0.19,0.92,-4.7,0.0,0.4,5140,4112,,,,,,,,,,,,,,,,,
17206,1469904977550,,,,,,,-0.3,0.11,0.95,-4.7,1.1,0.6,5420,4112,,,,,,,,,,,,,,,,,
17226,1469904977570,,,,,,,-0.26,0.19,0.92,-5.2,0.6,1.4,5280,4135,,,,,,,,,,,,,,,,,
17246,1469904977590,0,249.6,196.0,68,197.9,,-0.28,0.14,0.84,-5.5,-0.8,1.6,5300,4180,1.289,3,39.544338,-122.329521,70.8,0.206,298.7,8,3,1.7,0,0.0,-1,0.0,0.0,0.0,0
17266,1469904977610,,,,,,,-0.28,0.18,0.87,-5.0,-3.1,1.1,5340,4156,,,,,,,,,,,,,,,,,
17286,1469904977630,,,,,,,-0.21,0.16,0.92,-4.9,-0.3,0.8,5360,4135,,,,,,,,,,,,,,,,,
