"Interval"|"ms"|0|0|1,"Utc"|"ms"|0|0|1,"FuelLevel"|"F"|0|100|5,"OilTemp"|"F"|0.0|300.0|5,"Coolant"|"F"|0.0|300.0|5,"OilPress"|"PSI"|0|150|10,"EngineTemp"|"F"|0.0|300.0|5,"Battery"|"Volts"|0.0|20.0|1,"AccelX"|"G"|-3.0|3.0|50,"AccelY"|"G"|-3.0|3.0|50,"AccelZ"|"G"|-3.0|3.0|50,"Yaw"|"Deg/Sec"|-300.0|300.0|50,"Pitch"|"Deg/Sec"|-300.0|300.0|50,"Roll"|"Deg/Sec"|-300.0|300.0|50,"RPM"|""|0|10000|50,"Driveshaft"|"RPM"|0|5000|50,"GearRatio"|""|-5.0|5.0|10,"Gear"|""|-1|5|10,"Latitude"|"Degrees"|-180.0|180.0|10,"Longitude"|"Degrees"|-180.0|180.0|10,"Speed"|"MPH"|0.0|150.0|10,"Distance"|"Miles"|0.0|0.0|10,"Altitude"|"Feet"|0.0|4000.0|10,"GPSSats"|""|0|20|10,"GPSQual"|""|0|5|10,"GPSDOP"|""|0.0|20.0|10,"LapCount"|""|0|0|10,"LapTime"|"Min"|0.0|0.0|10,"Sector"|""|0|0|10,"SectorTime"|"Min"|0.0|0.0|10,"PredTime"|"Min"|0.0|0.0|5,"ElapsedTime"|"Min"|0.0|0.0|10,"CurrentLap"|""|0|0|10
5066,1469906938537,,,,,,,0.35,0.67,1.06,-13.3,1.7,1.2,4040,4112,,,,,,,,,,,,,,,,,
5086,1469906938557,,,,,,,0.32,0.69,1.09,-13.6,1.9,1.3,3980,4135,,,,,,,,,,,,,,,,,
5106,1469906938577,,,,,,,0.35,0.71,1.09,-13.8,3.4,1.1,4040,4090,,,,,,,,,,,,,,,,,
5126,1469906938597,,,,,,,0.35,0.67,1.08,-13.7,4.1,1.2,4100,4026,,,,,,,,,,,,,,,,,
5146,1469906938616,,,,68,,,0.39,0.81,1.02,-13.8,3.2,1.1,4000,4069,0.993,4,39.537155,-122.331162,73.96,0.002,283.9,8,2,0.1,0,0.0,-1,0.0,,0.0,0
5166,1469906938636,,,,,,,0.4,0.82,1.0,-13.7,3.8,0.9,4100,4047,,,,,,,,,,,,,,,,,
5186,1469906938656,,,,,,,0.4,0.82,0.97,-13.6,3.4,0.9,4120,4069,,,,,,,,,,,,,,,,,
5206,1469906938676,,,,,,,0.46,0.82,0.94,-13.4,1.9,0.8,3980,4069,,,,,,,,,,,,,,,,,
5226,1469906938696,,,,,,,0.46,0.88,0.93,-13.4,1.6,0.5,3940,4026,,,,,,,,,,,,,,,,,
5246,1469906938716,0,279.3,206.5,42,207.7,,0.39,0.84,0.92,-13.4,1.2,0.5,4060,4026,1.009,4,39.537128,-122.331162,72.95,0.004,284.7,8,2,0.1,0,0.0,-1,0.0,0.0,0.0,0
5266,1469906938736,,,,,,,0.45,0.81,0.94,-13.4,0.1,0.2,4060,4006,,,,,,,,,,,,,,,,,
5286,1469906938756,,,,,,,0.44,0.86,0.92,-14.0,0.9,-0.1,3980,4026,,,,,,,,,,,,,,,,,
5306,1469906938776,,,,,,,0.44,0.82,0.92,-14.3,-0.2,0.0,3980,4026,,,,,,,,,,,,,,,,,
5326,1469906938796,,,,,,,0.46,0.87,0.9,-14.3,-0.5,-0.1,3900,4069,,,,,,,,,,,,,,,,,
5346,1469906938817,,,,54,,,0.44,0.9,0.86,-14.4,0.3,-0.6,4000,4006,1.003,4,39.537098,-122.331154,72.26,0.006,285.5,8,2,0.1,0,0.0,-1,0.0,,0.0,0
5366,1469906938837,,,,,,,0.41,0.86,0.82,-14.2,-0.7,-0.7,3980,4026,,,,,,,,,,,,,,,,,
5386,1469906938857,,,,,,,0.45,0.94,0.78,-14.2,-1.6,-0.9,3920,4026,,,,,,,,,,,,,,,,,
5406,1469906938877,,,,,,,0.42,0.87,0.76,-14.4,-1.4,-0.9,4040,4006,,,,,,,,,,,,,,,,,
5426,1469906938897,,,,,,,0.36,0.89,0.73,-14.2,-1.8,-0.9,3880,3964,,,,,,,,,,,,,,,,,
5446,1469906938909,0,281.5,207.2,73,208.3,,0.37,0.97,0.7,-14.1,-2.9,-1.2,4020,3984,1.009,4,39.537071,-122.331154,71.61,0.008,286.6,8,2,0.1,0,0.0,-1,0.0,0.0,0.0,0
5466,1469906938929,,,,,,,0.36,0.91,0.64,-14.2,-2.9,-1.5,3920,4026,,,,,,,,,,,,,,,,,
5486,1469906938949,,,,,,,0.3,0.88,0.67,-13.8,-3.5,-1.4,3920,3984,,,,,,,,,,,,,,,,,
5506,1469906938969,,,,,,,0.3,0.95,0.64,-14.1,-4.3,-1.4,4000,3984,,,,,,,,,,,,,,,,,
5526,1469906938989,,,,,,,0.3,0.95,0.64,-14.4,-4.0,-1.1,3940,3944,,,,,,,,,,,,,,,,,
5546,1469906939016,,,,43,,,0.24,0.93,0.64,-14.5,-3.2,-1.1,3920,3964,1.009,4,39.537044,-122.331139,71.15,0.01,287.1,8,2,0.1,0,0.0,-1,0.0,,0.0,0
5566,1469906939036,,,,,,,0.23,0.99,0.62,-15.0,-3.6,-0.6,3980,3964,,,,,,,,,,,,,,,,,
5586,1469906939056,,,,,,,0.24,0.92,0.61,-15.7,-2.4,-0.1,3880,3924,,,,,,,,,,,,,,,,,
5606,1469906939076,,,,,,,0.22,0.93,0.67,-15.8,-1.3,-0.0,3820,3924,,,,,,,,,,,,,,,,,
5626,1469906939096,,,,,,,0.21,0.92,0.7,-16.4,-1.4,0.8,4060,3944,,,,,,,,,,,,,,,,,
5646,1469906939215,0,281.7,207.3,49,208.4,,0.22,0.88,0.74,-16.9,0.1,1.5,3980,3924,1.009,4,39.536991,-122.331123,70.22,0.014,288.0,8,2,0.1,0,0.0,-1,0.0,0.0,0.0,0
5666,1469906939235,,,,,,,0.19,0.91,0.78,-17.1,0.6,1.5,3920,3944,,,,,,,,,,,,,,,,,
5686,1469906939255,,,,,,,0.16,0.9,0.86,-17.8,0.8,1.8,3920,3944,,,,,,,,,,,,,,,,,
5706,1469906939275,,,,,,,0.18,0.85,0.88,-17.9,1.6,1.7,4020,4006,,,,,,,,,,,,,,,,,
5726,1469906939295,,,,,,,0.15,0.88,0.89,-18.2,1.4,1.0,4000,3964,,,,,,,,,,,,,,,,,
5746,1469906939315,,,,49,,,0.16,0.88,0.91,-18.8,0.5,0.8,4040,3984,1.009,4,39.536991,-122.331123,70.22,0.014,288.0,8,2,0.1,0,0.0,-1,0.0,,0.0,0
5766,1469906939335,,,,,,,0.17,0.89,0.86,-18.9,0.3,0.6,4040,4026,,,,,,,,,,,,,,,,,
5786,1469906939355,,,,,,,0.15,0.9,0.86,-19.2,1.0,0.6,4060,4026,,,,,,,,,,,,,,,,,
5806,1469906939375,,,,,,,0.13,0.93,0.86,-19.5,-0.0,0.7,4060,4006,,,,,,,,,,,,,,,,,
5826,1469906939395,,,,,,,0.14,0.92,0.83,-19.4,-0.4,0.5,3980,4026,,,,,,,,,,,,,,,,,
5846,1469906939316,0,279.3,205.9,51,207.3,,0.09,0.91,0.78,-19.4,0.2,0.2,3920,4006,1.008,4,39.536968,-122.331108,69.98,0.016,288.7,8,2,0.1,0,0.0,-1,0.0,0.0,0.0,0
5866,1469906939336,,,,,,,0.04,0.89,0.79,-19.5,-0.1,0.4,4000,3944,,,,,,,,,,,,,,,,,
5886,1469906939356,,,,,,,0.07,0.82,0.74,-19.3,-0.6,0.6,3900,3944,,,,,,,,,,,,,,,,,
5906,1469906939376,,,,,,,0.08,0.88,0.72,-19.6,-0.4,0.8,3880,3944,,,,,,,,,,,,,,,,,
5926,1469906939396,,,,,,,0.01,0.84,0.78,-19.5,-0.6,1.0,3880,3944,,,,,,,,,,,,,,,,,
5946,1469906939416,,,,42,,,0.03,0.93,0.84,-19.5,-0.5,0.9,3940,3984,0.999,4,39.536942,-122.3311,69.6,0.018,289.8,8,2,0.1,0,0.0,-1,0.0,,0.0,0
5966,1469906939436,,,,,,,0.04,0.92,0.89,-19.4,0.2,0.7,3900,3924,,,,,,,,,,,,,,,,,
5986,1469906939456,,,,,,,0.03,0.89,0.92,-19.1,1.1,0.5,3980,3964,,,,,,,,,,,,,,,,,
6006,1469906939476,,,,,,,0.06,0.97,0.99,-19.1,1.0,0.7,3960,3944,,,,,,,,,,,,,,,,,
6026,1469906939496,,,,,,,0.07,0.95,1.01,-19.5,2.0,0.8,3960,3904,,,,,,,,,,,,,,,,,
6046,1469906939517,0,279.6,205.9,53,207.2,13.95,0.03,0.92,1.06,-19.2,2.3,0.7,3960,3924,0.979,4,39.536915,-122.3311,69.35,0.019,290.6,8,2,0.1,0,0.0,-1,0.0,0.0,0.0,0
6066,1469906939537,,,,,,,0.03,1.0,1.1,-19.6,1.8,1.0,3980,3924,,,,,,,,,,,,,,,,,
6086,1469906939557,,,,,,,0.05,0.95,1.06,-19.6,2.9,1.2,3880,3924,,,,,,,,,,,,,,,,,
6106,1469906939577,,,,,,,0.05,0.96,1.04,-19.2,3.3,1.2,3940,3944,,,,,,,,,,,,,,,,,
6126,1469906939597,,,,,,,0.03,0.96,0.97,-19.5,2.0,1.5,3920,3884,,,,,,,,,,,,,,,,,
6146,1469906939617,,,,50,,,0.07,0.93,0.96,-19.3,2.1,1.5,3840,3924,1.009,4,39.536892,-122.331085,69.22,0.021,291.5,8,2,0.1,0,0.0,-1,0.0,,0.0,0
6166,1469906939637,,,,,,,0.08,0.94,0.86,-19.1,2.1,1.1,3980,3964,,,,,,,,,,,,,,,,,
6186,1469906939657,,,,,,,0.08,0.93,0.84,-19.2,2.2,1.2,3820,3924,,,,,,,,,,,,,,,,,
6206,1469906939677,,,,,,,0.13,1.0,0.92,-19.3,2.7,0.7,3920,3924,,,,,,,,,,,,,,,,,
6226,1469906939697,,,,,,,0.16,1.03,0.86,-19.5,3.2,0.7,3900,3904,,,,,,,,,,,,,,,,,
6246,1469906939717,0,281.1,207.2,50,208.3,,0.14,0.97,0.97,-19.6,2.4,0.6,3840,3924,0.999,4,39.536865,-122.33107,68.9,0.023,292.3,8,2,0.1,0,0.0,-1,0.0,0.0,0.0,0
6266,1469906939737,,,,,,,0.14,1.01,0.94,-19.3,1.5,0.1,3900,3924,,,,,,,,,,,,,,,,,
6286,1469906939757,,,,,,,0.13,1.01,0.96,-19.4,1.6,0.1,3940,3884,,,,,,,,,,,,,,,,,
6306,1469906939777,,,,,,,0.09,0.95,0.99,-18.9,0.7,-0.3,3900,3904,,,,,,,,,,,,,,,,,
6326,1469906939797,,,,,,,0.05,1.01,0.99,-19.0,-0.3,-0.6,3880,3884,,,,,,,,,,,,,,,,,
6346,1469906939817,,,,74,,,0.05,0.9,0.96,-19.2,-0.5,-0.5,3960,3904,0.999,4,39.536842,-122.331047,68.64,0.025,293.0,8,2,1.6,0,0.0,-1,0.0,,0.0,0
6366,1469906939837,,,,,,,0.04,0.88,0.92,-18.8,-1.0,-1.0,3860,3944,,,,,,,,,,,,,,,,,
6386,1469906939857,,,,,,,0.01,0.88,0.95,-19.1,-1.5,-0.9,3860,3884,,,,,,,,,,,,,,,,,
6406,1469906939877,,,,,,,0.04,0.84,0.89,-18.9,-1.1,-0.9,3940,3944,,,,,,,,,,,,,,,,,
6426,1469906939897,,,,,,,0.02,0.92,0.92,-18.8,0.2,-0.9,3880,3884,,,,,,,,,,,,,,,,,
6446,1469906940009,0,280.0,206.0,52,207.1,,-0.01,0.89,0.95,-19.0,0.5,-0.7,3920,3864,0.994,4,39.536793,-122.331024,68.44,0.029,294.3,8,2,1.6,0,0.0,-1,0.0,0.0,0.0,0
6466,1469906940029,,,,,,,0.03,1.0,0.99,-19.2,0.9,-0.7,3940,3904,,,,,,,,,,,,,,,,,
6486,1469906940049,,,,,,,0.05,1.0,1.0,-19.5,1.6,-0.4,3860,3884,,,,,,,,,,,,,,,,,
6506,1469906940069,,,,,,,0.02,1.01,1.1,-19.6,2.2,-0.5,3920,3904,,,,,,,,,,,,,,,,,
6526,1469906940089,,,,,,,0.03,1.07,1.08,-19.8,1.3,-0.5,3840,3864,,,,,,,,,,,,,,,,,
6546,1469906940109,,,,63,,,0.06,1.02,1.04,-19.6,1.6,-0.4,3860,3846,1.009,4,39.536793,-122.331024,68.44,0.029,294.3,8,2,1.6,0,0.0,-1,0.0,,0.0,0
6566,1469906940129,,,,,,,0.08,1.05,0.98,-19.3,1.8,-0.5,3920,3884,,,,,,,,,,,,,,,,,
6586,1469906940149,,,,,,,0.08,1.03,1.0,-19.4,1.1,-0.6,3800,3884,,,,,,,,,,,,,,,,,
6606,1469906940169,,,,,,,0.11,1.05,1.0,-19.1,0.5,-0.9,3880,3924,,,,,,,,,,,,,,,,,
6626,1469906940189,,,,,,,0.12,0.99,1.05,-18.9,2.0,-1.2,3800,3904,,,,,,,,,,,,,,,,,
6646,1469906940116,0,281.7,207.2,53,208.2,,0.08,0.99,1.09,-19.1,2.7,-1.4,3800,3904,1.004,4,39.53677,-122.331009,68.27,0.031,295.0,8,2,1.6,0,0.0,-1,0.0,0.0,0.0,0
6666,1469906940136,,,,,,,0.06,1.1,1.06,-19.4,2.8,-1.0,3920,3884,,,,,,,,,,,,,,,,,
6686,1469906940156,,,,,,,0.07,1.05,1.06,-19.5,2.0,-0.6,3920,3864,,,,,,,,,,,,,,,,,
6706,1469906940176,,,,,,,0.05,1.06,1.0,-19.3,1.7,-0.8,3780,3924,,,,,,,,,,,,,,,,,
6726,1469906940196,,,,,,,0.02,1.01,0.99,-19.3,1.1,-0.4,3840,3846,,,,,,,,,,,,,,,,,
6746,1469906940216,,,,41,,,0.07,1.02,0.98,-18.9,0.1,-0.1,3820,3904,0.994,4,39.536751,-122.330986,68.03,0.033,295.4,8,2,1.6,0,0.0,-1,0.0,,0.0,0
6766,1469906940236,,,,,,,0.08,1.05,1.05,-19.1,0.9,-0.0,3880,3864,,,,,,,,,,,,,,,,,
6786,1469906940256,,,,,,,0.05,1.03,1.1,-19.3,1.0,-0.5,3900,3904,,,,,,,,,,,,,,,,,
6806,1469906940276,,,,,,,0.03,1.07,1.15,-19.0,1.4,-0.6,3940,3924,,,,,,,,,,,,,,,,,
6826,1469906940296,,,,,,,0.01,1.01,1.14,-18.8,2.3,-0.5,3900,3884,,,,,,,,,,,,,,,,,
6846,1469906940316,0,280.3,206.5,50,207.8,,-0.04,0.96,1.14,-18.4,2.6,-0.9,3920,3884,0.989,4,39.536728,-122.330971,67.88,0.034,295.8,8,2,1.6,0,0.0,-1,0.0,0.0,0.0,0
6866,1469906940336,,,,,,,-0.07,1.0,1.11,-18.4,1.8,-1.0,3840,3846,,,,,,,,,,,,,,,,,
6886,1469906940356,,,,,,,-0.04,0.94,1.07,-18.5,1.7,-0.8,3940,3904,,,,,,,,,,,,,,,,,
6906,1469906940376,,,,,,,-0.01,0.96,1.03,-18.2,1.7,-1.2,3920,3924,,,,,,,,,,,,,,,,,
6926,1469906940396,,,,,,,-0.02,0.96,0.97,-18.2,1.7,-0.9,3860,3884,,,,,,,,,,,,,,,,,
6946,1469906940416,,,,44,,,0.03,0.96,0.98,-18.1,1.7,-0.9,3920,3924,0.989,4,39.536705,-122.330948,67.53,0.036,296.2,8,2,1.6,0,0.0,-1,0.0,,0.0,0
6966,1469906940436,,,,,,,0.04,1.0,0.99,-18.1,2.0,-0.9,3740,3884,,,,,,,,,,,,,,,,,
6986,1469906940456,,,,,,,0.02,0.93,1.06,-18.0,2.3,-0.8,3860,3884,,,,,,,,,,,,,,,,,
7006,1469906940476,,,,,,,0.02,0.96,1.02,-17.7,1.9,-0.9,3820,3904,,,,,,,,,,,,,,,,,
7026,1469906940496,,,,,,,0.02,0.94,1.03,-17.8,1.7,-0.7,3820,3846,,,,,,,,,,,,,,,,,
7046,1469906940516,0,280.8,206.9,41,208.4,13.78,-0.0,0.91,1.01,-17.6,0.5,-1.0,3840,3904,1.004,4,39.536682,-122.330933,67.55,0.038,296.7,8,2,1.6,0,0.0,-1,0.0,0.0,0.0,0
7066,1469906940536,,,,,,,-0.01,0.93,0.98,-17.5,-1.1,-0.8,3840,3904,,,,,,,,,,,,,,,,,
7086,1469906940556,,,,,,,0.03,0.9,0.92,-17.3,-2.5,-0.6,3920,3924,,,,,,,,,,,,,,,,,
7106,1469906940576,,,,,,,0.02,0.9,0.86,-17.3,-2.7,-0.7,3880,3904,,,,,,,,,,,,,,,,,
7126,1469906940596,,,,,,,-0.01,0.85,0.89,-17.3,-2.7,-0.5,3920,3904,,,,,,,,,,,,,,,,,
7146,1469906940617,,,,38,,,-0.01,0.9,0.98,-17.4,-1.8,-0.4,3760,3904,0.969,4,39.536659,-122.33091,67.69,0.04,297.0,8,2,1.6,0,0.0,-1,0.0,,0.0,0
7166,1469906940637,,,,,,,-0.02,0.9,1.02,-17.5,-0.1,-0.1,3920,3846,,,,,,,,,,,,,,,,,
7186,1469906940657,,,,,,,-0.07,0.86,1.04,-17.3,0.7,-0.0,3900,3864,,,,,,,,,,,,,,,,,
7206,1469906940677,,,,,,,-0.1,0.9,1.02,-17.6,0.3,0.2,3820,3864,,,,,,,,,,,,,,,,,
7226,1469906940697,,,,,,,-0.03,0.88,1.0,-17.8,0.3,0.4,3840,3864,,,,,,,,,,,,,,,,,
7246,1469906940815,0,279.6,206.0,49,207.2,,-0.0,0.92,0.97,-17.7,0.1,0.4,3920,3924,1.004,4,39.536617,-122.330856,67.65,0.044,298.3,8,2,1.6,0,0.0,-1,0.0,0.0,0.0,0
7266,1469906940835,,,,,,,-0.0,0.9,0.97,-18.0,0.1,1.1,3880,3904,,,,,,,,,,,,,,,,,
7286,1469906940855,,,,,,,0.04,0.91,1.02,-18.0,-0.2,1.4,3860,3944,,,,,,,,,,,,,,,,,
7306,1469906940875,,,,,,,0.05,0.91,1.07,-18.3,1.0,1.8,3780,3904,,,,,,,,,,,,,,,,,
7326,1469906940895,,,,,,,-0.0,0.87,1.1,-18.1,1.7,1.8,3840,3864,,,,,,,,,,,,,,,,,
7346,1469906940915,,,,46,,,-0.03,0.88,1.09,-18.1,1.8,1.7,3860,3924,0.994,4,39.536617,-122.330856,67.65,0.044,298.3,8,2,1.6,0,0.0,-1,0.0,,0.0,0
7366,1469906940935,,,,,,,-0.02,0.89,1.06,-18.2,2.0,1.8,3860,3924,,,,,,,,,,,,,,,,,
7386,1469906940955,,,,,,,-0.02,0.89,1.01,-18.0,2.1,1.3,3940,3924,,,,,,,,,,,,,,,,,
7406,1469906940975,,,,,,,-0.07,0.88,0.96,-18.2,0.5,1.1,3880,3884,,,,,,,,,,,,,,,,,
7426,1469906940995,,,,,,,-0.02,0.84,0.85,-18.0,-0.9,1.0,3920,3904,,,,,,,,,,,,,,,,,
7446,1469906940910,0,280.5,206.8,60,207.9,,-0.03,0.84,0.87,-17.9,-1.2,0.6,3900,3864,0.994,4,39.536598,-122.330833,68.04,0.046,298.9,8,2,1.6,0,0.0,-1,0.0,0.0,0.0,0
7466,1469906940930,,,,,,,-0.07,0.81,0.9,-17.7,-1.9,0.4,3940,3884,,,,,,,,,,,,,,,,,
7486,1469906940950,,,,,,,-0.07,0.83,0.96,-17.8,-1.7,0.5,3920,3944,,,,,,,,,,,,,,,,,
7506,1469906940970,,,,,,,-0.07,0.81,1.01,-17.9,-1.2,0.4,3880,3884,,,,,,,,,,,,,,,,,
7526,1469906940990,,,,,,,-0.12,0.78,1.06,-17.6,-0.2,0.4,3940,3924,,,,,,,,,,,,,,,,,
7546,1469906941017,,,,59,,,-0.15,0.84,1.07,-17.6,0.1,0.4,3860,3904,0.978,4,39.536579,-122.330818,67.82,0.048,299.4,8,2,1.6,0,0.0,-1,0.0,,0.0,0
7566,1469906941037,,,,,,,-0.14,0.81,1.01,-17.3,0.5,0.2,3880,3864,,,,,,,,,,,,,,,,,
7586,1469906941057,,,,,,,-0.14,0.83,0.96,-17.1,1.3,-0.1,3900,3904,,,,,,,,,,,,,,,,,
7606,1469906941077,,,,,,,-0.12,0.88,0.93,-17.2,0.2,-0.2,3880,3924,,,,,,,,,,,,,,,,,
7626,1469906941097,,,,,,,-0.05,0.88,0.9,-17.1,-0.3,0.0,3840,3904,,,,,,,,,,,,,,,,,
7646,1469906941117,0,281.5,207.2,54,208.3,,-0.01,0.92,0.87,-17.1,0.3,-0.0,3900,3924,0.979,4,39.53656,-122.330795,67.89,0.049,299.6,8,2,1.6,0,0.0,-1,0.0,0.0,0.0,0
7666,1469906941137,,,,,,,-0.01,0.92,0.94,-17.2,0.6,-0.1,3880,3904,,,,,,,,,,,,,,,,,
7686,1469906941157,,,,,,,0.01,0.94,0.95,-17.4,0.9,0.0,3900,3924,,,,,,,,,,,,,,,,,
7706,1469906941177,,,,,,,0.01,0.91,1.0,-17.4,1.8,0.2,3940,3884,,,,,,,,,,,,,,,,,
7726,1469906941197,,,,,,,-0.05,0.85,1.09,-17.2,2.2,0.1,3900,3924,,,,,,,,,,,,,,,,,
7746,1469906941216,,,,42,,,-0.07,0.9,1.06,-17.4,1.8,0.3,3920,3924,0.994,4,39.536541,-122.330765,68.01,0.051,299.9,8,2,1.6,0,0.0,-1,0.0,,0.0,0
7766,1469906941236,,,,,,,-0.05,0.9,1.1,-17.4,1.4,0.2,3860,3924,,,,,,,,,,,,,,,,,
7786,1469906941256,,,,,,,-0.05,0.94,1.02,-17.2,0.4,-0.1,3840,3904,,,,,,,,,,,,,,,,,
7806,1469906941276,,,,,,,-0.05,0.91,1.01,-17.4,-1.2,0.4,3860,3864,,,,,,,,,,,,,,,,,
7826,1469906941296,,,,,,,-0.01,0.97,0.91,-17.7,-1.5,0.9,3880,3944,,,,,,,,,,,,,,,,,
7846,1469906941317,0,280.1,206.6,48,207.7,,-0.01,1.0,0.85,-17.6,-0.4,0.9,3860,3944,0.999,4,39.536522,-122.330742,68.09,0.053,300.5,8,2,1.6,0,0.0,-1,0.0,0.0,0.0,0
7866,1469906941337,,,,,,,-0.06,0.93,0.92,-17.7,-0.9,0.7,3940,3924,,,,,,,,,,,,,,,,,
7886,1469906941357,,,,,,,-0.06,0.93,1.02,-17.7,-1.5,0.6,3920,3904,,,,,,,,,,,,,,,,,
7906,1469906941377,,,,,,,-0.08,0.87,0.99,-17.9,-0.2,0.5,3940,3904,,,,,,,,,,,,,,,,,
7926,1469906941397,,,,,,,-0.1,0.9,1.08,-17.7,1.0,0.2,3920,3924,,,,,,,,,,,,,,,,,
7946,1469906941417,,,,69,,,-0.14,0.94,1.05,-17.8,0.9,0.1,3860,3924,1.004,4,39.536507,-122.330704,68.02,0.055,301.1,8,2,1.6,0,0.0,-1,0.0,,0.0,0
7966,1469906941437,,,,,,,-0.09,0.88,1.0,-17.5,0.7,0.1,3880,3924,,,,,,,,,,,,,,,,,
7986,1469906941457,,,,,,,-0.03,0.88,0.95,-17.0,0.5,-0.6,3860,3924,,,,,,,,,,,,,,,,,
8006,1469906941477,,,,,,,-0.03,0.8,0.88,-17.3,0.3,-0.5,3900,3884,,,,,,,,,,,,,,,,,
8026,1469906941497,,,,,,,0.04,0.87,0.91,-17.1,0.4,-0.3,3900,3924,,,,,,,,,,,,,,,,,
8046,1469906941616,0,281.3,206.2,37,207.7,13.95,0.06,0.96,0.9,-17.4,1.6,-0.5,3920,3924,0.989,4,39.536472,-122.33065,68.07,0.059,302.3,8,2,1.6,0,0.0,-1,0.0,0.0,0.0,0
8066,1469906941636,,,,,,,0.05,0.91,0.93,-17.6,1.9,-0.2,3920,3924,,,,,,,,,,,,,,,,,
8086,1469906941656,,,,,,,0.05,0.91,0.98,-17.4,2.2,0.0,3880,3984,,,,,,,,,,,,,,,,,
8106,1469906941676,,,,,,,0.1,0.97,1.01,-17.7,3.6,-0.1,3960,3924,,,,,,,,,,,,,,,,,
8126,1469906941696,,,,,,,0.04,0.94,1.09,-17.7,4.2,-0.1,3920,3904,,,,,,,,,,,,,,,,,
8146,1469906941716,,,,47,,,0.02,0.95,1.06,-17.6,4.2,0.0,3900,3984,0.994,4,39.536472,-122.33065,68.07,0.059,302.3,8,2,1.6,0,0.0,-1,0.0,,0.0,0
8166,1469906941736,,,,,,,0.05,0.93,1.08,-17.3,3.8,0.3,3980,3924,,,,,,,,,,,,,,,,,
8186,1469906941756,,,,,,,-0.0,0.91,1.12,-17.2,3.4,-0.2,3980,3924,,,,,,,,,,,,,,,,,
8206,1469906941776,,,,,,,-0.04,0.9,1.08,-17.2,2.3,-0.4,3960,3924,,,,,,,,,,,,,,,,,
8226,1469906941796,,,,,,,-0.02,0.86,1.06,-16.6,0.6,-0.5,3880,3984,,,,,,,,,,,,,,,,,
8246,1469906941717,0,279.8,206.9,40,208.0,,-0.04,0.87,0.99,-16.1,-0.3,-1.0,3880,3964,0.984,4,39.536457,-122.330627,68.08,0.061,303.1,8,2,1.6,0,0.0,-1,0.0,0.0,0.0,0
8266,1469906941737,,,,,,,-0.07,0.86,0.97,-16.1,-1.9,-1.1,3920,3964,,,,,,,,,,,,,,,,,
8286,1469906941757,,,,,,,-0.06,0.83,0.83,-15.7,-3.9,-1.2,3960,3964,,,,,,,,,,,,,,,,,
8306,1469906941777,,,,,,,-0.07,0.83,0.73,-15.5,-4.0,-1.5,3960,3944,,,,,,,,,,,,,,,,,
8326,1469906941797,,,,,,,-0.11,0.82,0.71,-15.3,-5.3,-1.4,3980,3944,,,,,,,,,,,,,,,,,
8346,1469906941818,,,,74,,,-0.08,0.79,0.65,-15.2,-5.7,-1.2,3900,3944,0.994,4,39.536442,-122.330589,68.23,0.063,303.8,8,2,1.6,0,0.0,-1,0.0,,0.0,0
8366,1469906941838,,,,,,,-0.09,0.83,0.67,-15.4,-5.2,-1.3,3960,3944,,,,,,,,,,,,,,,,,
8386,1469906941858,,,,,,,-0.14,0.81,0.7,-15.5,-5.3,-1.2,4020,3984,,,,,,,,,,,,,,,,,
8406,1469906941878,,,,,,,-0.13,0.79,0.75,-15.4,-5.1,-1.0,4020,3964,,,,,,,,,,,,,,,,,
8426,1469906941898,,,,,,,-0.11,0.78,0.83,-15.4,-4.3,-0.9,3980,3984,,,,,,,,,,,,,,,,,
8446,1469906941910,1,280.8,205.9,38,207.0,,-0.15,0.77,0.87,-15.3,-3.3,-0.7,4020,3944,0.958,4,39.536427,-122.330559,68.5,0.065,304.4,8,2,1.6,0,0.0,-1,0.0,0.0,0.0,0
8466,1469906941930,,,,,,,-0.15,0.78,0.98,-15.5,-3.0,-0.4,3780,4006,,,,,,,,,,,,,,,,,
8486,1469906941950,,,,,,,-0.11,0.77,1.03,-15.6,-1.9,-0.3,3960,4006,,,,,,,,,,,,,,,,,
8506,1469906941970,,,,,,,-0.13,0.75,1.06,-15.4,-1.1,-0.1,4040,3944,,,,,,,,,,,,,,,,,
8526,1469906941990,,,,,,,-0.16,0.78,1.07,-15.4,-0.6,-0.1,4000,4026,,,,,,,,,,,,,,,,,
8546,1469906942017,,,,36,,,-0.12,0.77,1.03,-15.3,0.6,-0.2,3960,3924,1.009,4,39.536415,-122.330536,68.59,0.067,304.9,8,2,1.6,0,0.0,-1,0.0,,0.0,0
8566,1469906942037,,,,,,,-0.14,0.74,1.07,-15.0,1.4,-0.5,3980,3984,,,,,,,,,,,,,,,,,
8586,1469906942057,,,,,,,-0.18,0.75,1.02,-14.9,1.2,-0.2,3920,3964,,,,,,,,,,,,,,,,,
8606,1469906942077,,,,,,,-0.14,0.73,0.96,-14.4,1.8,-0.3,3940,4006,,,,,,,,,,,,,,,,,
8626,1469906942097,,,,,,,-0.15,0.69,0.97,-14.0,3.3,-0.6,4080,3984,,,,,,,,,,,,,,,,,
8646,1469906942117,0,279.3,207.6,39,208.7,,-0.18,0.71,0.93,-13.9,3.1,-0.5,3920,4006,1.014,4,39.5364,-122.330498,68.74,0.069,305.3,8,2,1.6,0,0.0,-1,0.0,0.0,0.0,0
8666,1469906942137,,,,,,,-0.14,0.68,0.89,-13.5,3.1,-0.3,3980,3964,,,,,,,,,,,,,,,,,
8686,1469906942157,,,,,,,-0.14,0.66,0.93,-13.5,4.0,-0.1,4080,4006,,,,,,,,,,,,,,,,,
8706,1469906942177,,,,,,,-0.16,0.69,0.89,-13.5,3.6,0.3,3900,4026,,,,,,,,,,,,,,,,,
8726,1469906942197,,,,,,,-0.12,0.68,0.85,-13.3,3.4,0.5,4040,3984,,,,,,,,,,,,,,,,,
8746,1469906942217,,,,49,,,-0.11,0.67,0.86,-13.2,3.9,0.1,4020,4047,0.998,4,39.536385,-122.330475,69.05,0.07,305.6,8,2,1.6,0,0.0,-1,0.0,,0.0,0
8766,1469906942237,,,,,,,-0.12,0.68,0.85,-13.3,3.9,0.5,4000,4006,,,,,,,,,,,,,,,,,
8786,1469906942257,,,,,,,-0.06,0.67,0.86,-13.1,3.8,0.4,3940,3984,,,,,,,,,,,,,,,,,
8806,1469906942277,,,,,,,-0.07,0.64,0.92,-13.1,4.7,-0.1,4100,4047,,,,,,,,,,,,,,,,,
8826,1469906942297,,,,,,,-0.09,0.7,0.92,-13.3,4.7,0.0,4000,3984,,,,,,,,,,,,,,,,,
8846,1469906942416,0,280.0,206.3,57,207.6,,-0.06,0.71,0.92,-13.0,5.1,-0.2,4000,4026,0.999,4,39.536358,-122.330406,69.39,0.075,306.1,8,2,1.6,0,0.0,-1,0.0,0.0,0.0,0
8866,1469906942436,,,,,,,-0.06,0.69,0.95,-12.6,6.0,-0.9,4100,4006,,,,,,,,,,,,,,,,,
8886,1469906942456,,,,,,,-0.06,0.72,0.95,-12.6,5.3,-0.8,4080,4026,,,,,,,,,,,,,,,,,
8906,1469906942476,,,,,,,-0.03,0.69,0.93,-12.4,5.4,-1.0,3900,4026,,,,,,,,,,,,,,,,,
8926,1469906942496,,,,,,,-0.04,0.64,0.98,-12.0,5.7,-1.5,4120,4026,,,,,,,,,,,,,,,,,
8946,1469906942516,,,,52,,,-0.06,0.69,0.99,-11.9,5.2,-1.6,4140,4006,0.949,4,39.536358,-122.330406,69.39,0.075,306.1,8,2,1.6,0,0.0,-1,0.0,,0.0,0
8966,1469906942536,,,,,,,-0.01,0.65,0.97,-11.8,5.2,-2.1,3940,4026,,,,,,,,,,,,,,,,,
8986,1469906942556,,,,,,,-0.03,0.58,0.98,-11.7,5.2,-2.4,3960,4069,,,,,,,,,,,,,,,,,
9006,1469906942576,,,,,,,-0.05,0.64,1.03,-11.8,4.1,-2.4,3920,4026,,,,,,,,,,,,,,,,,
9026,1469906942596,,,,,,,-0.03,0.61,1.0,-11.7,4.1,-2.5,4060,4026,,,,,,,,,,,,,,,,,
9046,1469906942513,0,278.1,208.8,58,209.9,13.75,-0.08,0.59,1.02,-11.6,4.5,-3.0,4100,4047,0.964,4,39.53635,-122.330368,69.64,0.077,306.0,8,2,1.6,0,0.0,-1,0.0,0.0,0.0,0
9066,1469906942533,,,,,,,-0.11,0.55,1.07,-11.5,3.3,-3.2,3840,4090,,,,,,,,,,,,,,,,,
9086,1469906942553,,,,,,,-0.07,0.53,1.09,-11.4,3.3,-3.1,3860,4026,,,,,,,,,,,,,,,,,
9106,1469906942573,,,,,,,-0.12,0.52,1.08,-11.3,3.0,-3.3,4040,4026,,,,,,,,,,,,,,,,,
9126,1469906942593,,,,,,,-0.15,0.5,1.13,-11.5,2.4,-2.9,3960,4069,,,,,,,,,,,,,,,,,
9146,1469906942614,,,,38,,,-0.11,0.47,1.13,-11.7,2.8,-2.7,3920,4026,1.003,4,39.536335,-122.330345,69.91,0.078,306.0,8,2,1.6,0,0.0,-1,0.0,,0.0,0
9166,1469906942634,,,,,,,-0.15,0.43,1.14,-11.6,2.9,-2.8,4100,4069,,,,,,,,,,,,,,,,,
9186,1469906942654,,,,,,,-0.15,0.47,1.19,-11.6,1.8,-2.1,3980,4047,,,,,,,,,,,,,,,,,
9206,1469906942674,,,,,,,-0.13,0.48,1.2,-11.4,1.8,-1.6,3920,4047,,,,,,,,,,,,,,,,,
9226,1469906942694,,,,,,,-0.2,0.47,1.2,-11.1,1.9,-1.2,4060,4047,,,,,,,,,,,,,,,,,
9246,1469906942714,0,280.5,206.6,51,207.7,,-0.22,0.46,1.15,-11.1,0.5,-0.5,3820,4069,1.037,4,39.536324,-122.330307,70.21,0.08,306.1,8,2,1.6,0,0.0,-1,0.0,0.0,0.0,0
9266,1469906942734,,,,,,,-0.22,0.44,1.15,-10.8,0.7,-0.4,3940,4112,,,,,,,,,,,,,,,,,
9286,1469906942754,,,,,,,-0.3,0.46,1.13,-10.7,0.6,-0.2,4140,4090,,,,,,,,,,,,,,,,,
9306,1469906942774,,,,,,,-0.28,0.44,1.03,-10.8,0.3,-0.1,3920,4112,,,,,,,,,,,,,,,,,
9326,1469906942794,,,,,,,-0.28,0.41,0.99,-10.6,0.4,-0.3,4000,4135,,,,,,,,,,,,,,,,,
9346,1469906942817,,,,46,,,-0.33,0.47,1.03,-10.6,0.0,-0.1,4040,4112,1.001,4,39.536316,-122.330269,70.52,0.083,306.4,8,2,1.6,0,0.0,-1,0.0,,0.0,0
9366,1469906942837,,,,,,,-0.27,0.48,1.08,-10.5,0.1,-0.1,4220,4069,,,,,,,,,,,,,,,,,
9386,1469906942857,,,,,,,-0.27,0.47,1.11,-10.4,-0.1,-0.4,4160,4090,,,,,,,,,,,,,,,,,
9406,1469906942877,,,,,,,-0.23,0.5,1.06,-10.4,-1.7,-0.1,4120,4090,,,,,,,,,,,,,,,,,
9426,1469906942897,,,,,,,-0.14,0.51,1.07,-10.1,-2.2,0.1,4100,4090,,,,,,,,,,,,,,,,,
9446,1469906942910,0,279.5,207.0,53,208.7,,-0.15,0.47,1.09,-9.9,-2.4,0.2,4160,4090,0.978,4,39.536301,-122.330238,70.84,0.084,306.7,8,2,1.6,0,0.0,-1,0.0,0.0,0.0,0
9466,1469906942930,,,,,,,-0.13,0.47,1.04,-9.9,-3.4,0.2,4100,4112,,,,,,,,,,,,,,,,,
9486,1469906942950,,,,,,,-0.11,0.46,0.98,-9.6,-2.0,0.1,4200,4090,,,,,,,,,,,,,,,,,
9506,1469906942970,,,,,,,-0.13,0.47,0.94,-9.5,-1.1,0.2,4160,4090,,,,,,,,,,,,,,,,,
9526,1469906942990,,,,,,,-0.1,0.43,0.95,-9.8,-0.6,0.2,4040,4090,,,,,,,,,,,,,,,,,
9546,1469906943017,,,,39,,,-0.11,0.41,0.97,-9.7,1.5,-0.1,4240,4090,0.943,4,39.536293,-122.3302,71.04,0.087,307.0,8,2,1.6,0,0.0,-1,0.0,,0.0,0
9566,1469906943037,,,,,,,-0.13,0.47,1.01,-9.7,1.6,-0.1,4180,4112,,,,,,,,,,,,,,,,,
9586,1469906943057,,,,,,,-0.07,0.45,1.0,-9.9,2.6,-0.2,4040,4135,,,,,,,,,,,,,,,,,
9606,1469906943077,,,,,,,-0.07,0.41,1.01,-9.7,2.7,-0.2,4180,4112,,,,,,,,,,,,,,,,,
9626,1469906943097,,,,,,,-0.07,0.45,1.05,-9.8,0.7,0.3,4080,4203,,,,,,,,,,,,,,,,,
9646,1469906943216,0,281.7,206.7,79,207.8,,-0.06,0.44,1.06,-9.7,0.8,0.3,4000,4112,1.006,4,39.536274,-122.330139,71.63,0.09,307.9,8,2,1.6,0,0.0,-1,0.0,0.0,0.0,0
9666,1469906943236,,,,,,,-0.14,0.42,0.98,-9.7,0.0,0.6,4100,4135,,,,,,,,,,,,,,,,,
9686,1469906943256,,,,,,,-0.17,0.42,0.86,-9.6,-1.6,0.7,3960,4112,,,,,,,,,,,,,,,,,
9706,1469906943276,,,,,,,-0.24,0.4,0.83,-9.4,-0.8,0.2,4020,4135,,,,,,,,,,,,,,,,,
9726,1469906943296,,,,,,,-0.27,0.42,0.88,-9.4,-1.0,0.3,4200,4135,,,,,,,,,,,,,,,,,
9746,1469906943316,,,,37,,,-0.17,0.42,0.95,-9.4,-1.8,0.4,4220,4156,0.99,4,39.536274,-122.330139,71.63,0.09,307.9,8,2,1.6,0,0.0,-1,0.0,,0.0,0
9766,1469906943336,,,,,,,-0.18,0.39,0.96,-9.2,-1.7,0.2,4220,4203,,,,,,,,,,,,,,,,,
9786,1469906943356,,,,,,,-0.15,0.4,0.92,-9.0,-3.2,0.3,4100,4156,,,,,,,,,,,,,,,,,
9806,1469906943376,,,,,,,-0.05,0.46,0.88,-8.6,-2.9,0.2,4300,4156,,,,,,,,,,,,,,,,,
9826,1469906943396,,,,,,,-0.08,0.41,0.87,-8.6,-2.7,0.5,4160,4135,,,,,,,,,,,,,,,,,
9846,1469906943317,0,279.3,207.0,50,208.2,,-0.06,0.42,0.85,-8.8,-2.2,0.6,4080,4180,0.985,4,39.536262,-122.330101,71.87,0.092,308.2,8,2,1.6,0,0.0,-1,0.0,0.0,0.0,0
9866,1469906943337,,,,,,,-0.09,0.42,0.89,-8.7,0.2,0.1,4080,4203,,,,,,,,,,,,,,,,,
9886,1469906943357,,,,,,,-0.11,0.47,0.94,-8.7,0.6,0.1,4120,4156,,,,,,,,,,,,,,,,,
9906,1469906943377,,,,,,,-0.03,0.45,0.94,-8.7,0.5,0.1,4040,4135,,,,,,,,,,,,,,,,,
9926,1469906943397,,,,,,,-0.06,0.4,0.93,-8.6,-0.4,0.1,4140,4180,,,,,,,,,,,,,,,,,
9946,1469906943415,,,,70,,,-0.06,0.41,0.82,-8.8,-1.7,0.2,3960,4156,1.038,4,39.536255,-122.330063,72.19,0.094,308.4,8,2,1.6,0,0.0,-1,0.0,,0.0,0
9966,1469906943435,,,,,,,-0.12,0.38,0.81,-8.4,-1.2,-0.6,4100,4203,,,,,,,,,,,,,,,,,
9986,1469906943455,,,,,,,-0.2,0.4,0.87,-8.3,-1.4,-0.8,4180,4226,,,,,,,,,,,,,,,,,
10006,1469906943475,,,,,,,-0.16,0.43,0.93,-8.5,-1.6,-0.7,4240,4180,,,,,,,,,,,,,,,,,
10026,1469906943495,,,,,,,-0.16,0.39,0.95,-8.3,-2.3,-0.7,4340,4156,,,,,,,,,,,,,,,,,
10046,1469906943519,0,279.8,206.3,56,207.6,13.83,-0.12,0.4,0.89,-8.1,-4.1,-0.8,4220,4180,0.999,4,39.536247,-122.330025,72.47,0.096,308.7,8,2,1.6,0,0.0,-1,0.0,0.0,0.0,0
10066,1469906943539,,,,,,,-0.14,0.42,0.83,-7.9,-3.0,-1.4,4340,4203,,,,,,,,,,,,,,,,,
10086,1469906943559,,,,,,,-0.19,0.44,0.82,-8.1,-2.1,-1.3,4280,4226,,,,,,,,,,,,,,,,,
10106,1469906943579,,,,,,,-0.13,0.42,0.86,-8.0,-0.3,-1.5,4060,4180,,,,,,,,,,,,,,,,,
10126,1469906943599,,,,,,,-0.14,0.38,0.92,-7.8,0.8,-1.5,4260,4249,,,,,,,,,,,,,,,,,
10146,1469906943608,,,,37,,,-0.1,0.35,0.89,-7.6,-0.3,-1.0,3980,4226,1.037,4,39.536236,-122.330002,72.72,0.098,308.8,8,2,1.6,0,0.0,-1,0.0,,0.0,0
10166,1469906943628,,,,,,,-0.14,0.35,0.85,-7.1,0.3,-1.2,4100,4226,,,,,,,,,,,,,,,,,
10186,1469906943648,,,,,,,-0.22,0.39,0.93,-7.3,0.5,-0.9,4180,4226,,,,,,,,,,,,,,,,,
10206,1469906943668,,,,,,,-0.16,0.38,1.02,-7.1,0.8,-0.8,4300,4249,,,,,,,,,,,,,,,,,
10226,1469906943688,,,,,,,-0.19,0.33,1.02,-6.8,0.5,-0.8,4200,4226,,,,,,,,,,,,,,,,,
10246,1469906943708,0,279.8,205.8,37,207.7,,-0.16,0.3,1.0,-6.5,-0.9,-0.3,4180,4203,0.999,4,39.536232,-122.329956,73.0,0.1,308.9,8,2,1.6,0,0.0,-1,0.0,0.0,0.0,0
10266,1469906943728,,,,,,,-0.19,0.28,0.98,-6.0,0.4,-0.7,4320,4272,,,,,,,,,,,,,,,,,
10286,1469906943748,,,,,,,-0.22,0.32,1.05,-6.0,0.6,-0.7,4040,4249,,,,,,,,,,,,,,,,,
10306,1469906943768,,,,,,,-0.13,0.3,1.07,-6.0,1.5,-0.8,4100,4203,,,,,,,,,,,,,,,,,
10326,1469906943791,,,,,,,-0.16,0.3,1.0,-6.1,0.8,-0.6,4260,4249,,,,,,,,,,,,,,,,,
10346,1469906943811,,,,47,,,-0.15,0.27,0.88,-5.9,-1.0,-0.6,4060,4226,1.022,4,39.536221,-122.329918,73.2,0.103,308.9,8,2,1.6,0,0.0,-1,0.0,,0.0,0
10366,1469906943831,,,,,,,-0.19,0.23,0.87,-5.3,-0.4,-1.1,4280,4320,,,,,,,,,,,,,,,,,
10386,1469906943851,,,,,,,-0.16,0.25,0.89,-5.1,-1.2,-1.0,4280,4249,,,,,,,,,,,,,,,,,
10406,1469906943871,,,,,,,-0.08,0.27,0.82,-5.1,-1.4,-1.1,4400,4296,,,,,,,,,,,,,,,,,
10426,1469906943891,,,,,,,-0.1,0.22,0.79,-5.1,-1.7,-1.0,4420,4272,,,,,,,,,,,,,,,,,
10446,1469906944003,1,280.3,206.4,78,207.7,,-0.07,0.18,0.77,-5.1,-1.3,-0.9,4140,4226,1.007,4,39.536205,-122.329842,74.04,0.107,308.9,8,2,1.6,0,0.0,-1,0.0,0.0,0.0,0
10466,1469906944023,,,,,,,-0.09,0.13,0.84,-4.7,-0.1,-1.1,4260,4249,,,,,,,,,,,,,,,,,
10486,1469906944043,,,,,,,-0.06,0.15,0.92,-4.4,-1.5,-0.6,4100,4296,,,,,,,,,,,,,,,,,
10506,1469906944063,,,,,,,-0.05,0.13,0.86,-3.9,-0.6,-0.6,4160,4320,,,,,,,,,,,,,,,,,
10526,1469906944083,,,,,,,-0.14,0.18,0.87,-3.8,-1.0,-0.7,4260,4296,,,,,,,,,,,,,,,,,
10546,1469906944103,,,,78,,,-0.09,0.19,0.94,-4.1,-1.0,-0.5,4360,4296,1.014,4,39.536205,-122.329842,74.04,0.107,308.9,8,2,1.6,0,0.0,-1,0.0,,0.0,0
10566,1469906944123,,,,,,,-0.11,0.15,0.93,-4.2,-1.2,-0.4,4360,4272,,,,,,,,,,,,,,,,,
10586,1469906944143,,,,,,,-0.08,0.12,0.89,-4.2,-1.6,-0.4,4260,4296,,,,,,,,,,,,,,,,,
10606,1469906944163,,,,,,,-0.1,0.11,0.98,-3.8,-0.3,-1.0,4360,4272,,,,,,,,,,,,,,,,,
10626,1469906944183,,,,,,,-0.08,0.13,1.07,-3.7,-1.0,-0.7,4200,4296,,,,,,,,,,,,,,,,,
10646,1469906944110,0,280.3,206.4,73,208.6,,-0.07,0.15,1.0,-3.6,-0.6,-1.1,4220,4320,0.974,4,39.536198,-122.329819,74.21,0.108,308.8,8,2,1.6,0,0.0,-1,0.0,0.0,0.0,0
10666,1469906944130,,,,,,,-0.14,0.2,1.02,-3.8,-1.2,-1.3,4260,4320,,,,,,,,,,,,,,,,,
10686,1469906944150,,,,,,,-0.09,0.2,1.09,-3.9,-1.1,-1.1,4400,4344,,,,,,,,,,,,,,,,,
10706,1469906944170,,,,,,,-0.1,0.16,1.06,-4.0,-1.9,-1.2,4400,4320,,,,,,,,,,,,,,,,,
10726,1469906944190,,,,,,,-0.08,0.13,1.08,-4.4,-0.7,-1.2,4160,4344,,,,,,,,,,,,,,,,,
10746,1469906944210,,,,41,,,-0.08,0.07,1.16,-4.2,0.6,-1.3,4340,4320,0.982,4,39.53619,-122.329781,74.54,0.11,308.6,8,2,1.6,0,0.0,-1,0.0,,0.0,0
10766,1469906944230,,,,,,,-0.03,0.05,1.08,-4.1,-0.8,-0.5,4220,4272,,,,,,,,,,,,,,,,,
10786,1469906944250,,,,,,,-0.09,0.07,1.01,-3.6,-0.3,-0.9,4400,4344,,,,,,,,,,,,,,,,,
10806,1469906944270,,,,,,,-0.1,0.12,1.03,-3.5,-1.5,-0.5,4320,4369,,,,,,,,,,,,,,,,,
10826,1469906944290,,,,,,,-0.06,0.12,1.0,-3.3,-1.3,-0.5,4420,4344,,,,,,,,,,,,,,,,,
10846,1469906944310,0,279.3,206.7,57,209.2,,-0.12,0.13,0.93,-3.5,-1.3,-0.3,4440,4344,0.952,4,39.536182,-122.329742,74.9,0.112,308.2,8,2,1.6,0,0.0,-1,0.0,0.0,0.0,0
10866,1469906944330,,,,,,,-0.04,0.16,1.02,-3.8,-0.2,-0.3,4280,4320,,,,,,,,,,,,,,,,,
10886,1469906944350,,,,,,,-0.1,0.12,0.97,-4.1,0.2,0.1,4300,4344,,,,,,,,,,,,,,,,,
10906,1469906944370,,,,,,,-0.1,0.1,0.86,-4.1,-0.9,0.0,4500,4320,,,,,,,,,,,,,,,,,
10926,1469906944390,,,,,,,-0.14,0.09,0.9,-3.9,0.2,-0.3,4400,4369,,,,,,,,,,,,,,,,,
10946,1469906944408,,,,40,,,-0.11,0.06,0.86,-3.7,-1.5,-0.0,4420,4320,0.974,4,39.536175,-122.329704,75.24,0.114,308.1,8,2,1.6,0,0.0,-1,0.0,,0.0,0
10966,1469906944428,,,,,,,-0.12,0.04,0.83,-3.2,-0.8,-0.5,4480,4395,,,,,,,,,,,,,,,,,
10986,1469906944448,,,,,,,-0.13,0.09,0.91,-3.2,-0.7,-0.5,4200,4369,,,,,,,,,,,,,,,,,
11006,1469906944468,,,,,,,-0.1,0.1,0.85,-3.1,-0.7,-0.8,4280,4369,,,,,,,,,,,,,,,,,
11026,1469906944488,,,,,,,-0.16,0.15,0.87,-3.3,-0.7,-1.1,4380,4446,,,,,,,,,,,,,,,,,
11046,1469906944507,0,279.3,205.9,43,208.7,13.95,-0.07,0.16,0.91,-3.5,-1.1,-1.0,4480,4420,0.964,4,39.536167,-122.329666,75.68,0.116,308.0,8,2,1.6,0,0.0,-1,0.0,0.0,0.0,0
11066,1469906944527,,,,,,,-0.11,0.12,0.89,-3.8,-1.0,-0.8,4440,4420,,,,,,,,,,,,,,,,,
11086,1469906944547,,,,,,,-0.08,0.09,0.93,-3.8,-0.6,-1.0,4240,4395,,,,,,,,,,,,,,,,,
11106,1469906944567,,,,,,,-0.11,0.11,1.0,-3.9,-0.0,-1.0,4340,4344,,,,,,,,,,,,,,,,,
11126,1469906944587,,,,,,,-0.1,0.09,0.9,-4.0,-1.1,-1.1,4560,4344,,,,,,,,,,,,,,,,,
11146,1469906944608,,,,50,,,-0.14,0.05,0.93,-3.6,0.3,-1.4,4460,4395,0.983,4,39.536156,-122.329628,76.05,0.119,307.7,8,2,1.6,0,0.0,-1,0.0,,0.0,0
11166,1469906944628,,,,,,,-0.11,0.08,0.88,-3.4,-1.3,-1.1,4320,4446,,,,,,,,,,,,,,,,,
11186,1469906944648,,,,,,,-0.12,0.1,0.85,-3.1,-0.6,-1.6,4380,4420,,,,,,,,,,,,,,,,,
11206,1469906944668,,,,,,,-0.1,0.08,0.91,-2.9,-1.1,-1.3,4240,4420,,,,,,,,,,,,,,,,,
11226,1469906944688,,,,,,,-0.08,0.05,0.86,-2.6,-0.9,-1.3,4540,4470,,,,,,,,,,,,,,,,,
11246,1469906944806,0,280.0,206.4,34,207.6,,-0.12,0.09,0.88,-2.5,-1.2,-1.0,4440,4496,1.023,4,39.53614,-122.329552,76.61,0.123,307.0,8,2,1.6,0,0.0,-1,0.0,0.0,0.0,0
11266,1469906944826,,,,,,,-0.05,0.11,0.86,-2.6,-1.1,-0.8,4560,4420,,,,,,,,,,,,,,,,,
11286,1469906944846,,,,,,,-0.1,0.16,0.9,-2.9,-0.5,-0.5,4220,4470,,,,,,,,,,,,,,,,,
11306,1469906944866,,,,,,,-0.04,0.16,0.96,-3.3,0.3,-0.3,4220,4420,,,,,,,,,,,,,,,,,
11326,1469906944886,,,,,,,-0.11,0.12,0.94,-3.4,0.5,-0.4,4400,4496,,,,,,,,,,,,,,,,,
11346,1469906944906,,,,61,,,-0.06,0.13,1.0,-3.5,0.2,-0.2,4500,4470,0.949,4,39.53614,-122.329552,76.61,0.123,307.0,8,2,1.6,0,0.0,-1,0.0,,0.0,0
11366,1469906944926,,,,,,,-0.09,0.08,0.95,-3.3,-1.0,0.2,4320,4446,,,,,,,,,,,,,,,,,
11386,1469906944946,,,,,,,-0.07,0.1,1.01,-3.4,-0.5,0.1,4300,4446,,,,,,,,,,,,,,,,,
11406,1469906944966,,,,,,,-0.13,0.06,0.96,-3.6,-0.3,0.6,4520,4420,,,,,,,,,,,,,,,,,
11426,1469906944986,,,,,,,-0.13,0.08,0.98,-3.6,-0.4,0.6,4580,4446,,,,,,,,,,,,,,,,,
11446,1469906944904,0,281.7,207.3,69,207.4,,-0.16,0.03,0.95,-3.5,-0.9,0.8,4560,4420,0.956,4,39.536137,-122.329514,76.47,0.125,306.7,8,2,1.6,0,0.0,-1,0.0,0.0,0.0,0
11466,1469906944924,,,,,,,-0.14,-0.0,0.9,-3.2,-1.3,0.5,4280,4420,,,,,,,,,,,,,,,,,
11486,1469906944944,,,,,,,-0.15,0.0,0.95,-3.2,-0.8,0.5,4560,4496,,,,,,,,,,,,,,,,,
11506,1469906944964,,,,,,,-0.12,-0.02,0.88,-3.0,-1.7,0.5,4600,4446,,,,,,,,,,,,,,,,,
11526,1469906944984,,,,,,,-0.16,-0.04,0.99,-2.8,-0.8,0.2,4500,4470,,,,,,,,,,,,,,,,,
11546,1469906945009,,,,33,,,-0.11,-0.06,0.94,-2.5,-1.0,0.1,4280,4496,1.003,4,39.536129,-122.329475,77.08,0.127,306.4,8,2,1.6,0,0.0,-1,0.0,,0.0,0
11566,1469906945029,,,,,,,-0.15,-0.1,1.01,-2.2,-0.1,-0.0,4460,4470,,,,,,,,,,,,,,,,,
11586,1469906945049,,,,,,,-0.11,-0.09,0.93,-2.0,-1.3,0.1,4560,4496,,,,,,,,,,,,,,,,,
11606,1469906945069,,,,,,,-0.16,-0.09,1.0,-1.8,-0.7,-0.1,4560,4470,,,,,,,,,,,,,,,,,
11626,1469906945089,,,,,,,-0.13,-0.11,0.93,-1.7,-1.2,0.3,4360,4496,,,,,,,,,,,,,,,,,
11646,1469906945109,0,279.6,206.0,46,208.0,,-0.14,-0.1,1.01,-1.4,-0.2,0.2,4460,4446,0.97,4,39.536118,-122.329437,77.41,0.129,306.1,8,2,1.6,0,0.0,-1,0.0,0.0,0.0,0
11666,1469906945129,,,,,,,-0.11,-0.11,0.91,-1.4,-1.1,0.4,4660,4524,,,,,,,,,,,,,,,,,
11686,1469906945149,,,,,,,-0.16,-0.14,0.93,-1.1,0.1,0.1,4660,4524,,,,,,,,,,,,,,,,,
11706,1469906945169,,,,,,,-0.12,-0.17,0.95,-1.0,-0.7,0.3,4420,4470,,,,,,,,,,,,,,,,,
11726,1469906945189,,,,,,,-0.15,-0.15,0.96,-0.6,-0.6,-0.1,4540,4470,,,,,,,,,,,,,,,,,
11746,1469906945209,,,,72,,,-0.12,-0.15,0.9,-0.6,-1.6,-0.0,4660,4524,1.038,4,39.53611,-122.329399,77.87,0.131,305.8,8,2,1.6,0,0.0,-1,0.0,,0.0,0
11766,1469906945229,,,,,,,-0.15,-0.08,0.9,-0.4,-0.4,-0.5,4680,4496,,,,,,,,,,,,,,,,,
11786,1469906945249,,,,,,,-0.12,-0.12,0.9,-0.4,-0.3,-0.3,4420,4524,,,,,,,,,,,,,,,,,
11806,1469906945269,,,,,,,-0.14,-0.12,0.91,-0.3,0.6,-0.7,4480,4550,,,,,,,,,,,,,,,,,
11826,1469906945289,,,,,,,-0.09,-0.13,0.82,-0.4,-1.1,-0.4,4740,4524,,,,,,,,,,,,,,,,,
11846,1469906945309,0,279.5,205.9,46,207.7,,-0.13,-0.14,0.86,0.2,-1.3,-0.4,4560,4496,0.986,4,39.536102,-122.329361,78.16,0.133,305.5,8,2,1.6,0,0.0,-1,0.0,0.0,0.0,0
11866,1469906945329,,,,,,,-0.07,-0.08,0.8,0.2,-2.2,-0.4,4380,4524,,,,,,,,,,,,,,,,,
11886,1469906945349,,,,,,,-0.12,-0.11,0.87,0.1,-0.8,-0.5,4600,4524,,,,,,,,,,,,,,,,,
11906,1469906945369,,,,,,,-0.1,-0.15,0.76,0.1,-2.6,-0.5,4720,4578,,,,,,,,,,,,,,,,,
11926,1469906945389,,,,,,,-0.14,-0.1,0.85,-0.1,-1.4,-0.4,4720,4578,,,,,,,,,,,,,,,,,
11946,1469906945407,,,,85,,,-0.08,-0.14,0.81,-0.2,-1.4,-0.6,4360,4550,0.998,4,39.536095,-122.329323,78.46,0.136,305.2,8,2,1.6,0,0.0,-1,0.0,,0.0,0
11966,1469906945427,,,,,,,-0.13,-0.16,0.84,-0.4,-1.0,-0.4,4620,4496,,,,,,,,,,,,,,,,,
11986,1469906945447,,,,,,,-0.1,-0.18,0.84,-0.7,-1.7,-0.5,4640,4524,,,,,,,,,,,,,,,,,
12006,1469906945467,,,,,,,-0.16,-0.17,0.86,-0.9,-2.0,0.1,4720,4550,,,,,,,,,,,,,,,,,
12026,1469906945487,,,,,,,-0.1,-0.14,0.89,-0.9,-2.3,-0.5,4380,4550,,,,,,,,,,,,,,,,,
12046,1469906945605,1,281.1,207.0,61,207.7,13.88,-0.18,-0.18,0.89,-1.3,-2.0,-0.4,4480,4633,1.048,4,39.536076,-122.329247,79.18,0.14,304.6,8,2,1.6,0,0.0,-1,0.0,0.0,0.0,0
12066,1469906945625,,,,,,,-0.15,-0.15,0.92,-1.6,-1.0,-0.4,4640,4606,,,,,,,,,,,,,,,,,
12086,1469906945645,,,,,,,-0.2,-0.17,0.84,-1.7,-1.2,-0.3,4460,4633,,,,,,,,,,,,,,,,,
12106,1469906945665,,,,,,,-0.14,-0.17,0.91,-1.5,-0.6,-0.7,4400,4606,,,,,,,,,,,,,,,,,
12126,1469906945685,,,,,,,-0.17,-0.15,0.91,-1.7,-1.2,-0.6,4560,4633,,,,,,,,,,,,,,,,,
12146,1469906945705,,,,43,,,-0.12,-0.16,0.92,-1.7,-0.4,-0.7,4700,4633,0.947,4,39.536076,-122.329247,79.18,0.14,304.6,8,2,1.6,0,0.0,-1,0.0,,0.0,0
12166,1469906945725,,,,,,,-0.16,-0.13,0.96,-1.7,-0.8,-0.5,4540,4661,,,,,,,,,,,,,,,,,
12186,1469906945745,,,,,,,-0.13,-0.08,0.87,-1.6,-0.9,-0.8,4700,4633,,,,,,,,,,,,,,,,,
12206,1469906945765,,,,,,,-0.1,-0.09,0.9,-1.4,-2.4,-0.7,4600,4606,,,,,,,,,,,,,,,,,
12226,1469906945785,,,,,,,-0.13,-0.07,0.89,-1.2,-1.0,-1.1,4540,4606,,,,,,,,,,,,,,,,,
12246,1469906945705,1,280.5,206.6,69,207.1,,-0.08,-0.08,0.81,-1.2,-3.0,-0.8,4780,4606,1.002,4,39.536068,-122.329208,79.6,0.142,304.1,8,2,1.6,0,0.0,-1,0.0,0.0,0.0,0
12266,1469906945725,,,,,,,-0.16,-0.09,0.85,-1.0,-1.3,-1.1,4720,4578,,,,,,,,,,,,,,,,,
12286,1469906945745,,,,,,,-0.1,-0.12,0.82,-1.1,-2.6,-0.7,4500,4578,,,,,,,,,,,,,,,,,
12306,1469906945765,,,,,,,-0.17,-0.15,0.84,-1.1,-1.5,-0.1,4720,4661,,,,,,,,,,,,,,,,,
12326,1469906945785,,,,,,,-0.13,-0.14,0.83,-1.2,-2.7,-0.1,4780,4633,,,,,,,,,,,,,,,,,
12346,1469906945809,,,,46,,,-0.16,-0.16,0.86,-1.4,-1.4,0.3,4460,4633,0.974,4,39.53606,-122.329163,79.85,0.144,303.7,8,2,1.6,0,0.0,-1,0.0,,0.0,0
12366,1469906945829,,,,,,,-0.1,-0.11,0.93,-1.9,-0.9,-0.1,4500,4661,,,,,,,,,,,,,,,,,
12386,1469906945849,,,,,,,-0.15,-0.1,0.95,-2.1,-0.3,0.1,4640,4661,,,,,,,,,,,,,,,,,
12406,1469906945869,,,,,,,-0.07,-0.12,1.02,-2.0,0.9,-0.2,4720,4661,,,,,,,,,,,,,,,,,
12426,1469906945889,,,,,,,-0.1,-0.1,1.11,-2.0,1.7,-0.3,4520,4661,,,,,,,,,,,,,,,,,
12446,1469906945901,0,280.5,206.4,52,207.2,,-0.1,-0.05,1.11,-1.9,1.8,-0.9,4740,4689,1.006,4,39.536053,-122.329124,80.31,0.147,303.2,8,2,1.6,0,0.0,-1,0.0,0.0,0.0,0
12466,1469906945921,,,,,,,-0.07,-0.05,1.11,-2.1,2.5,-0.4,4680,4689,,,,,,,,,,,,,,,,,
12486,1469906945941,,,,,,,-0.13,-0.03,1.17,-2.2,3.2,-0.6,4740,4633,,,,,,,,,,,,,,,,,
12506,1469906945961,,,,,,,-0.1,-0.06,1.04,-2.2,3.1,-0.5,4640,4633,,,,,,,,,,,,,,,,,
12526,1469906945981,,,,,,,-0.15,-0.04,1.12,-2.5,2.5,0.2,4840,4689,,,,,,,,,,,,,,,,,
12546,1469906946009,,,,62,,,-0.13,-0.06,1.1,-2.9,2.9,0.3,4480,4689,0.993,4,39.536041,-122.329079,80.59,0.149,302.6,8,2,1.6,0,0.0,-1,0.0,,0.0,0
12566,1469906946029,,,,,,,-0.18,-0.07,1.07,-3.0,1.9,0.8,4600,4661,,,,,,,,,,,,,,,,,
12586,1469906946049,,,,,,,-0.12,-0.05,1.1,-3.1,1.5,0.7,4620,4747,,,,,,,,,,,,,,,,,
12606,1469906946069,,,,,,,-0.17,-0.04,1.08,-3.3,0.7,1.2,4460,4689,,,,,,,,,,,,,,,,,
12626,1469906946089,,,,,,,-0.12,0.02,1.02,-3.2,0.0,1.2,4840,4661,,,,,,,,,,,,,,,,,
12646,1469906946109,0,280.5,206.0,93,207.0,,-0.13,0.05,1.01,-3.2,-1.4,1.6,4580,4578,1.0,4,39.536034,-122.329041,80.98,0.151,302.0,8,2,1.6,0,0.0,-1,0.0,0.0,0.0,0
12666,1469906946129,,,,,,,-0.14,0.02,0.97,-3.0,-0.1,1.3,4540,4578,,,,,,,,,,,,,,,,,
12686,1469906946149,,,,,,,-0.12,0.09,0.96,-3.0,-0.7,1.5,4360,4420,,,,,,,,,,,,,,,,,
12706,1469906946169,,,,,,,-0.12,0.07,0.92,-2.9,0.3,1.5,4400,4496,,,,,,,,,,,,,,,,,
12726,1469906946189,,,,,,,-0.06,0.09,0.88,-3.2,-0.9,1.7,4480,4524,,,,,,,,,,,,,,,,,
12746,1469906946209,,,,70,,,-0.07,0.08,0.91,-3.1,-0.6,1.5,4620,4633,0.989,4,39.536022,-122.329002,81.43,0.153,301.5,8,2,1.6,0,0.0,-1,0.0,,0.0,0
12766,1469906946229,,,,,,,-0.01,0.03,0.83,-3.0,-1.9,1.5,4540,4606,,,,,,,,,,,,,,,,,
12786,1469906946249,,,,,,,-0.01,0.04,0.89,-2.8,-1.1,1.1,4620,4606,,,,,,,,,,,,,,,,,
12806,1469906946269,,,,,,,0.02,0.02,0.91,-3.1,-0.8,0.8,4540,4633,,,,,,,,,,,,,,,,,
12826,1469906946289,,,,,,,0.01,0.03,0.93,-3.2,-1.2,0.2,4620,4633,,,,,,,,,,,,,,,,,
12846,1469906946408,0,280.8,206.8,62,207.7,,0.03,0.01,0.93,-3.2,-0.4,-0.2,4600,4606,0.983,4,39.536007,-122.328926,81.6,0.158,300.2,8,2,1.6,0,0.0,-1,0.0,0.0,0.0,0
12866,1469906946428,,,,,,,0.03,-0.05,0.95,-3.0,-0.5,-0.1,4620,4524,,,,,,,,,,,,,,,,,
12886,1469906946448,,,,,,,0.05,-0.08,1.05,-2.8,0.6,-0.2,4580,4578,,,,,,,,,,,,,,,,,
12906,1469906946468,,,,,,,0.05,-0.07,0.99,-2.9,-1.3,-0.3,4640,4578,,,,,,,,,,,,,,,,,
12926,1469906946488,,,,,,,0.08,-0.01,0.99,-3.0,-0.8,-0.2,4520,4606,,,,,,,,,,,,,,,,,
12946,1469906946508,,,,58,,,0.1,-0.07,1.0,-3.1,-1.5,-0.1,4560,4550,0.994,4,39.536007,-122.328926,81.6,0.158,300.2,8,2,1.6,0,0.0,-1,0.0,,0.0,0
12966,1469906946528,,,,,,,0.12,0.02,0.94,-3.2,-1.4,0.3,4480,4550,,,,,,,,,,,,,,,,,
12986,1469906946548,,,,,,,0.13,0.06,0.93,-3.1,-3.0,0.1,4500,4524,,,,,,,,,,,,,,,,,
13006,1469906946568,,,,,,,0.15,0.02,0.88,-3.0,-1.6,0.3,4540,4550,,,,,,,,,,,,,,,,,
13026,1469906946588,,,,,,,0.16,-0.01,0.89,-3.2,-2.7,0.4,4560,4524,,,,,,,,,,,,,,,,,
13046,1469906946506,0,280.6,206.6,36,208.2,13.89,0.22,0.05,0.82,-3.6,-3.0,0.3,4420,4496,0.983,4,39.535996,-122.328888,81.38,0.16,299.7,8,2,1.6,0,0.0,-1,0.0,0.0,0.0,0
13066,1469906946526,,,,,,,0.22,0.05,0.85,-4.0,-4.4,0.3,4420,4470,,,,,,,,,,,,,,,,,
13086,1469906946546,,,,,,,0.26,0.06,0.81,-3.9,-4.3,0.5,4480,4470,,,,,,,,,,,,,,,,,
13106,1469906946566,,,,,,,0.28,-0.01,0.87,-3.8,-5.0,0.7,4520,4470,,,,,,,,,,,,,,,,,
13126,1469906946586,,,,,,,0.34,-0.02,0.88,-3.5,-4.2,0.9,4380,4496,,,,,,,,,,,,,,,,,
13146,1469906946606,,,,50,,,0.36,-0.04,0.89,-3.3,-4.9,0.8,4420,4395,0.984,4,39.535988,-122.32885,81.03,0.162,299.2,8,2,1.6,0,0.0,-1,0.0,,0.0,0
13166,1469906946626,,,,,,,0.4,-0.03,0.95,-3.3,-3.5,1.0,4440,4524,,,,,,,,,,,,,,,,,
13186,1469906946646,,,,,,,0.4,-0.06,0.95,-3.0,-3.9,1.1,4340,4420,,,,,,,,,,,,,,,,,
13206,1469906946666,,,,,,,0.44,-0.07,1.05,-3.0,-3.3,1.1,4420,4446,,,,,,,,,,,,,,,,,
13226,1469906946686,,,,,,,0.4,-0.1,1.05,-2.8,-2.9,1.1,4420,4446,,,,,,,,,,,,,,,,,
13246,1469906946706,0,282.2,207.3,42,208.3,,0.46,-0.14,1.08,-2.4,-2.8,1.3,4380,4344,0.977,4,39.535976,-122.328796,80.54,0.165,298.8,8,2,1.6,0,0.0,-1,0.0,0.0,0.0,0
13266,1469906946726,,,,,,,0.43,-0.15,1.09,-2.0,-2.2,0.8,4380,4395,,,,,,,,,,,,,,,,,
13286,1469906946746,,,,,,,0.48,-0.11,1.08,-2.2,-2.2,0.7,4360,4344,,,,,,,,,,,,,,,,,
13306,1469906946766,,,,,,,0.45,-0.13,1.08,-2.3,-1.0,0.4,4300,4420,,,,,,,,,,,,,,,,,
13326,1469906946786,,,,,,,0.46,0.03,0.96,-2.9,-0.4,0.3,4320,4395,,,,,,,,,,,,,,,,,
13346,1469906946809,,,,39,,,0.49,0.09,0.95,-3.3,-0.3,0.2,4360,4369,0.968,4,39.535969,-122.328758,79.87,0.167,298.2,8,2,1.6,0,0.0,-1,0.0,,0.0,0
13366,1469906946829,,,,,,,0.46,0.11,0.95,-3.7,-1.4,0.7,4340,4395,,,,,,,,,,,,,,,,,
13386,1469906946849,,,,,,,0.5,0.18,0.92,-3.7,-1.2,0.5,4300,4369,,,,,,,,,,,,,,,,,
13406,1469906946869,,,,,,,0.49,0.13,1.0,-3.6,-1.4,0.5,4260,4296,,,,,,,,,,,,,,,,,
13426,1469906946889,,,,,,,0.5,0.06,1.04,-4.0,-0.4,0.8,4160,4296,,,,,,,,,,,,,,,,,
13446,1469906946902,0,280.5,206.2,41,206.9,,0.48,0.14,1.0,-4.5,-0.2,0.6,4320,4344,0.977,4,39.535957,-122.32872,78.81,0.169,297.6,8,2,1.6,0,0.0,-1,0.0,0.0,0.0,0
13466,1469906946922,,,,,,,0.53,0.12,0.99,-4.4,-1.4,0.6,4200,4272,,,,,,,,,,,,,,,,,
13486,1469906946942,,,,,,,0.52,0.04,1.0,-4.2,-0.8,0.1,4040,4272,,,,,,,,,,,,,,,,,
13506,1469906946962,,,,,,,0.53,0.05,1.05,-4.3,-1.9,-0.2,4120,4249,,,,,,,,,,,,,,,,,
13526,1469906946982,,,,,,,0.54,0.02,1.05,-4.7,-1.0,-0.1,4020,4226,,,,,,,,,,,,,,,,,
13546,1469906947002,,,,53,,,0.5,-0.04,1.05,-4.3,-1.3,-0.6,3940,4226,0.951,4,39.535954,-122.328682,77.76,0.171,297.0,8,2,1.6,0,0.0,-1,0.0,,0.0,0
13566,1469906947022,,,,,,,0.56,-0.04,1.12,-4.2,-1.3,-0.6,4000,4226,,,,,,,,,,,,,,,,,
13586,1469906947042,,,,,,,0.54,-0.03,1.04,-4.3,0.1,-0.7,3920,4226,,,,,,,,,,,,,,,,,
13606,1469906947062,,,,,,,0.58,-0.0,1.04,-4.5,-1.1,-0.9,3800,4156,,,,,,,,,,,,,,,,,
13626,1469906947082,,,,,,,0.58,-0.03,1.06,-4.6,0.3,-0.8,3900,4203,,,,,,,,,,,,,,,,,
13646,1469906947205,1,281.0,206.6,51,207.4,,0.58,-0.04,1.08,-4.7,0.6,-0.6,3800,4180,0.914,4,39.535934,-122.328606,75.74,0.175,295.7,8,2,1.6,0,0.0,-1,0.0,0.0,0.0,0
13666,1469906947225,,,,,,,0.62,0.0,1.08,-4.9,1.2,-0.7,3800,4180,,,,,,,,,,,,,,,,,
13686,1469906947245,,,,,,,0.6,0.06,1.01,-4.9,2.3,-0.9,3820,4156,,,,,,,,,,,,,,,,,
13706,1469906947265,,,,,,,0.62,0.09,1.02,-5.1,1.3,-0.6,3700,4135,,,,,,,,,,,,,,,,,
13726,1469906947285,,,,,,,0.68,0.13,1.04,-5.2,1.8,-0.3,3560,4090,,,,,,,,,,,,,,,,,
13746,1469906947305,,,,62,,,0.63,0.14,1.07,-5.4,1.7,-0.0,3700,4112,0.856,4,39.535934,-122.328606,75.74,0.175,295.7,8,2,1.6,0,0.0,-1,0.0,,0.0,0
13766,1469906947325,,,,,,,0.64,0.22,1.08,-5.6,0.8,0.0,3640,4090,,,,,,,,,,,,,,,,,
13786,1469906947345,,,,,,,0.65,0.22,1.12,-5.6,1.7,0.0,3560,4026,,,,,,,,,,,,,,,,,
13806,1469906947365,,,,,,,0.63,0.16,1.07,-5.5,2.0,0.3,3440,4047,,,,,,,,,,,,,,,,,
13826,1469906947385,,,,,,,0.68,0.15,1.09,-5.4,2.3,0.3,3500,4026,,,,,,,,,,,,,,,,,
13846,1469906947307,0,280.8,206.9,46,208.0,,0.69,0.12,1.06,-5.3,2.5,0.3,3380,4069,0.836,5,39.535927,-122.328568,74.48,0.178,295.0,8,2,1.6,0,0.0,-1,0.0,0.0,0.0,0
13866,1469906947327,,,,,,,0.64,0.1,1.07,-5.3,1.8,0.4,3460,4069,,,,,,,,,,,,,,,,,
13886,1469906947347,,,,,,,0.68,0.11,1.01,-5.1,0.8,0.6,3380,4026,,,,,,,,,,,,,,,,,
13906,1469906947367,,,,,,,0.67,0.15,0.98,-4.9,1.4,0.4,3320,3964,,,,,,,,,,,,,,,,,
13926,1469906947387,,,,,,,0.65,0.11,1.04,-4.7,0.8,0.3,3300,3964,,,,,,,,,,,,,,,,,
13946,1469906947407,,,,66,,,0.69,0.11,1.0,-4.5,0.3,0.4,3280,3924,0.817,5,39.535915,-122.328529,73.39,0.18,294.3,8,2,1.6,0,0.0,-1,0.0,,0.0,0
13966,1469906947427,,,,,,,0.66,0.13,1.03,-5.0,0.9,0.5,3220,3944,,,,,,,,,,,,,,,,,
13986,1469906947447,,,,,,,0.61,0.09,1.0,-5.1,0.2,0.4,3260,3944,,,,,,,,,,,,,,,,,
14006,1469906947467,,,,,,,0.66,0.15,0.96,-5.3,-1.1,0.1,3140,3884,,,,,,,,,,,,,,,,,
14026,1469906947487,,,,,,,0.65,0.14,0.9,-5.4,-1.5,0.0,3020,3924,,,,,,,,,,,,,,,,,
14046,1469906947506,0,280.1,206.1,58,207.3,13.82,0.61,0.1,0.9,-5.3,-0.8,0.1,3100,3884,0.789,5,39.535912,-122.328491,72.1,0.182,293.7,8,2,1.6,0,0.0,-1,0.0,0.0,0.0,0
14066,1469906947526,,,,,,,0.6,0.09,0.92,-5.1,-1.3,-0.2,3000,3884,,,,,,,,,,,,,,,,,
14086,1469906947546,,,,,,,0.61,0.07,0.92,-5.0,-0.9,-0.4,3020,3864,,,,,,,,,,,,,,,,,
14106,1469906947566,,,,,,,0.6,0.16,0.89,-5.1,0.1,-0.7,3020,3864,,,,,,,,,,,,,,,,,
14126,1469906947586,,,,,,,0.59,0.17,0.94,-5.7,0.0,-0.7,2960,3864,,,,,,,,,,,,,,,,,
14146,1469906947606,,,,49,,,0.6,0.11,0.95,-5.6,-0.2,-0.8,2900,3864,0.763,5,39.5359,-122.328461,70.96,0.184,293.0,8,2,1.6,0,0.0,-1,0.0,,0.0,0
14166,1469906947626,,,,,,,0.6,0.12,0.95,-5.3,0.7,-1.0,2960,3864,,,,,,,,,,,,,,,,,
14186,1469906947646,,,,,,,0.56,0.05,0.95,-5.1,0.8,-0.8,2860,3884,,,,,,,,,,,,,,,,,
14206,1469906947666,,,,,,,0.54,0.06,0.95,-5.2,0.0,-0.7,2880,3864,,,,,,,,,,,,,,,,,
14226,1469906947686,,,,,,,0.55,0.09,0.98,-5.4,0.1,-0.8,2840,3864,,,,,,,,,,,,,,,,,
14246,1469906947706,0,281.0,206.9,39,208.0,,0.5,0.13,0.97,-5.3,1.1,-0.9,2820,3846,0.692,5,39.535896,-122.328423,69.88,0.186,292.3,8,2,1.6,0,0.0,-1,0.0,0.0,0.0,0
14266,1469906947726,,,,,,,0.44,0.13,0.97,-5.5,0.5,-0.7,2760,3864,,,,,,,,,,,,,,,,,
14286,1469906947746,,,,,,,0.45,0.13,0.95,-5.6,-0.2,-0.8,2660,3846,,,,,,,,,,,,,,,,,
14306,1469906947766,,,,,,,0.43,0.1,0.92,-5.8,0.5,-0.7,2700,3884,,,,,,,,,,,,,,,,,
14326,1469906947786,,,,,,,0.36,0.13,0.9,-5.6,1.1,-0.8,2580,3864,,,,,,,,,,,,,,,,,
14346,1469906947809,,,,35,,,0.33,0.14,0.92,-5.9,-0.1,-0.6,2520,3864,0.686,5,39.535889,-122.328384,68.68,0.188,291.6,8,2,1.6,0,0.0,-1,0.0,,0.0,0
14366,1469906947829,,,,,,,0.29,0.12,0.99,-6.0,0.8,-0.4,2520,3864,,,,,,,,,,,,,,,,,
14386,1469906947849,,,,,,,0.28,0.2,0.93,-5.9,1.5,-0.4,2480,3846,,,,,,,,,,,,,,,,,
14406,1469906947869,,,,,,,0.24,0.14,0.94,-6.1,0.9,0.1,2500,3846,,,,,,,,,,,,,,,,,
14426,1469906947889,,,,,,,0.25,0.22,0.97,-5.9,0.3,-0.2,2420,3846,,,,,,,,,,,,,,,,,
14446,1469906948002,0,281.1,206.9,33,208.0,,0.27,0.16,0.93,-6.1,-0.2,-0.1,2500,3846,0.629,0,39.535873,-122.328323,68.23,0.191,290.3,8,2,1.6,0,0.0,-1,0.0,0.0,0.0,0
14466,1469906948022,,,,,,,0.2,0.13,0.93,-5.8,0.5,-0.1,2420,3846,,,,,,,,,,,,,,,,,
14486,1469906948042,,,,,,,0.2,0.2,0.95,-5.8,-0.1,-0.2,2440,3826,,,,,,,,,,,,,,,,,
14506,1469906948062,,,,,,,0.2,0.17,0.94,-5.9,-0.5,0.2,2440,3789,,,,,,,,,,,,,,,,,
14526,1469906948082,,,,,,,0.2,0.21,1.0,-5.8,0.8,0.1,2500,3807,,,,,,,,,,,,,,,,,
14546,1469906948102,,,,29,,,0.17,0.23,0.96,-6.0,0.4,0.1,2600,3807,0.667,5,39.535873,-122.328323,68.23,0.191,290.3,8,2,1.6,0,0.0,-1,0.0,,0.0,0
14566,1469906948122,,,,,,,0.16,0.18,0.99,-5.8,-0.0,0.0,2720,3769,,,,,,,,,,,,,,,,,
14586,1469906948142,,,,,,,0.19,0.22,0.97,-5.9,0.0,0.3,2720,3789,,,,,,,,,,,,,,,,,
14606,1469906948162,,,,,,,0.19,0.18,0.92,-5.8,0.8,0.2,2760,3807,,,,,,,,,,,,,,,,,
14626,1469906948182,,,,,,,0.17,0.24,0.96,-6.1,0.8,0.6,2880,3789,,,,,,,,,,,,,,,,,
14646,1469906948109,0,280.5,206.5,47,207.3,,0.19,0.23,1.01,-6.3,0.3,0.7,3080,3769,0.757,5,39.535866,-122.328285,68.1,0.193,289.8,8,2,1.6,0,0.0,-1,0.0,0.0,0.0,0
14666,1469906948129,,,,,,,0.23,0.25,1.06,-6.3,0.6,0.7,3120,3807,,,,,,,,,,,,,,,,,
14686,1469906948149,,,,,,,0.22,0.23,1.07,-6.4,1.4,0.9,3140,3769,,,,,,,,,,,,,,,,,
14706,1469906948169,,,,,,,0.21,0.24,1.09,-6.5,1.1,0.9,3320,3769,,,,,,,,,,,,,,,,,
14726,1469906948189,,,,,,,0.22,0.24,1.1,-6.5,0.7,0.7,3360,3769,,,,,,,,,,,,,,,,,
14746,1469906948210,,,,65,,,0.27,0.26,1.11,-6.5,0.8,0.5,3460,3752,0.923,4,39.535858,-122.328247,67.92,0.195,289.3,8,2,1.6,0,0.0,-1,0.0,,0.0,0
14766,1469906948230,,,,,,,0.27,0.26,1.09,-6.5,1.0,0.4,3620,3752,,,,,,,,,,,,,,,,,
14786,1469906948250,,,,,,,0.22,0.3,1.11,-6.6,0.6,0.7,3620,3733,,,,,,,,,,,,,,,,,
14806,1469906948270,,,,,,,0.24,0.28,1.12,-6.7,0.2,0.8,3840,3715,,,,,,,,,,,,,,,,,
14826,1469906948290,,,,,,,0.28,0.31,1.07,-6.9,0.2,0.5,3900,3680,,,,,,,,,,,,,,,,,
14846,1469906948310,0,281.1,206.7,66,207.3,,0.28,0.29,1.05,-6.9,0.3,0.4,4080,3680,1.092,4,39.535854,-122.328217,67.51,0.197,288.8,8,2,1.6,0,0.0,-1,0.0,0.0,0.0,0
14866,1469906948330,,,,,,,0.27,0.32,1.03,-7.1,-0.4,0.3,4160,3644,,,,,,,,,,,,,,,,,
14886,1469906948350,,,,,,,0.29,0.26,1.03,-7.0,-1.6,0.3,4320,3661,,,,,,,,,,,,,,,,,
14906,1469906948370,,,,,,,0.29,0.34,1.04,-7.3,-1.6,0.8,4460,3627,,,,,,,,,,,,,,,,,
14926,1469906948390,,,,,,,0.32,0.32,1.01,-7.4,-1.4,0.8,4480,3661,,,,,,,,,,,,,,,,,
14946,1469906948408,,,,69,,,0.28,0.27,1.0,-7.4,-1.1,1.0,4780,3769,1.227,3,39.535847,-122.328178,67.18,0.199,288.4,8,2,1.6,0,0.0,-1,0.0,,0.0,0
14966,1469906948428,,,,,,,0.25,0.33,0.92,-7.4,-2.9,0.7,4760,3769,,,,,,,,,,,,,,,,,
14986,1469906948448,,,,,,,0.25,0.3,0.9,-7.8,-2.1,0.6,4920,3846,,,,,,,,,,,,,,,,,
15006,1469906948468,,,,,,,0.29,0.32,0.97,-8.0,-2.9,0.6,4900,3846,,,,,,,,,,,,,,,,,
15026,1469906948488,,,,,,,0.31,0.36,0.95,-7.9,-2.6,-0.0,4880,3846,,,,,,,,,,,,,,,,,
15046,1469906948507,0,280.8,206.9,60,208.1,13.95,0.3,0.38,0.99,-8.1,-2.1,-0.0,4900,3826,1.284,3,39.535839,-122.32814,66.76,0.201,288.0,8,2,1.6,0,0.0,-1,0.0,0.0,0.0,0
15066,1469906948527,,,,,,,0.27,0.39,1.06,-8.2,-3.0,-0.4,4800,3846,,,,,,,,,,,,,,,,,
15086,1469906948547,,,,,,,0.22,0.4,1.08,-8.7,-0.7,-0.5,4840,3826,,,,,,,,,,,,,,,,,
15106,1469906948567,,,,,,,0.16,0.31,1.08,-9.0,0.7,0.2,4660,3769,,,,,,,,,,,,,,,,,
15126,1469906948587,,,,,,,0.11,0.39,1.01,-8.8,0.3,-0.3,4760,3715,,,,,,,,,,,,,,,,,
15146,1469906948607,,,,56,,,0.09,0.37,0.94,-9.5,2.0,0.2,4800,3789,1.26,3,39.535839,-122.328117,66.33,0.202,287.6,8,2,1.6,0,0.0,-1,0.0,,0.0,0
15166,1469906948627,,,,,,,0.13,0.43,0.98,-9.8,2.0,0.5,4640,3715,,,,,,,,,,,,,,,,,
15186,1469906948647,,,,,,,0.1,0.41,0.99,-10.0,2.5,1.1,4600,3715,,,,,,,,,,,,,,,,,
15206,1469906948667,,,,,,,0.11,0.42,1.0,-10.4,2.9,1.4,4800,3715,,,,,,,,,,,,,,,,,
15226,1469906948687,,,,,,,0.13,0.49,0.95,-10.5,2.4,1.2,4740,3752,,,,,,,,,,,,,,,,,
15246,1469906948807,0,282.2,206.9,37,208.0,,0.11,0.46,0.92,-10.7,3.9,1.7,4860,3769,1.274,3,39.535824,-122.328041,66.15,0.207,286.9,8,2,1.6,0,0.0,-1,0.0,0.0,0.0,0
15266,1469906948827,,,,,,,0.1,0.44,0.98,-10.5,3.6,1.8,4820,3769,,,,,,,,,,,,,,,,,
15286,1469906948847,,,,,,,0.08,0.4,1.03,-10.8,3.1,2.1,4820,3769,,,,,,,,,,,,,,,,,
15306,1469906948867,,,,,,,0.1,0.4,1.01,-10.9,2.4,2.2,4820,3752,,,,,,,,,,,,,,,,,
15326,1469906948887,,,,,,,0.06,0.45,1.03,-10.9,2.6,1.8,4760,3807,,,,,,,,,,,,,,,,,
15346,1469906948907,,,,69,,,0.06,0.46,1.01,-10.8,3.2,1.6,4840,3846,1.275,3,39.535824,-122.328041,66.15,0.207,286.9,8,2,1.6,0,0.0,-1,0.0,,0.0,0
15366,1469906948927,,,,,,,0.14,0.44,1.09,-10.9,2.0,1.4,4740,3807,,,,,,,,,,,,,,,,,
15386,1469906948947,,,,,,,0.13,0.48,1.13,-11.2,1.9,1.6,4800,3807,,,,,,,,,,,,,,,,,
15406,1469906948967,,,,,,,0.08,0.42,1.11,-11.4,2.9,1.4,4860,3807,,,,,,,,,,,,,,,,,
15426,1469906948987,,,,,,,0.07,0.51,1.06,-11.3,0.6,0.8,4720,3769,,,,,,,,,,,,,,,,,
15446,1469906948902,0,281.3,207.0,36,208.0,,0.03,0.49,1.05,-11.3,1.2,0.4,4740,3752,1.246,3,39.53582,-122.328011,66.24,0.208,286.6,8,2,1.6,0,0.0,-1,0.0,0.0,0.0,0
15466,1469906948922,,,,,,,0.09,0.52,1.04,-11.8,1.2,0.5,4660,3733,,,,,,,,,,,,,,,,,
15486,1469906948942,,,,,,,0.08,0.54,1.11,-12.1,1.2,0.6,4840,3752,,,,,,,,,,,,,,,,,
15506,1469906948962,,,,,,,0.05,0.49,1.1,-12.4,1.2,1.0,4700,3752,,,,,,,,,,,,,,,,,
15526,1469906948982,,,,,,,0.05,0.55,1.04,-12.3,0.7,0.7,4780,3789,,,,,,,,,,,,,,,,,
15546,1469906949010,,,,49,,,0.04,0.55,0.94,-12.3,0.8,1.1,4660,3769,1.29,3,39.535816,-122.327972,66.27,0.21,286.2,8,2,1.6,0,0.0,-1,0.0,,0.0,0
15566,1469906949030,,,,,,,0.05,0.61,1.04,-12.5,1.1,1.3,4700,3789,,,,,,,,,,,,,,,,,
15586,1469906949050,,,,,,,0.04,0.6,1.07,-13.3,-0.8,1.5,4780,3769,,,,,,,,,,,,,,,,,
15606,1469906949070,,,,,,,0.05,0.51,0.99,-13.6,-0.1,1.6,4660,3807,,,,,,,,,,,,,,,,,
15626,1469906949090,,,,,,,0.09,0.59,0.88,-13.4,-0.9,1.2,4820,3752,,,,,,,,,,,,,,,,,
15646,1469906949110,0,280.6,206.6,68,207.7,,0.04,0.62,0.83,-13.5,-0.5,0.9,4880,3789,1.269,3,39.535812,-122.327934,66.28,0.212,285.8,8,2,1.6,0,0.0,-1,0.0,0.0,0.0,0
15666,1469906949130,,,,,,,0.09,0.63,0.94,-14.1,-1.1,1.0,4740,3752,,,,,,,,,,,,,,,,,
15686,1469906949150,,,,,,,0.09,0.65,1.0,-14.3,-1.6,1.0,4700,3789,,,,,,,,,,,,,,,,,
15706,1469906949170,,,,,,,0.11,0.61,0.93,-14.2,-1.7,0.9,4840,3752,,,,,,,,,,,,,,,,,
15726,1469906949190,,,,,,,0.05,0.62,0.84,-13.8,-2.0,0.3,4760,3769,,,,,,,,,,,,,,,,,
15746,1469906949210,,,,40,,,0.04,0.64,0.79,-13.9,-2.3,0.4,4780,3752,1.247,3,39.535809,-122.327911,66.28,0.214,285.5,8,2,1.6,0,0.0,-1,0.0,,0.0,0
15766,1469906949230,,,,,,,0.09,0.65,0.87,-14.3,-1.8,0.5,4760,3807,,,,,,,,,,,,,,,,,
15786,1469906949250,,,,,,,0.09,0.74,0.89,-15.2,-1.3,0.7,4820,3769,,,,,,,,,,,,,,,,,
15806,1469906949270,,,,,,,0.07,0.73,0.9,-15.4,-0.7,0.7,4840,3752,,,,,,,,,,,,,,,,,
15826,1469906949290,,,,,,,0.08,0.74,0.83,-15.6,-1.7,1.0,4760,3733,,,,,,,,,,,,,,,,,
15846,1469906949309,1,280.8,206.5,49,207.0,,0.08,0.74,0.88,-15.8,-0.5,0.8,4760,3807,1.272,3,39.535805,-122.327873,66.39,0.216,285.2,8,2,1.6,0,0.0,-1,0.0,0.0,0.0,0
15866,1469906949329,,,,,,,0.12,0.76,0.92,-15.8,-0.7,0.8,4820,3752,,,,,,,,,,,,,,,,,
15886,1469906949349,,,,,,,0.11,0.79,0.92,-16.1,-0.8,1.2,4780,3769,,,,,,,,,,,,,,,,,
15906,1469906949369,,,,,,,0.13,0.75,0.89,-16.4,-1.5,1.0,4860,3752,,,,,,,,,,,,,,,,,
15926,1469906949389,,,,,,,0.1,0.8,0.85,-16.3,-1.8,0.6,4780,3769,,,,,,,,,,,,,,,,,
15946,1469906949408,,,,44,,,0.06,0.79,0.87,-16.4,0.2,0.8,4760,3769,1.259,3,39.535805,-122.327835,66.35,0.218,284.8,8,2,1.6,0,0.0,-1,0.0,,0.0,0
15966,1469906949428,,,,,,,0.08,0.77,0.97,-16.4,-0.3,0.5,4780,3769,,,,,,,,,,,,,,,,,
15986,1469906949448,,,,,,,0.06,0.8,0.96,-16.9,-0.5,0.7,4820,3733,,,,,,,,,,,,,,,,,
16006,1469906949468,,,,,,,0.07,0.83,0.96,-17.1,0.2,0.2,4760,3769,,,,,,,,,,,,,,,,,
16026,1469906949488,,,,,,,0.03,0.83,0.91,-17.1,0.4,-0.3,4860,3752,,,,,,,,,,,,,,,,,
16046,1469906949607,0,282.5,207.7,43,208.5,13.91,0.02,0.83,0.84,-16.9,1.3,-0.3,4780,3752,1.279,3,39.535801,-122.327774,66.24,0.221,284.4,8,2,1.6,0,0.0,-1,0.0,0.0,0.0,0
16066,1469906949627,,,,,,,0.08,0.84,0.92,-17.0,0.4,-0.4,4700,3752,,,,,,,,,,,,,,,,,
16086,1469906949647,,,,,,,0.1,0.8,0.9,-17.1,1.0,-0.3,4760,3752,,,,,,,,,,,,,,,,,
16106,1469906949667,,,,,,,0.08,0.8,0.85,-17.3,1.4,-0.4,4640,3769,,,,,,,,,,,,,,,,,
16126,1469906949687,,,,,,,0.08,0.83,0.85,-17.2,-0.3,-0.8,4860,3715,,,,,,,,,,,,,,,,,
16146,1469906949707,,,,49,,,0.1,0.85,0.85,-17.4,0.6,-1.0,4740,3752,1.29,3,39.535801,-122.327774,66.24,0.221,284.4,8,2,1.6,0,0.0,-1,0.0,,0.0,0
16166,1469906949727,,,,,,,0.13,0.88,0.85,-17.2,0.1,-1.3,4840,3715,,,,,,,,,,,,,,,,,
16186,1469906949747,,,,,,,0.05,0.81,0.81,-17.3,1.5,-1.2,4780,3715,,,,,,,,,,,,,,,,,
16206,1469906949767,,,,,,,0.07,0.81,0.85,-17.2,0.1,-1.1,4780,3715,,,,,,,,,,,,,,,,,
16226,1469906949787,,,,,,,0.1,0.81,0.94,-17.5,-0.4,-0.7,4660,3733,,,,,,,,,,,,,,,,,
16246,1469906949708,0,280.6,206.3,46,207.6,,0.13,0.81,0.91,-17.5,0.3,-0.7,4820,3715,1.238,3,39.535801,-122.327736,66.28,0.223,284.1,8,2,1.6,0,0.0,-1,0.0,0.0,0.0,0
16266,1469906949728,,,,,,,0.12,0.83,0.93,-17.6,0.3,-0.7,4800,3733,,,,,,,,,,,,,,,,,
16286,1469906949748,,,,,,,0.06,0.87,0.96,-17.9,-0.8,-0.5,4660,3715,,,,,,,,,,,,,,,,,
16306,1469906949768,,,,,,,0.08,0.79,0.98,-18.2,-1.1,-0.4,4720,3752,,,,,,,,,,,,,,,,,
16326,1469906949788,,,,,,,0.1,0.82,1.03,-18.4,-1.1,-0.1,4580,3715,,,,,,,,,,,,,,,,,
16346,1469906949810,,,,76,,,0.08,0.85,1.04,-19.0,0.3,-0.2,4780,3715,1.238,3,39.535801,-122.327705,66.14,0.225,283.8,8,2,1.6,0,0.0,-1,0.0,,0.0,0
16366,1469906949830,,,,,,,0.03,0.91,1.04,-19.0,-0.2,-0.9,4800,3715,,,,,,,,,,,,,,,,,
16386,1469906949850,,,,,,,0.01,0.87,1.07,-19.0,0.9,-0.7,4780,3733,,,,,,,,,,,,,,,,,
16406,1469906949870,,,,,,,0.09,0.91,1.11,-18.5,-0.4,-1.2,4660,3733,,,,,,,,,,,,,,,,,
16426,1469906949890,,,,,,,0.05,0.92,1.02,-18.9,1.3,-1.1,4820,3769,,,,,,,,,,,,,,,,,
16446,1469906949903,0,280.6,207.2,43,208.2,,0.06,0.92,1.03,-19.2,-0.2,-1.2,4700,3696,1.29,3,39.535801,-122.327667,66.0,0.227,283.5,8,2,1.6,0,0.0,-1,0.0,0.0,0.0,0
16466,1469906949923,,,,,,,0.06,0.93,1.1,-19.6,-1.5,-0.9,4740,3752,,,,,,,,,,,,,,,,,
16486,1469906949943,,,,,,,0.11,0.94,1.13,-20.0,-0.5,-0.8,4720,3733,,,,,,,,,,,,,,,,,
16506,1469906949963,,,,,,,0.11,0.94,0.99,-19.9,-1.4,-1.2,4780,3715,,,,,,,,,,,,,,,,,
16526,1469906949983,,,,,,,0.03,0.94,0.94,-19.8,0.4,-0.9,4660,3752,,,,,,,,,,,,,,,,,
16546,1469906950010,,,,39,,,0.1,0.92,1.0,-19.8,-1.3,-0.7,4760,3752,1.281,3,39.535805,-122.327629,65.71,0.229,283.1,8,2,1.6,0,0.0,-1,0.0,,0.0,0
16566,1469906950030,,,,,,,0.12,0.87,1.04,-20.2,-1.5,-0.1,4760,3752,,,,,,,,,,,,,,,,,
16586,1469906950050,,,,,,,0.16,0.86,1.04,-20.1,-0.8,-0.3,4760,3769,,,,,,,,,,,,,,,,,
16606,1469906950070,,,,,,,0.11,0.9,1.1,-19.8,-1.8,-0.6,4720,3752,,,,,,,,,,,,,,,,,
16626,1469906950090,,,,,,,0.1,1.0,1.03,-19.8,-1.4,-0.9,4800,3752,,,,,,,,,,,,,,,,,
16646,1469906950109,0,282.0,207.2,36,208.0,,0.18,0.93,1.08,-19.7,-3.1,-1.0,4700,3733,1.274,3,39.535805,-122.327606,65.62,0.23,282.8,8,2,1.6,0,0.0,-1,0.0,0.0,0.0,0
16666,1469906950129,,,,,,,0.12,0.98,1.02,-19.9,-1.5,-0.6,4760,3715,,,,,,,,,,,,,,,,,
16686,1469906950149,,,,,,,0.11,0.97,1.01,-20.0,-2.1,-0.6,4800,3715,,,,,,,,,,,,,,,,,
16706,1469906950169,,,,,,,0.06,0.9,1.01,-19.6,-2.7,-0.7,4820,3769,,,,,,,,,,,,,,,,,
16726,1469906950189,,,,,,,0.08,0.92,0.96,-19.1,-1.1,-0.7,4660,3733,,,,,,,,,,,,,,,,,
16746,1469906950210,,,,44,,,0.12,0.94,1.0,-18.7,-1.1,-0.9,4800,3752,1.264,3,39.535809,-122.327568,65.65,0.232,282.5,8,2,1.6,0,0.0,-1,0.0,,0.0,0
16766,1469906950230,,,,,,,0.1,0.96,0.96,-19.5,0.5,-1.2,4660,3696,,,,,,,,,,,,,,,,,
16786,1469906950250,,,,,,,0.14,0.96,1.04,-20.0,-0.0,-1.2,4700,3733,,,,,,,,,,,,,,,,,
16806,1469906950270,,,,,,,0.16,0.99,1.11,-20.2,-1.5,-0.9,4680,3696,,,,,,,,,,,,,,,,,
16826,1469906950290,,,,,,,0.17,0.96,1.08,-19.9,-0.8,-1.1,4720,3715,,,,,,,,,,,,,,,,,
16846,1469906950410,1,280.1,205.8,69,207.0,,0.12,0.98,1.07,-19.8,-0.3,-0.8,4740,3680,1.266,3,39.535816,-122.327499,65.3,0.236,281.9,8,2,1.6,0,0.0,-1,0.0,0.0,0.0,0
16866,1469906950430,,,,,,,0.12,1.02,1.1,-19.6,0.8,-0.7,4660,3715,,,,,,,,,,,,,,,,,
16886,1469906950450,,,,,,,0.11,0.94,1.07,-19.4,0.5,-0.8,4820,3715,,,,,,,,,,,,,,,,,
16906,1469906950470,,,,,,,0.14,0.94,1.0,-19.4,1.2,-0.5,4620,3680,,,,,,,,,,,,,,,,,
16926,1469906950490,,,,,,,0.2,0.95,1.05,-19.4,2.0,-0.3,4640,3752,,,,,,,,,,,,,,,,,
16946,1469906950510,,,,49,,,0.2,1.01,1.06,-19.3,0.6,-0.0,4800,3696,1.227,3,39.535816,-122.327499,65.3,0.236,281.9,8,2,1.6,0,0.0,-1,0.0,,0.0,0
16966,1469906950530,,,,,,,0.22,0.99,1.08,-19.3,1.1,-0.0,4700,3715,,,,,,,,,,,,,,,,,
16986,1469906950550,,,,,,,0.23,1.03,1.0,-19.1,-0.3,-0.2,4560,3696,,,,,,,,,,,,,,,,,
17006,1469906950570,,,,,,,0.23,1.01,0.98,-19.1,0.7,0.3,4680,3733,,,,,,,,,,,,,,,,,
17026,1469906950590,,,,,,,0.24,1.02,1.04,-19.2,0.0,-0.0,4700,3696,,,,,,,,,,,,,,,,,
17046,1469906950508,1,280.5,206.4,80,207.4,13.86,0.17,1.03,1.01,-19.6,-0.3,-0.0,4760,3715,1.255,3,39.535824,-122.327461,65.12,0.238,281.7,8,2,1.6,0,0.0,-1,0.0,0.0,0.0,0
17066,1469906950528,,,,,,,0.24,1.04,1.07,-20.1,-1.5,-0.1,4640,3696,,,,,,,,,,,,,,,,,
17086,1469906950548,,,,,,,0.28,1.0,1.12,-20.1,-0.7,0.2,4680,3715,,,,,,,,,,,,,,,,,
17106,1469906950568,,,,,,,0.26,0.97,1.11,-20.1,0.4,0.1,4700,3680,,,,,,,,,,,,,,,,,
17126,1469906950588,,,,,,,0.21,1.03,1.06,-19.6,-0.9,0.1,4620,3715,,,,,,,,,,,,,,,,,
17146,1469906950608,,,,62,,,0.18,1.1,1.11,-19.8,0.0,0.8,4720,3715,1.262,3,39.535831,-122.327438,65.07,0.239,281.4,8,2,1.6,0,0.0,-1,0.0,,0.0,0
17166,1469906950628,,,,,,,0.21,1.07,1.07,-19.9,0.3,0.6,4680,3715,,,,,,,,,,,,,,,,,
17186,1469906950648,,,,,,,0.15,1.1,1.09,-20.8,1.8,0.8,4680,3680,,,,,,,,,,,,,,,,,
17206,1469906950668,,,,,,,0.19,1.16,1.1,-21.3,1.7,0.4,4780,3696,,,,,,,,,,,,,,,,,
17226,1469906950688,,,,,,,0.16,1.13,1.17,-21.6,0.6,0.8,4720,3696,,,,,,,,,,,,,,,,,
17246,1469906950708,0,280.5,206.5,45,207.8,,0.19,1.11,1.15,-21.4,1.3,0.6,4720,3661,1.266,3,39.535839,-122.3274,64.96,0.241,281.1,8,2,1.6,0,0.0,-1,0.0,0.0,0.0,0
17266,1469906950728,,,,,,,0.16,1.12,1.05,-21.3,0.8,0.2,4660,3715,,,,,,,,,,,,,,,,,
17286,1469906950748,,,,,,,0.11,1.16,0.99,-21.2,0.9,0.2,4720,3696,,,,,,,,,,,,,,,,,
17306,1469906950768,,,,,,,0.1,1.15,1.08,-21.2,-0.3,-0.1,4740,3696,,,,,,,,,,,,,,,,,
