"Interval"|"ms"|0|0|1,"Utc"|"ms"|0|0|1,"FuelLevel"|"F"|0|100|5,"OilTemp"|"F"|0.0|300.0|5,"Coolant"|"F"|0.0|300.0|5,"OilPress"|"PSI"|0|150|10,"EngineTemp"|"F"|0.0|300.0|5,"Battery"|"Volts"|0.0|20.0|1,"AccelX"|"G"|-3.0|3.0|50,"AccelY"|"G"|-3.0|3.0|50,"AccelZ"|"G"|-3.0|3.0|50,"Yaw"|"Deg/Sec"|-300.0|300.0|50,"Pitch"|"Deg/Sec"|-300.0|300.0|50,"Roll"|"Deg/Sec"|-300.0|300.0|50,"RPM"|""|0|10000|50,"Driveshaft"|"RPM"|0|5000|50,"GearRatio"|""|-5.0|5.0|10,"Gear"|""|-1|5|10,"Latitude"|"Degrees"|-180.0|180.0|10,"Longitude"|"Degrees"|-180.0|180.0|10,"Speed"|"MPH"|0.0|150.0|10,"Distance"|"Miles"|0.0|0.0|10,"Altitude"|"Feet"|0.0|4000.0|10,"GPSSats"|""|0|20|10,"GPSQual"|""|0|5|10,"GPSDOP"|""|0.0|20.0|10,"LapCount"|""|0|0|10,"LapTime"|"Min"|0.0|0.0|10,"Sector"|""|0|0|10,"SectorTime"|"Min"|0.0|0.0|10,"PredTime"|"Min"|0.0|0.0|5,"ElapsedTime"|"Min"|0.0|0.0|10,"CurrentLap"|""|0|0|10
5066,1469907589050,,,,,,,0.09,1.01,0.89,-21.6,-2.6,0.3,4320,3495,,,,,,,,,,,,,,,,,
5086,1469907589070,,,,,,,0.04,0.99,0.86,-21.3,-2.6,0.5,4380,3544,,,,,,,,,,,,,,,,,
5106,1469907589090,,,,,,,0.0,0.93,0.86,-21.1,-3.3,0.7,4520,3527,,,,,,,,,,,,,,,,,
5126,1469907589109,,,,,,,0.01,0.98,0.82,-20.8,-4.3,0.7,4660,3527,,,,,,,,,,,,,,,,,
5146,1469907589129,,,,57,,,0.0,0.94,0.85,-20.7,-3.4,0.7,4460,3495,1.309,3,39.536224,-122.326736,61.54,0.001,279.4,7,2,0.1,0,0.0,-1,0.0,,0.0,0
5166,1469907589149,,,,,,,0.01,0.92,0.78,-20.4,-3.0,0.8,4400,3576,,,,,,,,,,,,,,,,,
5186,1469907589169,,,,,,,0.0,0.88,0.81,-20.5,-2.7,0.6,4500,3480,,,,,,,,,,,,,,,,,
5206,1469907589189,,,,,,,-0.06,0.89,0.79,-20.5,-2.8,0.5,4560,3560,,,,,,,,,,,,,,,,,
5226,1469907589209,,,,,,,-0.1,0.84,0.83,-20.6,-2.8,0.4,4480,3512,,,,,,,,,,,,,,,,,
5246,1469907589229,0,281.5,207.2,77,208.1,,-0.07,0.88,0.86,-20.3,-3.3,0.3,4280,3527,1.276,3,39.536247,-122.326721,61.41,0.003,279.2,7,2,0.1,0,0.0,-1,0.0,0.0,0.0,0
5266,1469907589249,,,,,,,-0.02,0.88,0.84,-20.1,-3.2,0.2,4500,3527,,,,,,,,,,,,,,,,,
5286,1469907589269,,,,,,,-0.04,0.85,0.91,-19.9,-2.9,0.0,4660,3544,,,,,,,,,,,,,,,,,
5306,1469907589289,,,,,,,-0.02,0.85,0.87,-19.6,-1.8,-0.4,4600,3495,,,,,,,,,,,,,,,,,
5326,1469907589309,,,,,,,-0.03,0.83,0.91,-19.2,-1.4,-0.1,4300,3560,,,,,,,,,,,,,,,,,
5346,1469907589329,,,,84,,,-0.02,0.83,0.91,-19.0,-1.5,0.1,4420,3495,1.292,3,39.53627,-122.326706,61.42,0.005,279.1,7,2,0.1,0,0.0,-1,0.0,,0.0,0
5366,1469907589349,,,,,,,-0.01,0.88,0.97,-19.0,-1.5,-0.1,4480,3512,,,,,,,,,,,,,,,,,
5386,1469907589369,,,,,,,0.03,0.91,0.88,-18.9,-0.9,-0.2,4660,3544,,,,,,,,,,,,,,,,,
5406,1469907589389,,,,,,,0.04,0.9,0.91,-18.7,-0.1,0.2,4420,3544,,,,,,,,,,,,,,,,,
5426,1469907589409,,,,,,,0.05,0.88,0.89,-18.7,0.7,-0.0,4480,3495,,,,,,,,,,,,,,,,,
5446,1469907589429,0,281.5,207.3,78,209.0,,-0.01,0.86,0.94,-18.8,0.6,0.3,4680,3544,1.287,3,39.536293,-122.326698,61.28,0.007,278.9,7,2,0.1,0,0.0,-1,0.0,0.0,0.0,0
5466,1469907589449,,,,,,,0.0,0.88,0.97,-18.5,-0.6,0.1,4620,3495,,,,,,,,,,,,,,,,,
5486,1469907589469,,,,,,,0.01,0.91,1.04,-18.5,-0.7,0.1,4360,3512,,,,,,,,,,,,,,,,,
5506,1469907589489,,,,,,,0.04,0.93,0.99,-18.4,-0.1,-0.4,4520,3544,,,,,,,,,,,,,,,,,
5526,1469907589509,,,,,,,0.04,0.91,1.02,-18.1,0.2,-0.1,4620,3560,,,,,,,,,,,,,,,,,
5546,1469907589529,,,,67,,,0.06,0.98,1.06,-17.8,1.1,-0.2,4680,3512,1.27,3,39.536316,-122.326683,61.4,0.008,279.1,7,2,0.1,0,0.0,-1,0.0,,0.0,0
5566,1469907589549,,,,,,,-0.01,0.96,1.05,-17.8,1.5,-0.1,4400,3560,,,,,,,,,,,,,,,,,
5586,1469907589569,,,,,,,0.0,0.96,0.97,-17.3,1.2,-0.1,4480,3495,,,,,,,,,,,,,,,,,
5606,1469907589589,,,,,,,0.01,0.91,1.02,-17.2,0.5,0.1,4620,3512,,,,,,,,,,,,,,,,,
5626,1469907589709,,,,,,,0.05,0.91,1.01,-17.0,1.0,-0.3,4540,3512,,,,,,,,,,,,,,,,,
5646,1469907589729,0,281.1,207.1,54,207.7,,0.06,0.81,1.0,-16.6,1.7,-0.2,4420,3495,1.208,3,39.536362,-122.32666,61.11,0.012,280.0,7,2,0.1,0,0.0,-1,0.0,0.0,0.0,0
5666,1469907589749,,,,,,,0.05,0.78,0.98,-16.5,2.7,-0.2,4580,3527,,,,,,,,,,,,,,,,,
5686,1469907589769,,,,,,,-0.02,0.78,1.0,-16.9,1.9,0.3,4580,3527,,,,,,,,,,,,,,,,,
5706,1469907589789,,,,,,,-0.02,0.89,1.0,-16.9,1.5,0.3,4680,3495,,,,,,,,,,,,,,,,,
5726,1469907589809,,,,,,,0.02,0.82,1.04,-16.8,2.1,0.7,4360,3512,,,,,,,,,,,,,,,,,
5746,1469907589829,,,,62,,,0.06,0.86,1.01,-16.9,2.9,0.7,4400,3560,1.292,3,39.536362,-122.32666,61.11,0.012,280.0,7,2,0.1,0,0.0,-1,0.0,,0.0,0
5766,1469907589849,,,,,,,0.05,0.81,1.0,-17.0,3.2,0.9,4600,3495,,,,,,,,,,,,,,,,,
5786,1469907589869,,,,,,,0.0,0.81,1.03,-16.9,4.1,0.5,4480,3527,,,,,,,,,,,,,,,,,
5806,1469907589889,,,,,,,-0.02,0.73,1.08,-16.8,3.8,0.7,4360,3512,,,,,,,,,,,,,,,,,
5826,1469907589810,,,,,,,0.02,0.78,1.12,-16.8,4.0,0.6,4540,3512,,,,,,,,,,,,,,,,,
5846,1469907589830,1,282.2,207.7,47,208.5,,0.06,0.79,1.13,-16.7,4.4,0.6,4460,3527,1.275,3,39.536385,-122.326645,61.13,0.014,280.2,7,2,0.1,0,0.0,-1,0.0,0.0,0.0,0
5866,1469907589850,,,,,,,0.1,0.79,1.13,-16.8,4.4,0.6,4620,3527,,,,,,,,,,,,,,,,,
5886,1469907589870,,,,,,,0.1,0.8,1.11,-17.2,4.8,0.5,4280,3495,,,,,,,,,,,,,,,,,
5906,1469907589890,,,,,,,0.04,0.86,1.19,-17.3,5.4,0.3,4460,3560,,,,,,,,,,,,,,,,,
5926,1469907589902,,,,,,,0.03,0.84,1.16,-17.5,4.3,0.1,4600,3512,,,,,,,,,,,,,,,,,
5946,1469907589922,,,,59,,,0.08,0.9,1.16,-17.4,3.1,-0.1,4540,3527,1.298,3,39.536408,-122.326645,61.22,0.015,280.3,7,2,0.1,0,0.0,-1,0.0,,0.0,0
5966,1469907589942,,,,,,,0.09,0.88,1.12,-17.7,3.0,0.1,4340,3527,,,,,,,,,,,,,,,,,
5986,1469907589962,,,,,,,0.11,0.88,1.17,-17.7,3.6,-0.3,4420,3544,,,,,,,,,,,,,,,,,
6006,1469907589982,,,,,,,0.09,0.9,1.1,-17.9,3.0,-0.3,4640,3480,,,,,,,,,,,,,,,,,
6026,1469907590010,,,,,,,0.05,0.84,1.13,-17.7,2.0,-0.6,4600,3544,,,,,,,,,,,,,,,,,
6046,1469907590030,0,280.8,206.5,46,207.8,14.0,0.02,0.83,1.11,-17.9,1.2,-0.5,4520,3495,1.236,3,39.536434,-122.32663,61.2,0.017,280.3,7,2,0.1,0,0.0,-1,0.0,0.0,0.0,0
6066,1469907590050,,,,,,,0.05,0.84,1.18,-17.9,1.1,-0.9,4460,3512,,,,,,,,,,,,,,,,,
6086,1469907590070,,,,,,,0.07,0.81,1.07,-18.1,1.4,-0.6,4240,3527,,,,,,,,,,,,,,,,,
6106,1469907590090,,,,,,,0.09,0.84,1.09,-18.3,1.6,-0.7,4620,3512,,,,,,,,,,,,,,,,,
6126,1469907590110,,,,,,,0.07,0.85,1.06,-18.5,2.6,-0.9,4500,3512,,,,,,,,,,,,,,,,,
6146,1469907590130,,,,66,,,0.03,0.81,1.13,-18.3,1.9,-1.1,4500,3544,1.259,3,39.536453,-122.32663,61.26,0.018,280.0,7,2,0.1,0,0.0,-1,0.0,,0.0,0
6166,1469907590150,,,,,,,0.02,0.8,1.08,-18.4,0.9,-0.9,4480,3527,,,,,,,,,,,,,,,,,
6186,1469907590170,,,,,,,0.04,0.9,1.14,-18.5,1.1,-1.3,4600,3495,,,,,,,,,,,,,,,,,
6206,1469907590190,,,,,,,0.08,0.88,1.03,-18.6,1.8,-0.9,4480,3544,,,,,,,,,,,,,,,,,
6226,1469907590210,,,,,,,0.14,0.88,1.09,-18.6,0.8,-0.9,4420,3512,,,,,,,,,,,,,,,,,
6246,1469907590230,0,282.0,206.9,52,207.9,,0.06,0.85,1.08,-18.9,1.6,-0.7,4380,3544,1.213,3,39.53648,-122.32663,61.26,0.02,279.6,7,2,0.1,0,0.0,-1,0.0,0.0,0.0,0
6266,1469907590250,,,,,,,0.02,0.82,1.11,-18.9,0.7,-0.6,4680,3544,,,,,,,,,,,,,,,,,
6286,1469907590270,,,,,,,0.02,0.89,1.07,-19.1,0.1,-0.4,4480,3527,,,,,,,,,,,,,,,,,
6306,1469907590290,,,,,,,0.05,0.84,1.14,-19.0,-0.1,-0.3,4540,3527,,,,,,,,,,,,,,,,,
6326,1469907590310,,,,,,,0.06,0.85,1.08,-19.4,1.2,0.2,4360,3560,,,,,,,,,,,,,,,,,
6346,1469907590330,,,,42,,,0.07,0.88,1.06,-19.5,1.1,-0.1,4600,3544,1.275,3,39.536507,-122.326622,61.36,0.022,279.7,7,2,0.1,0,0.0,-1,0.0,,0.0,0
6366,1469907590350,,,,,,,-0.03,0.84,1.03,-19.8,1.8,0.2,4440,3544,,,,,,,,,,,,,,,,,
6386,1469907590370,,,,,,,-0.06,0.82,1.12,-20.1,0.9,-0.2,4520,3527,,,,,,,,,,,,,,,,,
6406,1469907590390,,,,,,,-0.05,0.92,1.07,-20.6,0.6,-0.2,4280,3544,,,,,,,,,,,,,,,,,
6426,1469907590507,,,,,,,-0.02,0.92,1.05,-20.6,-0.0,-0.2,4560,3544,,,,,,,,,,,,,,,,,
6446,1469907590527,0,280.5,206.5,47,207.7,,0.01,0.9,1.0,-20.8,0.3,0.0,4480,3544,1.326,3,39.536556,-122.326622,61.49,0.026,280.1,7,2,0.1,0,0.0,-1,0.0,0.0,0.0,0
6466,1469907590547,,,,,,,-0.02,0.92,1.08,-20.6,-0.0,-0.4,4580,3527,,,,,,,,,,,,,,,,,
6486,1469907590567,,,,,,,-0.08,0.86,1.04,-20.7,-0.1,-0.4,4380,3560,,,,,,,,,,,,,,,,,
6506,1469907590587,,,,,,,-0.1,0.84,1.09,-20.5,-2.5,-0.4,4680,3527,,,,,,,,,,,,,,,,,
6526,1469907590607,,,,,,,-0.06,0.88,1.04,-20.7,-1.9,-0.5,4500,3512,,,,,,,,,,,,,,,,,
6546,1469907590627,,,,55,,,-0.02,0.89,1.06,-20.4,-1.9,-0.6,4480,3576,1.242,3,39.536556,-122.326622,61.49,0.026,280.1,7,2,0.1,0,0.0,-1,0.0,,0.0,0
6566,1469907590647,,,,,,,-0.0,0.92,0.98,-20.3,-1.0,-0.4,4280,3512,,,,,,,,,,,,,,,,,
6586,1469907590667,,,,,,,0.01,0.93,1.04,-20.4,-1.2,-0.5,4580,3544,,,,,,,,,,,,,,,,,
6606,1469907590687,,,,,,,-0.04,0.91,0.99,-20.7,-1.7,-0.6,4480,3544,,,,,,,,,,,,,,,,,
6626,1469907590606,,,,,,,-0.03,0.91,1.07,-20.5,-2.5,-1.0,4600,3527,,,,,,,,,,,,,,,,,
6646,1469907590626,0,282.0,207.3,46,208.6,,-0.03,0.94,1.04,-20.7,-0.9,-0.8,4360,3560,1.236,3,39.536583,-122.326622,61.55,0.027,280.1,7,2,0.1,0,0.0,-1,0.0,0.0,0.0,0
6666,1469907590646,,,,,,,0.02,0.94,1.04,-20.6,-1.0,-0.7,4600,3576,,,,,,,,,,,,,,,,,
6686,1469907590666,,,,,,,-0.01,0.93,0.96,-20.8,0.3,-0.8,4560,3544,,,,,,,,,,,,,,,,,
6706,1469907590686,,,,,,,-0.02,0.88,1.04,-20.6,0.2,-1.0,4640,3610,,,,,,,,,,,,,,,,,
6726,1469907590707,,,,,,,-0.03,0.88,1.04,-20.8,0.4,-0.6,4480,3544,,,,,,,,,,,,,,,,,
6746,1469907590727,,,,53,,,-0.0,0.95,1.08,-20.7,0.0,-0.8,4660,3560,1.292,3,39.536606,-122.326607,61.81,0.029,280.3,7,2,0.1,0,0.0,-1,0.0,,0.0,0
6766,1469907590747,,,,,,,0.02,0.92,1.08,-20.6,0.8,-0.9,4460,3593,,,,,,,,,,,,,,,,,
6786,1469907590767,,,,,,,0.08,0.95,1.11,-20.6,0.9,-1.2,4500,3576,,,,,,,,,,,,,,,,,
6806,1469907590787,,,,,,,0.02,0.91,1.1,-20.4,0.9,-1.1,4760,3560,,,,,,,,,,,,,,,,,
6826,1469907590810,,,,,,,-0.01,0.92,1.11,-20.2,0.5,-1.4,4640,3576,,,,,,,,,,,,,,,,,
6846,1469907590830,0,281.1,206.8,37,208.3,,0.01,1.01,1.13,-20.1,0.0,-1.5,4440,3560,1.314,3,39.536633,-122.326622,61.85,0.031,280.5,7,2,0.1,0,0.0,-1,0.0,0.0,0.0,0
6866,1469907590850,,,,,,,0.06,1.0,1.09,-19.9,0.1,-1.7,4560,3593,,,,,,,,,,,,,,,,,
6886,1469907590870,,,,,,,0.05,0.95,1.08,-19.9,0.1,-1.4,4500,3576,,,,,,,,,,,,,,,,,
6906,1469907590890,,,,,,,0.02,0.95,1.03,-19.6,0.3,-1.5,4660,3560,,,,,,,,,,,,,,,,,
6926,1469907590901,,,,,,,-0.08,0.94,1.01,-19.4,0.6,-1.3,4440,3593,,,,,,,,,,,,,,,,,
6946,1469907590921,,,,73,,,-0.09,0.87,1.02,-18.8,-0.1,-1.1,4580,3527,1.23,3,39.536655,-122.326622,61.91,0.033,280.7,7,2,0.1,0,0.0,-1,0.0,,0.0,0
6966,1469907590941,,,,,,,-0.07,0.86,1.0,-18.7,-0.8,-1.0,4480,3576,,,,,,,,,,,,,,,,,
6986,1469907590961,,,,,,,-0.02,0.85,0.98,-18.6,0.2,-0.7,4400,3576,,,,,,,,,,,,,,,,,
7006,1469907590981,,,,,,,-0.05,0.9,0.96,-18.6,0.9,-0.5,4400,3576,,,,,,,,,,,,,,,,,
7026,1469907591009,,,,,,,-0.1,0.81,0.97,-18.7,2.2,-0.4,4640,3610,,,,,,,,,,,,,,,,,
7046,1469907591029,0,281.3,207.1,49,208.8,13.96,-0.1,0.88,0.91,-19.0,0.3,-0.7,4540,3576,1.303,3,39.536682,-122.326622,61.77,0.035,281.0,7,2,0.1,0,0.0,-1,0.0,0.0,0.0,0
7066,1469907591049,,,,,,,-0.06,0.92,0.96,-19.2,1.1,-0.6,4300,3544,,,,,,,,,,,,,,,,,
7086,1469907591069,,,,,,,-0.04,0.87,0.91,-19.2,0.6,-0.7,4440,3560,,,,,,,,,,,,,,,,,
7106,1469907591089,,,,,,,-0.05,0.93,0.88,-19.8,1.7,-0.3,4500,3560,,,,,,,,,,,,,,,,,
7126,1469907591109,,,,,,,-0.06,0.96,0.83,-20.0,0.8,-0.3,4560,3576,,,,,,,,,,,,,,,,,
7146,1469907591129,,,,59,,,-0.11,0.94,0.88,-20.3,0.8,0.3,4420,3593,1.253,3,39.536709,-122.326622,61.8,0.037,281.8,7,2,0.1,0,0.0,-1,0.0,,0.0,0
7166,1469907591149,,,,,,,-0.09,0.97,0.89,-20.6,-0.5,-0.1,4680,3593,,,,,,,,,,,,,,,,,
7186,1469907591169,,,,,,,-0.09,0.97,0.84,-21.0,0.2,0.1,4600,3627,,,,,,,,,,,,,,,,,
7206,1469907591189,,,,,,,-0.05,0.97,0.86,-21.1,-0.6,-0.1,4620,3576,,,,,,,,,,,,,,,,,
7226,1469907591308,,,,,,,-0.09,1.01,0.83,-21.5,1.2,0.2,4400,3593,,,,,,,,,,,,,,,,,
7246,1469907591328,0,281.3,207.1,47,209.1,,-0.1,0.99,0.9,-21.4,-1.0,0.1,4660,3593,1.303,3,39.536758,-122.32663,62.11,0.04,283.2,7,2,0.1,0,0.0,-1,0.0,0.0,0.0,0
7266,1469907591348,,,,,,,-0.08,1.02,0.89,-21.4,-0.8,0.1,4580,3560,,,,,,,,,,,,,,,,,
7286,1469907591368,,,,,,,-0.03,1.0,1.0,-21.3,-0.1,-0.4,4660,3627,,,,,,,,,,,,,,,,,
7306,1469907591388,,,,,,,-0.02,0.97,0.91,-21.4,1.0,-0.4,4780,3593,,,,,,,,,,,,,,,,,
7326,1469907591408,,,,,,,-0.02,1.08,0.96,-21.2,1.6,-0.9,4760,3610,,,,,,,,,,,,,,,,,
7346,1469907591428,,,,37,,,-0.06,1.04,1.0,-21.4,1.5,-0.6,4380,3610,1.319,3,39.536758,-122.32663,62.11,0.04,283.2,7,2,0.1,0,0.0,-1,0.0,,0.0,0
7366,1469907591448,,,,,,,-0.05,1.03,1.03,-21.2,0.6,-0.7,4540,3576,,,,,,,,,,,,,,,,,
7386,1469907591468,,,,,,,-0.04,1.03,1.02,-20.8,0.2,-0.9,4780,3627,,,,,,,,,,,,,,,,,
7406,1469907591488,,,,,,,-0.01,1.03,1.01,-20.5,1.6,-1.3,4460,3576,,,,,,,,,,,,,,,,,
7426,1469907591407,,,,,,,-0.06,1.02,0.97,-20.2,1.6,-1.3,4480,3610,,,,,,,,,,,,,,,,,
7446,1469907591427,1,281.3,206.9,39,208.0,,-0.11,0.9,0.94,-19.8,1.5,-1.3,4600,3593,1.202,3,39.536785,-122.32663,62.12,0.042,284.0,7,2,0.1,0,0.0,-1,0.0,0.0,0.0,0
7466,1469907591447,,,,,,,-0.07,0.9,0.92,-19.6,-0.5,-1.3,4560,3576,,,,,,,,,,,,,,,,,
7486,1469907591467,,,,,,,-0.03,0.88,0.96,-19.7,0.5,-1.1,4460,3610,,,,,,,,,,,,,,,,,
7506,1469907591487,,,,,,,-0.02,0.92,0.94,-19.7,-0.8,-0.8,4480,3593,,,,,,,,,,,,,,,,,
7526,1469907591511,,,,,,,-0.06,0.97,0.94,-20.1,0.8,-0.5,4600,3610,,,,,,,,,,,,,,,,,
7546,1469907591531,,,,43,,,-0.09,0.98,0.98,-20.5,0.5,-1.0,4680,3610,1.302,3,39.536808,-122.32663,62.31,0.043,283.7,7,2,0.1,0,0.0,-1,0.0,,0.0,0
7566,1469907591551,,,,,,,-0.08,1.05,0.96,-21.0,1.0,-0.6,4420,3593,,,,,,,,,,,,,,,,,
7586,1469907591571,,,,,,,-0.03,1.01,1.02,-21.4,0.0,-0.5,4660,3644,,,,,,,,,,,,,,,,,
7606,1469907591591,,,,,,,-0.02,1.03,0.98,-22.0,1.4,0.2,4620,3593,,,,,,,,,,,,,,,,,
7626,1469907591600,,,,,,,-0.03,1.03,1.07,-22.1,1.3,0.5,4700,3627,,,,,,,,,,,,,,,,,
7646,1469907591620,0,280.3,206.5,49,208.2,,-0.11,0.99,1.04,-22.6,1.1,1.3,4560,3627,1.241,3,39.536831,-122.326645,62.42,0.045,283.4,7,2,0.1,0,0.0,-1,0.0,0.0,0.0,0
7666,1469907591640,,,,,,,-0.1,1.01,1.06,-22.5,-0.1,1.2,4660,3627,,,,,,,,,,,,,,,,,
7686,1469907591660,,,,,,,-0.07,0.98,1.1,-22.2,-0.2,1.2,4420,3644,,,,,,,,,,,,,,,,,
7706,1469907591680,,,,,,,-0.04,0.93,1.08,-21.9,-0.1,1.0,4580,3610,,,,,,,,,,,,,,,,,
7726,1469907591700,,,,,,,-0.1,0.99,1.05,-21.6,-0.4,1.0,4800,3644,,,,,,,,,,,,,,,,,
7746,1469907591720,,,,79,,,-0.13,0.92,0.96,-21.2,-0.0,1.2,4540,3610,1.279,3,39.536858,-122.32666,62.38,0.047,283.3,7,2,0.1,0,0.0,-1,0.0,,0.0,0
7766,1469907591740,,,,,,,-0.1,0.95,0.96,-21.0,-1.6,0.8,4400,3610,,,,,,,,,,,,,,,,,
7786,1469907591760,,,,,,,-0.09,0.92,0.97,-21.3,-0.5,1.1,4640,3644,,,,,,,,,,,,,,,,,
7806,1469907591780,,,,,,,-0.09,1.0,0.91,-21.1,-0.9,1.0,4620,3593,,,,,,,,,,,,,,,,,
7826,1469907591802,,,,,,,-0.13,1.0,0.93,-21.3,1.4,1.1,4360,3627,,,,,,,,,,,,,,,,,
7846,1469907591822,0,280.5,207.4,52,208.3,,-0.13,1.04,0.95,-21.6,-0.5,1.1,4580,3627,1.24,3,39.536884,-122.32666,62.5,0.049,283.4,7,2,0.1,0,0.0,-1,0.0,0.0,0.0,0
7866,1469907591842,,,,,,,-0.12,1.1,0.9,-21.8,-0.0,1.2,4660,3593,,,,,,,,,,,,,,,,,
7886,1469907591862,,,,,,,-0.05,1.09,0.95,-21.7,0.6,1.3,4660,3627,,,,,,,,,,,,,,,,,
7906,1469907591882,,,,,,,-0.01,1.08,0.87,-21.8,1.6,1.4,4740,3610,,,,,,,,,,,,,,,,,
7926,1469907591895,,,,,,,-0.02,1.07,0.98,-22.0,2.3,1.4,4760,3627,,,,,,,,,,,,,,,,,
7946,1469907591915,,,,53,,,-0.04,1.01,1.01,-21.7,2.0,1.5,4460,3644,1.317,3,39.536911,-122.326668,62.76,0.051,283.6,7,2,0.1,0,0.0,-1,0.0,,0.0,0
7966,1469907591935,,,,,,,0.01,1.01,1.0,-21.4,1.8,1.3,4660,3610,,,,,,,,,,,,,,,,,
7986,1469907591955,,,,,,,-0.02,0.99,0.99,-21.1,1.3,1.2,4580,3680,,,,,,,,,,,,,,,,,
8006,1469907591975,,,,,,,-0.02,0.99,0.91,-20.8,2.0,1.2,4540,3610,,,,,,,,,,,,,,,,,
8026,1469907592101,,,,,,,-0.08,0.98,0.94,-20.8,0.5,1.1,4520,3644,,,,,,,,,,,,,,,,,
8046,1469907592121,0,280.1,207.0,69,208.9,13.93,-0.07,1.0,0.96,-20.8,-0.2,1.3,4600,3627,1.257,3,39.536957,-122.326698,62.69,0.055,283.0,7,2,0.1,0,0.0,-1,0.0,0.0,0.0,0
8066,1469907592141,,,,,,,-0.02,1.03,0.97,-20.7,-1.0,0.8,4540,3644,,,,,,,,,,,,,,,,,
8086,1469907592161,,,,,,,-0.01,1.03,0.93,-21.2,-0.1,1.0,4620,3661,,,,,,,,,,,,,,,,,
8106,1469907592181,,,,,,,0.01,1.03,0.94,-21.0,-1.2,0.6,4820,3644,,,,,,,,,,,,,,,,,
8126,1469907592201,,,,,,,-0.05,0.96,0.94,-21.2,-0.5,0.7,4560,3627,,,,,,,,,,,,,,,,,
8146,1469907592221,,,,53,,,0.0,1.01,0.97,-21.1,-1.3,0.5,4600,3627,1.291,3,39.536957,-122.326698,62.69,0.055,283.0,7,2,0.1,0,0.0,-1,0.0,,0.0,0
8166,1469907592241,,,,,,,-0.01,1.01,0.97,-20.9,-0.8,0.6,4800,3680,,,,,,,,,,,,,,,,,
8186,1469907592261,,,,,,,0.05,1.01,0.95,-20.7,0.3,0.3,4840,3644,,,,,,,,,,,,,,,,,
8206,1469907592281,,,,,,,0.02,1.05,0.97,-20.3,1.0,0.3,4520,3661,,,,,,,,,,,,,,,,,
8226,1469907592202,,,,,,,-0.02,1.03,0.96,-20.1,0.6,0.4,4600,3644,,,,,,,,,,,,,,,,,
8246,1469907592222,0,280.1,207.8,64,209.1,,0.02,1.06,0.93,-19.8,-0.4,-0.0,4620,3644,1.295,3,39.53698,-122.326706,62.81,0.056,282.5,7,2,0.1,0,0.0,-1,0.0,0.0,0.0,0
8266,1469907592242,,,,,,,0.04,1.01,1.0,-19.9,1.1,0.1,4400,3696,,,,,,,,,,,,,,,,,
8286,1469907592262,,,,,,,0.03,1.09,0.99,-20.2,0.4,-0.2,4700,3627,,,,,,,,,,,,,,,,,
8306,1469907592282,,,,,,,-0.06,1.05,0.98,-20.3,2.0,-0.1,4620,3644,,,,,,,,,,,,,,,,,
8326,1469907592303,,,,,,,-0.08,1.02,1.06,-20.1,2.0,-0.3,4580,3644,,,,,,,,,,,,,,,,,
8346,1469907592323,,,,64,,,-0.04,1.02,0.98,-20.2,2.5,-0.2,4780,3627,1.228,3,39.537003,-122.326721,62.92,0.058,282.1,7,2,0.1,0,0.0,-1,0.0,,0.0,0
8366,1469907592343,,,,,,,0.02,1.01,0.98,-20.0,2.4,-0.5,4840,3661,,,,,,,,,,,,,,,,,
8386,1469907592363,,,,,,,0.03,0.97,1.0,-19.8,2.1,-0.4,4480,3627,,,,,,,,,,,,,,,,,
8406,1469907592383,,,,,,,0.0,0.94,1.02,-19.7,1.3,-0.5,4720,3661,,,,,,,,,,,,,,,,,
8426,1469907592401,,,,,,,-0.03,0.95,1.03,-19.4,-1.0,-0.5,4820,3644,,,,,,,,,,,,,,,,,
8446,1469907592421,0,282.7,206.8,38,208.4,,0.01,0.92,0.99,-19.1,0.1,-0.4,4540,3644,1.25,3,39.537029,-122.326736,62.95,0.06,281.6,7,2,0.1,0,0.0,-1,0.0,0.0,0.0,0
8466,1469907592441,,,,,,,0.01,0.95,0.96,-18.9,-0.8,-0.8,4700,3661,,,,,,,,,,,,,,,,,
8486,1469907592461,,,,,,,-0.03,0.94,0.93,-19.3,0.4,-0.4,4700,3680,,,,,,,,,,,,,,,,,
8506,1469907592481,,,,,,,-0.06,0.9,0.96,-19.3,-0.5,-0.5,4580,3661,,,,,,,,,,,,,,,,,
8526,1469907592500,,,,,,,-0.03,0.95,0.95,-19.5,0.8,-0.5,4840,3627,,,,,,,,,,,,,,,,,
8546,1469907592520,,,,45,,,0.04,0.93,0.95,-19.3,0.7,-0.5,4740,3680,1.255,3,39.537048,-122.326759,63.25,0.062,281.3,7,2,0.1,0,0.0,-1,0.0,,0.0,0
8566,1469907592540,,,,,,,0.03,0.87,0.97,-19.3,1.9,-0.4,4480,3644,,,,,,,,,,,,,,,,,
8586,1469907592560,,,,,,,0.02,0.87,1.01,-19.1,2.2,-0.6,4660,3661,,,,,,,,,,,,,,,,,
8606,1469907592580,,,,,,,-0.0,0.85,1.07,-19.0,0.5,-0.6,4860,3661,,,,,,,,,,,,,,,,,
8626,1469907592600,,,,,,,0.02,0.81,1.04,-19.0,1.1,-0.3,4500,3696,,,,,,,,,,,,,,,,,
8646,1469907592620,1,280.5,207.9,47,209.1,,0.02,0.83,1.02,-18.8,0.1,-0.4,4740,3644,1.262,3,39.537071,-122.326775,63.35,0.064,281.0,7,2,0.1,0,0.0,-1,0.0,0.0,0.0,0
8666,1469907592640,,,,,,,0.0,0.87,0.99,-18.8,1.0,-0.3,4740,3696,,,,,,,,,,,,,,,,,
8686,1469907592660,,,,,,,-0.03,0.89,1.05,-19.1,0.5,-0.4,4660,3680,,,,,,,,,,,,,,,,,
8706,1469907592680,,,,,,,-0.03,0.89,1.01,-19.3,1.1,-0.2,4840,3661,,,,,,,,,,,,,,,,,
8726,1469907592700,,,,,,,0.03,0.86,1.05,-19.4,0.9,-0.4,4800,3680,,,,,,,,,,,,,,,,,
8746,1469907592720,,,,65,,,-0.01,0.88,1.02,-19.3,1.3,-0.5,4520,3680,1.328,3,39.537094,-122.326782,63.45,0.065,280.9,7,2,0.1,0,0.0,-1,0.0,,0.0,0
8766,1469907592740,,,,,,,-0.03,0.84,1.0,-19.1,1.3,-0.0,4620,3696,,,,,,,,,,,,,,,,,
8786,1469907592760,,,,,,,-0.08,0.93,0.99,-19.4,0.4,0.3,4900,3680,,,,,,,,,,,,,,,,,
8806,1469907592780,,,,,,,-0.05,0.93,1.05,-19.6,1.4,0.2,4520,3715,,,,,,,,,,,,,,,,,
8826,1469907592901,,,,,,,-0.05,0.97,1.03,-19.8,1.2,0.1,4780,3696,,,,,,,,,,,,,,,,,
8846,1469907592921,0,280.6,207.0,41,208.4,,-0.08,1.03,1.02,-19.9,2.1,-0.1,4740,3696,1.228,3,39.537136,-122.32682,63.87,0.069,280.8,7,2,0.1,0,0.0,-1,0.0,0.0,0.0,0
8866,1469907592941,,,,,,,-0.11,0.98,1.08,-20.1,1.2,-0.4,4680,3715,,,,,,,,,,,,,,,,,
8886,1469907592961,,,,,,,-0.1,0.98,1.06,-20.1,1.2,-0.2,4860,3715,,,,,,,,,,,,,,,,,
8906,1469907592981,,,,,,,-0.05,0.89,1.04,-19.8,1.4,-0.3,4440,3696,,,,,,,,,,,,,,,,,
8926,1469907593001,,,,,,,-0.05,0.91,1.01,-19.4,1.0,-0.4,4520,3715,,,,,,,,,,,,,,,,,
8946,1469907593021,,,,60,,,-0.11,0.95,0.96,-19.4,0.8,-0.3,4760,3715,1.238,3,39.537136,-122.32682,63.87,0.069,280.8,7,2,0.1,0,0.0,-1,0.0,,0.0,0
8966,1469907593041,,,,,,,-0.07,0.97,0.99,-19.1,-0.6,-0.3,4680,3661,,,,,,,,,,,,,,,,,
8986,1469907593061,,,,,,,-0.03,0.94,0.95,-19.1,1.4,-0.1,4520,3733,,,,,,,,,,,,,,,,,
9006,1469907593081,,,,,,,-0.0,0.96,0.97,-18.8,1.7,-0.4,4680,3733,,,,,,,,,,,,,,,,,
9026,1469907593002,,,,,,,-0.08,0.88,0.99,-19.0,2.7,-0.3,4560,3752,,,,,,,,,,,,,,,,,
9046,1469907593022,0,280.5,207.5,70,208.5,13.96,-0.08,0.84,0.99,-19.1,0.8,-0.3,4700,3680,1.323,3,39.537159,-122.326851,63.89,0.071,280.5,7,2,0.1,0,0.0,-1,0.0,0.0,0.0,0
9066,1469907593042,,,,,,,-0.08,0.86,0.96,-18.6,-0.7,-0.6,4860,3733,,,,,,,,,,,,,,,,,
9086,1469907593062,,,,,,,-0.05,0.87,1.02,-18.8,1.7,-0.5,4580,3733,,,,,,,,,,,,,,,,,
9106,1469907593082,,,,,,,-0.08,0.96,1.01,-19.1,1.7,-0.9,4860,3752,,,,,,,,,,,,,,,,,
9126,1469907593102,,,,,,,-0.13,0.97,1.02,-19.3,2.2,-0.4,4660,3715,,,,,,,,,,,,,,,,,
9146,1469907593122,,,,62,,,-0.08,0.96,1.09,-19.0,1.9,-0.5,4840,3733,1.297,3,39.537178,-122.326859,64.09,0.073,280.4,7,2,0.1,0,0.0,-1,0.0,,0.0,0
9166,1469907593142,,,,,,,-0.08,0.9,1.1,-19.0,2.5,0.1,4920,3752,,,,,,,,,,,,,,,,,
9186,1469907593162,,,,,,,-0.08,0.94,1.05,-18.6,3.7,0.1,4640,3715,,,,,,,,,,,,,,,,,
9206,1469907593182,,,,,,,-0.13,0.96,1.03,-18.5,1.9,-0.3,4880,3715,,,,,,,,,,,,,,,,,
9226,1469907593202,,,,,,,-0.14,0.96,0.98,-18.3,1.5,-0.2,4780,3752,,,,,,,,,,,,,,,,,
9246,1469907593222,0,281.8,207.1,45,208.3,,-0.07,0.96,1.08,-18.3,1.4,-0.5,4800,3752,1.329,3,39.537197,-122.326889,64.39,0.075,280.3,7,2,0.1,0,0.0,-1,0.0,0.0,0.0,0
9266,1469907593242,,,,,,,-0.11,0.9,0.99,-18.3,1.6,-0.1,4940,3752,,,,,,,,,,,,,,,,,
9286,1469907593262,,,,,,,-0.13,0.8,0.97,-18.2,1.4,0.1,4580,3715,,,,,,,,,,,,,,,,,
9306,1469907593282,,,,,,,-0.09,0.85,0.91,-18.2,0.7,0.5,4640,3752,,,,,,,,,,,,,,,,,
9326,1469907593302,,,,,,,-0.04,0.85,0.88,-18.3,1.6,0.7,4800,3733,,,,,,,,,,,,,,,,,
9346,1469907593322,,,,40,,,-0.06,0.91,0.97,-18.2,1.8,0.1,4720,3769,1.335,3,39.53722,-122.326912,64.48,0.077,280.2,7,2,0.1,0,0.0,-1,0.0,,0.0,0
9366,1469907593342,,,,,,,-0.11,0.9,0.92,-18.4,2.0,0.7,4860,3752,,,,,,,,,,,,,,,,,
9386,1469907593362,,,,,,,-0.08,0.87,0.89,-18.3,1.0,0.7,4620,3752,,,,,,,,,,,,,,,,,
9406,1469907593382,,,,,,,-0.05,0.88,0.89,-18.2,0.7,0.7,4580,3733,,,,,,,,,,,,,,,,,
9426,1469907593400,,,,,,,-0.09,0.94,0.91,-18.2,1.6,0.8,4760,3769,,,,,,,,,,,,,,,,,
9446,1469907593420,0,280.8,207.0,44,208.4,,-0.13,0.93,0.98,-18.2,0.7,0.5,4840,3769,1.215,3,39.537239,-122.326942,64.69,0.079,280.2,7,2,0.1,0,0.0,-1,0.0,0.0,0.0,0
9466,1469907593440,,,,,,,-0.14,0.93,0.94,-18.5,0.9,0.6,4920,3769,,,,,,,,,,,,,,,,,
9486,1469907593460,,,,,,,-0.07,0.88,0.9,-18.5,1.6,0.5,4560,3752,,,,,,,,,,,,,,,,,
9506,1469907593480,,,,,,,-0.13,0.9,0.88,-18.3,2.0,0.6,4620,3769,,,,,,,,,,,,,,,,,
9526,1469907593499,,,,,,,-0.15,0.96,0.88,-18.3,1.1,0.8,4840,3769,,,,,,,,,,,,,,,,,
9546,1469907593519,,,,43,,,-0.09,1.02,0.94,-18.2,-0.4,0.5,4860,3807,1.231,3,39.537258,-122.326965,65.08,0.081,280.2,7,2,0.1,0,0.0,-1,0.0,,0.0,0
9566,1469907593539,,,,,,,-0.06,0.93,0.9,-18.5,0.8,0.7,5040,3789,,,,,,,,,,,,,,,,,
9586,1469907593559,,,,,,,-0.09,0.89,0.85,-18.6,1.3,0.5,4740,3789,,,,,,,,,,,,,,,,,
9606,1469907593579,,,,,,,-0.13,0.91,0.87,-18.8,0.2,0.5,4620,3769,,,,,,,,,,,,,,,,,
9626,1469907593698,,,,,,,-0.1,0.94,0.87,-18.6,0.3,0.8,4800,3826,,,,,,,,,,,,,,,,,
9646,1469907593718,0,281.7,206.4,67,207.7,,-0.04,0.97,0.91,-18.5,0.0,0.7,4800,3807,1.219,3,39.537292,-122.327003,65.39,0.084,280.5,7,2,0.1,0,0.0,-1,0.0,0.0,0.0,0
9666,1469907593738,,,,,,,-0.1,0.96,0.84,-18.6,0.5,0.6,5020,3807,,,,,,,,,,,,,,,,,
9686,1469907593758,,,,,,,-0.13,0.91,0.84,-18.8,-1.6,0.9,4740,3752,,,,,,,,,,,,,,,,,
9706,1469907593778,,,,,,,-0.1,0.89,0.85,-18.6,-2.8,1.1,4920,3789,,,,,,,,,,,,,,,,,
9726,1469907593798,,,,,,,-0.11,0.95,0.81,-18.2,-1.1,0.8,4840,3769,,,,,,,,,,,,,,,,,
9746,1469907593818,,,,44,,,-0.11,0.95,0.93,-17.8,-1.1,0.2,4820,3807,1.337,3,39.537292,-122.327003,65.39,0.084,280.5,7,2,0.1,0,0.0,-1,0.0,,0.0,0
9766,1469907593838,,,,,,,-0.13,0.9,0.9,-18.1,-1.9,0.7,4940,3789,,,,,,,,,,,,,,,,,
9786,1469907593858,,,,,,,-0.09,0.81,0.84,-17.8,-1.6,0.6,4700,3789,,,,,,,,,,,,,,,,,
9806,1469907593878,,,,,,,-0.1,0.85,0.78,-17.7,-1.7,0.3,5000,3826,,,,,,,,,,,,,,,,,
9826,1469907593801,,,,,,,-0.12,0.92,0.8,-17.7,-1.2,-0.1,4720,3807,,,,,,,,,,,,,,,,,
9846,1469907593821,0,281.5,206.6,39,207.9,,-0.07,0.91,0.86,-17.8,-2.6,0.3,4820,3789,1.304,3,39.537312,-122.327042,65.45,0.086,280.7,7,2,0.1,0,0.0,-1,0.0,0.0,0.0,0
9866,1469907593841,,,,,,,-0.06,0.9,0.91,-17.8,-2.5,0.5,5100,3846,,,,,,,,,,,,,,,,,
9886,1469907593861,,,,,,,-0.11,0.88,0.96,-18.1,-0.4,0.9,4580,3846,,,,,,,,,,,,,,,,,
9906,1469907593881,,,,,,,-0.17,0.93,0.99,-18.4,-0.9,0.8,4920,3846,,,,,,,,,,,,,,,,,
9926,1469907593893,,,,,,,-0.15,0.96,1.01,-18.7,0.1,0.8,4680,3826,,,,,,,,,,,,,,,,,
9946,1469907593913,,,,74,,,-0.14,0.89,0.96,-19.0,1.7,0.9,4960,3789,1.31,3,39.537327,-122.327064,65.66,0.088,281.1,7,2,0.1,0,0.0,-1,0.0,,0.0,0
9966,1469907593933,,,,,,,-0.19,0.93,0.93,-18.9,1.2,0.7,4800,3826,,,,,,,,,,,,,,,,,
9986,1469907593953,,,,,,,-0.2,0.96,1.0,-19.0,1.9,1.3,4600,3789,,,,,,,,,,,,,,,,,
10006,1469907593973,,,,,,,-0.1,1.0,1.09,-19.1,1.7,1.3,4940,3864,,,,,,,,,,,,,,,,,
10026,1469907594001,,,,,,,-0.08,0.96,1.13,-19.3,2.7,1.1,4740,3826,,,,,,,,,,,,,,,,,
10046,1469907594021,0,282.7,207.1,70,208.4,13.95,-0.12,0.93,1.14,-19.2,2.7,1.0,4880,3846,1.302,3,39.537346,-122.327095,65.91,0.09,281.6,7,2,0.1,0,0.0,-1,0.0,0.0,0.0,0
10066,1469907594041,,,,,,,-0.1,1.03,1.17,-18.8,1.0,0.5,4980,3807,,,,,,,,,,,,,,,,,
10086,1469907594061,,,,,,,-0.05,0.97,1.04,-18.5,2.2,0.2,4980,3864,,,,,,,,,,,,,,,,,
10106,1469907594081,,,,,,,-0.07,0.94,0.98,-18.3,2.8,-0.3,4680,3826,,,,,,,,,,,,,,,,,
10126,1469907594102,,,,,,,-0.1,0.94,0.93,-18.0,0.5,-0.8,4980,3807,,,,,,,,,,,,,,,,,
10146,1469907594122,,,,80,,,-0.04,0.97,0.93,-17.8,-0.2,-1.1,4820,3826,1.212,3,39.537361,-122.327118,66.22,0.091,282.3,7,2,0.1,0,0.0,-1,0.0,,0.0,0
10166,1469907594142,,,,,,,-0.0,0.92,0.99,-17.7,-0.3,-1.5,4960,3846,,,,,,,,,,,,,,,,,
10186,1469907594162,,,,,,,-0.06,0.96,0.97,-17.8,-0.8,-1.5,5100,3864,,,,,,,,,,,,,,,,,
10206,1469907594182,,,,,,,-0.07,0.98,1.04,-17.8,-0.7,-1.1,4820,3826,,,,,,,,,,,,,,,,,
10226,1469907594202,,,,,,,-0.03,1.04,1.09,-17.7,-0.6,-1.4,5000,3884,,,,,,,,,,,,,,,,,
10246,1469907594222,0,281.8,207.2,80,208.2,,-0.07,0.9,1.06,-17.7,2.2,-1.5,4720,3846,1.227,3,39.537376,-122.327141,66.35,0.093,282.8,7,2,0.1,0,0.0,-1,0.0,0.0,0.0,0
10266,1469907594242,,,,,,,-0.13,0.84,1.04,-17.9,2.2,-1.4,4900,3846,,,,,,,,,,,,,,,,,
10286,1469907594262,,,,,,,-0.08,0.9,0.94,-17.5,1.1,-1.3,4920,3864,,,,,,,,,,,,,,,,,
10306,1469907594282,,,,,,,-0.05,0.87,0.93,-17.6,2.9,-1.2,5100,3846,,,,,,,,,,,,,,,,,
10326,1469907594301,,,,,,,-0.08,0.89,1.02,-17.5,2.5,-1.3,4820,3846,,,,,,,,,,,,,,,,,
10346,1469907594321,,,,45,,,-0.08,0.87,1.02,-17.2,-0.4,-1.1,5000,3807,1.26,3,39.537392,-122.327179,66.55,0.095,283.2,7,2,0.1,0,0.0,-1,0.0,,0.0,0
10366,1469907594341,,,,,,,-0.05,0.91,1.0,-16.9,0.1,-0.9,4960,3864,,,,,,,,,,,,,,,,,
10386,1469907594361,,,,,,,-0.04,0.88,1.07,-16.6,-0.3,-1.3,4960,3864,,,,,,,,,,,,,,,,,
10406,1469907594381,,,,,,,-0.09,0.83,1.05,-16.4,-2.5,-1.3,4920,3864,,,,,,,,,,,,,,,,,
10426,1469907594498,,,,,,,-0.05,0.86,1.07,-16.3,-1.2,-1.1,4700,3904,,,,,,,,,,,,,,,,,
10446,1469907594518,0,281.0,207.1,85,208.4,,-0.01,0.92,1.03,-16.2,-1.5,-1.6,5100,3884,1.277,3,39.537422,-122.327232,67.08,0.099,283.8,7,2,0.1,0,0.0,-1,0.0,0.0,0.0,0
10466,1469907594538,,,,,,,-0.13,0.85,1.01,-16.3,-0.2,-1.7,4680,3924,,,,,,,,,,,,,,,,,
10486,1469907594558,,,,,,,-0.15,0.82,1.0,-16.7,-0.8,-1.5,5020,3846,,,,,,,,,,,,,,,,,
10506,1469907594578,,,,,,,-0.09,0.85,0.99,-16.3,-1.6,-1.5,4880,3924,,,,,,,,,,,,,,,,,
10526,1469907594598,,,,,,,-0.15,0.8,0.96,-16.6,0.9,-1.2,5060,3924,,,,,,,,,,,,,,,,,
10546,1469907594618,,,,40,,,-0.17,0.72,0.93,-16.5,0.5,-0.9,4700,3904,1.274,3,39.537422,-122.327232,67.08,0.099,283.8,7,2,0.1,0,0.0,-1,0.0,,0.0,0
10566,1469907594638,,,,,,,-0.12,0.77,0.91,-16.2,-1.6,-0.9,5040,3924,,,,,,,,,,,,,,,,,
10586,1469907594658,,,,,,,-0.12,0.78,0.95,-16.4,0.5,-0.7,4800,3864,,,,,,,,,,,,,,,,,
10606,1469907594678,,,,,,,-0.17,0.65,0.94,-16.7,-0.2,-0.7,4980,3924,,,,,,,,,,,,,,,,,
10626,1469907594598,,,,,,,-0.15,0.76,0.93,-16.6,-2.3,-0.6,5060,3884,,,,,,,,,,,,,,,,,
10646,1469907594618,0,281.1,207.1,39,208.5,,-0.11,0.75,0.95,-17.1,0.5,-0.5,5100,3884,1.267,3,39.537434,-122.32727,67.23,0.101,283.9,7,2,0.1,0,0.0,-1,0.0,0.0,0.0,0
10666,1469907594638,,,,,,,-0.15,0.75,0.95,-17.2,2.0,-0.4,4640,3904,,,,,,,,,,,,,,,,,
10686,1469907594658,,,,,,,-0.18,0.76,0.96,-17.0,-0.6,-0.4,5120,3884,,,,,,,,,,,,,,,,,
10706,1469907594678,,,,,,,-0.13,0.76,0.98,-16.6,0.5,-0.7,4800,3944,,,,,,,,,,,,,,,,,
10726,1469907594698,,,,,,,-0.13,0.76,0.97,-16.9,1.2,-0.6,4960,3924,,,,,,,,,,,,,,,,,
10746,1469907594718,,,,49,,,-0.2,0.75,0.95,-16.7,-0.2,-0.8,5020,3924,1.214,3,39.537445,-122.327301,67.4,0.103,284.0,7,2,0.1,0,0.0,-1,0.0,,0.0,0
10766,1469907594738,,,,,,,-0.17,0.79,0.92,-16.8,-0.4,-0.6,5080,3964,,,,,,,,,,,,,,,,,
10786,1469907594758,,,,,,,-0.17,0.74,0.87,-17.0,0.4,-0.3,4900,3924,,,,,,,,,,,,,,,,,
10806,1469907594778,,,,,,,-0.23,0.69,0.86,-16.6,-1.0,-0.3,5080,3924,,,,,,,,,,,,,,,,,
10826,1469907594801,,,,,,,-0.19,0.73,0.87,-16.6,-0.7,0.3,4740,3964,,,,,,,,,,,,,,,,,
10846,1469907594821,0,281.7,207.8,65,208.0,,-0.13,0.67,0.86,-16.5,-0.1,0.7,5140,3944,1.242,3,39.53746,-122.327339,67.5,0.105,283.9,7,2,0.1,0,0.0,-1,0.0,0.0,0.0,0
10866,1469907594841,,,,,,,-0.23,0.7,0.85,-16.1,-1.0,0.9,5060,3964,,,,,,,,,,,,,,,,,
10886,1469907594861,,,,,,,-0.21,0.72,0.84,-16.3,-0.4,1.5,5280,3964,,,,,,,,,,,,,,,,,
10906,1469907594881,,,,,,,-0.12,0.63,0.87,-16.3,0.0,2.2,5060,3984,,,,,,,,,,,,,,,,,
10926,1469907594891,,,,,,,-0.19,0.68,0.91,-16.0,-0.2,2.3,5120,4006,,,,,,,,,,,,,,,,,
10946,1469907594911,,,,31,,,-0.21,0.69,1.01,-16.0,0.1,2.5,4820,3964,1.307,3,39.537468,-122.327362,67.85,0.106,283.9,7,2,0.1,0,0.0,-1,0.0,,0.0,0
10966,1469907594931,,,,,,,-0.15,0.65,0.96,-16.1,1.2,2.5,5040,3984,,,,,,,,,,,,,,,,,
10986,1469907594951,,,,,,,-0.24,0.78,1.04,-16.1,2.0,2.1,5000,4006,,,,,,,,,,,,,,,,,
11006,1469907594971,,,,,,,-0.28,0.72,1.03,-15.7,1.5,1.8,5100,3964,,,,,,,,,,,,,,,,,
11026,1469907595001,,,,,,,-0.16,0.74,1.06,-15.5,2.4,1.8,4780,4006,,,,,,,,,,,,,,,,,
11046,1469907595021,0,281.5,207.2,58,208.5,14.0,-0.19,0.82,1.08,-15.4,1.5,1.2,5180,3984,1.305,3,39.537483,-122.3274,68.14,0.109,283.9,7,2,0.1,0,0.0,-1,0.0,0.0,0.0,0
11066,1469907595041,,,,,,,-0.25,0.76,1.04,-15.1,0.8,0.5,4820,3944,,,,,,,,,,,,,,,,,
11086,1469907595061,,,,,,,-0.19,0.73,1.0,-14.4,1.5,0.1,5160,3964,,,,,,,,,,,,,,,,,
11106,1469907595081,,,,,,,-0.17,0.73,1.06,-14.1,0.7,-0.2,5180,3984,,,,,,,,,,,,,,,,,
11126,1469907595101,,,,,,,-0.23,0.72,1.0,-13.8,-1.1,-0.6,5040,3964,,,,,,,,,,,,,,,,,
11146,1469907595121,,,,39,,,-0.16,0.75,1.01,-13.5,0.1,-0.7,5200,4026,1.271,3,39.537491,-122.327423,68.33,0.11,283.9,7,2,0.1,0,0.0,-1,0.0,,0.0,0
11166,1469907595141,,,,,,,-0.16,0.68,1.02,-13.5,0.9,-0.6,5060,4006,,,,,,,,,,,,,,,,,
11186,1469907595161,,,,,,,-0.23,0.7,0.99,-13.0,-2.0,-0.8,5240,4006,,,,,,,,,,,,,,,,,
11206,1469907595181,,,,,,,-0.17,0.65,1.03,-12.8,-0.1,-0.9,5000,4047,,,,,,,,,,,,,,,,,
11226,1469907595300,,,,,,,-0.21,0.57,0.98,-12.7,1.9,-0.8,5040,4026,,,,,,,,,,,,,,,,,
11246,1469907595320,0,281.5,207.0,40,208.9,,-0.27,0.63,1.07,-12.3,-0.4,-1.1,5120,3984,1.292,3,39.53751,-122.327492,69.06,0.114,284.1,7,2,0.1,0,0.0,-1,0.0,0.0,0.0,0
11266,1469907595340,,,,,,,-0.22,0.59,1.05,-12.0,0.5,-1.0,5220,4006,,,,,,,,,,,,,,,,,
11286,1469907595360,,,,,,,-0.22,0.58,1.05,-11.8,3.5,-1.0,5260,4006,,,,,,,,,,,,,,,,,
11306,1469907595380,,,,,,,-0.28,0.5,1.02,-11.4,1.5,-1.1,4860,3984,,,,,,,,,,,,,,,,,
11326,1469907595400,,,,,,,-0.22,0.48,1.01,-10.7,1.1,-1.5,5140,4069,,,,,,,,,,,,,,,,,
11346,1469907595420,,,,45,,,-0.28,0.51,1.1,-10.9,4.2,-1.4,5040,4069,1.295,3,39.53751,-122.327492,69.06,0.114,284.1,7,2,0.1,0,0.0,-1,0.0,,0.0,0
11366,1469907595440,,,,,,,-0.32,0.46,1.07,-10.8,1.8,-1.4,5060,4026,,,,,,,,,,,,,,,,,
11386,1469907595460,,,,,,,-0.25,0.5,1.16,-10.4,1.4,-2.2,5120,4026,,,,,,,,,,,,,,,,,
11406,1469907595480,,,,,,,-0.32,0.43,1.1,-10.1,4.0,-2.6,5280,4047,,,,,,,,,,,,,,,,,
11426,1469907595399,,,,,,,-0.33,0.44,1.06,-10.0,3.3,-2.4,5260,4026,,,,,,,,,,,,,,,,,
11446,1469907595419,1,281.0,206.7,70,208.4,,-0.24,0.41,1.1,-9.7,3.3,-2.7,5060,4026,1.3,3,39.537521,-122.32753,69.47,0.116,284.3,7,2,0.1,0,0.0,-1,0.0,0.0,0.0,0
11466,1469907595439,,,,,,,-0.31,0.4,1.08,-9.4,4.3,-2.8,5300,4090,,,,,,,,,,,,,,,,,
11486,1469907595459,,,,,,,-0.28,0.42,1.13,-9.3,4.4,-2.4,5080,4069,,,,,,,,,,,,,,,,,
11506,1469907595479,,,,,,,-0.21,0.33,1.11,-9.3,5.0,-2.4,5280,4069,,,,,,,,,,,,,,,,,
11526,1469907595499,,,,,,,-0.26,0.31,1.13,-9.0,4.9,-2.8,5080,4069,,,,,,,,,,,,,,,,,
11546,1469907595519,,,,49,,,-0.24,0.35,1.11,-8.9,3.8,-2.7,5200,4090,1.28,3,39.537529,-122.327568,69.7,0.118,284.5,7,2,0.1,0,0.0,-1,0.0,,0.0,0
11566,1469907595539,,,,,,,-0.16,0.33,1.1,-8.6,4.9,-2.2,5340,4069,,,,,,,,,,,,,,,,,
11586,1469907595559,,,,,,,-0.23,0.31,1.05,-8.6,4.2,-1.9,5120,4090,,,,,,,,,,,,,,,,,
11606,1469907595579,,,,,,,-0.19,0.35,1.03,-8.3,1.8,-2.0,5280,4135,,,,,,,,,,,,,,,,,
11626,1469907595599,,,,,,,-0.17,0.26,1.11,-8.2,4.4,-1.6,5120,4090,,,,,,,,,,,,,,,,,
11646,1469907595619,1,281.5,207.3,95,208.5,,-0.22,0.24,1.0,-8.0,3.2,-1.0,5060,4047,1.232,3,39.53754,-122.327591,70.15,0.12,284.8,7,2,0.1,0,0.0,-1,0.0,0.0,0.0,0
11666,1469907595639,,,,,,,-0.15,0.25,1.0,-8.2,0.8,-1.1,5340,4112,,,,,,,,,,,,,,,,,
11686,1469907595659,,,,,,,-0.2,0.27,0.95,-8.0,2.6,-1.4,5220,4135,,,,,,,,,,,,,,,,,
11706,1469907595679,,,,,,,-0.24,0.27,1.01,-8.1,3.0,-1.2,5220,4090,,,,,,,,,,,,,,,,,
11726,1469907595699,,,,,,,-0.14,0.19,1.07,-8.2,3.2,-0.6,5220,4090,,,,,,,,,,,,,,,,,
11746,1469907595719,,,,46,,,-0.23,0.22,1.06,-7.6,2.5,-0.8,5120,4112,1.25,3,39.537544,-122.327629,70.65,0.122,285.1,7,2,0.1,0,0.0,-1,0.0,,0.0,0
11766,1469907595739,,,,,,,-0.23,0.28,1.03,-7.2,0.7,-0.9,5300,4135,,,,,,,,,,,,,,,,,
11786,1469907595759,,,,,,,-0.15,0.27,1.1,-7.4,2.9,-0.4,5100,4135,,,,,,,,,,,,,,,,,
11806,1469907595779,,,,,,,-0.23,0.23,1.02,-7.5,1.9,-0.2,5260,4112,,,,,,,,,,,,,,,,,
11826,1469907595802,,,,,,,-0.16,0.25,1.06,-7.4,-0.2,-0.4,5420,4112,,,,,,,,,,,,,,,,,
11846,1469907595822,0,282.3,207.4,62,208.5,,-0.19,0.29,1.03,-7.4,3.1,-0.8,5140,4156,1.286,3,39.537556,-122.327667,70.82,0.124,285.4,7,2,0.1,0,0.0,-1,0.0,0.0,0.0,0
11866,1469907595842,,,,,,,-0.22,0.27,1.07,-7.6,3.5,-0.8,5300,4156,,,,,,,,,,,,,,,,,
11886,1469907595862,,,,,,,-0.11,0.25,1.16,-7.6,3.7,-0.8,5300,4112,,,,,,,,,,,,,,,,,
11906,1469907595882,,,,,,,-0.2,0.27,1.1,-7.4,3.3,-1.1,5320,4135,,,,,,,,,,,,,,,,,
11926,1469907595893,,,,,,,-0.22,0.31,1.08,-7.3,1.5,-1.4,5240,4180,,,,,,,,,,,,,,,,,
11946,1469907595913,,,,80,,,-0.14,0.26,1.15,-7.1,4.2,-1.5,5180,4180,1.28,3,39.537563,-122.327698,71.28,0.126,285.7,7,2,0.1,0,0.0,-1,0.0,,0.0,0
11966,1469907595933,,,,,,,-0.19,0.28,1.03,-6.8,3.8,-1.8,5120,4135,,,,,,,,,,,,,,,,,
11986,1469907595953,,,,,,,-0.11,0.26,0.97,-6.9,0.9,-1.6,5360,4156,,,,,,,,,,,,,,,,,
12006,1469907595973,,,,,,,-0.21,0.28,1.05,-6.6,3.6,-1.7,5240,4203,,,,,,,,,,,,,,,,,
12026,1469907596101,,,,,,,-0.23,0.25,0.98,-6.5,2.8,-1.4,5200,4156,,,,,,,,,,,,,,,,,
12046,1469907596121,0,282.2,207.3,47,208.5,13.98,-0.12,0.22,0.96,-6.4,3.7,-0.8,5320,4156,1.232,3,39.537579,-122.327774,71.94,0.13,286.3,7,2,0.1,0,0.0,-1,0.0,0.0,0.0,0
12066,1469907596141,,,,,,,-0.25,0.14,0.94,-6.2,4.1,-0.9,5400,4180,,,,,,,,,,,,,,,,,
12086,1469907596161,,,,,,,-0.19,0.26,0.96,-5.9,2.4,-1.3,5400,4226,,,,,,,,,,,,,,,,,
12106,1469907596181,,,,,,,-0.17,0.2,0.93,-6.1,5.1,-1.2,5420,4203,,,,,,,,,,,,,,,,,
12126,1469907596201,,,,,,,-0.25,0.24,1.03,-6.4,4.9,-0.6,5120,4180,,,,,,,,,,,,,,,,,
12146,1469907596221,,,,53,,,-0.14,0.2,0.98,-5.9,3.3,-0.7,5120,4156,1.237,3,39.537579,-122.327774,71.94,0.13,286.3,7,2,0.1,0,0.0,-1,0.0,,0.0,0
12166,1469907596241,,,,,,,-0.23,0.09,0.9,-5.9,4.0,-0.6,5360,4203,,,,,,,,,,,,,,,,,
12186,1469907596261,,,,,,,-0.25,0.16,0.83,-5.6,1.1,-0.7,5260,4226,,,,,,,,,,,,,,,,,
12206,1469907596281,,,,,,,-0.16,0.21,0.92,-5.4,2.0,-1.1,5300,4203,,,,,,,,,,,,,,,,,
12226,1469907596202,,,,,,,-0.22,0.12,0.83,-5.3,0.7,-1.0,5240,4180,,,,,,,,,,,,,,,,,
12246,1469907596222,0,281.5,207.1,39,208.8,,-0.16,0.15,0.85,-5.1,-0.7,-1.0,5300,4226,1.252,3,39.537586,-122.327812,72.17,0.132,286.6,7,2,0.1,0,0.0,-1,0.0,0.0,0.0,0
12266,1469907596242,,,,,,,-0.22,0.18,0.94,-4.7,0.3,-1.2,5260,4203,,,,,,,,,,,,,,,,,
12286,1469907596262,,,,,,,-0.2,0.21,0.84,-4.7,-1.5,-1.4,5480,4296,,,,,,,,,,,,,,,,,
12306,1469907596282,,,,,,,-0.13,0.26,0.94,-4.6,0.5,-1.2,5260,4226,,,,,,,,,,,,,,,,,
12326,1469907596302,,,,,,,-0.24,0.27,0.87,-4.6,-0.7,-1.1,5340,4203,,,,,,,,,,,,,,,,,
12346,1469907596322,,,,38,,,-0.13,0.21,0.88,-4.7,-1.5,-0.8,5460,4249,1.243,3,39.537594,-122.32785,72.65,0.134,286.9,7,2,0.1,0,0.0,-1,0.0,,0.0,0
12366,1469907596342,,,,,,,-0.23,0.16,0.99,-4.2,0.3,-0.9,5500,4226,,,,,,,,,,,,,,,,,
12386,1469907596362,,,,,,,-0.14,0.16,0.89,-3.7,-1.3,-1.3,5260,4249,,,,,,,,,,,,,,,,,
12406,1469907596382,,,,,,,-0.11,0.2,0.95,-3.7,1.1,-1.0,5440,4226,,,,,,,,,,,,,,,,,
12426,1469907596401,,,,,,,-0.2,0.18,0.95,-4.1,-0.6,-0.8,5360,4226,,,,,,,,,,,,,,,,,
12446,1469907596421,0,281.0,206.4,44,208.0,,-0.12,0.1,0.94,-4.3,1.0,-0.6,5340,4272,1.245,3,39.537605,-122.327888,73.06,0.136,287.3,7,2,0.1,0,0.0,-1,0.0,0.0,0.0,0
12466,1469907596441,,,,,,,-0.23,0.14,1.01,-4.2,1.7,-0.9,5400,4203,,,,,,,,,,,,,,,,,
12486,1469907596461,,,,,,,-0.14,0.15,0.98,-4.2,0.7,-1.2,5340,4296,,,,,,,,,,,,,,,,,
12506,1469907596481,,,,,,,-0.14,0.17,1.03,-3.9,3.5,-1.0,5280,4272,,,,,,,,,,,,,,,,,
12526,1469907596499,,,,,,,-0.17,0.23,0.98,-3.7,0.8,-1.2,5240,4249,,,,,,,,,,,,,,,,,
12546,1469907596519,,,,66,,,-0.12,0.12,1.02,-4.1,1.4,-0.9,5340,4272,1.278,3,39.537609,-122.327911,73.26,0.137,287.6,7,2,0.1,0,0.0,-1,0.0,,0.0,0
12566,1469907596539,,,,,,,-0.24,0.09,1.04,-4.0,1.7,-1.0,5460,4226,,,,,,,,,,,,,,,,,
12586,1469907596559,,,,,,,-0.11,0.07,0.98,-3.4,1.2,-0.8,5460,4272,,,,,,,,,,,,,,,,,
12606,1469907596579,,,,,,,-0.15,0.08,1.06,-3.3,3.5,-0.5,5300,4296,,,,,,,,,,,,,,,,,
12626,1469907596599,,,,,,,-0.09,0.12,0.95,-3.2,-0.5,-0.4,5420,4296,,,,,,,,,,,,,,,,,
12646,1469907596619,0,281.8,207.2,46,208.8,,-0.08,0.12,1.05,-3.3,1.6,-0.4,5420,4272,1.238,3,39.537617,-122.32795,73.68,0.14,288.0,7,2,0.1,0,0.0,-1,0.0,0.0,0.0,0
12666,1469907596639,,,,,,,-0.15,0.11,1.01,-3.4,0.3,-0.2,5440,4249,,,,,,,,,,,,,,,,,
12686,1469907596659,,,,,,,-0.06,0.09,1.03,-3.2,1.7,-0.5,5420,4296,,,,,,,,,,,,,,,,,
12706,1469907596679,,,,,,,-0.14,-0.05,0.98,-3.0,3.3,-0.6,5520,4226,,,,,,,,,,,,,,,,,
12726,1469907596699,,,,,,,-0.04,0.05,1.03,-2.7,1.1,-0.5,5260,4272,,,,,,,,,,,,,,,,,
12746,1469907596719,,,,72,,,-0.12,0.04,0.95,-2.9,2.3,-0.6,5280,4296,1.238,3,39.537624,-122.327988,73.81,0.142,288.3,7,2,0.1,0,0.0,-1,0.0,,0.0,0
12766,1469907596739,,,,,,,-0.13,-0.01,0.93,-3.0,0.0,-0.6,5440,4320,,,,,,,,,,,,,,,,,
12786,1469907596759,,,,,,,-0.14,0.03,1.02,-2.9,2.7,-1.0,5460,4296,,,,,,,,,,,,,,,,,
12806,1469907596779,,,,,,,-0.18,-0.02,0.96,-3.1,2.6,-1.1,5320,4272,,,,,,,,,,,,,,,,,
12826,1469907596901,,,,,,,-0.1,0.01,0.92,-2.9,1.3,-0.8,5520,4272,,,,,,,,,,,,,,,,,
12846,1469907596921,0,282.2,207.1,60,208.4,,-0.2,0.04,0.95,-3.0,1.6,-0.6,5300,4296,1.29,3,39.53764,-122.328064,74.5,0.146,289.0,7,2,0.1,0,0.0,-1,0.0,0.0,0.0,0
12866,1469907596941,,,,,,,-0.17,0.04,0.88,-3.2,-0.5,-1.2,5460,4320,,,,,,,,,,,,,,,,,
12886,1469907596961,,,,,,,-0.18,0.08,0.96,-3.1,0.8,-1.5,5540,4296,,,,,,,,,,,,,,,,,
12906,1469907596981,,,,,,,-0.24,0.1,0.84,-3.1,-0.0,-1.8,5500,4320,,,,,,,,,,,,,,,,,
12926,1469907597001,,,,,,,-0.1,0.04,0.95,-3.2,1.5,-2.0,5560,4296,,,,,,,,,,,,,,,,,
12946,1469907597021,,,,64,,,-0.16,0.08,0.93,-2.9,1.0,-1.1,5520,4296,1.283,3,39.53764,-122.328064,74.5,0.146,289.0,7,2,0.1,0,0.0,-1,0.0,,0.0,0
12966,1469907597041,,,,,,,-0.1,0.03,0.89,-2.8,-0.1,-1.1,5260,4272,,,,,,,,,,,,,,,,,
12986,1469907597061,,,,,,,-0.19,-0.04,0.92,-3.0,-0.4,-1.0,5560,4249,,,,,,,,,,,,,,,,,
13006,1469907597081,,,,,,,-0.16,0.07,0.93,-3.1,-0.6,-1.5,5320,4156,,,,,,,,,,,,,,,,,
13026,1469907597002,,,,,,,-0.11,0.08,0.9,-3.4,2.1,-1.7,5360,4156,,,,,,,,,,,,,,,,,
13046,1469907597022,0,283.0,207.9,51,209.3,13.98,-0.08,0.07,0.92,-3.3,-1.0,-1.4,5260,4069,1.308,3,39.537647,-122.328102,74.73,0.148,289.3,7,2,0.1,0,0.0,-1,0.0,0.0,0.0,0
13066,1469907597042,,,,,,,-0.05,0.15,0.92,-3.6,0.1,-1.5,5120,4180,,,,,,,,,,,,,,,,,
13086,1469907597062,,,,,,,-0.13,0.21,0.96,-3.4,0.0,-2.0,5280,4112,,,,,,,,,,,,,,,,,
13106,1469907597082,,,,,,,-0.01,0.15,0.95,-3.7,0.7,-1.7,5280,4156,,,,,,,,,,,,,,,,,
13126,1469907597102,,,,,,,0.07,0.23,1.03,-3.2,-0.4,-1.7,5280,4203,,,,,,,,,,,,,,,,,
13146,1469907597122,,,,47,,,0.0,0.13,0.95,-2.9,-3.5,-1.3,5380,4226,1.29,3,39.537655,-122.32814,74.98,0.15,289.7,7,2,0.1,0,0.0,-1,0.0,,0.0,0
13166,1469907597142,,,,,,,0.03,0.13,1.05,-2.6,-2.5,-1.3,5300,4226,,,,,,,,,,,,,,,,,
13186,1469907597162,,,,,,,-0.01,0.12,0.97,-2.4,0.3,-1.5,5460,4226,,,,,,,,,,,,,,,,,
13206,1469907597182,,,,,,,0.09,0.16,0.99,-2.7,-2.0,-1.3,5320,4226,,,,,,,,,,,,,,,,,
13226,1469907597202,,,,,,,0.06,0.03,0.93,-2.1,-2.5,-1.2,5340,4156,,,,,,,,,,,,,,,,,
13246,1469907597222,0,281.3,206.6,58,208.4,,-0.0,0.02,0.97,-2.1,-4.1,-1.1,5400,4156,1.278,3,39.537666,-122.328178,74.77,0.152,290.0,7,2,0.1,0,0.0,-1,0.0,0.0,0.0,0
13266,1469907597242,,,,,,,0.01,0.03,0.95,-1.7,-1.4,-1.1,5340,4180,,,,,,,,,,,,,,,,,
13286,1469907597262,,,,,,,0.05,-0.07,0.94,-1.9,0.3,-1.3,5320,4135,,,,,,,,,,,,,,,,,
13306,1469907597282,,,,,,,0.1,0.03,0.94,-1.6,-1.4,-1.1,5320,4156,,,,,,,,,,,,,,,,,
13326,1469907597302,,,,,,,0.15,-0.1,0.91,-1.8,-2.9,-0.8,5340,4180,,,,,,,,,,,,,,,,,
13346,1469907597322,,,,42,,,0.02,-0.11,0.98,-1.5,-0.1,-1.0,5220,4135,1.256,3,39.53767,-122.328217,74.52,0.154,290.5,7,2,0.1,0,0.0,-1,0.0,,0.0,0
13366,1469907597342,,,,,,,0.1,-0.03,0.81,-1.8,0.0,-1.6,5340,4135,,,,,,,,,,,,,,,,,
13386,1469907597362,,,,,,,0.12,-0.03,0.92,-1.9,0.1,-1.2,5260,4135,,,,,,,,,,,,,,,,,
13406,1469907597382,,,,,,,0.08,-0.1,0.96,-1.8,-2.9,-1.2,5280,4112,,,,,,,,,,,,,,,,,
13426,1469907597400,,,,,,,0.07,0.03,0.95,-2.2,0.0,-1.6,5280,4069,,,,,,,,,,,,,,,,,
13446,1469907597420,0,283.0,207.7,59,209.3,,0.14,-0.1,0.94,-2.4,2.6,-2.0,5200,4090,1.251,3,39.537678,-122.328255,74.29,0.156,290.8,7,2,0.1,0,0.0,-1,0.0,0.0,0.0,0
13466,1469907597440,,,,,,,0.19,-0.03,0.9,-1.9,0.6,-2.1,5240,4112,,,,,,,,,,,,,,,,,
13486,1469907597460,,,,,,,0.18,-0.07,0.93,-2.1,-2.2,-2.0,5320,4112,,,,,,,,,,,,,,,,,
13506,1469907597480,,,,,,,0.11,-0.02,1.03,-2.0,0.2,-2.2,5360,4090,,,,,,,,,,,,,,,,,
13526,1469907597499,,,,,,,0.25,0.07,1.01,-2.5,-0.1,-2.2,5300,4090,,,,,,,,,,,,,,,,,
13546,1469907597519,,,,58,,,0.28,-0.02,0.96,-2.6,-0.8,-2.0,5200,4047,1.267,3,39.537685,-122.328285,73.64,0.158,291.1,7,2,0.1,0,0.0,-1,0.0,,0.0,0
13566,1469907597539,,,,,,,0.21,-0.02,0.96,-2.7,-2.2,-2.0,5160,4069,,,,,,,,,,,,,,,,,
13586,1469907597559,,,,,,,0.23,-0.02,0.93,-2.5,-1.1,-1.7,5120,4090,,,,,,,,,,,,,,,,,
13606,1469907597579,,,,,,,0.29,-0.05,1.03,-2.3,0.5,-1.7,5020,4047,,,,,,,,,,,,,,,,,
13626,1469907597698,,,,,,,0.23,-0.12,0.94,-1.9,-1.9,-1.6,5140,4006,,,,,,,,,,,,,,,,,
13646,1469907597718,0,281.7,206.7,89,208.4,,0.25,-0.12,0.99,-2.0,-1.4,-1.5,5260,4006,1.273,3,39.537701,-122.328362,72.55,0.162,291.7,7,2,0.1,0,0.0,-1,0.0,0.0,0.0,0
13666,1469907597738,,,,,,,0.26,-0.15,0.84,-1.4,0.0,-2.0,5080,3964,,,,,,,,,,,,,,,,,
13686,1469907597758,,,,,,,0.24,-0.23,0.78,-1.3,-1.2,-1.9,5140,3964,,,,,,,,,,,,,,,,,
13706,1469907597778,,,,,,,0.29,-0.14,0.76,-1.3,-2.8,-2.0,5120,3984,,,,,,,,,,,,,,,,,
13726,1469907597798,,,,,,,0.24,-0.17,0.75,-1.1,-1.1,-2.0,5000,3984,,,,,,,,,,,,,,,,,
13746,1469907597818,,,,93,,,0.25,-0.15,0.87,-0.9,0.3,-2.1,5000,3964,1.268,3,39.537701,-122.328362,72.55,0.162,291.7,7,2,0.1,0,0.0,-1,0.0,,0.0,0
13766,1469907597838,,,,,,,0.32,-0.19,0.91,-0.9,-2.5,-1.8,4920,3964,,,,,,,,,,,,,,,,,
13786,1469907597858,,,,,,,0.31,-0.16,0.97,-0.2,-1.0,-1.6,4980,3944,,,,,,,,,,,,,,,,,
13806,1469907597878,,,,,,,0.29,-0.15,1.07,-0.6,-0.5,-1.2,4980,3924,,,,,,,,,,,,,,,,,
13826,1469907597802,,,,,,,0.35,-0.18,1.07,-0.3,-3.0,-0.9,4900,3904,,,,,,,,,,,,,,,,,
13846,1469907597822,0,282.0,207.9,58,209.4,,0.34,-0.19,1.11,0.4,-2.0,-0.6,4920,3864,1.283,3,39.537708,-122.3284,71.86,0.164,292.1,7,2,0.1,0,0.0,-1,0.0,0.0,0.0,0
13866,1469907597842,,,,,,,0.34,-0.23,1.19,0.7,-0.7,-0.4,4940,3884,,,,,,,,,,,,,,,,,
13886,1469907597862,,,,,,,0.36,-0.23,1.26,0.5,-3.7,-0.4,4980,3807,,,,,,,,,,,,,,,,,
13906,1469907597882,,,,,,,0.38,-0.22,1.25,1.2,-2.0,-0.5,4900,3807,,,,,,,,,,,,,,,,,
13926,1469907597893,,,,,,,0.38,-0.21,1.17,1.3,-1.6,-0.5,4940,3789,,,,,,,,,,,,,,,,,
13946,1469907597913,,,,49,,,0.35,-0.22,1.15,1.8,-2.3,-1.1,4820,3807,1.278,3,39.537716,-122.328438,70.78,0.167,292.5,7,2,0.1,0,0.0,-1,0.0,,0.0,0
13966,1469907597933,,,,,,,0.4,-0.24,1.07,2.0,-1.5,-1.0,4800,3769,,,,,,,,,,,,,,,,,
13986,1469907597953,,,,,,,0.46,-0.26,0.96,2.8,-2.5,-1.1,4880,3789,,,,,,,,,,,,,,,,,
14006,1469907597973,,,,,,,0.41,-0.21,0.99,3.4,-0.6,-1.4,4820,3769,,,,,,,,,,,,,,,,,
14026,1469907597994,,,,,,,0.41,-0.27,1.08,3.1,-0.3,-1.3,4880,3752,,,,,,,,,,,,,,,,,
14046,1469907598014,0,281.8,207.2,38,209.0,13.95,0.45,-0.29,1.12,3.6,-2.6,-1.7,4800,3752,1.279,3,39.537724,-122.328461,69.72,0.168,292.9,7,2,0.1,0,0.0,-1,0.0,0.0,0.0,0
14066,1469907598034,,,,,,,0.49,-0.38,1.05,4.2,-1.1,-2.1,4760,3789,,,,,,,,,,,,,,,,,
14086,1469907598054,,,,,,,0.48,-0.37,0.99,4.6,-3.1,-2.0,4880,3752,,,,,,,,,,,,,,,,,
14106,1469907598074,,,,,,,0.37,-0.37,0.96,4.6,-2.5,-1.7,4820,3715,,,,,,,,,,,,,,,,,
14126,1469907598102,,,,,,,0.45,-0.25,0.99,3.9,-3.5,-1.7,4800,3715,,,,,,,,,,,,,,,,,
14146,1469907598122,,,,34,,,0.41,-0.24,1.0,3.7,-3.0,-1.8,4780,3715,1.268,3,39.537731,-122.328499,68.73,0.17,293.2,7,2,0.1,0,0.0,-1,0.0,,0.0,0
14166,1469907598142,,,,,,,0.4,-0.32,1.02,3.9,-0.2,-1.9,4720,3696,,,,,,,,,,,,,,,,,
14186,1469907598162,,,,,,,0.34,-0.42,0.94,4.3,-2.2,-1.7,4680,3661,,,,,,,,,,,,,,,,,
14206,1469907598182,,,,,,,0.34,-0.42,0.94,4.9,-2.1,-1.4,4760,3661,,,,,,,,,,,,,,,,,
14226,1469907598201,,,,,,,0.4,-0.39,0.99,4.8,-1.8,-1.4,4680,3680,,,,,,,,,,,,,,,,,
14246,1469907598221,0,282.2,207.3,43,209.1,,0.39,-0.24,0.87,4.1,-1.7,-1.6,4660,3593,1.293,3,39.537739,-122.328537,67.59,0.172,293.6,7,2,0.1,0,0.0,-1,0.0,0.0,0.0,0
14266,1469907598241,,,,,,,0.38,-0.22,0.79,3.6,-1.2,-1.4,4720,3661,,,,,,,,,,,,,,,,,
14286,1469907598261,,,,,,,0.32,-0.22,0.89,3.3,-2.7,-1.3,4620,3610,,,,,,,,,,,,,,,,,
14306,1469907598281,,,,,,,0.39,-0.2,0.85,3.1,-3.2,-1.4,4600,3593,,,,,,,,,,,,,,,,,
14326,1469907598301,,,,,,,0.42,-0.21,0.87,3.3,-2.7,-1.4,4440,3627,,,,,,,,,,,,,,,,,
14346,1469907598321,,,,66,,,0.46,-0.29,0.9,3.6,-0.3,-1.0,4560,3560,1.295,3,39.537746,-122.328568,66.64,0.174,293.7,7,2,0.1,0,0.0,-1,0.0,,0.0,0
14366,1469907598341,,,,,,,0.41,-0.33,0.82,3.9,-0.2,-0.8,4540,3576,,,,,,,,,,,,,,,,,
14386,1469907598361,,,,,,,0.37,-0.42,0.92,4.2,0.1,-0.4,4560,3560,,,,,,,,,,,,,,,,,
14406,1469907598381,,,,,,,0.42,-0.41,0.85,4.8,-1.8,-0.6,4500,3560,,,,,,,,,,,,,,,,,
14426,1469907598498,,,,,,,0.46,-0.49,0.91,5.0,-0.5,-0.3,4480,3560,,,,,,,,,,,,,,,,,
14446,1469907598518,0,282.2,207.2,44,208.4,,0.48,-0.5,0.79,5.2,-1.0,-0.3,4580,3544,1.275,3,39.537766,-122.328629,64.47,0.177,294.4,7,2,0.1,0,0.0,-1,0.0,0.0,0.0,0
14466,1469907598538,,,,,,,0.47,-0.49,0.85,5.5,0.5,-0.2,4440,3527,,,,,,,,,,,,,,,,,
14486,1469907598558,,,,,,,0.42,-0.6,0.86,5.9,-0.5,-0.2,4540,3544,,,,,,,,,,,,,,,,,
14506,1469907598578,,,,,,,0.41,-0.63,0.95,6.3,-1.1,0.1,4380,3495,,,,,,,,,,,,,,,,,
14526,1469907598598,,,,,,,0.45,-0.57,0.93,6.5,-2.1,0.2,4520,3495,,,,,,,,,,,,,,,,,
14546,1469907598618,,,,50,,,0.51,-0.58,0.94,6.4,-0.7,0.4,4380,3495,1.293,3,39.537766,-122.328629,64.47,0.177,294.4,7,2,0.1,0,0.0,-1,0.0,,0.0,0
14566,1469907598638,,,,,,,0.5,-0.55,0.85,6.2,-0.1,0.5,4460,3480,,,,,,,,,,,,,,,,,
14586,1469907598658,,,,,,,0.45,-0.61,0.96,6.3,1.1,0.7,4360,3464,,,,,,,,,,,,,,,,,
14606,1469907598678,,,,,,,0.36,-0.66,0.91,6.7,-0.5,0.3,4500,3512,,,,,,,,,,,,,,,,,
14626,1469907598598,,,,,,,0.38,-0.71,1.01,6.6,-1.0,0.3,4320,3449,,,,,,,,,,,,,,,,,
14646,1469907598618,0,282.5,207.3,30,209.0,,0.4,-0.66,0.93,6.6,-1.7,-0.0,4400,3418,1.259,3,39.537769,-122.328667,63.35,0.179,294.6,7,2,0.1,0,0.0,-1,0.0,0.0,0.0,0
14666,1469907598638,,,,,,,0.42,-0.63,0.92,6.5,-0.6,-0.3,4320,3464,,,,,,,,,,,,,,,,,
14686,1469907598658,,,,,,,0.43,-0.58,0.91,6.0,-0.0,-0.6,4380,3403,,,,,,,,,,,,,,,,,
14706,1469907598678,,,,,,,0.4,-0.54,0.84,5.7,-0.3,-0.3,4340,3433,,,,,,,,,,,,,,,,,
14726,1469907598699,,,,,,,0.32,-0.54,0.86,5.7,-0.5,-0.6,4280,3418,,,,,,,,,,,,,,,,,
14746,1469907598719,,,,45,,,0.31,-0.55,0.9,5.5,-1.5,-0.5,4420,3418,1.259,3,39.537781,-122.32869,62.58,0.181,294.9,7,2,0.1,0,0.0,-1,0.0,,0.0,0
14766,1469907598739,,,,,,,0.26,-0.53,0.88,5.3,-2.3,-0.0,4300,3418,,,,,,,,,,,,,,,,,
14786,1469907598759,,,,,,,0.28,-0.45,0.91,4.8,-3.3,0.5,4200,3387,,,,,,,,,,,,,,,,,
14806,1469907598779,,,,,,,0.32,-0.57,0.98,4.8,-2.5,0.7,4380,3372,,,,,,,,,,,,,,,,,
14826,1469907598801,,,,,,,0.32,-0.54,0.97,5.1,-2.3,0.8,4220,3418,,,,,,,,,,,,,,,,,
14846,1469907598821,0,283.5,208.0,54,209.5,,0.35,-0.51,0.89,5.2,-1.7,0.9,4260,3372,1.246,3,39.537788,-122.328728,61.64,0.183,295.2,7,2,0.1,0,0.0,-1,0.0,0.0,0.0,0
14866,1469907598841,,,,,,,0.37,-0.56,0.95,5.3,-1.2,0.7,4360,3343,,,,,,,,,,,,,,,,,
14886,1469907598861,,,,,,,0.33,-0.52,0.97,5.1,-0.5,0.7,4260,3372,,,,,,,,,,,,,,,,,
14906,1469907598881,,,,,,,0.26,-0.5,0.97,4.9,0.7,0.9,4240,3403,,,,,,,,,,,,,,,,,
14926,1469907598893,,,,,,,0.28,-0.49,1.03,4.5,-0.2,1.2,4220,3343,,,,,,,,,,,,,,,,,
14946,1469907598913,,,,56,,,0.3,-0.54,1.08,4.5,-0.8,1.3,4240,3315,1.322,3,39.537796,-122.328758,61.1,0.185,295.3,7,2,0.1,0,0.0,-1,0.0,,0.0,0
14966,1469907598933,,,,,,,0.3,-0.48,1.03,4.6,-0.5,1.1,4300,3329,,,,,,,,,,,,,,,,,
14986,1469907598953,,,,,,,0.36,-0.44,0.99,4.4,0.7,1.3,4220,3358,,,,,,,,,,,,,,,,,
15006,1469907598973,,,,,,,0.41,-0.46,0.93,4.6,0.2,1.1,4140,3343,,,,,,,,,,,,,,,,,
15026,1469907599001,,,,,,,0.38,-0.47,1.0,4.5,-0.2,0.8,4300,3272,,,,,,,,,,,,,,,,,
15046,1469907599021,0,282.7,207.4,67,208.9,14.04,0.34,-0.46,0.95,4.7,1.3,0.6,4220,3286,1.291,3,39.537804,-122.328781,60.17,0.186,295.6,7,2,0.1,0,0.0,-1,0.0,0.0,0.0,0
15066,1469907599041,,,,,,,0.3,-0.48,0.92,5.1,1.5,0.5,4240,3286,,,,,,,,,,,,,,,,,
15086,1469907599061,,,,,,,0.29,-0.44,0.99,4.9,1.4,0.5,4100,3286,,,,,,,,,,,,,,,,,
15106,1469907599081,,,,,,,0.27,-0.42,1.0,4.7,-0.0,0.3,4160,3286,,,,,,,,,,,,,,,,,
15126,1469907599101,,,,,,,0.23,-0.42,1.05,4.5,-1.4,0.3,4220,3230,,,,,,,,,,,,,,,,,
15146,1469907599121,,,,62,,,0.23,-0.45,1.0,4.5,-2.0,0.4,4100,3230,1.278,3,39.537815,-122.328819,59.51,0.188,295.9,7,2,0.1,0,0.0,-1,0.0,,0.0,0
15166,1469907599141,,,,,,,0.23,-0.39,0.96,4.6,-1.7,-0.1,4100,3230,,,,,,,,,,,,,,,,,
15186,1469907599161,,,,,,,0.31,-0.35,0.92,4.7,-1.9,-0.3,4100,3244,,,,,,,,,,,,,,,,,
15206,1469907599181,,,,,,,0.38,-0.31,0.89,4.6,-2.3,-0.4,4100,3244,,,,,,,,,,,,,,,,,
15226,1469907599301,,,,,,,0.4,-0.33,0.9,4.7,-2.0,-0.3,4160,3230,,,,,,,,,,,,,,,,,
15246,1469907599321,0,282.7,207.7,48,209.1,,0.42,-0.37,0.88,4.7,-2.2,-0.3,4060,3190,1.288,3,39.537834,-122.328873,58.38,0.191,296.3,7,2,0.1,0,0.0,-1,0.0,0.0,0.0,0
15266,1469907599341,,,,,,,0.42,-0.43,0.87,5.0,-2.9,-0.7,4040,3178,,,,,,,,,,,,,,,,,
15286,1469907599361,,,,,,,0.4,-0.44,0.9,5.0,-3.5,-0.7,4160,3178,,,,,,,,,,,,,,,,,
15306,1469907599381,,,,,,,0.38,-0.45,0.92,5.0,-3.4,-0.6,4020,3178,,,,,,,,,,,,,,,,,
15326,1469907599401,,,,,,,0.32,-0.48,0.93,5.3,-2.8,-1.0,3960,3164,,,,,,,,,,,,,,,,,
15346,1469907599421,,,,60,,,0.3,-0.44,1.0,4.9,-2.5,-0.8,4080,3164,1.254,3,39.537834,-122.328873,58.38,0.191,296.3,7,2,0.1,0,0.0,-1,0.0,,0.0,0
15366,1469907599441,,,,,,,0.25,-0.49,0.99,4.8,-1.6,-0.7,4000,3152,,,,,,,,,,,,,,,,,
15386,1469907599461,,,,,,,0.2,-0.5,1.0,5.1,-1.3,-1.0,3980,3152,,,,,,,,,,,,,,,,,
15406,1469907599481,,,,,,,0.18,-0.49,1.0,5.3,-2.1,-1.3,3980,3152,,,,,,,,,,,,,,,,,
15426,1469907599400,,,,,,,0.17,-0.48,0.98,5.8,-2.6,-1.4,4000,3138,,,,,,,,,,,,,,,,,
15446,1469907599420,0,283.3,207.9,50,210.0,,0.15,-0.44,0.98,6.1,-2.3,-1.6,3980,3113,1.269,3,39.537842,-122.328896,57.56,0.193,296.4,7,2,0.1,0,0.0,-1,0.0,0.0,0.0,0
15466,1469907599440,,,,,,,0.16,-0.38,1.0,6.6,-2.1,-1.8,4000,3089,,,,,,,,,,,,,,,,,
15486,1469907599460,,,,,,,0.19,-0.39,0.95,7.0,-0.7,-1.8,3960,3101,,,,,,,,,,,,,,,,,
15506,1469907599480,,,,,,,0.2,-0.39,0.95,7.6,-0.1,-2.2,3920,3076,,,,,,,,,,,,,,,,,
15526,1469907599499,,,,,,,0.22,-0.31,0.97,7.8,0.4,-2.3,4000,3076,,,,,,,,,,,,,,,,,
15546,1469907599519,,,,48,,,0.25,-0.35,0.94,8.0,1.6,-2.2,3980,3076,1.273,3,39.537853,-122.328926,56.76,0.194,296.6,7,2,0.1,0,0.0,-1,0.0,,0.0,0
15566,1469907599539,,,,,,,0.24,-0.35,0.89,8.5,2.1,-2.5,3880,3076,,,,,,,,,,,,,,,,,
15586,1469907599559,,,,,,,0.24,-0.35,0.92,8.6,2.5,-2.1,3960,3064,,,,,,,,,,,,,,,,,
15606,1469907599579,,,,,,,0.22,-0.41,0.93,8.7,2.3,-1.8,3980,3076,,,,,,,,,,,,,,,,,
15626,1469907599599,,,,,,,0.21,-0.43,0.92,9.0,2.8,-1.9,3820,3064,,,,,,,,,,,,,,,,,
15646,1469907599619,0,282.2,207.3,60,208.4,,0.23,-0.44,0.9,9.0,1.9,-1.6,3820,3076,1.3,3,39.537865,-122.328949,56.26,0.196,296.7,7,2,0.1,0,0.0,-1,0.0,0.0,0.0,0
15666,1469907599639,,,,,,,0.27,-0.51,0.89,9.2,1.4,-1.2,3860,3089,,,,,,,,,,,,,,,,,
15686,1469907599659,,,,,,,0.28,-0.53,0.84,9.7,0.9,-1.1,3820,3064,,,,,,,,,,,,,,,,,
15706,1469907599679,,,,,,,0.29,-0.54,0.82,10.2,0.7,-1.1,3880,3052,,,,,,,,,,,,,,,,,
15726,1469907599696,,,,,,,0.33,-0.48,0.8,10.4,0.2,-1.3,3880,3027,,,,,,,,,,,,,,,,,
15746,1469907599716,,,,37,,,0.34,-0.49,0.74,10.8,-0.1,-1.5,3860,3027,1.247,3,39.537872,-122.328972,55.32,0.197,296.9,7,2,0.1,0,0.0,-1,0.0,,0.0,0
15766,1469907599736,,,,,,,0.36,-0.51,0.72,11.2,-0.8,-1.7,3860,3040,,,,,,,,,,,,,,,,,
15786,1469907599756,,,,,,,0.38,-0.56,0.66,11.6,-2.3,-1.6,3740,3027,,,,,,,,,,,,,,,,,
15806,1469907599776,,,,,,,0.4,-0.55,0.68,11.9,-4.1,-1.8,3880,3040,,,,,,,,,,,,,,,,,
15826,1469907599802,,,,,,,0.39,-0.54,0.64,12.2,-5.3,-2.1,3880,3027,,,,,,,,,,,,,,,,,
15846,1469907599822,0,283.2,207.8,38,209.8,,0.36,-0.58,0.66,12.4,-5.7,-2.1,3820,3027,1.287,3,39.537884,-122.329002,54.68,0.199,296.9,7,2,0.1,0,0.0,-1,0.0,0.0,0.0,0
15866,1469907599842,,,,,,,0.33,-0.51,0.63,12.4,-6.7,-2.1,3800,3027,,,,,,,,,,,,,,,,,
15886,1469907599862,,,,,,,0.31,-0.54,0.62,12.4,-7.0,-2.0,3780,3027,,,,,,,,,,,,,,,,,
15906,1469907599882,,,,,,,0.3,-0.57,0.62,12.6,-7.1,-2.1,3780,3027,,,,,,,,,,,,,,,,,
15926,1469907599893,,,,,,,0.33,-0.6,0.59,12.9,-7.7,-2.1,3820,3015,,,,,,,,,,,,,,,,,
15946,1469907599913,,,,40,,,0.33,-0.64,0.6,13.3,-7.3,-1.9,3800,3004,1.267,3,39.537895,-122.329025,53.96,0.2,296.8,7,2,0.1,0,0.0,-1,0.0,,0.0,0
15966,1469907599933,,,,,,,0.35,-0.64,0.54,13.6,-7.2,-1.9,3800,3004,,,,,,,,,,,,,,,,,
15986,1469907599953,,,,,,,0.34,-0.63,0.54,13.5,-7.1,-2.0,3860,3015,,,,,,,,,,,,,,,,,
16006,1469907599973,,,,,,,0.3,-0.62,0.53,13.9,-8.0,-2.0,3720,3015,,,,,,,,,,,,,,,,,
16026,1469907600101,,,,,,,0.25,-0.68,0.51,14.1,-9.1,-1.7,3840,2992,,,,,,,,,,,,,,,,,
16046,1469907600121,0,281.7,206.9,37,208.4,13.74,0.22,-0.69,0.51,14.1,-10.1,-1.8,3840,2992,1.258,3,39.537918,-122.329079,53.09,0.204,296.7,7,2,0.1,0,0.0,-1,0.0,0.0,0.0,0
16066,1469907600141,,,,,,,0.19,-0.67,0.53,14.1,-10.4,-1.8,3800,2980,,,,,,,,,,,,,,,,,
16086,1469907600161,,,,,,,0.14,-0.64,0.57,13.6,-10.3,-1.6,3720,2969,,,,,,,,,,,,,,,,,
16106,1469907600181,,,,,,,0.13,-0.64,0.58,13.2,-9.9,-1.0,3800,2980,,,,,,,,,,,,,,,,,
16126,1469907600201,,,,,,,0.1,-0.63,0.63,13.2,-9.0,-0.6,3840,2969,,,,,,,,,,,,,,,,,
16146,1469907600221,,,,49,,,0.09,-0.64,0.67,13.0,-8.5,-0.4,3760,2969,1.287,3,39.537918,-122.329079,53.09,0.204,296.7,7,2,0.1,0,0.0,-1,0.0,,0.0,0
16166,1469907600241,,,,,,,0.05,-0.6,0.69,12.8,-8.1,-0.2,3780,2958,,,,,,,,,,,,,,,,,
16186,1469907600261,,,,,,,0.04,-0.67,0.75,12.6,-7.8,0.2,3740,2958,,,,,,,,,,,,,,,,,
16206,1469907600281,,,,,,,0.03,-0.66,0.8,12.6,-7.5,0.3,3800,2935,,,,,,,,,,,,,,,,,
16226,1469907600202,,,,,,,-0.01,-0.66,0.84,12.4,-7.1,0.5,3720,2924,,,,,,,,,,,,,,,,,
16246,1469907600222,0,280.8,206.3,45,208.0,,-0.04,-0.66,0.84,12.3,-6.6,0.6,3780,2924,1.268,3,39.53793,-122.329086,52.78,0.205,296.7,7,2,0.1,0,0.0,-1,0.0,0.0,0.0,0
16266,1469907600242,,,,,,,-0.03,-0.65,0.84,12.3,-6.6,0.6,3800,2924,,,,,,,,,,,,,,,,,
16286,1469907600262,,,,,,,-0.05,-0.67,0.89,12.0,-4.4,0.6,3780,2924,,,,,,,,,,,,,,,,,
16306,1469907600282,,,,,,,-0.04,-0.69,0.92,12.0,-3.1,0.4,3720,2901,,,,,,,,,,,,,,,,,
16326,1469907600302,,,,,,,-0.03,-0.74,0.91,12.0,-2.5,0.6,3780,2935,,,,,,,,,,,,,,,,,
16346,1469907600322,,,,42,,,0.0,-0.73,0.96,12.1,-2.4,0.5,3820,2969,1.249,3,39.537941,-122.329117,52.56,0.206,296.4,7,2,0.1,0,0.0,-1,0.0,,0.0,0
16366,1469907600342,,,,,,,0.04,-0.72,0.97,11.9,-2.1,0.3,3860,2980,,,,,,,,,,,,,,,,,
16386,1469907600362,,,,,,,0.05,-0.61,1.01,11.6,-1.8,0.0,3700,3004,,,,,,,,,,,,,,,,,
16406,1469907600382,,,,,,,0.04,-0.6,1.0,11.5,-1.6,0.1,3840,2980,,,,,,,,,,,,,,,,,
16426,1469907600400,,,,,,,0.04,-0.59,1.0,11.4,-1.7,0.4,3740,3027,,,,,,,,,,,,,,,,,
16446,1469907600420,0,281.7,207.4,39,209.0,,0.01,-0.65,0.97,11.5,-1.7,0.4,3820,3052,1.242,3,39.537956,-122.32914,52.5,0.208,296.3,7,2,0.1,0,0.0,-1,0.0,0.0,0.0,0
16466,1469907600440,,,,,,,0.02,-0.65,0.99,11.5,-2.4,0.6,3880,3064,,,,,,,,,,,,,,,,,
16486,1469907600460,,,,,,,0.0,-0.61,0.99,11.4,-2.2,0.6,3800,3064,,,,,,,,,,,,,,,,,
16506,1469907600480,,,,,,,-0.04,-0.64,1.08,11.3,-1.5,0.5,3880,3027,,,,,,,,,,,,,,,,,
16526,1469907600499,,,,,,,-0.06,-0.64,1.08,11.3,-0.7,0.4,3760,3004,,,,,,,,,,,,,,,,,
16546,1469907600519,,,,46,,,-0.07,-0.65,1.17,11.3,0.5,0.3,3720,2969,1.268,3,39.537968,-122.329155,52.19,0.209,295.9,7,2,0.1,0,0.0,-1,0.0,,0.0,0
16566,1469907600539,,,,,,,-0.09,-0.71,1.08,11.4,1.8,0.3,3780,2969,,,,,,,,,,,,,,,,,
16586,1469907600559,,,,,,,-0.08,-0.69,1.05,11.2,2.4,0.2,3820,2969,,,,,,,,,,,,,,,,,
16606,1469907600579,,,,,,,-0.05,-0.69,1.03,10.9,3.0,0.2,3820,2969,,,,,,,,,,,,,,,,,
16626,1469907600599,,,,,,,-0.03,-0.74,1.05,10.7,4.0,0.1,3780,2969,,,,,,,,,,,,,,,,,
16646,1469907600619,0,281.8,207.0,40,208.8,,-0.0,-0.72,1.05,10.8,5.6,-0.1,3840,2980,1.28,3,39.537983,-122.329178,52.05,0.211,295.6,7,2,0.1,0,0.0,-1,0.0,0.0,0.0,0
16666,1469907600639,,,,,,,0.02,-0.66,1.02,10.8,6.5,-0.3,3880,3004,,,,,,,,,,,,,,,,,
16686,1469907600659,,,,,,,0.04,-0.61,0.99,10.4,6.9,0.1,3820,2992,,,,,,,,,,,,,,,,,
16706,1469907600679,,,,,,,0.07,-0.66,0.97,9.9,6.5,0.4,3780,3004,,,,,,,,,,,,,,,,,
16726,1469907600696,,,,,,,0.07,-0.68,1.06,9.8,6.8,0.5,3800,3004,,,,,,,,,,,,,,,,,
16746,1469907600716,,,,50,,,0.05,-0.69,1.08,9.5,6.9,0.7,3900,3015,1.302,3,39.537998,-122.329193,52.19,0.212,295.3,7,2,0.1,0,0.0,-1,0.0,,0.0,0
16766,1469907600736,,,,,,,0.04,-0.68,1.13,9.4,6.9,0.7,3920,3004,,,,,,,,,,,,,,,,,
16786,1469907600756,,,,,,,0.04,-0.66,1.09,9.2,7.9,0.4,3860,2992,,,,,,,,,,,,,,,,,
16806,1469907600776,,,,,,,0.05,-0.7,1.1,9.1,8.3,0.3,3780,3027,,,,,,,,,,,,,,,,,
16826,1469907600900,,,,,,,0.08,-0.68,1.03,9.2,8.2,0.4,3860,3015,,,,,,,,,,,,,,,,,
16846,1469907600920,0,282.7,208.3,45,209.8,,0.13,-0.67,1.06,9.1,7.4,0.4,3840,3004,1.252,3,39.538025,-122.329231,52.48,0.215,294.8,7,2,0.1,0,0.0,-1,0.0,0.0,0.0,0
16866,1469907600940,,,,,,,0.14,-0.66,1.04,8.9,7.4,0.2,3860,3004,,,,,,,,,,,,,,,,,
16886,1469907600960,,,,,,,0.12,-0.64,1.12,8.8,7.9,0.3,3780,3004,,,,,,,,,,,,,,,,,
16906,1469907600980,,,,,,,0.11,-0.63,1.12,8.9,8.2,0.5,3920,3015,,,,,,,,,,,,,,,,,
16926,1469907601000,,,,,,,0.09,-0.65,1.1,8.9,7.8,0.8,3900,3015,,,,,,,,,,,,,,,,,
16946,1469907601020,,,,58,,,0.06,-0.65,1.02,9.2,7.1,0.8,3800,3015,1.282,3,39.538025,-122.329231,52.48,0.215,294.8,7,2,0.1,0,0.0,-1,0.0,,0.0,0
16966,1469907601040,,,,,,,0.09,-0.6,1.01,9.2,5.8,0.9,3800,3015,,,,,,,,,,,,,,,,,
16986,1469907601060,,,,,,,0.1,-0.62,0.95,9.1,5.0,1.2,3920,3015,,,,,,,,,,,,,,,,,
17006,1469907601080,,,,,,,0.1,-0.65,1.04,9.3,5.6,1.2,3820,3027,,,,,,,,,,,,,,,,,
17026,1469907601002,,,,,,,0.08,-0.64,1.06,9.3,5.8,1.1,3940,3027,,,,,,,,,,,,,,,,,
17046,1469907601022,0,281.8,207.3,53,208.8,13.92,0.06,-0.64,1.11,9.5,6.2,1.2,3880,3027,1.283,3,39.53804,-122.329254,52.55,0.216,294.4,7,2,0.1,0,0.0,-1,0.0,0.0,0.0,0
17066,1469907601042,,,,,,,0.04,-0.63,1.08,9.8,6.6,1.2,3880,3040,,,,,,,,,,,,,,,,,
17086,1469907601062,,,,,,,-0.0,-0.66,1.09,10.4,6.5,0.9,3940,3052,,,,,,,,,,,,,,,,,
17106,1469907601082,,,,,,,-0.01,-0.64,1.05,10.7,6.5,0.9,3840,3052,,,,,,,,,,,,,,,,,
17126,1469907601102,,,,,,,-0.01,-0.66,1.04,10.9,6.1,0.7,3880,3052,,,,,,,,,,,,,,,,,
17146,1469907601122,,,,56,,,-0.01,-0.69,0.95,11.1,5.3,0.5,3860,3064,1.258,3,39.538059,-122.329269,52.64,0.218,294.2,7,2,0.1,0,0.0,-1,0.0,,0.0,0
17166,1469907601142,,,,,,,0.0,-0.66,0.89,11.4,4.3,0.4,3860,3076,,,,,,,,,,,,,,,,,
17186,1469907601162,,,,,,,0.03,-0.68,0.89,11.6,3.8,0.4,3920,3076,,,,,,,,,,,,,,,,,
17206,1469907601182,,,,,,,0.04,-0.73,0.87,12.1,3.8,0.0,3940,3089,,,,,,,,,,,,,,,,,
17226,1469907601202,,,,,,,0.04,-0.72,0.9,12.4,2.7,-0.1,3880,3101,,,,,,,,,,,,,,,,,
17246,1469907601222,0,283.5,208.3,71,209.8,,0.02,-0.67,0.94,12.6,2.3,0.0,3960,3089,1.274,3,39.538074,-122.329292,52.99,0.22,294.0,7,2,0.1,0,0.0,-1,0.0,0.0,0.0,0
17266,1469907601242,,,,,,,0.01,-0.67,0.9,12.7,2.0,0.0,3920,3101,,,,,,,,,,,,,,,,,
