"Interval"|"ms"|0|0|1,"Utc"|"ms"|0|0|1,"FuelLevel"|"F"|0|100|5,"OilTemp"|"F"|0.0|300.0|5,"Coolant"|"F"|0.0|300.0|5,"OilPress"|"PSI"|0|150|10,"EngineTemp"|"F"|0.0|300.0|5,"Battery"|"Volts"|0.0|20.0|1,"AccelX"|"G"|-3.0|3.0|50,"AccelY"|"G"|-3.0|3.0|50,"AccelZ"|"G"|-3.0|3.0|50,"Yaw"|"Deg/Sec"|-300.0|300.0|50,"Pitch"|"Deg/Sec"|-300.0|300.0|50,"Roll"|"Deg/Sec"|-300.0|300.0|50,"RPM"|""|0|10000|50,"Driveshaft"|"RPM"|0|5000|50,"GearRatio"|""|-5.0|5.0|10,"Gear"|""|-1|5|10,"Latitude"|"Degrees"|-180.0|180.0|10,"Longitude"|"Degrees"|-180.0|180.0|10,"Speed"|"MPH"|0.0|150.0|10,"Distance"|"Miles"|0.0|0.0|10,"Altitude"|"Feet"|0.0|4000.0|10,"GPSSats"|""|0|20|10,"GPSQual"|""|0|5|10,"GPSDOP"|""|0.0|20.0|10,"LapCount"|""|0|0|10,"LapTime"|"Min"|0.0|0.0|10,"Sector"|""|0|0|10,"SectorTime"|"Min"|0.0|0.0|10,"PredTime"|"Min"|0.0|0.0|5,"ElapsedTime"|"Min"|0.0|0.0|10,"CurrentLap"|""|0|0|10
1105566,1469908689564,,,,,,,-0.0,0.08,0.99,-3.0,0.5,-0.1,240,0,,,,,,,,,,,,,,,,,
1105586,1469908689584,,,,,,,-0.0,0.08,0.99,-3.0,0.5,-0.1,240,0,,,,,,,,,,,,,,,,,
1105606,1469908689703,,,,,,,-0.0,0.08,0.99,-3.0,0.4,-0.1,160,0,,,,,,,,,,,,,,,,,
1105626,1469908689723,,,,,,,-0.0,0.09,0.99,-2.9,0.4,-0.2,160,0,,,,,,,,,,,,,,,,,
1105647,1469908689744,0,213.7,188.4,0,175.4,,-0.01,0.08,0.99,-2.9,0.3,-0.2,160,0,0.0,0,39.540604,-122.332123,0.0,2.803,344.7,8,3,1.8,1,2.5933,12,0.2467,13.6133,13.5183,2
1105666,1469908689763,,,,,,,-0.01,0.08,0.98,-2.9,0.3,-0.3,160,0,,,,,,,,,,,,,,,,,
1105686,1469908689783,,,,,,,-0.01,0.07,0.98,-2.9,0.3,-0.3,160,0,,,,,,,,,,,,,,,,,
1105706,1469908689803,,,,,,,-0.01,0.07,0.98,-3.0,0.3,-0.3,160,0,,,,,,,,,,,,,,,,,
1105726,1469908689823,,,,,,,-0.01,0.07,0.98,-3.0,0.3,-0.3,160,0,,,,,,,,,,,,,,,,,
1105746,1469908689843,,,,0,,,-0.01,0.07,0.98,-3.0,0.3,-0.2,160,0,0.0,0,39.540604,-122.332123,0.0,2.803,344.7,8,3,1.8,1,2.5933,12,0.2467,,13.5183,2
1105766,1469908689863,,,,,,,-0.01,0.07,0.98,-3.0,0.4,-0.1,160,0,,,,,,,,,,,,,,,,,
1105786,1469908689883,,,,,,,-0.01,0.07,0.98,-3.0,0.3,-0.2,160,0,,,,,,,,,,,,,,,,,
1105806,1469908689803,,,,,,,-0.01,0.06,0.98,-3.0,0.5,-0.1,160,0,,,,,,,,,,,,,,,,,
1105826,1469908689823,,,,,,,-0.01,0.07,0.98,-3.1,0.3,0.0,160,0,,,,,,,,,,,,,,,,,
1105847,1469908689844,0,214.3,188.8,0,175.5,,-0.02,0.08,0.97,-3.1,0.4,0.1,160,0,0.0,0,39.540604,-122.332123,0.0,2.803,344.7,8,3,1.8,1,2.5933,12,0.2467,13.6149,13.52,2
1105866,1469908689863,,,,,,,-0.02,0.08,0.97,-3.1,0.4,0.1,160,0,,,,,,,,,,,,,,,,,
1105886,1469908689883,,,,,,,-0.02,0.09,0.97,-3.1,0.4,0.1,160,0,,,,,,,,,,,,,,,,,
1105906,1469908689896,,,,,,,-0.01,0.09,0.98,-3.1,0.3,0.1,160,0,,,,,,,,,,,,,,,,,
1105926,1469908689916,,,,,,,-0.01,0.1,0.99,-3.1,0.4,0.0,160,0,,,,,,,,,,,,,,,,,
1105946,1469908689936,,,,0,,,-0.01,0.09,0.99,-3.1,0.5,-0.1,160,0,0.0,0,39.540604,-122.332123,0.0,2.803,344.7,8,3,1.8,1,2.5933,12,0.2467,,13.5217,2
1105966,1469908689956,,,,,,,-0.01,0.09,0.99,-3.1,0.5,-0.2,160,0,,,,,,,,,,,,,,,,,
1105986,1469908689976,,,,,,,-0.01,0.08,0.99,-3.0,0.5,-0.2,160,0,,,,,,,,,,,,,,,,,
1106006,1469908689998,,,,,,,-0.01,0.08,0.99,-3.0,0.4,-0.2,160,0,,,,,,,,,,,,,,,,,
1106026,1469908690018,,,,,,,-0.01,0.07,0.98,-3.0,0.5,-0.2,160,0,,,,,,,,,,,,,,,,,
1106047,1469908690039,0,213.8,189.3,0,176.1,10.12,-0.01,0.07,0.98,-3.0,0.5,-0.1,160,0,0.0,0,39.540604,-122.332123,0.0,2.803,344.7,8,3,1.8,1,2.5933,12,0.2467,13.6182,13.5233,2
1106066,1469908690058,,,,,,,-0.01,0.07,0.98,-3.0,0.5,-0.0,160,0,,,,,,,,,,,,,,,,,
1106086,1469908690078,,,,,,,-0.01,0.08,0.98,-3.0,0.4,0.0,160,0,,,,,,,,,,,,,,,,,
1106106,1469908690103,,,,,,,-0.01,0.09,0.98,-3.0,0.4,0.0,160,0,,,,,,,,,,,,,,,,,
1106126,1469908690123,,,,,,,-0.0,0.09,0.98,-3.0,0.4,-0.0,160,0,,,,,,,,,,,,,,,,,
1106146,1469908690143,,,,0,,,-0.0,0.09,0.99,-3.0,0.2,-0.1,160,0,0.0,0,39.540604,-122.332123,0.0,2.803,344.7,8,3,1.8,1,2.5933,12,0.2467,,13.525,2
1106166,1469908690163,,,,,,,-0.01,0.1,0.98,-2.9,0.1,-0.3,160,0,,,,,,,,,,,,,,,,,
1106186,1469908690183,,,,,,,-0.01,0.08,0.98,-2.9,0.1,-0.4,160,0,,,,,,,,,,,,,,,,,
1106206,1469908690204,,,,,,,-0.01,0.07,0.98,-2.9,0.1,-0.4,160,0,,,,,,,,,,,,,,,,,
1106226,1469908690224,,,,,,,-0.01,0.07,0.98,-2.9,0.1,-0.3,160,0,,,,,,,,,,,,,,,,,
1106247,1469908690245,0,213.4,189.2,0,175.3,,-0.01,0.07,0.98,-2.9,0.1,-0.3,160,0,0.0,0,39.540604,-122.332123,0.0,2.803,344.7,8,3,1.8,1,2.5933,12,0.2467,13.6216,13.5267,2
1106266,1469908690264,,,,,,,-0.02,0.07,0.99,-2.8,-0.1,-0.5,160,0,,,,,,,,,,,,,,,,,
1106286,1469908690284,,,,,,,-0.02,0.06,0.98,-2.7,-0.1,-0.7,160,0,,,,,,,,,,,,,,,,,
1106306,1469908690304,,,,,,,-0.02,0.06,0.99,-2.7,-0.2,-0.6,160,0,,,,,,,,,,,,,,,,,
1106326,1469908690324,,,,,,,-0.02,0.07,0.98,-2.8,-0.1,-0.5,160,0,,,,,,,,,,,,,,,,,
1106346,1469908690344,,,,0,,,-0.02,0.06,0.98,-2.9,0.0,-0.3,160,0,0.0,0,39.540604,-122.332123,0.0,2.803,344.7,8,3,1.8,1,2.5933,12,0.2467,,13.5283,2
1106366,1469908690364,,,,,,,-0.02,0.06,0.98,-2.9,-0.1,-0.3,160,0,,,,,,,,,,,,,,,,,
1106386,1469908690384,,,,,,,-0.02,0.07,0.98,-2.9,-0.1,-0.4,160,0,,,,,,,,,,,,,,,,,
1106406,1469908690503,,,,,,,-0.02,0.06,0.99,-2.9,0.1,-0.4,160,0,,,,,,,,,,,,,,,,,
1106426,1469908690523,,,,,,,-0.02,0.07,0.99,-2.9,-0.0,-0.4,160,0,,,,,,,,,,,,,,,,,
1106447,1469908690544,0,212.3,189.7,0,176.8,,-0.02,0.07,0.98,-2.9,0.0,-0.4,160,0,0.0,0,39.540604,-122.332123,0.0,2.803,344.7,8,3,1.8,1,2.5933,12,0.2467,13.6266,13.5317,2
1106466,1469908690563,,,,,,,-0.02,0.07,0.99,-2.9,0.0,-0.3,160,0,,,,,,,,,,,,,,,,,
1106486,1469908690583,,,,,,,-0.02,0.07,0.99,-2.9,0.1,-0.3,160,0,,,,,,,,,,,,,,,,,
1106506,1469908690603,,,,,,,-0.02,0.05,0.98,-2.8,0.2,-0.5,160,0,,,,,,,,,,,,,,,,,
1106526,1469908690623,,,,,,,-0.02,0.05,0.99,-2.9,0.4,-0.3,160,0,,,,,,,,,,,,,,,,,
1106546,1469908690643,,,,0,,,-0.01,0.06,0.99,-3.0,0.4,-0.1,160,0,0.0,0,39.540604,-122.332123,0.0,2.803,344.7,8,3,1.8,1,2.5933,12,0.2467,,13.5317,2
1106566,1469908690663,,,,,,,-0.01,0.07,0.99,-3.0,0.3,0.0,160,0,,,,,,,,,,,,,,,,,
1106586,1469908690683,,,,,,,-0.01,0.08,0.99,-3.0,0.2,-0.0,160,0,,,,,,,,,,,,,,,,,
1106606,1469908690604,,,,,,,-0.01,0.07,0.99,-3.0,0.4,-0.0,160,0,,,,,,,,,,,,,,,,,
1106626,1469908690624,,,,,,,0.0,0.07,0.99,-3.0,0.2,0.1,160,0,,,,,,,,,,,,,,,,,
1106647,1469908690645,0,213.5,189.6,0,175.2,,-0.0,0.09,0.99,-3.0,0.4,0.2,160,0,0.0,0,39.540604,-122.332123,0.0,2.803,344.7,8,3,1.8,1,2.5933,12,0.2467,13.6283,13.5333,2
1106666,1469908690664,,,,,,,-0.0,0.09,0.99,-3.1,0.4,0.2,160,0,,,,,,,,,,,,,,,,,
1106686,1469908690684,,,,,,,-0.0,0.09,0.99,-3.0,0.4,0.1,160,0,,,,,,,,,,,,,,,,,
1106706,1469908690704,,,,,,,-0.0,0.09,0.99,-3.0,0.3,0.0,160,0,,,,,,,,,,,,,,,,,
1106726,1469908690724,,,,,,,-0.01,0.08,0.98,-2.9,0.2,-0.2,160,0,,,,,,,,,,,,,,,,,
1106746,1469908690744,,,,0,,,-0.01,0.06,0.98,-2.9,0.4,-0.2,160,0,0.0,0,39.540604,-122.332123,0.0,2.803,344.7,8,3,1.8,1,2.5933,12,0.2467,,13.535,2
1106766,1469908690764,,,,,,,-0.01,0.07,0.98,-3.0,0.4,-0.2,160,0,,,,,,,,,,,,,,,,,
1106786,1469908690784,,,,,,,-0.0,0.06,0.97,-3.0,0.4,-0.1,160,0,,,,,,,,,,,,,,,,,
1106806,1469908690803,,,,,,,0.0,0.06,0.98,-3.0,0.4,0.0,160,0,,,,,,,,,,,,,,,,,
1106826,1469908690823,,,,,,,-0.0,0.07,0.97,-3.0,0.5,0.0,160,0,,,,,,,,,,,,,,,,,
1106847,1469908690844,0,212.8,189.5,0,176.6,,-0.0,0.07,0.97,-3.0,0.4,-0.0,160,0,0.0,0,39.540604,-122.332123,0.0,2.803,344.7,8,3,1.8,1,2.5933,12,0.2467,13.6316,13.5367,2
1106866,1469908690863,,,,,,,0.0,0.07,0.97,-3.0,0.2,0.0,160,0,,,,,,,,,,,,,,,,,
1106886,1469908690883,,,,,,,0.0,0.08,0.97,-3.0,0.2,0.0,160,0,,,,,,,,,,,,,,,,,
1106906,1469908690896,,,,,,,0.0,0.08,0.97,-3.0,0.2,0.0,160,0,,,,,,,,,,,,,,,,,
1106926,1469908690916,,,,,,,0.0,0.08,0.97,-2.9,0.2,-0.0,160,0,,,,,,,,,,,,,,,,,
1106946,1469908690936,,,,0,,,0.01,0.09,0.98,-3.0,0.2,0.1,160,0,0.0,0,39.540604,-122.332123,0.0,2.803,344.7,8,3,1.8,1,2.5933,12,0.2467,,13.5383,2
1106966,1469908690956,,,,,,,0.01,0.09,0.98,-3.0,0.3,0.1,160,0,,,,,,,,,,,,,,,,,
1106986,1469908690976,,,,,,,0.01,0.09,0.98,-3.0,0.4,-0.1,160,0,,,,,,,,,,,,,,,,,
1107006,1469908691003,,,,,,,0.0,0.09,0.99,-2.9,0.3,-0.1,160,0,,,,,,,,,,,,,,,,,
1107026,1469908691023,,,,,,,0.0,0.08,0.98,-2.9,0.2,-0.2,160,0,,,,,,,,,,,,,,,,,
1107047,1469908691044,0,213.4,189.6,0,175.8,10.34,-0.0,0.07,0.98,-2.9,0.2,-0.1,160,0,0.0,0,39.540604,-122.332123,0.0,2.803,344.7,8,3,1.8,1,2.5933,12,0.2467,13.6349,13.54,2
1107066,1469908691063,,,,,,,-0.0,0.07,0.98,-2.9,0.3,-0.1,160,0,,,,,,,,,,,,,,,,,
1107086,1469908691083,,,,,,,-0.0,0.06,0.98,-2.9,0.4,-0.1,160,0,,,,,,,,,,,,,,,,,
1107106,1469908691104,,,,,,,-0.0,0.06,0.98,-2.9,0.4,-0.0,160,0,,,,,,,,,,,,,,,,,
1107126,1469908691124,,,,,,,-0.0,0.07,0.98,-2.9,0.5,-0.0,160,0,,,,,,,,,,,,,,,,,
1107146,1469908691144,,,,0,,,-0.0,0.08,0.98,-2.9,0.3,-0.0,160,0,0.0,0,39.540604,-122.332123,0.0,2.803,344.7,8,3,1.8,1,2.5933,12,0.2467,,13.5417,2
1107166,1469908691164,,,,,,,-0.0,0.08,0.98,-2.9,0.3,-0.1,160,0,,,,,,,,,,,,,,,,,
1107186,1469908691184,,,,,,,-0.01,0.08,0.98,-2.9,0.2,-0.2,160,0,,,,,,,,,,,,,,,,,
1107206,1469908691304,,,,,,,-0.0,0.08,0.98,-2.9,0.3,-0.2,160,0,,,,,,,,,,,,,,,,,
1107226,1469908691324,,,,,,,-0.0,0.07,0.98,-2.9,0.2,-0.3,160,0,,,,,,,,,,,,,,,,,
1107247,1469908691345,0,212.9,188.1,0,176.4,,-0.01,0.07,0.98,-2.9,0.2,-0.2,10000000,0,0.0,0,39.540604,-122.332123,0.0,2.803,344.7,8,3,1.8,1,2.5933,12,0.2467,13.6399,13.545,2
1107266,1469908691364,,,,,,,-0.01,0.07,0.98,-3.0,0.2,-0.1,0,0,,,,,,,,,,,,,,,,,
1107286,1469908691384,,,,,,,-0.01,0.07,0.98,-3.0,0.3,-0.1,500,0,,,,,,,,,,,,,,,,,
1107306,1469908691404,,,,,,,-0.01,0.07,0.98,-3.0,0.3,-0.1,500,0,,,,,,,,,,,,,,,,,
1107326,1469908691424,,,,,,,-0.01,0.07,0.98,-3.0,0.3,-0.1,500,0,,,,,,,,,,,,,,,,,
1107346,1469908691444,,,,0,,,-0.01,0.07,0.98,-3.0,0.3,-0.2,500,0,0.0,0,39.540604,-122.332123,0.0,2.803,344.7,8,3,1.8,1,2.5933,12,0.2467,,13.545,2
1107366,1469908691464,,,,,,,-0.01,0.07,0.98,-3.0,0.3,-0.2,500,0,,,,,,,,,,,,,,,,,
1107386,1469908691484,,,,,,,-0.01,0.08,0.98,-3.0,0.2,-0.1,500,0,,,,,,,,,,,,,,,,,
1107406,1469908691404,,,,,,,-0.01,0.07,0.98,-3.0,0.2,-0.1,20000000,0,,,,,,,,,,,,,,,,,
1107426,1469908691424,,,,,,,-0.01,0.07,0.98,-3.0,0.2,-0.1,0,0,,,,,,,,,,,,,,,,,
1107447,1469908691445,0,212.8,188.8,0,175.5,,-0.01,0.07,0.98,-3.0,0.2,-0.1,0,0,0.0,0,39.540604,-122.332123,0.0,2.803,344.7,8,3,1.8,1,2.5933,12,0.2467,13.6416,13.5467,2
1107466,1469908691464,,,,,,,-0.01,0.07,0.98,-3.0,0.2,-0.2,0,0,,,,,,,,,,,,,,,,,
1107486,1469908691484,,,,,,,-0.01,0.07,0.98,-3.0,0.2,-0.2,0,0,,,,,,,,,,,,,,,,,
1107506,1469908691504,,,,,,,-0.01,0.07,0.98,-3.0,0.3,-0.2,0,0,,,,,,,,,,,,,,,,,
1107526,1469908691524,,,,,,,-0.01,0.07,0.98,-3.0,0.3,-0.2,0,0,,,,,,,,,,,,,,,,,
1107546,1469908691544,,,,0,,,-0.01,0.07,0.98,-3.0,0.3,-0.2,0,0,0.0,0,39.540604,-122.332123,0.0,2.803,344.7,8,3,1.8,1,2.5933,12,0.2467,,13.5483,2
1107566,1469908691564,,,,,,,-0.01,0.07,0.99,-3.0,0.3,-0.2,0,0,,,,,,,,,,,,,,,,,
1107586,1469908691584,,,,,,,-0.01,0.07,0.99,-3.0,0.3,-0.2,0,0,,,,,,,,,,,,,,,,,
1107606,1469908691604,,,,,,,-0.01,0.07,0.99,-3.0,0.2,-0.2,0,0,,,,,,,,,,,,,,,,,
1107626,1469908691624,,,,,,,-0.01,0.07,0.99,-2.9,0.2,-0.2,0,0,,,,,,,,,,,,,,,,,
1107647,1469908691645,0,213.5,189.8,0,176.0,,-0.01,0.07,0.99,-2.9,0.2,-0.2,0,0,0.0,0,39.540604,-122.332123,0.0,2.803,344.7,8,3,1.8,1,2.5933,12,0.2467,13.6449,13.55,2
1107666,1469908691664,,,,,,,-0.01,0.07,0.99,-2.9,0.2,-0.2,0,0,,,,,,,,,,,,,,,,,
1107686,1469908691684,,,,,,,-0.01,0.07,0.99,-2.9,0.2,-0.2,0,0,,,,,,,,,,,,,,,,,
1107706,1469908691704,,,,,,,-0.01,0.07,0.99,-2.9,0.2,-0.2,0,0,,,,,,,,,,,,,,,,,
1107726,1469908691724,,,,,,,-0.01,0.07,0.99,-3.0,0.2,-0.2,0,0,,,,,,,,,,,,,,,,,
1107746,1469908691744,,,,0,,,-0.01,0.08,0.99,-3.0,0.2,-0.2,0,0,0.0,0,39.540604,-122.332123,0.0,2.803,344.7,8,3,1.8,1,2.5933,12,0.2467,,13.5517,2
1107766,1469908691764,,,,,,,-0.01,0.07,0.99,-3.0,0.2,-0.2,0,0,,,,,,,,,,,,,,,,,
1107786,1469908691784,,,,,,,-0.01,0.07,0.99,-3.0,0.2,-0.2,0,0,,,,,,,,,,,,,,,,,
1107806,1469908691804,,,,,,,-0.01,0.07,0.99,-3.0,0.2,-0.2,0,0,,,,,,,,,,,,,,,,,
1107826,1469908691824,,,,,,,-0.01,0.07,0.98,-3.0,0.2,-0.2,0,0,,,,,,,,,,,,,,,,,
1107847,1469908691845,0,212.7,188.1,0,176.1,,-0.01,0.07,0.99,-2.9,0.2,-0.2,0,0,0.0,0,39.540604,-122.332123,0.0,2.803,344.7,8,3,1.8,1,2.5933,12,0.2467,13.6483,13.5533,2
1107866,1469908691864,,,,,,,-0.01,0.07,0.99,-2.9,0.2,-0.2,0,0,,,,,,,,,,,,,,,,,
1107886,1469908691884,,,,,,,-0.01,0.07,0.98,-2.9,0.2,-0.2,0,0,,,,,,,,,,,,,,,,,
1107906,1469908691897,,,,,,,-0.01,0.07,0.98,-2.9,0.2,-0.2,0,0,,,,,,,,,,,,,,,,,
1107926,1469908691917,,,,,,,-0.01,0.07,0.98,-2.9,0.2,-0.1,0,0,,,,,,,,,,,,,,,,,
1107946,1469908691937,,,,0,,,-0.01,0.07,0.98,-2.9,0.2,-0.1,0,0,0.0,0,39.540604,-122.332123,0.0,2.803,344.7,8,3,1.8,1,2.5933,12,0.2467,,13.555,2
1107966,1469908691957,,,,,,,-0.01,0.07,0.98,-2.9,0.2,-0.2,0,0,,,,,,,,,,,,,,,,,
1107986,1469908691977,,,,,,,-0.01,0.07,0.98,-2.9,0.2,-0.2,0,0,,,,,,,,,,,,,,,,,
1108006,1469908692104,,,,,,,-0.01,0.07,0.98,-2.9,0.2,-0.2,0,0,,,,,,,,,,,,,,,,,
1108026,1469908692124,,,,,,,-0.01,0.07,0.98,-2.9,0.2,-0.2,0,0,,,,,,,,,,,,,,,,,
1108047,1469908692145,0,212.0,188.3,0,176.9,12.07,-0.01,0.07,0.98,-2.9,0.2,-0.2,0,0,0.0,0,39.540604,-122.332123,0.0,2.803,344.7,8,3,1.8,1,2.5933,12,0.2467,13.6533,13.5583,2
1108066,1469908692164,,,,,,,-0.01,0.07,0.98,-2.9,0.2,-0.2,0,0,,,,,,,,,,,,,,,,,
1108086,1469908692184,,,,,,,-0.01,0.07,0.98,-2.9,0.2,-0.2,0,0,,,,,,,,,,,,,,,,,
1108106,1469908692204,,,,,,,-0.01,0.07,0.98,-3.0,0.2,-0.2,0,0,,,,,,,,,,,,,,,,,
1108126,1469908692224,,,,,,,-0.01,0.07,0.98,-3.0,0.1,-0.2,0,0,,,,,,,,,,,,,,,,,
1108146,1469908692244,,,,0,,,-0.01,0.07,0.98,-3.0,0.1,-0.2,0,0,0.0,0,39.540604,-122.332123,0.0,2.803,344.7,8,3,1.8,1,2.5933,12,0.2467,,13.5583,2
1108166,1469908692264,,,,,,,-0.01,0.07,0.98,-2.9,0.2,-0.2,0,0,,,,,,,,,,,,,,,,,
1108186,1469908692284,,,,,,,-0.01,0.07,0.98,-2.9,0.2,-0.2,0,0,,,,,,,,,,,,,,,,,
1108206,1469908692205,,,,,,,-0.01,0.07,0.98,-2.9,0.2,-0.2,0,0,,,,,,,,,,,,,,,,,
1108226,1469908692225,,,,,,,-0.01,0.07,0.98,-2.9,0.2,-0.2,0,0,,,,,,,,,,,,,,,,,
1108247,1469908692246,0,213.5,189.8,0,175.5,,-0.01,0.07,0.98,-3.0,0.2,-0.2,0,0,0.0,0,39.540604,-122.332123,0.0,2.803,344.7,8,3,1.8,1,2.5933,12,0.2467,13.655,13.56,2
1108266,1469908692265,,,,,,,-0.0,0.07,0.98,-3.0,0.2,-0.2,0,0,,,,,,,,,,,,,,,,,
1108286,1469908692285,,,,,,,-0.0,0.07,0.98,-3.0,0.2,-0.2,0,0,,,,,,,,,,,,,,,,,
1108306,1469908692303,,,,,,,-0.0,0.07,0.98,-3.0,0.2,-0.2,0,0,,,,,,,,,,,,,,,,,
1108326,1469908692323,,,,,,,-0.01,0.07,0.98,-3.0,0.2,-0.2,0,0,,,,,,,,,,,,,,,,,
1108346,1469908692343,,,,0,,,-0.0,0.07,0.98,-3.0,0.2,-0.2,0,0,0.0,0,39.540604,-122.332123,0.0,2.803,344.7,8,3,1.8,1,2.5933,12,0.2467,,13.5617,2
1108366,1469908692363,,,,,,,-0.0,0.07,0.98,-3.0,0.2,-0.2,0,0,,,,,,,,,,,,,,,,,
1108386,1469908692383,,,,,,,-0.0,0.07,0.98,-3.0,0.2,-0.2,0,0,,,,,,,,,,,,,,,,,
1108406,1469908692403,,,,,,,-0.0,0.07,0.98,-3.0,0.2,-0.2,0,0,,,,,,,,,,,,,,,,,
1108426,1469908692423,,,,,,,-0.0,0.07,0.98,-3.0,0.2,-0.2,0,0,,,,,,,,,,,,,,,,,
1108447,1469908692444,0,213.0,189.3,0,175.3,,-0.01,0.07,0.98,-3.0,0.2,-0.2,0,0,0.0,0,39.540604,-122.332123,0.0,2.803,344.7,8,3,1.8,1,2.5933,12,0.2467,13.6583,13.5633,2
1108466,1469908692463,,,,,,,-0.0,0.07,0.98,-3.0,0.3,-0.2,0,0,,,,,,,,,,,,,,,,,
1108486,1469908692483,,,,,,,-0.0,0.07,0.98,-3.0,0.3,-0.2,0,0,,,,,,,,,,,,,,,,,
1108506,1469908692504,,,,,,,-0.0,0.07,0.98,-3.0,0.2,-0.1,0,0,,,,,,,,,,,,,,,,,
1108526,1469908692524,,,,,,,-0.0,0.08,0.98,-3.0,0.2,-0.2,0,0,,,,,,,,,,,,,,,,,
1108546,1469908692544,,,,0,,,-0.0,0.08,0.98,-3.0,0.2,-0.2,0,0,0.0,0,39.540604,-122.332123,0.0,2.803,344.7,8,3,1.8,1,2.5933,12,0.2467,,13.565,2
1108566,1469908692564,,,,,,,-0.0,0.07,0.98,-3.0,0.2,-0.2,0,0,,,,,,,,,,,,,,,,,
1108586,1469908692584,,,,,,,-0.01,0.07,0.98,-3.0,0.2,-0.2,0,0,,,,,,,,,,,,,,,,,
1108606,1469908692603,,,,,,,-0.01,0.07,0.99,-2.9,0.2,-0.2,0,0,,,,,,,,,,,,,,,,,
1108626,1469908692623,,,,,,,-0.01,0.07,0.98,-2.9,0.2,-0.2,0,0,,,,,,,,,,,,,,,,,
1108647,1469908692644,0,213.4,189.9,0,175.6,,-0.01,0.07,0.98,-2.9,0.2,-0.2,0,0,0.0,0,39.540604,-122.332123,0.0,2.803,344.7,8,3,1.8,1,2.5933,12,0.2467,13.6616,13.5667,2
1108666,1469908692663,,,,,,,-0.01,0.07,0.98,-2.9,0.2,-0.2,0,0,,,,,,,,,,,,,,,,,
1108686,1469908692683,,,,,,,-0.01,0.07,0.98,-2.9,0.2,-0.2,0,0,,,,,,,,,,,,,,,,,
1108706,1469908692704,,,,,,,-0.01,0.07,0.98,-2.9,0.2,-0.1,0,0,,,,,,,,,,,,,,,,,
1108726,1469908692724,,,,,,,-0.01,0.07,0.98,-2.9,0.2,-0.1,0,0,,,,,,,,,,,,,,,,,
1108746,1469908692744,,,,0,,,-0.01,0.07,0.98,-3.0,0.2,-0.2,0,0,0.0,0,39.540604,-122.332123,0.0,2.803,344.7,8,3,1.8,1,2.5933,12,0.2467,,13.5683,2
1108766,1469908692764,,,,,,,-0.01,0.07,0.98,-3.0,0.2,-0.2,0,0,,,,,,,,,,,,,,,,,
1108786,1469908692784,,,,,,,-0.01,0.07,0.99,-2.9,0.2,-0.2,0,0,,,,,,,,,,,,,,,,,
1108806,1469908692904,,,,,,,-0.01,0.08,0.99,-3.0,0.2,-0.2,0,0,,,,,,,,,,,,,,,,,
1108826,1469908692924,,,,,,,-0.01,0.07,0.98,-3.0,0.2,-0.2,0,0,,,,,,,,,,,,,,,,,
1108847,1469908692945,0,211.7,188.1,0,176.8,,-0.0,0.07,0.98,-3.0,0.2,-0.2,0,0,0.0,0,39.540604,-122.332123,0.0,2.803,344.7,8,3,1.8,1,2.5933,12,0.2467,13.6666,13.5717,2
1108866,1469908692964,,,,,,,-0.0,0.07,0.98,-2.9,0.2,-0.2,0,0,,,,,,,,,,,,,,,,,
1108886,1469908692984,,,,,,,-0.01,0.07,0.98,-2.9,0.2,-0.2,0,0,,,,,,,,,,,,,,,,,
1108906,1469908693004,,,,,,,-0.01,0.07,0.98,-2.9,0.2,-0.2,0,0,,,,,,,,,,,,,,,,,
1108926,1469908693024,,,,,,,-0.01,0.07,0.98,-2.9,0.2,-0.2,0,0,,,,,,,,,,,,,,,,,
1108946,1469908693044,,,,0,,,-0.01,0.07,0.98,-2.9,0.2,-0.2,0,0,0.0,0,39.540604,-122.332123,0.0,2.803,344.7,8,3,1.8,1,2.5933,12,0.2467,,13.5717,2
1108966,1469908693064,,,,,,,-0.01,0.07,0.98,-3.0,0.2,-0.2,0,0,,,,,,,,,,,,,,,,,
1108986,1469908693084,,,,,,,-0.01,0.07,0.98,-3.0,0.2,-0.2,0,0,,,,,,,,,,,,,,,,,
1109006,1469908693004,,,,,,,-0.01,0.07,0.98,-2.9,0.2,-0.2,0,0,,,,,,,,,,,,,,,,,
1109026,1469908693024,,,,,,,-0.01,0.07,0.98,-3.0,0.2,-0.2,0,0,,,,,,,,,,,,,,,,,
1109047,1469908693045,0,212.3,188.5,0,175.6,12.12,-0.01,0.07,0.98,-2.9,0.2,-0.2,0,0,0.0,0,39.540604,-122.332123,0.0,2.803,344.7,8,3,1.8,1,2.5933,12,0.2467,13.6683,13.5733,2
1109066,1469908693064,,,,,,,-0.01,0.07,0.98,-3.0,0.2,-0.2,0,0,,,,,,,,,,,,,,,,,
1109086,1469908693084,,,,,,,-0.01,0.07,0.98,-2.9,0.2,-0.2,0,0,,,,,,,,,,,,,,,,,
1109106,1469908693104,,,,,,,-0.01,0.07,0.98,-2.9,0.2,-0.2,0,0,,,,,,,,,,,,,,,,,
1109126,1469908693124,,,,,,,-0.01,0.07,0.98,-3.0,0.2,-0.2,0,0,,,,,,,,,,,,,,,,,
1109146,1469908693144,,,,0,,,-0.01,0.07,0.98,-2.9,0.2,-0.2,0,0,0.0,0,39.540604,-122.332123,0.0,2.803,344.7,8,3,1.8,1,2.5933,12,0.2467,,13.575,2
1109166,1469908693164,,,,,,,-0.01,0.07,0.98,-3.0,0.2,-0.2,0,0,,,,,,,,,,,,,,,,,
1109186,1469908693184,,,,,,,-0.01,0.07,0.98,-3.0,0.2,-0.2,0,0,,,,,,,,,,,,,,,,,
1109206,1469908693204,,,,,,,-0.01,0.07,0.98,-3.0,0.2,-0.2,0,0,,,,,,,,,,,,,,,,,
1109226,1469908693224,,,,,,,-0.01,0.07,0.98,-2.9,0.2,-0.2,0,0,,,,,,,,,,,,,,,,,
1109247,1469908693245,0,213.3,189.7,0,176.7,,-0.01,0.07,0.98,-2.9,0.1,-0.2,0,0,0.0,0,39.540604,-122.332123,0.0,2.803,344.7,8,3,1.8,1,2.5933,12,0.2467,13.6716,13.5767,2
1109266,1469908693264,,,,,,,-0.01,0.07,0.98,-2.9,0.2,-0.2,0,0,,,,,,,,,,,,,,,,,
1109286,1469908693284,,,,,,,-0.01,0.07,0.98,-2.9,0.2,-0.2,0,0,,,,,,,,,,,,,,,,,
1109306,1469908693305,,,,,,,-0.01,0.07,0.98,-3.0,0.2,-0.2,0,0,,,,,,,,,,,,,,,,,
1109326,1469908693325,,,,,,,-0.01,0.07,0.98,-3.0,0.2,-0.2,0,0,,,,,,,,,,,,,,,,,
1109346,1469908693345,,,,0,,,-0.01,0.07,0.98,-3.0,0.2,-0.2,0,0,0.0,0,39.540604,-122.332123,0.0,2.803,344.7,8,3,1.8,1,2.5933,12,0.2467,,13.5783,2
1109366,1469908693365,,,,,,,-0.01,0.07,0.98,-2.9,0.2,-0.2,0,0,,,,,,,,,,,,,,,,,
1109386,1469908693385,,,,,,,-0.01,0.07,0.99,-2.9,0.2,-0.2,0,0,,,,,,,,,,,,,,,,,
1109406,1469908693404,,,,,,,-0.01,0.07,0.99,-2.9,0.2,-0.2,0,0,,,,,,,,,,,,,,,,,
1109426,1469908693424,,,,,,,-0.01,0.07,0.98,-2.9,0.2,-0.2,0,0,,,,,,,,,,,,,,,,,
1109447,1469908693445,0,211.6,187.8,0,175.1,,-0.01,0.07,0.99,-3.0,0.2,-0.1,0,0,0.0,0,39.540604,-122.332123,0.0,2.803,344.7,8,3,1.8,1,2.5933,12,0.2467,13.6749,13.58,2
1109466,1469908693464,,,,,,,-0.01,0.07,0.99,-3.0,0.2,-0.2,0,0,,,,,,,,,,,,,,,,,
1109486,1469908693484,,,,,,,-0.0,0.07,0.99,-3.0,0.2,-0.2,0,0,,,,,,,,,,,,,,,,,
1109506,1469908693504,,,,,,,-0.0,0.07,0.98,-3.0,0.2,-0.2,0,0,,,,,,,,,,,,,,,,,
1109526,1469908693524,,,,,,,-0.0,0.07,0.98,-2.9,0.2,-0.2,0,0,,,,,,,,,,,,,,,,,
1109546,1469908693544,,,,0,,,-0.01,0.07,0.98,-3.0,0.0,-0.2,0,0,0.0,0,39.540604,-122.332123,0.0,2.803,344.7,8,3,1.8,1,2.5933,12,0.2467,,13.5817,2
1109566,1469908693564,,,,,,,-0.0,0.08,0.99,-3.0,0.0,-0.0,0,0,,,,,,,,,,,,,,,,,
1109586,1469908693584,,,,,,,0.0,0.09,0.99,-3.0,0.3,0.0,0,12,,,,,,,,,,,,,,,,,
1109606,1469908693704,,,,,,,0.01,0.09,0.99,-3.0,0.2,-0.1,0,12,,,,,,,,,,,,,,,,,
1109626,1469908693724,,,,,,,0.01,0.09,0.99,-2.9,0.1,-0.3,0,12,,,,,,,,,,,,,,,,,
1109647,1469908693745,0,212.2,188.5,0,175.5,,0.0,0.09,1.0,-2.9,-0.1,-0.4,0,12,0.0,0,39.540604,-122.332123,0.0,2.803,344.7,8,3,1.8,1,2.5933,12,0.2467,13.6799,13.585,2
1109666,1469908693764,,,,,,,-0.0,0.09,0.99,-2.9,-0.1,-0.3,0,12,,,,,,,,,,,,,,,,,
1109686,1469908693784,,,,,,,-0.0,0.08,0.99,-2.9,0.1,-0.3,0,0,,,,,,,,,,,,,,,,,
1109706,1469908693804,,,,,,,0.0,0.08,0.99,-3.0,0.2,-0.3,0,0,,,,,,,,,,,,,,,,,
1109726,1469908693824,,,,,,,0.0,0.08,0.99,-3.0,0.2,-0.3,0,0,,,,,,,,,,,,,,,,,
1109746,1469908693844,,,,0,,,0.0,0.08,0.99,-2.9,0.3,-0.3,0,0,0.0,0,39.540604,-122.332123,0.0,2.803,344.7,8,3,1.8,1,2.5933,12,0.2467,,13.585,2
1109766,1469908693864,,,,,,,-0.0,0.08,0.99,-2.9,0.3,-0.4,0,0,,,,,,,,,,,,,,,,,
1109786,1469908693884,,,,,,,-0.0,0.07,0.99,-2.9,0.3,-0.4,0,0,,,,,,,,,,,,,,,,,
1109806,1469908693801,,,,,,,-0.0,0.07,0.99,-2.9,0.3,-0.3,0,0,,,,,,,,,,,,,,,,,
1109826,1469908693821,,,,,,,-0.0,0.07,0.99,-2.9,0.3,-0.3,0,0,,,,,,,,,,,,,,,,,
1109847,1469908693842,0,212.4,188.6,0,175.3,,-0.0,0.07,0.99,-2.9,0.3,-0.3,0,0,0.0,0,39.540604,-122.332123,0.0,2.803,344.7,8,3,1.8,1,2.5933,12,0.2467,13.6816,13.5867,2
1109866,1469908693861,,,,,,,-0.01,0.06,0.99,-2.9,0.3,-0.3,0,0,,,,,,,,,,,,,,,,,
1109886,1469908693881,,,,,,,-0.01,0.06,0.99,-2.9,0.2,-0.4,0,0,,,,,,,,,,,,,,,,,
1109906,1469908693897,,,,,,,-0.01,0.06,0.99,-2.9,0.2,-0.3,0,0,,,,,,,,,,,,,,,,,
1109926,1469908693917,,,,,,,-0.01,0.06,0.99,-2.9,0.2,-0.3,0,0,,,,,,,,,,,,,,,,,
1109946,1469908693937,,,,0,,,-0.01,0.06,0.99,-2.9,0.2,-0.2,0,0,0.0,0,39.540604,-122.332123,0.0,2.803,344.7,8,3,1.8,1,2.5933,12,0.2467,,13.5883,2
1109966,1469908693957,,,,,,,-0.01,0.06,0.99,-2.9,0.3,-0.2,0,0,,,,,,,,,,,,,,,,,
1109986,1469908693977,,,,,,,-0.0,0.06,0.99,-2.9,0.2,-0.3,0,0,,,,,,,,,,,,,,,,,
1110006,1469908694003,,,,,,,-0.01,0.06,0.99,-2.9,0.2,-0.3,0,0,,,,,,,,,,,,,,,,,
1110026,1469908694023,,,,,,,-0.01,0.06,0.99,-2.9,0.2,-0.3,0,0,,,,,,,,,,,,,,,,,
1110047,1469908694044,0,213.0,189.5,0,176.1,10.0,-0.01,0.06,0.98,-2.9,0.2,-0.3,1660,0,0.0,0,39.540604,-122.332123,0.0,2.803,344.7,8,3,1.8,1,2.5933,12,0.2467,13.6849,13.59,2
1110066,1469908694063,,,,,,,-0.01,0.06,0.98,-2.9,0.2,-0.1,1660,0,,,,,,,,,,,,,,,,,
1110086,1469908694083,,,,,,,-0.0,0.06,0.98,-2.9,0.1,-0.1,1660,0,,,,,,,,,,,,,,,,,
1110106,1469908694104,,,,,,,-0.0,0.07,0.98,-2.9,0.1,-0.1,1660,0,,,,,,,,,,,,,,,,,
1110126,1469908694124,,,,,,,-0.0,0.07,0.99,-3.0,0.1,-0.2,240,0,,,,,,,,,,,,,,,,,
1110146,1469908694144,,,,0,,,-0.01,0.06,0.98,-3.0,0.2,-0.2,240,0,0.0,0,39.540604,-122.332123,0.0,2.803,344.7,8,3,1.8,1,2.5933,12,0.2467,,13.5917,2
1110166,1469908694164,,,,,,,-0.0,0.06,0.98,-2.9,0.2,-0.1,240,0,,,,,,,,,,,,,,,,,
1110186,1469908694184,,,,,,,-0.0,0.08,0.99,-3.0,0.2,-0.0,340,0,,,,,,,,,,,,,,,,,
1110206,1469908694204,,,,,,,-0.0,0.05,0.98,-2.9,0.2,-0.1,340,0,,,,,,,,,,,,,,,,,
1110226,1469908694224,,,,,,,0.0,0.07,0.98,-2.9,0.0,-0.0,480,0,,,,,,,,,,,,,,,,,
1110247,1469908694245,0,213.1,189.4,0,175.9,,-0.01,0.06,0.99,-2.8,-0.3,-0.1,660,0,0.0,0,39.540604,-122.332123,0.0,2.803,344.7,8,3,1.8,1,2.5933,12,0.2467,13.6883,13.5933,2
1110266,1469908694264,,,,,,,-0.0,0.04,0.99,-2.7,-0.2,-0.2,660,0,,,,,,,,,,,,,,,,,
1110286,1469908694284,,,,,,,0.01,0.07,0.97,-2.9,-0.0,0.2,760,0,,,,,,,,,,,,,,,,,
1110306,1469908694304,,,,,,,0.02,0.09,0.97,-3.0,-0.2,0.3,900,0,,,,,,,,,,,,,,,,,
1110326,1469908694324,,,,,,,0.02,0.08,0.98,-3.0,-0.3,0.1,980,0,,,,,,,,,,,,,,,,,
1110346,1469908694344,,,,0,,,0.01,0.07,0.97,-2.8,-0.5,-0.1,1040,0,0.0,0,39.540604,-122.332123,0.0,2.803,344.7,8,3,1.8,1,2.5933,12,0.2467,,13.595,2
1110366,1469908694364,,,,,,,0.0,0.09,0.98,-2.9,-0.6,-0.1,1060,0,,,,,,,,,,,,,,,,,
1110386,1469908694384,,,,,,,-0.01,0.07,0.97,-3.0,-0.7,-0.0,1140,0,,,,,,,,,,,,,,,,,
1110406,1469908694503,,,,,,,-0.01,0.06,0.97,-2.9,-0.5,-0.0,1200,0,,,,,,,,,,,,,,,,,
1110426,1469908694523,,,,,,,-0.01,0.05,0.98,-2.9,-0.4,0.0,1220,0,,,,,,,,,,,,,,,,,
1110447,1469908694544,0,213.1,189.5,0,176.1,,-0.01,0.06,0.98,-3.0,-0.4,-0.0,1260,0,0.0,0,39.540604,-122.332123,0.0,2.803,344.7,8,3,1.8,1,2.5933,12,0.2467,13.6933,13.5983,2
1110466,1469908694563,,,,,,,-0.01,0.05,0.96,-3.0,-0.2,-0.1,1300,0,,,,,,,,,,,,,,,,,
1110486,1469908694583,,,,,,,-0.01,0.06,0.96,-2.9,-0.0,-0.3,1280,0,,,,,,,,,,,,,,,,,
1110506,1469908694603,,,,,,,-0.01,0.06,0.94,-3.0,-0.2,-0.2,1340,0,,,,,,,,,,,,,,,,,
1110526,1469908694623,,,,,,,0.0,0.05,0.94,-3.0,-0.1,-0.1,1340,0,,,,,,,,,,,,,,,,,
1110546,1469908694643,,,,0,,,0.01,0.06,0.94,-3.0,0.0,-0.2,1360,0,0.0,0,39.540604,-122.332123,0.0,2.803,344.7,8,3,1.8,1,2.5933,12,0.2467,,13.5983,2
1110566,1469908694663,,,,,,,0.01,0.08,0.94,-3.0,-0.2,-0.1,1400,0,,,,,,,,,,,,,,,,,
1110586,1469908694683,,,,,,,0.01,0.08,0.93,-3.1,0.0,-0.1,1440,0,,,,,,,,,,,,,,,,,
1110606,1469908694603,,,,,,,0.01,0.07,0.94,-3.0,-0.1,-0.1,1420,0,,,,,,,,,,,,,,,,,
1110626,1469908694623,,,,,,,0.02,0.06,0.94,-2.9,-0.1,-0.1,1440,0,,,,,,,,,,,,,,,,,
1110647,1469908694644,0,213.4,189.7,0,176.3,,0.01,0.07,0.96,-2.9,0.1,-0.2,1460,0,0.0,0,39.540604,-122.332123,0.0,2.803,344.7,8,3,1.8,1,2.5933,12,0.2467,13.6949,13.6,2
1110666,1469908694663,,,,,,,0.01,0.07,0.97,-2.9,-0.1,-0.2,1440,0,,,,,,,,,,,,,,,,,
1110686,1469908694683,,,,,,,0.01,0.07,0.97,-2.9,0.0,-0.2,1480,0,,,,,,,,,,,,,,,,,
1110706,1469908694703,,,,,,,0.0,0.08,0.99,-3.0,0.1,-0.2,1460,0,,,,,,,,,,,,,,,,,
1110726,1469908694723,,,,,,,0.0,0.09,0.99,-3.0,0.3,-0.3,1440,0,,,,,,,,,,,,,,,,,
1110746,1469908694743,,,,0,,,-0.01,0.08,0.99,-3.0,0.2,-0.4,1440,0,0.0,0,39.540604,-122.332123,0.0,2.803,344.7,8,3,1.8,1,2.5933,12,0.2467,,13.6017,2
1110766,1469908694763,,,,,,,-0.0,0.09,0.99,-3.0,0.1,-0.4,1440,0,,,,,,,,,,,,,,,,,
1110786,1469908694783,,,,,,,-0.01,0.09,0.98,-3.1,0.1,-0.3,1420,0,,,,,,,,,,,,,,,,,
1110806,1469908694804,,,,,,,-0.01,0.09,0.97,-3.1,-0.0,-0.3,1420,0,,,,,,,,,,,,,,,,,
1110826,1469908694824,,,,,,,-0.01,0.08,0.97,-3.1,0.2,-0.3,1380,0,,,,,,,,,,,,,,,,,
1110847,1469908694845,0,211.7,187.7,0,174.8,,-0.01,0.08,0.98,-3.1,0.2,-0.3,1420,0,0.0,0,39.540604,-122.332123,0.0,2.803,344.7,8,3,1.8,1,2.5933,12,0.2467,13.6983,13.6033,2
1110866,1469908694864,,,,,,,-0.02,0.07,0.98,-3.0,0.2,-0.2,1380,0,,,,,,,,,,,,,,,,,
1110886,1469908694884,,,,,,,-0.02,0.07,0.98,-3.0,0.0,-0.3,1340,0,,,,,,,,,,,,,,,,,
1110906,1469908694896,,,,,,,-0.01,0.08,0.97,-3.0,-0.0,-0.2,1340,0,,,,,,,,,,,,,,,,,
1110926,1469908694916,,,,,,,-0.02,0.07,0.98,-3.0,0.0,-0.2,1300,0,,,,,,,,,,,,,,,,,
1110946,1469908694936,,,,0,,,-0.01,0.08,0.98,-3.0,0.0,-0.2,1300,0,0.0,0,39.540604,-122.332123,0.0,2.803,344.7,8,3,1.8,1,2.5933,12,0.2467,,13.605,2
1110966,1469908694956,,,,,,,-0.02,0.07,0.97,-3.0,0.0,-0.2,1240,0,,,,,,,,,,,,,,,,,
1110986,1469908694976,,,,,,,-0.01,0.07,0.97,-3.0,-0.1,-0.2,1240,0,,,,,,,,,,,,,,,,,
1111006,1469908695004,,,,,,,-0.01,0.07,0.98,-3.0,-0.1,-0.2,1220,0,,,,,,,,,,,,,,,,,
1111026,1469908695024,,,,,,,-0.01,0.07,0.97,-2.9,-0.0,-0.3,1200,0,,,,,,,,,,,,,,,,,
1111047,1469908695045,0,213.4,189.6,0,175.9,13.06,-0.01,0.07,0.98,-3.0,0.0,-0.2,1160,0,0.0,0,39.540604,-122.332123,0.0,2.803,344.7,8,3,1.8,1,2.5933,12,0.2467,13.7016,13.6067,2
1111066,1469908695064,,,,,,,-0.01,0.07,0.97,-3.0,0.1,-0.2,1120,0,,,,,,,,,,,,,,,,,
1111086,1469908695084,,,,,,,-0.01,0.07,0.97,-3.0,0.0,-0.2,1140,0,,,,,,,,,,,,,,,,,
1111106,1469908695105,,,,,,,-0.01,0.08,0.97,-3.0,-0.0,-0.2,1120,0,,,,,,,,,,,,,,,,,
1111126,1469908695125,,,,,,,-0.01,0.07,0.97,-3.0,-0.1,-0.2,1080,0,,,,,,,,,,,,,,,,,
1111146,1469908695145,,,,1,,,-0.01,0.07,0.97,-3.0,-0.1,-0.2,1100,0,0.0,0,39.540604,-122.332123,0.0,2.803,344.7,8,3,1.8,1,2.5933,12,0.2467,,13.6083,2
1111166,1469908695165,,,,,,,-0.01,0.07,0.98,-3.0,-0.1,-0.2,1040,0,,,,,,,,,,,,,,,,,
1111186,1469908695185,,,,,,,-0.01,0.07,0.98,-3.0,-0.1,-0.2,1040,0,,,,,,,,,,,,,,,,,
1111206,1469908695303,,,,,,,-0.01,0.08,0.98,-2.9,-0.1,-0.2,1040,0,,,,,,,,,,,,,,,,,
1111226,1469908695323,,,,,,,-0.01,0.08,0.97,-2.9,-0.2,-0.2,1000,0,,,,,,,,,,,,,,,,,
1111247,1469908695344,0,213.4,189.3,2,175.7,,-0.01,0.07,0.97,-2.9,-0.1,-0.2,980,0,0.0,0,39.540604,-122.332123,0.0,2.803,344.7,8,3,1.8,1,2.5933,12,0.2467,13.7066,13.6117,2
1111266,1469908695363,,,,,,,-0.01,0.08,0.98,-2.9,-0.2,-0.2,980,0,,,,,,,,,,,,,,,,,
1111286,1469908695383,,,,,,,-0.01,0.08,0.98,-2.9,-0.1,-0.2,960,0,,,,,,,,,,,,,,,,,
1111306,1469908695403,,,,,,,-0.01,0.08,0.97,-2.9,-0.1,-0.2,920,0,,,,,,,,,,,,,,,,,
1111326,1469908695423,,,,,,,-0.0,0.07,0.98,-2.9,-0.2,-0.3,900,0,,,,,,,,,,,,,,,,,
1111346,1469908695443,,,,4,,,-0.0,0.08,0.98,-2.9,-0.1,-0.3,900,0,0.0,0,39.540604,-122.332123,0.0,2.803,344.7,8,3,1.8,1,2.5933,12,0.2467,,13.6117,2
1111366,1469908695463,,,,,,,-0.0,0.07,0.98,-2.9,-0.2,-0.3,880,0,,,,,,,,,,,,,,,,,
1111386,1469908695483,,,,,,,-0.0,0.07,0.98,-2.9,-0.1,-0.2,860,0,,,,,,,,,,,,,,,,,
1111406,1469908695404,,,,,,,-0.0,0.07,0.98,-2.9,-0.1,-0.2,860,0,,,,,,,,,,,,,,,,,
1111426,1469908695424,,,,,,,-0.0,0.07,0.98,-2.9,0.0,-0.2,840,0,,,,,,,,,,,,,,,,,
1111447,1469908695445,0,214.1,190.6,4,176.5,,-0.0,0.07,0.98,-2.9,0.0,-0.1,800,0,0.0,0,39.540604,-122.332123,0.0,2.803,344.7,8,3,1.8,1,2.5933,12,0.2467,13.7083,13.6133,2
1111466,1469908695464,,,,,,,-0.0,0.07,0.98,-2.9,0.0,-0.2,800,0,,,,,,,,,,,,,,,,,
1111486,1469908695484,,,,,,,-0.0,0.07,0.98,-2.9,-0.0,-0.3,780,0,,,,,,,,,,,,,,,,,
1111506,1469908695504,,,,,,,-0.0,0.07,0.98,-2.9,0.0,-0.3,780,0,,,,,,,,,,,,,,,,,
1111526,1469908695524,,,,,,,-0.0,0.07,0.98,-2.9,-0.0,-0.2,760,0,,,,,,,,,,,,,,,,,
1111546,1469908695544,,,,5,,,-0.0,0.07,0.98,-2.9,-0.1,-0.2,740,0,0.0,0,39.540604,-122.332123,0.0,2.803,344.7,8,3,1.8,1,2.5933,12,0.2467,,13.615,2
1111566,1469908695564,,,,,,,-0.01,0.07,0.98,-2.9,-0.0,-0.2,740,0,,,,,,,,,,,,,,,,,
1111586,1469908695584,,,,,,,-0.01,0.07,0.98,-2.9,-0.0,-0.2,740,0,,,,,,,,,,,,,,,,,
1111606,1469908695603,,,,,,,-0.0,0.08,0.98,-2.9,0.0,-0.1,700,0,,,,,,,,,,,,,,,,,
1111626,1469908695623,,,,,,,-0.0,0.08,0.98,-3.0,0.0,-0.1,700,0,,,,,,,,,,,,,,,,,
1111647,1469908695644,0,214.4,190.6,4,176.1,,-0.01,0.07,0.98,-2.9,-0.1,-0.2,680,0,0.0,0,39.540604,-122.332123,0.0,2.803,344.7,8,3,1.8,1,2.5933,12,0.2467,13.7116,13.6167,2
1111666,1469908695663,,,,,,,-0.0,0.08,0.98,-2.9,0.0,-0.2,680,0,,,,,,,,,,,,,,,,,
1111686,1469908695683,,,,,,,-0.0,0.08,0.98,-2.9,0.1,-0.1,680,0,,,,,,,,,,,,,,,,,
1111706,1469908695704,,,,,,,-0.0,0.07,0.98,-2.9,0.1,-0.2,660,0,,,,,,,,,,,,,,,,,
1111726,1469908695724,,,,,,,-0.01,0.08,0.98,-2.9,0.2,-0.2,660,0,,,,,,,,,,,,,,,,,
1111746,1469908695744,,,,5,,,-0.01,0.08,0.98,-2.9,0.1,-0.2,660,0,0.0,0,39.540604,-122.332123,0.0,2.803,344.7,8,3,1.8,1,2.5933,12,0.2467,,13.6183,2
1111766,1469908695764,,,,,,,-0.01,0.07,0.98,-2.8,0.1,-0.3,620,0,,,,,,,,,,,,,,,,,
1111786,1469908695784,,,,,,,-0.01,0.08,0.98,-2.9,0.1,-0.2,620,0,,,,,,,,,,,,,,,,,
1111806,1469908695804,,,,,,,-0.01,0.08,0.98,-2.9,0.1,-0.2,640,0,,,,,,,,,,,,,,,,,
1111826,1469908695824,,,,,,,-0.01,0.07,0.98,-2.9,0.1,-0.2,640,0,,,,,,,,,,,,,,,,,
1111847,1469908695845,0,214.0,190.4,5,175.8,,-0.0,0.08,0.98,-3.0,0.2,-0.1,620,0,0.0,0,39.540604,-122.332123,0.0,2.803,344.7,8,3,1.8,1,2.5933,12,0.2467,13.7149,13.62,2
1111866,1469908695864,,,,,,,-0.0,0.08,0.98,-3.0,0.2,-0.2,620,0,,,,,,,,,,,,,,,,,
1111886,1469908695884,,,,,,,-0.01,0.07,0.98,-3.0,0.2,-0.2,620,0,,,,,,,,,,,,,,,,,
1111906,1469908695896,,,,,,,-0.0,0.08,0.98,-3.0,0.2,-0.2,620,0,,,,,,,,,,,,,,,,,
1111926,1469908695916,,,,,,,-0.0,0.08,0.98,-3.0,0.2,-0.2,620,0,,,,,,,,,,,,,,,,,
1111946,1469908695936,,,,4,,,-0.0,0.08,0.98,-3.0,0.2,-0.1,620,0,0.0,0,39.540604,-122.332123,0.0,2.803,344.7,8,3,1.8,1,2.5933,12,0.2467,,13.6217,2
1111966,1469908695956,,,,,,,-0.0,0.08,0.98,-3.0,0.2,-0.1,580,0,,,,,,,,,,,,,,,,,
1111986,1469908695976,,,,,,,-0.0,0.08,0.98,-2.9,0.2,-0.2,580,0,,,,,,,,,,,,,,,,,
1112006,1469908696103,,,,,,,0.0,0.08,0.98,-3.0,0.3,-0.1,620,0,,,,,,,,,,,,,,,,,
1112026,1469908696123,,,,,,,0.0,0.08,0.98,-2.9,0.3,-0.1,600,0,,,,,,,,,,,,,,,,,
1112047,1469908696144,0,212.6,188.8,4,174.2,12.86,0.0,0.08,0.98,-3.0,0.3,-0.2,600,0,0.0,0,39.540604,-122.332123,0.0,2.803,344.7,8,3,1.8,1,2.5933,12,0.2467,13.7199,13.625,2
1112066,1469908696163,,,,,,,0.01,0.09,0.98,-3.0,0.2,-0.1,620,0,,,,,,,,,,,,,,,,,
1112086,1469908696183,,,,,,,0.01,0.09,0.98,-3.0,0.2,-0.2,620,0,,,,,,,,,,,,,,,,,
1112106,1469908696203,,,,,,,0.0,0.08,0.98,-3.0,0.2,-0.2,620,0,,,,,,,,,,,,,,,,,
1112126,1469908696223,,,,,,,0.0,0.08,0.98,-3.0,0.2,-0.2,620,0,,,,,,,,,,,,,,,,,
1112146,1469908696243,,,,5,,,-0.0,0.07,0.98,-2.9,0.2,-0.3,620,0,0.0,0,39.540604,-122.332123,0.0,2.803,344.7,8,3,1.8,1,2.5933,12,0.2467,,13.625,2
1112166,1469908696263,,,,,,,0.0,0.07,0.99,-3.0,0.3,-0.2,600,0,,,,,,,,,,,,,,,,,
1112186,1469908696283,,,,,,,0.0,0.08,0.99,-3.0,0.2,-0.2,620,0,,,,,,,,,,,,,,,,,
1112206,1469908696204,,,,,,,-0.0,0.07,0.98,-3.0,0.2,-0.2,620,0,,,,,,,,,,,,,,,,,
1112226,1469908696224,,,,,,,-0.0,0.08,0.99,-3.0,0.1,-0.2,620,0,,,,,,,,,,,,,,,,,
1112247,1469908696245,0,214.4,191.0,5,175.5,,-0.01,0.08,0.98,-3.0,0.1,-0.2,640,0,0.0,0,39.540604,-122.332123,0.0,2.803,344.7,8,3,1.8,1,2.5933,12,0.2467,13.7216,13.6267,2
1112266,1469908696264,,,,,,,-0.01,0.07,0.98,-3.0,0.1,-0.2,640,0,,,,,,,,,,,,,,,,,
1112286,1469908696284,,,,,,,-0.01,0.08,0.98,-3.0,0.1,-0.1,640,0,,,,,,,,,,,,,,,,,
1112306,1469908696304,,,,,,,-0.01,0.07,0.99,-2.9,0.2,-0.2,640,0,,,,,,,,,,,,,,,,,
1112326,1469908696324,,,,,,,-0.01,0.08,0.99,-3.0,0.3,-0.1,640,0,,,,,,,,,,,,,,,,,
1112346,1469908696344,,,,5,,,-0.01,0.08,0.99,-3.0,0.4,-0.1,640,0,0.0,0,39.540604,-122.332123,0.0,2.803,344.7,8,3,1.8,1,2.5933,12,0.2467,,13.6283,2
1112366,1469908696364,,,,,,,-0.01,0.07,0.99,-2.9,0.3,-0.2,640,0,,,,,,,,,,,,,,,,,
1112386,1469908696384,,,,,,,-0.01,0.07,0.99,-3.0,0.3,-0.1,660,0,,,,,,,,,,,,,,,,,
1112406,1469908696404,,,,,,,-0.01,0.07,0.99,-3.0,0.2,-0.2,660,0,,,,,,,,,,,,,,,,,
1112426,1469908696424,,,,,,,-0.01,0.06,0.99,-2.9,0.2,-0.3,660,0,,,,,,,,,,,,,,,,,
1112447,1469908696445,0,213.7,190.4,5,174.9,,-0.01,0.07,0.99,-3.0,0.3,-0.2,660,0,0.0,0,39.540604,-122.332123,0.0,2.803,344.7,8,3,1.8,1,2.5933,12,0.2467,13.7249,13.63,2
1112466,1469908696464,,,,,,,-0.01,0.07,0.99,-3.0,0.2,-0.2,660,0,,,,,,,,,,,,,,,,,
1112486,1469908696484,,,,,,,-0.01,0.07,0.99,-3.0,0.2,-0.2,660,0,,,,,,,,,,,,,,,,,
1112506,1469908696504,,,,,,,-0.01,0.07,0.99,-3.0,0.3,-0.2,660,0,,,,,,,,,,,,,,,,,
1112526,1469908696524,,,,,,,-0.01,0.07,0.99,-3.0,0.3,-0.2,660,0,,,,,,,,,,,,,,,,,
1112546,1469908696544,,,,7,,,-0.01,0.07,0.99,-2.9,0.3,-0.3,680,0,0.0,0,39.540604,-122.332123,0.0,2.803,344.7,8,3,1.8,1,2.5933,12,0.2467,,13.6317,2
1112566,1469908696564,,,,,,,-0.01,0.07,0.99,-3.0,0.3,-0.2,680,0,,,,,,,,,,,,,,,,,
1112586,1469908696584,,,,,,,-0.01,0.08,0.99,-3.0,0.3,-0.2,660,0,,,,,,,,,,,,,,,,,
1112606,1469908696604,,,,,,,-0.01,0.07,0.99,-2.9,0.2,-0.2,680,0,,,,,,,,,,,,,,,,,
1112626,1469908696624,,,,,,,-0.01,0.06,0.99,-3.0,0.3,-0.2,680,0,,,,,,,,,,,,,,,,,
1112647,1469908696645,0,214.6,191.5,6,175.1,,-0.01,0.07,0.99,-3.0,0.2,-0.1,680,0,0.0,0,39.540604,-122.332123,0.0,2.803,344.7,8,3,1.8,1,2.5933,12,0.2467,13.7283,13.6333,2
1112666,1469908696664,,,,,,,-0.01,0.07,0.99,-2.9,0.2,-0.2,680,0,,,,,,,,,,,,,,,,,
1112686,1469908696684,,,,,,,-0.01,0.07,0.98,-3.0,0.3,-0.2,680,0,,,,,,,,,,,,,,,,,
1112706,1469908696705,,,,,,,-0.01,0.07,0.98,-3.0,0.4,-0.1,680,0,,,,,,,,,,,,,,,,,
1112726,1469908696725,,,,,,,-0.01,0.08,0.98,-3.0,0.5,-0.2,700,0,,,,,,,,,,,,,,,,,
1112746,1469908696745,,,,6,,,-0.01,0.08,0.98,-2.9,0.5,-0.2,700,0,0.0,0,39.540604,-122.332123,0.0,2.803,344.7,8,3,1.8,1,2.5933,12,0.2467,,13.635,2
1112766,1469908696765,,,,,,,-0.0,0.09,0.98,-3.0,0.5,-0.2,680,0,,,,,,,,,,,,,,,,,
1112786,1469908696785,,,,,,,-0.0,0.09,0.98,-3.0,0.6,-0.1,700,0,,,,,,,,,,,,,,,,,
1112806,1469908696904,,,,,,,-0.01,0.09,0.98,-3.0,0.6,-0.2,700,0,,,,,,,,,,,,,,,,,
1112826,1469908696924,,,,,,,-0.0,0.09,0.98,-3.0,0.7,-0.2,700,0,,,,,,,,,,,,,,,,,
1112847,1469908696945,0,214.7,191.5,7,175.0,,-0.0,0.09,0.98,-3.0,0.6,-0.1,700,0,0.0,0,39.540604,-122.332123,0.0,2.803,344.7,8,3,1.8,1,2.5933,12,0.2467,13.7333,13.6383,2
1112866,1469908696964,,,,,,,-0.0,0.08,0.98,-2.9,0.6,-0.2,680,0,,,,,,,,,,,,,,,,,
1112886,1469908696984,,,,,,,-0.01,0.07,0.98,-2.9,0.6,-0.2,680,0,,,,,,,,,,,,,,,,,
1112906,1469908697004,,,,,,,-0.0,0.08,0.98,-3.0,0.5,-0.1,700,0,,,,,,,,,,,,,,,,,
1112926,1469908697024,,,,,,,0.0,0.08,0.98,-3.0,0.5,-0.1,680,0,,,,,,,,,,,,,,,,,
1112946,1469908697044,,,,6,,,-0.0,0.07,0.99,-2.9,0.5,-0.3,680,0,0.0,0,39.540604,-122.332123,0.0,2.803,344.7,8,3,1.8,1,2.5933,12,0.2467,,13.6383,2
1112966,1469908697064,,,,,,,0.0,0.07,0.99,-2.9,0.6,-0.2,700,0,,,,,,,,,,,,,,,,,
1112986,1469908697084,,,,,,,0.0,0.08,0.99,-2.9,0.7,-0.1,700,0,,,,,,,,,,,,,,,,,
1113006,1469908697005,,,,,,,-0.0,0.08,0.99,-2.9,0.7,-0.2,700,0,,,,,,,,,,,,,,,,,
1113026,1469908697025,,,,,,,-0.0,0.08,0.99,-2.9,0.7,-0.2,700,0,,,,,,,,,,,,,,,,,
1113047,1469908697046,0,213.1,189.9,6,173.4,13.0,-0.0,0.08,0.99,-3.0,0.6,-0.1,680,0,0.0,0,39.540604,-122.332123,0.0,2.803,344.7,8,3,2.2,1,2.5933,12,0.2467,13.735,13.64,2
1113066,1469908697065,,,,,,,-0.0,0.08,0.99,-2.9,0.5,-0.1,700,0,,,,,,,,,,,,,,,,,
1113086,1469908697085,,,,,,,-0.01,0.07,0.99,-2.9,0.5,-0.2,700,0,,,,,,,,,,,,,,,,,
1113106,1469908697104,,,,,,,-0.01,0.08,0.98,-2.9,0.4,-0.1,680,0,,,,,,,,,,,,,,,,,
1113126,1469908697124,,,,,,,-0.0,0.07,0.98,-2.9,0.3,-0.1,700,0,,,,,,,,,,,,,,,,,
1113146,1469908697144,,,,6,,,-0.01,0.06,0.99,-2.9,0.3,-0.2,700,0,0.0,0,39.540604,-122.332123,0.0,2.803,344.7,8,3,2.2,1,2.5933,12,0.2467,,13.6417,2
1113166,1469908697164,,,,,,,-0.0,0.07,0.99,-2.9,0.4,-0.2,700,0,,,,,,,,,,,,,,,,,
1113186,1469908697184,,,,,,,-0.0,0.08,0.99,-2.9,0.5,-0.2,680,0,,,,,,,,,,,,,,,,,
1113206,1469908697205,,,,,,,-0.01,0.07,0.99,-2.9,0.4,-0.3,680,0,,,,,,,,,,,,,,,,,
1113226,1469908697225,,,,,,,-0.01,0.08,0.99,-2.9,0.4,-0.2,680,0,,,,,,,,,,,,,,,,,
1113247,1469908697246,0,213.7,190.9,7,174.0,,-0.01,0.09,0.99,-2.9,0.4,-0.1,680,0,0.0,0,39.540604,-122.332123,0.0,2.803,344.7,8,3,2.2,1,2.5933,12,0.2467,13.7383,13.6433,2
1113266,1469908697265,,,,,,,-0.01,0.08,0.99,-2.9,0.4,-0.2,680,0,,,,,,,,,,,,,,,,,
1113286,1469908697285,,,,,,,-0.01,0.07,0.99,-2.9,0.4,-0.2,680,0,,,,,,,,,,,,,,,,,
1113306,1469908697305,,,,,,,-0.0,0.08,0.99,-3.0,0.2,-0.1,680,0,,,,,,,,,,,,,,,,,
1113326,1469908697325,,,,,,,-0.0,0.08,0.99,-3.0,0.2,-0.1,700,0,,,,,,,,,,,,,,,,,
1113346,1469908697345,,,,7,,,-0.0,0.07,0.99,-2.9,0.2,-0.2,700,0,0.0,0,39.540604,-122.332123,0.0,2.803,344.7,8,3,2.2,1,2.5933,12,0.2467,,13.645,2
1113366,1469908697365,,,,,,,0.0,0.08,0.98,-3.0,0.3,-0.2,680,0,,,,,,,,,,,,,,,,,
1113386,1469908697385,,,,,,,0.0,0.08,0.98,-2.9,0.3,-0.1,680,0,,,,,,,,,,,,,,,,,
1113406,1469908697405,,,,,,,0.0,0.08,0.98,-2.9,0.3,-0.2,680,0,,,,,,,,,,,,,,,,,
1113426,1469908697425,,,,,,,-0.0,0.09,0.99,-2.9,0.3,-0.1,680,0,,,,,,,,,,,,,,,,,
1113447,1469908697446,0,214.7,191.9,6,174.4,,-0.0,0.09,0.99,-2.9,0.2,-0.1,680,0,0.0,0,39.540604,-122.332123,0.0,2.803,344.7,8,3,2.2,1,2.5933,12,0.2467,13.7416,13.6467,2
1113466,1469908697465,,,,,,,-0.01,0.08,0.98,-2.9,0.2,-0.2,680,0,,,,,,,,,,,,,,,,,
1113486,1469908697485,,,,,,,-0.01,0.08,0.98,-2.9,0.2,-0.2,680,0,,,,,,,,,,,,,,,,,
1113506,1469908697505,,,,,,,-0.0,0.08,0.98,-2.9,0.1,-0.2,680,0,,,,,,,,,,,,,,,,,
1113526,1469908697525,,,,,,,-0.0,0.08,0.98,-2.9,0.1,-0.2,680,0,,,,,,,,,,,,,,,,,
1113546,1469908697545,,,,8,,,-0.0,0.07,0.98,-2.9,0.1,-0.3,680,0,0.0,0,39.540604,-122.332123,0.0,2.803,344.7,8,3,2.2,1,2.5933,12,0.2467,,13.6483,2
1113566,1469908697565,,,,,,,0.0,0.07,0.98,-3.0,0.2,-0.2,680,0,,,,,,,,,,,,,,,,,
1113586,1469908697585,,,,,,,0.0,0.08,0.98,-2.9,0.2,-0.2,700,0,,,,,,,,,,,,,,,,,
1113606,1469908697704,,,,,,,-0.0,0.07,0.98,-2.9,0.2,-0.3,700,0,,,,,,,,,,,,,,,,,
1113626,1469908697724,,,,,,,-0.0,0.08,0.98,-2.9,0.2,-0.2,660,12,,,,,,,,,,,,,,,,,
1113647,1469908697745,0,215.7,193.2,7,175.0,,-0.0,0.09,0.98,-2.9,0.3,-0.1,680,12,0.0,0,39.540604,-122.332123,0.0,2.803,344.7,8,3,2.2,1,2.5933,12,0.2467,13.7466,13.6517,2
1113666,1469908697764,,,,,,,-0.01,0.08,0.98,-2.8,0.3,-0.2,700,12,,,,,,,,,,,,,,,,,
1113686,1469908697784,,,,,,,-0.01,0.08,0.99,-2.8,0.3,-0.2,700,12,,,,,,,,,,,,,,,,,
1113706,1469908697804,,,,,,,-0.01,0.08,0.99,-2.9,0.3,-0.1,700,12,,,,,,,,,,,,,,,,,
1113726,1469908697824,,,,,,,-0.02,0.07,0.99,-2.8,0.2,-0.2,680,769230,,,,,,,,,,,,,,,,,
1113746,1469908697844,,,,8,,,-0.02,0.07,0.99,-2.9,0.2,-0.2,680,0,58.333,0,39.540604,-122.332123,0.0,2.803,344.7,8,3,2.2,1,2.5933,12,0.2467,,13.6517,2
1113766,1469908697864,,,,,,,-0.02,0.07,0.99,-2.9,0.1,-0.1,700,0,,,,,,,,,,,,,,,,,
1113786,1469908697884,,,,,,,-0.01,0.07,0.99,-2.9,0.1,-0.2,680,0,,,,,,,,,,,,,,,,,
1113806,1469908697804,,,,,,,-0.01,0.06,0.99,-2.9,0.1,-0.3,680,0,,,,,,,,,,,,,,,,,
1113826,1469908697824,,,,,,,-0.01,0.07,0.99,-2.9,0.1,-0.2,700,0,,,,,,,,,,,,,,,,,
1113847,1469908697845,0,214.6,191.7,8,173.8,,-0.01,0.07,0.98,-2.9,0.2,-0.2,700,0,0.0,0,39.540604,-122.332123,0.0,2.803,344.7,8,3,2.2,1,2.5933,12,0.2467,13.7483,13.6533,2
1113866,1469908697864,,,,,,,-0.01,0.07,0.98,-2.9,0.2,-0.3,700,0,,,,,,,,,,,,,,,,,
1113886,1469908697884,,,,,,,-0.01,0.07,0.98,-2.9,0.4,-0.2,700,0,,,,,,,,,,,,,,,,,
1113906,1469908697892,,,,,,,-0.01,0.07,0.98,-2.9,0.4,-0.1,660,0,,,,,,,,,,,,,,,,,
1113926,1469908697912,,,,,,,-0.01,0.07,0.98,-2.9,0.3,-0.1,700,0,,,,,,,,,,,,,,,,,
1113946,1469908697932,,,,7,,,-0.01,0.06,0.98,-2.9,0.3,-0.2,700,0,0.0,0,39.540604,-122.332123,0.0,2.803,344.7,8,3,2.2,1,2.5933,12,0.2467,,13.655,2
1113966,1469908697952,,,,,,,-0.01,0.07,0.98,-2.9,0.2,-0.1,680,0,,,,,,,,,,,,,,,,,
1113986,1469908697972,,,,,,,-0.01,0.07,0.98,-2.9,0.0,-0.1,700,0,,,,,,,,,,,,,,,,,
1114006,1469908698004,,,,,,,-0.01,0.06,0.98,-2.9,-0.0,-0.2,700,0,,,,,,,,,,,,,,,,,
1114026,1469908698024,,,,,,,-0.01,0.07,0.98,-2.9,-0.0,-0.2,700,0,,,,,,,,,,,,,,,,,
1114047,1469908698045,0,214.6,191.7,9,173.6,13.01,-0.0,0.07,0.98,-2.9,-0.0,-0.2,680,0,0.0,0,39.540604,-122.332123,0.0,2.803,344.7,8,3,1.8,1,2.5933,12,0.2467,13.7516,13.6567,2
1114066,1469908698064,,,,,,,-0.01,0.07,0.98,-2.9,-0.0,-0.3,680,0,,,,,,,,,,,,,,,,,
1114086,1469908698084,,,,,,,-0.0,0.08,0.98,-2.9,0.1,-0.2,680,0,,,,,,,,,,,,,,,,,
1114106,1469908698104,,,,,,,-0.01,0.08,0.98,-3.0,0.2,-0.2,680,0,,,,,,,,,,,,,,,,,
1114126,1469908698124,,,,,,,-0.01,0.07,0.98,-2.9,0.1,-0.2,680,0,,,,,,,,,,,,,,,,,
1114146,1469908698144,,,,6,,,-0.01,0.07,0.98,-2.9,0.1,-0.2,680,0,0.0,0,39.540604,-122.332123,0.0,2.803,344.7,8,3,1.8,1,2.5933,12,0.2467,,13.6583,2
1114166,1469908698164,,,,,,,-0.01,0.08,0.98,-3.0,0.1,-0.1,680,0,,,,,,,,,,,,,,,,,
1114186,1469908698184,,,,,,,-0.01,0.07,0.98,-2.9,0.0,-0.2,680,0,,,,,,,,,,,,,,,,,
1114206,1469908698204,,,,,,,-0.01,0.06,0.98,-2.9,0.0,-0.2,680,0,,,,,,,,,,,,,,,,,
1114226,1469908698224,,,,,,,-0.01,0.07,0.99,-2.9,-0.0,-0.2,700,0,,,,,,,,,,,,,,,,,
1114247,1469908698245,0,214.6,192.0,7,173.7,,-0.01,0.07,0.98,-2.9,-0.1,-0.2,660,0,0.0,0,39.540604,-122.332123,0.0,2.803,344.7,8,3,1.8,1,2.5933,12,0.2467,13.7549,13.66,2
1114266,1469908698264,,,,,,,-0.01,0.07,0.98,-2.9,-0.0,-0.3,660,0,,,,,,,,,,,,,,,,,
1114286,1469908698284,,,,,,,-0.01,0.07,0.98,-2.9,0.0,-0.2,680,0,,,,,,,,,,,,,,,,,
1114306,1469908698304,,,,,,,-0.01,0.07,0.98,-2.9,-0.0,-0.2,680,0,,,,,,,,,,,,,,,,,
1114326,1469908698324,,,,,,,-0.01,0.07,0.98,-2.9,-0.0,-0.3,680,0,,,,,,,,,,,,,,,,,
1114346,1469908698344,,,,6,,,-0.0,0.08,0.98,-2.9,0.1,-0.2,680,0,0.0,0,39.540604,-122.332123,0.0,2.803,344.7,8,3,1.8,1,2.5933,12,0.2467,,13.6617,2
1114366,1469908698364,,,,,,,-0.01,0.08,0.98,-2.9,0.1,-0.2,680,0,,,,,,,,,,,,,,,,,
1114386,1469908698384,,,,,,,-0.01,0.07,0.98,-2.9,0.1,-0.2,680,0,,,,,,,,,,,,,,,,,
1114406,1469908698504,,,,,,,-0.01,0.07,0.98,-2.9,0.2,-0.2,680,0,,,,,,,,,,,,,,,,,
1114426,1469908698524,,,,,,,-0.01,0.07,0.98,-2.9,0.1,-0.1,680,0,,,,,,,,,,,,,,,,,
1114447,1469908698545,0,214.6,191.9,8,173.4,,-0.01,0.06,0.98,-2.9,0.0,-0.2,680,0,0.0,0,39.540604,-122.332123,0.0,2.803,344.7,8,3,1.8,1,2.5933,12,0.2467,13.7599,13.665,2
1114466,1469908698564,,,,,,,-0.01,0.06,0.98,-2.9,0.1,-0.2,680,0,,,,,,,,,,,,,,,,,
1114486,1469908698584,,,,,,,-0.0,0.06,0.98,-2.9,0.1,-0.1,680,0,,,,,,,,,,,,,,,,,
1114506,1469908698604,,,,,,,-0.0,0.06,0.98,-2.8,0.1,-0.2,680,0,,,,,,,,,,,,,,,,,
1114526,1469908698624,,,,,,,-0.01,0.06,0.98,-2.9,0.2,-0.2,680,0,,,,,,,,,,,,,,,,,
1114546,1469908698644,,,,8,,,-0.0,0.07,0.98,-2.9,0.2,-0.2,680,0,0.0,0,39.540604,-122.332123,0.0,2.803,344.7,8,3,1.8,1,2.5933,12,0.2467,,13.665,2
1114566,1469908698664,,,,,,,0.0,0.08,0.98,-2.9,0.3,-0.2,680,0,,,,,,,,,,,,,,,,,
1114586,1469908698684,,,,,,,-0.0,0.07,0.98,-2.9,0.3,-0.2,680,0,,,,,,,,,,,,,,,,,
1114606,1469908698600,,,,,,,-0.0,0.08,0.98,-3.0,0.3,-0.1,660,0,,,,,,,,,,,,,,,,,
1114626,1469908698620,,,,,,,-0.0,0.08,0.98,-3.0,0.2,-0.1,680,0,,,,,,,,,,,,,,,,,
1114647,1469908698641,0,213.4,190.6,7,172.4,,-0.01,0.07,0.98,-2.9,0.2,-0.2,680,0,0.0,0,39.540604,-122.332123,0.0,2.803,344.7,8,3,1.8,1,2.5933,12,0.2467,13.7615,13.6667,2
1114666,1469908698660,,,,,,,-0.0,0.08,0.98,-2.9,0.2,-0.1,660,0,,,,,,,,,,,,,,,,,
1114686,1469908698680,,,,,,,-0.0,0.08,0.98,-3.0,0.2,-0.1,680,0,,,,,,,,,,,,,,,,,
1114706,1469908698704,,,,,,,-0.01,0.07,0.98,-2.9,0.2,-0.2,680,0,,,,,,,,,,,,,,,,,
1114726,1469908698724,,,,,,,-0.01,0.07,0.99,-2.9,0.2,-0.2,680,0,,,,,,,,,,,,,,,,,
1114746,1469908698744,,,,7,,,-0.01,0.07,0.98,-3.0,0.1,-0.1,680,0,0.0,0,39.540604,-122.332123,0.0,2.803,344.7,8,3,1.8,1,2.5933,12,0.2467,,13.6683,2
1114766,1469908698764,,,,,,,-0.01,0.07,0.98,-2.9,0.0,-0.2,660,0,,,,,,,,,,,,,,,,,
1114786,1469908698784,,,,,,,-0.01,0.06,0.98,-2.9,0.1,-0.2,660,0,,,,,,,,,,,,,,,,,
1114806,1469908698805,,,,,,,-0.01,0.07,0.98,-3.0,0.0,-0.1,680,0,,,,,,,,,,,,,,,,,
1114826,1469908698825,,,,,,,-0.01,0.07,0.99,-2.9,0.1,-0.2,680,0,,,,,,,,,,,,,,,,,
1114847,1469908698846,0,214.9,191.5,6,173.0,,-0.01,0.06,0.99,-2.9,0.2,-0.2,680,0,0.0,0,39.540604,-122.332123,0.0,2.803,344.7,8,3,1.8,1,2.5933,12,0.2467,13.765,13.67,2
1114866,1469908698865,,,,,,,-0.01,0.07,0.99,-3.0,0.1,-0.1,680,0,,,,,,,,,,,,,,,,,
1114886,1469908698885,,,,,,,-0.0,0.07,0.99,-2.9,0.2,-0.1,680,0,,,,,,,,,,,,,,,,,
1114906,1469908698897,,,,,,,-0.01,0.07,0.99,-2.9,0.2,-0.2,680,0,,,,,,,,,,,,,,,,,
1114926,1469908698917,,,,,,,0.0,0.06,0.99,-2.9,0.2,-0.1,680,0,,,,,,,,,,,,,,,,,
1114946,1469908698937,,,,8,,,-0.0,0.06,0.98,-2.8,0.3,-0.1,680,0,0.0,0,39.540604,-122.332123,0.0,2.803,344.7,8,3,1.8,1,2.5933,12,0.2467,,13.6717,2
1114966,1469908698957,,,,,,,-0.0,0.06,0.99,-2.8,0.2,-0.2,680,0,,,,,,,,,,,,,,,,,
1114986,1469908698977,,,,,,,-0.0,0.07,0.99,-2.8,0.2,-0.1,680,0,,,,,,,,,,,,,,,,,
1115006,1469908699005,,,,,,,0.0,0.07,0.98,-2.8,0.2,-0.1,680,0,,,,,,,,,,,,,,,,,
1115026,1469908699025,,,,,,,-0.0,0.06,0.99,-2.8,0.2,-0.2,680,0,,,,,,,,,,,,,,,,,
1115047,1469908699046,0,214.9,190.6,6,172.2,13.09,0.0,0.07,0.99,-2.8,0.3,-0.2,680,0,0.0,0,39.540604,-122.332123,0.0,2.803,344.7,8,3,1.8,1,2.5933,12,0.2467,13.7683,13.6733,2
1115066,1469908699065,,,,,,,0.0,0.07,0.98,-2.9,0.2,-0.1,680,0,,,,,,,,,,,,,,,,,
1115086,1469908699085,,,,,,,0.01,0.07,0.98,-2.9,0.2,-0.1,680,0,,,,,,,,,,,,,,,,,
1115106,1469908699105,,,,,,,0.01,0.07,0.98,-2.9,0.2,-0.2,680,0,,,,,,,,,,,,,,,,,
1115126,1469908699125,,,,,,,0.01,0.08,0.98,-2.9,0.2,-0.1,680,0,,,,,,,,,,,,,,,,,
1115146,1469908699145,,,,9,,,0.01,0.08,0.98,-2.9,0.2,-0.1,680,0,0.0,0,39.540604,-122.332123,0.0,2.803,344.7,8,3,1.8,1,2.5933,12,0.2467,,13.675,2
1115166,1469908699165,,,,,,,0.01,0.08,0.98,-2.9,0.2,-0.1,680,0,,,,,,,,,,,,,,,,,
1115186,1469908699185,,,,,,,0.01,0.09,0.98,-3.0,0.3,-0.1,680,0,,,,,,,,,,,,,,,,,
1115206,1469908699304,,,,,,,0.01,0.08,0.97,-3.0,0.3,-0.1,700,0,,,,,,,,,,,,,,,,,
1115226,1469908699324,,,,,,,0.01,0.08,0.98,-2.9,0.3,-0.2,700,0,,,,,,,,,,,,,,,,,
1115247,1469908699345,0,213.9,191.0,7,172.4,,0.01,0.09,0.98,-3.0,0.3,-0.1,700,0,0.0,0,39.540604,-122.332123,0.0,2.803,344.7,8,3,1.8,1,2.5933,12,0.2467,13.7733,13.6783,2
1115266,1469908699364,,,,,,,0.01,0.09,0.98,-3.0,0.4,-0.1,700,0,,,,,,,,,,,,,,,,,
1115286,1469908699384,,,,,,,0.01,0.08,0.97,-2.9,0.3,-0.1,680,0,,,,,,,,,,,,,,,,,
1115306,1469908699404,,,,,,,0.01,0.08,0.98,-2.9,0.3,-0.1,680,0,,,,,,,,,,,,,,,,,
1115326,1469908699424,,,,,,,0.01,0.09,0.97,-3.0,0.2,-0.0,680,0,,,,,,,,,,,,,,,,,
1115346,1469908699444,,,,6,,,0.0,0.08,0.98,-3.0,0.1,-0.1,680,0,0.0,0,39.540604,-122.332123,0.0,2.803,344.7,8,3,1.8,1,2.5933,12,0.2467,,13.6783,2
1115366,1469908699464,,,,,,,0.0,0.08,0.98,-3.0,0.2,-0.1,680,0,,,,,,,,,,,,,,,,,
1115386,1469908699484,,,,,,,0.01,0.08,0.98,-3.0,0.1,-0.0,680,0,,,,,,,,,,,,,,,,,
1115406,1469908699405,,,,,,,0.01,0.08,0.98,-3.0,0.2,-0.0,700,0,,,,,,,,,,,,,,,,,
1115426,1469908699425,,,,,,,0.0,0.08,0.98,-2.9,0.2,-0.2,700,0,,,,,,,,,,,,,,,,,
1115447,1469908699446,0,213.8,192.4,6,173.4,,0.01,0.08,0.98,-3.0,0.4,-0.1,700,0,0.0,0,39.540604,-122.332123,0.0,2.803,344.7,8,3,1.8,1,2.5933,12,0.2467,13.775,13.68,2
1115466,1469908699465,,,,,,,0.01,0.08,0.98,-3.0,0.4,-0.1,680,0,,,,,,,,,,,,,,,,,
1115486,1469908699485,,,,,,,-0.0,0.08,0.99,-3.0,0.4,-0.2,700,0,,,,,,,,,,,,,,,,,
1115506,1469908699505,,,,,,,0.0,0.09,0.99,-3.0,0.5,-0.2,700,0,,,,,,,,,,,,,,,,,
1115526,1469908699525,,,,,,,-0.0,0.09,0.99,-3.0,0.4,-0.1,680,0,,,,,,,,,,,,,,,,,
1115546,1469908699545,,,,6,,,-0.0,0.08,0.99,-3.0,0.3,-0.2,700,0,0.0,0,39.540604,-122.332123,0.0,2.803,344.7,8,3,1.8,1,2.5933,12,0.2467,,13.6817,2
1115566,1469908699565,,,,,,,-0.01,0.07,0.98,-2.9,0.2,-0.2,700,0,,,,,,,,,,,,,,,,,
1115586,1469908699585,,,,,,,-0.0,0.08,0.98,-3.0,0.2,-0.1,700,0,,,,,,,,,,,,,,,,,
1115606,1469908699605,,,,,,,-0.0,0.07,0.99,-2.9,0.1,-0.1,700,0,,,,,,,,,,,,,,,,,
1115626,1469908699625,,,,,,,-0.0,0.07,0.99,-2.9,0.1,-0.2,700,0,,,,,,,,,,,,,,,,,
1115647,1469908699646,0,213.2,192.3,6,173.4,,-0.0,0.07,0.98,-2.9,0.2,-0.2,680,0,0.0,0,39.540604,-122.332123,0.0,2.803,344.7,8,3,1.8,1,2.5933,12,0.2467,13.7783,13.6833,2
1115666,1469908699665,,,,,,,-0.0,0.07,0.99,-2.9,0.3,-0.1,700,0,,,,,,,,,,,,,,,,,
1115686,1469908699685,,,,,,,-0.01,0.07,0.99,-2.9,0.3,-0.2,680,0,,,,,,,,,,,,,,,,,
1115706,1469908699703,,,,,,,-0.01,0.08,0.99,-2.9,0.3,-0.1,680,0,,,,,,,,,,,,,,,,,
1115726,1469908699723,,,,,,,-0.01,0.08,0.98,-2.9,0.3,-0.1,700,0,,,,,,,,,,,,,,,,,
1115746,1469908699743,,,,7,,,-0.01,0.07,0.99,-2.9,0.2,-0.2,700,0,0.0,0,39.540604,-122.332123,0.0,2.803,344.7,8,3,1.8,1,2.5933,12,0.2467,,13.685,2
1115766,1469908699763,,,,,,,-0.01,0.07,0.99,-2.9,0.1,-0.2,700,0,,,,,,,,,,,,,,,,,
1115786,1469908699783,,,,,,,-0.01,0.07,0.99,-3.0,0.1,-0.1,680,0,,,,,,,,,,,,,,,,,
1115806,1469908699805,,,,,,,-0.01,0.07,0.99,-2.9,0.1,-0.1,680,0,,,,,,,,,,,,,,,,,
1115826,1469908699825,,,,,,,-0.01,0.07,0.98,-2.9,0.1,-0.2,680,0,,,,,,,,,,,,,,,,,
1115847,1469908699846,0,213.3,192.8,7,173.5,,-0.0,0.07,0.99,-2.9,0.2,-0.1,680,0,0.0,0,39.540604,-122.332123,0.0,2.803,344.7,8,3,1.8,1,2.5933,12,0.2467,13.7816,13.6867,2
1115866,1469908699865,,,,,,,-0.0,0.07,0.98,-2.9,0.1,-0.1,680,0,,,,,,,,,,,,,,,,,
1115886,1469908699885,,,,,,,-0.0,0.06,0.98,-2.8,0.2,-0.2,680,0,,,,,,,,,,,,,,,,,
1115906,1469908699895,,,,,,,-0.0,0.07,0.98,-2.9,0.3,-0.2,680,0,,,,,,,,,,,,,,,,,
1115926,1469908699915,,,,,,,-0.0,0.07,0.98,-2.9,0.3,-0.2,680,0,,,,,,,,,,,,,,,,,
1115946,1469908699935,,,,8,,,-0.01,0.06,0.98,-2.9,0.3,-0.2,680,0,0.0,0,39.540604,-122.332123,0.0,2.803,344.7,8,3,1.8,1,2.5933,12,0.2467,,13.6883,2
1115966,1469908699955,,,,,,,-0.01,0.07,0.98,-2.9,0.3,-0.2,680,0,,,,,,,,,,,,,,,,,
1115986,1469908699975,,,,,,,-0.0,0.07,0.98,-2.9,0.2,-0.1,680,0,,,,,,,,,,,,,,,,,
1116006,1469908700102,,,,,,,-0.0,0.06,0.98,-2.9,0.1,-0.2,680,0,,,,,,,,,,,,,,,,,
1116026,1469908700122,,,,,,,-0.0,0.06,0.98,-2.9,0.2,-0.2,680,0,,,,,,,,,,,,,,,,,
1116047,1469908700143,0,216.0,191.5,8,172.3,13.02,0.0,0.07,0.97,-2.9,0.2,-0.1,660,0,0.0,0,39.540604,-122.332123,0.0,2.803,344.7,8,3,1.8,1,2.5933,12,0.2467,13.7866,13.6917,2
1116066,1469908700162,,,,,,,0.0,0.07,0.98,-2.9,0.2,-0.1,680,0,,,,,,,,,,,,,,,,,
1116086,1469908700182,,,,,,,-0.0,0.07,0.98,-2.9,0.2,-0.2,680,0,,,,,,,,,,,,,,,,,
1116106,1469908700202,,,,,,,-0.0,0.08,0.98,-3.0,0.3,-0.1,680,0,,,,,,,,,,,,,,,,,
1116126,1469908700222,,,,,,,0.0,0.08,0.98,-2.9,0.2,-0.1,680,0,,,,,,,,,,,,,,,,,
1116146,1469908700242,,,,7,,,-0.01,0.07,0.99,-2.9,0.2,-0.2,680,0,0.0,0,39.540604,-122.332123,0.0,2.803,344.7,8,3,1.8,1,2.5933,12,0.2467,,13.6917,2
1116166,1469908700262,,,,,,,-0.01,0.08,0.98,-2.9,0.3,-0.1,680,0,,,,,,,,,,,,,,,,,
1116186,1469908700282,,,,,,,-0.01,0.07,0.98,-2.9,0.3,-0.1,680,0,,,,,,,,,,,,,,,,,
1116206,1469908700205,,,,,,,-0.01,0.07,0.98,-2.9,0.2,-0.2,660,0,,,,,,,,,,,,,,,,,
1116226,1469908700225,,,,,,,-0.01,0.07,0.98,-2.9,0.3,-0.1,660,0,,,,,,,,,,,,,,,,,
1116247,1469908700246,0,215.5,189.8,7,171.2,,-0.01,0.08,0.98,-2.9,0.3,-0.1,680,0,0.0,0,39.540604,-122.332123,0.0,2.803,344.7,8,3,1.8,1,2.5933,12,0.2467,13.7883,13.6933,2
1116266,1469908700265,,,,,,,-0.01,0.07,0.98,-2.9,0.2,-0.2,680,0,,,,,,,,,,,,,,,,,
1116286,1469908700285,,,,,,,-0.01,0.07,0.98,-2.9,0.3,-0.2,680,0,,,,,,,,,,,,,,,,,
1116306,1469908700305,,,,,,,-0.01,0.08,0.98,-3.0,0.2,-0.2,680,0,,,,,,,,,,,,,,,,,
1116326,1469908700325,,,,,,,-0.01,0.08,0.99,-3.0,0.2,-0.2,660,0,,,,,,,,,,,,,,,,,
1116346,1469908700345,,,,7,,,-0.01,0.07,0.99,-3.0,0.2,-0.2,660,20,0.0,0,39.540604,-122.332123,0.0,2.803,344.7,8,3,1.8,1,2.5933,12,0.2467,,13.695,2
1116366,1469908700365,,,,,,,-0.0,0.07,0.99,-3.0,0.2,-0.1,680,20,,,,,,,,,,,,,,,,,
1116386,1469908700385,,,,,,,-0.01,0.07,0.99,-3.0,0.2,-0.2,660,20,,,,,,,,,,,,,,,,,
1116406,1469908700405,,,,,,,-0.01,0.07,0.99,-3.0,0.2,-0.2,660,20,,,,,,,,,,,,,,,,,
1116426,1469908700425,,,,,,,-0.0,0.07,0.99,-3.0,0.2,-0.2,680,20,,,,,,,,,,,,,,,,,
1116447,1469908700446,0,214.2,190.9,8,172.2,,-0.0,0.07,0.98,-3.0,0.2,-0.2,680,20,34.0,0,39.540604,-122.332123,0.0,2.803,344.7,8,3,1.8,1,2.5933,12,0.2467,13.7916,13.6967,2
1116466,1469908700465,,,,,,,-0.0,0.07,0.99,-3.0,0.2,-0.2,680,12,,,,,,,,,,,,,,,,,
1116486,1469908700485,,,,,,,0.0,0.07,0.99,-3.0,0.1,-0.1,680,12,,,,,,,,,,,,,,,,,
1116506,1469908700505,,,,,,,0.0,0.07,0.98,-3.0,0.1,-0.1,660,12,,,,,,,,,,,,,,,,,
1116526,1469908700525,,,,,,,-0.0,0.07,0.99,-3.0,0.2,-0.2,660,12,,,,,,,,,,,,,,,,,
1116546,1469908700545,,,,8,,,0.0,0.07,0.99,-3.0,0.2,-0.2,680,12,56.667,0,39.540604,-122.332123,0.0,2.803,344.7,8,3,1.8,1,2.5933,12,0.2467,,13.6983,2
1116566,1469908700565,,,,,,,-0.0,0.07,0.98,-3.0,0.1,-0.2,660,12,,,,,,,,,,,,,,,,,
1116586,1469908700585,,,,,,,-0.0,0.06,0.98,-3.0,0.1,-0.3,660,12,,,,,,,,,,,,,,,,,
1116606,1469908700605,,,,,,,0.0,0.07,0.98,-3.0,0.2,-0.2,680,12,,,,,,,,,,,,,,,,,
1116626,1469908700625,,,,,,,0.0,0.08,0.98,-3.0,0.2,-0.2,680,12,,,,,,,,,,,,,,,,,
1116647,1469908700646,0,214.4,191.1,7,172.4,,0.0,0.07,0.98,-3.0,0.2,-0.2,660,12,55.0,0,39.540604,-122.332123,0.0,2.803,344.7,8,3,1.8,1,2.5933,12,0.2467,13.795,13.7,2
1116666,1469908700665,,,,,,,0.0,0.07,0.99,-3.0,0.2,-0.2,660,12,,,,,,,,,,,,,,,,,
1116686,1469908700685,,,,,,,0.0,0.08,0.98,-3.0,0.2,-0.1,660,13,,,,,,,,,,,,,,,,,
1116706,1469908700704,,,,,,,-0.0,0.07,0.99,-3.0,0.2,-0.2,680,13,,,,,,,,,,,,,,,,,
1116726,1469908700724,,,,,,,0.0,0.08,0.99,-3.0,0.2,-0.2,680,13,,,,,,,,,,,,,,,,,
1116746,1469908700744,,,,5,,,0.0,0.08,0.99,-3.0,0.1,-0.1,660,13,50.769,0,39.540604,-122.332123,0.0,2.803,344.7,8,3,1.8,1,2.5933,12,0.2467,,13.7017,2
1116766,1469908700764,,,,,,,0.0,0.08,0.98,-3.0,0.0,-0.2,680,13,,,,,,,,,,,,,,,,,
1116786,1469908700784,,,,,,,0.0,0.08,0.99,-3.0,0.1,-0.1,680,15,,,,,,,,,,,,,,,,,
1116806,1469908700904,,,,,,,0.01,0.08,0.99,-3.0,0.1,-0.1,680,15,,,,,,,,,,,,,,,,,
1116826,1469908700924,,,,,,,0.0,0.07,0.98,-3.0,0.1,-0.1,660,15,,,,,,,,,,,,,,,,,
1116847,1469908700945,0,213.7,192.1,10,173.0,,0.0,0.07,0.99,-3.0,0.2,-0.1,660,15,45.333,0,39.540604,-122.332123,0.0,2.803,344.7,8,3,1.8,1,2.5933,12,0.2467,13.7999,13.705,2
1116866,1469908700964,,,,,,,0.01,0.08,0.98,-3.1,0.2,-0.0,660,15,,,,,,,,,,,,,,,,,
1116886,1469908700984,,,,,,,0.0,0.07,0.98,-3.0,0.1,-0.1,680,15,,,,,,,,,,,,,,,,,
1116906,1469908701004,,,,,,,0.01,0.07,0.99,-3.0,0.2,-0.1,680,15,,,,,,,,,,,,,,,,,
1116926,1469908701024,,,,,,,0.01,0.08,0.98,-3.1,0.2,-0.0,660,15,,,,,,,,,,,,,,,,,
1116946,1469908701044,,,,6,,,0.01,0.07,0.98,-3.0,0.2,-0.1,680,15,44.0,0,39.540604,-122.332123,0.0,2.803,344.7,8,3,1.8,1,2.5933,12,0.2467,,13.705,2
1116966,1469908701064,,,,,,,0.01,0.07,0.99,-3.0,0.3,-0.1,680,15,,,,,,,,,,,,,,,,,
1116986,1469908701084,,,,,,,0.01,0.08,0.99,-3.1,0.3,-0.1,680,15,,,,,,,,,,,,,,,,,
1117006,1469908701005,,,,,,,0.01,0.07,0.98,-3.0,0.3,-0.1,660,15,,,,,,,,,,,,,,,,,
1117026,1469908701025,,,,,,,0.0,0.07,0.98,-3.0,0.2,-0.2,660,15,,,,,,,,,,,,,,,,,
1117047,1469908701046,0,214.7,190.4,6,171.6,13.14,0.01,0.07,0.99,-3.0,0.2,-0.1,660,16,45.333,0,39.540604,-122.332123,0.0,2.803,344.7,8,3,1.8,1,2.5933,12,0.2467,13.8016,13.7067,2
1117066,1469908701065,,,,,,,0.01,0.07,0.98,-3.0,0.1,-0.1,660,16,,,,,,,,,,,,,,,,,
1117086,1469908701085,,,,,,,-0.0,0.07,0.98,-2.9,0.2,-0.2,660,16,,,,,,,,,,,,,,,,,
1117106,1469908701105,,,,,,,0.0,0.08,0.98,-3.0,0.2,-0.1,660,16,,,,,,,,,,,,,,,,,
1117126,1469908701125,,,,,,,0.0,0.08,0.98,-3.0,0.2,-0.1,680,18,,,,,,,,,,,,,,,,,
1117146,1469908701145,,,,7,,,-0.0,0.07,0.98,-2.9,0.1,-0.2,660,18,41.25,0,39.540604,-122.332123,0.0,2.803,344.7,8,3,1.8,1,2.5933,12,0.2467,,13.7083,2
1117166,1469908701165,,,,,,,0.0,0.07,0.98,-2.9,0.1,-0.2,660,18,,,,,,,,,,,,,,,,,
1117186,1469908701185,,,,,,,0.0,0.08,0.97,-3.0,0.1,-0.1,680,18,,,,,,,,,,,,,,,,,
1117206,1469908701204,,,,,,,-0.0,0.07,0.97,-2.9,0.0,-0.2,660,18,,,,,,,,,,,,,,,,,
1117226,1469908701224,,,,,,,-0.0,0.07,0.98,-3.0,0.0,-0.2,660,18,,,,,,,,,,,,,,,,,
1117247,1469908701245,0,214.4,191.0,9,172.0,,-0.0,0.08,0.98,-3.0,-0.0,-0.2,680,18,37.778,0,39.540604,-122.332123,0.0,2.803,344.7,8,3,1.8,1,2.5933,12,0.2467,13.8049,13.71,2
1117266,1469908701264,,,,,,,-0.0,0.07,0.97,-3.0,-0.1,-0.2,660,18,,,,,,,,,,,,,,,,,
1117286,1469908701284,,,,,,,-0.0,0.07,0.98,-3.0,-0.0,-0.2,660,20,,,,,,,,,,,,,,,,,
1117306,1469908701304,,,,,,,-0.0,0.08,0.98,-3.0,-0.0,-0.1,680,20,,,,,,,,,,,,,,,,,
1117326,1469908701324,,,,,,,-0.0,0.07,0.98,-3.0,-0.1,-0.1,680,20,,,,,,,,,,,,,,,,,
1117346,1469908701344,,,,7,,,-0.0,0.07,0.98,-3.0,0.0,-0.2,680,20,33.0,0,39.540604,-122.332123,0.0,2.803,344.7,8,3,1.8,1,2.5933,12,0.2467,,13.7117,2
1117366,1469908701364,,,,,,,0.0,0.08,0.98,-3.0,0.0,-0.1,680,20,,,,,,,,,,,,,,,,,
1117386,1469908701384,,,,,,,-0.01,0.08,1.0,-2.9,0.2,-0.1,660,20,,,,,,,,,,,,,,,,,
1117406,1469908701404,,,,,,,-0.02,0.08,1.0,-3.0,0.2,-0.2,660,20,,,,,,,,,,,,,,,,,
1117426,1469908701424,,,,,,,-0.02,0.08,0.99,-3.1,0.2,-0.1,680,21,,,,,,,,,,,,,,,,,
1117447,1469908701445,0,213.6,189.8,9,172.9,,-0.02,0.07,0.99,-3.0,0.2,-0.2,680,21,34.0,0,39.540604,-122.332123,0.0,2.803,344.7,8,3,1.8,1,2.5933,12,0.2467,13.8083,13.7133,2
1117466,1469908701464,,,,,,,-0.03,0.07,0.99,-3.0,0.2,-0.3,680,21,,,,,,,,,,,,,,,,,
1117486,1469908701484,,,,,,,-0.03,0.08,0.99,-3.0,0.3,-0.2,680,21,,,,,,,,,,,,,,,,,
1117506,1469908701504,,,,,,,-0.03,0.07,0.98,-3.0,0.2,-0.2,680,21,,,,,,,,,,,,,,,,,
1117526,1469908701524,,,,,,,-0.03,0.07,0.99,-3.0,0.2,-0.2,680,21,,,,,,,,,,,,,,,,,
1117546,1469908701544,,,,6,,,-0.03,0.07,0.99,-3.1,0.3,-0.1,680,21,32.381,0,39.540604,-122.332123,0.0,2.803,344.7,8,3,1.8,1,2.5933,12,0.2467,,13.715,2
1117566,1469908701564,,,,,,,-0.04,0.07,0.98,-3.1,0.2,-0.1,680,21,,,,,,,,,,,,,,,,,
1117586,1469908701584,,,,,,,-0.05,0.07,0.98,-3.0,0.3,-0.3,680,21,,,,,,,,,,,,,,,,,
1117606,1469908701704,,,,,,,-0.06,0.07,0.98,-3.0,0.4,-0.4,680,15,,,,,,,,,,,,,,,,,
1117626,1469908701724,,,,,,,-0.06,0.08,0.98,-3.0,0.4,-0.3,680,15,,,,,,,,,,,,,,,,,
1117647,1469908701745,0,214.5,190.8,7,171.7,,-0.07,0.07,0.99,-3.0,0.4,-0.4,700,15,32.381,0,39.540604,-122.332123,0.0,2.803,344.7,8,3,1.8,1,2.5933,12,0.2467,13.8133,13.7183,2
1117666,1469908701764,,,,,,,-0.08,0.07,0.99,-3.0,0.4,-0.4,700,15,,,,,,,,,,,,,,,,,
1117686,1469908701784,,,,,,,-0.07,0.07,0.98,-3.0,0.3,-0.3,700,1538461,,,,,,,,,,,,,,,,,
1117706,1469908701804,,,,,,,-0.06,0.07,0.98,-3.0,0.3,-0.3,680,0,,,,,,,,,,,,,,,,,
1117726,1469908701824,,,,,,,-0.06,0.06,0.98,-2.9,0.2,-0.4,680,0,,,,,,,,,,,,,,,,,
1117746,1469908701844,,,,6,,,-0.04,0.06,0.98,-2.9,0.2,-0.3,680,0,46.667,0,39.540604,-122.332123,0.0,2.803,344.7,8,3,1.8,1,2.5933,12,0.2467,,13.7183,2
1117766,1469908701864,,,,,,,-0.03,0.06,0.97,-2.9,0.1,-0.3,680,0,,,,,,,,,,,,,,,,,
1117786,1469908701884,,,,,,,-0.03,0.06,0.97,-2.8,0.0,-0.3,680,0,,,,,,,,,,,,,,,,,
1117806,1469908701804,,,,,,,-0.02,0.07,0.97,-2.8,0.1,-0.2,680,0,,,,,,,,,,,,,,,,,
1117826,1469908701824,,,,,,,-0.01,0.07,0.98,-2.9,0.1,-0.2,680,0,,,,,,,,,,,,,,,,,
1117847,1469908701845,0,215.3,191.6,9,171.3,,-0.01,0.06,0.98,-2.8,0.1,-0.2,700,0,0.0,0,39.540604,-122.332123,0.0,2.803,344.7,8,3,1.8,1,2.5933,12,0.2467,13.815,13.72,2
1117866,1469908701864,,,,,,,-0.01,0.06,0.99,-2.9,0.1,-0.3,700,0,,,,,,,,,,,,,,,,,
