"Interval"|"ms"|0|0|1,"Utc"|"ms"|0|0|1,"FuelLevel"|"F"|0|100|5,"OilTemp"|"F"|0.0|300.0|5,"Coolant"|"F"|0.0|300.0|5,"OilPress"|"PSI"|0|150|10,"EngineTemp"|"F"|0.0|300.0|5,"Battery"|"Volts"|0.0|20.0|1,"AccelX"|"G"|-3.0|3.0|50,"AccelY"|"G"|-3.0|3.0|50,"AccelZ"|"G"|-3.0|3.0|50,"Yaw"|"Deg/Sec"|-300.0|300.0|50,"Pitch"|"Deg/Sec"|-300.0|300.0|50,"Roll"|"Deg/Sec"|-300.0|300.0|50,"RPM"|""|0|10000|50,"Driveshaft"|"RPM"|0|5000|50,"GearRatio"|""|-5.0|5.0|10,"Gear"|""|-1|5|10,"Latitude"|"Degrees"|-180.0|180.0|10,"Longitude"|"Degrees"|-180.0|180.0|10,"Speed"|"MPH"|0.0|150.0|10,"Distance"|"Miles"|0.0|0.0|10,"Altitude"|"Feet"|0.0|4000.0|10,"GPSSats"|""|0|20|10,"GPSQual"|""|0|5|10,"GPSDOP"|""|0.0|20.0|10,"LapCount"|""|0|0|10,"LapTime"|"Min"|0.0|0.0|10,"Sector"|""|0|0|10,"SectorTime"|"Min"|0.0|0.0|10,"PredTime"|"Min"|0.0|0.0|5,"ElapsedTime"|"Min"|0.0|0.0|10,"CurrentLap"|""|0|0|10
5086,1469909320101,,,,,,,-0.02,-0.25,0.9,1.6,0.6,0.4,3160,3164,,,,,,,,,,,,,,,,,
5106,1469909320121,,,,,,,-0.03,-0.23,0.98,1.5,1.4,0.8,3160,3190,,,,,,,,,,,,,,,,,
5126,1469909320141,,,,,,,-0.05,-0.2,1.07,1.1,2.3,1.1,3220,3218,,,,,,,,,,,,,,,,,
5146,1469909320161,,,,41,,,-0.1,-0.2,1.09,0.8,2.4,1.3,3220,3218,0.971,4,39.541401,-122.335785,54.3,0.0,374.5,9,2,1.4,0,0.0,-1,0.0,,0.0,0
5166,1469909320181,,,,,,,-0.11,-0.2,1.06,0.7,1.6,1.4,3180,3244,,,,,,,,,,,,,,,,,
5186,1469909320110,,,,,,,-0.08,-0.21,1.06,0.7,-0.4,1.8,3220,3230,,,,,,,,,,,,,,,,,
5206,1469909320130,,,,,,,-0.06,-0.23,1.08,0.9,-0.3,2.0,3220,3218,,,,,,,,,,,,,,,,,
5226,1469909320150,,,,,,,-0.05,-0.18,1.09,0.8,1.0,1.8,3260,3204,,,,,,,,,,,,,,,,,
5246,1469909320170,0,232.7,186.6,40,188.4,,-0.03,-0.16,1.07,0.7,1.8,1.5,3220,3244,0.966,4,39.541378,-122.33577,54.85,0.002,373.1,9,2,1.8,0,0.0,-1,0.0,0.0,0.0,0
5266,1469909320190,,,,,,,-0.01,-0.16,1.01,0.6,1.5,1.5,3240,3230,,,,,,,,,,,,,,,,,
5286,1469909320210,,,,,,,-0.04,-0.16,0.97,0.7,1.6,1.5,3300,3286,,,,,,,,,,,,,,,,,
5306,1469909320230,,,,,,,-0.08,-0.19,0.98,0.8,0.8,1.2,3240,3272,,,,,,,,,,,,,,,,,
5326,1469909320250,,,,,,,-0.11,-0.2,1.06,1.0,1.4,0.7,3240,3272,,,,,,,,,,,,,,,,,
5346,1469909320270,,,,49,,,-0.09,-0.2,1.09,1.2,0.9,0.5,3220,3258,1.011,4,39.541359,-122.33577,55.5,0.003,371.5,9,2,1.8,0,0.0,-1,0.0,,0.0,0
5366,1469909320290,,,,,,,-0.07,-0.21,1.12,1.4,0.8,0.4,3180,3286,,,,,,,,,,,,,,,,,
5386,1469909320307,,,,,,,-0.07,-0.18,1.2,1.4,2.3,0.2,3260,3258,,,,,,,,,,,,,,,,,
5406,1469909320327,,,,,,,-0.07,-0.19,1.23,1.4,2.8,0.1,3220,3286,,,,,,,,,,,,,,,,,
5426,1469909320347,,,,,,,-0.08,-0.19,1.16,1.6,1.9,0.1,3300,3329,,,,,,,,,,,,,,,,,
5446,1469909320367,0,232.7,186.6,63,188.5,,-0.08,-0.15,1.1,1.5,2.6,0.0,3300,3300,1.002,4,39.54134,-122.335762,56.05,0.004,370.1,9,2,1.8,0,0.0,-1,0.0,0.0,0.0,0
5466,1469909320387,,,,,,,-0.07,-0.18,1.08,1.6,2.9,-0.3,3300,3300,,,,,,,,,,,,,,,,,
5486,1469909320409,,,,,,,-0.08,-0.23,1.02,1.9,3.5,-0.4,3320,3286,,,,,,,,,,,,,,,,,
5506,1469909320429,,,,,,,-0.09,-0.19,0.99,2.0,3.1,-0.5,3300,3315,,,,,,,,,,,,,,,,,
5526,1469909320449,,,,,,,-0.11,-0.19,1.01,2.0,2.7,-0.7,3260,3343,,,,,,,,,,,,,,,,,
5546,1469909320469,,,,54,,,-0.11,-0.21,1.04,2.2,2.2,-0.7,3340,3329,1.006,4,39.541317,-122.335762,56.55,0.006,368.6,9,2,1.8,0,0.0,-1,0.0,,0.0,0
5566,1469909320489,,,,,,,-0.09,-0.21,1.02,2.3,2.5,-0.4,3380,3329,,,,,,,,,,,,,,,,,
5586,1469909320510,,,,,,,-0.09,-0.23,1.07,2.2,3.1,-0.0,3300,3315,,,,,,,,,,,,,,,,,
5606,1469909320530,,,,,,,-0.09,-0.26,1.01,2.3,3.0,0.0,3360,3343,,,,,,,,,,,,,,,,,
5626,1469909320550,,,,,,,-0.09,-0.22,0.93,2.3,2.2,-0.0,3360,3358,,,,,,,,,,,,,,,,,
5646,1469909320570,0,232.4,186.4,31,188.4,,-0.09,-0.22,0.95,2.3,2.7,-0.2,3320,3372,0.991,4,39.541298,-122.335747,57.07,0.008,367.2,9,2,1.8,0,0.0,-1,0.0,0.0,0.0,0
5666,1469909320590,,,,,,,-0.08,-0.27,0.9,2.3,2.1,-0.4,3360,3343,,,,,,,,,,,,,,,,,
5686,1469909320609,,,,,,,-0.1,-0.24,0.88,2.5,2.1,-0.7,3320,3387,,,,,,,,,,,,,,,,,
5706,1469909320629,,,,,,,-0.13,-0.24,0.91,2.4,1.9,-0.8,3380,3387,,,,,,,,,,,,,,,,,
5726,1469909320649,,,,,,,-0.13,-0.27,0.88,2.6,1.2,-0.8,3400,3387,,,,,,,,,,,,,,,,,
5746,1469909320669,,,,86,,,-0.13,-0.23,0.94,2.6,2.0,-0.6,3320,3372,1.007,4,39.541275,-122.335747,57.57,0.009,366.0,9,2,1.8,0,0.0,-1,0.0,,0.0,0
5766,1469909320689,,,,,,,-0.11,-0.21,0.96,2.5,2.7,-0.6,3340,3403,,,,,,,,,,,,,,,,,
5786,1469909320809,,,,,,,-0.1,-0.24,0.94,2.6,2.0,-0.4,3400,3418,,,,,,,,,,,,,,,,,
5806,1469909320829,,,,,,,-0.11,-0.19,0.92,2.6,2.8,-0.2,3380,3418,,,,,,,,,,,,,,,,,
5826,1469909320849,,,,,,,-0.09,-0.19,0.93,2.5,2.8,-0.3,3400,3387,,,,,,,,,,,,,,,,,
5846,1469909320869,0,232.6,186.6,47,188.4,,-0.1,-0.21,0.9,2.5,2.5,-0.1,3320,3433,0.989,4,39.541229,-122.335732,58.61,0.013,363.5,9,2,1.8,0,0.0,-1,0.0,0.0,0.0,0
5866,1469909320889,,,,,,,-0.11,-0.23,0.95,2.5,2.4,-0.1,3360,3418,,,,,,,,,,,,,,,,,
5886,1469909320909,,,,,,,-0.08,-0.27,0.93,2.5,1.2,0.0,3380,3387,,,,,,,,,,,,,,,,,
5906,1469909320929,,,,,,,-0.09,-0.29,1.0,2.6,1.4,0.0,3380,3387,,,,,,,,,,,,,,,,,
5926,1469909320949,,,,,,,-0.08,-0.3,1.01,2.5,1.5,0.0,3360,3464,,,,,,,,,,,,,,,,,
5946,1469909320969,,,,68,,,-0.07,-0.29,0.97,2.6,1.8,0.3,3440,3464,1.005,4,39.541229,-122.335732,58.61,0.013,363.5,9,2,1.8,0,0.0,-1,0.0,,0.0,0
5966,1469909320989,,,,,,,-0.06,-0.28,0.95,2.6,2.4,0.1,3500,3433,,,,,,,,,,,,,,,,,
5986,1469909320904,,,,,,,-0.07,-0.33,0.92,2.9,2.5,-0.1,3480,3449,,,,,,,,,,,,,,,,,
6006,1469909320924,,,,,,,-0.08,-0.37,0.96,3.1,2.9,-0.2,3480,3433,,,,,,,,,,,,,,,,,
6026,1469909320944,,,,,,,-0.09,-0.36,0.95,3.3,2.3,-0.2,3420,3464,,,,,,,,,,,,,,,,,
6046,1469909320964,0,232.1,186.2,51,188.1,13.74,-0.08,-0.36,1.04,3.5,2.3,-0.3,3420,3449,0.99,4,39.541206,-122.335716,58.93,0.014,362.1,9,2,1.8,0,0.0,-1,0.0,0.0,0.0,0
6066,1469909320984,,,,,,,-0.06,-0.4,1.01,3.5,2.4,-0.5,3440,3480,,,,,,,,,,,,,,,,,
6086,1469909321009,,,,,,,-0.01,-0.39,0.95,3.6,1.9,-0.4,3480,3480,,,,,,,,,,,,,,,,,
6106,1469909321029,,,,,,,-0.0,-0.36,0.93,3.5,2.5,-0.6,3480,3449,,,,,,,,,,,,,,,,,
6126,1469909321049,,,,,,,-0.02,-0.33,0.92,3.5,1.7,-0.6,3500,3495,,,,,,,,,,,,,,,,,
6146,1469909321069,,,,57,,,-0.05,-0.34,0.98,3.4,1.2,-0.5,3480,3495,1.0,4,39.54118,-122.335716,59.58,0.016,360.9,9,2,1.8,0,0.0,-1,0.0,,0.0,0
6166,1469909321089,,,,,,,-0.06,-0.36,0.96,3.5,0.9,-0.3,3440,3480,,,,,,,,,,,,,,,,,
6186,1469909321109,,,,,,,-0.04,-0.38,1.02,3.7,1.4,-0.1,3400,3495,,,,,,,,,,,,,,,,,
6206,1469909321129,,,,,,,-0.04,-0.35,1.02,3.9,1.5,-0.0,3500,3512,,,,,,,,,,,,,,,,,
6226,1469909321149,,,,,,,-0.04,-0.34,1.05,4.0,2.6,-0.1,3520,3480,,,,,,,,,,,,,,,,,
6246,1469909321169,0,232.6,187.2,65,189.2,,-0.05,-0.32,0.98,4.1,2.8,-0.2,3440,3495,1.002,4,39.541161,-122.335716,60.02,0.017,359.6,9,2,1.8,0,0.0,-1,0.0,0.0,0.0,0
6266,1469909321189,,,,,,,-0.07,-0.37,1.05,4.2,2.7,-0.3,3520,3512,,,,,,,,,,,,,,,,,
6286,1469909321210,,,,,,,-0.08,-0.34,1.04,4.4,2.1,-0.2,3420,3480,,,,,,,,,,,,,,,,,
6306,1469909321230,,,,,,,-0.05,-0.34,1.08,4.3,2.7,0.0,3480,3544,,,,,,,,,,,,,,,,,
6326,1469909321250,,,,,,,-0.03,-0.34,1.04,4.2,2.4,0.2,3460,3544,,,,,,,,,,,,,,,,,
6346,1469909321270,,,,76,,,-0.01,-0.33,1.01,4.1,2.5,0.1,3500,3495,1.007,4,39.541138,-122.335709,60.54,0.019,358.5,9,2,1.8,0,0.0,-1,0.0,,0.0,0
6366,1469909321290,,,,,,,-0.01,-0.31,1.02,4.1,1.8,0.1,3540,3560,,,,,,,,,,,,,,,,,
6386,1469909321309,,,,,,,-0.02,-0.32,1.02,3.9,1.7,0.3,3500,3527,,,,,,,,,,,,,,,,,
6406,1469909321329,,,,,,,-0.04,-0.33,1.07,4.1,1.6,0.3,3600,3512,,,,,,,,,,,,,,,,,
6426,1469909321349,,,,,,,-0.03,-0.32,1.13,4.2,1.9,0.3,3500,3576,,,,,,,,,,,,,,,,,
6446,1469909321369,0,232.5,185.9,67,187.7,,-0.03,-0.3,1.15,4.2,3.0,0.6,3480,3527,1.004,4,39.541111,-122.335709,60.74,0.021,357.3,9,2,1.8,0,0.0,-1,0.0,0.0,0.0,0
6466,1469909321389,,,,,,,-0.05,-0.28,1.11,4.2,3.4,0.5,3500,3560,,,,,,,,,,,,,,,,,
6486,1469909321410,,,,,,,-0.07,-0.29,1.08,4.3,4.1,0.2,3560,3560,,,,,,,,,,,,,,,,,
6506,1469909321430,,,,,,,-0.06,-0.3,1.1,4.3,2.8,0.0,3540,3560,,,,,,,,,,,,,,,,,
6526,1469909321450,,,,,,,-0.04,-0.33,1.17,4.3,2.7,0.1,3580,3593,,,,,,,,,,,,,,,,,
6546,1469909321470,,,,42,,,-0.02,-0.35,1.13,4.4,2.2,0.1,3520,3576,0.979,4,39.541088,-122.335709,61.12,0.023,356.3,9,2,1.8,0,0.0,-1,0.0,,0.0,0
6566,1469909321490,,,,,,,-0.01,-0.34,1.14,4.3,3.0,0.1,3520,3560,,,,,,,,,,,,,,,,,
6586,1469909321609,,,,,,,-0.03,-0.35,1.1,4.4,3.0,0.1,3520,3610,,,,,,,,,,,,,,,,,
6606,1469909321629,,,,,,,-0.03,-0.35,1.15,4.2,2.5,0.1,3600,3593,,,,,,,,,,,,,,,,,
6626,1469909321649,,,,,,,-0.04,-0.33,1.16,4.0,2.5,0.1,3600,3610,,,,,,,,,,,,,,,,,
6646,1469909321669,0,232.0,185.9,45,187.8,,-0.01,-0.32,1.11,3.9,2.0,0.2,3620,3610,1.003,4,39.541042,-122.335693,61.96,0.026,354.3,9,2,1.8,0,0.0,-1,0.0,0.0,0.0,0
6666,1469909321689,,,,,,,-0.02,-0.33,1.17,3.7,3.4,0.3,3580,3576,,,,,,,,,,,,,,,,,
6686,1469909321709,,,,,,,-0.04,-0.33,1.11,3.7,3.5,0.2,3540,3593,,,,,,,,,,,,,,,,,
6706,1469909321729,,,,,,,-0.08,-0.31,1.12,3.5,3.7,0.0,3580,3593,,,,,,,,,,,,,,,,,
6726,1469909321749,,,,,,,-0.08,-0.34,1.11,3.4,3.3,0.4,3640,3593,,,,,,,,,,,,,,,,,
6746,1469909321769,,,,56,,,-0.07,-0.35,1.12,3.3,2.9,0.7,3540,3593,0.998,4,39.541042,-122.335693,61.96,0.026,354.3,9,2,1.8,0,0.0,-1,0.0,,0.0,0
6766,1469909321789,,,,,,,-0.08,-0.33,1.13,3.2,4.0,0.7,3560,3593,,,,,,,,,,,,,,,,,
6786,1469909321709,,,,,,,-0.07,-0.36,1.06,3.1,3.6,0.8,3640,3627,,,,,,,,,,,,,,,,,
6806,1469909321729,,,,,,,-0.09,-0.38,1.07,3.1,2.5,0.6,3640,3627,,,,,,,,,,,,,,,,,
6826,1469909321749,,,,,,,-0.08,-0.36,1.07,3.1,1.8,0.8,3580,3627,,,,,,,,,,,,,,,,,
6846,1469909321769,0,232.9,187.0,42,188.9,,-0.05,-0.36,1.04,3.0,1.0,1.0,3620,3644,0.972,4,39.541016,-122.335693,62.38,0.028,353.5,9,2,1.8,0,0.0,-1,0.0,0.0,0.0,0
6866,1469909321789,,,,,,,-0.06,-0.36,1.09,3.1,1.3,1.1,3660,3627,,,,,,,,,,,,,,,,,
6886,1469909321810,,,,,,,-0.1,-0.32,1.07,3.1,1.3,0.9,3640,3644,,,,,,,,,,,,,,,,,
6906,1469909321830,,,,,,,-0.09,-0.31,1.08,2.8,0.9,0.7,3700,3627,,,,,,,,,,,,,,,,,
6926,1469909321850,,,,,,,-0.07,-0.34,1.13,2.6,1.0,1.0,3660,3680,,,,,,,,,,,,,,,,,
6946,1469909321870,,,,49,,,-0.05,-0.29,1.12,2.6,0.4,1.0,3600,3680,0.978,4,39.540989,-122.335693,62.58,0.03,352.7,9,2,1.8,0,0.0,-1,0.0,,0.0,0
6966,1469909321890,,,,,,,-0.04,-0.3,1.03,2.6,1.3,0.8,3680,3680,,,,,,,,,,,,,,,,,
6986,1469909321904,,,,,,,-0.07,-0.27,1.08,2.4,1.2,0.5,3620,3696,,,,,,,,,,,,,,,,,
7006,1469909321924,,,,,,,-0.09,-0.27,1.07,2.2,1.3,0.8,3620,3644,,,,,,,,,,,,,,,,,
7026,1469909321944,,,,,,,-0.03,-0.27,1.1,2.0,1.3,0.8,3680,3680,,,,,,,,,,,,,,,,,
7046,1469909321964,0,232.8,186.9,70,188.6,13.82,-0.03,-0.24,1.08,2.0,2.2,0.6,3660,3644,1.005,4,39.540966,-122.335678,63.17,0.031,351.9,9,2,1.8,0,0.0,-1,0.0,0.0,0.0,0
7066,1469909321984,,,,,,,-0.07,-0.25,1.03,1.9,2.4,0.8,3640,3680,,,,,,,,,,,,,,,,,
7086,1469909322010,,,,,,,-0.09,-0.22,1.11,2.0,2.0,1.0,3680,3696,,,,,,,,,,,,,,,,,
7106,1469909322030,,,,,,,-0.1,-0.21,1.13,2.0,2.3,1.0,3620,3680,,,,,,,,,,,,,,,,,
7126,1469909322050,,,,,,,-0.08,-0.21,1.08,1.9,2.8,1.1,3640,3680,,,,,,,,,,,,,,,,,
7146,1469909322070,,,,56,,,-0.07,-0.22,1.11,1.8,3.0,1.1,3700,3696,0.984,4,39.540943,-122.335678,63.52,0.033,351.3,9,2,1.8,0,0.0,-1,0.0,,0.0,0
7166,1469909322090,,,,,,,-0.11,-0.22,1.15,1.7,3.2,0.9,3660,3696,,,,,,,,,,,,,,,,,
7186,1469909322110,,,,,,,-0.13,-0.2,1.11,1.6,2.3,1.1,3720,3661,,,,,,,,,,,,,,,,,
7206,1469909322130,,,,,,,-0.09,-0.2,1.13,1.3,1.7,1.6,3660,3715,,,,,,,,,,,,,,,,,
7226,1469909322150,,,,,,,-0.07,-0.14,1.13,1.1,2.8,1.2,3620,3696,,,,,,,,,,,,,,,,,
7246,1469909322170,0,232.5,185.9,56,187.7,,-0.09,-0.15,1.07,0.9,3.3,1.2,3680,3696,0.999,4,39.540916,-122.335678,63.82,0.035,350.7,9,2,1.8,0,0.0,-1,0.0,0.0,0.0,0
7266,1469909322190,,,,,,,-0.06,-0.14,1.08,0.7,2.5,1.4,3660,3680,,,,,,,,,,,,,,,,,
7286,1469909322210,,,,,,,-0.06,-0.16,1.16,0.5,2.3,1.5,3640,3752,,,,,,,,,,,,,,,,,
7306,1469909322230,,,,,,,-0.06,-0.13,1.08,0.4,2.7,1.5,3760,3696,,,,,,,,,,,,,,,,,
7326,1469909322250,,,,,,,-0.1,-0.13,1.03,0.4,2.6,1.4,3680,3752,,,,,,,,,,,,,,,,,
7346,1469909322270,,,,49,,,-0.12,-0.09,1.1,0.2,2.9,1.6,3720,3696,1.001,4,39.54089,-122.335678,63.99,0.037,350.1,9,2,1.8,0,0.0,-1,0.0,,0.0,0
7366,1469909322290,,,,,,,-0.14,-0.08,1.14,0.0,3.5,1.7,3720,3715,,,,,,,,,,,,,,,,,
7386,1469909322409,,,,,,,-0.09,-0.07,1.03,-0.2,3.1,1.7,3740,3752,,,,,,,,,,,,,,,,,
7406,1469909322429,,,,,,,-0.07,-0.07,1.02,-0.2,2.6,1.7,3740,3733,,,,,,,,,,,,,,,,,
7426,1469909322449,,,,,,,-0.11,-0.04,1.08,-0.6,2.2,1.5,3740,3733,,,,,,,,,,,,,,,,,
7446,1469909322469,0,232.8,186.8,34,188.7,,-0.14,-0.04,1.07,-0.8,1.5,1.7,3700,3733,0.981,4,39.54084,-122.335678,64.6,0.04,349.2,9,2,1.8,0,0.0,-1,0.0,0.0,0.0,0
7466,1469909322489,,,,,,,-0.12,-0.07,1.02,-1.0,0.7,2.0,3700,3733,,,,,,,,,,,,,,,,,
7486,1469909322509,,,,,,,-0.11,-0.05,1.01,-1.1,1.1,1.8,3640,3733,,,,,,,,,,,,,,,,,
7506,1469909322529,,,,,,,-0.15,-0.05,1.08,-1.2,1.7,1.5,3720,3733,,,,,,,,,,,,,,,,,
7526,1469909322549,,,,,,,-0.13,-0.06,1.06,-1.0,1.7,1.5,3720,3733,,,,,,,,,,,,,,,,,
7546,1469909322569,,,,40,,,-0.07,-0.04,1.05,-1.0,1.0,1.4,3700,3752,0.996,4,39.54084,-122.335678,64.6,0.04,349.2,9,2,1.8,0,0.0,-1,0.0,,0.0,0
7566,1469909322589,,,,,,,-0.04,-0.04,1.11,-1.0,1.5,1.1,3760,3752,,,,,,,,,,,,,,,,,
7586,1469909322510,,,,,,,-0.08,-0.08,1.17,-0.9,1.3,1.0,3800,3769,,,,,,,,,,,,,,,,,
7606,1469909322530,,,,,,,-0.12,-0.08,1.14,-1.1,0.7,1.2,3740,3752,,,,,,,,,,,,,,,,,
7626,1469909322550,,,,,,,-0.07,-0.06,1.13,-1.2,0.5,1.3,3740,3807,,,,,,,,,,,,,,,,,
7646,1469909322570,0,232.5,186.8,50,188.6,,-0.07,-0.07,1.16,-1.2,2.0,0.9,3740,3769,0.961,4,39.540813,-122.335678,65.04,0.042,348.8,9,2,1.8,0,0.0,-1,0.0,0.0,0.0,0
7666,1469909322590,,,,,,,-0.08,-0.11,1.2,-1.1,3.1,0.8,3740,3789,,,,,,,,,,,,,,,,,
7686,1469909322610,,,,,,,-0.06,-0.08,1.19,-1.0,2.2,0.9,3740,3752,,,,,,,,,,,,,,,,,
7706,1469909322630,,,,,,,0.01,-0.08,1.21,-1.2,1.1,0.9,3760,3826,,,,,,,,,,,,,,,,,
7726,1469909322650,,,,,,,-0.01,-0.11,1.26,-1.2,1.6,0.8,3780,3769,,,,,,,,,,,,,,,,,
7746,1469909322670,,,,46,,,-0.07,-0.1,1.24,-1.3,2.1,0.7,3800,3769,0.997,4,39.540787,-122.335678,65.32,0.044,348.4,9,2,1.8,0,0.0,-1,0.0,,0.0,0
7766,1469909322690,,,,,,,-0.08,-0.04,1.18,-1.4,1.8,0.6,3740,3789,,,,,,,,,,,,,,,,,
7786,1469909322710,,,,,,,-0.04,-0.04,1.18,-1.8,1.9,0.8,3760,3752,,,,,,,,,,,,,,,,,
7806,1469909322730,,,,,,,-0.02,-0.05,1.23,-2.0,2.8,0.7,3780,3769,,,,,,,,,,,,,,,,,
7826,1469909322750,,,,,,,-0.05,-0.07,1.28,-1.9,3.3,0.5,3740,3789,,,,,,,,,,,,,,,,,
7846,1469909322770,0,232.0,186.5,46,189.2,,-0.07,-0.04,1.22,-1.8,3.0,0.4,3820,3769,0.987,4,39.54076,-122.335678,65.44,0.046,348.0,9,2,1.8,0,0.0,-1,0.0,0.0,0.0,0
7866,1469909322790,,,,,,,-0.02,0.0,1.19,-2.1,2.7,0.5,3680,3846,,,,,,,,,,,,,,,,,
7886,1469909322806,,,,,,,-0.02,0.02,1.24,-2.3,2.9,0.4,3720,3807,,,,,,,,,,,,,,,,,
7906,1469909322826,,,,,,,-0.04,0.0,1.27,-2.5,2.1,0.1,3760,3769,,,,,,,,,,,,,,,,,
7926,1469909322846,,,,,,,-0.09,-0.0,1.25,-2.5,1.8,0.2,3760,3807,,,,,,,,,,,,,,,,,
7946,1469909322866,,,,51,,,-0.09,0.02,1.19,-2.6,1.9,0.2,3800,3807,1.013,4,39.540733,-122.335678,65.7,0.047,347.6,9,2,1.8,0,0.0,-1,0.0,,0.0,0
7966,1469909322886,,,,,,,-0.08,0.03,1.14,-2.6,2.0,0.0,3780,3789,,,,,,,,,,,,,,,,,
7986,1469909322904,,,,,,,-0.08,0.02,1.17,-2.6,2.3,0.1,3820,3769,,,,,,,,,,,,,,,,,
8006,1469909322924,,,,,,,-0.08,-0.01,1.17,-2.6,2.7,0.2,3800,3826,,,,,,,,,,,,,,,,,
8026,1469909322944,,,,,,,-0.06,0.02,1.12,-2.7,3.5,0.0,3820,3789,,,,,,,,,,,,,,,,,
8046,1469909322964,0,232.7,185.9,45,188.1,13.87,-0.09,0.05,0.99,-2.8,2.6,-0.2,3740,3789,0.992,4,39.540707,-122.335678,65.87,0.049,347.3,9,2,1.8,0,0.0,-1,0.0,0.0,0.0,0
8066,1469909322984,,,,,,,-0.07,0.05,0.95,-3.0,1.0,-0.0,3760,3769,,,,,,,,,,,,,,,,,
8086,1469909323010,,,,,,,-0.03,0.01,1.05,-3.0,0.4,0.0,3800,3864,,,,,,,,,,,,,,,,,
8106,1469909323030,,,,,,,-0.04,-0.0,1.06,-2.9,0.9,-0.3,3800,3826,,,,,,,,,,,,,,,,,
8126,1469909323050,,,,,,,-0.08,0.0,1.03,-2.8,0.7,-0.2,3680,3789,,,,,,,,,,,,,,,,,
8146,1469909323070,,,,51,,,-0.11,0.05,1.03,-2.9,0.1,-0.3,3800,3789,0.983,4,39.540684,-122.33567,66.05,0.051,347.0,9,2,1.8,0,0.0,-1,0.0,,0.0,0
8166,1469909323090,,,,,,,-0.08,0.04,1.02,-3.0,0.0,-0.1,3860,3826,,,,,,,,,,,,,,,,,
8186,1469909323209,,,,,,,-0.08,0.05,1.03,-3.0,1.1,-0.3,3860,3864,,,,,,,,,,,,,,,,,
8206,1469909323229,,,,,,,-0.1,0.02,1.12,-3.1,2.0,-0.4,3860,3807,,,,,,,,,,,,,,,,,
8226,1469909323249,,,,,,,-0.1,0.02,1.11,-3.0,1.8,-0.2,3780,3846,,,,,,,,,,,,,,,,,
8246,1469909323269,0,232.3,186.6,91,188.4,,-0.07,0.03,1.06,-2.9,2.0,-0.2,3840,3789,0.978,4,39.540626,-122.33567,66.48,0.055,346.6,9,2,1.8,0,0.0,-1,0.0,0.0,0.0,0
8266,1469909323289,,,,,,,-0.05,0.07,0.95,-2.8,1.4,-0.3,3840,3826,,,,,,,,,,,,,,,,,
8286,1469909323309,,,,,,,-0.04,0.08,0.97,-3.1,0.2,-0.1,3880,3807,,,,,,,,,,,,,,,,,
8306,1469909323329,,,,,,,-0.06,0.06,1.05,-3.3,0.1,0.1,3780,3864,,,,,,,,,,,,,,,,,
8326,1469909323349,,,,,,,-0.07,0.05,0.98,-3.1,0.2,-0.0,3820,3846,,,,,,,,,,,,,,,,,
8346,1469909323369,,,,40,,,-0.1,0.03,0.9,-2.9,-0.1,-0.2,3860,3807,0.983,4,39.540626,-122.33567,66.48,0.055,346.6,9,2,1.8,0,0.0,-1,0.0,,0.0,0
8366,1469909323389,,,,,,,-0.1,0.07,0.9,-2.9,-1.2,-0.3,3760,3846,,,,,,,,,,,,,,,,,
8386,1469909323310,,,,,,,-0.05,0.09,0.9,-3.2,-1.2,0.1,3860,3846,,,,,,,,,,,,,,,,,
8406,1469909323330,,,,,,,-0.02,0.1,0.92,-3.2,-0.1,-0.1,3880,3826,,,,,,,,,,,,,,,,,
8426,1469909323350,,,,,,,-0.05,0.07,1.02,-3.3,1.1,0.1,3840,3846,,,,,,,,,,,,,,,,,
8446,1469909323370,0,232.8,186.1,73,187.6,,-0.04,0.04,0.98,-3.2,1.4,0.2,3820,3864,1.019,4,39.540604,-122.33567,66.62,0.056,346.3,9,2,1.8,0,0.0,-1,0.0,0.0,0.0,0
8466,1469909323390,,,,,,,-0.04,0.05,0.89,-3.2,1.5,0.1,3860,3864,,,,,,,,,,,,,,,,,
8486,1469909323410,,,,,,,-0.03,0.09,0.83,-3.1,1.0,-0.0,3860,3864,,,,,,,,,,,,,,,,,
8506,1469909323430,,,,,,,-0.03,0.08,0.82,-3.2,-0.1,0.1,3860,3864,,,,,,,,,,,,,,,,,
8526,1469909323450,,,,,,,-0.01,0.05,0.91,-3.2,-0.7,0.2,3900,3924,,,,,,,,,,,,,,,,,
8546,1469909323470,,,,89,,,-0.02,0.01,0.99,-3.1,-0.1,-0.2,3860,3884,1.014,4,39.540577,-122.33567,66.81,0.058,346.1,9,2,1.8,0,0.0,-1,0.0,,0.0,0
8566,1469909323490,,,,,,,-0.1,0.02,1.02,-3.2,-0.1,-0.2,3800,3884,,,,,,,,,,,,,,,,,
8586,1469909323510,,,,,,,-0.15,0.04,1.0,-3.5,-0.0,0.2,3800,3864,,,,,,,,,,,,,,,,,
8606,1469909323530,,,,,,,-0.13,0.04,0.93,-3.5,0.1,0.2,3900,3864,,,,,,,,,,,,,,,,,
8626,1469909323550,,,,,,,-0.14,0.06,0.92,-3.5,-0.4,-0.0,3880,3884,,,,,,,,,,,,,,,,,
8646,1469909323570,0,232.0,186.5,56,188.4,,-0.11,0.09,0.92,-3.7,-0.3,0.3,3880,3864,0.989,4,39.540546,-122.33567,67.01,0.06,346.0,9,2,1.8,0,0.0,-1,0.0,0.0,0.0,0
8666,1469909323590,,,,,,,-0.05,0.06,0.94,-3.9,0.2,0.3,3800,3944,,,,,,,,,,,,,,,,,
8686,1469909323610,,,,,,,-0.04,0.06,1.02,-3.9,1.8,0.1,3880,3904,,,,,,,,,,,,,,,,,
8706,1469909323630,,,,,,,-0.06,0.02,1.08,-3.9,2.3,0.3,3840,3864,,,,,,,,,,,,,,,,,
8726,1469909323650,,,,,,,-0.08,0.04,1.03,-3.7,1.6,0.5,3900,3884,,,,,,,,,,,,,,,,,
8746,1469909323670,,,,31,,,-0.06,0.07,0.97,-3.8,1.5,0.6,3860,3884,1.004,4,39.540524,-122.33567,67.16,0.062,345.9,9,2,1.8,0,0.0,-1,0.0,,0.0,0
8766,1469909323690,,,,,,,-0.06,0.06,0.89,-3.7,0.3,0.3,3860,3924,,,,,,,,,,,,,,,,,
8786,1469909323711,,,,,,,-0.06,0.08,0.88,-4.0,-0.7,0.6,3900,3864,,,,,,,,,,,,,,,,,
8806,1469909323731,,,,,,,-0.0,0.06,0.86,-4.2,-1.4,0.9,3880,3884,,,,,,,,,,,,,,,,,
8826,1469909323751,,,,,,,-0.03,0.06,0.92,-4.1,-1.4,0.5,3840,3864,,,,,,,,,,,,,,,,,
8846,1469909323771,0,232.6,186.2,54,188.2,,-0.07,0.04,0.95,-4.1,-2.1,0.5,3900,3846,0.994,4,39.540493,-122.33567,67.34,0.064,345.7,9,2,1.8,0,0.0,-1,0.0,0.0,0.0,0
8866,1469909323791,,,,,,,-0.08,0.03,0.99,-4.1,-2.3,0.5,3800,3904,,,,,,,,,,,,,,,,,
8886,1469909323811,,,,,,,-0.11,0.02,0.92,-4.0,-1.7,0.2,3840,3884,,,,,,,,,,,,,,,,,
8906,1469909323831,,,,,,,-0.14,0.04,0.89,-3.8,-2.4,0.1,3820,3944,,,,,,,,,,,,,,,,,
8926,1469909323851,,,,,,,-0.14,0.09,0.87,-3.8,-3.0,0.1,3900,3944,,,,,,,,,,,,,,,,,
8946,1469909323871,,,,48,,,-0.07,0.1,0.93,-4.1,-2.5,0.1,3840,3904,1.02,4,39.540466,-122.33567,67.55,0.066,345.6,9,2,1.8,0,0.0,-1,0.0,,0.0,0
8966,1469909323891,,,,,,,-0.06,0.11,0.92,-3.9,-1.3,-0.0,3880,3924,,,,,,,,,,,,,,,,,
8986,1469909324004,,,,,,,-0.08,0.12,1.01,-4.1,-0.5,0.1,3880,3884,,,,,,,,,,,,,,,,,
9006,1469909324024,,,,,,,-0.05,0.1,1.03,-4.2,0.6,0.2,3920,3924,,,,,,,,,,,,,,,,,
9026,1469909324044,,,,,,,-0.03,0.11,1.08,-4.2,2.5,-0.1,3900,3884,,,,,,,,,,,,,,,,,
9046,1469909324064,0,233.1,186.3,47,188.1,13.86,-0.04,0.1,1.09,-4.0,2.7,-0.3,3800,3904,1.009,4,39.540413,-122.33567,67.97,0.07,345.3,9,2,1.8,0,0.0,-1,0.0,0.0,0.0,0
9066,1469909324084,,,,,,,-0.03,0.12,1.11,-4.0,2.8,-0.1,3840,3944,,,,,,,,,,,,,,,,,
9086,1469909324104,,,,,,,0.01,0.13,1.03,-4.0,2.8,-0.2,3920,3884,,,,,,,,,,,,,,,,,
9106,1469909324124,,,,,,,0.0,0.14,0.94,-4.0,1.8,-0.4,3860,3884,,,,,,,,,,,,,,,,,
9126,1469909324144,,,,,,,0.01,0.16,0.92,-4.1,0.7,-0.1,3940,3904,,,,,,,,,,,,,,,,,
9146,1469909324164,,,,66,,,0.04,0.14,0.89,-4.4,0.1,-0.0,3920,3964,0.973,4,39.540413,-122.33567,67.97,0.07,345.3,9,2,1.8,0,0.0,-1,0.0,,0.0,0
9166,1469909324184,,,,,,,0.03,0.14,0.91,-4.3,-0.5,-0.3,3860,3944,,,,,,,,,,,,,,,,,
9186,1469909324110,,,,,,,0.02,0.13,0.93,-4.5,-1.3,-0.1,3980,3884,,,,,,,,,,,,,,,,,
9206,1469909324130,,,,,,,0.03,0.09,0.98,-4.3,-1.6,0.0,3900,3924,,,,,,,,,,,,,,,,,
9226,1469909324150,,,,,,,-0.0,0.09,1.02,-4.3,-0.8,-0.1,3900,3944,,,,,,,,,,,,,,,,,
9246,1469909324170,0,232.8,185.9,44,188.0,,-0.03,0.07,1.11,-4.1,-1.0,-0.2,3900,3924,1.014,4,39.540386,-122.33567,68.12,0.071,345.1,9,2,1.8,0,0.0,-1,0.0,0.0,0.0,0
9266,1469909324190,,,,,,,-0.06,0.11,1.08,-4.1,-0.6,-0.3,3980,3944,,,,,,,,,,,,,,,,,
9286,1469909324211,,,,,,,-0.08,0.1,1.05,-4.3,0.9,-0.4,3900,3944,,,,,,,,,,,,,,,,,
9306,1469909324231,,,,,,,-0.13,0.1,1.04,-4.1,0.4,-0.7,3920,3944,,,,,,,,,,,,,,,,,
9326,1469909324251,,,,,,,-0.14,0.12,1.02,-4.2,0.1,-0.6,3840,3944,,,,,,,,,,,,,,,,,
9346,1469909324271,,,,51,,,-0.12,0.11,0.92,-4.2,0.3,-0.5,3860,3904,1.014,4,39.54036,-122.33567,68.25,0.073,344.8,9,2,1.8,0,0.0,-1,0.0,,0.0,0
9366,1469909324291,,,,,,,-0.13,0.12,0.9,-4.0,0.1,-0.9,3940,3944,,,,,,,,,,,,,,,,,
9386,1469909324311,,,,,,,-0.1,0.16,0.88,-4.2,-0.5,-0.7,3940,3944,,,,,,,,,,,,,,,,,
9406,1469909324331,,,,,,,-0.07,0.11,0.87,-4.2,0.1,-0.4,3900,3924,,,,,,,,,,,,,,,,,
9426,1469909324351,,,,,,,-0.06,0.11,0.86,-4.1,1.0,-0.7,3860,3984,,,,,,,,,,,,,,,,,
9446,1469909324371,0,232.6,185.9,44,188.0,,-0.05,0.17,0.88,-4.5,0.7,-0.3,3940,3924,0.999,4,39.540329,-122.33567,68.41,0.075,344.5,9,2,1.8,0,0.0,-1,0.0,0.0,0.0,0
9466,1469909324391,,,,,,,0.02,0.12,0.9,-4.4,1.5,-0.2,3880,3944,,,,,,,,,,,,,,,,,
9486,1469909324409,,,,,,,0.02,0.14,0.89,-4.2,2.2,-0.8,3980,3984,,,,,,,,,,,,,,,,,
9506,1469909324429,,,,,,,0.03,0.16,0.97,-4.6,2.3,-0.3,3920,3924,,,,,,,,,,,,,,,,,
9526,1469909324449,,,,,,,0.07,0.13,1.0,-4.6,2.8,-0.1,3900,3964,,,,,,,,,,,,,,,,,
9546,1469909324469,,,,34,,,0.08,0.15,1.0,-4.5,3.6,-0.4,3980,4006,1.019,4,39.540306,-122.33567,68.65,0.077,344.1,9,2,1.8,0,0.0,-1,0.0,,0.0,0
9566,1469909324489,,,,,,,0.02,0.13,1.03,-4.5,3.0,-0.3,3920,3924,,,,,,,,,,,,,,,,,
9586,1469909324509,,,,,,,0.02,0.12,0.98,-4.4,2.3,-0.1,3980,4006,,,,,,,,,,,,,,,,,
9606,1469909324529,,,,,,,0.02,0.13,0.96,-4.3,2.5,-0.2,3980,3984,,,,,,,,,,,,,,,,,
9626,1469909324549,,,,,,,-0.01,0.1,0.95,-4.3,1.7,-0.1,4000,3944,,,,,,,,,,,,,,,,,
9646,1469909324569,0,232.1,187.4,72,188.7,,-0.03,0.1,0.93,-4.2,0.5,-0.0,3960,4026,1.004,4,39.540276,-122.33567,68.89,0.079,343.8,9,2,1.8,0,0.0,-1,0.0,0.0,0.0,0
9666,1469909324589,,,,,,,-0.02,0.15,0.88,-4.4,0.4,0.1,3980,3924,,,,,,,,,,,,,,,,,
9686,1469909324609,,,,,,,-0.04,0.14,0.81,-4.4,-0.6,0.0,3900,3944,,,,,,,,,,,,,,,,,
9706,1469909324629,,,,,,,-0.04,0.19,0.8,-4.3,-1.9,0.1,3920,3964,,,,,,,,,,,,,,,,,
9726,1469909324649,,,,,,,-0.02,0.15,0.71,-4.4,-2.4,0.1,3760,4006,,,,,,,,,,,,,,,,,
9746,1469909324669,,,,52,,,-0.02,0.17,0.63,-4.2,-3.4,-0.2,4020,3984,0.994,4,39.540245,-122.33567,69.01,0.081,343.5,9,2,1.8,0,0.0,-1,0.0,,0.0,0
9766,1469909324689,,,,,,,-0.02,0.21,0.68,-4.3,-4.4,0.1,3940,4026,,,,,,,,,,,,,,,,,
9786,1469909324808,,,,,,,0.01,0.17,0.63,-4.2,-4.7,0.1,3820,4026,,,,,,,,,,,,,,,,,
9806,1469909324828,,,,,,,0.0,0.18,0.59,-3.9,-5.9,-0.4,3960,3964,,,,,,,,,,,,,,,,,
9826,1469909324848,,,,,,,-0.01,0.18,0.61,-4.0,-6.9,0.0,4040,4006,,,,,,,,,,,,,,,,,
9846,1469909324868,0,232.7,185.8,89,188.3,,0.02,0.16,0.57,-4.0,-7.2,0.2,3960,4006,1.024,4,39.540192,-122.335655,69.38,0.085,343.0,9,2,1.8,0,0.0,-1,0.0,0.0,0.0,0
9866,1469909324888,,,,,,,-0.01,0.17,0.55,-3.9,-7.5,-0.2,3960,4047,,,,,,,,,,,,,,,,,
9886,1469909324908,,,,,,,-0.0,0.15,0.62,-3.9,-8.5,0.0,4020,4006,,,,,,,,,,,,,,,,,
9906,1469909324928,,,,,,,0.04,0.11,0.57,-3.9,-8.8,0.2,4020,3964,,,,,,,,,,,,,,,,,
9926,1469909324948,,,,,,,-0.01,0.11,0.59,-3.7,-8.6,-0.5,3920,4026,,,,,,,,,,,,,,,,,
9946,1469909324968,,,,70,,,-0.02,0.14,0.64,-4.0,-8.5,-0.3,3940,3984,1.004,4,39.540192,-122.335655,69.38,0.085,343.0,9,2,1.8,0,0.0,-1,0.0,,0.0,0
9966,1469909324988,,,,,,,0.0,0.08,0.63,-4.0,-7.9,0.0,4020,3984,,,,,,,,,,,,,,,,,
9986,1469909324904,,,,,,,-0.03,0.1,0.62,-3.8,-7.4,-0.6,3960,4006,,,,,,,,,,,,,,,,,
10006,1469909324924,,,,,,,-0.02,0.13,0.7,-4.0,-7.8,-0.3,3920,4026,,,,,,,,,,,,,,,,,
10026,1469909324944,,,,,,,0.01,0.07,0.68,-3.9,-7.4,-0.0,4040,4006,,,,,,,,,,,,,,,,,
10046,1469909324964,0,232.3,186.4,64,188.4,13.95,-0.01,0.07,0.68,-3.9,-6.2,-0.4,3860,4026,0.974,4,39.540165,-122.335655,69.57,0.087,342.7,9,2,1.8,0,0.0,-1,0.0,0.0,0.0,0
10066,1469909324984,,,,,,,-0.01,0.1,0.78,-4.2,-6.1,-0.1,4040,3984,,,,,,,,,,,,,,,,,
10086,1469909325011,,,,,,,0.03,0.06,0.73,-4.3,-5.4,0.1,3880,4026,,,,,,,,,,,,,,,,,
10106,1469909325031,,,,,,,-0.01,0.11,0.73,-4.2,-4.6,-0.4,3960,4026,,,,,,,,,,,,,,,,,
10126,1469909325051,,,,,,,-0.02,0.13,0.79,-4.5,-4.8,-0.1,3960,3984,,,,,,,,,,,,,,,,,
10146,1469909325071,,,,63,,,0.01,0.08,0.76,-4.5,-4.5,0.0,3960,4047,0.993,4,39.540138,-122.335655,69.71,0.089,342.5,9,2,1.8,0,0.0,-1,0.0,,0.0,0
10166,1469909325091,,,,,,,0.0,0.1,0.7,-4.1,-4.1,-0.3,4020,3984,,,,,,,,,,,,,,,,,
10186,1469909325108,,,,,,,-0.04,0.11,0.76,-4.4,-4.7,-0.0,4060,4026,,,,,,,,,,,,,,,,,
10206,1469909325128,,,,,,,-0.02,0.06,0.79,-4.4,-4.9,0.1,3800,4026,,,,,,,,,,,,,,,,,
10226,1469909325148,,,,,,,-0.07,0.06,0.84,-4.3,-4.3,-0.1,3880,4006,,,,,,,,,,,,,,,,,
10246,1469909325168,0,232.5,186.2,54,188.9,,-0.1,0.09,0.89,-4.5,-5.2,-0.0,3980,4026,0.949,4,39.540108,-122.335655,69.89,0.091,342.2,9,2,1.8,0,0.0,-1,0.0,0.0,0.0,0
10266,1469909325188,,,,,,,-0.06,0.04,0.91,-4.5,-5.3,-0.0,3940,4026,,,,,,,,,,,,,,,,,
10286,1469909325211,,,,,,,-0.09,0.04,0.93,-4.4,-5.3,-0.2,3920,4026,,,,,,,,,,,,,,,,,
10306,1469909325231,,,,,,,-0.11,0.06,0.94,-4.5,-6.2,0.1,4060,4069,,,,,,,,,,,,,,,,,
10326,1469909325251,,,,,,,-0.08,0.02,0.94,-4.7,-5.7,0.2,4040,4069,,,,,,,,,,,,,,,,,
10346,1469909325271,,,,70,,,-0.11,-0.01,0.92,-4.4,-5.7,0.1,3900,4006,0.988,4,39.540081,-122.335655,69.96,0.093,342.0,9,2,1.8,0,0.0,-1,0.0,,0.0,0
10366,1469909325291,,,,,,,-0.1,0.01,0.95,-4.6,-6.0,0.5,4100,4047,,,,,,,,,,,,,,,,,
10386,1469909325310,,,,,,,-0.06,-0.03,0.91,-4.6,-5.7,0.7,4060,4026,,,,,,,,,,,,,,,,,
10406,1469909325330,,,,,,,-0.08,-0.03,0.87,-4.3,-6.0,0.9,3940,4026,,,,,,,,,,,,,,,,,
10426,1469909325350,,,,,,,-0.08,-0.01,0.93,-4.2,-6.0,1.2,4100,4026,,,,,,,,,,,,,,,,,
10446,1469909325370,0,233.2,187.1,75,188.4,,-0.02,-0.01,0.85,-4.1,-5.8,1.1,4120,4047,0.999,4,39.540054,-122.335655,70.18,0.095,341.8,9,2,1.8,0,0.0,-1,0.0,0.0,0.0,0
10466,1469909325390,,,,,,,-0.06,-0.01,0.8,-3.8,-5.9,1.0,3960,4026,,,,,,,,,,,,,,,,,
10486,1469909325409,,,,,,,-0.06,0.02,0.8,-3.8,-6.5,1.1,4120,4047,,,,,,,,,,,,,,,,,
10506,1469909325429,,,,,,,-0.01,0.03,0.76,-3.7,-5.8,0.9,3940,4026,,,,,,,,,,,,,,,,,
10526,1469909325449,,,,,,,-0.05,0.04,0.74,-3.5,-5.8,0.5,4020,4069,,,,,,,,,,,,,,,,,
10546,1469909325469,,,,72,,,-0.02,0.06,0.69,-3.6,-6.6,0.5,4060,4026,1.013,4,39.540028,-122.33564,70.29,0.097,341.6,9,2,1.8,0,0.0,-1,0.0,,0.0,0
10566,1469909325489,,,,,,,0.0,0.08,0.71,-3.6,-6.2,0.4,4180,4026,,,,,,,,,,,,,,,,,
10586,1469909325601,,,,,,,-0.04,0.04,0.76,-3.4,-6.2,0.2,4160,4047,,,,,,,,,,,,,,,,,
10606,1469909325621,,,,,,,-0.01,0.08,0.76,-3.4,-6.4,0.1,4080,4090,,,,,,,,,,,,,,,,,
10626,1469909325641,,,,,,,0.0,0.12,0.79,-3.3,-5.2,-0.1,4080,4047,,,,,,,,,,,,,,,,,
10646,1469909325661,0,232.6,186.7,65,187.9,,-0.03,0.07,0.88,-3.3,-4.8,-0.1,4160,4006,0.998,4,39.539967,-122.33564,70.64,0.101,341.2,9,2,1.8,0,0.0,-1,0.0,0.0,0.0,0
10666,1469909325681,,,,,,,0.02,0.07,0.9,-3.1,-4.9,-0.2,4080,4047,,,,,,,,,,,,,,,,,
10686,1469909325701,,,,,,,-0.0,0.15,0.93,-3.2,-3.7,-0.5,4080,4135,,,,,,,,,,,,,,,,,
10706,1469909325721,,,,,,,-0.01,0.14,0.98,-3.4,-3.9,-0.2,4100,4069,,,,,,,,,,,,,,,,,
10726,1469909325741,,,,,,,0.04,0.09,1.04,-3.3,-3.7,-0.3,4040,4047,,,,,,,,,,,,,,,,,
10746,1469909325761,,,,47,,,0.02,0.11,1.02,-3.3,-2.6,-0.4,4200,4069,1.013,4,39.539967,-122.33564,70.64,0.101,341.2,9,2,1.8,0,0.0,-1,0.0,,0.0,0
10766,1469909325781,,,,,,,0.04,0.11,1.07,-3.5,-2.6,0.1,4160,4069,,,,,,,,,,,,,,,,,
10786,1469909325701,,,,,,,0.1,0.06,1.13,-3.4,-2.1,-0.0,4020,4047,,,,,,,,,,,,,,,,,
10806,1469909325721,,,,,,,0.1,0.05,1.14,-3.1,-1.2,-0.2,4120,4047,,,,,,,,,,,,,,,,,
10826,1469909325741,,,,,,,0.08,0.07,1.18,-3.3,-1.8,0.1,4120,4047,,,,,,,,,,,,,,,,,
10846,1469909325761,0,232.4,185.9,94,188.8,,0.14,0.02,1.24,-3.3,-0.9,0.2,4040,4026,1.023,4,39.53994,-122.33564,70.74,0.103,340.9,9,2,1.8,0,0.0,-1,0.0,0.0,0.0,0
10866,1469909325781,,,,,,,0.1,0.02,1.23,-3.2,-0.2,-0.0,4040,4006,,,,,,,,,,,,,,,,,
10886,1469909325804,,,,,,,0.11,0.03,1.24,-3.5,-0.3,0.4,4000,4047,,,,,,,,,,,,,,,,,
10906,1469909325824,,,,,,,0.15,-0.05,1.31,-3.6,0.8,0.5,4020,4026,,,,,,,,,,,,,,,,,
10926,1469909325844,,,,,,,0.12,-0.02,1.31,-3.5,1.7,0.5,3960,3964,,,,,,,,,,,,,,,,,
10946,1469909325864,,,,74,,,0.09,0.04,1.36,-4.1,1.0,1.0,3920,3924,1.003,4,39.539909,-122.33564,71.03,0.105,340.7,9,2,1.8,0,0.0,-1,0.0,,0.0,0
10966,1469909325884,,,,,,,0.12,0.02,1.4,-4.3,1.6,1.3,3880,3984,,,,,,,,,,,,,,,,,
10986,1469909325897,,,,,,,0.1,0.06,1.33,-4.3,1.8,1.1,3840,4112,,,,,,,,,,,,,,,,,
11006,1469909325917,,,,,,,0.07,0.07,1.31,-4.5,0.5,1.3,3780,4069,,,,,,,,,,,,,,,,,
11026,1469909325937,,,,,,,0.09,0.06,1.23,-4.1,0.0,1.2,3780,4112,,,,,,,,,,,,,,,,,
11046,1469909325957,0,232.8,186.6,52,188.0,13.82,0.08,0.07,1.15,-4.0,-0.1,1.2,3740,3984,0.974,4,39.539886,-122.335632,71.01,0.106,340.5,9,2,1.8,0,0.0,-1,0.0,0.0,0.0,0
11066,1469909325977,,,,,,,0.07,0.09,1.19,-4.2,-1.1,1.2,3660,3964,,,,,,,,,,,,,,,,,
11086,1469909326004,,,,,,,0.09,0.05,1.15,-3.9,-0.3,1.0,3640,3944,,,,,,,,,,,,,,,,,
11106,1469909326024,,,,,,,0.08,0.03,1.1,-3.7,0.5,0.9,3580,3964,,,,,,,,,,,,,,,,,
11126,1469909326044,,,,,,,0.09,0.02,1.14,-3.6,0.2,0.5,3640,3944,,,,,,,,,,,,,,,,,
11146,1469909326064,,,,55,,,0.11,-0.0,1.16,-3.4,0.5,0.3,3540,4047,0.924,4,39.539856,-122.335632,70.99,0.109,340.3,9,2,1.8,0,0.0,-1,0.0,,0.0,0
11166,1469909326084,,,,,,,0.08,-0.02,1.11,-3.5,0.5,-0.1,3500,4026,,,,,,,,,,,,,,,,,
11186,1469909326103,,,,,,,0.09,0.01,1.17,-3.3,-0.1,-0.4,3440,3984,,,,,,,,,,,,,,,,,
11206,1469909326123,,,,,,,0.13,0.01,1.14,-3.3,0.5,-0.5,3400,4026,,,,,,,,,,,,,,,,,
11226,1469909326143,,,,,,,0.1,0.05,1.07,-3.2,0.7,-0.6,3440,3984,,,,,,,,,,,,,,,,,
11246,1469909326163,0,232.6,187.3,34,187.9,,0.09,0.03,1.09,-3.3,-0.7,-0.6,3320,4006,0.875,4,39.539829,-122.335632,70.81,0.11,340.1,9,2,1.8,0,0.0,-1,0.0,0.0,0.0,0
11266,1469909326183,,,,,,,0.12,0.03,1.07,-3.1,0.4,-0.7,3400,4047,,,,,,,,,,,,,,,,,
11286,1469909326204,,,,,,,0.1,0.1,1.01,-3.2,0.1,-1.3,3200,3984,,,,,,,,,,,,,,,,,
11306,1469909326224,,,,,,,0.09,0.06,1.02,-3.2,-1.2,-1.3,3280,3984,,,,,,,,,,,,,,,,,
11326,1469909326244,,,,,,,0.1,0.06,1.08,-3.1,-0.4,-1.2,3260,4047,,,,,,,,,,,,,,,,,
11346,1469909326264,,,,49,,,0.08,0.13,1.03,-3.4,-0.6,-1.4,3140,3964,0.824,5,39.539799,-122.335632,70.8,0.112,340.0,9,2,1.8,0,0.0,-1,0.0,,0.0,0
11366,1469909326284,,,,,,,0.07,0.11,1.1,-3.5,-1.4,-1.4,3160,3984,,,,,,,,,,,,,,,,,
11386,1469909326403,,,,,,,0.09,0.09,1.09,-3.1,-0.7,-1.4,3080,4006,,,,,,,,,,,,,,,,,
11406,1469909326423,,,,,,,0.07,0.13,1.02,-3.2,-0.2,-1.4,3120,4006,,,,,,,,,,,,,,,,,
11426,1469909326443,,,,,,,0.04,0.15,1.09,-3.5,-0.5,-1.3,3020,4026,,,,,,,,,,,,,,,,,
11446,1469909326463,0,232.4,186.1,42,188.3,,0.08,0.16,1.1,-3.5,-0.3,-1.2,2980,3984,0.788,5,39.539742,-122.335617,70.6,0.117,339.8,9,2,1.8,0,0.0,-1,0.0,0.0,0.0,0
11466,1469909326483,,,,,,,0.06,0.19,1.07,-3.7,0.4,-1.5,3020,3984,,,,,,,,,,,,,,,,,
11486,1469909326503,,,,,,,0.02,0.14,1.05,-4.0,0.4,-1.6,3020,3984,,,,,,,,,,,,,,,,,
11506,1469909326523,,,,,,,0.04,0.16,1.05,-3.9,0.6,-1.8,2840,4006,,,,,,,,,,,,,,,,,
11526,1469909326543,,,,,,,0.04,0.17,1.03,-4.0,1.7,-1.9,2940,3984,,,,,,,,,,,,,,,,,
11546,1469909326563,,,,52,,,-0.01,0.14,1.01,-4.0,1.6,-1.9,2840,3984,0.705,5,39.539742,-122.335617,70.6,0.117,339.8,9,2,1.8,0,0.0,-1,0.0,,0.0,0
11566,1469909326583,,,,,,,0.05,0.15,1.01,-3.9,1.6,-1.9,2740,3964,,,,,,,,,,,,,,,,,
11586,1469909326501,,,,,,,0.06,0.19,1.04,-4.0,2.5,-2.1,2760,4026,,,,,,,,,,,,,,,,,
11606,1469909326521,,,,,,,0.03,0.13,1.04,-3.7,2.3,-1.8,2720,3984,,,,,,,,,,,,,,,,,
11626,1469909326541,,,,,,,0.05,0.15,1.06,-3.8,2.2,-1.4,2680,3964,,,,,,,,,,,,,,,,,
11646,1469909326561,0,232.2,185.8,52,188.9,,0.05,0.1,1.06,-3.9,2.4,-1.1,2640,3984,0.694,5,39.539715,-122.335617,70.62,0.118,339.7,9,2,1.8,0,0.0,-1,0.0,0.0,0.0,0
11666,1469909326581,,,,,,,0.01,0.04,1.09,-3.6,2.3,-0.8,2620,4006,,,,,,,,,,,,,,,,,
11686,1469909326601,,,,,,,0.06,0.09,1.09,-3.6,1.8,-0.4,2540,3924,,,,,,,,,,,,,,,,,
11706,1469909326621,,,,,,,0.05,0.07,1.06,-3.8,1.8,-0.1,2480,3984,,,,,,,,,,,,,,,,,
11726,1469909326641,,,,,,,0.01,0.06,1.05,-3.8,0.9,0.2,2560,4006,,,,,,,,,,,,,,,,,
11746,1469909326661,,,,73,,,0.04,0.08,1.05,-4.1,0.1,0.4,2540,3944,0.643,5,39.539688,-122.335617,70.44,0.12,339.6,9,2,1.8,0,0.0,-1,0.0,,0.0,0
11766,1469909326681,,,,,,,0.04,0.1,0.97,-4.1,0.4,0.2,2460,3964,,,,,,,,,,,,,,,,,
11786,1469909326701,,,,,,,0.01,0.09,1.01,-4.3,-0.0,0.4,2400,3964,,,,,,,,,,,,,,,,,
11806,1469909326721,,,,,,,0.02,0.09,0.98,-4.4,-0.6,0.4,2400,3924,,,,,,,,,,,,,,,,,
11826,1469909326741,,,,,,,0.03,0.08,0.96,-4.4,0.2,0.6,2320,3964,,,,,,,,,,,,,,,,,
11846,1469909326761,0,232.3,186.1,57,188.8,,-0.01,0.05,0.94,-4.2,-0.8,0.5,2280,3964,0.605,0,39.539658,-122.335617,70.13,0.122,339.4,9,2,1.8,0,0.0,-1,0.0,0.0,0.0,0
11866,1469909326781,,,,,,,0.03,0.04,0.96,-4.0,-1.3,0.3,2300,3944,,,,,,,,,,,,,,,,,
11886,1469909326804,,,,,,,0.08,0.02,0.95,-3.8,-1.1,0.3,2200,3944,,,,,,,,,,,,,,,,,
11906,1469909326824,,,,,,,0.05,0.01,0.93,-3.6,-0.8,0.2,2220,3884,,,,,,,,,,,,,,,,,
11926,1469909326844,,,,,,,0.06,0.04,0.97,-3.7,-1.4,0.0,2180,3924,,,,,,,,,,,,,,,,,
11946,1469909326864,,,,42,,,0.09,0.0,1.01,-3.6,-0.4,-0.1,2160,3924,0.57,0,39.539631,-122.335617,70.07,0.124,339.3,9,2,1.8,0,0.0,-1,0.0,,0.0,0
11966,1469909326884,,,,,,,0.07,0.06,0.98,-3.7,0.0,-0.4,2120,3964,,,,,,,,,,,,,,,,,
11986,1469909326898,,,,,,,0.04,0.04,1.03,-3.8,-1.0,-0.4,2060,3964,,,,,,,,,,,,,,,,,
12006,1469909326918,,,,,,,0.08,0.05,1.03,-3.5,-1.4,-0.4,2060,3944,,,,,,,,,,,,,,,,,
12026,1469909326938,,,,,,,0.07,0.11,1.0,-3.6,-1.4,-0.4,2000,3944,,,,,,,,,,,,,,,,,
12046,1469909326958,0,232.7,186.5,50,188.5,13.77,0.05,0.04,0.98,-3.3,-1.8,-0.5,2000,3964,0.527,0,39.539604,-122.335602,69.97,0.126,339.2,9,2,1.8,0,0.0,-1,0.0,0.0,0.0,0
12066,1469909326978,,,,,,,0.08,0.07,0.97,-3.1,-2.3,-0.4,1920,3924,,,,,,,,,,,,,,,,,
12086,1469909327003,,,,,,,0.09,0.05,0.98,-3.2,-1.2,-0.2,1920,3964,,,,,,,,,,,,,,,,,
12106,1469909327023,,,,,,,0.04,0.03,0.99,-3.1,-1.1,-0.1,1900,3964,,,,,,,,,,,,,,,,,
12126,1469909327043,,,,,,,0.07,0.06,1.05,-3.2,-1.2,-0.0,1860,3924,,,,,,,,,,,,,,,,,
12146,1469909327063,,,,38,,,0.08,0.01,1.01,-3.1,-0.7,-0.2,1860,3964,0.494,0,39.539574,-122.335602,69.81,0.128,339.0,9,2,1.8,0,0.0,-1,0.0,,0.0,0
12166,1469909327083,,,,,,,0.06,0.02,1.04,-2.8,-0.3,-0.2,1820,3944,,,,,,,,,,,,,,,,,
12186,1469909327202,,,,,,,0.06,0.03,1.09,-3.1,-0.4,-0.0,1780,3924,,,,,,,,,,,,,,,,,
12206,1469909327222,,,,,,,0.09,0.03,1.06,-3.1,0.3,-0.1,1760,3944,,,,,,,,,,,,,,,,,
12226,1469909327242,,,,,,,0.08,0.04,1.04,-3.0,0.7,-0.3,1760,3924,,,,,,,,,,,,,,,,,
12246,1469909327262,0,232.0,185.8,33,189.2,,0.09,0.04,1.09,-3.4,0.3,0.1,1640,3924,0.451,0,39.53952,-122.335602,69.46,0.132,338.7,9,2,1.8,0,0.0,-1,0.0,0.0,0.0,0
12266,1469909327282,,,,,,,0.09,0.03,1.09,-3.4,0.7,-0.2,1660,3924,,,,,,,,,,,,,,,,,
12286,1469909327302,,,,,,,0.11,0.13,1.1,-3.6,0.6,-0.2,1620,3769,,,,,,,,,,,,,,,,,
12306,1469909327322,,,,,,,0.1,0.15,1.07,-4.0,-0.3,0.1,1640,3904,,,,,,,,,,,,,,,,,
12326,1469909327342,,,,,,,0.1,0.09,1.1,-3.9,-0.1,0.1,1700,3846,,,,,,,,,,,,,,,,,
12346,1469909327362,,,,42,,,0.14,0.13,1.1,-4.1,0.5,0.3,1800,3884,0.423,0,39.53952,-122.335602,69.46,0.132,338.7,9,2,1.8,0,0.0,-1,0.0,,0.0,0
12366,1469909327382,,,,,,,0.13,0.12,1.11,-4.3,0.5,0.6,1860,3864,,,,,,,,,,,,,,,,,
12386,1469909327303,,,,,,,0.13,0.1,1.12,-4.1,-0.3,0.7,1900,3807,,,,,,,,,,,,,,,,,
12406,1469909327323,,,,,,,0.16,0.16,1.08,-4.4,-0.4,1.0,1980,3826,,,,,,,,,,,,,,,,,
12426,1469909327343,,,,,,,0.15,0.13,1.06,-4.4,0.3,0.9,2060,3864,,,,,,,,,,,,,,,,,
12446,1469909327363,0,232.7,186.7,28,188.8,,0.14,0.17,1.04,-4.5,-0.5,1.1,2140,3826,0.478,0,39.539494,-122.335602,69.25,0.134,338.6,9,2,1.8,0,0.0,-1,0.0,0.0,0.0,0
12466,1469909327383,,,,,,,0.16,0.15,1.05,-4.6,-1.0,1.2,2220,3846,,,,,,,,,,,,,,,,,
12486,1469909327401,,,,,,,0.19,0.17,1.03,-4.6,-0.8,1.0,2280,3807,,,,,,,,,,,,,,,,,
12506,1469909327421,,,,,,,0.18,0.14,0.99,-4.5,-0.5,1.4,2360,3789,,,,,,,,,,,,,,,,,
12526,1469909327441,,,,,,,0.18,0.11,1.04,-4.3,-0.7,1.3,2420,3769,,,,,,,,,,,,,,,,,
12546,1469909327461,,,,50,,,0.23,0.15,1.04,-4.5,-0.9,1.5,2460,3752,0.588,0,39.539463,-122.335594,69.32,0.136,338.6,9,2,1.8,0,0.0,-1,0.0,,0.0,0
12566,1469909327481,,,,,,,0.27,0.2,1.02,-4.4,-0.2,1.7,2600,3752,,,,,,,,,,,,,,,,,
12586,1469909327501,,,,,,,0.23,0.22,1.02,-4.5,-0.3,1.4,2760,3696,,,,,,,,,,,,,,,,,
12606,1469909327521,,,,,,,0.25,0.22,1.07,-4.4,-0.8,1.3,2880,3715,,,,,,,,,,,,,,,,,
12626,1469909327541,,,,,,,0.29,0.23,1.09,-4.3,-1.7,1.3,2920,3846,,,,,,,,,,,,,,,,,
12646,1469909327561,0,232.2,185.9,32,188.3,,0.3,0.21,1.09,-4.3,-2.0,0.9,2980,3846,0.727,5,39.539436,-122.335594,68.58,0.138,338.5,9,2,1.8,0,0.0,-1,0.0,0.0,0.0,0
12666,1469909327581,,,,,,,0.26,0.16,1.07,-4.3,-1.6,0.6,3040,3807,,,,,,,,,,,,,,,,,
12686,1469909327599,,,,,,,0.22,0.17,1.05,-4.4,-2.6,0.1,2880,3789,,,,,,,,,,,,,,,,,
12706,1469909327619,,,,,,,0.25,0.15,1.03,-4.4,-2.6,-0.1,2940,3807,,,,,,,,,,,,,,,,,
12726,1469909327639,,,,,,,0.27,0.16,0.99,-4.4,-2.1,-0.3,2820,3769,,,,,,,,,,,,,,,,,
12746,1469909327659,,,,48,,,0.23,0.12,0.94,-4.4,-1.6,-0.5,2980,3715,0.8,5,39.53941,-122.335594,68.35,0.14,338.5,9,2,1.8,0,0.0,-1,0.0,,0.0,0
12766,1469909327679,,,,,,,0.22,0.12,0.96,-4.3,-2.0,-0.6,2800,3733,,,,,,,,,,,,,,,,,
12786,1469909327700,,,,,,,0.25,0.12,0.98,-4.4,-2.8,-0.5,2940,3769,,,,,,,,,,,,,,,,,
12806,1469909327720,,,,,,,0.28,0.14,0.96,-4.2,-2.6,-0.8,2840,3733,,,,,,,,,,,,,,,,,
12826,1469909327740,,,,,,,0.22,0.13,0.98,-4.3,-2.1,-0.7,2900,3715,,,,,,,,,,,,,,,,,
12846,1469909327760,0,232.3,186.3,41,187.9,,0.21,0.17,1.05,-4.4,-2.1,-1.1,2860,3715,0.769,5,39.539383,-122.335594,67.5,0.142,338.6,9,2,1.8,0,0.0,-1,0.0,0.0,0.0,0
12866,1469909327780,,,,,,,0.24,0.16,1.07,-4.5,-2.2,-1.1,2900,3752,,,,,,,,,,,,,,,,,
12886,1469909327803,,,,,,,0.25,0.21,1.05,-4.5,-1.4,-1.1,2880,3696,,,,,,,,,,,,,,,,,
12906,1469909327823,,,,,,,0.24,0.17,1.04,-4.5,-0.7,-1.1,2880,3696,,,,,,,,,,,,,,,,,
12926,1469909327843,,,,,,,0.23,0.18,1.07,-4.7,-0.3,-0.9,2920,3661,,,,,,,,,,,,,,,,,
12946,1469909327863,,,,48,,,0.26,0.11,1.1,-4.8,-0.8,-0.8,2900,3715,0.774,5,39.539356,-122.335579,67.01,0.144,338.6,9,2,1.8,0,0.0,-1,0.0,,0.0,0
12966,1469909327883,,,,,,,0.31,0.1,1.08,-4.7,-1.0,-0.6,2940,3696,,,,,,,,,,,,,,,,,
12986,1469909327995,,,,,,,0.32,0.06,1.01,-4.5,-1.0,-0.6,2900,3661,,,,,,,,,,,,,,,,,
13006,1469909328015,,,,,,,0.3,0.05,1.02,-4.4,-1.0,-0.5,2880,3661,,,,,,,,,,,,,,,,,
13026,1469909328035,,,,,,,0.29,0.05,1.04,-4.3,-0.8,-0.2,2940,3644,,,,,,,,,,,,,,,,,
13046,1469909328055,0,232.9,186.8,74,188.7,13.86,0.31,0.07,1.04,-4.3,-0.2,-0.2,2900,3661,0.772,5,39.539303,-122.335579,65.98,0.147,338.7,9,2,1.8,0,0.0,-1,0.0,0.0,0.0,0
13066,1469909328075,,,,,,,0.32,0.11,1.02,-4.4,0.1,-0.3,2920,3644,,,,,,,,,,,,,,,,,
13086,1469909328095,,,,,,,0.31,0.09,1.04,-4.4,0.2,-0.1,2760,3644,,,,,,,,,,,,,,,,,
13106,1469909328115,,,,,,,0.31,0.08,1.03,-4.4,-1.1,-0.1,2920,3627,,,,,,,,,,,,,,,,,
13126,1469909328135,,,,,,,0.32,0.04,1.04,-4.4,-1.0,-0.3,2820,3627,,,,,,,,,,,,,,,,,
13146,1469909328155,,,,42,,,0.34,0.02,1.04,-4.2,-1.1,-0.2,2780,3610,0.79,5,39.539303,-122.335579,65.98,0.147,338.7,9,2,1.8,0,0.0,-1,0.0,,0.0,0
13166,1469909328175,,,,,,,0.35,0.07,1.04,-4.1,-0.0,-0.4,2800,3593,,,,,,,,,,,,,,,,,
13186,1469909328102,,,,,,,0.33,0.11,1.03,-4.3,0.4,-0.6,2720,3627,,,,,,,,,,,,,,,,,
13206,1469909328122,,,,,,,0.34,0.14,1.06,-4.3,-0.3,-0.9,2800,3593,,,,,,,,,,,,,,,,,
13226,1469909328142,,,,,,,0.35,0.12,1.1,-4.4,-0.4,-1.0,2860,3593,,,,,,,,,,,,,,,,,
13246,1469909328162,0,232.6,186.6,51,188.5,,0.38,0.13,1.06,-4.6,0.5,-1.0,2780,3593,0.781,5,39.539276,-122.335579,65.28,0.149,338.7,9,2,1.8,0,0.0,-1,0.0,0.0,0.0,0
13266,1469909328182,,,,,,,0.38,0.14,1.05,-4.5,1.2,-1.1,2740,3560,,,,,,,,,,,,,,,,,
13286,1469909328202,,,,,,,0.34,0.18,1.04,-4.8,2.2,-1.0,2760,3560,,,,,,,,,,,,,,,,,
13306,1469909328222,,,,,,,0.34,0.17,1.06,-4.9,1.9,-0.8,2700,3544,,,,,,,,,,,,,,,,,
13326,1469909328242,,,,,,,0.35,0.12,1.07,-4.6,0.7,-0.6,2800,3527,,,,,,,,,,,,,,,,,
13346,1469909328262,,,,52,,,0.36,0.09,1.09,-4.2,0.4,-0.6,2760,3576,0.779,5,39.539253,-122.335564,64.72,0.151,338.8,9,2,1.8,0,0.0,-1,0.0,,0.0,0
13366,1469909328282,,,,,,,0.37,0.12,1.08,-3.9,0.8,-0.5,2700,3593,,,,,,,,,,,,,,,,,
13386,1469909328303,,,,,,,0.36,0.17,1.04,-3.9,2.1,-0.4,2680,3544,,,,,,,,,,,,,,,,,
13406,1469909328323,,,,,,,0.33,0.13,1.02,-4.2,1.5,-0.3,2660,3512,,,,,,,,,,,,,,,,,
13426,1469909328343,,,,,,,0.3,0.14,1.01,-4.3,0.8,-0.2,2640,3495,,,,,,,,,,,,,,,,,
13446,1469909328363,0,232.6,186.4,32,188.7,,0.29,0.15,1.04,-4.2,0.8,-0.3,2560,3495,0.767,5,39.539227,-122.335564,63.98,0.153,338.8,9,2,1.8,0,0.0,-1,0.0,0.0,0.0,0
13466,1469909328383,,,,,,,0.33,0.14,1.05,-4.1,0.7,-0.2,2600,3480,,,,,,,,,,,,,,,,,
13486,1469909328401,,,,,,,0.34,0.11,1.04,-3.9,0.9,-0.2,2460,3544,,,,,,,,,,,,,,,,,
13506,1469909328421,,,,,,,0.33,0.16,0.98,-3.7,1.4,-0.2,2560,3464,,,,,,,,,,,,,,,,,
13526,1469909328441,,,,,,,0.32,0.12,1.0,-3.7,1.3,0.0,2440,3449,,,,,,,,,,,,,,,,,
13546,1469909328461,,,,46,,,0.31,0.12,0.99,-3.7,0.5,-0.0,2480,3512,0.723,5,39.5392,-122.335564,63.24,0.155,338.9,9,2,1.8,0,0.0,-1,0.0,,0.0,0
13566,1469909328481,,,,,,,0.3,0.08,1.03,-3.6,0.2,-0.0,2400,3480,,,,,,,,,,,,,,,,,
13586,1469909328501,,,,,,,0.32,0.08,1.03,-3.6,0.5,-0.1,2360,3403,,,,,,,,,,,,,,,,,
13606,1469909328521,,,,,,,0.33,0.07,0.95,-3.4,1.2,-0.0,2320,3418,,,,,,,,,,,,,,,,,
13626,1469909328541,,,,,,,0.34,0.08,0.96,-3.3,1.2,-0.1,2260,3433,,,,,,,,,,,,,,,,,
13646,1469909328561,0,232.6,186.7,26,188.6,,0.32,0.1,0.9,-3.4,0.5,-0.3,2260,3464,0.693,5,39.539173,-122.335556,62.53,0.156,339.0,9,2,1.8,0,0.0,-1,0.0,0.0,0.0,0
13666,1469909328581,,,,,,,0.31,0.09,0.94,-3.3,0.3,-0.3,2200,3464,,,,,,,,,,,,,,,,,
13686,1469909328601,,,,,,,0.3,0.08,0.96,-3.2,0.1,-0.5,2180,3433,,,,,,,,,,,,,,,,,
13706,1469909328621,,,,,,,0.29,0.08,1.01,-3.0,-0.7,-0.5,2140,3372,,,,,,,,,,,,,,,,,
13726,1469909328641,,,,,,,0.31,0.11,1.0,-2.9,-1.3,-0.5,2140,3372,,,,,,,,,,,,,,,,,
13746,1469909328661,,,,47,,,0.32,0.11,1.0,-3.2,-1.2,-0.4,2060,3358,0.641,5,39.539154,-122.335556,61.88,0.158,339.1,9,2,1.8,0,0.0,-1,0.0,,0.0,0
13766,1469909328681,,,,,,,0.33,0.13,1.01,-3.1,-0.6,-0.4,2100,3433,,,,,,,,,,,,,,,,,
13786,1469909328800,,,,,,,0.31,0.11,0.99,-2.9,0.5,-0.5,2040,3403,,,,,,,,,,,,,,,,,
13806,1469909328820,,,,,,,0.27,0.1,0.98,-2.8,0.9,-0.6,2000,3372,,,,,,,,,,,,,,,,,
13826,1469909328840,,,,,,,0.25,0.07,1.0,-2.8,1.2,-0.6,1960,3358,,,,,,,,,,,,,,,,,
13846,1469909328860,0,232.3,185.9,29,188.1,,0.25,0.08,1.06,-2.8,0.9,-0.6,1940,3387,0.603,0,39.539101,-122.335556,60.61,0.161,339.3,9,2,1.8,0,0.0,-1,0.0,0.0,0.0,0
13866,1469909328880,,,,,,,0.26,0.06,1.1,-2.7,0.6,-0.6,1880,3387,,,,,,,,,,,,,,,,,
13886,1469909328900,,,,,,,0.27,0.09,1.12,-2.7,1.0,-0.5,1880,3358,,,,,,,,,,,,,,,,,
13906,1469909328920,,,,,,,0.28,0.1,1.08,-2.8,1.4,-0.6,1840,3329,,,,,,,,,,,,,,,,,
13926,1469909328940,,,,,,,0.29,0.08,1.04,-2.8,1.6,-0.6,1780,3403,,,,,,,,,,,,,,,,,
13946,1469909328960,,,,37,,,0.3,0.11,1.03,-2.6,1.7,-0.7,1760,3358,0.558,0,39.539101,-122.335556,60.61,0.161,339.3,9,2,1.8,0,0.0,-1,0.0,,0.0,0
13966,1469909328980,,,,,,,0.29,0.12,0.99,-2.6,1.7,-0.8,1760,3315,,,,,,,,,,,,,,,,,
13986,1469909328897,,,,,,,0.25,0.08,1.01,-2.6,1.2,-0.7,1720,3329,,,,,,,,,,,,,,,,,
14006,1469909328917,,,,,,,0.24,0.07,1.01,-2.5,1.0,-0.5,1660,3286,,,,,,,,,,,,,,,,,
14026,1469909328937,,,,,,,0.23,0.08,1.03,-2.5,0.2,-0.5,1680,3126,,,,,,,,,,,,,,,,,
14046,1469909328957,0,232.0,185.9,44,187.9,13.8,0.22,0.03,1.04,-2.4,-0.3,-0.6,1680,3286,0.517,0,39.539078,-122.335541,60.11,0.163,339.4,9,2,1.8,0,0.0,-1,0.0,0.0,0.0,0
14066,1469909328977,,,,,,,0.25,-0.03,1.05,-2.2,-0.4,-0.4,1760,3190,,,,,,,,,,,,,,,,,
14086,1469909328997,,,,,,,0.26,-0.02,1.04,-2.2,-0.5,-0.1,1800,3230,,,,,,,,,,,,,,,,,
14106,1469909329017,,,,,,,0.29,0.04,1.04,-2.2,-0.4,0.1,1900,3190,,,,,,,,,,,,,,,,,
14126,1469909329037,,,,,,,0.31,0.06,1.01,-2.0,-0.5,0.1,1980,3190,,,,,,,,,,,,,,,,,
14146,1469909329057,,,,31,,,0.31,0.05,0.99,-1.8,-1.0,0.1,2100,3126,0.557,0,39.539055,-122.335541,59.63,0.165,339.4,9,2,1.8,0,0.0,-1,0.0,,0.0,0
14166,1469909329077,,,,,,,0.35,0.02,0.98,-1.7,-1.6,0.1,2200,3178,,,,,,,,,,,,,,,,,
14186,1469909329103,,,,,,,0.39,-0.02,0.98,-1.4,-1.7,-0.0,2260,3113,,,,,,,,,,,,,,,,,
14206,1469909329123,,,,,,,0.42,-0.03,0.93,-1.2,-2.3,-0.1,2300,3138,,,,,,,,,,,,,,,,,
14226,1469909329143,,,,,,,0.41,-0.02,0.93,-0.9,-2.2,-0.2,2480,3089,,,,,,,,,,,,,,,,,
14246,1469909329163,0,232.9,187.1,57,189.1,,0.42,-0.05,0.92,-0.8,-2.1,-0.3,2560,3076,0.707,5,39.539032,-122.335541,58.97,0.166,339.5,9,2,1.8,0,0.0,-1,0.0,0.0,0.0,0
14266,1469909329183,,,,,,,0.43,-0.03,0.89,-0.6,-1.9,-0.6,2580,3040,,,,,,,,,,,,,,,,,
14286,1469909329203,,,,,,,0.45,-0.07,0.9,-0.5,-1.9,-0.3,2780,3027,,,,,,,,,,,,,,,,,
14306,1469909329223,,,,,,,0.46,-0.05,0.93,-0.3,-1.1,-0.5,2820,3027,,,,,,,,,,,,,,,,,
14326,1469909329243,,,,,,,0.48,-0.04,0.91,-0.2,-0.7,-0.5,2860,3015,,,,,,,,,,,,,,,,,
14346,1469909329263,,,,44,,,0.5,-0.06,0.88,0.0,-0.4,-0.5,3080,3113,0.882,4,39.539009,-122.335541,58.39,0.168,339.5,9,2,1.8,0,0.0,-1,0.0,,0.0,0
14366,1469909329283,,,,,,,0.51,-0.09,0.92,0.0,-0.5,-0.7,3080,3126,,,,,,,,,,,,,,,,,
14386,1469909329303,,,,,,,0.49,-0.08,0.92,0.1,-1.1,-0.5,3140,3113,,,,,,,,,,,,,,,,,
14406,1469909329323,,,,,,,0.48,-0.08,0.95,0.3,-1.4,-0.5,3060,3113,,,,,,,,,,,,,,,,,
14426,1469909329343,,,,,,,0.48,-0.09,0.99,0.4,-1.1,-0.8,3020,3113,,,,,,,,,,,,,,,,,
14446,1469909329363,0,232.7,186.8,78,188.6,,0.47,-0.13,1.02,0.7,-0.8,-0.9,3040,3040,1.024,4,39.538986,-122.335526,57.33,0.17,339.5,9,2,1.8,0,0.0,-1,0.0,0.0,0.0,0
14466,1469909329383,,,,,,,0.45,-0.13,1.02,1.0,-1.3,-0.9,2940,3052,,,,,,,,,,,,,,,,,
14486,1469909329401,,,,,,,0.45,-0.14,1.07,1.2,-0.9,-1.0,2960,3015,,,,,,,,,,,,,,,,,
14506,1469909329421,,,,,,,0.46,-0.16,1.08,1.4,-1.3,-1.2,3040,3004,,,,,,,,,,,,,,,,,
14526,1469909329441,,,,,,,0.45,-0.18,1.11,1.5,-1.3,-1.1,2920,3015,,,,,,,,,,,,,,,,,
14546,1469909329461,,,,56,,,0.46,-0.19,1.12,1.6,-1.4,-1.0,3080,3004,0.983,4,39.538963,-122.335526,56.38,0.171,339.6,9,2,1.8,0,0.0,-1,0.0,,0.0,0
14566,1469909329481,,,,,,,0.45,-0.16,1.12,1.5,-1.1,-1.0,2940,3015,,,,,,,,,,,,,,,,,
14586,1469909329600,,,,,,,0.47,-0.17,1.11,1.7,-1.4,-1.1,3020,3004,,,,,,,,,,,,,,,,,
14606,1469909329620,,,,,,,0.46,-0.18,1.14,1.7,-1.4,-1.1,3040,2992,,,,,,,,,,,,,,,,,
14626,1469909329640,,,,,,,0.44,-0.19,1.15,1.6,-1.5,-1.1,3040,2969,,,,,,,,,,,,,,,,,
14646,1469909329660,0,232.5,186.6,49,188.9,,0.44,-0.18,1.17,1.5,-1.1,-0.9,2940,2969,0.999,4,39.538918,-122.335526,54.31,0.175,339.7,9,2,1.8,0,0.0,-1,0.0,0.0,0.0,0
14666,1469909329680,,,,,,,0.44,-0.18,1.19,1.4,-1.0,-0.8,2920,2969,,,,,,,,,,,,,,,,,
14686,1469909329700,,,,,,,0.43,-0.16,1.16,1.1,-0.7,-0.6,2880,2946,,,,,,,,,,,,,,,,,
14706,1469909329720,,,,,,,0.43,-0.12,1.18,0.7,-0.7,-0.4,2940,2935,,,,,,,,,,,,,,,,,
14726,1469909329740,,,,,,,0.43,-0.07,1.15,0.1,-0.5,-0.3,2820,2935,,,,,,,,,,,,,,,,,
14746,1469909329760,,,,52,,,0.44,-0.04,1.13,-0.2,-0.6,-0.2,2980,2924,0.984,4,39.538918,-122.335526,54.31,0.175,339.7,9,2,1.8,0,0.0,-1,0.0,,0.0,0
14766,1469909329780,,,,,,,0.44,-0.03,1.11,-0.6,-0.5,-0.1,2820,2946,,,,,,,,,,,,,,,,,
14786,1469909329700,,,,,,,0.43,0.0,1.11,-1.0,-0.4,-0.0,2900,2924,,,,,,,,,,,,,,,,,
14806,1469909329720,,,,,,,0.43,-0.02,1.09,-1.2,-0.2,0.1,2900,2912,,,,,,,,,,,,,,,,,
14826,1469909329740,,,,,,,0.41,-0.04,1.06,-1.6,-0.3,0.2,2820,2901,,,,,,,,,,,,,,,,,
14846,1469909329760,0,232.3,186.6,73,188.9,,0.4,-0.05,1.01,-2.0,-0.5,0.4,2920,2890,1.019,4,39.538895,-122.335518,53.44,0.176,339.7,9,2,1.8,0,0.0,-1,0.0,0.0,0.0,0
14866,1469909329780,,,,,,,0.39,-0.09,0.97,-2.0,-0.8,0.5,2860,2869,,,,,,,,,,,,,,,,,
14886,1469909329803,,,,,,,0.38,-0.09,0.91,-2.2,-1.1,0.6,2820,2847,,,,,,,,,,,,,,,,,
14906,1469909329823,,,,,,,0.37,-0.04,0.91,-2.3,-1.3,0.6,2800,2827,,,,,,,,,,,,,,,,,
14926,1469909329843,,,,,,,0.39,-0.01,0.88,-2.5,-1.7,0.5,2880,2880,,,,,,,,,,,,,,,,,
14946,1469909329863,,,,71,,,0.38,0.03,0.87,-2.8,-1.8,0.2,2740,2880,0.994,4,39.538876,-122.335518,52.63,0.177,339.8,9,2,1.8,0,0.0,-1,0.0,,0.0,0
14966,1469909329883,,,,,,,0.36,0.06,0.87,-3.1,-1.6,0.2,2780,2869,,,,,,,,,,,,,,,,,
14986,1469909329896,,,,,,,0.36,0.04,0.86,-3.3,-1.7,0.1,2740,2806,,,,,,,,,,,,,,,,,
15006,1469909329916,,,,,,,0.36,0.05,0.88,-3.4,-1.3,-0.1,2660,2796,,,,,,,,,,,,,,,,,
15026,1469909329936,,,,,,,0.34,0.08,0.88,-3.6,-0.6,-0.2,2700,2786,,,,,,,,,,,,,,,,,
15046,1469909329956,0,232.9,187.1,36,189.1,13.82,0.33,0.09,0.87,-3.9,-0.5,-0.4,2600,2806,0.951,4,39.538856,-122.335518,51.75,0.179,339.8,9,2,1.8,0,0.0,-1,0.0,0.0,0.0,0
15066,1469909329976,,,,,,,0.34,0.07,0.87,-4.2,-0.8,-0.4,2520,2816,,,,,,,,,,,,,,,,,
15086,1469909330002,,,,,,,0.33,0.07,0.89,-4.4,-0.7,-0.4,2560,2796,,,,,,,,,,,,,,,,,
15106,1469909330022,,,,,,,0.31,0.06,0.88,-4.7,-0.3,-0.1,2540,2796,,,,,,,,,,,,,,,,,
15126,1469909330042,,,,,,,0.29,0.06,0.94,-4.8,0.3,-0.1,2420,2786,,,,,,,,,,,,,,,,,
15146,1469909330062,,,,62,,,0.27,0.09,0.94,-5.1,0.5,0.0,2400,2786,0.901,4,39.538837,-122.335518,51.07,0.18,339.8,9,2,1.8,0,0.0,-1,0.0,,0.0,0
15166,1469909330082,,,,,,,0.27,0.07,0.94,-5.1,0.9,0.2,2380,2776,,,,,,,,,,,,,,,,,
15186,1469909330101,,,,,,,0.28,0.09,0.92,-5.3,0.7,0.0,2440,2786,,,,,,,,,,,,,,,,,
15206,1469909330121,,,,,,,0.27,0.08,0.88,-5.1,0.7,-0.0,2380,2776,,,,,,,,,,,,,,,,,
15226,1469909330141,,,,,,,0.28,0.07,0.89,-5.1,0.6,0.1,2320,2727,,,,,,,,,,,,,,,,,
15246,1469909330161,0,232.9,187.1,32,189.0,,0.27,0.09,0.87,-5.1,0.8,-0.0,2320,2707,0.868,4,39.538818,-122.335518,50.4,0.181,339.8,9,3,1.8,0,0.0,-1,0.0,0.0,0.0,0
15266,1469909330181,,,,,,,0.27,0.06,0.89,-5.0,0.9,-0.3,2200,2746,,,,,,,,,,,,,,,,,
15286,1469909330203,,,,,,,0.26,0.05,0.87,-4.9,0.5,-0.4,2240,2776,,,,,,,,,,,,,,,,,
15306,1469909330223,,,,,,,0.25,0.09,0.88,-5.0,-0.5,-0.3,2180,2786,,,,,,,,,,,,,,,,,
15326,1469909330243,,,,,,,0.24,0.1,0.9,-5.0,-0.7,-0.3,2100,2806,,,,,,,,,,,,,,,,,
15346,1469909330263,,,,56,,,0.23,0.09,0.92,-5.0,-0.4,-0.4,2140,2746,0.813,5,39.538796,-122.335503,49.74,0.183,339.8,9,3,1.8,0,0.0,-1,0.0,,0.0,0
15366,1469909330283,,,,,,,0.22,0.09,0.96,-4.9,-0.1,-0.6,2060,2716,,,,,,,,,,,,,,,,,
15386,1469909330402,,,,,,,0.22,0.1,0.96,-4.8,-0.3,-0.7,2060,2698,,,,,,,,,,,,,,,,,
15406,1469909330422,,,,,,,0.21,0.08,0.96,-4.7,-0.3,-0.6,2040,2689,,,,,,,,,,,,,,,,,
15426,1469909330442,,,,,,,0.17,0.09,0.96,-4.6,0.1,-0.8,1980,2680,,,,,,,,,,,,,,,,,
15446,1469909330462,0,233.0,187.3,34,189.2,,0.15,0.08,0.98,-4.4,0.1,-1.0,1960,2707,0.768,5,39.538757,-122.335503,48.55,0.186,339.6,9,3,1.8,0,0.0,-1,0.0,0.0,0.0,0
15466,1469909330482,,,,,,,0.15,0.12,0.94,-4.3,-0.2,-1.1,1960,2736,,,,,,,,,,,,,,,,,
15486,1469909330502,,,,,,,0.15,0.14,0.95,-4.4,-0.6,-1.1,1900,2707,,,,,,,,,,,,,,,,,
15506,1469909330522,,,,,,,0.14,0.12,0.94,-4.3,-1.0,-1.2,1860,2716,,,,,,,,,,,,,,,,,
15526,1469909330542,,,,,,,0.12,0.12,0.96,-4.2,-0.8,-1.2,1860,2698,,,,,,,,,,,,,,,,,
15546,1469909330562,,,,32,,,0.12,0.11,0.98,-4.2,-0.3,-1.3,1800,2680,0.704,5,39.538757,-122.335503,48.55,0.186,339.6,9,3,1.8,0,0.0,-1,0.0,,0.0,0
15566,1469909330582,,,,,,,0.14,0.08,0.98,-3.8,-0.4,-1.4,1780,2698,,,,,,,,,,,,,,,,,
15586,1469909330500,,,,,,,0.15,0.05,0.98,-3.7,-0.0,-1.2,1740,2698,,,,,,,,,,,,,,,,,
15606,1469909330520,,,,,,,0.15,0.06,0.97,-3.6,-0.1,-1.3,1720,2707,,,,,,,,,,,,,,,,,
15626,1469909330540,,,,,,,0.14,0.03,0.97,-3.5,0.0,-1.4,1660,2716,,,,,,,,,,,,,,,,,
15646,1469909330560,0,233.0,187.4,25,189.2,,0.14,0.05,0.96,-3.5,0.1,-1.4,1680,2546,0.647,5,39.538738,-122.335503,48.2,0.187,339.6,9,3,1.8,0,0.0,-1,0.0,0.0,0.0,0
15666,1469909330580,,,,,,,0.15,0.08,0.98,-3.5,-0.6,-1.6,1660,2546,,,,,,,,,,,,,,,,,
15686,1469909330600,,,,,,,0.16,0.05,0.97,-3.6,-0.3,-1.3,1700,2598,,,,,,,,,,,,,,,,,
15706,1469909330620,,,,,,,0.18,0.08,0.97,-3.6,0.1,-1.2,1800,2572,,,,,,,,,,,,,,,,,
15726,1469909330640,,,,,,,0.21,0.06,0.99,-3.5,-0.5,-1.2,1860,2589,,,,,,,,,,,,,,,,,
15746,1469909330660,,,,41,,,0.21,0.06,0.96,-3.5,-1.0,-1.0,1960,2555,0.64,5,39.538715,-122.335503,47.84,0.189,339.5,9,3,1.8,0,0.0,-1,0.0,,0.0,0
15766,1469909330680,,,,,,,0.22,0.04,0.96,-3.4,-1.1,-0.8,2100,2572,,,,,,,,,,,,,,,,,
15786,1469909330701,,,,,,,0.24,0.02,0.96,-3.2,-1.8,-0.9,2180,2546,,,,,,,,,,,,,,,,,
15806,1469909330721,,,,,,,0.27,0.05,0.93,-3.2,-2.1,-0.9,2240,2521,,,,,,,,,,,,,,,,,
15826,1469909330741,,,,,,,0.29,0.08,0.94,-3.0,-1.9,-1.2,2300,2504,,,,,,,,,,,,,,,,,
15846,1469909330761,0,231.7,185.8,45,187.7,,0.31,0.07,0.95,-2.9,-1.9,-1.3,2420,2529,0.841,5,39.5387,-122.335487,47.7,0.19,339.4,9,3,1.8,0,0.0,-1,0.0,0.0,0.0,0
15866,1469909330781,,,,,,,0.3,0.06,0.97,-2.8,-1.7,-1.2,2520,2504,,,,,,,,,,,,,,,,,
15886,1469909330803,,,,,,,0.32,0.09,0.91,-2.6,-1.5,-1.2,2580,2489,,,,,,,,,,,,,,,,,
15906,1469909330823,,,,,,,0.35,0.04,0.93,-2.5,-1.3,-0.9,2780,2472,,,,,,,,,,,,,,,,,
15926,1469909330843,,,,,,,0.35,0.07,0.91,-2.3,-1.0,-1.1,2800,2472,,,,,,,,,,,,,,,,,
15946,1469909330863,,,,57,,,0.35,0.11,0.91,-2.3,-1.3,-1.3,2860,2480,1.053,4,39.538681,-122.335487,47.17,0.191,339.3,9,3,1.8,0,0.0,-1,0.0,,0.0,0
15966,1469909330883,,,,,,,0.34,0.07,0.89,-2.2,-1.8,-1.3,3060,2449,,,,,,,,,,,,,,,,,
15986,1469909330896,,,,,,,0.33,0.06,0.86,-2.0,-1.7,-1.3,3100,2472,,,,,,,,,,,,,,,,,
16006,1469909330916,,,,,,,0.33,0.06,0.86,-2.0,-2.0,-1.3,3140,2512,,,,,,,,,,,,,,,,,
16026,1469909330936,,,,,,,0.32,0.05,0.83,-1.9,-1.9,-1.1,3280,2529,,,,,,,,,,,,,,,,,
16046,1469909330956,0,233.1,187.3,42,189.2,13.78,0.3,0.06,0.87,-2.1,-1.3,-1.2,3260,2555,1.254,3,39.538662,-122.335487,46.39,0.193,339.2,9,3,1.8,0,0.0,-1,0.0,0.0,0.0,0
16066,1469909330976,,,,,,,0.27,0.06,0.9,-2.2,-1.5,-1.4,3200,2529,,,,,,,,,,,,,,,,,
16086,1469909331003,,,,,,,0.26,0.04,0.91,-2.1,-1.1,-1.3,3240,2512,,,,,,,,,,,,,,,,,
16106,1469909331023,,,,,,,0.23,0.02,0.9,-2.1,-1.1,-1.3,3260,2512,,,,,,,,,,,,,,,,,
16126,1469909331043,,,,,,,0.21,0.02,0.9,-2.3,-0.6,-1.2,3240,2496,,,,,,,,,,,,,,,,,
16146,1469909331063,,,,37,,,0.22,0.02,0.91,-2.5,-0.7,-1.2,3220,2504,1.277,3,39.538643,-122.335487,45.66,0.194,339.2,9,3,1.8,0,0.0,-1,0.0,,0.0,0
16166,1469909331083,,,,,,,0.2,0.02,0.92,-2.4,-0.8,-1.3,3220,2489,,,,,,,,,,,,,,,,,
16186,1469909331202,,,,,,,0.21,0.04,0.91,-2.4,-0.9,-1.2,3200,2504,,,,,,,,,,,,,,,,,
16206,1469909331222,,,,,,,0.18,0.02,0.91,-2.4,-1.4,-1.1,3220,2480,,,,,,,,,,,,,,,,,
16226,1469909331242,,,,,,,0.15,0.04,0.93,-2.7,-1.0,-1.0,3160,2512,,,,,,,,,,,,,,,,,
16246,1469909331262,0,232.6,186.9,43,188.8,,0.17,0.02,1.0,-2.8,-0.5,-0.8,3140,2521,1.278,3,39.538609,-122.33548,44.57,0.196,338.8,9,3,1.8,0,0.0,-1,0.0,0.0,0.0,0
16266,1469909331282,,,,,,,0.17,0.0,0.99,-2.7,-0.8,-0.8,3140,2496,,,,,,,,,,,,,,,,,
16286,1469909331302,,,,,,,0.18,0.03,0.96,-2.7,-0.7,-0.9,3160,2496,,,,,,,,,,,,,,,,,
16306,1469909331322,,,,,,,0.18,0.0,0.93,-2.8,-1.1,-0.8,3140,2489,,,,,,,,,,,,,,,,,
16326,1469909331342,,,,,,,0.17,0.02,0.95,-3.0,-0.9,-0.5,3180,2480,,,,,,,,,,,,,,,,,
16346,1469909331362,,,,42,,,0.16,0.04,1.0,-3.4,-0.3,-0.3,3180,2496,1.262,3,39.538609,-122.33548,44.57,0.196,338.8,9,3,1.8,0,0.0,-1,0.0,,0.0,0
16366,1469909331382,,,,,,,0.16,0.06,1.0,-3.7,0.1,-0.2,3100,2480,,,,,,,,,,,,,,,,,
16386,1469909331302,,,,,,,0.15,0.06,0.97,-3.7,-0.2,-0.2,3160,2456,,,,,,,,,,,,,,,,,
16406,1469909331322,,,,,,,0.14,0.04,0.94,-3.7,-0.5,-0.1,3180,2480,,,,,,,,,,,,,,,,,
16426,1469909331342,,,,,,,0.14,0.04,0.93,-3.9,-0.5,0.1,3180,2472,,,,,,,,,,,,,,,,,
16446,1469909331362,0,233.1,187.4,61,189.2,,0.12,0.03,0.95,-4.1,-0.8,0.1,3160,2464,1.27,3,39.538593,-122.33548,44.31,0.198,338.7,9,3,1.8,0,0.0,-1,0.0,0.0,0.0,0
16466,1469909331382,,,,,,,0.11,0.05,0.93,-4.6,-0.2,0.1,3100,2480,,,,,,,,,,,,,,,,,
16486,1469909331401,,,,,,,0.13,0.06,0.94,-4.9,-0.1,-0.0,3120,2464,,,,,,,,,,,,,,,,,
16506,1469909331421,,,,,,,0.12,0.07,0.95,-5.1,-0.3,-0.1,3120,2472,,,,,,,,,,,,,,,,,
16526,1469909331441,,,,,,,0.13,0.09,0.95,-5.1,0.0,-0.2,3160,2472,,,,,,,,,,,,,,,,,
16546,1469909331461,,,,44,,,0.12,0.06,0.93,-5.1,-0.3,-0.1,3140,2472,1.282,3,39.538574,-122.33548,44.16,0.199,338.5,9,3,1.8,0,0.0,-1,0.0,,0.0,0
16566,1469909331481,,,,,,,0.1,0.09,0.93,-5.3,-0.3,0.1,3160,2464,,,,,,,,,,,,,,,,,
16586,1469909331501,,,,,,,0.1,0.09,0.94,-5.6,-0.3,0.1,3180,2472,,,,,,,,,,,,,,,,,
16606,1469909331521,,,,,,,0.09,0.09,0.93,-5.9,-0.1,0.1,3140,2441,,,,,,,,,,,,,,,,,
16626,1469909331541,,,,,,,0.1,0.12,0.98,-6.1,0.5,0.0,3100,2464,,,,,,,,,,,,,,,,,
16646,1469909331561,0,232.9,187.3,45,189.2,,0.11,0.12,1.01,-6.2,0.4,-0.0,3060,2464,1.299,3,39.538559,-122.33548,44.05,0.2,338.4,9,3,1.8,0,0.0,-1,0.0,0.0,0.0,0
16666,1469909331581,,,,,,,0.11,0.15,0.99,-6.2,-0.2,0.1,3120,2456,,,,,,,,,,,,,,,,,
16686,1469909331600,,,,,,,0.09,0.15,0.98,-6.4,-0.5,0.2,3100,2464,,,,,,,,,,,,,,,,,
16706,1469909331620,,,,,,,0.1,0.14,0.95,-6.5,-0.7,0.3,3060,2449,,,,,,,,,,,,,,,,,
16726,1469909331640,,,,,,,0.11,0.13,0.94,-6.7,-0.6,0.4,3100,2441,,,,,,,,,,,,,,,,,
16746,1469909331660,,,,57,,,0.11,0.15,0.93,-7.1,-0.1,0.4,3060,2456,1.27,3,39.53854,-122.33548,43.72,0.201,338.2,9,3,1.8,0,0.0,-1,0.0,,0.0,0
16766,1469909331680,,,,,,,0.12,0.17,0.98,-7.6,-0.2,0.5,3140,2433,,,,,,,,,,,,,,,,,
16786,1469909331701,,,,,,,0.1,0.19,0.99,-7.9,-0.1,0.5,3160,2449,,,,,,,,,,,,,,,,,
16806,1469909331721,,,,,,,0.11,0.19,0.97,-8.2,0.4,0.6,3100,2441,,,,,,,,,,,,,,,,,
16826,1469909331741,,,,,,,0.11,0.2,0.98,-8.3,-0.1,0.7,3100,2418,,,,,,,,,,,,,,,,,
16846,1469909331761,0,231.8,185.9,42,187.8,,0.11,0.18,0.94,-8.3,0.2,0.7,3060,2441,1.266,3,39.538521,-122.335464,43.7,0.203,338.0,9,3,1.8,0,0.0,-1,0.0,0.0,0.0,0
16866,1469909331781,,,,,,,0.12,0.19,0.95,-8.4,-0.3,0.8,3140,2433,,,,,,,,,,,,,,,,,
16886,1469909331803,,,,,,,0.1,0.16,0.94,-8.6,-0.8,1.0,3060,2433,,,,,,,,,,,,,,,,,
16906,1469909331823,,,,,,,0.09,0.13,0.94,-9.0,-0.5,0.9,3120,2433,,,,,,,,,,,,,,,,,
16926,1469909331843,,,,,,,0.09,0.15,0.93,-9.4,-0.5,0.9,3100,2410,,,,,,,,,,,,,,,,,
16946,1469909331863,,,,62,,,0.07,0.16,0.94,-9.7,-0.1,0.8,3120,2433,1.282,3,39.538506,-122.335464,43.48,0.204,337.9,9,3,1.8,0,0.0,-1,0.0,,0.0,0
16966,1469909331883,,,,,,,0.08,0.2,0.96,-10.1,0.0,0.6,3020,2441,,,,,,,,,,,,,,,,,
16986,1469909331996,,,,,,,0.09,0.21,0.97,-10.4,-0.2,0.5,3000,2433,,,,,,,,,,,,,,,,,
17006,1469909332016,,,,,,,0.08,0.18,0.98,-10.5,-0.3,0.5,3120,2441,,,,,,,,,,,,,,,,,
17026,1469909332036,,,,,,,0.1,0.17,0.96,-10.5,-0.2,0.4,3100,2418,,,,,,,,,,,,,,,,,
17046,1469909332056,0,232.8,187.3,74,189.2,13.75,0.11,0.18,0.93,-10.3,-0.4,0.2,3120,2426,1.278,3,39.538471,-122.335464,43.22,0.206,337.5,9,3,1.8,0,0.0,-1,0.0,0.0,0.0,0
17066,1469909332076,,,,,,,0.11,0.18,0.89,-10.1,-0.4,-0.0,3080,2426,,,,,,,,,,,,,,,,,
17086,1469909332096,,,,,,,0.11,0.16,0.89,-10.0,-1.1,-0.2,3100,2403,,,,,,,,,,,,,,,,,
17106,1469909332116,,,,,,,0.1,0.15,0.86,-10.0,-1.0,-0.4,3100,2426,,,,,,,,,,,,,,,,,
17126,1469909332136,,,,,,,0.13,0.16,0.85,-10.2,-1.4,-0.5,3100,2418,,,,,,,,,,,,,,,,,
17146,1469909332156,,,,62,,,0.12,0.19,0.86,-10.4,-1.5,-0.7,2960,2410,1.298,3,39.538471,-122.335464,43.22,0.206,337.5,9,3,1.8,0,0.0,-1,0.0,,0.0,0
17166,1469909332176,,,,,,,0.13,0.19,0.89,-10.6,-1.0,-0.8,3060,2410,,,,,,,,,,,,,,,,,
17186,1469909332103,,,,,,,0.12,0.21,0.93,-10.6,-1.3,-0.9,3060,2410,,,,,,,,,,,,,,,,,
17206,1469909332123,,,,,,,0.1,0.22,0.97,-10.5,-1.0,-1.0,3040,2426,,,,,,,,,,,,,,,,,
17226,1469909332143,,,,,,,0.11,0.23,0.99,-10.6,-1.0,-1.2,3060,2410,,,,,,,,,,,,,,,,,
17246,1469909332163,0,232.1,186.1,65,188.1,,0.1,0.24,1.01,-10.5,-0.9,-1.2,3000,2403,1.257,3,39.538452,-122.335464,42.99,0.208,337.3,9,3,1.8,0,0.0,-1,0.0,0.0,0.0,0
17266,1469909332183,,,,,,,0.11,0.24,1.02,-10.3,-0.4,-1.3,3120,2418,,,,,,,,,,,,,,,,,
17286,1469909332203,,,,,,,0.11,0.25,1.02,-10.3,-0.5,-1.2,3060,2410,,,,,,,,,,,,,,,,,
17306,1469909332223,,,,,,,0.09,0.25,1.02,-10.0,-0.8,-1.1,3120,2418,,,,,,,,,,,,,,,,,
17326,1469909332243,,,,,,,0.1,0.26,0.98,-9.8,-0.8,-0.9,2980,2410,,,,,,,,,,,,,,,,,
17346,1469909332263,,,,47,,,0.1,0.24,0.97,-9.5,-1.5,-0.8,3040,2403,1.261,3,39.538437,-122.335449,42.84,0.209,337.2,9,3,1.8,0,0.0,-1,0.0,,0.0,0
17366,1469909332283,,,,,,,0.09,0.26,0.96,-9.4,-1.1,-0.9,3020,2403,,,,,,,,,,,,,,,,,
