"Interval"|"ms"|0|0|1,"Utc"|"ms"|0|0|1,"FuelLevel"|"F"|0|100|5,"OilTemp"|"F"|0.0|300.0|5,"Coolant"|"F"|0.0|300.0|5,"OilPress"|"PSI"|0|150|10,"EngineTemp"|"F"|0.0|300.0|5,"Battery"|"Volts"|0.0|20.0|1,"AccelX"|"G"|-3.0|3.0|50,"AccelY"|"G"|-3.0|3.0|50,"AccelZ"|"G"|-3.0|3.0|50,"Yaw"|"Deg/Sec"|-300.0|300.0|50,"Pitch"|"Deg/Sec"|-300.0|300.0|50,"Roll"|"Deg/Sec"|-300.0|300.0|50,"RPM"|""|0|10000|50,"Driveshaft"|"RPM"|0|5000|50,"GearRatio"|""|-5.0|5.0|10,"Gear"|""|-1|5|10,"Latitude"|"Degrees"|-180.0|180.0|10,"Longitude"|"Degrees"|-180.0|180.0|10,"Speed"|"MPH"|0.0|150.0|10,"Distance"|"Miles"|0.0|0.0|10,"Altitude"|"Feet"|0.0|4000.0|10,"GPSSats"|""|0|20|10,"GPSQual"|""|0|5|10,"GPSDOP"|""|0.0|20.0|10,"LapCount"|""|0|0|10,"LapTime"|"Min"|0.0|0.0|10,"Sector"|""|0|0|10,"SectorTime"|"Min"|0.0|0.0|10,"PredTime"|"Min"|0.0|0.0|5,"ElapsedTime"|"Min"|0.0|0.0|10,"CurrentLap"|""|0|0|10
5066,1469905934332,,,,,,,0.0,0.11,0.98,-2.8,0.9,-0.5,2220,678,,,,,,,,,,,,,,,,,
5086,1469905934352,,,,,,,0.0,0.13,0.99,-2.8,0.8,-0.6,2220,683,,,,,,,,,,,,,,,,,
5106,1469905934372,,,,,,,-0.0,0.13,0.99,-2.9,0.8,-0.7,2220,681,,,,,,,,,,,,,,,,,
5126,1469905934392,,,,,,,0.0,0.13,1.0,-2.9,0.9,-0.6,2280,684,,,,,,,,,,,,,,,,,
5146,1469905934313,,,,43,,,0.01,0.11,1.0,-2.9,0.8,-0.3,2220,683,3.274,1,39.539391,-122.331955,11.82,0.0,321.2,7,2,2.3,0,0.0,-1,0.0,,0.0,0
5166,1469905934333,,,,,,,0.01,0.11,1.01,-2.9,0.7,-0.2,2220,686,,,,,,,,,,,,,,,,,
5186,1469905934353,,,,,,,0.01,0.1,1.02,-2.9,0.6,-0.2,2240,686,,,,,,,,,,,,,,,,,
5206,1469905934373,,,,,,,0.0,0.12,1.02,-2.9,0.5,-0.4,2280,684,,,,,,,,,,,,,,,,,
5226,1469905934393,,,,,,,0.0,0.11,1.0,-3.0,0.3,-0.4,2200,686,,,,,,,,,,,,,,,,,
5246,1469905934411,0,251.2,196.4,43,204.0,,0.0,0.13,0.99,-2.9,0.1,-0.3,2220,686,3.28,1,39.539394,-122.331955,12.05,0.001,320.8,7,2,2.3,0,0.0,-1,0.0,0.0,0.0,0
5266,1469905934431,,,,,,,0.0,0.13,0.99,-2.9,0.4,-0.3,2240,683,,,,,,,,,,,,,,,,,
5286,1469905934451,,,,,,,0.0,0.11,0.99,-2.9,0.1,-0.4,2180,684,,,,,,,,,,,,,,,,,
5306,1469905934471,,,,,,,-0.0,0.12,0.99,-2.9,0.2,-0.4,2220,683,,,,,,,,,,,,,,,,,
5326,1469905934491,,,,,,,-0.0,0.13,0.99,-2.9,0.0,-0.5,2200,680,,,,,,,,,,,,,,,,,
5346,1469905934509,,,,42,,,-0.01,0.11,1.0,-2.8,0.0,-0.6,2220,678,3.25,1,39.539398,-122.331955,12.01,0.001,320.3,7,2,2.3,0,0.0,-1,0.0,,0.0,0
5366,1469905934529,,,,,,,-0.0,0.11,1.01,-2.8,-0.2,-0.7,2240,683,,,,,,,,,,,,,,,,,
5386,1469905934549,,,,,,,-0.01,0.11,1.0,-2.9,-0.1,-0.7,2200,681,,,,,,,,,,,,,,,,,
5406,1469905934569,,,,,,,-0.01,0.11,0.98,-2.8,-0.6,-0.7,2240,683,,,,,,,,,,,,,,,,,
5426,1469905934589,,,,,,,-0.0,0.11,0.98,-2.8,-0.7,-0.7,2240,681,,,,,,,,,,,,,,,,,
5446,1469905934610,0,250.0,195.7,44,203.3,,0.0,0.1,1.0,-2.7,-0.8,-0.8,2240,684,3.26,1,39.539406,-122.331955,11.92,0.001,319.8,7,2,2.3,0,0.0,-1,0.0,0.0,0.0,0
5466,1469905934630,,,,,,,0.0,0.11,1.0,-2.8,-0.8,-0.7,2200,680,,,,,,,,,,,,,,,,,
5486,1469905934650,,,,,,,0.0,0.1,1.01,-2.7,-0.7,-0.6,2220,684,,,,,,,,,,,,,,,,,
5506,1469905934670,,,,,,,0.01,0.09,1.02,-2.8,-0.7,-0.4,2220,683,,,,,,,,,,,,,,,,,
5526,1469905934690,,,,,,,0.01,0.1,1.02,-2.8,-0.4,-0.5,2260,683,,,,,,,,,,,,,,,,,
5546,1469905934710,,,,39,,,0.01,0.09,1.01,-2.9,-0.1,-0.4,2260,684,3.265,1,39.53941,-122.331955,12.08,0.002,319.4,7,2,2.3,0,0.0,-1,0.0,,0.0,0
5566,1469905934730,,,,,,,0.02,0.1,0.99,-2.8,-0.2,-0.3,2220,687,,,,,,,,,,,,,,,,,
5586,1469905934750,,,,,,,0.02,0.11,1.01,-2.9,-0.2,-0.3,2260,686,,,,,,,,,,,,,,,,,
5606,1469905934770,,,,,,,0.02,0.08,1.01,-2.8,-0.2,-0.4,2200,686,,,,,,,,,,,,,,,,,
5626,1469905934790,,,,,,,0.02,0.08,1.01,-2.7,-0.0,-0.2,2240,689,,,,,,,,,,,,,,,,,
5646,1469905934813,0,250.5,196.0,38,203.6,,0.02,0.1,1.02,-2.7,-0.2,-0.2,2260,687,3.275,1,39.539413,-122.331955,12.04,0.002,318.9,7,2,2.3,0,0.0,-1,0.0,0.0,0.0,0
5666,1469905934833,,,,,,,0.02,0.09,1.01,-2.7,-0.2,-0.2,2220,687,,,,,,,,,,,,,,,,,
5686,1469905934853,,,,,,,0.02,0.1,1.02,-2.7,-0.2,-0.2,2280,686,,,,,,,,,,,,,,,,,
5706,1469905934873,,,,,,,0.01,0.09,1.01,-2.7,0.1,-0.1,2200,686,,,,,,,,,,,,,,,,,
5726,1469905934893,,,,,,,0.01,0.1,0.99,-2.7,0.0,0.0,2220,689,,,,,,,,,,,,,,,,,
5746,1469905935004,,,,44,,,0.01,0.11,0.99,-2.7,0.1,-0.0,2260,686,3.294,1,39.539425,-122.331955,11.9,0.003,318.1,7,2,2.3,0,0.0,-1,0.0,,0.0,0
5766,1469905935024,,,,,,,0.02,0.11,1.01,-2.7,0.2,-0.2,2260,684,,,,,,,,,,,,,,,,,
5786,1469905935044,,,,,,,0.02,0.11,1.01,-2.7,0.5,-0.2,2240,689,,,,,,,,,,,,,,,,,
5806,1469905935064,,,,,,,0.02,0.12,1.03,-2.8,0.5,-0.3,2240,689,,,,,,,,,,,,,,,,,
5826,1469905935084,,,,,,,0.02,0.11,1.02,-2.8,0.3,-0.4,2320,689,,,,,,,,,,,,,,,,,
5846,1469905935104,0,250.5,196.3,43,203.7,,0.02,0.12,1.02,-2.9,0.5,-0.5,2280,689,3.275,1,39.539425,-122.331955,11.9,0.003,318.1,7,2,2.3,0,0.0,-1,0.0,0.0,0.0,0
5866,1469905935124,,,,,,,0.01,0.11,1.02,-3.0,0.7,-0.2,2240,689,,,,,,,,,,,,,,,,,
5886,1469905935144,,,,,,,0.02,0.12,1.01,-3.0,0.7,-0.1,2280,690,,,,,,,,,,,,,,,,,
5906,1469905935164,,,,,,,0.02,0.13,1.02,-3.1,0.8,-0.2,2220,687,,,,,,,,,,,,,,,,,
5926,1469905935184,,,,,,,0.02,0.1,1.0,-3.1,1.0,-0.3,2240,689,,,,,,,,,,,,,,,,,
5946,1469905935113,,,,42,,,0.02,0.1,0.99,-3.1,1.2,-0.3,2260,686,3.222,1,39.539429,-122.331955,12.15,0.003,317.8,7,2,2.3,0,0.0,-1,0.0,,0.0,0
5966,1469905935133,,,,,,,0.02,0.11,0.98,-3.3,1.3,-0.4,2280,692,,,,,,,,,,,,,,,,,
5986,1469905935153,,,,,,,0.02,0.12,0.99,-3.3,1.4,-0.4,2240,687,,,,,,,,,,,,,,,,,
6006,1469905935173,,,,,,,0.01,0.13,1.0,-3.4,1.4,-0.2,2260,689,,,,,,,,,,,,,,,,,
6026,1469905935193,,,,,,,0.0,0.13,0.99,-3.4,1.4,0.0,2220,690,,,,,,,,,,,,,,,,,
6046,1469905935213,0,250.1,196.1,39,203.5,13.74,0.01,0.13,1.0,-3.4,1.4,0.1,2240,689,3.29,1,39.539432,-122.331955,12.17,0.003,317.6,7,2,2.3,0,0.0,-1,0.0,0.0,0.0,0
6066,1469905935233,,,,,,,0.01,0.13,1.0,-3.5,1.7,0.1,2280,690,,,,,,,,,,,,,,,,,
6086,1469905935253,,,,,,,0.01,0.13,1.0,-3.4,1.5,0.0,2220,690,,,,,,,,,,,,,,,,,
6106,1469905935273,,,,,,,0.0,0.14,1.0,-3.5,1.3,0.0,2280,689,,,,,,,,,,,,,,,,,
6126,1469905935293,,,,,,,0.02,0.15,0.99,-3.6,1.2,0.0,2220,689,,,,,,,,,,,,,,,,,
6146,1469905935312,,,,43,,,0.02,0.16,0.99,-3.6,1.3,-0.1,2240,690,3.265,1,39.539436,-122.331955,12.01,0.003,317.3,7,2,2.3,0,0.0,-1,0.0,,0.0,0
6166,1469905935332,,,,,,,0.02,0.16,0.98,-3.6,1.2,-0.1,2260,692,,,,,,,,,,,,,,,,,
6186,1469905935352,,,,,,,0.01,0.15,0.98,-3.6,0.9,-0.1,2300,692,,,,,,,,,,,,,,,,,
6206,1469905935372,,,,,,,0.01,0.12,0.98,-3.5,0.8,-0.1,2240,689,,,,,,,,,,,,,,,,,
6226,1469905935392,,,,,,,0.02,0.12,0.95,-3.5,0.8,-0.1,2320,692,,,,,,,,,,,,,,,,,
6246,1469905935411,0,249.5,195.5,44,202.9,,0.02,0.13,0.96,-3.5,0.5,-0.2,2280,692,3.295,1,39.539444,-122.33197,11.97,0.004,317.0,7,2,2.3,0,0.0,-1,0.0,0.0,0.0,0
6266,1469905935431,,,,,,,0.02,0.12,0.98,-3.5,0.5,-0.2,2220,689,,,,,,,,,,,,,,,,,
6286,1469905935451,,,,,,,0.02,0.12,0.99,-3.5,0.7,-0.2,2220,689,,,,,,,,,,,,,,,,,
6306,1469905935471,,,,,,,0.02,0.12,1.0,-3.4,0.8,-0.5,2260,689,,,,,,,,,,,,,,,,,
6326,1469905935491,,,,,,,0.02,0.12,1.0,-3.3,0.5,-0.8,2260,692,,,,,,,,,,,,,,,,,
6346,1469905935511,,,,44,,,0.02,0.11,1.03,-3.2,0.2,-1.0,2260,687,3.28,1,39.539448,-122.33197,12.16,0.005,316.8,7,2,2.3,0,0.0,-1,0.0,,0.0,0
6366,1469905935531,,,,,,,0.02,0.1,1.01,-3.2,0.5,-1.1,2240,686,,,,,,,,,,,,,,,,,
6386,1469905935551,,,,,,,0.03,0.09,1.0,-3.2,0.2,-1.1,2260,692,,,,,,,,,,,,,,,,,
6406,1469905935571,,,,,,,0.03,0.1,1.01,-3.2,0.1,-1.1,2260,689,,,,,,,,,,,,,,,,,
6426,1469905935591,,,,,,,0.03,0.08,1.02,-3.2,0.1,-0.9,2220,687,,,,,,,,,,,,,,,,,
6446,1469905935603,0,249.6,195.5,44,203.3,,0.02,0.09,1.02,-3.3,0.2,-0.8,2240,686,3.324,1,39.539452,-122.33197,12.01,0.005,316.6,7,2,2.3,0,0.0,-1,0.0,0.0,0.0,0
6466,1469905935623,,,,,,,0.02,0.08,1.02,-3.4,0.2,-0.7,2280,690,,,,,,,,,,,,,,,,,
6486,1469905935643,,,,,,,0.02,0.07,1.02,-3.4,0.3,-0.5,2260,692,,,,,,,,,,,,,,,,,
6506,1469905935663,,,,,,,0.02,0.06,1.04,-3.5,0.3,-0.4,2280,692,,,,,,,,,,,,,,,,,
6526,1469905935683,,,,,,,0.02,0.06,1.03,-3.5,0.2,-0.3,2240,690,,,,,,,,,,,,,,,,,
6546,1469905935802,,,,45,,,0.02,0.08,1.03,-3.5,0.2,-0.3,2220,693,3.222,1,39.539463,-122.33197,12.25,0.006,316.3,7,2,2.3,0,0.0,-1,0.0,,0.0,0
6566,1469905935822,,,,,,,0.02,0.09,1.02,-3.6,0.1,-0.4,2260,692,,,,,,,,,,,,,,,,,
6586,1469905935842,,,,,,,0.02,0.09,1.01,-3.7,0.1,-0.2,2320,695,,,,,,,,,,,,,,,,,
6606,1469905935862,,,,,,,0.02,0.09,1.01,-3.8,0.6,-0.1,2240,693,,,,,,,,,,,,,,,,,
6626,1469905935882,,,,,,,0.02,0.11,1.0,-3.9,0.6,0.0,2320,690,,,,,,,,,,,,,,,,,
6646,1469905935902,0,249.8,195.6,42,203.1,,0.01,0.11,1.0,-3.9,0.9,-0.0,2240,693,3.333,1,39.539463,-122.33197,12.25,0.006,316.3,7,2,2.3,0,0.0,-1,0.0,0.0,0.0,0
6666,1469905935922,,,,,,,0.01,0.12,0.98,-3.9,0.6,-0.0,2240,692,,,,,,,,,,,,,,,,,
6686,1469905935942,,,,,,,0.01,0.12,0.96,-3.9,0.5,-0.1,2260,693,,,,,,,,,,,,,,,,,
6706,1469905935962,,,,,,,0.02,0.14,0.95,-3.9,0.5,-0.0,2260,689,,,,,,,,,,,,,,,,,
6726,1469905935982,,,,,,,0.02,0.14,0.95,-3.9,0.7,-0.0,2280,689,,,,,,,,,,,,,,,,,
6746,1469905935899,,,,42,,,0.01,0.14,0.95,-4.0,0.9,-0.1,2200,695,3.295,1,39.539467,-122.33197,12.02,0.006,316.1,7,2,2.3,0,0.0,-1,0.0,,0.0,0
6766,1469905935919,,,,,,,0.01,0.15,0.94,-4.0,0.7,0.1,2200,689,,,,,,,,,,,,,,,,,
6786,1469905935939,,,,,,,0.02,0.15,0.96,-4.0,0.8,-0.0,2280,686,,,,,,,,,,,,,,,,,
6806,1469905935959,,,,,,,0.01,0.14,0.98,-4.0,1.2,-0.3,2220,687,,,,,,,,,,,,,,,,,
6826,1469905935979,,,,,,,0.0,0.13,0.98,-4.0,1.4,-0.5,2240,687,,,,,,,,,,,,,,,,,
6846,1469905936007,0,251.0,196.5,50,203.9,,0.01,0.14,0.98,-4.0,1.2,-0.5,2200,692,3.223,1,39.539471,-122.33197,12.17,0.006,315.8,7,2,2.3,0,0.0,-1,0.0,0.0,0.0,0
6866,1469905936027,,,,,,,0.01,0.13,0.97,-4.0,1.1,-0.4,2240,689,,,,,,,,,,,,,,,,,
6886,1469905936047,,,,,,,0.01,0.12,0.98,-4.0,1.0,-0.4,2280,692,,,,,,,,,,,,,,,,,
6906,1469905936067,,,,,,,0.01,0.12,0.97,-4.0,0.8,-0.2,2280,690,,,,,,,,,,,,,,,,,
6926,1469905936087,,,,,,,0.01,0.12,0.97,-4.1,0.6,0.0,2300,692,,,,,,,,,,,,,,,,,
6946,1469905936107,,,,49,,,0.01,0.12,0.97,-4.1,0.3,0.1,2240,689,3.367,1,39.539474,-122.33197,12.17,0.007,315.6,7,2,2.3,0,0.0,-1,0.0,,0.0,0
6966,1469905936127,,,,,,,0.01,0.14,0.97,-4.2,0.2,0.2,2280,690,,,,,,,,,,,,,,,,,
6986,1469905936147,,,,,,,-0.0,0.13,0.96,-4.1,-0.1,0.2,2280,690,,,,,,,,,,,,,,,,,
7006,1469905936167,,,,,,,-0.01,0.12,0.97,-4.1,-0.4,0.2,2240,687,,,,,,,,,,,,,,,,,
7026,1469905936187,,,,,,,-0.0,0.11,0.98,-4.1,-0.3,0.3,2260,690,,,,,,,,,,,,,,,,,
7046,1469905936207,0,249.3,195.3,43,202.9,13.66,0.0,0.12,0.99,-3.9,-0.2,0.1,2220,687,3.295,1,39.539482,-122.33197,12.23,0.007,315.3,7,2,2.3,0,0.0,-1,0.0,0.0,0.0,0
7066,1469905936227,,,,,,,-0.0,0.11,0.99,-3.9,-0.3,-0.1,2240,689,,,,,,,,,,,,,,,,,
7086,1469905936247,,,,,,,0.0,0.12,0.99,-3.8,-0.5,-0.1,2260,687,,,,,,,,,,,,,,,,,
7106,1469905936267,,,,,,,0.0,0.12,0.99,-3.8,-0.4,-0.1,2220,689,,,,,,,,,,,,,,,,,
7126,1469905936287,,,,,,,0.01,0.11,0.97,-3.7,-0.6,-0.2,2260,686,,,,,,,,,,,,,,,,,
7146,1469905936307,,,,47,,,0.01,0.12,0.97,-3.7,-0.4,-0.3,2300,689,3.28,1,39.53949,-122.33197,12.15,0.008,315.0,7,2,2.3,0,0.0,-1,0.0,,0.0,0
7166,1469905936327,,,,,,,0.02,0.12,0.97,-3.8,-0.2,-0.4,2220,686,,,,,,,,,,,,,,,,,
7186,1469905936347,,,,,,,0.02,0.11,0.98,-3.9,0.2,-0.4,2240,690,,,,,,,,,,,,,,,,,
7206,1469905936367,,,,,,,0.02,0.09,0.97,-3.9,0.6,-0.5,2280,689,,,,,,,,,,,,,,,,,
7226,1469905936387,,,,,,,0.02,0.1,0.98,-3.9,0.6,-0.5,2220,686,,,,,,,,,,,,,,,,,
7246,1469905936405,0,251.5,196.8,48,204.0,,0.03,0.09,0.99,-3.9,0.5,-0.5,2240,689,3.265,1,39.539494,-122.33197,12.14,0.008,314.7,7,2,2.3,0,0.0,-1,0.0,0.0,0.0,0
7266,1469905936425,,,,,,,0.03,0.1,0.98,-3.9,0.5,-0.4,2260,683,,,,,,,,,,,,,,,,,
7286,1469905936445,,,,,,,0.02,0.1,0.99,-4.0,0.5,-0.4,2240,689,,,,,,,,,,,,,,,,,
7306,1469905936465,,,,,,,0.03,0.09,0.99,-3.9,0.1,-0.4,2320,684,,,,,,,,,,,,,,,,,
7326,1469905936485,,,,,,,0.03,0.08,0.99,-3.8,-0.3,-0.5,2240,684,,,,,,,,,,,,,,,,,
7346,1469905936603,,,,41,,,0.03,0.09,0.99,-4.0,-0.1,-0.5,2220,676,3.251,1,39.539501,-122.33197,12.18,0.008,314.3,7,2,2.3,0,0.0,-1,0.0,,0.0,0
7366,1469905936623,,,,,,,0.04,0.1,0.98,-4.0,-0.2,-0.5,2200,670,,,,,,,,,,,,,,,,,
7386,1469905936643,,,,,,,0.04,0.1,0.98,-3.9,0.1,-0.5,2160,661,,,,,,,,,,,,,,,,,
7406,1469905936663,,,,,,,0.03,0.1,0.99,-4.0,0.2,-0.4,2100,650,,,,,,,,,,,,,,,,,
7426,1469905936683,,,,,,,0.03,0.1,1.0,-4.0,0.2,-0.4,2140,644,,,,,,,,,,,,,,,,,
7446,1469905936703,0,250.5,195.8,35,203.1,,0.05,0.11,1.01,-4.1,-0.3,-0.4,2060,627,3.289,1,39.539501,-122.33197,12.18,0.008,314.3,7,2,2.3,0,0.0,-1,0.0,0.0,0.0,0
7466,1469905936723,,,,,,,0.05,0.11,1.0,-4.1,-0.5,-0.4,2020,620,,,,,,,,,,,,,,,,,
7486,1469905936743,,,,,,,0.07,0.11,1.0,-4.0,-0.6,-0.4,2020,618,,,,,,,,,,,,,,,,,
7506,1469905936763,,,,,,,0.08,0.09,1.0,-3.8,-0.8,-0.5,2020,610,,,,,,,,,,,,,,,,,
7526,1469905936783,,,,,,,0.11,0.08,1.0,-3.7,-0.7,-0.5,1960,612,,,,,,,,,,,,,,,,,
7546,1469905936704,,,,28,,,0.13,0.09,1.0,-3.8,-0.7,-0.5,1980,615,3.254,1,39.539509,-122.33197,11.99,0.009,314.2,7,2,2.3,0,0.0,-1,0.0,,0.0,0
7566,1469905936724,,,,,,,0.16,0.08,0.99,-3.7,-0.6,-0.5,2020,620,,,,,,,,,,,,,,,,,
7586,1469905936744,,,,,,,0.18,0.09,0.99,-3.7,-0.6,-0.5,2040,626,,,,,,,,,,,,,,,,,
7606,1469905936764,,,,,,,0.2,0.09,0.99,-3.7,-0.5,-0.8,2100,632,,,,,,,,,,,,,,,,,
7626,1469905936784,,,,,,,0.23,0.09,1.0,-3.7,-0.4,-0.8,2080,641,,,,,,,,,,,,,,,,,
7646,1469905936807,0,250.1,195.8,42,203.3,,0.23,0.09,1.01,-3.7,-0.0,-0.9,2100,647,3.312,1,39.539513,-122.33197,12.06,0.009,314.2,7,2,2.3,0,0.0,-1,0.0,0.0,0.0,0
7666,1469905936827,,,,,,,0.23,0.1,1.01,-3.8,-0.1,-0.8,2100,650,,,,,,,,,,,,,,,,,
7686,1469905936847,,,,,,,0.22,0.1,1.02,-3.9,0.4,-0.7,2120,646,,,,,,,,,,,,,,,,,
7706,1469905936867,,,,,,,0.2,0.11,1.02,-4.1,0.2,-0.6,2120,646,,,,,,,,,,,,,,,,,
7726,1469905936887,,,,,,,0.18,0.11,1.01,-4.2,-0.0,-0.6,2160,643,,,,,,,,,,,,,,,,,
7746,1469905936900,,,,41,,,0.17,0.13,0.99,-4.1,-0.1,-0.7,2100,638,3.262,1,39.539516,-122.33197,11.89,0.009,314.1,7,2,2.3,0,0.0,-1,0.0,,0.0,0
7766,1469905936920,,,,,,,0.16,0.12,0.99,-4.2,0.3,-0.7,2120,632,,,,,,,,,,,,,,,,,
7786,1469905936940,,,,,,,0.16,0.12,0.99,-4.1,0.8,-0.7,2040,626,,,,,,,,,,,,,,,,,
7806,1469905936960,,,,,,,0.16,0.1,1.0,-4.1,1.4,-0.5,2040,621,,,,,,,,,,,,,,,,,
7826,1469905936980,,,,,,,0.16,0.1,1.0,-4.1,1.9,-0.2,2040,613,,,,,,,,,,,,,,,,,
7846,1469905937005,0,250.5,195.7,37,203.0,,0.15,0.1,0.99,-4.1,2.2,-0.0,1980,609,3.254,1,39.539524,-122.33197,11.32,0.01,314.0,7,2,2.3,0,0.0,-1,0.0,0.0,0.0,0
7866,1469905937025,,,,,,,0.14,0.11,0.98,-4.1,2.5,0.2,1960,603,,,,,,,,,,,,,,,,,
7886,1469905937045,,,,,,,0.13,0.12,0.98,-4.1,2.4,0.2,1940,596,,,,,,,,,,,,,,,,,
7906,1469905937065,,,,,,,0.12,0.11,0.98,-4.1,2.4,0.3,1960,592,,,,,,,,,,,,,,,,,
7926,1469905937085,,,,,,,0.13,0.1,0.99,-4.1,2.4,0.2,1900,587,,,,,,,,,,,,,,,,,
7946,1469905937105,,,,33,,,0.13,0.1,1.0,-4.1,2.4,0.1,1940,586,3.267,1,39.539528,-122.33197,11.17,0.01,313.9,7,2,2.3,0,0.0,-1,0.0,,0.0,0
7966,1469905937125,,,,,,,0.13,0.1,1.01,-4.1,2.2,-0.0,1900,581,,,,,,,,,,,,,,,,,
7986,1469905937145,,,,,,,0.14,0.12,1.0,-4.0,2.0,-0.1,1920,580,,,,,,,,,,,,,,,,,
8006,1469905937165,,,,,,,0.15,0.12,1.02,-4.0,1.8,-0.1,1900,578,,,,,,,,,,,,,,,,,
8026,1469905937185,,,,,,,0.15,0.12,1.02,-3.9,1.6,-0.2,1900,583,,,,,,,,,,,,,,,,,
8046,1469905937205,0,249.5,195.9,32,203.3,13.68,0.16,0.1,1.01,-3.9,1.3,-0.2,1940,587,3.253,1,39.539532,-122.33197,10.78,0.01,313.9,7,2,2.3,0,0.0,-1,0.0,0.0,0.0,0
8066,1469905937225,,,,,,,0.17,0.1,1.01,-3.8,1.2,-0.2,1940,589,,,,,,,,,,,,,,,,,
8086,1469905937245,,,,,,,0.17,0.1,1.01,-3.8,1.3,-0.1,1980,598,,,,,,,,,,,,,,,,,
8106,1469905937265,,,,,,,0.17,0.09,1.01,-3.9,1.3,-0.1,1980,604,,,,,,,,,,,,,,,,,
8126,1469905937285,,,,,,,0.17,0.11,1.02,-3.9,1.5,-0.2,2000,607,,,,,,,,,,,,,,,,,
8146,1469905937404,,,,36,,,0.15,0.11,1.0,-4.0,1.8,-0.3,2040,613,3.311,1,39.539539,-122.33197,10.37,0.011,313.9,7,2,2.3,0,0.0,-1,0.0,,0.0,0
8166,1469905937424,,,,,,,0.14,0.12,1.0,-4.0,2.0,-0.3,2060,604,,,,,,,,,,,,,,,,,
8186,1469905937444,,,,,,,0.12,0.13,0.99,-4.0,2.1,-0.3,2120,616,,,,,,,,,,,,,,,,,
8206,1469905937464,,,,,,,0.11,0.13,0.99,-4.0,1.8,-0.2,2040,623,,,,,,,,,,,,,,,,,
8226,1469905937484,,,,,,,0.1,0.13,0.99,-4.0,1.4,-0.2,2020,621,,,,,,,,,,,,,,,,,
8246,1469905937504,0,250.3,195.3,37,202.7,,0.1,0.13,1.0,-4.0,1.3,-0.1,2020,623,3.333,1,39.539539,-122.33197,10.37,0.011,313.9,7,2,2.3,0,0.0,-1,0.0,0.0,0.0,0
8266,1469905937524,,,,,,,0.08,0.13,1.0,-4.0,1.3,-0.1,2040,624,,,,,,,,,,,,,,,,,
8286,1469905937544,,,,,,,0.06,0.12,0.99,-4.0,1.3,0.1,2060,621,,,,,,,,,,,,,,,,,
8306,1469905937564,,,,,,,0.04,0.11,0.98,-3.9,1.3,0.1,2080,616,,,,,,,,,,,,,,,,,
8326,1469905937584,,,,,,,0.03,0.1,0.98,-3.9,1.4,-0.1,1980,610,,,,,,,,,,,,,,,,,
8346,1469905937502,,,,33,,,0.01,0.11,0.98,-4.0,1.2,-0.1,1980,603,3.317,1,39.539543,-122.33197,10.14,0.011,313.9,7,2,2.3,0,0.0,-1,0.0,,0.0,0
8366,1469905937522,,,,,,,-0.0,0.11,0.98,-4.1,1.3,-0.2,1980,592,,,,,,,,,,,,,,,,,
8386,1469905937542,,,,,,,-0.02,0.12,0.97,-4.1,1.3,-0.2,1920,584,,,,,,,,,,,,,,,,,
8406,1469905937562,,,,,,,-0.03,0.13,0.97,-4.1,1.1,-0.1,1860,578,,,,,,,,,,,,,,,,,
8426,1469905937582,,,,,,,-0.03,0.13,0.96,-4.1,1.3,-0.0,1860,572,,,,,,,,,,,,,,,,,
8446,1469905937602,0,250.8,195.7,31,202.9,,-0.03,0.13,0.97,-4.1,1.5,-0.0,1880,573,3.255,1,39.539551,-122.33197,10.1,0.012,313.9,7,2,2.3,0,0.0,-1,0.0,0.0,0.0,0
8466,1469905937622,,,,,,,-0.02,0.14,0.97,-4.1,1.7,-0.0,1880,572,,,,,,,,,,,,,,,,,
8486,1469905937642,,,,,,,-0.01,0.13,0.97,-4.1,1.8,-0.1,1840,572,,,,,,,,,,,,,,,,,
8506,1469905937662,,,,,,,0.0,0.12,0.98,-4.1,1.6,-0.2,1860,573,,,,,,,,,,,,,,,,,
8526,1469905937682,,,,,,,0.01,0.12,0.97,-4.1,1.6,-0.1,1880,578,,,,,,,,,,,,,,,,,
8546,1469905937702,,,,36,,,0.02,0.11,0.96,-4.0,1.1,-0.2,1880,580,3.246,1,39.539551,-122.33197,10.24,0.012,313.9,7,2,2.3,0,0.0,-1,0.0,,0.0,0
8566,1469905937722,,,,,,,0.02,0.11,0.96,-4.0,0.5,-0.2,1900,587,,,,,,,,,,,,,,,,,
8586,1469905937742,,,,,,,0.02,0.1,0.98,-4.0,0.3,-0.2,1900,589,,,,,,,,,,,,,,,,,
8606,1469905937762,,,,,,,0.02,0.1,0.98,-4.0,0.1,-0.3,1900,587,,,,,,,,,,,,,,,,,
8626,1469905937782,,,,,,,0.01,0.1,0.98,-4.0,-0.2,-0.2,1920,595,,,,,,,,,,,,,,,,,
8646,1469905937805,0,249.3,195.6,30,202.9,,0.02,0.11,0.97,-4.0,-0.2,-0.2,1960,600,3.293,1,39.539555,-122.33197,10.5,0.012,314.0,7,2,2.3,0,0.0,-1,0.0,0.0,0.0,0
8666,1469905937825,,,,,,,0.01,0.11,0.97,-4.1,-0.1,-0.1,1960,601,,,,,,,,,,,,,,,,,
8686,1469905937845,,,,,,,0.01,0.11,0.97,-4.2,-0.2,0.0,1980,604,,,,,,,,,,,,,,,,,
8706,1469905937865,,,,,,,0.02,0.11,0.96,-4.2,-0.2,0.1,1980,607,,,,,,,,,,,,,,,,,
8726,1469905937885,,,,,,,0.01,0.11,0.96,-4.2,0.0,0.2,1960,609,,,,,,,,,,,,,,,,,
8746,1469905937898,,,,37,,,0.01,0.1,0.97,-4.3,0.3,0.2,2000,613,3.267,1,39.539562,-122.33197,10.55,0.013,313.9,7,2,2.3,0,0.0,-1,0.0,,0.0,0
8766,1469905937918,,,,,,,0.01,0.11,0.96,-4.3,0.4,0.2,2040,613,,,,,,,,,,,,,,,,,
8786,1469905937938,,,,,,,0.0,0.12,0.97,-4.3,0.5,0.3,1980,613,,,,,,,,,,,,,,,,,
8806,1469905937958,,,,,,,-0.01,0.1,0.97,-4.3,0.6,0.4,2020,615,,,,,,,,,,,,,,,,,
8826,1469905937978,,,,,,,-0.03,0.1,0.96,-4.2,0.6,0.4,2020,613,,,,,,,,,,,,,,,,,
8846,1469905938005,0,249.5,195.3,37,202.9,,-0.03,0.11,0.97,-4.3,1.0,0.6,2020,613,3.197,1,39.539566,-122.33197,10.52,0.013,313.9,7,2,2.3,0,0.0,-1,0.0,0.0,0.0,0
8866,1469905938025,,,,,,,-0.03,0.09,0.98,-4.4,1.1,0.7,2020,607,,,,,,,,,,,,,,,,,
8886,1469905938045,,,,,,,-0.03,0.1,0.97,-4.3,1.1,0.6,1980,606,,,,,,,,,,,,,,,,,
8906,1469905938065,,,,,,,-0.03,0.11,0.97,-4.3,1.2,0.4,1960,603,,,,,,,,,,,,,,,,,
8926,1469905938085,,,,,,,-0.03,0.12,0.97,-4.3,1.2,0.4,1960,601,,,,,,,,,,,,,,,,,
8946,1469905938204,,,,36,,,-0.04,0.13,0.96,-4.3,0.9,0.2,1960,598,3.284,1,39.53957,-122.33197,10.61,0.013,313.9,7,2,2.3,0,0.0,-1,0.0,,0.0,0
8966,1469905938224,,,,,,,-0.05,0.13,0.95,-4.3,0.7,0.1,1960,595,,,,,,,,,,,,,,,,,
8986,1469905938244,,,,,,,-0.05,0.13,0.96,-4.3,0.9,0.0,1960,598,,,,,,,,,,,,,,,,,
9006,1469905938264,,,,,,,-0.04,0.14,0.96,-4.2,0.7,-0.1,1980,596,,,,,,,,,,,,,,,,,
9026,1469905938284,,,,,,,-0.03,0.13,0.96,-4.2,0.8,-0.2,1940,598,,,,,,,,,,,,,,,,,
9046,1469905938304,0,250.1,196.0,36,203.3,13.67,-0.02,0.13,0.97,-4.1,0.8,-0.3,1960,603,3.255,1,39.53957,-122.33197,10.61,0.013,313.9,7,2,2.3,0,0.0,-1,0.0,0.0,0.0,0
9066,1469905938324,,,,,,,-0.02,0.14,0.98,-4.1,0.8,-0.5,2000,603,,,,,,,,,,,,,,,,,
9086,1469905938344,,,,,,,-0.01,0.13,0.97,-4.1,0.7,-0.5,1940,603,,,,,,,,,,,,,,,,,
9106,1469905938364,,,,,,,-0.0,0.13,0.97,-4.1,0.5,-0.5,1960,607,,,,,,,,,,,,,,,,,
9126,1469905938384,,,,,,,0.0,0.13,0.99,-4.1,0.5,-0.5,1980,609,,,,,,,,,,,,,,,,,
9146,1469905938304,,,,36,,,-0.0,0.14,0.98,-4.1,0.3,-0.5,1980,613,3.228,1,39.539578,-122.33197,10.54,0.014,314.0,7,2,2.3,0,0.0,-1,0.0,,0.0,0
9166,1469905938324,,,,,,,-0.0,0.15,0.98,-4.1,0.2,-0.4,2020,615,,,,,,,,,,,,,,,,,
9186,1469905938344,,,,,,,0.0,0.14,1.0,-4.2,0.3,-0.3,2020,616,,,,,,,,,,,,,,,,,
9206,1469905938364,,,,,,,0.01,0.14,1.0,-4.1,0.4,-0.3,2020,615,,,,,,,,,,,,,,,,,
9226,1469905938384,,,,,,,0.01,0.13,1.02,-4.1,0.6,-0.2,2060,616,,,,,,,,,,,,,,,,,
9246,1469905938402,0,249.1,195.5,32,202.9,,0.01,0.12,1.03,-4.1,0.6,-0.0,2000,616,3.23,1,39.539581,-122.33197,10.67,0.014,314.1,7,2,2.3,0,0.0,-1,0.0,0.0,0.0,0
9266,1469905938422,,,,,,,0.01,0.13,1.02,-4.0,0.8,0.1,2000,616,,,,,,,,,,,,,,,,,
9286,1469905938442,,,,,,,-0.01,0.13,1.03,-4.1,0.9,0.2,2020,618,,,,,,,,,,,,,,,,,
9306,1469905938462,,,,,,,-0.0,0.14,1.02,-4.1,1.1,0.3,2020,616,,,,,,,,,,,,,,,,,
9326,1469905938482,,,,,,,-0.01,0.15,1.03,-4.2,1.3,0.3,2000,615,,,,,,,,,,,,,,,,,
9346,1469905938501,,,,33,,,-0.01,0.13,1.02,-4.2,1.6,0.4,2020,616,3.301,1,39.539585,-122.33197,10.9,0.014,314.2,7,2,2.3,0,0.0,-1,0.0,,0.0,0
9366,1469905938521,,,,,,,-0.02,0.12,1.01,-4.2,1.5,0.3,2020,612,,,,,,,,,,,,,,,,,
9386,1469905938541,,,,,,,-0.02,0.12,1.01,-4.2,1.4,0.2,2020,612,,,,,,,,,,,,,,,,,
9406,1469905938561,,,,,,,-0.02,0.11,0.99,-4.2,1.2,0.0,1980,612,,,,,,,,,,,,,,,,,
9426,1469905938581,,,,,,,-0.02,0.11,1.0,-4.2,0.8,-0.2,2000,612,,,,,,,,,,,,,,,,,
9446,1469905938601,0,250.5,195.0,38,202.4,,-0.02,0.12,1.0,-4.1,0.5,-0.3,1980,612,3.263,1,39.539593,-122.33197,10.69,0.015,314.3,7,2,2.3,0,0.0,-1,0.0,0.0,0.0,0
9466,1469905938621,,,,,,,-0.03,0.11,1.0,-4.1,0.2,-0.4,2000,613,,,,,,,,,,,,,,,,,
9486,1469905938641,,,,,,,-0.03,0.13,1.0,-4.1,0.1,-0.5,2040,613,,,,,,,,,,,,,,,,,
9506,1469905938661,,,,,,,-0.03,0.14,1.0,-4.1,-0.2,-0.6,1980,615,,,,,,,,,,,,,,,,,
9526,1469905938681,,,,,,,-0.03,0.14,1.0,-4.1,-0.4,-0.7,2020,616,,,,,,,,,,,,,,,,,
9546,1469905938701,,,,38,,,-0.03,0.13,1.03,-4.1,-0.2,-0.9,2040,618,3.399,1,39.539593,-122.33197,10.73,0.015,314.3,7,2,2.3,0,0.0,-1,0.0,,0.0,0
9566,1469905938721,,,,,,,-0.04,0.13,1.03,-4.1,-0.3,-1.0,2020,618,,,,,,,,,,,,,,,,,
9586,1469905938741,,,,,,,-0.04,0.14,1.02,-4.1,-0.4,-1.0,2020,620,,,,,,,,,,,,,,,,,
9606,1469905938761,,,,,,,-0.04,0.14,1.01,-4.1,-0.4,-1.1,2040,621,,,,,,,,,,,,,,,,,
9626,1469905938781,,,,,,,-0.04,0.13,1.01,-4.2,-0.3,-1.0,2060,626,,,,,,,,,,,,,,,,,
9646,1469905938805,0,249.5,194.9,40,202.4,,-0.03,0.13,1.01,-4.3,-0.5,-0.8,2080,624,3.269,1,39.5396,-122.33197,10.77,0.015,314.5,7,2,2.3,0,0.0,-1,0.0,0.0,0.0,0
9666,1469905938825,,,,,,,-0.03,0.12,0.98,-4.2,-0.5,-0.7,2020,624,,,,,,,,,,,,,,,,,
9686,1469905938845,,,,,,,-0.03,0.12,0.99,-4.2,-0.6,-0.7,2020,624,,,,,,,,,,,,,,,,,
9706,1469905938865,,,,,,,-0.02,0.12,0.99,-4.2,-0.4,-0.5,2060,626,,,,,,,,,,,,,,,,,
9726,1469905938885,,,,,,,-0.0,0.11,1.0,-4.2,-0.2,-0.3,2060,626,,,,,,,,,,,,,,,,,
9746,1469905938997,,,,40,,,-0.0,0.11,1.01,-4.2,-0.1,-0.2,2060,626,3.259,1,39.539608,-122.33197,10.75,0.016,314.5,7,2,2.3,0,0.0,-1,0.0,,0.0,0
9766,1469905939017,,,,,,,-0.0,0.11,1.0,-4.2,0.0,-0.2,2060,624,,,,,,,,,,,,,,,,,
9786,1469905939037,,,,,,,-0.01,0.12,1.0,-4.1,-0.0,-0.3,2060,624,,,,,,,,,,,,,,,,,
9806,1469905939057,,,,,,,-0.01,0.11,1.0,-4.1,0.1,-0.4,2100,623,,,,,,,,,,,,,,,,,
9826,1469905939077,,,,,,,-0.02,0.11,1.0,-4.0,0.0,-0.5,2000,624,,,,,,,,,,,,,,,,,
9846,1469905939097,0,250.3,195.5,33,202.8,,-0.02,0.13,0.99,-4.0,-0.1,-0.5,2040,624,3.317,1,39.539608,-122.33197,10.75,0.016,314.5,7,2,2.3,0,0.0,-1,0.0,0.0,0.0,0
9866,1469905939117,,,,,,,-0.02,0.13,0.98,-3.9,-0.3,-0.4,2100,624,,,,,,,,,,,,,,,,,
9886,1469905939137,,,,,,,-0.02,0.12,0.98,-3.9,-0.4,-0.4,2000,624,,,,,,,,,,,,,,,,,
9906,1469905939157,,,,,,,-0.02,0.11,0.98,-3.9,-0.3,-0.4,2020,623,,,,,,,,,,,,,,,,,
9926,1469905939177,,,,,,,-0.03,0.1,0.98,-3.9,-0.1,-0.3,2060,626,,,,,,,,,,,,,,,,,
9946,1469905939105,,,,36,,,-0.02,0.1,0.98,-3.9,-0.0,-0.4,2080,626,3.21,1,39.539612,-122.33197,11.25,0.016,314.5,7,2,2.3,0,0.0,-1,0.0,,0.0,0
9966,1469905939125,,,,,,,-0.02,0.11,0.97,-3.9,-0.3,-0.3,2040,627,,,,,,,,,,,,,,,,,
9986,1469905939145,,,,,,,-0.02,0.1,0.97,-3.9,-0.4,-0.2,2120,632,,,,,,,,,,,,,,,,,
10006,1469905939165,,,,,,,-0.01,0.1,0.96,-3.9,-0.6,-0.1,2080,630,,,,,,,,,,,,,,,,,
10026,1469905939185,,,,,,,-0.0,0.12,0.97,-3.9,-0.8,-0.0,2080,630,,,,,,,,,,,,,,,,,
10046,1469905939205,0,248.5,196.1,39,203.5,13.73,0.0,0.13,0.97,-3.9,-1.0,0.1,2040,633,3.291,1,39.539616,-122.33197,10.94,0.016,314.6,7,2,2.3,0,0.0,-1,0.0,0.0,0.0,0
10066,1469905939225,,,,,,,0.01,0.13,0.99,-3.8,-0.9,0.0,2080,633,,,,,,,,,,,,,,,,,
10086,1469905939245,,,,,,,0.02,0.13,0.98,-3.8,-0.6,-0.1,2060,635,,,,,,,,,,,,,,,,,
10106,1469905939265,,,,,,,0.02,0.14,0.99,-3.8,-0.1,-0.1,2120,633,,,,,,,,,,,,,,,,,
10126,1469905939285,,,,,,,0.03,0.15,0.99,-3.8,-0.1,-0.1,2060,633,,,,,,,,,,,,,,,,,
10146,1469905939304,,,,39,,,0.03,0.14,0.99,-3.7,-0.1,-0.1,2080,633,3.254,1,39.539623,-122.33197,11.09,0.017,314.6,7,2,2.3,0,0.0,-1,0.0,,0.0,0
10166,1469905939324,,,,,,,0.03,0.12,0.99,-3.7,-0.2,-0.1,2120,635,,,,,,,,,,,,,,,,,
10186,1469905939344,,,,,,,0.02,0.12,1.01,-3.8,-0.2,-0.1,2040,633,,,,,,,,,,,,,,,,,
10206,1469905939364,,,,,,,0.01,0.12,1.01,-3.8,-0.1,-0.3,2080,635,,,,,,,,,,,,,,,,,
10226,1469905939384,,,,,,,0.01,0.12,1.0,-3.8,-0.5,-0.3,2040,635,,,,,,,,,,,,,,,,,
10246,1469905939402,0,248.5,194.4,40,204.4,,0.02,0.12,0.98,-3.7,-0.6,-0.3,2080,635,3.286,1,39.539627,-122.33197,11.1,0.017,314.6,7,2,2.3,0,0.0,-1,0.0,0.0,0.0,0
10266,1469905939422,,,,,,,0.02,0.12,0.98,-3.7,-0.8,-0.2,2080,633,,,,,,,,,,,,,,,,,
10286,1469905939442,,,,,,,0.02,0.12,0.99,-3.7,-0.5,-0.2,2040,633,,,,,,,,,,,,,,,,,
10306,1469905939462,,,,,,,0.02,0.12,1.0,-3.7,-0.0,-0.3,2040,633,,,,,,,,,,,,,,,,,
10326,1469905939482,,,,,,,0.03,0.12,1.01,-3.7,0.4,-0.5,2060,635,,,,,,,,,,,,,,,,,
10346,1469905939502,,,,40,,,0.02,0.11,1.0,-3.6,0.7,-0.7,2080,633,3.213,1,39.539631,-122.33197,11.11,0.017,314.6,7,2,2.3,0,0.0,-1,0.0,,0.0,0
10366,1469905939522,,,,,,,0.02,0.12,0.99,-3.6,0.8,-0.7,2120,638,,,,,,,,,,,,,,,,,
10386,1469905939542,,,,,,,0.02,0.11,0.98,-3.6,0.7,-0.5,2060,636,,,,,,,,,,,,,,,,,
10406,1469905939562,,,,,,,0.02,0.11,0.99,-3.6,0.6,-0.4,2100,640,,,,,,,,,,,,,,,,,
10426,1469905939582,,,,,,,0.01,0.1,0.98,-3.7,0.3,-0.2,2140,641,,,,,,,,,,,,,,,,,
10446,1469905939601,0,248.8,195.4,36,202.6,,0.01,0.08,0.99,-3.7,0.4,-0.1,2080,641,3.213,1,39.539635,-122.33197,11.1,0.018,314.6,7,2,2.3,0,0.0,-1,0.0,0.0,0.0,0
10466,1469905939621,,,,,,,0.01,0.08,0.97,-3.6,0.2,-0.0,2140,644,,,,,,,,,,,,,,,,,
10486,1469905939641,,,,,,,0.01,0.09,0.98,-3.7,0.2,0.2,2080,644,,,,,,,,,,,,,,,,,
10506,1469905939661,,,,,,,0.01,0.1,0.99,-3.7,0.4,0.3,2100,641,,,,,,,,,,,,,,,,,
10526,1469905939681,,,,,,,0.02,0.1,1.0,-3.7,0.5,0.4,2140,641,,,,,,,,,,,,,,,,,
10546,1469905939798,,,,39,,,0.01,0.1,1.01,-3.7,0.9,0.5,2080,640,3.23,1,39.539646,-122.33197,11.22,0.018,314.5,7,2,2.3,0,0.0,-1,0.0,,0.0,0
10566,1469905939818,,,,,,,0.01,0.11,1.01,-3.7,0.7,0.6,2160,641,,,,,,,,,,,,,,,,,
10586,1469905939838,,,,,,,0.01,0.11,1.02,-3.6,0.4,0.4,2080,643,,,,,,,,,,,,,,,,,
10606,1469905939858,,,,,,,0.01,0.1,1.01,-3.6,0.2,0.3,2100,641,,,,,,,,,,,,,,,,,
10626,1469905939878,,,,,,,0.02,0.1,1.01,-3.5,0.3,0.2,2100,641,,,,,,,,,,,,,,,,,
10646,1469905939898,0,249.8,196.0,37,203.5,,0.02,0.09,1.0,-3.3,0.4,0.1,2120,641,3.204,1,39.539646,-122.33197,11.22,0.018,314.5,7,2,2.3,0,0.0,-1,0.0,0.0,0.0,0
10666,1469905939918,,,,,,,0.03,0.11,1.01,-3.3,0.2,-0.0,2100,643,,,,,,,,,,,,,,,,,
10686,1469905939938,,,,,,,0.03,0.11,1.0,-3.3,0.3,-0.2,2140,641,,,,,,,,,,,,,,,,,
10706,1469905939958,,,,,,,0.03,0.13,1.0,-3.3,0.1,-0.4,2100,641,,,,,,,,,,,,,,,,,
10726,1469905939978,,,,,,,0.04,0.11,1.02,-3.4,0.3,-0.5,2160,641,,,,,,,,,,,,,,,,,
10746,1469905939897,,,,40,,,0.03,0.1,1.02,-3.4,0.4,-0.6,2080,644,3.25,1,39.53965,-122.33197,11.19,0.019,314.5,7,2,2.3,0,0.0,-1,0.0,,0.0,0
10766,1469905939917,,,,,,,0.03,0.1,1.03,-3.5,0.7,-0.7,2120,644,,,,,,,,,,,,,,,,,
10786,1469905939937,,,,,,,0.02,0.1,1.03,-3.5,0.5,-0.7,2140,647,,,,,,,,,,,,,,,,,
10806,1469905939957,,,,,,,0.02,0.1,1.03,-3.5,0.5,-0.6,2120,649,,,,,,,,,,,,,,,,,
10826,1469905939977,,,,,,,0.02,0.11,1.03,-3.6,0.3,-0.4,2120,649,,,,,,,,,,,,,,,,,
10846,1469905940005,0,249.0,195.2,36,204.3,,0.02,0.11,1.03,-3.5,0.1,-0.3,2140,649,3.282,1,39.539654,-122.33197,11.31,0.019,314.5,7,2,2.3,0,0.0,-1,0.0,0.0,0.0,0
10866,1469905940025,,,,,,,0.02,0.11,1.04,-3.5,0.2,-0.2,2160,650,,,,,,,,,,,,,,,,,
10886,1469905940045,,,,,,,0.03,0.12,1.04,-3.5,0.3,-0.2,2100,646,,,,,,,,,,,,,,,,,
10906,1469905940065,,,,,,,0.03,0.11,1.03,-3.5,0.3,-0.0,2120,646,,,,,,,,,,,,,,,,,
10926,1469905940085,,,,,,,0.03,0.11,1.04,-3.5,0.4,-0.1,2120,649,,,,,,,,,,,,,,,,,
10946,1469905940105,,,,41,,,0.01,0.11,1.02,-3.5,0.3,-0.3,2100,652,3.205,1,39.539658,-122.33197,11.41,0.019,314.5,7,3,2.3,0,0.0,-1,0.0,,0.0,0
10966,1469905940125,,,,,,,0.02,0.12,1.01,-3.6,0.2,-0.3,2100,646,,,,,,,,,,,,,,,,,
10986,1469905940145,,,,,,,0.02,0.13,1.01,-3.5,-0.1,-0.4,2140,649,,,,,,,,,,,,,,,,,
11006,1469905940165,,,,,,,0.02,0.13,1.01,-3.5,0.1,-0.4,2160,647,,,,,,,,,,,,,,,,,
11026,1469905940185,,,,,,,0.03,0.12,1.01,-3.4,0.2,-0.3,2080,644,,,,,,,,,,,,,,,,,
11046,1469905940205,0,248.8,195.0,41,204.0,13.65,0.03,0.14,1.0,-3.4,0.3,-0.2,2120,646,3.359,1,39.539665,-122.33197,11.3,0.02,314.5,7,3,2.3,0,0.0,-1,0.0,0.0,0.0,0
11066,1469905940225,,,,,,,0.02,0.15,0.99,-3.4,0.3,-0.1,2180,650,,,,,,,,,,,,,,,,,
11086,1469905940245,,,,,,,0.02,0.14,0.99,-3.4,0.1,0.0,2120,650,,,,,,,,,,,,,,,,,
11106,1469905940265,,,,,,,0.03,0.13,0.99,-3.5,0.2,0.0,2100,652,,,,,,,,,,,,,,,,,
11126,1469905940285,,,,,,,0.03,0.12,0.96,-3.5,0.2,-0.1,2120,656,,,,,,,,,,,,,,,,,
11146,1469905940303,,,,38,,,0.03,0.12,0.97,-3.5,0.1,-0.4,2100,650,3.246,1,39.539669,-122.33197,11.35,0.02,314.6,7,3,2.3,0,0.0,-1,0.0,,0.0,0
11166,1469905940323,,,,,,,0.02,0.13,0.97,-3.4,0.1,-0.3,2140,652,,,,,,,,,,,,,,,,,
11186,1469905940343,,,,,,,0.02,0.12,0.98,-3.3,0.3,-0.3,2180,652,,,,,,,,,,,,,,,,,
11206,1469905940363,,,,,,,0.02,0.11,1.0,-3.4,0.5,-0.4,2100,652,,,,,,,,,,,,,,,,,
11226,1469905940383,,,,,,,0.01,0.11,1.0,-3.3,0.5,-0.6,2160,658,,,,,,,,,,,,,,,,,
11246,1469905940404,0,249.3,196.1,42,201.4,,0.01,0.11,1.0,-3.3,0.1,-0.5,2120,656,3.262,1,39.539673,-122.33197,11.45,0.02,314.6,7,3,2.3,0,0.0,-1,0.0,0.0,0.0,0
11266,1469905940424,,,,,,,0.01,0.12,1.0,-3.2,0.1,-0.5,2160,655,,,,,,,,,,,,,,,,,
11286,1469905940444,,,,,,,0.01,0.11,1.0,-3.3,-0.1,-0.6,2160,655,,,,,,,,,,,,,,,,,
11306,1469905940464,,,,,,,0.0,0.11,0.99,-3.2,0.2,-0.5,2120,652,,,,,,,,,,,,,,,,,
11326,1469905940484,,,,,,,0.01,0.12,0.99,-3.2,0.3,-0.5,2160,653,,,,,,,,,,,,,,,,,
11346,1469905940601,,,,39,,,0.01,0.11,0.99,-3.2,0.3,-0.5,2200,655,3.328,1,39.539684,-122.33197,11.48,0.021,314.5,7,3,2.3,0,0.0,-1,0.0,,0.0,0
11366,1469905940621,,,,,,,0.01,0.11,0.99,-3.2,0.1,-0.6,2120,655,,,,,,,,,,,,,,,,,
11386,1469905940641,,,,,,,-0.0,0.12,0.98,-3.2,0.0,-0.6,2120,655,,,,,,,,,,,,,,,,,
11406,1469905940661,,,,,,,0.02,0.12,0.98,-3.2,0.2,-0.7,2180,660,,,,,,,,,,,,,,,,,
11426,1469905940681,,,,,,,0.02,0.13,0.99,-3.2,0.6,-0.8,2100,652,,,,,,,,,,,,,,,,,
11446,1469905940701,0,250.1,196.4,40,203.1,,0.02,0.1,1.0,-3.2,0.8,-0.8,2160,652,3.237,1,39.539684,-122.33197,11.48,0.021,314.5,7,3,2.3,0,0.0,-1,0.0,0.0,0.0,0
11466,1469905940721,,,,,,,0.03,0.08,1.0,-3.1,0.7,-0.8,2100,653,,,,,,,,,,,,,,,,,
11486,1469905940741,,,,,,,0.01,0.08,1.0,-3.0,0.4,-0.9,2140,652,,,,,,,,,,,,,,,,,
11506,1469905940761,,,,,,,-0.0,0.09,0.99,-3.0,-0.1,-1.0,2120,658,,,,,,,,,,,,,,,,,
11526,1469905940781,,,,,,,-0.01,0.1,0.98,-3.1,-0.6,-0.9,2140,658,,,,,,,,,,,,,,,,,
11546,1469905940702,,,,42,,,-0.0,0.09,0.99,-3.1,-0.8,-0.9,2140,661,3.252,1,39.539688,-122.33197,11.45,0.021,314.5,7,3,2.3,0,0.0,-1,0.0,,0.0,0
11566,1469905940722,,,,,,,-0.0,0.09,0.99,-3.1,-0.8,-0.8,2200,656,,,,,,,,,,,,,,,,,
11586,1469905940742,,,,,,,0.01,0.09,0.99,-3.2,-0.6,-0.6,2120,655,,,,,,,,,,,,,,,,,
11606,1469905940762,,,,,,,0.0,0.1,0.99,-3.2,-0.3,-0.4,2140,660,,,,,,,,,,,,,,,,,
11626,1469905940782,,,,,,,0.01,0.1,1.0,-3.3,-0.3,-0.4,2200,661,,,,,,,,,,,,,,,,,
11646,1469905940805,0,249.1,195.8,41,201.9,,-0.01,0.1,0.99,-3.2,-0.6,-0.4,2140,663,3.191,1,39.539692,-122.33197,11.48,0.022,314.4,7,3,2.3,0,0.0,-1,0.0,0.0,0.0,0
11666,1469905940825,,,,,,,-0.01,0.09,0.98,-3.2,-0.5,-0.4,2200,663,,,,,,,,,,,,,,,,,
11686,1469905940845,,,,,,,-0.01,0.09,0.98,-3.1,-0.5,-0.4,2140,660,,,,,,,,,,,,,,,,,
11706,1469905940865,,,,,,,-0.02,0.1,0.99,-3.1,-0.2,-0.6,2180,660,,,,,,,,,,,,,,,,,
11726,1469905940885,,,,,,,-0.02,0.11,0.98,-3.0,-0.1,-0.8,2180,660,,,,,,,,,,,,,,,,,
11746,1469905940898,,,,41,,,-0.02,0.13,0.97,-2.9,0.0,-0.8,2140,663,3.223,1,39.539696,-122.33197,11.58,0.022,314.4,7,3,2.3,0,0.0,-1,0.0,,0.0,0
11766,1469905940918,,,,,,,-0.01,0.13,0.98,-2.9,-0.1,-0.8,2120,664,,,,,,,,,,,,,,,,,
11786,1469905940938,,,,,,,-0.01,0.11,1.0,-2.9,0.2,-0.9,2160,660,,,,,,,,,,,,,,,,,
11806,1469905940958,,,,,,,-0.01,0.1,1.0,-2.9,0.5,-0.8,2180,658,,,,,,,,,,,,,,,,,
11826,1469905940978,,,,,,,-0.0,0.11,1.01,-2.8,0.8,-0.7,2160,658,,,,,,,,,,,,,,,,,
11846,1469905941005,0,249.5,196.0,41,201.7,,-0.01,0.11,1.02,-2.9,0.8,-0.9,2220,664,3.318,1,39.539703,-122.33197,11.57,0.022,314.4,7,3,2.3,0,0.0,-1,0.0,0.0,0.0,0
11866,1469905941025,,,,,,,-0.01,0.09,1.01,-2.9,0.7,-0.9,2140,664,,,,,,,,,,,,,,,,,
11886,1469905941045,,,,,,,-0.01,0.1,0.99,-2.9,0.7,-0.9,2180,664,,,,,,,,,,,,,,,,,
11906,1469905941065,,,,,,,-0.01,0.1,1.0,-2.9,0.8,-0.9,2200,661,,,,,,,,,,,,,,,,,
11926,1469905941085,,,,,,,-0.01,0.09,0.99,-2.9,0.7,-1.0,2160,663,,,,,,,,,,,,,,,,,
11946,1469905941105,,,,44,,,-0.02,0.08,1.01,-2.9,0.8,-1.0,2160,667,3.253,1,39.539707,-122.33197,11.62,0.023,314.4,7,3,2.3,0,0.0,-1,0.0,,0.0,0
11966,1469905941125,,,,,,,-0.02,0.09,1.0,-2.9,0.7,-1.0,2220,666,,,,,,,,,,,,,,,,,
11986,1469905941145,,,,,,,-0.02,0.09,0.99,-2.9,0.3,-1.0,2160,667,,,,,,,,,,,,,,,,,
12006,1469905941165,,,,,,,-0.02,0.1,1.0,-2.9,0.1,-1.1,2120,664,,,,,,,,,,,,,,,,,
12026,1469905941185,,,,,,,-0.02,0.09,1.0,-2.8,0.3,-0.9,2200,666,,,,,,,,,,,,,,,,,
12046,1469905941205,0,248.6,194.4,35,202.9,13.66,-0.02,0.1,1.0,-2.9,0.3,-0.7,2200,666,3.208,1,39.539711,-122.331985,11.6,0.023,314.4,7,3,2.3,0,0.0,-1,0.0,0.0,0.0,0
12066,1469905941225,,,,,,,-0.02,0.08,1.01,-2.9,0.1,-0.7,2140,666,,,,,,,,,,,,,,,,,
12086,1469905941245,,,,,,,-0.02,0.08,0.99,-2.9,-0.1,-0.7,2160,664,,,,,,,,,,,,,,,,,
12106,1469905941265,,,,,,,-0.02,0.09,0.99,-2.9,-0.1,-0.7,2140,664,,,,,,,,,,,,,,,,,
12126,1469905941285,,,,,,,-0.01,0.08,1.0,-2.9,0.0,-0.7,2140,663,,,,,,,,,,,,,,,,,
12146,1469905941404,,,,41,,,-0.01,0.07,1.01,-2.9,0.4,-0.7,2200,663,3.243,1,39.539722,-122.331985,11.55,0.024,314.4,7,3,2.3,0,0.0,-1,0.0,,0.0,0
12166,1469905941424,,,,,,,-0.0,0.05,1.0,-2.8,0.5,-0.5,2140,661,,,,,,,,,,,,,,,,,
12186,1469905941444,,,,,,,-0.01,0.07,1.01,-2.9,0.8,-0.2,2180,664,,,,,,,,,,,,,,,,,
12206,1469905941464,,,,,,,0.0,0.07,1.01,-2.8,0.3,-0.0,2180,664,,,,,,,,,,,,,,,,,
12226,1469905941484,,,,,,,0.01,0.07,1.0,-2.8,0.2,-0.1,2200,667,,,,,,,,,,,,,,,,,
12246,1469905941504,0,249.6,195.8,41,201.4,,0.02,0.07,1.0,-2.9,0.4,-0.0,2200,663,3.258,1,39.539722,-122.331985,11.55,0.024,314.4,7,3,2.3,0,0.0,-1,0.0,0.0,0.0,0
12266,1469905941524,,,,,,,0.02,0.06,1.0,-2.8,0.7,0.0,2140,664,,,,,,,,,,,,,,,,,
12286,1469905941544,,,,,,,0.02,0.05,1.02,-2.8,0.5,0.0,2180,667,,,,,,,,,,,,,,,,,
12306,1469905941564,,,,,,,0.01,0.05,1.0,-2.8,0.2,0.1,2200,670,,,,,,,,,,,,,,,,,
12326,1469905941584,,,,,,,0.0,0.06,0.99,-2.8,-0.3,0.4,2160,669,,,,,,,,,,,,,,,,,
12346,1469905941502,,,,42,,,0.01,0.05,1.0,-2.8,-0.4,0.5,2200,666,3.288,1,39.539726,-122.331985,11.66,0.024,314.5,7,3,2.3,0,0.0,-1,0.0,,0.0,0
12366,1469905941522,,,,,,,0.01,0.05,1.02,-2.8,-0.3,0.7,2200,667,,,,,,,,,,,,,,,,,
12386,1469905941542,,,,,,,0.01,0.05,1.01,-2.7,-0.4,0.8,2160,670,,,,,,,,,,,,,,,,,
12406,1469905941562,,,,,,,0.01,0.05,1.01,-2.7,-0.5,0.9,2180,672,,,,,,,,,,,,,,,,,
12426,1469905941582,,,,,,,0.01,0.05,1.01,-2.7,-0.4,0.8,2180,666,,,,,,,,,,,,,,,,,
12446,1469905941602,0,248.5,194.5,44,201.9,,0.01,0.06,1.0,-2.8,-0.0,0.6,2240,666,3.259,1,39.53973,-122.331985,11.75,0.025,314.6,7,3,2.3,0,0.0,-1,0.0,0.0,0.0,0
12466,1469905941622,,,,,,,0.0,0.08,1.0,-2.8,0.0,0.4,2160,666,,,,,,,,,,,,,,,,,
12486,1469905941642,,,,,,,0.01,0.09,0.97,-2.8,0.1,0.3,2180,670,,,,,,,,,,,,,,,,,
12506,1469905941662,,,,,,,0.01,0.07,0.96,-2.8,-0.0,0.1,2200,669,,,,,,,,,,,,,,,,,
12526,1469905941682,,,,,,,0.02,0.08,0.98,-2.8,0.1,-0.0,2200,667,,,,,,,,,,,,,,,,,
12546,1469905941702,,,,40,,,0.01,0.1,0.99,-2.9,0.5,0.0,2160,664,3.273,1,39.539734,-122.331985,11.8,0.025,314.6,7,3,2.3,0,0.0,-1,0.0,,0.0,0
12566,1469905941722,,,,,,,0.01,0.08,0.99,-3.0,0.6,0.1,2160,667,,,,,,,,,,,,,,,,,
12586,1469905941742,,,,,,,0.0,0.09,0.99,-3.0,0.4,0.1,2180,669,,,,,,,,,,,,,,,,,
12606,1469905941762,,,,,,,-0.01,0.09,0.99,-3.0,0.3,-0.0,2200,669,,,,,,,,,,,,,,,,,
12626,1469905941782,,,,,,,-0.01,0.08,0.97,-3.1,-0.2,-0.0,2240,669,,,,,,,,,,,,,,,,,
12646,1469905941804,0,248.8,195.6,42,202.8,,0.0,0.09,0.96,-3.1,-0.2,-0.0,2180,670,3.363,1,39.539742,-122.331985,11.7,0.026,314.6,7,3,2.3,0,0.0,-1,0.0,0.0,0.0,0
12666,1469905941824,,,,,,,0.0,0.09,0.96,-3.0,-0.3,0.0,2260,673,,,,,,,,,,,,,,,,,
12686,1469905941844,,,,,,,-0.0,0.09,0.98,-3.1,-0.0,-0.0,2180,670,,,,,,,,,,,,,,,,,
12706,1469905941864,,,,,,,-0.0,0.11,0.98,-3.1,0.1,0.1,2180,672,,,,,,,,,,,,,,,,,
12726,1469905941884,,,,,,,0.01,0.12,0.97,-3.1,-0.0,0.3,2180,673,,,,,,,,,,,,,,,,,
12746,1469905941897,,,,41,,,0.0,0.12,0.98,-3.1,0.1,0.3,2200,670,3.194,1,39.539745,-122.331985,11.81,0.026,314.5,7,3,2.3,0,0.0,-1,0.0,,0.0,0
12766,1469905941917,,,,,,,-0.0,0.11,1.0,-3.2,0.4,0.1,2240,670,,,,,,,,,,,,,,,,,
12786,1469905941937,,,,,,,-0.0,0.1,1.0,-3.1,0.7,0.0,2180,673,,,,,,,,,,,,,,,,,
12806,1469905941957,,,,,,,0.0,0.12,1.0,-3.0,0.5,-0.1,2220,672,,,,,,,,,,,,,,,,,
12826,1469905941977,,,,,,,0.0,0.13,0.99,-3.0,0.5,-0.3,2240,673,,,,,,,,,,,,,,,,,
12846,1469905942005,0,248.0,194.9,42,202.4,,0.01,0.11,1.01,-3.0,0.5,-0.1,2140,667,3.208,1,39.539749,-122.331985,11.79,0.026,314.4,7,3,2.3,0,0.0,-1,0.0,0.0,0.0,0
12866,1469905942025,,,,,,,0.01,0.11,1.03,-3.0,1.0,-0.0,2200,672,,,,,,,,,,,,,,,,,
12886,1469905942045,,,,,,,0.0,0.11,1.03,-3.1,0.9,-0.0,2160,672,,,,,,,,,,,,,,,,,
12906,1469905942065,,,,,,,0.0,0.11,1.03,-3.1,0.6,-0.2,2180,673,,,,,,,,,,,,,,,,,
12926,1469905942085,,,,,,,0.01,0.1,0.99,-3.0,0.3,-0.2,2180,670,,,,,,,,,,,,,,,,,
12946,1469905942204,,,,43,,,0.01,0.08,0.99,-3.0,0.4,-0.3,2180,673,3.348,1,39.539761,-122.331985,11.9,0.027,314.2,7,3,2.3,0,0.0,-1,0.0,,0.0,0
12966,1469905942224,,,,,,,0.01,0.09,0.99,-3.1,0.3,-0.5,2180,672,,,,,,,,,,,,,,,,,
12986,1469905942244,,,,,,,0.0,0.09,0.97,-3.0,0.3,-0.6,2200,673,,,,,,,,,,,,,,,,,
13006,1469905942264,,,,,,,-0.0,0.11,0.96,-3.0,0.2,-0.7,2200,673,,,,,,,,,,,,,,,,,
13026,1469905942284,,,,,,,0.0,0.11,0.95,-3.0,0.2,-0.7,2200,673,,,,,,,,,,,,,,,,,
13046,1469905942304,0,250.0,196.0,41,203.4,13.72,0.01,0.1,0.96,-2.9,0.1,-0.6,2200,670,3.313,1,39.539761,-122.331985,11.9,0.027,314.2,7,3,2.3,0,0.0,-1,0.0,0.0,0.0,0
13066,1469905942324,,,,,,,0.01,0.09,0.98,-2.9,-0.1,-0.7,2240,672,,,,,,,,,,,,,,,,,
13086,1469905942344,,,,,,,-0.0,0.08,0.98,-2.9,-0.1,-0.6,2180,672,,,,,,,,,,,,,,,,,
13106,1469905942364,,,,,,,0.0,0.09,0.99,-2.9,-0.1,-0.6,2180,673,,,,,,,,,,,,,,,,,
13126,1469905942384,,,,,,,0.01,0.09,1.0,-2.9,0.0,-0.5,2240,672,,,,,,,,,,,,,,,,,
13146,1469905942304,,,,43,,,0.0,0.07,1.01,-3.0,0.2,-0.5,2180,672,3.244,1,39.539764,-122.331985,11.81,0.027,314.2,7,3,2.3,0,0.0,-1,0.0,,0.0,0
13166,1469905942324,,,,,,,0.0,0.08,1.01,-2.9,0.5,-0.4,2200,673,,,,,,,,,,,,,,,,,
13186,1469905942344,,,,,,,0.01,0.07,1.01,-2.9,0.4,-0.4,2200,676,,,,,,,,,,,,,,,,,
13206,1469905942364,,,,,,,0.01,0.06,1.01,-2.9,0.5,-0.5,2200,678,,,,,,,,,,,,,,,,,
13226,1469905942384,,,,,,,0.02,0.06,1.01,-2.8,0.7,-0.5,2260,672,,,,,,,,,,,,,,,,,
13246,1469905942402,0,248.1,194.8,44,202.4,,0.03,0.06,1.01,-2.8,0.9,-0.5,2180,675,3.274,1,39.539768,-122.331985,11.87,0.027,314.1,7,3,2.3,0,0.0,-1,0.0,0.0,0.0,0
13266,1469905942422,,,,,,,0.03,0.06,1.02,-2.8,0.9,-0.4,2260,676,,,,,,,,,,,,,,,,,
13286,1469905942442,,,,,,,0.02,0.07,1.01,-2.8,0.9,-0.2,2280,676,,,,,,,,,,,,,,,,,
13306,1469905942462,,,,,,,0.02,0.07,0.98,-2.8,0.5,-0.1,2160,675,,,,,,,,,,,,,,,,,
13326,1469905942482,,,,,,,0.02,0.05,0.97,-2.8,0.9,0.0,2220,676,,,,,,,,,,,,,,,,,
13346,1469905942502,,,,46,,,0.02,0.05,0.97,-2.8,0.9,-0.1,2280,678,3.239,1,39.539772,-122.331985,11.68,0.028,314.1,7,3,2.3,0,0.0,-1,0.0,,0.0,0
13366,1469905942522,,,,,,,0.01,0.05,0.98,-2.8,0.8,-0.3,2280,678,,,,,,,,,,,,,,,,,
13386,1469905942542,,,,,,,0.01,0.06,0.98,-2.7,0.6,-0.1,2200,680,,,,,,,,,,,,,,,,,
13406,1469905942562,,,,,,,0.02,0.06,0.97,-2.8,0.8,-0.0,2200,675,,,,,,,,,,,,,,,,,
13426,1469905942582,,,,,,,0.01,0.06,0.97,-2.8,1.0,-0.1,2220,676,,,,,,,,,,,,,,,,,
13446,1469905942602,0,248.8,195.7,37,202.9,,0.01,0.07,0.96,-2.9,1.0,-0.1,2240,680,3.284,1,39.53978,-122.331985,11.9,0.028,314.0,7,3,2.3,0,0.0,-1,0.0,0.0,0.0,0
13466,1469905942622,,,,,,,0.01,0.08,0.96,-2.9,1.1,0.1,2240,678,,,,,,,,,,,,,,,,,
13486,1469905942642,,,,,,,0.02,0.09,0.99,-2.9,1.2,0.0,2180,672,,,,,,,,,,,,,,,,,
13506,1469905942662,,,,,,,0.01,0.09,0.99,-3.0,1.4,-0.0,2220,672,,,,,,,,,,,,,,,,,
13526,1469905942682,,,,,,,0.01,0.08,0.98,-3.1,1.7,0.0,2160,673,,,,,,,,,,,,,,,,,
13546,1469905942702,,,,43,,,0.0,0.08,0.97,-3.1,1.7,0.1,2180,678,3.215,1,39.539784,-122.331985,11.79,0.028,314.0,7,3,2.3,0,0.0,-1,0.0,,0.0,0
13566,1469905942722,,,,,,,0.01,0.08,0.97,-3.1,1.7,0.0,2240,675,,,,,,,,,,,,,,,,,
13586,1469905942742,,,,,,,0.01,0.09,0.97,-3.1,1.4,-0.1,2180,676,,,,,,,,,,,,,,,,,
13606,1469905942762,,,,,,,0.02,0.11,0.99,-3.1,1.5,-0.2,2220,676,,,,,,,,,,,,,,,,,
13626,1469905942782,,,,,,,0.01,0.1,0.98,-3.1,1.7,-0.1,2240,676,,,,,,,,,,,,,,,,,
13646,1469905942805,0,249.0,195.8,42,202.9,,0.02,0.11,0.98,-3.1,1.4,-0.0,2260,680,3.245,1,39.539791,-122.331985,11.88,0.029,314.0,7,3,2.3,0,0.0,-1,0.0,0.0,0.0,0
13666,1469905942825,,,,,,,0.02,0.12,0.98,-3.0,1.0,-0.2,2200,676,,,,,,,,,,,,,,,,,
13686,1469905942845,,,,,,,0.02,0.12,0.97,-3.1,1.0,-0.3,2220,678,,,,,,,,,,,,,,,,,
13706,1469905942865,,,,,,,0.02,0.13,0.97,-3.0,0.5,-0.5,2260,678,,,,,,,,,,,,,,,,,
13726,1469905942885,,,,,,,0.02,0.13,0.98,-2.9,0.0,-0.8,2260,680,,,,,,,,,,,,,,,,,
13746,1469905942996,,,,37,,,0.02,0.11,0.98,-3.0,-0.2,-0.7,2200,678,3.304,1,39.539799,-122.331985,11.89,0.029,314.0,7,3,2.3,0,0.0,-1,0.0,,0.0,0
13766,1469905943016,,,,,,,0.01,0.1,0.97,-3.0,-0.4,-0.5,2220,676,,,,,,,,,,,,,,,,,
13786,1469905943036,,,,,,,0.01,0.1,0.97,-3.1,-0.6,-0.2,2240,680,,,,,,,,,,,,,,,,,
13806,1469905943056,,,,,,,0.01,0.09,0.97,-3.0,-0.8,0.0,2200,678,,,,,,,,,,,,,,,,,
13826,1469905943076,,,,,,,0.01,0.08,0.99,-3.0,-0.7,0.0,2220,673,,,,,,,,,,,,,,,,,
13846,1469905943096,0,248.0,195.0,43,202.4,,0.0,0.08,1.0,-3.0,-0.6,-0.1,2160,672,3.343,1,39.539799,-122.331985,11.89,0.029,314.0,7,3,2.3,0,0.0,-1,0.0,0.0,0.0,0
13866,1469905943116,,,,,,,0.0,0.09,0.99,-3.0,-0.3,-0.0,2180,675,,,,,,,,,,,,,,,,,
13886,1469905943136,,,,,,,0.01,0.09,0.99,-2.9,-0.8,-0.1,2220,676,,,,,,,,,,,,,,,,,
13906,1469905943156,,,,,,,0.0,0.1,0.99,-2.9,-0.9,-0.2,2200,675,,,,,,,,,,,,,,,,,
13926,1469905943176,,,,,,,0.01,0.12,0.99,-2.8,-1.0,-0.3,2220,675,,,,,,,,,,,,,,,,,
13946,1469905943105,,,,39,,,0.02,0.12,1.0,-2.9,-0.8,-0.3,2260,675,3.373,1,39.539803,-122.331985,11.89,0.03,314.0,7,3,2.3,0,0.0,-1,0.0,,0.0,0
13966,1469905943125,,,,,,,0.03,0.11,1.0,-2.8,-0.8,-0.4,2180,678,,,,,,,,,,,,,,,,,
13986,1469905943145,,,,,,,0.02,0.1,0.98,-2.8,-0.6,-0.4,2220,678,,,,,,,,,,,,,,,,,
14006,1469905943165,,,,,,,0.03,0.11,0.96,-2.8,-1.0,-0.2,2220,681,,,,,,,,,,,,,,,,,
14026,1469905943185,,,,,,,0.04,0.11,0.97,-2.9,-0.9,-0.0,2240,680,,,,,,,,,,,,,,,,,
14046,1469905943205,0,248.3,195.3,43,202.5,13.7,0.03,0.11,0.97,-3.0,-0.8,-0.0,2220,683,3.274,1,39.53981,-122.331985,11.99,0.03,314.1,7,3,2.3,0,0.0,-1,0.0,0.0,0.0,0
14066,1469905943225,,,,,,,0.03,0.11,0.97,-2.9,-0.8,-0.1,2240,681,,,,,,,,,,,,,,,,,
14086,1469905943245,,,,,,,0.03,0.13,0.97,-3.1,-0.9,-0.1,2280,686,,,,,,,,,,,,,,,,,
14106,1469905943265,,,,,,,0.04,0.13,0.96,-3.2,-1.0,-0.0,2240,680,,,,,,,,,,,,,,,,,
14126,1469905943285,,,,,,,0.03,0.12,0.97,-3.2,-0.9,-0.2,2200,683,,,,,,,,,,,,,,,,,
14146,1469905943305,,,,36,,,0.02,0.12,0.95,-3.2,-0.9,-0.3,2240,686,3.319,1,39.53981,-122.331985,12.01,0.03,314.1,7,3,2.3,0,0.0,-1,0.0,,0.0,0
14166,1469905943325,,,,,,,0.02,0.12,0.94,-3.1,-1.0,-0.2,2220,680,,,,,,,,,,,,,,,,,
14186,1469905943345,,,,,,,0.03,0.1,0.96,-3.1,-0.8,-0.3,2220,683,,,,,,,,,,,,,,,,,
14206,1469905943365,,,,,,,0.03,0.09,0.95,-3.1,-0.6,-0.3,2240,681,,,,,,,,,,,,,,,,,
14226,1469905943385,,,,,,,0.02,0.1,0.94,-3.0,-0.4,-0.2,2240,683,,,,,,,,,,,,,,,,,
14246,1469905943402,0,247.8,194.9,44,202.2,,0.01,0.1,0.95,-3.0,-0.4,-0.1,2280,683,3.29,1,39.539818,-122.331985,11.97,0.031,314.1,7,3,2.3,0,0.0,-1,0.0,0.0,0.0,0
14266,1469905943422,,,,,,,0.02,0.08,0.96,-3.0,-0.1,-0.1,2200,684,,,,,,,,,,,,,,,,,
14286,1469905943442,,,,,,,0.01,0.09,0.98,-3.1,0.1,-0.3,2240,680,,,,,,,,,,,,,,,,,
14306,1469905943462,,,,,,,0.01,0.09,0.97,-3.2,0.0,-0.5,2260,681,,,,,,,,,,,,,,,,,
14326,1469905943482,,,,,,,0.0,0.09,0.97,-3.2,-0.1,-0.5,2240,681,,,,,,,,,,,,,,,,,
14346,1469905943502,,,,42,,,0.01,0.1,0.97,-3.4,0.0,-0.6,2200,683,3.28,1,39.539822,-122.331985,12.03,0.031,314.0,7,3,2.3,0,0.0,-1,0.0,,0.0,0
14366,1469905943522,,,,,,,0.01,0.11,0.98,-3.4,-0.1,-0.8,2240,684,,,,,,,,,,,,,,,,,
14386,1469905943542,,,,,,,0.01,0.11,0.98,-3.5,0.2,-0.9,2260,684,,,,,,,,,,,,,,,,,
14406,1469905943562,,,,,,,0.01,0.12,0.98,-3.5,0.3,-0.9,2240,684,,,,,,,,,,,,,,,,,
14426,1469905943582,,,,,,,0.02,0.12,0.98,-3.5,0.3,-0.9,2240,684,,,,,,,,,,,,,,,,,
14446,1469905943601,0,247.8,194.8,43,202.3,,0.01,0.13,0.98,-3.5,0.3,-0.8,2240,687,3.338,1,39.539825,-122.331985,11.9,0.031,314.0,7,3,2.3,0,0.0,-1,0.0,0.0,0.0,0
14466,1469905943621,,,,,,,0.01,0.11,0.97,-3.5,0.1,-0.7,2240,684,,,,,,,,,,,,,,,,,
14486,1469905943641,,,,,,,0.01,0.11,0.97,-3.5,0.0,-0.5,2200,686,,,,,,,,,,,,,,,,,
14506,1469905943661,,,,,,,0.01,0.11,0.99,-3.5,0.1,-0.2,2260,686,,,,,,,,,,,,,,,,,
14526,1469905943681,,,,,,,0.01,0.12,0.99,-3.4,0.1,-0.1,2220,686,,,,,,,,,,,,,,,,,
14546,1469905943801,,,,39,,,0.0,0.12,0.98,-3.4,-0.1,-0.0,2240,689,3.309,1,39.539833,-122.331985,11.98,0.032,314.0,7,3,2.3,0,0.0,-1,0.0,,0.0,0
14566,1469905943821,,,,,,,-0.0,0.12,0.97,-3.5,-0.0,0.1,2260,686,,,,,,,,,,,,,,,,,
14586,1469905943841,,,,,,,0.0,0.13,0.95,-3.5,0.2,0.1,2300,683,,,,,,,,,,,,,,,,,
14606,1469905943861,,,,,,,0.0,0.11,0.95,-3.4,0.5,-0.0,2220,687,,,,,,,,,,,,,,,,,
14626,1469905943881,,,,,,,0.01,0.12,0.95,-3.3,0.4,-0.1,2280,687,,,,,,,,,,,,,,,,,
14646,1469905943901,0,248.6,195.5,41,202.8,,0.0,0.13,0.93,-3.3,0.1,-0.0,2200,686,3.333,1,39.539833,-122.331985,11.98,0.032,314.0,7,3,2.3,0,0.0,-1,0.0,0.0,0.0,0
14666,1469905943921,,,,,,,0.01,0.13,0.95,-3.3,0.2,-0.0,2240,681,,,,,,,,,,,,,,,,,
14686,1469905943941,,,,,,,0.0,0.12,0.96,-3.3,0.3,0.0,2240,683,,,,,,,,,,,,,,,,,
14706,1469905943961,,,,,,,-0.01,0.11,0.97,-3.2,0.5,0.1,2220,684,,,,,,,,,,,,,,,,,
14726,1469905943981,,,,,,,-0.01,0.11,0.96,-3.2,0.3,0.2,2220,686,,,,,,,,,,,,,,,,,
14746,1469905943896,,,,43,,,-0.01,0.12,0.95,-3.2,0.3,0.1,2220,683,3.367,1,39.539841,-122.331985,11.99,0.032,314.0,7,3,2.3,0,0.0,-1,0.0,,0.0,0
14766,1469905943916,,,,,,,0.01,0.12,0.96,-3.2,0.6,-0.3,2280,686,,,,,,,,,,,,,,,,,
14786,1469905943936,,,,,,,0.01,0.13,0.95,-3.2,0.7,-0.6,2220,687,,,,,,,,,,,,,,,,,
14806,1469905943956,,,,,,,0.02,0.14,0.93,-3.2,0.6,-0.5,2200,686,,,,,,,,,,,,,,,,,
14826,1469905943976,,,,,,,0.03,0.13,0.93,-3.3,0.5,-0.6,2200,686,,,,,,,,,,,,,,,,,
14846,1469905944005,0,247.8,194.9,46,202.4,,0.02,0.13,0.94,-3.3,0.5,-0.7,2260,687,3.187,1,39.539844,-122.331985,11.97,0.033,314.0,7,3,2.3,0,0.0,-1,0.0,0.0,0.0,0
14866,1469905944025,,,,,,,0.01,0.13,0.95,-3.2,0.5,-0.7,2320,687,,,,,,,,,,,,,,,,,
14886,1469905944045,,,,,,,0.01,0.12,0.96,-3.2,0.4,-0.6,2320,689,,,,,,,,,,,,,,,,,
14906,1469905944065,,,,,,,0.01,0.13,0.97,-3.3,0.3,-0.5,2200,687,,,,,,,,,,,,,,,,,
14926,1469905944085,,,,,,,0.01,0.12,0.97,-3.2,0.2,-0.5,2260,689,,,,,,,,,,,,,,,,,
14946,1469905944105,,,,37,,,0.01,0.12,0.96,-3.2,0.3,-0.4,2260,689,3.222,1,39.539848,-122.331985,12.13,0.033,314.1,7,3,2.3,0,0.0,-1,0.0,,0.0,0
14966,1469905944125,,,,,,,0.02,0.11,0.96,-3.2,0.1,-0.3,2220,689,,,,,,,,,,,,,,,,,
14986,1469905944145,,,,,,,0.02,0.09,0.95,-3.2,0.4,-0.3,2240,684,,,,,,,,,,,,,,,,,
15006,1469905944165,,,,,,,0.02,0.08,0.94,-3.1,0.2,-0.3,2300,686,,,,,,,,,,,,,,,,,
15026,1469905944185,,,,,,,0.01,0.09,0.95,-3.0,0.1,-0.4,2300,686,,,,,,,,,,,,,,,,,
15046,1469905944205,0,247.5,194.6,47,202.1,13.74,0.01,0.1,0.96,-3.0,-0.0,-0.3,2240,681,3.222,1,39.539852,-122.331985,12.06,0.033,314.0,7,3,2.3,0,0.0,-1,0.0,0.0,0.0,0
15066,1469905944225,,,,,,,0.01,0.09,0.95,-2.9,0.3,-0.2,2240,684,,,,,,,,,,,,,,,,,
15086,1469905944245,,,,,,,0.02,0.08,0.96,-2.8,0.2,-0.2,2200,684,,,,,,,,,,,,,,,,,
15106,1469905944265,,,,,,,0.02,0.09,0.94,-2.7,0.2,-0.3,2240,684,,,,,,,,,,,,,,,,,
15126,1469905944285,,,,,,,0.02,0.11,0.93,-2.7,0.2,-0.4,2240,684,,,,,,,,,,,,,,,,,
15146,1469905944305,,,,44,,,0.02,0.11,0.93,-2.7,0.1,-0.5,2280,686,3.28,1,39.53986,-122.331993,11.93,0.034,314.0,7,3,2.3,0,0.0,-1,0.0,,0.0,0
15166,1469905944325,,,,,,,0.03,0.12,0.93,-2.7,-0.0,-0.5,2220,684,,,,,,,,,,,,,,,,,
15186,1469905944345,,,,,,,0.03,0.11,0.95,-2.6,-0.1,-0.5,2220,683,,,,,,,,,,,,,,,,,
15206,1469905944365,,,,,,,0.03,0.1,0.95,-2.6,-0.2,-0.3,2240,686,,,,,,,,,,,,,,,,,
15226,1469905944385,,,,,,,0.03,0.11,0.96,-2.6,0.0,-0.2,2240,684,,,,,,,,,,,,,,,,,
15246,1469905944402,0,248.1,194.9,40,202.5,,0.02,0.11,0.97,-2.7,0.2,-0.3,2320,689,3.28,1,39.539864,-122.331993,12.08,0.034,313.9,7,3,2.3,0,0.0,-1,0.0,0.0,0.0,0
15266,1469905944422,,,,,,,0.02,0.12,0.96,-2.7,-0.0,-0.3,2300,687,,,,,,,,,,,,,,,,,
15286,1469905944442,,,,,,,0.02,0.13,0.94,-2.7,-0.3,-0.2,2220,684,,,,,,,,,,,,,,,,,
15306,1469905944462,,,,,,,0.02,0.12,0.95,-2.7,-0.2,-0.2,2300,692,,,,,,,,,,,,,,,,,
15326,1469905944482,,,,,,,0.02,0.12,0.94,-2.5,-0.1,-0.5,2240,687,,,,,,,,,,,,,,,,,
15346,1469905944598,,,,48,,,0.01,0.12,0.96,-2.5,-0.1,-0.5,2320,689,3.236,1,39.539871,-122.331993,12.2,0.035,314.0,7,3,2.3,0,0.0,-1,0.0,,0.0,0
15366,1469905944618,,,,,,,0.02,0.11,0.97,-2.4,-0.1,-0.5,2220,686,,,,,,,,,,,,,,,,,
15386,1469905944638,,,,,,,0.02,0.11,0.99,-2.4,0.1,-0.5,2240,686,,,,,,,,,,,,,,,,,
15406,1469905944658,,,,,,,0.02,0.09,1.0,-2.3,-0.1,-0.5,2280,687,,,,,,,,,,,,,,,,,
15426,1469905944678,,,,,,,0.01,0.08,1.0,-2.3,-0.1,-0.5,2280,689,,,,,,,,,,,,,,,,,
15446,1469905944698,0,248.8,195.6,47,202.9,,0.01,0.08,1.01,-2.3,0.2,-0.4,2200,687,3.251,1,39.539871,-122.331993,12.2,0.035,314.0,7,3,2.3,0,0.0,-1,0.0,0.0,0.0,0
15466,1469905944718,,,,,,,0.02,0.08,0.99,-2.3,0.4,-0.4,2260,686,,,,,,,,,,,,,,,,,
15486,1469905944738,,,,,,,0.01,0.07,0.97,-2.2,0.4,-0.5,2260,689,,,,,,,,,,,,,,,,,
15506,1469905944758,,,,,,,0.0,0.06,0.98,-2.2,0.4,-0.6,2220,687,,,,,,,,,,,,,,,,,
15526,1469905944778,,,,,,,0.0,0.06,0.97,-2.2,0.2,-0.5,2260,686,,,,,,,,,,,,,,,,,
15546,1469905944702,,,,49,,,0.0,0.07,0.97,-2.1,0.2,-0.4,2260,689,3.363,1,39.539879,-122.331993,11.94,0.035,313.9,7,3,2.3,0,0.0,-1,0.0,,0.0,0
15566,1469905944722,,,,,,,0.01,0.07,0.96,-2.2,0.1,-0.3,2260,686,,,,,,,,,,,,,,,,,
15586,1469905944742,,,,,,,0.01,0.07,0.97,-2.1,0.1,-0.3,2260,687,,,,,,,,,,,,,,,,,
15606,1469905944762,,,,,,,0.01,0.05,0.98,-2.0,0.1,-0.4,2200,684,,,,,,,,,,,,,,,,,
15626,1469905944782,,,,,,,0.02,0.05,0.99,-1.9,0.3,-0.4,2240,684,,,,,,,,,,,,,,,,,
15646,1469905944805,1,248.3,195.0,45,202.1,,0.02,0.06,0.99,-1.9,0.3,-0.4,2240,689,3.251,1,39.539886,-122.331993,12.13,0.036,313.9,7,3,2.3,0,0.0,-1,0.0,0.0,0.0,0
15666,1469905944825,,,,,,,0.02,0.05,1.0,-1.8,0.2,-0.3,2260,687,,,,,,,,,,,,,,,,,
15686,1469905944845,,,,,,,0.02,0.05,1.0,-1.8,0.1,-0.3,2280,686,,,,,,,,,,,,,,,,,
15706,1469905944865,,,,,,,0.02,0.03,1.0,-1.7,0.4,-0.3,2200,687,,,,,,,,,,,,,,,,,
15726,1469905944885,,,,,,,0.02,0.03,0.98,-1.6,0.3,-0.4,2240,687,,,,,,,,,,,,,,,,,
15746,1469905944896,,,,42,,,0.02,0.03,1.0,-1.5,0.3,-0.4,2320,687,3.309,1,39.53989,-122.331993,12.19,0.036,313.9,7,3,2.3,0,0.0,-1,0.0,,0.0,0
15766,1469905944916,,,,,,,0.03,0.03,1.02,-1.4,0.4,-0.4,2200,686,,,,,,,,,,,,,,,,,
15786,1469905944936,,,,,,,0.02,0.02,1.02,-1.4,0.6,-0.3,2260,687,,,,,,,,,,,,,,,,,
15806,1469905944956,,,,,,,0.02,0.03,1.03,-1.3,0.6,-0.3,2240,689,,,,,,,,,,,,,,,,,
15826,1469905944976,,,,,,,0.03,0.03,1.02,-1.4,0.7,-0.1,2260,690,,,,,,,,,,,,,,,,,
15846,1469905945005,0,248.5,195.5,50,202.6,,0.02,0.03,1.02,-1.3,0.6,-0.1,2300,689,3.251,1,39.539894,-122.331993,12.02,0.036,313.8,7,3,2.3,0,0.0,-1,0.0,0.0,0.0,0
15866,1469905945025,,,,,,,0.02,0.03,1.02,-1.4,0.7,-0.1,2220,689,,,,,,,,,,,,,,,,,
15886,1469905945045,,,,,,,0.02,0.03,1.02,-1.3,0.4,-0.3,2240,692,,,,,,,,,,,,,,,,,
15906,1469905945065,,,,,,,0.02,0.04,1.01,-1.4,0.4,-0.3,2280,689,,,,,,,,,,,,,,,,,
15926,1469905945085,,,,,,,0.02,0.05,1.0,-1.4,0.3,-0.2,2240,693,,,,,,,,,,,,,,,,,
15946,1469905945102,,,,50,,,0.02,0.05,0.99,-1.4,0.0,-0.1,2280,687,3.275,1,39.539898,-122.331993,11.99,0.036,313.9,7,3,2.3,0,0.0,-1,0.0,,0.0,0
15966,1469905945122,,,,,,,0.02,0.07,0.99,-1.5,-0.2,-0.0,2260,690,,,,,,,,,,,,,,,,,
15986,1469905945142,,,,,,,0.02,0.08,1.0,-1.5,-0.1,-0.1,2280,690,,,,,,,,,,,,,,,,,
16006,1469905945162,,,,,,,0.02,0.09,1.01,-1.5,-0.0,-0.2,2300,687,,,,,,,,,,,,,,,,,
16026,1469905945182,,,,,,,0.01,0.08,1.01,-1.5,0.0,-0.1,2280,690,,,,,,,,,,,,,,,,,
16046,1469905945204,0,249.5,196.0,44,203.2,13.75,0.02,0.07,1.01,-1.5,-0.1,-0.1,2220,687,3.217,1,39.539906,-122.331993,12.11,0.037,313.9,7,3,2.3,0,0.0,-1,0.0,0.0,0.0,0
16066,1469905945224,,,,,,,0.01,0.07,1.02,-1.5,0.1,-0.3,2280,687,,,,,,,,,,,,,,,,,
16086,1469905945244,,,,,,,0.01,0.06,1.01,-1.4,-0.2,-0.4,2220,689,,,,,,,,,,,,,,,,,
16106,1469905945264,,,,,,,0.0,0.09,0.99,-1.4,-0.3,-0.4,2320,689,,,,,,,,,,,,,,,,,
16126,1469905945284,,,,,,,0.01,0.1,0.97,-1.5,-0.1,-0.4,2200,689,,,,,,,,,,,,,,,,,
16146,1469905945403,,,,41,,,0.02,0.11,0.97,-1.5,-0.2,-0.4,2260,689,3.348,1,39.539913,-122.331993,12.21,0.038,313.9,7,3,2.3,0,0.0,-1,0.0,,0.0,0
16166,1469905945423,,,,,,,0.02,0.1,0.98,-1.5,-0.2,-0.5,2300,689,,,,,,,,,,,,,,,,,
16186,1469905945443,,,,,,,0.02,0.09,0.97,-1.5,-0.0,-0.4,2200,690,,,,,,,,,,,,,,,,,
16206,1469905945463,,,,,,,0.03,0.08,0.98,-1.6,-0.0,-0.4,2200,687,,,,,,,,,,,,,,,,,
16226,1469905945483,,,,,,,0.02,0.08,0.97,-1.5,0.1,-0.5,2240,687,,,,,,,,,,,,,,,,,
16246,1469905945503,0,248.6,195.9,44,202.5,,0.02,0.09,0.99,-1.5,0.1,-0.7,2240,689,3.236,1,39.539913,-122.331993,12.21,0.038,313.9,7,3,2.3,0,0.0,-1,0.0,0.0,0.0,0
16266,1469905945523,,,,,,,0.02,0.09,1.01,-1.5,0.1,-0.5,2300,687,,,,,,,,,,,,,,,,,
16286,1469905945543,,,,,,,0.03,0.09,0.99,-1.5,0.4,-0.4,2220,692,,,,,,,,,,,,,,,,,
16306,1469905945563,,,,,,,0.03,0.08,0.99,-1.5,0.4,-0.3,2280,690,,,,,,,,,,,,,,,,,
16326,1469905945583,,,,,,,0.02,0.07,0.97,-1.5,0.4,-0.2,2320,689,,,,,,,,,,,,,,,,,
16346,1469905945502,,,,47,,,0.02,0.08,0.96,-1.6,0.3,-0.1,2220,690,3.208,1,39.539917,-122.331993,12.28,0.038,314.0,7,3,2.3,0,0.0,-1,0.0,,0.0,0
16366,1469905945522,,,,,,,0.03,0.07,0.96,-1.6,0.4,-0.1,2240,690,,,,,,,,,,,,,,,,,
16386,1469905945542,,,,,,,0.02,0.09,0.95,-1.6,0.3,-0.1,2240,692,,,,,,,,,,,,,,,,,
16406,1469905945562,,,,,,,0.02,0.1,0.97,-1.6,0.1,-0.2,2260,690,,,,,,,,,,,,,,,,,
16426,1469905945582,,,,,,,0.02,0.09,0.97,-1.6,0.1,-0.2,2300,692,,,,,,,,,,,,,,,,,
16446,1469905945601,0,247.5,194.5,46,201.9,,0.02,0.09,0.98,-1.6,0.4,-0.1,2240,689,3.324,1,39.539925,-122.331993,12.12,0.038,314.0,7,3,2.3,0,0.0,-1,0.0,0.0,0.0,0
16466,1469905945621,,,,,,,0.02,0.07,0.99,-1.5,0.5,-0.1,2280,690,,,,,,,,,,,,,,,,,
16486,1469905945641,,,,,,,0.02,0.08,1.0,-1.5,0.6,-0.0,2340,692,,,,,,,,,,,,,,,,,
16506,1469905945661,,,,,,,0.02,0.1,1.02,-1.6,0.5,0.1,2260,687,,,,,,,,,,,,,,,,,
16526,1469905945681,,,,,,,0.02,0.08,1.01,-1.6,0.9,0.2,2220,692,,,,,,,,,,,,,,,,,
16546,1469905945702,,,,41,,,0.01,0.07,1.0,-1.6,0.8,0.2,2220,689,3.324,1,39.539928,-122.331993,12.23,0.039,314.1,7,3,2.3,0,0.0,-1,0.0,,0.0,0
16566,1469905945722,,,,,,,0.0,0.07,1.0,-1.6,0.8,0.1,2280,690,,,,,,,,,,,,,,,,,
16586,1469905945742,,,,,,,0.01,0.09,1.0,-1.6,0.7,0.1,2240,689,,,,,,,,,,,,,,,,,
16606,1469905945762,,,,,,,0.01,0.09,0.99,-1.6,1.1,0.2,2260,689,,,,,,,,,,,,,,,,,
16626,1469905945782,,,,,,,0.01,0.08,0.98,-1.5,1.0,0.3,2280,693,,,,,,,,,,,,,,,,,
16646,1469905945804,0,248.8,195.7,45,202.9,,0.0,0.07,0.99,-1.4,0.7,0.2,2300,689,3.304,1,39.539932,-122.331993,12.18,0.039,314.2,7,3,2.3,0,0.0,-1,0.0,0.0,0.0,0
16666,1469905945824,,,,,,,-0.0,0.06,0.99,-1.4,0.8,0.3,2240,692,,,,,,,,,,,,,,,,,
16686,1469905945844,,,,,,,-0.0,0.07,0.99,-1.4,0.8,0.4,2240,690,,,,,,,,,,,,,,,,,
16706,1469905945864,,,,,,,0.0,0.07,1.0,-1.3,0.3,0.3,2240,692,,,,,,,,,,,,,,,,,
16726,1469905945884,,,,,,,0.01,0.07,0.99,-1.3,0.0,0.1,2320,690,,,,,,,,,,,,,,,,,
16746,1469905945897,,,,39,,,0.0,0.08,1.0,-1.3,0.0,0.0,2240,692,3.251,1,39.53994,-122.331993,12.09,0.039,314.2,7,3,2.3,0,0.0,-1,0.0,,0.0,0
16766,1469905945917,,,,,,,0.01,0.09,1.0,-1.4,0.1,0.0,2240,689,,,,,,,,,,,,,,,,,
16786,1469905945937,,,,,,,0.02,0.1,1.0,-1.4,0.0,-0.1,2240,695,,,,,,,,,,,,,,,,,
16806,1469905945957,,,,,,,0.01,0.1,1.0,-1.4,0.2,-0.2,2260,690,,,,,,,,,,,,,,,,,
16826,1469905945977,,,,,,,0.01,0.1,0.98,-1.4,0.1,-0.3,2300,689,,,,,,,,,,,,,,,,,
16846,1469905946005,0,248.1,195.0,46,202.1,,0.0,0.11,0.97,-1.4,0.1,-0.3,2220,692,3.304,1,39.539944,-122.331993,12.16,0.04,314.3,7,3,2.3,0,0.0,-1,0.0,0.0,0.0,0
16866,1469905946025,,,,,,,0.01,0.11,0.96,-1.4,0.5,-0.3,2260,689,,,,,,,,,,,,,,,,,
16886,1469905946045,,,,,,,0.02,0.1,0.95,-1.3,0.5,-0.3,2220,692,,,,,,,,,,,,,,,,,
16906,1469905946065,,,,,,,0.01,0.1,0.95,-1.3,0.5,-0.4,2260,689,,,,,,,,,,,,,,,,,
16926,1469905946085,,,,,,,0.01,0.1,0.94,-1.3,0.3,-0.3,2220,689,,,,,,,,,,,,,,,,,
16946,1469905946204,,,,36,,,0.02,0.1,0.96,-1.4,0.3,-0.2,2240,690,3.338,1,39.539951,-122.331993,12.19,0.04,314.4,7,3,2.3,0,0.0,-1,0.0,,0.0,0
16966,1469905946224,,,,,,,0.01,0.11,0.98,-1.5,0.1,-0.3,2280,689,,,,,,,,,,,,,,,,,
16986,1469905946244,,,,,,,-0.01,0.11,0.98,-1.5,0.1,-0.5,2240,692,,,,,,,,,,,,,,,,,
17006,1469905946264,,,,,,,-0.0,0.11,0.98,-1.5,-0.3,-0.3,2300,689,,,,,,,,,,,,,,,,,
17026,1469905946284,,,,,,,0.01,0.11,0.98,-1.5,-0.3,0.0,2240,690,,,,,,,,,,,,,,,,,
17046,1469905946304,0,247.5,194.6,39,202.0,13.68,0.0,0.11,0.98,-1.4,-0.2,0.2,2320,693,3.28,1,39.539951,-122.331993,12.19,0.04,314.4,7,3,2.3,0,0.0,-1,0.0,0.0,0.0,0
17066,1469905946324,,,,,,,-0.0,0.09,0.98,-1.5,-0.0,0.3,2320,692,,,,,,,,,,,,,,,,,
17086,1469905946344,,,,,,,0.0,0.1,0.98,-1.5,-0.4,0.4,2300,690,,,,,,,,,,,,,,,,,
17106,1469905946364,,,,,,,0.0,0.09,0.99,-1.5,-0.3,0.5,2240,692,,,,,,,,,,,,,,,,,
17126,1469905946384,,,,,,,0.0,0.08,0.98,-1.5,-0.5,0.4,2260,692,,,,,,,,,,,,,,,,,
17146,1469905946305,,,,45,,,-0.0,0.07,0.98,-1.4,-0.5,0.2,2280,693,3.29,1,39.539959,-122.331993,12.21,0.041,314.3,7,3,2.3,0,0.0,-1,0.0,,0.0,0
17166,1469905946325,,,,,,,0.0,0.07,0.99,-1.4,-0.4,0.2,2240,692,,,,,,,,,,,,,,,,,
17186,1469905946345,,,,,,,0.01,0.07,0.99,-1.3,-0.0,0.3,2200,692,,,,,,,,,,,,,,,,,
17206,1469905946365,,,,,,,0.01,0.07,0.98,-1.3,-0.3,0.3,2280,696,,,,,,,,,,,,,,,,,
17226,1469905946385,,,,,,,-0.0,0.06,0.99,-1.2,-0.3,0.3,2280,692,,,,,,,,,,,,,,,,,
17246,1469905946402,0,249.3,196.0,52,203.2,,0.0,0.06,1.02,-1.3,-0.0,0.3,2320,693,3.261,1,39.539963,-122.331993,12.11,0.041,314.4,7,3,2.3,0,0.0,-1,0.0,0.0,0.0,0
17266,1469905946422,,,,,,,0.01,0.05,1.02,-1.2,0.1,0.4,2220,690,,,,,,,,,,,,,,,,,
17286,1469905946442,,,,,,,0.01,0.05,1.02,-1.2,-0.1,0.3,2220,693,,,,,,,,,,,,,,,,,
17306,1469905946462,,,,,,,0.01,0.06,1.01,-1.2,-0.1,0.2,2260,696,,,,,,,,,,,,,,,,,
17326,1469905946482,,,,,,,0.02,0.08,1.01,-1.2,-0.2,0.2,2280,693,,,,,,,,,,,,,,,,,
17346,1469905946501,,,,46,,,0.01,0.08,1.01,-1.3,0.1,0.2,2280,695,3.295,1,39.539967,-122.331993,12.19,0.041,314.5,7,3,2.3,0,0.0,-1,0.0,,0.0,0
17366,1469905946521,,,,,,,0.02,0.09,1.01,-1.2,0.2,0.2,2300,693,,,,,,,,,,,,,,,,,
17386,1469905946541,,,,,,,0.01,0.09,1.01,-1.2,0.3,0.2,2260,693,,,,,,,,,,,,,,,,,
17406,1469905946561,,,,,,,0.01,0.08,0.99,-1.2,0.3,0.3,2240,695,,,,,,,,,,,,,,,,,
17426,1469905946581,,,,,,,0.01,0.09,0.98,-1.2,0.3,0.4,2260,693,,,,,,,,,,,,,,,,,
17446,1469905946601,0,248.1,195.3,45,202.6,,0.02,0.09,0.96,-1.3,0.4,0.4,2260,692,3.247,1,39.53997,-122.331993,12.26,0.041,314.5,7,3,2.3,0,0.0,-1,0.0,0.0,0.0,0
17466,1469905946621,,,,,,,0.02,0.09,0.97,-1.3,0.5,0.2,2320,693,,,,,,,,,,,,,,,,,
17486,1469905946641,,,,,,,0.02,0.1,0.96,-1.3,0.3,0.0,2240,693,,,,,,,,,,,,,,,,,
17506,1469905946661,,,,,,,0.01,0.11,0.94,-1.4,0.2,0.3,2260,693,,,,,,,,,,,,,,,,,
17526,1469905946681,,,,,,,0.02,0.11,0.95,-1.6,-0.2,0.4,2260,692,,,,,,,,,,,,,,,,,
17546,1469905946701,,,,41,,,0.01,0.12,0.96,-1.6,-0.2,0.2,2280,690,3.203,1,39.539978,-122.331993,12.16,0.042,314.6,7,3,2.3,0,0.0,-1,0.0,,0.0,0
17566,1469905946721,,,,,,,0.01,0.1,0.97,-1.5,-0.2,0.2,2320,696,,,,,,,,,,,,,,,,,
