"Interval"|"ms"|0|0|1,"Utc"|"ms"|0|0|1,"FuelLevel"|"F"|0|100|5,"OilTemp"|"F"|0.0|300.0|5,"Coolant"|"F"|0.0|300.0|5,"OilPress"|"PSI"|0|150|10,"EngineTemp"|"F"|0.0|300.0|5,"Battery"|"Volts"|0.0|20.0|1,"AccelX"|"G"|-3.0|3.0|50,"AccelY"|"G"|-3.0|3.0|50,"AccelZ"|"G"|-3.0|3.0|50,"Yaw"|"Deg/Sec"|-300.0|300.0|50,"Pitch"|"Deg/Sec"|-300.0|300.0|50,"Roll"|"Deg/Sec"|-300.0|300.0|50,"RPM"|""|0|10000|50,"Driveshaft"|"RPM"|0|5000|50,"GearRatio"|""|-5.0|5.0|10,"Gear"|""|-1|5|10,"Latitude"|"Degrees"|-180.0|180.0|10,"Longitude"|"Degrees"|-180.0|180.0|10,"Speed"|"MPH"|0.0|150.0|10,"Distance"|"Miles"|0.0|0.0|10,"Altitude"|"Feet"|0.0|4000.0|10,"GPSSats"|""|0|20|10,"GPSQual"|""|0|5|10,"GPSDOP"|""|0.0|20.0|10,"LapCount"|""|0|0|10,"LapTime"|"Min"|0.0|0.0|10,"Sector"|""|0|0|10,"SectorTime"|"Min"|0.0|0.0|10,"PredTime"|"Min"|0.0|0.0|5,"ElapsedTime"|"Min"|0.0|0.0|10,"CurrentLap"|""|0|0|10
467066,1469905884871,,,,,,,0.02,0.09,0.99,-3.0,0.4,-0.2,160,0,,,,,,,,,,,,,,,,,
467086,1469905884891,,,,,,,0.02,0.09,0.99,-2.9,0.3,-0.2,160,0,,,,,,,,,,,,,,,,,
467106,1469905884904,,,,,,,0.02,0.08,0.98,-2.9,0.2,-0.2,160,0,,,,,,,,,,,,,,,,,
467126,1469905884924,,,,,,,0.02,0.09,0.99,-2.9,0.3,-0.2,240,0,,,,,,,,,,,,,,,,,
467146,1469905884944,,,,0,,,0.01,0.08,0.99,-3.0,0.5,-0.1,240,0,0.0,0,39.538757,-122.332146,0.0,2.888,302.3,7,2,2.3,0,0.0,6,0.1533,,5.8367,1
467166,1469905884964,,,,,,,0.02,0.08,0.98,-3.0,0.4,-0.1,240,0,,,,,,,,,,,,,,,,,
467186,1469905884991,,,,,,,0.02,0.09,0.99,-3.0,0.4,-0.1,360,0,,,,,,,,,,,,,,,,,
467206,1469905885011,,,,,,,0.01,0.09,0.98,-2.9,0.0,-0.4,360,0,,,,,,,,,,,,,,,,,
467226,1469905885031,,,,,,,0.01,0.1,0.97,-3.0,0.1,-0.2,480,0,,,,,,,,,,,,,,,,,
467246,1469905885051,0,257.2,204.9,4,221.3,,0.02,0.1,0.97,-3.0,0.1,-0.2,480,0,0.0,0,39.538757,-122.332146,0.0,2.888,302.3,7,2,2.3,0,0.0,6,0.1533,0.0,5.8383,1
467266,1469905885071,,,,,,,0.03,0.11,0.97,-3.0,0.2,-0.3,580,0,,,,,,,,,,,,,,,,,
467286,1469905885091,,,,,,,0.03,0.1,0.97,-3.0,0.1,-0.3,560,0,,,,,,,,,,,,,,,,,
467306,1469905885210,,,,,,,0.02,0.1,0.97,-3.0,0.0,-0.3,560,0,,,,,,,,,,,,,,,,,
467326,1469905885230,,,,,,,0.03,0.1,0.98,-3.0,0.0,-0.2,500,0,,,,,,,,,,,,,,,,,
467346,1469905885250,,,,2,,,0.02,0.09,0.97,-3.0,0.2,-0.2,500,0,0.0,0,39.538757,-122.332146,0.0,2.888,302.3,7,2,2.3,0,0.0,6,0.1533,,5.8417,1
467366,1469905885270,,,,,,,0.02,0.09,0.97,-3.0,0.3,-0.2,500,0,,,,,,,,,,,,,,,,,
467386,1469905885290,,,,,,,0.03,0.1,0.98,-3.1,0.5,-0.1,440,0,,,,,,,,,,,,,,,,,
467406,1469905885310,,,,,,,0.03,0.1,0.97,-3.1,0.5,-0.2,440,0,,,,,,,,,,,,,,,,,
467426,1469905885330,,,,,,,0.03,0.1,0.98,-3.1,0.4,-0.1,460,0,,,,,,,,,,,,,,,,,
467446,1469905885350,0,257.6,204.9,4,221.4,,0.02,0.09,0.97,-3.0,0.4,-0.2,460,0,0.0,0,39.538757,-122.332146,0.0,2.888,302.3,7,2,2.3,0,0.0,6,0.1533,0.0,5.8417,1
467466,1469905885370,,,,,,,0.01,0.08,0.98,-3.0,0.5,-0.1,540,0,,,,,,,,,,,,,,,,,
467486,1469905885291,,,,,,,0.02,0.09,0.99,-3.0,0.4,-0.0,680,0,,,,,,,,,,,,,,,,,
467506,1469905885311,,,,,,,0.01,0.07,0.97,-2.9,0.3,-0.4,780,0,,,,,,,,,,,,,,,,,
467526,1469905885331,,,,,,,0.02,0.05,0.95,-2.7,0.2,-0.5,880,0,,,,,,,,,,,,,,,,,
467546,1469905885351,,,,10,,,0.01,0.03,0.94,-2.9,0.2,-0.1,960,0,0.0,0,39.538757,-122.332146,0.0,2.888,302.3,7,2,2.3,0,0.0,6,0.1533,,5.8433,1
467566,1469905885371,,,,,,,0.02,0.07,0.95,-2.9,0.3,0.2,1020,0,,,,,,,,,,,,,,,,,
467586,1469905885391,,,,,,,0.01,0.09,0.96,-3.0,0.6,0.2,1060,0,,,,,,,,,,,,,,,,,
467606,1469905885411,,,,,,,0.0,0.1,0.97,-3.0,0.8,0.1,1100,0,,,,,,,,,,,,,,,,,
467626,1469905885431,,,,,,,-0.01,0.08,0.98,-3.0,0.6,-0.0,1120,0,,,,,,,,,,,,,,,,,
467646,1469905885451,0,257.7,205.0,13,221.5,,-0.0,0.09,0.97,-3.0,0.0,-0.1,1180,0,0.0,0,39.538757,-122.332146,0.0,2.888,302.3,7,2,2.3,0,0.0,6,0.1533,0.0,5.845,1
467666,1469905885471,,,,,,,0.0,0.09,0.98,-2.9,-0.0,-0.0,1200,0,,,,,,,,,,,,,,,,,
467686,1469905885491,,,,,,,0.01,0.09,0.97,-3.0,0.1,0.0,1220,0,,,,,,,,,,,,,,,,,
467706,1469905885511,,,,,,,0.01,0.11,0.98,-3.0,0.1,-0.0,1240,0,,,,,,,,,,,,,,,,,
467726,1469905885531,,,,,,,0.01,0.08,0.99,-3.0,0.1,-0.1,1240,0,,,,,,,,,,,,,,,,,
467746,1469905885551,,,,14,,,0.01,0.1,0.99,-2.9,-0.1,-0.1,1260,0,0.0,0,39.538757,-122.332146,0.0,2.888,302.3,7,2,2.3,0,0.0,6,0.1533,,5.8467,1
467766,1469905885571,,,,,,,0.0,0.1,0.99,-3.0,0.1,-0.1,1260,0,,,,,,,,,,,,,,,,,
467786,1469905885591,,,,,,,-0.0,0.11,0.98,-3.0,0.1,-0.1,1280,0,,,,,,,,,,,,,,,,,
467806,1469905885611,,,,,,,-0.0,0.1,0.98,-3.0,-0.1,-0.0,1300,0,,,,,,,,,,,,,,,,,
467826,1469905885631,,,,,,,0.01,0.09,0.98,-2.9,-0.1,-0.0,1320,0,,,,,,,,,,,,,,,,,
467846,1469905885651,0,257.1,204.8,18,221.2,,0.01,0.11,0.98,-2.9,-0.0,-0.1,1320,0,0.0,0,39.538757,-122.332146,0.0,2.888,302.3,7,2,2.3,0,0.0,6,0.1533,0.0,5.8483,1
467866,1469905885671,,,,,,,0.02,0.09,0.99,-3.0,-0.0,-0.1,1300,0,,,,,,,,,,,,,,,,,
467886,1469905885691,,,,,,,0.02,0.08,1.0,-2.9,0.0,-0.2,1300,0,,,,,,,,,,,,,,,,,
467906,1469905885711,,,,,,,0.02,0.09,1.0,-2.9,0.2,-0.2,1320,0,,,,,,,,,,,,,,,,,
467926,1469905885731,,,,,,,0.03,0.08,1.0,-2.9,0.3,-0.2,1280,0,,,,,,,,,,,,,,,,,
467946,1469905885751,,,,17,,,0.03,0.08,0.99,-2.9,0.4,-0.2,1260,0,0.0,0,39.538757,-122.332146,0.0,2.888,302.3,7,2,2.3,0,0.0,6,0.1533,,5.85,1
467966,1469905885771,,,,,,,0.04,0.09,0.98,-2.9,0.4,-0.1,1280,0,,,,,,,,,,,,,,,,,
467986,1469905885791,,,,,,,0.04,0.08,0.99,-2.9,0.5,-0.1,1280,0,,,,,,,,,,,,,,,,,
468006,1469905885811,,,,,,,0.04,0.09,1.0,-3.0,0.4,-0.2,1300,0,,,,,,,,,,,,,,,,,
468026,1469905885831,,,,,,,0.04,0.09,1.0,-3.0,0.3,-0.2,1320,0,,,,,,,,,,,,,,,,,
468046,1469905885851,0,256.7,204.4,17,221.0,13.31,0.03,0.08,0.98,-2.9,0.3,-0.3,1260,0,0.0,0,39.538757,-122.332146,0.0,2.888,302.3,7,2,2.3,0,0.0,6,0.1533,0.0,5.8517,1
468066,1469905885871,,,,,,,0.03,0.08,0.97,-2.9,0.2,-0.3,1220,0,,,,,,,,,,,,,,,,,
468086,1469905885891,,,,,,,0.03,0.09,0.99,-2.9,0.3,-0.2,1360,0,,,,,,,,,,,,,,,,,
468106,1469905886004,,,,,,,0.03,0.09,0.98,-3.0,0.5,-0.2,1400,0,,,,,,,,,,,,,,,,,
468126,1469905886024,,,,,,,0.02,0.1,0.99,-3.1,0.3,-0.2,1440,0,,,,,,,,,,,,,,,,,
468146,1469905886044,,,,22,,,0.02,0.08,0.97,-3.1,0.3,-0.2,1480,0,0.0,0,39.538757,-122.332146,0.0,2.888,302.3,7,2,2.3,0,0.0,6,0.1533,,5.855,1
468166,1469905886064,,,,,,,0.01,0.07,0.96,-2.9,-0.2,-0.1,1620,0,,,,,,,,,,,,,,,,,
468186,1469905886084,,,,,,,0.02,0.06,0.95,-2.8,-0.1,-0.1,1600,0,,,,,,,,,,,,,,,,,
468206,1469905886104,,,,,,,0.02,0.07,0.94,-2.8,-0.2,-0.0,1700,0,,,,,,,,,,,,,,,,,
468226,1469905886124,,,,,,,0.02,0.1,0.96,-2.9,-0.0,-0.0,1840,0,,,,,,,,,,,,,,,,,
468246,1469905886144,0,256.4,204.4,31,221.0,,0.03,0.09,0.98,-2.9,0.2,-0.2,1900,0,0.0,0,39.538757,-122.332146,0.0,2.888,302.3,7,2,2.3,0,0.0,6,0.1533,0.0,5.855,1
468266,1469905886164,,,,,,,0.04,0.1,1.0,-2.9,0.3,-0.3,2060,0,,,,,,,,,,,,,,,,,
468286,1469905886091,,,,,,,0.04,0.11,0.95,-2.9,-0.4,-0.3,2120,0,,,,,,,,,,,,,,,,,
468306,1469905886111,,,,,,,0.05,0.13,0.92,-2.8,-2.2,-0.3,2260,0,,,,,,,,,,,,,,,,,
468326,1469905886131,,,,,,,0.05,0.11,0.93,-2.6,-2.2,-0.4,2380,0,,,,,,,,,,,,,,,,,
468346,1469905886151,,,,39,,,0.06,0.08,0.99,-2.6,-1.3,-0.4,2540,0,0.0,0,39.538757,-122.332146,0.0,2.888,302.3,7,2,2.3,0,0.0,6,0.1533,,5.8567,1
468366,1469905886171,,,,,,,0.07,0.1,0.98,-2.8,-1.5,-0.4,2660,0,,,,,,,,,,,,,,,,,
468386,1469905886191,,,,,,,0.06,0.05,0.96,-2.6,-0.7,-0.5,2760,0,,,,,,,,,,,,,,,,,
468406,1469905886211,,,,,,,0.05,0.1,0.97,-2.8,-0.1,-0.5,2860,0,,,,,,,,,,,,,,,,,
468426,1469905886231,,,,,,,0.06,0.07,0.94,-3.1,-0.2,-0.2,2980,0,,,,,,,,,,,,,,,,,
468446,1469905886251,0,256.4,204.7,57,221.0,,0.07,0.06,0.91,-3.1,-0.6,-0.1,3140,0,0.0,0,39.538757,-122.332146,0.0,2.888,302.3,7,2,2.3,0,0.0,6,0.1533,0.0,5.8583,1
468466,1469905886271,,,,,,,0.07,0.07,0.89,-3.1,-0.7,0.0,3140,0,,,,,,,,,,,,,,,,,
468486,1469905886291,,,,,,,0.06,0.09,0.86,-3.0,-0.8,0.0,3160,0,,,,,,,,,,,,,,,,,
468506,1469905886311,,,,,,,0.05,0.09,0.87,-3.1,-0.3,-0.1,3220,0,,,,,,,,,,,,,,,,,
468526,1469905886331,,,,,,,0.06,0.08,0.92,-3.3,-0.0,-0.2,3220,0,,,,,,,,,,,,,,,,,
468546,1469905886351,,,,55,,,0.06,0.08,0.91,-3.3,0.1,-0.3,3140,0,0.0,0,39.538757,-122.332146,0.0,2.888,302.3,7,2,2.3,0,0.0,6,0.1533,,5.86,1
468566,1469905886371,,,,,,,0.06,0.07,0.9,-3.1,-0.1,-0.3,3180,0,,,,,,,,,,,,,,,,,
468586,1469905886391,,,,,,,0.05,0.08,0.89,-3.0,-0.2,-0.2,3100,0,,,,,,,,,,,,,,,,,
468606,1469905886410,,,,,,,0.04,0.09,0.88,-3.0,-0.6,-0.2,3040,0,,,,,,,,,,,,,,,,,
468626,1469905886430,,,,,,,0.03,0.1,0.88,-3.1,-0.8,-0.2,2960,0,,,,,,,,,,,,,,,,,
468646,1469905886450,0,255.5,204.8,60,220.9,,0.02,0.11,0.91,-3.2,-1.0,-0.2,2980,0,0.0,0,39.538757,-122.332146,0.0,2.888,302.3,7,2,2.3,0,0.0,6,0.1533,0.0,5.8617,1
468666,1469905886470,,,,,,,0.02,0.12,0.91,-3.4,-1.0,-0.3,3000,0,,,,,,,,,,,,,,,,,
468686,1469905886491,,,,,,,0.02,0.11,0.93,-3.5,-1.3,-0.3,2880,0,,,,,,,,,,,,,,,,,
468706,1469905886511,,,,,,,0.02,0.11,0.91,-3.5,-1.4,-0.2,2860,0,,,,,,,,,,,,,,,,,
468726,1469905886531,,,,,,,0.01,0.09,0.91,-3.4,-1.6,-0.2,2820,0,,,,,,,,,,,,,,,,,
468746,1469905886551,,,,49,,,0.01,0.08,0.92,-3.3,-1.5,-0.1,2800,0,0.0,0,39.538757,-122.332146,0.0,2.888,302.3,7,2,2.3,0,0.0,6,0.1533,,5.8633,1
468766,1469905886571,,,,,,,0.0,0.08,0.95,-3.0,-1.2,-0.1,2740,0,,,,,,,,,,,,,,,,,
468786,1469905886591,,,,,,,0.0,0.09,0.96,-3.0,-0.5,-0.1,2720,0,,,,,,,,,,,,,,,,,
468806,1469905886611,,,,,,,0.01,0.08,0.94,-3.2,-0.4,-0.0,2720,0,,,,,,,,,,,,,,,,,
468826,1469905886631,,,,,,,0.02,0.08,0.95,-3.3,-0.4,0.1,2580,0,,,,,,,,,,,,,,,,,
468846,1469905886651,0,256.2,205.1,47,221.4,,0.03,0.09,0.95,-3.1,-0.4,-0.0,2600,0,0.0,0,39.538757,-122.332146,0.0,2.888,302.3,7,2,2.3,0,0.0,6,0.1533,0.0,5.865,1
468866,1469905886671,,,,,,,0.02,0.09,0.94,-3.1,-0.6,-0.0,2500,0,,,,,,,,,,,,,,,,,
468886,1469905886691,,,,,,,0.02,0.07,0.96,-3.1,-0.3,-0.1,2540,0,,,,,,,,,,,,,,,,,
468906,1469905886810,,,,,,,0.02,0.11,0.95,-3.1,-0.4,-0.3,2520,0,,,,,,,,,,,,,,,,,
468926,1469905886830,,,,,,,0.02,0.06,0.96,-3.1,-0.4,-0.2,2440,0,,,,,,,,,,,,,,,,,
468946,1469905886850,,,,54,,,0.02,0.09,0.95,-3.0,-0.5,-0.1,2440,0,0.0,0,39.538757,-122.332146,0.0,2.888,302.3,7,2,2.3,0,0.0,6,0.1533,,5.8683,1
468966,1469905886870,,,,,,,0.03,0.07,0.97,-3.0,-0.4,-0.1,2040,0,,,,,,,,,,,,,,,,,
468986,1469905886890,,,,,,,0.03,0.1,0.98,-3.0,-0.4,-0.1,2360,0,,,,,,,,,,,,,,,,,
469006,1469905886910,,,,,,,0.03,0.09,0.97,-2.9,-0.3,-0.2,2320,0,,,,,,,,,,,,,,,,,
469026,1469905886930,,,,,,,0.04,0.07,0.98,-3.0,-0.2,-0.2,2220,0,,,,,,,,,,,,,,,,,
469046,1469905886950,0,256.0,205.1,39,220.4,13.49,0.04,0.09,0.97,-3.0,-0.2,-0.2,2220,0,0.0,0,39.538757,-122.332146,0.0,2.888,302.3,7,2,2.3,0,0.0,6,0.1533,0.0,5.8683,1
469066,1469905886970,,,,,,,0.04,0.1,0.98,-2.9,-0.1,-0.2,2200,0,,,,,,,,,,,,,,,,,
469086,1469905886990,,,,,,,0.04,0.08,1.0,-3.0,0.3,-0.2,2160,0,,,,,,,,,,,,,,,,,
469106,1469905886903,,,,,,,0.03,0.08,0.99,-3.0,0.1,-0.2,2140,0,,,,,,,,,,,,,,,,,
469126,1469905886923,,,,,,,0.02,0.09,0.98,-3.0,-0.2,-0.1,2100,0,,,,,,,,,,,,,,,,,
469146,1469905886943,,,,38,,,0.02,0.09,0.97,-2.9,-0.6,-0.1,2020,0,0.0,0,39.538757,-122.332146,0.0,2.888,302.3,7,2,2.3,0,0.0,6,0.1533,,5.87,1
469166,1469905886963,,,,,,,0.03,0.08,0.97,-2.9,-0.7,-0.2,2040,0,,,,,,,,,,,,,,,,,
469186,1469905886991,,,,,,,0.05,0.08,0.97,-2.9,-0.5,-0.2,1960,0,,,,,,,,,,,,,,,,,
469206,1469905887011,,,,,,,0.07,0.08,0.98,-2.9,-0.1,-0.3,1960,0,,,,,,,,,,,,,,,,,
469226,1469905887031,,,,,,,0.08,0.08,0.99,-3.0,0.4,-0.4,1940,0,,,,,,,,,,,,,,,,,
469246,1469905887051,0,255.9,205.5,33,220.8,,0.09,0.08,0.99,-3.0,0.7,-0.4,1860,0,0.0,0,39.538757,-122.332146,0.0,2.888,302.3,7,2,2.3,0,0.0,6,0.1533,0.0,5.8717,1
469266,1469905887071,,,,,,,0.1,0.08,0.98,-3.1,0.9,-0.4,1840,0,,,,,,,,,,,,,,,,,
469286,1469905887091,,,,,,,0.1,0.08,0.99,-3.1,0.9,-0.4,1820,0,,,,,,,,,,,,,,,,,
469306,1469905887111,,,,,,,0.1,0.08,0.99,-3.1,0.9,-0.4,1800,0,,,,,,,,,,,,,,,,,
469326,1469905887131,,,,,,,0.09,0.07,0.99,-3.1,0.9,-0.4,1760,0,,,,,,,,,,,,,,,,,
469346,1469905887151,,,,27,,,0.08,0.07,0.99,-3.1,1.1,-0.4,1700,0,0.0,0,39.538757,-122.332146,0.0,2.888,302.3,7,2,2.3,0,0.0,6,0.1533,,5.8733,1
469366,1469905887171,,,,,,,0.08,0.06,0.99,-3.1,1.0,-0.3,1660,0,,,,,,,,,,,,,,,,,
469386,1469905887191,,,,,,,0.08,0.08,0.99,-3.0,0.8,-0.3,1660,0,,,,,,,,,,,,,,,,,
469406,1469905887211,,,,,,,0.06,0.07,0.98,-3.0,0.7,-0.3,1580,0,,,,,,,,,,,,,,,,,
469426,1469905887231,,,,,,,0.06,0.08,0.97,-3.0,0.8,-0.3,1600,0,,,,,,,,,,,,,,,,,
469446,1469905887251,0,255.0,205.1,25,220.3,,0.06,0.08,0.97,-3.0,0.7,-0.3,1540,0,0.0,0,39.538757,-122.332146,0.0,2.888,302.3,7,2,2.3,0,0.0,6,0.1533,0.0,5.875,1
469466,1469905887271,,,,,,,0.05,0.08,0.98,-3.0,0.6,-0.3,1500,0,,,,,,,,,,,,,,,,,
469486,1469905887291,,,,,,,0.05,0.08,0.97,-3.0,0.7,-0.3,1480,0,,,,,,,,,,,,,,,,,
469506,1469905887310,,,,,,,0.05,0.08,0.98,-3.1,0.8,-0.3,1460,0,,,,,,,,,,,,,,,,,
469526,1469905887330,,,,,,,0.05,0.09,0.98,-3.1,0.7,-0.3,1380,0,,,,,,,,,,,,,,,,,
469546,1469905887350,,,,21,,,0.04,0.08,0.97,-3.2,0.7,-0.2,1360,0,0.0,0,39.538757,-122.332146,0.0,2.888,302.3,7,2,2.3,0,0.0,6,0.1533,,5.8767,1
469566,1469905887370,,,,,,,0.05,0.08,0.97,-3.2,0.5,-0.2,1340,0,,,,,,,,,,,,,,,,,
469586,1469905887391,,,,,,,0.05,0.08,0.97,-3.1,0.7,-0.2,1320,0,,,,,,,,,,,,,,,,,
469606,1469905887411,,,,,,,0.04,0.09,0.97,-3.1,0.6,-0.2,1260,0,,,,,,,,,,,,,,,,,
469626,1469905887431,,,,,,,0.05,0.09,0.97,-3.1,0.6,-0.3,1240,0,,,,,,,,,,,,,,,,,
469646,1469905887451,0,256.6,206.2,15,221.2,,0.05,0.09,0.97,-3.1,0.8,-0.3,1200,0,0.0,0,39.538757,-122.332146,0.0,2.888,302.3,7,2,2.3,0,0.0,6,0.1533,0.0,5.8783,1
469666,1469905887471,,,,,,,0.04,0.09,0.98,-3.1,0.8,-0.3,1160,0,,,,,,,,,,,,,,,,,
469686,1469905887491,,,,,,,0.03,0.09,0.98,-3.1,0.7,-0.3,1120,0,,,,,,,,,,,,,,,,,
469706,1469905887610,,,,,,,0.03,0.09,0.99,-3.1,0.6,-0.3,1100,0,,,,,,,,,,,,,,,,,
469726,1469905887630,,,,,,,0.03,0.08,0.98,-3.1,0.5,-0.3,1060,0,,,,,,,,,,,,,,,,,
469746,1469905887650,,,,12,,,0.02,0.08,0.97,-3.0,0.3,-0.2,1020,0,0.0,0,39.538757,-122.332146,0.0,2.888,302.3,7,2,2.3,0,0.0,6,0.1533,,5.8817,1
469766,1469905887670,,,,,,,0.02,0.07,0.97,-2.9,0.1,-0.3,980,0,,,,,,,,,,,,,,,,,
469786,1469905887690,,,,,,,0.03,0.07,0.97,-2.9,-0.1,-0.3,980,0,,,,,,,,,,,,,,,,,
469806,1469905887710,,,,,,,0.03,0.07,0.97,-2.9,-0.2,-0.3,1000,0,,,,,,,,,,,,,,,,,
469826,1469905887730,,,,,,,0.03,0.07,0.97,-2.9,-0.0,-0.3,1000,0,,,,,,,,,,,,,,,,,
469846,1469905887750,0,256.6,206.6,13,221.1,,0.04,0.06,0.97,-2.9,0.1,-0.2,960,0,0.0,0,39.538757,-122.332146,0.0,2.888,302.3,7,2,2.3,0,0.0,6,0.1533,0.0,5.8817,1
469866,1469905887770,,,,,,,0.04,0.06,0.97,-2.9,0.3,-0.2,980,0,,,,,,,,,,,,,,,,,
469886,1469905887691,,,,,,,0.04,0.06,0.97,-2.9,0.5,-0.2,960,0,,,,,,,,,,,,,,,,,
469906,1469905887711,,,,,,,0.04,0.05,0.98,-2.9,0.6,-0.1,960,0,,,,,,,,,,,,,,,,,
469926,1469905887731,,,,,,,0.04,0.05,0.98,-2.9,0.8,-0.1,960,0,,,,,,,,,,,,,,,,,
469946,1469905887751,,,,10,,,0.04,0.06,0.98,-2.9,1.0,-0.1,960,0,0.0,0,39.538757,-122.332146,0.0,2.888,302.3,7,2,2.3,0,0.0,6,0.1533,,5.8833,1
469966,1469905887771,,,,,,,0.04,0.06,0.98,-2.9,1.1,-0.1,960,0,,,,,,,,,,,,,,,,,
469986,1469905887791,,,,,,,0.05,0.07,0.98,-3.0,1.2,-0.1,940,0,,,,,,,,,,,,,,,,,
470006,1469905887811,,,,,,,0.05,0.08,0.98,-3.1,1.1,0.0,940,0,,,,,,,,,,,,,,,,,
470026,1469905887831,,,,,,,0.06,0.09,0.98,-3.1,1.0,0.0,940,0,,,,,,,,,,,,,,,,,
470046,1469905887851,0,255.9,206.2,10,220.7,13.33,0.05,0.09,0.98,-3.1,0.9,0.0,940,0,0.0,0,39.538757,-122.332146,0.0,2.888,302.3,7,2,2.3,0,0.0,6,0.1533,0.0,5.885,1
470066,1469905887871,,,,,,,0.05,0.09,0.99,-3.1,0.8,0.0,940,0,,,,,,,,,,,,,,,,,
470086,1469905887891,,,,,,,0.04,0.09,0.99,-3.0,0.8,-0.1,920,0,,,,,,,,,,,,,,,,,
470106,1469905887904,,,,,,,0.04,0.1,0.99,-3.0,0.7,-0.1,920,0,,,,,,,,,,,,,,,,,
470126,1469905887924,,,,,,,0.04,0.1,0.99,-3.0,0.6,-0.2,880,0,,,,,,,,,,,,,,,,,
470146,1469905887944,,,,11,,,0.03,0.1,0.99,-3.0,0.5,-0.2,900,0,0.0,0,39.538757,-122.332146,0.0,2.888,302.3,7,2,2.3,0,0.0,6,0.1533,,5.8867,1
470166,1469905887964,,,,,,,0.03,0.09,0.99,-2.9,0.4,-0.3,880,0,,,,,,,,,,,,,,,,,
470186,1469905887991,,,,,,,0.03,0.09,0.99,-2.9,0.3,-0.3,880,0,,,,,,,,,,,,,,,,,
470206,1469905888011,,,,,,,0.03,0.08,0.99,-2.9,0.2,-0.3,860,0,,,,,,,,,,,,,,,,,
470226,1469905888031,,,,,,,0.03,0.08,0.99,-2.9,0.3,-0.2,860,0,,,,,,,,,,,,,,,,,
470246,1469905888051,0,256.4,206.6,8,220.7,,0.03,0.08,0.99,-3.0,0.3,-0.1,860,0,0.0,0,39.538757,-122.332146,0.0,2.888,302.3,7,2,2.3,0,0.0,6,0.1533,0.0,5.8883,1
470266,1469905888071,,,,,,,0.03,0.09,0.99,-3.0,0.4,-0.1,820,0,,,,,,,,,,,,,,,,,
470286,1469905888091,,,,,,,0.04,0.09,0.99,-3.0,0.3,-0.2,840,0,,,,,,,,,,,,,,,,,
470306,1469905888111,,,,,,,0.03,0.1,0.99,-3.0,0.4,-0.3,840,0,,,,,,,,,,,,,,,,,
470326,1469905888131,,,,,,,0.03,0.09,0.99,-2.9,0.3,-0.3,820,0,,,,,,,,,,,,,,,,,
470346,1469905888151,,,,9,,,0.03,0.08,0.98,-2.9,0.3,-0.3,820,0,0.0,0,39.538757,-122.332146,0.0,2.888,302.3,7,2,2.3,0,0.0,6,0.1533,,5.89,1
470366,1469905888171,,,,,,,0.03,0.08,0.99,-2.9,0.4,-0.1,820,0,,,,,,,,,,,,,,,,,
470386,1469905888191,,,,,,,0.03,0.09,0.99,-3.0,0.4,-0.1,820,0,,,,,,,,,,,,,,,,,
470406,1469905888211,,,,,,,0.03,0.09,0.99,-3.0,0.3,-0.1,800,0,,,,,,,,,,,,,,,,,
470426,1469905888231,,,,,,,0.02,0.09,0.99,-2.9,0.3,-0.3,820,0,,,,,,,,,,,,,,,,,
470446,1469905888251,0,255.5,206.5,7,220.1,,0.02,0.09,0.99,-2.9,0.2,-0.4,800,0,0.0,0,39.538757,-122.332146,0.0,2.888,302.3,7,2,2.3,0,0.0,6,0.1533,0.0,5.8917,1
470466,1469905888271,,,,,,,0.01,0.09,0.98,-3.0,0.2,-0.3,800,0,,,,,,,,,,,,,,,,,
470486,1469905888291,,,,,,,0.01,0.09,0.98,-3.0,0.2,-0.1,820,0,,,,,,,,,,,,,,,,,
470506,1469905888410,,,,,,,0.02,0.1,0.98,-3.0,0.3,-0.0,820,0,,,,,,,,,,,,,,,,,
470526,1469905888430,,,,,,,0.02,0.1,0.99,-3.0,0.2,-0.1,820,0,,,,,,,,,,,,,,,,,
470546,1469905888450,,,,8,,,0.02,0.1,0.98,-2.9,0.1,-0.3,780,0,0.0,0,39.538757,-122.332146,0.0,2.888,302.3,7,2,2.3,0,0.0,6,0.1533,,5.895,1
470566,1469905888470,,,,,,,0.02,0.09,0.98,-2.9,0.2,-0.4,820,0,,,,,,,,,,,,,,,,,
470586,1469905888490,,,,,,,0.02,0.09,0.98,-3.0,0.2,-0.2,820,0,,,,,,,,,,,,,,,,,
470606,1469905888510,,,,,,,0.02,0.09,0.98,-3.0,0.4,-0.1,820,0,,,,,,,,,,,,,,,,,
470626,1469905888530,,,,,,,0.02,0.1,0.98,-3.0,0.3,-0.1,820,0,,,,,,,,,,,,,,,,,
470646,1469905888550,0,255.0,205.9,11,219.6,,0.02,0.1,0.98,-2.9,0.1,-0.2,820,0,0.0,0,39.538757,-122.332146,0.0,2.888,302.3,7,2,2.3,0,0.0,6,0.1533,0.0,5.895,1
470666,1469905888570,,,,,,,0.02,0.09,0.98,-2.9,0.2,-0.3,820,0,,,,,,,,,,,,,,,,,
470686,1469905888491,,,,,,,0.02,0.08,0.98,-2.9,0.2,-0.3,820,0,,,,,,,,,,,,,,,,,
470706,1469905888511,,,,,,,0.02,0.08,0.98,-3.0,0.3,-0.1,820,0,,,,,,,,,,,,,,,,,
470726,1469905888531,,,,,,,0.02,0.1,0.99,-3.0,0.3,0.0,840,0,,,,,,,,,,,,,,,,,
470746,1469905888551,,,,10,,,0.02,0.09,0.99,-2.9,0.2,-0.1,840,0,0.0,0,39.538757,-122.332146,0.0,2.888,302.3,7,2,2.3,0,0.0,6,0.1533,,5.8967,1
470766,1469905888571,,,,,,,0.02,0.09,0.99,-2.9,0.1,-0.2,840,0,,,,,,,,,,,,,,,,,
470786,1469905888591,,,,,,,0.02,0.08,0.99,-2.9,0.1,-0.3,840,0,,,,,,,,,,,,,,,,,
470806,1469905888611,,,,,,,0.01,0.08,0.98,-2.8,-0.0,-0.3,840,0,,,,,,,,,,,,,,,,,
470826,1469905888631,,,,,,,0.01,0.08,0.98,-2.9,-0.0,-0.2,840,0,,,,,,,,,,,,,,,,,
470846,1469905888651,0,254.9,206.2,8,219.2,,0.02,0.07,0.98,-2.9,0.1,0.0,840,0,0.0,0,39.538757,-122.332146,0.0,2.888,302.3,7,2,2.3,0,0.0,6,0.1533,0.0,5.8983,1
470866,1469905888671,,,,,,,0.03,0.09,0.98,-3.0,0.3,-0.0,860,0,,,,,,,,,,,,,,,,,
470886,1469905888691,,,,,,,0.03,0.09,0.99,-3.0,0.3,-0.2,860,0,,,,,,,,,,,,,,,,,
470906,1469905888711,,,,,,,0.03,0.1,0.98,-3.0,0.3,-0.3,860,0,,,,,,,,,,,,,,,,,
470926,1469905888731,,,,,,,0.02,0.09,0.98,-2.9,0.4,-0.4,860,0,,,,,,,,,,,,,,,,,
470946,1469905888751,,,,8,,,0.01,0.08,0.97,-2.9,0.4,-0.4,860,0,0.0,0,39.538757,-122.332146,0.0,2.888,302.3,7,2,2.3,0,0.0,6,0.1533,,5.9,1
470966,1469905888771,,,,,,,0.01,0.07,0.97,-2.9,0.4,-0.2,840,0,,,,,,,,,,,,,,,,,
470986,1469905888791,,,,,,,0.01,0.07,0.97,-3.0,0.6,-0.0,840,0,,,,,,,,,,,,,,,,,
471006,1469905888810,,,,,,,0.02,0.09,0.98,-3.0,0.6,0.0,860,0,,,,,,,,,,,,,,,,,
471026,1469905888830,,,,,,,0.03,0.08,0.99,-3.0,0.6,-0.1,860,0,,,,,,,,,,,,,,,,,
471046,1469905888850,0,255.0,206.3,8,219.0,13.37,0.02,0.09,0.99,-2.9,0.4,-0.3,860,0,0.0,0,39.538757,-122.332146,0.0,2.888,302.3,7,2,2.3,0,0.0,6,0.1533,0.0,5.9017,1
471066,1469905888870,,,,,,,0.02,0.09,0.98,-2.9,0.3,-0.4,860,0,,,,,,,,,,,,,,,,,
471086,1469905888890,,,,,,,0.02,0.08,0.98,-2.9,0.2,-0.4,860,0,,,,,,,,,,,,,,,,,
471106,1469905888905,,,,,,,0.02,0.07,0.98,-2.9,0.3,-0.3,820,0,,,,,,,,,,,,,,,,,
471126,1469905888925,,,,,,,0.02,0.06,0.98,-2.9,0.5,-0.1,820,0,,,,,,,,,,,,,,,,,
471146,1469905888945,,,,7,,,0.02,0.07,0.98,-2.9,0.6,-0.0,840,0,0.0,0,39.538757,-122.332146,0.0,2.888,302.3,7,2,2.3,0,0.0,6,0.1533,,5.9033,1
471166,1469905888965,,,,,,,0.02,0.08,0.99,-3.0,0.6,-0.1,840,0,,,,,,,,,,,,,,,,,
471186,1469905888991,,,,,,,0.02,0.08,0.99,-3.0,0.4,-0.2,840,0,,,,,,,,,,,,,,,,,
471206,1469905889011,,,,,,,0.01,0.09,0.99,-2.9,0.3,-0.4,840,0,,,,,,,,,,,,,,,,,
471226,1469905889031,,,,,,,0.01,0.08,0.98,-2.9,0.2,-0.4,840,0,,,,,,,,,,,,,,,,,
471246,1469905889051,0,254.4,205.7,8,218.3,,0.01,0.07,0.98,-3.0,0.3,-0.2,840,0,0.0,0,39.538757,-122.332146,0.0,2.888,302.3,7,2,2.3,0,0.0,6,0.1533,0.0,5.905,1
471266,1469905889071,,,,,,,0.02,0.07,0.98,-3.0,0.3,-0.0,800,0,,,,,,,,,,,,,,,,,
471286,1469905889091,,,,,,,0.02,0.09,0.98,-3.0,0.5,-0.0,840,0,,,,,,,,,,,,,,,,,
471306,1469905889210,,,,,,,0.02,0.08,0.98,-3.0,0.5,-0.2,820,0,,,,,,,,,,,,,,,,,
471326,1469905889230,,,,,,,0.02,0.09,0.98,-3.0,0.5,-0.3,820,0,,,,,,,,,,,,,,,,,
471346,1469905889250,,,,8,,,0.02,0.08,0.98,-3.0,0.5,-0.4,820,0,0.0,0,39.538757,-122.332146,0.0,2.888,302.3,7,2,2.3,0,0.0,6,0.1533,,5.9083,1
471366,1469905889270,,,,,,,0.02,0.08,0.98,-3.0,0.4,-0.3,820,0,,,,,,,,,,,,,,,,,
471386,1469905889290,,,,,,,0.02,0.08,0.98,-3.1,0.4,-0.1,800,0,,,,,,,,,,,,,,,,,
471406,1469905889310,,,,,,,0.02,0.09,0.98,-3.1,0.3,-0.0,780,0,,,,,,,,,,,,,,,,,
471426,1469905889330,,,,,,,0.02,0.09,0.99,-3.0,0.2,-0.2,800,0,,,,,,,,,,,,,,,,,
471446,1469905889350,0,254.2,205.7,8,218.0,,0.02,0.09,0.99,-3.0,0.2,-0.3,780,0,0.0,0,39.538757,-122.332146,0.0,2.888,302.3,7,2,2.3,0,0.0,6,0.1533,0.0,5.9083,1
471466,1469905889370,,,,,,,0.02,0.09,0.99,-3.0,0.1,-0.2,780,0,,,,,,,,,,,,,,,,,
471486,1469905889291,,,,,,,0.02,0.09,0.99,-3.0,0.1,-0.1,780,0,,,,,,,,,,,,,,,,,
471506,1469905889311,,,,,,,0.02,0.1,0.99,-3.0,0.1,-0.1,780,0,,,,,,,,,,,,,,,,,
471526,1469905889331,,,,,,,0.02,0.09,0.99,-3.0,0.1,-0.2,780,0,,,,,,,,,,,,,,,,,
471546,1469905889351,,,,6,,,0.02,0.09,0.99,-2.9,0.1,-0.3,760,0,0.0,0,39.538757,-122.332146,0.0,2.888,302.3,7,2,2.3,0,0.0,6,0.1533,,5.91,1
471566,1469905889371,,,,,,,0.02,0.07,0.98,-2.9,0.2,-0.2,760,0,,,,,,,,,,,,,,,,,
471586,1469905889391,,,,,,,0.02,0.08,0.99,-3.0,0.2,-0.1,780,0,,,,,,,,,,,,,,,,,
471606,1469905889411,,,,,,,0.02,0.08,0.99,-2.9,0.3,-0.2,760,0,,,,,,,,,,,,,,,,,
471626,1469905889431,,,,,,,0.02,0.08,0.99,-2.9,0.2,-0.2,760,0,,,,,,,,,,,,,,,,,
471646,1469905889451,0,255.2,206.3,8,218.4,,0.02,0.08,0.98,-3.0,0.3,-0.2,760,0,0.0,0,39.538757,-122.332146,0.0,2.888,302.3,7,2,2.3,0,0.0,6,0.1533,0.0,5.9117,1
471666,1469905889471,,,,,,,0.02,0.09,0.98,-3.0,0.2,-0.1,760,0,,,,,,,,,,,,,,,,,
471686,1469905889491,,,,,,,0.02,0.09,0.98,-3.0,0.3,-0.1,760,0,,,,,,,,,,,,,,,,,
471706,1469905889511,,,,,,,0.02,0.09,0.98,-3.0,0.2,-0.2,720,0,,,,,,,,,,,,,,,,,
471726,1469905889531,,,,,,,0.02,0.09,0.98,-3.0,0.3,-0.2,720,0,,,,,,,,,,,,,,,,,
471746,1469905889551,,,,6,,,0.03,0.08,0.98,-3.0,0.4,-0.1,740,0,0.0,0,39.538757,-122.332146,0.0,2.888,302.3,7,2,2.3,0,0.0,6,0.1533,,5.9133,1
471766,1469905889571,,,,,,,0.02,0.08,0.98,-3.0,0.4,-0.1,720,0,,,,,,,,,,,,,,,,,
471786,1469905889591,,,,,,,0.02,0.07,0.98,-2.9,0.3,-0.2,740,0,,,,,,,,,,,,,,,,,
471806,1469905889611,,,,,,,0.02,0.08,0.98,-2.9,0.4,-0.2,740,0,,,,,,,,,,,,,,,,,
471826,1469905889631,,,,,,,0.03,0.08,0.98,-3.0,0.4,-0.1,720,0,,,,,,,,,,,,,,,,,
471846,1469905889651,0,254.4,206.7,6,218.3,,0.02,0.08,0.98,-3.0,0.3,-0.1,720,0,0.0,0,39.538757,-122.332146,0.0,2.888,302.3,7,2,2.3,0,0.0,6,0.1533,0.0,5.915,1
471866,1469905889671,,,,,,,0.02,0.07,0.98,-2.9,0.1,-0.3,700,0,,,,,,,,,,,,,,,,,
471886,1469905889691,,,,,,,0.02,0.08,0.97,-2.9,0.2,-0.2,700,0,,,,,,,,,,,,,,,,,
471906,1469905889711,,,,,,,0.02,0.08,0.98,-2.9,0.3,-0.1,720,0,,,,,,,,,,,,,,,,,
471926,1469905889731,,,,,,,0.02,0.08,0.98,-2.9,0.3,-0.2,720,0,,,,,,,,,,,,,,,,,
471946,1469905889751,,,,7,,,0.02,0.07,0.98,-2.9,0.2,-0.2,720,0,0.0,0,39.538757,-122.332146,0.0,2.888,302.3,7,2,2.3,0,0.0,6,0.1533,,5.9167,1
471966,1469905889771,,,,,,,0.02,0.09,0.98,-2.9,0.2,-0.1,720,0,,,,,,,,,,,,,,,,,
471986,1469905889791,,,,,,,0.02,0.09,0.98,-2.9,0.3,-0.1,720,0,,,,,,,,,,,,,,,,,
472006,1469905889810,,,,,,,0.02,0.1,0.98,-2.9,0.3,-0.2,700,0,,,,,,,,,,,,,,,,,
472026,1469905889830,,,,,,,0.03,0.1,0.98,-3.0,0.5,-0.2,700,0,,,,,,,,,,,,,,,,,
472046,1469905889850,0,255.4,205.5,5,217.1,13.25,0.03,0.1,0.98,-3.0,0.5,-0.1,680,0,0.0,0,39.538757,-122.332146,0.0,2.888,302.3,7,2,2.3,0,0.0,6,0.1533,0.0,5.9183,1
472066,1469905889870,,,,,,,0.03,0.09,0.98,-3.0,0.4,-0.2,700,0,,,,,,,,,,,,,,,,,
472086,1469905889890,,,,,,,0.02,0.09,0.98,-3.0,0.3,-0.3,700,0,,,,,,,,,,,,,,,,,
472106,1469905890003,,,,,,,0.03,0.09,0.98,-3.0,0.2,-0.2,700,0,,,,,,,,,,,,,,,,,
472126,1469905890023,,,,,,,0.03,0.09,0.97,-2.9,0.2,-0.2,700,0,,,,,,,,,,,,,,,,,
472146,1469905890043,,,,5,,,0.02,0.08,0.98,-2.9,0.1,-0.3,700,0,0.0,0,39.538757,-122.332146,0.0,2.888,302.3,7,2,2.3,0,0.0,6,0.1533,,5.9217,1
472166,1469905890063,,,,,,,0.02,0.08,0.98,-2.9,0.2,-0.3,700,0,,,,,,,,,,,,,,,,,
472186,1469905890083,,,,,,,0.02,0.08,0.98,-3.0,0.3,-0.2,700,0,,,,,,,,,,,,,,,,,
472206,1469905890103,,,,,,,0.02,0.08,0.98,-2.9,0.2,-0.3,680,0,,,,,,,,,,,,,,,,,
472226,1469905890123,,,,,,,0.02,0.08,0.98,-2.9,0.2,-0.3,680,0,,,,,,,,,,,,,,,,,
472246,1469905890143,0,254.0,206.7,7,217.9,,0.02,0.08,0.98,-3.0,0.1,-0.1,700,0,0.0,0,39.538757,-122.332146,0.0,2.888,302.3,7,2,2.3,0,0.0,6,0.1533,0.0,5.9217,1
472266,1469905890163,,,,,,,0.02,0.08,0.98,-2.9,0.0,-0.1,700,0,,,,,,,,,,,,,,,,,
472286,1469905890091,,,,,,,0.02,0.07,0.98,-2.9,-0.1,-0.2,700,0,,,,,,,,,,,,,,,,,
472306,1469905890111,,,,,,,0.02,0.08,0.99,-2.9,0.0,-0.1,700,0,,,,,,,,,,,,,,,,,
472326,1469905890131,,,,,,,0.03,0.08,0.99,-2.9,0.2,-0.1,700,0,,,,,,,,,,,,,,,,,
472346,1469905890151,,,,7,,,0.03,0.08,0.99,-2.9,0.2,-0.3,700,0,0.0,0,39.538757,-122.332146,0.0,2.888,302.3,7,2,2.3,0,0.0,6,0.1533,,5.9233,1
472366,1469905890171,,,,,,,0.03,0.09,0.99,-3.0,0.3,-0.2,700,0,,,,,,,,,,,,,,,,,
472386,1469905890191,,,,,,,0.03,0.1,0.99,-3.0,0.4,-0.1,680,0,,,,,,,,,,,,,,,,,
472406,1469905890211,,,,,,,0.03,0.09,0.99,-3.0,0.4,-0.2,700,0,,,,,,,,,,,,,,,,,
472426,1469905890231,,,,,,,0.02,0.09,0.99,-3.0,0.1,-0.2,700,0,,,,,,,,,,,,,,,,,
472446,1469905890251,0,254.5,206.0,7,217.1,,0.03,0.09,0.98,-3.0,-0.1,-0.2,700,0,0.0,0,39.538757,-122.332146,0.0,2.888,302.3,7,2,2.3,0,0.0,6,0.1533,0.0,5.925,1
472466,1469905890271,,,,,,,0.03,0.09,0.98,-2.9,-0.2,-0.2,720,0,,,,,,,,,,,,,,,,,
472486,1469905890291,,,,,,,0.03,0.09,0.98,-2.9,-0.3,-0.3,720,0,,,,,,,,,,,,,,,,,
472506,1469905890311,,,,,,,0.03,0.09,0.98,-3.0,-0.1,-0.4,720,0,,,,,,,,,,,,,,,,,
472526,1469905890331,,,,,,,0.03,0.09,0.98,-3.0,0.1,-0.2,700,0,,,,,,,,,,,,,,,,,
472546,1469905890351,,,,6,,,0.03,0.09,0.98,-3.0,0.1,-0.3,700,0,0.0,0,39.538757,-122.332146,0.0,2.888,302.3,7,2,2.3,0,0.0,6,0.1533,,5.9267,1
472566,1469905890371,,,,,,,0.02,0.08,0.98,-3.0,0.1,-0.3,700,0,,,,,,,,,,,,,,,,,
472586,1469905890391,,,,,,,0.03,0.08,0.98,-3.0,0.1,-0.2,720,0,,,,,,,,,,,,,,,,,
472606,1469905890411,,,,,,,0.03,0.08,0.98,-3.0,0.2,-0.1,720,0,,,,,,,,,,,,,,,,,
472626,1469905890431,,,,,,,0.03,0.09,0.99,-3.0,0.2,-0.3,720,0,,,,,,,,,,,,,,,,,
472646,1469905890451,0,253.9,206.8,7,217.5,,0.02,0.09,0.99,-3.0,0.5,-0.3,720,0,0.0,0,39.538757,-122.332146,0.0,2.888,302.3,7,2,2.3,0,0.0,6,0.1533,0.0,5.9283,1
472666,1469905890471,,,,,,,0.02,0.09,0.99,-3.1,0.5,-0.1,740,0,,,,,,,,,,,,,,,,,
472686,1469905890491,,,,,,,0.02,0.1,0.99,-3.1,0.3,-0.1,720,0,,,,,,,,,,,,,,,,,
472706,1469905890511,,,,,,,0.02,0.09,0.99,-3.0,0.1,-0.3,720,0,,,,,,,,,,,,,,,,,
472726,1469905890531,,,,,,,0.02,0.09,0.99,-3.0,0.1,-0.2,720,0,,,,,,,,,,,,,,,,,
472746,1469905890551,,,,7,,,0.02,0.09,0.99,-3.0,0.2,-0.1,740,0,0.0,0,39.538757,-122.332146,0.0,2.888,302.3,7,2,2.3,0,0.0,6,0.1533,,5.93,1
472766,1469905890571,,,,,,,0.02,0.08,0.99,-3.0,0.1,-0.1,740,0,,,,,,,,,,,,,,,,,
472786,1469905890591,,,,,,,0.02,0.07,0.98,-2.9,0.0,-0.3,760,0,,,,,,,,,,,,,,,,,
472806,1469905890611,,,,,,,0.02,0.07,0.98,-2.8,0.1,-0.2,760,0,,,,,,,,,,,,,,,,,
472826,1469905890631,,,,,,,0.03,0.08,0.98,-2.8,0.3,-0.0,760,0,,,,,,,,,,,,,,,,,
472846,1469905890651,0,256.0,205.9,7,216.4,,0.03,0.08,0.98,-2.9,0.3,-0.0,760,0,0.0,0,39.538757,-122.332146,0.0,2.888,302.3,7,2,2.3,0,0.0,6,0.1533,0.0,5.9317,1
472866,1469905890671,,,,,,,0.02,0.08,0.98,-2.8,0.1,-0.2,760,0,,,,,,,,,,,,,,,,,
472886,1469905890691,,,,,,,0.02,0.07,0.98,-2.7,0.2,-0.3,780,0,,,,,,,,,,,,,,,,,
472906,1469905890810,,,,,,,0.02,0.06,0.98,-2.8,0.2,-0.1,780,0,,,,,,,,,,,,,,,,,
472926,1469905890830,,,,,,,0.02,0.07,0.98,-2.8,0.1,-0.0,800,0,,,,,,,,,,,,,,,,,
472946,1469905890850,,,,8,,,0.02,0.08,0.98,-2.8,0.0,-0.1,820,0,0.0,0,39.538757,-122.332146,0.0,2.888,302.3,7,2,2.3,0,0.0,6,0.1533,,5.935,1
472966,1469905890870,,,,,,,0.02,0.09,0.98,-2.8,-0.3,-0.2,820,0,,,,,,,,,,,,,,,,,
472986,1469905890890,,,,,,,0.01,0.07,0.98,-2.8,-0.2,-0.3,840,0,,,,,,,,,,,,,,,,,
473006,1469905890910,,,,,,,0.02,0.07,0.98,-2.8,-0.2,-0.3,840,0,,,,,,,,,,,,,,,,,
473026,1469905890930,,,,,,,0.01,0.07,0.98,-3.0,-0.1,0.0,840,0,,,,,,,,,,,,,,,,,
473046,1469905890950,0,255.9,205.5,8,215.8,13.48,0.02,0.1,0.98,-3.0,0.1,0.2,880,0,0.0,0,39.538757,-122.332146,0.0,2.888,302.3,7,2,2.3,0,0.0,6,0.1533,0.0,5.935,1
473066,1469905890970,,,,,,,0.02,0.11,0.98,-3.1,0.2,0.1,880,0,,,,,,,,,,,,,,,,,
473086,1469905890990,,,,,,,0.02,0.1,0.99,-3.0,0.3,-0.0,920,0,,,,,,,,,,,,,,,,,
473106,1469905890905,,,,,,,0.03,0.11,0.99,-3.0,0.2,-0.2,940,0,,,,,,,,,,,,,,,,,
473126,1469905890925,,,,,,,0.02,0.12,0.99,-2.9,0.1,-0.3,940,0,,,,,,,,,,,,,,,,,
473146,1469905890945,,,,11,,,0.01,0.11,0.99,-2.9,-0.2,-0.4,960,0,0.0,0,39.538757,-122.332146,0.0,2.888,302.3,7,2,2.3,0,0.0,6,0.1533,,5.9367,1
473166,1469905890965,,,,,,,-0.0,0.11,0.99,-2.9,-0.4,-0.4,980,0,,,,,,,,,,,,,,,,,
473186,1469905890985,,,,,,,-0.01,0.1,0.99,-2.8,-0.5,-0.4,1020,0,,,,,,,,,,,,,,,,,
473206,1469905891010,,,,,,,-0.02,0.09,1.0,-2.8,-0.3,-0.5,1020,0,,,,,,,,,,,,,,,,,
473226,1469905891030,,,,,,,-0.02,0.09,1.0,-2.8,-0.2,-0.4,1060,0,,,,,,,,,,,,,,,,,
473246,1469905891050,0,255.5,205.3,14,215.6,,-0.02,0.1,1.01,-2.8,-0.4,-0.4,1060,0,0.0,0,39.538757,-122.332146,0.0,2.888,302.3,7,2,2.3,0,0.0,6,0.1533,0.0,5.9383,1
473266,1469905891070,,,,,,,-0.02,0.11,1.01,-2.9,-0.6,-0.3,1060,0,,,,,,,,,,,,,,,,,
473286,1469905891091,,,,,,,-0.01,0.1,1.01,-2.9,-0.6,-0.3,1100,0,,,,,,,,,,,,,,,,,
473306,1469905891111,,,,,,,-0.0,0.1,1.01,-2.9,-0.4,-0.2,1140,0,,,,,,,,,,,,,,,,,
473326,1469905891131,,,,,,,0.0,0.1,1.0,-2.9,-0.2,-0.2,1140,0,,,,,,,,,,,,,,,,,
473346,1469905891151,,,,14,,,-0.0,0.1,1.01,-2.9,-0.1,-0.2,1160,0,0.0,0,39.538757,-122.332146,0.0,2.888,302.3,7,2,2.3,0,0.0,6,0.1533,,5.94,1
473366,1469905891171,,,,,,,-0.0,0.09,1.01,-2.9,-0.3,-0.3,1160,0,,,,,,,,,,,,,,,,,
473386,1469905891191,,,,,,,-0.01,0.09,1.0,-2.9,-0.3,-0.3,1180,0,,,,,,,,,,,,,,,,,
473406,1469905891211,,,,,,,-0.0,0.09,1.0,-2.9,-0.2,-0.2,1220,0,,,,,,,,,,,,,,,,,
473426,1469905891231,,,,,,,-0.0,0.1,1.0,-2.9,-0.1,-0.2,1240,0,,,,,,,,,,,,,,,,,
473446,1469905891251,0,255.2,205.5,18,215.6,,-0.0,0.08,1.0,-2.9,-0.0,-0.2,1200,0,0.0,0,39.538757,-122.332146,0.0,2.888,302.3,7,2,2.3,0,0.0,6,0.1533,0.0,5.9417,1
473466,1469905891271,,,,,,,-0.0,0.09,0.99,-2.9,-0.1,-0.3,1260,0,,,,,,,,,,,,,,,,,
473486,1469905891291,,,,,,,0.01,0.08,1.0,-3.0,-0.0,-0.2,1240,0,,,,,,,,,,,,,,,,,
473506,1469905891311,,,,,,,0.01,0.09,0.99,-3.0,0.1,-0.2,1280,13,,,,,,,,,,,,,,,,,
473526,1469905891331,,,,,,,0.01,0.07,1.0,-2.9,0.1,-0.1,1280,38,,,,,,,,,,,,,,,,,
473546,1469905891351,,,,16,,,-0.01,0.08,1.01,-2.9,0.1,-0.1,1260,38,0.0,0,39.538757,-122.332146,0.0,2.888,302.3,7,2,2.3,0,0.0,6,0.1533,,5.9433,1
473566,1469905891371,,,,,,,-0.01,0.1,1.01,-2.9,0.2,-0.1,1300,38,,,,,,,,,,,,,,,,,
473586,1469905891391,,,,,,,-0.01,0.1,1.01,-3.0,0.4,-0.1,1280,38,,,,,,,,,,,,,,,,,
473606,1469905891411,,,,,,,-0.02,0.1,1.0,-3.1,0.4,-0.1,1320,32,,,,,,,,,,,,,,,,,
473626,1469905891431,,,,,,,-0.02,0.09,0.99,-3.0,0.5,-0.1,1280,32,,,,,,,,,,,,,,,,,
473646,1469905891451,0,256.0,205.4,20,215.3,,-0.03,0.09,0.99,-3.0,0.7,-0.1,1320,32,33.684,0,39.538757,-122.332146,0.0,2.888,302.3,7,2,2.3,0,0.0,6,0.1533,0.0,5.945,1
473666,1469905891471,,,,,,,-0.02,0.09,1.0,-3.1,0.6,-0.2,1280,32,,,,,,,,,,,,,,,,,
473686,1469905891491,,,,,,,-0.02,0.09,0.99,-3.0,0.7,-0.2,1300,32,,,,,,,,,,,,,,,,,
473706,1469905891610,,,,,,,-0.02,0.1,0.99,-3.1,0.8,-0.2,1320,1538461,,,,,,,,,,,,,,,,,
473726,1469905891630,,,,,,,-0.01,0.09,1.0,-3.1,0.8,-0.2,1280,0,,,,,,,,,,,,,,,,,
473746,1469905891650,,,,17,,,-0.0,0.1,1.01,-3.1,0.9,-0.2,1280,0,40.0,0,39.538757,-122.332146,0.0,2.888,302.3,7,2,2.3,0,0.0,6,0.1533,,5.9483,1
473766,1469905891670,,,,,,,0.0,0.09,1.0,-3.1,0.9,-0.2,1280,0,,,,,,,,,,,,,,,,,
473786,1469905891690,,,,,,,0.0,0.09,1.0,-3.0,0.8,-0.2,1300,0,,,,,,,,,,,,,,,,,
473806,1469905891710,,,,,,,0.01,0.09,0.99,-3.0,0.9,-0.2,1300,0,,,,,,,,,,,,,,,,,
473826,1469905891730,,,,,,,0.01,0.08,0.99,-3.0,0.8,-0.2,1260,0,,,,,,,,,,,,,,,,,
473846,1469905891750,0,255.5,205.8,17,215.5,,0.01,0.08,0.99,-3.0,0.7,-0.2,1280,0,0.0,0,39.538757,-122.332146,0.0,2.888,302.3,7,2,2.3,0,0.0,6,0.1533,0.0,5.9483,1
473866,1469905891770,,,,,,,0.0,0.08,0.99,-3.0,0.5,-0.2,1260,0,,,,,,,,,,,,,,,,,
473886,1469905891691,,,,,,,-0.0,0.08,0.99,-2.9,0.4,-0.2,1280,43,,,,,,,,,,,,,,,,,
473906,1469905891711,,,,,,,-0.01,0.09,0.99,-3.0,0.3,-0.2,1260,43,,,,,,,,,,,,,,,,,
473926,1469905891731,,,,,,,-0.02,0.08,0.99,-3.0,0.3,-0.2,1260,43,,,,,,,,,,,,,,,,,
473946,1469905891751,,,,18,,,-0.02,0.08,0.99,-2.9,0.1,-0.2,1240,43,0.0,0,39.538757,-122.332146,0.0,2.888,302.3,7,2,2.3,0,0.0,6,0.1533,,5.95,1
473966,1469905891771,,,,,,,-0.02,0.08,0.98,-2.9,0.1,-0.2,1240,43,,,,,,,,,,,,,,,,,
473986,1469905891791,,,,,,,-0.02,0.09,0.99,-2.9,0.2,-0.2,1240,16,,,,,,,,,,,,,,,,,
474006,1469905891811,,,,,,,-0.02,0.08,0.98,-2.9,0.2,-0.2,1260,16,,,,,,,,,,,,,,,,,
474026,1469905891831,,,,,,,-0.02,0.09,0.98,-2.9,0.3,-0.3,1200,16,,,,,,,,,,,,,,,,,
474046,1469905891851,0,255.9,206.2,17,215.2,13.47,-0.02,0.1,0.99,-3.0,0.3,-0.3,1240,16,29.767,0,39.538757,-122.332146,0.0,2.888,302.3,7,2,2.3,0,0.0,6,0.1533,0.0,5.9517,1
474066,1469905891871,,,,,,,-0.02,0.1,0.99,-3.0,0.2,-0.3,1220,20,,,,,,,,,,,,,,,,,
474086,1469905891891,,,,,,,-0.02,0.09,0.99,-3.0,0.3,-0.3,1240,20,,,,,,,,,,,,,,,,,
474106,1469905891905,,,,,,,-0.03,0.09,0.99,-3.0,0.3,-0.3,1180,20,,,,,,,,,,,,,,,,,
474126,1469905891925,,,,,,,-0.02,0.09,0.99,-2.9,0.3,-0.3,1160,24,,,,,,,,,,,,,,,,,
474146,1469905891945,,,,15,,,-0.02,0.09,0.99,-2.9,0.2,-0.3,1160,24,61.0,0,39.538757,-122.332146,0.0,2.888,302.3,7,2,2.3,0,0.0,6,0.1533,,5.9533,1
474166,1469905891965,,,,,,,-0.02,0.09,0.99,-2.9,0.3,-0.2,1160,24,,,,,,,,,,,,,,,,,
474186,1469905891991,,,,,,,-0.03,0.08,0.99,-2.9,0.4,-0.2,1180,24,,,,,,,,,,,,,,,,,
474206,1469905892011,,,,,,,-0.03,0.08,0.99,-2.9,0.3,-0.2,1140,24,,,,,,,,,,,,,,,,,
474226,1469905892031,,,,,,,-0.04,0.08,0.99,-2.9,0.2,-0.3,1140,27,,,,,,,,,,,,,,,,,
474246,1469905892051,0,255.5,206.2,15,214.6,,-0.04,0.09,0.99,-2.9,0.1,-0.4,1140,27,48.333,0,39.538757,-122.332146,0.0,2.888,302.3,7,2,2.3,0,0.0,6,0.1533,0.0,5.955,1
474266,1469905892071,,,,,,,-0.03,0.1,0.98,-3.0,-0.0,-0.3,1140,33,,,,,,,,,,,,,,,,,
474286,1469905892091,,,,,,,-0.03,0.1,0.99,-3.0,0.0,-0.2,1120,33,,,,,,,,,,,,,,,,,
474306,1469905892111,,,,,,,-0.03,0.1,0.99,-3.0,0.2,-0.2,1100,33,,,,,,,,,,,,,,,,,
474326,1469905892131,,,,,,,-0.03,0.08,0.99,-3.0,0.2,-0.2,1080,33,,,,,,,,,,,,,,,,,
474346,1469905892151,,,,13,,,-0.04,0.08,0.98,-3.0,0.2,-0.2,1100,38,34.545,0,39.538757,-122.332146,0.0,2.888,302.3,7,2,2.3,0,0.0,6,0.1533,,5.9567,1
474366,1469905892171,,,,,,,-0.04,0.08,0.98,-2.9,-0.0,-0.3,1080,38,,,,,,,,,,,,,,,,,
474386,1469905892191,,,,,,,-0.03,0.07,0.98,-2.9,-0.1,-0.3,1080,38,,,,,,,,,,,,,,,,,
474406,1469905892211,,,,,,,-0.03,0.08,0.98,-2.9,-0.0,-0.4,1080,38,,,,,,,,,,,,,,,,,
474426,1469905892231,,,,,,,-0.03,0.08,0.99,-2.9,0.1,-0.4,1060,46,,,,,,,,,,,,,,,,,
474446,1469905892251,0,255.9,206.2,13,215.0,,-0.03,0.08,0.99,-3.0,0.0,-0.4,1040,43,28.421,0,39.538757,-122.332146,0.0,2.888,302.3,7,2,2.3,0,0.0,6,0.1533,0.0,5.9583,1
474466,1469905892271,,,,,,,-0.04,0.09,0.99,-3.0,-0.1,-0.3,1040,43,,,,,,,,,,,,,,,,,
474486,1469905892291,,,,,,,-0.04,0.09,0.99,-3.0,-0.2,-0.2,1040,49,,,,,,,,,,,,,,,,,
474506,1469905892410,,,,,,,-0.03,0.09,0.98,-3.0,-0.2,-0.2,1040,49,,,,,,,,,,,,,,,,,
474526,1469905892430,,,,,,,-0.03,0.1,0.99,-3.0,-0.0,-0.1,1060,49,,,,,,,,,,,,,,,,,
474546,1469905892450,,,,13,,,-0.03,0.1,0.99,-3.0,0.3,-0.1,1020,52,24.186,0,39.538757,-122.332146,0.0,2.888,302.3,7,2,2.3,0,0.0,6,0.1533,,5.9617,1
474566,1469905892470,,,,,,,-0.03,0.1,1.0,-3.1,0.6,0.0,1020,53,,,,,,,,,,,,,,,,,
474586,1469905892490,,,,,,,-0.03,0.1,1.0,-3.2,0.8,0.0,1000,53,,,,,,,,,,,,,,,,,
474606,1469905892510,,,,,,,-0.03,0.08,1.01,-3.2,0.9,0.1,1020,56,,,,,,,,,,,,,,,,,
474626,1469905892530,,,,,,,-0.04,0.08,1.0,-3.2,0.9,0.1,1020,58,,,,,,,,,,,,,,,,,
474646,1469905892550,0,254.4,204.9,11,215.4,,-0.04,0.08,1.0,-3.2,0.8,0.1,980,61,19.245,0,39.538757,-122.332146,0.0,2.888,302.3,7,2,2.3,0,0.0,6,0.1533,0.0,5.9617,1
474666,1469905892570,,,,,,,-0.05,0.07,0.99,-3.1,0.7,0.2,1000,60,,,,,,,,,,,,,,,,,
474686,1469905892491,,,,,,,-0.05,0.08,0.98,-3.1,0.5,0.2,980,66,,,,,,,,,,,,,,,,,
474706,1469905892511,,,,,,,-0.05,0.07,0.98,-3.1,0.3,0.3,1000,66,,,,,,,,,,,,,,,,,
474726,1469905892531,,,,,,,-0.05,0.08,0.97,-3.1,0.1,0.3,1000,63,,,,,,,,,,,,,,,,,
474746,1469905892551,,,,11,,,-0.05,0.07,0.96,-3.1,-0.0,0.3,1020,67,16.333,0,39.538757,-122.332146,0.0,2.888,302.3,7,2,2.3,0,0.0,6,0.1533,,5.9633,1
474766,1469905892571,,,,,,,-0.05,0.07,0.96,-3.1,-0.3,0.3,980,72,,,,,,,,,,,,,,,,,
474786,1469905892592,,,,,,,-0.05,0.06,0.96,-3.1,-0.4,0.4,980,66,,,,,,,,,,,,,,,,,
474806,1469905892612,,,,,,,-0.05,0.07,0.95,-3.1,-0.5,0.4,1000,72,,,,,,,,,,,,,,,,,
474826,1469905892632,,,,,,,-0.05,0.06,0.95,-3.1,-0.6,0.5,980,76,,,,,,,,,,,,,,,,,
474846,1469905892652,0,254.2,204.9,11,215.3,,-0.05,0.07,0.95,-3.0,-0.7,0.5,1000,72,14.167,0,39.538757,-122.332146,0.0,2.888,302.3,7,2,2.3,0,0.0,6,0.1533,0.0,5.965,1
474866,1469905892672,,,,,,,-0.05,0.06,0.94,-3.0,-0.8,0.5,1000,73,,,,,,,,,,,,,,,,,
474886,1469905892692,,,,,,,-0.05,0.07,0.94,-3.0,-0.9,0.5,980,78,,,,,,,,,,,,,,,,,
474906,1469905892710,,,,,,,-0.05,0.06,0.94,-3.0,-0.9,0.5,980,81,,,,,,,,,,,,,,,,,
474926,1469905892730,,,,,,,-0.05,0.06,0.94,-3.0,-0.9,0.5,980,81,,,,,,,,,,,,,,,,,
474946,1469905892750,,,,12,,,-0.04,0.05,0.94,-3.0,-0.9,0.6,980,80,13.699,0,39.538757,-122.332146,0.0,2.888,302.3,7,2,2.3,0,0.0,6,0.1533,,5.9667,1
474966,1469905892770,,,,,,,-0.04,0.06,0.94,-3.1,-0.9,0.6,980,80,,,,,,,,,,,,,,,,,
474986,1469905892791,,,,,,,-0.04,0.06,0.94,-3.1,-1.0,0.6,1000,93,,,,,,,,,,,,,,,,,
475006,1469905892811,,,,,,,-0.05,0.06,0.94,-3.1,-1.1,0.6,960,86,,,,,,,,,,,,,,,,,
475026,1469905892831,,,,,,,-0.06,0.07,0.94,-3.1,-1.0,0.7,980,83,,,,,,,,,,,,,,,,,
475046,1469905892851,0,254.2,204.9,11,215.3,13.56,-0.06,0.07,0.94,-3.1,-1.1,0.7,1000,92,12.25,0,39.538757,-122.332146,0.0,2.888,302.3,7,2,2.3,0,0.0,6,0.1533,0.0,5.9683,1
475066,1469905892871,,,,,,,-0.06,0.08,0.95,-3.2,-1.0,0.8,980,96,,,,,,,,,,,,,,,,,
475086,1469905892891,,,,,,,-0.07,0.07,0.95,-3.2,-1.0,0.8,980,92,,,,,,,,,,,,,,,,,
475106,1469905892905,,,,,,,-0.07,0.07,0.96,-3.2,-1.0,0.8,1000,93,,,,,,,,,,,,,,,,,
475126,1469905892925,,,,,,,-0.07,0.08,0.96,-3.2,-1.0,0.8,980,95,,,,,,,,,,,,,,,,,
475146,1469905892945,,,,10,,,-0.08,0.08,0.96,-3.3,-1.0,0.8,980,103,10.417,0,39.538757,-122.332146,0.0,2.888,302.3,7,2,2.3,0,0.0,6,0.1533,,5.97,1
475166,1469905892965,,,,,,,-0.08,0.09,0.96,-3.3,-1.0,0.9,980,103,,,,,,,,,,,,,,,,,
475186,1469905892992,,,,,,,-0.07,0.1,0.96,-3.4,-0.9,0.9,980,96,,,,,,,,,,,,,,,,,
475206,1469905893012,,,,,,,-0.07,0.1,0.97,-3.5,-0.7,0.9,980,95,,,,,,,,,,,,,,,,,
475226,1469905893032,,,,,,,-0.07,0.1,0.97,-3.5,-0.5,0.9,1000,112,,,,,,,,,,,,,,,,,
475246,1469905893052,1,255.5,206.0,12,213.9,,-0.07,0.1,0.97,-3.6,-0.3,0.9,980,110,9.515,0,39.538757,-122.332146,0.0,2.888,302.3,7,2,2.3,0,0.0,6,0.1533,0.0,5.9717,1
475266,1469905893072,,,,,,,-0.07,0.1,0.98,-3.7,-0.1,0.9,980,103,,,,,,,,,,,,,,,,,
475286,1469905893191,,,,,,,-0.07,0.11,0.98,-3.8,0.0,0.9,980,109,,,,,,,,,,,,,,,,,
475306,1469905893211,,,,,,,-0.07,0.12,0.98,-3.9,0.1,0.9,980,115,,,,,,,,,,,,,,,,,
475326,1469905893231,,,,,,,-0.07,0.12,0.99,-4.0,0.2,0.9,1000,115,,,,,,,,,,,,,,,,,
475346,1469905893251,,,,10,,,-0.07,0.12,0.99,-4.1,0.3,0.9,1000,113,9.423,0,39.538757,-122.332146,0.0,2.888,302.3,7,2,2.3,0,0.0,6,0.1533,,5.975,1
475366,1469905893271,,,,,,,-0.07,0.12,0.99,-4.1,0.4,0.8,980,112,,,,,,,,,,,,,,,,,
475386,1469905893291,,,,,,,-0.08,0.12,0.99,-4.2,0.5,0.8,980,120,,,,,,,,,,,,,,,,,
475406,1469905893311,,,,,,,-0.07,0.12,0.98,-4.3,0.5,0.9,980,126,,,,,,,,,,,,,,,,,
475426,1469905893331,,,,,,,-0.07,0.13,0.99,-4.4,0.7,0.9,980,118,,,,,,,,,,,,,,,,,
475446,1469905893351,0,254.2,204.8,10,214.8,,-0.07,0.12,0.99,-4.5,0.7,0.9,980,115,8.929,0,39.538757,-122.332146,0.0,2.888,302.3,7,2,2.3,0,0.0,6,0.1533,0.0,5.975,1
475466,1469905893371,,,,,,,-0.07,0.13,0.99,-4.6,0.9,0.8,1020,124,,,,,,,,,,,,,,,,,
475486,1469905893292,,,,,,,-0.07,0.13,0.99,-4.6,0.9,0.8,1020,127,,,,,,,,,,,,,,,,,
475506,1469905893312,,,,,,,-0.07,0.12,0.99,-4.7,1.0,0.8,980,126,,,,,,,,,,,,,,,,,
475526,1469905893332,,,,,,,-0.06,0.12,0.99,-4.8,0.9,0.8,980,129,,,,,,,,,,,,,,,,,
475546,1469905893352,,,,11,,,-0.06,0.13,0.99,-4.8,1.0,0.8,1000,129,8.065,0,39.538757,-122.332146,0.0,2.888,302.3,7,2,2.3,0,0.0,6,0.1533,,5.9767,1
475566,1469905893372,,,,,,,-0.06,0.12,0.99,-4.9,1.1,0.8,980,136,,,,,,,,,,,,,,,,,
475586,1469905893392,,,,,,,-0.07,0.12,1.0,-5.0,1.2,0.7,1000,136,,,,,,,,,,,,,,,,,
475606,1469905893412,,,,,,,-0.07,0.12,1.0,-5.0,1.2,0.7,1000,130,,,,,,,,,,,,,,,,,
475626,1469905893432,,,,,,,-0.06,0.13,1.0,-5.1,1.3,0.7,1000,135,,,,,,,,,,,,,,,,,
475646,1469905893452,0,254.4,204.8,11,214.6,,-0.06,0.13,0.99,-5.1,1.3,0.7,980,144,7.424,0,39.538757,-122.332146,0.0,2.888,302.3,7,2,2.3,0,0.0,6,0.1533,0.0,5.9783,1
475666,1469905893472,,,,,,,-0.06,0.14,1.0,-5.2,1.4,0.7,1000,133,,,,,,,,,,,,,,,,,
475686,1469905893491,,,,,,,-0.06,0.13,1.0,-5.2,1.3,0.7,980,133,,,,,,,,,,,,,,,,,
475706,1469905893511,,,,,,,-0.06,0.13,1.0,-5.2,1.4,0.6,1000,143,,,,,,,,,,,,,,,,,
475726,1469905893531,,,,,,,-0.06,0.13,1.0,-5.2,1.4,0.6,1000,146,,,,,,,,,,,,,,,,,
475746,1469905893551,,,,9,,,-0.06,0.13,0.99,-5.2,1.5,0.6,960,147,7.143,0,39.538757,-122.332146,0.0,2.888,302.3,7,2,2.3,0,0.0,6,0.1533,,5.98,1
475766,1469905893571,,,,,,,-0.06,0.13,0.99,-5.3,1.6,0.6,980,147,,,,,,,,,,,,,,,,,
475786,1469905893591,,,,,,,-0.06,0.13,0.99,-5.3,1.7,0.5,980,143,,,,,,,,,,,,,,,,,
475806,1469905893611,,,,,,,-0.05,0.12,0.99,-5.4,1.8,0.5,960,152,,,,,,,,,,,,,,,,,
475826,1469905893631,,,,,,,-0.05,0.12,1.0,-5.4,1.8,0.5,1000,156,,,,,,,,,,,,,,,,,
475846,1469905893651,0,255.0,205.2,11,213.7,,-0.04,0.12,1.0,-5.4,1.9,0.4,960,147,6.667,0,39.538757,-122.332146,0.0,2.888,302.3,7,2,2.3,0,0.0,6,0.1533,0.0,5.9817,1
475866,1469905893671,,,,,,,-0.04,0.13,1.0,-5.4,1.9,0.4,960,149,,,,,,,,,,,,,,,,,
475886,1469905893691,,,,,,,-0.04,0.12,1.0,-5.4,1.9,0.3,960,158,,,,,,,,,,,,,,,,,
475906,1469905893711,,,,,,,-0.03,0.13,1.0,-5.3,1.8,0.3,960,156,,,,,,,,,,,,,,,,,
475926,1469905893731,,,,,,,-0.03,0.14,1.0,-5.3,1.7,0.3,940,155,,,,,,,,,,,,,,,,,
475946,1469905893751,,,,9,,,-0.03,0.13,1.0,-5.3,1.6,0.2,940,161,6.575,0,39.538757,-122.332146,0.0,2.888,302.3,7,2,2.3,0,0.0,6,0.1533,,5.9833,1
475966,1469905893771,,,,,,,-0.02,0.13,0.99,-5.2,1.3,0.2,940,163,,,,,,,,,,,,,,,,,
475986,1469905893791,,,,,,,-0.02,0.13,1.0,-5.1,1.1,0.1,920,163,,,,,,,,,,,,,,,,,
476006,1469905893811,,,,,,,-0.03,0.11,0.99,-4.9,0.9,-0.0,900,167,,,,,,,,,,,,,,,,,
476026,1469905893831,,,,,,,-0.03,0.1,0.99,-4.8,0.6,-0.1,920,161,,,,,,,,,,,,,,,,,
476046,1469905893851,0,256.2,205.8,10,213.6,13.56,-0.04,0.1,0.98,-4.7,0.5,-0.2,880,161,5.767,0,39.538757,-122.332146,0.0,2.888,302.3,7,2,2.3,0,0.0,6,0.1533,0.0,5.985,1
476066,1469905893871,,,,,,,-0.04,0.1,0.98,-4.7,0.6,-0.2,920,172,,,,,,,,,,,,,,,,,
476086,1469905893891,,,,,,,-0.04,0.1,0.97,-4.7,0.7,-0.1,880,175,,,,,,,,,,,,,,,,,
476106,1469905894007,,,,,,,-0.03,0.09,0.96,-4.7,0.7,-0.0,880,164,,,,,,,,,,,,,,,,,
476126,1469905894027,,,,,,,-0.02,0.1,0.97,-4.7,0.7,0.1,880,172,,,,,,,,,,,,,,,,,
476146,1469905894047,,,,9,,,-0.02,0.12,0.98,-4.8,0.7,0.2,860,181,5.349,0,39.538757,-122.332146,0.0,2.888,302.3,7,2,2.3,0,0.0,6,0.1533,,5.9883,1
476166,1469905894067,,,,,,,-0.02,0.11,0.98,-4.7,0.6,0.2,880,178,,,,,,,,,,,,,,,,,
476186,1469905894087,,,,,,,-0.03,0.11,0.99,-4.6,0.4,-0.0,840,173,,,,,,,,,,,,,,,,,
476206,1469905894107,,,,,,,-0.04,0.11,0.99,-4.5,0.2,-0.1,860,178,,,,,,,,,,,,,,,,,
476226,1469905894127,,,,,,,-0.04,0.09,0.98,-4.5,-0.0,-0.3,840,181,,,,,,,,,,,,,,,,,
476246,1469905894147,0,254.0,204.4,8,214.3,,-0.04,0.09,0.97,-4.5,0.1,-0.2,820,178,4.944,0,39.538757,-122.332146,0.0,2.888,302.3,7,2,2.3,0,0.0,6,0.1533,0.0,5.9883,1
476266,1469905894167,,,,,,,-0.04,0.08,0.97,-4.5,0.2,0.1,820,183,,,,,,,,,,,,,,,,,
476286,1469905894092,,,,,,,-0.03,0.11,0.97,-4.6,0.3,0.1,800,190,,,,,,,,,,,,,,,,,
476306,1469905894112,,,,,,,-0.03,0.1,0.98,-4.5,0.2,-0.0,820,184,,,,,,,,,,,,,,,,,
476326,1469905894132,,,,,,,-0.04,0.11,0.98,-4.3,-0.0,-0.2,780,183,,,,,,,,,,,,,,,,,
476346,1469905894152,,,,7,,,-0.04,0.09,0.98,-4.2,-0.1,-0.4,800,195,4.481,0,39.538757,-122.332146,0.0,2.888,302.3,7,2,2.3,0,0.0,6,0.1533,,5.99,1
476366,1469905894172,,,,,,,-0.05,0.08,0.97,-4.3,-0.0,-0.2,800,192,,,,,,,,,,,,,,,,,
476386,1469905894191,,,,,,,-0.04,0.09,0.97,-4.3,0.1,-0.1,780,184,,,,,,,,,,,,,,,,,
476406,1469905894211,,,,,,,-0.03,0.09,0.97,-4.2,0.2,-0.2,780,187,,,,,,,,,,,,,,,,,
476426,1469905894231,,,,,,,-0.04,0.09,0.98,-4.2,0.0,-0.4,760,203,,,,,,,,,,,,,,,,,
476446,1469905894251,0,255.5,205.3,7,213.8,,-0.05,0.08,0.97,-4.1,0.1,-0.4,760,198,4.082,0,39.538757,-122.332146,0.0,2.888,302.3,7,2,2.3,0,0.0,6,0.1533,0.0,5.9917,1
476466,1469905894271,,,,,,,-0.05,0.08,0.97,-4.2,0.0,-0.2,760,193,,,,,,,,,,,,,,,,,
476486,1469905894292,,,,,,,-0.05,0.09,0.97,-4.2,0.3,-0.1,760,203,,,,,,,,,,,,,,,,,
476506,1469905894312,,,,,,,-0.04,0.1,0.97,-4.1,0.2,-0.3,760,209,,,,,,,,,,,,,,,,,
476526,1469905894332,,,,,,,-0.06,0.09,0.98,-4.1,0.2,-0.5,740,201,,,,,,,,,,,,,,,,,
476546,1469905894352,,,,6,,,-0.05,0.08,0.97,-4.1,0.2,-0.3,740,196,3.938,0,39.538757,-122.332146,0.0,2.888,302.3,7,2,2.3,0,0.0,6,0.1533,,5.9933,1
476566,1469905894372,,,,,,,-0.05,0.09,0.97,-4.1,0.2,-0.2,740,210,,,,,,,,,,,,,,,,,
476586,1469905894391,,,,,,,-0.05,0.08,0.98,-4.0,0.4,-0.4,720,216,,,,,,,,,,,,,,,,,
476606,1469905894411,,,,,,,-0.05,0.09,0.99,-4.0,0.4,-0.6,720,210,,,,,,,,,,,,,,,,,
476626,1469905894431,,,,,,,-0.05,0.08,0.99,-4.0,0.5,-0.4,740,209,,,,,,,,,,,,,,,,,
476646,1469905894451,0,255.9,205.3,6,213.6,,-0.04,0.09,0.98,-4.0,0.6,-0.4,720,216,3.592,0,39.538685,-122.332123,1.06,2.893,408.5,7,2,2.3,0,0.0,6,0.1533,0.0,5.995,1
476666,1469905894471,,,,,,,-0.05,0.1,0.98,-4.0,0.4,-0.6,720,218,,,,,,,,,,,,,,,,,
476686,1469905894492,,,,,,,-0.05,0.1,0.99,-4.0,0.5,-0.5,720,213,,,,,,,,,,,,,,,,,
476706,1469905894512,,,,,,,-0.05,0.1,0.98,-4.1,0.5,-0.2,720,213,,,,,,,,,,,,,,,,,
476726,1469905894532,,,,,,,-0.05,0.1,0.98,-4.1,0.4,-0.2,720,215,,,,,,,,,,,,,,,,,
476746,1469905894552,,,,6,,,-0.05,0.1,0.99,-4.0,0.2,-0.3,700,221,3.303,1,39.538685,-122.332123,1.24,2.893,408.5,7,2,2.3,0,0.0,6,0.1533,,5.9967,1
476766,1469905894572,,,,,,,-0.05,0.11,0.98,-4.0,0.2,-0.2,700,223,,,,,,,,,,,,,,,,,
476786,1469905894591,,,,,,,-0.05,0.12,0.98,-4.0,0.3,-0.1,720,220,,,,,,,,,,,,,,,,,
476806,1469905894611,,,,,,,-0.05,0.11,0.98,-3.9,0.2,-0.1,720,226,,,,,,,,,,,,,,,,,
476826,1469905894631,,,,,,,-0.05,0.09,0.99,-3.8,0.3,-0.2,740,227,,,,,,,,,,,,,,,,,
476846,1469905894651,0,256.2,205.5,6,213.8,,-0.05,0.1,0.98,-3.8,0.3,0.1,740,224,3.241,1,39.538685,-122.332123,1.67,2.893,408.5,7,2,2.3,0,0.0,6,0.1533,0.0,5.9983,1
476866,1469905894671,,,,,,,-0.04,0.11,0.97,-3.8,0.3,0.2,740,227,,,,,,,,,,,,,,,,,
476886,1469905894691,,,,,,,-0.04,0.11,0.97,-3.6,0.4,0.1,740,230,,,,,,,,,,,,,,,,,
476906,1469905894810,,,,,,,-0.04,0.09,0.98,-3.5,0.5,-0.1,740,233,,,,,,,,,,,,,,,,,
476926,1469905894830,,,,,,,-0.03,0.09,0.98,-3.5,0.7,0.1,740,232,,,,,,,,,,,,,,,,,
476946,1469905894850,,,,8,,,-0.02,0.1,0.97,-3.5,1.0,0.3,760,235,3.26,1,39.538681,-122.332108,2.89,2.894,408.6,7,2,2.3,0,0.0,6,0.1533,,6.0017,1
476966,1469905894870,,,,,,,-0.01,0.1,0.99,-3.4,1.1,0.2,760,235,,,,,,,,,,,,,,,,,
476986,1469905894890,,,,,,,-0.02,0.08,1.0,-3.3,1.0,0.1,780,240,,,,,,,,,,,,,,,,,
477006,1469905894910,,,,,,,-0.02,0.09,1.0,-3.2,1.0,0.1,780,240,,,,,,,,,,,,,,,,,
477026,1469905894930,,,,,,,-0.02,0.08,0.98,-3.2,1.2,0.5,780,238,,,,,,,,,,,,,,,,,
477046,1469905894950,0,255.9,205.0,7,213.5,13.5,-0.01,0.1,0.98,-3.2,1.2,0.7,780,235,3.167,1,39.538681,-122.332108,2.89,2.894,408.6,7,2,2.3,0,0.0,6,0.1533,0.0,6.0017,1
477066,1469905894970,,,,,,,-0.02,0.09,0.99,-3.2,1.1,0.7,760,241,,,,,,,,,,,,,,,,,
477086,1469905894990,,,,,,,-0.03,0.08,0.99,-3.1,1.1,0.6,800,243,,,,,,,,,,,,,,,,,
477106,1469905894906,,,,,,,-0.04,0.08,0.98,-3.1,1.0,0.7,800,246,,,,,,,,,,,,,,,,,
477126,1469905894926,,,,,,,-0.03,0.08,0.97,-3.2,1.1,1.1,800,244,,,,,,,,,,,,,,,,,
477146,1469905894946,,,,9,,,-0.02,0.1,0.97,-3.2,1.1,1.3,800,244,3.154,1,39.538681,-122.332108,3.22,2.894,408.6,7,2,2.3,0,0.0,6,0.1533,,6.0033,1
477166,1469905894966,,,,,,,-0.02,0.09,0.98,-3.1,0.8,1.1,800,246,,,,,,,,,,,,,,,,,
477186,1469905894993,,,,,,,-0.04,0.09,0.98,-3.1,0.7,0.9,800,249,,,,,,,,,,,,,,,,,
477206,1469905895013,,,,,,,-0.04,0.08,0.97,-3.0,0.6,0.9,800,250,,,,,,,,,,,,,,,,,
477226,1469905895033,,,,,,,-0.04,0.09,0.97,-3.1,0.6,1.2,800,250,,,,,,,,,,,,,,,,,
477246,1469905895053,0,256.2,205.1,9,213.6,,-0.02,0.11,0.96,-3.1,0.7,1.2,820,247,3.252,1,39.538677,-122.332108,3.45,2.894,408.7,7,2,2.3,0,0.0,6,0.1533,0.0,6.005,1
477266,1469905895073,,,,,,,-0.02,0.12,0.98,-3.1,0.5,1.0,800,252,,,,,,,,,,,,,,,,,
477286,1469905895092,,,,,,,-0.04,0.11,0.98,-3.0,0.4,0.6,840,253,,,,,,,,,,,,,,,,,
477306,1469905895112,,,,,,,-0.04,0.1,0.99,-2.9,0.4,0.4,840,256,,,,,,,,,,,,,,,,,
477326,1469905895132,,,,,,,-0.04,0.09,0.99,-3.0,0.3,0.4,840,256,,,,,,,,,,,,,,,,,
477346,1469905895152,,,,8,,,-0.04,0.09,0.98,-3.1,0.4,0.8,840,260,3.175,1,39.538677,-122.332108,3.27,2.894,408.8,7,2,2.3,0,0.0,6,0.1533,,6.0067,1
477366,1469905895172,,,,,,,-0.03,0.11,0.98,-3.0,0.3,0.8,820,256,,,,,,,,,,,,,,,,,
477386,1469905895193,,,,,,,-0.03,0.1,0.99,-3.0,0.1,0.6,840,258,,,,,,,,,,,,,,,,,
477406,1469905895213,,,,,,,-0.03,0.11,0.99,-2.9,-0.2,0.3,840,260,,,,,,,,,,,,,,,,,
477426,1469905895233,,,,,,,-0.05,0.09,0.99,-2.8,-0.5,0.2,860,263,,,,,,,,,,,,,,,,,
477446,1469905895253,0,256.2,205.0,8,213.4,,-0.04,0.08,0.98,-2.7,-0.5,0.2,860,263,3.203,1,39.538677,-122.332108,3.82,2.894,408.9,7,2,2.3,0,0.0,6,0.1533,0.0,6.0083,1
477466,1469905895273,,,,,,,-0.04,0.09,0.96,-2.8,-0.4,0.2,860,264,,,,,,,,,,,,,,,,,
477486,1469905895292,,,,,,,-0.03,0.1,0.97,-2.8,-0.3,0.1,860,266,,,,,,,,,,,,,,,,,
477506,1469905895312,,,,,,,-0.02,0.13,0.97,-2.8,-0.3,0.0,840,264,,,,,,,,,,,,,,,,,
477526,1469905895332,,,,,,,-0.02,0.12,0.99,-2.8,-0.5,-0.2,860,263,,,,,,,,,,,,,,,,,
477546,1469905895352,,,,8,,,-0.03,0.12,0.99,-2.6,-0.6,-0.3,860,264,3.295,1,39.538677,-122.332108,3.64,2.894,408.9,7,2,2.3,0,0.0,6,0.1533,,6.01,1
477566,1469905895372,,,,,,,-0.03,0.12,0.99,-2.6,-0.7,-0.4,880,267,,,,,,,,,,,,,,,,,
477586,1469905895392,,,,,,,-0.03,0.1,1.0,-2.5,-0.7,-0.3,880,269,,,,,,,,,,,,,,,,,
477606,1469905895412,,,,,,,-0.02,0.1,1.0,-2.4,-0.4,-0.3,880,269,,,,,,,,,,,,,,,,,
477626,1469905895432,,,,,,,-0.01,0.09,0.99,-2.4,-0.1,-0.2,860,270,,,,,,,,,,,,,,,,,
477646,1469905895452,0,256.7,205.1,9,213.4,,0.0,0.09,0.99,-2.4,0.1,-0.0,860,270,3.296,1,39.538677,-122.332108,3.14,2.894,408.9,7,2,2.3,0,0.0,6,0.1533,0.0,6.0117,1
477666,1469905895472,,,,,,,0.01,0.11,0.99,-2.4,0.3,-0.0,880,270,,,,,,,,,,,,,,,,,
477686,1469905895592,,,,,,,0.01,0.1,1.0,-2.3,0.1,-0.1,880,269,,,,,,,,,,,,,,,,,
477706,1469905895612,,,,,,,0.01,0.1,1.0,-2.2,0.2,-0.1,900,269,,,,,,,,,,,,,,,,,
477726,1469905895632,,,,,,,0.01,0.1,0.99,-2.2,-0.0,-0.2,880,270,,,,,,,,,,,,,,,,,
477746,1469905895652,,,,11,,,0.0,0.1,0.99,-2.1,-0.2,-0.2,900,270,3.296,1,39.538673,-122.332108,2.05,2.894,408.8,7,2,2.3,0,0.0,6,0.1533,,6.015,1
477766,1469905895672,,,,,,,-0.0,0.09,0.98,-2.0,-0.1,-0.2,880,273,,,,,,,,,,,,,,,,,
477786,1469905895692,,,,,,,-0.01,0.09,0.98,-1.9,0.0,-0.3,900,275,,,,,,,,,,,,,,,,,
477806,1469905895712,,,,,,,-0.0,0.08,0.97,-2.0,0.2,-0.2,900,276,,,,,,,,,,,,,,,,,
477826,1469905895732,,,,,,,0.01,0.08,0.97,-2.0,0.2,-0.2,900,276,,,,,,,,,,,,,,,,,
477846,1469905895752,0,255.9,204.8,10,212.8,,0.01,0.1,0.98,-2.0,0.2,-0.2,900,278,3.2,1,39.538673,-122.332108,2.05,2.894,408.8,7,2,2.3,0,0.0,6,0.1533,0.0,6.015,1
477866,1469905895772,,,,,,,0.0,0.11,0.98,-2.0,0.2,-0.2,920,278,,,,,,,,,,,,,,,,,
477886,1469905895693,,,,,,,-0.0,0.11,0.98,-2.0,0.3,-0.3,920,275,,,,,,,,,,,,,,,,,
477906,1469905895713,,,,,,,0.01,0.1,0.98,-1.9,0.3,-0.4,880,278,,,,,,,,,,,,,,,,,
477926,1469905895733,,,,,,,0.01,0.11,0.99,-1.9,0.3,-0.6,920,278,,,,,,,,,,,,,,,,,
477946,1469905895753,,,,10,,,0.0,0.1,0.99,-1.8,0.2,-0.6,900,278,3.333,1,39.538673,-122.332108,2.72,2.894,408.8,7,2,2.3,0,0.0,6,0.1533,,6.0167,1
477966,1469905895773,,,,,,,-0.01,0.09,0.98,-1.8,0.1,-0.7,920,280,,,,,,,,,,,,,,,,,
477986,1469905895793,,,,,,,-0.01,0.09,0.98,-1.7,0.1,-0.6,920,280,,,,,,,,,,,,,,,,,
478006,1469905895813,,,,,,,-0.01,0.1,0.98,-1.7,0.2,-0.6,920,281,,,,,,,,,,,,,,,,,
478026,1469905895833,,,,,,,-0.01,0.09,0.97,-1.7,0.2,-0.5,900,283,,,,,,,,,,,,,,,,,
478046,1469905895853,0,255.7,204.3,9,212.6,13.6,0.0,0.08,0.97,-1.7,0.4,-0.5,940,283,3.274,1,39.53867,-122.332108,3.08,2.895,408.8,7,2,2.3,0,0.0,6,0.1533,0.0,6.0183,1
478066,1469905895873,,,,,,,0.01,0.07,0.97,-1.7,0.4,-0.3,900,286,,,,,,,,,,,,,,,,,
478086,1469905895893,,,,,,,0.01,0.08,0.97,-1.8,0.4,-0.0,940,286,,,,,,,,,,,,,,,,,
478106,1469905895906,,,,,,,0.01,0.08,0.99,-1.8,0.4,0.2,940,286,,,,,,,,,,,,,,,,,
478126,1469905895926,,,,,,,0.0,0.08,0.99,-1.8,0.4,0.4,920,283,,,,,,,,,,,,,,,,,
478146,1469905895946,,,,8,,,0.0,0.08,0.99,-1.8,0.5,0.5,920,283,3.287,1,39.53867,-122.332108,2.99,2.895,408.8,7,2,2.3,0,0.0,6,0.1533,,6.02,1
478166,1469905895966,,,,,,,0.0,0.09,0.99,-1.7,0.5,0.5,920,284,,,,,,,,,,,,,,,,,
478186,1469905895993,,,,,,,0.0,0.1,0.99,-1.7,0.4,0.4,920,283,,,,,,,,,,,,,,,,,
478206,1469905896013,,,,,,,-0.0,0.11,0.99,-1.7,0.2,0.4,920,283,,,,,,,,,,,,,,,,,
478226,1469905896033,,,,,,,-0.01,0.1,0.99,-1.6,0.1,0.3,940,283,,,,,,,,,,,,,,,,,
478246,1469905896053,0,255.2,204.0,11,212.3,,-0.01,0.09,0.99,-1.6,-0.0,0.2,940,283,3.251,1,39.53867,-122.332108,3.46,2.895,408.9,7,2,2.3,0,0.0,6,0.1533,0.0,6.0217,1
478266,1469905896073,,,,,,,-0.01,0.09,0.98,-1.5,-0.1,0.1,920,284,,,,,,,,,,,,,,,,,
478286,1469905896092,,,,,,,-0.01,0.09,0.98,-1.6,-0.3,0.1,920,286,,,,,,,,,,,,,,,,,
478306,1469905896112,,,,,,,-0.01,0.09,0.98,-1.6,-0.4,0.1,940,287,,,,,,,,,,,,,,,,,
478326,1469905896132,,,,,,,-0.02,0.08,0.98,-1.6,-0.4,0.2,920,287,,,,,,,,,,,,,,,,,
478346,1469905896152,,,,9,,,-0.02,0.08,0.98,-1.6,-0.3,0.2,940,290,3.239,1,39.538666,-122.332108,3.6,2.895,409.0,7,2,2.3,0,0.0,6,0.1533,,6.0233,1
478366,1469905896172,,,,,,,-0.02,0.08,0.98,-1.6,-0.1,0.3,960,292,,,,,,,,,,,,,,,,,
478386,1469905896191,,,,,,,-0.01,0.08,0.98,-1.6,0.1,0.3,940,290,,,,,,,,,,,,,,,,,
478406,1469905896211,,,,,,,-0.01,0.08,0.98,-1.6,0.2,0.4,940,292,,,,,,,,,,,,,,,,,
478426,1469905896231,,,,,,,-0.0,0.08,0.98,-1.6,0.3,0.5,940,293,,,,,,,,,,,,,,,,,
478446,1469905896251,1,254.5,203.3,10,211.5,,-0.0,0.09,0.97,-1.6,0.4,0.5,960,292,3.31,1,39.538666,-122.332108,4.09,2.895,409.1,7,2,2.3,0,0.0,6,0.1533,0.0,6.025,1
478466,1469905896271,,,,,,,0.0,0.09,0.97,-1.6,0.4,0.5,960,293,,,,,,,,,,,,,,,,,
478486,1469905896392,,,,,,,-0.0,0.1,0.97,-1.6,0.5,0.5,960,295,,,,,,,,,,,,,,,,,
478506,1469905896412,,,,,,,-0.0,0.1,0.97,-1.6,0.5,0.5,960,293,,,,,,,,,,,,,,,,,
478526,1469905896432,,,,,,,-0.01,0.1,0.97,-1.6,0.6,0.5,960,295,,,,,,,,,,,,,,,,,
478546,1469905896452,,,,11,,,-0.01,0.1,0.97,-1.6,0.6,0.5,960,295,3.288,1,39.538662,-122.332108,3.5,2.895,409.3,7,2,2.3,0,0.0,6,0.1533,,6.0283,1
478566,1469905896472,,,,,,,-0.0,0.11,0.98,-1.7,0.7,0.5,960,293,,,,,,,,,,,,,,,,,
478586,1469905896492,,,,,,,-0.0,0.11,0.98,-1.7,0.8,0.4,960,295,,,,,,,,,,,,,,,,,
478606,1469905896512,,,,,,,-0.0,0.12,0.98,-1.8,0.9,0.4,980,295,,,,,,,,,,,,,,,,,
478626,1469905896532,,,,,,,0.0,0.13,0.98,-1.8,1.1,0.2,980,295,,,,,,,,,,,,,,,,,
478646,1469905896552,0,255.7,204.2,10,212.4,,0.01,0.13,0.98,-1.8,1.3,0.1,940,296,3.276,1,39.538662,-122.332108,3.5,2.895,409.3,7,2,2.3,0,0.0,6,0.1533,0.0,6.0283,1
478666,1469905896572,,,,,,,0.01,0.14,0.99,-1.7,1.4,-0.2,960,298,,,,,,,,,,,,,,,,,
478686,1469905896494,,,,,,,0.02,0.13,0.99,-1.6,1.4,-0.3,980,298,,,,,,,,,,,,,,,,,
478706,1469905896514,,,,,,,0.02,0.14,0.99,-1.6,1.3,-0.4,980,298,,,,,,,,,,,,,,,,,
478726,1469905896534,,,,,,,0.03,0.14,0.99,-1.5,1.0,-0.4,980,298,,,,,,,,,,,,,,,,,
478746,1469905896554,,,,11,,,0.03,0.13,0.99,-1.5,0.8,-0.4,980,298,3.243,1,39.538658,-122.332108,3.54,2.895,409.3,7,2,2.3,0,0.0,6,0.1533,,6.03,1
478766,1469905896574,,,,,,,0.03,0.13,1.0,-1.5,0.5,-0.4,1000,296,,,,,,,,,,,,,,,,,
478786,1469905896593,,,,,,,0.02,0.13,0.99,-1.5,0.2,-0.4,960,298,,,,,,,,,,,,,,,,,
478806,1469905896613,,,,,,,0.02,0.12,1.0,-1.5,0.1,-0.5,980,298,,,,,,,,,,,,,,,,,
478826,1469905896633,,,,,,,0.02,0.12,1.0,-1.6,-0.0,-0.6,960,298,,,,,,,,,,,,,,,,,
478846,1469905896653,0,255.2,203.5,11,211.7,,0.01,0.12,1.0,-1.6,-0.2,-0.6,980,298,3.378,1,39.538658,-122.332108,3.64,2.895,409.3,7,2,2.3,0,0.0,6,0.1533,0.0,6.0317,1
478866,1469905896673,,,,,,,0.01,0.12,1.0,-1.6,-0.4,-0.6,980,298,,,,,,,,,,,,,,,,,
478886,1469905896693,,,,,,,0.0,0.12,1.0,-1.6,-0.5,-0.5,1000,298,,,,,,,,,,,,,,,,,
478906,1469905896713,,,,,,,-0.0,0.12,1.01,-1.6,-0.6,-0.5,960,300,,,,,,,,,,,,,,,,,
478926,1469905896733,,,,,,,-0.01,0.13,1.0,-1.6,-0.7,-0.5,1000,298,,,,,,,,,,,,,,,,,
478946,1469905896753,,,,11,,,-0.01,0.12,1.0,-1.5,-0.8,-0.5,960,300,3.256,1,39.538658,-122.332108,2.82,2.895,409.3,7,2,2.3,0,0.0,6,0.1533,,6.0333,1
478966,1469905896773,,,,,,,-0.02,0.12,1.0,-1.5,-0.9,-0.5,980,298,,,,,,,,,,,,,,,,,
478986,1469905896792,,,,,,,-0.02,0.12,1.0,-1.5,-0.9,-0.5,1000,298,,,,,,,,,,,,,,,,,
479006,1469905896812,,,,,,,-0.03,0.12,1.0,-1.6,-0.8,-0.6,960,296,,,,,,,,,,,,,,,,,
479026,1469905896832,,,,,,,-0.03,0.11,0.99,-1.6,-0.8,-0.6,980,300,,,,,,,,,,,,,,,,,
479046,1469905896852,0,254.7,203.3,11,211.3,13.58,-0.03,0.11,0.99,-1.6,-0.9,-0.6,980,298,3.267,1,39.538658,-122.332108,2.15,2.895,409.5,7,2,2.3,0,0.0,6,0.1533,0.0,6.035,1
479066,1469905896872,,,,,,,-0.03,0.1,0.99,-1.6,-0.8,-0.6,980,298,,,,,,,,,,,,,,,,,
479086,1469905896892,,,,,,,-0.04,0.1,0.99,-1.6,-0.7,-0.6,980,298,,,,,,,,,,,,,,,,,
479106,1469905896905,,,,,,,-0.04,0.09,0.99,-1.6,-0.8,-0.7,1000,298,,,,,,,,,,,,,,,,,
479126,1469905896925,,,,,,,-0.04,0.09,0.99,-1.6,-0.7,-0.8,960,298,,,,,,,,,,,,,,,,,
479146,1469905896945,,,,13,,,-0.04,0.08,0.99,-1.5,-0.6,-0.8,980,301,3.256,1,39.538658,-122.332108,2.31,2.895,409.5,7,2,2.3,0,0.0,6,0.1533,,6.0367,1
479166,1469905896965,,,,,,,-0.03,0.07,0.99,-1.5,-0.6,-0.8,980,301,,,,,,,,,,,,,,,,,
479186,1469905896992,,,,,,,-0.04,0.06,0.99,-1.4,-0.5,-0.8,1000,301,,,,,,,,,,,,,,,,,
479206,1469905897012,,,,,,,-0.03,0.05,0.99,-1.4,-0.3,-0.7,980,303,,,,,,,,,,,,,,,,,
479226,1469905897032,,,,,,,-0.03,0.04,0.99,-1.3,-0.1,-0.7,1000,303,,,,,,,,,,,,,,,,,
479246,1469905897052,0,254.5,203.1,10,211.3,,-0.02,0.05,0.99,-1.3,0.1,-0.6,1000,300,3.256,1,39.538658,-122.332108,4.36,2.895,409.5,7,2,2.3,0,0.0,6,0.1533,0.0,6.0383,1
479266,1469905897072,,,,,,,-0.02,0.05,0.98,-1.3,0.2,-0.6,960,301,,,,,,,,,,,,,,,,,
479286,1469905897191,,,,,,,-0.02,0.05,0.98,-1.3,0.3,-0.6,1000,303,,,,,,,,,,,,,,,,,
479306,1469905897211,,,,,,,-0.02,0.04,0.97,-1.2,0.4,-0.6,1000,303,,,,,,,,,,,,,,,,,
479326,1469905897231,,,,,,,-0.02,0.04,0.97,-1.2,0.4,-0.5,980,303,,,,,,,,,,,,,,,,,
479346,1469905897251,,,,12,,,-0.01,0.04,0.98,-1.2,0.5,-0.5,1000,303,3.137,1,39.538654,-122.332108,2.38,2.896,409.6,7,2,2.3,0,0.0,6,0.1533,,6.0417,1
479366,1469905897271,,,,,,,0.0,0.04,0.98,-1.1,0.5,-0.5,1000,301,,,,,,,,,,,,,,,,,
479386,1469905897291,,,,,,,0.0,0.04,0.98,-1.1,0.6,-0.5,980,304,,,,,,,,,,,,,,,,,
479406,1469905897311,,,,,,,0.0,0.04,0.98,-1.1,0.6,-0.5,1000,304,,,,,,,,,,,,,,,,,
479426,1469905897331,,,,,,,0.0,0.05,0.98,-1.0,0.7,-0.5,1000,304,,,,,,,,,,,,,,,,,
479446,1469905897351,0,256.2,204.0,13,212.0,,0.01,0.05,0.98,-1.0,0.6,-0.6,1000,306,3.289,1,39.538654,-122.332108,2.38,2.896,409.6,7,2,2.3,0,0.0,6,0.1533,0.0,6.0417,1
479466,1469905897371,,,,,,,0.01,0.05,0.98,-1.0,0.6,-0.7,1000,306,,,,,,,,,,,,,,,,,
479486,1469905897292,,,,,,,0.01,0.05,0.99,-1.0,0.6,-0.7,1020,306,,,,,,,,,,,,,,,,,
479506,1469905897312,,,,,,,0.01,0.05,0.99,-1.0,0.5,-0.7,980,307,,,,,,,,,,,,,,,,,
479526,1469905897332,,,,,,,0.01,0.05,0.99,-1.0,0.4,-0.6,1000,307,,,,,,,,,,,,,,,,,
