"Interval"|"ms"|0|0|1,"Utc"|"ms"|0|0|1,"FuelLevel"|"F"|0|100|5,"OilTemp"|"F"|0.0|300.0|5,"Coolant"|"F"|0.0|300.0|5,"OilPress"|"PSI"|0|150|10,"EngineTemp"|"F"|0.0|300.0|5,"Battery"|"Volts"|0.0|20.0|1,"AccelX"|"G"|-3.0|3.0|50,"AccelY"|"G"|-3.0|3.0|50,"AccelZ"|"G"|-3.0|3.0|50,"Yaw"|"Deg/Sec"|-300.0|300.0|50,"Pitch"|"Deg/Sec"|-300.0|300.0|50,"Roll"|"Deg/Sec"|-300.0|300.0|50,"RPM"|""|0|10000|50,"Driveshaft"|"RPM"|0|5000|50,"GearRatio"|""|-5.0|5.0|10,"Gear"|""|-1|5|10,"Latitude"|"Degrees"|-180.0|180.0|10,"Longitude"|"Degrees"|-180.0|180.0|10,"Speed"|"MPH"|0.0|150.0|10,"Distance"|"Miles"|0.0|0.0|10,"Altitude"|"Feet"|0.0|4000.0|10,"GPSSats"|""|0|20|10,"GPSQual"|""|0|5|10,"GPSDOP"|""|0.0|20.0|10,"LapCount"|""|0|0|10,"LapTime"|"Min"|0.0|0.0|10,"Sector"|""|0|0|10,"SectorTime"|"Min"|0.0|0.0|10,"PredTime"|"Min"|0.0|0.0|5,"ElapsedTime"|"Min"|0.0|0.0|10,"CurrentLap"|""|0|0|10
5066,1469912157734,,,,,,,0.05,-0.45,1.22,3.3,-0.8,1.6,5360,4446,,,,,,,,,,,,,,,,,
5086,1469912157754,,,,,,,0.05,-0.35,1.25,3.2,-3.3,1.6,5200,4395,,,,,,,,,,,,,,,,,
5106,1469912157774,,,,,,,0.07,-0.36,1.25,3.3,-0.6,1.3,5200,4420,,,,,,,,,,,,,,,,,
5126,1469912157794,,,,,,,0.07,-0.38,1.27,3.4,1.8,1.3,5200,4446,,,,,,,,,,,,,,,,,
5146,1469912157814,,,,41,,,0.14,-0.38,1.21,3.3,0.5,1.6,4980,4420,1.186,3,39.540936,-122.335709,78.17,0.002,363.8,8,2,1.8,0,0.0,-1,0.0,,0.0,0
5166,1469912157834,,,,,,,0.06,-0.42,1.22,3.3,-0.3,1.5,5060,4606,,,,,,,,,,,,,,,,,
5186,1469912157854,,,,,,,0.1,-0.31,1.11,3.2,1.0,1.5,4960,4633,,,,,,,,,,,,,,,,,
5206,1469912157874,,,,,,,0.1,-0.35,1.12,2.9,-0.3,1.6,5040,4320,,,,,,,,,,,,,,,,,
5226,1469912157894,,,,,,,0.14,-0.38,1.03,3.1,-0.4,1.3,4960,4524,,,,,,,,,,,,,,,,,
5246,1469912157905,0,271.5,205.7,57,207.5,,0.12,-0.42,1.03,3.2,0.9,1.4,4920,4369,1.084,4,39.540901,-122.335709,77.97,0.005,362.8,8,2,1.8,0,0.0,-1,0.0,0.0,0.0,0
5266,1469912157925,,,,,,,0.13,-0.4,1.08,2.7,-0.9,1.5,4840,4420,,,,,,,,,,,,,,,,,
5286,1469912157945,,,,,,,0.06,-0.32,1.13,2.8,0.6,0.9,4680,4446,,,,,,,,,,,,,,,,,
5306,1469912157965,,,,,,,0.14,-0.34,1.18,2.4,-0.2,1.2,4800,4395,,,,,,,,,,,,,,,,,
5326,1469912157985,,,,,,,0.13,-0.33,1.09,2.8,0.3,0.9,4560,4446,,,,,,,,,,,,,,,,,
5346,1469912158015,,,,66,,,0.13,-0.38,1.1,2.9,1.2,1.0,4700,4420,1.128,3,39.540871,-122.335693,78.02,0.007,362.0,8,2,1.8,0,0.0,-1,0.0,,0.0,0
5366,1469912158035,,,,,,,0.17,-0.31,1.14,2.7,1.2,1.1,4580,4470,,,,,,,,,,,,,,,,,
5386,1469912158055,,,,,,,0.11,-0.32,1.21,2.6,0.4,1.1,4540,4470,,,,,,,,,,,,,,,,,
5406,1469912158075,,,,,,,0.13,-0.31,1.17,2.3,1.9,0.7,4560,4446,,,,,,,,,,,,,,,,,
5426,1469912158095,,,,,,,0.09,-0.18,1.19,1.8,1.0,0.5,4400,4420,,,,,,,,,,,,,,,,,
5446,1469912158115,0,271.2,205.5,52,207.4,,0.13,-0.17,1.25,1.2,2.0,0.2,4440,4446,1.011,4,39.540836,-122.335693,78.16,0.009,361.1,8,2,1.8,0,0.0,-1,0.0,0.0,0.0,0
5466,1469912158135,,,,,,,0.07,-0.17,1.26,1.0,1.5,0.4,4380,4420,,,,,,,,,,,,,,,,,
5486,1469912158155,,,,,,,0.11,-0.23,1.2,0.9,2.5,0.1,4280,4446,,,,,,,,,,,,,,,,,
5506,1469912158175,,,,,,,0.05,-0.27,1.27,0.7,2.3,0.3,4340,4395,,,,,,,,,,,,,,,,,
5526,1469912158195,,,,,,,0.07,-0.31,1.28,0.7,2.0,0.2,4300,4446,,,,,,,,,,,,,,,,,
5546,1469912158214,,,,52,,,0.03,-0.22,1.19,0.5,2.0,0.2,4200,4446,0.999,4,39.540802,-122.335693,78.02,0.012,360.2,8,2,1.8,0,0.0,-1,0.0,,0.0,0
5566,1469912158234,,,,,,,0.05,-0.23,1.25,0.2,2.2,-0.3,4120,4496,,,,,,,,,,,,,,,,,
5586,1469912158254,,,,,,,0.04,-0.16,1.3,-0.3,2.5,0.2,4260,4446,,,,,,,,,,,,,,,,,
5606,1469912158274,,,,,,,0.07,-0.05,1.29,-0.6,1.7,0.4,4540,4420,,,,,,,,,,,,,,,,,
5626,1469912158294,,,,,,,0.08,0.01,1.29,-0.8,2.0,0.5,4540,4496,,,,,,,,,,,,,,,,,
5646,1469912158414,0,270.9,205.8,58,207.4,,0.09,0.03,1.26,-0.9,2.3,0.7,4380,4633,0.981,4,39.540741,-122.335693,77.7,0.016,358.4,8,2,1.8,0,0.0,-1,0.0,0.0,0.0,0
5666,1469912158434,,,,,,,0.03,0.07,1.24,-1.1,2.8,0.6,4620,4578,,,,,,,,,,,,,,,,,
5686,1469912158454,,,,,,,0.02,0.06,1.14,-1.0,2.5,0.5,4780,4470,,,,,,,,,,,,,,,,,
5706,1469912158474,,,,,,,0.02,0.06,1.11,-0.8,2.3,0.5,4440,4470,,,,,,,,,,,,,,,,,
5726,1469912158494,,,,,,,0.0,0.06,1.1,-1.1,1.1,0.1,4400,4470,,,,,,,,,,,,,,,,,
5746,1469912158514,,,,57,,,-0.05,0.09,1.0,-1.5,1.6,0.1,4440,4524,0.99,4,39.540741,-122.335693,77.7,0.016,358.4,8,2,1.8,0,0.0,-1,0.0,,0.0,0
5766,1469912158534,,,,,,,-0.03,0.14,1.0,-2.0,0.8,-0.3,4700,4496,,,,,,,,,,,,,,,,,
5786,1469912158554,,,,,,,-0.09,0.17,0.98,-2.8,2.1,-0.2,4380,4446,,,,,,,,,,,,,,,,,
5806,1469912158574,,,,,,,-0.05,0.16,0.99,-3.3,0.9,-0.1,4260,4446,,,,,,,,,,,,,,,,,
5826,1469912158594,,,,,,,-0.09,0.18,0.93,-3.6,1.4,-0.1,4480,4446,,,,,,,,,,,,,,,,,
5846,1469912158514,0,270.5,205.1,45,207.0,,-0.05,0.24,0.94,-3.9,0.8,-0.2,4440,4578,0.964,4,39.540703,-122.335693,77.53,0.019,357.8,8,2,1.8,0,0.0,-1,0.0,0.0,0.0,0
5866,1469912158534,,,,,,,-0.07,0.22,0.9,-4.1,1.7,0.1,4380,4470,,,,,,,,,,,,,,,,,
5886,1469912158554,,,,,,,-0.09,0.28,0.96,-4.2,1.6,0.0,4380,4524,,,,,,,,,,,,,,,,,
5906,1469912158574,,,,,,,-0.13,0.26,0.94,-4.1,2.3,0.0,4440,4496,,,,,,,,,,,,,,,,,
5926,1469912158594,,,,,,,-0.14,0.32,0.93,-4.2,1.3,-0.2,4600,4496,,,,,,,,,,,,,,,,,
5946,1469912158614,,,,37,,,-0.14,0.3,0.92,-4.4,2.7,0.3,4380,4550,1.019,4,39.540676,-122.335678,77.79,0.021,357.4,8,2,1.8,0,0.0,-1,0.0,,0.0,0
5966,1469912158634,,,,,,,-0.13,0.32,0.98,-4.4,2.7,0.3,4260,4524,,,,,,,,,,,,,,,,,
5986,1469912158654,,,,,,,-0.13,0.28,0.98,-4.5,3.4,0.5,4440,4496,,,,,,,,,,,,,,,,,
6006,1469912158674,,,,,,,-0.17,0.29,0.95,-4.4,1.8,0.3,4640,4578,,,,,,,,,,,,,,,,,
6026,1469912158694,,,,,,,-0.16,0.26,0.92,-4.2,1.7,0.5,4380,4550,,,,,,,,,,,,,,,,,
6046,1469912158714,0,271.7,206.0,68,207.8,13.85,-0.18,0.32,0.94,-4.0,1.0,0.4,4340,4496,1.032,4,39.540642,-122.335678,78.1,0.023,357.0,8,2,1.8,0,0.0,-1,0.0,0.0,0.0,0
6066,1469912158734,,,,,,,-0.2,0.31,0.91,-3.8,1.8,0.5,4500,4550,,,,,,,,,,,,,,,,,
6086,1469912158754,,,,,,,-0.21,0.35,0.92,-3.9,1.1,0.3,4640,4550,,,,,,,,,,,,,,,,,
6106,1469912158774,,,,,,,-0.19,0.32,0.89,-3.9,1.7,0.3,4420,4524,,,,,,,,,,,,,,,,,
6126,1469912158794,,,,,,,-0.2,0.39,0.85,-3.8,0.6,0.1,4420,4550,,,,,,,,,,,,,,,,,
6146,1469912158815,,,,58,,,-0.2,0.35,0.89,-3.8,0.5,0.4,4460,4550,0.989,4,39.540611,-122.335678,78.2,0.025,356.7,8,2,1.8,0,0.0,-1,0.0,,0.0,0
6166,1469912158835,,,,,,,-0.21,0.37,0.89,-3.6,-0.3,0.2,4720,4578,,,,,,,,,,,,,,,,,
6186,1469912158855,,,,,,,-0.22,0.32,0.84,-3.6,0.7,0.3,4280,4550,,,,,,,,,,,,,,,,,
6206,1469912158875,,,,,,,-0.21,0.36,0.89,-3.4,-0.1,0.0,4380,4496,,,,,,,,,,,,,,,,,
6226,1469912158895,,,,,,,-0.23,0.31,0.9,-3.4,0.3,0.1,4580,4550,,,,,,,,,,,,,,,,,
6246,1469912158908,0,271.9,205.8,50,207.6,,-0.21,0.33,0.89,-3.2,-0.3,-0.2,4660,4524,0.992,4,39.540581,-122.335678,78.51,0.027,356.3,8,2,1.8,0,0.0,-1,0.0,0.0,0.0,0
6266,1469912158928,,,,,,,-0.22,0.26,0.84,-3.1,0.9,-0.1,4420,4550,,,,,,,,,,,,,,,,,
6286,1469912158948,,,,,,,-0.19,0.24,0.85,-3.2,-0.3,-0.4,4380,4496,,,,,,,,,,,,,,,,,
6306,1469912158968,,,,,,,-0.2,0.21,0.81,-3.3,0.6,-0.2,4560,4550,,,,,,,,,,,,,,,,,
6326,1469912158988,,,,,,,-0.16,0.25,0.83,-3.3,-0.6,-0.3,4640,4550,,,,,,,,,,,,,,,,,
6346,1469912159015,,,,53,,,-0.17,0.27,0.86,-3.7,0.9,-0.1,4340,4550,1.007,4,39.540546,-122.335678,78.77,0.03,355.7,8,2,1.8,0,0.0,-1,0.0,,0.0,0
6366,1469912159035,,,,,,,-0.14,0.27,0.84,-4.2,-0.5,-0.2,4700,4578,,,,,,,,,,,,,,,,,
6386,1469912159055,,,,,,,-0.16,0.23,0.87,-4.4,-0.3,-0.0,4580,4578,,,,,,,,,,,,,,,,,
6406,1469912159075,,,,,,,-0.11,0.2,0.84,-4.5,-1.1,0.1,4520,4606,,,,,,,,,,,,,,,,,
6426,1469912159095,,,,,,,-0.11,0.13,0.89,-4.8,-0.2,0.5,4500,4606,,,,,,,,,,,,,,,,,
6446,1469912159214,0,271.5,205.8,71,207.7,,-0.08,0.14,0.86,-4.7,-0.6,0.5,4660,4578,1.026,4,39.540482,-122.335678,79.31,0.034,354.5,8,2,1.8,0,0.0,-1,0.0,0.0,0.0,0
6466,1469912159234,,,,,,,-0.08,0.01,0.9,-4.4,-0.7,0.7,4600,4550,,,,,,,,,,,,,,,,,
6486,1469912159254,,,,,,,-0.04,0.02,0.88,-4.3,-0.9,0.1,4560,4550,,,,,,,,,,,,,,,,,
6506,1469912159274,,,,,,,-0.04,-0.07,0.86,-4.1,-2.2,0.4,4760,4661,,,,,,,,,,,,,,,,,
6526,1469912159294,,,,,,,0.01,-0.06,0.83,-3.6,-2.0,0.2,4680,4606,,,,,,,,,,,,,,,,,
6546,1469912159314,,,,50,,,-0.02,-0.12,0.91,-3.5,-2.8,0.1,4500,4689,0.995,4,39.540482,-122.335678,79.31,0.034,354.5,8,2,1.8,0,0.0,-1,0.0,,0.0,0
6566,1469912159334,,,,,,,0.0,-0.11,0.92,-3.3,-1.9,-0.1,4580,4606,,,,,,,,,,,,,,,,,
6586,1469912159354,,,,,,,-0.03,-0.09,0.92,-3.2,-2.4,-0.2,4860,4661,,,,,,,,,,,,,,,,,
6606,1469912159374,,,,,,,-0.05,-0.06,0.97,-3.3,-0.6,0.2,4500,4633,,,,,,,,,,,,,,,,,
6626,1469912159394,,,,,,,-0.04,0.0,0.97,-3.2,-1.1,-0.1,4480,4633,,,,,,,,,,,,,,,,,
6646,1469912159314,0,271.5,205.5,58,207.4,,-0.09,0.0,0.99,-3.4,-0.2,0.1,4620,4578,0.952,4,39.540447,-122.335678,79.85,0.036,354.0,8,2,1.8,0,0.0,-1,0.0,0.0,0.0,0
6666,1469912159334,,,,,,,-0.07,0.11,0.97,-3.4,-0.6,-0.1,4600,4633,,,,,,,,,,,,,,,,,
6686,1469912159354,,,,,,,-0.1,0.13,1.0,-3.9,0.2,0.4,4560,4633,,,,,,,,,,,,,,,,,
6706,1469912159374,,,,,,,-0.06,0.19,1.02,-4.1,-0.9,0.0,4720,4606,,,,,,,,,,,,,,,,,
6726,1469912159394,,,,,,,-0.11,0.2,0.96,-4.4,-0.4,0.0,4560,4550,,,,,,,,,,,,,,,,,
6746,1469912159414,,,,68,,,-0.08,0.24,0.99,-4.5,-0.7,-0.5,4580,4550,1.027,4,39.540417,-122.335678,79.94,0.039,353.3,8,2,1.8,0,0.0,-1,0.0,,0.0,0
6766,1469912159434,,,,,,,-0.11,0.18,1.03,-4.9,1.1,-0.1,4540,4633,,,,,,,,,,,,,,,,,
6786,1469912159454,,,,,,,-0.05,0.2,1.01,-4.8,0.9,-0.3,4700,4689,,,,,,,,,,,,,,,,,
6806,1469912159474,,,,,,,-0.06,0.1,1.07,-4.9,1.1,-0.3,4440,4661,,,,,,,,,,,,,,,,,
6826,1469912159494,,,,,,,-0.02,0.09,1.08,-4.8,0.9,-0.1,4720,4633,,,,,,,,,,,,,,,,,
6846,1469912159515,0,272.7,206.2,50,207.9,,-0.03,0.07,1.1,-4.7,0.2,0.1,4820,4633,0.963,4,39.540382,-122.335678,80.19,0.041,352.6,8,2,1.8,0,0.0,-1,0.0,0.0,0.0,0
6866,1469912159535,,,,,,,-0.06,0.07,1.1,-4.7,0.1,0.2,4740,4606,,,,,,,,,,,,,,,,,
6886,1469912159555,,,,,,,-0.06,0.14,1.07,-4.3,0.1,-0.2,4500,4633,,,,,,,,,,,,,,,,,
6906,1469912159575,,,,,,,-0.14,0.17,1.05,-4.3,0.8,0.2,4600,4578,,,,,,,,,,,,,,,,,
6926,1469912159595,,,,,,,-0.12,0.19,0.97,-3.9,1.1,-0.2,4700,4633,,,,,,,,,,,,,,,,,
6946,1469912159615,,,,51,,,-0.16,0.15,0.99,-3.9,2.0,-0.0,4600,4633,0.993,4,39.540348,-122.335678,80.5,0.043,352.0,8,2,1.8,0,0.0,-1,0.0,,0.0,0
6966,1469912159635,,,,,,,-0.07,0.19,0.96,-3.8,1.3,-0.5,4680,4578,,,,,,,,,,,,,,,,,
6986,1469912159655,,,,,,,-0.12,0.15,0.9,-4.0,0.5,0.0,4600,4578,,,,,,,,,,,,,,,,,
7006,1469912159675,,,,,,,-0.05,0.14,0.98,-4.0,0.7,-0.4,4660,4606,,,,,,,,,,,,,,,,,
7026,1469912159695,,,,,,,-0.08,0.05,0.99,-4.3,-0.4,-0.2,4500,4661,,,,,,,,,,,,,,,,,
7046,1469912159715,0,271.0,205.3,38,207.1,13.99,-0.04,0.05,1.02,-4.2,-0.2,-0.3,4780,4661,0.989,4,39.540318,-122.33567,80.69,0.045,351.4,8,2,1.8,0,0.0,-1,0.0,0.0,0.0,0
7066,1469912159735,,,,,,,-0.04,0.04,1.09,-4.4,-0.4,0.1,4420,4661,,,,,,,,,,,,,,,,,
7086,1469912159755,,,,,,,-0.06,0.05,1.06,-4.7,0.9,0.3,4580,4578,,,,,,,,,,,,,,,,,
7106,1469912159775,,,,,,,-0.06,0.09,1.05,-4.3,0.3,0.3,4800,4776,,,,,,,,,,,,,,,,,
7126,1469912159795,,,,,,,-0.08,0.11,1.04,-4.1,1.7,0.6,4460,4689,,,,,,,,,,,,,,,,,
7146,1469912159815,,,,49,,,-0.06,0.15,0.97,-3.9,0.8,0.6,4540,4633,0.994,4,39.540283,-122.33567,81.04,0.048,350.8,8,2,1.8,0,0.0,-1,0.0,,0.0,0
7166,1469912159835,,,,,,,-0.09,0.16,0.98,-3.8,1.1,1.0,4560,4661,,,,,,,,,,,,,,,,,
7186,1469912159855,,,,,,,-0.07,0.23,0.89,-3.6,0.4,0.5,4680,4661,,,,,,,,,,,,,,,,,
7206,1469912159875,,,,,,,-0.11,0.17,0.92,-3.9,0.8,0.8,4560,4606,,,,,,,,,,,,,,,,,
7226,1469912159895,,,,,,,-0.04,0.18,0.92,-3.8,0.8,0.7,4860,4633,,,,,,,,,,,,,,,,,
7246,1469912160008,1,271.5,205.5,43,207.3,,-0.04,0.12,0.95,-4.2,1.1,0.9,4560,4718,0.945,4,39.540215,-122.33567,81.26,0.053,349.4,8,2,1.8,0,0.0,-1,0.0,0.0,0.0,0
7266,1469912160028,,,,,,,0.0,0.08,1.01,-4.1,1.4,0.6,4700,4718,,,,,,,,,,,,,,,,,
7286,1469912160048,,,,,,,0.0,0.0,1.01,-3.9,0.4,0.7,4760,4689,,,,,,,,,,,,,,,,,
7306,1469912160068,,,,,,,-0.01,0.01,0.95,-3.9,1.2,1.0,4620,4633,,,,,,,,,,,,,,,,,
7326,1469912160088,,,,,,,0.03,0.06,0.91,-3.4,0.4,0.6,4440,4718,,,,,,,,,,,,,,,,,
7346,1469912160108,,,,63,,,-0.04,0.04,0.93,-3.4,0.7,0.8,4620,4633,0.984,4,39.540215,-122.33567,81.26,0.053,349.4,8,2,1.8,0,0.0,-1,0.0,,0.0,0
7366,1469912160128,,,,,,,0.02,0.08,0.82,-3.1,-0.2,0.1,4680,4633,,,,,,,,,,,,,,,,,
7386,1469912160148,,,,,,,-0.05,0.06,0.88,-3.3,0.1,0.6,4520,4633,,,,,,,,,,,,,,,,,
7406,1469912160168,,,,,,,-0.01,0.09,0.86,-3.3,0.2,-0.0,4860,4661,,,,,,,,,,,,,,,,,
7426,1469912160188,,,,,,,-0.04,0.03,0.86,-3.6,0.1,0.0,4620,4661,,,,,,,,,,,,,,,,,
7446,1469912160115,0,271.5,205.8,64,207.5,,0.03,0.04,0.97,-3.9,1.4,-0.3,4760,4689,1.013,4,39.540184,-122.33567,81.52,0.055,348.8,8,2,1.8,0,0.0,-1,0.0,0.0,0.0,0
7466,1469912160135,,,,,,,0.01,0.01,1.01,-4.1,0.7,0.0,4820,4689,,,,,,,,,,,,,,,,,
7486,1469912160155,,,,,,,0.03,0.07,0.95,-3.9,1.5,0.3,4860,4661,,,,,,,,,,,,,,,,,
7506,1469912160175,,,,,,,0.06,0.09,0.99,-3.7,0.5,0.1,4460,4718,,,,,,,,,,,,,,,,,
7526,1469912160195,,,,,,,-0.02,0.13,1.01,-3.8,1.6,0.2,4660,4661,,,,,,,,,,,,,,,,,
7546,1469912160215,,,,42,,,0.01,0.19,0.9,-3.7,0.7,-0.3,4800,4633,0.972,4,39.540146,-122.33567,81.67,0.057,348.3,8,2,1.8,0,0.0,-1,0.0,,0.0,0
7566,1469912160235,,,,,,,-0.07,0.16,0.98,-3.9,1.5,0.2,4560,4689,,,,,,,,,,,,,,,,,
7586,1469912160255,,,,,,,-0.03,0.17,0.99,-3.9,0.1,-0.5,4700,4689,,,,,,,,,,,,,,,,,
7606,1469912160275,,,,,,,-0.07,0.13,0.95,-4.6,-0.2,-0.2,4640,4633,,,,,,,,,,,,,,,,,
7626,1469912160295,,,,,,,-0.04,0.14,1.05,-5.0,0.3,-0.5,4760,4747,,,,,,,,,,,,,,,,,
7646,1469912160315,0,271.4,206.6,52,208.3,,-0.06,0.12,1.06,-5.4,0.2,-0.4,4780,4718,1.006,4,39.540115,-122.33567,81.7,0.059,347.8,8,2,1.8,0,0.0,-1,0.0,0.0,0.0,0
7666,1469912160335,,,,,,,-0.07,0.12,0.99,-5.3,1.1,-0.4,4860,4633,,,,,,,,,,,,,,,,,
7686,1469912160355,,,,,,,-0.04,0.13,1.04,-5.0,0.8,-0.6,4600,4689,,,,,,,,,,,,,,,,,
7706,1469912160375,,,,,,,-0.05,0.12,1.1,-4.9,2.2,-0.3,4620,4689,,,,,,,,,,,,,,,,,
7726,1469912160395,,,,,,,0.01,0.18,0.97,-4.4,1.1,-0.2,4640,4661,,,,,,,,,,,,,,,,,
7746,1469912160415,,,,44,,,-0.06,0.19,1.06,-4.5,2.6,0.2,4580,4661,0.981,4,39.540081,-122.335655,81.93,0.062,347.3,8,2,1.8,0,0.0,-1,0.0,,0.0,0
7766,1469912160435,,,,,,,-0.0,0.23,1.07,-4.5,1.5,-0.1,4680,4661,,,,,,,,,,,,,,,,,
7786,1469912160455,,,,,,,-0.04,0.22,1.01,-5.0,2.2,0.8,4660,4633,,,,,,,,,,,,,,,,,
7806,1469912160475,,,,,,,0.02,0.28,1.09,-5.2,2.0,0.8,4660,4661,,,,,,,,,,,,,,,,,
7826,1469912160495,,,,,,,0.01,0.23,1.02,-5.6,2.1,1.0,4700,4747,,,,,,,,,,,,,,,,,
7846,1469912160515,0,271.2,205.5,41,207.3,,0.05,0.28,1.1,-5.7,1.7,1.0,4640,4718,0.987,4,39.540047,-122.335655,81.85,0.064,346.9,8,2,1.8,0,0.0,-1,0.0,0.0,0.0,0
7866,1469912160535,,,,,,,0.06,0.2,1.12,-5.6,0.5,0.9,4620,4661,,,,,,,,,,,,,,,,,
7886,1469912160555,,,,,,,0.04,0.19,1.02,-5.9,0.9,0.9,4560,4661,,,,,,,,,,,,,,,,,
7906,1469912160575,,,,,,,0.04,0.23,1.05,-5.6,-0.3,0.7,4700,4689,,,,,,,,,,,,,,,,,
7926,1469912160595,,,,,,,0.04,0.23,1.06,-5.3,0.1,0.8,4640,4633,,,,,,,,,,,,,,,,,
7946,1469912160615,,,,48,,,0.09,0.28,0.91,-5.1,-0.8,0.1,4560,4606,0.979,4,39.540012,-122.335655,81.95,0.067,346.4,8,2,1.8,0,0.0,-1,0.0,,0.0,0
7966,1469912160635,,,,,,,0.04,0.31,0.96,-5.4,-0.0,0.5,4580,4578,,,,,,,,,,,,,,,,,
7986,1469912160655,,,,,,,0.11,0.36,0.89,-5.4,0.1,-0.2,4640,4550,,,,,,,,,,,,,,,,,
8006,1469912160675,,,,,,,0.06,0.34,0.88,-5.7,0.5,0.1,4620,4550,,,,,,,,,,,,,,,,,
8026,1469912160695,,,,,,,0.16,0.28,0.94,-5.5,0.7,-0.2,4580,4606,,,,,,,,,,,,,,,,,
8046,1469912160814,0,271.4,205.1,51,207.0,13.82,0.11,0.2,1.01,-5.5,0.6,-0.0,4580,4606,0.967,4,39.539948,-122.335655,81.9,0.071,345.6,8,2,1.8,0,0.0,-1,0.0,0.0,0.0,0
8066,1469912160834,,,,,,,0.12,0.18,0.98,-5.4,1.2,-0.1,4680,4633,,,,,,,,,,,,,,,,,
8086,1469912160854,,,,,,,0.14,0.16,1.03,-5.2,-0.3,-0.2,4620,4661,,,,,,,,,,,,,,,,,
8106,1469912160874,,,,,,,0.13,0.16,1.03,-5.2,1.0,-0.2,4560,4633,,,,,,,,,,,,,,,,,
8126,1469912160894,,,,,,,0.19,0.16,1.03,-5.4,-0.2,-0.2,4580,4633,,,,,,,,,,,,,,,,,
8146,1469912160914,,,,57,,,0.13,0.2,1.09,-5.5,1.0,-0.1,4700,4606,1.014,4,39.539948,-122.335655,81.9,0.071,345.6,8,2,1.8,0,0.0,-1,0.0,,0.0,0
8166,1469912160934,,,,,,,0.17,0.29,1.05,-5.3,0.6,-0.7,4500,4606,,,,,,,,,,,,,,,,,
8186,1469912160954,,,,,,,0.13,0.17,1.14,-5.4,1.7,-0.4,4720,4633,,,,,,,,,,,,,,,,,
8206,1469912160974,,,,,,,0.14,0.26,1.15,-5.1,1.1,-0.9,4640,4718,,,,,,,,,,,,,,,,,
8226,1469912160994,,,,,,,0.12,0.31,1.08,-5.1,0.9,-0.7,4620,4718,,,,,,,,,,,,,,,,,
8246,1469912160908,0,271.0,205.5,58,207.5,,0.14,0.27,1.11,-5.0,0.8,-1.0,4680,4606,0.965,4,39.539913,-122.33564,81.9,0.074,345.2,8,2,1.8,0,0.0,-1,0.0,0.0,0.0,0
8266,1469912160928,,,,,,,0.11,0.21,1.12,-5.0,1.6,-0.8,4600,4606,,,,,,,,,,,,,,,,,
8286,1469912160948,,,,,,,0.13,0.2,1.2,-5.0,1.7,-0.4,4560,4689,,,,,,,,,,,,,,,,,
8306,1469912160968,,,,,,,0.1,0.08,1.21,-4.9,2.1,-0.4,4540,4718,,,,,,,,,,,,,,,,,
8326,1469912160988,,,,,,,0.14,0.03,1.13,-4.6,2.8,-0.2,4680,4633,,,,,,,,,,,,,,,,,
8346,1469912161015,,,,47,,,0.13,0.07,1.19,-4.4,1.9,-0.1,4560,4633,0.993,4,39.539879,-122.33564,81.48,0.076,344.8,8,2,1.8,0,0.0,-1,0.0,,0.0,0
8366,1469912161035,,,,,,,0.11,0.02,1.11,-4.1,2.6,0.3,4480,4578,,,,,,,,,,,,,,,,,
8386,1469912161055,,,,,,,0.14,0.09,1.05,-3.7,0.9,0.2,4580,4633,,,,,,,,,,,,,,,,,
8406,1469912161075,,,,,,,0.08,0.05,1.13,-3.6,0.9,0.3,4540,4578,,,,,,,,,,,,,,,,,
8426,1469912161095,,,,,,,0.12,0.17,0.98,-3.5,0.1,-0.1,4540,4606,,,,,,,,,,,,,,,,,
8446,1469912161115,0,270.7,205.9,59,207.5,,0.05,0.17,1.03,-3.8,0.4,0.4,4660,4606,1.002,4,39.539848,-122.33564,81.39,0.078,344.5,8,2,1.8,0,0.0,-1,0.0,0.0,0.0,0
8466,1469912161135,,,,,,,0.08,0.2,0.9,-3.8,0.7,-0.5,4600,4550,,,,,,,,,,,,,,,,,
8486,1469912161155,,,,,,,0.03,0.21,0.93,-3.9,1.0,-0.4,4520,4578,,,,,,,,,,,,,,,,,
8506,1469912161175,,,,,,,0.12,0.24,0.86,-3.9,1.4,-1.0,4500,4606,,,,,,,,,,,,,,,,,
8526,1469912161195,,,,,,,0.06,0.25,0.93,-4.1,1.0,-0.5,4600,4550,,,,,,,,,,,,,,,,,
8546,1469912161215,,,,45,,,0.11,0.22,0.92,-4.1,1.3,-0.9,4540,4578,1.004,4,39.539814,-122.33564,81.29,0.08,344.1,8,2,1.8,0,0.0,-1,0.0,,0.0,0
8566,1469912161235,,,,,,,0.08,0.16,0.89,-4.0,0.0,-1.2,4520,4661,,,,,,,,,,,,,,,,,
8586,1469912161255,,,,,,,0.08,0.16,0.99,-4.0,1.3,-1.1,4600,4578,,,,,,,,,,,,,,,,,
8606,1469912161275,,,,,,,0.14,0.1,0.99,-4.1,-0.2,-0.8,4600,4661,,,,,,,,,,,,,,,,,
8626,1469912161295,,,,,,,0.09,0.06,1.02,-4.0,0.6,-0.6,4580,4633,,,,,,,,,,,,,,,,,
8646,1469912161315,0,272.4,205.6,47,207.1,,0.14,0.04,0.99,-3.7,-0.4,-0.9,4640,4661,0.981,4,39.53978,-122.33564,81.23,0.083,343.8,8,2,1.8,0,0.0,-1,0.0,0.0,0.0,0
8666,1469912161335,,,,,,,0.06,0.05,1.01,-3.7,0.5,-0.8,4560,4633,,,,,,,,,,,,,,,,,
8686,1469912161355,,,,,,,0.14,0.09,1.04,-3.8,-0.1,-0.8,4580,4661,,,,,,,,,,,,,,,,,
8706,1469912161375,,,,,,,0.03,0.06,1.07,-3.9,-0.2,-0.7,4580,4550,,,,,,,,,,,,,,,,,
8726,1469912161395,,,,,,,0.12,0.12,1.03,-3.7,-0.4,-1.4,4500,4606,,,,,,,,,,,,,,,,,
8746,1469912161415,,,,55,,,0.02,0.12,1.02,-3.9,-1.7,-1.4,4560,4550,0.964,4,39.539749,-122.335632,81.13,0.085,343.4,8,2,1.8,0,0.0,-1,0.0,,0.0,0
8766,1469912161435,,,,,,,0.12,0.15,0.98,-4.0,-1.5,-1.5,4540,4524,,,,,,,,,,,,,,,,,
8786,1469912161455,,,,,,,0.05,0.11,1.07,-3.8,-1.2,-1.4,4560,4550,,,,,,,,,,,,,,,,,
8806,1469912161475,,,,,,,0.11,0.2,0.99,-3.4,-1.5,-1.9,4540,4578,,,,,,,,,,,,,,,,,
8826,1469912161495,,,,,,,0.06,0.19,1.01,-3.2,-2.0,-1.6,4560,4550,,,,,,,,,,,,,,,,,
8846,1469912161614,0,271.2,205.7,75,207.3,,0.13,0.31,0.99,-3.2,-1.9,-1.5,4380,4496,0.996,4,39.539684,-122.335632,80.86,0.089,342.7,8,2,1.8,0,0.0,-1,0.0,0.0,0.0,0
8866,1469912161634,,,,,,,0.07,0.35,1.03,-3.4,-1.8,-1.0,4540,4524,,,,,,,,,,,,,,,,,
8886,1469912161654,,,,,,,0.15,0.39,0.95,-3.4,-0.8,-1.3,4620,4550,,,,,,,,,,,,,,,,,
8906,1469912161674,,,,,,,0.12,0.36,0.95,-3.8,-0.7,-0.7,4500,4578,,,,,,,,,,,,,,,,,
8926,1469912161694,,,,,,,0.14,0.38,0.94,-4.0,0.5,-0.7,4620,4606,,,,,,,,,,,,,,,,,
8946,1469912161714,,,,48,,,0.12,0.34,0.86,-4.0,-0.2,-0.3,4660,4633,1.002,4,39.539684,-122.335632,80.86,0.089,342.7,8,2,1.8,0,0.0,-1,0.0,,0.0,0
8966,1469912161734,,,,,,,0.11,0.38,0.91,-4.1,1.6,-0.8,4520,4578,,,,,,,,,,,,,,,,,
8986,1469912161754,,,,,,,0.15,0.26,0.88,-4.0,0.0,-0.7,4560,4578,,,,,,,,,,,,,,,,,
9006,1469912161774,,,,,,,0.1,0.19,0.88,-3.7,1.1,-0.5,4660,4550,,,,,,,,,,,,,,,,,
9026,1469912161794,,,,,,,0.14,0.11,0.91,-3.6,-0.3,-0.5,4580,4524,,,,,,,,,,,,,,,,,
9046,1469912161715,0,271.2,205.8,69,207.5,13.92,0.08,-0.02,0.91,-3.3,1.4,-0.4,4500,4524,0.99,4,39.53965,-122.335617,80.54,0.092,342.4,8,2,1.8,0,0.0,-1,0.0,0.0,0.0,0
9066,1469912161735,,,,,,,0.12,-0.08,0.93,-2.9,0.7,-0.4,4560,4524,,,,,,,,,,,,,,,,,
9086,1469912161755,,,,,,,0.07,-0.1,0.91,-2.7,2.4,-0.1,4420,4550,,,,,,,,,,,,,,,,,
9106,1469912161775,,,,,,,0.12,-0.18,0.93,-2.3,1.4,-0.3,4440,4470,,,,,,,,,,,,,,,,,
9126,1469912161795,,,,,,,0.09,-0.2,0.91,-2.1,2.4,-0.3,4460,4496,,,,,,,,,,,,,,,,,
9146,1469912161816,,,,55,,,0.14,-0.2,0.97,-2.2,1.5,-0.6,4380,4369,1.014,4,39.539616,-122.335617,80.44,0.094,342.1,8,2,1.8,0,0.0,-1,0.0,,0.0,0
9166,1469912161836,,,,,,,0.15,-0.22,1.03,-2.2,2.9,-0.7,4480,4446,,,,,,,,,,,,,,,,,
9186,1469912161856,,,,,,,0.18,-0.22,0.96,-2.1,1.3,-0.6,4340,4496,,,,,,,,,,,,,,,,,
9206,1469912161876,,,,,,,0.2,-0.21,1.05,-2.1,2.0,-0.7,4540,4496,,,,,,,,,,,,,,,,,
9226,1469912161896,,,,,,,0.19,-0.17,0.97,-2.5,1.7,-0.2,4480,4524,,,,,,,,,,,,,,,,,
9246,1469912161909,0,271.7,205.5,70,207.5,,0.2,-0.16,1.06,-2.6,2.4,-0.2,4480,4524,1.012,4,39.539585,-122.335617,80.26,0.096,341.8,8,2,1.8,0,0.0,-1,0.0,0.0,0.0,0
9266,1469912161929,,,,,,,0.21,-0.14,1.02,-2.6,1.9,-0.3,4600,4470,,,,,,,,,,,,,,,,,
9286,1469912161949,,,,,,,0.21,-0.18,1.09,-2.4,2.4,-0.2,4520,4496,,,,,,,,,,,,,,,,,
9306,1469912161969,,,,,,,0.22,-0.18,1.1,-2.4,2.3,-0.2,4500,4470,,,,,,,,,,,,,,,,,
9326,1469912161989,,,,,,,0.2,-0.24,1.16,-2.2,4.2,-0.5,4500,4496,,,,,,,,,,,,,,,,,
9346,1469912162016,,,,54,,,0.19,-0.22,1.21,-2.5,3.7,-0.6,4480,4446,0.971,4,39.539551,-122.335617,80.18,0.099,341.4,8,2,1.8,0,0.0,-1,0.0,,0.0,0
9366,1469912162036,,,,,,,0.19,-0.24,1.24,-2.4,5.0,-0.8,4460,4446,,,,,,,,,,,,,,,,,
9386,1469912162056,,,,,,,0.18,-0.24,1.13,-2.4,4.1,-0.5,4500,4496,,,,,,,,,,,,,,,,,
9406,1469912162076,,,,,,,0.18,-0.27,1.21,-2.6,5.2,-0.8,4500,4470,,,,,,,,,,,,,,,,,
9426,1469912162096,,,,,,,0.17,-0.25,1.08,-3.0,4.2,-0.4,4480,4470,,,,,,,,,,,,,,,,,
9446,1469912162116,0,271.0,205.8,56,207.4,,0.17,-0.22,1.15,-3.0,4.8,-0.4,4500,4524,0.993,4,39.53952,-122.335602,79.73,0.101,341.1,8,2,1.8,0,0.0,-1,0.0,0.0,0.0,0
9466,1469912162136,,,,,,,0.18,-0.22,1.06,-3.4,4.1,-0.1,4440,4496,,,,,,,,,,,,,,,,,
9486,1469912162156,,,,,,,0.18,-0.28,1.15,-3.4,4.4,-0.3,4480,4446,,,,,,,,,,,,,,,,,
9506,1469912162176,,,,,,,0.14,-0.26,1.03,-3.6,2.9,0.1,4320,4446,,,,,,,,,,,,,,,,,
9526,1469912162196,,,,,,,0.2,-0.24,1.1,-3.8,2.5,-0.1,4420,4446,,,,,,,,,,,,,,,,,
9546,1469912162216,,,,57,,,0.16,-0.18,0.95,-4.1,1.4,0.4,4420,4420,0.983,4,39.53949,-122.335602,79.39,0.103,340.9,8,2,1.8,0,0.0,-1,0.0,,0.0,0
9566,1469912162236,,,,,,,0.23,-0.13,1.02,-4.3,2.0,-0.1,4500,4446,,,,,,,,,,,,,,,,,
9586,1469912162256,,,,,,,0.19,-0.05,0.98,-4.8,1.3,0.5,4280,4446,,,,,,,,,,,,,,,,,
9606,1469912162276,,,,,,,0.25,0.06,0.92,-5.1,1.0,0.4,4420,4496,,,,,,,,,,,,,,,,,
9626,1469912162296,,,,,,,0.19,0.07,0.92,-5.3,-0.1,0.5,4420,4496,,,,,,,,,,,,,,,,,
9646,1469912162415,0,270.5,205.7,40,207.4,,0.28,0.27,0.84,-5.4,-0.3,0.4,4180,4470,1.009,4,39.539425,-122.335594,78.66,0.108,340.5,8,2,1.8,0,0.0,-1,0.0,0.0,0.0,0
9666,1469912162435,,,,,,,0.2,0.3,0.91,-5.1,-0.7,0.6,4280,4420,,,,,,,,,,,,,,,,,
9686,1469912162455,,,,,,,0.31,0.26,0.93,-4.5,-1.4,0.8,4200,4395,,,,,,,,,,,,,,,,,
9706,1469912162475,,,,,,,0.21,0.21,0.93,-3.9,-1.1,0.7,4160,4395,,,,,,,,,,,,,,,,,
9726,1469912162495,,,,,,,0.28,0.19,0.87,-3.7,-2.4,1.0,4020,4395,,,,,,,,,,,,,,,,,
9746,1469912162515,,,,55,,,0.23,0.19,0.81,-3.7,-1.4,0.6,4000,4395,0.94,4,39.539425,-122.335594,78.66,0.108,340.5,8,2,1.8,0,0.0,-1,0.0,,0.0,0
9766,1469912162535,,,,,,,0.29,0.22,0.81,-3.6,-2.7,0.5,4240,4369,,,,,,,,,,,,,,,,,
9786,1469912162555,,,,,,,0.26,0.1,0.84,-3.8,-0.2,0.8,4220,4395,,,,,,,,,,,,,,,,,
9806,1469912162575,,,,,,,0.22,0.09,0.82,-3.6,-1.8,0.8,4580,4344,,,,,,,,,,,,,,,,,
9826,1469912162595,,,,,,,0.22,0.13,0.86,-4.0,1.4,1.1,4480,4395,,,,,,,,,,,,,,,,,
9846,1469912162513,0,271.4,205.7,48,207.3,,0.23,0.2,0.79,-4.0,-0.6,0.0,4540,4369,0.976,4,39.539391,-122.335594,78.48,0.11,340.4,8,2,1.8,0,0.0,-1,0.0,0.0,0.0,0
9866,1469912162533,,,,,,,0.29,0.24,0.83,-4.5,1.6,0.4,4600,4420,,,,,,,,,,,,,,,,,
9886,1469912162553,,,,,,,0.26,0.39,0.86,-4.7,-1.4,0.2,4980,4344,,,,,,,,,,,,,,,,,
9906,1469912162573,,,,,,,0.36,0.32,0.8,-4.7,0.1,-0.1,4700,4369,,,,,,,,,,,,,,,,,
9926,1469912162593,,,,,,,0.27,0.25,0.77,-4.9,-0.8,-0.2,5120,4320,,,,,,,,,,,,,,,,,
9946,1469912162613,,,,37,,,0.33,0.24,0.74,-4.4,-1.0,-0.3,5220,4344,1.082,4,39.53936,-122.335594,77.8,0.112,340.2,8,2,1.8,0,0.0,-1,0.0,,0.0,0
9966,1469912162633,,,,,,,0.3,0.14,0.67,-4.0,0.7,-0.6,5320,4320,,,,,,,,,,,,,,,,,
9986,1469912162653,,,,,,,0.29,0.17,0.79,-4.6,-0.1,-0.4,5220,4249,,,,,,,,,,,,,,,,,
10006,1469912162673,,,,,,,0.27,0.13,0.73,-4.2,1.5,-0.4,5200,4249,,,,,,,,,,,,,,,,,
10026,1469912162693,,,,,,,0.22,0.02,0.73,-4.1,0.8,-1.1,5000,4296,,,,,,,,,,,,,,,,,
10046,1469912162708,0,270.9,205.8,54,207.3,13.91,0.32,0.1,0.74,-4.1,1.8,-1.7,5100,4296,1.234,3,39.53933,-122.335579,77.31,0.114,340.1,8,2,1.8,0,0.0,-1,0.0,0.0,0.0,0
10066,1469912162728,,,,,,,0.23,0.05,0.8,-4.1,-0.2,-1.6,5100,4320,,,,,,,,,,,,,,,,,
10086,1469912162748,,,,,,,0.26,0.1,0.85,-4.2,0.8,-2.0,4960,4344,,,,,,,,,,,,,,,,,
10106,1469912162768,,,,,,,0.22,0.04,0.94,-4.5,2.3,-1.8,4980,4272,,,,,,,,,,,,,,,,,
10126,1469912162788,,,,,,,0.29,0.0,1.03,-4.0,0.3,-1.5,4900,4272,,,,,,,,,,,,,,,,,
10146,1469912162816,,,,61,,,0.27,0.02,1.06,-3.8,2.9,-1.6,4840,4249,1.182,3,39.539295,-122.335579,76.66,0.117,339.9,8,2,1.8,0,0.0,-1,0.0,,0.0,0
10166,1469912162836,,,,,,,0.26,0.1,1.07,-3.6,1.4,-1.8,4820,4296,,,,,,,,,,,,,,,,,
10186,1469912162856,,,,,,,0.33,0.1,1.03,-3.4,1.6,-1.8,4800,4226,,,,,,,,,,,,,,,,,
10206,1469912162876,,,,,,,0.26,0.1,1.08,-3.0,2.4,-1.7,4620,4135,,,,,,,,,,,,,,,,,
10226,1469912162896,,,,,,,0.3,0.01,1.07,-2.5,0.5,-1.4,4820,4156,,,,,,,,,,,,,,,,,
10246,1469912162909,0,271.4,205.3,52,207.6,,0.33,0.0,1.0,-2.0,0.8,-1.4,4760,4112,1.139,3,39.539265,-122.335579,75.97,0.119,339.8,8,2,1.8,0,0.0,-1,0.0,0.0,0.0,0
10266,1469912162929,,,,,,,0.3,0.05,1.04,-2.3,1.6,-1.3,4920,4112,,,,,,,,,,,,,,,,,
10286,1469912162949,,,,,,,0.32,0.16,1.06,-2.9,0.9,-1.5,4800,4156,,,,,,,,,,,,,,,,,
10306,1469912162969,,,,,,,0.36,0.2,1.07,-3.0,2.0,-1.3,5040,4135,,,,,,,,,,,,,,,,,
10326,1469912162989,,,,,,,0.29,0.08,1.05,-2.8,1.3,-0.6,5020,4112,,,,,,,,,,,,,,,,,
10346,1469912163016,,,,49,,,0.34,0.17,1.02,-2.6,-0.2,-0.5,4920,4090,1.193,3,39.539234,-122.335579,75.29,0.121,339.7,8,2,1.8,0,0.0,-1,0.0,,0.0,0
10366,1469912163036,,,,,,,0.39,0.25,1.11,-3.0,3.1,-0.3,5180,4112,,,,,,,,,,,,,,,,,
10386,1469912163056,,,,,,,0.32,0.26,1.05,-3.2,0.5,0.3,5160,4047,,,,,,,,,,,,,,,,,
10406,1469912163076,,,,,,,0.39,0.19,1.06,-3.2,1.5,0.4,5180,4069,,,,,,,,,,,,,,,,,
10426,1469912163096,,,,,,,0.35,0.19,0.97,-2.6,4.2,-0.2,5200,4112,,,,,,,,,,,,,,,,,
10446,1469912163215,0,270.5,205.3,51,207.3,,0.38,0.18,0.99,-2.8,3.0,0.3,5220,4135,1.291,3,39.539173,-122.335564,73.67,0.125,339.6,8,2,1.8,0,0.0,-1,0.0,0.0,0.0,0
10466,1469912163235,,,,,,,0.41,0.13,1.06,-2.6,2.9,0.8,5260,4112,,,,,,,,,,,,,,,,,
10486,1469912163255,,,,,,,0.31,0.18,1.08,-2.4,2.5,0.3,5220,4090,,,,,,,,,,,,,,,,,
10506,1469912163275,,,,,,,0.38,0.12,0.99,-2.5,3.6,-0.2,5160,4069,,,,,,,,,,,,,,,,,
10526,1469912163295,,,,,,,0.4,0.17,0.94,-2.3,4.6,-0.2,5120,4069,,,,,,,,,,,,,,,,,
10546,1469912163315,,,,47,,,0.32,0.04,0.99,-2.2,1.6,0.2,5260,4047,1.262,3,39.539173,-122.335564,73.67,0.125,339.6,8,2,1.8,0,0.0,-1,0.0,,0.0,0
10566,1469912163335,,,,,,,0.34,0.16,1.06,-1.8,1.9,0.3,5120,4069,,,,,,,,,,,,,,,,,
10586,1469912163355,,,,,,,0.4,0.16,1.08,-2.5,3.4,0.7,5140,4047,,,,,,,,,,,,,,,,,
10606,1469912163375,,,,,,,0.36,0.01,1.05,-1.9,0.9,0.6,5080,4006,,,,,,,,,,,,,,,,,
10626,1469912163395,,,,,,,0.39,0.16,1.0,-2.0,-0.5,-0.1,5180,3984,,,,,,,,,,,,,,,,,
10646,1469912163315,1,272.2,205.8,56,207.3,,0.38,0.02,0.89,-2.1,1.7,-0.3,4960,4006,1.277,3,39.539146,-122.335564,72.94,0.127,339.7,8,2,1.8,0,0.0,-1,0.0,0.0,0.0,0
10666,1469912163335,,,,,,,0.37,0.05,0.91,-1.7,0.9,-0.7,4940,3964,,,,,,,,,,,,,,,,,
10686,1469912163355,,,,,,,0.4,0.04,0.93,-2.2,-1.1,-0.3,5160,3964,,,,,,,,,,,,,,,,,
10706,1469912163375,,,,,,,0.38,0.11,1.0,-1.9,0.7,-0.4,5060,3944,,,,,,,,,,,,,,,,,
10726,1469912163395,,,,,,,0.35,0.06,1.09,-2.1,1.9,-0.3,5060,3984,,,,,,,,,,,,,,,,,
10746,1469912163414,,,,65,,,0.43,0.06,1.18,-2.2,0.7,-0.0,5000,3984,1.267,3,39.539116,-122.335556,72.23,0.129,339.7,8,2,1.8,0,0.0,-1,0.0,,0.0,0
10766,1469912163434,,,,,,,0.44,0.13,1.25,-2.2,0.9,0.1,4980,3944,,,,,,,,,,,,,,,,,
10786,1469912163454,,,,,,,0.4,0.01,1.32,-2.1,2.8,-0.1,5000,3984,,,,,,,,,,,,,,,,,
10806,1469912163474,,,,,,,0.51,0.06,1.33,-2.2,-0.4,0.2,5100,3964,,,,,,,,,,,,,,,,,
10826,1469912163494,,,,,,,0.53,0.09,1.39,-1.9,0.5,0.0,4920,3944,,,,,,,,,,,,,,,,,
10846,1469912163517,0,272.1,205.8,37,207.3,,0.51,0.04,1.43,-2.2,1.8,0.3,4920,3944,1.279,3,39.539089,-122.335556,71.53,0.131,339.7,8,2,1.8,0,0.0,-1,0.0,0.0,0.0,0
10866,1469912163537,,,,,,,0.58,0.06,1.42,-2.3,-1.2,0.5,4980,3884,,,,,,,,,,,,,,,,,
10886,1469912163557,,,,,,,0.58,0.11,1.43,-2.3,0.0,0.5,4940,3884,,,,,,,,,,,,,,,,,
10906,1469912163577,,,,,,,0.56,0.09,1.47,-2.3,2.0,0.5,4840,3864,,,,,,,,,,,,,,,,,
10926,1469912163597,,,,,,,0.53,0.07,1.51,-2.7,0.4,0.5,4820,3826,,,,,,,,,,,,,,,,,
10946,1469912163606,,,,91,,,0.55,0.05,1.56,-2.3,0.2,0.0,4880,3864,1.279,3,39.539059,-122.335556,70.72,0.133,339.6,8,2,1.8,0,0.0,-1,0.0,,0.0,0
10966,1469912163626,,,,,,,0.56,0.03,1.55,-2.4,0.9,0.0,4840,3864,,,,,,,,,,,,,,,,,
10986,1469912163646,,,,,,,0.49,0.07,1.53,-2.2,0.5,-0.4,4740,3846,,,,,,,,,,,,,,,,,
11006,1469912163666,,,,,,,0.51,0.04,1.42,-2.6,0.7,-0.3,4680,3846,,,,,,,,,,,,,,,,,
11026,1469912163686,,,,,,,0.53,0.09,1.33,-2.9,1.4,-0.6,4680,3884,,,,,,,,,,,,,,,,,
11046,1469912163706,0,271.4,205.8,67,206.7,13.98,0.47,0.09,1.28,-3.0,0.3,-0.8,4740,3826,1.231,3,39.539032,-122.335541,69.71,0.135,339.6,8,2,1.8,0,0.0,-1,0.0,0.0,0.0,0
11066,1469912163726,,,,,,,0.46,0.08,1.18,-3.3,-0.5,-1.1,4660,3884,,,,,,,,,,,,,,,,,
11086,1469912163746,,,,,,,0.53,0.09,1.11,-3.1,-2.3,-1.1,4560,3789,,,,,,,,,,,,,,,,,
11106,1469912163766,,,,,,,0.51,0.08,1.06,-2.9,-0.2,-1.2,4500,3826,,,,,,,,,,,,,,,,,
11126,1469912163786,,,,,,,0.46,0.07,1.07,-3.0,-2.2,-0.8,4420,3826,,,,,,,,,,,,,,,,,
11146,1469912163809,,,,54,,,0.45,0.05,1.03,-3.2,-2.6,-0.8,4440,3807,1.23,3,39.539001,-122.335541,68.75,0.138,339.6,8,2,1.8,0,0.0,-1,0.0,,0.0,0
11166,1469912163829,,,,,,,0.51,0.01,0.99,-2.7,-2.9,-0.6,4740,3752,,,,,,,,,,,,,,,,,
11186,1469912163849,,,,,,,0.51,-0.04,0.9,-2.9,-1.3,-0.4,4460,3807,,,,,,,,,,,,,,,,,
11206,1469912163869,,,,,,,0.49,-0.02,0.92,-2.9,-2.9,-0.2,4780,3769,,,,,,,,,,,,,,,,,
11226,1469912163889,,,,,,,0.48,0.0,0.91,-3.4,-2.7,0.1,5020,3769,,,,,,,,,,,,,,,,,
11246,1469912164002,0,271.9,205.6,83,207.3,,0.56,0.04,0.86,-3.3,-2.4,0.1,4880,3715,1.252,3,39.538948,-122.335541,67.16,0.141,339.5,8,2,1.8,0,0.0,-1,0.0,0.0,0.0,0
11266,1469912164022,,,,,,,0.5,0.11,0.87,-3.2,-1.5,0.0,5220,3752,,,,,,,,,,,,,,,,,
11286,1469912164042,,,,,,,0.46,0.1,0.82,-3.3,-1.5,-0.2,5000,3680,,,,,,,,,,,,,,,,,
11306,1469912164062,,,,,,,0.46,0.1,0.83,-3.5,-1.7,0.0,5320,3696,,,,,,,,,,,,,,,,,
11326,1469912164082,,,,,,,0.48,0.03,0.85,-3.1,-3.9,0.5,5460,3661,,,,,,,,,,,,,,,,,
11346,1469912164102,,,,85,,,0.45,-0.02,0.83,-3.0,-1.5,0.1,5560,3752,1.446,0,39.538948,-122.335541,67.16,0.141,339.5,8,2,1.8,0,0.0,-1,0.0,,0.0,0
11366,1469912164122,,,,,,,0.39,0.03,0.83,-2.9,-0.1,0.0,5660,3680,,,,,,,,,,,,,,,,,
11386,1469912164142,,,,,,,0.46,0.04,0.88,-2.8,-0.3,-0.2,5700,3627,,,,,,,,,,,,,,,,,
11406,1469912164162,,,,,,,0.57,0.05,0.82,-3.1,-0.5,-0.2,5520,3661,,,,,,,,,,,,,,,,,
11426,1469912164182,,,,,,,0.59,0.13,0.84,-3.4,-0.5,-0.4,5640,3644,,,,,,,,,,,,,,,,,
11446,1469912164108,1,270.5,204.8,47,207.2,,0.51,0.19,0.88,-3.5,-0.8,-0.7,5500,3627,1.577,0,39.538918,-122.335526,66.51,0.143,339.4,8,2,1.8,0,0.0,-1,0.0,0.0,0.0,0
11466,1469912164128,,,,,,,0.46,0.18,0.97,-3.7,-1.1,-0.6,5380,3610,,,,,,,,,,,,,,,,,
11486,1469912164148,,,,,,,0.43,0.17,0.96,-3.8,-0.3,-0.7,5380,3661,,,,,,,,,,,,,,,,,
11506,1469912164168,,,,,,,0.52,0.23,0.93,-3.7,-0.2,-0.6,5300,3560,,,,,,,,,,,,,,,,,
11526,1469912164188,,,,,,,0.52,0.32,0.93,-4.2,1.4,-0.7,5260,3576,,,,,,,,,,,,,,,,,
11546,1469912164205,,,,48,,,0.47,0.29,0.93,-4.7,-0.9,-0.3,5180,3627,1.445,0,39.538895,-122.335526,65.57,0.145,339.2,8,2,1.8,0,0.0,-1,0.0,,0.0,0
11566,1469912164225,,,,,,,0.38,0.26,1.01,-4.8,-1.1,-0.4,5180,3576,,,,,,,,,,,,,,,,,
11586,1469912164245,,,,,,,0.38,0.23,0.95,-4.7,-0.8,-0.8,5200,3593,,,,,,,,,,,,,,,,,
11606,1469912164265,,,,,,,0.44,0.16,0.89,-4.9,-0.3,-0.6,5060,3544,,,,,,,,,,,,,,,,,
11626,1469912164285,,,,,,,0.46,0.2,0.86,-5.0,-0.9,-0.5,5060,3512,,,,,,,,,,,,,,,,,
11646,1469912164308,0,271.9,205.4,71,207.1,,0.43,0.18,0.83,-5.0,-0.2,-0.6,4960,3464,1.462,0,39.538868,-122.335526,64.65,0.147,339.1,8,2,1.8,0,0.0,-1,0.0,0.0,0.0,0
11666,1469912164328,,,,,,,0.41,0.2,0.88,-5.0,0.8,-0.8,5040,3495,,,,,,,,,,,,,,,,,
11686,1469912164348,,,,,,,0.38,0.12,0.93,-5.5,-1.4,-0.7,4920,3527,,,,,,,,,,,,,,,,,
11706,1469912164368,,,,,,,0.37,0.19,0.88,-5.3,-2.0,-1.2,4800,3449,,,,,,,,,,,,,,,,,
11726,1469912164388,,,,,,,0.42,0.1,0.88,-5.4,-1.4,-1.2,4920,3495,,,,,,,,,,,,,,,,,
11746,1469912164407,,,,35,,,0.45,0.16,0.77,-5.3,-1.8,-1.5,4640,3495,1.429,0,39.538841,-122.335526,63.66,0.149,338.9,8,2,1.8,0,0.0,-1,0.0,,0.0,0
11766,1469912164427,,,,,,,0.43,0.07,0.76,-5.2,0.2,-1.2,4820,3480,,,,,,,,,,,,,,,,,
11786,1469912164447,,,,,,,0.4,0.08,0.77,-5.2,0.4,-1.1,4620,3464,,,,,,,,,,,,,,,,,
11806,1469912164467,,,,,,,0.39,0.14,0.87,-5.3,1.0,-1.0,4700,3480,,,,,,,,,,,,,,,,,
11826,1469912164487,,,,,,,0.45,0.09,0.97,-5.6,0.8,-0.9,4660,3464,,,,,,,,,,,,,,,,,
11846,1469912164507,0,272.1,205.0,67,207.5,,0.43,0.14,0.98,-5.4,1.0,-1.3,4580,3358,1.386,3,39.538818,-122.335518,63.02,0.15,338.7,8,2,1.8,0,0.0,-1,0.0,0.0,0.0,0
11866,1469912164527,,,,,,,0.48,0.16,0.86,-5.2,2.2,-1.4,4520,3315,,,,,,,,,,,,,,,,,
11886,1469912164547,,,,,,,0.47,0.1,0.9,-5.1,2.0,-1.1,4500,3387,,,,,,,,,,,,,,,,,
11906,1469912164567,,,,,,,0.55,0.11,0.82,-5.1,2.6,-1.2,4460,3329,,,,,,,,,,,,,,,,,
11926,1469912164587,,,,,,,0.54,0.14,0.93,-5.1,3.3,-1.5,4460,3315,,,,,,,,,,,,,,,,,
11946,1469912164606,,,,42,,,0.57,0.09,0.83,-4.9,4.0,-1.5,4580,3300,1.115,4,39.538792,-122.335518,62.09,0.152,338.5,8,2,1.8,0,0.0,-1,0.0,,0.0,0
11966,1469912164626,,,,,,,0.58,0.1,0.94,-4.8,2.4,-1.4,4560,3315,,,,,,,,,,,,,,,,,
11986,1469912164646,,,,,,,0.53,0.08,0.93,-4.7,0.9,-1.4,4640,3230,,,,,,,,,,,,,,,,,
12006,1469912164666,,,,,,,0.57,0.07,0.98,-4.4,-0.4,-1.5,4580,3230,,,,,,,,,,,,,,,,,
12026,1469912164686,,,,,,,0.54,0.05,1.08,-4.2,0.6,-1.3,4580,3190,,,,,,,,,,,,,,,,,
12046,1469912164806,0,271.2,204.7,40,207.7,13.78,0.62,0.03,0.98,-3.9,-0.8,-1.2,4580,3178,1.363,3,39.538742,-122.335518,59.91,0.156,338.2,8,2,1.8,0,0.0,-1,0.0,0.0,0.0,0
12066,1469912164826,,,,,,,0.61,0.0,1.03,-3.3,-0.3,-0.9,4660,3152,,,,,,,,,,,,,,,,,
12086,1469912164846,,,,,,,0.62,-0.01,1.02,-2.7,0.1,-1.2,4600,3126,,,,,,,,,,,,,,,,,
12106,1469912164866,,,,,,,0.65,-0.03,0.89,-2.6,0.7,-0.8,4740,3076,,,,,,,,,,,,,,,,,
12126,1469912164886,,,,,,,0.7,0.06,0.92,-2.5,0.8,-1.0,4760,3101,,,,,,,,,,,,,,,,,
12146,1469912164906,,,,92,,,0.7,0.13,0.85,-2.7,0.7,-1.2,4700,2992,1.491,0,39.538742,-122.335518,59.91,0.156,338.2,8,2,1.8,0,0.0,-1,0.0,,0.0,0
12166,1469912164926,,,,,,,0.73,0.08,0.8,-3.1,0.4,-1.3,4820,2958,,,,,,,,,,,,,,,,,
12186,1469912164946,,,,,,,0.78,0.11,0.87,-3.0,-0.9,-1.4,4860,2958,,,,,,,,,,,,,,,,,
12206,1469912164966,,,,,,,0.78,0.03,0.84,-2.9,-0.2,-1.4,5040,2912,,,,,,,,,,,,,,,,,
12226,1469912164986,,,,,,,0.82,0.11,0.79,-2.5,-0.5,-1.6,4960,2890,,,,,,,,,,,,,,,,,
12246,1469912164902,0,271.2,205.7,59,206.8,,0.85,0.1,0.84,-2.6,-1.6,-1.9,5060,2838,1.663,0,39.538715,-122.335503,58.7,0.158,338.1,8,2,1.8,0,0.0,-1,0.0,0.0,0.0,0
12266,1469912164922,,,,,,,0.84,0.09,0.75,-2.5,-2.0,-2.3,5200,2766,,,,,,,,,,,,,,,,,
12286,1469912164942,,,,,,,0.84,0.03,0.76,-2.6,-2.3,-2.0,5240,2776,,,,,,,,,,,,,,,,,
12306,1469912164962,,,,,,,0.78,0.09,0.82,-2.9,-4.6,-1.9,5300,2806,,,,,,,,,,,,,,,,,
12326,1469912164982,,,,,,,0.66,0.09,0.88,-3.0,-4.9,-1.8,5180,2786,,,,,,,,,,,,,,,,,
12346,1469912165008,,,,53,,,0.68,0.02,0.78,-2.7,-3.4,-2.4,5320,2827,1.865,2,39.538696,-122.335503,57.38,0.159,337.9,8,2,1.8,0,0.0,-1,0.0,,0.0,0
12366,1469912165028,,,,,,,0.73,0.18,0.88,-3.1,-0.8,-2.4,5320,2890,,,,,,,,,,,,,,,,,
12386,1469912165048,,,,,,,0.71,0.12,0.84,-3.3,-3.5,-2.0,5380,2847,,,,,,,,,,,,,,,,,
12406,1469912165068,,,,,,,0.66,0.06,0.95,-3.2,-4.7,-2.2,5380,2912,,,,,,,,,,,,,,,,,
12426,1469912165088,,,,,,,0.6,0.08,0.99,-2.7,-2.0,-1.8,5480,2880,,,,,,,,,,,,,,,,,
12446,1469912165108,0,271.2,205.3,58,207.0,,0.63,0.12,0.95,-3.1,1.0,-1.9,5380,2880,1.854,2,39.538673,-122.335503,55.92,0.161,337.7,8,2,1.8,0,0.0,-1,0.0,0.0,0.0,0
12466,1469912165128,,,,,,,0.7,0.11,0.98,-3.1,2.1,-1.8,5500,2890,,,,,,,,,,,,,,,,,
12486,1469912165148,,,,,,,0.7,0.06,0.89,-2.7,1.2,-2.1,5460,2901,,,,,,,,,,,,,,,,,
12506,1469912165168,,,,,,,0.68,0.05,0.98,-2.9,0.7,-1.9,5460,2858,,,,,,,,,,,,,,,,,
12526,1469912165188,,,,,,,0.65,0.07,0.98,-3.2,0.7,-2.1,5420,2847,,,,,,,,,,,,,,,,,
12546,1469912165206,,,,75,,,0.62,0.04,0.92,-3.1,2.8,-2.2,5500,2901,1.889,2,39.53865,-122.335487,54.39,0.162,337.5,8,2,1.8,0,0.0,-1,0.0,,0.0,0
12566,1469912165226,,,,,,,0.71,0.04,0.91,-3.1,3.5,-2.4,5460,2869,,,,,,,,,,,,,,,,,
12586,1469912165246,,,,,,,0.76,0.14,0.93,-3.0,3.0,-2.3,5400,2880,,,,,,,,,,,,,,,,,
12606,1469912165266,,,,,,,0.77,0.1,0.8,-3.1,-0.4,-2.1,5280,2838,,,,,,,,,,,,,,,,,
12626,1469912165286,,,,,,,0.67,0.04,0.85,-3.3,-2.1,-2.0,5280,2869,,,,,,,,,,,,,,,,,
12646,1469912165308,0,271.4,205.8,46,208.1,,0.58,0.13,0.87,-3.1,-0.5,-1.7,5320,2847,1.939,2,39.538628,-122.335487,53.09,0.164,337.3,8,2,1.8,0,0.0,-1,0.0,0.0,0.0,0
12666,1469912165328,,,,,,,0.61,0.1,0.83,-3.8,0.7,-1.4,5260,2796,,,,,,,,,,,,,,,,,
12686,1469912165348,,,,,,,0.63,0.06,0.85,-3.7,0.1,-1.0,5420,2806,,,,,,,,,,,,,,,,,
12706,1469912165368,,,,,,,0.6,0.04,0.89,-4.0,-1.7,-0.7,5300,2776,,,,,,,,,,,,,,,,,
12726,1469912165388,,,,,,,0.52,0.13,0.97,-4.3,-1.8,-0.5,5280,2766,,,,,,,,,,,,,,,,,
12746,1469912165406,,,,82,,,0.48,0.02,0.87,-4.7,0.7,-0.8,5160,2766,1.832,2,39.538605,-122.335487,51.91,0.165,337.1,8,2,1.8,0,0.0,-1,0.0,,0.0,0
12766,1469912165426,,,,,,,0.54,0.13,0.98,-4.9,2.5,-0.5,5280,2796,,,,,,,,,,,,,,,,,
12786,1469912165446,,,,,,,0.53,0.11,0.9,-5.5,-1.0,-0.1,5320,2776,,,,,,,,,,,,,,,,,
12806,1469912165466,,,,,,,0.49,0.09,0.93,-5.4,-1.8,-0.2,5300,2746,,,,,,,,,,,,,,,,,
12826,1469912165486,,,,,,,0.43,0.15,0.86,-5.6,0.5,-0.7,5240,2707,,,,,,,,,,,,,,,,,
12846,1469912165604,0,271.9,206.2,63,208.0,,0.48,0.15,0.96,-5.8,2.1,-0.6,5080,2746,1.866,2,39.538567,-122.33548,50.03,0.168,336.7,8,2,1.8,0,0.0,-1,0.0,0.0,0.0,0
12866,1469912165624,,,,,,,0.54,0.04,0.96,-5.9,0.4,-0.4,5220,2766,,,,,,,,,,,,,,,,,
12886,1469912165644,,,,,,,0.52,0.22,0.93,-6.1,-1.0,-0.6,5140,2736,,,,,,,,,,,,,,,,,
12906,1469912165664,,,,,,,0.54,0.12,0.94,-6.1,0.6,-0.7,5020,2707,,,,,,,,,,,,,,,,,
12926,1469912165684,,,,,,,0.52,0.17,0.86,-6.0,0.3,-0.6,5100,2680,,,,,,,,,,,,,,,,,
12946,1469912165704,,,,55,,,0.45,0.11,0.93,-6.7,-1.4,-0.2,5180,2670,1.885,2,39.538567,-122.33548,50.03,0.168,336.7,8,2,1.8,0,0.0,-1,0.0,,0.0,0
12966,1469912165724,,,,,,,0.41,0.15,0.84,-6.5,-0.3,-0.1,5000,2707,,,,,,,,,,,,,,,,,
12986,1469912165744,,,,,,,0.44,0.16,0.91,-7.1,0.8,0.0,5120,2727,,,,,,,,,,,,,,,,,
13006,1469912165764,,,,,,,0.43,0.15,1.0,-7.5,-0.4,0.4,5060,2716,,,,,,,,,,,,,,,,,
13026,1469912165784,,,,,,,0.36,0.2,1.09,-7.7,-1.3,0.7,5120,2680,,,,,,,,,,,,,,,,,
13046,1469912165705,0,271.2,205.1,58,206.5,13.86,0.38,0.16,1.17,-7.7,0.9,0.7,5000,2661,1.91,2,39.538544,-122.33548,49.35,0.17,336.5,8,2,1.8,0,0.0,-1,0.0,0.0,0.0,0
13066,1469912165725,,,,,,,0.44,0.14,1.08,-7.8,0.6,0.7,5060,2680,,,,,,,,,,,,,,,,,
13086,1469912165745,,,,,,,0.44,0.17,1.09,-7.6,-1.1,0.5,5080,2643,,,,,,,,,,,,,,,,,
13106,1469912165765,,,,,,,0.45,0.23,1.04,-8.1,-1.0,0.6,5020,2670,,,,,,,,,,,,,,,,,
13126,1469912165785,,,,,,,0.43,0.14,0.99,-8.0,-1.5,1.2,5040,2615,,,,,,,,,,,,,,,,,
13146,1469912165807,,,,53,,,0.38,0.23,0.96,-8.0,-1.7,0.9,4900,2624,1.884,2,39.538525,-122.33548,48.51,0.171,336.3,8,2,1.8,0,0.0,-1,0.0,,0.0,0
13166,1469912165827,,,,,,,0.39,0.16,0.96,-8.2,-0.5,0.9,5000,2643,,,,,,,,,,,,,,,,,
13186,1469912165847,,,,,,,0.41,0.19,0.9,-8.1,-1.5,1.2,4860,2633,,,,,,,,,,,,,,,,,
13206,1469912165867,,,,,,,0.37,0.16,0.96,-7.9,-1.0,1.1,4940,2615,,,,,,,,,,,,,,,,,
13226,1469912165887,,,,,,,0.42,0.26,1.01,-8.5,0.5,1.2,4900,2606,,,,,,,,,,,,,,,,,
13246,1469912165901,0,270.5,204.4,59,206.4,,0.46,0.16,1.09,-8.7,-0.5,1.4,4900,2563,1.959,2,39.538506,-122.33548,47.73,0.172,336.0,8,2,1.8,0,0.0,-1,0.0,0.0,0.0,0
13266,1469912165921,,,,,,,0.44,0.24,1.12,-8.5,-1.8,1.2,4820,2563,,,,,,,,,,,,,,,,,
13286,1469912165941,,,,,,,0.42,0.29,1.2,-8.9,-1.3,0.9,4740,2538,,,,,,,,,,,,,,,,,
13306,1469912165961,,,,,,,0.42,0.27,1.27,-9.6,-1.5,1.0,4740,2563,,,,,,,,,,,,,,,,,
13326,1469912165981,,,,,,,0.43,0.26,1.19,-9.5,-1.0,0.9,4860,2572,,,,,,,,,,,,,,,,,
13346,1469912166002,,,,51,,,0.45,0.23,1.08,-9.1,-1.0,1.0,4740,2546,1.909,2,39.538486,-122.335464,46.85,0.174,335.7,8,2,1.8,0,0.0,-1,0.0,,0.0,0
13366,1469912166022,,,,,,,0.43,0.34,1.0,-9.4,-1.4,0.8,4760,2529,,,,,,,,,,,,,,,,,
13386,1469912166042,,,,,,,0.47,0.32,1.01,-9.9,-0.8,0.4,4680,2521,,,,,,,,,,,,,,,,,
13406,1469912166062,,,,,,,0.47,0.27,1.11,-10.6,-1.9,0.5,4700,2489,,,,,,,,,,,,,,,,,
13426,1469912166082,,,,,,,0.44,0.27,1.09,-10.3,-0.6,0.3,4780,2546,,,,,,,,,,,,,,,,,
13446,1469912166108,0,272.7,205.8,57,208.0,,0.43,0.26,1.05,-10.2,-0.0,0.3,4740,2521,1.912,2,39.538471,-122.335464,46.21,0.175,335.5,8,2,1.8,0,0.0,-1,0.0,0.0,0.0,0
13466,1469912166128,,,,,,,0.4,0.36,0.97,-10.4,-0.7,0.2,4760,2472,,,,,,,,,,,,,,,,,
13486,1469912166148,,,,,,,0.45,0.34,0.95,-10.6,0.1,-0.0,4720,2489,,,,,,,,,,,,,,,,,
13506,1469912166168,,,,,,,0.49,0.31,1.02,-10.8,0.1,-0.2,4760,2489,,,,,,,,,,,,,,,,,
13526,1469912166188,,,,,,,0.5,0.27,1.01,-10.8,-0.1,-0.7,4760,2433,,,,,,,,,,,,,,,,,
13546,1469912166208,,,,54,,,0.48,0.24,1.07,-10.6,-0.5,-0.7,4660,2464,1.901,2,39.538452,-122.335464,45.49,0.176,335.2,8,2,1.8,0,0.0,-1,0.0,,0.0,0
13566,1469912166228,,,,,,,0.48,0.15,1.11,-10.2,0.6,-0.5,4540,2472,,,,,,,,,,,,,,,,,
13586,1469912166248,,,,,,,0.49,0.11,1.02,-9.6,-0.6,-0.4,4620,2426,,,,,,,,,,,,,,,,,
13606,1469912166268,,,,,,,0.49,0.15,1.01,-9.0,0.3,-0.4,4620,2426,,,,,,,,,,,,,,,,,
13626,1469912166288,,,,,,,0.48,0.11,1.02,-9.0,0.5,-0.5,4600,2395,,,,,,,,,,,,,,,,,
13646,1469912166408,0,271.5,205.1,59,208.0,,0.42,0.14,0.95,-9.2,-0.3,-0.6,4480,2387,1.854,2,39.538418,-122.335449,43.96,0.179,334.7,8,2,1.8,0,0.0,-1,0.0,0.0,0.0,0
13666,1469912166428,,,,,,,0.43,0.18,1.0,-9.4,0.4,-0.4,4540,2403,,,,,,,,,,,,,,,,,
13686,1469912166448,,,,,,,0.44,0.2,0.93,-9.4,0.1,-0.4,4620,2373,,,,,,,,,,,,,,,,,
13706,1469912166468,,,,,,,0.48,0.25,0.95,-9.9,1.7,-0.2,4480,2426,,,,,,,,,,,,,,,,,
13726,1469912166488,,,,,,,0.46,0.3,0.93,-10.3,0.0,-0.6,4460,2373,,,,,,,,,,,,,,,,,
13746,1469912166508,,,,52,,,0.43,0.32,0.93,-10.6,0.2,-0.5,4480,2387,1.862,2,39.538418,-122.335449,43.96,0.179,334.7,8,2,1.8,0,0.0,-1,0.0,,0.0,0
13766,1469912166528,,,,,,,0.43,0.34,0.9,-10.7,-0.2,-0.7,4480,2352,,,,,,,,,,,,,,,,,
13786,1469912166548,,,,,,,0.43,0.38,0.91,-11.0,0.8,-0.3,4420,2358,,,,,,,,,,,,,,,,,
13806,1469912166568,,,,,,,0.47,0.42,0.86,-11.0,0.2,-0.7,4420,2358,,,,,,,,,,,,,,,,,
13826,1469912166588,,,,,,,0.45,0.45,0.94,-11.3,0.3,-0.8,4500,2323,,,,,,,,,,,,,,,,,
13846,1469912166506,0,272.6,205.6,57,207.3,,0.42,0.44,0.87,-11.8,0.5,-0.8,4440,2358,1.896,2,39.538399,-122.335449,42.96,0.18,334.4,8,2,1.8,0,0.0,-1,0.0,0.0,0.0,0
13866,1469912166526,,,,,,,0.41,0.43,0.92,-11.9,0.7,-0.5,4380,2303,,,,,,,,,,,,,,,,,
13886,1469912166546,,,,,,,0.41,0.45,0.83,-11.9,0.4,-0.2,4400,2330,,,,,,,,,,,,,,,,,
13906,1469912166566,,,,,,,0.41,0.42,0.89,-11.8,-0.2,-0.4,4400,2303,,,,,,,,,,,,,,,,,
13926,1469912166586,,,,,,,0.37,0.39,0.92,-11.7,-0.1,-0.3,4360,2336,,,,,,,,,,,,,,,,,
13946,1469912166606,,,,48,,,0.37,0.41,0.87,-11.7,0.4,-0.1,4420,2316,1.888,2,39.53838,-122.335442,42.46,0.182,334.1,8,2,1.8,0,0.0,-1,0.0,,0.0,0
13966,1469912166626,,,,,,,0.37,0.36,0.9,-11.8,-0.1,0.0,4340,2289,,,,,,,,,,,,,,,,,
13986,1469912166646,,,,,,,0.37,0.37,0.94,-11.8,0.1,-0.1,4380,2303,,,,,,,,,,,,,,,,,
14006,1469912166666,,,,,,,0.35,0.39,0.9,-12.0,-0.8,-0.0,4380,2295,,,,,,,,,,,,,,,,,
14026,1469912166686,,,,,,,0.37,0.38,0.95,-12.0,-1.3,-0.5,4260,2255,,,,,,,,,,,,,,,,,
14046,1469912166705,0,271.0,205.1,59,206.9,13.88,0.36,0.43,0.9,-12.4,-1.2,-0.2,4380,2261,1.931,2,39.538364,-122.335442,41.55,0.183,333.7,8,2,1.8,0,0.0,-1,0.0,0.0,0.0,0
14066,1469912166725,,,,,,,0.41,0.44,0.87,-12.7,-0.4,-0.5,4320,2289,,,,,,,,,,,,,,,,,
14086,1469912166745,,,,,,,0.38,0.41,0.93,-13.0,-0.2,-0.5,4220,2241,,,,,,,,,,,,,,,,,
14106,1469912166765,,,,,,,0.33,0.36,0.98,-13.3,0.5,-0.1,4160,2241,,,,,,,,,,,,,,,,,
14126,1469912166785,,,,,,,0.35,0.36,0.92,-13.4,0.6,-0.1,4200,2235,,,,,,,,,,,,,,,,,
14146,1469912166808,,,,53,,,0.38,0.39,0.93,-13.9,-0.1,0.1,4220,2247,1.824,2,39.538349,-122.335426,41.01,0.184,333.4,8,2,1.8,0,0.0,-1,0.0,,0.0,0
14166,1469912166828,,,,,,,0.35,0.35,1.0,-14.0,-1.4,-0.4,4260,2235,,,,,,,,,,,,,,,,,
14186,1469912166848,,,,,,,0.31,0.35,1.06,-14.4,-1.3,-0.4,4280,2215,,,,,,,,,,,,,,,,,
14206,1469912166868,,,,,,,0.3,0.35,1.05,-14.6,-0.6,-0.4,4300,2209,,,,,,,,,,,,,,,,,
14226,1469912166888,,,,,,,0.31,0.35,1.01,-14.6,0.3,-0.5,4140,2203,,,,,,,,,,,,,,,,,
14246,1469912166901,0,271.5,205.3,56,207.2,,0.35,0.39,0.97,-14.6,-0.6,-0.4,4240,2209,1.878,2,39.538334,-122.335426,40.58,0.185,333.2,8,2,1.8,0,0.0,-1,0.0,0.0,0.0,0
14266,1469912166921,,,,,,,0.39,0.45,0.97,-14.7,-0.8,-0.6,4100,2215,,,,,,,,,,,,,,,,,
14286,1469912166941,,,,,,,0.35,0.46,0.96,-15.2,-1.5,-0.4,4140,2196,,,,,,,,,,,,,,,,,
14306,1469912166961,,,,,,,0.3,0.36,1.0,-15.4,-0.8,-0.1,4160,2166,,,,,,,,,,,,,,,,,
14326,1469912166981,,,,,,,0.24,0.35,1.06,-15.4,0.1,-0.3,4120,2160,,,,,,,,,,,,,,,,,
14346,1469912167008,,,,57,,,0.28,0.38,1.0,-15.5,-0.2,-0.1,4100,2160,1.879,2,39.538319,-122.335411,40.05,0.186,332.9,8,2,1.8,0,0.0,-1,0.0,,0.0,0
14366,1469912167028,,,,,,,0.36,0.43,0.91,-15.4,-0.9,-0.2,4040,2166,,,,,,,,,,,,,,,,,
14386,1469912167048,,,,,,,0.38,0.45,0.87,-15.5,-1.6,-0.4,4000,2160,,,,,,,,,,,,,,,,,
14406,1469912167068,,,,,,,0.39,0.49,0.91,-15.7,-1.6,-0.6,4120,2172,,,,,,,,,,,,,,,,,
14426,1469912167088,,,,,,,0.39,0.51,0.91,-15.8,-1.3,-0.8,4040,2160,,,,,,,,,,,,,,,,,
14446,1469912167207,0,271.2,205.0,61,206.5,,0.37,0.49,0.94,-16.1,-1.3,-0.6,4120,2141,1.914,2,39.538288,-122.335403,39.02,0.189,332.3,8,2,1.8,0,0.0,-1,0.0,0.0,0.0,0
14466,1469912167227,,,,,,,0.34,0.38,1.01,-16.2,-0.6,-0.6,4060,2166,,,,,,,,,,,,,,,,,
14486,1469912167247,,,,,,,0.32,0.38,1.06,-16.2,0.2,-1.2,4080,2141,,,,,,,,,,,,,,,,,
14506,1469912167267,,,,,,,0.29,0.39,1.06,-16.5,0.6,-1.4,4100,2141,,,,,,,,,,,,,,,,,
14526,1469912167287,,,,,,,0.28,0.33,1.08,-16.5,1.3,-1.4,4020,2130,,,,,,,,,,,,,,,,,
14546,1469912167307,,,,57,,,0.24,0.36,1.12,-16.4,2.5,-1.7,4060,2124,1.882,2,39.538288,-122.335403,39.02,0.189,332.3,8,2,1.8,0,0.0,-1,0.0,,0.0,0
14566,1469912167327,,,,,,,0.25,0.39,1.08,-16.6,1.7,-1.4,4040,2124,,,,,,,,,,,,,,,,,
14586,1469912167347,,,,,,,0.29,0.4,1.02,-16.6,1.6,-1.3,4000,2124,,,,,,,,,,,,,,,,,
14606,1469912167367,,,,,,,0.29,0.42,1.02,-16.6,2.1,-1.4,4000,2135,,,,,,,,,,,,,,,,,
14626,1469912167387,,,,,,,0.33,0.49,0.93,-16.9,1.3,-1.3,4020,2124,,,,,,,,,,,,,,,,,
14646,1469912167309,1,270.4,204.4,39,206.5,,0.35,0.54,0.87,-17.1,1.6,-1.4,4060,2135,1.887,2,39.538273,-122.335403,38.48,0.19,332.1,8,2,1.8,0,0.0,-1,0.0,0.0,0.0,0
14666,1469912167329,,,,,,,0.34,0.53,0.82,-17.2,1.5,-1.7,4060,2130,,,,,,,,,,,,,,,,,
14686,1469912167349,,,,,,,0.34,0.59,0.77,-17.6,1.3,-1.8,3940,2118,,,,,,,,,,,,,,,,,
14706,1469912167369,,,,,,,0.33,0.64,0.73,-18.0,1.3,-1.8,4040,2130,,,,,,,,,,,,,,,,,
14726,1469912167389,,,,,,,0.3,0.6,0.71,-18.2,1.4,-1.6,4040,2130,,,,,,,,,,,,,,,,,
14746,1469912167407,,,,58,,,0.26,0.66,0.72,-18.6,0.5,-1.5,4060,2147,1.904,2,39.538261,-122.335388,38.24,0.191,331.7,8,2,1.8,0,0.0,-1,0.0,,0.0,0
14766,1469912167427,,,,,,,0.26,0.69,0.73,-19.2,0.3,-1.4,4160,2160,,,,,,,,,,,,,,,,,
14786,1469912167447,,,,,,,0.24,0.71,0.77,-19.4,0.5,-1.3,4200,2184,,,,,,,,,,,,,,,,,
14806,1469912167467,,,,,,,0.22,0.67,0.86,-20.1,0.5,-1.1,4200,2190,,,,,,,,,,,,,,,,,
14826,1469912167487,,,,,,,0.21,0.69,0.86,-20.5,0.3,-1.3,4340,2255,,,,,,,,,,,,,,,,,
14846,1469912167506,0,271.5,205.3,52,207.2,,0.19,0.68,0.83,-21.2,0.6,-0.9,4240,2289,1.842,2,39.538242,-122.335388,37.65,0.192,331.4,8,2,1.8,0,0.0,-1,0.0,0.0,0.0,0
14866,1469912167526,,,,,,,0.18,0.7,0.87,-21.8,0.8,-1.1,4160,2289,,,,,,,,,,,,,,,,,
14886,1469912167546,,,,,,,0.15,0.68,0.88,-22.1,1.5,-0.9,4300,2281,,,,,,,,,,,,,,,,,
14906,1469912167566,,,,,,,0.11,0.66,0.89,-22.6,1.5,-0.5,4500,2275,,,,,,,,,,,,,,,,,
14926,1469912167586,,,,,,,0.07,0.61,0.87,-22.7,1.4,-0.5,4340,2241,,,,,,,,,,,,,,,,,
14946,1469912167606,,,,48,,,0.02,0.62,0.87,-23.1,1.3,-0.3,4180,2203,1.954,2,39.538231,-122.335373,37.62,0.193,331.0,8,2,1.8,0,0.0,-1,0.0,,0.0,0
14966,1469912167626,,,,,,,0.01,0.63,0.84,-23.5,2.1,-0.3,4240,2196,,,,,,,,,,,,,,,,,
14986,1469912167646,,,,,,,-0.03,0.62,0.79,-23.8,3.4,-0.2,4300,2184,,,,,,,,,,,,,,,,,
15006,1469912167666,,,,,,,-0.0,0.66,0.8,-24.2,3.3,0.2,4040,2190,,,,,,,,,,,,,,,,,
15026,1469912167686,,,,,,,0.01,0.68,0.85,-24.5,2.8,0.3,4200,2196,,,,,,,,,,,,,,,,,
15046,1469912167705,0,271.0,204.8,49,206.6,13.79,-0.01,0.7,0.92,-24.5,2.4,0.6,4120,2223,1.838,2,39.538219,-122.335358,37.59,0.194,330.7,8,2,1.8,0,0.0,-1,0.0,0.0,0.0,0
15066,1469912167725,,,,,,,-0.02,0.71,0.98,-24.6,2.3,0.8,4080,2235,,,,,,,,,,,,,,,,,
15086,1469912167745,,,,,,,-0.07,0.72,0.96,-24.8,2.0,0.9,4320,2229,,,,,,,,,,,,,,,,,
15106,1469912167765,,,,,,,-0.12,0.72,0.99,-25.0,1.8,0.8,4360,2247,,,,,,,,,,,,,,,,,
15126,1469912167785,,,,,,,-0.08,0.77,1.03,-24.8,1.6,0.2,4440,2267,,,,,,,,,,,,,,,,,
15146,1469912167808,,,,44,,,-0.07,0.78,1.03,-24.7,0.8,0.1,4220,2261,1.937,2,39.538204,-122.335358,37.84,0.195,330.3,8,2,1.8,0,0.0,-1,0.0,,0.0,0
15166,1469912167828,,,,,,,-0.06,0.81,1.06,-24.7,1.3,-0.2,4240,2247,,,,,,,,,,,,,,,,,
15186,1469912167848,,,,,,,-0.07,0.87,1.08,-25.0,2.3,-0.1,4180,2261,,,,,,,,,,,,,,,,,
15206,1469912167868,,,,,,,-0.06,0.89,1.14,-25.2,1.6,-0.4,4080,2275,,,,,,,,,,,,,,,,,
15226,1469912167888,,,,,,,-0.08,0.88,1.09,-25.5,1.8,-0.5,4360,2261,,,,,,,,,,,,,,,,,
15246,1469912168001,1,271.9,205.1,52,206.9,,-0.1,0.88,1.06,-25.9,1.4,-0.5,4440,2255,1.914,2,39.538181,-122.335335,38.95,0.197,329.7,8,2,1.8,0,0.0,-1,0.0,0.0,0.0,0
15266,1469912168021,,,,,,,-0.09,0.83,1.09,-25.5,0.9,-0.9,4420,2267,,,,,,,,,,,,,,,,,
15286,1469912168041,,,,,,,-0.09,0.84,1.06,-25.5,1.1,-1.0,4280,2267,,,,,,,,,,,,,,,,,
15306,1469912168061,,,,,,,-0.07,0.9,1.08,-25.8,1.1,-1.4,4420,2295,,,,,,,,,,,,,,,,,
15326,1469912168081,,,,,,,-0.09,0.96,1.04,-26.1,2.1,-1.5,4140,2281,,,,,,,,,,,,,,,,,
15346,1469912168101,,,,65,,,-0.06,0.93,1.07,-26.4,1.4,-1.5,4140,2295,1.902,2,39.538181,-122.335335,38.95,0.197,329.7,8,2,1.8,0,0.0,-1,0.0,,0.0,0
15366,1469912168121,,,,,,,-0.1,0.89,1.06,-26.5,1.4,-1.4,4320,2295,,,,,,,,,,,,,,,,,
15386,1469912168141,,,,,,,-0.11,0.89,1.02,-26.6,0.3,-1.5,4500,2336,,,,,,,,,,,,,,,,,
15406,1469912168161,,,,,,,-0.09,0.86,1.01,-26.6,0.9,-1.8,4460,2303,,,,,,,,,,,,,,,,,
15426,1469912168181,,,,,,,-0.12,0.84,1.0,-26.7,1.4,-1.8,4220,2303,,,,,,,,,,,,,,,,,
15446,1469912168109,0,271.4,205.0,40,207.2,,-0.08,0.82,0.98,-26.5,1.7,-1.9,4360,2330,1.852,2,39.538166,-122.33532,39.04,0.199,329.4,8,2,1.8,0,0.0,-1,0.0,0.0,0.0,0
15466,1469912168129,,,,,,,-0.07,0.81,0.99,-26.6,1.7,-1.5,4260,2336,,,,,,,,,,,,,,,,,
15486,1469912168149,,,,,,,-0.07,0.87,0.97,-26.6,1.6,-1.9,4440,2344,,,,,,,,,,,,,,,,,
15506,1469912168169,,,,,,,-0.08,0.93,0.93,-27.0,2.0,-1.7,4480,2358,,,,,,,,,,,,,,,,,
15526,1469912168189,,,,,,,-0.06,0.9,1.0,-27.1,2.4,-1.9,4500,2344,,,,,,,,,,,,,,,,,
15546,1469912168208,,,,49,,,-0.1,0.92,1.01,-27.4,3.2,-1.9,4420,2358,1.865,2,39.538155,-122.335312,39.53,0.2,329.0,8,2,1.8,0,0.0,-1,0.0,,0.0,0
15566,1469912168228,,,,,,,-0.08,0.88,1.03,-27.4,1.5,-1.8,4560,2352,,,,,,,,,,,,,,,,,
15586,1469912168248,,,,,,,-0.12,0.88,1.0,-27.4,2.0,-1.6,4460,2366,,,,,,,,,,,,,,,,,
15606,1469912168268,,,,,,,-0.07,0.86,0.98,-27.3,0.9,-1.6,4640,2344,,,,,,,,,,,,,,,,,
15626,1469912168288,,,,,,,-0.1,0.86,0.97,-27.4,1.7,-1.6,4400,2366,,,,,,,,,,,,,,,,,
15646,1469912168308,0,271.7,205.2,59,207.1,,-0.1,0.92,0.99,-27.8,1.3,-1.7,4400,2380,1.879,2,39.538143,-122.335297,39.92,0.201,328.8,8,2,1.8,0,0.0,-1,0.0,0.0,0.0,0
15666,1469912168328,,,,,,,-0.11,0.93,0.99,-28.1,2.5,-1.5,4580,2395,,,,,,,,,,,,,,,,,
15686,1469912168348,,,,,,,-0.07,0.95,0.96,-28.2,2.3,-1.5,4520,2380,,,,,,,,,,,,,,,,,
15706,1469912168368,,,,,,,-0.09,0.93,0.97,-28.4,2.7,-1.5,4320,2403,,,,,,,,,,,,,,,,,
15726,1469912168388,,,,,,,-0.08,0.9,0.97,-28.4,1.3,-1.6,4660,2395,,,,,,,,,,,,,,,,,
15746,1469912168407,,,,62,,,-0.09,0.93,0.97,-28.5,1.1,-1.4,4520,2433,1.848,2,39.538132,-122.335281,40.1,0.202,328.4,8,2,1.8,0,0.0,-1,0.0,,0.0,0
15766,1469912168427,,,,,,,-0.09,0.92,1.05,-28.2,0.1,-1.6,4600,2410,,,,,,,,,,,,,,,,,
15786,1469912168447,,,,,,,-0.12,0.93,1.0,-28.2,1.2,-1.7,4440,2410,,,,,,,,,,,,,,,,,
15806,1469912168467,,,,,,,-0.09,0.9,0.98,-27.8,-0.5,-1.7,4700,2433,,,,,,,,,,,,,,,,,
15826,1469912168487,,,,,,,-0.13,0.86,0.98,-27.7,-0.5,-1.5,4580,2418,,,,,,,,,,,,,,,,,
15846,1469912168506,0,271.2,205.6,53,207.6,,-0.11,0.85,1.03,-27.5,-0.6,-1.8,4660,2456,1.903,2,39.53812,-122.335258,41.51,0.203,328.2,8,2,1.8,0,0.0,-1,0.0,0.0,0.0,0
15866,1469912168526,,,,,,,-0.15,0.78,1.02,-27.4,-1.2,-1.7,4840,2456,,,,,,,,,,,,,,,,,
15886,1469912168546,,,,,,,-0.14,0.77,1.02,-27.2,-0.9,-2.2,4840,2449,,,,,,,,,,,,,,,,,
15906,1469912168566,,,,,,,-0.15,0.76,1.04,-27.0,-1.0,-2.2,4540,2480,,,,,,,,,,,,,,,,,
15926,1469912168586,,,,,,,-0.18,0.66,1.08,-26.6,-0.5,-2.5,4740,2489,,,,,,,,,,,,,,,,,
15946,1469912168606,,,,62,,,-0.2,0.75,1.04,-26.5,-0.1,-2.4,4880,2464,1.812,2,39.538109,-122.335243,41.82,0.205,328.0,8,2,1.8,0,0.0,-1,0.0,,0.0,0
15966,1469912168626,,,,,,,-0.21,0.79,1.09,-26.6,1.5,-2.3,4460,2496,,,,,,,,,,,,,,,,,
15986,1469912168646,,,,,,,-0.18,0.76,1.1,-26.3,1.1,-2.5,4920,2521,,,,,,,,,,,,,,,,,
16006,1469912168666,,,,,,,-0.19,0.75,1.08,-26.4,2.6,-2.5,4560,2521,,,,,,,,,,,,,,,,,
16026,1469912168686,,,,,,,-0.17,0.68,1.07,-26.1,2.2,-2.7,4680,2496,,,,,,,,,,,,,,,,,
16046,1469912168805,0,271.4,204.7,55,206.7,13.77,-0.23,0.66,1.13,-25.6,1.0,-2.5,4920,2521,1.883,2,39.53809,-122.33522,42.67,0.206,327.3,8,2,1.8,0,0.0,-1,0.0,0.0,0.0,0
16066,1469912168825,,,,,,,-0.24,0.64,1.16,-25.4,2.5,-2.5,4680,2529,,,,,,,,,,,,,,,,,
16086,1469912168845,,,,,,,-0.23,0.63,1.16,-25.4,1.2,-2.7,4800,2538,,,,,,,,,,,,,,,,,
16106,1469912168865,,,,,,,-0.24,0.71,1.11,-25.4,1.8,-2.9,4800,2538,,,,,,,,,,,,,,,,,
16126,1469912168885,,,,,,,-0.19,0.68,1.15,-25.3,2.2,-3.4,4840,2538,,,,,,,,,,,,,,,,,
16146,1469912168905,,,,61,,,-0.21,0.63,1.11,-24.9,1.2,-2.9,5060,2563,1.917,2,39.53809,-122.33522,42.67,0.206,327.3,8,2,1.8,0,0.0,-1,0.0,,0.0,0
16166,1469912168925,,,,,,,-0.2,0.61,1.1,-24.5,2.0,-2.8,4600,2555,,,,,,,,,,,,,,,,,
16186,1469912168945,,,,,,,-0.21,0.65,1.06,-24.3,0.8,-2.8,4980,2572,,,,,,,,,,,,,,,,,
16206,1469912168965,,,,,,,-0.25,0.7,1.03,-24.0,2.1,-3.0,4620,2572,,,,,,,,,,,,,,,,,
16226,1469912168985,,,,,,,-0.15,0.69,1.07,-23.7,2.6,-3.5,4960,2598,,,,,,,,,,,,,,,,,
16246,1469912168901,0,271.7,205.0,50,207.6,,-0.15,0.74,1.09,-23.4,0.7,-3.4,5140,2589,1.845,2,39.538082,-122.335197,43.07,0.208,327.0,8,2,1.8,0,0.0,-1,0.0,0.0,0.0,0
16266,1469912168921,,,,,,,-0.16,0.73,1.13,-23.1,3.1,-3.4,4640,2606,,,,,,,,,,,,,,,,,
16286,1469912168941,,,,,,,-0.11,0.81,1.18,-23.0,1.9,-3.4,4980,2589,,,,,,,,,,,,,,,,,
16306,1469912168961,,,,,,,-0.19,0.76,1.14,-23.0,0.8,-3.3,4720,2615,,,,,,,,,,,,,,,,,
16326,1469912168981,,,,,,,-0.25,0.71,1.08,-22.9,2.1,-3.3,5040,2615,,,,,,,,,,,,,,,,,
16346,1469912169005,,,,54,,,-0.24,0.77,1.13,-22.8,2.1,-3.6,4860,2633,1.831,2,39.538071,-122.335182,44.0,0.209,326.6,8,2,1.8,0,0.0,-1,0.0,,0.0,0
16366,1469912169025,,,,,,,-0.27,0.7,1.04,-22.7,2.4,-3.4,5100,2652,,,,,,,,,,,,,,,,,
16386,1469912169045,,,,,,,-0.21,0.65,1.0,-22.5,4.3,-3.1,4800,2670,,,,,,,,,,,,,,,,,
16406,1469912169065,,,,,,,-0.17,0.71,0.97,-22.3,3.4,-3.1,5140,2652,,,,,,,,,,,,,,,,,
16426,1469912169085,,,,,,,-0.21,0.69,0.96,-22.3,5.1,-3.2,4960,2689,,,,,,,,,,,,,,,,,
16446,1469912169108,0,271.4,205.6,73,207.6,,-0.2,0.66,0.92,-22.5,6.6,-2.9,5140,2670,1.946,2,39.538063,-122.335159,44.67,0.21,326.2,8,2,1.8,0,0.0,-1,0.0,0.0,0.0,0
16466,1469912169128,,,,,,,-0.15,0.71,1.0,-22.3,3.3,-3.0,5080,2680,,,,,,,,,,,,,,,,,
16486,1469912169148,,,,,,,-0.25,0.72,0.99,-21.9,2.0,-2.8,5140,2680,,,,,,,,,,,,,,,,,
16506,1469912169168,,,,,,,-0.24,0.72,1.01,-21.7,4.3,-2.9,4900,2670,,,,,,,,,,,,,,,,,
16526,1469912169188,,,,,,,-0.21,0.75,1.07,-21.3,2.8,-3.0,5140,2689,,,,,,,,,,,,,,,,,
16546,1469912169208,,,,50,,,-0.22,0.7,1.06,-21.3,1.4,-2.8,5240,2689,1.851,2,39.538055,-122.335129,45.09,0.212,325.8,8,2,1.8,0,0.0,-1,0.0,,0.0,0
16566,1469912169228,,,,,,,-0.25,0.76,1.03,-21.2,2.8,-2.5,4920,2698,,,,,,,,,,,,,,,,,
16586,1469912169248,,,,,,,-0.21,0.72,1.04,-21.4,2.4,-2.2,5200,2727,,,,,,,,,,,,,,,,,
16606,1469912169268,,,,,,,-0.25,0.76,1.01,-21.3,1.6,-1.9,5200,2727,,,,,,,,,,,,,,,,,
16626,1469912169288,,,,,,,-0.28,0.77,0.97,-21.4,3.3,-1.7,5140,2746,,,,,,,,,,,,,,,,,
16646,1469912169308,0,270.2,204.5,63,207.1,,-0.23,0.72,1.02,-21.8,5.0,-1.6,5140,2776,1.856,2,39.538044,-122.335121,45.89,0.213,325.4,8,2,1.8,0,0.0,-1,0.0,0.0,0.0,0
16666,1469912169328,,,,,,,-0.19,0.71,1.03,-21.6,1.4,-2.1,5340,2727,,,,,,,,,,,,,,,,,
16686,1469912169348,,,,,,,-0.26,0.72,1.06,-21.8,1.1,-2.3,5360,2736,,,,,,,,,,,,,,,,,
16706,1469912169368,,,,,,,-0.32,0.75,1.07,-21.4,2.7,-2.2,5020,2776,,,,,,,,,,,,,,,,,
16726,1469912169388,,,,,,,-0.32,0.72,1.09,-21.8,4.7,-1.8,5280,2786,,,,,,,,,,,,,,,,,
16746,1469912169407,,,,49,,,-0.31,0.64,1.17,-21.7,3.4,-2.0,5120,2766,1.952,2,39.53804,-122.335091,46.38,0.214,325.1,8,2,1.8,0,0.0,-1,0.0,,0.0,0
16766,1469912169427,,,,,,,-0.35,0.62,1.15,-21.3,1.9,-2.0,5160,2796,,,,,,,,,,,,,,,,,
16786,1469912169447,,,,,,,-0.36,0.66,1.1,-21.1,2.5,-2.0,5260,2816,,,,,,,,,,,,,,,,,
16806,1469912169467,,,,,,,-0.34,0.59,1.06,-20.9,2.6,-2.0,5280,2827,,,,,,,,,,,,,,,,,
16826,1469912169487,,,,,,,-0.31,0.58,1.15,-20.4,-0.2,-2.1,5420,2786,,,,,,,,,,,,,,,,,
16846,1469912169604,0,271.0,204.1,52,206.2,,-0.35,0.51,1.1,-20.5,-0.0,-2.0,5300,2776,1.952,2,39.538021,-122.335045,47.74,0.217,324.4,8,2,1.8,0,0.0,-1,0.0,0.0,0.0,0
16866,1469912169624,,,,,,,-0.34,0.57,1.04,-20.2,1.6,-1.7,5240,2838,,,,,,,,,,,,,,,,,
16886,1469912169644,,,,,,,-0.29,0.59,1.03,-20.5,4.6,-1.4,5320,2806,,,,,,,,,,,,,,,,,
16906,1469912169664,,,,,,,-0.2,0.56,1.12,-20.9,3.4,-0.6,5460,2880,,,,,,,,,,,,,,,,,
16926,1469912169684,,,,,,,-0.19,0.63,1.03,-20.6,1.7,-0.6,5440,2847,,,,,,,,,,,,,,,,,
16946,1469912169704,,,,45,,,-0.17,0.62,1.1,-20.2,0.7,-0.5,5480,2858,1.854,2,39.538021,-122.335045,47.74,0.217,324.4,8,2,1.8,0,0.0,-1,0.0,,0.0,0
16966,1469912169724,,,,,,,-0.17,0.68,1.04,-20.0,1.7,-0.5,5320,2858,,,,,,,,,,,,,,,,,
16986,1469912169744,,,,,,,-0.2,0.64,1.13,-19.8,2.7,-0.7,5440,2858,,,,,,,,,,,,,,,,,
17006,1469912169764,,,,,,,-0.2,0.64,1.15,-19.7,0.8,-0.8,5460,2847,,,,,,,,,,,,,,,,,
17026,1469912169784,,,,,,,-0.3,0.72,1.13,-19.6,-0.5,-0.9,5380,2890,,,,,,,,,,,,,,,,,
17046,1469912169705,0,270.5,204.8,42,206.9,13.82,-0.36,0.65,1.18,-19.3,-0.0,-1.0,5520,2858,1.938,2,39.538017,-122.33503,48.33,0.218,324.0,8,2,1.8,0,0.0,-1,0.0,0.0,0.0,0
17066,1469912169725,,,,,,,-0.34,0.66,1.18,-18.6,2.3,-0.9,5460,2890,,,,,,,,,,,,,,,,,
17086,1469912169745,,,,,,,-0.33,0.66,1.19,-18.7,5.1,-0.9,5360,2890,,,,,,,,,,,,,,,,,
17106,1469912169765,,,,,,,-0.27,0.61,1.11,-18.5,4.0,-0.6,5500,2890,,,,,,,,,,,,,,,,,
17126,1469912169785,,,,,,,-0.24,0.6,1.15,-18.0,3.1,-1.1,5580,2880,,,,,,,,,,,,,,,,,
17146,1469912169808,,,,78,,,-0.21,0.62,1.07,-17.4,1.9,-1.3,5580,2946,1.875,2,39.53801,-122.335007,48.94,0.219,323.6,8,2,1.8,0,0.0,-1,0.0,,0.0,0
17166,1469912169828,,,,,,,-0.13,0.62,1.15,-17.0,1.3,-1.1,5540,2946,,,,,,,,,,,,,,,,,
17186,1469912169848,,,,,,,-0.12,0.69,1.08,-16.7,1.7,-1.1,5560,2969,,,,,,,,,,,,,,,,,
17206,1469912169868,,,,,,,-0.14,0.64,1.09,-16.6,1.9,-0.9,5400,2946,,,,,,,,,,,,,,,,,
17226,1469912169888,,,,,,,-0.14,0.53,1.08,-16.3,0.2,-0.6,5500,2958,,,,,,,,,,,,,,,,,
17246,1469912169901,0,270.5,204.8,68,207.0,,-0.15,0.51,1.07,-16.1,-2.0,-0.4,5600,2946,1.929,2,39.538006,-122.334976,49.6,0.221,323.2,8,2,1.8,0,0.0,-1,0.0,0.0,0.0,0
17266,1469912169921,,,,,,,-0.19,0.6,1.04,-16.0,-3.8,-0.3,5720,2958,,,,,,,,,,,,,,,,,
17286,1469912169941,,,,,,,-0.27,0.59,0.93,-15.8,-4.3,-0.2,5520,3015,,,,,,,,,,,,,,,,,
17306,1469912169961,,,,,,,-0.3,0.56,0.96,-15.5,-3.3,0.1,5500,2969,,,,,,,,,,,,,,,,,
17326,1469912169981,,,,,,,-0.31,0.59,1.02,-15.1,-1.2,0.2,5700,2992,,,,,,,,,,,,,,,,,
