"Interval"|"ms"|0|0|1,"Utc"|"ms"|0|0|1,"FuelLevel"|"F"|0|100|5,"OilTemp"|"F"|0.0|300.0|5,"Coolant"|"F"|0.0|300.0|5,"OilPress"|"PSI"|0|150|10,"EngineTemp"|"F"|0.0|300.0|5,"Battery"|"Volts"|0.0|20.0|1,"AccelX"|"G"|-3.0|3.0|50,"AccelY"|"G"|-3.0|3.0|50,"AccelZ"|"G"|-3.0|3.0|50,"Yaw"|"Deg/Sec"|-300.0|300.0|50,"Pitch"|"Deg/Sec"|-300.0|300.0|50,"Roll"|"Deg/Sec"|-300.0|300.0|50,"RPM"|""|0|10000|50,"Driveshaft"|"RPM"|0|5000|50,"GearRatio"|""|-5.0|5.0|10,"Gear"|""|-1|5|10,"Latitude"|"Degrees"|-180.0|180.0|10,"Longitude"|"Degrees"|-180.0|180.0|10,"Speed"|"MPH"|0.0|150.0|10,"Distance"|"Miles"|0.0|0.0|10,"Altitude"|"Feet"|0.0|4000.0|10,"GPSSats"|""|0|20|10,"GPSQual"|""|0|5|10,"GPSDOP"|""|0.0|20.0|10,"LapCount"|""|0|0|10,"LapTime"|"Min"|0.0|0.0|10,"Sector"|""|0|0|10,"SectorTime"|"Min"|0.0|0.0|10,"PredTime"|"Min"|0.0|0.0|5,"ElapsedTime"|"Min"|0.0|0.0|10,"CurrentLap"|""|0|0|10
698706,1469911417333,,,,,,,-0.01,0.08,0.98,-2.9,-0.4,-0.4,200,0,,,,,,,,,,,,,,,,,
698726,1469911417353,,,,,,,-0.02,0.08,0.98,-2.9,-0.4,-0.4,200,0,,,,,,,,,,,,,,,,,
698746,1469911417373,,,,0,,,-0.02,0.07,0.98,-2.8,-0.4,-0.4,200,0,0.0,0,39.54034,-122.331574,1.82,0.393,366.8,7,2,2.1,0,0.0,-1,0.0,,0.0,0
698766,1469911417393,,,,,,,-0.01,0.07,0.98,-2.9,-0.3,-0.3,200,0,,,,,,,,,,,,,,,,,
698786,1469911417413,,,,,,,-0.02,0.08,0.98,-2.8,-0.7,-0.4,200,0,,,,,,,,,,,,,,,,,
698806,1469911417433,,,,,,,-0.03,0.07,0.98,-2.8,-0.7,-0.6,180,0,,,,,,,,,,,,,,,,,
698826,1469911417453,,,,,,,-0.02,0.07,0.98,-2.9,-0.5,-0.6,180,0,,,,,,,,,,,,,,,,,
698846,1469911417473,0,191.3,179.6,0,178.9,,-0.02,0.07,0.98,-2.9,-0.4,-0.4,180,0,0.0,0,39.54034,-122.331574,1.82,0.393,366.8,7,2,2.1,0,0.0,-1,0.0,0.0,0.0,0
698866,1469911417493,,,,,,,-0.02,0.07,0.98,-2.9,-0.3,-0.4,180,0,,,,,,,,,,,,,,,,,
698886,1469911417513,,,,,,,-0.03,0.06,0.99,-2.8,-0.5,-0.5,180,0,,,,,,,,,,,,,,,,,
698906,1469911417533,,,,,,,-0.04,0.06,0.98,-2.7,-0.5,-0.7,180,0,,,,,,,,,,,,,,,,,
698926,1469911417553,,,,,,,-0.04,0.05,0.98,-2.8,-0.4,-0.6,180,0,,,,,,,,,,,,,,,,,
698946,1469911417573,,,,0,,,-0.04,0.05,0.98,-2.8,-0.3,-0.4,180,0,0.0,0,39.54034,-122.331574,1.82,0.393,366.8,7,2,2.1,0,0.0,-1,0.0,,0.0,0
698966,1469911417593,,,,,,,-0.04,0.05,0.98,-2.8,-0.2,-0.4,180,0,,,,,,,,,,,,,,,,,
698986,1469911417613,,,,,,,-0.05,0.04,0.98,-2.8,-0.3,-0.5,180,0,,,,,,,,,,,,,,,,,
699006,1469911417633,,,,,,,-0.05,0.01,0.99,-2.7,-0.0,-0.7,180,0,,,,,,,,,,,,,,,,,
699026,1469911417653,,,,,,,-0.04,0.01,0.99,-2.7,-0.2,-0.5,180,0,,,,,,,,,,,,,,,,,
699046,1469911417673,0,190.4,178.5,0,177.9,10.53,-0.03,0.01,0.98,-2.7,-0.1,-0.3,180,0,0.0,0,39.54034,-122.331574,1.82,0.393,366.8,7,2,2.1,0,0.0,-1,0.0,0.0,0.0,0
699066,1469911417693,,,,,,,-0.03,0.02,0.98,-2.8,0.0,-0.3,180,0,,,,,,,,,,,,,,,,,
699086,1469911417713,,,,,,,-0.02,0.04,0.99,-2.9,0.1,-0.1,180,0,,,,,,,,,,,,,,,,,
699106,1469911417733,,,,,,,-0.02,0.05,1.0,-2.9,0.4,-0.1,180,0,,,,,,,,,,,,,,,,,
699126,1469911417753,,,,,,,-0.01,0.05,1.0,-2.9,0.4,-0.2,180,0,,,,,,,,,,,,,,,,,
699146,1469911417773,,,,0,,,-0.01,0.06,1.0,-2.9,0.4,-0.2,180,0,0.0,0,39.54034,-122.331574,1.82,0.393,366.8,7,2,2.1,0,0.0,-1,0.0,,0.0,0
699166,1469911417793,,,,,,,-0.01,0.06,1.0,-2.9,0.2,-0.3,180,0,,,,,,,,,,,,,,,,,
699186,1469911417813,,,,,,,-0.01,0.05,0.99,-2.9,0.1,-0.3,180,0,,,,,,,,,,,,,,,,,
699206,1469911417833,,,,,,,-0.01,0.04,1.0,-2.9,0.3,-0.3,220,0,,,,,,,,,,,,,,,,,
699226,1469911417853,,,,,,,-0.01,0.05,0.99,-2.9,0.2,-0.2,220,0,,,,,,,,,,,,,,,,,
699246,1469911417873,0,189.9,178.0,0,177.2,,-0.01,0.05,0.99,-2.9,0.2,-0.2,220,0,0.0,0,39.54034,-122.331574,1.82,0.393,366.8,7,2,2.1,0,0.0,-1,0.0,0.0,0.0,0
699266,1469911417893,,,,,,,-0.01,0.05,0.99,-2.9,0.2,-0.2,220,0,,,,,,,,,,,,,,,,,
699286,1469911418006,,,,,,,-0.01,0.06,1.0,-2.9,0.2,-0.2,240,0,,,,,,,,,,,,,,,,,
699306,1469911418026,,,,,,,-0.01,0.04,0.99,-2.9,0.3,-0.3,240,0,,,,,,,,,,,,,,,,,
699326,1469911418046,,,,,,,-0.01,0.05,0.99,-2.9,0.3,-0.3,420,0,,,,,,,,,,,,,,,,,
699346,1469911418066,,,,0,,,-0.02,0.03,0.98,-2.9,0.4,-0.2,420,0,0.0,0,39.54034,-122.331574,1.82,0.393,366.8,7,2,2.1,0,0.0,-1,0.0,,0.0,0
699366,1469911418086,,,,,,,-0.02,0.06,0.98,-3.0,0.3,0.0,560,0,,,,,,,,,,,,,,,,,
699386,1469911418106,,,,,,,-0.02,0.07,0.98,-3.0,0.1,-0.0,620,0,,,,,,,,,,,,,,,,,
699406,1469911418126,,,,,,,-0.01,0.06,0.98,-3.0,0.1,-0.2,620,0,,,,,,,,,,,,,,,,,
699426,1469911418146,,,,,,,-0.01,0.07,0.98,-3.0,0.3,-0.1,580,0,,,,,,,,,,,,,,,,,
699446,1469911418166,0,191.3,179.7,0,178.8,,-0.01,0.05,0.98,-3.0,0.2,-0.2,580,0,0.0,0,39.54034,-122.331574,1.82,0.393,366.8,7,2,2.1,0,0.0,-1,0.0,0.0,0.0,0
699466,1469911418093,,,,,,,-0.01,0.08,0.99,-3.1,0.0,0.0,560,0,,,,,,,,,,,,,,,,,
699486,1469911418113,,,,,,,-0.01,0.07,0.97,-3.0,-0.1,-0.1,620,0,,,,,,,,,,,,,,,,,
699506,1469911418133,,,,,,,-0.01,0.07,0.98,-3.0,0.0,-0.2,620,0,,,,,,,,,,,,,,,,,
699526,1469911418153,,,,,,,-0.0,0.08,0.99,-3.0,0.0,-0.1,600,0,,,,,,,,,,,,,,,,,
699546,1469911418173,,,,0,,,-0.01,0.06,0.97,-2.9,-0.2,-0.2,600,0,0.0,0,39.54034,-122.331574,1.82,0.393,366.8,7,2,2.1,0,0.0,-1,0.0,,0.0,0
699566,1469911418193,,,,,,,-0.01,0.08,0.97,-3.0,-0.4,0.1,620,0,,,,,,,,,,,,,,,,,
699586,1469911418213,,,,,,,-0.0,0.08,0.98,-2.9,-0.5,0.1,760,0,,,,,,,,,,,,,,,,,
699606,1469911418233,,,,,,,-0.02,0.09,0.98,-2.9,-0.6,-0.3,840,0,,,,,,,,,,,,,,,,,
699626,1469911418253,,,,,,,-0.02,0.08,0.98,-2.9,-0.4,-0.4,900,0,,,,,,,,,,,,,,,,,
699646,1469911418273,0,190.9,179.1,0,178.0,,-0.02,0.06,0.98,-2.8,-0.6,-0.4,940,0,0.0,0,39.54034,-122.331574,1.82,0.393,366.8,7,2,2.1,0,0.0,-1,0.0,0.0,0.0,0
699666,1469911418293,,,,,,,-0.02,0.07,0.98,-3.0,-0.8,-0.2,1000,0,,,,,,,,,,,,,,,,,
699686,1469911418313,,,,,,,-0.03,0.04,0.97,-3.0,-0.6,-0.1,1000,0,,,,,,,,,,,,,,,,,
699706,1469911418333,,,,,,,-0.04,0.04,0.97,-3.0,-0.6,0.0,1060,0,,,,,,,,,,,,,,,,,
699726,1469911418353,,,,,,,-0.05,0.05,0.98,-3.1,-0.7,0.0,1120,0,,,,,,,,,,,,,,,,,
699746,1469911418373,,,,0,,,-0.04,0.06,0.98,-3.1,-0.9,-0.1,1100,0,0.0,0,39.54034,-122.331574,1.82,0.393,366.8,7,2,2.1,0,0.0,-1,0.0,,0.0,0
699766,1469911418393,,,,,,,-0.04,0.08,0.98,-3.0,-1.2,-0.2,1120,0,,,,,,,,,,,,,,,,,
699786,1469911418413,,,,,,,-0.02,0.09,0.98,-3.1,-0.9,-0.2,1160,0,,,,,,,,,,,,,,,,,
699806,1469911418433,,,,,,,-0.02,0.09,0.97,-3.1,-0.8,-0.1,1200,0,,,,,,,,,,,,,,,,,
699826,1469911418453,,,,,,,-0.02,0.09,0.98,-3.0,-0.7,-0.1,1200,0,,,,,,,,,,,,,,,,,
699846,1469911418473,0,189.5,177.8,0,176.8,,-0.02,0.09,0.98,-3.0,-0.5,-0.1,1220,0,0.0,0,39.54034,-122.331574,1.82,0.393,366.8,7,2,2.1,0,0.0,-1,0.0,0.0,0.0,0
699866,1469911418492,,,,,,,-0.02,0.09,0.97,-3.0,-0.6,-0.1,1220,0,,,,,,,,,,,,,,,,,
699886,1469911418512,,,,,,,-0.02,0.09,0.99,-3.0,-0.3,-0.1,1240,0,,,,,,,,,,,,,,,,,
699906,1469911418532,,,,,,,-0.02,0.09,0.98,-3.1,-0.3,-0.1,1240,0,,,,,,,,,,,,,,,,,
699926,1469911418552,,,,,,,-0.02,0.09,0.98,-3.0,-0.1,-0.2,1260,0,,,,,,,,,,,,,,,,,
699946,1469911418572,,,,1,,,-0.02,0.08,0.98,-3.0,-0.1,-0.1,1260,0,0.0,0,39.54034,-122.331574,1.82,0.393,366.8,7,2,2.1,0,0.0,-1,0.0,,0.0,0
699966,1469911418593,,,,,,,-0.01,0.08,0.98,-3.0,-0.0,-0.2,1260,0,,,,,,,,,,,,,,,,,
699986,1469911418613,,,,,,,-0.02,0.08,0.98,-3.0,-0.1,-0.1,1220,0,,,,,,,,,,,,,,,,,
700006,1469911418633,,,,,,,-0.01,0.08,0.98,-2.9,0.0,-0.2,1260,0,,,,,,,,,,,,,,,,,
700026,1469911418653,,,,,,,-0.02,0.08,0.97,-2.9,-0.1,-0.2,1260,0,,,,,,,,,,,,,,,,,
700046,1469911418673,0,191.5,179.0,4,178.1,13.08,-0.01,0.08,0.98,-2.9,0.0,-0.2,1200,0,0.0,0,39.54034,-122.331574,1.82,0.393,366.8,7,2,2.1,0,0.0,-1,0.0,0.0,0.0,0
700066,1469911418792,,,,,,,-0.02,0.08,0.98,-3.0,0.0,-0.1,1220,0,,,,,,,,,,,,,,,,,
700086,1469911418812,,,,,,,-0.02,0.07,0.98,-2.9,0.1,-0.2,1180,0,,,,,,,,,,,,,,,,,
700106,1469911418832,,,,,,,-0.02,0.07,0.99,-2.9,0.1,-0.1,1180,0,,,,,,,,,,,,,,,,,
700126,1469911418852,,,,,,,-0.01,0.07,0.99,-2.9,0.2,-0.2,1200,0,,,,,,,,,,,,,,,,,
700146,1469911418872,,,,1,,,-0.01,0.07,0.99,-2.9,0.3,-0.2,1140,0,0.0,0,39.54034,-122.331574,1.82,0.393,366.8,7,2,2.1,0,0.0,-1,0.0,,0.0,0
700166,1469911418892,,,,,,,-0.01,0.07,0.99,-2.9,0.2,-0.1,1120,0,,,,,,,,,,,,,,,,,
700186,1469911418912,,,,,,,-0.01,0.07,0.99,-2.9,0.3,-0.1,1140,0,,,,,,,,,,,,,,,,,
700206,1469911418932,,,,,,,-0.02,0.07,1.0,-3.0,0.2,-0.1,1120,0,,,,,,,,,,,,,,,,,
700226,1469911418952,,,,,,,-0.02,0.07,0.99,-3.0,0.2,-0.2,1120,0,,,,,,,,,,,,,,,,,
700246,1469911418972,0,191.3,179.7,3,178.7,,-0.02,0.07,0.99,-2.9,0.1,-0.1,1100,0,0.0,0,39.54034,-122.331574,1.82,0.393,366.8,7,2,2.1,0,0.0,-1,0.0,0.0,0.0,0
700266,1469911418992,,,,,,,-0.02,0.07,0.99,-2.9,0.2,-0.2,1060,0,,,,,,,,,,,,,,,,,
700286,1469911418907,,,,,,,-0.01,0.07,0.99,-2.9,0.2,-0.2,1080,0,,,,,,,,,,,,,,,,,
700306,1469911418927,,,,,,,-0.01,0.07,0.99,-2.9,0.1,-0.2,1040,0,,,,,,,,,,,,,,,,,
700326,1469911418947,,,,,,,-0.01,0.06,0.99,-2.9,0.1,-0.2,1040,0,,,,,,,,,,,,,,,,,
700346,1469911418967,,,,8,,,-0.01,0.07,0.99,-2.9,0.0,-0.2,1020,0,0.0,0,39.54034,-122.331574,1.82,0.393,366.8,7,2,2.1,0,0.0,-1,0.0,,0.0,0
700366,1469911418993,,,,,,,-0.01,0.07,0.99,-2.9,0.0,-0.2,1000,0,,,,,,,,,,,,,,,,,
700386,1469911419013,,,,,,,-0.01,0.07,0.99,-2.9,0.1,-0.2,980,0,,,,,,,,,,,,,,,,,
700406,1469911419033,,,,,,,-0.01,0.07,0.99,-3.0,0.1,-0.2,980,0,,,,,,,,,,,,,,,,,
700426,1469911419053,,,,,,,-0.01,0.07,0.99,-3.0,0.1,-0.2,960,0,,,,,,,,,,,,,,,,,
700446,1469911419073,0,191.4,179.7,10,178.8,,-0.01,0.07,0.99,-3.0,0.1,-0.2,940,0,0.0,0,39.54034,-122.331574,1.82,0.393,366.8,7,2,2.1,0,0.0,-1,0.0,0.0,0.0,0
700466,1469911419093,,,,,,,-0.01,0.07,0.98,-3.0,0.1,-0.2,920,0,,,,,,,,,,,,,,,,,
700486,1469911419113,,,,,,,-0.01,0.07,0.99,-2.9,0.1,-0.2,920,0,,,,,,,,,,,,,,,,,
700506,1469911419133,,,,,,,-0.01,0.07,0.98,-2.9,0.1,-0.2,860,0,,,,,,,,,,,,,,,,,
700526,1469911419153,,,,,,,-0.01,0.07,0.98,-2.9,0.1,-0.2,860,0,,,,,,,,,,,,,,,,,
700546,1469911419173,,,,11,,,-0.01,0.07,0.98,-2.9,0.1,-0.2,840,0,0.0,0,39.54034,-122.331574,1.82,0.393,366.8,7,2,2.1,0,0.0,-1,0.0,,0.0,0
700566,1469911419193,,,,,,,-0.01,0.07,0.98,-2.9,0.1,-0.2,840,0,,,,,,,,,,,,,,,,,
700586,1469911419213,,,,,,,-0.01,0.07,0.98,-2.9,0.2,-0.2,820,0,,,,,,,,,,,,,,,,,
700606,1469911419233,,,,,,,-0.01,0.07,0.98,-3.0,0.2,-0.2,800,0,,,,,,,,,,,,,,,,,
700626,1469911419253,,,,,,,-0.01,0.07,0.99,-3.0,0.3,-0.2,800,0,,,,,,,,,,,,,,,,,
700646,1469911419273,0,189.6,177.8,11,176.8,,-0.02,0.07,0.98,-2.9,0.2,-0.2,760,0,0.0,0,39.54034,-122.331574,1.82,0.393,366.8,7,2,2.1,0,0.0,-1,0.0,0.0,0.0,0
700666,1469911419293,,,,,,,-0.01,0.07,0.98,-3.0,0.2,-0.2,760,0,,,,,,,,,,,,,,,,,
700686,1469911419313,,,,,,,-0.01,0.07,0.99,-3.0,0.2,-0.1,760,0,,,,,,,,,,,,,,,,,
700706,1469911419333,,,,,,,-0.01,0.07,0.99,-2.9,0.2,-0.1,740,0,,,,,,,,,,,,,,,,,
700726,1469911419353,,,,,,,-0.01,0.07,0.99,-2.9,0.2,-0.2,740,0,,,,,,,,,,,,,,,,,
700746,1469911419373,,,,10,,,-0.01,0.07,0.98,-3.0,0.2,-0.1,740,0,0.0,0,39.54034,-122.331574,1.82,0.393,366.8,7,2,2.1,0,0.0,-1,0.0,,0.0,0
700766,1469911419393,,,,,,,-0.01,0.07,0.99,-3.0,0.2,-0.1,720,0,,,,,,,,,,,,,,,,,
700786,1469911419413,,,,,,,-0.01,0.07,0.99,-3.0,0.2,-0.1,700,0,,,,,,,,,,,,,,,,,
700806,1469911419433,,,,,,,-0.02,0.07,0.98,-2.9,0.2,-0.1,700,0,,,,,,,,,,,,,,,,,
700826,1469911419453,,,,,,,-0.01,0.07,0.98,-3.0,0.2,-0.1,680,0,,,,,,,,,,,,,,,,,
700846,1469911419473,0,189.9,178.2,10,176.8,,-0.01,0.07,0.98,-3.0,0.2,-0.0,680,0,0.0,0,39.54034,-122.331574,1.82,0.393,366.8,7,2,2.1,0,0.0,-1,0.0,0.0,0.0,0
700866,1469911419592,,,,,,,-0.01,0.07,0.99,-2.9,0.3,-0.1,680,0,,,,,,,,,,,,,,,,,
700886,1469911419612,,,,,,,-0.01,0.07,0.98,-2.9,0.3,-0.1,660,0,,,,,,,,,,,,,,,,,
700906,1469911419632,,,,,,,-0.01,0.07,0.98,-2.9,0.3,-0.1,640,0,,,,,,,,,,,,,,,,,
700926,1469911419652,,,,,,,-0.01,0.06,0.98,-2.9,0.2,-0.2,640,0,,,,,,,,,,,,,,,,,
700946,1469911419672,,,,9,,,-0.01,0.07,0.99,-2.9,0.2,-0.1,640,0,0.0,0,39.54034,-122.331574,1.82,0.393,366.8,7,2,2.1,0,0.0,-1,0.0,,0.0,0
700966,1469911419692,,,,,,,-0.01,0.07,0.99,-2.9,0.2,-0.1,620,0,,,,,,,,,,,,,,,,,
700986,1469911419712,,,,,,,-0.01,0.06,0.98,-2.9,0.3,-0.1,620,0,,,,,,,,,,,,,,,,,
701006,1469911419732,,,,,,,-0.01,0.07,0.98,-2.9,0.2,-0.0,600,0,,,,,,,,,,,,,,,,,
701026,1469911419752,,,,,,,-0.01,0.07,0.98,-2.9,0.2,-0.1,620,0,,,,,,,,,,,,,,,,,
701046,1469911419772,0,191.2,179.7,8,178.2,12.94,-0.01,0.07,0.98,-2.9,0.3,-0.1,620,0,0.0,0,39.54034,-122.331574,1.82,0.393,366.8,7,2,2.1,0,0.0,-1,0.0,0.0,0.0,0
701066,1469911419693,,,,,,,-0.01,0.07,0.98,-2.9,0.3,-0.1,620,0,,,,,,,,,,,,,,,,,
701086,1469911419713,,,,,,,-0.01,0.07,0.98,-2.9,0.3,-0.2,620,0,,,,,,,,,,,,,,,,,
701106,1469911419733,,,,,,,-0.01,0.08,0.99,-2.9,0.4,-0.1,620,0,,,,,,,,,,,,,,,,,
701126,1469911419753,,,,,,,-0.01,0.08,0.98,-2.9,0.3,-0.1,600,0,,,,,,,,,,,,,,,,,
701146,1469911419773,,,,8,,,-0.01,0.08,0.99,-2.9,0.3,-0.2,600,0,0.0,0,39.54034,-122.331574,1.82,0.393,366.8,7,2,2.1,0,0.0,-1,0.0,,0.0,0
701166,1469911419793,,,,,,,-0.01,0.08,0.99,-3.0,0.2,-0.2,620,0,,,,,,,,,,,,,,,,,
701186,1469911419813,,,,,,,-0.01,0.07,0.98,-2.9,0.1,-0.3,620,0,,,,,,,,,,,,,,,,,
701206,1469911419833,,,,,,,-0.01,0.07,0.98,-2.9,0.2,-0.2,560,0,,,,,,,,,,,,,,,,,
701226,1469911419853,,,,,,,-0.01,0.07,0.99,-2.9,0.1,-0.2,600,0,,,,,,,,,,,,,,,,,
701246,1469911419873,0,189.7,178.2,9,176.5,,-0.01,0.07,0.99,-2.9,0.1,-0.2,600,0,0.0,0,39.54034,-122.331574,1.82,0.393,366.8,7,2,2.1,0,0.0,-1,0.0,0.0,0.0,0
701266,1469911419893,,,,,,,-0.01,0.07,0.99,-2.9,0.1,-0.2,600,0,,,,,,,,,,,,,,,,,
701286,1469911419907,,,,,,,-0.01,0.07,0.99,-2.9,0.1,-0.2,600,0,,,,,,,,,,,,,,,,,
701306,1469911419927,,,,,,,-0.01,0.07,0.99,-2.9,0.2,-0.1,600,0,,,,,,,,,,,,,,,,,
701326,1469911419947,,,,,,,-0.01,0.07,0.99,-3.0,0.2,-0.1,620,0,,,,,,,,,,,,,,,,,
701346,1469911419967,,,,8,,,-0.01,0.07,0.99,-2.9,0.2,-0.1,620,0,0.0,0,39.54034,-122.331574,1.82,0.393,366.8,7,2,2.1,0,0.0,-1,0.0,,0.0,0
701366,1469911419993,,,,,,,-0.01,0.07,0.98,-2.9,0.2,-0.1,620,0,,,,,,,,,,,,,,,,,
701386,1469911420013,,,,,,,-0.01,0.07,0.98,-2.9,0.1,-0.2,600,0,,,,,,,,,,,,,,,,,
701406,1469911420033,,,,,,,-0.01,0.07,0.99,-2.9,0.1,-0.2,600,0,,,,,,,,,,,,,,,,,
701426,1469911420053,,,,,,,-0.01,0.07,0.99,-2.9,0.2,-0.2,620,0,,,,,,,,,,,,,,,,,
701446,1469911420073,0,189.6,178.3,9,176.4,,-0.01,0.06,0.99,-2.9,0.2,-0.2,640,0,0.0,0,39.54034,-122.331574,1.82,0.393,366.8,7,2,2.1,0,0.0,-1,0.0,0.0,0.0,0
701466,1469911420093,,,,,,,-0.01,0.07,0.99,-2.9,0.2,-0.2,640,0,,,,,,,,,,,,,,,,,
701486,1469911420113,,,,,,,-0.01,0.07,0.99,-3.0,0.2,-0.2,640,0,,,,,,,,,,,,,,,,,
701506,1469911420133,,,,,,,-0.01,0.06,0.99,-2.9,0.1,-0.2,640,0,,,,,,,,,,,,,,,,,
701526,1469911420153,,,,,,,-0.01,0.06,0.99,-2.9,0.2,-0.2,660,0,,,,,,,,,,,,,,,,,
701546,1469911420173,,,,9,,,-0.01,0.06,0.99,-2.9,0.1,-0.2,660,0,0.0,0,39.54034,-122.331574,1.82,0.393,366.8,7,2,2.1,0,0.0,-1,0.0,,0.0,0
701566,1469911420193,,,,,,,-0.02,0.05,0.98,-2.9,0.1,-0.3,660,0,,,,,,,,,,,,,,,,,
701586,1469911420213,,,,,,,-0.01,0.06,0.99,-2.9,0.1,-0.1,620,0,,,,,,,,,,,,,,,,,
701606,1469911420233,,,,,,,-0.01,0.07,0.99,-2.9,0.1,-0.1,660,0,,,,,,,,,,,,,,,,,
701626,1469911420253,,,,,,,-0.01,0.07,0.99,-2.9,0.2,-0.2,660,0,,,,,,,,,,,,,,,,,
701646,1469911420273,0,190.6,179.3,10,177.4,,-0.01,0.08,0.99,-3.0,0.2,-0.1,680,0,0.0,0,39.54034,-122.331574,1.82,0.393,366.8,7,2,2.1,0,0.0,-1,0.0,0.0,0.0,0
701666,1469911420393,,,,,,,-0.01,0.08,0.99,-2.9,0.2,-0.1,680,0,,,,,,,,,,,,,,,,,
701686,1469911420413,,,,,,,-0.01,0.07,0.99,-2.9,0.1,-0.2,700,0,,,,,,,,,,,,,,,,,
701706,1469911420433,,,,,,,-0.01,0.07,0.99,-2.9,0.2,-0.2,700,0,,,,,,,,,,,,,,,,,
701726,1469911420453,,,,,,,-0.01,0.08,1.0,-2.9,0.3,-0.2,700,0,,,,,,,,,,,,,,,,,
701746,1469911420473,,,,11,,,-0.01,0.07,0.99,-2.9,0.3,-0.3,680,0,0.0,0,39.54034,-122.331574,1.82,0.393,366.8,7,2,2.1,0,0.0,-1,0.0,,0.0,0
701766,1469911420493,,,,,,,-0.01,0.07,0.99,-2.9,0.3,-0.3,680,0,,,,,,,,,,,,,,,,,
701786,1469911420513,,,,,,,-0.01,0.07,0.99,-2.9,0.4,-0.2,700,0,,,,,,,,,,,,,,,,,
701806,1469911420533,,,,,,,-0.01,0.06,0.99,-2.9,0.5,-0.2,700,0,,,,,,,,,,,,,,,,,
701826,1469911420553,,,,,,,-0.02,0.06,0.99,-2.9,0.5,-0.3,700,0,,,,,,,,,,,,,,,,,
701846,1469911420573,0,189.9,178.9,10,176.8,,-0.01,0.07,0.99,-2.9,0.6,-0.2,720,0,0.0,0,39.54034,-122.331574,1.82,0.393,366.8,7,2,2.1,0,0.0,-1,0.0,0.0,0.0,0
701866,1469911420493,,,,,,,-0.02,0.07,0.98,-2.9,0.5,-0.1,720,0,,,,,,,,,,,,,,,,,
701886,1469911420513,,,,,,,-0.02,0.07,0.99,-2.9,0.4,-0.2,720,0,,,,,,,,,,,,,,,,,
701906,1469911420533,,,,,,,-0.02,0.07,0.98,-2.9,0.4,-0.2,720,0,,,,,,,,,,,,,,,,,
701926,1469911420553,,,,,,,-0.02,0.07,0.98,-3.0,0.3,-0.1,700,0,,,,,,,,,,,,,,,,,
701946,1469911420573,,,,11,,,-0.02,0.08,0.99,-3.0,0.2,-0.1,740,0,0.0,0,39.54034,-122.331574,1.82,0.393,366.8,7,2,2.1,0,0.0,-1,0.0,,0.0,0
701966,1469911420593,,,,,,,-0.02,0.08,0.99,-3.0,0.1,-0.2,740,0,,,,,,,,,,,,,,,,,
701986,1469911420613,,,,,,,-0.02,0.08,0.98,-3.0,0.2,-0.2,740,0,,,,,,,,,,,,,,,,,
702006,1469911420633,,,,,,,-0.02,0.08,0.98,-3.0,0.2,-0.1,740,0,,,,,,,,,,,,,,,,,
702026,1469911420653,,,,,,,-0.02,0.08,0.99,-2.9,0.2,-0.1,740,0,,,,,,,,,,,,,,,,,
702046,1469911420673,0,189.9,179.0,12,176.5,13.07,-0.02,0.07,0.99,-2.9,-0.0,-0.2,740,0,0.0,0,39.54034,-122.331574,1.82,0.393,366.8,7,2,2.1,0,0.0,-1,0.0,0.0,0.0,0
702066,1469911420693,,,,,,,-0.02,0.06,0.98,-2.9,0.1,-0.2,740,0,,,,,,,,,,,,,,,,,
702086,1469911420713,,,,,,,-0.01,0.07,0.99,-2.9,0.0,-0.1,700,0,,,,,,,,,,,,,,,,,
702106,1469911420733,,,,,,,-0.01,0.07,0.99,-2.9,0.1,-0.1,740,0,,,,,,,,,,,,,,,,,
702126,1469911420753,,,,,,,-0.02,0.06,0.99,-2.9,-0.0,-0.2,740,0,,,,,,,,,,,,,,,,,
702146,1469911420773,,,,11,,,-0.01,0.06,0.99,-2.9,0.1,-0.2,740,0,0.0,0,39.54034,-122.331574,1.82,0.393,366.8,7,2,2.1,0,0.0,-1,0.0,,0.0,0
702166,1469911420793,,,,,,,-0.01,0.06,0.99,-2.9,0.1,-0.1,740,0,,,,,,,,,,,,,,,,,
702186,1469911420809,,,,,,,-0.01,0.06,0.99,-2.9,0.1,-0.1,760,0,,,,,,,,,,,,,,,,,
702206,1469911420829,,,,,,,-0.01,0.06,0.99,-2.8,0.1,-0.2,760,0,,,,,,,,,,,,,,,,,
702226,1469911420849,,,,,,,-0.01,0.05,0.98,-2.8,0.2,-0.2,760,0,,,,,,,,,,,,,,,,,
702246,1469911420869,0,191.5,180.6,12,178.0,,-0.01,0.06,0.98,-2.8,0.2,-0.1,720,0,0.0,0,39.54034,-122.331574,1.82,0.393,366.8,7,2,2.1,0,0.0,-1,0.0,0.0,0.0,0
702266,1469911420889,,,,,,,-0.0,0.06,0.99,-2.9,0.1,-0.1,760,0,,,,,,,,,,,,,,,,,
702286,1469911420907,,,,,,,-0.01,0.06,0.99,-2.8,0.0,-0.2,740,0,,,,,,,,,,,,,,,,,
702306,1469911420927,,,,,,,-0.01,0.06,0.98,-2.9,0.1,-0.2,740,0,,,,,,,,,,,,,,,,,
702326,1469911420947,,,,,,,-0.01,0.06,0.98,-2.9,0.1,-0.1,740,0,,,,,,,,,,,,,,,,,
702346,1469911420967,,,,12,,,-0.01,0.07,0.99,-2.9,0.1,-0.1,740,0,0.0,0,39.54034,-122.331574,1.82,0.393,366.8,7,2,2.1,0,0.0,-1,0.0,,0.0,0
702366,1469911420991,,,,,,,-0.01,0.07,0.98,-2.9,-0.0,-0.1,740,0,,,,,,,,,,,,,,,,,
702386,1469911421011,,,,,,,-0.01,0.06,0.98,-2.9,0.2,-0.1,740,0,,,,,,,,,,,,,,,,,
702406,1469911421031,,,,,,,-0.01,0.07,0.98,-2.9,0.1,-0.0,720,0,,,,,,,,,,,,,,,,,
702426,1469911421051,,,,,,,-0.01,0.07,0.98,-2.9,0.1,-0.1,740,0,,,,,,,,,,,,,,,,,
702446,1469911421071,0,190.6,179.7,12,176.9,,-0.01,0.06,0.98,-2.9,0.0,-0.1,740,0,0.0,0,39.54034,-122.331574,1.82,0.393,366.8,7,2,2.1,0,0.0,-1,0.0,0.0,0.0,0
702466,1469911421192,,,,,,,-0.01,0.06,0.98,-2.9,0.1,-0.1,740,0,,,,,,,,,,,,,,,,,
702486,1469911421212,,,,,,,-0.01,0.06,0.98,-2.9,0.1,-0.0,740,0,,,,,,,,,,,,,,,,,
702506,1469911421232,,,,,,,-0.01,0.07,0.98,-2.9,0.1,-0.1,740,0,,,,,,,,,,,,,,,,,
702526,1469911421252,,,,,,,-0.01,0.06,0.98,-2.9,-0.0,-0.1,720,0,,,,,,,,,,,,,,,,,
702546,1469911421272,,,,11,,,-0.01,0.06,0.98,-2.9,0.2,-0.1,720,0,0.0,0,39.54034,-122.331574,1.82,0.393,366.8,7,2,2.1,0,0.0,-1,0.0,,0.0,0
702566,1469911421292,,,,,,,-0.0,0.07,0.98,-2.9,0.1,-0.0,700,0,,,,,,,,,,,,,,,,,
702586,1469911421312,,,,,,,-0.01,0.07,0.99,-2.9,0.2,-0.1,720,0,,,,,,,,,,,,,,,,,
702606,1469911421332,,,,,,,-0.01,0.06,0.99,-2.9,0.1,-0.2,720,0,,,,,,,,,,,,,,,,,
702626,1469911421352,,,,,,,-0.01,0.06,0.99,-2.9,0.2,-0.1,720,0,,,,,,,,,,,,,,,,,
702646,1469911421372,0,189.6,178.9,11,175.9,,-0.01,0.06,0.99,-2.9,0.2,-0.1,720,0,0.0,0,39.54034,-122.331574,1.82,0.393,366.8,7,2,2.1,0,0.0,-1,0.0,0.0,0.0,0
702666,1469911421293,,,,,,,-0.01,0.06,0.99,-2.9,0.2,-0.2,720,0,,,,,,,,,,,,,,,,,
702686,1469911421313,,,,,,,-0.01,0.06,0.99,-2.9,0.2,-0.2,720,0,,,,,,,,,,,,,,,,,
702706,1469911421333,,,,,,,-0.01,0.07,0.99,-2.9,0.2,-0.1,720,0,,,,,,,,,,,,,,,,,
702726,1469911421353,,,,,,,-0.01,0.07,0.99,-2.9,0.2,-0.1,680,0,,,,,,,,,,,,,,,,,
702746,1469911421373,,,,11,,,-0.01,0.07,0.99,-2.9,0.3,-0.3,720,0,0.0,0,39.54034,-122.331574,1.82,0.393,366.8,7,2,2.1,0,0.0,-1,0.0,,0.0,0
702766,1469911421393,,,,,,,-0.01,0.08,0.99,-3.0,0.5,-0.3,720,0,,,,,,,,,,,,,,,,,
702786,1469911421413,,,,,,,-0.01,0.08,0.99,-3.0,0.5,-0.2,720,0,,,,,,,,,,,,,,,,,
702806,1469911421433,,,,,,,-0.01,0.07,0.99,-3.0,0.5,-0.2,700,0,,,,,,,,,,,,,,,,,
702826,1469911421453,,,,,,,-0.02,0.07,0.99,-3.0,0.4,-0.2,700,0,,,,,,,,,,,,,,,,,
702846,1469911421473,0,190.1,179.5,11,176.1,,-0.02,0.07,0.99,-3.1,0.5,-0.1,700,0,0.0,0,39.54034,-122.331574,1.82,0.393,366.8,7,2,2.1,0,0.0,-1,0.0,0.0,0.0,0
702866,1469911421493,,,,,,,-0.01,0.07,0.98,-3.1,0.4,-0.1,700,0,,,,,,,,,,,,,,,,,
702886,1469911421513,,,,,,,-0.01,0.07,0.99,-3.0,0.4,-0.2,680,0,,,,,,,,,,,,,,,,,
702906,1469911421533,,,,,,,-0.01,0.07,0.99,-3.1,0.4,-0.1,680,0,,,,,,,,,,,,,,,,,
702926,1469911421553,,,,,,,-0.01,0.08,0.98,-3.1,0.4,-0.0,700,0,,,,,,,,,,,,,,,,,
702946,1469911421573,,,,11,,,-0.01,0.08,0.98,-3.1,0.3,-0.1,700,0,0.0,0,39.54034,-122.331574,1.82,0.393,366.8,7,2,2.1,0,0.0,-1,0.0,,0.0,0
702966,1469911421593,,,,,,,-0.02,0.08,0.98,-3.0,0.2,-0.1,700,0,,,,,,,,,,,,,,,,,
702986,1469911421613,,,,,,,-0.01,0.08,0.99,-3.1,0.2,-0.0,700,0,,,,,,,,,,,,,,,,,
703006,1469911421633,,,,,,,-0.01,0.08,0.98,-3.0,0.3,-0.1,700,0,,,,,,,,,,,,,,,,,
703026,1469911421653,,,,,,,-0.01,0.07,0.99,-3.0,0.3,-0.2,700,0,,,,,,,,,,,,,,,,,
703046,1469911421673,0,191.0,180.5,10,177.2,13.13,-0.01,0.08,0.98,-3.1,0.5,-0.1,700,0,0.0,0,39.54034,-122.331574,1.82,0.393,366.8,7,2,2.1,0,0.0,-1,0.0,0.0,0.0,0
703066,1469911421693,,,,,,,-0.01,0.08,0.99,-3.1,0.5,-0.0,680,0,,,,,,,,,,,,,,,,,
703086,1469911421713,,,,,,,-0.01,0.07,0.98,-3.0,0.5,-0.1,700,0,,,,,,,,,,,,,,,,,
703106,1469911421733,,,,,,,-0.01,0.06,0.98,-3.0,0.4,-0.2,700,0,,,,,,,,,,,,,,,,,
703126,1469911421753,,,,,,,-0.01,0.06,0.98,-3.0,0.4,-0.1,700,0,,,,,,,,,,,,,,,,,
703146,1469911421773,,,,11,,,-0.01,0.06,0.99,-2.9,0.4,-0.1,700,0,0.0,0,39.54034,-122.331574,1.82,0.393,366.8,7,2,2.1,0,0.0,-1,0.0,,0.0,0
703166,1469911421793,,,,,,,-0.02,0.06,0.99,-3.0,0.3,-0.2,700,0,,,,,,,,,,,,,,,,,
703186,1469911421813,,,,,,,-0.01,0.07,0.98,-3.0,0.5,-0.2,700,0,,,,,,,,,,,,,,,,,
703206,1469911421833,,,,,,,-0.01,0.07,0.98,-3.0,0.4,-0.1,700,0,,,,,,,,,,,,,,,,,
703226,1469911421853,,,,,,,-0.02,0.06,0.98,-2.9,0.4,-0.2,680,0,,,,,,,,,,,,,,,,,
703246,1469911421873,0,190.3,179.9,10,176.6,,-0.02,0.06,0.98,-2.9,0.4,-0.2,680,0,0.0,0,39.54034,-122.331574,1.82,0.393,366.8,7,2,2.1,0,0.0,-1,0.0,0.0,0.0,0
703266,1469911421893,,,,,,,-0.01,0.07,0.98,-3.0,0.5,-0.1,700,0,,,,,,,,,,,,,,,,,
703286,1469911422006,,,,,,,-0.01,0.07,0.98,-3.0,0.5,-0.1,700,0,,,,,,,,,,,,,,,,,
703306,1469911422026,,,,,,,-0.02,0.07,0.98,-3.0,0.4,-0.2,700,0,,,,,,,,,,,,,,,,,
703326,1469911422046,,,,,,,-0.01,0.08,0.98,-3.1,0.4,-0.0,680,0,,,,,,,,,,,,,,,,,
703346,1469911422066,,,,11,,,-0.01,0.08,0.98,-3.0,0.4,-0.0,700,0,0.0,0,39.54034,-122.331574,1.82,0.393,366.8,7,2,2.1,0,0.0,-1,0.0,,0.0,0
703366,1469911422086,,,,,,,-0.01,0.07,0.98,-3.0,0.4,-0.2,700,0,,,,,,,,,,,,,,,,,
703386,1469911422106,,,,,,,-0.01,0.08,0.98,-3.1,0.5,-0.1,700,0,,,,,,,,,,,,,,,,,
703406,1469911422126,,,,,,,-0.01,0.08,0.99,-3.1,0.4,-0.1,680,0,,,,,,,,,,,,,,,,,
703426,1469911422146,,,,,,,-0.02,0.07,0.98,-3.0,0.4,-0.2,700,0,,,,,,,,,,,,,,,,,
703446,1469911422166,0,189.8,179.4,11,175.8,,-0.01,0.07,0.99,-3.0,0.3,-0.2,700,0,0.0,0,39.54034,-122.331574,1.82,0.393,366.8,7,2,2.1,0,0.0,-1,0.0,0.0,0.0,0
703466,1469911422093,,,,,,,-0.01,0.07,0.99,-3.0,0.3,-0.2,700,0,,,,,,,,,,,,,,,,,
703486,1469911422113,,,,,,,-0.01,0.07,0.99,-2.9,0.2,-0.2,700,0,,,,,,,,,,,,,,,,,
703506,1469911422133,,,,,,,-0.01,0.07,0.99,-3.0,0.2,-0.2,700,0,,,,,,,,,,,,,,,,,
703526,1469911422153,,,,,,,-0.01,0.07,0.98,-3.0,0.4,-0.2,700,0,,,,,,,,,,,,,,,,,
703546,1469911422173,,,,11,,,-0.0,0.07,0.98,-3.0,0.4,-0.1,700,0,0.0,0,39.54034,-122.331574,1.82,0.393,366.8,7,2,2.1,0,0.0,-1,0.0,,0.0,0
703566,1469911422193,,,,,,,-0.0,0.06,0.99,-2.9,0.4,-0.2,680,0,,,,,,,,,,,,,,,,,
703586,1469911422213,,,,,,,-0.0,0.07,0.98,-3.0,0.4,-0.2,680,0,,,,,,,,,,,,,,,,,
703606,1469911422233,,,,,,,-0.0,0.08,0.99,-3.0,0.4,-0.1,700,0,,,,,,,,,,,,,,,,,
703626,1469911422253,,,,,,,-0.01,0.07,0.98,-3.0,0.3,-0.1,700,0,,,,,,,,,,,,,,,,,
703646,1469911422273,0,191.0,179.0,10,175.5,,-0.0,0.07,0.99,-3.0,0.3,-0.1,700,0,0.0,0,39.54034,-122.331574,1.82,0.393,366.8,7,2,2.1,0,0.0,-1,0.0,0.0,0.0,0
703666,1469911422293,,,,,,,-0.0,0.08,0.99,-3.0,0.3,-0.1,700,0,,,,,,,,,,,,,,,,,
703686,1469911422313,,,,,,,-0.0,0.08,0.98,-3.0,0.2,-0.2,700,0,,,,,,,,,,,,,,,,,
703706,1469911422333,,,,,,,-0.01,0.08,0.98,-2.9,0.3,-0.3,700,0,,,,,,,,,,,,,,,,,
703726,1469911422353,,,,,,,0.0,0.08,0.98,-3.0,0.3,-0.1,700,0,,,,,,,,,,,,,,,,,
703746,1469911422373,,,,11,,,-0.0,0.08,0.98,-3.0,0.3,-0.1,680,0,0.0,0,39.54034,-122.331574,1.82,0.393,366.8,7,2,2.1,0,0.0,-1,0.0,,0.0,0
703766,1469911422393,,,,,,,-0.0,0.08,0.99,-3.0,0.3,-0.2,700,0,,,,,,,,,,,,,,,,,
703786,1469911422413,,,,,,,-0.0,0.08,0.98,-3.0,0.3,-0.2,700,0,,,,,,,,,,,,,,,,,
703806,1469911422433,,,,,,,-0.0,0.08,0.98,-3.0,0.3,-0.2,700,0,,,,,,,,,,,,,,,,,
703826,1469911422453,,,,,,,-0.01,0.07,0.99,-3.0,0.2,-0.2,700,0,,,,,,,,,,,,,,,,,
703846,1469911422473,0,189.9,180.8,11,176.7,,-0.01,0.07,0.98,-3.0,0.1,-0.2,700,0,0.0,0,39.54034,-122.331574,1.82,0.393,366.8,7,2,2.1,0,0.0,-1,0.0,0.0,0.0,0
703866,1469911422493,,,,,,,-0.0,0.07,0.97,-3.0,0.1,-0.2,700,0,,,,,,,,,,,,,,,,,
703886,1469911422513,,,,,,,-0.0,0.07,0.97,-3.0,0.1,-0.1,700,0,,,,,,,,,,,,,,,,,
703906,1469911422533,,,,,,,-0.0,0.07,0.98,-2.9,0.1,-0.3,680,0,,,,,,,,,,,,,,,,,
703926,1469911422553,,,,,,,0.0,0.08,0.98,-3.0,0.2,-0.2,680,0,,,,,,,,,,,,,,,,,
703946,1469911422573,,,,11,,,0.0,0.09,0.98,-3.0,0.2,-0.1,700,0,0.0,0,39.54034,-122.331574,1.82,0.393,366.8,7,2,2.1,0,0.0,-1,0.0,,0.0,0
703966,1469911422593,,,,,,,-0.0,0.08,0.98,-3.0,0.1,-0.1,700,0,,,,,,,,,,,,,,,,,
703986,1469911422613,,,,,,,-0.01,0.08,0.98,-3.0,0.1,-0.2,700,0,,,,,,,,,,,,,,,,,
704006,1469911422633,,,,,,,-0.01,0.08,0.98,-3.0,0.0,-0.1,700,0,,,,,,,,,,,,,,,,,
704026,1469911422653,,,,,,,-0.01,0.07,0.98,-3.0,0.0,-0.1,720,0,,,,,,,,,,,,,,,,,
704046,1469911422673,0,189.9,179.7,11,175.7,13.16,-0.01,0.07,0.98,-3.0,0.1,-0.2,720,0,0.0,0,39.54034,-122.331574,1.82,0.393,366.8,7,2,2.1,0,0.0,-1,0.0,0.0,0.0,0
704066,1469911422792,,,,,,,-0.0,0.08,0.98,-3.0,0.1,-0.1,720,0,,,,,,,,,,,,,,,,,
704086,1469911422812,,,,,,,-0.0,0.08,0.99,-3.0,0.1,-0.1,680,0,,,,,,,,,,,,,,,,,
704106,1469911422832,,,,,,,-0.0,0.07,0.98,-2.9,0.1,-0.2,700,0,,,,,,,,,,,,,,,,,
704126,1469911422852,,,,,,,-0.01,0.07,0.98,-2.9,0.1,-0.2,700,0,,,,,,,,,,,,,,,,,
704146,1469911422872,,,,11,,,-0.01,0.07,0.98,-3.0,0.1,-0.1,700,0,0.0,0,39.54034,-122.331574,1.82,0.393,366.8,7,2,2.1,0,0.0,-1,0.0,,0.0,0
704166,1469911422892,,,,,,,-0.0,0.07,0.98,-2.9,0.1,-0.1,700,0,,,,,,,,,,,,,,,,,
704186,1469911422912,,,,,,,-0.01,0.06,0.99,-2.9,0.1,-0.2,720,0,,,,,,,,,,,,,,,,,
704206,1469911422932,,,,,,,-0.01,0.07,0.98,-2.9,0.2,-0.2,720,0,,,,,,,,,,,,,,,,,
704226,1469911422952,,,,,,,-0.01,0.08,0.99,-3.0,0.2,-0.2,700,0,,,,,,,,,,,,,,,,,
704246,1469911422972,0,190.3,179.3,10,175.5,,-0.01,0.07,0.99,-2.9,0.2,-0.2,660,0,0.0,0,39.54034,-122.331574,1.82,0.393,366.8,7,2,2.1,0,0.0,-1,0.0,0.0,0.0,0
704266,1469911422992,,,,,,,-0.01,0.07,0.99,-2.9,0.3,-0.2,660,0,,,,,,,,,,,,,,,,,
704286,1469911422907,,,,,,,-0.01,0.06,0.99,-2.9,0.3,-0.1,700,0,,,,,,,,,,,,,,,,,
704306,1469911422927,,,,,,,-0.01,0.06,0.99,-2.9,0.3,-0.1,700,0,,,,,,,,,,,,,,,,,
704326,1469911422947,,,,,,,-0.02,0.06,0.99,-2.9,0.2,-0.2,700,0,,,,,,,,,,,,,,,,,
704346,1469911422967,,,,11,,,-0.01,0.07,0.99,-2.9,0.2,-0.1,700,0,0.0,0,39.54034,-122.331574,1.82,0.393,366.8,7,2,2.1,0,0.0,-1,0.0,,0.0,0
704366,1469911422993,,,,,,,-0.01,0.07,0.99,-3.0,0.2,-0.1,700,0,,,,,,,,,,,,,,,,,
704386,1469911423013,,,,,,,-0.01,0.07,0.99,-3.0,0.2,-0.2,700,0,,,,,,,,,,,,,,,,,
704406,1469911423033,,,,,,,-0.01,0.07,0.99,-3.0,0.3,-0.2,700,0,,,,,,,,,,,,,,,,,
704426,1469911423053,,,,,,,-0.01,0.07,1.0,-3.0,0.3,-0.1,680,0,,,,,,,,,,,,,,,,,
704446,1469911423073,0,190.3,178.9,11,175.0,,-0.01,0.07,0.99,-3.0,0.2,-0.1,700,0,0.0,0,39.54034,-122.331574,1.82,0.393,366.8,7,2,2.1,0,0.0,-1,0.0,0.0,0.0,0
704466,1469911423093,,,,,,,-0.02,0.07,0.99,-3.0,0.2,-0.2,700,0,,,,,,,,,,,,,,,,,
704486,1469911423113,,,,,,,-0.01,0.08,0.99,-3.1,0.2,-0.1,700,0,,,,,,,,,,,,,,,,,
704506,1469911423133,,,,,,,-0.01,0.07,0.98,-3.0,0.1,-0.1,720,0,,,,,,,,,,,,,,,,,
704526,1469911423153,,,,,,,-0.01,0.07,0.99,-3.0,0.1,-0.2,700,0,,,,,,,,,,,,,,,,,
704546,1469911423173,,,,11,,,-0.01,0.07,0.99,-3.0,0.2,-0.2,700,0,0.0,0,39.54034,-122.331574,1.82,0.393,366.8,7,2,2.1,0,0.0,-1,0.0,,0.0,0
704566,1469911423193,,,,,,,-0.01,0.08,0.99,-3.0,0.3,-0.1,700,0,,,,,,,,,,,,,,,,,
704586,1469911423213,,,,,,,-0.01,0.08,0.99,-3.0,0.2,-0.2,700,0,,,,,,,,,,,,,,,,,
704606,1469911423233,,,,,,,-0.01,0.07,0.99,-2.9,0.2,-0.3,700,0,,,,,,,,,,,,,,,,,
704626,1469911423253,,,,,,,-0.01,0.07,0.99,-3.0,0.2,-0.2,720,0,,,,,,,,,,,,,,,,,
704646,1469911423273,0,189.9,179.6,11,175.4,,-0.01,0.06,0.99,-2.9,0.2,-0.2,700,0,0.0,0,39.54034,-122.331574,1.82,0.393,366.8,7,2,2.1,0,0.0,-1,0.0,0.0,0.0,0
704666,1469911423292,,,,,,,-0.01,0.06,0.99,-2.9,0.1,-0.3,720,0,,,,,,,,,,,,,,,,,
704686,1469911423312,,,,,,,-0.01,0.06,0.98,-2.9,0.2,-0.2,720,0,,,,,,,,,,,,,,,,,
704706,1469911423332,,,,,,,-0.01,0.07,0.99,-2.9,0.2,-0.1,720,0,,,,,,,,,,,,,,,,,
704726,1469911423352,,,,,,,-0.01,0.07,0.99,-2.9,0.1,-0.1,700,0,,,,,,,,,,,,,,,,,
704746,1469911423372,,,,12,,,-0.01,0.07,0.99,-3.0,0.1,-0.2,700,0,0.0,0,39.54034,-122.331574,1.82,0.393,366.8,7,2,2.1,0,0.0,-1,0.0,,0.0,0
704766,1469911423393,,,,,,,-0.01,0.08,0.99,-3.0,0.1,-0.1,680,0,,,,,,,,,,,,,,,,,
704786,1469911423413,,,,,,,-0.01,0.07,0.99,-3.0,0.1,-0.1,700,0,,,,,,,,,,,,,,,,,
704806,1469911423433,,,,,,,-0.01,0.07,0.99,-2.9,-0.0,-0.2,700,0,,,,,,,,,,,,,,,,,
704826,1469911423453,,,,,,,-0.01,0.07,0.99,-2.9,0.1,-0.1,700,0,,,,,,,,,,,,,,,,,
704846,1469911423473,0,190.2,178.8,11,174.8,,-0.01,0.08,0.99,-3.0,0.1,-0.0,720,0,0.0,0,39.54034,-122.331574,1.82,0.393,366.8,7,2,2.1,0,0.0,-1,0.0,0.0,0.0,0
704866,1469911423592,,,,,,,-0.01,0.08,0.99,-2.9,0.1,-0.1,720,0,,,,,,,,,,,,,,,,,
704886,1469911423612,,,,,,,-0.01,0.08,0.99,-2.9,0.1,-0.2,720,0,,,,,,,,,,,,,,,,,
704906,1469911423632,,,,,,,-0.01,0.08,0.99,-3.0,0.1,-0.1,720,0,,,,,,,,,,,,,,,,,
704926,1469911423652,,,,,,,-0.01,0.08,0.99,-2.9,0.1,-0.0,700,0,,,,,,,,,,,,,,,,,
704946,1469911423672,,,,11,,,-0.01,0.07,0.99,-2.9,0.1,-0.2,720,0,0.0,0,39.54034,-122.331574,1.82,0.393,366.8,7,2,2.1,0,0.0,-1,0.0,,0.0,0
704966,1469911423692,,,,,,,-0.01,0.07,0.99,-2.9,0.2,-0.2,720,0,,,,,,,,,,,,,,,,,
704986,1469911423712,,,,,,,-0.01,0.07,0.99,-2.9,0.1,-0.1,720,0,,,,,,,,,,,,,,,,,
705006,1469911423732,,,,,,,-0.01,0.07,0.99,-2.9,0.1,-0.1,740,0,,,,,,,,,,,,,,,,,
705026,1469911423752,,,,,,,-0.01,0.07,0.99,-2.9,-0.0,-0.2,720,0,,,,,,,,,,,,,,,,,
705046,1469911423772,0,190.5,179.3,11,175.0,13.15,-0.01,0.07,0.99,-2.9,0.0,-0.2,720,0,0.0,0,39.54034,-122.331574,1.82,0.393,366.8,7,2,2.1,0,0.0,-1,0.0,0.0,0.0,0
705066,1469911423693,,,,,,,-0.01,0.06,0.99,-2.9,0.1,-0.1,740,0,,,,,,,,,,,,,,,,,
705086,1469911423713,,,,,,,-0.01,0.07,0.99,-2.9,0.1,-0.1,680,0,,,,,,,,,,,,,,,,,
705106,1469911423733,,,,,,,-0.01,0.07,0.99,-2.9,0.1,-0.2,720,0,,,,,,,,,,,,,,,,,
705126,1469911423753,,,,,,,-0.01,0.07,0.98,-2.9,0.1,-0.1,720,0,,,,,,,,,,,,,,,,,
705146,1469911423773,,,,10,,,-0.01,0.07,0.98,-2.9,0.2,-0.1,700,0,0.0,0,39.54034,-122.331574,1.82,0.393,366.8,7,2,2.1,0,0.0,-1,0.0,,0.0,0
705166,1469911423793,,,,,,,-0.01,0.06,0.98,-2.9,0.1,-0.2,720,0,,,,,,,,,,,,,,,,,
705186,1469911423813,,,,,,,-0.01,0.06,0.98,-2.9,0.2,-0.2,720,0,,,,,,,,,,,,,,,,,
705206,1469911423833,,,,,,,-0.01,0.07,0.98,-2.9,0.1,-0.1,700,0,,,,,,,,,,,,,,,,,
705226,1469911423853,,,,,,,-0.01,0.07,0.98,-3.0,0.1,-0.1,720,0,,,,,,,,,,,,,,,,,
705246,1469911423873,0,189.4,179.5,12,175.1,,-0.01,0.07,0.98,-3.0,-0.0,-0.3,700,0,0.0,0,39.54034,-122.331574,1.82,0.393,366.8,7,2,2.1,0,0.0,-1,0.0,0.0,0.0,0
705266,1469911423893,,,,,,,-0.01,0.08,0.98,-3.0,0.0,-0.2,700,0,,,,,,,,,,,,,,,,,
705286,1469911423907,,,,,,,-0.01,0.08,0.98,-3.0,0.1,-0.1,720,0,,,,,,,,,,,,,,,,,
705306,1469911423927,,,,,,,-0.01,0.07,0.98,-3.0,0.1,-0.1,720,0,,,,,,,,,,,,,,,,,
705326,1469911423947,,,,,,,-0.02,0.07,0.98,-2.9,0.1,-0.2,720,0,,,,,,,,,,,,,,,,,
705346,1469911423967,,,,12,,,-0.01,0.07,0.98,-3.0,0.0,-0.1,740,0,0.0,0,39.54034,-122.331574,1.82,0.393,366.8,7,2,2.1,0,0.0,-1,0.0,,0.0,0
705366,1469911423993,,,,,,,-0.01,0.07,0.98,-3.0,0.1,-0.1,720,0,,,,,,,,,,,,,,,,,
705386,1469911424013,,,,,,,-0.01,0.07,0.98,-3.0,0.1,-0.1,720,0,,,,,,,,,,,,,,,,,
705406,1469911424033,,,,,,,-0.01,0.07,0.98,-3.0,0.3,-0.1,720,0,,,,,,,,,,,,,,,,,
705426,1469911424053,,,,,,,-0.01,0.08,0.98,-3.0,0.3,-0.1,700,0,,,,,,,,,,,,,,,,,
705446,1469911424073,0,190.3,178.6,11,174.3,,-0.01,0.08,0.98,-3.0,0.2,-0.1,720,0,0.0,0,39.54034,-122.331574,1.82,0.393,366.8,7,2,2.1,0,0.0,-1,0.0,0.0,0.0,0
705466,1469911424093,,,,,,,-0.01,0.08,0.99,-3.0,0.1,-0.2,720,0,,,,,,,,,,,,,,,,,
705486,1469911424113,,,,,,,-0.01,0.08,0.98,-3.0,0.2,-0.1,720,0,,,,,,,,,,,,,,,,,
705506,1469911424133,,,,,,,-0.01,0.08,0.99,-3.0,0.3,-0.0,740,0,,,,,,,,,,,,,,,,,
705526,1469911424153,,,,,,,-0.01,0.08,0.99,-2.9,0.2,-0.1,720,0,,,,,,,,,,,,,,,,,
705546,1469911424173,,,,12,,,-0.01,0.07,0.99,-2.9,0.1,-0.2,720,0,0.0,0,39.54034,-122.331574,1.82,0.393,366.8,7,2,2.1,0,0.0,-1,0.0,,0.0,0
705566,1469911424193,,,,,,,-0.01,0.08,0.99,-2.9,0.1,-0.1,720,0,,,,,,,,,,,,,,,,,
705586,1469911424213,,,,,,,-0.01,0.07,0.99,-2.9,0.1,-0.0,720,0,,,,,,,,,,,,,,,,,
705606,1469911424233,,,,,,,-0.01,0.07,0.99,-2.9,0.1,-0.2,740,0,,,,,,,,,,,,,,,,,
705626,1469911424253,,,,,,,-0.01,0.07,0.99,-2.9,0.2,-0.2,740,0,,,,,,,,,,,,,,,,,
705646,1469911424273,0,190.3,178.4,12,174.3,,-0.01,0.07,0.99,-3.0,0.1,-0.1,740,0,0.0,0,39.54034,-122.331574,1.82,0.393,366.8,7,2,2.1,0,0.0,-1,0.0,0.0,0.0,0
705666,1469911424392,,,,,,,-0.01,0.08,0.99,-3.0,0.0,-0.1,760,0,,,,,,,,,,,,,,,,,
705686,1469911424412,,,,,,,-0.01,0.07,0.99,-3.0,-0.0,-0.2,740,0,,,,,,,,,,,,,,,,,
705706,1469911424432,,,,,,,-0.01,0.08,0.99,-3.0,0.1,-0.2,740,0,,,,,,,,,,,,,,,,,
705726,1469911424452,,,,,,,-0.01,0.07,0.99,-3.0,0.1,-0.1,740,0,,,,,,,,,,,,,,,,,
705746,1469911424472,,,,13,,,-0.01,0.08,0.99,-3.0,0.1,-0.1,720,0,0.0,0,39.54034,-122.331574,1.82,0.393,366.8,7,2,2.1,0,0.0,-1,0.0,,0.0,0
705766,1469911424492,,,,,,,-0.02,0.07,0.99,-3.0,0.1,-0.2,740,0,,,,,,,,,,,,,,,,,
705786,1469911424512,,,,,,,-0.02,0.07,0.98,-3.0,0.2,-0.2,740,0,,,,,,,,,,,,,,,,,
705806,1469911424532,,,,,,,-0.01,0.07,0.98,-3.0,0.1,-0.1,740,0,,,,,,,,,,,,,,,,,
705826,1469911424552,,,,,,,-0.01,0.08,0.98,-3.0,0.1,-0.0,760,0,,,,,,,,,,,,,,,,,
705846,1469911424572,0,188.4,180.2,12,175.4,,-0.02,0.08,0.99,-3.0,0.1,-0.2,740,0,0.0,0,39.54034,-122.331574,1.82,0.393,366.8,7,2,2.1,0,0.0,-1,0.0,0.0,0.0,0
705866,1469911424493,,,,,,,-0.02,0.08,0.98,-3.0,0.2,-0.2,760,153,,,,,,,,,,,,,,,,,
705886,1469911424513,,,,,,,-0.02,0.08,0.98,-3.1,0.2,-0.2,760,47,,,,,,,,,,,,,,,,,
705906,1469911424533,,,,,,,-0.01,0.09,0.97,-3.1,0.1,-0.1,720,80,,,,,,,,,,,,,,,,,
705926,1469911424553,,,,,,,0.0,0.09,0.98,-3.1,-0.0,-0.1,740,101,,,,,,,,,,,,,,,,,
705946,1469911424573,,,,12,,,0.01,0.07,0.98,-3.2,-0.4,-0.1,740,75,9.0,0,39.54034,-122.331574,1.82,0.393,366.8,7,2,2.1,0,0.0,-1,0.0,,0.0,0
705966,1469911424593,,,,,,,0.01,0.07,0.98,-3.2,-0.5,-0.1,740,83,,,,,,,,,,,,,,,,,
705986,1469911424613,,,,,,,0.01,0.07,0.98,-3.1,-0.5,-0.1,760,83,,,,,,,,,,,,,,,,,
706006,1469911424633,,,,,,,0.0,0.07,0.98,-3.0,-0.5,-0.3,740,53,,,,,,,,,,,,,,,,,
706026,1469911424653,,,,,,,0.0,0.06,0.98,-3.0,-0.2,-0.3,740,36,,,,,,,,,,,,,,,,,
706046,1469911424673,0,190.2,180.2,12,174.0,13.29,0.01,0.06,0.98,-3.0,-0.2,-0.2,740,36,14.34,0,39.54034,-122.331574,1.82,0.393,366.8,7,2,2.1,0,0.0,-1,0.0,0.0,0.0,0
706066,1469911424693,,,,,,,0.02,0.06,0.98,-3.0,-0.1,-0.1,720,60,,,,,,,,,,,,,,,,,
706086,1469911424713,,,,,,,0.02,0.07,0.97,-2.9,-0.3,-0.2,740,60,,,,,,,,,,,,,,,,,
706106,1469911424733,,,,,,,0.02,0.07,0.97,-2.9,-0.2,-0.3,740,60,,,,,,,,,,,,,,,,,
706126,1469911424753,,,,,,,0.02,0.08,0.97,-3.0,-0.3,-0.2,720,60,,,,,,,,,,,,,,,,,
706146,1469911424773,,,,12,,,0.03,0.07,0.97,-3.0,-0.3,-0.3,720,60,12.333,0,39.54034,-122.331574,1.82,0.393,366.8,7,2,2.1,0,0.0,-1,0.0,,0.0,0
706166,1469911424793,,,,,,,0.02,0.06,0.97,-2.9,-0.4,-0.4,700,60,,,,,,,,,,,,,,,,,
706186,1469911424813,,,,,,,0.03,0.08,0.98,-2.9,-0.3,-0.4,700,60,,,,,,,,,,,,,,,,,
706206,1469911424833,,,,,,,0.04,0.09,0.98,-2.9,-0.3,-0.3,700,13,,,,,,,,,,,,,,,,,
706226,1469911424853,,,,,,,0.04,0.08,0.98,-2.9,-0.1,-0.4,680,13,,,,,,,,,,,,,,,,,
706246,1469911424873,0,189.9,180.0,11,173.9,,0.03,0.06,0.98,-2.9,0.1,-0.4,680,13,11.667,0,39.54034,-122.331574,1.82,0.393,366.8,7,2,2.1,0,0.0,-1,0.0,0.0,0.0,0
706266,1469911424893,,,,,,,0.04,0.05,0.98,-2.7,0.1,-0.4,700,16,,,,,,,,,,,,,,,,,
706286,1469911424907,,,,,,,0.04,0.05,0.98,-2.8,0.2,-0.4,680,16,,,,,,,,,,,,,,,,,
706306,1469911424927,,,,,,,0.03,0.05,0.98,-2.8,0.1,-0.5,680,16,,,,,,,,,,,,,,,,,
706326,1469911424947,,,,,,,0.04,0.06,0.98,-2.8,-0.1,-0.4,700,20,,,,,,,,,,,,,,,,,
706346,1469911424967,,,,12,,,0.04,0.05,0.98,-2.8,-0.1,-0.3,660,20,42.5,0,39.54034,-122.331574,1.82,0.393,366.8,7,2,2.1,0,0.0,-1,0.0,,0.0,0
706366,1469911424993,,,,,,,0.04,0.05,0.98,-2.8,-0.2,-0.4,660,20,,,,,,,,,,,,,,,,,
706386,1469911425013,,,,,,,0.05,0.06,0.98,-2.8,-0.1,-0.4,660,38,,,,,,,,,,,,,,,,,
706406,1469911425033,,,,,,,0.05,0.05,0.98,-2.7,-0.0,-0.4,640,38,,,,,,,,,,,,,,,,,
706426,1469911425053,,,,,,,0.05,0.05,0.99,-2.7,0.1,-0.5,640,26,,,,,,,,,,,,,,,,,
706446,1469911425073,0,188.1,177.9,10,175.1,,0.05,0.06,0.99,-2.7,0.1,-0.4,640,26,17.368,0,39.54034,-122.331574,1.82,0.393,366.8,7,2,2.1,0,0.0,-1,0.0,0.0,0.0,0
706466,1469911425192,,,,,,,0.05,0.06,0.98,-2.7,0.0,-0.4,620,26,,,,,,,,,,,,,,,,,
706486,1469911425212,,,,,,,0.04,0.05,0.98,-2.6,0.1,-0.4,620,26,,,,,,,,,,,,,,,,,
706506,1469911425232,,,,,,,0.04,0.06,0.99,-2.7,0.1,-0.3,640,26,,,,,,,,,,,,,,,,,
706526,1469911425252,,,,,,,0.03,0.06,0.99,-2.6,0.1,-0.3,620,32,,,,,,,,,,,,,,,,,
706546,1469911425272,,,,10,,,0.03,0.06,0.99,-2.7,0.1,-0.3,620,32,24.615,0,39.54034,-122.331574,1.82,0.393,366.8,7,2,2.1,0,0.0,-1,0.0,,0.0,0
706566,1469911425292,,,,,,,0.02,0.06,0.99,-2.7,0.2,-0.3,620,43,,,,,,,,,,,,,,,,,
706586,1469911425312,,,,,,,0.01,0.06,0.99,-2.6,0.1,-0.4,620,43,,,,,,,,,,,,,,,,,
706606,1469911425332,,,,,,,0.02,0.07,0.99,-2.6,0.2,-0.3,620,33,,,,,,,,,,,,,,,,,
706626,1469911425352,,,,,,,0.02,0.06,0.99,-2.6,0.1,-0.3,620,33,,,,,,,,,,,,,,,,,
706646,1469911425372,0,188.7,178.6,9,174.6,,0.02,0.06,0.98,-2.6,0.1,-0.3,620,44,18.788,0,39.54034,-122.331574,1.82,0.393,366.8,7,2,2.1,0,0.0,-1,0.0,0.0,0.0,0
706666,1469911425293,,,,,,,0.03,0.07,0.99,-2.6,0.1,-0.3,620,44,,,,,,,,,,,,,,,,,
706686,1469911425313,,,,,,,0.03,0.07,0.98,-2.6,0.1,-0.3,640,36,,,,,,,,,,,,,,,,,
706706,1469911425333,,,,,,,0.02,0.06,0.98,-2.6,0.1,-0.3,640,43,,,,,,,,,,,,,,,,,
706726,1469911425353,,,,,,,0.02,0.07,0.98,-2.6,0.0,-0.2,620,43,,,,,,,,,,,,,,,,,
706746,1469911425373,,,,9,,,0.02,0.07,0.97,-2.6,-0.0,-0.2,620,44,17.778,0,39.54034,-122.331574,1.82,0.393,366.8,7,2,2.1,0,0.0,-1,0.0,,0.0,0
706766,1469911425393,,,,,,,0.02,0.06,0.97,-2.7,0.1,-0.1,620,44,,,,,,,,,,,,,,,,,
706786,1469911425413,,,,,,,0.02,0.07,0.97,-2.6,0.0,-0.0,600,40,,,,,,,,,,,,,,,,,
706806,1469911425433,,,,,,,0.02,0.06,0.98,-2.6,-0.0,-0.1,600,40,,,,,,,,,,,,,,,,,
706826,1469911425453,,,,,,,0.02,0.07,0.98,-2.7,0.1,-0.1,640,47,,,,,,,,,,,,,,,,,
706846,1469911425473,0,189.9,179.7,10,173.4,,0.02,0.07,0.97,-2.7,0.0,-0.1,640,44,15.0,0,39.54034,-122.331574,1.82,0.393,366.8,7,2,2.1,0,0.0,-1,0.0,0.0,0.0,0
706866,1469911425493,,,,,,,0.02,0.06,0.97,-2.6,0.1,-0.2,640,44,,,,,,,,,,,,,,,,,
706886,1469911425513,,,,,,,0.03,0.07,0.97,-2.7,0.1,-0.1,640,49,,,,,,,,,,,,,,,,,
706906,1469911425533,,,,,,,0.03,0.07,0.97,-2.6,0.1,-0.1,640,50,,,,,,,,,,,,,,,,,
706926,1469911425553,,,,,,,0.03,0.07,0.97,-2.6,-0.0,-0.1,640,50,,,,,,,,,,,,,,,,,
706946,1469911425573,,,,9,,,0.02,0.08,0.97,-2.6,-0.1,-0.1,640,43,13.061,0,39.54034,-122.331574,1.82,0.393,366.8,7,2,2.1,0,0.0,-1,0.0,,0.0,0
706966,1469911425593,,,,,,,0.02,0.07,0.97,-2.5,-0.2,-0.1,600,50,,,,,,,,,,,,,,,,,
706986,1469911425613,,,,,,,0.02,0.07,0.98,-2.5,-0.1,-0.0,600,50,,,,,,,,,,,,,,,,,
707006,1469911425633,,,,,,,0.02,0.08,0.98,-2.5,0.0,0.0,640,58,,,,,,,,,,,,,,,,,
707026,1469911425653,,,,,,,0.01,0.07,0.98,-2.5,0.1,0.0,640,58,,,,,,,,,,,,,,,,,
707046,1469911425673,0,188.1,177.9,10,174.5,13.16,0.01,0.07,0.98,-2.5,0.2,0.1,640,43,11.034,0,39.54034,-122.331574,1.82,0.393,366.8,7,2,2.1,0,0.0,-1,0.0,0.0,0.0,0
707066,1469911425693,,,,,,,0.01,0.07,0.98,-2.5,0.3,0.1,660,43,,,,,,,,,,,,,,,,,
707086,1469911425713,,,,,,,0.0,0.06,0.98,-2.4,0.3,0.1,660,43,,,,,,,,,,,,,,,,,
707106,1469911425733,,,,,,,0.01,0.07,0.98,-2.4,0.5,0.1,660,55,,,,,,,,,,,,,,,,,
707126,1469911425753,,,,,,,0.01,0.06,0.97,-2.4,0.5,0.2,640,55,,,,,,,,,,,,,,,,,
707146,1469911425773,,,,11,,,0.0,0.05,0.97,-2.4,0.4,0.1,640,55,12.0,0,39.54034,-122.331574,1.82,0.393,366.8,7,2,2.1,0,0.0,-1,0.0,,0.0,0
707166,1469911425791,,,,,,,0.01,0.08,0.98,-2.4,0.4,0.2,640,50,,,,,,,,,,,,,,,,,
707186,1469911425811,,,,,,,0.01,0.08,0.98,-2.5,0.2,0.3,680,49,,,,,,,,,,,,,,,,,
707206,1469911425831,,,,,,,0.01,0.08,0.98,-2.4,0.1,0.3,680,49,,,,,,,,,,,,,,,,,
707226,1469911425851,,,,,,,0.01,0.08,0.98,-2.5,0.1,0.3,680,49,,,,,,,,,,,,,,,,,
707246,1469911425871,0,189.5,179.3,11,173.7,,-0.0,0.09,0.98,-2.4,0.0,0.3,700,50,13.878,0,39.54034,-122.331574,1.82,0.393,366.8,7,2,2.1,0,0.0,-1,0.0,0.0,0.0,0
707266,1469911425891,,,,,,,-0.01,0.08,0.98,-2.4,-0.1,0.2,700,50,,,,,,,,,,,,,,,,,
707286,1469911426006,,,,,,,-0.01,0.08,0.98,-2.4,-0.1,0.1,700,53,,,,,,,,,,,,,,,,,
707306,1469911426026,,,,,,,-0.01,0.09,0.98,-2.5,-0.2,0.2,680,49,,,,,,,,,,,,,,,,,
707326,1469911426046,,,,,,,-0.01,0.08,0.98,-2.4,-0.2,0.1,680,49,,,,,,,,,,,,,,,,,
707346,1469911426066,,,,11,,,-0.02,0.08,0.98,-2.5,-0.2,-0.0,680,46,12.83,0,39.54034,-122.331574,1.82,0.393,366.8,7,2,2.1,0,0.0,-1,0.0,,0.0,0
707366,1469911426086,,,,,,,-0.01,0.09,0.98,-2.6,-0.2,0.0,720,47,,,,,,,,,,,,,,,,,
707386,1469911426106,,,,,,,-0.01,0.09,0.97,-2.6,-0.2,0.0,720,47,,,,,,,,,,,,,,,,,
707406,1469911426126,,,,,,,-0.02,0.09,0.97,-2.6,-0.3,-0.1,740,49,,,,,,,,,,,,,,,,,
707426,1469911426146,,,,,,,-0.02,0.09,0.97,-2.6,-0.2,-0.0,740,52,,,,,,,,,,,,,,,,,
707446,1469911426166,0,190.0,179.7,12,173.3,,-0.01,0.09,0.97,-2.6,-0.2,0.1,720,52,14.694,0,39.54034,-122.331574,1.82,0.393,366.8,7,2,2.1,0,0.0,-1,0.0,0.0,0.0,0
707466,1469911426093,,,,,,,-0.01,0.09,0.97,-2.6,-0.3,0.1,720,52,,,,,,,,,,,,,,,,,
707486,1469911426113,,,,,,,-0.02,0.09,0.97,-2.5,-0.5,-0.1,720,47,,,,,,,,,,,,,,,,,
707506,1469911426133,,,,,,,-0.02,0.09,0.97,-2.5,-0.4,-0.0,720,47,,,,,,,,,,,,,,,,,
707526,1469911426153,,,,,,,-0.02,0.09,0.97,-2.5,-0.3,0.1,740,46,,,,,,,,,,,,,,,,,
707546,1469911426173,,,,12,,,-0.02,0.09,0.97,-2.5,-0.2,-0.0,740,46,15.319,0,39.54034,-122.331574,1.82,0.393,366.8,7,2,2.1,0,0.0,-1,0.0,,0.0,0
707566,1469911426193,,,,,,,-0.02,0.08,0.98,-2.5,-0.2,-0.1,740,44,,,,,,,,,,,,,,,,,
707586,1469911426213,,,,,,,-0.02,0.08,0.98,-2.5,-0.2,-0.1,740,47,,,,,,,,,,,,,,,,,
707606,1469911426233,,,,,,,-0.02,0.09,0.98,-2.5,-0.2,-0.0,740,47,,,,,,,,,,,,,,,,,
707626,1469911426253,,,,,,,-0.02,0.09,0.98,-2.5,-0.2,-0.1,740,50,,,,,,,,,,,,,,,,,
707646,1469911426273,0,190.0,179.6,12,172.8,,-0.03,0.08,0.98,-2.5,-0.1,-0.2,720,47,15.745,0,39.54034,-122.331574,1.82,0.393,366.8,7,2,2.1,0,0.0,-1,0.0,0.0,0.0,0
707666,1469911426293,,,,,,,-0.02,0.08,0.98,-2.5,-0.1,-0.1,720,47,,,,,,,,,,,,,,,,,
707686,1469911426313,,,,,,,-0.02,0.09,0.98,-2.5,-0.1,-0.1,740,44,,,,,,,,,,,,,,,,,
707706,1469911426333,,,,,,,-0.02,0.08,0.98,-2.5,-0.0,-0.1,740,44,,,,,,,,,,,,,,,,,
707726,1469911426353,,,,,,,-0.02,0.08,0.99,-2.5,0.0,-0.2,740,43,,,,,,,,,,,,,,,,,
707746,1469911426373,,,,12,,,-0.02,0.08,0.98,-2.6,0.0,-0.1,740,46,16.818,0,39.54034,-122.331574,1.82,0.393,366.8,7,2,2.1,0,0.0,-1,0.0,,0.0,0
707766,1469911426393,,,,,,,-0.02,0.09,0.98,-2.6,0.0,-0.0,740,46,,,,,,,,,,,,,,,,,
707786,1469911426413,,,,,,,-0.02,0.09,0.98,-2.6,0.1,-0.1,740,47,,,,,,,,,,,,,,,,,
707806,1469911426433,,,,,,,-0.02,0.08,0.99,-2.5,0.1,-0.2,740,47,,,,,,,,,,,,,,,,,
707826,1469911426453,,,,,,,-0.02,0.08,0.99,-2.5,0.1,-0.1,740,44,,,,,,,,,,,,,,,,,
707846,1469911426473,0,188.1,177.5,12,173.9,,-0.02,0.09,0.99,-2.6,0.1,-0.1,740,44,15.745,0,39.54034,-122.331574,1.82,0.393,366.8,7,2,2.1,0,0.0,-1,0.0,0.0,0.0,0
707866,1469911426493,,,,,,,-0.02,0.09,0.99,-2.6,0.1,-0.2,740,43,,,,,,,,,,,,,,,,,
707886,1469911426513,,,,,,,-0.02,0.09,0.99,-2.5,0.1,-0.3,760,41,,,,,,,,,,,,,,,,,
707906,1469911426533,,,,,,,-0.02,0.09,0.99,-2.6,0.1,-0.2,760,41,,,,,,,,,,,,,,,,,
707926,1469911426553,,,,,,,-0.02,0.1,0.99,-2.6,0.1,-0.2,740,44,,,,,,,,,,,,,,,,,
707946,1469911426573,,,,13,,,-0.02,0.09,0.99,-2.6,0.1,-0.3,760,44,18.537,0,39.54034,-122.331574,1.82,0.393,366.8,7,2,2.1,0,0.0,-1,0.0,,0.0,0
707966,1469911426593,,,,,,,-0.02,0.08,1.0,-2.5,0.1,-0.4,720,43,,,,,,,,,,,,,,,,,
707986,1469911426613,,,,,,,-0.02,0.08,1.0,-2.5,0.2,-0.3,720,43,,,,,,,,,,,,,,,,,
708006,1469911426633,,,,,,,-0.02,0.09,0.99,-2.5,0.2,-0.2,740,40,,,,,,,,,,,,,,,,,
708026,1469911426653,,,,,,,-0.02,0.08,0.99,-2.5,0.2,-0.3,740,40,,,,,,,,,,,,,,,,,
708046,1469911426673,0,189.9,179.2,12,172.6,13.29,-0.02,0.07,0.99,-2.5,0.2,-0.4,760,40,18.5,0,39.54034,-122.331574,1.82,0.393,366.8,7,2,2.1,0,0.0,-1,0.0,0.0,0.0,0
708066,1469911426792,,,,,,,-0.02,0.07,0.99,-2.5,0.3,-0.4,760,41,,,,,,,,,,,,,,,,,
708086,1469911426812,,,,,,,-0.02,0.08,0.99,-2.4,0.3,-0.2,740,41,,,,,,,,,,,,,,,,,
708106,1469911426832,,,,,,,-0.02,0.07,0.99,-2.4,0.3,-0.3,740,43,,,,,,,,,,,,,,,,,
708126,1469911426852,,,,,,,-0.02,0.07,1.0,-2.4,0.1,-0.4,720,43,,,,,,,,,,,,,,,,,
708146,1469911426872,,,,12,,,-0.02,0.08,0.99,-2.4,0.1,-0.3,720,40,18.049,0,39.54034,-122.331574,1.82,0.393,366.8,7,2,2.1,0,0.0,-1,0.0,,0.0,0
708166,1469911426892,,,,,,,-0.02,0.08,0.99,-2.4,0.2,-0.2,740,40,,,,,,,,,,,,,,,,,
708186,1469911426912,,,,,,,-0.02,0.08,0.99,-2.4,0.2,-0.2,740,40,,,,,,,,,,,,,,,,,
708206,1469911426932,,,,,,,-0.02,0.07,0.99,-2.3,0.1,-0.3,760,40,,,,,,,,,,,,,,,,,
708226,1469911426952,,,,,,,-0.02,0.08,0.99,-2.3,0.1,-0.3,760,41,,,,,,,,,,,,,,,,,
708246,1469911426972,0,187.8,177.1,13,173.9,,-0.01,0.08,0.99,-2.4,0.2,-0.2,740,41,18.5,0,39.54034,-122.331574,1.82,0.393,366.8,7,2,2.1,0,0.0,-1,0.0,0.0,0.0,0
708266,1469911426992,,,,,,,-0.01,0.08,0.99,-2.4,0.2,-0.2,760,43,,,,,,,,,,,,,,,,,
708286,1469911426907,,,,,,,-0.02,0.07,0.99,-2.4,0.1,-0.3,720,40,,,,,,,,,,,,,,,,,
708306,1469911426927,,,,,,,-0.02,0.08,0.99,-2.4,0.0,-0.3,720,40,,,,,,,,,,,,,,,,,
708326,1469911426947,,,,,,,-0.02,0.08,0.98,-2.4,0.2,-0.3,740,41,,,,,,,,,,,,,,,,,
708346,1469911426967,,,,12,,,-0.02,0.08,0.98,-2.4,0.1,-0.3,740,41,18.0,0,39.54034,-122.331574,1.82,0.393,366.8,7,2,2.1,0,0.0,-1,0.0,,0.0,0
708366,1469911426993,,,,,,,-0.02,0.07,0.98,-2.4,0.0,-0.4,760,43,,,,,,,,,,,,,,,,,
708386,1469911427013,,,,,,,-0.02,0.07,0.98,-2.4,0.1,-0.4,760,43,,,,,,,,,,,,,,,,,
708406,1469911427033,,,,,,,-0.01,0.06,0.98,-2.4,0.1,-0.2,740,43,,,,,,,,,,,,,,,,,
708426,1469911427053,,,,,,,-0.01,0.07,0.98,-2.4,0.1,-0.2,740,43,,,,,,,,,,,,,,,,,
708446,1469911427073,0,189.9,179.0,11,173.6,,-0.01,0.07,0.98,-2.4,-0.1,-0.3,740,41,17.209,0,39.54034,-122.331574,1.82,0.393,366.8,7,2,2.1,0,0.0,-1,0.0,0.0,0.0,0
708466,1469911427093,,,,,,,-0.01,0.07,0.98,-2.4,-0.0,-0.2,740,43,,,,,,,,,,,,,,,,,
708486,1469911427113,,,,,,,-0.01,0.07,0.98,-2.4,-0.0,-0.1,740,43,,,,,,,,,,,,,,,,,
708506,1469911427133,,,,,,,-0.01,0.07,0.98,-2.4,0.0,-0.1,740,43,,,,,,,,,,,,,,,,,
708526,1469911427153,,,,,,,-0.01,0.07,0.98,-2.4,-0.0,-0.2,760,43,,,,,,,,,,,,,,,,,
708546,1469911427173,,,,13,,,-0.01,0.07,0.97,-2.4,0.0,-0.2,760,43,17.209,0,39.54034,-122.331574,1.82,0.393,366.8,7,2,2.1,0,0.0,-1,0.0,,0.0,0
708566,1469911427193,,,,,,,-0.01,0.07,0.97,-2.4,0.1,-0.1,740,44,,,,,,,,,,,,,,,,,
708586,1469911427213,,,,,,,-0.01,0.08,0.97,-2.4,-0.1,-0.1,720,44,,,,,,,,,,,,,,,,,
708606,1469911427233,,,,,,,-0.01,0.08,0.98,-2.4,-0.2,-0.2,740,43,,,,,,,,,,,,,,,,,
708626,1469911427253,,,,,,,-0.01,0.08,0.98,-2.4,-0.1,-0.2,740,43,,,,,,,,,,,,,,,,,
708646,1469911427273,0,188.8,177.5,12,172.5,,-0.01,0.07,0.98,-2.4,-0.1,-0.1,740,44,16.364,0,39.54034,-122.331574,1.82,0.393,366.8,7,2,2.1,0,0.0,-1,0.0,0.0,0.0,0
708666,1469911427293,,,,,,,-0.01,0.08,0.98,-2.4,-0.1,-0.1,740,44,,,,,,,,,,,,,,,,,
708686,1469911427313,,,,,,,-0.01,0.08,0.98,-2.4,-0.2,-0.2,760,43,,,,,,,,,,,,,,,,,
708706,1469911427333,,,,,,,-0.01,0.08,0.97,-2.4,-0.1,-0.2,760,44,,,,,,,,,,,,,,,,,
708726,1469911427353,,,,,,,-0.0,0.07,0.98,-2.5,-0.2,-0.1,740,44,,,,,,,,,,,,,,,,,
708746,1469911427373,,,,11,,,-0.0,0.08,0.97,-2.5,-0.2,-0.0,720,46,17.674,0,39.54034,-122.331574,1.82,0.393,366.8,7,2,2.1,0,0.0,-1,0.0,,0.0,0
708766,1469911427393,,,,,,,-0.0,0.08,0.98,-2.4,-0.4,-0.1,720,46,,,,,,,,,,,,,,,,,
708786,1469911427413,,,,,,,-0.0,0.08,0.98,-2.5,-0.3,-0.1,720,46,,,,,,,,,,,,,,,,,
708806,1469911427433,,,,,,,0.0,0.08,0.98,-2.5,-0.2,0.0,740,47,,,,,,,,,,,,,,,,,
708826,1469911427453,,,,,,,-0.0,0.09,0.97,-2.5,-0.1,0.0,740,47,,,,,,,,,,,,,,,,,
708846,1469911427473,0,188.8,177.6,11,172.6,,-0.01,0.08,0.98,-2.5,-0.2,-0.1,760,46,16.087,0,39.54034,-122.331574,1.82,0.393,366.8,7,2,2.1,0,0.0,-1,0.0,0.0,0.0,0
708866,1469911427592,,,,,,,-0.01,0.08,0.97,-2.4,-0.1,-0.1,760,47,,,,,,,,,,,,,,,,,
708886,1469911427612,,,,,,,-0.0,0.07,0.97,-2.4,-0.1,0.0,740,47,,,,,,,,,,,,,,,,,
708906,1469911427632,,,,,,,-0.0,0.08,0.97,-2.4,-0.1,0.0,740,49,,,,,,,,,,,,,,,,,
708926,1469911427652,,,,,,,-0.01,0.08,0.97,-2.3,-0.2,-0.1,740,49,,,,,,,,,,,,,,,,,
708946,1469911427672,,,,13,,,-0.01,0.08,0.97,-2.3,-0.2,-0.1,740,49,15.102,0,39.54034,-122.331574,1.82,0.393,366.8,7,2,2.1,0,0.0,-1,0.0,,0.0,0
708966,1469911427692,,,,,,,-0.01,0.07,0.97,-2.3,-0.1,-0.0,740,49,,,,,,,,,,,,,,,,,
708986,1469911427712,,,,,,,-0.01,0.08,0.98,-2.4,-0.1,0.0,740,49,,,,,,,,,,,,,,,,,
709006,1469911427732,,,,,,,-0.01,0.08,0.98,-2.4,-0.2,-0.1,760,47,,,,,,,,,,,,,,,,,
709026,1469911427752,,,,,,,-0.01,0.07,0.98,-2.3,-0.1,-0.1,740,47,,,,,,,,,,,,,,,,,
709046,1469911427772,0,190.4,179.2,12,173.5,13.3,-0.01,0.07,0.98,-2.4,-0.1,-0.0,740,47,15.745,0,39.54034,-122.331574,1.82,0.393,366.8,7,2,2.1,0,0.0,-1,0.0,0.0,0.0,0
709066,1469911427693,,,,,,,-0.01,0.08,0.97,-2.4,-0.1,0.0,760,50,,,,,,,,,,,,,,,,,
709086,1469911427713,,,,,,,-0.01,0.07,0.98,-2.4,-0.1,-0.0,720,50,,,,,,,,,,,,,,,,,
709106,1469911427733,,,,,,,-0.01,0.07,0.98,-2.4,-0.0,-0.1,740,50,,,,,,,,,,,,,,,,,
709126,1469911427753,,,,,,,-0.01,0.07,0.98,-2.4,-0.1,-0.0,740,50,,,,,,,,,,,,,,,,,
709146,1469911427773,,,,13,,,-0.01,0.07,0.98,-2.4,-0.1,0.0,740,47,14.4,0,39.54034,-122.331574,1.82,0.393,366.8,7,2,2.1,0,0.0,-1,0.0,,0.0,0
709166,1469911427794,,,,,,,-0.01,0.07,0.98,-2.3,-0.1,-0.0,760,47,,,,,,,,,,,,,,,,,
709186,1469911427814,,,,,,,-0.01,0.07,0.99,-2.3,-0.1,-0.1,740,47,,,,,,,,,,,,,,,,,
709206,1469911427834,,,,,,,-0.01,0.07,0.98,-2.3,0.0,-0.0,740,50,,,,,,,,,,,,,,,,,
709226,1469911427854,,,,,,,-0.01,0.08,0.99,-2.4,0.0,0.1,740,50,,,,,,,,,,,,,,,,,
709246,1469911427874,0,188.1,176.6,13,171.7,,-0.0,0.08,0.99,-2.4,0.1,0.0,740,52,15.745,0,39.54034,-122.331574,1.82,0.393,366.8,7,2,2.1,0,0.0,-1,0.0,0.0,0.0,0
709266,1469911427894,,,,,,,-0.01,0.07,0.99,-2.4,0.2,-0.1,740,53,,,,,,,,,,,,,,,,,
709286,1469911427907,,,,,,,-0.0,0.07,0.99,-2.4,0.2,-0.0,740,53,,,,,,,,,,,,,,,,,
709306,1469911427927,,,,,,,-0.0,0.07,0.99,-2.4,0.2,0.1,760,50,,,,,,,,,,,,,,,,,
709326,1469911427947,,,,,,,0.0,0.07,0.99,-2.4,0.3,-0.0,780,49,,,,,,,,,,,,,,,,,
709346,1469911427967,,,,13,,,-0.0,0.06,0.99,-2.3,0.2,-0.1,740,49,15.2,0,39.54034,-122.331574,1.82,0.393,366.8,7,2,2.1,0,0.0,-1,0.0,,0.0,0
709366,1469911427993,,,,,,,0.0,0.06,0.99,-2.3,0.2,-0.1,740,52,,,,,,,,,,,,,,,,,
709386,1469911428013,,,,,,,0.0,0.06,0.99,-2.3,0.3,-0.0,760,53,,,,,,,,,,,,,,,,,
709406,1469911428033,,,,,,,0.0,0.07,0.99,-2.3,0.3,-0.1,720,53,,,,,,,,,,,,,,,,,
709426,1469911428053,,,,,,,-0.0,0.06,0.99,-2.3,0.2,-0.2,760,53,,,,,,,,,,,,,,,,,
709446,1469911428073,0,188.8,177.2,13,172.3,,0.0,0.07,0.99,-2.3,0.3,-0.1,760,53,13.585,0,39.54034,-122.331574,1.82,0.393,366.8,7,2,2.1,0,0.0,-1,0.0,0.0,0.0,0
709466,1469911428092,,,,,,,0.0,0.07,0.99,-2.3,0.2,-0.0,760,50,,,,,,,,,,,,,,,,,
709486,1469911428112,,,,,,,0.0,0.07,0.98,-2.3,0.3,-0.0,780,50,,,,,,,,,,,,,,,,,
709506,1469911428132,,,,,,,0.0,0.07,0.98,-2.3,0.2,-0.1,760,52,,,,,,,,,,,,,,,,,
709526,1469911428152,,,,,,,-0.0,0.08,0.98,-2.3,0.3,-0.1,760,53,,,,,,,,,,,,,,,,,
709546,1469911428172,,,,13,,,-0.0,0.08,0.98,-2.4,0.2,-0.0,740,53,15.0,0,39.54034,-122.331574,1.82,0.393,366.8,7,2,2.1,0,0.0,-1,0.0,,0.0,0
709566,1469911428193,,,,,,,-0.0,0.08,0.98,-2.4,0.3,0.0,740,53,,,,,,,,,,,,,,,,,
709586,1469911428213,,,,,,,-0.01,0.08,0.98,-2.3,0.1,-0.1,740,55,,,,,,,,,,,,,,,,,
709606,1469911428233,,,,,,,-0.01,0.08,0.98,-2.3,0.3,-0.2,760,53,,,,,,,,,,,,,,,,,
709626,1469911428253,,,,,,,-0.0,0.08,0.99,-2.4,0.2,-0.1,760,53,,,,,,,,,,,,,,,,,
709646,1469911428273,0,189.4,177.9,13,172.6,,-0.0,0.09,0.98,-2.4,0.3,0.0,780,52,13.455,0,39.54034,-122.331574,1.82,0.393,366.8,7,2,2.1,0,0.0,-1,0.0,0.0,0.0,0
709666,1469911428392,,,,,,,-0.0,0.08,0.99,-2.3,0.3,-0.1,760,53,,,,,,,,,,,,,,,,,
709686,1469911428412,,,,,,,-0.01,0.08,0.99,-2.3,0.3,-0.2,740,53,,,,,,,,,,,,,,,,,
709706,1469911428432,,,,,,,-0.0,0.07,0.99,-2.3,0.3,-0.2,740,53,,,,,,,,,,,,,,,,,
709726,1469911428452,,,,,,,-0.0,0.08,0.98,-2.3,0.3,-0.1,740,53,,,,,,,,,,,,,,,,,
709746,1469911428472,,,,13,,,-0.0,0.08,0.99,-2.3,0.2,-0.2,760,55,13.962,0,39.54034,-122.331574,1.82,0.393,366.8,7,2,2.1,0,0.0,-1,0.0,,0.0,0
709766,1469911428492,,,,,,,-0.01,0.07,0.99,-2.3,0.1,-0.2,760,55,,,,,,,,,,,,,,,,,
709786,1469911428512,,,,,,,-0.01,0.07,0.99,-2.3,0.2,-0.2,760,53,,,,,,,,,,,,,,,,,
709806,1469911428532,,,,,,,-0.01,0.08,0.99,-2.4,0.2,-0.1,780,53,,,,,,,,,,,,,,,,,
709826,1469911428552,,,,,,,-0.01,0.08,0.99,-2.4,0.2,-0.1,760,53,,,,,,,,,,,,,,,,,
709846,1469911428572,0,189.4,177.6,13,172.6,,-0.01,0.08,0.99,-2.4,0.1,-0.2,740,55,14.717,0,39.54034,-122.331574,1.82,0.393,366.8,7,2,2.1,0,0.0,-1,0.0,0.0,0.0,0
709866,1469911428493,,,,,,,-0.01,0.07,0.98,-2.5,0.2,-0.3,740,53,,,,,,,,,,,,,,,,,
709886,1469911428513,,,,,,,-0.01,0.08,0.99,-2.5,0.2,-0.2,740,55,,,,,,,,,,,,,,,,,
709906,1469911428533,,,,,,,-0.0,0.08,0.98,-2.5,0.2,-0.2,760,55,,,,,,,,,,,,,,,,,
709926,1469911428553,,,,,,,-0.0,0.08,0.98,-2.5,0.1,-0.3,740,55,,,,,,,,,,,,,,,,,
709946,1469911428573,,,,13,,,-0.0,0.08,0.98,-2.5,0.3,-0.4,780,55,13.818,0,39.54034,-122.331574,1.82,0.393,366.8,7,2,2.1,0,0.0,-1,0.0,,0.0,0
709966,1469911428593,,,,,,,-0.0,0.08,0.98,-2.6,0.1,-0.2,780,55,,,,,,,,,,,,,,,,,
709986,1469911428613,,,,,,,0.0,0.08,0.98,-2.6,0.3,-0.2,740,55,,,,,,,,,,,,,,,,,
710006,1469911428633,,,,,,,0.0,0.08,0.99,-2.6,0.1,-0.3,740,55,,,,,,,,,,,,,,,,,
710026,1469911428653,,,,,,,-0.01,0.08,0.99,-2.6,0.3,-0.4,740,55,,,,,,,,,,,,,,,,,
710046,1469911428673,0,189.9,178.0,12,172.7,13.43,-0.0,0.08,0.99,-2.5,0.3,-0.3,740,56,13.455,0,39.54034,-122.331574,1.82,0.393,366.8,7,2,2.1,0,0.0,-1,0.0,0.0,0.0,0
710066,1469911428693,,,,,,,-0.0,0.08,0.99,-2.5,0.4,-0.2,760,56,,,,,,,,,,,,,,,,,
710086,1469911428713,,,,,,,-0.0,0.08,0.99,-2.5,0.4,-0.3,740,55,,,,,,,,,,,,,,,,,
710106,1469911428733,,,,,,,-0.0,0.07,0.99,-2.5,0.4,-0.3,760,55,,,,,,,,,,,,,,,,,
710126,1469911428753,,,,,,,-0.0,0.08,0.99,-2.5,0.4,-0.3,760,55,,,,,,,,,,,,,,,,,
710146,1469911428773,,,,13,,,-0.0,0.08,0.99,-2.5,0.4,-0.2,740,56,13.455,0,39.54034,-122.331574,1.82,0.393,366.8,7,2,2.1,0,0.0,-1,0.0,,0.0,0
710166,1469911428793,,,,,,,-0.0,0.08,0.99,-2.5,0.4,-0.3,720,56,,,,,,,,,,,,,,,,,
710186,1469911428813,,,,,,,-0.01,0.07,0.99,-2.5,0.3,-0.5,740,55,,,,,,,,,,,,,,,,,
710206,1469911428833,,,,,,,-0.0,0.08,0.99,-2.5,0.4,-0.4,740,55,,,,,,,,,,,,,,,,,
710226,1469911428853,,,,,,,-0.0,0.08,0.99,-2.6,0.4,-0.3,740,55,,,,,,,,,,,,,,,,,
710246,1469911428873,0,188.3,176.2,13,171.6,,-0.0,0.08,0.99,-2.5,0.5,-0.3,740,55,13.455,0,39.54034,-122.331574,1.82,0.393,366.8,7,2,2.1,0,0.0,-1,0.0,0.0,0.0,0
710266,1469911428893,,,,,,,-0.01,0.07,0.99,-2.5,0.5,-0.4,760,55,,,,,,,,,,,,,,,,,
710286,1469911428907,,,,,,,-0.01,0.07,0.99,-2.5,0.5,-0.4,760,55,,,,,,,,,,,,,,,,,
710306,1469911428927,,,,,,,-0.0,0.07,0.99,-2.6,0.5,-0.2,760,56,,,,,,,,,,,,,,,,,
710326,1469911428947,,,,,,,-0.0,0.07,0.99,-2.6,0.6,-0.3,740,56,,,,,,,,,,,,,,,,,
710346,1469911428967,,,,12,,,-0.01,0.06,0.99,-2.6,0.4,-0.4,740,55,13.571,0,39.54034,-122.331574,1.82,0.393,366.8,7,2,2.1,0,0.0,-1,0.0,,0.0,0
710366,1469911428993,,,,,,,-0.01,0.07,0.99,-2.6,0.4,-0.3,740,55,,,,,,,,,,,,,,,,,
710386,1469911429013,,,,,,,-0.01,0.07,0.99,-2.6,0.4,-0.2,740,56,,,,,,,,,,,,,,,,,
710406,1469911429033,,,,,,,-0.01,0.07,0.99,-2.6,0.4,-0.2,740,56,,,,,,,,,,,,,,,,,
710426,1469911429053,,,,,,,-0.02,0.07,0.99,-2.6,0.3,-0.3,760,55,,,,,,,,,,,,,,,,,
710446,1469911429073,0,190.1,178.0,13,172.7,,-0.01,0.07,0.98,-2.6,0.4,-0.3,760,55,13.214,0,39.54034,-122.331574,1.82,0.393,366.8,7,2,2.1,0,0.0,-1,0.0,0.0,0.0,0
710466,1469911429193,,,,,,,-0.01,0.07,0.98,-2.6,0.4,-0.2,740,56,,,,,,,,,,,,,,,,,
710486,1469911429213,,,,,,,-0.01,0.07,0.98,-2.7,0.4,-0.2,740,55,,,,,,,,,,,,,,,,,
710506,1469911429233,,,,,,,-0.02,0.07,0.99,-2.7,0.3,-0.3,720,55,,,,,,,,,,,,,,,,,
710526,1469911429253,,,,,,,-0.02,0.08,0.99,-2.7,0.3,-0.3,720,55,,,,,,,,,,,,,,,,,
710546,1469911429273,,,,12,,,-0.02,0.08,0.99,-2.7,0.3,-0.2,740,55,13.455,0,39.54034,-122.331574,1.82,0.393,366.8,7,2,2.1,0,0.0,-1,0.0,,0.0,0
710566,1469911429293,,,,,,,-0.02,0.09,0.99,-2.8,0.2,-0.3,740,53,,,,,,,,,,,,,,,,,
710586,1469911429313,,,,,,,-0.03,0.08,0.99,-2.7,0.1,-0.4,760,53,,,,,,,,,,,,,,,,,
710606,1469911429333,,,,,,,-0.03,0.08,0.98,-2.7,0.2,-0.4,760,53,,,,,,,,,,,,,,,,,
710626,1469911429353,,,,,,,-0.03,0.07,0.98,-2.8,0.2,-0.2,760,55,,,,,,,,,,,,,,,,,
710646,1469911429373,0,188.9,176.5,12,171.8,,-0.03,0.08,0.98,-2.8,0.1,-0.2,720,55,14.34,0,39.54034,-122.331574,1.82,0.393,366.8,7,2,2.1,0,0.0,-1,0.0,0.0,0.0,0
710666,1469911429293,,,,,,,-0.04,0.07,0.98,-2.8,-0.1,-0.2,740,52,,,,,,,,,,,,,,,,,
710686,1469911429313,,,,,,,-0.04,0.08,0.98,-2.8,-0.0,-0.2,740,50,,,,,,,,,,,,,,,,,
710706,1469911429333,,,,,,,-0.04,0.08,0.98,-2.8,-0.1,-0.2,740,50,,,,,,,,,,,,,,,,,
710726,1469911429353,,,,,,,-0.04,0.08,0.98,-2.8,-0.1,-0.2,740,49,,,,,,,,,,,,,,,,,
710746,1469911429373,,,,13,,,-0.05,0.08,0.98,-2.8,-0.2,-0.3,780,46,14.8,0,39.54034,-122.331574,1.82,0.393,366.8,7,2,2.1,0,0.0,-1,0.0,,0.0,0
710766,1469911429393,,,,,,,-0.05,0.07,0.98,-2.8,-0.2,-0.3,780,46,,,,,,,,,,,,,,,,,
710786,1469911429413,,,,,,,-0.05,0.07,0.98,-2.8,-0.3,-0.3,740,47,,,,,,,,,,,,,,,,,
710806,1469911429433,,,,,,,-0.05,0.08,0.97,-2.9,-0.2,-0.2,740,47,,,,,,,,,,,,,,,,,
710826,1469911429453,,,,,,,-0.05,0.08,0.98,-2.8,-0.2,-0.3,740,43,,,,,,,,,,,,,,,,,
710846,1469911429473,0,188.8,176.1,13,171.3,,-0.06,0.07,0.98,-2.8,-0.1,-0.3,740,43,15.745,0,39.54034,-122.331574,1.82,0.393,366.8,7,2,2.1,0,0.0,-1,0.0,0.0,0.0,0
710866,1469911429493,,,,,,,-0.06,0.07,0.98,-2.8,-0.2,-0.2,740,40,,,,,,,,,,,,,,,,,
710886,1469911429513,,,,,,,-0.06,0.07,0.98,-2.8,-0.2,-0.2,740,40,,,,,,,,,,,,,,,,,
710906,1469911429533,,,,,,,-0.07,0.07,0.98,-2.8,-0.2,-0.3,760,36,,,,,,,,,,,,,,,,,
710926,1469911429553,,,,,,,-0.08,0.06,0.98,-2.8,-0.2,-0.3,740,36,,,,,,,,,,,,,,,,,
710946,1469911429573,,,,12,,,-0.07,0.06,0.98,-2.9,-0.2,-0.3,740,33,20.556,0,39.54034,-122.331574,1.82,0.393,366.8,7,2,2.1,0,0.0,-1,0.0,,0.0,0
710966,1469911429593,,,,,,,-0.07,0.07,0.98,-3.0,-0.2,-0.2,740,33,,,,,,,,,,,,,,,,,
710986,1469911429613,,,,,,,-0.07,0.07,0.99,-2.9,-0.1,-0.2,720,33,,,,,,,,,,,,,,,,,
711006,1469911429633,,,,,,,-0.08,0.07,0.99,-2.9,0.0,-0.3,760,27,,,,,,,,,,,,,,,,,
711026,1469911429653,,,,,,,-0.08,0.06,0.99,-3.0,-0.0,-0.2,760,27,,,,,,,,,,,,,,,,,
711046,1469911429673,0,189.6,176.9,11,172.0,13.38,-0.08,0.07,0.99,-3.0,-0.1,-0.2,740,27,26.667,0,39.54034,-122.331574,1.82,0.393,366.8,7,2,2.1,0,0.0,-1,0.0,0.0,0.0,0
711066,1469911429693,,,,,,,-0.08,0.07,0.99,-2.9,-0.0,-0.3,760,27,,,,,,,,,,,,,,,,,
711086,1469911429713,,,,,,,-0.08,0.06,0.99,-2.9,0.0,-0.4,740,21,,,,,,,,,,,,,,,,,
711106,1469911429733,,,,,,,-0.08,0.07,0.99,-3.0,0.1,-0.3,740,21,,,,,,,,,,,,,,,,,
711126,1469911429753,,,,,,,-0.08,0.08,0.99,-3.0,0.1,-0.2,720,21,,,,,,,,,,,,,,,,,
711146,1469911429773,,,,13,,,-0.08,0.07,0.99,-2.9,0.2,-0.3,740,21,35.238,0,39.54034,-122.331574,1.82,0.393,366.8,7,2,2.1,0,0.0,-1,0.0,,0.0,0
711166,1469911429793,,,,,,,-0.08,0.07,0.99,-2.9,0.2,-0.4,740,21,,,,,,,,,,,,,,,,,
711186,1469911429813,,,,,,,-0.08,0.07,0.99,-3.0,0.2,-0.3,740,1538461,,,,,,,,,,,,,,,,,
711206,1469911429833,,,,,,,-0.08,0.08,0.99,-3.0,0.2,-0.2,740,0,,,,,,,,,,,,,,,,,
711226,1469911429853,,,,,,,-0.08,0.07,0.99,-3.0,0.2,-0.3,760,0,,,,,,,,,,,,,,,,,
711246,1469911429873,0,189.9,177.1,12,172.1,,-0.08,0.07,0.99,-3.0,0.1,-0.4,760,0,0.0,0,39.54034,-122.331574,1.82,0.393,366.8,7,2,2.1,0,0.0,-1,0.0,0.0,0.0,0
711266,1469911429893,,,,,,,-0.08,0.07,0.99,-3.0,0.2,-0.3,760,0,,,,,,,,,,,,,,,,,
