"Interval"|"ms"|0|0|1,"Utc"|"ms"|0|0|1,"FuelLevel"|"F"|0|100|5,"OilTemp"|"F"|0.0|300.0|5,"Coolant"|"F"|0.0|300.0|5,"OilPress"|"PSI"|0|150|10,"EngineTemp"|"F"|0.0|300.0|5,"Battery"|"Volts"|0.0|20.0|1,"AccelX"|"G"|-3.0|3.0|50,"AccelY"|"G"|-3.0|3.0|50,"AccelZ"|"G"|-3.0|3.0|50,"Yaw"|"Deg/Sec"|-300.0|300.0|50,"Pitch"|"Deg/Sec"|-300.0|300.0|50,"Roll"|"Deg/Sec"|-300.0|300.0|50,"RPM"|""|0|10000|50,"Driveshaft"|"RPM"|0|5000|50,"GearRatio"|""|-5.0|5.0|10,"Gear"|""|-1|5|10,"Latitude"|"Degrees"|-180.0|180.0|10,"Longitude"|"Degrees"|-180.0|180.0|10,"Speed"|"MPH"|0.0|150.0|10,"Distance"|"Miles"|0.0|0.0|10,"Altitude"|"Feet"|0.0|4000.0|10,"GPSSats"|""|0|20|10,"GPSQual"|""|0|5|10,"GPSDOP"|""|0.0|20.0|10,"LapCount"|""|0|0|10,"LapTime"|"Min"|0.0|0.0|10,"Sector"|""|0|0|10,"SectorTime"|"Min"|0.0|0.0|10,"PredTime"|"Min"|0.0|0.0|5,"ElapsedTime"|"Min"|0.0|0.0|10,"CurrentLap"|""|0|0|10
5066,1469913191623,,,,,,,-0.01,0.13,0.99,-17.6,0.3,-0.4,1100,420,,,,,,,,,,,,,,,,,
5086,1469913191643,,,,,,,-0.02,0.12,1.0,-17.3,0.3,-0.5,1060,423,,,,,,,,,,,,,,,,,
5106,1469913191663,,,,,,,-0.01,0.12,1.0,-17.0,0.3,-0.6,1080,420,,,,,,,,,,,,,,,,,
5126,1469913191683,,,,,,,-0.02,0.13,1.0,-16.8,0.3,-0.5,1040,415,,,,,,,,,,,,,,,,,
5146,1469913191704,,,,11,,,-0.02,0.13,1.0,-16.7,0.0,-0.3,1080,433,2.506,0,39.538937,-122.332123,6.9,0.0,344.8,7,2,2.0,0,0.0,-1,0.0,,0.0,0
5166,1469913191724,,,,,,,-0.02,0.14,0.99,-16.5,-0.0,-0.1,1080,421,,,,,,,,,,,,,,,,,
5186,1469913191744,,,,,,,-0.02,0.15,0.99,-16.3,0.0,-0.1,1100,416,,,,,,,,,,,,,,,,,
5206,1469913191764,,,,,,,-0.02,0.14,0.99,-16.2,0.4,-0.0,1080,438,,,,,,,,,,,,,,,,,
5226,1469913191784,,,,,,,-0.01,0.14,0.98,-16.1,0.6,0.0,1060,424,,,,,,,,,,,,,,,,,
5246,1469913191803,0,251.5,198.2,9,202.5,,-0.02,0.14,0.98,-16.0,0.8,0.0,1080,421,2.517,0,39.538937,-122.332123,6.02,0.0,343.9,7,2,2.0,0,0.0,-1,0.0,0.0,0.0,0
5266,1469913191823,,,,,,,-0.02,0.14,0.97,-15.8,0.6,-0.0,1060,433,,,,,,,,,,,,,,,,,
5286,1469913191843,,,,,,,-0.02,0.14,0.97,-15.7,0.2,-0.1,1080,429,,,,,,,,,,,,,,,,,
5306,1469913191863,,,,,,,-0.02,0.14,0.98,-15.5,0.1,-0.1,1060,429,,,,,,,,,,,,,,,,,
5326,1469913191883,,,,,,,-0.01,0.14,0.99,-15.4,0.1,-0.1,1080,430,,,,,,,,,,,,,,,,,
5346,1469913191903,,,,12,,,-0.01,0.15,0.99,-15.3,0.1,-0.3,1060,427,2.517,0,39.538937,-122.332123,6.02,0.0,343.9,7,2,2.0,0,0.0,-1,0.0,,0.0,0
5366,1469913191917,,,,,,,-0.01,0.16,1.0,-15.3,0.3,-0.3,1060,443,,,,,,,,,,,,,,,,,
5386,1469913191937,,,,,,,-0.02,0.16,1.01,-15.2,0.2,-0.2,1080,426,,,,,,,,,,,,,,,,,
5406,1469913191957,,,,,,,-0.01,0.16,1.0,-15.2,-0.2,-0.1,1100,423,,,,,,,,,,,,,,,,,
5426,1469913191977,,,,,,,-0.01,0.17,0.99,-15.2,-0.2,0.1,1040,449,,,,,,,,,,,,,,,,,
5446,1469913191997,1,249.1,197.1,9,201.4,,0.0,0.17,1.0,-15.1,-0.3,0.1,1060,424,2.393,0,39.538937,-122.332138,3.22,0.001,342.8,7,2,2.0,0,0.0,-1,0.0,0.0,0.0,0
5466,1469913192020,,,,,,,0.0,0.17,1.0,-15.1,-0.1,0.1,1060,423,,,,,,,,,,,,,,,,,
5486,1469913192040,,,,,,,-0.0,0.16,0.99,-15.0,0.0,-0.1,1080,449,,,,,,,,,,,,,,,,,
5506,1469913192060,,,,,,,-0.01,0.16,0.99,-14.9,-0.0,-0.1,1080,427,,,,,,,,,,,,,,,,,
5526,1469913192080,,,,,,,-0.01,0.16,0.98,-14.8,-0.4,-0.2,1040,426,,,,,,,,,,,,,,,,,
5546,1469913192103,,,,11,,,-0.02,0.15,0.98,-14.6,-0.7,-0.3,1060,444,2.548,0,39.538937,-122.332138,2.01,0.001,342.8,7,2,2.0,0,0.0,-1,0.0,,0.0,0
5566,1469913192123,,,,,,,-0.01,0.13,0.97,-14.4,-0.8,-0.4,1060,435,,,,,,,,,,,,,,,,,
5586,1469913192143,,,,,,,-0.0,0.13,0.97,-14.2,-0.9,-0.5,1080,433,,,,,,,,,,,,,,,,,
5606,1469913192163,,,,,,,-0.0,0.13,0.98,-14.1,-0.7,-0.6,1060,436,,,,,,,,,,,,,,,,,
5626,1469913192183,,,,,,,-0.01,0.13,0.99,-14.0,-0.7,-0.6,1100,440,,,,,,,,,,,,,,,,,
5646,1469913192302,0,250.5,197.6,12,201.9,,-0.01,0.14,0.98,-13.9,-0.7,-0.6,1040,446,2.404,0,39.538937,-122.332138,2.08,0.001,343.8,7,2,2.0,0,0.0,-1,0.0,0.0,0.0,0
5666,1469913192322,,,,,,,-0.01,0.15,0.98,-13.8,-0.9,-0.5,1060,432,,,,,,,,,,,,,,,,,
5686,1469913192342,,,,,,,-0.0,0.15,0.98,-13.7,-1.0,-0.4,1060,438,,,,,,,,,,,,,,,,,
5706,1469913192362,,,,,,,0.0,0.15,0.98,-13.6,-0.9,-0.2,1060,458,,,,,,,,,,,,,,,,,
5726,1469913192382,,,,,,,0.01,0.14,0.99,-13.6,-0.5,-0.1,1080,433,,,,,,,,,,,,,,,,,
5746,1469913192402,,,,11,,,0.0,0.13,0.99,-13.5,-0.2,-0.1,1080,433,2.409,0,39.538937,-122.332138,2.08,0.001,343.8,7,2,2.0,0,0.0,-1,0.0,,0.0,0
5766,1469913192422,,,,,,,-0.01,0.13,0.98,-13.5,0.1,-0.0,1060,461,,,,,,,,,,,,,,,,,
5786,1469913192442,,,,,,,-0.01,0.13,0.96,-13.3,0.0,-0.0,1060,435,,,,,,,,,,,,,,,,,
5806,1469913192462,,,,,,,-0.01,0.12,0.96,-13.2,-0.4,-0.0,1060,435,,,,,,,,,,,,,,,,,
5826,1469913192482,,,,,,,-0.01,0.12,0.96,-13.0,-0.4,-0.0,1060,461,,,,,,,,,,,,,,,,,
5846,1469913192403,0,250.0,197.0,13,201.4,,-0.01,0.11,0.97,-12.9,-0.3,-0.1,1080,444,2.374,0,39.538937,-122.332138,5.13,0.001,343.7,7,2,2.0,0,0.0,-1,0.0,0.0,0.0,0
5866,1469913192423,,,,,,,-0.0,0.11,0.98,-12.9,0.0,-0.2,1080,443,,,,,,,,,,,,,,,,,
5886,1469913192443,,,,,,,0.0,0.12,0.99,-12.8,0.0,-0.2,1060,452,,,,,,,,,,,,,,,,,
5906,1469913192463,,,,,,,-0.0,0.12,0.99,-12.8,0.0,-0.2,1060,452,,,,,,,,,,,,,,,,,
5926,1469913192483,,,,,,,-0.01,0.12,0.99,-12.8,-0.2,-0.3,1060,449,,,,,,,,,,,,,,,,,
5946,1469913192502,,,,15,,,-0.01,0.13,0.99,-12.7,-0.1,-0.2,1060,446,2.466,0,39.538933,-122.332138,5.02,0.001,343.5,7,2,2.0,0,0.0,-1,0.0,,0.0,0
5966,1469913192522,,,,,,,-0.01,0.13,0.99,-12.7,0.1,-0.3,1060,453,,,,,,,,,,,,,,,,,
5986,1469913192542,,,,,,,-0.0,0.12,0.99,-12.7,0.7,-0.3,1060,461,,,,,,,,,,,,,,,,,
6006,1469913192562,,,,,,,-0.0,0.12,0.99,-12.7,0.9,-0.3,1060,436,,,,,,,,,,,,,,,,,
6026,1469913192582,,,,,,,-0.01,0.11,0.98,-12.6,0.8,-0.3,1060,456,,,,,,,,,,,,,,,,,
6046,1469913192604,0,249.6,196.9,12,201.1,13.83,-0.02,0.11,0.98,-12.5,0.7,-0.4,1080,464,2.416,0,39.538933,-122.332138,4.58,0.001,343.4,7,2,2.0,0,0.0,-1,0.0,0.0,0.0,0
6066,1469913192624,,,,,,,-0.01,0.1,0.97,-12.4,0.4,-0.5,1080,438,,,,,,,,,,,,,,,,,
6086,1469913192644,,,,,,,-0.0,0.1,0.96,-12.2,0.1,-0.5,1060,460,,,,,,,,,,,,,,,,,
6106,1469913192664,,,,,,,-0.0,0.09,0.97,-12.1,0.0,-0.6,1060,469,,,,,,,,,,,,,,,,,
6126,1469913192684,,,,,,,-0.01,0.1,0.97,-12.0,0.2,-0.7,1060,438,,,,,,,,,,,,,,,,,
6146,1469913192703,,,,13,,,-0.0,0.11,0.98,-12.0,0.1,-0.6,1080,456,2.4,0,39.538929,-122.332138,5.49,0.001,343.1,7,2,2.0,0,0.0,-1,0.0,,0.0,0
6166,1469913192723,,,,,,,-0.01,0.12,0.98,-11.9,-0.1,-0.6,1080,469,,,,,,,,,,,,,,,,,
6186,1469913192743,,,,,,,-0.0,0.13,0.98,-11.7,-0.1,-0.6,1100,450,,,,,,,,,,,,,,,,,
6206,1469913192763,,,,,,,0.0,0.13,0.98,-11.6,-0.1,-0.6,1060,455,,,,,,,,,,,,,,,,,
6226,1469913192783,,,,,,,0.01,0.12,0.99,-11.5,0.1,-0.5,1060,466,,,,,,,,,,,,,,,,,
6246,1469913192802,0,251.5,198.1,11,202.2,,0.0,0.11,0.99,-11.5,0.4,-0.5,1060,460,2.288,0,39.538929,-122.332138,5.58,0.001,342.7,7,2,2.0,0,0.0,-1,0.0,0.0,0.0,0
6266,1469913192822,,,,,,,-0.0,0.12,0.98,-11.4,0.2,-0.5,1080,456,,,,,,,,,,,,,,,,,
6286,1469913192842,,,,,,,-0.02,0.11,0.98,-11.2,-0.0,-0.5,1100,463,,,,,,,,,,,,,,,,,
6306,1469913192862,,,,,,,-0.02,0.11,0.98,-11.1,-0.2,-0.6,1060,467,,,,,,,,,,,,,,,,,
6326,1469913192882,,,,,,,-0.01,0.11,0.97,-11.0,-0.4,-0.6,1060,463,,,,,,,,,,,,,,,,,
6346,1469913192902,,,,13,,,-0.01,0.11,0.96,-10.9,-0.3,-0.6,1100,456,2.325,0,39.538929,-122.332138,5.58,0.001,342.7,7,2,2.0,0,0.0,-1,0.0,,0.0,0
6366,1469913192917,,,,,,,-0.0,0.11,0.97,-10.8,-0.1,-0.6,1060,480,,,,,,,,,,,,,,,,,
6386,1469913192937,,,,,,,-0.01,0.11,0.98,-10.8,-0.5,-0.6,1080,460,,,,,,,,,,,,,,,,,
6406,1469913192957,,,,,,,-0.01,0.11,0.97,-10.7,-0.6,-0.6,1100,456,,,,,,,,,,,,,,,,,
6426,1469913192977,,,,,,,-0.01,0.11,0.98,-10.6,-0.7,-0.5,1060,487,,,,,,,,,,,,,,,,,
6446,1469913193103,2,251.8,197.3,13,201.8,,-0.0,0.13,0.99,-10.5,-0.7,-0.5,1080,461,2.246,0,39.538918,-122.332138,7.68,0.002,341.9,7,2,2.0,0,0.0,-1,0.0,0.0,0.0,0
6466,1469913193123,,,,,,,0.0,0.13,0.99,-10.5,-0.5,-0.4,1080,455,,,,,,,,,,,,,,,,,
6486,1469913193143,,,,,,,-0.0,0.12,0.99,-10.4,-0.4,-0.4,1060,489,,,,,,,,,,,,,,,,,
6506,1469913193163,,,,,,,-0.01,0.11,0.99,-10.4,-0.1,-0.3,1100,466,,,,,,,,,,,,,,,,,
6526,1469913193183,,,,,,,-0.02,0.11,0.99,-10.3,-0.4,-0.3,1060,456,,,,,,,,,,,,,,,,,
6546,1469913193203,,,,12,,,-0.02,0.11,0.99,-10.2,-0.5,-0.3,1080,483,2.416,0,39.538918,-122.332138,7.68,0.002,341.9,7,2,2.0,0,0.0,-1,0.0,,0.0,0
6566,1469913193223,,,,,,,-0.01,0.1,0.98,-10.1,-0.5,-0.2,1080,470,,,,,,,,,,,,,,,,,
6586,1469913193243,,,,,,,-0.01,0.1,0.99,-10.0,-0.2,-0.2,1080,464,,,,,,,,,,,,,,,,,
6606,1469913193263,,,,,,,-0.01,0.11,0.99,-10.0,-0.3,-0.1,1100,480,,,,,,,,,,,,,,,,,
6626,1469913193283,,,,,,,-0.0,0.12,0.99,-9.9,-0.4,-0.1,1100,475,,,,,,,,,,,,,,,,,
6646,1469913193204,0,250.1,197.4,11,201.5,,-0.01,0.12,0.99,-9.8,-0.6,-0.0,1060,469,2.25,0,39.538918,-122.332138,7.05,0.002,341.7,7,2,2.0,0,0.0,-1,0.0,0.0,0.0,0
6666,1469913193224,,,,,,,-0.01,0.12,0.99,-9.7,-0.7,-0.0,1080,470,,,,,,,,,,,,,,,,,
6686,1469913193244,,,,,,,-0.0,0.12,0.98,-9.7,-0.4,-0.0,1080,484,,,,,,,,,,,,,,,,,
6706,1469913193264,,,,,,,-0.0,0.12,0.98,-9.7,-0.3,0.0,1080,473,,,,,,,,,,,,,,,,,
6726,1469913193284,,,,,,,-0.01,0.12,0.97,-9.6,-0.1,0.1,1080,464,,,,,,,,,,,,,,,,,
6746,1469913193304,,,,12,,,-0.01,0.13,0.98,-9.6,-0.3,0.1,1080,490,2.313,0,39.538918,-122.332138,4.6,0.002,341.2,7,2,2.0,0,0.0,-1,0.0,,0.0,0
6766,1469913193324,,,,,,,-0.0,0.13,0.97,-9.5,-0.7,-0.0,1060,476,,,,,,,,,,,,,,,,,
6786,1469913193344,,,,,,,0.01,0.13,0.96,-9.4,-0.8,-0.1,1100,460,,,,,,,,,,,,,,,,,
6806,1469913193364,,,,,,,0.0,0.13,0.97,-9.4,-0.5,-0.1,1080,501,,,,,,,,,,,,,,,,,
6826,1469913193384,,,,,,,0.0,0.14,0.98,-9.3,-0.5,-0.2,1100,481,,,,,,,,,,,,,,,,,
6846,1469913193403,0,250.3,197.0,13,201.3,,-0.0,0.13,0.97,-9.3,-0.4,-0.2,1120,458,2.218,0,39.538914,-122.332138,5.75,0.002,340.9,7,2,2.0,0,0.0,-1,0.0,0.0,0.0,0
6866,1469913193423,,,,,,,0.0,0.13,0.97,-9.2,-0.4,-0.1,1060,503,,,,,,,,,,,,,,,,,
6886,1469913193443,,,,,,,0.0,0.13,0.97,-9.1,-0.4,-0.1,1080,484,,,,,,,,,,,,,,,,,
6906,1469913193463,,,,,,,0.0,0.13,0.97,-9.1,-0.3,-0.2,1120,463,,,,,,,,,,,,,,,,,
6926,1469913193483,,,,,,,-0.0,0.12,0.96,-9.0,-0.2,-0.2,1080,500,,,,,,,,,,,,,,,,,
6946,1469913193503,,,,13,,,-0.01,0.11,0.97,-8.9,-0.4,-0.3,1120,487,2.181,0,39.538914,-122.332138,4.78,0.002,341.3,7,2,2.0,0,0.0,-1,0.0,,0.0,0
6966,1469913193523,,,,,,,-0.02,0.11,0.97,-8.8,-0.4,-0.4,1080,469,,,,,,,,,,,,,,,,,
6986,1469913193543,,,,,,,-0.01,0.1,0.96,-8.8,-0.3,-0.4,1080,495,,,,,,,,,,,,,,,,,
7006,1469913193563,,,,,,,-0.01,0.1,0.97,-8.7,-0.5,-0.5,1100,489,,,,,,,,,,,,,,,,,
7026,1469913193583,,,,,,,-0.01,0.11,0.99,-8.6,-0.3,-0.5,1080,475,,,,,,,,,,,,,,,,,
7046,1469913193603,0,251.0,197.6,18,201.9,13.82,-0.01,0.12,0.99,-8.7,-0.1,-0.4,1100,492,2.383,0,39.53891,-122.332138,4.72,0.003,341.4,7,2,2.0,0,0.0,-1,0.0,0.0,0.0,0
7066,1469913193623,,,,,,,-0.01,0.12,1.0,-8.7,-0.2,-0.3,1100,495,,,,,,,,,,,,,,,,,
7086,1469913193643,,,,,,,-0.01,0.12,1.0,-8.7,0.0,-0.2,1080,484,,,,,,,,,,,,,,,,,
7106,1469913193663,,,,,,,-0.01,0.11,0.99,-8.6,0.3,-0.1,1080,487,,,,,,,,,,,,,,,,,
7126,1469913193683,,,,,,,-0.01,0.1,0.98,-8.6,0.3,-0.1,1100,504,,,,,,,,,,,,,,,,,
7146,1469913193701,,,,12,,,-0.01,0.11,0.98,-8.5,0.3,-0.1,1080,489,2.218,0,39.53891,-122.332138,4.04,0.003,341.6,7,2,2.0,0,0.0,-1,0.0,,0.0,0
7166,1469913193721,,,,,,,-0.01,0.1,0.98,-8.5,0.1,-0.2,1100,486,,,,,,,,,,,,,,,,,
7186,1469913193741,,,,,,,-0.01,0.09,0.97,-8.4,-0.2,-0.3,1080,507,,,,,,,,,,,,,,,,,
7206,1469913193761,,,,,,,-0.01,0.09,0.97,-8.2,-0.2,-0.3,1080,487,,,,,,,,,,,,,,,,,
7226,1469913193781,,,,,,,-0.01,0.1,0.98,-8.1,-0.3,-0.3,1080,483,,,,,,,,,,,,,,,,,
7246,1469913193901,0,251.2,197.7,13,202.0,,-0.01,0.1,0.98,-8.1,-0.3,-0.2,1080,515,2.25,0,39.538906,-122.332138,3.72,0.003,342.0,8,2,1.7,0,0.0,-1,0.0,0.0,0.0,0
7266,1469913193921,,,,,,,-0.02,0.1,0.97,-8.0,-0.4,-0.1,1080,487,,,,,,,,,,,,,,,,,
7286,1469913193941,,,,,,,-0.01,0.09,0.97,-7.8,-0.4,0.0,1100,483,,,,,,,,,,,,,,,,,
7306,1469913193961,,,,,,,-0.01,0.09,0.98,-7.8,-0.1,0.2,1080,518,,,,,,,,,,,,,,,,,
7326,1469913193981,,,,,,,-0.01,0.09,0.98,-7.7,0.1,0.2,1080,489,,,,,,,,,,,,,,,,,
7346,1469913194001,,,,9,,,-0.01,0.09,0.98,-7.7,0.1,0.2,1080,487,2.143,0,39.538906,-122.332138,3.72,0.003,342.0,8,2,1.7,0,0.0,-1,0.0,,0.0,0
7366,1469913194021,,,,,,,-0.02,0.1,0.98,-7.6,0.2,0.1,1080,521,,,,,,,,,,,,,,,,,
7386,1469913194041,,,,,,,-0.02,0.1,0.97,-7.5,-0.1,-0.0,1080,489,,,,,,,,,,,,,,,,,
7406,1469913194061,,,,,,,-0.02,0.1,0.97,-7.3,0.2,-0.1,1100,492,,,,,,,,,,,,,,,,,
7426,1469913194081,,,,,,,-0.01,0.1,0.98,-7.2,0.5,-0.3,1060,515,,,,,,,,,,,,,,,,,
7446,1469913194001,0,249.6,196.8,13,201.0,,-0.01,0.12,0.99,-7.2,0.5,-0.4,1080,490,2.118,0,39.538902,-122.332138,3.34,0.003,342.1,8,2,1.7,0,0.0,-1,0.0,0.0,0.0,0
7466,1469913194021,,,,,,,-0.01,0.11,0.98,-7.1,0.3,-0.3,1080,500,,,,,,,,,,,,,,,,,
7486,1469913194041,,,,,,,-0.0,0.12,0.99,-7.0,0.3,-0.2,1100,512,,,,,,,,,,,,,,,,,
7506,1469913194061,,,,,,,-0.01,0.11,1.0,-6.9,0.3,-0.2,1080,489,,,,,,,,,,,,,,,,,
7526,1469913194081,,,,,,,-0.0,0.09,0.99,-6.8,0.5,-0.2,1100,500,,,,,,,,,,,,,,,,,
7546,1469913194102,,,,9,,,-0.0,0.08,0.99,-6.6,0.6,-0.3,1100,509,2.218,0,39.538902,-122.332138,3.41,0.003,342.1,8,2,1.7,0,0.0,-1,0.0,,0.0,0
7566,1469913194122,,,,,,,-0.01,0.08,0.99,-6.4,0.4,-0.3,1120,496,,,,,,,,,,,,,,,,,
7586,1469913194142,,,,,,,-0.01,0.08,0.98,-6.2,0.1,-0.3,1100,503,,,,,,,,,,,,,,,,,
7606,1469913194162,,,,,,,-0.01,0.08,0.97,-5.9,0.2,-0.2,1140,509,,,,,,,,,,,,,,,,,
7626,1469913194182,,,,,,,0.0,0.08,0.98,-5.8,0.3,-0.2,1100,500,,,,,,,,,,,,,,,,,
7646,1469913194204,0,251.3,198.0,10,202.1,,0.0,0.09,0.98,-5.7,0.3,-0.1,1120,495,2.2,0,39.538898,-122.332138,4.01,0.003,342.1,8,2,1.7,0,0.0,-1,0.0,0.0,0.0,0
7666,1469913194224,,,,,,,0.01,0.09,0.98,-5.5,0.4,-0.2,1140,507,,,,,,,,,,,,,,,,,
7686,1469913194244,,,,,,,0.01,0.08,0.98,-5.3,0.5,-0.2,1160,504,,,,,,,,,,,,,,,,,
7706,1469913194264,,,,,,,0.01,0.07,0.98,-5.2,0.5,-0.2,1180,492,,,,,,,,,,,,,,,,,
7726,1469913194284,,,,,,,0.01,0.07,0.99,-5.1,0.1,-0.3,1140,506,,,,,,,,,,,,,,,,,
7746,1469913194304,,,,13,,,0.01,0.07,0.99,-4.9,0.2,-0.2,1180,503,2.227,0,39.538898,-122.332138,1.9,0.003,342.1,8,2,1.7,0,0.0,-1,0.0,,0.0,0
7766,1469913194324,,,,,,,0.02,0.08,1.0,-4.9,0.0,-0.1,1160,483,,,,,,,,,,,,,,,,,
7786,1469913194344,,,,,,,0.02,0.09,0.99,-4.7,-0.0,-0.0,1200,486,,,,,,,,,,,,,,,,,
7806,1469913194364,,,,,,,0.02,0.08,0.99,-4.6,0.0,-0.0,1240,487,,,,,,,,,,,,,,,,,
7826,1469913194384,,,,,,,0.02,0.08,0.99,-4.6,0.1,-0.0,1220,486,,,,,,,,,,,,,,,,,
7846,1469913194405,0,251.0,196.7,16,200.9,,0.03,0.08,0.98,-4.6,0.2,-0.1,1220,484,2.367,0,39.538898,-122.332138,1.14,0.003,342.0,8,2,1.7,0,0.0,-1,0.0,0.0,0.0,0
7866,1469913194425,,,,,,,0.03,0.09,0.98,-4.6,0.2,-0.0,1240,493,,,,,,,,,,,,,,,,,
7886,1469913194445,,,,,,,0.02,0.08,0.97,-4.5,0.3,-0.1,1260,492,,,,,,,,,,,,,,,,,
7906,1469913194465,,,,,,,0.03,0.08,0.97,-4.5,0.4,-0.1,1280,496,,,,,,,,,,,,,,,,,
7926,1469913194485,,,,,,,0.03,0.08,0.98,-4.4,0.5,-0.1,1260,498,,,,,,,,,,,,,,,,,
7946,1469913194504,,,,13,,,0.03,0.09,0.98,-4.4,0.3,-0.1,1280,500,2.577,0,39.538898,-122.332138,1.02,0.003,342.0,8,2,1.7,0,0.0,-1,0.0,,0.0,0
7966,1469913194524,,,,,,,0.03,0.07,0.97,-4.3,0.4,-0.1,1240,501,,,,,,,,,,,,,,,,,
7986,1469913194544,,,,,,,0.03,0.09,0.97,-4.3,0.3,-0.0,1280,498,,,,,,,,,,,,,,,,,
8006,1469913194564,,,,,,,0.03,0.08,0.97,-4.3,0.2,-0.0,1240,495,,,,,,,,,,,,,,,,,
8026,1469913194584,,,,,,,0.02,0.07,0.97,-4.3,0.1,-0.1,1200,500,,,,,,,,,,,,,,,,,
8046,1469913194702,0,250.1,197.5,16,201.9,13.8,0.03,0.07,0.97,-4.3,0.1,0.0,1220,496,2.555,0,39.538895,-122.332138,2.77,0.004,342.2,8,2,1.7,0,0.0,-1,0.0,0.0,0.0,0
8066,1469913194722,,,,,,,0.03,0.07,0.98,-4.3,0.3,0.1,1180,489,,,,,,,,,,,,,,,,,
8086,1469913194742,,,,,,,0.03,0.07,0.98,-4.3,0.6,0.2,1140,493,,,,,,,,,,,,,,,,,
8106,1469913194762,,,,,,,0.03,0.09,0.98,-4.3,0.5,0.2,1160,490,,,,,,,,,,,,,,,,,
8126,1469913194782,,,,,,,0.03,0.08,0.98,-4.3,0.8,0.3,1100,490,,,,,,,,,,,,,,,,,
8146,1469913194802,,,,17,,,0.03,0.08,0.98,-4.3,1.0,0.3,1080,495,2.398,0,39.538895,-122.332138,2.77,0.004,342.2,8,2,1.7,0,0.0,-1,0.0,,0.0,0
8166,1469913194822,,,,,,,0.03,0.08,0.98,-4.3,1.2,0.3,1060,492,,,,,,,,,,,,,,,,,
8186,1469913194842,,,,,,,0.04,0.08,0.98,-4.4,1.1,0.3,1040,492,,,,,,,,,,,,,,,,,
8206,1469913194862,,,,,,,0.04,0.09,0.98,-4.2,0.6,0.1,1060,490,,,,,,,,,,,,,,,,,
8226,1469913194882,,,,,,,0.04,0.08,0.98,-4.2,0.5,0.1,1000,486,,,,,,,,,,,,,,,,,
8246,1469913194803,0,250.1,197.6,12,201.8,,0.04,0.07,0.97,-4.1,0.6,0.0,1020,484,2.195,0,39.538895,-122.332138,1.86,0.004,342.1,8,2,1.7,0,0.0,-1,0.0,0.0,0.0,0
8266,1469913194823,,,,,,,0.05,0.06,0.97,-4.0,0.5,-0.1,1000,487,,,,,,,,,,,,,,,,,
8286,1469913194843,,,,,,,0.04,0.06,0.97,-4.0,0.6,-0.0,980,481,,,,,,,,,,,,,,,,,
8306,1469913194863,,,,,,,0.04,0.07,0.98,-4.0,0.8,-0.1,980,483,,,,,,,,,,,,,,,,,
8326,1469913194883,,,,,,,0.03,0.07,0.97,-3.9,0.4,-0.1,980,484,,,,,,,,,,,,,,,,,
8346,1469913194903,,,,8,,,0.04,0.06,0.97,-3.9,0.3,-0.2,940,484,2.094,0,39.538895,-122.332138,1.86,0.004,342.1,8,2,1.7,0,0.0,-1,0.0,,0.0,0
8366,1469913194915,,,,,,,0.04,0.07,0.97,-3.8,0.2,-0.3,940,486,,,,,,,,,,,,,,,,,
8386,1469913194935,,,,,,,0.04,0.07,0.97,-3.8,0.1,-0.4,940,487,,,,,,,,,,,,,,,,,
8406,1469913194955,,,,,,,0.05,0.08,0.98,-3.7,0.0,-0.5,920,487,,,,,,,,,,,,,,,,,
8426,1469913194975,,,,,,,0.05,0.09,0.98,-3.7,0.2,-0.6,920,486,,,,,,,,,,,,,,,,,
8446,1469913195003,0,250.3,196.9,8,201.1,,0.05,0.1,0.98,-3.8,0.2,-0.6,900,483,1.946,2,39.538895,-122.332138,2.46,0.004,341.5,8,2,1.7,0,0.0,-1,0.0,0.0,0.0,0
8466,1469913195023,,,,,,,0.05,0.1,0.98,-3.8,0.2,-0.7,900,481,,,,,,,,,,,,,,,,,
8486,1469913195043,,,,,,,0.04,0.1,0.98,-3.8,0.1,-0.6,900,478,,,,,,,,,,,,,,,,,
8506,1469913195063,,,,,,,0.04,0.09,0.98,-3.7,-0.1,-0.7,840,483,,,,,,,,,,,,,,,,,
8526,1469913195083,,,,,,,0.03,0.09,0.98,-3.6,-0.2,-0.7,860,480,,,,,,,,,,,,,,,,,
8546,1469913195102,,,,8,,,0.04,0.08,0.98,-3.6,-0.4,-0.6,840,481,1.863,2,39.538895,-122.332138,2.13,0.004,341.5,8,2,1.7,0,0.0,-1,0.0,,0.0,0
8566,1469913195122,,,,,,,0.03,0.08,0.98,-3.6,-0.4,-0.5,840,480,,,,,,,,,,,,,,,,,
8586,1469913195142,,,,,,,0.03,0.08,0.99,-3.6,-0.2,-0.3,840,483,,,,,,,,,,,,,,,,,
8606,1469913195162,,,,,,,0.03,0.08,0.99,-3.6,-0.3,-0.2,820,475,,,,,,,,,,,,,,,,,
8626,1469913195182,,,,,,,0.03,0.08,1.0,-3.6,-0.3,-0.1,820,480,,,,,,,,,,,,,,,,,
8646,1469913195202,0,249.6,197.9,8,202.1,,0.04,0.08,1.0,-3.6,-0.5,-0.2,760,480,1.746,2,39.538895,-122.332138,2.29,0.004,341.4,8,2,1.7,0,0.0,-1,0.0,0.0,0.0,0
8666,1469913195222,,,,,,,0.03,0.07,0.99,-3.5,-0.5,-0.2,780,475,,,,,,,,,,,,,,,,,
8686,1469913195242,,,,,,,0.03,0.06,1.0,-3.4,-0.5,-0.2,780,475,,,,,,,,,,,,,,,,,
8706,1469913195262,,,,,,,0.03,0.07,0.99,-3.3,-0.3,-0.2,760,475,,,,,,,,,,,,,,,,,
8726,1469913195282,,,,,,,0.04,0.06,0.99,-3.3,-0.2,-0.1,760,473,,,,,,,,,,,,,,,,,
8746,1469913195303,,,,7,,,0.04,0.06,0.99,-3.2,-0.3,-0.1,740,472,1.597,0,39.538895,-122.332138,4.88,0.004,341.5,8,2,1.7,0,0.0,-1,0.0,,0.0,0
8766,1469913195323,,,,,,,0.04,0.06,0.98,-3.1,-0.2,-0.1,740,472,,,,,,,,,,,,,,,,,
8786,1469913195343,,,,,,,0.04,0.06,0.98,-3.0,-0.2,-0.0,740,472,,,,,,,,,,,,,,,,,
8806,1469913195363,,,,,,,0.04,0.06,0.98,-2.8,0.2,-0.1,720,470,,,,,,,,,,,,,,,,,
8826,1469913195383,,,,,,,0.05,0.05,0.99,-2.8,0.3,-0.1,720,472,,,,,,,,,,,,,,,,,
8846,1469913195401,0,251.7,197.9,6,200.6,,0.05,0.05,0.99,-2.8,0.3,0.1,720,470,1.574,0,39.538891,-122.332138,5.67,0.004,341.7,8,2,1.7,0,0.0,-1,0.0,0.0,0.0,0
8866,1469913195520,,,,,,,0.05,0.06,0.98,-2.7,0.2,0.0,700,469,,,,,,,,,,,,,,,,,
8886,1469913195540,,,,,,,0.04,0.06,0.98,-2.6,0.4,-0.1,680,469,,,,,,,,,,,,,,,,,
8906,1469913195560,,,,,,,0.05,0.06,0.98,-2.5,0.4,-0.2,680,469,,,,,,,,,,,,,,,,,
8926,1469913195580,,,,,,,0.04,0.07,0.98,-2.5,0.3,-0.2,680,467,,,,,,,,,,,,,,,,,
8946,1469913195600,,,,5,,,0.04,0.08,0.98,-2.3,0.3,-0.3,660,467,1.489,0,39.538887,-122.332138,4.78,0.004,341.8,8,2,1.7,0,0.0,-1,0.0,,0.0,0
8966,1469913195620,,,,,,,0.04,0.08,0.97,-2.3,0.1,-0.2,660,467,,,,,,,,,,,,,,,,,
8986,1469913195640,,,,,,,0.04,0.08,0.97,-2.2,0.0,-0.1,640,469,,,,,,,,,,,,,,,,,
9006,1469913195660,,,,,,,0.04,0.08,0.96,-2.1,-0.2,-0.1,640,467,,,,,,,,,,,,,,,,,
9026,1469913195680,,,,,,,0.04,0.08,0.96,-2.1,0.0,-0.1,640,467,,,,,,,,,,,,,,,,,
9046,1469913195700,0,250.7,196.4,4,200.7,13.82,0.04,0.09,0.97,-2.1,0.0,-0.0,640,467,1.413,3,39.538887,-122.332138,4.78,0.004,341.8,8,2,1.7,0,0.0,-1,0.0,0.0,0.0,0
9066,1469913195618,,,,,,,0.04,0.09,0.97,-2.0,0.1,-0.1,640,466,,,,,,,,,,,,,,,,,
9086,1469913195638,,,,,,,0.04,0.09,0.97,-1.9,0.1,0.0,620,467,,,,,,,,,,,,,,,,,
9106,1469913195658,,,,,,,0.03,0.09,0.97,-1.9,0.3,0.1,620,466,,,,,,,,,,,,,,,,,
9126,1469913195678,,,,,,,0.03,0.07,0.98,-1.7,0.3,0.1,620,467,,,,,,,,,,,,,,,,,
9146,1469913195698,,,,4,,,0.04,0.08,0.98,-1.6,0.4,-0.0,620,469,1.37,3,39.538887,-122.332138,4.83,0.004,342.0,8,2,1.7,0,0.0,-1,0.0,,0.0,0
9166,1469913195720,,,,,,,0.04,0.08,0.98,-1.6,0.5,-0.1,600,469,,,,,,,,,,,,,,,,,
9186,1469913195740,,,,,,,0.04,0.09,0.99,-1.6,0.9,-0.2,600,466,,,,,,,,,,,,,,,,,
9206,1469913195760,,,,,,,0.03,0.09,0.98,-1.6,1.1,-0.3,600,466,,,,,,,,,,,,,,,,,
9226,1469913195780,,,,,,,0.03,0.08,0.98,-1.6,1.0,-0.4,600,466,,,,,,,,,,,,,,,,,
9246,1469913195804,0,251.3,196.4,4,200.6,,0.03,0.08,0.98,-1.5,0.9,-0.3,600,464,1.328,3,39.538883,-122.332138,2.91,0.005,341.9,8,2,1.7,0,0.0,-1,0.0,0.0,0.0,0
9266,1469913195824,,,,,,,0.03,0.08,0.99,-1.5,0.8,-0.2,580,466,,,,,,,,,,,,,,,,,
9286,1469913195844,,,,,,,0.03,0.07,0.99,-1.4,0.6,-0.1,580,463,,,,,,,,,,,,,,,,,
9306,1469913195864,,,,,,,0.03,0.06,0.99,-1.4,0.7,0.0,580,460,,,,,,,,,,,,,,,,,
9326,1469913195884,,,,,,,0.03,0.05,0.99,-1.4,0.5,0.1,580,458,,,,,,,,,,,,,,,,,
9346,1469913195904,,,,3,,,0.03,0.06,1.0,-1.4,0.5,0.1,580,456,1.288,3,39.538883,-122.332138,2.91,0.005,341.9,8,2,1.7,0,0.0,-1,0.0,,0.0,0
9366,1469913195916,,,,,,,0.03,0.05,0.99,-1.3,0.4,0.0,580,455,,,,,,,,,,,,,,,,,
9386,1469913195936,,,,,,,0.03,0.06,1.0,-1.3,0.4,0.3,560,456,,,,,,,,,,,,,,,,,
9406,1469913195956,,,,,,,0.03,0.07,1.0,-1.3,0.3,0.3,580,456,,,,,,,,,,,,,,,,,
9426,1469913195976,,,,,,,0.02,0.06,1.0,-1.3,0.4,0.3,580,456,,,,,,,,,,,,,,,,,
9446,1469913196002,0,250.1,197.2,3,201.5,,0.02,0.07,0.99,-1.3,0.3,0.2,580,456,1.272,3,39.538879,-122.332138,3.15,0.005,341.7,8,2,1.7,0,0.0,-1,0.0,0.0,0.0,0
9466,1469913196022,,,,,,,0.03,0.05,0.98,-1.2,0.2,0.0,580,456,,,,,,,,,,,,,,,,,
9486,1469913196042,,,,,,,0.03,0.06,0.97,-1.2,0.2,-0.0,560,455,,,,,,,,,,,,,,,,,
9506,1469913196062,,,,,,,0.03,0.05,0.97,-1.1,0.2,-0.1,580,453,,,,,,,,,,,,,,,,,
9526,1469913196082,,,,,,,0.03,0.05,0.97,-1.0,0.0,-0.3,580,452,,,,,,,,,,,,,,,,,
9546,1469913196102,,,,4,,,0.03,0.05,0.97,-1.0,0.1,-0.4,580,452,1.272,3,39.538876,-122.332138,3.1,0.005,341.7,8,2,1.7,0,0.0,-1,0.0,,0.0,0
9566,1469913196122,,,,,,,0.03,0.04,0.98,-1.0,0.1,-0.4,580,453,,,,,,,,,,,,,,,,,
9586,1469913196142,,,,,,,0.03,0.04,0.98,-1.1,0.1,-0.4,560,453,,,,,,,,,,,,,,,,,
9606,1469913196162,,,,,,,0.03,0.04,0.98,-1.1,0.4,-0.5,560,460,,,,,,,,,,,,,,,,,
9626,1469913196182,,,,,,,0.04,0.05,0.98,-1.2,0.4,-0.4,580,456,,,,,,,,,,,,,,,,,
9646,1469913196303,0,251.7,196.8,4,200.8,,0.04,0.05,0.99,-1.2,0.4,-0.4,580,456,1.275,3,39.538876,-122.332138,3.04,0.005,341.5,8,2,1.7,0,0.0,-1,0.0,0.0,0.0,0
9666,1469913196323,,,,,,,0.03,0.04,0.98,-1.2,0.3,-0.4,580,456,,,,,,,,,,,,,,,,,
9686,1469913196343,,,,,,,0.04,0.04,0.99,-1.2,0.4,-0.3,580,455,,,,,,,,,,,,,,,,,
9706,1469913196363,,,,,,,0.04,0.04,0.98,-1.2,0.4,-0.3,580,450,,,,,,,,,,,,,,,,,
9726,1469913196383,,,,,,,0.04,0.04,0.97,-1.3,0.4,-0.3,600,450,,,,,,,,,,,,,,,,,
9746,1469913196403,,,,3,,,0.04,0.04,0.97,-1.2,0.2,-0.4,600,452,1.275,3,39.538876,-122.332138,3.04,0.005,341.5,8,2,1.7,0,0.0,-1,0.0,,0.0,0
9766,1469913196423,,,,,,,0.04,0.03,0.97,-1.2,0.3,-0.4,600,450,,,,,,,,,,,,,,,,,
9786,1469913196443,,,,,,,0.05,0.04,0.97,-1.1,0.1,-0.4,580,452,,,,,,,,,,,,,,,,,
9806,1469913196463,,,,,,,0.04,0.04,0.96,-1.0,0.0,-0.4,620,452,,,,,,,,,,,,,,,,,
9826,1469913196483,,,,,,,0.04,0.04,0.98,-1.0,0.3,-0.4,620,452,,,,,,,,,,,,,,,,,
9846,1469913196503,0,249.5,197.8,5,201.9,,0.04,0.04,0.98,-0.9,0.0,-0.3,600,449,1.333,3,39.538876,-122.332138,3.04,0.005,341.5,8,2,1.7,0,0.0,-1,0.0,0.0,0.0,0
9866,1469913196419,,,,,,,0.04,0.04,0.98,-0.8,-0.0,-0.3,600,449,,,,,,,,,,,,,,,,,
9886,1469913196439,,,,,,,0.04,0.05,1.0,-0.8,-0.1,-0.2,620,449,,,,,,,,,,,,,,,,,
9906,1469913196459,,,,,,,0.04,0.05,0.99,-0.7,0.0,-0.3,620,443,,,,,,,,,,,,,,,,,
9926,1469913196479,,,,,,,0.04,0.05,0.99,-0.7,0.1,-0.3,620,447,,,,,,,,,,,,,,,,,
9946,1469913196505,,,,5,,,0.04,0.05,0.99,-0.6,0.1,-0.3,620,444,1.336,3,39.538876,-122.332138,3.24,0.005,341.6,8,2,1.7,0,0.0,-1,0.0,,0.0,0
9966,1469913196525,,,,,,,0.03,0.04,1.0,-0.6,-0.0,-0.4,620,436,,,,,,,,,,,,,,,,,
9986,1469913196545,,,,,,,0.03,0.05,1.0,-0.7,-0.1,-0.2,620,436,,,,,,,,,,,,,,,,,
10006,1469913196565,,,,,,,0.03,0.06,0.99,-0.7,-0.1,-0.2,640,438,,,,,,,,,,,,,,,,,
10026,1469913196585,,,,,,,0.03,0.05,0.99,-0.8,0.0,-0.3,640,436,,,,,,,,,,,,,,,,,
10046,1469913196591,0,250.1,197.5,5,201.5,13.86,0.04,0.06,0.99,-0.8,0.1,-0.3,640,436,1.409,3,39.538872,-122.332138,2.17,0.005,341.5,8,2,1.7,0,0.0,-1,0.0,0.0,0.0,0
10066,1469913196611,,,,,,,0.04,0.07,0.99,-0.9,0.2,-0.3,640,435,,,,,,,,,,,,,,,,,
10086,1469913196631,,,,,,,0.03,0.06,0.99,-0.9,-0.0,-0.3,640,436,,,,,,,,,,,,,,,,,
10106,1469913196651,,,,,,,0.03,0.06,1.0,-1.0,-0.1,-0.1,660,440,,,,,,,,,,,,,,,,,
10126,1469913196671,,,,,,,0.04,0.06,1.0,-1.0,-0.0,-0.0,660,436,,,,,,,,,,,,,,,,,
10146,1469913196691,,,,6,,,0.04,0.05,0.99,-1.0,0.0,-0.0,660,433,1.468,0,39.538872,-122.332138,4.83,0.005,341.6,8,2,1.7,0,0.0,-1,0.0,,0.0,0
10166,1469913196711,,,,,,,0.04,0.05,0.99,-1.2,0.1,0.2,660,430,,,,,,,,,,,,,,,,,
10186,1469913196731,,,,,,,0.04,0.06,0.99,-1.2,0.0,0.2,680,432,,,,,,,,,,,,,,,,,
10206,1469913196751,,,,,,,0.04,0.06,0.98,-1.3,0.1,0.1,680,432,,,,,,,,,,,,,,,,,
10226,1469913196771,,,,,,,0.04,0.07,0.99,-1.4,0.1,0.2,680,432,,,,,,,,,,,,,,,,,
10246,1469913196796,0,250.8,197.1,6,201.1,,0.04,0.08,0.99,-1.5,0.2,0.2,700,433,1.524,0,39.538868,-122.332138,6.71,0.006,341.6,8,2,1.7,0,0.0,-1,0.0,0.0,0.0,0
10266,1469913196816,,,,,,,0.04,0.1,0.99,-1.6,-0.0,0.1,700,433,,,,,,,,,,,,,,,,,
10286,1469913196836,,,,,,,0.04,0.1,0.99,-1.7,-0.1,-0.1,700,433,,,,,,,,,,,,,,,,,
10306,1469913196856,,,,,,,0.03,0.11,0.99,-1.9,-0.2,0.0,700,432,,,,,,,,,,,,,,,,,
10326,1469913196876,,,,,,,0.04,0.1,0.98,-2.0,-0.4,-0.0,700,429,,,,,,,,,,,,,,,,,
10346,1469913196896,,,,6,,,0.03,0.1,0.99,-2.1,-0.5,-0.2,720,435,1.617,0,39.538868,-122.332138,6.71,0.006,341.6,8,2,1.7,0,0.0,-1,0.0,,0.0,0
10366,1469913196910,,,,,,,0.03,0.11,0.99,-2.2,-0.4,-0.2,720,427,,,,,,,,,,,,,,,,,
10386,1469913196930,,,,,,,0.04,0.1,0.99,-2.3,-0.2,-0.2,720,424,,,,,,,,,,,,,,,,,
10406,1469913196950,,,,,,,0.04,0.1,0.99,-2.4,-0.0,-0.3,720,426,,,,,,,,,,,,,,,,,
10426,1469913196970,,,,,,,0.04,0.09,1.0,-2.4,-0.1,-0.3,740,426,,,,,,,,,,,,,,,,,
10446,1469913197096,0,250.3,196.4,7,201.5,,0.04,0.09,0.99,-2.5,-0.1,-0.2,740,426,1.674,0,39.53886,-122.332138,6.29,0.006,342.1,8,2,1.7,0,0.0,-1,0.0,0.0,0.0,0
10466,1469913197116,,,,,,,0.04,0.09,0.99,-2.5,-0.0,-0.1,720,426,,,,,,,,,,,,,,,,,
10486,1469913197136,,,,,,,0.04,0.09,0.99,-2.5,-0.1,-0.2,740,429,,,,,,,,,,,,,,,,,
10506,1469913197156,,,,,,,0.05,0.09,0.98,-2.5,0.1,-0.3,740,424,,,,,,,,,,,,,,,,,
10526,1469913197176,,,,,,,0.05,0.1,0.98,-2.7,-0.0,-0.2,740,421,,,,,,,,,,,,,,,,,
10546,1469913197196,,,,5,,,0.05,0.1,0.98,-2.7,-0.1,-0.2,740,424,1.69,0,39.53886,-122.332138,6.29,0.006,342.1,8,2,1.7,0,0.0,-1,0.0,,0.0,0
10566,1469913197216,,,,,,,0.06,0.1,0.98,-2.7,0.1,-0.2,740,421,,,,,,,,,,,,,,,,,
10586,1469913197236,,,,,,,0.06,0.09,0.99,-2.7,0.0,-0.3,740,418,,,,,,,,,,,,,,,,,
10606,1469913197256,,,,,,,0.06,0.09,0.99,-2.7,0.2,-0.3,740,421,,,,,,,,,,,,,,,,,
10626,1469913197276,,,,,,,0.06,0.09,0.99,-2.7,0.2,-0.3,740,418,,,,,,,,,,,,,,,,,
10646,1469913197197,0,251.0,197.4,7,200.4,,0.06,0.09,0.99,-2.7,0.1,-0.4,740,420,1.749,2,39.538856,-122.332138,6.34,0.006,342.2,8,2,1.7,0,0.0,-1,0.0,0.0,0.0,0
10666,1469913197217,,,,,,,0.06,0.09,1.0,-2.8,0.3,-0.5,740,420,,,,,,,,,,,,,,,,,
10686,1469913197237,,,,,,,0.06,0.1,0.99,-2.9,0.2,-0.4,740,416,,,,,,,,,,,,,,,,,
10706,1469913197257,,,,,,,0.06,0.09,1.0,-2.9,0.2,-0.3,740,416,,,,,,,,,,,,,,,,,
10726,1469913197277,,,,,,,0.06,0.09,0.99,-2.9,0.4,-0.2,740,412,,,,,,,,,,,,,,,,,
10746,1469913197295,,,,8,,,0.06,0.09,1.0,-2.9,0.2,-0.1,760,410,1.758,2,39.538856,-122.332138,6.27,0.006,342.4,8,2,1.7,0,0.0,-1,0.0,,0.0,0
10766,1469913197315,,,,,,,0.06,0.1,1.0,-2.9,0.2,0.0,760,413,,,,,,,,,,,,,,,,,
10786,1469913197335,,,,,,,0.05,0.09,0.99,-2.9,0.2,0.1,760,410,,,,,,,,,,,,,,,,,
10806,1469913197355,,,,,,,0.05,0.08,0.99,-2.8,0.2,-0.1,760,412,,,,,,,,,,,,,,,,,
10826,1469913197375,,,,,,,0.05,0.08,0.99,-2.7,0.3,-0.3,760,413,,,,,,,,,,,,,,,,,
10846,1469913197396,0,250.7,197.1,7,200.4,,0.06,0.07,0.99,-2.8,0.3,-0.2,760,413,1.827,2,39.538853,-122.332138,6.29,0.007,342.5,8,2,1.7,0,0.0,-1,0.0,0.0,0.0,0
10866,1469913197416,,,,,,,0.05,0.08,0.99,-2.8,-0.1,-0.2,760,410,,,,,,,,,,,,,,,,,
10886,1469913197436,,,,,,,0.05,0.08,0.99,-2.7,-0.1,-0.1,760,406,,,,,,,,,,,,,,,,,
10906,1469913197456,,,,,,,0.05,0.08,0.99,-2.7,-0.0,-0.1,760,410,,,,,,,,,,,,,,,,,
10926,1469913197476,,,,,,,0.05,0.09,0.99,-2.7,0.1,-0.1,760,409,,,,,,,,,,,,,,,,,
10946,1469913197495,,,,7,,,0.05,0.08,1.0,-2.8,0.1,-0.0,760,404,1.84,2,39.538853,-122.332138,6.81,0.007,342.6,8,2,1.7,0,0.0,-1,0.0,,0.0,0
10966,1469913197515,,,,,,,0.05,0.09,1.0,-2.9,0.3,0.0,760,406,,,,,,,,,,,,,,,,,
10986,1469913197535,,,,,,,0.04,0.1,1.0,-2.9,0.2,-0.0,760,407,,,,,,,,,,,,,,,,,
11006,1469913197555,,,,,,,0.05,0.1,1.0,-3.0,0.2,0.0,760,407,,,,,,,,,,,,,,,,,
11026,1469913197575,,,,,,,0.05,0.09,1.0,-3.0,0.2,0.2,760,404,,,,,,,,,,,,,,,,,
11046,1469913197593,0,249.6,196.3,7,201.6,13.87,0.04,0.1,0.99,-3.0,0.3,0.3,760,401,1.881,2,39.538845,-122.332138,6.51,0.007,342.4,8,2,1.7,0,0.0,-1,0.0,0.0,0.0,0
11066,1469913197613,,,,,,,0.04,0.09,0.99,-2.9,0.3,0.2,760,407,,,,,,,,,,,,,,,,,
11086,1469913197633,,,,,,,0.03,0.08,0.99,-2.8,0.3,0.1,760,401,,,,,,,,,,,,,,,,,
11106,1469913197653,,,,,,,0.04,0.08,0.99,-2.9,0.4,0.1,760,400,,,,,,,,,,,,,,,,,
11126,1469913197673,,,,,,,0.04,0.09,0.99,-2.9,0.3,0.1,760,401,,,,,,,,,,,,,,,,,
11146,1469913197693,,,,8,,,0.04,0.09,0.99,-2.9,0.4,0.0,760,401,1.872,2,39.538845,-122.332138,3.96,0.007,342.3,8,2,1.7,0,0.0,-1,0.0,,0.0,0
11166,1469913197713,,,,,,,0.03,0.08,1.0,-2.9,0.2,-0.1,760,401,,,,,,,,,,,,,,,,,
11186,1469913197733,,,,,,,0.03,0.08,1.0,-2.8,0.3,-0.2,760,396,,,,,,,,,,,,,,,,,
11206,1469913197753,,,,,,,0.03,0.08,1.0,-2.8,0.4,-0.2,760,401,,,,,,,,,,,,,,,,,
11226,1469913197773,,,,,,,0.03,0.07,1.0,-2.8,0.3,-0.2,760,396,,,,,,,,,,,,,,,,,
11246,1469913197896,0,251.2,197.3,8,200.4,,0.03,0.06,1.0,-2.7,0.4,-0.3,760,396,1.895,2,39.538841,-122.332138,4.96,0.007,341.6,8,2,1.7,0,0.0,-1,0.0,0.0,0.0,0
11266,1469913197916,,,,,,,0.03,0.07,1.0,-2.7,0.3,-0.3,760,393,,,,,,,,,,,,,,,,,
11286,1469913197936,,,,,,,0.03,0.07,0.99,-2.7,0.4,-0.3,740,393,,,,,,,,,,,,,,,,,
11306,1469913197956,,,,,,,0.04,0.07,1.0,-2.7,0.4,-0.2,760,392,,,,,,,,,,,,,,,,,
11326,1469913197976,,,,,,,0.04,0.07,1.0,-2.7,0.4,-0.2,760,390,,,,,,,,,,,,,,,,,
11346,1469913197996,,,,7,,,0.04,0.07,1.0,-2.7,0.4,-0.1,760,390,1.924,2,39.538841,-122.332138,4.96,0.007,341.6,8,2,1.7,0,0.0,-1,0.0,,0.0,0
11366,1469913198016,,,,,,,0.04,0.07,0.99,-2.7,0.3,0.1,760,390,,,,,,,,,,,,,,,,,
11386,1469913198036,,,,,,,0.05,0.08,1.0,-2.7,0.4,0.2,760,389,,,,,,,,,,,,,,,,,
11406,1469913198056,,,,,,,0.04,0.08,0.99,-2.7,0.5,0.2,740,390,,,,,,,,,,,,,,,,,
11426,1469913198076,,,,,,,0.04,0.08,0.99,-2.7,0.5,0.1,740,389,,,,,,,,,,,,,,,,,
11446,1469913197996,0,250.1,196.4,7,201.4,,0.05,0.07,0.99,-2.7,0.3,0.1,740,389,1.939,2,39.538837,-122.332138,5.34,0.008,341.3,8,2,1.7,0,0.0,-1,0.0,0.0,0.0,0
11466,1469913198016,,,,,,,0.05,0.08,1.0,-2.7,0.2,0.1,740,387,,,,,,,,,,,,,,,,,
11486,1469913198036,,,,,,,0.04,0.08,0.99,-2.7,0.0,-0.0,740,383,,,,,,,,,,,,,,,,,
11506,1469913198056,,,,,,,0.04,0.08,0.99,-2.6,-0.0,-0.1,740,387,,,,,,,,,,,,,,,,,
11526,1469913198076,,,,,,,0.04,0.08,0.99,-2.6,0.1,0.0,740,386,,,,,,,,,,,,,,,,,
11546,1469913198095,,,,6,,,0.05,0.09,0.99,-2.6,-0.1,0.2,740,384,1.902,2,39.538837,-122.332146,3.75,0.008,341.2,8,2,1.7,0,0.0,-1,0.0,,0.0,0
11566,1469913198115,,,,,,,0.05,0.08,1.0,-2.5,-0.0,0.2,740,383,,,,,,,,,,,,,,,,,
11586,1469913198135,,,,,,,0.05,0.08,1.0,-2.6,0.0,0.2,740,384,,,,,,,,,,,,,,,,,
11606,1469913198155,,,,,,,0.05,0.09,0.99,-2.6,0.0,0.2,740,383,,,,,,,,,,,,,,,,,
11626,1469913198175,,,,,,,0.05,0.09,1.0,-2.6,0.1,0.2,740,383,,,,,,,,,,,,,,,,,
11646,1469913198193,0,251.3,197.2,5,200.8,,0.05,0.11,1.01,-2.6,0.2,0.1,740,378,1.932,2,39.538837,-122.332146,3.64,0.008,340.9,8,2,1.7,0,0.0,-1,0.0,0.0,0.0,0
11666,1469913198213,,,,,,,0.03,0.11,1.0,-2.7,0.5,-0.0,740,381,,,,,,,,,,,,,,,,,
11686,1469913198233,,,,,,,0.03,0.1,1.0,-2.7,0.5,-0.0,740,383,,,,,,,,,,,,,,,,,
11706,1469913198253,,,,,,,0.03,0.1,0.99,-2.7,0.5,0.1,740,376,,,,,,,,,,,,,,,,,
11726,1469913198273,,,,,,,0.03,0.1,0.99,-2.7,0.3,0.1,740,380,,,,,,,,,,,,,,,,,
11746,1469913198293,,,,7,,,0.04,0.1,0.99,-2.7,0.0,-0.1,720,376,1.947,2,39.538837,-122.332146,4.69,0.008,340.6,8,2,1.7,0,0.0,-1,0.0,,0.0,0
11766,1469913198313,,,,,,,0.04,0.09,0.99,-2.7,0.0,-0.1,720,376,,,,,,,,,,,,,,,,,
11786,1469913198333,,,,,,,0.04,0.09,0.99,-2.7,0.0,-0.2,740,375,,,,,,,,,,,,,,,,,
11806,1469913198353,,,,,,,0.03,0.09,0.99,-2.7,-0.2,-0.3,740,370,,,,,,,,,,,,,,,,,
11826,1469913198373,,,,,,,0.03,0.09,0.99,-2.7,-0.2,-0.5,740,375,,,,,,,,,,,,,,,,,
11846,1469913198392,0,250.0,196.7,7,200.7,,0.03,0.09,0.98,-2.8,-0.1,-0.5,740,375,1.905,2,39.538834,-122.332146,3.67,0.008,340.3,8,2,1.7,0,0.0,-1,0.0,0.0,0.0,0
11866,1469913198412,,,,,,,0.04,0.1,0.98,-2.8,-0.1,-0.5,740,370,,,,,,,,,,,,,,,,,
11886,1469913198432,,,,,,,0.04,0.1,0.99,-2.8,-0.1,-0.5,740,372,,,,,,,,,,,,,,,,,
11906,1469913198452,,,,,,,0.03,0.11,0.99,-2.8,-0.4,-0.7,720,372,,,,,,,,,,,,,,,,,
11926,1469913198472,,,,,,,0.04,0.1,0.98,-2.8,-0.4,-0.6,720,370,,,,,,,,,,,,,,,,,
11946,1469913198492,,,,7,,,0.04,0.11,0.99,-2.7,-0.4,-0.5,740,369,2.0,2,39.538834,-122.332146,3.29,0.008,340.0,8,2,1.7,0,0.0,-1,0.0,,0.0,0
11966,1469913198512,,,,,,,0.04,0.1,0.99,-2.7,-0.0,-0.5,740,364,,,,,,,,,,,,,,,,,
11986,1469913198532,,,,,,,0.05,0.09,0.99,-2.7,-0.0,-0.5,740,367,,,,,,,,,,,,,,,,,
12006,1469913198552,,,,,,,0.05,0.1,0.99,-2.8,0.0,-0.3,740,366,,,,,,,,,,,,,,,,,
12026,1469913198572,,,,,,,0.05,0.1,0.98,-2.8,-0.1,-0.3,740,366,,,,,,,,,,,,,,,,,
12046,1469913198691,0,249.3,195.9,8,201.6,13.84,0.05,0.09,0.99,-2.7,-0.2,-0.4,740,366,2.033,2,39.53883,-122.332146,3.06,0.009,339.9,8,2,1.7,0,0.0,-1,0.0,0.0,0.0,0
12066,1469913198711,,,,,,,0.04,0.09,0.99,-2.7,-0.1,-0.4,740,364,,,,,,,,,,,,,,,,,
12086,1469913198731,,,,,,,0.04,0.09,0.98,-2.7,-0.1,-0.4,740,363,,,,,,,,,,,,,,,,,
12106,1469913198751,,,,,,,0.04,0.09,0.98,-2.7,-0.0,-0.3,740,363,,,,,,,,,,,,,,,,,
12126,1469913198771,,,,,,,0.04,0.1,0.98,-2.7,0.2,-0.5,740,356,,,,,,,,,,,,,,,,,
12146,1469913198791,,,,5,,,0.04,0.09,0.98,-2.8,0.2,-0.5,740,361,2.033,2,39.53883,-122.332146,3.06,0.009,339.9,8,2,1.7,0,0.0,-1,0.0,,0.0,0
12166,1469913198811,,,,,,,0.04,0.09,0.98,-2.8,0.2,-0.5,740,361,,,,,,,,,,,,,,,,,
12186,1469913198831,,,,,,,0.04,0.08,0.98,-2.8,0.2,-0.3,720,358,,,,,,,,,,,,,,,,,
12206,1469913198851,,,,,,,0.04,0.08,0.99,-2.8,0.3,-0.4,740,360,,,,,,,,,,,,,,,,,
12226,1469913198871,,,,,,,0.04,0.07,0.99,-2.8,0.4,-0.4,740,356,,,,,,,,,,,,,,,,,
12246,1469913198794,0,251.3,197.2,6,200.7,,0.03,0.08,0.99,-2.8,0.3,-0.3,720,356,2.039,2,39.53883,-122.332146,2.24,0.009,339.9,8,2,1.7,0,0.0,-1,0.0,0.0,0.0,0
12266,1469913198814,,,,,,,0.03,0.08,1.0,-2.8,0.3,-0.2,720,356,,,,,,,,,,,,,,,,,
12286,1469913198834,,,,,,,0.04,0.08,1.0,-2.8,0.2,-0.2,740,352,,,,,,,,,,,,,,,,,
12306,1469913198854,,,,,,,0.04,0.07,0.99,-2.8,0.3,-0.2,740,355,,,,,,,,,,,,,,,,,
12326,1469913198874,,,,,,,0.05,0.07,0.99,-2.8,0.3,-0.1,740,355,,,,,,,,,,,,,,,,,
12346,1469913198894,,,,7,,,0.05,0.07,1.0,-2.8,0.3,-0.1,720,353,2.022,2,39.53883,-122.332146,2.24,0.009,339.9,8,2,1.7,0,0.0,-1,0.0,,0.0,0
12366,1469913198906,,,,,,,0.05,0.06,0.99,-2.7,0.2,-0.2,740,352,,,,,,,,,,,,,,,,,
12386,1469913198926,,,,,,,0.05,0.07,0.98,-2.7,0.1,-0.2,740,352,,,,,,,,,,,,,,,,,
12406,1469913198946,,,,,,,0.06,0.07,0.97,-2.6,0.2,-0.0,720,349,,,,,,,,,,,,,,,,,
12426,1469913198966,,,,,,,0.06,0.07,0.97,-2.6,-0.0,-0.1,740,350,,,,,,,,,,,,,,,,,
12446,1469913198994,0,251.3,197.2,6,200.7,,0.05,0.07,0.97,-2.6,0.0,-0.1,720,347,2.04,2,39.538826,-122.332146,1.34,0.009,339.6,8,2,1.7,0,0.0,-1,0.0,0.0,0.0,0
12466,1469913199014,,,,,,,0.06,0.07,0.97,-2.7,-0.1,0.0,720,344,,,,,,,,,,,,,,,,,
12486,1469913199034,,,,,,,0.06,0.07,0.98,-2.7,-0.2,0.1,740,349,,,,,,,,,,,,,,,,,
12506,1469913199054,,,,,,,0.05,0.08,0.98,-2.7,-0.3,-0.0,740,349,,,,,,,,,,,,,,,,,
12526,1469913199074,,,,,,,0.04,0.06,0.98,-2.7,-0.3,-0.1,740,349,,,,,,,,,,,,,,,,,
12546,1469913199093,,,,6,,,0.04,0.07,0.98,-2.7,-0.4,0.1,740,347,2.075,0,39.538826,-122.332146,3.12,0.009,339.5,8,2,1.7,0,0.0,-1,0.0,,0.0,0
12566,1469913199113,,,,,,,0.05,0.07,0.98,-2.7,-0.3,0.2,740,343,,,,,,,,,,,,,,,,,
12586,1469913199133,,,,,,,0.05,0.07,0.99,-2.7,-0.2,0.1,740,344,,,,,,,,,,,,,,,,,
12606,1469913199153,,,,,,,0.05,0.07,0.99,-2.7,-0.2,0.0,740,343,,,,,,,,,,,,,,,,,
12626,1469913199173,,,,,,,0.06,0.07,0.99,-2.7,-0.1,0.1,740,338,,,,,,,,,,,,,,,,,
12646,1469913199193,0,249.3,195.9,7,200.3,,0.05,0.07,0.99,-2.7,-0.1,0.1,740,340,2.157,0,39.538826,-122.332146,2.79,0.009,339.5,8,2,1.7,0,0.0,-1,0.0,0.0,0.0,0
12666,1469913199213,,,,,,,0.05,0.08,1.0,-2.7,-0.0,0.1,740,340,,,,,,,,,,,,,,,,,
12686,1469913199233,,,,,,,0.05,0.07,0.99,-2.7,0.2,0.1,740,340,,,,,,,,,,,,,,,,,
12706,1469913199253,,,,,,,0.05,0.08,0.99,-2.8,0.2,0.3,740,340,,,,,,,,,,,,,,,,,
12726,1469913199273,,,,,,,0.05,0.08,0.99,-2.8,0.2,0.4,740,338,,,,,,,,,,,,,,,,,
12746,1469913199295,,,,7,,,0.04,0.08,1.0,-2.8,0.2,0.3,740,336,2.189,0,39.538822,-122.332146,3.39,0.009,339.4,8,2,1.7,0,0.0,-1,0.0,,0.0,0
12766,1469913199315,,,,,,,0.04,0.07,1.0,-2.8,0.2,0.2,740,335,,,,,,,,,,,,,,,,,
12786,1469913199335,,,,,,,0.04,0.07,1.0,-2.7,0.3,0.1,720,335,,,,,,,,,,,,,,,,,
12806,1469913199355,,,,,,,0.04,0.08,1.01,-2.7,0.4,0.0,740,333,,,,,,,,,,,,,,,,,
12826,1469913199375,,,,,,,0.04,0.09,1.01,-2.7,0.4,-0.1,740,330,,,,,,,,,,,,,,,,,
12846,1469913199395,0,251.2,197.1,6,201.5,,0.05,0.09,1.0,-2.7,0.4,-0.1,740,333,2.209,0,39.538822,-122.332146,3.39,0.009,339.4,8,2,1.7,0,0.0,-1,0.0,0.0,0.0,0
12866,1469913199509,,,,,,,0.05,0.09,0.99,-2.8,0.5,0.1,740,333,,,,,,,,,,,,,,,,,
12886,1469913199529,,,,,,,0.05,0.09,1.0,-2.8,0.4,0.1,720,332,,,,,,,,,,,,,,,,,
12906,1469913199549,,,,,,,0.04,0.1,0.99,-2.7,0.5,0.1,740,330,,,,,,,,,,,,,,,,,
12926,1469913199569,,,,,,,0.04,0.09,0.99,-2.7,0.6,0.1,740,326,,,,,,,,,,,,,,,,,
12946,1469913199589,,,,5,,,0.04,0.08,0.99,-2.8,0.6,0.3,740,327,2.222,0,39.538822,-122.332146,2.59,0.009,339.5,8,2,1.7,0,0.0,-1,0.0,,0.0,0
12966,1469913199609,,,,,,,0.05,0.09,0.99,-2.8,0.6,0.3,740,326,,,,,,,,,,,,,,,,,
12986,1469913199629,,,,,,,0.04,0.08,0.99,-2.8,0.5,0.2,740,321,,,,,,,,,,,,,,,,,
13006,1469913199649,,,,,,,0.04,0.08,0.98,-2.8,0.5,0.2,740,320,,,,,,,,,,,,,,,,,
13026,1469913199669,,,,,,,0.05,0.09,0.99,-2.9,0.4,0.3,740,323,,,,,,,,,,,,,,,,,
13046,1469913199592,0,250.7,196.8,7,201.4,13.82,0.04,0.09,0.99,-2.8,0.3,0.2,720,320,2.27,0,39.538818,-122.332146,2.84,0.009,339.6,8,2,1.7,0,0.0,-1,0.0,0.0,0.0,0
13066,1469913199612,,,,,,,0.04,0.09,0.98,-2.7,0.2,0.1,740,320,,,,,,,,,,,,,,,,,
13086,1469913199632,,,,,,,0.04,0.1,0.98,-2.8,0.2,0.1,740,321,,,,,,,,,,,,,,,,,
13106,1469913199652,,,,,,,0.04,0.1,0.98,-2.8,0.1,0.1,740,320,,,,,,,,,,,,,,,,,
13126,1469913199672,,,,,,,0.04,0.1,0.98,-2.8,0.1,0.0,740,318,,,,,,,,,,,,,,,,,
13146,1469913199692,,,,7,,,0.04,0.09,0.98,-2.7,-0.1,-0.1,740,318,2.243,0,39.538818,-122.332146,3.34,0.009,339.8,8,2,1.7,0,0.0,-1,0.0,,0.0,0
13166,1469913199712,,,,,,,0.04,0.09,0.98,-2.8,-0.0,-0.0,740,316,,,,,,,,,,,,,,,,,
13186,1469913199732,,,,,,,0.04,0.09,0.98,-2.8,0.1,0.0,740,315,,,,,,,,,,,,,,,,,
13206,1469913199752,,,,,,,0.04,0.09,0.98,-2.7,0.3,-0.0,720,318,,,,,,,,,,,,,,,,,
13226,1469913199772,,,,,,,0.04,0.09,0.98,-2.7,0.5,-0.1,720,315,,,,,,,,,,,,,,,,,
13246,1469913199794,0,250.1,196.3,7,200.9,,0.05,0.09,0.98,-2.8,0.6,-0.0,740,316,2.312,0,39.538818,-122.332146,3.69,0.009,340.1,8,2,1.7,0,0.0,-1,0.0,0.0,0.0,0
13266,1469913199814,,,,,,,0.05,0.09,0.98,-2.8,0.7,-0.0,740,318,,,,,,,,,,,,,,,,,
13286,1469913199834,,,,,,,0.05,0.09,0.99,-2.8,0.6,-0.1,740,315,,,,,,,,,,,,,,,,,
13306,1469913199854,,,,,,,0.05,0.09,0.98,-2.7,0.6,-0.2,740,312,,,,,,,,,,,,,,,,,
13326,1469913199874,,,,,,,0.05,0.09,0.97,-2.7,0.5,-0.1,740,312,,,,,,,,,,,,,,,,,
13346,1469913199894,,,,4,,,0.06,0.09,0.98,-2.7,0.5,-0.1,740,310,2.342,0,39.538818,-122.332146,3.69,0.009,340.1,8,2,1.7,0,0.0,-1,0.0,,0.0,0
13366,1469913199908,,,,,,,0.05,0.09,0.98,-2.7,0.6,-0.2,720,304,,,,,,,,,,,,,,,,,
13386,1469913199928,,,,,,,0.05,0.09,0.98,-2.7,0.6,-0.2,720,307,,,,,,,,,,,,,,,,,
13406,1469913199948,,,,,,,0.05,0.1,0.98,-2.8,0.5,-0.1,740,307,,,,,,,,,,,,,,,,,
13426,1469913199968,,,,,,,0.05,0.09,0.99,-2.8,0.6,-0.1,720,307,,,,,,,,,,,,,,,,,
13446,1469913199988,0,251.2,197.1,7,201.9,,0.05,0.09,0.99,-2.7,0.6,-0.1,720,309,2.41,0,39.538818,-122.332146,2.78,0.009,340.2,8,2,1.7,0,0.0,-1,0.0,0.0,0.0,0
13466,1469913200006,,,,,,,0.05,0.08,0.98,-2.8,0.7,-0.1,720,307,,,,,,,,,,,,,,,,,
13486,1469913200026,,,,,,,0.05,0.08,0.98,-2.8,0.7,-0.1,720,306,,,,,,,,,,,,,,,,,
13506,1469913200046,,,,,,,0.05,0.08,0.98,-2.7,0.8,-0.1,720,306,,,,,,,,,,,,,,,,,
13526,1469913200066,,,,,,,0.04,0.08,0.98,-2.7,0.8,-0.2,720,304,,,,,,,,,,,,,,,,,
13546,1469913200095,,,,8,,,0.05,0.08,0.97,-2.7,0.8,-0.2,720,303,2.345,0,39.538815,-122.332146,3.83,0.01,340.5,8,2,1.7,0,0.0,-1,0.0,,0.0,0
13566,1469913200115,,,,,,,0.04,0.09,0.98,-2.7,1.0,-0.2,720,301,,,,,,,,,,,,,,,,,
13586,1469913200135,,,,,,,0.04,0.09,0.98,-2.7,1.0,-0.4,720,303,,,,,,,,,,,,,,,,,
13606,1469913200155,,,,,,,0.04,0.09,0.98,-2.7,0.8,-0.6,720,301,,,,,,,,,,,,,,,,,
13626,1469913200175,,,,,,,0.04,0.1,0.98,-2.7,0.8,-0.7,720,303,,,,,,,,,,,,,,,,,
13646,1469913200295,0,251.0,197.0,7,201.5,,0.04,0.1,0.98,-2.7,0.8,-0.8,720,301,2.376,0,39.538811,-122.332146,2.15,0.01,340.6,8,2,1.7,0,0.0,-1,0.0,0.0,0.0,0
13666,1469913200315,,,,,,,0.05,0.1,0.98,-2.7,0.6,-1.1,720,301,,,,,,,,,,,,,,,,,
13686,1469913200335,,,,,,,0.04,0.1,0.98,-2.7,0.5,-1.2,720,298,,,,,,,,,,,,,,,,,
13706,1469913200355,,,,,,,0.05,0.1,0.98,-2.8,0.5,-1.1,700,298,,,,,,,,,,,,,,,,,
13726,1469913200375,,,,,,,0.04,0.09,0.99,-2.8,0.5,-1.2,720,296,,,,,,,,,,,,,,,,,
13746,1469913200395,,,,6,,,0.04,0.08,0.99,-2.8,0.4,-1.3,700,295,2.392,0,39.538811,-122.332146,2.15,0.01,340.6,8,2,1.7,0,0.0,-1,0.0,,0.0,0
13766,1469913200415,,,,,,,0.04,0.08,0.99,-2.8,0.6,-1.2,700,293,,,,,,,,,,,,,,,,,
13786,1469913200435,,,,,,,0.04,0.08,0.99,-2.9,0.6,-1.1,720,295,,,,,,,,,,,,,,,,,
13806,1469913200455,,,,,,,0.04,0.08,1.0,-2.8,0.5,-1.2,700,295,,,,,,,,,,,,,,,,,
13826,1469913200475,,,,,,,0.04,0.08,1.0,-2.8,0.5,-1.2,700,295,,,,,,,,,,,,,,,,,
13846,1469913200393,0,251.2,197.2,6,201.7,,0.05,0.08,0.99,-2.9,0.4,-1.1,700,296,2.373,0,39.538811,-122.332146,1.66,0.01,340.5,8,2,1.7,0,0.0,-1,0.0,0.0,0.0,0
13866,1469913200413,,,,,,,0.05,0.09,0.99,-2.9,0.3,-0.9,700,295,,,,,,,,,,,,,,,,,
13886,1469913200433,,,,,,,0.04,0.08,0.99,-2.9,0.2,-0.9,700,289,,,,,,,,,,,,,,,,,
13906,1469913200453,,,,,,,0.04,0.08,0.99,-2.9,0.2,-0.8,700,292,,,,,,,,,,,,,,,,,
13926,1469913200473,,,,,,,0.04,0.09,0.99,-3.0,0.2,-0.7,700,290,,,,,,,,,,,,,,,,,
13946,1469913200493,,,,6,,,0.04,0.08,0.99,-3.0,0.2,-0.7,700,289,2.373,0,39.538811,-122.332146,3.21,0.01,340.6,8,2,1.7,0,0.0,-1,0.0,,0.0,0
13966,1469913200513,,,,,,,0.04,0.08,0.98,-3.1,0.1,-0.7,700,286,,,,,,,,,,,,,,,,,
13986,1469913200533,,,,,,,0.04,0.09,0.98,-3.2,0.0,-0.7,700,286,,,,,,,,,,,,,,,,,
14006,1469913200553,,,,,,,0.04,0.09,0.99,-3.3,0.0,-0.6,700,287,,,,,,,,,,,,,,,,,
14026,1469913200573,,,,,,,0.04,0.08,0.99,-3.3,0.0,-0.6,680,290,,,,,,,,,,,,,,,,,
14046,1469913200593,0,251.0,197.0,7,201.5,13.8,0.05,0.09,1.0,-3.3,0.1,-0.6,680,290,2.439,0,39.538811,-122.332146,3.21,0.01,340.6,8,2,1.7,0,0.0,-1,0.0,0.0,0.0,0
14066,1469913200610,,,,,,,0.04,0.1,1.0,-3.4,0.2,-0.4,700,287,,,,,,,,,,,,,,,,,
14086,1469913200630,,,,,,,0.04,0.1,1.0,-3.4,0.2,-0.4,700,286,,,,,,,,,,,,,,,,,
14106,1469913200650,,,,,,,0.04,0.09,1.0,-3.4,0.4,-0.4,700,284,,,,,,,,,,,,,,,,,
14126,1469913200670,,,,,,,0.05,0.1,0.99,-3.4,0.4,-0.3,700,283,,,,,,,,,,,,,,,,,
14146,1469913200692,,,,7,,,0.06,0.1,0.99,-3.3,0.4,-0.3,700,281,2.414,0,39.538807,-122.332146,2.63,0.01,340.6,8,2,1.7,0,0.0,-1,0.0,,0.0,0
14166,1469913200712,,,,,,,0.05,0.1,0.98,-3.3,0.3,-0.5,700,283,,,,,,,,,,,,,,,,,
14186,1469913200732,,,,,,,0.06,0.1,0.98,-3.3,0.5,-0.4,700,278,,,,,,,,,,,,,,,,,
14206,1469913200752,,,,,,,0.06,0.1,0.98,-3.3,0.5,-0.4,700,283,,,,,,,,,,,,,,,,,
14226,1469913200772,,,,,,,0.06,0.09,0.98,-3.3,0.4,-0.4,720,281,,,,,,,,,,,,,,,,,
14246,1469913200792,0,250.7,196.9,7,201.4,,0.05,0.09,0.98,-3.3,0.3,-0.3,720,281,2.473,0,39.538803,-122.332146,1.96,0.01,340.6,8,2,1.7,0,0.0,-1,0.0,0.0,0.0,0
14266,1469913200812,,,,,,,0.05,0.08,0.98,-3.4,0.1,-0.2,700,281,,,,,,,,,,,,,,,,,
14286,1469913200832,,,,,,,0.05,0.08,0.98,-3.4,0.1,-0.1,720,278,,,,,,,,,,,,,,,,,
14306,1469913200852,,,,,,,0.05,0.07,0.98,-3.4,0.0,-0.2,700,275,,,,,,,,,,,,,,,,,
14326,1469913200872,,,,,,,0.05,0.06,0.98,-3.4,0.1,-0.1,700,276,,,,,,,,,,,,,,,,,
14346,1469913200892,,,,7,,,0.05,0.07,0.98,-3.3,0.0,0.1,720,276,2.465,0,39.538803,-122.332146,1.96,0.01,340.6,8,2,1.7,0,0.0,-1,0.0,,0.0,0
14366,1469913200907,,,,,,,0.05,0.07,0.98,-3.3,0.0,0.1,700,272,,,,,,,,,,,,,,,,,
14386,1469913200927,,,,,,,0.05,0.06,0.98,-3.2,-0.0,0.1,700,270,,,,,,,,,,,,,,,,,
14406,1469913200947,,,,,,,0.06,0.07,0.97,-3.1,-0.1,0.1,720,270,,,,,,,,,,,,,,,,,
14426,1469913200967,,,,,,,0.05,0.08,0.97,-3.1,-0.2,0.1,700,272,,,,,,,,,,,,,,,,,
14446,1469913201094,0,250.8,196.8,6,201.5,,0.05,0.07,0.97,-3.0,-0.4,0.0,700,272,2.637,0,39.538803,-122.332146,2.16,0.01,340.3,8,2,1.7,0,0.0,-1,0.0,0.0,0.0,0
14466,1469913201114,,,,,,,0.05,0.08,0.97,-3.0,-0.3,0.0,700,275,,,,,,,,,,,,,,,,,
14486,1469913201134,,,,,,,0.05,0.08,0.97,-3.0,-0.4,0.0,700,272,,,,,,,,,,,,,,,,,
14506,1469913201154,,,,,,,0.05,0.09,0.98,-2.9,-0.5,-0.0,700,269,,,,,,,,,,,,,,,,,
14526,1469913201174,,,,,,,0.04,0.09,0.98,-2.9,-0.5,-0.1,700,270,,,,,,,,,,,,,,,,,
14546,1469913201194,,,,6,,,0.05,0.09,0.99,-3.0,-0.4,0.0,700,267,2.564,0,39.538803,-122.332146,2.16,0.01,340.3,8,2,1.7,0,0.0,-1,0.0,,0.0,0
14566,1469913201214,,,,,,,0.05,0.09,0.99,-2.9,-0.3,0.2,720,269,,,,,,,,,,,,,,,,,
14586,1469913201234,,,,,,,0.05,0.09,1.0,-2.9,-0.2,0.2,720,269,,,,,,,,,,,,,,,,,
14606,1469913201254,,,,,,,0.05,0.08,0.99,-3.0,-0.1,0.3,720,264,,,,,,,,,,,,,,,,,
14626,1469913201274,,,,,,,0.05,0.09,0.99,-3.0,-0.2,0.4,700,264,,,,,,,,,,,,,,,,,
14646,1469913201196,0,250.8,197.0,6,201.6,,0.05,0.09,1.0,-3.0,-0.2,0.3,720,266,2.677,0,39.538803,-122.332146,2.73,0.01,340.3,8,2,1.7,0,0.0,-1,0.0,0.0,0.0,0
14666,1469913201216,,,,,,,0.05,0.08,0.99,-2.9,-0.3,0.2,700,266,,,,,,,,,,,,,,,,,
14686,1469913201236,,,,,,,0.06,0.09,0.99,-2.9,-0.2,0.3,700,264,,,,,,,,,,,,,,,,,
14706,1469913201256,,,,,,,0.05,0.08,0.99,-2.9,-0.1,0.4,700,264,,,,,,,,,,,,,,,,,
14726,1469913201276,,,,,,,0.05,0.08,0.99,-2.8,-0.2,0.3,700,264,,,,,,,,,,,,,,,,,
14746,1469913201296,,,,6,,,0.04,0.08,0.99,-2.8,-0.2,0.2,700,261,2.707,0,39.538799,-122.332146,3.46,0.011,340.4,8,2,1.7,0,0.0,-1,0.0,,0.0,0
14766,1469913201316,,,,,,,0.05,0.09,0.98,-2.8,-0.2,0.2,700,261,,,,,,,,,,,,,,,,,
14786,1469913201336,,,,,,,0.04,0.09,0.99,-2.8,-0.1,0.1,700,263,,,,,,,,,,,,,,,,,
14806,1469913201356,,,,,,,0.04,0.09,0.99,-2.8,-0.2,-0.0,700,258,,,,,,,,,,,,,,,,,
14826,1469913201376,,,,,,,0.04,0.09,0.99,-2.8,0.0,-0.0,700,258,,,,,,,,,,,,,,,,,
14846,1469913201393,0,250.3,196.7,7,201.3,,0.05,0.09,0.99,-2.9,0.1,-0.0,700,256,2.682,0,39.538796,-122.332146,3.71,0.011,340.6,8,2,1.7,0,0.0,-1,0.0,0.0,0.0,0
14866,1469913201413,,,,,,,0.04,0.09,0.99,-2.8,0.1,-0.2,700,256,,,,,,,,,,,,,,,,,
14886,1469913201433,,,,,,,0.04,0.08,0.99,-2.9,0.2,-0.3,700,258,,,,,,,,,,,,,,,,,
14906,1469913201453,,,,,,,0.04,0.09,0.99,-2.9,0.1,-0.3,700,260,,,,,,,,,,,,,,,,,
14926,1469913201473,,,,,,,0.04,0.09,0.99,-2.9,0.1,-0.4,720,261,,,,,,,,,,,,,,,,,
14946,1469913201492,,,,7,,,0.04,0.08,0.99,-2.9,0.1,-0.6,700,258,2.734,0,39.538796,-122.332146,4.11,0.011,340.6,8,2,1.7,0,0.0,-1,0.0,,0.0,0
14966,1469913201512,,,,,,,0.04,0.09,0.99,-2.9,0.1,-0.5,700,256,,,,,,,,,,,,,,,,,
14986,1469913201532,,,,,,,0.05,0.08,0.99,-2.9,0.2,-0.4,720,256,,,,,,,,,,,,,,,,,
15006,1469913201552,,,,,,,0.05,0.08,1.0,-2.8,0.2,-0.6,700,256,,,,,,,,,,,,,,,,,
15026,1469913201572,,,,,,,0.05,0.09,1.0,-2.9,0.2,-0.7,700,253,,,,,,,,,,,,,,,,,
15046,1469913201593,0,250.5,196.8,5,201.4,13.85,0.04,0.09,0.99,-3.0,0.2,-0.6,700,249,2.734,0,39.538796,-122.332146,4.36,0.011,340.8,8,2,1.7,0,0.0,-1,0.0,0.0,0.0,0
15066,1469913201613,,,,,,,0.04,0.09,0.99,-3.0,0.1,-0.6,720,249,,,,,,,,,,,,,,,,,
15086,1469913201633,,,,,,,0.04,0.09,0.99,-3.0,0.1,-0.7,700,249,,,,,,,,,,,,,,,,,
15106,1469913201653,,,,,,,0.05,0.1,1.0,-3.0,0.4,-0.7,700,249,,,,,,,,,,,,,,,,,
15126,1469913201673,,,,,,,0.06,0.11,1.0,-3.1,0.5,-0.6,720,253,,,,,,,,,,,,,,,,,
15146,1469913201693,,,,6,,,0.06,0.1,1.01,-3.1,0.5,-0.7,720,250,2.892,0,39.538796,-122.332146,4.22,0.011,340.9,8,2,1.7,0,0.0,-1,0.0,,0.0,0
15166,1469913201713,,,,,,,0.05,0.1,1.0,-3.0,0.5,-0.7,720,250,,,,,,,,,,,,,,,,,
15186,1469913201733,,,,,,,0.06,0.1,0.99,-3.0,0.6,-0.6,720,247,,,,,,,,,,,,,,,,,
15206,1469913201753,,,,,,,0.05,0.09,0.99,-3.0,0.5,-0.5,700,249,,,,,,,,,,,,,,,,,
15226,1469913201773,,,,,,,0.05,0.09,0.98,-3.0,0.6,-0.6,720,246,,,,,,,,,,,,,,,,,
15246,1469913201896,0,250.1,196.7,6,201.2,,0.05,0.09,0.98,-3.0,0.6,-0.5,720,244,2.88,0,39.538792,-122.332146,3.22,0.011,340.1,8,2,1.7,0,0.0,-1,0.0,0.0,0.0,0
15266,1469913201916,,,,,,,0.05,0.09,0.98,-3.0,0.5,-0.4,720,246,,,,,,,,,,,,,,,,,
15286,1469913201936,,,,,,,0.05,0.09,0.98,-3.0,0.4,-0.4,720,241,,,,,,,,,,,,,,,,,
15306,1469913201956,,,,,,,0.05,0.09,0.98,-3.0,0.2,-0.5,720,240,,,,,,,,,,,,,,,,,
15326,1469913201976,,,,,,,0.05,0.09,0.98,-3.0,0.2,-0.4,720,240,,,,,,,,,,,,,,,,,
15346,1469913201996,,,,7,,,0.05,0.09,0.98,-3.0,0.3,-0.3,720,241,2.927,0,39.538792,-122.332146,3.22,0.011,340.1,8,2,1.7,0,0.0,-1,0.0,,0.0,0
15366,1469913202016,,,,,,,0.05,0.08,0.98,-3.0,0.2,-0.3,700,243,,,,,,,,,,,,,,,,,
15386,1469913202036,,,,,,,0.05,0.09,0.98,-3.0,0.2,-0.3,700,243,,,,,,,,,,,,,,,,,
15406,1469913202056,,,,,,,0.06,0.09,0.99,-3.0,0.1,-0.2,720,243,,,,,,,,,,,,,,,,,
15426,1469913202076,,,,,,,0.06,0.1,0.99,-3.1,0.1,-0.2,720,238,,,,,,,,,,,,,,,,,
15446,1469913201996,0,249.3,195.9,7,200.4,,0.06,0.1,0.98,-3.0,0.0,-0.3,720,238,2.963,0,39.538784,-122.332146,3.34,0.012,339.1,8,2,1.7,0,0.0,-1,0.0,0.0,0.0,0
15466,1469913202016,,,,,,,0.06,0.1,0.98,-3.1,0.1,-0.3,720,236,,,,,,,,,,,,,,,,,
15486,1469913202036,,,,,,,0.06,0.1,0.98,-3.1,0.1,-0.1,720,238,,,,,,,,,,,,,,,,,
15506,1469913202056,,,,,,,0.05,0.1,0.98,-3.1,0.1,-0.1,720,235,,,,,,,,,,,,,,,,,
15526,1469913202076,,,,,,,0.05,0.09,0.98,-3.0,-0.0,-0.2,700,233,,,,,,,,,,,,,,,,,
15546,1469913202096,,,,5,,,0.05,0.09,0.98,-3.0,-0.0,-0.1,700,235,3.025,0,39.538784,-122.332161,2.93,0.013,338.5,8,2,1.7,0,0.0,-1,0.0,,0.0,0
15566,1469913202116,,,,,,,0.05,0.1,0.99,-3.0,0.0,-0.0,720,233,,,,,,,,,,,,,,,,,
15586,1469913202136,,,,,,,0.05,0.1,0.99,-3.0,0.0,-0.1,720,232,,,,,,,,,,,,,,,,,
15606,1469913202156,,,,,,,0.05,0.09,0.99,-3.0,0.2,-0.1,720,233,,,,,,,,,,,,,,,,,
15626,1469913202176,,,,,,,0.06,0.09,0.99,-3.1,0.3,0.1,720,233,,,,,,,,,,,,,,,,,
15646,1469913202196,0,251.0,197.0,6,201.5,,0.06,0.1,0.98,-3.0,0.3,0.1,720,233,3.09,0,39.53878,-122.332161,1.84,0.013,338.0,8,2,1.7,0,0.0,-1,0.0,0.0,0.0,0
15666,1469913202216,,,,,,,0.06,0.09,0.98,-3.0,0.3,0.1,720,235,,,,,,,,,,,,,,,,,
15686,1469913202236,,,,,,,0.06,0.08,0.98,-3.0,0.5,0.1,720,230,,,,,,,,,,,,,,,,,
15706,1469913202256,,,,,,,0.06,0.09,0.98,-3.0,0.4,0.2,700,229,,,,,,,,,,,,,,,,,
15726,1469913202276,,,,,,,0.05,0.08,0.97,-3.0,0.5,0.1,720,230,,,,,,,,,,,,,,,,,
15746,1469913202295,,,,6,,,0.05,0.08,0.97,-3.0,0.6,0.0,720,229,3.064,0,39.53878,-122.332161,1.6,0.013,337.5,8,2,1.7,0,0.0,-1,0.0,,0.0,0
15766,1469913202315,,,,,,,0.05,0.09,0.98,-3.0,0.5,0.1,720,226,,,,,,,,,,,,,,,,,
15786,1469913202335,,,,,,,0.05,0.09,0.98,-3.0,0.7,0.1,720,229,,,,,,,,,,,,,,,,,
15806,1469913202355,,,,,,,0.05,0.09,0.99,-3.0,0.5,0.1,720,227,,,,,,,,,,,,,,,,,
15826,1469913202375,,,,,,,0.05,0.09,0.98,-3.0,0.5,0.0,720,227,,,,,,,,,,,,,,,,,
15846,1469913202393,0,249.3,196.0,7,200.6,,0.05,0.08,0.99,-3.0,0.5,0.1,720,226,3.144,1,39.53878,-122.332161,0.0,0.013,336.7,8,2,1.7,0,0.0,-1,0.0,0.0,0.0,0
15866,1469913202413,,,,,,,0.05,0.09,0.99,-3.0,0.4,0.0,700,227,,,,,,,,,,,,,,,,,
15886,1469913202433,,,,,,,0.05,0.08,0.99,-3.0,0.3,-0.1,720,227,,,,,,,,,,,,,,,,,
15906,1469913202453,,,,,,,0.05,0.08,0.99,-2.9,0.3,-0.1,720,226,,,,,,,,,,,,,,,,,
15926,1469913202473,,,,,,,0.04,0.08,0.99,-2.9,0.3,0.0,720,227,,,,,,,,,,,,,,,,,
15946,1469913202491,,,,6,,,0.04,0.08,0.99,-2.9,0.2,-0.0,700,226,3.084,0,39.53878,-122.332161,0.0,0.013,336.4,8,2,1.7,0,0.0,-1,0.0,,0.0,0
15966,1469913202511,,,,,,,0.04,0.08,0.98,-2.9,0.4,-0.1,700,223,,,,,,,,,,,,,,,,,
15986,1469913202531,,,,,,,0.05,0.08,0.99,-2.9,0.4,-0.1,720,224,,,,,,,,,,,,,,,,,
16006,1469913202551,,,,,,,0.04,0.08,0.99,-3.0,0.3,-0.0,720,223,,,,,,,,,,,,,,,,,
16026,1469913202571,,,,,,,0.04,0.08,0.99,-2.9,0.3,-0.1,700,224,,,,,,,,,,,,,,,,,
16046,1469913202692,0,249.3,196.1,5,200.6,13.82,0.04,0.08,0.99,-2.9,0.2,-0.1,700,221,3.097,0,39.53878,-122.332161,0.0,0.013,336.0,8,2,1.7,0,0.0,-1,0.0,0.0,0.0,0
16066,1469913202712,,,,,,,0.04,0.08,0.99,-2.9,0.3,-0.1,720,223,,,,,,,,,,,,,,,,,
16086,1469913202732,,,,,,,0.04,0.08,0.99,-2.9,0.2,-0.1,720,218,,,,,,,,,,,,,,,,,
16106,1469913202752,,,,,,,0.04,0.08,0.99,-2.8,0.2,-0.1,720,216,,,,,,,,,,,,,,,,,
16126,1469913202772,,,,,,,0.04,0.08,0.99,-2.9,0.1,-0.1,720,221,,,,,,,,,,,,,,,,,
16146,1469913202792,,,,6,,,0.04,0.08,0.99,-2.9,0.2,0.0,720,218,3.229,1,39.53878,-122.332161,0.0,0.013,336.0,8,2,1.7,0,0.0,-1,0.0,,0.0,0
16166,1469913202812,,,,,,,0.04,0.08,0.99,-2.9,0.2,-0.0,720,221,,,,,,,,,,,,,,,,,
16186,1469913202832,,,,,,,0.04,0.08,0.99,-2.9,0.2,-0.1,720,223,,,,,,,,,,,,,,,,,
16206,1469913202852,,,,,,,0.04,0.08,0.99,-3.0,0.2,0.0,720,221,,,,,,,,,,,,,,,,,
16226,1469913202872,,,,,,,0.04,0.09,0.99,-3.0,0.1,0.1,720,215,,,,,,,,,,,,,,,,,
16246,1469913202797,0,249.5,196.0,6,200.5,,0.04,0.09,0.99,-3.0,0.1,0.1,720,215,3.273,1,39.53878,-122.332161,1.0,0.013,335.3,8,2,1.7,0,0.0,-1,0.0,0.0,0.0,0
16266,1469913202817,,,,,,,0.04,0.08,0.98,-3.0,0.2,0.1,720,218,,,,,,,,,,,,,,,,,
16286,1469913202837,,,,,,,0.04,0.08,0.98,-3.1,0.0,0.2,720,215,,,,,,,,,,,,,,,,,
16306,1469913202857,,,,,,,0.04,0.08,0.98,-3.0,-0.0,0.1,720,213,,,,,,,,,,,,,,,,,
16326,1469913202877,,,,,,,0.04,0.08,0.98,-2.9,-0.1,0.1,720,213,,,,,,,,,,,,,,,,,
16346,1469913202897,,,,5,,,0.04,0.08,0.98,-2.9,-0.2,0.2,720,215,3.303,1,39.53878,-122.332161,1.0,0.013,335.3,8,2,1.7,0,0.0,-1,0.0,,0.0,0
16366,1469913202908,,,,,,,0.04,0.08,0.98,-2.9,-0.1,0.2,720,213,,,,,,,,,,,,,,,,,
16386,1469913202928,,,,,,,0.04,0.08,0.98,-2.8,-0.1,0.1,720,213,,,,,,,,,,,,,,,,,
16406,1469913202948,,,,,,,0.04,0.08,0.98,-2.8,-0.1,0.0,720,212,,,,,,,,,,,,,,,,,
16426,1469913202968,,,,,,,0.04,0.08,0.98,-2.9,0.0,-0.0,720,213,,,,,,,,,,,,,,,,,
16446,1469913202997,0,249.5,196.1,6,200.6,,0.04,0.09,0.99,-2.9,-0.0,-0.1,720,215,3.349,1,39.538776,-122.332161,0.0,0.013,334.8,8,2,1.7,0,0.0,-1,0.0,0.0,0.0,0
16466,1469913203017,,,,,,,0.04,0.09,0.98,-2.9,-0.1,-0.2,720,215,,,,,,,,,,,,,,,,,
16486,1469913203037,,,,,,,0.04,0.09,0.98,-2.9,0.0,-0.2,720,213,,,,,,,,,,,,,,,,,
16506,1469913203057,,,,,,,0.04,0.09,0.98,-3.0,0.1,-0.1,720,210,,,,,,,,,,,,,,,,,
16526,1469913203077,,,,,,,0.04,0.08,0.99,-2.9,0.0,-0.2,700,210,,,,,,,,,,,,,,,,,
16546,1469913203096,,,,7,,,0.04,0.07,0.98,-2.8,0.0,-0.4,720,209,3.349,1,39.538776,-122.332161,0.0,0.013,334.7,8,2,1.7,0,0.0,-1,0.0,,0.0,0
16566,1469913203116,,,,,,,0.05,0.08,0.98,-2.8,0.1,-0.4,720,210,,,,,,,,,,,,,,,,,
16586,1469913203136,,,,,,,0.05,0.08,0.98,-2.8,0.0,-0.3,700,207,,,,,,,,,,,,,,,,,
16606,1469913203156,,,,,,,0.05,0.08,0.98,-2.8,-0.0,-0.3,700,209,,,,,,,,,,,,,,,,,
16626,1469913203176,,,,,,,0.05,0.08,0.98,-2.8,-0.1,-0.2,700,206,,,,,,,,,,,,,,,,,
16646,1469913203192,0,249.1,196.0,7,200.6,,0.05,0.08,0.98,-2.9,-0.1,-0.0,700,206,3.445,0,39.538776,-122.332161,1.21,0.013,334.9,8,2,1.7,0,0.0,-1,0.0,0.0,0.0,0
16666,1469913203212,,,,,,,0.04,0.08,0.98,-2.9,-0.2,-0.0,700,201,,,,,,,,,,,,,,,,,
16686,1469913203232,,,,,,,0.04,0.08,0.98,-2.9,-0.3,-0.2,700,207,,,,,,,,,,,,,,,,,
16706,1469913203252,,,,,,,0.04,0.08,0.98,-3.0,-0.2,-0.1,700,204,,,,,,,,,,,,,,,,,
16726,1469913203272,,,,,,,0.04,0.08,0.98,-3.0,-0.0,-0.0,700,206,,,,,,,,,,,,,,,,,
16746,1469913203296,,,,5,,,0.04,0.08,0.99,-3.0,0.0,-0.0,700,207,3.448,0,39.538776,-122.332161,1.03,0.013,334.5,8,2,1.7,0,0.0,-1,0.0,,0.0,0
16766,1469913203316,,,,,,,0.04,0.08,1.0,-3.0,0.1,-0.0,700,207,,,,,,,,,,,,,,,,,
16786,1469913203336,,,,,,,0.04,0.08,0.99,-3.0,0.2,0.0,720,201,,,,,,,,,,,,,,,,,
16806,1469913203356,,,,,,,0.05,0.09,0.99,-2.9,0.1,0.0,700,204,,,,,,,,,,,,,,,,,
16826,1469913203376,,,,,,,0.04,0.08,0.99,-2.9,0.1,-0.1,720,203,,,,,,,,,,,,,,,,,
16846,1469913203494,0,249.1,195.9,7,200.4,,0.05,0.08,0.99,-2.9,0.1,0.0,720,200,3.349,1,39.538776,-122.332146,1.73,0.014,334.4,8,2,1.7,0,0.0,-1,0.0,0.0,0.0,0
16866,1469913203514,,,,,,,0.05,0.08,1.0,-2.9,0.1,0.0,700,201,,,,,,,,,,,,,,,,,
16886,1469913203534,,,,,,,0.05,0.08,1.0,-2.9,0.1,-0.0,720,198,,,,,,,,,,,,,,,,,
16906,1469913203554,,,,,,,0.04,0.08,1.0,-2.9,0.1,-0.0,720,196,,,,,,,,,,,,,,,,,
16926,1469913203574,,,,,,,0.04,0.08,1.0,-2.9,0.1,0.1,700,198,,,,,,,,,,,,,,,,,
16946,1469913203594,,,,7,,,0.04,0.08,1.0,-2.9,0.1,0.1,700,196,3.5,0,39.538776,-122.332146,1.73,0.014,334.4,8,2,1.7,0,0.0,-1,0.0,,0.0,0
16966,1469913203614,,,,,,,0.04,0.07,0.99,-2.9,0.0,-0.0,700,195,,,,,,,,,,,,,,,,,
16986,1469913203634,,,,,,,0.04,0.07,0.99,-2.9,0.1,-0.0,700,196,,,,,,,,,,,,,,,,,
17006,1469913203654,,,,,,,0.04,0.07,0.99,-2.9,0.2,0.0,700,196,,,,,,,,,,,,,,,,,
17026,1469913203674,,,,,,,0.04,0.08,0.99,-2.9,0.1,-0.1,700,196,,,,,,,,,,,,,,,,,
17046,1469913203596,0,249.3,196.1,7,200.6,13.77,0.04,0.08,0.99,-2.9,0.0,-0.1,700,200,3.571,0,39.538776,-122.332146,2.71,0.014,334.4,8,2,1.7,0,0.0,-1,0.0,0.0,0.0,0
17066,1469913203616,,,,,,,0.04,0.08,0.99,-2.9,-0.1,-0.0,700,196,,,,,,,,,,,,,,,,,
17086,1469913203636,,,,,,,0.04,0.08,0.99,-2.9,0.0,-0.0,700,192,,,,,,,,,,,,,,,,,
17106,1469913203656,,,,,,,0.04,0.07,0.99,-2.8,0.1,-0.2,720,193,,,,,,,,,,,,,,,,,
17126,1469913203676,,,,,,,0.05,0.08,0.99,-2.8,0.2,-0.2,720,192,,,,,,,,,,,,,,,,,
17146,1469913203696,,,,6,,,0.05,0.08,0.99,-2.9,0.4,-0.1,720,192,3.535,0,39.538776,-122.332146,2.99,0.014,334.4,8,2,1.7,0,0.0,-1,0.0,,0.0,0
17166,1469913203716,,,,,,,0.04,0.08,0.98,-2.9,0.4,-0.2,720,190,,,,,,,,,,,,,,,,,
17186,1469913203736,,,,,,,0.04,0.08,0.98,-2.9,0.3,-0.2,720,190,,,,,,,,,,,,,,,,,
17206,1469913203756,,,,,,,0.04,0.08,0.98,-2.9,0.2,-0.1,700,192,,,,,,,,,,,,,,,,,
17226,1469913203776,,,,,,,0.04,0.08,0.98,-2.9,0.2,-0.0,720,192,,,,,,,,,,,,,,,,,
17246,1469913203795,0,250.5,196.8,5,201.4,,0.05,0.09,0.98,-2.9,0.1,-0.2,700,186,-3.789,-1,39.538773,-122.332146,3.27,0.014,334.4,8,2,1.7,0,0.0,-1,0.0,0.0,0.0,0
17266,1469913203815,,,,,,,0.05,0.09,0.98,-3.0,0.2,-0.2,700,186,,,,,,,,,,,,,,,,,
17286,1469913203835,,,,,,,0.05,0.09,0.99,-3.0,0.3,-0.1,720,187,,,,,,,,,,,,,,,,,
17306,1469913203855,,,,,,,0.05,0.09,0.98,-3.0,0.2,-0.1,700,187,,,,,,,,,,,,,,,,,
17326,1469913203875,,,,,,,0.04,0.08,0.98,-2.9,0.2,-0.1,720,186,,,,,,,,,,,,,,,,,
17346,1469913203895,,,,8,,,0.05,0.08,0.98,-3.0,0.3,-0.0,720,187,-3.763,-1,39.538773,-122.332146,3.27,0.014,334.4,8,2,1.7,0,0.0,-1,0.0,,0.0,0
17366,1469913203909,,,,,,,0.05,0.08,0.99,-3.0,0.3,0.1,700,187,,,,,,,,,,,,,,,,,
17386,1469913203929,,,,,,,0.05,0.08,0.99,-2.9,0.3,-0.1,700,186,,,,,,,,,,,,,,,,,
17406,1469913203949,,,,,,,0.04,0.08,0.99,-3.0,0.4,-0.1,700,183,,,,,,,,,,,,,,,,,
17426,1469913203969,,,,,,,0.04,0.07,0.99,-3.0,0.3,0.1,720,184,,,,,,,,,,,,,,,,,
17446,1469913203996,0,249.8,196.1,7,200.9,,0.04,0.08,0.98,-3.0,0.3,0.1,700,181,-3.763,-1,39.538769,-122.332146,2.98,0.014,334.4,8,2,1.7,0,0.0,-1,0.0,0.0,0.0,0
17466,1469913204016,,,,,,,0.04,0.07,0.98,-2.9,0.2,0.0,700,183,,,,,,,,,,,,,,,,,
17486,1469913204036,,,,,,,0.04,0.07,0.98,-2.9,0.3,0.1,700,181,,,,,,,,,,,,,,,,,
17506,1469913204056,,,,,,,0.04,0.08,0.98,-3.0,0.3,0.2,700,180,,,,,,,,,,,,,,,,,
17526,1469913204076,,,,,,,0.04,0.08,0.99,-2.9,0.3,0.1,700,181,,,,,,,,,,,,,,,,,
17546,1469913204095,,,,6,,,0.04,0.08,0.98,-2.9,0.3,0.0,700,181,-3.825,-1,39.538769,-122.332146,3.16,0.014,334.5,8,2,1.7,0,0.0,-1,0.0,,0.0,0
17566,1469913204115,,,,,,,0.04,0.08,0.98,-2.9,0.3,0.1,700,178,,,,,,,,,,,,,,,,,
17586,1469913204135,,,,,,,0.04,0.08,0.98,-2.9,0.2,0.1,700,176,,,,,,,,,,,,,,,,,
17606,1469913204155,,,,,,,0.04,0.08,0.98,-2.9,0.1,0.0,700,178,,,,,,,,,,,,,,,,,
17626,1469913204175,,,,,,,0.04,0.09,0.98,-2.9,0.1,0.1,700,178,,,,,,,,,,,,,,,,,
17646,1469913204294,0,250.5,196.8,5,201.4,,0.04,0.09,0.98,-2.9,0.2,0.1,700,178,-3.889,-1,39.538761,-122.332146,2.76,0.015,334.3,8,2,1.7,0,0.0,-1,0.0,0.0,0.0,0
17666,1469913204314,,,,,,,0.04,0.09,0.98,-2.9,0.2,-0.0,700,178,,,,,,,,,,,,,,,,,
