"Interval"|"ms"|0|0|1,"Utc"|"ms"|0|0|1,"FuelLevel"|"F"|0|100|5,"OilTemp"|"F"|0.0|300.0|5,"Coolant"|"F"|0.0|300.0|5,"OilPress"|"PSI"|0|150|10,"EngineTemp"|"F"|0.0|300.0|5,"Battery"|"Volts"|0.0|20.0|1,"AccelX"|"G"|-3.0|3.0|50,"AccelY"|"G"|-3.0|3.0|50,"AccelZ"|"G"|-3.0|3.0|50,"Yaw"|"Deg/Sec"|-300.0|300.0|50,"Pitch"|"Deg/Sec"|-300.0|300.0|50,"Roll"|"Deg/Sec"|-300.0|300.0|50,"RPM"|""|0|10000|50,"Driveshaft"|"RPM"|0|5000|50,"GearRatio"|""|-5.0|5.0|10,"Gear"|""|-1|5|10,"Latitude"|"Degrees"|-180.0|180.0|10,"Longitude"|"Degrees"|-180.0|180.0|10,"Speed"|"MPH"|0.0|150.0|10,"Distance"|"Miles"|0.0|0.0|10,"Altitude"|"Feet"|0.0|4000.0|10,"GPSSats"|""|0|20|10,"GPSQual"|""|0|5|10,"GPSDOP"|""|0.0|20.0|10,"LapCount"|""|0|0|10,"LapTime"|"Min"|0.0|0.0|10,"Sector"|""|0|0|10,"SectorTime"|"Min"|0.0|0.0|10,"PredTime"|"Min"|0.0|0.0|5,"ElapsedTime"|"Min"|0.0|0.0|10,"CurrentLap"|""|0|0|10
114066,1469913300620,,,,,,,0.03,0.11,0.99,-3.0,0.2,-0.1,160,0,,,,,,,,,,,,,,,,,
114086,1469913300640,,,,,,,0.04,0.12,0.99,-3.0,0.1,-0.2,160,0,,,,,,,,,,,,,,,,,
114106,1469913300660,,,,,,,0.04,0.11,1.0,-3.0,0.0,-0.2,160,0,,,,,,,,,,,,,,,,,
114126,1469913300680,,,,,,,0.03,0.11,1.0,-3.0,0.0,-0.3,160,0,,,,,,,,,,,,,,,,,
114146,1469913300700,,,,0,,,0.03,0.1,0.99,-3.0,-0.0,-0.3,160,0,0.0,0,39.538677,-122.332146,0.0,0.021,98.0,9,2,1.4,0,0.0,-1,0.0,,0.0,0
114166,1469913300720,,,,,,,0.03,0.09,0.99,-3.0,-0.0,-0.3,160,0,,,,,,,,,,,,,,,,,
114186,1469913300740,,,,,,,0.03,0.09,0.99,-3.0,-0.0,-0.3,160,0,,,,,,,,,,,,,,,,,
114206,1469913300760,,,,,,,0.03,0.08,0.98,-3.1,0.2,-0.1,200,0,,,,,,,,,,,,,,,,,
114226,1469913300780,,,,,,,0.03,0.1,0.99,-3.1,0.4,0.1,200,0,,,,,,,,,,,,,,,,,
114246,1469913300799,0,237.9,191.3,0,209.8,,0.03,0.1,0.98,-3.0,0.5,-0.0,200,0,0.0,0,39.538677,-122.332146,0.0,0.021,98.0,9,2,1.4,0,0.0,-1,0.0,0.0,0.0,0
114266,1469913300819,,,,,,,0.04,0.12,0.99,-3.0,0.5,-0.1,320,0,,,,,,,,,,,,,,,,,
114286,1469913300839,,,,,,,0.03,0.08,0.98,-3.0,0.8,-0.2,320,0,,,,,,,,,,,,,,,,,
114306,1469913300859,,,,,,,0.04,0.09,0.97,-3.0,0.4,-0.1,500,0,,,,,,,,,,,,,,,,,
114326,1469913300879,,,,,,,0.03,0.08,0.96,-3.0,0.2,-0.2,500,0,,,,,,,,,,,,,,,,,
114346,1469913300892,,,,0,,,0.03,0.1,0.96,-3.0,0.0,0.1,640,0,0.0,0,39.538677,-122.332146,0.0,0.021,98.0,9,2,1.4,0,0.0,-1,0.0,,0.0,0
114366,1469913300912,,,,,,,0.03,0.1,0.96,-2.9,-0.4,-0.0,760,0,,,,,,,,,,,,,,,,,
114386,1469913300932,,,,,,,0.01,0.09,0.96,-2.8,-0.1,-0.4,860,0,,,,,,,,,,,,,,,,,
114406,1469913300952,,,,,,,0.01,0.1,0.97,-2.9,0.0,-0.6,940,0,,,,,,,,,,,,,,,,,
114426,1469913300972,,,,,,,0.01,0.09,0.97,-3.0,-0.3,-0.5,980,0,,,,,,,,,,,,,,,,,
114446,1469913301098,0,238.2,190.3,1,209.0,,0.0,0.07,0.97,-3.0,-0.5,-0.4,1020,0,0.0,0,39.538677,-122.332146,0.0,0.021,98.0,9,2,1.4,0,0.0,-1,0.0,0.0,0.0,0
114466,1469913301118,,,,,,,-0.0,0.06,0.97,-2.9,-1.2,-0.4,1080,0,,,,,,,,,,,,,,,,,
114486,1469913301138,,,,,,,-0.0,0.06,0.98,-2.9,-2.0,-0.4,1140,0,,,,,,,,,,,,,,,,,
114506,1469913301158,,,,,,,-0.0,0.08,0.97,-2.8,-2.0,-0.5,1180,0,,,,,,,,,,,,,,,,,
114526,1469913301178,,,,,,,0.02,0.08,0.99,-2.9,-1.7,-0.4,1240,0,,,,,,,,,,,,,,,,,
114546,1469913301198,,,,8,,,0.02,0.1,0.99,-2.9,-1.5,-0.5,1240,0,0.0,0,39.538677,-122.332146,0.0,0.021,98.0,9,2,1.4,0,0.0,-1,0.0,,0.0,0
114566,1469913301218,,,,,,,0.02,0.08,1.01,-2.9,-1.2,-0.5,1260,0,,,,,,,,,,,,,,,,,
114586,1469913301238,,,,,,,0.02,0.09,1.0,-2.9,-1.2,-0.5,1300,0,,,,,,,,,,,,,,,,,
114606,1469913301258,,,,,,,0.02,0.1,0.99,-2.9,-0.9,-0.4,1340,0,,,,,,,,,,,,,,,,,
114626,1469913301278,,,,,,,0.02,0.1,1.0,-2.9,-0.6,-0.4,1360,0,,,,,,,,,,,,,,,,,
114646,1469913301198,0,237.3,191.6,17,210.2,,0.02,0.12,1.01,-2.9,-0.7,-0.4,1360,0,0.0,0,39.538677,-122.332146,0.0,0.021,98.0,9,2,1.4,0,0.0,-1,0.0,0.0,0.0,0
114666,1469913301218,,,,,,,0.03,0.12,1.01,-3.0,-0.4,-0.4,1480,0,,,,,,,,,,,,,,,,,
114686,1469913301238,,,,,,,0.03,0.09,1.0,-3.0,-0.3,-0.4,1420,0,,,,,,,,,,,,,,,,,
114706,1469913301258,,,,,,,0.03,0.09,1.01,-2.9,-0.2,-0.3,1440,0,,,,,,,,,,,,,,,,,
114726,1469913301278,,,,,,,0.03,0.09,1.03,-2.8,0.1,-0.4,1460,0,,,,,,,,,,,,,,,,,
114746,1469913301299,,,,19,,,0.03,0.1,1.03,-2.9,-0.0,-0.4,1500,0,0.0,0,39.538677,-122.332146,0.0,0.021,98.0,9,2,1.4,0,0.0,-1,0.0,,0.0,0
114766,1469913301319,,,,,,,0.03,0.1,1.01,-2.9,0.0,-0.4,1540,0,,,,,,,,,,,,,,,,,
114786,1469913301339,,,,,,,0.03,0.1,1.02,-2.9,-0.2,-0.3,1540,0,,,,,,,,,,,,,,,,,
114806,1469913301359,,,,,,,0.03,0.1,1.02,-2.9,-0.1,-0.3,1540,0,,,,,,,,,,,,,,,,,
114826,1469913301379,,,,,,,0.03,0.11,1.0,-2.9,-0.2,-0.4,1540,0,,,,,,,,,,,,,,,,,
114846,1469913301398,0,237.4,191.7,23,210.1,,0.03,0.1,1.0,-2.7,-0.2,-0.4,1520,0,0.0,0,39.538677,-122.332146,0.0,0.021,98.0,9,2,1.4,0,0.0,-1,0.0,0.0,0.0,0
114866,1469913301418,,,,,,,0.03,0.1,0.98,-2.7,-0.2,-0.3,1540,0,,,,,,,,,,,,,,,,,
114886,1469913301438,,,,,,,0.02,0.1,0.97,-2.7,-0.2,-0.3,1560,0,,,,,,,,,,,,,,,,,
114906,1469913301458,,,,,,,0.03,0.1,0.98,-2.8,-0.0,-0.2,1540,0,,,,,,,,,,,,,,,,,
114926,1469913301478,,,,,,,0.03,0.1,0.98,-2.9,0.0,-0.3,1540,0,,,,,,,,,,,,,,,,,
114946,1469913301498,,,,23,,,0.03,0.11,0.99,-3.0,0.3,-0.2,1500,0,0.0,0,39.538677,-122.332146,0.0,0.021,98.0,9,2,1.4,0,0.0,-1,0.0,,0.0,0
114966,1469913301518,,,,,,,0.03,0.1,0.99,-3.0,0.3,-0.3,1500,0,,,,,,,,,,,,,,,,,
114986,1469913301538,,,,,,,0.03,0.1,0.98,-3.0,0.3,-0.2,1500,0,,,,,,,,,,,,,,,,,
115006,1469913301558,,,,,,,0.03,0.1,0.99,-2.9,0.3,-0.2,1440,0,,,,,,,,,,,,,,,,,
115026,1469913301578,,,,,,,0.03,0.1,0.99,-2.9,0.2,-0.2,1460,0,,,,,,,,,,,,,,,,,
115046,1469913301598,0,238.2,191.0,21,209.4,13.36,0.03,0.1,0.99,-2.9,0.4,-0.3,1400,0,0.0,0,39.538677,-122.332146,0.0,0.021,98.0,9,2,1.4,0,0.0,-1,0.0,0.0,0.0,0
115066,1469913301618,,,,,,,0.03,0.11,0.99,-3.0,0.4,-0.2,1400,0,,,,,,,,,,,,,,,,,
115086,1469913301638,,,,,,,0.03,0.1,0.99,-3.0,0.5,-0.2,1420,0,,,,,,,,,,,,,,,,,
115106,1469913301658,,,,,,,0.03,0.11,0.99,-3.0,0.4,-0.2,1340,0,,,,,,,,,,,,,,,,,
115126,1469913301678,,,,,,,0.03,0.1,0.99,-3.0,0.3,-0.1,1360,0,,,,,,,,,,,,,,,,,
115146,1469913301699,,,,22,,,0.03,0.1,0.99,-3.0,0.3,-0.2,1300,0,0.0,0,39.538677,-122.332146,0.0,0.021,98.0,9,2,1.4,0,0.0,-1,0.0,,0.0,0
115166,1469913301719,,,,,,,0.03,0.1,0.99,-3.0,0.3,-0.1,1340,0,,,,,,,,,,,,,,,,,
115186,1469913301739,,,,,,,0.03,0.1,0.99,-3.0,0.4,-0.1,1280,0,,,,,,,,,,,,,,,,,
115206,1469913301759,,,,,,,0.03,0.09,0.99,-2.9,0.4,-0.1,1280,0,,,,,,,,,,,,,,,,,
115226,1469913301779,,,,,,,0.03,0.09,0.99,-2.9,0.3,-0.1,1240,0,,,,,,,,,,,,,,,,,
115246,1469913301898,0,238.2,191.0,19,209.4,,0.03,0.1,0.99,-2.9,0.3,-0.1,1240,0,0.0,0,39.538677,-122.332146,0.0,0.021,98.0,9,2,1.4,0,0.0,-1,0.0,0.0,0.0,0
115266,1469913301918,,,,,,,0.03,0.1,0.98,-2.9,0.2,-0.1,1240,0,,,,,,,,,,,,,,,,,
115286,1469913301938,,,,,,,0.03,0.1,0.98,-2.9,0.2,-0.1,1200,0,,,,,,,,,,,,,,,,,
115306,1469913301958,,,,,,,0.02,0.1,0.98,-2.9,0.1,-0.2,1160,0,,,,,,,,,,,,,,,,,
115326,1469913301978,,,,,,,0.03,0.1,0.98,-2.9,0.1,-0.2,1140,0,,,,,,,,,,,,,,,,,
115346,1469913301998,,,,15,,,0.03,0.1,0.98,-3.0,0.2,-0.2,1140,0,0.0,0,39.538677,-122.332146,0.0,0.021,98.0,9,2,1.4,0,0.0,-1,0.0,,0.0,0
115366,1469913302018,,,,,,,0.03,0.1,0.99,-3.0,0.2,-0.2,1140,0,,,,,,,,,,,,,,,,,
115386,1469913302038,,,,,,,0.03,0.1,0.99,-3.0,0.2,-0.2,1060,0,,,,,,,,,,,,,,,,,
115406,1469913302058,,,,,,,0.03,0.09,0.99,-3.0,0.2,-0.2,1080,0,,,,,,,,,,,,,,,,,
115426,1469913302078,,,,,,,0.03,0.09,0.99,-3.0,0.2,-0.2,1060,0,,,,,,,,,,,,,,,,,
115446,1469913301998,0,237.8,191.7,14,209.9,,0.03,0.1,0.99,-3.0,0.1,-0.2,1040,0,0.0,0,39.538677,-122.332146,0.0,0.021,98.0,9,2,1.4,0,0.0,-1,0.0,0.0,0.0,0
115466,1469913302018,,,,,,,0.03,0.1,0.98,-3.0,0.1,-0.2,1040,0,,,,,,,,,,,,,,,,,
115486,1469913302038,,,,,,,0.03,0.1,0.98,-3.0,0.1,-0.2,1020,0,,,,,,,,,,,,,,,,,
115506,1469913302058,,,,,,,0.03,0.1,0.98,-3.0,0.2,-0.2,980,0,,,,,,,,,,,,,,,,,
115526,1469913302078,,,,,,,0.03,0.1,0.98,-3.0,0.2,-0.2,960,0,,,,,,,,,,,,,,,,,
115546,1469913302098,,,,12,,,0.04,0.1,0.98,-3.0,0.3,-0.2,940,0,0.0,0,39.538677,-122.332146,0.0,0.021,98.0,9,2,1.4,0,0.0,-1,0.0,,0.0,0
115566,1469913302118,,,,,,,0.04,0.1,0.98,-2.9,0.4,-0.3,920,0,,,,,,,,,,,,,,,,,
115586,1469913302138,,,,,,,0.04,0.1,0.98,-2.9,0.4,-0.3,920,0,,,,,,,,,,,,,,,,,
115606,1469913302158,,,,,,,0.03,0.09,0.98,-2.9,0.3,-0.3,900,0,,,,,,,,,,,,,,,,,
115626,1469913302178,,,,,,,0.03,0.09,0.98,-3.0,0.3,-0.3,900,0,,,,,,,,,,,,,,,,,
115646,1469913302198,0,238.0,192.1,10,209.0,,0.03,0.09,0.98,-3.0,0.2,-0.2,860,0,0.0,0,39.538677,-122.332146,0.0,0.021,98.0,9,2,1.4,0,0.0,-1,0.0,0.0,0.0,0
115666,1469913302218,,,,,,,0.03,0.09,0.98,-3.0,0.2,-0.2,860,0,,,,,,,,,,,,,,,,,
115686,1469913302238,,,,,,,0.02,0.09,0.98,-3.0,0.2,-0.1,860,0,,,,,,,,,,,,,,,,,
115706,1469913302258,,,,,,,0.02,0.09,0.98,-3.0,0.2,-0.1,840,0,,,,,,,,,,,,,,,,,
115726,1469913302278,,,,,,,0.02,0.1,0.98,-2.9,0.2,-0.1,820,0,,,,,,,,,,,,,,,,,
115746,1469913302299,,,,10,,,0.02,0.1,0.98,-2.9,0.1,-0.2,820,0,0.0,0,39.538677,-122.332146,0.0,0.021,98.0,9,2,1.4,0,0.0,-1,0.0,,0.0,0
115766,1469913302319,,,,,,,0.02,0.1,0.98,-2.9,0.1,-0.3,800,0,,,,,,,,,,,,,,,,,
115786,1469913302339,,,,,,,0.02,0.1,0.98,-2.9,0.2,-0.2,800,0,,,,,,,,,,,,,,,,,
115806,1469913302359,,,,,,,0.03,0.1,0.98,-3.0,0.2,-0.1,780,0,,,,,,,,,,,,,,,,,
115826,1469913302379,,,,,,,0.03,0.1,0.98,-3.0,0.2,-0.1,780,0,,,,,,,,,,,,,,,,,
115846,1469913302399,0,237.8,192.2,9,209.1,,0.03,0.1,0.99,-3.0,0.2,-0.2,760,0,0.0,0,39.538677,-122.332146,0.0,0.021,98.0,9,2,1.4,0,0.0,-1,0.0,0.0,0.0,0
115866,1469913302419,,,,,,,0.03,0.1,0.98,-2.9,0.2,-0.3,760,0,,,,,,,,,,,,,,,,,
115886,1469913302439,,,,,,,0.03,0.1,0.98,-2.9,0.3,-0.2,760,0,,,,,,,,,,,,,,,,,
115906,1469913302459,,,,,,,0.03,0.1,0.98,-2.9,0.3,-0.1,740,0,,,,,,,,,,,,,,,,,
115926,1469913302479,,,,,,,0.03,0.1,0.99,-2.9,0.3,-0.2,740,0,,,,,,,,,,,,,,,,,
115946,1469913302498,,,,6,,,0.03,0.1,0.98,-2.9,0.3,-0.3,740,0,0.0,0,39.538677,-122.332146,0.0,0.021,98.0,9,2,1.4,0,0.0,-1,0.0,,0.0,0
115966,1469913302518,,,,,,,0.03,0.11,0.98,-2.9,0.3,-0.1,700,0,,,,,,,,,,,,,,,,,
115986,1469913302538,,,,,,,0.03,0.11,0.99,-2.9,0.3,-0.1,720,0,,,,,,,,,,,,,,,,,
116006,1469913302558,,,,,,,0.03,0.1,0.98,-2.9,0.3,-0.1,700,0,,,,,,,,,,,,,,,,,
116026,1469913302578,,,,,,,0.03,0.1,0.98,-2.9,0.3,-0.2,700,0,,,,,,,,,,,,,,,,,
116046,1469913302698,0,237.7,192.0,7,209.2,13.11,0.03,0.11,0.98,-3.0,0.2,-0.1,680,0,0.0,0,39.538677,-122.332146,0.0,0.021,98.0,9,2,1.4,0,0.0,-1,0.0,0.0,0.0,0
116066,1469913302718,,,,,,,0.03,0.1,0.99,-2.9,0.2,-0.2,680,0,,,,,,,,,,,,,,,,,
116086,1469913302738,,,,,,,0.02,0.1,0.99,-2.9,0.1,-0.3,680,0,,,,,,,,,,,,,,,,,
116106,1469913302758,,,,,,,0.03,0.11,0.98,-2.9,0.0,-0.2,660,0,,,,,,,,,,,,,,,,,
116126,1469913302778,,,,,,,0.03,0.1,0.98,-2.9,-0.1,-0.2,660,0,,,,,,,,,,,,,,,,,
116146,1469913302798,,,,6,,,0.03,0.1,0.98,-2.9,-0.0,-0.3,660,0,0.0,0,39.538677,-122.332146,0.0,0.021,98.0,9,2,1.4,0,0.0,-1,0.0,,0.0,0
116166,1469913302818,,,,,,,0.03,0.11,0.98,-3.0,0.0,-0.2,660,0,,,,,,,,,,,,,,,,,
116186,1469913302838,,,,,,,0.03,0.1,0.98,-3.0,-0.0,-0.2,660,0,,,,,,,,,,,,,,,,,
116206,1469913302858,,,,,,,0.03,0.09,0.98,-2.9,-0.0,-0.2,660,0,,,,,,,,,,,,,,,,,
116226,1469913302878,,,,,,,0.04,0.11,0.98,-3.0,-0.0,-0.1,660,0,,,,,,,,,,,,,,,,,
116246,1469913302798,0,237.8,192.1,6,209.8,,0.04,0.1,0.98,-2.9,0.0,-0.1,660,0,0.0,0,39.538677,-122.332146,0.0,0.021,98.0,9,2,1.4,0,0.0,-1,0.0,0.0,0.0,0
116266,1469913302818,,,,,,,0.04,0.09,0.98,-2.8,0.1,-0.2,660,0,,,,,,,,,,,,,,,,,
116286,1469913302838,,,,,,,0.04,0.1,0.99,-2.9,0.2,-0.1,680,0,,,,,,,,,,,,,,,,,
116306,1469913302858,,,,,,,0.04,0.09,0.98,-2.8,0.2,-0.2,640,0,,,,,,,,,,,,,,,,,
116326,1469913302878,,,,,,,0.04,0.08,0.98,-2.8,0.3,-0.3,640,0,,,,,,,,,,,,,,,,,
116346,1469913302892,,,,6,,,0.04,0.09,0.99,-2.9,0.2,-0.2,660,0,0.0,0,39.538677,-122.332146,0.0,0.021,98.0,9,2,1.4,0,0.0,-1,0.0,,0.0,0
116366,1469913302912,,,,,,,0.04,0.09,0.98,-2.9,0.2,-0.2,660,0,,,,,,,,,,,,,,,,,
116386,1469913302932,,,,,,,0.04,0.08,0.99,-2.9,0.2,-0.2,660,0,,,,,,,,,,,,,,,,,
116406,1469913302952,,,,,,,0.04,0.09,0.99,-2.9,0.4,-0.2,660,0,,,,,,,,,,,,,,,,,
116426,1469913302972,,,,,,,0.04,0.09,0.98,-2.9,0.4,-0.1,680,0,,,,,,,,,,,,,,,,,
116446,1469913302999,0,238.3,193.2,6,209.1,,0.04,0.09,0.99,-2.9,0.5,-0.3,680,0,0.0,0,39.538677,-122.332146,0.0,0.021,98.0,9,2,1.4,0,0.0,-1,0.0,0.0,0.0,0
116466,1469913303019,,,,,,,0.05,0.1,0.99,-3.0,0.6,-0.2,680,0,,,,,,,,,,,,,,,,,
116486,1469913303039,,,,,,,0.04,0.1,0.99,-3.0,0.6,-0.2,660,0,,,,,,,,,,,,,,,,,
116506,1469913303059,,,,,,,0.04,0.09,0.99,-2.9,0.5,-0.3,680,0,,,,,,,,,,,,,,,,,
116526,1469913303079,,,,,,,0.04,0.09,1.0,-2.9,0.6,-0.3,680,0,,,,,,,,,,,,,,,,,
116546,1469913303099,,,,6,,,0.04,0.09,0.99,-2.9,0.5,-0.3,680,0,0.0,0,39.538677,-122.332146,0.0,0.021,98.0,9,2,1.4,0,0.0,-1,0.0,,0.0,0
116566,1469913303119,,,,,,,0.03,0.09,0.99,-2.9,0.5,-0.3,680,0,,,,,,,,,,,,,,,,,
116586,1469913303139,,,,,,,0.03,0.08,1.0,-2.9,0.6,-0.3,680,0,,,,,,,,,,,,,,,,,
116606,1469913303159,,,,,,,0.03,0.09,0.98,-2.9,0.5,-0.2,700,0,,,,,,,,,,,,,,,,,
116626,1469913303179,,,,,,,0.02,0.09,0.98,-2.9,0.4,-0.2,700,0,,,,,,,,,,,,,,,,,
116646,1469913303199,0,237.3,192.0,6,209.8,,0.02,0.09,0.98,-2.9,0.2,-0.4,700,0,0.0,0,39.538677,-122.332146,0.0,0.021,98.0,9,2,1.4,0,0.0,-1,0.0,0.0,0.0,0
116666,1469913303219,,,,,,,0.02,0.1,0.97,-3.0,0.1,-0.2,700,0,,,,,,,,,,,,,,,,,
116686,1469913303239,,,,,,,0.03,0.11,0.97,-3.0,0.2,-0.2,720,0,,,,,,,,,,,,,,,,,
116706,1469913303259,,,,,,,0.02,0.1,0.97,-2.9,0.2,-0.3,720,0,,,,,,,,,,,,,,,,,
116726,1469913303279,,,,,,,0.03,0.1,0.97,-2.9,0.4,-0.3,720,0,,,,,,,,,,,,,,,,,
116746,1469913303298,,,,6,,,0.03,0.1,0.97,-3.0,0.4,-0.2,720,0,0.0,0,39.538677,-122.332146,0.0,0.021,98.0,9,2,1.4,0,0.0,-1,0.0,,0.0,0
116766,1469913303318,,,,,,,0.03,0.1,0.98,-2.9,0.3,-0.2,720,0,,,,,,,,,,,,,,,,,
116786,1469913303338,,,,,,,0.02,0.09,0.98,-2.8,0.2,-0.3,720,0,,,,,,,,,,,,,,,,,
116806,1469913303358,,,,,,,0.03,0.09,0.98,-2.9,0.2,-0.2,720,0,,,,,,,,,,,,,,,,,
116826,1469913303378,,,,,,,0.03,0.09,0.98,-2.9,0.2,-0.1,720,0,,,,,,,,,,,,,,,,,
116846,1469913303497,0,238.3,193.7,8,208.6,,0.03,0.09,0.98,-2.8,0.2,-0.2,740,0,0.0,0,39.538677,-122.332146,0.0,0.021,98.0,9,2,1.4,0,0.0,-1,0.0,0.0,0.0,0
116866,1469913303517,,,,,,,0.02,0.09,0.99,-2.9,0.2,-0.3,740,0,,,,,,,,,,,,,,,,,
116886,1469913303537,,,,,,,0.02,0.1,0.98,-2.9,0.2,-0.2,740,0,,,,,,,,,,,,,,,,,
116906,1469913303557,,,,,,,0.03,0.11,0.99,-3.0,0.2,-0.1,760,0,,,,,,,,,,,,,,,,,
116926,1469913303577,,,,,,,0.03,0.11,0.99,-3.0,0.2,-0.2,760,0,,,,,,,,,,,,,,,,,
116946,1469913303597,,,,7,,,0.02,0.12,1.0,-3.0,0.2,-0.3,780,0,0.0,0,39.538677,-122.332146,0.0,0.021,98.0,9,2,1.4,0,0.0,-1,0.0,,0.0,0
116966,1469913303617,,,,,,,0.03,0.11,0.99,-3.1,0.2,-0.3,780,0,,,,,,,,,,,,,,,,,
116986,1469913303637,,,,,,,0.03,0.12,0.99,-3.2,0.1,-0.0,760,0,,,,,,,,,,,,,,,,,
117006,1469913303657,,,,,,,0.03,0.13,0.99,-3.2,0.1,0.0,800,0,,,,,,,,,,,,,,,,,
117026,1469913303677,,,,,,,0.03,0.13,1.0,-3.1,-0.1,-0.2,840,0,,,,,,,,,,,,,,,,,
117046,1469913303599,0,238.3,193.9,9,208.3,13.36,0.02,0.13,0.99,-3.0,-0.2,-0.4,880,0,0.0,0,39.538677,-122.332146,0.0,0.021,98.0,9,2,1.4,0,0.0,-1,0.0,0.0,0.0,0
117066,1469913303619,,,,,,,0.02,0.09,0.99,-2.8,-0.2,-0.6,920,0,,,,,,,,,,,,,,,,,
117086,1469913303639,,,,,,,0.02,0.09,0.99,-2.8,-0.2,-0.6,960,0,,,,,,,,,,,,,,,,,
117106,1469913303659,,,,,,,0.02,0.06,0.98,-2.8,-0.2,-0.5,980,0,,,,,,,,,,,,,,,,,
117126,1469913303679,,,,,,,0.02,0.05,0.98,-2.8,-0.2,-0.4,1060,0,,,,,,,,,,,,,,,,,
117146,1469913303699,,,,13,,,0.02,0.03,0.98,-2.9,-0.9,-0.4,1120,0,0.0,0,39.538677,-122.332146,0.0,0.021,98.0,9,2,1.4,0,0.0,-1,0.0,,0.0,0
117166,1469913303719,,,,,,,0.03,0.06,0.98,-2.9,-1.2,-0.4,1200,0,,,,,,,,,,,,,,,,,
117186,1469913303739,,,,,,,0.05,0.07,0.99,-3.0,-1.1,-0.3,1340,0,,,,,,,,,,,,,,,,,
117206,1469913303759,,,,,,,0.05,0.08,0.99,-2.9,-0.7,-0.4,1420,0,,,,,,,,,,,,,,,,,
117226,1469913303779,,,,,,,0.04,0.08,1.0,-2.9,-0.9,-0.2,1520,0,,,,,,,,,,,,,,,,,
117246,1469913303798,0,237.6,193.1,20,209.1,,0.05,0.09,0.98,-2.9,-0.8,-0.2,1640,55,0.0,0,39.538677,-122.332146,0.0,0.021,98.0,9,2,1.4,0,0.0,-1,0.0,0.0,0.0,0
117266,1469913303818,,,,,,,0.06,0.09,1.0,-3.0,-0.7,-0.0,1740,29,,,,,,,,,,,,,,,,,
117286,1469913303838,,,,,,,0.05,0.13,1.0,-3.2,-0.4,-0.1,1800,64,,,,,,,,,,,,,,,,,
117306,1469913303858,,,,,,,0.05,0.12,0.99,-3.2,0.1,-0.3,1880,64,,,,,,,,,,,,,,,,,
117326,1469913303878,,,,,,,0.05,0.11,0.98,-3.2,0.1,-0.3,1920,64,,,,,,,,,,,,,,,,,
117346,1469913303892,,,,30,,,0.05,0.12,0.97,-3.2,-0.2,-0.3,1980,32,31.636,0,39.538677,-122.332146,0.0,0.021,98.0,9,2,1.4,0,0.0,-1,0.0,,0.0,0
117366,1469913303912,,,,,,,0.04,0.12,0.95,-3.2,-1.0,-0.3,2000,32,,,,,,,,,,,,,,,,,
117386,1469913303932,,,,,,,0.02,0.12,0.94,-3.1,-1.9,-0.3,2020,36,,,,,,,,,,,,,,,,,
117406,1469913303952,,,,,,,0.0,0.14,0.94,-3.1,-2.8,-0.3,1960,36,,,,,,,,,,,,,,,,,
117426,1469913303972,,,,,,,-0.01,0.14,0.94,-3.1,-3.2,-0.3,1880,36,,,,,,,,,,,,,,,,,
117446,1469913303992,1,237.4,193.1,34,209.1,,-0.01,0.14,0.95,-3.1,-3.1,-0.4,1840,36,64.375,0,39.538677,-122.332146,0.0,0.021,98.0,9,2,1.4,0,0.0,-1,0.0,0.0,0.0,0
117466,1469913304012,,,,,,,-0.02,0.15,0.95,-3.1,-2.8,-0.3,1820,36,,,,,,,,,,,,,,,,,
117486,1469913304032,,,,,,,-0.02,0.14,0.95,-3.1,-2.4,-0.3,1720,16,,,,,,,,,,,,,,,,,
117506,1469913304052,,,,,,,-0.02,0.12,0.96,-3.1,-1.9,-0.3,1640,16,,,,,,,,,,,,,,,,,
117526,1469913304072,,,,,,,-0.02,0.13,0.97,-3.1,-1.7,-0.3,1600,16,,,,,,,,,,,,,,,,,
117546,1469913304098,,,,28,,,-0.03,0.13,0.96,-3.0,-1.5,-0.3,1540,18,50.556,0,39.538677,-122.332146,0.0,0.021,98.0,9,2,1.4,0,0.0,-1,0.0,,0.0,0
117566,1469913304118,,,,,,,-0.03,0.12,0.96,-3.0,-1.4,-0.2,1520,18,,,,,,,,,,,,,,,,,
117586,1469913304138,,,,,,,-0.04,0.12,0.97,-3.0,-1.1,-0.2,1500,18,,,,,,,,,,,,,,,,,
117606,1469913304158,,,,,,,-0.03,0.12,0.97,-3.0,-0.9,-0.2,1480,18,,,,,,,,,,,,,,,,,
117626,1469913304178,,,,,,,-0.03,0.12,0.98,-3.0,-1.0,-0.2,1460,26,,,,,,,,,,,,,,,,,
117646,1469913304298,0,237.4,193.5,22,208.2,,-0.03,0.11,0.99,-3.0,-0.8,-0.2,1420,36,84.444,0,39.538677,-122.332146,0.0,0.021,98.0,9,2,1.4,0,0.0,-1,0.0,0.0,0.0,0
117666,1469913304318,,,,,,,-0.03,0.12,0.98,-3.0,-0.7,-0.2,1400,36,,,,,,,,,,,,,,,,,
117686,1469913304338,,,,,,,-0.03,0.11,0.98,-3.0,-0.6,-0.1,1400,36,,,,,,,,,,,,,,,,,
117706,1469913304358,,,,,,,-0.04,0.11,0.98,-3.0,-0.6,-0.2,1380,30,,,,,,,,,,,,,,,,,
117726,1469913304378,,,,,,,-0.05,0.1,0.98,-3.1,-0.5,-0.2,1340,44,,,,,,,,,,,,,,,,,
117746,1469913304398,,,,22,,,-0.05,0.1,0.97,-3.0,-0.5,-0.2,1320,44,40.0,0,39.538677,-122.332146,0.0,0.021,98.0,9,2,1.4,0,0.0,-1,0.0,,0.0,0
117766,1469913304418,,,,,,,-0.05,0.11,0.98,-3.0,-0.5,-0.2,1320,40,,,,,,,,,,,,,,,,,
117786,1469913304438,,,,,,,-0.04,0.11,0.98,-3.1,-0.5,-0.2,1280,40,,,,,,,,,,,,,,,,,
117806,1469913304458,,,,,,,-0.05,0.11,0.98,-3.1,-0.5,-0.1,1260,46,,,,,,,,,,,,,,,,,
117826,1469913304478,,,,,,,-0.05,0.1,0.98,-3.0,-0.5,-0.1,1220,52,,,,,,,,,,,,,,,,,
117846,1469913304399,0,237.4,193.5,16,208.7,,-0.05,0.09,0.98,-3.0,-0.4,-0.1,1180,52,30.0,0,39.538677,-122.332146,0.0,0.021,98.0,9,2,1.4,0,0.0,-1,0.0,0.0,0.0,0
117866,1469913304419,,,,,,,-0.05,0.09,0.98,-3.0,-0.4,-0.1,1180,46,,,,,,,,,,,,,,,,,
117886,1469913304439,,,,,,,-0.05,0.1,0.97,-3.0,-0.4,-0.1,1120,58,,,,,,,,,,,,,,,,,
117906,1469913304459,,,,,,,-0.05,0.1,0.98,-3.0,-0.2,-0.0,1120,61,,,,,,,,,,,,,,,,,
117926,1469913304479,,,,,,,-0.05,0.09,0.98,-3.0,-0.1,0.0,1080,61,,,,,,,,,,,,,,,,,
117946,1469913304499,,,,15,,,-0.06,0.09,0.98,-3.0,-0.1,0.0,1100,55,25.652,0,39.538677,-122.332146,0.0,0.021,98.0,9,2,1.4,0,0.0,-1,0.0,,0.0,0
117966,1469913304519,,,,,,,-0.06,0.09,0.98,-2.9,-0.1,-0.1,1060,64,,,,,,,,,,,,,,,,,
117986,1469913304539,,,,,,,-0.06,0.09,0.98,-2.9,-0.1,-0.1,1060,69,,,,,,,,,,,,,,,,,
118006,1469913304559,,,,,,,-0.06,0.09,0.98,-2.9,-0.1,-0.2,980,66,,,,,,,,,,,,,,,,,
118026,1469913304579,,,,,,,-0.06,0.09,0.98,-2.9,-0.0,-0.2,1000,70,,,,,,,,,,,,,,,,,
118046,1469913304599,0,237.1,193.1,15,207.8,13.42,-0.06,0.09,0.98,-2.8,0.1,-0.3,960,73,16.562,0,39.538677,-122.332146,0.0,0.021,98.0,9,2,1.4,0,0.0,-1,0.0,0.0,0.0,0
118066,1469913304619,,,,,,,-0.07,0.09,0.98,-2.8,0.2,-0.3,960,76,,,,,,,,,,,,,,,,,
118086,1469913304639,,,,,,,-0.07,0.09,0.98,-2.8,0.2,-0.4,960,76,,,,,,,,,,,,,,,,,
118106,1469913304659,,,,,,,-0.07,0.09,0.98,-2.8,0.3,-0.5,900,73,,,,,,,,,,,,,,,,,
118126,1469913304679,,,,,,,-0.08,0.09,0.97,-2.8,0.4,-0.5,900,81,,,,,,,,,,,,,,,,,
118146,1469913304699,,,,11,,,-0.07,0.08,0.96,-2.8,0.6,-0.4,880,90,12.632,0,39.538677,-122.332146,0.0,0.021,98.0,9,2,1.4,0,0.0,-1,0.0,,0.0,0
118166,1469913304719,,,,,,,-0.07,0.08,0.97,-2.9,0.7,-0.3,880,86,,,,,,,,,,,,,,,,,
118186,1469913304739,,,,,,,-0.06,0.1,0.97,-3.0,0.7,-0.1,880,78,,,,,,,,,,,,,,,,,
118206,1469913304759,,,,,,,-0.05,0.12,0.98,-3.0,0.7,-0.1,860,98,,,,,,,,,,,,,,,,,
118226,1469913304779,,,,,,,-0.05,0.11,0.99,-3.0,0.6,-0.1,860,98,,,,,,,,,,,,,,,,,
118246,1469913304799,0,237.8,194.6,9,208.8,,-0.06,0.12,0.99,-3.0,0.4,-0.3,820,89,10.233,0,39.538677,-122.332146,0.0,0.021,98.0,9,2,1.4,0,0.0,-1,0.0,0.0,0.0,0
118266,1469913304819,,,,,,,-0.07,0.1,1.0,-3.0,0.2,-0.5,800,90,,,,,,,,,,,,,,,,,
118286,1469913304839,,,,,,,-0.08,0.08,0.98,-2.9,0.3,-0.4,800,107,,,,,,,,,,,,,,,,,
118306,1469913304859,,,,,,,-0.08,0.09,0.98,-3.0,0.5,-0.1,820,104,,,,,,,,,,,,,,,,,
118326,1469913304879,,,,,,,-0.07,0.11,0.98,-3.1,0.5,-0.0,780,103,,,,,,,,,,,,,,,,,
118346,1469913304893,,,,10,,,-0.07,0.11,0.99,-3.0,0.4,-0.2,800,112,8.889,0,39.538677,-122.332146,0.0,0.021,98.0,9,2,1.4,0,0.0,-1,0.0,,0.0,0
118366,1469913304913,,,,,,,-0.08,0.1,0.98,-3.0,0.1,-0.4,780,116,,,,,,,,,,,,,,,,,
118386,1469913304933,,,,,,,-0.09,0.08,0.98,-3.0,0.1,-0.4,780,110,,,,,,,,,,,,,,,,,
118406,1469913304953,,,,,,,-0.09,0.09,0.97,-3.1,0.2,0.0,780,115,,,,,,,,,,,,,,,,,
118426,1469913304973,,,,,,,-0.09,0.11,0.97,-3.1,0.3,0.1,760,123,,,,,,,,,,,,,,,,,
118446,1469913305099,0,237.4,194.1,8,207.8,,-0.08,0.1,0.98,-3.1,0.2,-0.1,780,120,6.61,0,39.538677,-122.332146,0.0,0.021,98.0,9,2,1.4,0,0.0,-1,0.0,0.0,0.0,0
118466,1469913305119,,,,,,,-0.1,0.1,0.98,-3.0,0.2,-0.2,780,116,,,,,,,,,,,,,,,,,
118486,1469913305139,,,,,,,-0.1,0.08,0.98,-3.0,0.2,-0.1,780,126,,,,,,,,,,,,,,,,,
118506,1469913305159,,,,,,,-0.1,0.09,0.98,-3.2,0.3,0.2,780,136,,,,,,,,,,,,,,,,,
118526,1469913305179,,,,,,,-0.09,0.11,0.98,-3.2,0.3,0.2,780,132,,,,,,,,,,,,,,,,,
118546,1469913305199,,,,8,,,-0.09,0.11,0.98,-3.1,0.2,-0.0,780,127,6.724,0,39.538677,-122.332146,0.0,0.021,98.0,9,2,1.4,0,0.0,-1,0.0,,0.0,0
118566,1469913305219,,,,,,,-0.1,0.1,0.98,-3.0,0.2,-0.3,760,141,,,,,,,,,,,,,,,,,
118586,1469913305239,,,,,,,-0.09,0.08,0.97,-3.0,0.3,-0.1,760,146,,,,,,,,,,,,,,,,,
118606,1469913305259,,,,,,,-0.08,0.1,0.97,-3.1,0.5,0.2,800,136,,,,,,,,,,,,,,,,,
118626,1469913305279,,,,,,,-0.07,0.1,0.98,-3.1,0.5,0.2,800,143,,,,,,,,,,,,,,,,,
118646,1469913305199,0,237.4,194.2,9,207.9,,-0.07,0.11,0.99,-3.0,0.3,-0.0,820,153,5.532,0,39.538677,-122.332146,0.0,0.021,98.0,9,2,1.4,0,0.0,-1,0.0,0.0,0.0,0
118666,1469913305219,,,,,,,-0.08,0.09,0.99,-3.0,0.3,-0.3,820,150,,,,,,,,,,,,,,,,,
118686,1469913305239,,,,,,,-0.08,0.07,0.98,-3.0,0.3,-0.2,820,147,,,,,,,,,,,,,,,,,
118706,1469913305259,,,,,,,-0.08,0.07,0.98,-3.1,0.5,0.2,840,156,,,,,,,,,,,,,,,,,
118726,1469913305279,,,,,,,-0.07,0.11,0.98,-3.2,0.6,0.3,820,161,,,,,,,,,,,,,,,,,
118746,1469913305299,,,,8,,,-0.06,0.11,1.0,-3.2,0.5,0.1,840,156,5.29,0,39.538677,-122.332146,0.0,0.021,98.0,9,2,1.4,0,0.0,-1,0.0,,0.0,0
118766,1469913305319,,,,,,,-0.08,0.11,1.0,-3.1,0.3,-0.2,860,161,,,,,,,,,,,,,,,,,
118786,1469913305339,,,,,,,-0.09,0.08,1.0,-3.0,0.1,-0.5,860,172,,,,,,,,,,,,,,,,,
118806,1469913305359,,,,,,,-0.1,0.09,1.0,-3.0,-0.0,-0.6,880,172,,,,,,,,,,,,,,,,,
118826,1469913305379,,,,,,,-0.09,0.09,0.98,-3.1,0.3,-0.4,880,164,,,,,,,,,,,,,,,,,
118846,1469913305399,0,237.8,195.0,9,208.3,,-0.08,0.07,0.98,-3.1,0.4,-0.2,880,175,5.342,0,39.538639,-122.332176,1.09,0.024,180.1,9,2,1.4,0,0.0,-1,0.0,0.0,0.0,0
118866,1469913305419,,,,,,,-0.08,0.11,0.97,-3.2,0.5,-0.1,880,181,,,,,,,,,,,,,,,,,
118886,1469913305439,,,,,,,-0.07,0.12,0.98,-3.3,0.3,-0.1,900,175,,,,,,,,,,,,,,,,,
118906,1469913305459,,,,,,,-0.07,0.1,0.98,-3.2,0.2,-0.2,900,178,,,,,,,,,,,,,,,,,
118926,1469913305479,,,,,,,-0.06,0.12,0.98,-3.2,0.1,-0.3,920,186,,,,,,,,,,,,,,,,,
118946,1469913305499,,,,9,,,-0.06,0.13,0.98,-3.2,-0.3,-0.4,920,187,4.862,0,39.538639,-122.332176,1.24,0.024,180.2,9,2,1.4,0,0.0,-1,0.0,,0.0,0
118966,1469913305519,,,,,,,-0.07,0.12,0.99,-3.2,-0.7,-0.5,940,190,,,,,,,,,,,,,,,,,
118986,1469913305539,,,,,,,-0.09,0.1,0.98,-3.0,-0.8,-0.7,920,195,,,,,,,,,,,,,,,,,
119006,1469913305559,,,,,,,-0.11,0.09,0.98,-3.0,-0.8,-0.8,940,192,,,,,,,,,,,,,,,,,
119026,1469913305579,,,,,,,-0.11,0.09,0.97,-3.0,-0.5,-1.0,940,195,,,,,,,,,,,,,,,,,
119046,1469913305598,0,237.2,194.3,10,207.3,13.46,-0.11,0.1,0.98,-3.1,-0.3,-1.1,960,203,4.947,0,39.538639,-122.332176,1.49,0.024,180.2,9,2,1.4,0,0.0,-1,0.0,0.0,0.0,0
119066,1469913305618,,,,,,,-0.11,0.1,0.97,-3.2,-0.2,-1.2,960,204,,,,,,,,,,,,,,,,,
119086,1469913305638,,,,,,,-0.1,0.09,0.98,-3.1,-0.0,-1.3,960,204,,,,,,,,,,,,,,,,,
119106,1469913305658,,,,,,,-0.09,0.07,0.97,-3.0,0.2,-1.3,960,212,,,,,,,,,,,,,,,,,
119126,1469913305678,,,,,,,-0.08,0.07,0.97,-3.0,0.3,-1.3,960,213,,,,,,,,,,,,,,,,,
119146,1469913305700,,,,11,,,-0.07,0.08,0.97,-3.1,0.3,-1.3,960,209,4.706,0,39.538639,-122.332176,2.2,0.024,180.3,9,2,1.4,0,0.0,-1,0.0,,0.0,0
119166,1469913305720,,,,,,,-0.07,0.09,0.96,-3.2,0.1,-1.2,980,216,,,,,,,,,,,,,,,,,
119186,1469913305740,,,,,,,-0.07,0.1,0.96,-3.3,-0.2,-1.1,980,220,,,,,,,,,,,,,,,,,
119206,1469913305760,,,,,,,-0.07,0.11,0.95,-3.4,-0.6,-0.9,980,220,,,,,,,,,,,,,,,,,
119226,1469913305780,,,,,,,-0.08,0.1,0.95,-3.5,-0.9,-0.7,940,224,,,,,,,,,,,,,,,,,
119246,1469913305897,0,236.9,193.9,11,206.7,,-0.08,0.11,0.94,-3.5,-1.2,-0.6,960,229,4.507,0,39.538635,-122.332176,3.04,0.024,180.7,9,2,1.4,0,0.0,-1,0.0,0.0,0.0,0
119266,1469913305917,,,,,,,-0.09,0.1,0.94,-3.4,-1.4,-0.5,960,227,,,,,,,,,,,,,,,,,
119286,1469913305937,,,,,,,-0.09,0.09,0.94,-3.4,-1.5,-0.4,960,232,,,,,,,,,,,,,,,,,
119306,1469913305957,,,,,,,-0.09,0.08,0.95,-3.3,-1.5,-0.1,960,232,,,,,,,,,,,,,,,,,
119326,1469913305977,,,,,,,-0.09,0.08,0.96,-3.3,-1.5,0.0,980,233,,,,,,,,,,,,,,,,,
119346,1469913305997,,,,10,,,-0.09,0.09,0.98,-3.3,-1.3,0.2,980,241,4.229,0,39.538635,-122.332176,3.04,0.024,180.7,9,2,1.4,0,0.0,-1,0.0,,0.0,0
119366,1469913306017,,,,,,,-0.09,0.08,0.99,-3.2,-0.9,0.3,960,243,,,,,,,,,,,,,,,,,
119386,1469913306037,,,,,,,-0.08,0.09,1.0,-3.3,-0.5,0.3,980,243,,,,,,,,,,,,,,,,,
119406,1469913306057,,,,,,,-0.08,0.09,1.01,-3.3,-0.1,0.4,980,249,,,,,,,,,,,,,,,,,
119426,1469913306077,,,,,,,-0.08,0.09,1.02,-3.4,0.6,0.4,980,247,,,,,,,,,,,,,,,,,
119446,1469913305998,0,237.4,194.8,13,207.2,,-0.08,0.1,1.03,-3.4,1.0,0.4,980,246,3.951,0,39.538635,-122.332176,3.26,0.024,180.8,9,2,1.4,0,0.0,-1,0.0,0.0,0.0,0
119466,1469913306018,,,,,,,-0.07,0.1,1.03,-3.5,1.4,0.4,980,258,,,,,,,,,,,,,,,,,
119486,1469913306038,,,,,,,-0.07,0.1,1.02,-3.6,1.8,0.4,980,263,,,,,,,,,,,,,,,,,
119506,1469913306058,,,,,,,-0.06,0.11,1.01,-3.7,2.0,0.3,980,255,,,,,,,,,,,,,,,,,
119526,1469913306078,,,,,,,-0.05,0.11,1.01,-3.8,2.2,0.3,1000,258,,,,,,,,,,,,,,,,,
119546,1469913306098,,,,13,,,-0.04,0.12,1.0,-3.8,2.4,0.3,980,266,-3.798,-1,39.538631,-122.332176,3.52,0.024,181.0,9,2,1.4,0,0.0,-1,0.0,,0.0,0
119566,1469913306118,,,,,,,-0.03,0.12,1.0,-3.9,2.5,0.3,1000,263,,,,,,,,,,,,,,,,,
119586,1469913306138,,,,,,,-0.03,0.12,0.99,-3.9,2.6,0.3,1000,266,,,,,,,,,,,,,,,,,
119606,1469913306158,,,,,,,-0.02,0.13,0.98,-3.9,2.7,0.3,980,273,,,,,,,,,,,,,,,,,
119626,1469913306178,,,,,,,-0.01,0.13,0.98,-3.9,2.7,0.3,1000,273,,,,,,,,,,,,,,,,,
119646,1469913306200,0,237.8,195.3,12,207.4,,-0.01,0.13,0.98,-3.9,2.7,0.3,980,270,-3.802,-1,39.538631,-122.332176,4.01,0.024,181.2,9,2,1.4,0,0.0,-1,0.0,0.0,0.0,0
119666,1469913306220,,,,,,,0.0,0.14,0.98,-3.9,2.8,0.3,1000,270,,,,,,,,,,,,,,,,,
119686,1469913306240,,,,,,,0.01,0.14,0.99,-3.9,2.8,0.3,1000,275,,,,,,,,,,,,,,,,,
119706,1469913306260,,,,,,,0.02,0.13,1.0,-4.0,2.8,0.3,1000,286,,,,,,,,,,,,,,,,,
119726,1469913306280,,,,,,,0.02,0.13,1.0,-4.0,2.9,0.4,960,284,,,,,,,,,,,,,,,,,
119746,1469913306299,,,,13,,,0.03,0.13,1.0,-4.0,2.9,0.4,1020,281,-3.717,-1,39.538631,-122.332176,3.8,0.024,181.2,9,2,1.4,0,0.0,-1,0.0,,0.0,0
119766,1469913306319,,,,,,,0.03,0.14,1.01,-4.0,3.0,0.4,980,286,,,,,,,,,,,,,,,,,
119786,1469913306339,,,,,,,0.03,0.14,1.01,-4.1,3.1,0.5,1000,289,,,,,,,,,,,,,,,,,
119806,1469913306359,,,,,,,0.04,0.15,1.01,-4.1,3.1,0.6,1000,292,,,,,,,,,,,,,,,,,
119826,1469913306379,,,,,,,0.04,0.15,1.02,-4.2,3.1,0.7,1000,298,,,,,,,,,,,,,,,,,
119846,1469913306397,0,237.0,194.2,13,206.0,,0.04,0.15,1.02,-4.3,3.3,0.8,1000,295,3.427,1,39.538628,-122.332176,4.02,0.025,181.3,9,2,1.4,0,0.0,-1,0.0,0.0,0.0,0
119866,1469913306417,,,,,,,0.04,0.15,1.02,-4.3,3.4,0.7,1000,293,,,,,,,,,,,,,,,,,
119886,1469913306437,,,,,,,0.04,0.15,1.02,-4.3,3.6,0.7,1000,300,,,,,,,,,,,,,,,,,
119906,1469913306457,,,,,,,0.04,0.14,1.02,-4.3,3.9,0.7,1000,303,,,,,,,,,,,,,,,,,
119926,1469913306477,,,,,,,0.04,0.14,1.02,-4.2,4.1,0.6,1000,307,,,,,,,,,,,,,,,,,
119946,1469913306499,,,,11,,,0.04,0.13,1.02,-4.2,4.3,0.5,1000,307,3.413,1,39.538624,-122.332176,4.6,0.025,181.3,9,2,1.4,0,0.0,-1,0.0,,0.0,0
119966,1469913306519,,,,,,,0.04,0.12,1.02,-4.1,4.4,0.5,1000,309,,,,,,,,,,,,,,,,,
119986,1469913306539,,,,,,,0.03,0.12,1.02,-4.1,4.4,0.5,1000,309,,,,,,,,,,,,,,,,,
120006,1469913306559,,,,,,,0.02,0.11,1.02,-4.0,4.6,0.5,1000,310,,,,,,,,,,,,,,,,,
120026,1469913306579,,,,,,,0.01,0.11,1.02,-4.0,4.5,0.4,1020,313,,,,,,,,,,,,,,,,,
120046,1469913306699,0,237.4,195.1,13,206.4,13.52,0.0,0.11,1.02,-3.9,4.1,0.3,1020,315,3.236,1,39.53862,-122.332176,4.39,0.025,181.4,9,2,1.4,0,0.0,-1,0.0,0.0,0.0,0
120066,1469913306719,,,,,,,-0.02,0.1,1.02,-3.9,4.0,0.3,1020,316,,,,,,,,,,,,,,,,,
120086,1469913306739,,,,,,,-0.03,0.11,1.01,-3.9,3.7,0.3,1040,320,,,,,,,,,,,,,,,,,
120106,1469913306759,,,,,,,-0.04,0.11,1.0,-3.8,3.1,0.3,1040,320,,,,,,,,,,,,,,,,,
120126,1469913306779,,,,,,,-0.06,0.11,0.99,-3.8,2.5,0.2,1040,324,,,,,,,,,,,,,,,,,
120146,1469913306799,,,,15,,,-0.07,0.11,0.99,-3.8,1.9,0.1,1080,326,3.228,1,39.53862,-122.332176,4.39,0.025,181.4,9,2,1.4,0,0.0,-1,0.0,,0.0,0
120166,1469913306819,,,,,,,-0.06,0.1,0.99,-3.7,1.4,-0.1,1060,324,,,,,,,,,,,,,,,,,
120186,1469913306839,,,,,,,-0.06,0.1,0.98,-3.6,1.0,-0.3,1060,329,,,,,,,,,,,,,,,,,
120206,1469913306859,,,,,,,-0.05,0.1,0.98,-3.5,1.0,-0.4,1080,330,,,,,,,,,,,,,,,,,
120226,1469913306879,,,,,,,-0.04,0.11,0.99,-3.4,1.1,-0.4,1080,336,,,,,,,,,,,,,,,,,
120246,1469913306799,0,237.2,194.7,13,206.0,,-0.04,0.12,0.99,-3.5,1.2,-0.4,1100,338,3.242,1,39.53862,-122.332176,4.58,0.025,181.4,9,2,1.4,0,0.0,-1,0.0,0.0,0.0,0
120266,1469913306819,,,,,,,-0.04,0.13,0.98,-3.5,1.1,-0.3,1100,338,,,,,,,,,,,,,,,,,
120286,1469913306839,,,,,,,-0.04,0.13,0.98,-3.5,1.2,-0.2,1080,341,,,,,,,,,,,,,,,,,
120306,1469913306859,,,,,,,-0.04,0.12,0.99,-3.6,1.4,-0.2,1120,343,,,,,,,,,,,,,,,,,
120326,1469913306879,,,,,,,-0.04,0.11,0.99,-3.6,1.4,-0.1,1120,340,,,,,,,,,,,,,,,,,
120346,1469913306899,,,,15,,,-0.05,0.1,1.0,-3.6,1.2,-0.2,1120,340,3.254,1,39.53862,-122.332176,4.58,0.025,181.4,9,2,1.4,0,0.0,-1,0.0,,0.0,0
120366,1469913306897,,,,,,,-0.05,0.1,0.98,-3.5,0.9,-0.4,1120,343,,,,,,,,,,,,,,,,,
120386,1469913306917,,,,,,,-0.05,0.1,0.98,-3.4,1.0,-0.4,1140,343,,,,,,,,,,,,,,,,,
120406,1469913306937,,,,,,,-0.05,0.11,0.99,-3.4,1.2,-0.3,1100,350,,,,,,,,,,,,,,,,,
120426,1469913306957,,,,,,,-0.03,0.11,0.98,-3.4,1.4,-0.2,1160,352,,,,,,,,,,,,,,,,,
120446,1469913307003,0,236.7,194.0,15,204.8,,-0.03,0.12,0.98,-3.4,1.8,-0.1,1160,352,3.265,1,39.538616,-122.332176,4.26,0.025,182.1,9,2,1.4,0,0.0,-1,0.0,0.0,0.0,0
120466,1469913307023,,,,,,,-0.04,0.1,0.98,-3.4,2.0,-0.1,1160,353,,,,,,,,,,,,,,,,,
120486,1469913307043,,,,,,,-0.04,0.1,0.99,-3.4,1.8,-0.1,1160,352,,,,,,,,,,,,,,,,,
120506,1469913307063,,,,,,,-0.04,0.11,0.99,-3.4,1.3,-0.2,1140,356,,,,,,,,,,,,,,,,,
120526,1469913307083,,,,,,,-0.04,0.11,1.0,-3.4,1.2,-0.2,1160,356,,,,,,,,,,,,,,,,,
120546,1469913307105,,,,16,,,-0.03,0.11,1.0,-3.5,1.0,-0.1,1180,361,3.286,1,39.538616,-122.332176,4.08,0.025,182.4,9,2,1.4,0,0.0,-1,0.0,,0.0,0
120566,1469913307125,,,,,,,-0.03,0.11,1.0,-3.5,0.9,-0.0,1180,360,,,,,,,,,,,,,,,,,
120586,1469913307145,,,,,,,-0.04,0.09,1.0,-3.4,0.7,-0.0,1180,361,,,,,,,,,,,,,,,,,
120606,1469913307165,,,,,,,-0.05,0.09,1.0,-3.4,0.3,-0.2,1160,360,,,,,,,,,,,,,,,,,
120626,1469913307185,,,,,,,-0.05,0.1,1.0,-3.4,0.1,-0.2,1200,363,,,,,,,,,,,,,,,,,
120646,1469913307201,0,237.0,194.5,14,204.9,,-0.04,0.09,1.0,-3.4,0.1,-0.1,1160,363,3.251,1,39.538616,-122.332176,4.88,0.025,182.7,9,2,1.4,0,0.0,-1,0.0,0.0,0.0,0
120666,1469913307221,,,,,,,-0.04,0.11,1.0,-3.5,0.1,-0.1,1200,363,,,,,,,,,,,,,,,,,
120686,1469913307241,,,,,,,-0.05,0.1,0.99,-3.4,0.2,-0.1,1160,361,,,,,,,,,,,,,,,,,
120706,1469913307261,,,,,,,-0.05,0.09,0.99,-3.4,0.1,-0.2,1200,363,,,,,,,,,,,,,,,,,
120726,1469913307281,,,,,,,-0.05,0.09,0.98,-3.4,0.0,-0.2,1180,364,,,,,,,,,,,,,,,,,
120746,1469913307302,,,,18,,,-0.04,0.1,0.98,-3.3,0.0,-0.1,1180,367,3.297,1,39.538612,-122.332176,5.32,0.026,182.9,9,2,1.4,0,0.0,-1,0.0,,0.0,0
120766,1469913307322,,,,,,,-0.03,0.11,0.98,-3.3,0.1,-0.1,1240,369,,,,,,,,,,,,,,,,,
120786,1469913307342,,,,,,,-0.03,0.09,0.98,-3.2,0.1,-0.2,1180,369,,,,,,,,,,,,,,,,,
120806,1469913307362,,,,,,,-0.04,0.09,0.98,-3.2,0.1,-0.3,1220,373,,,,,,,,,,,,,,,,,
120826,1469913307382,,,,,,,-0.04,0.09,0.98,-3.1,0.1,-0.3,1200,373,,,,,,,,,,,,,,,,,
120846,1469913307503,1,237.8,195.5,17,205.5,,-0.03,0.09,0.98,-3.1,0.1,-0.2,1220,378,3.379,1,39.538609,-122.332176,4.72,0.026,183.2,9,2,1.4,0,0.0,-1,0.0,0.0,0.0,0
120866,1469913307523,,,,,,,-0.03,0.1,0.98,-3.1,0.3,-0.2,1260,378,,,,,,,,,,,,,,,,,
120886,1469913307543,,,,,,,-0.03,0.09,0.99,-3.0,0.3,-0.2,1220,376,,,,,,,,,,,,,,,,,
120906,1469913307563,,,,,,,-0.03,0.09,0.99,-2.9,0.3,-0.3,1240,380,,,,,,,,,,,,,,,,,
120926,1469913307583,,,,,,,-0.02,0.09,0.99,-2.9,0.3,-0.3,1240,384,,,,,,,,,,,,,,,,,
120946,1469913307603,,,,17,,,-0.02,0.09,0.99,-2.7,0.3,-0.3,1260,383,3.333,1,39.538609,-122.332176,4.72,0.026,183.2,9,2,1.4,0,0.0,-1,0.0,,0.0,0
120966,1469913307623,,,,,,,-0.02,0.07,0.99,-2.5,0.3,-0.3,1280,383,,,,,,,,,,,,,,,,,
120986,1469913307643,,,,,,,-0.02,0.07,1.0,-2.3,0.3,-0.2,1220,383,,,,,,,,,,,,,,,,,
121006,1469913307663,,,,,,,-0.03,0.07,1.0,-2.2,0.3,-0.2,1260,384,,,,,,,,,,,,,,,,,
121026,1469913307683,,,,,,,-0.03,0.08,0.99,-2.1,0.6,-0.3,1260,383,,,,,,,,,,,,,,,,,
121046,1469913307602,0,237.4,195.1,16,204.9,13.49,-0.03,0.07,0.99,-2.1,0.5,-0.2,1240,384,3.342,1,39.538609,-122.332176,5.15,0.026,183.4,9,2,1.4,0,0.0,-1,0.0,0.0,0.0,0
121066,1469913307622,,,,,,,-0.03,0.07,1.0,-1.9,0.5,-0.2,1280,387,,,,,,,,,,,,,,,,,
121086,1469913307642,,,,,,,-0.02,0.07,0.99,-1.7,0.6,-0.2,1280,386,,,,,,,,,,,,,,,,,
121106,1469913307662,,,,,,,-0.02,0.06,0.98,-1.4,0.5,-0.2,1240,387,,,,,,,,,,,,,,,,,
121126,1469913307682,,,,,,,-0.02,0.06,0.98,-1.3,0.1,-0.2,1280,386,,,,,,,,,,,,,,,,,
121146,1469913307703,,,,20,,,-0.01,0.06,0.99,-1.1,-0.0,-0.3,1300,390,3.333,1,39.538605,-122.332161,5.72,0.027,183.4,9,2,1.4,0,0.0,-1,0.0,,0.0,0
121166,1469913307723,,,,,,,-0.02,0.06,0.99,-0.9,-0.2,-0.3,1260,390,,,,,,,,,,,,,,,,,
121186,1469913307743,,,,,,,-0.02,0.04,0.99,-0.7,-0.4,-0.3,1280,389,,,,,,,,,,,,,,,,,
121206,1469913307763,,,,,,,-0.02,0.05,0.99,-0.5,-0.6,-0.4,1260,392,,,,,,,,,,,,,,,,,
121226,1469913307783,,,,,,,-0.02,0.05,0.99,-0.3,-0.4,-0.3,1300,395,,,,,,,,,,,,,,,,,
121246,1469913307801,0,237.4,195.1,17,204.8,,-0.02,0.05,1.0,-0.1,-0.2,-0.3,1300,393,3.231,1,39.538601,-122.332161,6.05,0.027,183.6,9,2,1.4,0,0.0,-1,0.0,0.0,0.0,0
121266,1469913307821,,,,,,,-0.03,0.04,1.0,0.2,-0.2,-0.3,1280,395,,,,,,,,,,,,,,,,,
121286,1469913307841,,,,,,,-0.02,0.03,1.0,0.5,-0.2,-0.3,1300,396,,,,,,,,,,,,,,,,,
121306,1469913307861,,,,,,,-0.02,0.04,1.0,0.8,-0.0,-0.4,1280,396,,,,,,,,,,,,,,,,,
121326,1469913307881,,,,,,,-0.01,0.04,1.0,1.0,-0.0,-0.5,1300,393,,,,,,,,,,,,,,,,,
121346,1469913307902,,,,19,,,-0.01,0.03,1.0,1.3,0.1,-0.5,1300,396,3.265,1,39.538597,-122.332161,6.11,0.027,183.8,9,2,1.4,0,0.0,-1,0.0,,0.0,0
121366,1469913307922,,,,,,,-0.0,0.03,0.99,1.6,0.1,-0.4,1300,398,,,,,,,,,,,,,,,,,
121386,1469913307942,,,,,,,0.0,0.02,1.0,1.8,0.2,-0.4,1300,396,,,,,,,,,,,,,,,,,
121406,1469913307962,,,,,,,0.01,0.04,1.01,2.1,0.0,-0.4,1300,398,,,,,,,,,,,,,,,,,
121426,1469913307982,,,,,,,0.01,0.03,1.01,2.3,0.2,-0.5,1340,403,,,,,,,,,,,,,,,,,
121446,1469913308005,0,237.0,194.2,17,203.8,,0.01,0.02,1.02,2.7,0.2,-0.5,1300,400,3.25,1,39.538597,-122.332161,6.01,0.027,184.1,9,2,1.4,0,0.0,-1,0.0,0.0,0.0,0
121466,1469913308025,,,,,,,0.01,0.03,1.01,3.0,0.2,-0.6,1300,401,,,,,,,,,,,,,,,,,
121486,1469913308045,,,,,,,0.02,0.02,1.01,3.2,0.2,-0.6,1340,404,,,,,,,,,,,,,,,,,
121506,1469913308065,,,,,,,0.02,0.02,1.0,3.6,0.2,-0.6,1300,403,,,,,,,,,,,,,,,,,
121526,1469913308085,,,,,,,0.01,0.02,1.0,3.8,0.3,-0.6,1360,404,,,,,,,,,,,,,,,,,
121546,1469913308103,,,,19,,,0.02,0.01,1.0,4.1,0.3,-0.5,1320,406,3.242,1,39.538597,-122.332161,5.9,0.027,184.2,9,2,1.4,0,0.0,-1,0.0,,0.0,0
121566,1469913308123,,,,,,,0.01,0.0,1.0,4.4,0.4,-0.4,1320,404,,,,,,,,,,,,,,,,,
121586,1469913308143,,,,,,,0.01,0.02,1.0,4.6,0.4,-0.2,1320,403,,,,,,,,,,,,,,,,,
121606,1469913308163,,,,,,,0.02,0.02,1.0,4.8,0.4,-0.2,1340,404,,,,,,,,,,,,,,,,,
121626,1469913308183,,,,,,,0.01,0.02,0.99,5.0,0.6,-0.2,1300,403,,,,,,,,,,,,,,,,,
121646,1469913308300,0,237.1,193.9,19,203.3,,0.01,0.02,0.98,5.2,0.5,-0.2,1340,404,3.267,1,39.53859,-122.332161,6.1,0.028,184.6,9,2,1.4,0,0.0,-1,0.0,0.0,0.0,0
121666,1469913308320,,,,,,,0.01,0.0,0.98,5.4,0.5,-0.2,1340,406,,,,,,,,,,,,,,,,,
121686,1469913308340,,,,,,,0.01,0.0,0.97,5.7,0.6,-0.2,1320,406,,,,,,,,,,,,,,,,,
121706,1469913308360,,,,,,,0.01,0.01,0.97,5.9,0.6,-0.3,1360,406,,,,,,,,,,,,,,,,,
121726,1469913308380,,,,,,,0.0,-0.0,0.97,6.1,0.6,-0.3,1320,407,,,,,,,,,,,,,,,,,
121746,1469913308400,,,,19,,,0.0,-0.0,0.97,6.4,0.6,-0.4,1340,407,3.3,1,39.53859,-122.332161,6.1,0.028,184.6,9,2,1.4,0,0.0,-1,0.0,,0.0,0
121766,1469913308420,,,,,,,0.0,0.02,0.97,6.5,0.4,-0.4,1320,406,,,,,,,,,,,,,,,,,
121786,1469913308440,,,,,,,0.0,0.01,0.96,6.7,0.4,-0.4,1360,409,,,,,,,,,,,,,,,,,
121806,1469913308460,,,,,,,-0.0,0.01,0.97,7.0,0.5,-0.5,1320,409,,,,,,,,,,,,,,,,,
121826,1469913308480,,,,,,,0.0,0.02,0.98,7.2,0.6,-0.5,1340,410,,,,,,,,,,,,,,,,,
121846,1469913308402,0,237.1,194.3,18,203.3,,0.01,0.01,0.97,7.4,0.5,-0.5,1360,410,3.251,1,39.53859,-122.332161,5.9,0.028,184.8,9,2,1.4,0,0.0,-1,0.0,0.0,0.0,0
121866,1469913308422,,,,,,,0.01,0.01,0.98,7.7,0.6,-0.6,1320,410,,,,,,,,,,,,,,,,,
121886,1469913308442,,,,,,,0.02,0.02,0.99,7.9,0.6,-0.7,1320,410,,,,,,,,,,,,,,,,,
121906,1469913308462,,,,,,,0.01,0.01,0.98,8.1,0.9,-0.7,1320,412,,,,,,,,,,,,,,,,,
121926,1469913308482,,,,,,,0.02,0.0,0.99,8.4,0.9,-0.6,1340,409,,,,,,,,,,,,,,,,,
121946,1469913308500,,,,17,,,0.03,0.01,1.0,8.6,0.8,-0.6,1340,410,3.227,1,39.538586,-122.332161,5.71,0.028,185.0,9,2,1.4,0,0.0,-1,0.0,,0.0,0
121966,1469913308520,,,,,,,0.02,0.02,0.99,8.8,0.8,-0.7,1360,410,,,,,,,,,,,,,,,,,
121986,1469913308540,,,,,,,0.02,0.01,1.0,9.0,0.7,-0.7,1340,410,,,,,,,,,,,,,,,,,
122006,1469913308560,,,,,,,0.03,-0.0,1.0,9.3,0.8,-0.7,1360,413,,,,,,,,,,,,,,,,,
122026,1469913308580,,,,,,,0.03,0.0,1.0,9.5,1.0,-0.7,1340,413,,,,,,,,,,,,,,,,,
122046,1469913308604,0,236.9,194.0,18,202.9,13.47,0.04,0.0,1.0,9.7,0.8,-0.7,1360,413,3.317,1,39.538582,-122.332161,5.67,0.028,185.2,9,2,1.4,0,0.0,-1,0.0,0.0,0.0,0
122066,1469913308624,,,,,,,0.03,-0.0,1.0,9.9,0.9,-0.7,1340,415,,,,,,,,,,,,,,,,,
122086,1469913308644,,,,,,,0.03,-0.0,1.0,10.2,1.0,-0.7,1360,415,,,,,,,,,,,,,,,,,
122106,1469913308664,,,,,,,0.03,-0.0,1.0,10.4,0.9,-0.7,1360,418,,,,,,,,,,,,,,,,,
122126,1469913308684,,,,,,,0.03,-0.01,1.0,10.6,1.2,-0.6,1380,416,,,,,,,,,,,,,,,,,
122146,1469913308703,,,,21,,,0.02,-0.02,0.99,10.8,1.0,-0.5,1360,416,3.325,1,39.538582,-122.332161,5.07,0.028,185.6,9,2,1.4,0,0.0,-1,0.0,,0.0,0
122166,1469913308723,,,,,,,0.03,-0.0,1.0,11.0,1.0,-0.4,1380,420,,,,,,,,,,,,,,,,,
122186,1469913308743,,,,,,,0.03,-0.01,1.0,11.1,1.1,-0.2,1360,416,,,,,,,,,,,,,,,,,
122206,1469913308763,,,,,,,0.02,-0.02,1.0,11.3,0.8,-0.2,1360,413,,,,,,,,,,,,,,,,,
122226,1469913308783,,,,,,,0.02,-0.03,1.01,11.5,0.7,-0.1,1380,415,,,,,,,,,,,,,,,,,
122246,1469913308803,0,237.3,194.4,24,203.2,,0.01,-0.02,1.0,11.6,0.7,-0.2,1340,413,3.238,1,39.538578,-122.332161,4.64,0.029,185.9,9,2,1.4,0,0.0,-1,0.0,0.0,0.0,0
122266,1469913308823,,,,,,,0.01,-0.01,0.99,11.7,0.3,-0.4,1360,415,,,,,,,,,,,,,,,,,
122286,1469913308843,,,,,,,0.01,-0.01,0.99,11.8,0.3,-0.4,1340,416,,,,,,,,,,,,,,,,,
122306,1469913308863,,,,,,,0.01,-0.0,0.99,11.9,0.1,-0.4,1360,413,,,,,,,,,,,,,,,,,
122326,1469913308883,,,,,,,0.01,0.0,0.99,12.1,-0.2,-0.3,1340,415,,,,,,,,,,,,,,,,,
122346,1469913308898,,,,20,,,0.02,-0.01,0.99,12.1,-0.1,-0.3,1340,416,3.277,1,39.538578,-122.332161,4.63,0.029,186.2,9,2,1.4,0,0.0,-1,0.0,,0.0,0
122366,1469913308918,,,,,,,0.01,-0.02,0.99,12.3,-0.1,-0.3,1360,413,,,,,,,,,,,,,,,,,
122386,1469913308938,,,,,,,0.02,-0.02,0.99,12.4,-0.2,-0.3,1340,416,,,,,,,,,,,,,,,,,
122406,1469913308958,,,,,,,0.03,-0.02,0.99,12.5,-0.1,-0.4,1380,416,,,,,,,,,,,,,,,,,
122426,1469913308978,,,,,,,0.03,-0.02,0.99,12.6,-0.1,-0.5,1360,415,,,,,,,,,,,,,,,,,
122446,1469913309101,0,237.3,194.5,18,202.9,,0.04,-0.03,0.99,12.7,-0.1,-0.6,1360,420,3.293,1,39.538574,-122.332161,5.44,0.029,186.7,9,2,1.4,0,0.0,-1,0.0,0.0,0.0,0
122466,1469913309121,,,,,,,0.04,-0.02,0.99,12.8,0.2,-0.7,1380,416,,,,,,,,,,,,,,,,,
122486,1469913309141,,,,,,,0.04,-0.01,0.99,12.9,0.3,-0.7,1360,415,,,,,,,,,,,,,,,,,
122506,1469913309161,,,,,,,0.04,-0.01,0.99,12.9,0.2,-0.7,1340,416,,,,,,,,,,,,,,,,,
122526,1469913309181,,,,,,,0.04,-0.02,0.98,13.1,0.1,-0.8,1360,416,,,,,,,,,,,,,,,,,
122546,1469913309201,,,,22,,,0.04,-0.02,1.0,13.3,0.1,-0.8,1340,418,3.301,1,39.538574,-122.332161,5.44,0.029,186.7,9,2,1.4,0,0.0,-1,0.0,,0.0,0
122566,1469913309221,,,,,,,0.04,-0.01,0.99,13.3,0.2,-0.8,1380,420,,,,,,,,,,,,,,,,,
122586,1469913309241,,,,,,,0.04,-0.02,0.99,13.4,0.2,-0.8,1400,418,,,,,,,,,,,,,,,,,
122606,1469913309261,,,,,,,0.04,-0.03,0.98,13.6,0.2,-0.8,1380,420,,,,,,,,,,,,,,,,,
122626,1469913309281,,,,,,,0.04,-0.04,0.98,13.7,0.3,-0.8,1360,418,,,,,,,,,,,,,,,,,
122646,1469913309205,0,237.3,194.2,22,202.8,,0.03,-0.02,0.99,13.8,-0.1,-0.8,1360,420,3.278,1,39.53857,-122.332161,4.6,0.029,186.8,9,2,1.4,0,0.0,-1,0.0,0.0,0.0,0
122666,1469913309225,,,,,,,0.03,-0.03,0.98,13.9,-0.0,-0.7,1400,420,,,,,,,,,,,,,,,,,
122686,1469913309245,,,,,,,0.03,-0.04,0.98,14.1,-0.1,-0.6,1340,418,,,,,,,,,,,,,,,,,
122706,1469913309265,,,,,,,0.03,-0.05,0.98,14.3,-0.1,-0.6,1360,418,,,,,,,,,,,,,,,,,
122726,1469913309285,,,,,,,0.03,-0.05,0.98,14.5,0.1,-0.5,1380,418,,,,,,,,,,,,,,,,,
122746,1469913309305,,,,22,,,0.03,-0.05,0.97,14.6,-0.0,-0.6,1360,420,3.333,1,39.53857,-122.332161,5.78,0.029,186.8,9,2,1.4,0,0.0,-1,0.0,,0.0,0
122766,1469913309325,,,,,,,0.04,-0.05,0.97,14.7,-0.1,-0.5,1340,420,,,,,,,,,,,,,,,,,
122786,1469913309345,,,,,,,0.04,-0.05,0.96,14.9,0.0,-0.7,1380,416,,,,,,,,,,,,,,,,,
122806,1469913309365,,,,,,,0.04,-0.05,0.96,15.1,-0.1,-0.8,1380,418,,,,,,,,,,,,,,,,,
122826,1469913309385,,,,,,,0.04,-0.05,0.96,15.2,-0.2,-0.9,1360,418,,,,,,,,,,,,,,,,,
122846,1469913309403,0,237.7,194.8,21,203.0,,0.04,-0.08,0.96,15.4,-0.2,-1.1,1380,420,3.206,1,39.538567,-122.332161,6.11,0.029,186.8,9,2,1.4,0,0.0,-1,0.0,0.0,0.0,0
122866,1469913309423,,,,,,,0.05,-0.07,0.97,15.7,-0.4,-1.1,1360,423,,,,,,,,,,,,,,,,,
122886,1469913309443,,,,,,,0.05,-0.06,0.96,15.8,-0.4,-1.1,1380,420,,,,,,,,,,,,,,,,,
122906,1469913309463,,,,,,,0.04,-0.06,0.96,15.9,-0.4,-1.1,1360,418,,,,,,,,,,,,,,,,,
122926,1469913309483,,,,,,,0.05,-0.06,0.96,16.0,-0.6,-1.1,1400,420,,,,,,,,,,,,,,,,,
122946,1469913309502,,,,18,,,0.05,-0.07,0.96,16.2,-0.7,-1.2,1340,418,3.301,1,39.538563,-122.332176,7.0,0.03,186.8,9,2,1.4,0,0.0,-1,0.0,,0.0,0
122966,1469913309522,,,,,,,0.05,-0.06,0.97,16.3,-1.0,-1.3,1360,421,,,,,,,,,,,,,,,,,
122986,1469913309542,,,,,,,0.05,-0.06,0.96,16.5,-1.1,-1.3,1380,423,,,,,,,,,,,,,,,,,
123006,1469913309562,,,,,,,0.05,-0.07,0.96,16.6,-1.2,-1.3,1380,420,,,,,,,,,,,,,,,,,
123026,1469913309582,,,,,,,0.05,-0.08,0.95,16.7,-1.3,-1.3,1380,421,,,,,,,,,,,,,,,,,
123046,1469913309605,0,237.1,194.1,18,202.1,13.57,0.05,-0.07,0.96,16.8,-1.2,-1.4,1380,421,3.286,1,39.538559,-122.332176,6.13,0.031,186.7,9,2,1.4,0,0.0,-1,0.0,0.0,0.0,0
123066,1469913309625,,,,,,,0.05,-0.07,0.95,16.9,-1.3,-1.4,1400,420,,,,,,,,,,,,,,,,,
123086,1469913309645,,,,,,,0.05,-0.07,0.96,17.0,-1.2,-1.4,1360,423,,,,,,,,,,,,,,,,,
123106,1469913309665,,,,,,,0.06,-0.08,0.96,17.0,-1.2,-1.3,1400,423,,,,,,,,,,,,,,,,,
123126,1469913309685,,,,,,,0.06,-0.08,0.97,17.2,-1.3,-1.1,1380,423,,,,,,,,,,,,,,,,,
123146,1469913309704,,,,20,,,0.06,-0.08,0.99,17.3,-1.3,-0.8,1380,421,3.238,1,39.538559,-122.332176,6.6,0.031,187.0,9,2,1.4,0,0.0,-1,0.0,,0.0,0
123166,1469913309724,,,,,,,0.06,-0.07,0.99,17.3,-1.4,-0.5,1380,423,,,,,,,,,,,,,,,,,
123186,1469913309744,,,,,,,0.06,-0.08,1.0,17.3,-1.3,-0.1,1400,423,,,,,,,,,,,,,,,,,
123206,1469913309764,,,,,,,0.06,-0.09,1.01,17.4,-1.1,0.2,1400,421,,,,,,,,,,,,,,,,,
123226,1469913309784,,,,,,,0.07,-0.08,1.01,17.5,-1.0,0.5,1360,424,,,,,,,,,,,,,,,,,
123246,1469913309901,0,237.4,194.2,18,202.1,,0.07,-0.08,1.01,17.5,-0.5,0.7,1380,423,3.278,1,39.538555,-122.332176,6.49,0.031,187.2,9,2,1.4,0,0.0,-1,0.0,0.0,0.0,0
123266,1469913309921,,,,,,,0.07,-0.08,1.0,17.6,-0.3,0.8,1400,423,,,,,,,,,,,,,,,,,
123286,1469913309941,,,,,,,0.07,-0.08,0.99,17.6,-0.2,0.9,1360,426,,,,,,,,,,,,,,,,,
123306,1469913309961,,,,,,,0.07,-0.09,0.98,17.7,-0.2,0.9,1380,423,,,,,,,,,,,,,,,,,
123326,1469913309981,,,,,,,0.07,-0.08,0.98,17.8,-0.2,1.0,1380,424,,,,,,,,,,,,,,,,,
123346,1469913310001,,,,21,,,0.07,-0.07,0.97,17.8,-0.2,1.1,1400,424,3.31,1,39.538555,-122.332176,6.49,0.031,187.2,9,2,1.4,0,0.0,-1,0.0,,0.0,0
123366,1469913310021,,,,,,,0.07,-0.06,0.96,17.8,-0.3,1.1,1420,424,,,,,,,,,,,,,,,,,
123386,1469913310041,,,,,,,0.06,-0.07,0.95,17.8,-0.4,1.3,1400,427,,,,,,,,,,,,,,,,,
123406,1469913310061,,,,,,,0.06,-0.06,0.95,17.9,-0.5,1.3,1400,426,,,,,,,,,,,,,,,,,
123426,1469913310081,,,,,,,0.06,-0.04,0.95,17.9,-0.6,1.4,1380,430,,,,,,,,,,,,,,,,,
123446,1469913310001,0,237.8,194.7,19,202.4,,0.06,-0.04,0.95,17.8,-0.6,1.4,1400,429,3.333,1,39.538555,-122.332176,6.94,0.031,187.2,9,2,1.4,0,0.0,-1,0.0,0.0,0.0,0
123466,1469913310021,,,,,,,0.06,-0.05,0.95,17.8,-0.7,1.3,1420,427,,,,,,,,,,,,,,,,,
123486,1469913310041,,,,,,,0.07,-0.06,0.96,17.8,-0.8,1.1,1400,429,,,,,,,,,,,,,,,,,
123506,1469913310061,,,,,,,0.06,-0.06,0.97,17.9,-0.7,0.6,1400,427,,,,,,,,,,,,,,,,,
123526,1469913310081,,,,,,,0.06,-0.04,0.98,17.9,-0.7,0.2,1400,430,,,,,,,,,,,,,,,,,
123546,1469913310103,,,,23,,,0.06,-0.03,0.99,18.0,-0.5,-0.2,1420,430,3.326,1,39.538551,-122.332176,5.84,0.031,187.7,9,2,1.4,0,0.0,-1,0.0,,0.0,0
123566,1469913310123,,,,,,,0.05,-0.01,0.99,18.0,-0.2,-0.6,1380,429,,,,,,,,,,,,,,,,,
123586,1469913310143,,,,,,,0.05,-0.02,0.99,18.0,-0.2,-0.9,1400,430,,,,,,,,,,,,,,,,,
123606,1469913310163,,,,,,,0.05,-0.03,0.99,18.1,-0.0,-1.2,1420,427,,,,,,,,,,,,,,,,,
123626,1469913310183,,,,,,,0.05,-0.03,0.99,18.2,0.2,-1.5,1380,430,,,,,,,,,,,,,,,,,
123646,1469913310201,0,237.1,193.6,20,201.5,,0.05,-0.04,1.0,18.2,0.6,-1.7,1420,430,3.263,1,39.538551,-122.332184,6.17,0.032,187.8,9,2,1.4,0,0.0,-1,0.0,0.0,0.0,0
123666,1469913310221,,,,,,,0.05,-0.04,1.0,18.3,0.9,-2.1,1400,430,,,,,,,,,,,,,,,,,
123686,1469913310241,,,,,,,0.05,-0.03,0.99,18.2,1.0,-2.3,1420,432,,,,,,,,,,,,,,,,,
123706,1469913310261,,,,,,,0.05,-0.05,0.98,18.3,1.1,-2.4,1420,432,,,,,,,,,,,,,,,,,
123726,1469913310281,,,,,,,0.05,-0.07,0.97,18.4,1.0,-2.4,1420,435,,,,,,,,,,,,,,,,,
123746,1469913310305,,,,20,,,0.05,-0.08,0.97,18.5,1.0,-2.3,1400,432,3.256,1,39.538551,-122.332184,6.22,0.032,189.0,9,2,1.4,0,0.0,-1,0.0,,0.0,0
123766,1469913310325,,,,,,,0.05,-0.08,0.96,18.6,0.8,-2.2,1420,430,,,,,,,,,,,,,,,,,
123786,1469913310345,,,,,,,0.05,-0.08,0.97,18.7,0.8,-2.1,1420,432,,,,,,,,,,,,,,,,,
123806,1469913310365,,,,,,,0.04,-0.07,0.97,18.7,0.9,-2.1,1420,430,,,,,,,,,,,,,,,,,
123826,1469913310385,,,,,,,0.04,-0.08,0.98,18.7,0.8,-2.1,1400,432,,,,,,,,,,,,,,,,,
123846,1469913310403,0,237.6,193.8,24,201.5,,0.05,-0.09,0.98,18.7,0.9,-2.1,1420,430,3.256,1,39.538548,-122.332184,6.75,0.032,189.9,9,2,1.4,0,0.0,-1,0.0,0.0,0.0,0
123866,1469913310423,,,,,,,0.05,-0.08,0.98,18.8,0.7,-2.1,1440,433,,,,,,,,,,,,,,,,,
123886,1469913310443,,,,,,,0.04,-0.08,0.98,19.0,0.6,-2.2,1400,430,,,,,,,,,,,,,,,,,
123906,1469913310463,,,,,,,0.05,-0.07,0.98,19.0,0.8,-2.1,1420,433,,,,,,,,,,,,,,,,,
123926,1469913310483,,,,,,,0.06,-0.07,0.99,19.1,0.9,-1.9,1420,432,,,,,,,,,,,,,,,,,
123946,1469913310506,,,,22,,,0.06,-0.06,0.98,19.0,0.8,-1.7,1420,432,3.349,1,39.538548,-122.332184,6.44,0.032,190.0,9,2,1.4,0,0.0,-1,0.0,,0.0,0
123966,1469913310526,,,,,,,0.06,-0.07,0.98,19.0,0.9,-1.5,1440,432,,,,,,,,,,,,,,,,,
123986,1469913310546,,,,,,,0.05,-0.08,0.97,19.0,0.7,-1.4,1420,430,,,,,,,,,,,,,,,,,
124006,1469913310566,,,,,,,0.04,-0.09,0.98,19.0,0.3,-1.1,1420,433,,,,,,,,,,,,,,,,,
124026,1469913310586,,,,,,,0.05,-0.09,0.98,19.2,-0.0,-1.1,1420,433,,,,,,,,,,,,,,,,,
124046,1469913310702,0,237.1,194.2,23,201.8,13.59,0.05,-0.07,0.98,19.3,-0.3,-1.1,1380,432,3.333,1,39.538544,-122.332199,6.85,0.033,191.5,9,2,1.4,0,0.0,-1,0.0,0.0,0.0,0
124066,1469913310722,,,,,,,0.05,-0.07,0.98,19.2,-0.2,-0.9,1420,432,,,,,,,,,,,,,,,,,
124086,1469913310742,,,,,,,0.06,-0.07,0.98,19.3,-0.1,-0.8,1400,432,,,,,,,,,,,,,,,,,
124106,1469913310762,,,,,,,0.07,-0.07,0.98,19.3,-0.2,-0.7,1400,433,,,,,,,,,,,,,,,,,
124126,1469913310782,,,,,,,0.07,-0.07,0.97,19.4,0.2,-0.6,1440,432,,,,,,,,,,,,,,,,,
124146,1469913310802,,,,21,,,0.08,-0.06,0.98,19.5,0.4,-0.5,1420,432,3.287,1,39.538544,-122.332199,6.85,0.033,191.5,9,2,1.4,0,0.0,-1,0.0,,0.0,0
124166,1469913310822,,,,,,,0.08,-0.06,0.98,19.5,0.4,-0.4,1400,430,,,,,,,,,,,,,,,,,
124186,1469913310842,,,,,,,0.07,-0.05,0.99,19.6,0.4,-0.3,1420,432,,,,,,,,,,,,,,,,,
124206,1469913310862,,,,,,,0.07,-0.07,0.99,19.6,0.5,-0.1,1420,432,,,,,,,,,,,,,,,,,
124226,1469913310882,,,,,,,0.08,-0.08,0.99,19.6,0.5,0.1,1400,430,,,,,,,,,,,,,,,,,
124246,1469913310804,0,237.4,193.9,22,201.3,,0.08,-0.08,0.99,19.6,0.5,0.3,1400,433,3.233,1,39.538544,-122.332199,7.1,0.033,191.5,9,2,1.4,0,0.0,-1,0.0,0.0,0.0,0
124266,1469913310824,,,,,,,0.07,-0.09,1.0,19.7,0.5,0.4,1420,432,,,,,,,,,,,,,,,,,
124286,1469913310844,,,,,,,0.06,-0.08,0.99,19.7,0.6,0.4,1420,429,,,,,,,,,,,,,,,,,
124306,1469913310864,,,,,,,0.06,-0.08,0.99,19.7,0.7,0.5,1400,429,,,,,,,,,,,,,,,,,
124326,1469913310884,,,,,,,0.06,-0.07,0.98,19.7,0.6,0.5,1380,427,,,,,,,,,,,,,,,,,
124346,1469913310900,,,,21,,,0.06,-0.07,0.97,19.7,0.4,0.7,1420,429,3.302,1,39.538544,-122.332199,7.12,0.033,192.1,9,2,1.4,0,0.0,-1,0.0,,0.0,0
124366,1469913310920,,,,,,,0.06,-0.08,0.97,19.7,0.4,0.8,1400,427,,,,,,,,,,,,,,,,,
124386,1469913310940,,,,,,,0.06,-0.08,0.97,19.8,0.4,0.8,1380,429,,,,,,,,,,,,,,,,,
124406,1469913310960,,,,,,,0.07,-0.09,0.97,19.9,0.4,0.7,1400,429,,,,,,,,,,,,,,,,,
124426,1469913310980,,,,,,,0.07,-0.07,0.98,19.9,0.3,0.5,1400,429,,,,,,,,,,,,,,,,,
124446,1469913311003,0,237.7,192.5,20,200.0,,0.06,-0.06,0.99,19.8,0.5,0.3,1400,430,3.263,1,39.53854,-122.332199,6.98,0.033,193.0,9,2,1.4,0,0.0,-1,0.0,0.0,0.0,0
124466,1469913311023,,,,,,,0.07,-0.06,0.99,19.8,0.2,0.0,1440,429,,,,,,,,,,,,,,,,,
124486,1469913311043,,,,,,,0.06,-0.06,0.99,19.8,-0.2,-0.2,1380,429,,,,,,,,,,,,,,,,,
124506,1469913311063,,,,,,,0.06,-0.06,0.99,19.9,-0.5,-0.3,1400,429,,,,,,,,,,,,,,,,,
124526,1469913311083,,,,,,,0.05,-0.04,1.0,19.9,-0.8,-0.2,1380,433,,,,,,,,,,,,,,,,,
124546,1469913311101,,,,19,,,0.05,-0.04,0.99,19.9,-1.1,0.1,1440,429,3.349,1,39.538544,-122.332199,7.34,0.033,194.4,9,2,1.4,0,0.0,-1,0.0,,0.0,0
124566,1469913311121,,,,,,,0.05,-0.06,0.97,19.9,-1.4,0.5,1380,433,,,,,,,,,,,,,,,,,
124586,1469913311141,,,,,,,0.06,-0.07,0.96,19.9,-1.8,1.0,1380,427,,,,,,,,,,,,,,,,,
124606,1469913311161,,,,,,,0.06,-0.09,0.97,20.1,-2.2,0.9,1380,426,,,,,,,,,,,,,,,,,
124626,1469913311181,,,,,,,0.06,-0.08,1.0,20.2,-2.4,0.5,1400,429,,,,,,,,,,,,,,,,,
124646,1469913311202,0,237.0,193.9,24,201.2,,0.06,-0.08,1.0,20.2,-2.1,-0.0,1400,424,3.217,1,39.53854,-122.332199,7.61,0.033,197.0,9,2,1.4,0,0.0,-1,0.0,0.0,0.0,0
124666,1469913311222,,,,,,,0.06,-0.08,1.0,20.2,-2.3,-0.6,1380,424,,,,,,,,,,,,,,,,,
124686,1469913311242,,,,,,,0.06,-0.09,1.0,20.3,-2.3,-1.1,1380,427,,,,,,,,,,,,,,,,,
124706,1469913311262,,,,,,,0.06,-0.09,1.0,20.5,-2.3,-1.7,1400,426,,,,,,,,,,,,,,,,,
124726,1469913311282,,,,,,,0.06,-0.1,0.99,20.8,-2.2,-2.4,1380,426,,,,,,,,,,,,,,,,,
124746,1469913311304,,,,24,,,0.07,-0.08,0.99,21.0,-2.1,-3.3,1400,426,3.255,1,39.53854,-122.332214,7.25,0.034,199.2,9,2,1.4,0,0.0,-1,0.0,,0.0,0
124766,1469913311324,,,,,,,0.06,-0.09,0.98,21.2,-1.8,-3.8,1380,426,,,,,,,,,,,,,,,,,
124786,1469913311344,,,,,,,0.06,-0.11,0.99,21.4,-1.7,-4.1,1400,429,,,,,,,,,,,,,,,,,
124806,1469913311364,,,,,,,0.08,-0.13,1.01,21.7,-1.5,-3.9,1440,430,,,,,,,,,,,,,,,,,
124826,1469913311384,,,,,,,0.07,-0.13,1.03,21.8,-1.4,-3.7,1420,433,,,,,,,,,,,,,,,,,
124846,1469913311504,0,237.4,192.8,23,200.4,,0.08,-0.14,1.03,21.9,-1.4,-3.5,1400,433,3.239,1,39.53854,-122.332214,7.36,0.034,201.8,9,2,1.4,0,0.0,-1,0.0,0.0,0.0,0
124866,1469913311524,,,,,,,0.09,-0.14,1.04,22.0,-1.3,-3.3,1420,433,,,,,,,,,,,,,,,,,
124886,1469913311544,,,,,,,0.09,-0.14,1.04,22.1,-1.1,-3.0,1460,435,,,,,,,,,,,,,,,,,
124906,1469913311564,,,,,,,0.08,-0.16,1.04,22.3,-0.8,-2.5,1400,433,,,,,,,,,,,,,,,,,
124926,1469913311584,,,,,,,0.09,-0.17,1.03,22.6,-0.6,-2.1,1420,436,,,,,,,,,,,,,,,,,
124946,1469913311604,,,,23,,,0.1,-0.17,1.04,22.8,-0.0,-1.6,1420,435,3.279,1,39.53854,-122.332214,7.36,0.034,201.8,9,2,1.4,0,0.0,-1,0.0,,0.0,0
124966,1469913311624,,,,,,,0.1,-0.16,1.03,23.0,0.1,-1.2,1440,435,,,,,,,,,,,,,,,,,
124986,1469913311644,,,,,,,0.09,-0.17,1.02,23.3,0.5,-0.8,1420,435,,,,,,,,,,,,,,,,,
125006,1469913311664,,,,,,,0.1,-0.16,1.02,23.6,0.6,-0.6,1400,430,,,,,,,,,,,,,,,,,
125026,1469913311684,,,,,,,0.09,-0.15,1.02,23.7,0.9,-0.3,1400,427,,,,,,,,,,,,,,,,,
125046,1469913311601,0,237.1,193.5,20,200.8,13.48,0.09,-0.15,0.99,23.9,1.0,-0.0,1420,430,3.31,1,39.53854,-122.332214,7.78,0.034,203.1,9,2,1.4,0,0.0,-1,0.0,0.0,0.0,0
125066,1469913311621,,,,,,,0.09,-0.14,0.97,24.1,1.1,0.2,1400,429,,,,,,,,,,,,,,,,,
125086,1469913311641,,,,,,,0.09,-0.15,0.97,24.3,1.2,0.3,1400,432,,,,,,,,,,,,,,,,,
125106,1469913311661,,,,,,,0.09,-0.15,0.98,24.5,1.3,0.3,1440,430,,,,,,,,,,,,,,,,,
125126,1469913311681,,,,,,,0.09,-0.14,0.97,24.6,1.4,0.3,1400,424,,,,,,,,,,,,,,,,,
125146,1469913311702,,,,23,,,0.08,-0.14,0.97,24.7,1.2,0.4,1420,429,3.279,1,39.53854,-122.332222,8.37,0.035,205.9,9,2,1.4,0,0.0,-1,0.0,,0.0,0
125166,1469913311722,,,,,,,0.08,-0.14,0.95,24.8,1.0,0.3,1400,429,,,,,,,,,,,,,,,,,
125186,1469913311742,,,,,,,0.08,-0.14,0.95,24.9,0.9,0.3,1400,429,,,,,,,,,,,,,,,,,
125206,1469913311762,,,,,,,0.08,-0.14,0.94,25.1,0.7,0.2,1380,430,,,,,,,,,,,,,,,,,
125226,1469913311782,,,,,,,0.08,-0.14,0.94,25.1,0.8,0.1,1420,429,,,,,,,,,,,,,,,,,
125246,1469913311802,0,237.8,192.8,21,200.0,,0.07,-0.13,0.95,25.2,1.1,-0.0,1400,426,3.263,1,39.53854,-122.332222,8.32,0.035,207.2,9,2,1.4,0,0.0,-1,0.0,0.0,0.0,0
125266,1469913311822,,,,,,,0.07,-0.12,0.95,25.2,1.0,-0.0,1380,426,,,,,,,,,,,,,,,,,
125286,1469913311842,,,,,,,0.08,-0.13,0.95,25.1,1.2,-0.0,1400,426,,,,,,,,,,,,,,,,,
125306,1469913311862,,,,,,,0.07,-0.14,0.95,25.2,1.1,-0.1,1400,421,,,,,,,,,,,,,,,,,
125326,1469913311882,,,,,,,0.06,-0.15,0.95,25.4,1.2,0.0,1360,423,,,,,,,,,,,,,,,,,
125346,1469913311901,,,,22,,,0.06,-0.14,0.95,25.4,1.5,0.2,1380,421,3.232,1,39.53854,-122.332222,7.87,0.035,208.8,9,2,1.4,0,0.0,-1,0.0,,0.0,0
125366,1469913311921,,,,,,,0.06,-0.15,0.95,25.4,1.7,0.7,1400,421,,,,,,,,,,,,,,,,,
125386,1469913311941,,,,,,,0.07,-0.16,0.96,25.6,2.3,0.7,1360,418,,,,,,,,,,,,,,,,,
125406,1469913311961,,,,,,,0.07,-0.15,0.96,25.7,2.3,0.4,1360,421,,,,,,,,,,,,,,,,,
125426,1469913311981,,,,,,,0.08,-0.14,0.96,25.9,2.6,-0.3,1380,424,,,,,,,,,,,,,,,,,
125446,1469913312002,0,237.8,192.1,23,199.3,,0.09,-0.14,0.96,26.1,2.9,-0.6,1360,418,3.325,1,39.53854,-122.332237,7.93,0.035,209.4,9,2,1.4,0,0.0,-1,0.0,0.0,0.0,0
125466,1469913312022,,,,,,,0.07,-0.13,0.97,26.2,3.0,-0.7,1340,416,,,,,,,,,,,,,,,,,
125486,1469913312042,,,,,,,0.07,-0.14,0.99,26.4,2.5,-0.7,1380,416,,,,,,,,,,,,,,,,,
125506,1469913312062,,,,,,,0.07,-0.13,0.99,26.4,2.2,-0.6,1360,415,,,,,,,,,,,,,,,,,
125526,1469913312082,,,,,,,0.06,-0.12,1.0,26.3,1.4,-0.4,1360,418,,,,,,,,,,,,,,,,,
125546,1469913312103,,,,20,,,0.05,-0.13,0.99,26.2,0.8,-0.3,1360,416,3.168,1,39.53854,-122.332237,7.71,0.035,209.9,9,2,1.4,0,0.0,-1,0.0,,0.0,0
125566,1469913312123,,,,,,,0.05,-0.13,0.99,26.1,0.1,-0.2,1400,418,,,,,,,,,,,,,,,,,
125586,1469913312143,,,,,,,0.06,-0.14,0.99,26.1,-0.5,0.0,1340,418,,,,,,,,,,,,,,,,,
125606,1469913312163,,,,,,,0.06,-0.14,0.99,26.0,-1.1,0.2,1380,418,,,,,,,,,,,,,,,,,
125626,1469913312183,,,,,,,0.08,-0.15,0.99,25.9,-1.6,0.5,1400,420,,,,,,,,,,,,,,,,,
125646,1469913312303,0,238.0,192.2,18,199.3,,0.08,-0.15,0.99,25.9,-1.6,0.6,1360,420,3.221,1,39.538544,-122.332252,7.91,0.037,211.0,9,2,1.4,0,0.0,-1,0.0,0.0,0.0,0
125666,1469913312323,,,,,,,0.09,-0.14,1.01,26.0,-1.8,0.8,1340,420,,,,,,,,,,,,,,,,,
125686,1469913312343,,,,,,,0.1,-0.12,1.01,25.9,-1.8,1.0,1400,423,,,,,,,,,,,,,,,,,
125706,1469913312363,,,,,,,0.09,-0.12,1.01,25.9,-1.7,1.1,1360,420,,,,,,,,,,,,,,,,,
125726,1469913312383,,,,,,,0.1,-0.11,1.0,25.9,-1.7,1.1,1360,418,,,,,,,,,,,,,,,,,
125746,1469913312403,,,,20,,,0.1,-0.12,1.0,26.0,-1.4,1.1,1400,420,3.333,1,39.538544,-122.332252,7.91,0.037,211.0,9,2,1.4,0,0.0,-1,0.0,,0.0,0
125766,1469913312423,,,,,,,0.09,-0.12,1.0,26.1,-1.2,1.1,1360,418,,,,,,,,,,,,,,,,,
125786,1469913312443,,,,,,,0.09,-0.12,1.0,26.0,-1.3,1.2,1360,418,,,,,,,,,,,,,,,,,
125806,1469913312463,,,,,,,0.09,-0.13,1.0,26.1,-1.2,1.2,1380,420,,,,,,,,,,,,,,,,,
125826,1469913312483,,,,,,,0.08,-0.12,0.99,26.1,-0.9,1.1,1380,418,,,,,,,,,,,,,,,,,
125846,1469913312401,0,237.3,192.8,21,200.0,,0.08,-0.11,0.99,26.0,-0.8,1.1,1340,416,3.238,1,39.538544,-122.332252,7.71,0.037,211.4,9,2,1.4,0,0.0,-1,0.0,0.0,0.0,0
125866,1469913312421,,,,,,,0.08,-0.11,0.98,25.9,-0.9,0.9,1360,416,,,,,,,,,,,,,,,,,
125886,1469913312441,,,,,,,0.08,-0.09,0.99,25.9,-1.1,0.8,1360,416,,,,,,,,,,,,,,,,,
125906,1469913312461,,,,,,,0.08,-0.1,0.99,25.9,-1.1,0.6,1360,418,,,,,,,,,,,,,,,,,
125926,1469913312481,,,,,,,0.07,-0.1,0.99,25.9,-0.9,0.5,1400,418,,,,,,,,,,,,,,,,,
125946,1469913312502,,,,21,,,0.08,-0.11,0.98,25.9,-1.0,0.4,1340,420,3.269,1,39.538548,-122.332252,7.65,0.037,211.9,9,2,1.4,0,0.0,-1,0.0,,0.0,0
125966,1469913312522,,,,,,,0.09,-0.11,0.98,25.9,-0.9,0.3,1380,416,,,,,,,,,,,,,,,,,
125986,1469913312542,,,,,,,0.09,-0.1,0.98,25.9,-0.8,0.1,1380,418,,,,,,,,,,,,,,,,,
126006,1469913312562,,,,,,,0.09,-0.08,0.98,25.8,-0.9,-0.0,1380,418,,,,,,,,,,,,,,,,,
126026,1469913312582,,,,,,,0.1,-0.1,0.98,25.8,-0.7,-0.1,1380,418,,,,,,,,,,,,,,,,,
126046,1469913312603,0,237.8,192.3,21,199.3,13.63,0.1,-0.1,0.98,25.7,-0.5,-0.0,1380,421,3.301,1,39.538548,-122.332252,7.55,0.037,212.3,9,2,1.4,0,0.0,-1,0.0,0.0,0.0,0
126066,1469913312623,,,,,,,0.1,-0.1,0.99,25.7,-0.6,-0.1,1360,420,,,,,,,,,,,,,,,,,
126086,1469913312643,,,,,,,0.09,-0.1,0.99,25.6,-0.5,-0.2,1400,418,,,,,,,,,,,,,,,,,
126106,1469913312663,,,,,,,0.1,-0.1,0.99,25.5,-0.2,-0.1,1360,421,,,,,,,,,,,,,,,,,
126126,1469913312683,,,,,,,0.1,-0.12,0.99,25.6,-0.1,-0.2,1360,420,,,,,,,,,,,,,,,,,
126146,1469913312706,,,,22,,,0.09,-0.12,1.0,25.7,-0.0,-0.3,1360,420,3.23,1,39.538548,-122.33226,7.04,0.037,212.3,9,2,1.4,0,0.0,-1,0.0,,0.0,0
126166,1469913312726,,,,,,,0.09,-0.12,0.99,25.7,-0.0,-0.4,1380,420,,,,,,,,,,,,,,,,,
126186,1469913312746,,,,,,,0.08,-0.11,0.99,25.7,0.1,-0.5,1380,416,,,,,,,,,,,,,,,,,
126206,1469913312766,,,,,,,0.08,-0.11,0.98,25.6,0.2,-0.7,1360,418,,,,,,,,,,,,,,,,,
126226,1469913312786,,,,,,,0.08,-0.11,0.98,25.7,0.3,-0.9,1360,420,,,,,,,,,,,,,,,,,
126246,1469913312803,1,237.6,191.6,19,199.4,,0.08,-0.11,0.98,25.7,0.4,-0.9,1380,418,3.286,1,39.538551,-122.33226,7.15,0.037,212.2,9,2,1.4,0,0.0,-1,0.0,0.0,0.0,0
126266,1469913312823,,,,,,,0.09,-0.11,0.98,25.7,0.4,-0.8,1380,416,,,,,,,,,,,,,,,,,
126286,1469913312843,,,,,,,0.09,-0.12,0.98,25.7,0.5,-0.7,1360,418,,,,,,,,,,,,,,,,,
126306,1469913312863,,,,,,,0.09,-0.13,0.98,25.8,0.7,-0.7,1360,415,,,,,,,,,,,,,,,,,
126326,1469913312883,,,,,,,0.1,-0.13,0.99,25.8,0.9,-0.7,1340,418,,,,,,,,,,,,,,,,,
126346,1469913312895,,,,20,,,0.1,-0.13,1.0,25.8,1.1,-0.7,1360,413,3.301,1,39.538551,-122.33226,7.06,0.037,212.1,9,2,1.4,0,0.0,-1,0.0,,0.0,0
126366,1469913312915,,,,,,,0.1,-0.13,1.01,25.7,1.0,-0.7,1340,416,,,,,,,,,,,,,,,,,
126386,1469913312935,,,,,,,0.09,-0.14,1.01,25.7,1.2,-0.7,1340,416,,,,,,,,,,,,,,,,,
126406,1469913312955,,,,,,,0.09,-0.14,1.01,25.7,1.4,-0.5,1360,412,,,,,,,,,,,,,,,,,
126426,1469913312975,,,,,,,0.09,-0.13,1.0,25.5,1.4,-0.4,1360,413,,,,,,,,,,,,,,,,,
126446,1469913313104,0,237.2,191.0,19,199.7,,0.09,-0.13,1.0,25.5,1.4,-0.3,1380,413,3.229,1,39.538555,-122.332275,7.04,0.039,212.5,9,2,1.4,0,0.0,-1,0.0,0.0,0.0,0
126466,1469913313124,,,,,,,0.09,-0.13,1.0,25.5,1.4,-0.0,1340,415,,,,,,,,,,,,,,,,,
