"Interval"|"ms"|0|0|1,"Utc"|"ms"|0|0|1,"FuelLevel"|"F"|0|100|5,"OilTemp"|"F"|0.0|300.0|5,"Coolant"|"F"|0.0|300.0|5,"OilPress"|"PSI"|0|150|10,"EngineTemp"|"F"|0.0|300.0|5,"Battery"|"Volts"|0.0|20.0|1,"AccelX"|"G"|-3.0|3.0|50,"AccelY"|"G"|-3.0|3.0|50,"AccelZ"|"G"|-3.0|3.0|50,"Yaw"|"Deg/Sec"|-300.0|300.0|50,"Pitch"|"Deg/Sec"|-300.0|300.0|50,"Roll"|"Deg/Sec"|-300.0|300.0|50,"RPM"|""|0|10000|50,"Driveshaft"|"RPM"|0|5000|50,"GearRatio"|""|-5.0|5.0|10,"Gear"|""|-1|5|10,"Latitude"|"Degrees"|-180.0|180.0|10,"Longitude"|"Degrees"|-180.0|180.0|10,"Speed"|"MPH"|0.0|150.0|10,"Distance"|"Miles"|0.0|0.0|10,"Altitude"|"Feet"|0.0|4000.0|10,"GPSSats"|""|0|20|10,"GPSQual"|""|0|5|10,"GPSDOP"|""|0.0|20.0|10,"LapCount"|""|0|0|10,"LapTime"|"Min"|0.0|0.0|10,"Sector"|""|0|0|10,"SectorTime"|"Min"|0.0|0.0|10,"PredTime"|"Min"|0.0|0.0|5,"ElapsedTime"|"Min"|0.0|0.0|10,"CurrentLap"|""|0|0|10
5066,1469911723327,,,,,,,-0.19,0.08,0.99,-4.0,0.1,-0.8,5020,4026,,,,,,,,,,,,,,,,,
5086,1469911723347,,,,,,,-0.07,0.09,0.98,-4.1,1.3,-0.8,5240,4026,,,,,,,,,,,,,,,,,
5106,1469911723367,,,,,,,-0.12,0.06,0.97,-4.3,2.0,-0.7,4920,3984,,,,,,,,,,,,,,,,,
5126,1469911723387,,,,,,,-0.18,0.1,1.0,-3.6,0.3,-1.0,5240,4026,,,,,,,,,,,,,,,,,
5146,1469911723407,,,,84,,,-0.07,0.06,1.07,-3.7,2.0,-1.1,5000,4026,1.292,3,39.536221,-122.329742,69.35,0.002,308.0,8,2,1.8,0,0.0,-1,0.0,,0.0,0
5166,1469911723427,,,,,,,-0.08,0.07,1.05,-3.7,2.8,-1.0,5080,4047,,,,,,,,,,,,,,,,,
5186,1469911723447,,,,,,,-0.15,0.11,1.13,-3.6,1.0,-1.4,5000,4026,,,,,,,,,,,,,,,,,
5206,1469911723467,,,,,,,-0.05,0.08,1.09,-3.6,1.7,-1.2,5240,4006,,,,,,,,,,,,,,,,,
5226,1469911723487,,,,,,,-0.11,0.09,1.04,-3.7,3.7,-0.8,5200,4026,,,,,,,,,,,,,,,,,
5246,1469911723507,0,235.5,191.6,82,192.8,,-0.15,0.1,0.96,-3.8,0.8,-0.7,5020,4026,1.287,3,39.536213,-122.329704,69.68,0.004,308.1,8,2,1.8,0,0.0,-1,0.0,0.0,0.0,0
5266,1469911723527,,,,,,,-0.09,0.13,0.91,-3.6,0.2,-0.7,5240,4047,,,,,,,,,,,,,,,,,
5286,1469911723547,,,,,,,-0.14,0.05,0.93,-3.7,2.9,-0.2,5040,4047,,,,,,,,,,,,,,,,,
5306,1469911723567,,,,,,,-0.16,0.03,0.93,-3.8,0.5,-0.1,5200,4047,,,,,,,,,,,,,,,,,
5326,1469911723587,,,,,,,-0.11,0.1,0.99,-3.5,0.8,-0.6,5140,4026,,,,,,,,,,,,,,,,,
5346,1469911723707,,,,83,,,-0.14,0.04,1.0,-3.6,2.8,-0.5,5140,4069,1.303,3,39.536194,-122.329643,70.06,0.008,308.4,8,2,1.8,0,0.0,-1,0.0,,0.0,0
5366,1469911723727,,,,,,,-0.12,0.06,1.05,-3.4,1.6,-0.2,5160,4026,,,,,,,,,,,,,,,,,
5386,1469911723747,,,,,,,-0.06,0.08,1.09,-3.6,2.0,-0.5,5080,4026,,,,,,,,,,,,,,,,,
5406,1469911723767,,,,,,,-0.16,0.03,0.97,-3.3,3.9,-0.9,5380,4090,,,,,,,,,,,,,,,,,
5426,1469911723787,,,,,,,-0.06,0.09,1.03,-3.1,3.5,-0.6,5140,4069,,,,,,,,,,,,,,,,,
5446,1469911723807,0,235.6,192.1,59,193.5,,-0.02,-0.04,1.05,-3.3,4.0,-0.0,5220,4026,1.287,3,39.536194,-122.329643,70.06,0.008,308.4,8,2,1.8,0,0.0,-1,0.0,0.0,0.0,0
5466,1469911723827,,,,,,,-0.13,0.04,1.06,-3.0,3.8,-0.5,5260,4069,,,,,,,,,,,,,,,,,
5486,1469911723847,,,,,,,-0.06,0.14,0.97,-3.2,2.9,-0.8,5100,4069,,,,,,,,,,,,,,,,,
5506,1469911723867,,,,,,,0.01,0.1,0.94,-3.5,4.6,-0.6,5220,4026,,,,,,,,,,,,,,,,,
5526,1469911723887,,,,,,,-0.1,0.1,0.83,-3.9,3.3,-0.7,5060,4090,,,,,,,,,,,,,,,,,
5546,1469911723807,,,,87,,,-0.06,0.2,0.81,-3.7,1.2,-0.9,5140,4112,1.25,3,39.536186,-122.329605,70.35,0.01,308.4,8,2,1.8,0,0.0,-1,0.0,,0.0,0
5566,1469911723827,,,,,,,-0.04,0.11,0.88,-3.9,3.6,-0.8,5120,4069,,,,,,,,,,,,,,,,,
5586,1469911723847,,,,,,,-0.1,0.09,0.82,-3.8,2.2,-0.6,4980,4069,,,,,,,,,,,,,,,,,
5606,1469911723867,,,,,,,-0.02,0.13,0.88,-4.0,0.0,-0.8,5300,4090,,,,,,,,,,,,,,,,,
5626,1469911723887,,,,,,,-0.09,0.12,0.83,-3.8,2.3,-0.6,5160,4112,,,,,,,,,,,,,,,,,
5646,1469911723903,0,235.7,192.7,43,193.9,,-0.1,0.1,0.88,-3.8,2.4,-0.1,5240,4112,1.248,3,39.536175,-122.329559,70.67,0.012,308.4,8,2,1.8,0,0.0,-1,0.0,0.0,0.0,0
5666,1469911723923,,,,,,,0.01,0.11,0.98,-3.9,1.7,0.4,5240,4090,,,,,,,,,,,,,,,,,
5686,1469911723943,,,,,,,-0.09,0.18,1.02,-3.9,1.2,0.4,5080,4112,,,,,,,,,,,,,,,,,
5706,1469911723963,,,,,,,-0.1,0.15,0.96,-3.9,1.6,0.3,5260,4090,,,,,,,,,,,,,,,,,
5726,1469911723983,,,,,,,0.02,0.12,1.06,-3.3,3.8,0.7,5120,4090,,,,,,,,,,,,,,,,,
5746,1469911724007,,,,46,,,-0.06,0.09,1.01,-3.5,2.3,0.9,5300,4112,1.284,3,39.536171,-122.329536,70.95,0.014,308.3,8,2,1.8,0,0.0,-1,0.0,,0.0,0
5766,1469911724027,,,,,,,-0.01,0.15,1.07,-3.5,0.5,0.7,5300,4112,,,,,,,,,,,,,,,,,
5786,1469911724047,,,,,,,-0.01,0.12,1.04,-3.4,4.1,0.6,5180,4069,,,,,,,,,,,,,,,,,
5806,1469911724067,,,,,,,-0.07,0.08,0.98,-3.2,3.6,0.9,5360,4112,,,,,,,,,,,,,,,,,
5826,1469911724087,,,,,,,0.02,0.06,1.03,-3.5,1.1,1.1,5180,4112,,,,,,,,,,,,,,,,,
5846,1469911724107,1,235.7,192.1,53,194.2,,-0.06,0.22,1.08,-3.5,1.6,0.9,5280,4112,1.24,3,39.53616,-122.329498,71.11,0.016,308.2,8,2,1.8,0,0.0,-1,0.0,0.0,0.0,0
5866,1469911724127,,,,,,,-0.08,0.18,1.02,-3.9,0.6,0.7,5300,4112,,,,,,,,,,,,,,,,,
5886,1469911724147,,,,,,,0.05,0.17,1.07,-3.6,1.2,0.9,5040,4090,,,,,,,,,,,,,,,,,
5906,1469911724167,,,,,,,-0.02,0.19,1.03,-4.2,0.3,1.0,5340,4156,,,,,,,,,,,,,,,,,
5926,1469911724187,,,,,,,0.01,0.26,1.05,-4.2,-1.5,0.4,5340,4135,,,,,,,,,,,,,,,,,
5946,1469911724207,,,,54,,,0.02,0.23,1.0,-4.2,1.8,0.2,5340,4135,1.24,3,39.536156,-122.32946,71.37,0.018,308.2,8,2,1.8,0,0.0,-1,0.0,,0.0,0
5966,1469911724227,,,,,,,-0.04,0.25,0.94,-4.2,2.7,0.3,5380,4112,,,,,,,,,,,,,,,,,
5986,1469911724247,,,,,,,0.04,0.27,0.94,-4.4,0.6,0.0,5180,4180,,,,,,,,,,,,,,,,,
6006,1469911724267,,,,,,,0.01,0.3,1.04,-4.5,2.8,0.1,5180,4156,,,,,,,,,,,,,,,,,
6026,1469911724287,,,,,,,-0.02,0.25,0.99,-4.5,2.7,-0.4,5360,4135,,,,,,,,,,,,,,,,,
6046,1469911724307,0,235.8,192.0,76,193.3,14.08,0.12,0.22,1.01,-4.0,3.6,0.1,5180,4135,1.304,3,39.536144,-122.329422,71.72,0.02,308.2,8,2,1.8,0,0.0,-1,0.0,0.0,0.0,0
6066,1469911724327,,,,,,,0.03,0.2,1.01,-4.2,2.9,0.4,5400,4180,,,,,,,,,,,,,,,,,
6086,1469911724347,,,,,,,0.01,0.3,1.07,-3.9,0.2,-0.0,5380,4156,,,,,,,,,,,,,,,,,
6106,1469911724367,,,,,,,0.08,0.22,1.02,-3.9,4.8,-0.0,5340,4135,,,,,,,,,,,,,,,,,
6126,1469911724387,,,,,,,0.01,0.17,1.01,-4.1,5.9,0.5,5320,4180,,,,,,,,,,,,,,,,,
6146,1469911724505,,,,51,,,0.13,0.18,1.06,-3.8,4.1,0.6,5260,4180,1.268,3,39.536129,-122.329361,72.28,0.024,308.1,8,2,1.8,0,0.0,-1,0.0,,0.0,0
6166,1469911724525,,,,,,,0.02,0.22,1.12,-4.0,4.7,0.4,5040,4156,,,,,,,,,,,,,,,,,
6186,1469911724545,,,,,,,-0.07,0.22,1.01,-4.0,3.9,-0.1,5280,4090,,,,,,,,,,,,,,,,,
6206,1469911724565,,,,,,,0.06,0.2,1.09,-4.1,6.1,-0.1,5140,4090,,,,,,,,,,,,,,,,,
6226,1469911724585,,,,,,,0.03,0.13,0.98,-4.1,4.5,-0.1,5000,4047,,,,,,,,,,,,,,,,,
6246,1469911724605,0,235.9,192.4,45,194.3,,0.03,0.19,0.95,-4.0,1.4,-0.2,5140,4006,1.232,3,39.536129,-122.329361,72.28,0.024,308.1,8,2,1.8,0,0.0,-1,0.0,0.0,0.0,0
6266,1469911724625,,,,,,,0.02,0.23,0.9,-3.8,3.6,-0.4,4940,4006,,,,,,,,,,,,,,,,,
6286,1469911724645,,,,,,,-0.01,0.15,0.92,-4.3,2.7,-0.3,5060,4203,,,,,,,,,,,,,,,,,
6306,1469911724665,,,,,,,0.02,0.19,0.99,-3.8,-0.1,-0.8,5000,4112,,,,,,,,,,,,,,,,,
6326,1469911724685,,,,,,,-0.07,0.21,0.96,-4.0,2.3,-0.9,4920,4135,,,,,,,,,,,,,,,,,
6346,1469911724605,,,,57,,,-0.03,0.2,0.98,-4.1,1.8,-0.9,4920,4090,1.268,3,39.536118,-122.329323,72.34,0.026,308.1,8,2,1.8,0,0.0,-1,0.0,,0.0,0
6366,1469911724625,,,,,,,0.03,0.17,1.0,-3.9,-0.5,-0.9,4940,4069,,,,,,,,,,,,,,,,,
6386,1469911724645,,,,,,,-0.07,0.16,0.92,-3.7,0.6,-1.1,4880,4069,,,,,,,,,,,,,,,,,
6406,1469911724665,,,,,,,-0.01,0.11,0.93,-3.5,0.2,-1.0,4780,4156,,,,,,,,,,,,,,,,,
6426,1469911724685,,,,,,,0.02,0.12,0.84,-3.2,-0.7,-1.6,4680,4249,,,,,,,,,,,,,,,,,
6446,1469911724705,1,236.3,192.6,85,193.6,,-0.03,0.09,0.9,-2.9,-0.3,-1.6,4680,4006,1.219,3,39.53611,-122.329285,72.42,0.028,308.1,8,2,1.8,0,0.0,-1,0.0,0.0,0.0,0
6466,1469911724725,,,,,,,0.01,0.11,0.99,-2.7,-0.9,-1.5,4640,4069,,,,,,,,,,,,,,,,,
6486,1469911724745,,,,,,,-0.03,0.12,0.9,-2.2,0.5,-1.5,4560,4069,,,,,,,,,,,,,,,,,
6506,1469911724765,,,,,,,-0.02,0.15,0.91,-2.2,-0.7,-1.5,4520,4026,,,,,,,,,,,,,,,,,
6526,1469911724785,,,,,,,0.05,0.2,0.95,-2.4,-0.4,-1.5,4460,4069,,,,,,,,,,,,,,,,,
6546,1469911724807,,,,43,,,0.02,0.19,0.94,-2.6,0.5,-1.4,4400,4112,1.165,3,39.536102,-122.329247,72.43,0.03,308.1,8,2,1.8,0,0.0,-1,0.0,,0.0,0
6566,1469911724827,,,,,,,0.02,0.28,0.91,-2.9,-0.7,-1.3,4340,4112,,,,,,,,,,,,,,,,,
6586,1469911724847,,,,,,,0.12,0.25,0.94,-3.2,-0.8,-1.2,4460,4090,,,,,,,,,,,,,,,,,
6606,1469911724867,,,,,,,0.06,0.22,0.95,-3.1,-0.2,-0.9,4340,4069,,,,,,,,,,,,,,,,,
6626,1469911724887,,,,,,,0.08,0.24,0.84,-3.0,-2.0,-1.2,4380,4069,,,,,,,,,,,,,,,,,
6646,1469911724902,1,236.0,192.1,63,193.4,,0.13,0.22,0.86,-3.0,-1.4,-1.2,4300,4090,1.094,4,39.536095,-122.329208,72.23,0.032,308.1,8,2,1.8,0,0.0,-1,0.0,0.0,0.0,0
6666,1469911724922,,,,,,,0.04,0.11,0.82,-2.8,-1.5,-1.2,4280,4069,,,,,,,,,,,,,,,,,
6686,1469911724942,,,,,,,0.05,0.14,0.79,-2.8,-1.4,-1.1,4220,4156,,,,,,,,,,,,,,,,,
6706,1469911724962,,,,,,,0.08,0.16,0.76,-2.7,0.3,-1.4,4280,4272,,,,,,,,,,,,,,,,,
6726,1469911724982,,,,,,,0.06,0.17,0.88,-2.9,-0.8,-1.1,4380,4203,,,,,,,,,,,,,,,,,
6746,1469911725007,,,,63,,,0.08,0.21,0.9,-2.9,0.0,-1.0,4100,4156,1.033,4,39.536083,-122.329178,72.18,0.034,308.1,8,2,1.8,0,0.0,-1,0.0,,0.0,0
6766,1469911725027,,,,,,,0.03,0.18,0.91,-2.6,1.0,-1.0,4160,4180,,,,,,,,,,,,,,,,,
6786,1469911725047,,,,,,,0.02,0.13,0.96,-2.4,1.1,-0.7,3920,4112,,,,,,,,,,,,,,,,,
6806,1469911725067,,,,,,,0.08,0.14,0.97,-2.3,1.0,-1.0,3980,4112,,,,,,,,,,,,,,,,,
6826,1469911725087,,,,,,,0.05,0.12,1.01,-2.4,0.7,-0.7,4080,4156,,,,,,,,,,,,,,,,,
6846,1469911725107,0,236.0,192.1,76,193.1,,0.04,0.06,1.03,-2.2,0.7,-0.3,4040,4135,0.977,4,39.536076,-122.32914,72.12,0.036,308.0,8,2,1.8,0,0.0,-1,0.0,0.0,0.0,0
6866,1469911725127,,,,,,,0.06,0.02,0.99,-2.0,1.7,-0.6,4020,4090,,,,,,,,,,,,,,,,,
6886,1469911725147,,,,,,,0.02,0.02,1.02,-2.2,1.5,-0.2,4140,4112,,,,,,,,,,,,,,,,,
6906,1469911725167,,,,,,,0.04,0.08,0.96,-2.3,1.4,-0.4,4280,4156,,,,,,,,,,,,,,,,,
6926,1469911725187,,,,,,,0.01,0.06,1.01,-2.1,2.4,-0.5,4200,4203,,,,,,,,,,,,,,,,,
6946,1469911725307,,,,61,,,-0.02,0.02,1.02,-2.2,2.7,-0.4,4180,4156,0.991,4,39.536056,-122.329063,72.19,0.04,307.7,8,2,1.8,0,0.0,-1,0.0,,0.0,0
6966,1469911725327,,,,,,,0.07,0.03,1.03,-2.1,3.0,-1.0,4260,4112,,,,,,,,,,,,,,,,,
6986,1469911725347,,,,,,,0.02,0.05,1.05,-2.5,4.0,-0.5,4280,4135,,,,,,,,,,,,,,,,,
7006,1469911725367,,,,,,,0.02,0.02,1.02,-2.9,4.7,-0.0,4120,4203,,,,,,,,,,,,,,,,,
7026,1469911725387,,,,,,,0.04,-0.0,1.03,-2.8,5.4,-0.1,4160,4180,,,,,,,,,,,,,,,,,
7046,1469911725407,0,236.6,192.7,42,193.7,14.03,0.01,0.03,1.03,-2.9,4.8,0.3,4020,4135,1.015,4,39.536056,-122.329063,72.19,0.04,307.7,8,2,1.8,0,0.0,-1,0.0,0.0,0.0,0
7066,1469911725427,,,,,,,0.05,0.06,1.0,-3.3,4.6,0.2,4020,4156,,,,,,,,,,,,,,,,,
7086,1469911725447,,,,,,,-0.01,0.05,1.01,-3.6,4.3,0.8,4180,4180,,,,,,,,,,,,,,,,,
7106,1469911725467,,,,,,,-0.03,0.05,0.97,-3.6,3.3,1.4,3980,4203,,,,,,,,,,,,,,,,,
7126,1469911725487,,,,,,,-0.03,0.0,0.89,-3.5,2.8,1.2,4060,4180,,,,,,,,,,,,,,,,,
7146,1469911725406,,,,50,,,-0.12,0.03,0.9,-3.9,2.0,1.7,4220,4156,1.004,4,39.536053,-122.329025,72.32,0.042,307.5,8,2,1.8,0,0.0,-1,0.0,,0.0,0
7166,1469911725426,,,,,,,-0.06,0.09,0.89,-4.1,1.2,1.4,4300,4249,,,,,,,,,,,,,,,,,
7186,1469911725446,,,,,,,-0.06,0.08,0.97,-3.9,0.5,1.6,4240,4203,,,,,,,,,,,,,,,,,
7206,1469911725466,,,,,,,-0.05,0.1,0.95,-3.8,-0.7,1.8,4220,4156,,,,,,,,,,,,,,,,,
7226,1469911725486,,,,,,,0.0,0.1,0.86,-3.7,-1.4,1.2,4340,4180,,,,,,,,,,,,,,,,,
7246,1469911725509,0,236.1,192.1,68,193.3,,-0.04,0.1,0.77,-4.1,-2.1,1.5,4300,4226,1.024,4,39.536041,-122.328987,72.63,0.044,307.4,8,2,1.8,0,0.0,-1,0.0,0.0,0.0,0
7266,1469911725529,,,,,,,-0.05,0.12,0.75,-4.0,-2.2,1.3,3980,4180,,,,,,,,,,,,,,,,,
7286,1469911725549,,,,,,,-0.05,0.13,0.79,-3.7,-1.7,0.7,4180,4226,,,,,,,,,,,,,,,,,
7306,1469911725569,,,,,,,-0.06,0.12,0.84,-3.7,-1.8,0.7,4100,4180,,,,,,,,,,,,,,,,,
7326,1469911725589,,,,,,,0.01,0.13,0.9,-3.4,-3.1,0.2,4080,4180,,,,,,,,,,,,,,,,,
7346,1469911725598,,,,48,,,-0.07,0.12,0.95,-3.6,-3.7,0.2,4220,4226,1.001,4,39.536034,-122.328964,72.79,0.046,307.2,8,2,1.8,0,0.0,-1,0.0,,0.0,0
7366,1469911725618,,,,,,,-0.09,0.15,0.86,-3.6,-3.7,-0.3,4280,4226,,,,,,,,,,,,,,,,,
7386,1469911725638,,,,,,,-0.09,0.16,0.9,-3.1,-2.3,-1.0,4320,4226,,,,,,,,,,,,,,,,,
7406,1469911725658,,,,,,,-0.08,0.17,0.92,-3.2,-2.8,-1.0,4220,4272,,,,,,,,,,,,,,,,,
7426,1469911725678,,,,,,,0.03,0.18,0.96,-2.9,-2.9,-1.4,4340,4203,,,,,,,,,,,,,,,,,
7446,1469911725697,0,236.0,191.8,42,193.1,,-0.03,0.17,1.0,-3.3,-2.3,-0.7,4320,4249,1.014,4,39.536022,-122.328926,73.1,0.048,306.9,8,2,1.8,0,0.0,-1,0.0,0.0,0.0,0
7466,1469911725717,,,,,,,-0.01,0.17,0.95,-3.4,-0.9,-0.6,4200,4226,,,,,,,,,,,,,,,,,
7486,1469911725737,,,,,,,-0.03,0.15,1.03,-3.0,1.0,-0.8,4160,4249,,,,,,,,,,,,,,,,,
7506,1469911725757,,,,,,,-0.03,0.14,1.08,-3.0,0.7,-0.3,4040,4203,,,,,,,,,,,,,,,,,
7526,1469911725777,,,,,,,0.04,0.16,1.09,-3.2,0.6,-0.5,4040,4226,,,,,,,,,,,,,,,,,
7546,1469911725800,,,,60,,,-0.06,0.16,1.06,-3.7,-0.6,0.0,4200,4249,1.024,4,39.536015,-122.328888,73.32,0.05,306.7,8,2,1.8,0,0.0,-1,0.0,,0.0,0
7566,1469911725820,,,,,,,-0.09,0.18,0.93,-4.0,-1.1,0.2,4360,4180,,,,,,,,,,,,,,,,,
7586,1469911725840,,,,,,,-0.13,0.17,0.94,-3.6,-1.0,-0.1,4300,4226,,,,,,,,,,,,,,,,,
7606,1469911725860,,,,,,,-0.09,0.14,0.88,-3.5,-1.9,-0.0,4140,4135,,,,,,,,,,,,,,,,,
7626,1469911725880,,,,,,,-0.02,0.12,0.84,-3.7,-2.1,-0.2,4060,4069,,,,,,,,,,,,,,,,,
7646,1469911725895,0,236.1,192.3,62,193.5,,-0.06,0.09,0.88,-3.9,-3.9,-0.3,4000,4047,1.001,4,39.536007,-122.32885,73.44,0.052,306.5,8,2,1.8,0,0.0,-1,0.0,0.0,0.0,0
7666,1469911725915,,,,,,,-0.01,0.06,0.99,-4.0,-4.5,-0.0,3980,4047,,,,,,,,,,,,,,,,,
7686,1469911725935,,,,,,,0.03,0.05,0.94,-3.6,-4.9,0.0,4120,4069,,,,,,,,,,,,,,,,,
7706,1469911725955,,,,,,,0.01,-0.0,0.97,-3.4,-5.9,0.4,4060,4135,,,,,,,,,,,,,,,,,
7726,1469911725975,,,,,,,0.07,-0.03,0.97,-3.4,-6.7,0.7,4200,4203,,,,,,,,,,,,,,,,,
7746,1469911726099,,,,55,,,0.03,-0.03,0.99,-3.2,-6.3,0.4,4220,4135,0.988,4,39.535988,-122.328766,73.84,0.057,306.0,8,2,1.8,0,0.0,-1,0.0,,0.0,0
7766,1469911726119,,,,,,,0.02,-0.02,0.98,-3.3,-6.9,0.8,4220,4156,,,,,,,,,,,,,,,,,
7786,1469911726139,,,,,,,0.07,-0.01,0.95,-3.2,-5.2,0.7,4160,4203,,,,,,,,,,,,,,,,,
7806,1469911726159,,,,,,,0.04,0.04,0.94,-3.0,-5.4,0.3,4140,4180,,,,,,,,,,,,,,,,,
7826,1469911726179,,,,,,,0.11,0.06,1.01,-2.9,-6.1,0.4,4140,4135,,,,,,,,,,,,,,,,,
7846,1469911726199,0,236.1,193.1,71,194.2,,0.15,0.06,1.0,-2.7,-5.4,0.3,4040,4156,0.961,4,39.535988,-122.328766,73.84,0.057,306.0,8,2,1.8,0,0.0,-1,0.0,0.0,0.0,0
7866,1469911726219,,,,,,,0.1,0.0,1.08,-2.7,-5.8,0.4,4060,4135,,,,,,,,,,,,,,,,,
7886,1469911726239,,,,,,,0.14,-0.03,1.02,-2.8,-5.5,0.5,4180,4180,,,,,,,,,,,,,,,,,
7906,1469911726259,,,,,,,0.11,-0.02,1.07,-2.7,-3.3,0.0,4140,4135,,,,,,,,,,,,,,,,,
7926,1469911726279,,,,,,,0.06,-0.04,1.02,-3.0,-2.7,0.1,4120,4090,,,,,,,,,,,,,,,,,
7946,1469911726200,,,,68,,,0.13,-0.01,0.97,-2.9,-0.9,-0.2,4040,4112,0.982,4,39.53598,-122.328728,73.71,0.059,305.7,8,2,1.8,0,0.0,-1,0.0,,0.0,0
7966,1469911726220,,,,,,,0.1,0.03,0.95,-2.8,-0.6,-0.2,4040,4112,,,,,,,,,,,,,,,,,
7986,1469911726240,,,,,,,0.16,0.08,0.91,-3.0,-1.6,-0.3,4140,4112,,,,,,,,,,,,,,,,,
8006,1469911726260,,,,,,,0.23,0.09,0.87,-3.0,-0.9,-0.7,4100,4069,,,,,,,,,,,,,,,,,
8026,1469911726280,,,,,,,0.18,0.08,0.88,-3.1,-1.4,-0.3,4040,4069,,,,,,,,,,,,,,,,,
8046,1469911726300,0,236.2,192.8,44,194.0,14.02,0.22,0.06,0.91,-3.2,-2.2,-0.2,4060,4069,1.002,4,39.535973,-122.328705,73.51,0.06,305.3,8,2,1.8,0,0.0,-1,0.0,0.0,0.0,0
8066,1469911726320,,,,,,,0.22,0.06,0.88,-3.3,-1.5,-0.6,4060,4112,,,,,,,,,,,,,,,,,
8086,1469911726340,,,,,,,0.13,0.06,0.89,-3.7,-2.3,-0.3,4100,4090,,,,,,,,,,,,,,,,,
8106,1469911726360,,,,,,,0.15,0.07,0.86,-3.8,-2.5,-0.4,4000,4069,,,,,,,,,,,,,,,,,
8126,1469911726380,,,,,,,0.09,0.07,0.89,-3.8,-1.1,-0.6,4080,4006,,,,,,,,,,,,,,,,,
8146,1469911726399,,,,46,,,0.04,0.01,0.92,-4.0,-1.6,-0.1,4060,4112,1.013,4,39.535961,-122.328667,72.87,0.062,304.9,8,2,1.8,0,0.0,-1,0.0,,0.0,0
8166,1469911726419,,,,,,,0.12,-0.01,0.88,-4.1,-1.0,-0.6,3980,4135,,,,,,,,,,,,,,,,,
8186,1469911726439,,,,,,,0.07,0.03,0.84,-4.4,-1.2,-0.9,3920,4090,,,,,,,,,,,,,,,,,
8206,1469911726459,,,,,,,0.08,0.01,0.82,-4.5,-1.9,-0.5,4000,4112,,,,,,,,,,,,,,,,,
8226,1469911726479,,,,,,,0.17,0.01,0.8,-4.5,-1.2,-0.5,3960,4047,,,,,,,,,,,,,,,,,
8246,1469911726498,0,236.8,192.1,47,193.5,,0.12,-0.05,0.8,-4.5,-2.7,-0.7,3900,4047,0.997,4,39.535957,-122.328629,72.51,0.064,304.5,8,2,1.8,0,0.0,-1,0.0,0.0,0.0,0
8266,1469911726518,,,,,,,0.17,-0.01,0.85,-4.6,-3.0,-0.3,3940,4006,,,,,,,,,,,,,,,,,
8286,1469911726538,,,,,,,0.25,0.0,0.92,-4.6,-1.8,0.1,4020,4090,,,,,,,,,,,,,,,,,
8306,1469911726558,,,,,,,0.21,-0.05,0.91,-4.8,-2.6,-0.1,4080,4090,,,,,,,,,,,,,,,,,
8326,1469911726578,,,,,,,0.26,-0.0,0.94,-5.2,-2.3,0.6,4040,4026,,,,,,,,,,,,,,,,,
8346,1469911726597,,,,69,,,0.29,0.06,0.95,-5.7,-0.3,1.0,4120,4026,0.973,4,39.535946,-122.32859,72.21,0.067,304.1,8,2,1.8,0,0.0,-1,0.0,,0.0,0
8366,1469911726617,,,,,,,0.2,0.03,0.96,-5.7,-1.5,0.8,4080,4006,,,,,,,,,,,,,,,,,
8386,1469911726637,,,,,,,0.25,0.09,0.93,-5.9,-1.3,1.5,3960,3964,,,,,,,,,,,,,,,,,
8406,1469911726657,,,,,,,0.26,0.1,0.85,-5.9,0.7,1.3,4020,3964,,,,,,,,,,,,,,,,,
8426,1469911726677,,,,,,,0.2,0.12,0.92,-5.9,0.3,1.0,3920,3984,,,,,,,,,,,,,,,,,
8446,1469911726697,1,236.2,192.3,44,193.5,,0.24,0.2,0.89,-6.1,0.3,1.0,3960,3984,0.973,4,39.535938,-122.328552,71.82,0.069,303.6,8,2,1.8,0,0.0,-1,0.0,0.0,0.0,0
8466,1469911726717,,,,,,,0.27,0.14,0.83,-6.0,2.1,1.1,3940,4069,,,,,,,,,,,,,,,,,
8486,1469911726737,,,,,,,0.25,0.16,0.82,-5.8,1.7,0.8,3740,4006,,,,,,,,,,,,,,,,,
8506,1469911726757,,,,,,,0.3,0.13,0.83,-6.0,0.6,1.3,3760,4006,,,,,,,,,,,,,,,,,
8526,1469911726777,,,,,,,0.28,0.14,0.85,-6.0,2.0,1.6,3700,4026,,,,,,,,,,,,,,,,,
8546,1469911726899,,,,52,,,0.21,0.14,0.81,-6.1,1.0,1.3,3620,3964,0.959,4,39.535919,-122.328491,70.83,0.072,302.5,8,2,1.8,0,0.0,-1,0.0,,0.0,0
8566,1469911726919,,,,,,,0.22,0.18,0.84,-6.1,0.3,1.3,3660,3904,,,,,,,,,,,,,,,,,
8586,1469911726939,,,,,,,0.26,0.23,0.76,-6.2,1.2,1.4,3660,3944,,,,,,,,,,,,,,,,,
8606,1469911726959,,,,,,,0.2,0.15,0.76,-6.2,1.8,1.3,3600,3924,,,,,,,,,,,,,,,,,
8626,1469911726979,,,,,,,0.22,0.17,0.79,-5.9,1.1,1.2,3580,3924,,,,,,,,,,,,,,,,,
8646,1469911726999,0,236.9,191.3,47,192.6,,0.25,0.17,0.79,-5.6,1.8,1.2,3520,3846,0.939,4,39.535919,-122.328491,70.83,0.072,302.5,8,2,1.8,0,0.0,-1,0.0,0.0,0.0,0
8666,1469911727019,,,,,,,0.24,0.15,0.83,-5.7,1.5,0.9,3520,3864,,,,,,,,,,,,,,,,,
8686,1469911727039,,,,,,,0.18,0.15,0.85,-5.8,0.6,0.9,3680,3807,,,,,,,,,,,,,,,,,
8706,1469911727059,,,,,,,0.24,0.21,0.85,-6.0,-0.9,0.9,3640,3884,,,,,,,,,,,,,,,,,
8726,1469911727079,,,,,,,0.32,0.22,0.85,-6.3,0.2,1.0,3820,3846,,,,,,,,,,,,,,,,,
8746,1469911726996,,,,67,,,0.27,0.2,0.87,-6.2,0.9,0.7,3720,3826,0.941,4,39.535915,-122.328453,70.47,0.074,301.9,8,2,1.8,0,0.0,-1,0.0,,0.0,0
8766,1469911727016,,,,,,,0.21,0.18,0.86,-6.1,0.1,0.8,3920,3807,,,,,,,,,,,,,,,,,
8786,1469911727036,,,,,,,0.28,0.17,0.92,-5.8,0.0,0.8,3940,3846,,,,,,,,,,,,,,,,,
8806,1469911727056,,,,,,,0.3,0.19,0.93,-5.4,2.2,0.4,3980,3807,,,,,,,,,,,,,,,,,
8826,1469911727076,,,,,,,0.23,0.21,0.9,-5.6,1.5,0.5,4040,3807,,,,,,,,,,,,,,,,,
8846,1469911727100,0,237.5,191.8,52,193.1,,0.26,0.18,0.89,-5.3,-0.1,0.2,4120,3864,1.004,4,39.535904,-122.328407,70.23,0.077,301.3,8,2,1.8,0,0.0,-1,0.0,0.0,0.0,0
8866,1469911727120,,,,,,,0.35,0.2,0.86,-5.3,-1.1,-0.1,4100,3846,,,,,,,,,,,,,,,,,
8886,1469911727140,,,,,,,0.28,0.12,0.91,-5.3,-0.6,-0.2,4180,3807,,,,,,,,,,,,,,,,,
8906,1469911727160,,,,,,,0.2,0.18,0.96,-5.7,0.6,0.0,4300,3789,,,,,,,,,,,,,,,,,
8926,1469911727180,,,,,,,0.23,0.12,0.98,-5.4,0.2,-0.3,4260,3733,,,,,,,,,,,,,,,,,
8946,1469911727199,,,,62,,,0.28,0.08,0.88,-5.2,0.5,0.0,4380,3680,1.066,4,39.535896,-122.328384,69.44,0.078,300.6,8,2,1.8,0,0.0,-1,0.0,,0.0,0
8966,1469911727219,,,,,,,0.29,0.09,0.91,-5.1,0.8,-0.5,4500,3627,,,,,,,,,,,,,,,,,
8986,1469911727239,,,,,,,0.25,0.15,0.92,-5.3,-0.3,-0.4,4520,3661,,,,,,,,,,,,,,,,,
9006,1469911727259,,,,,,,0.33,0.24,0.92,-5.5,-1.9,-0.4,4560,3680,,,,,,,,,,,,,,,,,
9026,1469911727279,,,,,,,0.39,0.29,0.84,-6.3,-2.3,-0.1,4780,3769,,,,,,,,,,,,,,,,,
9046,1469911727300,0,236.6,192.0,40,193.1,13.82,0.38,0.36,0.87,-6.4,-1.4,-0.3,4700,3789,1.219,3,39.535889,-122.328346,68.94,0.08,300.0,8,2,1.8,0,0.0,-1,0.0,0.0,0.0,0
9066,1469911727320,,,,,,,0.31,0.26,0.92,-6.5,1.0,-0.1,4800,3807,,,,,,,,,,,,,,,,,
9086,1469911727340,,,,,,,0.35,0.25,0.91,-6.2,-1.2,0.5,4740,3769,,,,,,,,,,,,,,,,,
9106,1469911727360,,,,,,,0.32,0.24,0.88,-5.7,-0.8,0.1,4900,3789,,,,,,,,,,,,,,,,,
9126,1469911727380,,,,,,,0.3,0.25,0.92,-5.7,0.9,0.1,4880,3752,,,,,,,,,,,,,,,,,
9146,1469911727398,,,,49,,,0.25,0.28,0.93,-6.3,0.4,0.0,4740,3769,1.246,3,39.535881,-122.328308,68.16,0.082,299.4,8,2,1.8,0,0.0,-1,0.0,,0.0,0
9166,1469911727418,,,,,,,0.3,0.19,0.95,-6.3,1.1,0.0,4780,3752,,,,,,,,,,,,,,,,,
9186,1469911727438,,,,,,,0.35,0.18,0.97,-6.6,0.8,0.3,4820,3680,,,,,,,,,,,,,,,,,
9206,1469911727458,,,,,,,0.34,0.2,0.91,-6.4,1.3,0.3,4780,3733,,,,,,,,,,,,,,,,,
9226,1469911727478,,,,,,,0.25,0.1,0.91,-6.5,2.6,0.5,4660,3769,,,,,,,,,,,,,,,,,
9246,1469911727497,0,236.7,191.9,54,193.1,,0.23,0.25,0.91,-6.6,0.6,0.2,4700,3752,1.282,3,39.535877,-122.328285,67.5,0.084,298.7,8,2,1.8,0,0.0,-1,0.0,0.0,0.0,0
9266,1469911727517,,,,,,,0.3,0.23,0.97,-7.0,2.9,0.2,4700,3696,,,,,,,,,,,,,,,,,
9286,1469911727537,,,,,,,0.3,0.23,1.0,-7.5,3.0,0.6,4660,3715,,,,,,,,,,,,,,,,,
9306,1469911727557,,,,,,,0.22,0.23,0.98,-7.2,3.7,0.6,4800,3789,,,,,,,,,,,,,,,,,
9326,1469911727577,,,,,,,0.25,0.22,0.97,-7.2,2.3,1.0,4840,3733,,,,,,,,,,,,,,,,,
9346,1469911727696,,,,70,,,0.29,0.31,0.97,-7.4,1.4,1.2,4660,3715,1.285,3,39.535862,-122.328209,66.47,0.088,297.3,8,2,1.8,0,0.0,-1,0.0,,0.0,0
9366,1469911727716,,,,,,,0.33,0.34,0.92,-7.9,1.7,1.2,4820,3661,,,,,,,,,,,,,,,,,
9386,1469911727736,,,,,,,0.27,0.33,1.02,-8.3,2.1,1.0,4680,3752,,,,,,,,,,,,,,,,,
9406,1469911727756,,,,,,,0.26,0.24,0.99,-8.1,0.9,1.4,4740,3696,,,,,,,,,,,,,,,,,
9426,1469911727776,,,,,,,0.33,0.21,0.99,-7.6,0.1,1.6,4640,3661,,,,,,,,,,,,,,,,,
9446,1469911727796,0,237.1,191.9,80,192.9,,0.34,0.22,0.92,-7.6,-0.2,1.5,4600,3680,1.286,3,39.535862,-122.328209,66.47,0.088,297.3,8,2,1.8,0,0.0,-1,0.0,0.0,0.0,0
9466,1469911727816,,,,,,,0.31,0.25,0.93,-7.7,-0.5,1.5,4720,3696,,,,,,,,,,,,,,,,,
9486,1469911727836,,,,,,,0.25,0.29,0.91,-8.1,-0.8,1.3,4740,3627,,,,,,,,,,,,,,,,,
9506,1469911727856,,,,,,,0.28,0.35,0.92,-8.9,-0.9,1.4,4700,3696,,,,,,,,,,,,,,,,,
9526,1469911727876,,,,,,,0.32,0.41,0.92,-9.7,-1.8,1.4,4640,3680,,,,,,,,,,,,,,,,,
9546,1469911727800,,,,48,,,0.36,0.39,0.93,-10.2,-0.9,1.3,4580,3593,1.272,3,39.535858,-122.328178,66.07,0.09,296.8,8,2,1.8,0,0.0,-1,0.0,,0.0,0
9566,1469911727820,,,,,,,0.31,0.32,0.95,-10.4,-0.5,1.2,4620,3696,,,,,,,,,,,,,,,,,
9586,1469911727840,,,,,,,0.29,0.39,0.99,-10.3,-0.4,1.0,4720,3661,,,,,,,,,,,,,,,,,
9606,1469911727860,,,,,,,0.34,0.3,1.0,-10.1,-0.6,1.2,4640,3627,,,,,,,,,,,,,,,,,
9626,1469911727880,,,,,,,0.33,0.31,0.99,-10.0,0.0,1.7,4680,3661,,,,,,,,,,,,,,,,,
9646,1469911727894,1,236.8,192.3,44,193.5,,0.32,0.37,1.02,-10.0,-0.2,1.6,4640,3593,1.282,3,39.53585,-122.32814,65.64,0.092,296.1,8,2,1.8,0,0.0,-1,0.0,0.0,0.0,0
9666,1469911727914,,,,,,,0.25,0.41,0.98,-10.6,-0.6,1.4,4640,3627,,,,,,,,,,,,,,,,,
9686,1469911727934,,,,,,,0.27,0.44,1.0,-11.0,-0.7,1.6,4580,3610,,,,,,,,,,,,,,,,,
9706,1469911727954,,,,,,,0.27,0.49,1.0,-11.2,-0.9,1.0,4520,3610,,,,,,,,,,,,,,,,,
9726,1469911727974,,,,,,,0.29,0.52,0.94,-12.2,0.7,0.9,4480,3627,,,,,,,,,,,,,,,,,
9746,1469911728000,,,,77,,,0.27,0.51,1.01,-12.8,0.7,0.5,4600,3610,1.257,3,39.535843,-122.328117,65.15,0.093,295.4,8,2,1.8,0,0.0,-1,0.0,,0.0,0
9766,1469911728020,,,,,,,0.21,0.51,1.02,-13.6,0.2,0.3,4460,3610,,,,,,,,,,,,,,,,,
9786,1469911728040,,,,,,,0.27,0.55,1.03,-13.7,-1.9,0.0,4540,3610,,,,,,,,,,,,,,,,,
9806,1469911728060,,,,,,,0.29,0.54,1.06,-13.8,-0.2,-0.0,4600,3593,,,,,,,,,,,,,,,,,
9826,1469911728080,,,,,,,0.34,0.54,1.08,-14.0,1.1,0.1,4640,3610,,,,,,,,,,,,,,,,,
9846,1469911728099,0,236.7,192.2,43,193.3,,0.32,0.49,1.06,-14.0,1.6,-0.1,4520,3544,1.279,3,39.535839,-122.328079,64.7,0.095,294.7,8,2,1.8,0,0.0,-1,0.0,0.0,0.0,0
9866,1469911728119,,,,,,,0.27,0.48,1.1,-13.6,1.6,-0.3,4520,3593,,,,,,,,,,,,,,,,,
9886,1469911728139,,,,,,,0.29,0.44,1.11,-13.3,0.6,-0.2,4540,3576,,,,,,,,,,,,,,,,,
9906,1469911728159,,,,,,,0.3,0.45,1.07,-13.2,0.5,-0.1,4600,3560,,,,,,,,,,,,,,,,,
9926,1469911728179,,,,,,,0.32,0.42,1.1,-12.9,2.0,0.1,4580,3593,,,,,,,,,,,,,,,,,
9946,1469911728199,,,,60,,,0.36,0.36,1.03,-12.6,2.7,0.5,4560,3512,1.28,3,39.535835,-122.328056,64.29,0.096,294.1,8,2,1.8,0,0.0,-1,0.0,,0.0,0
9966,1469911728219,,,,,,,0.25,0.32,1.08,-12.7,3.2,0.7,4540,3593,,,,,,,,,,,,,,,,,
9986,1469911728239,,,,,,,0.27,0.36,1.1,-12.3,1.8,0.4,4500,3512,,,,,,,,,,,,,,,,,
10006,1469911728259,,,,,,,0.29,0.38,1.08,-12.0,1.9,0.5,4520,3593,,,,,,,,,,,,,,,,,
10026,1469911728279,,,,,,,0.34,0.37,1.12,-12.1,2.4,0.8,4500,3512,,,,,,,,,,,,,,,,,
10046,1469911728300,0,236.7,191.3,49,192.8,14.02,0.31,0.45,1.04,-12.4,3.0,0.8,4420,3576,1.269,3,39.535828,-122.328011,63.93,0.099,293.6,8,2,1.8,0,0.0,-1,0.0,0.0,0.0,0
10066,1469911728320,,,,,,,0.27,0.4,1.05,-12.7,3.3,0.9,4500,3480,,,,,,,,,,,,,,,,,
10086,1469911728340,,,,,,,0.18,0.43,1.02,-13.1,3.3,1.0,4520,3544,,,,,,,,,,,,,,,,,
10106,1469911728360,,,,,,,0.22,0.39,1.01,-12.9,1.4,1.2,4540,3480,,,,,,,,,,,,,,,,,
10126,1469911728380,,,,,,,0.21,0.46,0.99,-12.9,1.1,0.9,4500,3527,,,,,,,,,,,,,,,,,
10146,1469911728497,,,,47,,,0.22,0.49,0.96,-13.3,2.1,0.9,4480,3495,1.287,3,39.53582,-122.32795,63.06,0.102,292.5,8,2,1.8,0,0.0,-1,0.0,,0.0,0
10166,1469911728517,,,,,,,0.25,0.5,0.91,-13.3,2.5,0.9,4560,3512,,,,,,,,,,,,,,,,,
10186,1469911728537,,,,,,,0.22,0.45,0.93,-13.6,2.4,0.6,4500,3464,,,,,,,,,,,,,,,,,
10206,1469911728557,,,,,,,0.13,0.47,0.96,-13.6,2.0,0.6,4360,3527,,,,,,,,,,,,,,,,,
10226,1469911728577,,,,,,,0.18,0.52,0.94,-13.5,0.9,0.5,4420,3464,,,,,,,,,,,,,,,,,
10246,1469911728597,1,237.1,192.8,38,193.4,,0.19,0.42,0.94,-13.4,0.2,1.0,4400,3480,1.253,3,39.53582,-122.32795,63.06,0.102,292.5,8,2,1.8,0,0.0,-1,0.0,0.0,0.0,0
10266,1469911728617,,,,,,,0.23,0.45,0.9,-13.2,0.6,0.3,4480,3512,,,,,,,,,,,,,,,,,
10286,1469911728637,,,,,,,0.21,0.38,0.96,-13.4,2.4,0.2,4380,3418,,,,,,,,,,,,,,,,,
10306,1469911728657,,,,,,,0.21,0.38,0.94,-13.7,3.1,0.1,4360,3480,,,,,,,,,,,,,,,,,
10326,1469911728677,,,,,,,0.18,0.32,1.02,-13.7,2.2,0.2,4440,3464,,,,,,,,,,,,,,,,,
10346,1469911728597,,,,54,,,0.15,0.34,1.05,-13.8,1.4,0.1,4400,3464,1.253,3,39.535816,-122.327927,62.6,0.103,292.0,8,2,1.8,0,0.0,-1,0.0,,0.0,0
10366,1469911728617,,,,,,,0.21,0.44,1.0,-14.3,2.4,0.1,4380,3464,,,,,,,,,,,,,,,,,
10386,1469911728637,,,,,,,0.26,0.43,1.08,-14.8,2.3,-0.2,4320,3449,,,,,,,,,,,,,,,,,
10406,1469911728657,,,,,,,0.27,0.53,0.96,-15.6,2.2,-0.1,4380,3480,,,,,,,,,,,,,,,,,
10426,1469911728677,,,,,,,0.25,0.58,0.96,-15.9,1.4,-0.5,4280,3403,,,,,,,,,,,,,,,,,
10446,1469911728697,1,237.3,192.7,84,193.5,,0.2,0.62,0.96,-16.5,1.9,-0.5,4380,3418,1.258,3,39.535816,-122.327888,62.16,0.105,291.5,8,2,1.8,0,0.0,-1,0.0,0.0,0.0,0
10466,1469911728717,,,,,,,0.22,0.68,0.92,-16.9,0.9,-0.7,4340,3464,,,,,,,,,,,,,,,,,
10486,1469911728737,,,,,,,0.24,0.63,0.94,-17.0,0.8,-0.3,4340,3403,,,,,,,,,,,,,,,,,
10506,1469911728757,,,,,,,0.24,0.66,1.0,-17.0,0.5,-0.1,4260,3433,,,,,,,,,,,,,,,,,
10526,1469911728777,,,,,,,0.22,0.68,0.96,-17.0,0.7,-0.2,4320,3449,,,,,,,,,,,,,,,,,
10546,1469911728800,,,,50,,,0.24,0.67,0.95,-16.9,0.5,-0.3,4320,3403,1.253,3,39.535816,-122.327858,61.84,0.107,291.1,8,2,1.8,0,0.0,-1,0.0,,0.0,0
10566,1469911728820,,,,,,,0.27,0.65,1.01,-16.6,2.1,-0.3,4380,3449,,,,,,,,,,,,,,,,,
10586,1469911728840,,,,,,,0.3,0.65,0.93,-16.6,2.2,-0.4,4320,3418,,,,,,,,,,,,,,,,,
10606,1469911728860,,,,,,,0.26,0.63,1.03,-16.6,2.3,-0.5,4380,3403,,,,,,,,,,,,,,,,,
10626,1469911728880,,,,,,,0.23,0.72,1.01,-16.9,3.1,-0.2,4240,3433,,,,,,,,,,,,,,,,,
10646,1469911728894,0,236.7,191.7,39,194.1,,0.27,0.81,1.03,-16.9,1.4,-0.4,4300,3387,1.276,3,39.535812,-122.32782,61.49,0.109,290.7,8,2,1.8,0,0.0,-1,0.0,0.0,0.0,0
10666,1469911728914,,,,,,,0.29,0.76,1.03,-17.1,1.5,-0.4,4340,3403,,,,,,,,,,,,,,,,,
10686,1469911728934,,,,,,,0.29,0.78,0.97,-17.0,1.8,-0.3,4260,3449,,,,,,,,,,,,,,,,,
10706,1469911728954,,,,,,,0.33,0.75,0.91,-17.0,1.3,-0.2,4300,3387,,,,,,,,,,,,,,,,,
10726,1469911728974,,,,,,,0.26,0.73,1.01,-17.0,2.2,-0.3,4340,3387,,,,,,,,,,,,,,,,,
10746,1469911728999,,,,40,,,0.23,0.73,0.99,-16.9,2.3,-0.5,4360,3403,1.252,3,39.535812,-122.327797,61.03,0.11,290.3,8,2,1.8,0,0.0,-1,0.0,,0.0,0
10766,1469911729019,,,,,,,0.23,0.67,1.03,-16.6,1.1,-0.7,4360,3387,,,,,,,,,,,,,,,,,
10786,1469911729039,,,,,,,0.22,0.73,1.12,-16.4,0.8,-1.2,4300,3387,,,,,,,,,,,,,,,,,
10806,1469911729059,,,,,,,0.25,0.73,0.99,-16.3,1.7,-1.0,4240,3418,,,,,,,,,,,,,,,,,
10826,1469911729079,,,,,,,0.32,0.72,0.94,-16.0,1.4,-1.3,4320,3403,,,,,,,,,,,,,,,,,
10846,1469911729099,0,236.7,191.8,47,193.6,,0.29,0.72,0.95,-16.1,1.9,-1.1,4180,3358,1.246,3,39.535812,-122.327759,60.63,0.112,289.9,8,2,1.8,0,0.0,-1,0.0,0.0,0.0,0
10866,1469911729119,,,,,,,0.23,0.74,0.89,-16.1,2.2,-1.3,4360,3372,,,,,,,,,,,,,,,,,
10886,1469911729139,,,,,,,0.19,0.7,0.88,-15.5,2.4,-1.8,4360,3372,,,,,,,,,,,,,,,,,
10906,1469911729159,,,,,,,0.17,0.65,0.96,-15.3,1.8,-1.7,4420,3343,,,,,,,,,,,,,,,,,
10926,1469911729179,,,,,,,0.15,0.7,0.99,-15.2,1.4,-2.2,4280,3403,,,,,,,,,,,,,,,,,
10946,1469911729299,,,,65,,,0.17,0.7,0.96,-15.4,1.4,-2.1,4360,3387,1.281,3,39.535816,-122.327698,60.15,0.116,289.1,8,2,1.8,0,0.0,-1,0.0,,0.0,0
10966,1469911729319,,,,,,,0.22,0.72,0.98,-15.5,1.1,-2.1,4400,3372,,,,,,,,,,,,,,,,,
10986,1469911729339,,,,,,,0.21,0.78,0.93,-15.9,1.6,-1.7,4400,3418,,,,,,,,,,,,,,,,,
11006,1469911729359,,,,,,,0.18,0.79,0.87,-15.9,1.9,-1.7,4360,3403,,,,,,,,,,,,,,,,,
11026,1469911729379,,,,,,,0.15,0.73,0.87,-16.1,2.3,-1.3,4340,3464,,,,,,,,,,,,,,,,,
11046,1469911729399,0,236.7,192.1,46,193.9,13.88,0.1,0.75,0.92,-16.1,1.6,-1.3,4300,3433,1.31,3,39.535816,-122.327698,60.15,0.116,289.1,8,2,1.8,0,0.0,-1,0.0,0.0,0.0,0
11066,1469911729419,,,,,,,0.1,0.78,0.97,-16.1,0.8,-1.4,4400,3449,,,,,,,,,,,,,,,,,
11086,1469911729439,,,,,,,0.12,0.74,1.05,-16.2,0.9,-1.2,4340,3449,,,,,,,,,,,,,,,,,
11106,1469911729459,,,,,,,0.12,0.74,1.04,-15.9,2.1,-1.2,4380,3480,,,,,,,,,,,,,,,,,
11126,1469911729479,,,,,,,0.11,0.61,0.99,-15.6,1.7,-1.2,4320,3480,,,,,,,,,,,,,,,,,
11146,1469911729398,,,,70,,,0.11,0.63,1.03,-15.4,1.2,-1.6,4460,3433,1.253,3,39.535816,-122.327667,59.76,0.117,288.7,8,2,1.8,0,0.0,-1,0.0,,0.0,0
11166,1469911729418,,,,,,,0.09,0.71,0.95,-15.3,1.1,-1.6,4280,3387,,,,,,,,,,,,,,,,,
11186,1469911729438,,,,,,,0.1,0.7,0.97,-15.1,1.3,-1.8,4360,3358,,,,,,,,,,,,,,,,,
11206,1469911729458,,,,,,,0.04,0.69,0.98,-15.4,1.9,-1.8,4340,3387,,,,,,,,,,,,,,,,,
11226,1469911729478,,,,,,,0.06,0.71,0.96,-15.4,1.2,-1.9,4320,3372,,,,,,,,,,,,,,,,,
11246,1469911729497,1,236.1,191.6,54,194.1,,0.05,0.68,0.97,-15.5,1.8,-1.6,4200,3358,1.293,3,39.53582,-122.327644,59.8,0.118,288.4,8,2,1.8,0,0.0,-1,0.0,0.0,0.0,0
11266,1469911729517,,,,,,,0.05,0.73,0.91,-15.5,1.9,-1.4,4220,3372,,,,,,,,,,,,,,,,,
11286,1469911729537,,,,,,,0.06,0.76,0.91,-15.5,2.3,-1.5,4360,3403,,,,,,,,,,,,,,,,,
11306,1469911729557,,,,,,,0.04,0.75,0.88,-15.5,2.4,-1.2,4320,3433,,,,,,,,,,,,,,,,,
11326,1469911729577,,,,,,,0.06,0.7,0.95,-15.3,2.4,-1.2,4320,3403,,,,,,,,,,,,,,,,,
11346,1469911729597,,,,40,,,0.02,0.78,0.97,-15.6,2.4,-0.7,4340,3418,1.281,3,39.535824,-122.327606,59.68,0.12,288.1,8,2,1.8,0,0.0,-1,0.0,,0.0,0
11366,1469911729617,,,,,,,0.01,0.8,0.99,-15.8,0.9,-0.9,4320,3418,,,,,,,,,,,,,,,,,
11386,1469911729637,,,,,,,0.0,0.76,1.07,-16.3,0.7,-0.9,4380,3387,,,,,,,,,,,,,,,,,
11406,1469911729657,,,,,,,0.01,0.82,1.04,-16.3,0.2,-1.0,4200,3403,,,,,,,,,,,,,,,,,
11426,1469911729677,,,,,,,0.02,0.83,1.07,-16.5,0.5,-0.9,4320,3403,,,,,,,,,,,,,,,,,
11446,1469911729697,0,237.1,192.5,41,193.5,,0.04,0.83,1.07,-16.4,0.3,-0.6,4360,3403,1.27,3,39.535828,-122.327576,59.68,0.122,287.8,8,2,1.8,0,0.0,-1,0.0,0.0,0.0,0
11466,1469911729717,,,,,,,0.04,0.79,1.03,-16.1,1.4,-0.8,4360,3403,,,,,,,,,,,,,,,,,
11486,1469911729737,,,,,,,0.03,0.76,1.02,-16.1,1.4,-0.9,4280,3372,,,,,,,,,,,,,,,,,
11506,1469911729757,,,,,,,0.02,0.7,1.03,-15.9,0.6,-1.2,4260,3387,,,,,,,,,,,,,,,,,
11526,1469911729777,,,,,,,-0.03,0.77,1.0,-16.5,0.4,-1.0,4300,3403,,,,,,,,,,,,,,,,,
11546,1469911729800,,,,38,,,0.03,0.8,0.97,-16.6,-0.7,-0.9,4200,3387,1.234,3,39.535831,-122.327538,59.68,0.124,287.5,8,2,1.8,0,0.0,-1,0.0,,0.0,0
11566,1469911729820,,,,,,,0.03,0.82,0.98,-16.9,-0.2,-0.7,4380,3358,,,,,,,,,,,,,,,,,
11586,1469911729840,,,,,,,0.08,0.77,0.92,-16.8,-0.3,-0.9,4240,3403,,,,,,,,,,,,,,,,,
11606,1469911729860,,,,,,,0.08,0.77,0.86,-16.8,-0.1,-0.8,4340,3418,,,,,,,,,,,,,,,,,
11626,1469911729880,,,,,,,0.09,0.73,0.87,-16.8,-0.2,-0.6,4340,3358,,,,,,,,,,,,,,,,,
11646,1469911729894,0,236.8,192.4,65,193.5,,0.06,0.77,0.84,-16.9,-0.2,-0.9,4360,3372,1.263,3,39.535839,-122.327515,59.64,0.125,287.2,8,2,1.8,0,0.0,-1,0.0,0.0,0.0,0
11666,1469911729914,,,,,,,0.04,0.75,0.83,-16.8,-1.0,-0.7,4300,3403,,,,,,,,,,,,,,,,,
11686,1469911729934,,,,,,,0.06,0.73,0.87,-16.8,-2.9,-0.9,4300,3403,,,,,,,,,,,,,,,,,
11706,1469911729954,,,,,,,0.06,0.71,0.89,-17.2,-3.1,-0.5,4280,3372,,,,,,,,,,,,,,,,,
11726,1469911729974,,,,,,,0.06,0.77,0.91,-17.3,-2.3,-0.5,4340,3387,,,,,,,,,,,,,,,,,
11746,1469911730099,,,,87,,,0.07,0.75,0.85,-17.5,-2.9,-0.0,4320,3403,1.275,3,39.535847,-122.327454,59.33,0.129,286.5,8,2,1.8,0,0.0,-1,0.0,,0.0,0
11766,1469911730119,,,,,,,0.05,0.81,0.87,-17.9,-2.4,0.5,4360,3387,,,,,,,,,,,,,,,,,
11786,1469911730139,,,,,,,0.09,0.84,0.85,-17.6,-1.7,0.2,4220,3418,,,,,,,,,,,,,,,,,
11806,1469911730159,,,,,,,0.06,0.77,0.89,-17.4,-0.4,0.2,4340,3372,,,,,,,,,,,,,,,,,
11826,1469911730179,,,,,,,0.06,0.79,0.93,-17.2,0.8,-0.1,4400,3403,,,,,,,,,,,,,,,,,
11846,1469911730199,0,237.0,193.2,67,192.7,,0.02,0.82,0.93,-17.6,1.0,0.3,4380,3403,1.293,3,39.535847,-122.327454,59.33,0.129,286.5,8,2,1.8,0,0.0,-1,0.0,0.0,0.0,0
11866,1469911730219,,,,,,,0.04,0.83,0.96,-17.8,0.8,0.1,4300,3358,,,,,,,,,,,,,,,,,
11886,1469911730239,,,,,,,0.04,0.8,0.96,-18.2,0.9,0.2,4280,3387,,,,,,,,,,,,,,,,,
11906,1469911730259,,,,,,,0.06,0.83,0.91,-18.5,0.4,0.2,4300,3433,,,,,,,,,,,,,,,,,
11926,1469911730279,,,,,,,0.09,0.85,0.91,-18.6,-0.1,0.5,4300,3418,,,,,,,,,,,,,,,,,
11946,1469911730200,,,,85,,,0.1,0.77,0.93,-18.4,-0.2,0.6,4340,3372,1.281,3,39.535854,-122.327423,59.51,0.13,286.3,8,2,1.8,0,0.0,-1,0.0,,0.0,0
11966,1469911730220,,,,,,,0.07,0.77,0.97,-18.4,0.6,0.5,4360,3403,,,,,,,,,,,,,,,,,
11986,1469911730240,,,,,,,0.01,0.76,1.0,-18.6,-0.1,0.8,4360,3403,,,,,,,,,,,,,,,,,
12006,1469911730260,,,,,,,-0.01,0.76,1.06,-18.6,-1.2,0.7,4300,3403,,,,,,,,,,,,,,,,,
12026,1469911730280,,,,,,,0.02,0.86,1.0,-18.6,-1.5,0.6,4340,3403,,,,,,,,,,,,,,,,,
12046,1469911730300,0,236.5,191.6,74,193.9,13.8,0.05,0.85,0.94,-18.8,-2.3,0.4,4500,3418,1.246,3,39.535858,-122.3274,59.16,0.132,285.9,8,2,1.8,0,0.0,-1,0.0,0.0,0.0,0
12066,1469911730320,,,,,,,0.05,0.91,0.91,-19.3,-1.8,0.7,4200,3418,,,,,,,,,,,,,,,,,
12086,1469911730340,,,,,,,0.06,0.89,0.83,-19.5,-1.9,0.5,4280,3433,,,,,,,,,,,,,,,,,
12106,1469911730360,,,,,,,0.02,0.89,0.87,-19.6,-0.7,0.4,4300,3358,,,,,,,,,,,,,,,,,
12126,1469911730380,,,,,,,-0.02,0.86,0.87,-19.2,-0.7,0.4,4460,3387,,,,,,,,,,,,,,,,,
12146,1469911730398,,,,89,,,-0.05,0.85,0.9,-18.9,-0.3,0.0,4480,3418,1.275,3,39.53587,-122.327377,59.34,0.133,285.5,8,2,1.8,0,0.0,-1,0.0,,0.0,0
12166,1469911730418,,,,,,,-0.0,0.82,0.97,-18.9,-1.1,-0.1,4260,3387,,,,,,,,,,,,,,,,,
12186,1469911730438,,,,,,,0.04,0.86,1.0,-18.8,-0.7,-0.5,4400,3387,,,,,,,,,,,,,,,,,
12206,1469911730458,,,,,,,0.07,0.87,0.93,-18.7,-0.4,-0.5,4220,3449,,,,,,,,,,,,,,,,,
12226,1469911730478,,,,,,,0.1,0.86,0.95,-18.6,-1.2,-1.1,4120,3403,,,,,,,,,,,,,,,,,
12246,1469911730497,1,237.0,192.1,81,193.4,,0.06,0.83,0.96,-18.7,-1.3,-0.8,4280,3372,1.329,3,39.535877,-122.327339,59.28,0.135,285.2,8,2,1.8,0,0.0,-1,0.0,0.0,0.0,0
12266,1469911730517,,,,,,,0.0,0.83,0.96,-18.6,-1.9,-1.0,4380,3403,,,,,,,,,,,,,,,,,
12286,1469911730537,,,,,,,-0.03,0.77,1.04,-18.5,-1.8,-1.0,4300,3418,,,,,,,,,,,,,,,,,
12306,1469911730557,,,,,,,-0.01,0.74,1.08,-18.2,-1.9,-0.6,4340,3387,,,,,,,,,,,,,,,,,
12326,1469911730577,,,,,,,0.03,0.76,1.11,-17.8,-2.7,-0.7,4400,3387,,,,,,,,,,,,,,,,,
12346,1469911730597,,,,69,,,0.03,0.73,1.11,-18.0,-2.3,-0.5,4200,3403,1.287,3,39.535885,-122.327309,59.57,0.137,284.9,8,2,1.8,0,0.0,-1,0.0,,0.0,0
12366,1469911730617,,,,,,,0.06,0.73,1.09,-17.7,-2.1,-0.8,4260,3403,,,,,,,,,,,,,,,,,
12386,1469911730637,,,,,,,0.03,0.81,1.02,-17.9,-1.5,-0.9,4320,3403,,,,,,,,,,,,,,,,,
12406,1469911730657,,,,,,,0.03,0.8,1.0,-18.1,-1.4,-1.1,4320,3387,,,,,,,,,,,,,,,,,
12426,1469911730677,,,,,,,0.01,0.81,1.05,-18.3,-0.2,-0.8,4340,3372,,,,,,,,,,,,,,,,,
12446,1469911730698,0,237.3,192.7,40,193.5,,-0.02,0.77,1.12,-18.1,-0.8,-0.6,4280,3372,1.287,3,39.535896,-122.327286,59.67,0.138,284.7,8,2,1.8,0,0.0,-1,0.0,0.0,0.0,0
12466,1469911730718,,,,,,,0.01,0.76,1.18,-18.1,-0.8,-0.8,4340,3372,,,,,,,,,,,,,,,,,
12486,1469911730738,,,,,,,0.04,0.83,1.17,-18.4,-1.2,-0.8,4160,3358,,,,,,,,,,,,,,,,,
12506,1469911730758,,,,,,,0.09,0.79,1.19,-18.2,-1.2,-1.0,4340,3372,,,,,,,,,,,,,,,,,
12526,1469911730778,,,,,,,0.08,0.83,1.11,-18.4,-0.5,-1.2,4260,3387,,,,,,,,,,,,,,,,,
12546,1469911730899,,,,47,,,0.09,0.89,1.05,-18.6,-0.5,-1.2,4320,3403,1.223,3,39.535915,-122.327217,59.31,0.142,284.2,8,2,1.8,0,0.0,-1,0.0,,0.0,0
12566,1469911730919,,,,,,,0.07,0.9,1.05,-19.0,0.5,-0.9,4320,3387,,,,,,,,,,,,,,,,,
12586,1469911730939,,,,,,,0.05,0.89,1.13,-19.5,0.8,-0.9,4300,3358,,,,,,,,,,,,,,,,,
12606,1469911730959,,,,,,,0.08,0.91,1.11,-19.4,0.6,-1.1,4320,3343,,,,,,,,,,,,,,,,,
12626,1469911730979,,,,,,,0.06,0.87,1.14,-19.6,0.2,-1.0,4340,3343,,,,,,,,,,,,,,,,,
12646,1469911730999,0,236.8,192.8,41,193.9,,0.07,0.88,1.18,-19.7,0.8,-1.1,4160,3358,1.286,3,39.535915,-122.327217,59.31,0.142,284.2,8,2,1.8,0,0.0,-1,0.0,0.0,0.0,0
12666,1469911731019,,,,,,,0.08,0.91,1.08,-19.8,0.3,-0.8,4300,3343,,,,,,,,,,,,,,,,,
12686,1469911731039,,,,,,,0.09,0.95,0.99,-20.0,-0.7,-0.7,4200,3358,,,,,,,,,,,,,,,,,
12706,1469911731059,,,,,,,0.09,0.87,0.94,-20.1,-0.6,-0.2,4320,3387,,,,,,,,,,,,,,,,,
12726,1469911731079,,,,,,,0.1,0.86,0.95,-20.2,0.0,0.0,4300,3358,,,,,,,,,,,,,,,,,
12746,1469911731000,,,,60,,,0.12,0.89,1.01,-20.3,-0.3,-0.1,4280,3358,1.298,3,39.535927,-122.327194,59.19,0.144,284.0,8,2,1.8,0,0.0,-1,0.0,,0.0,0
12766,1469911731020,,,,,,,0.09,0.85,1.0,-20.4,-0.9,0.3,4260,3372,,,,,,,,,,,,,,,,,
12786,1469911731040,,,,,,,0.12,0.84,1.07,-20.3,-0.9,0.6,4220,3358,,,,,,,,,,,,,,,,,
12806,1469911731060,,,,,,,0.11,0.83,1.03,-20.4,-0.7,0.9,4300,3358,,,,,,,,,,,,,,,,,
12826,1469911731080,,,,,,,0.13,0.82,0.98,-20.4,-0.4,0.7,4200,3329,,,,,,,,,,,,,,,,,
12846,1469911731100,0,236.7,191.9,41,193.2,,0.12,0.83,0.95,-20.2,-0.8,0.8,4220,3315,1.286,3,39.535938,-122.327171,59.06,0.145,283.7,8,2,1.8,0,0.0,-1,0.0,0.0,0.0,0
12866,1469911731120,,,,,,,0.1,0.77,0.95,-20.1,-1.6,0.9,4060,3315,,,,,,,,,,,,,,,,,
12886,1469911731140,,,,,,,0.08,0.86,0.95,-20.3,-0.9,1.0,4180,3230,,,,,,,,,,,,,,,,,
12906,1469911731160,,,,,,,0.09,0.91,0.9,-20.4,-0.7,1.2,4060,3230,,,,,,,,,,,,,,,,,
12926,1469911731180,,,,,,,0.12,0.92,0.86,-20.5,-0.8,1.1,4040,3244,,,,,,,,,,,,,,,,,
12946,1469911731200,,,,40,,,0.11,0.89,0.9,-20.2,-0.2,0.9,4140,3244,1.284,3,39.53595,-122.327141,58.71,0.147,283.5,8,2,1.8,0,0.0,-1,0.0,,0.0,0
12966,1469911731220,,,,,,,0.12,0.87,0.98,-20.1,-1.1,0.4,4200,3300,,,,,,,,,,,,,,,,,
12986,1469911731240,,,,,,,0.12,0.87,1.04,-20.0,-1.8,-0.1,4220,3315,,,,,,,,,,,,,,,,,
13006,1469911731260,,,,,,,0.07,0.9,1.06,-20.3,-1.8,0.1,4160,3286,,,,,,,,,,,,,,,,,
13026,1469911731280,,,,,,,0.09,0.97,1.01,-20.5,-1.5,0.2,4240,3315,,,,,,,,,,,,,,,,,
13046,1469911731300,0,237.2,192.2,54,193.2,14.02,0.12,0.9,1.02,-20.4,-0.6,-0.2,4220,3315,1.246,3,39.535961,-122.327118,58.87,0.149,283.4,8,2,1.8,0,0.0,-1,0.0,0.0,0.0,0
13066,1469911731320,,,,,,,0.11,0.91,1.03,-20.2,-0.6,-0.4,4200,3329,,,,,,,,,,,,,,,,,
13086,1469911731340,,,,,,,0.12,0.91,1.02,-20.0,-1.1,-0.2,4240,3343,,,,,,,,,,,,,,,,,
13106,1469911731360,,,,,,,0.1,0.92,0.94,-20.4,0.4,-0.0,4180,3329,,,,,,,,,,,,,,,,,
13126,1469911731380,,,,,,,0.1,0.91,0.91,-20.4,1.3,-0.4,4100,3433,,,,,,,,,,,,,,,,,
13146,1469911731398,,,,63,,,0.08,0.91,0.93,-20.4,1.7,-0.3,4300,3403,1.244,3,39.535976,-122.327095,58.6,0.15,283.1,8,2,1.8,0,0.0,-1,0.0,,0.0,0
13166,1469911731418,,,,,,,0.04,0.9,0.99,-20.5,1.3,-0.1,4400,3418,,,,,,,,,,,,,,,,,
13186,1469911731438,,,,,,,0.01,0.89,0.99,-20.3,0.3,-0.1,4480,3433,,,,,,,,,,,,,,,,,
13206,1469911731458,,,,,,,0.0,0.8,1.07,-20.0,0.4,0.1,4160,3358,,,,,,,,,,,,,,,,,
13226,1469911731478,,,,,,,0.01,0.82,1.12,-19.6,2.2,-0.2,4220,3343,,,,,,,,,,,,,,,,,
13246,1469911731497,0,237.6,192.8,58,193.7,,0.01,0.86,1.11,-19.4,2.9,-0.4,4160,3358,1.287,3,39.535988,-122.327064,58.47,0.152,282.9,8,2,1.8,0,0.0,-1,0.0,0.0,0.0,0
13266,1469911731517,,,,,,,0.02,0.75,1.09,-19.2,2.8,-0.5,4140,3343,,,,,,,,,,,,,,,,,
13286,1469911731537,,,,,,,-0.03,0.72,1.06,-19.1,2.5,-0.6,4220,3315,,,,,,,,,,,,,,,,,
13306,1469911731557,,,,,,,-0.06,0.69,1.07,-18.8,2.5,-0.3,4300,3329,,,,,,,,,,,,,,,,,
13326,1469911731577,,,,,,,-0.05,0.75,1.12,-18.5,2.0,-0.4,4400,3358,,,,,,,,,,,,,,,,,
13346,1469911731697,,,,85,,,-0.07,0.74,1.15,-18.3,0.1,-0.5,4240,3343,1.255,3,39.536015,-122.327019,58.24,0.155,282.6,8,2,1.8,0,0.0,-1,0.0,,0.0,0
13366,1469911731717,,,,,,,-0.1,0.73,1.16,-17.9,-0.0,-0.5,4280,3343,,,,,,,,,,,,,,,,,
13386,1469911731737,,,,,,,-0.08,0.78,1.17,-18.0,0.1,-0.3,4200,3358,,,,,,,,,,,,,,,,,
13406,1469911731757,,,,,,,-0.04,0.75,1.19,-18.0,-0.5,-0.4,4180,3387,,,,,,,,,,,,,,,,,
13426,1469911731777,,,,,,,-0.05,0.71,1.12,-18.2,-0.9,-0.3,4340,3358,,,,,,,,,,,,,,,,,
13446,1469911731797,0,236.7,191.7,35,192.8,,-0.07,0.75,1.03,-18.0,-1.7,-0.3,4400,3343,1.25,3,39.536015,-122.327019,58.24,0.155,282.6,8,2,1.8,0,0.0,-1,0.0,0.0,0.0,0
13466,1469911731817,,,,,,,-0.09,0.75,1.04,-17.6,-1.7,-0.5,4360,3372,,,,,,,,,,,,,,,,,
13486,1469911731837,,,,,,,-0.1,0.79,1.04,-17.6,-0.9,-0.5,4240,3343,,,,,,,,,,,,,,,,,
13506,1469911731857,,,,,,,-0.13,0.72,1.05,-17.6,-0.4,-0.8,4260,3358,,,,,,,,,,,,,,,,,
13526,1469911731877,,,,,,,-0.12,0.76,1.05,-18.0,0.7,-0.5,4080,3343,,,,,,,,,,,,,,,,,
13546,1469911731796,,,,80,,,-0.06,0.77,1.04,-18.0,0.3,-0.8,4100,3343,1.256,3,39.536034,-122.327003,58.3,0.157,282.5,8,2,1.8,0,0.0,-1,0.0,,0.0,0
13566,1469911731816,,,,,,,-0.03,0.74,1.05,-18.0,-0.4,-1.1,4300,3343,,,,,,,,,,,,,,,,,
13586,1469911731836,,,,,,,-0.02,0.73,0.98,-18.1,-0.4,-1.0,4400,3387,,,,,,,,,,,,,,,,,
13606,1469911731856,,,,,,,0.03,0.76,0.96,-17.6,-1.4,-1.2,4340,3372,,,,,,,,,,,,,,,,,
13626,1469911731876,,,,,,,0.02,0.74,0.98,-17.7,-1.7,-1.1,4200,3343,,,,,,,,,,,,,,,,,
13646,1469911731894,0,237.5,191.8,46,193.0,,-0.01,0.72,1.01,-18.0,-1.2,-1.4,4440,3343,1.255,3,39.536049,-122.326981,58.53,0.158,282.4,8,2,1.8,0,0.0,-1,0.0,0.0,0.0,0
13666,1469911731914,,,,,,,-0.06,0.73,0.97,-18.4,-0.5,-1.3,4240,3358,,,,,,,,,,,,,,,,,
13686,1469911731934,,,,,,,-0.08,0.73,1.01,-18.5,-0.6,-0.9,4160,3372,,,,,,,,,,,,,,,,,
13706,1469911731954,,,,,,,-0.09,0.72,1.03,-18.8,-1.1,-0.7,4260,3343,,,,,,,,,,,,,,,,,
13726,1469911731974,,,,,,,-0.07,0.67,1.03,-19.0,-1.2,-0.6,4380,3329,,,,,,,,,,,,,,,,,
13746,1469911731994,,,,54,,,-0.06,0.68,1.01,-18.6,0.0,-0.9,4340,3372,1.21,3,39.536064,-122.32695,58.32,0.16,282.2,8,2,1.8,0,0.0,-1,0.0,,0.0,0
13766,1469911732014,,,,,,,-0.01,0.69,0.93,-18.5,-0.3,-0.7,4200,3387,,,,,,,,,,,,,,,,,
13786,1469911732034,,,,,,,0.06,0.68,0.89,-18.3,-1.5,-0.9,4300,3343,,,,,,,,,,,,,,,,,
13806,1469911732054,,,,,,,0.07,0.73,0.87,-18.6,-0.3,-0.6,4240,3315,,,,,,,,,,,,,,,,,
13826,1469911732074,,,,,,,0.05,0.73,0.9,-18.7,-0.2,-0.6,4220,3343,,,,,,,,,,,,,,,,,
13846,1469911732100,0,237.2,192.2,78,193.3,,0.02,0.72,0.92,-18.7,-0.5,-0.9,4240,3358,1.311,3,39.536079,-122.326942,58.37,0.161,282.1,8,2,1.8,0,0.0,-1,0.0,0.0,0.0,0
13866,1469911732120,,,,,,,-0.03,0.72,0.98,-18.8,-1.2,-0.6,4300,3329,,,,,,,,,,,,,,,,,
13886,1469911732140,,,,,,,-0.02,0.71,1.0,-18.7,-0.7,-0.7,4200,3315,,,,,,,,,,,,,,,,,
13906,1469911732160,,,,,,,-0.02,0.8,0.95,-18.8,0.4,-0.6,4200,3329,,,,,,,,,,,,,,,,,
13926,1469911732180,,,,,,,0.04,0.8,0.93,-18.8,0.6,-0.7,4220,3343,,,,,,,,,,,,,,,,,
13946,1469911732200,,,,68,,,0.09,0.77,0.89,-18.9,0.8,-0.6,4180,3343,1.292,3,39.536098,-122.326912,58.53,0.163,281.9,8,2,1.8,0,0.0,-1,0.0,,0.0,0
13966,1469911732220,,,,,,,0.06,0.73,0.92,-19.0,1.3,-0.2,4240,3358,,,,,,,,,,,,,,,,,
13986,1469911732240,,,,,,,0.09,0.72,0.99,-18.9,1.9,-0.1,4180,3329,,,,,,,,,,,,,,,,,
14006,1469911732260,,,,,,,0.06,0.75,0.96,-18.7,1.1,-0.1,4240,3315,,,,,,,,,,,,,,,,,
14026,1469911732280,,,,,,,0.09,0.75,1.01,-18.5,-0.1,-0.1,4240,3300,,,,,,,,,,,,,,,,,
14046,1469911732300,1,237.5,192.3,86,193.4,13.86,0.06,0.76,1.1,-18.9,-0.1,-0.3,4220,3286,1.297,3,39.536118,-122.326889,58.49,0.165,281.7,8,2,1.8,0,0.0,-1,0.0,0.0,0.0,0
14066,1469911732320,,,,,,,0.06,0.77,1.07,-19.2,0.2,-0.3,4240,3286,,,,,,,,,,,,,,,,,
14086,1469911732340,,,,,,,0.07,0.82,1.08,-19.2,0.7,-0.5,4220,3315,,,,,,,,,,,,,,,,,
14106,1469911732360,,,,,,,0.1,0.89,0.98,-19.3,0.7,-0.3,4220,3300,,,,,,,,,,,,,,,,,
14126,1469911732380,,,,,,,0.12,0.85,0.93,-19.5,0.4,-0.0,4200,3286,,,,,,,,,,,,,,,,,
14146,1469911732499,,,,43,,,0.09,0.83,0.92,-19.7,1.0,0.1,4240,3272,1.248,3,39.536156,-122.326851,58.64,0.168,281.5,8,2,1.8,0,0.0,-1,0.0,,0.0,0
14166,1469911732519,,,,,,,0.1,0.77,0.94,-19.8,1.4,0.2,4180,3300,,,,,,,,,,,,,,,,,
14186,1469911732539,,,,,,,0.12,0.82,1.01,-19.9,2.7,0.2,4220,3286,,,,,,,,,,,,,,,,,
14206,1469911732559,,,,,,,0.1,0.88,1.04,-19.8,2.3,0.5,4240,3272,,,,,,,,,,,,,,,,,
14226,1469911732579,,,,,,,0.06,0.78,1.04,-19.6,1.7,0.4,4140,3300,,,,,,,,,,,,,,,,,
14246,1469911732599,0,237.1,191.8,87,192.8,,0.04,0.75,1.06,-19.7,1.2,0.3,4180,3300,1.265,3,39.536156,-122.326851,58.64,0.168,281.5,8,2,1.8,0,0.0,-1,0.0,0.0,0.0,0
14266,1469911732619,,,,,,,0.02,0.7,1.08,-19.6,0.4,0.2,4240,3300,,,,,,,,,,,,,,,,,
14286,1469911732639,,,,,,,0.06,0.77,1.09,-19.6,-0.1,0.2,4180,3300,,,,,,,,,,,,,,,,,
14306,1469911732659,,,,,,,0.07,0.87,1.05,-19.7,0.6,0.2,4220,3272,,,,,,,,,,,,,,,,,
14326,1469911732679,,,,,,,0.09,0.82,1.01,-19.8,0.3,0.4,4200,3286,,,,,,,,,,,,,,,,,
14346,1469911732600,,,,60,,,0.07,0.84,1.03,-20.2,1.0,0.5,4100,3286,1.291,3,39.536171,-122.326836,58.41,0.17,281.5,8,2,1.8,0,0.0,-1,0.0,,0.0,0
14366,1469911732620,,,,,,,0.11,0.81,1.01,-20.3,1.2,0.4,4200,3300,,,,,,,,,,,,,,,,,
14386,1469911732640,,,,,,,0.14,0.78,0.99,-20.3,1.6,0.2,4220,3300,,,,,,,,,,,,,,,,,
14406,1469911732660,,,,,,,0.14,0.78,0.95,-20.3,1.1,0.5,4200,3286,,,,,,,,,,,,,,,,,
14426,1469911732680,,,,,,,0.14,0.76,0.96,-20.1,-0.1,0.6,4160,3300,,,,,,,,,,,,,,,,,
14446,1469911732700,0,236.5,191.2,44,192.4,,0.08,0.71,0.92,-20.0,-1.5,0.6,4240,3286,1.273,3,39.53619,-122.326813,58.14,0.172,281.4,8,2,1.8,0,0.0,-1,0.0,0.0,0.0,0
14466,1469911732720,,,,,,,0.05,0.73,0.94,-19.7,-1.6,0.3,4200,3286,,,,,,,,,,,,,,,,,
14486,1469911732740,,,,,,,0.07,0.72,0.99,-19.6,-0.9,-0.2,4080,3286,,,,,,,,,,,,,,,,,
14506,1469911732760,,,,,,,0.1,0.77,0.95,-19.8,-0.3,-0.0,4120,3286,,,,,,,,,,,,,,,,,
14526,1469911732780,,,,,,,0.14,0.84,0.91,-19.9,-1.1,-0.2,4240,3300,,,,,,,,,,,,,,,,,
14546,1469911732800,,,,81,,,0.14,0.86,0.91,-19.7,-1.2,-0.1,4260,3300,1.278,3,39.536209,-122.326798,58.0,0.173,281.5,8,2,1.8,0,0.0,-1,0.0,,0.0,0
14566,1469911732820,,,,,,,0.13,0.86,0.93,-19.6,-1.5,-0.1,4180,3286,,,,,,,,,,,,,,,,,
14586,1469911732840,,,,,,,0.12,0.84,0.96,-19.7,-1.0,-0.3,4180,3272,,,,,,,,,,,,,,,,,
14606,1469911732860,,,,,,,0.11,0.86,0.91,-20.0,-0.2,-0.1,4160,3286,,,,,,,,,,,,,,,,,
14626,1469911732880,,,,,,,0.13,0.82,0.89,-20.2,-1.1,0.0,4180,3272,,,,,,,,,,,,,,,,,
14646,1469911732894,0,236.8,191.8,42,193.2,,0.11,0.78,0.92,-20.0,-1.2,0.0,4180,3286,1.26,3,39.536228,-122.326782,57.86,0.175,281.5,8,2,1.8,0,0.0,-1,0.0,0.0,0.0,0
14666,1469911732914,,,,,,,0.08,0.75,0.98,-19.8,-1.5,0.3,4200,3272,,,,,,,,,,,,,,,,,
14686,1469911732934,,,,,,,0.06,0.77,1.04,-19.6,-1.6,-0.1,4140,3258,,,,,,,,,,,,,,,,,
14706,1469911732954,,,,,,,0.02,0.73,1.04,-19.8,-0.6,0.2,4200,3244,,,,,,,,,,,,,,,,,
14726,1469911732974,,,,,,,0.06,0.75,1.05,-19.6,-1.0,0.2,4140,3244,,,,,,,,,,,,,,,,,
14746,1469911733000,,,,70,,,0.05,0.76,1.03,-18.9,-1.0,0.0,4120,3258,1.284,3,39.536251,-122.326775,57.57,0.176,281.4,8,2,1.8,0,0.0,-1,0.0,,0.0,0
14766,1469911733020,,,,,,,0.06,0.77,0.97,-18.6,-2.0,-0.1,4180,3258,,,,,,,,,,,,,,,,,
14786,1469911733040,,,,,,,0.11,0.77,0.9,-18.4,-2.4,-0.5,4060,3272,,,,,,,,,,,,,,,,,
14806,1469911733060,,,,,,,0.1,0.72,0.82,-18.2,-1.7,-0.4,4060,3286,,,,,,,,,,,,,,,,,
14826,1469911733080,,,,,,,0.1,0.68,0.85,-18.0,-1.5,-0.3,4080,3272,,,,,,,,,,,,,,,,,
14846,1469911733100,1,237.3,192.4,75,193.2,,0.1,0.74,0.88,-17.5,-1.2,-0.7,4200,3272,1.276,3,39.53627,-122.326759,57.35,0.178,281.3,8,2,1.8,0,0.0,-1,0.0,0.0,0.0,0
14866,1469911733120,,,,,,,0.1,0.72,0.89,-17.4,-0.7,-0.8,4120,3218,,,,,,,,,,,,,,,,,
14886,1469911733140,,,,,,,0.09,0.74,0.88,-17.2,-1.3,-1.0,4160,3258,,,,,,,,,,,,,,,,,
14906,1469911733160,,,,,,,0.05,0.7,0.89,-17.3,-1.0,-1.2,4140,3272,,,,,,,,,,,,,,,,,
14926,1469911733180,,,,,,,0.02,0.72,0.91,-17.6,-1.3,-0.9,4160,3258,,,,,,,,,,,,,,,,,
14946,1469911733299,,,,48,,,0.03,0.72,0.94,-17.6,-0.7,-1.2,4180,3230,1.265,3,39.536312,-122.326721,56.94,0.181,281.2,8,2,1.8,0,0.0,-1,0.0,,0.0,0
14966,1469911733319,,,,,,,0.03,0.76,0.94,-17.6,-1.1,-1.2,4100,3230,,,,,,,,,,,,,,,,,
14986,1469911733339,,,,,,,0.07,0.77,0.98,-17.6,-0.9,-1.3,4100,3230,,,,,,,,,,,,,,,,,
15006,1469911733359,,,,,,,0.07,0.78,0.99,-17.3,0.2,-1.6,4080,3244,,,,,,,,,,,,,,,,,
15026,1469911733379,,,,,,,0.09,0.83,0.9,-17.1,-0.3,-1.3,4060,3272,,,,,,,,,,,,,,,,,
15046,1469911733399,0,237.6,192.8,44,193.9,13.86,0.12,0.84,0.9,-17.1,-0.2,-1.2,4160,3272,1.294,3,39.536312,-122.326721,56.94,0.181,281.2,8,2,1.8,0,0.0,-1,0.0,0.0,0.0,0
15066,1469911733419,,,,,,,0.08,0.8,0.92,-16.9,0.5,-1.3,4120,3272,,,,,,,,,,,,,,,,,
15086,1469911733439,,,,,,,0.06,0.8,0.96,-16.7,1.0,-1.2,4140,3244,,,,,,,,,,,,,,,,,
15106,1469911733459,,,,,,,0.07,0.8,1.0,-16.4,2.1,-1.6,4100,3230,,,,,,,,,,,,,,,,,
15126,1469911733479,,,,,,,0.04,0.83,0.95,-16.5,2.6,-1.3,4000,3230,,,,,,,,,,,,,,,,,
15146,1469911733400,,,,44,,,0.07,0.78,0.95,-16.4,2.9,-1.3,4120,3230,1.276,3,39.536331,-122.326706,56.92,0.183,281.0,8,2,1.8,0,0.0,-1,0.0,,0.0,0
15166,1469911733420,,,,,,,0.09,0.75,0.97,-16.2,2.9,-1.5,4180,3272,,,,,,,,,,,,,,,,,
15186,1469911733440,,,,,,,0.08,0.79,1.03,-16.3,2.5,-1.2,4140,3244,,,,,,,,,,,,,,,,,
15206,1469911733460,,,,,,,0.08,0.79,1.06,-16.3,1.5,-1.4,4140,3244,,,,,,,,,,,,,,,,,
15226,1469911733480,,,,,,,0.03,0.74,1.02,-16.4,2.1,-1.3,4180,3230,,,,,,,,,,,,,,,,,
15246,1469911733499,1,237.5,192.5,48,193.3,,0.07,0.71,0.97,-16.5,2.4,-1.2,4140,3218,1.265,3,39.536354,-122.326706,56.83,0.185,280.9,8,2,1.8,0,0.0,-1,0.0,0.0,0.0,0
15266,1469911733519,,,,,,,0.09,0.69,0.94,-16.3,2.4,-1.2,4160,3230,,,,,,,,,,,,,,,,,
15286,1469911733539,,,,,,,0.08,0.73,0.91,-16.4,2.2,-1.3,4160,3272,,,,,,,,,,,,,,,,,
15306,1469911733559,,,,,,,0.13,0.75,0.92,-16.5,1.2,-0.8,4060,3244,,,,,,,,,,,,,,,,,
15326,1469911733579,,,,,,,0.15,0.79,0.93,-16.5,1.3,-0.7,4120,3258,,,,,,,,,,,,,,,,,
15346,1469911733599,,,,57,,,0.16,0.79,0.96,-16.7,0.3,-0.2,4140,3230,1.276,3,39.536373,-122.326698,56.79,0.186,280.8,8,2,1.8,0,0.0,-1,0.0,,0.0,0
15366,1469911733619,,,,,,,0.15,0.77,0.96,-16.8,0.2,-0.1,4120,3244,,,,,,,,,,,,,,,,,
15386,1469911733639,,,,,,,0.12,0.72,0.99,-17.0,0.7,0.3,4140,3230,,,,,,,,,,,,,,,,,
15406,1469911733659,,,,,,,0.12,0.62,1.04,-17.1,1.6,0.5,4100,3230,,,,,,,,,,,,,,,,,
15426,1469911733679,,,,,,,0.13,0.62,1.1,-17.2,1.6,0.6,4200,3218,,,,,,,,,,,,,,,,,
15446,1469911733699,0,237.8,192.8,57,193.8,,0.13,0.69,1.06,-17.4,0.9,0.9,4060,3230,1.269,3,39.536392,-122.326683,56.81,0.188,280.8,8,2,1.8,0,0.0,-1,0.0,0.0,0.0,0
15466,1469911733719,,,,,,,0.16,0.72,1.0,-17.4,0.5,1.0,4080,3230,,,,,,,,,,,,,,,,,
15486,1469911733739,,,,,,,0.16,0.75,1.04,-17.4,1.4,0.9,4180,3230,,,,,,,,,,,,,,,,,
15506,1469911733759,,,,,,,0.15,0.79,1.07,-17.8,1.8,1.0,4160,3218,,,,,,,,,,,,,,,,,
15526,1469911733779,,,,,,,0.15,0.79,1.03,-18.1,2.3,0.9,4140,3230,,,,,,,,,,,,,,,,,
15546,1469911733799,,,,84,,,0.11,0.77,1.05,-18.4,2.3,1.0,4160,3258,1.27,3,39.536415,-122.326668,56.66,0.189,280.7,8,2,1.8,0,0.0,-1,0.0,,0.0,0
15566,1469911733819,,,,,,,0.1,0.75,1.01,-18.5,2.2,1.2,4120,3244,,,,,,,,,,,,,,,,,
15586,1469911733839,,,,,,,0.13,0.76,1.02,-18.6,1.6,0.9,4160,3218,,,,,,,,,,,,,,,,,
15606,1469911733859,,,,,,,0.09,0.79,1.01,-19.1,1.1,1.0,4140,3204,,,,,,,,,,,,,,,,,
15626,1469911733879,,,,,,,0.05,0.8,1.03,-19.1,0.8,0.6,4040,3204,,,,,,,,,,,,,,,,,
15646,1469911733894,0,237.0,191.7,53,192.6,,0.05,0.75,1.01,-18.6,0.3,0.4,4120,3204,1.268,3,39.536438,-122.326668,56.59,0.191,280.7,8,2,1.8,0,0.0,-1,0.0,0.0,0.0,0
15666,1469911733914,,,,,,,0.01,0.77,1.01,-18.9,-0.0,0.6,4060,3218,,,,,,,,,,,,,,,,,
15686,1469911733934,,,,,,,0.03,0.77,1.04,-19.0,-1.1,0.7,4020,3218,,,,,,,,,,,,,,,,,
15706,1469911733954,,,,,,,0.03,0.79,1.05,-18.7,-0.6,0.5,4000,3218,,,,,,,,,,,,,,,,,
15726,1469911733974,,,,,,,0.06,0.82,1.04,-18.7,-0.7,0.4,4060,3218,,,,,,,,,,,,,,,,,
15746,1469911734099,,,,74,,,0.1,0.83,0.99,-18.6,-0.7,0.2,3980,3218,1.263,3,39.536484,-122.326645,56.46,0.194,280.7,8,2,1.8,0,0.0,-1,0.0,,0.0,0
15766,1469911734119,,,,,,,0.1,0.81,1.04,-18.6,-0.0,0.4,4040,3190,,,,,,,,,,,,,,,,,
15786,1469911734139,,,,,,,0.1,0.75,1.07,-18.4,0.2,0.3,4080,3204,,,,,,,,,,,,,,,,,
15806,1469911734159,,,,,,,0.09,0.79,1.02,-18.3,1.6,-0.2,3980,3204,,,,,,,,,,,,,,,,,
15826,1469911734179,,,,,,,0.11,0.76,0.95,-18.4,1.6,-0.0,4100,3218,,,,,,,,,,,,,,,,,
15846,1469911734199,1,237.3,192.0,44,193.2,,0.12,0.71,0.97,-18.3,1.8,-0.0,4100,3218,1.28,3,39.536484,-122.326645,56.46,0.194,280.7,8,2,1.8,0,0.0,-1,0.0,0.0,0.0,0
15866,1469911734219,,,,,,,0.16,0.74,1.02,-18.1,1.8,-0.3,4060,3204,,,,,,,,,,,,,,,,,
15886,1469911734239,,,,,,,0.17,0.79,0.94,-18.2,1.4,-0.1,4040,3178,,,,,,,,,,,,,,,,,
15906,1469911734259,,,,,,,0.18,0.78,0.89,-18.2,0.8,-0.3,4060,3190,,,,,,,,,,,,,,,,,
15926,1469911734279,,,,,,,0.15,0.77,0.93,-17.5,0.5,-0.7,4140,3190,,,,,,,,,,,,,,,,,
15946,1469911734200,,,,59,,,0.13,0.81,0.99,-17.4,0.7,-0.6,4120,3190,1.298,3,39.536503,-122.326645,56.21,0.196,280.7,8,2,1.8,0,0.0,-1,0.0,,0.0,0
15966,1469911734220,,,,,,,0.14,0.75,1.02,-17.4,0.1,-0.7,4100,3190,,,,,,,,,,,,,,,,,
15986,1469911734240,,,,,,,0.07,0.76,1.04,-17.6,0.1,-0.6,4060,3218,,,,,,,,,,,,,,,,,
16006,1469911734260,,,,,,,0.04,0.75,1.13,-17.7,0.7,-0.3,4060,3190,,,,,,,,,,,,,,,,,
16026,1469911734280,,,,,,,-0.0,0.7,1.14,-17.7,1.1,-0.5,4020,3178,,,,,,,,,,,,,,,,,
16046,1469911734299,0,238.1,193.1,56,194.0,13.92,-0.01,0.72,1.15,-17.9,1.5,-0.3,3980,3164,1.28,3,39.536526,-122.326645,56.15,0.197,280.8,8,2,1.8,0,0.0,-1,0.0,0.0,0.0,0
16066,1469911734319,,,,,,,-0.03,0.72,1.14,-17.9,1.9,-0.1,3980,3164,,,,,,,,,,,,,,,,,
16086,1469911734339,,,,,,,-0.03,0.74,1.15,-17.9,1.8,-0.1,4020,3138,,,,,,,,,,,,,,,,,
16106,1469911734359,,,,,,,-0.04,0.74,1.13,-18.0,1.0,0.0,4040,3152,,,,,,,,,,,,,,,,,
16126,1469911734379,,,,,,,-0.05,0.7,1.12,-17.8,1.1,-0.0,4040,3138,,,,,,,,,,,,,,,,,
16146,1469911734400,,,,80,,,-0.03,0.72,1.13,-17.7,0.8,-0.4,3960,3126,1.265,3,39.536549,-122.32663,56.2,0.199,280.8,8,2,1.8,0,0.0,-1,0.0,,0.0,0
16166,1469911734420,,,,,,,0.01,0.7,1.02,-17.7,-0.4,-0.5,4000,3126,,,,,,,,,,,,,,,,,
16186,1469911734440,,,,,,,0.04,0.68,0.96,-17.4,-0.1,-0.4,4020,3138,,,,,,,,,,,,,,,,,
16206,1469911734460,,,,,,,0.07,0.71,0.92,-17.5,0.1,-0.3,4000,3190,,,,,,,,,,,,,,,,,
16226,1469911734480,,,,,,,0.04,0.64,0.9,-17.6,0.5,-0.4,4040,3178,,,,,,,,,,,,,,,,,
16246,1469911734500,0,237.6,192.3,60,193.2,,0.02,0.62,0.87,-17.6,0.5,-0.5,3940,3164,1.285,3,39.536572,-122.32663,56.14,0.201,280.8,8,2,1.8,0,0.0,-1,0.0,0.0,0.0,0
16266,1469911734520,,,,,,,0.01,0.62,0.89,-17.4,0.7,-0.6,4040,3190,,,,,,,,,,,,,,,,,
16286,1469911734540,,,,,,,-0.02,0.58,0.86,-17.6,0.6,-0.4,4080,3204,,,,,,,,,,,,,,,,,
16306,1469911734560,,,,,,,-0.06,0.57,0.86,-17.6,0.3,-0.3,4120,3204,,,,,,,,,,,,,,,,,
16326,1469911734580,,,,,,,-0.05,0.58,0.95,-17.6,-0.1,-0.4,4080,3190,,,,,,,,,,,,,,,,,
16346,1469911734599,,,,81,,,-0.1,0.56,1.0,-17.8,-0.4,-0.3,4060,3204,1.277,3,39.536591,-122.32663,55.85,0.202,280.9,8,2,1.8,0,0.0,-1,0.0,,0.0,0
16366,1469911734619,,,,,,,-0.09,0.57,0.91,-17.9,-1.1,-0.5,4060,3190,,,,,,,,,,,,,,,,,
16386,1469911734639,,,,,,,-0.08,0.61,0.92,-18.0,-1.7,-0.6,4080,3204,,,,,,,,,,,,,,,,,
16406,1469911734659,,,,,,,-0.07,0.64,0.93,-18.3,-1.3,-0.3,4120,3164,,,,,,,,,,,,,,,,,
16426,1469911734679,,,,,,,-0.06,0.7,0.94,-18.4,-1.2,-0.5,4100,3178,,,,,,,,,,,,,,,,,
16446,1469911734699,0,237.1,191.6,54,192.9,,-0.05,0.71,0.93,-18.3,-1.1,-0.6,4020,3164,1.28,3,39.536613,-122.326622,55.97,0.203,281.1,8,2,1.8,0,0.0,-1,0.0,0.0,0.0,0
16466,1469911734719,,,,,,,0.01,0.79,0.9,-18.3,-1.3,-1.0,4040,3138,,,,,,,,,,,,,,,,,
16486,1469911734739,,,,,,,0.04,0.84,0.95,-18.5,-0.1,-1.2,4060,3152,,,,,,,,,,,,,,,,,
16506,1469911734759,,,,,,,0.01,0.79,0.98,-18.4,-0.0,-1.0,4000,3152,,,,,,,,,,,,,,,,,
16526,1469911734779,,,,,,,0.01,0.77,0.9,-18.2,0.3,-0.9,3980,3164,,,,,,,,,,,,,,,,,
16546,1469911734899,,,,78,,,0.05,0.78,0.93,-18.0,-0.1,-1.1,4160,3204,1.256,3,39.536659,-122.326622,55.75,0.207,281.1,8,2,1.8,0,0.0,-1,0.0,,0.0,0
16566,1469911734919,,,,,,,0.04,0.8,0.95,-18.1,-0.4,-1.0,4200,3204,,,,,,,,,,,,,,,,,
16586,1469911734939,,,,,,,0.04,0.84,0.96,-18.2,-0.2,-1.0,4020,3218,,,,,,,,,,,,,,,,,
16606,1469911734959,,,,,,,0.08,0.87,0.96,-18.6,0.4,-0.8,4180,3204,,,,,,,,,,,,,,,,,
16626,1469911734979,,,,,,,0.1,0.9,1.03,-19.1,1.2,-0.5,4040,3178,,,,,,,,,,,,,,,,,
16646,1469911734999,0,237.1,191.7,52,192.9,,0.11,0.85,1.08,-19.0,1.5,-0.4,4080,3164,1.258,3,39.536659,-122.326622,55.75,0.207,281.1,8,2,1.8,0,0.0,-1,0.0,0.0,0.0,0
16666,1469911735019,,,,,,,0.13,0.9,1.08,-18.8,1.6,-0.6,4220,3152,,,,,,,,,,,,,,,,,
16686,1469911735039,,,,,,,0.13,0.85,1.07,-18.9,1.7,-0.1,4100,3164,,,,,,,,,,,,,,,,,
16706,1469911735059,,,,,,,0.11,0.76,1.12,-19.1,3.7,-0.0,3980,3178,,,,,,,,,,,,,,,,,
16726,1469911735079,,,,,,,0.07,0.71,1.1,-18.9,4.7,-0.4,4160,3178,,,,,,,,,,,,,,,,,
16746,1469911734999,,,,39,,,0.06,0.71,1.02,-19.0,3.4,0.2,4100,3178,1.288,3,39.536682,-122.326622,55.63,0.208,281.2,8,2,1.8,0,0.0,-1,0.0,,0.0,0
16766,1469911735019,,,,,,,0.04,0.69,1.04,-18.8,2.2,0.6,4000,3164,,,,,,,,,,,,,,,,,
16786,1469911735039,,,,,,,0.03,0.68,1.03,-18.5,1.8,0.5,4140,3152,,,,,,,,,,,,,,,,,
16806,1469911735059,,,,,,,0.07,0.75,0.96,-18.6,1.4,0.5,4080,3138,,,,,,,,,,,,,,,,,
16826,1469911735079,,,,,,,0.11,0.75,0.89,-18.4,2.1,0.4,3900,3126,,,,,,,,,,,,,,,,,
16846,1469911735100,1,238.2,192.8,37,193.9,,0.11,0.75,0.93,-18.1,3.7,-0.1,4020,3138,1.29,3,39.536705,-122.326622,55.56,0.21,281.3,8,2,1.8,0,0.0,-1,0.0,0.0,0.0,0
16866,1469911735120,,,,,,,0.14,0.8,0.9,-18.1,4.3,-0.1,4080,3152,,,,,,,,,,,,,,,,,
16886,1469911735140,,,,,,,0.15,0.75,0.85,-18.1,4.9,-0.1,4060,3164,,,,,,,,,,,,,,,,,
16906,1469911735160,,,,,,,0.14,0.74,0.9,-17.9,5.0,-0.3,4020,3178,,,,,,,,,,,,,,,,,
16926,1469911735180,,,,,,,0.1,0.78,0.94,-17.9,4.4,-0.4,4000,3190,,,,,,,,,,,,,,,,,
16946,1469911735200,,,,50,,,0.1,0.77,0.94,-18.1,3.2,-0.3,3980,3164,1.271,3,39.536728,-122.32663,55.47,0.211,281.4,8,2,1.8,0,0.0,-1,0.0,,0.0,0
16966,1469911735220,,,,,,,0.08,0.75,0.97,-18.1,3.2,-0.4,4000,3152,,,,,,,,,,,,,,,,,
16986,1469911735240,,,,,,,0.09,0.78,0.92,-18.0,2.7,-0.3,4000,3138,,,,,,,,,,,,,,,,,
17006,1469911735260,,,,,,,0.09,0.74,0.88,-17.9,2.2,-0.4,3960,3126,,,,,,,,,,,,,,,,,
17026,1469911735280,,,,,,,0.09,0.73,0.94,-18.0,2.1,-0.7,4060,3138,,,,,,,,,,,,,,,,,
17046,1469911735299,0,236.8,191.8,64,192.4,13.83,0.09,0.8,0.93,-18.1,2.4,-0.7,4080,3138,1.269,3,39.536751,-122.32663,55.32,0.213,281.6,8,2,1.8,0,0.0,-1,0.0,0.0,0.0,0
17066,1469911735319,,,,,,,0.08,0.77,0.89,-18.4,2.6,-0.5,4040,3152,,,,,,,,,,,,,,,,,
17086,1469911735339,,,,,,,0.04,0.78,0.94,-18.7,3.2,-0.5,4020,3152,,,,,,,,,,,,,,,,,
17106,1469911735359,,,,,,,0.0,0.83,0.98,-18.9,3.4,-0.4,4000,3164,,,,,,,,,,,,,,,,,
17126,1469911735379,,,,,,,-0.0,0.84,0.95,-19.0,2.7,-0.5,4020,3152,,,,,,,,,,,,,,,,,
17146,1469911735399,,,,76,,,-0.07,0.79,1.01,-19.1,2.0,-0.3,4060,3164,1.282,3,39.53677,-122.32663,55.2,0.214,281.7,8,2,1.8,0,0.0,-1,0.0,,0.0,0
17166,1469911735419,,,,,,,-0.07,0.81,1.08,-19.2,0.6,-0.4,4060,3138,,,,,,,,,,,,,,,,,
17186,1469911735439,,,,,,,-0.03,0.84,1.02,-19.1,0.2,-0.8,4000,3152,,,,,,,,,,,,,,,,,
17206,1469911735459,,,,,,,-0.04,0.81,1.0,-18.9,-0.0,-1.1,3980,3138,,,,,,,,,,,,,,,,,
17226,1469911735479,,,,,,,-0.04,0.85,1.02,-18.8,-0.3,-1.1,4000,3126,,,,,,,,,,,,,,,,,
17246,1469911735500,0,236.0,190.4,54,191.8,,-0.01,0.84,0.99,-18.6,-0.1,-1.4,3980,3126,1.245,3,39.536793,-122.32663,55.07,0.216,281.8,8,2,1.8,0,0.0,-1,0.0,0.0,0.0,0
17266,1469911735520,,,,,,,-0.02,0.83,1.01,-18.5,1.0,-1.6,4060,3126,,,,,,,,,,,,,,,,,
17286,1469911735540,,,,,,,-0.01,0.82,1.04,-18.7,1.7,-1.4,4080,3152,,,,,,,,,,,,,,,,,
17306,1469911735560,,,,,,,-0.01,0.83,0.99,-18.7,1.3,-1.4,4020,3138,,,,,,,,,,,,,,,,,
17326,1469911735580,,,,,,,-0.01,0.79,0.97,-18.6,1.1,-1.5,4020,3152,,,,,,,,,,,,,,,,,
