"Interval"|"ms"|0|0|1,"Utc"|"ms"|0|0|1,"FuelLevel"|"F"|0|100|5,"OilTemp"|"F"|0.0|300.0|5,"Coolant"|"F"|0.0|300.0|5,"OilPress"|"PSI"|0|150|10,"EngineTemp"|"F"|0.0|300.0|5,"Battery"|"Volts"|0.0|20.0|1,"AccelX"|"G"|-3.0|3.0|50,"AccelY"|"G"|-3.0|3.0|50,"AccelZ"|"G"|-3.0|3.0|50,"Yaw"|"Deg/Sec"|-300.0|300.0|50,"Pitch"|"Deg/Sec"|-300.0|300.0|50,"Roll"|"Deg/Sec"|-300.0|300.0|50,"RPM"|""|0|10000|50,"Driveshaft"|"RPM"|0|5000|50,"GearRatio"|""|-5.0|5.0|10,"Gear"|""|-1|5|10,"Latitude"|"Degrees"|-180.0|180.0|10,"Longitude"|"Degrees"|-180.0|180.0|10,"Speed"|"MPH"|0.0|150.0|10,"Distance"|"Miles"|0.0|0.0|10,"Altitude"|"Feet"|0.0|4000.0|10,"GPSSats"|""|0|20|10,"GPSQual"|""|0|5|10,"GPSDOP"|""|0.0|20.0|10,"LapCount"|""|0|0|10,"LapTime"|"Min"|0.0|0.0|10,"Sector"|""|0|0|10,"SectorTime"|"Min"|0.0|0.0|10,"PredTime"|"Min"|0.0|0.0|5,"ElapsedTime"|"Min"|0.0|0.0|10,"CurrentLap"|""|0|0|10
41846,1469910760547,0,210.3,189.1,0,193.8,,0.03,0.05,0.98,-2.9,0.2,-0.0,280,0,0.0,0,39.536591,-122.332138,0.0,0.0,287.5,9,3,1.5,0,0.0,-1,0.0,0.0,0.0,0
41866,1469910760567,,,,,,,0.03,0.04,0.97,-2.9,0.2,-0.1,280,0,,,,,,,,,,,,,,,,,
41886,1469910760587,,,,,,,0.03,0.05,0.97,-2.8,0.1,-0.1,380,0,,,,,,,,,,,,,,,,,
41906,1469910760508,,,,,,,0.03,0.06,0.98,-2.9,0.2,0.0,380,0,,,,,,,,,,,,,,,,,
41926,1469910760528,,,,,,,0.03,0.05,0.97,-2.8,0.1,-0.0,480,0,,,,,,,,,,,,,,,,,
41946,1469910760548,,,,2,,,0.03,0.05,0.97,-2.8,0.1,-0.2,480,0,0.0,0,39.536591,-122.332138,0.0,0.0,287.5,9,3,1.5,0,0.0,-1,0.0,,0.0,0
41966,1469910760568,,,,,,,0.03,0.05,0.98,-2.8,0.3,-0.2,560,0,,,,,,,,,,,,,,,,,
41986,1469910760588,,,,,,,0.04,0.05,0.97,-2.8,0.1,-0.3,560,0,,,,,,,,,,,,,,,,,
42006,1469910760608,,,,,,,0.04,0.05,0.98,-2.8,0.1,-0.2,500,0,,,,,,,,,,,,,,,,,
42026,1469910760628,,,,,,,0.03,0.05,0.98,-2.8,0.0,-0.3,500,0,,,,,,,,,,,,,,,,,
42046,1469910760648,0,210.6,189.3,4,193.1,11.35,0.03,0.05,0.98,-2.8,0.0,-0.3,440,0,0.0,0,39.536591,-122.332138,0.0,0.0,287.5,9,3,1.5,0,0.0,-1,0.0,0.0,0.0,0
42066,1469910760668,,,,,,,0.03,0.05,0.97,-2.8,0.1,-0.3,440,0,,,,,,,,,,,,,,,,,
42086,1469910760688,,,,,,,0.03,0.04,0.98,-2.8,0.1,-0.2,440,0,,,,,,,,,,,,,,,,,
42106,1469910760708,,,,,,,0.03,0.05,0.98,-2.8,0.1,-0.2,380,0,,,,,,,,,,,,,,,,,
42126,1469910760728,,,,,,,0.03,0.04,0.98,-2.8,0.1,-0.3,380,0,,,,,,,,,,,,,,,,,
42146,1469910760748,,,,3,,,0.03,0.05,0.98,-2.8,0.0,-0.2,380,0,0.0,0,39.536591,-122.332138,0.0,0.0,287.5,9,3,1.5,0,0.0,-1,0.0,,0.0,0
42166,1469910760768,,,,,,,0.03,0.05,0.98,-2.9,0.2,-0.0,380,0,,,,,,,,,,,,,,,,,
42186,1469910760788,,,,,,,0.03,0.03,0.98,-2.8,0.2,-0.1,460,0,,,,,,,,,,,,,,,,,
42206,1469910760808,,,,,,,0.03,0.05,0.98,-2.9,0.3,-0.0,460,0,,,,,,,,,,,,,,,,,
42226,1469910760828,,,,,,,0.04,0.06,0.99,-2.9,0.1,-0.1,600,0,,,,,,,,,,,,,,,,,
42246,1469910760848,0,210.2,188.7,7,193.9,,0.03,0.03,0.98,-2.9,0.1,-0.2,600,0,0.0,0,39.536591,-122.332138,0.0,0.0,287.5,9,3,1.5,0,0.0,-1,0.0,0.0,0.0,0
42266,1469910760868,,,,,,,0.02,0.06,0.98,-3.0,-0.0,0.1,700,0,,,,,,,,,,,,,,,,,
42286,1469910760888,,,,,,,0.03,0.07,0.98,-3.1,-0.1,0.2,800,0,,,,,,,,,,,,,,,,,
42306,1469910760902,,,,,,,0.03,0.07,0.99,-3.0,-0.3,-0.1,880,0,,,,,,,,,,,,,,,,,
42326,1469910760922,,,,,,,0.03,0.09,0.99,-2.9,-0.5,-0.4,940,0,,,,,,,,,,,,,,,,,
42346,1469910760942,,,,12,,,0.02,0.09,0.99,-2.9,-0.2,-0.5,960,0,0.0,0,39.536591,-122.332138,0.0,0.0,287.5,9,3,1.5,0,0.0,-1,0.0,,0.0,0
42366,1469910760962,,,,,,,0.02,0.07,0.98,-2.9,-0.1,-0.5,980,0,,,,,,,,,,,,,,,,,
42386,1469910760982,,,,,,,0.02,0.07,0.98,-2.8,0.2,-0.6,980,0,,,,,,,,,,,,,,,,,
42406,1469910761008,,,,,,,0.02,0.07,0.98,-2.9,0.4,-0.6,980,0,,,,,,,,,,,,,,,,,
42426,1469910761028,,,,,,,0.02,0.06,0.97,-2.8,0.6,-0.6,1020,0,,,,,,,,,,,,,,,,,
42446,1469910761048,0,212.9,191.8,13,191.2,,0.02,0.05,0.97,-2.8,0.7,-0.6,1000,0,0.0,0,39.536591,-122.332138,0.0,0.0,287.5,9,3,1.5,0,0.0,-1,0.0,0.0,0.0,0
42466,1469910761068,,,,,,,0.02,0.06,0.97,-2.8,0.9,-0.6,1040,0,,,,,,,,,,,,,,,,,
42486,1469910761088,,,,,,,0.02,0.06,0.98,-2.8,1.1,-0.6,1020,0,,,,,,,,,,,,,,,,,
42506,1469910761207,,,,,,,0.01,0.05,0.99,-2.9,1.4,-0.6,1000,0,,,,,,,,,,,,,,,,,
42526,1469910761227,,,,,,,-0.0,0.05,1.0,-2.9,1.4,-0.6,980,0,,,,,,,,,,,,,,,,,
42546,1469910761247,,,,16,,,-0.01,0.05,1.0,-2.9,1.4,-0.5,1000,0,0.0,0,39.536591,-122.332138,0.0,0.0,287.5,9,3,1.5,0,0.0,-1,0.0,,0.0,0
42566,1469910761267,,,,,,,-0.01,0.06,1.0,-3.0,1.0,-0.5,1000,0,,,,,,,,,,,,,,,,,
42586,1469910761287,,,,,,,-0.02,0.05,1.0,-3.0,0.9,-0.5,1000,0,,,,,,,,,,,,,,,,,
42606,1469910761307,,,,,,,-0.02,0.05,1.0,-3.0,0.5,-0.5,1020,0,,,,,,,,,,,,,,,,,
42626,1469910761327,,,,,,,-0.03,0.05,1.0,-3.0,0.4,-0.4,1000,0,,,,,,,,,,,,,,,,,
42646,1469910761347,0,210.6,189.1,18,193.5,,-0.02,0.05,0.99,-2.9,-0.0,-0.5,1000,0,0.0,0,39.536591,-122.332138,0.0,0.0,287.5,9,3,1.5,0,0.0,-1,0.0,0.0,0.0,0
42666,1469910761367,,,,,,,-0.01,0.05,0.99,-2.9,-0.1,-0.4,1020,0,,,,,,,,,,,,,,,,,
42686,1469910761387,,,,,,,-0.01,0.06,0.99,-2.8,-0.3,-0.4,980,0,,,,,,,,,,,,,,,,,
42706,1469910761308,,,,,,,-0.01,0.06,0.99,-2.8,-0.4,-0.4,980,0,,,,,,,,,,,,,,,,,
42726,1469910761328,,,,,,,-0.0,0.06,1.0,-2.8,-0.4,-0.3,960,0,,,,,,,,,,,,,,,,,
42746,1469910761348,,,,16,,,-0.01,0.07,1.0,-2.8,-0.4,-0.3,960,0,0.0,0,39.536591,-122.332138,0.0,0.0,287.5,9,3,1.5,0,0.0,-1,0.0,,0.0,0
42766,1469910761368,,,,,,,-0.01,0.07,1.0,-2.8,-0.4,-0.4,960,0,,,,,,,,,,,,,,,,,
42786,1469910761388,,,,,,,-0.01,0.07,0.99,-2.8,-0.4,-0.4,980,0,,,,,,,,,,,,,,,,,
42806,1469910761408,,,,,,,-0.01,0.07,0.99,-2.8,-0.4,-0.5,940,0,,,,,,,,,,,,,,,,,
42826,1469910761428,,,,,,,-0.01,0.07,0.99,-2.8,-0.5,-0.5,940,0,,,,,,,,,,,,,,,,,
42846,1469910761448,0,210.9,189.9,15,193.2,,-0.01,0.06,0.99,-2.8,-0.4,-0.5,940,0,0.0,0,39.536591,-122.332138,0.0,0.0,287.5,9,3,1.5,0,0.0,-1,0.0,0.0,0.0,0
42866,1469910761468,,,,,,,-0.01,0.05,0.98,-2.8,-0.4,-0.4,940,0,,,,,,,,,,,,,,,,,
42886,1469910761488,,,,,,,-0.0,0.05,0.99,-2.8,-0.2,-0.4,940,0,,,,,,,,,,,,,,,,,
42906,1469910761508,,,,,,,-0.0,0.04,0.99,-2.8,-0.1,-0.4,940,0,,,,,,,,,,,,,,,,,
42926,1469910761528,,,,,,,0.01,0.04,0.98,-2.8,0.1,-0.3,920,0,,,,,,,,,,,,,,,,,
42946,1469910761548,,,,16,,,0.01,0.04,0.98,-2.8,0.2,-0.3,920,0,0.0,0,39.536591,-122.332138,0.0,0.0,287.5,9,3,1.5,0,0.0,-1,0.0,,0.0,0
42966,1469910761568,,,,,,,0.01,0.05,0.98,-2.9,0.3,-0.1,920,0,,,,,,,,,,,,,,,,,
42986,1469910761588,,,,,,,0.02,0.05,0.98,-2.9,0.2,-0.0,920,0,,,,,,,,,,,,,,,,,
43006,1469910761607,,,,,,,0.02,0.05,0.99,-2.9,0.2,-0.0,920,0,,,,,,,,,,,,,,,,,
43026,1469910761627,,,,,,,0.02,0.05,0.99,-2.9,0.2,-0.0,900,0,,,,,,,,,,,,,,,,,
43046,1469910761647,0,210.8,189.5,15,192.8,13.26,0.02,0.06,0.99,-2.9,0.2,-0.1,920,0,0.0,0,39.536591,-122.332138,0.0,0.0,287.5,9,3,1.5,0,0.0,-1,0.0,0.0,0.0,0
43066,1469910761667,,,,,,,0.03,0.05,0.99,-2.9,0.2,-0.1,880,0,,,,,,,,,,,,,,,,,
43086,1469910761687,,,,,,,0.02,0.05,0.98,-2.8,0.1,-0.2,880,0,,,,,,,,,,,,,,,,,
43106,1469910761708,,,,,,,0.02,0.04,0.98,-2.8,0.1,-0.2,860,0,,,,,,,,,,,,,,,,,
43126,1469910761728,,,,,,,0.02,0.05,0.98,-2.8,0.1,-0.2,860,0,,,,,,,,,,,,,,,,,
43146,1469910761748,,,,14,,,0.02,0.05,0.97,-2.9,0.1,-0.2,840,0,0.0,0,39.536591,-122.332138,0.0,0.0,287.5,9,3,1.5,0,0.0,-1,0.0,,0.0,0
43166,1469910761768,,,,,,,0.02,0.05,0.97,-2.9,0.1,-0.2,840,0,,,,,,,,,,,,,,,,,
43186,1469910761788,,,,,,,0.02,0.05,0.97,-2.9,0.2,-0.1,840,0,,,,,,,,,,,,,,,,,
43206,1469910761808,,,,,,,0.02,0.06,0.97,-2.9,0.2,-0.1,840,0,,,,,,,,,,,,,,,,,
43226,1469910761828,,,,,,,0.03,0.06,0.98,-2.8,0.2,-0.2,820,0,,,,,,,,,,,,,,,,,
43246,1469910761848,0,211.4,190.1,13,192.9,,0.02,0.06,0.98,-2.8,0.1,-0.3,820,0,0.0,0,39.536591,-122.332138,0.0,0.0,287.5,9,3,1.5,0,0.0,-1,0.0,0.0,0.0,0
43266,1469910761868,,,,,,,0.02,0.06,0.98,-2.8,0.1,-0.3,820,0,,,,,,,,,,,,,,,,,
43286,1469910761888,,,,,,,0.02,0.05,0.97,-2.9,0.2,-0.1,820,0,,,,,,,,,,,,,,,,,
43306,1469910762001,,,,,,,0.02,0.05,0.98,-2.8,0.2,-0.1,800,0,,,,,,,,,,,,,,,,,
43326,1469910762021,,,,,,,0.02,0.05,0.98,-2.8,0.2,-0.1,800,0,,,,,,,,,,,,,,,,,
43346,1469910762041,,,,13,,,0.02,0.05,0.98,-2.8,0.2,-0.2,780,0,0.0,0,39.536591,-122.332138,0.0,0.0,287.5,9,3,1.5,0,0.0,-1,0.0,,0.0,0
43366,1469910762061,,,,,,,0.02,0.05,0.98,-2.8,0.2,-0.2,780,0,,,,,,,,,,,,,,,,,
43386,1469910762081,,,,,,,0.02,0.05,0.98,-2.9,0.2,-0.1,780,0,,,,,,,,,,,,,,,,,
43406,1469910762101,,,,,,,0.02,0.07,0.98,-2.9,0.1,-0.0,780,0,,,,,,,,,,,,,,,,,
43426,1469910762121,,,,,,,0.02,0.07,0.98,-2.9,0.1,-0.1,760,0,,,,,,,,,,,,,,,,,
43446,1469910762141,0,211.0,189.9,11,193.2,,0.02,0.07,0.98,-2.9,0.1,-0.1,760,0,0.0,0,39.536591,-122.332138,0.0,0.0,287.5,9,3,1.5,0,0.0,-1,0.0,0.0,0.0,0
43466,1469910762161,,,,,,,0.03,0.06,0.98,-2.9,0.2,-0.1,760,0,,,,,,,,,,,,,,,,,
43486,1469910762181,,,,,,,0.03,0.06,0.98,-2.9,0.1,-0.1,760,0,,,,,,,,,,,,,,,,,
43506,1469910762108,,,,,,,0.02,0.06,0.98,-2.9,0.1,-0.1,740,0,,,,,,,,,,,,,,,,,
43526,1469910762128,,,,,,,0.02,0.05,0.98,-2.9,-0.0,-0.2,720,0,,,,,,,,,,,,,,,,,
43546,1469910762148,,,,10,,,0.02,0.05,0.98,-2.9,0.1,-0.2,720,0,0.0,0,39.536591,-122.332138,0.0,0.0,287.5,9,3,1.5,0,0.0,-1,0.0,,0.0,0
43566,1469910762168,,,,,,,0.03,0.05,0.98,-2.9,0.1,-0.1,740,0,,,,,,,,,,,,,,,,,
43586,1469910762188,,,,,,,0.02,0.05,0.98,-2.9,0.0,-0.1,720,0,,,,,,,,,,,,,,,,,
43606,1469910762208,,,,,,,0.02,0.05,0.98,-2.9,0.1,-0.2,720,0,,,,,,,,,,,,,,,,,
43626,1469910762228,,,,,,,0.02,0.06,0.98,-2.9,0.1,-0.1,720,0,,,,,,,,,,,,,,,,,
43646,1469910762248,0,210.2,188.8,11,193.8,,0.03,0.06,0.98,-2.9,0.2,-0.1,720,0,0.0,0,39.536591,-122.332138,0.0,0.0,287.5,9,3,1.5,0,0.0,-1,0.0,0.0,0.0,0
43666,1469910762268,,,,,,,0.02,0.06,0.98,-2.9,0.1,-0.1,700,0,,,,,,,,,,,,,,,,,
43686,1469910762288,,,,,,,0.02,0.05,0.98,-2.9,0.1,-0.2,700,0,,,,,,,,,,,,,,,,,
43706,1469910762308,,,,,,,0.03,0.06,0.98,-2.9,0.1,-0.0,680,0,,,,,,,,,,,,,,,,,
43726,1469910762328,,,,,,,0.03,0.06,0.98,-2.9,0.1,-0.1,700,0,,,,,,,,,,,,,,,,,
43746,1469910762348,,,,10,,,0.02,0.06,0.98,-3.0,0.1,-0.1,700,0,0.0,0,39.536591,-122.332138,0.0,0.0,287.5,9,3,1.5,0,0.0,-1,0.0,,0.0,0
43766,1469910762368,,,,,,,0.03,0.06,0.98,-3.0,0.1,-0.1,700,0,,,,,,,,,,,,,,,,,
43786,1469910762388,,,,,,,0.03,0.06,0.98,-3.0,0.1,-0.0,700,0,,,,,,,,,,,,,,,,,
43806,1469910762408,,,,,,,0.03,0.06,0.99,-2.9,0.1,-0.1,700,0,,,,,,,,,,,,,,,,,
43826,1469910762428,,,,,,,0.02,0.06,0.99,-2.9,-0.0,-0.2,700,0,,,,,,,,,,,,,,,,,
43846,1469910762448,0,210.8,189.7,9,192.6,,0.03,0.07,0.99,-3.0,0.1,-0.1,680,0,0.0,0,39.536591,-122.332138,0.0,0.0,287.5,9,3,1.5,0,0.0,-1,0.0,0.0,0.0,0
43866,1469910762468,,,,,,,0.03,0.07,0.99,-3.0,-0.2,-0.1,680,0,,,,,,,,,,,,,,,,,
43886,1469910762488,,,,,,,0.02,0.07,0.98,-3.0,-0.1,-0.2,680,0,,,,,,,,,,,,,,,,,
43906,1469910762508,,,,,,,0.03,0.07,0.98,-3.0,-0.2,-0.2,680,0,,,,,,,,,,,,,,,,,
43926,1469910762528,,,,,,,0.03,0.06,0.98,-2.9,-0.2,-0.1,700,0,,,,,,,,,,,,,,,,,
43946,1469910762548,,,,9,,,0.03,0.06,0.98,-2.9,-0.1,-0.3,700,0,0.0,0,39.536591,-122.332138,0.0,0.0,287.5,9,3,1.5,0,0.0,-1,0.0,,0.0,0
43966,1469910762568,,,,,,,0.04,0.06,0.99,-3.0,0.0,-0.2,700,0,,,,,,,,,,,,,,,,,
43986,1469910762588,,,,,,,0.04,0.06,0.99,-3.0,0.2,-0.1,700,0,,,,,,,,,,,,,,,,,
44006,1469910762608,,,,,,,0.03,0.06,1.0,-2.9,0.2,-0.1,700,0,,,,,,,,,,,,,,,,,
44026,1469910762628,,,,,,,0.02,0.05,0.99,-2.9,0.2,-0.2,700,0,,,,,,,,,,,,,,,,,
44046,1469910762648,0,211.3,190.2,9,193.0,13.19,0.03,0.06,0.99,-3.0,0.1,-0.1,680,0,0.0,0,39.536591,-122.332138,0.0,0.0,287.5,9,3,1.5,0,0.0,-1,0.0,0.0,0.0,0
44066,1469910762668,,,,,,,0.03,0.06,0.99,-3.0,0.1,-0.1,700,0,,,,,,,,,,,,,,,,,
44086,1469910762688,,,,,,,0.03,0.06,0.99,-2.9,0.1,-0.1,700,0,,,,,,,,,,,,,,,,,
44106,1469910762807,,,,,,,0.03,0.07,0.99,-3.0,0.0,-0.1,700,0,,,,,,,,,,,,,,,,,
44126,1469910762827,,,,,,,0.03,0.07,0.99,-3.0,0.0,-0.1,700,0,,,,,,,,,,,,,,,,,
44146,1469910762847,,,,10,,,0.03,0.06,0.99,-3.0,-0.0,-0.2,700,0,0.0,0,39.536591,-122.332138,0.0,0.0,287.5,9,3,1.5,0,0.0,-1,0.0,,0.0,0
44166,1469910762867,,,,,,,0.03,0.06,0.99,-2.9,0.2,-0.2,700,0,,,,,,,,,,,,,,,,,
44186,1469910762887,,,,,,,0.04,0.07,0.99,-3.0,0.2,-0.1,700,0,,,,,,,,,,,,,,,,,
44206,1469910762907,,,,,,,0.03,0.06,0.99,-3.0,0.3,-0.2,680,0,,,,,,,,,,,,,,,,,
44226,1469910762927,,,,,,,0.03,0.06,0.98,-3.0,0.3,-0.2,680,0,,,,,,,,,,,,,,,,,
44246,1469910762947,0,210.9,189.9,10,193.3,,0.03,0.06,0.99,-3.0,0.2,-0.1,680,0,0.0,0,39.536591,-122.332138,0.0,0.0,287.5,9,3,1.5,0,0.0,-1,0.0,0.0,0.0,0
44266,1469910762967,,,,,,,0.03,0.05,0.99,-3.0,0.2,-0.1,700,0,,,,,,,,,,,,,,,,,
44286,1469910762987,,,,,,,0.02,0.05,0.99,-2.9,0.2,-0.2,700,0,,,,,,,,,,,,,,,,,
44306,1469910762900,,,,,,,0.03,0.06,0.99,-3.0,0.1,-0.1,700,0,,,,,,,,,,,,,,,,,
44326,1469910762920,,,,,,,0.03,0.06,0.99,-3.0,0.1,-0.1,700,0,,,,,,,,,,,,,,,,,
44346,1469910762940,,,,9,,,0.03,0.06,0.99,-3.0,0.1,-0.3,700,0,0.0,0,39.536591,-122.332138,0.0,0.0,287.5,9,3,1.5,0,0.0,-1,0.0,,0.0,0
44366,1469910762960,,,,,,,0.04,0.06,0.98,-3.0,0.3,-0.2,700,0,,,,,,,,,,,,,,,,,
44386,1469910762980,,,,,,,0.04,0.07,0.98,-3.0,0.3,-0.1,700,0,,,,,,,,,,,,,,,,,
44406,1469910763008,,,,,,,0.03,0.07,0.98,-3.0,0.2,-0.1,720,0,,,,,,,,,,,,,,,,,
44426,1469910763028,,,,,,,0.02,0.07,0.99,-3.0,0.3,-0.2,720,0,,,,,,,,,,,,,,,,,
44446,1469910763048,0,210.5,189.4,10,192.6,,0.03,0.07,0.98,-3.0,0.2,-0.1,720,0,0.0,0,39.536591,-122.332138,0.0,0.0,287.5,9,3,1.5,0,0.0,-1,0.0,0.0,0.0,0
44466,1469910763068,,,,,,,0.03,0.07,0.98,-3.0,0.1,-0.1,720,0,,,,,,,,,,,,,,,,,
44486,1469910763088,,,,,,,0.03,0.06,0.98,-3.0,-0.1,-0.3,720,0,,,,,,,,,,,,,,,,,
44506,1469910763108,,,,,,,0.03,0.07,0.98,-2.9,0.0,-0.3,720,0,,,,,,,,,,,,,,,,,
44526,1469910763128,,,,,,,0.03,0.07,0.98,-3.0,0.0,-0.2,720,0,,,,,,,,,,,,,,,,,
44546,1469910763148,,,,11,,,0.03,0.07,0.98,-2.9,0.0,-0.2,700,0,0.0,0,39.536591,-122.332138,0.0,0.0,287.5,9,3,1.5,0,0.0,-1,0.0,,0.0,0
44566,1469910763168,,,,,,,0.02,0.07,0.98,-2.9,0.0,-0.3,720,0,,,,,,,,,,,,,,,,,
44586,1469910763188,,,,,,,0.03,0.07,0.98,-2.9,0.0,-0.2,720,0,,,,,,,,,,,,,,,,,
44606,1469910763208,,,,,,,0.03,0.07,0.98,-3.0,0.2,-0.2,720,0,,,,,,,,,,,,,,,,,
44626,1469910763228,,,,,,,0.03,0.07,0.98,-3.0,0.1,-0.3,720,0,,,,,,,,,,,,,,,,,
44646,1469910763248,0,210.1,189.0,10,192.1,,0.02,0.06,0.98,-3.0,0.2,-0.3,720,0,0.0,0,39.536591,-122.332138,0.0,0.0,287.5,9,3,1.5,0,0.0,-1,0.0,0.0,0.0,0
44666,1469910763268,,,,,,,0.03,0.06,0.99,-3.0,0.2,-0.2,740,0,,,,,,,,,,,,,,,,,
44686,1469910763288,,,,,,,0.03,0.07,0.98,-3.0,0.2,-0.1,720,0,,,,,,,,,,,,,,,,,
44706,1469910763308,,,,,,,0.03,0.06,0.98,-3.0,0.1,-0.3,720,0,,,,,,,,,,,,,,,,,
44726,1469910763328,,,,,,,0.03,0.06,0.98,-3.0,0.2,-0.3,720,0,,,,,,,,,,,,,,,,,
44746,1469910763348,,,,11,,,0.03,0.05,0.99,-3.0,0.2,-0.1,720,0,0.0,0,39.536591,-122.332138,0.0,0.0,287.5,9,3,1.5,0,0.0,-1,0.0,,0.0,0
44766,1469910763368,,,,,,,0.03,0.06,0.99,-3.0,0.1,-0.1,740,0,,,,,,,,,,,,,,,,,
44786,1469910763388,,,,,,,0.02,0.06,0.98,-3.0,-0.0,-0.3,740,0,,,,,,,,,,,,,,,,,
44806,1469910763408,,,,,,,0.03,0.06,0.98,-3.0,0.2,-0.2,740,0,,,,,,,,,,,,,,,,,
44826,1469910763428,,,,,,,0.03,0.06,0.98,-3.0,0.2,-0.1,740,0,,,,,,,,,,,,,,,,,
44846,1469910763448,0,211.5,190.6,11,193.5,,0.03,0.07,0.98,-3.1,0.1,-0.1,740,0,0.0,0,39.536591,-122.332138,0.0,0.0,287.5,9,3,1.5,0,0.0,-1,0.0,0.0,0.0,0
44866,1469910763468,,,,,,,0.02,0.07,0.98,-3.0,0.0,-0.3,720,0,,,,,,,,,,,,,,,,,
44886,1469910763488,,,,,,,0.03,0.08,0.98,-3.1,0.0,-0.2,720,0,,,,,,,,,,,,,,,,,
44906,1469910763607,,,,,,,0.03,0.07,0.99,-3.1,0.1,-0.2,740,0,,,,,,,,,,,,,,,,,
44926,1469910763627,,,,,,,0.02,0.07,0.98,-3.1,0.2,-0.1,740,0,,,,,,,,,,,,,,,,,
44946,1469910763647,,,,9,,,0.02,0.06,0.97,-3.0,0.0,-0.2,740,0,0.0,0,39.536591,-122.332138,0.0,0.0,287.5,9,3,1.5,0,0.0,-1,0.0,,0.0,0
44966,1469910763667,,,,,,,0.03,0.07,0.97,-3.0,0.1,-0.2,740,0,,,,,,,,,,,,,,,,,
44986,1469910763687,,,,,,,0.03,0.06,0.98,-3.0,0.3,-0.1,740,0,,,,,,,,,,,,,,,,,
45006,1469910763707,,,,,,,0.02,0.06,0.98,-3.0,0.1,-0.1,740,0,,,,,,,,,,,,,,,,,
45026,1469910763727,,,,,,,0.02,0.06,0.98,-2.9,-0.1,-0.2,720,0,,,,,,,,,,,,,,,,,
45046,1469910763747,0,211.1,190.2,9,192.8,13.31,0.03,0.06,0.98,-3.0,0.1,-0.1,720,0,0.0,0,39.536591,-122.332138,0.0,0.0,287.5,9,3,1.5,0,0.0,-1,0.0,0.0,0.0,0
45066,1469910763767,,,,,,,0.03,0.06,0.99,-3.0,0.3,-0.1,740,0,,,,,,,,,,,,,,,,,
45086,1469910763787,,,,,,,0.02,0.06,0.99,-3.0,0.3,-0.1,740,0,,,,,,,,,,,,,,,,,
45106,1469910763708,,,,,,,0.02,0.06,0.98,-3.0,0.1,-0.2,740,0,,,,,,,,,,,,,,,,,
45126,1469910763728,,,,,,,0.03,0.07,0.98,-3.0,0.1,-0.1,740,0,,,,,,,,,,,,,,,,,
45146,1469910763748,,,,11,,,0.03,0.06,0.98,-3.0,0.2,-0.1,740,0,0.0,0,39.536591,-122.332138,0.0,0.0,287.5,9,3,1.5,0,0.0,-1,0.0,,0.0,0
45166,1469910763768,,,,,,,0.03,0.06,1.0,-3.0,0.5,-0.2,740,0,,,,,,,,,,,,,,,,,
45186,1469910763788,,,,,,,0.02,0.05,0.99,-3.0,0.4,-0.2,720,0,,,,,,,,,,,,,,,,,
45206,1469910763808,,,,,,,0.02,0.05,0.99,-3.0,0.3,-0.1,720,0,,,,,,,,,,,,,,,,,
45226,1469910763828,,,,,,,0.02,0.06,0.99,-3.0,0.2,-0.0,740,0,,,,,,,,,,,,,,,,,
45246,1469910763848,0,210.9,190.2,11,192.8,,0.02,0.05,0.99,-3.0,0.3,-0.2,740,0,0.0,0,39.536591,-122.332138,0.0,0.0,287.5,9,3,1.5,0,0.0,-1,0.0,0.0,0.0,0
45266,1469910763868,,,,,,,0.02,0.05,0.99,-2.9,0.2,-0.3,740,0,,,,,,,,,,,,,,,,,
45286,1469910763888,,,,,,,0.03,0.05,0.99,-3.0,0.3,-0.2,740,0,,,,,,,,,,,,,,,,,
45306,1469910763902,,,,,,,0.03,0.06,0.99,-3.0,0.4,-0.1,740,0,,,,,,,,,,,,,,,,,
45326,1469910763922,,,,,,,0.03,0.05,0.99,-3.0,0.6,-0.2,740,0,,,,,,,,,,,,,,,,,
45346,1469910763942,,,,11,,,0.03,0.05,0.99,-2.9,0.8,-0.3,740,0,0.0,0,39.536591,-122.332138,0.0,0.0,287.5,9,3,1.5,0,0.0,-1,0.0,,0.0,0
45366,1469910763962,,,,,,,0.02,0.05,1.0,-3.0,0.6,-0.2,720,0,,,,,,,,,,,,,,,,,
45386,1469910763982,,,,,,,0.02,0.06,0.99,-3.0,0.5,-0.1,740,0,,,,,,,,,,,,,,,,,
45406,1469910764008,,,,,,,0.02,0.06,0.99,-2.9,0.3,-0.2,720,0,,,,,,,,,,,,,,,,,
45426,1469910764028,,,,,,,0.02,0.06,0.99,-3.0,0.4,-0.2,720,0,,,,,,,,,,,,,,,,,
45446,1469910764048,0,210.0,189.1,10,191.6,,0.02,0.06,0.99,-3.0,0.2,-0.1,740,0,0.0,0,39.536591,-122.332138,0.0,0.0,287.5,9,3,1.5,0,0.0,-1,0.0,0.0,0.0,0
45466,1469910764068,,,,,,,0.03,0.07,0.98,-3.0,0.2,-0.0,740,0,,,,,,,,,,,,,,,,,
45486,1469910764088,,,,,,,0.03,0.07,0.98,-3.0,0.1,-0.1,740,0,,,,,,,,,,,,,,,,,
45506,1469910764108,,,,,,,0.03,0.06,0.98,-3.0,0.3,-0.2,740,0,,,,,,,,,,,,,,,,,
45526,1469910764128,,,,,,,0.02,0.06,0.98,-3.0,0.2,-0.0,720,0,,,,,,,,,,,,,,,,,
45546,1469910764148,,,,11,,,0.02,0.07,0.97,-3.0,0.1,0.0,720,0,0.0,0,39.536591,-122.332138,0.0,0.0,287.5,9,3,1.5,0,0.0,-1,0.0,,0.0,0
45566,1469910764168,,,,,,,0.02,0.07,0.97,-2.9,0.0,-0.1,720,0,,,,,,,,,,,,,,,,,
45586,1469910764188,,,,,,,0.02,0.06,0.98,-2.9,0.3,-0.1,720,0,,,,,,,,,,,,,,,,,
45606,1469910764208,,,,,,,0.02,0.06,0.98,-3.0,0.3,-0.1,720,0,,,,,,,,,,,,,,,,,
45626,1469910764228,,,,,,,0.03,0.06,0.98,-3.0,0.2,-0.1,740,0,,,,,,,,,,,,,,,,,
45646,1469910764248,0,210.9,190.3,11,192.7,,0.03,0.06,0.98,-2.9,0.1,-0.2,720,0,0.0,0,39.536591,-122.332138,0.0,0.0,287.5,9,3,1.5,0,0.0,-1,0.0,0.0,0.0,0
45666,1469910764268,,,,,,,0.03,0.06,0.97,-3.0,0.2,-0.1,720,0,,,,,,,,,,,,,,,,,
45686,1469910764288,,,,,,,0.03,0.07,0.98,-3.0,0.2,-0.1,720,0,,,,,,,,,,,,,,,,,
45706,1469910764407,,,,,,,0.03,0.06,0.98,-3.0,0.0,-0.1,720,0,,,,,,,,,,,,,,,,,
45726,1469910764427,,,,,,,0.02,0.06,0.98,-3.0,0.1,-0.2,720,0,,,,,,,,,,,,,,,,,
45746,1469910764447,,,,9,,,0.03,0.07,0.98,-3.0,0.0,-0.1,720,0,0.0,0,39.536591,-122.332138,0.0,0.0,287.5,9,3,1.5,0,0.0,-1,0.0,,0.0,0
45766,1469910764467,,,,,,,0.04,0.07,0.98,-3.0,0.0,-0.1,720,0,,,,,,,,,,,,,,,,,
45786,1469910764487,,,,,,,0.03,0.06,0.99,-3.0,0.2,-0.2,720,0,,,,,,,,,,,,,,,,,
45806,1469910764507,,,,,,,0.03,0.06,0.98,-3.0,0.3,-0.3,720,0,,,,,,,,,,,,,,,,,
45826,1469910764527,,,,,,,0.03,0.05,0.99,-3.0,0.1,-0.1,720,0,,,,,,,,,,,,,,,,,
45846,1469910764547,0,210.5,189.9,11,191.8,,0.03,0.05,0.98,-3.0,0.3,-0.1,700,0,0.0,0,39.536591,-122.332138,0.0,0.0,287.5,9,3,1.5,0,0.0,-1,0.0,0.0,0.0,0
45866,1469910764567,,,,,,,0.03,0.05,0.98,-2.9,0.1,-0.2,720,0,,,,,,,,,,,,,,,,,
45886,1469910764587,,,,,,,0.03,0.05,0.99,-2.9,0.3,-0.2,720,0,,,,,,,,,,,,,,,,,
45906,1469910764508,,,,,,,0.03,0.05,0.99,-2.9,0.3,-0.1,700,0,,,,,,,,,,,,,,,,,
45926,1469910764528,,,,,,,0.02,0.05,1.0,-2.9,0.0,-0.1,720,0,,,,,,,,,,,,,,,,,
45946,1469910764548,,,,10,,,0.02,0.05,0.99,-2.9,0.2,-0.2,720,0,0.0,0,39.536591,-122.332138,0.0,0.0,287.5,9,3,1.5,0,0.0,-1,0.0,,0.0,0
45966,1469910764568,,,,,,,0.03,0.06,0.99,-2.9,0.1,-0.2,720,0,,,,,,,,,,,,,,,,,
45986,1469910764588,,,,,,,0.03,0.06,0.99,-3.0,0.3,-0.1,720,0,,,,,,,,,,,,,,,,,
46006,1469910764607,,,,,,,0.03,0.06,0.99,-3.0,0.2,-0.2,700,0,,,,,,,,,,,,,,,,,
46026,1469910764627,,,,,,,0.03,0.06,0.99,-3.0,0.2,-0.2,700,0,,,,,,,,,,,,,,,,,
46046,1469910764647,0,210.3,189.6,10,191.9,13.29,0.03,0.06,0.99,-3.0,0.4,-0.1,720,0,0.0,0,39.536591,-122.332138,0.0,0.0,287.5,9,3,1.5,0,0.0,-1,0.0,0.0,0.0,0
46066,1469910764667,,,,,,,0.03,0.06,0.99,-3.0,0.2,-0.1,700,0,,,,,,,,,,,,,,,,,
46086,1469910764687,,,,,,,0.02,0.06,0.98,-2.9,0.2,-0.2,720,0,,,,,,,,,,,,,,,,,
46106,1469910764708,,,,,,,0.02,0.06,0.99,-2.9,0.3,-0.1,720,0,,,,,,,,,,,,,,,,,
46126,1469910764728,,,,,,,0.03,0.06,0.99,-3.0,0.2,-0.1,720,0,,,,,,,,,,,,,,,,,
46146,1469910764748,,,,10,,,0.02,0.05,0.99,-3.0,0.5,-0.2,700,0,0.0,0,39.536591,-122.332138,0.0,0.0,287.5,9,3,1.5,0,0.0,-1,0.0,,0.0,0
46166,1469910764768,,,,,,,0.02,0.05,0.99,-3.0,0.5,-0.2,700,0,,,,,,,,,,,,,,,,,
46186,1469910764788,,,,,,,0.02,0.06,0.99,-3.0,0.5,-0.1,700,0,,,,,,,,,,,,,,,,,
46206,1469910764808,,,,,,,0.02,0.06,0.99,-3.0,0.4,-0.1,700,0,,,,,,,,,,,,,,,,,
46226,1469910764828,,,,,,,0.02,0.06,0.99,-3.0,0.2,-0.2,700,0,,,,,,,,,,,,,,,,,
46246,1469910764848,0,209.9,189.3,10,191.3,,0.03,0.06,0.99,-3.0,0.5,-0.1,700,0,0.0,0,39.536591,-122.332138,0.0,0.0,287.5,9,3,1.5,0,0.0,-1,0.0,0.0,0.0,0
46266,1469910764868,,,,,,,0.03,0.05,0.99,-3.0,0.5,-0.1,700,0,,,,,,,,,,,,,,,,,
46286,1469910764888,,,,,,,0.02,0.05,1.0,-3.0,0.5,-0.2,720,0,,,,,,,,,,,,,,,,,
46306,1469910764902,,,,,,,0.02,0.06,1.0,-3.0,0.6,-0.2,720,0,,,,,,,,,,,,,,,,,
46326,1469910764922,,,,,,,0.02,0.06,1.0,-3.0,0.3,-0.1,700,0,,,,,,,,,,,,,,,,,
46346,1469910764942,,,,10,,,0.02,0.06,1.0,-3.0,0.3,-0.1,680,0,0.0,0,39.536591,-122.332138,0.0,0.0,287.5,9,3,1.5,0,0.0,-1,0.0,,0.0,0
46366,1469910764962,,,,,,,0.01,0.06,1.0,-3.0,0.2,-0.2,700,0,,,,,,,,,,,,,,,,,
46386,1469910764982,,,,,,,0.02,0.06,1.0,-3.0,0.1,-0.2,700,0,,,,,,,,,,,,,,,,,
46406,1469910765008,,,,,,,0.02,0.06,1.0,-3.0,0.1,-0.1,720,0,,,,,,,,,,,,,,,,,
46426,1469910765028,,,,,,,0.02,0.06,0.99,-3.0,0.2,-0.2,720,0,,,,,,,,,,,,,,,,,
46446,1469910765048,0,210.7,190.2,10,192.1,,0.02,0.06,0.99,-3.0,0.2,-0.2,720,0,0.0,0,39.536591,-122.332138,0.0,0.0,287.5,9,3,1.5,0,0.0,-1,0.0,0.0,0.0,0
46466,1469910765068,,,,,,,0.02,0.06,0.99,-3.0,0.2,-0.1,720,0,,,,,,,,,,,,,,,,,
46486,1469910765088,,,,,,,0.02,0.06,0.99,-3.0,0.1,-0.1,700,0,,,,,,,,,,,,,,,,,
46506,1469910765207,,,,,,,0.01,0.05,0.98,-3.0,-0.0,-0.2,700,0,,,,,,,,,,,,,,,,,
46526,1469910765227,,,,,,,0.03,0.05,0.98,-3.0,0.3,-0.2,700,0,,,,,,,,,,,,,,,,,
46546,1469910765247,,,,10,,,0.03,0.05,0.99,-3.0,0.5,-0.1,700,0,0.0,0,39.536591,-122.332138,0.0,0.0,287.5,9,3,1.5,0,0.0,-1,0.0,,0.0,0
46566,1469910765267,,,,,,,0.02,0.05,0.99,-3.0,0.6,-0.2,700,0,,,,,,,,,,,,,,,,,
46586,1469910765287,,,,,,,0.02,0.05,0.99,-3.0,0.5,-0.2,700,0,,,,,,,,,,,,,,,,,
46606,1469910765307,,,,,,,0.02,0.06,0.99,-3.1,0.3,-0.2,700,0,,,,,,,,,,,,,,,,,
46626,1469910765327,,,,,,,0.02,0.06,0.99,-3.0,0.3,-0.1,700,0,,,,,,,,,,,,,,,,,
46646,1469910765347,0,210.0,189.5,11,191.4,,0.02,0.05,0.98,-3.0,0.1,-0.2,700,0,0.0,0,39.536591,-122.332138,0.0,0.0,287.5,9,3,1.5,0,0.0,-1,0.0,0.0,0.0,0
46666,1469910765367,,,,,,,0.02,0.05,0.98,-3.0,0.3,-0.2,700,0,,,,,,,,,,,,,,,,,
46686,1469910765387,,,,,,,0.03,0.05,0.99,-3.0,0.2,-0.1,680,0,,,,,,,,,,,,,,,,,
46706,1469910765307,,,,,,,0.02,0.05,0.99,-3.0,0.3,-0.2,700,0,,,,,,,,,,,,,,,,,
46726,1469910765327,,,,,,,0.02,0.05,0.99,-3.0,0.3,-0.2,700,0,,,,,,,,,,,,,,,,,
46746,1469910765347,,,,11,,,0.02,0.06,0.99,-3.0,0.2,-0.1,700,0,0.0,0,39.536591,-122.332138,0.0,0.0,287.5,9,3,1.5,0,0.0,-1,0.0,,0.0,0
46766,1469910765367,,,,,,,0.02,0.06,0.98,-3.0,0.0,-0.1,700,0,,,,,,,,,,,,,,,,,
46786,1469910765387,,,,,,,0.01,0.05,0.98,-3.0,-0.2,-0.2,700,0,,,,,,,,,,,,,,,,,
46806,1469910765407,,,,,,,0.02,0.05,0.98,-2.9,-0.1,-0.2,700,0,,,,,,,,,,,,,,,,,
46826,1469910765427,,,,,,,0.02,0.05,0.98,-3.0,0.0,-0.2,700,0,,,,,,,,,,,,,,,,,
46846,1469910765447,0,210.1,189.8,9,191.4,,0.02,0.05,0.98,-3.0,0.1,-0.3,680,0,0.0,0,39.536591,-122.332138,0.0,0.0,287.5,9,3,1.5,0,0.0,-1,0.0,0.0,0.0,0
46866,1469910765467,,,,,,,0.02,0.05,0.99,-3.0,0.2,-0.3,680,0,,,,,,,,,,,,,,,,,
46886,1469910765487,,,,,,,0.02,0.06,0.99,-3.0,0.2,-0.1,700,0,,,,,,,,,,,,,,,,,
46906,1469910765507,,,,,,,0.02,0.06,0.98,-3.0,0.0,-0.2,700,0,,,,,,,,,,,,,,,,,
46926,1469910765527,,,,,,,0.01,0.06,0.98,-3.0,-0.1,-0.2,700,0,,,,,,,,,,,,,,,,,
46946,1469910765547,,,,9,,,0.02,0.07,0.98,-3.0,-0.1,-0.2,700,0,0.0,0,39.536591,-122.332138,0.0,0.0,287.5,9,3,1.5,0,0.0,-1,0.0,,0.0,0
46966,1469910765567,,,,,,,0.02,0.06,0.98,-3.0,-0.1,-0.1,700,0,,,,,,,,,,,,,,,,,
46986,1469910765587,,,,,,,0.02,0.06,0.99,-3.0,-0.0,-0.2,700,0,,,,,,,,,,,,,,,,,
47006,1469910765607,,,,,,,0.02,0.05,0.98,-3.0,0.2,-0.1,700,0,,,,,,,,,,,,,,,,,
47026,1469910765627,,,,,,,0.03,0.05,0.99,-3.0,0.3,-0.0,680,0,,,,,,,,,,,,,,,,,
47046,1469910765647,0,211.0,190.8,10,192.2,13.33,0.02,0.05,0.99,-3.0,0.2,-0.1,700,0,0.0,0,39.536591,-122.332138,0.0,0.0,287.5,9,3,1.5,0,0.0,-1,0.0,0.0,0.0,0
47066,1469910765667,,,,,,,0.02,0.06,0.98,-3.0,0.2,-0.2,700,0,,,,,,,,,,,,,,,,,
47086,1469910765687,,,,,,,0.02,0.06,0.98,-3.1,0.0,-0.1,700,0,,,,,,,,,,,,,,,,,
47106,1469910765707,,,,,,,0.02,0.07,0.98,-3.0,-0.2,-0.1,700,0,,,,,,,,,,,,,,,,,
47126,1469910765727,,,,,,,0.02,0.06,0.98,-3.0,-0.3,-0.2,700,0,,,,,,,,,,,,,,,,,
47146,1469910765747,,,,10,,,0.02,0.06,0.98,-3.0,-0.2,-0.2,700,0,0.0,0,39.536591,-122.332138,0.0,0.0,287.5,9,3,1.5,0,0.0,-1,0.0,,0.0,0
47166,1469910765767,,,,,,,0.03,0.06,0.98,-3.0,-0.1,-0.1,700,0,,,,,,,,,,,,,,,,,
47186,1469910765787,,,,,,,0.03,0.06,0.98,-3.0,-0.0,-0.2,680,0,,,,,,,,,,,,,,,,,
47206,1469910765808,,,,,,,0.03,0.06,0.98,-3.0,0.2,-0.2,680,0,,,,,,,,,,,,,,,,,
47226,1469910765828,,,,,,,0.03,0.07,0.99,-3.1,0.3,-0.1,700,0,,,,,,,,,,,,,,,,,
47246,1469910765848,0,210.1,189.8,10,191.4,,0.02,0.06,0.99,-3.0,0.2,-0.2,680,0,0.0,0,39.536591,-122.332138,0.0,0.0,287.5,9,3,1.5,0,0.0,-1,0.0,0.0,0.0,0
47266,1469910765868,,,,,,,0.01,0.06,0.98,-3.0,0.2,-0.2,680,0,,,,,,,,,,,,,,,,,
47286,1469910765888,,,,,,,0.01,0.06,0.99,-3.1,0.0,-0.1,700,0,,,,,,,,,,,,,,,,,
47306,1469910766001,,,,,,,0.01,0.06,0.98,-3.1,-0.1,-0.1,700,0,,,,,,,,,,,,,,,,,
47326,1469910766021,,,,,,,0.01,0.06,0.98,-3.0,-0.2,-0.2,700,0,,,,,,,,,,,,,,,,,
47346,1469910766041,,,,9,,,0.02,0.06,0.99,-3.1,0.0,-0.1,700,0,0.0,0,39.536591,-122.332138,0.0,0.0,287.5,9,3,1.5,0,0.0,-1,0.0,,0.0,0
47366,1469910766061,,,,,,,0.03,0.06,0.99,-3.1,0.0,-0.1,660,0,,,,,,,,,,,,,,,,,
47386,1469910766081,,,,,,,0.02,0.06,0.99,-3.0,0.1,-0.2,700,0,,,,,,,,,,,,,,,,,
47406,1469910766101,,,,,,,0.02,0.06,0.99,-3.1,0.3,-0.2,700,0,,,,,,,,,,,,,,,,,
47426,1469910766121,,,,,,,0.02,0.06,0.99,-3.1,0.2,-0.1,700,0,,,,,,,,,,,,,,,,,
47446,1469910766141,0,210.4,190.1,10,191.5,,0.02,0.06,0.98,-3.1,0.1,-0.2,700,0,0.0,0,39.536591,-122.332138,0.0,0.0,287.5,9,3,1.5,0,0.0,-1,0.0,0.0,0.0,0
47466,1469910766161,,,,,,,0.01,0.06,0.98,-3.0,-0.0,-0.2,700,0,,,,,,,,,,,,,,,,,
47486,1469910766181,,,,,,,0.02,0.06,0.98,-3.1,0.0,-0.2,700,0,,,,,,,,,,,,,,,,,
47506,1469910766107,,,,,,,0.02,0.06,0.98,-3.1,-0.0,-0.2,700,230,,,,,,,,,,,,,,,,,
47526,1469910766127,,,,,,,0.02,0.07,0.98,-3.1,-0.1,-0.3,680,230,,,,,,,,,,,,,,,,,
47546,1469910766147,,,,9,,,0.02,0.07,0.98,-3.1,0.1,-0.2,680,230,2.957,0,39.536591,-122.332138,0.0,0.0,287.5,9,3,1.5,0,0.0,-1,0.0,,0.0,0
47566,1469910766167,,,,,,,0.02,0.07,0.99,-3.1,0.2,-0.1,700,230,,,,,,,,,,,,,,,,,
47586,1469910766187,,,,,,,0.02,0.06,0.99,-3.1,0.3,-0.2,700,230,,,,,,,,,,,,,,,,,
47606,1469910766207,,,,,,,0.01,0.06,0.99,-3.1,0.4,-0.2,700,230,,,,,,,,,,,,,,,,,
47626,1469910766227,,,,,,,0.01,0.06,0.99,-3.1,0.2,-0.1,700,12,,,,,,,,,,,,,,,,,
47646,1469910766247,0,210.9,190.7,10,191.9,,0.01,0.06,0.98,-3.1,0.1,-0.0,700,12,58.333,0,39.536591,-122.332138,0.0,0.0,287.5,9,3,1.5,0,0.0,-1,0.0,0.0,0.0,0
47666,1469910766267,,,,,,,0.01,0.06,0.98,-3.1,0.0,-0.2,700,12,,,,,,,,,,,,,,,,,
47686,1469910766287,,,,,,,0.02,0.07,0.99,-3.2,0.1,-0.0,700,12,,,,,,,,,,,,,,,,,
47706,1469910766307,,,,,,,0.02,0.07,0.99,-3.2,0.1,0.0,680,12,,,,,,,,,,,,,,,,,
47726,1469910766327,,,,,,,0.01,0.06,0.98,-3.1,0.1,-0.1,700,12,,,,,,,,,,,,,,,,,
47746,1469910766347,,,,11,,,0.01,0.06,0.98,-3.1,0.2,-0.1,700,12,58.333,0,39.536591,-122.332138,0.0,0.0,287.5,9,3,1.5,0,0.0,-1,0.0,,0.0,0
47766,1469910766367,,,,,,,0.02,0.06,0.99,-3.2,0.2,-0.0,700,12,,,,,,,,,,,,,,,,,
47786,1469910766387,,,,,,,0.02,0.07,0.98,-3.2,0.1,-0.0,720,12,,,,,,,,,,,,,,,,,
47806,1469910766408,,,,,,,0.01,0.06,0.98,-3.1,0.0,-0.1,720,12,,,,,,,,,,,,,,,,,
47826,1469910766428,,,,,,,0.01,0.06,0.98,-3.1,0.0,-0.1,720,769230,,,,,,,,,,,,,,,,,
47846,1469910766448,0,210.9,190.6,9,191.7,,0.02,0.06,0.99,-3.1,0.1,-0.0,720,0,0.0,0,39.536591,-122.332138,0.0,0.0,287.5,9,3,1.5,0,0.0,-1,0.0,0.0,0.0,0
47866,1469910766468,,,,,,,0.02,0.06,0.99,-3.1,-0.1,-0.2,680,0,,,,,,,,,,,,,,,,,
47886,1469910766488,,,,,,,0.02,0.06,0.99,-3.1,0.1,-0.2,680,0,,,,,,,,,,,,,,,,,
47906,1469910766508,,,,,,,0.02,0.06,0.99,-3.1,0.0,-0.1,700,0,,,,,,,,,,,,,,,,,
47926,1469910766528,,,,,,,0.02,0.06,0.99,-3.1,-0.0,-0.1,700,0,,,,,,,,,,,,,,,,,
47946,1469910766548,,,,10,,,0.02,0.06,0.98,-3.1,-0.1,-0.2,720,0,0.0,0,39.536591,-122.332138,0.0,0.0,287.5,9,3,1.5,0,0.0,-1,0.0,,0.0,0
47966,1469910766568,,,,,,,0.02,0.06,0.99,-3.1,-0.0,-0.2,720,0,,,,,,,,,,,,,,,,,
47986,1469910766588,,,,,,,0.03,0.06,0.99,-3.1,0.2,-0.1,720,0,,,,,,,,,,,,,,,,,
48006,1469910766608,,,,,,,0.02,0.06,1.0,-3.1,0.3,-0.2,700,238,,,,,,,,,,,,,,,,,
48026,1469910766628,,,,,,,0.02,0.05,0.99,-3.1,0.4,-0.2,700,238,,,,,,,,,,,,,,,,,
48046,1469910766648,0,209.9,189.8,10,190.8,13.4,0.02,0.06,0.99,-3.2,0.4,-0.1,700,238,2.941,0,39.536591,-122.332138,0.0,0.0,287.5,9,3,1.5,0,0.0,-1,0.0,0.0,0.0,0
48066,1469910766668,,,,,,,0.02,0.06,0.99,-3.1,0.3,-0.1,720,238,,,,,,,,,,,,,,,,,
48086,1469910766688,,,,,,,0.02,0.05,0.99,-3.1,0.2,-0.2,720,238,,,,,,,,,,,,,,,,,
48106,1469910766807,,,,,,,0.02,0.05,0.99,-3.1,0.4,-0.2,720,13,,,,,,,,,,,,,,,,,
48126,1469910766827,,,,,,,0.02,0.05,0.99,-3.1,0.3,-0.1,720,13,,,,,,,,,,,,,,,,,
48146,1469910766847,,,,11,,,0.02,0.05,1.0,-3.1,0.3,-0.2,720,13,55.385,0,39.536591,-122.332138,0.0,0.0,287.5,9,3,1.5,0,0.0,-1,0.0,,0.0,0
48166,1469910766867,,,,,,,0.02,0.06,0.99,-3.0,0.2,-0.2,720,13,,,,,,,,,,,,,,,,,
48186,1469910766887,,,,,,,0.02,0.07,0.99,-3.1,0.1,-0.1,720,13,,,,,,,,,,,,,,,,,
48206,1469910766907,,,,,,,0.03,0.07,0.99,-3.1,0.1,-0.1,700,13,,,,,,,,,,,,,,,,,
48226,1469910766927,,,,,,,0.03,0.06,1.0,-3.1,0.1,-0.2,720,12,,,,,,,,,,,,,,,,,
48246,1469910766947,0,210.2,190.1,10,191.1,,0.03,0.06,0.99,-3.1,0.3,-0.2,720,12,60.0,0,39.536591,-122.332138,0.0,0.0,287.5,9,3,1.5,0,0.0,-1,0.0,0.0,0.0,0
48266,1469910766967,,,,,,,0.03,0.06,0.99,-3.1,0.2,-0.1,700,12,,,,,,,,,,,,,,,,,
48286,1469910766987,,,,,,,0.03,0.06,1.0,-3.1,0.2,-0.2,720,12,,,,,,,,,,,,,,,,,
48306,1469910766903,,,,,,,0.02,0.06,0.99,-3.0,0.2,-0.3,720,12,,,,,,,,,,,,,,,,,
48326,1469910766923,,,,,,,0.03,0.06,0.99,-3.0,0.1,-0.2,720,12,,,,,,,,,,,,,,,,,
48346,1469910766943,,,,10,,,0.03,0.07,0.99,-3.0,0.2,-0.2,700,13,53.846,0,39.536591,-122.332138,0.0,0.0,287.5,9,3,1.5,0,0.0,-1,0.0,,0.0,0
48366,1469910766963,,,,,,,0.03,0.07,0.99,-3.0,0.1,-0.3,700,13,,,,,,,,,,,,,,,,,
48386,1469910766983,,,,,,,0.03,0.07,0.99,-3.1,0.2,-0.3,700,13,,,,,,,,,,,,,,,,,
48406,1469910767008,,,,,,,0.03,0.07,0.99,-3.1,0.2,-0.2,720,13,,,,,,,,,,,,,,,,,
48426,1469910767028,,,,,,,0.03,0.06,0.99,-3.1,0.1,-0.2,700,13,,,,,,,,,,,,,,,,,
48446,1469910767048,0,210.4,190.4,10,191.3,,0.03,0.06,0.99,-3.0,0.1,-0.2,720,0,0.001,0,39.536591,-122.332138,0.0,0.0,287.5,9,3,1.5,0,0.0,-1,0.0,0.0,0.0,0
48466,1469910767068,,,,,,,0.03,0.07,0.99,-3.1,0.1,-0.2,720,0,,,,,,,,,,,,,,,,,
48486,1469910767088,,,,,,,0.04,0.06,0.99,-3.1,0.2,-0.1,700,172,,,,,,,,,,,,,,,,,
48506,1469910767108,,,,,,,0.04,0.06,0.99,-3.1,0.3,-0.2,720,172,,,,,,,,,,,,,,,,,
48526,1469910767128,,,,,,,0.03,0.05,0.98,-3.1,0.4,-0.2,720,172,,,,,,,,,,,,,,,,,
48546,1469910767148,,,,9,,,0.04,0.06,0.98,-3.1,0.3,-0.1,680,172,3.953,0,39.536591,-122.332138,0.0,0.0,287.5,9,3,1.5,0,0.0,-1,0.0,,0.0,0
48566,1469910767168,,,,,,,0.04,0.06,0.98,-3.1,0.3,-0.1,720,172,,,,,,,,,,,,,,,,,
48586,1469910767188,,,,,,,0.03,0.06,0.99,-3.1,0.2,-0.2,700,0,,,,,,,,,,,,,,,,,
48606,1469910767207,,,,,,,0.04,0.06,0.99,-3.1,0.3,-0.2,700,0,,,,,,,,,,,,,,,,,
48626,1469910767227,,,,,,,0.04,0.06,0.99,-3.1,0.4,-0.1,720,0,,,,,,,,,,,,,,,,,
48646,1469910767247,0,210.8,190.6,10,191.3,,0.03,0.06,0.99,-3.1,0.3,-0.2,700,0,0.0,0,39.536591,-122.332138,0.0,0.0,287.5,9,3,1.5,0,0.0,-1,0.0,0.0,0.0,0
48666,1469910767267,,,,,,,0.03,0.06,0.99,-3.1,0.3,-0.3,700,0,,,,,,,,,,,,,,,,,
48686,1469910767287,,,,,,,0.03,0.06,1.0,-3.1,0.2,-0.2,700,0,,,,,,,,,,,,,,,,,
48706,1469910767308,,,,,,,0.03,0.06,0.99,-3.1,0.2,-0.2,680,0,,,,,,,,,,,,,,,,,
48726,1469910767328,,,,,,,0.03,0.06,0.99,-3.1,0.1,-0.3,680,0,,,,,,,,,,,,,,,,,
48746,1469910767348,,,,10,,,0.03,0.06,0.99,-3.1,0.1,-0.2,700,0,0.0,0,39.536591,-122.332138,0.0,0.0,287.5,9,3,1.5,0,0.0,-1,0.0,,0.0,0
48766,1469910767368,,,,,,,0.03,0.06,0.99,-3.1,0.1,-0.2,700,0,,,,,,,,,,,,,,,,,
48786,1469910767388,,,,,,,0.03,0.06,0.99,-3.0,0.2,-0.3,720,0,,,,,,,,,,,,,,,,,
48806,1469910767408,,,,,,,0.03,0.06,0.99,-3.1,0.3,-0.3,720,0,,,,,,,,,,,,,,,,,
48826,1469910767428,,,,,,,0.03,0.06,0.99,-3.1,0.3,-0.2,700,0,,,,,,,,,,,,,,,,,
48846,1469910767448,0,210.9,190.6,10,191.1,,0.04,0.06,0.99,-3.1,0.2,-0.2,700,0,0.0,0,39.536591,-122.332138,0.0,0.0,287.5,9,3,1.5,0,0.0,-1,0.0,0.0,0.0,0
48866,1469910767468,,,,,,,0.03,0.06,0.99,-3.0,0.1,-0.3,700,0,,,,,,,,,,,,,,,,,
48886,1469910767488,,,,,,,0.03,0.06,0.99,-3.0,0.1,-0.1,680,0,,,,,,,,,,,,,,,,,
48906,1469910767607,,,,,,,0.04,0.06,0.99,-3.0,0.1,-0.1,700,0,,,,,,,,,,,,,,,,,
48926,1469910767627,,,,,,,0.04,0.06,0.99,-3.0,-0.0,-0.2,700,0,,,,,,,,,,,,,,,,,
48946,1469910767647,,,,9,,,0.04,0.07,0.99,-3.1,0.1,-0.2,700,0,0.0,0,39.536591,-122.332138,0.0,0.0,287.5,9,3,1.5,0,0.0,-1,0.0,,0.0,0
48966,1469910767667,,,,,,,0.04,0.07,0.99,-3.1,0.2,-0.0,720,0,,,,,,,,,,,,,,,,,
48986,1469910767687,,,,,,,0.03,0.07,0.99,-3.1,0.0,-0.1,700,0,,,,,,,,,,,,,,,,,
49006,1469910767707,,,,,,,0.03,0.07,0.99,-3.0,0.0,-0.2,700,0,,,,,,,,,,,,,,,,,
49026,1469910767727,,,,,,,0.04,0.08,0.99,-3.1,-0.1,-0.1,700,0,,,,,,,,,,,,,,,,,
49046,1469910767747,0,210.3,190.1,11,190.4,13.43,0.04,0.07,0.99,-3.1,0.2,-0.0,700,0,0.0,0,39.536591,-122.332138,0.0,0.0,287.5,9,3,1.5,0,0.0,-1,0.0,0.0,0.0,0
49066,1469910767767,,,,,,,0.04,0.07,0.99,-3.1,0.3,-0.2,720,0,,,,,,,,,,,,,,,,,
49086,1469910767787,,,,,,,0.04,0.07,0.99,-3.1,0.4,-0.2,720,0,,,,,,,,,,,,,,,,,
49106,1469910767705,,,,,,,0.04,0.06,0.99,-3.1,0.4,-0.1,720,0,,,,,,,,,,,,,,,,,
49126,1469910767725,,,,,,,0.04,0.07,0.98,-3.1,0.3,-0.1,740,0,,,,,,,,,,,,,,,,,
49146,1469910767745,,,,10,,,0.03,0.06,0.98,-3.0,0.3,-0.2,700,0,0.0,0,39.536591,-122.332138,0.0,0.0,287.5,9,3,1.5,0,0.0,-1,0.0,,0.0,0
49166,1469910767765,,,,,,,0.04,0.06,0.98,-3.0,0.3,-0.2,700,0,,,,,,,,,,,,,,,,,
49186,1469910767785,,,,,,,0.04,0.07,0.99,-3.0,0.3,-0.1,700,0,,,,,,,,,,,,,,,,,
49206,1469910767808,,,,,,,0.04,0.06,0.99,-3.0,0.3,-0.2,700,0,,,,,,,,,,,,,,,,,
49226,1469910767828,,,,,,,0.04,0.06,0.99,-3.0,0.3,-0.2,700,0,,,,,,,,,,,,,,,,,
49246,1469910767848,0,210.4,190.1,10,190.4,,0.05,0.06,0.99,-3.0,0.2,-0.1,700,0,0.0,0,39.536591,-122.332138,0.0,0.0,287.5,9,3,1.5,0,0.0,-1,0.0,0.0,0.0,0
49266,1469910767868,,,,,,,0.04,0.06,0.99,-3.0,0.1,-0.1,700,0,,,,,,,,,,,,,,,,,
49286,1469910767888,,,,,,,0.04,0.06,0.98,-2.9,0.1,-0.2,720,0,,,,,,,,,,,,,,,,,
49306,1469910767902,,,,,,,0.05,0.06,0.99,-3.0,0.1,-0.1,720,0,,,,,,,,,,,,,,,,,
49326,1469910767922,,,,,,,0.04,0.06,0.99,-2.9,0.3,-0.0,700,0,,,,,,,,,,,,,,,,,
49346,1469910767942,,,,10,,,0.03,0.06,1.0,-2.9,0.3,-0.1,700,0,0.0,0,39.536591,-122.332138,0.0,0.0,287.5,9,3,1.5,0,0.0,-1,0.0,,0.0,0
49366,1469910767962,,,,,,,0.02,0.06,0.99,-2.9,0.2,-0.1,700,0,,,,,,,,,,,,,,,,,
49386,1469910767982,,,,,,,0.03,0.07,0.99,-3.0,0.2,-0.0,700,0,,,,,,,,,,,,,,,,,
49406,1469910768008,,,,,,,0.03,0.07,0.99,-3.0,0.0,-0.0,720,0,,,,,,,,,,,,,,,,,
49426,1469910768028,,,,,,,0.04,0.06,0.99,-3.0,-0.0,-0.2,700,0,,,,,,,,,,,,,,,,,
49446,1469910768048,0,210.8,190.6,10,190.6,,0.04,0.07,0.99,-3.0,0.1,-0.1,700,0,0.0,0,39.536591,-122.332138,0.0,0.0,287.5,9,3,1.5,0,0.0,-1,0.0,0.0,0.0,0
49466,1469910768068,,,,,,,0.04,0.06,0.99,-3.0,0.1,-0.0,720,0,,,,,,,,,,,,,,,,,
49486,1469910768088,,,,,,,0.04,0.06,0.99,-3.0,0.1,-0.1,700,0,,,,,,,,,,,,,,,,,
49506,1469910768108,,,,,,,0.03,0.06,0.99,-2.9,0.0,-0.2,700,0,,,,,,,,,,,,,,,,,
49526,1469910768128,,,,,,,0.04,0.07,0.99,-3.0,0.0,-0.1,700,0,,,,,,,,,,,,,,,,,
49546,1469910768148,,,,11,,,0.04,0.06,0.99,-3.0,0.1,-0.1,700,0,0.0,0,39.536591,-122.332138,0.0,0.0,287.5,9,3,1.5,0,0.0,-1,0.0,,0.0,0
49566,1469910768168,,,,,,,0.03,0.06,0.99,-2.9,0.1,-0.3,700,0,,,,,,,,,,,,,,,,,
49586,1469910768188,,,,,,,0.04,0.07,0.99,-2.9,0.3,-0.3,700,0,,,,,,,,,,,,,,,,,
49606,1469910768208,,,,,,,0.03,0.07,0.99,-3.0,0.3,-0.2,700,0,,,,,,,,,,,,,,,,,
49626,1469910768228,,,,,,,0.03,0.06,0.99,-2.9,0.3,-0.2,720,0,,,,,,,,,,,,,,,,,
49646,1469910768248,0,210.8,190.4,10,190.4,,0.02,0.06,0.99,-2.9,0.1,-0.3,720,0,0.0,0,39.536591,-122.332138,0.0,0.0,287.5,9,3,1.5,0,0.0,-1,0.0,0.0,0.0,0
49666,1469910768268,,,,,,,0.02,0.06,0.98,-2.9,0.1,-0.2,700,0,,,,,,,,,,,,,,,,,
49686,1469910768288,,,,,,,0.03,0.07,0.99,-3.0,0.2,-0.2,700,0,,,,,,,,,,,,,,,,,
49706,1469910768407,,,,,,,0.02,0.07,0.99,-2.9,0.1,-0.3,700,0,,,,,,,,,,,,,,,,,
49726,1469910768427,,,,,,,0.03,0.07,0.99,-3.0,0.3,-0.3,700,0,,,,,,,,,,,,,,,,,
49746,1469910768447,,,,10,,,0.03,0.07,0.99,-3.0,0.3,-0.2,700,0,0.0,0,39.536591,-122.332138,0.0,0.0,287.5,9,3,1.5,0,0.0,-1,0.0,,0.0,0
49766,1469910768467,,,,,,,0.02,0.07,0.99,-3.0,0.2,-0.2,720,0,,,,,,,,,,,,,,,,,
49786,1469910768487,,,,,,,0.02,0.07,0.99,-2.9,0.1,-0.3,740,0,,,,,,,,,,,,,,,,,
49806,1469910768507,,,,,,,0.03,0.07,0.99,-2.9,0.1,-0.1,740,0,,,,,,,,,,,,,,,,,
49826,1469910768527,,,,,,,0.03,0.07,0.99,-3.0,0.3,-0.1,720,0,,,,,,,,,,,,,,,,,
49846,1469910768547,0,210.4,190.0,11,189.9,,0.03,0.07,0.99,-2.9,0.3,-0.2,700,0,0.0,0,39.536591,-122.332138,0.0,0.0,287.5,9,3,1.5,0,0.0,-1,0.0,0.0,0.0,0
49866,1469910768567,,,,,,,0.02,0.06,0.99,-3.0,0.5,-0.1,700,0,,,,,,,,,,,,,,,,,
49886,1469910768587,,,,,,,0.03,0.07,0.99,-3.0,0.3,-0.0,700,0,,,,,,,,,,,,,,,,,
49906,1469910768509,,,,,,,0.03,0.07,0.99,-3.0,0.3,-0.1,720,0,,,,,,,,,,,,,,,,,
49926,1469910768529,,,,,,,0.03,0.06,0.99,-3.0,0.2,-0.2,720,0,,,,,,,,,,,,,,,,,
49946,1469910768549,,,,9,,,0.03,0.07,0.99,-3.0,0.3,-0.1,720,0,0.0,0,39.536591,-122.332138,0.0,0.0,287.5,9,3,1.5,0,0.0,-1,0.0,,0.0,0
49966,1469910768569,,,,,,,0.04,0.07,0.99,-3.0,0.5,-0.1,720,0,,,,,,,,,,,,,,,,,
49986,1469910768589,,,,,,,0.04,0.07,1.0,-3.0,0.4,-0.2,720,0,,,,,,,,,,,,,,,,,
50006,1469910768609,,,,,,,0.03,0.07,1.0,-3.0,0.5,-0.2,720,0,,,,,,,,,,,,,,,,,
50026,1469910768629,,,,,,,0.03,0.08,1.0,-3.0,0.2,-0.2,700,0,,,,,,,,,,,,,,,,,
50046,1469910768649,0,209.8,190.1,11,189.7,13.43,0.03,0.07,1.0,-3.0,0.3,-0.2,700,0,0.0,0,39.536591,-122.332138,0.0,0.0,287.5,9,3,1.5,0,0.0,-1,0.0,0.0,0.0,0
50066,1469910768669,,,,,,,0.02,0.07,0.99,-3.0,0.2,-0.3,720,0,,,,,,,,,,,,,,,,,
50086,1469910768689,,,,,,,0.02,0.06,0.99,-3.0,0.3,-0.3,720,0,,,,,,,,,,,,,,,,,
50106,1469910768707,,,,,,,0.02,0.06,0.99,-3.0,0.4,-0.2,720,0,,,,,,,,,,,,,,,,,
50126,1469910768727,,,,,,,0.02,0.06,1.0,-2.9,0.2,-0.2,720,0,,,,,,,,,,,,,,,,,
50146,1469910768747,,,,10,,,0.01,0.06,0.99,-2.9,0.2,-0.3,720,0,0.0,0,39.536591,-122.332138,0.0,0.0,287.5,9,3,1.5,0,0.0,-1,0.0,,0.0,0
50166,1469910768767,,,,,,,0.02,0.07,0.99,-2.9,0.2,-0.2,720,0,,,,,,,,,,,,,,,,,
50186,1469910768787,,,,,,,0.02,0.07,0.99,-3.0,0.3,-0.2,700,0,,,,,,,,,,,,,,,,,
50206,1469910768808,,,,,,,0.02,0.07,0.99,-2.9,0.2,-0.3,700,0,,,,,,,,,,,,,,,,,
50226,1469910768828,,,,,,,0.02,0.07,0.99,-2.9,0.4,-0.3,700,0,,,,,,,,,,,,,,,,,
50246,1469910768848,0,210.6,189.4,11,188.9,,0.02,0.07,0.99,-2.9,0.2,-0.2,720,0,0.0,0,39.536591,-122.332138,0.0,0.0,287.5,9,3,1.5,0,0.0,-1,0.0,0.0,0.0,0
50266,1469910768868,,,,,,,0.02,0.06,0.98,-2.9,0.1,-0.2,720,0,,,,,,,,,,,,,,,,,
50286,1469910768888,,,,,,,0.02,0.06,0.98,-2.8,0.1,-0.3,720,0,,,,,,,,,,,,,,,,,
50306,1469910768903,,,,,,,0.03,0.06,0.99,-2.9,0.2,-0.2,720,0,,,,,,,,,,,,,,,,,
50326,1469910768923,,,,,,,0.03,0.06,0.99,-2.9,0.3,-0.1,720,0,,,,,,,,,,,,,,,,,
50346,1469910768943,,,,11,,,0.03,0.06,0.99,-2.9,0.3,-0.2,700,0,0.0,0,39.536591,-122.332138,0.0,0.0,287.5,9,3,1.5,0,0.0,-1,0.0,,0.0,0
50366,1469910768963,,,,,,,0.02,0.05,0.99,-2.9,0.2,-0.3,700,0,,,,,,,,,,,,,,,,,
50386,1469910768983,,,,,,,0.03,0.06,0.98,-2.9,0.2,-0.2,700,0,,,,,,,,,,,,,,,,,
50406,1469910769009,,,,,,,0.03,0.06,0.98,-2.9,0.2,-0.1,720,0,,,,,,,,,,,,,,,,,
50426,1469910769029,,,,,,,0.03,0.06,0.98,-2.9,0.2,-0.2,720,0,,,,,,,,,,,,,,,,,
50446,1469910769049,0,210.5,188.9,11,188.3,,0.03,0.06,0.98,-2.9,0.3,-0.2,720,0,0.0,0,39.536591,-122.332138,0.0,0.0,287.5,9,3,1.5,0,0.0,-1,0.0,0.0,0.0,0
50466,1469910769069,,,,,,,0.03,0.06,0.99,-2.9,0.3,-0.1,720,0,,,,,,,,,,,,,,,,,
50486,1469910769089,,,,,,,0.03,0.06,0.98,-2.9,0.2,-0.1,720,0,,,,,,,,,,,,,,,,,
50506,1469910769208,,,,,,,0.03,0.06,0.98,-2.8,0.0,-0.2,700,0,,,,,,,,,,,,,,,,,
50526,1469910769228,,,,,,,0.03,0.06,0.99,-2.9,0.2,-0.2,700,0,,,,,,,,,,,,,,,,,
50546,1469910769248,,,,10,,,0.03,0.06,0.99,-2.9,0.2,-0.1,700,0,0.0,0,39.536591,-122.332138,0.0,0.0,287.5,9,3,1.5,0,0.0,-1,0.0,,0.0,0
50566,1469910769268,,,,,,,0.03,0.05,0.99,-2.8,0.1,-0.3,720,0,,,,,,,,,,,,,,,,,
50586,1469910769288,,,,,,,0.02,0.06,0.99,-2.9,0.2,-0.2,720,0,,,,,,,,,,,,,,,,,
50606,1469910769308,,,,,,,0.02,0.06,0.98,-2.9,0.0,-0.1,720,0,,,,,,,,,,,,,,,,,
50626,1469910769328,,,,,,,0.03,0.07,0.98,-2.9,-0.1,-0.2,720,0,,,,,,,,,,,,,,,,,
50646,1469910769348,0,210.6,188.8,10,188.1,,0.03,0.06,0.98,-2.8,-0.1,-0.3,720,0,0.0,0,39.536591,-122.332138,0.0,0.0,287.5,9,3,1.5,0,0.0,-1,0.0,0.0,0.0,0
50666,1469910769368,,,,,,,0.03,0.06,0.98,-2.8,0.1,-0.3,720,0,,,,,,,,,,,,,,,,,
50686,1469910769388,,,,,,,0.03,0.06,0.98,-2.9,0.2,-0.2,700,0,,,,,,,,,,,,,,,,,
50706,1469910769308,,,,,,,0.03,0.05,0.98,-2.8,0.2,-0.2,700,0,,,,,,,,,,,,,,,,,
50726,1469910769328,,,,,,,0.02,0.05,0.98,-2.8,0.1,-0.3,700,0,,,,,,,,,,,,,,,,,
50746,1469910769348,,,,10,,,0.02,0.06,0.98,-2.9,0.1,-0.2,720,0,0.0,0,39.536591,-122.332138,0.0,0.0,287.5,9,3,1.5,0,0.0,-1,0.0,,0.0,0
50766,1469910769368,,,,,,,0.03,0.06,0.97,-2.9,0.2,-0.2,720,0,,,,,,,,,,,,,,,,,
50786,1469910769388,,,,,,,0.03,0.05,0.97,-2.9,0.1,-0.3,720,0,,,,,,,,,,,,,,,,,
50806,1469910769408,,,,,,,0.03,0.05,0.98,-2.9,0.3,-0.3,720,0,,,,,,,,,,,,,,,,,
50826,1469910769428,,,,,,,0.03,0.05,0.98,-2.9,0.2,-0.1,720,0,,,,,,,,,,,,,,,,,
50846,1469910769448,0,209.9,189.9,10,188.9,,0.03,0.05,0.97,-2.9,0.1,-0.1,700,0,0.0,0,39.536591,-122.332138,0.0,0.0,287.5,9,3,1.5,0,0.0,-1,0.0,0.0,0.0,0
50866,1469910769468,,,,,,,0.02,0.05,0.98,-2.9,0.1,-0.2,700,0,,,,,,,,,,,,,,,,,
50886,1469910769488,,,,,,,0.02,0.05,0.98,-2.9,0.2,-0.1,700,0,,,,,,,,,,,,,,,,,
50906,1469910769507,,,,,,,0.03,0.05,0.99,-3.0,0.4,-0.1,720,0,,,,,,,,,,,,,,,,,
50926,1469910769527,,,,,,,0.02,0.05,0.99,-2.9,0.4,-0.2,720,0,,,,,,,,,,,,,,,,,
50946,1469910769547,,,,11,,,0.02,0.06,0.98,-2.9,0.4,-0.2,720,0,0.0,0,39.536591,-122.332138,0.0,0.0,287.5,9,3,1.5,0,0.0,-1,0.0,,0.0,0
50966,1469910769567,,,,,,,0.02,0.06,0.98,-3.0,0.3,-0.1,720,0,,,,,,,,,,,,,,,,,
50986,1469910769587,,,,,,,0.02,0.06,0.98,-3.0,0.2,-0.1,720,0,,,,,,,,,,,,,,,,,
51006,1469910769607,,,,,,,0.02,0.06,0.98,-3.0,0.2,-0.2,700,0,,,,,,,,,,,,,,,,,
51026,1469910769627,,,,,,,0.03,0.06,0.98,-3.0,0.3,-0.1,700,0,,,,,,,,,,,,,,,,,
51046,1469910769647,0,210.6,188.8,10,187.7,13.47,0.03,0.05,0.98,-3.0,0.3,-0.1,700,0,0.0,0,39.536591,-122.332138,0.0,0.0,287.5,9,3,1.5,0,0.0,-1,0.0,0.0,0.0,0
51066,1469910769667,,,,,,,0.03,0.06,0.98,-3.0,0.2,-0.1,720,0,,,,,,,,,,,,,,,,,
51086,1469910769687,,,,,,,0.02,0.06,0.98,-3.0,0.2,-0.2,720,0,,,,,,,,,,,,,,,,,
51106,1469910769708,,,,,,,0.03,0.07,0.98,-3.0,-0.0,-0.1,720,0,,,,,,,,,,,,,,,,,
51126,1469910769728,,,,,,,0.03,0.07,0.99,-3.0,0.1,-0.1,740,0,,,,,,,,,,,,,,,,,
51146,1469910769748,,,,10,,,0.03,0.07,0.99,-3.0,0.1,-0.2,720,0,0.0,0,39.536591,-122.332138,0.0,0.0,287.5,9,3,1.5,0,0.0,-1,0.0,,0.0,0
51166,1469910769768,,,,,,,0.02,0.07,0.99,-3.0,0.1,-0.3,720,0,,,,,,,,,,,,,,,,,
51186,1469910769788,,,,,,,0.02,0.06,0.99,-3.0,0.2,-0.2,700,0,,,,,,,,,,,,,,,,,
51206,1469910769808,,,,,,,0.02,0.06,0.98,-3.0,0.2,-0.2,700,0,,,,,,,,,,,,,,,,,
51226,1469910769828,,,,,,,0.02,0.06,0.98,-3.0,0.1,-0.3,720,0,,,,,,,,,,,,,,,,,
51246,1469910769848,0,209.6,189.8,9,188.6,,0.02,0.06,0.99,-3.0,0.3,-0.2,720,0,0.0,0,39.536591,-122.332138,0.0,0.0,287.5,9,3,1.5,0,0.0,-1,0.0,0.0,0.0,0
51266,1469910769868,,,,,,,0.03,0.06,0.99,-3.0,0.4,-0.2,720,0,,,,,,,,,,,,,,,,,
51286,1469910769888,,,,,,,0.02,0.06,0.99,-2.9,0.4,-0.3,720,0,,,,,,,,,,,,,,,,,
51306,1469910770001,,,,,,,0.02,0.06,0.99,-3.0,0.4,-0.3,720,0,,,,,,,,,,,,,,,,,
51326,1469910770021,,,,,,,0.02,0.06,0.98,-3.0,0.3,-0.2,720,0,,,,,,,,,,,,,,,,,
51346,1469910770041,,,,10,,,0.03,0.07,0.98,-3.0,0.2,-0.2,700,0,0.0,0,39.536591,-122.332138,0.0,0.0,287.5,9,3,1.5,0,0.0,-1,0.0,,0.0,0
51366,1469910770061,,,,,,,0.03,0.07,0.98,-3.0,0.2,-0.3,700,0,,,,,,,,,,,,,,,,,
51386,1469910770081,,,,,,,0.03,0.06,0.98,-3.0,0.4,-0.2,700,0,,,,,,,,,,,,,,,,,
51406,1469910770101,,,,,,,0.03,0.06,0.99,-3.0,0.4,-0.1,720,0,,,,,,,,,,,,,,,,,
51426,1469910770121,,,,,,,0.02,0.06,0.99,-3.0,0.3,-0.1,720,0,,,,,,,,,,,,,,,,,
51446,1469910770141,0,210.7,188.7,10,187.3,,0.02,0.06,0.99,-2.9,0.3,-0.2,740,0,0.0,0,39.536591,-122.332138,0.0,0.0,287.5,9,3,1.5,0,0.0,-1,0.0,0.0,0.0,0
51466,1469910770161,,,,,,,0.03,0.07,0.99,-3.0,0.2,-0.1,740,0,,,,,,,,,,,,,,,,,
51486,1469910770181,,,,,,,0.03,0.07,0.99,-3.0,0.5,-0.1,720,0,,,,,,,,,,,,,,,,,
51506,1469910770109,,,,,,,0.03,0.07,0.99,-3.0,0.5,-0.2,700,0,,,,,,,,,,,,,,,,,
51526,1469910770129,,,,,,,0.03,0.06,0.99,-3.0,0.6,-0.2,700,0,,,,,,,,,,,,,,,,,
51546,1469910770149,,,,11,,,0.03,0.07,0.99,-3.0,0.5,-0.1,700,0,0.0,0,39.536591,-122.332138,0.0,0.0,287.5,9,3,1.5,0,0.0,-1,0.0,,0.0,0
51566,1469910770169,,,,,,,0.04,0.07,0.99,-3.0,0.4,-0.1,720,0,,,,,,,,,,,,,,,,,
51586,1469910770189,,,,,,,0.04,0.06,0.99,-2.9,0.4,-0.2,720,0,,,,,,,,,,,,,,,,,
51606,1469910770208,,,,,,,0.04,0.06,0.99,-3.0,0.5,-0.2,720,0,,,,,,,,,,,,,,,,,
51626,1469910770228,,,,,,,0.04,0.06,0.99,-3.0,0.6,-0.1,740,0,,,,,,,,,,,,,,,,,
51646,1469910770248,0,209.9,189.5,10,188.0,,0.03,0.06,1.0,-2.9,0.4,-0.1,720,0,0.0,0,39.536591,-122.332138,0.0,0.0,287.5,9,3,1.5,0,0.0,-1,0.0,0.0,0.0,0
51666,1469910770268,,,,,,,0.03,0.06,0.99,-2.9,0.3,-0.2,720,0,,,,,,,,,,,,,,,,,
51686,1469910770288,,,,,,,0.03,0.07,0.99,-3.0,0.3,-0.1,700,0,,,,,,,,,,,,,,,,,
51706,1469910770308,,,,,,,0.03,0.07,0.99,-3.0,0.4,-0.1,700,0,,,,,,,,,,,,,,,,,
51726,1469910770328,,,,,,,0.03,0.06,0.99,-2.9,0.4,-0.3,720,0,,,,,,,,,,,,,,,,,
51746,1469910770348,,,,12,,,0.03,0.06,0.99,-2.9,0.4,-0.3,720,0,0.0,0,39.536591,-122.332138,0.0,0.0,287.5,9,3,1.5,0,0.0,-1,0.0,,0.0,0
51766,1469910770368,,,,,,,0.02,0.06,0.99,-2.9,0.3,-0.1,720,0,,,,,,,,,,,,,,,,,
51786,1469910770388,,,,,,,0.03,0.06,0.98,-2.9,0.2,-0.1,740,0,,,,,,,,,,,,,,,,,
51806,1469910770408,,,,,,,0.02,0.06,0.98,-2.9,0.1,-0.3,720,0,,,,,,,,,,,,,,,,,
51826,1469910770428,,,,,,,0.03,0.05,0.98,-2.9,0.2,-0.3,720,0,,,,,,,,,,,,,,,,,
51846,1469910770448,0,209.6,189.5,10,188.1,,0.03,0.05,0.99,-2.9,0.3,-0.2,700,0,0.0,0,39.536591,-122.332138,0.0,0.0,287.5,9,3,1.5,0,0.0,-1,0.0,0.0,0.0,0
51866,1469910770468,,,,,,,0.03,0.05,0.98,-2.9,0.3,-0.2,700,0,,,,,,,,,,,,,,,,,
51886,1469910770488,,,,,,,0.02,0.05,0.98,-2.8,0.3,-0.3,700,0,,,,,,,,,,,,,,,,,
51906,1469910770508,,,,,,,0.02,0.06,0.99,-2.9,0.2,-0.2,720,0,,,,,,,,,,,,,,,,,
51926,1469910770528,,,,,,,0.03,0.06,0.99,-2.9,0.3,-0.2,720,0,,,,,,,,,,,,,,,,,
51946,1469910770548,,,,10,,,0.02,0.06,0.99,-2.9,0.2,-0.3,720,0,0.0,0,39.536591,-122.332138,0.0,0.0,287.5,9,3,1.5,0,0.0,-1,0.0,,0.0,0
51966,1469910770568,,,,,,,0.02,0.05,0.99,-2.9,0.4,-0.2,720,0,,,,,,,,,,,,,,,,,
51986,1469910770588,,,,,,,0.02,0.06,0.99,-3.0,0.2,-0.1,720,0,,,,,,,,,,,,,,,,,
52006,1469910770608,,,,,,,0.02,0.06,0.99,-2.9,0.1,-0.1,700,0,,,,,,,,,,,,,,,,,
52026,1469910770628,,,,,,,0.02,0.05,0.99,-2.9,0.0,-0.2,700,0,,,,,,,,,,,,,,,,,
52046,1469910770648,0,209.7,189.5,10,187.9,13.53,0.02,0.05,0.99,-2.9,0.2,-0.2,700,0,0.0,0,39.536591,-122.332138,0.0,0.0,287.5,9,3,1.5,0,0.0,-1,0.0,0.0,0.0,0
52066,1469910770668,,,,,,,0.02,0.06,1.0,-2.9,0.4,-0.1,720,0,,,,,,,,,,,,,,,,,
52086,1469910770688,,,,,,,0.02,0.06,1.0,-2.9,0.4,-0.2,720,0,,,,,,,,,,,,,,,,,
52106,1469910770807,,,,,,,0.01,0.05,0.99,-2.9,0.4,-0.2,720,0,,,,,,,,,,,,,,,,,
52126,1469910770827,,,,,,,0.01,0.06,0.99,-3.0,0.1,-0.1,740,0,,,,,,,,,,,,,,,,,
52146,1469910770847,,,,11,,,0.02,0.06,0.99,-3.0,0.2,-0.1,720,0,0.0,0,39.536591,-122.332138,0.0,0.0,287.5,9,3,1.5,0,0.0,-1,0.0,,0.0,0
52166,1469910770867,,,,,,,0.02,0.06,0.99,-2.9,0.1,-0.2,700,0,,,,,,,,,,,,,,,,,
52186,1469910770887,,,,,,,0.02,0.05,0.99,-3.0,0.3,-0.2,700,0,,,,,,,,,,,,,,,,,
52206,1469910770907,,,,,,,0.02,0.06,0.99,-3.0,0.2,-0.1,700,0,,,,,,,,,,,,,,,,,
52226,1469910770927,,,,,,,0.02,0.06,0.99,-3.0,0.2,-0.1,720,0,,,,,,,,,,,,,,,,,
52246,1469910770947,0,210.0,188.8,10,187.1,,0.02,0.05,0.99,-2.9,0.1,-0.2,720,0,0.0,0,39.536591,-122.332138,0.0,0.0,287.5,9,3,1.5,0,0.0,-1,0.0,0.0,0.0,0
52266,1469910770967,,,,,,,0.03,0.06,0.99,-2.9,0.1,-0.1,720,0,,,,,,,,,,,,,,,,,
52286,1469910770987,,,,,,,0.03,0.07,0.99,-3.0,0.3,-0.1,740,0,,,,,,,,,,,,,,,,,
52306,1469910770902,,,,,,,0.03,0.07,0.99,-3.0,0.1,-0.2,720,0,,,,,,,,,,,,,,,,,
52326,1469910770922,,,,,,,0.02,0.07,0.99,-3.0,0.2,-0.3,720,0,,,,,,,,,,,,,,,,,
52346,1469910770942,,,,11,,,0.02,0.07,0.99,-3.0,0.1,-0.1,700,0,0.0,0,39.536591,-122.332138,0.0,0.0,287.5,9,3,1.5,0,0.0,-1,0.0,,0.0,0
52366,1469910770962,,,,,,,0.02,0.07,0.99,-3.0,0.1,-0.2,700,0,,,,,,,,,,,,,,,,,
52386,1469910770982,,,,,,,0.02,0.06,0.99,-3.0,0.2,-0.3,720,0,,,,,,,,,,,,,,,,,
52406,1469910771001,,,,,,,0.03,0.06,0.99,-3.0,0.4,-0.3,720,0,,,,,,,,,,,,,,,,,
52426,1469910771021,,,,,,,0.02,0.06,0.98,-3.0,0.5,-0.2,720,0,,,,,,,,,,,,,,,,,
52446,1469910771041,0,209.8,188.3,11,187.5,,0.02,0.06,0.99,-2.9,0.4,-0.3,720,0,0.0,0,39.536591,-122.332138,0.0,0.0,287.5,9,3,1.5,0,0.0,-1,0.0,0.0,0.0,0
52466,1469910771061,,,,,,,0.02,0.05,0.99,-2.9,0.4,-0.3,720,0,,,,,,,,,,,,,,,,,
52486,1469910771081,,,,,,,0.02,0.06,0.98,-3.0,0.4,-0.2,720,0,,,,,,,,,,,,,,,,,
52506,1469910771108,,,,,,,0.03,0.06,0.99,-3.0,0.4,-0.2,700,0,,,,,,,,,,,,,,,,,
52526,1469910771128,,,,,,,0.03,0.06,0.99,-3.0,0.4,-0.3,700,0,,,,,,,,,,,,,,,,,
52546,1469910771148,,,,10,,,0.02,0.06,0.99,-3.0,0.4,-0.3,700,0,0.0,0,39.536591,-122.332138,0.0,0.0,287.5,9,3,1.5,0,0.0,-1,0.0,,0.0,0
52566,1469910771168,,,,,,,0.02,0.06,0.99,-3.0,0.3,-0.2,720,0,,,,,,,,,,,,,,,,,
52586,1469910771188,,,,,,,0.02,0.06,0.98,-2.9,0.1,-0.2,720,0,,,,,,,,,,,,,,,,,
52606,1469910771208,,,,,,,0.01,0.06,0.98,-2.9,-0.0,-0.3,740,0,,,,,,,,,,,,,,,,,
52626,1469910771228,,,,,,,0.02,0.06,0.98,-2.9,0.1,-0.2,740,0,,,,,,,,,,,,,,,,,
52646,1469910771248,0,210.6,189.1,10,186.2,,0.02,0.07,0.98,-2.9,0.2,-0.1,720,0,0.0,0,39.536591,-122.332138,0.0,0.0,287.5,9,3,1.5,0,0.0,-1,0.0,0.0,0.0,0
52666,1469910771268,,,,,,,0.02,0.06,0.99,-2.9,0.0,-0.2,700,0,,,,,,,,,,,,,,,,,
52686,1469910771288,,,,,,,0.01,0.06,0.99,-2.9,0.1,-0.2,700,0,,,,,,,,,,,,,,,,,
52706,1469910771308,,,,,,,0.01,0.07,0.98,-2.9,0.1,-0.1,700,0,,,,,,,,,,,,,,,,,
52726,1469910771328,,,,,,,0.02,0.07,0.98,-2.9,0.1,-0.0,720,0,,,,,,,,,,,,,,,,,
52746,1469910771348,,,,10,,,0.02,0.06,0.99,-2.9,0.1,-0.1,720,0,0.0,0,39.536591,-122.332138,0.0,0.0,287.5,9,3,1.5,0,0.0,-1,0.0,,0.0,0
52766,1469910771368,,,,,,,0.02,0.06,0.98,-2.9,0.2,-0.1,720,0,,,,,,,,,,,,,,,,,
52786,1469910771388,,,,,,,0.02,0.06,0.99,-2.9,0.1,0.0,740,0,,,,,,,,,,,,,,,,,
52806,1469910771409,,,,,,,0.02,0.06,0.99,-2.9,0.1,-0.0,720,0,,,,,,,,,,,,,,,,,
52826,1469910771429,,,,,,,0.02,0.06,0.98,-2.9,0.1,-0.2,700,0,,,,,,,,,,,,,,,,,
52846,1469910771449,0,210.3,188.9,9,186.6,,0.03,0.06,0.99,-2.9,0.3,-0.1,700,0,0.0,0,39.536591,-122.332138,0.0,0.0,287.5,9,3,1.5,0,0.0,-1,0.0,0.0,0.0,0
52866,1469910771469,,,,,,,0.03,0.06,0.99,-3.0,0.3,-0.0,700,0,,,,,,,,,,,,,,,,,
52886,1469910771489,,,,,,,0.02,0.06,0.99,-3.0,0.1,-0.1,720,0,,,,,,,,,,,,,,,,,
52906,1469910771608,,,,,,,0.02,0.06,0.99,-3.0,0.0,-0.2,720,0,,,,,,,,,,,,,,,,,
52926,1469910771628,,,,,,,0.02,0.07,0.98,-3.0,-0.0,-0.1,720,0,,,,,,,,,,,,,,,,,
52946,1469910771648,,,,10,,,0.03,0.07,0.99,-3.0,0.1,-0.1,740,0,0.0,0,39.536591,-122.332138,0.0,0.0,287.5,9,3,1.5,0,0.0,-1,0.0,,0.0,0
52966,1469910771668,,,,,,,0.03,0.07,0.99,-2.9,0.0,-0.3,740,0,,,,,,,,,,,,,,,,,
52986,1469910771688,,,,,,,0.02,0.06,0.99,-2.9,0.2,-0.3,740,0,,,,,,,,,,,,,,,,,
53006,1469910771708,,,,,,,0.02,0.06,0.98,-3.0,-0.1,-0.2,720,0,,,,,,,,,,,,,,,,,
53026,1469910771728,,,,,,,0.02,0.06,0.98,-2.9,0.0,-0.2,700,0,,,,,,,,,,,,,,,,,
53046,1469910771748,0,210.5,188.8,11,185.9,13.58,0.02,0.06,0.98,-2.9,-0.1,-0.3,720,0,0.0,0,39.536591,-122.332138,0.0,0.0,287.5,9,3,1.5,0,0.0,-1,0.0,0.0,0.0,0
53066,1469910771768,,,,,,,0.02,0.06,0.98,-2.9,0.1,-0.3,720,0,,,,,,,,,,,,,,,,,
53086,1469910771788,,,,,,,0.02,0.05,0.98,-2.9,0.1,-0.2,720,0,,,,,,,,,,,,,,,,,
53106,1469910771708,,,,,,,0.02,0.06,0.98,-2.9,0.0,-0.2,740,0,,,,,,,,,,,,,,,,,
53126,1469910771728,,,,,,,0.02,0.06,0.98,-2.8,-0.1,-0.4,740,0,,,,,,,,,,,,,,,,,
53146,1469910771748,,,,10,,,0.02,0.06,0.98,-2.9,0.0,-0.3,740,0,0.0,0,39.536591,-122.332138,0.0,0.0,287.5,9,3,1.5,0,0.0,-1,0.0,,0.0,0
53166,1469910771768,,,,,,,0.03,0.06,0.98,-2.9,0.2,-0.2,700,0,,,,,,,,,,,,,,,,,
53186,1469910771788,,,,,,,0.03,0.06,0.98,-2.9,0.2,-0.3,700,0,,,,,,,,,,,,,,,,,
53206,1469910771808,,,,,,,0.02,0.06,0.98,-2.9,0.2,-0.3,700,0,,,,,,,,,,,,,,,,,
53226,1469910771828,,,,,,,0.02,0.06,0.98,-2.9,0.1,-0.1,720,0,,,,,,,,,,,,,,,,,
53246,1469910771848,0,210.0,188.1,9,186.6,,0.02,0.06,0.97,-2.9,-0.0,-0.1,720,0,0.0,0,39.536591,-122.332138,0.0,0.0,287.5,9,3,1.5,0,0.0,-1,0.0,0.0,0.0,0
53266,1469910771868,,,,,,,0.02,0.06,0.97,-2.9,-0.0,-0.3,740,0,,,,,,,,,,,,,,,,,
53286,1469910771888,,,,,,,0.03,0.05,0.97,-2.9,0.2,-0.2,740,0,,,,,,,,,,,,,,,,,
53306,1469910771902,,,,,,,0.03,0.05,0.97,-2.9,0.2,-0.1,720,0,,,,,,,,,,,,,,,,,
53326,1469910771922,,,,,,,0.02,0.05,0.98,-2.9,0.1,-0.1,700,0,,,,,,,,,,,,,,,,,
53346,1469910771942,,,,11,,,0.01,0.05,0.98,-2.8,-0.0,-0.2,700,0,0.0,0,39.536591,-122.332138,0.0,0.0,287.5,9,3,1.5,0,0.0,-1,0.0,,0.0,0
53366,1469910771962,,,,,,,0.02,0.06,0.98,-2.8,0.0,-0.1,700,0,,,,,,,,,,,,,,,,,
53386,1469910771982,,,,,,,0.03,0.06,0.98,-2.9,0.1,-0.1,720,0,,,,,,,,,,,,,,,,,
53406,1469910772008,,,,,,,0.03,0.06,0.98,-2.9,0.1,-0.2,720,0,,,,,,,,,,,,,,,,,
53426,1469910772028,,,,,,,0.03,0.05,0.98,-2.9,0.1,-0.3,720,0,,,,,,,,,,,,,,,,,
53446,1469910772048,0,210.0,188.1,10,186.5,,0.02,0.06,0.98,-2.9,-0.0,-0.1,740,0,0.0,0,39.536591,-122.332138,0.0,0.0,287.5,9,3,1.5,0,0.0,-1,0.0,0.0,0.0,0
53466,1469910772068,,,,,,,0.03,0.06,0.98,-2.9,-0.1,-0.1,720,0,,,,,,,,,,,,,,,,,
53486,1469910772088,,,,,,,0.02,0.06,0.97,-2.9,-0.1,-0.2,700,0,,,,,,,,,,,,,,,,,
53506,1469910772108,,,,,,,0.02,0.05,0.98,-2.9,0.1,-0.1,700,0,,,,,,,,,,,,,,,,,
53526,1469910772128,,,,,,,0.03,0.05,0.98,-3.0,0.1,-0.0,700,0,,,,,,,,,,,,,,,,,
53546,1469910772148,,,,10,,,0.02,0.06,0.98,-2.9,0.0,-0.1,720,0,0.0,0,39.536591,-122.332138,0.0,0.0,287.5,9,3,1.5,0,0.0,-1,0.0,,0.0,0
53566,1469910772168,,,,,,,0.02,0.06,0.98,-3.0,0.0,-0.2,720,0,,,,,,,,,,,,,,,,,
53586,1469910772188,,,,,,,0.03,0.07,0.98,-3.0,0.0,-0.1,720,0,,,,,,,,,,,,,,,,,
53606,1469910772208,,,,,,,0.03,0.07,0.98,-3.0,0.1,-0.1,740,0,,,,,,,,,,,,,,,,,
53626,1469910772228,,,,,,,0.03,0.07,0.98,-3.0,0.1,-0.2,720,0,,,,,,,,,,,,,,,,,
53646,1469910772248,0,209.8,187.8,12,186.5,,0.02,0.07,0.98,-3.0,0.2,-0.3,720,0,0.0,0,39.536591,-122.332138,0.0,0.0,287.5,9,3,1.5,0,0.0,-1,0.0,0.0,0.0,0
53666,1469910772268,,,,,,,0.02,0.07,0.98,-3.0,0.1,-0.1,700,0,,,,,,,,,,,,,,,,,
53686,1469910772288,,,,,,,0.02,0.07,0.98,-3.0,0.1,-0.2,700,0,,,,,,,,,,,,,,,,,
53706,1469910772407,,,,,,,0.02,0.06,0.98,-2.9,0.0,-0.3,720,0,,,,,,,,,,,,,,,,,
53726,1469910772427,,,,,,,0.02,0.06,0.98,-3.0,0.2,-0.3,720,0,,,,,,,,,,,,,,,,,
53746,1469910772447,,,,11,,,0.02,0.06,0.99,-3.0,0.3,-0.2,720,0,0.0,0,39.536591,-122.332138,0.0,0.0,287.5,9,3,1.5,0,0.0,-1,0.0,,0.0,0
53766,1469910772467,,,,,,,0.02,0.06,0.99,-3.0,0.2,-0.2,720,0,,,,,,,,,,,,,,,,,
53786,1469910772487,,,,,,,0.01,0.06,0.99,-2.9,0.2,-0.3,720,0,,,,,,,,,,,,,,,,,
53806,1469910772507,,,,,,,0.02,0.06,0.98,-3.0,0.2,-0.2,720,0,,,,,,,,,,,,,,,,,
53826,1469910772527,,,,,,,0.02,0.07,0.99,-3.0,0.2,-0.1,700,0,,,,,,,,,,,,,,,,,
53846,1469910772547,0,210.6,188.5,9,185.3,,0.03,0.07,0.99,-3.0,0.1,-0.2,700,0,0.0,0,39.536591,-122.332138,0.0,0.0,287.5,9,3,1.5,0,0.0,-1,0.0,0.0,0.0,0
53866,1469910772567,,,,,,,0.03,0.07,0.99,-3.0,0.2,-0.3,700,0,,,,,,,,,,,,,,,,,
53886,1469910772587,,,,,,,0.02,0.06,0.99,-3.0,0.1,-0.1,720,0,,,,,,,,,,,,,,,,,
53906,1469910772506,,,,,,,0.02,0.06,0.99,-2.9,0.0,-0.1,720,0,,,,,,,,,,,,,,,,,
53926,1469910772526,,,,,,,0.02,0.06,0.98,-2.9,-0.1,-0.3,740,0,,,,,,,,,,,,,,,,,
53946,1469910772546,,,,10,,,0.02,0.06,0.99,-2.9,0.1,-0.2,740,0,0.0,0,39.536591,-122.332138,0.0,0.0,287.5,9,3,1.5,0,0.0,-1,0.0,,0.0,0
53966,1469910772566,,,,,,,0.03,0.06,0.99,-3.0,0.1,-0.1,740,0,,,,,,,,,,,,,,,,,
53986,1469910772586,,,,,,,0.02,0.06,0.99,-3.0,0.2,-0.2,700,0,,,,,,,,,,,,,,,,,
54006,1469910772607,,,,,,,0.01,0.06,1.0,-3.0,0.1,-0.3,700,0,,,,,,,,,,,,,,,,,
54026,1469910772627,,,,,,,0.02,0.07,1.0,-3.0,0.2,-0.2,720,0,,,,,,,,,,,,,,,,,
54046,1469910772647,0,209.6,187.3,10,186.5,13.57,0.02,0.08,1.0,-3.1,0.2,-0.1,720,0,0.0,0,39.536591,-122.332138,0.0,0.0,287.5,9,3,1.5,0,0.0,-1,0.0,0.0,0.0,0
54066,1469910772667,,,,,,,0.02,0.1,1.0,-3.1,0.3,-0.2,720,0,,,,,,,,,,,,,,,,,
54086,1469910772687,,,,,,,-0.0,0.1,1.0,-3.4,-0.1,-0.3,720,0,,,,,,,,,,,,,,,,,
54106,1469910772708,,,,,,,-0.01,0.08,1.0,-3.4,0.1,-0.2,740,0,,,,,,,,,,,,,,,,,
54126,1469910772728,,,,,,,0.0,0.11,0.99,-3.3,-0.0,-0.1,740,0,,,,,,,,,,,,,,,,,
54146,1469910772748,,,,10,,,0.01,0.09,0.99,-3.4,0.1,-0.2,720,0,0.0,0,39.536591,-122.332138,0.0,0.0,287.5,9,3,1.5,0,0.0,-1,0.0,,0.0,0
54166,1469910772768,,,,,,,0.02,0.08,0.99,-3.3,0.4,-0.2,720,0,,,,,,,,,,,,,,,,,
54186,1469910772788,,,,,,,0.02,0.08,0.99,-3.3,0.2,-0.1,720,0,,,,,,,,,,,,,,,,,
54206,1469910772808,,,,,,,0.06,-0.0,0.93,-3.2,-1.9,0.0,720,0,,,,,,,,,,,,,,,,,
54226,1469910772828,,,,,,,0.06,0.01,0.92,-3.2,-1.7,-0.2,720,0,,,,,,,,,,,,,,,,,
54246,1469910772848,0,209.8,187.2,10,186.3,,0.06,0.03,0.93,-3.3,-1.5,-0.2,720,0,0.0,0,39.536591,-122.332138,0.0,0.0,287.5,9,3,1.5,0,0.0,-1,0.0,0.0,0.0,0
54266,1469910772868,,,,,,,0.06,0.04,0.94,-3.3,-1.1,-0.1,740,0,,,,,,,,,,,,,,,,,
54286,1469910772888,,,,,,,0.05,0.04,0.96,-3.3,-1.0,-0.1,740,0,,,,,,,,,,,,,,,,,
54306,1469910772903,,,,,,,0.04,0.04,0.96,-3.2,-0.9,-0.2,720,0,,,,,,,,,,,,,,,,,
54326,1469910772923,,,,,,,0.04,0.05,0.96,-3.2,-1.0,-0.1,720,0,,,,,,,,,,,,,,,,,
54346,1469910772943,,,,10,,,0.04,0.05,0.97,-3.2,-0.8,-0.1,720,0,0.0,0,39.536591,-122.332138,0.0,0.0,287.5,9,3,1.5,0,0.0,-1,0.0,,0.0,0
54366,1469910772963,,,,,,,0.03,0.05,0.97,-3.1,-0.7,-0.2,720,0,,,,,,,,,,,,,,,,,
54386,1469910772983,,,,,,,0.03,0.05,0.97,-3.1,-0.7,-0.2,720,0,,,,,,,,,,,,,,,,,
54406,1469910773008,,,,,,,0.03,0.06,0.97,-3.1,-0.8,-0.2,720,0,,,,,,,,,,,,,,,,,
54426,1469910773028,,,,,,,0.04,0.06,0.97,-3.1,-0.8,-0.2,740,0,,,,,,,,,,,,,,,,,
54446,1469910773048,0,209.8,187.3,10,186.1,,0.03,0.05,0.97,-3.0,-0.8,-0.3,740,0,0.0,0,39.536591,-122.332138,0.0,0.0,287.5,9,3,1.5,0,0.0,-1,0.0,0.0,0.0,0
54466,1469910773068,,,,,,,0.03,0.05,0.97,-3.0,-0.6,-0.3,740,0,,,,,,,,,,,,,,,,,
54486,1469910773088,,,,,,,0.03,0.05,0.97,-3.0,-0.5,-0.1,700,0,,,,,,,,,,,,,,,,,
54506,1469910773208,,,,,,,0.03,0.05,0.97,-2.9,-0.5,-0.2,720,0,,,,,,,,,,,,,,,,,
54526,1469910773228,,,,,,,0.02,0.04,0.97,-2.9,-0.6,-0.3,720,0,,,,,,,,,,,,,,,,,
54546,1469910773248,,,,11,,,0.03,0.05,0.97,-2.9,-0.4,-0.3,720,0,0.0,0,39.536591,-122.332138,0.0,0.0,287.5,9,3,1.5,0,0.0,-1,0.0,,0.0,0
54566,1469910773268,,,,,,,0.04,0.05,0.97,-2.9,-0.2,-0.2,720,0,,,,,,,,,,,,,,,,,
54586,1469910773288,,,,,,,0.04,0.05,0.97,-2.9,-0.0,-0.3,740,0,,,,,,,,,,,,,,,,,
54606,1469910773308,,,,,,,0.04,0.05,0.98,-2.9,0.1,-0.4,740,0,,,,,,,,,,,,,,,,,
54626,1469910773328,,,,,,,0.04,0.05,0.98,-3.0,0.2,-0.3,740,0,,,,,,,,,,,,,,,,,
54646,1469910773348,0,210.6,188.4,9,186.0,,0.05,0.06,0.98,-3.0,0.4,-0.2,720,0,0.0,0,39.536591,-122.332138,0.0,0.0,287.5,9,3,1.5,0,0.0,-1,0.0,0.0,0.0,0
54666,1469910773368,,,,,,,0.04,0.05,0.98,-3.0,0.5,-0.3,720,0,,,,,,,,,,,,,,,,,
54686,1469910773388,,,,,,,0.04,0.05,0.98,-2.9,0.5,-0.3,720,0,,,,,,,,,,,,,,,,,
54706,1469910773309,,,,,,,0.03,0.05,0.98,-2.9,0.3,-0.2,720,0,,,,,,,,,,,,,,,,,
54726,1469910773329,,,,,,,0.04,0.04,0.98,-2.9,0.2,-0.1,720,0,,,,,,,,,,,,,,,,,
54746,1469910773349,,,,10,,,0.03,0.04,0.98,-2.9,0.3,-0.3,740,0,0.0,0,39.536591,-122.332138,0.0,0.0,287.5,9,3,1.5,0,0.0,-1,0.0,,0.0,0
54766,1469910773369,,,,,,,0.03,0.03,0.98,-2.8,0.3,-0.3,740,0,,,,,,,,,,,,,,,,,
54786,1469910773389,,,,,,,0.03,0.03,0.98,-2.9,0.2,-0.1,740,0,,,,,,,,,,,,,,,,,
