"Interval"|"ms"|0|0|1,"Utc"|"ms"|0|0|1,"FuelLevel"|"F"|0|100|5,"OilTemp"|"F"|0.0|300.0|5,"Coolant"|"F"|0.0|300.0|5,"OilPress"|"PSI"|0|150|10,"EngineTemp"|"F"|0.0|300.0|5,"Battery"|"Volts"|0.0|20.0|1,"AccelX"|"G"|-3.0|3.0|50,"AccelY"|"G"|-3.0|3.0|50,"AccelZ"|"G"|-3.0|3.0|50,"Yaw"|"Deg/Sec"|-300.0|300.0|50,"Pitch"|"Deg/Sec"|-300.0|300.0|50,"Roll"|"Deg/Sec"|-300.0|300.0|50,"RPM"|""|0|10000|50,"Driveshaft"|"RPM"|0|5000|50,"GearRatio"|""|-5.0|5.0|10,"Gear"|""|-1|5|10,"Latitude"|"Degrees"|-180.0|180.0|10,"Longitude"|"Degrees"|-180.0|180.0|10,"Speed"|"MPH"|0.0|150.0|10,"Distance"|"Miles"|0.0|0.0|10,"Altitude"|"Feet"|0.0|4000.0|10,"GPSSats"|""|0|20|10,"GPSQual"|""|0|5|10,"GPSDOP"|""|0.0|20.0|10,"LapCount"|""|0|0|10,"LapTime"|"Min"|0.0|0.0|10,"Sector"|""|0|0|10,"SectorTime"|"Min"|0.0|0.0|10,"PredTime"|"Min"|0.0|0.0|5,"ElapsedTime"|"Min"|0.0|0.0|10,"CurrentLap"|""|0|0|10
225146,1469910943752,,,,0,,,0.04,0.07,0.99,-2.9,0.0,-0.1,200,0,0.0,0,39.53661,-122.332199,0.0,0.007,262.4,8,3,1.8,0,0.0,-1,0.0,,0.0,0
225166,1469910943772,,,,,,,0.03,0.05,0.98,-2.8,0.0,-0.4,200,0,,,,,,,,,,,,,,,,,
225186,1469910943792,,,,,,,0.04,0.03,0.98,-2.9,0.1,-0.4,160,0,,,,,,,,,,,,,,,,,
225206,1469910943812,,,,,,,0.04,0.04,0.98,-2.9,0.1,-0.2,160,0,,,,,,,,,,,,,,,,,
225226,1469910943832,,,,,,,0.04,0.04,0.98,-3.0,0.2,-0.1,160,0,,,,,,,,,,,,,,,,,
225246,1469910943852,0,204.1,177.0,0,187.2,,0.04,0.05,0.98,-3.0,0.2,-0.1,160,0,0.0,0,39.53661,-122.332199,0.0,0.007,262.4,8,3,1.8,0,0.0,-1,0.0,0.0,0.0,0
225266,1469910943872,,,,,,,0.04,0.05,0.98,-3.0,0.3,-0.0,160,0,,,,,,,,,,,,,,,,,
225286,1469910943892,,,,,,,0.05,0.05,0.98,-3.0,0.3,-0.1,160,0,,,,,,,,,,,,,,,,,
225306,1469910943906,,,,,,,0.05,0.06,0.98,-2.9,0.2,-0.1,160,0,,,,,,,,,,,,,,,,,
225326,1469910943926,,,,,,,0.05,0.07,0.98,-2.9,0.2,-0.0,160,0,,,,,,,,,,,,,,,,,
225346,1469910943946,,,,0,,,0.05,0.07,0.98,-2.9,0.2,0.0,160,0,0.0,0,39.53661,-122.332199,0.0,0.007,262.4,8,3,1.8,0,0.0,-1,0.0,,0.0,0
225366,1469910943966,,,,,,,0.05,0.06,0.98,-2.9,0.1,-0.0,160,0,,,,,,,,,,,,,,,,,
225386,1469910943993,,,,,,,0.05,0.07,0.99,-2.9,0.1,-0.0,160,0,,,,,,,,,,,,,,,,,
225406,1469910944013,,,,,,,0.05,0.08,0.99,-2.9,-0.2,-0.2,180,0,,,,,,,,,,,,,,,,,
225426,1469910944033,,,,,,,0.04,0.08,0.99,-2.9,-0.5,-0.4,180,0,,,,,,,,,,,,,,,,,
225446,1469910944053,0,204.0,176.8,0,187.1,,0.04,0.07,0.99,-2.8,-0.5,-0.4,180,0,0.0,0,39.53661,-122.332199,0.0,0.007,262.4,8,3,1.8,0,0.0,-1,0.0,0.0,0.0,0
225466,1469910944073,,,,,,,0.04,0.06,0.99,-2.8,-0.6,-0.2,180,0,,,,,,,,,,,,,,,,,
225486,1469910944092,,,,,,,0.04,0.07,0.99,-2.9,-0.4,-0.2,260,0,,,,,,,,,,,,,,,,,
225506,1469910944112,,,,,,,0.04,0.06,0.99,-2.9,-0.4,-0.2,260,0,,,,,,,,,,,,,,,,,
225526,1469910944132,,,,,,,0.04,0.06,0.99,-2.9,-0.4,-0.1,400,0,,,,,,,,,,,,,,,,,
225546,1469910944152,,,,1,,,0.04,0.07,0.99,-3.0,-0.2,0.0,400,0,0.0,0,39.53661,-122.332199,0.0,0.007,262.4,8,3,1.8,0,0.0,-1,0.0,,0.0,0
225566,1469910944172,,,,,,,0.05,0.05,1.0,-2.9,-0.3,0.0,560,0,,,,,,,,,,,,,,,,,
225586,1469910944192,,,,,,,0.05,0.02,0.99,-2.8,-0.4,-0.2,560,0,,,,,,,,,,,,,,,,,
225606,1469910944212,,,,,,,0.05,0.04,1.0,-3.0,-0.3,0.1,680,0,,,,,,,,,,,,,,,,,
225626,1469910944232,,,,,,,0.06,0.06,1.0,-3.0,-0.5,0.1,820,0,,,,,,,,,,,,,,,,,
225646,1469910944252,0,204.0,176.9,8,187.0,,0.05,0.07,0.99,-3.0,-0.3,-0.2,820,0,0.0,0,39.53661,-122.332199,0.0,0.007,262.4,8,3,1.8,0,0.0,-1,0.0,0.0,0.0,0
225666,1469910944272,,,,,,,0.05,0.06,0.99,-3.0,-0.3,-0.4,780,0,,,,,,,,,,,,,,,,,
225686,1469910944392,,,,,,,0.04,0.05,0.99,-2.9,-0.1,-0.3,780,0,,,,,,,,,,,,,,,,,
225706,1469910944412,,,,,,,0.05,0.05,0.98,-3.0,-0.1,0.1,760,0,,,,,,,,,,,,,,,,,
225726,1469910944432,,,,,,,0.05,0.07,0.98,-3.0,-0.3,0.1,820,0,,,,,,,,,,,,,,,,,
225746,1469910944452,,,,10,,,0.04,0.08,0.99,-3.0,-0.4,-0.1,920,0,0.0,0,39.53661,-122.332199,0.0,0.007,262.4,8,3,1.8,0,0.0,-1,0.0,,0.0,0
225766,1469910944472,,,,,,,0.04,0.09,0.98,-2.9,-0.4,-0.3,920,0,,,,,,,,,,,,,,,,,
225786,1469910944492,,,,,,,0.03,0.07,0.98,-2.9,-0.2,-0.5,980,0,,,,,,,,,,,,,,,,,
225806,1469910944512,,,,,,,0.03,0.07,0.98,-2.9,0.0,-0.5,1020,0,,,,,,,,,,,,,,,,,
225826,1469910944532,,,,,,,0.03,0.07,0.98,-2.9,0.3,-0.5,1040,0,,,,,,,,,,,,,,,,,
225846,1469910944552,0,203.8,176.8,16,187.0,,0.03,0.07,1.0,-2.9,0.5,-0.5,1100,0,0.0,0,39.53661,-122.332199,0.0,0.007,262.4,8,3,1.8,0,0.0,-1,0.0,0.0,0.0,0
225866,1469910944572,,,,,,,0.02,0.05,1.01,-2.8,0.7,-0.5,1140,0,,,,,,,,,,,,,,,,,
225886,1469910944492,,,,,,,0.01,0.04,1.01,-2.8,0.6,-0.4,1180,0,,,,,,,,,,,,,,,,,
225906,1469910944512,,,,,,,0.01,0.04,1.0,-2.8,0.4,-0.5,1200,0,,,,,,,,,,,,,,,,,
225926,1469910944532,,,,,,,0.01,0.03,1.01,-2.7,0.4,-0.5,1220,0,,,,,,,,,,,,,,,,,
225946,1469910944552,,,,21,,,0.01,0.04,1.01,-2.7,0.1,-0.4,1260,0,0.0,0,39.53661,-122.332199,0.0,0.007,262.4,8,3,1.8,0,0.0,-1,0.0,,0.0,0
225966,1469910944572,,,,,,,0.01,0.04,1.0,-2.7,0.3,-0.3,1280,0,,,,,,,,,,,,,,,,,
225986,1469910944592,,,,,,,0.02,0.04,1.0,-2.7,0.2,-0.3,1320,0,,,,,,,,,,,,,,,,,
226006,1469910944612,,,,,,,0.02,0.04,1.0,-2.8,0.0,-0.3,1320,0,,,,,,,,,,,,,,,,,
226026,1469910944632,,,,,,,0.03,0.04,0.99,-2.8,0.1,-0.2,1360,0,,,,,,,,,,,,,,,,,
226046,1469910944652,0,203.5,176.3,25,186.3,13.41,0.03,0.05,0.99,-2.8,0.2,-0.3,1380,0,0.0,0,39.53661,-122.332199,0.0,0.007,262.4,8,3,1.8,0,0.0,-1,0.0,0.0,0.0,0
226066,1469910944672,,,,,,,0.03,0.06,0.98,-2.8,0.1,-0.3,1380,0,,,,,,,,,,,,,,,,,
226086,1469910944692,,,,,,,0.03,0.06,0.98,-2.9,0.2,-0.2,1380,0,,,,,,,,,,,,,,,,,
226106,1469910944712,,,,,,,0.03,0.04,0.98,-2.8,0.2,-0.2,1360,0,,,,,,,,,,,,,,,,,
226126,1469910944732,,,,,,,0.03,0.06,0.99,-2.8,0.4,-0.3,1400,0,,,,,,,,,,,,,,,,,
226146,1469910944752,,,,29,,,0.03,0.06,0.98,-2.9,0.4,-0.2,1360,0,0.0,0,39.53661,-122.332199,0.0,0.007,262.4,8,3,1.8,0,0.0,-1,0.0,,0.0,0
226166,1469910944772,,,,,,,0.02,0.06,0.98,-2.9,0.2,-0.2,1360,0,,,,,,,,,,,,,,,,,
226186,1469910944792,,,,,,,0.03,0.05,0.98,-2.9,0.2,-0.2,1360,0,,,,,,,,,,,,,,,,,
226206,1469910944812,,,,,,,0.03,0.05,0.98,-2.8,0.1,-0.2,1320,0,,,,,,,,,,,,,,,,,
226226,1469910944832,,,,,,,0.03,0.06,0.98,-2.9,-0.0,-0.2,1340,0,,,,,,,,,,,,,,,,,
226246,1469910944852,0,204.2,177.2,29,187.3,,0.03,0.06,0.97,-2.9,-0.1,-0.2,1320,0,0.0,0,39.53661,-122.332199,0.0,0.007,262.4,8,3,1.8,0,0.0,-1,0.0,0.0,0.0,0
226266,1469910944872,,,,,,,0.03,0.06,0.97,-2.9,-0.1,-0.2,1280,0,,,,,,,,,,,,,,,,,
226286,1469910944892,,,,,,,0.03,0.06,0.97,-2.9,-0.2,-0.2,1280,0,,,,,,,,,,,,,,,,,
226306,1469910944907,,,,,,,0.03,0.06,0.97,-2.9,-0.2,-0.2,1280,0,,,,,,,,,,,,,,,,,
226326,1469910944927,,,,,,,0.03,0.06,0.97,-2.9,-0.1,-0.1,1240,0,,,,,,,,,,,,,,,,,
226346,1469910944947,,,,25,,,0.04,0.06,0.97,-2.8,-0.1,-0.1,1240,0,0.0,0,39.53661,-122.332199,0.0,0.007,262.4,8,3,1.8,0,0.0,-1,0.0,,0.0,0
226366,1469910944967,,,,,,,0.03,0.06,0.97,-2.8,-0.1,-0.1,1220,0,,,,,,,,,,,,,,,,,
226386,1469910944992,,,,,,,0.03,0.06,0.97,-2.9,-0.1,-0.1,1220,0,,,,,,,,,,,,,,,,,
226406,1469910945012,,,,,,,0.03,0.07,0.97,-2.9,-0.0,-0.1,1200,0,,,,,,,,,,,,,,,,,
226426,1469910945032,,,,,,,0.03,0.07,0.97,-2.9,0.0,-0.2,1200,0,,,,,,,,,,,,,,,,,
226446,1469910945052,0,204.2,177.2,27,187.3,,0.03,0.07,0.97,-2.9,0.0,-0.2,1160,0,0.0,0,39.53661,-122.332199,0.0,0.007,262.4,8,3,1.8,0,0.0,-1,0.0,0.0,0.0,0
226466,1469910945072,,,,,,,0.04,0.06,0.97,-2.9,0.1,-0.2,1120,0,,,,,,,,,,,,,,,,,
226486,1469910945191,,,,,,,0.04,0.06,0.97,-2.9,0.2,-0.2,1160,0,,,,,,,,,,,,,,,,,
226506,1469910945211,,,,,,,0.04,0.07,0.98,-2.9,0.2,-0.2,1120,0,,,,,,,,,,,,,,,,,
226526,1469910945231,,,,,,,0.03,0.07,0.98,-2.9,0.2,-0.2,1060,0,,,,,,,,,,,,,,,,,
226546,1469910945251,,,,22,,,0.03,0.07,0.98,-2.9,0.2,-0.2,1040,0,0.0,0,39.53661,-122.332199,0.0,0.007,262.4,8,3,1.8,0,0.0,-1,0.0,,0.0,0
226566,1469910945271,,,,,,,0.03,0.07,0.98,-3.0,0.2,-0.2,1040,0,,,,,,,,,,,,,,,,,
226586,1469910945291,,,,,,,0.03,0.07,0.98,-3.0,0.1,-0.2,1040,0,,,,,,,,,,,,,,,,,
226606,1469910945311,,,,,,,0.03,0.07,0.98,-3.0,0.1,-0.2,1000,0,,,,,,,,,,,,,,,,,
226626,1469910945331,,,,,,,0.03,0.07,0.98,-2.9,0.1,-0.2,1000,0,,,,,,,,,,,,,,,,,
226646,1469910945351,0,203.1,175.9,20,185.9,,0.04,0.07,0.98,-3.0,0.2,-0.2,980,0,0.0,0,39.53661,-122.332199,0.0,0.007,262.4,8,3,1.8,0,0.0,-1,0.0,0.0,0.0,0
226666,1469910945371,,,,,,,0.04,0.07,0.98,-3.0,0.3,-0.2,940,0,,,,,,,,,,,,,,,,,
226686,1469910945391,,,,,,,0.04,0.07,0.98,-3.0,0.3,-0.2,940,0,,,,,,,,,,,,,,,,,
226706,1469910945310,,,,,,,0.05,0.08,0.98,-3.0,0.4,-0.2,920,0,,,,,,,,,,,,,,,,,
226726,1469910945330,,,,,,,0.05,0.08,0.98,-3.0,0.4,-0.1,920,0,,,,,,,,,,,,,,,,,
226746,1469910945350,,,,19,,,0.05,0.08,0.98,-3.0,0.4,-0.1,920,0,0.0,0,39.53661,-122.332199,0.0,0.007,262.4,8,3,1.8,0,0.0,-1,0.0,,0.0,0
226766,1469910945370,,,,,,,0.05,0.08,0.98,-3.0,0.4,-0.1,900,0,,,,,,,,,,,,,,,,,
226786,1469910945392,,,,,,,0.04,0.08,0.98,-3.0,0.3,-0.1,880,0,,,,,,,,,,,,,,,,,
226806,1469910945412,,,,,,,0.04,0.08,0.98,-3.0,0.3,-0.2,820,0,,,,,,,,,,,,,,,,,
226826,1469910945432,,,,,,,0.04,0.08,0.98,-3.0,0.2,-0.3,820,0,,,,,,,,,,,,,,,,,
226846,1469910945452,0,203.7,176.7,16,186.6,,0.04,0.08,0.98,-3.0,0.2,-0.3,820,0,0.0,0,39.53661,-122.332199,0.0,0.007,262.4,8,3,1.8,0,0.0,-1,0.0,0.0,0.0,0
226866,1469910945472,,,,,,,0.04,0.07,0.98,-3.0,0.1,-0.3,820,0,,,,,,,,,,,,,,,,,
226886,1469910945493,,,,,,,0.04,0.07,0.98,-3.0,0.1,-0.2,800,0,,,,,,,,,,,,,,,,,
226906,1469910945513,,,,,,,0.04,0.07,0.98,-3.0,0.1,-0.2,780,0,,,,,,,,,,,,,,,,,
226926,1469910945533,,,,,,,0.04,0.07,0.99,-3.0,0.1,-0.2,760,0,,,,,,,,,,,,,,,,,
226946,1469910945553,,,,11,,,0.03,0.07,0.98,-3.0,0.1,-0.2,740,0,0.0,0,39.53661,-122.332199,0.0,0.007,262.4,8,3,1.8,0,0.0,-1,0.0,,0.0,0
226966,1469910945573,,,,,,,0.04,0.07,0.98,-3.0,0.2,-0.1,740,0,,,,,,,,,,,,,,,,,
226986,1469910945592,,,,,,,0.04,0.08,0.99,-3.0,0.2,-0.1,740,0,,,,,,,,,,,,,,,,,
227006,1469910945612,,,,,,,0.04,0.07,0.99,-3.0,0.2,-0.2,720,0,,,,,,,,,,,,,,,,,
227026,1469910945632,,,,,,,0.04,0.07,0.99,-3.0,0.2,-0.2,720,0,,,,,,,,,,,,,,,,,
227046,1469910945652,0,203.9,176.9,11,186.6,13.17,0.04,0.07,0.98,-3.0,0.3,-0.1,720,0,0.0,0,39.53661,-122.332199,0.0,0.007,262.4,8,3,1.8,0,0.0,-1,0.0,0.0,0.0,0
227066,1469910945672,,,,,,,0.04,0.07,0.98,-2.9,0.2,-0.1,700,0,,,,,,,,,,,,,,,,,
227086,1469910945692,,,,,,,0.04,0.07,0.99,-2.9,0.2,-0.2,680,0,,,,,,,,,,,,,,,,,
227106,1469910945712,,,,,,,0.04,0.06,0.98,-3.0,0.3,-0.2,680,0,,,,,,,,,,,,,,,,,
227126,1469910945732,,,,,,,0.04,0.06,0.98,-2.9,0.2,-0.2,660,0,,,,,,,,,,,,,,,,,
227146,1469910945752,,,,10,,,0.03,0.06,0.98,-2.9,0.1,-0.2,660,0,0.0,0,39.53661,-122.332199,0.0,0.007,262.4,8,3,1.8,0,0.0,-1,0.0,,0.0,0
227166,1469910945772,,,,,,,0.03,0.06,0.98,-2.9,0.1,-0.3,660,0,,,,,,,,,,,,,,,,,
227186,1469910945792,,,,,,,0.03,0.06,0.98,-3.0,0.1,-0.2,660,0,,,,,,,,,,,,,,,,,
227206,1469910945812,,,,,,,0.03,0.06,0.98,-2.9,0.1,-0.2,640,0,,,,,,,,,,,,,,,,,
227226,1469910945832,,,,,,,0.03,0.06,0.98,-3.0,0.1,-0.2,640,0,,,,,,,,,,,,,,,,,
227246,1469910945852,0,204.4,177.6,11,187.0,,0.03,0.07,0.98,-3.0,0.2,-0.1,640,0,0.0,0,39.53661,-122.332199,0.0,0.007,262.4,8,3,1.8,0,0.0,-1,0.0,0.0,0.0,0
227266,1469910945872,,,,,,,0.03,0.06,0.98,-2.9,0.2,-0.2,640,0,,,,,,,,,,,,,,,,,
227286,1469910945892,,,,,,,0.03,0.06,0.98,-3.0,0.2,-0.1,640,0,,,,,,,,,,,,,,,,,
227306,1469910946005,,,,,,,0.03,0.07,0.98,-3.0,0.2,-0.1,620,0,,,,,,,,,,,,,,,,,
227326,1469910946025,,,,,,,0.03,0.06,0.98,-2.9,0.2,-0.2,620,0,,,,,,,,,,,,,,,,,
227346,1469910946045,,,,9,,,0.03,0.07,0.98,-3.0,0.2,-0.1,620,0,0.0,0,39.53661,-122.332199,0.0,0.007,262.4,8,3,1.8,0,0.0,-1,0.0,,0.0,0
227366,1469910946065,,,,,,,0.03,0.07,0.98,-3.0,0.2,-0.1,640,0,,,,,,,,,,,,,,,,,
227386,1469910946085,,,,,,,0.03,0.06,0.98,-2.9,0.1,-0.2,640,0,,,,,,,,,,,,,,,,,
227406,1469910946105,,,,,,,0.03,0.07,0.98,-3.0,0.1,-0.2,620,0,,,,,,,,,,,,,,,,,
227426,1469910946125,,,,,,,0.03,0.07,0.98,-2.9,-0.0,-0.2,620,0,,,,,,,,,,,,,,,,,
227446,1469910946145,0,204.4,177.8,9,187.0,,0.03,0.06,0.98,-2.9,-0.0,-0.3,620,0,0.0,0,39.53661,-122.332199,0.0,0.007,262.4,8,3,1.8,0,0.0,-1,0.0,0.0,0.0,0
227466,1469910946165,,,,,,,0.03,0.06,0.98,-2.9,0.0,-0.2,620,0,,,,,,,,,,,,,,,,,
227486,1469910946092,,,,,,,0.03,0.06,0.98,-2.9,-0.1,-0.3,620,0,,,,,,,,,,,,,,,,,
227506,1469910946112,,,,,,,0.03,0.06,0.98,-2.9,-0.0,-0.2,600,0,,,,,,,,,,,,,,,,,
227526,1469910946132,,,,,,,0.03,0.06,0.98,-2.9,-0.0,-0.2,620,0,,,,,,,,,,,,,,,,,
227546,1469910946152,,,,10,,,0.03,0.06,0.98,-2.9,-0.1,-0.2,620,0,0.0,0,39.53661,-122.332199,0.0,0.007,262.4,8,3,1.8,0,0.0,-1,0.0,,0.0,0
227566,1469910946172,,,,,,,0.03,0.07,0.98,-2.9,0.0,-0.2,620,0,,,,,,,,,,,,,,,,,
227586,1469910946192,,,,,,,0.03,0.06,0.98,-2.9,-0.0,-0.2,620,0,,,,,,,,,,,,,,,,,
227606,1469910946212,,,,,,,0.03,0.05,0.98,-2.9,0.0,-0.2,620,0,,,,,,,,,,,,,,,,,
227626,1469910946232,,,,,,,0.03,0.06,0.98,-2.9,-0.0,-0.1,620,0,,,,,,,,,,,,,,,,,
227646,1469910946252,0,204.7,178.2,9,187.1,,0.03,0.06,0.98,-2.9,-0.0,-0.1,640,0,0.0,0,39.53661,-122.332199,0.0,0.007,262.4,8,3,1.8,0,0.0,-1,0.0,0.0,0.0,0
227666,1469910946272,,,,,,,0.03,0.06,0.99,-2.9,0.1,-0.0,640,0,,,,,,,,,,,,,,,,,
227686,1469910946292,,,,,,,0.03,0.07,0.99,-2.9,0.1,-0.0,620,0,,,,,,,,,,,,,,,,,
227706,1469910946312,,,,,,,0.03,0.06,0.99,-2.9,0.1,-0.2,620,0,,,,,,,,,,,,,,,,,
227726,1469910946332,,,,,,,0.03,0.06,0.98,-2.9,0.2,-0.2,640,0,,,,,,,,,,,,,,,,,
227746,1469910946352,,,,10,,,0.04,0.07,0.98,-2.9,0.2,-0.2,660,0,0.0,0,39.53661,-122.332199,0.0,0.007,262.4,8,3,1.8,0,0.0,-1,0.0,,0.0,0
227766,1469910946372,,,,,,,0.03,0.05,0.99,-2.9,0.2,-0.2,660,0,,,,,,,,,,,,,,,,,
227786,1469910946392,,,,,,,0.04,0.06,0.99,-2.9,0.3,-0.1,660,0,,,,,,,,,,,,,,,,,
227806,1469910946412,,,,,,,0.04,0.07,0.98,-2.9,0.4,-0.1,680,0,,,,,,,,,,,,,,,,,
227826,1469910946432,,,,,,,0.04,0.06,0.99,-2.9,0.3,-0.2,680,0,,,,,,,,,,,,,,,,,
227846,1469910946452,0,203.7,177.4,9,186.2,,0.04,0.06,0.99,-2.9,0.4,-0.1,680,0,0.0,0,39.53661,-122.332199,0.0,0.007,262.4,8,3,1.8,0,0.0,-1,0.0,0.0,0.0,0
227866,1469910946472,,,,,,,0.04,0.07,0.99,-2.9,0.4,-0.1,660,0,,,,,,,,,,,,,,,,,
227886,1469910946492,,,,,,,0.04,0.06,1.0,-2.8,0.3,-0.2,680,0,,,,,,,,,,,,,,,,,
227906,1469910946512,,,,,,,0.04,0.06,0.99,-2.8,0.3,-0.3,680,0,,,,,,,,,,,,,,,,,
227926,1469910946532,,,,,,,0.04,0.06,0.99,-2.9,0.3,-0.2,700,0,,,,,,,,,,,,,,,,,
227946,1469910946552,,,,9,,,0.04,0.06,0.99,-2.9,0.1,-0.3,700,0,0.0,0,39.53661,-122.332199,0.0,0.007,262.4,8,3,1.8,0,0.0,-1,0.0,,0.0,0
227966,1469910946572,,,,,,,0.03,0.06,0.99,-2.9,0.1,-0.3,700,0,,,,,,,,,,,,,,,,,
227986,1469910946592,,,,,,,0.03,0.07,0.99,-3.0,-0.0,-0.2,700,0,,,,,,,,,,,,,,,,,
228006,1469910946612,,,,,,,0.03,0.06,0.99,-3.0,-0.1,-0.1,720,0,,,,,,,,,,,,,,,,,
228026,1469910946632,,,,,,,0.03,0.06,0.99,-2.9,-0.3,-0.2,700,0,,,,,,,,,,,,,,,,,
228046,1469910946652,0,203.0,176.6,10,185.2,13.23,0.03,0.07,0.99,-2.9,-0.2,-0.2,700,0,0.0,0,39.53661,-122.332199,0.0,0.007,262.4,8,3,1.8,0,0.0,-1,0.0,0.0,0.0,0
228066,1469910946672,,,,,,,0.03,0.08,0.99,-3.0,-0.1,-0.1,720,0,,,,,,,,,,,,,,,,,
228086,1469910946791,,,,,,,0.03,0.07,0.99,-3.0,-0.2,-0.2,720,0,,,,,,,,,,,,,,,,,
228106,1469910946811,,,,,,,0.02,0.06,0.99,-2.9,-0.4,-0.3,720,0,,,,,,,,,,,,,,,,,
228126,1469910946831,,,,,,,0.03,0.07,1.0,-2.9,-0.4,-0.1,720,0,,,,,,,,,,,,,,,,,
228146,1469910946851,,,,12,,,0.04,0.07,0.99,-3.0,-0.3,-0.0,740,0,0.0,0,39.53661,-122.332199,0.0,0.007,262.4,8,3,1.8,0,0.0,-1,0.0,,0.0,0
228166,1469910946871,,,,,,,0.04,0.07,1.0,-3.0,-0.2,-0.1,740,0,,,,,,,,,,,,,,,,,
228186,1469910946891,,,,,,,0.03,0.06,1.0,-3.0,-0.1,-0.2,740,0,,,,,,,,,,,,,,,,,
228206,1469910946911,,,,,,,0.03,0.07,0.99,-3.0,-0.1,-0.1,700,0,,,,,,,,,,,,,,,,,
228226,1469910946931,,,,,,,0.04,0.07,0.99,-3.0,-0.2,-0.1,740,0,,,,,,,,,,,,,,,,,
228246,1469910946951,0,203.2,176.8,12,185.3,,0.04,0.07,0.99,-3.0,-0.1,-0.2,720,0,0.0,0,39.53661,-122.332199,0.0,0.007,262.4,8,3,1.8,0,0.0,-1,0.0,0.0,0.0,0
228266,1469910946971,,,,,,,0.04,0.07,0.99,-3.0,0.0,-0.2,720,0,,,,,,,,,,,,,,,,,
228286,1469910946991,,,,,,,0.04,0.07,0.99,-3.1,-0.1,-0.1,740,0,,,,,,,,,,,,,,,,,
228306,1469910946907,,,,,,,0.04,0.07,0.98,-3.0,-0.1,-0.0,740,0,,,,,,,,,,,,,,,,,
228326,1469910946927,,,,,,,0.04,0.07,0.98,-3.0,-0.1,-0.2,740,0,,,,,,,,,,,,,,,,,
228346,1469910946947,,,,10,,,0.04,0.06,0.98,-3.0,0.1,-0.2,740,0,0.0,0,39.53661,-122.332199,0.0,0.007,262.4,8,3,1.8,0,0.0,-1,0.0,,0.0,0
228366,1469910946967,,,,,,,0.04,0.06,0.98,-3.0,0.1,-0.1,720,0,,,,,,,,,,,,,,,,,
228386,1469910946992,,,,,,,0.04,0.07,0.98,-3.0,0.0,-0.0,740,0,,,,,,,,,,,,,,,,,
228406,1469910947012,,,,,,,0.04,0.06,0.98,-2.9,-0.0,-0.1,740,0,,,,,,,,,,,,,,,,,
228426,1469910947032,,,,,,,0.04,0.06,0.98,-2.9,-0.0,-0.2,740,0,,,,,,,,,,,,,,,,,
228446,1469910947052,0,203.8,177.8,12,185.9,,0.04,0.06,0.98,-3.0,0.1,-0.1,740,0,0.0,0,39.53661,-122.332199,0.0,0.007,262.4,8,3,1.8,0,0.0,-1,0.0,0.0,0.0,0
228466,1469910947072,,,,,,,0.04,0.06,0.98,-2.9,-0.0,-0.1,740,0,,,,,,,,,,,,,,,,,
228486,1469910947093,,,,,,,0.04,0.06,0.98,-2.9,-0.1,-0.2,740,0,,,,,,,,,,,,,,,,,
228506,1469910947113,,,,,,,0.04,0.05,0.97,-2.9,0.1,-0.2,740,0,,,,,,,,,,,,,,,,,
228526,1469910947133,,,,,,,0.04,0.06,0.97,-2.9,0.1,-0.1,720,0,,,,,,,,,,,,,,,,,
228546,1469910947153,,,,12,,,0.04,0.06,0.98,-2.9,0.1,-0.1,740,0,0.0,0,39.53661,-122.332199,0.0,0.007,262.4,8,3,1.8,0,0.0,-1,0.0,,0.0,0
228566,1469910947173,,,,,,,0.04,0.06,0.98,-2.8,-0.0,-0.2,720,0,,,,,,,,,,,,,,,,,
228586,1469910947193,,,,,,,0.04,0.05,0.97,-2.8,0.0,-0.2,720,0,,,,,,,,,,,,,,,,,
228606,1469910947213,,,,,,,0.04,0.05,0.97,-2.9,0.1,-0.1,720,0,,,,,,,,,,,,,,,,,
228626,1469910947233,,,,,,,0.04,0.05,0.98,-2.8,0.1,-0.1,740,0,,,,,,,,,,,,,,,,,
228646,1469910947253,0,205.8,180.3,12,188.1,,0.04,0.05,0.98,-2.8,-0.0,-0.2,740,0,0.0,0,39.53661,-122.332199,0.0,0.007,262.4,8,3,1.8,0,0.0,-1,0.0,0.0,0.0,0
228666,1469910947273,,,,,,,0.04,0.05,0.97,-2.8,0.1,-0.2,740,0,,,,,,,,,,,,,,,,,
228686,1469910947292,,,,,,,0.04,0.05,0.97,-2.9,0.1,-0.1,720,0,,,,,,,,,,,,,,,,,
228706,1469910947312,,,,,,,0.04,0.06,0.98,-2.9,0.1,-0.1,740,0,,,,,,,,,,,,,,,,,
228726,1469910947332,,,,,,,0.04,0.05,0.98,-2.9,-0.0,-0.2,720,0,,,,,,,,,,,,,,,,,
228746,1469910947352,,,,11,,,0.04,0.06,0.97,-2.9,0.0,-0.1,720,0,0.0,0,39.53661,-122.332199,0.0,0.007,262.4,8,3,1.8,0,0.0,-1,0.0,,0.0,0
228766,1469910947372,,,,,,,0.04,0.06,0.98,-3.0,0.1,-0.1,740,0,,,,,,,,,,,,,,,,,
228786,1469910947393,,,,,,,0.04,0.06,0.99,-3.0,0.1,-0.2,740,0,,,,,,,,,,,,,,,,,
228806,1469910947413,,,,,,,0.04,0.06,0.99,-3.0,0.1,-0.2,740,0,,,,,,,,,,,,,,,,,
228826,1469910947433,,,,,,,0.04,0.07,0.98,-3.0,0.0,-0.1,740,0,,,,,,,,,,,,,,,,,
228846,1469910947453,0,204.1,178.5,11,186.2,,0.04,0.07,0.99,-3.0,0.0,-0.0,720,0,0.0,0,39.53661,-122.332199,0.0,0.007,262.4,8,3,1.8,0,0.0,-1,0.0,0.0,0.0,0
228866,1469910947473,,,,,,,0.04,0.07,0.99,-2.9,0.0,-0.2,740,0,,,,,,,,,,,,,,,,,
228886,1469910947591,,,,,,,0.03,0.06,0.99,-3.0,0.1,-0.2,740,0,,,,,,,,,,,,,,,,,
228906,1469910947611,,,,,,,0.03,0.07,0.99,-3.0,0.1,-0.1,740,0,,,,,,,,,,,,,,,,,
228926,1469910947631,,,,,,,0.04,0.07,0.99,-3.0,0.1,-0.1,740,0,,,,,,,,,,,,,,,,,
228946,1469910947651,,,,13,,,0.03,0.07,0.99,-3.0,0.1,-0.2,740,0,0.0,0,39.53661,-122.332199,0.0,0.007,262.4,8,3,1.8,0,0.0,-1,0.0,,0.0,0
228966,1469910947671,,,,,,,0.03,0.06,0.99,-2.9,0.1,-0.2,740,0,,,,,,,,,,,,,,,,,
228986,1469910947691,,,,,,,0.03,0.06,0.99,-3.0,0.1,-0.1,740,0,,,,,,,,,,,,,,,,,
229006,1469910947711,,,,,,,0.03,0.07,0.99,-3.0,0.0,-0.1,700,0,,,,,,,,,,,,,,,,,
229026,1469910947731,,,,,,,0.03,0.06,0.99,-2.9,-0.0,-0.2,720,0,,,,,,,,,,,,,,,,,
229046,1469910947751,0,203.0,177.2,13,184.8,13.25,0.03,0.06,0.99,-2.9,0.1,-0.2,720,0,0.0,0,39.53661,-122.332199,0.0,0.007,262.4,8,3,1.8,0,0.0,-1,0.0,0.0,0.0,0
229066,1469910947771,,,,,,,0.03,0.06,0.99,-3.0,0.0,-0.1,720,0,,,,,,,,,,,,,,,,,
229086,1469910947692,,,,,,,0.03,0.06,0.99,-2.9,-0.0,-0.1,720,0,,,,,,,,,,,,,,,,,
229106,1469910947712,,,,,,,0.03,0.06,0.99,-2.9,-0.1,-0.2,740,0,,,,,,,,,,,,,,,,,
229126,1469910947732,,,,,,,0.03,0.06,0.98,-2.9,-0.0,-0.2,740,0,,,,,,,,,,,,,,,,,
229146,1469910947752,,,,11,,,0.03,0.06,0.99,-2.9,0.1,-0.1,720,0,0.0,0,39.53661,-122.332199,0.0,0.007,262.4,8,3,1.8,0,0.0,-1,0.0,,0.0,0
229166,1469910947772,,,,,,,0.03,0.05,0.99,-2.9,0.1,-0.1,720,0,,,,,,,,,,,,,,,,,
229186,1469910947793,,,,,,,0.03,0.05,0.99,-2.9,0.0,-0.2,740,0,,,,,,,,,,,,,,,,,
229206,1469910947813,,,,,,,0.03,0.06,0.99,-2.9,0.0,-0.2,740,0,,,,,,,,,,,,,,,,,
229226,1469910947833,,,,,,,0.04,0.06,0.99,-3.0,0.1,-0.1,720,0,,,,,,,,,,,,,,,,,
229246,1469910947853,0,202.8,178.7,12,186.0,,0.04,0.06,0.99,-2.9,0.1,-0.2,720,0,0.0,0,39.53661,-122.332199,0.0,0.007,262.4,8,3,1.8,0,0.0,-1,0.0,0.0,0.0,0
229266,1469910947873,,,,,,,0.03,0.06,0.99,-3.0,0.2,-0.2,720,0,,,,,,,,,,,,,,,,,
229286,1469910947893,,,,,,,0.03,0.07,0.99,-3.0,0.1,-0.2,720,0,,,,,,,,,,,,,,,,,
229306,1469910947907,,,,,,,0.04,0.07,0.99,-3.0,0.1,-0.1,740,0,,,,,,,,,,,,,,,,,
229326,1469910947927,,,,,,,0.04,0.07,0.99,-3.0,0.1,-0.2,700,0,,,,,,,,,,,,,,,,,
229346,1469910947947,,,,13,,,0.04,0.06,0.99,-3.0,0.1,-0.2,700,0,0.0,0,39.53661,-122.332199,0.0,0.007,262.4,8,3,1.8,0,0.0,-1,0.0,,0.0,0
229366,1469910947967,,,,,,,0.04,0.07,0.99,-3.0,0.1,-0.1,720,0,,,,,,,,,,,,,,,,,
229386,1469910947992,,,,,,,0.04,0.06,0.98,-2.9,-0.0,-0.1,720,0,,,,,,,,,,,,,,,,,
229406,1469910948012,,,,,,,0.03,0.06,0.98,-2.9,-0.0,-0.2,720,0,,,,,,,,,,,,,,,,,
229426,1469910948032,,,,,,,0.04,0.06,0.98,-2.9,0.1,-0.2,720,0,,,,,,,,,,,,,,,,,
229446,1469910948052,0,202.4,178.7,11,185.9,,0.04,0.06,0.98,-2.9,0.1,-0.1,720,0,0.0,0,39.53661,-122.332199,0.0,0.007,262.4,8,3,1.8,0,0.0,-1,0.0,0.0,0.0,0
229466,1469910948072,,,,,,,0.04,0.06,0.98,-2.9,0.1,-0.1,720,0,,,,,,,,,,,,,,,,,
229486,1469910948093,,,,,,,0.03,0.05,0.98,-2.9,0.0,-0.2,700,0,,,,,,,,,,,,,,,,,
229506,1469910948113,,,,,,,0.03,0.06,0.98,-2.9,0.1,-0.1,700,0,,,,,,,,,,,,,,,,,
229526,1469910948133,,,,,,,0.04,0.06,0.98,-2.9,0.1,-0.1,720,0,,,,,,,,,,,,,,,,,
229546,1469910948153,,,,11,,,0.04,0.07,0.98,-2.9,0.1,-0.2,720,0,0.0,0,39.53661,-122.332199,0.0,0.007,262.4,8,3,1.8,0,0.0,-1,0.0,,0.0,0
229566,1469910948173,,,,,,,0.04,0.07,0.98,-3.0,0.2,-0.2,720,0,,,,,,,,,,,,,,,,,
229586,1469910948193,,,,,,,0.04,0.07,0.98,-3.0,0.1,-0.1,720,0,,,,,,,,,,,,,,,,,
229606,1469910948213,,,,,,,0.04,0.06,0.98,-3.0,0.1,-0.1,720,0,,,,,,,,,,,,,,,,,
229626,1469910948233,,,,,,,0.04,0.06,0.98,-3.0,0.1,-0.2,720,0,,,,,,,,,,,,,,,,,
229646,1469910948253,0,203.9,177.2,11,184.4,,0.04,0.06,0.97,-3.0,0.3,-0.2,720,0,0.0,0,39.53661,-122.332199,0.0,0.007,262.4,8,3,1.8,0,0.0,-1,0.0,0.0,0.0,0
229666,1469910948273,,,,,,,0.04,0.06,0.97,-3.0,0.3,-0.1,700,0,,,,,,,,,,,,,,,,,
229686,1469910948392,,,,,,,0.04,0.06,0.98,-2.9,0.2,-0.1,720,0,,,,,,,,,,,,,,,,,
229706,1469910948412,,,,,,,0.03,0.06,0.98,-2.9,0.2,-0.2,720,0,,,,,,,,,,,,,,,,,
229726,1469910948432,,,,,,,0.04,0.06,0.98,-3.0,0.2,-0.1,720,0,,,,,,,,,,,,,,,,,
229746,1469910948452,,,,10,,,0.04,0.07,0.98,-3.0,0.2,-0.1,720,0,0.0,0,39.53661,-122.332199,0.0,0.007,262.4,8,3,1.8,0,0.0,-1,0.0,,0.0,0
229766,1469910948472,,,,,,,0.04,0.07,0.98,-3.0,0.2,-0.2,720,0,,,,,,,,,,,,,,,,,
229786,1469910948492,,,,,,,0.03,0.07,0.98,-3.0,0.2,-0.2,720,0,,,,,,,,,,,,,,,,,
229806,1469910948512,,,,,,,0.03,0.07,0.98,-3.0,0.1,-0.1,720,0,,,,,,,,,,,,,,,,,
229826,1469910948532,,,,,,,0.03,0.06,0.98,-3.0,0.0,-0.2,700,0,,,,,,,,,,,,,,,,,
229846,1469910948552,0,202.9,178.3,10,185.2,,0.03,0.06,0.98,-2.9,-0.1,-0.2,700,0,0.0,0,39.53661,-122.332199,0.0,0.007,262.4,8,3,1.8,0,0.0,-1,0.0,0.0,0.0,0
229866,1469910948572,,,,,,,0.04,0.06,0.98,-3.0,0.0,-0.2,700,0,,,,,,,,,,,,,,,,,
229886,1469910948493,,,,,,,0.04,0.06,0.98,-3.0,0.1,-0.1,700,0,,,,,,,,,,,,,,,,,
229906,1469910948513,,,,,,,0.04,0.06,0.99,-3.0,0.1,-0.2,700,0,,,,,,,,,,,,,,,,,
229926,1469910948533,,,,,,,0.03,0.06,0.99,-3.0,0.2,-0.2,700,0,,,,,,,,,,,,,,,,,
229946,1469910948553,,,,12,,,0.04,0.06,0.98,-3.0,0.1,-0.0,700,0,0.0,0,39.53661,-122.332199,0.0,0.007,262.4,8,3,1.8,0,0.0,-1,0.0,,0.0,0
229966,1469910948573,,,,,,,0.04,0.06,0.98,-3.0,0.1,-0.0,700,0,,,,,,,,,,,,,,,,,
229986,1469910948592,,,,,,,0.03,0.06,0.98,-2.9,-0.0,-0.1,700,0,,,,,,,,,,,,,,,,,
230006,1469910948612,,,,,,,0.04,0.06,0.98,-2.9,0.1,-0.0,680,0,,,,,,,,,,,,,,,,,
230026,1469910948632,,,,,,,0.04,0.07,0.98,-3.0,0.1,0.0,700,0,,,,,,,,,,,,,,,,,
230046,1469910948652,0,203.9,177.9,11,184.5,13.29,0.04,0.07,0.98,-2.9,0.1,-0.1,700,0,0.0,0,39.53661,-122.332199,0.0,0.007,262.4,8,3,1.8,0,0.0,-1,0.0,0.0,0.0,0
230066,1469910948672,,,,,,,0.04,0.07,0.98,-2.9,0.2,-0.1,700,0,,,,,,,,,,,,,,,,,
230086,1469910948692,,,,,,,0.03,0.07,0.98,-3.0,0.1,-0.0,700,0,,,,,,,,,,,,,,,,,
230106,1469910948712,,,,,,,0.03,0.06,0.99,-2.9,0.1,-0.1,700,0,,,,,,,,,,,,,,,,,
230126,1469910948732,,,,,,,0.03,0.06,0.99,-2.9,0.0,-0.2,700,0,,,,,,,,,,,,,,,,,
230146,1469910948752,,,,11,,,0.04,0.07,0.99,-2.9,0.0,-0.1,700,0,0.0,0,39.53661,-122.332199,0.0,0.007,262.4,8,3,1.8,0,0.0,-1,0.0,,0.0,0
230166,1469910948772,,,,,,,0.04,0.06,0.98,-2.9,-0.0,-0.1,680,0,,,,,,,,,,,,,,,,,
230186,1469910948793,,,,,,,0.04,0.06,0.99,-2.9,0.0,-0.2,680,0,,,,,,,,,,,,,,,,,
230206,1469910948813,,,,,,,0.04,0.07,0.99,-2.9,0.2,-0.2,680,0,,,,,,,,,,,,,,,,,
230226,1469910948833,,,,,,,0.04,0.07,0.99,-3.0,0.2,-0.1,680,0,,,,,,,,,,,,,,,,,
230246,1469910948853,0,202.6,179.0,11,185.4,,0.04,0.06,0.99,-3.0,0.2,-0.2,700,0,0.0,0,39.53661,-122.332199,0.0,0.007,262.4,8,3,1.8,0,0.0,-1,0.0,0.0,0.0,0
230266,1469910948873,,,,,,,0.03,0.06,0.99,-3.0,0.2,-0.2,700,0,,,,,,,,,,,,,,,,,
230286,1469910948893,,,,,,,0.03,0.06,0.98,-3.0,0.1,-0.0,700,0,,,,,,,,,,,,,,,,,
230306,1469910948907,,,,,,,0.03,0.07,0.99,-3.0,0.0,-0.1,700,0,,,,,,,,,,,,,,,,,
230326,1469910948927,,,,,,,0.03,0.06,0.99,-3.0,-0.1,-0.2,700,0,,,,,,,,,,,,,,,,,
230346,1469910948947,,,,11,,,0.03,0.07,0.98,-3.0,0.0,-0.1,680,0,0.0,0,39.53661,-122.332199,0.0,0.007,262.4,8,3,1.8,0,0.0,-1,0.0,,0.0,0
230366,1469910948967,,,,,,,0.04,0.06,0.98,-3.0,0.0,-0.0,700,0,,,,,,,,,,,,,,,,,
230386,1469910948992,,,,,,,0.04,0.06,0.99,-2.9,0.1,-0.1,680,0,,,,,,,,,,,,,,,,,
230406,1469910949012,,,,,,,0.04,0.07,0.99,-3.0,0.2,-0.1,680,0,,,,,,,,,,,,,,,,,
230426,1469910949032,,,,,,,0.04,0.07,0.99,-3.0,0.3,-0.0,700,0,,,,,,,,,,,,,,,,,
230446,1469910949052,0,202.4,178.9,10,185.2,,0.04,0.07,0.99,-3.0,0.2,-0.1,700,0,0.0,0,39.53661,-122.332199,0.0,0.007,262.4,8,3,1.8,0,0.0,-1,0.0,0.0,0.0,0
230466,1469910949072,,,,,,,0.03,0.07,0.99,-3.0,0.2,-0.2,700,0,,,,,,,,,,,,,,,,,
230486,1469910949192,,,,,,,0.03,0.07,0.99,-3.0,0.1,-0.1,700,0,,,,,,,,,,,,,,,,,
230506,1469910949212,,,,,,,0.03,0.07,0.99,-3.0,0.1,-0.1,660,0,,,,,,,,,,,,,,,,,
230526,1469910949232,,,,,,,0.03,0.06,0.99,-3.0,0.0,-0.2,660,0,,,,,,,,,,,,,,,,,
230546,1469910949252,,,,10,,,0.03,0.06,0.99,-3.0,0.0,-0.0,680,0,0.0,0,39.53661,-122.332199,0.0,0.007,262.4,8,3,1.8,0,0.0,-1,0.0,,0.0,0
230566,1469910949272,,,,,,,0.03,0.06,0.99,-3.0,0.1,-0.0,680,0,,,,,,,,,,,,,,,,,
230586,1469910949292,,,,,,,0.03,0.06,0.99,-2.9,0.0,-0.2,680,0,,,,,,,,,,,,,,,,,
230606,1469910949312,,,,,,,0.04,0.06,0.99,-3.0,0.1,-0.0,680,0,,,,,,,,,,,,,,,,,
230626,1469910949332,,,,,,,0.04,0.06,0.99,-3.0,0.1,0.0,680,0,,,,,,,,,,,,,,,,,
230646,1469910949352,0,202.9,178.7,11,184.8,,0.03,0.06,0.99,-3.0,0.2,-0.1,680,0,0.0,0,39.53661,-122.332199,0.0,0.007,262.4,8,3,1.8,0,0.0,-1,0.0,0.0,0.0,0
230666,1469910949372,,,,,,,0.04,0.06,0.99,-3.0,0.3,-0.0,680,0,,,,,,,,,,,,,,,,,
230686,1469910949293,,,,,,,0.04,0.06,0.99,-3.0,0.3,0.0,640,0,,,,,,,,,,,,,,,,,
230706,1469910949313,,,,,,,0.03,0.05,0.99,-3.0,0.3,-0.1,660,0,,,,,,,,,,,,,,,,,
230726,1469910949333,,,,,,,0.04,0.05,0.99,-3.0,0.3,-0.1,660,0,,,,,,,,,,,,,,,,,
230746,1469910949353,,,,11,,,0.04,0.06,1.0,-3.0,0.3,-0.0,660,0,0.0,0,39.53661,-122.332199,0.0,0.007,262.4,8,3,1.8,0,0.0,-1,0.0,,0.0,0
230766,1469910949373,,,,,,,0.03,0.05,1.0,-3.0,0.2,-0.1,660,0,,,,,,,,,,,,,,,,,
230786,1469910949392,,,,,,,0.03,0.05,1.0,-3.0,0.3,-0.0,660,0,,,,,,,,,,,,,,,,,
230806,1469910949412,,,,,,,0.03,0.05,1.0,-3.0,0.3,-0.0,660,0,,,,,,,,,,,,,,,,,
230826,1469910949432,,,,,,,0.03,0.05,1.0,-3.0,0.3,-0.1,660,0,,,,,,,,,,,,,,,,,
230846,1469910949452,0,203.5,177.5,9,183.7,,0.04,0.05,1.0,-3.0,0.4,-0.1,660,0,0.0,0,39.53661,-122.332199,0.0,0.007,262.4,8,3,1.8,0,0.0,-1,0.0,0.0,0.0,0
230866,1469910949472,,,,,,,0.04,0.06,0.99,-3.0,0.4,-0.0,620,0,,,,,,,,,,,,,,,,,
230886,1469910949492,,,,,,,0.04,0.05,0.99,-3.0,0.3,-0.1,620,0,,,,,,,,,,,,,,,,,
230906,1469910949512,,,,,,,0.04,0.06,0.99,-3.0,0.3,-0.1,640,0,,,,,,,,,,,,,,,,,
230926,1469910949532,,,,,,,0.04,0.06,0.99,-3.0,0.3,-0.1,640,0,,,,,,,,,,,,,,,,,
230946,1469910949552,,,,9,,,0.04,0.05,0.98,-3.0,0.3,-0.2,640,0,0.0,0,39.53661,-122.332199,0.0,0.007,262.4,8,3,1.8,0,0.0,-1,0.0,,0.0,0
230966,1469910949572,,,,,,,0.05,0.07,0.99,-3.0,0.2,-0.1,640,0,,,,,,,,,,,,,,,,,
230986,1469910949592,,,,,,,0.04,0.07,0.98,-3.0,0.2,-0.0,660,0,,,,,,,,,,,,,,,,,
231006,1469910949612,,,,,,,0.04,0.07,0.98,-3.0,0.1,-0.1,660,0,,,,,,,,,,,,,,,,,
231026,1469910949632,,,,,,,0.04,0.07,0.98,-3.1,0.0,-0.0,660,0,,,,,,,,,,,,,,,,,
231046,1469910949652,0,205.1,175.9,9,181.9,13.18,0.04,0.07,0.98,-3.0,-0.1,-0.0,620,0,0.0,0,39.53661,-122.332199,0.0,0.007,262.4,8,3,1.8,0,0.0,-1,0.0,0.0,0.0,0
231066,1469910949672,,,,,,,0.04,0.06,0.98,-3.0,-0.0,-0.1,620,0,,,,,,,,,,,,,,,,,
231086,1469910949693,,,,,,,0.04,0.06,0.98,-3.0,-0.1,0.0,640,0,,,,,,,,,,,,,,,,,
231106,1469910949713,,,,,,,0.03,0.06,0.98,-3.0,-0.2,0.0,660,0,,,,,,,,,,,,,,,,,
231126,1469910949733,,,,,,,0.03,0.06,0.98,-3.0,-0.1,-0.0,660,0,,,,,,,,,,,,,,,,,
231146,1469910949753,,,,10,,,0.03,0.07,0.98,-3.1,-0.1,0.1,660,0,0.0,0,39.53661,-122.332199,0.0,0.007,262.4,8,3,1.8,0,0.0,-1,0.0,,0.0,0
231166,1469910949773,,,,,,,0.03,0.07,0.99,-3.0,-0.1,0.0,660,0,,,,,,,,,,,,,,,,,
231186,1469910949793,,,,,,,0.03,0.07,0.99,-3.1,-0.0,-0.1,660,0,,,,,,,,,,,,,,,,,
231206,1469910949813,,,,,,,0.03,0.07,0.99,-3.1,-0.1,-0.0,640,43,,,,,,,,,,,,,,,,,
231226,1469910949833,,,,,,,0.03,0.07,0.99,-3.0,-0.2,-0.0,620,52,,,,,,,,,,,,,,,,,
231246,1469910949853,0,203.3,178.3,9,184.1,,0.02,0.06,0.99,-3.0,-0.1,-0.0,620,81,7.654,0,39.53661,-122.332199,0.0,0.007,262.4,8,3,1.8,0,0.0,-1,0.0,0.0,0.0,0
231266,1469910949873,,,,,,,0.02,0.06,0.99,-3.0,0.1,-0.0,640,92,,,,,,,,,,,,,,,,,
231286,1469910949893,,,,,,,0.01,0.06,0.98,-3.0,0.0,-0.1,620,92,,,,,,,,,,,,,,,,,
231306,1469910950006,,,,,,,0.01,0.06,0.98,-3.1,0.0,0.0,620,35,,,,,,,,,,,,,,,,,
231326,1469910950026,,,,,,,0.01,0.06,0.98,-3.1,0.1,0.1,640,35,,,,,,,,,,,,,,,,,
231346,1469910950046,,,,11,,,0.0,0.06,0.98,-3.1,0.0,0.0,640,32,20.0,0,39.53661,-122.332199,0.0,0.007,262.4,8,3,1.8,0,0.0,-1,0.0,,0.0,0
231366,1469910950066,,,,,,,-0.01,0.06,0.98,-3.1,0.2,-0.0,620,32,,,,,,,,,,,,,,,,,
231386,1469910950086,,,,,,,-0.01,0.06,0.98,-3.1,0.1,-0.1,600,32,,,,,,,,,,,,,,,,,
231406,1469910950106,,,,,,,-0.0,0.05,0.98,-3.1,0.2,-0.1,600,40,,,,,,,,,,,,,,,,,
231426,1469910950126,,,,,,,0.0,0.06,0.98,-3.2,0.1,0.0,560,40,,,,,,,,,,,,,,,,,
231446,1469910950146,0,200.9,180.8,9,186.2,,0.0,0.06,0.98,-3.2,0.1,0.0,560,40,14.0,0,39.53661,-122.332199,0.0,0.007,262.4,8,3,1.8,0,0.0,-1,0.0,0.0,0.0,0
231466,1469910950166,,,,,,,0.01,0.07,0.98,-3.2,0.2,0.0,580,40,,,,,,,,,,,,,,,,,
231486,1469910950186,,,,,,,0.01,0.07,0.98,-3.2,0.1,-0.0,560,40,,,,,,,,,,,,,,,,,
231506,1469910950110,,,,,,,0.01,0.07,0.98,-3.3,0.2,-0.0,560,23,,,,,,,,,,,,,,,,,
231526,1469910950130,,,,,,,0.01,0.07,0.98,-3.3,0.2,0.0,560,23,,,,,,,,,,,,,,,,,
231546,1469910950150,,,,7,,,0.0,0.06,0.98,-3.3,0.3,-0.0,560,23,24.348,0,39.53661,-122.332199,0.0,0.007,262.4,8,3,1.8,0,0.0,-1,0.0,,0.0,0
231566,1469910950170,,,,,,,0.0,0.07,0.98,-3.4,0.2,0.1,560,1538461,,,,,,,,,,,,,,,,,
231586,1469910950192,,,,,,,0.0,0.07,0.98,-3.4,0.2,0.1,560,424,,,,,,,,,,,,,,,,,
231606,1469910950212,,,,,,,0.01,0.08,0.98,-3.5,0.2,0.1,520,424,,,,,,,,,,,,,,,,,
231626,1469910950232,,,,,,,0.0,0.07,0.98,-3.4,0.2,0.1,520,424,,,,,,,,,,,,,,,,,
231646,1469910950252,0,203.7,179.2,7,183.0,,0.0,0.08,0.98,-3.5,0.1,0.1,500,424,1.179,3,39.53661,-122.332199,0.0,0.007,262.4,8,3,1.8,0,0.0,-1,0.0,0.0,0.0,0
231666,1469910950272,,,,,,,0.0,0.07,0.98,-3.4,0.1,0.1,500,30,,,,,,,,,,,,,,,,,
231686,1469910950292,,,,,,,0.0,0.07,0.98,-3.5,0.1,0.1,520,30,,,,,,,,,,,,,,,,,
231706,1469910950312,,,,,,,0.0,0.07,0.98,-3.6,0.1,0.0,520,30,,,,,,,,,,,,,,,,,
231726,1469910950332,,,,,,,0.0,0.08,0.98,-3.6,0.1,0.1,500,20,,,,,,,,,,,,,,,,,
231746,1469910950352,,,,8,,,0.01,0.08,0.99,-3.7,0.1,0.1,500,20,25.0,0,39.53661,-122.332199,0.0,0.007,262.4,8,3,1.8,0,0.0,-1,0.0,,0.0,0
231766,1469910950372,,,,,,,0.01,0.09,0.99,-3.8,0.2,0.1,480,20,,,,,,,,,,,,,,,,,
231786,1469910950392,,,,,,,0.01,0.09,0.99,-3.8,0.3,0.1,500,23,,,,,,,,,,,,,,,,,
231806,1469910950412,,,,,,,0.01,0.08,0.99,-3.9,0.2,0.1,500,23,,,,,,,,,,,,,,,,,
231826,1469910950432,,,,,,,0.01,0.08,1.0,-4.0,0.3,0.0,480,23,,,,,,,,,,,,,,,,,
231846,1469910950452,0,203.7,179.1,6,182.9,,0.01,0.09,0.99,-4.1,0.3,0.1,480,29,16.552,0,39.53661,-122.332199,0.0,0.007,262.4,8,3,1.8,0,0.0,-1,0.0,0.0,0.0,0
231866,1469910950472,,,,,,,0.01,0.08,0.99,-4.1,0.2,0.1,480,29,,,,,,,,,,,,,,,,,
231886,1469910950492,,,,,,,0.01,0.09,0.99,-4.2,0.2,0.1,440,29,,,,,,,,,,,,,,,,,
231906,1469910950512,,,,,,,0.01,0.09,0.99,-4.2,0.1,0.0,440,29,,,,,,,,,,,,,,,,,
231926,1469910950532,,,,,,,0.01,0.09,0.99,-4.3,0.2,0.0,480,29,,,,,,,,,,,,,,,,,
231946,1469910950552,,,,6,,,0.0,0.08,0.99,-4.4,0.2,-0.0,480,27,17.778,0,39.53661,-122.332199,0.0,0.007,262.4,8,3,1.8,0,0.0,-1,0.0,,0.0,0
231966,1469910950572,,,,,,,0.0,0.09,0.99,-4.5,0.2,0.0,480,27,,,,,,,,,,,,,,,,,
231986,1469910950593,,,,,,,-0.0,0.08,0.98,-4.6,0.2,-0.0,480,38,,,,,,,,,,,,,,,,,
232006,1469910950613,,,,,,,0.0,0.09,0.99,-4.7,0.2,0.0,480,38,,,,,,,,,,,,,,,,,
232026,1469910950633,,,,,,,-0.0,0.08,0.99,-4.7,0.2,0.0,480,30,,,,,,,,,,,,,,,,,
232046,1469910950653,0,203.2,178.5,7,183.0,12.93,-0.0,0.09,0.98,-4.8,0.2,0.0,480,30,16.0,0,39.53661,-122.332199,0.0,0.007,262.4,8,3,1.8,0,0.0,-1,0.0,0.0,0.0,0
232066,1469910950673,,,,,,,-0.0,0.08,0.98,-4.9,0.2,0.1,480,38,,,,,,,,,,,,,,,,,
232086,1469910950791,,,,,,,-0.0,0.09,0.98,-5.0,0.1,0.1,480,38,,,,,,,,,,,,,,,,,
232106,1469910950811,,,,,,,-0.01,0.09,0.98,-5.1,0.1,0.1,480,36,,,,,,,,,,,,,,,,,
232126,1469910950831,,,,,,,-0.01,0.09,0.98,-5.3,0.1,0.1,440,36,,,,,,,,,,,,,,,,,
232146,1469910950851,,,,6,,,-0.0,0.09,0.98,-5.4,0.2,0.1,440,41,10.732,0,39.53661,-122.332199,0.0,0.007,262.4,8,3,1.8,0,0.0,-1,0.0,,0.0,0
232166,1469910950871,,,,,,,-0.0,0.09,0.98,-5.5,0.3,0.1,480,41,,,,,,,,,,,,,,,,,
232186,1469910950891,,,,,,,0.0,0.09,0.98,-5.6,0.3,0.1,480,40,,,,,,,,,,,,,,,,,
232206,1469910950911,,,,,,,0.0,0.1,0.98,-5.7,0.2,0.1,480,41,,,,,,,,,,,,,,,,,
232226,1469910950931,,,,,,,-0.0,0.09,0.98,-5.8,0.4,0.1,480,41,,,,,,,,,,,,,,,,,
232246,1469910950951,0,202.3,177.5,6,184.1,,-0.0,0.09,0.98,-5.9,0.4,0.1,500,49,10.204,0,39.53661,-122.332199,0.0,0.007,262.4,8,3,1.8,0,0.0,-1,0.0,0.0,0.0,0
232266,1469910950971,,,,,,,-0.0,0.09,0.98,-6.0,0.4,0.1,500,49,,,,,,,,,,,,,,,,,
232286,1469910950991,,,,,,,-0.0,0.09,0.98,-6.2,0.4,0.1,520,41,,,,,,,,,,,,,,,,,
232306,1469910950906,,,,,,,-0.0,0.09,0.98,-6.3,0.4,0.1,520,49,,,,,,,,,,,,,,,,,
232326,1469910950926,,,,,,,-0.0,0.1,0.99,-6.4,0.3,0.0,500,49,,,,,,,,,,,,,,,,,
232346,1469910950946,,,,6,,,-0.01,0.09,0.99,-6.5,0.2,-0.0,500,52,9.615,0,39.53661,-122.332199,0.0,0.007,262.4,8,3,1.8,0,0.0,-1,0.0,,0.0,0
232366,1469910950966,,,,,,,-0.01,0.1,0.98,-6.7,0.2,0.1,480,47,,,,,,,,,,,,,,,,,
232386,1469910950993,,,,,,,-0.0,0.09,0.98,-6.8,0.2,0.0,480,47,,,,,,,,,,,,,,,,,
232406,1469910951013,,,,,,,-0.0,0.1,0.98,-6.9,0.3,0.1,520,52,,,,,,,,,,,,,,,,,
232426,1469910951033,,,,,,,-0.0,0.1,0.98,-7.0,0.1,0.0,520,52,,,,,,,,,,,,,,,,,
232446,1469910951053,0,202.9,178.2,7,183.1,,-0.01,0.1,0.99,-7.1,0.2,0.1,520,55,10.0,0,39.53661,-122.332199,0.0,0.007,262.4,8,3,1.8,0,0.0,-1,0.0,0.0,0.0,0
232466,1469910951073,,,,,,,-0.0,0.09,0.99,-7.2,0.1,0.0,520,55,,,,,,,,,,,,,,,,,
232486,1469910951092,,,,,,,-0.0,0.1,0.99,-7.4,0.1,0.1,540,56,,,,,,,,,,,,,,,,,
232506,1469910951112,,,,,,,0.0,0.1,0.99,-7.5,0.1,0.1,540,55,,,,,,,,,,,,,,,,,
232526,1469910951132,,,,,,,-0.0,0.11,0.99,-7.7,0.2,0.1,540,55,,,,,,,,,,,,,,,,,
232546,1469910951152,,,,7,,,-0.0,0.11,0.99,-7.8,0.3,0.1,540,55,9.818,0,39.53661,-122.332199,0.0,0.007,262.4,8,3,1.8,0,0.0,-1,0.0,,0.0,0
232566,1469910951172,,,,,,,-0.0,0.1,0.98,-8.0,0.3,0.1,540,61,,,,,,,,,,,,,,,,,
232586,1469910951192,,,,,,,-0.0,0.11,0.99,-8.2,0.2,0.2,520,63,,,,,,,,,,,,,,,,,
232606,1469910951212,,,,,,,-0.0,0.1,0.98,-8.3,0.3,0.1,520,58,,,,,,,,,,,,,,,,,
232626,1469910951232,,,,,,,-0.0,0.11,0.98,-8.5,0.3,0.1,540,60,,,,,,,,,,,,,,,,,
232646,1469910951252,0,202.9,178.0,8,183.7,,-0.0,0.09,0.98,-8.6,0.4,0.0,540,60,9.0,0,39.53661,-122.332199,0.0,0.007,262.4,8,3,1.8,0,0.0,-1,0.0,0.0,0.0,0
232666,1469910951272,,,,,,,-0.0,0.11,0.98,-8.8,0.4,0.1,540,67,,,,,,,,,,,,,,,,,
232686,1469910951293,,,,,,,-0.0,0.1,0.98,-8.9,0.2,-0.0,540,66,,,,,,,,,,,,,,,,,
232706,1469910951313,,,,,,,-0.01,0.1,0.98,-9.1,0.3,0.0,560,61,,,,,,,,,,,,,,,,,
232726,1469910951333,,,,,,,-0.01,0.09,0.99,-9.1,0.3,0.0,560,67,,,,,,,,,,,,,,,,,
232746,1469910951353,,,,7,,,-0.02,0.1,0.98,-9.2,0.3,-0.0,560,72,7.778,0,39.53661,-122.332199,0.0,0.007,262.4,8,3,1.8,0,0.0,-1,0.0,,0.0,0
232766,1469910951373,,,,,,,-0.01,0.1,0.99,-9.3,0.2,-0.1,560,67,,,,,,,,,,,,,,,,,
232786,1469910951393,,,,,,,-0.01,0.09,0.98,-9.4,0.1,-0.2,560,69,,,,,,,,,,,,,,,,,
232806,1469910951413,,,,,,,-0.01,0.1,0.98,-9.6,0.1,-0.0,520,72,,,,,,,,,,,,,,,,,
232826,1469910951433,,,,,,,-0.01,0.1,0.98,-9.7,0.1,-0.1,520,73,,,,,,,,,,,,,,,,,
232846,1469910951453,0,202.8,178.2,7,182.8,,-0.0,0.1,0.98,-9.9,0.1,-0.0,540,72,7.5,0,39.536617,-122.332214,0.95,0.008,269.1,8,3,1.8,0,0.0,-1,0.0,0.0,0.0,0
232866,1469910951473,,,,,,,-0.0,0.09,0.98,-10.1,0.0,-0.1,540,75,,,,,,,,,,,,,,,,,
232886,1469910951592,,,,,,,-0.0,0.1,0.98,-10.3,0.1,-0.0,520,80,,,,,,,,,,,,,,,,,
232906,1469910951612,,,,,,,-0.0,0.1,0.98,-10.4,0.1,-0.0,540,80,,,,,,,,,,,,,,,,,
232926,1469910951632,,,,,,,-0.01,0.1,0.99,-10.6,0.2,-0.0,540,78,,,,,,,,,,,,,,,,,
232946,1469910951652,,,,7,,,-0.0,0.1,0.99,-10.6,0.2,0.0,520,76,6.842,0,39.536617,-122.332214,1.23,0.008,269.2,8,3,1.8,0,0.0,-1,0.0,,0.0,0
232966,1469910951672,,,,,,,-0.01,0.1,0.99,-10.8,0.3,0.0,520,80,,,,,,,,,,,,,,,,,
232986,1469910951692,,,,,,,-0.01,0.1,0.99,-10.9,0.2,0.0,520,86,,,,,,,,,,,,,,,,,
233006,1469910951712,,,,,,,-0.01,0.1,0.99,-11.1,0.4,0.0,520,87,,,,,,,,,,,,,,,,,
233026,1469910951732,,,,,,,-0.01,0.11,0.99,-11.2,0.3,0.1,480,84,,,,,,,,,,,,,,,,,
233046,1469910951752,0,203.7,179.2,7,181.7,13.06,-0.01,0.11,0.99,-11.4,0.3,0.1,480,80,6.0,0,39.536617,-122.332214,1.23,0.008,269.2,8,3,1.8,0,0.0,-1,0.0,0.0,0.0,0
233066,1469910951772,,,,,,,-0.0,0.11,0.99,-11.5,0.3,0.1,500,83,,,,,,,,,,,,,,,,,
233086,1469910951693,,,,,,,-0.0,0.1,0.99,-11.6,0.3,0.0,500,87,,,,,,,,,,,,,,,,,
233106,1469910951713,,,,,,,0.0,0.11,0.99,-11.8,0.3,0.0,500,87,,,,,,,,,,,,,,,,,
233126,1469910951733,,,,,,,0.01,0.1,0.99,-11.9,0.3,0.0,500,75,,,,,,,,,,,,,,,,,
233146,1469910951753,,,,6,,,0.02,0.11,0.99,-12.0,0.2,0.0,520,63,8.254,0,39.536617,-122.332214,1.26,0.008,269.2,8,3,1.8,0,0.0,-1,0.0,,0.0,0
233166,1469910951773,,,,,,,0.01,0.1,0.98,-12.1,0.1,-0.0,520,60,,,,,,,,,,,,,,,,,
233186,1469910951793,,,,,,,0.02,0.11,0.99,-12.2,0.1,-0.0,540,58,,,,,,,,,,,,,,,,,
233206,1469910951813,,,,,,,0.02,0.1,0.98,-12.3,0.1,-0.1,540,58,,,,,,,,,,,,,,,,,
233226,1469910951833,,,,,,,0.03,0.11,0.99,-12.4,0.2,-0.1,560,61,,,,,,,,,,,,,,,,,
233246,1469910951853,0,202.9,178.3,7,183.0,,0.03,0.1,0.99,-12.4,0.2,-0.2,560,58,9.655,0,39.536617,-122.332214,1.3,0.008,269.3,8,3,1.8,0,0.0,-1,0.0,0.0,0.0,0
233266,1469910951873,,,,,,,0.03,0.09,0.99,-12.5,0.2,-0.2,560,61,,,,,,,,,,,,,,,,,
233286,1469910951893,,,,,,,0.04,0.09,0.99,-12.5,0.1,-0.1,600,63,,,,,,,,,,,,,,,,,
233306,1469910951909,,,,,,,0.04,0.07,0.99,-12.4,0.1,-0.2,600,66,,,,,,,,,,,,,,,,,
233326,1469910951929,,,,,,,0.05,0.09,0.99,-12.4,0.0,-0.1,620,70,,,,,,,,,,,,,,,,,
233346,1469910951949,,,,9,,,0.06,0.08,0.99,-12.3,-0.0,-0.2,660,80,8.25,0,39.536617,-122.332214,1.76,0.008,269.3,8,3,1.8,0,0.0,-1,0.0,,0.0,0
233366,1469910951969,,,,,,,0.06,0.07,0.99,-12.2,-0.1,-0.2,660,90,,,,,,,,,,,,,,,,,
233386,1469910951993,,,,,,,0.06,0.08,0.99,-12.2,-0.2,-0.1,680,96,,,,,,,,,,,,,,,,,
233406,1469910952013,,,,,,,0.06,0.07,0.99,-12.1,-0.2,-0.0,680,103,,,,,,,,,,,,,,,,,
233426,1469910952033,,,,,,,0.05,0.07,0.99,-12.0,-0.4,-0.1,680,98,,,,,,,,,,,,,,,,,
233446,1469910952053,0,202.6,178.0,10,182.8,,0.06,0.09,0.99,-12.1,-0.4,-0.0,660,96,6.875,0,39.536617,-122.332214,1.96,0.008,269.4,8,3,1.8,0,0.0,-1,0.0,0.0,0.0,0
233466,1469910952073,,,,,,,0.07,0.08,0.99,-12.0,-0.4,0.1,700,100,,,,,,,,,,,,,,,,,
233486,1469910952094,,,,,,,0.07,0.07,0.99,-11.9,-0.3,-0.0,700,95,,,,,,,,,,,,,,,,,
233506,1469910952114,,,,,,,0.07,0.07,0.99,-11.9,-0.1,0.0,700,93,,,,,,,,,,,,,,,,,
233526,1469910952134,,,,,,,0.07,0.08,0.99,-11.9,0.1,0.2,720,90,,,,,,,,,,,,,,,,,
233546,1469910952154,,,,12,,,0.08,0.08,1.0,-11.7,0.2,0.0,720,89,8.09,0,39.536617,-122.332214,1.47,0.008,269.5,8,3,1.8,0,0.0,-1,0.0,,0.0,0
233566,1469910952174,,,,,,,0.06,0.08,1.0,-11.7,0.3,-0.1,720,86,,,,,,,,,,,,,,,,,
233586,1469910952194,,,,,,,0.07,0.08,1.0,-11.7,0.2,0.1,720,83,,,,,,,,,,,,,,,,,
233606,1469910952214,,,,,,,0.07,0.08,0.99,-11.6,0.2,0.2,700,81,,,,,,,,,,,,,,,,,
233626,1469910952234,,,,,,,0.07,0.08,0.99,-11.5,0.1,0.0,740,78,,,,,,,,,,,,,,,,,
233646,1469910952254,0,203.1,178.6,11,181.8,,0.06,0.08,0.99,-11.4,0.2,-0.1,740,75,9.867,0,39.536613,-122.332214,1.73,0.008,269.5,8,3,1.8,0,0.0,-1,0.0,0.0,0.0,0
233666,1469910952274,,,,,,,0.07,0.08,0.99,-11.3,0.2,-0.0,740,72,,,,,,,,,,,,,,,,,
233686,1469910952392,,,,,,,0.07,0.09,0.99,-11.3,0.3,0.0,760,69,,,,,,,,,,,,,,,,,
233706,1469910952412,,,,,,,0.07,0.09,1.0,-11.2,0.2,-0.1,740,64,,,,,,,,,,,,,,,,,
233726,1469910952432,,,,,,,0.07,0.08,1.0,-11.1,0.3,-0.2,740,61,,,,,,,,,,,,,,,,,
233746,1469910952452,,,,10,,,0.07,0.08,1.0,-11.1,0.2,-0.1,740,61,12.131,0,39.536613,-122.332222,1.19,0.009,269.4,8,3,1.8,0,0.0,-1,0.0,,0.0,0
233766,1469910952472,,,,,,,0.07,0.08,0.99,-10.9,0.2,0.0,720,58,,,,,,,,,,,,,,,,,
233786,1469910952492,,,,,,,0.07,0.07,1.0,-10.8,0.0,-0.1,720,55,,,,,,,,,,,,,,,,,
233806,1469910952512,,,,,,,0.07,0.06,1.0,-10.7,0.2,-0.2,720,55,,,,,,,,,,,,,,,,,
233826,1469910952532,,,,,,,0.07,0.06,0.99,-10.6,0.2,-0.0,720,53,,,,,,,,,,,,,,,,,
233846,1469910952552,0,202.2,177.5,10,182.3,,0.07,0.07,0.99,-10.5,0.3,0.0,720,50,14.4,0,39.536613,-122.332222,1.19,0.009,269.4,8,3,1.8,0,0.0,-1,0.0,0.0,0.0,0
233866,1469910952572,,,,,,,0.07,0.07,1.0,-10.3,-0.1,-0.1,740,50,,,,,,,,,,,,,,,,,
233886,1469910952494,,,,,,,0.07,0.07,0.99,-10.2,0.1,-0.1,740,49,,,,,,,,,,,,,,,,,
233906,1469910952514,,,,,,,0.07,0.06,0.99,-10.1,0.1,0.0,720,47,,,,,,,,,,,,,,,,,
233926,1469910952534,,,,,,,0.07,0.07,0.99,-10.0,0.2,-0.0,700,47,,,,,,,,,,,,,,,,,
233946,1469910952554,,,,10,,,0.07,0.07,0.99,-9.8,-0.0,-0.1,720,46,15.652,0,39.536613,-122.332222,1.12,0.009,269.4,8,3,1.8,0,0.0,-1,0.0,,0.0,0
233966,1469910952574,,,,,,,0.07,0.06,0.99,-9.7,0.1,-0.0,720,46,,,,,,,,,,,,,,,,,
233986,1469910952594,,,,,,,0.07,0.06,0.99,-9.6,0.1,0.1,720,43,,,,,,,,,,,,,,,,,
234006,1469910952614,,,,,,,0.07,0.06,0.99,-9.5,0.2,-0.0,740,43,,,,,,,,,,,,,,,,,
234026,1469910952634,,,,,,,0.06,0.06,1.0,-9.4,0.1,-0.1,740,43,,,,,,,,,,,,,,,,,
234046,1469910952654,0,202.9,178.1,11,181.5,13.34,0.06,0.08,0.99,-9.4,0.2,-0.0,740,43,17.209,0,39.536613,-122.332222,1.11,0.009,269.3,8,3,1.8,0,0.0,-1,0.0,0.0,0.0,0
234066,1469910952674,,,,,,,0.05,0.09,0.99,-9.4,0.2,0.0,720,43,,,,,,,,,,,,,,,,,
234086,1469910952693,,,,,,,0.05,0.08,0.99,-9.3,0.1,-0.1,700,43,,,,,,,,,,,,,,,,,
234106,1469910952713,,,,,,,0.04,0.07,0.99,-9.2,0.2,-0.2,700,49,,,,,,,,,,,,,,,,,
234126,1469910952733,,,,,,,0.04,0.07,0.99,-9.2,0.1,-0.1,740,49,,,,,,,,,,,,,,,,,
234146,1469910952753,,,,11,,,0.04,0.07,0.98,-9.2,0.2,-0.0,720,56,12.857,0,39.536613,-122.332222,1.03,0.009,269.3,8,3,1.8,0,0.0,-1,0.0,,0.0,0
234166,1469910952773,,,,,,,0.03,0.07,0.99,-9.1,0.0,-0.1,720,56,,,,,,,,,,,,,,,,,
234186,1469910952794,,,,,,,0.03,0.06,0.98,-9.0,0.2,-0.1,720,56,,,,,,,,,,,,,,,,,
234206,1469910952814,,,,,,,0.03,0.05,0.98,-9.0,0.1,-0.0,740,56,,,,,,,,,,,,,,,,,
234226,1469910952834,,,,,,,0.04,0.06,0.98,-9.0,0.2,-0.0,720,56,,,,,,,,,,,,,,,,,
234246,1469910952854,0,202.6,177.9,12,181.1,,0.03,0.07,0.98,-8.9,-0.1,-0.1,700,55,12.727,0,39.536613,-122.332222,1.06,0.009,269.3,8,3,1.8,0,0.0,-1,0.0,0.0,0.0,0
234266,1469910952874,,,,,,,0.03,0.07,0.98,-8.9,0.0,-0.0,700,53,,,,,,,,,,,,,,,,,
234286,1469910952894,,,,,,,0.04,0.07,0.98,-9.0,-0.0,0.1,720,53,,,,,,,,,,,,,,,,,
234306,1469910952909,,,,,,,0.04,0.07,0.99,-8.9,0.0,-0.0,720,52,,,,,,,,,,,,,,,,,
234326,1469910952929,,,,,,,0.03,0.06,0.99,-8.9,0.1,-0.2,740,50,,,,,,,,,,,,,,,,,
234346,1469910952949,,,,10,,,0.03,0.07,0.99,-8.9,0.1,-0.0,740,50,14.8,0,39.536613,-122.332222,1.04,0.009,269.3,8,3,1.8,0,0.0,-1,0.0,,0.0,0
234366,1469910952969,,,,,,,0.04,0.08,0.99,-9.0,0.1,0.1,740,52,,,,,,,,,,,,,,,,,
234386,1469910952989,,,,,,,0.04,0.09,1.0,-9.0,0.1,-0.0,720,52,,,,,,,,,,,,,,,,,
234406,1469910953008,,,,,,,0.03,0.08,1.0,-9.0,0.1,-0.1,720,52,,,,,,,,,,,,,,,,,
234426,1469910953028,,,,,,,0.03,0.09,0.99,-9.1,0.0,0.0,720,55,,,,,,,,,,,,,,,,,
234446,1469910953048,0,203.1,178.5,12,181.6,,0.03,0.1,0.99,-9.1,0.0,0.1,740,55,13.455,0,39.536613,-122.332222,0.91,0.009,269.3,8,3,1.8,0,0.0,-1,0.0,0.0,0.0,0
234466,1469910953068,,,,,,,0.04,0.09,1.0,-9.0,-0.1,-0.0,720,56,,,,,,,,,,,,,,,,,
234486,1469910953193,,,,,,,0.03,0.08,0.99,-9.0,0.1,-0.1,720,56,,,,,,,,,,,,,,,,,
234506,1469910953213,,,,,,,0.04,0.08,0.99,-9.1,-0.1,0.0,740,56,,,,,,,,,,,,,,,,,
234526,1469910953233,,,,,,,0.04,0.09,0.98,-9.1,0.1,0.1,740,56,,,,,,,,,,,,,,,,,
234546,1469910953253,,,,12,,,0.03,0.08,0.98,-9.1,-0.1,-0.0,720,55,13.091,0,39.536613,-122.332222,1.04,0.009,269.3,8,3,1.8,0,0.0,-1,0.0,,0.0,0
234566,1469910953273,,,,,,,0.03,0.07,0.98,-9.0,0.1,-0.0,720,55,,,,,,,,,,,,,,,,,
234586,1469910953293,,,,,,,0.03,0.07,0.98,-9.1,-0.1,0.1,720,55,,,,,,,,,,,,,,,,,
234606,1469910953313,,,,,,,0.04,0.08,0.98,-9.1,0.0,0.2,740,55,,,,,,,,,,,,,,,,,
234626,1469910953333,,,,,,,0.03,0.08,0.98,-9.0,-0.2,0.0,740,55,,,,,,,,,,,,,,,,,
234646,1469910953353,0,203.7,179.0,13,182.0,,0.03,0.08,0.97,-9.0,-0.2,0.0,740,55,13.455,0,39.536613,-122.332222,1.04,0.009,269.3,8,3,1.8,0,0.0,-1,0.0,0.0,0.0,0
234666,1469910953373,,,,,,,0.04,0.08,0.97,-9.0,-0.2,0.1,740,55,,,,,,,,,,,,,,,,,
234686,1469910953294,,,,,,,0.04,0.08,0.97,-9.0,-0.1,0.1,760,55,,,,,,,,,,,,,,,,,
234706,1469910953314,,,,,,,0.03,0.09,0.98,-9.0,-0.2,-0.0,740,55,,,,,,,,,,,,,,,,,
234726,1469910953334,,,,,,,0.03,0.08,0.97,-9.0,-0.1,-0.0,740,55,,,,,,,,,,,,,,,,,
234746,1469910953354,,,,12,,,0.04,0.09,0.97,-9.1,-0.2,0.1,720,55,13.091,0,39.536613,-122.332222,0.95,0.009,269.2,8,3,1.8,0,0.0,-1,0.0,,0.0,0
234766,1469910953374,,,,,,,0.04,0.09,0.97,-9.1,-0.1,0.0,740,55,,,,,,,,,,,,,,,,,
234786,1469910953394,,,,,,,0.03,0.09,0.97,-9.1,-0.4,-0.1,740,55,,,,,,,,,,,,,,,,,
234806,1469910953414,,,,,,,0.03,0.09,0.97,-9.1,-0.3,-0.0,740,55,,,,,,,,,,,,,,,,,
234826,1469910953434,,,,,,,0.03,0.08,0.97,-9.2,-0.4,0.1,740,55,,,,,,,,,,,,,,,,,
234846,1469910953454,0,203.2,178.5,10,181.5,,0.04,0.09,0.98,-9.2,-0.2,0.1,760,55,13.818,0,39.536613,-122.332222,0.96,0.009,269.1,8,3,1.8,0,0.0,-1,0.0,0.0,0.0,0
234866,1469910953474,,,,,,,0.03,0.09,0.97,-9.1,-0.5,0.0,740,55,,,,,,,,,,,,,,,,,
234886,1469910953494,,,,,,,0.03,0.08,0.97,-9.1,-0.3,0.0,740,55,,,,,,,,,,,,,,,,,
234906,1469910953514,,,,,,,0.04,0.08,0.97,-9.1,-0.3,0.1,740,55,,,,,,,,,,,,,,,,,
234926,1469910953534,,,,,,,0.04,0.09,0.97,-9.1,-0.1,0.1,740,55,,,,,,,,,,,,,,,,,
234946,1469910953554,,,,13,,,0.03,0.09,0.97,-9.0,-0.4,0.0,740,55,13.455,0,39.536613,-122.332222,0.0,0.009,269.1,8,3,1.8,0,0.0,-1,0.0,,0.0,0
234966,1469910953574,,,,,,,0.03,0.09,0.97,-9.1,-0.3,0.0,740,56,,,,,,,,,,,,,,,,,
234986,1469910953594,,,,,,,0.04,0.09,0.97,-9.1,-0.4,0.1,760,56,,,,,,,,,,,,,,,,,
235006,1469910953614,,,,,,,0.04,0.1,0.97,-9.2,-0.3,0.1,760,56,,,,,,,,,,,,,,,,,
235026,1469910953634,,,,,,,0.04,0.09,0.97,-9.1,-0.4,-0.0,740,56,,,,,,,,,,,,,,,,,
235046,1469910953654,0,203.3,178.6,12,181.3,13.45,0.03,0.08,0.97,-9.1,-0.3,-0.1,740,55,13.455,0,39.536613,-122.332222,0.0,0.009,269.1,8,3,1.8,0,0.0,-1,0.0,0.0,0.0,0
235066,1469910953674,,,,,,,0.03,0.08,0.97,-9.1,-0.2,-0.0,740,55,,,,,,,,,,,,,,,,,
235086,1469910953694,,,,,,,0.04,0.09,0.97,-9.2,-0.2,0.1,760,55,,,,,,,,,,,,,,,,,
235106,1469910953714,,,,,,,0.04,0.09,0.98,-9.2,-0.1,-0.0,760,55,,,,,,,,,,,,,,,,,
235126,1469910953734,,,,,,,0.03,0.08,0.98,-9.1,-0.1,-0.1,760,53,,,,,,,,,,,,,,,,,
235146,1469910953754,,,,12,,,0.03,0.08,0.98,-9.1,0.0,-0.1,760,53,14.34,0,39.536613,-122.332222,0.0,0.009,269.1,8,3,1.8,0,0.0,-1,0.0,,0.0,0
235166,1469910953774,,,,,,,0.04,0.08,0.98,-9.1,-0.0,0.1,780,53,,,,,,,,,,,,,,,,,
235186,1469910953794,,,,,,,0.04,0.08,0.98,-9.0,-0.0,-0.0,760,55,,,,,,,,,,,,,,,,,
235206,1469910953814,,,,,,,0.03,0.08,0.98,-9.0,-0.2,-0.1,760,55,,,,,,,,,,,,,,,,,
235226,1469910953834,,,,,,,0.03,0.08,0.97,-9.0,-0.2,-0.2,760,55,,,,,,,,,,,,,,,,,
235246,1469910953854,0,203.7,179.0,14,181.5,,0.03,0.07,0.97,-9.0,-0.3,-0.0,780,55,14.182,0,39.536613,-122.332222,0.0,0.009,269.1,8,3,1.8,0,0.0,-1,0.0,0.0,0.0,0
235266,1469910953874,,,,,,,0.03,0.09,0.97,-9.1,-0.3,0.0,780,56,,,,,,,,,,,,,,,,,
235286,1469910953894,,,,,,,0.03,0.09,0.98,-9.1,-0.3,-0.1,800,56,,,,,,,,,,,,,,,,,
235306,1469910954008,,,,,,,0.02,0.09,0.98,-9.0,-0.4,-0.2,800,56,,,,,,,,,,,,,,,,,
235326,1469910954028,,,,,,,0.02,0.08,0.97,-9.0,-0.3,-0.2,800,56,,,,,,,,,,,,,,,,,
235346,1469910954048,,,,14,,,0.02,0.08,0.98,-9.1,-0.3,0.0,800,56,14.286,0,39.536613,-122.332222,0.93,0.009,269.0,8,3,1.8,0,0.0,-1,0.0,,0.0,0
235366,1469910954068,,,,,,,0.03,0.09,0.98,-9.1,-0.1,0.1,780,56,,,,,,,,,,,,,,,,,
235386,1469910954088,,,,,,,0.03,0.08,0.99,-9.1,-0.2,0.1,820,56,,,,,,,,,,,,,,,,,
235406,1469910954108,,,,,,,0.01,0.09,0.99,-9.1,-0.2,-0.0,820,56,,,,,,,,,,,,,,,,,
235426,1469910954128,,,,,,,0.01,0.08,0.98,-9.1,-0.3,-0.2,820,56,,,,,,,,,,,,,,,,,
235446,1469910954148,0,202.7,177.9,15,180.2,,0.02,0.08,0.98,-9.1,-0.2,-0.2,820,56,14.643,0,39.536613,-122.332222,0.93,0.009,269.0,8,3,1.8,0,0.0,-1,0.0,0.0,0.0,0
235466,1469910954168,,,,,,,0.02,0.08,0.98,-9.1,-0.2,-0.0,840,56,,,,,,,,,,,,,,,,,
235486,1469910954095,,,,,,,0.02,0.11,0.99,-9.2,-0.2,0.0,840,56,,,,,,,,,,,,,,,,,
235506,1469910954115,,,,,,,0.03,0.1,0.98,-9.2,-0.2,0.0,840,56,,,,,,,,,,,,,,,,,
235526,1469910954135,,,,,,,0.02,0.1,0.98,-9.2,-0.3,-0.1,860,56,,,,,,,,,,,,,,,,,
235546,1469910954155,,,,15,,,0.02,0.09,0.98,-9.2,-0.1,-0.2,860,56,15.357,0,39.536613,-122.332222,0.94,0.009,268.9,8,3,1.8,0,0.0,-1,0.0,,0.0,0
235566,1469910954175,,,,,,,0.02,0.09,0.97,-9.2,-0.1,-0.3,860,56,,,,,,,,,,,,,,,,,
235586,1469910954194,,,,,,,0.02,0.08,0.97,-9.3,-0.1,-0.2,880,56,,,,,,,,,,,,,,,,,
235606,1469910954214,,,,,,,0.02,0.08,0.97,-9.3,-0.1,-0.1,880,56,,,,,,,,,,,,,,,,,
235626,1469910954234,,,,,,,0.02,0.1,0.97,-9.3,0.0,0.1,860,56,,,,,,,,,,,,,,,,,
235646,1469910954254,0,202.2,177.3,15,179.6,,0.02,0.11,0.97,-9.4,0.1,0.1,860,56,15.357,0,39.536613,-122.332222,0.96,0.009,268.9,8,3,1.8,0,0.0,-1,0.0,0.0,0.0,0
235666,1469910954274,,,,,,,0.03,0.11,0.98,-9.3,0.2,-0.0,880,56,,,,,,,,,,,,,,,,,
235686,1469910954294,,,,,,,0.02,0.11,0.98,-9.3,0.1,-0.1,880,56,,,,,,,,,,,,,,,,,
235706,1469910954314,,,,,,,0.01,0.09,0.98,-9.3,-0.1,-0.1,880,56,,,,,,,,,,,,,,,,,
235726,1469910954334,,,,,,,0.01,0.08,0.98,-9.2,-0.1,-0.2,900,56,,,,,,,,,,,,,,,,,
235746,1469910954354,,,,14,,,0.02,0.09,0.98,-9.2,-0.1,-0.2,900,56,16.071,0,39.536613,-122.332222,0.99,0.009,268.8,8,3,1.8,0,0.0,-1,0.0,,0.0,0
235766,1469910954374,,,,,,,0.02,0.08,0.97,-9.3,-0.1,-0.1,860,56,,,,,,,,,,,,,,,,,
235786,1469910954394,,,,,,,0.03,0.08,0.97,-9.3,-0.2,0.1,860,56,,,,,,,,,,,,,,,,,
235806,1469910954414,,,,,,,0.03,0.1,0.98,-9.4,0.0,0.2,900,56,,,,,,,,,,,,,,,,,
235826,1469910954434,,,,,,,0.03,0.11,0.98,-9.4,0.2,0.1,900,56,,,,,,,,,,,,,,,,,
235846,1469910954454,0,203.3,178.4,17,180.6,,0.04,0.1,0.98,-9.4,0.2,0.0,900,58,15.517,0,39.536613,-122.332222,0.94,0.009,268.8,8,3,1.8,0,0.0,-1,0.0,0.0,0.0,0
235866,1469910954474,,,,,,,0.04,0.1,0.98,-9.3,0.2,-0.1,900,58,,,,,,,,,,,,,,,,,
235886,1469910954494,,,,,,,0.04,0.1,0.99,-9.3,0.2,-0.1,900,58,,,,,,,,,,,,,,,,,
235906,1469910954514,,,,,,,0.03,0.09,0.99,-9.3,0.1,-0.1,900,58,,,,,,,,,,,,,,,,,
235926,1469910954534,,,,,,,0.03,0.09,0.99,-9.3,0.1,-0.1,900,58,,,,,,,,,,,,,,,,,
235946,1469910954554,,,,17,,,0.03,0.08,0.99,-9.3,0.0,-0.2,900,58,15.517,0,39.536613,-122.332222,1.07,0.009,268.7,8,3,1.8,0,0.0,-1,0.0,,0.0,0
235966,1469910954574,,,,,,,0.04,0.08,0.99,-9.3,-0.0,-0.1,900,58,,,,,,,,,,,,,,,,,
235986,1469910954594,,,,,,,0.04,0.08,0.98,-9.4,-0.1,-0.1,920,58,,,,,,,,,,,,,,,,,
236006,1469910954614,,,,,,,0.04,0.08,0.98,-9.3,-0.1,-0.0,920,56,,,,,,,,,,,,,,,,,
236026,1469910954634,,,,,,,0.04,0.1,0.98,-9.4,-0.0,0.0,900,56,,,,,,,,,,,,,,,,,
236046,1469910954654,0,203.2,178.1,18,180.1,13.59,0.04,0.11,0.98,-9.5,0.0,0.1,900,56,16.071,0,39.536613,-122.332222,1.08,0.009,268.7,8,3,1.8,0,0.0,-1,0.0,0.0,0.0,0
236066,1469910954674,,,,,,,0.04,0.1,0.98,-9.5,0.0,0.1,900,56,,,,,,,,,,,,,,,,,
236086,1469910954793,,,,,,,0.03,0.1,0.99,-9.4,-0.1,0.1,900,56,,,,,,,,,,,,,,,,,
236106,1469910954813,,,,,,,0.03,0.11,0.99,-9.3,-0.2,-0.0,920,58,,,,,,,,,,,,,,,,,
236126,1469910954833,,,,,,,0.02,0.1,0.99,-9.3,-0.4,-0.0,920,58,,,,,,,,,,,,,,,,,
236146,1469910954853,,,,16,,,0.02,0.09,0.99,-9.3,-0.4,-0.1,920,58,15.862,0,39.536613,-122.332222,0.0,0.009,268.6,8,3,1.8,0,0.0,-1,0.0,,0.0,0
236166,1469910954873,,,,,,,0.02,0.08,0.99,-9.3,-0.4,-0.2,900,58,,,,,,,,,,,,,,,,,
236186,1469910954893,,,,,,,0.02,0.08,0.99,-9.3,-0.2,-0.2,920,58,,,,,,,,,,,,,,,,,
236206,1469910954913,,,,,,,0.03,0.08,0.98,-9.3,-0.3,-0.1,920,58,,,,,,,,,,,,,,,,,
236226,1469910954933,,,,,,,0.03,0.07,0.98,-9.4,-0.3,0.0,900,56,,,,,,,,,,,,,,,,,
236246,1469910954953,0,203.3,178.6,18,180.3,,0.03,0.06,0.98,-9.4,-0.4,0.2,900,56,16.071,0,39.536613,-122.332222,0.0,0.009,268.6,8,3,1.8,0,0.0,-1,0.0,0.0,0.0,0
236266,1469910954973,,,,,,,0.03,0.08,0.98,-9.4,-0.3,0.2,920,56,,,,,,,,,,,,,,,,,
236286,1469910954993,,,,,,,0.03,0.09,0.97,-9.4,-0.1,0.2,920,56,,,,,,,,,,,,,,,,,
236306,1469910954906,,,,,,,0.03,0.1,0.98,-9.5,-0.1,0.3,900,56,,,,,,,,,,,,,,,,,
236326,1469910954926,,,,,,,0.04,0.09,0.98,-9.5,-0.1,0.3,920,58,,,,,,,,,,,,,,,,,
236346,1469910954946,,,,16,,,0.04,0.09,0.99,-9.4,-0.2,0.2,920,58,15.862,0,39.536613,-122.332222,0.0,0.009,268.6,8,3,1.8,0,0.0,-1,0.0,,0.0,0
236366,1469910954966,,,,,,,0.03,0.1,0.99,-9.4,-0.3,0.2,920,58,,,,,,,,,,,,,,,,,
236386,1469910954994,,,,,,,0.03,0.1,0.99,-9.3,-0.4,0.1,920,58,,,,,,,,,,,,,,,,,
236406,1469910955014,,,,,,,0.03,0.09,0.99,-9.3,-0.4,0.1,920,58,,,,,,,,,,,,,,,,,
236426,1469910955034,,,,,,,0.03,0.08,0.99,-9.3,-0.4,0.0,900,58,,,,,,,,,,,,,,,,,
236446,1469910955054,0,203.4,178.4,17,180.3,,0.03,0.08,0.98,-9.2,-0.3,0.0,920,63,14.603,0,39.536613,-122.332222,0.0,0.009,268.6,8,3,1.8,0,0.0,-1,0.0,0.0,0.0,0
236466,1469910955074,,,,,,,0.04,0.09,0.98,-9.3,-0.2,0.1,920,72,,,,,,,,,,,,,,,,,
236486,1469910955094,,,,,,,0.03,0.09,0.98,-9.4,-0.2,0.2,920,80,,,,,,,,,,,,,,,,,
236506,1469910955114,,,,,,,0.03,0.07,0.98,-9.4,-0.3,0.3,920,86,,,,,,,,,,,,,,,,,
236526,1469910955134,,,,,,,0.03,0.08,0.98,-9.4,-0.3,0.3,920,90,,,,,,,,,,,,,,,,,
236546,1469910955154,,,,16,,,0.03,0.1,0.98,-9.5,-0.2,0.3,920,93,10.222,0,39.536613,-122.332222,1.15,0.009,268.6,8,3,1.8,0,0.0,-1,0.0,,0.0,0
236566,1469910955174,,,,,,,0.03,0.11,0.98,-9.5,-0.1,0.3,900,98,,,,,,,,,,,,,,,,,
236586,1469910955194,,,,,,,0.03,0.1,0.98,-9.5,0.0,0.3,900,96,,,,,,,,,,,,,,,,,
236606,1469910955214,,,,,,,0.03,0.1,0.99,-9.5,0.0,0.2,900,96,,,,,,,,,,,,,,,,,
236626,1469910955234,,,,,,,0.03,0.11,0.99,-9.5,0.0,0.1,920,73,,,,,,,,,,,,,,,,,
236646,1469910955254,0,203.8,178.7,15,180.4,,0.02,0.1,1.0,-9.4,-0.1,0.0,920,73,12.603,0,39.536613,-122.332222,1.08,0.009,268.6,8,3,1.8,0,0.0,-1,0.0,0.0,0.0,0
236666,1469910955274,,,,,,,0.02,0.09,0.99,-9.4,-0.2,-0.0,900,35,,,,,,,,,,,,,,,,,
236686,1469910955293,,,,,,,0.02,0.08,0.99,-9.4,-0.2,-0.1,900,50,,,,,,,,,,,,,,,,,
236706,1469910955313,,,,,,,0.02,0.08,0.99,-9.4,-0.1,-0.2,900,75,,,,,,,,,,,,,,,,,
236726,1469910955333,,,,,,,0.02,0.08,0.98,-9.5,-0.1,-0.1,900,87,,,,,,,,,,,,,,,,,
236746,1469910955353,,,,14,,,0.02,0.07,0.98,-9.5,-0.0,-0.0,900,89,10.112,0,39.536613,-122.332222,1.1,0.009,268.6,8,3,1.8,0,0.0,-1,0.0,,0.0,0
236766,1469910955373,,,,,,,0.03,0.08,0.98,-9.5,0.0,0.0,900,58,,,,,,,,,,,,,,,,,
236786,1469910955394,,,,,,,0.03,0.1,0.98,-9.6,0.1,0.1,900,58,,,,,,,,,,,,,,,,,
236806,1469910955414,,,,,,,0.03,0.11,0.99,-9.7,0.2,0.2,880,43,,,,,,,,,,,,,,,,,
236826,1469910955434,,,,,,,0.03,0.1,0.99,-9.7,0.2,0.2,880,89,,,,,,,,,,,,,,,,,
236846,1469910955454,0,203.2,177.9,13,179.5,,0.03,0.11,1.0,-9.7,0.1,0.1,880,89,9.888,0,39.536617,-122.332222,1.21,0.009,268.6,8,3,1.8,0,0.0,-1,0.0,0.0,0.0,0
236866,1469910955474,,,,,,,0.01,0.11,1.0,-9.8,0.1,0.0,880,81,,,,,,,,,,,,,,,,,
236886,1469910955593,,,,,,,0.01,0.1,1.0,-9.8,-0.0,-0.0,900,46,,,,,,,,,,,,,,,,,
236906,1469910955613,,,,,,,0.01,0.09,1.0,-9.8,0.0,-0.1,900,58,,,,,,,,,,,,,,,,,
236926,1469910955633,,,,,,,0.02,0.1,0.99,-9.8,0.1,-0.1,900,78,,,,,,,,,,,,,,,,,
236946,1469910955653,,,,15,,,0.02,0.09,0.99,-9.9,0.0,-0.0,880,86,10.465,0,39.536613,-122.332222,1.39,0.009,268.5,8,3,1.8,0,0.0,-1,0.0,,0.0,0
236966,1469910955673,,,,,,,0.02,0.09,0.98,-9.9,0.0,0.0,880,86,,,,,,,,,,,,,,,,,
236986,1469910955693,,,,,,,0.03,0.11,0.99,-10.0,0.0,0.1,880,69,,,,,,,,,,,,,,,,,
237006,1469910955713,,,,,,,0.03,0.11,0.99,-10.0,0.0,0.0,900,49,,,,,,,,,,,,,,,,,
237026,1469910955733,,,,,,,0.03,0.1,0.99,-10.0,-0.1,0.0,920,67,,,,,,,,,,,,,,,,,
237046,1469910955753,0,202.4,176.9,16,178.6,13.63,0.03,0.1,1.0,-10.0,-0.1,-0.1,900,87,10.345,0,39.536613,-122.332222,1.39,0.009,268.5,8,3,1.8,0,0.0,-1,0.0,0.0,0.0,0
237066,1469910955773,,,,,,,0.02,0.1,1.0,-10.0,-0.1,-0.1,900,83,,,,,,,,,,,,,,,,,
237086,1469910955694,,,,,,,0.01,0.1,1.0,-9.9,-0.2,-0.2,880,60,,,,,,,,,,,,,,,,,
237106,1469910955714,,,,,,,0.01,0.09,1.0,-9.9,-0.2,-0.2,900,60,,,,,,,,,,,,,,,,,
237126,1469910955734,,,,,,,0.02,0.1,1.0,-9.9,-0.2,-0.2,900,76,,,,,,,,,,,,,,,,,
237146,1469910955754,,,,14,,,0.02,0.1,0.99,-9.9,-0.2,-0.1,920,84,10.952,0,39.536613,-122.332222,1.6,0.009,268.5,8,3,1.8,0,0.0,-1,0.0,,0.0,0
237166,1469910955774,,,,,,,0.02,0.09,0.99,-10.0,-0.3,-0.1,920,80,,,,,,,,,,,,,,,,,
237186,1469910955793,,,,,,,0.03,0.09,0.99,-10.0,-0.3,-0.0,920,64,,,,,,,,,,,,,,,,,
237206,1469910955813,,,,,,,0.03,0.1,0.99,-10.0,-0.3,0.1,920,66,,,,,,,,,,,,,,,,,
237226,1469910955833,,,,,,,0.03,0.11,0.99,-10.0,-0.3,0.1,920,84,,,,,,,,,,,,,,,,,
237246,1469910955853,0,203.6,178.3,17,179.8,,0.02,0.12,0.99,-10.0,-0.2,0.1,920,87,10.575,0,39.536613,-122.332222,1.17,0.009,268.6,8,3,1.8,0,0.0,-1,0.0,0.0,0.0,0
237266,1469910955873,,,,,,,0.02,0.12,0.99,-10.0,-0.1,0.1,920,78,,,,,,,,,,,,,,,,,
237286,1469910955893,,,,,,,0.03,0.12,0.99,-10.0,-0.2,0.0,940,69,,,,,,,,,,,,,,,,,
237306,1469910955907,,,,,,,0.03,0.12,0.99,-10.0,-0.2,-0.1,940,73,,,,,,,,,,,,,,,,,
237326,1469910955927,,,,,,,0.02,0.12,0.99,-9.9,-0.2,-0.2,940,81,,,,,,,,,,,,,,,,,
237346,1469910955947,,,,16,,,0.02,0.11,0.99,-9.9,-0.2,-0.2,940,86,10.93,0,39.536613,-122.332222,1.49,0.009,268.6,8,3,1.8,0,0.0,-1,0.0,,0.0,0
237366,1469910955967,,,,,,,0.02,0.1,0.98,-9.8,-0.3,-0.3,940,83,,,,,,,,,,,,,,,,,
237386,1469910955993,,,,,,,0.02,0.1,0.98,-9.7,-0.3,-0.3,940,70,,,,,,,,,,,,,,,,,
237406,1469910956013,,,,,,,0.02,0.09,0.98,-9.7,-0.3,-0.3,940,73,,,,,,,,,,,,,,,,,
237426,1469910956033,,,,,,,0.01,0.09,0.98,-9.6,-0.2,-0.4,960,84,,,,,,,,,,,,,,,,,
237446,1469910956053,0,203.6,178.3,17,179.7,,0.02,0.09,0.99,-9.6,-0.1,-0.4,960,90,10.667,0,39.536613,-122.332222,1.7,0.009,268.7,8,3,1.8,0,0.0,-1,0.0,0.0,0.0,0
237466,1469910956073,,,,,,,0.02,0.08,0.99,-9.5,0.0,-0.4,920,84,,,,,,,,,,,,,,,,,
237486,1469910956094,,,,,,,0.02,0.07,0.99,-9.5,0.2,-0.4,940,78,,,,,,,,,,,,,,,,,
237506,1469910956114,,,,,,,0.02,0.07,0.98,-9.5,0.2,-0.3,940,76,,,,,,,,,,,,,,,,,
237526,1469910956134,,,,,,,0.02,0.07,0.98,-9.4,0.2,-0.3,940,90,,,,,,,,,,,,,,,,,
237546,1469910956154,,,,15,,,0.02,0.07,0.97,-9.4,0.1,-0.2,960,92,10.435,0,39.536613,-122.332222,1.77,0.009,268.8,8,3,1.8,0,0.0,-1,0.0,,0.0,0
237566,1469910956174,,,,,,,0.02,0.07,0.98,-9.4,-0.1,-0.2,940,83,,,,,,,,,,,,,,,,,
237586,1469910956194,,,,,,,0.02,0.08,0.98,-9.4,-0.1,-0.1,940,78,,,,,,,,,,,,,,,,,
237606,1469910956214,,,,,,,0.02,0.09,0.98,-9.4,-0.2,-0.0,940,84,,,,,,,,,,,,,,,,,
237626,1469910956234,,,,,,,0.02,0.1,0.99,-9.4,-0.1,-0.0,940,93,,,,,,,,,,,,,,,,,
237646,1469910956254,0,203.7,178.3,15,179.7,,0.02,0.1,0.99,-9.4,-0.1,-0.0,940,92,10.217,0,39.536613,-122.332222,2.07,0.009,268.9,8,3,1.8,0,0.0,-1,0.0,0.0,0.0,0
237666,1469910956274,,,,,,,0.02,0.1,0.99,-9.4,0.0,-0.1,940,87,,,,,,,,,,,,,,,,,
237686,1469910956393,,,,,,,0.02,0.1,0.99,-9.3,0.2,-0.2,960,86,,,,,,,,,,,,,,,,,
237706,1469910956413,,,,,,,0.02,0.11,0.99,-9.3,0.2,-0.2,960,89,,,,,,,,,,,,,,,,,
237726,1469910956433,,,,,,,0.02,0.11,0.98,-9.2,0.2,-0.3,920,95,,,,,,,,,,,,,,,,,
237746,1469910956453,,,,18,,,0.02,0.11,0.99,-9.1,0.1,-0.4,940,96,9.792,0,39.536613,-122.332222,1.81,0.009,269.0,8,3,1.8,0,0.0,-1,0.0,,0.0,0
237766,1469910956473,,,,,,,0.02,0.1,0.99,-9.0,0.0,-0.4,940,87,,,,,,,,,,,,,,,,,
237786,1469910956493,,,,,,,0.01,0.09,0.99,-8.8,-0.0,-0.5,940,90,,,,,,,,,,,,,,,,,
237806,1469910956513,,,,,,,0.01,0.09,0.99,-8.7,-0.1,-0.6,940,96,,,,,,,,,,,,,,,,,
