"Interval"|"ms"|0|0|1,"Utc"|"ms"|0|0|1,"FuelLevel"|"F"|0|100|5,"OilTemp"|"F"|0.0|300.0|5,"Coolant"|"F"|0.0|300.0|5,"OilPress"|"PSI"|0|150|10,"EngineTemp"|"F"|0.0|300.0|5,"Battery"|"Volts"|0.0|20.0|1,"AccelX"|"G"|-3.0|3.0|50,"AccelY"|"G"|-3.0|3.0|50,"AccelZ"|"G"|-3.0|3.0|50,"Yaw"|"Deg/Sec"|-300.0|300.0|50,"Pitch"|"Deg/Sec"|-300.0|300.0|50,"Roll"|"Deg/Sec"|-300.0|300.0|50,"RPM"|""|0|10000|50,"Driveshaft"|"RPM"|0|5000|50,"GearRatio"|""|-5.0|5.0|10,"Gear"|""|-1|5|10,"Latitude"|"Degrees"|-180.0|180.0|10,"Longitude"|"Degrees"|-180.0|180.0|10,"Speed"|"MPH"|0.0|150.0|10,"Distance"|"Miles"|0.0|0.0|10,"Altitude"|"Feet"|0.0|4000.0|10,"GPSSats"|""|0|20|10,"GPSQual"|""|0|5|10,"GPSDOP"|""|0.0|20.0|10,"LapCount"|""|0|0|10,"LapTime"|"Min"|0.0|0.0|10,"Sector"|""|0|0|10,"SectorTime"|"Min"|0.0|0.0|10,"PredTime"|"Min"|0.0|0.0|5,"ElapsedTime"|"Min"|0.0|0.0|10,"CurrentLap"|""|0|0|10
5066,1469912363012,,,,,,,0.11,-0.68,0.76,19.6,1.1,0.8,4160,2235,,,,,,,,,,,,,,,,,
5086,1469912363032,,,,,,,0.11,-0.62,0.85,19.4,0.0,0.9,4160,2203,,,,,,,,,,,,,,,,,
5106,1469912363052,,,,,,,0.11,-0.66,0.89,19.3,0.5,1.1,4260,2196,,,,,,,,,,,,,,,,,
5126,1469912363072,,,,,,,0.07,-0.64,0.82,19.6,-0.0,1.3,4220,2196,,,,,,,,,,,,,,,,,
5146,1469912363092,,,,67,,,0.09,-0.61,0.74,19.6,-0.9,1.3,4120,2196,1.892,2,39.543869,-122.332703,40.16,0.001,343.0,8,2,1.8,0,0.0,-1,0.0,,0.0,0
5166,1469912363111,,,,,,,0.07,-0.57,0.76,19.6,-1.0,1.3,4080,2203,,,,,,,,,,,,,,,,,
5186,1469912363131,,,,,,,0.07,-0.55,0.76,19.5,-0.5,1.5,4240,2196,,,,,,,,,,,,,,,,,
5206,1469912363151,,,,,,,0.1,-0.6,0.86,19.4,-0.8,2.2,4060,2203,,,,,,,,,,,,,,,,,
5226,1469912363171,,,,,,,0.13,-0.66,0.92,19.5,-0.4,2.6,4120,2184,,,,,,,,,,,,,,,,,
5246,1469912363191,0,277.6,208.2,44,210.6,,0.13,-0.64,0.93,19.3,-0.5,2.6,4160,2172,1.932,2,39.54388,-122.332687,39.87,0.002,341.8,8,2,1.8,0,0.0,-1,0.0,0.0,0.0,0
5266,1469912363211,,,,,,,0.11,-0.67,0.92,19.4,0.6,2.6,4160,2184,,,,,,,,,,,,,,,,,
5286,1469912363231,,,,,,,0.08,-0.69,0.89,19.6,2.2,2.8,4140,2190,,,,,,,,,,,,,,,,,
5306,1469912363251,,,,,,,0.07,-0.68,0.85,19.7,2.8,2.3,4100,2196,,,,,,,,,,,,,,,,,
5326,1469912363271,,,,,,,0.04,-0.73,0.91,19.7,4.0,2.1,4100,2190,,,,,,,,,,,,,,,,,
5346,1469912363291,,,,51,,,0.05,-0.79,0.96,19.9,2.7,2.0,4140,2184,1.849,2,39.5439,-122.332672,39.62,0.003,341.0,8,2,1.8,0,0.0,-1,0.0,,0.0,0
5366,1469912363311,,,,,,,0.1,-0.79,1.03,20.1,1.8,1.8,4060,2172,,,,,,,,,,,,,,,,,
5386,1469912363331,,,,,,,0.1,-0.84,1.03,20.2,1.4,1.4,4000,2166,,,,,,,,,,,,,,,,,
5406,1469912363351,,,,,,,0.12,-0.8,1.0,20.2,0.3,1.2,4100,2153,,,,,,,,,,,,,,,,,
5426,1469912363371,,,,,,,0.12,-0.73,0.92,20.0,-0.6,1.3,4140,2147,,,,,,,,,,,,,,,,,
5446,1469912363391,1,278.8,208.6,40,210.6,,0.11,-0.72,0.88,20.0,-0.5,1.4,4080,2178,1.852,2,39.543911,-122.332649,39.27,0.005,340.2,8,2,1.8,0,0.0,-1,0.0,0.0,0.0,0
5466,1469912363410,,,,,,,0.1,-0.63,0.86,20.0,-0.6,1.4,4160,2172,,,,,,,,,,,,,,,,,
5486,1469912363430,,,,,,,0.13,-0.64,0.88,19.9,-0.1,1.7,4020,2141,,,,,,,,,,,,,,,,,
5506,1469912363450,,,,,,,0.13,-0.7,0.87,20.2,-0.4,1.9,4120,2160,,,,,,,,,,,,,,,,,
5526,1469912363470,,,,,,,0.16,-0.67,0.94,20.3,-0.7,1.6,4140,2160,,,,,,,,,,,,,,,,,
5546,1469912363490,,,,43,,,0.17,-0.7,0.98,20.0,0.5,1.3,4180,2172,1.906,2,39.543919,-122.332634,38.87,0.006,339.5,8,2,1.8,0,0.0,-1,0.0,,0.0,0
5566,1469912363508,,,,,,,0.19,-0.73,0.97,20.1,-0.6,1.1,4180,2196,,,,,,,,,,,,,,,,,
5586,1469912363528,,,,,,,0.23,-0.72,0.99,20.0,-0.6,1.1,3920,2196,,,,,,,,,,,,,,,,,
5606,1469912363548,,,,,,,0.21,-0.71,0.92,20.3,-0.4,1.1,4160,2215,,,,,,,,,,,,,,,,,
5626,1469912363568,,,,,,,0.18,-0.71,0.92,20.3,0.1,2.2,4300,2203,,,,,,,,,,,,,,,,,
5646,1469912363588,0,279.0,209.2,55,211.0,,0.11,-0.75,0.95,20.3,0.9,2.7,4420,2241,1.886,2,39.543934,-122.332619,38.48,0.007,338.6,8,2,1.8,0,0.0,-1,0.0,0.0,0.0,0
5666,1469912363710,,,,,,,0.07,-0.78,0.94,20.4,1.1,2.9,4460,2289,,,,,,,,,,,,,,,,,
5686,1469912363730,,,,,,,0.1,-0.75,0.93,20.4,1.6,2.5,4320,2281,,,,,,,,,,,,,,,,,
5706,1469912363750,,,,,,,0.08,-0.74,0.96,20.4,1.3,1.5,4340,2247,,,,,,,,,,,,,,,,,
5726,1469912363770,,,,,,,0.11,-0.71,1.02,20.1,1.2,0.7,4180,2223,,,,,,,,,,,,,,,,,
5746,1469912363790,,,,56,,,0.09,-0.7,1.04,20.0,1.3,-0.2,4080,2178,1.893,2,39.543957,-122.332596,37.97,0.009,336.7,8,2,1.8,0,0.0,-1,0.0,,0.0,0
5766,1469912363810,,,,,,,0.06,-0.64,1.07,20.0,1.0,-1.1,4040,2160,,,,,,,,,,,,,,,,,
5786,1469912363830,,,,,,,0.02,-0.73,1.05,20.4,2.0,-1.2,4060,2130,,,,,,,,,,,,,,,,,
5806,1469912363850,,,,,,,0.0,-0.76,1.02,21.0,1.9,-1.1,3980,2135,,,,,,,,,,,,,,,,,
5826,1469912363870,,,,,,,0.01,-0.74,1.04,20.8,1.2,-1.0,4040,2112,,,,,,,,,,,,,,,,,
5846,1469912363890,0,277.9,209.0,71,210.9,,0.04,-0.73,1.05,20.9,1.2,-0.7,4060,2130,1.915,2,39.543957,-122.332596,37.97,0.009,336.7,8,2,1.8,0,0.0,-1,0.0,0.0,0.0,0
5866,1469912363811,,,,,,,0.01,-0.72,1.07,20.8,1.4,-0.4,4000,2101,,,,,,,,,,,,,,,,,
5886,1469912363831,,,,,,,-0.0,-0.7,1.12,20.4,1.4,-0.4,3940,2135,,,,,,,,,,,,,,,,,
5906,1469912363851,,,,,,,-0.01,-0.72,1.1,20.4,1.3,-0.8,3900,2124,,,,,,,,,,,,,,,,,
5926,1469912363871,,,,,,,-0.02,-0.73,1.04,20.2,-0.0,-1.3,3980,2141,,,,,,,,,,,,,,,,,
5946,1469912363891,,,,58,,,-0.01,-0.71,1.06,20.3,-1.0,-1.5,4100,2166,1.885,2,39.543964,-122.332573,37.72,0.011,335.8,8,2,1.8,0,0.0,-1,0.0,,0.0,0
5966,1469912363905,,,,,,,-0.05,-0.73,1.1,20.5,-0.2,-1.1,4000,2166,,,,,,,,,,,,,,,,,
5986,1469912363925,,,,,,,-0.06,-0.71,1.09,20.7,0.1,-1.0,4140,2184,,,,,,,,,,,,,,,,,
6006,1469912363945,,,,,,,-0.06,-0.67,1.1,20.8,-0.0,-0.5,4180,2209,,,,,,,,,,,,,,,,,
6026,1469912363965,,,,,,,-0.07,-0.66,1.06,20.9,0.3,-0.4,4180,2215,,,,,,,,,,,,,,,,,
6046,1469912363985,0,278.6,208.8,49,210.8,13.95,-0.05,-0.68,1.03,20.8,0.1,-0.2,4240,2229,1.832,2,39.543976,-122.332558,37.99,0.012,335.0,8,2,1.8,0,0.0,-1,0.0,0.0,0.0,0
6066,1469912364010,,,,,,,-0.03,-0.76,1.03,21.1,0.5,-0.4,4140,2241,,,,,,,,,,,,,,,,,
6086,1469912364030,,,,,,,-0.04,-0.7,1.06,21.5,-0.3,-0.8,4260,2229,,,,,,,,,,,,,,,,,
6106,1469912364050,,,,,,,-0.05,-0.67,1.09,21.5,-0.1,-0.9,4240,2229,,,,,,,,,,,,,,,,,
6126,1469912364070,,,,,,,-0.1,-0.72,1.06,21.5,0.3,-1.3,4240,2215,,,,,,,,,,,,,,,,,
6146,1469912364090,,,,53,,,-0.1,-0.72,1.06,21.7,0.4,-1.3,4180,2190,1.906,2,39.54398,-122.332542,37.9,0.013,334.5,8,2,1.8,0,0.0,-1,0.0,,0.0,0
6166,1469912364110,,,,,,,-0.14,-0.73,1.07,21.9,0.5,-1.2,4000,2196,,,,,,,,,,,,,,,,,
6186,1469912364130,,,,,,,-0.16,-0.74,1.09,21.9,0.7,-1.3,4160,2178,,,,,,,,,,,,,,,,,
6206,1469912364150,,,,,,,-0.15,-0.7,1.01,21.7,0.4,-1.4,4040,2160,,,,,,,,,,,,,,,,,
6226,1469912364170,,,,,,,-0.15,-0.67,0.96,21.5,0.4,-1.2,4040,2172,,,,,,,,,,,,,,,,,
6246,1469912364190,0,277.6,208.3,43,210.6,,-0.1,-0.7,0.99,21.4,0.9,-1.1,4140,2178,1.885,2,39.543991,-122.33252,37.97,0.014,333.9,8,2,1.8,0,0.0,-1,0.0,0.0,0.0,0
6266,1469912364211,,,,,,,-0.04,-0.7,1.07,20.9,1.6,-1.0,4100,2166,,,,,,,,,,,,,,,,,
6286,1469912364231,,,,,,,0.02,-0.7,1.0,20.8,1.3,-1.3,4020,2166,,,,,,,,,,,,,,,,,
6306,1469912364251,,,,,,,0.04,-0.72,0.9,20.7,0.1,-0.8,4140,2178,,,,,,,,,,,,,,,,,
6326,1469912364271,,,,,,,0.06,-0.8,0.9,21.0,0.4,-0.6,4020,2172,,,,,,,,,,,,,,,,,
6346,1469912364291,,,,46,,,0.05,-0.74,0.94,21.2,0.6,-0.9,4160,2166,1.911,2,39.543999,-122.332504,37.69,0.015,333.4,8,2,1.8,0,0.0,-1,0.0,,0.0,0
6366,1469912364310,,,,,,,0.05,-0.72,0.98,21.0,0.1,-0.5,4080,2172,,,,,,,,,,,,,,,,,
6386,1469912364330,,,,,,,0.01,-0.71,0.98,21.1,0.1,-0.5,4100,2190,,,,,,,,,,,,,,,,,
6406,1469912364350,,,,,,,-0.01,-0.75,0.97,21.2,0.7,-0.4,4160,2196,,,,,,,,,,,,,,,,,
6426,1469912364370,,,,,,,0.01,-0.85,0.96,21.4,1.9,-0.3,4080,2196,,,,,,,,,,,,,,,,,
6446,1469912364390,0,277.9,208.4,55,210.2,,0.01,-0.82,1.02,21.4,2.8,-0.3,4160,2178,1.905,2,39.544003,-122.332497,37.88,0.015,332.8,8,2,1.8,0,0.0,-1,0.0,0.0,0.0,0
6466,1469912364510,,,,,,,0.01,-0.9,1.02,21.5,2.1,-0.1,4160,2160,,,,,,,,,,,,,,,,,
6486,1469912364530,,,,,,,0.03,-0.9,0.97,21.6,1.6,-0.3,4100,2166,,,,,,,,,,,,,,,,,
6506,1469912364550,,,,,,,0.02,-0.88,0.88,21.8,1.7,-0.4,4140,2178,,,,,,,,,,,,,,,,,
6526,1469912364570,,,,,,,0.02,-0.79,0.83,21.8,1.4,-0.2,4160,2190,,,,,,,,,,,,,,,,,
6546,1469912364590,,,,40,,,-0.01,-0.79,0.91,21.8,1.8,-0.1,4000,2190,1.924,2,39.544018,-122.332458,38.0,0.018,331.9,8,2,1.8,0,0.0,-1,0.0,,0.0,0
6566,1469912364610,,,,,,,-0.04,-0.81,1.0,21.9,1.9,0.0,4080,2178,,,,,,,,,,,,,,,,,
6586,1469912364630,,,,,,,-0.05,-0.85,0.98,22.0,1.6,0.0,4140,2172,,,,,,,,,,,,,,,,,
6606,1469912364650,,,,,,,-0.05,-0.8,0.93,21.9,1.2,-0.2,4060,2190,,,,,,,,,,,,,,,,,
6626,1469912364670,,,,,,,-0.02,-0.8,0.93,21.7,-0.1,0.1,4140,2172,,,,,,,,,,,,,,,,,
6646,1469912364690,1,277.9,208.8,57,210.7,,0.02,-0.82,0.96,21.6,-0.4,0.3,3980,2166,1.877,2,39.544018,-122.332458,38.0,0.018,331.9,8,2,1.8,0,0.0,-1,0.0,0.0,0.0,0
6666,1469912364610,,,,,,,0.05,-0.74,0.95,21.6,-0.9,0.1,4160,2166,,,,,,,,,,,,,,,,,
6686,1469912364630,,,,,,,0.08,-0.71,0.9,21.4,-1.1,0.3,3960,2160,,,,,,,,,,,,,,,,,
6706,1469912364650,,,,,,,0.09,-0.76,0.85,21.7,-0.5,0.0,4060,2160,,,,,,,,,,,,,,,,,
6726,1469912364670,,,,,,,0.07,-0.74,0.94,21.8,-0.1,-0.2,4020,2166,,,,,,,,,,,,,,,,,
6746,1469912364690,,,,42,,,0.04,-0.7,0.96,22.0,0.7,-0.3,3960,2147,1.928,2,39.544022,-122.332428,37.84,0.019,331.4,8,2,1.8,0,0.0,-1,0.0,,0.0,0
6766,1469912364710,,,,,,,0.06,-0.69,0.91,22.0,1.2,-0.4,4020,2178,,,,,,,,,,,,,,,,,
6786,1469912364730,,,,,,,0.06,-0.69,0.97,22.0,1.9,-0.1,4160,2160,,,,,,,,,,,,,,,,,
6806,1469912364750,,,,,,,0.07,-0.72,1.03,22.0,2.5,0.1,4020,2190,,,,,,,,,,,,,,,,,
6826,1469912364770,,,,,,,0.08,-0.68,1.06,22.0,2.4,-0.1,4040,2178,,,,,,,,,,,,,,,,,
6846,1469912364790,0,278.1,209.5,34,211.6,,0.06,-0.72,1.05,21.7,1.8,0.1,4160,2178,1.907,2,39.544025,-122.33242,37.91,0.02,330.9,8,2,1.8,0,0.0,-1,0.0,0.0,0.0,0
6866,1469912364811,,,,,,,0.05,-0.8,0.97,21.8,1.5,0.2,4140,2172,,,,,,,,,,,,,,,,,
6886,1469912364831,,,,,,,0.02,-0.79,0.96,22.2,-0.3,0.1,4100,2172,,,,,,,,,,,,,,,,,
6906,1469912364851,,,,,,,0.01,-0.74,0.9,22.3,-0.8,0.3,4120,2166,,,,,,,,,,,,,,,,,
6926,1469912364871,,,,,,,-0.03,-0.75,0.95,22.2,-0.5,0.2,4180,2178,,,,,,,,,,,,,,,,,
6946,1469912364891,,,,33,,,-0.03,-0.74,1.02,22.2,-0.6,0.1,4160,2178,1.888,2,39.544029,-122.33239,37.8,0.022,330.5,8,2,1.8,0,0.0,-1,0.0,,0.0,0
6966,1469912364904,,,,,,,-0.0,-0.74,1.05,21.8,0.1,0.0,4160,2172,,,,,,,,,,,,,,,,,
6986,1469912364924,,,,,,,0.02,-0.76,0.98,21.7,0.1,-0.0,4160,2178,,,,,,,,,,,,,,,,,
7006,1469912364944,,,,,,,0.02,-0.71,0.92,21.5,-0.3,0.3,4060,2178,,,,,,,,,,,,,,,,,
7026,1469912364964,,,,,,,0.05,-0.75,0.9,21.5,-0.4,0.3,4140,2184,,,,,,,,,,,,,,,,,
7046,1469912364984,0,277.8,208.7,35,210.8,14.06,0.03,-0.72,0.97,21.6,-0.4,-0.1,4200,2178,1.888,2,39.544033,-122.332382,37.77,0.022,330.1,8,2,1.8,0,0.0,-1,0.0,0.0,0.0,0
7066,1469912365010,,,,,,,0.01,-0.66,1.02,21.2,-0.1,-0.0,3900,2172,,,,,,,,,,,,,,,,,
7086,1469912365030,,,,,,,-0.01,-0.65,0.97,21.1,1.1,-0.1,3980,2172,,,,,,,,,,,,,,,,,
7106,1469912365050,,,,,,,-0.04,-0.64,1.02,20.9,1.9,0.0,4140,2203,,,,,,,,,,,,,,,,,
7126,1469912365070,,,,,,,-0.02,-0.67,1.08,20.7,2.7,0.5,4120,2209,,,,,,,,,,,,,,,,,
7146,1469912365090,,,,44,,,-0.05,-0.66,1.1,20.7,1.9,0.1,4180,2178,1.869,2,39.544037,-122.332352,37.67,0.024,329.6,8,2,1.8,0,0.0,-1,0.0,,0.0,0
7166,1469912365111,,,,,,,-0.08,-0.68,1.1,20.3,1.2,-0.0,4140,2178,,,,,,,,,,,,,,,,,
7186,1469912365131,,,,,,,-0.06,-0.74,1.0,20.6,0.8,-0.4,4160,2172,,,,,,,,,,,,,,,,,
7206,1469912365151,,,,,,,-0.06,-0.72,0.96,21.0,-0.1,-0.7,4060,2184,,,,,,,,,,,,,,,,,
7226,1469912365171,,,,,,,-0.04,-0.65,0.96,20.8,0.0,-0.5,4180,2184,,,,,,,,,,,,,,,,,
7246,1469912365191,0,278.5,208.8,49,210.9,,-0.06,-0.63,0.99,20.5,-0.2,-0.3,4160,2196,1.939,2,39.544037,-122.332329,37.66,0.025,329.2,8,2,1.8,0,0.0,-1,0.0,0.0,0.0,0
7266,1469912365310,,,,,,,-0.07,-0.66,1.01,20.4,-0.6,-0.1,4080,2184,,,,,,,,,,,,,,,,,
7286,1469912365330,,,,,,,-0.03,-0.68,1.01,20.3,-0.4,-0.0,4080,2178,,,,,,,,,,,,,,,,,
7306,1469912365350,,,,,,,-0.02,-0.68,0.98,20.2,-1.0,-0.2,4080,2172,,,,,,,,,,,,,,,,,
7326,1469912365370,,,,,,,-0.0,-0.66,0.93,19.9,-1.5,0.1,4180,2172,,,,,,,,,,,,,,,,,
7346,1469912365390,,,,50,,,0.01,-0.76,0.93,20.1,-1.5,0.4,4140,2178,1.919,2,39.544041,-122.332291,37.87,0.027,328.7,8,2,1.8,0,0.0,-1,0.0,,0.0,0
7366,1469912365410,,,,,,,-0.03,-0.69,0.97,20.4,-1.1,-0.1,4080,2166,,,,,,,,,,,,,,,,,
7386,1469912365430,,,,,,,-0.02,-0.63,0.99,20.2,-0.8,-0.3,4160,2172,,,,,,,,,,,,,,,,,
7406,1469912365450,,,,,,,-0.03,-0.65,0.96,20.3,-0.3,-0.1,4080,2190,,,,,,,,,,,,,,,,,
7426,1469912365470,,,,,,,-0.05,-0.65,0.94,20.3,-0.5,-0.2,4200,2196,,,,,,,,,,,,,,,,,
7446,1469912365490,0,277.3,208.4,50,210.6,,-0.03,-0.7,0.98,20.4,-0.5,0.0,4080,2184,1.876,2,39.544041,-122.332291,37.87,0.027,328.7,8,2,1.8,0,0.0,-1,0.0,0.0,0.0,0
7466,1469912365411,,,,,,,-0.03,-0.67,0.98,20.4,0.6,-0.3,4100,2172,,,,,,,,,,,,,,,,,
7486,1469912365431,,,,,,,0.0,-0.67,1.0,20.3,0.2,-0.0,4160,2160,,,,,,,,,,,,,,,,,
7506,1469912365451,,,,,,,0.01,-0.72,1.0,20.5,-0.6,0.1,4140,2166,,,,,,,,,,,,,,,,,
7526,1469912365471,,,,,,,-0.02,-0.71,0.95,21.0,-0.7,-0.3,4020,2172,,,,,,,,,,,,,,,,,
7546,1469912365491,,,,55,,,-0.04,-0.66,0.92,20.8,-1.1,-0.1,4180,2190,1.872,2,39.544041,-122.332275,37.98,0.028,328.6,8,2,1.8,0,0.0,-1,0.0,,0.0,0
7566,1469912365511,,,,,,,-0.07,-0.65,0.93,20.8,-1.4,0.0,4020,2184,,,,,,,,,,,,,,,,,
7586,1469912365531,,,,,,,-0.08,-0.68,0.96,21.0,-1.8,-0.1,4040,2190,,,,,,,,,,,,,,,,,
7606,1469912365551,,,,,,,-0.07,-0.73,1.0,21.2,-1.2,-0.0,4140,2172,,,,,,,,,,,,,,,,,
7626,1469912365571,,,,,,,-0.02,-0.71,0.96,21.1,-1.0,0.2,4020,2190,,,,,,,,,,,,,,,,,
7646,1469912365591,0,277.9,208.6,54,210.7,,0.0,-0.77,0.92,21.1,-2.0,0.9,4060,2172,1.924,2,39.544037,-122.332252,37.99,0.029,328.4,8,2,1.8,0,0.0,-1,0.0,0.0,0.0,0
7666,1469912365611,,,,,,,0.0,-0.77,0.91,21.2,-1.5,1.2,4100,2178,,,,,,,,,,,,,,,,,
7686,1469912365631,,,,,,,-0.02,-0.76,0.95,21.5,-0.6,1.3,4120,2184,,,,,,,,,,,,,,,,,
7706,1469912365651,,,,,,,-0.01,-0.74,0.93,21.4,0.1,1.6,4140,2178,,,,,,,,,,,,,,,,,
7726,1469912365671,,,,,,,-0.04,-0.69,0.94,21.3,0.9,1.4,3940,2190,,,,,,,,,,,,,,,,,
7746,1469912365691,,,,33,,,-0.05,-0.75,0.97,21.2,1.6,1.6,4240,2203,1.896,2,39.544037,-122.332237,37.76,0.03,328.1,8,2,1.8,0,0.0,-1,0.0,,0.0,0
7766,1469912365711,,,,,,,-0.02,-0.82,1.02,21.3,1.7,1.8,3920,2229,,,,,,,,,,,,,,,,,
7786,1469912365731,,,,,,,-0.01,-0.82,1.0,21.4,1.5,1.7,4040,2203,,,,,,,,,,,,,,,,,
7806,1469912365751,,,,,,,-0.03,-0.78,1.0,21.2,0.8,2.0,4220,2223,,,,,,,,,,,,,,,,,
7826,1469912365771,,,,,,,-0.05,-0.73,1.05,21.0,1.2,2.2,4280,2229,,,,,,,,,,,,,,,,,
7846,1469912365791,0,279.5,208.4,41,210.7,,-0.09,-0.73,1.07,20.9,1.2,2.5,4320,2235,1.779,2,39.544033,-122.332214,37.81,0.031,327.9,8,2,1.8,0,0.0,-1,0.0,0.0,0.0,0
7866,1469912365811,,,,,,,-0.06,-0.72,1.05,20.7,1.5,2.6,4260,2235,,,,,,,,,,,,,,,,,
7886,1469912365831,,,,,,,-0.09,-0.67,0.97,20.4,1.7,2.0,4220,2223,,,,,,,,,,,,,,,,,
7906,1469912365851,,,,,,,-0.1,-0.61,1.01,19.9,2.5,2.1,4160,2255,,,,,,,,,,,,,,,,,
7926,1469912365871,,,,,,,-0.12,-0.62,1.02,19.7,2.4,1.7,4120,2267,,,,,,,,,,,,,,,,,
7946,1469912365891,,,,49,,,-0.1,-0.61,0.99,19.3,2.3,1.8,4340,2261,1.901,2,39.544029,-122.332199,37.89,0.032,327.8,8,2,1.8,0,0.0,-1,0.0,,0.0,0
7966,1469912365905,,,,,,,-0.13,-0.64,0.91,19.2,2.1,1.9,4340,2241,,,,,,,,,,,,,,,,,
7986,1469912365925,,,,,,,-0.17,-0.61,0.96,19.5,2.4,1.8,4280,2275,,,,,,,,,,,,,,,,,
8006,1469912365945,,,,,,,-0.14,-0.62,0.97,19.1,2.8,2.1,4320,2267,,,,,,,,,,,,,,,,,
8026,1469912365965,,,,,,,-0.13,-0.62,0.9,18.8,2.6,1.4,4400,2255,,,,,,,,,,,,,,,,,
8046,1469912365985,0,277.9,208.4,50,210.5,13.95,-0.14,-0.59,0.87,18.3,2.9,1.3,4240,2261,1.887,2,39.544025,-122.332176,37.98,0.033,327.8,8,2,1.8,0,0.0,-1,0.0,0.0,0.0,0
8066,1469912366110,,,,,,,-0.13,-0.54,0.97,17.6,3.3,1.0,4120,2275,,,,,,,,,,,,,,,,,
8086,1469912366130,,,,,,,-0.15,-0.53,0.9,16.8,2.3,1.3,4340,2281,,,,,,,,,,,,,,,,,
8106,1469912366150,,,,,,,-0.16,-0.55,0.87,16.5,1.5,1.3,4460,2289,,,,,,,,,,,,,,,,,
8126,1469912366170,,,,,,,-0.19,-0.44,0.93,15.7,1.2,0.9,4420,2275,,,,,,,,,,,,,,,,,
8146,1469912366190,,,,46,,,-0.17,-0.52,0.91,15.0,1.5,1.1,4260,2295,1.925,2,39.544018,-122.332138,38.47,0.035,327.5,8,2,1.8,0,0.0,-1,0.0,,0.0,0
8166,1469912366210,,,,,,,-0.17,-0.53,0.91,14.8,1.4,0.6,4400,2289,,,,,,,,,,,,,,,,,
8186,1469912366230,,,,,,,-0.17,-0.48,1.0,14.2,2.8,0.9,4260,2303,,,,,,,,,,,,,,,,,
8206,1469912366250,,,,,,,-0.16,-0.54,0.99,13.9,2.1,0.8,4280,2303,,,,,,,,,,,,,,,,,
8226,1469912366270,,,,,,,-0.19,-0.53,0.97,13.6,1.5,0.7,4380,2316,,,,,,,,,,,,,,,,,
8246,1469912366290,0,277.4,209.2,52,211.2,,-0.15,-0.5,1.01,13.3,1.0,0.8,4540,2323,1.928,2,39.544018,-122.332138,38.47,0.035,327.5,8,2,1.8,0,0.0,-1,0.0,0.0,0.0,0
8266,1469912366211,,,,,,,-0.16,-0.49,0.95,12.9,0.9,0.8,4480,2295,,,,,,,,,,,,,,,,,
8286,1469912366231,,,,,,,-0.17,-0.46,1.0,12.9,1.8,0.3,4280,2336,,,,,,,,,,,,,,,,,
8306,1469912366251,,,,,,,-0.2,-0.48,0.95,12.7,1.3,0.3,4440,2323,,,,,,,,,,,,,,,,,
8326,1469912366271,,,,,,,-0.19,-0.5,0.93,12.6,0.7,0.5,4480,2344,,,,,,,,,,,,,,,,,
8346,1469912366291,,,,48,,,-0.24,-0.53,0.95,12.8,1.1,0.3,4560,2366,1.918,2,39.544014,-122.332123,38.66,0.036,327.3,8,2,1.8,0,0.0,-1,0.0,,0.0,0
8366,1469912366311,,,,,,,-0.22,-0.55,0.99,13.1,0.6,0.2,4360,2352,,,,,,,,,,,,,,,,,
8386,1469912366331,,,,,,,-0.25,-0.52,1.02,13.2,0.8,-0.2,4420,2344,,,,,,,,,,,,,,,,,
8406,1469912366351,,,,,,,-0.24,-0.59,0.98,12.9,-0.3,0.2,4580,2358,,,,,,,,,,,,,,,,,
8426,1469912366371,,,,,,,-0.27,-0.56,0.94,13.1,0.0,0.2,4540,2373,,,,,,,,,,,,,,,,,
8446,1469912366391,0,277.9,208.6,50,210.6,,-0.22,-0.6,0.98,13.4,0.2,0.6,4480,2352,1.879,2,39.544006,-122.3321,39.2,0.038,327.1,8,2,1.8,0,0.0,-1,0.0,0.0,0.0,0
8466,1469912366409,,,,,,,-0.21,-0.57,1.01,13.5,0.9,0.2,4500,2380,,,,,,,,,,,,,,,,,
8486,1469912366429,,,,,,,-0.2,-0.61,1.02,13.4,0.5,0.4,4700,2380,,,,,,,,,,,,,,,,,
8506,1469912366449,,,,,,,-0.21,-0.52,1.0,13.4,1.5,-0.0,4700,2395,,,,,,,,,,,,,,,,,
8526,1469912366469,,,,,,,-0.2,-0.57,1.03,13.3,1.9,0.3,4440,2410,,,,,,,,,,,,,,,,,
8546,1469912366489,,,,64,,,-0.2,-0.53,1.0,13.1,1.8,0.1,4620,2418,1.947,2,39.543999,-122.332085,39.72,0.039,326.9,8,2,1.8,0,0.0,-1,0.0,,0.0,0
8566,1469912366508,,,,,,,-0.19,-0.51,0.98,12.8,0.9,0.3,4760,2403,,,,,,,,,,,,,,,,,
8586,1469912366528,,,,,,,-0.2,-0.49,1.01,12.5,0.9,0.2,4760,2433,,,,,,,,,,,,,,,,,
8606,1469912366548,,,,,,,-0.19,-0.5,0.92,12.3,0.4,0.2,4440,2433,,,,,,,,,,,,,,,,,
8626,1469912366568,,,,,,,-0.18,-0.53,0.95,11.8,1.2,0.8,4560,2410,,,,,,,,,,,,,,,,,
8646,1469912366588,0,277.6,208.4,65,210.9,,-0.21,-0.53,0.91,11.5,-0.5,0.8,4740,2449,1.784,2,39.543995,-122.332062,40.18,0.04,326.6,8,2,1.8,0,0.0,-1,0.0,0.0,0.0,0
8666,1469912366602,,,,,,,-0.21,-0.53,0.87,11.4,-0.0,1.1,4580,2433,,,,,,,,,,,,,,,,,
8686,1469912366622,,,,,,,-0.23,-0.51,0.92,10.8,-1.1,0.7,4460,2449,,,,,,,,,,,,,,,,,
8706,1469912366642,,,,,,,-0.28,-0.44,0.88,9.9,-0.6,0.8,4640,2464,,,,,,,,,,,,,,,,,
8726,1469912366662,,,,,,,-0.24,-0.39,0.92,9.2,-0.9,0.7,4620,2441,,,,,,,,,,,,,,,,,
8746,1469912366682,,,,50,,,-0.26,-0.36,0.94,8.3,-0.1,0.8,4600,2496,1.927,2,39.543987,-122.332046,40.64,0.041,326.2,8,2,1.8,0,0.0,-1,0.0,,0.0,0
8766,1469912366708,,,,,,,-0.23,-0.27,0.91,7.8,-0.3,0.5,4840,2512,,,,,,,,,,,,,,,,,
8786,1469912366728,,,,,,,-0.24,-0.3,0.94,7.5,0.2,0.6,4520,2472,,,,,,,,,,,,,,,,,
8806,1469912366748,,,,,,,-0.25,-0.32,0.95,7.4,1.2,0.7,4700,2504,,,,,,,,,,,,,,,,,
8826,1469912366768,,,,,,,-0.28,-0.32,0.92,7.5,0.9,0.7,4860,2512,,,,,,,,,,,,,,,,,
8846,1469912366788,0,277.1,209.1,59,210.9,,-0.28,-0.32,0.89,7.3,0.8,1.3,4740,2512,1.827,2,39.54398,-122.332024,41.25,0.042,325.8,8,2,1.8,0,0.0,-1,0.0,0.0,0.0,0
8866,1469912366910,,,,,,,-0.25,-0.28,0.91,7.1,-0.3,0.8,4880,2512,,,,,,,,,,,,,,,,,
8886,1469912366930,,,,,,,-0.3,-0.27,0.94,6.8,0.4,0.6,4740,2504,,,,,,,,,,,,,,,,,
8906,1469912366950,,,,,,,-0.29,-0.27,0.94,6.8,0.3,0.1,4820,2546,,,,,,,,,,,,,,,,,
8926,1469912366970,,,,,,,-0.3,-0.26,0.92,6.8,-0.4,-0.1,4920,2546,,,,,,,,,,,,,,,,,
8946,1469912366990,,,,79,,,-0.26,-0.26,0.89,6.7,-0.5,0.4,4680,2538,1.827,2,39.543961,-122.331985,42.45,0.044,325.0,8,2,1.8,0,0.0,-1,0.0,,0.0,0
8966,1469912367010,,,,,,,-0.27,-0.24,0.88,6.6,-0.9,0.4,4680,2546,,,,,,,,,,,,,,,,,
8986,1469912367030,,,,,,,-0.29,-0.18,0.79,6.4,-1.3,0.6,4860,2555,,,,,,,,,,,,,,,,,
9006,1469912367050,,,,,,,-0.28,-0.19,0.84,6.5,-1.3,0.3,4860,2572,,,,,,,,,,,,,,,,,
9026,1469912367070,,,,,,,-0.27,-0.19,0.84,6.4,-1.4,0.6,4940,2589,,,,,,,,,,,,,,,,,
9046,1469912367090,0,276.8,208.6,51,211.5,13.98,-0.23,-0.23,0.86,6.4,-1.2,0.9,4660,2589,1.832,2,39.543961,-122.331985,42.45,0.044,325.0,8,2,1.8,0,0.0,-1,0.0,0.0,0.0,0
9066,1469912367011,,,,,,,-0.25,-0.2,0.89,6.5,-1.8,0.1,5020,2580,,,,,,,,,,,,,,,,,
9086,1469912367031,,,,,,,-0.29,-0.19,0.89,6.2,-0.8,0.1,4660,2589,,,,,,,,,,,,,,,,,
9106,1469912367051,,,,,,,-0.27,-0.25,0.9,6.2,-0.9,0.4,4920,2589,,,,,,,,,,,,,,,,,
9126,1469912367071,,,,,,,-0.27,-0.24,0.87,6.3,-1.2,0.4,5060,2589,,,,,,,,,,,,,,,,,
9146,1469912367091,,,,61,,,-0.31,-0.23,0.94,6.2,-1.0,0.5,4880,2624,1.822,2,39.543957,-122.33197,43.17,0.045,324.6,8,2,1.8,0,0.0,-1,0.0,,0.0,0
9166,1469912367111,,,,,,,-0.3,-0.2,0.97,6.2,-1.3,-0.0,5060,2598,,,,,,,,,,,,,,,,,
9186,1469912367131,,,,,,,-0.31,-0.27,0.94,6.3,-1.1,-0.2,4760,2615,,,,,,,,,,,,,,,,,
9206,1469912367151,,,,,,,-0.32,-0.2,0.89,6.3,-1.5,-0.1,5080,2633,,,,,,,,,,,,,,,,,
9226,1469912367171,,,,,,,-0.31,-0.2,0.94,6.3,-0.6,-0.8,4900,2624,,,,,,,,,,,,,,,,,
9246,1469912367191,0,277.1,208.9,71,210.9,,-0.32,-0.26,0.93,6.1,-0.0,-0.4,5180,2652,1.942,2,39.543945,-122.331947,43.6,0.047,324.0,8,2,1.8,0,0.0,-1,0.0,0.0,0.0,0
9266,1469912367211,,,,,,,-0.32,-0.24,0.91,6.2,0.4,-0.3,5020,2661,,,,,,,,,,,,,,,,,
9286,1469912367231,,,,,,,-0.28,-0.16,0.9,6.0,-0.0,-0.7,5260,2643,,,,,,,,,,,,,,,,,
9306,1469912367251,,,,,,,-0.26,-0.23,0.86,5.9,-0.3,-0.9,4820,2643,,,,,,,,,,,,,,,,,
9326,1469912367271,,,,,,,-0.27,-0.14,0.8,5.8,-1.1,-0.7,5080,2661,,,,,,,,,,,,,,,,,
9346,1469912367291,,,,52,,,-0.25,-0.14,0.81,5.3,-0.7,-1.0,5060,2670,1.907,2,39.543938,-122.331932,44.3,0.048,323.5,8,2,1.8,0,0.0,-1,0.0,,0.0,0
9366,1469912367311,,,,,,,-0.22,-0.16,0.7,5.5,-2.0,-1.1,5020,2698,,,,,,,,,,,,,,,,,
9386,1469912367331,,,,,,,-0.24,-0.14,0.68,5.5,-2.1,-1.0,5260,2670,,,,,,,,,,,,,,,,,
9406,1469912367351,,,,,,,-0.25,-0.16,0.66,5.2,-2.1,-1.0,5020,2661,,,,,,,,,,,,,,,,,
9426,1469912367371,,,,,,,-0.29,-0.2,0.67,5.2,-2.3,-0.9,5360,2707,,,,,,,,,,,,,,,,,
9446,1469912367391,0,277.8,209.4,39,211.4,,-0.29,-0.17,0.8,5.1,-0.5,-0.7,5000,2698,1.905,2,39.543926,-122.331909,44.94,0.049,322.8,8,2,1.8,0,0.0,-1,0.0,0.0,0.0,0
9466,1469912367409,,,,,,,-0.27,-0.24,0.81,4.7,-0.9,-0.5,5240,2707,,,,,,,,,,,,,,,,,
9486,1469912367429,,,,,,,-0.26,-0.2,0.88,4.8,-1.4,-0.6,5160,2727,,,,,,,,,,,,,,,,,
9506,1469912367449,,,,,,,-0.28,-0.23,0.92,4.6,-2.0,-0.3,5140,2736,,,,,,,,,,,,,,,,,
9526,1469912367469,,,,,,,-0.32,-0.24,0.91,4.5,-1.4,0.0,5120,2736,,,,,,,,,,,,,,,,,
9546,1469912367489,,,,47,,,-0.29,-0.16,0.88,4.2,-1.4,-0.1,4900,2716,1.854,2,39.543915,-122.331894,45.44,0.05,322.1,8,2,1.8,0,0.0,-1,0.0,,0.0,0
9566,1469912367512,,,,,,,-0.3,-0.2,0.87,4.1,-1.7,-0.3,5320,2736,,,,,,,,,,,,,,,,,
9586,1469912367532,,,,,,,-0.31,-0.14,0.9,4.0,-1.8,0.2,5020,2716,,,,,,,,,,,,,,,,,
9606,1469912367552,,,,,,,-0.36,-0.19,0.87,3.6,-2.8,0.5,5220,2736,,,,,,,,,,,,,,,,,
9626,1469912367572,,,,,,,-0.38,-0.17,0.95,3.7,-2.3,0.4,5180,2746,,,,,,,,,,,,,,,,,
9646,1469912367592,1,277.4,209.0,45,211.2,,-0.38,-0.18,1.04,3.2,-0.8,0.7,5240,2746,1.818,2,39.543903,-122.331863,46.1,0.052,321.5,8,2,1.8,0,0.0,-1,0.0,0.0,0.0,0
9666,1469912367701,,,,,,,-0.34,-0.18,1.05,3.1,0.2,0.9,5120,2746,,,,,,,,,,,,,,,,,
9686,1469912367721,,,,,,,-0.3,-0.09,0.99,2.7,-0.3,0.5,5040,2786,,,,,,,,,,,,,,,,,
9706,1469912367741,,,,,,,-0.3,-0.14,0.93,2.9,-1.6,0.3,5160,2796,,,,,,,,,,,,,,,,,
9726,1469912367761,,,,,,,-0.31,-0.18,1.02,2.8,-1.9,0.6,5020,2776,,,,,,,,,,,,,,,,,
9746,1469912367781,,,,44,,,-0.35,-0.2,0.96,2.8,-2.1,0.9,5200,2766,1.887,2,39.54388,-122.331825,47.19,0.055,320.5,8,2,1.8,0,0.0,-1,0.0,,0.0,0
9766,1469912367801,,,,,,,-0.35,-0.2,0.99,2.5,-2.1,0.8,5180,2756,,,,,,,,,,,,,,,,,
9786,1469912367821,,,,,,,-0.34,-0.16,0.93,2.8,-0.5,0.6,5240,2796,,,,,,,,,,,,,,,,,
9806,1469912367841,,,,,,,-0.27,-0.1,0.93,2.4,0.3,0.7,5240,2776,,,,,,,,,,,,,,,,,
9826,1469912367861,,,,,,,-0.24,-0.17,0.95,2.6,-0.9,0.8,5240,2766,,,,,,,,,,,,,,,,,
9846,1469912367881,0,277.4,209.4,41,211.5,,-0.26,-0.09,0.99,2.5,-2.8,0.5,5220,2776,1.916,2,39.54388,-122.331825,47.19,0.055,320.5,8,2,1.8,0,0.0,-1,0.0,0.0,0.0,0
9866,1469912367804,,,,,,,-0.31,-0.11,0.9,2.6,-4.1,0.4,5140,2827,,,,,,,,,,,,,,,,,
9886,1469912367824,,,,,,,-0.31,-0.15,0.99,2.5,-2.5,0.5,5140,2786,,,,,,,,,,,,,,,,,
9906,1469912367844,,,,,,,-0.28,-0.09,0.95,2.7,-2.0,0.5,5340,2786,,,,,,,,,,,,,,,,,
9926,1469912367864,,,,,,,-0.25,-0.06,0.91,2.0,-1.6,0.5,5260,2816,,,,,,,,,,,,,,,,,
9946,1469912367884,,,,49,,,-0.2,-0.05,0.94,2.7,-0.5,-0.1,5400,2816,1.924,2,39.543869,-122.331818,47.7,0.056,320.0,8,2,1.8,0,0.0,-1,0.0,,0.0,0
9966,1469912367898,,,,,,,-0.11,-0.07,0.9,2.4,-0.8,-0.3,5380,2796,,,,,,,,,,,,,,,,,
9986,1469912367918,,,,,,,-0.08,-0.07,0.84,2.5,-2.2,0.1,5400,2806,,,,,,,,,,,,,,,,,
10006,1469912367938,,,,,,,-0.12,-0.07,0.88,2.2,-4.3,-0.2,5340,2847,,,,,,,,,,,,,,,,,
10026,1469912367958,,,,,,,-0.19,-0.03,0.95,2.3,-3.2,-0.6,5320,2816,,,,,,,,,,,,,,,,,
10046,1469912367978,0,277.4,208.3,55,210.5,14.04,-0.19,-0.1,0.86,2.1,-0.9,-0.9,5300,2786,1.825,2,39.543861,-122.331787,48.08,0.057,319.5,8,2,1.8,0,0.0,-1,0.0,0.0,0.0,0
10066,1469912368004,,,,,,,-0.13,-0.09,0.94,2.1,0.9,-0.5,5220,2816,,,,,,,,,,,,,,,,,
10086,1469912368024,,,,,,,-0.1,-0.1,0.85,2.0,-0.1,-0.5,5240,2827,,,,,,,,,,,,,,,,,
10106,1469912368044,,,,,,,-0.09,-0.1,0.88,1.9,-1.0,-0.6,5260,2827,,,,,,,,,,,,,,,,,
10126,1469912368064,,,,,,,-0.09,-0.09,0.86,2.4,-0.2,-1.1,5380,2827,,,,,,,,,,,,,,,,,
10146,1469912368084,,,,56,,,-0.03,-0.08,0.84,2.0,-0.4,-1.1,5260,2816,1.932,2,39.543846,-122.331779,48.27,0.058,318.9,8,2,1.8,0,0.0,-1,0.0,,0.0,0
10166,1469912368104,,,,,,,-0.04,-0.05,0.83,2.1,-2.0,-0.6,5240,2847,,,,,,,,,,,,,,,,,
10186,1469912368124,,,,,,,-0.11,-0.11,0.88,1.8,-3.6,-0.5,5420,2847,,,,,,,,,,,,,,,,,
10206,1469912368144,,,,,,,-0.18,-0.07,0.86,1.9,-2.7,-0.6,5360,2786,,,,,,,,,,,,,,,,,
10226,1469912368164,,,,,,,-0.15,-0.14,0.8,1.7,-0.9,-1.0,5260,2816,,,,,,,,,,,,,,,,,
10246,1469912368184,0,277.1,207.9,55,211.4,,-0.06,-0.1,0.91,1.7,1.3,-0.6,5240,2838,1.924,2,39.543835,-122.331749,49.0,0.06,318.2,8,2,1.8,0,0.0,-1,0.0,0.0,0.0,0
10266,1469912368204,,,,,,,-0.03,-0.14,0.86,1.9,0.4,-0.6,5280,2806,,,,,,,,,,,,,,,,,
10286,1469912368224,,,,,,,-0.02,-0.09,0.87,1.8,-0.5,-0.7,5380,2796,,,,,,,,,,,,,,,,,
10306,1469912368244,,,,,,,-0.01,-0.11,0.84,2.2,-0.0,-0.8,5220,2816,,,,,,,,,,,,,,,,,
10326,1469912368264,,,,,,,0.03,-0.07,0.88,1.8,0.4,-0.6,5280,2796,,,,,,,,,,,,,,,,,
10346,1469912368284,,,,66,,,0.04,-0.13,0.89,1.9,-0.5,0.0,5280,2838,1.861,2,39.543819,-122.331741,49.16,0.061,317.5,8,2,1.8,0,0.0,-1,0.0,,0.0,0
10366,1469912368300,,,,,,,0.01,-0.11,0.91,1.8,-2.3,0.1,5340,2806,,,,,,,,,,,,,,,,,
10386,1469912368320,,,,,,,-0.01,-0.02,0.87,2.0,-0.8,-0.4,5260,2796,,,,,,,,,,,,,,,,,
10406,1469912368340,,,,,,,0.05,-0.04,0.89,1.4,0.6,-0.4,5180,2796,,,,,,,,,,,,,,,,,
10426,1469912368360,,,,,,,0.1,-0.05,0.91,1.6,-0.0,-0.1,5380,2786,,,,,,,,,,,,,,,,,
10446,1469912368380,1,279.5,209.1,73,210.6,,0.05,-0.03,0.94,1.3,-2.5,-0.1,5260,2796,1.91,2,39.543808,-122.331711,49.31,0.063,316.8,8,2,1.8,0,0.0,-1,0.0,0.0,0.0,0
10466,1469912368501,,,,,,,-0.01,-0.05,0.96,1.3,-2.3,-0.4,5380,2796,,,,,,,,,,,,,,,,,
10486,1469912368521,,,,,,,0.01,-0.04,0.93,1.4,-0.1,-0.8,5340,2786,,,,,,,,,,,,,,,,,
10506,1469912368541,,,,,,,0.07,-0.07,1.01,1.2,0.5,-0.6,5340,2746,,,,,,,,,,,,,,,,,
10526,1469912368561,,,,,,,0.07,-0.1,1.01,1.0,-1.7,-0.5,5300,2736,,,,,,,,,,,,,,,,,
10546,1469912368581,,,,76,,,-0.01,-0.02,1.02,1.1,-1.7,-0.8,5040,2736,1.874,2,39.543781,-122.331673,49.59,0.066,315.5,8,2,1.8,0,0.0,-1,0.0,,0.0,0
10566,1469912368601,,,,,,,-0.01,-0.15,0.97,1.0,0.0,-0.9,5020,2689,,,,,,,,,,,,,,,,,
10586,1469912368621,,,,,,,0.04,-0.05,0.97,1.1,0.6,-1.1,5200,2727,,,,,,,,,,,,,,,,,
10606,1469912368641,,,,,,,0.04,-0.09,0.94,0.8,-1.1,-0.8,5240,2707,,,,,,,,,,,,,,,,,
10626,1469912368661,,,,,,,0.04,-0.04,1.03,1.1,0.1,-0.6,5180,2766,,,,,,,,,,,,,,,,,
10646,1469912368681,0,277.6,208.6,36,210.9,,0.1,0.02,1.05,0.4,0.2,-0.3,5220,2756,1.901,2,39.543781,-122.331673,49.59,0.066,315.5,8,2,1.8,0,0.0,-1,0.0,0.0,0.0,0
10666,1469912368602,,,,,,,0.12,-0.02,0.97,0.8,-1.4,0.0,5220,2786,,,,,,,,,,,,,,,,,
10686,1469912368622,,,,,,,0.12,0.08,0.96,0.3,-1.3,-0.4,5220,2756,,,,,,,,,,,,,,,,,
10706,1469912368642,,,,,,,0.12,-0.02,0.9,0.8,-1.0,-0.4,5220,2766,,,,,,,,,,,,,,,,,
10726,1469912368662,,,,,,,0.17,0.02,1.01,0.5,-0.6,-0.3,5220,2776,,,,,,,,,,,,,,,,,
10746,1469912368682,,,,70,,,0.15,0.02,0.89,0.8,-3.6,0.1,5220,2736,1.894,2,39.54377,-122.331665,49.43,0.067,315.0,8,2,1.8,0,0.0,-1,0.0,,0.0,0
10766,1469912368702,,,,,,,0.07,-0.01,0.93,0.8,-2.0,-0.2,5280,2698,,,,,,,,,,,,,,,,,
10786,1469912368722,,,,,,,0.1,-0.01,0.87,1.4,-0.1,-0.8,5220,2716,,,,,,,,,,,,,,,,,
10806,1469912368742,,,,,,,0.17,-0.02,0.97,1.1,-0.4,-0.6,5160,2746,,,,,,,,,,,,,,,,,
10826,1469912368762,,,,,,,0.19,-0.1,0.97,1.6,-2.5,-0.4,5180,2746,,,,,,,,,,,,,,,,,
10846,1469912368782,0,276.4,208.0,72,211.9,,0.15,-0.04,0.98,1.8,-1.1,-0.5,5080,2736,1.901,2,39.543758,-122.331635,49.35,0.069,314.4,8,2,1.8,0,0.0,-1,0.0,0.0,0.0,0
10866,1469912368804,,,,,,,0.2,-0.08,1.06,1.6,0.4,-0.8,5060,2689,,,,,,,,,,,,,,,,,
10886,1469912368824,,,,,,,0.2,-0.05,0.94,2.0,-1.1,-0.7,5100,2680,,,,,,,,,,,,,,,,,
10906,1469912368844,,,,,,,0.18,-0.02,0.96,1.5,-0.9,-1.0,5060,2698,,,,,,,,,,,,,,,,,
10926,1469912368864,,,,,,,0.23,-0.02,0.82,1.9,0.5,-1.1,4980,2707,,,,,,,,,,,,,,,,,
10946,1469912368884,,,,51,,,0.25,-0.06,0.91,1.3,-0.6,-0.6,5180,2727,1.94,2,39.543743,-122.331627,48.9,0.07,314.0,8,2,1.8,0,0.0,-1,0.0,,0.0,0
10966,1469912368897,,,,,,,0.19,-0.1,0.96,1.5,-2.1,-0.3,5200,2736,,,,,,,,,,,,,,,,,
10986,1469912368917,,,,,,,0.17,-0.08,1.0,1.5,-0.6,0.1,5100,2707,,,,,,,,,,,,,,,,,
11006,1469912368937,,,,,,,0.23,-0.1,1.09,1.3,1.0,0.2,5120,2698,,,,,,,,,,,,,,,,,
11026,1469912368957,,,,,,,0.21,-0.12,1.01,1.7,-1.8,0.5,5160,2689,,,,,,,,,,,,,,,,,
11046,1469912368977,0,277.6,209.4,52,210.3,13.95,0.16,-0.08,1.03,1.4,-1.1,0.2,5100,2661,1.9,2,39.543732,-122.331596,48.56,0.072,313.7,8,2,1.8,0,0.0,-1,0.0,0.0,0.0,0
11066,1469912369003,,,,,,,0.18,-0.09,0.88,1.4,-0.2,0.1,5120,2643,,,,,,,,,,,,,,,,,
11086,1469912369023,,,,,,,0.2,-0.12,0.87,1.4,-1.2,0.2,5080,2661,,,,,,,,,,,,,,,,,
11106,1469912369043,,,,,,,0.18,-0.03,0.89,1.0,-1.2,-0.1,5140,2680,,,,,,,,,,,,,,,,,
11126,1469912369063,,,,,,,0.19,-0.13,0.79,1.2,-0.8,-0.1,5000,2670,,,,,,,,,,,,,,,,,
11146,1469912369083,,,,73,,,0.19,-0.05,0.87,1.0,-1.4,-0.3,5040,2652,1.909,2,39.54372,-122.331589,48.27,0.073,313.4,8,2,1.8,0,0.0,-1,0.0,,0.0,0
11166,1469912369101,,,,,,,0.15,-0.11,0.89,0.6,-1.8,0.0,5120,2670,,,,,,,,,,,,,,,,,
11186,1469912369121,,,,,,,0.17,-0.12,0.87,1.4,-0.5,-0.2,5120,2670,,,,,,,,,,,,,,,,,
11206,1469912369141,,,,,,,0.21,-0.05,0.96,0.9,-0.6,-0.1,4980,2698,,,,,,,,,,,,,,,,,
11226,1469912369161,,,,,,,0.21,-0.14,0.98,1.1,-1.9,0.0,5040,2689,,,,,,,,,,,,,,,,,
11246,1469912369181,0,277.9,208.8,61,210.7,,0.18,-0.12,1.02,1.5,-1.2,0.2,5060,2670,1.891,2,39.543701,-122.331558,48.09,0.075,313.1,8,2,1.8,0,0.0,-1,0.0,0.0,0.0,0
11266,1469912369302,,,,,,,0.21,-0.13,1.11,1.3,0.0,0.2,5000,2698,,,,,,,,,,,,,,,,,
11286,1469912369322,,,,,,,0.2,-0.14,1.1,1.4,-1.7,0.6,4940,2670,,,,,,,,,,,,,,,,,
11306,1469912369342,,,,,,,0.17,-0.12,1.18,1.9,-0.7,0.5,5120,2670,,,,,,,,,,,,,,,,,
11326,1469912369362,,,,,,,0.2,-0.09,1.26,1.3,-0.4,0.9,5020,2633,,,,,,,,,,,,,,,,,
11346,1469912369382,,,,50,,,0.19,-0.22,1.29,1.9,-1.6,1.0,5080,2652,1.867,2,39.543678,-122.331535,47.48,0.077,312.5,8,2,1.8,0,0.0,-1,0.0,,0.0,0
11366,1469912369402,,,,,,,0.18,-0.07,1.29,2.1,-0.7,0.8,4960,2652,,,,,,,,,,,,,,,,,
11386,1469912369422,,,,,,,0.25,-0.12,1.35,1.6,0.2,0.8,4880,2661,,,,,,,,,,,,,,,,,
11406,1469912369442,,,,,,,0.24,-0.12,1.28,1.8,-1.7,0.9,4920,2643,,,,,,,,,,,,,,,,,
11426,1469912369462,,,,,,,0.21,-0.05,1.35,2.1,0.4,0.6,5060,2633,,,,,,,,,,,,,,,,,
11446,1469912369482,0,277.4,208.7,71,210.9,,0.28,-0.03,1.39,1.5,0.8,0.6,4960,2670,1.89,2,39.543678,-122.331535,47.48,0.077,312.5,8,2,1.8,0,0.0,-1,0.0,0.0,0.0,0
11466,1469912369402,,,,,,,0.27,-0.11,1.42,1.7,-0.9,0.5,5120,2670,,,,,,,,,,,,,,,,,
11486,1469912369422,,,,,,,0.24,-0.07,1.31,2.5,-0.4,0.0,5020,2670,,,,,,,,,,,,,,,,,
11506,1469912369442,,,,,,,0.27,-0.1,1.36,2.3,-0.1,-0.1,5120,2670,,,,,,,,,,,,,,,,,
11526,1469912369462,,,,,,,0.23,-0.08,1.29,2.0,-1.5,-0.2,5200,2670,,,,,,,,,,,,,,,,,
11546,1469912369482,,,,92,,,0.19,-0.1,1.25,2.4,-1.6,-0.9,5200,2727,1.871,2,39.543663,-122.331505,47.01,0.079,312.2,8,2,1.8,0,0.0,-1,0.0,,0.0,0
11566,1469912369500,,,,,,,0.19,-0.08,1.22,2.6,-0.2,-1.4,5180,2716,,,,,,,,,,,,,,,,,
11586,1469912369520,,,,,,,0.21,-0.05,1.27,2.4,-0.7,-1.3,5220,2698,,,,,,,,,,,,,,,,,
11606,1469912369540,,,,,,,0.17,-0.01,1.27,2.3,-0.9,-1.7,5180,2736,,,,,,,,,,,,,,,,,
11626,1469912369560,,,,,,,0.15,-0.08,1.14,2.8,0.8,-2.3,5080,2736,,,,,,,,,,,,,,,,,
11646,1469912369580,0,277.4,209.1,71,210.8,,0.15,-0.08,1.18,3.0,1.8,-2.6,5020,2736,1.89,2,39.543652,-122.331497,46.76,0.08,311.9,8,2,1.8,0,0.0,-1,0.0,0.0,0.0,0
11666,1469912369600,,,,,,,0.1,-0.09,1.15,3.2,-0.5,-2.7,5160,2689,,,,,,,,,,,,,,,,,
11686,1469912369620,,,,,,,0.02,-0.07,1.21,3.4,0.1,-3.4,4920,2680,,,,,,,,,,,,,,,,,
11706,1469912369640,,,,,,,0.03,-0.08,1.23,3.4,2.3,-3.6,5060,2633,,,,,,,,,,,,,,,,,
11726,1469912369660,,,,,,,0.05,-0.11,1.22,3.6,1.3,-3.3,4920,2661,,,,,,,,,,,,,,,,,
11746,1469912369680,,,,40,,,0.04,-0.01,1.21,3.9,1.7,-3.7,5020,2624,1.939,2,39.543636,-122.331482,46.55,0.081,311.5,8,2,1.8,0,0.0,-1,0.0,,0.0,0
11766,1469912369700,,,,,,,0.06,-0.1,1.22,3.7,3.0,-3.5,4880,2652,,,,,,,,,,,,,,,,,
11786,1469912369720,,,,,,,0.09,-0.11,1.17,4.2,1.2,-3.2,4980,2652,,,,,,,,,,,,,,,,,
11806,1469912369740,,,,,,,0.06,-0.17,1.18,4.9,1.2,-3.6,4960,2624,,,,,,,,,,,,,,,,,
11826,1469912369760,,,,,,,0.08,-0.21,1.14,5.5,2.1,-3.5,5060,2624,,,,,,,,,,,,,,,,,
11846,1469912369780,0,277.8,208.8,44,210.9,,0.08,-0.21,1.13,5.8,-1.0,-3.4,5000,2633,1.84,2,39.543621,-122.331459,46.32,0.082,311.1,8,2,1.8,0,0.0,-1,0.0,0.0,0.0,0
11866,1469912369803,,,,,,,0.02,-0.21,1.13,6.3,-0.5,-4.0,4980,2624,,,,,,,,,,,,,,,,,
11886,1469912369823,,,,,,,0.06,-0.27,1.14,6.6,0.5,-3.9,5040,2624,,,,,,,,,,,,,,,,,
11906,1469912369843,,,,,,,0.08,-0.23,1.14,6.9,-1.9,-3.9,5060,2624,,,,,,,,,,,,,,,,,
11926,1469912369863,,,,,,,0.03,-0.21,1.12,7.4,-1.4,-4.0,4860,2652,,,,,,,,,,,,,,,,,
11946,1469912369883,,,,45,,,0.08,-0.24,1.11,7.9,0.6,-3.8,4920,2633,1.878,2,39.54361,-122.331444,46.38,0.084,310.7,8,2,1.8,0,0.0,-1,0.0,,0.0,0
11966,1469912369896,,,,,,,0.1,-0.28,1.15,8.4,-2.0,-3.9,4920,2606,,,,,,,,,,,,,,,,,
11986,1469912369916,,,,,,,0.04,-0.22,1.17,9.2,-0.7,-4.2,4900,2615,,,,,,,,,,,,,,,,,
12006,1469912369936,,,,,,,0.09,-0.3,1.24,9.2,0.3,-3.9,5020,2652,,,,,,,,,,,,,,,,,
12026,1469912369956,,,,,,,0.07,-0.37,1.19,9.8,-1.5,-3.6,4920,2652,,,,,,,,,,,,,,,,,
12046,1469912369976,0,277.4,208.7,42,211.3,13.97,0.03,-0.38,1.24,10.7,-0.1,-3.3,4960,2661,1.874,2,39.543594,-122.331429,46.77,0.085,310.4,8,2,1.8,0,0.0,-1,0.0,0.0,0.0,0
12066,1469912370102,,,,,,,0.09,-0.36,1.31,10.7,0.1,-3.2,4960,2689,,,,,,,,,,,,,,,,,
12086,1469912370122,,,,,,,0.11,-0.44,1.28,11.0,-1.9,-3.2,5060,2643,,,,,,,,,,,,,,,,,
12106,1469912370142,,,,,,,0.09,-0.43,1.18,12.2,-0.3,-3.6,4960,2698,,,,,,,,,,,,,,,,,
12126,1469912370162,,,,,,,0.14,-0.45,1.2,12.4,2.1,-3.5,5020,2661,,,,,,,,,,,,,,,,,
12146,1469912370182,,,,56,,,0.14,-0.5,1.18,12.6,-0.5,-3.6,5100,2670,1.865,2,39.543564,-122.33139,46.59,0.088,309.8,8,2,1.8,0,0.0,-1,0.0,,0.0,0
12166,1469912370202,,,,,,,0.09,-0.49,1.21,13.3,0.7,-4.0,5180,2680,,,,,,,,,,,,,,,,,
12186,1469912370222,,,,,,,0.11,-0.55,1.21,13.8,2.1,-4.1,5120,2716,,,,,,,,,,,,,,,,,
12206,1469912370242,,,,,,,0.13,-0.56,1.23,14.4,0.7,-3.7,5200,2736,,,,,,,,,,,,,,,,,
12226,1469912370262,,,,,,,0.07,-0.54,1.25,14.6,0.6,-3.8,5180,2689,,,,,,,,,,,,,,,,,
12246,1469912370282,0,277.4,208.2,91,211.5,,0.09,-0.57,1.12,15.0,1.9,-3.9,5060,2746,1.94,2,39.543564,-122.33139,46.59,0.088,309.8,8,2,1.8,0,0.0,-1,0.0,0.0,0.0,0
12266,1469912370203,,,,,,,0.1,-0.54,1.2,14.7,2.7,-3.8,5180,2736,,,,,,,,,,,,,,,,,
12286,1469912370223,,,,,,,0.05,-0.59,1.11,14.3,1.2,-3.9,5120,2698,,,,,,,,,,,,,,,,,
12306,1469912370243,,,,,,,-0.01,-0.58,1.17,14.5,2.9,-4.0,5080,2661,,,,,,,,,,,,,,,,,
12326,1469912370263,,,,,,,0.02,-0.57,1.18,13.8,4.6,-3.8,5040,2689,,,,,,,,,,,,,,,,,
12346,1469912370283,,,,68,,,0.04,-0.62,1.14,13.6,2.0,-3.5,4980,2661,1.864,2,39.543552,-122.331383,46.32,0.089,309.6,8,2,1.8,0,0.0,-1,0.0,,0.0,0
12366,1469912370303,,,,,,,-0.01,-0.5,1.17,13.2,2.9,-3.4,4960,2652,,,,,,,,,,,,,,,,,
12386,1469912370323,,,,,,,0.03,-0.52,1.15,12.3,3.1,-2.6,4920,2652,,,,,,,,,,,,,,,,,
12406,1469912370343,,,,,,,0.01,-0.51,1.13,12.1,0.7,-1.7,5040,2652,,,,,,,,,,,,,,,,,
12426,1469912370363,,,,,,,0.03,-0.43,1.09,11.8,1.9,-0.9,5020,2689,,,,,,,,,,,,,,,,,
12446,1469912370383,0,278.5,208.4,56,210.3,,0.07,-0.46,1.07,11.7,1.5,-0.2,5020,2633,1.87,2,39.543537,-122.331368,46.11,0.09,309.4,8,2,1.8,0,0.0,-1,0.0,0.0,0.0,0
12466,1469912370401,,,,,,,0.1,-0.52,1.1,11.5,-0.4,0.3,4960,2652,,,,,,,,,,,,,,,,,
12486,1469912370421,,,,,,,0.08,-0.39,1.12,10.9,0.6,-0.2,5040,2670,,,,,,,,,,,,,,,,,
12506,1469912370441,,,,,,,0.14,-0.42,1.15,10.3,0.4,-0.4,4920,2661,,,,,,,,,,,,,,,,,
12526,1469912370461,,,,,,,0.13,-0.37,1.15,10.1,-2.0,-0.9,5000,2615,,,,,,,,,,,,,,,,,
12546,1469912370481,,,,40,,,0.09,-0.36,1.22,9.9,-0.2,-1.3,5040,2624,1.858,2,39.543522,-122.331352,46.3,0.091,309.3,8,2,1.8,0,0.0,-1,0.0,,0.0,0
12566,1469912370500,,,,,,,0.09,-0.37,1.21,9.8,0.8,-1.6,5020,2680,,,,,,,,,,,,,,,,,
12586,1469912370520,,,,,,,0.12,-0.4,1.23,9.8,-0.5,-1.5,5080,2661,,,,,,,,,,,,,,,,,
12606,1469912370540,,,,,,,0.04,-0.36,1.25,10.1,-0.5,-1.8,4920,2661,,,,,,,,,,,,,,,,,
12626,1469912370560,,,,,,,0.05,-0.41,1.22,10.1,1.8,-2.0,4980,2652,,,,,,,,,,,,,,,,,
12646,1469912370580,0,278.1,209.1,55,211.3,,0.08,-0.42,1.17,10.6,0.9,-2.5,4920,2661,1.887,2,39.543507,-122.331345,46.51,0.093,309.1,8,2,1.8,0,0.0,-1,0.0,0.0,0.0,0
12666,1469912370600,,,,,,,0.05,-0.37,1.18,11.0,1.8,-3.6,5040,2643,,,,,,,,,,,,,,,,,
12686,1469912370620,,,,,,,0.05,-0.35,1.14,10.8,2.9,-4.2,5060,2643,,,,,,,,,,,,,,,,,
12706,1469912370640,,,,,,,0.06,-0.34,1.16,10.8,0.8,-4.3,5080,2652,,,,,,,,,,,,,,,,,
12726,1469912370660,,,,,,,0.01,-0.34,1.19,11.0,1.6,-4.4,5040,2652,,,,,,,,,,,,,,,,,
12746,1469912370680,,,,48,,,0.06,-0.39,1.17,10.9,2.4,-3.6,4900,2689,1.927,2,39.543491,-122.331329,46.53,0.094,309.0,8,2,1.8,0,0.0,-1,0.0,,0.0,0
12766,1469912370700,,,,,,,0.04,-0.4,1.17,12.0,0.0,-3.0,5060,2661,,,,,,,,,,,,,,,,,
12786,1469912370720,,,,,,,-0.03,-0.39,1.18,12.4,1.0,-2.5,4940,2652,,,,,,,,,,,,,,,,,
12806,1469912370740,,,,,,,-0.01,-0.41,1.12,12.3,1.3,-1.6,5100,2643,,,,,,,,,,,,,,,,,
12826,1469912370760,,,,,,,-0.07,-0.38,1.12,12.3,-2.1,-0.8,5040,2652,,,,,,,,,,,,,,,,,
12846,1469912370780,1,278.8,209.4,48,211.3,,-0.09,-0.37,1.06,12.2,-1.6,0.0,5040,2652,1.893,2,39.543476,-122.331314,46.39,0.095,308.8,8,2,1.8,0,0.0,-1,0.0,0.0,0.0,0
12866,1469912370902,,,,,,,-0.05,-0.51,0.98,12.6,-1.9,0.7,4980,2624,,,,,,,,,,,,,,,,,
12886,1469912370922,,,,,,,-0.09,-0.5,0.94,13.4,-3.7,1.2,4940,2652,,,,,,,,,,,,,,,,,
12906,1469912370942,,,,,,,-0.17,-0.5,0.98,13.3,-3.0,1.8,5000,2643,,,,,,,,,,,,,,,,,
12926,1469912370962,,,,,,,-0.13,-0.51,0.9,13.8,-0.7,2.6,5040,2670,,,,,,,,,,,,,,,,,
12946,1469912370982,,,,68,,,-0.11,-0.47,0.91,14.0,-2.5,2.9,5000,2652,1.892,2,39.543442,-122.331291,46.26,0.098,308.5,8,2,1.8,0,0.0,-1,0.0,,0.0,0
12966,1469912371002,,,,,,,-0.17,-0.54,0.87,14.3,-1.4,2.4,5000,2652,,,,,,,,,,,,,,,,,
12986,1469912371022,,,,,,,-0.15,-0.64,0.78,15.3,0.6,1.8,5180,2661,,,,,,,,,,,,,,,,,
13006,1469912371042,,,,,,,-0.12,-0.57,0.89,15.5,1.2,1.1,4880,2680,,,,,,,,,,,,,,,,,
13026,1469912371062,,,,,,,-0.13,-0.59,0.92,15.6,0.0,-0.2,5040,2670,,,,,,,,,,,,,,,,,
13046,1469912371082,0,277.9,209.0,84,211.9,13.96,-0.1,-0.54,0.91,16.3,2.8,-0.9,5080,2698,1.885,2,39.543442,-122.331291,46.26,0.098,308.5,8,2,1.8,0,0.0,-1,0.0,0.0,0.0,0
13066,1469912371003,,,,,,,-0.02,-0.59,0.98,16.2,2.4,-1.1,5160,2689,,,,,,,,,,,,,,,,,
13086,1469912371023,,,,,,,-0.08,-0.67,0.96,16.4,-0.1,-1.1,4900,2698,,,,,,,,,,,,,,,,,
13106,1469912371043,,,,,,,-0.12,-0.65,0.94,16.7,2.0,-1.3,5260,2727,,,,,,,,,,,,,,,,,
13126,1469912371063,,,,,,,-0.02,-0.7,0.95,16.8,3.6,-1.1,5040,2727,,,,,,,,,,,,,,,,,
13146,1469912371083,,,,75,,,-0.01,-0.64,0.92,16.9,-0.9,-0.7,5080,2698,1.845,2,39.543423,-122.331276,46.24,0.1,308.4,8,2,1.8,0,0.0,-1,0.0,,0.0,0
13166,1469912371103,,,,,,,-0.13,-0.56,0.91,16.4,-0.1,-0.9,5120,2736,,,,,,,,,,,,,,,,,
13186,1469912371123,,,,,,,-0.11,-0.59,0.83,16.5,2.4,-1.1,5080,2698,,,,,,,,,,,,,,,,,
13206,1469912371143,,,,,,,-0.07,-0.55,0.82,16.3,1.4,-0.9,5160,2716,,,,,,,,,,,,,,,,,
13226,1469912371163,,,,,,,-0.08,-0.66,0.86,16.4,-2.1,-0.7,5100,2746,,,,,,,,,,,,,,,,,
13246,1469912371183,0,277.4,208.8,63,211.3,,-0.2,-0.66,0.89,16.9,-0.4,-0.9,5240,2736,1.905,2,39.543407,-122.331268,46.1,0.101,308.2,8,3,1.8,0,0.0,-1,0.0,0.0,0.0,0
13266,1469912371203,,,,,,,-0.13,-0.7,0.96,16.8,1.7,-1.0,4920,2736,,,,,,,,,,,,,,,,,
13286,1469912371223,,,,,,,-0.11,-0.7,0.91,16.6,0.0,-0.8,5100,2716,,,,,,,,,,,,,,,,,
13306,1469912371243,,,,,,,-0.14,-0.64,0.92,16.0,-1.0,-0.6,5260,2736,,,,,,,,,,,,,,,,,
13326,1469912371263,,,,,,,-0.16,-0.61,0.94,15.8,0.9,-0.9,5080,2776,,,,,,,,,,,,,,,,,
13346,1469912371283,,,,73,,,-0.11,-0.67,0.95,15.7,1.5,-0.9,5320,2766,1.798,2,39.543388,-122.331268,46.05,0.102,308.0,8,3,1.8,0,0.0,-1,0.0,,0.0,0
13366,1469912371303,,,,,,,-0.14,-0.71,0.97,15.4,-0.6,-1.0,5240,2766,,,,,,,,,,,,,,,,,
13386,1469912371323,,,,,,,-0.19,-0.68,0.97,15.4,0.2,-1.2,5340,2766,,,,,,,,,,,,,,,,,
13406,1469912371343,,,,,,,-0.17,-0.69,0.93,15.3,0.8,-1.8,5280,2736,,,,,,,,,,,,,,,,,
13426,1469912371363,,,,,,,-0.12,-0.61,0.9,14.9,1.6,-1.6,5220,2766,,,,,,,,,,,,,,,,,
13446,1469912371383,0,277.9,209.1,81,211.7,,-0.12,-0.6,0.83,14.0,-0.5,-1.6,5180,2796,1.901,2,39.543373,-122.331253,46.28,0.103,307.8,8,3,1.8,0,0.0,-1,0.0,0.0,0.0,0
13466,1469912371401,,,,,,,-0.17,-0.53,0.88,13.7,0.2,-1.8,5160,2776,,,,,,,,,,,,,,,,,
13486,1469912371421,,,,,,,-0.15,-0.58,0.9,13.1,0.1,-1.5,5320,2766,,,,,,,,,,,,,,,,,
13506,1469912371441,,,,,,,-0.18,-0.62,0.87,12.9,-0.9,-0.8,5220,2756,,,,,,,,,,,,,,,,,
13526,1469912371461,,,,,,,-0.2,-0.6,0.91,12.4,-0.0,-0.5,5340,2776,,,,,,,,,,,,,,,,,
13546,1469912371481,,,,61,,,-0.17,-0.56,0.92,12.4,0.7,-0.6,5400,2766,1.859,2,39.543354,-122.331253,46.45,0.105,307.7,8,3,1.8,0,0.0,-1,0.0,,0.0,0
13566,1469912371501,,,,,,,-0.13,-0.62,0.92,12.4,1.2,-0.8,5380,2806,,,,,,,,,,,,,,,,,
13586,1469912371521,,,,,,,-0.1,-0.53,0.91,12.2,-0.1,-0.3,5200,2827,,,,,,,,,,,,,,,,,
13606,1469912371541,,,,,,,-0.15,-0.57,0.86,11.6,-1.8,-0.1,5400,2827,,,,,,,,,,,,,,,,,
13626,1469912371561,,,,,,,-0.17,-0.55,0.96,11.8,-0.5,-0.3,5380,2806,,,,,,,,,,,,,,,,,
13646,1469912371581,0,278.5,208.9,51,211.2,,-0.15,-0.52,0.88,11.6,0.1,-0.5,5360,2838,1.845,2,39.543339,-122.331238,46.74,0.106,307.6,8,3,1.8,0,0.0,-1,0.0,0.0,0.0,0
13666,1469912371700,,,,,,,-0.16,-0.5,0.87,11.0,1.0,-0.0,5180,2827,,,,,,,,,,,,,,,,,
13686,1469912371720,,,,,,,-0.17,-0.55,0.9,10.8,0.9,0.1,5340,2806,,,,,,,,,,,,,,,,,
13706,1469912371740,,,,,,,-0.19,-0.51,0.88,10.6,1.1,-0.1,5360,2858,,,,,,,,,,,,,,,,,
13726,1469912371760,,,,,,,-0.19,-0.51,0.83,10.5,1.6,-0.1,5440,2838,,,,,,,,,,,,,,,,,
13746,1469912371780,,,,46,,,-0.17,-0.59,0.88,10.5,1.0,-0.1,5440,2847,1.925,2,39.543301,-122.33123,47.72,0.109,307.3,8,3,1.8,0,0.0,-1,0.0,,0.0,0
13766,1469912371800,,,,,,,-0.18,-0.55,0.88,11.1,0.6,0.1,5320,2847,,,,,,,,,,,,,,,,,
13786,1469912371820,,,,,,,-0.22,-0.59,0.88,10.9,-0.8,0.1,5400,2858,,,,,,,,,,,,,,,,,
13806,1469912371840,,,,,,,-0.24,-0.52,0.91,10.7,-1.1,0.3,5360,2838,,,,,,,,,,,,,,,,,
13826,1469912371860,,,,,,,-0.29,-0.51,0.9,10.7,0.1,0.4,5260,2880,,,,,,,,,,,,,,,,,
13846,1469912371880,1,279.0,209.2,57,211.3,,-0.28,-0.6,0.95,10.7,0.1,0.6,5440,2869,1.938,2,39.543301,-122.33123,47.72,0.109,307.3,8,3,1.8,0,0.0,-1,0.0,0.0,0.0,0
13866,1469912371803,,,,,,,-0.31,-0.58,0.92,10.6,0.7,1.0,5360,2890,,,,,,,,,,,,,,,,,
13886,1469912371823,,,,,,,-0.31,-0.59,1.01,10.3,2.2,1.1,5500,2858,,,,,,,,,,,,,,,,,
13906,1469912371843,,,,,,,-0.26,-0.6,1.01,10.1,2.1,1.4,5520,2880,,,,,,,,,,,,,,,,,
13926,1469912371863,,,,,,,-0.21,-0.6,1.07,10.2,2.3,1.4,5520,2912,,,,,,,,,,,,,,,,,
13946,1469912371883,,,,42,,,-0.17,-0.6,0.99,10.0,1.4,1.2,5500,2958,1.882,2,39.543282,-122.33123,48.19,0.11,307.2,8,3,1.8,0,0.0,-1,0.0,,0.0,0
13966,1469912371896,,,,,,,-0.13,-0.6,1.05,9.8,0.8,1.5,5380,2890,,,,,,,,,,,,,,,,,
13986,1469912371916,,,,,,,-0.15,-0.57,0.96,9.9,-0.2,1.4,5380,2924,,,,,,,,,,,,,,,,,
14006,1469912371936,,,,,,,-0.18,-0.66,0.91,9.6,-2.8,1.6,5640,2924,,,,,,,,,,,,,,,,,
14026,1469912371956,,,,,,,-0.23,-0.66,0.97,9.4,-3.6,1.8,5600,2946,,,,,,,,,,,,,,,,,
14046,1469912371976,0,278.1,209.8,60,211.7,13.84,-0.3,-0.63,0.95,9.4,-2.5,1.4,5540,2935,1.875,2,39.543262,-122.331215,48.82,0.112,307.0,8,3,1.8,0,0.0,-1,0.0,0.0,0.0,0
14066,1469912371997,,,,,,,-0.3,-0.69,0.97,9.1,-1.9,1.6,5520,2958,,,,,,,,,,,,,,,,,
14086,1469912372017,,,,,,,-0.33,-0.69,1.03,8.9,-1.0,2.1,5580,2946,,,,,,,,,,,,,,,,,
14106,1469912372037,,,,,,,-0.36,-0.62,0.94,8.7,-0.7,2.3,5500,2969,,,,,,,,,,,,,,,,,
14126,1469912372057,,,,,,,-0.37,-0.62,1.02,8.3,-0.6,2.3,5380,2946,,,,,,,,,,,,,,,,,
14146,1469912372077,,,,52,,,-0.39,-0.56,0.95,7.7,-0.0,2.2,5680,2980,1.846,2,39.543243,-122.331215,49.2,0.113,306.9,8,3,1.8,0,0.0,-1,0.0,,0.0,0
14166,1469912372103,,,,,,,-0.38,-0.5,0.94,7.3,1.9,2.3,5640,2969,,,,,,,,,,,,,,,,,
14186,1469912372123,,,,,,,-0.39,-0.49,0.94,6.9,3.0,2.3,5540,2935,,,,,,,,,,,,,,,,,
14206,1469912372143,,,,,,,-0.36,-0.46,0.88,6.5,3.4,2.2,5500,2958,,,,,,,,,,,,,,,,,
14226,1469912372163,,,,,,,-0.32,-0.45,0.93,6.2,3.4,2.1,5660,2935,,,,,,,,,,,,,,,,,
14246,1469912372183,0,278.8,211.2,52,211.4,,-0.3,-0.38,0.99,6.3,3.7,2.3,5520,2980,1.864,2,39.54322,-122.331215,49.98,0.114,306.8,8,3,1.8,0,0.0,-1,0.0,0.0,0.0,0
14266,1469912372203,,,,,,,-0.33,-0.31,0.95,6.3,4.8,2.0,5560,3027,,,,,,,,,,,,,,,,,
14286,1469912372223,,,,,,,-0.31,-0.36,0.91,6.2,5.5,1.7,5580,2980,,,,,,,,,,,,,,,,,
14306,1469912372243,,,,,,,-0.24,-0.35,0.91,5.8,6.1,1.8,5720,3004,,,,,,,,,,,,,,,,,
14326,1469912372263,,,,,,,-0.18,-0.34,0.96,5.3,7.4,1.8,5780,3064,,,,,,,,,,,,,,,,,
14346,1469912372283,,,,59,,,-0.17,-0.32,1.01,5.1,9.7,1.5,5820,3004,1.891,2,39.543201,-122.331215,50.37,0.116,306.7,8,3,1.8,0,0.0,-1,0.0,,0.0,0
14366,1469912372303,,,,,,,-0.16,-0.27,0.97,5.2,10.3,1.3,5700,2992,,,,,,,,,,,,,,,,,
14386,1469912372323,,,,,,,-0.11,-0.2,0.96,5.5,9.7,1.1,5800,3064,,,,,,,,,,,,,,,,,
14406,1469912372343,,,,,,,-0.02,-0.16,1.02,5.3,9.6,0.9,5580,3027,,,,,,,,,,,,,,,,,
14426,1469912372363,,,,,,,0.03,-0.1,1.08,4.9,10.8,0.9,5780,3040,,,,,,,,,,,,,,,,,
14446,1469912372383,2,278.1,208.9,57,211.2,,0.01,-0.05,1.05,4.7,11.8,0.9,5820,3027,1.924,2,39.543182,-122.3312,50.91,0.117,306.7,8,3,1.8,0,0.0,-1,0.0,0.0,0.0,0
14466,1469912372500,,,,,,,0.0,-0.01,0.99,4.5,11.9,0.2,5740,3089,,,,,,,,,,,,,,,,,
14486,1469912372520,,,,,,,0.0,-0.04,0.98,4.5,11.8,0.2,5880,3076,,,,,,,,,,,,,,,,,
14506,1469912372540,,,,,,,-0.02,-0.1,1.03,4.7,11.6,0.2,5880,3027,,,,,,,,,,,,,,,,,
14526,1469912372560,,,,,,,-0.06,-0.19,1.07,4.6,11.8,0.4,5800,3052,,,,,,,,,,,,,,,,,
14546,1469912372580,,,,72,,,-0.09,-0.26,1.02,4.6,11.7,0.4,5740,3076,1.908,2,39.54314,-122.3312,52.02,0.12,306.5,8,3,1.8,0,0.0,-1,0.0,,0.0,0
14566,1469912372600,,,,,,,-0.14,-0.32,0.96,4.5,13.2,0.4,5880,3089,,,,,,,,,,,,,,,,,
14586,1469912372620,,,,,,,-0.19,-0.39,0.97,4.0,14.9,0.3,5720,3126,,,,,,,,,,,,,,,,,
14606,1469912372640,,,,,,,-0.26,-0.34,1.0,3.6,15.2,0.0,5940,3126,,,,,,,,,,,,,,,,,
14626,1469912372660,,,,,,,-0.29,-0.3,0.94,3.4,13.9,-0.4,5880,3064,,,,,,,,,,,,,,,,,
14646,1469912372680,1,277.1,208.2,50,211.2,,-0.28,-0.3,0.83,3.2,10.9,-0.5,5860,3113,1.838,2,39.54314,-122.3312,52.02,0.12,306.5,8,3,1.8,0,0.0,-1,0.0,0.0,0.0,0
14666,1469912372601,,,,,,,-0.2,-0.28,0.79,2.9,7.2,-0.1,5820,3101,,,,,,,,,,,,,,,,,
14686,1469912372621,,,,,,,-0.14,-0.33,0.82,2.9,3.7,0.2,5880,3113,,,,,,,,,,,,,,,,,
14706,1469912372641,,,,,,,-0.06,-0.36,0.87,3.0,0.6,0.2,5860,3113,,,,,,,,,,,,,,,,,
14726,1469912372661,,,,,,,-0.01,-0.33,0.94,2.9,-1.2,0.1,5880,3138,,,,,,,,,,,,,,,,,
14746,1469912372681,,,,49,,,0.01,-0.32,1.02,2.9,-1.1,0.1,5880,3152,1.899,2,39.543118,-122.3312,52.56,0.122,306.5,8,3,1.8,0,0.0,-1,0.0,,0.0,0
14766,1469912372701,,,,,,,0.0,-0.26,1.06,3.0,0.2,-0.1,5820,3101,,,,,,,,,,,,,,,,,
14786,1469912372721,,,,,,,0.0,-0.19,1.12,3.0,1.9,-0.4,5840,3101,,,,,,,,,,,,,,,,,
14806,1469912372741,,,,,,,-0.04,-0.09,1.1,2.9,4.4,-0.2,5980,3113,,,,,,,,,,,,,,,,,
14826,1469912372761,,,,,,,-0.1,-0.03,1.06,2.8,6.8,0.3,6020,3138,,,,,,,,,,,,,,,,,
14846,1469912372781,0,282.2,211.2,52,213.0,,-0.2,0.04,1.03,2.9,9.1,0.6,5860,3126,1.848,2,39.543095,-122.3312,53.02,0.123,306.6,8,3,1.8,0,0.0,-1,0.0,0.0,0.0,0
14866,1469912372803,,,,,,,-0.3,0.13,1.03,2.8,10.8,0.6,6060,3152,,,,,,,,,,,,,,,,,
14886,1469912372823,,,,,,,-0.4,0.18,0.98,2.9,11.5,0.8,5940,3164,,,,,,,,,,,,,,,,,
14906,1469912372843,,,,,,,-0.48,0.2,0.91,2.9,10.5,1.1,5820,3190,,,,,,,,,,,,,,,,,
14926,1469912372863,,,,,,,-0.55,0.22,0.86,3.2,9.5,1.2,6000,3204,,,,,,,,,,,,,,,,,
14946,1469912372883,,,,51,,,-0.59,0.3,0.83,3.3,9.3,1.0,6060,3178,1.895,2,39.543076,-122.3312,53.57,0.125,306.6,8,3,1.8,0,0.0,-1,0.0,,0.0,0
14966,1469912372896,,,,,,,-0.62,0.37,0.79,3.5,9.4,1.0,5940,3164,,,,,,,,,,,,,,,,,
14986,1469912372916,,,,,,,-0.63,0.42,0.81,3.5,10.5,1.0,6020,3138,,,,,,,,,,,,,,,,,
15006,1469912372936,,,,,,,-0.68,0.41,0.85,3.5,12.5,0.7,6080,3178,,,,,,,,,,,,,,,,,
15026,1469912372956,,,,,,,-0.71,0.41,0.89,3.4,14.0,0.6,6040,3204,,,,,,,,,,,,,,,,,
15046,1469912372976,0,277.9,209.0,55,211.9,13.68,-0.77,0.36,0.92,3.4,14.8,0.7,6020,3218,1.86,2,39.543053,-122.3312,54.07,0.126,306.6,8,3,1.8,0,0.0,-1,0.0,0.0,0.0,0
15066,1469912373003,,,,,,,-0.8,0.35,0.94,3.4,14.4,0.6,6100,3190,,,,,,,,,,,,,,,,,
15086,1469912373023,,,,,,,-0.76,0.31,0.98,3.3,13.2,0.5,6100,3204,,,,,,,,,,,,,,,,,
15106,1469912373043,,,,,,,-0.66,0.26,1.08,3.1,12.1,0.1,6100,3230,,,,,,,,,,,,,,,,,
15126,1469912373063,,,,,,,-0.52,0.21,1.14,2.9,11.6,-0.2,6140,3190,,,,,,,,,,,,,,,,,
15146,1469912373083,,,,82,,,-0.35,0.2,1.21,2.7,11.7,-0.5,6060,3258,1.85,2,39.54303,-122.3312,54.52,0.128,306.5,8,3,1.8,0,0.0,-1,0.0,,0.0,0
15166,1469912373099,,,,,,,-0.22,0.19,1.24,2.3,11.4,-0.5,6020,3258,,,,,,,,,,,,,,,,,
15186,1469912373119,,,,,,,-0.1,0.2,1.15,1.9,10.7,-0.2,6080,3258,,,,,,,,,,,,,,,,,
15206,1469912373139,,,,,,,-0.03,0.21,1.0,1.6,7.7,0.2,6160,3258,,,,,,,,,,,,,,,,,
15226,1469912373159,,,,,,,0.01,0.21,0.86,1.5,4.2,0.4,6120,3230,,,,,,,,,,,,,,,,,
15246,1469912373179,0,278.8,208.9,54,211.3,,0.11,0.26,0.79,1.4,1.0,0.1,6280,3286,1.879,2,39.543007,-122.3312,55.04,0.129,306.5,8,3,1.8,0,0.0,-1,0.0,0.0,0.0,0
15266,1469912373302,,,,,,,0.17,0.3,0.69,1.0,0.5,-0.1,6140,3244,,,,,,,,,,,,,,,,,
15286,1469912373322,,,,,,,0.14,0.27,0.71,0.6,2.2,0.0,6220,3272,,,,,,,,,,,,,,,,,
15306,1469912373342,,,,,,,0.04,0.19,0.75,-0.1,4.9,0.5,6240,3329,,,,,,,,,,,,,,,,,
15326,1469912373362,,,,,,,-0.08,0.05,0.8,-0.7,7.1,1.0,6160,3244,,,,,,,,,,,,,,,,,
15346,1469912373382,,,,56,,,-0.17,-0.08,0.89,-0.9,7.4,1.1,6260,3258,1.858,2,39.542965,-122.3312,55.89,0.132,306.4,8,3,1.8,0,0.0,-1,0.0,,0.0,0
15366,1469912373402,,,,,,,-0.22,-0.21,0.99,-0.9,6.5,1.2,6280,3300,,,,,,,,,,,,,,,,,
15386,1469912373422,,,,,,,-0.16,-0.27,1.06,-0.5,3.9,1.5,6280,3315,,,,,,,,,,,,,,,,,
15406,1469912373442,,,,,,,-0.14,-0.23,1.06,-0.1,2.0,1.7,6100,3272,,,,,,,,,,,,,,,,,
15426,1469912373462,,,,,,,-0.15,-0.12,0.88,-0.2,0.1,1.6,6340,3286,,,,,,,,,,,,,,,,,
15446,1469912373482,0,278.1,208.9,72,210.7,,-0.2,0.01,0.74,-0.5,-1.3,1.1,6320,3358,1.911,2,39.542965,-122.3312,55.89,0.132,306.4,8,3,1.8,0,0.0,-1,0.0,0.0,0.0,0
15466,1469912373401,,,,,,,-0.21,0.13,0.75,-1.0,-0.8,0.5,6280,3329,,,,,,,,,,,,,,,,,
15486,1469912373421,,,,,,,-0.12,0.15,0.87,-1.4,0.8,0.3,6220,3286,,,,,,,,,,,,,,,,,
15506,1469912373441,,,,,,,-0.01,0.14,0.96,-1.2,1.5,0.0,6380,3258,,,,,,,,,,,,,,,,,
15526,1469912373461,,,,,,,0.03,0.06,0.93,-0.9,1.5,0.2,6300,3315,,,,,,,,,,,,,,,,,
15546,1469912373481,,,,56,,,-0.03,-0.03,0.83,-0.7,-0.3,0.5,6240,3343,1.909,2,39.542942,-122.3312,56.33,0.134,306.4,8,3,1.8,0,0.0,-1,0.0,,0.0,0
15566,1469912373501,,,,,,,-0.11,-0.11,0.84,-1.0,0.2,0.6,6200,3286,,,,,,,,,,,,,,,,,
15586,1469912373521,,,,,,,-0.14,-0.16,0.9,-1.5,1.2,1.0,6300,3300,,,,,,,,,,,,,,,,,
15606,1469912373541,,,,,,,-0.15,-0.13,0.97,-1.9,0.9,0.8,6220,3358,,,,,,,,,,,,,,,,,
15626,1469912373561,,,,,,,-0.13,-0.06,0.97,-2.0,-0.2,0.6,6220,3329,,,,,,,,,,,,,,,,,
15646,1469912373581,0,277.8,208.4,56,211.2,,-0.17,0.03,0.82,-1.7,-1.3,0.4,6280,3372,1.931,2,39.542919,-122.3312,56.85,0.135,306.4,8,3,1.8,0,0.0,-1,0.0,0.0,0.0,0
15666,1469912373601,,,,,,,-0.14,0.11,0.76,-1.4,-1.2,-0.1,6420,3343,,,,,,,,,,,,,,,,,
15686,1469912373621,,,,,,,-0.04,0.14,0.87,-1.1,-1.2,0.0,6320,3358,,,,,,,,,,,,,,,,,
15706,1469912373641,,,,,,,0.0,0.16,0.9,-1.5,-1.6,0.3,6500,3372,,,,,,,,,,,,,,,,,
15726,1469912373661,,,,,,,-0.04,0.14,0.87,-2.2,-1.9,0.1,6220,3315,,,,,,,,,,,,,,,,,
15746,1469912373681,,,,80,,,-0.08,-0.02,0.94,-2.5,-1.4,0.0,6180,3258,1.88,2,39.542896,-122.3312,57.23,0.137,306.3,8,3,1.8,0,0.0,-1,0.0,,0.0,0
15766,1469912373701,,,,,,,-0.15,-0.13,0.98,-2.8,0.3,0.3,6140,3372,,,,,,,,,,,,,,,,,
15786,1469912373721,,,,,,,-0.18,-0.14,1.06,-2.7,-0.4,0.3,6180,3403,,,,,,,,,,,,,,,,,
15806,1469912373741,,,,,,,-0.18,-0.06,0.9,-2.3,-2.9,0.5,6500,3358,,,,,,,,,,,,,,,,,
15826,1469912373761,,,,,,,-0.19,0.15,0.79,-2.0,-5.3,0.4,6540,3433,,,,,,,,,,,,,,,,,
15846,1469912373781,1,277.4,208.7,98,211.3,,-0.12,0.19,0.9,-2.1,-4.2,-0.2,6480,3387,1.927,2,39.54287,-122.3312,57.83,0.139,306.3,8,3,1.8,0,0.0,-1,0.0,0.0,0.0,0
15866,1469912373803,,,,,,,-0.05,0.15,1.01,-1.8,-3.4,-0.1,6320,3418,,,,,,,,,,,,,,,,,
15886,1469912373823,,,,,,,-0.07,0.03,0.99,-1.7,-2.7,0.3,6400,3418,,,,,,,,,,,,,,,,,
15906,1469912373843,,,,,,,-0.13,-0.09,0.92,-2.0,-2.0,0.5,6320,3358,,,,,,,,,,,,,,,,,
15926,1469912373863,,,,,,,-0.19,-0.12,1.01,-2.9,-1.2,0.6,6420,3372,,,,,,,,,,,,,,,,,
15946,1469912373883,,,,42,,,-0.21,-0.07,1.09,-3.0,-1.8,0.3,6420,3418,1.913,2,39.542847,-122.3312,58.16,0.14,306.3,8,3,1.8,0,0.0,-1,0.0,,0.0,0
15966,1469912373893,,,,,,,-0.24,0.01,0.94,-2.7,-2.4,0.2,6460,3480,,,,,,,,,,,,,,,,,
15986,1469912373913,,,,,,,-0.18,0.11,0.88,-1.9,-2.9,-0.1,6500,3372,,,,,,,,,,,,,,,,,
16006,1469912373933,,,,,,,-0.07,0.2,0.99,-1.8,-1.5,-0.1,6380,3372,,,,,,,,,,,,,,,,,
16026,1469912373953,,,,,,,-0.08,0.12,0.93,-2.6,0.7,0.3,6400,3358,,,,,,,,,,,,,,,,,
16046,1469912373973,0,278.1,208.8,56,210.9,13.9,-0.1,-0.03,0.95,-3.6,2.2,0.5,6500,3329,1.888,2,39.542828,-122.3312,58.54,0.142,306.2,8,3,1.8,0,0.0,-1,0.0,0.0,0.0,0
16066,1469912374103,,,,,,,-0.13,-0.13,1.05,-3.9,2.5,0.5,6300,3418,,,,,,,,,,,,,,,,,
16086,1469912374123,,,,,,,-0.18,-0.08,1.07,-3.5,1.8,0.8,6320,3343,,,,,,,,,,,,,,,,,
16106,1469912374143,,,,,,,-0.2,0.13,0.87,-3.3,0.1,0.3,6480,3343,,,,,,,,,,,,,,,,,
16126,1469912374163,,,,,,,-0.16,0.31,0.85,-3.4,0.1,-0.3,6440,3358,,,,,,,,,,,,,,,,,
16146,1469912374183,,,,56,,,-0.06,0.3,0.94,-3.1,0.6,-0.6,6280,3343,1.928,2,39.542778,-122.3312,59.13,0.145,306.1,8,3,1.8,0,0.0,-1,0.0,,0.0,0
16166,1469912374203,,,,,,,0.03,0.36,1.0,-2.8,1.3,-0.8,6280,3315,,,,,,,,,,,,,,,,,
16186,1469912374223,,,,,,,0.09,0.27,1.05,-2.5,2.7,-0.9,5980,3358,,,,,,,,,,,,,,,,,
16206,1469912374243,,,,,,,0.13,0.18,1.05,-2.2,4.1,-0.8,5960,3418,,,,,,,,,,,,,,,,,
16226,1469912374263,,,,,,,0.13,0.17,1.07,-2.3,5.6,-0.9,5860,3644,,,,,,,,,,,,,,,,,
16246,1469912374283,0,279.1,209.5,69,211.7,,0.12,0.22,1.14,-2.5,6.2,-0.9,5880,3190,1.885,2,39.542778,-122.3312,59.13,0.145,306.1,8,3,1.8,0,0.0,-1,0.0,0.0,0.0,0
16266,1469912374203,,,,,,,0.09,0.22,1.17,-2.3,7.5,-0.8,5840,3464,,,,,,,,,,,,,,,,,
16286,1469912374223,,,,,,,0.12,0.24,1.18,-2.2,7.4,-0.6,5740,3329,,,,,,,,,,,,,,,,,
16306,1469912374243,,,,,,,0.16,0.2,1.1,-2.2,6.9,-0.2,5760,3218,,,,,,,,,,,,,,,,,
16326,1469912374263,,,,,,,0.2,0.26,0.99,-2.5,6.1,-0.4,5720,3244,,,,,,,,,,,,,,,,,
16346,1469912374283,,,,66,,,0.27,0.2,0.83,-2.4,4.9,-0.1,5620,3372,1.746,2,39.542751,-122.3312,59.46,0.147,306.0,8,3,1.8,0,0.0,-1,0.0,,0.0,0
16366,1469912374303,,,,,,,0.32,0.19,0.8,-2.3,2.8,0.3,5620,3433,,,,,,,,,,,,,,,,,
16386,1469912374323,,,,,,,0.26,0.23,0.89,-2.6,1.8,0.4,5540,3418,,,,,,,,,,,,,,,,,
16406,1469912374343,,,,,,,0.15,0.2,0.92,-2.7,-0.1,0.7,5700,3387,,,,,,,,,,,,,,,,,
16426,1469912374363,,,,,,,0.09,0.18,0.91,-3.1,-2.3,0.9,5680,3512,,,,,,,,,,,,,,,,,
16446,1469912374383,0,278.5,209.3,39,211.6,,0.0,0.06,0.96,-3.3,-1.8,0.9,5720,3418,1.617,0,39.542728,-122.3312,59.54,0.149,306.1,8,3,1.8,0,0.0,-1,0.0,0.0,0.0,0
16466,1469912374403,,,,,,,-0.08,0.06,1.03,-3.3,0.1,0.6,5800,3480,,,,,,,,,,,,,,,,,
16486,1469912374423,,,,,,,-0.14,0.07,1.04,-3.6,1.4,0.2,5720,3480,,,,,,,,,,,,,,,,,
16506,1469912374443,,,,,,,-0.05,0.07,1.07,-3.8,2.5,-0.0,5600,3449,,,,,,,,,,,,,,,,,
16526,1469912374463,,,,,,,-0.01,0.03,1.15,-3.6,4.3,0.0,5640,3480,,,,,,,,,,,,,,,,,
16546,1469912374483,,,,61,,,0.03,0.11,1.06,-3.0,5.1,-0.2,5320,3464,1.666,0,39.542706,-122.331215,59.33,0.15,306.1,8,3,1.8,0,0.0,-1,0.0,,0.0,0
16566,1469912374503,,,,,,,0.01,0.1,1.01,-3.0,4.0,-0.6,5380,3527,,,,,,,,,,,,,,,,,
16586,1469912374523,,,,,,,-0.05,0.07,0.97,-3.3,1.6,-0.7,5480,3512,,,,,,,,,,,,,,,,,
16606,1469912374543,,,,,,,-0.11,0.0,1.02,-2.9,1.7,-1.0,5460,3527,,,,,,,,,,,,,,,,,
16626,1469912374563,,,,,,,-0.13,-0.02,0.98,-2.9,3.4,-1.5,5200,3527,,,,,,,,,,,,,,,,,
16646,1469912374583,0,278.6,209.1,51,211.2,,-0.17,0.05,0.97,-3.4,4.9,-1.0,5140,3495,1.629,0,39.542683,-122.331215,59.24,0.152,306.1,8,3,1.8,0,0.0,-1,0.0,0.0,0.0,0
16666,1469912374603,,,,,,,-0.16,-0.01,0.99,-3.5,3.3,-0.8,5120,3495,,,,,,,,,,,,,,,,,
16686,1469912374623,,,,,,,-0.19,0.13,1.06,-3.3,1.9,-1.3,5260,3560,,,,,,,,,,,,,,,,,
16706,1469912374643,,,,,,,-0.23,0.03,1.01,-3.7,3.9,-1.6,5220,3512,,,,,,,,,,,,,,,,,
16726,1469912374663,,,,,,,-0.19,0.08,0.97,-3.4,4.2,-1.3,5020,3544,,,,,,,,,,,,,,,,,
16746,1469912374683,,,,48,,,-0.19,0.09,0.96,-3.3,2.2,-1.4,4800,3527,1.452,0,39.542656,-122.331215,59.41,0.154,306.1,8,3,1.8,0,0.0,-1,0.0,,0.0,0
16766,1469912374703,,,,,,,-0.25,0.01,0.97,-3.0,3.0,-1.1,4800,3527,,,,,,,,,,,,,,,,,
16786,1469912374723,,,,,,,-0.21,0.04,0.97,-3.2,2.3,-0.9,4520,3560,,,,,,,,,,,,,,,,,
16806,1469912374743,,,,,,,-0.19,0.08,0.94,-3.4,0.9,-1.4,4820,3593,,,,,,,,,,,,,,,,,
16826,1469912374763,,,,,,,-0.22,0.05,0.95,-3.7,2.2,-1.0,4720,3560,,,,,,,,,,,,,,,,,
16846,1469912374783,0,278.1,208.4,80,210.7,,-0.23,0.08,0.89,-3.4,1.2,-1.4,4680,3560,1.333,3,39.542633,-122.331215,59.68,0.155,306.1,8,3,1.8,0,0.0,-1,0.0,0.0,0.0,0
16866,1469912374902,,,,,,,-0.24,0.05,0.85,-3.5,0.6,-1.3,4760,3544,,,,,,,,,,,,,,,,,
16886,1469912374922,,,,,,,-0.25,0.06,0.91,-3.3,0.7,-1.3,4660,3527,,,,,,,,,,,,,,,,,
16906,1469912374942,,,,,,,-0.23,0.01,0.91,-3.2,0.2,-1.0,4440,3560,,,,,,,,,,,,,,,,,
16926,1469912374962,,,,,,,-0.22,0.03,0.97,-3.2,0.4,-1.0,4480,3560,,,,,,,,,,,,,,,,,
16946,1469912374982,,,,41,,,-0.21,0.02,0.9,-3.1,0.9,-0.9,4620,3560,1.236,3,39.542587,-122.331215,60.96,0.159,306.1,8,3,1.8,0,0.0,-1,0.0,,0.0,0
16966,1469912375002,,,,,,,-0.24,0.02,0.96,-2.8,0.4,-0.9,4600,3610,,,,,,,,,,,,,,,,,
16986,1469912375022,,,,,,,-0.25,-0.01,0.9,-2.7,0.5,-0.7,4480,3560,,,,,,,,,,,,,,,,,
17006,1469912375042,,,,,,,-0.24,-0.01,0.99,-2.9,-0.7,-0.5,4520,3627,,,,,,,,,,,,,,,,,
17026,1469912375062,,,,,,,-0.27,0.01,0.87,-2.7,-1.1,-0.4,4680,3627,,,,,,,,,,,,,,,,,
17046,1469912375082,0,278.1,209.4,51,211.7,13.75,-0.23,0.02,0.88,-2.6,-0.8,0.0,4680,3576,1.236,3,39.542587,-122.331215,60.96,0.159,306.1,8,3,1.8,0,0.0,-1,0.0,0.0,0.0,0
17066,1469912375003,,,,,,,-0.27,0.05,0.86,-2.7,-0.5,-0.2,4480,3627,,,,,,,,,,,,,,,,,
17086,1469912375023,,,,,,,-0.28,0.09,0.87,-3.0,-1.3,0.1,4600,3593,,,,,,,,,,,,,,,,,
17106,1469912375043,,,,,,,-0.26,0.12,0.95,-3.1,-1.3,-0.2,4640,3644,,,,,,,,,,,,,,,,,
17126,1469912375063,,,,,,,-0.23,0.07,0.9,-3.4,-1.7,0.1,4520,3627,,,,,,,,,,,,,,,,,
17146,1469912375083,,,,62,,,-0.21,0.12,0.95,-3.3,-1.9,-0.3,4460,3610,1.264,3,39.542561,-122.331215,61.67,0.16,306.1,8,3,1.8,0,0.0,-1,0.0,,0.0,0
17166,1469912375103,,,,,,,-0.23,0.12,0.87,-3.4,-1.1,-0.1,4640,3644,,,,,,,,,,,,,,,,,
17186,1469912375123,,,,,,,-0.23,0.16,0.92,-3.4,-1.9,-0.3,4620,3627,,,,,,,,,,,,,,,,,
17206,1469912375143,,,,,,,-0.23,0.13,0.96,-3.5,-1.3,-0.1,4580,3661,,,,,,,,,,,,,,,,,
17226,1469912375163,,,,,,,-0.22,0.18,0.9,-3.3,-1.6,-0.1,4820,3680,,,,,,,,,,,,,,,,,
17246,1469912375183,0,277.9,208.5,39,210.9,,-0.22,0.1,0.93,-3.1,-0.2,-0.0,4460,3644,1.285,3,39.542534,-122.331215,62.15,0.162,306.2,8,3,1.8,0,0.0,-1,0.0,0.0,0.0,0
17266,1469912375203,,,,,,,-0.23,0.07,0.86,-2.9,-1.0,0.3,4600,3627,,,,,,,,,,,,,,,,,
17286,1469912375223,,,,,,,-0.23,0.06,0.87,-2.5,-1.4,-0.0,4760,3644,,,,,,,,,,,,,,,,,
17306,1469912375243,,,,,,,-0.21,0.05,0.91,-2.7,-1.8,0.3,4480,3661,,,,,,,,,,,,,,,,,
17326,1469912375263,,,,,,,-0.21,0.06,0.88,-2.7,-1.6,-0.1,4560,3627,,,,,,,,,,,,,,,,,
