"Interval"|"ms"|0|0|1,"Utc"|"ms"|0|0|1,"FuelLevel"|"F"|0|100|5,"OilTemp"|"F"|0.0|300.0|5,"Coolant"|"F"|0.0|300.0|5,"OilPress"|"PSI"|0|150|10,"EngineTemp"|"F"|0.0|300.0|5,"Battery"|"Volts"|0.0|20.0|1,"AccelX"|"G"|-3.0|3.0|50,"AccelY"|"G"|-3.0|3.0|50,"AccelZ"|"G"|-3.0|3.0|50,"Yaw"|"Deg/Sec"|-300.0|300.0|50,"Pitch"|"Deg/Sec"|-300.0|300.0|50,"Roll"|"Deg/Sec"|-300.0|300.0|50,"RPM"|""|0|10000|50,"Driveshaft"|"RPM"|0|5000|50,"GearRatio"|""|-5.0|5.0|10,"Gear"|""|-1|5|10,"Latitude"|"Degrees"|-180.0|180.0|10,"Longitude"|"Degrees"|-180.0|180.0|10,"Speed"|"MPH"|0.0|150.0|10,"Distance"|"Miles"|0.0|0.0|10,"Altitude"|"Feet"|0.0|4000.0|10,"GPSSats"|""|0|20|10,"GPSQual"|""|0|5|10,"GPSDOP"|""|0.0|20.0|10,"LapCount"|""|0|0|10,"LapTime"|"Min"|0.0|0.0|10,"Sector"|""|0|0|10,"SectorTime"|"Min"|0.0|0.0|10,"PredTime"|"Min"|0.0|0.0|5,"ElapsedTime"|"Min"|0.0|0.0|10,"CurrentLap"|""|0|0|10
5066,1469912687419,,,,,,,0.21,0.17,0.96,-8.3,-1.0,-0.1,3300,2643,,,,,,,,,,,,,,,,,
5086,1469912687439,,,,,,,0.22,0.18,0.99,-8.5,-0.2,-0.3,3460,2661,,,,,,,,,,,,,,,,,
5106,1469912687459,,,,,,,0.23,0.18,0.96,-8.5,-0.2,-0.4,3420,2689,,,,,,,,,,,,,,,,,
5126,1469912687479,,,,,,,0.24,0.18,0.99,-8.3,-0.9,-0.4,3300,2661,,,,,,,,,,,,,,,,,
5146,1469912687499,,,,39,,,0.23,0.19,0.98,-8.2,-1.4,-0.4,3460,2624,1.27,3,39.538586,-122.33548,49.77,0.001,334.7,8,2,2.2,0,0.0,-1,0.0,,0.0,0
5166,1469912687519,,,,,,,0.24,0.18,0.97,-8.1,-0.7,-0.4,3400,2643,,,,,,,,,,,,,,,,,
5186,1469912687539,,,,,,,0.25,0.23,1.0,-8.3,-0.3,-0.6,3320,2633,,,,,,,,,,,,,,,,,
5206,1469912687559,,,,,,,0.24,0.24,0.98,-8.4,-0.8,-0.6,3400,2624,,,,,,,,,,,,,,,,,
5226,1469912687579,,,,,,,0.21,0.23,0.98,-8.3,-0.9,-0.4,3340,2615,,,,,,,,,,,,,,,,,
5246,1469912687599,0,281.0,216.8,50,219.6,,0.18,0.2,1.0,-8.3,-0.5,-0.5,3320,2624,1.225,3,39.538567,-122.335464,49.38,0.003,335.0,8,2,2.2,0,0.0,-1,0.0,0.0,0.0,0
5266,1469912687619,,,,,,,0.18,0.18,0.97,-8.0,-1.0,-0.7,3260,2624,,,,,,,,,,,,,,,,,
5286,1469912687639,,,,,,,0.2,0.21,0.98,-8.1,-1.0,-0.7,3320,2615,,,,,,,,,,,,,,,,,
5306,1469912687659,,,,,,,0.2,0.23,0.97,-8.1,-1.5,-0.8,3360,2580,,,,,,,,,,,,,,,,,
5326,1469912687679,,,,,,,0.2,0.23,0.96,-8.0,-1.2,-0.7,3340,2606,,,,,,,,,,,,,,,,,
5346,1469912687699,,,,45,,,0.23,0.21,0.97,-8.0,-0.4,-0.6,3220,2624,1.259,3,39.538548,-122.335464,49.42,0.004,335.3,8,2,2.2,0,0.0,-1,0.0,,0.0,0
5366,1469912687719,,,,,,,0.24,0.24,1.01,-8.0,-0.4,-0.7,3320,2580,,,,,,,,,,,,,,,,,
5386,1469912687739,,,,,,,0.22,0.25,0.98,-8.0,-1.1,-0.8,3280,2580,,,,,,,,,,,,,,,,,
5406,1469912687759,,,,,,,0.19,0.21,0.98,-7.9,0.0,-0.6,3320,2589,,,,,,,,,,,,,,,,,
5426,1469912687779,,,,,,,0.22,0.22,0.99,-8.1,0.4,-0.5,3200,2580,,,,,,,,,,,,,,,,,
5446,1469912687799,0,282.5,217.5,42,220.3,,0.22,0.22,0.98,-8.0,-0.1,-0.5,3300,2572,1.239,3,39.538528,-122.335464,49.5,0.006,335.7,8,2,2.2,0,0.0,-1,0.0,0.0,0.0,0
5466,1469912687819,,,,,,,0.22,0.22,0.97,-7.9,-0.0,-0.6,3200,2580,,,,,,,,,,,,,,,,,
5486,1469912687839,,,,,,,0.22,0.23,0.97,-8.0,0.0,-0.7,3280,2580,,,,,,,,,,,,,,,,,
5506,1469912687859,,,,,,,0.23,0.27,0.99,-8.1,-0.4,-0.6,3240,2555,,,,,,,,,,,,,,,,,
5526,1469912687879,,,,,,,0.23,0.26,0.96,-8.1,-0.8,-0.6,3320,2546,,,,,,,,,,,,,,,,,
5546,1469912687899,,,,45,,,0.21,0.25,0.96,-8.2,-0.9,-0.4,3260,2572,1.249,3,39.538509,-122.335449,49.35,0.007,336.0,8,2,2.2,0,0.0,-1,0.0,,0.0,0
5566,1469912687914,,,,,,,0.22,0.29,0.96,-8.3,-0.4,-0.3,3180,2563,,,,,,,,,,,,,,,,,
5586,1469912687934,,,,,,,0.23,0.26,0.94,-8.2,-0.4,-0.3,3220,2529,,,,,,,,,,,,,,,,,
5606,1469912687954,,,,,,,0.23,0.23,0.93,-8.2,-0.4,-0.2,3180,2529,,,,,,,,,,,,,,,,,
5626,1469912687974,,,,,,,0.25,0.26,0.93,-8.4,-0.3,-0.1,3220,2538,,,,,,,,,,,,,,,,,
5646,1469912687994,1,282.5,217.7,49,220.5,,0.24,0.24,0.98,-8.7,-0.4,-0.1,3120,2521,1.269,3,39.538486,-122.335449,49.05,0.009,336.5,8,2,2.2,0,0.0,-1,0.0,0.0,0.0,0
5666,1469912688119,,,,,,,0.2,0.22,1.01,-9.0,-0.0,-0.1,3260,2512,,,,,,,,,,,,,,,,,
5686,1469912688139,,,,,,,0.2,0.22,0.98,-9.2,0.2,-0.1,3200,2546,,,,,,,,,,,,,,,,,
5706,1469912688159,,,,,,,0.21,0.24,0.95,-9.2,-0.5,-0.1,3140,2512,,,,,,,,,,,,,,,,,
5726,1469912688179,,,,,,,0.2,0.23,0.96,-9.1,-0.5,-0.2,3120,2512,,,,,,,,,,,,,,,,,
5746,1469912688199,,,,48,,,0.21,0.26,1.01,-9.2,-0.3,-0.7,3260,2529,1.253,3,39.538448,-122.335449,48.74,0.011,337.0,8,2,2.4,0,0.0,-1,0.0,,0.0,0
5766,1469912688219,,,,,,,0.22,0.21,1.01,-9.2,-0.2,-0.8,3160,2504,,,,,,,,,,,,,,,,,
5786,1469912688239,,,,,,,0.22,0.24,1.0,-9.1,-0.3,-0.7,3220,2489,,,,,,,,,,,,,,,,,
5806,1469912688259,,,,,,,0.23,0.24,0.98,-9.0,-0.5,-0.6,3160,2504,,,,,,,,,,,,,,,,,
5826,1469912688279,,,,,,,0.26,0.25,0.95,-9.0,-0.5,-0.4,3140,2496,,,,,,,,,,,,,,,,,
5846,1469912688201,0,282.0,217.5,48,220.2,,0.25,0.23,0.96,-9.1,-0.9,-0.5,3160,2489,1.274,3,39.538429,-122.335442,48.5,0.011,337.0,8,2,2.4,0,0.0,-1,0.0,0.0,0.0,0
5866,1469912688221,,,,,,,0.25,0.22,0.98,-9.2,-0.4,-0.7,3180,2489,,,,,,,,,,,,,,,,,
5886,1469912688241,,,,,,,0.26,0.25,1.0,-9.2,-0.3,-0.7,3160,2480,,,,,,,,,,,,,,,,,
5906,1469912688261,,,,,,,0.24,0.24,1.01,-9.2,-1.1,-0.7,3140,2496,,,,,,,,,,,,,,,,,
5926,1469912688281,,,,,,,0.26,0.22,0.97,-9.0,-1.1,-0.6,3040,2489,,,,,,,,,,,,,,,,,
5946,1469912688301,,,,56,,,0.27,0.21,0.94,-9.0,-1.3,-0.6,3060,2480,1.27,3,39.538429,-122.335442,48.5,0.013,337.0,8,2,2.4,0,0.0,-1,0.0,,0.0,0
5966,1469912688319,,,,,,,0.25,0.23,0.91,-9.1,-1.3,-0.6,3060,2496,,,,,,,,,,,,,,,,,
5986,1469912688339,,,,,,,0.24,0.23,0.89,-9.2,-1.2,-0.7,3040,2480,,,,,,,,,,,,,,,,,
6006,1469912688359,,,,,,,0.23,0.24,0.91,-9.5,-0.8,-0.7,2980,2464,,,,,,,,,,,,,,,,,
6026,1469912688379,,,,,,,0.24,0.21,0.91,-9.6,-0.3,-0.7,3000,2464,,,,,,,,,,,,,,,,,
6046,1469912688399,0,282.2,217.6,56,220.7,13.7,0.26,0.21,0.88,-9.6,-0.5,-0.6,2880,2456,1.213,3,39.53841,-122.335442,47.95,0.014,337.2,8,2,2.4,0,0.0,-1,0.0,0.0,0.0,0
6066,1469912688420,,,,,,,0.25,0.21,0.87,-9.6,-0.7,-0.5,2840,2449,,,,,,,,,,,,,,,,,
6086,1469912688440,,,,,,,0.24,0.22,0.85,-9.5,-0.7,-0.3,2880,2449,,,,,,,,,,,,,,,,,
6106,1469912688460,,,,,,,0.24,0.22,0.86,-9.4,-0.6,-0.1,2780,2441,,,,,,,,,,,,,,,,,
6126,1469912688480,,,,,,,0.24,0.26,0.9,-9.3,-0.6,-0.2,2700,2426,,,,,,,,,,,,,,,,,
6146,1469912688500,,,,44,,,0.24,0.28,0.92,-9.3,-1.0,-0.4,2700,2441,1.141,3,39.538391,-122.335442,47.19,0.015,337.4,8,2,2.4,0,0.0,-1,0.0,,0.0,0
6166,1469912688520,,,,,,,0.23,0.26,0.89,-9.4,-1.3,-0.5,2620,2433,,,,,,,,,,,,,,,,,
6186,1469912688540,,,,,,,0.23,0.25,0.89,-9.4,-0.9,-0.6,2620,2418,,,,,,,,,,,,,,,,,
6206,1469912688560,,,,,,,0.24,0.32,0.92,-9.4,-0.9,-0.6,2580,2426,,,,,,,,,,,,,,,,,
6226,1469912688580,,,,,,,0.25,0.34,0.92,-9.5,-1.2,-0.4,2540,2387,,,,,,,,,,,,,,,,,
6246,1469912688601,0,281.7,217.2,42,219.6,,0.26,0.29,0.92,-9.5,-1.3,-0.4,2620,2403,1.08,4,39.538357,-122.335426,46.34,0.018,337.8,8,2,2.4,0,0.0,-1,0.0,0.0,0.0,0
6266,1469912688621,,,,,,,0.27,0.36,0.91,-9.6,-1.4,-0.5,2600,2403,,,,,,,,,,,,,,,,,
6286,1469912688641,,,,,,,0.27,0.31,0.9,-9.8,-1.5,-0.4,2460,2395,,,,,,,,,,,,,,,,,
6306,1469912688661,,,,,,,0.27,0.35,0.92,-9.8,-1.2,-0.5,2400,2387,,,,,,,,,,,,,,,,,
6326,1469912688681,,,,,,,0.26,0.37,0.92,-10.2,-1.4,-0.5,2420,2373,,,,,,,,,,,,,,,,,
6346,1469912688701,,,,38,,,0.24,0.36,0.94,-10.2,-1.3,-0.9,2380,2387,1.027,4,39.538338,-122.335426,46.0,0.019,338.0,8,2,2.4,0,0.0,-1,0.0,,0.0,0
6366,1469912688721,,,,,,,0.25,0.32,0.93,-10.4,-1.1,-0.9,2340,2387,,,,,,,,,,,,,,,,,
6386,1469912688741,,,,,,,0.25,0.34,0.91,-10.5,-1.2,-0.9,2340,2358,,,,,,,,,,,,,,,,,
6406,1469912688761,,,,,,,0.26,0.36,0.93,-10.5,-1.4,-0.7,2240,2380,,,,,,,,,,,,,,,,,
6426,1469912688781,,,,,,,0.26,0.3,0.95,-10.6,-1.2,-0.6,2260,2358,,,,,,,,,,,,,,,,,
6446,1469912688901,0,281.1,216.9,35,219.7,,0.26,0.31,0.94,-10.6,-1.2,-0.7,2220,2373,0.986,4,39.5383,-122.335411,45.17,0.022,338.3,8,2,2.4,0,0.0,-1,0.0,0.0,0.0,0
6466,1469912688921,,,,,,,0.29,0.33,0.89,-10.7,-1.3,-0.7,2180,2344,,,,,,,,,,,,,,,,,
6486,1469912688941,,,,,,,0.31,0.28,0.9,-10.9,-0.6,-0.7,2180,2358,,,,,,,,,,,,,,,,,
6506,1469912688961,,,,,,,0.32,0.28,0.91,-11.1,-0.7,-0.8,2080,2344,,,,,,,,,,,,,,,,,
6526,1469912688981,,,,,,,0.32,0.32,0.93,-11.4,-0.6,-0.8,2100,2330,,,,,,,,,,,,,,,,,
6546,1469912689001,,,,30,,,0.34,0.31,0.92,-11.4,-1.2,-0.8,2060,2330,0.927,4,39.5383,-122.335411,45.17,0.022,338.3,8,2,2.4,0,0.0,-1,0.0,,0.0,0
6566,1469912689021,,,,,,,0.33,0.3,0.94,-11.5,-0.7,-0.9,2020,2330,,,,,,,,,,,,,,,,,
6586,1469912689041,,,,,,,0.32,0.32,0.94,-11.7,-0.7,-1.0,2020,2330,,,,,,,,,,,,,,,,,
6606,1469912689061,,,,,,,0.3,0.31,0.93,-11.7,-0.3,-0.9,1960,2303,,,,,,,,,,,,,,,,,
6626,1469912689081,,,,,,,0.29,0.33,0.92,-11.7,0.1,-0.9,1920,2323,,,,,,,,,,,,,,,,,
6646,1469912689101,0,281.7,217.1,30,220.0,,0.31,0.31,0.9,-11.8,0.0,-1.1,1920,2281,0.872,4,39.5383,-122.335411,45.17,0.022,338.3,8,2,2.4,0,0.0,-1,0.0,0.0,0.0,0
6666,1469912689019,,,,,,,0.33,0.29,0.92,-11.8,0.5,-1.5,1880,2255,,,,,,,,,,,,,,,,,
6686,1469912689039,,,,,,,0.34,0.3,0.94,-11.6,0.6,-1.8,1840,2203,,,,,,,,,,,,,,,,,
6706,1469912689059,,,,,,,0.35,0.32,0.97,-11.6,-0.0,-1.8,1840,2309,,,,,,,,,,,,,,,,,
6726,1469912689079,,,,,,,0.36,0.36,0.96,-11.6,-0.8,-1.8,1780,2303,,,,,,,,,,,,,,,,,
6746,1469912689099,,,,26,,,0.35,0.37,0.97,-11.7,-0.8,-1.6,1760,2261,0.833,5,39.538284,-122.335411,44.59,0.023,338.4,8,2,1.5,0,0.0,-1,0.0,,0.0,0
6766,1469912689119,,,,,,,0.33,0.36,0.97,-11.7,-0.8,-1.9,1720,2295,,,,,,,,,,,,,,,,,
6786,1469912689139,,,,,,,0.32,0.35,0.97,-11.6,-0.6,-2.1,1700,2255,,,,,,,,,,,,,,,,,
6806,1469912689159,,,,,,,0.3,0.37,0.95,-11.8,-0.1,-2.3,1700,2261,,,,,,,,,,,,,,,,,
6826,1469912689179,,,,,,,0.31,0.38,0.96,-12.0,0.2,-2.3,1600,2309,,,,,,,,,,,,,,,,,
6846,1469912689199,0,281.1,216.5,18,219.5,,0.32,0.4,0.98,-12.2,0.3,-2.4,1580,2289,0.745,5,39.538273,-122.335403,42.87,0.024,338.8,8,2,1.5,0,0.0,-1,0.0,0.0,0.0,0
6866,1469912689220,,,,,,,0.31,0.42,0.99,-12.4,0.2,-2.3,1540,2289,,,,,,,,,,,,,,,,,
6886,1469912689240,,,,,,,0.3,0.45,1.0,-12.9,0.0,-2.1,1580,2275,,,,,,,,,,,,,,,,,
6906,1469912689260,,,,,,,0.3,0.44,0.99,-13.1,0.5,-2.1,1480,2247,,,,,,,,,,,,,,,,,
6926,1469912689280,,,,,,,0.29,0.4,1.0,-13.1,0.6,-2.0,1500,2241,,,,,,,,,,,,,,,,,
6946,1469912689300,,,,17,,,0.3,0.4,1.02,-13.2,1.2,-2.2,1480,2223,0.693,5,39.538261,-122.335403,41.68,0.025,338.1,8,2,1.5,0,0.0,-1,0.0,,0.0,0
6966,1469912689320,,,,,,,0.3,0.41,1.01,-13.7,1.2,-2.1,1420,2223,,,,,,,,,,,,,,,,,
6986,1469912689340,,,,,,,0.29,0.41,0.98,-14.1,1.8,-2.1,1400,2223,,,,,,,,,,,,,,,,,
7006,1469912689360,,,,,,,0.3,0.44,0.98,-14.5,1.6,-1.9,1360,2215,,,,,,,,,,,,,,,,,
7026,1469912689380,,,,,,,0.29,0.47,1.0,-15.0,1.5,-1.5,1320,2215,,,,,,,,,,,,,,,,,
7046,1469912689400,0,281.7,217.2,15,220.0,13.75,0.29,0.46,1.0,-15.2,1.4,-1.3,1280,2235,0.623,0,39.538242,-122.335388,41.01,0.026,337.8,8,2,1.5,0,0.0,-1,0.0,0.0,0.0,0
7066,1469912689420,,,,,,,0.27,0.5,1.0,-15.6,1.4,-1.2,1260,2247,,,,,,,,,,,,,,,,,
7086,1469912689440,,,,,,,0.26,0.47,1.02,-15.9,0.9,-1.3,1240,2229,,,,,,,,,,,,,,,,,
7106,1469912689460,,,,,,,0.27,0.47,1.01,-16.1,1.3,-1.3,1220,2229,,,,,,,,,,,,,,,,,
7126,1469912689480,,,,,,,0.27,0.46,1.02,-16.4,0.7,-1.1,1180,2209,,,,,,,,,,,,,,,,,
7146,1469912689501,,,,11,,,0.27,0.46,1.02,-16.5,0.5,-0.9,1140,2209,0.556,0,39.538216,-122.335373,39.88,0.029,336.9,8,2,1.5,0,0.0,-1,0.0,,0.0,0
7166,1469912689521,,,,,,,0.26,0.46,1.02,-17.1,-0.0,-0.7,1100,2190,,,,,,,,,,,,,,,,,
7186,1469912689541,,,,,,,0.25,0.5,1.02,-17.8,0.2,-0.5,1060,2178,,,,,,,,,,,,,,,,,
7206,1469912689561,,,,,,,0.22,0.51,1.0,-18.2,0.2,-0.6,1020,2166,,,,,,,,,,,,,,,,,
7226,1469912689581,,,,,,,0.22,0.57,0.99,-18.5,0.2,-0.8,1020,2153,,,,,,,,,,,,,,,,,
7246,1469912689601,0,282.5,217.4,11,220.3,,0.21,0.6,0.99,-19.0,-0.2,-0.8,1000,2196,0.505,0,39.538216,-122.335373,39.88,0.029,336.9,8,2,1.5,0,0.0,-1,0.0,0.0,0.0,0
7266,1469912689719,,,,,,,0.22,0.6,1.02,-19.4,-0.3,-0.8,960,2172,,,,,,,,,,,,,,,,,
7286,1469912689739,,,,,,,0.22,0.6,1.02,-19.6,-0.2,-0.7,940,2166,,,,,,,,,,,,,,,,,
7306,1469912689759,,,,,,,0.25,0.58,1.03,-19.8,-0.6,-0.4,940,2166,,,,,,,,,,,,,,,,,
7326,1469912689779,,,,,,,0.25,0.54,1.05,-19.9,-0.3,0.0,960,2172,,,,,,,,,,,,,,,,,
7346,1469912689799,,,,9,,,0.25,0.52,1.04,-20.2,-0.2,0.3,960,2172,0.443,0,39.538185,-122.335358,39.18,0.031,335.9,8,2,2.0,0,0.0,-1,0.0,,0.0,0
7366,1469912689819,,,,,,,0.24,0.48,1.03,-20.6,0.3,0.3,960,2160,,,,,,,,,,,,,,,,,
7386,1469912689839,,,,,,,0.25,0.49,1.05,-21.1,0.5,0.2,960,2172,,,,,,,,,,,,,,,,,
7406,1469912689859,,,,,,,0.25,0.54,1.07,-21.6,0.5,0.2,960,2172,,,,,,,,,,,,,,,,,
7426,1469912689879,,,,,,,0.23,0.58,1.04,-22.2,0.5,0.3,980,2153,,,,,,,,,,,,,,,,,
7446,1469912689899,0,281.1,216.4,10,219.1,,0.25,0.67,1.03,-22.7,0.2,0.3,980,2160,0.443,0,39.538185,-122.335358,39.18,0.031,335.9,8,2,2.0,0,0.0,-1,0.0,0.0,0.0,0
7466,1469912689819,,,,,,,0.22,0.72,1.04,-23.3,0.3,0.6,1020,2178,,,,,,,,,,,,,,,,,
7486,1469912689839,,,,,,,0.2,0.75,1.06,-23.6,1.0,0.8,1000,2141,,,,,,,,,,,,,,,,,
7506,1469912689859,,,,,,,0.17,0.73,1.06,-23.6,1.0,0.7,1020,2147,,,,,,,,,,,,,,,,,
7526,1469912689879,,,,,,,0.17,0.7,1.08,-23.5,1.4,0.7,1020,2172,,,,,,,,,,,,,,,,,
7546,1469912689899,,,,10,,,0.16,0.68,1.09,-23.4,2.0,0.6,1000,2141,0.472,0,39.538174,-122.335358,38.74,0.032,335.6,8,2,1.8,0,0.0,-1,0.0,,0.0,0
7566,1469912689913,,,,,,,0.17,0.66,1.06,-23.2,2.1,0.4,1020,2147,,,,,,,,,,,,,,,,,
7586,1469912689933,,,,,,,0.19,0.64,1.07,-23.2,2.2,0.3,1040,2166,,,,,,,,,,,,,,,,,
7606,1469912689953,,,,,,,0.19,0.58,1.08,-23.2,1.8,0.0,1020,2141,,,,,,,,,,,,,,,,,
7626,1469912689973,,,,,,,0.21,0.58,1.06,-23.2,1.7,-0.2,1020,2124,,,,,,,,,,,,,,,,,
7646,1469912689993,0,280.6,216.0,11,219.0,,0.21,0.59,1.09,-23.3,1.6,-0.2,1020,2141,0.472,0,39.538158,-122.33535,38.51,0.033,335.3,8,2,1.8,0,0.0,-1,0.0,0.0,0.0,0
7666,1469912690019,,,,,,,0.21,0.6,1.06,-23.3,0.9,-0.4,1000,2130,,,,,,,,,,,,,,,,,
7686,1469912690039,,,,,,,0.19,0.64,1.06,-23.3,0.8,-0.5,1020,2130,,,,,,,,,,,,,,,,,
7706,1469912690059,,,,,,,0.18,0.7,1.05,-23.5,0.5,-0.6,1040,2141,,,,,,,,,,,,,,,,,
7726,1469912690079,,,,,,,0.19,0.73,1.0,-24.0,0.5,-0.8,1060,2124,,,,,,,,,,,,,,,,,
7746,1469912690099,,,,10,,,0.18,0.75,1.02,-24.2,0.6,-0.9,1060,2141,0.478,0,39.538143,-122.335335,38.37,0.034,334.9,8,2,1.8,0,0.0,-1,0.0,,0.0,0
7766,1469912690119,,,,,,,0.18,0.76,1.02,-24.5,0.5,-1.1,1080,2124,,,,,,,,,,,,,,,,,
7786,1469912690139,,,,,,,0.18,0.78,1.01,-24.7,0.5,-1.2,1120,2112,,,,,,,,,,,,,,,,,
7806,1469912690159,,,,,,,0.18,0.77,1.01,-25.0,0.7,-1.2,1120,2141,,,,,,,,,,,,,,,,,
7826,1469912690179,,,,,,,0.16,0.81,0.99,-25.2,1.2,-1.3,1160,2130,,,,,,,,,,,,,,,,,
7846,1469912690199,0,282.0,216.6,13,219.5,,0.16,0.79,0.99,-25.2,0.7,-1.2,1180,2112,0.527,0,39.538132,-122.33532,37.93,0.035,334.7,8,2,1.8,0,0.0,-1,0.0,0.0,0.0,0
7866,1469912690219,,,,,,,0.16,0.81,1.02,-25.2,1.1,-1.1,1220,2135,,,,,,,,,,,,,,,,,
7886,1469912690239,,,,,,,0.15,0.77,1.02,-25.3,1.4,-0.7,1220,2106,,,,,,,,,,,,,,,,,
7906,1469912690259,,,,,,,0.16,0.72,1.01,-25.0,1.4,-0.6,1280,2106,,,,,,,,,,,,,,,,,
7926,1469912690279,,,,,,,0.16,0.72,1.01,-24.9,1.7,-0.7,1300,2118,,,,,,,,,,,,,,,,,
7946,1469912690299,,,,11,,,0.17,0.67,0.99,-24.8,1.3,-0.8,1300,2112,0.576,0,39.53812,-122.335312,37.8,0.036,334.6,8,2,1.8,0,0.0,-1,0.0,,0.0,0
7966,1469912690319,,,,,,,0.17,0.64,1.01,-24.7,1.5,-1.1,1360,2106,,,,,,,,,,,,,,,,,
7986,1469912690339,,,,,,,0.18,0.67,0.99,-24.7,1.1,-1.1,1400,2106,,,,,,,,,,,,,,,,,
8006,1469912690359,,,,,,,0.18,0.65,0.99,-24.8,0.8,-1.2,1420,2106,,,,,,,,,,,,,,,,,
8026,1469912690379,,,,,,,0.14,0.69,0.99,-24.9,0.3,-1.4,1440,2101,,,,,,,,,,,,,,,,,
8046,1469912690399,0,280.3,217.5,19,220.4,13.67,0.13,0.7,0.99,-24.9,0.2,-1.4,1480,2112,0.663,5,39.538105,-122.335297,37.73,0.038,334.4,8,2,1.8,0,0.0,-1,0.0,0.0,0.0,0
8066,1469912690516,,,,,,,0.13,0.66,0.99,-24.8,0.6,-1.4,1540,2101,,,,,,,,,,,,,,,,,
8086,1469912690536,,,,,,,0.15,0.68,0.98,-24.8,0.3,-1.3,1580,2106,,,,,,,,,,,,,,,,,
8106,1469912690556,,,,,,,0.16,0.69,1.01,-24.8,-0.3,-1.2,1620,2101,,,,,,,,,,,,,,,,,
8126,1469912690576,,,,,,,0.15,0.7,0.98,-24.8,-0.5,-1.4,1680,2095,,,,,,,,,,,,,,,,,
8146,1469912690596,,,,26,,,0.14,0.71,0.99,-24.9,-0.4,-1.5,1760,2101,0.75,5,39.538082,-122.335281,37.34,0.039,334.0,8,2,1.8,0,0.0,-1,0.0,,0.0,0
8166,1469912690616,,,,,,,0.14,0.71,1.0,-25.0,-0.2,-1.7,1740,2084,,,,,,,,,,,,,,,,,
8186,1469912690636,,,,,,,0.11,0.74,0.99,-25.1,0.0,-2.0,1820,2095,,,,,,,,,,,,,,,,,
8206,1469912690656,,,,,,,0.11,0.74,0.98,-25.0,0.7,-2.2,1860,2084,,,,,,,,,,,,,,,,,
8226,1469912690676,,,,,,,0.12,0.78,1.0,-24.9,1.3,-2.4,1900,2078,,,,,,,,,,,,,,,,,
8246,1469912690696,0,279.8,217.5,31,220.4,,0.14,0.75,0.99,-24.8,1.3,-2.2,1960,2089,0.869,4,39.538082,-122.335281,37.34,0.039,334.0,8,2,1.8,0,0.0,-1,0.0,0.0,0.0,0
8266,1469912690616,,,,,,,0.16,0.78,0.98,-24.8,1.2,-2.1,2000,2089,,,,,,,,,,,,,,,,,
8286,1469912690636,,,,,,,0.16,0.74,0.97,-24.9,0.9,-2.1,2060,2084,,,,,,,,,,,,,,,,,
8306,1469912690656,,,,,,,0.14,0.75,0.97,-24.9,1.0,-2.2,2120,2089,,,,,,,,,,,,,,,,,
8326,1469912690676,,,,,,,0.16,0.78,0.95,-24.9,1.4,-2.3,2180,2089,,,,,,,,,,,,,,,,,
8346,1469912690696,,,,25,,,0.18,0.72,1.0,-24.9,1.8,-2.2,2160,2078,0.971,4,39.538074,-122.335274,37.32,0.04,333.7,8,2,1.8,0,0.0,-1,0.0,,0.0,0
8366,1469912690716,,,,,,,0.19,0.69,0.97,-24.7,1.8,-2.3,2200,2072,,,,,,,,,,,,,,,,,
8386,1469912690736,,,,,,,0.2,0.69,0.97,-24.6,1.1,-2.2,2140,2078,,,,,,,,,,,,,,,,,
8406,1469912690756,,,,,,,0.21,0.69,0.98,-24.5,0.6,-2.3,2160,2078,,,,,,,,,,,,,,,,,
8426,1469912690776,,,,,,,0.19,0.69,1.0,-24.5,1.1,-2.3,2180,2072,,,,,,,,,,,,,,,,,
8446,1469912690796,0,282.7,216.5,25,219.4,,0.21,0.7,0.98,-24.4,1.9,-2.1,2180,2072,1.039,4,39.538063,-122.335243,37.22,0.042,333.4,8,2,1.8,0,0.0,-1,0.0,0.0,0.0,0
8466,1469912690819,,,,,,,0.25,0.72,1.0,-24.6,2.2,-1.9,2140,2072,,,,,,,,,,,,,,,,,
8486,1469912690839,,,,,,,0.22,0.7,0.99,-24.6,2.5,-1.9,2160,2067,,,,,,,,,,,,,,,,,
8506,1469912690859,,,,,,,0.24,0.71,1.0,-24.5,2.3,-1.9,2240,2061,,,,,,,,,,,,,,,,,
8526,1469912690879,,,,,,,0.24,0.69,1.01,-24.4,2.3,-1.8,2320,2067,,,,,,,,,,,,,,,,,
8546,1469912690899,,,,26,,,0.21,0.7,1.0,-24.4,2.4,-1.8,2320,2067,1.035,4,39.538052,-122.335236,37.07,0.043,333.1,8,2,1.8,0,0.0,-1,0.0,,0.0,0
8566,1469912690913,,,,,,,0.21,0.7,1.0,-24.6,2.0,-1.6,2340,2055,,,,,,,,,,,,,,,,,
8586,1469912690933,,,,,,,0.23,0.69,1.05,-24.6,2.0,-1.7,2440,2067,,,,,,,,,,,,,,,,,
8606,1469912690953,,,,,,,0.23,0.65,1.04,-24.3,1.4,-1.7,2520,2055,,,,,,,,,,,,,,,,,
8626,1469912690973,,,,,,,0.22,0.66,1.04,-24.1,0.9,-1.7,2600,2055,,,,,,,,,,,,,,,,,
8646,1469912690993,0,282.3,216.3,27,219.3,,0.22,0.65,1.05,-24.0,1.2,-1.8,2680,2050,1.171,3,39.53804,-122.33522,36.96,0.044,332.9,8,2,1.8,0,0.0,-1,0.0,0.0,0.0,0
8666,1469912691020,,,,,,,0.22,0.65,1.02,-24.0,0.9,-1.5,2720,2050,,,,,,,,,,,,,,,,,
8686,1469912691040,,,,,,,0.23,0.64,1.02,-23.9,1.1,-1.4,2840,2033,,,,,,,,,,,,,,,,,
8706,1469912691060,,,,,,,0.24,0.64,1.04,-23.6,0.8,-1.4,2880,2029,,,,,,,,,,,,,,,,,
8726,1469912691080,,,,,,,0.24,0.62,1.05,-23.6,0.7,-1.5,2980,2033,,,,,,,,,,,,,,,,,
8746,1469912691100,,,,49,,,0.21,0.64,1.04,-23.8,0.8,-1.5,3000,2029,1.356,3,39.538036,-122.335205,36.53,0.045,332.6,8,2,1.8,0,0.0,-1,0.0,,0.0,0
8766,1469912691119,,,,,,,0.2,0.62,1.07,-23.8,1.0,-1.5,3240,2029,,,,,,,,,,,,,,,,,
8786,1469912691139,,,,,,,0.19,0.62,1.07,-23.9,1.5,-1.4,3240,2044,,,,,,,,,,,,,,,,,
8806,1469912691159,,,,,,,0.18,0.6,1.04,-23.7,2.0,-1.3,3280,2044,,,,,,,,,,,,,,,,,
8826,1469912691179,,,,,,,0.19,0.6,0.99,-23.7,1.6,-1.0,3420,2029,,,,,,,,,,,,,,,,,
8846,1469912691199,0,282.5,216.8,52,219.6,,0.2,0.55,1.0,-23.4,1.5,-0.8,3480,2040,1.554,0,39.538025,-122.335197,36.7,0.046,332.3,8,2,1.8,0,0.0,-1,0.0,0.0,0.0,0
8866,1469912691318,,,,,,,0.18,0.58,0.95,-23.3,1.0,-0.7,3540,2029,,,,,,,,,,,,,,,,,
8886,1469912691338,,,,,,,0.16,0.59,1.01,-23.1,1.5,-0.7,3640,2023,,,,,,,,,,,,,,,,,
8906,1469912691358,,,,,,,0.18,0.55,0.97,-23.0,1.1,-0.6,3700,2029,,,,,,,,,,,,,,,,,
8926,1469912691378,,,,,,,0.2,0.52,0.98,-23.1,0.8,-0.6,3860,2055,,,,,,,,,,,,,,,,,
8946,1469912691398,,,,46,,,0.19,0.53,1.06,-23.0,0.5,-0.7,3940,2072,1.794,2,39.538013,-122.335159,36.25,0.048,331.6,8,2,1.8,0,0.0,-1,0.0,,0.0,0
8966,1469912691418,,,,,,,0.18,0.55,1.08,-23.0,0.4,-0.8,4040,2106,,,,,,,,,,,,,,,,,
8986,1469912691438,,,,,,,0.15,0.57,1.14,-23.0,0.1,-0.5,4000,2147,,,,,,,,,,,,,,,,,
9006,1469912691458,,,,,,,0.13,0.56,1.17,-23.1,-0.1,-0.8,4020,2178,,,,,,,,,,,,,,,,,
9026,1469912691478,,,,,,,0.08,0.59,1.16,-23.4,-0.6,-0.6,4220,2153,,,,,,,,,,,,,,,,,
9046,1469912691498,0,281.0,216.5,45,219.3,13.77,0.05,0.61,1.16,-23.5,-1.1,-0.3,3920,1992,1.906,2,39.538013,-122.335159,36.25,0.048,331.6,8,2,1.8,0,0.0,-1,0.0,0.0,0.0,0
9066,1469912691418,,,,,,,0.01,0.67,1.13,-23.6,-0.4,-0.3,4240,2067,,,,,,,,,,,,,,,,,
9086,1469912691438,,,,,,,-0.02,0.66,1.1,-23.6,-0.1,-0.1,4120,2101,,,,,,,,,,,,,,,,,
9106,1469912691458,,,,,,,0.0,0.63,1.12,-23.3,-0.3,-0.4,4300,2044,,,,,,,,,,,,,,,,,
9126,1469912691478,,,,,,,0.0,0.63,1.13,-23.1,0.2,-0.6,4400,2084,,,,,,,,,,,,,,,,,
9146,1469912691501,,,,58,,,-0.03,0.67,1.13,-23.0,0.7,-0.9,4140,2095,2.045,0,39.538002,-122.335129,36.0,0.05,331.1,8,2,1.8,0,0.0,-1,0.0,,0.0,0
9166,1469912691521,,,,,,,-0.05,0.67,1.1,-22.7,1.7,-1.1,4300,2084,,,,,,,,,,,,,,,,,
9186,1469912691541,,,,,,,-0.03,0.64,1.1,-22.3,2.1,-0.9,4280,2095,,,,,,,,,,,,,,,,,
9206,1469912691561,,,,,,,-0.0,0.61,1.08,-21.9,1.5,-1.2,4220,2106,,,,,,,,,,,,,,,,,
9226,1469912691581,,,,,,,-0.02,0.6,1.05,-21.7,1.5,-1.2,4300,2112,,,,,,,,,,,,,,,,,
9246,1469912691601,0,280.1,217.2,46,220.1,,-0.03,0.64,1.06,-21.9,1.8,-1.4,4520,2112,2.063,0,39.538002,-122.335129,36.0,0.05,331.1,8,2,1.8,0,0.0,-1,0.0,0.0,0.0,0
9266,1469912691604,,,,,,,-0.05,0.59,1.0,-22.0,2.3,-1.1,4200,2130,,,,,,,,,,,,,,,,,
9286,1469912691624,,,,,,,-0.05,0.64,0.99,-21.6,1.5,-1.3,4260,2124,,,,,,,,,,,,,,,,,
9306,1469912691644,,,,,,,-0.07,0.58,1.01,-21.4,2.1,-1.4,4360,2147,,,,,,,,,,,,,,,,,
9326,1469912691664,,,,,,,-0.09,0.57,1.0,-21.0,1.9,-1.4,4540,2135,,,,,,,,,,,,,,,,,
9346,1469912691684,,,,48,,,-0.08,0.56,1.0,-20.4,3.3,-1.6,4480,2153,2.045,0,39.537994,-122.335106,36.09,0.051,330.9,8,2,1.8,0,0.0,-1,0.0,,0.0,0
9366,1469912691710,,,,,,,-0.09,0.54,1.03,-20.0,3.3,-1.4,4320,2166,,,,,,,,,,,,,,,,,
9386,1469912691730,,,,,,,-0.07,0.53,1.0,-19.4,3.9,-1.5,4440,2166,,,,,,,,,,,,,,,,,
9406,1469912691750,,,,,,,-0.07,0.52,0.96,-19.3,2.9,-1.2,4300,2166,,,,,,,,,,,,,,,,,
9426,1469912691770,,,,,,,-0.08,0.54,0.97,-19.0,2.9,-1.4,4340,2196,,,,,,,,,,,,,,,,,
9446,1469912691792,0,281.1,215.7,58,218.8,,-0.09,0.52,0.94,-18.9,3.0,-1.3,4340,2184,2.044,2,39.537987,-122.335068,36.47,0.053,330.2,8,2,1.8,0,0.0,-1,0.0,0.0,0.0,0
9466,1469912691812,,,,,,,-0.1,0.5,0.95,-18.7,2.4,-1.4,4460,2196,,,,,,,,,,,,,,,,,
9486,1469912691832,,,,,,,-0.16,0.51,0.94,-19.0,2.7,-1.4,4140,2190,,,,,,,,,,,,,,,,,
9506,1469912691852,,,,,,,-0.18,0.56,1.0,-19.0,1.9,-1.5,4140,2215,,,,,,,,,,,,,,,,,
9526,1469912691872,,,,,,,-0.2,0.51,1.02,-19.3,2.6,-1.1,4300,2203,,,,,,,,,,,,,,,,,
9546,1469912691892,,,,41,,,-0.23,0.49,0.99,-19.4,2.4,-0.6,4240,2203,1.922,2,39.537987,-122.335068,36.47,0.053,330.2,8,2,1.8,0,0.0,-1,0.0,,0.0,0
9566,1469912691906,,,,,,,-0.25,0.52,0.98,-19.2,3.1,-0.7,4380,2229,,,,,,,,,,,,,,,,,
9586,1469912691926,,,,,,,-0.23,0.53,0.97,-19.0,2.8,-0.4,4240,2223,,,,,,,,,,,,,,,,,
9606,1469912691946,,,,,,,-0.24,0.51,0.94,-18.7,3.9,-0.7,4340,2229,,,,,,,,,,,,,,,,,
9626,1469912691966,,,,,,,-0.25,0.52,0.9,-18.9,4.4,-0.3,4140,2247,,,,,,,,,,,,,,,,,
9646,1469912692092,0,280.8,216.8,64,219.6,,-0.23,0.54,0.92,-18.9,5.3,-0.6,4120,2241,1.923,2,39.537975,-122.335014,38.3,0.056,329.2,8,2,1.8,0,0.0,-1,0.0,0.0,0.0,0
9666,1469912692112,,,,,,,-0.22,0.56,0.91,-19.1,4.1,-0.6,4260,2255,,,,,,,,,,,,,,,,,
9686,1469912692132,,,,,,,-0.22,0.51,0.89,-18.8,3.1,-0.2,4220,2247,,,,,,,,,,,,,,,,,
9706,1469912692152,,,,,,,-0.25,0.48,0.88,-18.4,3.1,-0.4,4440,2235,,,,,,,,,,,,,,,,,
9726,1469912692172,,,,,,,-0.28,0.52,0.9,-18.4,4.0,-0.2,4200,2255,,,,,,,,,,,,,,,,,
9746,1469912692192,,,,42,,,-0.2,0.54,0.97,-18.4,3.9,-0.3,4440,2275,1.946,2,39.537975,-122.335014,38.3,0.056,329.2,8,2,1.8,0,0.0,-1,0.0,,0.0,0
9766,1469912692212,,,,,,,-0.2,0.55,0.98,-18.7,3.6,-0.0,4340,2267,,,,,,,,,,,,,,,,,
9786,1469912692232,,,,,,,-0.22,0.55,0.97,-18.6,3.2,-0.1,4200,2295,,,,,,,,,,,,,,,,,
9806,1469912692252,,,,,,,-0.23,0.57,0.99,-18.2,4.0,-0.7,4300,2289,,,,,,,,,,,,,,,,,
9826,1469912692272,,,,,,,-0.24,0.48,1.0,-17.9,3.0,-0.5,4120,2309,,,,,,,,,,,,,,,,,
9846,1469912692193,1,279.5,216.4,36,220.0,,-0.28,0.45,0.96,-17.2,3.1,-1.0,4440,2295,1.887,2,39.537972,-122.334991,38.91,0.057,328.7,8,2,1.8,0,0.0,-1,0.0,0.0,0.0,0
9866,1469912692213,,,,,,,-0.25,0.43,0.94,-17.0,2.6,-0.8,4420,2303,,,,,,,,,,,,,,,,,
9886,1469912692233,,,,,,,-0.23,0.38,0.94,-16.7,2.1,-1.2,4380,2289,,,,,,,,,,,,,,,,,
9906,1469912692253,,,,,,,-0.24,0.47,0.95,-16.7,2.2,-1.3,4360,2323,,,,,,,,,,,,,,,,,
9926,1469912692273,,,,,,,-0.21,0.48,1.01,-16.6,0.8,-1.6,4220,2323,,,,,,,,,,,,,,,,,
9946,1469912692292,,,,61,,,-0.24,0.48,0.99,-16.4,0.1,-1.5,4380,2309,1.86,2,39.537968,-122.334976,39.33,0.058,328.2,8,2,1.8,0,0.0,-1,0.0,,0.0,0
9966,1469912692312,,,,,,,-0.23,0.51,0.98,-16.2,-1.0,-1.6,4540,2330,,,,,,,,,,,,,,,,,
9986,1469912692332,,,,,,,-0.2,0.45,0.99,-15.8,-0.4,-1.5,4540,2316,,,,,,,,,,,,,,,,,
10006,1469912692352,,,,,,,-0.21,0.48,1.0,-15.5,-0.2,-1.4,4340,2336,,,,,,,,,,,,,,,,,
10026,1469912692372,,,,,,,-0.22,0.48,1.02,-15.4,0.8,-1.5,4460,2330,,,,,,,,,,,,,,,,,
10046,1469912692392,0,281.7,216.5,53,219.2,13.81,-0.22,0.46,0.98,-15.2,0.6,-1.0,4580,2344,1.811,2,39.537968,-122.334976,39.33,0.058,328.2,8,2,1.8,0,0.0,-1,0.0,0.0,0.0,0
10066,1469912692410,,,,,,,-0.18,0.45,0.99,-14.6,1.7,-1.0,4660,2344,,,,,,,,,,,,,,,,,
10086,1469912692430,,,,,,,-0.18,0.37,0.97,-14.3,1.5,-0.4,4360,2358,,,,,,,,,,,,,,,,,
10106,1469912692450,,,,,,,-0.18,0.29,0.96,-13.7,1.4,-0.5,4420,2358,,,,,,,,,,,,,,,,,
10126,1469912692470,,,,,,,-0.18,0.28,0.97,-13.4,1.0,-0.3,4640,2366,,,,,,,,,,,,,,,,,
10146,1469912692490,,,,43,,,-0.21,0.26,0.92,-12.8,-0.1,-0.4,4560,2380,1.908,2,39.537968,-122.334953,39.76,0.059,327.7,8,2,1.8,0,0.0,-1,0.0,,0.0,0
10166,1469912692510,,,,,,,-0.2,0.21,0.94,-12.4,1.2,-0.5,4400,2403,,,,,,,,,,,,,,,,,
10186,1469912692530,,,,,,,-0.19,0.22,0.96,-12.0,1.0,-0.6,4540,2418,,,,,,,,,,,,,,,,,
10206,1469912692550,,,,,,,-0.2,0.15,0.95,-11.6,1.8,-0.5,4500,2395,,,,,,,,,,,,,,,,,
10226,1469912692570,,,,,,,-0.16,0.23,0.95,-11.0,1.7,-0.8,4600,2403,,,,,,,,,,,,,,,,,
10246,1469912692590,0,281.0,216.5,72,219.6,,-0.19,0.13,0.97,-10.7,2.1,-0.6,4360,2418,1.966,2,39.537964,-122.334938,40.15,0.06,327.2,8,2,1.8,0,0.0,-1,0.0,0.0,0.0,0
10266,1469912692610,,,,,,,-0.17,0.13,0.96,-10.4,2.3,-0.6,4620,2410,,,,,,,,,,,,,,,,,
10286,1469912692630,,,,,,,-0.2,0.18,0.95,-10.2,1.9,-0.5,4760,2426,,,,,,,,,,,,,,,,,
10306,1469912692650,,,,,,,-0.2,0.14,0.91,-10.1,1.5,-0.0,4420,2426,,,,,,,,,,,,,,,,,
10326,1469912692670,,,,,,,-0.2,0.15,0.93,-9.6,1.8,-0.3,4440,2456,,,,,,,,,,,,,,,,,
10346,1469912692690,,,,52,,,-0.19,0.2,0.94,-9.7,1.8,-0.4,4620,2441,1.844,2,39.537964,-122.334915,40.78,0.061,326.8,8,2,1.8,0,0.0,-1,0.0,,0.0,0
10366,1469912692710,,,,,,,-0.18,0.22,0.89,-9.6,1.1,-0.8,4740,2441,,,,,,,,,,,,,,,,,
10386,1469912692730,,,,,,,-0.15,0.2,0.96,-9.7,2.3,-0.9,4560,2441,,,,,,,,,,,,,,,,,
10406,1469912692750,,,,,,,-0.17,0.27,0.94,-9.5,1.4,-1.3,4800,2456,,,,,,,,,,,,,,,,,
10426,1469912692770,,,,,,,-0.16,0.23,0.87,-9.5,1.9,-0.9,4720,2449,,,,,,,,,,,,,,,,,
10446,1469912692891,0,280.8,216.0,54,219.7,,-0.16,0.26,0.98,-9.2,2.4,-1.4,4660,2480,1.919,2,39.53796,-122.334846,42.18,0.065,325.5,8,2,1.8,0,0.0,-1,0.0,0.0,0.0,0
10466,1469912692911,,,,,,,-0.12,0.18,0.9,-9.1,2.3,-1.2,4760,2456,,,,,,,,,,,,,,,,,
10486,1469912692931,,,,,,,-0.11,0.15,0.93,-8.8,2.7,-1.1,4700,2489,,,,,,,,,,,,,,,,,
10506,1469912692951,,,,,,,-0.08,0.17,0.95,-8.5,3.0,-1.3,4500,2504,,,,,,,,,,,,,,,,,
10526,1469912692971,,,,,,,-0.11,0.12,0.95,-8.4,2.4,-0.7,4780,2472,,,,,,,,,,,,,,,,,
10546,1469912692991,,,,60,,,-0.12,0.13,0.9,-8.2,2.7,-1.0,4900,2504,1.863,2,39.53796,-122.334846,42.18,0.065,325.5,8,2,1.8,0,0.0,-1,0.0,,0.0,0
10566,1469912693011,,,,,,,-0.1,0.16,0.98,-8.3,3.3,-0.7,4620,2521,,,,,,,,,,,,,,,,,
10586,1469912693031,,,,,,,-0.08,0.19,0.97,-8.2,2.8,-0.8,4820,2496,,,,,,,,,,,,,,,,,
10606,1469912693051,,,,,,,-0.09,0.08,0.95,-8.0,3.5,-0.6,4620,2496,,,,,,,,,,,,,,,,,
10626,1469912693071,,,,,,,-0.08,0.09,0.98,-7.5,3.7,-0.8,4800,2512,,,,,,,,,,,,,,,,,
10646,1469912692991,0,281.8,217.1,43,219.3,,-0.08,0.08,1.0,-7.1,3.1,-0.6,4880,2529,1.928,2,39.537956,-122.334824,42.78,0.066,325.0,8,2,1.8,0,0.0,-1,0.0,0.0,0.0,0
10666,1469912693011,,,,,,,-0.1,0.05,1.03,-7.1,3.3,-0.2,4680,2529,,,,,,,,,,,,,,,,,
10686,1469912693031,,,,,,,-0.11,0.13,0.99,-7.0,3.2,-0.5,4880,2538,,,,,,,,,,,,,,,,,
10706,1469912693051,,,,,,,-0.11,0.15,0.99,-7.0,3.1,-0.2,4760,2521,,,,,,,,,,,,,,,,,
10726,1469912693071,,,,,,,-0.11,0.13,1.03,-6.9,2.9,-0.2,4800,2555,,,,,,,,,,,,,,,,,
10746,1469912693091,,,,59,,,-0.12,0.12,0.98,-6.8,2.7,-0.4,4940,2563,1.875,2,39.537956,-122.334801,43.38,0.068,324.5,8,2,1.8,0,0.0,-1,0.0,,0.0,0
10766,1469912693111,,,,,,,-0.12,0.07,0.94,-6.4,2.3,0.1,4740,2538,,,,,,,,,,,,,,,,,
10786,1469912693131,,,,,,,-0.16,0.1,0.92,-6.2,1.7,-0.1,4940,2555,,,,,,,,,,,,,,,,,
10806,1469912693151,,,,,,,-0.15,0.14,0.95,-6.5,2.7,0.0,4620,2555,,,,,,,,,,,,,,,,,
10826,1469912693171,,,,,,,-0.14,0.24,1.03,-6.6,1.7,0.1,4920,2563,,,,,,,,,,,,,,,,,
10846,1469912693191,0,280.0,216.0,76,219.7,,-0.14,0.16,1.03,-6.4,1.4,0.1,4980,2563,1.896,2,39.537956,-122.334785,43.78,0.068,324.1,8,2,1.8,0,0.0,-1,0.0,0.0,0.0,0
10866,1469912693211,,,,,,,-0.13,0.13,1.02,-6.3,2.3,0.7,4740,2598,,,,,,,,,,,,,,,,,
10886,1469912693231,,,,,,,-0.15,0.26,0.96,-6.2,0.3,0.3,5060,2598,,,,,,,,,,,,,,,,,
10906,1469912693251,,,,,,,-0.18,0.14,0.93,-6.4,1.8,0.4,4640,2589,,,,,,,,,,,,,,,,,
10926,1469912693271,,,,,,,-0.19,0.1,0.92,-6.3,1.1,0.6,4960,2580,,,,,,,,,,,,,,,,,
10946,1469912693291,,,,60,,,-0.2,0.14,0.9,-6.2,1.5,0.3,4900,2580,1.816,2,39.537952,-122.334763,44.21,0.07,323.9,8,2,1.8,0,0.0,-1,0.0,,0.0,0
10966,1469912693311,,,,,,,-0.16,0.16,0.93,-6.4,2.1,0.6,5020,2589,,,,,,,,,,,,,,,,,
10986,1469912693331,,,,,,,-0.16,0.09,1.02,-6.6,1.2,0.8,4840,2580,,,,,,,,,,,,,,,,,
11006,1469912693351,,,,,,,-0.16,0.06,1.02,-6.1,2.3,0.4,4760,2615,,,,,,,,,,,,,,,,,
11026,1469912693371,,,,,,,-0.12,0.13,1.02,-6.1,2.2,0.6,4920,2589,,,,,,,,,,,,,,,,,
11046,1469912693391,0,281.3,216.8,48,219.2,13.85,-0.13,0.19,1.07,-6.1,1.0,-0.0,5000,2606,1.82,2,39.537952,-122.334763,44.21,0.07,323.9,8,2,1.8,0,0.0,-1,0.0,0.0,0.0,0
11066,1469912693410,,,,,,,-0.12,0.06,1.08,-5.9,2.6,-0.3,5040,2606,,,,,,,,,,,,,,,,,
11086,1469912693430,,,,,,,-0.12,0.07,1.01,-5.6,1.9,0.1,4820,2633,,,,,,,,,,,,,,,,,
11106,1469912693450,,,,,,,-0.13,0.17,1.0,-5.5,0.8,-0.2,5020,2624,,,,,,,,,,,,,,,,,
11126,1469912693470,,,,,,,-0.12,0.06,0.94,-5.7,2.0,-0.1,4740,2615,,,,,,,,,,,,,,,,,
11146,1469912693490,,,,48,,,-0.15,0.0,0.89,-5.7,0.8,0.5,5040,2624,1.942,2,39.537952,-122.334732,44.67,0.071,323.5,8,2,1.8,0,0.0,-1,0.0,,0.0,0
11166,1469912693508,,,,,,,-0.18,0.09,0.85,-5.4,0.6,0.1,4980,2615,,,,,,,,,,,,,,,,,
11186,1469912693528,,,,,,,-0.13,0.1,0.91,-6.0,1.4,0.4,5080,2624,,,,,,,,,,,,,,,,,
11206,1469912693548,,,,,,,-0.12,0.01,0.92,-6.0,-0.7,0.5,4860,2633,,,,,,,,,,,,,,,,,
11226,1469912693568,,,,,,,-0.14,0.07,0.92,-5.1,-0.8,-0.1,5060,2598,,,,,,,,,,,,,,,,,
11246,1469912693588,1,281.0,216.5,54,219.2,,-0.11,0.09,1.02,-5.4,1.1,0.0,4820,2615,1.926,2,39.537952,-122.334709,45.13,0.073,323.2,8,2,1.8,0,0.0,-1,0.0,0.0,0.0,0
11266,1469912693707,,,,,,,-0.06,0.14,1.06,-5.8,-0.8,0.4,5000,2643,,,,,,,,,,,,,,,,,
11286,1469912693727,,,,,,,-0.06,0.11,1.04,-5.2,-0.8,0.1,5060,2606,,,,,,,,,,,,,,,,,
11306,1469912693747,,,,,,,-0.05,0.1,1.09,-5.3,0.6,0.4,5140,2633,,,,,,,,,,,,,,,,,
11326,1469912693767,,,,,,,-0.04,0.09,1.12,-5.5,0.1,0.3,4740,2624,,,,,,,,,,,,,,,,,
11346,1469912693787,,,,57,,,-0.04,0.07,1.06,-5.1,0.3,-0.1,5220,2643,1.831,2,39.537949,-122.334656,45.67,0.075,322.4,8,2,1.8,0,0.0,-1,0.0,,0.0,0
11366,1469912693807,,,,,,,-0.03,0.07,1.05,-4.9,0.1,0.2,4760,2643,,,,,,,,,,,,,,,,,
11386,1469912693827,,,,,,,-0.06,0.17,1.07,-5.2,-1.1,0.2,5060,2652,,,,,,,,,,,,,,,,,
11406,1469912693847,,,,,,,-0.05,0.11,0.98,-5.0,0.2,-0.0,5100,2633,,,,,,,,,,,,,,,,,
11426,1469912693867,,,,,,,-0.0,0.13,1.01,-5.1,1.1,0.3,5140,2652,,,,,,,,,,,,,,,,,
11446,1469912693791,1,281.1,216.7,48,219.2,,-0.01,0.19,1.03,-5.3,-1.2,0.3,4940,2615,1.918,2,39.537949,-122.334648,45.98,0.076,322.0,8,2,1.8,0,0.0,-1,0.0,0.0,0.0,0
11466,1469912693811,,,,,,,-0.01,0.08,0.97,-4.7,-0.7,-0.0,5100,2624,,,,,,,,,,,,,,,,,
11486,1469912693831,,,,,,,0.02,0.16,0.98,-4.7,0.7,0.1,4840,2624,,,,,,,,,,,,,,,,,
11506,1469912693851,,,,,,,0.03,0.17,0.99,-5.0,-0.2,0.4,5100,2652,,,,,,,,,,,,,,,,,
11526,1469912693871,,,,,,,0.05,0.12,0.91,-4.5,0.6,0.2,5020,2633,,,,,,,,,,,,,,,,,
11546,1469912693891,,,,70,,,0.08,0.13,0.92,-4.5,1.0,0.5,5100,2652,1.879,2,39.537949,-122.334648,45.98,0.076,322.0,8,2,1.8,0,0.0,-1,0.0,,0.0,0
11566,1469912693905,,,,,,,0.05,0.09,0.99,-4.9,0.3,0.8,5100,2643,,,,,,,,,,,,,,,,,
11586,1469912693925,,,,,,,0.04,0.06,0.91,-4.5,0.8,0.4,4960,2652,,,,,,,,,,,,,,,,,
11606,1469912693945,,,,,,,0.06,0.06,0.97,-4.4,1.5,0.7,4960,2670,,,,,,,,,,,,,,,,,
11626,1469912693965,,,,,,,0.05,0.06,0.94,-4.8,-0.7,0.8,5020,2661,,,,,,,,,,,,,,,,,
11646,1469912693991,0,280.5,216.3,53,219.0,,-0.02,0.09,0.91,-4.5,-0.4,0.5,5040,2661,1.873,2,39.537945,-122.334595,46.42,0.079,321.4,8,2,1.8,0,0.0,-1,0.0,0.0,0.0,0
11666,1469912694011,,,,,,,0.01,0.09,0.95,-4.8,1.4,0.6,5080,2661,,,,,,,,,,,,,,,,,
11686,1469912694031,,,,,,,0.03,0.05,0.93,-4.9,-0.4,1.0,5040,2670,,,,,,,,,,,,,,,,,
11706,1469912694051,,,,,,,-0.01,0.16,0.94,-4.2,-1.0,0.3,4940,2680,,,,,,,,,,,,,,,,,
11726,1469912694071,,,,,,,-0.01,0.07,1.02,-4.4,0.7,0.5,4920,2661,,,,,,,,,,,,,,,,,
11746,1469912694091,,,,57,,,-0.02,0.04,0.99,-4.6,-0.2,0.8,5080,2661,1.879,2,39.537945,-122.334595,46.42,0.079,321.4,8,2,1.8,0,0.0,-1,0.0,,0.0,0
11766,1469912694110,,,,,,,-0.03,0.04,1.04,-3.8,-0.2,0.5,4900,2670,,,,,,,,,,,,,,,,,
11786,1469912694130,,,,,,,0.01,0.08,1.07,-3.9,1.1,0.6,5040,2624,,,,,,,,,,,,,,,,,
11806,1469912694150,,,,,,,0.02,0.02,1.11,-4.2,-0.3,0.6,4960,2670,,,,,,,,,,,,,,,,,
11826,1469912694170,,,,,,,-0.01,0.05,1.09,-3.4,0.0,-0.2,4940,2661,,,,,,,,,,,,,,,,,
11846,1469912694191,0,280.3,216.2,56,218.9,,0.0,0.01,1.12,-3.5,1.9,0.1,5000,2652,1.885,2,39.537945,-122.334541,46.72,0.082,320.9,8,2,1.8,0,0.0,-1,0.0,0.0,0.0,0
11866,1469912694211,,,,,,,0.03,0.05,1.11,-3.5,0.4,0.1,5080,2633,,,,,,,,,,,,,,,,,
11886,1469912694231,,,,,,,-0.01,0.05,1.17,-3.2,0.0,-0.4,4980,2652,,,,,,,,,,,,,,,,,
11906,1469912694251,,,,,,,0.01,0.0,1.15,-3.0,2.3,0.0,5000,2643,,,,,,,,,,,,,,,,,
11926,1469912694271,,,,,,,0.06,0.01,1.17,-3.1,0.2,0.4,5080,2652,,,,,,,,,,,,,,,,,
11946,1469912694291,,,,65,,,0.03,0.06,1.14,-2.7,0.0,-0.2,5000,2652,1.893,2,39.537941,-122.334518,46.77,0.083,320.7,8,2,1.8,0,0.0,-1,0.0,,0.0,0
11966,1469912694311,,,,,,,0.06,-0.02,1.1,-2.5,1.0,-0.2,4920,2633,,,,,,,,,,,,,,,,,
11986,1469912694331,,,,,,,0.06,0.02,1.07,-2.7,-1.0,-0.1,5020,2598,,,,,,,,,,,,,,,,,
12006,1469912694351,,,,,,,0.01,0.02,1.07,-2.6,-1.2,-0.5,4940,2598,,,,,,,,,,,,,,,,,
12026,1469912694371,,,,,,,0.03,-0.04,1.08,-2.4,1.0,-0.4,5020,2615,,,,,,,,,,,,,,,,,
12046,1469912694391,0,280.1,215.6,60,219.5,13.87,0.06,-0.02,1.11,-2.7,-0.7,0.0,4980,2598,1.832,2,39.537941,-122.334518,46.77,0.083,320.7,8,2,1.8,0,0.0,-1,0.0,0.0,0.0,0
12066,1469912694509,,,,,,,0.03,-0.02,1.02,-2.2,-0.6,-0.4,4900,2589,,,,,,,,,,,,,,,,,
12086,1469912694529,,,,,,,0.1,0.04,1.07,-2.4,0.5,-0.4,4940,2615,,,,,,,,,,,,,,,,,
12106,1469912694549,,,,,,,0.1,0.03,1.08,-3.0,-0.6,0.1,5060,2624,,,,,,,,,,,,,,,,,
12126,1469912694569,,,,,,,0.07,-0.0,0.97,-2.2,-0.6,-0.2,5120,2624,,,,,,,,,,,,,,,,,
12146,1469912694589,,,,49,,,0.07,0.04,0.95,-2.3,0.7,0.0,4940,2633,1.85,2,39.537941,-122.334465,46.7,0.086,320.2,8,2,1.8,0,0.0,-1,0.0,,0.0,0
12166,1469912694609,,,,,,,0.09,0.03,1.0,-2.6,-0.6,-0.0,5120,2652,,,,,,,,,,,,,,,,,
12186,1469912694629,,,,,,,0.07,0.07,0.91,-2.3,0.3,-0.6,4960,2661,,,,,,,,,,,,,,,,,
12206,1469912694649,,,,,,,0.09,-0.02,0.93,-2.1,1.7,-0.5,4940,2661,,,,,,,,,,,,,,,,,
12226,1469912694669,,,,,,,0.05,0.03,0.93,-2.5,-0.2,-0.2,5020,2633,,,,,,,,,,,,,,,,,
12246,1469912694689,0,279.6,216.0,64,219.3,,0.01,0.03,0.93,-2.4,1.2,-0.6,5000,2633,1.896,2,39.537941,-122.334465,46.7,0.086,320.2,8,2,1.8,0,0.0,-1,0.0,0.0,0.0,0
12266,1469912694608,,,,,,,0.03,0.02,0.92,-2.4,3.3,-0.5,5120,2670,,,,,,,,,,,,,,,,,
12286,1469912694628,,,,,,,0.04,0.04,0.93,-2.7,0.6,-0.2,5020,2680,,,,,,,,,,,,,,,,,
12306,1469912694648,,,,,,,0.0,0.12,0.92,-2.5,1.4,-0.6,4960,2624,,,,,,,,,,,,,,,,,
12326,1469912694668,,,,,,,0.05,0.02,0.95,-2.7,3.3,-0.1,4920,2652,,,,,,,,,,,,,,,,,
12346,1469912694688,,,,60,,,0.06,0.01,0.94,-2.7,0.9,0.2,4980,2633,1.865,2,39.537941,-122.334442,46.71,0.087,320.0,8,2,1.8,0,0.0,-1,0.0,,0.0,0
12366,1469912694708,,,,,,,0.03,0.02,0.99,-2.5,0.9,0.0,4860,2661,,,,,,,,,,,,,,,,,
12386,1469912694728,,,,,,,0.02,-0.03,1.01,-2.5,2.1,0.3,5040,2606,,,,,,,,,,,,,,,,,
12406,1469912694748,,,,,,,0.01,-0.08,1.02,-2.5,-0.5,0.7,4960,2606,,,,,,,,,,,,,,,,,
12426,1469912694768,,,,,,,-0.05,0.04,1.04,-2.5,-0.8,0.1,4800,2555,,,,,,,,,,,,,,,,,
12446,1469912694788,0,280.1,216.0,41,218.5,,-0.02,-0.02,1.07,-2.4,1.2,0.2,4780,2546,1.912,2,39.537941,-122.334412,46.48,0.088,319.8,8,2,1.8,0,0.0,-1,0.0,0.0,0.0,0
12466,1469912694809,,,,,,,0.01,-0.0,1.07,-2.5,0.1,0.4,4800,2555,,,,,,,,,,,,,,,,,
12486,1469912694829,,,,,,,0.04,0.04,1.01,-2.2,0.5,0.5,4820,2633,,,,,,,,,,,,,,,,,
12506,1469912694849,,,,,,,0.04,0.03,1.04,-2.2,1.3,0.8,4760,2707,,,,,,,,,,,,,,,,,
12526,1469912694869,,,,,,,0.01,0.05,1.02,-2.0,0.9,0.5,4700,2661,,,,,,,,,,,,,,,,,
12546,1469912694889,,,,56,,,0.03,-0.04,1.01,-1.7,2.1,0.7,4700,2624,1.865,2,39.537941,-122.334404,46.32,0.089,319.7,8,2,1.8,0,0.0,-1,0.0,,0.0,0
12566,1469912694902,,,,,,,0.05,-0.03,1.08,-1.5,0.5,0.8,4660,2598,,,,,,,,,,,,,,,,,
12586,1469912694922,,,,,,,0.02,-0.01,1.04,-1.3,1.6,0.7,4640,2615,,,,,,,,,,,,,,,,,
12606,1469912694942,,,,,,,0.04,-0.01,1.07,-1.2,1.2,0.9,4460,2606,,,,,,,,,,,,,,,,,
12626,1469912694962,,,,,,,0.02,-0.07,1.06,-1.1,1.5,1.2,4480,2624,,,,,,,,,,,,,,,,,
12646,1469912694982,0,281.1,215.7,56,218.6,,0.04,0.01,1.04,-1.4,0.1,1.3,4480,2615,1.773,2,39.537937,-122.334373,48.42,0.091,319.2,8,2,1.8,0,0.0,-1,0.0,0.0,0.0,0
12666,1469912695008,,,,,,,-0.01,0.02,1.03,-1.8,1.0,1.5,4320,2624,,,,,,,,,,,,,,,,,
12686,1469912695028,,,,,,,0.03,0.07,1.04,-2.0,1.0,1.3,4400,2633,,,,,,,,,,,,,,,,,
12706,1469912695048,,,,,,,-0.02,0.04,1.1,-2.4,1.6,1.4,4320,2624,,,,,,,,,,,,,,,,,
12726,1469912695068,,,,,,,0.0,0.07,1.05,-2.2,1.3,1.1,4360,2606,,,,,,,,,,,,,,,,,
12746,1469912695088,,,,56,,,0.01,0.04,1.04,-2.2,1.6,1.3,4260,2633,1.662,0,39.537937,-122.334351,48.22,0.092,318.9,8,2,1.8,0,0.0,-1,0.0,,0.0,0
12766,1469912695110,,,,,,,0.01,-0.04,1.06,-1.8,1.8,1.1,4180,2615,,,,,,,,,,,,,,,,,
12786,1469912695130,,,,,,,0.02,-0.03,1.04,-1.9,2.7,1.2,4160,2615,,,,,,,,,,,,,,,,,
12806,1469912695150,,,,,,,0.04,-0.04,0.95,-1.8,2.3,0.8,4100,2615,,,,,,,,,,,,,,,,,
12826,1469912695170,,,,,,,0.06,0.02,0.99,-2.0,1.7,0.9,4120,2633,,,,,,,,,,,,,,,,,
12846,1469912695190,0,280.0,215.7,51,218.2,,0.04,-0.02,1.05,-2.0,1.9,1.1,4060,2615,1.606,0,39.537933,-122.334328,47.85,0.093,318.7,8,2,1.8,0,0.0,-1,0.0,0.0,0.0,0
12866,1469912695307,,,,,,,0.0,-0.09,1.09,-1.8,1.9,1.0,4020,2606,,,,,,,,,,,,,,,,,
12886,1469912695327,,,,,,,-0.02,-0.09,1.13,-2.1,1.9,1.4,3980,2624,,,,,,,,,,,,,,,,,
12906,1469912695347,,,,,,,-0.03,-0.07,1.17,-2.4,2.0,1.3,4020,2606,,,,,,,,,,,,,,,,,
12926,1469912695367,,,,,,,-0.03,-0.1,1.14,-2.4,1.4,1.3,3920,2615,,,,,,,,,,,,,,,,,
12946,1469912695387,,,,71,,,-0.01,-0.11,1.15,-2.4,0.6,1.7,3920,2606,1.543,0,39.537933,-122.334274,49.12,0.096,318.0,8,2,1.8,0,0.0,-1,0.0,,0.0,0
12966,1469912695407,,,,,,,-0.01,-0.08,1.17,-2.5,1.0,1.9,3840,2606,,,,,,,,,,,,,,,,,
12986,1469912695427,,,,,,,-0.03,-0.09,1.18,-2.5,1.2,1.8,3800,2624,,,,,,,,,,,,,,,,,
13006,1469912695447,,,,,,,-0.05,-0.06,1.18,-2.6,1.0,1.9,3760,2606,,,,,,,,,,,,,,,,,
13026,1469912695467,,,,,,,-0.05,-0.07,1.18,-2.6,1.0,2.0,3800,2589,,,,,,,,,,,,,,,,,
13046,1469912695487,0,280.1,215.6,56,218.2,13.73,-0.05,-0.05,1.19,-2.5,1.6,2.1,3700,2606,1.456,0,39.537933,-122.334274,49.12,0.096,318.0,8,2,1.8,0,0.0,-1,0.0,0.0,0.0,0
13066,1469912695404,,,,,,,-0.03,-0.03,1.21,-2.5,1.7,2.0,3660,2606,,,,,,,,,,,,,,,,,
13086,1469912695424,,,,,,,-0.03,-0.04,1.2,-2.5,2.0,1.6,3660,2598,,,,,,,,,,,,,,,,,
13106,1469912695444,,,,,,,0.01,0.01,1.2,-2.7,1.4,1.5,3600,2606,,,,,,,,,,,,,,,,,
13126,1469912695464,,,,,,,0.02,-0.04,1.15,-2.7,1.5,1.6,3620,2615,,,,,,,,,,,,,,,,,
13146,1469912695484,,,,44,,,-0.0,-0.02,1.15,-2.9,1.4,1.8,3480,2606,1.363,3,39.53793,-122.334236,49.34,0.098,317.9,8,2,1.8,0,0.0,-1,0.0,,0.0,0
13166,1469912695503,,,,,,,-0.01,-0.02,1.17,-2.9,1.3,1.8,3520,2589,,,,,,,,,,,,,,,,,
13186,1469912695523,,,,,,,-0.01,0.02,1.11,-3.0,1.1,1.6,3440,2589,,,,,,,,,,,,,,,,,
13206,1469912695543,,,,,,,-0.01,0.06,1.12,-3.1,1.5,1.4,3380,2598,,,,,,,,,,,,,,,,,
13226,1469912695563,,,,,,,-0.01,0.09,1.08,-2.9,1.5,1.0,3340,2615,,,,,,,,,,,,,,,,,
13246,1469912695583,0,280.3,215.3,39,218.5,,0.04,0.08,1.09,-2.9,1.8,1.1,3400,2598,1.32,3,39.53793,-122.334206,49.27,0.1,317.7,8,2,1.8,0,0.0,-1,0.0,0.0,0.0,0
13266,1469912695603,,,,,,,0.06,0.08,1.09,-3.1,2.9,1.1,3280,2580,,,,,,,,,,,,,,,,,
13286,1469912695623,,,,,,,0.06,0.07,1.09,-3.3,2.8,1.2,3220,2589,,,,,,,,,,,,,,,,,
13306,1469912695643,,,,,,,0.08,0.05,1.09,-3.3,2.8,1.3,3200,2580,,,,,,,,,,,,,,,,,
13326,1469912695663,,,,,,,0.07,0.06,1.1,-3.6,2.5,1.3,3140,2572,,,,,,,,,,,,,,,,,
13346,1469912695683,,,,47,,,0.05,0.09,1.11,-3.8,2.4,1.3,3180,2580,1.244,3,39.537926,-122.334183,48.72,0.101,317.7,8,2,1.8,0,0.0,-1,0.0,,0.0,0
13366,1469912695703,,,,,,,0.06,0.06,1.08,-3.8,2.0,1.2,3060,2580,,,,,,,,,,,,,,,,,
13386,1469912695723,,,,,,,0.06,0.04,1.09,-3.5,1.3,1.0,3100,2580,,,,,,,,,,,,,,,,,
13406,1469912695743,,,,,,,0.07,0.06,1.04,-3.4,1.2,0.9,3000,2580,,,,,,,,,,,,,,,,,
13426,1469912695763,,,,,,,0.08,0.03,1.05,-3.2,0.3,1.1,3040,2580,,,,,,,,,,,,,,,,,
13446,1469912695792,0,280.1,215.7,78,218.9,,0.09,0.07,1.04,-3.1,-0.3,0.9,2920,2572,1.178,3,39.537922,-122.334129,49.38,0.104,317.7,8,3,1.8,0,0.0,-1,0.0,0.0,0.0,0
13466,1469912695812,,,,,,,0.08,0.05,1.04,-3.1,-0.5,0.8,2940,2563,,,,,,,,,,,,,,,,,
13486,1469912695832,,,,,,,0.09,0.05,1.04,-3.3,-0.5,0.7,2860,2572,,,,,,,,,,,,,,,,,
13506,1469912695852,,,,,,,0.11,0.03,1.02,-3.3,-0.6,0.6,2840,2580,,,,,,,,,,,,,,,,,
13526,1469912695872,,,,,,,0.1,0.05,1.03,-3.4,-0.4,0.6,2880,2546,,,,,,,,,,,,,,,,,
13546,1469912695892,,,,44,,,0.1,0.08,1.07,-3.6,0.2,0.5,2840,2555,1.151,3,39.537922,-122.334129,49.38,0.104,317.7,8,3,1.8,0,0.0,-1,0.0,,0.0,0
13566,1469912695905,,,,,,,0.1,0.09,1.07,-3.8,0.6,0.4,2820,2563,,,,,,,,,,,,,,,,,
13586,1469912695925,,,,,,,0.1,0.11,1.06,-4.2,0.8,0.4,2800,2546,,,,,,,,,,,,,,,,,
13606,1469912695945,,,,,,,0.09,0.1,1.02,-4.3,0.4,0.5,2660,2555,,,,,,,,,,,,,,,,,
13626,1469912695965,,,,,,,0.1,0.08,1.05,-4.2,0.4,0.5,2720,2563,,,,,,,,,,,,,,,,,
13646,1469912695985,0,279.5,215.0,52,218.2,,0.12,0.13,1.04,-4.2,0.2,0.2,2680,2555,1.06,4,39.537922,-122.334106,49.63,0.105,317.8,8,3,1.8,0,0.0,-1,0.0,0.0,0.0,0
13666,1469912696103,,,,,,,0.12,0.14,1.0,-4.4,0.1,0.3,2660,2538,,,,,,,,,,,,,,,,,
13686,1469912696123,,,,,,,0.12,0.12,1.01,-4.4,-0.0,0.1,2620,2546,,,,,,,,,,,,,,,,,
13706,1469912696143,,,,,,,0.13,0.11,0.98,-4.3,-0.3,-0.0,2500,2546,,,,,,,,,,,,,,,,,
13726,1469912696163,,,,,,,0.13,0.09,0.99,-4.4,-0.4,0.0,2560,2529,,,,,,,,,,,,,,,,,
13746,1469912696183,,,,46,,,0.12,0.09,0.98,-4.4,-0.1,-0.1,2460,2521,0.99,4,39.537922,-122.334068,46.21,0.107,317.5,8,3,1.8,0,0.0,-1,0.0,,0.0,0
13766,1469912696203,,,,,,,0.11,0.07,0.97,-4.5,0.1,0.1,2460,2529,,,,,,,,,,,,,,,,,
13786,1469912696223,,,,,,,0.11,0.09,0.97,-4.5,0.1,0.1,2360,2521,,,,,,,,,,,,,,,,,
13806,1469912696243,,,,,,,0.11,0.09,0.98,-4.8,0.4,0.4,2400,2521,,,,,,,,,,,,,,,,,
13826,1469912696263,,,,,,,0.1,0.15,0.99,-5.0,0.4,0.5,2320,2521,,,,,,,,,,,,,,,,,
13846,1469912696191,0,280.3,216.0,32,218.8,,0.11,0.14,1.0,-5.1,0.8,0.5,2280,2512,0.941,4,39.537918,-122.334045,45.45,0.108,317.7,8,3,1.8,0,0.0,-1,0.0,0.0,0.0,0
13866,1469912696211,,,,,,,0.11,0.13,1.01,-5.3,0.7,0.5,2320,2504,,,,,,,,,,,,,,,,,
13886,1469912696231,,,,,,,0.12,0.14,1.0,-5.5,0.8,0.4,2220,2521,,,,,,,,,,,,,,,,,
13906,1469912696251,,,,,,,0.13,0.17,0.99,-5.6,1.1,0.3,2220,2512,,,,,,,,,,,,,,,,,
13926,1469912696271,,,,,,,0.12,0.17,0.99,-6.1,1.1,0.5,2140,2489,,,,,,,,,,,,,,,,,
13946,1469912696291,,,,34,,,0.13,0.16,0.98,-6.3,0.6,0.6,2160,2504,0.903,4,39.537918,-122.334015,44.95,0.11,317.9,8,3,1.8,0,0.0,-1,0.0,,0.0,0
13966,1469912696311,,,,,,,0.13,0.17,0.99,-6.5,0.4,0.7,2120,2512,,,,,,,,,,,,,,,,,
13986,1469912696331,,,,,,,0.12,0.2,0.97,-6.7,0.4,0.7,2080,2504,,,,,,,,,,,,,,,,,
14006,1469912696351,,,,,,,0.13,0.18,0.92,-6.7,0.3,0.7,2040,2504,,,,,,,,,,,,,,,,,
14026,1469912696371,,,,,,,0.13,0.19,0.93,-6.9,0.5,0.7,2040,2496,,,,,,,,,,,,,,,,,
14046,1469912696391,0,280.3,215.7,29,218.8,13.76,0.16,0.16,0.94,-7.1,0.5,0.6,2000,2480,0.836,5,39.537918,-122.334015,44.95,0.11,317.9,8,3,1.8,0,0.0,-1,0.0,0.0,0.0,0
14066,1469912696404,,,,,,,0.18,0.18,0.96,-7.4,0.0,0.7,1960,2489,,,,,,,,,,,,,,,,,
14086,1469912696424,,,,,,,0.18,0.2,0.98,-7.7,-0.5,0.8,1920,2472,,,,,,,,,,,,,,,,,
14106,1469912696444,,,,,,,0.15,0.17,0.98,-7.8,-0.0,0.9,1900,2480,,,,,,,,,,,,,,,,,
14126,1469912696464,,,,,,,0.16,0.21,0.96,-8.0,0.1,0.7,1860,2472,,,,,,,,,,,,,,,,,
14146,1469912696484,,,,27,,,0.16,0.18,0.95,-8.2,0.5,0.6,1840,2472,0.785,5,39.537914,-122.334007,44.5,0.11,318.0,8,3,1.8,0,0.0,-1,0.0,,0.0,0
14166,1469912696509,,,,,,,0.17,0.22,0.92,-8.2,0.0,0.4,1820,2472,,,,,,,,,,,,,,,,,
14186,1469912696529,,,,,,,0.17,0.2,0.94,-8.4,-0.1,0.3,1800,2472,,,,,,,,,,,,,,,,,
14206,1469912696549,,,,,,,0.15,0.21,0.95,-8.4,-0.3,0.2,1740,2472,,,,,,,,,,,,,,,,,
14226,1469912696569,,,,,,,0.15,0.22,0.95,-8.5,-0.1,0.2,1740,2449,,,,,,,,,,,,,,,,,
14246,1469912696589,0,281.1,216.2,25,219.3,,0.15,0.22,0.93,-8.7,0.1,0.2,1720,2373,0.728,5,39.537914,-122.333977,44.15,0.112,318.2,8,3,1.8,0,0.0,-1,0.0,0.0,0.0,0
14266,1469912696608,,,,,,,0.18,0.27,0.95,-8.8,-0.1,0.1,1660,2410,,,,,,,,,,,,,,,,,
14286,1469912696628,,,,,,,0.21,0.26,0.94,-9.0,-0.3,0.2,1680,2441,,,,,,,,,,,,,,,,,
14306,1469912696648,,,,,,,0.22,0.26,0.96,-9.1,-0.4,0.4,1700,2410,,,,,,,,,,,,,,,,,
14326,1469912696668,,,,,,,0.21,0.29,0.94,-9.4,-0.3,0.6,1680,2410,,,,,,,,,,,,,,,,,
14346,1469912696688,,,,20,,,0.22,0.28,0.93,-9.4,-0.5,0.6,1700,2426,0.684,5,39.53791,-122.333954,43.83,0.113,318.3,8,3,1.8,0,0.0,-1,0.0,,0.0,0
14366,1469912696709,,,,,,,0.21,0.29,0.93,-9.5,-0.5,0.5,1720,2395,,,,,,,,,,,,,,,,,
14386,1469912696729,,,,,,,0.24,0.29,0.92,-10.0,-0.6,0.8,1740,2395,,,,,,,,,,,,,,,,,
14406,1469912696749,,,,,,,0.24,0.31,0.94,-10.2,-1.4,0.9,1740,2380,,,,,,,,,,,,,,,,,
14426,1469912696769,,,,,,,0.22,0.3,0.93,-10.6,-1.4,1.2,1740,2373,,,,,,,,,,,,,,,,,
14446,1469912696891,0,279.8,215.4,21,218.6,,0.23,0.3,0.92,-11.0,-1.2,1.3,1800,2380,0.727,5,39.53791,-122.333893,43.1,0.116,318.6,8,3,1.8,0,0.0,-1,0.0,0.0,0.0,0
14466,1469912696911,,,,,,,0.22,0.31,0.92,-11.3,-0.9,1.4,1760,2366,,,,,,,,,,,,,,,,,
14486,1469912696931,,,,,,,0.24,0.34,0.93,-11.8,-1.3,1.3,1780,2373,,,,,,,,,,,,,,,,,
14506,1469912696951,,,,,,,0.24,0.34,0.96,-12.3,-1.3,1.4,1780,2366,,,,,,,,,,,,,,,,,
14526,1469912696971,,,,,,,0.21,0.36,0.98,-12.8,-0.4,1.4,1800,2358,,,,,,,,,,,,,,,,,
14546,1469912696991,,,,29,,,0.23,0.39,0.97,-13.3,-0.4,1.4,1820,2358,0.75,5,39.53791,-122.333893,43.1,0.116,318.6,8,3,1.8,0,0.0,-1,0.0,,0.0,0
14566,1469912697011,,,,,,,0.22,0.41,0.95,-13.8,0.1,1.3,1840,2366,,,,,,,,,,,,,,,,,
14586,1469912697031,,,,,,,0.24,0.44,0.96,-14.2,0.1,1.2,1880,2352,,,,,,,,,,,,,,,,,
14606,1469912697051,,,,,,,0.22,0.45,0.94,-14.6,-0.3,1.3,1860,2336,,,,,,,,,,,,,,,,,
14626,1469912697071,,,,,,,0.23,0.47,0.97,-15.1,-0.0,1.3,1880,2344,,,,,,,,,,,,,,,,,
14646,1469912697091,0,279.8,215.6,25,218.7,,0.21,0.46,0.95,-15.6,-0.6,1.2,1920,2344,0.795,5,39.53791,-122.333893,43.1,0.116,318.6,8,3,1.8,0,0.0,-1,0.0,0.0,0.0,0
14666,1469912697009,,,,,,,0.21,0.45,0.96,-16.1,0.1,1.0,1920,2336,,,,,,,,,,,,,,,,,
14686,1469912697029,,,,,,,0.21,0.49,0.98,-16.5,-0.1,1.0,1920,2323,,,,,,,,,,,,,,,,,
14706,1469912697049,,,,,,,0.18,0.47,0.98,-16.9,0.7,1.1,1980,2323,,,,,,,,,,,,,,,,,
14726,1469912697069,,,,,,,0.18,0.53,0.97,-17.4,1.2,1.1,1960,2309,,,,,,,,,,,,,,,,,
14746,1469912697089,,,,19,,,0.19,0.55,0.97,-17.7,1.9,1.0,1960,2309,0.828,5,39.53791,-122.333862,42.4,0.118,318.7,8,3,1.8,0,0.0,-1,0.0,,0.0,0
14766,1469912697110,,,,,,,0.2,0.54,0.99,-17.8,2.2,0.8,2020,2309,,,,,,,,,,,,,,,,,
14786,1469912697130,,,,,,,0.19,0.57,1.0,-18.1,2.2,0.8,2000,2295,,,,,,,,,,,,,,,,,
14806,1469912697150,,,,,,,0.22,0.6,0.99,-18.5,2.3,0.7,2020,2303,,,,,,,,,,,,,,,,,
14826,1469912697170,,,,,,,0.22,0.64,0.98,-18.9,2.2,0.8,2060,2289,,,,,,,,,,,,,,,,,
14846,1469912697190,0,280.1,215.6,26,218.7,,0.23,0.65,0.99,-19.2,1.7,0.9,2040,2281,0.871,4,39.53791,-122.333839,41.73,0.119,318.9,8,3,1.8,0,0.0,-1,0.0,0.0,0.0,0
14866,1469912697210,,,,,,,0.23,0.6,1.0,-19.3,1.3,1.0,2060,2275,,,,,,,,,,,,,,,,,
14886,1469912697230,,,,,,,0.23,0.63,1.0,-19.5,1.7,1.0,2120,2281,,,,,,,,,,,,,,,,,
14906,1469912697250,,,,,,,0.23,0.65,0.99,-20.0,1.8,1.2,2080,2261,,,,,,,,,,,,,,,,,
14926,1469912697270,,,,,,,0.23,0.66,0.99,-20.4,1.5,1.3,2120,2255,,,,,,,,,,,,,,,,,
14946,1469912697290,,,,28,,,0.22,0.65,1.0,-20.7,1.0,1.4,2140,2255,0.929,4,39.53791,-122.333824,41.72,0.12,319.3,8,3,1.8,0,0.0,-1,0.0,,0.0,0
14966,1469912697310,,,,,,,0.22,0.63,0.98,-21.2,0.8,1.6,2180,2261,,,,,,,,,,,,,,,,,
14986,1469912697330,,,,,,,0.22,0.68,0.96,-21.5,0.5,1.5,2180,2241,,,,,,,,,,,,,,,,,
15006,1469912697350,,,,,,,0.23,0.7,0.99,-21.9,0.7,1.7,2200,2241,,,,,,,,,,,,,,,,,
15026,1469912697370,,,,,,,0.23,0.71,1.01,-22.5,0.9,1.6,2200,2223,,,,,,,,,,,,,,,,,
15046,1469912697390,0,280.1,215.5,52,218.7,13.77,0.23,0.72,0.99,-22.8,0.7,1.7,2260,2229,0.961,4,39.537914,-122.333801,41.2,0.121,319.5,8,3,1.8,0,0.0,-1,0.0,0.0,0.0,0
15066,1469912697407,,,,,,,0.22,0.77,0.98,-23.4,0.1,1.7,2240,2203,,,,,,,,,,,,,,,,,
15086,1469912697427,,,,,,,0.23,0.8,0.99,-23.9,0.4,1.3,2260,2209,,,,,,,,,,,,,,,,,
15106,1469912697447,,,,,,,0.23,0.81,1.0,-24.3,0.5,1.2,2320,2229,,,,,,,,,,,,,,,,,
15126,1469912697467,,,,,,,0.24,0.82,1.03,-24.8,0.6,1.3,2280,2209,,,,,,,,,,,,,,,,,
15146,1469912697487,,,,39,,,0.23,0.82,1.02,-25.2,0.3,1.4,2320,2196,1.032,4,39.537914,-122.333771,40.87,0.123,319.8,8,3,1.8,0,0.0,-1,0.0,,0.0,0
15166,1469912697509,,,,,,,0.22,0.8,1.07,-25.4,0.6,1.6,2340,2190,,,,,,,,,,,,,,,,,
15186,1469912697529,,,,,,,0.19,0.78,1.07,-25.6,0.7,1.5,2380,2190,,,,,,,,,,,,,,,,,
15206,1469912697549,,,,,,,0.21,0.82,1.06,-25.7,0.2,1.3,2440,2190,,,,,,,,,,,,,,,,,
15226,1469912697569,,,,,,,0.2,0.82,1.07,-25.9,1.7,1.2,2360,2196,,,,,,,,,,,,,,,,,
15246,1469912697589,0,279.5,215.0,37,218.2,,0.2,0.82,1.08,-26.3,1.6,1.4,2420,2172,1.065,4,39.537918,-122.333763,40.31,0.123,319.9,8,3,1.8,0,0.0,-1,0.0,0.0,0.0,0
15266,1469912697708,,,,,,,0.18,0.84,1.06,-26.3,1.7,1.5,2400,2166,,,,,,,,,,,,,,,,,
15286,1469912697728,,,,,,,0.17,0.81,1.06,-26.4,1.5,1.6,2480,2166,,,,,,,,,,,,,,,,,
15306,1469912697748,,,,,,,0.17,0.84,1.03,-26.4,1.7,1.1,2460,2166,,,,,,,,,,,,,,,,,
15326,1469912697768,,,,,,,0.15,0.79,1.03,-26.4,1.3,0.8,2480,2166,,,,,,,,,,,,,,,,,
15346,1469912697788,,,,31,,,0.16,0.83,0.99,-26.4,1.1,0.8,2540,2153,1.105,4,39.537922,-122.333725,39.3,0.125,320.3,8,3,1.8,0,0.0,-1,0.0,,0.0,0
15366,1469912697808,,,,,,,0.17,0.83,0.99,-26.4,0.0,0.7,2460,2141,,,,,,,,,,,,,,,,,
15386,1469912697828,,,,,,,0.17,0.84,1.0,-26.4,-0.8,0.7,2560,2135,,,,,,,,,,,,,,,,,
15406,1469912697848,,,,,,,0.16,0.78,1.02,-26.3,-0.6,1.0,2540,2147,,,,,,,,,,,,,,,,,
15426,1469912697868,,,,,,,0.17,0.79,1.0,-26.3,-0.6,1.2,2540,2130,,,,,,,,,,,,,,,,,
15446,1469912697791,0,279.8,215.6,47,218.7,,0.17,0.82,0.99,-26.6,-0.6,1.1,2620,2130,1.174,3,39.537926,-122.333694,38.87,0.127,320.4,8,3,1.8,0,0.0,-1,0.0,0.0,0.0,0
15466,1469912697811,,,,,,,0.17,0.84,0.99,-26.8,-0.8,1.1,2660,2112,,,,,,,,,,,,,,,,,
15486,1469912697831,,,,,,,0.16,0.83,1.0,-26.9,0.5,0.8,2700,2124,,,,,,,,,,,,,,,,,
15506,1469912697851,,,,,,,0.18,0.86,0.98,-27.1,0.6,0.5,2620,2124,,,,,,,,,,,,,,,,,
15526,1469912697871,,,,,,,0.19,0.86,1.02,-27.2,-0.0,0.5,2760,2101,,,,,,,,,,,,,,,,,
15546,1469912697891,,,,51,,,0.16,0.82,0.99,-27.1,-0.1,0.6,2700,2118,1.237,3,39.537926,-122.333694,38.87,0.127,320.4,8,3,1.8,0,0.0,-1,0.0,,0.0,0
15566,1469912697905,,,,,,,0.13,0.81,1.02,-27.1,0.0,0.6,2800,2118,,,,,,,,,,,,,,,,,
15586,1469912697925,,,,,,,0.14,0.79,1.04,-27.1,0.3,0.9,2900,2106,,,,,,,,,,,,,,,,,
15606,1469912697945,,,,,,,0.14,0.78,1.01,-27.0,0.0,0.8,2820,2101,,,,,,,,,,,,,,,,,
15626,1469912697965,,,,,,,0.14,0.84,1.07,-27.2,0.4,0.7,2980,2106,,,,,,,,,,,,,,,,,
15646,1469912697991,0,279.5,215.0,36,218.2,,0.17,0.83,1.04,-27.2,0.7,0.7,3060,2089,1.316,3,39.537937,-122.333656,37.67,0.129,320.6,8,3,1.8,0,0.0,-1,0.0,0.0,0.0,0
15666,1469912698011,,,,,,,0.14,0.84,1.05,-27.1,0.8,0.4,3060,2089,,,,,,,,,,,,,,,,,
15686,1469912698031,,,,,,,0.14,0.88,1.04,-27.2,1.0,0.4,3080,2106,,,,,,,,,,,,,,,,,
15706,1469912698051,,,,,,,0.13,0.86,1.05,-27.2,1.1,0.4,3100,2089,,,,,,,,,,,,,,,,,
15726,1469912698071,,,,,,,0.13,0.89,1.07,-27.1,2.1,0.2,3200,2072,,,,,,,,,,,,,,,,,
15746,1469912698091,,,,43,,,0.15,0.87,1.06,-27.1,2.1,0.4,3280,2055,1.47,0,39.537941,-122.333649,37.3,0.13,320.6,8,3,1.8,0,0.0,-1,0.0,,0.0,0
15766,1469912698111,,,,,,,0.16,0.82,1.04,-26.8,2.6,0.4,3340,2067,,,,,,,,,,,,,,,,,
15786,1469912698131,,,,,,,0.16,0.83,1.05,-26.8,3.1,0.5,3420,2067,,,,,,,,,,,,,,,,,
15806,1469912698151,,,,,,,0.17,0.84,1.06,-26.6,2.9,0.7,3460,2061,,,,,,,,,,,,,,,,,
15826,1469912698171,,,,,,,0.17,0.85,1.09,-26.4,1.8,0.8,3500,2044,,,,,,,,,,,,,,,,,
15846,1469912698191,0,280.3,216.0,49,219.1,,0.18,0.84,1.06,-26.2,2.1,0.8,3580,2040,1.582,0,39.537949,-122.333618,36.95,0.131,320.8,8,3,1.8,0,0.0,-1,0.0,0.0,0.0,0
15866,1469912698211,,,,,,,0.19,0.85,1.03,-26.0,2.0,0.9,3620,2033,,,,,,,,,,,,,,,,,
15886,1469912698231,,,,,,,0.2,0.84,1.03,-26.0,1.6,0.9,3720,2023,,,,,,,,,,,,,,,,,
15906,1469912698251,,,,,,,0.18,0.86,1.01,-25.9,2.5,1.0,3800,2040,,,,,,,,,,,,,,,,,
15926,1469912698271,,,,,,,0.16,0.83,1.01,-26.0,2.8,0.9,3900,2089,,,,,,,,,,,,,,,,,
15946,1469912698291,,,,39,,,0.16,0.85,0.95,-25.9,2.9,0.6,3940,2124,1.804,2,39.537949,-122.333618,36.95,0.131,320.8,8,3,1.8,0,0.0,-1,0.0,,0.0,0
15966,1469912698310,,,,,,,0.16,0.83,0.94,-25.9,1.9,0.8,4080,2166,,,,,,,,,,,,,,,,,
15986,1469912698330,,,,,,,0.16,0.82,0.91,-25.8,1.4,0.8,4240,2184,,,,,,,,,,,,,,,,,
16006,1469912698350,,,,,,,0.16,0.89,0.83,-25.8,1.6,0.7,4280,2153,,,,,,,,,,,,,,,,,
16026,1469912698370,,,,,,,0.2,0.92,0.8,-26.1,1.3,0.9,4260,2061,,,,,,,,,,,,,,,,,
16046,1469912698491,0,279.8,215.1,65,218.1,13.74,0.19,0.86,0.81,-25.9,1.0,0.5,4400,2033,1.894,2,39.537972,-122.33358,35.98,0.134,321.3,8,3,1.8,0,0.0,-1,0.0,0.0,0.0,0
16066,1469912698511,,,,,,,0.15,0.81,0.84,-26.3,2.0,0.9,4420,2118,,,,,,,,,,,,,,,,,
16086,1469912698531,,,,,,,0.12,0.86,0.87,-26.4,2.0,0.9,4060,2072,,,,,,,,,,,,,,,,,
16106,1469912698551,,,,,,,0.12,0.87,0.88,-26.4,1.5,1.1,4380,2061,,,,,,,,,,,,,,,,,
16126,1469912698571,,,,,,,0.1,0.81,0.89,-26.4,1.2,1.6,4180,2095,,,,,,,,,,,,,,,,,
16146,1469912698591,,,,79,,,0.1,0.8,0.86,-25.9,1.1,1.3,4460,2078,2.072,0,39.537972,-122.33358,35.98,0.134,321.3,8,3,1.8,0,0.0,-1,0.0,,0.0,0
16166,1469912698611,,,,,,,0.09,0.83,0.81,-25.7,1.6,1.1,4220,2095,,,,,,,,,,,,,,,,,
16186,1469912698631,,,,,,,0.13,0.82,0.87,-25.7,1.1,1.0,4460,2078,,,,,,,,,,,,,,,,,
16206,1469912698651,,,,,,,0.11,0.76,0.86,-25.8,1.3,1.3,4280,2078,,,,,,,,,,,,,,,,,
16226,1469912698671,,,,,,,0.08,0.79,0.84,-26.0,0.8,1.6,4240,2089,,,,,,,,,,,,,,,,,
16246,1469912698592,0,280.1,216.0,44,219.3,,0.07,0.76,0.86,-26.0,0.8,1.7,4420,2084,2.05,0,39.537979,-122.333557,36.01,0.135,321.5,8,3,1.8,0,0.0,-1,0.0,0.0,0.0,0
16266,1469912698612,,,,,,,0.04,0.8,0.88,-26.0,0.9,1.8,4520,2095,,,,,,,,,,,,,,,,,
16286,1469912698632,,,,,,,0.05,0.88,0.93,-25.8,1.6,1.4,4380,2095,,,,,,,,,,,,,,,,,
16306,1469912698652,,,,,,,0.04,0.82,0.98,-25.6,1.7,1.6,4280,2084,,,,,,,,,,,,,,,,,
16326,1469912698672,,,,,,,0.06,0.79,1.01,-25.6,2.1,1.6,4380,2101,,,,,,,,,,,,,,,,,
16346,1469912698691,,,,54,,,0.03,0.83,0.99,-25.8,2.6,2.0,4200,2095,2.033,2,39.537987,-122.333542,35.78,0.136,321.7,8,3,1.8,0,0.0,-1,0.0,,0.0,0
16366,1469912698711,,,,,,,0.04,0.85,1.03,-26.1,0.7,1.9,4280,2095,,,,,,,,,,,,,,,,,
16386,1469912698731,,,,,,,-0.01,0.79,1.06,-26.5,1.1,1.9,4340,2101,,,,,,,,,,,,,,,,,
16406,1469912698751,,,,,,,-0.01,0.84,1.01,-26.6,0.4,1.7,4480,2106,,,,,,,,,,,,,,,,,
16426,1469912698771,,,,,,,0.03,0.85,1.04,-26.9,1.6,2.1,4400,2118,,,,,,,,,,,,,,,,,
16446,1469912698791,0,279.6,215.1,50,218.4,,0.01,0.89,1.02,-26.8,1.5,2.1,4120,2124,2.113,0,39.537998,-122.333534,36.07,0.137,321.9,8,3,1.8,0,0.0,-1,0.0,0.0,0.0,0
16466,1469912698811,,,,,,,0.06,0.82,1.03,-26.6,1.3,2.3,4400,2112,,,,,,,,,,,,,,,,,
16486,1469912698831,,,,,,,0.05,0.82,1.06,-26.4,1.5,2.5,4180,2135,,,,,,,,,,,,,,,,,
16506,1469912698851,,,,,,,0.02,0.82,1.01,-26.3,1.3,2.3,4380,2147,,,,,,,,,,,,,,,,,
16526,1469912698871,,,,,,,-0.03,0.81,0.94,-26.6,2.0,2.2,4220,2130,,,,,,,,,,,,,,,,,
16546,1469912698891,,,,51,,,-0.03,0.86,0.96,-26.9,2.2,2.3,4340,2147,2.023,2,39.537998,-122.333534,36.07,0.137,321.9,8,3,1.8,0,0.0,-1,0.0,,0.0,0
16566,1469912698905,,,,,,,-0.0,0.85,1.01,-27.1,2.9,2.1,4340,2153,,,,,,,,,,,,,,,,,
16586,1469912698925,,,,,,,-0.01,0.87,0.99,-27.1,3.1,2.2,4160,2153,,,,,,,,,,,,,,,,,
16606,1469912698945,,,,,,,-0.01,0.82,0.97,-27.0,4.5,2.2,4220,2147,,,,,,,,,,,,,,,,,
16626,1469912698965,,,,,,,-0.06,0.79,0.9,-26.8,4.4,2.5,4120,2130,,,,,,,,,,,,,,,,,
16646,1469912698991,0,279.8,215.5,47,218.4,,-0.04,0.85,0.9,-27.0,4.6,2.6,4040,2124,1.939,2,39.538017,-122.333504,36.51,0.139,322.3,8,3,1.8,0,0.0,-1,0.0,0.0,0.0,0
16666,1469912699011,,,,,,,0.05,0.87,0.89,-27.1,3.9,2.3,4140,2124,,,,,,,,,,,,,,,,,
16686,1469912699031,,,,,,,0.05,0.9,0.8,-27.1,2.7,2.3,4060,2118,,,,,,,,,,,,,,,,,
16706,1469912699051,,,,,,,0.07,0.88,0.77,-27.1,2.2,2.5,4040,2118,,,,,,,,,,,,,,,,,
16726,1469912699071,,,,,,,0.03,0.89,0.82,-27.2,2.0,2.4,4080,2130,,,,,,,,,,,,,,,,,
16746,1469912699091,,,,51,,,-0.02,0.83,0.76,-27.3,1.9,2.5,3980,2130,1.892,2,39.538029,-122.333496,36.6,0.14,322.5,8,3,1.8,0,0.0,-1,0.0,,0.0,0
16766,1469912699111,,,,,,,-0.04,0.82,0.76,-27.4,1.3,2.7,4000,2153,,,,,,,,,,,,,,,,,
16786,1469912699131,,,,,,,-0.09,0.82,0.79,-27.5,1.9,2.5,4140,2153,,,,,,,,,,,,,,,,,
16806,1469912699151,,,,,,,-0.09,0.79,0.84,-27.7,1.6,2.7,3900,2160,,,,,,,,,,,,,,,,,
16826,1469912699171,,,,,,,-0.11,0.73,0.89,-27.5,0.6,2.4,3940,2172,,,,,,,,,,,,,,,,,
16846,1469912699191,0,281.1,216.0,71,219.1,,-0.13,0.78,0.89,-27.7,-0.3,2.2,4160,2166,1.96,2,39.53804,-122.333481,36.77,0.141,322.7,8,3,1.8,0,0.0,-1,0.0,0.0,0.0,0
16866,1469912699310,,,,,,,-0.09,0.83,0.88,-27.8,-1.2,2.1,4000,2153,,,,,,,,,,,,,,,,,
16886,1469912699330,,,,,,,-0.02,0.78,0.88,-27.8,-2.2,1.9,3920,2153,,,,,,,,,,,,,,,,,
16906,1469912699350,,,,,,,-0.03,0.83,0.93,-28.0,-2.7,2.1,4080,2160,,,,,,,,,,,,,,,,,
16926,1469912699370,,,,,,,0.01,0.84,0.88,-28.3,-3.3,2.4,3980,2166,,,,,,,,,,,,,,,,,
16946,1469912699390,,,,61,,,0.04,0.87,0.86,-28.3,-2.9,2.4,4200,2160,1.892,2,39.538052,-122.333466,37.14,0.143,322.9,8,3,1.8,0,0.0,-1,0.0,,0.0,0
16966,1469912699410,,,,,,,0.03,0.88,0.89,-28.4,-2.8,2.7,4080,2166,,,,,,,,,,,,,,,,,
16986,1469912699430,,,,,,,0.03,0.86,0.87,-28.6,-3.6,2.8,4180,2178,,,,,,,,,,,,,,,,,
17006,1469912699450,,,,,,,-0.02,0.88,0.9,-28.7,-3.5,2.5,4200,2178,,,,,,,,,,,,,,,,,
17026,1469912699470,,,,,,,-0.01,0.88,0.87,-29.1,-3.4,2.4,4060,2178,,,,,,,,,,,,,,,,,
17046,1469912699391,0,279.3,214.9,42,217.9,13.74,0.01,0.82,0.83,-28.9,-3.6,2.1,4260,2196,1.972,2,39.538063,-122.333458,37.13,0.143,323.1,8,3,1.8,0,0.0,-1,0.0,0.0,0.0,0
17066,1469912699411,,,,,,,0.02,0.75,0.87,-29.1,-3.1,2.5,4200,2203,,,,,,,,,,,,,,,,,
17086,1469912699431,,,,,,,-0.03,0.76,0.98,-29.6,-2.0,3.1,4100,2190,,,,,,,,,,,,,,,,,
17106,1469912699451,,,,,,,-0.04,0.72,0.97,-29.3,-0.3,3.4,4200,2184,,,,,,,,,,,,,,,,,
17126,1469912699471,,,,,,,-0.0,0.71,0.92,-29.4,2.9,3.3,4040,2184,,,,,,,,,,,,,,,,,
17146,1469912699491,,,,63,,,-0.02,0.75,0.92,-29.3,2.6,3.1,3980,2196,1.879,2,39.538078,-122.333443,37.2,0.145,323.3,8,3,1.8,0,0.0,-1,0.0,,0.0,0
17166,1469912699511,,,,,,,-0.02,0.74,0.89,-29.1,1.5,2.9,4260,2190,,,,,,,,,,,,,,,,,
17186,1469912699531,,,,,,,-0.01,0.8,0.93,-29.1,-0.3,2.9,4100,2184,,,,,,,,,,,,,,,,,
17206,1469912699551,,,,,,,-0.02,0.73,0.93,-28.9,-1.2,2.4,4080,2203,,,,,,,,,,,,,,,,,
17226,1469912699571,,,,,,,-0.0,0.72,0.93,-28.7,-1.6,2.2,4180,2190,,,,,,,,,,,,,,,,,
17246,1469912699591,0,280.6,215.9,50,218.8,,0.01,0.76,0.88,-28.6,-1.9,2.4,4280,2209,1.894,2,39.53809,-122.333443,37.63,0.146,323.6,8,3,1.8,0,0.0,-1,0.0,0.0,0.0,0
17266,1469912699611,,,,,,,0.04,0.84,0.89,-28.2,-1.7,2.1,4320,2209,,,,,,,,,,,,,,,,,
17286,1469912699631,,,,,,,0.06,0.8,0.84,-28.0,-1.7,1.8,4160,2209,,,,,,,,,,,,,,,,,
17306,1469912699651,,,,,,,0.07,0.8,0.83,-27.8,-2.6,1.3,4300,2215,,,,,,,,,,,,,,,,,
17326,1469912699671,,,,,,,0.05,0.78,0.8,-28.0,-3.1,1.0,4240,2203,,,,,,,,,,,,,,,,,
17346,1469912699691,,,,66,,,-0.0,0.83,0.82,-28.1,-3.6,0.5,4140,2215,1.906,2,39.538101,-122.333427,37.82,0.147,323.9,8,3,1.8,0,0.0,-1,0.0,,0.0,0
