"Interval"|"ms"|0|0|1,"Utc"|"ms"|0|0|1,"FuelLevel"|"F"|0|100|5,"OilTemp"|"F"|0.0|300.0|5,"Coolant"|"F"|0.0|300.0|5,"OilPress"|"PSI"|0|150|10,"EngineTemp"|"F"|0.0|300.0|5,"Battery"|"Volts"|0.0|20.0|1,"AccelX"|"G"|-3.0|3.0|50,"AccelY"|"G"|-3.0|3.0|50,"AccelZ"|"G"|-3.0|3.0|50,"Yaw"|"Deg/Sec"|-300.0|300.0|50,"Pitch"|"Deg/Sec"|-300.0|300.0|50,"Roll"|"Deg/Sec"|-300.0|300.0|50,"RPM"|""|0|10000|50,"Driveshaft"|"RPM"|0|5000|50,"GearRatio"|""|-5.0|5.0|10,"Gear"|""|-1|5|10,"Latitude"|"Degrees"|-180.0|180.0|10,"Longitude"|"Degrees"|-180.0|180.0|10,"Speed"|"MPH"|0.0|150.0|10,"Distance"|"Miles"|0.0|0.0|10,"Altitude"|"Feet"|0.0|4000.0|10,"GPSSats"|""|0|20|10,"GPSQual"|""|0|5|10,"GPSDOP"|""|0.0|20.0|10,"LapCount"|""|0|0|10,"LapTime"|"Min"|0.0|0.0|10,"Sector"|""|0|0|10,"SectorTime"|"Min"|0.0|0.0|10,"PredTime"|"Min"|0.0|0.0|5,"ElapsedTime"|"Min"|0.0|0.0|10,"CurrentLap"|""|0|0|10
5066,1469909892864,,,,,,,0.07,0.08,0.95,-3.1,-1.1,-0.3,3200,3178,,,,,,,,,,,,,,,,,
5086,1469909892884,,,,,,,0.08,0.08,0.97,-3.2,-0.4,-0.3,3180,3152,,,,,,,,,,,,,,,,,
5106,1469909892806,,,,,,,0.08,0.11,0.98,-3.5,0.5,-0.4,3140,3152,,,,,,,,,,,,,,,,,
5126,1469909892826,,,,,,,0.09,0.09,0.96,-3.6,1.4,-0.4,3160,3138,,,,,,,,,,,,,,,,,
5146,1469909892846,,,,45,,,0.11,0.09,0.93,-3.4,1.5,-0.5,3160,3126,0.997,4,39.54504,-122.332306,56.58,0.002,313.5,9,2,1.5,0,0.0,-1,0.0,,0.0,0
5166,1469909892866,,,,,,,0.11,0.08,0.89,-3.4,1.1,-0.5,3160,3138,,,,,,,,,,,,,,,,,
5186,1469909892886,,,,,,,0.09,0.06,0.85,-3.3,0.2,-0.6,3140,3178,,,,,,,,,,,,,,,,,
5206,1469909892901,,,,,,,0.06,0.12,0.86,-3.5,-0.1,-0.7,3200,3190,,,,,,,,,,,,,,,,,
5226,1469909892921,,,,,,,0.08,0.13,0.91,-3.8,-0.1,-0.7,3180,3164,,,,,,,,,,,,,,,,,
5246,1469909892941,0,228.9,184.8,66,187.2,,0.09,0.15,0.96,-3.8,-0.4,-0.8,3100,3164,0.994,4,39.54504,-122.332344,56.26,0.004,313.0,9,2,1.5,0,0.0,-1,0.0,0.0,0.0,0
5266,1469909892961,,,,,,,0.09,0.14,0.96,-3.7,0.1,-0.9,3100,3126,,,,,,,,,,,,,,,,,
5286,1469909892981,,,,,,,0.08,0.08,1.0,-3.5,0.8,-0.9,3120,3152,,,,,,,,,,,,,,,,,
5306,1469909893006,,,,,,,0.07,0.07,1.01,-3.4,2.1,-0.9,3060,3126,,,,,,,,,,,,,,,,,
5326,1469909893026,,,,,,,0.08,0.05,1.03,-3.6,2.5,-0.9,3180,3126,,,,,,,,,,,,,,,,,
5346,1469909893046,,,,46,,,0.08,0.06,1.08,-3.8,2.6,-1.0,3160,3126,0.994,4,39.54504,-122.332367,56.06,0.005,312.6,9,2,1.5,0,0.0,-1,0.0,,0.0,0
5366,1469909893066,,,,,,,0.08,0.06,1.09,-4.1,2.1,-0.9,3180,3126,,,,,,,,,,,,,,,,,
5386,1469909893086,,,,,,,0.08,0.1,1.11,-4.3,1.5,-0.7,3160,3126,,,,,,,,,,,,,,,,,
5406,1469909893105,,,,,,,0.09,0.11,1.11,-4.3,1.1,-0.5,3180,3113,,,,,,,,,,,,,,,,,
5426,1469909893125,,,,,,,0.09,0.1,1.08,-4.0,0.2,-0.2,3140,3113,,,,,,,,,,,,,,,,,
5446,1469909893145,0,228.5,184.2,53,186.6,,0.1,0.1,1.03,-3.7,-0.6,0.0,3120,3113,0.971,4,39.54504,-122.332405,55.85,0.007,312.4,9,3,1.5,0,0.0,-1,0.0,0.0,0.0,0
5466,1469909893165,,,,,,,0.12,0.09,1.01,-3.6,-1.2,0.0,3080,3126,,,,,,,,,,,,,,,,,
5486,1469909893185,,,,,,,0.12,0.08,0.98,-3.8,-0.2,0.1,3060,3138,,,,,,,,,,,,,,,,,
5506,1469909893205,,,,,,,0.16,0.05,0.96,-4.0,0.2,0.0,3140,3126,,,,,,,,,,,,,,,,,
5526,1469909893225,,,,,,,0.19,0.11,0.99,-4.2,0.4,0.2,3160,3113,,,,,,,,,,,,,,,,,
5546,1469909893245,,,,58,,,0.17,0.1,0.98,-4.4,1.3,0.2,3100,3126,0.985,4,39.54504,-122.332428,55.64,0.008,312.1,9,3,1.5,0,0.0,-1,0.0,,0.0,0
5566,1469909893265,,,,,,,0.14,0.08,1.0,-4.2,2.2,-0.0,3160,3089,,,,,,,,,,,,,,,,,
5586,1469909893285,,,,,,,0.13,0.08,0.99,-4.1,3.1,-0.1,3100,3089,,,,,,,,,,,,,,,,,
5606,1469909893305,,,,,,,0.13,0.07,0.94,-3.9,2.7,0.1,3080,3089,,,,,,,,,,,,,,,,,
5626,1469909893325,,,,,,,0.1,0.07,0.91,-3.9,2.7,0.1,3060,3076,,,,,,,,,,,,,,,,,
5646,1469909893345,0,228.8,184.6,55,186.9,,0.08,0.06,0.88,-3.6,2.1,-0.0,3120,3101,0.98,4,39.54504,-122.332458,55.39,0.01,311.7,9,3,1.5,0,0.0,-1,0.0,0.0,0.0,0
5666,1469909893365,,,,,,,0.06,0.09,0.87,-3.8,1.9,0.0,3080,3101,,,,,,,,,,,,,,,,,
5686,1469909893385,,,,,,,0.05,0.09,0.88,-4.1,1.2,0.1,3080,3089,,,,,,,,,,,,,,,,,
5706,1469909893503,,,,,,,0.05,0.11,0.92,-4.3,0.8,0.1,3140,3113,,,,,,,,,,,,,,,,,
5726,1469909893523,,,,,,,0.06,0.11,0.96,-4.4,-0.1,-0.1,3000,3089,,,,,,,,,,,,,,,,,
5746,1469909893543,,,,35,,,0.08,0.12,0.99,-4.6,-0.4,-0.1,3040,3089,0.997,4,39.545036,-122.33252,54.96,0.013,311.2,9,3,1.5,0,0.0,-1,0.0,,0.0,0
5766,1469909893563,,,,,,,0.1,0.12,0.99,-4.8,-0.5,-0.1,3040,3089,,,,,,,,,,,,,,,,,
5786,1469909893583,,,,,,,0.13,0.14,1.03,-4.9,-0.7,-0.1,3000,3101,,,,,,,,,,,,,,,,,
5806,1469909893603,,,,,,,0.13,0.14,1.02,-4.9,-0.7,-0.4,3080,3076,,,,,,,,,,,,,,,,,
5826,1469909893623,,,,,,,0.14,0.13,1.04,-4.7,-0.4,-0.6,3120,3076,,,,,,,,,,,,,,,,,
5846,1469909893643,0,228.4,184.2,42,186.7,,0.17,0.13,1.03,-4.5,0.2,-0.4,3000,3076,0.999,4,39.545036,-122.33252,54.96,0.013,311.2,9,3,1.5,0,0.0,-1,0.0,0.0,0.0,0
5866,1469909893663,,,,,,,0.16,0.13,1.03,-4.5,0.3,-0.5,3140,3052,,,,,,,,,,,,,,,,,
5886,1469909893683,,,,,,,0.13,0.1,1.04,-4.3,0.8,-0.4,2980,3052,,,,,,,,,,,,,,,,,
5906,1469909893606,,,,,,,0.1,0.07,1.04,-4.2,1.4,-0.4,3060,3064,,,,,,,,,,,,,,,,,
5926,1469909893626,,,,,,,0.12,0.07,1.03,-4.2,2.1,-0.4,3040,3040,,,,,,,,,,,,,,,,,
5946,1469909893646,,,,56,,,0.11,0.05,1.05,-4.3,2.3,-0.3,2980,3027,0.97,4,39.545036,-122.332542,54.68,0.014,311.0,9,3,1.5,0,0.0,-1,0.0,,0.0,0
5966,1469909893666,,,,,,,0.09,0.02,1.06,-4.3,2.6,-0.2,3020,3027,,,,,,,,,,,,,,,,,
5986,1469909893686,,,,,,,0.08,0.03,1.06,-4.3,2.7,-0.2,3080,3040,,,,,,,,,,,,,,,,,
6006,1469909893706,,,,,,,0.1,0.06,1.08,-4.4,2.3,0.1,3020,3040,,,,,,,,,,,,,,,,,
6026,1469909893726,,,,,,,0.08,0.06,1.1,-4.7,2.0,-0.0,3000,3027,,,,,,,,,,,,,,,,,
6046,1469909893746,0,228.2,184.1,52,186.8,13.9,0.07,0.05,1.11,-4.8,2.2,-0.0,3060,3015,0.986,4,39.545036,-122.332573,54.44,0.016,311.0,9,3,1.5,0,0.0,-1,0.0,0.0,0.0,0
6066,1469909893766,,,,,,,0.07,0.05,1.12,-4.7,1.8,0.1,3080,3027,,,,,,,,,,,,,,,,,
6086,1469909893786,,,,,,,0.08,0.11,1.14,-4.8,1.1,0.2,2980,3027,,,,,,,,,,,,,,,,,
6106,1469909893806,,,,,,,0.08,0.13,1.12,-5.0,0.6,0.2,3060,3015,,,,,,,,,,,,,,,,,
6126,1469909893826,,,,,,,0.06,0.14,1.14,-5.0,0.9,0.0,2940,3015,,,,,,,,,,,,,,,,,
6146,1469909893846,,,,62,,,0.07,0.16,1.16,-4.7,1.3,-0.0,3080,3015,0.97,4,39.545032,-122.332596,54.22,0.017,311.0,9,3,1.5,0,0.0,-1,0.0,,0.0,0
6166,1469909893866,,,,,,,0.08,0.17,1.19,-4.7,1.3,0.2,3020,3027,,,,,,,,,,,,,,,,,
6186,1469909893886,,,,,,,0.09,0.18,1.18,-4.5,0.8,0.1,3000,3027,,,,,,,,,,,,,,,,,
6206,1469909893906,,,,,,,0.06,0.16,1.22,-4.4,1.3,-0.1,3080,3015,,,,,,,,,,,,,,,,,
6226,1469909893920,,,,,,,0.04,0.2,1.21,-4.4,1.7,-0.5,3020,3027,,,,,,,,,,,,,,,,,
6246,1469909893940,0,228.8,184.7,55,187.3,,0.03,0.17,1.2,-4.3,1.5,-0.4,3020,3004,0.998,4,39.545032,-122.332634,53.93,0.019,311.1,9,3,1.5,0,0.0,-1,0.0,0.0,0.0,0
6266,1469909893960,,,,,,,0.04,0.18,1.2,-4.1,1.4,-0.4,3020,3015,,,,,,,,,,,,,,,,,
6286,1469909893980,,,,,,,0.07,0.21,1.19,-4.0,0.9,-0.4,2960,2992,,,,,,,,,,,,,,,,,
6306,1469909894006,,,,,,,0.07,0.23,1.17,-4.0,0.3,-0.4,3060,3004,,,,,,,,,,,,,,,,,
6326,1469909894026,,,,,,,0.06,0.22,1.17,-3.9,-0.3,-0.4,2920,2980,,,,,,,,,,,,,,,,,
6346,1469909894046,,,,65,,,0.06,0.21,1.15,-3.8,-0.1,-0.3,3020,3015,1.013,4,39.545032,-122.332657,53.68,0.02,311.1,9,3,1.5,0,0.0,-1,0.0,,0.0,0
6366,1469909894066,,,,,,,0.07,0.21,1.15,-3.6,-0.7,-0.3,3000,2969,,,,,,,,,,,,,,,,,
6386,1469909894086,,,,,,,0.07,0.23,1.13,-3.5,-1.1,-0.3,3020,2980,,,,,,,,,,,,,,,,,
6406,1469909894106,,,,,,,0.07,0.2,1.13,-3.5,-1.0,-0.0,2960,2969,,,,,,,,,,,,,,,,,
6426,1469909894126,,,,,,,0.08,0.21,1.13,-3.4,-0.8,0.0,3040,2980,,,,,,,,,,,,,,,,,
6446,1469909894146,0,228.7,184.5,82,187.1,,0.09,0.22,1.13,-3.3,-1.5,-0.0,2960,2992,0.989,4,39.545032,-122.332687,53.46,0.022,311.1,9,3,1.5,0,0.0,-1,0.0,0.0,0.0,0
6466,1469909894166,,,,,,,0.06,0.2,1.14,-3.3,-1.1,0.1,2920,2980,,,,,,,,,,,,,,,,,
6486,1469909894186,,,,,,,0.06,0.19,1.19,-3.5,-0.6,0.2,3040,2969,,,,,,,,,,,,,,,,,
6506,1469909894305,,,,,,,0.05,0.2,1.2,-3.5,-0.9,0.2,2980,2992,,,,,,,,,,,,,,,,,
6526,1469909894325,,,,,,,0.02,0.21,1.25,-3.7,-0.8,0.1,2920,2969,,,,,,,,,,,,,,,,,
6546,1469909894345,,,,47,,,0.01,0.2,1.26,-3.8,-0.6,0.1,2960,2980,1.02,4,39.545032,-122.332741,53.08,0.025,311.3,9,3,1.5,0,0.0,-1,0.0,,0.0,0
6566,1469909894365,,,,,,,0.02,0.19,1.26,-3.9,-0.9,0.2,2880,2969,,,,,,,,,,,,,,,,,
6586,1469909894385,,,,,,,-0.0,0.21,1.26,-4.1,-1.5,0.3,2980,2969,,,,,,,,,,,,,,,,,
6606,1469909894405,,,,,,,-0.02,0.2,1.24,-4.3,-2.1,0.4,2880,2969,,,,,,,,,,,,,,,,,
6626,1469909894425,,,,,,,-0.03,0.23,1.25,-4.5,-1.8,0.5,3040,2958,,,,,,,,,,,,,,,,,
6646,1469909894445,0,228.3,184.3,53,186.9,,-0.03,0.22,1.23,-4.8,-1.8,0.5,3020,2946,0.996,4,39.545032,-122.332741,53.08,0.025,311.3,9,3,1.5,0,0.0,-1,0.0,0.0,0.0,0
6666,1469909894465,,,,,,,-0.03,0.2,1.24,-5.0,-1.4,0.6,3040,2958,,,,,,,,,,,,,,,,,
6686,1469909894485,,,,,,,-0.04,0.19,1.25,-5.3,-0.7,0.7,2920,2946,,,,,,,,,,,,,,,,,
6706,1469909894404,,,,,,,-0.03,0.21,1.22,-5.7,-0.6,0.7,2920,2924,,,,,,,,,,,,,,,,,
6726,1469909894424,,,,,,,-0.05,0.18,1.24,-5.9,-0.2,0.7,2880,2924,,,,,,,,,,,,,,,,,
6746,1469909894444,,,,43,,,-0.04,0.14,1.22,-6.1,0.8,0.8,3020,2935,1.024,4,39.545032,-122.332764,52.7,0.026,311.3,9,3,1.5,0,0.0,-1,0.0,,0.0,0
6766,1469909894464,,,,,,,-0.04,0.13,1.19,-6.2,1.3,0.9,2860,2935,,,,,,,,,,,,,,,,,
6786,1469909894484,,,,,,,-0.04,0.1,1.17,-6.2,1.6,0.9,2940,2935,,,,,,,,,,,,,,,,,
6806,1469909894503,,,,,,,-0.03,0.09,1.1,-6.1,1.9,0.8,2940,2946,,,,,,,,,,,,,,,,,
6826,1469909894523,,,,,,,-0.01,0.09,1.07,-6.2,1.9,0.8,2880,2935,,,,,,,,,,,,,,,,,
6846,1469909894543,0,228.5,184.3,51,186.6,,0.0,0.07,1.05,-6.2,1.5,0.8,2860,2946,0.997,4,39.545029,-122.332787,52.48,0.027,311.4,9,3,1.5,0,0.0,-1,0.0,0.0,0.0,0
6866,1469909894563,,,,,,,0.01,0.09,1.05,-6.2,1.5,0.6,3020,2935,,,,,,,,,,,,,,,,,
6886,1469909894583,,,,,,,0.03,0.11,1.04,-6.3,1.2,0.7,2880,2924,,,,,,,,,,,,,,,,,
6906,1469909894602,,,,,,,0.05,0.09,1.06,-6.2,0.8,0.9,2860,2924,,,,,,,,,,,,,,,,,
6926,1469909894622,,,,,,,0.09,0.13,1.05,-6.2,0.6,0.9,2900,2935,,,,,,,,,,,,,,,,,
6946,1469909894642,,,,57,,,0.11,0.14,1.07,-6.3,0.4,0.8,2980,2912,0.961,4,39.545029,-122.332825,52.4,0.029,311.5,9,3,1.5,0,0.0,-1,0.0,,0.0,0
6966,1469909894662,,,,,,,0.12,0.17,1.08,-6.5,-0.0,0.8,2900,2935,,,,,,,,,,,,,,,,,
6986,1469909894682,,,,,,,0.13,0.21,1.06,-6.7,-0.8,0.9,2980,2924,,,,,,,,,,,,,,,,,
7006,1469909894702,,,,,,,0.14,0.21,1.06,-7.0,-1.8,1.2,2840,2935,,,,,,,,,,,,,,,,,
7026,1469909894722,,,,,,,0.11,0.21,1.06,-7.1,-2.0,1.1,2920,2992,,,,,,,,,,,,,,,,,
7046,1469909894742,0,228.5,184.4,42,186.9,13.9,0.09,0.2,1.01,-7.2,-1.5,0.9,2860,2969,0.996,4,39.545029,-122.332855,52.08,0.031,311.7,9,3,1.5,0,0.0,-1,0.0,0.0,0.0,0
7066,1469909894762,,,,,,,0.07,0.21,1.01,-7.3,-0.9,0.8,2740,2935,,,,,,,,,,,,,,,,,
7086,1469909894782,,,,,,,0.08,0.21,1.0,-7.3,-1.1,0.8,2780,2935,,,,,,,,,,,,,,,,,
7106,1469909894806,,,,,,,0.06,0.24,1.0,-7.3,-0.8,0.8,2760,2901,,,,,,,,,,,,,,,,,
7126,1469909894826,,,,,,,0.05,0.27,0.97,-7.5,-0.5,0.8,2700,2869,,,,,,,,,,,,,,,,,
7146,1469909894846,,,,35,,,0.08,0.28,0.94,-7.5,-0.4,0.7,2720,2869,0.96,4,39.545025,-122.332878,51.98,0.032,311.9,9,3,1.5,0,0.0,-1,0.0,,0.0,0
7166,1469909894866,,,,,,,0.09,0.26,0.95,-7.5,0.4,0.8,2660,2958,,,,,,,,,,,,,,,,,
7186,1469909894886,,,,,,,0.08,0.29,0.97,-7.4,0.3,0.6,2580,2912,,,,,,,,,,,,,,,,,
7206,1469909894906,,,,,,,0.09,0.3,0.94,-7.2,-0.4,0.5,2600,2912,,,,,,,,,,,,,,,,,
7226,1469909894920,,,,,,,0.08,0.27,0.96,-7.2,-0.5,0.4,2520,2890,,,,,,,,,,,,,,,,,
7246,1469909894940,0,228.5,184.2,31,186.7,,0.08,0.3,0.97,-7.1,-0.6,0.3,2580,2901,0.896,4,39.545025,-122.332901,51.67,0.033,312.1,9,3,1.5,0,0.0,-1,0.0,0.0,0.0,0
7266,1469909894960,,,,,,,0.06,0.29,0.99,-7.3,-0.5,0.5,2500,2912,,,,,,,,,,,,,,,,,
7286,1469909894980,,,,,,,0.06,0.28,0.97,-7.3,-0.3,0.5,2440,2890,,,,,,,,,,,,,,,,,
7306,1469909895106,,,,,,,0.09,0.29,0.97,-7.4,-0.4,0.7,2480,2827,,,,,,,,,,,,,,,,,
7326,1469909895126,,,,,,,0.08,0.3,0.99,-7.3,-0.3,0.7,2340,2890,,,,,,,,,,,,,,,,,
7346,1469909895146,,,,47,,,0.09,0.33,1.01,-7.5,0.3,0.7,2340,2912,0.855,4,39.545021,-122.332954,51.46,0.036,312.3,9,3,1.5,0,0.0,-1,0.0,,0.0,0
7366,1469909895166,,,,,,,0.09,0.35,1.01,-7.5,0.3,0.5,2380,2958,,,,,,,,,,,,,,,,,
7386,1469909895186,,,,,,,0.08,0.3,1.02,-7.5,0.5,0.5,2240,2935,,,,,,,,,,,,,,,,,
7406,1469909895206,,,,,,,0.08,0.32,1.05,-7.5,0.6,0.6,2280,2901,,,,,,,,,,,,,,,,,
7426,1469909895226,,,,,,,0.06,0.32,1.06,-7.5,0.0,0.7,2240,2912,,,,,,,,,,,,,,,,,
7446,1469909895246,0,228.7,184.6,55,187.0,,0.05,0.3,1.07,-7.4,1.0,0.7,2140,2880,0.802,5,39.545021,-122.332954,51.46,0.036,312.3,9,3,1.5,0,0.0,-1,0.0,0.0,0.0,0
7466,1469909895266,,,,,,,0.05,0.3,1.07,-7.4,0.8,0.6,2120,2869,,,,,,,,,,,,,,,,,
7486,1469909895286,,,,,,,0.06,0.28,1.06,-7.7,0.2,0.7,2100,2858,,,,,,,,,,,,,,,,,
7506,1469909895206,,,,,,,0.05,0.26,1.06,-7.7,-0.2,0.6,2100,2869,,,,,,,,,,,,,,,,,
7526,1469909895226,,,,,,,0.05,0.3,1.03,-7.9,-0.3,0.4,2040,2880,,,,,,,,,,,,,,,,,
7546,1469909895246,,,,34,,,0.06,0.29,1.03,-8.1,-0.3,0.3,2000,2912,0.746,5,39.545017,-122.332977,51.21,0.038,312.4,9,3,1.5,0,0.0,-1,0.0,,0.0,0
7566,1469909895266,,,,,,,0.08,0.32,0.99,-8.2,-0.4,0.4,1980,2901,,,,,,,,,,,,,,,,,
7586,1469909895286,,,,,,,0.09,0.3,1.01,-8.5,-1.0,0.5,1980,2901,,,,,,,,,,,,,,,,,
7606,1469909895306,,,,,,,0.09,0.3,0.96,-8.6,-1.1,0.4,1900,2901,,,,,,,,,,,,,,,,,
7626,1469909895326,,,,,,,0.11,0.31,0.92,-8.8,-1.2,0.3,1900,2880,,,,,,,,,,,,,,,,,
7646,1469909895346,0,229.0,184.9,30,187.3,,0.13,0.28,0.92,-8.9,-1.2,0.2,1860,2880,0.692,5,39.545017,-122.333008,51.0,0.039,312.6,9,3,1.5,0,0.0,-1,0.0,0.0,0.0,0
7666,1469909895366,,,,,,,0.14,0.3,0.92,-9.0,-1.1,0.2,1820,2746,,,,,,,,,,,,,,,,,
7686,1469909895386,,,,,,,0.17,0.31,0.91,-9.2,-1.0,0.1,1800,2838,,,,,,,,,,,,,,,,,
7706,1469909895404,,,,,,,0.17,0.34,0.89,-9.4,-1.1,0.0,1820,2806,,,,,,,,,,,,,,,,,
7726,1469909895424,,,,,,,0.16,0.34,0.91,-9.6,0.0,0.1,1860,2796,,,,,,,,,,,,,,,,,
7746,1469909895444,,,,27,,,0.19,0.33,0.91,-9.6,0.2,0.2,1920,2806,0.653,5,39.545013,-122.333031,51.0,0.04,312.7,9,3,1.5,0,0.0,-1,0.0,,0.0,0
7766,1469909895464,,,,,,,0.21,0.35,0.93,-10.0,0.3,0.4,1980,2786,,,,,,,,,,,,,,,,,
7786,1469909895484,,,,,,,0.23,0.36,0.92,-10.2,-0.1,0.3,2020,2786,,,,,,,,,,,,,,,,,
7806,1469909895507,,,,,,,0.23,0.36,0.95,-10.5,-1.6,0.2,2040,2786,,,,,,,,,,,,,,,,,
7826,1469909895527,,,,,,,0.23,0.36,0.94,-10.6,-1.8,0.2,2100,2756,,,,,,,,,,,,,,,,,
7846,1469909895547,0,229.1,184.1,35,186.4,,0.25,0.35,0.95,-10.9,-2.1,0.3,2160,2766,0.696,5,39.545013,-122.333061,50.71,0.042,312.8,9,3,1.5,0,0.0,-1,0.0,0.0,0.0,0
7866,1469909895567,,,,,,,0.23,0.35,0.97,-11.4,-1.4,0.4,2260,2766,,,,,,,,,,,,,,,,,
7886,1469909895587,,,,,,,0.26,0.37,0.94,-11.8,-0.9,0.1,2340,2756,,,,,,,,,,,,,,,,,
7906,1469909895596,,,,,,,0.26,0.42,0.92,-12.1,-1.3,-0.0,2400,2727,,,,,,,,,,,,,,,,,
7926,1469909895616,,,,,,,0.27,0.44,0.91,-12.5,-1.8,0.0,2620,2716,,,,,,,,,,,,,,,,,
7946,1469909895636,,,,36,,,0.28,0.43,0.92,-12.6,-2.1,0.1,2640,2727,0.817,5,39.545013,-122.333084,50.51,0.043,312.9,9,3,1.5,0,0.0,-1,0.0,,0.0,0
7966,1469909895656,,,,,,,0.31,0.44,0.9,-12.8,-2.3,-0.3,2800,2707,,,,,,,,,,,,,,,,,
7986,1469909895676,,,,,,,0.33,0.47,0.95,-13.1,-2.3,-0.4,2900,2707,,,,,,,,,,,,,,,,,
8006,1469909895697,,,,,,,0.3,0.49,0.92,-13.3,-2.6,-0.6,3040,2661,,,,,,,,,,,,,,,,,
8026,1469909895717,,,,,,,0.31,0.51,0.97,-13.5,-3.4,-0.7,3220,2670,,,,,,,,,,,,,,,,,
8046,1469909895737,0,228.7,184.5,33,187.0,13.92,0.29,0.54,0.95,-13.8,-3.8,-0.7,3360,2707,1.038,4,39.54501,-122.333107,50.2,0.045,313.0,9,3,1.5,0,0.0,-1,0.0,0.0,0.0,0
8066,1469909895757,,,,,,,0.31,0.57,0.99,-14.1,-3.5,-0.8,3580,2786,,,,,,,,,,,,,,,,,
8086,1469909895777,,,,,,,0.29,0.52,0.99,-14.3,-4.8,-0.5,3660,2806,,,,,,,,,,,,,,,,,
8106,1469909895898,,,,,,,0.28,0.56,1.0,-14.6,-3.8,-0.4,3720,2880,,,,,,,,,,,,,,,,,
8126,1469909895918,,,,,,,0.23,0.48,0.95,-14.7,-2.4,-0.4,3760,2924,,,,,,,,,,,,,,,,,
8146,1469909895938,,,,78,,,0.19,0.42,0.9,-14.8,-2.1,-0.4,3760,2935,1.254,3,39.545002,-122.33316,48.89,0.047,313.2,9,3,1.5,0,0.0,-1,0.0,,0.0,0
8166,1469909895958,,,,,,,0.16,0.45,0.94,-14.9,-1.1,-0.3,3680,2869,,,,,,,,,,,,,,,,,
8186,1469909895978,,,,,,,0.13,0.48,0.97,-15.4,1.5,-0.1,3600,2796,,,,,,,,,,,,,,,,,
8206,1469909895998,,,,,,,0.06,0.48,0.96,-15.5,3.8,0.3,3540,2766,,,,,,,,,,,,,,,,,
8226,1469909896018,,,,,,,0.08,0.46,1.0,-15.8,4.8,0.0,3480,2746,,,,,,,,,,,,,,,,,
8246,1469909896038,0,228.7,184.4,78,186.7,,0.07,0.46,1.01,-15.7,5.3,-0.1,3460,2786,1.282,3,39.545002,-122.33316,48.89,0.047,313.2,9,3,1.5,0,0.0,-1,0.0,0.0,0.0,0
8266,1469909896058,,,,,,,0.09,0.51,0.95,-15.7,5.0,-0.1,3520,2796,,,,,,,,,,,,,,,,,
8286,1469909896078,,,,,,,0.05,0.53,0.99,-15.8,4.6,0.3,3600,2796,,,,,,,,,,,,,,,,,
8306,1469909895999,,,,,,,0.02,0.52,1.02,-15.9,4.3,0.5,3640,2806,,,,,,,,,,,,,,,,,
8326,1469909896019,,,,,,,-0.04,0.51,0.97,-15.9,5.1,0.4,3560,2806,,,,,,,,,,,,,,,,,
8346,1469909896039,,,,71,,,-0.01,0.52,0.96,-15.6,4.5,0.4,3580,2786,1.277,3,39.544998,-122.333183,48.59,0.049,313.2,9,3,1.5,0,0.0,-1,0.0,,0.0,0
8366,1469909896059,,,,,,,-0.02,0.56,1.03,-15.4,4.8,0.0,3560,2786,,,,,,,,,,,,,,,,,
8386,1469909896079,,,,,,,-0.03,0.59,0.99,-15.5,3.8,-0.3,3540,2796,,,,,,,,,,,,,,,,,
8406,1469909896098,,,,,,,-0.04,0.58,1.05,-15.5,2.8,-0.7,3580,2796,,,,,,,,,,,,,,,,,
8426,1469909896118,,,,,,,-0.08,0.59,1.05,-15.6,2.8,-0.8,3580,2806,,,,,,,,,,,,,,,,,
8446,1469909896138,1,228.8,184.0,32,186.5,,-0.05,0.6,1.09,-15.4,2.6,-1.2,3600,2806,1.286,3,39.544994,-122.333214,48.7,0.05,313.4,9,3,1.5,0,0.0,-1,0.0,0.0,0.0,0
8466,1469909896158,,,,,,,-0.07,0.57,1.1,-15.4,2.6,-1.2,3580,2786,,,,,,,,,,,,,,,,,
8486,1469909896178,,,,,,,-0.08,0.57,1.08,-15.2,2.1,-1.1,3600,2816,,,,,,,,,,,,,,,,,
8506,1469909896199,,,,,,,-0.09,0.58,1.1,-15.2,3.4,-1.0,3500,2816,,,,,,,,,,,,,,,,,
8526,1469909896219,,,,,,,-0.06,0.56,1.09,-15.2,4.9,-0.8,3600,2838,,,,,,,,,,,,,,,,,
8546,1469909896239,,,,53,,,-0.01,0.64,1.14,-15.3,5.1,-0.9,3660,2847,1.245,3,39.544991,-122.333237,48.68,0.052,313.5,9,3,1.5,0,0.0,-1,0.0,,0.0,0
8566,1469909896259,,,,,,,0.0,0.62,1.13,-15.1,4.9,-1.0,3560,2847,,,,,,,,,,,,,,,,,
8586,1469909896279,,,,,,,0.04,0.64,1.07,-14.7,2.8,-0.7,3600,2838,,,,,,,,,,,,,,,,,
8606,1469909896298,,,,,,,-0.01,0.64,1.12,-14.7,2.8,-0.3,3600,2827,,,,,,,,,,,,,,,,,
8626,1469909896318,,,,,,,-0.06,0.6,1.12,-14.6,3.3,-0.3,3560,2827,,,,,,,,,,,,,,,,,
8646,1469909896338,0,228.1,184.8,33,187.7,,-0.09,0.55,1.15,-14.5,3.9,-0.3,3560,2827,1.278,3,39.544983,-122.33326,48.8,0.053,313.6,9,3,1.5,0,0.0,-1,0.0,0.0,0.0,0
8666,1469909896358,,,,,,,-0.12,0.53,1.19,-14.5,5.5,-0.5,3600,2827,,,,,,,,,,,,,,,,,
8686,1469909896378,,,,,,,-0.09,0.5,1.14,-14.1,5.6,-0.7,3620,2827,,,,,,,,,,,,,,,,,
8706,1469909896397,,,,,,,-0.07,0.48,1.17,-14.0,6.0,-0.8,3580,2838,,,,,,,,,,,,,,,,,
8726,1469909896417,,,,,,,-0.04,0.4,1.11,-13.6,6.0,-0.5,3540,2847,,,,,,,,,,,,,,,,,
8746,1469909896437,,,,37,,,-0.05,0.38,1.05,-13.3,4.3,-0.7,3580,2880,1.276,3,39.544979,-122.33329,48.5,0.055,313.8,9,3,1.5,0,0.0,-1,0.0,,0.0,0
8766,1469909896457,,,,,,,-0.07,0.39,1.09,-13.2,3.7,-1.2,3640,2890,,,,,,,,,,,,,,,,,
8786,1469909896477,,,,,,,-0.08,0.43,1.07,-13.0,2.8,-1.2,3720,2880,,,,,,,,,,,,,,,,,
8806,1469909896496,,,,,,,-0.1,0.45,1.02,-13.2,1.7,-1.0,3560,2869,,,,,,,,,,,,,,,,,
8826,1469909896516,,,,,,,-0.08,0.39,1.04,-13.1,1.5,-0.6,3680,2869,,,,,,,,,,,,,,,,,
8846,1469909896536,0,228.5,184.6,44,187.0,,-0.1,0.34,1.01,-12.9,1.5,-0.0,3640,2869,1.257,3,39.544971,-122.333313,48.76,0.056,314.0,9,3,1.5,0,0.0,-1,0.0,0.0,0.0,0
8866,1469909896556,,,,,,,-0.13,0.37,1.01,-12.9,2.0,0.4,3580,2858,,,,,,,,,,,,,,,,,
8886,1469909896576,,,,,,,-0.14,0.37,1.04,-13.2,3.2,0.8,3700,2858,,,,,,,,,,,,,,,,,
8906,1469909896695,,,,,,,-0.17,0.34,1.01,-13.5,3.6,1.3,3580,2880,,,,,,,,,,,,,,,,,
8926,1469909896715,,,,,,,-0.14,0.38,1.06,-13.6,3.3,1.0,3680,2890,,,,,,,,,,,,,,,,,
8946,1469909896735,,,,45,,,-0.13,0.37,1.04,-13.6,3.1,0.5,3740,2901,1.262,3,39.54496,-122.333366,49.46,0.059,314.5,9,3,1.5,0,0.0,-1,0.0,,0.0,0
8966,1469909896755,,,,,,,-0.11,0.42,0.97,-13.6,2.3,0.2,3680,2912,,,,,,,,,,,,,,,,,
8986,1469909896775,,,,,,,-0.08,0.46,0.93,-13.9,1.6,0.4,3660,2912,,,,,,,,,,,,,,,,,
9006,1469909896795,,,,,,,-0.1,0.44,0.96,-14.1,1.0,0.3,3660,2924,,,,,,,,,,,,,,,,,
9026,1469909896815,,,,,,,-0.13,0.45,0.9,-14.1,-0.7,-0.1,3680,2901,,,,,,,,,,,,,,,,,
9046,1469909896835,0,228.7,184.3,85,186.8,13.89,-0.16,0.47,0.96,-14.2,-2.0,-0.1,3700,2901,1.292,3,39.54496,-122.333366,49.46,0.059,314.5,9,3,1.5,0,0.0,-1,0.0,0.0,0.0,0
9066,1469909896855,,,,,,,-0.22,0.46,1.02,-14.3,-1.4,-0.1,3700,2901,,,,,,,,,,,,,,,,,
9086,1469909896875,,,,,,,-0.3,0.46,1.04,-14.4,0.7,-0.1,3740,2890,,,,,,,,,,,,,,,,,
9106,1469909896798,,,,,,,-0.33,0.42,1.04,-14.5,2.5,0.2,3760,2912,,,,,,,,,,,,,,,,,
9126,1469909896818,,,,,,,-0.31,0.45,1.07,-14.5,3.5,0.7,3680,2901,,,,,,,,,,,,,,,,,
9146,1469909896838,,,,68,,,-0.27,0.42,1.1,-14.8,4.8,1.2,3780,2901,1.252,3,39.544952,-122.333374,49.6,0.059,314.7,9,3,1.5,0,0.0,-1,0.0,,0.0,0
9166,1469909896858,,,,,,,-0.19,0.43,1.03,-14.8,4.5,1.4,3640,2912,,,,,,,,,,,,,,,,,
9186,1469909896878,,,,,,,-0.1,0.49,1.02,-14.8,3.3,1.6,3760,2924,,,,,,,,,,,,,,,,,
9206,1469909896898,,,,,,,-0.11,0.52,1.06,-14.9,2.5,1.6,3800,2935,,,,,,,,,,,,,,,,,
9226,1469909896909,,,,,,,-0.14,0.53,1.08,-15.0,2.8,2.1,3720,2935,,,,,,,,,,,,,,,,,
9246,1469909896929,0,228.7,184.3,65,186.7,,-0.18,0.54,1.09,-15.2,3.0,2.4,3740,2958,1.276,3,39.544945,-122.333405,50.07,0.061,314.9,9,3,1.5,0,0.0,-1,0.0,0.0,0.0,0
9266,1469909896949,,,,,,,-0.18,0.52,1.08,-15.2,3.1,2.4,3800,2958,,,,,,,,,,,,,,,,,
9286,1469909896969,,,,,,,-0.16,0.54,1.13,-15.1,4.1,2.3,3680,2969,,,,,,,,,,,,,,,,,
9306,1469909896998,,,,,,,-0.13,0.52,1.15,-15.0,4.8,2.7,3720,2969,,,,,,,,,,,,,,,,,
9326,1469909897018,,,,,,,-0.1,0.55,1.12,-14.7,3.8,2.8,3780,2980,,,,,,,,,,,,,,,,,
9346,1469909897038,,,,50,,,-0.02,0.61,1.04,-14.7,1.6,2.5,3820,2980,1.264,3,39.544937,-122.333427,50.29,0.063,315.1,9,3,1.5,0,0.0,-1,0.0,,0.0,0
9366,1469909897058,,,,,,,0.04,0.62,1.06,-14.8,-0.1,2.4,3860,2980,,,,,,,,,,,,,,,,,
9386,1469909897078,,,,,,,0.02,0.65,1.15,-15.0,-1.3,2.3,3760,2980,,,,,,,,,,,,,,,,,
9406,1469909897099,,,,,,,-0.0,0.65,1.09,-14.9,-1.8,2.1,3760,2980,,,,,,,,,,,,,,,,,
9426,1469909897119,,,,,,,-0.02,0.64,1.06,-14.8,-3.7,2.1,3760,3015,,,,,,,,,,,,,,,,,
9446,1469909897139,0,228.7,184.2,63,186.7,,0.01,0.67,0.97,-14.9,-6.4,2.3,3760,3015,1.26,3,39.54493,-122.333458,50.74,0.064,315.4,9,3,1.5,0,0.0,-1,0.0,0.0,0.0,0
9466,1469909897159,,,,,,,-0.01,0.65,0.98,-15.1,-6.5,2.3,3840,3015,,,,,,,,,,,,,,,,,
9486,1469909897179,,,,,,,0.02,0.62,1.03,-15.1,-6.7,2.0,3820,3027,,,,,,,,,,,,,,,,,
9506,1469909897198,,,,,,,-0.03,0.56,1.07,-14.9,-7.3,1.9,3840,3027,,,,,,,,,,,,,,,,,
9526,1469909897218,,,,,,,-0.09,0.57,1.09,-14.6,-9.2,2.0,3840,3015,,,,,,,,,,,,,,,,,
9546,1469909897238,,,,48,,,-0.09,0.55,0.98,-14.6,-11.1,2.2,3840,3040,1.275,3,39.544922,-122.333481,50.96,0.066,315.6,9,3,1.5,0,0.0,-1,0.0,,0.0,0
9566,1469909897258,,,,,,,-0.09,0.54,0.95,-14.5,-13.0,2.3,3840,3027,,,,,,,,,,,,,,,,,
9586,1469909897278,,,,,,,-0.21,0.51,1.0,-14.7,-13.1,2.3,3920,3040,,,,,,,,,,,,,,,,,
9606,1469909897298,,,,,,,-0.33,0.46,1.03,-15.1,-11.6,1.9,3880,3040,,,,,,,,,,,,,,,,,
9626,1469909897318,,,,,,,-0.36,0.47,0.99,-15.0,-11.0,1.2,3840,3040,,,,,,,,,,,,,,,,,
9646,1469909897338,0,228.8,184.1,72,186.9,,-0.38,0.5,0.99,-14.7,-10.7,0.8,3900,3052,1.283,3,39.544914,-122.333504,51.22,0.067,315.9,9,3,1.5,0,0.0,-1,0.0,0.0,0.0,0
9666,1469909897358,,,,,,,-0.34,0.57,0.89,-14.6,-9.8,0.6,3920,3052,,,,,,,,,,,,,,,,,
9686,1469909897378,,,,,,,-0.31,0.58,0.9,-14.7,-8.3,0.6,3880,3064,,,,,,,,,,,,,,,,,
9706,1469909897495,,,,,,,-0.22,0.56,0.87,-14.5,-8.6,0.0,3820,3052,,,,,,,,,,,,,,,,,
9726,1469909897515,,,,,,,-0.17,0.63,0.93,-14.4,-7.6,-0.2,3880,3064,,,,,,,,,,,,,,,,,
9746,1469909897535,,,,49,,,-0.11,0.63,0.95,-14.5,-5.4,-0.3,3800,3064,1.283,3,39.544891,-122.333542,52.06,0.07,316.6,9,3,1.5,0,0.0,-1,0.0,,0.0,0
9766,1469909897555,,,,,,,-0.09,0.63,1.04,-14.2,-3.6,-0.8,3920,3064,,,,,,,,,,,,,,,,,
9786,1469909897575,,,,,,,-0.05,0.66,1.07,-14.0,-3.5,-1.2,3940,3076,,,,,,,,,,,,,,,,,
9806,1469909897595,,,,,,,-0.02,0.66,1.06,-13.8,-3.1,-0.7,3920,3064,,,,,,,,,,,,,,,,,
9826,1469909897615,,,,,,,0.06,0.7,1.01,-13.5,-3.4,-0.7,3880,3064,,,,,,,,,,,,,,,,,
9846,1469909897635,0,228.7,184.4,57,187.0,,0.11,0.68,0.96,-13.5,-3.3,-0.3,3940,3052,1.234,3,39.544891,-122.333542,52.06,0.07,316.6,9,3,1.5,0,0.0,-1,0.0,0.0,0.0,0
9866,1469909897655,,,,,,,0.16,0.73,0.92,-13.3,-4.3,-0.1,3940,3052,,,,,,,,,,,,,,,,,
9886,1469909897675,,,,,,,0.21,0.72,0.78,-13.1,-3.7,-0.0,3860,3064,,,,,,,,,,,,,,,,,
9906,1469909897595,,,,,,,0.29,0.72,0.88,-12.9,-1.9,-0.1,3880,3064,,,,,,,,,,,,,,,,,
9926,1469909897615,,,,,,,0.27,0.69,0.95,-13.1,0.1,0.2,3920,3064,,,,,,,,,,,,,,,,,
9946,1469909897635,,,,67,,,0.25,0.66,1.05,-13.3,0.9,0.6,3860,3076,1.25,3,39.54488,-122.333572,52.53,0.071,317.0,9,3,1.5,0,0.0,-1,0.0,,0.0,0
9966,1469909897655,,,,,,,0.18,0.64,1.14,-13.0,2.8,0.6,3960,3076,,,,,,,,,,,,,,,,,
9986,1469909897675,,,,,,,0.13,0.64,1.21,-13.0,4.6,0.2,3920,3089,,,,,,,,,,,,,,,,,
10006,1469909897695,,,,,,,0.03,0.56,1.28,-13.3,8.2,-0.0,4000,3113,,,,,,,,,,,,,,,,,
10026,1469909897715,,,,,,,-0.02,0.54,1.31,-13.0,8.1,-0.5,3980,3126,,,,,,,,,,,,,,,,,
10046,1469909897735,0,228.7,184.1,60,186.6,13.89,-0.11,0.59,1.35,-12.8,8.1,-0.5,4000,3138,1.24,3,39.544872,-122.333595,52.75,0.073,317.4,9,3,1.5,0,0.0,-1,0.0,0.0,0.0,0
10066,1469909897755,,,,,,,-0.16,0.56,1.41,-12.7,8.5,0.0,3980,3138,,,,,,,,,,,,,,,,,
10086,1469909897775,,,,,,,-0.24,0.52,1.37,-12.6,9.8,-0.0,3920,3164,,,,,,,,,,,,,,,,,
10106,1469909897798,,,,,,,-0.23,0.57,1.33,-12.2,8.7,0.0,3960,3126,,,,,,,,,,,,,,,,,
10126,1469909897818,,,,,,,-0.23,0.59,1.36,-12.0,8.3,0.1,3920,3138,,,,,,,,,,,,,,,,,
10146,1469909897838,,,,71,,,-0.21,0.62,1.3,-11.9,9.1,-0.1,3920,3138,1.277,3,39.544857,-122.333618,53.01,0.074,317.8,9,3,1.5,0,0.0,-1,0.0,,0.0,0
10166,1469909897858,,,,,,,-0.22,0.63,1.33,-11.8,11.0,-0.4,4020,3138,,,,,,,,,,,,,,,,,
10186,1469909897878,,,,,,,-0.18,0.63,1.34,-11.7,11.6,-0.5,3980,3126,,,,,,,,,,,,,,,,,
10206,1469909897892,,,,,,,-0.11,0.64,1.26,-11.6,12.7,-0.4,3920,3126,,,,,,,,,,,,,,,,,
10226,1469909897912,,,,,,,-0.11,0.64,1.23,-11.6,14.5,-0.4,4100,3126,,,,,,,,,,,,,,,,,
10246,1469909897932,0,228.6,184.4,61,187.6,,-0.15,0.61,1.11,-11.6,15.5,-0.4,4160,3164,1.225,3,39.544846,-122.333649,53.41,0.076,318.3,9,3,1.5,0,0.0,-1,0.0,0.0,0.0,0
10266,1469909897952,,,,,,,-0.14,0.54,1.07,-11.8,16.5,-0.6,4020,3190,,,,,,,,,,,,,,,,,
10286,1469909897972,,,,,,,-0.14,0.51,1.07,-12.0,15.3,-0.8,4020,3164,,,,,,,,,,,,,,,,,
10306,1469909897998,,,,,,,-0.21,0.49,1.05,-12.1,13.4,-0.3,4020,3178,,,,,,,,,,,,,,,,,
10326,1469909898018,,,,,,,-0.26,0.49,0.95,-11.9,10.2,-0.6,4080,3190,,,,,,,,,,,,,,,,,
10346,1469909898038,,,,68,,,-0.25,0.47,1.01,-11.8,8.7,-0.7,3980,3178,1.277,3,39.544834,-122.333672,53.86,0.078,318.8,9,3,1.5,0,0.0,-1,0.0,,0.0,0
10366,1469909898058,,,,,,,-0.25,0.48,1.05,-11.7,7.0,-0.5,3940,3152,,,,,,,,,,,,,,,,,
10386,1469909898078,,,,,,,-0.22,0.44,1.03,-11.5,4.8,-0.8,3920,3152,,,,,,,,,,,,,,,,,
10406,1469909898098,,,,,,,-0.2,0.46,1.12,-11.5,3.9,-1.0,4080,3113,,,,,,,,,,,,,,,,,
10426,1469909898118,,,,,,,-0.2,0.44,1.14,-11.4,4.2,-0.9,4020,3076,,,,,,,,,,,,,,,,,
10446,1469909898138,0,228.7,184.5,41,187.3,,-0.19,0.51,1.09,-11.3,4.2,-1.2,3840,3004,1.267,3,39.544823,-122.333687,54.15,0.079,319.3,9,3,1.5,0,0.0,-1,0.0,0.0,0.0,0
10466,1469909898158,,,,,,,-0.12,0.53,1.13,-11.3,4.4,-1.3,3840,3027,,,,,,,,,,,,,,,,,
10486,1469909898178,,,,,,,-0.06,0.52,1.12,-11.4,4.6,-1.4,3720,2980,,,,,,,,,,,,,,,,,
10506,1469909898293,,,,,,,-0.01,0.53,1.09,-11.2,4.4,-1.2,3740,3015,,,,,,,,,,,,,,,,,
10526,1469909898313,,,,,,,0.03,0.53,1.14,-11.1,3.5,-1.0,3720,3138,,,,,,,,,,,,,,,,,
10546,1469909898333,,,,50,,,0.05,0.52,1.11,-11.0,2.9,-0.9,3780,3138,1.287,3,39.544792,-122.333733,54.8,0.082,320.3,9,3,1.5,0,0.0,-1,0.0,,0.0,0
10566,1469909898353,,,,,,,0.05,0.52,1.12,-11.0,3.1,-1.0,3720,3138,,,,,,,,,,,,,,,,,
10586,1469909898373,,,,,,,0.03,0.53,1.06,-11.0,3.2,-1.2,3700,3101,,,,,,,,,,,,,,,,,
10606,1469909898393,,,,,,,0.06,0.52,1.06,-10.9,2.6,-1.0,3600,3076,,,,,,,,,,,,,,,,,
10626,1469909898413,,,,,,,0.08,0.48,1.07,-10.7,2.6,-0.8,3540,3064,,,,,,,,,,,,,,,,,
10646,1469909898433,0,228.4,184.0,40,187.3,,0.12,0.5,1.07,-10.8,2.5,-0.8,3560,3052,1.205,3,39.544792,-122.333733,54.8,0.082,320.3,9,3,1.5,0,0.0,-1,0.0,0.0,0.0,0
10666,1469909898453,,,,,,,0.09,0.49,1.04,-10.8,2.7,-0.4,3500,3052,,,,,,,,,,,,,,,,,
10686,1469909898473,,,,,,,0.12,0.46,0.99,-10.8,2.2,-0.1,3520,3052,,,,,,,,,,,,,,,,,
10706,1469909898396,,,,,,,0.13,0.45,1.0,-10.6,2.7,0.2,3440,3178,,,,,,,,,,,,,,,,,
10726,1469909898416,,,,,,,0.16,0.46,1.0,-10.5,2.4,-0.1,3320,3343,,,,,,,,,,,,,,,,,
10746,1469909898436,,,,65,,,0.1,0.46,1.01,-10.3,2.5,-0.3,3360,2969,1.147,3,39.544781,-122.333763,54.44,0.084,320.7,9,3,1.5,0,0.0,-1,0.0,,0.0,0
10766,1469909898456,,,,,,,0.11,0.46,0.99,-10.4,2.3,-0.5,3340,2935,,,,,,,,,,,,,,,,,
10786,1469909898476,,,,,,,0.13,0.46,0.98,-10.3,2.8,-0.4,3320,2935,,,,,,,,,,,,,,,,,
10806,1469909898495,,,,,,,0.11,0.5,0.99,-10.4,2.9,-0.6,3220,3164,,,,,,,,,,,,,,,,,
10826,1469909898515,,,,,,,0.08,0.46,0.97,-10.5,3.6,-0.5,3260,3126,,,,,,,,,,,,,,,,,
10846,1469909898535,0,228.9,184.6,56,187.4,,0.11,0.44,0.95,-10.4,3.7,-0.3,3200,3126,1.147,3,39.544769,-122.333771,54.32,0.085,321.1,9,3,1.5,0,0.0,-1,0.0,0.0,0.0,0
10866,1469909898555,,,,,,,0.11,0.44,0.96,-10.3,3.3,-0.1,3140,3052,,,,,,,,,,,,,,,,,
10886,1469909898575,,,,,,,0.11,0.42,0.93,-10.3,3.0,-0.1,3040,3052,,,,,,,,,,,,,,,,,
10906,1469909898595,,,,,,,0.08,0.4,0.9,-10.4,3.1,-0.1,3020,3052,,,,,,,,,,,,,,,,,
10926,1469909898615,,,,,,,0.08,0.37,0.89,-10.3,2.9,-0.2,3080,3027,,,,,,,,,,,,,,,,,
10946,1469909898635,,,,51,,,0.09,0.39,0.89,-10.3,3.3,-0.4,3040,3015,1.008,4,39.544754,-122.333801,54.24,0.087,321.5,9,3,1.5,0,0.0,-1,0.0,,0.0,0
10966,1469909898655,,,,,,,0.08,0.4,0.88,-10.3,3.2,-0.5,2940,3052,,,,,,,,,,,,,,,,,
10986,1469909898675,,,,,,,0.07,0.43,0.91,-10.4,4.1,-0.5,2900,3064,,,,,,,,,,,,,,,,,
11006,1469909898695,,,,,,,0.08,0.41,0.86,-10.5,3.6,-0.5,2880,3064,,,,,,,,,,,,,,,,,
11026,1469909898715,,,,,,,0.09,0.42,0.83,-10.4,3.5,-0.4,2880,3027,,,,,,,,,,,,,,,,,
11046,1469909898735,0,228.4,184.5,54,187.3,13.92,0.07,0.38,0.83,-10.2,3.0,-0.2,2840,3027,0.975,4,39.544739,-122.333824,54.1,0.088,321.8,9,3,1.5,0,0.0,-1,0.0,0.0,0.0,0
11066,1469909898755,,,,,,,0.05,0.36,0.82,-9.7,2.6,-0.1,2880,2912,,,,,,,,,,,,,,,,,
11086,1469909898775,,,,,,,0.07,0.37,0.88,-9.6,2.3,-0.1,2900,2992,,,,,,,,,,,,,,,,,
11106,1469909898798,,,,,,,0.1,0.42,0.89,-9.5,1.6,-0.2,3040,3089,,,,,,,,,,,,,,,,,
11126,1469909898818,,,,,,,0.08,0.41,0.97,-9.5,1.9,-0.2,3220,3101,,,,,,,,,,,,,,,,,
11146,1469909898838,,,,38,,,0.07,0.44,1.01,-9.5,1.2,-0.3,3260,3300,0.978,4,39.544727,-122.333839,53.88,0.089,322.1,9,3,1.5,0,0.0,-1,0.0,,0.0,0
11166,1469909898858,,,,,,,0.03,0.39,1.0,-9.6,0.4,-0.0,3320,3204,,,,,,,,,,,,,,,,,
11186,1469909898878,,,,,,,0.02,0.39,1.04,-9.5,0.9,-0.1,3320,3052,,,,,,,,,,,,,,,,,
11206,1469909898893,,,,,,,0.01,0.41,1.07,-9.3,1.2,-0.5,3340,3113,,,,,,,,,,,,,,,,,
11226,1469909898913,,,,,,,-0.0,0.36,1.04,-9.1,1.3,-0.6,3340,3101,,,,,,,,,,,,,,,,,
11246,1469909898933,0,228.7,184.6,45,187.0,,-0.05,0.31,1.04,-8.9,2.4,-0.8,3380,3076,1.032,4,39.544712,-122.333862,53.82,0.091,322.4,9,3,1.5,0,0.0,-1,0.0,0.0,0.0,0
11266,1469909898953,,,,,,,-0.08,0.32,1.09,-9.0,2.2,-1.1,3320,3126,,,,,,,,,,,,,,,,,
11286,1469909898973,,,,,,,-0.12,0.29,1.05,-8.8,1.2,-1.1,3260,3138,,,,,,,,,,,,,,,,,
11306,1469909899097,,,,,,,-0.15,0.31,1.04,-8.6,1.1,-1.0,3200,3113,,,,,,,,,,,,,,,,,
11326,1469909899117,,,,,,,-0.19,0.3,1.01,-8.5,1.2,-1.1,3160,3126,,,,,,,,,,,,,,,,,
11346,1469909899137,,,,70,,,-0.19,0.24,0.98,-8.4,-0.4,-1.0,3180,3113,1.081,4,39.544682,-122.3339,53.44,0.094,323.0,9,3,1.5,0,0.0,-1,0.0,,0.0,0
11366,1469909899157,,,,,,,-0.17,0.23,0.97,-8.0,-2.6,-0.8,3100,3089,,,,,,,,,,,,,,,,,
11386,1469909899177,,,,,,,-0.16,0.21,0.92,-7.5,-4.3,-0.5,3120,3101,,,,,,,,,,,,,,,,,
11406,1469909899197,,,,,,,-0.12,0.21,0.9,-6.9,-5.7,-0.6,3000,3113,,,,,,,,,,,,,,,,,
11426,1469909899217,,,,,,,-0.07,0.2,0.87,-6.5,-6.3,-0.3,3160,3113,,,,,,,,,,,,,,,,,
11446,1469909899237,0,229.1,185.1,57,187.3,,-0.02,0.22,0.87,-6.2,-6.5,-0.3,3060,3126,0.986,4,39.544682,-122.3339,53.44,0.094,323.0,9,3,1.5,0,0.0,-1,0.0,0.0,0.0,0
11466,1469909899257,,,,,,,-0.0,0.24,0.87,-6.0,-6.1,-0.2,3100,3101,,,,,,,,,,,,,,,,,
11486,1469909899277,,,,,,,0.01,0.26,0.87,-5.9,-4.4,-0.5,3180,3113,,,,,,,,,,,,,,,,,
11506,1469909899198,,,,,,,0.03,0.25,0.89,-5.7,-2.7,-0.6,3040,3113,,,,,,,,,,,,,,,,,
11526,1469909899218,,,,,,,0.06,0.21,0.92,-5.6,-0.8,-0.6,3040,3101,,,,,,,,,,,,,,,,,
11546,1469909899238,,,,52,,,0.06,0.15,0.93,-5.4,0.7,-0.6,3160,3101,1.009,4,39.544666,-122.333931,53.51,0.096,323.3,9,3,1.5,0,0.0,-1,0.0,,0.0,0
11566,1469909899258,,,,,,,0.02,0.12,0.94,-5.0,1.2,-0.6,3140,3126,,,,,,,,,,,,,,,,,
11586,1469909899278,,,,,,,-0.01,0.07,0.94,-4.6,1.2,-0.6,3100,3126,,,,,,,,,,,,,,,,,
11606,1469909899298,,,,,,,-0.04,0.07,0.9,-4.3,0.6,-0.6,3040,3152,,,,,,,,,,,,,,,,,
11626,1469909899318,,,,,,,-0.08,0.06,0.86,-4.4,-0.5,-0.5,3140,3152,,,,,,,,,,,,,,,,,
11646,1469909899338,0,228.7,184.7,78,187.3,,-0.13,0.09,0.84,-4.3,-1.4,-0.7,3180,3126,0.972,4,39.544655,-122.333939,53.91,0.097,323.7,9,3,1.5,0,0.0,-1,0.0,0.0,0.0,0
11666,1469909899358,,,,,,,-0.12,0.13,0.9,-4.3,-1.3,-0.8,3040,3126,,,,,,,,,,,,,,,,,
11686,1469909899378,,,,,,,-0.09,0.13,0.94,-4.2,-0.9,-1.1,3100,3126,,,,,,,,,,,,,,,,,
11706,1469909899396,,,,,,,-0.05,0.12,1.0,-4.1,-0.2,-1.0,3120,3126,,,,,,,,,,,,,,,,,
11726,1469909899416,,,,,,,-0.02,0.12,1.0,-4.0,-0.4,-0.8,3200,3126,,,,,,,,,,,,,,,,,
11746,1469909899436,,,,50,,,-0.01,0.11,0.98,-3.9,0.8,-0.6,3120,3138,1.004,4,39.544636,-122.333969,54.02,0.099,324.0,9,3,1.5,0,0.0,-1,0.0,,0.0,0
11766,1469909899456,,,,,,,-0.01,0.12,0.97,-3.9,2.4,-0.5,3120,3126,,,,,,,,,,,,,,,,,
11786,1469909899476,,,,,,,-0.05,0.12,1.03,-4.1,4.0,-0.4,3180,3138,,,,,,,,,,,,,,,,,
11806,1469909899495,,,,,,,-0.09,0.1,1.12,-4.4,4.8,-0.3,3160,3164,,,,,,,,,,,,,,,,,
11826,1469909899515,,,,,,,-0.12,0.1,1.11,-4.6,4.2,-0.3,3100,3164,,,,,,,,,,,,,,,,,
11846,1469909899535,0,229.1,185.1,40,187.3,,-0.16,0.07,1.01,-4.6,2.8,-0.2,3140,3178,0.986,4,39.54462,-122.333977,54.45,0.1,324.3,9,3,1.5,0,0.0,-1,0.0,0.0,0.0,0
11866,1469909899555,,,,,,,-0.18,0.05,0.99,-4.5,1.3,-0.1,3180,3178,,,,,,,,,,,,,,,,,
11886,1469909899575,,,,,,,-0.17,0.06,0.94,-4.3,-0.4,0.2,3140,3178,,,,,,,,,,,,,,,,,
11906,1469909899595,,,,,,,-0.15,0.13,0.95,-4.4,-1.3,0.4,3080,3152,,,,,,,,,,,,,,,,,
11926,1469909899615,,,,,,,-0.12,0.13,0.97,-4.3,-1.1,0.2,3220,3178,,,,,,,,,,,,,,,,,
11946,1469909899635,,,,45,,,-0.09,0.15,0.98,-4.4,-0.3,-0.0,3160,3178,0.986,4,39.544605,-122.334007,54.48,0.102,324.7,9,3,1.5,0,0.0,-1,0.0,,0.0,0
11966,1469909899655,,,,,,,-0.06,0.1,0.98,-4.4,0.6,-0.2,3120,3164,,,,,,,,,,,,,,,,,
11986,1469909899675,,,,,,,-0.06,0.09,0.95,-4.3,1.0,-0.4,3220,3190,,,,,,,,,,,,,,,,,
12006,1469909899695,,,,,,,-0.09,0.06,0.91,-4.1,0.1,-0.5,3140,3218,,,,,,,,,,,,,,,,,
12026,1469909899715,,,,,,,-0.13,0.1,0.91,-3.9,-0.8,-0.5,3160,3190,,,,,,,,,,,,,,,,,
12046,1469909899735,0,228.6,184.6,52,187.4,13.95,-0.15,0.12,0.97,-3.9,-0.9,-0.9,3240,3178,0.997,4,39.544594,-122.33403,54.67,0.103,325.0,9,3,1.5,0,0.0,-1,0.0,0.0,0.0,0
12066,1469909899755,,,,,,,-0.14,0.12,1.0,-3.8,-0.3,-1.2,3140,3204,,,,,,,,,,,,,,,,,
12086,1469909899775,,,,,,,-0.1,0.09,1.04,-3.6,-0.1,-1.1,3180,3204,,,,,,,,,,,,,,,,,
12106,1469909899897,,,,,,,-0.03,0.1,1.06,-3.3,0.2,-0.9,3120,3178,,,,,,,,,,,,,,,,,
12126,1469909899917,,,,,,,-0.03,0.09,1.1,-3.3,1.3,-0.6,3200,3178,,,,,,,,,,,,,,,,,
12146,1469909899937,,,,43,,,-0.07,0.1,1.14,-3.3,2.8,-0.5,3200,3190,1.018,4,39.54456,-122.334068,55.17,0.107,325.9,9,3,1.5,0,0.0,-1,0.0,,0.0,0
12166,1469909899957,,,,,,,-0.12,0.09,1.16,-3.6,3.7,-0.3,3160,3218,,,,,,,,,,,,,,,,,
12186,1469909899977,,,,,,,-0.16,0.05,1.12,-3.8,3.0,0.0,3300,3218,,,,,,,,,,,,,,,,,
12206,1469909899997,,,,,,,-0.19,0.0,1.12,-3.8,0.3,0.3,3180,3218,,,,,,,,,,,,,,,,,
12226,1469909900017,,,,,,,-0.21,0.04,1.08,-3.8,-1.2,0.2,3160,3218,,,,,,,,,,,,,,,,,
12246,1469909900037,0,228.5,184.6,58,187.4,,-0.2,0.09,1.04,-3.8,-0.8,0.0,3220,3204,1.007,4,39.54456,-122.334068,55.17,0.107,325.9,9,3,1.5,0,0.0,-1,0.0,0.0,0.0,0
12266,1469909900057,,,,,,,-0.18,0.12,0.99,-3.9,0.4,-0.1,3220,3204,,,,,,,,,,,,,,,,,
12286,1469909900077,,,,,,,-0.15,0.09,0.97,-3.7,2.0,-0.0,3220,3230,,,,,,,,,,,,,,,,,
12306,1469909899998,,,,,,,-0.13,0.04,0.96,-3.5,1.7,0.1,3220,3230,,,,,,,,,,,,,,,,,
12326,1469909900018,,,,,,,-0.15,0.04,0.93,-3.6,1.5,0.2,3260,3218,,,,,,,,,,,,,,,,,
12346,1469909900038,,,,36,,,-0.17,0.03,0.98,-3.7,0.4,0.2,3180,3244,0.997,4,39.544544,-122.334084,55.44,0.108,326.2,9,3,1.5,0,0.0,-1,0.0,,0.0,0
12366,1469909900058,,,,,,,-0.16,0.02,0.99,-3.5,0.6,-0.0,3220,3218,,,,,,,,,,,,,,,,,
12386,1469909900078,,,,,,,-0.15,0.04,0.92,-3.4,1.3,0.1,3160,3244,,,,,,,,,,,,,,,,,
12406,1469909900098,,,,,,,-0.18,0.02,0.91,-3.4,2.7,0.0,3260,3218,,,,,,,,,,,,,,,,,
12426,1469909900118,,,,,,,-0.19,0.01,0.99,-3.5,3.4,-0.0,3260,3244,,,,,,,,,,,,,,,,,
12446,1469909900138,0,228.3,184.3,48,187.2,,-0.2,0.03,1.04,-3.6,2.5,-0.3,3260,3230,1.005,4,39.544529,-122.334106,55.61,0.11,326.7,9,3,1.5,0,0.0,-1,0.0,0.0,0.0,0
12466,1469909900158,,,,,,,-0.21,-0.0,1.01,-3.6,0.4,-0.3,3220,3258,,,,,,,,,,,,,,,,,
12486,1469909900178,,,,,,,-0.19,0.04,0.96,-3.2,-1.5,-0.2,3260,3272,,,,,,,,,,,,,,,,,
12506,1469909900198,,,,,,,-0.17,0.1,0.91,-3.3,-0.6,-0.2,3280,3230,,,,,,,,,,,,,,,,,
12526,1469909900218,,,,,,,-0.16,0.1,0.91,-3.5,1.3,-0.3,3240,3272,,,,,,,,,,,,,,,,,
12546,1469909900238,,,,58,,,-0.15,0.04,0.89,-3.5,2.7,-0.4,3200,3230,0.985,4,39.544514,-122.334129,55.83,0.111,327.1,9,3,1.5,0,0.0,-1,0.0,,0.0,0
12566,1469909900258,,,,,,,-0.19,0.03,0.88,-3.6,3.0,-0.3,3240,3286,,,,,,,,,,,,,,,,,
12586,1469909900278,,,,,,,-0.28,0.01,0.85,-3.7,1.9,-0.2,3220,3258,,,,,,,,,,,,,,,,,
12606,1469909900298,,,,,,,-0.3,0.02,0.92,-3.8,0.6,-0.4,3160,3272,,,,,,,,,,,,,,,,,
12626,1469909900318,,,,,,,-0.25,0.02,0.91,-3.6,-1.1,-0.6,3220,3258,,,,,,,,,,,,,,,,,
12646,1469909900338,0,228.6,184.4,44,187.1,,-0.23,0.07,0.86,-3.3,-2.0,-0.5,3220,3258,0.999,4,39.544495,-122.334145,56.04,0.113,327.6,9,3,1.5,0,0.0,-1,0.0,0.0,0.0,0
12666,1469909900358,,,,,,,-0.19,0.09,0.91,-3.2,-0.8,-0.7,3280,3244,,,,,,,,,,,,,,,,,
12686,1469909900378,,,,,,,-0.17,0.06,0.92,-3.4,-0.1,-0.8,3280,3272,,,,,,,,,,,,,,,,,
12706,1469909900396,,,,,,,-0.15,0.04,0.8,-3.6,-0.9,-0.3,3320,3300,,,,,,,,,,,,,,,,,
12726,1469909900416,,,,,,,-0.14,0.03,0.78,-3.7,-2.4,-0.1,3200,3258,,,,,,,,,,,,,,,,,
12746,1469909900436,,,,44,,,-0.12,0.04,0.82,-3.7,-1.6,-0.1,3260,3286,0.984,4,39.544479,-122.334167,56.37,0.114,328.0,9,3,1.5,0,0.0,-1,0.0,,0.0,0
12766,1469909900456,,,,,,,-0.11,0.03,0.89,-3.9,-0.0,-0.2,3300,3272,,,,,,,,,,,,,,,,,
12786,1469909900476,,,,,,,-0.12,-0.0,0.9,-3.6,-0.2,-0.4,3300,3300,,,,,,,,,,,,,,,,,
12806,1469909900495,,,,,,,-0.12,0.01,0.85,-3.4,-0.6,-0.7,3220,3300,,,,,,,,,,,,,,,,,
12826,1469909900515,,,,,,,-0.13,0.02,0.88,-3.2,-1.4,-1.0,3300,3272,,,,,,,,,,,,,,,,,
12846,1469909900535,0,228.6,184.6,48,187.1,,-0.07,0.04,0.91,-3.0,-2.4,-1.2,3300,3272,0.97,4,39.544464,-122.334183,56.56,0.116,328.4,9,3,1.5,0,0.0,-1,0.0,0.0,0.0,0
12866,1469909900555,,,,,,,-0.03,0.08,0.88,-3.1,-1.5,-1.1,3260,3272,,,,,,,,,,,,,,,,,
12886,1469909900575,,,,,,,-0.07,0.09,0.93,-3.4,0.4,-0.8,3300,3286,,,,,,,,,,,,,,,,,
12906,1469909900694,,,,,,,-0.06,0.11,0.93,-3.6,0.3,-0.7,3220,3300,,,,,,,,,,,,,,,,,
12926,1469909900714,,,,,,,-0.07,0.07,0.88,-3.5,-0.6,-0.4,3320,3329,,,,,,,,,,,,,,,,,
12946,1469909900734,,,,60,,,-0.07,0.08,0.77,-3.2,-0.8,-0.2,3320,3286,0.988,4,39.544434,-122.334236,56.94,0.119,329.4,9,3,1.5,0,0.0,-1,0.0,,0.0,0
12966,1469909900754,,,,,,,-0.04,0.13,0.77,-3.2,-0.6,-0.3,3240,3286,,,,,,,,,,,,,,,,,
12986,1469909900774,,,,,,,-0.0,0.11,0.78,-3.3,-0.9,0.0,3340,3315,,,,,,,,,,,,,,,,,
13006,1469909900794,,,,,,,-0.03,0.08,0.73,-3.2,-0.8,0.4,3340,3315,,,,,,,,,,,,,,,,,
13026,1469909900814,,,,,,,-0.11,0.08,0.78,-3.3,-1.4,0.3,3260,3315,,,,,,,,,,,,,,,,,
13046,1469909900834,0,228.9,184.7,50,187.3,13.89,-0.13,0.05,0.82,-3.4,-1.7,0.2,3320,3315,1.005,4,39.544434,-122.334236,56.94,0.119,329.4,9,3,1.5,0,0.0,-1,0.0,0.0,0.0,0
13066,1469909900854,,,,,,,-0.11,0.05,0.86,-3.2,-2.4,0.3,3320,3329,,,,,,,,,,,,,,,,,
13086,1469909900874,,,,,,,-0.11,0.05,0.94,-3.3,-1.6,0.5,3280,3343,,,,,,,,,,,,,,,,,
13106,1469909900798,,,,,,,-0.13,0.03,0.96,-3.4,-0.1,0.7,3340,3343,,,,,,,,,,,,,,,,,
13126,1469909900818,,,,,,,-0.12,0.05,0.89,-3.2,-1.0,0.7,3300,3343,,,,,,,,,,,,,,,,,
13146,1469909900838,,,,52,,,-0.07,0.12,0.94,-3.1,-0.5,0.4,3300,3300,0.997,4,39.544418,-122.334251,57.22,0.121,329.9,9,3,1.5,0,0.0,-1,0.0,,0.0,0
13166,1469909900858,,,,,,,-0.09,0.06,0.98,-3.5,2.2,0.2,3260,3329,,,,,,,,,,,,,,,,,
13186,1469909900878,,,,,,,-0.14,-0.01,0.95,-3.4,1.8,0.5,3340,3343,,,,,,,,,,,,,,,,,
13206,1469909900892,,,,,,,-0.16,0.04,1.0,-3.3,0.8,0.3,3320,3343,,,,,,,,,,,,,,,,,
13226,1469909900912,,,,,,,-0.14,0.03,1.07,-3.3,0.4,0.0,3340,3329,,,,,,,,,,,,,,,,,
13246,1469909900932,0,228.3,184.3,47,187.2,,-0.12,-0.0,1.07,-3.1,0.5,0.2,3340,3329,0.999,4,39.544399,-122.334274,57.4,0.122,330.3,9,3,1.5,0,0.0,-1,0.0,0.0,0.0,0
13266,1469909900952,,,,,,,-0.12,0.03,1.11,-3.2,1.9,0.3,3320,3343,,,,,,,,,,,,,,,,,
13286,1469909900972,,,,,,,-0.11,0.03,1.06,-3.4,2.2,0.5,3400,3372,,,,,,,,,,,,,,,,,
13306,1469909900992,,,,,,,-0.1,0.01,0.97,-3.1,1.4,0.3,3380,3387,,,,,,,,,,,,,,,,,
13326,1469909901012,,,,,,,-0.05,0.03,0.94,-2.9,1.3,-0.1,3400,3343,,,,,,,,,,,,,,,,,
13346,1469909901032,,,,28,,,-0.05,0.02,1.01,-2.9,1.6,-0.3,3360,3372,0.991,4,39.544384,-122.334297,57.56,0.124,330.8,9,3,1.5,0,0.0,-1,0.0,,0.0,0
13366,1469909901052,,,,,,,-0.05,-0.05,1.0,-2.7,0.6,0.0,3380,3372,,,,,,,,,,,,,,,,,
13386,1469909901072,,,,,,,-0.08,-0.02,1.01,-2.8,-0.2,-0.1,3320,3358,,,,,,,,,,,,,,,,,
13406,1469909901098,,,,,,,-0.13,-0.02,1.08,-3.0,-1.1,0.0,3300,3343,,,,,,,,,,,,,,,,,
13426,1469909901118,,,,,,,-0.13,-0.01,1.02,-2.9,-1.0,-0.0,3320,3343,,,,,,,,,,,,,,,,,
13446,1469909901138,0,229.1,185.1,71,187.4,,-0.16,0.05,1.05,-3.1,-0.1,-0.0,3320,3358,0.999,4,39.544365,-122.334312,57.91,0.126,331.3,9,3,1.5,0,0.0,-1,0.0,0.0,0.0,0
13466,1469909901158,,,,,,,-0.2,0.03,1.01,-3.5,-0.3,0.2,3420,3387,,,,,,,,,,,,,,,,,
13486,1469909901178,,,,,,,-0.16,0.04,0.91,-3.4,-0.2,0.5,3280,3358,,,,,,,,,,,,,,,,,
13506,1469909901198,,,,,,,-0.13,0.05,0.92,-3.4,1.1,0.2,3380,3358,,,,,,,,,,,,,,,,,
13526,1469909901218,,,,,,,-0.13,0.04,0.86,-3.3,1.2,0.2,3320,3387,,,,,,,,,,,,,,,,,
13546,1469909901238,,,,63,,,-0.13,0.08,0.8,-3.3,0.3,-0.1,3360,3387,0.989,4,39.54435,-122.334335,58.07,0.127,331.8,9,3,1.5,0,0.0,-1,0.0,,0.0,0
13566,1469909901258,,,,,,,-0.15,0.07,0.84,-3.3,-1.2,-0.4,3360,3343,,,,,,,,,,,,,,,,,
13586,1469909901278,,,,,,,-0.13,0.05,0.81,-3.0,-1.6,-0.4,3360,3372,,,,,,,,,,,,,,,,,
13606,1469909901298,,,,,,,-0.16,0.07,0.92,-3.1,0.5,-0.4,3400,3387,,,,,,,,,,,,,,,,,
13626,1469909901318,,,,,,,-0.17,0.03,0.98,-3.4,0.1,-0.3,3360,3403,,,,,,,,,,,,,,,,,
13646,1469909901338,0,228.7,184.6,61,187.5,,-0.17,0.09,1.01,-3.4,0.2,-0.2,3380,3403,0.97,4,39.544334,-122.334366,58.19,0.129,332.3,9,3,1.5,0,0.0,-1,0.0,0.0,0.0,0
13666,1469909901358,,,,,,,-0.16,0.1,1.07,-3.6,1.4,-0.3,3440,3403,,,,,,,,,,,,,,,,,
13686,1469909901378,,,,,,,-0.17,0.04,1.11,-3.7,1.3,-0.1,3420,3418,,,,,,,,,,,,,,,,,
13706,1469909901495,,,,,,,-0.2,0.02,1.17,-3.6,1.7,0.0,3360,3418,,,,,,,,,,,,,,,,,
13726,1469909901515,,,,,,,-0.21,-0.0,1.2,-3.6,0.9,-0.1,3360,3403,,,,,,,,,,,,,,,,,
13746,1469909901535,,,,62,,,-0.22,-0.01,1.18,-3.3,0.7,-0.1,3460,3387,0.976,4,39.5443,-122.334404,58.62,0.132,333.3,9,3,1.5,0,0.0,-1,0.0,,0.0,0
13766,1469909901555,,,,,,,-0.21,0.01,1.2,-3.3,1.9,0.1,3400,3403,,,,,,,,,,,,,,,,,
13786,1469909901575,,,,,,,-0.2,0.0,1.08,-3.2,1.3,0.4,3420,3418,,,,,,,,,,,,,,,,,
13806,1469909901595,,,,,,,-0.18,0.04,1.05,-3.1,1.9,0.3,3440,3372,,,,,,,,,,,,,,,,,
13826,1469909901615,,,,,,,-0.16,-0.01,1.04,-3.1,2.7,-0.2,3420,3418,,,,,,,,,,,,,,,,,
13846,1469909901635,0,228.8,185.2,33,188.1,,-0.16,-0.02,0.97,-2.9,1.9,-0.1,3440,3433,1.004,4,39.5443,-122.334404,58.62,0.132,333.3,9,3,1.5,0,0.0,-1,0.0,0.0,0.0,0
13866,1469909901655,,,,,,,-0.17,-0.03,1.06,-2.9,1.3,-0.4,3400,3433,,,,,,,,,,,,,,,,,
13886,1469909901675,,,,,,,-0.18,-0.02,1.0,-2.9,0.7,-0.3,3360,3403,,,,,,,,,,,,,,,,,
13906,1469909901595,,,,,,,-0.17,0.01,1.04,-2.9,1.0,-0.2,3360,3418,,,,,,,,,,,,,,,,,
13926,1469909901615,,,,,,,-0.17,-0.03,0.95,-3.0,0.3,-0.0,3380,3433,,,,,,,,,,,,,,,,,
13946,1469909901635,,,,47,,,-0.15,-0.03,0.91,-2.8,-0.3,-0.1,3460,3418,0.999,4,39.544281,-122.334412,58.78,0.134,333.8,9,3,1.5,0,0.0,-1,0.0,,0.0,0
13966,1469909901655,,,,,,,-0.14,-0.07,0.87,-3.1,0.4,-0.1,3420,3418,,,,,,,,,,,,,,,,,
13986,1469909901675,,,,,,,-0.18,-0.07,0.84,-3.1,0.6,-0.0,3420,3418,,,,,,,,,,,,,,,,,
14006,1469909901695,,,,,,,-0.19,-0.03,0.87,-3.1,0.2,-0.2,3360,3433,,,,,,,,,,,,,,,,,
14026,1469909901709,,,,,,,-0.19,-0.04,0.84,-2.9,-0.4,-0.2,3380,3403,,,,,,,,,,,,,,,,,
14046,1469909901729,0,229.4,185.4,42,188.0,13.87,-0.21,-0.01,0.93,-3.0,0.5,-0.0,3440,3449,0.99,4,39.544266,-122.334442,59.14,0.136,334.3,9,3,1.5,0,0.0,-1,0.0,0.0,0.0,0
14066,1469909901749,,,,,,,-0.15,0.03,0.94,-3.5,1.0,0.1,3460,3480,,,,,,,,,,,,,,,,,
14086,1469909901769,,,,,,,-0.13,0.07,0.84,-3.6,0.8,0.1,3460,3433,,,,,,,,,,,,,,,,,
14106,1469909901798,,,,,,,-0.11,0.05,0.8,-3.6,0.8,-0.4,3440,3418,,,,,,,,,,,,,,,,,
14126,1469909901818,,,,,,,-0.11,0.02,0.76,-3.4,1.7,-0.5,3420,3464,,,,,,,,,,,,,,,,,
14146,1469909901838,,,,38,,,-0.12,0.06,0.8,-3.4,1.7,-0.6,3420,3449,1.006,4,39.54425,-122.334465,59.29,0.137,334.9,9,3,1.5,0,0.0,-1,0.0,,0.0,0
14166,1469909901858,,,,,,,-0.08,0.07,0.79,-3.3,0.6,-0.6,3400,3418,,,,,,,,,,,,,,,,,
14186,1469909901878,,,,,,,-0.05,0.07,0.83,-3.2,1.0,-0.6,3400,3464,,,,,,,,,,,,,,,,,
14206,1469909901892,,,,,,,-0.01,0.06,0.78,-3.2,-0.0,-0.4,3460,3464,,,,,,,,,,,,,,,,,
14226,1469909901912,,,,,,,-0.02,0.08,0.75,-3.3,0.8,-0.3,3480,3418,,,,,,,,,,,,,,,,,
14246,1469909901932,0,228.7,184.3,63,186.9,,-0.07,0.06,0.76,-3.4,1.8,-0.7,3500,3464,0.977,4,39.544231,-122.334488,59.37,0.139,335.4,9,3,1.5,0,0.0,-1,0.0,0.0,0.0,0
14266,1469909901952,,,,,,,-0.06,0.06,0.73,-3.3,1.3,-0.7,3440,3480,,,,,,,,,,,,,,,,,
14286,1469909901972,,,,,,,-0.08,0.09,0.85,-3.4,0.7,-0.6,3460,3449,,,,,,,,,,,,,,,,,
14306,1469909901998,,,,,,,-0.09,0.05,0.82,-3.2,0.2,-0.3,3420,3480,,,,,,,,,,,,,,,,,
14326,1469909902018,,,,,,,-0.08,0.03,0.93,-3.2,0.7,-0.0,3400,3464,,,,,,,,,,,,,,,,,
14346,1469909902038,,,,36,,,-0.11,0.04,0.84,-3.1,-1.1,0.1,3480,3480,1.009,4,39.544216,-122.334503,59.69,0.14,336.0,9,3,1.5,0,0.0,-1,0.0,,0.0,0
14366,1469909902058,,,,,,,-0.11,0.07,0.84,-3.2,-0.8,0.0,3500,3480,,,,,,,,,,,,,,,,,
14386,1469909902078,,,,,,,-0.13,0.02,0.85,-3.3,-0.9,0.1,3460,3464,,,,,,,,,,,,,,,,,
14406,1469909902098,,,,,,,-0.18,0.03,0.91,-3.3,-1.7,0.2,3460,3480,,,,,,,,,,,,,,,,,
14426,1469909902118,,,,,,,-0.19,-0.01,0.86,-3.1,-2.6,0.2,3420,3464,,,,,,,,,,,,,,,,,
14446,1469909902138,0,228.5,184.5,42,187.4,,-0.18,0.06,0.92,-3.0,-2.2,0.0,3440,3464,0.96,4,39.544197,-122.334526,59.92,0.142,336.6,9,3,1.5,0,0.0,-1,0.0,0.0,0.0,0
14466,1469909902158,,,,,,,-0.12,0.08,0.9,-3.3,-2.6,-0.0,3480,3512,,,,,,,,,,,,,,,,,
14486,1469909902178,,,,,,,-0.16,0.11,0.93,-3.4,-2.4,-0.2,3480,3464,,,,,,,,,,,,,,,,,
14506,1469909902297,,,,,,,-0.17,0.04,0.91,-3.4,-2.1,-0.4,3520,3512,,,,,,,,,,,,,,,,,
14526,1469909902317,,,,,,,-0.17,-0.0,0.88,-3.1,-2.1,-0.5,3460,3495,,,,,,,,,,,,,,,,,
14546,1469909902337,,,,55,,,-0.13,-0.03,0.93,-3.4,-3.3,-0.6,3420,3495,1.009,4,39.544163,-122.334564,60.31,0.145,337.8,9,3,1.5,0,0.0,-1,0.0,,0.0,0
14566,1469909902357,,,,,,,-0.15,-0.01,0.97,-3.5,-2.3,-0.6,3420,3480,,,,,,,,,,,,,,,,,
14586,1469909902377,,,,,,,-0.15,0.02,0.94,-3.8,-2.0,-0.6,3540,3544,,,,,,,,,,,,,,,,,
14606,1469909902397,,,,,,,-0.13,0.04,0.9,-3.9,-1.5,-0.4,3500,3495,,,,,,,,,,,,,,,,,
14626,1469909902417,,,,,,,-0.14,0.01,0.9,-4.1,-0.3,-0.4,3460,3495,,,,,,,,,,,,,,,,,
14646,1469909902437,0,228.4,184.3,31,187.0,,-0.17,0.01,0.87,-3.9,-0.4,-0.3,3500,3495,0.989,4,39.544163,-122.334564,60.31,0.145,337.8,9,3,1.5,0,0.0,-1,0.0,0.0,0.0,0
14666,1469909902457,,,,,,,-0.18,0.06,0.96,-3.8,-0.5,-0.5,3460,3495,,,,,,,,,,,,,,,,,
14686,1469909902477,,,,,,,-0.21,0.04,0.94,-3.9,0.1,-0.3,3520,3480,,,,,,,,,,,,,,,,,
14706,1469909902396,,,,,,,-0.18,0.08,1.02,-4.2,1.3,-0.3,3500,3527,,,,,,,,,,,,,,,,,
14726,1469909902416,,,,,,,-0.2,0.08,0.96,-4.2,1.0,-0.2,3540,3495,,,,,,,,,,,,,,,,,
14746,1469909902436,,,,59,,,-0.23,0.07,0.98,-4.3,2.0,-0.1,3500,3527,1.001,4,39.544144,-122.334595,60.41,0.147,338.3,9,3,1.5,0,0.0,-1,0.0,,0.0,0
14766,1469909902456,,,,,,,-0.25,-0.03,0.95,-4.2,2.9,0.2,3500,3495,,,,,,,,,,,,,,,,,
14786,1469909902476,,,,,,,-0.26,-0.03,1.05,-4.1,2.1,0.1,3480,3495,,,,,,,,,,,,,,,,,
14806,1469909902495,,,,,,,-0.29,-0.03,1.02,-3.8,2.3,0.1,3460,3512,,,,,,,,,,,,,,,,,
14826,1469909902515,,,,,,,-0.28,0.02,1.11,-4.0,3.1,0.4,3460,3527,,,,,,,,,,,,,,,,,
14846,1469909902535,0,228.7,184.4,37,186.9,,-0.25,0.06,1.06,-4.2,4.1,0.4,3500,3512,0.979,4,39.544128,-122.334618,60.63,0.149,338.8,9,3,1.5,0,0.0,-1,0.0,0.0,0.0,0
14866,1469909902555,,,,,,,-0.27,0.02,1.03,-4.4,4.2,0.4,3540,3495,,,,,,,,,,,,,,,,,
14886,1469909902575,,,,,,,-0.29,0.02,0.97,-4.1,3.3,0.3,3500,3560,,,,,,,,,,,,,,,,,
14906,1469909902595,,,,,,,-0.3,0.01,1.06,-4.1,3.9,0.4,3440,3527,,,,,,,,,,,,,,,,,
14926,1469909902615,,,,,,,-0.28,-0.01,1.09,-3.8,4.2,0.3,3460,3527,,,,,,,,,,,,,,,,,
14946,1469909902635,,,,44,,,-0.26,0.03,1.11,-3.8,4.1,0.4,3520,3560,1.0,4,39.544109,-122.334633,60.75,0.151,339.4,9,3,1.5,0,0.0,-1,0.0,,0.0,0
14966,1469909902655,,,,,,,-0.28,0.06,1.16,-4.0,4.9,0.5,3560,3527,,,,,,,,,,,,,,,,,
14986,1469909902675,,,,,,,-0.3,0.06,1.16,-4.2,5.5,0.3,3540,3527,,,,,,,,,,,,,,,,,
15006,1469909902695,,,,,,,-0.34,0.1,1.16,-4.2,5.5,-0.0,3560,3560,,,,,,,,,,,,,,,,,
15026,1469909902715,,,,,,,-0.3,0.09,1.13,-4.2,4.1,0.1,3500,3527,,,,,,,,,,,,,,,,,
15046,1469909902735,0,228.5,184.4,39,187.3,13.88,-0.3,0.07,1.17,-4.2,5.0,0.3,3440,3544,1.005,4,39.544094,-122.334656,60.9,0.152,340.0,9,3,1.5,0,0.0,-1,0.0,0.0,0.0,0
15066,1469909902755,,,,,,,-0.27,0.05,1.1,-4.1,4.0,0.5,3580,3576,,,,,,,,,,,,,,,,,
15086,1469909902775,,,,,,,-0.28,0.0,1.13,-3.9,5.2,0.6,3540,3544,,,,,,,,,,,,,,,,,
15106,1469909902798,,,,,,,-0.29,-0.04,1.07,-3.8,4.7,0.6,3540,3544,,,,,,,,,,,,,,,,,
15126,1469909902818,,,,,,,-0.29,0.01,1.15,-3.9,4.7,0.1,3500,3560,,,,,,,,,,,,,,,,,
15146,1469909902838,,,,82,,,-0.34,0.0,1.13,-4.1,4.5,0.2,3520,3576,1.015,4,39.544079,-122.334686,61.21,0.154,340.6,9,3,1.5,0,0.0,-1,0.0,,0.0,0
15166,1469909902858,,,,,,,-0.26,0.02,1.14,-4.3,4.8,0.3,3580,3560,,,,,,,,,,,,,,,,,
15186,1469909902878,,,,,,,-0.28,0.04,1.13,-4.3,5.6,0.3,3580,3544,,,,,,,,,,,,,,,,,
15206,1469909902891,,,,,,,-0.26,0.01,1.08,-4.0,5.3,0.0,3580,3560,,,,,,,,,,,,,,,,,
15226,1469909902911,,,,,,,-0.27,-0.04,1.09,-3.7,4.4,0.0,3540,3593,,,,,,,,,,,,,,,,,
15246,1469909902931,0,228.7,184.7,52,187.2,,-0.24,-0.07,1.14,-3.6,2.6,0.2,3580,3544,0.993,4,39.54406,-122.334709,61.26,0.156,341.1,9,3,1.5,0,0.0,-1,0.0,0.0,0.0,0
15266,1469909902951,,,,,,,-0.24,-0.06,1.2,-3.4,3.4,0.0,3580,3560,,,,,,,,,,,,,,,,,
15286,1469909902971,,,,,,,-0.19,-0.08,1.14,-3.0,2.5,0.1,3580,3576,,,,,,,,,,,,,,,,,
15306,1469909903094,,,,,,,-0.17,-0.08,1.16,-3.0,2.4,-0.1,3600,3560,,,,,,,,,,,,,,,,,
15326,1469909903114,,,,,,,-0.21,-0.09,1.14,-3.0,1.4,-0.3,3600,3593,,,,,,,,,,,,,,,,,
15346,1469909903134,,,,63,,,-0.19,-0.03,1.18,-2.9,0.7,-0.7,3540,3560,1.006,4,39.544022,-122.334747,61.61,0.159,342.6,9,3,1.5,0,0.0,-1,0.0,,0.0,0
15366,1469909903154,,,,,,,-0.21,-0.07,1.1,-3.0,0.9,-0.5,3540,3560,,,,,,,,,,,,,,,,,
15386,1469909903174,,,,,,,-0.17,-0.04,1.16,-3.2,-0.0,-0.7,3580,3576,,,,,,,,,,,,,,,,,
15406,1469909903194,,,,,,,-0.2,-0.0,1.12,-3.0,0.5,-1.1,3560,3576,,,,,,,,,,,,,,,,,
15426,1469909903214,,,,,,,-0.22,-0.07,1.05,-2.8,0.1,-0.8,3580,3610,,,,,,,,,,,,,,,,,
15446,1469909903234,0,228.7,184.3,54,187.0,,-0.26,-0.05,1.12,-2.5,0.5,-1.0,3600,3610,1.007,4,39.544022,-122.334747,61.61,0.159,342.6,9,3,1.5,0,0.0,-1,0.0,0.0,0.0,0
15466,1469909903254,,,,,,,-0.27,-0.08,0.98,-2.3,-0.8,-1.3,3620,3576,,,,,,,,,,,,,,,,,
15486,1469909903274,,,,,,,-0.22,-0.09,1.07,-2.2,-0.6,-1.3,3480,3593,,,,,,,,,,,,,,,,,
15506,1469909903198,,,,,,,-0.23,-0.05,1.06,-2.2,0.7,-1.4,3520,3576,,,,,,,,,,,,,,,,,
15526,1469909903218,,,,,,,-0.19,-0.03,1.0,-2.2,0.7,-1.6,3580,3593,,,,,,,,,,,,,,,,,
15546,1469909903238,,,,59,,,-0.19,-0.01,1.0,-2.1,0.5,-1.6,3520,3593,0.98,4,39.544003,-122.33477,61.9,0.161,343.2,9,3,1.5,0,0.0,-1,0.0,,0.0,0
15566,1469909903258,,,,,,,-0.15,-0.01,0.96,-2.2,-0.2,-1.1,3540,3576,,,,,,,,,,,,,,,,,
15586,1469909903278,,,,,,,-0.09,0.03,1.0,-2.2,-1.1,-1.1,3540,3627,,,,,,,,,,,,,,,,,
15606,1469909903298,,,,,,,-0.04,0.08,0.96,-2.2,-1.5,-0.9,3600,3593,,,,,,,,,,,,,,,,,
15626,1469909903318,,,,,,,-0.04,0.09,0.93,-2.5,-0.8,-0.8,3580,3610,,,,,,,,,,,,,,,,,
15646,1469909903338,0,228.6,184.5,62,187.3,,-0.07,0.08,0.92,-2.4,-1.1,-0.8,3580,3610,1.008,4,39.543987,-122.334801,61.91,0.163,343.9,9,3,1.5,0,0.0,-1,0.0,0.0,0.0,0
15666,1469909903358,,,,,,,-0.07,0.07,0.91,-2.5,-0.6,-0.3,3580,3576,,,,,,,,,,,,,,,,,
15686,1469909903378,,,,,,,-0.05,0.07,1.01,-2.6,-0.4,-0.1,3600,3610,,,,,,,,,,,,,,,,,
15706,1469909903396,,,,,,,-0.09,0.05,1.02,-2.6,0.9,0.1,3560,3576,,,,,,,,,,,,,,,,,
15726,1469909903416,,,,,,,-0.11,0.02,1.05,-2.8,1.9,0.0,3640,3593,,,,,,,,,,,,,,,,,
15746,1469909903436,,,,39,,,-0.14,0.02,1.11,-2.8,2.8,-0.2,3620,3610,1.004,4,39.543968,-122.334808,62.15,0.164,344.5,9,3,1.5,0,0.0,-1,0.0,,0.0,0
15766,1469909903456,,,,,,,-0.14,-0.02,1.06,-2.8,2.3,-0.1,3620,3576,,,,,,,,,,,,,,,,,
15786,1469909903476,,,,,,,-0.08,-0.03,1.13,-3.0,2.1,0.1,3600,3610,,,,,,,,,,,,,,,,,
15806,1469909903495,,,,,,,-0.1,-0.03,1.12,-3.1,2.2,0.1,3580,3576,,,,,,,,,,,,,,,,,
15826,1469909903515,,,,,,,-0.1,-0.08,1.07,-3.1,2.2,-0.2,3640,3593,,,,,,,,,,,,,,,,,
15846,1469909903535,0,229.1,185.0,72,187.3,,-0.16,-0.09,1.07,-3.0,2.0,-0.2,3640,3627,0.987,4,39.543953,-122.334839,62.54,0.166,345.2,9,3,1.5,0,0.0,-1,0.0,0.0,0.0,0
15866,1469909903555,,,,,,,-0.15,-0.09,1.11,-3.0,0.5,-0.3,3560,3593,,,,,,,,,,,,,,,,,
15886,1469909903575,,,,,,,-0.16,-0.09,1.11,-3.0,-0.2,-0.2,3500,3627,,,,,,,,,,,,,,,,,
15906,1469909903595,,,,,,,-0.18,-0.1,1.04,-3.0,-0.3,-0.1,3580,3593,,,,,,,,,,,,,,,,,
15926,1469909903615,,,,,,,-0.21,-0.11,1.06,-2.9,0.6,-0.2,3520,3627,,,,,,,,,,,,,,,,,
15946,1469909903635,,,,46,,,-0.23,-0.08,1.01,-2.5,-0.2,-0.2,3580,3627,1.003,4,39.543934,-122.334862,62.34,0.168,345.8,9,3,1.5,0,0.0,-1,0.0,,0.0,0
15966,1469909903655,,,,,,,-0.23,-0.09,1.03,-2.7,-0.2,-0.1,3680,3610,,,,,,,,,,,,,,,,,
15986,1469909903675,,,,,,,-0.18,-0.07,1.09,-2.6,-1.3,0.0,3600,3627,,,,,,,,,,,,,,,,,
16006,1469909903695,,,,,,,-0.12,-0.04,1.05,-2.3,-0.8,0.1,3660,3627,,,,,,,,,,,,,,,,,
16026,1469909903715,,,,,,,-0.12,-0.06,0.99,-2.3,-1.0,0.3,3580,3627,,,,,,,,,,,,,,,,,
16046,1469909903735,0,228.9,184.8,46,187.5,13.91,-0.12,-0.01,1.01,-2.1,-0.9,0.0,3620,3627,0.987,4,39.543919,-122.334885,62.67,0.17,346.6,9,3,1.5,0,0.0,-1,0.0,0.0,0.0,0
16066,1469909903755,,,,,,,-0.16,-0.03,0.97,-2.2,-0.7,0.2,3680,3644,,,,,,,,,,,,,,,,,
16086,1469909903775,,,,,,,-0.12,-0.04,1.07,-2.5,-0.1,0.2,3500,3644,,,,,,,,,,,,,,,,,
16106,1469909903897,,,,,,,-0.15,0.0,1.09,-2.5,1.2,-0.1,3600,3644,,,,,,,,,,,,,,,,,
16126,1469909903917,,,,,,,-0.15,0.01,1.03,-2.7,0.8,0.0,3620,3661,,,,,,,,,,,,,,,,,
16146,1469909903937,,,,43,,,-0.18,0.05,1.12,-2.8,1.2,-0.4,3640,3644,1.004,4,39.54388,-122.334923,62.84,0.173,348.0,9,3,1.5,0,0.0,-1,0.0,,0.0,0
16166,1469909903957,,,,,,,-0.18,0.05,1.06,-2.9,1.3,-0.7,3680,3661,,,,,,,,,,,,,,,,,
16186,1469909903977,,,,,,,-0.12,0.05,1.03,-3.1,0.6,-0.6,3600,3661,,,,,,,,,,,,,,,,,
16206,1469909903997,,,,,,,-0.13,0.05,1.11,-3.1,1.1,-1.0,3580,3627,,,,,,,,,,,,,,,,,
16226,1469909904017,,,,,,,-0.18,0.07,1.03,-3.0,0.7,-1.3,3600,3680,,,,,,,,,,,,,,,,,
16246,1469909904037,0,228.7,184.7,54,187.1,,-0.17,0.13,1.12,-3.2,0.7,-1.2,3580,3627,1.009,4,39.54388,-122.334923,62.84,0.173,348.0,9,3,1.5,0,0.0,-1,0.0,0.0,0.0,0
16266,1469909904057,,,,,,,-0.13,0.1,1.15,-3.2,1.2,-1.0,3660,3661,,,,,,,,,,,,,,,,,
16286,1469909904077,,,,,,,-0.06,0.16,1.01,-2.9,-0.4,-1.0,3560,3644,,,,,,,,,,,,,,,,,
16306,1469909903998,,,,,,,-0.03,0.12,1.0,-2.8,-0.3,-1.0,3580,3644,,,,,,,,,,,,,,,,,
16326,1469909904018,,,,,,,-0.06,0.11,0.97,-2.6,-1.3,-0.9,3640,3661,,,,,,,,,,,,,,,,,
16346,1469909904038,,,,59,,,-0.08,0.12,0.96,-2.7,-0.7,-0.4,3680,3661,0.993,4,39.543861,-122.334953,63.16,0.175,348.7,9,3,1.5,0,0.0,-1,0.0,,0.0,0
16366,1469909904058,,,,,,,-0.05,0.15,1.05,-2.9,-0.3,-0.1,3680,3661,,,,,,,,,,,,,,,,,
16386,1469909904078,,,,,,,-0.08,0.09,1.06,-2.7,1.8,-0.1,3680,3627,,,,,,,,,,,,,,,,,
16406,1469909904098,,,,,,,-0.08,0.05,0.99,-2.8,1.2,0.1,3600,3680,,,,,,,,,,,,,,,,,
16426,1469909904118,,,,,,,-0.08,0.04,1.07,-2.6,1.0,-0.3,3660,3644,,,,,,,,,,,,,,,,,
16446,1469909904138,0,228.9,184.4,40,187.0,,-0.12,-0.01,0.98,-2.6,0.2,-0.3,3640,3661,0.993,4,39.543842,-122.334976,63.22,0.177,349.4,9,3,1.5,0,0.0,-1,0.0,0.0,0.0,0
16466,1469909904158,,,,,,,-0.14,0.04,0.93,-2.6,-0.6,-0.2,3600,3680,,,,,,,,,,,,,,,,,
16486,1469909904178,,,,,,,-0.18,-0.0,0.95,-2.5,0.9,-0.6,3580,3661,,,,,,,,,,,,,,,,,
16506,1469909904197,,,,,,,-0.22,-0.08,0.88,-2.6,0.8,-0.6,3680,3644,,,,,,,,,,,,,,,,,
16526,1469909904217,,,,,,,-0.23,0.01,0.98,-2.7,-0.2,-0.7,3620,3644,,,,,,,,,,,,,,,,,
16546,1469909904237,,,,84,,,-0.2,0.0,0.98,-2.6,-1.0,-0.7,3580,3680,1.015,4,39.543823,-122.334991,63.36,0.179,350.2,9,3,1.5,0,0.0,-1,0.0,,0.0,0
16566,1469909904257,,,,,,,-0.14,0.04,0.9,-2.6,-1.1,-0.4,3720,3661,,,,,,,,,,,,,,,,,
16586,1469909904277,,,,,,,-0.09,0.06,0.87,-2.6,-1.2,-0.3,3660,3680,,,,,,,,,,,,,,,,,
16606,1469909904298,,,,,,,-0.14,0.06,0.85,-2.7,-0.3,-0.2,3660,3661,,,,,,,,,,,,,,,,,
16626,1469909904318,,,,,,,-0.12,0.08,0.82,-3.0,0.2,0.0,3680,3661,,,,,,,,,,,,,,,,,
16646,1469909904338,0,229.1,184.8,53,187.3,,-0.11,0.12,0.93,-3.2,0.4,0.1,3580,3680,1.004,4,39.543808,-122.335014,63.48,0.18,350.9,9,3,1.5,0,0.0,-1,0.0,0.0,0.0,0
16666,1469909904358,,,,,,,-0.1,0.05,0.93,-3.2,1.3,0.1,3640,3661,,,,,,,,,,,,,,,,,
16686,1469909904378,,,,,,,-0.13,0.06,0.92,-3.2,0.6,-0.0,3600,3696,,,,,,,,,,,,,,,,,
16706,1469909904396,,,,,,,-0.08,0.07,0.95,-3.2,-0.6,-0.2,3600,3627,,,,,,,,,,,,,,,,,
16726,1469909904416,,,,,,,-0.14,0.01,0.96,-3.3,0.5,-0.1,3700,3661,,,,,,,,,,,,,,,,,
16746,1469909904436,,,,46,,,-0.1,0.06,0.91,-3.0,0.4,-0.2,3680,3680,1.0,4,39.543789,-122.335045,63.68,0.182,351.6,9,3,1.5,0,0.0,-1,0.0,,0.0,0
16766,1469909904456,,,,,,,-0.12,0.04,0.97,-3.0,1.2,-0.4,3640,3696,,,,,,,,,,,,,,,,,
16786,1469909904476,,,,,,,-0.13,0.09,0.98,-3.1,1.0,-0.4,3620,3680,,,,,,,,,,,,,,,,,
16806,1469909904495,,,,,,,-0.14,0.12,0.89,-2.9,0.1,-0.1,3660,3661,,,,,,,,,,,,,,,,,
16826,1469909904515,,,,,,,-0.09,0.15,0.91,-3.2,-0.0,0.3,3600,3680,,,,,,,,,,,,,,,,,
16846,1469909904535,0,229.0,184.9,59,187.7,,-0.1,0.14,0.93,-3.0,1.2,0.1,3580,3680,1.0,4,39.54377,-122.335068,63.67,0.184,352.3,9,3,1.5,0,0.0,-1,0.0,0.0,0.0,0
16866,1469909904555,,,,,,,-0.11,0.15,0.87,-3.0,0.2,0.3,3640,3696,,,,,,,,,,,,,,,,,
16886,1469909904575,,,,,,,-0.12,0.16,0.95,-3.2,0.2,-0.1,3640,3644,,,,,,,,,,,,,,,,,
16906,1469909904694,,,,,,,-0.1,0.11,0.97,-3.3,0.3,-0.2,3700,3680,,,,,,,,,,,,,,,,,
16926,1469909904714,,,,,,,-0.05,0.14,0.88,-3.3,-0.3,-0.3,3680,3680,,,,,,,,,,,,,,,,,
16946,1469909904734,,,,67,,,-0.08,0.07,0.89,-3.3,0.7,-0.5,3660,3696,0.994,4,39.543736,-122.335106,63.81,0.187,353.6,9,3,1.5,0,0.0,-1,0.0,,0.0,0
16966,1469909904754,,,,,,,-0.15,0.09,0.92,-3.1,0.8,-0.9,3660,3680,,,,,,,,,,,,,,,,,
16986,1469909904774,,,,,,,-0.18,0.08,0.95,-3.1,0.5,-1.0,3660,3661,,,,,,,,,,,,,,,,,
17006,1469909904794,,,,,,,-0.09,0.05,0.98,-2.9,0.4,-0.6,3700,3680,,,,,,,,,,,,,,,,,
17026,1469909904814,,,,,,,-0.06,0.03,1.02,-2.5,0.6,-0.8,3680,3661,,,,,,,,,,,,,,,,,
17046,1469909904834,0,229.4,185.5,32,187.8,13.99,-0.05,0.02,0.99,-2.3,0.2,-0.7,3680,3680,0.999,4,39.543736,-122.335106,63.81,0.187,353.6,9,3,1.5,0,0.0,-1,0.0,0.0,0.0,0
17066,1469909904854,,,,,,,-0.06,0.06,1.08,-2.0,-0.2,-0.8,3680,3644,,,,,,,,,,,,,,,,,
17086,1469909904874,,,,,,,-0.07,0.06,1.13,-2.1,1.6,-0.7,3640,3696,,,,,,,,,,,,,,,,,
17106,1469909904798,,,,,,,-0.04,0.11,1.08,-2.2,1.9,-0.7,3700,3680,,,,,,,,,,,,,,,,,
17126,1469909904818,,,,,,,-0.07,0.06,1.15,-2.2,3.3,-0.8,3580,3680,,,,,,,,,,,,,,,,,
17146,1469909904838,,,,48,,,-0.09,0.04,1.08,-2.2,2.7,-0.7,3680,3661,1.0,4,39.543716,-122.335129,63.98,0.189,354.3,9,3,1.5,0,0.0,-1,0.0,,0.0,0
17166,1469909904858,,,,,,,-0.08,0.05,1.06,-2.1,1.9,-0.9,3700,3644,,,,,,,,,,,,,,,,,
17186,1469909904878,,,,,,,-0.05,0.01,1.07,-2.2,1.0,-0.7,3640,3680,,,,,,,,,,,,,,,,,
17206,1469909904892,,,,,,,-0.07,0.06,1.05,-2.2,2.5,-0.7,3620,3644,,,,,,,,,,,,,,,,,
17226,1469909904912,,,,,,,-0.09,0.06,1.02,-2.3,1.4,-0.7,3600,3644,,,,,,,,,,,,,,,,,
17246,1469909904932,0,229.4,185.3,45,187.5,,-0.11,0.1,1.08,-2.4,1.5,-0.7,3540,3610,0.99,4,39.543697,-122.335159,63.97,0.191,355.0,9,3,1.5,0,0.0,-1,0.0,0.0,0.0,0
17266,1469909904952,,,,,,,-0.1,0.08,1.06,-2.5,1.0,-0.6,3580,3610,,,,,,,,,,,,,,,,,
17286,1469909904972,,,,,,,-0.05,0.07,1.01,-2.6,0.2,-0.3,3540,3610,,,,,,,,,,,,,,,,,
17306,1469909904998,,,,,,,0.0,0.07,0.99,-2.5,0.2,-0.5,3500,3593,,,,,,,,,,,,,,,,,
