"Interval"|"ms"|0|0|1,"Utc"|"ms"|0|0|1,"FuelLevel"|"F"|0|100|5,"OilTemp"|"F"|0.0|300.0|5,"Coolant"|"F"|0.0|300.0|5,"OilPress"|"PSI"|0|150|10,"EngineTemp"|"F"|0.0|300.0|5,"Battery"|"Volts"|0.0|20.0|1,"AccelX"|"G"|-3.0|3.0|50,"AccelY"|"G"|-3.0|3.0|50,"AccelZ"|"G"|-3.0|3.0|50,"Yaw"|"Deg/Sec"|-300.0|300.0|50,"Pitch"|"Deg/Sec"|-300.0|300.0|50,"Roll"|"Deg/Sec"|-300.0|300.0|50,"RPM"|""|0|10000|50,"Driveshaft"|"RPM"|0|5000|50,"GearRatio"|""|-5.0|5.0|10,"Gear"|""|-1|5|10,"Latitude"|"Degrees"|-180.0|180.0|10,"Longitude"|"Degrees"|-180.0|180.0|10,"Speed"|"MPH"|0.0|150.0|10,"Distance"|"Miles"|0.0|0.0|10,"Altitude"|"Feet"|0.0|4000.0|10,"GPSSats"|""|0|20|10,"GPSQual"|""|0|5|10,"GPSDOP"|""|0.0|20.0|10,"LapCount"|""|0|0|10,"LapTime"|"Min"|0.0|0.0|10,"Sector"|""|0|0|10,"SectorTime"|"Min"|0.0|0.0|10,"PredTime"|"Min"|0.0|0.0|5,"ElapsedTime"|"Min"|0.0|0.0|10,"CurrentLap"|""|0|0|10
367566,1469913554121,,,,,,,0.01,0.09,1.0,-3.0,0.5,-0.2,240,0,,,,,,,,,,,,,,,,,
367586,1469913554141,,,,,,,0.01,0.08,1.0,-2.9,0.4,-0.2,240,0,,,,,,,,,,,,,,,,,
367606,1469913554161,,,,,,,0.0,0.08,1.0,-2.9,0.3,-0.2,260,0,,,,,,,,,,,,,,,,,
367626,1469913554181,,,,,,,0.01,0.09,1.0,-2.9,0.4,-0.2,260,0,,,,,,,,,,,,,,,,,
367646,1469913554201,0,224.2,189.2,0,198.0,,0.0,0.08,0.99,-2.9,0.4,-0.3,260,0,0.0,0,39.540581,-122.332069,0.0,0.227,325.8,10,3,1.3,0,0.0,-1,0.0,0.0,0.0,0
367666,1469913554221,,,,,,,0.0,0.09,0.99,-2.9,0.5,-0.2,400,0,,,,,,,,,,,,,,,,,
367686,1469913554241,,,,,,,0.0,0.09,0.99,-3.0,0.5,-0.3,400,0,,,,,,,,,,,,,,,,,
367706,1469913554261,,,,,,,0.0,0.09,0.99,-3.0,0.5,-0.2,480,0,,,,,,,,,,,,,,,,,
367726,1469913554281,,,,,,,0.0,0.08,0.99,-2.9,0.5,-0.3,480,0,,,,,,,,,,,,,,,,,
367746,1469913554302,,,,0,,,0.0,0.08,0.99,-2.9,0.7,-0.3,480,0,0.0,0,39.540581,-122.332069,0.0,0.227,325.8,10,3,1.3,0,0.0,-1,0.0,,0.0,0
367766,1469913554322,,,,,,,-0.01,0.07,0.98,-2.8,0.5,-0.4,480,0,,,,,,,,,,,,,,,,,
367786,1469913554342,,,,,,,-0.01,0.09,0.99,-2.9,0.7,-0.2,540,0,,,,,,,,,,,,,,,,,
367806,1469913554362,,,,,,,-0.0,0.11,1.0,-3.0,0.4,-0.2,660,0,,,,,,,,,,,,,,,,,
367826,1469913554382,,,,,,,-0.01,0.09,0.98,-2.9,0.6,-0.4,760,0,,,,,,,,,,,,,,,,,
367846,1469913554401,0,224.3,187.6,0,196.6,,-0.02,0.07,0.97,-3.0,0.6,-0.2,760,0,0.0,0,39.540581,-122.332069,0.0,0.227,325.8,10,3,1.3,0,0.0,-1,0.0,0.0,0.0,0
367866,1469913554421,,,,,,,-0.02,0.08,0.97,-3.1,1.0,0.2,840,0,,,,,,,,,,,,,,,,,
367886,1469913554441,,,,,,,0.01,0.1,0.96,-3.1,1.2,0.4,920,0,,,,,,,,,,,,,,,,,
367906,1469913554461,,,,,,,0.02,0.11,0.98,-3.2,1.4,0.3,1000,0,,,,,,,,,,,,,,,,,
367926,1469913554481,,,,,,,0.03,0.14,0.98,-3.3,1.4,0.2,1100,0,,,,,,,,,,,,,,,,,
367946,1469913554502,,,,3,,,0.04,0.14,0.98,-3.3,1.4,-0.1,1100,0,0.0,0,39.540581,-122.332069,0.0,0.227,325.8,10,3,1.3,0,0.0,-1,0.0,,0.0,0
367966,1469913554522,,,,,,,0.03,0.11,0.99,-3.4,1.6,-0.2,1100,0,,,,,,,,,,,,,,,,,
367986,1469913554542,,,,,,,0.03,0.11,0.98,-3.3,1.7,-0.2,1140,0,,,,,,,,,,,,,,,,,
368006,1469913554562,,,,,,,0.02,0.1,0.99,-3.3,1.4,-0.2,1160,0,,,,,,,,,,,,,,,,,
368026,1469913554582,,,,,,,0.02,0.1,1.0,-3.2,1.4,-0.2,1180,0,,,,,,,,,,,,,,,,,
368046,1469913554701,0,224.4,187.5,5,196.7,13.02,0.03,0.1,1.0,-3.2,1.4,-0.2,1200,0,0.0,0,39.540581,-122.332069,0.0,0.227,325.8,10,3,1.3,0,0.0,-1,0.0,0.0,0.0,0
368066,1469913554721,,,,,,,0.02,0.11,1.0,-3.2,1.3,-0.3,1240,0,,,,,,,,,,,,,,,,,
368086,1469913554741,,,,,,,0.02,0.09,1.0,-3.1,1.1,-0.4,1260,0,,,,,,,,,,,,,,,,,
368106,1469913554761,,,,,,,0.01,0.1,0.99,-3.1,0.8,-0.4,1300,0,,,,,,,,,,,,,,,,,
368126,1469913554781,,,,,,,0.01,0.08,0.98,-3.1,0.9,-0.2,1300,0,,,,,,,,,,,,,,,,,
368146,1469913554801,,,,10,,,0.0,0.08,0.99,-3.0,0.9,-0.2,1340,0,0.0,0,39.540581,-122.332069,0.0,0.227,325.8,10,3,1.3,0,0.0,-1,0.0,,0.0,0
368166,1469913554821,,,,,,,0.0,0.1,1.0,-3.0,0.7,-0.2,1320,0,,,,,,,,,,,,,,,,,
368186,1469913554841,,,,,,,0.0,0.08,0.99,-3.0,0.6,-0.2,1380,0,,,,,,,,,,,,,,,,,
368206,1469913554861,,,,,,,-0.0,0.07,0.98,-2.9,0.5,-0.2,1360,0,,,,,,,,,,,,,,,,,
368226,1469913554881,,,,,,,-0.0,0.09,0.99,-2.9,0.4,-0.3,1360,0,,,,,,,,,,,,,,,,,
368246,1469913554801,0,223.3,189.4,17,198.6,,-0.0,0.08,0.98,-3.0,0.4,-0.3,1360,0,0.0,0,39.540581,-122.332069,0.0,0.227,325.8,10,3,1.3,0,0.0,-1,0.0,0.0,0.0,0
368266,1469913554821,,,,,,,-0.0,0.07,0.97,-3.0,0.3,-0.2,1380,0,,,,,,,,,,,,,,,,,
368286,1469913554841,,,,,,,0.0,0.07,0.99,-2.9,0.3,-0.1,1340,0,,,,,,,,,,,,,,,,,
368306,1469913554861,,,,,,,0.0,0.08,0.99,-2.9,0.4,-0.2,1360,0,,,,,,,,,,,,,,,,,
368326,1469913554881,,,,,,,0.01,0.08,0.98,-3.0,0.4,-0.2,1360,0,,,,,,,,,,,,,,,,,
368346,1469913554894,,,,19,,,0.01,0.08,0.99,-3.0,0.5,-0.2,1340,0,0.0,0,39.540581,-122.332069,0.0,0.227,325.8,10,3,1.3,0,0.0,-1,0.0,,0.0,0
368366,1469913554914,,,,,,,0.01,0.08,0.99,-3.0,0.5,-0.2,1340,0,,,,,,,,,,,,,,,,,
368386,1469913554934,,,,,,,0.01,0.08,0.99,-3.0,0.6,-0.2,1300,0,,,,,,,,,,,,,,,,,
368406,1469913554954,,,,,,,0.0,0.08,0.99,-3.0,0.6,-0.2,1280,0,,,,,,,,,,,,,,,,,
368426,1469913554974,,,,,,,-0.0,0.08,0.98,-3.0,0.6,-0.2,1280,0,,,,,,,,,,,,,,,,,
368446,1469913555001,0,223.6,187.7,16,197.1,,0.0,0.08,0.99,-3.0,0.6,-0.2,1260,0,0.0,0,39.540581,-122.332069,0.0,0.227,325.8,10,3,1.3,0,0.0,-1,0.0,0.0,0.0,0
368466,1469913555021,,,,,,,0.0,0.08,0.98,-3.0,0.6,-0.2,1280,0,,,,,,,,,,,,,,,,,
368486,1469913555041,,,,,,,0.0,0.08,0.99,-3.0,0.6,-0.2,1220,0,,,,,,,,,,,,,,,,,
368506,1469913555061,,,,,,,0.0,0.07,0.98,-3.0,0.6,-0.2,1220,0,,,,,,,,,,,,,,,,,
368526,1469913555081,,,,,,,0.0,0.08,0.98,-3.0,0.5,-0.2,1220,0,,,,,,,,,,,,,,,,,
368546,1469913555102,,,,16,,,0.0,0.08,0.98,-3.0,0.4,-0.2,1200,0,0.0,0,39.540581,-122.332069,0.0,0.227,325.8,10,3,1.3,0,0.0,-1,0.0,,0.0,0
368566,1469913555122,,,,,,,-0.0,0.08,0.98,-3.0,0.4,-0.2,1160,0,,,,,,,,,,,,,,,,,
368586,1469913555142,,,,,,,-0.0,0.08,0.98,-3.0,0.3,-0.3,1140,0,,,,,,,,,,,,,,,,,
368606,1469913555162,,,,,,,-0.0,0.08,0.98,-3.1,0.3,-0.2,1140,0,,,,,,,,,,,,,,,,,
368626,1469913555182,,,,,,,-0.0,0.08,0.98,-3.1,0.3,-0.2,1120,0,,,,,,,,,,,,,,,,,
368646,1469913555202,0,222.9,187.3,17,198.3,,-0.0,0.08,0.98,-3.1,0.3,-0.2,1120,0,0.0,0,39.540581,-122.332069,0.0,0.227,325.8,10,3,1.3,0,0.0,-1,0.0,0.0,0.0,0
368666,1469913555222,,,,,,,-0.0,0.08,0.98,-3.1,0.3,-0.2,1100,0,,,,,,,,,,,,,,,,,
368686,1469913555242,,,,,,,-0.01,0.08,0.98,-3.1,0.3,-0.2,1060,0,,,,,,,,,,,,,,,,,
368706,1469913555262,,,,,,,-0.01,0.08,0.98,-3.1,0.2,-0.2,1060,0,,,,,,,,,,,,,,,,,
368726,1469913555282,,,,,,,-0.01,0.08,0.98,-3.0,0.2,-0.2,1020,0,,,,,,,,,,,,,,,,,
368746,1469913555302,,,,17,,,-0.01,0.08,0.98,-3.0,0.2,-0.2,1060,0,0.0,0,39.540581,-122.332069,0.0,0.227,325.8,10,3,1.3,0,0.0,-1,0.0,,0.0,0
368766,1469913555322,,,,,,,-0.01,0.08,0.98,-3.0,0.3,-0.2,980,0,,,,,,,,,,,,,,,,,
368786,1469913555342,,,,,,,-0.01,0.08,0.99,-3.0,0.3,-0.2,1000,0,,,,,,,,,,,,,,,,,
368806,1469913555362,,,,,,,-0.01,0.08,0.99,-3.0,0.4,-0.2,1000,0,,,,,,,,,,,,,,,,,
368826,1469913555382,,,,,,,-0.01,0.08,0.99,-3.0,0.5,-0.2,940,0,,,,,,,,,,,,,,,,,
368846,1469913555501,0,224.6,189.5,12,197.1,,-0.01,0.08,0.99,-3.0,0.6,-0.2,960,0,0.0,0,39.540581,-122.332069,0.0,0.227,325.8,10,3,1.3,0,0.0,-1,0.0,0.0,0.0,0
368866,1469913555521,,,,,,,-0.01,0.07,0.98,-3.0,0.7,-0.2,920,0,,,,,,,,,,,,,,,,,
368886,1469913555541,,,,,,,-0.0,0.07,0.98,-3.0,0.6,-0.3,920,0,,,,,,,,,,,,,,,,,
368906,1469913555561,,,,,,,-0.0,0.07,0.98,-2.9,0.5,-0.3,900,0,,,,,,,,,,,,,,,,,
368926,1469913555581,,,,,,,-0.0,0.07,0.98,-2.9,0.4,-0.3,900,0,,,,,,,,,,,,,,,,,
368946,1469913555601,,,,12,,,-0.01,0.06,0.98,-2.9,0.3,-0.3,840,0,0.0,0,39.540581,-122.332069,0.0,0.227,325.8,10,3,1.3,0,0.0,-1,0.0,,0.0,0
368966,1469913555621,,,,,,,-0.01,0.06,0.98,-2.9,0.3,-0.3,840,0,,,,,,,,,,,,,,,,,
368986,1469913555641,,,,,,,-0.01,0.06,0.98,-3.0,0.3,-0.3,840,0,,,,,,,,,,,,,,,,,
369006,1469913555661,,,,,,,-0.01,0.07,0.98,-3.0,0.3,-0.2,840,0,,,,,,,,,,,,,,,,,
369026,1469913555681,,,,,,,-0.01,0.08,0.98,-3.0,0.3,-0.2,800,0,,,,,,,,,,,,,,,,,
369046,1469913555602,0,223.3,187.4,10,198.2,13.12,-0.01,0.08,0.98,-3.0,0.3,-0.2,780,0,0.0,0,39.540581,-122.332069,0.0,0.227,325.8,10,3,1.3,0,0.0,-1,0.0,0.0,0.0,0
369066,1469913555622,,,,,,,-0.01,0.07,0.98,-3.0,0.3,-0.3,780,0,,,,,,,,,,,,,,,,,
369086,1469913555642,,,,,,,-0.01,0.07,0.98,-3.0,0.4,-0.2,780,0,,,,,,,,,,,,,,,,,
369106,1469913555662,,,,,,,-0.0,0.08,0.98,-3.1,0.4,-0.1,740,0,,,,,,,,,,,,,,,,,
369126,1469913555682,,,,,,,-0.01,0.08,0.98,-3.0,0.4,-0.1,760,0,,,,,,,,,,,,,,,,,
369146,1469913555701,,,,8,,,-0.01,0.08,0.98,-3.0,0.3,-0.2,740,0,0.0,0,39.540581,-122.332069,0.0,0.227,325.8,10,3,1.3,0,0.0,-1,0.0,,0.0,0
369166,1469913555721,,,,,,,-0.01,0.07,0.98,-3.0,0.2,-0.2,740,0,,,,,,,,,,,,,,,,,
369186,1469913555741,,,,,,,-0.0,0.08,0.98,-3.0,0.2,-0.1,740,0,,,,,,,,,,,,,,,,,
369206,1469913555761,,,,,,,-0.01,0.08,0.99,-3.0,0.1,-0.2,740,0,,,,,,,,,,,,,,,,,
369226,1469913555781,,,,,,,-0.0,0.07,0.99,-3.0,0.2,-0.3,720,0,,,,,,,,,,,,,,,,,
369246,1469913555802,0,224.6,189.7,8,197.0,,-0.0,0.07,0.99,-3.0,0.3,-0.2,720,0,0.0,0,39.540581,-122.332069,0.0,0.227,325.8,10,3,1.3,0,0.0,-1,0.0,0.0,0.0,0
369266,1469913555822,,,,,,,-0.0,0.07,0.98,-2.9,0.3,-0.1,700,0,,,,,,,,,,,,,,,,,
369286,1469913555842,,,,,,,-0.0,0.07,0.99,-2.9,0.2,-0.2,700,0,,,,,,,,,,,,,,,,,
369306,1469913555862,,,,,,,-0.01,0.07,0.99,-2.9,0.1,-0.3,700,0,,,,,,,,,,,,,,,,,
369326,1469913555882,,,,,,,-0.01,0.07,0.99,-2.9,0.2,-0.2,700,0,,,,,,,,,,,,,,,,,
369346,1469913555895,,,,7,,,-0.01,0.07,0.98,-2.9,0.2,-0.2,680,0,0.0,0,39.540581,-122.332069,0.0,0.227,325.8,10,3,1.3,0,0.0,-1,0.0,,0.0,0
369366,1469913555915,,,,,,,-0.01,0.07,0.99,-2.9,0.1,-0.4,680,0,,,,,,,,,,,,,,,,,
369386,1469913555935,,,,,,,-0.0,0.07,0.98,-2.9,0.2,-0.3,680,0,,,,,,,,,,,,,,,,,
369406,1469913555955,,,,,,,-0.0,0.08,0.99,-2.9,0.3,-0.2,700,0,,,,,,,,,,,,,,,,,
369426,1469913555975,,,,,,,-0.01,0.07,0.99,-2.9,0.2,-0.3,660,0,,,,,,,,,,,,,,,,,
369446,1469913556001,0,223.6,188.7,8,198.2,,-0.01,0.08,0.99,-2.9,0.3,-0.2,660,0,0.0,0,39.540581,-122.332069,0.0,0.227,325.8,10,3,1.3,0,0.0,-1,0.0,0.0,0.0,0
369466,1469913556021,,,,,,,-0.01,0.07,0.99,-3.0,0.3,-0.2,700,0,,,,,,,,,,,,,,,,,
369486,1469913556041,,,,,,,-0.01,0.07,0.98,-2.9,0.3,-0.2,680,0,,,,,,,,,,,,,,,,,
369506,1469913556061,,,,,,,-0.01,0.07,0.98,-2.9,0.4,-0.2,680,0,,,,,,,,,,,,,,,,,
369526,1469913556081,,,,,,,-0.01,0.08,0.99,-3.0,0.4,-0.1,680,0,,,,,,,,,,,,,,,,,
369546,1469913556101,,,,7,,,-0.01,0.08,0.99,-3.0,0.3,-0.2,680,0,0.0,0,39.540581,-122.332069,0.0,0.227,325.8,10,3,1.3,0,0.0,-1,0.0,,0.0,0
369566,1469913556121,,,,,,,-0.02,0.08,0.99,-3.0,0.2,-0.3,680,0,,,,,,,,,,,,,,,,,
369586,1469913556141,,,,,,,-0.01,0.09,0.99,-3.0,0.1,-0.2,680,0,,,,,,,,,,,,,,,,,
369606,1469913556161,,,,,,,-0.02,0.08,0.98,-2.9,0.0,-0.2,660,0,,,,,,,,,,,,,,,,,
369626,1469913556181,,,,,,,-0.02,0.08,0.98,-3.0,0.2,-0.3,660,0,,,,,,,,,,,,,,,,,
369646,1469913556301,0,223.6,188.7,8,196.7,,-0.02,0.08,0.99,-3.0,0.1,-0.2,680,0,0.0,0,39.540581,-122.332069,0.0,0.227,325.8,10,3,1.3,0,0.0,-1,0.0,0.0,0.0,0
369666,1469913556321,,,,,,,-0.02,0.07,0.98,-3.0,0.1,-0.2,680,0,,,,,,,,,,,,,,,,,
369686,1469913556341,,,,,,,-0.01,0.07,0.98,-2.9,0.1,-0.3,680,0,,,,,,,,,,,,,,,,,
369706,1469913556361,,,,,,,-0.01,0.08,0.99,-3.0,0.1,-0.2,680,0,,,,,,,,,,,,,,,,,
369726,1469913556381,,,,,,,-0.01,0.08,0.98,-3.0,0.3,-0.1,700,0,,,,,,,,,,,,,,,,,
369746,1469913556401,,,,7,,,-0.01,0.07,0.98,-2.9,0.2,-0.2,700,0,0.0,0,39.540581,-122.332069,0.0,0.227,325.8,10,3,1.3,0,0.0,-1,0.0,,0.0,0
369766,1469913556421,,,,,,,-0.01,0.06,0.98,-2.9,0.3,-0.2,700,0,,,,,,,,,,,,,,,,,
369786,1469913556441,,,,,,,-0.01,0.07,0.98,-2.9,0.3,-0.1,680,0,,,,,,,,,,,,,,,,,
369806,1469913556461,,,,,,,-0.01,0.07,0.98,-2.9,0.2,-0.2,700,0,,,,,,,,,,,,,,,,,
369826,1469913556481,,,,,,,-0.01,0.06,0.98,-2.8,0.3,-0.2,700,0,,,,,,,,,,,,,,,,,
369846,1469913556401,0,223.3,188.4,8,198.1,,-0.01,0.07,0.98,-2.9,0.3,-0.2,700,0,0.0,0,39.540581,-122.332069,0.0,0.227,325.8,10,3,1.3,0,0.0,-1,0.0,0.0,0.0,0
369866,1469913556421,,,,,,,-0.01,0.07,0.98,-2.9,0.2,-0.2,700,0,,,,,,,,,,,,,,,,,
369886,1469913556441,,,,,,,-0.01,0.07,0.97,-2.9,0.2,-0.3,720,0,,,,,,,,,,,,,,,,,
369906,1469913556461,,,,,,,-0.01,0.08,0.98,-2.9,0.2,-0.3,720,0,,,,,,,,,,,,,,,,,
369926,1469913556481,,,,,,,-0.01,0.08,0.98,-2.9,0.3,-0.1,720,0,,,,,,,,,,,,,,,,,
369946,1469913556501,,,,7,,,-0.01,0.07,0.98,-2.8,0.3,-0.2,700,0,0.0,0,39.540581,-122.332069,0.0,0.227,325.8,10,3,1.3,0,0.0,-1,0.0,,0.0,0
369966,1469913556521,,,,,,,-0.01,0.06,0.98,-2.8,0.3,-0.3,740,0,,,,,,,,,,,,,,,,,
369986,1469913556541,,,,,,,-0.01,0.07,0.98,-2.9,0.2,-0.3,740,0,,,,,,,,,,,,,,,,,
370006,1469913556561,,,,,,,-0.01,0.07,0.98,-2.9,0.2,-0.2,740,0,,,,,,,,,,,,,,,,,
370026,1469913556581,,,,,,,-0.01,0.07,0.98,-2.8,0.2,-0.3,740,0,,,,,,,,,,,,,,,,,
370046,1469913556601,1,223.7,188.5,8,196.8,13.1,-0.02,0.07,0.98,-2.9,0.2,-0.4,740,0,0.0,0,39.540581,-122.332069,0.0,0.227,325.8,10,3,1.3,0,0.0,-1,0.0,0.0,0.0,0
370066,1469913556621,,,,,,,-0.01,0.08,0.98,-2.9,0.1,-0.3,740,0,,,,,,,,,,,,,,,,,
370086,1469913556641,,,,,,,-0.01,0.08,0.98,-2.9,0.1,-0.2,740,0,,,,,,,,,,,,,,,,,
370106,1469913556661,,,,,,,-0.02,0.08,0.98,-2.9,0.0,-0.3,720,0,,,,,,,,,,,,,,,,,
370126,1469913556681,,,,,,,-0.02,0.08,0.98,-3.0,0.1,-0.4,740,0,,,,,,,,,,,,,,,,,
370146,1469913556701,,,,8,,,-0.01,0.09,0.97,-3.0,0.0,-0.3,740,0,0.0,0,39.540581,-122.332069,0.0,0.227,325.8,10,3,1.3,0,0.0,-1,0.0,,0.0,0
370166,1469913556721,,,,,,,-0.01,0.09,0.98,-3.1,0.1,-0.2,740,0,,,,,,,,,,,,,,,,,
370186,1469913556741,,,,,,,-0.01,0.09,0.98,-3.0,0.0,-0.3,760,0,,,,,,,,,,,,,,,,,
370206,1469913556761,,,,,,,-0.02,0.09,0.98,-3.0,-0.0,-0.3,760,0,,,,,,,,,,,,,,,,,
370226,1469913556781,,,,,,,-0.01,0.09,0.98,-3.1,0.0,-0.3,760,0,,,,,,,,,,,,,,,,,
370246,1469913556801,0,224.5,190.1,7,196.3,,-0.01,0.1,0.98,-3.2,0.1,-0.2,760,0,0.0,0,39.540581,-122.332069,0.0,0.227,325.8,10,3,1.3,0,0.0,-1,0.0,0.0,0.0,0
370266,1469913556821,,,,,,,-0.01,0.1,0.98,-3.2,0.1,-0.2,740,0,,,,,,,,,,,,,,,,,
370286,1469913556841,,,,,,,-0.01,0.09,0.99,-3.2,0.1,-0.3,760,0,,,,,,,,,,,,,,,,,
370306,1469913556861,,,,,,,-0.0,0.1,0.99,-3.2,0.1,-0.3,760,0,,,,,,,,,,,,,,,,,
370326,1469913556881,,,,,,,-0.0,0.09,0.99,-3.2,0.2,-0.2,760,0,,,,,,,,,,,,,,,,,
370346,1469913556894,,,,9,,,-0.0,0.09,0.99,-3.1,0.1,-0.2,760,0,0.0,0,39.540581,-122.332069,0.0,0.227,325.8,10,3,1.3,0,0.0,-1,0.0,,0.0,0
370366,1469913556914,,,,,,,-0.01,0.09,0.99,-3.1,0.0,-0.3,760,0,,,,,,,,,,,,,,,,,
370386,1469913556934,,,,,,,-0.01,0.08,0.98,-3.0,0.1,-0.3,760,0,,,,,,,,,,,,,,,,,
370406,1469913556954,,,,,,,-0.01,0.07,0.98,-3.1,0.1,-0.2,760,0,,,,,,,,,,,,,,,,,
370426,1469913556974,,,,,,,-0.01,0.08,0.98,-3.0,0.1,-0.2,760,0,,,,,,,,,,,,,,,,,
370446,1469913557100,0,223.1,188.7,9,197.8,,-0.01,0.08,0.98,-3.0,0.0,-0.3,760,0,0.0,0,39.540581,-122.332069,0.0,0.227,325.8,10,3,1.3,0,0.0,-1,0.0,0.0,0.0,0
370466,1469913557120,,,,,,,-0.01,0.07,0.98,-2.9,0.1,-0.3,760,0,,,,,,,,,,,,,,,,,
370486,1469913557140,,,,,,,-0.01,0.07,0.98,-3.0,0.0,-0.3,760,0,,,,,,,,,,,,,,,,,
370506,1469913557160,,,,,,,-0.01,0.08,0.98,-3.0,0.1,-0.2,760,0,,,,,,,,,,,,,,,,,
370526,1469913557180,,,,,,,-0.01,0.08,0.98,-3.0,0.1,-0.2,760,0,,,,,,,,,,,,,,,,,
370546,1469913557200,,,,8,,,-0.01,0.08,0.99,-3.0,0.0,-0.3,760,0,0.0,0,39.540581,-122.332069,0.0,0.227,325.8,10,3,1.3,0,0.0,-1,0.0,,0.0,0
370566,1469913557220,,,,,,,-0.01,0.07,0.98,-3.0,0.1,-0.3,760,0,,,,,,,,,,,,,,,,,
370586,1469913557240,,,,,,,-0.01,0.08,0.98,-3.0,0.2,-0.1,740,0,,,,,,,,,,,,,,,,,
370606,1469913557260,,,,,,,-0.0,0.08,0.98,-3.0,0.1,-0.1,760,0,,,,,,,,,,,,,,,,,
370626,1469913557280,,,,,,,-0.01,0.08,0.98,-2.9,0.1,-0.3,760,0,,,,,,,,,,,,,,,,,
370646,1469913557201,0,224.5,190.4,8,195.9,,-0.01,0.07,0.98,-2.9,0.1,-0.3,760,0,0.0,0,39.540581,-122.332069,0.0,0.227,325.8,10,3,1.3,0,0.0,-1,0.0,0.0,0.0,0
370666,1469913557221,,,,,,,-0.01,0.07,0.97,-2.9,0.2,-0.2,760,0,,,,,,,,,,,,,,,,,
370686,1469913557241,,,,,,,-0.01,0.07,0.97,-2.9,0.2,-0.2,760,0,,,,,,,,,,,,,,,,,
370706,1469913557261,,,,,,,-0.0,0.08,0.98,-2.9,0.2,-0.2,760,0,,,,,,,,,,,,,,,,,
370726,1469913557281,,,,,,,-0.01,0.07,0.98,-3.0,0.3,-0.3,740,0,,,,,,,,,,,,,,,,,
370746,1469913557301,,,,10,,,-0.0,0.07,0.98,-3.0,0.3,-0.2,740,0,0.0,0,39.540581,-122.332069,0.0,0.227,325.8,10,3,1.3,0,0.0,-1,0.0,,0.0,0
370766,1469913557321,,,,,,,0.0,0.07,0.98,-3.0,0.3,-0.1,760,0,,,,,,,,,,,,,,,,,
370786,1469913557341,,,,,,,0.0,0.08,0.98,-3.1,0.3,-0.1,760,0,,,,,,,,,,,,,,,,,
370806,1469913557361,,,,,,,-0.0,0.08,0.99,-3.0,0.2,-0.2,760,0,,,,,,,,,,,,,,,,,
370826,1469913557381,,,,,,,0.0,0.08,0.98,-3.1,0.2,-0.2,760,0,,,,,,,,,,,,,,,,,
370846,1469913557401,0,223.6,189.3,9,196.2,,-0.0,0.08,0.99,-3.1,0.2,-0.1,760,0,0.0,0,39.540581,-122.332069,0.0,0.227,325.8,10,3,1.3,0,0.0,-1,0.0,0.0,0.0,0
370866,1469913557421,,,,,,,-0.0,0.08,0.99,-3.1,0.2,-0.1,760,0,,,,,,,,,,,,,,,,,
370886,1469913557441,,,,,,,-0.01,0.08,0.99,-3.0,0.1,-0.2,740,0,,,,,,,,,,,,,,,,,
370906,1469913557461,,,,,,,-0.01,0.07,0.99,-3.0,0.1,-0.2,740,0,,,,,,,,,,,,,,,,,
370926,1469913557481,,,,,,,-0.01,0.06,0.98,-2.9,0.2,-0.2,760,0,,,,,,,,,,,,,,,,,
370946,1469913557501,,,,7,,,-0.01,0.07,0.98,-2.9,0.3,-0.2,760,0,0.0,0,39.540581,-122.332069,0.0,0.227,325.8,10,3,1.3,0,0.0,-1,0.0,,0.0,0
370966,1469913557521,,,,,,,-0.01,0.07,0.98,-2.9,0.3,-0.3,760,0,,,,,,,,,,,,,,,,,
370986,1469913557541,,,,,,,-0.01,0.06,0.98,-2.9,0.3,-0.2,760,0,,,,,,,,,,,,,,,,,
371006,1469913557561,,,,,,,-0.01,0.06,0.98,-2.9,0.3,-0.2,760,0,,,,,,,,,,,,,,,,,
371026,1469913557581,,,,,,,-0.01,0.08,0.98,-2.9,0.3,-0.2,760,0,,,,,,,,,,,,,,,,,
371046,1469913557601,0,224.1,190.0,8,196.4,13.2,-0.01,0.08,0.98,-3.0,0.2,-0.2,720,0,0.0,0,39.540581,-122.332069,0.0,0.227,325.8,10,3,1.3,0,0.0,-1,0.0,0.0,0.0,0
371066,1469913557621,,,,,,,-0.01,0.08,0.98,-2.9,0.2,-0.3,760,0,,,,,,,,,,,,,,,,,
371086,1469913557641,,,,,,,-0.01,0.08,0.98,-3.0,0.2,-0.2,760,0,,,,,,,,,,,,,,,,,
371106,1469913557661,,,,,,,-0.01,0.08,0.98,-3.0,0.2,-0.1,740,0,,,,,,,,,,,,,,,,,
371126,1469913557681,,,,,,,-0.01,0.08,0.99,-3.0,0.1,-0.2,740,0,,,,,,,,,,,,,,,,,
371146,1469913557701,,,,9,,,-0.01,0.08,0.99,-3.0,0.1,-0.2,740,0,0.0,0,39.540581,-122.332069,0.0,0.227,325.8,10,3,1.3,0,0.0,-1,0.0,,0.0,0
371166,1469913557721,,,,,,,-0.01,0.08,0.99,-3.1,0.2,-0.2,740,0,,,,,,,,,,,,,,,,,
371186,1469913557741,,,,,,,-0.01,0.09,0.99,-3.1,0.3,-0.1,740,0,,,,,,,,,,,,,,,,,
371206,1469913557761,,,,,,,-0.01,0.09,0.99,-3.1,0.2,-0.2,740,0,,,,,,,,,,,,,,,,,
371226,1469913557781,,,,,,,-0.01,0.08,0.99,-3.1,0.3,-0.3,740,0,,,,,,,,,,,,,,,,,
371246,1469913557901,0,224.2,190.6,9,197.0,,-0.01,0.09,0.99,-3.1,0.3,-0.3,740,0,0.0,0,39.540581,-122.332069,0.0,0.227,325.8,10,3,1.3,0,0.0,-1,0.0,0.0,0.0,0
371266,1469913557921,,,,,,,-0.01,0.09,0.99,-3.2,0.3,-0.2,740,0,,,,,,,,,,,,,,,,,
371286,1469913557941,,,,,,,-0.01,0.09,1.0,-3.1,0.3,-0.3,740,0,,,,,,,,,,,,,,,,,
371306,1469913557961,,,,,,,-0.01,0.09,1.0,-3.1,0.2,-0.3,740,0,,,,,,,,,,,,,,,,,
371326,1469913557981,,,,,,,-0.01,0.09,0.99,-3.2,0.3,-0.2,740,0,,,,,,,,,,,,,,,,,
371346,1469913558001,,,,10,,,-0.01,0.09,0.99,-3.2,0.4,-0.2,740,0,0.0,0,39.540581,-122.332069,0.0,0.227,325.8,10,3,1.3,0,0.0,-1,0.0,,0.0,0
371366,1469913558021,,,,,,,-0.01,0.09,1.0,-3.1,0.4,-0.2,720,0,,,,,,,,,,,,,,,,,
371386,1469913558041,,,,,,,-0.01,0.09,1.0,-3.1,0.4,-0.3,740,0,,,,,,,,,,,,,,,,,
371406,1469913558061,,,,,,,-0.01,0.09,0.99,-3.1,0.4,-0.3,740,0,,,,,,,,,,,,,,,,,
371426,1469913558081,,,,,,,-0.01,0.09,0.99,-3.1,0.3,-0.2,740,0,,,,,,,,,,,,,,,,,
371446,1469913558000,0,223.3,189.3,8,196.1,,-0.01,0.09,1.0,-3.1,0.2,-0.3,740,0,0.0,0,39.540581,-122.332069,0.0,0.227,325.8,10,3,1.3,0,0.0,-1,0.0,0.0,0.0,0
371466,1469913558020,,,,,,,-0.01,0.09,1.0,-3.2,0.2,-0.3,740,0,,,,,,,,,,,,,,,,,
371486,1469913558040,,,,,,,-0.01,0.09,1.0,-3.2,0.3,-0.2,740,0,,,,,,,,,,,,,,,,,
371506,1469913558060,,,,,,,-0.01,0.1,1.0,-3.2,0.3,-0.1,740,0,,,,,,,,,,,,,,,,,
371526,1469913558080,,,,,,,-0.0,0.1,1.0,-3.2,0.3,-0.2,720,0,,,,,,,,,,,,,,,,,
371546,1469913558101,,,,9,,,-0.0,0.09,1.0,-3.2,0.3,-0.3,740,0,0.0,0,39.540581,-122.332069,0.0,0.227,325.8,10,3,1.3,0,0.0,-1,0.0,,0.0,0
371566,1469913558121,,,,,,,-0.0,0.1,0.99,-3.2,0.3,-0.2,740,0,,,,,,,,,,,,,,,,,
371586,1469913558141,,,,,,,-0.01,0.1,0.99,-3.3,0.3,-0.1,740,0,,,,,,,,,,,,,,,,,
371606,1469913558161,,,,,,,-0.01,0.1,0.99,-3.2,0.3,-0.2,740,0,,,,,,,,,,,,,,,,,
371626,1469913558181,,,,,,,-0.01,0.09,1.0,-3.2,0.2,-0.3,740,0,,,,,,,,,,,,,,,,,
371646,1469913558201,0,223.4,189.6,8,195.2,,-0.0,0.1,0.99,-3.3,0.3,-0.2,740,0,0.0,0,39.540581,-122.332069,0.0,0.227,325.8,10,3,1.3,0,0.0,-1,0.0,0.0,0.0,0
371666,1469913558221,,,,,,,-0.0,0.1,0.99,-3.3,0.2,-0.1,740,0,,,,,,,,,,,,,,,,,
371686,1469913558241,,,,,,,-0.01,0.1,0.99,-3.2,0.1,-0.2,720,0,,,,,,,,,,,,,,,,,
371706,1469913558261,,,,,,,-0.01,0.1,0.99,-3.2,0.0,-0.2,720,0,,,,,,,,,,,,,,,,,
371726,1469913558281,,,,,,,-0.0,0.1,0.99,-3.2,0.1,-0.1,740,0,,,,,,,,,,,,,,,,,
371746,1469913558301,,,,7,,,-0.01,0.1,0.98,-3.2,0.1,-0.1,740,0,0.0,0,39.540581,-122.332069,0.0,0.227,325.8,10,3,1.3,0,0.0,-1,0.0,,0.0,0
371766,1469913558321,,,,,,,-0.01,0.1,0.98,-3.2,0.1,-0.2,740,0,,,,,,,,,,,,,,,,,
371786,1469913558341,,,,,,,-0.01,0.1,0.98,-3.2,0.1,-0.2,740,0,,,,,,,,,,,,,,,,,
371806,1469913558361,,,,,,,-0.0,0.1,0.99,-3.2,0.1,-0.1,740,0,,,,,,,,,,,,,,,,,
371826,1469913558381,,,,,,,-0.0,0.1,0.98,-3.2,0.1,-0.1,740,0,,,,,,,,,,,,,,,,,
371846,1469913558401,0,223.2,189.5,10,195.7,,-0.01,0.09,0.98,-3.1,-0.1,-0.2,720,0,0.0,0,39.540581,-122.332069,0.0,0.227,325.8,10,3,1.3,0,0.0,-1,0.0,0.0,0.0,0
371866,1469913558421,,,,,,,-0.01,0.08,0.98,-3.0,-0.2,-0.2,720,0,,,,,,,,,,,,,,,,,
371886,1469913558441,,,,,,,-0.01,0.08,0.98,-3.0,-0.1,-0.2,740,0,,,,,,,,,,,,,,,,,
371906,1469913558461,,,,,,,-0.01,0.08,0.98,-3.0,0.0,-0.1,740,0,,,,,,,,,,,,,,,,,
371926,1469913558481,,,,,,,-0.01,0.07,0.98,-2.9,0.0,-0.2,720,0,,,,,,,,,,,,,,,,,
371946,1469913558497,,,,9,,,-0.01,0.07,0.98,-2.9,0.1,-0.2,720,0,0.0,0,39.540581,-122.332069,0.0,0.227,325.8,10,3,1.3,0,0.0,-1,0.0,,0.0,0
371966,1469913558517,,,,,,,-0.01,0.07,0.98,-2.8,0.1,-0.1,740,0,,,,,,,,,,,,,,,,,
371986,1469913558537,,,,,,,-0.01,0.07,0.98,-2.8,0.1,-0.1,740,0,,,,,,,,,,,,,,,,,
372006,1469913558557,,,,,,,-0.01,0.07,0.98,-2.8,0.0,-0.2,720,0,,,,,,,,,,,,,,,,,
372026,1469913558577,,,,,,,-0.02,0.07,0.98,-2.8,0.1,-0.2,720,0,,,,,,,,,,,,,,,,,
372046,1469913558701,0,224.4,190.9,9,196.8,13.25,-0.01,0.07,0.98,-2.8,0.1,-0.1,740,0,0.0,0,39.540581,-122.332069,0.0,0.227,325.8,10,3,1.3,0,0.0,-1,0.0,0.0,0.0,0
372066,1469913558721,,,,,,,-0.01,0.07,0.98,-2.8,0.2,-0.2,720,0,,,,,,,,,,,,,,,,,
372086,1469913558741,,,,,,,-0.01,0.07,0.99,-2.8,0.3,-0.3,740,0,,,,,,,,,,,,,,,,,
372106,1469913558761,,,,,,,-0.01,0.08,0.99,-2.9,0.3,-0.2,740,0,,,,,,,,,,,,,,,,,
372126,1469913558781,,,,,,,-0.01,0.08,0.99,-2.9,0.3,-0.1,740,0,,,,,,,,,,,,,,,,,
372146,1469913558801,,,,8,,,-0.01,0.08,0.99,-2.9,0.4,-0.2,740,0,0.0,0,39.540581,-122.332069,0.0,0.227,325.8,10,3,1.3,0,0.0,-1,0.0,,0.0,0
372166,1469913558821,,,,,,,-0.01,0.08,0.99,-2.9,0.4,-0.3,740,0,,,,,,,,,,,,,,,,,
372186,1469913558841,,,,,,,-0.01,0.08,0.99,-3.0,0.5,-0.2,720,0,,,,,,,,,,,,,,,,,
372206,1469913558861,,,,,,,-0.01,0.09,0.99,-3.1,0.4,-0.2,740,0,,,,,,,,,,,,,,,,,
372226,1469913558881,,,,,,,-0.01,0.08,0.99,-3.0,0.4,-0.2,720,0,,,,,,,,,,,,,,,,,
372246,1469913558801,0,223.4,189.8,7,195.0,,-0.01,0.09,0.99,-3.0,0.4,-0.3,720,0,0.0,0,39.540581,-122.332069,0.0,0.227,325.8,10,3,1.3,0,0.0,-1,0.0,0.0,0.0,0
372266,1469913558821,,,,,,,-0.0,0.09,0.99,-3.1,0.4,-0.1,720,0,,,,,,,,,,,,,,,,,
372286,1469913558841,,,,,,,-0.01,0.09,0.98,-3.1,0.3,-0.1,720,0,,,,,,,,,,,,,,,,,
372306,1469913558861,,,,,,,-0.01,0.08,0.98,-3.0,0.2,-0.3,720,0,,,,,,,,,,,,,,,,,
372326,1469913558881,,,,,,,-0.01,0.08,0.98,-3.0,0.2,-0.2,720,0,,,,,,,,,,,,,,,,,
372346,1469913558894,,,,8,,,-0.0,0.08,0.98,-3.0,0.2,-0.1,700,0,0.0,0,39.540581,-122.332069,0.0,0.227,325.8,10,3,1.3,0,0.0,-1,0.0,,0.0,0
372366,1469913558914,,,,,,,-0.0,0.08,0.98,-2.9,0.2,-0.2,720,0,,,,,,,,,,,,,,,,,
372386,1469913558934,,,,,,,-0.01,0.07,0.98,-2.9,0.2,-0.2,720,0,,,,,,,,,,,,,,,,,
372406,1469913558954,,,,,,,-0.01,0.07,0.98,-2.9,0.2,-0.2,720,0,,,,,,,,,,,,,,,,,
372426,1469913558974,,,,,,,-0.01,0.07,0.98,-2.9,0.2,-0.1,720,0,,,,,,,,,,,,,,,,,
372446,1469913559001,0,224.2,190.8,8,196.3,,-0.01,0.08,0.98,-2.9,0.2,-0.2,720,0,0.0,0,39.540581,-122.332069,0.0,0.227,325.8,10,3,1.3,0,0.0,-1,0.0,0.0,0.0,0
372466,1469913559021,,,,,,,-0.01,0.08,0.98,-2.9,0.2,-0.3,720,0,,,,,,,,,,,,,,,,,
372486,1469913559041,,,,,,,-0.01,0.08,0.98,-3.0,0.2,-0.1,720,0,,,,,,,,,,,,,,,,,
372506,1469913559061,,,,,,,-0.01,0.08,0.98,-3.0,0.2,-0.1,720,0,,,,,,,,,,,,,,,,,
372526,1469913559081,,,,,,,-0.02,0.08,0.98,-3.0,0.1,-0.3,720,0,,,,,,,,,,,,,,,,,
372546,1469913559101,,,,8,,,-0.01,0.08,0.98,-3.0,0.2,-0.3,720,0,0.0,0,39.540581,-122.332069,0.0,0.227,325.8,10,3,1.3,0,0.0,-1,0.0,,0.0,0
372566,1469913559121,,,,,,,-0.01,0.08,0.98,-3.1,0.2,-0.2,720,0,,,,,,,,,,,,,,,,,
372586,1469913559141,,,,,,,-0.01,0.07,0.98,-3.0,0.1,-0.1,720,0,,,,,,,,,,,,,,,,,
372606,1469913559161,,,,,,,-0.02,0.06,0.98,-3.0,0.0,-0.2,720,0,,,,,,,,,,,,,,,,,
372626,1469913559181,,,,,,,-0.01,0.06,0.98,-2.9,0.1,-0.2,720,0,,,,,,,,,,,,,,,,,
372646,1469913559201,0,223.4,189.0,9,194.5,,-0.01,0.06,0.98,-2.9,0.2,-0.2,720,0,0.0,0,39.540581,-122.332069,0.0,0.227,325.8,10,3,1.3,0,0.0,-1,0.0,0.0,0.0,0
372666,1469913559221,,,,,,,-0.01,0.06,0.99,-2.8,0.3,-0.2,720,0,,,,,,,,,,,,,,,,,
372686,1469913559241,,,,,,,-0.01,0.06,0.99,-2.8,0.4,-0.3,720,0,,,,,,,,,,,,,,,,,
372706,1469913559261,,,,,,,-0.01,0.06,0.98,-2.8,0.3,-0.2,720,0,,,,,,,,,,,,,,,,,
372726,1469913559281,,,,,,,-0.01,0.06,0.98,-2.9,0.3,-0.2,720,0,,,,,,,,,,,,,,,,,
372746,1469913559301,,,,8,,,-0.01,0.06,0.98,-2.9,0.3,-0.3,720,0,0.0,0,39.540581,-122.332069,0.0,0.227,325.8,10,3,1.3,0,0.0,-1,0.0,,0.0,0
372766,1469913559321,,,,,,,-0.01,0.06,0.99,-2.9,0.4,-0.3,720,0,,,,,,,,,,,,,,,,,
372786,1469913559341,,,,,,,-0.01,0.07,0.99,-3.0,0.4,-0.1,720,0,,,,,,,,,,,,,,,,,
372806,1469913559361,,,,,,,-0.01,0.08,0.98,-3.0,0.3,-0.1,720,0,,,,,,,,,,,,,,,,,
372826,1469913559381,,,,,,,-0.01,0.07,0.98,-3.0,0.1,-0.3,720,0,,,,,,,,,,,,,,,,,
372846,1469913559501,0,223.3,190.1,9,196.0,,-0.01,0.07,0.98,-3.0,0.1,-0.2,720,0,0.0,0,39.540581,-122.332069,0.0,0.227,325.8,10,3,1.3,0,0.0,-1,0.0,0.0,0.0,0
372866,1469913559521,,,,,,,-0.01,0.07,0.98,-3.0,0.2,-0.1,720,0,,,,,,,,,,,,,,,,,
372886,1469913559541,,,,,,,-0.01,0.07,0.98,-3.0,0.2,-0.1,720,0,,,,,,,,,,,,,,,,,
372906,1469913559561,,,,,,,-0.01,0.07,0.98,-2.9,0.2,-0.2,720,0,,,,,,,,,,,,,,,,,
372926,1469913559581,,,,,,,-0.01,0.07,0.98,-2.9,0.2,-0.2,720,0,,,,,,,,,,,,,,,,,
372946,1469913559601,,,,8,,,-0.01,0.07,0.98,-2.9,0.3,-0.1,720,0,0.0,0,39.540581,-122.332069,0.0,0.227,325.8,10,3,1.3,0,0.0,-1,0.0,,0.0,0
372966,1469913559621,,,,,,,-0.01,0.07,0.99,-2.9,0.3,-0.2,720,0,,,,,,,,,,,,,,,,,
372986,1469913559641,,,,,,,-0.01,0.07,0.99,-2.9,0.5,-0.3,720,0,,,,,,,,,,,,,,,,,
373006,1469913559661,,,,,,,-0.01,0.07,0.99,-3.0,0.5,-0.2,720,0,,,,,,,,,,,,,,,,,
373026,1469913559681,,,,,,,-0.01,0.08,0.98,-3.0,0.4,-0.1,720,0,,,,,,,,,,,,,,,,,
373046,1469913559601,0,222.9,189.6,9,195.1,13.25,-0.01,0.08,0.98,-3.0,0.3,-0.2,720,0,0.0,0,39.540581,-122.332069,0.0,0.227,325.8,10,3,1.3,0,0.0,-1,0.0,0.0,0.0,0
373066,1469913559621,,,,,,,-0.0,0.08,0.98,-3.0,0.3,-0.3,720,0,,,,,,,,,,,,,,,,,
373086,1469913559641,,,,,,,0.0,0.08,0.98,-3.1,0.3,-0.1,720,0,,,,,,,,,,,,,,,,,
373106,1469913559661,,,,,,,-0.0,0.08,0.98,-3.1,0.3,-0.1,720,0,,,,,,,,,,,,,,,,,
373126,1469913559681,,,,,,,-0.01,0.07,0.98,-3.0,0.2,-0.2,720,0,,,,,,,,,,,,,,,,,
373146,1469913559701,,,,8,,,0.0,0.07,0.98,-3.0,0.2,-0.2,720,0,0.0,0,39.540581,-122.332069,0.0,0.227,325.8,10,3,1.3,0,0.0,-1,0.0,,0.0,0
373166,1469913559721,,,,,,,0.0,0.07,0.98,-2.9,0.2,-0.1,700,0,,,,,,,,,,,,,,,,,
373186,1469913559741,,,,,,,0.0,0.07,0.98,-2.9,0.2,-0.2,720,0,,,,,,,,,,,,,,,,,
373206,1469913559761,,,,,,,-0.01,0.07,0.99,-2.9,0.2,-0.2,720,0,,,,,,,,,,,,,,,,,
373226,1469913559781,,,,,,,-0.01,0.07,0.98,-2.9,0.2,-0.1,720,0,,,,,,,,,,,,,,,,,
373246,1469913559801,0,223.9,190.8,8,196.0,,-0.0,0.07,0.98,-2.9,0.3,-0.2,720,0,0.0,0,39.540581,-122.332069,0.0,0.227,325.8,10,3,1.3,0,0.0,-1,0.0,0.0,0.0,0
373266,1469913559821,,,,,,,-0.01,0.08,0.98,-2.9,0.2,-0.3,720,0,,,,,,,,,,,,,,,,,
373286,1469913559841,,,,,,,-0.01,0.08,0.98,-3.0,0.2,-0.3,720,0,,,,,,,,,,,,,,,,,
373306,1469913559861,,,,,,,-0.0,0.08,0.98,-3.0,0.1,-0.2,720,0,,,,,,,,,,,,,,,,,
373326,1469913559881,,,,,,,-0.01,0.08,0.98,-3.0,0.1,-0.1,720,0,,,,,,,,,,,,,,,,,
373346,1469913559894,,,,9,,,-0.01,0.08,0.98,-3.0,0.1,-0.3,720,0,0.0,0,39.540581,-122.332069,0.0,0.227,325.8,10,3,1.3,0,0.0,-1,0.0,,0.0,0
373366,1469913559914,,,,,,,-0.01,0.08,0.99,-3.0,0.2,-0.3,720,0,,,,,,,,,,,,,,,,,
373386,1469913559934,,,,,,,-0.0,0.07,0.99,-3.0,0.2,-0.2,720,0,,,,,,,,,,,,,,,,,
373406,1469913559954,,,,,,,-0.01,0.07,0.99,-3.0,0.2,-0.2,720,0,,,,,,,,,,,,,,,,,
373426,1469913559974,,,,,,,-0.01,0.07,0.99,-2.9,0.2,-0.3,720,0,,,,,,,,,,,,,,,,,
373446,1469913560002,0,224.2,191.0,8,195.9,,-0.01,0.07,0.99,-3.0,0.3,-0.2,720,0,0.0,0,39.540581,-122.332069,0.0,0.227,325.8,10,3,1.3,0,0.0,-1,0.0,0.0,0.0,0
373466,1469913560022,,,,,,,-0.01,0.07,0.98,-3.0,0.3,-0.2,720,0,,,,,,,,,,,,,,,,,
373486,1469913560042,,,,,,,-0.0,0.07,0.99,-3.0,0.3,-0.3,700,0,,,,,,,,,,,,,,,,,
373506,1469913560062,,,,,,,-0.0,0.08,0.99,-3.0,0.3,-0.3,700,0,,,,,,,,,,,,,,,,,
373526,1469913560082,,,,,,,-0.01,0.08,0.99,-3.0,0.3,-0.2,720,0,,,,,,,,,,,,,,,,,
373546,1469913560102,,,,10,,,-0.01,0.08,0.99,-3.0,0.2,-0.2,700,0,0.0,0,39.540581,-122.332069,0.0,0.227,325.8,10,3,1.3,0,0.0,-1,0.0,,0.0,0
373566,1469913560122,,,,,,,-0.01,0.08,0.99,-3.0,0.1,-0.3,720,0,,,,,,,,,,,,,,,,,
373586,1469913560142,,,,,,,-0.0,0.07,0.99,-3.0,0.1,-0.2,720,0,,,,,,,,,,,,,,,,,
373606,1469913560162,,,,,,,-0.0,0.08,0.99,-3.0,0.3,-0.1,720,0,,,,,,,,,,,,,,,,,
373626,1469913560182,,,,,,,-0.0,0.07,0.99,-3.0,0.3,-0.2,720,0,,,,,,,,,,,,,,,,,
373646,1469913560301,0,224.0,191.0,8,195.7,,-0.01,0.07,0.99,-3.0,0.3,-0.2,720,0,0.0,0,39.540581,-122.332069,0.0,0.227,325.8,10,3,1.3,0,0.0,-1,0.0,0.0,0.0,0
373666,1469913560321,,,,,,,-0.0,0.08,0.99,-3.0,0.3,-0.1,700,0,,,,,,,,,,,,,,,,,
373686,1469913560341,,,,,,,-0.0,0.08,0.99,-3.0,0.3,-0.1,700,0,,,,,,,,,,,,,,,,,
373706,1469913560361,,,,,,,-0.0,0.08,0.99,-3.0,0.2,-0.2,700,0,,,,,,,,,,,,,,,,,
373726,1469913560381,,,,,,,-0.0,0.08,0.99,-3.0,0.3,-0.2,700,0,,,,,,,,,,,,,,,,,
373746,1469913560401,,,,7,,,0.0,0.09,0.99,-3.0,0.3,-0.1,700,0,0.0,0,39.540581,-122.332069,0.0,0.227,325.8,10,3,1.3,0,0.0,-1,0.0,,0.0,0
373766,1469913560421,,,,,,,-0.0,0.08,0.99,-3.0,0.3,-0.2,700,0,,,,,,,,,,,,,,,,,
373786,1469913560441,,,,,,,-0.01,0.08,0.99,-3.0,0.3,-0.3,700,0,,,,,,,,,,,,,,,,,
373806,1469913560461,,,,,,,-0.01,0.08,0.99,-3.0,0.2,-0.1,700,0,,,,,,,,,,,,,,,,,
373826,1469913560481,,,,,,,-0.01,0.08,0.98,-3.0,0.1,-0.1,700,0,,,,,,,,,,,,,,,,,
373846,1469913560402,0,223.2,190.1,8,195.2,,-0.01,0.08,0.98,-2.9,0.2,-0.3,700,0,0.0,0,39.540581,-122.332069,0.0,0.227,325.8,10,3,1.3,0,0.0,-1,0.0,0.0,0.0,0
373866,1469913560422,,,,,,,-0.01,0.08,0.99,-3.0,0.2,-0.3,700,0,,,,,,,,,,,,,,,,,
373886,1469913560442,,,,,,,-0.0,0.08,0.98,-3.0,0.2,-0.2,700,0,,,,,,,,,,,,,,,,,
373906,1469913560462,,,,,,,-0.01,0.07,0.98,-2.9,0.3,-0.3,700,0,,,,,,,,,,,,,,,,,
373926,1469913560482,,,,,,,-0.01,0.07,0.99,-3.0,0.3,-0.3,700,0,,,,,,,,,,,,,,,,,
373946,1469913560500,,,,8,,,-0.01,0.07,0.99,-3.0,0.3,-0.2,700,0,0.0,0,39.540581,-122.332069,0.0,0.227,325.8,10,3,1.3,0,0.0,-1,0.0,,0.0,0
373966,1469913560520,,,,,,,-0.01,0.08,0.98,-3.0,0.2,-0.2,700,0,,,,,,,,,,,,,,,,,
373986,1469913560540,,,,,,,-0.01,0.08,0.98,-3.0,0.0,-0.3,700,0,,,,,,,,,,,,,,,,,
374006,1469913560560,,,,,,,-0.01,0.08,0.98,-3.0,0.1,-0.2,700,0,,,,,,,,,,,,,,,,,
374026,1469913560580,,,,,,,-0.0,0.08,0.98,-3.0,0.2,-0.1,700,0,,,,,,,,,,,,,,,,,
374046,1469913560602,0,223.3,189.9,7,194.3,13.28,-0.0,0.08,0.98,-3.0,0.3,-0.2,700,0,0.0,0,39.540581,-122.332069,0.0,0.227,325.8,10,3,1.3,0,0.0,-1,0.0,0.0,0.0,0
374066,1469913560622,,,,,,,-0.0,0.07,0.99,-3.0,0.3,-0.3,700,0,,,,,,,,,,,,,,,,,
374086,1469913560642,,,,,,,-0.0,0.08,0.99,-3.0,0.3,-0.1,700,0,,,,,,,,,,,,,,,,,
374106,1469913560662,,,,,,,-0.01,0.08,0.98,-3.0,0.3,-0.2,700,0,,,,,,,,,,,,,,,,,
374126,1469913560682,,,,,,,-0.0,0.08,0.99,-3.0,0.2,-0.3,700,0,,,,,,,,,,,,,,,,,
374146,1469913560702,,,,8,,,-0.0,0.08,0.99,-3.0,0.3,-0.2,700,0,0.0,0,39.540581,-122.332069,0.0,0.227,325.8,10,3,1.3,0,0.0,-1,0.0,,0.0,0
374166,1469913560722,,,,,,,0.0,0.08,0.99,-3.0,0.2,-0.1,700,0,,,,,,,,,,,,,,,,,
374186,1469913560742,,,,,,,-0.0,0.07,0.99,-2.9,0.3,-0.2,700,0,,,,,,,,,,,,,,,,,
374206,1469913560762,,,,,,,-0.01,0.07,0.99,-2.9,0.4,-0.3,700,0,,,,,,,,,,,,,,,,,
374226,1469913560782,,,,,,,-0.0,0.07,0.99,-2.9,0.4,-0.2,700,0,,,,,,,,,,,,,,,,,
374246,1469913560802,0,223.6,190.1,7,194.2,,-0.01,0.07,0.99,-2.9,0.3,-0.2,700,0,0.0,0,39.540581,-122.332069,0.0,0.227,325.8,10,3,1.3,0,0.0,-1,0.0,0.0,0.0,0
374266,1469913560822,,,,,,,-0.01,0.06,0.99,-2.9,0.2,-0.3,700,0,,,,,,,,,,,,,,,,,
374286,1469913560842,,,,,,,-0.01,0.07,0.99,-2.9,0.3,-0.2,700,0,,,,,,,,,,,,,,,,,
374306,1469913560862,,,,,,,-0.0,0.08,0.99,-2.9,0.4,-0.2,700,0,,,,,,,,,,,,,,,,,
374326,1469913560882,,,,,,,-0.0,0.08,0.99,-2.8,0.4,-0.3,700,0,,,,,,,,,,,,,,,,,
374346,1469913560895,,,,8,,,-0.0,0.08,0.99,-2.9,0.4,-0.3,700,0,0.0,0,39.540581,-122.332069,0.0,0.227,325.8,10,3,1.3,0,0.0,-1,0.0,,0.0,0
374366,1469913560915,,,,,,,-0.0,0.08,0.99,-2.9,0.5,-0.2,700,0,,,,,,,,,,,,,,,,,
374386,1469913560935,,,,,,,-0.01,0.08,0.99,-2.9,0.5,-0.2,700,0,,,,,,,,,,,,,,,,,
374406,1469913560955,,,,,,,-0.01,0.07,0.99,-2.9,0.4,-0.3,700,0,,,,,,,,,,,,,,,,,
374426,1469913560975,,,,,,,-0.0,0.08,0.99,-2.9,0.4,-0.2,700,0,,,,,,,,,,,,,,,,,
374446,1469913561101,0,222.6,189.0,8,193.3,,-0.0,0.08,0.99,-3.0,0.5,-0.1,700,0,0.0,0,39.540581,-122.332069,0.0,0.227,325.8,10,3,1.3,0,0.0,-1,0.0,0.0,0.0,0
374466,1469913561121,,,,,,,-0.0,0.08,0.99,-2.9,0.5,-0.2,720,0,,,,,,,,,,,,,,,,,
374486,1469913561141,,,,,,,-0.01,0.08,1.0,-3.0,0.7,-0.2,720,0,,,,,,,,,,,,,,,,,
374506,1469913561161,,,,,,,-0.0,0.09,0.99,-3.0,0.7,-0.1,700,0,,,,,,,,,,,,,,,,,
374526,1469913561181,,,,,,,-0.01,0.08,0.99,-3.0,0.6,-0.1,720,0,,,,,,,,,,,,,,,,,
374546,1469913561201,,,,8,,,-0.01,0.08,1.0,-3.0,0.4,-0.2,700,0,0.0,0,39.540581,-122.332069,0.0,0.227,325.8,10,3,1.3,0,0.0,-1,0.0,,0.0,0
374566,1469913561221,,,,,,,-0.01,0.09,1.0,-3.0,0.5,-0.2,700,0,,,,,,,,,,,,,,,,,
374586,1469913561241,,,,,,,-0.0,0.09,1.0,-3.0,0.5,-0.1,720,0,,,,,,,,,,,,,,,,,
374606,1469913561261,,,,,,,-0.0,0.09,1.0,-3.0,0.6,-0.2,700,0,,,,,,,,,,,,,,,,,
374626,1469913561281,,,,,,,-0.01,0.09,1.0,-3.0,0.5,-0.3,700,0,,,,,,,,,,,,,,,,,
374646,1469913561201,0,222.6,189.0,9,193.2,,-0.01,0.09,1.0,-3.1,0.4,-0.1,720,0,0.0,0,39.540581,-122.332069,0.0,0.227,325.8,10,3,1.3,0,0.0,-1,0.0,0.0,0.0,0
374666,1469913561221,,,,,,,-0.01,0.08,0.99,-3.1,0.3,-0.1,700,0,,,,,,,,,,,,,,,,,
374686,1469913561241,,,,,,,-0.01,0.08,0.99,-3.0,0.2,-0.3,720,0,,,,,,,,,,,,,,,,,
374706,1469913561261,,,,,,,-0.01,0.09,1.0,-3.1,0.2,-0.2,720,0,,,,,,,,,,,,,,,,,
374726,1469913561281,,,,,,,-0.01,0.08,0.99,-3.1,0.2,-0.2,700,0,,,,,,,,,,,,,,,,,
374746,1469913561301,,,,8,,,-0.01,0.08,0.99,-3.0,0.2,-0.2,720,0,0.0,0,39.540581,-122.332069,0.0,0.227,325.8,10,3,1.3,0,0.0,-1,0.0,,0.0,0
374766,1469913561321,,,,,,,-0.02,0.07,1.0,-3.0,0.2,-0.3,720,0,,,,,,,,,,,,,,,,,
374786,1469913561341,,,,,,,-0.02,0.08,0.99,-3.0,0.2,-0.2,720,0,,,,,,,,,,,,,,,,,
374806,1469913561361,,,,,,,-0.01,0.08,0.98,-3.1,0.2,-0.1,720,0,,,,,,,,,,,,,,,,,
374826,1469913561381,,,,,,,-0.01,0.08,0.98,-3.0,0.0,-0.3,700,0,,,,,,,,,,,,,,,,,
374846,1469913561401,0,224.1,191.0,9,194.7,,-0.01,0.08,0.99,-3.0,0.0,-0.3,700,0,0.0,0,39.540581,-122.332069,0.0,0.227,325.8,10,3,1.3,0,0.0,-1,0.0,0.0,0.0,0
374866,1469913561421,,,,,,,-0.01,0.08,0.98,-3.0,0.1,-0.2,720,0,,,,,,,,,,,,,,,,,
374886,1469913561441,,,,,,,-0.01,0.08,0.98,-3.1,0.2,-0.2,720,0,,,,,,,,,,,,,,,,,
374906,1469913561461,,,,,,,-0.01,0.07,0.98,-3.0,0.1,-0.3,720,0,,,,,,,,,,,,,,,,,
374926,1469913561481,,,,,,,-0.01,0.08,0.98,-3.1,0.1,-0.2,720,0,,,,,,,,,,,,,,,,,
374946,1469913561501,,,,9,,,-0.01,0.09,0.98,-3.1,0.2,-0.1,720,0,0.0,0,39.540581,-122.332069,0.0,0.227,325.8,10,3,1.3,0,0.0,-1,0.0,,0.0,0
374966,1469913561521,,,,,,,-0.01,0.08,0.98,-3.0,0.3,-0.2,720,0,,,,,,,,,,,,,,,,,
374986,1469913561541,,,,,,,-0.01,0.08,0.99,-3.0,0.4,-0.2,720,0,,,,,,,,,,,,,,,,,
375006,1469913561561,,,,,,,-0.01,0.09,0.99,-3.1,0.4,-0.1,700,0,,,,,,,,,,,,,,,,,
375026,1469913561581,,,,,,,-0.01,0.09,0.99,-3.1,0.3,-0.1,720,0,,,,,,,,,,,,,,,,,
375046,1469913561602,1,223.3,189.7,8,193.1,13.32,-0.01,0.08,0.99,-3.1,0.2,-0.3,720,0,0.0,0,39.540581,-122.332069,0.0,0.227,325.8,10,3,1.3,0,0.0,-1,0.0,0.0,0.0,0
375066,1469913561622,,,,,,,-0.01,0.09,0.99,-3.1,0.2,-0.2,720,0,,,,,,,,,,,,,,,,,
375086,1469913561642,,,,,,,-0.01,0.09,0.99,-3.1,0.2,-0.1,720,0,,,,,,,,,,,,,,,,,
375106,1469913561662,,,,,,,-0.01,0.09,1.0,-3.0,0.2,-0.2,720,0,,,,,,,,,,,,,,,,,
375126,1469913561682,,,,,,,-0.01,0.08,1.0,-3.0,0.2,-0.3,720,0,,,,,,,,,,,,,,,,,
375146,1469913561701,,,,9,,,-0.01,0.09,0.99,-3.1,0.2,-0.2,720,0,0.0,0,39.540581,-122.332069,0.0,0.227,325.8,10,3,1.3,0,0.0,-1,0.0,,0.0,0
375166,1469913561721,,,,,,,-0.01,0.09,0.99,-3.1,0.1,-0.2,700,0,,,,,,,,,,,,,,,,,
375186,1469913561741,,,,,,,-0.01,0.08,0.99,-3.0,0.1,-0.3,720,0,,,,,,,,,,,,,,,,,
375206,1469913561761,,,,,,,-0.01,0.08,0.99,-3.1,0.2,-0.3,720,0,,,,,,,,,,,,,,,,,
375226,1469913561781,,,,,,,-0.0,0.08,0.99,-3.1,0.2,-0.2,720,0,,,,,,,,,,,,,,,,,
375246,1469913561901,0,223.1,189.9,9,193.8,,-0.01,0.08,0.98,-3.1,0.1,-0.3,720,0,0.0,0,39.540581,-122.332069,0.0,0.227,325.8,10,3,1.3,0,0.0,-1,0.0,0.0,0.0,0
375266,1469913561921,,,,,,,-0.01,0.07,0.98,-3.0,0.1,-0.4,720,0,,,,,,,,,,,,,,,,,
375286,1469913561941,,,,,,,-0.01,0.07,0.98,-3.0,0.1,-0.3,720,0,,,,,,,,,,,,,,,,,
375306,1469913561961,,,,,,,-0.01,0.07,0.98,-3.0,0.2,-0.2,720,0,,,,,,,,,,,,,,,,,
375326,1469913561981,,,,,,,-0.01,0.07,0.99,-2.9,0.3,-0.3,720,0,,,,,,,,,,,,,,,,,
375346,1469913562001,,,,10,,,-0.01,0.07,0.99,-3.0,0.3,-0.3,720,0,0.0,0,39.540581,-122.332069,0.0,0.227,325.8,10,3,1.3,0,0.0,-1,0.0,,0.0,0
375366,1469913562021,,,,,,,-0.01,0.07,0.99,-3.0,0.3,-0.2,720,0,,,,,,,,,,,,,,,,,
375386,1469913562041,,,,,,,-0.01,0.07,0.99,-3.0,0.2,-0.1,720,0,,,,,,,,,,,,,,,,,
375406,1469913562061,,,,,,,-0.02,0.07,0.99,-3.0,0.1,-0.2,720,0,,,,,,,,,,,,,,,,,
375426,1469913562081,,,,,,,-0.01,0.07,0.99,-3.0,0.2,-0.2,720,0,,,,,,,,,,,,,,,,,
375446,1469913562002,0,224.1,190.7,8,193.9,,-0.01,0.08,0.98,-3.0,0.2,-0.1,720,0,0.0,0,39.540581,-122.332069,0.0,0.227,325.8,10,3,1.3,0,0.0,-1,0.0,0.0,0.0,0
375466,1469913562022,,,,,,,-0.01,0.07,0.98,-3.0,0.2,-0.1,720,0,,,,,,,,,,,,,,,,,
375486,1469913562042,,,,,,,-0.02,0.06,0.98,-2.9,0.1,-0.2,720,0,,,,,,,,,,,,,,,,,
375506,1469913562062,,,,,,,-0.02,0.07,0.98,-2.9,0.1,-0.1,720,0,,,,,,,,,,,,,,,,,
375526,1469913562082,,,,,,,-0.01,0.07,0.98,-2.9,0.2,-0.1,720,0,,,,,,,,,,,,,,,,,
375546,1469913562102,,,,8,,,-0.01,0.07,0.98,-2.9,0.2,-0.2,720,0,0.0,0,39.540581,-122.332069,0.0,0.227,325.8,10,3,1.3,0,0.0,-1,0.0,,0.0,0
375566,1469913562122,,,,,,,-0.01,0.07,0.99,-2.9,0.3,-0.2,720,0,,,,,,,,,,,,,,,,,
375586,1469913562142,,,,,,,-0.0,0.08,0.99,-3.0,0.3,-0.1,720,0,,,,,,,,,,,,,,,,,
375606,1469913562162,,,,,,,-0.0,0.08,0.98,-3.0,0.2,-0.1,720,0,,,,,,,,,,,,,,,,,
375626,1469913562182,,,,,,,-0.01,0.08,0.98,-3.0,0.2,-0.2,720,0,,,,,,,,,,,,,,,,,
375646,1469913562202,0,223.1,189.8,9,193.3,,-0.0,0.08,0.98,-3.0,0.3,-0.2,720,0,0.0,0,39.540581,-122.332069,0.0,0.227,325.8,10,3,1.3,0,0.0,-1,0.0,0.0,0.0,0
375666,1469913562222,,,,,,,0.0,0.09,0.98,-3.0,0.3,-0.1,720,0,,,,,,,,,,,,,,,,,
375686,1469913562242,,,,,,,-0.0,0.08,0.98,-3.0,0.2,-0.1,720,0,,,,,,,,,,,,,,,,,
375706,1469913562262,,,,,,,-0.01,0.07,0.98,-2.9,0.2,-0.2,720,0,,,,,,,,,,,,,,,,,
375726,1469913562282,,,,,,,-0.01,0.08,0.98,-3.0,0.1,-0.1,720,0,,,,,,,,,,,,,,,,,
375746,1469913562302,,,,8,,,-0.01,0.08,0.98,-2.9,0.2,-0.1,720,0,0.0,0,39.540581,-122.332069,0.0,0.227,325.8,10,3,1.3,0,0.0,-1,0.0,,0.0,0
375766,1469913562322,,,,,,,-0.01,0.08,0.98,-2.9,0.2,-0.2,720,0,,,,,,,,,,,,,,,,,
375786,1469913562342,,,,,,,-0.01,0.07,0.99,-2.9,0.2,-0.3,720,0,,,,,,,,,,,,,,,,,
375806,1469913562362,,,,,,,-0.01,0.08,0.98,-3.0,0.1,-0.2,720,0,,,,,,,,,,,,,,,,,
375826,1469913562382,,,,,,,-0.01,0.08,0.98,-3.0,0.1,-0.1,720,0,,,,,,,,,,,,,,,,,
375846,1469913562402,0,223.3,188.6,8,191.5,,-0.01,0.08,0.98,-3.0,0.1,-0.3,720,0,0.0,0,39.540581,-122.332069,0.0,0.227,325.8,10,3,1.3,0,0.0,-1,0.0,0.0,0.0,0
375866,1469913562422,,,,,,,-0.01,0.08,0.98,-3.0,0.2,-0.3,720,0,,,,,,,,,,,,,,,,,
375886,1469913562442,,,,,,,-0.01,0.09,0.98,-3.1,0.2,-0.2,720,0,,,,,,,,,,,,,,,,,
375906,1469913562462,,,,,,,-0.01,0.09,0.98,-3.1,0.1,-0.2,720,0,,,,,,,,,,,,,,,,,
375926,1469913562482,,,,,,,-0.01,0.08,0.98,-3.0,0.0,-0.3,720,0,,,,,,,,,,,,,,,,,
375946,1469913562502,,,,9,,,-0.01,0.08,0.98,-3.0,0.0,-0.3,720,0,0.0,0,39.540581,-122.332069,0.0,0.227,325.8,10,3,1.3,0,0.0,-1,0.0,,0.0,0
375966,1469913562522,,,,,,,-0.01,0.08,0.98,-3.0,0.1,-0.2,720,0,,,,,,,,,,,,,,,,,
375986,1469913562542,,,,,,,-0.01,0.07,0.97,-2.9,0.2,-0.2,720,0,,,,,,,,,,,,,,,,,
376006,1469913562562,,,,,,,-0.01,0.07,0.98,-2.9,0.1,-0.3,720,0,,,,,,,,,,,,,,,,,
376026,1469913562582,,,,,,,-0.01,0.07,0.97,-2.8,0.1,-0.2,720,0,,,,,,,,,,,,,,,,,
376046,1469913562701,0,224.0,190.3,8,192.9,13.31,-0.01,0.06,0.97,-2.8,0.1,-0.2,720,0,0.0,0,39.540581,-122.332069,0.0,0.227,325.8,10,3,1.3,0,0.0,-1,0.0,0.0,0.0,0
376066,1469913562721,,,,,,,-0.01,0.06,0.97,-2.8,0.2,-0.3,720,0,,,,,,,,,,,,,,,,,
376086,1469913562741,,,,,,,-0.01,0.07,0.98,-2.9,0.2,-0.3,720,0,,,,,,,,,,,,,,,,,
376106,1469913562761,,,,,,,-0.01,0.07,0.98,-2.9,0.2,-0.2,720,0,,,,,,,,,,,,,,,,,
376126,1469913562781,,,,,,,-0.01,0.08,0.98,-3.0,0.2,-0.1,720,0,,,,,,,,,,,,,,,,,
376146,1469913562801,,,,9,,,-0.01,0.08,0.98,-2.9,0.1,-0.3,720,0,0.0,0,39.540581,-122.332069,0.0,0.227,325.8,10,3,1.3,0,0.0,-1,0.0,,0.0,0
376166,1469913562821,,,,,,,-0.01,0.08,0.98,-3.0,0.1,-0.3,720,0,,,,,,,,,,,,,,,,,
376186,1469913562841,,,,,,,-0.01,0.08,0.98,-3.0,0.2,-0.2,720,0,,,,,,,,,,,,,,,,,
376206,1469913562861,,,,,,,-0.01,0.08,0.98,-3.0,0.2,-0.2,720,0,,,,,,,,,,,,,,,,,
376226,1469913562881,,,,,,,-0.02,0.08,0.98,-3.0,0.0,-0.2,720,0,,,,,,,,,,,,,,,,,
376246,1469913562797,0,224.2,190.6,9,193.1,,-0.02,0.07,0.97,-2.9,0.0,-0.2,720,0,0.0,0,39.540581,-122.332069,0.0,0.227,325.8,10,3,1.3,0,0.0,-1,0.0,0.0,0.0,0
376266,1469913562817,,,,,,,-0.01,0.07,0.98,-2.9,0.1,-0.1,720,0,,,,,,,,,,,,,,,,,
376286,1469913562837,,,,,,,-0.01,0.07,0.98,-2.9,0.2,-0.2,720,0,,,,,,,,,,,,,,,,,
376306,1469913562857,,,,,,,-0.02,0.06,0.98,-2.8,0.1,-0.2,720,0,,,,,,,,,,,,,,,,,
376326,1469913562877,,,,,,,-0.02,0.07,0.98,-2.9,0.1,-0.2,720,0,,,,,,,,,,,,,,,,,
376346,1469913562895,,,,8,,,-0.01,0.07,0.97,-2.9,0.1,-0.1,720,0,0.0,0,39.540581,-122.332069,0.0,0.227,325.8,10,3,1.3,0,0.0,-1,0.0,,0.0,0
376366,1469913562915,,,,,,,-0.01,0.07,0.98,-2.9,0.1,-0.2,720,0,,,,,,,,,,,,,,,,,
376386,1469913562935,,,,,,,-0.01,0.07,0.98,-2.9,0.2,-0.2,720,0,,,,,,,,,,,,,,,,,
376406,1469913562955,,,,,,,-0.01,0.08,0.98,-3.0,0.2,-0.1,720,0,,,,,,,,,,,,,,,,,
376426,1469913562975,,,,,,,-0.01,0.08,0.98,-3.0,0.1,-0.1,720,0,,,,,,,,,,,,,,,,,
376446,1469913563002,0,222.6,188.6,9,191.3,,-0.01,0.08,0.98,-3.0,0.0,-0.2,720,0,0.0,0,39.540581,-122.332069,0.0,0.227,325.8,10,3,1.3,0,0.0,-1,0.0,0.0,0.0,0
376466,1469913563022,,,,,,,-0.0,0.08,0.98,-3.0,0.1,-0.1,720,0,,,,,,,,,,,,,,,,,
376486,1469913563042,,,,,,,-0.0,0.08,0.97,-3.0,0.2,-0.0,720,0,,,,,,,,,,,,,,,,,
376506,1469913563062,,,,,,,-0.0,0.08,0.98,-3.0,0.1,-0.0,720,0,,,,,,,,,,,,,,,,,
376526,1469913563082,,,,,,,-0.01,0.08,0.97,-2.9,0.1,-0.1,720,0,,,,,,,,,,,,,,,,,
376546,1469913563102,,,,8,,,-0.01,0.08,0.97,-3.0,0.1,-0.1,720,0,0.0,0,39.540581,-122.332069,0.0,0.227,325.8,10,3,1.3,0,0.0,-1,0.0,,0.0,0
376566,1469913563122,,,,,,,-0.0,0.08,0.97,-2.9,0.2,-0.1,720,0,,,,,,,,,,,,,,,,,
376586,1469913563142,,,,,,,-0.01,0.07,0.98,-2.9,0.2,-0.2,700,0,,,,,,,,,,,,,,,,,
376606,1469913563162,,,,,,,-0.01,0.07,0.98,-2.9,0.2,-0.2,700,0,,,,,,,,,,,,,,,,,
376626,1469913563182,,,,,,,-0.01,0.08,0.98,-3.0,0.1,-0.1,720,0,,,,,,,,,,,,,,,,,
376646,1469913563202,0,223.6,190.2,8,192.9,,-0.01,0.08,0.97,-3.0,0.0,-0.1,700,0,0.0,0,39.540581,-122.332069,0.0,0.227,325.8,10,3,1.3,0,0.0,-1,0.0,0.0,0.0,0
376666,1469913563222,,,,,,,-0.01,0.08,0.98,-3.0,0.1,-0.2,700,0,,,,,,,,,,,,,,,,,
376686,1469913563242,,,,,,,-0.01,0.08,0.99,-3.0,0.2,-0.2,700,0,,,,,,,,,,,,,,,,,
376706,1469913563262,,,,,,,-0.0,0.07,0.99,-3.0,0.3,-0.2,700,0,,,,,,,,,,,,,,,,,
376726,1469913563282,,,,,,,-0.01,0.07,0.99,-3.0,0.3,-0.2,700,0,,,,,,,,,,,,,,,,,
376746,1469913563298,,,,9,,,-0.01,0.06,0.99,-3.0,0.4,-0.2,700,0,0.0,0,39.540581,-122.332069,0.0,0.227,325.8,10,3,1.3,0,0.0,-1,0.0,,0.0,0
376766,1469913563318,,,,,,,-0.01,0.07,0.99,-3.0,0.3,-0.1,700,0,,,,,,,,,,,,,,,,,
376786,1469913563338,,,,,,,-0.01,0.07,0.99,-3.0,0.3,-0.1,700,0,,,,,,,,,,,,,,,,,
376806,1469913563358,,,,,,,-0.01,0.07,0.99,-3.0,0.2,-0.2,700,0,,,,,,,,,,,,,,,,,
376826,1469913563378,,,,,,,-0.01,0.07,0.99,-3.0,0.2,-0.2,700,0,,,,,,,,,,,,,,,,,
376846,1469913563501,0,222.9,190.6,8,192.8,,-0.0,0.07,0.99,-3.0,0.3,-0.1,700,0,0.0,0,39.540581,-122.332069,0.0,0.227,325.8,10,3,1.3,0,0.0,-1,0.0,0.0,0.0,0
376866,1469913563521,,,,,,,-0.0,0.07,0.99,-3.0,0.4,-0.2,700,0,,,,,,,,,,,,,,,,,
376886,1469913563541,,,,,,,-0.0,0.07,0.99,-3.0,0.4,-0.1,700,0,,,,,,,,,,,,,,,,,
376906,1469913563561,,,,,,,0.0,0.08,0.99,-3.0,0.4,-0.1,700,0,,,,,,,,,,,,,,,,,
376926,1469913563581,,,,,,,-0.0,0.08,0.99,-2.9,0.3,-0.1,700,0,,,,,,,,,,,,,,,,,
376946,1469913563601,,,,9,,,-0.0,0.07,0.99,-2.9,0.3,-0.2,700,0,0.0,0,39.540581,-122.332069,0.0,0.227,325.8,10,3,1.3,0,0.0,-1,0.0,,0.0,0
376966,1469913563621,,,,,,,-0.0,0.08,0.99,-2.9,0.3,-0.2,700,0,,,,,,,,,,,,,,,,,
376986,1469913563641,,,,,,,-0.0,0.08,0.99,-2.9,0.3,-0.1,700,0,,,,,,,,,,,,,,,,,
377006,1469913563661,,,,,,,-0.0,0.08,0.99,-2.9,0.4,-0.3,700,0,,,,,,,,,,,,,,,,,
377026,1469913563681,,,,,,,0.0,0.08,0.99,-3.0,0.4,-0.3,700,0,,,,,,,,,,,,,,,,,
377046,1469913563602,0,222.5,190.2,7,192.6,13.34,0.0,0.08,0.99,-3.0,0.4,-0.2,700,0,0.0,0,39.540581,-122.332069,0.0,0.227,325.8,10,3,1.3,0,0.0,-1,0.0,0.0,0.0,0
377066,1469913563622,,,,,,,-0.0,0.07,0.99,-2.9,0.4,-0.3,700,0,,,,,,,,,,,,,,,,,
377086,1469913563642,,,,,,,-0.01,0.06,0.99,-2.9,0.3,-0.3,700,0,,,,,,,,,,,,,,,,,
377106,1469913563662,,,,,,,-0.01,0.07,0.99,-3.0,0.3,-0.2,700,0,,,,,,,,,,,,,,,,,
377126,1469913563682,,,,,,,-0.0,0.08,0.98,-3.0,0.2,-0.2,700,0,,,,,,,,,,,,,,,,,
377146,1469913563702,,,,9,,,-0.0,0.08,0.98,-3.0,0.1,-0.3,700,0,0.0,0,39.540581,-122.332069,0.0,0.227,325.8,10,3,1.3,0,0.0,-1,0.0,,0.0,0
377166,1469913563722,,,,,,,0.0,0.08,0.98,-3.0,0.2,-0.2,700,0,,,,,,,,,,,,,,,,,
377186,1469913563742,,,,,,,0.01,0.08,0.98,-3.0,0.3,-0.1,700,0,,,,,,,,,,,,,,,,,
377206,1469913563762,,,,,,,0.0,0.07,0.98,-2.9,0.3,-0.2,700,0,,,,,,,,,,,,,,,,,
377226,1469913563782,,,,,,,0.0,0.08,0.98,-2.9,0.2,-0.2,700,0,,,,,,,,,,,,,,,,,
377246,1469913563801,0,223.2,190.3,8,192.4,,0.0,0.08,0.98,-3.0,0.2,-0.1,700,0,0.0,0,39.540581,-122.332069,0.0,0.227,325.8,10,3,1.3,0,0.0,-1,0.0,0.0,0.0,0
377266,1469913563821,,,,,,,0.0,0.07,0.98,-2.9,0.1,-0.1,700,0,,,,,,,,,,,,,,,,,
377286,1469913563841,,,,,,,-0.0,0.07,0.99,-2.9,0.1,-0.2,700,0,,,,,,,,,,,,,,,,,
377306,1469913563861,,,,,,,0.0,0.08,0.99,-2.9,0.2,-0.1,700,0,,,,,,,,,,,,,,,,,
377326,1469913563881,,,,,,,0.0,0.08,0.99,-2.9,0.1,-0.1,700,0,,,,,,,,,,,,,,,,,
377346,1469913563894,,,,9,,,-0.0,0.08,0.99,-2.9,0.2,-0.2,700,0,0.0,0,39.540581,-122.332069,0.0,0.227,325.8,10,3,1.3,0,0.0,-1,0.0,,0.0,0
377366,1469913563914,,,,,,,0.0,0.08,0.99,-2.9,0.2,-0.2,700,0,,,,,,,,,,,,,,,,,
377386,1469913563934,,,,,,,0.0,0.08,0.99,-2.9,0.2,-0.1,700,0,,,,,,,,,,,,,,,,,
377406,1469913563954,,,,,,,-0.0,0.07,0.99,-2.9,0.1,-0.2,700,0,,,,,,,,,,,,,,,,,
377426,1469913563974,,,,,,,-0.01,0.06,0.99,-2.9,0.1,-0.3,700,0,,,,,,,,,,,,,,,,,
377446,1469913563995,0,224.4,189.1,8,191.1,,-0.01,0.07,0.98,-2.9,0.2,-0.2,700,0,0.0,0,39.540581,-122.332069,0.0,0.227,325.8,10,3,1.3,0,0.0,-1,0.0,0.0,0.0,0
377466,1469913564015,,,,,,,-0.0,0.07,0.98,-2.9,0.2,-0.2,700,0,,,,,,,,,,,,,,,,,
377486,1469913564035,,,,,,,0.0,0.08,0.98,-2.9,0.1,-0.3,700,0,,,,,,,,,,,,,,,,,
377506,1469913564055,,,,,,,0.0,0.08,0.98,-2.9,0.2,-0.2,700,0,,,,,,,,,,,,,,,,,
377526,1469913564075,,,,,,,0.0,0.09,0.99,-3.0,0.4,-0.2,700,0,,,,,,,,,,,,,,,,,
377546,1469913564102,,,,10,,,-0.01,0.08,0.99,-3.1,0.4,-0.2,700,0,0.0,0,39.540581,-122.332069,0.0,0.227,325.8,10,3,1.3,0,0.0,-1,0.0,,0.0,0
377566,1469913564122,,,,,,,-0.01,0.07,0.98,-3.1,0.1,-0.3,700,0,,,,,,,,,,,,,,,,,
377586,1469913564142,,,,,,,-0.01,0.08,0.98,-3.1,0.0,-0.1,700,0,,,,,,,,,,,,,,,,,
377606,1469913564162,,,,,,,-0.01,0.08,0.98,-3.1,0.0,-0.2,700,0,,,,,,,,,,,,,,,,,
377626,1469913564182,,,,,,,-0.01,0.08,0.98,-3.1,0.0,-0.3,700,0,,,,,,,,,,,,,,,,,
377646,1469913564301,0,224.5,189.5,8,191.3,,-0.01,0.09,0.98,-3.1,0.3,-0.2,700,0,0.0,0,39.540581,-122.332069,0.0,0.227,325.8,10,3,1.3,0,0.0,-1,0.0,0.0,0.0,0
377666,1469913564321,,,,,,,-0.0,0.08,0.98,-3.1,0.3,-0.1,700,0,,,,,,,,,,,,,,,,,
377686,1469913564341,,,,,,,-0.01,0.07,0.98,-3.0,0.3,-0.2,700,0,,,,,,,,,,,,,,,,,
377706,1469913564361,,,,,,,-0.01,0.07,0.98,-3.0,0.3,-0.3,700,0,,,,,,,,,,,,,,,,,
377726,1469913564381,,,,,,,-0.01,0.08,0.98,-3.1,0.3,-0.2,700,0,,,,,,,,,,,,,,,,,
377746,1469913564401,,,,8,,,-0.01,0.08,0.97,-3.1,0.2,-0.2,700,0,0.0,0,39.540581,-122.332069,0.0,0.227,325.8,10,3,1.3,0,0.0,-1,0.0,,0.0,0
377766,1469913564421,,,,,,,-0.01,0.08,0.97,-3.0,0.1,-0.3,700,0,,,,,,,,,,,,,,,,,
377786,1469913564441,,,,,,,-0.01,0.08,0.97,-3.0,0.2,-0.3,700,0,,,,,,,,,,,,,,,,,
377806,1469913564461,,,,,,,-0.01,0.08,0.97,-3.0,0.3,-0.2,700,0,,,,,,,,,,,,,,,,,
377826,1469913564481,,,,,,,-0.01,0.07,0.98,-3.0,0.4,-0.3,700,0,,,,,,,,,,,,,,,,,
377846,1469913564401,0,222.9,190.3,8,192.1,,-0.01,0.08,0.98,-3.0,0.4,-0.3,700,0,0.0,0,39.540581,-122.332069,0.0,0.227,325.8,10,3,1.3,0,0.0,-1,0.0,0.0,0.0,0
377866,1469913564421,,,,,,,-0.01,0.08,0.98,-3.0,0.3,-0.2,720,0,,,,,,,,,,,,,,,,,
377886,1469913564441,,,,,,,-0.01,0.08,0.98,-3.0,0.3,-0.2,700,0,,,,,,,,,,,,,,,,,
377906,1469913564461,,,,,,,-0.01,0.08,0.98,-2.9,0.2,-0.3,720,0,,,,,,,,,,,,,,,,,
377926,1469913564481,,,,,,,0.0,0.09,0.98,-3.0,0.3,-0.2,720,0,,,,,,,,,,,,,,,,,
377946,1469913564501,,,,9,,,0.01,0.1,0.98,-3.0,0.2,-0.1,720,0,0.0,0,39.540581,-122.332069,0.0,0.227,325.8,10,3,1.3,0,0.0,-1,0.0,,0.0,0
377966,1469913564521,,,,,,,0.0,0.09,0.98,-3.0,0.3,-0.2,700,0,,,,,,,,,,,,,,,,,
377986,1469913564541,,,,,,,-0.0,0.08,0.99,-3.0,0.3,-0.2,700,0,,,,,,,,,,,,,,,,,
378006,1469913564561,,,,,,,0.0,0.09,0.98,-3.1,0.4,-0.1,700,0,,,,,,,,,,,,,,,,,
378026,1469913564581,,,,,,,0.0,0.09,0.98,-3.0,0.3,-0.1,720,0,,,,,,,,,,,,,,,,,
378046,1469913564602,0,224.5,188.9,7,190.6,13.35,0.0,0.09,0.98,-3.0,0.2,-0.2,720,0,0.0,0,39.540581,-122.332069,0.0,0.227,325.8,10,3,1.3,0,0.0,-1,0.0,0.0,0.0,0
378066,1469913564622,,,,,,,0.0,0.09,0.98,-3.0,0.2,-0.2,720,0,,,,,,,,,,,,,,,,,
378086,1469913564642,,,,,,,0.01,0.09,0.98,-3.0,0.3,-0.1,720,0,,,,,,,,,,,,,,,,,
378106,1469913564662,,,,,,,0.0,0.09,0.98,-3.0,0.3,-0.2,720,0,,,,,,,,,,,,,,,,,
378126,1469913564682,,,,,,,-0.0,0.08,0.99,-2.9,0.2,-0.3,720,0,,,,,,,,,,,,,,,,,
378146,1469913564701,,,,9,,,-0.0,0.08,0.98,-3.0,0.2,-0.2,720,0,0.0,0,39.540581,-122.332069,0.0,0.227,325.8,10,3,1.3,0,0.0,-1,0.0,,0.0,0
378166,1469913564721,,,,,,,-0.0,0.08,0.98,-3.0,0.2,-0.1,700,0,,,,,,,,,,,,,,,,,
378186,1469913564741,,,,,,,-0.0,0.08,0.98,-2.9,0.2,-0.2,720,0,,,,,,,,,,,,,,,,,
378206,1469913564761,,,,,,,-0.0,0.08,0.98,-2.9,0.2,-0.3,720,0,,,,,,,,,,,,,,,,,
378226,1469913564781,,,,,,,0.0,0.08,0.98,-2.9,0.2,-0.2,720,0,,,,,,,,,,,,,,,,,
378246,1469913564802,0,223.6,190.5,8,192.1,,-0.0,0.08,0.98,-2.9,0.2,-0.2,700,0,0.0,0,39.540581,-122.332069,0.0,0.227,325.8,10,3,1.3,0,0.0,-1,0.0,0.0,0.0,0
378266,1469913564822,,,,,,,-0.01,0.07,0.98,-2.9,0.1,-0.3,700,0,,,,,,,,,,,,,,,,,
378286,1469913564842,,,,,,,-0.0,0.07,0.99,-2.9,0.2,-0.3,700,0,,,,,,,,,,,,,,,,,
378306,1469913564862,,,,,,,-0.0,0.08,0.99,-2.9,0.2,-0.2,700,0,,,,,,,,,,,,,,,,,
378326,1469913564882,,,,,,,-0.0,0.07,0.99,-2.9,0.3,-0.3,700,0,,,,,,,,,,,,,,,,,
378346,1469913564894,,,,9,,,-0.0,0.07,0.99,-2.9,0.3,-0.3,700,0,0.0,0,39.540581,-122.332069,0.0,0.227,325.8,10,3,1.3,0,0.0,-1,0.0,,0.0,0
378366,1469913564914,,,,,,,-0.01,0.08,0.99,-2.9,0.3,-0.2,700,0,,,,,,,,,,,,,,,,,
378386,1469913564934,,,,,,,-0.01,0.07,0.99,-2.9,0.2,-0.2,700,0,,,,,,,,,,,,,,,,,
378406,1469913564954,,,,,,,-0.01,0.07,0.99,-2.9,0.1,-0.3,700,0,,,,,,,,,,,,,,,,,
378426,1469913564974,,,,,,,-0.01,0.08,0.99,-2.9,0.2,-0.2,700,0,,,,,,,,,,,,,,,,,
378446,1469913565101,0,222.8,189.3,8,191.5,,-0.0,0.08,0.99,-2.9,0.3,-0.1,700,0,0.0,0,39.540581,-122.332069,0.0,0.227,325.8,10,3,1.3,0,0.0,-1,0.0,0.0,0.0,0
378466,1469913565121,,,,,,,-0.0,0.07,0.99,-2.9,0.4,-0.2,700,0,,,,,,,,,,,,,,,,,
378486,1469913565141,,,,,,,-0.0,0.07,0.99,-2.9,0.4,-0.2,700,0,,,,,,,,,,,,,,,,,
378506,1469913565161,,,,,,,0.0,0.08,0.99,-2.9,0.5,-0.1,700,0,,,,,,,,,,,,,,,,,
378526,1469913565181,,,,,,,-0.0,0.08,0.99,-2.9,0.4,-0.1,700,0,,,,,,,,,,,,,,,,,
378546,1469913565201,,,,9,,,-0.01,0.08,0.99,-3.0,0.3,-0.2,700,0,0.0,0,39.540581,-122.332069,0.0,0.227,325.8,10,3,1.3,0,0.0,-1,0.0,,0.0,0
378566,1469913565221,,,,,,,-0.0,0.09,0.99,-3.0,0.4,-0.1,700,0,,,,,,,,,,,,,,,,,
378586,1469913565241,,,,,,,-0.0,0.09,0.99,-3.0,0.4,-0.1,720,0,,,,,,,,,,,,,,,,,
378606,1469913565261,,,,,,,-0.0,0.09,0.99,-2.9,0.4,-0.2,700,0,,,,,,,,,,,,,,,,,
378626,1469913565281,,,,,,,-0.01,0.08,0.99,-2.9,0.3,-0.2,700,0,,,,,,,,,,,,,,,,,
378646,1469913565202,0,224.3,188.1,9,189.7,,-0.01,0.09,1.0,-3.0,0.2,-0.1,700,0,0.0,0,39.540581,-122.332069,0.0,0.227,325.8,10,3,1.3,0,0.0,-1,0.0,0.0,0.0,0
378666,1469913565222,,,,,,,-0.01,0.08,0.99,-3.0,0.2,-0.2,700,0,,,,,,,,,,,,,,,,,
378686,1469913565242,,,,,,,-0.01,0.08,0.99,-2.9,0.1,-0.3,720,0,,,,,,,,,,,,,,,,,
378706,1469913565262,,,,,,,-0.01,0.08,1.0,-3.0,0.1,-0.2,720,0,,,,,,,,,,,,,,,,,
378726,1469913565282,,,,,,,-0.01,0.08,1.0,-3.0,0.2,-0.2,700,0,,,,,,,,,,,,,,,,,
378746,1469913565301,,,,8,,,-0.01,0.07,1.0,-2.9,0.2,-0.3,720,0,0.0,0,39.540581,-122.332069,0.0,0.227,325.8,10,3,1.3,0,0.0,-1,0.0,,0.0,0
378766,1469913565321,,,,,,,-0.02,0.07,1.0,-2.9,0.2,-0.3,720,0,,,,,,,,,,,,,,,,,
378786,1469913565341,,,,,,,-0.01,0.07,1.0,-3.0,0.2,-0.1,700,0,,,,,,,,,,,,,,,,,
378806,1469913565361,,,,,,,-0.01,0.07,0.99,-3.0,0.1,-0.1,700,0,,,,,,,,,,,,,,,,,
378826,1469913565381,,,,,,,-0.01,0.07,0.99,-3.0,-0.1,-0.3,700,0,,,,,,,,,,,,,,,,,
378846,1469913565402,0,223.9,189.5,9,191.0,,-0.01,0.08,0.99,-3.0,-0.0,-0.2,700,0,0.0,0,39.540581,-122.332069,0.0,0.227,325.8,10,3,1.3,0,0.0,-1,0.0,0.0,0.0,0
378866,1469913565422,,,,,,,-0.01,0.08,0.99,-3.0,0.1,-0.1,700,0,,,,,,,,,,,,,,,,,
378886,1469913565442,,,,,,,-0.01,0.08,1.0,-3.0,0.2,-0.2,700,0,,,,,,,,,,,,,,,,,
378906,1469913565462,,,,,,,-0.01,0.07,1.0,-3.0,0.2,-0.2,700,0,,,,,,,,,,,,,,,,,
378926,1469913565482,,,,,,,-0.01,0.08,0.99,-3.0,0.2,-0.1,720,0,,,,,,,,,,,,,,,,,
378946,1469913565501,,,,9,,,-0.01,0.09,0.99,-3.0,0.2,-0.1,700,0,0.0,0,39.540581,-122.332069,0.0,0.227,325.8,10,3,1.3,0,0.0,-1,0.0,,0.0,0
378966,1469913565521,,,,,,,-0.01,0.08,0.99,-3.0,0.1,-0.3,720,0,,,,,,,,,,,,,,,,,
378986,1469913565541,,,,,,,-0.0,0.08,0.99,-3.0,0.3,-0.2,720,0,,,,,,,,,,,,,,,,,
379006,1469913565561,,,,,,,0.0,0.08,0.98,-3.0,0.2,-0.1,700,0,,,,,,,,,,,,,,,,,
379026,1469913565581,,,,,,,-0.0,0.07,0.98,-3.0,0.2,-0.2,720,0,,,,,,,,,,,,,,,,,
379046,1469913565601,0,222.9,188.3,9,190.5,13.28,-0.01,0.07,0.99,-2.9,0.2,-0.2,720,0,0.0,0,39.540581,-122.332069,0.0,0.227,325.8,10,3,1.3,0,0.0,-1,0.0,0.0,0.0,0
379066,1469913565621,,,,,,,-0.0,0.08,0.98,-3.0,0.2,-0.1,700,0,,,,,,,,,,,,,,,,,
379086,1469913565641,,,,,,,-0.0,0.08,0.98,-2.9,0.1,-0.1,720,0,,,,,,,,,,,,,,,,,
379106,1469913565661,,,,,,,-0.01,0.07,0.98,-2.9,0.1,-0.3,700,0,,,,,,,,,,,,,,,,,
379126,1469913565681,,,,,,,-0.01,0.08,0.98,-3.0,0.1,-0.3,700,0,,,,,,,,,,,,,,,,,
379146,1469913565702,,,,8,,,-0.01,0.08,0.98,-3.0,0.2,-0.1,720,0,0.0,0,39.540581,-122.332069,0.0,0.227,325.8,10,3,1.3,0,0.0,-1,0.0,,0.0,0
379166,1469913565722,,,,,,,-0.01,0.07,0.98,-3.0,0.2,-0.2,700,0,,,,,,,,,,,,,,,,,
379186,1469913565742,,,,,,,-0.01,0.07,0.98,-2.9,0.1,-0.3,700,0,,,,,,,,,,,,,,,,,
379206,1469913565762,,,,,,,-0.02,0.07,0.97,-3.0,0.0,-0.2,720,0,,,,,,,,,,,,,,,,,
379226,1469913565782,,,,,,,-0.02,0.07,0.97,-2.9,0.0,-0.2,720,0,,,,,,,,,,,,,,,,,
379246,1469913565901,0,224.4,189.4,9,189.5,,-0.02,0.06,0.97,-2.9,0.1,-0.3,720,0,0.0,0,39.540581,-122.332069,0.0,0.227,325.8,10,3,1.3,0,0.0,-1,0.0,0.0,0.0,0
379266,1469913565921,,,,,,,-0.02,0.06,0.97,-2.9,0.2,-0.3,720,0,,,,,,,,,,,,,,,,,
379286,1469913565941,,,,,,,-0.01,0.06,0.97,-3.0,0.1,-0.1,720,0,,,,,,,,,,,,,,,,,
379306,1469913565961,,,,,,,-0.02,0.06,0.97,-3.0,0.0,-0.1,720,0,,,,,,,,,,,,,,,,,
379326,1469913565981,,,,,,,-0.02,0.06,0.98,-2.9,-0.2,-0.2,700,0,,,,,,,,,,,,,,,,,
379346,1469913566001,,,,9,,,-0.02,0.07,0.98,-2.9,-0.1,-0.1,700,0,0.0,0,39.540581,-122.332069,0.0,0.227,325.8,10,3,1.3,0,0.0,-1,0.0,,0.0,0
379366,1469913566021,,,,,,,-0.01,0.07,0.98,-2.9,0.0,-0.0,720,0,,,,,,,,,,,,,,,,,
379386,1469913566041,,,,,,,-0.01,0.07,0.98,-2.9,0.1,-0.1,720,0,,,,,,,,,,,,,,,,,
379406,1469913566061,,,,,,,-0.01,0.06,0.99,-2.9,0.1,-0.1,720,0,,,,,,,,,,,,,,,,,
379426,1469913566081,,,,,,,-0.01,0.07,0.98,-2.9,0.1,-0.0,720,0,,,,,,,,,,,,,,,,,
379446,1469913566001,0,223.9,188.8,8,190.9,,-0.01,0.07,0.98,-2.9,0.1,-0.0,700,0,0.0,0,39.540581,-122.332069,0.0,0.227,325.8,10,3,1.3,0,0.0,-1,0.0,0.0,0.0,0
379466,1469913566021,,,,,,,-0.01,0.07,0.98,-2.9,0.1,-0.2,720,0,,,,,,,,,,,,,,,,,
379486,1469913566041,,,,,,,-0.0,0.07,0.97,-2.9,0.2,-0.1,720,0,,,,,,,,,,,,,,,,,
379506,1469913566061,,,,,,,-0.0,0.08,0.97,-3.0,0.2,-0.0,680,0,,,,,,,,,,,,,,,,,
379526,1469913566081,,,,,,,-0.0,0.07,0.97,-2.9,0.1,-0.1,680,0,,,,,,,,,,,,,,,,,
379546,1469913566102,,,,8,,,-0.01,0.07,0.97,-2.9,0.1,-0.1,680,0,0.0,0,39.540581,-122.332069,0.0,0.227,325.8,10,3,1.3,0,0.0,-1,0.0,,0.0,0
379566,1469913566122,,,,,,,-0.01,0.08,0.97,-2.9,0.1,-0.1,680,0,,,,,,,,,,,,,,,,,
379586,1469913566142,,,,,,,-0.02,0.08,0.97,-2.9,0.0,-0.1,700,0,,,,,,,,,,,,,,,,,
379606,1469913566162,,,,,,,-0.02,0.07,0.97,-2.9,-0.0,-0.3,700,0,,,,,,,,,,,,,,,,,
379626,1469913566182,,,,,,,-0.02,0.08,0.97,-2.9,-0.0,-0.2,680,0,,,,,,,,,,,,,,,,,
379646,1469913566202,0,224.4,189.0,9,189.1,,-0.01,0.08,0.97,-2.8,-0.0,-0.2,680,0,0.0,0,39.540581,-122.332069,0.0,0.227,325.8,10,3,1.3,0,0.0,-1,0.0,0.0,0.0,0
379666,1469913566222,,,,,,,-0.01,0.08,0.97,-2.8,-0.0,-0.3,680,0,,,,,,,,,,,,,,,,,
379686,1469913566242,,,,,,,-0.01,0.08,0.98,-2.9,-0.0,-0.2,680,0,,,,,,,,,,,,,,,,,
379706,1469913566262,,,,,,,-0.01,0.09,0.98,-2.9,0.1,-0.1,700,0,,,,,,,,,,,,,,,,,
379726,1469913566282,,,,,,,-0.01,0.08,0.98,-2.9,0.1,-0.2,680,0,,,,,,,,,,,,,,,,,
379746,1469913566302,,,,8,,,-0.0,0.09,1.0,-3.0,0.1,-0.2,680,0,0.0,0,39.540581,-122.332069,0.0,0.227,325.8,10,3,1.3,0,0.0,-1,0.0,,0.0,0
379766,1469913566322,,,,,,,-0.01,0.1,0.99,-3.0,0.1,-0.1,700,0,,,,,,,,,,,,,,,,,
379786,1469913566342,,,,,,,-0.01,0.09,0.99,-3.0,0.0,-0.2,680,0,,,,,,,,,,,,,,,,,
379806,1469913566362,,,,,,,-0.01,0.09,0.99,-3.0,0.1,-0.2,680,0,,,,,,,,,,,,,,,,,
379826,1469913566382,,,,,,,-0.01,0.09,0.99,-3.0,0.1,-0.2,680,0,,,,,,,,,,,,,,,,,
379846,1469913566402,0,223.0,187.3,7,190.8,,-0.01,0.09,0.99,-3.0,0.0,-0.1,680,0,0.0,0,39.540581,-122.332069,0.0,0.227,325.8,10,3,1.3,0,0.0,-1,0.0,0.0,0.0,0
379866,1469913566422,,,,,,,-0.02,0.09,0.99,-3.0,0.1,-0.3,700,0,,,,,,,,,,,,,,,,,
379886,1469913566442,,,,,,,-0.01,0.09,0.99,-3.0,0.2,-0.3,700,0,,,,,,,,,,,,,,,,,
379906,1469913566462,,,,,,,-0.01,0.09,0.99,-3.0,0.3,-0.2,700,0,,,,,,,,,,,,,,,,,
379926,1469913566482,,,,,,,-0.01,0.08,0.99,-3.0,0.3,-0.3,700,0,,,,,,,,,,,,,,,,,
379946,1469913566501,,,,8,,,-0.01,0.08,0.99,-3.0,0.4,-0.3,700,0,0.0,0,39.540581,-122.332069,0.0,0.227,325.8,10,3,1.3,0,0.0,-1,0.0,,0.0,0
379966,1469913566521,,,,,,,-0.0,0.08,0.99,-3.1,0.5,-0.1,700,0,,,,,,,,,,,,,,,,,
379986,1469913566541,,,,,,,-0.0,0.08,0.99,-3.0,0.3,-0.2,700,0,,,,,,,,,,,,,,,,,
380006,1469913566561,,,,,,,-0.0,0.07,0.99,-3.0,0.3,-0.3,700,0,,,,,,,,,,,,,,,,,
380026,1469913566581,,,,,,,-0.0,0.08,0.99,-3.0,0.3,-0.2,680,0,,,,,,,,,,,,,,,,,
380046,1469913566701,0,222.9,187.0,8,190.8,13.42,0.0,0.08,0.99,-3.0,0.2,-0.1,700,0,0.0,0,39.540581,-122.332069,0.0,0.227,325.8,10,3,1.3,0,0.0,-1,0.0,0.0,0.0,0
380066,1469913566721,,,,,,,0.01,0.08,0.98,-2.9,0.2,-0.2,700,0,,,,,,,,,,,,,,,,,
380086,1469913566741,,,,,,,0.01,0.08,0.98,-2.9,0.2,-0.2,700,0,,,,,,,,,,,,,,,,,
380106,1469913566761,,,,,,,0.01,0.08,0.98,-3.0,0.2,-0.1,720,0,,,,,,,,,,,,,,,,,
380126,1469913566781,,,,,,,0.01,0.08,0.98,-2.9,0.3,-0.1,700,0,,,,,,,,,,,,,,,,,
380146,1469913566801,,,,8,,,0.0,0.08,0.98,-2.9,0.2,-0.2,700,0,0.0,0,39.540581,-122.332069,0.0,0.227,325.8,10,3,1.3,0,0.0,-1,0.0,,0.0,0
380166,1469913566821,,,,,,,0.01,0.08,0.99,-3.0,0.1,-0.1,700,0,,,,,,,,,,,,,,,,,
380186,1469913566841,,,,,,,0.0,0.08,0.98,-3.0,0.0,-0.1,680,0,,,,,,,,,,,,,,,,,
380206,1469913566861,,,,,,,0.0,0.08,0.99,-3.0,0.0,-0.2,700,0,,,,,,,,,,,,,,,,,
380226,1469913566881,,,,,,,0.01,0.08,0.99,-3.0,0.1,-0.2,700,0,,,,,,,,,,,,,,,,,
380246,1469913566802,0,223.9,187.8,7,188.8,,0.01,0.07,0.99,-3.0,0.1,-0.1,700,0,0.0,0,39.540581,-122.332069,0.0,0.227,325.8,10,3,1.3,0,0.0,-1,0.0,0.0,0.0,0
380266,1469913566822,,,,,,,0.0,0.07,0.98,-3.0,0.2,-0.2,700,0,,,,,,,,,,,,,,,,,
