"Interval"|"ms"|0|0|1,"Utc"|"ms"|0|0|1,"FuelLevel"|"F"|0|100|5,"OilTemp"|"F"|0.0|300.0|5,"Coolant"|"F"|0.0|300.0|5,"OilPress"|"PSI"|0|150|10,"EngineTemp"|"F"|0.0|300.0|5,"Battery"|"Volts"|0.0|20.0|1,"AccelX"|"G"|-3.0|3.0|50,"AccelY"|"G"|-3.0|3.0|50,"AccelZ"|"G"|-3.0|3.0|50,"Yaw"|"Deg/Sec"|-300.0|300.0|50,"Pitch"|"Deg/Sec"|-300.0|300.0|50,"Roll"|"Deg/Sec"|-300.0|300.0|50,"RPM"|""|0|10000|50,"Driveshaft"|"RPM"|0|5000|50,"GearRatio"|""|-5.0|5.0|10,"Gear"|""|-1|5|10,"Latitude"|"Degrees"|-180.0|180.0|10,"Longitude"|"Degrees"|-180.0|180.0|10,"Speed"|"MPH"|0.0|150.0|10,"Distance"|"Miles"|0.0|0.0|10,"Altitude"|"Feet"|0.0|4000.0|10,"GPSSats"|""|0|20|10,"GPSQual"|""|0|5|10,"GPSDOP"|""|0.0|20.0|10,"LapCount"|""|0|0|10,"LapTime"|"Min"|0.0|0.0|10,"Sector"|""|0|0|10,"SectorTime"|"Min"|0.0|0.0|10,"PredTime"|"Min"|0.0|0.0|5,"ElapsedTime"|"Min"|0.0|0.0|10,"CurrentLap"|""|0|0|10
5066,1469926579460,,,,,,,-0.11,-0.66,0.71,14.5,-2.1,0.0,3320,3343,,,,,,,,,,,,,,,,,
5086,1469926579480,,,,,,,-0.11,-0.68,0.75,14.5,-0.7,0.2,3340,3343,,,,,,,,,,,,,,,,,
5106,1469926579500,,,,,,,-0.1,-0.71,0.67,15.1,-0.8,0.6,3280,3315,,,,,,,,,,,,,,,,,
5126,1469926579519,,,,,,,-0.12,-0.67,0.69,15.2,-0.8,0.3,3280,3315,,,,,,,,,,,,,,,,,
5146,1469926579539,,,,21,,,-0.11,-0.79,0.73,15.2,-0.3,0.1,3420,3329,0.997,4,39.538963,-122.329361,57.37,0.001,300.7,11,2,1.4,0,0.0,-1,0.0,,0.0,0
5166,1469926579559,,,,,,,-0.1,-0.9,0.71,15.6,-1.1,-0.0,3320,3329,,,,,,,,,,,,,,,,,
5186,1469926579579,,,,,,,-0.1,-0.82,0.69,15.3,-0.1,0.0,3380,3343,,,,,,,,,,,,,,,,,
5206,1469926579601,,,,,,,-0.1,-0.84,0.76,15.2,0.3,-0.3,3380,3329,,,,,,,,,,,,,,,,,
5226,1469926579621,,,,,,,-0.08,-0.86,0.75,15.3,0.7,-0.6,3240,3358,,,,,,,,,,,,,,,,,
5246,1469926579641,0,300.5,208.8,21,218.8,,-0.03,-0.8,0.75,15.6,0.1,-1.1,3360,3343,1.006,4,39.538982,-122.329346,57.47,0.003,300.5,11,2,1.4,0,0.0,-1,0.0,0.0,0.0,0
5266,1469926579661,,,,,,,0.01,-0.84,0.78,15.3,-0.1,-1.2,3260,3300,,,,,,,,,,,,,,,,,
5286,1469926579681,,,,,,,0.0,-0.9,0.74,15.7,-0.8,-1.7,3280,3329,,,,,,,,,,,,,,,,,
5306,1469926579701,,,,,,,0.02,-0.84,0.74,15.6,-0.4,-1.9,3340,3329,,,,,,,,,,,,,,,,,
5326,1469926579720,,,,,,,0.0,-0.84,0.78,14.9,-0.4,-1.7,3440,3387,,,,,,,,,,,,,,,,,
5346,1469926579740,,,,22,,,-0.01,-0.87,0.76,14.6,-1.1,-1.3,3340,3358,0.987,4,39.539001,-122.32933,57.64,0.004,300.2,11,2,1.4,0,0.0,-1,0.0,,0.0,0
5366,1469926579760,,,,,,,-0.04,-0.78,0.73,14.5,-0.7,-1.3,3360,3358,,,,,,,,,,,,,,,,,
5386,1469926579780,,,,,,,-0.07,-0.73,0.77,13.9,-0.0,-1.5,3420,3343,,,,,,,,,,,,,,,,,
5406,1469926579800,,,,,,,-0.06,-0.73,0.76,13.5,0.6,-1.6,3340,3343,,,,,,,,,,,,,,,,,
5426,1469926579820,,,,,,,-0.07,-0.73,0.72,13.5,0.2,-1.6,3320,3343,,,,,,,,,,,,,,,,,
5446,1469926579840,0,299.7,208.2,21,218.7,,-0.08,-0.69,0.74,13.3,0.1,-1.4,3300,3343,1.017,4,39.539021,-122.329308,57.7,0.006,300.3,11,2,1.4,0,0.0,-1,0.0,0.0,0.0,0
5466,1469926579860,,,,,,,-0.04,-0.72,0.68,13.1,-0.1,-1.0,3400,3329,,,,,,,,,,,,,,,,,
5486,1469926579880,,,,,,,-0.03,-0.71,0.68,13.0,-0.7,-0.7,3420,3315,,,,,,,,,,,,,,,,,
5506,1469926579900,,,,,,,-0.04,-0.76,0.7,12.9,-0.8,-1.0,3260,3329,,,,,,,,,,,,,,,,,
5526,1469926579914,,,,,,,-0.03,-0.79,0.68,13.1,-1.6,-0.7,3440,3372,,,,,,,,,,,,,,,,,
5546,1469926579934,,,,22,,,-0.04,-0.69,0.7,12.6,-1.0,-0.4,3380,3343,0.963,4,39.53904,-122.329292,57.85,0.008,300.2,11,2,1.4,0,0.0,-1,0.0,,0.0,0
5566,1469926579954,,,,,,,-0.04,-0.7,0.77,12.3,-0.3,-0.2,3260,3343,,,,,,,,,,,,,,,,,
5586,1469926579974,,,,,,,-0.03,-0.73,0.73,12.5,0.3,-0.2,3420,3372,,,,,,,,,,,,,,,,,
5606,1469926579994,,,,,,,-0.06,-0.67,0.8,12.0,1.5,-0.1,3480,3358,,,,,,,,,,,,,,,,,
5626,1469926580119,,,,,,,-0.05,-0.73,0.84,11.8,0.8,0.0,3240,3387,,,,,,,,,,,,,,,,,
5646,1469926580139,0,300.2,208.3,22,218.8,,-0.06,-0.69,0.84,11.9,0.8,0.0,3300,3358,1.024,4,39.539074,-122.329254,57.93,0.011,300.0,11,3,1.4,0,0.0,-1,0.0,0.0,0.0,0
5666,1469926580159,,,,,,,-0.11,-0.65,0.91,11.5,1.1,-0.2,3340,3387,,,,,,,,,,,,,,,,,
5686,1469926580179,,,,,,,-0.1,-0.68,0.92,11.2,-0.0,0.1,3420,3418,,,,,,,,,,,,,,,,,
5706,1469926580199,,,,,,,-0.1,-0.66,0.9,11.3,-1.1,0.7,3420,3387,,,,,,,,,,,,,,,,,
5726,1469926580219,,,,,,,-0.11,-0.61,0.98,10.8,-1.3,0.9,3240,3372,,,,,,,,,,,,,,,,,
5746,1469926580239,,,,25,,,-0.09,-0.63,0.93,10.7,-2.1,0.9,3360,3387,0.992,4,39.539074,-122.329254,57.93,0.011,300.0,11,3,1.4,0,0.0,-1,0.0,,0.0,0
5766,1469926580259,,,,,,,-0.12,-0.61,0.94,10.5,-2.0,1.1,3340,3418,,,,,,,,,,,,,,,,,
5786,1469926580279,,,,,,,-0.11,-0.6,0.9,10.1,-2.5,1.2,3300,3372,,,,,,,,,,,,,,,,,
5806,1469926580201,,,,,,,-0.1,-0.6,0.85,10.1,-2.7,1.5,3400,3372,,,,,,,,,,,,,,,,,
5826,1469926580221,,,,,,,-0.14,-0.6,0.91,9.9,-1.8,1.3,3440,3372,,,,,,,,,,,,,,,,,
5846,1469926580241,0,299.5,207.8,24,218.4,,-0.13,-0.6,0.89,9.4,-2.2,1.3,3460,3387,0.973,4,39.539093,-122.329231,58.32,0.013,299.8,11,3,1.4,0,0.0,-1,0.0,0.0,0.0,0
5866,1469926580261,,,,,,,-0.15,-0.56,0.87,9.2,-2.2,1.5,3400,3372,,,,,,,,,,,,,,,,,
5886,1469926580281,,,,,,,-0.12,-0.53,0.94,8.9,-2.4,1.4,3340,3372,,,,,,,,,,,,,,,,,
5906,1469926580301,,,,,,,-0.11,-0.53,0.89,8.7,-2.0,1.5,3360,3387,,,,,,,,,,,,,,,,,
5926,1469926580320,,,,,,,-0.12,-0.5,0.92,8.5,-1.5,1.7,3340,3403,,,,,,,,,,,,,,,,,
5946,1469926580340,,,,26,,,-0.12,-0.49,0.95,7.9,-0.7,1.6,3380,3358,1.013,4,39.539108,-122.329216,58.59,0.014,299.5,11,3,1.4,0,0.0,-1,0.0,,0.0,0
5966,1469926580360,,,,,,,-0.12,-0.45,0.9,7.7,-0.6,1.9,3440,3372,,,,,,,,,,,,,,,,,
5986,1469926580380,,,,,,,-0.15,-0.47,0.98,7.2,0.2,2.0,3500,3387,,,,,,,,,,,,,,,,,
6006,1469926580400,,,,,,,-0.17,-0.5,0.99,6.6,-0.5,2.3,3300,3387,,,,,,,,,,,,,,,,,
6026,1469926580418,,,,,,,-0.19,-0.52,0.99,6.2,-0.7,2.7,3300,3372,,,,,,,,,,,,,,,,,
6046,1469926580438,0,301.0,208.8,32,219.0,14.26,-0.17,-0.47,1.05,5.5,-0.7,2.7,3460,3403,1.029,4,39.539124,-122.329193,58.66,0.016,299.2,11,3,1.4,0,0.0,-1,0.0,0.0,0.0,0
6066,1469926580458,,,,,,,-0.14,-0.47,1.02,5.1,-1.3,3.1,3320,3433,,,,,,,,,,,,,,,,,
6086,1469926580478,,,,,,,-0.14,-0.43,1.04,4.3,-0.8,3.5,3240,3418,,,,,,,,,,,,,,,,,
6106,1469926580498,,,,,,,-0.12,-0.42,1.02,3.4,-0.4,4.0,3500,3372,,,,,,,,,,,,,,,,,
6126,1469926580518,,,,,,,-0.12,-0.42,0.96,2.9,-0.5,4.3,3460,3387,,,,,,,,,,,,,,,,,
6146,1469926580538,,,,37,,,-0.15,-0.41,0.98,2.1,0.3,4.3,3360,3387,0.958,4,39.539139,-122.329163,58.69,0.018,298.9,11,3,1.4,0,0.0,-1,0.0,,0.0,0
6166,1469926580558,,,,,,,-0.14,-0.41,0.94,1.5,-0.2,4.4,3460,3418,,,,,,,,,,,,,,,,,
6186,1469926580578,,,,,,,-0.13,-0.34,0.95,0.9,-0.5,4.3,3360,3387,,,,,,,,,,,,,,,,,
6206,1469926580598,,,,,,,-0.11,-0.31,1.02,-0.0,-0.4,4.2,3340,3433,,,,,,,,,,,,,,,,,
6226,1469926580618,,,,,,,-0.09,-0.27,0.99,-0.7,-0.0,4.5,3420,3449,,,,,,,,,,,,,,,,,
6246,1469926580638,0,300.5,208.4,38,218.9,,-0.08,-0.23,1.04,-1.6,0.6,4.7,3320,3433,1.023,4,39.539154,-122.32914,58.97,0.019,298.6,11,3,1.4,0,0.0,-1,0.0,0.0,0.0,0
6266,1469926580658,,,,,,,-0.06,-0.25,1.01,-2.0,-0.0,4.8,3460,3403,,,,,,,,,,,,,,,,,
6286,1469926580678,,,,,,,-0.1,-0.21,1.09,-2.5,0.6,4.8,3500,3418,,,,,,,,,,,,,,,,,
6306,1469926580698,,,,,,,-0.11,-0.22,1.06,-2.9,-0.3,4.6,3440,3449,,,,,,,,,,,,,,,,,
6326,1469926580716,,,,,,,-0.13,-0.15,1.06,-3.2,-0.8,4.4,3320,3433,,,,,,,,,,,,,,,,,
6346,1469926580736,,,,44,,,-0.12,-0.09,1.11,-3.8,-0.9,4.0,3540,3403,0.999,4,39.539173,-122.329117,59.12,0.021,298.3,11,3,1.4,0,0.0,-1,0.0,,0.0,0
6366,1469926580756,,,,,,,-0.11,-0.09,1.03,-4.1,-0.7,4.2,3500,3449,,,,,,,,,,,,,,,,,
6386,1469926580776,,,,,,,-0.09,-0.04,1.1,-4.6,0.2,4.1,3460,3403,,,,,,,,,,,,,,,,,
6406,1469926580801,,,,,,,-0.06,-0.08,1.06,-4.9,-0.1,3.8,3380,3418,,,,,,,,,,,,,,,,,
6426,1469926580920,,,,,,,-0.11,0.0,1.09,-5.1,0.8,3.5,3340,3449,,,,,,,,,,,,,,,,,
6446,1469926580940,0,300.0,208.4,39,218.9,,-0.1,-0.01,1.05,-5.5,0.2,3.4,3480,3433,1.003,4,39.539204,-122.329079,59.75,0.024,297.7,11,3,1.4,0,0.0,-1,0.0,0.0,0.0,0
6466,1469926580960,,,,,,,-0.12,0.05,1.03,-5.8,-0.7,3.1,3480,3387,,,,,,,,,,,,,,,,,
6486,1469926580980,,,,,,,-0.09,0.13,1.05,-6.7,0.3,2.6,3320,3372,,,,,,,,,,,,,,,,,
6506,1469926581000,,,,,,,-0.06,0.18,1.01,-7.2,0.8,2.7,3420,3358,,,,,,,,,,,,,,,,,
6526,1469926581020,,,,,,,-0.07,0.16,1.01,-7.6,0.8,2.9,3340,3372,,,,,,,,,,,,,,,,,
6546,1469926581040,,,,44,,,-0.05,0.17,1.0,-7.8,0.4,2.9,3340,3329,0.993,4,39.539204,-122.329079,59.75,0.024,297.7,11,3,1.4,0,0.0,-1,0.0,,0.0,0
6566,1469926581060,,,,,,,-0.01,0.15,0.99,-7.7,0.3,2.9,3360,3286,,,,,,,,,,,,,,,,,
6586,1469926581080,,,,,,,-0.0,0.18,1.02,-7.9,0.4,2.6,3260,3300,,,,,,,,,,,,,,,,,
6606,1469926581001,,,,,,,0.01,0.19,1.03,-8.3,0.6,2.7,3280,3315,,,,,,,,,,,,,,,,,
6626,1469926581021,,,,,,,0.04,0.25,0.99,-8.6,-0.1,2.6,3260,3358,,,,,,,,,,,,,,,,,
6646,1469926581041,0,300.4,208.4,40,218.9,,0.07,0.26,1.0,-8.6,-1.5,2.6,3360,3418,0.982,4,39.539219,-122.329048,59.97,0.026,297.4,11,3,1.4,0,0.0,-1,0.0,0.0,0.0,0
6666,1469926581061,,,,,,,0.09,0.26,1.03,-8.8,-1.2,2.4,3500,3403,,,,,,,,,,,,,,,,,
6686,1469926581081,,,,,,,0.11,0.31,1.0,-9.0,-1.4,2.1,3460,3403,,,,,,,,,,,,,,,,,
6706,1469926581101,,,,,,,0.1,0.35,1.02,-9.6,-1.2,2.0,3360,3418,,,,,,,,,,,,,,,,,
6726,1469926581121,,,,,,,0.09,0.37,0.97,-10.2,-1.7,1.9,3440,3387,,,,,,,,,,,,,,,,,
6746,1469926581141,,,,45,,,0.07,0.38,0.98,-10.6,-1.4,2.0,3360,3358,0.998,4,39.539234,-122.329025,60.04,0.028,297.1,11,3,1.4,0,0.0,-1,0.0,,0.0,0
6766,1469926581161,,,,,,,0.06,0.36,0.99,-10.9,-0.8,1.8,3280,3329,,,,,,,,,,,,,,,,,
6786,1469926581181,,,,,,,0.06,0.34,0.99,-11.4,-0.9,2.0,3320,3315,,,,,,,,,,,,,,,,,
6806,1469926581201,,,,,,,0.07,0.41,0.99,-11.7,-0.9,2.0,3240,3300,,,,,,,,,,,,,,,,,
6826,1469926581221,,,,,,,0.09,0.44,1.03,-12.2,-0.8,2.0,3320,3329,,,,,,,,,,,,,,,,,
6846,1469926581241,0,300.9,208.5,41,219.0,,0.1,0.49,1.02,-12.6,-0.9,2.1,3280,3372,0.983,4,39.539253,-122.329002,59.84,0.029,296.9,11,3,1.4,0,0.0,-1,0.0,0.0,0.0,0
6866,1469926581261,,,,,,,0.12,0.51,1.0,-12.8,-1.3,2.2,3380,3387,,,,,,,,,,,,,,,,,
6886,1469926581281,,,,,,,0.12,0.52,0.97,-13.4,-1.1,2.1,3340,3372,,,,,,,,,,,,,,,,,
6906,1469926581301,,,,,,,0.13,0.57,0.95,-13.6,-1.3,2.1,3340,3329,,,,,,,,,,,,,,,,,
6926,1469926581320,,,,,,,0.14,0.56,0.93,-14.0,-0.6,1.8,3340,3315,,,,,,,,,,,,,,,,,
6946,1469926581340,,,,40,,,0.13,0.58,0.94,-14.6,-0.1,1.9,3320,3272,0.965,4,39.539268,-122.328987,59.63,0.031,296.9,11,3,1.4,0,0.0,-1,0.0,,0.0,0
6966,1469926581360,,,,,,,0.13,0.57,0.93,-14.8,-0.8,2.1,3320,3286,,,,,,,,,,,,,,,,,
6986,1469926581380,,,,,,,0.15,0.64,0.93,-15.3,-1.1,2.1,3240,3286,,,,,,,,,,,,,,,,,
7006,1469926581400,,,,,,,0.18,0.6,0.94,-15.5,-1.6,2.2,3160,3258,,,,,,,,,,,,,,,,,
7026,1469926581418,,,,,,,0.19,0.61,0.96,-15.8,-1.2,2.2,3340,3258,,,,,,,,,,,,,,,,,
7046,1469926581438,0,300.2,208.0,43,218.5,14.16,0.2,0.67,0.92,-16.1,-1.3,2.4,3240,3315,0.988,4,39.539284,-122.328964,59.39,0.032,296.7,11,3,1.4,0,0.0,-1,0.0,0.0,0.0,0
7066,1469926581458,,,,,,,0.23,0.66,0.97,-16.4,-0.9,2.5,3200,3315,,,,,,,,,,,,,,,,,
7086,1469926581478,,,,,,,0.24,0.67,0.96,-17.1,-0.6,2.6,3340,3244,,,,,,,,,,,,,,,,,
7106,1469926581502,,,,,,,0.26,0.72,0.96,-17.2,-0.5,2.6,3280,3272,,,,,,,,,,,,,,,,,
7126,1469926581522,,,,,,,0.25,0.72,0.95,-17.3,-0.3,2.6,3200,3230,,,,,,,,,,,,,,,,,
7146,1469926581542,,,,45,,,0.25,0.7,0.92,-17.5,-0.5,2.6,3180,3244,0.991,4,39.539299,-122.328934,59.11,0.034,296.5,11,3,1.4,0,0.0,-1,0.0,,0.0,0
7166,1469926581562,,,,,,,0.25,0.7,0.95,-17.6,-1.1,2.5,3320,3244,,,,,,,,,,,,,,,,,
7186,1469926581582,,,,,,,0.25,0.66,0.98,-17.8,-1.1,2.5,3160,3272,,,,,,,,,,,,,,,,,
7206,1469926581602,,,,,,,0.26,0.71,0.94,-17.8,-1.1,2.3,3180,3218,,,,,,,,,,,,,,,,,
7226,1469926581710,,,,,,,0.25,0.67,0.91,-17.7,-1.3,2.2,3260,3230,,,,,,,,,,,,,,,,,
7246,1469926581730,0,300.4,208.0,59,218.6,,0.24,0.63,0.94,-17.9,-1.6,2.1,3160,3204,1.003,4,39.539333,-122.328896,57.99,0.037,296.3,11,3,1.4,0,0.0,-1,0.0,0.0,0.0,0
7266,1469926581750,,,,,,,0.24,0.73,0.95,-18.0,-1.5,1.6,3200,3178,,,,,,,,,,,,,,,,,
7286,1469926581770,,,,,,,0.24,0.77,0.95,-18.1,-1.9,1.3,3100,3218,,,,,,,,,,,,,,,,,
7306,1469926581790,,,,,,,0.26,0.71,0.92,-18.1,-2.2,1.1,3140,3204,,,,,,,,,,,,,,,,,
7326,1469926581810,,,,,,,0.29,0.74,0.94,-18.3,-2.2,1.2,3120,3218,,,,,,,,,,,,,,,,,
7346,1469926581830,,,,57,,,0.28,0.8,0.97,-18.5,-2.2,1.0,3260,3190,0.991,4,39.539333,-122.328896,57.99,0.037,296.3,11,3,1.4,0,0.0,-1,0.0,,0.0,0
7366,1469926581850,,,,,,,0.3,0.78,0.98,-18.6,-2.5,0.9,3240,3218,,,,,,,,,,,,,,,,,
7386,1469926581870,,,,,,,0.3,0.8,0.97,-18.6,-2.2,0.9,3200,3190,,,,,,,,,,,,,,,,,
7406,1469926581794,,,,,,,0.3,0.83,0.95,-18.7,-1.6,0.7,3220,3164,,,,,,,,,,,,,,,,,
7426,1469926581814,,,,,,,0.31,0.83,0.91,-18.7,-1.9,0.4,3220,3164,,,,,,,,,,,,,,,,,
7446,1469926581834,0,300.7,208.3,46,219.1,,0.31,0.78,0.92,-18.7,-2.1,0.5,3220,3178,0.974,4,39.539352,-122.328873,57.53,0.039,296.1,11,3,1.4,0,0.0,-1,0.0,0.0,0.0,0
7466,1469926581854,,,,,,,0.3,0.79,0.95,-18.8,-2.4,0.5,3060,3178,,,,,,,,,,,,,,,,,
7486,1469926581874,,,,,,,0.29,0.8,0.97,-19.0,-2.3,0.8,3220,3178,,,,,,,,,,,,,,,,,
7506,1469926581894,,,,,,,0.3,0.8,0.94,-19.2,-1.3,1.0,3140,3164,,,,,,,,,,,,,,,,,
7526,1469926581909,,,,,,,0.29,0.81,0.95,-19.4,-0.8,1.1,3120,3138,,,,,,,,,,,,,,,,,
7546,1469926581929,,,,43,,,0.27,0.83,0.93,-19.5,-0.6,1.1,3140,3138,0.969,4,39.539372,-122.328857,57.19,0.041,296.0,11,3,1.4,0,0.0,-1,0.0,,0.0,0
7566,1469926581949,,,,,,,0.26,0.83,0.97,-19.8,0.3,1.0,3160,3126,,,,,,,,,,,,,,,,,
7586,1469926581969,,,,,,,0.24,0.8,0.98,-20.0,1.1,0.5,3100,3164,,,,,,,,,,,,,,,,,
7606,1469926581994,,,,,,,0.25,0.83,1.02,-20.3,2.1,0.1,3180,3164,,,,,,,,,,,,,,,,,
7626,1469926582014,,,,,,,0.24,0.86,1.06,-20.2,2.2,0.1,3160,3152,,,,,,,,,,,,,,,,,
7646,1469926582034,0,301.2,208.2,37,219.2,,0.21,0.83,1.0,-20.1,2.0,0.2,3120,3152,1.033,4,39.539391,-122.328835,56.46,0.043,295.8,11,3,1.4,0,0.0,-1,0.0,0.0,0.0,0
7666,1469926582054,,,,,,,0.16,0.82,0.98,-20.0,2.0,-0.2,3060,3152,,,,,,,,,,,,,,,,,
7686,1469926582074,,,,,,,0.18,0.82,0.98,-20.1,1.6,-0.2,3160,3138,,,,,,,,,,,,,,,,,
7706,1469926582095,,,,,,,0.18,0.83,1.0,-20.2,1.6,-0.1,3120,3138,,,,,,,,,,,,,,,,,
7726,1469926582115,,,,,,,0.17,0.81,0.98,-20.2,0.9,0.0,3180,3126,,,,,,,,,,,,,,,,,
7746,1469926582135,,,,37,,,0.19,0.84,0.97,-20.1,0.7,-0.2,3100,3138,0.961,4,39.539406,-122.328819,55.85,0.044,295.6,11,3,1.4,0,0.0,-1,0.0,,0.0,0
7766,1469926582155,,,,,,,0.19,0.85,0.98,-19.9,0.8,-0.3,3120,3138,,,,,,,,,,,,,,,,,
7786,1469926582175,,,,,,,0.19,0.86,0.96,-19.8,1.8,-0.4,3140,3126,,,,,,,,,,,,,,,,,
7806,1469926582194,,,,,,,0.17,0.85,0.94,-19.8,2.1,-0.2,3040,3113,,,,,,,,,,,,,,,,,
7826,1469926582214,,,,,,,0.16,0.84,0.92,-20.0,2.7,-0.0,3140,3101,,,,,,,,,,,,,,,,,
7846,1469926582234,0,300.5,208.3,36,219.0,,0.15,0.84,0.91,-20.2,2.4,0.0,3080,3126,1.009,4,39.539425,-122.328804,55.56,0.045,295.4,11,3,1.4,0,0.0,-1,0.0,0.0,0.0,0
7866,1469926582254,,,,,,,0.12,0.85,0.95,-20.4,2.2,0.1,3100,3126,,,,,,,,,,,,,,,,,
7886,1469926582274,,,,,,,0.11,0.83,0.96,-20.7,1.4,0.2,3120,3152,,,,,,,,,,,,,,,,,
7906,1469926582293,,,,,,,0.08,0.84,0.92,-20.6,1.0,0.1,3180,3138,,,,,,,,,,,,,,,,,
7926,1469926582313,,,,,,,0.06,0.82,0.9,-20.4,0.8,-0.1,3260,3164,,,,,,,,,,,,,,,,,
7946,1469926582333,,,,45,,,0.06,0.82,0.89,-20.3,0.5,-0.3,3140,3126,1.026,4,39.539444,-122.328781,55.64,0.047,295.2,11,3,1.4,0,0.0,-1,0.0,,0.0,0
7966,1469926582353,,,,,,,0.07,0.81,0.89,-20.3,0.4,-0.4,3160,3138,,,,,,,,,,,,,,,,,
7986,1469926582373,,,,,,,0.07,0.8,0.88,-20.3,-0.6,-0.5,3180,3113,,,,,,,,,,,,,,,,,
8006,1469926582491,,,,,,,0.08,0.79,0.91,-20.3,-0.7,-0.4,3140,3138,,,,,,,,,,,,,,,,,
8026,1469926582511,,,,,,,0.07,0.78,0.9,-20.1,-0.6,-0.3,3140,3164,,,,,,,,,,,,,,,,,
8046,1469926582531,0,300.5,207.9,40,219.2,14.16,0.09,0.79,0.92,-20.1,-0.1,-0.4,3100,3164,0.984,4,39.539482,-122.328758,54.77,0.05,294.5,11,3,1.5,0,0.0,-1,0.0,0.0,0.0,0
8066,1469926582551,,,,,,,0.1,0.83,0.96,-20.1,-0.1,-0.4,3120,3178,,,,,,,,,,,,,,,,,
8086,1469926582571,,,,,,,0.12,0.86,0.96,-20.3,-0.3,-0.2,3060,3152,,,,,,,,,,,,,,,,,
8106,1469926582591,,,,,,,0.1,0.85,0.95,-20.5,0.2,-0.2,3100,3152,,,,,,,,,,,,,,,,,
8126,1469926582611,,,,,,,0.11,0.84,0.95,-20.7,-0.0,-0.1,3100,3164,,,,,,,,,,,,,,,,,
8146,1469926582631,,,,41,,,0.11,0.87,0.96,-20.9,0.0,0.2,3080,3138,0.986,4,39.539482,-122.328758,54.77,0.05,294.5,11,3,1.5,0,0.0,-1,0.0,,0.0,0
8166,1469926582651,,,,,,,0.08,0.9,0.98,-21.0,-0.3,0.2,3140,3126,,,,,,,,,,,,,,,,,
8186,1469926582671,,,,,,,0.06,0.9,0.98,-21.0,-0.9,0.3,3100,3152,,,,,,,,,,,,,,,,,
8206,1469926582591,,,,,,,0.06,0.89,0.96,-20.8,-1.6,0.2,3120,3152,,,,,,,,,,,,,,,,,
8226,1469926582611,,,,,,,0.09,0.87,0.96,-20.6,-1.4,0.1,3040,3152,,,,,,,,,,,,,,,,,
8246,1469926582631,0,301.4,207.7,41,219.2,,0.1,0.87,0.9,-20.4,-1.3,-0.1,3160,3190,0.994,4,39.539501,-122.328743,54.85,0.052,293.9,11,3,1.5,0,0.0,-1,0.0,0.0,0.0,0
8266,1469926582651,,,,,,,0.09,0.9,0.91,-20.5,-0.4,-0.3,3120,3164,,,,,,,,,,,,,,,,,
8286,1469926582671,,,,,,,0.06,0.88,0.95,-20.6,0.6,-0.5,3140,3164,,,,,,,,,,,,,,,,,
8306,1469926582691,,,,,,,0.03,0.85,0.98,-20.8,1.7,-0.7,3260,3190,,,,,,,,,,,,,,,,,
8326,1469926582711,,,,,,,0.01,0.85,0.97,-20.8,0.6,-0.6,3180,3164,,,,,,,,,,,,,,,,,
8346,1469926582731,,,,38,,,-0.02,0.83,0.98,-20.6,-0.7,-0.4,3120,3178,1.009,4,39.53952,-122.328728,54.74,0.053,293.5,11,3,1.5,0,0.0,-1,0.0,,0.0,0
8366,1469926582751,,,,,,,-0.05,0.83,0.93,-20.5,-1.8,-0.6,3140,3164,,,,,,,,,,,,,,,,,
8386,1469926582771,,,,,,,-0.03,0.9,0.93,-20.6,-1.7,-0.8,3100,3164,,,,,,,,,,,,,,,,,
8406,1469926582795,,,,,,,0.02,0.92,0.99,-20.7,-1.7,-0.8,3140,3152,,,,,,,,,,,,,,,,,
8426,1469926582815,,,,,,,0.03,0.89,1.05,-20.6,-0.8,-1.1,3100,3164,,,,,,,,,,,,,,,,,
8446,1469926582835,0,301.0,207.7,29,218.9,,0.05,0.85,1.04,-20.3,0.3,-1.4,3280,3190,1.03,4,39.539539,-122.32872,54.71,0.055,293.1,11,3,1.5,0,0.0,-1,0.0,0.0,0.0,0
8466,1469926582855,,,,,,,0.04,0.8,1.0,-19.8,1.4,-1.2,3140,3178,,,,,,,,,,,,,,,,,
8486,1469926582875,,,,,,,0.0,0.81,1.01,-19.7,2.3,-1.0,3140,3178,,,,,,,,,,,,,,,,,
8506,1469926582895,,,,,,,-0.02,0.86,1.01,-19.9,1.8,-0.8,3160,3190,,,,,,,,,,,,,,,,,
8526,1469926582909,,,,,,,-0.04,0.87,1.0,-19.9,1.4,-1.0,3160,3204,,,,,,,,,,,,,,,,,
8546,1469926582929,,,,37,,,-0.05,0.86,1.01,-19.9,0.9,-1.0,3180,3218,1.005,4,39.539562,-122.32872,54.78,0.056,292.9,11,3,1.5,0,0.0,-1,0.0,,0.0,0
8566,1469926582949,,,,,,,-0.03,0.84,0.99,-19.6,0.3,-0.9,3180,3190,,,,,,,,,,,,,,,,,
8586,1469926582969,,,,,,,-0.03,0.86,0.94,-19.2,0.4,-0.8,3160,3152,,,,,,,,,,,,,,,,,
8606,1469926582994,,,,,,,-0.04,0.86,0.91,-19.3,0.9,-0.7,3200,3152,,,,,,,,,,,,,,,,,
8626,1469926583014,,,,,,,-0.04,0.88,0.95,-19.6,1.7,-0.7,3180,3190,,,,,,,,,,,,,,,,,
8646,1469926583034,0,301.4,207.9,39,219.2,,-0.05,0.88,0.99,-20.0,2.4,-0.6,3200,3204,0.997,4,39.539581,-122.328705,54.93,0.058,292.9,11,3,1.5,0,0.0,-1,0.0,0.0,0.0,0
8666,1469926583054,,,,,,,-0.07,0.82,0.97,-20.0,2.1,-0.3,3160,3204,,,,,,,,,,,,,,,,,
8686,1469926583074,,,,,,,-0.09,0.75,0.93,-19.9,0.7,-0.0,3100,3204,,,,,,,,,,,,,,,,,
8706,1469926583093,,,,,,,-0.1,0.79,0.94,-20.0,-1.1,0.4,3200,3218,,,,,,,,,,,,,,,,,
8726,1469926583113,,,,,,,-0.12,0.87,0.92,-20.4,-1.7,0.6,3080,3204,,,,,,,,,,,,,,,,,
8746,1469926583133,,,,40,,,-0.08,0.93,0.97,-20.9,-2.2,0.7,3200,3190,0.997,4,39.539604,-122.32869,55.0,0.059,292.9,11,3,1.5,0,0.0,-1,0.0,,0.0,0
8766,1469926583153,,,,,,,-0.05,0.95,1.03,-21.2,-1.3,0.9,3120,3190,,,,,,,,,,,,,,,,,
8786,1469926583173,,,,,,,-0.02,0.9,1.02,-21.3,-0.3,1.5,3220,3218,,,,,,,,,,,,,,,,,
8806,1469926583292,,,,,,,-0.02,0.92,0.98,-21.5,0.1,1.6,3200,3218,,,,,,,,,,,,,,,,,
8826,1469926583312,,,,,,,-0.07,0.95,1.01,-22.0,0.8,1.6,3200,3244,,,,,,,,,,,,,,,,,
8846,1469926583332,0,301.2,207.6,41,219.0,,-0.06,0.94,1.06,-22.5,-0.4,1.5,3260,3230,0.98,4,39.539646,-122.328682,55.73,0.062,292.7,11,3,1.5,0,0.0,-1,0.0,0.0,0.0,0
8866,1469926583352,,,,,,,-0.07,0.95,1.06,-22.4,-1.1,1.5,3200,3230,,,,,,,,,,,,,,,,,
8886,1469926583372,,,,,,,-0.04,0.87,0.97,-22.4,-1.6,2.1,3220,3204,,,,,,,,,,,,,,,,,
8906,1469926583392,,,,,,,-0.05,0.88,0.99,-22.6,-1.1,2.2,3240,3204,,,,,,,,,,,,,,,,,
8926,1469926583412,,,,,,,-0.09,0.93,1.03,-23.1,0.7,2.1,3180,3230,,,,,,,,,,,,,,,,,
8946,1469926583432,,,,45,,,-0.1,0.91,1.05,-23.0,1.0,1.6,3240,3230,0.985,4,39.539646,-122.328682,55.73,0.062,292.7,11,3,1.5,0,0.0,-1,0.0,,0.0,0
8966,1469926583452,,,,,,,-0.09,0.85,1.03,-22.9,0.3,1.2,3220,3244,,,,,,,,,,,,,,,,,
8986,1469926583472,,,,,,,-0.08,0.91,1.0,-22.6,-1.4,0.9,3200,3244,,,,,,,,,,,,,,,,,
9006,1469926583492,,,,,,,-0.11,0.92,1.0,-22.3,-2.8,0.8,3240,3230,,,,,,,,,,,,,,,,,
9026,1469926583410,,,,,,,-0.08,0.87,1.04,-22.2,-2.1,0.4,3300,3218,,,,,,,,,,,,,,,,,
9046,1469926583430,0,300.9,207.8,43,219.6,14.08,-0.08,0.84,1.01,-22.0,-0.9,-0.1,3220,3230,0.99,4,39.539669,-122.328667,55.92,0.064,292.7,11,3,1.5,0,0.0,-1,0.0,0.0,0.0,0
9066,1469926583450,,,,,,,-0.08,0.83,0.95,-21.8,-0.6,-0.3,3240,3258,,,,,,,,,,,,,,,,,
9086,1469926583470,,,,,,,-0.08,0.85,0.95,-21.8,-1.6,-0.7,3220,3244,,,,,,,,,,,,,,,,,
9106,1469926583490,,,,,,,-0.1,0.88,0.99,-21.9,-1.4,-0.9,3300,3272,,,,,,,,,,,,,,,,,
9126,1469926583509,,,,,,,-0.08,0.86,0.97,-21.8,-2.3,-0.9,3280,3230,,,,,,,,,,,,,,,,,
9146,1469926583529,,,,46,,,-0.06,0.88,0.9,-21.6,-2.6,-0.7,3220,3244,0.993,4,39.539692,-122.328667,55.93,0.066,292.6,11,3,1.5,0,0.0,-1,0.0,,0.0,0
9166,1469926583549,,,,,,,-0.05,0.95,0.88,-21.6,-1.9,-0.7,3200,3218,,,,,,,,,,,,,,,,,
9186,1469926583569,,,,,,,-0.06,0.93,0.93,-21.7,-1.0,-0.6,3220,3258,,,,,,,,,,,,,,,,,
9206,1469926583589,,,,,,,-0.07,0.89,0.93,-21.7,-0.8,-0.9,3240,3244,,,,,,,,,,,,,,,,,
9226,1469926583609,,,,,,,-0.08,0.88,0.91,-21.7,-2.1,-0.6,3260,3300,,,,,,,,,,,,,,,,,
9246,1469926583629,0,300.4,207.7,52,219.6,,-0.1,0.94,0.92,-21.7,-2.1,-0.5,3260,3258,0.994,4,39.539711,-122.328667,55.85,0.067,292.6,11,3,1.5,0,0.0,-1,0.0,0.0,0.0,0
9266,1469926583649,,,,,,,-0.07,0.97,0.99,-22.0,-1.7,-0.7,3200,3258,,,,,,,,,,,,,,,,,
9286,1469926583669,,,,,,,-0.04,0.99,1.04,-22.4,-0.7,-1.1,3260,3230,,,,,,,,,,,,,,,,,
9306,1469926583689,,,,,,,-0.02,0.96,1.02,-22.5,0.4,-0.8,3260,3286,,,,,,,,,,,,,,,,,
9326,1469926583709,,,,,,,-0.03,0.95,0.97,-22.5,0.2,-0.4,3300,3300,,,,,,,,,,,,,,,,,
9346,1469926583729,,,,39,,,-0.05,1.0,0.98,-22.8,-0.0,-0.4,3240,3272,1.005,4,39.539734,-122.328651,56.32,0.069,292.5,11,3,1.5,0,0.0,-1,0.0,,0.0,0
9366,1469926583749,,,,,,,-0.05,1.0,1.0,-23.0,0.1,-0.5,3260,3272,,,,,,,,,,,,,,,,,
9386,1469926583769,,,,,,,-0.05,0.97,0.96,-22.7,-0.3,-0.2,3220,3258,,,,,,,,,,,,,,,,,
9406,1469926583792,,,,,,,-0.07,0.99,1.0,-22.7,0.9,-0.3,3320,3272,,,,,,,,,,,,,,,,,
9426,1469926583812,,,,,,,-0.06,0.99,1.08,-22.9,1.7,-0.6,3240,3272,,,,,,,,,,,,,,,,,
9446,1469926583832,0,301.2,207.7,53,219.4,,-0.07,0.93,1.08,-22.8,1.3,-0.7,3240,3258,1.001,4,39.539757,-122.328651,56.52,0.07,292.3,11,3,1.5,0,0.0,-1,0.0,0.0,0.0,0
9466,1469926583852,,,,,,,-0.09,0.91,1.07,-22.4,0.4,-0.9,3180,3315,,,,,,,,,,,,,,,,,
9486,1469926583872,,,,,,,-0.06,0.99,1.08,-22.4,0.6,-1.4,3220,3258,,,,,,,,,,,,,,,,,
9506,1469926583892,,,,,,,-0.02,1.01,1.11,-22.3,1.3,-2.0,3260,3272,,,,,,,,,,,,,,,,,
9526,1469926583905,,,,,,,-0.02,0.95,1.08,-22.2,2.7,-1.9,3240,3300,,,,,,,,,,,,,,,,,
9546,1469926583925,,,,43,,,0.0,0.99,1.03,-22.1,2.8,-1.6,3280,3272,0.99,4,39.53978,-122.328651,56.76,0.072,292.3,11,3,1.5,0,0.0,-1,0.0,,0.0,0
9566,1469926583945,,,,,,,-0.03,1.06,1.05,-22.6,2.5,-1.5,3220,3329,,,,,,,,,,,,,,,,,
9586,1469926583965,,,,,,,-0.04,1.02,1.02,-22.7,0.6,-1.6,3300,3258,,,,,,,,,,,,,,,,,
9606,1469926584091,,,,,,,-0.06,1.02,0.98,-22.4,-0.3,-1.6,3200,3272,,,,,,,,,,,,,,,,,
9626,1469926584111,,,,,,,-0.11,1.07,1.02,-22.3,1.2,-1.6,3340,3315,,,,,,,,,,,,,,,,,
9646,1469926584131,0,300.9,207.6,37,219.5,,-0.06,1.02,1.08,-22.2,2.5,-1.7,3200,3300,1.002,4,39.539825,-122.328651,56.63,0.075,292.3,11,3,1.5,0,0.0,-1,0.0,0.0,0.0,0
9666,1469926584151,,,,,,,-0.07,0.92,1.04,-22.1,2.2,-1.7,3200,3286,,,,,,,,,,,,,,,,,
9686,1469926584171,,,,,,,-0.07,0.96,1.05,-21.9,1.2,-1.4,3280,3315,,,,,,,,,,,,,,,,,
9706,1469926584191,,,,,,,-0.02,1.0,1.11,-22.0,0.4,-1.4,3280,3286,,,,,,,,,,,,,,,,,
9726,1469926584211,,,,,,,-0.01,0.97,1.15,-21.9,1.4,-1.8,3380,3272,,,,,,,,,,,,,,,,,
9746,1469926584231,,,,39,,,0.01,0.98,1.12,-21.8,2.3,-1.9,3260,3315,0.995,4,39.539825,-122.328651,56.63,0.075,292.3,11,3,1.5,0,0.0,-1,0.0,,0.0,0
9766,1469926584251,,,,,,,-0.0,1.02,1.15,-22.0,1.9,-1.7,3280,3315,,,,,,,,,,,,,,,,,
9786,1469926584271,,,,,,,-0.02,1.03,1.16,-22.2,1.9,-1.6,3200,3286,,,,,,,,,,,,,,,,,
9806,1469926584192,,,,,,,-0.02,1.02,1.05,-22.2,1.0,-1.4,3400,3300,,,,,,,,,,,,,,,,,
9826,1469926584212,,,,,,,-0.04,1.06,1.04,-22.4,1.6,-1.2,3280,3300,,,,,,,,,,,,,,,,,
9846,1469926584232,0,301.5,206.9,51,219.0,,-0.03,1.01,1.03,-22.4,2.3,-1.0,3300,3315,0.97,4,39.539848,-122.328651,56.85,0.077,292.4,11,3,1.5,0,0.0,-1,0.0,0.0,0.0,0
9866,1469926584252,,,,,,,-0.07,0.95,0.98,-22.1,1.3,-0.8,3200,3300,,,,,,,,,,,,,,,,,
9886,1469926584272,,,,,,,-0.08,1.0,0.95,-21.9,0.4,-0.7,3220,3300,,,,,,,,,,,,,,,,,
9906,1469926584292,,,,,,,-0.06,1.05,0.96,-22.0,0.4,-0.6,3320,3329,,,,,,,,,,,,,,,,,
9926,1469926584308,,,,,,,-0.05,0.98,0.93,-21.9,0.9,-0.4,3360,3315,,,,,,,,,,,,,,,,,
9946,1469926584328,,,,58,,,-0.0,0.93,0.91,-21.7,1.2,-0.1,3220,3329,0.995,4,39.539867,-122.328651,57.1,0.078,292.6,11,3,1.4,0,0.0,-1,0.0,,0.0,0
9966,1469926584348,,,,,,,-0.02,1.0,0.94,-21.8,1.8,-0.1,3340,3329,,,,,,,,,,,,,,,,,
9986,1469926584368,,,,,,,-0.02,0.99,0.98,-22.1,1.2,0.1,3360,3315,,,,,,,,,,,,,,,,,
10006,1469926584388,,,,,,,-0.02,0.98,0.96,-22.0,0.8,0.4,3300,3300,,,,,,,,,,,,,,,,,
10026,1469926584410,,,,,,,-0.04,1.0,1.02,-21.8,1.4,0.5,3340,3343,,,,,,,,,,,,,,,,,
10046,1469926584430,0,301.7,207.9,39,220.0,14.26,-0.03,0.93,1.07,-22.2,2.2,0.6,3220,3329,0.995,4,39.53989,-122.328667,57.23,0.08,292.7,11,3,1.4,0,0.0,-1,0.0,0.0,0.0,0
10066,1469926584450,,,,,,,-0.04,0.91,1.05,-22.0,1.0,1.0,3340,3329,,,,,,,,,,,,,,,,,
10086,1469926584470,,,,,,,-0.04,0.98,1.08,-22.1,0.6,1.3,3300,3329,,,,,,,,,,,,,,,,,
10106,1469926584490,,,,,,,-0.03,0.99,1.14,-22.1,0.7,1.1,3320,3329,,,,,,,,,,,,,,,,,
10126,1469926584509,,,,,,,-0.01,0.97,1.1,-22.0,0.3,1.1,3320,3343,,,,,,,,,,,,,,,,,
10146,1469926584529,,,,39,,,-0.01,1.02,1.09,-22.0,0.9,1.4,3200,3372,1.018,4,39.539913,-122.328667,57.51,0.081,292.9,11,3,1.4,0,0.0,-1,0.0,,0.0,0
10166,1469926584549,,,,,,,0.0,1.02,1.14,-22.2,0.9,1.5,3360,3372,,,,,,,,,,,,,,,,,
10186,1469926584569,,,,,,,-0.0,0.97,1.09,-21.9,0.1,1.4,3380,3343,,,,,,,,,,,,,,,,,
10206,1469926584589,,,,,,,-0.04,1.0,1.13,-21.8,1.1,1.3,3360,3343,,,,,,,,,,,,,,,,,
10226,1469926584609,,,,,,,-0.02,0.97,1.15,-22.0,0.6,1.4,3240,3372,,,,,,,,,,,,,,,,,
10246,1469926584629,0,301.4,207.2,39,219.6,,-0.06,0.91,1.13,-21.7,-0.3,1.5,3340,3343,0.993,4,39.539936,-122.328667,57.64,0.083,293.2,11,3,1.4,0,0.0,-1,0.0,0.0,0.0,0
10266,1469926584649,,,,,,,-0.05,0.93,1.17,-21.6,-0.4,0.8,3320,3358,,,,,,,,,,,,,,,,,
10286,1469926584669,,,,,,,-0.02,0.96,1.2,-21.6,-0.1,0.3,3380,3329,,,,,,,,,,,,,,,,,
10306,1469926584689,,,,,,,-0.01,0.91,1.12,-21.4,0.4,0.4,3340,3372,,,,,,,,,,,,,,,,,
10326,1469926584709,,,,,,,-0.03,0.98,1.11,-21.5,1.0,0.3,3220,3387,,,,,,,,,,,,,,,,,
10346,1469926584729,,,,45,,,-0.02,0.98,1.06,-21.5,0.5,0.1,3400,3372,1.029,4,39.539959,-122.328682,57.72,0.085,293.4,11,3,1.4,0,0.0,-1,0.0,,0.0,0
10366,1469926584749,,,,,,,-0.01,0.96,0.99,-21.4,0.4,0.1,3280,3358,,,,,,,,,,,,,,,,,
10386,1469926584769,,,,,,,-0.02,0.93,1.03,-21.3,1.5,-0.2,3340,3358,,,,,,,,,,,,,,,,,
10406,1469926584892,,,,,,,-0.03,0.87,0.99,-21.2,1.4,-0.0,3340,3387,,,,,,,,,,,,,,,,,
10426,1469926584912,,,,,,,-0.06,0.91,0.96,-21.1,0.8,0.3,3360,3372,,,,,,,,,,,,,,,,,
10446,1469926584932,0,302.0,207.1,48,219.8,,-0.04,0.92,1.03,-21.0,0.4,0.5,3340,3343,0.992,4,39.540005,-122.32869,58.27,0.088,294.0,11,3,1.5,0,0.0,-1,0.0,0.0,0.0,0
10466,1469926584952,,,,,,,-0.06,0.84,1.0,-20.6,0.7,0.3,3300,3387,,,,,,,,,,,,,,,,,
10486,1469926584972,,,,,,,-0.04,0.85,0.99,-20.3,0.6,0.3,3360,3387,,,,,,,,,,,,,,,,,
10506,1469926584992,,,,,,,-0.06,0.87,0.98,-20.3,1.2,0.2,3360,3343,,,,,,,,,,,,,,,,,
10526,1469926585012,,,,,,,-0.07,0.84,0.92,-20.2,1.5,0.4,3400,3358,,,,,,,,,,,,,,,,,
10546,1469926585032,,,,42,,,-0.08,0.86,0.97,-20.0,1.6,0.2,3360,3387,1.004,4,39.540005,-122.32869,58.27,0.088,294.0,11,3,1.5,0,0.0,-1,0.0,,0.0,0
10566,1469926585052,,,,,,,-0.1,0.84,0.95,-20.2,1.6,0.1,3360,3403,,,,,,,,,,,,,,,,,
10586,1469926585072,,,,,,,-0.11,0.79,0.89,-20.1,0.9,0.4,3340,3358,,,,,,,,,,,,,,,,,
10606,1469926584993,,,,,,,-0.09,0.8,0.9,-19.7,0.6,0.6,3380,3358,,,,,,,,,,,,,,,,,
10626,1469926585013,,,,,,,-0.08,0.83,0.96,-19.5,0.7,0.4,3240,3358,,,,,,,,,,,,,,,,,
10646,1469926585033,1,301.4,207.3,40,220.0,,-0.05,0.82,0.92,-19.3,0.9,0.2,3360,3418,1.001,4,39.540028,-122.328705,58.18,0.09,294.3,11,3,1.5,0,0.0,-1,0.0,0.0,0.0,0
10666,1469926585053,,,,,,,-0.07,0.86,1.0,-19.6,1.0,0.3,3380,3387,,,,,,,,,,,,,,,,,
10686,1469926585073,,,,,,,-0.06,0.84,1.0,-19.6,0.6,0.5,3360,3343,,,,,,,,,,,,,,,,,
10706,1469926585094,,,,,,,-0.06,0.83,1.01,-19.1,0.9,0.5,3380,3403,,,,,,,,,,,,,,,,,
10726,1469926585114,,,,,,,-0.07,0.8,1.07,-19.0,1.5,0.4,3380,3403,,,,,,,,,,,,,,,,,
10746,1469926585134,,,,45,,,-0.07,0.74,1.07,-18.9,0.9,0.9,3380,3403,0.98,4,39.540047,-122.32872,58.35,0.091,294.7,11,3,1.5,0,0.0,-1,0.0,,0.0,0
10766,1469926585154,,,,,,,-0.09,0.81,1.1,-18.8,1.1,0.7,3360,3403,,,,,,,,,,,,,,,,,
10786,1469926585174,,,,,,,-0.08,0.78,1.13,-18.7,1.9,0.6,3360,3403,,,,,,,,,,,,,,,,,
10806,1469926585193,,,,,,,-0.08,0.78,1.05,-18.6,2.2,0.7,3400,3403,,,,,,,,,,,,,,,,,
10826,1469926585213,,,,,,,-0.08,0.77,1.03,-18.7,1.9,1.0,3360,3372,,,,,,,,,,,,,,,,,
10846,1469926585233,0,300.9,206.5,41,220.1,,-0.08,0.73,0.98,-18.5,2.0,0.6,3440,3372,1.004,4,39.54007,-122.32872,58.6,0.093,295.0,11,3,1.5,0,0.0,-1,0.0,0.0,0.0,0
10866,1469926585253,,,,,,,-0.09,0.78,0.93,-18.2,2.4,0.6,3300,3372,,,,,,,,,,,,,,,,,
10886,1469926585273,,,,,,,-0.07,0.78,0.93,-18.3,1.5,0.6,3340,3372,,,,,,,,,,,,,,,,,
10906,1469926585292,,,,,,,-0.11,0.71,0.88,-17.9,0.7,0.6,3480,3372,,,,,,,,,,,,,,,,,
10926,1469926585312,,,,,,,-0.09,0.78,0.92,-17.4,0.1,0.2,3400,3372,,,,,,,,,,,,,,,,,
10946,1469926585332,,,,49,,,-0.08,0.76,0.96,-17.2,0.2,-0.2,3360,3403,0.968,4,39.540089,-122.328728,58.65,0.094,295.5,11,3,1.5,0,0.0,-1,0.0,,0.0,0
10966,1469926585352,,,,,,,-0.09,0.75,0.98,-16.7,0.4,-0.2,3400,3449,,,,,,,,,,,,,,,,,
10986,1469926585372,,,,,,,-0.08,0.73,1.03,-16.5,0.4,-0.2,3320,3449,,,,,,,,,,,,,,,,,
11006,1469926585392,,,,,,,-0.07,0.75,0.99,-16.1,-0.3,-0.5,3340,3387,,,,,,,,,,,,,,,,,
11026,1469926585409,,,,,,,-0.1,0.75,1.05,-15.7,0.7,-0.7,3360,3403,,,,,,,,,,,,,,,,,
11046,1469926585429,0,302.0,208.0,38,219.8,14.12,-0.08,0.69,1.04,-15.6,1.0,-0.8,3360,3403,0.987,4,39.540112,-122.328743,58.75,0.096,296.0,11,3,1.5,0,0.0,-1,0.0,0.0,0.0,0
11066,1469926585449,,,,,,,-0.12,0.7,1.01,-15.2,0.5,-1.2,3380,3387,,,,,,,,,,,,,,,,,
11086,1469926585469,,,,,,,-0.11,0.68,1.07,-14.8,0.9,-1.8,3380,3372,,,,,,,,,,,,,,,,,
11106,1469926585489,,,,,,,-0.1,0.64,1.04,-14.4,1.4,-2.0,3400,3418,,,,,,,,,,,,,,,,,
11126,1469926585507,,,,,,,-0.09,0.67,1.11,-13.9,1.5,-2.2,3480,3433,,,,,,,,,,,,,,,,,
11146,1469926585527,,,,37,,,-0.09,0.63,1.11,-13.4,1.6,-2.4,3480,3433,0.987,4,39.540134,-122.328758,58.86,0.098,296.4,11,3,1.5,0,0.0,-1,0.0,,0.0,0
11166,1469926585547,,,,,,,-0.11,0.63,1.12,-12.5,2.2,-2.5,3400,3387,,,,,,,,,,,,,,,,,
11186,1469926585567,,,,,,,-0.11,0.56,1.14,-12.1,2.7,-2.7,3460,3387,,,,,,,,,,,,,,,,,
11206,1469926585587,,,,,,,-0.13,0.52,1.11,-11.5,1.3,-2.8,3400,3403,,,,,,,,,,,,,,,,,
11226,1469926585708,,,,,,,-0.13,0.53,1.15,-10.9,1.4,-3.0,3300,3387,,,,,,,,,,,,,,,,,
11246,1469926585728,0,302.0,207.5,50,220.3,,-0.1,0.5,1.18,-10.5,1.6,-3.3,3340,3449,1.018,4,39.540176,-122.328796,59.1,0.102,297.2,11,3,1.5,0,0.0,-1,0.0,0.0,0.0,0
11266,1469926585748,,,,,,,-0.09,0.47,1.11,-9.9,1.5,-3.2,3420,3449,,,,,,,,,,,,,,,,,
11286,1469926585768,,,,,,,-0.09,0.46,1.1,-9.5,1.5,-3.3,3320,3449,,,,,,,,,,,,,,,,,
11306,1469926585788,,,,,,,-0.08,0.42,0.98,-8.9,1.5,-3.3,3520,3403,,,,,,,,,,,,,,,,,
11326,1469926585808,,,,,,,-0.09,0.43,0.98,-8.6,2.2,-3.3,3500,3418,,,,,,,,,,,,,,,,,
11346,1469926585828,,,,37,,,-0.1,0.33,0.97,-8.2,1.9,-3.4,3420,3418,0.976,4,39.540176,-122.328796,59.1,0.102,297.2,11,3,1.5,0,0.0,-1,0.0,,0.0,0
11366,1469926585848,,,,,,,-0.12,0.33,0.97,-7.5,1.8,-3.6,3500,3449,,,,,,,,,,,,,,,,,
11386,1469926585868,,,,,,,-0.07,0.33,1.06,-7.1,2.0,-3.9,3320,3418,,,,,,,,,,,,,,,,,
11406,1469926585792,,,,,,,-0.05,0.3,1.01,-6.6,2.0,-3.9,3400,3449,,,,,,,,,,,,,,,,,
11426,1469926585812,,,,,,,-0.06,0.31,1.03,-6.4,2.6,-3.7,3320,3418,,,,,,,,,,,,,,,,,
11446,1469926585832,0,301.0,206.2,45,220.4,,-0.04,0.25,0.93,-6.0,2.6,-3.5,3520,3433,0.987,4,39.540195,-122.328804,59.34,0.103,297.6,11,3,1.5,0,0.0,-1,0.0,0.0,0.0,0
11466,1469926585852,,,,,,,-0.06,0.22,0.95,-5.5,3.2,-3.5,3400,3449,,,,,,,,,,,,,,,,,
11486,1469926585872,,,,,,,-0.07,0.14,0.96,-5.2,2.8,-3.6,3460,3433,,,,,,,,,,,,,,,,,
11506,1469926585892,,,,,,,-0.11,0.1,0.97,-4.6,3.0,-3.6,3500,3449,,,,,,,,,,,,,,,,,
11526,1469926585907,,,,,,,-0.09,0.11,1.06,-4.3,3.0,-3.6,3340,3449,,,,,,,,,,,,,,,,,
11546,1469926585927,,,,37,,,-0.08,0.07,1.02,-3.9,3.2,-3.2,3400,3449,1.01,4,39.540218,-122.328819,59.56,0.105,298.0,11,3,1.5,0,0.0,-1,0.0,,0.0,0
11566,1469926585947,,,,,,,-0.08,0.11,1.05,-3.8,3.6,-2.9,3420,3433,,,,,,,,,,,,,,,,,
11586,1469926585967,,,,,,,-0.09,0.06,0.95,-3.5,3.2,-2.6,3460,3449,,,,,,,,,,,,,,,,,
11606,1469926585993,,,,,,,-0.12,0.06,0.97,-3.1,3.3,-2.7,3340,3449,,,,,,,,,,,,,,,,,
11626,1469926586013,,,,,,,-0.13,-0.02,0.98,-2.9,2.8,-2.7,3520,3433,,,,,,,,,,,,,,,,,
11646,1469926586033,0,301.4,206.3,32,220.4,,-0.14,-0.01,1.01,-2.3,2.2,-2.6,3540,3464,0.974,4,39.540237,-122.328835,59.75,0.106,298.4,11,3,1.5,0,0.0,-1,0.0,0.0,0.0,0
11666,1469926586053,,,,,,,-0.13,-0.04,1.04,-1.9,2.9,-2.6,3360,3449,,,,,,,,,,,,,,,,,
11686,1469926586073,,,,,,,-0.12,-0.04,0.98,-1.6,3.4,-2.5,3560,3449,,,,,,,,,,,,,,,,,
11706,1469926586093,,,,,,,-0.11,-0.02,1.01,-1.5,4.0,-2.4,3320,3449,,,,,,,,,,,,,,,,,
11726,1469926586113,,,,,,,-0.11,-0.05,0.94,-1.0,3.6,-2.5,3500,3433,,,,,,,,,,,,,,,,,
11746,1469926586133,,,,61,,,-0.13,-0.06,1.02,-0.8,4.3,-2.7,3360,3464,0.966,4,39.54026,-122.32885,59.81,0.108,298.9,11,3,1.4,0,0.0,-1,0.0,,0.0,0
11766,1469926586153,,,,,,,-0.14,-0.09,1.03,-0.5,3.5,-2.5,3460,3480,,,,,,,,,,,,,,,,,
11786,1469926586173,,,,,,,-0.13,-0.09,1.04,-0.0,2.8,-2.7,3500,3449,,,,,,,,,,,,,,,,,
11806,1469926586192,,,,,,,-0.12,-0.11,1.01,0.3,2.7,-2.7,3420,3449,,,,,,,,,,,,,,,,,
11826,1469926586212,,,,,,,-0.1,-0.1,1.05,0.7,2.9,-2.7,3520,3512,,,,,,,,,,,,,,,,,
11846,1469926586232,0,301.4,206.2,60,220.6,,-0.07,-0.13,1.05,1.2,2.7,-2.9,3520,3433,1.015,4,39.540283,-122.328857,60.02,0.11,299.4,11,3,1.4,0,0.0,-1,0.0,0.0,0.0,0
11866,1469926586252,,,,,,,-0.1,-0.14,1.12,1.7,3.5,-3.3,3540,3464,,,,,,,,,,,,,,,,,
11886,1469926586272,,,,,,,-0.09,-0.17,1.12,1.8,4.0,-3.4,3520,3480,,,,,,,,,,,,,,,,,
11906,1469926586292,,,,,,,-0.11,-0.16,1.11,1.9,2.9,-3.4,3420,3449,,,,,,,,,,,,,,,,,
11926,1469926586312,,,,,,,-0.09,-0.14,1.17,2.0,2.9,-3.3,3460,3480,,,,,,,,,,,,,,,,,
11946,1469926586332,,,,52,,,-0.07,-0.18,1.13,2.1,3.3,-3.0,3480,3480,1.038,4,39.540302,-122.328888,60.16,0.112,300.0,11,3,1.4,0,0.0,-1,0.0,,0.0,0
11966,1469926586352,,,,,,,-0.08,-0.17,1.21,2.0,3.5,-2.7,3460,3512,,,,,,,,,,,,,,,,,
11986,1469926586372,,,,,,,-0.06,-0.17,1.15,2.2,2.9,-2.5,3460,3464,,,,,,,,,,,,,,,,,
12006,1469926586392,,,,,,,-0.09,-0.19,1.23,2.3,3.9,-2.3,3480,3464,,,,,,,,,,,,,,,,,
12026,1469926586509,,,,,,,-0.11,-0.26,1.19,2.3,3.3,-2.1,3540,3495,,,,,,,,,,,,,,,,,
12046,1469926586529,0,302.0,206.6,44,220.1,14.2,-0.09,-0.25,1.17,2.6,2.1,-2.2,3420,3418,1.003,4,39.540344,-122.328911,60.27,0.115,301.3,11,3,1.4,0,0.0,-1,0.0,0.0,0.0,0
12066,1469926586549,,,,,,,-0.06,-0.29,1.2,2.7,2.7,-2.1,3420,3418,,,,,,,,,,,,,,,,,
12086,1469926586569,,,,,,,-0.04,-0.29,1.21,2.6,3.1,-1.9,3380,3418,,,,,,,,,,,,,,,,,
12106,1469926586589,,,,,,,-0.03,-0.24,1.19,2.6,2.7,-1.9,3360,3387,,,,,,,,,,,,,,,,,
12126,1469926586609,,,,,,,-0.03,-0.24,1.13,2.8,2.5,-1.6,3320,3343,,,,,,,,,,,,,,,,,
12146,1469926586629,,,,49,,,-0.02,-0.24,1.11,2.9,2.6,-1.4,3260,3286,1.001,4,39.540344,-122.328911,60.27,0.115,301.3,11,3,1.4,0,0.0,-1,0.0,,0.0,0
12166,1469926586649,,,,,,,-0.02,-0.26,1.11,2.9,2.1,-1.1,3320,3329,,,,,,,,,,,,,,,,,
12186,1469926586669,,,,,,,-0.02,-0.26,1.11,3.1,1.2,-0.8,3280,3300,,,,,,,,,,,,,,,,,
12206,1469926586689,,,,,,,-0.01,-0.27,1.09,3.4,1.0,-0.5,3300,3372,,,,,,,,,,,,,,,,,
12226,1469926586610,,,,,,,-0.0,-0.28,1.15,3.6,0.6,-0.4,3420,3372,,,,,,,,,,,,,,,,,
12246,1469926586630,0,301.4,206.1,38,220.9,,0.01,-0.29,1.12,3.7,-0.3,-0.1,3440,3433,0.999,4,39.540367,-122.328926,60.47,0.117,302.0,11,3,1.4,0,0.0,-1,0.0,0.0,0.0,0
12266,1469926586650,,,,,,,0.02,-0.29,1.13,4.1,0.6,0.3,3460,3418,,,,,,,,,,,,,,,,,
12286,1469926586670,,,,,,,0.04,-0.28,1.15,4.2,1.0,0.3,3360,3358,,,,,,,,,,,,,,,,,
12306,1469926586690,,,,,,,0.02,-0.28,1.14,4.6,1.3,0.1,3340,3358,,,,,,,,,,,,,,,,,
12326,1469926586710,,,,,,,0.02,-0.29,1.15,4.7,1.5,-0.4,3360,3343,,,,,,,,,,,,,,,,,
12346,1469926586730,,,,33,,,0.04,-0.28,1.14,4.8,1.0,-0.8,3280,3372,0.983,4,39.540386,-122.328934,60.25,0.118,302.7,11,3,1.4,0,0.0,-1,0.0,,0.0,0
12366,1469926586750,,,,,,,0.04,-0.31,1.17,5.0,1.3,-1.2,3320,3358,,,,,,,,,,,,,,,,,
12386,1469926586770,,,,,,,0.03,-0.29,1.23,5.2,2.1,-2.0,3380,3387,,,,,,,,,,,,,,,,,
12406,1469926586792,,,,,,,0.03,-0.3,1.2,5.3,1.9,-2.3,3360,3403,,,,,,,,,,,,,,,,,
12426,1469926586812,,,,,,,0.04,-0.27,1.2,5.3,1.9,-2.3,3360,3387,,,,,,,,,,,,,,,,,
12446,1469926586832,0,301.0,206.0,35,220.7,,0.04,-0.29,1.21,5.2,2.2,-2.2,3300,3358,0.981,4,39.540409,-122.328949,60.0,0.12,303.3,11,3,1.4,0,0.0,-1,0.0,0.0,0.0,0
12466,1469926586852,,,,,,,0.05,-0.31,1.16,5.4,2.4,-1.8,3280,3315,,,,,,,,,,,,,,,,,
12486,1469926586872,,,,,,,0.04,-0.35,1.18,5.2,2.9,-1.4,3400,3315,,,,,,,,,,,,,,,,,
12506,1469926586892,,,,,,,0.04,-0.37,1.15,5.1,2.8,-1.1,3280,3329,,,,,,,,,,,,,,,,,
12526,1469926586906,,,,,,,0.05,-0.37,1.13,5.1,2.3,-0.8,3300,3300,,,,,,,,,,,,,,,,,
12546,1469926586926,,,,36,,,0.05,-0.35,1.11,5.1,2.1,-0.8,3300,3300,1.015,4,39.540428,-122.328964,59.4,0.121,304.0,11,3,1.4,0,0.0,-1,0.0,,0.0,0
12566,1469926586946,,,,,,,0.05,-0.35,1.14,5.1,2.4,-0.9,3240,3300,,,,,,,,,,,,,,,,,
12586,1469926586966,,,,,,,0.09,-0.35,1.11,5.2,2.4,-0.5,3180,3315,,,,,,,,,,,,,,,,,
12606,1469926586993,,,,,,,0.08,-0.37,1.1,5.4,2.1,-0.6,3220,3315,,,,,,,,,,,,,,,,,
12626,1469926587013,,,,,,,0.12,-0.32,1.12,5.5,2.2,-1.0,3220,3300,,,,,,,,,,,,,,,,,
12646,1469926587033,0,301.0,206.2,47,221.1,,0.15,-0.32,1.14,5.4,3.3,-1.2,3360,3286,0.961,4,39.540451,-122.328972,58.98,0.123,304.8,11,3,1.4,0,0.0,-1,0.0,0.0,0.0,0
12666,1469926587053,,,,,,,0.13,-0.35,1.1,5.6,3.3,-1.3,3200,3272,,,,,,,,,,,,,,,,,
12686,1469926587073,,,,,,,0.12,-0.34,1.09,5.7,3.1,-1.5,3220,3286,,,,,,,,,,,,,,,,,
12706,1469926587093,,,,,,,0.14,-0.36,1.11,5.5,3.1,-1.4,3320,3286,,,,,,,,,,,,,,,,,
12726,1469926587113,,,,,,,0.17,-0.38,1.09,5.6,2.4,-1.2,3240,3230,,,,,,,,,,,,,,,,,
12746,1469926587133,,,,37,,,0.16,-0.4,1.07,5.7,2.2,-1.0,3240,3258,1.001,4,39.540474,-122.328987,58.47,0.125,305.4,11,3,1.4,0,0.0,-1,0.0,,0.0,0
12766,1469926587153,,,,,,,0.19,-0.34,1.07,5.4,1.7,-1.0,3140,3204,,,,,,,,,,,,,,,,,
12786,1469926587173,,,,,,,0.2,-0.4,1.08,4.9,1.4,-0.4,3280,3190,,,,,,,,,,,,,,,,,
12806,1469926587292,,,,,,,0.21,-0.41,1.05,5.2,0.7,-0.0,3140,3204,,,,,,,,,,,,,,,,,
12826,1469926587312,,,,,,,0.19,-0.34,1.05,5.0,0.1,0.2,3160,3178,,,,,,,,,,,,,,,,,
12846,1469926587332,0,302.0,206.6,46,221.3,,0.21,-0.37,1.03,4.9,0.5,0.4,3100,3230,0.982,4,39.540516,-122.32901,57.3,0.128,306.8,11,3,1.4,0,0.0,-1,0.0,0.0,0.0,0
12866,1469926587352,,,,,,,0.23,-0.36,1.02,4.9,0.3,0.6,3080,3204,,,,,,,,,,,,,,,,,
12886,1469926587372,,,,,,,0.21,-0.37,1.04,4.9,1.7,0.6,3140,3190,,,,,,,,,,,,,,,,,
12906,1469926587392,,,,,,,0.23,-0.37,1.09,5.1,1.7,0.5,3040,3164,,,,,,,,,,,,,,,,,
12926,1469926587412,,,,,,,0.24,-0.38,1.12,5.1,2.6,0.1,2980,3113,,,,,,,,,,,,,,,,,
12946,1469926587432,,,,41,,,0.24,-0.37,1.15,5.1,3.4,-0.1,2960,3113,0.948,4,39.540516,-122.32901,57.3,0.128,306.8,11,3,1.4,0,0.0,-1,0.0,,0.0,0
12966,1469926587452,,,,,,,0.25,-0.35,1.16,5.1,3.2,-0.4,3000,3101,,,,,,,,,,,,,,,,,
12986,1469926587472,,,,,,,0.24,-0.38,1.17,5.3,3.1,-0.8,2840,3089,,,,,,,,,,,,,,,,,
13006,1469926587492,,,,,,,0.23,-0.36,1.23,5.3,3.4,-0.8,2780,3113,,,,,,,,,,,,,,,,,
13026,1469926587410,,,,,,,0.25,-0.35,1.23,5.1,3.4,-0.6,2780,3101,,,,,,,,,,,,,,,,,
13046,1469926587430,0,302.0,206.6,36,221.7,14.15,0.29,-0.33,1.19,5.1,3.5,-0.9,2780,3076,0.962,4,39.540539,-122.329025,56.49,0.13,307.5,11,3,1.4,0,0.0,-1,0.0,0.0,0.0,0
13066,1469926587450,,,,,,,0.32,-0.33,1.14,5.0,2.8,-0.9,2720,3052,,,,,,,,,,,,,,,,,
13086,1469926587470,,,,,,,0.33,-0.38,1.1,5.0,2.6,-0.6,2680,3040,,,,,,,,,,,,,,,,,
13106,1469926587490,,,,,,,0.35,-0.43,1.09,4.9,2.3,-0.4,2740,2992,,,,,,,,,,,,,,,,,
13126,1469926587510,,,,,,,0.36,-0.4,1.07,5.0,2.1,-0.4,2700,3004,,,,,,,,,,,,,,,,,
13146,1469926587530,,,,28,,,0.36,-0.36,1.06,4.6,1.1,-0.3,2640,2992,0.892,4,39.540558,-122.329041,55.55,0.131,308.4,11,3,1.4,0,0.0,-1,0.0,,0.0,0
13166,1469926587550,,,,,,,0.38,-0.33,1.05,4.2,0.8,0.1,2620,2980,,,,,,,,,,,,,,,,,
13186,1469926587570,,,,,,,0.4,-0.32,1.04,4.0,0.6,0.1,2500,2946,,,,,,,,,,,,,,,,,
13206,1469926587590,,,,,,,0.39,-0.34,0.99,3.7,0.1,0.0,2500,2890,,,,,,,,,,,,,,,,,
13226,1469926587610,,,,,,,0.41,-0.32,1.01,3.6,0.2,-0.0,2460,2869,,,,,,,,,,,,,,,,,
13246,1469926587630,0,302.0,206.5,21,222.2,,0.44,-0.33,1.0,3.6,0.5,0.1,2440,2890,0.9,4,39.540581,-122.329048,54.49,0.133,309.4,11,3,1.4,0,0.0,-1,0.0,0.0,0.0,0
13266,1469926587650,,,,,,,0.43,-0.33,1.03,3.5,0.3,-0.2,2480,2847,,,,,,,,,,,,,,,,,
13286,1469926587670,,,,,,,0.44,-0.34,1.03,3.3,0.5,-0.4,2420,2912,,,,,,,,,,,,,,,,,
13306,1469926587690,,,,,,,0.44,-0.36,1.05,3.3,0.7,-0.5,2380,2901,,,,,,,,,,,,,,,,,
13326,1469926587710,,,,,,,0.45,-0.35,1.02,3.1,0.6,-0.6,2300,2816,,,,,,,,,,,,,,,,,
13346,1469926587730,,,,34,,,0.45,-0.31,1.04,3.0,1.0,-0.6,2260,2806,0.817,5,39.5406,-122.329048,53.5,0.134,310.4,11,3,1.4,0,0.0,-1,0.0,,0.0,0
13366,1469926587750,,,,,,,0.44,-0.36,1.04,3.0,1.7,-0.7,2280,2816,,,,,,,,,,,,,,,,,
13386,1469926587770,,,,,,,0.46,-0.38,1.03,3.2,1.8,-1.1,2180,2786,,,,,,,,,,,,,,,,,
13406,1469926587793,,,,,,,0.48,-0.36,1.07,3.2,2.4,-1.6,2160,2776,,,,,,,,,,,,,,,,,
13426,1469926587813,,,,,,,0.51,-0.33,1.03,3.0,3.0,-1.7,2160,2756,,,,,,,,,,,,,,,,,
13446,1469926587833,0,301.5,206.2,27,221.8,,0.52,-0.29,1.04,2.9,2.8,-1.8,2140,2727,0.808,5,39.540619,-122.329063,52.02,0.136,311.5,11,3,1.4,0,0.0,-1,0.0,0.0,0.0,0
13466,1469926587853,,,,,,,0.53,-0.25,1.04,2.7,2.6,-1.5,2140,2689,,,,,,,,,,,,,,,,,
13486,1469926587873,,,,,,,0.52,-0.22,1.06,2.2,2.3,-1.2,2080,2680,,,,,,,,,,,,,,,,,
13506,1469926587893,,,,,,,0.51,-0.17,1.05,1.8,1.9,-1.0,2060,2661,,,,,,,,,,,,,,,,,
13526,1469926587907,,,,,,,0.49,-0.15,0.99,1.4,1.1,-0.7,2020,2661,,,,,,,,,,,,,,,,,
13546,1469926587927,,,,29,,,0.49,-0.13,0.98,1.2,0.6,-0.9,1980,2624,0.754,5,39.540642,-122.329079,50.67,0.138,312.4,11,3,1.4,0,0.0,-1,0.0,,0.0,0
13566,1469926587947,,,,,,,0.49,-0.13,0.98,1.0,0.3,-1.0,1940,2606,,,,,,,,,,,,,,,,,
13586,1469926587967,,,,,,,0.52,-0.13,0.99,0.9,-0.2,-1.1,1920,2606,,,,,,,,,,,,,,,,,
13606,1469926587987,,,,,,,0.54,-0.13,0.99,0.7,-0.6,-1.0,1880,2580,,,,,,,,,,,,,,,,,
13626,1469926588103,,,,,,,0.56,-0.11,0.97,0.8,-0.8,-0.8,1860,2546,,,,,,,,,,,,,,,,,
13646,1469926588123,0,301.4,205.5,22,221.4,,0.57,-0.15,0.97,0.7,-0.7,-0.5,1840,2555,0.747,5,39.540676,-122.329086,47.58,0.14,314.1,11,3,1.4,0,0.0,-1,0.0,0.0,0.0,0
13666,1469926588143,,,,,,,0.58,-0.15,0.99,0.7,-0.5,-0.3,1780,2546,,,,,,,,,,,,,,,,,
13686,1469926588163,,,,,,,0.6,-0.14,1.04,0.6,-0.5,-0.6,1740,2555,,,,,,,,,,,,,,,,,
13706,1469926588183,,,,,,,0.6,-0.13,1.01,0.4,0.1,-1.1,1740,2504,,,,,,,,,,,,,,,,,
13726,1469926588203,,,,,,,0.6,-0.1,1.04,0.1,0.1,-1.4,1720,2512,,,,,,,,,,,,,,,,,
13746,1469926588223,,,,18,,,0.59,-0.1,1.04,-0.1,0.4,-1.6,1660,2472,0.685,5,39.540676,-122.329086,47.58,0.14,314.1,11,3,1.4,0,0.0,-1,0.0,,0.0,0
13766,1469926588243,,,,,,,0.57,-0.07,1.03,-0.5,0.9,-1.8,1620,2472,,,,,,,,,,,,,,,,,
13786,1469926588263,,,,,,,0.55,-0.07,1.01,-0.7,1.0,-1.6,1600,2456,,,,,,,,,,,,,,,,,
13806,1469926588192,,,,,,,0.5,-0.07,1.02,-0.8,1.9,-1.9,1600,2464,,,,,,,,,,,,,,,,,
13826,1469926588212,,,,,,,0.45,-0.05,1.03,-0.9,2.1,-2.4,1520,2472,,,,,,,,,,,,,,,,,
13846,1469926588232,0,301.5,205.5,12,221.6,,0.42,-0.06,1.03,-0.9,2.3,-2.7,1500,2504,0.651,5,39.540695,-122.329102,46.14,0.142,315.1,11,3,1.4,0,0.0,-1,0.0,0.0,0.0,0
13866,1469926588252,,,,,,,0.36,-0.08,0.99,-0.8,2.5,-2.9,1460,2464,,,,,,,,,,,,,,,,,
13886,1469926588272,,,,,,,0.36,-0.07,1.0,-0.8,2.2,-3.0,1480,2456,,,,,,,,,,,,,,,,,
13906,1469926588293,,,,,,,0.34,-0.09,0.97,-0.8,2.0,-2.8,1400,2449,,,,,,,,,,,,,,,,,
13926,1469926588313,,,,,,,0.31,-0.09,0.95,-0.9,1.6,-2.7,1360,2441,,,,,,,,,,,,,,,,,
13946,1469926588333,,,,12,,,0.29,-0.09,0.94,-0.9,1.3,-2.4,1360,2441,0.572,0,39.54071,-122.329102,44.62,0.143,316.0,11,3,1.4,0,0.0,-1,0.0,,0.0,0
13966,1469926588353,,,,,,,0.27,-0.1,0.91,-0.9,1.5,-2.1,1300,2426,,,,,,,,,,,,,,,,,
13986,1469926588373,,,,,,,0.26,-0.15,0.89,-0.7,0.9,-1.9,1280,2418,,,,,,,,,,,,,,,,,
14006,1469926588391,,,,,,,0.26,-0.14,0.88,-0.5,1.4,-1.6,1240,2426,,,,,,,,,,,,,,,,,
14026,1469926588411,,,,,,,0.24,-0.15,0.88,-0.6,1.1,-1.3,1220,2426,,,,,,,,,,,,,,,,,
14046,1469926588431,0,301.7,205.8,8,222.1,14.12,0.23,-0.13,0.87,-0.6,0.6,-1.2,1180,2387,0.511,0,39.540726,-122.329117,43.52,0.144,316.8,11,3,1.4,0,0.0,-1,0.0,0.0,0.0,0
14066,1469926588451,,,,,,,0.21,-0.08,0.9,-1.0,-0.1,-1.0,1160,2289,,,,,,,,,,,,,,,,,
14086,1469926588471,,,,,,,0.21,-0.08,0.91,-1.2,-0.6,-0.7,1140,2373,,,,,,,,,,,,,,,,,
14106,1469926588491,,,,,,,0.23,-0.1,0.9,-1.3,-1.5,-0.5,1100,2323,,,,,,,,,,,,,,,,,
14126,1469926588510,,,,,,,0.21,-0.04,0.93,-1.4,-2.4,-0.4,1160,2352,,,,,,,,,,,,,,,,,
14146,1469926588530,,,,8,,,0.21,-0.06,0.93,-1.6,-2.5,-0.2,1320,2330,0.485,0,39.540745,-122.329117,43.14,0.145,317.6,11,3,1.4,0,0.0,-1,0.0,,0.0,0
14166,1469926588550,,,,,,,0.22,-0.04,0.94,-1.7,-3.0,-0.1,1400,2323,,,,,,,,,,,,,,,,,
14186,1469926588570,,,,,,,0.21,-0.02,0.93,-1.8,-2.9,-0.0,1520,2309,,,,,,,,,,,,,,,,,
14206,1469926588590,,,,,,,0.2,-0.01,0.92,-1.8,-3.6,-0.2,1620,2303,,,,,,,,,,,,,,,,,
14226,1469926588610,,,,,,,0.21,0.01,0.94,-2.0,-3.1,-0.2,1780,2295,,,,,,,,,,,,,,,,,
14246,1469926588630,0,301.7,205.5,11,222.0,,0.22,0.04,0.94,-2.1,-3.4,-0.5,1920,2267,0.658,5,39.540764,-122.329124,42.78,0.147,318.4,11,3,1.4,0,0.0,-1,0.0,0.0,0.0,0
14266,1469926588650,,,,,,,0.24,0.04,0.95,-2.2,-3.2,-0.5,2040,2275,,,,,,,,,,,,,,,,,
14286,1469926588670,,,,,,,0.26,0.03,0.96,-2.2,-2.6,-0.5,2200,2241,,,,,,,,,,,,,,,,,
14306,1469926588690,,,,,,,0.25,0.0,0.98,-2.1,-1.6,-0.5,2320,2223,,,,,,,,,,,,,,,,,
14326,1469926588709,,,,,,,0.26,0.01,0.99,-2.2,-1.4,-0.8,2500,2215,,,,,,,,,,,,,,,,,
14346,1469926588729,,,,27,,,0.27,0.04,0.97,-2.4,-0.9,-1.0,2740,2209,1.015,4,39.540779,-122.329124,42.23,0.148,319.1,11,3,1.4,0,0.0,-1,0.0,,0.0,0
14366,1469926588749,,,,,,,0.26,0.02,0.95,-2.6,-1.5,-0.9,2920,2295,,,,,,,,,,,,,,,,,
14386,1469926588769,,,,,,,0.23,0.04,0.95,-2.6,-1.2,-1.1,3040,2358,,,,,,,,,,,,,,,,,
14406,1469926588892,,,,,,,0.21,0.04,0.97,-2.7,-1.1,-1.2,3040,2358,,,,,,,,,,,,,,,,,
14426,1469926588912,,,,,,,0.17,0.04,0.99,-2.7,-0.3,-1.2,3140,2449,,,,,,,,,,,,,,,,,
14446,1469926588932,0,302.0,206.6,33,223.3,,0.15,0.03,1.0,-2.8,0.6,-1.2,3120,2387,1.282,3,39.54081,-122.32914,40.66,0.15,320.5,11,3,1.4,0,0.0,-1,0.0,0.0,0.0,0
14466,1469926588952,,,,,,,0.12,0.02,1.0,-2.9,0.1,-1.6,3080,2358,,,,,,,,,,,,,,,,,
14486,1469926588972,,,,,,,0.06,0.05,0.99,-3.3,-0.1,-1.4,3020,2295,,,,,,,,,,,,,,,,,
14506,1469926588992,,,,,,,0.05,0.05,0.97,-3.4,-0.9,-1.4,2840,2203,,,,,,,,,,,,,,,,,
14526,1469926589012,,,,,,,0.04,0.05,0.97,-3.7,-0.7,-1.3,2740,2160,,,,,,,,,,,,,,,,,
14546,1469926589032,,,,40,,,0.04,0.05,1.01,-4.2,-0.6,-1.1,2700,2172,1.267,3,39.54081,-122.32914,40.66,0.15,320.5,11,3,1.4,0,0.0,-1,0.0,,0.0,0
14566,1469926589052,,,,,,,0.04,0.07,0.96,-4.5,-0.5,-0.9,2660,2095,,,,,,,,,,,,,,,,,
14586,1469926589072,,,,,,,0.06,0.09,0.96,-5.0,-0.5,-0.4,2720,2153,,,,,,,,,,,,,,,,,
14606,1469926588992,,,,,,,0.07,0.07,0.98,-5.3,-0.4,0.1,2740,2124,,,,,,,,,,,,,,,,,
14626,1469926589012,,,,,,,0.09,0.12,0.99,-5.6,-0.5,0.3,2740,2184,,,,,,,,,,,,,,,,,
14646,1469926589032,0,302.0,206.0,25,222.9,,0.14,0.12,0.99,-6.1,-0.8,0.6,2860,2235,1.215,3,39.540825,-122.32914,39.99,0.151,321.3,11,3,1.4,0,0.0,-1,0.0,0.0,0.0,0
14666,1469926589052,,,,,,,0.13,0.12,0.99,-6.4,-1.1,0.7,2880,2281,,,,,,,,,,,,,,,,,
14686,1469926589072,,,,,,,0.14,0.16,1.03,-6.6,-1.5,0.4,2860,2247,,,,,,,,,,,,,,,,,
14706,1469926589092,,,,,,,0.13,0.2,1.02,-7.0,-1.3,0.3,2920,2241,,,,,,,,,,,,,,,,,
14726,1469926589109,,,,,,,0.13,0.21,1.0,-7.3,-1.4,0.3,2880,2229,,,,,,,,,,,,,,,,,
14746,1469926589129,,,,41,,,0.14,0.2,0.99,-7.7,-1.5,0.6,2840,2209,1.294,3,39.54084,-122.329155,39.77,0.152,322.1,11,3,1.4,0,0.0,-1,0.0,,0.0,0
14766,1469926589149,,,,,,,0.13,0.16,0.95,-8.1,-1.5,0.7,2740,2184,,,,,,,,,,,,,,,,,
14786,1469926589169,,,,,,,0.15,0.17,0.95,-8.5,-1.9,0.7,2700,2147,,,,,,,,,,,,,,,,,
14806,1469926589193,,,,,,,0.15,0.19,0.94,-8.7,-2.4,0.6,2780,2130,,,,,,,,,,,,,,,,,
14826,1469926589213,,,,,,,0.17,0.22,0.94,-9.0,-2.6,0.6,2620,2106,,,,,,,,,,,,,,,,,
14846,1469926589233,0,302.0,206.2,48,223.3,,0.17,0.25,0.91,-9.6,-2.8,0.7,2660,2078,1.296,3,39.540855,-122.329155,39.33,0.154,322.9,11,3,1.4,0,0.0,-1,0.0,0.0,0.0,0
14866,1469926589253,,,,,,,0.19,0.27,0.92,-10.0,-3.0,0.9,2600,2072,,,,,,,,,,,,,,,,,
14886,1469926589273,,,,,,,0.2,0.29,0.93,-10.4,-2.9,0.9,2580,2018,,,,,,,,,,,,,,,,,
14906,1469926589293,,,,,,,0.21,0.29,0.91,-10.8,-2.5,0.7,2540,2007,,,,,,,,,,,,,,,,,
14926,1469926589313,,,,,,,0.24,0.29,0.92,-11.3,-2.6,0.8,2520,2003,,,,,,,,,,,,,,,,,
14946,1469926589333,,,,25,,,0.24,0.29,0.94,-11.7,-2.4,0.6,2580,2007,1.272,3,39.540871,-122.329163,38.69,0.155,323.6,11,3,1.4,0,0.0,-1,0.0,,0.0,0
14966,1469926589353,,,,,,,0.24,0.28,0.94,-12.1,-2.3,0.6,2480,2007,,,,,,,,,,,,,,,,,
14986,1469926589373,,,,,,,0.29,0.26,0.96,-12.2,-2.0,0.6,2620,2018,,,,,,,,,,,,,,,,,
15006,1469926589391,,,,,,,0.3,0.28,0.94,-12.5,-2.2,0.6,2540,2044,,,,,,,,,,,,,,,,,
15026,1469926589411,,,,,,,0.32,0.26,0.97,-12.3,-2.4,0.3,2540,2033,,,,,,,,,,,,,,,,,
15046,1469926589431,0,301.7,205.3,42,222.6,14.08,0.33,0.31,0.98,-12.4,-1.9,0.1,2580,2012,1.262,3,39.540882,-122.329163,37.77,0.155,324.2,11,3,1.4,0,0.0,-1,0.0,0.0,0.0,0
15066,1469926589451,,,,,,,0.33,0.31,0.98,-12.6,-1.7,-0.0,2620,1992,,,,,,,,,,,,,,,,,
15086,1469926589471,,,,,,,0.35,0.31,0.96,-12.6,-1.4,-0.3,2520,1986,,,,,,,,,,,,,,,,,
15106,1469926589491,,,,,,,0.38,0.35,0.98,-12.8,-0.7,-0.4,2560,1956,,,,,,,,,,,,,,,,,
15126,1469926589509,,,,,,,0.37,0.37,0.98,-12.9,-0.0,-0.5,2540,1941,,,,,,,,,,,,,,,,,
15146,1469926589529,,,,36,,,0.4,0.41,0.97,-13.4,-0.1,-0.6,2400,1923,1.261,3,39.540901,-122.329178,37.1,0.157,324.8,11,3,1.4,0,0.0,-1,0.0,,0.0,0
15166,1469926589549,,,,,,,0.4,0.41,0.98,-13.5,-0.0,-0.5,2440,1903,,,,,,,,,,,,,,,,,
15186,1469926589569,,,,,,,0.4,0.38,0.96,-13.5,0.0,-0.5,2460,1903,,,,,,,,,,,,,,,,,
15206,1469926589589,,,,,,,0.41,0.37,0.96,-13.4,-0.1,-0.5,2360,1898,,,,,,,,,,,,,,,,,
15226,1469926589708,,,,,,,0.42,0.38,0.95,-13.6,-0.0,-0.0,2360,1884,,,,,,,,,,,,,,,,,
15246,1469926589728,0,302.0,206.2,31,223.6,,0.42,0.37,0.95,-13.9,0.3,0.5,2380,1880,1.271,3,39.540924,-122.329178,34.72,0.159,325.9,11,3,1.4,0,0.0,-1,0.0,0.0,0.0,0
15266,1469926589748,,,,,,,0.4,0.31,0.94,-13.9,-0.1,0.6,2360,1875,,,,,,,,,,,,,,,,,
15286,1469926589768,,,,,,,0.4,0.32,0.94,-14.0,-0.1,0.8,2380,1866,,,,,,,,,,,,,,,,,
15306,1469926589788,,,,,,,0.39,0.36,0.91,-14.2,-0.3,0.8,2340,1844,,,,,,,,,,,,,,,,,
15326,1469926589808,,,,,,,0.39,0.33,0.94,-14.5,-0.9,1.1,2340,1840,,,,,,,,,,,,,,,,,
15346,1469926589828,,,,29,,,0.37,0.36,0.94,-15.0,-0.5,1.6,2300,1818,1.263,3,39.540924,-122.329178,34.72,0.159,325.9,11,3,1.4,0,0.0,-1,0.0,,0.0,0
15366,1469926589848,,,,,,,0.35,0.39,0.95,-15.6,-0.3,2.2,2280,1818,,,,,,,,,,,,,,,,,
15386,1469926589868,,,,,,,0.32,0.4,0.95,-16.2,-0.5,2.9,2320,1809,,,,,,,,,,,,,,,,,
15406,1469926589792,,,,,,,0.3,0.4,0.95,-17.0,-0.5,3.6,2280,1809,,,,,,,,,,,,,,,,,
15426,1469926589812,,,,,,,0.29,0.45,0.95,-17.5,-0.7,4.2,2260,1804,,,,,,,,,,,,,,,,,
15446,1469926589832,0,302.0,205.5,20,223.3,,0.27,0.47,0.97,-18.1,-0.5,4.5,2320,1813,1.253,3,39.540939,-122.329193,33.67,0.16,326.4,11,3,1.4,0,0.0,-1,0.0,0.0,0.0,0
15466,1469926589852,,,,,,,0.25,0.49,0.95,-18.9,-0.8,4.8,2320,1804,,,,,,,,,,,,,,,,,
15486,1469926589872,,,,,,,0.23,0.52,0.95,-19.5,-1.3,4.9,2300,1813,,,,,,,,,,,,,,,,,
15506,1469926589892,,,,,,,0.22,0.55,0.94,-20.0,-1.8,5.0,2280,1800,,,,,,,,,,,,,,,,,
15526,1469926589906,,,,,,,0.19,0.57,0.93,-20.5,-2.4,5.1,2300,1784,,,,,,,,,,,,,,,,,
15546,1469926589926,,,,24,,,0.18,0.56,0.92,-20.8,-2.8,5.2,2280,1787,1.275,3,39.540951,-122.329208,32.67,0.161,326.9,11,3,1.4,0,0.0,-1,0.0,,0.0,0
15566,1469926589946,,,,,,,0.17,0.6,0.92,-21.4,-3.0,5.4,2240,1767,,,,,,,,,,,,,,,,,
15586,1469926589966,,,,,,,0.15,0.64,0.93,-22.1,-3.1,5.6,2240,1767,,,,,,,,,,,,,,,,,
15606,1469926589992,,,,,,,0.15,0.63,0.92,-22.7,-3.6,5.5,2220,1750,,,,,,,,,,,,,,,,,
15626,1469926590012,,,,,,,0.15,0.61,0.92,-23.3,-3.0,5.5,2260,1750,,,,,,,,,,,,,,,,,
15646,1469926590032,0,302.0,206.6,21,224.3,,0.15,0.59,0.91,-23.9,-3.1,5.4,2240,1743,1.261,3,39.540962,-122.329208,32.09,0.162,327.4,11,3,1.4,0,0.0,-1,0.0,0.0,0.0,0
15666,1469926590052,,,,,,,0.15,0.62,0.91,-24.5,-3.5,5.4,2200,1750,,,,,,,,,,,,,,,,,
15686,1469926590072,,,,,,,0.15,0.62,0.92,-25.1,-4.1,5.3,2240,1747,,,,,,,,,,,,,,,,,
15706,1469926590093,,,,,,,0.15,0.64,0.93,-25.7,-4.2,5.0,2240,1743,,,,,,,,,,,,,,,,,
15726,1469926590113,,,,,,,0.15,0.63,0.95,-26.3,-3.7,4.9,2240,1760,,,,,,,,,,,,,,,,,
15746,1469926590133,,,,24,,,0.15,0.67,0.95,-27.1,-3.5,4.8,2240,1760,1.287,3,39.540974,-122.329216,32.01,0.163,328.0,11,3,1.4,0,0.0,-1,0.0,,0.0,0
15766,1469926590153,,,,,,,0.14,0.71,0.96,-27.8,-3.6,4.9,2260,1767,,,,,,,,,,,,,,,,,
15786,1469926590173,,,,,,,0.13,0.71,0.97,-28.6,-3.4,4.9,2300,1763,,,,,,,,,,,,,,,,,
15806,1469926590192,,,,,,,0.14,0.73,0.94,-29.3,-3.0,4.7,2300,1772,,,,,,,,,,,,,,,,,
15826,1469926590212,,,,,,,0.15,0.73,0.98,-30.0,-2.4,4.7,2280,1780,,,,,,,,,,,,,,,,,
15846,1469926590232,0,302.0,206.1,18,224.0,,0.15,0.77,0.97,-30.6,-2.5,4.7,2240,1780,1.282,3,39.540985,-122.329216,31.4,0.164,328.4,11,3,1.4,0,0.0,-1,0.0,0.0,0.0,0
15866,1469926590252,,,,,,,0.15,0.79,0.95,-31.1,-3.0,4.6,2300,1775,,,,,,,,,,,,,,,,,
15886,1469926590272,,,,,,,0.13,0.81,0.96,-31.3,-3.2,4.4,2240,1755,,,,,,,,,,,,,,,,,
15906,1469926590292,,,,,,,0.12,0.84,0.94,-31.8,-3.4,4.3,2220,1750,,,,,,,,,,,,,,,,,
15926,1469926590310,,,,,,,0.1,0.81,0.93,-32.2,-3.7,4.0,2220,1755,,,,,,,,,,,,,,,,,
15946,1469926590330,,,,19,,,0.06,0.81,0.92,-32.5,-3.5,3.9,2220,1732,1.279,3,39.540997,-122.329231,30.69,0.165,328.8,11,3,1.4,0,0.0,-1,0.0,,0.0,0
15966,1469926590350,,,,,,,0.07,0.82,0.89,-32.9,-3.6,4.0,2160,1732,,,,,,,,,,,,,,,,,
15986,1469926590370,,,,,,,0.06,0.82,0.93,-33.3,-3.5,4.5,2200,1727,,,,,,,,,,,,,,,,,
16006,1469926590390,,,,,,,0.06,0.84,0.95,-33.5,-3.3,4.6,2120,1743,,,,,,,,,,,,,,,,,
16026,1469926590509,,,,,,,0.06,0.84,0.92,-33.9,-3.4,4.6,2160,1740,,,,,,,,,,,,,,,,,
16046,1469926590529,0,302.0,205.8,22,224.0,14.13,0.04,0.85,0.9,-34.0,-3.6,4.5,2220,1750,1.309,3,39.541016,-122.329247,30.15,0.166,329.7,11,3,1.4,0,0.0,-1,0.0,0.0,0.0,0
16066,1469926590549,,,,,,,0.06,0.82,0.88,-33.8,-3.7,3.7,2200,1772,,,,,,,,,,,,,,,,,
16086,1469926590569,,,,,,,0.07,0.78,0.91,-33.8,-2.5,2.9,2280,1780,,,,,,,,,,,,,,,,,
16106,1469926590589,,,,,,,0.08,0.79,0.86,-33.9,-1.5,2.2,2220,1767,,,,,,,,,,,,,,,,,
16126,1469926590609,,,,,,,0.07,0.81,0.85,-33.7,-2.2,1.5,2260,1763,,,,,,,,,,,,,,,,,
16146,1469926590629,,,,20,,,0.04,0.74,0.83,-33.4,-1.8,1.0,2180,1747,1.244,3,39.541016,-122.329247,30.15,0.166,329.7,11,3,1.4,0,0.0,-1,0.0,,0.0,0
16166,1469926590649,,,,,,,0.02,0.68,0.83,-33.0,-0.8,0.4,2180,1763,,,,,,,,,,,,,,,,,
16186,1469926590669,,,,,,,0.02,0.67,0.79,-32.5,-1.1,0.2,2220,1732,,,,,,,,,,,,,,,,,
16206,1469926590689,,,,,,,0.02,0.67,0.76,-31.9,-3.1,0.3,2220,1727,,,,,,,,,,,,,,,,,
16226,1469926590609,,,,,,,0.01,0.7,0.71,-31.3,-5.1,0.0,2260,1724,,,,,,,,,,,,,,,,,
16246,1469926590629,0,302.0,205.8,18,224.2,,0.04,0.7,0.74,-30.8,-5.9,-0.3,2240,1740,1.259,3,39.541023,-122.329254,30.25,0.167,330.0,11,3,1.4,0,0.0,-1,0.0,0.0,0.0,0
16266,1469926590649,,,,,,,0.07,0.73,0.76,-30.4,-5.8,-0.2,2180,1755,,,,,,,,,,,,,,,,,
16286,1469926590669,,,,,,,0.08,0.76,0.73,-30.3,-6.3,0.2,2220,1767,,,,,,,,,,,,,,,,,
16306,1469926590689,,,,,,,0.06,0.74,0.71,-30.0,-7.1,0.2,2220,1775,,,,,,,,,,,,,,,,,
16326,1469926590709,,,,,,,0.07,0.69,0.71,-30.1,-7.7,-0.0,2300,1787,,,,,,,,,,,,,,,,,
16346,1469926590729,,,,29,,,0.08,0.68,0.75,-30.3,-7.9,0.0,2300,1800,1.282,3,39.541035,-122.329269,30.59,0.168,330.2,11,3,1.4,0,0.0,-1,0.0,,0.0,0
16366,1469926590749,,,,,,,0.07,0.72,0.76,-30.7,-8.5,0.4,2200,1804,,,,,,,,,,,,,,,,,
16386,1469926590769,,,,,,,0.06,0.77,0.76,-31.2,-8.3,0.7,2300,1818,,,,,,,,,,,,,,,,,
16406,1469926590792,,,,,,,0.06,0.76,0.8,-31.9,-8.0,0.8,2260,1826,,,,,,,,,,,,,,,,,
16426,1469926590812,,,,,,,0.04,0.76,0.79,-32.6,-7.8,0.8,2260,1813,,,,,,,,,,,,,,,,,
16446,1469926590832,0,302.0,205.3,23,224.0,,0.02,0.77,0.83,-32.9,-7.8,0.8,2300,1804,1.281,3,39.541042,-122.329285,30.58,0.169,330.3,11,3,1.4,0,0.0,-1,0.0,0.0,0.0,0
16466,1469926590852,,,,,,,0.03,0.81,0.85,-33.5,-6.3,0.7,2300,1787,,,,,,,,,,,,,,,,,
16486,1469926590872,,,,,,,0.03,0.76,0.87,-33.6,-5.3,1.2,2340,1787,,,,,,,,,,,,,,,,,
16506,1469926590892,,,,,,,0.02,0.85,0.88,-33.5,-5.5,1.4,2240,1775,,,,,,,,,,,,,,,,,
16526,1469926590907,,,,,,,0.04,0.86,0.84,-33.3,-5.5,1.0,2260,1787,,,,,,,,,,,,,,,,,
16546,1469926590927,,,,32,,,0.06,0.81,0.86,-33.1,-5.0,0.9,2320,1818,1.268,3,39.54105,-122.329292,30.88,0.17,330.4,11,3,1.4,0,0.0,-1,0.0,,0.0,0
16566,1469926590947,,,,,,,0.04,0.8,0.86,-32.8,-5.2,0.7,2360,1813,,,,,,,,,,,,,,,,,
16586,1469926590967,,,,,,,0.02,0.8,0.86,-32.1,-5.8,0.2,2320,1813,,,,,,,,,,,,,,,,,
16606,1469926590993,,,,,,,-0.01,0.8,0.84,-31.6,-5.1,-0.4,2320,1813,,,,,,,,,,,,,,,,,
16626,1469926591013,,,,,,,-0.05,0.83,0.82,-31.4,-4.7,-0.7,2260,1809,,,,,,,,,,,,,,,,,
16646,1469926591033,0,302.0,205.6,27,224.5,,-0.06,0.83,0.81,-31.1,-5.9,-0.9,2300,1809,1.275,3,39.541058,-122.329308,30.94,0.171,330.4,11,3,1.4,0,0.0,-1,0.0,0.0,0.0,0
16666,1469926591053,,,,,,,-0.05,0.73,0.8,-30.7,-6.0,-1.4,2280,1818,,,,,,,,,,,,,,,,,
16686,1469926591073,,,,,,,-0.07,0.69,0.81,-30.3,-6.3,-1.7,2280,1835,,,,,,,,,,,,,,,,,
16706,1469926591092,,,,,,,-0.07,0.76,0.82,-29.9,-6.4,-1.8,2300,1830,,,,,,,,,,,,,,,,,
16726,1469926591112,,,,,,,-0.07,0.68,0.81,-29.2,-5.8,-2.0,2280,1826,,,,,,,,,,,,,,,,,
16746,1469926591132,,,,29,,,-0.08,0.62,0.83,-28.5,-5.6,-2.1,2340,1821,1.29,3,39.541061,-122.329323,31.1,0.172,330.6,11,3,1.4,0,0.0,-1,0.0,,0.0,0
16766,1469926591152,,,,,,,-0.09,0.68,0.82,-27.8,-6.8,-2.2,2320,1821,,,,,,,,,,,,,,,,,
16786,1469926591172,,,,,,,-0.09,0.67,0.79,-27.2,-7.0,-2.4,2260,1821,,,,,,,,,,,,,,,,,
16806,1469926591292,,,,,,,-0.09,0.63,0.79,-26.6,-7.3,-2.4,2380,1840,,,,,,,,,,,,,,,,,
16826,1469926591312,,,,,,,-0.09,0.65,0.79,-25.9,-7.7,-2.4,2320,1844,,,,,,,,,,,,,,,,,
16846,1469926591332,1,302.0,205.8,29,224.9,,-0.08,0.6,0.74,-25.0,-8.0,-2.6,2380,1840,1.236,3,39.541077,-122.329346,31.88,0.173,330.4,11,3,1.4,0,0.0,-1,0.0,0.0,0.0,0
16866,1469926591352,,,,,,,-0.09,0.56,0.76,-24.6,-8.5,-2.3,2360,1847,,,,,,,,,,,,,,,,,
16886,1469926591372,,,,,,,-0.11,0.62,0.72,-24.2,-8.9,-2.1,2320,1847,,,,,,,,,,,,,,,,,
16906,1469926591392,,,,,,,-0.12,0.58,0.71,-23.9,-8.6,-2.1,2340,1861,,,,,,,,,,,,,,,,,
16926,1469926591412,,,,,,,-0.14,0.56,0.7,-23.9,-9.1,-1.7,2320,1861,,,,,,,,,,,,,,,,,
16946,1469926591432,,,,36,,,-0.15,0.57,0.69,-23.5,-9.0,-1.8,2360,1866,1.25,3,39.541077,-122.329346,31.88,0.173,330.4,11,3,1.4,0,0.0,-1,0.0,,0.0,0
16966,1469926591452,,,,,,,-0.17,0.54,0.68,-23.1,-8.6,-2.0,2400,1889,,,,,,,,,,,,,,,,,
16986,1469926591472,,,,,,,-0.14,0.53,0.66,-22.8,-9.1,-1.8,2420,1893,,,,,,,,,,,,,,,,,
17006,1469926591492,,,,,,,-0.12,0.55,0.71,-22.6,-8.5,-2.1,2420,1898,,,,,,,,,,,,,,,,,
17026,1469926591410,,,,,,,-0.09,0.53,0.72,-22.8,-7.7,-1.9,2400,1903,,,,,,,,,,,,,,,,,
17046,1469926591430,0,302.0,205.8,35,225.5,14.07,-0.08,0.52,0.73,-22.5,-7.7,-1.7,2400,1903,1.268,3,39.54108,-122.329369,32.2,0.175,330.2,11,3,1.4,0,0.0,-1,0.0,0.0,0.0,0
17066,1469926591450,,,,,,,-0.09,0.45,0.75,-22.1,-7.3,-1.5,2400,1898,,,,,,,,,,,,,,,,,
17086,1469926591470,,,,,,,-0.1,0.44,0.74,-21.8,-7.5,-1.2,2420,1907,,,,,,,,,,,,,,,,,
17106,1469926591490,,,,,,,-0.1,0.39,0.71,-21.3,-7.4,-1.0,2460,1916,,,,,,,,,,,,,,,,,
17126,1469926591510,,,,,,,-0.09,0.42,0.71,-21.1,-7.8,-1.0,2480,1923,,,,,,,,,,,,,,,,,
17146,1469926591530,,,,34,,,-0.05,0.42,0.77,-20.6,-7.7,-1.0,2460,1932,1.263,3,39.541088,-122.329384,32.65,0.176,329.9,11,3,1.4,0,0.0,-1,0.0,,0.0,0
17166,1469926591550,,,,,,,-0.05,0.42,0.8,-20.4,-7.8,-0.8,2420,1927,,,,,,,,,,,,,,,,,
17186,1469926591570,,,,,,,-0.04,0.43,0.81,-19.9,-7.7,-1.1,2440,1927,,,,,,,,,,,,,,,,,
17206,1469926591590,,,,,,,-0.04,0.35,0.8,-19.4,-7.7,-1.3,2480,1941,,,,,,,,,,,,,,,,,
17226,1469926591608,,,,,,,-0.05,0.37,0.82,-18.6,-7.4,-1.5,2440,1952,,,,,,,,,,,,,,,,,
17246,1469926591628,0,302.0,205.5,24,225.2,,-0.06,0.35,0.81,-18.1,-6.5,-1.7,2440,1952,1.267,3,39.541092,-122.329399,32.96,0.176,329.4,11,3,1.4,0,0.0,-1,0.0,0.0,0.0,0
