"Interval"|"ms"|0|0|1,"Utc"|"ms"|0|0|1,"FuelLevel"|"F"|0|100|5,"OilTemp"|"F"|0.0|300.0|5,"Coolant"|"F"|0.0|300.0|5,"OilPress"|"PSI"|0|150|10,"EngineTemp"|"F"|0.0|300.0|5,"Battery"|"Volts"|0.0|20.0|1,"AccelX"|"G"|-3.0|3.0|50,"AccelY"|"G"|-3.0|3.0|50,"AccelZ"|"G"|-3.0|3.0|50,"Yaw"|"Deg/Sec"|-300.0|300.0|50,"Pitch"|"Deg/Sec"|-300.0|300.0|50,"Roll"|"Deg/Sec"|-300.0|300.0|50,"RPM"|""|0|10000|50,"Driveshaft"|"RPM"|0|5000|50,"GearRatio"|""|-5.0|5.0|10,"Gear"|""|-1|5|10,"Latitude"|"Degrees"|-180.0|180.0|10,"Longitude"|"Degrees"|-180.0|180.0|10,"Speed"|"MPH"|0.0|150.0|10,"Distance"|"Miles"|0.0|0.0|10,"Altitude"|"Feet"|0.0|4000.0|10,"GPSSats"|""|0|20|10,"GPSQual"|""|0|5|10,"GPSDOP"|""|0.0|20.0|10,"LapCount"|""|0|0|10,"LapTime"|"Min"|0.0|0.0|10,"Sector"|""|0|0|10,"SectorTime"|"Min"|0.0|0.0|10,"PredTime"|"Min"|0.0|0.0|5,"ElapsedTime"|"Min"|0.0|0.0|10,"CurrentLap"|""|0|0|10
5066,1469914715681,,,,,,,0.03,0.1,0.98,-4.4,0.2,-0.1,1140,596,,,,,,,,,,,,,,,,,
5086,1469914715602,,,,,,,0.02,0.1,0.98,-4.3,0.2,-0.2,1120,593,,,,,,,,,,,,,,,,,
5106,1469914715622,,,,,,,0.02,0.09,0.98,-4.4,0.3,-0.3,1120,595,,,,,,,,,,,,,,,,,
5126,1469914715642,,,,,,,0.02,0.08,0.99,-4.3,0.3,-0.3,1120,598,,,,,,,,,,,,,,,,,
5146,1469914715662,,,,14,,,0.02,0.09,0.99,-4.3,0.2,-0.2,1120,596,1.879,2,39.54036,-122.33197,10.63,0.0,337.1,9,2,1.4,0,0.0,-1,0.0,,0.0,0
5166,1469914715682,,,,,,,0.01,0.1,0.98,-4.3,0.1,-0.1,1120,598,,,,,,,,,,,,,,,,,
5186,1469914715702,,,,,,,0.01,0.11,0.98,-4.2,0.3,-0.2,1100,598,,,,,,,,,,,,,,,,,
5206,1469914715722,,,,,,,0.02,0.11,0.99,-4.2,0.4,-0.2,1140,596,,,,,,,,,,,,,,,,,
5226,1469914715742,,,,,,,0.01,0.1,0.98,-4.3,0.4,-0.3,1120,596,,,,,,,,,,,,,,,,,
5246,1469914715762,0,236.3,191.0,17,196.3,,0.01,0.11,0.99,-4.3,0.1,-0.3,1120,590,1.873,2,39.540367,-122.33197,10.44,0.001,336.7,9,2,1.4,0,0.0,-1,0.0,0.0,0.0,0
5266,1469914715782,,,,,,,0.0,0.11,0.97,-4.4,-0.1,-0.2,1120,592,,,,,,,,,,,,,,,,,
5286,1469914715804,,,,,,,0.02,0.1,0.98,-4.3,-0.0,-0.2,1140,595,,,,,,,,,,,,,,,,,
5306,1469914715824,,,,,,,0.02,0.09,0.98,-4.3,-0.2,-0.1,1100,596,,,,,,,,,,,,,,,,,
5326,1469914715844,,,,,,,0.02,0.1,0.98,-4.3,0.1,0.0,1120,600,,,,,,,,,,,,,,,,,
5346,1469914715864,,,,16,,,0.03,0.08,0.98,-4.4,0.1,0.2,1120,598,1.892,2,39.540367,-122.33197,10.49,0.001,336.4,9,2,1.4,0,0.0,-1,0.0,,0.0,0
5366,1469914715884,,,,,,,0.04,0.08,0.98,-4.4,0.0,0.3,1120,595,,,,,,,,,,,,,,,,,
5386,1469914715904,,,,,,,0.02,0.09,0.98,-4.5,-0.1,0.3,1140,600,,,,,,,,,,,,,,,,,
5406,1469914715916,,,,,,,0.02,0.09,0.99,-4.5,-0.2,0.2,1120,598,,,,,,,,,,,,,,,,,
5426,1469914715936,,,,,,,0.01,0.09,0.98,-4.4,0.1,0.1,1120,601,,,,,,,,,,,,,,,,,
5446,1469914715956,0,236.0,190.7,15,195.9,,0.02,0.1,0.99,-4.5,-0.0,0.1,1120,598,1.882,2,39.540371,-122.33197,10.62,0.001,336.1,9,2,1.4,0,0.0,-1,0.0,0.0,0.0,0
5466,1469914715976,,,,,,,0.02,0.1,0.99,-4.6,-0.0,0.0,1140,596,,,,,,,,,,,,,,,,,
5486,1469914716004,,,,,,,0.02,0.1,0.98,-4.6,-0.0,-0.1,1140,600,,,,,,,,,,,,,,,,,
5506,1469914716024,,,,,,,0.02,0.09,0.98,-4.6,0.3,-0.1,1100,600,,,,,,,,,,,,,,,,,
5526,1469914716044,,,,,,,0.02,0.09,0.98,-4.7,0.5,-0.2,1120,593,,,,,,,,,,,,,,,,,
5546,1469914716064,,,,14,,,0.02,0.1,0.98,-4.7,0.5,-0.2,1120,593,1.913,2,39.540375,-122.33197,10.46,0.001,335.8,9,2,1.4,0,0.0,-1,0.0,,0.0,0
5566,1469914716084,,,,,,,0.02,0.09,0.97,-4.7,0.3,-0.2,1120,593,,,,,,,,,,,,,,,,,
5586,1469914716104,,,,,,,0.02,0.1,0.98,-4.7,0.3,-0.3,1120,600,,,,,,,,,,,,,,,,,
5606,1469914716124,,,,,,,0.03,0.1,0.99,-4.7,0.2,-0.3,1140,606,,,,,,,,,,,,,,,,,
5626,1469914716144,,,,,,,0.03,0.11,0.99,-4.7,0.2,-0.2,1100,609,,,,,,,,,,,,,,,,,
5646,1469914716164,0,236.6,191.7,13,196.8,,0.03,0.1,0.99,-4.8,0.3,-0.1,1140,606,1.889,2,39.540382,-122.33197,10.63,0.002,335.2,9,2,1.4,0,0.0,-1,0.0,0.0,0.0,0
5666,1469914716184,,,,,,,0.03,0.11,0.99,-4.8,0.3,0.0,1140,603,,,,,,,,,,,,,,,,,
5686,1469914716303,,,,,,,0.02,0.11,0.98,-4.8,0.1,0.1,1140,600,,,,,,,,,,,,,,,,,
5706,1469914716323,,,,,,,0.02,0.09,0.98,-4.8,-0.1,0.2,1140,601,,,,,,,,,,,,,,,,,
5726,1469914716343,,,,,,,0.01,0.1,0.98,-4.8,-0.4,0.3,1120,596,,,,,,,,,,,,,,,,,
5746,1469914716363,,,,16,,,0.02,0.12,0.98,-4.8,-0.5,0.1,1120,600,1.9,2,39.540386,-122.33197,10.52,0.002,334.2,9,2,1.4,0,0.0,-1,0.0,,0.0,0
5766,1469914716383,,,,,,,0.02,0.13,0.98,-4.8,-0.3,-0.2,1120,596,,,,,,,,,,,,,,,,,
5786,1469914716403,,,,,,,0.02,0.14,0.98,-4.8,-0.2,-0.4,1100,598,,,,,,,,,,,,,,,,,
5806,1469914716423,,,,,,,0.02,0.14,0.98,-4.9,-0.1,-0.4,1140,600,,,,,,,,,,,,,,,,,
5826,1469914716443,,,,,,,0.01,0.14,0.98,-4.9,-0.6,-0.4,1100,595,,,,,,,,,,,,,,,,,
5846,1469914716463,0,236.0,190.7,16,196.0,,-0.0,0.14,0.97,-4.9,-0.9,-0.4,1120,596,1.879,2,39.540386,-122.33197,10.52,0.002,334.2,9,2,1.4,0,0.0,-1,0.0,0.0,0.0,0
5866,1469914716483,,,,,,,-0.0,0.14,0.96,-4.9,-1.1,-0.3,1120,600,,,,,,,,,,,,,,,,,
5886,1469914716403,,,,,,,0.01,0.13,0.96,-4.9,-1.2,-0.3,1120,601,,,,,,,,,,,,,,,,,
5906,1469914716423,,,,,,,0.01,0.12,0.97,-4.9,-1.2,-0.2,1140,606,,,,,,,,,,,,,,,,,
5926,1469914716443,,,,,,,0.01,0.12,0.98,-4.9,-1.1,-0.3,1100,606,,,,,,,,,,,,,,,,,
5946,1469914716463,,,,16,,,0.01,0.12,0.98,-4.9,-0.7,-0.3,1140,604,1.867,2,39.540394,-122.33197,10.58,0.003,334.1,9,2,1.4,0,0.0,-1,0.0,,0.0,0
5966,1469914716483,,,,,,,0.03,0.12,0.98,-5.0,-0.6,-0.3,1120,601,,,,,,,,,,,,,,,,,
5986,1469914716503,,,,,,,0.02,0.12,0.98,-5.0,-0.6,-0.3,1140,601,,,,,,,,,,,,,,,,,
6006,1469914716523,,,,,,,0.01,0.12,0.98,-4.9,-0.8,-0.3,1120,604,,,,,,,,,,,,,,,,,
6026,1469914716543,,,,,,,0.01,0.13,0.99,-4.9,-1.1,-0.3,1160,604,,,,,,,,,,,,,,,,,
6046,1469914716563,0,236.9,192.1,12,197.1,13.79,0.01,0.13,0.99,-4.8,-1.2,-0.2,1100,606,1.854,2,39.540398,-122.33197,10.61,0.003,333.6,9,2,1.4,0,0.0,-1,0.0,0.0,0.0,0
6066,1469914716583,,,,,,,0.01,0.13,0.99,-4.8,-1.1,-0.2,1120,606,,,,,,,,,,,,,,,,,
6086,1469914716603,,,,,,,0.01,0.14,1.0,-4.8,-0.7,-0.0,1140,601,,,,,,,,,,,,,,,,,
6106,1469914716620,,,,,,,0.01,0.15,0.99,-4.9,-0.5,0.1,1140,600,,,,,,,,,,,,,,,,,
6126,1469914716640,,,,,,,0.01,0.14,0.97,-4.9,-0.7,0.1,1160,604,,,,,,,,,,,,,,,,,
6146,1469914716660,,,,14,,,0.02,0.13,0.97,-4.9,-1.1,0.0,1120,603,1.848,2,39.540401,-122.331955,10.59,0.004,333.4,9,2,1.4,0,0.0,-1,0.0,,0.0,0
6166,1469914716680,,,,,,,0.01,0.14,0.97,-4.9,-1.2,-0.2,1140,606,,,,,,,,,,,,,,,,,
6186,1469914716704,,,,,,,0.01,0.15,0.97,-4.9,-1.0,-0.2,1140,606,,,,,,,,,,,,,,,,,
6206,1469914716724,,,,,,,0.03,0.16,0.97,-4.9,-1.0,-0.2,1120,606,,,,,,,,,,,,,,,,,
6226,1469914716744,,,,,,,0.03,0.14,0.97,-4.9,-0.5,-0.1,1160,604,,,,,,,,,,,,,,,,,
6246,1469914716764,0,236.9,192.1,15,197.1,,0.02,0.15,0.97,-5.0,-0.5,0.1,1140,600,1.872,2,39.540405,-122.331955,10.54,0.004,333.0,9,2,1.4,0,0.0,-1,0.0,0.0,0.0,0
6266,1469914716784,,,,,,,0.02,0.15,0.99,-5.0,-0.5,0.1,1120,606,,,,,,,,,,,,,,,,,
6286,1469914716804,,,,,,,0.02,0.15,0.98,-5.0,0.0,0.1,1140,603,,,,,,,,,,,,,,,,,
6306,1469914716824,,,,,,,0.02,0.14,0.98,-5.0,0.1,-0.0,1140,604,,,,,,,,,,,,,,,,,
6326,1469914716844,,,,,,,0.04,0.14,0.99,-4.9,-0.0,-0.1,1140,607,,,,,,,,,,,,,,,,,
6346,1469914716864,,,,16,,,0.03,0.15,0.99,-5.0,0.1,-0.2,1120,609,1.848,2,39.540409,-122.331955,10.75,0.004,332.6,9,2,1.4,0,0.0,-1,0.0,,0.0,0
6366,1469914716884,,,,,,,0.03,0.15,0.99,-5.0,0.3,-0.4,1160,607,,,,,,,,,,,,,,,,,
6386,1469914716904,,,,,,,0.02,0.14,0.98,-4.9,0.4,-0.5,1120,607,,,,,,,,,,,,,,,,,
6406,1469914716917,,,,,,,0.03,0.15,0.98,-4.9,0.5,-0.6,1140,609,,,,,,,,,,,,,,,,,
6426,1469914716937,,,,,,,0.03,0.14,0.97,-4.8,0.5,-0.6,1140,612,,,,,,,,,,,,,,,,,
6446,1469914716957,0,237.1,192.3,15,197.4,,0.03,0.14,0.98,-4.8,0.3,-0.7,1180,612,1.921,2,39.540413,-122.331955,10.84,0.005,332.3,9,2,1.4,0,0.0,-1,0.0,0.0,0.0,0
6466,1469914716977,,,,,,,0.02,0.12,0.97,-4.7,0.5,-0.8,1140,612,,,,,,,,,,,,,,,,,
6486,1469914717103,,,,,,,0.03,0.13,0.98,-4.7,0.4,-0.7,1140,610,,,,,,,,,,,,,,,,,
6506,1469914717123,,,,,,,0.03,0.12,0.98,-4.8,0.3,-0.7,1160,606,,,,,,,,,,,,,,,,,
6526,1469914717143,,,,,,,0.02,0.12,0.97,-4.7,0.3,-0.7,1140,606,,,,,,,,,,,,,,,,,
6546,1469914717163,,,,15,,,0.02,0.12,0.97,-4.7,0.4,-0.7,1160,610,1.863,2,39.540424,-122.331955,10.75,0.005,331.6,9,2,1.4,0,0.0,-1,0.0,,0.0,0
6566,1469914717183,,,,,,,0.02,0.12,0.98,-4.7,0.6,-0.6,1140,610,,,,,,,,,,,,,,,,,
6586,1469914717203,,,,,,,0.03,0.13,0.98,-4.8,0.6,-0.6,1140,610,,,,,,,,,,,,,,,,,
6606,1469914717223,,,,,,,0.03,0.13,0.99,-4.8,0.6,-0.6,1160,610,,,,,,,,,,,,,,,,,
6626,1469914717243,,,,,,,0.03,0.13,0.99,-4.8,0.7,-0.5,1120,607,,,,,,,,,,,,,,,,,
6646,1469914717263,0,237.0,192.2,18,197.2,,0.02,0.12,0.98,-4.8,0.5,-0.2,1160,609,1.863,2,39.540424,-122.331955,10.75,0.005,331.6,9,2,1.4,0,0.0,-1,0.0,0.0,0.0,0
6666,1469914717283,,,,,,,0.01,0.12,0.98,-4.7,0.2,-0.2,1140,606,,,,,,,,,,,,,,,,,
6686,1469914717204,,,,,,,0.01,0.11,0.98,-4.6,0.2,-0.3,1160,613,,,,,,,,,,,,,,,,,
6706,1469914717224,,,,,,,0.0,0.11,0.98,-4.7,0.4,-0.3,1140,610,,,,,,,,,,,,,,,,,
6726,1469914717244,,,,,,,0.0,0.11,0.98,-4.6,0.1,-0.3,1140,609,,,,,,,,,,,,,,,,,
6746,1469914717264,,,,14,,,0.01,0.1,0.97,-4.6,0.2,-0.3,1160,607,1.869,2,39.540424,-122.331955,10.67,0.005,331.2,9,2,1.4,0,0.0,-1,0.0,,0.0,0
6766,1469914717284,,,,,,,-0.01,0.09,0.97,-4.6,0.3,-0.3,1140,606,,,,,,,,,,,,,,,,,
6786,1469914717303,,,,,,,-0.01,0.1,0.97,-4.6,0.1,-0.4,1160,612,,,,,,,,,,,,,,,,,
6806,1469914717323,,,,,,,-0.01,0.09,0.96,-4.5,0.1,-0.5,1140,615,,,,,,,,,,,,,,,,,
6826,1469914717343,,,,,,,-0.01,0.09,0.97,-4.5,0.1,-0.6,1160,618,,,,,,,,,,,,,,,,,
6846,1469914717363,0,237.1,192.3,15,197.4,,0.0,0.1,0.97,-4.5,0.3,-0.6,1180,620,1.872,2,39.540428,-122.331955,10.78,0.006,330.9,9,2,1.4,0,0.0,-1,0.0,0.0,0.0,0
6866,1469914717383,,,,,,,0.01,0.09,0.97,-4.6,0.3,-0.6,1140,618,,,,,,,,,,,,,,,,,
6886,1469914717403,,,,,,,0.01,0.09,0.97,-4.6,0.3,-0.5,1180,620,,,,,,,,,,,,,,,,,
6906,1469914717423,,,,,,,0.01,0.08,0.98,-4.6,0.2,-0.5,1160,616,,,,,,,,,,,,,,,,,
6926,1469914717443,,,,,,,0.02,0.09,0.98,-4.5,-0.1,-0.6,1160,612,,,,,,,,,,,,,,,,,
6946,1469914717463,,,,18,,,0.01,0.09,0.99,-4.6,-0.2,-0.7,1160,609,1.854,2,39.540436,-122.331955,10.84,0.006,330.6,9,2,1.4,0,0.0,-1,0.0,,0.0,0
6966,1469914717483,,,,,,,0.01,0.11,0.99,-4.7,-0.3,-0.7,1120,609,,,,,,,,,,,,,,,,,
6986,1469914717503,,,,,,,0.02,0.12,0.99,-4.7,-0.0,-0.8,1140,607,,,,,,,,,,,,,,,,,
7006,1469914717523,,,,,,,0.02,0.11,0.98,-4.8,0.2,-0.9,1140,606,,,,,,,,,,,,,,,,,
7026,1469914717543,,,,,,,0.02,0.12,0.99,-4.8,0.2,-1.1,1140,606,,,,,,,,,,,,,,,,,
7046,1469914717563,0,236.3,191.3,16,196.7,13.82,0.02,0.11,0.98,-4.7,0.5,-1.0,1140,607,1.839,2,39.54044,-122.331955,10.81,0.006,330.2,9,2,1.4,0,0.0,-1,0.0,0.0,0.0,0
7066,1469914717583,,,,,,,0.02,0.11,1.0,-4.8,0.6,-0.8,1180,613,,,,,,,,,,,,,,,,,
7086,1469914717603,,,,,,,0.02,0.11,0.99,-4.8,0.6,-0.7,1140,616,,,,,,,,,,,,,,,,,
7106,1469914717623,,,,,,,0.03,0.11,0.99,-4.8,1.0,-0.6,1160,621,,,,,,,,,,,,,,,,,
7126,1469914717643,,,,,,,0.03,0.12,0.98,-4.8,0.9,-0.6,1160,616,,,,,,,,,,,,,,,,,
7146,1469914717663,,,,15,,,0.02,0.11,0.98,-4.8,0.9,-0.5,1160,615,1.919,2,39.540443,-122.331955,10.86,0.007,329.9,9,2,1.4,0,0.0,-1,0.0,,0.0,0
7166,1469914717683,,,,,,,0.02,0.1,0.97,-4.7,0.8,-0.5,1200,618,,,,,,,,,,,,,,,,,
7186,1469914717702,,,,,,,0.01,0.11,0.99,-4.8,0.8,-0.4,1140,621,,,,,,,,,,,,,,,,,
7206,1469914717722,,,,,,,0.02,0.11,0.98,-4.8,0.7,-0.2,1140,620,,,,,,,,,,,,,,,,,
7226,1469914717742,,,,,,,0.02,0.12,0.98,-4.8,0.9,-0.2,1160,615,,,,,,,,,,,,,,,,,
7246,1469914717762,0,236.2,191.3,15,196.3,,0.02,0.14,0.98,-4.9,1.0,-0.1,1160,613,1.83,2,39.540447,-122.331955,10.68,0.007,329.8,9,2,1.4,0,0.0,-1,0.0,0.0,0.0,0
7266,1469914717782,,,,,,,0.02,0.14,0.98,-4.9,0.8,-0.1,1180,613,,,,,,,,,,,,,,,,,
7286,1469914717903,,,,,,,0.01,0.13,0.97,-4.7,0.6,-0.2,1140,613,,,,,,,,,,,,,,,,,
7306,1469914717923,,,,,,,0.01,0.15,0.99,-4.6,0.5,-0.2,1160,616,,,,,,,,,,,,,,,,,
7326,1469914717943,,,,,,,0.03,0.15,0.98,-4.7,0.7,-0.1,1160,615,,,,,,,,,,,,,,,,,
7346,1469914717963,,,,18,,,0.02,0.15,0.98,-4.7,0.6,-0.2,1160,613,1.919,2,39.540455,-122.331955,11.11,0.007,329.3,9,2,1.4,0,0.0,-1,0.0,,0.0,0
7366,1469914717983,,,,,,,0.02,0.15,0.98,-4.6,0.5,-0.3,1180,612,,,,,,,,,,,,,,,,,
7386,1469914718003,,,,,,,0.02,0.16,0.98,-4.6,0.4,-0.6,1140,613,,,,,,,,,,,,,,,,,
7406,1469914718023,,,,,,,0.03,0.15,0.97,-4.6,0.6,-0.9,1160,615,,,,,,,,,,,,,,,,,
7426,1469914718043,,,,,,,0.03,0.14,0.98,-4.6,0.8,-0.8,1160,618,,,,,,,,,,,,,,,,,
7446,1469914718063,0,236.1,190.8,16,196.0,,0.03,0.14,0.98,-4.7,0.8,-0.7,1140,620,1.909,2,39.540455,-122.331955,11.11,0.007,329.3,9,2,1.4,0,0.0,-1,0.0,0.0,0.0,0
7466,1469914718083,,,,,,,0.02,0.12,0.98,-4.7,1.1,-0.7,1180,623,,,,,,,,,,,,,,,,,
7486,1469914718004,,,,,,,0.02,0.12,0.99,-4.7,0.9,-0.7,1180,618,,,,,,,,,,,,,,,,,
7506,1469914718024,,,,,,,0.01,0.12,0.99,-4.8,0.9,-0.8,1140,620,,,,,,,,,,,,,,,,,
7526,1469914718044,,,,,,,0.0,0.11,0.99,-4.7,0.7,-0.9,1180,620,,,,,,,,,,,,,,,,,
7546,1469914718064,,,,15,,,0.01,0.1,0.98,-4.6,0.8,-0.8,1140,615,1.903,2,39.540462,-122.331955,10.86,0.008,329.1,9,2,1.4,0,0.0,-1,0.0,,0.0,0
7566,1469914718084,,,,,,,0.01,0.12,0.97,-4.6,0.7,-0.7,1160,616,,,,,,,,,,,,,,,,,
7586,1469914718105,,,,,,,0.01,0.11,0.96,-4.6,0.6,-0.7,1160,615,,,,,,,,,,,,,,,,,
7606,1469914718125,,,,,,,0.01,0.11,0.96,-4.6,0.2,-0.7,1160,613,,,,,,,,,,,,,,,,,
7626,1469914718145,,,,,,,0.02,0.14,0.96,-4.6,0.2,-0.7,1140,613,,,,,,,,,,,,,,,,,
7646,1469914718165,0,236.1,191.2,14,196.1,,0.02,0.12,0.97,-4.5,0.1,-0.6,1160,615,1.886,2,39.540466,-122.331955,10.92,0.008,328.9,9,2,1.4,0,0.0,-1,0.0,0.0,0.0,0
7666,1469914718185,,,,,,,0.02,0.12,0.98,-4.6,-0.1,-0.4,1160,623,,,,,,,,,,,,,,,,,
7686,1469914718203,,,,,,,0.02,0.12,0.98,-4.6,-0.4,-0.2,1140,621,,,,,,,,,,,,,,,,,
7706,1469914718223,,,,,,,0.03,0.1,0.99,-4.6,-0.2,-0.1,1160,620,,,,,,,,,,,,,,,,,
7726,1469914718243,,,,,,,0.03,0.1,0.98,-4.6,-0.0,0.1,1160,620,,,,,,,,,,,,,,,,,
7746,1469914718263,,,,13,,,0.03,0.1,0.99,-4.6,-0.3,0.1,1160,615,1.916,2,39.540466,-122.331955,10.82,0.008,328.7,9,2,1.4,0,0.0,-1,0.0,,0.0,0
7766,1469914718283,,,,,,,0.03,0.09,0.99,-4.5,-0.3,0.0,1160,624,,,,,,,,,,,,,,,,,
7786,1469914718303,,,,,,,0.03,0.09,0.98,-4.5,-0.2,-0.1,1200,623,,,,,,,,,,,,,,,,,
7806,1469914718323,,,,,,,0.04,0.1,0.98,-4.4,-0.3,-0.3,1160,623,,,,,,,,,,,,,,,,,
7826,1469914718343,,,,,,,0.03,0.09,0.97,-4.3,-0.0,-0.5,1160,618,,,,,,,,,,,,,,,,,
7846,1469914718363,0,236.5,190.9,17,196.0,,0.03,0.1,0.98,-4.3,-0.1,-0.6,1180,615,1.926,2,39.540474,-122.331955,10.91,0.009,328.5,9,2,1.4,0,0.0,-1,0.0,0.0,0.0,0
7866,1469914718383,,,,,,,0.02,0.1,0.97,-4.3,-0.2,-0.6,1140,616,,,,,,,,,,,,,,,,,
7886,1469914718401,,,,,,,0.02,0.12,0.98,-4.3,-0.2,-0.4,1180,620,,,,,,,,,,,,,,,,,
7906,1469914718421,,,,,,,0.02,0.13,0.98,-4.3,-0.2,-0.2,1140,620,,,,,,,,,,,,,,,,,
7926,1469914718441,,,,,,,0.02,0.13,1.0,-4.3,-0.2,0.1,1160,620,,,,,,,,,,,,,,,,,
7946,1469914718461,,,,15,,,0.03,0.12,1.01,-4.3,0.1,0.1,1180,616,1.903,2,39.540478,-122.331955,10.99,0.009,328.3,9,2,1.4,0,0.0,-1,0.0,,0.0,0
7966,1469914718481,,,,,,,0.02,0.13,1.02,-4.3,0.5,0.0,1140,616,,,,,,,,,,,,,,,,,
7986,1469914718502,,,,,,,0.02,0.12,1.02,-4.2,0.9,-0.0,1180,620,,,,,,,,,,,,,,,,,
8006,1469914718522,,,,,,,0.03,0.13,1.03,-4.2,1.2,0.1,1140,623,,,,,,,,,,,,,,,,,
8026,1469914718542,,,,,,,0.03,0.13,1.01,-4.1,1.4,0.4,1160,623,,,,,,,,,,,,,,,,,
8046,1469914718562,0,236.3,191.0,14,196.2,13.87,0.03,0.12,1.01,-4.1,1.5,0.7,1160,618,1.83,2,39.540485,-122.331955,10.83,0.01,328.2,9,2,1.4,0,0.0,-1,0.0,0.0,0.0,0
8066,1469914718582,,,,,,,0.02,0.1,1.0,-4.0,1.7,0.9,1180,618,,,,,,,,,,,,,,,,,
8086,1469914718701,,,,,,,0.02,0.12,0.99,-4.2,1.6,1.0,1200,621,,,,,,,,,,,,,,,,,
8106,1469914718721,,,,,,,0.01,0.13,0.97,-4.2,1.4,1.1,1140,624,,,,,,,,,,,,,,,,,
8126,1469914718741,,,,,,,0.0,0.13,0.97,-4.2,1.1,1.1,1180,624,,,,,,,,,,,,,,,,,
8146,1469914718761,,,,17,,,0.01,0.13,0.96,-4.2,1.0,1.1,1180,626,1.885,2,39.540489,-122.331955,10.64,0.01,328.2,9,2,1.4,0,0.0,-1,0.0,,0.0,0
8166,1469914718781,,,,,,,0.01,0.11,0.95,-4.1,1.2,1.1,1180,621,,,,,,,,,,,,,,,,,
8186,1469914718801,,,,,,,0.01,0.12,0.95,-4.1,1.1,1.1,1200,616,,,,,,,,,,,,,,,,,
8206,1469914718821,,,,,,,0.01,0.13,0.94,-4.0,1.1,0.9,1140,616,,,,,,,,,,,,,,,,,
8226,1469914718841,,,,,,,0.01,0.14,0.95,-4.0,0.9,0.6,1180,620,,,,,,,,,,,,,,,,,
8246,1469914718861,0,236.7,190.9,15,195.8,,0.01,0.13,0.95,-4.0,0.8,0.5,1140,618,1.9,2,39.540489,-122.331955,10.64,0.01,328.2,9,2,1.4,0,0.0,-1,0.0,0.0,0.0,0
8266,1469914718881,,,,,,,0.01,0.13,0.96,-4.0,0.5,0.4,1160,615,,,,,,,,,,,,,,,,,
8286,1469914718805,,,,,,,0.0,0.12,0.96,-4.0,0.5,0.3,1180,613,,,,,,,,,,,,,,,,,
8306,1469914718825,,,,,,,-0.0,0.13,0.97,-4.1,0.2,0.1,1140,612,,,,,,,,,,,,,,,,,
8326,1469914718845,,,,,,,-0.0,0.12,0.97,-4.0,0.1,-0.2,1160,615,,,,,,,,,,,,,,,,,
8346,1469914718865,,,,15,,,0.01,0.13,0.98,-4.0,-0.0,-0.5,1160,621,1.905,2,39.540497,-122.331955,10.91,0.01,328.3,9,2,1.4,0,0.0,-1,0.0,,0.0,0
8366,1469914718885,,,,,,,0.02,0.14,0.98,-4.0,-0.1,-0.6,1180,623,,,,,,,,,,,,,,,,,
8386,1469914718905,,,,,,,0.02,0.14,0.98,-4.0,-0.3,-0.6,1200,624,,,,,,,,,,,,,,,,,
8406,1469914718918,,,,,,,0.02,0.14,0.98,-4.0,-0.3,-0.7,1160,621,,,,,,,,,,,,,,,,,
8426,1469914718938,,,,,,,0.02,0.14,0.98,-3.9,-0.6,-0.6,1160,626,,,,,,,,,,,,,,,,,
8446,1469914718958,0,235.9,192.2,18,197.3,,0.02,0.13,0.99,-3.9,-0.5,-0.2,1180,627,1.903,2,39.540501,-122.331955,10.93,0.011,328.2,9,2,1.4,0,0.0,-1,0.0,0.0,0.0,0
8466,1469914718978,,,,,,,0.03,0.12,1.0,-3.9,-0.9,0.0,1180,626,,,,,,,,,,,,,,,,,
8486,1469914719004,,,,,,,0.02,0.12,1.01,-3.9,-0.6,0.1,1200,626,,,,,,,,,,,,,,,,,
8506,1469914719024,,,,,,,0.02,0.11,1.02,-4.0,-0.5,0.0,1160,621,,,,,,,,,,,,,,,,,
8526,1469914719044,,,,,,,0.01,0.11,1.01,-4.0,-0.7,0.1,1180,618,,,,,,,,,,,,,,,,,
8546,1469914719064,,,,16,,,0.01,0.1,1.0,-4.0,-0.8,0.3,1160,616,1.894,2,39.540504,-122.331955,11.05,0.011,328.2,9,2,1.4,0,0.0,-1,0.0,,0.0,0
8566,1469914719084,,,,,,,0.01,0.1,1.0,-4.0,-1.1,0.4,1140,612,,,,,,,,,,,,,,,,,
8586,1469914719105,,,,,,,0.01,0.11,1.0,-4.0,-1.0,0.6,1160,616,,,,,,,,,,,,,,,,,
8606,1469914719125,,,,,,,0.01,0.11,0.99,-4.0,-0.9,0.7,1160,613,,,,,,,,,,,,,,,,,
8626,1469914719145,,,,,,,0.01,0.11,0.99,-3.9,-0.8,0.8,1140,615,,,,,,,,,,,,,,,,,
8646,1469914719165,0,235.8,192.4,15,197.4,,0.01,0.11,0.99,-3.9,-0.4,0.7,1140,616,1.892,2,39.540508,-122.331955,10.98,0.011,328.1,9,2,1.4,0,0.0,-1,0.0,0.0,0.0,0
8666,1469914719185,,,,,,,0.01,0.11,0.99,-3.8,-0.3,0.6,1180,616,,,,,,,,,,,,,,,,,
8686,1469914719206,,,,,,,0.01,0.11,0.99,-3.8,-0.0,0.5,1160,623,,,,,,,,,,,,,,,,,
8706,1469914719226,,,,,,,0.03,0.12,0.99,-3.9,0.2,0.5,1160,626,,,,,,,,,,,,,,,,,
8726,1469914719246,,,,,,,0.03,0.14,0.99,-3.8,0.4,0.4,1180,626,,,,,,,,,,,,,,,,,
8746,1469914719266,,,,16,,,0.03,0.13,1.0,-3.9,0.7,0.3,1180,627,1.868,2,39.540516,-122.331955,10.83,0.012,327.9,9,2,1.4,0,0.0,-1,0.0,,0.0,0
8766,1469914719286,,,,,,,0.03,0.14,0.99,-3.9,0.7,0.0,1200,626,,,,,,,,,,,,,,,,,
8786,1469914719306,,,,,,,0.03,0.13,0.98,-3.8,0.8,-0.1,1160,629,,,,,,,,,,,,,,,,,
8806,1469914719326,,,,,,,0.02,0.12,0.99,-3.8,0.6,-0.2,1200,627,,,,,,,,,,,,,,,,,
8826,1469914719346,,,,,,,0.03,0.13,0.99,-3.8,0.8,-0.3,1160,626,,,,,,,,,,,,,,,,,
8846,1469914719366,0,236.8,190.6,14,195.7,,0.02,0.13,0.99,-3.8,0.6,-0.4,1180,621,1.841,2,39.54052,-122.331955,11.08,0.012,327.9,9,2,1.4,0,0.0,-1,0.0,0.0,0.0,0
8866,1469914719386,,,,,,,0.01,0.12,0.99,-3.8,0.4,-0.5,1160,618,,,,,,,,,,,,,,,,,
8886,1469914719503,,,,,,,0.01,0.12,0.98,-3.7,0.5,-0.6,1180,621,,,,,,,,,,,,,,,,,
8906,1469914719523,,,,,,,0.01,0.12,0.98,-3.7,0.4,-0.7,1200,626,,,,,,,,,,,,,,,,,
8926,1469914719543,,,,,,,0.02,0.13,0.98,-3.8,0.2,-0.8,1180,627,,,,,,,,,,,,,,,,,
8946,1469914719563,,,,16,,,0.02,0.14,0.97,-3.8,0.3,-0.9,1160,626,1.868,2,39.540527,-122.331955,10.9,0.012,327.6,9,2,1.4,0,0.0,-1,0.0,,0.0,0
8966,1469914719583,,,,,,,0.02,0.13,0.97,-3.8,0.1,-1.1,1200,624,,,,,,,,,,,,,,,,,
8986,1469914719603,,,,,,,0.01,0.11,0.97,-3.7,-0.1,-1.3,1160,627,,,,,,,,,,,,,,,,,
9006,1469914719623,,,,,,,0.01,0.09,0.98,-3.5,-0.3,-1.3,1200,630,,,,,,,,,,,,,,,,,
9026,1469914719643,,,,,,,0.02,0.09,0.97,-3.5,-0.2,-1.2,1160,633,,,,,,,,,,,,,,,,,
9046,1469914719663,0,236.7,191.9,16,196.8,13.81,0.02,0.1,0.98,-3.5,-0.3,-1.0,1180,629,1.908,2,39.540527,-122.331955,10.9,0.012,327.6,9,2,1.4,0,0.0,-1,0.0,0.0,0.0,0
9066,1469914719683,,,,,,,0.01,0.1,0.99,-3.5,-0.2,-0.9,1180,623,,,,,,,,,,,,,,,,,
9086,1469914719593,,,,,,,0.01,0.1,1.0,-3.4,-0.3,-1.0,1180,620,,,,,,,,,,,,,,,,,
9106,1469914719613,,,,,,,0.01,0.11,1.0,-3.2,-0.2,-1.0,1200,621,,,,,,,,,,,,,,,,,
9126,1469914719633,,,,,,,0.02,0.11,1.0,-3.2,-0.3,-0.8,1140,626,,,,,,,,,,,,,,,,,
9146,1469914719653,,,,15,,,0.02,0.11,1.0,-3.2,-0.3,-0.5,1160,626,1.891,2,39.540531,-122.331955,10.82,0.013,327.6,9,2,1.4,0,0.0,-1,0.0,,0.0,0
9166,1469914719673,,,,,,,0.02,0.11,1.01,-3.1,-0.1,-0.1,1180,623,,,,,,,,,,,,,,,,,
9186,1469914719697,,,,,,,0.01,0.12,1.0,-3.1,-0.0,-0.0,1160,620,,,,,,,,,,,,,,,,,
9206,1469914719717,,,,,,,0.01,0.12,1.0,-3.0,0.0,-0.0,1200,626,,,,,,,,,,,,,,,,,
9226,1469914719737,,,,,,,0.02,0.12,1.01,-2.9,0.2,-0.0,1160,629,,,,,,,,,,,,,,,,,
9246,1469914719757,0,237.1,191.7,15,196.4,,0.02,0.12,1.01,-2.9,0.2,-0.0,1180,632,1.894,2,39.540539,-122.331955,10.97,0.013,327.5,9,2,1.4,0,0.0,-1,0.0,0.0,0.0,0
9266,1469914719777,,,,,,,0.03,0.12,1.0,-2.8,0.4,0.1,1200,629,,,,,,,,,,,,,,,,,
9286,1469914719797,,,,,,,0.03,0.11,1.0,-2.8,0.4,0.2,1180,627,,,,,,,,,,,,,,,,,
9306,1469914719817,,,,,,,0.02,0.11,1.0,-2.8,0.3,0.3,1220,632,,,,,,,,,,,,,,,,,
9326,1469914719837,,,,,,,0.01,0.11,1.0,-2.8,-0.0,0.3,1160,630,,,,,,,,,,,,,,,,,
9346,1469914719857,,,,18,,,0.01,0.11,0.99,-2.7,-0.4,0.1,1180,629,1.905,2,39.540543,-122.331955,11.02,0.014,327.4,9,2,1.5,0,0.0,-1,0.0,,0.0,0
9366,1469914719877,,,,,,,0.02,0.11,0.99,-2.7,-0.5,-0.1,1160,624,,,,,,,,,,,,,,,,,
9386,1469914719893,,,,,,,0.03,0.12,1.0,-2.7,-0.4,-0.3,1180,621,,,,,,,,,,,,,,,,,
9406,1469914719913,,,,,,,0.02,0.11,1.0,-2.7,-0.2,-0.5,1200,623,,,,,,,,,,,,,,,,,
9426,1469914719933,,,,,,,0.03,0.11,0.99,-2.6,-0.2,-0.5,1160,623,,,,,,,,,,,,,,,,,
9446,1469914719953,0,235.7,192.6,21,197.4,,0.03,0.11,0.99,-2.6,0.2,-0.5,1160,630,1.862,2,39.540546,-122.331955,11.05,0.014,327.5,9,2,1.5,0,0.0,-1,0.0,0.0,0.0,0
9466,1469914719973,,,,,,,0.03,0.11,0.99,-2.6,0.4,-0.4,1200,626,,,,,,,,,,,,,,,,,
9486,1469914719999,,,,,,,0.02,0.1,0.99,-2.5,0.7,-0.5,1160,627,,,,,,,,,,,,,,,,,
9506,1469914720019,,,,,,,0.02,0.1,0.99,-2.5,0.8,-0.6,1220,626,,,,,,,,,,,,,,,,,
9526,1469914720039,,,,,,,0.02,0.1,0.99,-2.5,0.9,-0.6,1160,630,,,,,,,,,,,,,,,,,
9546,1469914720059,,,,13,,,0.02,0.1,1.0,-2.4,1.0,-0.5,1200,635,1.932,2,39.54055,-122.331955,11.7,0.014,327.6,9,2,1.5,0,0.0,-1,0.0,,0.0,0
9566,1469914720079,,,,,,,0.02,0.09,0.99,-2.4,1.2,-0.4,1200,633,,,,,,,,,,,,,,,,,
9586,1469914720099,,,,,,,0.02,0.09,0.99,-2.4,1.4,-0.3,1180,633,,,,,,,,,,,,,,,,,
9606,1469914720119,,,,,,,0.01,0.08,0.99,-2.4,1.5,-0.2,1220,635,,,,,,,,,,,,,,,,,
9626,1469914720139,,,,,,,0.01,0.08,0.99,-2.4,1.6,-0.1,1180,633,,,,,,,,,,,,,,,,,
9646,1469914720159,0,236.8,190.4,20,195.5,,0.01,0.08,0.98,-2.4,1.4,0.1,1200,635,1.905,2,39.540558,-122.331955,11.72,0.015,327.7,9,2,1.5,0,0.0,-1,0.0,0.0,0.0,0
9666,1469914720179,,,,,,,0.02,0.09,0.98,-2.4,1.4,0.2,1180,630,,,,,,,,,,,,,,,,,
9686,1469914720298,,,,,,,0.02,0.09,0.97,-2.4,1.4,0.3,1180,624,,,,,,,,,,,,,,,,,
9706,1469914720318,,,,,,,0.01,0.1,0.97,-2.3,1.2,0.3,1200,623,,,,,,,,,,,,,,,,,
9726,1469914720338,,,,,,,0.01,0.1,0.95,-2.3,1.0,0.3,1160,621,,,,,,,,,,,,,,,,,
9746,1469914720358,,,,16,,,0.01,0.09,0.96,-2.3,0.5,0.1,1180,626,1.882,2,39.540566,-122.331955,11.23,0.015,327.7,9,2,1.5,0,0.0,-1,0.0,,0.0,0
9766,1469914720378,,,,,,,0.02,0.09,0.95,-2.2,0.1,0.0,1180,626,,,,,,,,,,,,,,,,,
9786,1469914720398,,,,,,,0.02,0.09,0.95,-2.2,0.2,-0.1,1160,627,,,,,,,,,,,,,,,,,
9806,1469914720418,,,,,,,0.03,0.1,0.96,-2.2,0.1,-0.2,1180,624,,,,,,,,,,,,,,,,,
9826,1469914720438,,,,,,,0.02,0.11,0.95,-2.2,0.2,-0.4,1200,624,,,,,,,,,,,,,,,,,
9846,1469914720458,0,236.1,191.2,16,196.3,,0.02,0.1,0.96,-2.1,0.1,-0.5,1140,633,1.903,2,39.540566,-122.331955,11.23,0.015,327.7,9,2,1.5,0,0.0,-1,0.0,0.0,0.0,0
9866,1469914720478,,,,,,,0.02,0.11,0.96,-2.2,0.2,-0.5,1200,633,,,,,,,,,,,,,,,,,
9886,1469914720397,,,,,,,0.02,0.11,0.97,-2.2,0.4,-0.6,1200,632,,,,,,,,,,,,,,,,,
9906,1469914720417,,,,,,,0.03,0.09,0.98,-2.2,0.3,-0.5,1200,626,,,,,,,,,,,,,,,,,
9926,1469914720437,,,,,,,0.02,0.1,0.99,-2.2,0.2,-0.7,1160,630,,,,,,,,,,,,,,,,,
9946,1469914720457,,,,17,,,0.02,0.09,0.98,-2.2,0.4,-0.7,1180,630,1.873,2,39.540569,-122.331955,11.06,0.015,327.6,9,2,1.5,0,0.0,-1,0.0,,0.0,0
9966,1469914720477,,,,,,,0.01,0.09,0.99,-2.3,0.4,-0.7,1180,632,,,,,,,,,,,,,,,,,
9986,1469914720496,,,,,,,0.02,0.09,1.0,-2.3,0.5,-0.6,1200,632,,,,,,,,,,,,,,,,,
10006,1469914720516,,,,,,,0.02,0.08,1.0,-2.4,0.4,-0.4,1200,630,,,,,,,,,,,,,,,,,
10026,1469914720536,,,,,,,0.01,0.08,1.0,-2.3,0.2,-0.4,1180,629,,,,,,,,,,,,,,,,,
10046,1469914720556,0,236.5,192.0,19,196.8,13.79,0.01,0.07,0.99,-2.2,-0.1,-0.3,1180,630,1.876,2,39.540573,-122.33197,11.03,0.016,327.6,9,2,1.5,0,0.0,-1,0.0,0.0,0.0,0
10066,1469914720576,,,,,,,0.01,0.08,0.99,-2.2,-0.2,-0.3,1200,630,,,,,,,,,,,,,,,,,
10086,1469914720596,,,,,,,0.01,0.09,1.0,-2.4,-0.3,-0.3,1180,629,,,,,,,,,,,,,,,,,
10106,1469914720616,,,,,,,0.01,0.08,1.0,-2.4,-0.2,-0.3,1200,624,,,,,,,,,,,,,,,,,
10126,1469914720636,,,,,,,0.01,0.08,1.0,-2.5,-0.3,-0.4,1160,624,,,,,,,,,,,,,,,,,
10146,1469914720656,,,,17,,,0.01,0.09,1.01,-2.5,-0.6,-0.4,1180,630,1.853,2,39.540581,-122.33197,10.89,0.017,327.6,9,2,1.5,0,0.0,-1,0.0,,0.0,0
10166,1469914720676,,,,,,,0.02,0.1,1.01,-2.5,-0.7,-0.5,1180,630,,,,,,,,,,,,,,,,,
10186,1469914720696,,,,,,,0.02,0.11,1.0,-2.6,-0.8,-0.5,1160,630,,,,,,,,,,,,,,,,,
10206,1469914720716,,,,,,,0.02,0.1,0.99,-2.6,-0.5,-0.5,1220,629,,,,,,,,,,,,,,,,,
10226,1469914720736,,,,,,,0.02,0.09,0.98,-2.6,-0.3,-0.5,1160,624,,,,,,,,,,,,,,,,,
10246,1469914720756,0,235.6,190.6,17,197.4,,0.02,0.1,0.98,-2.5,-0.3,-0.6,1200,629,1.923,2,39.540585,-122.33197,11.18,0.017,327.6,9,2,1.5,0,0.0,-1,0.0,0.0,0.0,0
10266,1469914720776,,,,,,,0.03,0.1,1.0,-2.5,-0.1,-0.7,1160,632,,,,,,,,,,,,,,,,,
10286,1469914720798,,,,,,,0.03,0.08,1.0,-2.6,0.1,-0.6,1180,632,,,,,,,,,,,,,,,,,
10306,1469914720818,,,,,,,0.03,0.09,1.0,-2.7,0.1,-0.5,1200,630,,,,,,,,,,,,,,,,,
10326,1469914720838,,,,,,,0.02,0.1,1.0,-2.8,0.3,-0.5,1180,626,,,,,,,,,,,,,,,,,
10346,1469914720858,,,,18,,,0.02,0.1,1.0,-2.8,0.2,-0.5,1180,633,1.908,2,39.540588,-122.33197,11.15,0.017,327.7,9,2,1.5,0,0.0,-1,0.0,,0.0,0
10366,1469914720878,,,,,,,0.02,0.1,1.01,-2.8,0.5,-0.5,1180,633,,,,,,,,,,,,,,,,,
10386,1469914720891,,,,,,,0.03,0.11,1.01,-2.9,0.5,-0.3,1200,632,,,,,,,,,,,,,,,,,
10406,1469914720911,,,,,,,0.03,0.1,1.01,-2.9,0.6,-0.1,1200,633,,,,,,,,,,,,,,,,,
10426,1469914720931,,,,,,,0.02,0.1,1.01,-3.0,0.7,0.1,1180,630,,,,,,,,,,,,,,,,,
10446,1469914720951,0,236.8,192.3,15,196.8,,0.02,0.1,1.01,-3.0,0.5,0.2,1180,633,1.873,2,39.540592,-122.33197,10.86,0.018,327.6,9,2,1.5,0,0.0,-1,0.0,0.0,0.0,0
10466,1469914720971,,,,,,,0.01,0.11,1.0,-3.0,0.3,0.1,1180,633,,,,,,,,,,,,,,,,,
10486,1469914721096,,,,,,,0.01,0.11,0.99,-3.0,0.2,0.1,1180,632,,,,,,,,,,,,,,,,,
10506,1469914721116,,,,,,,0.01,0.11,0.99,-3.0,0.5,0.2,1220,629,,,,,,,,,,,,,,,,,
10526,1469914721136,,,,,,,0.01,0.1,0.99,-3.0,0.4,0.1,1160,626,,,,,,,,,,,,,,,,,
10546,1469914721156,,,,17,,,0.01,0.11,0.98,-3.0,0.3,-0.1,1180,632,1.873,2,39.540604,-122.33197,11.05,0.018,327.7,9,2,1.5,0,0.0,-1,0.0,,0.0,0
10566,1469914721176,,,,,,,0.01,0.11,0.98,-2.9,0.3,-0.1,1180,627,,,,,,,,,,,,,,,,,
10586,1469914721196,,,,,,,0.01,0.12,0.97,-2.9,0.1,-0.2,1180,626,,,,,,,,,,,,,,,,,
10606,1469914721216,,,,,,,0.02,0.12,0.98,-2.9,0.2,-0.2,1200,627,,,,,,,,,,,,,,,,,
10626,1469914721236,,,,,,,0.02,0.11,0.98,-2.8,0.3,-0.3,1140,623,,,,,,,,,,,,,,,,,
10646,1469914721256,0,237.0,192.6,15,196.3,,0.01,0.11,0.97,-2.8,0.4,-0.3,1180,627,1.885,2,39.540604,-122.33197,11.05,0.018,327.7,9,2,1.5,0,0.0,-1,0.0,0.0,0.0,0
10666,1469914721276,,,,,,,0.01,0.1,0.96,-2.8,0.1,-0.3,1180,626,,,,,,,,,,,,,,,,,
10686,1469914721197,,,,,,,0.01,0.09,0.96,-2.8,-0.0,-0.3,1200,630,,,,,,,,,,,,,,,,,
10706,1469914721217,,,,,,,0.01,0.09,0.97,-2.8,-0.0,-0.3,1200,630,,,,,,,,,,,,,,,,,
10726,1469914721237,,,,,,,0.01,0.09,0.96,-2.7,-0.1,-0.4,1180,629,,,,,,,,,,,,,,,,,
10746,1469914721257,,,,17,,,0.01,0.08,0.96,-2.6,-0.0,-0.3,1180,635,1.917,2,39.540604,-122.33197,10.92,0.018,327.5,9,2,1.5,0,0.0,-1,0.0,,0.0,0
10766,1469914721277,,,,,,,0.01,0.08,0.96,-2.6,0.0,-0.2,1200,635,,,,,,,,,,,,,,,,,
10786,1469914721297,,,,,,,0.01,0.08,0.97,-2.7,-0.1,-0.1,1180,635,,,,,,,,,,,,,,,,,
10806,1469914721317,,,,,,,0.0,0.09,0.98,-2.7,-0.1,-0.1,1220,633,,,,,,,,,,,,,,,,,
10826,1469914721337,,,,,,,0.01,0.09,0.97,-2.7,-0.0,0.1,1160,632,,,,,,,,,,,,,,,,,
10846,1469914721357,0,236.7,192.1,15,196.0,,0.0,0.07,0.97,-2.7,-0.1,0.4,1200,630,1.858,2,39.540611,-122.33197,10.81,0.019,327.3,9,2,1.5,0,0.0,-1,0.0,0.0,0.0,0
10866,1469914721377,,,,,,,-0.0,0.08,0.97,-2.7,-0.1,0.5,1180,626,,,,,,,,,,,,,,,,,
10886,1469914721395,,,,,,,-0.01,0.08,0.98,-2.7,0.0,0.5,1160,621,,,,,,,,,,,,,,,,,
10906,1469914721415,,,,,,,0.01,0.07,0.98,-2.6,-0.0,0.6,1200,621,,,,,,,,,,,,,,,,,
10926,1469914721435,,,,,,,0.02,0.07,0.99,-2.6,-0.1,0.7,1140,620,,,,,,,,,,,,,,,,,
10946,1469914721455,,,,16,,,0.02,0.07,0.99,-2.6,0.1,0.7,1160,621,1.853,2,39.540615,-122.33197,10.97,0.019,327.3,9,2,1.5,0,0.0,-1,0.0,,0.0,0
10966,1469914721475,,,,,,,0.02,0.08,0.98,-2.6,-0.3,0.6,1160,620,,,,,,,,,,,,,,,,,
10986,1469914721494,,,,,,,0.01,0.09,0.98,-2.5,-0.1,0.5,1180,616,,,,,,,,,,,,,,,,,
11006,1469914721514,,,,,,,0.02,0.09,0.98,-2.4,-0.2,0.5,1160,615,,,,,,,,,,,,,,,,,
11026,1469914721534,,,,,,,0.03,0.1,0.99,-2.3,-0.0,0.4,1140,615,,,,,,,,,,,,,,,,,
11046,1469914721554,0,235.8,191.0,15,197.0,13.83,0.03,0.09,0.98,-2.2,0.2,0.3,1160,609,1.9,2,39.540623,-122.33197,11.18,0.02,327.2,9,2,1.5,0,0.0,-1,0.0,0.0,0.0,0
11066,1469914721574,,,,,,,0.04,0.09,0.99,-2.1,0.2,0.2,1140,610,,,,,,,,,,,,,,,,,
11086,1469914721594,,,,,,,0.04,0.09,0.98,-2.0,0.1,0.0,1120,603,,,,,,,,,,,,,,,,,
11106,1469914721614,,,,,,,0.03,0.09,0.98,-1.9,0.1,-0.1,1120,589,,,,,,,,,,,,,,,,,
11126,1469914721634,,,,,,,0.03,0.1,0.98,-1.8,0.1,-0.3,1100,584,,,,,,,,,,,,,,,,,
11146,1469914721654,,,,14,,,0.03,0.08,0.99,-1.6,0.3,-0.4,1100,576,1.891,2,39.540623,-122.33197,11.14,0.02,327.1,9,2,1.5,0,0.0,-1,0.0,,0.0,0
11166,1469914721674,,,,,,,0.04,0.08,0.99,-1.5,0.4,-0.4,1080,575,,,,,,,,,,,,,,,,,
11186,1469914721694,,,,,,,0.03,0.08,1.0,-1.4,0.4,-0.3,1060,573,,,,,,,,,,,,,,,,,
11206,1469914721714,,,,,,,0.05,0.07,1.0,-1.2,0.3,-0.3,1080,580,,,,,,,,,,,,,,,,,
11226,1469914721734,,,,,,,0.06,0.07,1.01,-0.9,0.2,-0.1,1080,586,,,,,,,,,,,,,,,,,
11246,1469914721754,0,236.1,191.3,16,196.0,,0.07,0.07,1.0,-0.8,0.1,0.0,1120,590,1.888,2,39.54063,-122.33197,11.08,0.02,326.9,9,2,1.5,0,0.0,-1,0.0,0.0,0.0,0
11266,1469914721774,,,,,,,0.08,0.05,1.0,-0.6,-0.0,0.3,1100,604,,,,,,,,,,,,,,,,,
11286,1469914721896,,,,,,,0.1,0.06,1.01,-0.5,0.1,0.4,1140,613,,,,,,,,,,,,,,,,,
11306,1469914721916,,,,,,,0.11,0.07,1.02,-0.4,-0.0,0.4,1160,621,,,,,,,,,,,,,,,,,
11326,1469914721936,,,,,,,0.1,0.08,1.01,-0.3,-0.4,0.5,1200,623,,,,,,,,,,,,,,,,,
11346,1469914721956,,,,14,,,0.09,0.08,1.01,-0.1,-0.3,0.6,1160,615,1.806,2,39.540642,-122.33197,10.95,0.021,326.7,9,2,1.5,0,0.0,-1,0.0,,0.0,0
11366,1469914721976,,,,,,,0.09,0.07,1.01,0.2,-0.1,0.8,1160,610,,,,,,,,,,,,,,,,,
11386,1469914721996,,,,,,,0.08,0.05,1.0,0.5,0.2,1.0,1140,600,,,,,,,,,,,,,,,,,
11406,1469914722016,,,,,,,0.09,0.06,0.99,0.9,0.3,0.9,1120,593,,,,,,,,,,,,,,,,,
11426,1469914722036,,,,,,,0.09,0.05,1.0,1.1,0.6,0.9,1120,584,,,,,,,,,,,,,,,,,
11446,1469914722056,0,236.5,192.1,15,195.8,,0.09,0.04,1.0,1.3,0.8,1.0,1120,573,1.911,2,39.540642,-122.33197,10.95,0.021,326.7,9,2,1.5,0,0.0,-1,0.0,0.0,0.0,0
11466,1469914722076,,,,,,,0.1,0.05,1.01,1.7,0.6,0.7,1060,569,,,,,,,,,,,,,,,,,
11486,1469914721997,,,,,,,0.1,0.06,1.02,2.0,0.9,0.1,1040,564,,,,,,,,,,,,,,,,,
11506,1469914722017,,,,,,,0.11,0.05,1.01,2.2,1.3,-0.4,1060,564,,,,,,,,,,,,,,,,,
11526,1469914722037,,,,,,,0.12,0.03,1.0,2.5,1.3,-0.7,1060,572,,,,,,,,,,,,,,,,,
11546,1469914722057,,,,13,,,0.12,0.04,0.99,2.9,1.1,-1.0,1080,573,1.834,2,39.540642,-122.33197,10.52,0.021,326.7,9,2,1.5,0,0.0,-1,0.0,,0.0,0
11566,1469914722077,,,,,,,0.12,0.03,0.98,3.2,0.9,-1.4,1080,576,,,,,,,,,,,,,,,,,
11586,1469914722097,,,,,,,0.12,0.02,0.97,3.5,0.8,-1.5,1080,583,,,,,,,,,,,,,,,,,
11606,1469914722117,,,,,,,0.13,0.03,0.96,3.7,0.6,-1.6,1100,580,,,,,,,,,,,,,,,,,
11626,1469914722137,,,,,,,0.12,0.03,0.95,4.0,0.1,-1.6,1120,583,,,,,,,,,,,,,,,,,
11646,1469914722157,0,236.3,191.8,15,195.8,,0.11,0.01,0.93,4.3,0.2,-1.7,1100,586,1.862,2,39.540646,-122.33197,10.54,0.021,326.5,9,2,1.5,0,0.0,-1,0.0,0.0,0.0,0
11666,1469914722177,,,,,,,0.1,0.02,0.94,4.5,-0.2,-1.8,1140,586,,,,,,,,,,,,,,,,,
11686,1469914722198,,,,,,,0.1,0.02,0.95,4.7,-0.3,-1.6,1100,584,,,,,,,,,,,,,,,,,
11706,1469914722218,,,,,,,0.09,0.01,0.97,4.9,-0.2,-1.6,1100,578,,,,,,,,,,,,,,,,,
11726,1469914722238,,,,,,,0.09,-0.0,0.99,5.1,-0.0,-1.4,1080,573,,,,,,,,,,,,,,,,,
11746,1469914722258,,,,13,,,0.08,0.01,1.0,5.4,0.2,-1.2,1080,567,1.874,2,39.540653,-122.33197,10.28,0.022,326.4,9,2,1.5,0,0.0,-1,0.0,,0.0,0
11766,1469914722278,,,,,,,0.08,-0.01,1.0,5.5,0.2,-0.9,1080,564,,,,,,,,,,,,,,,,,
11786,1469914722297,,,,,,,0.07,-0.0,1.01,5.6,-0.1,-0.7,1040,555,,,,,,,,,,,,,,,,,
11806,1469914722317,,,,,,,0.06,-0.02,1.02,5.8,0.0,-0.5,1040,552,,,,,,,,,,,,,,,,,
11826,1469914722337,,,,,,,0.06,-0.01,1.02,5.9,0.4,-0.4,1020,552,,,,,,,,,,,,,,,,,
11846,1469914722357,0,235.6,190.9,12,197.1,,0.06,0.0,1.01,6.1,0.4,-0.2,1040,541,1.918,2,39.540657,-122.33197,10.01,0.022,326.4,9,2,1.5,0,0.0,-1,0.0,0.0,0.0,0
11866,1469914722377,,,,,,,0.05,-0.0,1.01,6.2,0.4,-0.1,1000,533,,,,,,,,,,,,,,,,,
11886,1469914722395,,,,,,,0.05,-0.0,1.01,6.3,0.3,0.0,1000,533,,,,,,,,,,,,,,,,,
11906,1469914722415,,,,,,,0.05,0.0,1.0,6.5,0.3,0.2,1000,530,,,,,,,,,,,,,,,,,
11926,1469914722435,,,,,,,0.05,-0.01,1.0,6.7,0.3,0.4,980,536,,,,,,,,,,,,,,,,,
11946,1469914722455,,,,14,,,0.06,0.0,0.99,6.9,0.3,0.6,1020,543,1.869,2,39.540661,-122.33197,9.81,0.022,326.3,9,2,1.5,0,0.0,-1,0.0,,0.0,0
11966,1469914722475,,,,,,,0.06,-0.01,0.98,7.0,0.2,0.7,1000,546,,,,,,,,,,,,,,,,,
11986,1469914722493,,,,,,,0.07,-0.01,0.98,7.3,0.0,0.7,1020,550,,,,,,,,,,,,,,,,,
12006,1469914722513,,,,,,,0.08,-0.01,0.98,7.5,0.1,0.9,1040,556,,,,,,,,,,,,,,,,,
12026,1469914722533,,,,,,,0.09,-0.0,0.99,7.6,-0.1,0.9,1060,555,,,,,,,,,,,,,,,,,
12046,1469914722553,0,236.7,192.2,16,196.1,13.83,0.09,-0.0,1.0,7.9,0.1,0.6,1060,561,1.821,2,39.540665,-122.33197,9.76,0.023,326.2,9,2,1.5,0,0.0,-1,0.0,0.0,0.0,0
12066,1469914722573,,,,,,,0.1,0.01,1.01,8.1,0.1,0.3,1060,561,,,,,,,,,,,,,,,,,
12086,1469914722693,,,,,,,0.08,0.01,1.0,8.3,0.1,-0.1,1060,553,,,,,,,,,,,,,,,,,
12106,1469914722713,,,,,,,0.08,0.02,1.0,8.6,-0.0,-0.4,1040,547,,,,,,,,,,,,,,,,,
12126,1469914722733,,,,,,,0.07,0.02,1.0,9.0,-0.0,-0.8,1000,543,,,,,,,,,,,,,,,,,
12146,1469914722753,,,,13,,,0.07,0.01,0.99,9.3,0.3,-1.1,1020,543,1.906,2,39.540672,-122.331955,9.54,0.024,326.0,9,2,1.5,0,0.0,-1,0.0,,0.0,0
12166,1469914722773,,,,,,,0.07,-0.01,0.99,9.6,0.2,-1.4,1000,538,,,,,,,,,,,,,,,,,
12186,1469914722793,,,,,,,0.07,-0.02,0.99,9.9,0.3,-1.8,1000,533,,,,,,,,,,,,,,,,,
12206,1469914722813,,,,,,,0.06,-0.03,0.99,10.3,0.5,-2.1,1000,527,,,,,,,,,,,,,,,,,
12226,1469914722833,,,,,,,0.07,-0.03,0.98,10.5,0.6,-2.4,1000,527,,,,,,,,,,,,,,,,,
12246,1469914722853,0,236.7,192.4,12,196.2,,0.07,-0.04,0.97,10.7,0.6,-2.5,980,523,1.876,2,39.540672,-122.331955,9.54,0.024,326.0,9,2,1.5,0,0.0,-1,0.0,0.0,0.0,0
12266,1469914722873,,,,,,,0.07,-0.07,0.98,11.0,0.8,-2.4,980,524,,,,,,,,,,,,,,,,,
12286,1469914722796,,,,,,,0.08,-0.07,0.98,11.4,0.5,-2.3,980,527,,,,,,,,,,,,,,,,,
12306,1469914722816,,,,,,,0.08,-0.07,0.97,11.7,0.4,-2.0,1000,527,,,,,,,,,,,,,,,,,
12326,1469914722836,,,,,,,0.08,-0.09,0.97,12.0,0.4,-1.8,1000,527,,,,,,,,,,,,,,,,,
12346,1469914722856,,,,12,,,0.09,-0.09,0.97,12.3,0.2,-1.6,1000,532,1.881,2,39.540676,-122.331955,9.39,0.024,325.9,9,2,1.5,0,0.0,-1,0.0,,0.0,0
12366,1469914722876,,,,,,,0.09,-0.08,0.97,12.6,-0.0,-1.3,1000,532,,,,,,,,,,,,,,,,,
12386,1469914722896,,,,,,,0.08,-0.08,0.96,12.8,-0.3,-1.2,1000,536,,,,,,,,,,,,,,,,,
12406,1469914722909,,,,,,,0.07,-0.06,0.95,13.1,-0.5,-1.1,1000,541,,,,,,,,,,,,,,,,,
12426,1469914722929,,,,,,,0.07,-0.07,0.95,13.4,-0.6,-0.9,1020,536,,,,,,,,,,,,,,,,,
12446,1469914722949,0,236.2,191.7,11,196.4,,0.07,-0.06,0.95,13.6,-0.4,-0.7,1020,540,1.876,2,39.54068,-122.331955,9.19,0.024,325.9,9,2,1.5,0,0.0,-1,0.0,0.0,0.0,0
12466,1469914722969,,,,,,,0.08,-0.05,0.95,13.8,-0.4,-0.7,1020,538,,,,,,,,,,,,,,,,,
12486,1469914722997,,,,,,,0.07,-0.05,0.95,14.0,-0.6,-0.7,1000,532,,,,,,,,,,,,,,,,,
12506,1469914723017,,,,,,,0.07,-0.04,0.96,14.1,-0.5,-0.7,1020,540,,,,,,,,,,,,,,,,,
12526,1469914723037,,,,,,,0.08,-0.04,0.97,14.3,-0.3,-0.6,1020,538,,,,,,,,,,,,,,,,,
12546,1469914723057,,,,13,,,0.08,-0.03,0.97,14.4,-0.2,-0.6,1020,543,1.907,2,39.540684,-122.331955,9.34,0.024,325.7,9,2,1.5,0,0.0,-1,0.0,,0.0,0
12566,1469914723077,,,,,,,0.09,-0.05,0.97,14.7,0.1,-0.6,1000,540,,,,,,,,,,,,,,,,,
12586,1469914723097,,,,,,,0.1,-0.04,0.97,14.8,0.2,-0.8,1040,543,,,,,,,,,,,,,,,,,
12606,1469914723117,,,,,,,0.1,-0.04,0.98,15.0,0.3,-0.9,1020,543,,,,,,,,,,,,,,,,,
12626,1469914723137,,,,,,,0.09,-0.04,0.97,15.2,0.6,-1.0,1020,547,,,,,,,,,,,,,,,,,
12646,1469914723157,0,235.8,191.0,13,196.1,,0.1,-0.06,0.98,15.4,0.5,-1.1,1020,555,1.848,2,39.540684,-122.331955,9.17,0.024,325.4,9,2,1.5,0,0.0,-1,0.0,0.0,0.0,0
12666,1469914723177,,,,,,,0.1,-0.07,0.99,15.7,0.6,-1.2,1040,547,,,,,,,,,,,,,,,,,
12686,1469914723197,,,,,,,0.1,-0.06,0.99,15.9,0.4,-1.4,1040,556,,,,,,,,,,,,,,,,,
12706,1469914723217,,,,,,,0.09,-0.06,1.0,16.1,0.1,-1.5,1060,558,,,,,,,,,,,,,,,,,
12726,1469914723237,,,,,,,0.08,-0.07,1.0,16.3,0.1,-1.6,1040,552,,,,,,,,,,,,,,,,,
12746,1469914723257,,,,15,,,0.07,-0.06,0.99,16.4,0.1,-1.7,1040,544,1.874,2,39.540688,-122.331955,9.46,0.025,325.2,9,2,1.5,0,0.0,-1,0.0,,0.0,0
12766,1469914723277,,,,,,,0.06,-0.06,0.99,16.6,-0.0,-1.9,1040,536,,,,,,,,,,,,,,,,,
12786,1469914723297,,,,,,,0.06,-0.07,0.98,16.7,0.2,-2.1,1020,526,,,,,,,,,,,,,,,,,
12806,1469914723317,,,,,,,0.05,-0.05,0.97,16.8,0.2,-2.3,980,518,,,,,,,,,,,,,,,,,
12826,1469914723337,,,,,,,0.05,-0.05,0.97,16.9,-0.0,-2.2,1000,515,,,,,,,,,,,,,,,,,
12846,1469914723357,0,236.5,192.1,11,196.7,,0.06,-0.06,0.96,17.1,-0.1,-2.2,940,512,1.925,2,39.540691,-122.331955,9.5,0.025,324.9,9,2,1.5,0,0.0,-1,0.0,0.0,0.0,0
12866,1469914723377,,,,,,,0.06,-0.06,0.97,17.3,-0.2,-2.0,940,512,,,,,,,,,,,,,,,,,
12886,1469914723492,,,,,,,0.06,-0.06,0.98,17.5,-0.4,-1.8,940,507,,,,,,,,,,,,,,,,,
12906,1469914723512,,,,,,,0.07,-0.07,0.98,17.7,-0.6,-1.7,960,507,,,,,,,,,,,,,,,,,
12926,1469914723532,,,,,,,0.07,-0.08,1.0,17.9,-0.8,-1.5,960,515,,,,,,,,,,,,,,,,,
12946,1469914723552,,,,14,,,0.06,-0.08,1.01,18.0,-1.0,-1.5,980,520,1.836,2,39.540699,-122.331947,9.45,0.026,324.7,9,2,1.4,0,0.0,-1,0.0,,0.0,0
12966,1469914723572,,,,,,,0.05,-0.1,1.02,18.2,-1.1,-1.3,980,521,,,,,,,,,,,,,,,,,
12986,1469914723592,,,,,,,0.05,-0.1,1.02,18.4,-1.3,-1.2,980,530,,,,,,,,,,,,,,,,,
13006,1469914723612,,,,,,,0.03,-0.11,1.02,18.6,-1.5,-1.0,980,533,,,,,,,,,,,,,,,,,
13026,1469914723632,,,,,,,0.02,-0.11,1.02,18.8,-1.4,-0.9,1020,540,,,,,,,,,,,,,,,,,
13046,1469914723652,0,236.1,191.6,12,196.3,13.78,0.01,-0.12,1.02,19.0,-1.5,-0.9,1020,544,1.849,2,39.540699,-122.331947,9.45,0.026,324.7,9,2,1.4,0,0.0,-1,0.0,0.0,0.0,0
13066,1469914723672,,,,,,,0.01,-0.12,1.02,19.1,-1.5,-0.9,1040,553,,,,,,,,,,,,,,,,,
13086,1469914723593,,,,,,,-0.0,-0.1,1.02,19.2,-1.5,-0.9,1060,558,,,,,,,,,,,,,,,,,
13106,1469914723613,,,,,,,0.0,-0.1,1.02,19.3,-1.8,-0.8,1020,564,,,,,,,,,,,,,,,,,
13126,1469914723633,,,,,,,-0.0,-0.09,1.02,19.5,-1.9,-0.9,1060,555,,,,,,,,,,,,,,,,,
13146,1469914723653,,,,12,,,-0.0,-0.08,1.01,19.7,-1.7,-1.0,1060,547,1.91,2,39.540703,-122.331947,9.47,0.026,324.6,9,2,1.4,0,0.0,-1,0.0,,0.0,0
13166,1469914723673,,,,,,,0.0,-0.08,1.01,19.9,-1.4,-1.1,1040,547,,,,,,,,,,,,,,,,,
13186,1469914723692,,,,,,,0.01,-0.1,1.01,20.0,-0.9,-1.3,1060,538,,,,,,,,,,,,,,,,,
13206,1469914723712,,,,,,,0.01,-0.1,1.01,20.2,-0.4,-1.4,1000,527,,,,,,,,,,,,,,,,,
13226,1469914723732,,,,,,,0.01,-0.11,1.01,20.3,0.1,-1.5,1000,526,,,,,,,,,,,,,,,,,
13246,1469914723752,0,236.8,192.5,12,197.3,,0.02,-0.1,1.01,20.5,0.4,-1.6,960,521,1.959,2,39.540703,-122.331947,9.38,0.026,324.5,9,2,1.4,0,0.0,-1,0.0,0.0,0.0,0
13266,1469914723772,,,,,,,0.02,-0.1,1.01,20.6,1.1,-1.7,980,524,,,,,,,,,,,,,,,,,
13286,1469914723796,,,,,,,0.03,-0.1,1.01,20.9,1.3,-1.9,960,521,,,,,,,,,,,,,,,,,
13306,1469914723816,,,,,,,0.02,-0.11,1.01,21.1,1.7,-1.9,980,524,,,,,,,,,,,,,,,,,
13326,1469914723836,,,,,,,0.04,-0.1,1.01,21.3,2.0,-1.9,1000,527,,,,,,,,,,,,,,,,,
13346,1469914723856,,,,11,,,0.04,-0.11,1.0,21.5,2.5,-1.8,960,535,1.871,2,39.540707,-122.331947,8.65,0.026,324.1,9,2,1.4,0,0.0,-1,0.0,,0.0,0
13366,1469914723876,,,,,,,0.06,-0.11,1.0,21.7,2.7,-1.8,1000,541,,,,,,,,,,,,,,,,,
13386,1469914723896,,,,,,,0.07,-0.12,1.01,21.8,3.0,-1.7,1000,549,,,,,,,,,,,,,,,,,
13406,1469914723907,,,,,,,0.08,-0.1,1.01,22.0,2.9,-1.7,1020,556,,,,,,,,,,,,,,,,,
13426,1469914723927,,,,,,,0.08,-0.11,1.01,22.1,2.9,-1.5,1060,564,,,,,,,,,,,,,,,,,
13446,1469914723947,0,235.4,190.6,15,195.4,,0.08,-0.13,1.0,22.2,3.0,-1.3,1040,572,1.848,2,39.54071,-122.331932,9.17,0.027,323.8,9,2,1.4,0,0.0,-1,0.0,0.0,0.0,0
13466,1469914723967,,,,,,,0.08,-0.13,0.99,22.3,3.0,-1.3,1080,572,,,,,,,,,,,,,,,,,
13486,1469914723987,,,,,,,0.07,-0.14,0.99,22.4,2.8,-1.2,1080,564,,,,,,,,,,,,,,,,,
13506,1469914724006,,,,,,,0.06,-0.13,0.99,22.6,2.4,-1.2,1080,560,,,,,,,,,,,,,,,,,
13526,1469914724026,,,,,,,0.05,-0.12,1.0,22.6,1.9,-1.1,1080,556,,,,,,,,,,,,,,,,,
13546,1469914724046,,,,14,,,0.04,-0.14,0.99,22.8,1.5,-1.1,1040,543,1.908,2,39.540714,-122.331932,9.51,0.027,323.5,9,2,1.4,0,0.0,-1,0.0,,0.0,0
13566,1469914724066,,,,,,,0.04,-0.16,0.99,23.0,1.4,-1.1,1060,540,,,,,,,,,,,,,,,,,
13586,1469914724095,,,,,,,0.03,-0.16,0.99,23.2,1.4,-1.1,1000,533,,,,,,,,,,,,,,,,,
13606,1469914724115,,,,,,,0.03,-0.16,1.0,23.4,1.3,-1.2,1000,536,,,,,,,,,,,,,,,,,
13626,1469914724135,,,,,,,0.02,-0.16,1.0,23.5,1.4,-1.1,1020,541,,,,,,,,,,,,,,,,,
13646,1469914724155,0,236.7,192.4,12,197.3,,0.02,-0.16,1.01,23.6,1.5,-1.0,1020,550,1.97,2,39.540718,-122.331932,9.2,0.028,323.4,9,2,1.4,0,0.0,-1,0.0,0.0,0.0,0
13666,1469914724175,,,,,,,0.02,-0.16,1.01,23.8,1.3,-0.8,1040,556,,,,,,,,,,,,,,,,,
13686,1469914724295,,,,,,,0.01,-0.14,1.01,23.8,1.2,-0.6,1060,570,,,,,,,,,,,,,,,,,
13706,1469914724315,,,,,,,0.01,-0.13,1.01,23.9,1.0,-0.3,1080,586,,,,,,,,,,,,,,,,,
13726,1469914724335,,,,,,,0.01,-0.13,0.99,23.9,0.9,0.0,1100,595,,,,,,,,,,,,,,,,,
13746,1469914724355,,,,14,,,0.0,-0.14,0.99,24.0,0.9,0.2,1140,596,1.883,2,39.540722,-122.331917,9.0,0.029,323.3,9,2,1.4,0,0.0,-1,0.0,,0.0,0
13766,1469914724375,,,,,,,0.0,-0.14,0.99,24.0,0.9,0.3,1140,589,,,,,,,,,,,,,,,,,
13786,1469914724395,,,,,,,-0.02,-0.16,1.0,24.1,1.1,0.2,1100,581,,,,,,,,,,,,,,,,,
13806,1469914724415,,,,,,,-0.02,-0.17,1.0,24.2,0.7,0.1,1120,578,,,,,,,,,,,,,,,,,
13826,1469914724435,,,,,,,-0.04,-0.18,1.0,24.3,0.2,-0.0,1080,576,,,,,,,,,,,,,,,,,
13846,1469914724455,0,236.3,191.8,14,196.6,,-0.05,-0.16,1.0,24.4,0.0,-0.1,1100,573,1.897,2,39.540722,-122.331917,9.0,0.029,323.3,9,2,1.4,0,0.0,-1,0.0,0.0,0.0,0
13866,1469914724475,,,,,,,-0.05,-0.14,1.0,24.5,-0.1,-0.2,1080,581,,,,,,,,,,,,,,,,,
13886,1469914724393,,,,,,,-0.05,-0.12,1.01,24.5,0.1,-0.1,1060,584,,,,,,,,,,,,,,,,,
13906,1469914724413,,,,,,,-0.04,-0.13,0.99,24.4,0.1,-0.0,1060,586,,,,,,,,,,,,,,,,,
13926,1469914724433,,,,,,,-0.05,-0.14,0.97,24.3,0.1,0.0,1120,593,,,,,,,,,,,,,,,,,
13946,1469914724453,,,,15,,,-0.05,-0.12,0.96,24.2,0.0,0.1,1140,606,1.869,2,39.540722,-122.331917,9.21,0.029,323.3,9,2,1.4,0,0.0,-1,0.0,,0.0,0
13966,1469914724473,,,,,,,-0.06,-0.13,0.96,24.1,0.1,-0.0,1180,609,,,,,,,,,,,,,,,,,
13986,1469914724493,,,,,,,-0.07,-0.13,0.97,24.1,0.0,-0.3,1160,604,,,,,,,,,,,,,,,,,
14006,1469914724513,,,,,,,-0.07,-0.13,0.97,24.0,-0.5,-0.6,1180,620,,,,,,,,,,,,,,,,,
14026,1469914724533,,,,,,,-0.07,-0.12,0.99,24.0,-0.4,-0.7,1200,635,,,,,,,,,,,,,,,,,
14046,1469914724553,0,236.4,192.2,17,196.9,13.84,-0.07,-0.12,1.0,23.8,0.2,-0.6,1200,626,1.891,2,39.540722,-122.331909,9.53,0.029,323.2,9,2,1.4,0,0.0,-1,0.0,0.0,0.0,0
14066,1469914724573,,,,,,,-0.08,-0.11,0.99,23.6,0.4,-0.7,1160,618,,,,,,,,,,,,,,,,,
14086,1469914724591,,,,,,,-0.09,-0.14,0.99,23.4,0.5,-0.7,1180,606,,,,,,,,,,,,,,,,,
14106,1469914724611,,,,,,,-0.1,-0.12,0.99,23.1,0.0,-0.9,1160,618,,,,,,,,,,,,,,,,,
14126,1469914724631,,,,,,,-0.09,-0.11,0.99,22.9,-0.1,-0.7,1180,632,,,,,,,,,,,,,,,,,
14146,1469914724651,,,,16,,,-0.07,-0.1,0.99,22.5,0.3,-0.5,1200,643,1.85,2,39.540722,-122.331909,10.33,0.029,323.1,9,2,1.4,0,0.0,-1,0.0,,0.0,0
14166,1469914724671,,,,,,,-0.07,-0.09,0.98,22.1,0.8,-0.3,1200,638,,,,,,,,,,,,,,,,,
14186,1469914724693,,,,,,,-0.07,-0.11,0.98,21.9,0.3,-0.2,1220,638,,,,,,,,,,,,,,,,,
14206,1469914724713,,,,,,,-0.08,-0.11,0.96,21.6,-0.1,-0.0,1240,664,,,,,,,,,,,,,,,,,
14226,1469914724733,,,,,,,-0.08,-0.08,0.98,21.3,-0.6,0.3,1220,676,,,,,,,,,,,,,,,,,
14246,1469914724753,0,235.8,191.2,17,196.0,,-0.07,-0.08,0.98,20.9,-0.2,0.9,1280,664,1.855,2,39.540726,-122.331909,10.67,0.029,322.9,9,2,1.4,0,0.0,-1,0.0,0.0,0.0,0
14266,1469914724773,,,,,,,-0.08,-0.07,0.98,20.6,0.2,1.0,1240,663,,,,,,,,,,,,,,,,,
14286,1469914724795,,,,,,,-0.11,-0.08,0.99,20.2,-0.1,1.0,1280,663,,,,,,,,,,,,,,,,,
14306,1469914724815,,,,,,,-0.09,-0.07,0.97,20.1,-0.4,1.1,1280,675,,,,,,,,,,,,,,,,,
14326,1469914724835,,,,,,,-0.09,-0.09,0.97,19.9,-0.2,1.0,1240,661,,,,,,,,,,,,,,,,,
14346,1469914724855,,,,19,,,-0.09,-0.07,0.94,19.9,-0.3,0.5,1260,661,1.902,2,39.540726,-122.331894,10.83,0.03,323.0,9,2,1.4,0,0.0,-1,0.0,,0.0,0
14366,1469914724875,,,,,,,-0.1,-0.06,0.94,19.7,-0.4,0.4,1240,675,,,,,,,,,,,,,,,,,
14386,1469914724895,,,,,,,-0.09,-0.06,0.95,19.4,-0.4,0.5,1260,678,,,,,,,,,,,,,,,,,
14406,1469914724908,,,,,,,-0.09,-0.07,0.96,19.2,0.3,0.5,1280,678,,,,,,,,,,,,,,,,,
14426,1469914724928,,,,,,,-0.09,-0.06,0.96,19.1,0.3,0.2,1280,693,,,,,,,,,,,,,,,,,
14446,1469914724948,0,235.6,190.9,20,196.0,,-0.09,-0.05,0.98,19.0,0.1,0.2,1340,703,1.936,2,39.54073,-122.331894,11.16,0.03,322.8,9,2,1.4,0,0.0,-1,0.0,0.0,0.0,0
14466,1469914724968,,,,,,,-0.09,-0.06,0.97,18.8,0.7,0.0,1320,696,,,,,,,,,,,,,,,,,
14486,1469914725096,,,,,,,-0.09,-0.07,0.97,18.8,0.8,-0.3,1320,713,,,,,,,,,,,,,,,,,
14506,1469914725116,,,,,,,-0.09,-0.05,0.97,18.6,0.6,-0.4,1320,715,,,,,,,,,,,,,,,,,
14526,1469914725136,,,,,,,-0.08,-0.11,0.96,18.5,0.4,-0.6,1360,710,,,,,,,,,,,,,,,,,
14546,1469914725156,,,,22,,,-0.1,-0.14,0.97,18.6,0.3,-1.1,1340,712,1.859,2,39.540733,-122.331879,12.0,0.032,322.5,9,2,1.4,0,0.0,-1,0.0,,0.0,0
14566,1469914725176,,,,,,,-0.08,-0.11,0.98,18.4,-0.0,-1.0,1340,716,,,,,,,,,,,,,,,,,
14586,1469914725196,,,,,,,-0.09,-0.13,0.97,18.1,-0.2,-1.0,1340,706,,,,,,,,,,,,,,,,,
14606,1469914725216,,,,,,,-0.09,-0.15,0.99,18.1,-0.2,-1.2,1340,713,,,,,,,,,,,,,,,,,
14626,1469914725236,,,,,,,-0.09,-0.14,0.99,18.0,-0.6,-1.2,1360,720,,,,,,,,,,,,,,,,,
14646,1469914725256,0,235.3,190.5,19,195.3,,-0.08,-0.14,0.98,17.9,-0.7,-1.4,1340,716,1.879,2,39.540733,-122.331879,12.0,0.032,322.5,9,2,1.4,0,0.0,-1,0.0,0.0,0.0,0
14666,1469914725276,,,,,,,-0.09,-0.14,0.98,17.7,-0.8,-1.5,1380,736,,,,,,,,,,,,,,,,,
14686,1469914725197,,,,,,,-0.08,-0.13,0.98,17.7,-0.9,-1.3,1360,733,,,,,,,,,,,,,,,,,
14706,1469914725217,,,,,,,-0.09,-0.14,0.97,17.8,-1.0,-1.2,1420,746,,,,,,,,,,,,,,,,,
14726,1469914725237,,,,,,,-0.08,-0.14,0.97,17.7,-1.2,-1.0,1400,747,,,,,,,,,,,,,,,,,
14746,1469914725257,,,,21,,,-0.07,-0.14,0.98,17.6,-1.2,-0.9,1440,743,1.878,2,39.540733,-122.331863,12.08,0.032,322.2,9,2,1.4,0,0.0,-1,0.0,,0.0,0
14766,1469914725277,,,,,,,-0.07,-0.16,0.99,17.7,-1.4,-1.0,1440,755,,,,,,,,,,,,,,,,,
14786,1469914725296,,,,,,,-0.07,-0.15,1.0,17.7,-1.3,-1.0,1400,747,,,,,,,,,,,,,,,,,
14806,1469914725316,,,,,,,-0.07,-0.13,1.0,17.7,-0.9,-1.2,1440,758,,,,,,,,,,,,,,,,,
14826,1469914725336,,,,,,,-0.08,-0.14,1.01,17.6,-0.9,-0.8,1440,758,,,,,,,,,,,,,,,,,
14846,1469914725356,0,235.4,190.8,27,195.5,,-0.08,-0.13,1.0,17.5,-0.5,-0.6,1380,752,1.923,2,39.540737,-122.331863,12.6,0.033,322.1,9,2,1.4,0,0.0,-1,0.0,0.0,0.0,0
14866,1469914725376,,,,,,,-0.09,-0.16,1.0,17.3,-0.4,-0.3,1400,767,,,,,,,,,,,,,,,,,
14886,1469914725393,,,,,,,-0.09,-0.14,0.98,17.2,-0.4,-0.1,1480,764,,,,,,,,,,,,,,,,,
14906,1469914725413,,,,,,,-0.09,-0.14,0.98,17.0,-0.3,0.2,1440,776,,,,,,,,,,,,,,,,,
14926,1469914725433,,,,,,,-0.08,-0.11,0.97,16.6,-0.5,0.4,1460,767,,,,,,,,,,,,,,,,,
14946,1469914725453,,,,19,,,-0.08,-0.11,0.98,16.5,-0.5,0.2,1500,780,1.821,2,39.540737,-122.331863,12.87,0.033,321.7,9,2,1.4,0,0.0,-1,0.0,,0.0,0
14966,1469914725473,,,,,,,-0.08,-0.09,0.99,16.2,-0.3,0.3,1440,776,,,,,,,,,,,,,,,,,
14986,1469914725492,,,,,,,-0.07,-0.1,0.99,15.9,-0.6,0.3,1500,784,,,,,,,,,,,,,,,,,
15006,1469914725512,,,,,,,-0.08,-0.09,1.01,15.5,-0.6,0.3,1500,778,,,,,,,,,,,,,,,,,
15026,1469914725532,,,,,,,-0.09,-0.07,1.01,15.2,-0.6,0.0,1460,784,,,,,,,,,,,,,,,,,
15046,1469914725552,0,236.0,191.4,20,196.1,13.78,-0.09,-0.07,1.02,14.9,-0.9,-0.3,1480,783,1.913,2,39.540737,-122.331856,13.27,0.033,321.7,9,2,1.4,0,0.0,-1,0.0,0.0,0.0,0
15066,1469914725572,,,,,,,-0.08,-0.05,1.01,14.6,-0.9,-0.6,1480,786,,,,,,,,,,,,,,,,,
15086,1469914725593,,,,,,,-0.08,-0.06,1.03,14.3,-1.1,-0.8,1500,792,,,,,,,,,,,,,,,,,
15106,1469914725613,,,,,,,-0.08,-0.07,1.03,14.1,-1.2,-0.9,1480,798,,,,,,,,,,,,,,,,,
15126,1469914725633,,,,,,,-0.08,-0.07,1.05,13.8,-1.3,-1.0,1520,798,,,,,,,,,,,,,,,,,
15146,1469914725653,,,,29,,,-0.07,-0.08,1.05,13.6,-1.2,-1.0,1500,807,1.888,2,39.540741,-122.331856,13.59,0.033,321.6,9,2,1.4,0,0.0,-1,0.0,,0.0,0
15166,1469914725673,,,,,,,-0.07,-0.07,1.06,13.3,-1.4,-1.1,1480,806,,,,,,,,,,,,,,,,,
15186,1469914725693,,,,,,,-0.07,-0.05,1.07,13.0,-0.7,-1.1,1500,816,,,,,,,,,,,,,,,,,
15206,1469914725713,,,,,,,-0.06,-0.07,1.09,12.7,-0.4,-1.0,1580,813,,,,,,,,,,,,,,,,,
15226,1469914725733,,,,,,,-0.05,-0.08,1.09,12.5,-0.6,-0.8,1540,821,,,,,,,,,,,,,,,,,
15246,1469914725753,0,235.3,190.2,24,195.3,,-0.04,-0.08,1.08,12.3,-0.6,-0.5,1540,816,1.901,2,39.540741,-122.33184,13.78,0.034,321.5,9,2,1.4,0,0.0,-1,0.0,0.0,0.0,0
15266,1469914725773,,,,,,,-0.05,-0.1,1.05,12.4,-0.8,-0.4,1560,823,,,,,,,,,,,,,,,,,
15286,1469914725895,,,,,,,-0.05,-0.08,1.02,12.2,-0.5,-0.2,1540,818,,,,,,,,,,,,,,,,,
15306,1469914725915,,,,,,,-0.05,-0.07,1.01,12.0,-0.5,-0.1,1520,820,,,,,,,,,,,,,,,,,
15326,1469914725935,,,,,,,-0.05,-0.06,0.99,11.7,-0.5,-0.1,1540,823,,,,,,,,,,,,,,,,,
15346,1469914725955,,,,25,,,-0.04,-0.06,1.0,11.4,-0.7,-0.0,1540,820,1.896,2,39.540741,-122.331825,13.89,0.035,321.2,9,2,1.4,0,0.0,-1,0.0,,0.0,0
15366,1469914725975,,,,,,,-0.05,-0.04,1.0,11.1,-0.3,-0.1,1560,829,,,,,,,,,,,,,,,,,
15386,1469914725995,,,,,,,-0.04,-0.05,1.01,10.8,0.3,0.0,1560,826,,,,,,,,,,,,,,,,,
15406,1469914726015,,,,,,,-0.03,-0.04,1.01,10.7,0.6,0.1,1580,843,,,,,,,,,,,,,,,,,
15426,1469914726035,,,,,,,-0.02,-0.06,1.01,10.7,0.9,-0.0,1560,838,,,,,,,,,,,,,,,,,
15446,1469914726055,0,236.5,192.4,22,197.0,,-0.02,-0.05,1.01,10.6,1.0,-0.1,1600,843,1.9,2,39.540741,-122.331825,13.89,0.035,321.2,9,2,1.4,0,0.0,-1,0.0,0.0,0.0,0
15466,1469914726075,,,,,,,-0.03,-0.04,0.99,10.6,1.3,-0.3,1580,847,,,,,,,,,,,,,,,,,
15486,1469914725997,,,,,,,-0.04,-0.02,1.01,10.2,1.2,-0.3,1580,846,,,,,,,,,,,,,,,,,
15506,1469914726017,,,,,,,-0.05,-0.02,1.01,9.9,1.2,-0.3,1620,855,,,,,,,,,,,,,,,,,
15526,1469914726037,,,,,,,-0.04,-0.01,1.0,9.7,1.2,-0.4,1620,846,,,,,,,,,,,,,,,,,
15546,1469914726057,,,,23,,,-0.04,-0.01,1.01,9.5,1.0,-0.3,1620,846,1.896,2,39.540741,-122.331818,14.39,0.035,321.0,9,2,1.4,0,0.0,-1,0.0,,0.0,0
15566,1469914726077,,,,,,,-0.04,-0.01,1.01,9.3,1.3,-0.3,1580,850,,,,,,,,,,,,,,,,,
15586,1469914726095,,,,,,,-0.03,-0.01,1.04,9.1,1.0,-0.3,1600,843,,,,,,,,,,,,,,,,,
15606,1469914726115,,,,,,,-0.04,-0.01,1.03,8.8,0.8,-0.1,1600,850,,,,,,,,,,,,,,,,,
15626,1469914726135,,,,,,,-0.03,-0.02,1.03,8.6,0.8,0.0,1580,853,,,,,,,,,,,,,,,,,
15646,1469914726155,0,235.5,190.9,27,195.9,,-0.03,-0.03,1.04,8.5,0.5,0.2,1580,852,1.874,2,39.540741,-122.331818,14.28,0.035,320.9,9,2,1.4,0,0.0,-1,0.0,0.0,0.0,0
15666,1469914726175,,,,,,,-0.03,-0.01,1.04,8.3,0.9,0.1,1620,863,,,,,,,,,,,,,,,,,
15686,1469914726195,,,,,,,-0.04,-0.02,1.04,8.0,1.0,0.1,1600,860,,,,,,,,,,,,,,,,,
15706,1469914726215,,,,,,,-0.03,-0.0,1.03,7.9,1.0,0.1,1640,869,,,,,,,,,,,,,,,,,
15726,1469914726235,,,,,,,-0.03,-0.01,1.0,7.8,1.3,-0.1,1680,872,,,,,,,,,,,,,,,,,
15746,1469914726255,,,,21,,,-0.03,-0.0,1.01,7.5,1.3,-0.1,1640,866,1.884,2,39.540741,-122.331802,14.82,0.036,320.7,9,2,1.4,0,0.0,-1,0.0,,0.0,0
15766,1469914726275,,,,,,,-0.03,0.0,0.98,7.2,1.2,-0.1,1640,875,,,,,,,,,,,,,,,,,
15786,1469914726295,,,,,,,-0.03,-0.01,0.97,6.9,1.1,0.0,1680,876,,,,,,,,,,,,,,,,,
15806,1469914726315,,,,,,,-0.03,0.0,1.0,6.5,1.0,0.1,1680,873,,,,,,,,,,,,,,,,,
15826,1469914726335,,,,,,,-0.03,0.01,0.97,6.1,1.0,0.2,1640,881,,,,,,,,,,,,,,,,,
15846,1469914726355,0,235.3,190.5,28,195.3,,-0.02,-0.0,0.97,5.9,0.7,0.1,1660,878,1.909,2,39.540745,-122.331802,15.14,0.036,320.6,9,2,1.4,0,0.0,-1,0.0,0.0,0.0,0
15866,1469914726375,,,,,,,-0.03,-0.0,0.98,5.6,0.5,-0.0,1640,873,,,,,,,,,,,,,,,,,
15886,1469914726393,,,,,,,-0.03,0.01,0.98,5.4,0.3,-0.1,1640,876,,,,,,,,,,,,,,,,,
15906,1469914726413,,,,,,,-0.05,0.01,0.96,5.2,0.5,-0.1,1640,881,,,,,,,,,,,,,,,,,
15926,1469914726433,,,,,,,-0.06,0.01,0.98,4.9,0.4,-0.1,1640,880,,,,,,,,,,,,,,,,,
15946,1469914726453,,,,27,,,-0.06,0.01,0.98,4.6,0.3,-0.1,1700,889,1.918,2,39.540745,-122.331787,15.28,0.037,320.4,9,2,1.4,0,0.0,-1,0.0,,0.0,0
15966,1469914726473,,,,,,,-0.05,0.02,0.97,4.4,0.1,-0.2,1660,892,,,,,,,,,,,,,,,,,
15986,1469914726493,,,,,,,-0.06,0.02,0.98,4.1,-0.1,-0.3,1660,890,,,,,,,,,,,,,,,,,
16006,1469914726513,,,,,,,-0.06,0.01,0.98,3.9,-0.0,-0.6,1680,898,,,,,,,,,,,,,,,,,
16026,1469914726533,,,,,,,-0.06,-0.0,0.98,3.8,0.0,-0.6,1680,901,,,,,,,,,,,,,,,,,
16046,1469914726553,0,235.3,190.4,26,195.4,13.7,-0.06,0.0,0.98,3.5,0.1,-0.6,1700,898,1.877,2,39.540745,-122.331779,15.21,0.038,320.2,9,2,1.4,0,0.0,-1,0.0,0.0,0.0,0
16066,1469914726573,,,,,,,-0.05,0.02,0.96,3.3,-0.3,-0.5,1680,898,,,,,,,,,,,,,,,,,
16086,1469914726691,,,,,,,-0.05,0.02,0.97,3.2,-0.3,-0.6,1720,898,,,,,,,,,,,,,,,,,
16106,1469914726711,,,,,,,-0.05,0.01,0.96,3.1,-0.3,-0.7,1680,901,,,,,,,,,,,,,,,,,
16126,1469914726731,,,,,,,-0.05,0.01,0.96,3.0,-0.3,-0.8,1680,898,,,,,,,,,,,,,,,,,
16146,1469914726751,,,,28,,,-0.04,0.04,0.96,3.0,-0.3,-0.9,1700,901,1.867,2,39.540745,-122.331764,15.68,0.038,319.9,9,2,1.4,0,0.0,-1,0.0,,0.0,0
16166,1469914726771,,,,,,,-0.02,0.01,0.96,2.9,-0.1,-0.7,1680,903,,,,,,,,,,,,,,,,,
16186,1469914726791,,,,,,,-0.02,0.04,0.98,2.8,0.1,-0.5,1700,903,,,,,,,,,,,,,,,,,
16206,1469914726811,,,,,,,-0.03,0.03,1.0,2.7,0.0,-0.5,1740,912,,,,,,,,,,,,,,,,,
16226,1469914726831,,,,,,,-0.02,0.03,0.99,2.7,0.3,-0.5,1740,915,,,,,,,,,,,,,,,,,
16246,1469914726851,0,235.8,191.4,32,196.0,,-0.01,0.03,1.0,2.6,0.3,-0.5,1700,916,1.86,2,39.540745,-122.331764,15.68,0.038,319.9,9,2,1.4,0,0.0,-1,0.0,0.0,0.0,0
16266,1469914726871,,,,,,,-0.01,0.03,1.02,2.6,0.4,-0.7,1700,915,,,,,,,,,,,,,,,,,
16286,1469914726797,,,,,,,-0.01,0.03,1.0,2.6,1.0,-0.7,1740,926,,,,,,,,,,,,,,,,,
16306,1469914726817,,,,,,,-0.0,0.02,1.01,2.6,0.8,-0.5,1740,926,,,,,,,,,,,,,,,,,
16326,1469914726837,,,,,,,-0.0,0.01,1.01,2.6,0.6,-0.6,1720,923,,,,,,,,,,,,,,,,,
16346,1469914726857,,,,25,,,-0.0,0.02,0.99,2.6,0.6,-0.6,1760,921,1.921,2,39.540745,-122.331749,15.95,0.039,319.8,9,2,1.4,0,0.0,-1,0.0,,0.0,0
16366,1469914726877,,,,,,,-0.0,0.02,0.99,2.5,0.6,-0.6,1720,923,,,,,,,,,,,,,,,,,
16386,1469914726897,,,,,,,-0.0,0.04,0.99,2.4,0.5,-0.7,1720,926,,,,,,,,,,,,,,,,,
16406,1469914726909,,,,,,,-0.0,0.02,0.97,2.3,0.5,-0.7,1740,924,,,,,,,,,,,,,,,,,
16426,1469914726929,,,,,,,-0.0,0.02,0.98,2.2,0.8,-0.5,1760,927,,,,,,,,,,,,,,,,,
16446,1469914726949,0,235.3,190.5,34,195.6,,-0.02,0.03,0.98,2.2,0.8,-0.4,1780,924,1.901,2,39.540749,-122.331749,15.63,0.039,319.6,9,2,1.4,0,0.0,-1,0.0,0.0,0.0,0
16466,1469914726969,,,,,,,-0.01,0.02,0.99,2.3,1.0,-0.4,1740,932,,,,,,,,,,,,,,,,,
16486,1469914726997,,,,,,,-0.01,0.01,0.98,2.3,1.2,-0.3,1760,936,,,,,,,,,,,,,,,,,
16506,1469914727017,,,,,,,-0.0,0.01,1.0,2.3,1.4,-0.2,1780,933,,,,,,,,,,,,,,,,,
16526,1469914727037,,,,,,,0.02,0.0,0.99,2.2,1.1,-0.2,1760,936,,,,,,,,,,,,,,,,,
16546,1469914727057,,,,29,,,0.03,0.0,0.98,2.3,0.6,0.1,1800,940,1.861,2,39.540749,-122.331741,15.98,0.04,319.4,9,2,1.4,0,0.0,-1,0.0,,0.0,0
16566,1469914727077,,,,,,,0.04,0.01,0.99,2.3,-0.0,0.3,1820,941,,,,,,,,,,,,,,,,,
16586,1469914727095,,,,,,,0.04,0.01,1.0,2.2,-0.1,0.3,1780,940,,,,,,,,,,,,,,,,,
16606,1469914727115,,,,,,,0.03,0.01,1.01,2.1,0.0,0.2,1780,943,,,,,,,,,,,,,,,,,
16626,1469914727135,,,,,,,0.02,0.02,1.01,1.9,0.0,0.0,1780,946,,,,,,,,,,,,,,,,,
16646,1469914727155,0,235.9,191.3,31,196.4,,0.01,-0.0,1.02,1.9,0.2,-0.1,1760,941,1.934,2,39.540749,-122.331726,16.13,0.041,319.1,9,2,1.4,0,0.0,-1,0.0,0.0,0.0,0
16666,1469914727175,,,,,,,0.01,-0.01,1.02,1.9,-0.1,-0.1,1760,946,,,,,,,,,,,,,,,,,
16686,1469914727196,,,,,,,0.01,0.01,1.01,1.8,-0.1,-0.1,1780,941,,,,,,,,,,,,,,,,,
16706,1469914727216,,,,,,,-0.01,-0.0,1.0,1.7,0.7,-0.1,1820,943,,,,,,,,,,,,,,,,,
16726,1469914727236,,,,,,,-0.01,0.01,1.0,1.6,0.6,-0.1,1740,946,,,,,,,,,,,,,,,,,
16746,1469914727256,,,,29,,,-0.0,0.02,0.98,1.5,0.6,-0.1,1760,949,1.882,2,39.540749,-122.331726,16.52,0.041,319.1,9,2,1.4,0,0.0,-1,0.0,,0.0,0
16766,1469914727276,,,,,,,-0.0,0.01,0.97,1.4,0.6,-0.1,1800,946,,,,,,,,,,,,,,,,,
16786,1469914727297,,,,,,,-0.01,0.04,0.99,1.4,0.6,-0.3,1780,946,,,,,,,,,,,,,,,,,
16806,1469914727317,,,,,,,-0.0,0.03,0.97,1.3,0.6,-0.4,1800,947,,,,,,,,,,,,,,,,,
16826,1469914727337,,,,,,,0.01,0.04,0.98,1.2,0.0,-0.4,1800,941,,,,,,,,,,,,,,,,,
16846,1469914727357,0,235.2,190.5,30,195.3,,-0.0,0.05,0.98,1.2,-0.4,-0.3,1780,940,1.882,2,39.540749,-122.331711,16.34,0.042,318.9,9,2,1.4,0,0.0,-1,0.0,0.0,0.0,0
16866,1469914727377,,,,,,,-0.0,0.04,0.98,1.1,-0.6,-0.1,1760,932,,,,,,,,,,,,,,,,,
16886,1469914727494,,,,,,,-0.0,0.05,0.97,1.0,-0.7,-0.0,1720,923,,,,,,,,,,,,,,,,,
16906,1469914727514,,,,,,,0.0,0.04,0.98,0.9,-0.6,0.1,1740,926,,,,,,,,,,,,,,,,,
16926,1469914727534,,,,,,,0.01,0.05,0.99,0.7,-0.7,0.3,1680,918,,,,,,,,,,,,,,,,,
16946,1469914727554,,,,32,,,0.0,0.05,0.99,0.7,-0.8,0.3,1700,920,1.905,2,39.540749,-122.331703,16.67,0.042,318.8,9,2,1.4,0,0.0,-1,0.0,,0.0,0
16966,1469914727574,,,,,,,0.01,0.05,0.98,0.8,-0.5,0.2,1640,927,,,,,,,,,,,,,,,,,
16986,1469914727594,,,,,,,0.02,0.01,1.0,0.9,-0.5,0.1,1640,940,,,,,,,,,,,,,,,,,
17006,1469914727614,,,,,,,0.01,-0.02,1.01,1.1,-0.4,0.3,1600,961,,,,,,,,,,,,,,,,,
17026,1469914727634,,,,,,,0.03,-0.04,1.03,1.2,-1.0,0.2,1580,961,,,,,,,,,,,,,,,,,
17046,1469914727654,0,236.2,191.5,30,196.8,13.71,0.01,-0.03,1.03,1.3,-0.8,0.0,1540,956,1.748,2,39.540749,-122.331703,16.67,0.042,318.8,9,2,1.4,0,0.0,-1,0.0,0.0,0.0,0
17066,1469914727674,,,,,,,0.0,-0.04,1.02,1.3,-0.0,-0.2,1540,952,,,,,,,,,,,,,,,,,
17086,1469914727592,,,,,,,0.01,-0.04,1.02,1.3,0.1,-0.4,1500,950,,,,,,,,,,,,,,,,,
17106,1469914727612,,,,,,,0.01,-0.03,1.01,1.3,0.1,-0.7,1480,940,,,,,,,,,,,,,,,,,
17126,1469914727632,,,,,,,0.0,-0.03,1.0,1.1,0.5,-0.6,1460,938,,,,,,,,,,,,,,,,,
17146,1469914727652,,,,26,,,-0.0,0.01,0.98,0.9,0.5,-0.6,1440,933,1.628,0,39.540749,-122.331688,16.37,0.043,318.7,9,2,1.4,0,0.0,-1,0.0,,0.0,0
17166,1469914727672,,,,,,,0.0,0.04,0.97,0.7,1.1,-0.7,1400,935,,,,,,,,,,,,,,,,,
17186,1469914727694,,,,,,,0.03,0.02,0.97,0.6,1.2,-0.6,1380,943,,,,,,,,,,,,,,,,,
17206,1469914727714,,,,,,,0.04,0.01,0.95,0.5,0.9,-0.5,1380,947,,,,,,,,,,,,,,,,,
17226,1469914727734,,,,,,,0.04,0.02,0.96,0.4,0.8,-0.4,1180,964,,,,,,,,,,,,,,,,,
17246,1469914727754,0,236.6,192.4,22,197.3,,0.03,0.02,0.97,0.3,1.0,-0.4,1340,953,1.517,0,39.540749,-122.331673,16.73,0.044,318.6,9,2,1.4,0,0.0,-1,0.0,0.0,0.0,0
17266,1469914727774,,,,,,,0.04,0.01,0.98,0.3,1.3,-0.3,1320,941,,,,,,,,,,,,,,,,,
17286,1469914727796,,,,,,,0.05,0.01,0.99,0.3,1.2,-0.1,1280,924,,,,,,,,,,,,,,,,,
17306,1469914727816,,,,,,,0.05,0.03,1.01,0.2,1.7,-0.1,1300,920,,,,,,,,,,,,,,,,,
17326,1469914727836,,,,,,,0.02,0.02,0.99,0.2,1.8,-0.1,1240,909,,,,,,,,,,,,,,,,,
17346,1469914727856,,,,19,,,0.04,0.03,1.01,0.1,1.9,-0.1,1200,936,1.416,3,39.540749,-122.331673,16.73,0.044,318.6,9,2,1.4,0,0.0,-1,0.0,,0.0,0
17366,1469914727876,,,,,,,0.05,0.04,1.01,0.0,2.3,-0.0,1200,967,,,,,,,,,,,,,,,,,
17386,1469914727896,,,,,,,0.03,0.02,1.01,0.0,2.4,-0.1,1160,953,,,,,,,,,,,,,,,,,
17406,1469914727909,,,,,,,0.05,0.02,1.02,0.1,2.7,-0.2,1160,964,,,,,,,,,,,,,,,,,
17426,1469914727929,,,,,,,0.04,0.03,1.0,0.1,2.6,-0.6,1160,946,,,,,,,,,,,,,,,,,
17446,1469914727949,0,236.7,192.5,14,197.1,,0.05,0.04,0.98,0.1,2.3,-0.9,1060,952,1.208,3,39.540749,-122.331665,16.46,0.044,318.4,9,2,1.4,0,0.0,-1,0.0,0.0,0.0,0
17466,1469914727969,,,,,,,0.07,0.03,0.98,0.1,2.3,-1.0,1060,932,,,,,,,,,,,,,,,,,
17486,1469914727996,,,,,,,0.07,0.04,0.97,0.0,3.3,-0.8,1040,921,,,,,,,,,,,,,,,,,
17506,1469914728016,,,,,,,0.05,0.04,0.95,-0.2,3.4,-0.4,1000,927,,,,,,,,,,,,,,,,,
17526,1469914728036,,,,,,,0.06,0.03,0.93,-0.3,2.8,-0.3,1000,909,,,,,,,,,,,,,,,,,
