"Interval"|"ms"|0|0|1,"Utc"|"ms"|0|0|1,"FuelLevel"|"F"|0|100|5,"OilTemp"|"F"|0.0|300.0|5,"Coolant"|"F"|0.0|300.0|5,"OilPress"|"PSI"|0|150|10,"EngineTemp"|"F"|0.0|300.0|5,"Battery"|"Volts"|0.0|20.0|1,"AccelX"|"G"|-3.0|3.0|50,"AccelY"|"G"|-3.0|3.0|50,"AccelZ"|"G"|-3.0|3.0|50,"Yaw"|"Deg/Sec"|-300.0|300.0|50,"Pitch"|"Deg/Sec"|-300.0|300.0|50,"Roll"|"Deg/Sec"|-300.0|300.0|50,"RPM"|""|0|10000|50,"Driveshaft"|"RPM"|0|5000|50,"GearRatio"|""|-5.0|5.0|10,"Gear"|""|-1|5|10,"Latitude"|"Degrees"|-180.0|180.0|10,"Longitude"|"Degrees"|-180.0|180.0|10,"Speed"|"MPH"|0.0|150.0|10,"Distance"|"Miles"|0.0|0.0|10,"Altitude"|"Feet"|0.0|4000.0|10,"GPSSats"|""|0|20|10,"GPSQual"|""|0|5|10,"GPSDOP"|""|0.0|20.0|10,"LapCount"|""|0|0|10,"LapTime"|"Min"|0.0|0.0|10,"Sector"|""|0|0|10,"SectorTime"|"Min"|0.0|0.0|10,"PredTime"|"Min"|0.0|0.0|5,"ElapsedTime"|"Min"|0.0|0.0|10,"CurrentLap"|""|0|0|10
189526,1469915484600,,,,,,,0.02,0.11,0.98,-3.0,0.4,-0.1,380,0,,,,,,,,,,,,,,,,,
189546,1469915484620,,,,0,,,0.02,0.11,0.98,-3.0,0.3,-0.1,220,0,0.0,0,39.538692,-122.332199,0.0,0.537,298.1,9,2,1.4,0,0.0,-1,0.0,,0.0,0
189566,1469915484640,,,,,,,0.01,0.1,0.98,-3.0,0.3,-0.2,220,0,,,,,,,,,,,,,,,,,
189586,1469915484660,,,,,,,0.02,0.1,0.98,-3.0,0.3,-0.1,220,0,,,,,,,,,,,,,,,,,
189606,1469915484680,,,,,,,0.02,0.1,0.98,-3.0,0.3,0.0,320,0,,,,,,,,,,,,,,,,,
189626,1469915484799,,,,,,,0.02,0.09,0.98,-3.0,0.3,-0.1,320,0,,,,,,,,,,,,,,,,,
189646,1469915484819,0,240.5,194.2,0,206.9,,0.02,0.1,0.98,-3.0,0.3,-0.0,400,0,0.0,0,39.538692,-122.332199,0.0,0.537,298.1,9,2,1.4,0,0.0,-1,0.0,0.0,0.0,0
189666,1469915484839,,,,,,,0.03,0.1,0.99,-3.0,0.3,-0.1,400,0,,,,,,,,,,,,,,,,,
189686,1469915484859,,,,,,,0.03,0.1,0.99,-3.0,0.3,-0.1,480,0,,,,,,,,,,,,,,,,,
189706,1469915484879,,,,,,,0.02,0.1,0.98,-2.9,0.2,-0.2,480,0,,,,,,,,,,,,,,,,,
189726,1469915484899,,,,,,,0.02,0.12,0.99,-3.0,0.4,0.1,560,0,,,,,,,,,,,,,,,,,
189746,1469915484919,,,,5,,,0.01,0.09,0.98,-2.8,0.4,-0.1,700,0,0.0,0,39.538692,-122.332199,0.0,0.537,298.1,9,2,1.4,0,0.0,-1,0.0,,0.0,0
189766,1469915484939,,,,,,,0.01,0.08,0.98,-2.7,0.6,-0.3,820,0,,,,,,,,,,,,,,,,,
189786,1469915484959,,,,,,,0.01,0.09,0.99,-2.9,0.9,0.2,820,0,,,,,,,,,,,,,,,,,
189806,1469915484979,,,,,,,0.02,0.12,0.99,-2.9,1.1,0.4,900,0,,,,,,,,,,,,,,,,,
189826,1469915484893,,,,,,,0.04,0.13,0.97,-3.0,1.0,0.3,980,0,,,,,,,,,,,,,,,,,
189846,1469915484913,0,238.7,192.4,12,207.8,,0.05,0.13,0.98,-3.0,1.2,0.0,1080,0,0.0,0,39.538692,-122.332199,0.0,0.537,298.1,9,2,1.4,0,0.0,-1,0.0,0.0,0.0,0
189866,1469915484933,,,,,,,0.07,0.12,0.99,-3.1,1.6,-0.0,1100,0,,,,,,,,,,,,,,,,,
189886,1469915484953,,,,,,,0.08,0.12,0.98,-3.1,1.6,-0.2,1120,0,,,,,,,,,,,,,,,,,
189906,1469915484973,,,,,,,0.07,0.1,0.99,-3.1,1.7,-0.3,1140,0,,,,,,,,,,,,,,,,,
189926,1469915484999,,,,,,,0.06,0.09,0.98,-3.1,1.6,-0.2,1180,0,,,,,,,,,,,,,,,,,
189946,1469915485019,,,,17,,,0.06,0.1,0.99,-3.0,1.7,-0.2,1180,0,0.0,0,39.538692,-122.332199,0.0,0.537,298.1,9,2,1.4,0,0.0,-1,0.0,,0.0,0
189966,1469915485039,,,,,,,0.06,0.09,0.99,-3.1,1.7,-0.1,1260,0,,,,,,,,,,,,,,,,,
189986,1469915485059,,,,,,,0.05,0.11,0.99,-3.1,1.5,-0.1,1220,0,,,,,,,,,,,,,,,,,
190006,1469915485079,,,,,,,0.04,0.09,1.0,-3.0,1.3,-0.1,1240,0,,,,,,,,,,,,,,,,,
190026,1469915485100,,,,,,,0.03,0.11,1.0,-3.0,1.0,-0.2,1260,0,,,,,,,,,,,,,,,,,
190046,1469915485120,0,238.8,192.7,17,207.7,13.22,0.04,0.1,1.0,-3.0,1.0,-0.2,1300,0,0.0,0,39.538692,-122.332199,0.0,0.537,298.1,9,2,1.4,0,0.0,-1,0.0,0.0,0.0,0
190066,1469915485140,,,,,,,0.04,0.11,1.0,-3.0,1.3,-0.2,1320,0,,,,,,,,,,,,,,,,,
190086,1469915485160,,,,,,,0.04,0.11,0.99,-3.1,1.1,-0.1,1340,0,,,,,,,,,,,,,,,,,
190106,1469915485180,,,,,,,0.05,0.1,0.98,-3.1,1.0,-0.0,1360,0,,,,,,,,,,,,,,,,,
190126,1469915485199,,,,,,,0.05,0.1,0.99,-3.0,1.0,-0.1,1400,0,,,,,,,,,,,,,,,,,
190146,1469915485219,,,,19,,,0.04,0.12,0.98,-3.0,0.9,-0.2,1340,0,0.0,0,39.538692,-122.332199,0.0,0.537,298.1,9,2,1.4,0,0.0,-1,0.0,,0.0,0
190166,1469915485239,,,,,,,0.04,0.11,0.97,-3.0,0.9,-0.2,1360,0,,,,,,,,,,,,,,,,,
190186,1469915485259,,,,,,,0.04,0.09,0.98,-2.9,1.0,-0.3,1380,0,,,,,,,,,,,,,,,,,
190206,1469915485279,,,,,,,0.03,0.09,0.99,-2.9,1.1,-0.3,1400,0,,,,,,,,,,,,,,,,,
190226,1469915485301,,,,,,,0.03,0.1,0.99,-2.9,1.0,-0.3,1340,0,,,,,,,,,,,,,,,,,
190246,1469915485321,0,240.0,193.3,20,206.9,,0.02,0.09,0.98,-3.0,0.7,-0.2,1360,0,0.0,0,39.538692,-122.332199,0.0,0.537,298.1,9,2,1.4,0,0.0,-1,0.0,0.0,0.0,0
190266,1469915485341,,,,,,,0.02,0.09,0.97,-3.0,0.8,-0.2,1320,0,,,,,,,,,,,,,,,,,
190286,1469915485361,,,,,,,0.02,0.09,0.98,-2.9,0.6,-0.1,1340,0,,,,,,,,,,,,,,,,,
190306,1469915485381,,,,,,,0.02,0.1,0.98,-2.9,0.5,-0.2,1360,0,,,,,,,,,,,,,,,,,
190326,1469915485401,,,,,,,0.03,0.1,0.97,-2.9,0.5,-0.2,1300,0,,,,,,,,,,,,,,,,,
190346,1469915485421,,,,19,,,0.03,0.1,0.97,-2.9,0.3,-0.2,1280,0,0.0,0,39.538692,-122.332199,0.0,0.537,298.1,9,2,1.4,0,0.0,-1,0.0,,0.0,0
190366,1469915485441,,,,,,,0.03,0.1,0.98,-2.9,0.3,-0.2,1260,0,,,,,,,,,,,,,,,,,
190386,1469915485461,,,,,,,0.03,0.1,0.97,-2.9,0.2,-0.2,1260,0,,,,,,,,,,,,,,,,,
190406,1469915485481,,,,,,,0.02,0.1,0.98,-2.9,0.1,-0.1,1220,0,,,,,,,,,,,,,,,,,
190426,1469915485599,,,,,,,0.02,0.1,0.98,-2.9,0.1,-0.1,1220,0,,,,,,,,,,,,,,,,,
190446,1469915485619,0,238.5,192.3,17,207.7,,0.02,0.1,0.98,-2.9,0.2,-0.1,1220,0,0.0,0,39.538692,-122.332199,0.0,0.537,298.1,9,2,1.4,0,0.0,-1,0.0,0.0,0.0,0
190466,1469915485639,,,,,,,0.02,0.09,0.98,-2.9,0.1,-0.1,1200,0,,,,,,,,,,,,,,,,,
190486,1469915485659,,,,,,,0.02,0.09,0.98,-2.9,0.2,-0.1,1180,0,,,,,,,,,,,,,,,,,
190506,1469915485679,,,,,,,0.02,0.1,0.99,-2.9,0.2,-0.1,1160,0,,,,,,,,,,,,,,,,,
190526,1469915485699,,,,,,,0.02,0.1,0.98,-2.9,0.1,-0.1,1160,0,,,,,,,,,,,,,,,,,
190546,1469915485719,,,,16,,,0.03,0.09,0.98,-2.9,0.2,-0.1,1140,0,0.0,0,39.538692,-122.332199,0.0,0.537,298.1,9,2,1.4,0,0.0,-1,0.0,,0.0,0
190566,1469915485739,,,,,,,0.02,0.09,0.98,-2.9,0.2,-0.1,1120,0,,,,,,,,,,,,,,,,,
190586,1469915485759,,,,,,,0.02,0.09,0.98,-2.9,0.2,-0.1,1140,0,,,,,,,,,,,,,,,,,
190606,1469915485779,,,,,,,0.02,0.09,0.98,-2.9,0.3,-0.1,1100,0,,,,,,,,,,,,,,,,,
190626,1469915485699,,,,,,,0.03,0.1,0.98,-2.9,0.3,-0.1,1080,0,,,,,,,,,,,,,,,,,
190646,1469915485719,0,239.0,193.3,15,207.7,,0.02,0.1,0.98,-2.9,0.3,-0.1,1060,0,0.0,0,39.538692,-122.332199,0.0,0.537,298.1,9,2,1.4,0,0.0,-1,0.0,0.0,0.0,0
190666,1469915485739,,,,,,,0.02,0.09,0.98,-2.9,0.3,-0.1,1060,0,,,,,,,,,,,,,,,,,
190686,1469915485759,,,,,,,0.02,0.1,0.98,-2.9,0.2,-0.1,1020,0,,,,,,,,,,,,,,,,,
190706,1469915485779,,,,,,,0.02,0.1,0.98,-2.9,0.2,-0.1,1020,0,,,,,,,,,,,,,,,,,
190726,1469915485800,,,,,,,0.02,0.1,0.98,-2.9,0.2,-0.1,1000,0,,,,,,,,,,,,,,,,,
190746,1469915485820,,,,13,,,0.03,0.1,0.98,-2.9,0.3,-0.1,960,0,0.0,0,39.538692,-122.332199,0.0,0.537,298.1,9,2,1.4,0,0.0,-1,0.0,,0.0,0
190766,1469915485840,,,,,,,0.03,0.1,0.98,-3.0,0.3,-0.1,980,0,,,,,,,,,,,,,,,,,
190786,1469915485860,,,,,,,0.03,0.1,0.98,-3.0,0.3,-0.1,940,0,,,,,,,,,,,,,,,,,
190806,1469915485880,,,,,,,0.04,0.1,0.98,-3.0,0.4,-0.1,920,0,,,,,,,,,,,,,,,,,
190826,1469915485895,,,,,,,0.04,0.1,0.98,-3.0,0.4,-0.1,920,0,,,,,,,,,,,,,,,,,
190846,1469915485915,0,239.5,193.8,11,206.6,,0.04,0.09,0.98,-3.0,0.4,-0.1,940,0,0.0,0,39.538692,-122.332199,0.0,0.537,298.1,9,2,1.4,0,0.0,-1,0.0,0.0,0.0,0
190866,1469915485935,,,,,,,0.04,0.1,0.98,-3.0,0.3,-0.1,900,0,,,,,,,,,,,,,,,,,
190886,1469915485955,,,,,,,0.04,0.1,0.98,-3.0,0.3,-0.1,860,0,,,,,,,,,,,,,,,,,
190906,1469915485975,,,,,,,0.04,0.1,0.98,-2.9,0.2,-0.2,860,0,,,,,,,,,,,,,,,,,
190926,1469915486000,,,,,,,0.04,0.1,0.98,-2.9,0.2,-0.2,840,0,,,,,,,,,,,,,,,,,
190946,1469915486020,,,,10,,,0.04,0.1,0.98,-2.9,0.1,-0.3,820,0,0.0,0,39.538692,-122.332199,0.0,0.537,298.1,9,2,1.4,0,0.0,-1,0.0,,0.0,0
190966,1469915486040,,,,,,,0.04,0.09,0.98,-2.9,0.1,-0.2,820,0,,,,,,,,,,,,,,,,,
190986,1469915486060,,,,,,,0.04,0.09,0.98,-3.0,0.2,-0.2,800,0,,,,,,,,,,,,,,,,,
191006,1469915486080,,,,,,,0.04,0.09,0.98,-3.0,0.2,-0.1,800,0,,,,,,,,,,,,,,,,,
191026,1469915486100,,,,,,,0.04,0.09,0.98,-2.9,0.2,-0.2,780,0,,,,,,,,,,,,,,,,,
191046,1469915486120,0,239.0,193.5,9,207.6,13.18,0.04,0.09,0.97,-2.9,0.1,-0.3,780,0,0.0,0,39.538692,-122.332199,0.0,0.537,298.1,9,2,1.4,0,0.0,-1,0.0,0.0,0.0,0
191066,1469915486140,,,,,,,0.04,0.08,0.97,-2.9,0.1,-0.3,780,0,,,,,,,,,,,,,,,,,
191086,1469915486160,,,,,,,0.04,0.09,0.97,-3.0,0.1,-0.2,760,0,,,,,,,,,,,,,,,,,
191106,1469915486180,,,,,,,0.04,0.09,0.98,-3.0,0.2,-0.1,760,0,,,,,,,,,,,,,,,,,
191126,1469915486200,,,,,,,0.04,0.09,0.98,-2.9,0.2,-0.2,740,0,,,,,,,,,,,,,,,,,
191146,1469915486220,,,,8,,,0.04,0.09,0.98,-2.9,0.2,-0.3,740,0,0.0,0,39.538692,-122.332199,0.0,0.537,298.1,9,2,1.4,0,0.0,-1,0.0,,0.0,0
191166,1469915486240,,,,,,,0.04,0.09,0.98,-2.9,0.2,-0.2,740,0,,,,,,,,,,,,,,,,,
191186,1469915486260,,,,,,,0.03,0.09,0.98,-2.9,0.2,-0.2,700,0,,,,,,,,,,,,,,,,,
191206,1469915486280,,,,,,,0.03,0.09,0.99,-2.9,0.2,-0.3,700,0,,,,,,,,,,,,,,,,,
191226,1469915486399,,,,,,,0.03,0.08,0.98,-2.9,0.2,-0.3,700,0,,,,,,,,,,,,,,,,,
191246,1469915486419,0,240.0,194.2,6,206.5,,0.03,0.08,0.98,-2.9,0.1,-0.2,700,0,0.0,0,39.538692,-122.332199,0.0,0.537,298.1,9,2,1.4,0,0.0,-1,0.0,0.0,0.0,0
191266,1469915486439,,,,,,,0.03,0.08,0.99,-2.9,0.1,-0.2,680,0,,,,,,,,,,,,,,,,,
191286,1469915486459,,,,,,,0.02,0.09,0.98,-2.8,0.1,-0.2,680,0,,,,,,,,,,,,,,,,,
191306,1469915486479,,,,,,,0.03,0.09,0.98,-2.9,0.1,-0.1,680,0,,,,,,,,,,,,,,,,,
191326,1469915486499,,,,,,,0.03,0.09,0.98,-2.9,0.1,-0.1,680,0,,,,,,,,,,,,,,,,,
191346,1469915486519,,,,6,,,0.03,0.08,0.98,-2.8,0.0,-0.2,680,0,0.0,0,39.538692,-122.332199,0.0,0.537,298.1,9,2,1.4,0,0.0,-1,0.0,,0.0,0
191366,1469915486539,,,,,,,0.04,0.09,0.98,-2.9,0.1,-0.1,660,0,,,,,,,,,,,,,,,,,
191386,1469915486559,,,,,,,0.04,0.09,0.98,-2.9,0.2,-0.1,660,0,,,,,,,,,,,,,,,,,
191406,1469915486579,,,,,,,0.04,0.09,0.98,-2.9,0.2,-0.2,660,0,,,,,,,,,,,,,,,,,
191426,1469915486500,,,,,,,0.04,0.09,0.98,-2.9,0.4,-0.2,660,0,,,,,,,,,,,,,,,,,
191446,1469915486520,0,239.0,193.7,6,206.7,,0.04,0.08,0.98,-2.8,0.5,-0.2,660,0,0.0,0,39.538692,-122.332199,0.0,0.537,298.1,9,2,1.4,0,0.0,-1,0.0,0.0,0.0,0
191466,1469915486540,,,,,,,0.04,0.08,0.99,-2.8,0.6,-0.3,660,0,,,,,,,,,,,,,,,,,
191486,1469915486560,,,,,,,0.04,0.07,0.99,-2.8,0.9,-0.2,660,0,,,,,,,,,,,,,,,,,
191506,1469915486580,,,,,,,0.04,0.08,0.98,-2.8,0.9,-0.2,660,0,,,,,,,,,,,,,,,,,
191526,1469915486600,,,,,,,0.03,0.07,0.99,-2.8,0.9,-0.3,660,0,,,,,,,,,,,,,,,,,
191546,1469915486620,,,,6,,,0.04,0.08,0.99,-2.8,1.0,-0.2,620,0,0.0,0,39.538692,-122.332199,0.0,0.537,298.1,9,2,1.4,0,0.0,-1,0.0,,0.0,0
191566,1469915486640,,,,,,,0.04,0.09,0.99,-2.8,0.9,-0.2,640,0,,,,,,,,,,,,,,,,,
191586,1469915486660,,,,,,,0.04,0.08,0.99,-2.8,0.8,-0.3,640,0,,,,,,,,,,,,,,,,,
191606,1469915486680,,,,,,,0.04,0.09,0.99,-2.9,0.8,-0.2,660,0,,,,,,,,,,,,,,,,,
191626,1469915486700,,,,,,,0.03,0.09,0.99,-2.8,0.7,-0.3,660,0,,,,,,,,,,,,,,,,,
191646,1469915486720,0,239.2,193.4,6,207.2,,0.03,0.08,0.99,-2.9,0.7,-0.3,660,0,0.0,0,39.538692,-122.332199,0.0,0.537,298.1,9,2,1.4,0,0.0,-1,0.0,0.0,0.0,0
191666,1469915486740,,,,,,,0.04,0.1,0.99,-3.0,0.7,-0.2,680,0,,,,,,,,,,,,,,,,,
191686,1469915486760,,,,,,,0.04,0.09,0.98,-2.9,0.7,-0.2,680,0,,,,,,,,,,,,,,,,,
191706,1469915486780,,,,,,,0.04,0.08,0.98,-2.8,0.6,-0.3,680,0,,,,,,,,,,,,,,,,,
191726,1469915486800,,,,,,,0.04,0.09,0.98,-2.9,0.7,-0.1,680,0,,,,,,,,,,,,,,,,,
191746,1469915486820,,,,8,,,0.05,0.1,0.98,-3.0,0.7,0.0,720,0,0.0,0,39.538692,-122.332199,0.0,0.537,298.1,9,2,1.4,0,0.0,-1,0.0,,0.0,0
191766,1469915486840,,,,,,,0.04,0.09,0.98,-2.9,0.6,-0.2,740,0,,,,,,,,,,,,,,,,,
191786,1469915486860,,,,,,,0.04,0.09,0.98,-2.9,0.8,-0.3,740,0,,,,,,,,,,,,,,,,,
191806,1469915486880,,,,,,,0.03,0.09,0.98,-3.0,0.7,0.0,760,0,,,,,,,,,,,,,,,,,
191826,1469915486894,,,,,,,0.04,0.11,0.98,-3.1,0.7,0.1,800,0,,,,,,,,,,,,,,,,,
191846,1469915486914,0,239.9,194.6,8,207.3,,0.04,0.1,0.99,-3.0,0.7,-0.1,840,0,0.0,0,39.538692,-122.332199,0.0,0.537,298.1,9,2,1.4,0,0.0,-1,0.0,0.0,0.0,0
191866,1469915486934,,,,,,,0.03,0.12,1.0,-3.0,0.5,-0.3,840,10,,,,,,,,,,,,,,,,,
191886,1469915486954,,,,,,,0.02,0.1,1.0,-3.0,0.6,-0.5,880,46,,,,,,,,,,,,,,,,,
191906,1469915486974,,,,,,,0.01,0.09,1.0,-3.1,0.5,-0.4,920,78,,,,,,,,,,,,,,,,,
191926,1469915487001,,,,,,,0.01,0.07,0.98,-3.1,0.7,-0.2,960,78,,,,,,,,,,,,,,,,,
191946,1469915487021,,,,12,,,0.01,0.07,0.97,-3.1,0.6,-0.0,980,60,0.0,0,39.538692,-122.332199,0.0,0.537,298.1,9,2,1.4,0,0.0,-1,0.0,,0.0,0
191966,1469915487041,,,,,,,0.02,0.1,0.97,-3.1,0.3,-0.0,1020,60,,,,,,,,,,,,,,,,,
191986,1469915487061,,,,,,,0.01,0.09,0.96,-3.0,0.2,0.0,1040,46,,,,,,,,,,,,,,,,,
192006,1469915487081,,,,,,,-0.01,0.08,0.96,-3.0,-0.1,0.1,1060,44,,,,,,,,,,,,,,,,,
192026,1469915487199,,,,,,,-0.03,0.08,0.96,-2.9,-0.6,0.1,1100,44,,,,,,,,,,,,,,,,,
192046,1469915487219,0,238.6,193.5,16,206.2,13.43,-0.03,0.09,0.96,-2.9,-1.1,-0.0,1140,44,16.333,0,39.538692,-122.332199,0.0,0.537,298.1,9,2,1.4,0,0.0,-1,0.0,0.0,0.0,0
192066,1469915487239,,,,,,,-0.02,0.12,0.96,-2.8,-1.4,-0.1,1180,44,,,,,,,,,,,,,,,,,
192086,1469915487259,,,,,,,-0.01,0.12,0.97,-3.0,-1.2,-0.0,1180,44,,,,,,,,,,,,,,,,,
192106,1469915487279,,,,,,,-0.01,0.12,0.97,-3.0,-0.9,0.1,1240,44,,,,,,,,,,,,,,,,,
192126,1469915487299,,,,,,,-0.02,0.1,0.97,-2.9,-0.5,-0.0,1240,13,,,,,,,,,,,,,,,,,
192146,1469915487319,,,,17,,,-0.03,0.11,0.97,-2.9,-0.6,-0.1,1260,13,26.818,0,39.538692,-122.332199,0.0,0.537,298.1,9,2,1.4,0,0.0,-1,0.0,,0.0,0
192166,1469915487339,,,,,,,-0.03,0.11,0.96,-2.9,-0.5,-0.1,1280,13,,,,,,,,,,,,,,,,,
192186,1469915487359,,,,,,,-0.03,0.11,0.96,-2.9,-0.4,-0.1,1280,13,,,,,,,,,,,,,,,,,
192206,1469915487379,,,,,,,-0.04,0.1,0.96,-2.9,-0.4,-0.2,1300,20,,,,,,,,,,,,,,,,,
192226,1469915487301,,,,,,,-0.03,0.12,0.97,-3.0,-0.3,-0.2,1280,20,,,,,,,,,,,,,,,,,
192246,1469915487321,0,238.9,194.2,18,206.5,,-0.03,0.11,0.97,-3.0,-0.0,-0.1,1300,20,100.0,0,39.538692,-122.332199,0.0,0.537,298.1,9,2,1.4,0,0.0,-1,0.0,0.0,0.0,0
192266,1469915487341,,,,,,,-0.04,0.12,0.97,-3.1,0.0,-0.2,1300,21,,,,,,,,,,,,,,,,,
192286,1469915487361,,,,,,,-0.04,0.13,0.97,-3.2,0.1,-0.2,1260,21,,,,,,,,,,,,,,,,,
192306,1469915487381,,,,,,,-0.04,0.12,0.98,-3.2,0.2,-0.3,1180,21,,,,,,,,,,,,,,,,,
192326,1469915487400,,,,,,,-0.04,0.12,0.98,-3.2,0.2,-0.3,1100,29,,,,,,,,,,,,,,,,,
192346,1469915487420,,,,15,,,-0.04,0.11,0.98,-3.1,0.2,-0.3,1060,29,65.0,0,39.538692,-122.332199,0.0,0.537,298.1,9,2,1.4,0,0.0,-1,0.0,,0.0,0
192366,1469915487440,,,,,,,-0.04,0.11,0.98,-3.1,0.1,-0.3,1020,30,,,,,,,,,,,,,,,,,
192386,1469915487460,,,,,,,-0.05,0.1,0.98,-3.1,-0.0,-0.3,980,30,,,,,,,,,,,,,,,,,
192406,1469915487480,,,,,,,-0.05,0.1,0.97,-3.1,-0.0,-0.3,900,35,,,,,,,,,,,,,,,,,
192426,1469915487500,,,,,,,-0.04,0.1,0.96,-3.1,-0.2,-0.2,900,35,,,,,,,,,,,,,,,,,
192446,1469915487520,0,240.2,195.2,11,207.5,,-0.04,0.1,0.96,-3.1,-0.1,-0.0,880,40,36.552,0,39.538692,-122.332199,0.0,0.537,298.1,9,2,1.4,0,0.0,-1,0.0,0.0,0.0,0
192466,1469915487540,,,,,,,-0.03,0.11,0.96,-3.2,0.0,0.1,900,40,,,,,,,,,,,,,,,,,
192486,1469915487560,,,,,,,-0.03,0.11,0.97,-3.2,0.1,0.1,900,44,,,,,,,,,,,,,,,,,
192506,1469915487580,,,,,,,-0.03,0.11,0.98,-3.2,0.1,0.0,880,44,,,,,,,,,,,,,,,,,
192526,1469915487600,,,,,,,-0.04,0.12,0.99,-3.1,-0.1,-0.1,860,44,,,,,,,,,,,,,,,,,
192546,1469915487620,,,,11,,,-0.05,0.1,0.98,-3.0,-0.3,-0.2,860,53,22.5,0,39.538692,-122.332199,0.0,0.537,298.1,9,2,1.4,0,0.0,-1,0.0,,0.0,0
192566,1469915487640,,,,,,,-0.06,0.09,0.99,-3.0,-0.2,-0.3,860,50,,,,,,,,,,,,,,,,,
192586,1469915487660,,,,,,,-0.06,0.08,0.98,-3.0,0.0,-0.3,840,55,,,,,,,,,,,,,,,,,
192606,1469915487680,,,,,,,-0.06,0.08,0.98,-3.1,0.2,-0.0,840,55,,,,,,,,,,,,,,,,,
192626,1469915487700,,,,,,,-0.05,0.1,0.97,-3.2,0.4,0.0,840,66,,,,,,,,,,,,,,,,,
192646,1469915487720,0,240.2,195.3,8,207.3,,-0.04,0.11,0.98,-3.2,0.3,0.0,800,55,16.226,0,39.538692,-122.332199,0.0,0.537,298.1,9,2,1.4,0,0.0,-1,0.0,0.0,0.0,0
192666,1469915487740,,,,,,,-0.04,0.1,0.99,-3.1,0.2,-0.2,800,64,,,,,,,,,,,,,,,,,
192686,1469915487760,,,,,,,-0.05,0.09,1.0,-3.1,0.0,-0.4,800,76,,,,,,,,,,,,,,,,,
192706,1469915487780,,,,,,,-0.05,0.08,0.99,-3.1,0.1,-0.3,800,63,,,,,,,,,,,,,,,,,
192726,1469915487801,,,,,,,-0.05,0.08,0.99,-3.2,0.2,0.0,800,64,,,,,,,,,,,,,,,,,
192746,1469915487821,,,,9,,,-0.04,0.11,0.99,-3.3,0.5,0.2,800,86,14.545,0,39.538692,-122.332199,0.0,0.537,298.1,9,2,1.4,0,0.0,-1,0.0,,0.0,0
192766,1469915487841,,,,,,,-0.03,0.11,1.0,-3.4,0.5,-0.0,800,86,,,,,,,,,,,,,,,,,
192786,1469915487861,,,,,,,-0.05,0.11,0.99,-3.3,0.3,-0.3,800,66,,,,,,,,,,,,,,,,,
192806,1469915487881,,,,,,,-0.06,0.09,0.99,-3.3,0.4,-0.4,800,72,,,,,,,,,,,,,,,,,
192826,1469915487992,,,,,,,-0.06,0.09,0.98,-3.4,0.5,-0.1,780,93,,,,,,,,,,,,,,,,,
192846,1469915488012,0,238.5,194.1,8,206.2,,-0.05,0.11,0.98,-3.5,0.8,0.1,800,95,9.302,0,39.538692,-122.332199,0.0,0.537,298.1,9,2,1.4,0,0.0,-1,0.0,0.0,0.0,0
192866,1469915488032,,,,,,,-0.04,0.1,0.98,-3.6,0.8,-0.1,800,78,,,,,,,,,,,,,,,,,
192886,1469915488052,,,,,,,-0.05,0.11,0.98,-3.5,0.6,-0.3,800,96,,,,,,,,,,,,,,,,,
192906,1469915488072,,,,,,,-0.06,0.09,0.97,-3.5,0.7,-0.5,820,103,,,,,,,,,,,,,,,,,
192926,1469915488092,,,,,,,-0.06,0.09,0.97,-3.6,0.6,-0.3,820,90,,,,,,,,,,,,,,,,,
192946,1469915488112,,,,8,,,-0.05,0.1,0.97,-3.8,0.8,-0.0,800,83,10.256,0,39.538692,-122.332199,0.0,0.537,298.1,9,2,1.4,0,0.0,-1,0.0,,0.0,0
192966,1469915488132,,,,,,,-0.04,0.11,0.97,-3.8,0.8,-0.1,780,107,,,,,,,,,,,,,,,,,
192986,1469915488152,,,,,,,-0.05,0.11,0.98,-3.7,0.6,-0.3,800,107,,,,,,,,,,,,,,,,,
193006,1469915488172,,,,,,,-0.06,0.1,0.99,-3.7,0.8,-0.4,800,98,,,,,,,,,,,,,,,,,
193026,1469915488100,,,,,,,-0.06,0.09,0.98,-3.7,0.7,-0.3,800,93,,,,,,,,,,,,,,,,,
193046,1469915488120,0,239.4,195.3,8,206.9,13.32,-0.06,0.08,0.98,-3.8,0.8,-0.1,780,112,8.211,0,39.53867,-122.332184,0.95,0.539,286.0,9,2,1.4,0,0.0,-1,0.0,0.0,0.0,0
193066,1469915488140,,,,,,,-0.05,0.09,0.97,-3.8,0.8,-0.1,760,115,,,,,,,,,,,,,,,,,
193086,1469915488160,,,,,,,-0.05,0.1,0.98,-3.9,0.5,-0.2,740,106,,,,,,,,,,,,,,,,,
193106,1469915488180,,,,,,,-0.06,0.09,0.98,-3.9,0.7,-0.3,740,109,,,,,,,,,,,,,,,,,
193126,1469915488200,,,,,,,-0.06,0.1,0.98,-4.0,0.7,-0.1,700,123,,,,,,,,,,,,,,,,,
193146,1469915488220,,,,8,,,-0.05,0.1,0.98,-4.0,0.7,0.0,720,118,6.783,0,39.53867,-122.332184,1.1,0.539,285.8,9,2,1.4,0,0.0,-1,0.0,,0.0,0
193166,1469915488240,,,,,,,-0.06,0.1,0.97,-3.9,0.6,-0.2,700,110,,,,,,,,,,,,,,,,,
193186,1469915488260,,,,,,,-0.05,0.1,0.98,-4.0,0.6,-0.1,700,129,,,,,,,,,,,,,,,,,
193206,1469915488280,,,,,,,-0.05,0.1,0.98,-4.1,0.8,0.0,700,132,,,,,,,,,,,,,,,,,
193226,1469915488300,,,,,,,-0.06,0.1,0.98,-4.1,0.7,-0.1,700,120,,,,,,,,,,,,,,,,,
193246,1469915488320,0,239.7,195.7,6,207.0,,-0.07,0.09,0.99,-4.0,0.7,-0.2,700,116,6.429,0,39.53867,-122.332184,1.24,0.539,285.6,9,2,1.4,0,0.0,-1,0.0,0.0,0.0,0
193266,1469915488340,,,,,,,-0.07,0.1,0.99,-4.1,0.6,0.0,680,135,,,,,,,,,,,,,,,,,
193286,1469915488360,,,,,,,-0.07,0.1,0.98,-4.1,0.5,-0.0,680,146,,,,,,,,,,,,,,,,,
193306,1469915488380,,,,,,,-0.08,0.1,0.98,-4.0,0.4,-0.3,680,127,,,,,,,,,,,,,,,,,
193326,1469915488401,,,,,,,-0.07,0.1,0.98,-4.2,0.4,-0.1,700,121,,,,,,,,,,,,,,,,,
193346,1469915488421,,,,7,,,-0.07,0.1,0.98,-4.2,0.3,-0.0,700,141,5.528,0,39.53867,-122.332184,1.88,0.539,285.4,9,2,1.4,0,0.0,-1,0.0,,0.0,0
193366,1469915488441,,,,,,,-0.07,0.07,0.98,-4.1,0.0,-0.2,700,160,,,,,,,,,,,,,,,,,
193386,1469915488461,,,,,,,-0.07,0.06,0.98,-4.1,0.2,-0.1,700,144,,,,,,,,,,,,,,,,,
193406,1469915488481,,,,,,,-0.06,0.06,0.98,-4.2,0.3,0.0,720,127,,,,,,,,,,,,,,,,,
193426,1469915488501,,,,,,,-0.06,0.07,0.98,-4.2,0.3,-0.1,720,149,,,,,,,,,,,,,,,,,
193446,1469915488521,0,238.9,195.3,7,206.9,,-0.08,0.07,0.97,-4.2,0.3,-0.3,720,166,4.516,0,39.53867,-122.332184,1.37,0.539,285.3,9,2,1.4,0,0.0,-1,0.0,0.0,0.0,0
193466,1469915488541,,,,,,,-0.08,0.09,0.97,-4.3,0.3,0.0,700,153,,,,,,,,,,,,,,,,,
193486,1469915488561,,,,,,,-0.07,0.09,0.97,-4.3,0.3,0.2,740,135,,,,,,,,,,,,,,,,,
193506,1469915488581,,,,,,,-0.07,0.08,0.97,-4.2,0.1,-0.0,740,156,,,,,,,,,,,,,,,,,
193526,1469915488601,,,,,,,-0.08,0.08,0.96,-4.2,-0.1,-0.2,740,178,,,,,,,,,,,,,,,,,
193546,1469915488621,,,,8,,,-0.07,0.09,0.96,-4.3,-0.1,0.0,760,167,4.294,0,39.538666,-122.332184,1.33,0.539,285.4,9,2,1.4,0,0.0,-1,0.0,,0.0,0
193566,1469915488641,,,,,,,-0.06,0.12,0.96,-4.3,0.0,0.2,780,141,,,,,,,,,,,,,,,,,
193586,1469915488661,,,,,,,-0.05,0.12,0.97,-4.4,0.1,-0.1,780,153,,,,,,,,,,,,,,,,,
193606,1469915488681,,,,,,,-0.07,0.12,0.98,-4.4,-0.1,-0.3,780,186,,,,,,,,,,,,,,,,,
193626,1469915488798,,,,,,,-0.08,0.1,0.98,-4.4,-0.1,-0.3,780,173,,,,,,,,,,,,,,,,,
193646,1469915488818,0,239.5,195.9,9,206.9,,-0.08,0.09,0.98,-4.5,-0.0,-0.0,820,150,5.098,0,39.538666,-122.332184,2.18,0.539,285.0,9,2,1.4,0,0.0,-1,0.0,0.0,0.0,0
193666,1469915488838,,,,,,,-0.06,0.13,0.98,-4.6,0.4,0.2,820,164,,,,,,,,,,,,,,,,,
193686,1469915488858,,,,,,,-0.05,0.12,0.99,-4.5,0.3,0.0,860,192,,,,,,,,,,,,,,,,,
193706,1469915488878,,,,,,,-0.06,0.12,1.0,-4.4,-0.0,-0.2,860,181,,,,,,,,,,,,,,,,,
193726,1469915488898,,,,,,,-0.08,0.11,1.0,-4.3,-0.2,-0.4,880,166,,,,,,,,,,,,,,,,,
193746,1469915488918,,,,10,,,-0.08,0.1,1.0,-4.2,-0.3,-0.5,880,183,5.395,0,39.538666,-122.332184,2.18,0.539,285.0,9,2,1.4,0,0.0,-1,0.0,,0.0,0
193766,1469915488938,,,,,,,-0.08,0.09,0.99,-4.3,0.0,-0.4,900,190,,,,,,,,,,,,,,,,,
193786,1469915488958,,,,,,,-0.07,0.08,0.98,-4.4,0.2,-0.1,920,183,,,,,,,,,,,,,,,,,
193806,1469915488978,,,,,,,-0.07,0.1,0.97,-4.6,0.1,0.0,920,178,,,,,,,,,,,,,,,,,
193826,1469915488896,,,,,,,-0.06,0.12,0.98,-4.6,-0.0,0.1,920,186,,,,,,,,,,,,,,,,,
193846,1469915488916,0,238.5,194.7,11,205.8,,-0.07,0.12,0.98,-4.6,-0.0,0.1,940,195,4.656,0,39.538666,-122.332184,3.03,0.539,285.0,9,2,1.4,0,0.0,-1,0.0,0.0,0.0,0
193866,1469915488936,,,,,,,-0.07,0.12,0.98,-4.6,0.3,0.1,940,196,,,,,,,,,,,,,,,,,
193886,1469915488956,,,,,,,-0.07,0.11,0.99,-4.6,0.6,0.1,940,192,,,,,,,,,,,,,,,,,
193906,1469915488976,,,,,,,-0.06,0.12,1.0,-4.7,0.7,0.2,960,186,,,,,,,,,,,,,,,,,
193926,1469915489001,,,,,,,-0.05,0.13,1.01,-4.8,0.6,0.2,960,200,,,,,,,,,,,,,,,,,
193946,1469915489021,,,,11,,,-0.04,0.13,1.01,-4.9,0.6,0.2,980,206,4.796,0,39.538662,-122.332184,2.77,0.539,285.1,9,2,1.4,0,0.0,-1,0.0,,0.0,0
193966,1469915489041,,,,,,,-0.03,0.13,1.01,-4.8,0.7,0.2,980,196,,,,,,,,,,,,,,,,,
193986,1469915489061,,,,,,,-0.02,0.13,1.01,-4.7,0.6,0.1,980,196,,,,,,,,,,,,,,,,,
194006,1469915489081,,,,,,,-0.02,0.13,1.01,-4.6,0.5,0.1,980,207,,,,,,,,,,,,,,,,,
194026,1469915489101,,,,,,,-0.02,0.13,1.0,-4.5,0.4,0.1,980,213,,,,,,,,,,,,,,,,,
194046,1469915489121,0,239.9,196.0,12,206.7,13.49,-0.01,0.14,0.99,-4.4,0.2,0.1,980,206,4.876,0,39.538662,-122.332184,2.45,0.539,285.2,9,2,1.4,0,0.0,-1,0.0,0.0,0.0,0
194066,1469915489141,,,,,,,-0.0,0.15,0.99,-4.4,-0.0,0.0,1000,204,,,,,,,,,,,,,,,,,
194086,1469915489161,,,,,,,0.0,0.15,0.98,-4.3,-0.3,0.1,1020,206,,,,,,,,,,,,,,,,,
194106,1469915489181,,,,,,,0.01,0.16,0.98,-4.3,-0.4,0.1,980,216,,,,,,,,,,,,,,,,,
194126,1469915489200,,,,,,,0.0,0.17,0.98,-4.3,-0.5,0.1,1000,223,,,,,,,,,,,,,,,,,
194146,1469915489220,,,,13,,,0.01,0.16,0.97,-4.2,-0.4,0.1,1000,210,4.854,0,39.538662,-122.332184,1.96,0.539,285.1,9,2,1.4,0,0.0,-1,0.0,,0.0,0
194166,1469915489240,,,,,,,0.01,0.16,0.97,-4.2,-0.5,0.0,1000,213,,,,,,,,,,,,,,,,,
194186,1469915489260,,,,,,,0.02,0.16,0.97,-4.2,-0.3,0.0,1000,226,,,,,,,,,,,,,,,,,
194206,1469915489280,,,,,,,0.02,0.16,0.98,-4.2,0.1,-0.0,1020,223,,,,,,,,,,,,,,,,,
194226,1469915489300,,,,,,,0.03,0.16,0.98,-4.2,0.4,0.0,1000,218,,,,,,,,,,,,,,,,,
194246,1469915489320,0,238.6,195.3,13,205.8,,0.03,0.15,0.98,-4.3,0.9,0.1,1020,224,4.762,0,39.538658,-122.332184,3.32,0.539,285.1,9,2,1.4,0,0.0,-1,0.0,0.0,0.0,0
194266,1469915489340,,,,,,,0.04,0.15,0.99,-4.3,1.1,0.1,1000,227,,,,,,,,,,,,,,,,,
194286,1469915489360,,,,,,,0.04,0.14,0.99,-4.4,1.4,0.1,1020,235,,,,,,,,,,,,,,,,,
194306,1469915489380,,,,,,,0.03,0.14,0.99,-4.5,1.8,0.1,1020,233,,,,,,,,,,,,,,,,,
194326,1469915489400,,,,,,,0.03,0.13,0.99,-4.5,2.1,0.0,1040,227,,,,,,,,,,,,,,,,,
194346,1469915489420,,,,12,,,0.02,0.13,1.0,-4.6,2.3,-0.0,1020,233,4.464,0,39.538658,-122.332184,3.4,0.539,285.1,9,2,1.4,0,0.0,-1,0.0,,0.0,0
194366,1469915489440,,,,,,,0.01,0.12,1.0,-4.6,2.4,0.0,1020,240,,,,,,,,,,,,,,,,,
194386,1469915489460,,,,,,,0.01,0.11,1.01,-4.6,2.4,0.1,1000,235,,,,,,,,,,,,,,,,,
194406,1469915489480,,,,,,,-0.01,0.11,1.01,-4.6,2.3,0.1,1020,243,,,,,,,,,,,,,,,,,
194426,1469915489600,,,,,,,-0.02,0.1,1.0,-4.5,2.2,0.2,1020,244,,,,,,,,,,,,,,,,,
194446,1469915489620,0,239.5,196.3,13,206.6,,-0.04,0.09,1.0,-4.5,2.0,0.3,1000,241,4.286,0,39.538658,-122.332184,4.01,0.539,285.0,9,2,1.4,0,0.0,-1,0.0,0.0,0.0,0
194466,1469915489640,,,,,,,-0.05,0.09,0.99,-4.5,1.8,0.3,1000,246,,,,,,,,,,,,,,,,,
194486,1469915489660,,,,,,,-0.06,0.09,0.98,-4.4,1.6,0.5,980,246,,,,,,,,,,,,,,,,,
194506,1469915489680,,,,,,,-0.07,0.08,0.96,-4.4,1.4,0.7,1000,249,,,,,,,,,,,,,,,,,
194526,1469915489700,,,,,,,-0.07,0.08,0.96,-4.4,1.1,0.8,1000,253,,,,,,,,,,,,,,,,,
194546,1469915489720,,,,12,,,-0.08,0.08,0.96,-4.3,0.9,0.7,1000,255,4.115,0,39.538658,-122.332184,4.01,0.539,285.0,9,2,1.4,0,0.0,-1,0.0,,0.0,0
194566,1469915489740,,,,,,,-0.08,0.08,0.96,-4.2,0.6,0.5,1000,247,,,,,,,,,,,,,,,,,
194586,1469915489760,,,,,,,-0.07,0.07,0.96,-4.1,0.2,0.5,1000,256,,,,,,,,,,,,,,,,,
194606,1469915489780,,,,,,,-0.07,0.07,0.95,-3.9,-0.2,0.4,1000,255,,,,,,,,,,,,,,,,,
194626,1469915489701,,,,,,,-0.07,0.07,0.95,-3.8,-0.7,0.4,1020,253,,,,,,,,,,,,,,,,,
194646,1469915489721,0,238.9,196.0,14,206.4,,-0.07,0.08,0.95,-3.7,-1.2,0.4,1000,261,4.0,0,39.538654,-122.332184,4.2,0.54,285.1,9,2,1.4,0,0.0,-1,0.0,0.0,0.0,0
194666,1469915489741,,,,,,,-0.07,0.07,0.94,-3.7,-1.4,0.4,1020,261,,,,,,,,,,,,,,,,,
194686,1469915489761,,,,,,,-0.07,0.07,0.94,-3.6,-1.7,0.2,1020,253,,,,,,,,,,,,,,,,,
194706,1469915489781,,,,,,,-0.06,0.06,0.94,-3.5,-1.9,0.1,1000,255,,,,,,,,,,,,,,,,,
194726,1469915489800,,,,,,,-0.05,0.05,0.94,-3.4,-2.0,-0.0,1020,258,,,,,,,,,,,,,,,,,
194746,1469915489820,,,,15,,,-0.04,0.05,0.94,-3.3,-2.0,-0.1,1020,266,-3.802,-1,39.538654,-122.332184,4.29,0.54,284.9,9,2,1.4,0,0.0,-1,0.0,,0.0,0
194766,1469915489840,,,,,,,-0.03,0.04,0.95,-3.3,-1.8,-0.2,1020,270,,,,,,,,,,,,,,,,,
194786,1469915489860,,,,,,,-0.02,0.04,0.95,-3.1,-1.7,-0.3,1040,264,,,,,,,,,,,,,,,,,
194806,1469915489880,,,,,,,-0.01,0.04,0.95,-2.9,-1.4,-0.3,1040,261,,,,,,,,,,,,,,,,,
194826,1469915489894,,,,,,,-0.01,0.04,0.96,-2.7,-1.1,-0.4,1040,267,,,,,,,,,,,,,,,,,
194846,1469915489914,0,238.2,195.0,12,205.2,,-0.01,0.04,0.96,-2.5,-0.9,-0.4,1040,269,-3.82,-1,39.53865,-122.332184,4.29,0.54,284.9,9,2,1.4,0,0.0,-1,0.0,0.0,0.0,0
194866,1469915489934,,,,,,,-0.02,0.05,0.97,-2.3,-0.5,-0.5,1060,270,,,,,,,,,,,,,,,,,
194886,1469915489954,,,,,,,-0.02,0.05,0.98,-2.2,-0.5,-0.4,1040,273,,,,,,,,,,,,,,,,,
194906,1469915489974,,,,,,,-0.03,0.05,0.99,-2.1,-0.8,-0.4,1060,267,,,,,,,,,,,,,,,,,
194926,1469915490000,,,,,,,-0.04,0.06,0.98,-2.0,-0.9,-0.4,1060,270,,,,,,,,,,,,,,,,,
194946,1469915490020,,,,14,,,-0.04,0.07,0.98,-1.8,-1.1,-0.3,1040,270,3.97,0,39.53865,-122.332184,4.51,0.54,284.8,9,2,1.4,0,0.0,-1,0.0,,0.0,0
194966,1469915490040,,,,,,,-0.03,0.08,0.98,-1.6,-1.0,-0.3,1060,269,,,,,,,,,,,,,,,,,
194986,1469915490060,,,,,,,-0.02,0.07,0.98,-1.5,-0.7,-0.3,1060,278,,,,,,,,,,,,,,,,,
195006,1469915490080,,,,,,,-0.02,0.06,0.98,-1.4,-0.3,-0.3,1100,283,,,,,,,,,,,,,,,,,
195026,1469915490101,,,,,,,-0.02,0.05,0.98,-1.3,-0.0,-0.3,1040,276,,,,,,,,,,,,,,,,,
195046,1469915490121,0,238.9,196.0,13,205.8,13.48,-0.03,0.04,0.98,-1.1,-0.1,-0.3,1080,273,3.941,0,39.538647,-122.332184,4.72,0.54,284.7,9,2,1.4,0,0.0,-1,0.0,0.0,0.0,0
195066,1469915490141,,,,,,,-0.03,0.04,0.98,-0.9,-0.1,-0.4,1060,273,,,,,,,,,,,,,,,,,
195086,1469915490161,,,,,,,-0.03,0.04,0.98,-0.7,-0.4,-0.3,1060,283,,,,,,,,,,,,,,,,,
195106,1469915490181,,,,,,,-0.03,0.04,0.97,-0.5,-0.4,-0.3,1080,292,,,,,,,,,,,,,,,,,
195126,1469915490200,,,,,,,-0.02,0.05,0.97,-0.3,-0.4,-0.3,1080,284,,,,,,,,,,,,,,,,,
195146,1469915490220,,,,14,,,-0.01,0.05,0.99,-0.1,-0.2,-0.3,1080,272,3.956,0,39.538643,-122.332184,4.22,0.54,284.7,9,2,1.4,0,0.0,-1,0.0,,0.0,0
195166,1469915490240,,,,,,,-0.01,0.07,0.99,-0.1,-0.1,-0.3,1040,281,,,,,,,,,,,,,,,,,
195186,1469915490260,,,,,,,-0.02,0.07,0.99,0.1,-0.2,-0.3,1080,287,,,,,,,,,,,,,,,,,
195206,1469915490280,,,,,,,-0.02,0.08,0.99,0.3,-0.2,-0.2,1060,293,,,,,,,,,,,,,,,,,
195226,1469915490401,,,,,,,-0.02,0.07,0.99,0.4,-0.2,-0.1,1080,287,,,,,,,,,,,,,,,,,
195246,1469915490421,0,239.2,196.4,14,206.0,,-0.01,0.08,0.99,0.5,-0.0,-0.0,1060,278,-3.782,-1,39.538639,-122.332184,4.48,0.541,284.9,9,2,1.4,0,0.0,-1,0.0,0.0,0.0,0
195266,1469915490441,,,,,,,-0.01,0.07,0.98,0.6,0.3,0.0,1080,287,,,,,,,,,,,,,,,,,
195286,1469915490461,,,,,,,-0.01,0.05,0.98,0.7,0.4,0.1,1060,295,,,,,,,,,,,,,,,,,
195306,1469915490481,,,,,,,-0.01,0.05,0.98,0.8,0.2,0.1,1080,292,,,,,,,,,,,,,,,,,
195326,1469915490501,,,,,,,-0.02,0.05,0.98,1.0,0.1,-0.0,1080,293,,,,,,,,,,,,,,,,,
195346,1469915490521,,,,14,,,-0.02,0.05,0.98,1.1,-0.1,-0.2,1080,287,-3.786,-1,39.538639,-122.332184,4.48,0.541,284.9,9,2,1.4,0,0.0,-1,0.0,,0.0,0
195366,1469915490541,,,,,,,-0.02,0.06,0.97,1.2,0.1,-0.3,1060,289,,,,,,,,,,,,,,,,,
195386,1469915490561,,,,,,,-0.01,0.05,0.97,1.4,0.2,-0.3,1060,300,,,,,,,,,,,,,,,,,
195406,1469915490581,,,,,,,-0.01,0.06,0.98,1.4,0.4,-0.2,1060,301,,,,,,,,,,,,,,,,,
195426,1469915490500,,,,,,,-0.01,0.07,0.98,1.4,0.3,-0.1,1060,301,,,,,,,,,,,,,,,,,
195446,1469915490520,0,238.4,195.6,14,205.2,,-0.01,0.07,0.97,1.4,0.2,-0.0,1080,301,-3.763,-1,39.538639,-122.332184,4.58,0.541,284.9,9,2,1.4,0,0.0,-1,0.0,0.0,0.0,0
195466,1469915490540,,,,,,,-0.01,0.08,0.97,1.5,0.1,0.0,1100,295,,,,,,,,,,,,,,,,,
195486,1469915490560,,,,,,,-0.01,0.08,0.97,1.5,0.4,0.1,1060,303,,,,,,,,,,,,,,,,,
195506,1469915490580,,,,,,,-0.01,0.07,0.98,1.5,0.5,0.1,1080,307,,,,,,,,,,,,,,,,,
195526,1469915490601,,,,,,,-0.01,0.06,0.99,1.5,0.5,0.1,1060,307,,,,,,,,,,,,,,,,,
195546,1469915490621,,,,14,,,-0.02,0.06,0.99,1.6,0.3,0.1,1080,304,-3.716,-1,39.538639,-122.332184,4.77,0.541,285.0,9,2,1.4,0,0.0,-1,0.0,,0.0,0
195566,1469915490641,,,,,,,-0.03,0.06,1.0,1.6,-0.0,0.0,1100,298,,,,,,,,,,,,,,,,,
195586,1469915490661,,,,,,,-0.02,0.06,0.99,1.7,-0.1,-0.0,1080,304,,,,,,,,,,,,,,,,,
195606,1469915490681,,,,,,,-0.02,0.06,0.99,1.9,-0.0,-0.0,1080,316,,,,,,,,,,,,,,,,,
195626,1469915490701,,,,,,,-0.02,0.06,0.99,1.9,0.2,-0.0,1080,313,,,,,,,,,,,,,,,,,
195646,1469915490721,0,238.1,195.1,15,204.4,,-0.02,0.07,1.0,1.9,0.3,0.0,1080,307,3.553,0,39.538635,-122.332184,4.35,0.541,285.1,9,2,1.4,0,0.0,-1,0.0,0.0,0.0,0
195666,1469915490741,,,,,,,-0.02,0.07,0.99,2.0,0.2,0.1,1100,304,,,,,,,,,,,,,,,,,
195686,1469915490761,,,,,,,-0.02,0.07,0.99,2.0,0.2,0.1,1080,309,,,,,,,,,,,,,,,,,
195706,1469915490781,,,,,,,-0.02,0.07,0.99,2.0,0.5,0.0,1080,321,,,,,,,,,,,,,,,,,
195726,1469915490801,,,,,,,-0.02,0.07,0.99,2.0,0.7,-0.1,1100,320,,,,,,,,,,,,,,,,,
195746,1469915490821,,,,13,,,-0.02,0.06,0.99,2.0,0.8,-0.1,1080,307,3.583,0,39.538635,-122.332184,4.89,0.541,285.0,9,2,1.4,0,0.0,-1,0.0,,0.0,0
195766,1469915490841,,,,,,,-0.03,0.07,0.99,2.0,0.7,-0.2,1100,309,,,,,,,,,,,,,,,,,
195786,1469915490861,,,,,,,-0.03,0.07,0.98,2.1,0.5,-0.2,1120,318,,,,,,,,,,,,,,,,,
195806,1469915490881,,,,,,,-0.02,0.07,0.99,2.2,0.4,-0.1,1080,324,,,,,,,,,,,,,,,,,
195826,1469915490895,,,,,,,-0.01,0.07,1.0,2.2,0.6,-0.1,1100,321,,,,,,,,,,,,,,,,,
195846,1469915490915,0,239.2,196.5,15,205.5,,-0.01,0.07,1.0,2.2,0.6,-0.2,1100,313,3.529,0,39.538631,-122.332184,5.02,0.541,285.0,9,2,1.4,0,0.0,-1,0.0,0.0,0.0,0
195866,1469915490935,,,,,,,-0.01,0.08,1.0,2.2,0.6,-0.2,1100,316,,,,,,,,,,,,,,,,,
195886,1469915490955,,,,,,,-0.01,0.08,0.99,2.2,0.9,-0.2,1120,326,,,,,,,,,,,,,,,,,
195906,1469915490975,,,,,,,-0.01,0.08,0.99,2.1,1.1,-0.2,1120,329,,,,,,,,,,,,,,,,,
195926,1469915490992,,,,,,,-0.01,0.07,0.99,2.2,1.4,-0.2,1080,324,,,,,,,,,,,,,,,,,
195946,1469915491012,,,,15,,,-0.02,0.06,0.99,2.2,1.4,-0.1,1100,315,3.526,0,39.538628,-122.332184,5.41,0.541,285.0,9,2,1.4,0,0.0,-1,0.0,,0.0,0
195966,1469915491032,,,,,,,-0.02,0.06,0.98,2.2,1.1,-0.1,1080,321,,,,,,,,,,,,,,,,,
195986,1469915491052,,,,,,,-0.02,0.06,0.98,2.3,0.9,-0.2,1100,333,,,,,,,,,,,,,,,,,
196006,1469915491072,,,,,,,-0.02,0.07,0.98,2.3,1.1,-0.3,1140,332,,,,,,,,,,,,,,,,,
196026,1469915491201,,,,,,,-0.01,0.07,0.99,2.2,1.1,-0.4,1080,326,,,,,,,,,,,,,,,,,
196046,1469915491221,0,238.3,195.6,15,204.4,13.48,-0.02,0.08,0.99,2.2,1.1,-0.4,1100,323,3.492,0,39.538624,-122.332184,4.87,0.542,284.8,9,2,1.4,0,0.0,-1,0.0,0.0,0.0,0
196066,1469915491241,,,,,,,-0.01,0.09,0.99,2.3,1.2,-0.4,1100,327,,,,,,,,,,,,,,,,,
196086,1469915491261,,,,,,,-0.02,0.08,0.99,2.2,1.4,-0.5,1100,338,,,,,,,,,,,,,,,,,
196106,1469915491281,,,,,,,-0.02,0.07,0.99,2.3,1.6,-0.6,1120,333,,,,,,,,,,,,,,,,,
196126,1469915491301,,,,,,,-0.02,0.07,0.99,2.3,1.6,-0.6,1080,326,,,,,,,,,,,,,,,,,
196146,1469915491321,,,,13,,,-0.02,0.06,0.98,2.4,1.4,-0.7,1120,332,3.406,1,39.538624,-122.332184,4.87,0.542,284.8,9,2,1.4,0,0.0,-1,0.0,,0.0,0
196166,1469915491341,,,,,,,-0.02,0.06,0.98,2.5,1.3,-0.7,1080,333,,,,,,,,,,,,,,,,,
196186,1469915491361,,,,,,,-0.01,0.06,0.98,2.4,1.4,-0.7,1120,335,,,,,,,,,,,,,,,,,
196206,1469915491381,,,,,,,-0.02,0.06,0.98,2.5,1.2,-0.6,1100,333,,,,,,,,,,,,,,,,,
196226,1469915491302,,,,,,,-0.02,0.06,0.97,2.5,1.2,-0.5,1140,333,,,,,,,,,,,,,,,,,
196246,1469915491322,0,238.2,195.3,14,204.1,,-0.02,0.07,0.98,2.6,1.2,-0.4,1100,336,3.363,1,39.53862,-122.332184,4.9,0.542,284.6,9,2,1.4,0,0.0,-1,0.0,0.0,0.0,0
196266,1469915491342,,,,,,,-0.02,0.06,0.98,2.6,1.4,-0.3,1100,338,,,,,,,,,,,,,,,,,
196286,1469915491362,,,,,,,-0.02,0.05,0.99,2.7,1.4,-0.2,1100,338,,,,,,,,,,,,,,,,,
196306,1469915491382,,,,,,,-0.02,0.05,0.99,2.8,1.4,-0.2,1100,336,,,,,,,,,,,,,,,,,
196326,1469915491400,,,,,,,-0.02,0.05,0.99,2.8,1.2,-0.2,1140,338,,,,,,,,,,,,,,,,,
196346,1469915491420,,,,15,,,-0.02,0.05,0.99,2.9,1.2,-0.3,1080,338,3.274,1,39.53862,-122.332184,4.34,0.542,284.4,9,2,1.4,0,0.0,-1,0.0,,0.0,0
196366,1469915491440,,,,,,,-0.02,0.05,0.99,2.9,1.4,-0.2,1100,341,,,,,,,,,,,,,,,,,
196386,1469915491460,,,,,,,-0.01,0.06,0.99,3.0,1.3,-0.2,1100,340,,,,,,,,,,,,,,,,,
196406,1469915491480,,,,,,,-0.01,0.07,0.99,3.0,1.4,-0.2,1120,343,,,,,,,,,,,,,,,,,
196426,1469915491502,,,,,,,-0.01,0.07,0.98,3.0,1.4,-0.3,1120,343,,,,,,,,,,,,,,,,,
196446,1469915491522,0,239.0,196.5,14,204.9,,-0.01,0.06,0.98,3.0,1.6,-0.3,1140,344,3.235,1,39.538616,-122.332184,5.19,0.542,284.0,9,2,1.4,0,0.0,-1,0.0,0.0,0.0,0
196466,1469915491542,,,,,,,-0.01,0.05,0.97,3.1,1.4,-0.3,1100,346,,,,,,,,,,,,,,,,,
196486,1469915491562,,,,,,,-0.02,0.05,0.97,3.2,1.1,-0.4,1120,344,,,,,,,,,,,,,,,,,
196506,1469915491582,,,,,,,-0.02,0.05,0.97,3.3,1.0,-0.5,1120,344,,,,,,,,,,,,,,,,,
196526,1469915491601,,,,,,,-0.02,0.05,0.99,3.4,1.1,-0.5,1140,347,,,,,,,,,,,,,,,,,
196546,1469915491621,,,,16,,,-0.02,0.05,0.98,3.4,1.1,-0.5,1140,347,3.314,1,39.538616,-122.332184,5.25,0.542,283.9,9,2,1.4,0,0.0,-1,0.0,,0.0,0
196566,1469915491641,,,,,,,-0.01,0.06,0.98,3.5,1.2,-0.5,1120,350,,,,,,,,,,,,,,,,,
196586,1469915491661,,,,,,,-0.01,0.05,0.99,3.6,1.2,-0.5,1140,347,,,,,,,,,,,,,,,,,
196606,1469915491681,,,,,,,-0.02,0.04,0.99,3.8,1.2,-0.5,1160,349,,,,,,,,,,,,,,,,,
196626,1469915491702,,,,,,,-0.02,0.04,0.99,3.9,1.1,-0.6,1120,347,,,,,,,,,,,,,,,,,
196646,1469915491722,0,238.3,195.7,16,203.8,,-0.02,0.03,0.98,4.1,0.9,-0.6,1180,349,3.343,1,39.538612,-122.332184,5.45,0.543,283.6,9,2,1.4,0,0.0,-1,0.0,0.0,0.0,0
196666,1469915491742,,,,,,,-0.02,0.03,0.99,4.2,0.8,-0.5,1120,352,,,,,,,,,,,,,,,,,
196686,1469915491762,,,,,,,-0.02,0.04,0.99,4.3,0.6,-0.5,1140,350,,,,,,,,,,,,,,,,,
196706,1469915491782,,,,,,,-0.02,0.04,0.98,4.4,0.6,-0.5,1160,350,,,,,,,,,,,,,,,,,
196726,1469915491801,,,,,,,-0.02,0.03,0.98,4.6,0.6,-0.5,1120,352,,,,,,,,,,,,,,,,,
196746,1469915491821,,,,14,,,-0.02,0.03,0.98,4.7,0.4,-0.6,1160,349,3.2,1,39.538609,-122.332184,6.18,0.543,283.1,9,2,1.4,0,0.0,-1,0.0,,0.0,0
196766,1469915491841,,,,,,,-0.02,0.03,0.97,4.9,0.1,-0.7,1140,349,,,,,,,,,,,,,,,,,
196786,1469915491861,,,,,,,-0.01,0.02,0.98,5.1,-0.0,-0.8,1140,352,,,,,,,,,,,,,,,,,
196806,1469915491881,,,,,,,-0.01,0.02,0.98,5.3,0.0,-0.7,1160,353,,,,,,,,,,,,,,,,,
196826,1469915491995,,,,,,,-0.01,0.02,0.98,5.4,0.1,-0.6,1140,356,,,,,,,,,,,,,,,,,
196846,1469915492015,0,239.2,196.7,16,204.7,,-0.01,0.01,0.99,5.6,0.1,-0.6,1160,355,3.229,1,39.538605,-122.332184,6.2,0.543,283.1,9,2,1.4,0,0.0,-1,0.0,0.0,0.0,0
196866,1469915492035,,,,,,,-0.01,0.01,0.99,5.7,0.2,-0.7,1180,352,,,,,,,,,,,,,,,,,
196886,1469915492055,,,,,,,-0.01,0.01,0.98,6.0,0.1,-0.8,1140,355,,,,,,,,,,,,,,,,,
196906,1469915492075,,,,,,,-0.01,0.01,0.99,6.1,-0.1,-0.8,1160,355,,,,,,,,,,,,,,,,,
196926,1469915492095,,,,,,,-0.01,0.01,0.99,6.3,-0.2,-0.7,1180,355,,,,,,,,,,,,,,,,,
196946,1469915492115,,,,16,,,-0.01,0.01,0.99,6.5,0.0,-0.6,1180,355,3.315,1,39.538605,-122.332184,6.2,0.543,283.1,9,2,1.4,0,0.0,-1,0.0,,0.0,0
196966,1469915492135,,,,,,,-0.01,-0.01,0.99,6.7,0.1,-0.5,1140,353,,,,,,,,,,,,,,,,,
196986,1469915492155,,,,,,,-0.01,-0.01,0.99,7.0,-0.1,-0.4,1160,353,,,,,,,,,,,,,,,,,
197006,1469915492175,,,,,,,-0.01,-0.01,0.98,7.2,-0.3,-0.4,1160,353,,,,,,,,,,,,,,,,,
197026,1469915492102,,,,,,,-0.01,-0.01,0.98,7.5,-0.3,-0.5,1160,355,,,,,,,,,,,,,,,,,
197046,1469915492122,0,238.2,195.3,18,203.3,13.55,-0.0,-0.0,0.98,7.8,-0.3,-0.5,1200,355,3.239,1,39.538601,-122.332184,4.91,0.543,283.1,9,2,1.4,0,0.0,-1,0.0,0.0,0.0,0
197066,1469915492142,,,,,,,-0.0,0.0,0.98,8.0,-0.2,-0.5,1140,355,,,,,,,,,,,,,,,,,
197086,1469915492162,,,,,,,-0.0,-0.01,0.98,8.3,-0.2,-0.5,1160,353,,,,,,,,,,,,,,,,,
197106,1469915492182,,,,,,,-0.0,-0.01,0.98,8.6,-0.3,-0.5,1160,353,,,,,,,,,,,,,,,,,
197126,1469915492202,,,,,,,-0.0,-0.0,0.97,8.9,-0.5,-0.6,1180,352,,,,,,,,,,,,,,,,,
197146,1469915492222,,,,16,,,0.01,-0.01,0.98,9.2,-0.6,-0.6,1140,353,3.239,1,39.538597,-122.332184,4.6,0.544,282.8,9,2,1.4,0,0.0,-1,0.0,,0.0,0
197166,1469915492242,,,,,,,0.01,-0.02,0.98,9.5,-0.8,-0.5,1180,355,,,,,,,,,,,,,,,,,
197186,1469915492262,,,,,,,0.01,-0.02,0.98,9.8,-0.8,-0.5,1140,355,,,,,,,,,,,,,,,,,
197206,1469915492282,,,,,,,0.01,-0.03,0.97,10.1,-0.7,-0.4,1160,355,,,,,,,,,,,,,,,,,
197226,1469915492301,,,,,,,0.01,-0.03,0.97,10.4,-0.9,-0.5,1180,355,,,,,,,,,,,,,,,,,
197246,1469915492321,0,238.9,196.4,17,204.1,,0.01,-0.04,0.97,10.8,-0.8,-0.5,1140,356,3.324,1,39.538597,-122.332184,4.72,0.544,282.7,9,2,1.4,0,0.0,-1,0.0,0.0,0.0,0
197266,1469915492341,,,,,,,0.01,-0.03,0.97,11.1,-0.8,-0.5,1180,356,,,,,,,,,,,,,,,,,
197286,1469915492361,,,,,,,0.02,-0.03,0.97,11.5,-0.9,-0.4,1160,360,,,,,,,,,,,,,,,,,
197306,1469915492381,,,,,,,0.02,-0.04,0.97,11.8,-0.8,-0.4,1180,360,,,,,,,,,,,,,,,,,
197326,1469915492401,,,,,,,0.02,-0.04,0.97,12.1,-0.6,-0.3,1160,360,,,,,,,,,,,,,,,,,
197346,1469915492421,,,,15,,,0.02,-0.03,0.97,12.4,-0.8,-0.4,1180,358,3.315,1,39.538597,-122.332184,5.19,0.544,282.6,9,2,1.4,0,0.0,-1,0.0,,0.0,0
197366,1469915492441,,,,,,,0.02,-0.03,0.96,12.7,-0.7,-0.4,1200,363,,,,,,,,,,,,,,,,,
197386,1469915492461,,,,,,,0.03,-0.02,0.97,12.9,-0.7,-0.4,1200,361,,,,,,,,,,,,,,,,,
197406,1469915492481,,,,,,,0.03,-0.02,0.96,13.0,-0.7,-0.4,1160,363,,,,,,,,,,,,,,,,,
197426,1469915492501,,,,,,,0.03,-0.03,0.97,13.2,-0.5,-0.5,1180,361,,,,,,,,,,,,,,,,,
197446,1469915492521,0,238.4,195.7,16,202.7,,0.02,-0.02,0.97,13.3,-0.6,-0.6,1180,361,3.213,1,39.538593,-122.332184,5.2,0.544,282.6,9,2,1.4,0,0.0,-1,0.0,0.0,0.0,0
197466,1469915492541,,,,,,,0.02,-0.02,0.98,13.5,-0.6,-0.7,1220,363,,,,,,,,,,,,,,,,,
197486,1469915492561,,,,,,,0.03,-0.02,0.98,13.6,-0.5,-0.7,1160,364,,,,,,,,,,,,,,,,,
197506,1469915492581,,,,,,,0.02,-0.02,0.98,13.7,-0.5,-0.7,1180,366,,,,,,,,,,,,,,,,,
197526,1469915492601,,,,,,,0.02,-0.03,0.98,13.9,-0.5,-0.8,1200,366,,,,,,,,,,,,,,,,,
197546,1469915492621,,,,18,,,0.02,-0.02,0.99,14.0,-0.7,-1.0,1180,363,3.187,1,39.538593,-122.332184,4.83,0.544,282.7,9,2,1.4,0,0.0,-1,0.0,,0.0,0
197566,1469915492641,,,,,,,0.01,-0.03,0.99,14.2,-0.7,-1.1,1220,364,,,,,,,,,,,,,,,,,
197586,1469915492661,,,,,,,0.02,-0.03,0.99,14.3,-0.7,-1.1,1180,364,,,,,,,,,,,,,,,,,
197606,1469915492681,,,,,,,0.02,-0.02,0.98,14.5,-0.8,-1.0,1180,364,,,,,,,,,,,,,,,,,
197626,1469915492799,,,,,,,0.02,-0.03,0.98,14.7,-0.7,-1.1,1200,364,,,,,,,,,,,,,,,,,
197646,1469915492819,0,237.6,198.1,17,205.3,,0.01,-0.03,0.98,14.8,-0.8,-1.1,1200,364,3.242,1,39.538586,-122.332184,5.1,0.544,282.5,9,2,1.4,0,0.0,-1,0.0,0.0,0.0,0
197666,1469915492839,,,,,,,0.01,-0.04,0.98,15.0,-0.7,-1.2,1220,364,,,,,,,,,,,,,,,,,
197686,1469915492859,,,,,,,0.02,-0.03,0.99,15.1,-0.8,-1.1,1180,367,,,,,,,,,,,,,,,,,
197706,1469915492879,,,,,,,0.02,-0.02,0.99,15.3,-1.0,-1.0,1180,367,,,,,,,,,,,,,,,,,
197726,1469915492899,,,,,,,0.03,-0.03,0.98,15.5,-0.9,-1.1,1200,366,,,,,,,,,,,,,,,,,
197746,1469915492919,,,,17,,,0.03,-0.03,0.98,15.6,-1.1,-1.1,1180,366,3.215,1,39.538586,-122.332184,5.1,0.544,282.5,9,2,1.4,0,0.0,-1,0.0,,0.0,0
197766,1469915492939,,,,,,,0.03,-0.04,0.99,15.9,-1.2,-1.1,1220,367,,,,,,,,,,,,,,,,,
197786,1469915492959,,,,,,,0.03,-0.05,0.99,16.0,-1.3,-1.0,1200,369,,,,,,,,,,,,,,,,,
197806,1469915492979,,,,,,,0.03,-0.04,0.99,16.3,-1.5,-0.9,1200,372,,,,,,,,,,,,,,,,,
197826,1469915492895,,,,,,,0.03,-0.05,0.99,16.4,-1.4,-0.8,1220,372,,,,,,,,,,,,,,,,,
197846,1469915492915,0,238.7,195.1,17,202.4,,0.03,-0.06,0.99,16.7,-1.6,-0.7,1220,370,3.198,1,39.538586,-122.332184,5.9,0.544,282.4,9,2,1.4,0,0.0,-1,0.0,0.0,0.0,0
197866,1469915492935,,,,,,,0.03,-0.06,1.0,16.8,-1.7,-0.4,1240,375,,,,,,,,,,,,,,,,,
197886,1469915492955,,,,,,,0.03,-0.06,0.99,17.0,-1.6,-0.1,1220,373,,,,,,,,,,,,,,,,,
197906,1469915492975,,,,,,,0.03,-0.07,0.99,17.1,-1.6,0.2,1220,373,,,,,,,,,,,,,,,,,
197926,1469915493001,,,,,,,0.03,-0.08,1.0,17.2,-1.6,0.6,1240,373,,,,,,,,,,,,,,,,,
197946,1469915493021,,,,16,,,0.03,-0.07,1.0,17.3,-1.5,0.8,1220,375,3.217,1,39.538582,-122.332184,6.26,0.545,282.3,9,2,1.4,0,0.0,-1,0.0,,0.0,0
197966,1469915493041,,,,,,,0.03,-0.06,1.0,17.3,-1.3,0.9,1200,376,,,,,,,,,,,,,,,,,
197986,1469915493061,,,,,,,0.03,-0.06,0.99,17.4,-1.0,1.0,1240,376,,,,,,,,,,,,,,,,,
198006,1469915493081,,,,,,,0.03,-0.06,1.0,17.4,-0.7,1.0,1220,375,,,,,,,,,,,,,,,,,
198026,1469915493100,,,,,,,0.03,-0.06,1.0,17.5,-0.5,1.1,1220,373,,,,,,,,,,,,,,,,,
198046,1469915493120,0,238.7,194.8,17,201.9,13.57,0.04,-0.05,0.99,17.6,-0.6,1.1,1260,375,3.2,1,39.538578,-122.332184,5.79,0.545,282.8,9,2,1.4,0,0.0,-1,0.0,0.0,0.0,0
198066,1469915493140,,,,,,,0.04,-0.04,0.99,17.7,-0.6,1.2,1200,375,,,,,,,,,,,,,,,,,
198086,1469915493160,,,,,,,0.04,-0.05,0.98,17.9,-0.5,1.1,1240,375,,,,,,,,,,,,,,,,,
198106,1469915493180,,,,,,,0.04,-0.05,0.98,18.0,-0.5,1.1,1200,376,,,,,,,,,,,,,,,,,
198126,1469915493200,,,,,,,0.03,-0.06,0.97,18.1,-0.4,1.1,1240,378,,,,,,,,,,,,,,,,,
198146,1469915493220,,,,16,,,0.03,-0.05,0.97,18.2,-0.2,1.1,1260,380,3.226,1,39.538578,-122.332184,5.66,0.545,282.9,9,2,1.4,0,0.0,-1,0.0,,0.0,0
198166,1469915493240,,,,,,,0.03,-0.05,0.97,18.3,-0.0,1.0,1200,376,,,,,,,,,,,,,,,,,
198186,1469915493260,,,,,,,0.03,-0.05,0.97,18.4,-0.1,1.0,1260,380,,,,,,,,,,,,,,,,,
198206,1469915493280,,,,,,,0.04,-0.05,0.98,18.5,-0.3,1.1,1220,380,,,,,,,,,,,,,,,,,
198226,1469915493299,,,,,,,0.04,-0.04,0.98,18.5,-0.3,1.0,1240,381,,,,,,,,,,,,,,,,,
198246,1469915493319,0,238.8,195.9,16,202.7,,0.04,-0.05,0.98,18.6,-0.3,0.8,1260,380,3.175,1,39.538578,-122.332184,6.35,0.545,283.0,9,2,1.4,0,0.0,-1,0.0,0.0,0.0,0
198266,1469915493339,,,,,,,0.04,-0.04,0.99,18.7,-0.1,0.5,1220,378,,,,,,,,,,,,,,,,,
198286,1469915493359,,,,,,,0.04,-0.04,1.0,18.9,-0.2,0.1,1240,381,,,,,,,,,,,,,,,,,
198306,1469915493379,,,,,,,0.04,-0.01,1.01,18.9,-0.1,-0.2,1260,381,,,,,,,,,,,,,,,,,
198326,1469915493400,,,,,,,0.04,-0.01,1.01,19.0,0.1,-0.6,1220,381,,,,,,,,,,,,,,,,,
198346,1469915493420,,,,18,,,0.03,-0.02,1.01,19.1,0.2,-0.9,1260,381,3.255,1,39.538574,-122.332199,6.51,0.546,283.2,9,2,1.4,0,0.0,-1,0.0,,0.0,0
198366,1469915493440,,,,,,,0.04,-0.02,1.01,19.1,0.5,-1.1,1280,384,,,,,,,,,,,,,,,,,
198386,1469915493460,,,,,,,0.04,-0.01,1.01,19.2,0.7,-1.2,1240,384,,,,,,,,,,,,,,,,,
198406,1469915493480,,,,,,,0.04,-0.02,1.0,19.2,0.7,-1.4,1240,384,,,,,,,,,,,,,,,,,
198426,1469915493600,,,,,,,0.04,-0.02,0.99,19.3,0.8,-1.5,1260,386,,,,,,,,,,,,,,,,,
198446,1469915493620,0,238.2,196.2,19,202.9,,0.04,-0.02,0.98,19.3,0.8,-1.6,1240,387,3.333,1,39.538567,-122.332199,6.32,0.546,283.8,9,2,1.4,0,0.0,-1,0.0,0.0,0.0,0
198466,1469915493640,,,,,,,0.05,-0.02,0.98,19.4,0.8,-1.7,1280,389,,,,,,,,,,,,,,,,,
198486,1469915493660,,,,,,,0.05,-0.02,0.99,19.4,0.9,-1.8,1240,386,,,,,,,,,,,,,,,,,
198506,1469915493680,,,,,,,0.05,-0.03,0.99,19.5,0.8,-2.0,1300,389,,,,,,,,,,,,,,,,,
198526,1469915493700,,,,,,,0.06,-0.04,0.98,19.6,0.9,-2.0,1280,387,,,,,,,,,,,,,,,,,
198546,1469915493720,,,,17,,,0.06,-0.05,0.98,19.8,0.9,-1.9,1260,387,3.307,1,39.538567,-122.332199,6.32,0.546,283.8,9,2,1.4,0,0.0,-1,0.0,,0.0,0
198566,1469915493740,,,,,,,0.06,-0.04,0.98,19.9,0.7,-1.8,1280,387,,,,,,,,,,,,,,,,,
198586,1469915493760,,,,,,,0.06,-0.04,0.99,19.9,0.7,-1.7,1300,387,,,,,,,,,,,,,,,,,
198606,1469915493780,,,,,,,0.05,-0.05,0.98,20.0,0.7,-1.8,1260,390,,,,,,,,,,,,,,,,,
198626,1469915493700,,,,,,,0.05,-0.06,0.98,20.1,0.4,-1.9,1280,389,,,,,,,,,,,,,,,,,
198646,1469915493720,0,238.5,195.0,19,201.8,,0.04,-0.05,0.98,20.2,0.3,-2.0,1280,390,3.239,1,39.538563,-122.332199,6.73,0.547,284.2,9,2,1.4,0,0.0,-1,0.0,0.0,0.0,0
198666,1469915493740,,,,,,,0.04,-0.03,0.98,20.2,0.4,-2.1,1300,392,,,,,,,,,,,,,,,,,
198686,1469915493760,,,,,,,0.04,-0.04,0.98,20.3,0.6,-2.1,1260,389,,,,,,,,,,,,,,,,,
198706,1469915493780,,,,,,,0.03,-0.05,0.98,20.3,0.6,-2.1,1280,389,,,,,,,,,,,,,,,,,
198726,1469915493800,,,,,,,0.04,-0.05,0.99,20.5,0.5,-2.1,1240,392,,,,,,,,,,,,,,,,,
198746,1469915493820,,,,18,,,0.04,-0.05,0.99,20.5,0.6,-2.1,1280,392,3.342,1,39.538559,-122.332199,7.04,0.547,284.5,9,2,1.4,0,0.0,-1,0.0,,0.0,0
198766,1469915493840,,,,,,,0.04,-0.06,1.0,20.6,0.9,-2.3,1260,390,,,,,,,,,,,,,,,,,
198786,1469915493860,,,,,,,0.05,-0.07,1.01,20.6,0.9,-2.4,1300,392,,,,,,,,,,,,,,,,,
198806,1469915493880,,,,,,,0.07,-0.07,1.01,20.5,1.0,-2.2,1320,395,,,,,,,,,,,,,,,,,
198826,1469915493895,,,,,,,0.06,-0.07,1.01,20.6,1.0,-1.9,1260,393,,,,,,,,,,,,,,,,,
198846,1469915493915,0,238.2,196.0,17,202.5,,0.05,-0.07,1.0,20.7,0.6,-1.5,1300,392,3.308,1,39.538559,-122.332199,6.22,0.547,284.8,9,2,1.4,0,0.0,-1,0.0,0.0,0.0,0
198866,1469915493935,,,,,,,0.05,-0.09,1.01,20.7,0.5,-1.1,1300,392,,,,,,,,,,,,,,,,,
198886,1469915493955,,,,,,,0.05,-0.09,1.01,20.8,0.5,-0.8,1280,392,,,,,,,,,,,,,,,,,
198906,1469915493975,,,,,,,0.05,-0.09,1.01,20.9,0.2,-0.5,1320,390,,,,,,,,,,,,,,,,,
198926,1469915494000,,,,,,,0.05,-0.09,1.01,21.0,0.1,-0.4,1240,392,,,,,,,,,,,,,,,,,
198946,1469915494020,,,,18,,,0.04,-0.07,1.0,21.1,0.0,-0.3,1260,390,3.316,1,39.538559,-122.332199,6.54,0.547,284.9,9,2,1.4,0,0.0,-1,0.0,,0.0,0
198966,1469915494040,,,,,,,0.04,-0.08,1.0,21.2,-0.1,-0.2,1280,390,,,,,,,,,,,,,,,,,
198986,1469915494060,,,,,,,0.04,-0.09,0.99,21.3,-0.1,-0.0,1280,389,,,,,,,,,,,,,,,,,
199006,1469915494080,,,,,,,0.03,-0.07,0.98,21.4,-0.1,0.2,1260,389,,,,,,,,,,,,,,,,,
199026,1469915494100,,,,,,,0.04,-0.07,0.99,21.5,-0.2,0.4,1300,389,,,,,,,,,,,,,,,,,
199046,1469915494120,0,238.2,196.0,17,202.5,13.54,0.04,-0.07,0.99,21.5,-0.2,0.4,1240,386,3.282,1,39.538555,-122.332199,6.79,0.547,285.0,9,2,1.4,0,0.0,-1,0.0,0.0,0.0,0
199066,1469915494140,,,,,,,0.04,-0.08,0.98,21.6,-0.1,0.5,1240,380,,,,,,,,,,,,,,,,,
199086,1469915494160,,,,,,,0.05,-0.08,0.97,21.7,-0.1,0.5,1200,370,,,,,,,,,,,,,,,,,
199106,1469915494180,,,,,,,0.05,-0.08,0.97,21.8,-0.1,0.5,1200,367,,,,,,,,,,,,,,,,,
199126,1469915494201,,,,,,,0.05,-0.06,0.97,21.7,-0.1,0.5,1160,349,,,,,,,,,,,,,,,,,
199146,1469915494221,,,,15,,,0.05,-0.06,0.96,21.8,-0.4,0.6,1120,344,3.36,1,39.538551,-122.332199,7.12,0.547,285.2,9,2,1.4,0,0.0,-1,0.0,,0.0,0
199166,1469915494241,,,,,,,0.04,-0.07,0.96,21.9,-0.4,0.7,1120,346,,,,,,,,,,,,,,,,,
199186,1469915494261,,,,,,,0.03,-0.06,0.96,21.9,-0.4,0.7,1080,352,,,,,,,,,,,,,,,,,
199206,1469915494281,,,,,,,0.03,-0.06,0.96,21.9,-0.6,0.7,1100,380,,,,,,,,,,,,,,,,,
199226,1469915494400,,,,,,,0.03,-0.06,0.94,21.9,-0.7,1.0,1040,416,,,,,,,,,,,,,,,,,
199246,1469915494420,0,238.8,194.6,13,200.8,,0.03,-0.08,0.93,21.9,-0.9,1.4,1000,433,3.121,0,39.538548,-122.332214,7.54,0.548,285.6,9,2,1.4,0,0.0,-1,0.0,0.0,0.0,0
199266,1469915494440,,,,,,,0.03,-0.07,0.91,21.9,-1.0,2.1,1000,432,,,,,,,,,,,,,,,,,
199286,1469915494460,,,,,,,0.04,-0.08,0.91,21.8,-1.0,2.8,960,430,,,,,,,,,,,,,,,,,
199306,1469915494480,,,,,,,0.04,-0.07,0.92,21.7,-1.2,3.0,960,429,,,,,,,,,,,,,,,,,
199326,1469915494500,,,,,,,0.05,-0.06,0.94,21.5,-0.9,2.9,960,424,,,,,,,,,,,,,,,,,
199346,1469915494520,,,,12,,,0.05,-0.05,0.95,21.4,-0.8,2.5,900,420,2.222,0,39.538548,-122.332214,7.54,0.548,285.6,9,2,1.4,0,0.0,-1,0.0,,0.0,0
199366,1469915494540,,,,,,,0.04,-0.05,0.97,21.4,-0.9,1.8,880,412,,,,,,,,,,,,,,,,,
199386,1469915494560,,,,,,,0.04,-0.04,0.99,21.4,-0.9,0.9,860,398,,,,,,,,,,,,,,,,,
199406,1469915494580,,,,,,,0.05,-0.03,1.01,21.4,-0.8,0.1,860,387,,,,,,,,,,,,,,,,,
199426,1469915494500,,,,,,,0.04,-0.04,1.01,21.5,-1.0,-0.7,840,381,,,,,,,,,,,,,,,,,
199446,1469915494520,0,238.9,195.0,9,201.6,,0.05,-0.02,1.0,21.6,-1.1,-1.6,840,378,2.162,0,39.538544,-122.332214,7.36,0.548,285.5,9,2,1.4,0,0.0,-1,0.0,0.0,0.0,0
199466,1469915494540,,,,,,,0.05,-0.01,0.99,21.7,-1.1,-2.6,840,373,,,,,,,,,,,,,,,,,
199486,1469915494560,,,,,,,0.05,-0.01,0.99,21.6,-0.8,-3.2,820,372,,,,,,,,,,,,,,,,,
199506,1469915494580,,,,,,,0.06,-0.01,1.01,21.6,-0.8,-3.5,780,369,,,,,,,,,,,,,,,,,
199526,1469915494600,,,,,,,0.06,-0.03,1.01,21.6,-0.9,-3.5,780,367,,,,,,,,,,,,,,,,,
199546,1469915494620,,,,7,,,0.07,-0.05,1.01,21.4,-0.9,-3.4,780,364,2.252,0,39.538544,-122.332214,7.39,0.548,285.6,9,2,1.4,0,0.0,-1,0.0,,0.0,0
199566,1469915494640,,,,,,,0.08,-0.07,1.02,21.2,-0.8,-3.3,760,367,,,,,,,,,,,,,,,,,
199586,1469915494660,,,,,,,0.09,-0.08,1.01,21.1,-0.6,-3.1,740,373,,,,,,,,,,,,,,,,,
199606,1469915494680,,,,,,,0.09,-0.09,1.02,21.0,-0.7,-3.0,720,386,,,,,,,,,,,,,,,,,
199626,1469915494699,,,,,,,0.1,-0.09,1.01,20.9,-0.6,-2.7,720,401,,,,,,,,,,,,,,,,,
199646,1469915494719,0,238.9,194.4,7,200.4,,0.1,-0.09,1.0,20.9,-0.5,-2.3,720,413,2.071,0,39.53854,-122.332222,7.46,0.549,286.1,9,2,1.4,0,0.0,-1,0.0,0.0,0.0,0
199666,1469915494739,,,,,,,0.09,-0.1,0.99,21.0,-0.3,-1.9,660,413,,,,,,,,,,,,,,,,,
199686,1469915494759,,,,,,,0.09,-0.1,0.99,21.0,-0.1,-1.6,660,412,,,,,,,,,,,,,,,,,
199706,1469915494779,,,,,,,0.1,-0.09,0.99,21.0,0.1,-1.1,680,410,,,,,,,,,,,,,,,,,
199726,1469915494800,,,,,,,0.1,-0.09,0.98,21.0,0.2,-0.6,640,406,,,,,,,,,,,,,,,,,
199746,1469915494820,,,,6,,,0.1,-0.09,0.98,21.0,0.4,-0.3,640,398,1.598,0,39.53854,-122.332222,7.86,0.549,286.9,9,2,1.4,0,0.0,-1,0.0,,0.0,0
199766,1469915494840,,,,,,,0.1,-0.07,0.98,20.9,0.4,0.0,620,398,,,,,,,,,,,,,,,,,
199786,1469915494860,,,,,,,0.1,-0.07,0.98,20.9,0.3,0.1,600,395,,,,,,,,,,,,,,,,,
199806,1469915494880,,,,,,,0.1,-0.05,0.98,20.8,0.4,0.2,600,390,,,,,,,,,,,,,,,,,
199826,1469915494893,,,,,,,0.1,-0.04,0.97,20.6,0.3,0.3,600,384,,,,,,,,,,,,,,,,,
199846,1469915494913,0,238.5,194.6,5,200.8,,0.1,-0.05,0.97,20.6,0.3,0.3,600,376,1.55,0,39.53854,-122.332222,7.3,0.549,287.4,9,2,1.4,0,0.0,-1,0.0,0.0,0.0,0
199866,1469915494933,,,,,,,0.1,-0.05,0.97,20.5,0.4,0.4,560,369,,,,,,,,,,,,,,,,,
199886,1469915494953,,,,,,,0.1,-0.04,0.96,20.4,0.3,0.4,560,369,,,,,,,,,,,,,,,,,
199906,1469915494973,,,,,,,0.1,-0.04,0.96,20.3,0.4,0.4,580,364,,,,,,,,,,,,,,,,,
199926,1469915495001,,,,,,,0.09,-0.03,0.96,20.3,0.4,0.3,540,361,,,,,,,,,,,,,,,,,
199946,1469915495021,,,,4,,,0.09,-0.04,0.96,20.2,0.4,0.1,540,356,1.514,0,39.53854,-122.332222,7.17,0.549,287.5,9,2,1.4,0,0.0,-1,0.0,,0.0,0
199966,1469915495041,,,,,,,0.09,-0.04,0.97,20.2,0.3,-0.1,540,352,,,,,,,,,,,,,,,,,
199986,1469915495061,,,,,,,0.08,-0.05,0.97,20.2,0.3,-0.2,540,352,,,,,,,,,,,,,,,,,
200006,1469915495081,,,,,,,0.08,-0.05,0.97,20.2,0.3,-0.2,540,352,,,,,,,,,,,,,,,,,
200026,1469915495200,,,,,,,0.08,-0.05,0.97,20.2,0.2,-0.2,540,349,,,,,,,,,,,,,,,,,
200046,1469915495220,0,239.0,195.3,4,200.4,13.2,0.08,-0.04,0.98,20.2,0.2,-0.2,520,353,1.534,0,39.53854,-122.332237,6.45,0.55,287.3,9,2,1.4,0,0.0,-1,0.0,0.0,0.0,0
200066,1469915495240,,,,,,,0.07,-0.06,0.98,20.2,0.0,-0.3,520,361,,,,,,,,,,,,,,,,,
200086,1469915495260,,,,,,,0.08,-0.06,0.98,20.2,0.1,-0.2,500,376,,,,,,,,,,,,,,,,,
200106,1469915495280,,,,,,,0.08,-0.07,0.98,20.2,0.2,-0.2,500,390,,,,,,,,,,,,,,,,,
200126,1469915495300,,,,,,,0.08,-0.07,0.97,20.1,0.3,0.0,520,400,,,,,,,,,,,,,,,,,
200146,1469915495320,,,,4,,,0.08,-0.06,0.98,20.1,0.7,0.1,520,398,1.417,3,39.53854,-122.332237,6.45,0.55,287.3,9,2,1.4,0,0.0,-1,0.0,,0.0,0
200166,1469915495340,,,,,,,0.07,-0.05,0.98,20.0,0.7,0.0,520,400,,,,,,,,,,,,,,,,,
200186,1469915495360,,,,,,,0.07,-0.06,0.98,20.0,0.9,-0.4,520,395,,,,,,,,,,,,,,,,,
200206,1469915495380,,,,,,,0.06,-0.06,0.98,20.1,0.9,-0.7,500,389,,,,,,,,,,,,,,,,,
200226,1469915495300,,,,,,,0.06,-0.06,0.98,20.3,1.0,-1.2,500,386,,,,,,,,,,,,,,,,,
200246,1469915495320,0,238.5,194.3,4,201.1,,0.07,-0.07,0.99,20.6,1.3,-1.5,500,383,1.3,3,39.53854,-122.332237,6.29,0.55,287.8,9,2,1.4,0,0.0,-1,0.0,0.0,0.0,0
200266,1469915495340,,,,,,,0.07,-0.07,1.0,20.7,1.5,-1.4,500,381,,,,,,,,,,,,,,,,,
200286,1469915495360,,,,,,,0.07,-0.07,1.0,20.8,1.4,-1.2,500,378,,,,,,,,,,,,,,,,,
200306,1469915495380,,,,,,,0.08,-0.09,1.0,20.9,1.3,-1.3,500,372,,,,,,,,,,,,,,,,,
200326,1469915495401,,,,,,,0.08,-0.09,0.98,21.0,0.9,-1.2,460,369,,,,,,,,,,,,,,,,,
200346,1469915495421,,,,3,,,0.08,-0.11,0.98,21.1,0.4,-1.1,460,366,1.323,3,39.53854,-122.332252,6.72,0.551,287.8,9,2,1.4,0,0.0,-1,0.0,,0.0,0
200366,1469915495441,,,,,,,0.09,-0.1,0.98,21.2,0.0,-0.9,500,361,,,,,,,,,,,,,,,,,
200386,1469915495461,,,,,,,0.09,-0.1,0.98,21.3,-0.4,-0.6,500,356,,,,,,,,,,,,,,,,,
200406,1469915495481,,,,,,,0.1,-0.1,0.98,21.4,-0.6,-0.1,500,355,,,,,,,,,,,,,,,,,
200426,1469915495500,,,,,,,0.1,-0.11,0.98,21.6,-0.9,0.1,500,352,,,,,,,,,,,,,,,,,
200446,1469915495520,0,239.2,195.4,4,200.4,,0.1,-0.11,0.98,21.8,-1.2,0.4,480,347,1.397,3,39.53854,-122.332252,6.62,0.551,288.0,9,2,1.4,0,0.0,-1,0.0,0.0,0.0,0
200466,1469915495540,,,,,,,0.1,-0.12,0.98,22.2,-1.4,0.6,500,344,,,,,,,,,,,,,,,,,
200486,1469915495560,,,,,,,0.1,-0.12,0.98,22.5,-1.3,0.8,500,347,,,,,,,,,,,,,,,,,
200506,1469915495580,,,,,,,0.1,-0.12,0.99,22.8,-1.3,0.9,500,341,,,,,,,,,,,,,,,,,
200526,1469915495601,,,,,,,0.1,-0.12,0.99,23.0,-1.2,1.1,500,346,,,,,,,,,,,,,,,,,
200546,1469915495621,,,,4,,,0.09,-0.11,0.99,23.3,-1.2,1.2,500,352,1.445,0,39.53854,-122.332252,6.99,0.551,288.4,9,2,1.4,0,0.0,-1,0.0,,0.0,0
200566,1469915495641,,,,,,,0.09,-0.12,1.0,23.5,-1.2,1.3,500,366,,,,,,,,,,,,,,,,,
200586,1469915495661,,,,,,,0.1,-0.11,1.0,23.8,-1.1,1.3,520,375,,,,,,,,,,,,,,,,,
200606,1469915495681,,,,,,,0.1,-0.12,1.0,23.9,-1.0,1.3,520,383,,,,,,,,,,,,,,,,,
200626,1469915495700,,,,,,,0.11,-0.12,1.0,24.1,-1.0,1.3,540,383,,,,,,,,,,,,,,,,,
200646,1469915495720,0,238.5,194.3,5,200.2,,0.1,-0.13,0.99,24.3,-0.8,1.3,540,380,1.362,3,39.53854,-122.332252,6.69,0.551,288.5,9,2,1.4,0,0.0,-1,0.0,0.0,0.0,0
200666,1469915495740,,,,,,,0.11,-0.12,0.99,24.4,-0.9,1.4,540,381,,,,,,,,,,,,,,,,,
200686,1469915495760,,,,,,,0.1,-0.13,0.98,24.5,-1.1,1.3,540,376,,,,,,,,,,,,,,,,,
200706,1469915495780,,,,,,,0.11,-0.12,0.98,24.7,-0.8,1.2,560,369,,,,,,,,,,,,,,,,,
200726,1469915495800,,,,,,,0.1,-0.12,0.97,24.8,-0.8,1.0,560,370,,,,,,,,,,,,,,,,,
200746,1469915495820,,,,4,,,0.1,-0.12,0.97,25.0,-0.7,0.9,560,366,1.421,3,39.53854,-122.33226,6.75,0.551,288.6,9,2,1.4,0,0.0,-1,0.0,,0.0,0
200766,1469915495840,,,,,,,0.1,-0.12,0.97,25.2,-0.6,0.6,540,361,,,,,,,,,,,,,,,,,
200786,1469915495860,,,,,,,0.09,-0.11,0.97,25.4,-0.5,0.3,540,360,,,,,,,,,,,,,,,,,
200806,1469915495880,,,,,,,0.09,-0.12,0.97,25.6,-0.3,0.1,560,356,,,,,,,,,,,,,,,,,
200826,1469915495992,,,,,,,0.09,-0.12,0.97,25.8,-0.2,-0.2,560,352,,,,,,,,,,,,,,,,,
200846,1469915496012,0,238.9,194.6,4,199.7,,0.1,-0.11,0.98,25.9,-0.2,-0.4,560,349,1.496,0,39.53854,-122.33226,6.61,0.551,288.7,9,2,1.4,0,0.0,-1,0.0,0.0,0.0,0
200866,1469915496032,,,,,,,0.1,-0.11,0.98,26.1,-0.3,-0.6,580,346,,,,,,,,,,,,,,,,,
200886,1469915496052,,,,,,,0.09,-0.11,0.99,26.2,-0.3,-0.8,580,346,,,,,,,,,,,,,,,,,
200906,1469915496072,,,,,,,0.09,-0.11,0.99,26.3,-0.3,-1.0,580,341,,,,,,,,,,,,,,,,,
200926,1469915496092,,,,,,,0.09,-0.11,0.98,26.5,-0.2,-1.2,580,341,,,,,,,,,,,,,,,,,
200946,1469915496112,,,,4,,,0.1,-0.11,0.98,26.5,-0.3,-1.2,600,347,1.686,0,39.53854,-122.33226,6.61,0.551,288.7,9,2,1.4,0,0.0,-1,0.0,,0.0,0
200966,1469915496132,,,,,,,0.1,-0.12,0.97,26.7,-0.3,-1.3,600,353,,,,,,,,,,,,,,,,,
200986,1469915496152,,,,,,,0.1,-0.12,0.97,26.8,-0.2,-1.1,600,361,,,,,,,,,,,,,,,,,
201006,1469915496172,,,,,,,0.11,-0.11,0.96,27.0,-0.4,-0.9,620,363,,,,,,,,,,,,,,,,,
201026,1469915496101,,,,,,,0.1,-0.11,0.96,27.1,-0.5,-0.8,620,353,,,,,,,,,,,,,,,,,
201046,1469915496121,0,238.5,194.2,6,200.0,13.47,0.11,-0.11,0.96,27.2,-0.3,-0.7,620,333,1.685,0,39.53854,-122.33226,6.7,0.551,288.7,9,2,1.4,0,0.0,-1,0.0,0.0,0.0,0
201066,1469915496141,,,,,,,0.11,-0.1,0.97,27.3,-0.5,-0.7,660,320,,,,,,,,,,,,,,,,,
201086,1469915496161,,,,,,,0.11,-0.12,0.98,27.6,-0.6,-1.0,700,335,,,,,,,,,,,,,,,,,
201106,1469915496181,,,,,,,0.11,-0.11,0.97,27.7,-0.5,-1.0,700,361,,,,,,,,,,,,,,,,,
201126,1469915496201,,,,,,,0.12,-0.1,0.98,27.7,-0.3,-1.0,720,366,,,,,,,,,,,,,,,,,
201146,1469915496221,,,,8,,,0.12,-0.1,0.99,27.8,-0.1,-1.1,740,352,2.056,0,39.53854,-122.332275,6.48,0.552,288.8,9,2,1.4,0,0.0,-1,0.0,,0.0,0
201166,1469915496241,,,,,,,0.12,-0.11,1.0,27.9,0.0,-1.2,800,338,,,,,,,,,,,,,,,,,
201186,1469915496261,,,,,,,0.12,-0.1,1.01,27.8,-0.0,-0.9,800,344,,,,,,,,,,,,,,,,,
201206,1469915496281,,,,,,,0.12,-0.1,1.01,27.7,0.3,-0.6,840,353,,,,,,,,,,,,,,,,,
201226,1469915496300,,,,,,,0.13,-0.08,1.01,27.6,0.6,-0.5,880,353,,,,,,,,,,,,,,,,,
201246,1469915496320,0,238.6,194.3,10,199.4,,0.14,-0.08,1.01,27.6,0.7,-0.5,920,349,2.367,0,39.53854,-122.332275,6.57,0.552,289.2,9,2,1.4,0,0.0,-1,0.0,0.0,0.0,0
201266,1469915496340,,,,,,,0.13,-0.07,1.01,27.5,0.8,-0.7,960,338,,,,,,,,,,,,,,,,,
201286,1469915496360,,,,,,,0.12,-0.07,1.01,27.3,0.6,-0.8,980,341,,,,,,,,,,,,,,,,,
201306,1469915496380,,,,,,,0.12,-0.09,1.01,27.2,0.5,-0.8,1020,352,,,,,,,,,,,,,,,,,
201326,1469915496401,,,,,,,0.11,-0.08,1.0,27.1,0.4,-0.7,1040,341,,,,,,,,,,,,,,,,,
201346,1469915496421,,,,14,,,0.11,-0.07,0.99,27.0,0.1,-0.7,1060,332,2.857,0,39.53854,-122.332275,6.47,0.552,289.7,9,2,1.4,0,0.0,-1,0.0,,0.0,0
201366,1469915496441,,,,,,,0.11,-0.07,0.98,26.9,0.1,-0.6,1100,336,,,,,,,,,,,,,,,,,
201386,1469915496461,,,,,,,0.12,-0.06,0.98,26.7,0.4,-0.6,1080,333,,,,,,,,,,,,,,,,,
201406,1469915496481,,,,,,,0.12,-0.07,0.98,26.5,0.5,-0.5,1060,332,,,,,,,,,,,,,,,,,
201426,1469915496501,,,,,,,0.12,-0.06,0.97,26.3,0.6,-0.5,1060,330,,,,,,,,,,,,,,,,,
201446,1469915496521,0,238.7,194.3,13,199.3,,0.12,-0.07,0.97,26.1,0.7,-0.4,1020,330,3.284,1,39.53854,-122.332275,6.43,0.552,289.7,9,2,1.4,0,0.0,-1,0.0,0.0,0.0,0
201466,1469915496541,,,,,,,0.13,-0.06,0.98,25.9,0.8,-0.3,1060,340,,,,,,,,,,,,,,,,,
201486,1469915496561,,,,,,,0.13,-0.06,0.98,25.7,0.8,-0.2,1020,336,,,,,,,,,,,,,,,,,
201506,1469915496581,,,,,,,0.13,-0.07,0.97,25.5,0.9,0.1,1060,326,,,,,,,,,,,,,,,,,
201526,1469915496600,,,,,,,0.12,-0.07,0.98,25.2,0.9,0.4,1060,329,,,,,,,,,,,,,,,,,
201546,1469915496620,,,,12,,,0.12,-0.06,0.98,24.9,1.1,0.5,1080,333,3.09,0,39.538544,-122.332275,6.5,0.552,289.9,9,2,1.4,0,0.0,-1,0.0,,0.0,0
201566,1469915496640,,,,,,,0.11,-0.05,1.0,24.6,1.4,0.5,1100,338,,,,,,,,,,,,,,,,,
201586,1469915496660,,,,,,,0.11,-0.04,1.0,24.2,1.5,0.5,1120,343,,,,,,,,,,,,,,,,,
201606,1469915496680,,,,,,,0.1,-0.03,0.99,23.9,1.4,0.6,1120,346,,,,,,,,,,,,,,,,,
201626,1469915496799,,,,,,,0.09,-0.03,0.99,23.7,1.4,0.6,1140,350,,,,,,,,,,,,,,,,,
201646,1469915496819,0,238.5,193.6,16,200.3,,0.09,-0.02,0.99,23.3,1.6,0.5,1160,355,3.294,1,39.538548,-122.332291,6.04,0.553,290.4,9,2,1.4,0,0.0,-1,0.0,0.0,0.0,0
201666,1469915496839,,,,,,,0.07,-0.01,1.01,23.0,1.7,0.4,1140,350,,,,,,,,,,,,,,,,,
201686,1469915496859,,,,,,,0.07,-0.0,1.01,22.6,1.7,0.3,1200,358,,,,,,,,,,,,,,,,,
201706,1469915496879,,,,,,,0.06,0.0,1.02,22.2,1.7,0.2,1160,358,,,,,,,,,,,,,,,,,
201726,1469915496899,,,,,,,0.05,0.01,1.02,21.8,1.7,-0.1,1180,364,,,,,,,,,,,,,,,,,
201746,1469915496919,,,,16,,,0.05,0.02,1.01,21.4,1.9,-0.4,1200,366,3.266,1,39.538548,-122.332291,6.04,0.553,290.4,9,2,1.4,0,0.0,-1,0.0,,0.0,0
201766,1469915496939,,,,,,,0.05,-0.0,1.01,20.9,2.1,-0.4,1180,367,,,,,,,,,,,,,,,,,
201786,1469915496959,,,,,,,0.04,0.01,1.0,20.5,1.9,-0.6,1220,369,,,,,,,,,,,,,,,,,
201806,1469915496979,,,,,,,0.03,-0.01,1.01,20.2,1.6,-0.6,1220,369,,,,,,,,,,,,,,,,,
201826,1469915496894,,,,,,,0.02,0.01,1.01,19.8,1.5,-0.6,1200,372,,,,,,,,,,,,,,,,,
201846,1469915496914,0,238.5,193.6,17,199.9,,0.01,0.02,1.0,19.4,1.6,-0.7,1200,361,3.215,1,39.538548,-122.332291,5.99,0.553,290.6,9,2,1.4,0,0.0,-1,0.0,0.0,0.0,0
201866,1469915496934,,,,,,,0.0,-0.0,1.0,19.1,1.7,-0.8,1200,363,,,,,,,,,,,,,,,,,
201886,1469915496954,,,,,,,0.0,-0.01,1.01,18.9,1.7,-1.0,1180,352,,,,,,,,,,,,,,,,,
201906,1469915496974,,,,,,,-0.01,-0.02,1.01,18.7,1.6,-1.0,1160,346,,,,,,,,,,,,,,,,,
201926,1469915497000,,,,,,,-0.01,-0.01,1.01,18.6,1.6,-1.1,1120,341,,,,,,,,,,,,,,,,,
