"Interval"|"ms"|0|0|1,"Utc"|"ms"|0|0|1,"FuelLevel"|"F"|0|100|5,"OilTemp"|"F"|0.0|300.0|5,"Coolant"|"F"|0.0|300.0|5,"OilPress"|"PSI"|0|150|10,"EngineTemp"|"F"|0.0|300.0|5,"Battery"|"Volts"|0.0|20.0|1,"AccelX"|"G"|-3.0|3.0|50,"AccelY"|"G"|-3.0|3.0|50,"AccelZ"|"G"|-3.0|3.0|50,"Yaw"|"Deg/Sec"|-300.0|300.0|50,"Pitch"|"Deg/Sec"|-300.0|300.0|50,"Roll"|"Deg/Sec"|-300.0|300.0|50,"RPM"|""|0|10000|50,"Driveshaft"|"RPM"|0|5000|50,"GearRatio"|""|-5.0|5.0|10,"Gear"|""|-1|5|10,"Latitude"|"Degrees"|-180.0|180.0|10,"Longitude"|"Degrees"|-180.0|180.0|10,"Speed"|"MPH"|0.0|150.0|10,"Distance"|"Miles"|0.0|0.0|10,"Altitude"|"Feet"|0.0|4000.0|10,"GPSSats"|""|0|20|10,"GPSQual"|""|0|5|10,"GPSDOP"|""|0.0|20.0|10,"LapCount"|""|0|0|10,"LapTime"|"Min"|0.0|0.0|10,"Sector"|""|0|0|10,"SectorTime"|"Min"|0.0|0.0|10,"PredTime"|"Min"|0.0|0.0|5,"ElapsedTime"|"Min"|0.0|0.0|10,"CurrentLap"|""|0|0|10
5066,1469914859697,,,,,,,-0.13,0.51,0.86,-4.5,0.8,-1.8,4380,4578,,,,,,,,,,,,,,,,,
5086,1469914859617,,,,,,,-0.17,0.5,0.85,-4.6,0.8,-1.3,4580,4524,,,,,,,,,,,,,,,,,
5106,1469914859637,,,,,,,-0.13,0.57,0.83,-4.7,0.2,-1.5,4580,4524,,,,,,,,,,,,,,,,,
5126,1469914859657,,,,,,,-0.15,0.56,0.85,-5.2,1.1,-1.1,4520,4550,,,,,,,,,,,,,,,,,
5146,1469914859677,,,,53,,,-0.12,0.59,0.91,-5.4,0.9,-1.6,4740,4524,0.981,4,39.545052,-122.331894,79.47,0.002,308.5,9,2,1.4,0,0.0,-1,0.0,,0.0,0
5166,1469914859697,,,,,,,-0.15,0.55,0.83,-5.6,1.5,-1.3,4520,4524,,,,,,,,,,,,,,,,,
5186,1469914859717,,,,,,,-0.11,0.53,0.9,-5.7,1.3,-1.4,4620,4578,,,,,,,,,,,,,,,,,
5206,1469914859737,,,,,,,-0.14,0.42,0.9,-5.8,1.7,-0.9,4340,4550,,,,,,,,,,,,,,,,,
5226,1469914859757,,,,,,,-0.09,0.42,0.94,-5.7,1.4,-1.0,4640,4578,,,,,,,,,,,,,,,,,
5246,1469914859777,0,236.8,191.4,98,193.5,,-0.11,0.33,0.97,-5.6,1.3,-0.9,4560,4578,1.009,4,39.545052,-122.331947,79.76,0.005,309.0,9,2,1.4,0,0.0,-1,0.0,0.0,0.0,0
5266,1469914859797,,,,,,,-0.06,0.24,1.04,-5.2,1.4,-1.1,4580,4606,,,,,,,,,,,,,,,,,
5286,1469914859817,,,,,,,-0.08,0.13,1.01,-5.0,0.8,-1.0,4680,4578,,,,,,,,,,,,,,,,,
5306,1469914859837,,,,,,,-0.02,0.14,0.96,-4.9,1.2,-1.1,4660,4606,,,,,,,,,,,,,,,,,
5326,1469914859857,,,,,,,-0.03,0.02,1.02,-4.8,0.8,-0.6,4380,4606,,,,,,,,,,,,,,,,,
5346,1469914859877,,,,67,,,0.01,-0.01,0.98,-4.2,0.7,-0.6,4500,4550,0.965,4,39.545052,-122.331985,79.62,0.007,309.1,9,2,1.4,0,0.0,-1,0.0,,0.0,0
5366,1469914859897,,,,,,,0.01,-0.07,1.08,-3.7,-0.4,-0.4,4580,4550,,,,,,,,,,,,,,,,,
5386,1469914859911,,,,,,,0.04,-0.1,1.01,-3.3,-0.4,-0.5,4640,4550,,,,,,,,,,,,,,,,,
5406,1469914859931,,,,,,,0.03,-0.12,1.05,-2.7,-0.8,-0.5,4340,4578,,,,,,,,,,,,,,,,,
5426,1469914859951,,,,,,,0.03,-0.12,1.0,-2.5,-0.7,-0.4,4580,4550,,,,,,,,,,,,,,,,,
5446,1469914859971,0,237.1,191.4,44,192.9,,0.01,-0.11,1.03,-2.2,-1.8,-0.5,4420,4606,1.026,4,39.545052,-122.332024,79.7,0.009,309.2,9,2,1.4,0,0.0,-1,0.0,0.0,0.0,0
5466,1469914859991,,,,,,,0.03,-0.07,1.04,-2.4,-1.4,-0.3,4560,4524,,,,,,,,,,,,,,,,,
5486,1469914860014,,,,,,,0.02,-0.03,1.05,-2.3,-1.3,-0.2,4440,4524,,,,,,,,,,,,,,,,,
5506,1469914860034,,,,,,,0.03,-0.0,1.07,-2.3,-0.7,-0.2,4600,4578,,,,,,,,,,,,,,,,,
5526,1469914860054,,,,,,,0.04,0.09,1.02,-2.2,-1.5,-0.2,4500,4578,,,,,,,,,,,,,,,,,
5546,1469914860074,,,,62,,,0.05,0.06,1.0,-2.1,-1.4,0.2,4620,4496,0.97,4,39.545052,-122.332062,80.01,0.011,309.4,9,2,1.4,0,0.0,-1,0.0,,0.0,0
5566,1469914860094,,,,,,,0.04,0.05,1.07,-1.9,-3.0,0.5,4520,4550,,,,,,,,,,,,,,,,,
5586,1469914860117,,,,,,,0.02,0.05,0.99,-2.2,-2.9,0.7,4540,4524,,,,,,,,,,,,,,,,,
5606,1469914860137,,,,,,,-0.01,0.11,1.05,-2.2,-3.6,0.5,4420,4578,,,,,,,,,,,,,,,,,
5626,1469914860157,,,,,,,-0.0,0.07,1.02,-2.3,-2.4,0.7,4620,4578,,,,,,,,,,,,,,,,,
5646,1469914860177,0,237.2,191.7,68,193.5,,0.02,0.14,0.99,-2.1,-3.1,0.5,4500,4578,1.01,4,39.545052,-122.3321,80.08,0.013,309.4,9,2,1.4,0,0.0,-1,0.0,0.0,0.0,0
5666,1469914860197,,,,,,,0.02,0.13,1.0,-2.3,-1.3,0.5,4460,4496,,,,,,,,,,,,,,,,,
5686,1469914860317,,,,,,,0.03,0.21,0.99,-2.2,-2.3,0.1,4480,4578,,,,,,,,,,,,,,,,,
5706,1469914860337,,,,,,,0.02,0.19,0.95,-2.3,-1.6,0.4,4500,4578,,,,,,,,,,,,,,,,,
5726,1469914860357,,,,,,,0.02,0.23,0.92,-2.3,-2.5,0.2,4520,4550,,,,,,,,,,,,,,,,,
5746,1469914860377,,,,55,,,-0.01,0.2,0.96,-2.4,-2.0,0.4,4480,4550,0.985,4,39.545052,-122.332184,79.94,0.017,309.5,9,2,1.4,0,0.0,-1,0.0,,0.0,0
5766,1469914860397,,,,,,,0.01,0.28,0.89,-2.5,-3.5,0.2,4500,4524,,,,,,,,,,,,,,,,,
5786,1469914860417,,,,,,,-0.02,0.27,0.96,-2.8,-2.0,0.4,4560,4524,,,,,,,,,,,,,,,,,
5806,1469914860437,,,,,,,-0.02,0.3,0.87,-2.9,-2.2,0.0,4560,4550,,,,,,,,,,,,,,,,,
5826,1469914860457,,,,,,,-0.04,0.34,0.93,-3.2,-0.6,0.2,4520,4578,,,,,,,,,,,,,,,,,
5846,1469914860477,0,237.2,191.8,63,194.2,,0.03,0.43,0.86,-3.5,-1.6,0.1,4500,4524,1.02,4,39.545052,-122.332184,79.94,0.017,309.5,9,2,1.4,0,0.0,-1,0.0,0.0,0.0,0
5866,1469914860497,,,,,,,-0.01,0.4,0.93,-3.8,0.2,0.5,4420,4524,,,,,,,,,,,,,,,,,
5886,1469914860417,,,,,,,0.02,0.44,0.89,-4.0,-0.9,-0.1,4500,4524,,,,,,,,,,,,,,,,,
5906,1469914860437,,,,,,,-0.04,0.44,0.87,-4.3,0.2,0.2,4460,4524,,,,,,,,,,,,,,,,,
5926,1469914860457,,,,,,,0.03,0.44,0.85,-4.2,-0.8,-0.3,4460,4524,,,,,,,,,,,,,,,,,
5946,1469914860477,,,,49,,,-0.03,0.46,0.87,-4.5,0.8,-0.1,4440,4470,0.992,4,39.545052,-122.332222,79.77,0.02,309.5,9,2,1.4,0,0.0,-1,0.0,,0.0,0
5966,1469914860497,,,,,,,0.01,0.42,0.91,-4.7,0.5,-0.8,4440,4496,,,,,,,,,,,,,,,,,
5986,1469914860517,,,,,,,-0.04,0.4,0.86,-4.9,1.6,-0.9,4420,4446,,,,,,,,,,,,,,,,,
6006,1469914860537,,,,,,,0.0,0.43,0.88,-4.8,0.0,-1.4,4480,4420,,,,,,,,,,,,,,,,,
6026,1469914860557,,,,,,,-0.04,0.4,0.89,-4.6,1.0,-1.0,4240,4420,,,,,,,,,,,,,,,,,
6046,1469914860577,0,237.0,191.4,66,193.2,13.86,-0.0,0.36,0.86,-4.1,-0.4,-0.8,4380,4395,1.0,4,39.545052,-122.33226,79.78,0.022,309.5,9,2,1.4,0,0.0,-1,0.0,0.0,0.0,0
6066,1469914860597,,,,,,,-0.01,0.37,0.93,-3.8,-0.3,-0.7,4460,4420,,,,,,,,,,,,,,,,,
6086,1469914860617,,,,,,,-0.03,0.38,0.93,-3.7,-0.4,-0.3,4380,4470,,,,,,,,,,,,,,,,,
6106,1469914860637,,,,,,,0.01,0.36,0.94,-3.2,0.5,-0.3,4560,4550,,,,,,,,,,,,,,,,,
6126,1469914860657,,,,,,,0.0,0.35,1.0,-2.9,-0.1,-0.2,4460,4550,,,,,,,,,,,,,,,,,
6146,1469914860677,,,,44,,,0.02,0.31,0.96,-2.6,-0.7,-0.4,4500,4496,0.98,4,39.545052,-122.332306,79.45,0.024,309.4,9,2,1.4,0,0.0,-1,0.0,,0.0,0
6166,1469914860697,,,,,,,-0.01,0.26,1.06,-2.4,-0.9,-0.3,4500,4446,,,,,,,,,,,,,,,,,
6186,1469914860717,,,,,,,0.02,0.2,1.02,-2.4,-0.1,-0.4,4340,4496,,,,,,,,,,,,,,,,,
6206,1469914860737,,,,,,,-0.01,0.1,1.09,-2.2,-0.5,-0.5,4400,4470,,,,,,,,,,,,,,,,,
6226,1469914860757,,,,,,,0.01,0.04,1.1,-2.1,1.0,-0.7,4420,4446,,,,,,,,,,,,,,,,,
6246,1469914860777,0,237.1,191.3,54,193.5,,0.0,-0.02,1.12,-1.8,-0.1,-0.5,4400,4420,0.965,4,39.545052,-122.332344,79.38,0.026,309.5,9,2,1.4,0,0.0,-1,0.0,0.0,0.0,0
6266,1469914860797,,,,,,,0.04,-0.06,1.14,-1.6,0.5,-0.3,4380,4496,,,,,,,,,,,,,,,,,
6286,1469914860817,,,,,,,0.03,-0.05,1.08,-1.7,-0.1,-0.0,4440,4395,,,,,,,,,,,,,,,,,
6306,1469914860837,,,,,,,0.07,-0.08,1.16,-1.8,0.3,-0.1,4460,4496,,,,,,,,,,,,,,,,,
6326,1469914860857,,,,,,,0.05,-0.02,1.08,-2.0,0.4,-0.0,4420,4395,,,,,,,,,,,,,,,,,
6346,1469914860877,,,,50,,,0.09,0.0,1.08,-2.5,0.4,-0.4,4440,4369,1.014,4,39.545052,-122.33239,79.18,0.028,309.8,9,2,1.4,0,0.0,-1,0.0,,0.0,0
6366,1469914860897,,,,,,,0.07,0.06,1.0,-3.0,1.4,-0.3,4380,4446,,,,,,,,,,,,,,,,,
6386,1469914860911,,,,,,,0.15,0.12,0.94,-3.5,0.5,-0.5,4300,4369,,,,,,,,,,,,,,,,,
6406,1469914860931,,,,,,,0.11,0.18,0.99,-4.2,1.2,0.2,4440,4395,,,,,,,,,,,,,,,,,
6426,1469914860951,,,,,,,0.14,0.27,0.91,-4.3,-0.2,-0.1,4400,4395,,,,,,,,,,,,,,,,,
6446,1469914860971,0,237.4,191.4,69,193.4,,0.12,0.33,0.98,-4.4,-0.0,-0.1,3660,4395,1.022,4,39.545052,-122.332428,78.72,0.03,310.1,9,2,1.4,0,0.0,-1,0.0,0.0,0.0,0
6466,1469914860991,,,,,,,0.12,0.33,0.96,-4.3,-0.1,0.1,4320,4420,,,,,,,,,,,,,,,,,
6486,1469914861116,,,,,,,0.16,0.29,0.99,-4.0,1.4,-0.2,4400,4369,,,,,,,,,,,,,,,,,
6506,1469914861136,,,,,,,0.15,0.25,1.05,-3.7,-0.1,-0.1,4300,4395,,,,,,,,,,,,,,,,,
6526,1469914861156,,,,,,,0.16,0.23,1.01,-3.3,0.1,-0.3,4420,4395,,,,,,,,,,,,,,,,,
6546,1469914861176,,,,73,,,0.15,0.12,1.08,-3.3,-0.9,-0.2,4300,4395,1.007,4,39.545052,-122.332504,78.12,0.035,310.9,9,2,1.4,0,0.0,-1,0.0,,0.0,0
6566,1469914861196,,,,,,,0.18,0.09,1.06,-3.3,0.2,-0.2,4340,4395,,,,,,,,,,,,,,,,,
6586,1469914861216,,,,,,,0.16,0.04,0.99,-3.4,0.9,0.1,4340,4344,,,,,,,,,,,,,,,,,
6606,1469914861236,,,,,,,0.21,0.06,1.06,-3.3,0.8,0.2,4300,4344,,,,,,,,,,,,,,,,,
6626,1469914861256,,,,,,,0.16,0.07,1.02,-3.5,1.5,0.5,4280,4395,,,,,,,,,,,,,,,,,
6646,1469914861276,0,237.7,191.8,50,193.7,,0.2,0.16,0.96,-3.8,0.3,0.2,4280,4395,0.999,4,39.545052,-122.332504,78.12,0.035,310.9,9,2,1.4,0,0.0,-1,0.0,0.0,0.0,0
6666,1469914861296,,,,,,,0.17,0.18,0.98,-4.5,0.5,0.6,4240,4344,,,,,,,,,,,,,,,,,
6686,1469914861217,,,,,,,0.15,0.24,0.98,-4.9,-0.4,1.2,4280,4395,,,,,,,,,,,,,,,,,
6706,1469914861237,,,,,,,0.17,0.23,0.93,-4.8,0.3,1.4,4260,4369,,,,,,,,,,,,,,,,,
6726,1469914861257,,,,,,,0.16,0.13,1.03,-4.4,-0.2,1.6,4240,4320,,,,,,,,,,,,,,,,,
6746,1469914861277,,,,50,,,0.2,0.08,1.05,-4.2,-0.2,1.6,4300,4320,0.985,4,39.545052,-122.332542,77.76,0.037,311.2,9,2,1.4,0,0.0,-1,0.0,,0.0,0
6766,1469914861297,,,,,,,0.14,0.18,1.0,-4.9,-0.2,2.0,4280,4296,,,,,,,,,,,,,,,,,
6786,1469914861317,,,,,,,0.18,0.31,0.95,-5.7,-1.3,1.8,4300,4249,,,,,,,,,,,,,,,,,
6806,1469914861337,,,,,,,0.13,0.27,1.03,-6.7,-0.1,2.3,4260,4296,,,,,,,,,,,,,,,,,
6826,1469914861357,,,,,,,0.09,0.26,1.08,-6.6,-0.9,2.5,4340,4320,,,,,,,,,,,,,,,,,
6846,1469914861377,0,237.8,192.1,66,193.9,,0.14,0.27,1.06,-6.2,0.8,2.5,4340,4320,0.984,4,39.545052,-122.332581,77.38,0.039,311.5,9,2,1.4,0,0.0,-1,0.0,0.0,0.0,0
6866,1469914861397,,,,,,,0.18,0.18,1.14,-6.1,0.2,2.6,4300,4320,,,,,,,,,,,,,,,,,
6886,1469914861417,,,,,,,0.22,0.27,1.15,-6.6,1.0,2.3,4220,4320,,,,,,,,,,,,,,,,,
6906,1469914861437,,,,,,,0.15,0.3,1.09,-7.4,0.3,2.7,4280,4296,,,,,,,,,,,,,,,,,
6926,1469914861457,,,,,,,0.23,0.25,1.02,-7.4,-0.8,2.4,4180,4249,,,,,,,,,,,,,,,,,
6946,1469914861477,,,,52,,,0.21,0.29,1.06,-7.5,0.4,2.4,4220,4226,0.982,4,39.545052,-122.332619,76.85,0.041,311.8,9,2,1.4,0,0.0,-1,0.0,,0.0,0
6966,1469914861497,,,,,,,0.2,0.39,1.02,-8.1,0.7,2.0,4240,4320,,,,,,,,,,,,,,,,,
6986,1469914861517,,,,,,,0.22,0.43,0.96,-8.5,1.4,1.8,4280,4226,,,,,,,,,,,,,,,,,
7006,1469914861537,,,,,,,0.21,0.34,1.03,-8.2,0.8,1.6,4160,4226,,,,,,,,,,,,,,,,,
7026,1469914861557,,,,,,,0.24,0.28,1.11,-8.0,0.5,1.0,4240,4203,,,,,,,,,,,,,,,,,
7046,1469914861577,0,237.3,191.8,65,193.4,13.92,0.14,0.29,1.06,-8.2,2.0,0.8,4220,4249,0.996,4,39.545052,-122.332672,76.43,0.043,312.0,9,2,1.4,0,0.0,-1,0.0,0.0,0.0,0
7066,1469914861597,,,,,,,0.2,0.42,1.0,-8.8,0.6,0.3,4180,4296,,,,,,,,,,,,,,,,,
7086,1469914861618,,,,,,,0.23,0.37,0.97,-9.2,0.9,0.7,4280,4249,,,,,,,,,,,,,,,,,
7106,1469914861638,,,,,,,0.14,0.26,1.05,-8.6,-0.2,0.7,4180,4249,,,,,,,,,,,,,,,,,
7126,1469914861658,,,,,,,0.15,0.25,1.05,-8.0,1.2,0.2,4180,4180,,,,,,,,,,,,,,,,,
7146,1469914861678,,,,59,,,0.14,0.35,0.98,-8.7,1.4,0.1,4140,4226,1.002,4,39.545052,-122.33271,76.09,0.046,312.4,9,2,1.4,0,0.0,-1,0.0,,0.0,0
7166,1469914861698,,,,,,,0.23,0.38,0.94,-9.3,-0.1,-0.1,4140,4272,,,,,,,,,,,,,,,,,
7186,1469914861718,,,,,,,0.21,0.42,1.0,-9.6,0.6,0.0,4220,4156,,,,,,,,,,,,,,,,,
7206,1469914861738,,,,,,,0.15,0.41,1.06,-9.7,0.4,0.1,4220,4226,,,,,,,,,,,,,,,,,
7226,1469914861758,,,,,,,0.16,0.41,1.03,-9.5,2.0,-0.1,4120,4226,,,,,,,,,,,,,,,,,
7246,1469914861778,0,237.1,191.3,61,193.5,,0.14,0.47,1.01,-9.9,2.0,0.3,4160,4180,1.01,4,39.545052,-122.332748,75.49,0.048,312.6,9,2,1.4,0,0.0,-1,0.0,0.0,0.0,0
7266,1469914861798,,,,,,,0.24,0.44,0.92,-9.7,0.1,0.2,4120,4226,,,,,,,,,,,,,,,,,
7286,1469914861917,,,,,,,0.19,0.45,0.95,-9.6,-0.6,0.4,4100,4180,,,,,,,,,,,,,,,,,
7306,1469914861937,,,,,,,0.14,0.47,1.01,-10.1,-0.9,0.5,4180,4203,,,,,,,,,,,,,,,,,
7326,1469914861957,,,,,,,0.13,0.44,1.01,-10.1,0.2,0.4,4100,4135,,,,,,,,,,,,,,,,,
7346,1469914861977,,,,56,,,0.14,0.44,0.93,-10.3,0.8,0.8,4120,4135,0.981,4,39.545052,-122.332825,74.47,0.052,313.3,9,2,1.4,0,0.0,-1,0.0,,0.0,0
7366,1469914861997,,,,,,,0.17,0.51,0.92,-10.7,0.2,1.1,4120,4180,,,,,,,,,,,,,,,,,
7386,1469914862017,,,,,,,0.22,0.56,0.9,-11.0,0.4,1.3,4140,4112,,,,,,,,,,,,,,,,,
7406,1469914862037,,,,,,,0.27,0.55,0.89,-10.6,-1.1,1.6,4160,4156,,,,,,,,,,,,,,,,,
7426,1469914862057,,,,,,,0.32,0.58,0.87,-10.5,-1.6,1.1,4140,4180,,,,,,,,,,,,,,,,,
7446,1469914862077,0,237.0,190.7,50,192.8,,0.23,0.54,0.91,-11.3,-0.5,1.3,4100,4112,0.99,4,39.545052,-122.332825,74.47,0.052,313.3,9,2,1.4,0,0.0,-1,0.0,0.0,0.0,0
7466,1469914862097,,,,,,,0.2,0.45,0.97,-11.0,-0.2,1.2,4080,4135,,,,,,,,,,,,,,,,,
7486,1469914862018,,,,,,,0.18,0.47,0.99,-10.7,1.0,1.2,4040,4135,,,,,,,,,,,,,,,,,
7506,1469914862038,,,,,,,0.13,0.52,0.94,-11.0,0.0,1.2,4080,4112,,,,,,,,,,,,,,,,,
7526,1469914862058,,,,,,,0.21,0.55,0.91,-10.7,-1.4,0.8,4000,4156,,,,,,,,,,,,,,,,,
7546,1469914862078,,,,44,,,0.23,0.57,0.87,-10.5,-1.4,0.6,4080,4135,1.002,4,39.545048,-122.332863,74.06,0.054,313.6,9,2,1.4,0,0.0,-1,0.0,,0.0,0
7566,1469914862098,,,,,,,0.23,0.57,0.92,-10.2,-2.8,0.5,4180,4135,,,,,,,,,,,,,,,,,
7586,1469914862117,,,,,,,0.29,0.57,0.94,-10.1,-2.9,-0.0,4100,4112,,,,,,,,,,,,,,,,,
7606,1469914862137,,,,,,,0.25,0.55,1.01,-10.2,-1.7,-0.0,4020,4112,,,,,,,,,,,,,,,,,
7626,1469914862157,,,,,,,0.2,0.46,1.07,-10.4,-0.9,0.2,4120,4069,,,,,,,,,,,,,,,,,
7646,1469914862177,0,237.4,191.4,44,193.5,,0.22,0.44,1.12,-10.3,1.4,0.3,4140,4026,0.987,4,39.545044,-122.332901,73.7,0.056,313.9,9,2,1.4,0,0.0,-1,0.0,0.0,0.0,0
7666,1469914862197,,,,,,,0.15,0.47,1.15,-10.4,3.4,0.8,4100,4112,,,,,,,,,,,,,,,,,
7686,1469914862218,,,,,,,0.14,0.45,1.15,-10.6,3.7,1.0,4060,4135,,,,,,,,,,,,,,,,,
7706,1469914862238,,,,,,,0.19,0.5,1.11,-10.2,4.8,1.0,4060,4112,,,,,,,,,,,,,,,,,
7726,1469914862258,,,,,,,0.2,0.54,1.05,-10.2,4.4,1.0,4040,4112,,,,,,,,,,,,,,,,,
7746,1469914862278,,,,64,,,0.25,0.58,1.02,-10.3,3.7,0.6,4040,4135,0.992,4,39.545044,-122.332939,73.24,0.058,314.3,9,2,1.4,0,0.0,-1,0.0,,0.0,0
7766,1469914862298,,,,,,,0.3,0.62,0.96,-10.2,3.3,0.1,4060,4090,,,,,,,,,,,,,,,,,
7786,1469914862308,,,,,,,0.28,0.62,0.95,-10.2,2.3,-0.2,4040,4026,,,,,,,,,,,,,,,,,
7806,1469914862328,,,,,,,0.33,0.64,0.93,-10.2,0.9,-0.6,3960,4069,,,,,,,,,,,,,,,,,
7826,1469914862348,,,,,,,0.31,0.64,0.91,-10.3,0.6,-0.7,4060,4069,,,,,,,,,,,,,,,,,
7846,1469914862368,0,236.9,191.8,60,193.6,,0.25,0.65,0.94,-10.3,-0.2,-0.6,4020,4047,0.993,4,39.54504,-122.33297,72.72,0.059,314.6,9,2,1.4,0,0.0,-1,0.0,0.0,0.0,0
7866,1469914862388,,,,,,,0.25,0.59,0.9,-10.3,-0.7,-0.8,4000,4006,,,,,,,,,,,,,,,,,
7886,1469914862415,,,,,,,0.22,0.59,0.92,-10.4,-0.9,-0.7,4000,4026,,,,,,,,,,,,,,,,,
7906,1469914862435,,,,,,,0.16,0.58,0.97,-10.6,-1.8,-0.5,3940,4047,,,,,,,,,,,,,,,,,
7926,1469914862455,,,,,,,0.16,0.55,0.93,-10.5,-3.0,-0.8,3980,4006,,,,,,,,,,,,,,,,,
7946,1469914862475,,,,61,,,0.11,0.55,0.94,-10.8,-2.7,-0.8,4040,4006,0.994,4,39.545036,-122.333008,72.23,0.061,314.9,9,2,1.4,0,0.0,-1,0.0,,0.0,0
7966,1469914862495,,,,,,,0.08,0.5,0.98,-11.0,-3.0,-0.7,4060,4026,,,,,,,,,,,,,,,,,
7986,1469914862511,,,,,,,0.11,0.56,0.93,-11.0,-2.9,-1.1,3940,3964,,,,,,,,,,,,,,,,,
8006,1469914862531,,,,,,,0.09,0.56,0.89,-11.5,-2.6,-0.6,4000,4006,,,,,,,,,,,,,,,,,
8026,1469914862551,,,,,,,0.06,0.52,0.92,-11.5,-3.4,-0.6,3960,4006,,,,,,,,,,,,,,,,,
8046,1469914862571,0,237.1,191.1,54,193.2,13.78,0.1,0.57,0.88,-11.7,-3.9,-0.8,3980,3964,0.979,4,39.545032,-122.333046,71.7,0.064,315.3,9,2,1.4,0,0.0,-1,0.0,0.0,0.0,0
8066,1469914862591,,,,,,,0.08,0.55,0.86,-12.1,-3.3,-0.3,3980,3984,,,,,,,,,,,,,,,,,
8086,1469914862714,,,,,,,0.05,0.56,0.86,-12.4,-3.3,-0.2,4000,3964,,,,,,,,,,,,,,,,,
8106,1469914862734,,,,,,,0.08,0.63,0.82,-12.9,-3.8,0.1,4040,4026,,,,,,,,,,,,,,,,,
8126,1469914862754,,,,,,,0.05,0.65,0.8,-13.3,-3.2,0.3,3880,3984,,,,,,,,,,,,,,,,,
8146,1469914862774,,,,53,,,0.04,0.64,0.81,-13.6,-3.5,0.8,3940,3984,0.999,4,39.545025,-122.333122,71.0,0.068,315.5,9,2,1.4,0,0.0,-1,0.0,,0.0,0
8166,1469914862794,,,,,,,0.08,0.7,0.76,-13.9,-4.5,0.8,3960,3964,,,,,,,,,,,,,,,,,
8186,1469914862814,,,,,,,0.07,0.71,0.76,-14.2,-3.7,1.0,3880,3984,,,,,,,,,,,,,,,,,
8206,1469914862834,,,,,,,0.08,0.78,0.71,-14.6,-4.1,1.4,3840,3964,,,,,,,,,,,,,,,,,
8226,1469914862854,,,,,,,0.09,0.79,0.69,-14.9,-5.0,1.5,3880,3984,,,,,,,,,,,,,,,,,
8246,1469914862874,0,237.4,192.1,52,193.9,,0.09,0.82,0.69,-15.0,-3.9,1.3,3900,4006,0.979,4,39.545025,-122.333122,71.0,0.068,315.5,9,2,1.4,0,0.0,-1,0.0,0.0,0.0,0
8266,1469914862894,,,,,,,0.09,0.89,0.69,-15.5,-4.5,1.5,3880,3924,,,,,,,,,,,,,,,,,
8286,1469914862818,,,,,,,0.11,0.84,0.69,-16.1,-4.8,1.4,3840,4006,,,,,,,,,,,,,,,,,
8306,1469914862838,,,,,,,0.11,0.86,0.73,-16.2,-3.7,1.1,3920,3904,,,,,,,,,,,,,,,,,
8326,1469914862858,,,,,,,0.11,0.93,0.73,-16.7,-3.2,1.3,3900,3924,,,,,,,,,,,,,,,,,
8346,1469914862878,,,,54,,,0.12,0.85,0.77,-17.0,-3.1,1.3,3940,3924,0.974,4,39.545017,-122.33316,70.75,0.07,315.6,9,2,1.4,0,0.0,-1,0.0,,0.0,0
8366,1469914862898,,,,,,,0.14,0.83,0.83,-17.3,-1.6,0.6,3940,3904,,,,,,,,,,,,,,,,,
8386,1469914862912,,,,,,,0.13,0.87,0.87,-18.0,-1.6,1.1,3900,3904,,,,,,,,,,,,,,,,,
8406,1469914862932,,,,,,,0.13,0.82,0.96,-18.4,-1.0,1.5,3960,3924,,,,,,,,,,,,,,,,,
8426,1469914862952,,,,,,,0.17,0.87,1.01,-18.5,-0.9,0.9,3880,3964,,,,,,,,,,,,,,,,,
8446,1469914862972,0,237.9,191.0,64,192.9,,0.15,0.91,1.01,-18.9,-0.0,1.3,3940,3924,0.989,4,39.545013,-122.333183,70.43,0.071,315.7,9,2,1.4,0,0.0,-1,0.0,0.0,0.0,0
8466,1469914862992,,,,,,,0.16,0.86,1.09,-19.1,-0.0,1.4,3920,3904,,,,,,,,,,,,,,,,,
8486,1469914863018,,,,,,,0.17,0.9,1.05,-19.4,-0.4,1.3,3840,3964,,,,,,,,,,,,,,,,,
8506,1469914863038,,,,,,,0.18,0.89,1.05,-19.5,0.1,1.3,3960,3964,,,,,,,,,,,,,,,,,
8526,1469914863058,,,,,,,0.17,0.89,1.02,-19.4,-0.6,0.7,3940,3904,,,,,,,,,,,,,,,,,
8546,1469914863078,,,,35,,,0.17,0.94,0.96,-19.5,-1.2,0.3,3920,3904,1.004,4,39.54501,-122.333221,70.04,0.073,315.9,9,2,1.4,0,0.0,-1,0.0,,0.0,0
8566,1469914863098,,,,,,,0.18,0.94,0.95,-19.2,-0.3,0.0,3860,3904,,,,,,,,,,,,,,,,,
8586,1469914863119,,,,,,,0.14,0.98,0.99,-19.1,0.5,0.1,3920,3904,,,,,,,,,,,,,,,,,
8606,1469914863139,,,,,,,0.12,0.89,1.01,-18.7,0.7,0.1,3840,3904,,,,,,,,,,,,,,,,,
8626,1469914863159,,,,,,,0.16,0.92,1.0,-18.0,0.8,-0.5,3920,3884,,,,,,,,,,,,,,,,,
8646,1469914863179,0,237.7,190.7,53,192.6,,0.15,0.98,0.94,-17.9,1.1,-0.5,3880,3846,1.009,4,39.545002,-122.33326,69.31,0.075,316.4,9,2,1.4,0,0.0,-1,0.0,0.0,0.0,0
8666,1469914863199,,,,,,,0.14,0.96,0.88,-17.3,0.9,-0.8,3880,3826,,,,,,,,,,,,,,,,,
8686,1469914863219,,,,,,,0.15,1.02,0.85,-16.9,-0.2,-1.2,3860,3846,,,,,,,,,,,,,,,,,
8706,1469914863239,,,,,,,0.19,0.97,0.86,-16.7,0.0,-1.0,3860,3789,,,,,,,,,,,,,,,,,
8726,1469914863259,,,,,,,0.18,0.97,0.89,-16.7,-0.0,-0.8,3780,3846,,,,,,,,,,,,,,,,,
8746,1469914863279,,,,93,,,0.17,0.88,0.95,-16.9,-0.3,-0.7,3820,3826,1.004,4,39.544994,-122.333298,68.84,0.077,316.8,9,2,1.4,0,0.0,-1,0.0,,0.0,0
8766,1469914863299,,,,,,,0.21,0.9,1.01,-17.0,0.2,-0.4,3800,3864,,,,,,,,,,,,,,,,,
8786,1469914863318,,,,,,,0.21,0.9,1.02,-17.0,0.9,-0.1,3800,3826,,,,,,,,,,,,,,,,,
8806,1469914863338,,,,,,,0.19,0.92,0.97,-17.0,1.4,0.2,3860,3846,,,,,,,,,,,,,,,,,
8826,1469914863358,,,,,,,0.22,0.94,0.94,-17.4,0.3,0.8,3800,3846,,,,,,,,,,,,,,,,,
8846,1469914863378,0,238.1,191.7,55,193.7,,0.25,0.89,0.95,-17.4,-0.3,1.3,3820,3846,0.998,4,39.544987,-122.333328,68.61,0.079,317.3,9,2,1.4,0,0.0,-1,0.0,0.0,0.0,0
8866,1469914863398,,,,,,,0.25,0.89,0.93,-17.7,-0.6,1.7,3880,3846,,,,,,,,,,,,,,,,,
8886,1469914863515,,,,,,,0.24,0.85,0.99,-17.8,-1.3,2.1,3880,3789,,,,,,,,,,,,,,,,,
8906,1469914863535,,,,,,,0.22,0.94,1.0,-17.9,-1.2,1.6,3820,3789,,,,,,,,,,,,,,,,,
8926,1469914863555,,,,,,,0.19,0.92,0.98,-18.0,-0.9,1.6,3840,3769,,,,,,,,,,,,,,,,,
8946,1469914863575,,,,87,,,0.16,0.95,0.95,-18.5,-0.7,1.3,3780,3807,1.014,4,39.544968,-122.333405,67.98,0.083,318.2,9,2,1.4,0,0.0,-1,0.0,,0.0,0
8966,1469914863595,,,,,,,0.16,0.87,1.01,-18.7,-1.1,1.5,3820,3789,,,,,,,,,,,,,,,,,
8986,1469914863615,,,,,,,0.16,0.88,1.05,-19.0,-0.5,1.4,3780,3846,,,,,,,,,,,,,,,,,
9006,1469914863635,,,,,,,0.16,0.91,1.06,-19.2,-0.1,1.2,3780,3826,,,,,,,,,,,,,,,,,
9026,1469914863655,,,,,,,0.13,0.91,1.08,-19.4,0.1,1.7,3800,3846,,,,,,,,,,,,,,,,,
9046,1469914863675,0,238.1,191.7,37,193.6,13.76,0.15,0.92,1.05,-19.5,0.0,1.6,3840,3826,0.988,4,39.544968,-122.333405,67.98,0.083,318.2,9,2,1.4,0,0.0,-1,0.0,0.0,0.0,0
9066,1469914863695,,,,,,,0.2,0.91,1.01,-19.7,0.4,1.6,3900,3846,,,,,,,,,,,,,,,,,
9086,1469914863608,,,,,,,0.2,0.92,0.98,-19.9,1.2,1.7,3840,3846,,,,,,,,,,,,,,,,,
9106,1469914863628,,,,,,,0.18,0.93,1.08,-20.0,1.2,2.0,3920,3884,,,,,,,,,,,,,,,,,
9126,1469914863648,,,,,,,0.2,0.99,1.07,-20.1,1.2,1.9,3920,3904,,,,,,,,,,,,,,,,,
9146,1469914863668,,,,57,,,0.2,0.99,1.1,-20.1,1.9,2.2,3800,3826,0.998,4,39.544956,-122.333427,67.47,0.085,318.6,9,2,1.4,0,0.0,-1,0.0,,0.0,0
9166,1469914863688,,,,,,,0.15,0.99,1.05,-20.0,1.6,2.4,3760,3789,,,,,,,,,,,,,,,,,
9186,1469914863708,,,,,,,0.16,1.0,1.03,-19.9,0.2,2.6,3840,3769,,,,,,,,,,,,,,,,,
9206,1469914863728,,,,,,,0.17,1.02,1.0,-19.7,-0.8,2.6,3760,3826,,,,,,,,,,,,,,,,,
9226,1469914863748,,,,,,,0.17,0.99,1.01,-19.6,-0.8,2.4,3780,3789,,,,,,,,,,,,,,,,,
9246,1469914863768,0,237.6,190.8,67,192.8,,0.1,0.95,1.07,-19.5,-0.4,2.2,3840,3807,1.019,4,39.544949,-122.333466,67.09,0.087,319.1,9,2,1.4,0,0.0,-1,0.0,0.0,0.0,0
9266,1469914863791,,,,,,,0.09,0.96,1.08,-19.3,-0.1,1.8,3760,3789,,,,,,,,,,,,,,,,,
9286,1469914863811,,,,,,,0.11,0.95,1.07,-18.9,0.5,1.5,3800,3807,,,,,,,,,,,,,,,,,
9306,1469914863831,,,,,,,0.12,0.99,1.03,-18.8,0.1,1.2,3720,3846,,,,,,,,,,,,,,,,,
9326,1469914863851,,,,,,,0.12,0.97,1.02,-18.7,-0.3,0.7,3820,3807,,,,,,,,,,,,,,,,,
9346,1469914863871,,,,54,,,0.14,0.95,1.05,-18.5,-0.6,-0.0,3760,3846,0.988,4,39.544937,-122.333496,66.59,0.089,319.5,9,2,1.4,0,0.0,-1,0.0,,0.0,0
9366,1469914863891,,,,,,,0.11,0.94,1.05,-18.2,-0.0,-0.6,3760,3826,,,,,,,,,,,,,,,,,
9386,1469914863905,,,,,,,0.07,0.95,0.97,-17.6,0.6,-0.7,3800,3789,,,,,,,,,,,,,,,,,
9406,1469914863925,,,,,,,0.06,0.94,0.91,-17.4,-0.4,-0.6,3820,3789,,,,,,,,,,,,,,,,,
9426,1469914863945,,,,,,,0.09,0.94,0.89,-16.7,-0.8,-0.7,3820,3807,,,,,,,,,,,,,,,,,
9446,1469914863965,0,237.8,191.1,51,193.3,,0.11,0.94,0.88,-16.6,-0.7,-0.8,3780,3807,0.998,4,39.544926,-122.333534,66.46,0.091,320.0,9,2,1.4,0,0.0,-1,0.0,0.0,0.0,0
9466,1469914863991,,,,,,,0.07,0.92,0.95,-16.5,0.2,-0.8,3820,3826,,,,,,,,,,,,,,,,,
9486,1469914864011,,,,,,,0.06,0.86,0.95,-16.3,-0.6,-1.1,3840,3789,,,,,,,,,,,,,,,,,
9506,1469914864031,,,,,,,0.05,0.83,0.93,-16.1,-0.5,-1.3,3800,3807,,,,,,,,,,,,,,,,,
9526,1469914864051,,,,,,,0.07,0.84,0.89,-16.2,-0.4,-1.1,3780,3807,,,,,,,,,,,,,,,,,
9546,1469914864071,,,,49,,,0.04,0.84,0.91,-16.2,-0.1,-0.6,3760,3789,1.013,4,39.544914,-122.333557,66.18,0.092,320.7,9,2,1.4,0,0.0,-1,0.0,,0.0,0
9566,1469914864091,,,,,,,0.03,0.85,1.0,-16.3,0.9,-0.4,3800,3826,,,,,,,,,,,,,,,,,
9586,1469914864111,,,,,,,0.01,0.87,1.0,-16.3,0.7,-0.3,3820,3826,,,,,,,,,,,,,,,,,
9606,1469914864131,,,,,,,0.0,0.88,0.97,-16.5,1.3,0.3,3700,3789,,,,,,,,,,,,,,,,,
9626,1469914864151,,,,,,,0.01,0.84,0.95,-16.6,0.2,0.5,3840,3807,,,,,,,,,,,,,,,,,
9646,1469914864171,1,237.6,190.9,67,192.9,,0.02,0.88,1.02,-16.5,0.4,0.1,3740,3826,0.998,4,39.544899,-122.33358,66.34,0.094,321.2,9,2,1.4,0,0.0,-1,0.0,0.0,0.0,0
9666,1469914864291,,,,,,,0.02,0.9,1.03,-16.3,1.1,0.0,3840,3807,,,,,,,,,,,,,,,,,
9686,1469914864311,,,,,,,-0.03,0.9,1.04,-16.3,2.0,0.0,3840,3826,,,,,,,,,,,,,,,,,
9706,1469914864331,,,,,,,-0.06,0.88,1.02,-16.3,1.4,-0.2,3760,3789,,,,,,,,,,,,,,,,,
9726,1469914864351,,,,,,,-0.02,0.85,0.94,-15.9,0.5,-0.4,3820,3789,,,,,,,,,,,,,,,,,
9746,1469914864371,,,,53,,,-0.0,0.81,0.95,-15.4,0.2,-0.6,3780,3789,1.009,4,39.544872,-122.333649,66.38,0.098,322.1,9,2,1.4,0,0.0,-1,0.0,,0.0,0
9766,1469914864391,,,,,,,-0.04,0.78,0.94,-15.1,0.6,-0.9,3820,3807,,,,,,,,,,,,,,,,,
9786,1469914864411,,,,,,,-0.05,0.77,0.93,-15.0,0.5,-1.2,3780,3807,,,,,,,,,,,,,,,,,
9806,1469914864431,,,,,,,-0.02,0.76,0.84,-14.8,0.4,-1.3,3760,3789,,,,,,,,,,,,,,,,,
9826,1469914864451,,,,,,,0.01,0.82,0.86,-14.7,0.6,-1.4,3780,3789,,,,,,,,,,,,,,,,,
9846,1469914864471,0,237.6,192.3,61,194.0,,-0.03,0.78,0.94,-14.7,0.7,-1.5,3720,3807,1.007,4,39.544872,-122.333649,66.38,0.098,322.1,9,2,1.4,0,0.0,-1,0.0,0.0,0.0,0
9866,1469914864491,,,,,,,-0.06,0.74,0.91,-14.2,0.5,-1.8,3820,3826,,,,,,,,,,,,,,,,,
9886,1469914864410,,,,,,,-0.04,0.72,0.89,-13.7,0.8,-2.2,3800,3789,,,,,,,,,,,,,,,,,
9906,1469914864430,,,,,,,-0.04,0.74,0.82,-13.6,1.2,-2.2,3740,3807,,,,,,,,,,,,,,,,,
9926,1469914864450,,,,,,,-0.03,0.7,0.84,-13.7,0.4,-1.8,3760,3789,,,,,,,,,,,,,,,,,
9946,1469914864470,,,,34,,,-0.01,0.73,0.9,-13.8,0.6,-1.8,3840,3846,0.993,4,39.544857,-122.333672,66.17,0.1,322.5,9,2,1.4,0,0.0,-1,0.0,,0.0,0
9966,1469914864490,,,,,,,-0.01,0.7,0.95,-13.9,0.8,-1.7,3760,3807,,,,,,,,,,,,,,,,,
9986,1469914864509,,,,,,,-0.04,0.7,0.94,-13.9,0.5,-1.4,3820,3807,,,,,,,,,,,,,,,,,
10006,1469914864529,,,,,,,-0.05,0.66,0.88,-13.9,-1.2,-1.0,3720,3789,,,,,,,,,,,,,,,,,
10026,1469914864549,,,,,,,-0.05,0.71,0.91,-13.8,-1.6,-0.9,3780,3807,,,,,,,,,,,,,,,,,
10046,1469914864569,0,237.4,192.4,50,194.0,13.87,-0.04,0.71,0.93,-13.9,-1.3,-0.4,3800,3826,0.993,4,39.544842,-122.333694,66.09,0.101,323.0,9,2,1.4,0,0.0,-1,0.0,0.0,0.0,0
10066,1469914864589,,,,,,,-0.09,0.72,0.96,-13.9,-0.4,-0.0,3780,3826,,,,,,,,,,,,,,,,,
10086,1469914864608,,,,,,,-0.12,0.71,0.94,-13.9,-0.2,0.1,3720,3769,,,,,,,,,,,,,,,,,
10106,1469914864628,,,,,,,-0.08,0.71,0.92,-13.7,-0.9,-0.0,3860,3826,,,,,,,,,,,,,,,,,
10126,1469914864648,,,,,,,-0.05,0.7,0.89,-13.8,-0.3,0.1,3760,3807,,,,,,,,,,,,,,,,,
10146,1469914864668,,,,54,,,-0.06,0.68,0.92,-13.8,-0.3,0.0,3800,3846,0.977,4,39.544826,-122.333725,66.37,0.103,323.5,9,2,1.4,0,0.0,-1,0.0,,0.0,0
10166,1469914864688,,,,,,,-0.09,0.7,0.98,-13.7,0.6,-0.1,3800,3826,,,,,,,,,,,,,,,,,
10186,1469914864708,,,,,,,-0.08,0.7,0.94,-13.7,0.1,-0.1,3780,3807,,,,,,,,,,,,,,,,,
10206,1469914864728,,,,,,,-0.1,0.73,0.91,-13.9,0.2,0.2,3820,3826,,,,,,,,,,,,,,,,,
10226,1469914864748,,,,,,,-0.07,0.68,0.94,-14.1,-0.9,0.5,3740,3807,,,,,,,,,,,,,,,,,
10246,1469914864768,1,237.6,191.8,43,192.4,,-0.09,0.65,1.0,-14.1,-0.8,0.3,3760,3826,0.988,4,39.544811,-122.333748,66.17,0.105,323.9,9,2,1.4,0,0.0,-1,0.0,0.0,0.0,0
10266,1469914864788,,,,,,,-0.08,0.64,1.0,-14.0,0.3,0.2,3760,3826,,,,,,,,,,,,,,,,,
10286,1469914864806,,,,,,,-0.14,0.69,1.0,-13.9,1.2,0.2,3860,3789,,,,,,,,,,,,,,,,,
10306,1469914864826,,,,,,,-0.13,0.68,0.97,-14.1,0.9,0.6,3800,3789,,,,,,,,,,,,,,,,,
10326,1469914864846,,,,,,,-0.08,0.67,0.95,-14.0,0.3,0.7,3780,3826,,,,,,,,,,,,,,,,,
10346,1469914864866,,,,49,,,-0.06,0.69,0.99,-14.0,1.6,0.6,3740,3789,1.004,4,39.544792,-122.333786,66.24,0.107,324.3,9,2,1.4,0,0.0,-1,0.0,,0.0,0
10366,1469914864886,,,,,,,-0.11,0.66,0.98,-13.8,1.9,0.3,3860,3826,,,,,,,,,,,,,,,,,
10386,1469914864904,,,,,,,-0.14,0.65,0.97,-13.7,2.1,0.1,3700,3826,,,,,,,,,,,,,,,,,
10406,1469914864924,,,,,,,-0.09,0.62,0.9,-13.3,0.4,-0.1,3760,3807,,,,,,,,,,,,,,,,,
10426,1469914864944,,,,,,,-0.07,0.63,0.9,-13.2,-0.1,-0.2,3800,3826,,,,,,,,,,,,,,,,,
10446,1469914864964,1,237.7,191.7,56,193.6,,-0.09,0.6,1.0,-13.1,-0.2,0.0,3740,3807,0.982,4,39.544773,-122.333809,66.23,0.109,324.8,9,2,1.4,0,0.0,-1,0.0,0.0,0.0,0
10466,1469914864984,,,,,,,-0.16,0.61,1.05,-12.7,0.3,-0.5,3820,3807,,,,,,,,,,,,,,,,,
10486,1469914865110,,,,,,,-0.13,0.58,1.07,-12.4,1.2,-0.9,3820,3846,,,,,,,,,,,,,,,,,
10506,1469914865130,,,,,,,-0.13,0.61,0.99,-12.3,1.9,-0.9,3740,3807,,,,,,,,,,,,,,,,,
10526,1469914865150,,,,,,,-0.09,0.59,1.02,-12.1,1.6,-1.0,3840,3807,,,,,,,,,,,,,,,,,
10546,1469914865170,,,,40,,,-0.06,0.6,1.05,-11.8,1.4,-1.2,3700,3826,0.998,4,39.544739,-122.333862,66.17,0.113,325.5,9,2,1.4,0,0.0,-1,0.0,,0.0,0
10566,1469914865190,,,,,,,-0.05,0.59,1.09,-11.6,2.2,-1.3,3820,3789,,,,,,,,,,,,,,,,,
10586,1469914865210,,,,,,,-0.11,0.56,1.05,-11.2,1.9,-1.2,3740,3826,,,,,,,,,,,,,,,,,
10606,1469914865230,,,,,,,-0.12,0.51,1.0,-11.0,0.9,-1.4,3820,3807,,,,,,,,,,,,,,,,,
10626,1469914865250,,,,,,,-0.1,0.49,0.97,-10.6,-0.5,-1.9,3800,3826,,,,,,,,,,,,,,,,,
10646,1469914865270,0,237.8,192.0,38,193.1,,-0.07,0.52,0.96,-10.4,-0.5,-1.7,3760,3807,0.987,4,39.544739,-122.333862,66.17,0.113,325.5,9,2,1.4,0,0.0,-1,0.0,0.0,0.0,0
10666,1469914865290,,,,,,,-0.09,0.5,1.05,-10.3,0.2,-1.6,3760,3826,,,,,,,,,,,,,,,,,
10686,1469914865210,,,,,,,-0.13,0.48,1.06,-10.1,0.9,-1.8,3820,3789,,,,,,,,,,,,,,,,,
10706,1469914865230,,,,,,,-0.12,0.45,1.01,-9.6,0.3,-1.8,3720,3884,,,,,,,,,,,,,,,,,
10726,1469914865250,,,,,,,-0.1,0.49,0.93,-9.3,-0.2,-1.7,3820,3807,,,,,,,,,,,,,,,,,
10746,1469914865270,,,,50,,,-0.08,0.45,0.96,-9.2,-0.1,-1.6,3840,3789,1.003,4,39.544724,-122.333893,66.26,0.115,325.9,9,2,1.4,0,0.0,-1,0.0,,0.0,0
10766,1469914865290,,,,,,,-0.07,0.46,1.03,-9.0,0.5,-1.6,3740,3807,,,,,,,,,,,,,,,,,
10786,1469914865310,,,,,,,-0.05,0.42,1.02,-8.6,0.4,-1.7,3840,3846,,,,,,,,,,,,,,,,,
10806,1469914865330,,,,,,,-0.07,0.43,0.99,-8.2,0.0,-1.7,3780,3826,,,,,,,,,,,,,,,,,
10826,1469914865350,,,,,,,-0.06,0.39,0.95,-8.2,-1.1,-1.5,3820,3789,,,,,,,,,,,,,,,,,
10846,1469914865370,0,237.8,191.7,79,192.9,,-0.04,0.37,1.0,-7.9,-1.5,-1.6,3740,3826,1.004,4,39.544704,-122.333916,66.36,0.116,326.2,9,2,1.4,0,0.0,-1,0.0,0.0,0.0,0
10866,1469914865390,,,,,,,-0.05,0.4,1.02,-7.7,-0.7,-1.8,3820,3789,,,,,,,,,,,,,,,,,
10886,1469914865408,,,,,,,-0.1,0.39,1.01,-7.5,0.4,-1.8,3780,3807,,,,,,,,,,,,,,,,,
10906,1469914865428,,,,,,,-0.11,0.37,0.99,-7.5,0.0,-1.4,3780,3789,,,,,,,,,,,,,,,,,
10926,1469914865448,,,,,,,-0.07,0.34,0.98,-7.3,-0.3,-1.5,3820,3807,,,,,,,,,,,,,,,,,
10946,1469914865468,,,,76,,,-0.02,0.37,0.95,-7.1,0.1,-1.5,3700,3769,0.993,4,39.544685,-122.333931,66.38,0.118,326.5,9,2,1.4,0,0.0,-1,0.0,,0.0,0
10966,1469914865488,,,,,,,-0.02,0.32,0.97,-6.9,0.5,-1.3,3800,3807,,,,,,,,,,,,,,,,,
10986,1469914865507,,,,,,,-0.05,0.31,0.95,-6.7,0.2,-1.5,3860,3789,,,,,,,,,,,,,,,,,
11006,1469914865527,,,,,,,-0.02,0.3,0.9,-6.5,-0.7,-1.5,3740,3807,,,,,,,,,,,,,,,,,
11026,1469914865547,,,,,,,-0.0,0.31,0.89,-6.3,-1.1,-1.4,3840,3807,,,,,,,,,,,,,,,,,
11046,1469914865567,1,237.4,191.7,59,193.1,13.93,-0.02,0.25,0.98,-6.2,-0.9,-1.2,3820,3807,1.024,4,39.544666,-122.333954,66.49,0.12,326.9,9,2,1.4,0,0.0,-1,0.0,0.0,0.0,0
11066,1469914865587,,,,,,,-0.05,0.25,1.02,-5.8,-0.7,-1.4,3820,3807,,,,,,,,,,,,,,,,,
11086,1469914865607,,,,,,,-0.05,0.19,1.03,-5.7,0.0,-1.6,3800,3846,,,,,,,,,,,,,,,,,
11106,1469914865627,,,,,,,-0.05,0.19,0.95,-5.3,0.0,-1.5,3720,3807,,,,,,,,,,,,,,,,,
11126,1469914865647,,,,,,,-0.02,0.15,0.99,-5.3,0.1,-1.2,3760,3789,,,,,,,,,,,,,,,,,
11146,1469914865667,,,,46,,,-0.02,0.15,1.05,-5.0,0.1,-1.5,3800,3826,0.998,4,39.544647,-122.333977,66.58,0.122,327.2,9,2,1.4,0,0.0,-1,0.0,,0.0,0
11166,1469914865687,,,,,,,-0.02,0.17,1.05,-5.0,0.6,-1.4,3720,3807,,,,,,,,,,,,,,,,,
11186,1469914865707,,,,,,,-0.04,0.19,1.01,-5.0,0.6,-1.6,3840,3789,,,,,,,,,,,,,,,,,
11206,1469914865727,,,,,,,-0.04,0.18,0.97,-5.1,-0.3,-1.6,3800,3769,,,,,,,,,,,,,,,,,
11226,1469914865747,,,,,,,-0.03,0.17,1.01,-5.0,-0.8,-1.7,3800,3826,,,,,,,,,,,,,,,,,
11246,1469914865767,1,238.1,192.1,47,193.6,,-0.04,0.22,1.01,-5.0,0.2,-1.9,3760,3826,1.009,4,39.544628,-122.334007,66.44,0.124,327.7,9,2,1.4,0,0.0,-1,0.0,0.0,0.0,0
11266,1469914865787,,,,,,,-0.09,0.19,0.97,-4.9,1.1,-1.8,3700,3789,,,,,,,,,,,,,,,,,
11286,1469914865910,,,,,,,-0.11,0.16,0.94,-4.8,0.8,-1.5,3740,3752,,,,,,,,,,,,,,,,,
11306,1469914865930,,,,,,,-0.06,0.14,0.95,-4.6,0.1,-1.6,3720,3826,,,,,,,,,,,,,,,,,
11326,1469914865950,,,,,,,-0.01,0.17,0.96,-4.4,0.1,-1.6,3820,3769,,,,,,,,,,,,,,,,,
11346,1469914865970,,,,54,,,-0.03,0.16,0.96,-4.4,0.2,-1.5,3740,3807,0.992,4,39.54459,-122.334053,66.56,0.127,328.3,9,2,1.4,0,0.0,-1,0.0,,0.0,0
11366,1469914865990,,,,,,,-0.07,0.12,0.98,-4.1,-0.4,-1.3,3780,3769,,,,,,,,,,,,,,,,,
11386,1469914866010,,,,,,,-0.06,0.1,0.91,-3.9,-1.3,-1.2,3720,3807,,,,,,,,,,,,,,,,,
11406,1469914866030,,,,,,,-0.03,0.14,0.93,-4.0,-1.0,-1.0,3760,3789,,,,,,,,,,,,,,,,,
11426,1469914866050,,,,,,,-0.04,0.1,0.99,-4.1,-0.8,-0.7,3780,3769,,,,,,,,,,,,,,,,,
11446,1469914866070,0,237.6,191.8,64,193.1,,-0.06,0.09,1.04,-4.0,-0.1,-1.0,3760,3769,0.982,4,39.54459,-122.334053,66.56,0.127,328.3,9,2,1.4,0,0.0,-1,0.0,0.0,0.0,0
11466,1469914866090,,,,,,,-0.07,0.06,1.09,-3.9,0.3,-1.1,3780,3807,,,,,,,,,,,,,,,,,
11486,1469914866010,,,,,,,-0.07,0.11,1.0,-3.9,0.7,-0.8,3820,3789,,,,,,,,,,,,,,,,,
11506,1469914866030,,,,,,,-0.06,0.1,1.05,-4.1,0.6,-0.8,3800,3769,,,,,,,,,,,,,,,,,
11526,1469914866050,,,,,,,-0.05,0.12,1.1,-3.9,0.7,-1.1,3820,3789,,,,,,,,,,,,,,,,,
11546,1469914866070,,,,53,,,-0.04,0.1,1.07,-3.7,0.6,-1.2,3800,3807,1.003,4,39.544571,-122.334084,66.57,0.129,328.7,9,2,1.4,0,0.0,-1,0.0,,0.0,0
11566,1469914866090,,,,,,,-0.01,0.12,1.0,-3.6,0.6,-1.2,3800,3769,,,,,,,,,,,,,,,,,
11586,1469914866110,,,,,,,-0.01,0.08,1.04,-3.8,-0.0,-0.9,3800,3789,,,,,,,,,,,,,,,,,
11606,1469914866130,,,,,,,-0.03,0.08,1.13,-3.6,-0.1,-1.2,3800,3826,,,,,,,,,,,,,,,,,
11626,1469914866150,,,,,,,-0.03,0.06,1.09,-3.5,0.1,-1.2,3660,3752,,,,,,,,,,,,,,,,,
11646,1469914866170,0,238.1,192.1,85,193.5,,-0.04,0.07,1.03,-3.4,0.7,-1.2,3800,3789,1.008,4,39.544552,-122.334106,66.34,0.131,329.0,9,2,1.4,0,0.0,-1,0.0,0.0,0.0,0
11666,1469914866190,,,,,,,-0.03,0.08,1.01,-3.6,0.4,-0.9,3760,3789,,,,,,,,,,,,,,,,,
11686,1469914866210,,,,,,,0.0,0.05,1.05,-3.4,0.4,-0.9,3700,3826,,,,,,,,,,,,,,,,,
11706,1469914866230,,,,,,,0.02,0.09,1.07,-3.4,1.1,-0.9,3800,3752,,,,,,,,,,,,,,,,,
11726,1469914866250,,,,,,,0.0,0.09,1.02,-3.3,1.2,-1.1,3820,3769,,,,,,,,,,,,,,,,,
11746,1469914866270,,,,45,,,-0.01,0.07,0.95,-3.5,0.2,-0.9,3780,3789,0.972,4,39.544533,-122.334122,66.25,0.133,329.2,9,2,1.4,0,0.0,-1,0.0,,0.0,0
11766,1469914866290,,,,,,,-0.0,0.06,0.98,-3.5,-1.0,-1.0,3820,3807,,,,,,,,,,,,,,,,,
11786,1469914866310,,,,,,,0.0,0.14,0.99,-3.6,-0.7,-0.9,3720,3769,,,,,,,,,,,,,,,,,
11806,1469914866330,,,,,,,-0.03,0.15,0.99,-3.8,0.1,-0.8,3700,3789,,,,,,,,,,,,,,,,,
11826,1469914866350,,,,,,,-0.04,0.13,0.97,-3.9,-0.3,-0.6,3800,3789,,,,,,,,,,,,,,,,,
11846,1469914866370,0,237.6,191.3,53,194.0,,0.01,0.13,0.95,-3.8,-0.8,-0.9,3740,3846,1.008,4,39.54451,-122.334145,66.33,0.135,329.6,9,2,1.4,0,0.0,-1,0.0,0.0,0.0,0
11866,1469914866390,,,,,,,0.04,0.16,0.96,-3.7,-0.0,-0.9,3780,3769,,,,,,,,,,,,,,,,,
11886,1469914866408,,,,,,,0.02,0.14,0.96,-3.8,0.8,-0.7,3700,3789,,,,,,,,,,,,,,,,,
11906,1469914866428,,,,,,,-0.0,0.14,1.01,-3.6,0.9,-0.9,3780,3807,,,,,,,,,,,,,,,,,
11926,1469914866448,,,,,,,0.01,0.11,0.94,-3.5,0.1,-1.0,3800,3789,,,,,,,,,,,,,,,,,
11946,1469914866468,,,,62,,,0.04,0.12,0.93,-3.4,0.1,-0.8,3840,3769,1.019,4,39.544491,-122.334167,66.22,0.136,329.9,9,2,1.4,0,0.0,-1,0.0,,0.0,0
11966,1469914866488,,,,,,,0.04,0.05,1.01,-3.4,0.7,-0.6,3840,3789,,,,,,,,,,,,,,,,,
11986,1469914866507,,,,,,,0.0,0.06,1.05,-3.3,1.1,-0.8,3820,3807,,,,,,,,,,,,,,,,,
12006,1469914866527,,,,,,,-0.0,0.02,1.06,-3.3,1.3,-0.6,3740,3769,,,,,,,,,,,,,,,,,
12026,1469914866547,,,,,,,-0.02,0.06,0.97,-3.2,1.4,-0.5,3800,3769,,,,,,,,,,,,,,,,,
12046,1469914866567,0,237.4,191.1,53,193.9,13.9,-0.02,0.03,0.95,-3.3,1.2,-0.1,3740,3807,1.014,4,39.544472,-122.334198,66.16,0.139,330.2,9,2,1.4,0,0.0,-1,0.0,0.0,0.0,0
12066,1469914866587,,,,,,,-0.0,0.03,1.01,-3.2,1.5,-0.1,3760,3807,,,,,,,,,,,,,,,,,
12086,1469914866706,,,,,,,-0.0,0.02,0.99,-2.9,1.6,-0.1,3780,3752,,,,,,,,,,,,,,,,,
12106,1469914866726,,,,,,,-0.01,0.03,0.96,-2.7,1.6,-0.1,3740,3769,,,,,,,,,,,,,,,,,
12126,1469914866746,,,,,,,-0.03,0.01,0.89,-2.8,0.6,0.2,3840,3789,,,,,,,,,,,,,,,,,
12146,1469914866766,,,,40,,,-0.02,-0.01,0.92,-2.8,-0.0,0.3,3680,3826,0.993,4,39.544434,-122.334251,66.26,0.142,330.9,9,2,1.4,0,0.0,-1,0.0,,0.0,0
12166,1469914866786,,,,,,,-0.04,0.05,0.95,-3.0,0.8,0.1,3780,3769,,,,,,,,,,,,,,,,,
12186,1469914866806,,,,,,,-0.07,0.06,0.91,-3.0,1.6,-0.0,3720,3789,,,,,,,,,,,,,,,,,
12206,1469914866826,,,,,,,-0.08,0.06,0.92,-3.0,1.4,0.3,3760,3789,,,,,,,,,,,,,,,,,
12226,1469914866846,,,,,,,-0.03,0.04,0.94,-2.8,0.8,-0.1,3740,3826,,,,,,,,,,,,,,,,,
12246,1469914866866,0,237.8,191.7,62,193.1,,-0.01,0.08,1.0,-2.7,1.8,-0.1,3820,3769,0.982,4,39.544434,-122.334251,66.26,0.142,330.9,9,2,1.4,0,0.0,-1,0.0,0.0,0.0,0
12266,1469914866886,,,,,,,-0.02,0.05,1.02,-2.5,2.6,-0.1,3820,3789,,,,,,,,,,,,,,,,,
12286,1469914866810,,,,,,,-0.04,0.05,1.02,-2.4,2.1,-0.4,3840,3789,,,,,,,,,,,,,,,,,
12306,1469914866830,,,,,,,0.0,0.03,1.0,-2.3,1.0,-0.6,3800,3846,,,,,,,,,,,,,,,,,
12326,1469914866850,,,,,,,0.0,0.06,0.99,-2.3,0.9,-0.5,3820,3769,,,,,,,,,,,,,,,,,
12346,1469914866870,,,,55,,,-0.01,-0.0,1.05,-2.2,1.5,-0.2,3840,3789,1.019,4,39.544414,-122.334274,66.27,0.144,331.2,9,2,1.4,0,0.0,-1,0.0,,0.0,0
12366,1469914866890,,,,,,,-0.03,-0.01,1.09,-2.0,2.1,-0.4,3720,3789,,,,,,,,,,,,,,,,,
12386,1469914866903,,,,,,,-0.04,0.01,1.09,-2.1,2.0,-0.5,3840,3826,,,,,,,,,,,,,,,,,
12406,1469914866923,,,,,,,-0.03,0.04,0.99,-2.2,1.9,-0.1,3700,3789,,,,,,,,,,,,,,,,,
12426,1469914866943,,,,,,,-0.03,0.04,1.03,-2.4,1.7,0.1,3820,3789,,,,,,,,,,,,,,,,,
12446,1469914866963,0,237.5,191.3,46,193.5,,-0.03,0.06,1.1,-2.3,1.5,-0.4,3780,3789,1.004,4,39.544395,-122.33429,66.09,0.146,331.5,9,2,1.4,0,0.0,-1,0.0,0.0,0.0,0
12466,1469914866983,,,,,,,-0.03,0.03,1.06,-2.5,1.1,-0.4,3820,3826,,,,,,,,,,,,,,,,,
12486,1469914867010,,,,,,,-0.05,0.03,0.99,-2.3,0.8,-0.3,3780,3789,,,,,,,,,,,,,,,,,
12506,1469914867030,,,,,,,-0.06,-0.01,0.93,-2.4,-0.4,0.1,3800,3789,,,,,,,,,,,,,,,,,
12526,1469914867050,,,,,,,-0.06,-0.01,1.02,-2.3,-0.4,-0.1,3800,3807,,,,,,,,,,,,,,,,,
12546,1469914867070,,,,44,,,-0.07,0.03,1.01,-2.3,0.4,-0.3,3800,3807,0.988,4,39.544376,-122.334312,66.24,0.148,331.9,9,2,1.4,0,0.0,-1,0.0,,0.0,0
12566,1469914867090,,,,,,,-0.09,0.04,0.96,-2.3,0.8,-0.3,3820,3807,,,,,,,,,,,,,,,,,
12586,1469914867110,,,,,,,-0.1,0.01,0.97,-2.4,0.1,-0.2,3780,3769,,,,,,,,,,,,,,,,,
12606,1469914867130,,,,,,,-0.05,-0.0,0.95,-2.3,-0.3,-0.4,3780,3826,,,,,,,,,,,,,,,,,
12626,1469914867150,,,,,,,-0.0,0.04,1.0,-2.2,0.2,-0.4,3760,3826,,,,,,,,,,,,,,,,,
12646,1469914867170,0,237.4,191.0,51,193.1,,-0.04,0.03,1.01,-2.3,0.9,-0.3,3740,3807,0.993,4,39.544357,-122.334335,66.18,0.149,332.3,9,2,1.4,0,0.0,-1,0.0,0.0,0.0,0
12666,1469914867190,,,,,,,-0.07,0.02,1.04,-2.2,0.2,-0.2,3740,3769,,,,,,,,,,,,,,,,,
12686,1469914867210,,,,,,,-0.04,0.03,0.98,-2.0,-1.0,-0.4,3760,3826,,,,,,,,,,,,,,,,,
12706,1469914867230,,,,,,,-0.03,0.04,1.0,-2.1,-0.6,-0.4,3800,3789,,,,,,,,,,,,,,,,,
12726,1469914867250,,,,,,,-0.04,-0.01,1.06,-2.3,0.1,-0.1,3860,3826,,,,,,,,,,,,,,,,,
12746,1469914867270,,,,49,,,-0.07,-0.01,1.12,-2.2,0.7,-0.3,3840,3807,0.983,4,39.544338,-122.334366,66.32,0.151,332.6,9,2,1.4,0,0.0,-1,0.0,,0.0,0
12766,1469914867290,,,,,,,-0.04,-0.02,1.09,-2.2,0.6,-0.2,3800,3789,,,,,,,,,,,,,,,,,
12786,1469914867307,,,,,,,-0.02,0.03,1.0,-2.3,0.4,-0.0,3840,3789,,,,,,,,,,,,,,,,,
12806,1469914867327,,,,,,,-0.03,-0.01,1.03,-2.4,0.3,0.3,3780,3807,,,,,,,,,,,,,,,,,
12826,1469914867347,,,,,,,-0.04,0.04,1.11,-2.3,0.4,-0.0,3680,3826,,,,,,,,,,,,,,,,,
12846,1469914867367,0,237.7,191.5,55,193.5,,-0.03,0.03,1.12,-2.3,1.0,-0.2,3720,3789,1.013,4,39.544319,-122.334389,66.32,0.153,333.0,9,2,1.4,0,0.0,-1,0.0,0.0,0.0,0
12866,1469914867387,,,,,,,-0.05,0.02,1.03,-2.3,0.7,0.0,3840,3769,,,,,,,,,,,,,,,,,
12886,1469914867507,,,,,,,-0.03,0.01,1.0,-2.5,-0.1,0.2,3740,3807,,,,,,,,,,,,,,,,,
12906,1469914867527,,,,,,,-0.04,-0.02,1.1,-2.3,-0.6,0.0,3820,3826,,,,,,,,,,,,,,,,,
12926,1469914867547,,,,,,,-0.05,-0.01,1.06,-2.2,0.3,-0.1,3860,3769,,,,,,,,,,,,,,,,,
12946,1469914867567,,,,70,,,-0.09,0.01,1.04,-2.0,0.6,-0.1,3760,3789,0.987,4,39.544277,-122.334442,66.26,0.157,333.9,9,2,1.4,0,0.0,-1,0.0,,0.0,0
12966,1469914867587,,,,,,,-0.1,0.01,1.0,-2.1,0.4,0.0,3720,3752,,,,,,,,,,,,,,,,,
12986,1469914867607,,,,,,,-0.06,-0.04,0.96,-2.1,-0.4,0.0,3800,3826,,,,,,,,,,,,,,,,,
13006,1469914867627,,,,,,,-0.03,-0.01,1.0,-2.0,0.3,0.1,3680,3769,,,,,,,,,,,,,,,,,
13026,1469914867647,,,,,,,-0.04,-0.02,0.99,-2.0,1.1,0.1,3760,3769,,,,,,,,,,,,,,,,,
13046,1469914867667,0,237.6,191.4,57,193.6,13.88,-0.07,0.03,0.99,-2.2,0.5,-0.0,3840,3769,0.998,4,39.544277,-122.334442,66.26,0.157,333.9,9,2,1.4,0,0.0,-1,0.0,0.0,0.0,0
13066,1469914867687,,,,,,,-0.05,0.03,0.96,-2.3,-0.8,-0.1,3800,3807,,,,,,,,,,,,,,,,,
13086,1469914867608,,,,,,,-0.02,0.07,0.94,-2.4,-1.4,-0.0,3860,3789,,,,,,,,,,,,,,,,,
13106,1469914867628,,,,,,,-0.04,0.01,1.02,-2.6,-1.3,0.0,3700,3769,,,,,,,,,,,,,,,,,
13126,1469914867648,,,,,,,-0.08,0.0,1.05,-2.5,-0.8,-0.0,3800,3769,,,,,,,,,,,,,,,,,
13146,1469914867668,,,,50,,,-0.06,0.01,1.06,-2.6,-0.5,-0.2,3780,3789,1.024,4,39.544258,-122.33445,66.34,0.159,334.2,9,2,1.4,0,0.0,-1,0.0,,0.0,0
13166,1469914867688,,,,,,,-0.05,0.05,1.0,-2.6,-0.0,-0.3,3720,3789,,,,,,,,,,,,,,,,,
13186,1469914867708,,,,,,,-0.04,0.05,1.02,-2.8,-0.1,0.0,3820,3769,,,,,,,,,,,,,,,,,
13206,1469914867728,,,,,,,-0.03,0.05,1.07,-2.7,0.3,-0.2,3760,3807,,,,,,,,,,,,,,,,,
13226,1469914867748,,,,,,,-0.02,0.07,1.1,-2.8,0.6,-0.2,3800,3789,,,,,,,,,,,,,,,,,
13246,1469914867768,0,238.3,192.3,90,194.3,,-0.04,0.04,1.04,-2.8,1.0,0.2,3780,3789,1.008,4,39.544239,-122.33448,66.41,0.161,334.7,9,2,1.4,0,0.0,-1,0.0,0.0,0.0,0
13266,1469914867791,,,,,,,-0.04,-0.01,1.0,-2.8,0.2,0.4,3840,3789,,,,,,,,,,,,,,,,,
13286,1469914867811,,,,,,,-0.02,-0.0,1.06,-2.7,0.2,0.2,3740,3807,,,,,,,,,,,,,,,,,
13306,1469914867831,,,,,,,-0.03,0.06,1.04,-2.9,1.0,0.1,3680,3769,,,,,,,,,,,,,,,,,
13326,1469914867851,,,,,,,-0.07,0.04,1.0,-2.9,1.2,0.1,3800,3769,,,,,,,,,,,,,,,,,
13346,1469914867871,,,,65,,,-0.07,0.06,0.99,-3.1,0.7,0.4,3760,3769,0.998,4,39.544216,-122.334503,66.49,0.163,335.2,9,2,1.4,0,0.0,-1,0.0,,0.0,0
13366,1469914867891,,,,,,,-0.03,0.08,1.03,-3.2,0.4,0.2,3740,3826,,,,,,,,,,,,,,,,,
13386,1469914867903,,,,,,,-0.04,0.05,1.01,-3.2,1.1,0.2,3820,3752,,,,,,,,,,,,,,,,,
13406,1469914867923,,,,,,,-0.05,0.05,0.98,-3.0,1.4,-0.1,3720,3789,,,,,,,,,,,,,,,,,
13426,1469914867943,,,,,,,-0.06,0.03,0.97,-3.0,0.5,-0.2,3720,3789,,,,,,,,,,,,,,,,,
13446,1469914867963,0,237.9,191.3,55,192.8,,-0.04,0.04,1.01,-3.0,-0.5,-0.3,3720,3789,1.003,4,39.544197,-122.334526,66.23,0.165,335.7,9,2,1.4,0,0.0,-1,0.0,0.0,0.0,0
13466,1469914867983,,,,,,,-0.05,0.07,1.01,-3.0,-0.2,-0.5,3840,3769,,,,,,,,,,,,,,,,,
13486,1469914868003,,,,,,,-0.1,0.06,0.97,-2.9,0.9,-0.5,3760,3733,,,,,,,,,,,,,,,,,
13506,1469914868023,,,,,,,-0.09,0.05,0.94,-2.7,0.2,-0.5,3780,3752,,,,,,,,,,,,,,,,,
13526,1469914868043,,,,,,,-0.04,0.06,0.93,-2.7,-0.2,-0.7,3780,3826,,,,,,,,,,,,,,,,,
13546,1469914868063,,,,55,,,-0.01,0.12,0.95,-2.6,-0.2,-0.7,3780,3733,0.992,4,39.544178,-122.334557,66.28,0.167,336.2,9,2,1.4,0,0.0,-1,0.0,,0.0,0
13566,1469914868091,,,,,,,-0.04,0.1,0.95,-2.6,0.2,-0.8,3720,3789,,,,,,,,,,,,,,,,,
13586,1469914868111,,,,,,,-0.05,0.07,0.9,-2.6,-0.7,-0.8,3780,3733,,,,,,,,,,,,,,,,,
13606,1469914868131,,,,,,,-0.02,0.05,0.92,-2.6,-1.5,-0.8,3760,3789,,,,,,,,,,,,,,,,,
13626,1469914868151,,,,,,,-0.02,0.11,0.97,-2.7,-0.8,-0.8,3700,3769,,,,,,,,,,,,,,,,,
13646,1469914868171,0,237.4,191.0,51,193.1,,-0.04,0.08,0.94,-2.6,-0.2,-0.5,3700,3752,0.998,4,39.544159,-122.334579,65.98,0.168,336.7,9,2,1.4,0,0.0,-1,0.0,0.0,0.0,0
13666,1469914868191,,,,,,,-0.04,0.08,0.95,-2.6,-0.2,-0.4,3680,3752,,,,,,,,,,,,,,,,,
13686,1469914868310,,,,,,,-0.0,0.07,0.93,-2.8,-0.3,-0.4,3720,3769,,,,,,,,,,,,,,,,,
13706,1469914868330,,,,,,,0.03,0.1,0.97,-2.9,0.2,-0.0,3740,3715,,,,,,,,,,,,,,,,,
13726,1469914868350,,,,,,,-0.02,0.09,0.97,-2.9,0.5,0.0,3760,3752,,,,,,,,,,,,,,,,,
13746,1469914868370,,,,52,,,-0.02,0.09,0.94,-2.9,-0.4,0.3,3780,3715,0.982,4,39.544121,-122.334618,65.85,0.172,337.8,9,2,1.4,0,0.0,-1,0.0,,0.0,0
13766,1469914868390,,,,,,,0.01,0.09,0.99,-3.0,-1.0,0.3,3700,3789,,,,,,,,,,,,,,,,,
13786,1469914868410,,,,,,,0.01,0.12,0.98,-2.9,-0.3,0.4,3680,3696,,,,,,,,,,,,,,,,,
13806,1469914868430,,,,,,,-0.0,0.09,1.01,-2.9,0.9,0.5,3680,3733,,,,,,,,,,,,,,,,,
13826,1469914868450,,,,,,,-0.01,0.07,1.01,-2.9,0.9,0.5,3720,3715,,,,,,,,,,,,,,,,,
13846,1469914868470,0,237.9,191.9,75,193.4,,0.03,0.06,1.01,-3.1,0.4,0.6,3740,3752,1.013,4,39.544121,-122.334618,65.85,0.172,337.8,9,2,1.4,0,0.0,-1,0.0,0.0,0.0,0
13866,1469914868490,,,,,,,0.05,0.1,1.05,-3.1,0.8,0.6,3740,3715,,,,,,,,,,,,,,,,,
13886,1469914868408,,,,,,,0.02,0.1,1.02,-3.0,1.0,0.4,3780,3733,,,,,,,,,,,,,,,,,
13906,1469914868428,,,,,,,0.01,0.08,1.02,-3.2,-0.2,0.5,3740,3715,,,,,,,,,,,,,,,,,
13926,1469914868448,,,,,,,0.02,0.05,1.03,-2.9,-0.6,0.1,3660,3752,,,,,,,,,,,,,,,,,
13946,1469914868468,,,,48,,,0.02,0.07,1.07,-2.7,0.3,0.1,3660,3715,1.013,4,39.544102,-122.334648,65.76,0.174,338.3,9,2,1.4,0,0.0,-1,0.0,,0.0,0
13966,1469914868488,,,,,,,0.01,0.12,0.98,-2.7,0.9,0.0,3720,3715,,,,,,,,,,,,,,,,,
13986,1469914868508,,,,,,,0.03,0.1,0.98,-2.9,0.6,0.2,3740,3733,,,,,,,,,,,,,,,,,
14006,1469914868528,,,,,,,0.02,0.12,1.01,-2.7,0.8,-0.2,3640,3733,,,,,,,,,,,,,,,,,
14026,1469914868548,,,,,,,0.02,0.08,1.0,-2.6,1.1,-0.4,3720,3752,,,,,,,,,,,,,,,,,
14046,1469914868568,0,238.2,191.8,76,193.9,13.84,0.01,0.08,0.92,-2.5,0.6,-0.4,3760,3733,1.002,4,39.544083,-122.334671,65.75,0.176,338.8,9,2,1.4,0,0.0,-1,0.0,0.0,0.0,0
14066,1469914868588,,,,,,,0.01,0.04,0.97,-2.6,0.1,-0.1,3700,3715,,,,,,,,,,,,,,,,,
14086,1469914868608,,,,,,,-0.02,0.04,1.01,-2.4,0.6,-0.4,3660,3715,,,,,,,,,,,,,,,,,
14106,1469914868628,,,,,,,0.01,0.0,0.98,-2.2,0.2,-0.4,3720,3715,,,,,,,,,,,,,,,,,
14126,1469914868648,,,,,,,0.02,0.03,0.95,-2.1,0.6,-0.4,3660,3733,,,,,,,,,,,,,,,,,
14146,1469914868668,,,,61,,,0.02,0.01,0.97,-2.3,1.2,-0.0,3680,3715,0.995,4,39.544064,-122.334694,65.4,0.178,339.4,9,2,1.4,0,0.0,-1,0.0,,0.0,0
14166,1469914868688,,,,,,,-0.02,0.01,0.99,-2.3,1.6,-0.1,3720,3715,,,,,,,,,,,,,,,,,
14186,1469914868708,,,,,,,0.02,-0.0,0.95,-2.3,0.9,-0.2,3660,3733,,,,,,,,,,,,,,,,,
14206,1469914868728,,,,,,,0.02,0.04,0.99,-2.4,1.3,-0.3,3720,3696,,,,,,,,,,,,,,,,,
14226,1469914868748,,,,,,,0.01,0.02,0.99,-2.4,1.4,-0.3,3620,3733,,,,,,,,,,,,,,,,,
14246,1469914868768,0,237.7,191.4,40,193.3,,-0.0,-0.0,1.01,-2.4,1.2,-0.2,3620,3680,0.975,4,39.544044,-122.334724,65.26,0.18,339.9,9,2,1.4,0,0.0,-1,0.0,0.0,0.0,0
14266,1469914868788,,,,,,,0.03,-0.03,1.0,-2.5,0.6,-0.5,3680,3733,,,,,,,,,,,,,,,,,
14286,1469914868810,,,,,,,0.05,0.01,1.06,-2.5,1.0,-0.4,3640,3696,,,,,,,,,,,,,,,,,
14306,1469914868830,,,,,,,0.02,-0.01,1.0,-2.4,0.9,-0.3,3720,3680,,,,,,,,,,,,,,,,,
14326,1469914868850,,,,,,,0.0,-0.02,0.98,-2.5,-0.3,-0.4,3680,3733,,,,,,,,,,,,,,,,,
14346,1469914868870,,,,89,,,-0.01,-0.01,1.06,-2.5,0.1,-0.8,3720,3696,1.006,4,39.544029,-122.334747,65.27,0.181,340.5,9,2,1.4,0,0.0,-1,0.0,,0.0,0
14366,1469914868890,,,,,,,-0.01,-0.01,1.04,-2.4,0.2,-0.8,3660,3680,,,,,,,,,,,,,,,,,
14386,1469914868903,,,,,,,-0.02,0.01,0.93,-2.4,0.6,-0.7,3700,3733,,,,,,,,,,,,,,,,,
14406,1469914868923,,,,,,,-0.01,-0.01,0.93,-2.5,-0.0,-0.4,3660,3680,,,,,,,,,,,,,,,,,
14426,1469914868943,,,,,,,-0.03,0.02,0.98,-2.5,-0.3,-0.7,3680,3696,,,,,,,,,,,,,,,,,
14446,1469914868963,0,237.4,191.5,36,193.2,,-0.03,0.01,0.9,-2.6,-1.6,-0.7,3660,3715,1.005,4,39.54401,-122.334763,65.19,0.183,341.1,9,2,1.4,0,0.0,-1,0.0,0.0,0.0,0
14466,1469914868983,,,,,,,-0.01,0.04,0.89,-2.7,-1.5,-0.7,3720,3644,,,,,,,,,,,,,,,,,
14486,1469914869110,,,,,,,-0.02,0.01,0.93,-2.9,-1.0,-0.4,3640,3733,,,,,,,,,,,,,,,,,
14506,1469914869130,,,,,,,-0.03,-0.01,0.92,-2.7,-1.1,-0.1,3660,3661,,,,,,,,,,,,,,,,,
14526,1469914869150,,,,,,,0.01,-0.02,0.92,-2.7,-1.2,-0.3,3560,3680,,,,,,,,,,,,,,,,,
14546,1469914869170,,,,58,,,0.03,0.04,0.98,-2.8,-1.2,-0.3,3680,3661,0.989,4,39.543972,-122.334808,64.91,0.186,342.2,9,2,1.4,0,0.0,-1,0.0,,0.0,0
14566,1469914869190,,,,,,,-0.0,0.01,0.92,-2.7,-0.5,-0.3,3660,3715,,,,,,,,,,,,,,,,,
14586,1469914869210,,,,,,,0.0,0.01,0.93,-2.9,-0.9,-0.3,3680,3680,,,,,,,,,,,,,,,,,
14606,1469914869230,,,,,,,-0.02,0.01,0.98,-2.7,-0.5,-0.5,3700,3715,,,,,,,,,,,,,,,,,
14626,1469914869250,,,,,,,-0.01,-0.01,0.93,-2.6,-0.4,-0.6,3660,3733,,,,,,,,,,,,,,,,,
14646,1469914869270,0,238.5,192.2,49,193.9,,0.02,0.05,0.92,-2.5,-0.2,-0.6,3620,3661,0.996,4,39.543972,-122.334808,64.91,0.186,342.2,9,2,1.4,0,0.0,-1,0.0,0.0,0.0,0
14666,1469914869290,,,,,,,0.03,0.03,0.97,-2.7,0.4,-0.3,3640,3696,,,,,,,,,,,,,,,,,
14686,1469914869210,,,,,,,0.01,-0.0,1.0,-2.6,0.4,-0.5,3580,3661,,,,,,,,,,,,,,,,,
14706,1469914869230,,,,,,,0.03,-0.03,0.99,-2.4,-0.8,-0.2,3640,3696,,,,,,,,,,,,,,,,,
14726,1469914869250,,,,,,,0.01,0.01,0.99,-2.3,-0.3,-0.4,3740,3680,,,,,,,,,,,,,,,,,
14746,1469914869270,,,,56,,,-0.03,-0.01,0.93,-2.3,0.8,-0.1,3720,3680,0.978,4,39.543953,-122.334839,64.63,0.189,342.7,9,2,1.4,0,0.0,-1,0.0,,0.0,0
14766,1469914869290,,,,,,,-0.04,-0.02,0.91,-2.3,0.6,0.1,3640,3644,,,,,,,,,,,,,,,,,
14786,1469914869310,,,,,,,-0.03,-0.03,0.94,-2.3,0.7,-0.1,3680,3715,,,,,,,,,,,,,,,,,
14806,1469914869330,,,,,,,-0.03,-0.02,0.94,-2.3,0.6,-0.3,3600,3696,,,,,,,,,,,,,,,,,
14826,1469914869350,,,,,,,-0.03,0.0,0.88,-2.2,0.4,-0.4,3700,3661,,,,,,,,,,,,,,,,,
14846,1469914869370,0,237.9,191.8,55,193.6,,-0.04,-0.0,0.94,-2.6,0.3,-0.2,3680,3644,0.985,4,39.543934,-122.334862,64.68,0.19,343.3,9,2,1.4,0,0.0,-1,0.0,0.0,0.0,0
14866,1469914869390,,,,,,,-0.04,-0.03,0.97,-2.5,0.9,-0.4,3680,3644,,,,,,,,,,,,,,,,,
14886,1469914869408,,,,,,,-0.01,-0.04,0.99,-2.5,0.6,-0.5,3620,3715,,,,,,,,,,,,,,,,,
14906,1469914869428,,,,,,,0.02,0.03,0.97,-2.5,0.7,-0.5,3660,3680,,,,,,,,,,,,,,,,,
14926,1469914869448,,,,,,,0.0,0.03,0.99,-2.5,0.4,-0.7,3720,3661,,,,,,,,,,,,,,,,,
14946,1469914869468,,,,49,,,0.01,0.03,0.99,-2.7,-0.9,-0.6,3620,3680,0.979,4,39.543915,-122.334885,64.44,0.192,343.9,9,2,1.4,0,0.0,-1,0.0,,0.0,0
14966,1469914869488,,,,,,,-0.0,0.02,1.07,-2.7,-0.2,-0.7,3700,3696,,,,,,,,,,,,,,,,,
14986,1469914869508,,,,,,,-0.0,0.02,1.1,-2.6,0.8,-0.9,3660,3644,,,,,,,,,,,,,,,,,
15006,1469914869528,,,,,,,-0.01,0.01,1.03,-2.5,1.2,-1.0,3680,3661,,,,,,,,,,,,,,,,,
15026,1469914869548,,,,,,,-0.01,0.01,1.02,-2.6,1.4,-1.0,3620,3661,,,,,,,,,,,,,,,,,
15046,1469914869568,0,238.0,191.4,88,193.2,13.86,-0.03,0.02,1.03,-2.7,0.7,-0.7,3620,3644,1.004,4,39.5439,-122.3349,64.28,0.193,344.5,9,2,1.4,0,0.0,-1,0.0,0.0,0.0,0
15066,1469914869588,,,,,,,-0.02,0.01,0.98,-2.6,-0.2,-0.8,3600,3696,,,,,,,,,,,,,,,,,
15086,1469914869600,,,,,,,-0.01,0.07,1.0,-2.5,-0.3,-0.8,3720,3627,,,,,,,,,,,,,,,,,
15106,1469914869620,,,,,,,-0.05,0.02,0.97,-2.6,0.1,-0.6,3680,3644,,,,,,,,,,,,,,,,,
15126,1469914869640,,,,,,,-0.07,0.02,0.94,-2.5,-0.4,-0.3,3660,3680,,,,,,,,,,,,,,,,,
15146,1469914869660,,,,91,,,-0.05,0.01,0.99,-2.4,-0.1,-0.3,3680,3661,0.972,4,39.54388,-122.334923,64.33,0.195,345.0,9,2,1.4,0,0.0,-1,0.0,,0.0,0
15166,1469914869680,,,,,,,-0.04,-0.04,0.91,-2.4,-0.5,-0.2,3640,3680,,,,,,,,,,,,,,,,,
15186,1469914869708,,,,,,,-0.01,0.04,0.9,-2.4,-0.7,-0.2,3600,3644,,,,,,,,,,,,,,,,,
15206,1469914869728,,,,,,,-0.04,0.0,0.94,-2.6,-0.1,-0.2,3620,3644,,,,,,,,,,,,,,,,,
15226,1469914869748,,,,,,,-0.03,-0.0,0.95,-2.6,0.1,-0.2,3660,3627,,,,,,,,,,,,,,,,,
15246,1469914869768,0,237.6,191.0,40,192.9,,-0.01,-0.0,1.0,-2.5,0.5,-0.2,3680,3680,0.988,4,39.543861,-122.334953,64.31,0.197,345.6,9,2,1.4,0,0.0,-1,0.0,0.0,0.0,0
15266,1469914869788,,,,,,,-0.01,-0.0,1.04,-2.4,1.2,-0.5,3580,3661,,,,,,,,,,,,,,,,,
15286,1469914869910,,,,,,,-0.02,-0.03,0.97,-2.3,1.0,-0.7,3600,3680,,,,,,,,,,,,,,,,,
15306,1469914869930,,,,,,,-0.03,-0.07,0.98,-2.2,1.0,-0.5,3680,3627,,,,,,,,,,,,,,,,,
15326,1469914869950,,,,,,,-0.04,-0.08,1.0,-2.0,1.5,-0.8,3660,3610,,,,,,,,,,,,,,,,,
15346,1469914869970,,,,51,,,-0.0,-0.1,0.97,-2.0,0.9,-0.8,3600,3661,0.988,4,39.543819,-122.335007,63.93,0.201,346.7,9,2,1.4,0,0.0,-1,0.0,,0.0,0
15366,1469914869990,,,,,,,0.03,-0.05,0.99,-1.6,0.8,-0.9,3600,3593,,,,,,,,,,,,,,,,,
15386,1469914870010,,,,,,,-0.0,-0.04,0.96,-1.9,0.9,-0.5,3680,3644,,,,,,,,,,,,,,,,,
15406,1469914870030,,,,,,,-0.0,-0.03,0.95,-2.1,0.0,-0.4,3620,3644,,,,,,,,,,,,,,,,,
15426,1469914870050,,,,,,,-0.03,-0.07,1.01,-2.0,0.8,-0.5,3620,3644,,,,,,,,,,,,,,,,,
15446,1469914870070,0,237.9,191.3,47,193.3,,0.02,-0.05,0.94,-2.1,0.7,-0.2,3580,3661,1.015,4,39.543819,-122.335007,63.93,0.201,346.7,9,2,1.4,0,0.0,-1,0.0,0.0,0.0,0
15466,1469914870090,,,,,,,0.05,0.02,0.93,-2.2,0.7,-0.1,3660,3627,,,,,,,,,,,,,,,,,
15486,1469914870010,,,,,,,0.03,-0.02,0.96,-2.4,1.0,-0.0,3620,3661,,,,,,,,,,,,,,,,,
15506,1469914870030,,,,,,,0.01,0.02,0.94,-2.5,0.2,0.2,3660,3644,,,,,,,,,,,,,,,,,
15526,1469914870050,,,,,,,-0.01,0.03,1.02,-2.6,0.6,0.1,3640,3627,,,,,,,,,,,,,,,,,
15546,1469914870070,,,,55,,,-0.0,0.01,1.01,-2.7,0.7,-0.0,3560,3627,0.998,4,39.543804,-122.335014,63.91,0.203,347.3,9,2,1.4,0,0.0,-1,0.0,,0.0,0
15566,1469914870090,,,,,,,0.01,0.08,0.98,-2.8,1.1,-0.2,3640,3576,,,,,,,,,,,,,,,,,
15586,1469914870110,,,,,,,-0.02,0.06,0.99,-2.8,1.8,-0.1,3580,3610,,,,,,,,,,,,,,,,,
15606,1469914870130,,,,,,,-0.01,0.04,0.98,-2.8,0.9,-0.1,3640,3610,,,,,,,,,,,,,,,,,
15626,1469914870150,,,,,,,-0.03,0.06,1.03,-2.8,1.1,-0.3,3580,3610,,,,,,,,,,,,,,,,,
15646,1469914870170,0,238.5,192.4,51,194.2,,-0.01,0.04,1.02,-2.6,0.7,-0.4,3600,3627,0.996,4,39.543785,-122.335045,63.9,0.205,348.0,9,2,1.4,0,0.0,-1,0.0,0.0,0.0,0
15666,1469914870190,,,,,,,0.0,0.08,0.95,-2.6,1.1,-0.4,3520,3610,,,,,,,,,,,,,,,,,
15686,1469914870210,,,,,,,0.02,0.09,0.95,-2.7,1.2,-0.1,3580,3610,,,,,,,,,,,,,,,,,
15706,1469914870230,,,,,,,0.01,0.07,0.94,-2.8,0.2,0.0,3640,3610,,,,,,,,,,,,,,,,,
15726,1469914870250,,,,,,,0.0,0.08,1.0,-2.9,-0.0,-0.1,3540,3610,,,,,,,,,,,,,,,,,
15746,1469914870270,,,,52,,,0.02,0.09,1.04,-2.8,0.5,-0.3,3500,3610,0.996,4,39.543766,-122.335068,63.68,0.206,348.5,9,2,1.4,0,0.0,-1,0.0,,0.0,0
15766,1469914870290,,,,,,,0.04,0.12,1.02,-2.8,1.0,-0.5,3540,3593,,,,,,,,,,,,,,,,,
15786,1469914870310,,,,,,,-0.0,0.1,1.03,-2.9,1.3,-0.3,3580,3593,,,,,,,,,,,,,,,,,
15806,1469914870330,,,,,,,-0.01,0.1,1.01,-2.9,0.6,-0.3,3600,3593,,,,,,,,,,,,,,,,,
15826,1469914870350,,,,,,,-0.01,0.07,1.08,-2.8,0.8,-0.4,3560,3576,,,,,,,,,,,,,,,,,
15846,1469914870370,0,238.2,192.3,52,193.9,,0.01,0.06,1.05,-2.8,0.9,-0.5,3560,3610,0.987,4,39.543747,-122.335091,63.59,0.208,349.1,9,2,1.4,0,0.0,-1,0.0,0.0,0.0,0
15866,1469914870390,,,,,,,0.05,0.1,1.04,-2.7,1.0,-0.5,3580,3560,,,,,,,,,,,,,,,,,
15886,1469914870408,,,,,,,0.03,0.09,1.04,-2.7,1.0,-0.6,3600,3576,,,,,,,,,,,,,,,,,
15906,1469914870428,,,,,,,0.0,0.06,1.04,-2.6,1.2,-0.5,3560,3544,,,,,,,,,,,,,,,,,
15926,1469914870448,,,,,,,0.02,0.03,1.07,-2.6,1.7,-0.6,3460,3512,,,,,,,,,,,,,,,,,
15946,1469914870468,,,,55,,,0.04,0.04,1.07,-2.5,1.7,-1.0,3500,3512,1.011,4,39.543732,-122.335121,63.42,0.21,349.6,9,2,1.4,0,0.0,-1,0.0,,0.0,0
15966,1469914870488,,,,,,,0.05,0.04,1.1,-2.5,1.9,-1.0,3420,3464,,,,,,,,,,,,,,,,,
15986,1469914870508,,,,,,,0.06,0.07,1.08,-2.6,1.9,-0.9,3480,3418,,,,,,,,,,,,,,,,,
16006,1469914870528,,,,,,,0.05,0.07,1.1,-2.6,1.9,-0.6,3460,3449,,,,,,,,,,,,,,,,,
16026,1469914870548,,,,,,,0.04,0.1,1.11,-2.7,1.1,-0.4,3460,3627,,,,,,,,,,,,,,,,,
16046,1469914870568,0,238.2,192.2,55,194.0,13.81,0.02,0.07,1.05,-2.7,0.2,-0.5,3480,3527,1.009,4,39.543713,-122.335129,63.0,0.212,350.1,9,2,1.4,0,0.0,-1,0.0,0.0,0.0,0
16066,1469914870588,,,,,,,0.03,0.02,1.11,-2.5,0.8,-0.3,3480,3544,,,,,,,,,,,,,,,,,
16086,1469914870707,,,,,,,0.07,0.05,1.06,-2.3,0.8,-0.6,3460,3560,,,,,,,,,,,,,,,,,
16106,1469914870727,,,,,,,0.06,0.08,1.02,-2.3,1.1,-0.7,3300,3544,,,,,,,,,,,,,,,,,
16126,1469914870747,,,,,,,0.04,0.07,0.98,-2.2,0.6,-0.7,3380,3512,,,,,,,,,,,,,,,,,
16146,1469914870767,,,,66,,,0.05,0.07,0.98,-2.3,0.8,-0.5,3340,3527,0.963,4,39.543678,-122.335182,62.54,0.215,351.1,9,2,1.4,0,0.0,-1,0.0,,0.0,0
16166,1469914870787,,,,,,,0.08,0.08,1.0,-2.4,0.6,-0.5,3300,3512,,,,,,,,,,,,,,,,,
16186,1469914870807,,,,,,,0.1,0.07,0.97,-2.4,0.1,-0.4,3220,3480,,,,,,,,,,,,,,,,,
16206,1469914870827,,,,,,,0.09,0.03,0.92,-2.3,1.0,-0.2,3220,3527,,,,,,,,,,,,,,,,,
16226,1469914870847,,,,,,,0.1,0.06,0.9,-2.2,1.1,-0.3,3140,3512,,,,,,,,,,,,,,,,,
16246,1469914870867,0,238.1,191.8,56,193.5,,0.06,0.05,0.88,-2.3,0.8,-0.3,3140,3480,0.916,4,39.543678,-122.335182,62.54,0.215,351.1,9,2,1.4,0,0.0,-1,0.0,0.0,0.0,0
16266,1469914870887,,,,,,,0.04,-0.0,0.86,-2.5,0.6,-0.2,3060,3512,,,,,,,,,,,,,,,,,
16286,1469914870810,,,,,,,0.06,0.01,0.93,-2.5,0.5,-0.2,3120,3512,,,,,,,,,,,,,,,,,
16306,1469914870830,,,,,,,0.08,-0.01,0.9,-2.4,0.3,-0.1,2960,3464,,,,,,,,,,,,,,,,,
16326,1469914870850,,,,,,,0.1,0.01,0.87,-2.4,0.1,-0.1,3000,3480,,,,,,,,,,,,,,,,,
16346,1469914870870,,,,54,,,0.09,-0.02,0.89,-2.3,0.7,0.1,2840,3387,0.893,4,39.543659,-122.335205,62.48,0.217,351.6,9,2,1.4,0,0.0,-1,0.0,,0.0,0
16366,1469914870890,,,,,,,0.1,-0.03,0.94,-2.1,0.2,-0.1,3020,3527,,,,,,,,,,,,,,,,,
16386,1469914870903,,,,,,,0.11,-0.01,0.94,-2.2,-0.6,-0.2,2800,3433,,,,,,,,,,,,,,,,,
16406,1469914870923,,,,,,,0.11,0.0,0.97,-2.2,-0.9,-0.1,2900,3480,,,,,,,,,,,,,,,,,
16426,1469914870943,,,,,,,0.13,-0.01,0.98,-2.5,-0.6,-0.0,2880,3495,,,,,,,,,,,,,,,,,
16446,1469914870963,0,237.7,191.2,62,193.1,,0.14,-0.0,0.98,-2.6,-0.4,0.0,2780,3512,0.805,5,39.54364,-122.33522,61.89,0.219,352.1,9,2,1.4,0,0.0,-1,0.0,0.0,0.0,0
16466,1469914870983,,,,,,,0.13,0.0,0.93,-2.7,0.2,0.0,2800,3480,,,,,,,,,,,,,,,,,
16486,1469914871010,,,,,,,0.15,-0.02,0.86,-2.6,0.2,0.1,2720,3418,,,,,,,,,,,,,,,,,
16506,1469914871030,,,,,,,0.13,-0.03,0.89,-2.5,0.1,0.1,2620,3372,,,,,,,,,,,,,,,,,
16526,1469914871050,,,,,,,0.1,0.01,0.9,-2.7,0.2,0.2,2700,3403,,,,,,,,,,,,,,,,,
16546,1469914871070,,,,70,,,0.09,0.05,0.96,-3.1,0.2,0.1,2640,3418,0.809,5,39.543621,-122.335243,61.65,0.22,352.5,9,2,1.4,0,0.0,-1,0.0,,0.0,0
16566,1469914871090,,,,,,,0.12,-0.0,1.0,-3.0,0.3,-0.0,2580,3433,,,,,,,,,,,,,,,,,
16586,1469914871110,,,,,,,0.14,0.06,1.03,-2.9,0.5,-0.3,2580,3403,,,,,,,,,,,,,,,,,
16606,1469914871130,,,,,,,0.15,0.04,1.01,-3.1,1.0,-0.1,2500,3449,,,,,,,,,,,,,,,,,
16626,1469914871150,,,,,,,0.13,0.07,0.99,-3.0,1.3,-0.2,2440,3433,,,,,,,,,,,,,,,,,
16646,1469914871170,0,238.4,192.3,58,194.0,,0.11,0.08,0.96,-3.3,1.3,-0.0,2460,3286,0.719,5,39.543602,-122.335274,61.17,0.223,352.9,9,2,1.4,0,0.0,-1,0.0,0.0,0.0,0
16666,1469914871190,,,,,,,0.1,0.09,0.96,-3.2,0.8,-0.1,2500,3372,,,,,,,,,,,,,,,,,
16686,1469914871210,,,,,,,0.11,0.11,0.99,-3.3,0.4,0.0,2480,3272,,,,,,,,,,,,,,,,,
16706,1469914871230,,,,,,,0.11,0.08,1.03,-3.3,0.2,0.0,2520,3329,,,,,,,,,,,,,,,,,
16726,1469914871250,,,,,,,0.16,0.05,1.05,-3.3,-0.1,0.3,2540,3286,,,,,,,,,,,,,,,,,
16746,1469914871270,,,,38,,,0.21,0.05,1.05,-3.1,0.1,0.5,2640,3329,0.763,5,39.543587,-122.335297,60.86,0.224,353.4,9,2,1.4,0,0.0,-1,0.0,,0.0,0
16766,1469914871290,,,,,,,0.22,0.08,1.01,-3.0,0.5,0.7,2780,3272,,,,,,,,,,,,,,,,,
16786,1469914871310,,,,,,,0.24,0.04,0.98,-2.9,0.8,0.8,2740,3315,,,,,,,,,,,,,,,,,
16806,1469914871330,,,,,,,0.24,0.06,0.95,-2.8,0.5,0.6,2780,3272,,,,,,,,,,,,,,,,,
16826,1469914871350,,,,,,,0.24,0.06,0.95,-2.8,0.5,0.5,2840,3272,,,,,,,,,,,,,,,,,
16846,1469914871370,0,238.0,191.6,56,193.1,,0.23,0.08,0.95,-3.0,0.1,0.5,3040,3258,0.884,4,39.543568,-122.335312,60.31,0.226,353.8,9,2,1.4,0,0.0,-1,0.0,0.0,0.0,0
16866,1469914871390,,,,,,,0.22,0.12,0.97,-3.1,0.2,0.4,2980,3258,,,,,,,,,,,,,,,,,
16886,1469914871507,,,,,,,0.22,0.1,1.0,-3.0,0.0,0.4,3020,3244,,,,,,,,,,,,,,,,,
16906,1469914871527,,,,,,,0.23,0.07,1.04,-2.8,-0.4,0.2,3120,3244,,,,,,,,,,,,,,,,,
16926,1469914871547,,,,,,,0.23,0.07,1.06,-2.9,0.0,0.3,3200,3204,,,,,,,,,,,,,,,,,
16946,1469914871567,,,,88,,,0.27,0.07,1.09,-2.9,-0.5,0.2,3260,3190,0.966,4,39.543537,-122.335358,59.18,0.229,354.8,9,2,1.4,0,0.0,-1,0.0,,0.0,0
16966,1469914871587,,,,,,,0.28,0.05,1.08,-2.7,-0.3,0.2,3260,3218,,,,,,,,,,,,,,,,,
16986,1469914871607,,,,,,,0.31,0.07,1.07,-2.6,-0.6,0.3,3380,3190,,,,,,,,,,,,,,,,,
17006,1469914871627,,,,,,,0.32,0.08,1.09,-2.6,0.2,0.2,3420,3190,,,,,,,,,,,,,,,,,
17026,1469914871647,,,,,,,0.34,0.09,1.02,-2.5,0.2,0.0,3580,3138,,,,,,,,,,,,,,,,,
17046,1469914871667,0,238.0,191.5,52,193.9,13.84,0.34,0.09,1.03,-2.5,0.4,-0.1,3500,3126,1.101,4,39.543537,-122.335358,59.18,0.229,354.8,9,2,1.4,0,0.0,-1,0.0,0.0,0.0,0
17066,1469914871687,,,,,,,0.35,0.08,1.04,-2.5,0.6,-0.1,3700,3152,,,,,,,,,,,,,,,,,
17086,1469914871608,,,,,,,0.35,0.06,1.04,-2.4,1.0,0.1,3700,3164,,,,,,,,,,,,,,,,,
17106,1469914871628,,,,,,,0.35,0.06,0.98,-2.3,0.9,-0.1,3740,3138,,,,,,,,,,,,,,,,,
17126,1469914871648,,,,,,,0.33,0.04,0.99,-2.1,0.7,-0.3,3960,3138,,,,,,,,,,,,,,,,,
17146,1469914871668,,,,70,,,0.34,0.06,0.97,-2.1,0.0,-0.2,4000,3126,1.217,3,39.543522,-122.335373,58.36,0.23,355.3,9,2,1.4,0,0.0,-1,0.0,,0.0,0
17166,1469914871688,,,,,,,0.33,0.03,1.0,-2.1,-0.0,-0.2,3960,3164,,,,,,,,,,,,,,,,,
17186,1469914871708,,,,,,,0.3,0.02,0.99,-1.9,-0.3,-0.6,4020,3178,,,,,,,,,,,,,,,,,
17206,1469914871728,,,,,,,0.27,0.03,1.01,-2.1,-0.6,-0.4,4020,3178,,,,,,,,,,,,,,,,,
17226,1469914871748,,,,,,,0.23,0.02,1.01,-2.1,-0.4,-0.4,4060,3152,,,,,,,,,,,,,,,,,
17246,1469914871768,0,238.2,192.0,50,193.8,,0.21,0.08,1.02,-2.1,-0.5,-0.5,4040,3126,1.26,3,39.543503,-122.335403,57.54,0.232,355.8,9,2,1.4,0,0.0,-1,0.0,0.0,0.0,0
17266,1469914871788,,,,,,,0.19,0.07,0.97,-2.2,-0.6,-0.4,3960,3089,,,,,,,,,,,,,,,,,
17286,1469914871810,,,,,,,0.18,0.09,0.92,-2.3,-0.1,-0.5,3980,3089,,,,,,,,,,,,,,,,,
17306,1469914871830,,,,,,,0.18,0.13,0.92,-2.4,0.2,-0.5,3900,3089,,,,,,,,,,,,,,,,,
17326,1469914871850,,,,,,,0.19,0.09,0.94,-2.6,0.8,-0.4,3980,3076,,,,,,,,,,,,,,,,,
