"Interval"|"ms"|0|0|1,"Utc"|"ms"|0|0|1,"FuelLevel"|"F"|0|100|5,"OilTemp"|"F"|0.0|300.0|5,"Coolant"|"F"|0.0|300.0|5,"OilPress"|"PSI"|0|150|10,"EngineTemp"|"F"|0.0|300.0|5,"Battery"|"Volts"|0.0|20.0|1,"AccelX"|"G"|-3.0|3.0|50,"AccelY"|"G"|-3.0|3.0|50,"AccelZ"|"G"|-3.0|3.0|50,"Yaw"|"Deg/Sec"|-300.0|300.0|50,"Pitch"|"Deg/Sec"|-300.0|300.0|50,"Roll"|"Deg/Sec"|-300.0|300.0|50,"RPM"|""|0|10000|50,"Driveshaft"|"RPM"|0|5000|50,"GearRatio"|""|-5.0|5.0|10,"Gear"|""|-1|5|10,"Latitude"|"Degrees"|-180.0|180.0|10,"Longitude"|"Degrees"|-180.0|180.0|10,"Speed"|"MPH"|0.0|150.0|10,"Distance"|"Miles"|0.0|0.0|10,"Altitude"|"Feet"|0.0|4000.0|10,"GPSSats"|""|0|20|10,"GPSQual"|""|0|5|10,"GPSDOP"|""|0.0|20.0|10,"LapCount"|""|0|0|10,"LapTime"|"Min"|0.0|0.0|10,"Sector"|""|0|0|10,"SectorTime"|"Min"|0.0|0.0|10,"PredTime"|"Min"|0.0|0.0|5,"ElapsedTime"|"Min"|0.0|0.0|10,"CurrentLap"|""|0|0|10
5066,1469915300144,,,,,,,0.06,0.1,1.01,-2.6,-0.6,-0.3,2940,3015,,,,,,,,,,,,,,,,,
5086,1469915300164,,,,,,,0.06,0.08,1.03,-2.7,-0.0,-0.2,2880,3064,,,,,,,,,,,,,,,,,
5106,1469915300184,,,,,,,0.06,0.09,1.02,-2.8,0.3,-0.0,2980,3052,,,,,,,,,,,,,,,,,
5126,1469915300204,,,,,,,0.07,0.07,1.04,-3.0,0.4,0.0,3000,3052,,,,,,,,,,,,,,,,,
5146,1469915300220,,,,57,,,0.07,0.07,1.02,-3.1,0.9,0.1,3100,3126,1.011,4,39.543018,-122.332802,54.83,0.002,304.2,8,2,1.6,0,0.0,-1,0.0,,0.0,0
5166,1469915300240,,,,,,,0.09,0.09,1.05,-3.2,1.7,0.0,3160,3152,,,,,,,,,,,,,,,,,
5186,1469915300260,,,,,,,0.09,0.11,1.05,-3.3,1.5,0.0,3160,3126,,,,,,,,,,,,,,,,,
5206,1469915300280,,,,,,,0.09,0.11,1.02,-3.2,1.4,0.0,3080,3089,,,,,,,,,,,,,,,,,
5226,1469915300303,,,,,,,0.09,0.1,0.99,-2.9,0.9,-0.1,3020,3076,,,,,,,,,,,,,,,,,
5246,1469915300323,0,265.6,206.7,49,210.4,,0.09,0.08,1.01,-2.9,0.8,0.3,3040,3040,1.011,4,39.543041,-122.332802,54.73,0.003,304.4,8,2,1.6,0,0.0,-1,0.0,0.0,0.0,0
5266,1469915300343,,,,,,,0.07,0.07,1.0,-2.9,0.6,0.2,3020,3040,,,,,,,,,,,,,,,,,
5286,1469915300363,,,,,,,0.07,0.07,0.96,-3.0,0.6,0.1,3000,3052,,,,,,,,,,,,,,,,,
5306,1469915300383,,,,,,,0.07,0.08,0.93,-3.1,0.1,0.2,3120,3089,,,,,,,,,,,,,,,,,
5326,1469915300403,,,,,,,0.06,0.08,0.91,-3.1,-0.8,0.3,3020,3089,,,,,,,,,,,,,,,,,
5346,1469915300420,,,,62,,,0.05,0.09,0.9,-3.3,-1.8,0.4,3140,3101,0.975,4,39.543068,-122.332802,54.57,0.005,304.5,9,2,1.4,0,0.0,-1,0.0,,0.0,0
5366,1469915300440,,,,,,,0.04,0.09,0.91,-3.4,-2.1,0.3,3120,3076,,,,,,,,,,,,,,,,,
5386,1469915300460,,,,,,,0.06,0.12,0.93,-3.6,-2.1,0.1,3060,3076,,,,,,,,,,,,,,,,,
5406,1469915300480,,,,,,,0.08,0.16,0.95,-3.9,-2.0,0.0,3060,3052,,,,,,,,,,,,,,,,,
5426,1469915300500,,,,,,,0.1,0.19,0.97,-4.2,-1.8,-0.0,3040,3076,,,,,,,,,,,,,,,,,
5446,1469915300520,0,264.5,205.8,59,209.6,,0.1,0.21,1.01,-4.4,-1.3,-0.1,2960,3064,0.999,4,39.543087,-122.332802,54.44,0.007,304.4,9,2,1.4,0,0.0,-1,0.0,0.0,0.0,0
5466,1469915300540,,,,,,,0.12,0.23,1.01,-4.6,-0.9,-0.3,3040,3064,,,,,,,,,,,,,,,,,
5486,1469915300560,,,,,,,0.14,0.24,1.05,-4.5,-0.8,-0.4,3080,3052,,,,,,,,,,,,,,,,,
5506,1469915300580,,,,,,,0.15,0.25,1.04,-4.5,-0.4,-0.5,3000,3076,,,,,,,,,,,,,,,,,
5526,1469915300600,,,,,,,0.17,0.24,1.05,-4.3,-0.1,-0.6,3060,3052,,,,,,,,,,,,,,,,,
5546,1469915300619,,,,55,,,0.16,0.23,1.03,-4.1,0.5,-0.7,2980,3027,1.005,4,39.54311,-122.332802,54.07,0.008,304.6,9,2,1.4,0,0.0,-1,0.0,,0.0,0
5566,1469915300639,,,,,,,0.15,0.21,1.04,-4.0,0.9,-0.7,3100,3040,,,,,,,,,,,,,,,,,
5586,1469915300659,,,,,,,0.15,0.18,1.01,-3.8,1.5,-0.7,3000,3015,,,,,,,,,,,,,,,,,
5606,1469915300679,,,,,,,0.14,0.16,1.02,-3.7,1.6,-0.8,3040,3015,,,,,,,,,,,,,,,,,
5626,1469915300699,,,,,,,0.12,0.11,1.01,-3.5,2.1,-0.9,3000,3027,,,,,,,,,,,,,,,,,
5646,1469915300818,0,266.0,206.7,42,210.5,,0.11,0.09,1.01,-3.4,2.5,-1.0,3020,3004,0.995,4,39.543156,-122.332802,53.7,0.011,304.6,9,2,1.4,0,0.0,-1,0.0,0.0,0.0,0
5666,1469915300838,,,,,,,0.1,0.08,0.99,-3.3,3.1,-0.8,2960,3015,,,,,,,,,,,,,,,,,
5686,1469915300858,,,,,,,0.1,0.06,0.99,-3.2,2.9,-0.9,3020,2992,,,,,,,,,,,,,,,,,
5706,1469915300878,,,,,,,0.09,0.04,0.99,-3.0,3.2,-0.9,2940,3004,,,,,,,,,,,,,,,,,
5726,1469915300898,,,,,,,0.09,0.02,0.99,-2.8,3.2,-0.9,2920,2980,,,,,,,,,,,,,,,,,
5746,1469915300918,,,,54,,,0.07,0.0,1.0,-2.7,3.5,-0.9,3000,3004,1.005,4,39.543156,-122.332802,53.7,0.011,304.6,9,2,1.4,0,0.0,-1,0.0,,0.0,0
5766,1469915300938,,,,,,,0.09,0.0,0.99,-2.6,3.5,-1.0,2940,2969,,,,,,,,,,,,,,,,,
5786,1469915300958,,,,,,,0.1,-0.03,0.97,-2.5,4.0,-0.9,3020,2980,,,,,,,,,,,,,,,,,
5806,1469915300978,,,,,,,0.11,-0.06,1.0,-2.5,4.4,-0.9,2920,2969,,,,,,,,,,,,,,,,,
5826,1469915300998,,,,,,,0.12,-0.06,0.96,-2.2,4.4,-0.8,2980,2969,,,,,,,,,,,,,,,,,
5846,1469915300916,0,264.8,206.0,48,209.8,,0.14,-0.06,0.97,-2.2,4.9,-0.7,2940,2980,1.021,4,39.543179,-122.332802,53.67,0.013,304.5,9,2,1.4,0,0.0,-1,0.0,0.0,0.0,0
5866,1469915300936,,,,,,,0.15,-0.07,0.96,-2.0,5.0,-0.7,2980,2958,,,,,,,,,,,,,,,,,
5886,1469915300956,,,,,,,0.18,-0.07,0.96,-1.8,4.8,-0.8,2920,2958,,,,,,,,,,,,,,,,,
5906,1469915300976,,,,,,,0.2,-0.06,0.95,-1.6,4.6,-0.9,2960,2980,,,,,,,,,,,,,,,,,
5926,1469915301002,,,,,,,0.21,-0.06,0.96,-1.5,4.5,-0.9,2960,2980,,,,,,,,,,,,,,,,,
5946,1469915301022,,,,44,,,0.21,-0.07,0.97,-1.3,4.2,-0.8,2920,2992,0.991,4,39.543201,-122.332802,53.34,0.014,304.4,9,2,1.4,0,0.0,-1,0.0,,0.0,0
5966,1469915301042,,,,,,,0.22,-0.05,0.97,-1.1,3.5,-0.8,2860,2980,,,,,,,,,,,,,,,,,
5986,1469915301062,,,,,,,0.21,-0.05,0.99,-1.0,3.6,-0.7,2800,2969,,,,,,,,,,,,,,,,,
6006,1469915301082,,,,,,,0.21,-0.04,1.02,-0.9,3.5,-0.6,2900,2958,,,,,,,,,,,,,,,,,
6026,1469915301102,,,,,,,0.2,-0.02,1.05,-1.0,3.4,-0.6,2820,2958,,,,,,,,,,,,,,,,,
6046,1469915301122,0,265.5,206.9,38,210.5,13.71,0.18,-0.02,1.04,-1.1,3.3,-0.5,2760,2935,0.95,4,39.543224,-122.332802,52.99,0.016,304.4,9,2,1.4,0,0.0,-1,0.0,0.0,0.0,0
6066,1469915301142,,,,,,,0.17,-0.06,1.02,-1.0,3.3,-0.2,2680,2924,,,,,,,,,,,,,,,,,
6086,1469915301162,,,,,,,0.16,-0.07,1.03,-1.0,3.1,-0.1,2660,2946,,,,,,,,,,,,,,,,,
6106,1469915301182,,,,,,,0.16,-0.04,1.06,-0.9,3.4,-0.1,2640,2924,,,,,,,,,,,,,,,,,
6126,1469915301202,,,,,,,0.16,-0.04,1.04,-1.0,3.7,-0.1,2560,2924,,,,,,,,,,,,,,,,,
6146,1469915301222,,,,66,,,0.18,-0.06,1.02,-1.1,3.3,0.1,2640,2912,0.91,4,39.543243,-122.332802,52.55,0.017,304.5,9,2,1.4,0,0.0,-1,0.0,,0.0,0
6166,1469915301242,,,,,,,0.18,-0.05,1.04,-1.0,2.7,0.0,2540,2946,,,,,,,,,,,,,,,,,
6186,1469915301262,,,,,,,0.17,-0.01,1.04,-1.1,2.3,0.0,2580,2935,,,,,,,,,,,,,,,,,
6206,1469915301282,,,,,,,0.18,-0.01,1.03,-1.2,2.7,-0.1,2460,2901,,,,,,,,,,,,,,,,,
6226,1469915301303,,,,,,,0.18,0.03,1.02,-1.3,2.3,-0.2,2400,2924,,,,,,,,,,,,,,,,,
6246,1469915301323,0,265.3,206.9,44,210.4,,0.18,0.02,1.03,-1.5,2.4,-0.3,2380,2901,0.886,4,39.543266,-122.332802,52.02,0.019,304.5,9,2,1.4,0,0.0,-1,0.0,0.0,0.0,0
6266,1469915301343,,,,,,,0.19,0.08,0.99,-1.6,2.2,-0.3,2400,2869,,,,,,,,,,,,,,,,,
6286,1469915301363,,,,,,,0.22,0.06,0.99,-1.4,2.5,-0.3,2320,2869,,,,,,,,,,,,,,,,,
6306,1469915301383,,,,,,,0.23,0.08,0.98,-1.6,2.4,-0.3,2280,2847,,,,,,,,,,,,,,,,,
6326,1469915301401,,,,,,,0.24,0.08,0.97,-1.5,2.3,-0.5,2280,2838,,,,,,,,,,,,,,,,,
6346,1469915301421,,,,39,,,0.23,0.05,0.97,-1.5,2.8,-0.5,2240,2858,0.812,5,39.543285,-122.332802,51.66,0.02,304.5,9,2,1.4,0,0.0,-1,0.0,,0.0,0
6366,1469915301441,,,,,,,0.25,0.05,0.95,-1.5,2.3,-0.5,2220,2869,,,,,,,,,,,,,,,,,
6386,1469915301461,,,,,,,0.26,0.09,0.93,-1.4,1.6,-0.7,2240,2827,,,,,,,,,,,,,,,,,
6406,1469915301481,,,,,,,0.26,0.11,0.94,-1.4,1.3,-0.7,2140,2838,,,,,,,,,,,,,,,,,
6426,1469915301593,,,,,,,0.26,0.09,0.95,-1.5,0.8,-0.6,2140,2816,,,,,,,,,,,,,,,,,
6446,1469915301613,0,265.0,206.4,41,210.0,,0.25,0.08,0.96,-1.6,0.3,-0.6,2120,2806,0.768,5,39.543331,-122.332802,50.52,0.023,304.5,9,2,1.4,0,0.0,-1,0.0,0.0,0.0,0
6466,1469915301633,,,,,,,0.24,0.08,0.97,-1.6,-0.4,-0.6,2080,2806,,,,,,,,,,,,,,,,,
6486,1469915301653,,,,,,,0.24,0.07,0.97,-1.6,-0.7,-0.4,2060,2796,,,,,,,,,,,,,,,,,
6506,1469915301673,,,,,,,0.24,0.06,0.97,-1.6,-0.5,-0.4,2000,2776,,,,,,,,,,,,,,,,,
6526,1469915301693,,,,,,,0.25,0.05,0.95,-1.6,-0.5,-0.4,2000,2847,,,,,,,,,,,,,,,,,
6546,1469915301713,,,,36,,,0.27,0.07,0.95,-1.4,-0.6,-0.4,1940,2880,0.739,5,39.543331,-122.332802,50.52,0.023,304.5,9,2,1.4,0,0.0,-1,0.0,,0.0,0
6566,1469915301733,,,,,,,0.29,0.07,0.94,-1.6,-0.6,-0.3,1920,2847,,,,,,,,,,,,,,,,,
6586,1469915301753,,,,,,,0.31,0.07,0.93,-1.6,-0.7,-0.5,1900,2827,,,,,,,,,,,,,,,,,
6606,1469915301773,,,,,,,0.32,0.06,0.93,-1.6,-0.8,-0.5,1880,2786,,,,,,,,,,,,,,,,,
6626,1469915301692,,,,,,,0.31,0.07,0.94,-1.6,-1.0,-0.6,1820,2756,,,,,,,,,,,,,,,,,
6646,1469915301712,0,264.5,206.1,24,209.9,,0.32,0.05,0.95,-1.6,-0.8,-0.6,1820,2736,0.682,5,39.54335,-122.332802,50.19,0.025,304.3,9,2,1.4,0,0.0,-1,0.0,0.0,0.0,0
6666,1469915301732,,,,,,,0.31,0.04,0.96,-1.7,-0.5,-0.4,1780,2727,,,,,,,,,,,,,,,,,
6686,1469915301752,,,,,,,0.3,0.05,0.97,-1.6,-0.7,-0.5,1720,2716,,,,,,,,,,,,,,,,,
6706,1469915301772,,,,,,,0.32,0.08,0.96,-1.7,-0.9,-0.5,1740,2727,,,,,,,,,,,,,,,,,
6726,1469915301795,,,,,,,0.32,0.05,0.99,-1.7,-0.9,-0.5,1680,2736,,,,,,,,,,,,,,,,,
6746,1469915301815,,,,20,,,0.31,0.03,0.99,-1.8,-0.5,-0.5,1620,2756,0.633,5,39.543373,-122.332802,49.47,0.026,304.3,9,2,1.4,0,0.0,-1,0.0,,0.0,0
6766,1469915301835,,,,,,,0.29,0.07,0.98,-1.8,-0.7,-0.3,1640,2736,,,,,,,,,,,,,,,,,
6786,1469915301855,,,,,,,0.29,0.04,0.97,-1.6,-0.6,-0.2,1620,2736,,,,,,,,,,,,,,,,,
6806,1469915301875,,,,,,,0.29,0.03,0.98,-1.5,-0.1,-0.2,1560,2727,,,,,,,,,,,,,,,,,
6826,1469915301895,,,,,,,0.3,0.03,0.98,-1.5,0.2,-0.3,1520,2716,,,,,,,,,,,,,,,,,
6846,1469915301909,0,265.5,206.6,15,210.4,,0.29,0.01,0.96,-1.4,0.0,-0.1,1500,2689,0.592,0,39.543392,-122.332802,48.93,0.028,304.2,9,2,1.4,0,0.0,-1,0.0,0.0,0.0,0
6866,1469915301929,,,,,,,0.27,0.02,0.94,-1.4,0.0,-0.1,1480,2689,,,,,,,,,,,,,,,,,
6886,1469915301949,,,,,,,0.29,0.04,0.96,-1.6,-0.1,0.1,1460,2680,,,,,,,,,,,,,,,,,
6906,1469915301969,,,,,,,0.29,0.04,0.96,-1.7,0.1,0.5,1400,2689,,,,,,,,,,,,,,,,,
6926,1469915301995,,,,,,,0.29,0.07,0.95,-2.0,0.6,0.8,1400,2689,,,,,,,,,,,,,,,,,
6946,1469915302015,,,,15,,,0.28,0.1,0.97,-2.3,0.4,1.0,1360,2661,0.536,0,39.543411,-122.332802,48.51,0.029,304.3,9,2,1.4,0,0.0,-1,0.0,,0.0,0
6966,1469915302035,,,,,,,0.28,0.11,0.96,-2.7,1.0,1.3,1340,2652,,,,,,,,,,,,,,,,,
6986,1469915302055,,,,,,,0.28,0.13,0.96,-3.0,1.2,1.3,1300,2580,,,,,,,,,,,,,,,,,
7006,1469915302075,,,,,,,0.29,0.12,0.95,-3.2,1.7,1.2,1260,2555,,,,,,,,,,,,,,,,,
7026,1469915302095,,,,,,,0.31,0.16,0.95,-3.7,1.8,1.1,1280,2615,,,,,,,,,,,,,,,,,
7046,1469915302115,0,264.3,205.9,15,209.7,13.73,0.34,0.17,0.96,-4.2,2.0,1.0,1280,2580,0.49,0,39.54343,-122.332802,47.92,0.03,304.2,9,2,1.4,0,0.0,-1,0.0,0.0,0.0,0
7066,1469915302135,,,,,,,0.36,0.2,0.96,-4.5,1.7,0.9,1260,2572,,,,,,,,,,,,,,,,,
7086,1469915302155,,,,,,,0.36,0.2,0.98,-4.9,1.2,0.9,1280,2598,,,,,,,,,,,,,,,,,
7106,1469915302175,,,,,,,0.35,0.21,0.98,-5.1,1.3,0.8,1320,2555,,,,,,,,,,,,,,,,,
7126,1469915302195,,,,,,,0.37,0.21,0.99,-5.3,1.5,0.7,1320,2546,,,,,,,,,,,,,,,,,
7146,1469915302215,,,,12,,,0.37,0.21,0.99,-5.4,1.0,0.6,1320,2521,0.496,0,39.543449,-122.332802,47.34,0.032,304.3,9,2,1.4,0,0.0,-1,0.0,,0.0,0
7166,1469915302235,,,,,,,0.37,0.18,1.02,-5.3,1.2,0.3,1380,2529,,,,,,,,,,,,,,,,,
7186,1469915302255,,,,,,,0.4,0.21,1.01,-5.2,1.5,-0.1,1340,2521,,,,,,,,,,,,,,,,,
7206,1469915302275,,,,,,,0.43,0.2,1.02,-5.2,1.2,-0.2,1380,2480,,,,,,,,,,,,,,,,,
7226,1469915302394,,,,,,,0.42,0.18,1.0,-5.0,0.9,-0.1,1420,2472,,,,,,,,,,,,,,,,,
7246,1469915302414,0,264.3,205.8,17,209.7,,0.43,0.18,0.98,-4.8,0.7,0.1,1420,2472,0.549,0,39.543488,-122.332802,46.09,0.034,304.5,9,2,1.4,0,0.0,-1,0.0,0.0,0.0,0
7266,1469915302434,,,,,,,0.44,0.18,0.99,-4.6,0.1,0.1,1440,2472,,,,,,,,,,,,,,,,,
7286,1469915302454,,,,,,,0.45,0.2,0.98,-4.5,0.1,0.1,1480,2433,,,,,,,,,,,,,,,,,
7306,1469915302474,,,,,,,0.47,0.19,0.97,-4.4,-0.0,-0.0,1520,2441,,,,,,,,,,,,,,,,,
7326,1469915302494,,,,,,,0.47,0.18,0.98,-4.1,-0.3,-0.2,1500,2418,,,,,,,,,,,,,,,,,
7346,1469915302514,,,,21,,,0.47,0.15,0.96,-3.8,-0.1,-0.2,1500,2403,0.606,0,39.543488,-122.332802,46.09,0.034,304.5,9,2,1.4,0,0.0,-1,0.0,,0.0,0
7366,1469915302534,,,,,,,0.5,0.18,0.95,-3.5,-0.6,-0.2,1540,2366,,,,,,,,,,,,,,,,,
7386,1469915302554,,,,,,,0.51,0.18,0.97,-3.4,-0.8,-0.0,1580,2380,,,,,,,,,,,,,,,,,
7406,1469915302574,,,,,,,0.53,0.17,0.93,-3.1,-0.3,-0.0,1600,2336,,,,,,,,,,,,,,,,,
7426,1469915302492,,,,,,,0.53,0.15,0.95,-2.9,-0.3,0.1,1620,2330,,,,,,,,,,,,,,,,,
7446,1469915302512,0,263.3,205.2,22,209.0,,0.53,0.16,0.94,-2.7,-0.2,0.3,1680,2330,0.67,5,39.543507,-122.332802,45.19,0.036,304.7,9,2,1.4,0,0.0,-1,0.0,0.0,0.0,0
7466,1469915302532,,,,,,,0.55,0.16,0.97,-2.5,-0.5,0.3,1680,2295,,,,,,,,,,,,,,,,,
7486,1469915302552,,,,,,,0.53,0.16,0.96,-2.4,-0.3,0.2,1720,2316,,,,,,,,,,,,,,,,,
7506,1469915302572,,,,,,,0.55,0.14,0.98,-2.4,-0.4,0.1,1760,2295,,,,,,,,,,,,,,,,,
7526,1469915302592,,,,,,,0.55,0.13,0.99,-2.3,-1.0,-0.2,1800,2281,,,,,,,,,,,,,,,,,
7546,1469915302612,,,,25,,,0.56,0.14,0.99,-2.3,-0.9,-0.3,1820,2247,0.74,5,39.543526,-122.332802,43.89,0.037,304.8,9,2,1.4,0,0.0,-1,0.0,,0.0,0
7566,1469915302632,,,,,,,0.56,0.15,0.97,-2.2,-0.6,-0.3,1840,2255,,,,,,,,,,,,,,,,,
7586,1469915302652,,,,,,,0.57,0.14,0.98,-2.1,-0.1,-0.4,1880,2255,,,,,,,,,,,,,,,,,
7606,1469915302672,,,,,,,0.56,0.11,0.98,-1.9,0.1,-0.5,1900,2229,,,,,,,,,,,,,,,,,
7626,1469915302692,,,,,,,0.58,0.13,0.97,-1.6,0.4,-0.6,1920,2209,,,,,,,,,,,,,,,,,
7646,1469915302710,0,265.6,206.5,27,210.5,,0.59,0.12,0.97,-1.7,0.4,-0.7,1960,2229,0.837,5,39.543545,-122.332802,42.81,0.038,304.8,9,2,1.4,0,0.0,-1,0.0,0.0,0.0,0
7666,1469915302730,,,,,,,0.6,0.09,0.99,-1.5,0.3,-1.0,1960,2209,,,,,,,,,,,,,,,,,
7686,1469915302750,,,,,,,0.6,0.08,0.98,-1.2,0.2,-1.4,1980,2209,,,,,,,,,,,,,,,,,
7706,1469915302770,,,,,,,0.61,0.07,0.98,-0.9,0.2,-1.6,2020,2203,,,,,,,,,,,,,,,,,
7726,1469915302795,,,,,,,0.61,0.07,0.96,-0.7,-0.2,-1.9,2000,2184,,,,,,,,,,,,,,,,,
7746,1469915302815,,,,31,,,0.61,0.05,0.97,-0.4,-0.6,-1.8,2000,2184,0.896,4,39.543564,-122.332802,41.82,0.04,304.9,9,2,1.4,0,0.0,-1,0.0,,0.0,0
7766,1469915302835,,,,,,,0.59,0.04,0.96,-0.1,-0.6,-1.8,2020,2190,,,,,,,,,,,,,,,,,
7786,1469915302855,,,,,,,0.57,0.03,0.92,0.2,-0.6,-1.9,1960,2196,,,,,,,,,,,,,,,,,
7806,1469915302875,,,,,,,0.57,-0.0,0.93,0.4,-0.5,-1.6,1940,2190,,,,,,,,,,,,,,,,,
7826,1469915302895,,,,,,,0.55,-0.02,0.91,0.8,-0.9,-1.7,1940,2190,,,,,,,,,,,,,,,,,
7846,1469915302909,0,263.6,206.6,26,210.2,,0.53,-0.01,0.9,1.0,-0.8,-1.6,1900,2172,0.9,4,39.543579,-122.332802,40.6,0.041,304.9,9,2,1.4,0,0.0,-1,0.0,0.0,0.0,0
7866,1469915302929,,,,,,,0.51,0.0,0.9,1.1,-1.0,-1.6,1860,2153,,,,,,,,,,,,,,,,,
7886,1469915302949,,,,,,,0.5,-0.02,0.88,1.2,-1.2,-1.6,1860,2141,,,,,,,,,,,,,,,,,
7906,1469915302969,,,,,,,0.48,-0.03,0.9,1.2,-0.9,-1.5,1800,2124,,,,,,,,,,,,,,,,,
7926,1469915302994,,,,,,,0.46,-0.02,0.92,1.3,-0.8,-1.4,1780,2106,,,,,,,,,,,,,,,,,
7946,1469915303014,,,,19,,,0.46,-0.05,0.92,1.5,-0.6,-1.4,1740,2101,0.852,4,39.543594,-122.332802,39.33,0.042,305.1,9,2,1.4,0,0.0,-1,0.0,,0.0,0
7966,1469915303034,,,,,,,0.45,-0.02,0.93,1.6,-0.5,-1.2,1740,2078,,,,,,,,,,,,,,,,,
7986,1469915303054,,,,,,,0.44,-0.02,0.92,1.5,-0.1,-1.0,1680,2078,,,,,,,,,,,,,,,,,
8006,1469915303074,,,,,,,0.43,-0.02,0.94,1.5,0.1,-1.0,1620,2078,,,,,,,,,,,,,,,,,
8026,1469915303193,,,,,,,0.42,-0.03,0.96,1.5,-0.1,-0.8,1640,2061,,,,,,,,,,,,,,,,,
8046,1469915303213,0,263.5,206.6,34,210.3,13.72,0.42,-0.03,0.99,1.5,0.1,-0.6,1600,2067,0.808,5,39.543621,-122.332802,37.51,0.043,305.2,9,2,1.4,0,0.0,-1,0.0,0.0,0.0,0
8066,1469915303233,,,,,,,0.4,-0.07,0.99,1.8,0.6,-0.5,1580,2072,,,,,,,,,,,,,,,,,
8086,1469915303253,,,,,,,0.41,-0.06,0.99,1.9,0.5,-0.2,1540,2055,,,,,,,,,,,,,,,,,
8106,1469915303273,,,,,,,0.41,-0.08,0.96,1.9,0.4,0.1,1520,2050,,,,,,,,,,,,,,,,,
8126,1469915303293,,,,,,,0.39,-0.07,0.96,1.9,0.3,0.2,1500,2033,,,,,,,,,,,,,,,,,
8146,1469915303313,,,,17,,,0.39,-0.06,0.99,1.8,0.3,0.1,1460,2012,0.751,5,39.543621,-122.332802,37.51,0.043,305.2,9,2,1.4,0,0.0,-1,0.0,,0.0,0
8166,1469915303333,,,,,,,0.36,-0.04,0.98,1.7,0.5,-0.0,1420,2023,,,,,,,,,,,,,,,,,
8186,1469915303353,,,,,,,0.36,-0.04,0.98,1.8,0.1,0.1,1400,2007,,,,,,,,,,,,,,,,,
8206,1469915303373,,,,,,,0.36,-0.06,0.99,1.9,0.0,0.2,1360,1986,,,,,,,,,,,,,,,,,
8226,1469915303295,,,,,,,0.36,-0.05,0.99,2.0,-0.1,0.4,1320,1996,,,,,,,,,,,,,,,,,
8246,1469915303315,0,265.3,205.3,16,209.1,,0.36,-0.08,0.98,2.0,-0.3,0.5,1300,1981,0.689,5,39.54364,-122.332802,36.77,0.045,305.2,9,2,1.4,0,0.0,-1,0.0,0.0,0.0,0
8266,1469915303335,,,,,,,0.36,-0.09,0.98,2.2,-0.3,0.3,1260,1981,,,,,,,,,,,,,,,,,
8286,1469915303355,,,,,,,0.35,-0.13,0.97,2.4,0.1,0.5,1260,1981,,,,,,,,,,,,,,,,,
8306,1469915303375,,,,,,,0.35,-0.14,0.99,2.8,0.0,0.1,1200,1966,,,,,,,,,,,,,,,,,
8326,1469915303392,,,,,,,0.37,-0.11,1.0,3.1,-0.0,-0.1,1180,1952,,,,,,,,,,,,,,,,,
8346,1469915303412,,,,14,,,0.38,-0.18,1.0,3.4,0.1,-0.1,1160,1952,0.638,5,39.543655,-122.332802,35.98,0.046,305.1,9,2,1.4,0,0.0,-1,0.0,,0.0,0
8366,1469915303432,,,,,,,0.39,-0.16,0.99,3.9,0.1,-0.3,1120,1936,,,,,,,,,,,,,,,,,
8386,1469915303452,,,,,,,0.39,-0.14,1.0,4.2,0.1,-0.3,1080,1923,,,,,,,,,,,,,,,,,
8406,1469915303472,,,,,,,0.38,-0.17,1.0,4.5,0.5,-0.3,1100,1912,,,,,,,,,,,,,,,,,
8426,1469915303491,,,,,,,0.38,-0.17,1.0,5.0,0.8,-0.5,1020,1912,,,,,,,,,,,,,,,,,
8446,1469915303511,0,264.6,205.2,12,209.1,,0.38,-0.16,1.01,5.2,0.9,-0.5,1020,1907,0.572,0,39.543667,-122.332802,35.22,0.047,305.0,9,2,1.4,0,0.0,-1,0.0,0.0,0.0,0
8466,1469915303531,,,,,,,0.4,-0.17,0.99,5.6,0.5,-0.7,980,1903,,,,,,,,,,,,,,,,,
8486,1469915303551,,,,,,,0.39,-0.21,0.97,6.3,0.4,-0.9,960,1898,,,,,,,,,,,,,,,,,
8506,1469915303571,,,,,,,0.39,-0.22,0.96,6.9,-0.1,-1.0,960,1893,,,,,,,,,,,,,,,,,
8526,1469915303592,,,,,,,0.35,-0.23,0.96,7.3,-0.3,-1.2,940,1880,,,,,,,,,,,,,,,,,
8546,1469915303612,,,,6,,,0.35,-0.26,0.96,7.9,0.2,-1.4,920,1875,0.507,0,39.543682,-122.332802,34.7,0.048,304.9,9,2,1.4,0,0.0,-1,0.0,,0.0,0
8566,1469915303632,,,,,,,0.36,-0.26,0.98,8.2,1.1,-1.5,900,1870,,,,,,,,,,,,,,,,,
8586,1469915303652,,,,,,,0.36,-0.25,0.97,8.6,1.0,-1.6,900,1866,,,,,,,,,,,,,,,,,
8606,1469915303672,,,,,,,0.36,-0.26,0.98,9.0,1.1,-1.5,900,1852,,,,,,,,,,,,,,,,,
8626,1469915303692,,,,,,,0.34,-0.27,0.98,9.5,1.3,-1.5,900,1861,,,,,,,,,,,,,,,,,
8646,1469915303712,0,265.1,205.2,8,209.1,,0.32,-0.25,0.98,9.7,1.2,-1.5,900,1861,0.484,0,39.543697,-122.332802,33.93,0.049,304.8,9,2,1.4,0,0.0,-1,0.0,0.0,0.0,0
8666,1469915303732,,,,,,,0.3,-0.27,0.96,10.0,1.0,-1.2,880,1852,,,,,,,,,,,,,,,,,
8686,1469915303752,,,,,,,0.32,-0.26,0.96,10.4,0.6,-1.0,880,1847,,,,,,,,,,,,,,,,,
8706,1469915303772,,,,,,,0.31,-0.25,0.97,10.5,0.9,-1.1,880,1835,,,,,,,,,,,,,,,,,
8726,1469915303794,,,,,,,0.31,-0.27,0.98,10.8,1.2,-0.9,860,1826,,,,,,,,,,,,,,,,,
8746,1469915303814,,,,4,,,0.3,-0.31,0.97,11.2,1.1,-1.0,880,1826,0.478,0,39.543709,-122.332787,33.35,0.05,304.6,9,2,1.4,0,0.0,-1,0.0,,0.0,0
8766,1469915303834,,,,,,,0.28,-0.27,0.96,11.4,0.9,-1.1,860,1818,,,,,,,,,,,,,,,,,
8786,1469915303854,,,,,,,0.27,-0.29,1.0,11.7,0.3,-1.2,860,1818,,,,,,,,,,,,,,,,,
8806,1469915303874,,,,,,,0.27,-0.3,0.99,11.9,0.4,-1.3,840,1818,,,,,,,,,,,,,,,,,
8826,1469915303894,,,,,,,0.27,-0.31,0.98,12.1,0.9,-1.4,840,1818,,,,,,,,,,,,,,,,,
8846,1469915304007,0,265.5,205.7,6,209.3,,0.27,-0.31,0.99,12.4,1.1,-1.3,840,1809,0.47,0,39.543736,-122.332787,32.47,0.052,304.3,9,2,1.4,0,0.0,-1,0.0,0.0,0.0,0
8866,1469915304027,,,,,,,0.28,-0.32,1.01,12.6,1.1,-1.2,820,1800,,,,,,,,,,,,,,,,,
8886,1469915304047,,,,,,,0.3,-0.32,1.01,12.9,0.9,-1.6,820,1792,,,,,,,,,,,,,,,,,
8906,1469915304067,,,,,,,0.29,-0.31,0.98,13.2,1.1,-1.8,800,1813,,,,,,,,,,,,,,,,,
8926,1469915304087,,,,,,,0.28,-0.3,0.97,13.4,1.2,-1.6,800,1813,,,,,,,,,,,,,,,,,
8946,1469915304107,,,,7,,,0.28,-0.33,0.94,13.5,1.3,-1.3,800,1796,0.456,0,39.543736,-122.332787,32.47,0.052,304.3,9,2,1.4,0,0.0,-1,0.0,,0.0,0
8966,1469915304127,,,,,,,0.26,-0.31,0.96,13.5,1.2,-1.1,800,1796,,,,,,,,,,,,,,,,,
8986,1469915304147,,,,,,,0.23,-0.33,0.96,13.6,0.4,-0.6,780,1784,,,,,,,,,,,,,,,,,
9006,1469915304167,,,,,,,0.22,-0.33,0.97,13.9,0.4,-0.8,780,1763,,,,,,,,,,,,,,,,,
9026,1469915304095,,,,,,,0.2,-0.33,0.96,13.9,0.5,-1.1,760,1747,,,,,,,,,,,,,,,,,
9046,1469915304115,0,264.3,206.1,5,209.9,13.7,0.22,-0.35,0.96,14.1,-0.1,-1.3,760,1763,0.44,0,39.543747,-122.332787,31.67,0.053,304.5,9,2,1.4,0,0.0,-1,0.0,0.0,0.0,0
9066,1469915304135,,,,,,,0.22,-0.39,0.96,14.4,-0.6,-1.5,740,1767,,,,,,,,,,,,,,,,,
9086,1469915304155,,,,,,,0.22,-0.37,0.98,14.5,-0.8,-1.8,740,1760,,,,,,,,,,,,,,,,,
9106,1469915304175,,,,,,,0.22,-0.38,0.98,14.6,-1.0,-1.8,740,1750,,,,,,,,,,,,,,,,,
9126,1469915304195,,,,,,,0.23,-0.38,0.97,14.8,-1.0,-1.3,740,1740,,,,,,,,,,,,,,,,,
9146,1469915304215,,,,5,,,0.24,-0.35,0.99,14.9,-0.5,-0.9,720,1735,0.422,0,39.543762,-122.332787,31.49,0.054,304.3,9,2,1.4,0,0.0,-1,0.0,,0.0,0
9166,1469915304235,,,,,,,0.24,-0.35,0.96,15.1,0.0,-0.7,720,1743,,,,,,,,,,,,,,,,,
9186,1469915304255,,,,,,,0.23,-0.36,0.99,15.1,0.6,-0.8,700,1740,,,,,,,,,,,,,,,,,
9206,1469915304275,,,,,,,0.22,-0.38,0.99,15.2,0.8,-0.8,700,1750,,,,,,,,,,,,,,,,,
9226,1469915304295,,,,,,,0.24,-0.38,0.99,15.3,0.4,-0.8,700,1743,,,,,,,,,,,,,,,,,
9246,1469915304315,0,264.0,206.0,5,209.8,,0.23,-0.36,0.98,15.2,0.1,-0.9,680,1735,0.401,0,39.543774,-122.332779,30.95,0.054,304.2,9,2,1.4,0,0.0,-1,0.0,0.0,0.0,0
9266,1469915304335,,,,,,,0.23,-0.36,1.0,15.0,0.4,-0.8,680,1732,,,,,,,,,,,,,,,,,
9286,1469915304355,,,,,,,0.21,-0.36,0.98,14.8,0.5,-0.7,680,1720,,,,,,,,,,,,,,,,,
9306,1469915304375,,,,,,,0.2,-0.36,0.97,14.6,0.3,-0.8,660,1724,,,,,,,,,,,,,,,,,
9326,1469915304393,,,,,,,0.18,-0.35,0.98,14.3,0.1,-0.6,660,1709,,,,,,,,,,,,,,,,,
9346,1469915304413,,,,5,,,0.16,-0.34,1.0,14.0,0.1,-0.5,660,1724,0.395,0,39.543781,-122.332779,30.99,0.055,304.2,9,2,1.4,0,0.0,-1,0.0,,0.0,0
9366,1469915304433,,,,,,,0.14,-0.33,1.0,13.7,0.2,-0.4,660,1732,,,,,,,,,,,,,,,,,
9386,1469915304453,,,,,,,0.14,-0.32,0.99,13.6,0.2,-0.5,660,1724,,,,,,,,,,,,,,,,,
9406,1469915304473,,,,,,,0.13,-0.31,0.99,13.4,0.2,-0.4,640,1712,,,,,,,,,,,,,,,,,
9426,1469915304492,,,,,,,0.13,-0.3,1.01,13.3,0.5,-0.7,640,1716,,,,,,,,,,,,,,,,,
9446,1469915304512,0,264.5,205.2,5,209.0,,0.13,-0.27,1.01,13.2,0.3,-1.0,640,1720,0.383,0,39.543797,-122.332764,30.73,0.056,304.0,9,2,1.4,0,0.0,-1,0.0,0.0,0.0,0
9466,1469915304532,,,,,,,0.13,-0.28,1.01,13.1,0.7,-1.0,640,1701,,,,,,,,,,,,,,,,,
9486,1469915304552,,,,,,,0.12,-0.31,1.01,13.3,0.8,-1.0,620,1720,,,,,,,,,,,,,,,,,
9506,1469915304572,,,,,,,0.14,-0.3,1.01,13.1,1.5,-0.7,620,1720,,,,,,,,,,,,,,,,,
9526,1469915304592,,,,,,,0.13,-0.33,1.02,13.0,1.7,-0.6,640,1709,,,,,,,,,,,,,,,,,
9546,1469915304612,,,,4,,,0.12,-0.34,1.0,13.0,1.6,-0.8,640,1696,0.36,0,39.543808,-122.332764,30.32,0.057,303.8,9,2,1.4,0,0.0,-1,0.0,,0.0,0
9566,1469915304632,,,,,,,0.12,-0.34,1.03,13.0,1.4,-0.8,640,1704,,,,,,,,,,,,,,,,,
9586,1469915304652,,,,,,,0.11,-0.33,1.01,13.1,1.6,-1.1,620,1701,,,,,,,,,,,,,,,,,
9606,1469915304672,,,,,,,0.11,-0.37,1.0,13.2,1.4,-1.4,620,1696,,,,,,,,,,,,,,,,,
9626,1469915304791,,,,,,,0.09,-0.38,1.01,13.3,1.5,-1.6,620,1716,,,,,,,,,,,,,,,,,
9646,1469915304811,0,263.8,206.1,4,209.8,,0.11,-0.36,1.03,13.3,1.7,-1.9,620,1704,0.364,0,39.543831,-122.332748,29.7,0.059,303.9,9,2,1.4,0,0.0,-1,0.0,0.0,0.0,0
9666,1469915304831,,,,,,,0.11,-0.31,1.02,13.1,1.7,-1.9,620,1701,,,,,,,,,,,,,,,,,
9686,1469915304851,,,,,,,0.09,-0.34,1.02,13.1,2.0,-1.5,600,1696,,,,,,,,,,,,,,,,,
9706,1469915304871,,,,,,,0.08,-0.36,0.98,13.2,1.5,-1.2,600,1689,,,,,,,,,,,,,,,,,
9726,1469915304891,,,,,,,0.07,-0.34,0.97,13.3,1.2,-1.1,620,1686,,,,,,,,,,,,,,,,,
9746,1469915304911,,,,5,,,0.06,-0.34,1.0,13.3,1.4,-1.3,620,1678,0.354,0,39.543831,-122.332748,29.7,0.059,303.9,9,2,1.4,0,0.0,-1,0.0,,0.0,0
9766,1469915304931,,,,,,,0.06,-0.34,0.99,13.4,1.2,-1.5,620,1689,,,,,,,,,,,,,,,,,
9786,1469915304951,,,,,,,0.09,-0.33,1.0,13.4,1.4,-1.4,620,1704,,,,,,,,,,,,,,,,,
9806,1469915304971,,,,,,,0.1,-0.33,1.0,13.5,1.4,-1.5,620,1689,,,,,,,,,,,,,,,,,
9826,1469915304991,,,,,,,0.09,-0.34,0.99,13.5,1.1,-1.3,620,1689,,,,,,,,,,,,,,,,,
9846,1469915304908,0,264.0,205.5,4,209.3,,0.09,-0.33,0.99,13.5,0.9,-0.9,620,1686,0.363,0,39.543842,-122.332748,29.6,0.06,304.0,9,2,1.4,0,0.0,-1,0.0,0.0,0.0,0
9866,1469915304928,,,,,,,0.07,-0.36,1.0,13.5,1.1,-0.7,620,1678,,,,,,,,,,,,,,,,,
9886,1469915304948,,,,,,,0.07,-0.35,1.02,13.5,1.2,-0.8,600,1675,,,,,,,,,,,,,,,,,
9906,1469915304968,,,,,,,0.07,-0.34,1.01,13.4,1.0,-0.9,620,1675,,,,,,,,,,,,,,,,,
9926,1469915304995,,,,,,,0.08,-0.31,0.99,13.5,0.3,-1.2,620,1686,,,,,,,,,,,,,,,,,
9946,1469915305015,,,,5,,,0.07,-0.3,0.99,13.5,-0.1,-1.2,620,1701,0.359,0,39.54385,-122.332741,29.41,0.061,304.1,9,2,1.4,0,0.0,-1,0.0,,0.0,0
9966,1469915305035,,,,,,,0.08,-0.32,0.96,13.8,-0.2,-1.2,620,1686,,,,,,,,,,,,,,,,,
9986,1469915305055,,,,,,,0.08,-0.3,0.95,14.1,-0.6,-0.9,620,1670,,,,,,,,,,,,,,,,,
10006,1469915305075,,,,,,,0.09,-0.32,0.94,14.5,-0.7,-0.5,640,1675,,,,,,,,,,,,,,,,,
10026,1469915305095,,,,,,,0.07,-0.35,0.94,14.7,-0.5,-0.2,620,1664,,,,,,,,,,,,,,,,,
10046,1469915305115,0,264.0,206.2,3,210.1,13.69,0.08,-0.39,0.91,14.9,-0.6,0.3,620,1670,0.369,0,39.543861,-122.332726,29.31,0.062,304.1,9,2,1.4,0,0.0,-1,0.0,0.0,0.0,0
10066,1469915305135,,,,,,,0.09,-0.37,0.92,15.0,-0.1,0.7,620,1686,,,,,,,,,,,,,,,,,
10086,1469915305155,,,,,,,0.07,-0.42,0.94,15.1,-0.2,0.8,640,1693,,,,,,,,,,,,,,,,,
10106,1469915305175,,,,,,,0.08,-0.39,0.96,14.9,-0.2,0.9,640,1686,,,,,,,,,,,,,,,,,
10126,1469915305195,,,,,,,0.08,-0.4,0.97,14.8,-0.1,0.8,640,1675,,,,,,,,,,,,,,,,,
10146,1469915305215,,,,3,,,0.08,-0.42,0.97,15.1,-0.5,0.7,660,1678,0.377,0,39.543873,-122.332726,29.2,0.062,304.1,9,2,1.4,0,0.0,-1,0.0,,0.0,0
10166,1469915305235,,,,,,,0.07,-0.45,0.99,15.2,-0.1,0.6,660,1664,,,,,,,,,,,,,,,,,
10186,1469915305255,,,,,,,0.05,-0.45,1.01,15.5,-0.3,0.5,660,1667,,,,,,,,,,,,,,,,,
10206,1469915305275,,,,,,,0.05,-0.46,0.99,15.7,-0.5,0.3,660,1678,,,,,,,,,,,,,,,,,
10226,1469915305294,,,,,,,0.07,-0.46,1.01,15.9,-0.1,0.2,660,1693,,,,,,,,,,,,,,,,,
10246,1469915305314,0,263.6,205.6,4,209.6,,0.1,-0.41,1.02,15.8,0.5,0.2,660,1689,0.395,0,39.54388,-122.33271,29.19,0.063,304.3,9,2,1.4,0,0.0,-1,0.0,0.0,0.0,0
10266,1469915305334,,,,,,,0.11,-0.41,1.03,15.7,0.6,0.0,680,1683,,,,,,,,,,,,,,,,,
10286,1469915305354,,,,,,,0.11,-0.41,1.03,15.7,0.9,0.1,680,1670,,,,,,,,,,,,,,,,,
10306,1469915305374,,,,,,,0.1,-0.41,1.02,15.8,1.3,0.2,680,1667,,,,,,,,,,,,,,,,,
10326,1469915305391,,,,,,,0.1,-0.42,1.03,16.0,1.4,0.0,680,1683,,,,,,,,,,,,,,,,,
10346,1469915305411,,,,7,,,0.09,-0.42,1.0,16.2,1.4,-0.1,680,1683,0.408,0,39.543892,-122.33271,29.24,0.064,304.3,9,2,1.4,0,0.0,-1,0.0,,0.0,0
10366,1469915305431,,,,,,,0.07,-0.41,1.01,16.2,1.5,-0.3,700,1686,,,,,,,,,,,,,,,,,
10386,1469915305451,,,,,,,0.05,-0.39,0.99,15.9,1.1,-0.3,700,1683,,,,,,,,,,,,,,,,,
10406,1469915305471,,,,,,,0.05,-0.4,0.99,16.0,0.2,-0.1,700,1683,,,,,,,,,,,,,,,,,
10426,1469915305591,,,,,,,0.05,-0.41,1.0,16.1,-0.2,-0.0,700,1667,,,,,,,,,,,,,,,,,
10446,1469915305611,0,264.1,206.2,5,208.9,,0.04,-0.41,0.99,16.0,-0.4,-0.2,700,1653,0.416,0,39.543911,-122.332687,29.22,0.066,304.4,9,2,1.4,0,0.0,-1,0.0,0.0,0.0,0
10466,1469915305631,,,,,,,0.05,-0.45,1.01,16.0,-0.2,-0.2,700,1660,,,,,,,,,,,,,,,,,
10486,1469915305651,,,,,,,0.06,-0.44,1.0,16.0,-0.4,-0.1,700,1667,,,,,,,,,,,,,,,,,
10506,1469915305671,,,,,,,0.05,-0.41,0.98,15.9,-0.2,0.2,700,1683,,,,,,,,,,,,,,,,,
10526,1469915305691,,,,,,,0.05,-0.42,0.97,16.0,-0.3,0.3,720,1670,,,,,,,,,,,,,,,,,
10546,1469915305711,,,,5,,,0.06,-0.41,1.0,15.9,-0.3,0.3,720,1670,0.42,0,39.543911,-122.332687,29.22,0.066,304.4,9,2,1.4,0,0.0,-1,0.0,,0.0,0
10566,1469915305731,,,,,,,0.06,-0.42,1.01,16.0,-0.5,0.5,700,1664,,,,,,,,,,,,,,,,,
10586,1469915305751,,,,,,,0.06,-0.43,1.01,16.2,-0.4,0.9,700,1656,,,,,,,,,,,,,,,,,
10606,1469915305771,,,,,,,0.05,-0.43,1.01,16.4,-0.5,1.3,700,1656,,,,,,,,,,,,,,,,,
10626,1469915305692,,,,,,,0.06,-0.46,1.02,16.5,-0.0,1.6,700,1670,,,,,,,,,,,,,,,,,
10646,1469915305712,0,264.0,206.0,5,209.1,,0.04,-0.47,1.03,16.6,-0.0,1.6,720,1675,0.422,0,39.543919,-122.332672,29.27,0.067,304.3,9,2,1.4,0,0.0,-1,0.0,0.0,0.0,0
10666,1469915305732,,,,,,,0.04,-0.45,1.03,16.7,0.3,1.3,720,1664,,,,,,,,,,,,,,,,,
10686,1469915305752,,,,,,,0.04,-0.41,1.04,16.8,0.6,1.0,720,1664,,,,,,,,,,,,,,,,,
10706,1469915305772,,,,,,,0.04,-0.49,1.03,17.1,1.0,1.1,720,1660,,,,,,,,,,,,,,,,,
10726,1469915305794,,,,,,,0.04,-0.44,1.01,17.4,0.5,1.2,720,1660,,,,,,,,,,,,,,,,,
10746,1469915305814,,,,5,,,0.04,-0.47,1.03,17.4,0.3,1.3,720,1656,0.429,0,39.54393,-122.332672,29.19,0.068,304.3,9,2,1.4,0,0.0,-1,0.0,,0.0,0
10766,1469915305834,,,,,,,0.04,-0.5,1.03,17.5,0.3,1.5,740,1675,,,,,,,,,,,,,,,,,
10786,1469915305854,,,,,,,0.04,-0.46,1.02,17.3,0.1,1.5,740,1675,,,,,,,,,,,,,,,,,
10806,1469915305874,,,,,,,0.05,-0.45,1.02,17.1,0.2,1.5,720,1667,,,,,,,,,,,,,,,,,
10826,1469915305894,,,,,,,0.06,-0.46,1.02,17.2,0.1,1.0,740,1660,,,,,,,,,,,,,,,,,
10846,1469915305908,0,264.8,206.5,4,209.2,,0.06,-0.43,1.0,17.0,0.2,0.5,740,1653,0.443,0,39.543938,-122.332657,29.24,0.069,304.3,9,2,1.4,0,0.0,-1,0.0,0.0,0.0,0
10866,1469915305928,,,,,,,0.08,-0.42,1.01,16.8,0.0,0.4,740,1653,,,,,,,,,,,,,,,,,
10886,1469915305948,,,,,,,0.08,-0.45,1.02,16.9,0.7,0.5,740,1656,,,,,,,,,,,,,,,,,
10906,1469915305968,,,,,,,0.07,-0.44,1.0,17.1,0.1,0.4,720,1667,,,,,,,,,,,,,,,,,
10926,1469915305994,,,,,,,0.07,-0.45,0.99,17.2,-0.3,0.6,720,1667,,,,,,,,,,,,,,,,,
10946,1469915306014,,,,5,,,0.07,-0.44,0.97,17.3,-0.9,1.1,740,1675,0.448,0,39.543945,-122.332649,29.16,0.069,304.3,9,2,1.4,0,0.0,-1,0.0,,0.0,0
10966,1469915306034,,,,,,,0.05,-0.43,0.98,17.3,-0.4,1.2,740,1664,,,,,,,,,,,,,,,,,
10986,1469915306054,,,,,,,0.05,-0.43,0.99,17.1,-1.0,1.1,740,1660,,,,,,,,,,,,,,,,,
11006,1469915306074,,,,,,,0.02,-0.44,1.0,17.2,-1.0,1.1,740,1646,,,,,,,,,,,,,,,,,
11026,1469915306094,,,,,,,0.05,-0.41,1.03,17.0,-1.4,0.9,760,1667,,,,,,,,,,,,,,,,,
11046,1469915306114,0,263.1,205.4,3,210.0,13.75,0.04,-0.42,1.03,17.0,-1.1,0.5,740,1670,0.447,0,39.543957,-122.332634,29.21,0.071,304.4,9,2,1.4,0,0.0,-1,0.0,0.0,0.0,0
11066,1469915306134,,,,,,,0.03,-0.42,1.03,17.0,-1.5,0.3,740,1670,,,,,,,,,,,,,,,,,
11086,1469915306154,,,,,,,0.04,-0.41,1.02,17.0,-1.2,0.5,740,1656,,,,,,,,,,,,,,,,,
11106,1469915306174,,,,,,,0.04,-0.39,1.03,16.7,-0.5,0.8,740,1664,,,,,,,,,,,,,,,,,
11126,1469915306195,,,,,,,0.06,-0.38,1.01,16.4,-0.2,1.2,740,1656,,,,,,,,,,,,,,,,,
11146,1469915306215,,,,6,,,0.08,-0.36,1.03,16.0,-0.3,1.6,760,1653,0.444,0,39.543961,-122.332619,29.27,0.071,304.5,9,2,1.4,0,0.0,-1,0.0,,0.0,0
11166,1469915306235,,,,,,,0.07,-0.36,1.0,15.9,0.1,1.8,760,1664,,,,,,,,,,,,,,,,,
11186,1469915306255,,,,,,,0.06,-0.36,1.02,15.5,0.4,2.2,760,1664,,,,,,,,,,,,,,,,,
11206,1469915306275,,,,,,,0.06,-0.34,1.02,15.3,0.1,2.2,760,1664,,,,,,,,,,,,,,,,,
11226,1469915306393,,,,,,,0.08,-0.34,1.02,15.2,0.2,1.8,720,1660,,,,,,,,,,,,,,,,,
11246,1469915306413,0,263.0,205.3,6,210.1,,0.05,-0.35,1.0,15.1,0.7,1.3,760,1664,0.456,0,39.54398,-122.332596,29.26,0.073,304.3,9,2,1.4,0,0.0,-1,0.0,0.0,0.0,0
11266,1469915306433,,,,,,,0.04,-0.39,0.99,15.4,0.5,0.8,760,1656,,,,,,,,,,,,,,,,,
11286,1469915306453,,,,,,,0.06,-0.4,1.01,15.8,0.2,0.3,740,1656,,,,,,,,,,,,,,,,,
11306,1469915306473,,,,,,,0.05,-0.4,1.02,16.0,0.2,-0.2,740,1660,,,,,,,,,,,,,,,,,
11326,1469915306493,,,,,,,0.04,-0.41,1.03,16.3,0.4,-0.9,760,1667,,,,,,,,,,,,,,,,,
11346,1469915306513,,,,5,,,0.05,-0.4,1.05,16.4,0.8,-1.1,760,1664,0.448,0,39.54398,-122.332596,29.26,0.073,304.3,9,2,1.4,0,0.0,-1,0.0,,0.0,0
11366,1469915306533,,,,,,,0.06,-0.4,1.05,16.7,1.1,-0.9,760,1660,,,,,,,,,,,,,,,,,
11386,1469915306553,,,,,,,0.07,-0.4,1.05,17.1,1.7,-0.7,720,1656,,,,,,,,,,,,,,,,,
11406,1469915306573,,,,,,,0.09,-0.4,1.02,17.4,1.9,-0.7,740,1660,,,,,,,,,,,,,,,,,
11426,1469915306492,,,,,,,0.1,-0.39,1.03,17.4,2.5,-0.6,740,1667,,,,,,,,,,,,,,,,,
11446,1469915306512,0,263.1,205.5,7,209.5,,0.1,-0.42,1.03,17.6,2.6,-0.6,740,1667,0.435,0,39.543983,-122.332581,29.14,0.074,304.3,9,2,1.4,0,0.0,-1,0.0,0.0,0.0,0
11466,1469915306532,,,,,,,0.09,-0.43,1.04,18.0,2.5,-1.0,720,1653,,,,,,,,,,,,,,,,,
11486,1469915306552,,,,,,,0.1,-0.41,1.03,18.1,2.3,-1.3,740,1664,,,,,,,,,,,,,,,,,
11506,1469915306572,,,,,,,0.1,-0.42,1.04,18.1,2.6,-1.4,740,1656,,,,,,,,,,,,,,,,,
11526,1469915306592,,,,,,,0.09,-0.42,1.05,18.3,2.0,-1.9,720,1653,,,,,,,,,,,,,,,,,
11546,1469915306612,,,,5,,,0.09,-0.42,1.05,18.4,1.6,-2.3,700,1649,0.449,0,39.543991,-122.332573,29.11,0.075,304.1,9,2,1.4,0,0.0,-1,0.0,,0.0,0
11566,1469915306632,,,,,,,0.1,-0.43,1.06,18.5,1.8,-2.5,700,1653,,,,,,,,,,,,,,,,,
11586,1469915306652,,,,,,,0.1,-0.43,1.06,18.4,1.3,-2.3,720,1646,,,,,,,,,,,,,,,,,
11606,1469915306672,,,,,,,0.1,-0.42,1.06,18.4,1.2,-2.3,720,1646,,,,,,,,,,,,,,,,,
11626,1469915306692,,,,,,,0.1,-0.45,1.06,18.7,1.3,-2.0,700,1649,,,,,,,,,,,,,,,,,
11646,1469915306712,0,263.1,205.5,4,210.1,,0.1,-0.44,1.02,19.0,1.6,-1.4,700,1653,0.437,0,39.543999,-122.332558,29.03,0.076,304.1,9,2,1.4,0,0.0,-1,0.0,0.0,0.0,0
11666,1469915306732,,,,,,,0.12,-0.46,1.02,19.1,1.8,-0.9,720,1660,,,,,,,,,,,,,,,,,
11686,1469915306752,,,,,,,0.1,-0.45,1.0,19.1,1.7,-0.7,720,1653,,,,,,,,,,,,,,,,,
11706,1469915306772,,,,,,,0.08,-0.51,1.02,19.1,2.2,-0.7,700,1656,,,,,,,,,,,,,,,,,
11726,1469915306794,,,,,,,0.05,-0.48,1.03,19.0,2.4,-0.8,700,1643,,,,,,,,,,,,,,,,,
11746,1469915306814,,,,6,,,0.06,-0.55,1.04,19.3,2.5,-1.3,720,1643,0.437,0,39.544003,-122.332542,29.02,0.077,304.1,9,2,1.4,0,0.0,-1,0.0,,0.0,0
11766,1469915306834,,,,,,,0.06,-0.52,1.06,19.3,2.8,-1.5,720,1656,,,,,,,,,,,,,,,,,
11786,1469915306854,,,,,,,0.05,-0.49,1.05,19.1,2.6,-1.5,720,1643,,,,,,,,,,,,,,,,,
11806,1469915306874,,,,,,,0.04,-0.52,1.05,19.0,2.2,-1.1,720,1646,,,,,,,,,,,,,,,,,
11826,1469915306894,,,,,,,0.04,-0.5,1.03,19.0,2.4,-1.0,720,1629,,,,,,,,,,,,,,,,,
11846,1469915306908,0,262.6,205.2,5,210.3,,0.02,-0.52,1.01,19.3,2.9,-1.1,720,1626,0.437,0,39.544006,-122.332535,28.94,0.077,304.1,9,2,1.4,0,0.0,-1,0.0,0.0,0.0,0
11866,1469915306928,,,,,,,0.05,-0.47,1.01,19.5,2.2,-0.9,720,1621,,,,,,,,,,,,,,,,,
11886,1469915306948,,,,,,,0.05,-0.5,1.01,19.6,1.9,-0.7,720,1621,,,,,,,,,,,,,,,,,
11906,1469915306968,,,,,,,0.09,-0.48,1.01,19.8,1.3,-0.9,720,1629,,,,,,,,,,,,,,,,,
11926,1469915306994,,,,,,,0.08,-0.49,0.99,20.0,0.4,-1.1,720,1646,,,,,,,,,,,,,,,,,
11946,1469915307014,,,,6,,,0.1,-0.47,1.0,19.9,0.5,-0.9,720,1646,0.443,0,39.544014,-122.33252,28.9,0.078,304.2,9,2,1.4,0,0.0,-1,0.0,,0.0,0
11966,1469915307034,,,,,,,0.1,-0.49,1.0,19.9,0.7,-0.6,720,1643,,,,,,,,,,,,,,,,,
11986,1469915307054,,,,,,,0.09,-0.51,1.01,20.1,0.6,-0.6,720,1632,,,,,,,,,,,,,,,,,
12006,1469915307074,,,,,,,0.08,-0.52,0.98,20.1,0.4,-0.4,720,1621,,,,,,,,,,,,,,,,,
12026,1469915307193,,,,,,,0.08,-0.51,0.98,20.1,0.6,0.1,720,1621,,,,,,,,,,,,,,,,,
12046,1469915307213,0,263.8,206.0,6,209.6,13.75,0.08,-0.52,0.99,20.0,0.8,0.1,700,1626,0.442,0,39.544018,-122.332497,28.81,0.079,304.5,9,2,1.4,0,0.0,-1,0.0,0.0,0.0,0
12066,1469915307233,,,,,,,0.08,-0.48,0.98,19.9,0.6,-0.2,720,1632,,,,,,,,,,,,,,,,,
12086,1469915307253,,,,,,,0.06,-0.5,0.99,19.6,0.4,-0.3,720,1646,,,,,,,,,,,,,,,,,
12106,1469915307273,,,,,,,0.05,-0.46,1.01,19.7,0.3,-0.6,720,1649,,,,,,,,,,,,,,,,,
12126,1469915307293,,,,,,,0.05,-0.47,0.99,19.7,0.6,-0.7,720,1635,,,,,,,,,,,,,,,,,
12146,1469915307313,,,,5,,,0.03,-0.51,1.0,19.8,0.1,-0.7,740,1635,0.438,0,39.544018,-122.332497,28.81,0.079,304.5,9,2,1.4,0,0.0,-1,0.0,,0.0,0
12166,1469915307333,,,,,,,0.01,-0.51,1.0,19.7,-0.2,-0.2,740,1626,,,,,,,,,,,,,,,,,
12186,1469915307353,,,,,,,0.0,-0.49,1.01,19.6,0.0,0.1,720,1612,,,,,,,,,,,,,,,,,
12206,1469915307373,,,,,,,0.0,-0.47,1.01,19.5,-0.1,0.3,720,1615,,,,,,,,,,,,,,,,,
12226,1469915307294,,,,,,,-0.0,-0.47,1.03,19.2,0.2,0.4,740,1635,,,,,,,,,,,,,,,,,
12246,1469915307314,0,264.6,206.6,6,209.5,,-0.01,-0.48,1.03,19.0,0.9,0.6,740,1629,0.446,0,39.544025,-122.332481,28.68,0.08,304.4,9,2,1.4,0,0.0,-1,0.0,0.0,0.0,0
12266,1469915307334,,,,,,,0.02,-0.47,1.0,18.9,0.5,0.8,760,1618,,,,,,,,,,,,,,,,,
12286,1469915307354,,,,,,,0.03,-0.47,0.97,18.7,0.4,0.8,760,1601,,,,,,,,,,,,,,,,,
12306,1469915307374,,,,,,,0.04,-0.46,0.95,18.6,0.3,0.6,800,1575,,,,,,,,,,,,,,,,,
12326,1469915307392,,,,,,,0.04,-0.46,0.95,18.4,0.4,0.8,800,1581,,,,,,,,,,,,,,,,,
12346,1469915307412,,,,7,,,0.04,-0.46,0.96,18.0,1.0,1.1,800,1643,0.476,0,39.544029,-122.332466,28.5,0.081,304.3,9,2,1.4,0,0.0,-1,0.0,,0.0,0
12366,1469915307432,,,,,,,0.03,-0.46,0.96,17.7,0.9,1.3,820,1615,,,,,,,,,,,,,,,,,
12386,1469915307452,,,,,,,0.03,-0.46,0.97,17.8,0.5,1.1,860,1589,,,,,,,,,,,,,,,,,
12406,1469915307472,,,,,,,0.05,-0.44,0.98,17.7,0.4,1.0,900,1612,,,,,,,,,,,,,,,,,
12426,1469915307492,,,,,,,0.05,-0.43,0.98,17.6,-0.2,1.0,940,1615,,,,,,,,,,,,,,,,,
12446,1469915307509,0,263.3,205.8,8,209.7,,0.05,-0.42,0.99,17.4,-0.2,0.9,980,1601,0.538,0,39.544033,-122.332443,28.52,0.082,304.2,9,2,1.4,0,0.0,-1,0.0,0.0,0.0,0
12466,1469915307529,,,,,,,0.04,-0.42,0.99,17.2,-0.3,0.9,1020,1598,,,,,,,,,,,,,,,,,
12486,1469915307549,,,,,,,0.03,-0.42,1.0,17.1,-0.1,0.8,1060,1615,,,,,,,,,,,,,,,,,
12506,1469915307569,,,,,,,0.04,-0.4,1.01,17.0,0.3,0.6,1100,1598,,,,,,,,,,,,,,,,,
12526,1469915307592,,,,,,,0.04,-0.42,0.99,16.9,0.6,0.7,1200,1589,,,,,,,,,,,,,,,,,
12546,1469915307612,,,,12,,,0.05,-0.4,0.98,16.9,1.1,0.7,1280,1609,0.686,5,39.544033,-122.332428,28.78,0.083,304.2,9,2,1.4,0,0.0,-1,0.0,,0.0,0
12566,1469915307632,,,,,,,0.05,-0.4,0.98,17.0,1.2,0.5,1320,1592,,,,,,,,,,,,,,,,,
12586,1469915307652,,,,,,,0.05,-0.4,0.99,17.0,0.8,0.4,1440,1589,,,,,,,,,,,,,,,,,
12606,1469915307672,,,,,,,0.03,-0.42,0.99,17.1,0.9,0.3,1500,1598,,,,,,,,,,,,,,,,,
12626,1469915307691,,,,,,,0.02,-0.42,0.98,17.1,0.8,0.4,1640,1584,,,,,,,,,,,,,,,,,
12646,1469915307711,0,264.0,205.9,17,210.2,,-0.0,-0.38,0.98,17.2,1.3,0.4,1640,1584,0.905,4,39.544037,-122.33242,28.23,0.084,304.1,9,2,1.4,0,0.0,-1,0.0,0.0,0.0,0
12666,1469915307731,,,,,,,0.01,-0.38,0.95,17.0,1.2,0.5,1760,1598,,,,,,,,,,,,,,,,,
12686,1469915307751,,,,,,,0.0,-0.37,0.98,16.9,1.4,0.5,1860,1595,,,,,,,,,,,,,,,,,
12706,1469915307771,,,,,,,-0.0,-0.4,0.98,17.0,1.9,0.3,1960,1592,,,,,,,,,,,,,,,,,
12726,1469915307794,,,,,,,0.02,-0.4,0.97,17.1,2.5,0.2,1980,1584,,,,,,,,,,,,,,,,,
12746,1469915307814,,,,38,,,0.04,-0.38,0.98,16.9,3.3,0.2,2060,1584,1.216,3,39.544037,-122.332405,27.96,0.084,303.9,9,2,1.4,0,0.0,-1,0.0,,0.0,0
12766,1469915307834,,,,,,,0.05,-0.39,1.02,16.9,3.6,0.1,2120,1572,,,,,,,,,,,,,,,,,
12786,1469915307854,,,,,,,0.05,-0.41,1.02,17.1,4.1,-0.0,2160,1581,,,,,,,,,,,,,,,,,
12806,1469915307874,,,,,,,0.06,-0.4,1.02,17.2,3.8,-0.1,2180,1578,,,,,,,,,,,,,,,,,
12826,1469915307894,,,,,,,0.07,-0.4,1.04,17.3,3.9,-0.4,2100,1578,,,,,,,,,,,,,,,,,
12846,1469915308007,0,264.3,206.5,53,210.3,,0.09,-0.38,1.03,17.3,3.6,-0.5,2100,1566,1.361,3,39.544041,-122.332382,27.84,0.086,303.5,9,2,1.4,0,0.0,-1,0.0,0.0,0.0,0
12866,1469915308027,,,,,,,0.11,-0.4,1.04,17.3,3.6,-0.6,2160,1572,,,,,,,,,,,,,,,,,
12886,1469915308047,,,,,,,0.12,-0.42,1.03,17.4,3.8,-0.5,2120,1569,,,,,,,,,,,,,,,,,
12906,1469915308067,,,,,,,0.12,-0.42,1.02,17.6,3.7,-0.4,2220,1566,,,,,,,,,,,,,,,,,
12926,1469915308087,,,,,,,0.14,-0.42,1.01,17.6,3.8,-0.3,2220,1556,,,,,,,,,,,,,,,,,
12946,1469915308107,,,,38,,,0.15,-0.43,1.01,17.7,3.6,-0.3,2320,1560,1.392,3,39.544041,-122.332382,27.84,0.086,303.5,9,2,1.4,0,0.0,-1,0.0,,0.0,0
12966,1469915308127,,,,,,,0.15,-0.41,1.0,17.7,3.4,-0.3,2260,1560,,,,,,,,,,,,,,,,,
12986,1469915308147,,,,,,,0.14,-0.43,1.0,17.7,3.2,-0.3,2340,1550,,,,,,,,,,,,,,,,,
13006,1469915308167,,,,,,,0.12,-0.41,1.0,17.8,2.7,-0.3,2400,1553,,,,,,,,,,,,,,,,,
13026,1469915308094,,,,,,,0.11,-0.38,0.99,17.8,2.1,-0.5,2520,1553,,,,,,,,,,,,,,,,,
13046,1469915308114,0,264.3,206.6,35,210.4,13.68,0.11,-0.43,0.99,17.9,1.9,-0.6,2540,1547,1.577,0,39.544041,-122.332352,27.79,0.087,303.3,9,2,1.4,0,0.0,-1,0.0,0.0,0.0,0
13066,1469915308134,,,,,,,0.11,-0.4,0.98,17.8,1.9,-0.6,2660,1541,,,,,,,,,,,,,,,,,
13086,1469915308154,,,,,,,0.11,-0.43,0.99,17.8,1.5,-0.5,2660,1541,,,,,,,,,,,,,,,,,
13106,1469915308174,,,,,,,0.08,-0.42,1.0,18.0,1.7,-0.5,2660,1541,,,,,,,,,,,,,,,,,
13126,1469915308195,,,,,,,0.06,-0.43,1.0,17.9,1.8,-0.4,2800,1529,,,,,,,,,,,,,,,,,
13146,1469915308215,,,,58,,,0.07,-0.46,1.0,18.0,2.1,-0.4,2720,1532,1.739,0,39.544041,-122.332344,27.76,0.088,303.1,9,2,1.4,0,0.0,-1,0.0,,0.0,0
13166,1469915308235,,,,,,,0.1,-0.41,1.03,18.0,2.4,-0.5,2900,1541,,,,,,,,,,,,,,,,,
13186,1469915308255,,,,,,,0.09,-0.39,1.04,17.7,2.2,-0.5,2860,1547,,,,,,,,,,,,,,,,,
13206,1469915308275,,,,,,,0.09,-0.39,1.03,17.4,1.9,-0.4,2920,1553,,,,,,,,,,,,,,,,,
13226,1469915308294,,,,,,,0.08,-0.39,1.0,17.4,1.6,-0.2,2900,1566,,,,,,,,,,,,,,,,,
13246,1469915308314,0,263.8,206.0,47,210.3,,0.09,-0.38,0.99,17.4,1.6,-0.2,2980,1578,1.935,2,39.544041,-122.332329,27.36,0.089,302.9,9,2,1.4,0,0.0,-1,0.0,0.0,0.0,0
13266,1469915308334,,,,,,,0.09,-0.37,0.93,17.3,1.2,-0.0,3020,1592,,,,,,,,,,,,,,,,,
13286,1469915308354,,,,,,,0.07,-0.36,0.96,17.1,1.2,0.1,3060,1601,,,,,,,,,,,,,,,,,
13306,1469915308374,,,,,,,0.06,-0.33,0.92,16.9,0.9,0.1,3100,1626,,,,,,,,,,,,,,,,,
13326,1469915308393,,,,,,,0.03,-0.33,0.94,16.7,0.9,0.0,3120,1615,,,,,,,,,,,,,,,,,
13346,1469915308413,,,,65,,,0.01,-0.32,0.95,16.5,1.0,-0.0,3140,1513,1.857,2,39.544041,-122.332314,27.13,0.089,302.8,9,2,1.4,0,0.0,-1,0.0,,0.0,0
13366,1469915308433,,,,,,,0.01,-0.32,0.93,16.3,0.7,-0.1,3060,1532,,,,,,,,,,,,,,,,,
13386,1469915308453,,,,,,,0.02,-0.28,0.96,15.9,0.8,-0.1,3000,1572,,,,,,,,,,,,,,,,,
13406,1469915308473,,,,,,,0.03,-0.25,0.96,15.6,0.6,-0.2,3060,1532,,,,,,,,,,,,,,,,,
13426,1469915308492,,,,,,,0.02,-0.25,0.97,15.3,0.3,-0.3,3000,1544,,,,,,,,,,,,,,,,,
13446,1469915308512,0,263.3,206.2,44,209.8,,0.03,-0.25,1.02,15.2,0.2,-0.2,3080,1556,2.003,2,39.544041,-122.332306,27.03,0.09,302.8,9,2,1.4,0,0.0,-1,0.0,0.0,0.0,0
13466,1469915308532,,,,,,,0.05,-0.28,1.0,15.1,-0.1,-0.2,3000,1544,,,,,,,,,,,,,,,,,
13486,1469915308552,,,,,,,0.05,-0.28,1.02,15.1,0.3,-0.1,3100,1556,,,,,,,,,,,,,,,,,
13506,1469915308572,,,,,,,0.06,-0.27,1.02,14.9,0.4,-0.1,3080,1560,,,,,,,,,,,,,,,,,
13526,1469915308592,,,,,,,0.05,-0.28,0.98,14.8,0.8,-0.3,3060,1556,,,,,,,,,,,,,,,,,
13546,1469915308612,,,,50,,,0.05,-0.29,0.98,14.8,0.6,-0.4,3000,1566,1.945,2,39.544037,-122.332291,26.82,0.091,302.8,9,2,1.4,0,0.0,-1,0.0,,0.0,0
13566,1469915308632,,,,,,,0.04,-0.31,0.94,14.8,0.5,-0.3,3040,1560,,,,,,,,,,,,,,,,,
13586,1469915308652,,,,,,,0.05,-0.33,0.92,15.0,0.1,-0.4,3020,1569,,,,,,,,,,,,,,,,,
13606,1469915308672,,,,,,,0.04,-0.35,0.91,15.1,0.4,-0.3,2980,1566,,,,,,,,,,,,,,,,,
13626,1469915308791,,,,,,,0.05,-0.35,0.93,15.1,0.6,-0.3,3020,1560,,,,,,,,,,,,,,,,,
13646,1469915308811,0,263.1,206.2,46,209.6,,0.04,-0.35,0.94,15.0,1.4,-0.2,2920,1569,1.925,2,39.544033,-122.33226,27.2,0.092,302.8,9,2,1.4,0,0.0,-1,0.0,0.0,0.0,0
13666,1469915308831,,,,,,,0.04,-0.34,0.94,15.0,1.3,-0.3,2960,1560,,,,,,,,,,,,,,,,,
13686,1469915308851,,,,,,,0.02,-0.36,0.92,15.1,1.4,-0.3,2920,1566,,,,,,,,,,,,,,,,,
13706,1469915308871,,,,,,,0.01,-0.36,0.92,15.2,1.4,-0.3,2900,1550,,,,,,,,,,,,,,,,,
13726,1469915308891,,,,,,,0.01,-0.36,0.9,15.2,1.5,-0.4,2900,1566,,,,,,,,,,,,,,,,,
13746,1469915308911,,,,46,,,0.01,-0.38,0.9,15.4,1.2,-0.4,2920,1575,1.919,2,39.544033,-122.33226,27.2,0.092,302.8,9,2,1.4,0,0.0,-1,0.0,,0.0,0
13766,1469915308931,,,,,,,-0.02,-0.41,0.86,15.6,1.1,-0.4,3000,1575,,,,,,,,,,,,,,,,,
13786,1469915308951,,,,,,,-0.01,-0.4,0.87,15.7,0.6,-0.3,2920,1581,,,,,,,,,,,,,,,,,
13806,1469915308971,,,,,,,-0.01,-0.38,0.86,15.7,0.4,-0.4,2980,1581,,,,,,,,,,,,,,,,,
13826,1469915308991,,,,,,,-0.01,-0.39,0.86,15.9,0.5,-0.4,2920,1589,,,,,,,,,,,,,,,,,
13846,1469915308908,0,263.3,206.5,53,210.0,,-0.01,-0.35,0.91,16.0,0.4,-0.4,3000,1589,1.905,2,39.544029,-122.332252,27.3,0.093,302.8,9,2,1.4,0,0.0,-1,0.0,0.0,0.0,0
13866,1469915308928,,,,,,,-0.01,-0.35,0.92,16.0,0.2,-0.5,2920,1584,,,,,,,,,,,,,,,,,
13886,1469915308948,,,,,,,-0.01,-0.32,0.98,16.1,0.7,-0.7,2940,1581,,,,,,,,,,,,,,,,,
13906,1469915308968,,,,,,,-0.01,-0.31,0.97,16.2,0.8,-0.7,2960,1584,,,,,,,,,,,,,,,,,
13926,1469915308988,,,,,,,-0.01,-0.32,1.02,16.3,1.3,-0.6,3000,1595,,,,,,,,,,,,,,,,,
13946,1469915309005,,,,48,,,0.01,-0.32,1.02,16.3,1.2,-0.5,2940,1589,1.894,2,39.544025,-122.332237,27.42,0.094,302.8,9,2,1.4,0,0.0,-1,0.0,,0.0,0
13966,1469915309025,,,,,,,0.0,-0.3,1.05,16.4,1.1,-0.5,2980,1592,,,,,,,,,,,,,,,,,
13986,1469915309045,,,,,,,-0.01,-0.29,1.03,16.5,0.4,-0.5,3040,1595,,,,,,,,,,,,,,,,,
14006,1469915309065,,,,,,,-0.01,-0.28,1.07,16.4,0.3,-0.5,3000,1595,,,,,,,,,,,,,,,,,
14026,1469915309094,,,,,,,-0.01,-0.27,1.07,16.4,0.0,-0.7,3040,1589,,,,,,,,,,,,,,,,,
14046,1469915309114,0,262.1,205.5,45,209.2,13.76,-0.01,-0.27,1.11,16.4,0.3,-0.7,3000,1598,1.869,2,39.544022,-122.332222,27.4,0.094,302.9,9,2,1.4,0,0.0,-1,0.0,0.0,0.0,0
14066,1469915309134,,,,,,,0.01,-0.27,1.09,16.5,0.1,-0.7,3100,1598,,,,,,,,,,,,,,,,,
14086,1469915309154,,,,,,,0.02,-0.28,1.1,16.5,0.6,-0.5,3000,1598,,,,,,,,,,,,,,,,,
14106,1469915309174,,,,,,,0.02,-0.28,1.08,16.4,0.9,-0.4,3060,1604,,,,,,,,,,,,,,,,,
14126,1469915309194,,,,,,,0.03,-0.3,1.06,16.4,1.1,-0.1,2980,1609,,,,,,,,,,,,,,,,,
14146,1469915309214,,,,53,,,0.02,-0.3,1.04,16.4,1.0,0.1,3040,1601,1.915,2,39.544018,-122.332199,27.59,0.096,303.2,9,2,1.4,0,0.0,-1,0.0,,0.0,0
14166,1469915309234,,,,,,,0.01,-0.36,0.98,16.4,1.3,0.4,2980,1604,,,,,,,,,,,,,,,,,
14186,1469915309254,,,,,,,0.01,-0.34,0.97,16.4,1.0,0.4,3000,1609,,,,,,,,,,,,,,,,,
14206,1469915309274,,,,,,,0.01,-0.37,0.92,16.2,1.3,0.5,3020,1612,,,,,,,,,,,,,,,,,
14226,1469915309295,,,,,,,0.01,-0.34,0.92,15.9,1.3,0.5,3020,1604,,,,,,,,,,,,,,,,,
14246,1469915309315,0,264.0,206.6,53,210.2,,-0.0,-0.34,0.91,15.6,1.3,0.6,3040,1612,1.886,2,39.544014,-122.332184,27.65,0.097,303.5,9,2,1.4,0,0.0,-1,0.0,0.0,0.0,0
14266,1469915309335,,,,,,,-0.01,-0.32,0.94,15.3,1.5,0.5,3080,1621,,,,,,,,,,,,,,,,,
14286,1469915309355,,,,,,,0.0,-0.32,0.96,14.9,1.6,0.6,2980,1618,,,,,,,,,,,,,,,,,
14306,1469915309375,,,,,,,0.01,-0.32,0.97,14.6,1.7,0.7,3160,1609,,,,,,,,,,,,,,,,,
14326,1469915309392,,,,,,,-0.01,-0.27,1.0,14.1,1.6,0.7,3080,1621,,,,,,,,,,,,,,,,,
14346,1469915309412,,,,73,,,-0.02,-0.28,1.0,13.7,1.5,0.8,3100,1626,1.944,2,39.54401,-122.332176,27.71,0.097,303.7,9,2,1.4,0,0.0,-1,0.0,,0.0,0
14366,1469915309432,,,,,,,-0.04,-0.22,1.01,13.2,1.7,0.8,3080,1621,,,,,,,,,,,,,,,,,
14386,1469915309452,,,,,,,-0.05,-0.22,1.04,12.7,1.7,0.8,3080,1618,,,,,,,,,,,,,,,,,
14406,1469915309472,,,,,,,-0.07,-0.18,1.02,12.0,2.0,1.0,3000,1629,,,,,,,,,,,,,,,,,
14426,1469915309592,,,,,,,-0.07,-0.17,1.03,11.6,1.8,1.2,3120,1629,,,,,,,,,,,,,,,,,
14446,1469915309612,0,262.3,206.0,65,209.7,,-0.07,-0.12,1.01,11.2,1.5,1.2,3100,1629,1.851,2,39.543999,-122.332146,27.93,0.099,304.0,9,2,1.4,0,0.0,-1,0.0,0.0,0.0,0
14466,1469915309632,,,,,,,-0.08,-0.12,1.03,10.8,1.4,1.5,3060,1632,,,,,,,,,,,,,,,,,
14486,1469915309652,,,,,,,-0.08,-0.14,0.99,10.5,0.4,1.5,3060,1635,,,,,,,,,,,,,,,,,
14506,1469915309672,,,,,,,-0.07,-0.15,0.94,10.2,0.0,1.8,3180,1632,,,,,,,,,,,,,,,,,
14526,1469915309692,,,,,,,-0.07,-0.17,0.94,9.8,-0.6,2.2,3060,1635,,,,,,,,,,,,,,,,,
14546,1469915309712,,,,49,,,-0.07,-0.17,0.89,9.4,-0.4,2.3,3180,1635,1.841,2,39.543999,-122.332146,27.93,0.099,304.0,9,2,1.4,0,0.0,-1,0.0,,0.0,0
14566,1469915309732,,,,,,,-0.06,-0.17,0.89,8.9,-0.1,2.3,3100,1643,,,,,,,,,,,,,,,,,
14586,1469915309752,,,,,,,-0.07,-0.17,0.93,8.4,0.3,2.0,3060,1640,,,,,,,,,,,,,,,,,
14606,1469915309772,,,,,,,-0.05,-0.16,0.95,7.7,1.0,1.6,3080,1646,,,,,,,,,,,,,,,,,
14626,1469915309692,,,,,,,-0.04,-0.13,0.96,7.1,0.9,1.5,3120,1656,,,,,,,,,,,,,,,,,
14646,1469915309712,0,264.3,206.8,49,210.2,,-0.03,-0.12,0.98,6.6,0.5,1.3,3080,1643,1.899,2,39.543995,-122.332138,28.38,0.099,304.2,9,2,1.4,0,0.0,-1,0.0,0.0,0.0,0
14666,1469915309732,,,,,,,-0.02,-0.12,0.97,6.4,0.2,1.0,3120,1643,,,,,,,,,,,,,,,,,
14686,1469915309752,,,,,,,-0.03,-0.13,0.94,6.2,-0.3,1.1,3160,1653,,,,,,,,,,,,,,,,,
14706,1469915309772,,,,,,,-0.05,-0.13,0.94,6.1,-0.6,1.1,3080,1656,,,,,,,,,,,,,,,,,
14726,1469915309794,,,,,,,-0.07,-0.11,0.96,6.0,-0.4,1.1,3120,1664,,,,,,,,,,,,,,,,,
14746,1469915309814,,,,51,,,-0.06,-0.1,0.96,5.7,0.0,1.0,3140,1653,1.936,2,39.543987,-122.332123,28.76,0.1,304.1,9,2,1.4,0,0.0,-1,0.0,,0.0,0
14766,1469915309834,,,,,,,-0.05,-0.09,1.0,5.3,0.5,0.8,3100,1664,,,,,,,,,,,,,,,,,
14786,1469915309854,,,,,,,-0.04,-0.06,1.03,5.0,0.5,0.6,3160,1656,,,,,,,,,,,,,,,,,
14806,1469915309874,,,,,,,-0.03,-0.06,1.0,5.0,0.4,0.5,3100,1667,,,,,,,,,,,,,,,,,
14826,1469915309894,,,,,,,-0.02,-0.05,0.98,4.9,0.3,0.7,3100,1683,,,,,,,,,,,,,,,,,
14846,1469915309909,0,262.8,206.2,39,209.5,,-0.02,-0.05,0.97,4.9,0.4,0.8,3220,1678,1.875,2,39.543983,-122.332108,28.77,0.101,304.0,9,2,1.4,0,0.0,-1,0.0,0.0,0.0,0
14866,1469915309929,,,,,,,-0.03,-0.04,0.95,4.7,0.6,0.8,3220,1675,,,,,,,,,,,,,,,,,
14886,1469915309949,,,,,,,-0.05,-0.04,0.98,4.4,0.9,0.7,3140,1675,,,,,,,,,,,,,,,,,
14906,1469915309969,,,,,,,-0.07,-0.03,1.02,4.2,0.9,0.6,3120,1675,,,,,,,,,,,,,,,,,
14926,1469915309995,,,,,,,-0.07,-0.05,0.98,4.0,0.5,0.7,3260,1686,,,,,,,,,,,,,,,,,
14946,1469915310015,,,,63,,,-0.07,-0.07,0.95,4.1,-0.2,0.6,3140,1683,1.895,2,39.54398,-122.3321,28.9,0.102,304.0,9,2,1.4,0,0.0,-1,0.0,,0.0,0
14966,1469915310035,,,,,,,-0.08,-0.08,0.94,4.1,-0.5,0.7,3140,1686,,,,,,,,,,,,,,,,,
14986,1469915310055,,,,,,,-0.09,-0.08,0.95,4.1,-0.1,0.7,3240,1678,,,,,,,,,,,,,,,,,
15006,1469915310075,,,,,,,-0.07,-0.06,0.96,4.1,-0.2,0.7,3200,1689,,,,,,,,,,,,,,,,,
15026,1469915310095,,,,,,,-0.06,-0.06,0.97,3.9,-0.2,0.8,3160,1689,,,,,,,,,,,,,,,,,
15046,1469915310115,0,262.6,205.9,35,209.1,13.71,-0.05,-0.07,0.95,3.9,-0.7,0.7,3160,1686,1.902,2,39.543972,-122.332085,29.15,0.103,304.0,9,2,1.4,0,0.0,-1,0.0,0.0,0.0,0
15066,1469915310135,,,,,,,-0.06,-0.06,0.93,3.9,-1.1,0.5,3240,1696,,,,,,,,,,,,,,,,,
15086,1469915310155,,,,,,,-0.06,-0.07,0.94,3.9,-0.8,0.3,3160,1696,,,,,,,,,,,,,,,,,
15106,1469915310175,,,,,,,-0.06,-0.05,0.94,4.0,-0.7,-0.1,3220,1712,,,,,,,,,,,,,,,,,
15126,1469915310192,,,,,,,-0.06,-0.04,0.91,4.1,-0.5,-0.2,3200,1716,,,,,,,,,,,,,,,,,
15146,1469915310212,,,,51,,,-0.05,-0.05,0.9,4.1,-0.4,-0.2,3240,1704,1.899,2,39.543964,-122.332069,29.26,0.104,303.9,9,2,1.4,0,0.0,-1,0.0,,0.0,0
15166,1469915310232,,,,,,,-0.04,-0.05,0.93,4.2,0.1,-0.3,3260,1704,,,,,,,,,,,,,,,,,
15186,1469915310252,,,,,,,-0.04,-0.06,0.97,4.2,0.9,-0.4,3260,1709,,,,,,,,,,,,,,,,,
15206,1469915310272,,,,,,,-0.06,-0.06,1.0,4.1,1.0,-0.5,3180,1724,,,,,,,,,,,,,,,,,
15226,1469915310394,,,,,,,-0.07,-0.1,0.98,4.2,0.1,-0.6,3260,1716,,,,,,,,,,,,,,,,,
15246,1469915310414,0,264.6,206.9,48,210.2,,-0.08,-0.11,0.96,4.3,-0.0,-0.8,3260,1720,1.884,2,39.543953,-122.332046,29.65,0.105,303.9,9,2,1.4,0,0.0,-1,0.0,0.0,0.0,0
15266,1469915310434,,,,,,,-0.1,-0.11,0.94,4.5,0.0,-0.9,3280,1720,,,,,,,,,,,,,,,,,
15286,1469915310454,,,,,,,-0.1,-0.13,0.94,4.6,-0.0,-0.8,3300,1724,,,,,,,,,,,,,,,,,
15306,1469915310474,,,,,,,-0.08,-0.14,0.94,4.6,-0.0,-0.7,3320,1724,,,,,,,,,,,,,,,,,
15326,1469915310494,,,,,,,-0.1,-0.14,0.95,4.7,0.2,-0.6,3280,1720,,,,,,,,,,,,,,,,,
15346,1469915310514,,,,51,,,-0.1,-0.14,1.0,4.7,0.6,-0.7,3320,1732,1.942,2,39.543953,-122.332046,29.65,0.105,303.9,9,2,1.4,0,0.0,-1,0.0,,0.0,0
15366,1469915310534,,,,,,,-0.09,-0.13,0.99,4.8,-0.2,-0.7,3280,1727,,,,,,,,,,,,,,,,,
15386,1469915310554,,,,,,,-0.07,-0.11,0.99,4.8,-0.4,-0.6,3280,1727,,,,,,,,,,,,,,,,,
15406,1469915310574,,,,,,,-0.07,-0.09,1.01,4.8,0.6,-0.6,3300,1747,,,,,,,,,,,,,,,,,
15426,1469915310492,,,,,,,-0.06,-0.09,1.0,4.8,0.7,-0.6,3280,1735,,,,,,,,,,,,,,,,,
15446,1469915310512,0,263.6,206.6,61,209.9,,-0.07,-0.1,1.0,4.7,0.7,-0.4,3260,1735,1.902,2,39.543945,-122.332031,29.87,0.106,303.8,9,2,1.4,0,0.0,-1,0.0,0.0,0.0,0
15466,1469915310532,,,,,,,-0.07,-0.11,0.97,4.6,0.6,-0.3,3320,1750,,,,,,,,,,,,,,,,,
15486,1469915310552,,,,,,,-0.06,-0.13,0.98,4.6,0.1,-0.3,3280,1747,,,,,,,,,,,,,,,,,
15506,1469915310572,,,,,,,-0.06,-0.15,0.95,4.6,-0.0,-0.3,3340,1750,,,,,,,,,,,,,,,,,
15526,1469915310592,,,,,,,-0.07,-0.15,0.93,4.5,0.4,-0.3,3320,1763,,,,,,,,,,,,,,,,,
15546,1469915310612,,,,49,,,-0.09,-0.15,0.95,4.4,0.5,-0.5,3220,1763,1.859,2,39.543942,-122.332024,30.15,0.107,303.9,9,2,1.4,0,0.0,-1,0.0,,0.0,0
15566,1469915310632,,,,,,,-0.08,-0.11,0.91,4.3,0.4,-0.6,3280,1755,,,,,,,,,,,,,,,,,
15586,1469915310652,,,,,,,-0.07,-0.07,0.92,4.2,-0.1,-0.8,3300,1772,,,,,,,,,,,,,,,,,
15606,1469915310672,,,,,,,-0.08,-0.08,0.94,4.2,0.2,-0.6,3280,1767,,,,,,,,,,,,,,,,,
15626,1469915310691,,,,,,,-0.08,-0.12,0.93,4.0,0.8,-0.3,3380,1763,,,,,,,,,,,,,,,,,
15646,1469915310711,0,261.9,205.9,57,209.2,,-0.07,-0.12,0.91,3.9,0.6,-0.3,3400,1775,1.898,2,39.54393,-122.332008,30.38,0.108,304.0,9,2,1.4,0,0.0,-1,0.0,0.0,0.0,0
15666,1469915310731,,,,,,,-0.09,-0.12,0.92,3.8,0.7,-0.3,3380,1775,,,,,,,,,,,,,,,,,
15686,1469915310751,,,,,,,-0.09,-0.12,0.91,3.8,0.9,-0.3,3360,1772,,,,,,,,,,,,,,,,,
15706,1469915310771,,,,,,,-0.09,-0.15,0.88,3.8,0.8,-0.3,3340,1775,,,,,,,,,,,,,,,,,
15726,1469915310795,,,,,,,-0.1,-0.12,0.93,3.7,0.5,-0.4,3340,1772,,,,,,,,,,,,,,,,,
15746,1469915310815,,,,53,,,-0.1,-0.07,0.9,3.7,0.7,-0.3,3360,1780,1.894,2,39.543922,-122.331993,30.71,0.109,304.3,9,2,1.4,0,0.0,-1,0.0,,0.0,0
15766,1469915310835,,,,,,,-0.09,-0.05,0.92,3.5,1.1,-0.4,3440,1784,,,,,,,,,,,,,,,,,
15786,1469915310855,,,,,,,-0.1,-0.05,0.94,3.4,1.5,-0.4,3400,1784,,,,,,,,,,,,,,,,,
15806,1469915310875,,,,,,,-0.12,-0.07,0.94,3.3,1.7,-0.1,3340,1792,,,,,,,,,,,,,,,,,
15826,1469915310895,,,,,,,-0.11,-0.07,0.95,3.2,1.5,-0.1,3360,1804,,,,,,,,,,,,,,,,,
15846,1469915310908,0,262.3,205.6,33,208.8,,-0.1,-0.07,0.99,3.1,0.9,-0.0,3420,1800,1.886,2,39.543919,-122.331985,30.78,0.109,304.4,9,2,1.4,0,0.0,-1,0.0,0.0,0.0,0
15866,1469915310928,,,,,,,-0.13,-0.08,1.01,3.0,0.9,0.0,3340,1809,,,,,,,,,,,,,,,,,
15886,1469915310948,,,,,,,-0.12,-0.06,1.02,3.0,0.6,-0.0,3420,1792,,,,,,,,,,,,,,,,,
15906,1469915310968,,,,,,,-0.11,-0.07,1.0,3.0,0.4,0.1,3400,1809,,,,,,,,,,,,,,,,,
15926,1469915310995,,,,,,,-0.1,-0.06,0.98,2.9,0.3,0.2,3380,1813,,,,,,,,,,,,,,,,,
15946,1469915311015,,,,62,,,-0.08,-0.06,0.95,2.7,0.2,0.4,3420,1809,1.856,2,39.543907,-122.33197,31.1,0.11,304.4,9,2,1.4,0,0.0,-1,0.0,,0.0,0
15966,1469915311035,,,,,,,-0.09,-0.08,0.93,2.5,-0.1,0.6,3380,1813,,,,,,,,,,,,,,,,,
15986,1469915311055,,,,,,,-0.08,-0.05,0.94,2.5,-0.8,0.5,3420,1800,,,,,,,,,,,,,,,,,
16006,1469915311075,,,,,,,-0.09,-0.07,0.92,2.4,-1.1,0.4,3340,1826,,,,,,,,,,,,,,,,,
16026,1469915311194,,,,,,,-0.05,-0.06,0.97,2.4,-1.2,0.5,3480,1809,,,,,,,,,,,,,,,,,
16046,1469915311214,0,262.1,205.7,72,209.1,13.82,-0.02,-0.02,0.95,2.1,-1.7,0.8,3480,1813,1.891,2,39.543892,-122.331947,31.58,0.112,304.6,9,2,1.6,0,0.0,-1,0.0,0.0,0.0,0
16066,1469915311234,,,,,,,-0.02,0.01,0.92,1.7,-1.0,1.0,3440,1821,,,,,,,,,,,,,,,,,
16086,1469915311254,,,,,,,-0.02,0.02,0.91,1.5,-0.8,0.7,3440,1821,,,,,,,,,,,,,,,,,
16106,1469915311274,,,,,,,-0.03,0.02,0.93,1.3,0.1,0.5,3420,1826,,,,,,,,,,,,,,,,,
16126,1469915311294,,,,,,,-0.03,0.05,0.96,1.2,-0.9,0.7,3480,1835,,,,,,,,,,,,,,,,,
16146,1469915311314,,,,71,,,-0.06,0.04,0.99,1.2,-0.2,0.6,3440,1840,1.9,2,39.543892,-122.331947,31.58,0.112,304.6,9,2,1.6,0,0.0,-1,0.0,,0.0,0
16166,1469915311334,,,,,,,-0.06,0.05,0.94,1.1,0.3,0.4,3480,1821,,,,,,,,,,,,,,,,,
16186,1469915311354,,,,,,,-0.04,0.05,0.95,1.2,-0.1,0.2,3500,1826,,,,,,,,,,,,,,,,,
16206,1469915311374,,,,,,,-0.04,0.03,0.98,1.2,0.2,0.2,3420,1840,,,,,,,,,,,,,,,,,
16226,1469915311295,,,,,,,-0.05,0.03,0.98,1.1,0.1,0.3,3480,1844,,,,,,,,,,,,,,,,,
16246,1469915311315,0,262.6,206.0,46,209.1,,-0.06,0.02,1.01,1.1,0.7,0.2,3500,1852,1.917,2,39.543884,-122.331932,31.76,0.113,304.7,9,2,1.6,0,0.0,-1,0.0,0.0,0.0,0
16266,1469915311335,,,,,,,-0.06,0.04,0.99,1.0,0.1,-0.0,3460,1840,,,,,,,,,,,,,,,,,
16286,1469915311355,,,,,,,-0.07,0.06,1.0,0.9,0.1,0.0,3500,1856,,,,,,,,,,,,,,,,,
16306,1469915311375,,,,,,,-0.07,0.1,0.97,0.6,0.0,0.1,3400,1847,,,,,,,,,,,,,,,,,
16326,1469915311395,,,,,,,-0.05,0.1,1.01,0.4,0.9,0.2,3480,1856,,,,,,,,,,,,,,,,,
16346,1469915311415,,,,48,,,-0.07,0.09,0.98,0.0,0.8,0.1,3480,1852,1.87,2,39.543877,-122.331917,31.94,0.114,304.8,9,2,1.6,0,0.0,-1,0.0,,0.0,0
16366,1469915311435,,,,,,,-0.08,0.06,0.99,0.1,0.6,-0.1,3540,1852,,,,,,,,,,,,,,,,,
16386,1469915311455,,,,,,,-0.09,0.03,0.97,0.1,0.3,-0.2,3540,1852,,,,,,,,,,,,,,,,,
16406,1469915311475,,,,,,,-0.08,0.02,0.99,0.4,0.4,-0.2,3440,1856,,,,,,,,,,,,,,,,,
16426,1469915311495,,,,,,,-0.06,0.0,0.95,0.4,-0.3,-0.0,3540,1840,,,,,,,,,,,,,,,,,
16446,1469915311515,0,262.1,205.7,36,209.6,,-0.05,0.0,0.94,0.5,-0.6,0.1,3460,1840,1.922,2,39.543869,-122.331909,32.14,0.114,304.9,9,2,1.6,0,0.0,-1,0.0,0.0,0.0,0
16466,1469915311535,,,,,,,-0.05,0.0,0.96,0.4,-0.4,0.1,3440,1830,,,,,,,,,,,,,,,,,
16486,1469915311555,,,,,,,-0.04,-0.03,0.97,0.5,-0.2,-0.0,3440,1821,,,,,,,,,,,,,,,,,
16506,1469915311575,,,,,,,-0.04,-0.02,0.93,0.5,-0.9,0.0,3380,1787,,,,,,,,,,,,,,,,,
16526,1469915311595,,,,,,,-0.03,-0.02,0.95,0.4,-1.0,0.0,3320,1792,,,,,,,,,,,,,,,,,
16546,1469915311615,,,,54,,,-0.02,0.0,0.93,0.3,-1.3,-0.0,3320,1763,1.902,2,39.543861,-122.331894,32.35,0.115,304.9,9,2,1.6,0,0.0,-1,0.0,,0.0,0
16566,1469915311635,,,,,,,-0.04,-0.02,0.9,0.3,-1.8,-0.0,3320,1796,,,,,,,,,,,,,,,,,
16586,1469915311655,,,,,,,-0.04,-0.0,0.92,0.2,-1.5,0.1,3280,1927,,,,,,,,,,,,,,,,,
16606,1469915311675,,,,,,,-0.01,-0.0,0.94,0.1,-1.3,0.1,3260,1880,,,,,,,,,,,,,,,,,
16626,1469915311695,,,,,,,-0.01,-0.01,0.95,0.1,-1.5,0.2,3200,1844,,,,,,,,,,,,,,,,,
16646,1469915311715,0,261.6,205.3,45,208.8,,0.01,-0.01,0.92,0.2,-1.2,0.4,3140,1818,1.68,0,39.543854,-122.331879,32.57,0.116,304.9,9,2,1.6,0,0.0,-1,0.0,0.0,0.0,0
16666,1469915311735,,,,,,,0.02,-0.01,0.91,0.2,-1.6,0.4,3060,1821,,,,,,,,,,,,,,,,,
16686,1469915311755,,,,,,,0.01,-0.01,0.93,0.1,-1.0,0.5,3120,1866,,,,,,,,,,,,,,,,,
16706,1469915311775,,,,,,,0.02,-0.01,0.96,-0.1,-0.5,0.5,3000,1903,,,,,,,,,,,,,,,,,
16726,1469915311795,,,,,,,0.01,0.01,0.99,-0.3,0.3,0.2,3020,1966,,,,,,,,,,,,,,,,,
16746,1469915311815,,,,51,,,0.01,0.01,0.99,-0.3,0.8,0.0,2960,1976,1.623,0,39.543842,-122.331863,32.6,0.118,305.0,9,2,1.6,0,0.0,-1,0.0,,0.0,0
16766,1469915311835,,,,,,,0.01,0.01,1.0,-0.2,1.3,0.0,2900,1760,,,,,,,,,,,,,,,,,
16786,1469915311855,,,,,,,0.01,0.0,1.03,-0.2,2.0,0.0,2860,1880,,,,,,,,,,,,,,,,,
16806,1469915311875,,,,,,,0.02,0.02,1.03,-0.3,2.3,-0.0,2860,1861,,,,,,,,,,,,,,,,,
16826,1469915311895,,,,,,,0.03,0.03,1.02,-0.3,2.1,0.0,2800,1830,,,,,,,,,,,,,,,,,
16846,1469915312008,0,261.3,204.9,48,208.2,,0.03,0.04,0.98,-0.4,2.1,0.1,2760,1821,1.521,0,39.543827,-122.33184,32.53,0.119,305.1,9,2,1.6,0,0.0,-1,0.0,0.0,0.0,0
16866,1469915312028,,,,,,,0.04,0.02,0.96,-0.4,1.7,0.2,2720,1804,,,,,,,,,,,,,,,,,
16886,1469915312048,,,,,,,0.04,0.02,0.97,-0.2,2.0,-0.1,2700,1784,,,,,,,,,,,,,,,,,
16906,1469915312068,,,,,,,0.04,0.04,0.99,-0.2,1.9,-0.2,2680,1796,,,,,,,,,,,,,,,,,
16926,1469915312088,,,,,,,0.03,0.07,0.98,-0.3,1.4,-0.2,2260,1830,,,,,,,,,,,,,,,,,
16946,1469915312108,,,,28,,,0.03,0.02,1.0,-0.3,1.1,-0.1,2600,1844,1.514,0,39.543827,-122.33184,32.53,0.119,305.1,9,2,1.6,0,0.0,-1,0.0,,0.0,0
16966,1469915312128,,,,,,,0.03,0.02,1.01,-0.0,1.1,-0.3,2580,1856,,,,,,,,,,,,,,,,,
16986,1469915312148,,,,,,,0.03,0.06,1.01,-0.2,0.8,-0.3,2580,1844,,,,,,,,,,,,,,,,,
17006,1469915312168,,,,,,,0.04,0.03,1.02,-0.3,1.1,-0.3,2480,1870,,,,,,,,,,,,,,,,,
17026,1469915312095,,,,,,,0.04,0.06,1.01,-0.3,0.9,-0.3,2480,1856,,,,,,,,,,,,,,,,,
17046,1469915312115,0,262.3,205.4,38,208.8,13.74,0.05,0.02,1.02,-0.3,0.8,-0.2,2440,1835,1.354,3,39.543819,-122.331825,32.51,0.12,305.1,9,2,1.6,0,0.0,-1,0.0,0.0,0.0,0
17066,1469915312135,,,,,,,0.06,0.05,1.03,-0.1,0.4,-0.2,2360,1847,,,,,,,,,,,,,,,,,
17086,1469915312155,,,,,,,0.06,-0.0,1.01,-0.1,0.2,-0.3,2380,1844,,,,,,,,,,,,,,,,,
17106,1469915312175,,,,,,,0.04,-0.01,0.99,0.1,-0.4,-0.2,2440,1847,,,,,,,,,,,,,,,,,
17126,1469915312195,,,,,,,0.03,-0.03,1.01,0.2,-0.3,-0.3,2360,1847,,,,,,,,,,,,,,,,,
17146,1469915312215,,,,37,,,0.03,-0.02,1.0,0.1,-0.8,-0.3,2300,1844,1.283,3,39.543808,-122.331818,32.53,0.121,305.1,9,2,1.6,0,0.0,-1,0.0,,0.0,0
17166,1469915312235,,,,,,,0.05,-0.01,0.98,0.2,-0.9,-0.3,2340,1840,,,,,,,,,,,,,,,,,
17186,1469915312255,,,,,,,0.05,0.0,0.97,0.2,-0.9,-0.2,2340,1830,,,,,,,,,,,,,,,,,
17206,1469915312275,,,,,,,0.04,0.0,1.01,0.2,-0.9,-0.0,2360,1840,,,,,,,,,,,,,,,,,
17226,1469915312293,,,,,,,0.04,0.0,1.01,0.2,-1.0,0.2,2400,1844,,,,,,,,,,,,,,,,,
17246,1469915312313,0,263.0,206.0,38,209.2,,0.03,-0.0,0.99,0.3,-0.6,0.3,2420,1861,1.301,3,39.5438,-122.331802,32.45,0.122,305.2,9,2,1.6,0,0.0,-1,0.0,0.0,0.0,0
17266,1469915312333,,,,,,,0.02,0.01,0.98,0.2,-0.1,0.2,2360,1893,,,,,,,,,,,,,,,,,
17286,1469915312353,,,,,,,0.01,0.01,0.98,0.2,0.0,0.1,2420,1889,,,,,,,,,,,,,,,,,
17306,1469915312373,,,,,,,0.01,-0.03,1.03,0.2,0.1,0.1,2480,1916,,,,,,,,,,,,,,,,,
17326,1469915312395,,,,,,,-0.01,-0.0,1.03,0.2,0.0,0.2,2400,1907,,,,,,,,,,,,,,,,,
17346,1469915312415,,,,40,,,-0.02,-0.01,1.01,0.2,0.0,0.2,2380,1884,1.234,3,39.543793,-122.331787,32.43,0.123,305.2,9,2,1.6,0,0.0,-1,0.0,,0.0,0
17366,1469915312435,,,,,,,-0.02,-0.01,0.99,0.2,-0.0,0.1,2380,1852,,,,,,,,,,,,,,,,,
17386,1469915312455,,,,,,,-0.01,0.0,0.98,0.3,-0.1,-0.1,2360,1847,,,,,,,,,,,,,,,,,
17406,1469915312475,,,,,,,-0.02,-0.02,1.0,0.0,0.0,0.0,2300,1840,,,,,,,,,,,,,,,,,
17426,1469915312496,,,,,,,-0.01,0.0,1.0,-0.0,0.0,0.1,2380,1840,,,,,,,,,,,,,,,,,
