"Interval"|"ms"|0|0|1,"Utc"|"ms"|0|0|1,"FuelLevel"|"F"|0|100|5,"OilTemp"|"F"|0.0|300.0|5,"Coolant"|"F"|0.0|300.0|5,"OilPress"|"PSI"|0|150|10,"EngineTemp"|"F"|0.0|300.0|5,"Battery"|"Volts"|0.0|20.0|1,"AccelX"|"G"|-3.0|3.0|50,"AccelY"|"G"|-3.0|3.0|50,"AccelZ"|"G"|-3.0|3.0|50,"Yaw"|"Deg/Sec"|-300.0|300.0|50,"Pitch"|"Deg/Sec"|-300.0|300.0|50,"Roll"|"Deg/Sec"|-300.0|300.0|50,"RPM"|""|0|10000|50,"Driveshaft"|"RPM"|0|5000|50,"GearRatio"|""|-5.0|5.0|10,"Gear"|""|-1|5|10,"Latitude"|"Degrees"|-180.0|180.0|10,"Longitude"|"Degrees"|-180.0|180.0|10,"Speed"|"MPH"|0.0|150.0|10,"Distance"|"Miles"|0.0|0.0|10,"Altitude"|"Feet"|0.0|4000.0|10,"GPSSats"|""|0|20|10,"GPSQual"|""|0|5|10,"GPSDOP"|""|0.0|20.0|10,"LapCount"|""|0|0|10,"LapTime"|"Min"|0.0|0.0|10,"Sector"|""|0|0|10,"SectorTime"|"Min"|0.0|0.0|10,"PredTime"|"Min"|0.0|0.0|5,"ElapsedTime"|"Min"|0.0|0.0|10,"CurrentLap"|""|0|0|10
570766,1469913757325,,,,,,,0.01,0.09,0.98,-2.9,-0.3,-0.4,160,0,,,,,,,,,,,,,,,,,
570786,1469913757345,,,,,,,0.0,0.08,0.98,-2.8,-0.3,-0.5,160,0,,,,,,,,,,,,,,,,,
570806,1469913757365,,,,,,,-0.0,0.07,0.97,-2.7,-0.4,-0.4,160,0,,,,,,,,,,,,,,,,,
570826,1469913757385,,,,,,,-0.01,0.07,0.97,-2.7,-0.4,-0.3,160,0,,,,,,,,,,,,,,,,,
570846,1469913757406,0,212.9,183.4,0,189.7,,-0.0,0.08,0.97,-2.8,-0.3,-0.3,200,0,0.0,0,39.540581,-122.332069,0.0,0.227,325.8,10,3,1.3,0,0.0,-1,0.0,0.0,0.0,0
570866,1469913757426,,,,,,,0.01,0.08,0.98,-2.8,-0.4,-0.3,200,0,,,,,,,,,,,,,,,,,
570886,1469913757446,,,,,,,0.0,0.06,0.98,-2.8,-0.4,-0.5,200,0,,,,,,,,,,,,,,,,,
570906,1469913757466,,,,,,,-0.0,0.07,0.98,-2.8,-0.3,-0.5,200,0,,,,,,,,,,,,,,,,,
570926,1469913757486,,,,,,,-0.0,0.07,0.98,-2.9,-0.2,-0.3,200,0,,,,,,,,,,,,,,,,,
570946,1469913757506,,,,0,,,0.01,0.08,0.99,-2.9,0.2,-0.1,220,0,0.0,0,39.540581,-122.332069,0.0,0.227,325.8,10,3,1.3,0,0.0,-1,0.0,,0.0,0
570966,1469913757526,,,,,,,0.01,0.08,0.99,-3.0,0.3,-0.1,220,0,,,,,,,,,,,,,,,,,
570986,1469913757546,,,,,,,0.01,0.08,0.99,-2.9,0.3,-0.3,220,0,,,,,,,,,,,,,,,,,
571006,1469913757566,,,,,,,0.01,0.09,0.99,-2.9,0.2,-0.4,260,0,,,,,,,,,,,,,,,,,
571026,1469913757586,,,,,,,0.0,0.08,0.99,-3.0,0.1,-0.3,260,0,,,,,,,,,,,,,,,,,
571046,1469913757606,0,213.5,182.7,0,188.8,11.11,0.0,0.07,0.99,-2.9,0.1,-0.3,260,0,0.0,0,39.540581,-122.332069,0.0,0.227,325.8,10,3,1.3,0,0.0,-1,0.0,0.0,0.0,0
571066,1469913757626,,,,,,,0.0,0.08,0.99,-2.9,0.1,-0.3,380,0,,,,,,,,,,,,,,,,,
571086,1469913757646,,,,,,,-0.0,0.06,0.97,-2.9,0.2,-0.3,380,0,,,,,,,,,,,,,,,,,
571106,1469913757666,,,,,,,-0.01,0.06,0.97,-3.0,0.2,-0.1,500,0,,,,,,,,,,,,,,,,,
571126,1469913757686,,,,,,,-0.01,0.06,0.98,-2.9,0.2,-0.4,500,0,,,,,,,,,,,,,,,,,
571146,1469913757706,,,,2,,,-0.0,0.07,1.0,-3.1,0.2,-0.1,640,0,0.0,0,39.540581,-122.332069,0.0,0.227,325.8,10,3,1.3,0,0.0,-1,0.0,,0.0,0
571166,1469913757726,,,,,,,0.0,0.1,1.0,-3.2,0.4,0.1,760,0,,,,,,,,,,,,,,,,,
571186,1469913757746,,,,,,,-0.0,0.1,1.0,-3.0,0.3,-0.2,860,0,,,,,,,,,,,,,,,,,
571206,1469913757766,,,,,,,-0.01,0.11,1.01,-2.9,0.3,-0.3,940,0,,,,,,,,,,,,,,,,,
571226,1469913757786,,,,,,,-0.0,0.1,1.01,-2.9,0.3,-0.5,940,0,,,,,,,,,,,,,,,,,
571246,1469913757905,0,214.0,183.7,5,189.8,,-0.0,0.06,0.99,-2.8,0.4,-0.6,920,0,0.0,0,39.540581,-122.332069,0.0,0.227,325.8,10,3,1.3,0,0.0,-1,0.0,0.0,0.0,0
571266,1469913757925,,,,,,,0.01,0.06,0.99,-2.8,0.5,-0.5,960,0,,,,,,,,,,,,,,,,,
571286,1469913757945,,,,,,,0.01,0.06,0.98,-2.8,0.3,-0.4,960,0,,,,,,,,,,,,,,,,,
571306,1469913757965,,,,,,,0.01,0.03,0.98,-2.7,-0.0,-0.4,960,0,,,,,,,,,,,,,,,,,
571326,1469913757985,,,,,,,0.0,0.03,0.97,-2.8,-0.3,-0.4,1060,0,,,,,,,,,,,,,,,,,
571346,1469913758005,,,,10,,,-0.0,0.02,0.98,-2.9,-0.7,-0.3,1100,0,0.0,0,39.540581,-122.332069,0.0,0.227,325.8,10,3,1.3,0,0.0,-1,0.0,,0.0,0
571366,1469913758025,,,,,,,-0.0,0.02,0.97,-2.8,-1.1,-0.3,1120,0,,,,,,,,,,,,,,,,,
571386,1469913758045,,,,,,,-0.0,0.04,0.97,-2.7,-1.3,-0.3,1160,0,,,,,,,,,,,,,,,,,
571406,1469913758065,,,,,,,0.01,0.05,0.99,-2.8,-1.1,-0.2,1220,0,,,,,,,,,,,,,,,,,
571426,1469913758085,,,,,,,0.01,0.06,0.98,-2.9,-0.8,-0.2,1260,0,,,,,,,,,,,,,,,,,
571446,1469913758006,0,213.7,183.3,13,189.4,,0.0,0.05,0.99,-2.8,-0.5,-0.1,1280,0,0.0,0,39.540581,-122.332069,0.0,0.227,325.8,10,3,1.3,0,0.0,-1,0.0,0.0,0.0,0
571466,1469913758026,,,,,,,0.0,0.06,0.99,-2.9,-0.5,-0.1,1300,0,,,,,,,,,,,,,,,,,
571486,1469913758046,,,,,,,0.01,0.06,0.99,-2.9,-0.4,-0.1,1340,0,,,,,,,,,,,,,,,,,
571506,1469913758066,,,,,,,0.0,0.06,0.99,-2.8,-0.3,-0.2,1340,0,,,,,,,,,,,,,,,,,
571526,1469913758086,,,,,,,0.0,0.07,0.97,-2.9,-0.4,-0.2,1360,0,,,,,,,,,,,,,,,,,
571546,1469913758106,,,,17,,,0.01,0.05,0.97,-2.9,-0.3,-0.2,1380,0,0.0,0,39.540581,-122.332069,0.0,0.227,325.8,10,3,1.3,0,0.0,-1,0.0,,0.0,0
571566,1469913758126,,,,,,,0.01,0.05,0.97,-2.9,-0.1,-0.2,1380,0,,,,,,,,,,,,,,,,,
571586,1469913758146,,,,,,,0.01,0.07,0.98,-2.9,0.0,-0.2,1380,0,,,,,,,,,,,,,,,,,
571606,1469913758166,,,,,,,0.01,0.07,0.97,-3.0,0.3,-0.2,1400,0,,,,,,,,,,,,,,,,,
571626,1469913758186,,,,,,,0.0,0.06,0.97,-3.1,0.2,-0.2,1400,0,,,,,,,,,,,,,,,,,
571646,1469913758206,0,213.4,182.2,24,188.6,,0.0,0.07,0.97,-3.1,0.2,-0.2,1380,0,0.0,0,39.540581,-122.332069,0.0,0.227,325.8,10,3,1.3,0,0.0,-1,0.0,0.0,0.0,0
571666,1469913758226,,,,,,,-0.0,0.07,0.98,-3.0,0.1,-0.2,1380,0,,,,,,,,,,,,,,,,,
571686,1469913758246,,,,,,,-0.0,0.07,0.98,-3.0,0.1,-0.2,1360,0,,,,,,,,,,,,,,,,,
571706,1469913758266,,,,,,,-0.0,0.07,0.97,-3.0,-0.1,-0.2,1360,0,,,,,,,,,,,,,,,,,
571726,1469913758286,,,,,,,-0.0,0.07,0.97,-3.0,-0.1,-0.2,1340,0,,,,,,,,,,,,,,,,,
571746,1469913758306,,,,22,,,0.0,0.06,0.97,-2.9,-0.1,-0.3,1320,0,0.0,0,39.540581,-122.332069,0.0,0.227,325.8,10,3,1.3,0,0.0,-1,0.0,,0.0,0
571766,1469913758326,,,,,,,0.0,0.07,0.97,-2.9,-0.0,-0.3,1300,0,,,,,,,,,,,,,,,,,
571786,1469913758346,,,,,,,0.0,0.06,0.97,-2.9,0.1,-0.3,1300,0,,,,,,,,,,,,,,,,,
571806,1469913758366,,,,,,,0.0,0.06,0.97,-2.9,0.3,-0.3,1260,0,,,,,,,,,,,,,,,,,
571826,1469913758386,,,,,,,0.0,0.06,0.97,-2.9,0.4,-0.2,1240,0,,,,,,,,,,,,,,,,,
571846,1469913758406,0,214.5,184.1,22,190.2,,0.0,0.07,0.97,-2.9,0.4,-0.2,1240,0,0.0,0,39.540581,-122.332069,0.0,0.227,325.8,10,3,1.3,0,0.0,-1,0.0,0.0,0.0,0
571866,1469913758426,,,,,,,0.0,0.07,0.97,-3.0,0.4,-0.2,1220,0,,,,,,,,,,,,,,,,,
571886,1469913758446,,,,,,,0.0,0.07,0.97,-3.0,0.4,-0.2,1220,0,,,,,,,,,,,,,,,,,
571906,1469913758466,,,,,,,0.0,0.07,0.98,-3.0,0.4,-0.3,1180,0,,,,,,,,,,,,,,,,,
571926,1469913758486,,,,,,,0.0,0.07,0.98,-3.0,0.4,-0.2,1160,0,,,,,,,,,,,,,,,,,
571946,1469913758506,,,,21,,,-0.0,0.07,0.98,-2.9,0.4,-0.2,1160,0,0.0,0,39.540581,-122.332069,0.0,0.227,325.8,10,3,1.3,0,0.0,-1,0.0,,0.0,0
571966,1469913758526,,,,,,,-0.0,0.07,0.98,-3.0,0.4,-0.2,1160,0,,,,,,,,,,,,,,,,,
571986,1469913758546,,,,,,,-0.0,0.07,0.98,-2.9,0.4,-0.2,1120,0,,,,,,,,,,,,,,,,,
572006,1469913758566,,,,,,,-0.0,0.07,0.98,-2.9,0.3,-0.3,1120,0,,,,,,,,,,,,,,,,,
572026,1469913758586,,,,,,,-0.0,0.07,0.98,-3.0,0.3,-0.2,1120,0,,,,,,,,,,,,,,,,,
572046,1469913758705,1,212.0,181.3,15,187.8,13.16,-0.0,0.07,0.98,-2.9,0.3,-0.2,1060,0,0.0,0,39.540581,-122.332069,0.0,0.227,325.8,10,3,1.3,0,0.0,-1,0.0,0.0,0.0,0
572066,1469913758725,,,,,,,-0.01,0.07,0.98,-2.9,0.3,-0.2,1040,0,,,,,,,,,,,,,,,,,
572086,1469913758745,,,,,,,-0.01,0.07,0.98,-2.9,0.3,-0.3,1020,0,,,,,,,,,,,,,,,,,
572106,1469913758765,,,,,,,-0.01,0.07,0.98,-3.0,0.3,-0.3,1000,0,,,,,,,,,,,,,,,,,
572126,1469913758785,,,,,,,-0.01,0.08,0.98,-3.0,0.2,-0.3,1000,0,,,,,,,,,,,,,,,,,
572146,1469913758805,,,,15,,,-0.01,0.07,0.98,-3.0,0.1,-0.2,940,0,0.0,0,39.540581,-122.332069,0.0,0.227,325.8,10,3,1.3,0,0.0,-1,0.0,,0.0,0
572166,1469913758825,,,,,,,-0.01,0.07,0.98,-3.0,0.1,-0.2,960,0,,,,,,,,,,,,,,,,,
572186,1469913758845,,,,,,,-0.01,0.07,0.98,-3.0,0.1,-0.2,960,0,,,,,,,,,,,,,,,,,
572206,1469913758865,,,,,,,-0.01,0.07,0.98,-2.9,0.0,-0.2,920,0,,,,,,,,,,,,,,,,,
572226,1469913758885,,,,,,,-0.01,0.07,0.98,-2.9,0.0,-0.2,920,0,,,,,,,,,,,,,,,,,
572246,1469913758806,0,214.5,184.7,13,191.2,,-0.01,0.07,0.98,-2.9,0.1,-0.2,900,0,0.0,0,39.540581,-122.332069,0.0,0.227,325.8,10,3,1.3,0,0.0,-1,0.0,0.0,0.0,0
572266,1469913758826,,,,,,,-0.01,0.08,0.98,-2.9,0.1,-0.2,900,0,,,,,,,,,,,,,,,,,
572286,1469913758846,,,,,,,-0.01,0.08,0.98,-2.9,0.1,-0.2,840,0,,,,,,,,,,,,,,,,,
572306,1469913758866,,,,,,,-0.01,0.07,0.98,-2.8,0.1,-0.3,840,0,,,,,,,,,,,,,,,,,
572326,1469913758886,,,,,,,-0.01,0.06,0.98,-2.8,0.1,-0.3,820,0,,,,,,,,,,,,,,,,,
572346,1469913758899,,,,13,,,-0.01,0.06,0.98,-2.8,0.1,-0.3,820,0,0.0,0,39.540581,-122.332069,0.0,0.227,325.8,10,3,1.3,0,0.0,-1,0.0,,0.0,0
572366,1469913758919,,,,,,,-0.0,0.06,0.98,-2.8,0.1,-0.2,800,0,,,,,,,,,,,,,,,,,
572386,1469913758939,,,,,,,-0.0,0.07,0.98,-2.9,0.1,-0.2,800,0,,,,,,,,,,,,,,,,,
572406,1469913758959,,,,,,,0.0,0.07,0.99,-2.9,0.1,-0.3,760,0,,,,,,,,,,,,,,,,,
572426,1469913758979,,,,,,,-0.0,0.07,0.98,-2.9,0.1,-0.3,760,0,,,,,,,,,,,,,,,,,
572446,1469913758999,0,214.6,184.4,12,190.8,,0.0,0.07,0.98,-2.9,0.1,-0.2,760,0,0.0,0,39.540581,-122.332069,0.0,0.227,325.8,10,3,1.3,0,0.0,-1,0.0,0.0,0.0,0
572466,1469913759019,,,,,,,0.0,0.07,0.98,-2.9,0.2,-0.1,760,0,,,,,,,,,,,,,,,,,
572486,1469913759039,,,,,,,0.0,0.07,0.98,-2.9,0.2,-0.2,740,0,,,,,,,,,,,,,,,,,
572506,1469913759059,,,,,,,0.01,0.07,0.99,-2.9,0.2,-0.2,740,0,,,,,,,,,,,,,,,,,
572526,1469913759079,,,,,,,0.01,0.08,0.98,-2.9,0.3,-0.2,740,0,,,,,,,,,,,,,,,,,
572546,1469913759106,,,,10,,,0.01,0.07,0.98,-3.0,0.3,-0.1,720,0,0.0,0,39.540581,-122.332069,0.0,0.227,325.8,10,3,1.3,0,0.0,-1,0.0,,0.0,0
572566,1469913759126,,,,,,,0.01,0.08,0.98,-3.0,0.3,-0.1,720,0,,,,,,,,,,,,,,,,,
572586,1469913759146,,,,,,,0.0,0.07,0.98,-3.0,0.3,-0.2,720,0,,,,,,,,,,,,,,,,,
572606,1469913759166,,,,,,,0.01,0.08,0.98,-3.0,0.2,-0.1,660,0,,,,,,,,,,,,,,,,,
572626,1469913759186,,,,,,,0.01,0.08,0.98,-3.0,0.1,-0.1,680,0,,,,,,,,,,,,,,,,,
572646,1469913759206,0,212.7,182.1,9,188.5,,0.01,0.08,0.98,-3.0,0.1,-0.2,680,0,0.0,0,39.540581,-122.332069,0.0,0.227,325.8,10,3,1.3,0,0.0,-1,0.0,0.0,0.0,0
572666,1469913759226,,,,,,,0.01,0.08,0.98,-3.0,0.2,-0.2,660,0,,,,,,,,,,,,,,,,,
572686,1469913759246,,,,,,,0.01,0.08,0.99,-3.0,0.2,-0.2,640,0,,,,,,,,,,,,,,,,,
572706,1469913759266,,,,,,,0.01,0.07,0.98,-2.9,0.2,-0.2,640,0,,,,,,,,,,,,,,,,,
572726,1469913759286,,,,,,,0.01,0.07,0.99,-3.0,0.3,-0.2,640,0,,,,,,,,,,,,,,,,,
572746,1469913759306,,,,10,,,0.01,0.08,0.98,-3.0,0.4,-0.2,640,0,0.0,0,39.540581,-122.332069,0.0,0.227,325.8,10,3,1.3,0,0.0,-1,0.0,,0.0,0
572766,1469913759326,,,,,,,0.01,0.07,0.98,-2.9,0.4,-0.2,640,0,,,,,,,,,,,,,,,,,
572786,1469913759346,,,,,,,0.01,0.08,0.98,-3.0,0.4,-0.1,620,0,,,,,,,,,,,,,,,,,
572806,1469913759366,,,,,,,0.01,0.07,0.98,-3.0,0.4,-0.1,640,0,,,,,,,,,,,,,,,,,
572826,1469913759386,,,,,,,0.01,0.08,0.98,-2.9,0.4,-0.1,640,0,,,,,,,,,,,,,,,,,
572846,1469913759506,0,213.6,183.8,7,190.2,,0.01,0.09,0.98,-2.9,0.4,-0.1,640,0,0.0,0,39.540581,-122.332069,0.0,0.227,325.8,10,3,1.3,0,0.0,-1,0.0,0.0,0.0,0
572866,1469913759526,,,,,,,0.01,0.08,0.99,-2.9,0.4,-0.2,640,0,,,,,,,,,,,,,,,,,
572886,1469913759546,,,,,,,0.01,0.08,0.99,-3.0,0.5,-0.1,640,0,,,,,,,,,,,,,,,,,
572906,1469913759566,,,,,,,0.01,0.09,0.99,-3.0,0.6,-0.1,640,0,,,,,,,,,,,,,,,,,
572926,1469913759586,,,,,,,0.01,0.09,0.99,-3.0,0.5,-0.1,640,0,,,,,,,,,,,,,,,,,
572946,1469913759606,,,,8,,,0.01,0.09,0.99,-3.0,0.5,-0.1,640,0,0.0,0,39.540581,-122.332069,0.0,0.227,325.8,10,3,1.3,0,0.0,-1,0.0,,0.0,0
572966,1469913759626,,,,,,,0.01,0.09,0.98,-3.0,0.4,-0.1,620,0,,,,,,,,,,,,,,,,,
572986,1469913759646,,,,,,,0.0,0.09,0.99,-3.0,0.3,-0.2,620,0,,,,,,,,,,,,,,,,,
573006,1469913759666,,,,,,,0.0,0.09,0.99,-3.0,0.2,-0.2,640,0,,,,,,,,,,,,,,,,,
573026,1469913759686,,,,,,,-0.0,0.09,0.98,-3.0,0.0,-0.1,640,0,,,,,,,,,,,,,,,,,
573046,1469913759607,0,214.1,184.3,8,190.3,12.89,-0.01,0.09,0.98,-3.0,-0.1,-0.2,640,0,0.0,0,39.540581,-122.332069,0.0,0.227,325.8,10,3,1.3,0,0.0,-1,0.0,0.0,0.0,0
573066,1469913759627,,,,,,,-0.01,0.09,0.98,-3.0,-0.0,-0.1,640,0,,,,,,,,,,,,,,,,,
573086,1469913759647,,,,,,,-0.01,0.09,0.98,-3.0,0.0,-0.1,660,0,,,,,,,,,,,,,,,,,
573106,1469913759667,,,,,,,-0.01,0.08,0.98,-3.0,0.1,-0.2,660,0,,,,,,,,,,,,,,,,,
573126,1469913759687,,,,,,,-0.01,0.09,0.98,-3.0,0.1,-0.1,660,0,,,,,,,,,,,,,,,,,
573146,1469913759707,,,,8,,,-0.01,0.08,0.98,-3.0,0.1,-0.2,640,0,0.0,0,39.540581,-122.332069,0.0,0.227,325.8,10,3,1.3,0,0.0,-1,0.0,,0.0,0
573166,1469913759727,,,,,,,-0.01,0.07,0.98,-2.9,0.2,-0.2,640,0,,,,,,,,,,,,,,,,,
573186,1469913759747,,,,,,,-0.01,0.07,0.98,-3.0,0.2,-0.1,660,0,,,,,,,,,,,,,,,,,
573206,1469913759767,,,,,,,-0.01,0.07,0.98,-2.9,0.1,-0.1,660,0,,,,,,,,,,,,,,,,,
573226,1469913759787,,,,,,,-0.02,0.07,0.98,-2.9,0.1,-0.2,660,0,,,,,,,,,,,,,,,,,
573246,1469913759807,0,214.3,184.3,7,189.8,,-0.01,0.08,0.98,-3.0,0.1,-0.1,680,0,0.0,0,39.540581,-122.332069,0.0,0.227,325.8,10,3,1.3,0,0.0,-1,0.0,0.0,0.0,0
573266,1469913759827,,,,,,,-0.01,0.08,0.98,-3.0,0.1,-0.1,680,0,,,,,,,,,,,,,,,,,
573286,1469913759847,,,,,,,-0.01,0.08,0.98,-3.0,0.1,-0.2,680,0,,,,,,,,,,,,,,,,,
573306,1469913759867,,,,,,,-0.01,0.08,0.99,-3.1,0.1,-0.1,680,0,,,,,,,,,,,,,,,,,
573326,1469913759887,,,,,,,-0.01,0.08,0.99,-3.0,0.0,-0.1,680,0,,,,,,,,,,,,,,,,,
573346,1469913759900,,,,8,,,-0.01,0.08,0.99,-3.0,-0.0,-0.1,700,0,0.0,0,39.540581,-122.332069,0.0,0.227,325.8,10,3,1.3,0,0.0,-1,0.0,,0.0,0
573366,1469913759920,,,,,,,-0.01,0.08,0.99,-3.0,-0.1,-0.2,700,0,,,,,,,,,,,,,,,,,
573386,1469913759940,,,,,,,-0.02,0.09,0.99,-3.0,-0.1,-0.1,700,0,,,,,,,,,,,,,,,,,
573406,1469913759960,,,,,,,-0.02,0.08,0.99,-3.0,0.0,-0.1,700,0,,,,,,,,,,,,,,,,,
573426,1469913759980,,,,,,,-0.02,0.07,0.99,-2.9,0.1,-0.2,720,0,,,,,,,,,,,,,,,,,
573446,1469913760007,0,214.3,184.6,8,190.2,,-0.01,0.07,0.99,-2.9,0.2,-0.2,720,0,0.0,0,39.540581,-122.332069,0.0,0.227,325.8,10,3,1.3,0,0.0,-1,0.0,0.0,0.0,0
573466,1469913760027,,,,,,,-0.01,0.06,0.99,-2.9,0.3,-0.1,720,0,,,,,,,,,,,,,,,,,
573486,1469913760047,,,,,,,-0.01,0.06,0.99,-2.8,0.3,-0.2,700,0,,,,,,,,,,,,,,,,,
573506,1469913760067,,,,,,,-0.01,0.07,0.99,-2.9,0.3,-0.2,700,0,,,,,,,,,,,,,,,,,
573526,1469913760087,,,,,,,-0.01,0.07,0.99,-2.9,0.3,-0.1,720,0,,,,,,,,,,,,,,,,,
573546,1469913760107,,,,8,,,-0.01,0.07,0.98,-2.9,0.2,-0.1,740,0,0.0,0,39.540581,-122.332069,0.0,0.227,325.8,10,3,1.3,0,0.0,-1,0.0,,0.0,0
573566,1469913760127,,,,,,,-0.01,0.07,0.98,-2.9,0.1,-0.2,740,0,,,,,,,,,,,,,,,,,
573586,1469913760147,,,,,,,-0.01,0.07,0.98,-2.9,0.1,-0.2,740,0,,,,,,,,,,,,,,,,,
573606,1469913760167,,,,,,,-0.0,0.07,0.98,-3.0,0.1,-0.1,740,0,,,,,,,,,,,,,,,,,
573626,1469913760187,,,,,,,-0.01,0.07,0.98,-3.0,0.1,-0.1,740,0,,,,,,,,,,,,,,,,,
573646,1469913760307,0,214.1,183.9,9,189.2,,-0.01,0.07,0.98,-2.9,-0.1,-0.2,740,0,0.0,0,39.540581,-122.332069,0.0,0.227,325.8,10,3,1.3,0,0.0,-1,0.0,0.0,0.0,0
573666,1469913760327,,,,,,,-0.01,0.07,0.97,-2.9,-0.0,-0.2,740,0,,,,,,,,,,,,,,,,,
573686,1469913760347,,,,,,,-0.01,0.06,0.98,-2.9,0.0,-0.1,740,0,,,,,,,,,,,,,,,,,
573706,1469913760367,,,,,,,-0.01,0.07,0.98,-2.9,0.1,-0.1,760,0,,,,,,,,,,,,,,,,,
573726,1469913760387,,,,,,,-0.01,0.07,0.98,-2.8,-0.0,-0.2,760,0,,,,,,,,,,,,,,,,,
573746,1469913760407,,,,9,,,-0.01,0.06,0.98,-2.8,0.1,-0.2,760,0,0.0,0,39.540581,-122.332069,0.0,0.227,325.8,10,3,1.3,0,0.0,-1,0.0,,0.0,0
573766,1469913760427,,,,,,,-0.01,0.06,0.97,-2.9,0.0,-0.1,760,0,,,,,,,,,,,,,,,,,
573786,1469913760447,,,,,,,-0.01,0.07,0.98,-2.9,0.1,-0.1,760,0,,,,,,,,,,,,,,,,,
573806,1469913760467,,,,,,,-0.01,0.07,0.98,-2.9,-0.0,-0.2,740,0,,,,,,,,,,,,,,,,,
573826,1469913760487,,,,,,,-0.01,0.07,0.98,-2.9,0.0,-0.2,760,0,,,,,,,,,,,,,,,,,
573846,1469913760407,0,213.7,183.5,10,188.6,,-0.01,0.07,0.98,-2.9,-0.0,-0.2,760,0,0.0,0,39.540581,-122.332069,0.0,0.227,325.8,10,3,1.3,0,0.0,-1,0.0,0.0,0.0,0
573866,1469913760427,,,,,,,-0.01,0.07,0.98,-3.0,-0.0,-0.2,760,0,,,,,,,,,,,,,,,,,
573886,1469913760447,,,,,,,-0.01,0.08,0.98,-3.0,-0.0,-0.2,760,0,,,,,,,,,,,,,,,,,
573906,1469913760467,,,,,,,-0.01,0.08,0.98,-3.0,0.0,-0.3,760,0,,,,,,,,,,,,,,,,,
573926,1469913760487,,,,,,,-0.01,0.08,0.98,-3.0,0.0,-0.2,760,0,,,,,,,,,,,,,,,,,
573946,1469913760506,,,,13,,,-0.01,0.08,0.98,-3.1,0.1,-0.2,760,0,0.0,0,39.540581,-122.332069,0.0,0.227,325.8,10,3,1.3,0,0.0,-1,0.0,,0.0,0
573966,1469913760526,,,,,,,-0.0,0.08,0.98,-3.1,0.2,-0.2,740,0,,,,,,,,,,,,,,,,,
573986,1469913760546,,,,,,,-0.01,0.08,0.99,-3.0,0.2,-0.3,760,0,,,,,,,,,,,,,,,,,
574006,1469913760566,,,,,,,-0.0,0.08,0.98,-3.0,0.2,-0.3,760,0,,,,,,,,,,,,,,,,,
574026,1469913760586,,,,,,,-0.0,0.07,0.99,-3.0,0.2,-0.2,760,0,,,,,,,,,,,,,,,,,
574046,1469913760607,0,213.5,184.0,10,189.6,13.18,-0.0,0.07,0.98,-3.0,0.2,-0.2,760,0,0.0,0,39.540581,-122.332069,0.0,0.227,325.8,10,3,1.3,0,0.0,-1,0.0,0.0,0.0,0
574066,1469913760627,,,,,,,-0.0,0.07,0.98,-2.9,0.1,-0.3,760,0,,,,,,,,,,,,,,,,,
574086,1469913760647,,,,,,,-0.0,0.07,0.98,-2.9,0.1,-0.3,760,0,,,,,,,,,,,,,,,,,
574106,1469913760667,,,,,,,-0.0,0.07,0.98,-2.9,0.1,-0.2,760,0,,,,,,,,,,,,,,,,,
574126,1469913760687,,,,,,,-0.0,0.08,0.98,-2.9,0.2,-0.1,740,0,,,,,,,,,,,,,,,,,
574146,1469913760707,,,,10,,,-0.0,0.07,0.98,-2.9,0.1,-0.2,760,0,0.0,0,39.540581,-122.332069,0.0,0.227,325.8,10,3,1.3,0,0.0,-1,0.0,,0.0,0
574166,1469913760727,,,,,,,-0.01,0.07,0.98,-2.9,0.3,-0.2,760,0,,,,,,,,,,,,,,,,,
574186,1469913760747,,,,,,,-0.01,0.07,0.98,-3.0,0.3,-0.2,760,0,,,,,,,,,,,,,,,,,
574206,1469913760767,,,,,,,-0.01,0.08,0.98,-3.0,0.3,-0.1,760,0,,,,,,,,,,,,,,,,,
574226,1469913760787,,,,,,,-0.01,0.08,0.99,-3.0,0.3,-0.2,760,0,,,,,,,,,,,,,,,,,
574246,1469913760806,0,214.0,184.5,10,189.7,,-0.01,0.08,0.99,-3.0,0.3,-0.2,760,0,0.0,0,39.540581,-122.332069,0.0,0.227,325.8,10,3,1.3,0,0.0,-1,0.0,0.0,0.0,0
574266,1469913760826,,,,,,,-0.01,0.07,0.99,-3.0,0.2,-0.2,760,0,,,,,,,,,,,,,,,,,
574286,1469913760846,,,,,,,-0.01,0.08,0.99,-3.0,0.2,-0.1,740,0,,,,,,,,,,,,,,,,,
574306,1469913760866,,,,,,,-0.01,0.08,0.99,-3.0,0.3,-0.2,760,0,,,,,,,,,,,,,,,,,
574326,1469913760886,,,,,,,-0.01,0.07,0.99,-2.9,0.2,-0.3,760,0,,,,,,,,,,,,,,,,,
574346,1469913760900,,,,9,,,-0.01,0.07,0.98,-2.9,0.3,-0.2,760,0,0.0,0,39.540581,-122.332069,0.0,0.227,325.8,10,3,1.3,0,0.0,-1,0.0,,0.0,0
574366,1469913760920,,,,,,,-0.01,0.07,0.98,-2.9,0.2,-0.1,760,0,,,,,,,,,,,,,,,,,
574386,1469913760940,,,,,,,-0.01,0.07,0.98,-2.9,0.2,-0.1,760,0,,,,,,,,,,,,,,,,,
574406,1469913760960,,,,,,,-0.01,0.07,0.98,-2.9,0.2,-0.2,740,0,,,,,,,,,,,,,,,,,
574426,1469913760980,,,,,,,-0.01,0.07,0.98,-2.9,0.2,-0.2,740,0,,,,,,,,,,,,,,,,,
574446,1469913761105,0,213.0,183.1,8,188.4,,-0.0,0.07,0.98,-2.9,0.2,-0.1,740,23,0.0,0,39.540581,-122.332069,0.0,0.227,325.8,10,3,1.3,0,0.0,-1,0.0,0.0,0.0,0
574466,1469913761125,,,,,,,0.0,0.08,0.98,-2.9,0.2,-0.1,760,23,,,,,,,,,,,,,,,,,
574486,1469913761145,,,,,,,0.0,0.08,0.98,-2.9,0.1,-0.2,740,23,,,,,,,,,,,,,,,,,
574506,1469913761165,,,,,,,0.0,0.07,0.98,-2.9,0.2,-0.2,740,23,,,,,,,,,,,,,,,,,
574526,1469913761185,,,,,,,0.0,0.07,0.98,-2.9,0.1,-0.1,740,23,,,,,,,,,,,,,,,,,
574546,1469913761205,,,,10,,,0.0,0.07,0.98,-2.9,0.2,-0.1,740,23,32.174,0,39.540581,-122.332069,0.0,0.227,325.8,10,3,1.3,0,0.0,-1,0.0,,0.0,0
574566,1469913761225,,,,,,,0.0,0.07,0.98,-2.9,0.2,-0.2,740,12,,,,,,,,,,,,,,,,,
574586,1469913761245,,,,,,,0.0,0.07,0.98,-2.9,0.3,-0.2,740,12,,,,,,,,,,,,,,,,,
574606,1469913761265,,,,,,,0.01,0.07,0.98,-2.9,0.3,-0.1,720,12,,,,,,,,,,,,,,,,,
574626,1469913761285,,,,,,,0.01,0.07,0.97,-2.9,0.3,-0.1,740,12,,,,,,,,,,,,,,,,,
574646,1469913761206,0,214.0,184.7,10,189.5,,0.01,0.07,0.97,-2.9,0.2,-0.2,740,12,61.667,0,39.540581,-122.332069,0.0,0.227,325.8,10,3,1.3,0,0.0,-1,0.0,0.0,0.0,0
574666,1469913761226,,,,,,,0.01,0.07,0.97,-2.9,0.2,-0.2,740,12,,,,,,,,,,,,,,,,,
574686,1469913761246,,,,,,,0.01,0.07,0.97,-3.0,0.1,-0.1,740,12,,,,,,,,,,,,,,,,,
574706,1469913761266,,,,,,,0.01,0.07,0.97,-3.1,0.0,-0.1,740,12,,,,,,,,,,,,,,,,,
574726,1469913761286,,,,,,,0.01,0.07,0.98,-3.0,-0.0,-0.2,740,12,,,,,,,,,,,,,,,,,
574746,1469913761308,,,,9,,,0.01,0.06,0.98,-3.0,0.1,-0.2,740,12,61.667,0,39.540581,-122.332069,0.0,0.227,325.8,10,3,1.3,0,0.0,-1,0.0,,0.0,0
574766,1469913761328,,,,,,,0.01,0.06,0.98,-3.0,0.0,-0.1,720,12,,,,,,,,,,,,,,,,,
574786,1469913761348,,,,,,,0.01,0.07,0.97,-3.0,0.0,-0.1,740,13,,,,,,,,,,,,,,,,,
574806,1469913761368,,,,,,,0.01,0.07,0.98,-3.0,-0.0,-0.1,740,13,,,,,,,,,,,,,,,,,
574826,1469913761388,,,,,,,0.01,0.07,0.97,-3.0,0.1,-0.2,740,13,,,,,,,,,,,,,,,,,
574846,1469913761407,0,213.7,183.9,7,188.3,,0.01,0.07,0.97,-3.0,0.0,-0.1,720,13,56.923,0,39.540581,-122.332069,0.0,0.227,325.8,10,3,1.3,0,0.0,-1,0.0,0.0,0.0,0
574866,1469913761427,,,,,,,0.01,0.06,0.97,-3.0,0.0,-0.1,720,13,,,,,,,,,,,,,,,,,
574886,1469913761447,,,,,,,0.0,0.07,0.98,-3.0,-0.1,-0.2,720,13,,,,,,,,,,,,,,,,,
574906,1469913761467,,,,,,,0.0,0.06,0.97,-3.0,-0.0,-0.2,720,12,,,,,,,,,,,,,,,,,
574926,1469913761487,,,,,,,0.0,0.06,0.97,-3.0,-0.0,-0.1,720,12,,,,,,,,,,,,,,,,,
574946,1469913761507,,,,10,,,-0.0,0.07,0.98,-3.0,-0.0,-0.1,720,12,55.385,0,39.540581,-122.332069,0.0,0.227,325.8,10,3,1.3,0,0.0,-1,0.0,,0.0,0
574966,1469913761527,,,,,,,-0.01,0.07,0.98,-3.0,-0.0,-0.2,720,12,,,,,,,,,,,,,,,,,
574986,1469913761547,,,,,,,-0.01,0.08,0.98,-3.0,0.0,-0.1,720,12,,,,,,,,,,,,,,,,,
575006,1469913761567,,,,,,,-0.01,0.08,0.98,-3.0,0.2,-0.1,720,12,,,,,,,,,,,,,,,,,
575026,1469913761587,,,,,,,-0.02,0.08,0.98,-3.0,0.2,-0.2,720,10,,,,,,,,,,,,,,,,,
575046,1469913761606,0,214.3,184.8,10,189.3,13.06,-0.02,0.08,0.98,-3.0,0.2,-0.2,720,10,60.0,0,39.540581,-122.332069,0.0,0.227,325.8,10,3,1.3,0,0.0,-1,0.0,0.0,0.0,0
575066,1469913761626,,,,,,,-0.02,0.08,0.98,-3.0,0.1,-0.1,720,10,,,,,,,,,,,,,,,,,
575086,1469913761646,,,,,,,-0.02,0.07,0.98,-3.0,0.2,-0.1,700,10,,,,,,,,,,,,,,,,,
575106,1469913761666,,,,,,,-0.02,0.06,0.98,-2.9,0.2,-0.2,720,10,,,,,,,,,,,,,,,,,
575126,1469913761686,,,,,,,-0.02,0.07,0.98,-2.9,0.2,-0.2,720,769230,,,,,,,,,,,,,,,,,
575146,1469913761706,,,,11,,,-0.01,0.07,0.98,-2.9,0.3,-0.1,720,0,70.0,0,39.540581,-122.332069,0.0,0.227,325.8,10,3,1.3,0,0.0,-1,0.0,,0.0,0
575166,1469913761726,,,,,,,-0.01,0.07,0.99,-2.9,0.4,-0.2,720,0,,,,,,,,,,,,,,,,,
575186,1469913761746,,,,,,,-0.02,0.07,0.99,-2.9,0.3,-0.3,720,0,,,,,,,,,,,,,,,,,
575206,1469913761766,,,,,,,-0.02,0.08,0.98,-2.9,0.3,-0.2,720,0,,,,,,,,,,,,,,,,,
575226,1469913761786,,,,,,,-0.02,0.08,0.98,-3.0,0.3,-0.2,720,0,,,,,,,,,,,,,,,,,
575246,1469913761905,0,212.5,182.8,9,187.4,,-0.02,0.08,0.98,-3.0,0.2,-0.3,700,0,0.0,0,39.540581,-122.332069,0.0,0.227,325.8,10,3,1.3,0,0.0,-1,0.0,0.0,0.0,0
575266,1469913761925,,,,,,,-0.01,0.08,0.98,-3.0,0.3,-0.3,700,0,,,,,,,,,,,,,,,,,
575286,1469913761945,,,,,,,-0.01,0.08,0.99,-3.0,0.3,-0.2,720,0,,,,,,,,,,,,,,,,,
575306,1469913761965,,,,,,,-0.02,0.09,0.98,-3.0,0.2,-0.2,720,0,,,,,,,,,,,,,,,,,
575326,1469913761985,,,,,,,-0.02,0.08,0.98,-2.9,0.0,-0.3,720,0,,,,,,,,,,,,,,,,,
575346,1469913762005,,,,9,,,-0.02,0.07,0.98,-2.9,0.1,-0.2,720,0,0.0,0,39.540581,-122.332069,0.0,0.227,325.8,10,3,1.3,0,0.0,-1,0.0,,0.0,0
575366,1469913762025,,,,,,,-0.01,0.07,0.98,-2.9,0.1,-0.1,720,0,,,,,,,,,,,,,,,,,
575386,1469913762045,,,,,,,-0.02,0.07,0.99,-2.9,0.1,-0.2,740,0,,,,,,,,,,,,,,,,,
575406,1469913762065,,,,,,,-0.02,0.06,0.99,-2.8,0.0,-0.3,700,0,,,,,,,,,,,,,,,,,
575426,1469913762085,,,,,,,-0.02,0.07,0.99,-2.8,0.1,-0.2,700,0,,,,,,,,,,,,,,,,,
575446,1469913762007,0,212.5,183.0,10,187.4,,-0.02,0.07,0.99,-2.8,0.1,-0.1,720,0,0.0,0,39.540581,-122.332069,0.0,0.227,325.8,10,3,1.3,0,0.0,-1,0.0,0.0,0.0,0
575466,1469913762027,,,,,,,-0.01,0.07,0.99,-2.9,0.2,-0.2,720,0,,,,,,,,,,,,,,,,,
575486,1469913762047,,,,,,,-0.02,0.07,1.0,-2.9,0.3,-0.2,720,0,,,,,,,,,,,,,,,,,
575506,1469913762067,,,,,,,-0.02,0.08,1.0,-3.0,0.4,-0.1,720,0,,,,,,,,,,,,,,,,,
575526,1469913762087,,,,,,,-0.01,0.08,0.99,-3.0,0.5,-0.1,720,0,,,,,,,,,,,,,,,,,
575546,1469913762106,,,,9,,,-0.01,0.08,0.99,-3.0,0.4,-0.2,720,0,0.0,0,39.540581,-122.332069,0.0,0.227,325.8,10,3,1.3,0,0.0,-1,0.0,,0.0,0
575566,1469913762126,,,,,,,-0.01,0.07,0.99,-3.0,0.5,-0.2,720,0,,,,,,,,,,,,,,,,,
575586,1469913762146,,,,,,,-0.0,0.08,0.99,-3.0,0.5,-0.1,700,0,,,,,,,,,,,,,,,,,
575606,1469913762166,,,,,,,-0.01,0.08,0.99,-2.9,0.4,-0.1,720,0,,,,,,,,,,,,,,,,,
575626,1469913762186,,,,,,,-0.02,0.08,0.99,-2.9,0.3,-0.2,720,0,,,,,,,,,,,,,,,,,
575646,1469913762207,0,213.7,184.2,10,188.1,,-0.01,0.08,0.99,-2.9,0.2,-0.2,720,0,0.0,0,39.540581,-122.332069,0.0,0.227,325.8,10,3,1.3,0,0.0,-1,0.0,0.0,0.0,0
575666,1469913762227,,,,,,,-0.01,0.08,0.99,-2.9,0.1,-0.1,720,0,,,,,,,,,,,,,,,,,
575686,1469913762247,,,,,,,-0.01,0.07,0.99,-2.9,0.2,-0.3,720,0,,,,,,,,,,,,,,,,,
575706,1469913762267,,,,,,,-0.02,0.08,0.99,-2.9,0.2,-0.3,720,0,,,,,,,,,,,,,,,,,
575726,1469913762287,,,,,,,-0.02,0.08,0.99,-3.0,0.2,-0.2,720,0,,,,,,,,,,,,,,,,,
575746,1469913762307,,,,9,,,-0.02,0.07,0.99,-2.9,0.1,-0.1,700,0,0.0,0,39.540581,-122.332069,0.0,0.227,325.8,10,3,1.3,0,0.0,-1,0.0,,0.0,0
575766,1469913762327,,,,,,,-0.02,0.07,0.99,-2.9,0.1,-0.3,720,0,,,,,,,,,,,,,,,,,
575786,1469913762347,,,,,,,-0.02,0.07,0.99,-2.9,0.2,-0.3,720,0,,,,,,,,,,,,,,,,,
575806,1469913762367,,,,,,,-0.02,0.07,0.99,-2.9,0.2,-0.2,720,0,,,,,,,,,,,,,,,,,
575826,1469913762387,,,,,,,-0.02,0.07,0.99,-2.9,0.3,-0.3,720,0,,,,,,,,,,,,,,,,,
575846,1469913762407,1,213.3,183.0,8,187.1,,-0.02,0.07,1.0,-2.9,0.3,-0.3,720,0,0.0,0,39.540581,-122.332069,0.0,0.227,325.8,10,3,1.3,0,0.0,-1,0.0,0.0,0.0,0
575866,1469913762427,,,,,,,-0.02,0.08,0.99,-2.9,0.3,-0.2,720,0,,,,,,,,,,,,,,,,,
575886,1469913762447,,,,,,,-0.02,0.08,0.99,-3.0,0.3,-0.2,720,0,,,,,,,,,,,,,,,,,
575906,1469913762467,,,,,,,-0.02,0.07,0.99,-2.9,0.2,-0.3,720,0,,,,,,,,,,,,,,,,,
575926,1469913762487,,,,,,,-0.02,0.07,0.99,-2.9,0.3,-0.3,720,0,,,,,,,,,,,,,,,,,
575946,1469913762506,,,,9,,,-0.02,0.08,0.99,-3.0,0.3,-0.2,720,0,0.0,0,39.540581,-122.332069,0.0,0.227,325.8,10,3,1.3,0,0.0,-1,0.0,,0.0,0
575966,1469913762526,,,,,,,-0.02,0.08,0.98,-3.0,0.2,-0.1,720,0,,,,,,,,,,,,,,,,,
575986,1469913762546,,,,,,,-0.03,0.08,0.98,-3.0,0.1,-0.2,720,0,,,,,,,,,,,,,,,,,
576006,1469913762566,,,,,,,-0.02,0.07,0.98,-2.9,0.1,-0.2,720,0,,,,,,,,,,,,,,,,,
576026,1469913762586,,,,,,,-0.02,0.07,0.98,-3.0,0.2,-0.1,720,0,,,,,,,,,,,,,,,,,
576046,1469913762706,0,214.2,185.0,12,188.8,13.14,-0.02,0.08,0.99,-2.9,0.3,-0.1,720,0,0.0,0,39.540581,-122.332069,0.0,0.227,325.8,10,3,1.3,0,0.0,-1,0.0,0.0,0.0,0
576066,1469913762726,,,,,,,-0.03,0.08,0.99,-2.9,0.3,-0.2,700,0,,,,,,,,,,,,,,,,,
576086,1469913762746,,,,,,,-0.02,0.08,0.99,-2.9,0.3,-0.2,700,0,,,,,,,,,,,,,,,,,
576106,1469913762766,,,,,,,-0.02,0.08,0.99,-3.0,0.3,-0.1,720,0,,,,,,,,,,,,,,,,,
576126,1469913762786,,,,,,,-0.02,0.08,0.99,-3.0,0.3,-0.2,720,0,,,,,,,,,,,,,,,,,
576146,1469913762806,,,,10,,,-0.02,0.08,0.99,-3.0,0.5,-0.3,720,0,0.0,0,39.540581,-122.332069,0.0,0.227,325.8,10,3,1.3,0,0.0,-1,0.0,,0.0,0
576166,1469913762826,,,,,,,-0.02,0.09,0.99,-3.0,0.4,-0.1,720,0,,,,,,,,,,,,,,,,,
576186,1469913762846,,,,,,,-0.02,0.09,0.98,-3.0,0.4,-0.1,720,0,,,,,,,,,,,,,,,,,
576206,1469913762866,,,,,,,-0.02,0.08,0.98,-3.0,0.3,-0.2,720,0,,,,,,,,,,,,,,,,,
576226,1469913762886,,,,,,,-0.02,0.08,0.98,-3.0,0.4,-0.2,720,0,,,,,,,,,,,,,,,,,
576246,1469913762807,0,214.2,185.0,9,188.8,,-0.01,0.08,0.98,-3.0,0.4,-0.1,720,0,0.0,0,39.540581,-122.332069,0.0,0.227,325.8,10,3,1.3,0,0.0,-1,0.0,0.0,0.0,0
576266,1469913762827,,,,,,,-0.01,0.08,0.99,-3.0,0.5,-0.1,720,0,,,,,,,,,,,,,,,,,
576286,1469913762847,,,,,,,-0.02,0.08,0.99,-3.0,0.4,-0.2,720,0,,,,,,,,,,,,,,,,,
576306,1469913762867,,,,,,,-0.02,0.08,0.99,-3.0,0.4,-0.1,720,0,,,,,,,,,,,,,,,,,
576326,1469913762887,,,,,,,-0.01,0.08,0.99,-3.0,0.4,-0.1,720,0,,,,,,,,,,,,,,,,,
576346,1469913762900,,,,9,,,-0.01,0.08,0.99,-3.0,0.4,-0.2,740,0,0.0,0,39.540581,-122.332069,0.0,0.227,325.8,10,3,1.3,0,0.0,-1,0.0,,0.0,0
576366,1469913762920,,,,,,,-0.01,0.08,0.99,-2.9,0.4,-0.2,720,0,,,,,,,,,,,,,,,,,
576386,1469913762940,,,,,,,-0.01,0.08,0.99,-3.0,0.4,-0.1,720,0,,,,,,,,,,,,,,,,,
576406,1469913762960,,,,,,,-0.01,0.08,0.99,-3.0,0.3,-0.1,720,0,,,,,,,,,,,,,,,,,
576426,1469913762980,,,,,,,-0.01,0.07,0.99,-3.0,0.2,-0.2,740,0,,,,,,,,,,,,,,,,,
576446,1469913763007,0,213.7,184.8,10,188.5,,-0.01,0.07,0.99,-3.0,0.3,-0.3,740,0,0.0,0,39.540581,-122.332069,0.0,0.227,325.8,10,3,1.4,0,0.0,-1,0.0,0.0,0.0,0
576466,1469913763027,,,,,,,-0.01,0.08,0.99,-3.0,0.3,-0.2,740,0,,,,,,,,,,,,,,,,,
576486,1469913763047,,,,,,,-0.01,0.09,0.98,-3.1,0.3,-0.1,740,0,,,,,,,,,,,,,,,,,
576506,1469913763067,,,,,,,-0.01,0.08,0.98,-3.0,0.2,-0.2,720,0,,,,,,,,,,,,,,,,,
576526,1469913763087,,,,,,,-0.01,0.07,0.98,-3.0,0.2,-0.2,720,0,,,,,,,,,,,,,,,,,
576546,1469913763106,,,,8,,,-0.01,0.08,0.98,-3.1,0.3,-0.1,740,0,0.0,0,39.540581,-122.332069,0.0,0.227,325.8,10,3,1.4,0,0.0,-1,0.0,,0.0,0
576566,1469913763126,,,,,,,-0.01,0.08,0.98,-3.1,0.3,-0.1,720,0,,,,,,,,,,,,,,,,,
576586,1469913763146,,,,,,,-0.01,0.08,0.98,-3.0,0.2,-0.2,740,0,,,,,,,,,,,,,,,,,
576606,1469913763166,,,,,,,-0.01,0.08,0.98,-3.0,0.2,-0.2,740,0,,,,,,,,,,,,,,,,,
576626,1469913763186,,,,,,,-0.01,0.08,0.98,-3.0,0.3,-0.2,720,0,,,,,,,,,,,,,,,,,
576646,1469913763207,0,213.4,184.4,10,188.3,,-0.01,0.08,0.98,-3.0,0.3,-0.2,740,0,0.0,0,39.540581,-122.332069,0.0,0.227,325.8,10,3,1.4,0,0.0,-1,0.0,0.0,0.0,0
576666,1469913763227,,,,,,,-0.01,0.07,0.98,-3.0,0.2,-0.3,720,0,,,,,,,,,,,,,,,,,
576686,1469913763247,,,,,,,-0.01,0.07,0.98,-2.9,0.3,-0.2,720,0,,,,,,,,,,,,,,,,,
576706,1469913763267,,,,,,,-0.0,0.07,0.98,-3.0,0.3,-0.2,720,0,,,,,,,,,,,,,,,,,
576726,1469913763287,,,,,,,-0.0,0.07,0.98,-2.9,0.4,-0.2,720,0,,,,,,,,,,,,,,,,,
576746,1469913763306,,,,11,,,-0.0,0.07,0.99,-2.9,0.4,-0.3,740,0,0.0,0,39.540581,-122.332069,0.0,0.227,325.8,10,3,1.4,0,0.0,-1,0.0,,0.0,0
576766,1469913763326,,,,,,,-0.0,0.08,0.98,-2.9,0.3,-0.3,740,0,,,,,,,,,,,,,,,,,
576786,1469913763346,,,,,,,-0.0,0.07,0.98,-2.9,0.2,-0.2,720,0,,,,,,,,,,,,,,,,,
576806,1469913763366,,,,,,,-0.0,0.07,0.98,-2.9,0.2,-0.3,720,0,,,,,,,,,,,,,,,,,
576826,1469913763386,,,,,,,-0.0,0.07,0.98,-3.0,0.3,-0.3,720,0,,,,,,,,,,,,,,,,,
576846,1469913763506,0,212.7,183.4,10,187.2,,-0.0,0.08,0.98,-3.0,0.3,-0.2,720,0,0.0,0,39.540581,-122.332069,0.0,0.227,325.8,10,3,1.4,0,0.0,-1,0.0,0.0,0.0,0
576866,1469913763526,,,,,,,-0.0,0.08,0.97,-3.1,0.1,-0.2,720,0,,,,,,,,,,,,,,,,,
576886,1469913763546,,,,,,,-0.0,0.08,0.98,-3.0,-0.1,-0.3,700,0,,,,,,,,,,,,,,,,,
576906,1469913763566,,,,,,,-0.0,0.08,0.98,-3.0,0.1,-0.3,700,0,,,,,,,,,,,,,,,,,
576926,1469913763586,,,,,,,0.0,0.08,0.98,-3.0,0.2,-0.2,720,0,,,,,,,,,,,,,,,,,
576946,1469913763606,,,,10,,,-0.0,0.08,0.98,-3.0,0.2,-0.2,720,0,0.0,0,39.540581,-122.332069,0.0,0.227,325.8,10,3,1.4,0,0.0,-1,0.0,,0.0,0
576966,1469913763626,,,,,,,-0.01,0.08,0.98,-3.0,0.2,-0.3,720,0,,,,,,,,,,,,,,,,,
576986,1469913763646,,,,,,,-0.01,0.09,0.98,-3.0,0.2,-0.2,720,0,,,,,,,,,,,,,,,,,
577006,1469913763666,,,,,,,-0.0,0.09,0.98,-3.0,0.2,-0.1,700,0,,,,,,,,,,,,,,,,,
577026,1469913763686,,,,,,,-0.0,0.08,0.98,-3.0,0.3,-0.2,700,0,,,,,,,,,,,,,,,,,
577046,1469913763607,0,212.4,183.0,8,186.7,13.17,-0.0,0.07,0.98,-3.0,0.5,-0.2,700,0,0.0,0,39.540581,-122.332069,0.0,0.227,325.8,10,3,1.4,0,0.0,-1,0.0,0.0,0.0,0
577066,1469913763627,,,,,,,0.0,0.08,0.98,-3.1,0.4,-0.1,700,0,,,,,,,,,,,,,,,,,
577086,1469913763647,,,,,,,0.0,0.08,0.98,-3.0,0.3,-0.1,720,0,,,,,,,,,,,,,,,,,
577106,1469913763667,,,,,,,-0.0,0.08,0.99,-3.0,0.3,-0.2,720,0,,,,,,,,,,,,,,,,,
577126,1469913763687,,,,,,,-0.0,0.08,0.99,-3.0,0.3,-0.2,720,0,,,,,,,,,,,,,,,,,
577146,1469913763707,,,,8,,,0.0,0.08,0.99,-3.0,0.3,-0.1,720,0,0.0,0,39.540581,-122.332069,0.0,0.227,325.8,10,3,1.4,0,0.0,-1,0.0,,0.0,0
577166,1469913763727,,,,,,,0.0,0.08,0.99,-3.0,0.3,-0.2,700,0,,,,,,,,,,,,,,,,,
577186,1469913763747,,,,,,,-0.0,0.08,0.99,-3.0,0.3,-0.2,700,0,,,,,,,,,,,,,,,,,
577206,1469913763767,,,,,,,-0.0,0.09,0.99,-3.1,0.2,-0.1,700,0,,,,,,,,,,,,,,,,,
577226,1469913763787,,,,,,,-0.01,0.09,0.99,-3.0,0.1,-0.1,700,0,,,,,,,,,,,,,,,,,
577246,1469913763807,0,212.7,184.8,9,187.9,,-0.01,0.08,0.99,-3.0,0.1,-0.2,720,0,0.0,0,39.540581,-122.332069,0.0,0.227,325.8,10,3,1.4,0,0.0,-1,0.0,0.0,0.0,0
577266,1469913763827,,,,,,,-0.01,0.08,0.99,-3.0,0.2,-0.2,720,0,,,,,,,,,,,,,,,,,
577286,1469913763847,,,,,,,-0.01,0.08,0.99,-3.0,0.2,-0.2,700,0,,,,,,,,,,,,,,,,,
577306,1469913763867,,,,,,,-0.01,0.08,0.99,-3.0,0.3,-0.2,720,0,,,,,,,,,,,,,,,,,
577326,1469913763887,,,,,,,-0.01,0.08,0.99,-2.9,0.2,-0.3,720,0,,,,,,,,,,,,,,,,,
577346,1469913763900,,,,9,,,-0.01,0.09,0.99,-3.0,0.2,-0.1,700,0,0.0,0,39.540581,-122.332069,0.0,0.227,325.8,10,3,1.4,0,0.0,-1,0.0,,0.0,0
577366,1469913763920,,,,,,,-0.0,0.09,0.98,-3.0,0.1,-0.0,700,0,,,,,,,,,,,,,,,,,
577386,1469913763940,,,,,,,0.0,0.09,0.98,-2.9,-0.1,-0.2,700,0,,,,,,,,,,,,,,,,,
577406,1469913763960,,,,,,,-0.0,0.09,0.98,-2.9,-0.0,-0.2,700,0,,,,,,,,,,,,,,,,,
577426,1469913763980,,,,,,,0.0,0.09,0.98,-2.9,0.1,-0.1,700,0,,,,,,,,,,,,,,,,,
577446,1469913764007,0,213.4,182.6,9,185.8,,0.0,0.09,0.98,-2.9,0.1,-0.1,720,0,0.0,0,39.540581,-122.332069,0.0,0.227,325.8,10,3,1.3,0,0.0,-1,0.0,0.0,0.0,0
577466,1469913764027,,,,,,,-0.01,0.08,0.98,-2.9,-0.0,-0.2,720,0,,,,,,,,,,,,,,,,,
577486,1469913764047,,,,,,,-0.0,0.08,0.98,-3.0,-0.0,-0.1,720,0,,,,,,,,,,,,,,,,,
577506,1469913764067,,,,,,,-0.0,0.09,0.98,-3.0,0.1,-0.1,700,0,,,,,,,,,,,,,,,,,
577526,1469913764087,,,,,,,-0.0,0.08,0.98,-3.0,0.2,-0.2,700,0,,,,,,,,,,,,,,,,,
577546,1469913764107,,,,8,,,0.0,0.07,0.98,-3.0,0.5,-0.2,700,0,0.0,0,39.540581,-122.332069,0.0,0.227,325.8,10,3,1.3,0,0.0,-1,0.0,,0.0,0
577566,1469913764127,,,,,,,0.01,0.08,0.98,-3.0,0.5,-0.1,700,0,,,,,,,,,,,,,,,,,
577586,1469913764147,,,,,,,0.01,0.09,0.98,-3.0,0.4,-0.1,720,0,,,,,,,,,,,,,,,,,
577606,1469913764167,,,,,,,0.01,0.09,0.99,-3.0,0.3,-0.3,720,0,,,,,,,,,,,,,,,,,
577626,1469913764187,,,,,,,0.01,0.09,0.98,-3.0,0.3,-0.2,720,0,,,,,,,,,,,,,,,,,
577646,1469913764306,0,213.1,182.6,9,185.5,,0.01,0.09,0.99,-3.1,0.3,-0.2,720,0,0.0,0,39.540581,-122.332069,0.0,0.227,325.8,10,3,1.3,0,0.0,-1,0.0,0.0,0.0,0
577666,1469913764326,,,,,,,0.01,0.09,0.99,-3.0,0.4,-0.3,700,0,,,,,,,,,,,,,,,,,
577686,1469913764346,,,,,,,0.0,0.09,0.99,-3.0,0.4,-0.3,700,0,,,,,,,,,,,,,,,,,
577706,1469913764366,,,,,,,0.0,0.09,0.99,-3.1,0.3,-0.2,700,0,,,,,,,,,,,,,,,,,
577726,1469913764386,,,,,,,0.0,0.09,0.98,-3.0,0.3,-0.2,700,15,,,,,,,,,,,,,,,,,
577746,1469913764406,,,,9,,,-0.0,0.08,0.99,-3.0,0.4,-0.3,720,15,0.0,0,39.540581,-122.332069,0.0,0.227,325.8,10,3,1.3,0,0.0,-1,0.0,,0.0,0
577766,1469913764426,,,,,,,-0.0,0.07,1.0,-3.0,0.5,-0.3,720,15,,,,,,,,,,,,,,,,,
577786,1469913764446,,,,,,,-0.01,0.09,1.0,-3.0,0.5,-0.2,720,15,,,,,,,,,,,,,,,,,
577806,1469913764466,,,,,,,-0.01,0.08,1.0,-3.0,0.5,-0.3,720,15,,,,,,,,,,,,,,,,,
577826,1469913764486,,,,,,,-0.01,0.08,1.0,-3.0,0.4,-0.4,700,15,,,,,,,,,,,,,,,,,
577846,1469913764407,0,213.8,182.6,9,185.3,,-0.01,0.08,0.99,-3.0,0.4,-0.3,700,1538461,48.0,0,39.540581,-122.332069,0.0,0.227,325.8,10,3,1.3,0,0.0,-1,0.0,0.0,0.0,0
577866,1469913764427,,,,,,,-0.01,0.08,0.99,-3.0,0.3,-0.3,700,0,,,,,,,,,,,,,,,,,
577886,1469913764447,,,,,,,-0.01,0.08,0.99,-3.0,0.2,-0.4,700,0,,,,,,,,,,,,,,,,,
577906,1469913764467,,,,,,,-0.01,0.08,0.99,-3.0,0.3,-0.4,700,38,,,,,,,,,,,,,,,,,
577926,1469913764487,,,,,,,-0.01,0.08,0.99,-3.1,0.4,-0.3,720,38,,,,,,,,,,,,,,,,,
577946,1469913764506,,,,11,,,-0.01,0.08,0.98,-3.1,0.4,-0.3,700,38,0.0,0,39.540581,-122.332069,0.0,0.227,325.8,10,3,1.3,0,0.0,-1,0.0,,0.0,0
577966,1469913764526,,,,,,,-0.02,0.08,0.98,-3.1,0.3,-0.4,720,38,,,,,,,,,,,,,,,,,
577986,1469913764546,,,,,,,-0.01,0.09,0.99,-3.1,0.3,-0.3,720,38,,,,,,,,,,,,,,,,,
578006,1469913764566,,,,,,,-0.01,0.09,0.99,-3.1,0.3,-0.2,700,38,,,,,,,,,,,,,,,,,
578026,1469913764586,,,,,,,-0.01,0.08,0.99,-3.1,0.3,-0.3,700,38,,,,,,,,,,,,,,,,,
578046,1469913764606,0,214.0,184.2,8,186.6,13.16,-0.02,0.08,0.99,-3.1,0.5,-0.3,700,12,18.947,0,39.540581,-122.332069,0.0,0.227,325.8,10,3,1.3,0,0.0,-1,0.0,0.0,0.0,0
578066,1469913764626,,,,,,,-0.01,0.08,0.99,-3.1,0.5,-0.2,700,12,,,,,,,,,,,,,,,,,
578086,1469913764646,,,,,,,-0.01,0.08,0.99,-3.0,0.4,-0.2,720,12,,,,,,,,,,,,,,,,,
578106,1469913764666,,,,,,,-0.02,0.08,0.99,-3.0,0.3,-0.3,720,12,,,,,,,,,,,,,,,,,
578126,1469913764686,,,,,,,-0.02,0.08,0.99,-3.0,0.3,-0.3,720,769230,,,,,,,,,,,,,,,,,
578146,1469913764706,,,,9,,,-0.02,0.09,0.99,-3.1,0.3,-0.2,720,0,60.0,0,39.540581,-122.332069,0.0,0.227,325.8,10,3,1.3,0,0.0,-1,0.0,,0.0,0
578166,1469913764726,,,,,,,-0.02,0.08,0.99,-3.1,0.3,-0.3,700,0,,,,,,,,,,,,,,,,,
578186,1469913764746,,,,,,,-0.02,0.08,0.99,-3.1,0.3,-0.3,700,0,,,,,,,,,,,,,,,,,
578206,1469913764766,,,,,,,-0.02,0.08,0.99,-3.1,0.2,-0.2,700,0,,,,,,,,,,,,,,,,,
578226,1469913764786,,,,,,,-0.03,0.07,0.99,-3.0,0.3,-0.2,700,0,,,,,,,,,,,,,,,,,
578246,1469913764807,0,212.1,184.7,10,187.1,,-0.03,0.07,0.99,-2.9,0.2,-0.4,720,0,0.0,0,39.540581,-122.332069,0.0,0.227,325.8,10,3,1.3,0,0.0,-1,0.0,0.0,0.0,0
578266,1469913764827,,,,,,,-0.03,0.07,0.99,-2.9,0.3,-0.4,720,0,,,,,,,,,,,,,,,,,
578286,1469913764847,,,,,,,-0.02,0.07,0.98,-3.0,0.3,-0.3,720,0,,,,,,,,,,,,,,,,,
578306,1469913764867,,,,,,,-0.02,0.07,0.99,-2.9,0.4,-0.3,740,0,,,,,,,,,,,,,,,,,
578326,1469913764887,,,,,,,-0.03,0.07,0.99,-2.9,0.3,-0.4,700,0,,,,,,,,,,,,,,,,,
578346,1469913764899,,,,9,,,-0.03,0.07,0.99,-3.0,0.3,-0.3,700,0,0.0,0,39.540581,-122.332069,0.0,0.227,325.8,10,3,1.3,0,0.0,-1,0.0,,0.0,0
578366,1469913764919,,,,,,,-0.03,0.07,0.98,-3.0,0.3,-0.2,720,0,,,,,,,,,,,,,,,,,
578386,1469913764939,,,,,,,-0.03,0.07,0.98,-3.0,0.3,-0.3,720,0,,,,,,,,,,,,,,,,,
578406,1469913764959,,,,,,,-0.03,0.07,0.98,-2.9,0.3,-0.4,720,0,,,,,,,,,,,,,,,,,
578426,1469913764979,,,,,,,-0.03,0.07,0.99,-3.0,0.4,-0.2,720,0,,,,,,,,,,,,,,,,,
578446,1469913765106,0,214.0,183.7,10,185.8,,-0.03,0.08,0.98,-3.0,0.4,-0.2,720,0,0.0,0,39.540581,-122.332069,0.0,0.227,325.8,10,3,1.3,0,0.0,-1,0.0,0.0,0.0,0
578466,1469913765126,,,,,,,-0.03,0.07,0.98,-2.9,0.2,-0.3,740,0,,,,,,,,,,,,,,,,,
578486,1469913765146,,,,,,,-0.03,0.07,0.98,-2.9,0.3,-0.3,740,0,,,,,,,,,,,,,,,,,
578506,1469913765166,,,,,,,-0.02,0.07,0.98,-3.0,0.2,-0.2,700,0,,,,,,,,,,,,,,,,,
578526,1469913765186,,,,,,,-0.02,0.07,0.98,-2.9,0.3,-0.2,720,0,,,,,,,,,,,,,,,,,
578546,1469913765206,,,,11,,,-0.03,0.07,0.98,-2.9,0.3,-0.3,700,0,0.0,0,39.540581,-122.332069,0.0,0.227,325.8,10,3,1.3,0,0.0,-1,0.0,,0.0,0
578566,1469913765226,,,,,,,-0.02,0.07,0.98,-2.9,0.3,-0.2,700,0,,,,,,,,,,,,,,,,,
578586,1469913765246,,,,,,,-0.02,0.07,0.98,-2.9,0.3,-0.1,720,0,,,,,,,,,,,,,,,,,
578606,1469913765266,,,,,,,-0.01,0.07,0.98,-2.9,0.2,-0.2,720,0,,,,,,,,,,,,,,,,,
578626,1469913765286,,,,,,,-0.02,0.07,0.99,-2.9,0.4,-0.3,720,0,,,,,,,,,,,,,,,,,
578646,1469913765207,0,212.2,184.1,8,186.5,,-0.01,0.08,0.99,-2.9,0.3,-0.1,740,0,0.0,0,39.540581,-122.332069,0.0,0.227,325.8,10,3,1.3,0,0.0,-1,0.0,0.0,0.0,0
578666,1469913765227,,,,,,,-0.02,0.08,0.98,-2.9,0.3,-0.1,700,0,,,,,,,,,,,,,,,,,
578686,1469913765247,,,,,,,-0.02,0.07,0.98,-2.9,0.3,-0.2,720,0,,,,,,,,,,,,,,,,,
578706,1469913765267,,,,,,,-0.02,0.07,0.98,-2.8,0.3,-0.2,720,0,,,,,,,,,,,,,,,,,
578726,1469913765287,,,,,,,-0.01,0.07,0.98,-2.9,0.3,-0.1,700,0,,,,,,,,,,,,,,,,,
578746,1469913765306,,,,8,,,-0.01,0.07,0.98,-2.8,0.3,-0.2,720,0,0.0,0,39.540581,-122.332069,0.0,0.227,325.8,10,3,1.3,0,0.0,-1,0.0,,0.0,0
578766,1469913765326,,,,,,,-0.02,0.07,0.99,-2.8,0.4,-0.2,720,0,,,,,,,,,,,,,,,,,
578786,1469913765346,,,,,,,-0.02,0.07,0.99,-2.9,0.3,-0.1,720,0,,,,,,,,,,,,,,,,,
578806,1469913765366,,,,,,,-0.02,0.08,0.98,-2.9,0.2,-0.1,740,0,,,,,,,,,,,,,,,,,
578826,1469913765386,,,,,,,-0.02,0.07,0.98,-2.8,0.1,-0.2,700,0,,,,,,,,,,,,,,,,,
578846,1469913765407,0,213.4,182.3,10,184.4,,-0.02,0.07,0.99,-2.9,0.2,-0.3,700,0,0.0,0,39.540581,-122.332069,0.0,0.227,325.8,10,3,1.3,0,0.0,-1,0.0,0.0,0.0,0
578866,1469913765427,,,,,,,-0.01,0.08,0.99,-2.9,0.2,-0.2,720,0,,,,,,,,,,,,,,,,,
578886,1469913765447,,,,,,,-0.02,0.08,0.98,-2.9,0.3,-0.2,720,0,,,,,,,,,,,,,,,,,
578906,1469913765467,,,,,,,-0.02,0.07,0.99,-2.9,0.2,-0.3,740,0,,,,,,,,,,,,,,,,,
578926,1469913765487,,,,,,,-0.02,0.07,0.99,-2.8,0.2,-0.3,740,0,,,,,,,,,,,,,,,,,
578946,1469913765507,,,,12,,,-0.01,0.07,0.99,-2.9,0.2,-0.2,720,0,0.0,0,39.540581,-122.332069,0.0,0.227,325.8,10,3,1.3,0,0.0,-1,0.0,,0.0,0
578966,1469913765527,,,,,,,-0.01,0.07,0.99,-2.9,0.2,-0.2,740,0,,,,,,,,,,,,,,,,,
578986,1469913765547,,,,,,,-0.02,0.06,0.99,-2.8,0.2,-0.3,700,0,,,,,,,,,,,,,,,,,
579006,1469913765567,,,,,,,-0.02,0.06,0.99,-2.8,0.2,-0.3,700,0,,,,,,,,,,,,,,,,,
579026,1469913765587,,,,,,,-0.01,0.06,0.98,-2.8,0.2,-0.2,720,0,,,,,,,,,,,,,,,,,
579046,1469913765606,0,213.1,184.3,10,185.9,13.27,-0.01,0.06,0.99,-2.8,0.2,-0.3,700,0,0.0,0,39.540581,-122.332069,0.0,0.227,325.8,10,3,1.3,0,0.0,-1,0.0,0.0,0.0,0
579066,1469913765626,,,,,,,-0.02,0.07,0.99,-2.8,0.2,-0.3,700,0,,,,,,,,,,,,,,,,,
579086,1469913765646,,,,,,,-0.02,0.07,0.99,-2.9,0.2,-0.2,720,0,,,,,,,,,,,,,,,,,
579106,1469913765666,,,,,,,-0.02,0.07,0.98,-2.9,0.2,-0.2,720,0,,,,,,,,,,,,,,,,,
579126,1469913765686,,,,,,,-0.02,0.07,0.98,-2.9,0.1,-0.3,740,0,,,,,,,,,,,,,,,,,
579146,1469913765706,,,,10,,,-0.02,0.06,0.98,-2.9,0.2,-0.2,740,0,0.0,0,39.540581,-122.332069,0.0,0.227,325.8,10,3,1.3,0,0.0,-1,0.0,,0.0,0
579166,1469913765726,,,,,,,-0.01,0.07,0.98,-2.9,0.3,-0.1,700,0,,,,,,,,,,,,,,,,,
579186,1469913765746,,,,,,,-0.02,0.07,0.98,-2.9,0.3,-0.2,720,0,,,,,,,,,,,,,,,,,
579206,1469913765766,,,,,,,-0.02,0.07,0.98,-2.9,0.3,-0.3,700,0,,,,,,,,,,,,,,,,,
579226,1469913765786,,,,,,,-0.02,0.07,0.98,-2.9,0.3,-0.2,700,0,,,,,,,,,,,,,,,,,
579246,1469913765905,0,212.4,184.3,8,185.9,,-0.01,0.07,0.98,-2.9,0.3,-0.1,720,0,0.0,0,39.540581,-122.332069,0.0,0.227,325.8,10,3,1.3,0,0.0,-1,0.0,0.0,0.0,0
579266,1469913765925,,,,,,,-0.01,0.07,0.98,-2.9,0.4,-0.2,700,0,,,,,,,,,,,,,,,,,
579286,1469913765945,,,,,,,-0.01,0.07,0.99,-2.9,0.4,-0.2,700,0,,,,,,,,,,,,,,,,,
579306,1469913765965,,,,,,,-0.01,0.08,0.99,-2.9,0.4,-0.1,720,0,,,,,,,,,,,,,,,,,
579326,1469913765985,,,,,,,-0.01,0.08,0.98,-2.9,0.3,-0.1,700,0,,,,,,,,,,,,,,,,,
579346,1469913766005,,,,8,,,-0.02,0.07,0.99,-2.9,0.2,-0.2,700,0,0.0,0,39.540581,-122.332069,0.0,0.227,325.8,10,3,1.3,0,0.0,-1,0.0,,0.0,0
579366,1469913766025,,,,,,,-0.01,0.07,0.99,-2.9,0.2,-0.1,700,0,,,,,,,,,,,,,,,,,
579386,1469913766045,,,,,,,-0.01,0.08,0.99,-2.9,0.2,-0.1,700,0,,,,,,,,,,,,,,,,,
579406,1469913766065,,,,,,,-0.01,0.07,0.99,-2.9,0.2,-0.2,720,0,,,,,,,,,,,,,,,,,
579426,1469913766085,,,,,,,-0.02,0.08,1.0,-2.9,0.3,-0.2,720,0,,,,,,,,,,,,,,,,,
579446,1469913766005,0,212.8,182.0,10,184.8,,-0.02,0.08,0.99,-2.9,0.3,-0.1,700,0,0.0,0,39.540581,-122.332069,0.0,0.227,325.8,10,3,1.3,0,0.0,-1,0.0,0.0,0.0,0
579466,1469913766025,,,,,,,-0.02,0.07,0.98,-2.9,0.1,-0.1,720,0,,,,,,,,,,,,,,,,,
579486,1469913766045,,,,,,,-0.02,0.06,0.99,-2.8,0.0,-0.3,700,0,,,,,,,,,,,,,,,,,
579506,1469913766065,,,,,,,-0.02,0.06,0.99,-2.8,0.0,-0.2,700,0,,,,,,,,,,,,,,,,,
579526,1469913766085,,,,,,,-0.01,0.07,0.99,-2.8,0.1,-0.2,700,0,,,,,,,,,,,,,,,,,
579546,1469913766106,,,,8,,,-0.01,0.07,0.99,-2.8,0.2,-0.3,700,0,0.0,0,39.540581,-122.332069,0.0,0.227,325.8,10,3,1.3,0,0.0,-1,0.0,,0.0,0
579566,1469913766126,,,,,,,-0.01,0.07,0.99,-2.9,0.1,-0.3,700,0,,,,,,,,,,,,,,,,,
579586,1469913766146,,,,,,,-0.01,0.07,0.99,-2.9,0.1,-0.2,720,0,,,,,,,,,,,,,,,,,
579606,1469913766166,,,,,,,-0.02,0.07,0.98,-2.9,0.0,-0.1,700,0,,,,,,,,,,,,,,,,,
579626,1469913766186,,,,,,,-0.02,0.06,0.98,-2.9,-0.1,-0.2,720,0,,,,,,,,,,,,,,,,,
579646,1469913766206,0,213.6,183.3,13,183.4,,-0.01,0.06,0.99,-2.9,-0.1,-0.2,720,0,0.0,0,39.540581,-122.332069,0.0,0.227,325.8,10,3,1.3,0,0.0,-1,0.0,0.0,0.0,0
579666,1469913766226,,,,,,,-0.01,0.07,0.98,-2.9,0.0,-0.1,700,0,,,,,,,,,,,,,,,,,
579686,1469913766246,,,,,,,-0.01,0.07,0.99,-2.9,0.1,-0.2,700,0,,,,,,,,,,,,,,,,,
579706,1469913766266,,,,,,,-0.01,0.07,0.99,-2.9,0.3,-0.2,700,0,,,,,,,,,,,,,,,,,
579726,1469913766286,,,,,,,-0.0,0.08,0.99,-2.9,0.3,-0.1,700,0,,,,,,,,,,,,,,,,,
579746,1469913766307,,,,11,,,0.0,0.08,0.98,-2.9,0.2,-0.1,720,0,0.0,0,39.540581,-122.332069,0.0,0.227,325.8,10,3,1.3,0,0.0,-1,0.0,,0.0,0
579766,1469913766327,,,,,,,0.0,0.07,0.99,-2.9,0.1,-0.2,720,0,,,,,,,,,,,,,,,,,
579786,1469913766347,,,,,,,0.0,0.07,0.99,-2.9,0.2,-0.2,720,0,,,,,,,,,,,,,,,,,
579806,1469913766367,,,,,,,0.01,0.08,0.99,-2.9,0.3,-0.1,720,0,,,,,,,,,,,,,,,,,
579826,1469913766387,,,,,,,0.01,0.08,0.99,-2.9,0.4,-0.2,700,0,,,,,,,,,,,,,,,,,
579846,1469913766407,0,212.4,181.8,10,185.2,,0.0,0.08,1.0,-3.0,0.5,-0.2,700,0,0.0,0,39.540581,-122.332069,0.0,0.227,325.8,10,3,1.3,0,0.0,-1,0.0,0.0,0.0,0
579866,1469913766427,,,,,,,-0.01,0.09,0.99,-3.0,0.5,-0.1,700,0,,,,,,,,,,,,,,,,,
579886,1469913766447,,,,,,,-0.01,0.09,0.98,-3.0,0.5,-0.0,700,0,,,,,,,,,,,,,,,,,
579906,1469913766467,,,,,,,-0.01,0.08,0.98,-2.9,0.5,-0.2,720,0,,,,,,,,,,,,,,,,,
579926,1469913766487,,,,,,,-0.0,0.07,0.99,-2.9,0.5,-0.2,720,0,,,,,,,,,,,,,,,,,
579946,1469913766506,,,,12,,,-0.0,0.08,0.98,-2.9,0.5,-0.1,700,0,0.0,0,39.540581,-122.332069,0.0,0.227,325.8,10,3,1.3,0,0.0,-1,0.0,,0.0,0
579966,1469913766526,,,,,,,-0.01,0.09,0.99,-2.9,0.5,-0.1,720,0,,,,,,,,,,,,,,,,,
579986,1469913766546,,,,,,,-0.01,0.08,0.99,-2.9,0.4,-0.2,700,0,,,,,,,,,,,,,,,,,
580006,1469913766566,,,,,,,-0.01,0.09,0.98,-2.9,0.4,-0.1,700,0,,,,,,,,,,,,,,,,,
580026,1469913766586,,,,,,,-0.0,0.09,0.98,-2.9,0.4,-0.0,720,0,,,,,,,,,,,,,,,,,
580046,1469913766706,0,213.8,183.3,9,183.0,13.28,-0.0,0.08,0.98,-2.9,0.3,-0.2,720,0,0.0,0,39.540581,-122.332069,0.0,0.227,325.8,10,3,1.3,0,0.0,-1,0.0,0.0,0.0,0
580066,1469913766726,,,,,,,-0.0,0.08,0.98,-2.9,0.3,-0.3,720,0,,,,,,,,,,,,,,,,,
580086,1469913766746,,,,,,,-0.0,0.07,0.98,-2.9,0.3,-0.2,740,0,,,,,,,,,,,,,,,,,
580106,1469913766766,,,,,,,-0.0,0.09,0.97,-3.0,0.3,-0.1,760,0,,,,,,,,,,,,,,,,,
580126,1469913766786,,,,,,,-0.01,0.09,0.97,-2.9,0.1,-0.3,780,0,,,,,,,,,,,,,,,,,
580146,1469913766806,,,,12,,,-0.01,0.08,0.97,-2.9,0.2,-0.4,780,0,0.0,0,39.540581,-122.332069,0.0,0.227,325.8,10,3,1.3,0,0.0,-1,0.0,,0.0,0
580166,1469913766826,,,,,,,-0.0,0.08,0.97,-3.0,0.2,-0.3,780,0,,,,,,,,,,,,,,,,,
580186,1469913766846,,,,,,,-0.0,0.1,0.97,-3.1,0.3,-0.2,800,0,,,,,,,,,,,,,,,,,
580206,1469913766866,,,,,,,0.0,0.1,0.97,-3.1,0.4,-0.1,800,0,,,,,,,,,,,,,,,,,
580226,1469913766886,,,,,,,-0.0,0.1,0.97,-3.0,0.3,-0.3,860,0,,,,,,,,,,,,,,,,,
580246,1469913766806,0,213.5,182.9,15,182.7,,-0.01,0.08,0.98,-2.9,0.3,-0.4,880,0,0.0,0,39.540581,-122.332069,0.0,0.227,325.8,10,3,1.3,0,0.0,-1,0.0,0.0,0.0,0
580266,1469913766826,,,,,,,-0.0,0.07,0.98,-2.8,0.4,-0.6,920,0,,,,,,,,,,,,,,,,,
580286,1469913766846,,,,,,,-0.01,0.07,0.97,-2.8,0.3,-0.5,920,0,,,,,,,,,,,,,,,,,
580306,1469913766866,,,,,,,-0.01,0.06,0.96,-2.9,0.4,-0.3,960,0,,,,,,,,,,,,,,,,,
580326,1469913766886,,,,,,,-0.0,0.05,0.95,-2.9,0.3,-0.2,980,0,,,,,,,,,,,,,,,,,
580346,1469913766898,,,,13,,,-0.01,0.04,0.95,-2.9,0.3,-0.1,1000,13,0.0,0,39.540581,-122.332069,0.0,0.227,325.8,10,3,1.3,0,0.0,-1,0.0,,0.0,0
580366,1469913766918,,,,,,,-0.01,0.04,0.96,-2.9,0.2,0.0,1020,58,,,,,,,,,,,,,,,,,
580386,1469913766938,,,,,,,-0.03,0.04,0.95,-2.8,-0.0,0.0,1040,106,,,,,,,,,,,,,,,,,
580406,1469913766958,,,,,,,-0.02,0.03,0.96,-2.8,-0.4,-0.0,1080,115,,,,,,,,,,,,,,,,,
580426,1469913766978,,,,,,,0.0,0.04,0.96,-2.8,-0.9,0.0,1100,115,,,,,,,,,,,,,,,,,
580446,1469913767006,0,213.9,183.2,16,182.6,,0.01,0.04,0.96,-2.8,-1.0,-0.1,1080,60,12.381,0,39.540581,-122.332069,0.0,0.227,325.8,10,3,1.3,0,0.0,-1,0.0,0.0,0.0,0
580466,1469913767026,,,,,,,0.01,0.05,0.96,-2.7,-1.1,-0.2,1100,60,,,,,,,,,,,,,,,,,
580486,1469913767046,,,,,,,0.01,0.04,0.97,-2.8,-0.6,-0.2,1120,44,,,,,,,,,,,,,,,,,
580506,1469913767066,,,,,,,0.01,0.04,0.97,-2.8,-0.2,-0.2,1100,40,,,,,,,,,,,,,,,,,
580526,1469913767086,,,,,,,0.02,0.05,0.96,-2.9,-0.1,-0.3,1120,66,,,,,,,,,,,,,,,,,
580546,1469913767106,,,,18,,,0.02,0.05,0.96,-2.7,-0.2,-0.3,1020,66,25.455,0,39.540581,-122.332069,0.0,0.227,325.8,10,3,1.3,0,0.0,-1,0.0,,0.0,0
580566,1469913767126,,,,,,,0.03,0.05,0.97,-2.7,-0.1,-0.3,1020,66,,,,,,,,,,,,,,,,,
580586,1469913767146,,,,,,,0.03,0.05,0.96,-2.8,0.1,-0.3,980,66,,,,,,,,,,,,,,,,,
580606,1469913767166,,,,,,,0.03,0.05,0.97,-2.8,0.1,-0.2,940,23,,,,,,,,,,,,,,,,,
580626,1469913767186,,,,,,,0.04,0.06,0.97,-2.9,0.2,-0.2,880,52,,,,,,,,,,,,,,,,,
580646,1469913767207,0,213.1,182.3,14,182.9,,0.04,0.05,0.96,-2.8,0.2,-0.3,860,52,14.848,0,39.540581,-122.332069,0.0,0.227,325.8,10,3,1.3,0,0.0,-1,0.0,0.0,0.0,0
580666,1469913767227,,,,,,,0.05,0.05,0.97,-2.8,0.1,-0.3,780,52,,,,,,,,,,,,,,,,,
580686,1469913767247,,,,,,,0.04,0.04,0.97,-2.9,0.0,-0.3,720,69,,,,,,,,,,,,,,,,,
580706,1469913767267,,,,,,,0.05,0.05,0.97,-2.9,0.1,-0.3,720,21,,,,,,,,,,,,,,,,,
580726,1469913767287,,,,,,,0.07,0.05,0.98,-2.9,0.2,-0.2,700,21,,,,,,,,,,,,,,,,,
580746,1469913767307,,,,9,,,0.07,0.05,0.99,-3.0,-0.2,-0.3,720,70,11.304,0,39.540581,-122.332069,0.0,0.227,325.8,10,3,1.3,0,0.0,-1,0.0,,0.0,0
580766,1469913767327,,,,,,,0.06,0.05,0.99,-3.0,-0.0,-0.3,720,70,,,,,,,,,,,,,,,,,
580786,1469913767347,,,,,,,0.07,0.05,0.99,-3.1,-0.1,-0.2,700,32,,,,,,,,,,,,,,,,,
580806,1469913767367,,,,,,,0.07,0.05,0.98,-3.2,-0.1,-0.2,720,47,,,,,,,,,,,,,,,,,
580826,1469913767387,,,,,,,0.06,0.05,0.98,-3.1,-0.2,-0.5,720,75,,,,,,,,,,,,,,,,,
580846,1469913767506,0,213.5,182.3,9,182.5,,0.08,0.06,1.0,-3.1,-0.0,-0.4,720,75,21.875,0,39.540581,-122.332069,0.0,0.227,325.8,10,3,1.3,0,0.0,-1,0.0,0.0,0.0,0
580866,1469913767526,,,,,,,0.08,0.06,1.0,-3.1,0.1,-0.2,720,56,,,,,,,,,,,,,,,,,
580886,1469913767546,,,,,,,0.08,0.05,1.01,-3.0,-0.2,-0.3,740,56,,,,,,,,,,,,,,,,,
580906,1469913767566,,,,,,,0.08,0.05,1.01,-3.1,-0.1,-0.5,740,73,,,,,,,,,,,,,,,,,
580926,1469913767586,,,,,,,0.08,0.06,1.01,-3.2,-0.1,-0.4,740,84,,,,,,,,,,,,,,,,,
580946,1469913767606,,,,10,,,0.09,0.1,1.01,-3.2,-0.1,-0.3,740,84,13.214,0,39.540581,-122.332069,0.0,0.227,325.8,10,3,1.3,0,0.0,-1,0.0,,0.0,0
580966,1469913767626,,,,,,,0.09,0.1,1.01,-3.3,-0.0,-0.4,760,67,,,,,,,,,,,,,,,,,
580986,1469913767646,,,,,,,0.07,0.09,1.01,-3.4,0.0,-0.6,760,47,,,,,,,,,,,,,,,,,
581006,1469913767666,,,,,,,0.08,0.11,1.0,-3.5,-0.1,-0.4,760,70,,,,,,,,,,,,,,,,,
581026,1469913767686,,,,,,,0.09,0.13,1.0,-3.6,0.1,-0.3,760,90,,,,,,,,,,,,,,,,,
581046,1469913767607,0,214.1,183.0,11,182.0,13.43,0.09,0.11,1.0,-3.5,0.2,-0.4,780,83,16.17,0,39.540581,-122.332069,0.0,0.227,325.8,10,3,1.3,0,0.0,-1,0.0,0.0,0.0,0
581066,1469913767627,,,,,,,0.08,0.1,1.01,-3.5,0.2,-0.5,800,56,,,,,,,,,,,,,,,,,
581086,1469913767647,,,,,,,0.07,0.1,1.01,-3.5,0.2,-0.6,800,56,,,,,,,,,,,,,,,,,
581106,1469913767667,,,,,,,0.08,0.09,1.01,-3.5,0.2,-0.5,800,86,,,,,,,,,,,,,,,,,
581126,1469913767687,,,,,,,0.08,0.11,1.01,-3.6,0.4,-0.4,820,96,,,,,,,,,,,,,,,,,
581146,1469913767707,,,,13,,,0.08,0.1,1.02,-3.5,0.4,-0.4,820,87,14.286,0,39.540581,-122.332069,0.0,0.227,325.8,10,3,1.3,0,0.0,-1,0.0,,0.0,0
581166,1469913767727,,,,,,,0.06,0.1,1.02,-3.4,0.2,-0.6,820,67,,,,,,,,,,,,,,,,,
581186,1469913767747,,,,,,,0.05,0.08,1.02,-3.4,0.3,-0.8,820,64,,,,,,,,,,,,,,,,,
581206,1469913767767,,,,,,,0.05,0.08,1.01,-3.4,0.3,-0.7,820,73,,,,,,,,,,,,,,,,,
581226,1469913767787,,,,,,,0.05,0.07,1.01,-3.5,0.3,-0.6,820,86,,,,,,,,,,,,,,,,,
581246,1469913767807,0,212.6,181.2,10,183.7,,0.05,0.1,1.0,-3.6,0.5,-0.5,840,93,12.239,0,39.540581,-122.332069,0.0,0.227,325.8,10,3,1.3,0,0.0,-1,0.0,0.0,0.0,0
581266,1469913767827,,,,,,,0.05,0.1,1.01,-3.5,0.7,-0.6,840,92,,,,,,,,,,,,,,,,,
581286,1469913767847,,,,,,,0.04,0.1,1.01,-3.5,0.7,-0.8,840,83,,,,,,,,,,,,,,,,,
581306,1469913767867,,,,,,,0.04,0.09,1.01,-3.5,0.6,-0.9,820,75,,,,,,,,,,,,,,,,,
581326,1469913767887,,,,,,,0.03,0.09,1.0,-3.5,0.5,-0.9,820,73,,,,,,,,,,,,,,,,,
581346,1469913767900,,,,12,,,0.03,0.08,1.0,-3.5,0.4,-0.8,820,73,10.12,0,39.540581,-122.332069,0.0,0.227,325.8,10,3,1.3,0,0.0,-1,0.0,,0.0,0
581366,1469913767920,,,,,,,0.02,0.08,1.0,-3.5,0.3,-0.7,780,73,,,,,,,,,,,,,,,,,
581386,1469913767940,,,,,,,0.02,0.09,1.0,-3.4,0.2,-0.7,800,73,,,,,,,,,,,,,,,,,
581406,1469913767960,,,,,,,0.02,0.08,0.99,-3.3,0.1,-0.8,800,78,,,,,,,,,,,,,,,,,
581426,1469913767980,,,,,,,0.01,0.08,0.99,-3.3,0.2,-0.9,780,76,,,,,,,,,,,,,,,,,
581446,1469913768007,0,214.3,183.3,10,183.3,,0.01,0.08,0.98,-3.4,0.1,-0.8,780,73,10.959,0,39.540581,-122.332069,0.0,0.227,325.8,10,3,1.3,0,0.0,-1,0.0,0.0,0.0,0
581466,1469913768027,,,,,,,0.01,0.09,0.98,-3.4,0.0,-0.7,780,73,,,,,,,,,,,,,,,,,
581486,1469913768047,,,,,,,0.01,0.08,0.99,-3.4,-0.0,-0.8,780,76,,,,,,,,,,,,,,,,,
581506,1469913768067,,,,,,,0.0,0.08,0.99,-3.4,-0.1,-0.9,780,76,,,,,,,,,,,,,,,,,
581526,1469913768087,,,,,,,-0.0,0.07,0.98,-3.4,-0.1,-0.9,780,76,,,,,,,,,,,,,,,,,
581546,1469913768107,,,,11,,,0.0,0.07,0.98,-3.4,-0.2,-0.8,780,78,10.263,0,39.540577,-122.332062,0.99,0.228,325.9,10,3,1.3,0,0.0,-1,0.0,,0.0,0
581566,1469913768127,,,,,,,0.0,0.08,0.99,-3.4,-0.1,-0.8,780,80,,,,,,,,,,,,,,,,,
581586,1469913768147,,,,,,,-0.0,0.08,0.99,-3.4,-0.2,-1.0,780,81,,,,,,,,,,,,,,,,,
581606,1469913768167,,,,,,,-0.01,0.07,0.99,-3.4,-0.2,-1.1,760,83,,,,,,,,,,,,,,,,,
581626,1469913768187,,,,,,,-0.01,0.07,0.98,-3.4,-0.2,-1.0,760,87,,,,,,,,,,,,,,,,,
581646,1469913768307,0,213.3,181.1,11,182.6,,-0.01,0.08,0.99,-3.5,-0.2,-0.9,780,89,9.63,0,39.540577,-122.332062,1.01,0.228,325.9,10,3,1.3,0,0.0,-1,0.0,0.0,0.0,0
581666,1469913768327,,,,,,,-0.01,0.08,0.98,-3.4,-0.2,-0.8,760,90,,,,,,,,,,,,,,,,,
581686,1469913768347,,,,,,,-0.01,0.08,0.99,-3.4,-0.2,-0.9,780,90,,,,,,,,,,,,,,,,,
581706,1469913768367,,,,,,,-0.01,0.07,0.99,-3.3,-0.1,-1.0,760,90,,,,,,,,,,,,,,,,,
581726,1469913768387,,,,,,,-0.01,0.07,0.99,-3.4,-0.1,-0.8,760,90,,,,,,,,,,,,,,,,,
581746,1469913768407,,,,13,,,-0.01,0.07,0.99,-3.4,-0.1,-0.7,760,92,8.667,0,39.540577,-122.332062,1.01,0.228,325.9,10,3,1.3,0,0.0,-1,0.0,,0.0,0
581766,1469913768427,,,,,,,-0.01,0.07,0.99,-3.3,-0.0,-0.7,760,90,,,,,,,,,,,,,,,,,
581786,1469913768447,,,,,,,-0.02,0.07,0.99,-3.2,-0.0,-0.8,760,90,,,,,,,,,,,,,,,,,
581806,1469913768467,,,,,,,-0.02,0.06,0.99,-3.2,-0.1,-0.6,760,87,,,,,,,,,,,,,,,,,
581826,1469913768487,,,,,,,-0.02,0.06,0.99,-3.3,-0.0,-0.4,760,87,,,,,,,,,,,,,,,,,
581846,1469913768407,0,213.5,181.9,11,181.5,,-0.02,0.06,0.99,-3.2,-0.0,-0.4,760,89,8.444,0,39.540577,-122.332062,1.05,0.228,325.9,10,3,1.3,0,0.0,-1,0.0,0.0,0.0,0
581866,1469913768427,,,,,,,-0.03,0.05,0.99,-3.2,-0.1,-0.4,760,87,,,,,,,,,,,,,,,,,
581886,1469913768447,,,,,,,-0.02,0.05,0.98,-3.1,-0.0,-0.4,760,86,,,,,,,,,,,,,,,,,
581906,1469913768467,,,,,,,-0.02,0.06,0.99,-3.2,-0.2,-0.2,760,84,,,,,,,,,,,,,,,,,
581926,1469913768487,,,,,,,-0.02,0.05,0.98,-3.2,-0.2,-0.1,740,84,,,,,,,,,,,,,,,,,
581946,1469913768507,,,,11,,,-0.03,0.05,0.98,-3.1,-0.3,-0.2,740,83,8.837,0,39.540577,-122.332062,1.12,0.228,325.9,10,3,1.3,0,0.0,-1,0.0,,0.0,0
581966,1469913768527,,,,,,,-0.03,0.05,0.98,-3.1,-0.3,-0.2,740,83,,,,,,,,,,,,,,,,,
581986,1469913768547,,,,,,,-0.03,0.06,0.98,-3.2,-0.3,-0.0,760,83,,,,,,,,,,,,,,,,,
582006,1469913768567,,,,,,,-0.03,0.06,0.98,-3.2,-0.3,0.1,760,84,,,,,,,,,,,,,,,,,
582026,1469913768587,,,,,,,-0.03,0.06,0.98,-3.2,-0.4,0.1,740,83,,,,,,,,,,,,,,,,,
582046,1469913768607,0,212.8,181.1,10,181.9,13.29,-0.03,0.06,0.98,-3.2,-0.4,0.1,740,81,9.157,0,39.540577,-122.332062,1.13,0.228,325.9,10,3,1.3,0,0.0,-1,0.0,0.0,0.0,0
582066,1469913768627,,,,,,,-0.03,0.07,0.98,-3.2,-0.4,0.2,740,80,,,,,,,,,,,,,,,,,
582086,1469913768647,,,,,,,-0.03,0.07,0.98,-3.3,-0.4,0.3,720,80,,,,,,,,,,,,,,,,,
582106,1469913768667,,,,,,,-0.03,0.07,0.98,-3.2,-0.5,0.2,740,80,,,,,,,,,,,,,,,,,
582126,1469913768687,,,,,,,-0.03,0.07,0.98,-3.2,-0.4,0.2,740,80,,,,,,,,,,,,,,,,,
582146,1469913768706,,,,8,,,-0.03,0.07,0.98,-3.3,-0.3,0.3,740,80,9.0,0,39.540577,-122.332062,1.1,0.228,325.9,10,3,1.3,0,0.0,-1,0.0,,0.0,0
582166,1469913768726,,,,,,,-0.03,0.07,0.98,-3.2,-0.3,0.4,740,80,,,,,,,,,,,,,,,,,
582186,1469913768746,,,,,,,-0.03,0.07,0.98,-3.2,-0.3,0.3,720,78,,,,,,,,,,,,,,,,,
582206,1469913768766,,,,,,,-0.02,0.07,0.98,-3.2,-0.2,0.2,720,78,,,,,,,,,,,,,,,,,
582226,1469913768786,,,,,,,-0.02,0.07,0.98,-3.3,-0.1,0.4,720,76,,,,,,,,,,,,,,,,,
582246,1469913768807,0,212.7,180.8,9,181.1,,-0.02,0.07,0.98,-3.2,-0.1,0.4,720,76,9.231,0,39.540577,-122.332062,1.26,0.228,325.9,10,3,1.3,0,0.0,-1,0.0,0.0,0.0,0
582266,1469913768827,,,,,,,-0.02,0.07,0.98,-3.2,-0.2,0.2,720,78,,,,,,,,,,,,,,,,,
582286,1469913768847,,,,,,,-0.02,0.07,0.98,-3.2,-0.1,0.2,720,76,,,,,,,,,,,,,,,,,
582306,1469913768867,,,,,,,-0.02,0.07,0.98,-3.2,-0.0,0.3,720,76,,,,,,,,,,,,,,,,,
582326,1469913768887,,,,,,,-0.01,0.07,0.98,-3.1,0.0,0.3,740,75,,,,,,,,,,,,,,,,,
582346,1469913768900,,,,10,,,-0.02,0.06,0.98,-3.1,-0.1,0.2,720,75,9.474,0,39.540577,-122.332062,1.23,0.228,325.9,10,3,1.3,0,0.0,-1,0.0,,0.0,0
582366,1469913768920,,,,,,,-0.02,0.07,0.98,-3.2,-0.1,0.3,720,73,,,,,,,,,,,,,,,,,
582386,1469913768940,,,,,,,-0.01,0.07,0.99,-3.2,0.0,0.3,720,73,,,,,,,,,,,,,,,,,
582406,1469913768960,,,,,,,-0.01,0.07,0.99,-3.1,0.0,0.2,700,73,,,,,,,,,,,,,,,,,
582426,1469913768980,,,,,,,-0.02,0.07,0.98,-3.1,0.1,0.1,700,72,,,,,,,,,,,,,,,,,
582446,1469913769106,0,213.9,181.7,9,181.7,,-0.02,0.06,0.98,-3.2,0.1,0.2,720,73,9.863,0,39.540577,-122.332062,1.57,0.228,325.9,10,3,1.3,0,0.0,-1,0.0,0.0,0.0,0
582466,1469913769126,,,,,,,-0.02,0.07,0.98,-3.2,0.1,0.3,720,73,,,,,,,,,,,,,,,,,
582486,1469913769146,,,,,,,-0.02,0.07,0.98,-3.2,0.0,0.1,720,73,,,,,,,,,,,,,,,,,
582506,1469913769166,,,,,,,-0.01,0.07,0.98,-3.2,0.2,0.1,720,70,,,,,,,,,,,,,,,,,
582526,1469913769186,,,,,,,-0.01,0.08,0.98,-3.2,0.3,0.2,700,70,,,,,,,,,,,,,,,,,
582546,1469913769206,,,,12,,,-0.01,0.07,0.99,-3.1,0.2,0.1,700,72,9.863,0,39.540577,-122.332062,1.57,0.228,325.9,10,3,1.3,0,0.0,-1,0.0,,0.0,0
582566,1469913769226,,,,,,,-0.02,0.06,0.99,-3.1,0.2,-0.0,700,72,,,,,,,,,,,,,,,,,
582586,1469913769246,,,,,,,-0.02,0.07,0.98,-3.1,0.2,0.0,700,73,,,,,,,,,,,,,,,,,
582606,1469913769266,,,,,,,-0.01,0.06,0.98,-3.1,0.2,0.1,700,73,,,,,,,,,,,,,,,,,
582626,1469913769286,,,,,,,-0.01,0.06,0.98,-3.0,0.1,-0.0,700,75,,,,,,,,,,,,,,,,,
582646,1469913769207,0,212.8,180.8,11,181.0,,-0.01,0.06,0.98,-3.0,0.2,-0.0,700,72,9.589,0,39.540577,-122.332062,1.21,0.228,325.9,10,3,1.3,0,0.0,-1,0.0,0.0,0.0,0
582666,1469913769227,,,,,,,-0.01,0.06,0.98,-3.1,0.3,0.0,720,70,,,,,,,,,,,,,,,,,
582686,1469913769247,,,,,,,-0.01,0.07,0.99,-3.1,0.4,0.0,700,72,,,,,,,,,,,,,,,,,
582706,1469913769267,,,,,,,-0.01,0.07,0.99,-3.0,0.3,-0.1,700,73,,,,,,,,,,,,,,,,,
582726,1469913769287,,,,,,,-0.01,0.07,0.98,-3.1,0.3,0.0,700,72,,,,,,,,,,,,,,,,,
582746,1469913769307,,,,9,,,-0.02,0.07,0.98,-3.0,0.3,0.1,700,72,9.722,0,39.540577,-122.332062,1.49,0.228,325.9,10,3,1.3,0,0.0,-1,0.0,,0.0,0
582766,1469913769327,,,,,,,-0.02,0.07,0.99,-3.0,0.2,0.0,700,70,,,,,,,,,,,,,,,,,
582786,1469913769347,,,,,,,-0.02,0.06,0.99,-3.0,0.2,-0.0,700,69,,,,,,,,,,,,,,,,,
582806,1469913769367,,,,,,,-0.02,0.07,0.99,-3.1,0.2,0.1,700,69,,,,,,,,,,,,,,,,,
582826,1469913769387,,,,,,,-0.02,0.07,0.98,-3.0,0.3,0.0,720,69,,,,,,,,,,,,,,,,,
582846,1469913769408,0,213.0,180.6,10,180.9,,-0.02,0.06,0.99,-2.9,0.3,-0.1,700,72,10.145,0,39.540577,-122.332062,1.12,0.228,325.9,10,3,1.3,0,0.0,-1,0.0,0.0,0.0,0
582866,1469913769428,,,,,,,-0.02,0.07,0.99,-2.9,0.3,-0.0,700,76,,,,,,,,,,,,,,,,,
582886,1469913769448,,,,,,,-0.01,0.07,0.98,-2.9,0.3,-0.0,700,86,,,,,,,,,,,,,,,,,
582906,1469913769468,,,,,,,-0.01,0.06,0.99,-2.9,0.1,-0.1,700,98,,,,,,,,,,,,,,,,,
582926,1469913769488,,,,,,,-0.01,0.07,0.99,-2.9,0.0,-0.2,700,124,,,,,,,,,,,,,,,,,
582946,1469913769507,,,,9,,,-0.01,0.07,0.98,-3.0,-0.3,-0.0,700,141,8.14,0,39.540577,-122.332062,1.23,0.228,325.8,10,3,1.3,0,0.0,-1,0.0,,0.0,0
582966,1469913769527,,,,,,,-0.0,0.08,0.98,-2.9,-0.3,-0.1,700,135,,,,,,,,,,,,,,,,,
582986,1469913769547,,,,,,,-0.01,0.07,0.98,-2.9,-0.3,-0.2,700,95,,,,,,,,,,,,,,,,,
583006,1469913769567,,,,,,,-0.0,0.08,0.98,-2.9,-0.3,-0.1,700,95,,,,,,,,,,,,,,,,,
583026,1469913769587,,,,,,,-0.01,0.08,0.98,-2.9,-0.3,-0.1,680,95,,,,,,,,,,,,,,,,,
583046,1469913769608,0,214.6,182.4,8,182.5,13.33,-0.0,0.09,0.98,-2.8,-0.2,-0.3,680,27,7.368,0,39.540577,-122.332062,1.08,0.228,325.8,10,3,1.3,0,0.0,-1,0.0,0.0,0.0,0
583066,1469913769628,,,,,,,0.01,0.09,0.98,-2.8,0.0,-0.3,680,56,,,,,,,,,,,,,,,,,
583086,1469913769648,,,,,,,0.01,0.09,0.99,-2.9,0.2,-0.2,680,104,,,,,,,,,,,,,,,,,
583106,1469913769668,,,,,,,0.01,0.08,0.98,-2.7,0.1,-0.3,660,129,,,,,,,,,,,,,,,,,
583126,1469913769688,,,,,,,0.02,0.09,0.98,-2.8,0.2,-0.4,660,115,,,,,,,,,,,,,,,,,
583146,1469913769708,,,,8,,,0.02,0.08,0.98,-2.8,0.2,-0.3,660,115,6.538,0,39.540577,-122.332062,1.16,0.228,325.7,10,3,1.3,0,0.0,-1,0.0,,0.0,0
583166,1469913769728,,,,,,,0.01,0.08,0.97,-2.7,0.0,-0.4,680,58,,,,,,,,,,,,,,,,,
583186,1469913769748,,,,,,,0.0,0.08,0.98,-2.7,0.2,-0.4,680,58,,,,,,,,,,,,,,,,,
583206,1469913769768,,,,,,,0.0,0.09,0.98,-2.8,0.0,-0.3,660,40,,,,,,,,,,,,,,,,,
583226,1469913769788,,,,,,,-0.01,0.08,0.98,-2.8,-0.0,-0.3,660,89,,,,,,,,,,,,,,,,,
583246,1469913769907,0,213.8,180.4,10,180.4,,-0.01,0.08,0.98,-2.8,0.0,-0.3,660,106,11.724,0,39.540577,-122.332062,1.16,0.228,325.7,10,3,1.3,0,0.0,-1,0.0,0.0,0.0,0
583266,1469913769927,,,,,,,0.01,0.09,0.98,-2.8,-0.1,-0.2,660,115,,,,,,,,,,,,,,,,,
583286,1469913769947,,,,,,,0.01,0.08,0.98,-2.8,0.0,-0.2,660,106,,,,,,,,,,,,,,,,,
583306,1469913769967,,,,,,,0.0,0.07,0.99,-2.8,0.1,-0.2,660,69,,,,,,,,,,,,,,,,,
583326,1469913769987,,,,,,,0.0,0.08,0.99,-2.8,-0.0,-0.2,640,69,,,,,,,,,,,,,,,,,
583346,1469913770007,,,,8,,,-0.0,0.07,0.98,-2.7,-0.0,-0.3,660,69,6.226,0,39.540577,-122.332062,1.16,0.228,325.7,10,3,1.3,0,0.0,-1,0.0,,0.0,0
583366,1469913770027,,,,,,,-0.01,0.08,0.98,-2.7,0.1,-0.3,660,90,,,,,,,,,,,,,,,,,
