"Interval"|"ms"|0|0|1,"Utc"|"ms"|0|0|1,"FuelLevel"|"F"|0|100|5,"OilTemp"|"F"|0.0|300.0|5,"Coolant"|"F"|0.0|300.0|5,"OilPress"|"PSI"|0|150|10,"EngineTemp"|"F"|0.0|300.0|5,"Battery"|"Volts"|0.0|20.0|1,"AccelX"|"G"|-3.0|3.0|50,"AccelY"|"G"|-3.0|3.0|50,"AccelZ"|"G"|-3.0|3.0|50,"Yaw"|"Deg/Sec"|-300.0|300.0|50,"Pitch"|"Deg/Sec"|-300.0|300.0|50,"Roll"|"Deg/Sec"|-300.0|300.0|50,"RPM"|""|0|10000|50,"Driveshaft"|"RPM"|0|5000|50,"GearRatio"|""|-5.0|5.0|10,"Gear"|""|-1|5|10,"Latitude"|"Degrees"|-180.0|180.0|10,"Longitude"|"Degrees"|-180.0|180.0|10,"Speed"|"MPH"|0.0|150.0|10,"Distance"|"Miles"|0.0|0.0|10,"Altitude"|"Feet"|0.0|4000.0|10,"GPSSats"|""|0|20|10,"GPSQual"|""|0|5|10,"GPSDOP"|""|0.0|20.0|10,"LapCount"|""|0|0|10,"LapTime"|"Min"|0.0|0.0|10,"Sector"|""|0|0|10,"SectorTime"|"Min"|0.0|0.0|10,"PredTime"|"Min"|0.0|0.0|5,"ElapsedTime"|"Min"|0.0|0.0|10,"CurrentLap"|""|0|0|10
5066,1469926420842,,,,,,,-0.04,-0.64,0.75,11.1,-3.0,1.2,3260,3258,,,,,,,,,,,,,,,,,
5086,1469926420862,,,,,,,-0.07,-0.65,0.79,10.8,-2.7,1.1,3160,3190,,,,,,,,,,,,,,,,,
5106,1469926420882,,,,,,,-0.04,-0.64,0.83,10.7,-2.7,0.8,3120,3244,,,,,,,,,,,,,,,,,
5126,1469926420902,,,,,,,-0.07,-0.65,0.81,10.9,-2.8,0.9,3280,3218,,,,,,,,,,,,,,,,,
5146,1469926420916,,,,25,,,-0.09,-0.66,0.75,11.0,-3.5,0.8,3320,3244,1.011,4,39.537968,-122.329155,55.44,0.002,305.0,8,2,1.8,0,0.0,-1,0.0,,0.0,0
5166,1469926420936,,,,,,,-0.08,-0.64,0.73,10.8,-4.3,0.6,3140,3230,,,,,,,,,,,,,,,,,
5186,1469926420956,,,,,,,-0.06,-0.62,0.76,10.4,-4.0,0.6,3240,3218,,,,,,,,,,,,,,,,,
5206,1469926420976,,,,,,,-0.05,-0.6,0.8,10.3,-4.5,0.8,3220,3244,,,,,,,,,,,,,,,,,
5226,1469926421002,,,,,,,-0.05,-0.64,0.8,10.6,-3.4,1.1,3180,3230,,,,,,,,,,,,,,,,,
5246,1469926421022,0,270.5,212.6,24,217.5,,-0.06,-0.65,0.86,10.6,-2.6,1.0,3180,3272,0.986,4,39.537983,-122.329178,55.7,0.003,304.6,8,2,1.8,0,0.0,-1,0.0,0.0,0.0,0
5266,1469926421042,,,,,,,-0.08,-0.69,0.87,10.6,-1.8,0.5,3180,3272,,,,,,,,,,,,,,,,,
5286,1469926421062,,,,,,,-0.1,-0.7,0.85,10.6,-2.2,0.4,3220,3272,,,,,,,,,,,,,,,,,
5306,1469926421082,,,,,,,-0.12,-0.68,0.77,11.3,-3.4,0.3,3260,3244,,,,,,,,,,,,,,,,,
5326,1469926421102,,,,,,,-0.15,-0.68,0.79,11.5,-3.2,-0.0,3260,3258,,,,,,,,,,,,,,,,,
5346,1469926421122,,,,26,,,-0.12,-0.66,0.84,11.4,-2.4,-0.3,3240,3258,0.997,4,39.537998,-122.329193,55.85,0.005,304.0,8,2,1.8,0,0.0,-1,0.0,,0.0,0
5366,1469926421142,,,,,,,-0.08,-0.6,0.86,11.4,-2.1,-0.4,3280,3258,,,,,,,,,,,,,,,,,
5386,1469926421162,,,,,,,-0.11,-0.69,0.82,11.7,-2.4,-0.1,3200,3272,,,,,,,,,,,,,,,,,
5406,1469926421182,,,,,,,-0.12,-0.66,0.8,11.9,-3.1,-0.5,3300,3286,,,,,,,,,,,,,,,,,
5426,1469926421201,,,,,,,-0.13,-0.66,0.84,12.0,-3.7,-0.8,3280,3244,,,,,,,,,,,,,,,,,
5446,1469926421221,0,270.4,212.6,23,217.2,,-0.13,-0.7,0.77,12.3,-4.7,-0.7,3180,3272,1.023,4,39.53801,-122.329216,56.05,0.006,303.4,8,2,1.8,0,0.0,-1,0.0,0.0,0.0,0
5466,1469926421241,,,,,,,-0.14,-0.74,0.76,12.6,-4.4,-0.3,3280,3315,,,,,,,,,,,,,,,,,
5486,1469926421261,,,,,,,-0.16,-0.77,0.83,12.8,-2.9,-0.4,3260,3286,,,,,,,,,,,,,,,,,
5506,1469926421281,,,,,,,-0.13,-0.72,0.87,12.9,-2.8,-0.4,3320,3315,,,,,,,,,,,,,,,,,
5526,1469926421301,,,,,,,-0.12,-0.67,0.81,13.0,-3.8,-0.1,3200,3258,,,,,,,,,,,,,,,,,
5546,1469926421321,,,,22,,,-0.11,-0.65,0.81,13.0,-3.5,-0.3,3220,3286,1.01,4,39.538025,-122.329247,56.15,0.008,302.8,8,2,1.8,0,0.0,-1,0.0,,0.0,0
5566,1469926421341,,,,,,,-0.07,-0.62,0.88,12.9,-2.2,-0.6,3360,3300,,,,,,,,,,,,,,,,,
5586,1469926421361,,,,,,,-0.08,-0.65,0.89,12.9,-1.3,-0.8,3200,3300,,,,,,,,,,,,,,,,,
5606,1469926421381,,,,,,,-0.09,-0.68,0.91,13.1,-1.3,-0.7,3260,3315,,,,,,,,,,,,,,,,,
5626,1469926421401,,,,,,,-0.1,-0.7,0.92,13.2,-1.9,-0.8,3320,3315,,,,,,,,,,,,,,,,,
5646,1469926421519,0,270.9,212.5,17,217.5,,-0.11,-0.66,0.99,12.9,-1.5,-0.7,3220,3272,1.008,4,39.538059,-122.329285,56.76,0.011,301.5,9,2,1.6,0,0.0,-1,0.0,0.0,0.0,0
5666,1469926421539,,,,,,,-0.14,-0.7,0.94,12.8,-0.9,-0.3,3400,3286,,,,,,,,,,,,,,,,,
5686,1469926421559,,,,,,,-0.14,-0.69,0.94,12.7,-0.0,-0.3,3340,3315,,,,,,,,,,,,,,,,,
5706,1469926421579,,,,,,,-0.14,-0.73,0.98,12.3,-0.0,-0.3,3220,3343,,,,,,,,,,,,,,,,,
5726,1469926421599,,,,,,,-0.16,-0.73,0.95,12.3,-0.3,-0.2,3300,3315,,,,,,,,,,,,,,,,,
5746,1469926421619,,,,18,,,-0.21,-0.71,0.91,12.2,-0.5,-0.0,3360,3300,0.967,4,39.538059,-122.329285,56.76,0.011,301.5,9,2,1.6,0,0.0,-1,0.0,,0.0,0
5766,1469926421639,,,,,,,-0.24,-0.72,0.93,12.1,-1.3,0.2,3340,3329,,,,,,,,,,,,,,,,,
5786,1469926421659,,,,,,,-0.24,-0.75,0.88,12.5,-1.6,0.4,3260,3343,,,,,,,,,,,,,,,,,
5806,1469926421679,,,,,,,-0.25,-0.72,0.85,12.7,-1.4,0.7,3280,3329,,,,,,,,,,,,,,,,,
5826,1469926421699,,,,,,,-0.22,-0.72,0.87,12.8,-1.2,0.6,3320,3315,,,,,,,,,,,,,,,,,
5846,1469926421620,0,272.2,213.2,20,218.2,,-0.18,-0.72,0.83,12.6,-0.7,0.8,3360,3329,0.979,4,39.538074,-122.329292,57.02,0.012,300.9,9,2,1.6,0,0.0,-1,0.0,0.0,0.0,0
5866,1469926421640,,,,,,,-0.14,-0.77,0.8,12.7,-0.9,1.0,3300,3329,,,,,,,,,,,,,,,,,
5886,1469926421660,,,,,,,-0.12,-0.77,0.85,12.4,-0.2,1.0,3320,3372,,,,,,,,,,,,,,,,,
5906,1469926421680,,,,,,,-0.13,-0.8,0.89,12.2,-0.5,1.1,3300,3343,,,,,,,,,,,,,,,,,
5926,1469926421700,,,,,,,-0.17,-0.76,0.84,12.4,-1.1,1.0,3320,3329,,,,,,,,,,,,,,,,,
5946,1469926421720,,,,21,,,-0.16,-0.77,0.86,12.4,-0.6,0.8,3260,3300,0.999,4,39.538094,-122.329323,57.2,0.015,300.5,9,2,1.6,0,0.0,-1,0.0,,0.0,0
5966,1469926421740,,,,,,,-0.16,-0.79,0.86,12.3,-0.3,0.5,3340,3343,,,,,,,,,,,,,,,,,
5986,1469926421760,,,,,,,-0.14,-0.81,0.84,12.3,-0.3,0.7,3360,3372,,,,,,,,,,,,,,,,,
6006,1469926421780,,,,,,,-0.13,-0.79,0.87,12.2,-0.8,0.7,3340,3358,,,,,,,,,,,,,,,,,
6026,1469926421801,,,,,,,-0.13,-0.84,0.9,12.2,-1.0,0.7,3360,3358,,,,,,,,,,,,,,,,,
6046,1469926421821,0,270.0,212.0,20,217.1,13.88,-0.1,-0.9,0.9,12.4,-0.9,0.7,3360,3387,0.983,4,39.538113,-122.32933,57.39,0.016,300.2,9,2,1.6,0,0.0,-1,0.0,0.0,0.0,0
6066,1469926421841,,,,,,,-0.12,-0.92,0.92,12.5,-0.3,0.7,3360,3358,,,,,,,,,,,,,,,,,
6086,1469926421861,,,,,,,-0.13,-0.89,1.0,12.3,-0.4,0.7,3340,3343,,,,,,,,,,,,,,,,,
6106,1469926421881,,,,,,,-0.15,-0.84,0.93,12.6,-1.4,0.7,3320,3343,,,,,,,,,,,,,,,,,
6126,1469926421901,,,,,,,-0.18,-0.77,0.94,12.5,-1.2,0.6,3300,3343,,,,,,,,,,,,,,,,,
6146,1469926421915,,,,21,,,-0.2,-0.8,0.9,12.4,-1.5,0.7,3380,3343,1.001,4,39.538128,-122.329346,57.64,0.017,299.9,9,2,1.6,0,0.0,-1,0.0,,0.0,0
6166,1469926421935,,,,,,,-0.19,-0.76,0.86,12.4,-1.4,1.0,3440,3358,,,,,,,,,,,,,,,,,
6186,1469926421955,,,,,,,-0.16,-0.75,0.9,12.1,-1.5,1.0,3360,3343,,,,,,,,,,,,,,,,,
6206,1469926421975,,,,,,,-0.14,-0.75,0.83,12.1,-1.7,1.2,3380,3343,,,,,,,,,,,,,,,,,
6226,1469926422001,,,,,,,-0.13,-0.75,0.82,12.2,-1.1,1.2,3300,3403,,,,,,,,,,,,,,,,,
6246,1469926422021,0,270.7,212.5,18,217.5,,-0.11,-0.77,0.81,12.0,-0.9,1.3,3320,3403,1.009,4,39.538147,-122.329369,57.87,0.019,299.7,9,2,1.6,0,0.0,-1,0.0,0.0,0.0,0
6266,1469926422041,,,,,,,-0.08,-0.73,0.74,12.3,-1.0,1.5,3380,3387,,,,,,,,,,,,,,,,,
6286,1469926422061,,,,,,,-0.08,-0.69,0.76,12.4,-0.5,1.3,3420,3343,,,,,,,,,,,,,,,,,
6306,1469926422081,,,,,,,-0.1,-0.71,0.79,12.5,-0.8,0.9,3300,3387,,,,,,,,,,,,,,,,,
6326,1469926422101,,,,,,,-0.11,-0.67,0.81,12.8,-1.2,0.5,3320,3387,,,,,,,,,,,,,,,,,
6346,1469926422120,,,,16,,,-0.12,-0.68,0.87,12.8,-1.1,0.7,3400,3372,0.986,4,39.538166,-122.329384,58.19,0.021,299.3,10,2,1.6,0,0.0,-1,0.0,,0.0,0
6366,1469926422140,,,,,,,-0.11,-0.74,0.87,13.1,-1.5,0.8,3400,3372,,,,,,,,,,,,,,,,,
6386,1469926422160,,,,,,,-0.11,-0.76,0.93,13.2,-1.0,1.1,3360,3433,,,,,,,,,,,,,,,,,
6406,1469926422180,,,,,,,-0.13,-0.78,0.96,13.4,-0.3,0.9,3400,3433,,,,,,,,,,,,,,,,,
6426,1469926422200,,,,,,,-0.14,-0.78,0.86,13.6,-1.1,1.0,3400,3403,,,,,,,,,,,,,,,,,
6446,1469926422320,0,270.7,212.5,17,217.7,,-0.14,-0.76,0.92,13.4,-0.7,0.7,3360,3403,0.99,4,39.538208,-122.329407,58.7,0.024,298.4,10,2,1.6,0,0.0,-1,0.0,0.0,0.0,0
6466,1469926422340,,,,,,,-0.17,-0.76,0.87,13.4,-1.2,0.8,3420,3433,,,,,,,,,,,,,,,,,
6486,1469926422360,,,,,,,-0.18,-0.73,0.92,13.7,-0.9,0.5,3460,3418,,,,,,,,,,,,,,,,,
6506,1469926422380,,,,,,,-0.17,-0.75,0.94,13.7,-0.9,0.4,3420,3403,,,,,,,,,,,,,,,,,
6526,1469926422400,,,,,,,-0.17,-0.8,0.95,13.9,-1.9,0.4,3380,3449,,,,,,,,,,,,,,,,,
6546,1469926422420,,,,14,,,-0.17,-0.8,1.03,14.1,-1.3,-0.1,3380,3449,0.995,4,39.538208,-122.329407,58.7,0.024,298.4,10,2,1.6,0,0.0,-1,0.0,,0.0,0
6566,1469926422440,,,,,,,-0.18,-0.76,0.96,14.5,-1.3,-0.7,3460,3418,,,,,,,,,,,,,,,,,
6586,1469926422460,,,,,,,-0.21,-0.76,1.01,14.9,-1.3,-1.1,3460,3418,,,,,,,,,,,,,,,,,
6606,1469926422480,,,,,,,-0.21,-0.76,0.96,15.2,-1.5,-1.8,3380,3418,,,,,,,,,,,,,,,,,
6626,1469926422500,,,,,,,-0.19,-0.71,0.97,15.6,-1.1,-2.6,3500,3464,,,,,,,,,,,,,,,,,
6646,1469926422420,0,271.2,212.6,14,217.5,,-0.16,-0.75,1.01,15.8,-1.1,-2.8,3460,3418,1.001,4,39.538231,-122.329437,58.93,0.026,298.1,10,2,1.6,0,0.0,-1,0.0,0.0,0.0,0
6666,1469926422440,,,,,,,-0.14,-0.75,0.92,16.1,-0.7,-2.6,3380,3418,,,,,,,,,,,,,,,,,
6686,1469926422460,,,,,,,-0.11,-0.77,0.99,16.0,0.2,-2.5,3360,3480,,,,,,,,,,,,,,,,,
6706,1469926422480,,,,,,,-0.1,-0.84,0.97,16.0,-1.1,-2.4,3440,3433,,,,,,,,,,,,,,,,,
6726,1469926422500,,,,,,,-0.16,-0.82,0.98,15.8,-0.5,-2.0,3420,3433,,,,,,,,,,,,,,,,,
6746,1469926422520,,,,15,,,-0.12,-0.81,0.92,15.5,-0.8,-1.5,3480,3464,1.003,4,39.53825,-122.329445,58.98,0.027,297.7,10,2,1.6,0,0.0,-1,0.0,,0.0,0
6766,1469926422540,,,,,,,-0.09,-0.78,0.91,15.4,-0.9,-1.0,3520,3464,,,,,,,,,,,,,,,,,
6786,1469926422560,,,,,,,-0.1,-0.82,0.97,15.2,-0.9,-0.3,3460,3449,,,,,,,,,,,,,,,,,
6806,1469926422580,,,,,,,-0.11,-0.85,1.0,15.5,-0.2,-0.0,3420,3495,,,,,,,,,,,,,,,,,
6826,1469926422600,,,,,,,-0.13,-0.9,1.06,15.6,0.7,0.2,3420,3464,,,,,,,,,,,,,,,,,
6846,1469926422620,0,269.9,212.0,14,217.1,,-0.14,-0.86,0.98,16.1,0.9,-0.2,3440,3449,1.01,4,39.538273,-122.32946,59.08,0.029,297.3,10,2,1.6,0,0.0,-1,0.0,0.0,0.0,0
6866,1469926422640,,,,,,,-0.17,-0.97,0.98,16.5,2.0,-0.4,3460,3480,,,,,,,,,,,,,,,,,
6886,1469926422660,,,,,,,-0.19,-0.95,0.94,16.8,1.7,-0.7,3440,3464,,,,,,,,,,,,,,,,,
6906,1469926422680,,,,,,,-0.18,-0.91,1.02,16.8,1.7,-0.9,3440,3480,,,,,,,,,,,,,,,,,
6926,1469926422701,,,,,,,-0.17,-0.92,0.99,16.4,2.9,-0.9,3400,3464,,,,,,,,,,,,,,,,,
6946,1469926422721,,,,13,,,-0.19,-0.93,1.01,16.2,4.2,-1.0,3500,3480,1.003,4,39.538296,-122.329475,59.51,0.031,296.9,10,2,1.6,0,0.0,-1,0.0,,0.0,0
6966,1469926422741,,,,,,,-0.21,-0.93,0.94,16.0,3.8,-0.9,3440,3512,,,,,,,,,,,,,,,,,
6986,1469926422761,,,,,,,-0.22,-0.92,0.96,16.0,3.2,-0.9,3440,3464,,,,,,,,,,,,,,,,,
7006,1469926422781,,,,,,,-0.19,-0.9,0.93,15.9,1.9,-0.7,3500,3495,,,,,,,,,,,,,,,,,
7026,1469926422801,,,,,,,-0.18,-0.85,0.94,16.0,1.0,-0.4,3400,3464,,,,,,,,,,,,,,,,,
7046,1469926422821,0,270.5,212.7,12,217.9,13.8,-0.13,-0.91,0.88,15.8,0.3,-0.1,3440,3480,0.989,4,39.538315,-122.329475,59.93,0.032,296.4,10,2,1.6,0,0.0,-1,0.0,0.0,0.0,0
7066,1469926422841,,,,,,,-0.11,-0.95,0.94,15.8,1.1,0.2,3460,3512,,,,,,,,,,,,,,,,,
7086,1469926422861,,,,,,,-0.09,-1.04,0.94,15.9,1.6,0.0,3460,3495,,,,,,,,,,,,,,,,,
7106,1469926422881,,,,,,,-0.11,-1.05,0.95,16.3,0.7,-0.2,3480,3449,,,,,,,,,,,,,,,,,
7126,1469926422901,,,,,,,-0.11,-1.02,0.92,16.4,-0.1,-0.5,3500,3495,,,,,,,,,,,,,,,,,
7146,1469926422915,,,,12,,,-0.12,-0.96,0.92,16.4,-0.2,-0.4,3560,3495,1.001,4,39.538338,-122.329483,59.95,0.034,295.9,10,2,1.6,0,0.0,-1,0.0,,0.0,0
7166,1469926422935,,,,,,,-0.11,-0.89,0.9,16.3,-1.2,-0.5,3480,3512,,,,,,,,,,,,,,,,,
7186,1469926422955,,,,,,,-0.12,-0.96,0.97,16.3,-0.5,-0.4,3500,3527,,,,,,,,,,,,,,,,,
7206,1469926422975,,,,,,,-0.13,-0.91,0.97,16.3,0.3,-0.5,3440,3544,,,,,,,,,,,,,,,,,
7226,1469926423001,,,,,,,-0.13,-0.88,0.98,16.4,0.2,-0.9,3480,3464,,,,,,,,,,,,,,,,,
7246,1469926423120,0,270.7,212.5,12,217.7,,-0.13,-0.88,0.98,16.2,0.4,-1.0,3420,3512,1.007,4,39.538384,-122.329514,60.15,0.038,295.1,10,2,1.6,0,0.0,-1,0.0,0.0,0.0,0
7266,1469926423140,,,,,,,-0.08,-0.91,0.98,16.3,-0.4,-0.8,3500,3512,,,,,,,,,,,,,,,,,
7286,1469926423160,,,,,,,-0.06,-0.9,1.01,16.1,0.1,-0.4,3500,3495,,,,,,,,,,,,,,,,,
7306,1469926423180,,,,,,,-0.05,-0.96,0.99,16.0,0.5,-0.3,3500,3544,,,,,,,,,,,,,,,,,
7326,1469926423200,,,,,,,-0.05,-0.98,1.02,15.9,-0.1,-0.3,3520,3512,,,,,,,,,,,,,,,,,
7346,1469926423220,,,,14,,,-0.04,-0.94,0.97,15.9,-1.3,-0.1,3500,3495,0.981,4,39.538384,-122.329514,60.15,0.038,295.1,10,2,1.6,0,0.0,-1,0.0,,0.0,0
7366,1469926423240,,,,,,,-0.03,-0.96,1.01,15.9,-1.9,-0.0,3460,3512,,,,,,,,,,,,,,,,,
7386,1469926423260,,,,,,,-0.02,-0.91,0.93,15.9,-2.5,-0.1,3460,3544,,,,,,,,,,,,,,,,,
7406,1469926423280,,,,,,,0.0,-0.84,0.96,15.7,-2.0,0.1,3480,3480,,,,,,,,,,,,,,,,,
7426,1469926423300,,,,,,,-0.01,-0.84,0.96,15.9,-1.9,0.2,3480,3544,,,,,,,,,,,,,,,,,
7446,1469926423220,0,272.6,213.5,14,218.4,,-0.04,-0.88,0.98,15.9,-1.3,0.2,3500,3512,0.997,4,39.538406,-122.329514,60.44,0.039,294.8,10,2,1.6,0,0.0,-1,0.0,0.0,0.0,0
7466,1469926423240,,,,,,,-0.08,-0.91,0.93,16.1,-1.1,0.1,3520,3480,,,,,,,,,,,,,,,,,
7486,1469926423260,,,,,,,-0.06,-0.95,0.93,16.1,0.5,0.0,3520,3495,,,,,,,,,,,,,,,,,
7506,1469926423280,,,,,,,-0.06,-0.89,0.9,16.1,0.5,-0.2,3500,3527,,,,,,,,,,,,,,,,,
7526,1469926423300,,,,,,,-0.05,-0.91,0.91,16.0,-0.1,-0.1,3560,3495,,,,,,,,,,,,,,,,,
7546,1469926423320,,,,15,,,-0.03,-0.88,0.89,16.2,-0.2,0.2,3560,3527,0.992,4,39.538429,-122.329521,60.44,0.041,294.5,10,2,1.6,0,0.0,-1,0.0,,0.0,0
7566,1469926423340,,,,,,,0.0,-0.89,0.84,16.0,-0.8,0.5,3560,3544,,,,,,,,,,,,,,,,,
7586,1469926423360,,,,,,,-0.03,-0.93,0.86,16.2,-0.6,0.5,3520,3512,,,,,,,,,,,,,,,,,
7606,1469926423380,,,,,,,-0.01,-0.93,0.88,16.4,-0.7,0.4,3460,3527,,,,,,,,,,,,,,,,,
7626,1469926423400,,,,,,,0.02,-0.88,0.9,16.5,-0.6,0.1,3500,3527,,,,,,,,,,,,,,,,,
7646,1469926423420,0,270.5,212.7,13,218.3,,0.03,-0.89,0.93,16.8,-0.8,-0.2,3480,3512,1.014,4,39.538456,-122.329521,60.41,0.043,294.2,10,2,1.6,0,0.0,-1,0.0,0.0,0.0,0
7666,1469926423440,,,,,,,0.01,-0.9,1.0,16.7,0.5,-0.2,3540,3560,,,,,,,,,,,,,,,,,
7686,1469926423460,,,,,,,0.0,-0.87,0.96,16.5,1.0,-0.0,3460,3512,,,,,,,,,,,,,,,,,
7706,1469926423480,,,,,,,-0.01,-0.89,0.98,16.3,1.0,0.2,3520,3495,,,,,,,,,,,,,,,,,
7726,1469926423500,,,,,,,-0.02,-0.92,0.99,16.1,0.2,-0.0,3540,3560,,,,,,,,,,,,,,,,,
7746,1469926423520,,,,13,,,-0.01,-0.91,1.06,15.8,-0.1,-0.1,3480,3495,0.996,4,39.538479,-122.329536,60.62,0.044,293.9,10,2,1.6,0,0.0,-1,0.0,,0.0,0
7766,1469926423540,,,,,,,0.04,-0.88,0.97,15.5,-0.3,0.1,3440,3544,,,,,,,,,,,,,,,,,
7786,1469926423560,,,,,,,0.05,-0.92,1.02,15.6,-0.6,0.3,3500,3544,,,,,,,,,,,,,,,,,
7806,1469926423580,,,,,,,0.04,-0.86,0.98,15.4,-0.6,0.4,3520,3527,,,,,,,,,,,,,,,,,
7826,1469926423601,,,,,,,0.02,-0.86,0.99,15.4,-0.6,0.4,3560,3512,,,,,,,,,,,,,,,,,
7846,1469926423621,0,271.5,212.6,13,217.4,,0.03,-0.86,0.96,15.1,-1.1,0.3,3520,3544,0.992,4,39.538502,-122.329536,60.77,0.046,293.6,10,2,1.6,0,0.0,-1,0.0,0.0,0.0,0
7866,1469926423641,,,,,,,0.01,-0.89,1.04,15.1,-1.0,0.4,3540,3495,,,,,,,,,,,,,,,,,
7886,1469926423661,,,,,,,-0.0,-0.91,0.98,14.9,0.7,0.5,3400,3527,,,,,,,,,,,,,,,,,
7906,1469926423681,,,,,,,0.04,-0.93,1.01,14.7,1.0,0.8,3480,3544,,,,,,,,,,,,,,,,,
7926,1469926423701,,,,,,,0.01,-0.89,0.96,14.6,0.5,0.9,3480,3527,,,,,,,,,,,,,,,,,
7946,1469926423721,,,,14,,,-0.02,-0.88,1.01,14.7,0.7,1.0,3500,3576,0.992,4,39.538525,-122.329536,60.9,0.048,293.4,10,2,1.6,0,0.0,-1,0.0,,0.0,0
7966,1469926423741,,,,,,,-0.02,-0.86,0.94,14.9,-0.2,1.1,3520,3527,,,,,,,,,,,,,,,,,
7986,1469926423761,,,,,,,0.0,-0.87,1.0,14.9,-0.2,0.9,3500,3512,,,,,,,,,,,,,,,,,
8006,1469926423781,,,,,,,0.0,-0.9,1.02,15.1,-0.2,1.0,3540,3560,,,,,,,,,,,,,,,,,
8026,1469926423801,,,,,,,-0.02,-0.89,1.06,15.5,0.3,0.7,3520,3544,,,,,,,,,,,,,,,,,
8046,1469926423920,0,270.7,212.4,13,217.5,14.05,-0.01,-0.84,1.0,15.9,0.2,0.4,3540,3512,1.004,4,39.538574,-122.329536,60.92,0.051,293.2,10,2,1.6,0,0.0,-1,0.0,0.0,0.0,0
8066,1469926423940,,,,,,,-0.03,-0.87,1.01,16.0,-0.1,0.1,3480,3544,,,,,,,,,,,,,,,,,
8086,1469926423960,,,,,,,-0.04,-0.8,0.97,16.1,-1.0,-0.5,3500,3495,,,,,,,,,,,,,,,,,
8106,1469926423980,,,,,,,0.02,-0.84,1.03,16.0,-1.1,-0.6,3560,3527,,,,,,,,,,,,,,,,,
8126,1469926424000,,,,,,,0.02,-0.81,1.01,15.7,-1.3,-0.5,3480,3544,,,,,,,,,,,,,,,,,
8146,1469926424020,,,,13,,,0.02,-0.87,0.98,15.8,-1.6,-0.2,3540,3544,1.001,4,39.538574,-122.329536,60.92,0.051,293.2,10,2,1.6,0,0.0,-1,0.0,,0.0,0
8166,1469926424040,,,,,,,0.02,-0.81,0.98,15.9,-1.6,-0.5,3500,3527,,,,,,,,,,,,,,,,,
8186,1469926424060,,,,,,,-0.01,-0.86,0.89,15.8,-0.7,-0.3,3520,3512,,,,,,,,,,,,,,,,,
8206,1469926424080,,,,,,,-0.02,-0.86,0.92,15.9,-0.1,-0.8,3500,3527,,,,,,,,,,,,,,,,,
8226,1469926424001,,,,,,,-0.01,-0.9,0.93,16.1,0.1,-0.8,3460,3480,,,,,,,,,,,,,,,,,
8246,1469926424021,0,270.4,212.7,14,217.6,,-0.01,-0.89,0.97,16.0,0.2,-0.8,3440,3544,0.985,4,39.538597,-122.329536,60.91,0.053,293.0,10,2,1.6,0,0.0,-1,0.0,0.0,0.0,0
8266,1469926424041,,,,,,,-0.02,-0.88,0.93,15.9,0.1,-0.9,3440,3495,,,,,,,,,,,,,,,,,
8286,1469926424061,,,,,,,-0.04,-0.9,0.94,16.1,-0.1,-1.1,3480,3512,,,,,,,,,,,,,,,,,
8306,1469926424081,,,,,,,-0.06,-0.92,0.92,16.2,0.5,-1.2,3540,3480,,,,,,,,,,,,,,,,,
8326,1469926424101,,,,,,,-0.03,-0.92,0.9,16.4,0.0,-1.1,3540,3495,,,,,,,,,,,,,,,,,
8346,1469926424121,,,,13,,,-0.01,-0.92,0.9,16.5,-0.4,-1.1,3480,3464,0.975,4,39.53862,-122.329536,60.99,0.054,292.9,10,2,1.6,0,0.0,-1,0.0,,0.0,0
8366,1469926424141,,,,,,,0.01,-0.94,0.91,16.3,-0.2,-1.1,3520,3544,,,,,,,,,,,,,,,,,
8386,1469926424161,,,,,,,0.0,-0.94,0.89,16.2,-0.1,-0.9,3420,3480,,,,,,,,,,,,,,,,,
8406,1469926424181,,,,,,,0.0,-0.92,0.9,16.3,-0.2,-0.9,3480,3527,,,,,,,,,,,,,,,,,
8426,1469926424201,,,,,,,0.01,-0.93,0.87,16.4,-0.6,-0.8,3480,3495,,,,,,,,,,,,,,,,,
8446,1469926424221,0,271.2,213.1,13,217.8,,0.0,-0.9,0.85,16.4,-0.8,-0.6,3500,3512,1.005,4,39.538643,-122.329536,60.7,0.056,292.8,10,2,1.6,0,0.0,-1,0.0,0.0,0.0,0
8466,1469926424241,,,,,,,0.01,-0.85,0.89,16.4,-0.6,-0.5,3460,3480,,,,,,,,,,,,,,,,,
8486,1469926424261,,,,,,,0.02,-0.85,0.92,16.4,-0.4,-0.6,3480,3527,,,,,,,,,,,,,,,,,
8506,1469926424281,,,,,,,0.01,-0.87,0.91,16.4,0.1,-0.5,3460,3512,,,,,,,,,,,,,,,,,
8526,1469926424301,,,,,,,0.03,-0.84,0.89,16.4,-0.4,-0.8,3480,3464,,,,,,,,,,,,,,,,,
8546,1469926424321,,,,13,,,0.02,-0.83,0.87,16.5,0.0,-1.0,3460,3495,0.994,4,39.53867,-122.329521,60.78,0.058,292.7,10,2,1.6,0,0.0,-1,0.0,,0.0,0
8566,1469926424341,,,,,,,0.01,-0.85,0.91,16.7,0.3,-0.8,3420,3480,,,,,,,,,,,,,,,,,
8586,1469926424361,,,,,,,0.02,-0.85,0.93,16.9,0.1,-0.6,3500,3480,,,,,,,,,,,,,,,,,
8606,1469926424381,,,,,,,0.05,-0.84,0.91,16.8,-0.3,-0.4,3440,3464,,,,,,,,,,,,,,,,,
8626,1469926424401,,,,,,,0.06,-0.85,0.92,16.7,-0.4,-0.0,3500,3527,,,,,,,,,,,,,,,,,
8646,1469926424419,0,270.7,212.8,13,217.7,,0.05,-0.85,0.88,16.5,-0.8,0.0,3460,3464,0.994,4,39.538692,-122.329521,60.56,0.059,292.5,10,2,1.6,0,0.0,-1,0.0,0.0,0.0,0
8666,1469926424439,,,,,,,0.05,-0.87,0.91,16.6,-1.2,-0.1,3440,3480,,,,,,,,,,,,,,,,,
8686,1469926424459,,,,,,,0.07,-0.84,0.88,16.4,-1.9,-0.1,3520,3480,,,,,,,,,,,,,,,,,
8706,1469926424479,,,,,,,0.06,-0.85,0.9,16.7,-2.1,-0.0,3500,3449,,,,,,,,,,,,,,,,,
8726,1469926424499,,,,,,,0.08,-0.86,0.9,16.9,-1.9,-0.3,3420,3495,,,,,,,,,,,,,,,,,
8746,1469926424519,,,,13,,,0.07,-0.93,0.89,17.2,-1.8,-0.5,3360,3480,0.979,4,39.538715,-122.329514,60.49,0.061,292.2,10,2,1.6,0,0.0,-1,0.0,,0.0,0
8766,1469926424539,,,,,,,0.07,-0.95,0.88,17.5,-2.0,-0.8,3420,3464,,,,,,,,,,,,,,,,,
8786,1469926424559,,,,,,,0.08,-0.95,0.89,17.7,-1.7,-1.0,3440,3480,,,,,,,,,,,,,,,,,
8806,1469926424579,,,,,,,0.07,-0.97,0.91,18.0,-1.5,-1.3,3440,3449,,,,,,,,,,,,,,,,,
8826,1469926424599,,,,,,,0.05,-1.0,0.93,18.0,-1.7,-1.3,3460,3480,,,,,,,,,,,,,,,,,
8846,1469926424718,0,269.4,213.4,12,218.4,,0.03,-0.98,0.95,18.1,-1.1,-1.3,3460,3449,0.999,4,39.538761,-122.329498,60.1,0.064,292.0,10,2,1.6,0,0.0,-1,0.0,0.0,0.0,0
8866,1469926424738,,,,,,,0.02,-1.07,0.92,18.0,-0.5,-0.8,3500,3512,,,,,,,,,,,,,,,,,
8886,1469926424758,,,,,,,0.03,-1.08,0.93,18.1,-0.9,-0.4,3500,3495,,,,,,,,,,,,,,,,,
8906,1469926424778,,,,,,,-0.0,-1.08,0.91,17.8,-1.2,0.0,3420,3464,,,,,,,,,,,,,,,,,
8926,1469926424798,,,,,,,-0.04,-1.07,0.95,17.6,-1.1,0.5,3460,3449,,,,,,,,,,,,,,,,,
8946,1469926424818,,,,12,,,-0.06,-1.04,0.91,17.2,-1.1,0.9,3480,3495,0.992,4,39.538761,-122.329498,60.1,0.064,292.0,10,2,1.6,0,0.0,-1,0.0,,0.0,0
8966,1469926424838,,,,,,,-0.07,-1.0,0.95,16.9,-1.4,1.5,3500,3464,,,,,,,,,,,,,,,,,
8986,1469926424858,,,,,,,-0.07,-1.03,0.93,16.6,-1.0,1.7,3500,3464,,,,,,,,,,,,,,,,,
9006,1469926424878,,,,,,,-0.06,-1.02,0.95,16.1,0.3,1.6,3420,3495,,,,,,,,,,,,,,,,,
9026,1469926424801,,,,,,,-0.08,-1.03,0.89,15.5,-0.0,1.7,3480,3464,,,,,,,,,,,,,,,,,
9046,1469926424821,0,271.0,212.3,13,217.5,13.92,-0.11,-1.02,0.89,15.1,-0.3,1.6,3460,3480,0.993,4,39.538784,-122.329498,59.96,0.066,292.0,10,2,1.6,0,0.0,-1,0.0,0.0,0.0,0
9066,1469926424841,,,,,,,-0.1,-1.0,0.86,14.7,-0.3,1.5,3480,3480,,,,,,,,,,,,,,,,,
9086,1469926424861,,,,,,,-0.1,-0.96,0.86,14.2,-1.1,1.7,3440,3464,,,,,,,,,,,,,,,,,
9106,1469926424881,,,,,,,-0.12,-0.95,0.87,13.8,-1.4,1.6,3400,3464,,,,,,,,,,,,,,,,,
9126,1469926424901,,,,,,,-0.12,-0.93,0.84,13.6,-1.4,1.7,3440,3449,,,,,,,,,,,,,,,,,
9146,1469926424915,,,,13,,,-0.09,-0.94,0.85,13.2,-1.9,1.4,3440,3480,0.986,4,39.538807,-122.329483,59.74,0.068,292.1,10,2,1.6,0,0.0,-1,0.0,,0.0,0
9166,1469926424935,,,,,,,-0.08,-0.91,0.8,13.0,-2.5,1.1,3460,3449,,,,,,,,,,,,,,,,,
9186,1469926424955,,,,,,,-0.09,-0.93,0.84,12.9,-2.7,0.9,3440,3449,,,,,,,,,,,,,,,,,
9206,1469926424975,,,,,,,-0.09,-0.88,0.84,12.6,-3.2,1.0,3460,3495,,,,,,,,,,,,,,,,,
9226,1469926425002,,,,,,,-0.09,-0.86,0.89,12.6,-3.2,1.0,3380,3449,,,,,,,,,,,,,,,,,
9246,1469926425022,0,269.9,213.0,14,218.2,,-0.05,-0.88,0.85,12.5,-2.9,0.6,3440,3495,0.999,4,39.53883,-122.329475,60.06,0.069,292.1,10,2,1.6,0,0.0,-1,0.0,0.0,0.0,0
9266,1469926425042,,,,,,,-0.03,-0.88,0.9,12.6,-2.3,0.2,3480,3495,,,,,,,,,,,,,,,,,
9286,1469926425062,,,,,,,-0.03,-0.88,0.93,12.5,-2.3,0.1,3460,3480,,,,,,,,,,,,,,,,,
9306,1469926425082,,,,,,,-0.02,-0.87,0.95,12.8,-2.0,0.0,3520,3449,,,,,,,,,,,,,,,,,
9326,1469926425102,,,,,,,0.0,-0.85,0.94,12.7,-1.1,0.2,3420,3512,,,,,,,,,,,,,,,,,
9346,1469926425122,,,,15,,,-0.01,-0.83,0.96,12.9,-1.3,0.1,3420,3464,1.006,4,39.538853,-122.32946,59.9,0.071,292.1,10,2,1.6,0,0.0,-1,0.0,,0.0,0
9366,1469926425142,,,,,,,-0.02,-0.87,1.0,12.8,-0.8,0.2,3480,3480,,,,,,,,,,,,,,,,,
9386,1469926425162,,,,,,,-0.01,-0.9,1.03,13.1,0.5,0.3,3480,3512,,,,,,,,,,,,,,,,,
9406,1469926425182,,,,,,,-0.01,-0.86,1.03,12.9,0.9,0.4,3540,3495,,,,,,,,,,,,,,,,,
9426,1469926425202,,,,,,,-0.05,-0.89,0.96,13.4,0.7,-0.0,3440,3449,,,,,,,,,,,,,,,,,
9446,1469926425222,0,270.7,212.3,20,217.5,,-0.06,-0.91,0.96,13.3,0.9,0.1,3400,3495,0.996,4,39.538876,-122.329445,60.14,0.073,292.1,10,2,1.6,0,0.0,-1,0.0,0.0,0.0,0
9466,1469926425242,,,,,,,-0.06,-0.92,0.97,13.5,0.7,0.4,3480,3480,,,,,,,,,,,,,,,,,
9486,1469926425262,,,,,,,-0.07,-0.93,0.99,13.4,0.6,0.6,3520,3495,,,,,,,,,,,,,,,,,
9506,1469926425282,,,,,,,-0.07,-0.91,0.96,13.5,0.7,0.6,3500,3495,,,,,,,,,,,,,,,,,
9526,1469926425302,,,,,,,-0.08,-0.9,0.97,13.1,1.0,0.5,3480,3464,,,,,,,,,,,,,,,,,
9546,1469926425322,,,,21,,,-0.08,-0.82,0.91,13.0,-0.4,0.2,3480,3480,0.993,4,39.538895,-122.329437,60.09,0.074,292.1,10,2,1.6,0,0.0,-1,0.0,,0.0,0
9566,1469926425342,,,,,,,-0.06,-0.85,0.97,13.0,0.4,0.1,3500,3495,,,,,,,,,,,,,,,,,
9586,1469926425362,,,,,,,-0.04,-0.79,0.93,13.2,-0.2,0.1,3500,3495,,,,,,,,,,,,,,,,,
9606,1469926425382,,,,,,,-0.02,-0.77,0.98,13.0,-0.3,0.5,3480,3512,,,,,,,,,,,,,,,,,
9626,1469926425402,,,,,,,-0.02,-0.79,0.97,13.1,-0.4,0.8,3480,3495,,,,,,,,,,,,,,,,,
9646,1469926425519,0,270.2,212.6,24,217.7,,-0.01,-0.83,1.01,13.3,0.1,1.0,3520,3527,1.006,4,39.538937,-122.329407,60.48,0.078,292.2,10,2,1.6,0,0.0,-1,0.0,0.0,0.0,0
9666,1469926425539,,,,,,,-0.03,-0.8,0.96,13.6,-0.6,0.5,3500,3464,,,,,,,,,,,,,,,,,
9686,1469926425559,,,,,,,-0.05,-0.9,0.97,13.8,-0.4,0.4,3460,3544,,,,,,,,,,,,,,,,,
9706,1469926425579,,,,,,,-0.04,-0.82,0.95,13.9,-0.6,0.0,3480,3527,,,,,,,,,,,,,,,,,
9726,1469926425599,,,,,,,-0.02,-0.82,0.98,13.7,0.2,0.1,3500,3512,,,,,,,,,,,,,,,,,
9746,1469926425619,,,,25,,,-0.01,-0.82,0.91,13.5,0.7,0.3,3480,3544,0.968,4,39.538937,-122.329407,60.48,0.078,292.2,10,2,1.6,0,0.0,-1,0.0,,0.0,0
9766,1469926425639,,,,,,,-0.02,-0.86,0.95,13.4,1.2,0.0,3520,3512,,,,,,,,,,,,,,,,,
9786,1469926425659,,,,,,,0.03,-0.79,0.89,13.6,0.9,-0.0,3480,3527,,,,,,,,,,,,,,,,,
9806,1469926425679,,,,,,,0.05,-0.81,0.9,13.5,0.2,-0.0,3500,3527,,,,,,,,,,,,,,,,,
9826,1469926425699,,,,,,,0.03,-0.76,0.87,13.5,-0.6,0.1,3560,3560,,,,,,,,,,,,,,,,,
9846,1469926425609,0,270.4,212.4,25,217.5,,0.03,-0.73,0.91,13.3,-1.0,0.1,3500,3512,1.009,4,39.53896,-122.329399,60.41,0.079,292.2,10,2,1.6,0,0.0,-1,0.0,0.0,0.0,0
9866,1469926425629,,,,,,,0.0,-0.77,1.0,13.3,-1.2,0.2,3560,3544,,,,,,,,,,,,,,,,,
9886,1469926425649,,,,,,,0.0,-0.77,1.03,13.3,-0.9,0.2,3520,3560,,,,,,,,,,,,,,,,,
9906,1469926425669,,,,,,,-0.04,-0.77,0.93,13.5,-0.7,-0.0,3500,3495,,,,,,,,,,,,,,,,,
9926,1469926425692,,,,,,,-0.08,-0.76,0.93,13.6,-0.8,-0.3,3580,3544,,,,,,,,,,,,,,,,,
9946,1469926425712,,,,23,,,-0.08,-0.75,0.91,13.5,-0.9,-0.1,3500,3544,0.97,4,39.538979,-122.329369,60.74,0.081,292.2,10,2,1.6,0,0.0,-1,0.0,,0.0,0
9966,1469926425732,,,,,,,-0.06,-0.81,0.88,13.5,-1.4,0.1,3500,3527,,,,,,,,,,,,,,,,,
9986,1469926425752,,,,,,,-0.07,-0.84,0.9,13.7,-0.8,-0.2,3420,3560,,,,,,,,,,,,,,,,,
10006,1469926425772,,,,,,,-0.05,-0.86,0.92,13.8,-1.6,-0.6,3540,3527,,,,,,,,,,,,,,,,,
10026,1469926425795,,,,,,,-0.05,-0.88,0.93,14.2,-1.6,-0.9,3520,3527,,,,,,,,,,,,,,,,,
10046,1469926425815,0,270.2,212.6,24,217.5,13.83,-0.06,-0.84,0.88,14.5,-1.6,-1.1,3560,3576,1.01,4,39.538998,-122.329361,60.8,0.083,292.1,10,2,1.6,0,0.0,-1,0.0,0.0,0.0,0
10066,1469926425835,,,,,,,-0.06,-0.85,0.95,14.8,-1.7,-1.2,3560,3560,,,,,,,,,,,,,,,,,
10086,1469926425855,,,,,,,-0.03,-0.84,0.9,14.6,-1.5,-1.3,3580,3527,,,,,,,,,,,,,,,,,
10106,1469926425875,,,,,,,-0.05,-0.85,0.96,14.5,-0.4,-1.2,3480,3560,,,,,,,,,,,,,,,,,
10126,1469926425895,,,,,,,-0.07,-0.83,0.9,14.4,-0.7,-1.1,3520,3544,,,,,,,,,,,,,,,,,
10146,1469926425909,,,,25,,,-0.06,-0.85,0.97,14.2,-0.5,-1.0,3500,3560,0.976,4,39.539021,-122.32933,61.15,0.085,292.0,10,2,1.6,0,0.0,-1,0.0,,0.0,0
10166,1469926425929,,,,,,,-0.06,-0.82,0.94,13.8,-0.2,-0.6,3520,3527,,,,,,,,,,,,,,,,,
10186,1469926425949,,,,,,,-0.06,-0.79,1.01,13.4,-0.6,-0.3,3580,3544,,,,,,,,,,,,,,,,,
10206,1469926425969,,,,,,,-0.06,-0.79,1.05,13.2,-0.2,-0.1,3500,3610,,,,,,,,,,,,,,,,,
10226,1469926425995,,,,,,,-0.06,-0.75,1.04,12.8,0.4,-0.0,3500,3512,,,,,,,,,,,,,,,,,
10246,1469926426015,0,270.0,212.9,26,217.8,,-0.08,-0.71,1.03,12.7,0.6,-0.0,3480,3544,0.984,4,39.53904,-122.329323,61.18,0.086,291.9,10,2,1.6,0,0.0,-1,0.0,0.0,0.0,0
10266,1469926426035,,,,,,,-0.07,-0.71,0.97,12.4,0.1,0.3,3600,3593,,,,,,,,,,,,,,,,,
10286,1469926426055,,,,,,,-0.05,-0.69,1.03,12.2,-0.1,0.3,3520,3576,,,,,,,,,,,,,,,,,
10306,1469926426075,,,,,,,-0.05,-0.67,0.96,11.6,0.3,0.7,3560,3560,,,,,,,,,,,,,,,,,
10326,1469926426094,,,,,,,-0.04,-0.67,1.0,11.2,0.1,0.6,3580,3576,,,,,,,,,,,,,,,,,
10346,1469926426114,,,,29,,,-0.05,-0.65,0.94,11.3,-0.7,0.5,3540,3544,0.989,4,39.539059,-122.329292,61.29,0.088,291.8,10,2,1.6,0,0.0,-1,0.0,,0.0,0
10366,1469926426134,,,,,,,-0.07,-0.6,0.97,11.1,-0.4,0.3,3580,3576,,,,,,,,,,,,,,,,,
10386,1469926426154,,,,,,,-0.07,-0.61,0.93,11.0,-0.8,0.5,3560,3593,,,,,,,,,,,,,,,,,
10406,1469926426174,,,,,,,-0.05,-0.65,0.92,10.7,-0.9,0.7,3620,3560,,,,,,,,,,,,,,,,,
10426,1469926426294,,,,,,,-0.04,-0.67,0.97,10.6,-0.2,0.7,3500,3593,,,,,,,,,,,,,,,,,
10446,1469926426314,0,269.9,212.8,28,217.5,,-0.04,-0.63,0.91,10.2,-0.1,0.6,3540,3544,1.001,4,39.539093,-122.329254,61.78,0.092,291.8,10,2,1.6,0,0.0,-1,0.0,0.0,0.0,0
10466,1469926426334,,,,,,,-0.06,-0.59,0.96,10.0,-0.9,0.4,3560,3593,,,,,,,,,,,,,,,,,
10486,1469926426354,,,,,,,-0.09,-0.61,0.91,9.8,-1.2,0.5,3600,3593,,,,,,,,,,,,,,,,,
10506,1469926426374,,,,,,,-0.08,-0.6,0.97,9.7,-0.9,0.6,3600,3593,,,,,,,,,,,,,,,,,
10526,1469926426394,,,,,,,-0.11,-0.63,0.93,9.7,-0.9,0.6,3560,3560,,,,,,,,,,,,,,,,,
10546,1469926426414,,,,26,,,-0.11,-0.65,0.96,9.7,-0.8,0.7,3580,3544,0.983,4,39.539093,-122.329254,61.78,0.092,291.8,10,2,1.6,0,0.0,-1,0.0,,0.0,0
10566,1469926426434,,,,,,,-0.11,-0.65,0.94,9.7,-1.0,0.8,3620,3593,,,,,,,,,,,,,,,,,
10586,1469926426454,,,,,,,-0.12,-0.62,0.91,9.5,-1.6,0.9,3540,3593,,,,,,,,,,,,,,,,,
10606,1469926426474,,,,,,,-0.14,-0.6,0.96,9.4,-1.5,1.2,3580,3593,,,,,,,,,,,,,,,,,
10626,1469926426393,,,,,,,-0.13,-0.59,0.9,9.2,-1.3,1.3,3480,3593,,,,,,,,,,,,,,,,,
10646,1469926426413,0,269.2,212.2,31,218.1,,-0.16,-0.6,0.93,9.0,-0.9,1.2,3580,3610,0.992,4,39.539116,-122.329231,61.97,0.094,291.7,10,2,1.8,0,0.0,-1,0.0,0.0,0.0,0
10666,1469926426433,,,,,,,-0.19,-0.6,0.91,8.9,-1.0,1.3,3580,3593,,,,,,,,,,,,,,,,,
10686,1469926426453,,,,,,,-0.18,-0.59,0.93,8.6,-1.5,1.3,3560,3627,,,,,,,,,,,,,,,,,
10706,1469926426473,,,,,,,-0.18,-0.55,0.98,8.6,-1.2,1.4,3620,3576,,,,,,,,,,,,,,,,,
10726,1469926426492,,,,,,,-0.17,-0.55,0.92,8.1,-1.1,1.7,3640,3576,,,,,,,,,,,,,,,,,
10746,1469926426512,,,,35,,,-0.16,-0.57,0.96,7.7,-0.2,1.9,3560,3576,1.007,4,39.539135,-122.329216,62.06,0.095,291.6,10,2,1.8,0,0.0,-1,0.0,,0.0,0
10766,1469926426532,,,,,,,-0.19,-0.53,0.92,7.5,-0.4,1.8,3640,3576,,,,,,,,,,,,,,,,,
10786,1469926426552,,,,,,,-0.17,-0.55,0.95,7.2,-0.8,2.0,3620,3610,,,,,,,,,,,,,,,,,
10806,1469926426572,,,,,,,-0.17,-0.53,0.97,7.0,-0.5,2.1,3660,3593,,,,,,,,,,,,,,,,,
10826,1469926426592,,,,,,,-0.12,-0.49,0.93,6.6,-0.4,2.1,3500,3593,,,,,,,,,,,,,,,,,
10846,1469926426612,0,269.4,212.8,41,218.6,,-0.12,-0.48,0.97,6.1,0.5,2.1,3600,3593,0.975,4,39.53915,-122.329193,62.36,0.097,291.4,10,2,1.8,0,0.0,-1,0.0,0.0,0.0,0
10866,1469926426632,,,,,,,-0.15,-0.43,0.93,5.7,0.5,2.0,3600,3593,,,,,,,,,,,,,,,,,
10886,1469926426652,,,,,,,-0.13,-0.36,0.94,5.3,0.1,2.0,3600,3593,,,,,,,,,,,,,,,,,
10906,1469926426672,,,,,,,-0.13,-0.31,1.02,4.7,0.4,2.1,3640,3593,,,,,,,,,,,,,,,,,
10926,1469926426692,,,,,,,-0.11,-0.33,0.95,4.2,1.1,2.2,3580,3610,,,,,,,,,,,,,,,,,
10946,1469926426712,,,,48,,,-0.12,-0.33,0.99,3.7,1.1,2.4,3660,3610,0.991,4,39.539166,-122.329163,62.48,0.099,291.3,10,2,1.8,0,0.0,-1,0.0,,0.0,0
10966,1469926426732,,,,,,,-0.15,-0.28,0.95,3.2,0.8,2.3,3680,3627,,,,,,,,,,,,,,,,,
10986,1469926426752,,,,,,,-0.19,-0.23,0.93,2.5,0.2,2.5,3580,3644,,,,,,,,,,,,,,,,,
11006,1469926426772,,,,,,,-0.2,-0.21,0.98,1.8,1.1,2.5,3660,3627,,,,,,,,,,,,,,,,,
11026,1469926426795,,,,,,,-0.19,-0.18,0.93,1.2,1.2,2.6,3640,3680,,,,,,,,,,,,,,,,,
11046,1469926426815,0,270.0,213.3,49,217.7,13.83,-0.17,-0.17,0.92,0.6,0.5,2.6,3660,3661,1.015,4,39.539185,-122.32914,62.71,0.101,291.1,10,2,1.8,0,0.0,-1,0.0,0.0,0.0,0
11066,1469926426835,,,,,,,-0.21,-0.17,0.95,0.1,-0.1,2.5,3620,3661,,,,,,,,,,,,,,,,,
11086,1469926426855,,,,,,,-0.25,-0.14,0.87,-0.5,-0.6,3.0,3680,3680,,,,,,,,,,,,,,,,,
11106,1469926426875,,,,,,,-0.22,-0.12,0.91,-1.2,-0.4,3.4,3640,3610,,,,,,,,,,,,,,,,,
11126,1469926426895,,,,,,,-0.21,-0.13,0.93,-1.6,0.1,3.4,3600,3644,,,,,,,,,,,,,,,,,
11146,1469926426909,,,,53,,,-0.19,-0.12,0.86,-1.9,-0.5,3.7,3600,3610,0.989,4,39.5392,-122.329117,62.98,0.102,291.0,10,2,1.8,0,0.0,-1,0.0,,0.0,0
11166,1469926426929,,,,,,,-0.18,-0.12,0.95,-2.3,-0.9,3.6,3620,3593,,,,,,,,,,,,,,,,,
11186,1469926426949,,,,,,,-0.18,-0.09,0.9,-2.6,-1.5,3.9,3580,3560,,,,,,,,,,,,,,,,,
11206,1469926426969,,,,,,,-0.13,-0.05,0.93,-3.2,-2.0,4.0,3560,3576,,,,,,,,,,,,,,,,,
11226,1469926427094,,,,,,,-0.12,-0.02,0.95,-3.8,-1.5,4.1,3540,3512,,,,,,,,,,,,,,,,,
11246,1469926427114,0,269.2,212.8,49,218.6,,-0.12,-0.0,0.96,-4.3,-1.4,4.1,3500,3527,1.0,4,39.539234,-122.329063,63.45,0.106,290.9,10,2,1.8,0,0.0,-1,0.0,0.0,0.0,0
11266,1469926427134,,,,,,,-0.08,0.05,0.96,-4.9,-1.0,3.9,3380,3480,,,,,,,,,,,,,,,,,
11286,1469926427154,,,,,,,-0.06,0.09,0.97,-5.5,-1.0,3.9,3380,3527,,,,,,,,,,,,,,,,,
11306,1469926427174,,,,,,,-0.04,0.1,0.96,-5.9,-1.5,4.0,3540,3560,,,,,,,,,,,,,,,,,
11326,1469926427194,,,,,,,-0.02,0.11,1.01,-6.6,-1.3,4.1,3620,3593,,,,,,,,,,,,,,,,,
11346,1469926427214,,,,50,,,0.01,0.12,0.98,-6.9,-1.1,4.4,3600,3661,0.996,4,39.539234,-122.329063,63.45,0.106,290.9,10,2,1.8,0,0.0,-1,0.0,,0.0,0
11366,1469926427234,,,,,,,0.04,0.2,0.95,-7.2,-1.7,4.4,3560,3560,,,,,,,,,,,,,,,,,
11386,1469926427254,,,,,,,0.04,0.17,0.98,-7.6,-1.6,4.3,3580,3593,,,,,,,,,,,,,,,,,
11406,1469926427274,,,,,,,0.02,0.18,0.97,-8.0,-1.7,4.3,3640,3593,,,,,,,,,,,,,,,,,
11426,1469926427194,,,,,,,0.05,0.23,0.97,-8.6,-2.1,4.4,3580,3512,,,,,,,,,,,,,,,,,
11446,1469926427214,0,269.7,212.8,51,218.1,,0.07,0.21,0.94,-8.8,-1.8,4.4,3440,3576,0.986,4,39.539249,-122.329041,63.45,0.108,290.8,10,2,1.8,0,0.0,-1,0.0,0.0,0.0,0
11466,1469926427234,,,,,,,0.09,0.28,0.96,-9.3,-1.8,4.0,3560,3512,,,,,,,,,,,,,,,,,
11486,1469926427254,,,,,,,0.08,0.28,0.94,-10.0,-1.1,3.8,3520,3560,,,,,,,,,,,,,,,,,
11506,1469926427274,,,,,,,0.1,0.34,0.92,-10.4,-1.6,3.8,3600,3560,,,,,,,,,,,,,,,,,
11526,1469926427294,,,,,,,0.1,0.37,0.92,-10.8,-2.3,3.7,3500,3560,,,,,,,,,,,,,,,,,
11546,1469926427314,,,,55,,,0.12,0.35,0.91,-11.2,-2.3,3.5,3540,3512,0.978,4,39.539265,-122.32901,63.21,0.109,290.7,10,2,1.8,0,0.0,-1,0.0,,0.0,0
11566,1469926427334,,,,,,,0.12,0.34,0.91,-11.6,-2.0,3.3,3520,3544,,,,,,,,,,,,,,,,,
11586,1469926427354,,,,,,,0.15,0.36,0.91,-11.9,-2.2,3.3,3460,3495,,,,,,,,,,,,,,,,,
11606,1469926427374,,,,,,,0.14,0.4,0.9,-12.1,-2.3,3.2,3520,3495,,,,,,,,,,,,,,,,,
11626,1469926427392,,,,,,,0.15,0.41,0.87,-12.3,-2.8,3.2,3380,3512,,,,,,,,,,,,,,,,,
11646,1469926427412,0,270.4,213.2,51,217.7,,0.14,0.43,0.92,-12.9,-1.6,3.4,2880,3464,1.014,4,39.539284,-122.328987,63.05,0.111,290.7,10,2,1.8,0,0.0,-1,0.0,0.0,0.0,0
11666,1469926427432,,,,,,,0.18,0.44,0.92,-13.3,-2.3,3.4,3500,3480,,,,,,,,,,,,,,,,,
11686,1469926427452,,,,,,,0.18,0.48,0.94,-13.5,-2.7,3.4,3460,3495,,,,,,,,,,,,,,,,,
11706,1469926427472,,,,,,,0.18,0.45,0.9,-13.8,-2.8,3.4,3500,3480,,,,,,,,,,,,,,,,,
11726,1469926427492,,,,,,,0.17,0.49,0.93,-14.0,-2.7,3.2,3440,3464,,,,,,,,,,,,,,,,,
11746,1469926427512,,,,47,,,0.17,0.5,0.93,-14.3,-3.4,3.1,3480,3464,1.011,4,39.539299,-122.328964,62.72,0.113,290.6,10,2,1.8,0,0.0,-1,0.0,,0.0,0
11766,1469926427532,,,,,,,0.16,0.52,0.93,-14.4,-3.5,2.9,3380,3464,,,,,,,,,,,,,,,,,
11786,1469926427552,,,,,,,0.16,0.55,0.95,-14.7,-3.3,2.8,3440,3433,,,,,,,,,,,,,,,,,
11806,1469926427572,,,,,,,0.19,0.56,0.96,-15.0,-3.7,2.6,3460,3480,,,,,,,,,,,,,,,,,
11826,1469926427591,,,,,,,0.2,0.6,0.93,-15.4,-3.4,2.6,3440,3480,,,,,,,,,,,,,,,,,
11846,1469926427611,0,269.7,212.5,52,218.2,,0.21,0.58,0.93,-15.5,-3.7,2.3,3480,3449,1.005,4,39.539314,-122.328949,62.46,0.114,290.6,10,2,1.8,0,0.0,-1,0.0,0.0,0.0,0
11866,1469926427631,,,,,,,0.19,0.61,0.93,-15.7,-3.6,2.0,3480,3449,,,,,,,,,,,,,,,,,
11886,1469926427651,,,,,,,0.22,0.6,0.92,-15.8,-4.3,2.2,3460,3449,,,,,,,,,,,,,,,,,
11906,1469926427671,,,,,,,0.22,0.61,0.93,-16.1,-3.6,2.0,3420,3418,,,,,,,,,,,,,,,,,
11926,1469926427691,,,,,,,0.23,0.6,0.94,-16.1,-3.4,1.5,3440,3387,,,,,,,,,,,,,,,,,
11946,1469926427711,,,,50,,,0.25,0.64,0.94,-16.4,-3.4,1.2,3400,3433,0.974,4,39.539333,-122.328926,61.85,0.116,290.5,10,2,1.8,0,0.0,-1,0.0,,0.0,0
11966,1469926427731,,,,,,,0.25,0.68,0.98,-16.9,-2.6,1.0,3340,3403,,,,,,,,,,,,,,,,,
11986,1469926427751,,,,,,,0.28,0.66,0.95,-17.2,-2.4,0.9,3400,3403,,,,,,,,,,,,,,,,,
12006,1469926427771,,,,,,,0.27,0.69,0.99,-17.5,-2.3,0.7,3420,3418,,,,,,,,,,,,,,,,,
12026,1469926427894,,,,,,,0.26,0.68,0.99,-17.9,-1.7,0.6,3460,3403,,,,,,,,,,,,,,,,,
12046,1469926427914,0,270.9,213.3,42,218.1,14.01,0.26,0.73,0.99,-18.3,-1.4,0.7,3360,3372,0.999,4,39.539372,-122.328873,60.78,0.12,290.2,10,2,1.8,0,0.0,-1,0.0,0.0,0.0,0
12066,1469926427934,,,,,,,0.28,0.73,1.04,-18.6,-0.9,0.8,3420,3372,,,,,,,,,,,,,,,,,
12086,1469926427954,,,,,,,0.28,0.75,1.03,-18.5,-0.7,0.9,3360,3387,,,,,,,,,,,,,,,,,
12106,1469926427974,,,,,,,0.3,0.77,1.01,-18.9,-0.3,1.2,3340,3387,,,,,,,,,,,,,,,,,
12126,1469926427994,,,,,,,0.3,0.82,1.03,-19.3,-0.3,1.4,3360,3358,,,,,,,,,,,,,,,,,
12146,1469926428014,,,,49,,,0.27,0.78,1.01,-19.2,-0.2,1.4,3340,3372,0.981,4,39.539372,-122.328873,60.78,0.12,290.2,10,2,1.8,0,0.0,-1,0.0,,0.0,0
12166,1469926428034,,,,,,,0.27,0.83,1.04,-19.3,0.4,1.0,3340,3358,,,,,,,,,,,,,,,,,
12186,1469926428054,,,,,,,0.27,0.87,1.02,-19.5,-0.3,0.8,3260,3343,,,,,,,,,,,,,,,,,
12206,1469926428074,,,,,,,0.3,0.81,0.98,-19.3,-1.1,1.1,3400,3343,,,,,,,,,,,,,,,,,
12226,1469926427995,,,,,,,0.3,0.83,1.02,-19.4,-0.4,1.0,3380,3315,,,,,,,,,,,,,,,,,
12246,1469926428015,0,269.4,212.8,53,218.0,,0.32,0.85,1.01,-19.5,-0.3,0.8,3380,3300,0.991,4,39.539387,-122.328857,60.18,0.121,290.1,10,2,1.8,0,0.0,-1,0.0,0.0,0.0,0
12266,1469926428035,,,,,,,0.29,0.82,1.0,-19.3,0.0,0.6,3300,3300,,,,,,,,,,,,,,,,,
12286,1469926428055,,,,,,,0.26,0.85,0.98,-19.4,1.6,0.3,3220,3315,,,,,,,,,,,,,,,,,
12306,1469926428075,,,,,,,0.29,0.88,0.97,-19.6,1.1,0.1,3180,3286,,,,,,,,,,,,,,,,,
12326,1469926428095,,,,,,,0.29,0.83,0.93,-19.5,1.8,0.2,3300,3244,,,,,,,,,,,,,,,,,
12346,1469926428115,,,,40,,,0.29,0.82,0.91,-19.6,1.9,0.1,3280,3315,1.006,4,39.539406,-122.328835,59.74,0.123,290.0,10,2,1.8,0,0.0,-1,0.0,,0.0,0
12366,1469926428135,,,,,,,0.3,0.86,0.98,-19.9,1.4,0.2,3200,3272,,,,,,,,,,,,,,,,,
12386,1469926428155,,,,,,,0.28,0.92,0.97,-20.3,1.7,0.1,3240,3300,,,,,,,,,,,,,,,,,
12406,1469926428175,,,,,,,0.28,0.92,0.95,-20.3,1.3,0.4,3280,3300,,,,,,,,,,,,,,,,,
12426,1469926428194,,,,,,,0.28,0.9,1.02,-20.5,1.7,0.6,3320,3272,,,,,,,,,,,,,,,,,
12446,1469926428214,0,268.8,212.4,64,218.2,,0.26,0.92,1.03,-20.8,2.2,0.5,3320,3272,1.001,4,39.539425,-122.328819,59.06,0.125,289.9,10,2,1.8,0,0.0,-1,0.0,0.0,0.0,0
12466,1469926428234,,,,,,,0.25,0.96,1.0,-20.8,1.6,0.8,3240,3286,,,,,,,,,,,,,,,,,
12486,1469926428254,,,,,,,0.21,0.95,0.97,-20.9,0.9,0.7,3260,3286,,,,,,,,,,,,,,,,,
12506,1469926428274,,,,,,,0.21,0.95,0.95,-21.1,0.5,0.5,3180,3258,,,,,,,,,,,,,,,,,
12526,1469926428294,,,,,,,0.22,0.96,0.94,-21.2,0.7,0.3,3240,3272,,,,,,,,,,,,,,,,,
12546,1469926428314,,,,41,,,0.23,0.99,0.92,-21.2,0.7,0.1,3180,3230,0.998,4,39.539444,-122.328796,58.64,0.126,289.8,10,2,1.8,0,0.0,-1,0.0,,0.0,0
12566,1469926428334,,,,,,,0.2,0.98,0.92,-21.2,1.3,0.1,3220,3272,,,,,,,,,,,,,,,,,
12586,1469926428354,,,,,,,0.19,0.92,0.95,-21.5,0.7,-0.1,3160,3258,,,,,,,,,,,,,,,,,
12606,1469926428374,,,,,,,0.16,0.96,0.93,-21.7,0.1,0.1,3260,3286,,,,,,,,,,,,,,,,,
12626,1469926428393,,,,,,,0.17,0.96,0.88,-21.8,-0.9,0.4,3160,3244,,,,,,,,,,,,,,,,,
12646,1469926428413,0,269.9,213.0,35,218.4,,0.17,0.94,0.91,-22.4,-1.4,0.7,3240,3258,1.0,4,39.539463,-122.328781,58.12,0.128,289.6,10,2,1.8,0,0.0,-1,0.0,0.0,0.0,0
12666,1469926428433,,,,,,,0.16,0.98,0.95,-22.8,-0.9,0.5,3280,3230,,,,,,,,,,,,,,,,,
12686,1469926428453,,,,,,,0.16,0.95,0.93,-22.8,-0.9,0.5,3160,3244,,,,,,,,,,,,,,,,,
12706,1469926428473,,,,,,,0.17,0.95,0.9,-23.0,-1.3,0.5,3300,3244,,,,,,,,,,,,,,,,,
12726,1469926428492,,,,,,,0.17,0.98,0.91,-23.4,-1.2,0.8,3300,3272,,,,,,,,,,,,,,,,,
12746,1469926428512,,,,40,,,0.19,0.94,0.94,-23.7,-1.4,0.7,3220,3258,1.001,4,39.539482,-122.328766,57.79,0.129,289.5,10,2,1.8,0,0.0,-1,0.0,,0.0,0
12766,1469926428532,,,,,,,0.18,0.98,0.95,-23.6,-0.8,0.8,3200,3244,,,,,,,,,,,,,,,,,
12786,1469926428552,,,,,,,0.19,1.01,0.93,-23.5,-0.5,0.8,3300,3190,,,,,,,,,,,,,,,,,
12806,1469926428572,,,,,,,0.17,1.04,0.94,-23.7,-0.9,0.6,3140,3218,,,,,,,,,,,,,,,,,
12826,1469926428691,,,,,,,0.14,1.02,0.94,-23.8,-1.4,0.3,3240,3218,,,,,,,,,,,,,,,,,
12846,1469926428711,0,269.4,212.3,43,217.8,,0.12,1.0,0.93,-23.7,-1.6,-0.2,3140,3204,0.972,4,39.53952,-122.328728,56.91,0.133,289.3,10,2,1.8,0,0.0,-1,0.0,0.0,0.0,0
12866,1469926428731,,,,,,,0.09,0.99,0.89,-23.7,-2.3,-0.2,3280,3244,,,,,,,,,,,,,,,,,
12886,1469926428751,,,,,,,0.11,1.03,0.88,-23.8,-2.3,0.1,3160,3230,,,,,,,,,,,,,,,,,
12906,1469926428771,,,,,,,0.11,1.04,0.91,-24.2,-2.4,0.2,3160,3190,,,,,,,,,,,,,,,,,
12926,1469926428791,,,,,,,0.11,1.04,0.93,-24.5,-1.8,0.2,3260,3218,,,,,,,,,,,,,,,,,
12946,1469926428811,,,,42,,,0.11,1.07,0.93,-24.4,-1.2,0.2,3280,3218,1.009,4,39.53952,-122.328728,56.91,0.133,289.3,10,2,1.8,0,0.0,-1,0.0,,0.0,0
12966,1469926428831,,,,,,,0.12,1.09,0.9,-24.3,-1.4,0.3,3280,3204,,,,,,,,,,,,,,,,,
12986,1469926428851,,,,,,,0.1,1.07,0.93,-24.5,-0.9,0.4,3240,3230,,,,,,,,,,,,,,,,,
13006,1469926428871,,,,,,,0.15,1.04,0.91,-24.7,-1.5,0.4,3260,3258,,,,,,,,,,,,,,,,,
13026,1469926428793,,,,,,,0.18,1.07,0.9,-24.9,-2.0,0.6,3300,3218,,,,,,,,,,,,,,,,,
13046,1469926428813,0,269.4,212.4,51,218.0,13.88,0.19,1.08,0.87,-25.0,-1.2,0.5,3180,3218,1.023,4,39.539543,-122.32872,56.88,0.135,289.3,10,2,1.8,0,0.0,-1,0.0,0.0,0.0,0
13066,1469926428833,,,,,,,0.18,1.09,0.92,-25.3,-1.2,0.6,3200,3218,,,,,,,,,,,,,,,,,
13086,1469926428853,,,,,,,0.19,1.1,0.95,-25.4,-1.4,0.6,3220,3218,,,,,,,,,,,,,,,,,
13106,1469926428873,,,,,,,0.16,1.09,0.98,-25.3,-1.3,0.5,3140,3204,,,,,,,,,,,,,,,,,
13126,1469926428893,,,,,,,0.18,1.11,0.97,-25.2,-1.5,0.2,3240,3190,,,,,,,,,,,,,,,,,
13146,1469926428909,,,,56,,,0.17,1.13,0.94,-25.1,-1.5,-0.0,3140,3190,0.991,4,39.539562,-122.328705,56.57,0.136,289.1,10,2,1.8,0,0.0,-1,0.0,,0.0,0
13166,1469926428929,,,,,,,0.15,1.11,0.92,-25.1,-1.7,-0.1,3240,3190,,,,,,,,,,,,,,,,,
13186,1469926428949,,,,,,,0.13,1.04,0.92,-25.2,-1.1,-0.2,3220,3178,,,,,,,,,,,,,,,,,
13206,1469926428969,,,,,,,0.15,1.03,0.91,-25.1,-1.1,-0.5,3160,3204,,,,,,,,,,,,,,,,,
13226,1469926428989,,,,,,,0.13,1.03,0.92,-24.8,-1.1,-0.4,3080,3190,,,,,,,,,,,,,,,,,
13246,1469926429006,0,268.7,212.0,35,217.9,,0.13,1.02,0.95,-24.6,-1.4,-0.2,3240,3178,0.982,4,39.539585,-122.328705,56.25,0.138,289.0,10,2,1.8,0,0.0,-1,0.0,0.0,0.0,0
13266,1469926429026,,,,,,,0.09,1.05,0.96,-24.7,-1.7,-0.0,3160,3218,,,,,,,,,,,,,,,,,
13286,1469926429046,,,,,,,0.09,1.04,0.92,-24.6,-1.8,-0.0,3220,3204,,,,,,,,,,,,,,,,,
13306,1469926429066,,,,,,,0.1,1.08,0.92,-24.8,-1.6,0.1,3180,3164,,,,,,,,,,,,,,,,,
13326,1469926429094,,,,,,,0.12,1.11,0.95,-25.1,-2.3,0.3,3180,3204,,,,,,,,,,,,,,,,,
13346,1469926429114,,,,45,,,0.11,1.11,0.97,-25.1,-2.7,0.5,3140,3204,1.018,4,39.539604,-122.32869,56.37,0.139,288.9,10,2,1.8,0,0.0,-1,0.0,,0.0,0
13366,1469926429134,,,,,,,0.12,1.11,0.96,-25.2,-2.8,0.3,3220,3218,,,,,,,,,,,,,,,,,
13386,1469926429154,,,,,,,0.1,1.17,0.98,-25.4,-2.5,0.4,3140,3218,,,,,,,,,,,,,,,,,
13406,1469926429174,,,,,,,0.13,1.16,0.99,-25.8,-2.2,0.4,3200,3230,,,,,,,,,,,,,,,,,
13426,1469926429194,,,,,,,0.12,1.16,0.99,-26.2,-0.3,0.8,3280,3218,,,,,,,,,,,,,,,,,
13446,1469926429214,0,269.2,212.4,56,218.2,,0.14,1.23,0.97,-26.4,0.7,0.9,3140,3230,0.972,4,39.539627,-122.328682,56.12,0.141,288.8,10,2,1.8,0,0.0,-1,0.0,0.0,0.0,0
13466,1469926429234,,,,,,,0.13,1.23,0.95,-26.5,0.4,1.1,3140,3190,,,,,,,,,,,,,,,,,
13486,1469926429254,,,,,,,0.12,1.27,0.96,-26.7,0.9,1.3,3120,3204,,,,,,,,,,,,,,,,,
13506,1469926429274,,,,,,,0.1,1.29,1.05,-26.6,-0.0,1.3,3240,3218,,,,,,,,,,,,,,,,,
13526,1469926429294,,,,,,,0.09,1.26,1.07,-26.5,-0.9,1.4,3120,3218,,,,,,,,,,,,,,,,,
13546,1469926429314,,,,34,,,0.07,1.25,1.03,-26.4,-1.1,1.2,3280,3218,0.993,4,39.53965,-122.328667,55.99,0.143,288.7,10,2,1.8,0,0.0,-1,0.0,,0.0,0
13566,1469926429334,,,,,,,0.1,1.18,1.0,-26.1,-1.4,0.7,3240,3230,,,,,,,,,,,,,,,,,
13586,1469926429354,,,,,,,0.08,1.16,0.99,-25.7,-1.5,0.5,3260,3204,,,,,,,,,,,,,,,,,
13606,1469926429374,,,,,,,0.09,1.14,1.02,-25.6,-1.4,0.4,3160,3244,,,,,,,,,,,,,,,,,
13626,1469926429492,,,,,,,0.06,1.11,1.01,-25.3,-1.1,0.2,3240,3218,,,,,,,,,,,,,,,,,
13646,1469926429512,0,270.0,212.7,46,218.8,,0.06,1.08,0.99,-24.7,-1.4,0.1,3180,3204,1.028,4,39.539692,-122.328667,55.72,0.146,288.7,10,2,1.8,0,0.0,-1,0.0,0.0,0.0,0
13666,1469926429532,,,,,,,0.05,1.12,0.96,-24.5,-1.4,-0.0,3200,3230,,,,,,,,,,,,,,,,,
13686,1469926429552,,,,,,,0.04,1.14,0.97,-24.4,-0.5,-0.2,3200,3204,,,,,,,,,,,,,,,,,
13706,1469926429572,,,,,,,0.04,1.09,0.98,-24.4,0.5,-0.3,3240,3230,,,,,,,,,,,,,,,,,
13726,1469926429592,,,,,,,0.05,1.08,0.96,-24.2,0.3,-0.4,3240,3204,,,,,,,,,,,,,,,,,
13746,1469926429612,,,,42,,,-0.0,1.1,0.96,-24.0,0.4,-0.4,3220,3258,1.013,4,39.539692,-122.328667,55.72,0.146,288.7,10,2,1.8,0,0.0,-1,0.0,,0.0,0
13766,1469926429632,,,,,,,-0.03,1.09,0.96,-23.7,0.3,-0.4,3200,3230,,,,,,,,,,,,,,,,,
13786,1469926429652,,,,,,,-0.05,1.11,0.96,-23.8,-0.9,-0.3,3200,3218,,,,,,,,,,,,,,,,,
13806,1469926429672,,,,,,,-0.02,1.09,0.99,-23.6,-0.9,-0.7,3240,3244,,,,,,,,,,,,,,,,,
13826,1469926429591,,,,,,,-0.03,1.08,1.01,-23.4,-0.9,-0.8,3140,3218,,,,,,,,,,,,,,,,,
13846,1469926429611,0,268.8,212.4,57,218.4,,-0.03,1.08,1.0,-23.1,-0.0,-1.0,3220,3244,1.001,4,39.539711,-122.328651,55.83,0.147,288.7,10,2,1.8,0,0.0,-1,0.0,0.0,0.0,0
13866,1469926429631,,,,,,,-0.03,1.1,1.01,-23.4,1.6,-1.1,3200,3258,,,,,,,,,,,,,,,,,
13886,1469926429651,,,,,,,-0.03,1.07,1.05,-23.4,1.6,-1.1,3200,3272,,,,,,,,,,,,,,,,,
13906,1469926429671,,,,,,,-0.04,1.06,1.02,-23.2,0.9,-0.9,3220,3230,,,,,,,,,,,,,,,,,
13926,1469926429691,,,,,,,-0.03,1.11,0.99,-23.1,0.2,-1.1,3300,3258,,,,,,,,,,,,,,,,,
13946,1469926429711,,,,62,,,-0.05,1.2,1.0,-23.3,1.3,-1.3,3200,3218,1.009,4,39.539734,-122.328651,55.87,0.149,288.6,10,2,1.6,0,0.0,-1,0.0,,0.0,0
13966,1469926429731,,,,,,,-0.05,1.14,1.06,-23.4,2.4,-1.7,3220,3258,,,,,,,,,,,,,,,,,
13986,1469926429751,,,,,,,-0.04,1.09,1.04,-23.2,2.2,-1.7,3300,3244,,,,,,,,,,,,,,,,,
14006,1469926429771,,,,,,,-0.07,1.1,1.05,-23.2,2.4,-1.5,3220,3272,,,,,,,,,,,,,,,,,
14026,1469926429794,,,,,,,-0.11,1.15,1.06,-23.1,1.4,-1.6,3240,3258,,,,,,,,,,,,,,,,,
14046,1469926429814,0,268.7,212.0,34,217.8,13.9,-0.09,1.15,1.05,-23.0,0.8,-1.9,3240,3258,0.986,4,39.539757,-122.328651,55.97,0.15,288.6,10,2,1.6,0,0.0,-1,0.0,0.0,0.0,0
14066,1469926429834,,,,,,,-0.07,1.16,1.02,-22.7,0.5,-1.8,3260,3244,,,,,,,,,,,,,,,,,
14086,1469926429854,,,,,,,-0.07,1.15,0.96,-22.4,0.9,-1.9,3220,3258,,,,,,,,,,,,,,,,,
14106,1469926429874,,,,,,,-0.06,1.14,1.01,-22.3,0.9,-1.9,3320,3258,,,,,,,,,,,,,,,,,
14126,1469926429894,,,,,,,-0.09,1.15,1.02,-22.6,0.7,-2.1,3120,3315,,,,,,,,,,,,,,,,,
14146,1469926429908,,,,36,,,-0.1,1.12,1.0,-22.3,-0.3,-1.8,3300,3258,1.001,4,39.53978,-122.328651,56.06,0.152,288.6,10,2,1.6,0,0.0,-1,0.0,,0.0,0
14166,1469926429928,,,,,,,-0.11,1.11,0.99,-21.9,-1.1,-1.5,3180,3272,,,,,,,,,,,,,,,,,
14186,1469926429948,,,,,,,-0.09,1.11,1.06,-21.8,0.2,-1.8,3140,3286,,,,,,,,,,,,,,,,,
14206,1469926429968,,,,,,,-0.07,1.11,1.08,-21.8,0.4,-2.6,3380,3258,,,,,,,,,,,,,,,,,
14226,1469926429994,,,,,,,-0.11,1.07,1.02,-21.7,0.4,-2.4,3260,3286,,,,,,,,,,,,,,,,,
14246,1469926430014,1,269.7,212.7,42,218.4,,-0.12,1.04,1.02,-21.7,1.0,-2.0,3260,3286,1.002,4,39.539803,-122.328651,56.16,0.153,288.6,10,2,1.6,0,0.0,-1,0.0,0.0,0.0,0
14266,1469926430034,,,,,,,-0.09,1.02,0.98,-21.8,0.8,-2.1,3260,3272,,,,,,,,,,,,,,,,,
14286,1469926430054,,,,,,,-0.08,1.03,0.95,-21.9,0.7,-2.1,3280,3272,,,,,,,,,,,,,,,,,
14306,1469926430074,,,,,,,-0.07,0.98,0.92,-21.6,0.5,-1.7,3180,3258,,,,,,,,,,,,,,,,,
14326,1469926430094,,,,,,,-0.08,0.94,0.99,-21.6,1.3,-1.3,3320,3286,,,,,,,,,,,,,,,,,
14346,1469926430114,,,,38,,,-0.09,0.92,1.04,-21.9,1.9,-1.2,3280,3329,1.025,4,39.539825,-122.328651,56.39,0.155,288.7,10,2,1.6,0,0.0,-1,0.0,,0.0,0
14366,1469926430134,,,,,,,-0.09,0.92,1.03,-21.8,0.4,-0.8,3240,3272,,,,,,,,,,,,,,,,,
14386,1469926430154,,,,,,,-0.12,1.0,1.01,-21.7,0.7,-0.7,3280,3286,,,,,,,,,,,,,,,,,
14406,1469926430174,,,,,,,-0.09,0.96,1.1,-21.7,1.3,-0.7,3300,3300,,,,,,,,,,,,,,,,,
14426,1469926430294,,,,,,,-0.07,0.89,1.07,-21.6,1.3,-0.9,3300,3272,,,,,,,,,,,,,,,,,
14446,1469926430314,0,269.4,212.4,57,218.3,,-0.09,0.88,1.03,-21.8,1.5,-0.7,3220,3300,0.978,4,39.539867,-122.328651,56.96,0.158,289.1,10,2,1.6,0,0.0,-1,0.0,0.0,0.0,0
14466,1469926430334,,,,,,,-0.13,0.89,1.05,-22.2,1.3,-0.6,3300,3300,,,,,,,,,,,,,,,,,
14486,1469926430354,,,,,,,-0.11,0.89,1.05,-22.1,1.0,-0.6,3300,3315,,,,,,,,,,,,,,,,,
14506,1469926430374,,,,,,,-0.11,0.88,0.97,-21.9,1.4,-0.2,3300,3315,,,,,,,,,,,,,,,,,
14526,1469926430394,,,,,,,-0.1,0.94,0.94,-22.0,1.9,-0.1,3220,3315,,,,,,,,,,,,,,,,,
14546,1469926430414,,,,43,,,-0.09,0.9,0.98,-22.0,1.7,-0.5,3320,3358,1.012,4,39.539867,-122.328651,56.96,0.158,289.1,10,2,1.6,0,0.0,-1,0.0,,0.0,0
14566,1469926430434,,,,,,,-0.1,0.89,0.95,-21.6,0.7,-0.5,3220,3358,,,,,,,,,,,,,,,,,
14586,1469926430454,,,,,,,-0.12,0.94,0.91,-21.7,1.0,-0.6,3220,3329,,,,,,,,,,,,,,,,,
14606,1469926430474,,,,,,,-0.09,0.92,1.01,-21.8,1.4,-0.5,3300,3315,,,,,,,,,,,,,,,,,
14626,1469926430494,,,,,,,-0.11,0.9,0.94,-21.7,1.6,-0.3,3240,3315,,,,,,,,,,,,,,,,,
14646,1469926430409,1,272.2,212.9,57,218.9,,-0.14,0.95,0.94,-21.6,1.3,-0.3,3320,3343,0.995,4,39.53989,-122.328667,57.02,0.16,289.2,10,2,1.6,0,0.0,-1,0.0,0.0,0.0,0
14666,1469926430429,,,,,,,-0.13,0.94,0.92,-21.6,1.0,-0.3,3380,3343,,,,,,,,,,,,,,,,,
14686,1469926430449,,,,,,,-0.12,0.92,0.88,-21.5,1.1,-0.3,3360,3343,,,,,,,,,,,,,,,,,
14706,1469926430469,,,,,,,-0.08,0.92,0.88,-21.5,2.5,-0.3,3260,3358,,,,,,,,,,,,,,,,,
14726,1469926430491,,,,,,,-0.08,0.95,0.91,-21.6,3.0,-0.9,3260,3358,,,,,,,,,,,,,,,,,
14746,1469926430511,,,,42,,,-0.08,0.92,0.89,-21.6,2.3,-0.9,3420,3343,1.003,4,39.539913,-122.328667,57.26,0.161,289.3,10,2,1.6,0,0.0,-1,0.0,,0.0,0
14766,1469926430531,,,,,,,-0.09,0.97,0.86,-21.5,1.9,-1.2,3260,3329,,,,,,,,,,,,,,,,,
14786,1469926430551,,,,,,,-0.09,0.99,0.94,-21.6,2.5,-1.2,3380,3315,,,,,,,,,,,,,,,,,
14806,1469926430571,,,,,,,-0.1,0.95,0.88,-21.4,2.0,-0.9,3280,3358,,,,,,,,,,,,,,,,,
14826,1469926430591,,,,,,,-0.13,0.96,0.9,-21.4,2.3,-0.7,3360,3372,,,,,,,,,,,,,,,,,
14846,1469926430611,0,269.0,211.9,38,217.9,,-0.13,0.97,0.9,-21.5,1.9,-0.8,3260,3358,0.979,4,39.539936,-122.328667,57.74,0.163,289.3,10,2,1.6,0,0.0,-1,0.0,0.0,0.0,0
14866,1469926430631,,,,,,,-0.13,0.97,0.83,-21.3,2.3,-0.7,3400,3358,,,,,,,,,,,,,,,,,
14886,1469926430651,,,,,,,-0.11,0.95,0.81,-21.4,2.7,-0.5,3380,3372,,,,,,,,,,,,,,,,,
14906,1469926430671,,,,,,,-0.12,0.93,0.84,-21.7,2.2,-0.3,3340,3387,,,,,,,,,,,,,,,,,
14926,1469926430691,,,,,,,-0.11,0.97,0.81,-21.6,1.3,-0.1,3360,3387,,,,,,,,,,,,,,,,,
14946,1469926430711,,,,43,,,-0.13,0.99,0.89,-21.5,1.9,-0.3,3340,3358,0.979,4,39.539959,-122.328682,58.01,0.165,289.5,10,2,1.6,0,0.0,-1,0.0,,0.0,0
14966,1469926430731,,,,,,,-0.1,0.97,0.88,-21.5,0.9,-0.3,3440,3372,,,,,,,,,,,,,,,,,
14986,1469926430751,,,,,,,-0.12,1.01,0.88,-21.7,0.3,0.3,3300,3418,,,,,,,,,,,,,,,,,
15006,1469926430771,,,,,,,-0.09,1.06,0.95,-22.0,0.1,0.7,3380,3403,,,,,,,,,,,,,,,,,
15026,1469926430794,,,,,,,-0.08,0.99,0.98,-21.9,0.1,0.8,3340,3387,,,,,,,,,,,,,,,,,
15046,1469926430814,1,270.0,212.7,36,218.6,13.9,-0.08,0.98,1.03,-21.7,0.6,1.2,3400,3372,1.007,4,39.539982,-122.32869,58.32,0.166,289.7,10,2,1.6,0,0.0,-1,0.0,0.0,0.0,0
15066,1469926430834,,,,,,,-0.07,0.95,1.04,-21.7,0.3,1.5,3380,3403,,,,,,,,,,,,,,,,,
15086,1469926430854,,,,,,,-0.06,0.92,1.01,-21.8,-1.1,1.9,3360,3387,,,,,,,,,,,,,,,,,
15106,1469926430874,,,,,,,-0.07,0.97,1.03,-21.9,-0.6,1.8,3460,3358,,,,,,,,,,,,,,,,,
15126,1469926430894,,,,,,,-0.08,0.95,1.08,-21.9,-0.5,2.0,3340,3403,,,,,,,,,,,,,,,,,
15146,1469926430908,,,,54,,,-0.12,0.93,1.05,-21.9,-0.6,2.2,3460,3403,1.024,4,39.540005,-122.32869,58.43,0.168,289.8,10,2,1.6,0,0.0,-1,0.0,,0.0,0
15166,1469926430928,,,,,,,-0.11,0.96,1.02,-21.9,-1.2,2.3,3360,3372,,,,,,,,,,,,,,,,,
15186,1469926430948,,,,,,,-0.11,0.89,0.99,-21.7,-0.9,2.1,3380,3403,,,,,,,,,,,,,,,,,
15206,1469926430968,,,,,,,-0.11,0.9,0.95,-21.7,0.0,2.1,3400,3418,,,,,,,,,,,,,,,,,
15226,1469926431094,,,,,,,-0.09,0.87,0.96,-21.6,0.1,1.8,3400,3403,,,,,,,,,,,,,,,,,
15246,1469926431114,0,269.4,211.9,54,218.1,,-0.1,0.89,0.91,-21.4,-0.0,1.6,3320,3418,1.002,4,39.540047,-122.32872,58.76,0.171,290.2,10,2,1.6,0,0.0,-1,0.0,0.0,0.0,0
15266,1469926431134,,,,,,,-0.12,0.95,0.99,-21.3,1.0,1.0,3380,3387,,,,,,,,,,,,,,,,,
15286,1469926431154,,,,,,,-0.1,0.89,0.92,-20.9,0.0,0.9,3360,3418,,,,,,,,,,,,,,,,,
15306,1469926431174,,,,,,,-0.09,0.95,0.98,-20.8,-0.3,0.7,3360,3403,,,,,,,,,,,,,,,,,
15326,1469926431194,,,,,,,-0.09,0.95,0.94,-20.7,-0.0,0.4,3480,3433,,,,,,,,,,,,,,,,,
15346,1469926431214,,,,41,,,-0.07,0.91,0.92,-20.4,-0.1,0.4,3360,3433,1.016,4,39.540047,-122.32872,58.76,0.171,290.2,10,2,1.6,0,0.0,-1,0.0,,0.0,0
15366,1469926431234,,,,,,,-0.08,0.89,0.93,-20.2,-0.1,-0.1,3340,3433,,,,,,,,,,,,,,,,,
15386,1469926431254,,,,,,,-0.08,0.91,0.88,-19.7,-0.3,-0.2,3460,3418,,,,,,,,,,,,,,,,,
15406,1469926431274,,,,,,,-0.09,0.94,0.94,-19.4,0.2,-0.4,3360,3387,,,,,,,,,,,,,,,,,
15426,1469926431194,,,,,,,-0.07,0.93,0.89,-19.5,-0.1,-0.5,3400,3418,,,,,,,,,,,,,,,,,
15446,1469926431214,0,270.0,212.8,56,218.9,,-0.08,0.95,0.93,-19.3,-0.4,-0.3,3500,3449,0.976,4,39.540066,-122.328728,59.32,0.173,290.5,10,2,1.6,0,0.0,-1,0.0,0.0,0.0,0
15466,1469926431234,,,,,,,-0.08,0.94,0.94,-19.2,-0.3,-0.0,3480,3418,,,,,,,,,,,,,,,,,
15486,1469926431254,,,,,,,-0.08,0.9,0.92,-18.7,0.1,0.1,3480,3403,,,,,,,,,,,,,,,,,
15506,1469926431274,,,,,,,-0.09,0.85,0.95,-18.3,0.1,0.1,3360,3464,,,,,,,,,,,,,,,,,
15526,1469926431294,,,,,,,-0.09,0.83,0.92,-17.9,-0.0,0.1,3460,3403,,,,,,,,,,,,,,,,,
15546,1469926431314,,,,45,,,-0.1,0.87,0.94,-17.4,0.0,-0.4,3360,3403,0.979,4,39.540089,-122.328743,59.1,0.174,290.8,10,2,1.6,0,0.0,-1,0.0,,0.0,0
15566,1469926431334,,,,,,,-0.09,0.84,0.89,-17.0,-0.0,-0.5,3400,3449,,,,,,,,,,,,,,,,,
15586,1469926431354,,,,,,,-0.12,0.84,0.93,-16.7,-0.3,-0.3,3460,3418,,,,,,,,,,,,,,,,,
15606,1469926431374,,,,,,,-0.12,0.86,0.96,-16.5,-0.3,-0.3,3440,3433,,,,,,,,,,,,,,,,,
15626,1469926431392,,,,,,,-0.11,0.79,0.92,-16.2,0.2,-0.5,3360,3449,,,,,,,,,,,,,,,,,
15646,1469926431412,0,268.5,211.7,60,218.5,,-0.1,0.77,0.97,-15.8,0.2,-0.8,3440,3464,1.001,4,39.540112,-122.328758,59.27,0.176,291.0,10,2,1.6,0,0.0,-1,0.0,0.0,0.0,0
15666,1469926431432,,,,,,,-0.11,0.74,0.95,-15.4,0.1,-1.1,3460,3418,,,,,,,,,,,,,,,,,
15686,1469926431452,,,,,,,-0.12,0.76,1.01,-14.8,1.9,-1.9,3380,3449,,,,,,,,,,,,,,,,,
15706,1469926431472,,,,,,,-0.09,0.72,0.97,-14.5,1.5,-2.4,3360,3449,,,,,,,,,,,,,,,,,
15726,1469926431491,,,,,,,-0.1,0.74,1.03,-14.2,1.0,-2.7,3380,3433,,,,,,,,,,,,,,,,,
15746,1469926431511,,,,71,,,-0.09,0.7,1.07,-13.7,1.4,-3.0,3480,3464,0.986,4,39.540134,-122.328766,59.46,0.178,291.3,10,2,1.6,0,0.0,-1,0.0,,0.0,0
15766,1469926431531,,,,,,,-0.08,0.64,1.05,-13.1,1.7,-3.2,3480,3449,,,,,,,,,,,,,,,,,
15786,1469926431551,,,,,,,-0.07,0.62,1.09,-12.6,1.4,-3.7,3440,3449,,,,,,,,,,,,,,,,,
15806,1469926431571,,,,,,,-0.07,0.55,1.01,-11.9,0.5,-4.1,3440,3449,,,,,,,,,,,,,,,,,
15826,1469926431591,,,,,,,-0.1,0.57,1.06,-11.1,0.7,-4.4,3440,3433,,,,,,,,,,,,,,,,,
15846,1469926431611,0,269.4,212.2,41,218.6,,-0.09,0.5,1.0,-10.7,0.4,-4.4,3380,3464,1.014,4,39.540154,-122.328781,59.57,0.179,291.5,10,2,1.6,0,0.0,-1,0.0,0.0,0.0,0
15866,1469926431631,,,,,,,-0.09,0.5,1.04,-10.2,0.1,-4.4,3500,3464,,,,,,,,,,,,,,,,,
15886,1469926431651,,,,,,,-0.11,0.45,1.02,-9.8,-0.2,-4.4,3460,3464,,,,,,,,,,,,,,,,,
15906,1469926431671,,,,,,,-0.08,0.46,1.0,-9.2,0.6,-4.5,3480,3464,,,,,,,,,,,,,,,,,
15926,1469926431691,,,,,,,-0.07,0.41,1.0,-8.7,0.4,-4.4,3480,3480,,,,,,,,,,,,,,,,,
15946,1469926431711,,,,34,,,-0.09,0.41,0.95,-8.0,0.4,-4.5,3500,3464,0.99,4,39.540176,-122.328796,59.85,0.181,291.8,10,2,1.6,0,0.0,-1,0.0,,0.0,0
15966,1469926431731,,,,,,,-0.1,0.38,0.98,-7.5,0.8,-4.6,3420,3495,,,,,,,,,,,,,,,,,
15986,1469926431751,,,,,,,-0.1,0.33,0.98,-7.1,0.5,-4.5,3520,3480,,,,,,,,,,,,,,,,,
16006,1469926431771,,,,,,,-0.08,0.33,1.01,-6.6,0.1,-4.5,3500,3495,,,,,,,,,,,,,,,,,
16026,1469926431893,,,,,,,-0.09,0.28,0.97,-6.0,0.8,-4.1,3460,3464,,,,,,,,,,,,,,,,,
16046,1469926431913,0,268.7,211.7,46,218.1,14.06,-0.1,0.24,1.06,-5.6,1.7,-4.1,3520,3512,1.005,4,39.540218,-122.328835,60.19,0.185,292.4,10,2,1.6,0,0.0,-1,0.0,0.0,0.0,0
16066,1469926431933,,,,,,,-0.11,0.22,0.98,-5.0,1.4,-4.1,3500,3480,,,,,,,,,,,,,,,,,
16086,1469926431953,,,,,,,-0.12,0.21,1.07,-4.6,2.4,-4.2,3500,3480,,,,,,,,,,,,,,,,,
16106,1469926431973,,,,,,,-0.16,0.18,1.04,-4.5,2.4,-4.1,3420,3512,,,,,,,,,,,,,,,,,
16126,1469926431993,,,,,,,-0.15,0.24,1.12,-4.2,2.7,-4.0,3440,3449,,,,,,,,,,,,,,,,,
16146,1469926432013,,,,39,,,-0.11,0.19,1.1,-3.9,2.9,-3.8,3460,3480,0.974,4,39.540218,-122.328835,60.19,0.185,292.4,10,2,1.6,0,0.0,-1,0.0,,0.0,0
16166,1469926432033,,,,,,,-0.11,0.18,1.15,-3.6,3.9,-3.6,3440,3512,,,,,,,,,,,,,,,,,
16186,1469926432053,,,,,,,-0.12,0.15,1.08,-3.2,3.3,-3.4,3540,3512,,,,,,,,,,,,,,,,,
16206,1469926432073,,,,,,,-0.12,0.15,1.16,-2.7,4.3,-3.4,3420,3464,,,,,,,,,,,,,,,,,
16226,1469926431994,,,,,,,-0.12,0.08,1.11,-2.5,3.9,-3.2,3420,3512,,,,,,,,,,,,,,,,,
16246,1469926432014,0,269.4,212.3,74,218.6,,-0.09,0.09,1.14,-2.2,3.1,-2.8,3540,3495,0.989,4,39.540237,-122.32885,60.54,0.186,292.7,10,2,1.6,0,0.0,-1,0.0,0.0,0.0,0
16266,1469926432034,,,,,,,-0.09,0.02,1.06,-1.9,3.1,-2.5,3520,3495,,,,,,,,,,,,,,,,,
16286,1469926432054,,,,,,,-0.1,0.0,1.13,-1.5,3.3,-2.4,3480,3527,,,,,,,,,,,,,,,,,
16306,1469926432074,,,,,,,-0.09,0.01,1.08,-1.3,2.3,-2.6,3460,3495,,,,,,,,,,,,,,,,,
16326,1469926432094,,,,,,,-0.1,0.01,1.16,-1.0,2.9,-3.1,3580,3480,,,,,,,,,,,,,,,,,
16346,1469926432114,,,,40,,,-0.13,-0.04,1.08,-0.9,2.8,-2.9,3520,3512,0.996,4,39.54026,-122.328857,60.52,0.188,293.1,10,2,1.6,0,0.0,-1,0.0,,0.0,0
16366,1469926432134,,,,,,,-0.11,-0.02,1.12,-0.5,2.3,-3.0,3480,3512,,,,,,,,,,,,,,,,,
16386,1469926432154,,,,,,,-0.09,-0.01,1.12,-0.0,2.6,-3.2,3460,3495,,,,,,,,,,,,,,,,,
16406,1469926432174,,,,,,,-0.1,-0.04,1.16,0.4,3.5,-3.4,3520,3527,,,,,,,,,,,,,,,,,
16426,1469926432194,,,,,,,-0.1,-0.04,1.14,0.6,2.4,-3.6,3420,3512,,,,,,,,,,,,,,,,,
16446,1469926432214,0,268.3,212.1,38,218.6,,-0.13,-0.02,1.18,0.6,2.9,-3.9,3540,3495,1.004,4,39.540279,-122.328888,60.86,0.19,293.6,10,2,1.6,0,0.0,-1,0.0,0.0,0.0,0
16466,1469926432234,,,,,,,-0.14,-0.05,1.1,0.6,2.1,-4.0,3440,3560,,,,,,,,,,,,,,,,,
16486,1469926432254,,,,,,,-0.13,-0.04,1.1,0.9,0.9,-3.9,3520,3512,,,,,,,,,,,,,,,,,
16506,1469926432274,,,,,,,-0.12,-0.12,1.07,1.1,1.4,-3.7,3520,3527,,,,,,,,,,,,,,,,,
16526,1469926432294,,,,,,,-0.13,-0.13,1.12,1.3,2.5,-3.6,3480,3560,,,,,,,,,,,,,,,,,
16546,1469926432314,,,,69,,,-0.13,-0.16,1.06,1.5,1.9,-3.5,3500,3512,0.989,4,39.540302,-122.328896,60.94,0.192,294.1,10,2,1.6,0,0.0,-1,0.0,,0.0,0
16566,1469926432334,,,,,,,-0.15,-0.18,1.14,1.8,1.9,-3.5,3540,3512,,,,,,,,,,,,,,,,,
16586,1469926432354,,,,,,,-0.17,-0.21,1.05,2.0,1.8,-3.3,3500,3527,,,,,,,,,,,,,,,,,
16606,1469926432374,,,,,,,-0.16,-0.2,1.1,2.2,1.7,-3.0,3600,3512,,,,,,,,,,,,,,,,,
16626,1469926432392,,,,,,,-0.13,-0.22,1.08,2.4,2.3,-2.8,3440,3544,,,,,,,,,,,,,,,,,
16646,1469926432412,0,269.7,212.2,52,218.3,,-0.12,-0.23,1.06,2.7,1.9,-2.9,3480,3495,0.981,4,39.540325,-122.328911,61.06,0.193,294.8,10,2,1.6,0,0.0,-1,0.0,0.0,0.0,0
16666,1469926432432,,,,,,,-0.12,-0.27,0.98,3.3,1.0,-3.0,3480,3495,,,,,,,,,,,,,,,,,
16686,1469926432452,,,,,,,-0.08,-0.28,1.03,3.4,1.0,-3.1,3500,3449,,,,,,,,,,,,,,,,,
16706,1469926432472,,,,,,,-0.07,-0.29,1.01,3.5,0.5,-2.9,3500,3464,,,,,,,,,,,,,,,,,
16726,1469926432491,,,,,,,-0.04,-0.29,1.01,3.6,0.2,-2.7,3420,3449,,,,,,,,,,,,,,,,,
16746,1469926432511,,,,46,,,-0.02,-0.28,1.0,3.7,-0.5,-2.5,3420,3418,1.01,4,39.540344,-122.328926,61.25,0.195,295.5,10,2,1.6,0,0.0,-1,0.0,,0.0,0
16766,1469926432531,,,,,,,-0.01,-0.26,1.03,3.7,-0.6,-2.3,3400,3387,,,,,,,,,,,,,,,,,
16786,1469926432551,,,,,,,-0.02,-0.28,1.01,3.8,-1.4,-2.1,3360,3403,,,,,,,,,,,,,,,,,
16806,1469926432571,,,,,,,-0.01,-0.26,0.98,4.1,-1.7,-1.6,3380,3329,,,,,,,,,,,,,,,,,
16826,1469926432591,,,,,,,-0.0,-0.26,1.02,4.4,-1.3,-1.4,3380,3403,,,,,,,,,,,,,,,,,
16846,1469926432710,0,269.4,212.4,37,218.9,,-0.02,-0.23,1.03,4.8,-1.3,-1.4,3380,3464,1.002,4,39.540386,-122.328964,61.32,0.198,297.1,10,2,1.6,0,0.0,-1,0.0,0.0,0.0,0
16866,1469926432730,,,,,,,-0.0,-0.24,1.03,5.1,-1.7,-1.3,3440,3464,,,,,,,,,,,,,,,,,
16886,1469926432750,,,,,,,0.02,-0.24,1.08,5.6,-1.0,-1.1,3500,3433,,,,,,,,,,,,,,,,,
16906,1469926432770,,,,,,,0.03,-0.28,1.09,6.0,-0.7,-1.3,3460,3433,,,,,,,,,,,,,,,,,
16926,1469926432790,,,,,,,0.04,-0.31,1.15,6.7,-0.0,-1.9,3460,3464,,,,,,,,,,,,,,,,,
16946,1469926432810,,,,65,,,0.06,-0.34,1.15,7.1,0.3,-2.4,3320,3418,0.97,4,39.540386,-122.328964,61.32,0.198,297.1,10,2,1.6,0,0.0,-1,0.0,,0.0,0
16966,1469926432830,,,,,,,0.06,-0.38,1.18,7.6,1.5,-3.1,3340,3403,,,,,,,,,,,,,,,,,
16986,1469926432850,,,,,,,0.06,-0.37,1.18,7.7,2.6,-3.5,3400,3403,,,,,,,,,,,,,,,,,
17006,1469926432870,,,,,,,0.1,-0.39,1.14,8.0,2.5,-3.4,3300,3387,,,,,,,,,,,,,,,,,
17026,1469926432794,,,,,,,0.13,-0.36,1.18,8.0,2.8,-3.3,3400,3387,,,,,,,,,,,,,,,,,
17046,1469926432814,0,268.7,211.9,40,218.6,14.0,0.17,-0.37,1.19,8.1,3.0,-3.0,3440,3372,0.985,4,39.540409,-122.328972,60.86,0.2,297.9,10,2,1.6,0,0.0,-1,0.0,0.0,0.0,0
17066,1469926432834,,,,,,,0.16,-0.43,1.14,8.2,3.9,-2.3,3400,3403,,,,,,,,,,,,,,,,,
17086,1469926432854,,,,,,,0.18,-0.45,1.18,8.1,3.3,-2.1,3320,3329,,,,,,,,,,,,,,,,,
17106,1469926432874,,,,,,,0.19,-0.45,1.12,8.1,3.0,-2.1,3260,3329,,,,,,,,,,,,,,,,,
17126,1469926432894,,,,,,,0.2,-0.42,1.09,8.1,3.7,-2.1,3220,3315,,,,,,,,,,,,,,,,,
17146,1469926432908,,,,45,,,0.22,-0.41,1.09,8.0,3.0,-2.1,2740,3329,0.989,4,39.540428,-122.328987,60.17,0.202,298.8,10,2,1.6,0,0.0,-1,0.0,,0.0,0
17166,1469926432928,,,,,,,0.22,-0.42,1.06,8.0,3.3,-1.9,3360,3300,,,,,,,,,,,,,,,,,
17186,1469926432948,,,,,,,0.24,-0.43,1.08,8.1,3.3,-1.7,3260,3300,,,,,,,,,,,,,,,,,
17206,1469926432968,,,,,,,0.24,-0.46,1.11,7.9,3.5,-1.7,3340,3286,,,,,,,,,,,,,,,,,
17226,1469926432993,,,,,,,0.24,-0.49,1.1,8.0,3.1,-1.8,3300,3258,,,,,,,,,,,,,,,,,
