"Interval"|"ms"|0|0|1,"Utc"|"ms"|0|0|1,"FuelLevel"|"F"|0|100|5,"OilTemp"|"F"|0.0|300.0|5,"Coolant"|"F"|0.0|300.0|5,"OilPress"|"PSI"|0|150|10,"EngineTemp"|"F"|0.0|300.0|5,"Battery"|"Volts"|0.0|20.0|1,"AccelX"|"G"|-3.0|3.0|50,"AccelY"|"G"|-3.0|3.0|50,"AccelZ"|"G"|-3.0|3.0|50,"Yaw"|"Deg/Sec"|-300.0|300.0|50,"Pitch"|"Deg/Sec"|-300.0|300.0|50,"Roll"|"Deg/Sec"|-300.0|300.0|50,"RPM"|""|0|10000|50,"Driveshaft"|"RPM"|0|5000|50,"GearRatio"|""|-5.0|5.0|10,"Gear"|""|-1|5|10,"Latitude"|"Degrees"|-180.0|180.0|10,"Longitude"|"Degrees"|-180.0|180.0|10,"Speed"|"MPH"|0.0|150.0|10,"Distance"|"Miles"|0.0|0.0|10,"Altitude"|"Feet"|0.0|4000.0|10,"GPSSats"|""|0|20|10,"GPSQual"|""|0|5|10,"GPSDOP"|""|0.0|20.0|10,"LapCount"|""|0|0|10,"LapTime"|"Min"|0.0|0.0|10,"Sector"|""|0|0|10,"SectorTime"|"Min"|0.0|0.0|10,"PredTime"|"Min"|0.0|0.0|5,"ElapsedTime"|"Min"|0.0|0.0|10,"CurrentLap"|""|0|0|10
5066,1469914037040,,,,,,,0.04,0.45,0.92,-9.0,-0.1,0.8,4500,3610,,,,,,,,,,,,,,,,,
5086,1469914037060,,,,,,,0.07,0.41,0.96,-9.3,-0.5,1.0,4600,3576,,,,,,,,,,,,,,,,,
5106,1469914037080,,,,,,,0.08,0.51,0.95,-9.7,-1.3,0.7,4540,3593,,,,,,,,,,,,,,,,,
5126,1469914037100,,,,,,,0.07,0.51,0.92,-10.5,-0.9,0.8,4560,3593,,,,,,,,,,,,,,,,,
5146,1469914037115,,,,85,,,0.03,0.55,0.85,-10.7,-1.3,0.4,4660,3593,1.286,3,39.535816,-122.328156,63.1,0.002,304.7,8,2,1.8,0,0.0,-1,0.0,,0.0,0
5166,1469914037135,,,,,,,0.03,0.51,0.89,-11.1,-1.1,0.5,4600,3610,,,,,,,,,,,,,,,,,
5186,1469914037155,,,,,,,0.04,0.57,0.85,-11.2,-2.4,-0.1,4600,3576,,,,,,,,,,,,,,,,,
5206,1469914037175,,,,,,,0.07,0.54,0.87,-11.4,-1.6,-0.2,4700,3627,,,,,,,,,,,,,,,,,
5226,1469914037195,,,,,,,0.08,0.56,0.9,-11.7,-2.0,-0.4,4620,3610,,,,,,,,,,,,,,,,,
5246,1469914037219,0,236.6,189.5,35,191.0,,0.05,0.59,0.82,-12.2,-0.8,-0.2,4640,3627,1.275,3,39.535809,-122.328117,63.18,0.004,304.1,8,2,1.8,0,0.0,-1,0.0,0.0,0.0,0
5266,1469914037239,,,,,,,0.04,0.62,0.92,-12.4,-2.0,-0.2,4620,3610,,,,,,,,,,,,,,,,,
5286,1469914037259,,,,,,,0.04,0.63,0.94,-13.2,-1.4,-0.2,4640,3593,,,,,,,,,,,,,,,,,
5306,1469914037279,,,,,,,0.08,0.65,1.0,-13.4,-0.9,-0.5,4680,3644,,,,,,,,,,,,,,,,,
5326,1469914037299,,,,,,,0.09,0.66,1.04,-13.6,0.3,-0.6,4580,3593,,,,,,,,,,,,,,,,,
5346,1469914037319,,,,54,,,0.11,0.62,1.0,-13.5,0.9,-0.7,4600,3610,1.252,3,39.535805,-122.328094,63.32,0.005,303.5,8,2,1.8,0,0.0,-1,0.0,,0.0,0
5366,1469914037339,,,,,,,0.09,0.61,1.06,-13.3,0.7,-0.2,4580,3593,,,,,,,,,,,,,,,,,
5386,1469914037359,,,,,,,0.14,0.64,1.07,-13.4,0.2,0.1,4540,3576,,,,,,,,,,,,,,,,,
5406,1469914037379,,,,,,,0.14,0.63,1.09,-13.5,0.8,0.1,4560,3610,,,,,,,,,,,,,,,,,
5426,1469914037399,,,,,,,0.15,0.67,1.06,-13.5,1.5,0.0,4580,3610,,,,,,,,,,,,,,,,,
5446,1469914037419,0,236.1,188.8,38,190.3,,0.13,0.7,0.99,-13.7,1.4,-0.1,4460,3576,1.28,3,39.535801,-122.328056,63.1,0.007,302.9,8,2,1.8,0,0.0,-1,0.0,0.0,0.0,0
5466,1469914037439,,,,,,,0.1,0.64,1.07,-14.2,1.1,0.2,4660,3576,,,,,,,,,,,,,,,,,
5486,1469914037459,,,,,,,0.08,0.72,0.99,-14.5,0.1,-0.3,4600,3576,,,,,,,,,,,,,,,,,
5506,1469914037479,,,,,,,0.07,0.65,0.99,-14.7,0.8,-0.5,4580,3576,,,,,,,,,,,,,,,,,
5526,1469914037499,,,,,,,0.1,0.7,0.98,-14.7,1.0,-0.8,4480,3560,,,,,,,,,,,,,,,,,
5546,1469914037518,,,,56,,,0.08,0.76,0.95,-15.1,2.0,-0.6,4580,3576,1.263,3,39.535797,-122.328026,63.12,0.009,302.4,8,2,1.8,0,0.0,-1,0.0,,0.0,0
5566,1469914037538,,,,,,,0.06,0.69,0.93,-14.9,0.6,-1.1,4600,3576,,,,,,,,,,,,,,,,,
5586,1469914037558,,,,,,,0.05,0.68,0.92,-14.9,0.5,-1.2,4600,3560,,,,,,,,,,,,,,,,,
5606,1469914037578,,,,,,,0.08,0.68,0.92,-14.8,-0.4,-1.8,4540,3560,,,,,,,,,,,,,,,,,
5626,1469914037598,,,,,,,0.11,0.66,0.86,-14.9,0.9,-1.7,4640,3560,,,,,,,,,,,,,,,,,
5646,1469914037718,0,236.1,189.5,65,191.0,,0.14,0.63,0.86,-14.9,-0.1,-1.8,4480,3610,1.27,3,39.535793,-122.327965,63.07,0.012,301.4,8,2,1.8,0,0.0,-1,0.0,0.0,0.0,0
5666,1469914037738,,,,,,,0.12,0.66,0.87,-15.1,1.0,-1.6,4600,3560,,,,,,,,,,,,,,,,,
5686,1469914037758,,,,,,,0.1,0.63,0.88,-15.2,0.4,-1.2,4620,3576,,,,,,,,,,,,,,,,,
5706,1469914037778,,,,,,,0.09,0.57,0.9,-15.3,0.6,-0.5,4580,3576,,,,,,,,,,,,,,,,,
5726,1469914037798,,,,,,,0.1,0.57,0.95,-15.2,0.7,-0.6,4520,3544,,,,,,,,,,,,,,,,,
5746,1469914037818,,,,75,,,0.1,0.59,0.88,-15.1,1.6,-0.6,4460,3610,1.241,3,39.535793,-122.327965,63.07,0.012,301.4,8,2,1.8,0,0.0,-1,0.0,,0.0,0
5766,1469914037838,,,,,,,0.12,0.58,0.92,-14.9,1.3,-0.4,4540,3610,,,,,,,,,,,,,,,,,
5786,1469914037858,,,,,,,0.12,0.51,0.92,-14.9,1.4,-0.3,4660,3610,,,,,,,,,,,,,,,,,
5806,1469914037878,,,,,,,0.14,0.5,1.0,-15.0,1.3,-0.1,4660,3593,,,,,,,,,,,,,,,,,
5826,1469914037898,,,,,,,0.15,0.52,1.01,-15.1,1.1,0.2,4520,3610,,,,,,,,,,,,,,,,,
5846,1469914037819,0,236.5,189.6,38,190.9,,0.18,0.52,0.92,-15.2,0.6,0.1,4560,3661,1.28,3,39.535793,-122.327927,63.08,0.014,301.0,8,2,1.8,0,0.0,-1,0.0,0.0,0.0,0
5866,1469914037839,,,,,,,0.15,0.62,0.94,-15.5,0.1,0.4,4560,3627,,,,,,,,,,,,,,,,,
5886,1469914037859,,,,,,,0.13,0.6,0.89,-15.5,-0.4,0.4,4580,3576,,,,,,,,,,,,,,,,,
5906,1469914037879,,,,,,,0.13,0.62,0.84,-15.1,-0.7,0.4,4500,3593,,,,,,,,,,,,,,,,,
5926,1469914037899,,,,,,,0.14,0.58,0.9,-15.1,-0.7,0.4,4600,3593,,,,,,,,,,,,,,,,,
5946,1469914037912,,,,60,,,0.15,0.69,0.79,-15.0,-1.1,0.0,4580,3593,1.263,3,39.535793,-122.327888,62.98,0.016,300.6,8,2,1.8,0,0.0,-1,0.0,,0.0,0
5966,1469914037932,,,,,,,0.14,0.65,0.86,-15.2,-0.6,0.4,4540,3593,,,,,,,,,,,,,,,,,
5986,1469914037952,,,,,,,0.11,0.63,0.8,-15.0,-2.1,0.1,4580,3560,,,,,,,,,,,,,,,,,
6006,1469914037972,,,,,,,0.11,0.7,0.91,-15.3,-1.6,0.5,4620,3544,,,,,,,,,,,,,,,,,
6026,1469914037992,,,,,,,0.14,0.72,0.92,-15.4,-2.1,0.4,4500,3576,,,,,,,,,,,,,,,,,
6046,1469914038018,0,236.7,189.9,46,190.6,13.91,0.15,0.7,0.89,-15.7,-0.5,0.7,4520,3627,1.258,3,39.535793,-122.327858,62.78,0.018,300.3,9,2,1.4,0,0.0,-1,0.0,0.0,0.0,0
6066,1469914038038,,,,,,,0.17,0.71,0.95,-15.7,-0.9,0.2,4620,3576,,,,,,,,,,,,,,,,,
6086,1469914038058,,,,,,,0.14,0.76,0.88,-16.0,-0.6,0.4,4540,3593,,,,,,,,,,,,,,,,,
6106,1469914038078,,,,,,,0.17,0.75,0.99,-16.2,-2.3,0.3,4560,3560,,,,,,,,,,,,,,,,,
6126,1469914038098,,,,,,,0.16,0.75,0.96,-16.5,-0.2,0.1,4480,3593,,,,,,,,,,,,,,,,,
6146,1469914038119,,,,69,,,0.2,0.77,1.02,-16.6,-0.1,0.2,4440,3576,1.258,3,39.535793,-122.32782,62.8,0.02,299.7,9,2,1.4,0,0.0,-1,0.0,,0.0,0
6166,1469914038139,,,,,,,0.2,0.71,1.0,-16.8,1.3,0.1,4500,3560,,,,,,,,,,,,,,,,,
6186,1469914038159,,,,,,,0.17,0.65,1.04,-16.5,0.8,-0.2,4580,3610,,,,,,,,,,,,,,,,,
6206,1469914038179,,,,,,,0.16,0.63,1.06,-16.4,0.3,-0.3,4640,3576,,,,,,,,,,,,,,,,,
6226,1469914038199,,,,,,,0.16,0.57,1.05,-15.9,-0.3,-0.8,4500,3576,,,,,,,,,,,,,,,,,
6246,1469914038218,0,236.5,189.6,81,191.4,,0.17,0.5,1.1,-15.9,0.1,-0.7,4500,3576,1.298,3,39.535793,-122.327797,62.75,0.021,299.1,9,2,1.4,0,0.0,-1,0.0,0.0,0.0,0
6266,1469914038238,,,,,,,0.21,0.58,1.11,-15.7,0.7,-1.0,4580,3576,,,,,,,,,,,,,,,,,
6286,1469914038258,,,,,,,0.12,0.49,1.12,-15.6,0.7,-0.8,4640,3576,,,,,,,,,,,,,,,,,
6306,1469914038278,,,,,,,0.07,0.46,1.04,-15.4,-0.0,-1.1,4580,3560,,,,,,,,,,,,,,,,,
6326,1469914038298,,,,,,,0.06,0.5,1.13,-15.3,-0.5,-0.9,4580,3560,,,,,,,,,,,,,,,,,
6346,1469914038318,,,,59,,,0.07,0.49,1.02,-15.1,0.1,-1.1,4600,3576,1.252,3,39.535793,-122.327759,62.79,0.023,298.7,10,2,1.3,0,0.0,-1,0.0,,0.0,0
6366,1469914038338,,,,,,,0.05,0.52,1.04,-15.1,0.1,-1.1,4620,3576,,,,,,,,,,,,,,,,,
6386,1469914038358,,,,,,,0.05,0.5,1.01,-15.0,0.4,-0.9,4500,3560,,,,,,,,,,,,,,,,,
6406,1469914038378,,,,,,,-0.01,0.54,0.99,-14.8,-1.0,-0.8,4480,3593,,,,,,,,,,,,,,,,,
6426,1469914038398,,,,,,,-0.0,0.5,1.02,-14.7,-0.9,-0.9,4580,3527,,,,,,,,,,,,,,,,,
6446,1469914038517,0,236.3,189.9,39,191.3,,0.01,0.54,1.01,-14.9,-0.8,-1.1,4580,3576,1.263,3,39.535797,-122.327698,62.66,0.027,297.4,10,2,1.3,0,0.0,-1,0.0,0.0,0.0,0
6466,1469914038537,,,,,,,0.04,0.51,1.0,-15.1,0.0,-0.8,4600,3593,,,,,,,,,,,,,,,,,
6486,1469914038557,,,,,,,0.03,0.55,0.94,-15.0,-0.6,-1.0,4420,3544,,,,,,,,,,,,,,,,,
6506,1469914038577,,,,,,,0.03,0.56,0.98,-15.4,-0.2,-0.8,4580,3527,,,,,,,,,,,,,,,,,
6526,1469914038597,,,,,,,0.02,0.6,1.03,-15.9,-1.3,-0.9,4440,3544,,,,,,,,,,,,,,,,,
6546,1469914038617,,,,48,,,0.05,0.61,1.03,-16.1,-0.3,-1.1,4520,3544,1.253,3,39.535797,-122.327698,62.66,0.027,297.4,10,2,1.3,0,0.0,-1,0.0,,0.0,0
6566,1469914038637,,,,,,,0.09,0.67,0.99,-16.1,-1.5,-1.7,4480,3527,,,,,,,,,,,,,,,,,
6586,1469914038657,,,,,,,0.09,0.65,0.9,-16.4,-0.0,-1.5,4400,3512,,,,,,,,,,,,,,,,,
6606,1469914038677,,,,,,,0.07,0.76,0.88,-16.6,-0.2,-2.2,4520,3495,,,,,,,,,,,,,,,,,
6626,1469914038697,,,,,,,0.05,0.77,0.86,-17.1,0.4,-1.9,4440,3495,,,,,,,,,,,,,,,,,
6646,1469914038618,0,236.6,189.6,51,191.7,,0.09,0.77,0.79,-17.0,-1.7,-1.7,4420,3512,1.264,3,39.535801,-122.32766,62.58,0.029,296.9,10,2,1.3,0,0.0,-1,0.0,0.0,0.0,0
6666,1469914038638,,,,,,,0.09,0.71,0.84,-16.9,-0.5,-1.7,4400,3495,,,,,,,,,,,,,,,,,
6686,1469914038658,,,,,,,0.12,0.73,0.8,-16.7,-0.4,-1.5,4500,3560,,,,,,,,,,,,,,,,,
6706,1469914038678,,,,,,,0.15,0.69,0.82,-16.6,-0.6,-1.2,4560,3495,,,,,,,,,,,,,,,,,
6726,1469914038698,,,,,,,0.1,0.75,0.77,-16.6,-1.1,-0.9,4520,3576,,,,,,,,,,,,,,,,,
6746,1469914038718,,,,64,,,0.1,0.66,0.77,-16.3,-1.0,-0.7,4460,3544,1.265,3,39.535805,-122.327629,62.55,0.03,296.5,10,2,1.3,0,0.0,-1,0.0,,0.0,0
6766,1469914038738,,,,,,,0.11,0.69,0.77,-15.9,-0.7,-1.0,4520,3527,,,,,,,,,,,,,,,,,
6786,1469914038758,,,,,,,0.14,0.66,0.77,-16.0,-0.0,-1.0,4580,3544,,,,,,,,,,,,,,,,,
6806,1469914038778,,,,,,,0.15,0.66,0.72,-15.9,-0.5,-1.1,4460,3527,,,,,,,,,,,,,,,,,
6826,1469914038798,,,,,,,0.12,0.68,0.75,-15.7,-0.1,-1.4,4520,3495,,,,,,,,,,,,,,,,,
6846,1469914038818,0,236.8,189.9,71,191.2,,0.11,0.74,0.7,-15.9,-0.1,-1.5,4380,3544,1.27,3,39.535809,-122.327591,62.52,0.032,296.0,10,2,1.3,0,0.0,-1,0.0,0.0,0.0,0
6866,1469914038838,,,,,,,0.11,0.67,0.75,-15.9,-0.9,-1.3,4540,3480,,,,,,,,,,,,,,,,,
6886,1469914038858,,,,,,,0.12,0.65,0.84,-15.8,-2.0,-1.2,4380,3512,,,,,,,,,,,,,,,,,
6906,1469914038878,,,,,,,0.16,0.61,0.79,-15.4,-1.6,-1.5,4420,3512,,,,,,,,,,,,,,,,,
6926,1469914038898,,,,,,,0.15,0.63,0.82,-15.3,-1.4,-1.5,4420,3527,,,,,,,,,,,,,,,,,
6946,1469914038914,,,,55,,,0.17,0.6,0.79,-15.2,-0.6,-1.9,4460,3512,1.247,3,39.535812,-122.327568,62.12,0.034,295.5,10,2,1.3,0,0.0,-1,0.0,,0.0,0
6966,1469914038934,,,,,,,0.12,0.63,0.9,-15.1,-0.9,-1.6,4540,3527,,,,,,,,,,,,,,,,,
6986,1469914038954,,,,,,,0.12,0.65,0.88,-15.0,-0.7,-1.6,4440,3512,,,,,,,,,,,,,,,,,
7006,1469914038974,,,,,,,0.12,0.61,0.99,-15.2,-0.6,-1.1,4520,3495,,,,,,,,,,,,,,,,,
7026,1469914038994,,,,,,,0.15,0.63,0.94,-15.3,-0.3,-1.4,4460,3544,,,,,,,,,,,,,,,,,
7046,1469914039020,0,236.6,189.6,39,191.7,13.98,0.13,0.65,1.03,-15.6,0.1,-1.1,4400,3544,1.282,3,39.535816,-122.32753,61.99,0.036,295.0,10,2,1.3,0,0.0,-1,0.0,0.0,0.0,0
7066,1469914039040,,,,,,,0.11,0.66,0.95,-15.7,1.1,-1.2,4540,3527,,,,,,,,,,,,,,,,,
7086,1469914039060,,,,,,,0.1,0.65,0.95,-16.0,0.5,-1.0,4520,3495,,,,,,,,,,,,,,,,,
7106,1469914039080,,,,,,,0.11,0.71,0.98,-16.0,-0.0,-0.8,4520,3527,,,,,,,,,,,,,,,,,
7126,1469914039100,,,,,,,0.1,0.68,1.01,-16.3,-0.1,-0.4,4500,3560,,,,,,,,,,,,,,,,,
7146,1469914039120,,,,51,,,0.12,0.73,1.01,-16.4,-0.1,-0.3,4500,3527,1.275,3,39.535824,-122.327499,61.74,0.037,294.4,10,2,1.3,0,0.0,-1,0.0,,0.0,0
7166,1469914039140,,,,,,,0.08,0.7,0.99,-16.5,-0.5,0.1,4420,3576,,,,,,,,,,,,,,,,,
7186,1469914039160,,,,,,,0.07,0.71,1.0,-16.4,-0.0,-0.0,4600,3544,,,,,,,,,,,,,,,,,
7206,1469914039180,,,,,,,0.06,0.68,1.07,-16.7,-0.5,0.3,4520,3560,,,,,,,,,,,,,,,,,
7226,1469914039200,,,,,,,0.09,0.72,1.01,-16.6,-1.1,0.3,4580,3512,,,,,,,,,,,,,,,,,
7246,1469914039319,0,236.4,189.4,70,190.9,,0.06,0.72,1.09,-16.6,-0.6,0.4,4520,3544,1.287,3,39.535839,-122.327438,61.42,0.041,293.1,10,2,1.4,0,0.0,-1,0.0,0.0,0.0,0
7266,1469914039339,,,,,,,0.1,0.71,1.05,-16.5,-0.9,0.5,4540,3527,,,,,,,,,,,,,,,,,
7286,1469914039359,,,,,,,0.12,0.73,1.07,-16.7,-1.5,1.0,4340,3512,,,,,,,,,,,,,,,,,
7306,1469914039379,,,,,,,0.08,0.71,1.02,-16.5,-0.4,0.6,4460,3512,,,,,,,,,,,,,,,,,
7326,1469914039399,,,,,,,0.06,0.65,1.06,-16.4,-0.3,0.6,4320,3495,,,,,,,,,,,,,,,,,
7346,1469914039419,,,,39,,,0.11,0.7,1.05,-16.4,-0.5,0.5,4460,3495,1.299,3,39.535839,-122.327438,61.42,0.041,293.1,10,2,1.4,0,0.0,-1,0.0,,0.0,0
7366,1469914039439,,,,,,,0.11,0.67,1.12,-16.7,-0.6,0.7,4520,3480,,,,,,,,,,,,,,,,,
7386,1469914039459,,,,,,,0.15,0.73,1.09,-16.8,-0.4,0.5,4480,3495,,,,,,,,,,,,,,,,,
7406,1469914039479,,,,,,,0.13,0.72,1.08,-16.9,-0.1,0.8,4500,3512,,,,,,,,,,,,,,,,,
7426,1469914039499,,,,,,,0.11,0.78,1.08,-17.0,-0.5,0.5,4400,3495,,,,,,,,,,,,,,,,,
7446,1469914039412,1,236.6,189.9,37,191.3,,0.05,0.7,1.1,-17.2,-0.4,0.2,4460,3512,1.27,3,39.535847,-122.3274,61.42,0.043,292.6,10,2,1.4,0,0.0,-1,0.0,0.0,0.0,0
7466,1469914039432,,,,,,,0.06,0.74,1.16,-17.3,-0.4,0.0,4520,3495,,,,,,,,,,,,,,,,,
7486,1469914039452,,,,,,,0.06,0.76,1.12,-17.5,0.4,-0.3,4460,3512,,,,,,,,,,,,,,,,,
7506,1469914039472,,,,,,,0.12,0.76,1.15,-17.3,-0.2,-0.3,4400,3512,,,,,,,,,,,,,,,,,
7526,1469914039492,,,,,,,0.13,0.86,1.09,-17.6,0.4,-0.4,4460,3512,,,,,,,,,,,,,,,,,
7546,1469914039520,,,,73,,,0.12,0.85,1.16,-17.7,1.0,-0.6,4480,3512,1.276,3,39.535858,-122.327377,61.29,0.044,292.1,10,2,1.4,0,0.0,-1,0.0,,0.0,0
7566,1469914039540,,,,,,,0.09,0.9,1.07,-18.2,1.3,-0.5,4520,3512,,,,,,,,,,,,,,,,,
7586,1469914039560,,,,,,,0.12,0.92,1.15,-18.1,1.3,-1.1,4420,3480,,,,,,,,,,,,,,,,,
7606,1469914039580,,,,,,,0.1,0.92,1.08,-18.3,1.8,-1.2,4480,3495,,,,,,,,,,,,,,,,,
7626,1469914039600,,,,,,,0.14,0.93,1.05,-18.1,1.3,-1.5,4420,3464,,,,,,,,,,,,,,,,,
7646,1469914039620,0,236.2,189.6,78,191.2,,0.16,1.0,0.98,-18.5,2.2,-1.1,4440,3480,1.287,3,39.535866,-122.327347,61.16,0.046,291.5,10,2,1.4,0,0.0,-1,0.0,0.0,0.0,0
7666,1469914039640,,,,,,,0.15,0.98,1.04,-18.5,2.0,-1.3,4420,3464,,,,,,,,,,,,,,,,,
7686,1469914039660,,,,,,,0.12,0.95,1.01,-18.6,1.7,-1.0,4400,3495,,,,,,,,,,,,,,,,,
7706,1469914039680,,,,,,,0.12,0.96,1.03,-18.8,0.8,-1.2,4400,3480,,,,,,,,,,,,,,,,,
7726,1469914039700,,,,,,,0.13,0.94,1.05,-18.8,1.3,-1.3,4320,3464,,,,,,,,,,,,,,,,,
7746,1469914039720,,,,72,,,0.15,0.98,0.98,-18.7,1.1,-1.8,4420,3495,1.253,3,39.535877,-122.327309,61.2,0.048,291.0,10,2,1.4,0,0.0,-1,0.0,,0.0,0
7766,1469914039740,,,,,,,0.18,0.96,0.93,-18.7,1.3,-1.6,4440,3480,,,,,,,,,,,,,,,,,
7786,1469914039760,,,,,,,0.18,0.99,0.9,-18.6,0.6,-1.7,4440,3480,,,,,,,,,,,,,,,,,
7806,1469914039780,,,,,,,0.16,0.99,0.9,-18.7,0.5,-1.8,4360,3433,,,,,,,,,,,,,,,,,
7826,1469914039800,,,,,,,0.15,0.95,0.96,-18.8,-0.2,-1.4,4380,3433,,,,,,,,,,,,,,,,,
7846,1469914039820,0,236.7,189.9,44,191.3,,0.15,0.96,0.97,-18.7,-0.8,-1.9,4380,3464,1.299,3,39.535889,-122.327286,61.11,0.05,290.6,10,2,1.4,0,0.0,-1,0.0,0.0,0.0,0
7866,1469914039840,,,,,,,0.15,0.89,1.01,-18.5,-0.9,-1.8,4400,3449,,,,,,,,,,,,,,,,,
7886,1469914039860,,,,,,,0.15,0.93,1.04,-18.3,-0.1,-2.2,4400,3433,,,,,,,,,,,,,,,,,
7906,1469914039880,,,,,,,0.16,0.92,1.05,-18.6,0.1,-1.8,4400,3449,,,,,,,,,,,,,,,,,
7926,1469914039900,,,,,,,0.16,0.91,1.12,-18.5,0.3,-1.9,4320,3418,,,,,,,,,,,,,,,,,
7946,1469914039914,,,,72,,,0.13,0.92,1.04,-18.6,0.3,-2.0,4320,3464,1.247,3,39.535896,-122.327255,61.05,0.051,290.1,10,2,1.4,0,0.0,-1,0.0,,0.0,0
7966,1469914039934,,,,,,,0.17,0.89,1.06,-18.8,-1.6,-2.3,4420,3433,,,,,,,,,,,,,,,,,
7986,1469914039954,,,,,,,0.12,0.9,1.06,-19.3,-0.8,-1.7,4380,3433,,,,,,,,,,,,,,,,,
8006,1469914039974,,,,,,,0.13,0.95,1.02,-19.4,-1.3,-1.7,4300,3495,,,,,,,,,,,,,,,,,
8026,1469914039994,,,,,,,0.09,0.99,1.07,-19.7,-0.5,-1.1,4440,3449,,,,,,,,,,,,,,,,,
8046,1469914040119,0,236.5,189.9,52,191.2,14.03,0.09,0.97,0.95,-19.5,-0.5,-0.9,4460,3495,1.276,3,39.535919,-122.327194,60.7,0.055,289.5,10,2,1.4,0,0.0,-1,0.0,0.0,0.0,0
8066,1469914040139,,,,,,,0.06,0.92,0.9,-19.5,0.3,-0.8,4400,3495,,,,,,,,,,,,,,,,,
8086,1469914040159,,,,,,,0.05,1.0,0.91,-19.5,0.2,-0.6,4400,3449,,,,,,,,,,,,,,,,,
8106,1469914040179,,,,,,,0.11,0.99,0.91,-19.1,-0.6,-0.3,4400,3480,,,,,,,,,,,,,,,,,
8126,1469914040199,,,,,,,0.1,0.93,0.96,-19.1,-0.4,0.2,4300,3464,,,,,,,,,,,,,,,,,
8146,1469914040219,,,,41,,,0.17,0.95,0.94,-18.6,0.3,0.1,4480,3433,1.282,3,39.535919,-122.327194,60.7,0.055,289.5,10,2,1.4,0,0.0,-1,0.0,,0.0,0
8166,1469914040239,,,,,,,0.16,0.93,0.95,-18.8,0.9,0.3,4460,3464,,,,,,,,,,,,,,,,,
8186,1469914040259,,,,,,,0.16,0.94,0.98,-18.6,1.2,0.3,4440,3464,,,,,,,,,,,,,,,,,
8206,1469914040279,,,,,,,0.14,0.88,0.96,-18.4,1.3,0.2,4340,3449,,,,,,,,,,,,,,,,,
8226,1469914040299,,,,,,,0.15,0.87,1.01,-17.9,0.2,0.1,4380,3449,,,,,,,,,,,,,,,,,
8246,1469914040220,0,237.3,189.9,39,191.3,,0.12,0.86,1.02,-17.8,0.2,0.1,4460,3449,1.293,3,39.535938,-122.327171,60.81,0.057,289.1,10,2,1.4,0,0.0,-1,0.0,0.0,0.0,0
8266,1469914040240,,,,,,,0.13,0.81,1.04,-17.5,0.3,-0.2,4320,3433,,,,,,,,,,,,,,,,,
8286,1469914040260,,,,,,,0.13,0.8,1.0,-17.6,0.8,-0.1,4340,3418,,,,,,,,,,,,,,,,,
8306,1469914040280,,,,,,,0.15,0.81,0.97,-17.4,1.1,-0.5,4440,3480,,,,,,,,,,,,,,,,,
8326,1469914040300,,,,,,,0.13,0.83,0.97,-17.5,1.8,-0.3,4260,3433,,,,,,,,,,,,,,,,,
8346,1469914040319,,,,68,,,0.09,0.8,0.89,-17.6,0.8,-0.5,4340,3464,1.276,3,39.53595,-122.327141,60.45,0.059,288.9,10,2,1.4,0,0.0,-1,0.0,,0.0,0
8366,1469914040339,,,,,,,0.05,0.77,0.96,-17.9,0.8,-0.2,4400,3433,,,,,,,,,,,,,,,,,
8386,1469914040359,,,,,,,0.05,0.85,0.97,-18.1,0.6,-0.2,4420,3449,,,,,,,,,,,,,,,,,
8406,1469914040379,,,,,,,0.05,0.79,1.01,-18.1,1.5,0.2,4440,3433,,,,,,,,,,,,,,,,,
8426,1469914040399,,,,,,,0.03,0.76,1.0,-17.9,1.4,0.5,4380,3480,,,,,,,,,,,,,,,,,
8446,1469914040417,0,236.7,189.9,50,191.5,,0.04,0.75,0.99,-17.7,1.8,0.1,4440,3464,1.258,3,39.535961,-122.327118,60.53,0.06,288.7,10,2,1.4,0,0.0,-1,0.0,0.0,0.0,0
8466,1469914040437,,,,,,,-0.01,0.71,1.04,-17.5,2.0,0.1,4380,3449,,,,,,,,,,,,,,,,,
8486,1469914040457,,,,,,,-0.0,0.78,1.04,-17.3,2.3,-0.1,4380,3480,,,,,,,,,,,,,,,,,
8506,1469914040477,,,,,,,0.03,0.77,1.05,-17.3,1.9,0.1,4340,3449,,,,,,,,,,,,,,,,,
8526,1469914040497,,,,,,,0.05,0.75,1.14,-17.2,2.1,-0.4,4400,3433,,,,,,,,,,,,,,,,,
8546,1469914040517,,,,62,,,0.06,0.85,1.06,-17.6,2.6,-0.4,4440,3449,1.281,3,39.535976,-122.327095,60.27,0.062,288.5,10,2,1.4,0,0.0,-1,0.0,,0.0,0
8566,1469914040537,,,,,,,0.1,0.87,1.1,-17.6,1.5,-0.6,4400,3433,,,,,,,,,,,,,,,,,
8586,1469914040557,,,,,,,0.11,0.92,0.98,-17.8,1.3,-0.7,4440,3418,,,,,,,,,,,,,,,,,
8606,1469914040577,,,,,,,0.13,0.91,0.94,-17.6,0.4,-1.1,4280,3433,,,,,,,,,,,,,,,,,
8626,1469914040597,,,,,,,0.1,0.91,0.93,-18.0,0.5,-0.8,4380,3433,,,,,,,,,,,,,,,,,
8646,1469914040616,0,236.6,189.8,40,191.2,,0.11,0.96,0.87,-17.9,-0.7,-0.7,4300,3449,1.293,3,39.535992,-122.327064,60.22,0.064,288.4,10,2,1.4,0,0.0,-1,0.0,0.0,0.0,0
8666,1469914040636,,,,,,,0.11,0.88,0.88,-17.7,-0.2,-0.5,4340,3418,,,,,,,,,,,,,,,,,
8686,1469914040656,,,,,,,0.08,0.86,0.88,-17.6,-0.1,-0.2,4260,3433,,,,,,,,,,,,,,,,,
8706,1469914040676,,,,,,,0.1,0.91,0.84,-17.5,-1.0,-0.4,4340,3433,,,,,,,,,,,,,,,,,
8726,1469914040696,,,,,,,0.09,0.9,0.83,-17.6,-1.0,-0.2,4380,3418,,,,,,,,,,,,,,,,,
8746,1469914040716,,,,69,,,0.08,0.93,0.88,-17.6,-0.6,-0.5,4420,3418,1.293,3,39.536007,-122.327042,60.42,0.065,288.3,10,2,1.4,0,0.0,-1,0.0,,0.0,0
8766,1469914040736,,,,,,,0.07,0.85,0.83,-17.8,-0.3,-0.5,4360,3433,,,,,,,,,,,,,,,,,
8786,1469914040756,,,,,,,0.09,0.81,0.9,-18.0,-1.2,-0.6,4340,3418,,,,,,,,,,,,,,,,,
8806,1469914040776,,,,,,,0.09,0.8,0.96,-18.2,-0.5,-0.5,4280,3372,,,,,,,,,,,,,,,,,
8826,1469914040796,,,,,,,0.12,0.82,0.95,-18.1,-1.3,-0.6,4380,3418,,,,,,,,,,,,,,,,,
8846,1469914040918,1,236.8,190.1,85,191.2,,0.12,0.82,0.95,-18.6,-0.8,-0.2,4200,3403,1.264,3,39.536037,-122.326988,60.05,0.069,288.0,10,2,1.4,0,0.0,-1,0.0,0.0,0.0,0
8866,1469914040938,,,,,,,0.15,0.86,0.89,-19.0,-0.7,-0.2,4240,3418,,,,,,,,,,,,,,,,,
8886,1469914040958,,,,,,,0.14,0.92,0.9,-19.1,-0.1,-0.2,4340,3387,,,,,,,,,,,,,,,,,
8906,1469914040978,,,,,,,0.11,0.84,0.9,-19.3,-0.4,0.1,4320,3372,,,,,,,,,,,,,,,,,
8926,1469914040998,,,,,,,0.12,0.78,0.94,-19.1,-0.2,0.0,4320,3372,,,,,,,,,,,,,,,,,
8946,1469914041018,,,,77,,,0.11,0.81,0.92,-19.3,-0.5,0.3,4280,3403,1.276,3,39.536037,-122.326988,60.05,0.069,288.0,10,2,1.4,0,0.0,-1,0.0,,0.0,0
8966,1469914041038,,,,,,,0.14,0.8,0.93,-19.4,-1.2,0.2,4320,3372,,,,,,,,,,,,,,,,,
8986,1469914041058,,,,,,,0.14,0.77,0.93,-19.7,-0.3,0.5,4300,3358,,,,,,,,,,,,,,,,,
9006,1469914041078,,,,,,,0.16,0.83,0.86,-20.0,-0.7,0.3,4160,3343,,,,,,,,,,,,,,,,,
9026,1469914041098,,,,,,,0.19,0.83,0.81,-20.1,-0.8,0.1,4340,3372,,,,,,,,,,,,,,,,,
9046,1469914041019,1,236.5,189.8,54,192.0,14.02,0.16,0.83,0.86,-20.3,-0.6,-0.0,4300,3358,1.269,3,39.536056,-122.326965,60.08,0.071,287.9,10,2,1.4,0,0.0,-1,0.0,0.0,0.0,0
9066,1469914041039,,,,,,,0.14,0.87,0.87,-20.5,0.3,-0.3,4340,3372,,,,,,,,,,,,,,,,,
9086,1469914041059,,,,,,,0.14,0.91,0.83,-20.6,-0.6,-0.3,4300,3403,,,,,,,,,,,,,,,,,
9106,1469914041079,,,,,,,0.18,0.92,0.87,-20.6,-2.3,-0.4,4360,3387,,,,,,,,,,,,,,,,,
9126,1469914041099,,,,,,,0.14,0.9,0.89,-21.0,-1.8,0.2,4340,3372,,,,,,,,,,,,,,,,,
9146,1469914041119,,,,85,,,0.14,0.92,0.88,-21.0,-2.1,-0.1,4360,3387,1.269,3,39.536072,-122.326942,60.22,0.072,287.8,10,2,1.4,0,0.0,-1,0.0,,0.0,0
9166,1469914041139,,,,,,,0.13,0.9,0.88,-21.3,-0.7,-0.2,4300,3387,,,,,,,,,,,,,,,,,
9186,1469914041159,,,,,,,0.12,0.91,0.86,-21.6,-0.6,-0.1,4380,3403,,,,,,,,,,,,,,,,,
9206,1469914041179,,,,,,,0.12,0.97,0.88,-21.5,-0.0,-0.5,4320,3433,,,,,,,,,,,,,,,,,
9226,1469914041199,,,,,,,0.08,0.9,0.96,-21.3,0.8,-0.2,4340,3433,,,,,,,,,,,,,,,,,
9246,1469914041220,0,237.1,190.2,57,191.7,,0.09,0.85,0.99,-20.9,1.1,-0.3,4360,3464,1.293,3,39.536087,-122.326927,59.81,0.074,287.8,10,2,1.4,0,0.0,-1,0.0,0.0,0.0,0
9266,1469914041240,,,,,,,0.07,0.9,1.04,-20.9,1.6,-0.1,4480,3418,,,,,,,,,,,,,,,,,
9286,1469914041260,,,,,,,0.1,0.88,1.07,-21.0,2.1,-0.2,4280,3480,,,,,,,,,,,,,,,,,
9306,1469914041280,,,,,,,0.11,0.96,0.98,-21.3,1.8,-0.2,4420,3433,,,,,,,,,,,,,,,,,
9326,1469914041300,,,,,,,0.12,0.97,0.98,-21.4,0.9,-0.2,4420,3372,,,,,,,,,,,,,,,,,
9346,1469914041320,,,,45,,,0.08,0.98,0.97,-21.7,0.9,0.0,4280,3418,1.299,3,39.536106,-122.326904,59.63,0.075,287.7,10,2,1.4,0,0.0,-1,0.0,,0.0,0
9366,1469914041340,,,,,,,0.06,0.97,0.91,-21.6,1.3,-0.0,4200,3418,,,,,,,,,,,,,,,,,
9386,1469914041360,,,,,,,0.06,0.93,0.94,-21.6,0.9,0.4,4360,3403,,,,,,,,,,,,,,,,,
9406,1469914041380,,,,,,,0.01,0.96,0.96,-21.6,0.9,0.5,4380,3387,,,,,,,,,,,,,,,,,
9426,1469914041400,,,,,,,0.02,0.99,0.95,-21.1,1.8,0.3,4460,3418,,,,,,,,,,,,,,,,,
9446,1469914041418,5,236.8,189.4,46,191.2,,0.01,0.98,0.97,-20.8,1.7,0.2,4360,3418,1.269,3,39.536125,-122.326874,59.42,0.077,287.7,10,2,1.4,0,0.0,-1,0.0,0.0,0.0,0
9466,1469914041438,,,,,,,0.03,1.0,1.05,-20.2,2.6,0.2,4420,3433,,,,,,,,,,,,,,,,,
9486,1469914041458,,,,,,,0.05,1.01,1.03,-20.1,3.2,0.3,4280,3403,,,,,,,,,,,,,,,,,
9506,1469914041478,,,,,,,0.05,0.96,1.07,-20.0,2.8,-0.1,4420,3418,,,,,,,,,,,,,,,,,
9526,1469914041501,,,,,,,-0.0,0.98,1.07,-19.9,2.6,-0.0,4320,3403,,,,,,,,,,,,,,,,,
9546,1469914041521,,,,44,,,0.02,0.97,1.06,-19.7,1.3,-0.1,4320,3403,1.258,3,39.53614,-122.326859,59.36,0.079,287.6,10,2,1.4,0,0.0,-1,0.0,,0.0,0
9566,1469914041541,,,,,,,0.04,0.9,1.13,-19.4,1.0,-0.1,4280,3358,,,,,,,,,,,,,,,,,
9586,1469914041561,,,,,,,0.04,0.84,1.13,-19.0,1.5,-0.1,4320,3387,,,,,,,,,,,,,,,,,
9606,1469914041581,,,,,,,0.04,0.82,1.13,-18.7,2.0,-0.2,4260,3418,,,,,,,,,,,,,,,,,
9626,1469914041591,,,,,,,0.06,0.83,1.09,-18.7,2.4,-0.0,4380,3372,,,,,,,,,,,,,,,,,
9646,1469914041710,0,236.7,189.8,40,191.3,,0.08,0.83,1.09,-18.4,2.0,-0.4,4320,3387,1.27,3,39.536179,-122.32682,59.54,0.082,287.5,10,2,1.4,0,0.0,-1,0.0,0.0,0.0,0
9666,1469914041730,,,,,,,0.05,0.85,1.0,-18.8,2.2,-0.5,4300,3403,,,,,,,,,,,,,,,,,
9686,1469914041750,,,,,,,0.07,0.86,0.92,-18.9,0.2,-0.4,4200,3387,,,,,,,,,,,,,,,,,
9706,1469914041770,,,,,,,0.04,0.83,0.89,-18.9,0.7,-0.1,4200,3358,,,,,,,,,,,,,,,,,
9726,1469914041790,,,,,,,0.04,0.89,0.87,-18.8,-0.3,-0.3,4260,3372,,,,,,,,,,,,,,,,,
9746,1469914041810,,,,46,,,0.06,0.85,0.85,-18.7,-0.4,-0.5,4340,3387,1.293,3,39.536179,-122.32682,59.54,0.082,287.5,10,2,1.4,0,0.0,-1,0.0,,0.0,0
9766,1469914041830,,,,,,,0.03,0.82,0.85,-18.6,-1.1,-0.6,4320,3343,,,,,,,,,,,,,,,,,
9786,1469914041850,,,,,,,0.04,0.84,0.81,-18.4,-1.0,-0.8,4200,3372,,,,,,,,,,,,,,,,,
9806,1469914041870,,,,,,,0.06,0.84,0.78,-18.4,-0.9,-0.8,4300,3372,,,,,,,,,,,,,,,,,
9826,1469914041793,,,,,,,0.09,0.8,0.79,-18.4,-2.2,-1.0,4280,3358,,,,,,,,,,,,,,,,,
9846,1469914041813,0,237.1,189.2,71,190.8,,0.09,0.8,0.76,-18.7,-2.1,-0.7,4160,3343,1.269,3,39.536198,-122.326798,59.31,0.084,287.4,10,2,1.4,0,0.0,-1,0.0,0.0,0.0,0
9866,1469914041833,,,,,,,0.12,0.84,0.76,-18.9,-2.7,-1.0,4220,3358,,,,,,,,,,,,,,,,,
9886,1469914041853,,,,,,,0.12,0.83,0.8,-19.2,-3.0,-1.0,4260,3358,,,,,,,,,,,,,,,,,
9906,1469914041873,,,,,,,0.08,0.8,0.78,-19.4,-2.8,-0.5,4260,3372,,,,,,,,,,,,,,,,,
9926,1469914041893,,,,,,,0.09,0.81,0.81,-19.2,-2.6,-0.4,4200,3358,,,,,,,,,,,,,,,,,
9946,1469914041901,,,,57,,,0.09,0.81,0.78,-19.6,-1.5,0.1,4200,3372,1.281,3,39.536221,-122.326782,59.17,0.086,287.3,10,2,1.4,0,0.0,-1,0.0,,0.0,0
9966,1469914041921,,,,,,,0.15,0.84,0.76,-19.6,-2.4,0.3,4340,3372,,,,,,,,,,,,,,,,,
9986,1469914041941,,,,,,,0.12,0.79,0.83,-20.1,-1.6,0.8,4280,3358,,,,,,,,,,,,,,,,,
10006,1469914041961,,,,,,,0.09,0.8,0.85,-20.2,-1.8,0.8,4320,3418,,,,,,,,,,,,,,,,,
10026,1469914041993,,,,,,,0.1,0.72,0.79,-20.0,-2.4,0.6,4260,3387,,,,,,,,,,,,,,,,,
10046,1469914042013,0,237.1,189.6,76,191.2,13.91,0.09,0.7,0.85,-19.9,-1.8,0.7,4240,3358,1.281,3,39.53624,-122.326775,59.28,0.087,287.2,10,2,1.4,0,0.0,-1,0.0,0.0,0.0,0
10066,1469914042033,,,,,,,0.1,0.73,0.86,-19.7,-1.1,0.5,4300,3403,,,,,,,,,,,,,,,,,
10086,1469914042053,,,,,,,0.11,0.78,0.81,-20.0,-2.1,0.2,4280,3387,,,,,,,,,,,,,,,,,
10106,1469914042073,,,,,,,0.1,0.79,0.79,-20.1,-2.4,-0.3,4360,3372,,,,,,,,,,,,,,,,,
10126,1469914042092,,,,,,,0.09,0.8,0.73,-20.3,-1.8,-0.2,4300,3358,,,,,,,,,,,,,,,,,
10146,1469914042112,,,,44,,,0.13,0.84,0.77,-20.4,-1.7,-0.7,4240,3387,1.246,3,39.536262,-122.326759,59.09,0.089,287.0,10,2,1.4,0,0.0,-1,0.0,,0.0,0
10166,1469914042132,,,,,,,0.09,0.8,0.8,-20.4,-1.5,-0.5,4280,3387,,,,,,,,,,,,,,,,,
10186,1469914042152,,,,,,,0.04,0.81,0.78,-20.4,-1.4,-0.2,4300,3372,,,,,,,,,,,,,,,,,
10206,1469914042172,,,,,,,0.04,0.82,0.81,-19.9,-1.5,-0.6,4280,3372,,,,,,,,,,,,,,,,,
10226,1469914042193,,,,,,,0.04,0.78,0.84,-19.6,-1.7,-0.9,4260,3372,,,,,,,,,,,,,,,,,
10246,1469914042213,0,236.9,189.4,52,191.8,,0.03,0.64,0.92,-19.2,-0.6,-1.0,4260,3372,1.31,3,39.536282,-122.326736,58.91,0.091,286.9,10,2,1.4,0,0.0,-1,0.0,0.0,0.0,0
10266,1469914042233,,,,,,,0.03,0.71,0.88,-19.4,-0.4,-0.6,4240,3372,,,,,,,,,,,,,,,,,
10286,1469914042253,,,,,,,0.05,0.71,0.89,-19.3,-0.4,-0.6,4120,3372,,,,,,,,,,,,,,,,,
10306,1469914042273,,,,,,,0.01,0.71,0.91,-19.2,-0.4,-0.6,4240,3372,,,,,,,,,,,,,,,,,
10326,1469914042292,,,,,,,-0.01,0.73,0.91,-19.3,-0.3,-1.1,4400,3418,,,,,,,,,,,,,,,,,
10346,1469914042312,,,,82,,,-0.01,0.73,0.94,-19.1,-0.2,-0.8,4360,3387,1.281,3,39.536304,-122.326721,58.99,0.092,286.6,10,2,1.4,0,0.0,-1,0.0,,0.0,0
10366,1469914042332,,,,,,,-0.01,0.7,1.02,-19.0,-0.5,-0.5,4280,3372,,,,,,,,,,,,,,,,,
10386,1469914042352,,,,,,,-0.02,0.76,1.08,-18.5,1.0,-1.1,4340,3358,,,,,,,,,,,,,,,,,
10406,1469914042372,,,,,,,-0.01,0.74,1.06,-18.4,1.9,-1.0,4160,3418,,,,,,,,,,,,,,,,,
10426,1469914042491,,,,,,,0.01,0.78,1.1,-18.6,1.3,-1.1,4140,3372,,,,,,,,,,,,,,,,,
10446,1469914042511,1,236.7,189.0,52,193.1,,-0.01,0.77,1.08,-18.7,1.1,-1.0,4340,3372,1.264,3,39.536346,-122.326706,58.76,0.096,286.2,10,2,2.2,0,0.0,-1,0.0,0.0,0.0,0
10466,1469914042531,,,,,,,-0.01,0.82,1.06,-18.6,0.9,-1.2,4380,3387,,,,,,,,,,,,,,,,,
10486,1469914042551,,,,,,,-0.03,0.8,1.08,-18.4,-0.1,-1.2,4440,3372,,,,,,,,,,,,,,,,,
10506,1469914042571,,,,,,,-0.04,0.73,1.08,-18.0,-0.4,-0.8,4160,3372,,,,,,,,,,,,,,,,,
10526,1469914042591,,,,,,,-0.02,0.73,1.15,-17.7,1.3,-0.9,4280,3372,,,,,,,,,,,,,,,,,
10546,1469914042611,,,,38,,,0.02,0.74,1.18,-17.7,2.4,-0.8,4220,3387,1.234,3,39.536346,-122.326706,58.76,0.096,286.2,10,2,2.2,0,0.0,-1,0.0,,0.0,0
10566,1469914042631,,,,,,,0.07,0.72,1.16,-17.6,1.9,-0.9,4420,3418,,,,,,,,,,,,,,,,,
10586,1469914042651,,,,,,,0.05,0.74,1.17,-17.9,2.1,-0.5,4340,3387,,,,,,,,,,,,,,,,,
10606,1469914042671,,,,,,,0.07,0.83,1.13,-18.1,0.9,-0.6,4340,3372,,,,,,,,,,,,,,,,,
10626,1469914042592,,,,,,,0.05,0.82,1.16,-18.1,1.0,-0.3,4300,3387,,,,,,,,,,,,,,,,,
10646,1469914042612,0,237.1,189.1,85,192.0,,0.04,0.75,1.16,-18.0,0.3,0.2,4220,3387,1.245,3,39.536369,-122.326698,58.92,0.097,286.0,10,2,2.2,0,0.0,-1,0.0,0.0,0.0,0
10666,1469914042632,,,,,,,-0.0,0.74,1.21,-17.7,0.5,-0.1,4320,3387,,,,,,,,,,,,,,,,,
10686,1469914042652,,,,,,,0.02,0.76,1.22,-17.7,0.3,0.1,4360,3343,,,,,,,,,,,,,,,,,
10706,1469914042672,,,,,,,0.01,0.75,1.27,-17.5,0.2,-0.0,4260,3372,,,,,,,,,,,,,,,,,
10726,1469914042691,,,,,,,-0.01,0.77,1.21,-17.5,0.2,0.1,4240,3387,,,,,,,,,,,,,,,,,
10746,1469914042711,,,,40,,,-0.01,0.79,1.18,-17.8,0.5,0.2,4220,3372,1.234,3,39.536392,-122.326683,58.86,0.099,285.8,10,2,2.2,0,0.0,-1,0.0,,0.0,0
10766,1469914042731,,,,,,,0.03,0.8,1.18,-18.0,0.3,0.5,4260,3358,,,,,,,,,,,,,,,,,
10786,1469914042751,,,,,,,0.0,0.76,1.2,-17.9,0.7,0.5,4220,3343,,,,,,,,,,,,,,,,,
10806,1469914042771,,,,,,,-0.02,0.81,1.24,-17.9,1.6,0.3,4240,3358,,,,,,,,,,,,,,,,,
10826,1469914042793,,,,,,,0.01,0.82,1.24,-18.1,1.5,0.5,4160,3358,,,,,,,,,,,,,,,,,
10846,1469914042813,1,237.4,189.9,52,191.0,,0.01,0.8,1.28,-18.3,0.6,0.2,4260,3343,1.263,3,39.536415,-122.326668,59.07,0.101,285.7,10,2,2.2,0,0.0,-1,0.0,0.0,0.0,0
10866,1469914042833,,,,,,,0.02,0.75,1.31,-18.5,1.1,0.4,4300,3300,,,,,,,,,,,,,,,,,
10886,1469914042853,,,,,,,0.02,0.78,1.28,-18.8,0.6,0.2,4180,3372,,,,,,,,,,,,,,,,,
10906,1469914042873,,,,,,,0.05,0.78,1.25,-18.6,0.2,0.5,4260,3387,,,,,,,,,,,,,,,,,
10926,1469914042893,,,,,,,0.05,0.74,1.24,-18.4,0.1,0.6,4220,3343,,,,,,,,,,,,,,,,,
10946,1469914042908,,,,59,,,0.06,0.75,1.24,-18.3,0.5,0.3,4280,3358,1.292,3,39.536434,-122.32666,59.09,0.102,285.6,10,2,2.2,0,0.0,-1,0.0,,0.0,0
10966,1469914042928,,,,,,,0.05,0.72,1.19,-18.5,0.6,0.1,4340,3387,,,,,,,,,,,,,,,,,
10986,1469914042948,,,,,,,0.08,0.72,1.19,-18.6,-0.4,0.0,4300,3372,,,,,,,,,,,,,,,,,
11006,1469914042968,,,,,,,0.03,0.77,1.17,-19.0,-1.1,0.6,4220,3358,,,,,,,,,,,,,,,,,
11026,1469914042993,,,,,,,0.04,0.77,1.14,-18.9,-1.4,0.5,4240,3358,,,,,,,,,,,,,,,,,
11046,1469914043013,0,235.9,188.2,46,193.1,13.7,0.06,0.77,1.19,-18.8,-1.0,0.3,4220,3358,1.292,3,39.536457,-122.32666,59.26,0.104,285.5,10,2,2.2,0,0.0,-1,0.0,0.0,0.0,0
11066,1469914043033,,,,,,,0.02,0.77,1.2,-19.0,-0.3,0.4,4300,3372,,,,,,,,,,,,,,,,,
11086,1469914043053,,,,,,,0.02,0.78,1.21,-19.0,1.0,0.5,4260,3343,,,,,,,,,,,,,,,,,
11106,1469914043073,,,,,,,0.04,0.8,1.21,-19.2,1.0,0.5,4280,3343,,,,,,,,,,,,,,,,,
11126,1469914043093,,,,,,,0.05,0.79,1.2,-19.4,1.5,0.1,4200,3358,,,,,,,,,,,,,,,,,
11146,1469914043113,,,,81,,,0.02,0.8,1.17,-19.7,1.4,0.0,4220,3343,1.262,3,39.536484,-122.326645,58.9,0.106,285.5,10,2,2.2,0,0.0,-1,0.0,,0.0,0
11166,1469914043133,,,,,,,0.01,0.73,1.14,-19.9,0.5,0.3,4340,3343,,,,,,,,,,,,,,,,,
11186,1469914043153,,,,,,,-0.01,0.81,1.14,-19.7,0.3,0.1,4240,3358,,,,,,,,,,,,,,,,,
11206,1469914043173,,,,,,,0.01,0.78,1.14,-19.5,-0.1,0.3,4280,3315,,,,,,,,,,,,,,,,,
11226,1469914043292,,,,,,,-0.01,0.75,1.11,-19.2,0.2,0.1,4300,3329,,,,,,,,,,,,,,,,,
11246,1469914043312,0,237.3,190.1,51,191.0,,-0.02,0.78,1.05,-19.4,0.8,0.2,4320,3372,1.222,3,39.53653,-122.32663,58.71,0.109,285.3,10,2,2.2,0,0.0,-1,0.0,0.0,0.0,0
11266,1469914043332,,,,,,,-0.01,0.79,1.04,-19.4,0.6,0.1,4280,3372,,,,,,,,,,,,,,,,,
11286,1469914043352,,,,,,,-0.0,0.77,1.01,-19.7,0.6,0.3,4300,3343,,,,,,,,,,,,,,,,,
11306,1469914043372,,,,,,,-0.04,0.72,1.01,-19.7,1.0,0.7,4300,3343,,,,,,,,,,,,,,,,,
11326,1469914043392,,,,,,,-0.06,0.75,0.99,-19.5,1.1,0.3,4440,3403,,,,,,,,,,,,,,,,,
11346,1469914043412,,,,44,,,-0.04,0.79,0.99,-19.3,-0.1,0.3,4300,3358,1.275,3,39.53653,-122.32663,58.71,0.109,285.3,10,2,2.2,0,0.0,-1,0.0,,0.0,0
11366,1469914043432,,,,,,,0.0,0.77,0.99,-19.1,-0.5,-0.0,4320,3343,,,,,,,,,,,,,,,,,
11386,1469914043452,,,,,,,-0.0,0.83,0.99,-19.4,0.6,-0.0,4240,3343,,,,,,,,,,,,,,,,,
11406,1469914043472,,,,,,,0.02,0.83,0.96,-19.5,0.9,-0.4,4140,3372,,,,,,,,,,,,,,,,,
11426,1469914043391,,,,,,,0.03,0.85,0.95,-19.6,0.3,-0.3,4260,3372,,,,,,,,,,,,,,,,,
11446,1469914043411,1,237.3,189.8,63,191.7,,-0.01,0.85,0.9,-19.6,0.2,-0.2,4440,3358,1.299,3,39.536552,-122.32663,58.63,0.111,285.3,10,2,2.2,0,0.0,-1,0.0,0.0,0.0,0
11466,1469914043431,,,,,,,-0.02,0.89,0.9,-19.2,0.8,-0.3,4320,3343,,,,,,,,,,,,,,,,,
11486,1469914043451,,,,,,,0.0,0.85,0.88,-19.0,0.8,-0.3,4300,3372,,,,,,,,,,,,,,,,,
11506,1469914043471,,,,,,,-0.0,0.79,0.87,-19.0,0.3,-0.5,4300,3372,,,,,,,,,,,,,,,,,
11526,1469914043491,,,,,,,-0.03,0.83,0.88,-19.5,0.4,-0.2,4100,3343,,,,,,,,,,,,,,,,,
11546,1469914043511,,,,37,,,0.01,0.87,0.87,-19.4,-0.5,-0.4,4140,3358,1.238,3,39.536575,-122.32663,58.57,0.112,285.2,10,2,2.2,0,0.0,-1,0.0,,0.0,0
11566,1469914043531,,,,,,,-0.01,0.84,0.89,-19.2,-0.2,-0.8,4320,3343,,,,,,,,,,,,,,,,,
11586,1469914043551,,,,,,,-0.01,0.78,0.86,-19.1,-0.2,-0.8,4440,3358,,,,,,,,,,,,,,,,,
11606,1469914043571,,,,,,,0.03,0.83,0.85,-18.8,-0.4,-0.9,4380,3372,,,,,,,,,,,,,,,,,
11626,1469914043591,,,,,,,0.06,0.85,0.8,-18.9,-0.9,-0.7,4320,3358,,,,,,,,,,,,,,,,,
11646,1469914043611,0,237.5,190.2,78,191.6,,0.07,0.86,0.79,-18.9,-1.7,-1.2,4360,3343,1.298,3,39.536598,-122.326622,58.74,0.114,285.0,10,2,2.5,0,0.0,-1,0.0,0.0,0.0,0
11666,1469914043631,,,,,,,0.05,0.84,0.76,-19.2,-1.5,-1.0,4160,3358,,,,,,,,,,,,,,,,,
11686,1469914043651,,,,,,,0.04,0.87,0.77,-19.4,-1.8,-0.9,4120,3372,,,,,,,,,,,,,,,,,
11706,1469914043671,,,,,,,0.03,0.88,0.82,-19.6,-2.0,-0.8,4360,3358,,,,,,,,,,,,,,,,,
11726,1469914043692,,,,,,,0.0,0.87,0.85,-19.9,-2.0,-0.7,4340,3329,,,,,,,,,,,,,,,,,
11746,1469914043712,,,,46,,,0.0,0.85,0.91,-19.9,-1.0,-1.1,4420,3358,1.28,3,39.536625,-122.326622,58.6,0.116,285.0,10,2,2.5,0,0.0,-1,0.0,,0.0,0
11766,1469914043732,,,,,,,-0.01,0.91,0.85,-20.3,-1.0,-0.8,4300,3372,,,,,,,,,,,,,,,,,
11786,1469914043752,,,,,,,0.05,0.97,0.83,-20.3,-2.0,-1.3,4340,3372,,,,,,,,,,,,,,,,,
11806,1469914043772,,,,,,,0.06,1.04,0.83,-20.7,-1.1,-1.2,4200,3343,,,,,,,,,,,,,,,,,
11826,1469914043793,,,,,,,0.05,1.04,0.87,-20.5,-1.2,-1.1,4200,3372,,,,,,,,,,,,,,,,,
11846,1469914043813,0,237.5,190.1,41,190.9,,0.03,0.94,0.91,-20.4,-0.1,-1.1,4220,3387,1.262,3,39.536648,-122.326622,58.69,0.117,284.9,10,2,2.5,0,0.0,-1,0.0,0.0,0.0,0
11866,1469914043833,,,,,,,0.02,0.94,0.98,-20.3,-0.0,-0.8,4020,3358,,,,,,,,,,,,,,,,,
11886,1469914043853,,,,,,,0.03,0.9,1.02,-19.9,-0.3,-0.8,4360,3315,,,,,,,,,,,,,,,,,
11906,1469914043873,,,,,,,-0.0,0.89,1.02,-20.1,1.0,-0.8,4240,3372,,,,,,,,,,,,,,,,,
11926,1469914043893,,,,,,,-0.0,0.9,1.03,-20.0,0.4,-1.1,4340,3372,,,,,,,,,,,,,,,,,
11946,1469914043908,,,,76,,,0.0,0.84,1.01,-19.9,0.7,-0.4,4100,3343,1.197,3,39.536671,-122.326622,58.55,0.119,284.9,10,2,2.5,0,0.0,-1,0.0,,0.0,0
11966,1469914043928,,,,,,,0.02,0.85,0.98,-19.9,0.8,-0.0,4120,3358,,,,,,,,,,,,,,,,,
11986,1469914043948,,,,,,,0.03,0.85,0.95,-19.7,2.4,-0.1,4280,3358,,,,,,,,,,,,,,,,,
12006,1469914043968,,,,,,,0.02,0.82,0.95,-19.3,3.0,-0.1,4060,3358,,,,,,,,,,,,,,,,,
12026,1469914044092,,,,,,,0.04,0.84,0.99,-19.1,2.9,-0.5,4300,3358,,,,,,,,,,,,,,,,,
12046,1469914044112,0,236.9,190.2,37,192.3,13.93,0.03,0.84,0.98,-19.3,2.7,-0.4,4180,3358,1.269,3,39.536716,-122.326622,58.7,0.122,284.8,10,2,2.5,0,0.0,-1,0.0,0.0,0.0,0
12066,1469914044132,,,,,,,0.07,0.86,1.01,-19.2,2.0,-0.7,4340,3343,,,,,,,,,,,,,,,,,
12086,1469914044152,,,,,,,0.09,0.84,1.02,-19.3,2.2,-0.5,4260,3358,,,,,,,,,,,,,,,,,
12106,1469914044172,,,,,,,0.06,0.84,1.0,-19.2,1.2,-0.4,4200,3343,,,,,,,,,,,,,,,,,
12126,1469914044192,,,,,,,0.07,0.89,1.02,-19.1,1.6,-0.5,4320,3358,,,,,,,,,,,,,,,,,
12146,1469914044212,,,,70,,,0.09,0.87,1.03,-19.0,1.4,-0.0,4160,3343,1.298,3,39.536716,-122.326622,58.7,0.122,284.8,10,2,2.5,0,0.0,-1,0.0,,0.0,0
12166,1469914044232,,,,,,,0.06,0.83,1.04,-18.9,1.9,-0.6,4340,3372,,,,,,,,,,,,,,,,,
12186,1469914044252,,,,,,,0.02,0.85,0.98,-19.3,2.3,-0.4,4320,3387,,,,,,,,,,,,,,,,,
12206,1469914044272,,,,,,,0.03,0.9,0.99,-19.3,0.6,-0.3,4420,3372,,,,,,,,,,,,,,,,,
12226,1469914044193,,,,,,,0.04,0.89,1.0,-19.5,-0.1,-0.2,4480,3329,,,,,,,,,,,,,,,,,
12246,1469914044213,1,237.7,190.5,46,191.7,,0.03,0.85,1.01,-19.1,-0.6,-0.2,4160,3358,1.24,3,39.536739,-122.32663,58.81,0.124,284.7,10,2,2.5,0,0.0,-1,0.0,0.0,0.0,0
12266,1469914044233,,,,,,,0.04,0.84,1.06,-18.8,-0.1,-0.3,4300,3387,,,,,,,,,,,,,,,,,
12286,1469914044253,,,,,,,0.03,0.84,1.04,-18.6,-0.1,-0.0,4220,3358,,,,,,,,,,,,,,,,,
12306,1469914044273,,,,,,,0.01,0.87,1.02,-18.6,-0.4,-0.4,4460,3343,,,,,,,,,,,,,,,,,
12326,1469914044293,,,,,,,-0.02,0.91,0.99,-18.8,0.2,-0.5,4320,3358,,,,,,,,,,,,,,,,,
12346,1469914044313,,,,51,,,0.02,0.94,1.02,-18.8,0.1,-0.8,4240,3372,1.328,3,39.536762,-122.32663,58.67,0.125,284.5,10,2,2.5,0,0.0,-1,0.0,,0.0,0
12366,1469914044333,,,,,,,0.0,0.9,1.03,-19.0,-0.0,-0.6,4380,3358,,,,,,,,,,,,,,,,,
12386,1469914044353,,,,,,,0.02,0.88,1.09,-18.9,0.8,-0.6,4180,3358,,,,,,,,,,,,,,,,,
12406,1469914044373,,,,,,,0.02,0.86,1.14,-18.7,2.6,-0.9,4280,3358,,,,,,,,,,,,,,,,,
12426,1469914044393,,,,,,,0.05,0.86,1.14,-18.6,2.6,-0.8,4180,3387,,,,,,,,,,,,,,,,,
12446,1469914044408,2,237.3,190.0,56,192.0,,0.08,0.82,1.12,-18.4,2.4,-1.2,4180,3372,1.304,3,39.536789,-122.32663,58.72,0.127,284.4,10,2,2.5,0,0.0,-1,0.0,0.0,0.0,0
12466,1469914044428,,,,,,,0.06,0.87,1.04,-18.3,2.3,-1.1,4300,3372,,,,,,,,,,,,,,,,,
12486,1469914044448,,,,,,,0.08,0.9,1.04,-18.5,1.5,-1.1,4400,3372,,,,,,,,,,,,,,,,,
12506,1469914044468,,,,,,,0.07,0.91,1.07,-18.9,1.4,-0.6,4420,3387,,,,,,,,,,,,,,,,,
12526,1469914044491,,,,,,,0.03,0.86,1.06,-19.0,1.7,-0.3,4120,3387,,,,,,,,,,,,,,,,,
12546,1469914044511,,,,78,,,0.04,0.86,1.1,-18.8,1.4,-0.4,4360,3387,1.258,3,39.536812,-122.326645,58.83,0.129,284.3,10,2,2.5,0,0.0,-1,0.0,,0.0,0
12566,1469914044531,,,,,,,0.03,0.83,1.18,-18.9,0.8,0.0,4240,3358,,,,,,,,,,,,,,,,,
12586,1469914044551,,,,,,,0.02,0.88,1.12,-18.9,0.6,-0.0,4460,3387,,,,,,,,,,,,,,,,,
12606,1469914044571,,,,,,,0.0,0.91,1.05,-19.3,0.1,0.5,4260,3418,,,,,,,,,,,,,,,,,
12626,1469914044591,,,,,,,0.03,0.94,1.05,-19.6,-0.4,0.7,4440,3372,,,,,,,,,,,,,,,,,
12646,1469914044611,0,237.5,189.8,67,191.3,,0.02,0.9,1.04,-19.9,-0.1,0.7,4280,3387,1.252,3,39.536831,-122.326645,58.79,0.13,284.2,10,2,2.5,0,0.0,-1,0.0,0.0,0.0,0
12666,1469914044631,,,,,,,0.01,0.91,1.03,-19.8,0.2,0.7,4220,3418,,,,,,,,,,,,,,,,,
12686,1469914044651,,,,,,,0.0,0.87,1.05,-20.1,0.3,1.1,4320,3403,,,,,,,,,,,,,,,,,
12706,1469914044671,,,,,,,-0.0,0.83,1.01,-20.2,-0.5,1.3,4420,3372,,,,,,,,,,,,,,,,,
12726,1469914044691,,,,,,,-0.0,0.84,1.04,-19.9,-0.5,1.0,4360,3387,,,,,,,,,,,,,,,,,
12746,1469914044711,,,,55,,,0.04,0.86,1.0,-20.1,-1.1,1.2,4320,3433,1.281,3,39.536854,-122.32666,59.05,0.132,284.2,10,2,2.5,0,0.0,-1,0.0,,0.0,0
12766,1469914044731,,,,,,,0.05,0.85,0.97,-20.0,-2.1,1.1,4280,3418,,,,,,,,,,,,,,,,,
12786,1469914044751,,,,,,,0.02,0.88,0.95,-20.3,-1.7,1.2,4140,3403,,,,,,,,,,,,,,,,,
12806,1469914044771,,,,,,,0.0,0.87,0.97,-20.4,-2.2,0.8,4240,3418,,,,,,,,,,,,,,,,,
12826,1469914044893,,,,,,,-0.06,0.88,0.95,-20.9,-1.9,0.7,4360,3418,,,,,,,,,,,,,,,,,
12846,1469914044913,0,237.5,190.2,83,191.5,,-0.08,0.91,0.99,-21.2,-2.5,0.9,4420,3433,1.317,3,39.536903,-122.326668,59.06,0.135,284.0,10,2,2.5,0,0.0,-1,0.0,0.0,0.0,0
12866,1469914044933,,,,,,,-0.06,0.89,1.08,-21.1,-1.6,1.1,4340,3387,,,,,,,,,,,,,,,,,
12886,1469914044953,,,,,,,-0.06,0.86,1.06,-21.0,-1.2,1.5,4240,3418,,,,,,,,,,,,,,,,,
12906,1469914044973,,,,,,,-0.05,0.89,1.07,-21.1,0.5,1.5,4400,3433,,,,,,,,,,,,,,,,,
12926,1469914044993,,,,,,,-0.03,0.91,1.04,-21.3,1.2,1.7,4240,3403,,,,,,,,,,,,,,,,,
12946,1469914045013,,,,83,,,-0.07,0.96,1.0,-21.1,2.3,1.3,4460,3403,1.27,3,39.536903,-122.326668,59.06,0.135,284.0,10,2,2.5,0,0.0,-1,0.0,,0.0,0
12966,1469914045033,,,,,,,-0.11,0.98,0.97,-21.1,3.5,1.3,4360,3449,,,,,,,,,,,,,,,,,
12986,1469914045053,,,,,,,-0.04,0.98,0.99,-21.0,2.5,1.1,4480,3418,,,,,,,,,,,,,,,,,
13006,1469914045073,,,,,,,-0.04,0.96,1.01,-21.6,2.6,1.6,4320,3403,,,,,,,,,,,,,,,,,
13026,1469914044993,,,,,,,-0.03,1.03,1.04,-21.9,2.3,1.5,4280,3433,,,,,,,,,,,,,,,,,
13046,1469914045013,0,237.7,190.2,57,191.7,13.92,-0.01,0.99,1.03,-22.0,1.6,1.4,4380,3449,1.305,3,39.536926,-122.326683,59.44,0.137,283.9,10,2,2.5,0,0.0,-1,0.0,0.0,0.0,0
13066,1469914045033,,,,,,,-0.05,1.04,1.02,-21.9,0.5,1.4,4520,3449,,,,,,,,,,,,,,,,,
13086,1469914045053,,,,,,,-0.04,1.03,1.0,-22.0,0.7,1.3,4520,3418,,,,,,,,,,,,,,,,,
13106,1469914045073,,,,,,,-0.05,0.97,0.97,-21.7,0.4,1.2,4240,3433,,,,,,,,,,,,,,,,,
13126,1469914045093,,,,,,,-0.06,0.95,1.02,-21.6,0.1,1.1,4460,3449,,,,,,,,,,,,,,,,,
13146,1469914045113,,,,37,,,-0.06,0.97,1.07,-21.7,-0.2,1.4,4340,3418,1.241,3,39.536949,-122.326698,59.51,0.139,283.8,10,2,2.5,0,0.0,-1,0.0,,0.0,0
13166,1469914045133,,,,,,,-0.07,0.98,1.08,-21.4,-1.0,0.9,4540,3418,,,,,,,,,,,,,,,,,
13186,1469914045153,,,,,,,-0.11,0.96,1.03,-21.7,-0.5,0.9,4380,3464,,,,,,,,,,,,,,,,,
13206,1469914045173,,,,,,,-0.08,0.96,1.03,-21.8,-0.8,0.7,4540,3449,,,,,,,,,,,,,,,,,
13226,1469914045194,,,,,,,-0.1,1.01,1.01,-21.8,1.1,0.7,4180,3433,,,,,,,,,,,,,,,,,
13246,1469914045214,0,236.8,188.9,82,190.7,,-0.09,0.99,1.05,-21.7,1.2,0.6,4240,3464,1.241,3,39.536968,-122.326706,59.62,0.14,283.8,10,2,2.5,0,0.0,-1,0.0,0.0,0.0,0
13266,1469914045234,,,,,,,-0.13,0.93,1.03,-21.9,1.8,0.7,4420,3449,,,,,,,,,,,,,,,,,
13286,1469914045254,,,,,,,-0.11,0.97,1.02,-21.8,0.8,0.4,4560,3433,,,,,,,,,,,,,,,,,
13306,1469914045274,,,,,,,-0.08,0.96,1.05,-21.6,2.2,0.6,4560,3433,,,,,,,,,,,,,,,,,
13326,1469914045293,,,,,,,-0.08,0.95,1.0,-21.2,2.7,0.9,4240,3464,,,,,,,,,,,,,,,,,
13346,1469914045313,,,,41,,,-0.02,0.94,1.02,-21.0,3.7,0.9,4460,3449,1.27,3,39.536991,-122.326721,59.83,0.142,283.8,10,2,2.5,0,0.0,-1,0.0,,0.0,0
13366,1469914045333,,,,,,,-0.02,0.87,1.0,-21.0,3.7,1.2,4520,3449,,,,,,,,,,,,,,,,,
13386,1469914045353,,,,,,,-0.01,0.88,1.06,-20.6,4.3,0.5,4500,3495,,,,,,,,,,,,,,,,,
13406,1469914045373,,,,,,,-0.05,0.85,1.07,-20.4,3.3,0.8,4400,3449,,,,,,,,,,,,,,,,,
13426,1469914045391,,,,,,,-0.02,0.88,1.14,-19.9,2.5,0.3,4380,3418,,,,,,,,,,,,,,,,,
13446,1469914045411,0,238.1,190.5,71,191.7,,-0.01,0.81,1.12,-19.9,2.3,0.2,4380,3464,1.253,3,39.53701,-122.326736,59.83,0.144,283.7,10,2,2.5,0,0.0,-1,0.0,0.0,0.0,0
13466,1469914045431,,,,,,,0.01,0.8,1.12,-20.1,0.8,-0.1,4500,3464,,,,,,,,,,,,,,,,,
13486,1469914045451,,,,,,,0.01,0.89,1.08,-20.4,0.9,-0.1,4360,3464,,,,,,,,,,,,,,,,,
13506,1469914045471,,,,,,,0.02,0.95,1.07,-20.4,0.7,-0.4,4520,3464,,,,,,,,,,,,,,,,,
13526,1469914045491,,,,,,,-0.01,0.91,1.05,-20.6,0.6,-0.5,4180,3480,,,,,,,,,,,,,,,,,
13546,1469914045510,,,,60,,,-0.01,0.91,1.08,-20.6,-0.7,-0.5,4240,3464,1.224,3,39.537033,-122.326744,59.96,0.145,283.5,10,2,2.0,0,0.0,-1,0.0,,0.0,0
13566,1469914045530,,,,,,,-0.07,0.91,1.11,-20.6,-0.5,-0.3,4460,3449,,,,,,,,,,,,,,,,,
13586,1469914045550,,,,,,,-0.1,0.95,1.07,-20.2,-1.0,-0.5,4440,3480,,,,,,,,,,,,,,,,,
13606,1469914045570,,,,,,,-0.08,0.92,1.07,-20.0,-1.5,-0.1,4520,3449,,,,,,,,,,,,,,,,,
13626,1469914045590,,,,,,,-0.12,0.84,1.03,-19.8,-1.7,0.2,4300,3449,,,,,,,,,,,,,,,,,
13646,1469914045709,0,238.2,190.6,43,192.1,,-0.12,0.8,1.1,-19.6,-1.3,-0.0,4400,3480,1.276,3,39.537079,-122.326775,60.17,0.149,283.2,10,2,2.0,0,0.0,-1,0.0,0.0,0.0,0
13666,1469914045729,,,,,,,-0.17,0.81,1.05,-19.5,-1.9,0.2,4520,3495,,,,,,,,,,,,,,,,,
13686,1469914045749,,,,,,,-0.16,0.82,1.07,-19.2,-2.1,0.3,4540,3449,,,,,,,,,,,,,,,,,
13706,1469914045769,,,,,,,-0.22,0.8,1.13,-18.9,-2.1,0.5,4300,3464,,,,,,,,,,,,,,,,,
13726,1469914045789,,,,,,,-0.2,0.79,1.15,-18.9,-1.3,0.2,4400,3495,,,,,,,,,,,,,,,,,
13746,1469914045809,,,,43,,,-0.18,0.76,1.11,-18.9,-0.9,0.3,4220,3464,1.236,3,39.537079,-122.326775,60.17,0.149,283.2,10,2,2.0,0,0.0,-1,0.0,,0.0,0
13766,1469914045829,,,,,,,-0.19,0.77,1.08,-18.8,-0.3,0.0,4440,3495,,,,,,,,,,,,,,,,,
13786,1469914045849,,,,,,,-0.19,0.78,1.07,-18.8,-0.3,0.2,4380,3480,,,,,,,,,,,,,,,,,
13806,1469914045869,,,,,,,-0.19,0.73,1.12,-18.8,-0.1,0.0,4500,3464,,,,,,,,,,,,,,,,,
13826,1469914045791,,,,,,,-0.23,0.81,1.14,-19.1,1.0,-0.1,4300,3480,,,,,,,,,,,,,,,,,
13846,1469914045811,1,237.3,189.3,41,191.2,,-0.18,0.79,1.13,-19.2,0.8,-0.3,4540,3495,1.247,3,39.537098,-122.326798,60.23,0.151,283.3,10,2,1.4,0,0.0,-1,0.0,0.0,0.0,0
13866,1469914045831,,,,,,,-0.18,0.83,1.04,-19.4,1.3,-0.4,4460,3480,,,,,,,,,,,,,,,,,
13886,1469914045851,,,,,,,-0.16,0.82,1.04,-19.5,1.2,-0.7,4420,3495,,,,,,,,,,,,,,,,,
13906,1469914045871,,,,,,,-0.2,0.82,1.01,-19.7,2.7,-0.5,4360,3527,,,,,,,,,,,,,,,,,
13926,1469914045891,,,,,,,-0.15,0.86,1.04,-19.7,1.4,-0.8,4260,3495,,,,,,,,,,,,,,,,,
13946,1469914045905,,,,46,,,-0.13,0.9,1.0,-19.8,1.7,-0.9,4500,3495,1.293,3,39.537117,-122.326813,60.43,0.152,283.2,10,2,1.4,0,0.0,-1,0.0,,0.0,0
13966,1469914045925,,,,,,,-0.06,0.93,0.99,-19.9,0.9,-0.9,4620,3512,,,,,,,,,,,,,,,,,
13986,1469914045945,,,,,,,-0.04,0.98,0.98,-20.1,2.2,-0.2,4280,3480,,,,,,,,,,,,,,,,,
14006,1469914045965,,,,,,,0.0,1.03,0.99,-19.9,1.4,-0.4,4280,3512,,,,,,,,,,,,,,,,,
14026,1469914045985,,,,,,,-0.01,0.96,0.97,-19.5,1.4,0.0,4440,3512,,,,,,,,,,,,,,,,,
14046,1469914046004,0,238.0,190.7,58,192.1,13.85,0.02,0.97,0.99,-19.5,1.0,0.4,4600,3512,1.315,3,39.53714,-122.326836,60.52,0.154,283.2,10,2,1.4,0,0.0,-1,0.0,0.0,0.0,0
14066,1469914046024,,,,,,,0.05,0.98,0.97,-19.4,2.2,0.5,4280,3495,,,,,,,,,,,,,,,,,
14086,1469914046044,,,,,,,0.06,1.0,0.94,-19.0,1.5,0.2,4380,3544,,,,,,,,,,,,,,,,,
14106,1469914046064,,,,,,,0.06,0.94,0.9,-18.9,1.5,0.3,4480,3495,,,,,,,,,,,,,,,,,
14126,1469914046092,,,,,,,0.07,0.97,0.92,-18.7,1.9,0.3,4580,3544,,,,,,,,,,,,,,,,,
14146,1469914046112,,,,48,,,0.08,1.0,0.89,-18.7,2.0,0.5,4340,3527,1.304,3,39.537159,-122.326851,60.67,0.156,283.0,10,2,1.4,0,0.0,-1,0.0,,0.0,0
14166,1469914046132,,,,,,,0.11,1.06,0.89,-18.6,0.3,0.4,4400,3544,,,,,,,,,,,,,,,,,
14186,1469914046152,,,,,,,0.11,1.06,0.92,-19.0,0.1,0.5,4460,3495,,,,,,,,,,,,,,,,,
14206,1469914046172,,,,,,,0.08,1.01,0.91,-19.3,0.1,0.5,4580,3560,,,,,,,,,,,,,,,,,
14226,1469914046192,,,,,,,0.1,1.03,0.88,-18.9,0.6,0.7,4560,3512,,,,,,,,,,,,,,,,,
14246,1469914046212,0,237.9,190.4,76,191.9,,0.07,1.0,0.84,-18.7,1.2,0.4,4400,3544,1.253,3,39.537178,-122.326874,60.91,0.158,283.0,10,2,1.4,0,0.0,-1,0.0,0.0,0.0,0
14266,1469914046232,,,,,,,0.06,0.87,0.85,-18.4,1.1,0.4,4560,3527,,,,,,,,,,,,,,,,,
14286,1469914046252,,,,,,,0.08,0.91,0.9,-18.3,-0.9,-0.1,4540,3527,,,,,,,,,,,,,,,,,
14306,1469914046272,,,,,,,0.09,0.93,0.95,-18.0,-1.3,-0.2,4660,3527,,,,,,,,,,,,,,,,,
14326,1469914046292,,,,,,,0.08,0.91,0.93,-17.7,-1.5,-0.1,4380,3576,,,,,,,,,,,,,,,,,
14346,1469914046312,,,,40,,,0.16,0.87,0.91,-17.8,-1.3,0.0,4460,3527,1.275,3,39.537197,-122.326889,61.15,0.159,282.9,10,2,1.4,0,0.0,-1,0.0,,0.0,0
14366,1469914046332,,,,,,,0.1,0.89,0.86,-17.7,-1.7,0.0,4720,3560,,,,,,,,,,,,,,,,,
14386,1469914046352,,,,,,,0.07,0.89,0.82,-17.6,-1.2,0.3,4640,3544,,,,,,,,,,,,,,,,,
14406,1469914046372,,,,,,,0.05,0.94,0.81,-17.6,-1.2,0.6,4360,3544,,,,,,,,,,,,,,,,,
14426,1469914046392,,,,,,,0.09,0.88,0.86,-17.3,-0.7,0.4,4460,3560,,,,,,,,,,,,,,,,,
14446,1469914046508,0,237.7,190.2,51,192.5,,0.09,0.95,0.79,-17.1,-0.8,0.3,4660,3560,1.213,3,39.537231,-122.326942,61.38,0.163,282.9,10,2,1.4,0,0.0,-1,0.0,0.0,0.0,0
14466,1469914046528,,,,,,,0.1,0.94,0.8,-17.4,1.2,0.7,4360,3544,,,,,,,,,,,,,,,,,
14486,1469914046548,,,,,,,0.09,0.92,0.83,-17.4,2.0,0.8,4380,3560,,,,,,,,,,,,,,,,,
14506,1469914046568,,,,,,,0.1,0.96,0.88,-17.6,2.0,1.2,4540,3527,,,,,,,,,,,,,,,,,
14526,1469914046588,,,,,,,0.1,1.0,0.91,-17.5,2.5,1.0,4580,3576,,,,,,,,,,,,,,,,,
14546,1469914046608,,,,66,,,0.12,0.92,0.89,-17.6,3.5,1.2,4280,3560,1.298,3,39.537231,-122.326942,61.38,0.163,282.9,10,2,1.4,0,0.0,-1,0.0,,0.0,0
14566,1469914046628,,,,,,,0.14,0.97,0.92,-17.4,2.9,0.6,4340,3560,,,,,,,,,,,,,,,,,
14586,1469914046648,,,,,,,0.07,0.96,0.89,-17.1,4.1,0.4,4560,3576,,,,,,,,,,,,,,,,,
14606,1469914046668,,,,,,,0.07,0.9,0.87,-17.1,3.6,0.2,4660,3576,,,,,,,,,,,,,,,,,
14626,1469914046688,,,,,,,0.01,0.89,0.89,-17.3,5.7,0.8,4400,3527,,,,,,,,,,,,,,,,,
14646,1469914046608,0,237.8,190.4,61,191.8,,0.03,0.95,0.91,-17.4,4.0,0.8,4340,3576,1.208,3,39.53725,-122.32695,61.68,0.164,282.8,10,2,1.3,0,0.0,-1,0.0,0.0,0.0,0
14666,1469914046628,,,,,,,-0.01,0.9,0.89,-18.0,4.5,1.2,4600,3593,,,,,,,,,,,,,,,,,
14686,1469914046648,,,,,,,-0.06,0.89,0.95,-18.1,4.7,1.2,4700,3576,,,,,,,,,,,,,,,,,
14706,1469914046668,,,,,,,-0.1,0.9,0.95,-18.2,7.1,1.4,4400,3610,,,,,,,,,,,,,,,,,
14726,1469914046688,,,,,,,-0.07,0.93,1.04,-18.2,6.0,1.0,4680,3560,,,,,,,,,,,,,,,,,
14746,1469914046701,,,,41,,,-0.08,0.92,1.03,-18.7,6.5,1.1,4640,3610,1.286,3,39.537266,-122.326981,61.62,0.166,282.9,10,2,1.3,0,0.0,-1,0.0,,0.0,0
14766,1469914046721,,,,,,,-0.08,0.92,1.08,-18.8,5.1,1.3,4520,3593,,,,,,,,,,,,,,,,,
14786,1469914046741,,,,,,,-0.09,0.91,1.1,-19.1,5.9,1.1,4500,3576,,,,,,,,,,,,,,,,,
14806,1469914046761,,,,,,,-0.1,0.85,1.11,-19.0,4.9,0.6,4700,3593,,,,,,,,,,,,,,,,,
14826,1469914046791,,,,,,,-0.12,0.87,1.07,-19.1,3.9,0.5,4580,3544,,,,,,,,,,,,,,,,,
14846,1469914046811,0,237.5,189.7,51,191.9,,-0.14,0.88,1.15,-19.2,4.2,0.2,4620,3610,1.33,3,39.537285,-122.327003,61.75,0.168,282.9,10,2,1.3,0,0.0,-1,0.0,0.0,0.0,0
14866,1469914046831,,,,,,,-0.11,0.84,1.1,-19.1,3.1,0.1,4560,3593,,,,,,,,,,,,,,,,,
14886,1469914046851,,,,,,,-0.07,0.86,1.09,-18.7,3.0,-0.2,4720,3610,,,,,,,,,,,,,,,,,
14906,1469914046871,,,,,,,-0.14,0.79,1.06,-18.7,2.3,-0.0,4380,3610,,,,,,,,,,,,,,,,,
14926,1469914046891,,,,,,,-0.16,0.74,1.04,-18.2,1.4,-0.4,4520,3576,,,,,,,,,,,,,,,,,
14946,1469914046905,,,,63,,,-0.17,0.71,1.05,-17.8,0.2,-0.4,4600,3593,1.246,3,39.5373,-122.327026,62.19,0.17,283.0,10,2,1.3,0,0.0,-1,0.0,,0.0,0
14966,1469914046925,,,,,,,-0.11,0.73,1.03,-17.7,-0.1,-0.3,4780,3610,,,,,,,,,,,,,,,,,
14986,1469914046945,,,,,,,-0.12,0.79,0.93,-17.3,0.4,0.0,4480,3627,,,,,,,,,,,,,,,,,
15006,1469914046965,,,,,,,-0.1,0.75,0.99,-17.2,1.1,-0.1,4640,3627,,,,,,,,,,,,,,,,,
15026,1469914046985,,,,,,,-0.08,0.8,0.98,-17.3,0.4,-0.2,4760,3610,,,,,,,,,,,,,,,,,
15046,1469914047010,0,238.0,190.4,68,192.1,13.94,-0.05,0.81,0.97,-17.4,-0.0,-0.2,4560,3644,1.324,3,39.537315,-122.327057,62.26,0.172,283.1,10,2,1.3,0,0.0,-1,0.0,0.0,0.0,0
15066,1469914047030,,,,,,,-0.03,0.8,0.94,-17.6,-0.9,-0.6,4700,3610,,,,,,,,,,,,,,,,,
15086,1469914047050,,,,,,,-0.03,0.89,0.87,-18.3,0.2,-0.4,4680,3644,,,,,,,,,,,,,,,,,
15106,1469914047070,,,,,,,-0.04,0.96,0.98,-18.7,-0.1,-0.4,4600,3627,,,,,,,,,,,,,,,,,
15126,1469914047091,,,,,,,-0.07,0.91,0.94,-19.0,0.4,0.3,4560,3610,,,,,,,,,,,,,,,,,
15146,1469914047111,,,,40,,,-0.06,0.9,1.0,-18.9,1.2,0.2,4680,3661,1.213,3,39.537331,-122.32708,62.58,0.173,283.4,10,2,1.3,0,0.0,-1,0.0,,0.0,0
15166,1469914047131,,,,,,,-0.08,0.87,1.02,-18.9,2.6,0.4,4500,3661,,,,,,,,,,,,,,,,,
15186,1469914047151,,,,,,,-0.04,0.87,1.03,-18.7,3.4,0.2,4640,3627,,,,,,,,,,,,,,,,,
15206,1469914047171,,,,,,,-0.11,0.81,1.02,-18.8,2.5,0.4,4740,3661,,,,,,,,,,,,,,,,,
15226,1469914047191,,,,,,,-0.09,0.78,1.04,-18.3,2.5,0.3,4760,3610,,,,,,,,,,,,,,,,,
15246,1469914047310,0,238.2,190.7,42,192.3,,-0.15,0.77,1.04,-18.1,1.0,0.4,4540,3661,1.245,3,39.537361,-122.327133,62.58,0.177,283.9,10,2,1.3,0,0.0,-1,0.0,0.0,0.0,0
15266,1469914047330,,,,,,,-0.14,0.8,1.0,-18.2,1.1,0.5,4680,3644,,,,,,,,,,,,,,,,,
15286,1469914047350,,,,,,,-0.14,0.87,0.93,-17.7,0.6,-0.1,4620,3661,,,,,,,,,,,,,,,,,
15306,1469914047370,,,,,,,-0.13,0.9,0.98,-18.0,0.9,-0.3,4460,3680,,,,,,,,,,,,,,,,,
15326,1469914047390,,,,,,,-0.14,0.98,0.98,-18.3,0.4,-0.5,4680,3661,,,,,,,,,,,,,,,,,
15346,1469914047410,,,,68,,,-0.11,0.9,0.92,-18.1,0.8,-0.8,4640,3644,1.267,3,39.537361,-122.327133,62.58,0.177,283.9,10,2,1.3,0,0.0,-1,0.0,,0.0,0
15366,1469914047430,,,,,,,-0.07,0.88,0.98,-18.1,1.9,-1.3,4600,3661,,,,,,,,,,,,,,,,,
15386,1469914047450,,,,,,,-0.08,0.88,0.99,-18.2,1.7,-1.4,4720,3680,,,,,,,,,,,,,,,,,
15406,1469914047470,,,,,,,-0.09,0.87,0.96,-17.8,1.2,-1.9,4880,3627,,,,,,,,,,,,,,,,,
15426,1469914047490,,,,,,,-0.11,0.78,0.94,-17.3,0.4,-1.6,4540,3715,,,,,,,,,,,,,,,,,
15446,1469914047409,0,237.6,189.5,75,191.6,,-0.12,0.78,0.94,-17.3,1.5,-1.2,4660,3644,1.295,3,39.537373,-122.327171,63.0,0.179,284.2,10,2,1.3,0,0.0,-1,0.0,0.0,0.0,0
15466,1469914047429,,,,,,,-0.11,0.82,0.87,-16.9,1.8,-1.2,4800,3680,,,,,,,,,,,,,,,,,
15486,1469914047449,,,,,,,-0.12,0.81,0.89,-17.1,2.6,-1.1,4580,3696,,,,,,,,,,,,,,,,,
15506,1469914047469,,,,,,,-0.1,0.88,0.91,-17.2,1.0,-1.4,4820,3661,,,,,,,,,,,,,,,,,
15526,1469914047489,,,,,,,-0.14,0.84,0.91,-17.5,0.5,-1.3,4660,3680,,,,,,,,,,,,,,,,,
15546,1469914047507,,,,48,,,-0.11,0.88,0.99,-17.5,0.3,-1.7,4660,3680,1.311,3,39.537388,-122.327194,63.07,0.18,284.4,10,2,1.3,0,0.0,-1,0.0,,0.0,0
15566,1469914047527,,,,,,,-0.15,0.82,0.97,-17.3,0.4,-1.4,4860,3696,,,,,,,,,,,,,,,,,
15586,1469914047547,,,,,,,-0.11,0.74,0.96,-16.6,-0.4,-1.5,4840,3661,,,,,,,,,,,,,,,,,
15606,1469914047567,,,,,,,-0.1,0.82,1.0,-16.4,-0.7,-1.2,4540,3715,,,,,,,,,,,,,,,,,
15626,1469914047587,,,,,,,-0.1,0.84,1.0,-16.5,-0.1,-0.7,4780,3661,,,,,,,,,,,,,,,,,
15646,1469914047608,1,238.4,190.9,79,192.1,,-0.1,0.89,0.95,-16.4,1.2,-0.7,4740,3696,1.218,3,39.537403,-122.327217,63.5,0.182,284.7,10,2,1.3,0,0.0,-1,0.0,0.0,0.0,0
15666,1469914047628,,,,,,,-0.15,0.87,0.97,-16.8,2.7,-0.2,4580,3715,,,,,,,,,,,,,,,,,
15686,1469914047648,,,,,,,-0.15,0.88,1.04,-16.9,1.4,-0.4,4920,3715,,,,,,,,,,,,,,,,,
15706,1469914047668,,,,,,,-0.15,0.87,1.05,-17.3,2.2,-0.2,4580,3733,,,,,,,,,,,,,,,,,
15726,1469914047688,,,,,,,-0.13,0.85,1.09,-17.1,2.6,0.0,4620,3680,,,,,,,,,,,,,,,,,
15746,1469914047708,,,,59,,,-0.16,0.86,1.08,-16.9,2.4,0.2,4860,3715,1.239,3,39.537415,-122.327248,63.64,0.184,285.0,10,2,1.3,0,0.0,-1,0.0,,0.0,0
15766,1469914047728,,,,,,,-0.13,0.85,1.05,-16.7,2.3,0.6,4680,3680,,,,,,,,,,,,,,,,,
15786,1469914047748,,,,,,,-0.07,0.85,1.07,-16.5,-0.4,0.2,4960,3733,,,,,,,,,,,,,,,,,
15806,1469914047768,,,,,,,-0.07,0.92,1.03,-16.7,0.2,0.2,4740,3680,,,,,,,,,,,,,,,,,
15826,1469914047791,,,,,,,-0.07,0.91,1.12,-16.5,-0.6,-0.5,4780,3752,,,,,,,,,,,,,,,,,
15846,1469914047811,0,238.0,190.4,74,191.8,,-0.1,0.81,1.07,-16.5,-0.4,-0.4,4980,3696,1.303,3,39.537426,-122.327286,64.08,0.186,285.1,10,2,1.3,0,0.0,-1,0.0,0.0,0.0,0
15866,1469914047831,,,,,,,-0.07,0.78,1.06,-16.3,-0.1,-0.6,4960,3733,,,,,,,,,,,,,,,,,
15886,1469914047851,,,,,,,-0.08,0.82,0.98,-16.1,-0.4,-0.6,4540,3696,,,,,,,,,,,,,,,,,
15906,1469914047871,,,,,,,-0.11,0.81,0.97,-16.0,0.1,-0.6,4680,3752,,,,,,,,,,,,,,,,,
15926,1469914047891,,,,,,,-0.12,0.87,1.04,-16.3,-0.2,-0.5,4700,3715,,,,,,,,,,,,,,,,,
15946,1469914047905,,,,86,,,-0.1,0.8,0.98,-16.3,0.9,-0.6,4880,3733,1.342,3,39.537437,-122.327309,64.22,0.188,285.3,10,2,1.3,0,0.0,-1,0.0,,0.0,0
15966,1469914047925,,,,,,,-0.08,0.78,1.0,-16.3,1.4,-0.5,4840,3733,,,,,,,,,,,,,,,,,
15986,1469914047945,,,,,,,-0.08,0.8,1.02,-16.2,1.7,-0.5,4660,3752,,,,,,,,,,,,,,,,,
16006,1469914047965,,,,,,,-0.13,0.74,1.03,-16.0,2.4,-0.1,4720,3733,,,,,,,,,,,,,,,,,
16026,1469914047991,,,,,,,-0.15,0.77,1.02,-15.8,1.4,-0.3,4820,3752,,,,,,,,,,,,,,,,,
16046,1469914048110,0,238.0,190.6,70,192.0,13.88,-0.17,0.81,1.07,-15.9,2.9,-0.0,4580,3733,1.297,3,39.537456,-122.327377,64.51,0.191,285.9,10,2,1.3,0,0.0,-1,0.0,0.0,0.0,0
16066,1469914048130,,,,,,,-0.13,0.83,1.11,-16.1,1.6,-0.3,4860,3769,,,,,,,,,,,,,,,,,
16086,1469914048150,,,,,,,-0.21,0.8,1.12,-16.0,1.7,-0.3,4540,3752,,,,,,,,,,,,,,,,,
16106,1469914048170,,,,,,,-0.19,0.8,1.11,-15.6,0.8,-0.4,4880,3752,,,,,,,,,,,,,,,,,
16126,1469914048190,,,,,,,-0.19,0.79,1.03,-15.5,-0.4,-0.4,4840,3733,,,,,,,,,,,,,,,,,
16146,1469914048210,,,,39,,,-0.2,0.84,1.06,-15.4,0.9,-0.6,4640,3789,1.244,3,39.537456,-122.327377,64.51,0.191,285.9,10,2,1.3,0,0.0,-1,0.0,,0.0,0
16166,1469914048230,,,,,,,-0.21,0.84,1.12,-15.6,0.5,-0.4,4980,3789,,,,,,,,,,,,,,,,,
16186,1469914048250,,,,,,,-0.21,0.81,1.11,-15.5,1.1,-0.7,4600,3807,,,,,,,,,,,,,,,,,
16206,1469914048270,,,,,,,-0.18,0.71,1.08,-15.5,2.2,-0.4,4780,3769,,,,,,,,,,,,,,,,,
16226,1469914048191,,,,,,,-0.19,0.76,1.01,-15.2,1.5,-0.6,4980,3789,,,,,,,,,,,,,,,,,
16246,1469914048211,0,237.8,190.5,49,192.2,,-0.25,0.71,1.06,-15.2,1.9,-0.3,4700,3769,1.203,3,39.537468,-122.3274,64.84,0.193,286.2,10,2,1.3,0,0.0,-1,0.0,0.0,0.0,0
16266,1469914048231,,,,,,,-0.2,0.79,1.09,-14.9,1.7,-0.5,4860,3789,,,,,,,,,,,,,,,,,
16286,1469914048251,,,,,,,-0.2,0.72,1.04,-14.6,3.1,-0.6,4560,3789,,,,,,,,,,,,,,,,,
16306,1469914048271,,,,,,,-0.2,0.66,1.01,-14.2,4.9,-0.3,4860,3789,,,,,,,,,,,,,,,,,
16326,1469914048291,,,,,,,-0.19,0.66,0.92,-13.6,2.0,-0.6,4720,3752,,,,,,,,,,,,,,,,,
16346,1469914048310,,,,36,,,-0.22,0.62,0.9,-13.8,2.6,-0.3,4760,3807,1.253,3,39.537476,-122.327438,65.21,0.195,286.5,10,2,1.3,0,0.0,-1,0.0,,0.0,0
16366,1469914048330,,,,,,,-0.19,0.66,0.92,-13.6,1.4,-0.5,4920,3789,,,,,,,,,,,,,,,,,
16386,1469914048350,,,,,,,-0.22,0.61,0.9,-13.2,1.5,-0.8,4640,3826,,,,,,,,,,,,,,,,,
16406,1469914048370,,,,,,,-0.21,0.61,0.98,-13.0,1.6,-0.6,4940,3789,,,,,,,,,,,,,,,,,
16426,1469914048390,,,,,,,-0.17,0.63,0.99,-12.4,1.0,-1.1,4800,3807,,,,,,,,,,,,,,,,,
16446,1469914048409,0,238.5,190.9,37,192.7,,-0.16,0.61,0.9,-12.2,2.0,-1.3,4900,3826,1.292,3,39.537487,-122.327461,65.41,0.196,286.8,10,2,1.3,0,0.0,-1,0.0,0.0,0.0,0
16466,1469914048429,,,,,,,-0.13,0.56,0.93,-11.9,1.7,-1.5,4980,3826,,,,,,,,,,,,,,,,,
16486,1469914048449,,,,,,,-0.14,0.61,0.93,-11.4,0.0,-1.9,4620,3826,,,,,,,,,,,,,,,,,
16506,1469914048469,,,,,,,-0.11,0.6,0.93,-11.1,0.8,-1.5,4920,3807,,,,,,,,,,,,,,,,,
16526,1469914048489,,,,,,,-0.08,0.65,1.03,-10.8,0.6,-2.0,4820,3826,,,,,,,,,,,,,,,,,
16546,1469914048508,,,,72,,,-0.16,0.54,1.06,-10.6,1.3,-1.8,4900,3826,1.302,3,39.537491,-122.327499,65.65,0.198,287.2,10,2,1.3,0,0.0,-1,0.0,,0.0,0
16566,1469914048528,,,,,,,-0.13,0.53,1.04,-10.2,1.9,-1.3,4860,3864,,,,,,,,,,,,,,,,,
16586,1469914048548,,,,,,,-0.09,0.57,1.03,-9.6,0.5,-1.8,5000,3826,,,,,,,,,,,,,,,,,
16606,1469914048568,,,,,,,-0.14,0.48,1.04,-9.4,2.6,-2.1,4780,3846,,,,,,,,,,,,,,,,,
16626,1469914048588,,,,,,,-0.1,0.47,1.07,-9.2,0.8,-2.1,4900,3826,,,,,,,,,,,,,,,,,
16646,1469914048608,0,237.5,189.8,49,192.2,,-0.11,0.43,1.04,-8.6,0.3,-2.1,5020,3864,1.323,3,39.537502,-122.327538,65.94,0.201,287.5,10,2,1.3,0,0.0,-1,0.0,0.0,0.0,0
16666,1469914048628,,,,,,,-0.12,0.45,1.12,-8.5,1.7,-1.7,4860,3846,,,,,,,,,,,,,,,,,
16686,1469914048648,,,,,,,-0.17,0.46,1.17,-8.4,0.9,-1.8,5080,3846,,,,,,,,,,,,,,,,,
16706,1469914048668,,,,,,,-0.2,0.36,1.2,-7.7,1.6,-2.0,4680,3884,,,,,,,,,,,,,,,,,
16726,1469914048688,,,,,,,-0.16,0.32,1.16,-7.6,2.4,-1.9,4960,3846,,,,,,,,,,,,,,,,,
16746,1469914048708,,,,59,,,-0.19,0.41,1.12,-7.1,1.5,-2.5,4960,3904,1.264,3,39.537506,-122.327568,66.21,0.202,287.8,10,2,1.3,0,0.0,-1,0.0,,0.0,0
16766,1469914048728,,,,,,,-0.22,0.33,1.05,-7.4,2.4,-2.4,5020,3846,,,,,,,,,,,,,,,,,
16786,1469914048748,,,,,,,-0.15,0.29,1.0,-6.9,1.3,-2.3,4880,3864,,,,,,,,,,,,,,,,,
16806,1469914048768,,,,,,,-0.19,0.31,0.97,-6.4,-0.1,-2.9,5060,3864,,,,,,,,,,,,,,,,,
16826,1469914048891,,,,,,,-0.24,0.26,1.01,-6.4,1.7,-2.7,4660,3864,,,,,,,,,,,,,,,,,
16846,1469914048911,1,238.5,191.0,66,192.4,,-0.22,0.27,1.07,-6.2,0.4,-2.6,4980,3884,1.258,3,39.537525,-122.327629,66.8,0.206,288.4,10,2,1.4,0,0.0,-1,0.0,0.0,0.0,0
16866,1469914048931,,,,,,,-0.22,0.21,1.0,-5.7,1.5,-3.0,5000,3864,,,,,,,,,,,,,,,,,
16886,1469914048951,,,,,,,-0.22,0.19,1.02,-5.5,3.3,-2.6,4840,3884,,,,,,,,,,,,,,,,,
16906,1469914048971,,,,,,,-0.23,0.23,1.06,-5.3,1.4,-2.6,5140,3846,,,,,,,,,,,,,,,,,
16926,1469914048991,,,,,,,-0.22,0.13,1.03,-5.0,2.0,-2.8,4720,3904,,,,,,,,,,,,,,,,,
16946,1469914049011,,,,84,,,-0.19,0.21,0.98,-4.8,2.3,-2.2,5020,3904,1.311,3,39.537525,-122.327629,66.8,0.206,288.4,10,2,1.4,0,0.0,-1,0.0,,0.0,0
16966,1469914049031,,,,,,,-0.24,0.21,1.03,-4.9,0.5,-2.5,4880,3904,,,,,,,,,,,,,,,,,
16986,1469914049051,,,,,,,-0.24,0.18,1.05,-4.6,1.0,-2.2,5000,3924,,,,,,,,,,,,,,,,,
17006,1469914049071,,,,,,,-0.21,0.17,1.08,-4.6,1.4,-1.7,4640,3884,,,,,,,,,,,,,,,,,
17026,1469914048992,,,,,,,-0.25,0.2,1.05,-4.2,0.2,-2.2,5120,3904,,,,,,,,,,,,,,,,,
17046,1469914049012,0,238.2,190.7,62,192.1,13.86,-0.28,0.09,1.08,-4.1,1.9,-1.9,4740,3904,1.25,3,39.537529,-122.327667,67.14,0.208,288.7,10,2,1.4,0,0.0,-1,0.0,0.0,0.0,0
17066,1469914049032,,,,,,,-0.23,0.11,1.09,-4.0,0.5,-1.4,5060,3924,,,,,,,,,,,,,,,,,
17086,1469914049052,,,,,,,-0.26,0.14,1.12,-3.6,0.3,-2.1,4880,3924,,,,,,,,,,,,,,,,,
17106,1469914049072,,,,,,,-0.25,0.08,1.04,-3.6,1.4,-1.8,5120,3884,,,,,,,,,,,,,,,,,
17126,1469914049091,,,,,,,-0.18,0.07,1.03,-3.5,0.0,-1.5,4880,3944,,,,,,,,,,,,,,,,,
17146,1469914049111,,,,49,,,-0.19,0.1,1.01,-3.1,-0.2,-1.8,5140,3944,1.25,3,39.537537,-122.327705,67.53,0.21,289.1,10,2,1.4,0,0.0,-1,0.0,,0.0,0
17166,1469914049131,,,,,,,-0.18,-0.02,1.06,-3.0,1.2,-1.6,4820,3924,,,,,,,,,,,,,,,,,
17186,1469914049151,,,,,,,-0.18,-0.02,1.03,-2.9,-1.0,-1.5,5020,3924,,,,,,,,,,,,,,,,,
17206,1469914049171,,,,,,,-0.16,0.03,1.05,-2.8,-0.8,-1.7,5080,3904,,,,,,,,,,,,,,,,,
17226,1469914049191,,,,,,,-0.16,0.01,1.0,-3.2,0.4,-1.4,5020,3944,,,,,,,,,,,,,,,,,
17246,1469914049208,0,238.2,190.6,78,192.5,,-0.14,-0.01,1.03,-3.3,-0.7,-1.1,4960,3924,1.273,3,39.537544,-122.327736,67.65,0.212,289.5,10,2,1.4,0,0.0,-1,0.0,0.0,0.0,0
