"Interval"|"ms"|0|0|1,"Utc"|"ms"|0|0|1,"FuelLevel"|"F"|0|100|5,"OilTemp"|"F"|0.0|300.0|5,"CoolantPressPSI"|"PSI"|0.0|20.0|1,"Coolant"|"F"|0.0|300.0|5,"OilPress"|"PSI"|0|150|10,"EngineTemp"|"F"|0.0|300.0|5,"Battery"|"Volts"|0.0|20.0|1,"AccelX"|"G"|-3.0|3.0|50,"AccelY"|"G"|-3.0|3.0|50,"AccelZ"|"G"|-3.0|3.0|50,"Yaw"|"Deg/Sec"|-300.0|300.0|50,"Pitch"|"Deg/Sec"|-300.0|300.0|50,"Roll"|"Deg/Sec"|-300.0|300.0|50,"RPM"|""|0|10000|50,"Driveshaft"|"RPM"|0|5000|50,"GPIO1"|""|0|1|10,"GPIO2"|""|0|1|10,"GearRatio"|""|-5.0|5.0|10,"Gear"|""|-1|5|10,"Latitude"|"Degrees"|-180.0|180.0|10,"Longitude"|"Degrees"|-180.0|180.0|10,"Speed"|"mph"|0.0|150.0|10,"Distance"|"mi"|0.0|0.0|10,"Altitude"|"ft"|0.0|4000.0|10,"GPSSats"|""|0|20|10,"GPSQual"|""|0|5|10,"GPSDOP"|""|0.0|20.0|10,"LapCount"|""|0|0|10,"LapTime"|"Min"|0.0|0.0|10,"Sector"|""|0|0|10,"SectorTime"|"Min"|0.0|0.0|10,"PredTime"|"Min"|0.0|0.0|10,"ElapsedTime"|"Min"|0.0|0.0|10,"CurrentLap"|""|0|0|10
479554,1495299608993,,,,,,,,0.05,0.1,1.0,-3.1,-0.7,-0.0,120,0,,,,,,,,,,,,,,,,,,,
479574,1495299609007,,,,,0,,,0.05,0.09,1.01,-3.1,-0.6,-0.2,120,0,1,1,0.0,0,39.540344,-122.332466,0.0,0.01,385.7,9,2,1.8,0,0.0,-1,0.0,0.0,0.0,0
479594,1495299609027,,,,,,,,0.04,0.1,1.0,-3.1,-0.7,-0.3,120,0,,,,,,,,,,,,,,,,,,,
479614,1495299609047,,,,,,,,0.04,0.09,1.0,-3.1,-0.6,-0.2,160,0,,,,,,,,,,,,,,,,,,,
479634,1495299609067,,,,,,,,0.04,0.08,1.0,-3.1,-0.6,-0.1,160,0,,,,,,,,,,,,,,,,,,,
479654,1495299609093,,,,,,,,0.04,0.08,1.0,-3.1,-0.6,-0.1,160,0,,,,,,,,,,,,,,,,,,,
479674,1495299609113,0,66.0,,64.5,1,63.5,,0.04,0.07,1.0,-3.1,-0.5,-0.1,160,0,1,1,0.0,0,39.540344,-122.332466,0.0,0.01,385.7,9,2,1.8,0,0.0,-1,0.0,0.0,0.0,0
479694,1495299609133,,,,,,,,0.04,0.05,0.99,-3.0,-0.6,-0.3,160,0,,,,,,,,,,,,,,,,,,,
479714,1495299609153,,,,,,,,0.05,0.03,0.99,-3.0,-0.3,-0.3,160,0,,,,,,,,,,,,,,,,,,,
479734,1495299609173,,,,,,,,0.04,0.04,0.98,-3.0,-0.3,-0.2,140,0,,,,,,,,,,,,,,,,,,,
479754,1495299609193,,,,,,,,0.04,0.05,0.97,-3.1,-0.3,-0.1,140,0,,,,,,,,,,,,,,,,,,,
479774,1495299609213,,,,,0,,,0.05,0.06,0.98,-3.1,-0.3,-0.1,140,0,1,1,0.0,0,39.540344,-122.332466,0.0,0.01,385.7,9,2,1.8,0,0.0,-1,0.0,0.0,0.0,0
479794,1495299609233,,,,,,,,0.05,0.06,0.98,-3.1,-0.2,-0.1,140,0,,,,,,,,,,,,,,,,,,,
479814,1495299609253,,,,,,,,0.06,0.07,0.99,-3.1,-0.2,-0.0,140,0,,,,,,,,,,,,,,,,,,,
479834,1495299609273,,,,,,,,0.07,0.09,1.0,-3.2,-0.6,0.1,140,0,,,,,,,,,,,,,,,,,,,
479854,1495299609293,,,,,,,,0.07,0.1,1.0,-3.2,-0.6,0.2,160,0,,,,,,,,,,,,,,,,,,,
479874,1495299609313,0,65.1,,64.0,0,62.2,,0.07,0.11,1.0,-3.2,-0.7,0.3,160,0,1,1,0.0,0,39.540344,-122.332466,0.0,0.01,385.7,9,2,1.8,0,0.0,-1,0.0,0.0,0.0,0
479894,1495299609333,,,,,,,,0.07,0.11,1.0,-3.2,-0.8,0.3,160,0,,,,,,,,,,,,,,,,,,,
479914,1495299609353,,,,,,,,0.07,0.11,1.0,-3.2,-0.8,0.2,160,0,,,,,,,,,,,,,,,,,,,
479934,1495299609373,,,,,,,,0.07,0.11,1.0,-3.2,-0.7,0.1,160,0,,,,,,,,,,,,,,,,,,,
479954,1495299609393,,,,,,,,0.08,0.12,1.0,-3.2,-0.8,0.2,160,0,,,,,,,,,,,,,,,,,,,
479974,1495299609413,,,,,0,,,0.07,0.12,1.0,-3.2,-0.8,0.2,160,0,1,1,0.0,0,39.540344,-122.332466,0.0,0.01,385.7,9,2,1.8,0,0.0,-1,0.0,0.0,0.0,0
479994,1495299609433,,,,,,,,0.07,0.12,1.0,-3.2,-0.8,0.3,160,0,,,,,,,,,,,,,,,,,,,
480014,1495299609453,,,,,,,,0.07,0.12,1.0,-3.2,-0.8,0.2,160,0,,,,,,,,,,,,,,,,,,,
480034,1495299609473,,,,,,,,0.07,0.12,1.0,-3.2,-0.9,0.1,160,0,,,,,,,,,,,,,,,,,,,
480054,1495299609493,,,,,,,,0.07,0.1,0.99,-3.2,-0.9,-0.0,160,0,,,,,,,,,,,,,,,,,,,
480074,1495299609513,0,66.2,-0.4,65.1,0,63.4,9.57,0.08,0.1,0.99,-3.2,-0.7,-0.1,160,0,1,1,0.0,0,39.540344,-122.332466,0.0,0.01,385.7,9,2,1.8,0,0.0,-1,0.0,0.0,0.0,0
480094,1495299609533,,,,,,,,0.07,0.1,0.99,-3.2,-0.6,0.0,160,0,,,,,,,,,,,,,,,,,,,
480114,1495299609553,,,,,,,,0.07,0.09,0.99,-3.1,-0.6,0.1,160,0,,,,,,,,,,,,,,,,,,,
480134,1495299609573,,,,,,,,0.07,0.09,0.99,-3.1,-0.5,0.2,160,0,,,,,,,,,,,,,,,,,,,
480154,1495299609592,,,,,,,,0.07,0.09,0.99,-3.1,-0.5,0.1,160,0,,,,,,,,,,,,,,,,,,,
480174,1495299609612,,,,,0,,,0.07,0.07,0.98,-3.1,-0.5,0.0,160,0,1,1,0.0,0,39.540344,-122.332466,0.0,0.01,385.7,9,2,1.8,0,0.0,-1,0.0,0.0,0.0,0
480194,1495299609632,,,,,,,,0.07,0.08,0.98,-3.1,-0.4,0.0,160,0,,,,,,,,,,,,,,,,,,,
480214,1495299609652,,,,,,,,0.07,0.08,0.99,-3.1,-0.4,0.1,160,0,,,,,,,,,,,,,,,,,,,
480234,1495299609672,,,,,,,,0.07,0.09,0.99,-3.1,-0.4,0.2,160,0,,,,,,,,,,,,,,,,,,,
480254,1495299609692,,,,,,,,0.07,0.09,0.99,-3.0,-0.4,0.2,160,0,,,,,,,,,,,,,,,,,,,
480274,1495299609712,0,63.5,,64.0,0,64.9,,0.07,0.09,0.99,-3.0,-0.3,0.1,160,0,1,1,0.0,0,39.540344,-122.332466,0.0,0.01,385.7,9,2,1.8,0,0.0,-1,0.0,0.0,0.0,0
480294,1495299609732,,,,,,,,0.07,0.09,0.99,-3.1,-0.2,0.1,160,0,,,,,,,,,,,,,,,,,,,
480314,1495299609752,,,,,,,,0.08,0.1,0.99,-3.1,-0.5,0.2,160,0,,,,,,,,,,,,,,,,,,,
480334,1495299609772,,,,,,,,0.08,0.11,1.0,-3.2,-0.6,0.3,160,0,,,,,,,,,,,,,,,,,,,
480354,1495299609792,,,,,,,,0.08,0.12,1.0,-3.2,-0.7,0.3,160,0,,,,,,,,,,,,,,,,,,,
480374,1495299609812,,,,,0,,,0.08,0.12,1.0,-3.2,-0.7,0.3,160,0,1,1,0.0,0,39.540344,-122.332466,0.0,0.01,385.7,9,2,1.8,0,0.0,-1,0.0,0.0,0.0,0
480394,1495299609832,,,,,,,,0.08,0.12,1.01,-3.1,-0.7,0.2,160,0,,,,,,,,,,,,,,,,,,,
480414,1495299609852,,,,,,,,0.07,0.12,1.0,-3.1,-0.4,0.2,160,0,,,,,,,,,,,,,,,,,,,
480434,1495299609872,,,,,,,,0.07,0.12,1.0,-3.2,-0.5,0.2,160,0,,,,,,,,,,,,,,,,,,,
480454,1495299609892,,,,,,,,0.08,0.12,1.01,-3.2,-0.6,0.3,160,0,,,,,,,,,,,,,,,,,,,
480474,1495299609912,0,64.3,,63.1,0,62.2,,0.07,0.12,1.01,-3.2,-0.6,0.3,160,0,1,1,0.0,0,39.540344,-122.332466,0.0,0.01,385.7,9,2,1.8,0,0.0,-1,0.0,0.0,0.0,0
480494,1495299609932,,,,,,,,0.07,0.11,1.01,-3.1,-0.5,0.3,160,0,,,,,,,,,,,,,,,,,,,
480514,1495299609952,,,,,,,,0.07,0.12,1.01,-3.1,-0.5,0.3,160,0,,,,,,,,,,,,,,,,,,,
480534,1495299609972,,,,,,,,0.07,0.1,1.0,-3.0,-0.6,0.0,160,0,,,,,,,,,,,,,,,,,,,
480554,1495299609992,,,,,,,,0.08,0.11,0.99,-3.0,-0.4,0.0,160,0,,,,,,,,,,,,,,,,,,,
480574,1495299610008,,,,,0,,,0.07,0.11,0.99,-3.0,-0.4,0.1,160,0,1,1,0.0,0,39.540344,-122.332466,0.0,0.01,385.7,9,2,1.8,0,0.0,-1,0.0,0.0,0.0,0
480594,1495299610028,,,,,,,,0.07,0.1,0.99,-3.0,-0.5,0.2,160,0,,,,,,,,,,,,,,,,,,,
480614,1495299610048,,,,,,,,0.08,0.1,0.99,-3.0,-0.5,0.2,160,0,,,,,,,,,,,,,,,,,,,
480634,1495299610068,,,,,,,,0.08,0.1,1.0,-3.0,-0.4,0.1,160,0,,,,,,,,,,,,,,,,,,,
480654,1495299610092,,,,,,,,0.07,0.08,0.99,-2.9,-0.5,-0.1,160,0,,,,,,,,,,,,,,,,,,,
480674,1495299610112,0,64.5,,63.7,0,62.3,,0.07,0.08,0.98,-2.9,-0.4,-0.1,160,0,1,1,0.0,0,39.540344,-122.332466,0.0,0.01,385.7,9,2,1.8,0,0.0,-1,0.0,0.0,0.0,0
480694,1495299610132,,,,,,,,0.08,0.08,0.98,-2.9,-0.4,-0.0,160,0,,,,,,,,,,,,,,,,,,,
480714,1495299610152,,,,,,,,0.08,0.08,0.98,-2.9,-0.3,0.1,160,0,,,,,,,,,,,,,,,,,,,
480734,1495299610172,,,,,,,,0.08,0.08,0.98,-3.0,-0.4,0.1,160,0,,,,,,,,,,,,,,,,,,,
480754,1495299610194,,,,,,,,0.08,0.09,0.99,-3.0,-0.3,0.1,160,0,,,,,,,,,,,,,,,,,,,
480774,1495299610214,,,,,0,,,0.08,0.07,0.98,-3.0,-0.4,-0.1,160,0,1,1,0.0,0,39.540344,-122.332466,0.0,0.01,385.7,9,2,1.8,0,0.0,-1,0.0,0.0,0.0,0
480794,1495299610234,,,,,,,,0.08,0.08,0.98,-3.0,-0.2,-0.0,160,0,,,,,,,,,,,,,,,,,,,
480814,1495299610254,,,,,,,,0.08,0.08,0.98,-3.0,-0.2,0.1,160,0,,,,,,,,,,,,,,,,,,,
480834,1495299610274,,,,,,,,0.08,0.09,0.98,-3.0,-0.4,0.2,160,0,,,,,,,,,,,,,,,,,,,
480854,1495299610294,,,,,,,,0.08,0.1,0.99,-3.0,-0.4,0.2,160,0,,,,,,,,,,,,,,,,,,,
480874,1495299610314,0,64.7,,64.0,0,62.1,,0.08,0.1,0.99,-3.0,-0.4,0.1,240,0,1,1,0.0,0,39.540344,-122.332466,0.0,0.01,385.7,9,2,1.8,0,0.0,-1,0.0,0.0,0.0,0
480894,1495299610334,,,,,,,,0.08,0.09,0.99,-3.0,-0.4,-0.0,240,0,,,,,,,,,,,,,,,,,,,
480914,1495299610354,,,,,,,,0.07,0.1,0.99,-3.0,-0.4,-0.1,240,3,,,,,,,,,,,,,,,,,,,
480934,1495299610374,,,,,,,,0.07,0.09,0.99,-3.0,-0.4,-0.1,240,3,,,,,,,,,,,,,,,,,,,
480954,1495299610394,,,,,,,,0.07,0.09,0.99,-3.0,-0.4,-0.1,260,3,,,,,,,,,,,,,,,,,,,
480974,1495299610414,,,,,0,,,0.07,0.08,1.0,-2.9,-0.4,-0.0,260,3,1,0,80.0,0,39.540344,-122.332466,0.0,0.01,385.7,9,2,1.8,0,0.0,-1,0.0,0.0,0.0,0
480994,1495299610434,,,,,,,,0.06,0.08,1.0,-2.9,-0.4,0.0,260,3,,,,,,,,,,,,,,,,,,,
481014,1495299610454,,,,,,,,0.06,0.07,1.0,-2.9,-0.4,-0.1,260,3,,,,,,,,,,,,,,,,,,,
481034,1495299610474,,,,,,,,0.06,0.07,1.0,-2.9,-0.4,-0.2,260,3,,,,,,,,,,,,,,,,,,,
481054,1495299610494,,,,,,,,0.06,0.07,1.0,-2.9,-0.4,-0.2,260,3,,,,,,,,,,,,,,,,,,,
481074,1495299610514,0,62.8,-0.8,62.6,0,63.3,12.03,0.06,0.07,0.99,-2.9,-0.3,-0.1,160,3,1,0,86.667,0,39.540344,-122.332466,0.0,0.01,385.7,9,2,1.8,0,0.0,-1,0.0,0.0,0.0,0
481094,1495299610534,,,,,,,,0.06,0.07,0.99,-2.9,-0.3,-0.0,160,3,,,,,,,,,,,,,,,,,,,
481114,1495299610554,,,,,,,,0.06,0.08,0.99,-2.9,-0.4,0.0,160,3,,,,,,,,,,,,,,,,,,,
481134,1495299610574,,,,,,,,0.05,0.08,0.99,-2.9,-0.4,-0.0,160,3,,,,,,,,,,,,,,,,,,,
481154,1495299610593,,,,,,,,0.05,0.07,0.99,-3.0,-0.4,-0.1,160,3,,,,,,,,,,,,,,,,,,,
481174,1495299610613,,,,,0,,,0.05,0.07,0.99,-3.0,-0.4,-0.2,160,3,1,1,53.333,0,39.540344,-122.332466,0.0,0.01,385.7,9,2,1.8,0,0.0,-1,0.0,0.0,0.0,0
481194,1495299610633,,,,,,,,0.05,0.07,0.99,-3.0,-0.4,-0.2,160,3,,,,,,,,,,,,,,,,,,,
481214,1495299610653,,,,,,,,0.05,0.07,0.99,-3.0,-0.4,-0.1,160,3,,,,,,,,,,,,,,,,,,,
481234,1495299610673,,,,,,,,0.05,0.07,0.99,-3.0,-0.4,-0.0,160,3,,,,,,,,,,,,,,,,,,,
481254,1495299610693,,,,,,,,0.05,0.07,0.99,-3.0,-0.4,-0.0,100,3,,,,,,,,,,,,,,,,,,,
481274,1495299610713,0,65.7,,65.1,0,63.3,,0.05,0.07,0.99,-3.0,-0.4,-0.1,100,3,1,1,53.333,0,39.540344,-122.332466,0.0,0.01,385.7,9,2,1.8,0,0.0,-1,0.0,0.0,0.0,0
481294,1495299610733,,,,,,,,0.05,0.07,0.99,-3.0,-0.4,-0.1,100,3,,,,,,,,,,,,,,,,,,,
481314,1495299610753,,,,,,,,0.05,0.07,0.99,-3.0,-0.4,-0.1,100,3,,,,,,,,,,,,,,,,,,,
481334,1495299610773,,,,,,,,0.05,0.07,0.99,-3.0,-0.4,-0.1,100,3,,,,,,,,,,,,,,,,,,,
481354,1495299610793,,,,,,,,0.05,0.07,0.99,-3.0,-0.4,-0.0,100,3,,,,,,,,,,,,,,,,,,,
481374,1495299610813,,,,,0,,,0.05,0.07,0.99,-3.0,-0.4,-0.1,100,3,1,1,33.333,0,39.540344,-122.332466,0.0,0.01,385.7,9,2,1.8,0,0.0,-1,0.0,0.0,0.0,0
481394,1495299610833,,,,,,,,0.05,0.07,0.99,-3.0,-0.4,-0.1,100,3,,,,,,,,,,,,,,,,,,,
481414,1495299610853,,,,,,,,0.05,0.07,0.99,-3.0,-0.4,-0.1,100,3,,,,,,,,,,,,,,,,,,,
481434,1495299610873,,,,,,,,0.05,0.07,0.99,-3.0,-0.4,-0.1,100,3,,,,,,,,,,,,,,,,,,,
481454,1495299610893,,,,,,,,0.05,0.07,0.99,-3.0,-0.4,-0.1,100,3,,,,,,,,,,,,,,,,,,,
481474,1495299610913,0,64.5,,64.3,0,65.2,,0.05,0.07,0.99,-3.0,-0.4,-0.1,100,256409,1,1,33.333,0,39.540344,-122.332466,0.0,0.01,385.7,9,2,1.8,0,0.0,-1,0.0,0.0,0.0,0
481494,1495299610933,,,,,,,,0.05,0.07,0.99,-3.0,-0.4,-0.1,100,0,,,,,,,,,,,,,,,,,,,
481514,1495299610953,,,,,,,,0.05,0.07,0.99,-3.0,-0.4,-0.1,100,0,,,,,,,,,,,,,,,,,,,
481534,1495299610973,,,,,,,,0.05,0.07,0.99,-3.0,-0.4,-0.1,100,0,,,,,,,,,,,,,,,,,,,
481554,1495299610993,,,,,,,,0.05,0.07,0.99,-3.0,-0.4,-0.1,100,0,,,,,,,,,,,,,,,,,,,
481574,1495299611007,,,,,0,,,0.05,0.07,0.99,-3.0,-0.4,-0.1,100,0,1,1,0.0,0,39.540344,-122.332466,0.0,0.01,385.7,9,2,1.8,0,0.0,-1,0.0,0.0,0.0,0
481594,1495299611027,,,,,,,,0.05,0.07,0.99,-3.0,-0.4,-0.0,60,0,,,,,,,,,,,,,,,,,,,
481614,1495299611047,,,,,,,,0.05,0.07,0.99,-3.0,-0.4,-0.0,60,0,,,,,,,,,,,,,,,,,,,
481634,1495299611067,,,,,,,,0.05,0.07,0.99,-3.0,-0.4,-0.0,60,0,,,,,,,,,,,,,,,,,,,
481654,1495299611093,,,,,,,,0.05,0.07,0.99,-3.0,-0.4,-0.1,60,0,,,,,,,,,,,,,,,,,,,
481674,1495299611113,0,63.1,,62.3,0,63.2,,0.05,0.07,0.99,-3.0,-0.4,-0.1,60,0,1,1,0.0,0,39.540344,-122.332466,0.0,0.01,385.7,9,2,1.8,0,0.0,-1,0.0,0.0,0.0,0
481694,1495299611133,,,,,,,,0.05,0.07,0.99,-3.0,-0.4,-0.1,60,0,,,,,,,,,,,,,,,,,,,
481714,1495299611153,,,,,,,,0.05,0.07,0.99,-3.0,-0.4,-0.1,60,0,,,,,,,,,,,,,,,,,,,
481734,1495299611173,,,,,,,,0.05,0.07,0.99,-3.0,-0.4,-0.1,60,0,,,,,,,,,,,,,,,,,,,
481754,1495299611193,,,,,,,,0.05,0.07,0.99,-3.0,-0.4,-0.1,60,0,,,,,,,,,,,,,,,,,,,
481774,1495299611213,,,,,0,,,0.05,0.07,0.99,-3.0,-0.4,-0.1,60,0,1,1,0.0,0,39.540344,-122.332466,0.0,0.01,385.7,9,2,1.8,0,0.0,-1,0.0,0.0,0.0,0
481794,1495299611233,,,,,,,,0.05,0.07,0.99,-3.0,-0.4,-0.1,60,0,,,,,,,,,,,,,,,,,,,
481814,1495299611253,,,,,,,,0.05,0.05,0.99,-2.8,-0.5,-0.2,60,0,,,,,,,,,,,,,,,,,,,
481834,1495299611273,,,,,,,,0.05,0.05,0.98,-2.8,-0.5,-0.2,60,0,,,,,,,,,,,,,,,,,,,
481854,1495299611293,,,,,,,,0.04,0.05,0.98,-2.8,-0.5,-0.1,60,0,,,,,,,,,,,,,,,,,,,
481874,1495299611313,0,66.5,,65.5,1,64.1,,0.04,0.05,0.98,-2.8,-0.5,-0.1,60,0,1,1,0.0,0,39.540344,-122.332466,0.0,0.01,385.7,9,2,1.8,0,0.0,-1,0.0,0.0,0.0,0
481894,1495299611333,,,,,,,,0.04,0.05,0.98,-2.8,-0.5,-0.1,60,0,,,,,,,,,,,,,,,,,,,
481914,1495299611353,,,,,,,,0.04,0.05,0.98,-2.8,-0.5,-0.1,60,0,,,,,,,,,,,,,,,,,,,
481934,1495299611373,,,,,,,,0.04,0.06,0.98,-2.8,-0.5,-0.1,60,0,,,,,,,,,,,,,,,,,,,
481954,1495299611393,,,,,,,,0.04,0.06,0.99,-2.9,-0.5,-0.1,60,0,,,,,,,,,,,,,,,,,,,
481974,1495299611413,,,,,0,,,0.04,0.06,0.98,-2.9,-0.5,-0.1,60,0,1,1,0.0,0,39.540344,-122.332466,0.0,0.01,385.7,9,2,1.8,0,0.0,-1,0.0,0.0,0.0,0
481994,1495299611433,,,,,,,,0.04,0.06,0.99,-2.9,-0.5,-0.1,60,0,,,,,,,,,,,,,,,,,,,
482014,1495299611453,,,,,,,,0.04,0.06,0.99,-2.9,-0.4,-0.1,60,0,,,,,,,,,,,,,,,,,,,
482034,1495299611473,,,,,,,,0.04,0.06,0.99,-2.9,-0.5,-0.1,60,0,,,,,,,,,,,,,,,,,,,
482054,1495299611493,,,,,,,,0.04,0.06,0.99,-2.9,-0.5,-0.1,60,0,,,,,,,,,,,,,,,,,,,
482074,1495299611513,0,62.9,-0.7,62.3,0,62.7,12.21,0.04,0.06,0.99,-2.9,-0.5,-0.1,60,0,1,1,0.0,0,39.540344,-122.332466,0.0,0.01,385.7,9,2,1.8,0,0.0,-1,0.0,0.0,0.0,0
482094,1495299611533,,,,,,,,0.04,0.06,0.99,-2.9,-0.4,-0.1,60,0,,,,,,,,,,,,,,,,,,,
482114,1495299611553,,,,,,,,0.04,0.06,0.99,-2.9,-0.4,-0.1,60,0,,,,,,,,,,,,,,,,,,,
482134,1495299611573,,,,,,,,0.04,0.06,0.99,-2.9,-0.4,-0.1,60,0,,,,,,,,,,,,,,,,,,,
482154,1495299611592,,,,,,,,0.04,0.06,0.99,-2.9,-0.4,-0.1,60,0,,,,,,,,,,,,,,,,,,,
482174,1495299611612,,,,,0,,,0.04,0.06,0.99,-3.0,-0.4,-0.1,60,0,1,1,0.0,0,39.540344,-122.332466,0.0,0.01,385.7,9,2,1.8,0,0.0,-1,0.0,0.0,0.0,0
482194,1495299611632,,,,,,,,0.04,0.07,0.99,-3.0,-0.4,-0.1,60,0,,,,,,,,,,,,,,,,,,,
482214,1495299611652,,,,,,,,0.04,0.07,0.99,-3.0,-0.4,-0.1,60,0,,,,,,,,,,,,,,,,,,,
482234,1495299611672,,,,,,,,0.04,0.07,0.99,-3.0,-0.4,-0.1,60,0,,,,,,,,,,,,,,,,,,,
482254,1495299611692,,,,,,,,0.04,0.07,0.99,-3.0,-0.5,-0.1,60,0,,,,,,,,,,,,,,,,,,,
482274,1495299611712,0,63.1,,62.9,0,64.0,,0.04,0.07,0.99,-3.0,-0.5,-0.1,60,0,1,1,0.0,0,39.540344,-122.332466,0.0,0.01,385.7,9,2,1.8,0,0.0,-1,0.0,0.0,0.0,0
482294,1495299611732,,,,,,,,0.05,0.07,0.99,-3.0,-0.5,-0.1,60,0,,,,,,,,,,,,,,,,,,,
482314,1495299611752,,,,,,,,0.04,0.07,0.99,-3.0,-0.4,-0.1,60,0,,,,,,,,,,,,,,,,,,,
482334,1495299611772,,,,,,,,0.05,0.06,0.99,-3.0,-0.4,-0.1,60,0,,,,,,,,,,,,,,,,,,,
482354,1495299611792,,,,,,,,0.05,0.07,0.99,-3.0,-0.4,-0.1,60,0,,,,,,,,,,,,,,,,,,,
482374,1495299611812,,,,,0,,,0.05,0.07,0.99,-3.0,-0.4,-0.1,60,0,1,1,0.0,0,39.540344,-122.332466,0.0,0.01,385.7,9,2,1.8,0,0.0,-1,0.0,0.0,0.0,0
482394,1495299611832,,,,,,,,0.05,0.07,0.99,-3.0,-0.4,-0.0,60,0,,,,,,,,,,,,,,,,,,,
482414,1495299611852,,,,,,,,0.05,0.07,0.99,-3.0,-0.4,-0.0,60,0,,,,,,,,,,,,,,,,,,,
482434,1495299611872,,,,,,,,0.05,0.07,0.99,-3.0,-0.4,-0.0,60,0,,,,,,,,,,,,,,,,,,,
482454,1495299611892,,,,,,,,0.05,0.07,0.99,-3.0,-0.4,-0.0,4000000,0,,,,,,,,,,,,,,,,,,,
482474,1495299611912,0,62.9,,62.2,0,62.5,,0.05,0.07,0.99,-3.0,-0.5,-0.0,0,0,1,1,0.0,0,39.540344,-122.332466,0.0,0.01,385.7,9,2,1.8,0,0.0,-1,0.0,0.0,0.0,0
482494,1495299611932,,,,,,,,0.06,0.07,0.99,-3.0,-0.5,-0.0,0,0,,,,,,,,,,,,,,,,,,,
482514,1495299611952,,,,,,,,0.06,0.07,0.99,-3.0,-0.5,-0.0,0,0,,,,,,,,,,,,,,,,,,,
482534,1495299611972,,,,,,,,0.06,0.07,0.99,-3.0,-0.5,-0.1,0,0,,,,,,,,,,,,,,,,,,,
482554,1495299611992,,,,,,,,0.06,0.07,0.99,-3.0,-0.5,-0.1,0,0,,,,,,,,,,,,,,,,,,,
482574,1495299612008,,,,,0,,,0.06,0.07,0.99,-3.0,-0.4,-0.1,0,0,1,1,0.0,0,39.540344,-122.332466,0.0,0.01,385.7,9,2,1.8,0,0.0,-1,0.0,0.0,0.0,0
482594,1495299612028,,,,,,,,0.05,0.07,0.99,-3.0,-0.4,-0.1,0,0,,,,,,,,,,,,,,,,,,,
482614,1495299612048,,,,,,,,0.05,0.07,0.99,-3.0,-0.4,-0.1,0,0,,,,,,,,,,,,,,,,,,,
482634,1495299612068,,,,,,,,0.05,0.07,0.99,-3.0,-0.4,-0.0,0,0,,,,,,,,,,,,,,,,,,,
482654,1495299612094,,,,,,,,0.05,0.07,0.99,-3.0,-0.4,-0.0,0,0,,,,,,,,,,,,,,,,,,,
482674,1495299612114,0,66.2,,64.9,0,63.7,,0.05,0.07,0.99,-3.0,-0.4,-0.0,0,0,1,1,0.0,0,39.540344,-122.332466,0.0,0.01,385.7,9,2,1.8,0,0.0,-1,0.0,0.0,0.0,0
482694,1495299612134,,,,,,,,0.05,0.07,0.99,-3.0,-0.4,-0.0,0,0,,,,,,,,,,,,,,,,,,,
482714,1495299612154,,,,,,,,0.05,0.07,0.99,-3.0,-0.5,-0.0,0,0,,,,,,,,,,,,,,,,,,,
482734,1495299612174,,,,,,,,0.05,0.07,0.99,-3.0,-0.5,-0.0,0,0,,,,,,,,,,,,,,,,,,,
482754,1495299612194,,,,,,,,0.05,0.07,0.99,-3.0,-0.5,-0.0,0,0,,,,,,,,,,,,,,,,,,,
482774,1495299612214,,,,,0,,,0.05,0.07,0.99,-3.0,-0.5,-0.0,0,0,1,1,0.0,0,39.540344,-122.332466,0.0,0.01,385.7,9,2,1.8,0,0.0,-1,0.0,0.0,0.0,0
482794,1495299612234,,,,,,,,0.05,0.07,0.99,-3.0,-0.5,-0.0,0,0,,,,,,,,,,,,,,,,,,,
482814,1495299612254,,,,,,,,0.05,0.07,0.99,-3.0,-0.4,-0.0,0,0,,,,,,,,,,,,,,,,,,,
482834,1495299612274,,,,,,,,0.05,0.07,0.99,-3.0,-0.4,-0.0,0,0,,,,,,,,,,,,,,,,,,,
482854,1495299612294,,,,,,,,0.05,0.07,0.99,-3.0,-0.4,-0.1,0,0,,,,,,,,,,,,,,,,,,,
482874,1495299612314,0,63.9,,62.2,0,62.0,,0.05,0.07,0.99,-3.0,-0.4,-0.1,0,0,1,1,0.0,0,39.540344,-122.332466,0.0,0.01,385.7,9,2,1.8,0,0.0,-1,0.0,0.0,0.0,0
482894,1495299612334,,,,,,,,0.05,0.07,0.99,-3.0,-0.4,-0.1,0,0,,,,,,,,,,,,,,,,,,,
482914,1495299612354,,,,,,,,0.05,0.07,0.99,-3.0,-0.4,-0.1,0,0,,,,,,,,,,,,,,,,,,,
482934,1495299612374,,,,,,,,0.05,0.07,0.99,-3.0,-0.4,-0.0,0,0,,,,,,,,,,,,,,,,,,,
482954,1495299612394,,,,,,,,0.05,0.07,0.99,-3.0,-0.5,-0.0,0,0,,,,,,,,,,,,,,,,,,,
482974,1495299612414,,,,,0,,,0.05,0.07,0.99,-3.0,-0.5,-0.1,0,0,1,1,0.0,0,39.540344,-122.332466,0.0,0.01,385.7,9,2,1.8,0,0.0,-1,0.0,0.0,0.0,0
482994,1495299612434,,,,,,,,0.06,0.07,0.99,-3.1,-0.4,-0.1,0,0,,,,,,,,,,,,,,,,,,,
483014,1495299612454,,,,,,,,0.06,0.07,1.0,-3.1,-0.3,-0.1,0,0,,,,,,,,,,,,,,,,,,,
483034,1495299612474,,,,,,,,0.05,0.07,0.99,-3.0,-0.4,-0.1,0,0,,,,,,,,,,,,,,,,,,,
483054,1495299612492,,,,,,,,0.06,0.07,0.99,-3.0,-0.4,-0.1,0,0,,,,,,,,,,,,,,,,,,,
483074,1495299612512,0,63.3,-0.5,63.6,0,64.8,12.22,0.05,0.07,0.99,-3.0,-0.4,-0.1,0,0,1,1,0.0,0,39.540344,-122.332466,0.0,0.01,385.7,9,2,1.8,0,0.0,-1,0.0,0.0,0.0,0
483094,1495299612532,,,,,,,,0.05,0.07,0.99,-3.0,-0.5,-0.1,0,0,,,,,,,,,,,,,,,,,,,
483114,1495299612552,,,,,,,,0.05,0.07,0.99,-3.0,-0.5,-0.1,0,0,,,,,,,,,,,,,,,,,,,
483134,1495299612572,,,,,,,,0.05,0.07,0.99,-3.0,-0.5,-0.1,0,0,,,,,,,,,,,,,,,,,,,
483154,1495299612593,,,,,,,,0.05,0.07,0.99,-3.0,-0.5,-0.1,0,0,,,,,,,,,,,,,,,,,,,
483174,1495299612613,,,,,0,,,0.05,0.07,0.99,-3.0,-0.5,-0.1,0,0,1,1,0.0,0,39.540344,-122.332466,0.0,0.01,385.7,9,2,1.8,0,0.0,-1,0.0,0.0,0.0,0
483194,1495299612633,,,,,,,,0.05,0.07,0.99,-3.0,-0.5,-0.1,0,0,,,,,,,,,,,,,,,,,,,
483214,1495299612653,,,,,,,,0.05,0.07,0.99,-3.0,-0.5,-0.0,0,0,,,,,,,,,,,,,,,,,,,
483234,1495299612673,,,,,,,,0.05,0.07,0.99,-3.0,-0.5,-0.0,0,0,,,,,,,,,,,,,,,,,,,
483254,1495299612693,,,,,,,,0.05,0.07,0.99,-3.0,-0.5,-0.0,0,0,,,,,,,,,,,,,,,,,,,
483274,1495299612713,0,62.9,,62.2,0,62.5,,0.05,0.07,0.99,-3.0,-0.5,-0.0,0,0,1,1,0.0,0,39.540344,-122.332466,0.0,0.01,385.7,9,2,1.8,0,0.0,-1,0.0,0.0,0.0,0
483294,1495299612733,,,,,,,,0.05,0.07,0.99,-3.0,-0.5,-0.0,0,0,,,,,,,,,,,,,,,,,,,
483314,1495299612753,,,,,,,,0.05,0.07,0.99,-3.0,-0.5,-0.0,0,0,,,,,,,,,,,,,,,,,,,
483334,1495299612773,,,,,,,,0.05,0.07,0.99,-3.0,-0.5,-0.0,0,0,,,,,,,,,,,,,,,,,,,
483354,1495299612793,,,,,,,,0.05,0.07,0.99,-3.0,-0.5,-0.0,0,0,,,,,,,,,,,,,,,,,,,
483374,1495299612813,,,,,0,,,0.05,0.07,0.99,-3.0,-0.5,-0.0,0,0,1,1,0.0,0,39.540344,-122.332466,0.0,0.01,385.7,9,2,1.8,0,0.0,-1,0.0,0.0,0.0,0
483394,1495299612833,,,,,,,,0.05,0.07,0.99,-3.0,-0.5,-0.0,0,0,,,,,,,,,,,,,,,,,,,
483414,1495299612853,,,,,,,,0.05,0.07,0.99,-3.0,-0.5,-0.0,0,0,,,,,,,,,,,,,,,,,,,
483434,1495299612873,,,,,,,,0.05,0.07,0.99,-3.0,-0.5,-0.0,0,0,,,,,,,,,,,,,,,,,,,
483454,1495299612893,,,,,,,,0.06,0.08,1.0,-3.0,-0.5,0.1,0,0,,,,,,,,,,,,,,,,,,,
483474,1495299612913,0,63.5,,63.6,0,64.6,,0.06,0.08,1.0,-3.0,-0.6,0.0,0,0,1,1,0.0,0,39.540344,-122.332466,0.0,0.01,385.7,9,2,1.8,0,0.0,-1,0.0,0.0,0.0,0
483494,1495299612933,,,,,,,,0.06,0.07,0.99,-2.9,-0.6,-0.2,0,0,,,,,,,,,,,,,,,,,,,
483514,1495299612953,,,,,,,,0.07,0.08,1.0,-3.0,-0.4,-0.1,0,0,,,,,,,,,,,,,,,,,,,
483534,1495299612973,,,,,,,,0.07,0.09,0.99,-3.0,-0.4,0.1,0,0,,,,,,,,,,,,,,,,,,,
483554,1495299612993,,,,,,,,0.07,0.08,1.0,-3.0,-0.5,0.1,0,0,,,,,,,,,,,,,,,,,,,
483574,1495299613007,,,,,0,,,0.07,0.09,1.0,-3.0,-0.4,0.1,0,0,1,1,0.0,0,39.540344,-122.332466,0.0,0.01,385.7,9,2,1.8,0,0.0,-1,0.0,0.0,0.0,0
483594,1495299613027,,,,,,,,0.07,0.09,1.0,-3.0,-0.5,0.1,0,0,,,,,,,,,,,,,,,,,,,
483614,1495299613047,,,,,,,,0.07,0.09,1.0,-3.0,-0.6,0.1,0,0,,,,,,,,,,,,,,,,,,,
483634,1495299613067,,,,,,,,0.06,0.08,0.99,-3.0,-0.6,-0.1,0,0,,,,,,,,,,,,,,,,,,,
483654,1495299613091,,,,,,,,0.06,0.08,1.0,-3.0,-0.6,-0.2,0,0,,,,,,,,,,,,,,,,,,,
483674,1495299613111,0,66.0,,65.7,0,64.8,,0.06,0.08,0.99,-3.0,-0.6,-0.1,0,0,1,1,0.0,0,39.540344,-122.332466,0.0,0.01,385.7,9,2,1.8,0,0.0,-1,0.0,0.0,0.0,0
483694,1495299613131,,,,,,,,0.06,0.07,1.0,-3.0,-0.6,-0.1,0,0,,,,,,,,,,,,,,,,,,,
483714,1495299613151,,,,,,,,0.06,0.07,0.99,-3.0,-0.6,-0.1,0,0,,,,,,,,,,,,,,,,,,,
483734,1495299613171,,,,,,,,0.06,0.06,0.99,-3.0,-0.5,-0.1,0,0,,,,,,,,,,,,,,,,,,,
483754,1495299613193,,,,,,,,0.06,0.06,0.99,-3.0,-0.5,-0.0,0,0,,,,,,,,,,,,,,,,,,,
483774,1495299613213,,,,,0,,,0.06,0.07,0.99,-3.1,-0.5,-0.0,0,0,1,1,0.0,0,39.540344,-122.332466,0.0,0.01,385.7,9,2,1.8,0,0.0,-1,0.0,0.0,0.0,0
483794,1495299613233,,,,,,,,0.06,0.07,0.99,-3.1,-0.5,-0.0,0,0,,,,,,,,,,,,,,,,,,,
483814,1495299613253,,,,,,,,0.06,0.07,0.99,-3.1,-0.5,-0.1,0,0,,,,,,,,,,,,,,,,,,,
483834,1495299613273,,,,,,,,0.06,0.07,0.99,-3.0,-0.6,-0.1,0,0,,,,,,,,,,,,,,,,,,,
483854,1495299613293,,,,,,,,0.05,0.07,0.99,-3.0,-0.8,-0.2,0,0,,,,,,,,,,,,,,,,,,,
483874,1495299613313,0,63.5,,62.8,0,62.9,,0.05,0.06,0.99,-3.0,-0.9,-0.2,0,0,1,1,0.0,0,39.540344,-122.332466,0.0,0.01,385.7,9,2,1.8,0,0.0,-1,0.0,0.0,0.0,0
483894,1495299613333,,,,,,,,0.05,0.06,0.99,-3.0,-0.9,-0.2,0,0,,,,,,,,,,,,,,,,,,,
483914,1495299613353,,,,,,,,0.05,0.05,0.99,-3.0,-0.7,-0.2,0,0,,,,,,,,,,,,,,,,,,,
483934,1495299613373,,,,,,,,0.04,0.05,0.99,-3.0,-0.7,-0.2,0,0,,,,,,,,,,,,,,,,,,,
483954,1495299613393,,,,,,,,0.04,0.04,0.99,-3.0,-0.5,-0.2,0,0,,,,,,,,,,,,,,,,,,,
483974,1495299613413,,,,,0,,,0.05,0.05,0.99,-3.1,-0.6,0.0,0,0,1,1,0.0,0,39.540344,-122.332466,0.0,0.01,385.7,9,2,1.8,0,0.0,-1,0.0,0.0,0.0,0
483994,1495299613433,,,,,,,,0.05,0.05,0.98,-3.1,-0.6,0.1,20,0,,,,,,,,,,,,,,,,,,,
484014,1495299613453,,,,,,,,0.05,0.05,0.98,-3.2,-0.4,0.3,20,0,,,,,,,,,,,,,,,,,,,
484034,1495299613473,,,,,,,,0.05,0.05,0.98,-3.1,-0.4,0.3,20,0,,,,,,,,,,,,,,,,,,,
484054,1495299613493,,,,,,,,0.06,0.07,0.99,-3.1,-0.4,0.3,320,0,,,,,,,,,,,,,,,,,,,
484074,1495299613513,0,63.7,-0.9,62.6,0,62.2,10.75,0.05,0.07,0.99,-3.2,-0.3,0.1,320,0,1,1,0.0,0,39.540344,-122.332466,0.0,0.01,385.7,9,2,1.8,0,0.0,-1,0.0,0.0,0.0,0
484094,1495299613533,,,,,,,,0.05,0.05,0.99,-3.1,-0.4,-0.1,520,0,,,,,,,,,,,,,,,,,,,
484114,1495299613553,,,,,,,,0.04,0.05,0.99,-3.1,-0.6,-0.1,520,0,,,,,,,,,,,,,,,,,,,
484134,1495299613573,,,,,,,,0.05,0.07,0.99,-3.2,-0.5,-0.0,580,0,,,,,,,,,,,,,,,,,,,
484154,1495299613592,,,,,,,,0.05,0.05,0.98,-3.1,-0.5,-0.0,580,0,,,,,,,,,,,,,,,,,,,
484174,1495299613612,,,,,0,,,0.05,0.06,0.99,-3.1,-0.4,0.0,520,0,1,0,0.0,0,39.540344,-122.332466,0.0,0.01,385.7,9,2,1.8,0,0.0,-1,0.0,0.0,0.0,0
484194,1495299613632,,,,,,,,0.05,0.05,0.99,-3.1,-0.5,0.0,520,0,,,,,,,,,,,,,,,,,,,
484214,1495299613652,,,,,,,,0.06,0.06,0.98,-3.1,-0.4,0.1,560,0,,,,,,,,,,,,,,,,,,,
484234,1495299613672,,,,,,,,0.05,0.07,0.99,-3.1,-0.4,0.1,680,0,,,,,,,,,,,,,,,,,,,
484254,1495299613692,,,,,,,,0.05,0.08,0.99,-3.0,-0.4,-0.1,700,0,,,,,,,,,,,,,,,,,,,
484274,1495299613712,0,65.5,,64.5,1,62.6,,0.05,0.07,0.99,-3.0,-0.4,-0.3,700,6,1,0,0.0,0,39.540344,-122.332466,0.0,0.01,385.7,9,2,1.8,0,0.0,-1,0.0,0.0,0.0,0
484294,1495299613732,,,,,,,,0.05,0.07,0.98,-3.0,-0.3,-0.1,680,384615,,,,,,,,,,,,,,,,,,,
484314,1495299613752,,,,,,,,0.05,0.08,0.99,-3.0,-0.4,-0.1,680,0,,,,,,,,,,,,,,,,,,,
484334,1495299613772,,,,,,,,0.05,0.07,0.99,-3.0,-0.4,-0.2,620,0,,,,,,,,,,,,,,,,,,,
484354,1495299613792,,,,,,,,0.05,0.08,0.99,-3.0,-0.4,-0.1,560,0,,,,,,,,,,,,,,,,,,,
484374,1495299613812,,,,,0,,,0.05,0.07,0.99,-3.0,-0.4,-0.2,560,0,1,0,0.0,0,39.540344,-122.332466,0.0,0.01,385.7,9,2,1.8,0,0.0,-1,0.0,0.0,0.0,0
484394,1495299613832,,,,,,,,0.05,0.08,0.98,-3.0,-0.4,-0.2,460,0,,,,,,,,,,,,,,,,,,,
484414,1495299613852,,,,,,,,0.05,0.09,0.99,-3.0,-0.3,-0.1,460,0,,,,,,,,,,,,,,,,,,,
484434,1495299613872,,,,,,,,0.04,0.07,0.98,-3.0,-0.3,-0.1,500,0,,,,,,,,,,,,,,,,,,,
484454,1495299613892,,,,,,,,0.04,0.08,0.98,-3.0,-0.4,-0.1,500,0,,,,,,,,,,,,,,,,,,,
484474,1495299613912,0,66.3,,65.2,0,63.9,,0.04,0.09,0.98,-3.1,-0.5,-0.1,580,0,1,0,0.0,0,39.540344,-122.332466,0.0,0.01,385.7,9,2,1.8,0,0.0,-1,0.0,0.0,0.0,0
484494,1495299613932,,,,,,,,0.04,0.08,0.98,-3.1,-0.5,-0.1,580,0,,,,,,,,,,,,,,,,,,,
484514,1495299613952,,,,,,,,0.04,0.09,0.98,-3.2,-0.4,-0.0,520,0,,,,,,,,,,,,,,,,,,,
484534,1495299613972,,,,,,,,0.05,0.09,0.99,-3.2,-0.4,0.0,520,0,,,,,,,,,,,,,,,,,,,
484554,1495299613992,,,,,,,,0.05,0.07,0.99,-3.1,-0.4,-0.0,580,0,,,,,,,,,,,,,,,,,,,
484574,1495299614008,,,,,0,,,0.05,0.09,0.98,-3.2,-0.5,0.0,600,0,1,0,0.0,0,39.540344,-122.332466,0.0,0.01,385.7,9,2,1.8,0,0.0,-1,0.0,0.0,0.0,0
484594,1495299614028,,,,,,,,0.05,0.08,0.99,-3.1,-0.4,-0.1,600,0,,,,,,,,,,,,,,,,,,,
484614,1495299614048,,,,,,,,0.05,0.09,0.99,-3.1,-0.4,-0.0,560,0,,,,,,,,,,,,,,,,,,,
484634,1495299614068,,,,,,,,0.05,0.09,0.99,-3.2,-0.5,0.0,560,0,,,,,,,,,,,,,,,,,,,
484654,1495299614092,,,,,,,,0.05,0.08,0.98,-3.1,-0.5,0.1,560,0,,,,,,,,,,,,,,,,,,,
484674,1495299614112,0,66.5,,65.8,1,64.6,,0.05,0.07,0.99,-3.1,-0.5,0.0,580,0,1,0,0.0,0,39.540344,-122.332466,0.0,0.01,385.7,9,2,1.8,0,0.0,-1,0.0,0.0,0.0,0
484694,1495299614132,,,,,,,,0.05,0.08,0.99,-3.1,-0.4,0.0,580,0,,,,,,,,,,,,,,,,,,,
484714,1495299614152,,,,,,,,0.05,0.08,0.99,-3.1,-0.4,0.0,620,0,,,,,,,,,,,,,,,,,,,
484734,1495299614172,,,,,,,,0.05,0.09,0.99,-3.1,-0.5,-0.1,620,0,,,,,,,,,,,,,,,,,,,
484754,1495299614194,,,,,,,,0.05,0.08,0.99,-3.1,-0.4,-0.1,640,0,,,,,,,,,,,,,,,,,,,
484774,1495299614214,,,,,0,,,0.05,0.08,0.99,-3.1,-0.6,-0.1,620,0,1,0,0.0,0,39.540344,-122.332466,0.0,0.01,385.7,9,2,1.8,0,0.0,-1,0.0,0.0,0.0,0
484794,1495299614234,,,,,,,,0.05,0.07,0.99,-3.1,-0.5,-0.1,620,0,,,,,,,,,,,,,,,,,,,
484814,1495299614254,,,,,,,,0.05,0.07,0.99,-3.1,-0.5,-0.1,640,0,,,,,,,,,,,,,,,,,,,
484834,1495299614274,,,,,,,,0.05,0.07,0.98,-3.1,-0.6,-0.1,680,0,,,,,,,,,,,,,,,,,,,
484854,1495299614294,,,,,,,,0.05,0.07,0.98,-3.1,-0.6,-0.1,680,0,,,,,,,,,,,,,,,,,,,
484874,1495299614314,0,66.2,,65.1,1,62.8,,0.05,0.08,0.98,-3.2,-0.6,-0.1,700,0,1,0,0.0,0,39.540344,-122.332466,0.0,0.01,385.7,9,2,1.8,0,0.0,-1,0.0,0.0,0.0,0
484894,1495299614334,,,,,,,,0.05,0.08,0.98,-3.2,-0.5,0.0,740,0,,,,,,,,,,,,,,,,,,,
484914,1495299614354,,,,,,,,0.05,0.09,0.99,-3.2,-0.5,0.0,740,0,,,,,,,,,,,,,,,,,,,
484934,1495299614374,,,,,,,,0.05,0.09,0.99,-3.1,-0.4,-0.0,740,0,,,,,,,,,,,,,,,,,,,
484954,1495299614394,,,,,,,,0.05,0.09,0.99,-3.1,-0.4,-0.1,720,0,,,,,,,,,,,,,,,,,,,
484974,1495299614414,,,,,0,,,0.05,0.09,0.99,-3.0,-0.4,-0.0,700,0,1,0,0.0,0,39.540344,-122.332466,0.0,0.01,385.7,9,2,1.8,0,0.0,-1,0.0,0.0,0.0,0
484994,1495299614434,,,,,,,,0.05,0.08,0.99,-3.0,-0.4,-0.1,740,0,,,,,,,,,,,,,,,,,,,
485014,1495299614454,,,,,,,,0.04,0.07,0.99,-3.0,-0.4,-0.2,740,0,,,,,,,,,,,,,,,,,,,
485034,1495299614474,,,,,,,,0.04,0.07,0.99,-3.0,-0.4,-0.2,760,0,,,,,,,,,,,,,,,,,,,
485054,1495299614494,,,,,,,,0.05,0.07,0.99,-3.0,-0.3,-0.1,760,0,,,,,,,,,,,,,,,,,,,
485074,1495299614514,0,64.5,-0.7,64.9,0,65.8,14.78,0.04,0.08,1.0,-3.0,-0.3,-0.1,780,0,1,0,0.0,0,39.540344,-122.332466,0.0,0.01,385.7,9,2,1.8,0,0.0,-1,0.0,0.0,0.0,0
485094,1495299614534,,,,,,,,0.04,0.07,1.0,-3.0,-0.2,-0.1,760,0,,,,,,,,,,,,,,,,,,,
485114,1495299614554,,,,,,,,0.04,0.07,1.0,-3.0,-0.3,-0.1,760,0,,,,,,,,,,,,,,,,,,,
485134,1495299614574,,,,,,,,0.04,0.07,0.99,-3.0,-0.2,-0.1,740,0,,,,,,,,,,,,,,,,,,,
485154,1495299614593,,,,,,,,0.04,0.08,0.99,-3.0,-0.4,-0.1,780,0,,,,,,,,,,,,,,,,,,,
485174,1495299614613,,,,,0,,,0.04,0.07,0.99,-3.0,-0.4,-0.1,800,0,1,0,0.0,0,39.540344,-122.332466,0.0,0.01,385.7,9,2,1.8,0,0.0,-1,0.0,0.0,0.0,0
485194,1495299614633,,,,,,,,0.04,0.06,0.99,-3.0,-0.4,-0.1,800,0,,,,,,,,,,,,,,,,,,,
485214,1495299614653,,,,,,,,0.04,0.06,0.98,-3.0,-0.4,-0.1,800,0,,,,,,,,,,,,,,,,,,,
485234,1495299614673,,,,,,,,0.04,0.05,0.98,-3.0,-0.3,-0.1,840,0,,,,,,,,,,,,,,,,,,,
485254,1495299614693,,,,,,,,0.04,0.06,0.98,-3.0,-0.5,-0.0,820,0,,,,,,,,,,,,,,,,,,,
485274,1495299614713,0,64.8,,62.7,0,62.1,,0.04,0.06,0.98,-3.0,-0.4,-0.0,820,0,1,0,0.0,0,39.540344,-122.332466,0.0,0.01,385.7,9,2,1.8,0,0.0,-1,0.0,0.0,0.0,0
485294,1495299614733,,,,,,,,0.04,0.05,0.98,-3.0,-0.5,-0.1,860,0,,,,,,,,,,,,,,,,,,,
485314,1495299614753,,,,,,,,0.04,0.05,0.98,-3.0,-0.3,-0.2,880,0,,,,,,,,,,,,,,,,,,,
485334,1495299614773,,,,,,,,0.04,0.04,0.97,-3.0,-0.4,-0.1,920,0,,,,,,,,,,,,,,,,,,,
485354,1495299614793,,,,,,,,0.04,0.05,0.98,-3.1,-0.3,0.1,940,0,,,,,,,,,,,,,,,,,,,
485374,1495299614813,,,,,0,,,0.05,0.06,0.98,-3.1,-0.2,0.2,940,0,1,0,0.0,0,39.540344,-122.332466,0.0,0.01,385.7,9,2,1.8,0,0.0,-1,0.0,0.0,0.0,0
485394,1495299614833,,,,,,,,0.06,0.08,0.99,-3.2,-0.2,0.3,960,0,,,,,,,,,,,,,,,,,,,
485414,1495299614853,,,,,,,,0.07,0.1,1.0,-3.2,-0.2,0.4,960,0,,,,,,,,,,,,,,,,,,,
485434,1495299614873,,,,,,,,0.08,0.11,1.0,-3.2,-0.3,0.4,980,0,,,,,,,,,,,,,,,,,,,
485454,1495299614893,,,,,,,,0.08,0.12,1.0,-3.2,-0.4,0.4,1000,0,,,,,,,,,,,,,,,,,,,
485474,1495299614913,0,63.9,,64.1,0,65.1,,0.08,0.13,1.0,-3.2,-0.4,0.4,1020,0,1,0,0.0,0,39.540344,-122.332466,0.0,0.01,385.7,9,2,1.8,0,0.0,-1,0.0,0.0,0.0,0
485494,1495299614933,,,,,,,,0.08,0.13,1.0,-3.2,-0.5,0.4,1040,0,,,,,,,,,,,,,,,,,,,
485514,1495299614953,,,,,,,,0.08,0.13,1.01,-3.2,-0.5,0.3,1040,0,,,,,,,,,,,,,,,,,,,
485534,1495299614973,,,,,,,,0.08,0.13,1.02,-3.2,-0.5,0.3,1060,0,,,,,,,,,,,,,,,,,,,
485554,1495299614993,,,,,,,,0.08,0.13,1.02,-3.2,-0.5,0.2,1060,0,,,,,,,,,,,,,,,,,,,
485574,1495299615007,,,,,1,,,0.08,0.12,1.01,-3.2,-0.6,0.1,1080,0,1,0,0.0,0,39.540344,-122.332466,0.0,0.01,385.7,9,2,1.8,0,0.0,-1,0.0,0.0,0.0,0
485594,1495299615027,,,,,,,,0.08,0.11,1.01,-3.1,-0.6,0.0,1080,0,,,,,,,,,,,,,,,,,,,
485614,1495299615047,,,,,,,,0.07,0.1,1.01,-3.1,-0.6,0.0,1080,0,,,,,,,,,,,,,,,,,,,
485634,1495299615067,,,,,,,,0.07,0.11,1.0,-3.1,-0.7,-0.0,1080,0,,,,,,,,,,,,,,,,,,,
485654,1495299615093,,,,,,,,0.07,0.11,1.0,-3.1,-0.7,-0.0,1080,0,,,,,,,,,,,,,,,,,,,
485674,1495299615113,0,65.6,,64.9,1,62.8,,0.06,0.1,1.0,-3.1,-0.6,-0.1,1080,0,1,0,0.0,0,39.540344,-122.332466,0.0,0.01,385.7,9,2,1.8,0,0.0,-1,0.0,0.0,0.0,0
485694,1495299615133,,,,,,,,0.06,0.11,1.0,-3.1,-0.6,-0.1,1080,0,,,,,,,,,,,,,,,,,,,
485714,1495299615153,,,,,,,,0.06,0.11,1.0,-3.1,-0.5,-0.1,1080,0,,,,,,,,,,,,,,,,,,,
485734,1495299615173,,,,,,,,0.06,0.11,1.0,-3.0,-0.5,-0.1,1080,0,,,,,,,,,,,,,,,,,,,
485754,1495299615193,,,,,,,,0.06,0.1,1.0,-3.0,-0.4,-0.1,1060,0,,,,,,,,,,,,,,,,,,,
485774,1495299615213,,,,,1,,,0.06,0.09,1.0,-3.0,-0.3,-0.1,1060,0,1,0,0.0,0,39.540344,-122.332466,0.0,0.01,385.7,9,2,1.8,0,0.0,-1,0.0,0.0,0.0,0
485794,1495299615233,,,,,,,,0.06,0.09,1.0,-3.0,-0.4,-0.1,1060,0,,,,,,,,,,,,,,,,,,,
485814,1495299615253,,,,,,,,0.05,0.11,0.99,-3.2,-0.5,0.0,1060,0,,,,,,,,,,,,,,,,,,,
485834,1495299615273,,,,,,,,0.06,0.1,0.99,-3.2,-0.5,0.0,1040,0,,,,,,,,,,,,,,,,,,,
485854,1495299615293,,,,,,,,0.06,0.1,1.0,-3.2,-0.5,0.0,1040,0,,,,,,,,,,,,,,,,,,,
485874,1495299615313,0,65.7,,64.9,1,63.0,,0.07,0.1,1.01,-3.2,-0.4,0.0,1020,0,1,0,0.0,0,39.540344,-122.332466,0.0,0.01,385.7,9,2,1.8,0,0.0,-1,0.0,0.0,0.0,0
485894,1495299615333,,,,,,,,0.07,0.09,1.01,-3.1,-0.4,0.0,1020,0,,,,,,,,,,,,,,,,,,,
485914,1495299615353,,,,,,,,0.07,0.09,1.0,-3.1,-0.5,-0.1,1000,0,,,,,,,,,,,,,,,,,,,
485934,1495299615373,,,,,,,,0.07,0.09,1.0,-3.1,-0.4,-0.1,1000,0,,,,,,,,,,,,,,,,,,,
485954,1495299615393,,,,,,,,0.06,0.09,1.0,-3.1,-0.5,-0.1,1000,0,,,,,,,,,,,,,,,,,,,
485974,1495299615413,,,,,2,,,0.06,0.08,1.0,-3.1,-0.5,-0.1,1000,0,1,0,0.0,0,39.540344,-122.332466,0.0,0.01,385.7,9,2,1.8,0,0.0,-1,0.0,0.0,0.0,0
485994,1495299615433,,,,,,,,0.06,0.08,1.0,-3.0,-0.4,-0.1,980,0,,,,,,,,,,,,,,,,,,,
486014,1495299615453,,,,,,,,0.06,0.07,1.0,-3.0,-0.3,-0.2,980,0,,,,,,,,,,,,,,,,,,,
486034,1495299615473,,,,,,,,0.06,0.07,1.0,-2.9,-0.2,-0.2,980,0,,,,,,,,,,,,,,,,,,,
486054,1495299615493,,,,,,,,0.05,0.06,1.0,-2.9,-0.2,-0.2,980,0,,,,,,,,,,,,,,,,,,,
486074,1495299615513,0,65.2,-0.3,63.3,4,62.5,14.8,0.05,0.06,1.0,-2.8,-0.2,-0.2,980,0,1,0,0.0,0,39.540344,-122.332466,0.0,0.01,385.7,9,2,1.8,0,0.0,-1,0.0,0.0,0.0,0
486094,1495299615533,,,,,,,,0.05,0.05,1.0,-2.8,-0.1,-0.2,960,0,,,,,,,,,,,,,,,,,,,
486114,1495299615553,,,,,,,,0.05,0.06,1.0,-2.8,-0.0,-0.2,960,0,,,,,,,,,,,,,,,,,,,
486134,1495299615573,,,,,,,,0.05,0.06,1.0,-2.9,0.0,-0.2,960,0,,,,,,,,,,,,,,,,,,,
486154,1495299615592,,,,,,,,0.05,0.06,0.99,-2.9,0.1,-0.2,960,0,,,,,,,,,,,,,,,,,,,
486174,1495299615612,,,,,5,,,0.05,0.06,0.99,-2.9,0.2,-0.2,960,0,1,1,0.0,0,39.540344,-122.332466,0.0,0.01,385.7,9,2,1.8,0,0.0,-1,0.0,0.0,0.0,0
486194,1495299615632,,,,,,,,0.05,0.05,0.98,-2.9,0.1,-0.2,960,0,,,,,,,,,,,,,,,,,,,
486214,1495299615652,,,,,,,,0.06,0.05,0.98,-2.9,0.1,-0.2,940,0,,,,,,,,,,,,,,,,,,,
486234,1495299615672,,,,,,,,0.06,0.04,0.98,-3.0,0.1,-0.1,940,0,,,,,,,,,,,,,,,,,,,
486254,1495299615692,,,,,,,,0.06,0.05,0.98,-3.0,0.1,0.0,940,0,,,,,,,,,,,,,,,,,,,
486274,1495299615712,0,65.4,,65.5,6,65.1,,0.07,0.06,0.99,-3.0,0.1,0.1,940,0,1,1,0.0,0,39.540344,-122.332466,0.0,0.01,385.7,9,2,1.8,0,0.0,-1,0.0,0.0,0.0,0
486294,1495299615732,,,,,,,,0.07,0.08,1.0,-3.0,0.2,0.2,940,0,,,,,,,,,,,,,,,,,,,
486314,1495299615752,,,,,,,,0.08,0.1,0.99,-3.1,0.1,0.2,920,0,,,,,,,,,,,,,,,,,,,
486334,1495299615772,,,,,,,,0.08,0.11,1.0,-3.1,-0.0,0.2,940,0,,,,,,,,,,,,,,,,,,,
486354,1495299615792,,,,,,,,0.07,0.11,1.0,-3.2,-0.1,0.2,940,0,,,,,,,,,,,,,,,,,,,
486374,1495299615812,,,,,7,,,0.07,0.11,1.01,-3.1,-0.2,0.2,940,0,1,1,0.0,0,39.540344,-122.332466,0.0,0.01,385.7,9,2,1.8,0,0.0,-1,0.0,0.0,0.0,0
486394,1495299615832,,,,,,,,0.07,0.12,1.01,-3.1,-0.3,0.1,940,0,,,,,,,,,,,,,,,,,,,
486414,1495299615852,,,,,,,,0.07,0.11,1.02,-3.1,-0.3,-0.0,940,0,,,,,,,,,,,,,,,,,,,
486434,1495299615872,,,,,,,,0.06,0.11,1.02,-3.0,-0.4,-0.1,940,0,,,,,,,,,,,,,,,,,,,
486454,1495299615892,,,,,,,,0.06,0.1,1.01,-3.1,-0.5,-0.2,940,0,,,,,,,,,,,,,,,,,,,
486474,1495299615912,0,64.6,,63.1,11,62.8,,0.05,0.09,1.0,-3.0,-0.7,-0.3,940,0,1,1,0.0,0,39.540344,-122.332466,0.0,0.01,385.7,9,2,1.8,0,0.0,-1,0.0,0.0,0.0,0
486494,1495299615932,,,,,,,,0.04,0.07,0.99,-3.0,-0.6,-0.3,940,0,,,,,,,,,,,,,,,,,,,
486514,1495299615952,,,,,,,,0.04,0.06,0.99,-3.0,-0.5,-0.4,940,0,,,,,,,,,,,,,,,,,,,
486534,1495299615972,,,,,,,,0.04,0.05,0.99,-3.0,-0.5,-0.4,940,0,,,,,,,,,,,,,,,,,,,
486554,1495299615992,,,,,,,,0.04,0.05,0.98,-3.0,-0.4,-0.4,940,0,,,,,,,,,,,,,,,,,,,
486574,1495299616008,,,,,13,,,0.04,0.04,0.98,-3.0,-0.4,-0.3,940,0,1,1,0.0,0,39.540344,-122.332466,0.0,0.01,385.7,9,2,1.8,0,0.0,-1,0.0,0.0,0.0,0
486594,1495299616028,,,,,,,,0.04,0.04,0.97,-3.1,-0.4,-0.2,940,0,,,,,,,,,,,,,,,,,,,
486614,1495299616048,,,,,,,,0.04,0.04,0.98,-3.1,-0.3,-0.1,940,0,,,,,,,,,,,,,,,,,,,
486634,1495299616068,,,,,,,,0.05,0.04,0.98,-3.1,-0.1,0.0,940,0,,,,,,,,,,,,,,,,,,,
486654,1495299616092,,,,,,,,0.05,0.05,0.99,-3.1,-0.0,0.1,940,0,,,,,,,,,,,,,,,,,,,
486674,1495299616112,0,63.3,,62.8,18,63.5,,0.06,0.07,0.99,-3.1,-0.1,0.2,940,0,1,1,0.0,0,39.540344,-122.332466,0.0,0.01,385.7,9,2,1.8,0,0.0,-1,0.0,0.0,0.0,0
486694,1495299616132,,,,,,,,0.06,0.09,0.99,-3.1,-0.2,0.3,940,0,,,,,,,,,,,,,,,,,,,
486714,1495299616152,,,,,,,,0.07,0.1,0.99,-3.2,-0.4,0.2,940,0,,,,,,,,,,,,,,,,,,,
486734,1495299616172,,,,,,,,0.07,0.11,1.0,-3.2,-0.4,0.2,940,0,,,,,,,,,,,,,,,,,,,
486754,1495299616192,,,,,,,,0.06,0.11,1.0,-3.2,-0.4,0.2,940,0,,,,,,,,,,,,,,,,,,,
486774,1495299616212,,,,,23,,,0.06,0.11,1.0,-3.1,-0.4,0.1,940,0,1,1,0.0,0,39.540344,-122.332466,0.0,0.01,385.7,9,2,1.8,0,0.0,-1,0.0,0.0,0.0,0
486794,1495299616232,,,,,,,,0.06,0.11,1.01,-3.1,-0.4,-0.0,940,0,,,,,,,,,,,,,,,,,,,
486814,1495299616252,,,,,,,,0.06,0.1,1.01,-3.1,-0.5,-0.1,940,0,,,,,,,,,,,,,,,,,,,
486834,1495299616272,,,,,,,,0.05,0.09,1.0,-3.1,-0.6,-0.2,940,0,,,,,,,,,,,,,,,,,,,
486854,1495299616292,,,,,,,,0.04,0.07,0.99,-3.1,-0.8,-0.2,940,0,,,,,,,,,,,,,,,,,,,
486874,1495299616312,0,65.3,,63.6,28,62.5,,0.04,0.05,0.99,-3.1,-0.8,-0.3,940,0,1,1,0.0,0,39.540344,-122.332466,0.0,0.01,385.7,9,2,1.8,0,0.0,-1,0.0,0.0,0.0,0
486894,1495299616332,,,,,,,,0.04,0.05,0.99,-3.0,-0.7,-0.3,940,0,,,,,,,,,,,,,,,,,,,
486914,1495299616352,,,,,,,,0.03,0.04,0.99,-3.0,-0.5,-0.3,940,0,,,,,,,,,,,,,,,,,,,
486934,1495299616372,,,,,,,,0.03,0.04,0.98,-2.9,-0.4,-0.4,940,0,,,,,,,,,,,,,,,,,,,
486954,1495299616394,,,,,,,,0.04,0.04,0.97,-3.0,-0.4,-0.3,940,0,,,,,,,,,,,,,,,,,,,
486974,1495299616414,,,,,36,,,0.04,0.03,0.97,-3.0,-0.4,-0.3,940,0,1,1,0.0,0,39.540344,-122.332466,0.0,0.01,385.7,9,2,1.8,0,0.0,-1,0.0,0.0,0.0,0
486994,1495299616434,,,,,,,,0.04,0.03,0.97,-3.1,-0.4,-0.2,940,0,,,,,,,,,,,,,,,,,,,
487014,1495299616454,,,,,,,,0.04,0.03,0.97,-3.1,-0.3,-0.1,940,0,,,,,,,,,,,,,,,,,,,
487034,1495299616474,,,,,,,,0.05,0.04,0.97,-3.1,-0.2,0.1,940,0,,,,,,,,,,,,,,,,,,,
487054,1495299616494,,,,,,,,0.06,0.05,0.98,-3.1,-0.1,0.2,940,0,,,,,,,,,,,,,,,,,,,
487074,1495299616514,0,64.6,-0.8,64.8,43,65.4,14.7,0.06,0.07,0.99,-3.1,-0.1,0.2,940,0,1,1,0.0,0,39.540344,-122.332466,0.0,0.01,385.7,9,2,1.8,0,0.0,-1,0.0,0.0,0.0,0
487094,1495299616534,,,,,,,,0.07,0.09,0.99,-3.1,-0.1,0.3,960,0,,,,,,,,,,,,,,,,,,,
487114,1495299616554,,,,,,,,0.07,0.11,0.99,-3.2,-0.2,0.3,960,0,,,,,,,,,,,,,,,,,,,
487134,1495299616574,,,,,,,,0.07,0.12,1.0,-3.2,-0.3,0.3,960,0,,,,,,,,,,,,,,,,,,,
487154,1495299616593,,,,,,,,0.07,0.12,1.0,-3.2,-0.4,0.3,960,0,,,,,,,,,,,,,,,,,,,
487174,1495299616613,,,,,53,,,0.07,0.12,1.0,-3.2,-0.5,0.3,960,0,1,1,0.0,0,39.540344,-122.332466,0.0,0.01,385.7,9,2,1.8,0,0.0,-1,0.0,0.0,0.0,0
487194,1495299616633,,,,,,,,0.07,0.12,1.01,-3.1,-0.5,0.2,960,0,,,,,,,,,,,,,,,,,,,
487214,1495299616653,,,,,,,,0.06,0.11,1.01,-3.1,-0.5,0.1,960,0,,,,,,,,,,,,,,,,,,,
487234,1495299616673,,,,,,,,0.06,0.11,1.01,-3.0,-0.5,0.0,960,0,,,,,,,,,,,,,,,,,,,
487254,1495299616693,,,,,,,,0.06,0.11,1.01,-3.0,-0.5,-0.1,960,0,,,,,,,,,,,,,,,,,,,
487274,1495299616713,0,62.8,,63.3,55,64.5,,0.06,0.1,1.01,-3.0,-0.6,-0.1,960,0,1,1,0.0,0,39.540344,-122.332466,0.0,0.01,385.7,9,2,1.8,0,0.0,-1,0.0,0.0,0.0,0
487294,1495299616733,,,,,,,,0.05,0.1,1.01,-2.9,-0.6,-0.2,960,0,,,,,,,,,,,,,,,,,,,
487314,1495299616753,,,,,,,,0.05,0.09,1.01,-3.0,-0.7,-0.3,960,0,,,,,,,,,,,,,,,,,,,
487334,1495299616773,,,,,,,,0.04,0.08,1.0,-2.9,-0.8,-0.3,960,0,,,,,,,,,,,,,,,,,,,
487354,1495299616793,,,,,,,,0.03,0.06,1.0,-2.9,-0.8,-0.4,960,0,,,,,,,,,,,,,,,,,,,
487374,1495299616813,,,,,57,,,0.03,0.05,0.99,-2.9,-0.8,-0.4,960,0,1,1,0.0,0,39.540344,-122.332466,0.0,0.01,385.7,9,2,1.8,0,0.0,-1,0.0,0.0,0.0,0
487394,1495299616833,,,,,,,,0.02,0.03,0.98,-2.9,-0.8,-0.4,960,0,,,,,,,,,,,,,,,,,,,
487414,1495299616853,,,,,,,,0.02,0.02,0.98,-2.9,-0.7,-0.5,960,0,,,,,,,,,,,,,,,,,,,
487434,1495299616873,,,,,,,,0.02,0.02,0.98,-2.8,-0.6,-0.5,960,0,,,,,,,,,,,,,,,,,,,
487454,1495299616893,,,,,,,,0.02,0.02,0.98,-2.8,-0.5,-0.4,940,0,,,,,,,,,,,,,,,,,,,
487474,1495299616913,0,65.1,,65.1,60,65.3,,0.02,0.02,0.98,-2.9,-0.4,-0.4,940,0,1,1,0.0,0,39.540344,-122.332466,0.0,0.01,385.7,9,2,1.8,0,0.0,-1,0.0,0.0,0.0,0
487494,1495299616933,,,,,,,,0.02,0.03,0.98,-2.9,-0.4,-0.4,940,0,,,,,,,,,,,,,,,,,,,
487514,1495299616953,,,,,,,,0.03,0.02,0.98,-2.9,-0.3,-0.4,940,0,,,,,,,,,,,,,,,,,,,
487534,1495299616973,,,,,,,,0.03,0.02,0.98,-3.0,-0.2,-0.3,960,0,,,,,,,,,,,,,,,,,,,
487554,1495299616993,,,,,,,,0.04,0.03,0.98,-3.0,-0.2,-0.1,940,0,,,,,,,,,,,,,,,,,,,
487574,1495299617007,,,,,60,,,0.04,0.03,0.98,-3.0,-0.2,0.0,940,0,1,1,0.0,0,39.540344,-122.332466,0.0,0.01,385.7,9,2,1.8,0,0.0,-1,0.0,0.0,0.0,0
487594,1495299617027,,,,,,,,0.04,0.04,0.99,-3.0,-0.2,0.1,940,0,,,,,,,,,,,,,,,,,,,
487614,1495299617047,,,,,,,,0.05,0.06,0.99,-3.0,-0.1,0.2,940,0,,,,,,,,,,,,,,,,,,,
487634,1495299617067,,,,,,,,0.05,0.08,1.0,-3.0,-0.1,0.2,940,0,,,,,,,,,,,,,,,,,,,
487654,1495299617093,,,,,,,,0.06,0.1,1.0,-3.1,-0.2,0.2,940,0,,,,,,,,,,,,,,,,,,,
487674,1495299617113,0,65.1,,65.1,67,65.4,,0.06,0.12,1.0,-3.1,-0.4,0.2,940,0,1,1,0.0,0,39.540344,-122.332466,0.0,0.01,385.7,9,2,1.8,0,0.0,-1,0.0,0.0,0.0,0
487694,1495299617133,,,,,,,,0.06,0.11,1.0,-3.1,-0.4,0.1,940,0,,,,,,,,,,,,,,,,,,,
487714,1495299617153,,,,,,,,0.06,0.11,1.0,-3.1,-0.5,0.1,940,0,,,,,,,,,,,,,,,,,,,
487734,1495299617173,,,,,,,,0.06,0.11,1.0,-3.0,-0.6,-0.0,940,0,,,,,,,,,,,,,,,,,,,
487754,1495299617193,,,,,,,,0.05,0.1,1.01,-3.0,-0.6,-0.1,920,0,,,,,,,,,,,,,,,,,,,
487774,1495299617213,,,,,67,,,0.05,0.09,1.0,-3.0,-0.7,-0.2,920,0,1,1,0.0,0,39.540344,-122.332466,0.0,0.01,385.7,9,2,1.8,0,0.0,-1,0.0,0.0,0.0,0
487794,1495299617233,,,,,,,,0.04,0.08,0.99,-3.0,-0.8,-0.2,920,38,,,,,,,,,,,,,,,,,,,
487814,1495299617253,,,,,,,,0.04,0.07,0.99,-3.0,-0.8,-0.3,920,38,,,,,,,,,,,,,,,,,,,
487834,1495299617273,,,,,,,,0.04,0.06,0.99,-2.9,-0.7,-0.3,920,38,,,,,,,,,,,,,,,,,,,
487854,1495299617293,,,,,,,,0.04,0.06,0.99,-2.9,-0.6,-0.3,920,38,,,,,,,,,,,,,,,,,,,
487874,1495299617313,0,64.7,,64.8,66,65.2,,0.04,0.05,0.98,-2.9,-0.6,-0.3,920,38,1,1,24.211,0,39.540344,-122.332466,0.0,0.01,385.7,9,2,1.8,0,0.0,-1,0.0,0.0,0.0,0
487894,1495299617333,,,,,,,,0.03,0.05,0.98,-3.0,-0.6,-0.2,900,38,,,,,,,,,,,,,,,,,,,
487914,1495299617353,,,,,,,,0.04,0.05,0.98,-3.1,-0.5,-0.0,900,38,,,,,,,,,,,,,,,,,,,
487934,1495299617373,,,,,,,,0.05,0.06,0.99,-3.1,-0.4,0.1,900,38,,,,,,,,,,,,,,,,,,,
487954,1495299617393,,,,,,,,0.05,0.08,0.99,-3.1,-0.5,0.1,920,38,,,,,,,,,,,,,,,,,,,
487974,1495299617413,,,,,64,,,0.05,0.08,0.99,-3.1,-0.6,0.1,900,38,1,1,23.684,0,39.540344,-122.332466,0.0,0.01,385.7,9,2,1.8,0,0.0,-1,0.0,0.0,0.0,0
487994,1495299617433,,,,,,,,0.05,0.08,0.99,-3.1,-0.6,0.1,900,38,,,,,,,,,,,,,,,,,,,
488014,1495299617453,,,,,,,,0.05,0.08,1.0,-3.0,-0.6,-0.0,900,38,,,,,,,,,,,,,,,,,,,
488034,1495299617473,,,,,,,,0.05,0.08,1.0,-3.0,-0.7,-0.1,900,38,,,,,,,,,,,,,,,,,,,
488054,1495299617493,,,,,,,,0.04,0.06,0.99,-3.0,-0.7,-0.2,900,38,,,,,,,,,,,,,,,,,,,
488074,1495299617513,0,63.4,-0.4,63.6,62,64.6,14.85,0.04,0.05,0.99,-3.0,-0.5,-0.3,900,38,1,1,23.684,0,39.540344,-122.332466,0.0,0.01,385.7,9,2,1.8,0,0.0,-1,0.0,0.0,0.0,0
488094,1495299617533,,,,,,,,0.04,0.05,0.99,-3.0,-0.4,-0.2,900,38,,,,,,,,,,,,,,,,,,,
488114,1495299617553,,,,,,,,0.04,0.05,0.99,-3.0,-0.4,-0.1,900,38,,,,,,,,,,,,,,,,,,,
488134,1495299617573,,,,,,,,0.04,0.05,0.99,-3.1,-0.4,-0.0,900,38,,,,,,,,,,,,,,,,,,,
488154,1495299617592,,,,,,,,0.05,0.06,0.99,-3.1,-0.2,0.1,900,38,,,,,,,,,,,,,,,,,,,
488174,1495299617612,,,,,63,,,0.06,0.08,0.99,-3.1,-0.3,0.2,900,38,1,1,23.684,0,39.540344,-122.332466,0.0,0.01,385.7,9,2,1.8,0,0.0,-1,0.0,0.0,0.0,0
488194,1495299617632,,,,,,,,0.06,0.1,0.99,-3.2,-0.5,0.3,900,38,,,,,,,,,,,,,,,,,,,
488214,1495299617652,,,,,,,,0.06,0.1,1.0,-3.2,-0.4,0.2,920,38,,,,,,,,,,,,,,,,,,,
488234,1495299617672,,,,,,,,0.06,0.1,1.0,-3.1,-0.4,0.1,920,38,,,,,,,,,,,,,,,,,,,
488254,1495299617692,,,,,,,,0.05,0.1,1.0,-3.1,-0.4,0.0,900,38,,,,,,,,,,,,,,,,,,,
488274,1495299617712,0,63.4,,62.8,64,63.7,,0.05,0.09,1.0,-3.0,-0.6,-0.1,920,38,1,1,24.211,0,39.540344,-122.332466,0.0,0.01,385.7,9,2,1.8,0,0.0,-1,0.0,0.0,0.0,0
488294,1495299617732,,,,,,,,0.04,0.07,1.0,-3.0,-0.6,-0.2,920,38,,,,,,,,,,,,,,,,,,,
488314,1495299617752,,,,,,,,0.04,0.05,1.0,-3.0,-0.5,-0.3,920,38,,,,,,,,,,,,,,,,,,,
488334,1495299617772,,,,,,,,0.04,0.04,1.0,-2.9,-0.4,-0.3,920,38,,,,,,,,,,,,,,,,,,,
488354,1495299617792,,,,,,,,0.04,0.04,0.99,-3.0,-0.5,-0.2,920,38,,,,,,,,,,,,,,,,,,,
488374,1495299617812,,,,,65,,,0.04,0.04,0.98,-3.0,-0.5,-0.1,920,38,1,1,24.211,0,39.540344,-122.332466,0.0,0.01,385.7,9,2,1.8,0,0.0,-1,0.0,0.0,0.0,0
488394,1495299617832,,,,,,,,0.05,0.04,0.98,-3.1,-0.4,-0.0,920,38,,,,,,,,,,,,,,,,,,,
488414,1495299617852,,,,,,,,0.05,0.04,0.98,-3.1,-0.3,0.1,920,38,,,,,,,,,,,,,,,,,,,
488434,1495299617872,,,,,,,,0.06,0.06,0.98,-3.1,-0.3,0.2,920,38,,,,,,,,,,,,,,,,,,,
488454,1495299617892,,,,,,,,0.06,0.08,0.98,-3.1,-0.5,0.2,920,38,,,,,,,,,,,,,,,,,,,
488474,1495299617912,0,65.1,,65.2,64,65.4,,0.06,0.08,0.99,-3.1,-0.5,0.1,920,38,1,1,24.211,0,39.540344,-122.332466,0.0,0.01,385.7,9,2,1.8,0,0.0,-1,0.0,0.0,0.0,0
488494,1495299617932,,,,,,,,0.05,0.08,0.99,-3.1,-0.5,0.1,920,38,,,,,,,,,,,,,,,,,,,
488514,1495299617952,,,,,,,,0.05,0.08,1.0,-3.1,-0.5,-0.0,920,38,,,,,,,,,,,,,,,,,,,
488534,1495299617972,,,,,,,,0.05,0.08,1.0,-3.0,-0.5,-0.2,900,38,,,,,,,,,,,,,,,,,,,
488554,1495299617992,,,,,,,,0.05,0.07,1.0,-3.0,-0.7,-0.3,920,38,,,,,,,,,,,,,,,,,,,
488574,1495299618008,,,,,63,,,0.04,0.05,1.0,-2.9,-0.6,-0.3,920,38,1,1,24.211,0,39.540344,-122.332466,0.0,0.01,385.7,9,2,1.8,0,0.0,-1,0.0,0.0,0.0,0
488594,1495299618028,,,,,,,,0.04,0.04,0.99,-2.9,-0.6,-0.4,900,38,,,,,,,,,,,,,,,,,,,
488614,1495299618048,,,,,,,,0.04,0.04,0.99,-2.9,-0.6,-0.4,900,38,,,,,,,,,,,,,,,,,,,
488634,1495299618068,,,,,,,,0.04,0.04,0.98,-2.9,-0.6,-0.3,900,1538462,,,,,,,,,,,,,,,,,,,
488654,1495299618092,,,,,,,,0.04,0.04,0.98,-3.0,-0.5,-0.1,900,0,,,,,,,,,,,,,,,,,,,
488674,1495299618112,0,66.2,,65.3,64,64.2,,0.04,0.04,0.98,-3.0,-0.4,-0.0,900,0,1,1,23.684,0,39.540344,-122.332466,0.0,0.01,385.7,9,2,1.8,0,0.0,-1,0.0,0.0,0.0,0
488694,1495299618132,,,,,,,,0.05,0.06,0.98,-3.0,-0.4,0.0,880,0,,,,,,,,,,,,,,,,,,,
488714,1495299618152,,,,,,,,0.05,0.07,0.99,-3.1,-0.4,0.1,880,0,,,,,,,,,,,,,,,,,,,
488734,1495299618172,,,,,,,,0.05,0.07,1.0,-3.0,-0.4,0.1,880,0,,,,,,,,,,,,,,,,,,,
488754,1495299618192,,,,,,,,0.05,0.08,0.99,-3.0,-0.5,-0.1,880,0,,,,,,,,,,,,,,,,,,,
488774,1495299618212,,,,,63,,,0.04,0.07,0.99,-3.0,-0.6,-0.2,880,0,1,1,0.0,0,39.540344,-122.332466,0.0,0.01,385.7,9,2,1.8,0,0.0,-1,0.0,0.0,0.0,0
488794,1495299618232,,,,,,,,0.04,0.05,1.0,-3.0,-0.5,-0.4,880,0,,,,,,,,,,,,,,,,,,,
488814,1495299618252,,,,,,,,0.04,0.04,0.99,-2.9,-0.4,-0.4,880,0,,,,,,,,,,,,,,,,,,,
488834,1495299618272,,,,,,,,0.04,0.04,0.99,-3.0,-0.4,-0.3,880,0,,,,,,,,,,,,,,,,,,,
488854,1495299618292,,,,,,,,0.05,0.05,0.99,-3.0,-0.3,-0.1,880,0,,,,,,,,,,,,,,,,,,,
488874,1495299618312,0,65.5,,63.4,64,62.5,,0.05,0.06,0.98,-3.0,-0.4,0.0,880,0,1,1,0.0,0,39.540344,-122.332466,0.0,0.01,385.7,9,2,1.8,0,0.0,-1,0.0,0.0,0.0,0
488894,1495299618332,,,,,,,,0.05,0.07,0.99,-3.0,-0.4,0.1,880,0,,,,,,,,,,,,,,,,,,,
488914,1495299618352,,,,,,,,0.05,0.07,1.0,-3.0,-0.4,0.0,860,0,,,,,,,,,,,,,,,,,,,
488934,1495299618372,,,,,,,,0.05,0.08,0.99,-3.0,-0.5,-0.1,880,0,,,,,,,,,,,,,,,,,,,
488954,1495299618394,,,,,,,,0.04,0.07,0.99,-3.0,-0.6,-0.2,880,0,,,,,,,,,,,,,,,,,,,
488974,1495299618414,,,,,64,,,0.04,0.05,0.99,-2.9,-0.4,-0.3,880,0,1,1,0.0,0,39.540344,-122.332466,0.0,0.01,385.7,9,2,1.8,0,0.0,-1,0.0,0.0,0.0,0
488994,1495299618434,,,,,,,,0.04,0.04,0.98,-2.9,-0.4,-0.3,880,0,,,,,,,,,,,,,,,,,,,
489014,1495299618454,,,,,,,,0.04,0.05,0.99,-3.0,-0.3,-0.1,880,0,,,,,,,,,,,,,,,,,,,
489034,1495299618474,,,,,,,,0.05,0.05,0.99,-3.0,-0.3,-0.0,880,0,,,,,,,,,,,,,,,,,,,
489054,1495299618494,,,,,,,,0.05,0.06,0.99,-3.0,-0.4,0.1,880,0,,,,,,,,,,,,,,,,,,,
489074,1495299618514,0,65.9,-0.5,65.0,62,62.7,14.87,0.05,0.07,0.99,-3.0,-0.4,0.1,880,0,1,1,0.0,0,39.540344,-122.332466,0.0,0.01,385.7,9,2,1.8,0,0.0,-1,0.0,0.0,0.0,0
489094,1495299618534,,,,,,,,0.05,0.08,1.0,-3.0,-0.4,0.0,880,0,,,,,,,,,,,,,,,,,,,
489114,1495299618554,,,,,,,,0.05,0.08,0.99,-3.0,-0.6,-0.1,880,0,,,,,,,,,,,,,,,,,,,
489134,1495299618574,,,,,,,,0.04,0.07,0.99,-3.0,-0.5,-0.2,880,0,,,,,,,,,,,,,,,,,,,
489154,1495299618593,,,,,,,,0.04,0.05,0.99,-3.0,-0.4,-0.3,880,0,,,,,,,,,,,,,,,,,,,
489174,1495299618613,,,,,63,,,0.04,0.05,0.98,-2.9,-0.5,-0.2,880,0,1,1,0.0,0,39.540344,-122.332466,0.0,0.01,385.7,9,2,1.8,0,0.0,-1,0.0,0.0,0.0,0
489194,1495299618633,,,,,,,,0.05,0.05,0.98,-3.0,-0.3,-0.0,880,0,,,,,,,,,,,,,,,,,,,
489214,1495299618653,,,,,,,,0.05,0.06,0.98,-3.0,-0.3,0.1,880,0,,,,,,,,,,,,,,,,,,,
489234,1495299618673,,,,,,,,0.05,0.08,0.99,-3.0,-0.4,0.2,880,0,,,,,,,,,,,,,,,,,,,
489254,1495299618693,,,,,,,,0.05,0.09,0.99,-3.0,-0.4,0.2,880,0,,,,,,,,,,,,,,,,,,,
489274,1495299618713,0,65.1,,65.1,63,65.4,,0.05,0.09,0.99,-3.0,-0.3,0.1,880,0,1,1,0.0,0,39.540344,-122.332466,0.0,0.01,385.7,9,2,1.8,0,0.0,-1,0.0,0.0,0.0,0
489294,1495299618733,,,,,,,,0.04,0.09,0.99,-3.0,-0.5,-0.1,900,0,,,,,,,,,,,,,,,,,,,
489314,1495299618753,,,,,,,,0.04,0.08,0.99,-2.9,-0.6,-0.2,880,0,,,,,,,,,,,,,,,,,,,
489334,1495299618773,,,,,,,,0.04,0.06,0.99,-2.9,-0.5,-0.3,880,0,,,,,,,,,,,,,,,,,,,
489354,1495299618793,,,,,,,,0.04,0.04,0.98,-2.9,-0.5,-0.3,880,0,,,,,,,,,,,,,,,,,,,
489374,1495299618813,,,,,63,,,0.04,0.05,0.98,-2.9,-0.5,-0.2,880,0,1,1,0.0,0,39.540344,-122.332466,0.0,0.01,385.7,9,2,1.8,0,0.0,-1,0.0,0.0,0.0,0
489394,1495299618833,,,,,,,,0.05,0.05,0.99,-3.0,-0.4,0.0,900,0,,,,,,,,,,,,,,,,,,,
489414,1495299618853,,,,,,,,0.05,0.06,0.98,-3.0,-0.4,0.1,900,0,,,,,,,,,,,,,,,,,,,
489434,1495299618873,,,,,,,,0.06,0.08,0.99,-3.1,-0.4,0.2,900,0,,,,,,,,,,,,,,,,,,,
489454,1495299618893,,,,,,,,0.05,0.09,0.99,-3.1,-0.4,0.1,900,0,,,,,,,,,,,,,,,,,,,
489474,1495299618913,0,66.3,,65.6,64,64.6,,0.05,0.09,1.0,-3.0,-0.4,0.0,900,0,1,1,0.0,0,39.540344,-122.332466,0.0,0.01,385.7,9,2,1.8,0,0.0,-1,0.0,0.0,0.0,0
489494,1495299618933,,,,,,,,0.05,0.09,1.0,-3.0,-0.6,-0.1,900,0,,,,,,,,,,,,,,,,,,,
489514,1495299618953,,,,,,,,0.04,0.08,0.99,-3.0,-0.7,-0.2,900,0,,,,,,,,,,,,,,,,,,,
489534,1495299618973,,,,,,,,0.04,0.06,0.99,-3.0,-0.5,-0.3,900,0,,,,,,,,,,,,,,,,,,,
489554,1495299618993,,,,,,,,0.04,0.04,0.99,-2.9,-0.5,-0.3,900,0,,,,,,,,,,,,,,,,,,,
489574,1495299619009,,,,,63,,,0.04,0.04,0.98,-2.9,-0.5,-0.2,900,0,1,1,0.0,0,39.540344,-122.332466,0.0,0.01,385.7,9,2,1.8,0,0.0,-1,0.0,0.0,0.0,0
489594,1495299619029,,,,,,,,0.04,0.05,0.98,-3.0,-0.4,-0.1,900,0,,,,,,,,,,,,,,,,,,,
489614,1495299619049,,,,,,,,0.05,0.05,0.99,-3.0,-0.3,0.1,900,0,,,,,,,,,,,,,,,,,,,
489634,1495299619069,,,,,,,,0.06,0.07,0.98,-3.0,-0.3,0.2,900,0,,,,,,,,,,,,,,,,,,,
489654,1495299619093,,,,,,,,0.06,0.09,0.99,-3.1,-0.4,0.3,900,0,,,,,,,,,,,,,,,,,,,
489674,1495299619113,0,64.2,,64.3,63,65.2,,0.06,0.1,0.99,-3.1,-0.4,0.2,920,0,1,1,0.0,0,39.540344,-122.332466,0.0,0.01,385.7,9,2,1.8,0,0.0,-1,0.0,0.0,0.0,0
489694,1495299619133,,,,,,,,0.05,0.1,1.0,-3.1,-0.4,0.1,920,0,,,,,,,,,,,,,,,,,,,
489714,1495299619153,,,,,,,,0.05,0.1,1.0,-3.0,-0.5,0.0,900,0,,,,,,,,,,,,,,,,,,,
489734,1495299619173,,,,,,,,0.04,0.09,0.99,-3.0,-0.6,-0.1,900,0,,,,,,,,,,,,,,,,,,,
489754,1495299619193,,,,,,,,0.04,0.07,0.99,-3.0,-0.5,-0.2,900,0,,,,,,,,,,,,,,,,,,,
489774,1495299619213,,,,,66,,,0.04,0.05,0.99,-3.0,-0.4,-0.3,900,0,1,1,0.0,0,39.540344,-122.332466,0.0,0.01,385.7,9,2,1.8,0,0.0,-1,0.0,0.0,0.0,0
489794,1495299619233,,,,,,,,0.04,0.05,0.98,-3.0,-0.4,-0.2,900,0,,,,,,,,,,,,,,,,,,,
489814,1495299619253,,,,,,,,0.04,0.05,0.98,-3.0,-0.4,-0.1,900,0,,,,,,,,,,,,,,,,,,,
489834,1495299619273,,,,,,,,0.05,0.05,0.98,-3.1,-0.4,0.0,900,0,,,,,,,,,,,,,,,,,,,
489854,1495299619293,,,,,,,,0.05,0.06,0.98,-3.1,-0.3,0.1,900,0,,,,,,,,,,,,,,,,,,,
489874,1495299619313,0,66.3,,65.2,66,64.2,,0.06,0.08,0.99,-3.1,-0.3,0.2,900,0,1,1,0.0,0,39.540344,-122.332466,0.0,0.01,385.7,9,2,1.8,0,0.0,-1,0.0,0.0,0.0,0
489894,1495299619333,,,,,,,,0.06,0.09,0.99,-3.1,-0.4,0.2,900,0,,,,,,,,,,,,,,,,,,,
489914,1495299619353,,,,,,,,0.05,0.09,1.0,-3.1,-0.4,0.1,900,0,,,,,,,,,,,,,,,,,,,
489934,1495299619373,,,,,,,,0.05,0.09,1.0,-3.0,-0.5,0.0,880,0,,,,,,,,,,,,,,,,,,,
489954,1495299619393,,,,,,,,0.05,0.09,0.99,-3.0,-0.6,-0.1,900,0,,,,,,,,,,,,,,,,,,,
489974,1495299619413,,,,,65,,,0.04,0.07,0.99,-3.0,-0.5,-0.2,880,0,1,1,0.0,0,39.540344,-122.332466,0.0,0.01,385.7,9,2,1.8,0,0.0,-1,0.0,0.0,0.0,0
489994,1495299619433,,,,,,,,0.04,0.06,0.99,-3.0,-0.4,-0.3,900,0,,,,,,,,,,,,,,,,,,,
490014,1495299619453,,,,,,,,0.04,0.05,0.98,-3.0,-0.4,-0.2,880,0,,,,,,,,,,,,,,,,,,,
490034,1495299619473,,,,,,,,0.04,0.05,0.98,-3.0,-0.3,-0.1,880,0,,,,,,,,,,,,,,,,,,,
490054,1495299619495,,,,,,,,0.05,0.05,0.98,-3.1,-0.2,0.0,900,0,,,,,,,,,,,,,,,,,,,
490074,1495299619515,0,66.3,-0.5,65.3,64,64.5,14.87,0.06,0.08,0.98,-3.1,-0.3,0.1,900,0,1,1,0.0,0,39.540344,-122.332466,0.0,0.01,385.7,9,2,1.8,0,0.0,-1,0.0,0.0,0.0,0
490094,1495299619535,,,,,,,,0.06,0.09,0.99,-3.1,-0.4,0.1,900,0,,,,,,,,,,,,,,,,,,,
490114,1495299619555,,,,,,,,0.05,0.09,1.0,-3.1,-0.4,0.1,900,0,,,,,,,,,,,,,,,,,,,
490134,1495299619575,,,,,,,,0.05,0.09,1.01,-3.1,-0.4,-0.0,900,0,,,,,,,,,,,,,,,,,,,
490154,1495299619592,,,,,,,,0.05,0.09,1.0,-3.0,-0.6,-0.1,900,0,,,,,,,,,,,,,,,,,,,
490174,1495299619612,,,,,64,,,0.04,0.08,0.99,-3.0,-0.6,-0.2,900,0,1,1,0.0,0,39.540344,-122.332466,0.0,0.01,385.7,9,2,1.8,0,0.0,-1,0.0,0.0,0.0,0
490194,1495299619632,,,,,,,,0.04,0.06,0.99,-3.0,-0.5,-0.2,900,0,,,,,,,,,,,,,,,,,,,
490214,1495299619652,,,,,,,,0.04,0.05,0.99,-3.0,-0.5,-0.2,900,0,,,,,,,,,,,,,,,,,,,
490234,1495299619672,,,,,,,,0.04,0.06,0.98,-3.0,-0.5,-0.1,880,0,,,,,,,,,,,,,,,,,,,
490254,1495299619692,,,,,,,,0.05,0.06,0.98,-3.1,-0.4,0.0,880,0,,,,,,,,,,,,,,,,,,,
490274,1495299619712,0,66.3,,65.4,63,64.8,,0.05,0.06,0.98,-3.1,-0.3,0.1,880,0,1,1,0.0,0,39.540344,-122.332466,0.0,0.01,385.7,9,2,1.8,0,0.0,-1,0.0,0.0,0.0,0
490294,1495299619732,,,,,,,,0.05,0.08,0.98,-3.1,-0.5,0.1,880,0,,,,,,,,,,,,,,,,,,,
490314,1495299619752,,,,,,,,0.05,0.09,0.99,-3.1,-0.5,0.1,880,0,,,,,,,,,,,,,,,,,,,
490334,1495299619772,,,,,,,,0.05,0.08,1.0,-3.1,-0.4,-0.0,880,0,,,,,,,,,,,,,,,,,,,
490354,1495299619792,,,,,,,,0.05,0.08,0.99,-3.0,-0.6,-0.1,900,0,,,,,,,,,,,,,,,,,,,
490374,1495299619812,,,,,62,,,0.04,0.08,0.99,-3.0,-0.7,-0.2,880,0,1,1,0.0,0,39.540344,-122.332466,0.0,0.01,385.7,9,2,1.8,0,0.0,-1,0.0,0.0,0.0,0
490394,1495299619832,,,,,,,,0.04,0.06,0.99,-3.0,-0.5,-0.3,880,0,,,,,,,,,,,,,,,,,,,
490414,1495299619852,,,,,,,,0.04,0.05,0.99,-3.0,-0.5,-0.3,880,0,,,,,,,,,,,,,,,,,,,
490434,1495299619872,,,,,,,,0.04,0.05,0.98,-3.0,-0.4,-0.1,880,0,,,,,,,,,,,,,,,,,,,
490454,1495299619894,,,,,,,,0.05,0.06,0.99,-3.1,-0.3,-0.0,880,0,,,,,,,,,,,,,,,,,,,
490474,1495299619914,0,66.1,,65.2,62,64.2,,0.06,0.07,0.98,-3.1,-0.4,0.1,880,0,1,1,0.0,0,39.540344,-122.332466,0.0,0.01,385.7,9,2,1.8,0,0.0,-1,0.0,0.0,0.0,0
490494,1495299619934,,,,,,,,0.06,0.09,0.99,-3.1,-0.4,0.1,900,0,,,,,,,,,,,,,,,,,,,
490514,1495299619954,,,,,,,,0.05,0.09,0.99,-3.1,-0.4,0.0,880,0,,,,,,,,,,,,,,,,,,,
490534,1495299619974,,,,,,,,0.05,0.09,1.0,-3.1,-0.5,-0.1,880,0,,,,,,,,,,,,,,,,,,,
490554,1495299619994,,,,,,,,0.04,0.08,0.99,-3.0,-0.7,-0.2,900,0,,,,,,,,,,,,,,,,,,,
490574,1495299620008,,,,,63,,,0.04,0.06,1.0,-3.0,-0.6,-0.3,900,0,1,1,0.0,0,39.540344,-122.332466,0.0,0.01,385.7,9,2,1.8,0,0.0,-1,0.0,0.0,0.0,0
490594,1495299620028,,,,,,,,0.04,0.04,0.99,-3.0,-0.4,-0.3,900,0,,,,,,,,,,,,,,,,,,,
490614,1495299620048,,,,,,,,0.04,0.04,0.98,-3.0,-0.4,-0.2,920,0,,,,,,,,,,,,,,,,,,,
490634,1495299620068,,,,,,,,0.04,0.04,0.98,-3.0,-0.4,-0.1,900,0,,,,,,,,,,,,,,,,,,,
490654,1495299620092,,,,,,,,0.05,0.05,0.98,-3.1,-0.3,-0.1,900,0,,,,,,,,,,,,,,,,,,,
490674,1495299620112,0,65.7,,64.9,64,65.1,,0.06,0.06,0.98,-3.1,-0.2,0.0,900,0,1,1,0.0,0,39.540344,-122.332466,0.0,0.01,385.7,9,2,1.8,0,0.0,-1,0.0,0.0,0.0,0
490694,1495299620132,,,,,,,,0.06,0.08,0.99,-3.1,-0.3,0.0,920,0,,,,,,,,,,,,,,,,,,,
490714,1495299620152,,,,,,,,0.06,0.09,0.99,-3.1,-0.4,0.0,920,0,,,,,,,,,,,,,,,,,,,
490734,1495299620172,,,,,,,,0.05,0.08,1.0,-3.1,-0.5,0.0,920,0,,,,,,,,,,,,,,,,,,,
490754,1495299620194,,,,,,,,0.05,0.08,1.01,-3.1,-0.5,-0.0,920,0,,,,,,,,,,,,,,,,,,,
490774,1495299620214,,,,,63,,,0.05,0.08,1.01,-3.0,-0.5,-0.1,920,0,1,1,0.0,0,39.540344,-122.332466,0.0,0.01,385.7,9,2,1.8,0,0.0,-1,0.0,0.0,0.0,0
490794,1495299620234,,,,,,,,0.04,0.09,1.01,-3.0,-0.5,-0.2,920,0,,,,,,,,,,,,,,,,,,,
490814,1495299620254,,,,,,,,0.04,0.07,1.0,-2.9,-0.6,-0.3,920,0,,,,,,,,,,,,,,,,,,,
490834,1495299620274,,,,,,,,0.03,0.05,1.0,-2.9,-0.6,-0.3,920,0,,,,,,,,,,,,,,,,,,,
490854,1495299620294,,,,,,,,0.04,0.04,0.99,-2.9,-0.5,-0.4,940,0,,,,,,,,,,,,,,,,,,,
490874,1495299620314,0,66.1,,65.3,66,64.7,,0.04,0.05,0.99,-2.9,-0.4,-0.3,940,0,1,1,0.0,0,39.540344,-122.332466,0.0,0.01,385.7,9,2,1.8,0,0.0,-1,0.0,0.0,0.0,0
490894,1495299620334,,,,,,,,0.05,0.05,0.98,-2.9,-0.4,-0.3,920,0,,,,,,,,,,,,,,,,,,,
490914,1495299620354,,,,,,,,0.05,0.05,0.97,-2.9,-0.4,-0.2,920,0,,,,,,,,,,,,,,,,,,,
490934,1495299620374,,,,,,,,0.06,0.05,0.97,-3.0,-0.4,-0.1,920,0,,,,,,,,,,,,,,,,,,,
490954,1495299620394,,,,,,,,0.07,0.06,0.98,-3.0,-0.2,0.0,920,0,,,,,,,,,,,,,,,,,,,
490974,1495299620414,,,,,65,,,0.07,0.07,0.99,-2.9,-0.1,0.1,920,0,1,1,0.0,0,39.540344,-122.332466,0.0,0.01,385.7,9,2,1.8,0,0.0,-1,0.0,0.0,0.0,0
490994,1495299620434,,,,,,,,0.08,0.09,0.99,-2.9,-0.2,0.1,920,0,,,,,,,,,,,,,,,,,,,
491014,1495299620454,,,,,,,,0.08,0.1,1.0,-3.0,-0.3,0.1,920,0,,,,,,,,,,,,,,,,,,,
491034,1495299620474,,,,,,,,0.08,0.1,1.01,-3.0,-0.4,0.1,900,0,,,,,,,,,,,,,,,,,,,
491054,1495299620494,,,,,,,,0.08,0.1,1.02,-3.0,-0.4,0.0,900,0,,,,,,,,,,,,,,,,,,,
491074,1495299620514,0,65.7,-0.1,65.1,65,63.3,14.87,0.07,0.1,1.02,-3.0,-0.5,-0.1,900,0,1,1,0.0,0,39.540344,-122.332466,0.0,0.01,385.7,9,2,1.8,0,0.0,-1,0.0,0.0,0.0,0
491094,1495299620534,,,,,,,,0.06,0.09,1.01,-3.0,-0.6,-0.3,900,0,,,,,,,,,,,,,,,,,,,
491114,1495299620554,,,,,,,,0.06,0.07,1.01,-3.0,-0.6,-0.3,880,0,,,,,,,,,,,,,,,,,,,
491134,1495299620574,,,,,,,,0.06,0.06,1.0,-3.0,-0.5,-0.3,880,0,,,,,,,,,,,,,,,,,,,
491154,1495299620593,,,,,,,,0.07,0.06,0.99,-3.0,-0.6,-0.2,880,0,,,,,,,,,,,,,,,,,,,
491174,1495299620613,,,,,63,,,0.07,0.07,0.99,-3.0,-0.5,-0.0,860,0,1,1,0.0,0,39.540344,-122.332466,0.0,0.01,385.7,9,2,1.8,0,0.0,-1,0.0,0.0,0.0,0
491194,1495299620633,,,,,,,,0.08,0.07,0.98,-3.0,-0.4,0.0,860,2,,,,,,,,,,,,,,,,,,,
491214,1495299620653,,,,,,,,0.08,0.08,0.99,-3.0,-0.5,0.0,840,2,,,,,,,,,,,,,,,,,,,
491234,1495299620673,,,,,,,,0.08,0.08,0.99,-3.1,-0.5,-0.0,860,2,,,,,,,,,,,,,,,,,,,
491254,1495299620693,,,,,,,,0.07,0.08,1.0,-3.0,-0.5,-0.1,840,2,,,,,,,,,,,,,,,,,,,
491274,1495299620713,0,65.1,,64.1,62,65.1,,0.07,0.07,1.0,-3.0,-0.5,-0.2,820,2,1,1,840.0,0,39.540344,-122.332466,0.0,0.01,385.7,9,2,1.8,0,0.0,-1,0.0,0.0,0.0,0
491294,1495299620733,,,,,,,,0.06,0.06,1.0,-3.0,-0.4,-0.2,820,2,,,,,,,,,,,,,,,,,,,
491314,1495299620753,,,,,,,,0.07,0.06,1.0,-3.1,-0.4,-0.1,820,11,,,,,,,,,,,,,,,,,,,
491334,1495299620773,,,,,,,,0.07,0.07,1.0,-3.1,-0.3,0.0,820,11,,,,,,,,,,,,,,,,,,,
491354,1495299620793,,,,,,,,0.07,0.08,1.0,-3.0,-0.5,0.0,800,11,,,,,,,,,,,,,,,,,,,
491374,1495299620813,,,,,60,,,0.07,0.08,1.0,-3.1,-0.4,-0.1,800,11,1,1,820.0,0,39.540344,-122.332466,0.0,0.01,385.7,9,2,1.8,0,0.0,-1,0.0,0.0,0.0,0
491394,1495299620833,,,,,,,,0.06,0.08,1.0,-3.1,-0.5,-0.1,800,11,,,,,,,,,,,,,,,,,,,
491414,1495299620853,,,,,,,,0.06,0.08,0.99,-3.0,-0.4,-0.1,800,11,,,,,,,,,,,,,,,,,,,
491434,1495299620873,,,,,,,,0.06,0.08,0.99,-3.0,-0.4,-0.0,800,14,,,,,,,,,,,,,,,,,,,
491454,1495299620893,,,,,,,,0.06,0.08,0.99,-3.0,-0.5,0.0,780,14,,,,,,,,,,,,,,,,,,,
491474,1495299620913,0,65.5,,64.8,60,65.4,,0.06,0.08,0.99,-3.0,-0.4,-0.1,780,14,1,1,80.0,0,39.540344,-122.332466,0.0,0.01,385.7,9,2,1.8,0,0.0,-1,0.0,0.0,0.0,0
491494,1495299620933,,,,,,,,0.05,0.07,1.0,-3.0,-0.5,-0.1,780,14,,,,,,,,,,,,,,,,,,,
491514,1495299620953,,,,,,,,0.06,0.07,0.99,-3.0,-0.5,-0.1,780,14,,,,,,,,,,,,,,,,,,,
491534,1495299620973,,,,,,,,0.06,0.07,0.98,-3.1,-0.5,0.0,800,14,,,,,,,,,,,,,,,,,,,
491554,1495299620993,,,,,,,,0.06,0.07,0.99,-3.1,-0.7,0.1,780,14,,,,,,,,,,,,,,,,,,,
491574,1495299621007,,,,,60,,,0.06,0.08,0.99,-3.1,-0.6,-0.0,780,14,1,1,60.0,0,39.540344,-122.332466,0.0,0.01,385.7,9,2,1.8,0,0.0,-1,0.0,0.0,0.0,0
491594,1495299621027,,,,,,,,0.05,0.07,1.0,-3.1,-0.6,-0.0,780,14,,,,,,,,,,,,,,,,,,,
491614,1495299621047,,,,,,,,0.05,0.07,0.99,-3.1,-0.5,-0.0,780,15,,,,,,,,,,,,,,,,,,,
491634,1495299621067,,,,,,,,0.06,0.07,0.99,-3.0,-0.5,0.0,780,15,,,,,,,,,,,,,,,,,,,
491654,1495299621091,,,,,,,,0.06,0.07,0.99,-3.0,-0.7,0.0,780,15,,,,,,,,,,,,,,,,,,,
491674,1495299621111,0,66.0,,65.2,61,64.1,,0.05,0.07,0.99,-3.0,-0.6,-0.1,800,15,1,1,60.0,0,39.540344,-122.332466,0.0,0.01,385.7,9,2,1.8,0,0.0,-1,0.0,0.0,0.0,0
491694,1495299621131,,,,,,,,0.05,0.06,1.0,-3.0,-0.6,-0.1,800,15,,,,,,,,,,,,,,,,,,,
491714,1495299621151,,,,,,,,0.05,0.07,0.99,-3.0,-0.6,-0.0,800,15,,,,,,,,,,,,,,,,,,,
491734,1495299621171,,,,,,,,0.06,0.07,0.99,-3.0,-0.5,0.0,800,15,,,,,,,,,,,,,,,,,,,
491754,1495299621193,,,,,,,,0.05,0.07,0.99,-3.0,-0.7,0.0,780,15,,,,,,,,,,,,,,,,,,,
491774,1495299621213,,,,,61,,,0.05,0.07,0.99,-3.0,-0.5,-0.1,800,15,1,1,53.333,0,39.540344,-122.332466,0.0,0.01,385.7,9,2,1.8,0,0.0,-1,0.0,0.0,0.0,0
491794,1495299621233,,,,,,,,0.05,0.07,0.99,-3.0,-0.6,-0.1,800,15,,,,,,,,,,,,,,,,,,,
491814,1495299621253,,,,,,,,0.05,0.07,0.99,-3.0,-0.5,-0.1,780,12,,,,,,,,,,,,,,,,,,,
491834,1495299621273,,,,,,,,0.06,0.07,0.98,-3.0,-0.4,-0.0,800,12,,,,,,,,,,,,,,,,,,,
491854,1495299621293,,,,,,,,0.05,0.07,0.98,-3.0,-0.7,-0.0,800,12,,,,,,,,,,,,,,,,,,,
