"Interval"|"ms"|0|0|1,"Utc"|"ms"|0|0|1,"FuelLevel"|"F"|0|100|5,"OilTemp"|"F"|0.0|300.0|5,"CoolantPressPSI"|"PSI"|0.0|20.0|1,"Coolant"|"F"|0.0|300.0|5,"OilPress"|"PSI"|0|150|10,"EngineTemp"|"F"|0.0|300.0|5,"Battery"|"Volts"|0.0|20.0|1,"AccelX"|"G"|-3.0|3.0|50,"AccelY"|"G"|-3.0|3.0|50,"AccelZ"|"G"|-3.0|3.0|50,"Yaw"|"Deg/Sec"|-300.0|300.0|50,"Pitch"|"Deg/Sec"|-300.0|300.0|50,"Roll"|"Deg/Sec"|-300.0|300.0|50,"RPM"|""|0|10000|50,"Driveshaft"|"RPM"|0|5000|50,"GPIO1"|""|0|1|10,"GPIO2"|""|0|1|10,"GearRatio"|""|-5.0|5.0|10,"Gear"|""|-1|5|10,"Latitude"|"Degrees"|-180.0|180.0|10,"Longitude"|"Degrees"|-180.0|180.0|10,"Speed"|"mph"|0.0|150.0|10,"Distance"|"mi"|0.0|0.0|10,"Altitude"|"ft"|0.0|4000.0|10,"GPSSats"|""|0|20|10,"GPSQual"|""|0|5|10,"GPSDOP"|""|0.0|20.0|10,"LapCount"|""|0|0|10,"LapTime"|"Min"|0.0|0.0|10,"Sector"|""|0|0|10,"SectorTime"|"Min"|0.0|0.0|10,"PredTime"|"Min"|0.0|0.0|10,"ElapsedTime"|"Min"|0.0|0.0|10,"CurrentLap"|""|0|0|10
12454,1495318243994,,,,,,,,0.14,0.07,0.97,-3.0,-0.3,-0.1,800,0,,,,,,,,,,,,,,,,,,,
12474,1495318244014,0,108.0,,111.8,59,117.1,,0.15,0.07,0.98,-3.0,-0.1,-0.0,820,0,1,1,0.0,0,39.540566,-122.33226,0.0,0.0,326.2,4,2,0.4,0,0.0,-1,0.0,0.0,0.0,0
12494,1495318244034,,,,,,,,0.16,0.07,0.98,-3.0,-0.1,-0.0,820,0,,,,,,,,,,,,,,,,,,,
12514,1495318244054,,,,,,,,0.15,0.08,0.99,-3.0,-0.2,-0.1,820,0,,,,,,,,,,,,,,,,,,,
12534,1495318244074,,,,,,,,0.15,0.07,0.99,-2.9,-0.2,-0.2,820,0,,,,,,,,,,,,,,,,,,,
12554,1495318244092,,,,,,,,0.15,0.07,0.98,-3.0,-0.2,-0.2,840,0,,,,,,,,,,,,,,,,,,,
12574,1495318244112,,,,,61,,,0.14,0.07,0.98,-3.0,-0.3,-0.1,840,0,1,1,0.0,0,39.540539,-122.33226,0.0,0.0,300.1,4,2,0.4,0,0.0,-1,0.0,0.0,0.0,0
12594,1495318244132,,,,,,,,0.14,0.07,0.98,-3.0,-0.1,-0.0,800,0,,,,,,,,,,,,,,,,,,,
12614,1495318244152,,,,,,,,0.15,0.08,0.98,-3.0,-0.4,-0.0,820,0,,,,,,,,,,,,,,,,,,,
12634,1495318244172,,,,,,,,0.14,0.07,0.98,-3.0,-0.4,-0.1,820,0,,,,,,,,,,,,,,,,,,,
12654,1495318244193,,,,,,,,0.14,0.07,0.98,-2.9,-0.3,-0.2,820,0,,,,,,,,,,,,,,,,,,,
12674,1495318244213,0,107.8,,111.6,58,116.9,,0.15,0.07,0.98,-2.9,-0.3,-0.2,820,0,1,1,0.0,0,39.540539,-122.33226,0.0,0.0,305.6,4,2,0.4,0,0.0,-1,0.0,0.0,0.0,0
12694,1495318244233,,,,,,,,0.15,0.07,0.99,-2.9,-0.4,-0.1,820,0,,,,,,,,,,,,,,,,,,,
12714,1495318244253,,,,,,,,0.15,0.07,0.99,-3.0,-0.0,-0.0,840,0,,,,,,,,,,,,,,,,,,,
12734,1495318244273,,,,,,,,0.16,0.08,0.99,-3.0,-0.2,-0.0,820,0,,,,,,,,,,,,,,,,,,,
12754,1495318244293,,,,,,,,0.15,0.07,1.0,-3.0,-0.1,-0.1,820,0,,,,,,,,,,,,,,,,,,,
12774,1495318244313,,,,,61,,,0.15,0.07,1.0,-3.0,-0.1,-0.2,820,0,1,1,0.0,0,39.540539,-122.33226,0.0,0.0,304.1,4,2,0.4,0,0.0,-1,0.0,0.0,0.0,0
12794,1495318244333,,,,,,,,0.15,0.07,0.99,-3.0,-0.2,-0.2,820,0,,,,,,,,,,,,,,,,,,,
12814,1495318244353,,,,,,,,0.14,0.07,1.0,-3.0,-0.4,-0.2,820,0,,,,,,,,,,,,,,,,,,,
12834,1495318244373,,,,,,,,0.14,0.07,1.0,-3.1,-0.3,-0.1,820,0,,,,,,,,,,,,,,,,,,,
12854,1495318244391,,,,,,,,0.15,0.08,0.99,-3.0,-0.5,-0.1,840,0,,,,,,,,,,,,,,,,,,,
12874,1495318244411,0,107.7,,111.2,59,116.0,,0.14,0.07,0.99,-3.0,-0.6,-0.1,800,0,1,1,0.0,0,39.540539,-122.33226,0.0,0.0,305.1,4,2,0.4,0,0.0,-1,0.0,0.0,0.0,0
12894,1495318244431,,,,,,,,0.14,0.07,0.98,-3.0,-0.4,-0.1,820,0,,,,,,,,,,,,,,,,,,,
12914,1495318244451,,,,,,,,0.15,0.06,0.98,-3.0,-0.4,-0.1,820,0,,,,,,,,,,,,,,,,,,,
12934,1495318244471,,,,,,,,0.15,0.07,0.98,-3.0,-0.3,-0.1,820,0,,,,,,,,,,,,,,,,,,,
12954,1495318244491,,,,,,,,0.15,0.07,1.0,-3.0,-0.0,-0.0,820,0,,,,,,,,,,,,,,,,,,,
12974,1495318244511,,,,,60,,,0.15,0.08,0.99,-3.0,-0.2,-0.0,820,0,1,1,0.0,0,39.540539,-122.33226,0.0,0.0,303.1,4,2,0.4,0,0.0,-1,0.0,0.0,0.0,0
12994,1495318244531,,,,,,,,0.15,0.08,1.0,-3.0,-0.2,-0.1,840,0,,,,,,,,,,,,,,,,,,,
13014,1495318244551,,,,,,,,0.14,0.07,0.99,-3.0,-0.2,-0.2,820,0,,,,,,,,,,,,,,,,,,,
13034,1495318244571,,,,,,,,0.15,0.07,0.98,-3.0,-0.3,-0.2,820,0,,,,,,,,,,,,,,,,,,,
13054,1495318244591,,,,,,,,0.14,0.07,0.99,-3.0,-0.4,-0.2,840,0,,,,,,,,,,,,,,,,,,,
13074,1495318244609,0,109.3,-0.7,113.1,61,117.5,14.61,0.14,0.07,0.99,-3.1,-0.2,-0.1,820,0,1,1,0.0,0,39.540539,-122.33226,0.0,0.0,304.9,4,2,0.4,0,0.0,-1,0.0,0.0,0.0,0
13094,1495318244629,,,,,,,,0.15,0.07,0.98,-3.0,-0.4,-0.0,840,0,,,,,,,,,,,,,,,,,,,
13114,1495318244649,,,,,,,,0.14,0.07,0.99,-3.0,-0.4,-0.1,840,0,,,,,,,,,,,,,,,,,,,
13134,1495318244669,,,,,,,,0.14,0.07,0.98,-3.0,-0.3,-0.1,840,0,,,,,,,,,,,,,,,,,,,
13154,1495318244691,,,,,,,,0.14,0.06,0.98,-2.9,-0.2,-0.2,820,0,,,,,,,,,,,,,,,,,,,
13174,1495318244711,,,,,62,,,0.14,0.06,0.99,-2.9,-0.3,-0.2,820,0,1,1,0.0,0,39.540539,-122.33226,0.0,0.0,307.0,4,2,0.4,0,0.0,-1,0.0,0.0,0.0,0
13194,1495318244731,,,,,,,,0.14,0.06,0.99,-3.0,-0.1,-0.1,820,0,,,,,,,,,,,,,,,,,,,
13214,1495318244751,,,,,,,,0.15,0.07,1.0,-2.9,-0.2,-0.1,820,0,,,,,,,,,,,,,,,,,,,
13234,1495318244771,,,,,,,,0.15,0.07,1.0,-3.0,-0.3,-0.1,840,0,,,,,,,,,,,,,,,,,,,
13254,1495318244791,,,,,,,,0.14,0.07,1.0,-2.9,-0.3,-0.2,840,0,,,,,,,,,,,,,,,,,,,
13274,1495318244811,0,109.0,,113.3,61,117.5,,0.15,0.07,1.0,-3.0,-0.2,-0.2,840,0,1,1,0.0,0,39.540539,-122.33226,0.0,0.0,307.0,4,2,0.4,0,0.0,-1,0.0,0.0,0.0,0
13294,1495318244809,,,,,,,,0.15,0.07,1.0,-3.0,-0.3,-0.2,840,0,,,,,,,,,,,,,,,,,,,
13314,1495318244829,,,,,,,,0.15,0.07,1.0,-3.0,-0.1,-0.1,820,0,,,,,,,,,,,,,,,,,,,
13334,1495318244849,,,,,,,,0.16,0.07,1.0,-3.0,-0.0,-0.0,820,0,,,,,,,,,,,,,,,,,,,
13354,1495318244891,,,,,,,,0.15,0.08,1.0,-3.0,-0.2,-0.1,820,0,,,,,,,,,,,,,,,,,,,
13374,1495318244911,,,,,61,,,0.15,0.07,0.99,-3.0,-0.1,-0.2,820,0,1,1,0.0,0,39.540539,-122.33226,0.0,0.0,308.7,4,2,0.4,0,0.0,-1,0.0,0.0,0.0,0
13394,1495318244931,,,,,,,,0.14,0.07,0.99,-3.0,-0.0,-0.2,840,0,,,,,,,,,,,,,,,,,,,
13414,1495318244951,,,,,,,,0.14,0.07,0.99,-3.0,-0.2,-0.2,840,0,,,,,,,,,,,,,,,,,,,
13434,1495318244971,,,,,,,,0.14,0.07,1.0,-3.0,-0.1,-0.1,840,0,,,,,,,,,,,,,,,,,,,
13454,1495318244991,,,,,,,,0.15,0.07,0.99,-3.0,-0.1,-0.1,800,0,,,,,,,,,,,,,,,,,,,
13474,1495318245011,0,109.1,,113.0,60,117.5,,0.14,0.08,1.0,-3.0,-0.4,-0.1,820,0,1,1,0.0,0,39.540539,-122.33226,0.0,0.0,308.7,4,2,0.4,0,0.0,-1,0.0,0.0,0.0,0
13494,1495318245031,,,,,,,,0.14,0.07,1.0,-2.9,-0.4,-0.1,820,0,,,,,,,,,,,,,,,,,,,
13514,1495318245051,,,,,,,,0.15,0.06,1.0,-2.9,-0.3,-0.2,820,0,,,,,,,,,,,,,,,,,,,
13534,1495318245071,,,,,,,,0.15,0.07,0.99,-3.0,-0.5,-0.2,820,0,,,,,,,,,,,,,,,,,,,
13554,1495318245091,,,,,,,,0.15,0.07,0.99,-3.0,-0.3,-0.1,820,0,,,,,,,,,,,,,,,,,,,
13574,1495318245111,,,,,60,,,0.16,0.08,0.99,-3.0,-0.3,-0.0,840,0,1,1,0.0,0,39.540539,-122.33226,0.0,0.0,308.7,4,2,0.4,0,0.0,-1,0.0,0.0,0.0,0
13594,1495318245131,,,,,,,,0.15,0.08,1.0,-3.0,-0.4,-0.1,800,0,,,,,,,,,,,,,,,,,,,
13614,1495318245151,,,,,,,,0.15,0.08,0.98,-3.0,-0.3,-0.1,820,0,,,,,,,,,,,,,,,,,,,
13634,1495318245171,,,,,,,,0.15,0.07,0.97,-3.0,-0.3,-0.1,820,0,,,,,,,,,,,,,,,,,,,
13654,1495318245191,,,,,,,,0.15,0.07,0.97,-3.0,-0.4,-0.1,800,0,,,,,,,,,,,,,,,,,,,
13674,1495318245211,0,109.1,,112.8,59,116.2,,0.15,0.08,0.98,-3.0,-0.1,-0.0,820,0,1,1,0.0,0,39.540539,-122.33226,0.0,0.0,308.7,4,2,0.4,0,0.0,-1,0.0,0.0,0.0,0
13694,1495318245231,,,,,,,,0.16,0.08,0.98,-3.0,-0.2,-0.0,820,0,,,,,,,,,,,,,,,,,,,
13714,1495318245251,,,,,,,,0.15,0.07,0.99,-3.0,-0.3,-0.1,840,0,,,,,,,,,,,,,,,,,,,
13734,1495318245271,,,,,,,,0.15,0.07,0.99,-3.0,-0.2,-0.2,800,0,,,,,,,,,,,,,,,,,,,
13754,1495318245291,,,,,,,,0.15,0.07,0.99,-3.0,-0.3,-0.2,800,0,,,,,,,,,,,,,,,,,,,
13774,1495318245310,,,,,60,,,0.14,0.07,0.99,-3.1,-0.4,-0.1,820,0,1,1,0.0,0,39.540539,-122.33226,0.0,0.0,308.7,4,2,0.4,0,0.0,-1,0.0,0.0,0.0,0
13794,1495318245330,,,,,,,,0.14,0.07,0.99,-3.0,-0.2,-0.0,820,0,,,,,,,,,,,,,,,,,,,
13814,1495318245350,,,,,,,,0.14,0.07,0.99,-3.0,-0.4,-0.0,820,0,,,,,,,,,,,,,,,,,,,
13834,1495318245370,,,,,,,,0.14,0.06,1.0,-3.0,-0.3,-0.1,840,0,,,,,,,,,,,,,,,,,,,
13854,1495318245390,,,,,,,,0.14,0.06,0.99,-2.9,-0.2,-0.2,840,0,,,,,,,,,,,,,,,,,,,
13874,1495318245410,0,109.3,,112.1,59,115.8,,0.14,0.06,1.0,-3.0,-0.2,-0.2,840,0,1,1,0.0,0,39.540539,-122.33226,0.0,0.0,308.7,4,2,0.4,0,0.0,-1,0.0,0.0,0.0,0
13894,1495318245430,,,,,,,,0.14,0.06,1.0,-3.0,-0.3,-0.1,820,0,,,,,,,,,,,,,,,,,,,
13914,1495318245450,,,,,,,,0.15,0.06,1.0,-3.0,-0.0,-0.0,840,0,,,,,,,,,,,,,,,,,,,
13934,1495318245470,,,,,,,,0.15,0.07,1.0,-3.0,-0.2,-0.0,820,0,,,,,,,,,,,,,,,,,,,
13954,1495318245490,,,,,,,,0.15,0.07,1.01,-3.0,-0.2,-0.1,840,0,,,,,,,,,,,,,,,,,,,
13974,1495318245510,,,,,59,,,0.14,0.07,1.0,-3.0,-0.2,-0.2,840,0,1,1,0.0,0,39.540539,-122.33226,0.0,0.0,308.7,4,2,0.4,0,0.0,-1,0.0,0.0,0.0,0
13994,1495318245530,,,,,,,,0.14,0.07,0.99,-3.0,-0.2,-0.2,840,0,,,,,,,,,,,,,,,,,,,
14014,1495318245550,,,,,,,,0.14,0.07,0.98,-3.1,-0.4,-0.2,840,0,,,,,,,,,,,,,,,,,,,
14034,1495318245570,,,,,,,,0.14,0.07,0.99,-3.1,-0.2,-0.1,820,0,,,,,,,,,,,,,,,,,,,
14054,1495318245590,,,,,,,,0.15,0.08,0.98,-3.1,-0.3,-0.1,820,0,,,,,,,,,,,,,,,,,,,
14074,1495318245610,0,109.3,-0.5,113.1,61,117.2,14.62,0.14,0.08,0.98,-3.0,-0.5,-0.1,820,0,1,1,0.0,0,39.540539,-122.33226,0.0,0.0,308.7,4,2,0.4,0,0.0,-1,0.0,0.0,0.0,0
14094,1495318245630,,,,,,,,0.14,0.07,0.98,-3.0,-0.4,-0.2,820,0,,,,,,,,,,,,,,,,,,,
14114,1495318245650,,,,,,,,0.14,0.06,0.98,-3.0,-0.3,-0.2,840,0,,,,,,,,,,,,,,,,,,,
14134,1495318245670,,,,,,,,0.14,0.07,0.98,-3.0,-0.4,-0.2,840,0,,,,,,,,,,,,,,,,,,,
14154,1495318245690,,,,,,,,0.14,0.07,0.98,-3.0,-0.2,-0.1,840,0,,,,,,,,,,,,,,,,,,,
14174,1495318245710,,,,,60,,,0.15,0.07,0.99,-3.0,-0.2,-0.1,820,0,1,1,0.0,0,39.540539,-122.33226,0.0,0.0,308.7,4,2,0.4,0,0.0,-1,0.0,0.0,0.0,0
14194,1495318245730,,,,,,,,0.14,0.07,0.99,-3.0,-0.4,-0.1,820,0,,,,,,,,,,,,,,,,,,,
14214,1495318245750,,,,,,,,0.14,0.07,0.99,-2.9,-0.3,-0.1,820,0,,,,,,,,,,,,,,,,,,,
14234,1495318245770,,,,,,,,0.14,0.06,0.98,-3.0,-0.3,-0.2,820,0,,,,,,,,,,,,,,,,,,,
14254,1495318245790,,,,,,,,0.14,0.07,0.98,-3.0,-0.4,-0.2,820,0,,,,,,,,,,,,,,,,,,,
14274,1495318245804,0,108.8,,112.7,60,117.2,,0.14,0.07,0.98,-3.0,-0.3,-0.1,820,0,1,1,0.0,0,39.540539,-122.33226,0.0,0.0,308.7,4,2,0.4,0,0.0,-1,0.0,0.0,0.0,0
14294,1495318245824,,,,,,,,0.15,0.08,0.97,-3.0,-0.4,-0.1,840,0,,,,,,,,,,,,,,,,,,,
14314,1495318245844,,,,,,,,0.15,0.08,0.98,-3.0,-0.4,-0.1,800,0,,,,,,,,,,,,,,,,,,,
14334,1495318245864,,,,,,,,0.15,0.08,0.98,-3.0,-0.3,-0.1,800,0,,,,,,,,,,,,,,,,,,,
14354,1495318245884,,,,,,,,0.15,0.07,0.97,-3.0,-0.3,-0.1,800,0,,,,,,,,,,,,,,,,,,,
14374,1495318245910,,,,,60,,,0.15,0.07,0.97,-3.0,-0.2,-0.1,800,0,1,1,0.0,0,39.540539,-122.33226,0.0,0.0,308.7,4,2,0.4,0,0.0,-1,0.0,0.0,0.0,0
14394,1495318245930,,,,,,,,0.15,0.08,0.97,-3.0,0.0,0.0,800,0,,,,,,,,,,,,,,,,,,,
14414,1495318245950,,,,,,,,0.15,0.08,0.97,-3.0,-0.1,-0.1,820,0,,,,,,,,,,,,,,,,,,,
14434,1495318245970,,,,,,,,0.14,0.07,0.98,-3.0,-0.0,-0.1,820,0,,,,,,,,,,,,,,,,,,,
14454,1495318245990,,,,,,,,0.15,0.07,0.98,-3.0,-0.0,-0.2,800,0,,,,,,,,,,,,,,,,,,,
14474,1495318246008,0,109.1,,113.0,58,117.4,,0.14,0.07,0.99,-3.0,-0.1,-0.2,800,0,1,1,0.0,0,39.540539,-122.33226,0.0,0.0,308.7,4,2,0.4,0,0.0,-1,0.0,0.0,0.0,0
14494,1495318246028,,,,,,,,0.14,0.07,0.99,-3.0,-0.0,-0.1,800,0,,,,,,,,,,,,,,,,,,,
14514,1495318246048,,,,,,,,0.15,0.08,1.0,-3.0,-0.1,-0.1,800,0,,,,,,,,,,,,,,,,,,,
14534,1495318246068,,,,,,,,0.14,0.08,1.0,-3.0,-0.2,-0.2,800,0,,,,,,,,,,,,,,,,,,,
14554,1495318246088,,,,,,,,0.13,0.07,1.0,-3.0,-0.1,-0.2,820,0,,,,,,,,,,,,,,,,,,,
14574,1495318246108,,,,,59,,,0.13,0.06,1.0,-3.0,-0.1,-0.2,820,0,1,1,0.0,0,39.540539,-122.33226,0.0,0.0,308.7,4,2,0.4,0,0.0,-1,0.0,0.0,0.0,0
14594,1495318246128,,,,,,,,0.13,0.06,0.99,-3.0,-0.2,-0.1,820,0,,,,,,,,,,,,,,,,,,,
14614,1495318246148,,,,,,,,0.13,0.07,0.99,-3.1,-0.0,-0.1,800,0,,,,,,,,,,,,,,,,,,,
14634,1495318246168,,,,,,,,0.14,0.07,0.99,-3.1,-0.3,-0.1,800,0,,,,,,,,,,,,,,,,,,,
14654,1495318246188,,,,,,,,0.13,0.07,0.99,-3.0,-0.3,-0.1,800,0,,,,,,,,,,,,,,,,,,,
14674,1495318246207,0,109.3,,113.2,59,117.3,,0.14,0.07,0.99,-3.0,-0.3,-0.1,800,0,1,1,0.0,0,39.540539,-122.33226,0.0,0.0,304.2,6,2,0.1,0,0.0,-1,0.0,0.0,0.0,0
14694,1495318246227,,,,,,,,0.15,0.07,0.99,-3.0,-0.5,-0.2,800,0,,,,,,,,,,,,,,,,,,,
14714,1495318246247,,,,,,,,0.15,0.07,0.99,-3.0,-0.3,-0.1,820,0,,,,,,,,,,,,,,,,,,,
14734,1495318246267,,,,,,,,0.15,0.08,0.99,-3.0,-0.3,-0.0,820,0,,,,,,,,,,,,,,,,,,,
14754,1495318246287,,,,,,,,0.15,0.08,0.99,-3.0,-0.3,-0.1,800,0,,,,,,,,,,,,,,,,,,,
14774,1495318246305,,,,,60,,,0.15,0.08,0.99,-3.0,-0.2,-0.1,800,0,1,1,0.0,0,39.540539,-122.33226,0.0,0.0,304.4,7,2,0.1,0,0.0,-1,0.0,0.0,0.0,0
14794,1495318246325,,,,,,,,0.15,0.07,0.98,-3.0,-0.2,-0.2,820,0,,,,,,,,,,,,,,,,,,,
14814,1495318246345,,,,,,,,0.15,0.07,0.98,-3.0,-0.3,-0.1,820,0,,,,,,,,,,,,,,,,,,,
14834,1495318246365,,,,,,,,0.15,0.07,0.98,-3.0,-0.0,-0.1,820,0,,,,,,,,,,,,,,,,,,,
14854,1495318246385,,,,,,,,0.16,0.08,0.98,-3.0,-0.2,-0.0,820,0,,,,,,,,,,,,,,,,,,,
14874,1495318246403,0,109.1,,113.2,59,117.3,,0.15,0.08,0.99,-3.0,-0.3,-0.1,840,0,1,1,0.0,0,39.540539,-122.33226,0.0,0.0,304.4,7,2,0.1,0,0.0,-1,0.0,0.0,0.0,0
14894,1495318246423,,,,,,,,0.15,0.07,1.0,-3.0,-0.2,-0.2,800,0,,,,,,,,,,,,,,,,,,,
14914,1495318246443,,,,,,,,0.15,0.07,0.99,-3.0,-0.3,-0.2,800,0,,,,,,,,,,,,,,,,,,,
14934,1495318246463,,,,,,,,0.15,0.07,0.98,-3.0,-0.4,-0.2,820,0,,,,,,,,,,,,,,,,,,,
14954,1495318246483,,,,,,,,0.15,0.08,0.98,-3.0,-0.3,-0.1,800,0,,,,,,,,,,,,,,,,,,,
14974,1495318246499,,,,,60,,,0.15,0.08,0.98,-3.0,-0.5,-0.0,820,0,1,1,0.0,0,39.540539,-122.33226,0.0,0.0,304.4,7,2,0.1,0,0.0,-1,0.0,0.0,0.0,0
14994,1495318246519,,,,,,,,0.15,0.07,0.98,-3.0,-0.5,-0.1,820,0,,,,,,,,,,,,,,,,,,,
15014,1495318246539,,,,,,,,0.15,0.07,0.98,-3.0,-0.3,-0.1,840,0,,,,,,,,,,,,,,,,,,,
15034,1495318246559,,,,,,,,0.15,0.06,0.98,-3.0,-0.4,-0.2,840,0,,,,,,,,,,,,,,,,,,,
15054,1495318246579,,,,,,,,0.15,0.06,0.98,-3.0,-0.4,-0.1,820,0,,,,,,,,,,,,,,,,,,,
15074,1495318246601,0,109.0,-0.6,113.0,59,117.3,14.65,0.16,0.07,0.99,-3.0,-0.1,-0.0,820,0,1,1,0.0,0,39.540539,-122.33226,0.0,0.0,304.4,7,2,0.1,0,0.0,-1,0.0,0.0,0.0,0
15094,1495318246621,,,,,,,,0.16,0.08,0.99,-3.0,-0.2,-0.0,820,0,,,,,,,,,,,,,,,,,,,
15114,1495318246641,,,,,,,,0.15,0.07,0.99,-3.0,-0.1,-0.1,820,0,,,,,,,,,,,,,,,,,,,
15134,1495318246661,,,,,,,,0.15,0.07,0.99,-3.0,-0.1,-0.2,820,0,,,,,,,,,,,,,,,,,,,
15154,1495318246681,,,,,,,,0.15,0.07,1.0,-3.0,-0.2,-0.2,820,0,,,,,,,,,,,,,,,,,,,
15174,1495318246701,,,,,59,,,0.15,0.07,1.0,-3.0,-0.2,-0.1,840,0,1,1,0.0,0,39.540539,-122.33226,0.0,0.0,304.4,7,2,0.1,0,0.0,-1,0.0,0.0,0.0,0
15194,1495318246721,,,,,,,,0.15,0.07,1.01,-3.0,-0.2,-0.0,800,0,,,,,,,,,,,,,,,,,,,
15214,1495318246741,,,,,,,,0.15,0.07,1.0,-3.0,-0.5,-0.1,820,0,,,,,,,,,,,,,,,,,,,
15234,1495318246761,,,,,,,,0.14,0.07,1.0,-2.9,-0.4,-0.2,820,0,,,,,,,,,,,,,,,,,,,
15254,1495318246781,,,,,,,,0.15,0.06,0.99,-2.9,-0.4,-0.2,820,0,,,,,,,,,,,,,,,,,,,
15274,1495318246801,0,107.8,,112.0,57,116.7,,0.15,0.07,0.99,-3.0,-0.5,-0.2,820,0,1,1,0.0,0,39.540539,-122.33226,0.0,0.0,304.4,7,2,0.1,0,0.0,-1,0.0,0.0,0.0,0
15294,1495318246821,,,,,,,,0.15,0.07,0.99,-3.0,-0.3,-0.1,820,0,,,,,,,,,,,,,,,,,,,
15314,1495318246841,,,,,,,,0.16,0.08,0.98,-3.0,-0.2,-0.1,840,0,,,,,,,,,,,,,,,,,,,
15334,1495318246861,,,,,,,,0.15,0.08,0.99,-3.0,-0.4,-0.1,800,0,,,,,,,,,,,,,,,,,,,
15354,1495318246881,,,,,,,,0.15,0.08,0.98,-3.0,-0.2,-0.2,820,0,,,,,,,,,,,,,,,,,,,
15374,1495318246901,,,,,59,,,0.15,0.07,0.98,-3.0,-0.2,-0.2,800,0,1,1,0.0,0,39.540539,-122.33226,0.0,0.0,304.4,7,2,0.1,0,0.0,-1,0.0,0.0,0.0,0
15394,1495318246921,,,,,,,,0.15,0.07,0.97,-3.0,-0.3,-0.2,800,0,,,,,,,,,,,,,,,,,,,
15414,1495318246941,,,,,,,,0.15,0.07,0.98,-3.0,-0.1,-0.1,820,0,,,,,,,,,,,,,,,,,,,
15434,1495318246961,,,,,,,,0.16,0.08,0.98,-3.0,-0.3,-0.1,820,0,,,,,,,,,,,,,,,,,,,
15454,1495318246981,,,,,,,,0.15,0.07,0.99,-3.0,-0.3,-0.2,820,0,,,,,,,,,,,,,,,,,,,
15474,1495318246993,0,108.7,,112.7,59,117.2,,0.15,0.07,0.99,-3.0,-0.3,-0.2,800,0,1,1,0.0,0,39.540539,-122.33226,0.0,0.0,304.4,7,2,0.1,0,0.0,-1,0.0,0.0,0.0,0
15494,1495318247013,,,,,,,,0.15,0.07,0.99,-3.0,-0.4,-0.2,800,0,,,,,,,,,,,,,,,,,,,
15514,1495318247033,,,,,,,,0.14,0.07,0.98,-3.0,-0.4,-0.2,800,0,,,,,,,,,,,,,,,,,,,
15534,1495318247053,,,,,,,,0.14,0.07,0.99,-3.0,-0.3,-0.1,800,0,,,,,,,,,,,,,,,,,,,
15554,1495318247073,,,,,,,,0.14,0.07,0.99,-3.0,-0.5,-0.1,800,0,,,,,,,,,,,,,,,,,,,
15574,1495318247101,,,,,60,,,0.14,0.06,0.99,-3.0,-0.4,-0.2,820,0,1,1,0.0,0,39.540539,-122.33226,0.0,0.0,304.4,7,2,0.1,0,0.0,-1,0.0,0.0,0.0,0
15594,1495318247121,,,,,,,,0.14,0.06,0.98,-3.0,-0.4,-0.2,820,0,,,,,,,,,,,,,,,,,,,
15614,1495318247141,,,,,,,,0.14,0.06,0.98,-3.0,-0.6,-0.1,820,0,,,,,,,,,,,,,,,,,,,
15634,1495318247161,,,,,,,,0.15,0.07,0.98,-3.0,-0.4,-0.1,800,0,,,,,,,,,,,,,,,,,,,
15654,1495318247181,,,,,,,,0.15,0.08,0.98,-3.0,-0.6,-0.0,820,0,,,,,,,,,,,,,,,,,,,
15674,1495318247200,0,109.6,,113.4,58,117.2,,0.15,0.08,0.99,-3.0,-0.6,-0.1,800,0,1,1,0.0,0,39.540539,-122.33226,0.0,0.0,304.4,7,2,0.1,0,0.0,-1,0.0,0.0,0.0,0
15694,1495318247220,,,,,,,,0.15,0.07,0.98,-3.0,-0.4,-0.2,820,0,,,,,,,,,,,,,,,,,,,
15714,1495318247240,,,,,,,,0.15,0.07,0.98,-3.0,-0.5,-0.2,820,0,,,,,,,,,,,,,,,,,,,
15734,1495318247260,,,,,,,,0.14,0.07,0.98,-3.0,-0.4,-0.1,820,0,,,,,,,,,,,,,,,,,,,
15754,1495318247280,,,,,,,,0.15,0.08,0.99,-3.0,-0.1,0.0,840,0,,,,,,,,,,,,,,,,,,,
15774,1495318247298,,,,,58,,,0.15,0.08,0.99,-3.0,-0.3,0.0,800,0,1,1,0.0,0,39.540539,-122.33226,0.0,0.0,304.4,7,2,0.1,0,0.0,-1,0.0,0.0,0.0,0
15794,1495318247318,,,,,,,,0.15,0.08,0.99,-3.0,-0.1,-0.1,820,0,,,,,,,,,,,,,,,,,,,
15814,1495318247338,,,,,,,,0.15,0.07,0.99,-3.0,-0.1,-0.1,820,0,,,,,,,,,,,,,,,,,,,
15834,1495318247358,,,,,,,,0.15,0.07,1.0,-3.0,-0.3,-0.1,820,0,,,,,,,,,,,,,,,,,,,
15854,1495318247378,,,,,,,,0.14,0.07,1.0,-3.0,-0.3,-0.0,820,0,,,,,,,,,,,,,,,,,,,
15874,1495318247400,0,108.9,,113.2,59,117.3,,0.14,0.08,1.01,-3.0,-0.2,0.1,820,0,1,1,0.0,0,39.540539,-122.33226,0.0,0.0,304.4,7,2,0.1,0,0.0,-1,0.0,0.0,0.0,0
15894,1495318247420,,,,,,,,0.14,0.08,1.01,-3.0,-0.4,0.0,840,0,,,,,,,,,,,,,,,,,,,
15914,1495318247440,,,,,,,,0.14,0.07,1.0,-3.0,-0.3,-0.0,800,0,,,,,,,,,,,,,,,,,,,
15934,1495318247460,,,,,,,,0.14,0.06,1.0,-3.0,-0.2,-0.1,820,0,,,,,,,,,,,,,,,,,,,
15954,1495318247480,,,,,,,,0.15,0.06,1.01,-3.0,-0.3,-0.1,820,0,,,,,,,,,,,,,,,,,,,
15974,1495318247500,,,,,60,,,0.14,0.07,1.02,-3.0,-0.2,-0.0,820,0,1,1,0.0,0,39.540539,-122.33226,0.0,0.0,304.4,7,2,0.1,0,0.0,-1,0.0,0.0,0.0,0
15994,1495318247520,,,,,,,,0.15,0.08,1.01,-3.1,-0.0,0.1,820,0,,,,,,,,,,,,,,,,,,,
16014,1495318247540,,,,,,,,0.15,0.08,1.01,-3.1,-0.2,-0.0,820,0,,,,,,,,,,,,,,,,,,,
16034,1495318247560,,,,,,,,0.14,0.07,1.01,-3.0,-0.2,-0.1,840,0,,,,,,,,,,,,,,,,,,,
16054,1495318247580,,,,,,,,0.14,0.07,1.0,-3.0,-0.1,-0.2,820,0,,,,,,,,,,,,,,,,,,,
16074,1495318247600,0,107.8,-0.5,112.1,59,116.6,14.49,0.14,0.07,1.01,-3.1,-0.2,-0.2,820,0,1,1,0.0,0,39.540539,-122.33226,0.0,0.0,304.4,7,2,0.1,0,0.0,-1,0.0,0.0,0.0,0
16094,1495318247620,,,,,,,,0.14,0.07,1.01,-3.1,-0.2,-0.1,820,0,,,,,,,,,,,,,,,,,,,
16114,1495318247640,,,,,,,,0.14,0.07,1.01,-3.1,-0.1,-0.0,820,0,,,,,,,,,,,,,,,,,,,
16134,1495318247660,,,,,,,,0.14,0.08,1.01,-3.0,-0.3,-0.0,820,0,,,,,,,,,,,,,,,,,,,
16154,1495318247680,,,,,,,,0.14,0.07,1.01,-3.0,-0.3,-0.1,820,0,,,,,,,,,,,,,,,,,,,
16174,1495318247700,,,,,58,,,0.14,0.07,1.01,-3.0,-0.1,-0.2,840,0,1,1,0.0,0,39.540539,-122.33226,0.0,0.0,304.4,7,2,0.1,0,0.0,-1,0.0,0.0,0.0,0
16194,1495318247720,,,,,,,,0.15,0.07,1.02,-3.0,-0.2,-0.1,840,0,,,,,,,,,,,,,,,,,,,
16214,1495318247740,,,,,,,,0.14,0.07,1.01,-3.0,-0.2,-0.1,800,0,,,,,,,,,,,,,,,,,,,
16234,1495318247760,,,,,,,,0.15,0.07,1.01,-3.0,0.1,-0.0,820,0,,,,,,,,,,,,,,,,,,,
16254,1495318247780,,,,,,,,0.15,0.08,1.01,-3.0,-0.1,-0.1,820,0,,,,,,,,,,,,,,,,,,,
16274,1495318247800,0,107.6,,111.9,60,116.7,,0.15,0.07,1.01,-3.0,-0.1,-0.1,820,0,1,1,0.0,0,39.540539,-122.33226,0.0,0.0,304.4,7,2,0.1,0,0.0,-1,0.0,0.0,0.0,0
16294,1495318247820,,,,,,,,0.15,0.07,1.0,-3.0,0.0,-0.2,820,0,,,,,,,,,,,,,,,,,,,
16314,1495318247840,,,,,,,,0.15,0.07,1.01,-3.0,-0.1,-0.2,820,0,,,,,,,,,,,,,,,,,,,
16334,1495318247860,,,,,,,,0.14,0.07,1.01,-3.0,-0.2,-0.1,840,0,,,,,,,,,,,,,,,,,,,
16354,1495318247880,,,,,,,,0.14,0.08,1.01,-3.0,-0.1,-0.0,820,0,,,,,,,,,,,,,,,,,,,
16374,1495318247900,,,,,60,,,0.14,0.08,1.01,-3.0,-0.4,-0.0,820,0,1,1,0.0,0,39.540539,-122.33226,0.0,0.0,304.4,7,2,0.1,0,0.0,-1,0.0,0.0,0.0,0
16394,1495318247920,,,,,,,,0.14,0.08,1.02,-3.0,-0.4,-0.1,820,0,,,,,,,,,,,,,,,,,,,
16414,1495318247940,,,,,,,,0.14,0.07,1.02,-3.0,-0.3,-0.1,820,0,,,,,,,,,,,,,,,,,,,
16434,1495318247960,,,,,,,,0.15,0.07,1.02,-3.0,-0.3,-0.2,820,0,,,,,,,,,,,,,,,,,,,
16454,1495318247980,,,,,,,,0.15,0.07,1.01,-3.0,-0.3,-0.1,820,0,,,,,,,,,,,,,,,,,,,
16474,1495318247994,0,107.7,,112.2,59,116.6,,0.15,0.07,1.02,-3.0,-0.0,-0.0,840,0,1,1,0.0,0,39.540543,-122.33226,0.0,0.0,307.4,8,2,2.2,0,0.0,-1,0.0,0.0,0.0,0
16494,1495318248014,,,,,,,,0.15,0.08,1.01,-3.0,-0.2,-0.1,820,0,,,,,,,,,,,,,,,,,,,
16514,1495318248034,,,,,,,,0.15,0.07,1.02,-3.0,-0.1,-0.2,820,0,,,,,,,,,,,,,,,,,,,
16534,1495318248054,,,,,,,,0.14,0.07,1.02,-3.0,-0.1,-0.2,820,0,,,,,,,,,,,,,,,,,,,
16554,1495318248074,,,,,,,,0.15,0.07,1.02,-3.0,-0.2,-0.2,820,0,,,,,,,,,,,,,,,,,,,
16574,1495318248098,,,,,61,,,0.14,0.07,1.02,-3.0,-0.3,-0.1,820,0,1,1,0.0,0,39.540543,-122.33226,0.0,0.0,307.4,8,2,2.2,0,0.0,-1,0.0,0.0,0.0,0
16594,1495318248118,,,,,,,,0.14,0.07,1.02,-3.0,-0.2,-0.0,840,0,,,,,,,,,,,,,,,,,,,
16614,1495318248138,,,,,,,,0.15,0.08,1.01,-3.0,-0.4,-0.0,840,0,,,,,,,,,,,,,,,,,,,
16634,1495318248158,,,,,,,,0.14,0.08,1.01,-3.0,-0.4,-0.0,820,0,,,,,,,,,,,,,,,,,,,
16654,1495318248178,,,,,,,,0.14,0.08,0.99,-3.0,-0.4,-0.1,820,0,,,,,,,,,,,,,,,,,,,
16674,1495318248197,0,109.2,,113.4,59,117.0,,0.14,0.06,0.99,-3.0,-0.3,-0.1,820,0,1,1,0.0,0,39.540543,-122.33226,0.0,0.0,307.4,8,2,2.2,0,0.0,-1,0.0,0.0,0.0,0
16694,1495318248217,,,,,,,,0.14,0.07,0.98,-3.0,-0.3,-0.0,820,0,,,,,,,,,,,,,,,,,,,
16714,1495318248237,,,,,,,,0.14,0.07,0.99,-3.0,0.0,0.0,820,0,,,,,,,,,,,,,,,,,,,
16734,1495318248257,,,,,,,,0.15,0.07,0.99,-3.0,-0.1,0.0,840,0,,,,,,,,,,,,,,,,,,,
16754,1495318248277,,,,,,,,0.15,0.07,1.0,-3.0,-0.2,-0.1,840,0,,,,,,,,,,,,,,,,,,,
16774,1495318248297,,,,,61,,,0.15,0.07,1.0,-3.0,-0.1,-0.2,800,0,1,1,0.0,0,39.540543,-122.33226,0.0,0.0,307.4,8,2,2.2,0,0.0,-1,0.0,0.0,0.0,0
16794,1495318248317,,,,,,,,0.15,0.07,0.99,-3.0,-0.2,-0.2,820,0,,,,,,,,,,,,,,,,,,,
16814,1495318248337,,,,,,,,0.14,0.07,0.98,-3.0,-0.4,-0.1,820,0,,,,,,,,,,,,,,,,,,,
16834,1495318248357,,,,,,,,0.15,0.08,0.98,-3.1,-0.3,-0.0,820,0,,,,,,,,,,,,,,,,,,,
16854,1495318248377,,,,,,,,0.15,0.08,0.97,-3.1,-0.4,0.0,820,0,,,,,,,,,,,,,,,,,,,
16874,1495318248399,0,109.2,,112.0,60,115.7,,0.15,0.08,0.98,-3.1,-0.5,-0.1,840,0,1,1,0.0,0,39.540543,-122.33226,0.0,0.0,307.4,8,2,2.2,0,0.0,-1,0.0,0.0,0.0,0
16894,1495318248419,,,,,,,,0.14,0.07,0.97,-3.0,-0.4,-0.1,840,0,,,,,,,,,,,,,,,,,,,
16914,1495318248439,,,,,,,,0.15,0.06,0.97,-3.0,-0.3,-0.2,820,0,,,,,,,,,,,,,,,,,,,
16934,1495318248459,,,,,,,,0.14,0.06,0.98,-3.0,-0.4,-0.2,820,0,,,,,,,,,,,,,,,,,,,
16954,1495318248479,,,,,,,,0.14,0.07,0.99,-3.0,-0.2,-0.1,820,0,,,,,,,,,,,,,,,,,,,
16974,1495318248499,,,,,62,,,0.15,0.07,0.99,-3.0,-0.2,-0.0,820,0,1,1,0.0,0,39.540543,-122.33226,0.0,0.0,307.4,8,2,2.2,0,0.0,-1,0.0,0.0,0.0,0
16994,1495318248519,,,,,,,,0.14,0.08,1.0,-3.0,-0.4,-0.1,820,0,,,,,,,,,,,,,,,,,,,
17014,1495318248539,,,,,,,,0.14,0.07,1.0,-2.9,-0.4,-0.2,820,0,,,,,,,,,,,,,,,,,,,
17034,1495318248559,,,,,,,,0.15,0.07,0.99,-2.9,-0.3,-0.1,840,0,,,,,,,,,,,,,,,,,,,
17054,1495318248579,,,,,,,,0.15,0.07,0.99,-3.0,-0.4,-0.1,840,0,,,,,,,,,,,,,,,,,,,
17074,1495318248599,0,108.1,-0.6,112.0,59,116.4,14.62,0.15,0.07,1.0,-3.0,-0.2,-0.1,800,0,1,1,0.0,0,39.540543,-122.33226,0.0,0.0,307.4,8,2,2.2,0,0.0,-1,0.0,0.0,0.0,0
17094,1495318248619,,,,,,,,0.16,0.08,0.99,-3.0,-0.1,-0.0,820,0,,,,,,,,,,,,,,,,,,,
17114,1495318248639,,,,,,,,0.15,0.08,0.99,-3.0,-0.3,-0.1,820,0,,,,,,,,,,,,,,,,,,,
17134,1495318248659,,,,,,,,0.15,0.08,0.98,-3.0,-0.1,-0.1,820,0,,,,,,,,,,,,,,,,,,,
17154,1495318248679,,,,,,,,0.15,0.07,0.97,-3.0,0.0,-0.1,820,0,,,,,,,,,,,,,,,,,,,
17174,1495318248697,,,,,60,,,0.15,0.07,0.98,-3.0,-0.1,-0.1,820,0,1,1,0.0,0,39.540543,-122.33226,0.0,0.0,307.4,8,2,2.2,0,0.0,-1,0.0,0.0,0.0,0
17194,1495318248717,,,,,,,,0.15,0.07,0.98,-3.0,-0.0,-0.0,840,0,,,,,,,,,,,,,,,,,,,
17214,1495318248737,,,,,,,,0.15,0.08,0.99,-3.0,-0.1,-0.0,800,0,,,,,,,,,,,,,,,,,,,
17234,1495318248757,,,,,,,,0.15,0.08,0.99,-3.0,-0.3,-0.1,820,0,,,,,,,,,,,,,,,,,,,
17254,1495318248777,,,,,,,,0.14,0.07,0.98,-3.0,-0.2,-0.1,800,0,,,,,,,,,,,,,,,,,,,
17274,1495318248797,0,107.9,,111.6,59,116.0,,0.14,0.07,0.98,-3.0,-0.2,-0.1,800,0,1,1,0.0,0,39.540543,-122.33226,0.0,0.0,307.4,8,2,2.2,0,0.0,-1,0.0,0.0,0.0,0
17294,1495318248817,,,,,,,,0.14,0.07,0.97,-3.0,-0.4,-0.1,820,0,,,,,,,,,,,,,,,,,,,
17314,1495318248837,,,,,,,,0.14,0.07,0.97,-3.0,-0.2,-0.0,820,0,,,,,,,,,,,,,,,,,,,
17334,1495318248857,,,,,,,,0.15,0.08,0.97,-3.1,-0.4,-0.0,840,0,,,,,,,,,,,,,,,,,,,
17354,1495318248877,,,,,,,,0.15,0.08,0.98,-3.0,-0.4,-0.1,780,0,,,,,,,,,,,,,,,,,,,
17374,1495318248899,,,,,60,,,0.15,0.07,0.97,-3.0,-0.3,-0.1,800,0,1,1,0.0,0,39.540543,-122.33226,0.0,0.0,307.4,8,2,2.2,0,0.0,-1,0.0,0.0,0.0,0
17394,1495318248919,,,,,,,,0.15,0.07,0.97,-3.0,-0.4,-0.1,800,0,,,,,,,,,,,,,,,,,,,
17414,1495318248939,,,,,,,,0.15,0.07,0.97,-3.0,-0.3,-0.0,800,0,,,,,,,,,,,,,,,,,,,
17434,1495318248959,,,,,,,,0.16,0.08,0.97,-3.0,-0.2,0.1,820,0,,,,,,,,,,,,,,,,,,,
17454,1495318248979,,,,,,,,0.15,0.08,0.97,-3.0,-0.3,-0.0,820,0,,,,,,,,,,,,,,,,,,,
17474,1495318248991,0,108.0,,112.4,59,116.4,,0.15,0.07,0.97,-3.0,-0.1,-0.1,840,0,1,1,0.0,0,39.540543,-122.33226,0.0,0.0,307.4,8,2,2.2,0,0.0,-1,0.0,0.0,0.0,0
17494,1495318249011,,,,,,,,0.15,0.07,0.97,-3.0,-0.0,-0.1,780,0,,,,,,,,,,,,,,,,,,,
17514,1495318249031,,,,,,,,0.15,0.07,0.98,-3.0,-0.1,-0.1,780,0,,,,,,,,,,,,,,,,,,,
17534,1495318249051,,,,,,,,0.14,0.07,0.98,-3.0,0.1,-0.0,820,0,,,,,,,,,,,,,,,,,,,
17554,1495318249071,,,,,,,,0.15,0.08,0.99,-3.0,-0.1,0.0,800,0,,,,,,,,,,,,,,,,,,,
17574,1495318249099,,,,,58,,,0.14,0.07,0.99,-3.0,-0.1,-0.1,820,0,1,1,0.0,0,39.540543,-122.33226,0.0,0.0,307.4,8,2,2.2,0,0.0,-1,0.0,0.0,0.0,0
17594,1495318249119,,,,,,,,0.14,0.07,0.99,-2.9,-0.0,-0.2,820,0,,,,,,,,,,,,,,,,,,,
17614,1495318249139,,,,,,,,0.14,0.07,1.0,-3.0,-0.2,-0.2,820,0,,,,,,,,,,,,,,,,,,,
17634,1495318249159,,,,,,,,0.14,0.07,1.0,-3.0,-0.2,-0.1,840,0,,,,,,,,,,,,,,,,,,,
17654,1495318249179,,,,,,,,0.14,0.08,1.0,-3.0,-0.1,-0.0,800,0,,,,,,,,,,,,,,,,,,,
17674,1495318249194,0,108.0,,112.1,58,116.4,,0.14,0.08,1.0,-3.0,-0.4,-0.1,820,0,1,1,0.0,0,39.540543,-122.33226,0.0,0.0,307.4,8,2,2.2,0,0.0,-1,0.0,0.0,0.0,0
17694,1495318249214,,,,,,,,0.14,0.07,1.01,-3.0,-0.3,-0.1,800,0,,,,,,,,,,,,,,,,,,,
17714,1495318249234,,,,,,,,0.14,0.07,1.0,-3.0,-0.3,-0.2,820,0,,,,,,,,,,,,,,,,,,,
17734,1495318249254,,,,,,,,0.15,0.07,1.0,-3.0,-0.6,-0.2,820,0,,,,,,,,,,,,,,,,,,,
17754,1495318249274,,,,,,,,0.15,0.07,1.0,-3.0,-0.4,-0.1,820,0,,,,,,,,,,,,,,,,,,,
17774,1495318249298,,,,,61,,,0.16,0.08,1.0,-3.0,-0.4,-0.0,840,0,1,1,0.0,0,39.540543,-122.33226,0.0,0.0,307.4,8,2,2.2,0,0.0,-1,0.0,0.0,0.0,0
17794,1495318249318,,,,,,,,0.15,0.08,1.0,-3.0,-0.5,-0.1,800,0,,,,,,,,,,,,,,,,,,,
17814,1495318249338,,,,,,,,0.15,0.08,0.99,-3.0,-0.3,-0.2,800,0,,,,,,,,,,,,,,,,,,,
17834,1495318249358,,,,,,,,0.15,0.07,0.99,-2.9,-0.3,-0.2,800,0,,,,,,,,,,,,,,,,,,,
17854,1495318249378,,,,,,,,0.15,0.08,0.98,-2.9,-0.3,-0.1,800,0,,,,,,,,,,,,,,,,,,,
17874,1495318249398,0,108.6,,113.1,59,117.0,,0.15,0.08,0.98,-3.0,-0.1,-0.0,820,0,1,1,0.0,0,39.540543,-122.33226,0.0,0.0,307.4,8,2,2.2,0,0.0,-1,0.0,0.0,0.0,0
17894,1495318249418,,,,,,,,0.16,0.08,0.98,-3.0,-0.3,-0.0,820,0,,,,,,,,,,,,,,,,,,,
17914,1495318249438,,,,,,,,0.15,0.07,1.0,-3.0,-0.2,-0.1,820,0,,,,,,,,,,,,,,,,,,,
17934,1495318249458,,,,,,,,0.15,0.07,1.0,-3.0,-0.2,-0.2,780,0,,,,,,,,,,,,,,,,,,,
17954,1495318249478,,,,,,,,0.15,0.07,1.0,-3.0,-0.3,-0.2,780,0,,,,,,,,,,,,,,,,,,,
17974,1495318249498,,,,,57,,,0.14,0.07,1.0,-3.0,-0.1,-0.1,800,0,1,1,0.0,0,39.540543,-122.33226,0.0,0.0,307.4,8,2,2.2,0,0.0,-1,0.0,0.0,0.0,0
17994,1495318249518,,,,,,,,0.15,0.07,1.0,-3.0,-0.2,-0.1,800,0,,,,,,,,,,,,,,,,,,,
18014,1495318249538,,,,,,,,0.14,0.07,1.0,-3.0,-0.3,-0.1,800,0,,,,,,,,,,,,,,,,,,,
18034,1495318249558,,,,,,,,0.14,0.06,1.0,-2.9,-0.2,-0.2,820,0,,,,,,,,,,,,,,,,,,,
18054,1495318249578,,,,,,,,0.14,0.06,0.99,-3.0,-0.2,-0.2,840,0,,,,,,,,,,,,,,,,,,,
18074,1495318249600,0,109.1,-0.4,113.6,60,116.9,14.6,0.14,0.06,0.98,-3.0,-0.4,-0.1,840,0,1,1,0.0,0,39.540543,-122.33226,0.0,0.0,307.4,8,2,2.2,0,0.0,-1,0.0,0.0,0.0,0
18094,1495318249620,,,,,,,,0.14,0.07,0.98,-3.0,-0.1,-0.1,800,0,,,,,,,,,,,,,,,,,,,
18114,1495318249640,,,,,,,,0.14,0.08,0.98,-3.0,-0.4,-0.0,820,0,,,,,,,,,,,,,,,,,,,
18134,1495318249660,,,,,,,,0.14,0.07,0.99,-3.0,-0.4,-0.1,800,0,,,,,,,,,,,,,,,,,,,
18154,1495318249680,,,,,,,,0.14,0.07,0.99,-2.9,-0.3,-0.1,820,0,,,,,,,,,,,,,,,,,,,
18174,1495318249700,,,,,58,,,0.15,0.07,0.99,-2.9,-0.3,-0.2,820,0,1,1,0.0,0,39.540543,-122.33226,0.0,0.0,307.4,8,2,2.2,0,0.0,-1,0.0,0.0,0.0,0
18194,1495318249720,,,,,,,,0.14,0.07,0.99,-2.9,-0.3,-0.1,820,0,,,,,,,,,,,,,,,,,,,
18214,1495318249740,,,,,,,,0.15,0.07,0.99,-3.0,0.0,-0.0,840,0,,,,,,,,,,,,,,,,,,,
18234,1495318249760,,,,,,,,0.15,0.08,0.99,-3.0,-0.2,-0.1,800,0,,,,,,,,,,,,,,,,,,,
18254,1495318249780,,,,,,,,0.14,0.07,1.0,-3.0,-0.0,-0.2,820,0,,,,,,,,,,,,,,,,,,,
18274,1495318249800,1,108.5,,113.1,58,116.9,,0.15,0.07,1.0,-3.0,-0.0,-0.2,800,0,1,1,0.0,0,39.540543,-122.33226,0.0,0.0,307.4,8,2,2.2,0,0.0,-1,0.0,0.0,0.0,0
18294,1495318249820,,,,,,,,0.14,0.07,1.01,-3.0,-0.2,-0.2,800,0,,,,,,,,,,,,,,,,,,,
18314,1495318249840,,,,,,,,0.14,0.07,1.01,-3.0,-0.2,-0.1,820,0,,,,,,,,,,,,,,,,,,,
18334,1495318249860,,,,,,,,0.14,0.08,1.02,-3.0,-0.2,-0.0,820,0,,,,,,,,,,,,,,,,,,,
18354,1495318249880,,,,,,,,0.13,0.08,1.01,-3.0,-0.4,-0.1,840,0,,,,,,,,,,,,,,,,,,,
18374,1495318249900,,,,,59,,,0.13,0.07,1.01,-3.0,-0.3,-0.2,800,0,1,1,0.0,0,39.540543,-122.33226,0.0,0.0,307.4,8,2,2.2,0,0.0,-1,0.0,0.0,0.0,0
18394,1495318249920,,,,,,,,0.14,0.07,1.0,-3.0,-0.4,-0.2,800,0,,,,,,,,,,,,,,,,,,,
18414,1495318249940,,,,,,,,0.13,0.07,1.0,-3.0,-0.6,-0.2,820,0,,,,,,,,,,,,,,,,,,,
18434,1495318249960,,,,,,,,0.14,0.08,0.99,-3.0,-0.4,-0.1,800,0,,,,,,,,,,,,,,,,,,,
18454,1495318249980,,,,,,,,0.14,0.08,0.99,-3.0,-0.6,-0.0,820,0,,,,,,,,,,,,,,,,,,,
18474,1495318249994,0,109.2,,113.4,60,116.0,,0.14,0.07,0.99,-3.0,-0.6,-0.1,820,0,1,1,0.0,0,39.540543,-122.33226,0.0,0.0,307.4,8,2,2.2,0,0.0,-1,0.0,0.0,0.0,0
18494,1495318250014,,,,,,,,0.14,0.07,0.99,-3.0,-0.4,-0.1,840,0,,,,,,,,,,,,,,,,,,,
18514,1495318250034,,,,,,,,0.15,0.07,0.99,-3.0,-0.5,-0.1,840,0,,,,,,,,,,,,,,,,,,,
18534,1495318250054,,,,,,,,0.14,0.07,0.99,-3.0,-0.4,-0.1,780,0,,,,,,,,,,,,,,,,,,,
18554,1495318250074,,,,,,,,0.15,0.08,0.99,-3.0,-0.2,-0.0,820,0,,,,,,,,,,,,,,,,,,,
18574,1495318250100,,,,,59,,,0.15,0.08,0.99,-3.0,-0.4,-0.1,800,0,1,1,0.0,0,39.540543,-122.33226,0.0,0.0,307.4,8,2,2.2,0,0.0,-1,0.0,0.0,0.0,0
18594,1495318250120,,,,,,,,0.15,0.07,0.98,-3.0,-0.3,-0.1,800,0,,,,,,,,,,,,,,,,,,,
18614,1495318250140,,,,,,,,0.15,0.07,0.98,-3.0,-0.1,-0.1,820,0,,,,,,,,,,,,,,,,,,,
18634,1495318250160,,,,,,,,0.15,0.07,0.98,-3.0,-0.3,-0.1,820,0,,,,,,,,,,,,,,,,,,,
18654,1495318250180,,,,,,,,0.15,0.07,0.99,-3.0,-0.1,-0.0,840,0,,,,,,,,,,,,,,,,,,,
18674,1495318250201,0,108.4,,112.2,58,115.7,,0.16,0.08,1.0,-3.0,-0.3,-0.0,780,0,1,1,0.0,0,39.540543,-122.33226,0.0,0.0,307.4,8,2,2.2,0,0.0,-1,0.0,0.0,0.0,0
18694,1495318250221,,,,,,,,0.15,0.07,1.0,-3.0,-0.3,-0.1,820,0,,,,,,,,,,,,,,,,,,,
18714,1495318250241,,,,,,,,0.14,0.07,1.0,-3.0,-0.2,-0.2,820,0,,,,,,,,,,,,,,,,,,,
18734,1495318250261,,,,,,,,0.14,0.06,0.99,-3.0,-0.2,-0.2,820,0,,,,,,,,,,,,,,,,,,,
18754,1495318250281,,,,,,,,0.14,0.06,0.99,-3.0,-0.3,-0.1,820,0,,,,,,,,,,,,,,,,,,,
18774,1495318250299,,,,,58,,,0.14,0.07,0.99,-3.0,-0.1,-0.1,820,0,1,1,0.0,0,39.540543,-122.33226,0.0,0.0,307.4,8,2,2.2,0,0.0,-1,0.0,0.0,0.0,0
18794,1495318250319,,,,,,,,0.14,0.08,0.99,-3.0,-0.4,-0.1,840,0,,,,,,,,,,,,,,,,,,,
18814,1495318250339,,,,,,,,0.14,0.07,0.98,-3.0,-0.4,-0.1,800,0,,,,,,,,,,,,,,,,,,,
18834,1495318250359,,,,,,,,0.14,0.07,0.98,-3.0,-0.3,-0.1,820,0,,,,,,,,,,,,,,,,,,,
18854,1495318250379,,,,,,,,0.14,0.07,0.98,-3.0,-0.4,-0.1,820,0,,,,,,,,,,,,,,,,,,,
18874,1495318250401,0,108.3,,112.2,58,115.7,,0.14,0.07,0.98,-3.0,-0.2,-0.1,800,0,1,1,0.0,0,39.540543,-122.33226,0.0,0.0,307.4,8,2,2.2,0,0.0,-1,0.0,0.0,0.0,0
18894,1495318250421,,,,,,,,0.15,0.08,0.98,-3.0,-0.1,0.0,820,0,,,,,,,,,,,,,,,,,,,
18914,1495318250441,,,,,,,,0.15,0.08,0.99,-3.0,-0.2,-0.0,820,0,,,,,,,,,,,,,,,,,,,
18934,1495318250461,,,,,,,,0.14,0.07,0.98,-3.0,0.0,-0.1,840,0,,,,,,,,,,,,,,,,,,,
18954,1495318250481,,,,,,,,0.14,0.07,0.98,-3.0,0.1,-0.1,840,0,,,,,,,,,,,,,,,,,,,
18974,1495318250501,,,,,58,,,0.14,0.07,0.98,-3.0,0.0,-0.1,780,0,1,1,0.0,0,39.540543,-122.33226,0.0,0.0,307.4,8,2,2.2,0,0.0,-1,0.0,0.0,0.0,0
18994,1495318250521,,,,,,,,0.14,0.07,0.99,-3.0,0.3,-0.0,800,0,,,,,,,,,,,,,,,,,,,
19014,1495318250541,,,,,,,,0.15,0.07,0.99,-3.0,0.0,-0.0,800,0,,,,,,,,,,,,,,,,,,,
19034,1495318250561,,,,,,,,0.14,0.07,1.0,-3.0,0.0,-0.1,800,0,,,,,,,,,,,,,,,,,,,
19054,1495318250581,,,,,,,,0.14,0.07,1.0,-3.0,0.1,-0.1,800,0,,,,,,,,,,,,,,,,,,,
19074,1495318250601,0,109.1,-0.4,113.3,59,115.6,14.51,0.14,0.07,1.01,-3.0,-0.1,-0.1,800,0,1,1,0.0,0,39.540543,-122.33226,0.0,0.0,307.4,8,2,2.2,0,0.0,-1,0.0,0.0,0.0,0
19094,1495318250621,,,,,,,,0.13,0.07,1.0,-3.0,-0.1,-0.0,840,0,,,,,,,,,,,,,,,,,,,
19114,1495318250641,,,,,,,,0.14,0.08,1.0,-3.0,-0.0,0.0,800,0,,,,,,,,,,,,,,,,,,,
19134,1495318250661,,,,,,,,0.14,0.08,1.0,-3.0,-0.4,-0.0,820,0,,,,,,,,,,,,,,,,,,,
19154,1495318250681,,,,,,,,0.13,0.07,1.0,-3.0,-0.3,-0.1,800,0,,,,,,,,,,,,,,,,,,,
19174,1495318250701,,,,,59,,,0.14,0.07,1.0,-3.0,-0.3,-0.1,820,0,1,1,0.0,0,39.540543,-122.33226,0.0,0.0,307.4,8,2,2.2,0,0.0,-1,0.0,0.0,0.0,0
19194,1495318250721,,,,,,,,0.13,0.07,0.99,-3.0,-0.5,-0.1,820,0,,,,,,,,,,,,,,,,,,,
19214,1495318250741,,,,,,,,0.14,0.07,0.99,-3.0,-0.3,-0.0,820,0,,,,,,,,,,,,,,,,,,,
19234,1495318250761,,,,,,,,0.15,0.08,0.99,-3.0,-0.5,0.0,840,0,,,,,,,,,,,,,,,,,,,
19254,1495318250781,,,,,,,,0.14,0.08,0.99,-3.0,-0.5,-0.1,800,0,,,,,,,,,,,,,,,,,,,
19274,1495318250801,0,109.2,,113.4,58,116.7,,0.15,0.08,0.98,-3.0,-0.4,-0.1,820,0,1,1,0.0,0,39.540543,-122.33226,0.0,0.0,307.4,8,2,2.2,0,0.0,-1,0.0,0.0,0.0,0
19294,1495318250821,,,,,,,,0.15,0.07,0.98,-3.0,-0.4,-0.1,820,0,,,,,,,,,,,,,,,,,,,
19314,1495318250841,,,,,,,,0.14,0.07,0.98,-3.0,-0.3,-0.0,820,0,,,,,,,,,,,,,,,,,,,
19334,1495318250861,,,,,,,,0.15,0.08,0.98,-3.0,-0.0,0.0,820,0,,,,,,,,,,,,,,,,,,,
19354,1495318250881,,,,,,,,0.15,0.08,0.98,-3.0,-0.2,0.0,820,0,,,,,,,,,,,,,,,,,,,
19374,1495318250901,,,,,59,,,0.15,0.08,0.99,-3.0,-0.2,-0.1,840,0,1,1,0.0,0,39.540543,-122.33226,0.0,0.0,307.4,8,2,2.2,0,0.0,-1,0.0,0.0,0.0,0
19394,1495318250921,,,,,,,,0.15,0.08,0.99,-3.0,-0.2,-0.2,800,0,,,,,,,,,,,,,,,,,,,
19414,1495318250941,,,,,,,,0.15,0.07,0.98,-3.0,-0.3,-0.1,800,0,,,,,,,,,,,,,,,,,,,
19434,1495318250961,,,,,,,,0.14,0.07,0.98,-3.0,-0.3,-0.1,820,0,,,,,,,,,,,,,,,,,,,
19454,1495318250981,,,,,,,,0.15,0.07,0.98,-3.0,-0.2,0.0,820,0,,,,,,,,,,,,,,,,,,,
19474,1495318250993,0,107.9,,112.5,59,116.7,,0.15,0.07,0.98,-3.0,-0.4,0.1,820,0,1,1,0.0,0,39.540543,-122.33226,0.0,0.0,307.4,8,2,2.2,0,0.0,-1,0.0,0.0,0.0,0
19494,1495318251013,,,,,,,,0.14,0.07,0.98,-3.0,-0.4,-0.0,820,0,,,,,,,,,,,,,,,,,,,
19514,1495318251033,,,,,,,,0.14,0.06,0.98,-2.9,-0.2,-0.0,840,0,,,,,,,,,,,,,,,,,,,
19534,1495318251053,,,,,,,,0.15,0.06,0.99,-2.9,-0.2,-0.1,840,0,,,,,,,,,,,,,,,,,,,
19554,1495318251073,,,,,,,,0.15,0.06,0.98,-3.0,-0.3,-0.1,800,0,,,,,,,,,,,,,,,,,,,
19574,1495318251101,,,,,59,,,0.15,0.07,0.99,-3.0,-0.0,0.0,820,0,1,1,0.0,0,39.540543,-122.33226,0.0,0.0,307.4,8,2,2.2,0,0.0,-1,0.0,0.0,0.0,0
19594,1495318251121,,,,,,,,0.15,0.07,0.99,-2.9,-0.1,0.0,820,0,,,,,,,,,,,,,,,,,,,
19614,1495318251141,,,,,,,,0.15,0.07,1.0,-2.9,-0.2,-0.1,820,0,,,,,,,,,,,,,,,,,,,
19634,1495318251161,,,,,,,,0.15,0.07,0.99,-2.9,-0.1,-0.2,820,0,,,,,,,,,,,,,,,,,,,
19654,1495318251181,,,,,,,,0.15,0.07,0.99,-3.0,-0.2,-0.2,820,0,,,,,,,,,,,,,,,,,,,
19674,1495318251200,0,108.8,,113.6,59,116.7,,0.14,0.07,0.99,-3.0,-0.3,-0.1,840,0,1,1,0.0,0,39.540543,-122.33226,0.0,0.0,307.4,8,2,2.2,0,0.0,-1,0.0,0.0,0.0,0
19694,1495318251220,,,,,,,,0.15,0.07,0.99,-3.0,-0.2,-0.0,800,0,,,,,,,,,,,,,,,,,,,
19714,1495318251240,,,,,,,,0.15,0.08,0.99,-3.0,-0.4,-0.0,820,0,,,,,,,,,,,,,,,,,,,
19734,1495318251260,,,,,,,,0.14,0.07,0.99,-3.0,-0.4,-0.1,820,0,,,,,,,,,,,,,,,,,,,
19754,1495318251280,,,,,,,,0.14,0.07,0.99,-2.9,-0.3,-0.2,820,0,,,,,,,,,,,,,,,,,,,
19774,1495318251300,,,,,59,,,0.15,0.07,0.99,-2.9,-0.3,-0.2,820,0,1,1,0.0,0,39.540543,-122.33226,0.0,0.0,307.4,8,2,2.2,0,0.0,-1,0.0,0.0,0.0,0
19794,1495318251320,,,,,,,,0.14,0.07,0.99,-3.0,-0.3,-0.1,820,0,,,,,,,,,,,,,,,,,,,
19814,1495318251340,,,,,,,,0.15,0.07,1.0,-3.0,-0.0,-0.0,840,0,,,,,,,,,,,,,,,,,,,
19834,1495318251360,,,,,,,,0.15,0.08,1.0,-3.0,-0.2,-0.0,800,0,,,,,,,,,,,,,,,,,,,
19854,1495318251380,,,,,,,,0.15,0.07,1.0,-3.0,-0.1,-0.1,820,0,,,,,,,,,,,,,,,,,,,
19874,1495318251400,0,107.9,,112.1,61,115.7,,0.14,0.07,1.0,-3.0,-0.1,-0.1,820,0,1,1,0.0,0,39.540543,-122.33226,0.0,0.0,307.4,8,2,2.2,0,0.0,-1,0.0,0.0,0.0,0
19894,1495318251420,,,,,,,,0.14,0.07,1.0,-3.0,-0.1,-0.1,820,0,,,,,,,,,,,,,,,,,,,
19914,1495318251440,,,,,,,,0.14,0.07,1.0,-3.1,-0.2,-0.1,820,0,,,,,,,,,,,,,,,,,,,
19934,1495318251460,,,,,,,,0.14,0.07,1.0,-3.0,-0.1,-0.0,820,0,,,,,,,,,,,,,,,,,,,
19954,1495318251480,,,,,,,,0.14,0.08,1.0,-3.0,-0.4,-0.0,840,0,,,,,,,,,,,,,,,,,,,
19974,1495318251502,,,,,61,,,0.14,0.07,0.99,-3.0,-0.4,-0.1,800,0,1,1,0.0,0,39.540543,-122.33226,0.0,0.0,307.4,8,2,2.2,0,0.0,-1,0.0,0.0,0.0,0
19994,1495318251522,,,,,,,,0.14,0.07,0.99,-2.9,-0.3,-0.1,820,0,,,,,,,,,,,,,,,,,,,
20014,1495318251542,,,,,,,,0.14,0.07,0.99,-3.0,-0.4,-0.1,820,0,,,,,,,,,,,,,,,,,,,
20034,1495318251562,,,,,,,,0.14,0.07,0.99,-3.0,-0.2,0.0,820,0,,,,,,,,,,,,,,,,,,,
20054,1495318251582,,,,,,,,0.15,0.08,0.99,-3.0,0.0,0.1,820,0,,,,,,,,,,,,,,,,,,,
20074,1495318251602,0,108.4,-0.8,113.0,60,116.7,14.66,0.15,0.08,0.99,-3.0,-0.1,0.0,820,0,1,1,0.0,0,39.540543,-122.33226,0.0,0.0,307.4,8,2,2.2,0,0.0,-1,0.0,0.0,0.0,0
20094,1495318251622,,,,,,,,0.14,0.07,0.99,-3.0,-0.0,-0.1,840,0,,,,,,,,,,,,,,,,,,,
20114,1495318251642,,,,,,,,0.15,0.06,0.99,-3.0,0.0,-0.1,800,0,,,,,,,,,,,,,,,,,,,
20134,1495318251662,,,,,,,,0.14,0.07,0.99,-3.0,-0.1,-0.1,800,0,,,,,,,,,,,,,,,,,,,
20154,1495318251682,,,,,,,,0.14,0.07,1.0,-3.0,0.0,-0.1,820,0,,,,,,,,,,,,,,,,,,,
20174,1495318251702,,,,,59,,,0.14,0.07,1.0,-3.0,-0.0,-0.0,800,0,1,1,0.0,0,39.540543,-122.33226,0.0,0.0,307.4,8,2,2.2,0,0.0,-1,0.0,0.0,0.0,0
20194,1495318251722,,,,,,,,0.14,0.07,1.0,-3.0,-0.2,-0.1,820,0,,,,,,,,,,,,,,,,,,,
20214,1495318251742,,,,,,,,0.14,0.07,1.0,-3.0,-0.1,-0.2,820,0,,,,,,,,,,,,,,,,,,,
20234,1495318251762,,,,,,,,0.14,0.06,0.99,-3.0,-0.2,-0.2,840,0,,,,,,,,,,,,,,,,,,,
20254,1495318251782,,,,,,,,0.14,0.07,0.99,-3.0,-0.3,-0.1,840,0,,,,,,,,,,,,,,,,,,,
20274,1495318251802,0,109.0,,113.7,56,116.0,,0.14,0.07,0.99,-3.0,-0.1,-0.0,800,0,1,1,0.0,0,39.540543,-122.33226,0.0,0.0,307.4,8,2,2.2,0,0.0,-1,0.0,0.0,0.0,0
20294,1495318251822,,,,,,,,0.15,0.08,0.99,-3.0,-0.3,-0.0,820,0,,,,,,,,,,,,,,,,,,,
20314,1495318251842,,,,,,,,0.14,0.08,0.99,-3.0,-0.3,-0.1,800,0,,,,,,,,,,,,,,,,,,,
20334,1495318251862,,,,,,,,0.14,0.07,0.98,-3.0,-0.2,-0.2,820,0,,,,,,,,,,,,,,,,,,,
20354,1495318251882,,,,,,,,0.15,0.07,0.98,-3.0,-0.1,-0.2,820,0,,,,,,,,,,,,,,,,,,,
20374,1495318251902,,,,,59,,,0.14,0.07,0.99,-3.0,-0.1,-0.1,820,0,1,1,0.0,0,39.540543,-122.33226,0.0,0.0,307.4,8,2,2.2,0,0.0,-1,0.0,0.0,0.0,0
20394,1495318251922,,,,,,,,0.15,0.07,0.99,-3.0,0.2,-0.0,840,0,,,,,,,,,,,,,,,,,,,
20414,1495318251942,,,,,,,,0.15,0.08,0.99,-3.0,0.0,-0.0,800,0,,,,,,,,,,,,,,,,,,,
20434,1495318251962,,,,,,,,0.14,0.07,1.0,-3.0,0.1,-0.1,820,0,,,,,,,,,,,,,,,,,,,
20454,1495318251982,,,,,,,,0.14,0.07,1.0,-3.0,0.1,-0.1,800,0,,,,,,,,,,,,,,,,,,,
20474,1495318251994,0,107.9,,112.2,60,116.0,,0.14,0.07,1.0,-3.0,-0.0,-0.2,800,0,1,1,0.0,0,39.540543,-122.33226,0.0,0.0,307.4,8,2,2.2,0,0.0,-1,0.0,0.0,0.0,0
20494,1495318252014,,,,,,,,0.13,0.07,1.01,-3.0,0.0,-0.1,820,0,,,,,,,,,,,,,,,,,,,
20514,1495318252034,,,,,,,,0.14,0.08,1.0,-3.0,0.0,-0.1,820,0,,,,,,,,,,,,,,,,,,,
20534,1495318252054,,,,,,,,0.14,0.08,1.0,-3.0,-0.3,-0.1,840,0,,,,,,,,,,,,,,,,,,,
20554,1495318252074,,,,,,,,0.13,0.07,1.0,-3.0,-0.2,-0.2,780,0,,,,,,,,,,,,,,,,,,,
20574,1495318252102,,,,,56,,,0.14,0.07,1.0,-2.9,-0.3,-0.2,780,0,1,1,0.0,0,39.540543,-122.33226,0.0,0.0,307.4,8,2,2.2,0,0.0,-1,0.0,0.0,0.0,0
20594,1495318252122,,,,,,,,0.14,0.07,1.0,-3.0,-0.4,-0.2,800,0,,,,,,,,,,,,,,,,,,,
20614,1495318252142,,,,,,,,0.14,0.07,1.0,-3.0,-0.2,-0.1,800,0,,,,,,,,,,,,,,,,,,,
20634,1495318252162,,,,,,,,0.15,0.08,1.0,-3.0,-0.5,-0.1,800,0,,,,,,,,,,,,,,,,,,,
20654,1495318252182,,,,,,,,0.14,0.08,1.0,-3.0,-0.5,-0.2,800,0,,,,,,,,,,,,,,,,,,,
20674,1495318252201,0,108.9,,113.6,59,116.8,,0.15,0.08,1.0,-3.0,-0.4,-0.2,820,0,1,1,0.0,0,39.540543,-122.33226,0.0,0.0,307.4,8,2,2.2,0,0.0,-1,0.0,0.0,0.0,0
20694,1495318252221,,,,,,,,0.15,0.07,0.99,-3.0,-0.6,-0.2,820,0,,,,,,,,,,,,,,,,,,,
20714,1495318252241,,,,,,,,0.14,0.07,0.99,-3.0,-0.3,-0.1,780,0,,,,,,,,,,,,,,,,,,,
20734,1495318252261,,,,,,,,0.15,0.08,0.98,-3.0,-0.3,-0.0,800,0,,,,,,,,,,,,,,,,,,,
20754,1495318252281,,,,,,,,0.15,0.08,0.99,-3.0,-0.3,-0.1,800,0,,,,,,,,,,,,,,,,,,,
20774,1495318252303,,,,,58,,,0.15,0.08,0.99,-3.0,0.0,-0.1,800,0,1,1,0.0,0,39.540543,-122.33226,0.0,0.0,307.4,8,2,2.2,0,0.0,-1,0.0,0.0,0.0,0
20794,1495318252323,,,,,,,,0.15,0.08,0.99,-3.0,-0.0,-0.1,800,0,,,,,,,,,,,,,,,,,,,
20814,1495318252343,,,,,,,,0.15,0.08,0.98,-3.0,0.1,-0.1,800,0,,,,,,,,,,,,,,,,,,,
20834,1495318252363,,,,,,,,0.15,0.08,0.97,-3.0,0.3,0.1,820,0,,,,,,,,,,,,,,,,,,,
20854,1495318252383,,,,,,,,0.15,0.08,0.97,-3.0,0.1,0.0,780,0,,,,,,,,,,,,,,,,,,,
20874,1495318252401,0,108.7,,113.3,59,116.9,,0.15,0.08,0.97,-3.0,0.2,-0.0,800,0,1,1,0.0,0,39.540543,-122.33226,0.0,0.0,307.4,8,2,2.2,0,0.0,-1,0.0,0.0,0.0,0
20894,1495318252421,,,,,,,,0.16,0.08,0.97,-3.0,0.2,-0.0,800,0,,,,,,,,,,,,,,,,,,,
20914,1495318252441,,,,,,,,0.15,0.08,0.98,-3.0,0.1,-0.0,800,0,,,,,,,,,,,,,,,,,,,
20934,1495318252461,,,,,,,,0.16,0.09,0.98,-3.0,0.4,0.0,800,0,,,,,,,,,,,,,,,,,,,
20954,1495318252481,,,,,,,,0.16,0.09,0.98,-3.0,0.0,-0.0,800,0,,,,,,,,,,,,,,,,,,,
20974,1495318252501,,,,,58,,,0.15,0.08,0.98,-3.0,0.1,-0.1,820,0,1,1,0.0,0,39.540543,-122.33226,0.0,0.0,307.4,8,2,2.2,0,0.0,-1,0.0,0.0,0.0,0
20994,1495318252521,,,,,,,,0.16,0.07,0.98,-3.0,0.1,-0.1,780,0,,,,,,,,,,,,,,,,,,,
21014,1495318252541,,,,,,,,0.15,0.07,0.99,-3.0,-0.1,-0.1,780,0,,,,,,,,,,,,,,,,,,,
21034,1495318252561,,,,,,,,0.15,0.07,1.0,-3.0,0.2,-0.1,800,0,,,,,,,,,,,,,,,,,,,
21054,1495318252581,,,,,,,,0.15,0.08,1.01,-3.0,-0.1,-0.0,780,0,,,,,,,,,,,,,,,,,,,
21074,1495318252601,0,108.1,-0.7,112.8,58,116.2,14.63,0.14,0.07,1.01,-3.0,-0.0,-0.1,800,0,1,1,0.0,0,39.540543,-122.33226,0.0,0.0,307.4,8,2,2.2,0,0.0,-1,0.0,0.0,0.0,0
21094,1495318252621,,,,,,,,0.14,0.07,1.01,-3.0,0.1,-0.2,800,0,,,,,,,,,,,,,,,,,,,
21114,1495318252641,,,,,,,,0.14,0.07,1.01,-3.0,-0.2,-0.2,800,0,,,,,,,,,,,,,,,,,,,
21134,1495318252661,,,,,,,,0.13,0.07,1.01,-3.0,0.0,-0.1,820,0,,,,,,,,,,,,,,,,,,,
21154,1495318252681,,,,,,,,0.14,0.07,1.02,-3.0,-0.1,-0.1,780,0,,,,,,,,,,,,,,,,,,,
21174,1495318252701,,,,,58,,,0.13,0.07,1.03,-3.0,-0.1,-0.1,800,0,1,1,0.0,0,39.540543,-122.33226,0.0,0.0,307.4,8,2,2.2,0,0.0,-1,0.0,0.0,0.0,0
21194,1495318252721,,,,,,,,0.13,0.07,1.02,-3.0,-0.0,-0.2,800,0,,,,,,,,,,,,,,,,,,,
21214,1495318252741,,,,,,,,0.12,0.07,1.02,-3.0,-0.2,-0.2,800,0,,,,,,,,,,,,,,,,,,,
21234,1495318252761,,,,,,,,0.12,0.07,1.01,-3.0,-0.1,-0.1,800,0,,,,,,,,,,,,,,,,,,,
21254,1495318252781,,,,,,,,0.12,0.07,1.01,-3.0,-0.2,-0.0,800,0,,,,,,,,,,,,,,,,,,,
21274,1495318252801,0,107.8,,112.6,56,116.2,,0.12,0.07,1.02,-3.0,-0.3,-0.1,820,0,1,1,0.0,0,39.540543,-122.33226,0.0,0.0,307.4,8,2,2.2,0,0.0,-1,0.0,0.0,0.0,0
21294,1495318252821,,,,,,,,0.11,0.06,1.01,-3.0,-0.2,-0.2,780,0,,,,,,,,,,,,,,,,,,,
21314,1495318252841,,,,,,,,0.12,0.06,1.01,-3.0,-0.3,-0.2,780,0,,,,,,,,,,,,,,,,,,,
21334,1495318252861,,,,,,,,0.11,0.06,1.0,-3.0,-0.4,-0.2,800,0,,,,,,,,,,,,,,,,,,,
21354,1495318252881,,,,,,,,0.12,0.07,1.0,-3.1,-0.2,-0.1,800,0,,,,,,,,,,,,,,,,,,,
21374,1495318252901,,,,,57,,,0.12,0.07,0.99,-3.0,-0.5,-0.1,800,0,1,1,0.0,0,39.540543,-122.33226,0.0,0.0,307.4,8,2,2.2,0,0.0,-1,0.0,0.0,0.0,0
21394,1495318252921,,,,,,,,0.12,0.07,0.99,-3.0,-0.5,-0.2,820,0,,,,,,,,,,,,,,,,,,,
21414,1495318252941,,,,,,,,0.13,0.07,0.98,-3.0,-0.5,-0.2,840,0,,,,,,,,,,,,,,,,,,,
21434,1495318252961,,,,,,,,0.14,0.07,0.99,-3.0,-0.8,-0.2,840,0,,,,,,,,,,,,,,,,,,,
21454,1495318252981,,,,,,,,0.14,0.07,0.99,-3.0,-0.5,-0.1,800,0,,,,,,,,,,,,,,,,,,,
21474,1495318252997,0,108.0,,112.4,59,115.4,,0.15,0.08,0.99,-3.0,-0.6,-0.1,800,0,1,1,0.0,0,39.540543,-122.33226,0.0,0.0,307.4,8,2,0.1,0,0.0,-1,0.0,0.0,0.0,0
21494,1495318253017,,,,,,,,0.14,0.07,0.99,-3.0,-0.6,-0.1,800,0,,,,,,,,,,,,,,,,,,,
21514,1495318253037,,,,,,,,0.14,0.07,0.99,-3.0,-0.4,-0.1,800,0,,,,,,,,,,,,,,,,,,,
21534,1495318253057,,,,,,,,0.14,0.07,0.99,-3.0,-0.4,-0.1,800,0,,,,,,,,,,,,,,,,,,,
21554,1495318253077,,,,,,,,0.14,0.07,0.99,-3.0,-0.3,-0.1,800,0,,,,,,,,,,,,,,,,,,,
21574,1495318253103,,,,,58,,,0.15,0.08,0.98,-3.0,0.0,-0.0,820,0,1,1,0.0,0,39.540543,-122.33226,0.0,0.0,307.4,8,2,0.1,0,0.0,-1,0.0,0.0,0.0,0
21594,1495318253123,,,,,,,,0.15,0.08,0.98,-3.0,-0.1,-0.0,780,0,,,,,,,,,,,,,,,,,,,
21614,1495318253143,,,,,,,,0.15,0.07,0.98,-3.0,0.1,-0.1,800,0,,,,,,,,,,,,,,,,,,,
21634,1495318253163,,,,,,,,0.15,0.07,0.98,-3.0,0.1,-0.1,800,0,,,,,,,,,,,,,,,,,,,
21654,1495318253183,,,,,,,,0.15,0.07,0.98,-3.0,-0.0,-0.1,800,0,,,,,,,,,,,,,,,,,,,
21674,1495318253203,0,107.8,,112.5,60,116.0,,0.15,0.08,0.99,-3.0,0.2,-0.0,800,0,1,1,0.0,0,39.540543,-122.33226,0.0,0.0,307.4,8,2,0.1,0,0.0,-1,0.0,0.0,0.0,0
21694,1495318253223,,,,,,,,0.16,0.08,0.99,-3.0,-0.1,-0.0,820,0,,,,,,,,,,,,,,,,,,,
21714,1495318253243,,,,,,,,0.15,0.08,1.0,-3.0,-0.1,-0.2,840,0,,,,,,,,,,,,,,,,,,,
21734,1495318253263,,,,,,,,0.15,0.07,0.99,-3.0,-0.1,-0.2,800,0,,,,,,,,,,,,,,,,,,,
21754,1495318253283,,,,,,,,0.15,0.07,0.99,-3.0,-0.2,-0.2,800,0,,,,,,,,,,,,,,,,,,,
21774,1495318253302,,,,,60,,,0.14,0.06,0.99,-3.0,-0.1,-0.2,820,0,1,1,0.0,0,39.540543,-122.33226,0.0,0.0,307.4,8,2,0.1,0,0.0,-1,0.0,0.0,0.0,0
21794,1495318253322,,,,,,,,0.14,0.06,1.0,-3.0,-0.1,-0.1,800,0,,,,,,,,,,,,,,,,,,,
21814,1495318253342,,,,,,,,0.14,0.07,1.0,-3.0,-0.3,-0.1,820,0,,,,,,,,,,,,,,,,,,,
21834,1495318253362,,,,,,,,0.13,0.06,1.0,-3.0,-0.2,-0.2,820,0,,,,,,,,,,,,,,,,,,,
21854,1495318253382,,,,,,,,0.14,0.06,0.99,-3.0,-0.3,-0.2,820,0,,,,,,,,,,,,,,,,,,,
21874,1495318253402,0,108.1,,113.0,61,116.5,,0.14,0.06,0.98,-3.0,-0.5,-0.1,820,0,1,1,0.0,0,39.540543,-122.33226,0.0,0.0,307.4,8,2,0.1,0,0.0,-1,0.0,0.0,0.0,0
21894,1495318253422,,,,,,,,0.14,0.07,0.98,-3.0,-0.3,-0.0,800,0,,,,,,,,,,,,,,,,,,,
21914,1495318253442,,,,,,,,0.15,0.08,0.98,-3.0,-0.5,-0.0,820,0,,,,,,,,,,,,,,,,,,,
21934,1495318253462,,,,,,,,0.15,0.07,0.98,-3.0,-0.5,-0.1,800,0,,,,,,,,,,,,,,,,,,,
21954,1495318253482,,,,,,,,0.15,0.07,0.98,-3.0,-0.3,-0.1,820,0,,,,,,,,,,,,,,,,,,,
21974,1495318253502,,,,,57,,,0.15,0.07,0.98,-2.9,-0.3,-0.1,820,0,1,1,0.0,0,39.540543,-122.33226,0.0,0.0,307.4,8,2,0.1,0,0.0,-1,0.0,0.0,0.0,0
21994,1495318253522,,,,,,,,0.14,0.07,0.98,-3.0,-0.2,-0.1,820,0,,,,,,,,,,,,,,,,,,,
22014,1495318253542,,,,,,,,0.15,0.08,0.98,-3.0,0.0,0.0,820,0,,,,,,,,,,,,,,,,,,,
22034,1495318253562,,,,,,,,0.15,0.08,0.98,-3.0,-0.1,-0.0,800,0,,,,,,,,,,,,,,,,,,,
22054,1495318253582,,,,,,,,0.15,0.07,0.99,-3.0,0.0,-0.1,800,0,,,,,,,,,,,,,,,,,,,
22074,1495318253602,1,109.3,-0.4,114.0,60,116.6,14.58,0.15,0.07,0.99,-3.0,0.0,-0.1,800,0,1,1,0.0,0,39.540543,-122.33226,0.0,0.0,307.4,8,2,0.1,0,0.0,-1,0.0,0.0,0.0,0
22094,1495318253622,,,,,,,,0.15,0.07,1.0,-3.0,-0.1,-0.1,800,0,,,,,,,,,,,,,,,,,,,
22114,1495318253642,,,,,,,,0.14,0.07,1.0,-3.0,0.1,-0.1,800,0,,,,,,,,,,,,,,,,,,,
22134,1495318253662,,,,,,,,0.15,0.08,1.01,-3.0,-0.2,-0.1,800,0,,,,,,,,,,,,,,,,,,,
22154,1495318253682,,,,,,,,0.14,0.07,1.02,-3.0,-0.2,-0.2,820,0,,,,,,,,,,,,,,,,,,,
22174,1495318253702,,,,,62,,,0.13,0.07,1.02,-3.0,-0.1,-0.2,800,0,1,1,0.0,0,39.540543,-122.33226,0.0,0.0,307.4,8,2,0.1,0,0.0,-1,0.0,0.0,0.0,0
22194,1495318253722,,,,,,,,0.13,0.07,1.01,-3.0,-0.2,-0.2,800,0,,,,,,,,,,,,,,,,,,,
22214,1495318253742,,,,,,,,0.13,0.06,1.0,-3.0,-0.2,-0.1,800,0,,,,,,,,,,,,,,,,,,,
22234,1495318253762,,,,,,,,0.13,0.07,1.0,-3.0,-0.1,-0.1,800,0,,,,,,,,,,,,,,,,,,,
22254,1495318253782,,,,,,,,0.13,0.07,0.99,-3.0,-0.4,-0.1,800,0,,,,,,,,,,,,,,,,,,,
22274,1495318253802,0,107.7,,112.5,58,116.1,,0.13,0.06,0.99,-3.0,-0.2,-0.2,800,0,1,1,0.0,0,39.540543,-122.33226,0.0,0.0,307.4,8,2,0.1,0,0.0,-1,0.0,0.0,0.0,0
22294,1495318253822,,,,,,,,0.14,0.06,0.98,-3.0,-0.3,-0.2,800,0,,,,,,,,,,,,,,,,,,,
22314,1495318253842,,,,,,,,0.13,0.06,0.98,-3.0,-0.5,-0.1,820,0,,,,,,,,,,,,,,,,,,,
22334,1495318253862,,,,,,,,0.14,0.07,0.98,-3.0,-0.3,-0.1,780,0,,,,,,,,,,,,,,,,,,,
22354,1495318253882,,,,,,,,0.14,0.07,0.98,-3.0,-0.6,-0.1,800,0,,,,,,,,,,,,,,,,,,,
22374,1495318253902,,,,,59,,,0.14,0.07,0.99,-3.0,-0.5,-0.1,800,0,1,1,0.0,0,39.540543,-122.33226,0.0,0.0,307.4,8,2,0.1,0,0.0,-1,0.0,0.0,0.0,0
22394,1495318253922,,,,,,,,0.15,0.07,0.99,-3.0,-0.5,-0.1,800,0,,,,,,,,,,,,,,,,,,,
22414,1495318253942,,,,,,,,0.15,0.07,0.99,-3.0,-0.8,-0.1,800,0,,,,,,,,,,,,,,,,,,,
22434,1495318253962,,,,,,,,0.16,0.08,0.99,-3.0,-0.5,-0.0,800,0,,,,,,,,,,,,,,,,,,,
22454,1495318253982,,,,,,,,0.16,0.08,1.0,-3.0,-0.7,-0.0,820,0,,,,,,,,,,,,,,,,,,,
22474,1495318253994,0,107.7,,112.5,60,116.0,,0.15,0.08,1.0,-3.0,-0.6,-0.1,780,0,1,1,0.0,0,39.540543,-122.33226,0.0,0.0,307.4,8,2,2.2,0,0.0,-1,0.0,0.0,0.0,0
22494,1495318254014,,,,,,,,0.16,0.08,1.0,-3.0,-0.5,-0.1,800,0,,,,,,,,,,,,,,,,,,,
22514,1495318254034,,,,,,,,0.16,0.08,0.99,-3.0,-0.6,-0.1,800,0,,,,,,,,,,,,,,,,,,,
22534,1495318254054,,,,,,,,0.16,0.08,0.99,-3.0,-0.4,0.0,800,0,,,,,,,,,,,,,,,,,,,
22554,1495318254074,,,,,,,,0.16,0.08,1.0,-3.0,-0.4,0.1,800,0,,,,,,,,,,,,,,,,,,,
22574,1495318254102,,,,,61,,,0.15,0.08,1.0,-3.0,-0.3,-0.0,800,0,1,1,0.0,0,39.540543,-122.33226,0.0,0.0,307.4,8,2,2.2,0,0.0,-1,0.0,0.0,0.0,0
22594,1495318254122,,,,,,,,0.15,0.08,1.01,-3.0,-0.0,-0.0,820,0,,,,,,,,,,,,,,,,,,,
22614,1495318254142,,,,,,,,0.15,0.08,1.0,-3.0,-0.1,-0.1,820,0,,,,,,,,,,,,,,,,,,,
22634,1495318254162,,,,,,,,0.15,0.07,0.99,-3.0,0.0,-0.0,780,0,,,,,,,,,,,,,,,,,,,
22654,1495318254182,,,,,,,,0.16,0.08,0.98,-3.0,0.1,0.1,800,0,,,,,,,,,,,,,,,,,,,
22674,1495318254202,0,108.7,,113.0,59,115.6,,0.15,0.09,0.98,-3.0,0.0,0.0,800,0,1,1,0.0,0,39.540543,-122.33226,0.0,0.0,307.4,8,2,2.2,0,0.0,-1,0.0,0.0,0.0,0
22694,1495318254222,,,,,,,,0.15,0.08,0.98,-3.0,0.2,-0.0,800,0,,,,,,,,,,,,,,,,,,,
22714,1495318254242,,,,,,,,0.16,0.08,0.99,-3.0,0.3,-0.1,800,0,,,,,,,,,,,,,,,,,,,
22734,1495318254262,,,,,,,,0.15,0.08,0.99,-3.0,0.2,-0.1,800,0,,,,,,,,,,,,,,,,,,,
22754,1495318254282,,,,,,,,0.16,0.08,0.99,-3.0,0.5,0.0,820,0,,,,,,,,,,,,,,,,,,,
22774,1495318254301,,,,,59,,,0.16,0.09,0.98,-3.0,0.2,-0.0,780,0,1,1,0.0,0,39.540543,-122.33226,0.0,0.0,307.4,8,2,2.2,0,0.0,-1,0.0,0.0,0.0,0
22794,1495318254321,,,,,,,,0.16,0.08,0.99,-3.0,0.3,-0.1,800,0,,,,,,,,,,,,,,,,,,,
22814,1495318254341,,,,,,,,0.16,0.08,0.99,-3.0,0.3,-0.1,800,0,,,,,,,,,,,,,,,,,,,
22834,1495318254361,,,,,,,,0.16,0.08,0.99,-3.0,0.0,-0.1,800,0,,,,,,,,,,,,,,,,,,,
22854,1495318254381,,,,,,,,0.15,0.08,1.0,-3.0,0.2,-0.0,800,0,,,,,,,,,,,,,,,,,,,
22874,1495318254401,0,107.9,,112.5,61,115.4,,0.15,0.08,1.01,-3.0,-0.0,-0.0,820,0,1,1,0.0,0,39.540543,-122.33226,0.0,0.0,307.4,8,2,2.2,0,0.0,-1,0.0,0.0,0.0,0
22894,1495318254421,,,,,,,,0.14,0.08,1.01,-3.0,-0.1,-0.1,820,0,,,,,,,,,,,,,,,,,,,
22914,1495318254441,,,,,,,,0.14,0.08,1.02,-3.0,-0.0,-0.2,800,0,,,,,,,,,,,,,,,,,,,
22934,1495318254461,,,,,,,,0.14,0.08,1.01,-3.0,-0.2,-0.2,800,0,,,,,,,,,,,,,,,,,,,
22954,1495318254481,,,,,,,,0.13,0.08,1.0,-3.0,-0.2,-0.2,800,0,,,,,,,,,,,,,,,,,,,
22974,1495318254501,,,,,60,,,0.14,0.08,1.0,-3.0,-0.2,-0.1,800,0,1,1,0.0,0,39.540543,-122.33226,0.0,0.0,307.4,8,2,2.2,0,0.0,-1,0.0,0.0,0.0,0
22994,1495318254521,,,,,,,,0.14,0.08,0.99,-3.0,-0.5,-0.1,800,0,,,,,,,,,,,,,,,,,,,
23014,1495318254541,,,,,,,,0.14,0.07,0.99,-3.0,-0.5,-0.2,800,0,,,,,,,,,,,,,,,,,,,
23034,1495318254561,,,,,,,,0.15,0.07,0.98,-3.0,-0.5,-0.2,800,0,,,,,,,,,,,,,,,,,,,
23054,1495318254581,,,,,,,,0.15,0.07,0.99,-3.0,-0.8,-0.1,820,0,,,,,,,,,,,,,,,,,,,
23074,1495318254601,0,107.9,-0.6,113.1,58,116.3,14.64,0.15,0.08,0.99,-3.0,-0.5,-0.1,780,0,1,1,0.0,0,39.540543,-122.33226,0.0,0.0,307.4,8,2,2.2,0,0.0,-1,0.0,0.0,0.0,0
23094,1495318254621,,,,,,,,0.15,0.08,1.0,-3.0,-0.8,-0.1,800,0,,,,,,,,,,,,,,,,,,,
23114,1495318254641,,,,,,,,0.15,0.08,1.0,-3.0,-0.7,-0.2,780,0,,,,,,,,,,,,,,,,,,,
23134,1495318254661,,,,,,,,0.15,0.08,1.0,-3.0,-0.7,-0.2,800,0,,,,,,,,,,,,,,,,,,,
23154,1495318254681,,,,,,,,0.15,0.08,0.99,-3.0,-0.9,-0.2,800,0,,,,,,,,,,,,,,,,,,,
23174,1495318254701,,,,,60,,,0.16,0.08,1.0,-3.0,-0.6,-0.1,800,0,1,1,0.0,0,39.540543,-122.33226,0.0,0.0,307.4,8,2,2.2,0,0.0,-1,0.0,0.0,0.0,0
23194,1495318254721,,,,,,,,0.17,0.09,1.0,-3.0,-0.7,-0.0,820,0,,,,,,,,,,,,,,,,,,,
23214,1495318254741,,,,,,,,0.16,0.08,1.01,-2.9,-0.6,-0.1,780,0,,,,,,,,,,,,,,,,,,,
23234,1495318254761,,,,,,,,0.16,0.08,1.0,-3.0,-0.5,-0.1,800,0,,,,,,,,,,,,,,,,,,,
23254,1495318254781,,,,,,,,0.16,0.08,0.99,-3.0,-0.6,-0.1,800,0,,,,,,,,,,,,,,,,,,,
23274,1495318254801,0,109.2,,114.0,58,116.6,,0.16,0.08,0.99,-3.0,-0.4,-0.0,780,0,1,1,0.0,0,39.540543,-122.33226,0.0,0.0,307.4,8,2,2.2,0,0.0,-1,0.0,0.0,0.0,0
23294,1495318254821,,,,,,,,0.16,0.08,1.0,-3.0,-0.4,-0.0,800,0,,,,,,,,,,,,,,,,,,,
23314,1495318254841,,,,,,,,0.16,0.08,1.0,-3.0,-0.3,-0.1,800,0,,,,,,,,,,,,,,,,,,,
23334,1495318254861,,,,,,,,0.16,0.08,1.0,-3.0,-0.1,-0.1,820,0,,,,,,,,,,,,,,,,,,,
23354,1495318254881,,,,,,,,0.16,0.08,0.99,-3.0,-0.2,-0.1,820,0,,,,,,,,,,,,,,,,,,,
23374,1495318254903,,,,,57,,,0.16,0.08,0.99,-3.0,0.0,-0.0,780,0,1,1,0.0,0,39.540543,-122.33226,0.0,0.0,307.4,8,2,2.2,0,0.0,-1,0.0,0.0,0.0,0
23394,1495318254923,,,,,,,,0.16,0.09,0.99,-3.0,0.0,-0.0,780,0,,,,,,,,,,,,,,,,,,,
23414,1495318254943,,,,,,,,0.15,0.08,0.99,-3.0,0.1,-0.1,780,0,,,,,,,,,,,,,,,,,,,
23434,1495318254963,,,,,,,,0.16,0.08,0.99,-3.0,0.2,-0.1,800,0,,,,,,,,,,,,,,,,,,,
23454,1495318254983,,,,,,,,0.16,0.08,0.98,-3.0,0.1,-0.1,800,0,,,,,,,,,,,,,,,,,,,
23474,1495318254997,0,109.1,,114.0,60,116.5,,0.15,0.08,0.98,-3.0,0.3,-0.0,800,0,1,1,0.0,0,39.540543,-122.33226,0.0,0.0,307.4,8,2,2.2,0,0.0,-1,0.0,0.0,0.0,0
23494,1495318255017,,,,,,,,0.16,0.08,0.98,-3.0,0.3,0.0,820,0,,,,,,,,,,,,,,,,,,,
23514,1495318255037,,,,,,,,0.16,0.08,0.99,-3.0,0.3,-0.0,780,0,,,,,,,,,,,,,,,,,,,
23534,1495318255057,,,,,,,,0.16,0.08,0.99,-3.0,0.5,-0.0,780,0,,,,,,,,,,,,,,,,,,,
23554,1495318255077,,,,,,,,0.16,0.08,0.98,-3.0,0.3,-0.0,780,0,,,,,,,,,,,,,,,,,,,
23574,1495318255103,,,,,59,,,0.16,0.08,0.97,-3.0,0.5,0.1,780,0,1,1,0.0,0,39.540543,-122.33226,0.0,0.0,307.4,8,2,2.2,0,0.0,-1,0.0,0.0,0.0,0
23594,1495318255123,,,,,,,,0.16,0.08,0.97,-3.0,0.4,0.1,780,0,,,,,,,,,,,,,,,,,,,
23614,1495318255143,,,,,,,,0.15,0.08,0.98,-3.0,0.4,-0.0,780,0,,,,,,,,,,,,,,,,,,,
23634,1495318255163,,,,,,,,0.15,0.08,0.98,-3.0,0.5,-0.0,800,0,,,,,,,,,,,,,,,,,,,
23654,1495318255183,,,,,,,,0.15,0.08,0.98,-3.0,0.4,-0.0,800,0,,,,,,,,,,,,,,,,,,,
23674,1495318255202,0,109.0,,114.2,58,116.9,,0.15,0.08,0.97,-3.0,0.5,0.1,780,0,1,1,0.0,0,39.540543,-122.33226,0.0,0.0,307.4,8,2,2.2,0,0.0,-1,0.0,0.0,0.0,0
23694,1495318255222,,,,,,,,0.16,0.09,0.97,-3.0,0.4,0.1,780,0,,,,,,,,,,,,,,,,,,,
23714,1495318255242,,,,,,,,0.15,0.08,0.98,-3.0,0.4,-0.0,780,0,,,,,,,,,,,,,,,,,,,
23734,1495318255262,,,,,,,,0.15,0.08,0.98,-3.0,0.5,-0.0,780,0,,,,,,,,,,,,,,,,,,,
23754,1495318255282,,,,,,,,0.15,0.08,0.97,-3.0,0.3,-0.0,780,0,,,,,,,,,,,,,,,,,,,
23774,1495318255304,,,,,60,,,0.15,0.08,0.96,-3.0,0.5,0.0,800,0,1,1,0.0,0,39.540543,-122.33226,0.0,0.0,307.4,8,2,2.2,0,0.0,-1,0.0,0.0,0.0,0
23794,1495318255324,,,,,,,,0.16,0.09,0.97,-3.0,0.3,0.0,800,0,,,,,,,,,,,,,,,,,,,
23814,1495318255344,,,,,,,,0.15,0.09,0.98,-3.0,0.3,-0.1,780,0,,,,,,,,,,,,,,,,,,,
23834,1495318255364,,,,,,,,0.15,0.08,0.98,-3.0,0.4,-0.1,780,0,,,,,,,,,,,,,,,,,,,
23854,1495318255384,,,,,,,,0.15,0.09,0.98,-3.0,0.1,-0.1,780,0,,,,,,,,,,,,,,,,,,,
23874,1495318255402,0,108.0,,113.2,59,116.4,,0.15,0.09,0.98,-3.0,0.3,-0.0,780,0,1,1,0.0,0,39.540543,-122.33226,0.0,0.0,307.4,8,2,2.2,0,0.0,-1,0.0,0.0,0.0,0
23894,1495318255422,,,,,,,,0.15,0.09,0.98,-3.0,0.1,-0.0,800,0,,,,,,,,,,,,,,,,,,,
23914,1495318255442,,,,,,,,0.15,0.08,0.98,-3.0,0.1,-0.1,800,0,,,,,,,,,,,,,,,,,,,
23934,1495318255462,,,,,,,,0.16,0.09,0.97,-3.0,0.2,-0.1,800,0,,,,,,,,,,,,,,,,,,,
23954,1495318255482,,,,,,,,0.15,0.08,0.98,-3.0,-0.0,-0.1,800,0,,,,,,,,,,,,,,,,,,,
23974,1495318255502,,,,,60,,,0.16,0.09,0.98,-3.0,0.2,-0.0,780,0,1,1,0.0,0,39.540543,-122.33226,0.0,0.0,307.4,8,2,2.2,0,0.0,-1,0.0,0.0,0.0,0
23994,1495318255522,,,,,,,,0.16,0.1,0.99,-3.0,-0.1,-0.1,780,0,,,,,,,,,,,,,,,,,,,
24014,1495318255542,,,,,,,,0.16,0.09,0.99,-3.0,0.0,-0.1,780,0,,,,,,,,,,,,,,,,,,,
24034,1495318255562,,,,,,,,0.16,0.09,0.99,-3.0,0.1,-0.1,780,0,,,,,,,,,,,,,,,,,,,
24054,1495318255582,,,,,,,,0.16,0.09,0.99,-3.0,-0.2,-0.1,800,0,,,,,,,,,,,,,,,,,,,
24074,1495318255602,0,109.2,-0.4,114.2,60,116.7,14.63,0.16,0.09,0.99,-3.0,0.0,-0.0,800,0,1,1,0.0,0,39.540543,-122.33226,0.0,0.0,307.4,8,2,2.2,0,0.0,-1,0.0,0.0,0.0,0
24094,1495318255622,,,,,,,,0.17,0.09,1.0,-3.0,-0.2,-0.1,800,0,,,,,,,,,,,,,,,,,,,
24114,1495318255642,,,,,,,,0.16,0.09,1.0,-3.0,-0.1,-0.1,780,0,,,,,,,,,,,,,,,,,,,
24134,1495318255662,,,,,,,,0.17,0.09,1.0,-3.0,-0.1,-0.2,780,0,,,,,,,,,,,,,,,,,,,
24154,1495318255682,,,,,,,,0.16,0.09,1.0,-3.0,-0.3,-0.1,780,0,,,,,,,,,,,,,,,,,,,
24174,1495318255702,,,,,60,,,0.16,0.09,1.0,-3.0,-0.1,-0.1,780,0,1,1,0.0,0,39.540543,-122.33226,0.0,0.0,307.4,8,2,2.2,0,0.0,-1,0.0,0.0,0.0,0
24194,1495318255722,,,,,,,,0.16,0.09,1.01,-3.0,-0.4,-0.1,780,0,,,,,,,,,,,,,,,,,,,
24214,1495318255742,,,,,,,,0.16,0.09,1.0,-3.0,-0.3,-0.2,800,0,,,,,,,,,,,,,,,,,,,
24234,1495318255762,,,,,,,,0.17,0.08,1.0,-3.0,-0.3,-0.2,800,0,,,,,,,,,,,,,,,,,,,
24254,1495318255782,,,,,,,,0.16,0.09,1.0,-3.0,-0.5,-0.1,800,0,,,,,,,,,,,,,,,,,,,
24274,1495318255802,0,108.0,,113.2,60,116.4,,0.17,0.09,1.01,-3.0,-0.3,-0.0,780,0,1,1,0.0,0,39.540543,-122.33226,0.0,0.0,307.4,8,2,2.2,0,0.0,-1,0.0,0.0,0.0,0
24294,1495318255822,,,,,,,,0.17,0.1,1.01,-3.0,-0.6,-0.1,780,0,,,,,,,,,,,,,,,,,,,
24314,1495318255842,,,,,,,,0.16,0.09,1.01,-3.0,-0.5,-0.1,800,0,,,,,,,,,,,,,,,,,,,
24334,1495318255862,,,,,,,,0.17,0.09,1.01,-3.0,-0.5,-0.1,800,0,,,,,,,,,,,,,,,,,,,
24354,1495318255882,,,,,,,,0.16,0.09,1.0,-3.0,-0.7,-0.1,800,0,,,,,,,,,,,,,,,,,,,
24374,1495318255904,,,,,60,,,0.17,0.09,1.0,-3.0,-0.4,-0.0,800,0,1,1,0.0,0,39.540543,-122.33226,0.0,0.0,307.4,8,2,2.2,0,0.0,-1,0.0,0.0,0.0,0
24394,1495318255924,,,,,,,,0.17,0.09,1.01,-3.0,-0.6,-0.0,800,0,,,,,,,,,,,,,,,,,,,
24414,1495318255944,,,,,,,,0.16,0.09,1.01,-3.0,-0.5,-0.1,780,0,,,,,,,,,,,,,,,,,,,
24434,1495318255964,,,,,,,,0.17,0.09,1.0,-3.0,-0.5,-0.1,780,0,,,,,,,,,,,,,,,,,,,
24454,1495318255984,,,,,,,,0.16,0.09,1.0,-3.0,-0.7,-0.1,780,0,,,,,,,,,,,,,,,,,,,
24474,1495318255998,0,109.2,,113.8,60,115.6,,0.16,0.09,1.01,-3.0,-0.5,-0.0,780,0,1,1,0.0,0,39.540543,-122.33226,0.0,0.0,307.4,8,2,2.2,0,0.0,-1,0.0,0.0,0.0,0
24494,1495318256018,,,,,,,,0.16,0.09,1.01,-3.0,-0.7,-0.1,780,0,,,,,,,,,,,,,,,,,,,
24514,1495318256038,,,,,,,,0.16,0.08,1.01,-3.0,-0.5,-0.1,780,0,,,,,,,,,,,,,,,,,,,
24534,1495318256058,,,,,,,,0.16,0.08,1.01,-3.0,-0.6,-0.2,780,0,,,,,,,,,,,,,,,,,,,
24554,1495318256078,,,,,,,,0.16,0.08,1.01,-3.0,-0.7,-0.1,800,0,,,,,,,,,,,,,,,,,,,
24574,1495318256100,,,,,59,,,0.17,0.09,1.02,-3.0,-0.5,-0.1,760,0,1,1,0.0,0,39.540543,-122.33226,0.0,0.0,307.4,8,2,2.2,0,0.0,-1,0.0,0.0,0.0,0
24594,1495318256120,,,,,,,,0.16,0.09,1.01,-3.0,-0.9,-0.1,780,0,,,,,,,,,,,,,,,,,,,
24614,1495318256140,,,,,,,,0.16,0.08,1.01,-3.0,-0.7,-0.2,780,0,,,,,,,,,,,,,,,,,,,
24634,1495318256160,,,,,,,,0.16,0.08,1.02,-3.0,-0.9,-0.2,780,0,,,,,,,,,,,,,,,,,,,
24654,1495318256180,,,,,,,,0.16,0.08,1.01,-3.0,-0.8,-0.2,780,0,,,,,,,,,,,,,,,,,,,
24674,1495318256203,0,108.7,,113.1,60,115.4,,0.17,0.09,1.01,-3.0,-0.8,-0.1,780,0,1,1,0.0,0,39.540543,-122.33226,0.0,0.0,307.4,8,2,2.2,0,0.0,-1,0.0,0.0,0.0,0
24694,1495318256223,,,,,,,,0.16,0.08,1.0,-3.0,-0.9,-0.2,800,0,,,,,,,,,,,,,,,,,,,
24714,1495318256243,,,,,,,,0.16,0.08,1.0,-3.0,-0.7,-0.2,780,0,,,,,,,,,,,,,,,,,,,
24734,1495318256263,,,,,,,,0.15,0.07,1.0,-3.0,-0.9,-0.2,780,0,,,,,,,,,,,,,,,,,,,
24754,1495318256283,,,,,,,,0.15,0.07,1.0,-3.0,-0.7,-0.1,780,0,,,,,,,,,,,,,,,,,,,
24774,1495318256303,,,,,59,,,0.15,0.07,1.0,-3.0,-0.8,-0.1,780,0,1,1,0.0,0,39.540543,-122.33226,0.0,0.0,307.4,8,2,2.2,0,0.0,-1,0.0,0.0,0.0,0
24794,1495318256323,,,,,,,,0.14,0.06,1.01,-3.0,-0.6,-0.2,780,0,,,,,,,,,,,,,,,,,,,
24814,1495318256343,,,,,,,,0.14,0.06,1.0,-3.0,-0.5,-0.2,780,0,,,,,,,,,,,,,,,,,,,
24834,1495318256363,,,,,,,,0.14,0.06,1.0,-3.0,-0.6,-0.2,780,0,,,,,,,,,,,,,,,,,,,
24854,1495318256383,,,,,,,,0.14,0.07,1.01,-3.0,-0.4,-0.1,800,0,,,,,,,,,,,,,,,,,,,
