"Interval"|"ms"|0|0|1,"Utc"|"ms"|0|0|1,"FuelLevel"|"F"|0|100|5,"OilTemp"|"F"|0.0|300.0|5,"CoolantPressPSI"|"PSI"|0.0|20.0|1,"Coolant"|"F"|0.0|300.0|5,"OilPress"|"PSI"|0|150|10,"EngineTemp"|"F"|0.0|300.0|5,"Battery"|"Volts"|0.0|20.0|1,"AccelX"|"G"|-3.0|3.0|50,"AccelY"|"G"|-3.0|3.0|50,"AccelZ"|"G"|-3.0|3.0|50,"Yaw"|"Deg/Sec"|-300.0|300.0|50,"Pitch"|"Deg/Sec"|-300.0|300.0|50,"Roll"|"Deg/Sec"|-300.0|300.0|50,"RPM"|""|0|10000|50,"Driveshaft"|"RPM"|0|5000|50,"GPIO1"|""|0|1|10,"GPIO2"|""|0|1|10,"GearRatio"|""|-5.0|5.0|10,"Gear"|""|-1|5|10,"Latitude"|"Degrees"|-180.0|180.0|10,"Longitude"|"Degrees"|-180.0|180.0|10,"Speed"|"mph"|0.0|150.0|10,"Distance"|"mi"|0.0|0.0|10,"Altitude"|"ft"|0.0|4000.0|10,"GPSSats"|""|0|20|10,"GPSQual"|""|0|5|10,"GPSDOP"|""|0.0|20.0|10,"LapCount"|""|0|0|10,"LapTime"|"Min"|0.0|0.0|10,"Sector"|""|0|0|10,"SectorTime"|"Min"|0.0|0.0|10,"PredTime"|"Min"|0.0|0.0|10,"ElapsedTime"|"Min"|0.0|0.0|10,"CurrentLap"|""|0|0|10
7242399,1495307636568,,,,,,,,0.05,0.08,0.95,-2.8,-0.6,-0.5,20,0,,,,,,,,,,,,,,,,,,,
7242419,1495307636588,,,,,,,,0.06,0.08,0.96,-2.9,-0.4,-0.2,20,0,,,,,,,,,,,,,,,,,,,
7242439,1495307636610,,,,,,,,0.05,0.09,0.96,-3.0,-0.4,-0.1,20,0,,,,,,,,,,,,,,,,,,,
7242459,1495307636630,,,,,,,,0.04,0.08,0.97,-2.9,-0.2,-0.1,180,0,,,,,,,,,,,,,,,,,,,
7242481,1495307636652,0,145.2,,164.2,0,161.1,,0.04,0.08,0.97,-2.8,-0.1,-0.2,180,0,1,1,0.0,0,39.540588,-122.332367,0.0,4.2,388.0,11,3,1.3,15,4.26,8,0.1633,32.4137,31.8683,16
7242500,1495307636671,,,,,,,,0.05,0.09,0.98,-2.8,-0.1,-0.2,180,0,,,,,,,,,,,,,,,,,,,
7242520,1495307636691,,,,,,,,0.04,0.09,0.98,-2.8,-0.2,-0.3,180,0,,,,,,,,,,,,,,,,,,,
7242540,1495307636709,,,,,,,,0.05,0.09,0.97,-2.7,-0.4,-0.4,200,0,,,,,,,,,,,,,,,,,,,
7242560,1495307636729,,,,,,,,0.04,0.08,0.96,-2.7,-0.7,-0.4,200,0,,,,,,,,,,,,,,,,,,,
7242582,1495307636751,,,,,0,,,0.04,0.08,0.96,-2.8,-0.8,-0.4,200,0,1,1,0.0,0,39.540588,-122.332367,0.0,4.2,388.0,11,3,1.3,15,4.26,8,0.1633,32.4153,31.87,16
7242601,1495307636770,,,,,,,,0.03,0.08,0.96,-2.8,-0.9,-0.4,200,0,,,,,,,,,,,,,,,,,,,
7242621,1495307636792,,,,,,,,0.03,0.1,0.97,-2.9,-0.6,-0.3,200,0,,,,,,,,,,,,,,,,,,,
7242641,1495307636812,,,,,,,,0.03,0.1,0.97,-3.0,-0.3,-0.2,180,0,,,,,,,,,,,,,,,,,,,
7242661,1495307636832,,,,,,,,0.03,0.1,0.97,-2.9,-0.4,-0.3,180,0,,,,,,,,,,,,,,,,,,,
7242683,1495307636854,0,145.2,,164.3,0,161.2,,0.04,0.1,0.96,-2.9,-0.7,-0.4,180,0,1,1,0.0,0,39.540588,-122.332367,0.0,4.2,388.0,11,3,1.3,15,4.26,8,0.1633,32.417,31.8717,16
7242702,1495307636873,,,,,,,,0.04,0.09,0.97,-2.9,-0.9,-0.4,180,0,,,,,,,,,,,,,,,,,,,
7242722,1495307636893,,,,,,,,0.04,0.1,0.96,-2.9,-0.8,-0.4,180,0,,,,,,,,,,,,,,,,,,,
7242742,1495307636913,,,,,,,,0.04,0.1,0.96,-3.0,-0.3,-0.2,200,0,,,,,,,,,,,,,,,,,,,
7242762,1495307636933,,,,,,,,0.04,0.09,0.96,-3.1,-0.3,-0.2,200,0,,,,,,,,,,,,,,,,,,,
7242784,1495307636955,,,,,0,,,0.04,0.07,0.95,-3.0,-0.6,-0.3,200,0,1,1,0.0,0,39.540588,-122.332367,0.0,4.2,388.0,11,3,1.3,15,4.26,8,0.1633,32.4187,31.8733,16
7242803,1495307636974,,,,,,,,0.05,0.09,0.96,-3.0,-0.9,-0.2,320,0,,,,,,,,,,,,,,,,,,,
7242823,1495307636994,,,,,,,,0.04,0.08,0.96,-3.0,-0.7,-0.3,320,0,,,,,,,,,,,,,,,,,,,
7242843,1495307637004,,,,,,,,0.04,0.08,0.96,-3.0,-0.6,-0.3,400,0,,,,,,,,,,,,,,,,,,,
7242863,1495307637024,,,,,,,,0.04,0.08,0.97,-3.0,-0.4,-0.4,400,0,,,,,,,,,,,,,,,,,,,
7242885,1495307637046,0,145.8,,164.8,0,161.7,,0.04,0.07,0.96,-3.0,-0.4,-0.3,400,0,1,1,0.0,0,39.540588,-122.332367,0.0,4.2,388.0,11,3,1.3,15,4.26,8,0.1633,32.4202,31.875,16
7242904,1495307637065,,,,,,,,0.04,0.07,0.97,-3.0,-0.2,-0.2,420,0,,,,,,,,,,,,,,,,,,,
7242924,1495307637094,,,,,,,,0.05,0.08,0.97,-3.0,-0.2,-0.2,420,0,,,,,,,,,,,,,,,,,,,
7242944,1495307637114,,,,,,,,0.05,0.07,0.97,-3.0,-0.1,-0.1,500,0,,,,,,,,,,,,,,,,,,,
7242964,1495307637134,,,,,,,,0.05,0.07,0.98,-3.0,-0.1,-0.1,500,0,,,,,,,,,,,,,,,,,,,
7242986,1495307637156,,,,,0,,,0.05,0.07,0.98,-3.0,-0.0,-0.1,500,0,1,0,0.0,0,39.540588,-122.332367,0.0,4.2,388.0,11,3,1.3,15,4.26,8,0.1633,32.4221,31.8767,16
7243005,1495307637175,,,,,,,,0.06,0.07,0.99,-3.0,-0.0,-0.1,500,0,,,,,,,,,,,,,,,,,,,
7243025,1495307637195,,,,,,,,0.06,0.08,0.99,-3.0,0.0,-0.1,440,0,,,,,,,,,,,,,,,,,,,
7243045,1495307637215,,,,,,,,0.06,0.08,1.0,-3.0,-0.0,0.0,440,0,,,,,,,,,,,,,,,,,,,
7243065,1495307637235,,,,,,,,0.06,0.09,0.99,-3.0,0.1,0.0,400,0,,,,,,,,,,,,,,,,,,,
7243087,1495307637257,0,145.9,-0.5,164.8,0,161.8,11.44,0.06,0.09,1.0,-3.0,0.0,0.1,400,0,1,0,0.0,0,39.540588,-122.332367,0.0,4.2,388.0,11,3,1.3,15,4.26,8,0.1633,32.4238,31.8783,16
7243106,1495307637276,,,,,,,,0.06,0.09,1.0,-3.0,-0.1,-0.0,420,0,,,,,,,,,,,,,,,,,,,
7243126,1495307637296,,,,,,,,0.06,0.09,1.0,-2.9,-0.1,-0.2,420,12,,,,,,,,,,,,,,,,,,,
7243146,1495307637316,,,,,,,,0.05,0.09,0.99,-3.0,-0.1,-0.2,480,12,,,,,,,,,,,,,,,,,,,
7243166,1495307637336,,,,,,,,0.05,0.09,0.98,-3.0,-0.1,-0.2,480,12,,,,,,,,,,,,,,,,,,,
7243188,1495307637358,,,,,0,,,0.04,0.09,0.98,-3.0,-0.1,-0.1,520,12,1,0,0.0,0,39.540588,-122.332367,0.0,4.2,388.0,11,3,1.3,15,4.26,8,0.1633,32.4254,31.88,16
7243207,1495307637377,,,,,,,,0.04,0.09,0.97,-3.0,-0.0,-0.2,520,12,,,,,,,,,,,,,,,,,,,
7243227,1495307637398,,,,,,,,0.04,0.09,0.98,-3.1,0.2,-0.1,620,12,,,,,,,,,,,,,,,,,,,
7243247,1495307637418,,,,,,,,0.04,0.08,0.98,-3.0,0.2,-0.2,700,12,,,,,,,,,,,,,,,,,,,
7243267,1495307637438,,,,,,,,0.04,0.08,0.98,-3.0,0.2,-0.2,700,12,,,,,,,,,,,,,,,,,,,
7243289,1495307637460,0,145.6,,164.6,0,161.6,,0.04,0.08,0.98,-3.1,0.3,-0.2,740,12,1,0,43.333,0,39.540588,-122.332367,0.0,4.2,388.0,11,3,1.3,15,4.26,8,0.1633,32.4271,31.8817,16
7243308,1495307637479,,,,,,,,0.05,0.08,0.98,-3.1,0.2,-0.1,800,12,,,,,,,,,,,,,,,,,,,
7243328,1495307637498,,,,,,,,0.05,0.08,0.99,-3.1,0.1,-0.1,820,12,,,,,,,,,,,,,,,,,,,
7243348,1495307637518,,,,,,,,0.05,0.08,0.99,-3.1,0.2,-0.1,820,12,,,,,,,,,,,,,,,,,,,
7243368,1495307637538,,,,,,,,0.05,0.08,0.98,-3.1,-0.0,-0.2,840,12,,,,,,,,,,,,,,,,,,,
7243390,1495307637560,,,,,0,,,0.05,0.08,0.98,-3.0,-0.0,-0.3,840,12,1,0,61.667,0,39.540588,-122.332367,0.0,4.2,388.0,11,3,1.3,15,4.26,8,0.1633,32.4288,31.8833,16
7243409,1495307637579,,,,,,,,0.05,0.07,0.98,-3.1,0.0,-0.3,820,12,,,,,,,,,,,,,,,,,,,
7243429,1495307637599,,,,,,,,0.04,0.08,0.97,-3.1,0.0,-0.3,820,12,,,,,,,,,,,,,,,,,,,
7243449,1495307637619,,,,,,,,0.04,0.08,0.97,-3.1,0.0,-0.3,840,12,,,,,,,,,,,,,,,,,,,
7243469,1495307637639,,,,,,,,0.04,0.08,0.97,-3.0,0.2,-0.2,860,12,,,,,,,,,,,,,,,,,,,
7243491,1495307637661,0,145.8,,164.8,0,161.5,,0.05,0.07,0.97,-3.0,0.1,-0.3,860,12,1,0,68.333,0,39.540588,-122.332367,0.0,4.2,388.0,11,3,1.3,15,4.26,8,0.1633,32.4305,31.885,16
7243510,1495307637680,,,,,,,,0.05,0.06,0.97,-3.0,0.0,-0.3,880,769231,,,,,,,,,,,,,,,,,,,
7243530,1495307637700,,,,,,,,0.04,0.06,0.98,-3.0,-0.0,-0.3,900,0,,,,,,,,,,,,,,,,,,,
7243550,1495307637720,,,,,,,,0.04,0.06,0.98,-3.0,0.0,-0.2,900,0,,,,,,,,,,,,,,,,,,,
7243570,1495307637740,,,,,,,,0.05,0.07,0.99,-3.0,0.1,-0.2,900,0,,,,,,,,,,,,,,,,,,,
7243592,1495307637762,,,,,0,,,0.05,0.06,0.99,-3.0,0.1,-0.1,920,0,1,0,71.667,0,39.540588,-122.332367,0.0,4.2,388.0,11,3,1.3,15,4.26,8,0.1633,32.4322,31.8867,16
7243611,1495307637781,,,,,,,,0.05,0.07,0.99,-3.0,0.1,-0.1,920,0,,,,,,,,,,,,,,,,,,,
7243631,1495307637801,,,,,,,,0.05,0.08,0.99,-3.1,-0.0,-0.0,920,0,,,,,,,,,,,,,,,,,,,
7243651,1495307637821,,,,,,,,0.05,0.08,0.99,-3.0,-0.1,-0.0,920,0,,,,,,,,,,,,,,,,,,,
7243671,1495307637841,,,,,,,,0.05,0.08,1.0,-3.0,-0.0,-0.1,920,0,,,,,,,,,,,,,,,,,,,
7243693,1495307637863,0,145.8,,164.8,0,161.5,,0.05,0.08,1.0,-3.0,-0.1,-0.2,920,0,1,0,0.0,0,39.540588,-122.332367,0.0,4.2,388.0,11,3,1.3,15,4.26,8,0.1633,32.4338,31.8883,16
7243712,1495307637882,,,,,,,,0.05,0.09,0.99,-2.9,-0.1,-0.2,940,0,,,,,,,,,,,,,,,,,,,
7243732,1495307637902,,,,,,,,0.05,0.08,0.99,-3.0,-0.1,-0.3,920,0,,,,,,,,,,,,,,,,,,,
7243752,1495307637922,,,,,,,,0.05,0.08,0.98,-2.9,-0.2,-0.3,920,0,,,,,,,,,,,,,,,,,,,
7243772,1495307637942,,,,,,,,0.04,0.07,0.97,-2.9,-0.1,-0.4,940,0,,,,,,,,,,,,,,,,,,,
7243794,1495307637964,,,,,0,,,0.04,0.06,0.97,-2.8,-0.1,-0.3,920,0,1,0,0.0,0,39.540588,-122.332367,0.0,4.2,388.0,11,3,1.3,15,4.26,8,0.1633,32.4355,31.89,16
7243813,1495307637983,,,,,,,,0.04,0.05,0.97,-2.8,0.0,-0.3,920,0,,,,,,,,,,,,,,,,,,,
7243833,1495307637993,,,,,,,,0.04,0.06,0.97,-2.8,-0.0,-0.2,920,0,,,,,,,,,,,,,,,,,,,
7243853,1495307638013,,,,,,,,0.04,0.06,0.97,-2.9,-0.0,-0.2,920,0,,,,,,,,,,,,,,,,,,,
7243873,1495307638033,,,,,,,,0.04,0.05,0.98,-2.9,0.0,-0.1,920,0,,,,,,,,,,,,,,,,,,,
7243895,1495307638055,0,145.3,,164.3,0,161.4,,0.04,0.05,0.98,-2.9,0.1,-0.1,900,0,1,0,0.0,0,39.540588,-122.332367,0.0,4.2,388.0,11,3,1.3,15,4.26,8,0.1633,32.437,31.8917,16
7243914,1495307638074,,,,,,,,0.04,0.06,0.99,-2.9,0.1,-0.1,900,0,,,,,,,,,,,,,,,,,,,
7243934,1495307638097,,,,,,,,0.05,0.06,0.99,-2.9,0.1,-0.1,900,0,,,,,,,,,,,,,,,,,,,
7243954,1495307638117,,,,,,,,0.05,0.06,1.0,-2.9,0.1,-0.1,880,0,,,,,,,,,,,,,,,,,,,
7243974,1495307638137,,,,,,,,0.05,0.07,1.0,-2.9,-0.0,-0.1,880,0,,,,,,,,,,,,,,,,,,,
7243996,1495307638159,,,,,0,,,0.05,0.07,0.99,-2.9,-0.0,-0.2,860,0,1,0,0.0,0,39.540588,-122.332367,0.0,4.2,388.0,11,3,1.3,15,4.26,8,0.1633,32.4388,31.8933,16
7244015,1495307638178,,,,,,,,0.05,0.06,0.99,-2.9,-0.0,-0.3,860,0,,,,,,,,,,,,,,,,,,,
7244035,1495307638206,,,,,,,,0.05,0.06,0.99,-2.9,-0.1,-0.3,860,0,,,,,,,,,,,,,,,,,,,
7244055,1495307638226,,,,,,,,0.05,0.07,0.99,-2.9,-0.1,-0.3,860,0,,,,,,,,,,,,,,,,,,,
7244075,1495307638246,,,,,,,,0.05,0.07,0.99,-2.9,-0.0,-0.2,840,0,,,,,,,,,,,,,,,,,,,
7244097,1495307638268,0,145.6,-0.7,164.6,1,161.3,13.79,0.05,0.07,0.99,-2.9,0.0,-0.2,840,0,1,0,0.0,0,39.540588,-122.332367,0.0,4.2,388.0,11,3,1.3,15,4.26,8,0.1633,32.4406,31.895,16
7244116,1495307638287,,,,,,,,0.05,0.08,0.99,-2.9,-0.0,-0.1,820,0,,,,,,,,,,,,,,,,,,,
7244136,1495307638305,,,,,,,,0.05,0.07,0.99,-2.9,-0.0,-0.2,800,0,,,,,,,,,,,,,,,,,,,
7244156,1495307638325,,,,,,,,0.05,0.07,0.99,-2.9,0.0,-0.2,800,0,,,,,,,,,,,,,,,,,,,
7244176,1495307638345,,,,,,,,0.05,0.07,0.98,-2.9,-0.0,-0.2,800,0,,,,,,,,,,,,,,,,,,,
7244198,1495307638367,,,,,1,,,0.05,0.07,0.99,-2.9,0.0,-0.2,800,0,1,0,0.0,0,39.540588,-122.332367,0.0,4.2,388.0,11,3,1.3,15,4.26,8,0.1633,32.4422,31.8967,16
7244217,1495307638386,,,,,,,,0.05,0.07,0.99,-2.9,0.1,-0.2,780,0,,,,,,,,,,,,,,,,,,,
7244237,1495307638406,,,,,,,,0.05,0.08,0.99,-2.9,0.1,-0.2,780,0,,,,,,,,,,,,,,,,,,,
7244257,1495307638426,,,,,,,,0.05,0.08,0.99,-2.9,0.1,-0.2,760,0,,,,,,,,,,,,,,,,,,,
7244277,1495307638446,,,,,,,,0.05,0.08,0.99,-2.9,-0.0,-0.2,760,0,,,,,,,,,,,,,,,,,,,
7244299,1495307638468,0,145.3,,164.3,2,161.5,,0.05,0.07,0.99,-2.9,-0.0,-0.2,760,0,1,0,0.0,0,39.540588,-122.332367,0.0,4.2,388.0,11,3,1.3,15,4.26,8,0.1633,32.4439,31.8983,16
7244318,1495307638487,,,,,,,,0.05,0.08,0.99,-2.9,-0.0,-0.2,740,0,,,,,,,,,,,,,,,,,,,
7244338,1495307638507,,,,,,,,0.05,0.08,0.99,-2.9,-0.0,-0.2,740,0,,,,,,,,,,,,,,,,,,,
7244358,1495307638527,,,,,,,,0.05,0.08,0.99,-2.9,-0.0,-0.2,740,0,,,,,,,,,,,,,,,,,,,
7244378,1495307638547,,,,,,,,0.05,0.08,0.98,-3.0,-0.1,-0.2,740,0,,,,,,,,,,,,,,,,,,,
7244400,1495307638569,,,,,3,,,0.05,0.08,0.99,-3.0,-0.0,-0.2,720,0,1,0,0.0,0,39.540588,-122.332367,0.0,4.2,388.0,11,3,1.3,15,4.26,8,0.1633,32.4456,31.9,16
7244419,1495307638588,,,,,,,,0.05,0.08,0.99,-3.0,-0.1,-0.2,720,0,,,,,,,,,,,,,,,,,,,
7244439,1495307638608,,,,,,,,0.05,0.08,0.99,-3.0,-0.1,-0.2,720,0,,,,,,,,,,,,,,,,,,,
7244459,1495307638628,,,,,,,,0.05,0.08,0.99,-3.0,-0.0,-0.2,700,0,,,,,,,,,,,,,,,,,,,
7244479,1495307638648,,,,,,,,0.05,0.08,0.99,-3.0,-0.1,-0.2,700,0,,,,,,,,,,,,,,,,,,,
7244501,1495307638670,1,145.5,,164.5,4,161.3,,0.05,0.08,0.99,-2.9,-0.1,-0.2,700,0,1,1,0.0,0,39.540588,-122.332367,0.0,4.2,388.0,11,3,1.3,15,4.26,8,0.1633,32.4473,31.9017,16
7244520,1495307638691,,,,,,,,0.05,0.07,0.99,-2.9,-0.1,-0.2,700,0,,,,,,,,,,,,,,,,,,,
7244540,1495307638711,,,,,,,,0.05,0.08,0.99,-3.0,-0.1,-0.1,700,0,,,,,,,,,,,,,,,,,,,
7244560,1495307638731,,,,,,,,0.05,0.08,0.99,-3.0,-0.0,-0.2,680,0,,,,,,,,,,,,,,,,,,,
7244580,1495307638751,,,,,,,,0.05,0.07,0.99,-3.0,-0.0,-0.2,680,0,,,,,,,,,,,,,,,,,,,
7244602,1495307638773,,,,,5,,,0.05,0.08,0.98,-3.0,-0.1,-0.2,680,0,1,1,0.0,0,39.540588,-122.332367,0.0,4.2,388.0,11,3,1.3,15,4.26,8,0.1633,32.449,31.9033,16
7244621,1495307638792,,,,,,,,0.05,0.08,0.98,-3.0,-0.1,-0.2,680,0,,,,,,,,,,,,,,,,,,,
7244641,1495307638810,,,,,,,,0.05,0.07,0.99,-3.0,-0.1,-0.2,680,0,,,,,,,,,,,,,,,,,,,
7244661,1495307638830,,,,,,,,0.05,0.08,0.99,-3.0,-0.0,-0.2,680,0,,,,,,,,,,,,,,,,,,,
7244681,1495307638850,,,,,,,,0.05,0.08,0.98,-3.0,-0.1,-0.1,680,0,,,,,,,,,,,,,,,,,,,
7244703,1495307638872,0,145.4,,164.4,6,161.1,,0.05,0.07,0.99,-3.0,0.0,-0.2,680,0,1,1,0.0,0,39.540588,-122.332367,0.0,4.2,388.0,11,3,1.3,15,4.26,8,0.1633,32.4507,31.905,16
7244722,1495307638893,,,,,,,,0.05,0.07,0.99,-3.0,0.0,-0.2,680,0,,,,,,,,,,,,,,,,,,,
7244742,1495307638913,,,,,,,,0.05,0.08,0.99,-3.0,0.0,-0.1,680,0,,,,,,,,,,,,,,,,,,,
7244762,1495307638933,,,,,,,,0.05,0.07,0.99,-2.9,-0.0,-0.2,680,0,,,,,,,,,,,,,,,,,,,
7244782,1495307638953,,,,,,,,0.05,0.07,0.99,-3.0,-0.0,-0.2,680,0,,,,,,,,,,,,,,,,,,,
7244804,1495307638975,,,,,6,,,0.05,0.07,0.99,-3.0,-0.0,-0.1,660,0,1,1,0.0,0,39.540588,-122.332367,0.0,4.2,388.0,11,3,1.3,15,4.26,8,0.1633,32.4524,31.9067,16
7244823,1495307638994,,,,,,,,0.05,0.07,0.99,-2.9,-0.1,-0.2,660,0,,,,,,,,,,,,,,,,,,,
7244843,1495307639005,,,,,,,,0.05,0.07,0.99,-3.0,-0.1,-0.2,660,0,,,,,,,,,,,,,,,,,,,
7244863,1495307639025,,,,,,,,0.05,0.08,0.99,-3.0,-0.0,-0.2,660,0,,,,,,,,,,,,,,,,,,,
7244883,1495307639045,,,,,,,,0.05,0.07,0.99,-3.0,-0.0,-0.2,660,0,,,,,,,,,,,,,,,,,,,
7244905,1495307639067,0,145.7,,164.6,6,161.2,,0.05,0.07,0.99,-3.0,0.0,-0.2,660,0,1,1,0.0,0,39.540588,-122.332367,0.0,4.2,388.0,11,3,1.3,15,4.26,8,0.1633,32.4539,31.9083,16
7244924,1495307639094,,,,,,,,0.05,0.08,0.99,-3.0,0.1,-0.2,660,0,,,,,,,,,,,,,,,,,,,
7244944,1495307639114,,,,,,,,0.05,0.08,0.99,-3.0,0.0,-0.2,660,0,,,,,,,,,,,,,,,,,,,
7244964,1495307639134,,,,,,,,0.05,0.08,0.99,-3.0,0.0,-0.2,660,0,,,,,,,,,,,,,,,,,,,
7244984,1495307639154,,,,,,,,0.05,0.08,0.99,-3.0,-0.0,-0.1,660,0,,,,,,,,,,,,,,,,,,,
7245006,1495307639176,,,,,4,,,0.05,0.08,0.99,-3.0,-0.0,-0.1,660,0,1,1,0.0,0,39.540588,-122.332367,0.0,4.2,388.0,11,3,1.3,15,4.26,8,0.1633,32.4557,31.91,16
7245025,1495307639195,,,,,,,,0.05,0.07,0.99,-3.0,-0.0,-0.2,660,0,,,,,,,,,,,,,,,,,,,
7245045,1495307639215,,,,,,,,0.06,0.07,0.99,-3.0,-0.0,-0.2,660,0,,,,,,,,,,,,,,,,,,,
7245065,1495307639235,,,,,,,,0.06,0.08,0.98,-3.0,-0.1,-0.2,680,0,,,,,,,,,,,,,,,,,,,
7245085,1495307639255,,,,,,,,0.05,0.07,0.98,-3.0,-0.1,-0.2,660,0,,,,,,,,,,,,,,,,,,,
7245107,1495307639277,0,145.1,-0.7,164.2,4,160.9,13.69,0.05,0.07,0.99,-3.0,-0.1,-0.2,660,0,1,1,0.0,0,39.540588,-122.332367,0.0,4.2,388.0,11,3,1.3,15,4.26,8,0.1633,32.4574,31.9117,16
7245126,1495307639296,,,,,,,,0.05,0.07,0.99,-3.0,-0.0,-0.1,680,0,,,,,,,,,,,,,,,,,,,
7245146,1495307639316,,,,,,,,0.05,0.07,0.98,-3.0,-0.0,-0.2,680,0,,,,,,,,,,,,,,,,,,,
7245166,1495307639336,,,,,,,,0.05,0.07,0.99,-3.0,-0.0,-0.2,680,0,,,,,,,,,,,,,,,,,,,
7245186,1495307639356,,,,,,,,0.06,0.07,0.99,-3.1,-0.0,-0.1,680,0,,,,,,,,,,,,,,,,,,,
7245208,1495307639378,,,,,5,,,0.05,0.07,0.99,-3.0,-0.1,-0.1,680,0,1,1,0.0,0,39.540588,-122.332367,0.0,4.2,388.0,11,3,1.3,15,4.26,8,0.1633,32.4591,31.9133,16
7245227,1495307639397,,,,,,,,0.05,0.07,0.99,-3.0,-0.1,-0.2,680,0,,,,,,,,,,,,,,,,,,,
7245247,1495307639417,,,,,,,,0.05,0.08,0.99,-3.1,-0.1,-0.1,680,0,,,,,,,,,,,,,,,,,,,
7245267,1495307639437,,,,,,,,0.05,0.08,0.98,-3.0,-0.2,-0.2,680,0,,,,,,,,,,,,,,,,,,,
7245287,1495307639457,,,,,,,,0.05,0.08,0.99,-3.0,-0.1,-0.2,680,0,,,,,,,,,,,,,,,,,,,
7245309,1495307639479,0,145.8,,164.8,7,161.6,,0.05,0.08,0.99,-3.0,-0.1,-0.2,680,0,1,1,0.0,0,39.540588,-122.332367,0.0,4.2,388.0,11,3,1.3,15,4.26,8,0.1633,32.4608,31.915,16
7245328,1495307639498,,,,,,,,0.05,0.09,0.98,-3.0,-0.2,-0.1,680,0,,,,,,,,,,,,,,,,,,,
7245348,1495307639518,,,,,,,,0.05,0.08,0.98,-3.0,-0.2,-0.2,680,0,,,,,,,,,,,,,,,,,,,
7245368,1495307639538,,,,,,,,0.05,0.08,0.99,-3.0,-0.2,-0.2,680,0,,,,,,,,,,,,,,,,,,,
7245388,1495307639558,,,,,,,,0.05,0.08,0.99,-3.0,-0.1,-0.1,680,0,,,,,,,,,,,,,,,,,,,
7245410,1495307639580,,,,,8,,,0.05,0.08,0.99,-2.9,-0.2,-0.2,680,0,1,1,0.0,0,39.540588,-122.332367,0.0,4.2,388.0,11,3,1.3,15,4.26,8,0.1633,32.4625,31.9167,16
7245429,1495307639599,,,,,,,,0.05,0.07,0.99,-3.0,-0.1,-0.2,680,0,,,,,,,,,,,,,,,,,,,
7245449,1495307639619,,,,,,,,0.05,0.07,0.99,-3.0,-0.1,-0.1,680,0,,,,,,,,,,,,,,,,,,,
7245469,1495307639639,,,,,,,,0.05,0.08,0.98,-3.0,-0.2,-0.1,680,0,,,,,,,,,,,,,,,,,,,
7245489,1495307639659,,,,,,,,0.05,0.08,0.99,-3.0,-0.1,-0.2,680,0,,,,,,,,,,,,,,,,,,,
7245511,1495307639681,0,145.7,,164.7,10,161.5,,0.05,0.08,0.99,-3.0,-0.1,-0.1,680,0,1,1,0.0,0,39.540588,-122.332367,0.0,4.2,388.0,11,3,1.3,15,4.26,8,0.1633,32.4641,31.9183,16
7245530,1495307639702,,,,,,,,0.05,0.09,0.98,-3.0,-0.1,-0.1,680,0,,,,,,,,,,,,,,,,,,,
7245550,1495307639722,,,,,,,,0.05,0.08,0.98,-3.0,-0.1,-0.2,680,0,,,,,,,,,,,,,,,,,,,
7245570,1495307639742,,,,,,,,0.05,0.08,0.99,-3.0,-0.1,-0.2,680,0,,,,,,,,,,,,,,,,,,,
7245590,1495307639762,,,,,,,,0.05,0.08,0.98,-3.0,-0.1,-0.2,700,0,,,,,,,,,,,,,,,,,,,
7245612,1495307639784,,,,,12,,,0.05,0.08,0.98,-3.0,-0.1,-0.2,680,0,1,1,0.0,0,39.540588,-122.332367,0.0,4.2,388.0,11,3,1.3,15,4.26,8,0.1633,32.4659,31.92,16
7245631,1495307639803,,,,,,,,0.05,0.08,0.99,-3.0,-0.1,-0.2,680,0,,,,,,,,,,,,,,,,,,,
7245651,1495307639823,,,,,,,,0.05,0.08,0.99,-3.0,-0.1,-0.2,680,0,,,,,,,,,,,,,,,,,,,
7245671,1495307639843,,,,,,,,0.05,0.08,0.98,-3.0,-0.1,-0.2,680,0,,,,,,,,,,,,,,,,,,,
7245691,1495307639863,,,,,,,,0.05,0.07,0.99,-3.0,0.0,-0.3,680,0,,,,,,,,,,,,,,,,,,,
7245713,1495307639885,0,145.8,,164.8,13,161.4,,0.05,0.08,0.99,-3.0,0.0,-0.3,680,0,1,1,0.0,0,39.540588,-122.332367,0.0,4.2,388.0,11,3,1.3,15,4.26,8,0.1633,32.4675,31.9217,16
7245732,1495307639904,,,,,,,,0.05,0.08,0.98,-3.0,0.0,-0.2,680,0,,,,,,,,,,,,,,,,,,,
7245752,1495307639924,,,,,,,,0.05,0.08,0.98,-3.0,-0.0,-0.3,680,0,,,,,,,,,,,,,,,,,,,
7245772,1495307639944,,,,,,,,0.05,0.08,0.99,-3.0,-0.1,-0.2,680,0,,,,,,,,,,,,,,,,,,,
7245792,1495307639964,,,,,,,,0.05,0.07,0.99,-3.0,-0.1,-0.2,680,0,,,,,,,,,,,,,,,,,,,
7245814,1495307639986,,,,,15,,,0.05,0.07,0.99,-3.0,-0.2,-0.2,680,0,1,1,0.0,0,39.540588,-122.332367,0.0,4.2,388.0,11,3,1.3,15,4.26,8,0.1633,32.4692,31.9233,16
7245833,1495307639995,,,,,,,,0.05,0.07,0.99,-3.0,-0.1,-0.3,680,0,,,,,,,,,,,,,,,,,,,
7245853,1495307640015,,,,,,,,0.04,0.07,0.99,-3.0,-0.1,-0.2,680,0,,,,,,,,,,,,,,,,,,,
7245873,1495307640035,,,,,,,,0.05,0.08,0.98,-3.0,-0.1,-0.2,680,0,,,,,,,,,,,,,,,,,,,
7245893,1495307640055,,,,,,,,0.05,0.08,0.99,-2.9,-0.0,-0.3,680,0,,,,,,,,,,,,,,,,,,,
7245915,1495307640077,0,145.6,,164.8,17,161.6,,0.05,0.07,0.99,-3.0,-0.0,-0.2,680,0,1,1,0.0,0,39.540588,-122.332367,0.0,4.2,388.0,11,3,1.3,15,4.26,8,0.1633,32.4707,31.925,16
7245934,1495307640105,,,,,,,,0.05,0.08,0.98,-3.0,-0.0,-0.2,680,0,,,,,,,,,,,,,,,,,,,
7245954,1495307640125,,,,,,,,0.05,0.07,0.98,-3.0,-0.1,-0.2,680,0,,,,,,,,,,,,,,,,,,,
7245974,1495307640145,,,,,,,,0.05,0.07,0.99,-3.0,-0.0,-0.2,680,0,,,,,,,,,,,,,,,,,,,
7245994,1495307640165,,,,,,,,0.05,0.07,0.99,-3.0,-0.0,-0.2,680,0,,,,,,,,,,,,,,,,,,,
7246016,1495307640187,,,,,18,,,0.05,0.07,0.98,-3.0,-0.1,-0.2,680,0,1,1,0.0,0,39.540588,-122.332367,0.0,4.2,388.0,11,3,1.3,15,4.26,8,0.1633,32.4726,31.9267,16
7246035,1495307640206,,,,,,,,0.05,0.07,0.99,-3.0,-0.0,-0.2,680,0,,,,,,,,,,,,,,,,,,,
7246055,1495307640226,,,,,,,,0.05,0.07,0.99,-3.0,-0.0,-0.1,680,0,,,,,,,,,,,,,,,,,,,
7246075,1495307640246,,,,,,,,0.05,0.07,0.99,-3.0,-0.1,-0.1,680,0,,,,,,,,,,,,,,,,,,,
7246095,1495307640266,,,,,,,,0.05,0.07,0.99,-3.0,-0.0,-0.2,680,0,,,,,,,,,,,,,,,,,,,
7246117,1495307640288,0,144.9,-0.7,164.1,18,161.0,13.79,0.05,0.08,0.99,-3.0,-0.0,-0.1,680,0,1,1,0.0,0,39.540588,-122.332367,0.0,4.2,388.0,11,3,1.3,15,4.26,8,0.1633,32.4743,31.9283,16
7246136,1495307640307,,,,,,,,0.05,0.08,0.98,-3.1,-0.1,-0.1,680,0,,,,,,,,,,,,,,,,,,,
7246156,1495307640327,,,,,,,,0.05,0.08,0.99,-3.0,-0.0,-0.2,680,0,,,,,,,,,,,,,,,,,,,
7246176,1495307640347,,,,,,,,0.05,0.08,0.99,-3.0,-0.0,-0.2,680,0,,,,,,,,,,,,,,,,,,,
7246196,1495307640367,,,,,,,,0.05,0.08,0.98,-3.0,-0.1,-0.1,680,0,,,,,,,,,,,,,,,,,,,
7246218,1495307640389,,,,,18,,,0.05,0.07,0.98,-3.0,-0.1,-0.2,660,0,1,1,0.0,0,39.540588,-122.332367,0.0,4.2,388.0,11,3,1.3,15,4.26,8,0.1633,32.4759,31.93,16
7246237,1495307640408,,,,,,,,0.05,0.07,0.99,-3.0,-0.1,-0.2,660,0,,,,,,,,,,,,,,,,,,,
7246257,1495307640428,,,,,,,,0.05,0.07,0.98,-3.0,-0.0,-0.1,680,0,,,,,,,,,,,,,,,,,,,
7246277,1495307640448,,,,,,,,0.05,0.07,0.98,-3.0,-0.1,-0.1,680,0,,,,,,,,,,,,,,,,,,,
7246297,1495307640468,,,,,,,,0.05,0.07,0.99,-3.0,-0.1,-0.1,680,0,,,,,,,,,,,,,,,,,,,
7246319,1495307640490,0,144.9,,164.2,19,161.0,,0.05,0.08,0.98,-3.0,-0.1,-0.1,660,0,1,1,0.0,0,39.540588,-122.332367,0.0,4.2,388.0,11,3,1.3,15,4.26,8,0.1633,32.4776,31.9317,16
7246338,1495307640509,,,,,,,,0.05,0.08,0.98,-3.0,-0.1,-0.1,680,0,,,,,,,,,,,,,,,,,,,
7246358,1495307640529,,,,,,,,0.05,0.07,0.99,-3.0,-0.1,-0.1,680,0,,,,,,,,,,,,,,,,,,,
7246378,1495307640549,,,,,,,,0.05,0.08,0.99,-3.0,-0.1,-0.1,660,0,,,,,,,,,,,,,,,,,,,
7246398,1495307640569,,,,,,,,0.05,0.08,0.99,-3.0,-0.1,-0.1,660,0,,,,,,,,,,,,,,,,,,,
7246420,1495307640591,,,,,19,,,0.05,0.08,0.99,-3.0,-0.1,-0.2,660,0,1,1,0.0,0,39.540588,-122.332367,0.0,4.2,388.0,11,3,1.3,15,4.26,8,0.1633,32.4793,31.9333,16
7246439,1495307640609,,,,,,,,0.05,0.08,0.99,-3.0,-0.1,-0.1,680,0,,,,,,,,,,,,,,,,,,,
7246459,1495307640629,,,,,,,,0.05,0.08,0.98,-3.0,-0.2,-0.1,680,0,,,,,,,,,,,,,,,,,,,
7246479,1495307640649,,,,,,,,0.05,0.07,0.98,-2.9,-0.1,-0.2,680,0,,,,,,,,,,,,,,,,,,,
7246499,1495307640669,,,,,,,,0.05,0.07,0.98,-3.0,-0.1,-0.2,660,0,,,,,,,,,,,,,,,,,,,
7246521,1495307640691,0,145.0,,164.2,20,161.1,,0.05,0.08,0.98,-3.0,-0.1,-0.1,680,0,1,1,0.0,0,39.540588,-122.332367,0.0,4.2,388.0,11,3,1.3,15,4.26,8,0.1633,32.481,31.935,16
7246540,1495307640709,,,,,,,,0.05,0.07,0.98,-2.9,-0.2,-0.2,660,0,,,,,,,,,,,,,,,,,,,
7246560,1495307640729,,,,,,,,0.05,0.07,0.98,-3.0,-0.2,-0.2,660,0,,,,,,,,,,,,,,,,,,,
7246580,1495307640749,,,,,,,,0.05,0.07,0.98,-3.0,-0.2,-0.1,660,0,,,,,,,,,,,,,,,,,,,
7246600,1495307640769,,,,,,,,0.05,0.07,0.98,-2.9,-0.2,-0.2,660,0,,,,,,,,,,,,,,,,,,,
7246622,1495307640793,,,,,20,,,0.05,0.07,0.98,-3.0,-0.1,-0.2,660,0,1,1,0.0,0,39.540588,-122.332367,0.0,4.2,388.0,11,3,1.3,15,4.26,8,0.1633,32.4827,31.9383,16
7246641,1495307640812,,,,,,,,0.05,0.07,0.99,-3.0,-0.1,-0.1,680,0,,,,,,,,,,,,,,,,,,,
7246661,1495307640832,,,,,,,,0.05,0.07,0.98,-2.9,-0.1,-0.2,680,0,,,,,,,,,,,,,,,,,,,
7246681,1495307640852,,,,,,,,0.05,0.07,0.98,-3.0,-0.1,-0.2,680,0,,,,,,,,,,,,,,,,,,,
7246701,1495307640872,,,,,,,,0.05,0.07,0.98,-3.0,-0.1,-0.2,680,0,,,,,,,,,,,,,,,,,,,
7246723,1495307640894,0,145.6,,165.0,20,161.7,,0.05,0.07,0.98,-3.0,-0.1,-0.2,680,0,1,1,0.0,0,39.540588,-122.332367,0.0,4.2,388.0,11,3,1.3,15,4.26,8,0.1633,32.4844,31.94,16
7246742,1495307640913,,,,,,,,0.05,0.07,0.98,-2.9,-0.1,-0.2,680,0,,,,,,,,,,,,,,,,,,,
7246762,1495307640933,,,,,,,,0.05,0.07,0.99,-2.9,-0.1,-0.2,660,0,,,,,,,,,,,,,,,,,,,
7246782,1495307640953,,,,,,,,0.05,0.08,0.98,-2.9,-0.2,-0.2,680,0,,,,,,,,,,,,,,,,,,,
7246802,1495307640973,,,,,,,,0.04,0.08,0.99,-2.9,-0.1,-0.2,680,0,,,,,,,,,,,,,,,,,,,
7246824,1495307640995,,,,,21,,,0.05,0.08,0.99,-3.0,-0.1,-0.2,680,0,1,1,0.0,0,39.540588,-122.332367,0.0,4.2,388.0,11,3,1.3,15,4.26,8,0.1633,32.486,31.94,16
7246843,1495307641006,,,,,,,,0.05,0.08,0.98,-3.0,-0.1,-0.1,680,0,,,,,,,,,,,,,,,,,,,
7246863,1495307641026,,,,,,,,0.04,0.08,0.99,-3.0,-0.2,-0.2,680,0,,,,,,,,,,,,,,,,,,,
7246883,1495307641046,,,,,,,,0.05,0.07,0.99,-3.0,-0.1,-0.2,680,0,,,,,,,,,,,,,,,,,,,
7246903,1495307641066,,,,,,,,0.05,0.08,0.99,-3.0,-0.1,-0.1,680,0,,,,,,,,,,,,,,,,,,,
7246925,1495307641093,0,145.8,,165.1,20,161.7,,0.05,0.07,0.99,-3.0,-0.2,-0.2,680,0,1,1,0.0,0,39.540588,-122.332367,0.0,4.2,388.0,11,3,1.3,15,4.26,8,0.1633,32.4877,31.9433,16
7246944,1495307641112,,,,,,,,0.05,0.07,0.99,-3.0,-0.1,-0.2,680,0,,,,,,,,,,,,,,,,,,,
7246964,1495307641132,,,,,,,,0.05,0.08,0.99,-3.0,-0.1,-0.1,680,0,,,,,,,,,,,,,,,,,,,
7246984,1495307641152,,,,,,,,0.05,0.08,0.99,-3.0,-0.1,-0.1,680,0,,,,,,,,,,,,,,,,,,,
7247004,1495307641172,,,,,,,,0.05,0.08,0.99,-3.0,-0.1,-0.1,680,0,,,,,,,,,,,,,,,,,,,
7247026,1495307641196,,,,,20,,,0.05,0.08,0.99,-3.0,-0.0,-0.1,680,0,1,1,0.0,0,39.540588,-122.332367,0.0,4.2,388.0,11,3,1.3,15,4.26,8,0.1633,32.4894,31.945,16
7247045,1495307641215,,,,,,,,0.05,0.08,0.99,-3.0,-0.1,-0.1,680,0,,,,,,,,,,,,,,,,,,,
7247065,1495307641235,,,,,,,,0.05,0.08,0.99,-3.0,-0.0,-0.1,680,0,,,,,,,,,,,,,,,,,,,
7247085,1495307641255,,,,,,,,0.05,0.09,0.99,-3.0,-0.1,-0.1,680,0,,,,,,,,,,,,,,,,,,,
7247105,1495307641275,,,,,,,,0.05,0.09,0.99,-3.0,-0.1,-0.1,680,0,,,,,,,,,,,,,,,,,,,
7247127,1495307641297,1,144.8,-0.7,164.2,19,160.9,13.88,0.05,0.08,0.99,-3.0,-0.1,-0.1,680,0,1,1,0.0,0,39.540588,-122.332367,0.0,4.2,388.0,11,3,1.3,15,4.26,8,0.1633,32.4911,31.9467,16
7247146,1495307641316,,,,,,,,0.05,0.08,0.99,-3.0,-0.0,-0.1,680,0,,,,,,,,,,,,,,,,,,,
7247166,1495307641336,,,,,,,,0.05,0.08,0.99,-3.0,-0.0,-0.1,680,0,,,,,,,,,,,,,,,,,,,
7247186,1495307641356,,,,,,,,0.05,0.08,0.99,-3.0,-0.1,-0.2,680,0,,,,,,,,,,,,,,,,,,,
7247206,1495307641376,,,,,,,,0.05,0.08,0.99,-3.0,-0.1,-0.2,680,0,,,,,,,,,,,,,,,,,,,
7247228,1495307641399,,,,,20,,,0.05,0.08,0.99,-3.0,-0.1,-0.1,680,0,1,1,0.0,0,39.540588,-122.332367,0.0,4.2,388.0,11,3,1.3,15,4.26,8,0.1633,32.4928,31.9483,16
7247247,1495307641418,,,,,,,,0.05,0.08,0.99,-3.0,-0.1,-0.1,680,0,,,,,,,,,,,,,,,,,,,
7247267,1495307641438,,,,,,,,0.05,0.08,0.99,-3.0,-0.0,-0.2,680,0,,,,,,,,,,,,,,,,,,,
7247287,1495307641458,,,,,,,,0.05,0.08,0.99,-3.0,-0.0,-0.1,680,0,,,,,,,,,,,,,,,,,,,
7247307,1495307641478,,,,,,,,0.05,0.09,0.98,-3.0,-0.1,-0.1,680,0,,,,,,,,,,,,,,,,,,,
7247329,1495307641499,0,145.9,,165.2,21,161.7,,0.05,0.09,0.99,-3.0,-0.0,-0.1,680,0,1,1,0.0,0,39.540588,-122.332367,0.0,4.2,388.0,11,3,1.3,15,4.26,8,0.1633,32.4944,31.95,16
7247348,1495307641518,,,,,,,,0.05,0.09,0.99,-3.0,-0.0,-0.1,680,0,,,,,,,,,,,,,,,,,,,
7247368,1495307641538,,,,,,,,0.05,0.09,0.99,-3.0,-0.0,-0.1,680,0,,,,,,,,,,,,,,,,,,,
7247388,1495307641558,,,,,,,,0.05,0.08,0.99,-3.0,-0.1,-0.1,680,0,,,,,,,,,,,,,,,,,,,
7247408,1495307641578,,,,,,,,0.05,0.08,0.99,-3.0,-0.1,-0.1,680,0,,,,,,,,,,,,,,,,,,,
7247430,1495307641600,,,,,20,,,0.06,0.08,0.99,-3.0,-0.1,-0.1,680,0,1,1,0.0,0,39.540588,-122.332367,0.0,4.2,388.0,11,3,1.3,15,4.26,8,0.1633,32.4961,31.9517,16
7247449,1495307641619,,,,,,,,0.05,0.08,0.99,-3.0,-0.1,-0.2,680,0,,,,,,,,,,,,,,,,,,,
7247469,1495307641639,,,,,,,,0.05,0.08,0.99,-3.0,-0.2,-0.2,680,0,,,,,,,,,,,,,,,,,,,
7247489,1495307641659,,,,,,,,0.05,0.08,0.99,-3.0,-0.1,-0.1,680,0,,,,,,,,,,,,,,,,,,,
7247509,1495307641679,,,,,,,,0.05,0.08,0.99,-3.0,-0.2,-0.1,680,0,,,,,,,,,,,,,,,,,,,
7247531,1495307641701,0,145.0,,164.5,20,161.0,,0.05,0.08,1.0,-3.0,-0.1,-0.2,680,0,1,1,0.0,0,39.540588,-122.332367,0.0,4.2,388.0,11,3,1.3,15,4.26,8,0.1633,32.4978,31.9533,16
7247550,1495307641720,,,,,,,,0.05,0.08,0.99,-3.0,-0.1,-0.1,680,0,,,,,,,,,,,,,,,,,,,
7247570,1495307641740,,,,,,,,0.05,0.09,0.99,-3.0,-0.1,-0.1,680,0,,,,,,,,,,,,,,,,,,,
7247590,1495307641760,,,,,,,,0.05,0.08,0.99,-3.0,-0.1,-0.2,680,0,,,,,,,,,,,,,,,,,,,
7247610,1495307641780,,,,,,,,0.05,0.08,0.99,-3.0,-0.1,-0.2,680,0,,,,,,,,,,,,,,,,,,,
7247632,1495307641802,,,,,21,,,0.05,0.08,0.99,-3.0,-0.1,-0.1,680,0,1,1,0.0,0,39.540588,-122.332367,0.0,4.2,388.0,11,3,1.3,15,4.26,8,0.1633,32.4995,31.955,16
7247651,1495307641821,,,,,,,,0.05,0.08,0.98,-3.0,-0.1,-0.2,680,0,,,,,,,,,,,,,,,,,,,
7247671,1495307641841,,,,,,,,0.05,0.08,0.99,-3.0,-0.1,-0.2,680,0,,,,,,,,,,,,,,,,,,,
7247691,1495307641861,,,,,,,,0.05,0.08,0.98,-3.0,-0.1,-0.1,680,0,,,,,,,,,,,,,,,,,,,
7247711,1495307641881,,,,,,,,0.05,0.08,0.98,-3.0,-0.1,-0.2,680,0,,,,,,,,,,,,,,,,,,,
7247733,1495307641903,0,145.0,,164.4,20,160.9,,0.05,0.08,0.99,-3.0,-0.1,-0.1,680,0,1,1,0.0,0,39.540588,-122.332367,0.0,4.2,388.0,11,3,1.3,15,4.26,8,0.1633,32.5012,31.9567,16
7247752,1495307641922,,,,,,,,0.05,0.08,0.98,-3.0,-0.1,-0.1,680,0,,,,,,,,,,,,,,,,,,,
7247772,1495307641942,,,,,,,,0.05,0.08,0.99,-3.0,-0.1,-0.1,660,0,,,,,,,,,,,,,,,,,,,
7247792,1495307641962,,,,,,,,0.05,0.08,0.99,-3.0,-0.1,-0.1,660,0,,,,,,,,,,,,,,,,,,,
7247812,1495307641982,,,,,,,,0.05,0.08,0.99,-3.0,-0.1,-0.1,660,0,,,,,,,,,,,,,,,,,,,
7247834,1495307641996,,,,,21,,,0.05,0.08,0.98,-3.0,-0.1,-0.1,660,0,1,1,0.0,0,39.540588,-122.332367,0.0,4.2,388.0,11,3,1.3,15,4.26,8,0.1633,32.5027,31.9583,16
7247853,1495307642015,,,,,,,,0.05,0.08,0.99,-3.0,-0.1,-0.1,660,0,,,,,,,,,,,,,,,,,,,
7247873,1495307642035,,,,,,,,0.05,0.08,0.99,-3.0,-0.0,-0.1,680,0,,,,,,,,,,,,,,,,,,,
7247893,1495307642055,,,,,,,,0.05,0.08,0.98,-3.0,-0.1,-0.1,680,0,,,,,,,,,,,,,,,,,,,
7247913,1495307642075,,,,,,,,0.05,0.08,0.99,-3.0,-0.1,-0.2,680,0,,,,,,,,,,,,,,,,,,,
7247935,1495307642106,0,145.7,,164.9,20,161.4,,0.05,0.08,0.99,-3.0,-0.1,-0.2,680,0,1,1,0.0,0,39.540588,-122.332367,0.0,4.2,388.0,11,3,1.3,15,4.26,8,0.1633,32.5046,31.96,16
7247954,1495307642125,,,,,,,,0.05,0.08,0.99,-3.0,-0.1,-0.1,680,0,,,,,,,,,,,,,,,,,,,
7247974,1495307642145,,,,,,,,0.05,0.07,0.98,-3.0,-0.1,-0.2,660,0,,,,,,,,,,,,,,,,,,,
7247994,1495307642165,,,,,,,,0.05,0.07,0.99,-3.0,-0.1,-0.2,660,0,,,,,,,,,,,,,,,,,,,
7248014,1495307642185,,,,,,,,0.05,0.07,0.98,-3.0,-0.1,-0.1,680,0,,,,,,,,,,,,,,,,,,,
7248036,1495307642208,,,,,20,,,0.05,0.07,0.98,-3.0,-0.1,-0.2,680,0,1,1,0.0,0,39.540588,-122.332367,0.0,4.2,388.0,11,3,1.3,15,4.26,8,0.1633,32.5063,31.9617,16
7248055,1495307642227,,,,,,,,0.05,0.07,0.98,-3.0,-0.1,-0.2,680,0,,,,,,,,,,,,,,,,,,,
7248075,1495307642247,,,,,,,,0.05,0.07,0.98,-3.0,-0.1,-0.1,680,0,,,,,,,,,,,,,,,,,,,
7248095,1495307642267,,,,,,,,0.05,0.07,0.98,-3.0,-0.1,-0.1,680,0,,,,,,,,,,,,,,,,,,,
7248115,1495307642287,,,,,,,,0.05,0.07,0.99,-3.0,-0.1,-0.2,680,0,,,,,,,,,,,,,,,,,,,
7248137,1495307642308,0,145.8,-0.7,165.2,20,161.6,14.02,0.05,0.08,0.99,-3.0,-0.1,-0.1,680,0,1,1,0.0,0,39.540588,-122.332367,0.0,4.2,388.0,11,3,1.3,15,4.26,8,0.1633,32.5079,31.9633,16
7248156,1495307642327,,,,,,,,0.05,0.08,0.99,-3.0,-0.1,-0.1,680,0,,,,,,,,,,,,,,,,,,,
7248176,1495307642347,,,,,,,,0.05,0.08,0.99,-3.0,-0.1,-0.2,680,0,,,,,,,,,,,,,,,,,,,
7248196,1495307642367,,,,,,,,0.05,0.08,0.99,-3.0,-0.1,-0.1,680,0,,,,,,,,,,,,,,,,,,,
7248216,1495307642387,,,,,,,,0.05,0.08,0.98,-3.0,-0.1,-0.1,680,0,,,,,,,,,,,,,,,,,,,
7248238,1495307642409,,,,,20,,,0.05,0.07,0.98,-3.0,-0.1,-0.2,680,0,1,1,0.0,0,39.540588,-122.332367,0.0,4.2,388.0,11,3,1.3,15,4.26,8,0.1633,32.5096,31.965,16
7248257,1495307642428,,,,,,,,0.05,0.08,0.98,-3.0,-0.2,-0.1,660,0,,,,,,,,,,,,,,,,,,,
7248277,1495307642448,,,,,,,,0.05,0.08,0.98,-3.0,-0.1,-0.1,680,0,,,,,,,,,,,,,,,,,,,
7248297,1495307642468,,,,,,,,0.05,0.07,0.98,-3.0,-0.1,-0.2,660,0,,,,,,,,,,,,,,,,,,,
7248317,1495307642488,,,,,,,,0.05,0.07,0.99,-3.0,-0.1,-0.2,660,0,,,,,,,,,,,,,,,,,,,
7248339,1495307642510,0,144.9,,164.3,20,160.9,,0.05,0.07,0.99,-3.0,-0.1,-0.1,660,0,1,1,0.0,0,39.540588,-122.332367,0.0,4.2,388.0,11,3,1.3,15,4.26,8,0.1633,32.5113,31.9667,16
7248358,1495307642529,,,,,,,,0.05,0.07,0.99,-3.0,-0.1,-0.2,680,0,,,,,,,,,,,,,,,,,,,
7248378,1495307642549,,,,,,,,0.05,0.07,0.99,-3.0,-0.1,-0.2,680,0,,,,,,,,,,,,,,,,,,,
7248398,1495307642569,,,,,,,,0.05,0.08,0.99,-3.0,-0.1,-0.1,680,0,,,,,,,,,,,,,,,,,,,
7248418,1495307642589,,,,,,,,0.05,0.08,0.99,-3.0,-0.1,-0.2,680,0,,,,,,,,,,,,,,,,,,,
7248440,1495307642611,,,,,20,,,0.05,0.08,0.99,-2.9,-0.1,-0.2,680,0,1,1,0.0,0,39.540588,-122.332367,0.0,4.2,388.0,11,3,1.3,15,4.26,8,0.1633,32.513,31.9683,16
7248459,1495307642630,,,,,,,,0.05,0.08,0.99,-2.9,-0.1,-0.2,680,0,,,,,,,,,,,,,,,,,,,
7248479,1495307642650,,,,,,,,0.05,0.08,0.98,-2.9,-0.1,-0.2,660,0,,,,,,,,,,,,,,,,,,,
7248499,1495307642670,,,,,,,,0.05,0.07,0.99,-2.9,-0.1,-0.2,660,0,,,,,,,,,,,,,,,,,,,
7248519,1495307642690,,,,,,,,0.05,0.08,0.99,-3.0,-0.1,-0.2,660,0,,,,,,,,,,,,,,,,,,,
7248541,1495307642712,0,145.3,,164.9,20,161.3,,0.05,0.08,0.98,-3.0,-0.1,-0.2,680,0,1,1,0.0,0,39.540588,-122.332367,0.0,4.2,388.0,11,3,1.3,15,4.26,8,0.1633,32.5147,31.97,16
7248560,1495307642731,,,,,,,,0.05,0.07,0.98,-2.9,-0.1,-0.2,680,0,,,,,,,,,,,,,,,,,,,
7248580,1495307642751,,,,,,,,0.05,0.07,0.99,-3.0,-0.1,-0.2,680,0,,,,,,,,,,,,,,,,,,,
7248600,1495307642771,,,,,,,,0.05,0.07,0.98,-3.0,-0.1,-0.2,680,0,,,,,,,,,,,,,,,,,,,
7248620,1495307642791,,,,,,,,0.05,0.07,0.98,-2.9,-0.1,-0.2,680,0,,,,,,,,,,,,,,,,,,,
7248642,1495307642811,,,,,21,,,0.05,0.07,0.99,-2.9,-0.1,-0.2,680,0,1,1,0.0,0,39.540588,-122.332367,0.0,4.2,388.0,11,3,1.3,15,4.26,8,0.1633,32.5163,31.9717,16
7248661,1495307642830,,,,,,,,0.05,0.07,0.99,-2.9,-0.1,-0.2,680,0,,,,,,,,,,,,,,,,,,,
7248681,1495307642850,,,,,,,,0.05,0.07,0.98,-2.9,-0.1,-0.2,680,0,,,,,,,,,,,,,,,,,,,
7248701,1495307642870,,,,,,,,0.05,0.07,0.99,-2.9,-0.1,-0.2,680,0,,,,,,,,,,,,,,,,,,,
7248721,1495307642892,,,,,,,,0.05,0.07,0.99,-3.0,-0.1,-0.1,680,0,,,,,,,,,,,,,,,,,,,
7248743,1495307642914,0,145.9,,165.3,21,161.5,,0.05,0.07,0.99,-2.9,-0.1,-0.2,680,0,1,1,0.0,0,39.540588,-122.332367,0.0,4.2,388.0,11,3,1.3,15,4.26,8,0.1633,32.518,31.9733,16
7248762,1495307642933,,,,,,,,0.05,0.07,0.99,-2.9,-0.1,-0.2,680,0,,,,,,,,,,,,,,,,,,,
7248782,1495307642953,,,,,,,,0.05,0.08,0.99,-3.0,-0.1,-0.2,680,0,,,,,,,,,,,,,,,,,,,
7248802,1495307642973,,,,,,,,0.05,0.08,0.98,-3.0,-0.1,-0.2,680,0,,,,,,,,,,,,,,,,,,,
7248822,1495307642993,,,,,,,,0.05,0.08,0.99,-2.9,-0.1,-0.2,680,0,,,,,,,,,,,,,,,,,,,
7248844,1495307643007,,,,,20,,,0.05,0.08,0.99,-2.9,-0.1,-0.2,680,0,1,1,0.0,0,39.540588,-122.332367,0.0,4.2,388.0,11,3,1.3,15,4.26,8,0.1633,32.5196,31.975,16
7248863,1495307643026,,,,,,,,0.05,0.08,0.99,-3.0,-0.1,-0.2,660,0,,,,,,,,,,,,,,,,,,,
7248883,1495307643046,,,,,,,,0.05,0.08,0.98,-2.9,-0.2,-0.2,660,0,,,,,,,,,,,,,,,,,,,
7248903,1495307643066,,,,,,,,0.05,0.08,0.99,-3.0,-0.1,-0.2,660,0,,,,,,,,,,,,,,,,,,,
7248923,1495307643093,,,,,,,,0.05,0.08,0.99,-3.0,-0.2,-0.2,660,0,,,,,,,,,,,,,,,,,,,
7248945,1495307643115,1,145.8,,165.3,20,161.4,,0.05,0.08,0.98,-3.0,-0.2,-0.3,660,0,1,1,0.0,0,39.540588,-122.332367,0.0,4.2,388.0,11,3,1.3,15,4.26,8,0.1633,32.5214,31.9767,16
7248964,1495307643134,,,,,,,,0.05,0.07,0.99,-3.0,-0.2,-0.2,660,0,,,,,,,,,,,,,,,,,,,
7248984,1495307643154,,,,,,,,0.05,0.08,0.99,-3.0,-0.1,-0.2,660,0,,,,,,,,,,,,,,,,,,,
7249004,1495307643174,,,,,,,,0.05,0.07,0.98,-3.0,-0.2,-0.2,660,0,,,,,,,,,,,,,,,,,,,
7249024,1495307643194,,,,,,,,0.05,0.08,0.99,-3.0,-0.2,-0.3,660,0,,,,,,,,,,,,,,,,,,,
7249046,1495307643216,,,,,20,,,0.05,0.08,0.99,-3.0,-0.1,-0.2,660,0,1,1,0.0,0,39.540588,-122.332367,0.0,4.2,388.0,11,3,1.3,15,4.26,8,0.1633,32.5231,31.9783,16
7249065,1495307643235,,,,,,,,0.05,0.08,0.99,-2.9,-0.1,-0.2,660,0,,,,,,,,,,,,,,,,,,,
7249085,1495307643255,,,,,,,,0.05,0.08,0.99,-2.9,-0.1,-0.3,660,0,,,,,,,,,,,,,,,,,,,
7249105,1495307643275,,,,,,,,0.05,0.08,0.98,-3.0,-0.1,-0.2,680,0,,,,,,,,,,,,,,,,,,,
7249125,1495307643295,,,,,,,,0.05,0.08,0.98,-3.0,-0.2,-0.2,660,0,,,,,,,,,,,,,,,,,,,
7249147,1495307643317,0,145.3,-0.4,164.9,20,161.2,14.09,0.05,0.08,0.99,-2.9,-0.1,-0.3,660,0,1,1,0.0,0,39.540588,-122.332367,0.0,4.2,388.0,11,3,1.3,15,4.26,8,0.1633,32.5247,31.98,16
7249166,1495307643336,,,,,,,,0.05,0.08,0.99,-3.0,-0.1,-0.3,660,0,,,,,,,,,,,,,,,,,,,
7249186,1495307643356,,,,,,,,0.05,0.08,0.98,-3.0,-0.2,-0.3,660,0,,,,,,,,,,,,,,,,,,,
7249206,1495307643376,,,,,,,,0.05,0.07,0.98,-2.9,-0.1,-0.3,660,0,,,,,,,,,,,,,,,,,,,
7249226,1495307643396,,,,,,,,0.05,0.07,0.99,-3.0,-0.1,-0.3,660,0,,,,,,,,,,,,,,,,,,,
7249248,1495307643418,,,,,21,,,0.05,0.08,0.98,-3.0,-0.1,-0.2,660,0,1,1,0.0,0,39.540588,-122.332367,0.0,4.2,388.0,11,3,1.3,15,4.26,8,0.1633,32.5264,31.9817,16
7249267,1495307643437,,,,,,,,0.05,0.07,0.98,-2.9,-0.2,-0.2,660,0,,,,,,,,,,,,,,,,,,,
7249287,1495307643457,,,,,,,,0.05,0.07,0.99,-3.0,-0.1,-0.2,660,0,,,,,,,,,,,,,,,,,,,
7249307,1495307643477,,,,,,,,0.05,0.07,0.98,-3.0,-0.2,-0.1,660,0,,,,,,,,,,,,,,,,,,,
7249327,1495307643497,,,,,,,,0.05,0.07,0.98,-2.9,-0.2,-0.2,660,0,,,,,,,,,,,,,,,,,,,
7249349,1495307643519,0,145.6,,165.1,21,161.2,,0.05,0.07,0.99,-2.9,-0.1,-0.2,660,0,1,1,0.0,0,39.540588,-122.332367,0.0,4.2,388.0,11,3,1.3,15,4.26,8,0.1633,32.5281,31.9833,16
7249368,1495307643538,,,,,,,,0.05,0.08,0.98,-3.0,-0.1,-0.2,660,0,,,,,,,,,,,,,,,,,,,
7249388,1495307643558,,,,,,,,0.05,0.07,0.98,-2.9,-0.1,-0.3,660,0,,,,,,,,,,,,,,,,,,,
7249408,1495307643578,,,,,,,,0.05,0.07,0.98,-2.9,-0.1,-0.3,660,0,,,,,,,,,,,,,,,,,,,
7249428,1495307643598,,,,,,,,0.05,0.08,0.98,-3.0,-0.2,-0.2,660,0,,,,,,,,,,,,,,,,,,,
7249450,1495307643620,,,,,21,,,0.05,0.08,0.98,-2.9,-0.1,-0.3,660,0,1,1,0.0,0,39.540588,-122.332367,0.0,4.2,388.0,11,3,1.3,15,4.26,8,0.1633,32.5298,31.985,16
7249469,1495307643639,,,,,,,,0.05,0.07,0.99,-3.0,-0.1,-0.3,660,0,,,,,,,,,,,,,,,,,,,
7249489,1495307643659,,,,,,,,0.05,0.08,0.99,-3.0,-0.0,-0.2,660,0,,,,,,,,,,,,,,,,,,,
7249509,1495307643679,,,,,,,,0.05,0.08,0.99,-3.0,-0.1,-0.2,680,0,,,,,,,,,,,,,,,,,,,
7249529,1495307643699,,,,,,,,0.05,0.08,0.99,-3.0,-0.1,-0.2,680,0,,,,,,,,,,,,,,,,,,,
7249551,1495307643721,0,145.7,,165.3,21,161.4,,0.05,0.08,0.99,-3.0,-0.0,-0.2,680,0,1,1,0.0,0,39.540588,-122.332367,0.0,4.2,388.0,11,3,1.3,15,4.26,8,0.1633,32.5315,31.9867,16
7249570,1495307643740,,,,,,,,0.05,0.08,0.98,-3.0,-0.1,-0.2,660,0,,,,,,,,,,,,,,,,,,,
7249590,1495307643760,,,,,,,,0.05,0.08,0.99,-3.0,-0.1,-0.2,660,0,,,,,,,,,,,,,,,,,,,
7249610,1495307643780,,,,,,,,0.05,0.08,0.99,-3.0,-0.1,-0.2,680,0,,,,,,,,,,,,,,,,,,,
7249630,1495307643801,,,,,,,,0.05,0.09,0.98,-3.0,-0.1,-0.2,680,0,,,,,,,,,,,,,,,,,,,
7249652,1495307643823,,,,,20,,,0.05,0.08,0.98,-3.0,-0.1,-0.2,680,0,1,1,0.0,0,39.540588,-122.332367,0.0,4.2,388.0,11,3,1.3,15,4.26,8,0.1633,32.5332,31.9883,16
7249671,1495307643842,,,,,,,,0.05,0.08,0.99,-3.0,-0.1,-0.2,680,0,,,,,,,,,,,,,,,,,,,
7249691,1495307643862,,,,,,,,0.05,0.08,0.99,-3.0,-0.0,-0.2,680,0,,,,,,,,,,,,,,,,,,,
7249711,1495307643882,,,,,,,,0.05,0.07,0.98,-3.0,-0.1,-0.2,660,0,,,,,,,,,,,,,,,,,,,
7249731,1495307643901,,,,,,,,0.05,0.08,0.99,-3.0,-0.1,-0.2,660,0,,,,,,,,,,,,,,,,,,,
7249753,1495307643923,0,145.5,,165.1,20,161.0,,0.05,0.07,0.99,-3.0,-0.0,-0.1,660,0,1,1,0.0,0,39.540588,-122.332367,0.0,4.2,388.0,11,3,1.3,15,4.26,8,0.1633,32.5349,31.99,16
7249772,1495307643942,,,,,,,,0.05,0.07,0.99,-3.0,-0.0,-0.2,660,0,,,,,,,,,,,,,,,,,,,
7249792,1495307643962,,,,,,,,0.05,0.07,0.99,-3.0,-0.0,-0.2,660,0,,,,,,,,,,,,,,,,,,,
7249812,1495307643982,,,,,,,,0.05,0.08,0.99,-3.0,-0.0,-0.1,660,0,,,,,,,,,,,,,,,,,,,
7249832,1495307643994,,,,,,,,0.05,0.08,0.98,-3.0,-0.0,-0.1,680,0,,,,,,,,,,,,,,,,,,,
7249854,1495307644016,,,,,20,,,0.05,0.07,0.99,-3.0,0.0,-0.2,680,0,1,1,0.0,0,39.540588,-122.332367,0.0,4.2,388.0,11,3,1.3,15,4.26,8,0.1633,32.5364,31.9917,16
7249873,1495307644035,,,,,,,,0.05,0.08,0.99,-3.0,-0.0,-0.2,680,0,,,,,,,,,,,,,,,,,,,
7249893,1495307644055,,,,,,,,0.05,0.08,0.98,-3.0,-0.1,-0.2,680,0,,,,,,,,,,,,,,,,,,,
7249913,1495307644075,,,,,,,,0.05,0.07,0.98,-3.0,-0.0,-0.2,680,0,,,,,,,,,,,,,,,,,,,
7249933,1495307644102,,,,,,,,0.05,0.07,0.99,-3.0,-0.0,-0.2,680,0,,,,,,,,,,,,,,,,,,,
7249955,1495307644124,0,145.8,,165.4,20,161.5,,0.05,0.07,0.98,-3.0,-0.1,-0.1,680,0,1,1,0.0,0,39.540588,-122.332367,0.0,4.2,388.0,11,3,1.3,15,4.26,8,0.1633,32.5382,31.9933,16
7249974,1495307644143,,,,,,,,0.05,0.07,0.98,-3.0,-0.1,-0.2,680,0,,,,,,,,,,,,,,,,,,,
7249994,1495307644163,,,,,,,,0.05,0.07,0.98,-3.0,-0.1,-0.2,680,0,,,,,,,,,,,,,,,,,,,
7250014,1495307644183,,,,,,,,0.05,0.07,0.98,-3.0,-0.1,-0.1,680,0,,,,,,,,,,,,,,,,,,,
7250034,1495307644203,,,,,,,,0.05,0.07,0.98,-3.0,-0.1,-0.1,680,0,,,,,,,,,,,,,,,,,,,
7250056,1495307644225,,,,,21,,,0.05,0.07,0.99,-3.0,-0.1,-0.2,680,0,1,1,0.0,0,39.540588,-122.332367,0.0,4.2,388.0,11,3,1.3,15,4.26,8,0.1633,32.5399,31.995,16
7250075,1495307644244,,,,,,,,0.05,0.07,0.99,-3.0,-0.0,-0.1,680,0,,,,,,,,,,,,,,,,,,,
7250095,1495307644264,,,,,,,,0.05,0.07,0.99,-3.0,-0.1,-0.2,660,0,,,,,,,,,,,,,,,,,,,
7250115,1495307644284,,,,,,,,0.05,0.07,0.99,-3.0,-0.0,-0.2,660,0,,,,,,,,,,,,,,,,,,,
7250135,1495307644304,,,,,,,,0.05,0.08,0.99,-3.0,-0.0,-0.1,680,0,,,,,,,,,,,,,,,,,,,
7250157,1495307644326,0,145.6,-0.5,165.2,21,161.4,14.18,0.05,0.07,0.98,-3.0,-0.1,-0.1,680,0,1,1,0.0,0,39.540588,-122.332367,0.0,4.2,388.0,11,3,1.3,15,4.26,8,0.1633,32.5416,31.9967,16
7250176,1495307644345,,,,,,,,0.05,0.07,0.98,-2.9,-0.0,-0.2,680,0,,,,,,,,,,,,,,,,,,,
7250196,1495307644365,,,,,,,,0.05,0.07,0.98,-3.0,-0.1,-0.2,680,0,,,,,,,,,,,,,,,,,,,
7250216,1495307644385,,,,,,,,0.05,0.08,0.98,-3.0,-0.1,-0.1,680,0,,,,,,,,,,,,,,,,,,,
7250236,1495307644405,,,,,,,,0.05,0.07,0.98,-3.0,-0.1,-0.2,680,0,,,,,,,,,,,,,,,,,,,
7250258,1495307644427,,,,,21,,,0.05,0.07,0.98,-3.0,-0.1,-0.2,680,0,1,1,0.0,0,39.540588,-122.332367,0.0,4.2,388.0,11,3,1.3,15,4.26,8,0.1633,32.5433,31.9983,16
7250277,1495307644446,,,,,,,,0.05,0.07,0.98,-3.0,-0.1,-0.1,680,0,,,,,,,,,,,,,,,,,,,
7250297,1495307644466,,,,,,,,0.05,0.07,0.98,-3.0,-0.1,-0.2,680,0,,,,,,,,,,,,,,,,,,,
7250317,1495307644486,,,,,,,,0.05,0.07,0.99,-3.0,-0.1,-0.2,680,0,,,,,,,,,,,,,,,,,,,
7250337,1495307644506,,,,,,,,0.05,0.07,0.99,-3.0,-0.1,-0.1,680,0,,,,,,,,,,,,,,,,,,,
7250359,1495307644528,0,145.5,,165.2,20,161.3,,0.05,0.07,0.98,-2.9,-0.1,-0.2,680,0,1,1,0.0,0,39.540588,-122.332367,0.0,4.2,388.0,11,3,1.3,15,4.26,8,0.1633,32.5449,32.0,16
7250378,1495307644547,,,,,,,,0.05,0.07,0.99,-2.9,-0.1,-0.2,680,0,,,,,,,,,,,,,,,,,,,
7250398,1495307644567,,,,,,,,0.05,0.07,0.98,-3.0,-0.1,-0.2,680,0,,,,,,,,,,,,,,,,,,,
7250418,1495307644587,,,,,,,,0.05,0.08,0.98,-3.0,-0.1,-0.2,680,0,,,,,,,,,,,,,,,,,,,
7250438,1495307644609,,,,,,,,0.05,0.08,0.98,-2.9,-0.1,-0.2,680,0,,,,,,,,,,,,,,,,,,,
7250460,1495307644631,,,,,20,,,0.05,0.08,0.98,-3.0,-0.1,-0.2,680,0,1,1,0.0,0,39.540588,-122.332367,0.0,4.2,388.0,11,3,1.3,15,4.26,8,0.1633,32.5466,32.0017,16
7250479,1495307644650,,,,,,,,0.05,0.08,0.98,-3.0,-0.1,-0.1,680,0,,,,,,,,,,,,,,,,,,,
7250499,1495307644670,,,,,,,,0.05,0.07,0.98,-2.9,-0.1,-0.2,680,0,,,,,,,,,,,,,,,,,,,
7250519,1495307644690,,,,,,,,0.05,0.07,0.99,-3.0,-0.0,-0.2,680,0,,,,,,,,,,,,,,,,,,,
7250539,1495307644710,,,,,,,,0.05,0.08,0.98,-3.0,-0.1,-0.1,680,0,,,,,,,,,,,,,,,,,,,
7250561,1495307644732,0,145.2,,164.9,20,161.1,,0.05,0.07,0.98,-3.0,-0.1,-0.2,680,0,1,1,0.0,0,39.540588,-122.332367,0.0,4.2,388.0,11,3,1.3,15,4.26,8,0.1633,32.5483,32.0033,16
7250580,1495307644751,,,,,,,,0.05,0.07,0.98,-3.0,-0.1,-0.2,680,0,,,,,,,,,,,,,,,,,,,
7250600,1495307644771,,,,,,,,0.05,0.08,0.98,-3.0,-0.1,-0.2,680,0,,,,,,,,,,,,,,,,,,,
7250620,1495307644791,,,,,,,,0.05,0.08,0.98,-3.0,-0.1,-0.2,680,0,,,,,,,,,,,,,,,,,,,
7250640,1495307644811,,,,,,,,0.05,0.08,0.98,-3.0,-0.1,-0.2,680,0,,,,,,,,,,,,,,,,,,,
7250662,1495307644833,,,,,20,,,0.05,0.08,0.98,-3.0,-0.1,-0.2,680,0,1,1,0.0,0,39.540588,-122.332367,0.0,4.2,388.0,11,3,1.3,15,4.26,8,0.1633,32.55,32.005,16
7250681,1495307644852,,,,,,,,0.05,0.08,0.98,-3.0,-0.1,-0.2,680,0,,,,,,,,,,,,,,,,,,,
7250701,1495307644872,,,,,,,,0.05,0.07,0.98,-3.0,-0.0,-0.2,680,0,,,,,,,,,,,,,,,,,,,
7250721,1495307644892,,,,,,,,0.05,0.08,0.98,-3.0,-0.0,-0.2,680,0,,,,,,,,,,,,,,,,,,,
7250741,1495307644912,,,,,,,,0.05,0.08,0.98,-3.0,-0.1,-0.1,680,0,,,,,,,,,,,,,,,,,,,
7250763,1495307644934,0,145.2,,164.9,20,161.4,,0.05,0.08,0.98,-3.0,-0.0,-0.2,680,0,1,1,0.0,0,39.540588,-122.332367,0.0,4.2,388.0,11,3,1.3,15,4.26,8,0.1633,32.5517,32.0067,16
7250782,1495307644953,,,,,,,,0.05,0.08,0.99,-3.0,-0.1,-0.2,680,0,,,,,,,,,,,,,,,,,,,
7250802,1495307644973,,,,,,,,0.05,0.08,0.98,-3.0,-0.1,-0.1,680,0,,,,,,,,,,,,,,,,,,,
7250822,1495307644993,,,,,,,,0.05,0.08,0.98,-3.0,-0.1,-0.2,680,0,,,,,,,,,,,,,,,,,,,
7250842,1495307645003,,,,,,,,0.05,0.08,0.99,-3.0,-0.1,-0.2,680,0,,,,,,,,,,,,,,,,,,,
7250864,1495307645025,,,,,20,,,0.05,0.08,0.99,-3.0,-0.1,-0.1,680,0,1,1,0.0,0,39.540588,-122.332367,0.0,4.2,388.0,11,3,1.3,15,4.26,8,0.1633,32.5532,32.0083,16
7250883,1495307645044,,,,,,,,0.05,0.08,0.99,-3.0,-0.1,-0.2,680,0,,,,,,,,,,,,,,,,,,,
7250903,1495307645064,,,,,,,,0.05,0.08,0.99,-2.9,-0.1,-0.2,680,0,,,,,,,,,,,,,,,,,,,
7250923,1495307645093,,,,,,,,0.05,0.08,0.99,-3.0,-0.1,-0.1,680,0,,,,,,,,,,,,,,,,,,,
7250943,1495307645113,,,,,,,,0.05,0.08,0.98,-3.0,-0.1,-0.1,680,0,,,,,,,,,,,,,,,,,,,
7250965,1495307645135,0,145.8,,165.5,21,160.8,,0.05,0.08,0.99,-2.9,-0.1,-0.2,680,0,1,1,0.0,0,39.540588,-122.332367,0.0,4.2,388.0,11,3,1.3,15,4.26,8,0.1633,32.555,32.01,16
7250984,1495307645154,,,,,,,,0.05,0.08,0.99,-3.0,-0.1,-0.1,680,0,,,,,,,,,,,,,,,,,,,
7251004,1495307645174,,,,,,,,0.05,0.08,0.98,-3.0,-0.1,-0.1,680,0,,,,,,,,,,,,,,,,,,,
7251024,1495307645194,,,,,,,,0.05,0.07,0.99,-3.0,-0.1,-0.1,680,0,,,,,,,,,,,,,,,,,,,
7251044,1495307645214,,,,,,,,0.05,0.07,0.99,-3.0,-0.1,-0.1,680,0,,,,,,,,,,,,,,,,,,,
7251066,1495307645236,,,,,21,,,0.05,0.08,0.99,-3.0,-0.1,-0.1,680,0,1,1,0.0,0,39.540588,-122.332367,0.0,4.2,388.0,11,3,1.3,15,4.26,8,0.1633,32.5567,32.0117,16
7251085,1495307645255,,,,,,,,0.05,0.08,0.99,-3.0,-0.1,-0.1,680,0,,,,,,,,,,,,,,,,,,,
7251105,1495307645275,,,,,,,,0.05,0.08,0.99,-3.0,-0.1,-0.1,680,0,,,,,,,,,,,,,,,,,,,
7251125,1495307645295,,,,,,,,0.05,0.08,0.99,-3.0,-0.1,-0.1,680,0,,,,,,,,,,,,,,,,,,,
7251145,1495307645315,,,,,,,,0.05,0.08,0.98,-3.0,-0.2,-0.2,680,0,,,,,,,,,,,,,,,,,,,
7251167,1495307645337,0,145.8,-0.4,165.7,21,160.6,14.28,0.05,0.08,0.99,-3.0,-0.2,-0.2,680,0,1,1,0.0,0,39.540588,-122.332367,0.0,4.2,388.0,11,3,1.3,15,4.26,8,0.1633,32.5584,32.0133,16
7251186,1495307645356,,,,,,,,0.05,0.08,0.99,-3.0,-0.1,-0.2,680,0,,,,,,,,,,,,,,,,,,,
7251206,1495307645376,,,,,,,,0.05,0.08,0.98,-3.0,-0.2,-0.2,680,0,,,,,,,,,,,,,,,,,,,
7251226,1495307645397,,,,,,,,0.05,0.07,0.98,-2.9,-0.1,-0.2,680,0,,,,,,,,,,,,,,,,,,,
7251246,1495307645417,,,,,,,,0.05,0.08,0.98,-3.0,-0.1,-0.1,680,0,,,,,,,,,,,,,,,,,,,
7251268,1495307645439,,,,,20,,,0.05,0.09,0.98,-3.0,-0.1,-0.1,680,0,1,1,0.0,0,39.540588,-122.332367,0.0,4.2,388.0,11,3,1.3,15,4.26,8,0.1633,32.5601,32.015,16
7251287,1495307645458,,,,,,,,0.05,0.08,0.98,-3.0,-0.1,-0.2,680,0,,,,,,,,,,,,,,,,,,,
7251307,1495307645478,,,,,,,,0.05,0.08,0.99,-3.0,-0.1,-0.2,680,0,,,,,,,,,,,,,,,,,,,
7251327,1495307645497,,,,,,,,0.05,0.08,0.98,-3.0,-0.1,-0.1,680,0,,,,,,,,,,,,,,,,,,,
7251347,1495307645517,,,,,,,,0.05,0.08,0.98,-3.0,-0.1,-0.2,660,0,,,,,,,,,,,,,,,,,,,
7251369,1495307645539,0,145.8,,165.5,21,160.8,,0.05,0.08,0.99,-3.0,-0.1,-0.2,660,0,1,1,0.0,0,39.540588,-122.332367,0.0,4.2,388.0,11,3,1.3,15,4.26,8,0.1633,32.5618,32.0167,16
7251388,1495307645558,,,,,,,,0.05,0.08,0.99,-3.0,-0.1,-0.2,680,0,,,,,,,,,,,,,,,,,,,
7251408,1495307645578,,,,,,,,0.05,0.08,0.98,-3.0,-0.1,-0.2,660,0,,,,,,,,,,,,,,,,,,,
7251428,1495307645598,,,,,,,,0.05,0.08,0.99,-3.0,-0.1,-0.2,660,0,,,,,,,,,,,,,,,,,,,
7251448,1495307645618,,,,,,,,0.05,0.08,0.99,-3.0,-0.1,-0.2,680,0,,,,,,,,,,,,,,,,,,,
7251470,1495307645640,,,,,20,,,0.05,0.08,0.99,-3.0,-0.0,-0.2,660,0,1,1,0.0,0,39.540588,-122.332367,0.0,4.2,388.0,11,3,1.3,15,4.26,8,0.1633,32.5635,32.0183,16
7251489,1495307645659,,,,,,,,0.05,0.07,0.99,-3.0,-0.0,-0.2,660,0,,,,,,,,,,,,,,,,,,,
7251509,1495307645679,,,,,,,,0.05,0.08,0.99,-3.0,-0.0,-0.2,660,0,,,,,,,,,,,,,,,,,,,
7251529,1495307645699,,,,,,,,0.05,0.08,0.99,-3.0,-0.1,-0.2,680,0,,,,,,,,,,,,,,,,,,,
7251549,1495307645719,,,,,,,,0.05,0.08,0.99,-2.9,-0.1,-0.2,680,0,,,,,,,,,,,,,,,,,,,
7251571,1495307645741,0,145.5,,165.4,20,161.3,,0.05,0.08,0.99,-3.0,-0.1,-0.2,680,0,1,1,0.0,0,39.540588,-122.332367,0.0,4.2,388.0,11,3,1.3,15,4.26,8,0.1633,32.5652,32.02,16
7251590,1495307645760,,,,,,,,0.05,0.09,0.98,-3.0,-0.1,-0.1,680,0,,,,,,,,,,,,,,,,,,,
7251610,1495307645780,,,,,,,,0.05,0.08,0.99,-3.0,-0.1,-0.2,680,0,,,,,,,,,,,,,,,,,,,
7251630,1495307645800,,,,,,,,0.05,0.08,0.99,-3.0,-0.1,-0.2,680,0,,,,,,,,,,,,,,,,,,,
7251650,1495307645820,,,,,,,,0.05,0.08,0.99,-3.0,-0.1,-0.1,680,0,,,,,,,,,,,,,,,,,,,
7251672,1495307645842,,,,,20,,,0.05,0.07,0.99,-3.0,-0.1,-0.2,660,0,1,1,0.0,0,39.540588,-122.332367,0.0,4.2,388.0,11,3,1.3,15,4.26,8,0.1633,32.5668,32.0217,16
7251691,1495307645861,,,,,,,,0.05,0.07,0.99,-3.0,-0.1,-0.2,660,0,,,,,,,,,,,,,,,,,,,
7251711,1495307645881,,,,,,,,0.05,0.08,0.99,-3.0,-0.1,-0.1,680,0,,,,,,,,,,,,,,,,,,,
7251731,1495307645901,,,,,,,,0.05,0.08,0.98,-3.0,-0.2,-0.2,680,0,,,,,,,,,,,,,,,,,,,
7251751,1495307645921,,,,,,,,0.05,0.08,0.99,-3.0,-0.2,-0.2,680,0,,,,,,,,,,,,,,,,,,,
7251773,1495307645943,0,145.7,,165.7,20,160.7,,0.05,0.08,0.98,-3.0,-0.2,-0.1,660,0,1,1,0.0,0,39.540588,-122.332367,0.0,4.2,388.0,11,3,1.3,15,4.26,8,0.1633,32.5685,32.0233,16
7251792,1495307645962,,,,,,,,0.05,0.08,0.98,-3.0,-0.2,-0.1,680,0,,,,,,,,,,,,,,,,,,,
7251812,1495307645982,,,,,,,,0.05,0.08,0.98,-3.0,-0.2,-0.1,680,0,,,,,,,,,,,,,,,,,,,
7251832,1495307645994,,,,,,,,0.05,0.08,0.98,-3.0,-0.1,-0.1,680,0,,,,,,,,,,,,,,,,,,,
7251852,1495307646014,,,,,,,,0.05,0.08,0.98,-3.0,-0.2,-0.1,660,0,,,,,,,,,,,,,,,,,,,
7251874,1495307646036,,,,,20,,,0.05,0.08,0.98,-3.0,-0.1,-0.1,660,0,1,1,0.0,0,39.540588,-122.332367,0.0,4.2,388.0,11,3,1.3,15,4.26,8,0.1633,32.5701,32.025,16
7251893,1495307646055,,,,,,,,0.05,0.08,0.98,-3.0,-0.1,-0.1,680,0,,,,,,,,,,,,,,,,,,,
7251913,1495307646075,,,,,,,,0.05,0.09,0.97,-3.0,-0.2,-0.1,680,0,,,,,,,,,,,,,,,,,,,
7251933,1495307646102,,,,,,,,0.05,0.08,0.97,-3.0,-0.2,-0.2,680,0,,,,,,,,,,,,,,,,,,,
7251953,1495307646122,,,,,,,,0.05,0.08,0.98,-3.0,-0.2,-0.2,680,0,,,,,,,,,,,,,,,,,,,
7251975,1495307646144,0,145.2,,165.1,20,161.0,,0.05,0.08,0.98,-3.0,-0.2,-0.1,680,0,1,1,0.0,0,39.540588,-122.332367,0.0,4.2,388.0,11,3,1.3,15,4.26,8,0.1633,32.5719,32.0267,16
7251994,1495307646163,,,,,,,,0.05,0.08,0.98,-3.0,-0.2,-0.2,660,0,,,,,,,,,,,,,,,,,,,
7252014,1495307646183,,,,,,,,0.05,0.08,0.98,-3.0,-0.2,-0.2,660,0,,,,,,,,,,,,,,,,,,,
7252034,1495307646205,,,,,,,,0.05,0.08,0.99,-3.0,-0.2,-0.1,660,0,,,,,,,,,,,,,,,,,,,
7252054,1495307646225,,,,,,,,0.05,0.07,0.99,-3.0,-0.2,-0.2,680,0,,,,,,,,,,,,,,,,,,,
7252076,1495307646247,,,,,22,,,0.05,0.07,0.99,-3.0,-0.1,-0.2,680,0,1,1,0.0,0,39.540588,-122.332367,0.0,4.2,388.0,11,3,1.3,15,4.26,8,0.1633,32.5736,32.0283,16
7252095,1495307646266,,,,,,,,0.05,0.07,0.99,-3.0,-0.1,-0.2,680,0,,,,,,,,,,,,,,,,,,,
7252115,1495307646286,,,,,,,,0.05,0.08,0.99,-3.0,-0.2,-0.1,680,0,,,,,,,,,,,,,,,,,,,
7252135,1495307646304,,,,,,,,0.05,0.07,0.99,-3.0,-0.2,-0.2,680,0,,,,,,,,,,,,,,,,,,,
7252155,1495307646324,,,,,,,,0.05,0.08,0.99,-3.0,-0.2,-0.2,680,0,,,,,,,,,,,,,,,,,,,
7252177,1495307646346,0,146.0,-0.5,165.7,21,160.5,14.34,0.05,0.08,0.99,-3.0,-0.2,-0.2,680,0,1,1,0.0,0,39.540588,-122.332367,0.0,4.2,388.0,11,3,1.3,15,4.26,8,0.1633,32.5752,32.03,16
7252196,1495307646365,,,,,,,,0.05,0.08,0.99,-3.0,-0.1,-0.2,680,0,,,,,,,,,,,,,,,,,,,
7252216,1495307646385,,,,,,,,0.05,0.08,0.99,-3.0,-0.1,-0.1,660,0,,,,,,,,,,,,,,,,,,,
7252236,1495307646405,,,,,,,,0.05,0.08,0.99,-3.0,-0.1,-0.1,680,0,,,,,,,,,,,,,,,,,,,
7252256,1495307646425,,,,,,,,0.05,0.08,0.98,-3.0,-0.1,-0.2,660,0,,,,,,,,,,,,,,,,,,,
7252278,1495307646447,,,,,21,,,0.05,0.08,0.99,-3.0,-0.0,-0.2,660,0,1,1,0.0,0,39.540588,-122.332367,0.0,4.2,388.0,11,3,1.3,15,4.26,8,0.1633,32.5769,32.0317,16
7252297,1495307646466,,,,,,,,0.05,0.08,0.98,-3.0,-0.1,-0.1,660,0,,,,,,,,,,,,,,,,,,,
7252317,1495307646486,,,,,,,,0.05,0.08,0.98,-3.0,-0.1,-0.2,660,0,,,,,,,,,,,,,,,,,,,
7252337,1495307646506,,,,,,,,0.05,0.08,0.99,-3.0,-0.1,-0.2,660,0,,,,,,,,,,,,,,,,,,,
7252357,1495307646526,,,,,,,,0.05,0.08,0.99,-3.0,-0.1,-0.1,680,0,,,,,,,,,,,,,,,,,,,
7252379,1495307646548,0,145.7,,165.5,21,161.3,,0.05,0.08,0.99,-3.0,-0.1,-0.1,660,0,1,1,0.0,0,39.540588,-122.332367,0.0,4.2,388.0,11,3,1.3,15,4.26,8,0.1633,32.5786,32.0333,16
7252398,1495307646567,,,,,,,,0.05,0.08,0.99,-3.0,-0.1,-0.2,660,0,,,,,,,,,,,,,,,,,,,
7252418,1495307646587,,,,,,,,0.05,0.08,0.99,-3.0,-0.1,-0.1,660,0,,,,,,,,,,,,,,,,,,,
7252438,1495307646609,,,,,,,,0.05,0.08,0.98,-3.0,-0.1,-0.1,680,0,,,,,,,,,,,,,,,,,,,
7252458,1495307646629,,,,,,,,0.05,0.08,0.99,-3.0,-0.1,-0.2,680,0,,,,,,,,,,,,,,,,,,,
7252480,1495307646651,,,,,19,,,0.05,0.08,0.99,-3.1,-0.1,-0.1,680,0,1,1,0.0,0,39.540588,-122.332367,0.0,4.2,388.0,11,3,1.3,15,4.26,8,0.1633,32.5803,32.035,16
7252499,1495307646670,,,,,,,,0.05,0.08,0.98,-3.1,-0.1,-0.1,680,0,,,,,,,,,,,,,,,,,,,
7252519,1495307646690,,,,,,,,0.05,0.08,0.99,-3.0,-0.1,-0.2,680,0,,,,,,,,,,,,,,,,,,,
7252539,1495307646710,,,,,,,,0.05,0.08,0.99,-3.0,-0.1,-0.1,680,0,,,,,,,,,,,,,,,,,,,
7252559,1495307646730,,,,,,,,0.05,0.08,0.99,-3.0,-0.1,-0.1,680,0,,,,,,,,,,,,,,,,,,,
7252581,1495307646752,1,144.9,,165.0,19,161.1,,0.05,0.08,0.99,-3.0,-0.1,-0.1,680,0,1,1,0.0,0,39.540588,-122.332367,0.0,4.2,388.0,11,3,1.3,15,4.26,8,0.1633,32.582,32.0367,16
7252600,1495307646771,,,,,,,,0.05,0.08,1.0,-3.0,-0.1,-0.2,680,0,,,,,,,,,,,,,,,,,,,
7252620,1495307646791,,,,,,,,0.05,0.08,0.99,-3.0,-0.1,-0.1,680,0,,,,,,,,,,,,,,,,,,,
7252640,1495307646811,,,,,,,,0.05,0.07,0.99,-3.0,-0.1,-0.2,660,0,,,,,,,,,,,,,,,,,,,
7252660,1495307646831,,,,,,,,0.05,0.07,0.99,-3.0,-0.1,-0.2,660,0,,,,,,,,,,,,,,,,,,,
7252682,1495307646853,,,,,21,,,0.05,0.07,0.99,-3.0,-0.1,-0.1,680,0,1,1,0.0,0,39.540588,-122.332367,0.0,4.2,388.0,11,3,1.3,15,4.26,8,0.1633,32.5837,32.0383,16
7252701,1495307646872,,,,,,,,0.05,0.07,0.99,-3.0,-0.1,-0.1,680,0,,,,,,,,,,,,,,,,,,,
7252721,1495307646892,,,,,,,,0.05,0.07,0.99,-3.0,-0.1,-0.1,680,0,,,,,,,,,,,,,,,,,,,
7252741,1495307646912,,,,,,,,0.05,0.08,0.99,-3.0,-0.0,-0.1,660,0,,,,,,,,,,,,,,,,,,,
7252761,1495307646932,,,,,,,,0.05,0.08,0.99,-3.0,-0.1,-0.1,680,0,,,,,,,,,,,,,,,,,,,
7252783,1495307646954,0,145.2,,165.2,21,161.0,,0.05,0.08,0.99,-3.0,-0.0,-0.1,680,0,1,1,0.0,0,39.540588,-122.332367,0.0,4.2,388.0,11,3,1.3,15,4.26,8,0.1633,32.5854,32.04,16
7252802,1495307646973,,,,,,,,0.05,0.08,0.99,-3.0,-0.1,-0.1,680,0,,,,,,,,,,,,,,,,,,,
7252822,1495307646993,,,,,,,,0.05,0.08,0.99,-3.0,-0.1,-0.1,680,0,,,,,,,,,,,,,,,,,,,
7252842,1495307647005,,,,,,,,0.05,0.08,0.99,-3.0,-0.0,-0.1,680,0,,,,,,,,,,,,,,,,,,,
7252862,1495307647025,,,,,,,,0.05,0.08,0.99,-3.0,-0.0,-0.1,680,0,,,,,,,,,,,,,,,,,,,
7252884,1495307647047,,,,,20,,,0.05,0.08,0.98,-3.0,-0.0,-0.1,680,0,1,1,0.0,0,39.540588,-122.332367,0.0,4.2,388.0,11,3,1.3,15,4.26,8,0.1633,32.5869,32.0417,16
7252903,1495307647066,,,,,,,,0.05,0.07,0.98,-3.0,-0.1,-0.2,680,0,,,,,,,,,,,,,,,,,,,
7252923,1495307647093,,,,,,,,0.05,0.07,0.99,-3.0,-0.1,-0.2,680,0,,,,,,,,,,,,,,,,,,,
7252943,1495307647113,,,,,,,,0.05,0.07,0.99,-3.0,-0.0,-0.1,680,0,,,,,,,,,,,,,,,,,,,
7252963,1495307647133,,,,,,,,0.05,0.07,0.98,-3.0,-0.1,-0.2,680,0,,,,,,,,,,,,,,,,,,,
7252985,1495307647155,0,145.4,,165.3,21,161.4,,0.05,0.07,0.98,-3.0,-0.1,-0.1,680,0,1,1,0.0,0,39.540588,-122.332367,0.0,4.2,388.0,11,3,1.3,15,4.26,8,0.1633,32.5887,32.0433,16
7253004,1495307647174,,,,,,,,0.05,0.07,0.98,-3.0,-0.1,-0.1,680,0,,,,,,,,,,,,,,,,,,,
7253024,1495307647194,,,,,,,,0.05,0.07,0.98,-3.0,-0.1,-0.1,680,0,,,,,,,,,,,,,,,,,,,
7253044,1495307647214,,,,,,,,0.05,0.07,0.99,-3.0,-0.1,-0.1,680,0,,,,,,,,,,,,,,,,,,,
7253064,1495307647234,,,,,,,,0.05,0.08,0.99,-3.1,-0.0,-0.1,680,0,,,,,,,,,,,,,,,,,,,
7253086,1495307647256,,,,,21,,,0.05,0.08,0.98,-3.1,-0.1,-0.1,680,0,1,1,0.0,0,39.540588,-122.332367,0.0,4.2,388.0,11,3,1.3,15,4.26,8,0.1633,32.5904,32.045,16
7253105,1495307647275,,,,,,,,0.05,0.07,0.99,-3.0,-0.1,-0.2,680,0,,,,,,,,,,,,,,,,,,,
7253125,1495307647295,,,,,,,,0.05,0.07,0.99,-3.0,-0.1,-0.2,680,0,,,,,,,,,,,,,,,,,,,
7253145,1495307647315,,,,,,,,0.05,0.08,0.99,-3.0,-0.1,-0.1,680,0,,,,,,,,,,,,,,,,,,,
7253165,1495307647335,,,,,,,,0.05,0.07,0.99,-3.0,-0.1,-0.2,680,0,,,,,,,,,,,,,,,,,,,
7253187,1495307647357,0,145.9,-0.5,165.8,20,160.6,14.43,0.05,0.07,0.99,-3.0,-0.1,-0.2,680,0,1,1,0.0,0,39.540588,-122.332367,0.0,4.2,388.0,11,3,1.3,15,4.26,8,0.1633,32.5921,32.0467,16
7253206,1495307647376,,,,,,,,0.05,0.07,0.99,-3.0,-0.1,-0.1,680,0,,,,,,,,,,,,,,,,,,,
7253226,1495307647396,,,,,,,,0.05,0.07,0.99,-3.0,-0.1,-0.2,680,0,,,,,,,,,,,,,,,,,,,
7253246,1495307647416,,,,,,,,0.05,0.07,0.99,-3.0,-0.1,-0.2,680,0,,,,,,,,,,,,,,,,,,,
7253266,1495307647436,,,,,,,,0.05,0.07,0.99,-3.0,-0.1,-0.1,680,0,,,,,,,,,,,,,,,,,,,
7253288,1495307647458,,,,,21,,,0.05,0.08,0.99,-3.0,-0.1,-0.1,680,0,1,1,0.0,0,39.540588,-122.332367,0.0,4.2,388.0,11,3,1.3,15,4.26,8,0.1633,32.5938,32.0483,16
7253307,1495307647477,,,,,,,,0.05,0.07,0.99,-3.0,-0.0,-0.2,680,0,,,,,,,,,,,,,,,,,,,
7253327,1495307647497,,,,,,,,0.05,0.08,0.99,-3.1,-0.0,-0.1,680,0,,,,,,,,,,,,,,,,,,,
7253347,1495307647517,,,,,,,,0.05,0.08,0.99,-3.1,-0.0,-0.1,680,0,,,,,,,,,,,,,,,,,,,
7253367,1495307647537,,,,,,,,0.05,0.08,0.99,-3.0,-0.1,-0.1,680,0,,,,,,,,,,,,,,,,,,,
7253389,1495307647559,0,145.0,,165.1,21,161.3,,0.05,0.08,0.99,-3.0,-0.1,-0.1,680,0,1,1,0.0,0,39.540588,-122.332367,0.0,4.2,388.0,11,3,1.3,15,4.26,8,0.1633,32.5955,32.05,16
7253408,1495307647578,,,,,,,,0.05,0.08,0.99,-3.0,-0.1,-0.1,680,0,,,,,,,,,,,,,,,,,,,
7253428,1495307647596,,,,,,,,0.05,0.07,0.99,-3.0,-0.1,-0.1,680,0,,,,,,,,,,,,,,,,,,,
7253448,1495307647616,,,,,,,,0.05,0.07,0.99,-3.0,-0.1,-0.2,680,0,,,,,,,,,,,,,,,,,,,
7253468,1495307647636,,,,,,,,0.05,0.08,0.99,-3.0,-0.1,-0.1,680,0,,,,,,,,,,,,,,,,,,,
7253490,1495307647658,,,,,21,,,0.05,0.08,0.99,-3.0,-0.1,-0.1,680,0,1,1,0.0,0,39.540588,-122.332367,0.0,4.2,388.0,11,3,1.3,15,4.26,8,0.1633,32.5971,32.0517,16
7253509,1495307647677,,,,,,,,0.05,0.07,0.99,-3.0,-0.1,-0.2,680,0,,,,,,,,,,,,,,,,,,,
7253529,1495307647699,,,,,,,,0.05,0.08,0.99,-3.0,-0.1,-0.1,680,0,,,,,,,,,,,,,,,,,,,
7253549,1495307647719,,,,,,,,0.05,0.09,0.99,-3.0,-0.0,-0.1,680,0,,,,,,,,,,,,,,,,,,,
7253569,1495307647739,,,,,,,,0.05,0.08,0.99,-3.0,-0.1,-0.2,680,0,,,,,,,,,,,,,,,,,,,
7253591,1495307647761,0,145.1,,165.0,21,161.3,,0.05,0.08,0.99,-3.0,-0.1,-0.2,680,0,1,1,0.0,0,39.540588,-122.332367,0.0,4.2,388.0,11,3,1.3,15,4.26,8,0.1633,32.5988,32.0533,16
7253610,1495307647780,,,,,,,,0.05,0.08,0.99,-3.0,-0.1,-0.1,680,0,,,,,,,,,,,,,,,,,,,
7253630,1495307647801,,,,,,,,0.05,0.08,0.99,-3.0,-0.1,-0.1,680,0,,,,,,,,,,,,,,,,,,,
7253650,1495307647821,,,,,,,,0.05,0.08,0.99,-3.0,-0.1,-0.1,680,0,,,,,,,,,,,,,,,,,,,
7253670,1495307647841,,,,,,,,0.05,0.08,0.99,-3.0,-0.1,-0.1,680,0,,,,,,,,,,,,,,,,,,,
7253692,1495307647863,,,,,21,,,0.05,0.08,0.99,-3.0,-0.2,-0.1,680,0,1,1,0.0,0,39.540588,-122.332367,0.0,4.2,388.0,11,3,1.3,15,4.26,8,0.1633,32.6005,32.055,16
7253711,1495307647882,,,,,,,,0.05,0.08,0.99,-2.9,-0.1,-0.1,680,0,,,,,,,,,,,,,,,,,,,
7253731,1495307647901,,,,,,,,0.05,0.08,0.99,-3.0,-0.1,-0.1,680,0,,,,,,,,,,,,,,,,,,,
7253751,1495307647921,,,,,,,,0.05,0.08,0.99,-3.0,-0.1,-0.1,680,0,,,,,,,,,,,,,,,,,,,
7253771,1495307647941,,,,,,,,0.05,0.08,0.99,-2.9,-0.1,-0.2,680,0,,,,,,,,,,,,,,,,,,,
7253793,1495307647963,0,146.1,,166.0,21,160.5,,0.05,0.08,0.99,-2.9,-0.1,-0.1,680,0,1,1,0.0,0,39.540588,-122.332367,0.0,4.2,388.0,11,3,1.3,15,4.26,8,0.1633,32.6022,32.0567,16
7253812,1495307647982,,,,,,,,0.05,0.08,0.99,-3.0,-0.1,-0.1,680,0,,,,,,,,,,,,,,,,,,,
7253832,1495307647994,,,,,,,,0.05,0.08,0.99,-2.9,-0.1,-0.1,680,0,,,,,,,,,,,,,,,,,,,
7253852,1495307648014,,,,,,,,0.05,0.07,0.99,-3.0,-0.1,-0.1,680,0,,,,,,,,,,,,,,,,,,,
7253872,1495307648034,,,,,,,,0.05,0.08,0.99,-3.0,-0.1,-0.1,680,0,,,,,,,,,,,,,,,,,,,
7253894,1495307648056,,,,,22,,,0.05,0.07,0.99,-3.0,-0.2,-0.1,680,0,1,1,0.0,0,39.540588,-122.332367,0.0,4.2,388.0,11,3,1.3,15,4.26,8,0.1633,32.6037,32.0583,16
7253913,1495307648075,,,,,,,,0.05,0.07,0.99,-3.0,-0.1,-0.1,680,0,,,,,,,,,,,,,,,,,,,
7253933,1495307648102,,,,,,,,0.05,0.08,0.99,-3.0,-0.1,-0.1,680,0,,,,,,,,,,,,,,,,,,,
7253953,1495307648122,,,,,,,,0.05,0.08,0.99,-3.0,-0.1,-0.1,680,0,,,,,,,,,,,,,,,,,,,
7253973,1495307648142,,,,,,,,0.05,0.08,0.99,-3.0,-0.1,-0.2,680,0,,,,,,,,,,,,,,,,,,,
7253995,1495307648164,0,145.1,,165.6,21,161.0,,0.05,0.08,0.99,-3.0,-0.1,-0.2,680,0,1,1,0.0,0,39.540588,-122.332367,0.0,4.2,388.0,11,3,1.3,15,4.26,8,0.1633,32.6055,32.06,16
7254014,1495307648183,,,,,,,,0.05,0.07,0.99,-3.0,-0.1,-0.1,680,0,,,,,,,,,,,,,,,,,,,
7254034,1495307648205,,,,,,,,0.05,0.07,0.99,-3.0,-0.1,-0.2,680,0,,,,,,,,,,,,,,,,,,,
7254054,1495307648225,,,,,,,,0.05,0.07,1.0,-3.0,-0.1,-0.2,680,0,,,,,,,,,,,,,,,,,,,
7254074,1495307648245,,,,,,,,0.05,0.08,0.99,-3.0,-0.1,-0.1,680,0,,,,,,,,,,,,,,,,,,,
7254096,1495307648267,,,,,21,,,0.05,0.08,0.99,-3.0,-0.1,-0.2,680,0,1,1,0.0,0,39.540588,-122.332367,0.0,4.2,388.0,11,3,1.3,15,4.26,8,0.1633,32.6073,32.0617,16
7254115,1495307648286,,,,,,,,0.05,0.07,1.0,-2.9,-0.0,-0.2,680,0,,,,,,,,,,,,,,,,,,,
7254135,1495307648304,,,,,,,,0.05,0.07,0.99,-3.0,-0.0,-0.2,680,0,,,,,,,,,,,,,,,,,,,
7254155,1495307648324,,,,,,,,0.05,0.08,0.99,-3.0,-0.0,-0.2,700,0,,,,,,,,,,,,,,,,,,,
7254175,1495307648344,,,,,,,,0.05,0.07,0.99,-3.0,-0.0,-0.2,680,0,,,,,,,,,,,,,,,,,,,
7254197,1495307648366,0,145.8,-0.6,165.2,21,160.7,14.49,0.05,0.07,0.99,-3.0,-0.0,-0.2,680,0,1,1,0.0,0,39.540588,-122.332367,0.0,4.2,388.0,11,3,1.3,15,4.26,8,0.1633,32.6089,32.0633,16
7254216,1495307648385,,,,,,,,0.05,0.08,0.99,-3.0,-0.1,-0.1,680,0,,,,,,,,,,,,,,,,,,,
7254236,1495307648407,,,,,,,,0.05,0.08,0.99,-2.9,-0.1,-0.2,680,0,,,,,,,,,,,,,,,,,,,
7254256,1495307648427,,,,,,,,0.05,0.08,0.99,-2.9,-0.2,-0.2,680,0,,,,,,,,,,,,,,,,,,,
7254276,1495307648447,,,,,,,,0.05,0.08,0.99,-3.0,-0.1,-0.1,680,0,,,,,,,,,,,,,,,,,,,
