"Interval"|"ms"|0|0|1,"Utc"|"ms"|0|0|1,"FuelLevel"|"F"|0|100|5,"OilTemp"|"F"|0.0|300.0|5,"CoolantPressPSI"|"PSI"|0.0|20.0|1,"Coolant"|"F"|0.0|300.0|5,"OilPress"|"PSI"|0|150|10,"EngineTemp"|"F"|0.0|300.0|5,"Battery"|"Volts"|0.0|20.0|1,"AccelX"|"G"|-3.0|3.0|50,"AccelY"|"G"|-3.0|3.0|50,"AccelZ"|"G"|-3.0|3.0|50,"Yaw"|"Deg/Sec"|-300.0|300.0|50,"Pitch"|"Deg/Sec"|-300.0|300.0|50,"Roll"|"Deg/Sec"|-300.0|300.0|50,"RPM"|""|0|10000|50,"Driveshaft"|"RPM"|0|5000|50,"GPIO1"|""|0|1|10,"GPIO2"|""|0|1|10,"GearRatio"|""|-5.0|5.0|10,"Gear"|""|-1|5|10,"Latitude"|"Degrees"|-180.0|180.0|10,"Longitude"|"Degrees"|-180.0|180.0|10,"Speed"|"mph"|0.0|150.0|10,"Distance"|"mi"|0.0|0.0|10,"Altitude"|"ft"|0.0|4000.0|10,"GPSSats"|""|0|20|10,"GPSQual"|""|0|5|10,"GPSDOP"|""|0.0|20.0|10,"LapCount"|""|0|0|10,"LapTime"|"Min"|0.0|0.0|10,"Sector"|""|0|0|10,"SectorTime"|"Min"|0.0|0.0|10,"PredTime"|"Min"|0.0|0.0|10,"ElapsedTime"|"Min"|0.0|0.0|10,"CurrentLap"|""|0|0|10
9943442,1495310337667,,,,,,,,0.04,0.04,0.97,-3.2,0.2,0.1,860,0,,,,,,,,,,,,,,,,,,,
9943300,1495310337525,,,,,,,,0.03,0.02,0.98,-3.0,0.0,-0.4,260,0,,,,,,,,,,,,,,,,,,,
9943322,1495310337547,,,,,2,,,0.04,0.03,0.98,-3.0,-0.0,-0.2,420,0,0,0,0.0,0,39.538612,-122.332062,0.0,4.354,312.5,9,3,1.9,15,4.26,8,0.1633,76.8904,76.8833,16
9943341,1495310337566,,,,,,,,0.04,0.03,0.99,-3.0,0.1,-0.2,420,0,,,,,,,,,,,,,,,,,,,
9943361,1495310337586,,,,,,,,0.04,0.04,0.98,-3.1,0.1,-0.1,500,0,,,,,,,,,,,,,,,,,,,
9943381,1495310337606,,,,,,,,0.03,0.01,1.0,-2.9,0.1,-0.2,620,0,,,,,,,,,,,,,,,,,,,
9943401,1495310337626,,,,,,,,0.02,0.02,0.98,-3.0,0.2,-0.2,620,0,,,,,,,,,,,,,,,,,,,
9943423,1495310337648,0,137.6,,168.5,3,164.8,,0.03,0.04,0.98,-3.1,0.4,-0.0,760,0,0,0,0.0,0,39.538612,-122.332062,0.0,4.354,312.5,9,3,1.9,15,4.26,8,0.1633,76.8921,76.885,16
9943442,1495310337667,,,,,,,,0.04,0.04,0.97,-3.2,0.2,0.1,860,0,,,,,,,,,,,,,,,,,,,
9943482,1495310337707,,,,,,,,0.04,0.08,0.99,-3.3,0.0,0.1,880,0,,,,,,,,,,,,,,,,,,,
9943502,1495310337727,,,,,,,,0.03,0.08,0.98,-3.2,0.1,0.0,860,0,,,,,,,,,,,,,,,,,,,
9943524,1495310337749,,,,,7,,,0.03,0.07,0.99,-3.1,0.1,-0.1,820,0,0,1,0.0,0,39.538612,-122.332062,0.0,4.354,312.5,9,3,1.9,15,4.26,8,0.1633,76.8938,76.8867,16
9943543,1495310337768,,,,,,,,0.02,0.05,0.99,-3.1,0.2,-0.3,840,0,,,,,,,,,,,,,,,,,,,
9943563,1495310337788,,,,,,,,0.02,0.03,0.98,-3.1,0.1,-0.3,840,0,,,,,,,,,,,,,,,,,,,
9943583,1495310337808,,,,,,,,0.02,0.04,0.97,-3.1,0.1,-0.3,900,0,,,,,,,,,,,,,,,,,,,
9943603,1495310337828,,,,,,,,0.03,0.05,0.99,-3.2,0.4,-0.3,940,0,,,,,,,,,,,,,,,,,,,
9943625,1495310337850,0,137.6,,168.0,12,164.5,,0.04,0.06,0.99,-3.2,0.6,-0.2,960,0,0,1,0.0,0,39.538612,-122.332062,0.0,4.354,312.5,9,3,1.9,15,4.26,8,0.1633,76.8954,76.8883,16
9943644,1495310337869,,,,,,,,0.05,0.07,0.99,-3.2,0.7,-0.1,980,0,,,,,,,,,,,,,,,,,,,
9943664,1495310337889,,,,,,,,0.05,0.07,1.0,-3.2,0.7,-0.0,1040,0,,,,,,,,,,,,,,,,,,,
9943684,1495310337908,,,,,,,,0.05,0.07,1.0,-3.2,0.7,-0.0,1080,0,,,,,,,,,,,,,,,,,,,
9943704,1495310337928,,,,,,,,0.05,0.06,1.0,-3.1,0.6,-0.0,1100,0,,,,,,,,,,,,,,,,,,,
9943726,1495310337950,,,,,19,,,0.04,0.07,1.0,-3.1,0.4,-0.1,1100,0,0,1,0.0,0,39.538612,-122.332062,0.0,4.354,312.5,9,3,1.9,15,4.26,8,0.1633,76.8971,76.89,16
9943745,1495310337969,,,,,,,,0.04,0.07,1.0,-3.1,0.3,-0.2,1120,0,,,,,,,,,,,,,,,,,,,
9943765,1495310337989,,,,,,,,0.04,0.07,0.99,-3.1,0.4,-0.2,1140,0,,,,,,,,,,,,,,,,,,,
9943785,1495310338003,,,,,,,,0.04,0.07,0.99,-3.1,0.4,-0.2,1140,0,,,,,,,,,,,,,,,,,,,
9943805,1495310338023,,,,,,,,0.04,0.07,0.99,-3.1,0.2,-0.2,1160,0,,,,,,,,,,,,,,,,,,,
9943827,1495310338045,0,138.0,-0.7,168.3,33,164.7,14.36,0.04,0.07,0.98,-3.1,0.3,-0.3,1160,0,1,1,0.0,0,39.538612,-122.332062,0.0,4.354,312.5,9,3,1.9,15,4.26,8,0.1633,76.8987,76.8917,16
9943846,1495310338064,,,,,,,,0.03,0.07,0.99,-3.1,0.3,-0.3,1160,0,,,,,,,,,,,,,,,,,,,
9943866,1495310338092,,,,,,,,0.04,0.07,0.99,-3.1,0.2,-0.3,1180,0,,,,,,,,,,,,,,,,,,,
9943886,1495310338112,,,,,,,,0.03,0.07,1.0,-3.1,0.2,-0.2,1180,0,,,,,,,,,,,,,,,,,,,
9943906,1495310338132,,,,,,,,0.03,0.07,1.0,-3.1,0.0,-0.2,1180,0,,,,,,,,,,,,,,,,,,,
9943928,1495310338154,,,,,40,,,0.03,0.07,1.0,-3.1,0.0,-0.1,1180,0,1,1,0.0,0,39.538612,-122.332062,0.0,4.354,312.5,9,3,1.9,15,4.26,8,0.1633,76.9005,76.8933,16
9943947,1495310338173,,,,,,,,0.03,0.07,1.0,-3.1,0.1,-0.2,1180,0,,,,,,,,,,,,,,,,,,,
9943967,1495310338193,,,,,,,,0.03,0.07,0.99,-3.1,-0.0,-0.2,1180,0,,,,,,,,,,,,,,,,,,,
9943987,1495310338213,,,,,,,,0.03,0.07,1.0,-3.1,0.1,-0.2,1180,0,,,,,,,,,,,,,,,,,,,
9944007,1495310338233,,,,,,,,0.03,0.07,0.99,-3.1,0.0,-0.2,1180,0,,,,,,,,,,,,,,,,,,,
9944029,1495310338255,0,137.7,,168.0,45,164.7,,0.03,0.06,1.0,-3.1,0.2,-0.2,1160,0,1,1,0.0,0,39.538612,-122.332062,0.0,4.354,312.5,9,3,1.9,15,4.26,8,0.1633,76.9022,76.895,16
9944048,1495310338274,,,,,,,,0.02,0.06,1.0,-3.1,0.1,-0.2,1160,0,,,,,,,,,,,,,,,,,,,
9944068,1495310338294,,,,,,,,0.03,0.06,1.0,-3.1,0.0,-0.2,1140,0,,,,,,,,,,,,,,,,,,,
9944088,1495310338314,,,,,,,,0.03,0.06,1.0,-3.1,0.0,-0.2,1140,0,,,,,,,,,,,,,,,,,,,
9944108,1495310338334,,,,,,,,0.02,0.05,1.0,-3.1,0.0,-0.2,1140,0,,,,,,,,,,,,,,,,,,,
9944130,1495310338356,,,,,50,,,0.02,0.06,0.99,-3.1,-0.1,-0.2,1120,0,1,1,0.0,0,39.538612,-122.332062,0.0,4.354,312.5,9,3,1.9,15,4.26,8,0.1633,76.9039,76.8967,16
9944149,1495310338375,,,,,,,,0.02,0.05,0.98,-3.1,-0.0,-0.2,1100,0,,,,,,,,,,,,,,,,,,,
9944169,1495310338395,,,,,,,,0.02,0.04,0.98,-3.1,-0.0,-0.1,1080,0,,,,,,,,,,,,,,,,,,,
9944189,1495310338415,,,,,,,,0.02,0.05,0.98,-3.1,-0.2,-0.1,1060,0,,,,,,,,,,,,,,,,,,,
9944209,1495310338435,,,,,,,,0.02,0.04,0.99,-3.1,-0.1,-0.1,1060,0,,,,,,,,,,,,,,,,,,,
9944231,1495310338457,0,138.1,,168.3,45,165.0,,0.03,0.05,0.99,-3.1,-0.2,-0.1,1060,0,1,1,0.0,0,39.538612,-122.332062,0.0,4.354,312.5,9,3,1.9,15,4.26,8,0.1633,76.9056,76.8983,16
9944250,1495310338476,,,,,,,,0.03,0.05,0.99,-3.1,-0.1,-0.0,1040,0,,,,,,,,,,,,,,,,,,,
9944270,1495310338496,,,,,,,,0.03,0.05,0.99,-3.1,-0.1,-0.1,1020,0,,,,,,,,,,,,,,,,,,,
9944290,1495310338516,,,,,,,,0.03,0.05,0.99,-3.1,-0.1,-0.1,1020,0,,,,,,,,,,,,,,,,,,,
9944310,1495310338536,,,,,,,,0.02,0.05,0.98,-3.1,-0.1,-0.1,1000,0,,,,,,,,,,,,,,,,,,,
9944332,1495310338558,,,,,48,,,0.02,0.05,0.99,-3.1,-0.0,-0.1,1000,0,1,1,0.0,0,39.538612,-122.332062,0.0,4.354,312.5,9,3,1.9,15,4.26,8,0.1633,76.9072,76.9,16
9944351,1495310338577,,,,,,,,0.02,0.05,0.99,-3.1,0.0,-0.2,980,0,,,,,,,,,,,,,,,,,,,
9944371,1495310338597,,,,,,,,0.02,0.06,0.99,-3.1,0.0,-0.2,960,0,,,,,,,,,,,,,,,,,,,
9944391,1495310338617,,,,,,,,0.02,0.05,1.0,-3.1,0.1,-0.2,960,0,,,,,,,,,,,,,,,,,,,
9944411,1495310338637,,,,,,,,0.02,0.05,0.99,-3.1,0.1,-0.2,940,0,,,,,,,,,,,,,,,,,,,
9944433,1495310338659,0,137.4,,167.8,40,164.4,,0.02,0.05,0.99,-3.1,0.1,-0.2,940,0,1,1,0.0,0,39.538612,-122.332062,0.0,4.354,312.5,9,3,1.9,15,4.26,8,0.1633,76.9089,76.9017,16
9944452,1495310338678,,,,,,,,0.01,0.04,0.99,-3.1,0.2,-0.2,920,0,,,,,,,,,,,,,,,,,,,
9944472,1495310338698,,,,,,,,0.02,0.03,0.99,-3.1,0.3,-0.2,920,0,,,,,,,,,,,,,,,,,,,
9944492,1495310338718,,,,,,,,0.02,0.03,0.98,-3.1,0.2,-0.1,900,0,,,,,,,,,,,,,,,,,,,
9944512,1495310338738,,,,,,,,0.02,0.04,0.99,-3.0,0.2,-0.1,880,0,,,,,,,,,,,,,,,,,,,
9944534,1495310338760,,,,,41,,,0.02,0.04,0.99,-3.0,0.1,-0.1,880,0,1,1,0.0,0,39.538612,-122.332062,0.0,4.354,312.5,9,3,1.9,15,4.26,8,0.1633,76.9106,76.9033,16
9944553,1495310338779,,,,,,,,0.02,0.04,0.99,-3.1,0.1,0.0,880,0,,,,,,,,,,,,,,,,,,,
9944573,1495310338798,,,,,,,,0.02,0.04,0.99,-3.1,0.1,0.0,880,0,,,,,,,,,,,,,,,,,,,
9944593,1495310338818,,,,,,,,0.02,0.05,0.99,-3.0,0.1,-0.0,860,0,,,,,,,,,,,,,,,,,,,
9944613,1495310338838,,,,,,,,0.02,0.05,0.99,-3.0,-0.0,-0.0,860,0,,,,,,,,,,,,,,,,,,,
9944635,1495310338860,0,137.5,,167.9,39,164.4,,0.02,0.06,1.0,-3.0,-0.1,-0.1,840,0,1,1,0.0,0,39.538612,-122.332062,0.0,4.354,312.5,9,3,1.9,15,4.26,8,0.1633,76.9123,76.905,16
9944654,1495310338879,,,,,,,,0.02,0.06,1.0,-3.0,0.0,-0.1,820,0,,,,,,,,,,,,,,,,,,,
9944674,1495310338899,,,,,,,,0.02,0.06,0.99,-3.0,0.0,-0.2,820,0,,,,,,,,,,,,,,,,,,,
9944694,1495310338919,,,,,,,,0.03,0.06,0.99,-3.0,-0.1,-0.1,820,0,,,,,,,,,,,,,,,,,,,
9944714,1495310338939,,,,,,,,0.03,0.06,0.99,-3.0,-0.1,-0.0,800,0,,,,,,,,,,,,,,,,,,,
9944736,1495310338961,,,,,38,,,0.03,0.07,0.99,-3.1,-0.2,-0.0,800,0,1,1,0.0,0,39.538612,-122.332062,0.0,4.354,312.5,9,3,1.9,15,4.26,8,0.1633,76.914,76.9067,16
9944755,1495310338980,,,,,,,,0.03,0.07,0.99,-3.1,-0.3,-0.1,800,0,,,,,,,,,,,,,,,,,,,
9944775,1495310338995,,,,,,,,0.02,0.06,0.99,-3.0,-0.3,-0.1,800,0,,,,,,,,,,,,,,,,,,,
9944795,1495310339015,,,,,,,,0.02,0.06,0.99,-3.0,-0.3,-0.1,800,0,,,,,,,,,,,,,,,,,,,
9944815,1495310339035,,,,,,,,0.03,0.06,0.98,-3.0,-0.2,-0.1,780,0,,,,,,,,,,,,,,,,,,,
9944837,1495310339057,0,137.7,-0.7,168.1,38,164.5,14.48,0.03,0.06,0.99,-3.1,-0.2,-0.1,780,0,1,1,0.0,0,39.538612,-122.332062,0.0,4.354,312.5,9,3,1.9,15,4.26,8,0.1633,76.9156,76.9083,16
9944856,1495310339076,,,,,,,,0.03,0.07,0.99,-3.1,-0.3,-0.1,780,0,,,,,,,,,,,,,,,,,,,
9944876,1495310339101,,,,,,,,0.03,0.05,0.99,-3.0,-0.3,-0.2,780,0,,,,,,,,,,,,,,,,,,,
9944896,1495310339121,,,,,,,,0.03,0.05,0.98,-3.0,-0.3,-0.1,780,0,,,,,,,,,,,,,,,,,,,
9944916,1495310339141,,,,,,,,0.03,0.05,0.98,-3.0,-0.3,-0.1,780,0,,,,,,,,,,,,,,,,,,,
9944938,1495310339163,,,,,36,,,0.03,0.05,0.98,-3.0,-0.3,-0.1,780,0,1,1,0.0,0,39.538612,-122.332062,0.0,4.354,312.5,9,3,1.9,15,4.26,8,0.1633,76.9173,76.91,16
9944957,1495310339182,,,,,,,,0.03,0.05,0.99,-3.0,-0.3,-0.1,780,0,,,,,,,,,,,,,,,,,,,
9944977,1495310339202,,,,,,,,0.02,0.04,0.99,-3.0,-0.3,-0.2,780,0,,,,,,,,,,,,,,,,,,,
9944997,1495310339222,,,,,,,,0.02,0.04,0.98,-3.0,-0.3,-0.2,780,0,,,,,,,,,,,,,,,,,,,
9945017,1495310339242,,,,,,,,0.03,0.05,0.98,-3.0,-0.2,-0.1,780,0,,,,,,,,,,,,,,,,,,,
9945039,1495310339264,0,138.1,,168.5,35,165.0,,0.03,0.05,0.99,-3.0,-0.2,-0.1,780,0,1,1,0.0,0,39.538612,-122.332062,0.0,4.354,312.5,9,3,1.9,15,4.26,8,0.1633,76.919,76.9117,16
9945058,1495310339283,,,,,,,,0.02,0.05,0.99,-3.0,-0.2,-0.2,780,0,,,,,,,,,,,,,,,,,,,
9945078,1495310339303,,,,,,,,0.02,0.04,0.99,-3.0,-0.3,-0.2,780,0,,,,,,,,,,,,,,,,,,,
9945098,1495310339323,,,,,,,,0.02,0.04,0.99,-3.0,-0.2,-0.2,780,0,,,,,,,,,,,,,,,,,,,
9945118,1495310339343,,,,,,,,0.02,0.04,0.99,-3.0,-0.2,-0.1,780,0,,,,,,,,,,,,,,,,,,,
9945140,1495310339365,,,,,36,,,0.02,0.05,0.99,-3.0,-0.2,-0.1,780,0,1,1,0.0,0,39.538612,-122.332062,0.0,4.354,312.5,9,3,1.9,15,4.26,8,0.1633,76.9207,76.9133,16
9945159,1495310339384,,,,,,,,0.02,0.05,0.99,-3.0,-0.2,-0.1,780,0,,,,,,,,,,,,,,,,,,,
9945179,1495310339404,,,,,,,,0.02,0.04,0.99,-3.0,-0.2,-0.2,780,0,,,,,,,,,,,,,,,,,,,
9945199,1495310339424,,,,,,,,0.02,0.04,0.98,-3.0,-0.2,-0.2,780,0,,,,,,,,,,,,,,,,,,,
9945219,1495310339444,,,,,,,,0.02,0.04,0.98,-3.0,-0.2,-0.2,800,0,,,,,,,,,,,,,,,,,,,
9945241,1495310339466,0,138.2,,168.4,35,165.0,,0.03,0.05,0.99,-3.0,-0.2,-0.1,800,0,1,1,0.0,0,39.538612,-122.332062,0.0,4.354,312.5,9,3,1.9,15,4.26,8,0.1633,76.9224,76.915,16
9945260,1495310339485,,,,,,,,0.02,0.05,0.99,-3.0,-0.3,-0.1,800,0,,,,,,,,,,,,,,,,,,,
9945280,1495310339505,,,,,,,,0.02,0.04,0.99,-3.0,-0.3,-0.2,800,0,,,,,,,,,,,,,,,,,,,
9945300,1495310339525,,,,,,,,0.02,0.04,0.98,-3.0,-0.2,-0.2,800,0,,,,,,,,,,,,,,,,,,,
9945320,1495310339545,,,,,,,,0.02,0.04,0.98,-3.0,-0.2,-0.2,800,0,,,,,,,,,,,,,,,,,,,
9945342,1495310339567,,,,,33,,,0.03,0.05,0.98,-3.0,-0.1,-0.1,800,0,1,1,0.0,0,39.538612,-122.332062,0.0,4.354,312.5,9,3,1.9,15,4.26,8,0.1633,76.9241,76.9167,16
9945361,1495310339586,,,,,,,,0.03,0.05,0.99,-3.0,-0.1,-0.1,800,0,,,,,,,,,,,,,,,,,,,
9945381,1495310339606,,,,,,,,0.03,0.05,0.99,-3.0,-0.1,-0.2,800,0,,,,,,,,,,,,,,,,,,,
9945401,1495310339626,,,,,,,,0.02,0.04,0.99,-3.0,-0.0,-0.2,800,0,,,,,,,,,,,,,,,,,,,
9945421,1495310339646,,,,,,,,0.02,0.04,0.99,-3.0,-0.0,-0.2,800,0,,,,,,,,,,,,,,,,,,,
9945443,1495310339668,0,138.2,,168.5,37,165.0,,0.02,0.04,0.99,-3.0,0.0,-0.2,800,0,1,1,0.0,0,39.538612,-122.332062,0.0,4.354,312.5,9,3,1.9,15,4.26,8,0.1633,76.9258,76.9183,16
9945462,1495310339687,,,,,,,,0.03,0.04,0.99,-3.1,0.1,-0.1,820,0,,,,,,,,,,,,,,,,,,,
9945482,1495310339707,,,,,,,,0.03,0.05,0.99,-3.1,0.0,-0.1,820,0,,,,,,,,,,,,,,,,,,,
9945502,1495310339727,,,,,,,,0.03,0.04,1.0,-3.0,0.1,-0.1,820,0,,,,,,,,,,,,,,,,,,,
9945522,1495310339747,,,,,,,,0.03,0.04,0.99,-3.0,0.1,-0.2,800,0,,,,,,,,,,,,,,,,,,,
9945544,1495310339769,,,,,33,,,0.03,0.04,0.99,-3.0,-0.0,-0.2,800,0,1,1,0.0,0,39.538612,-122.332062,0.0,4.354,312.5,9,3,1.9,15,4.26,8,0.1633,76.9274,76.92,16
9945563,1495310339788,,,,,,,,0.03,0.05,0.99,-3.1,0.0,-0.2,800,0,,,,,,,,,,,,,,,,,,,
9945583,1495310339809,,,,,,,,0.03,0.05,0.99,-3.1,-0.0,-0.1,800,0,,,,,,,,,,,,,,,,,,,
9945603,1495310339829,,,,,,,,0.02,0.05,0.99,-3.1,-0.1,-0.1,820,0,,,,,,,,,,,,,,,,,,,
9945623,1495310339849,,,,,,,,0.03,0.04,0.99,-3.0,-0.1,-0.2,820,0,,,,,,,,,,,,,,,,,,,
9945645,1495310339871,1,137.3,,167.8,37,164.3,,0.03,0.04,0.99,-3.0,-0.1,-0.2,800,0,1,1,0.0,0,39.538612,-122.332062,0.0,4.354,312.5,9,3,1.9,15,4.26,8,0.1633,76.9291,76.9217,16
9945664,1495310339890,,,,,,,,0.03,0.04,0.99,-3.0,-0.1,-0.2,800,0,,,,,,,,,,,,,,,,,,,
9945684,1495310339910,,,,,,,,0.03,0.05,0.99,-3.1,-0.0,-0.1,800,0,,,,,,,,,,,,,,,,,,,
9945704,1495310339930,,,,,,,,0.03,0.05,0.99,-3.1,-0.0,-0.1,800,0,,,,,,,,,,,,,,,,,,,
9945724,1495310339950,,,,,,,,0.02,0.05,0.99,-3.1,0.0,-0.2,800,0,,,,,,,,,,,,,,,,,,,
9945746,1495310339972,,,,,36,,,0.02,0.04,0.99,-3.0,0.0,-0.2,800,0,1,1,0.0,0,39.538612,-122.332062,0.0,4.354,312.5,9,3,1.9,15,4.26,8,0.1633,76.9308,76.9233,16
9945765,1495310339991,,,,,,,,0.02,0.04,0.99,-3.0,0.0,-0.2,820,0,,,,,,,,,,,,,,,,,,,
9945785,1495310340003,,,,,,,,0.02,0.04,0.98,-3.0,-0.1,-0.2,820,0,,,,,,,,,,,,,,,,,,,
9945805,1495310340023,,,,,,,,0.03,0.04,0.99,-3.1,-0.0,-0.2,820,0,,,,,,,,,,,,,,,,,,,
9945825,1495310340043,,,,,,,,0.03,0.04,0.99,-3.1,-0.1,-0.1,800,0,,,,,,,,,,,,,,,,,,,
9945847,1495310340065,0,137.9,-0.6,168.2,35,164.7,14.47,0.02,0.04,0.99,-3.0,-0.1,-0.2,820,0,1,1,0.0,0,39.538612,-122.332062,0.0,4.354,312.5,9,3,1.9,15,4.26,8,0.1633,76.9324,76.925,16
9945866,1495310340092,,,,,,,,0.02,0.04,0.99,-3.0,-0.1,-0.2,800,0,,,,,,,,,,,,,,,,,,,
9945886,1495310340112,,,,,,,,0.02,0.04,0.99,-3.0,-0.1,-0.2,800,0,,,,,,,,,,,,,,,,,,,
9945906,1495310340132,,,,,,,,0.02,0.04,0.99,-3.0,-0.2,-0.2,820,0,,,,,,,,,,,,,,,,,,,
9945926,1495310340152,,,,,,,,0.03,0.04,0.99,-3.1,-0.1,-0.2,820,0,,,,,,,,,,,,,,,,,,,
9945948,1495310340174,,,,,38,,,0.02,0.05,0.99,-3.0,-0.2,-0.1,820,0,1,1,0.0,0,39.538612,-122.332062,0.0,4.354,312.5,9,3,1.9,15,4.26,8,0.1633,76.9342,76.9267,16
9945967,1495310340193,,,,,,,,0.02,0.05,0.99,-3.0,-0.1,-0.2,800,0,,,,,,,,,,,,,,,,,,,
9945987,1495310340213,,,,,,,,0.02,0.04,0.99,-3.0,-0.1,-0.2,800,0,,,,,,,,,,,,,,,,,,,
9946007,1495310340233,,,,,,,,0.03,0.04,0.99,-3.0,-0.1,-0.2,800,0,,,,,,,,,,,,,,,,,,,
9946027,1495310340253,,,,,,,,0.03,0.04,0.98,-3.0,-0.0,-0.2,800,0,,,,,,,,,,,,,,,,,,,
9946049,1495310340275,0,137.7,,168.1,34,164.5,,0.03,0.04,0.99,-3.0,0.0,-0.1,800,0,1,1,0.0,0,39.538612,-122.332062,0.0,4.354,312.5,9,3,1.9,15,4.26,8,0.1633,76.9359,76.9283,16
9946068,1495310340294,,,,,,,,0.03,0.05,0.99,-3.0,-0.1,-0.1,820,0,,,,,,,,,,,,,,,,,,,
9946088,1495310340314,,,,,,,,0.03,0.04,0.99,-3.0,-0.0,-0.1,820,0,,,,,,,,,,,,,,,,,,,
9946108,1495310340334,,,,,,,,0.02,0.04,0.99,-3.0,-0.1,-0.2,800,0,,,,,,,,,,,,,,,,,,,
9946128,1495310340354,,,,,,,,0.02,0.04,0.99,-3.0,-0.1,-0.2,800,0,,,,,,,,,,,,,,,,,,,
9946150,1495310340376,,,,,38,,,0.02,0.05,0.99,-3.0,-0.1,-0.1,800,0,1,1,0.0,0,39.538612,-122.332062,0.0,4.354,312.5,9,3,1.9,15,4.26,8,0.1633,76.9376,76.93,16
9946169,1495310340391,,,,,,,,0.03,0.05,0.99,-3.0,-0.1,-0.1,800,0,,,,,,,,,,,,,,,,,,,
9946189,1495310340411,,,,,,,,0.03,0.05,0.99,-3.0,-0.2,-0.1,800,0,,,,,,,,,,,,,,,,,,,
9946209,1495310340431,,,,,,,,0.02,0.04,0.99,-3.0,-0.2,-0.2,820,0,,,,,,,,,,,,,,,,,,,
9946229,1495310340451,,,,,,,,0.02,0.04,0.99,-2.9,-0.2,-0.2,820,0,,,,,,,,,,,,,,,,,,,
9946251,1495310340473,0,137.9,,168.4,36,164.9,,0.02,0.04,0.98,-2.9,-0.2,-0.2,820,0,1,1,0.0,0,39.538612,-122.332062,0.0,4.354,312.5,9,3,1.9,15,4.26,8,0.1633,76.9392,76.9317,16
9946270,1495310340496,,,,,,,,0.02,0.04,0.99,-3.0,-0.2,-0.2,820,0,,,,,,,,,,,,,,,,,,,
9946290,1495310340516,,,,,,,,0.03,0.04,0.99,-3.0,-0.1,-0.1,820,0,,,,,,,,,,,,,,,,,,,
9946310,1495310340536,,,,,,,,0.02,0.04,0.99,-3.0,-0.1,-0.1,800,0,,,,,,,,,,,,,,,,,,,
9946330,1495310340556,,,,,,,,0.02,0.04,0.99,-3.0,-0.1,-0.2,820,0,,,,,,,,,,,,,,,,,,,
9946352,1495310340578,,,,,35,,,0.02,0.04,0.99,-3.0,-0.1,-0.2,820,0,1,1,0.0,0,39.538612,-122.332062,0.0,4.354,312.5,9,3,1.9,15,4.26,8,0.1633,76.9409,76.9333,16
9946371,1495310340597,,,,,,,,0.02,0.03,0.99,-3.0,-0.1,-0.2,820,0,,,,,,,,,,,,,,,,,,,
9946391,1495310340617,,,,,,,,0.02,0.04,0.99,-3.0,-0.1,-0.1,820,0,,,,,,,,,,,,,,,,,,,
9946411,1495310340637,,,,,,,,0.02,0.04,0.99,-3.0,-0.2,-0.1,800,0,,,,,,,,,,,,,,,,,,,
9946431,1495310340657,,,,,,,,0.02,0.04,0.99,-3.0,-0.2,-0.1,820,0,,,,,,,,,,,,,,,,,,,
9946453,1495310340679,0,138.1,,168.5,38,164.5,,0.02,0.04,0.99,-3.0,-0.2,-0.2,800,0,1,1,0.0,0,39.538612,-122.332062,0.0,4.354,312.5,9,3,1.9,15,4.26,8,0.1633,76.9426,76.935,16
9946472,1495310340698,,,,,,,,0.02,0.03,0.99,-3.0,-0.1,-0.2,820,0,,,,,,,,,,,,,,,,,,,
9946492,1495310340718,,,,,,,,0.02,0.04,0.99,-3.0,-0.1,-0.2,820,0,,,,,,,,,,,,,,,,,,,
9946512,1495310340738,,,,,,,,0.02,0.04,0.99,-3.0,-0.1,-0.1,820,0,,,,,,,,,,,,,,,,,,,
9946532,1495310340758,,,,,,,,0.02,0.05,0.99,-3.0,-0.1,-0.1,820,0,,,,,,,,,,,,,,,,,,,
9946554,1495310340780,,,,,35,,,0.02,0.05,0.99,-3.0,-0.1,-0.1,820,0,1,1,0.0,0,39.538612,-122.332062,0.0,4.354,312.5,9,3,1.9,15,4.26,8,0.1633,76.9443,76.9367,16
9946573,1495310340799,,,,,,,,0.02,0.04,0.99,-3.0,-0.1,-0.2,820,0,,,,,,,,,,,,,,,,,,,
9946593,1495310340819,,,,,,,,0.02,0.04,0.99,-3.0,-0.1,-0.2,820,0,,,,,,,,,,,,,,,,,,,
9946613,1495310340839,,,,,,,,0.02,0.04,0.98,-3.0,-0.1,-0.2,820,0,,,,,,,,,,,,,,,,,,,
9946633,1495310340859,,,,,,,,0.02,0.04,0.99,-3.0,-0.0,-0.2,820,0,,,,,,,,,,,,,,,,,,,
9946655,1495310340881,0,138.2,,168.6,37,165.0,,0.02,0.05,0.99,-3.0,-0.1,-0.1,820,0,1,1,0.0,0,39.538612,-122.332062,0.0,4.354,312.5,9,3,1.9,15,4.26,8,0.1633,76.946,76.9383,16
9946674,1495310340899,,,,,,,,0.02,0.05,0.99,-3.0,-0.1,-0.1,820,0,,,,,,,,,,,,,,,,,,,
9946694,1495310340919,,,,,,,,0.02,0.04,0.99,-3.0,-0.2,-0.2,820,0,,,,,,,,,,,,,,,,,,,
9946714,1495310340939,,,,,,,,0.02,0.04,0.98,-3.0,-0.2,-0.2,820,0,,,,,,,,,,,,,,,,,,,
9946734,1495310340959,,,,,,,,0.02,0.04,0.98,-3.0,-0.2,-0.2,820,0,,,,,,,,,,,,,,,,,,,
9946756,1495310340981,,,,,34,,,0.03,0.05,0.98,-3.0,-0.1,-0.1,820,0,1,1,0.0,0,39.538612,-122.332062,0.0,4.354,312.5,9,3,1.9,15,4.26,8,0.1633,76.9476,76.94,16
9946775,1495310341000,,,,,,,,0.03,0.05,0.99,-3.0,-0.1,-0.1,820,0,,,,,,,,,,,,,,,,,,,
9946795,1495310341010,,,,,,,,0.03,0.05,0.99,-3.0,-0.1,-0.1,820,0,,,,,,,,,,,,,,,,,,,
9946815,1495310341030,,,,,,,,0.03,0.05,0.99,-3.0,-0.1,-0.2,820,0,,,,,,,,,,,,,,,,,,,
9946835,1495310341050,,,,,,,,0.02,0.05,0.99,-3.0,-0.1,-0.2,820,0,,,,,,,,,,,,,,,,,,,
9946857,1495310341072,0,138.2,-0.5,168.7,40,165.0,14.52,0.02,0.05,0.99,-3.0,-0.1,-0.2,800,0,1,1,0.0,0,39.538612,-122.332062,0.0,4.354,312.5,9,3,1.9,15,4.26,8,0.1633,76.9492,76.9417,16
9946876,1495310341101,,,,,,,,0.02,0.05,0.99,-3.0,-0.1,-0.2,800,0,,,,,,,,,,,,,,,,,,,
9946896,1495310341121,,,,,,,,0.02,0.05,0.99,-3.0,-0.1,-0.1,800,0,,,,,,,,,,,,,,,,,,,
9946916,1495310341141,,,,,,,,0.02,0.05,0.99,-3.0,-0.1,-0.2,800,0,,,,,,,,,,,,,,,,,,,
9946936,1495310341161,,,,,,,,0.02,0.04,0.99,-3.0,-0.1,-0.2,800,0,,,,,,,,,,,,,,,,,,,
9946958,1495310341183,,,,,38,,,0.02,0.04,0.99,-3.0,-0.1,-0.2,800,0,1,1,0.0,0,39.538612,-122.332062,0.0,4.354,312.5,9,3,1.9,15,4.26,8,0.1633,76.951,76.9433,16
9946977,1495310341202,,,,,,,,0.02,0.04,0.99,-3.0,-0.1,-0.2,800,0,,,,,,,,,,,,,,,,,,,
9946997,1495310341222,,,,,,,,0.03,0.04,0.99,-3.0,-0.1,-0.2,800,0,,,,,,,,,,,,,,,,,,,
9947017,1495310341242,,,,,,,,0.03,0.05,0.99,-3.0,-0.1,-0.2,800,0,,,,,,,,,,,,,,,,,,,
9947037,1495310341262,,,,,,,,0.03,0.04,0.99,-3.0,-0.1,-0.2,800,0,,,,,,,,,,,,,,,,,,,
9947059,1495310341284,1,137.5,,168.0,36,164.4,,0.03,0.04,0.99,-3.0,-0.1,-0.2,800,0,1,1,0.0,0,39.538612,-122.332062,0.0,4.354,312.5,9,3,1.9,15,4.26,8,0.1633,76.9527,76.945,16
9947078,1495310341303,,,,,,,,0.03,0.04,0.99,-3.0,-0.1,-0.2,800,0,,,,,,,,,,,,,,,,,,,
9947098,1495310341323,,,,,,,,0.03,0.04,0.99,-3.0,-0.0,-0.2,800,0,,,,,,,,,,,,,,,,,,,
9947118,1495310341343,,,,,,,,0.03,0.04,0.99,-3.0,-0.0,-0.1,800,0,,,,,,,,,,,,,,,,,,,
9947138,1495310341363,,,,,,,,0.03,0.04,0.99,-3.0,-0.0,-0.2,800,0,,,,,,,,,,,,,,,,,,,
9947160,1495310341385,,,,,38,,,0.03,0.04,0.99,-3.0,-0.0,-0.2,800,0,1,1,0.0,0,39.538612,-122.332062,0.0,4.354,312.5,9,3,1.9,15,4.26,8,0.1633,76.9544,76.9467,16
9947179,1495310341406,,,,,,,,0.03,0.04,0.99,-3.0,-0.0,-0.2,800,0,,,,,,,,,,,,,,,,,,,
9947199,1495310341426,,,,,,,,0.02,0.04,0.99,-3.0,-0.1,-0.2,800,0,,,,,,,,,,,,,,,,,,,
9947219,1495310341446,,,,,,,,0.03,0.04,0.99,-3.0,-0.0,-0.2,800,0,,,,,,,,,,,,,,,,,,,
9947239,1495310341466,,,,,,,,0.03,0.05,0.99,-3.0,-0.1,-0.1,820,0,,,,,,,,,,,,,,,,,,,
9947261,1495310341488,0,137.6,,168.2,34,164.4,,0.02,0.04,0.99,-3.0,-0.1,-0.2,800,0,1,1,0.0,0,39.538612,-122.332062,0.0,4.354,312.5,9,3,1.9,15,4.26,8,0.1633,76.9561,76.9483,16
9947280,1495310341505,,,,,,,,0.02,0.03,0.99,-3.0,-0.1,-0.2,800,0,,,,,,,,,,,,,,,,,,,
9947300,1495310341525,,,,,,,,0.02,0.04,0.98,-3.0,-0.1,-0.2,800,0,,,,,,,,,,,,,,,,,,,
9947320,1495310341545,,,,,,,,0.02,0.04,0.98,-3.0,-0.2,-0.2,800,0,,,,,,,,,,,,,,,,,,,
9947340,1495310341565,,,,,,,,0.03,0.04,0.98,-3.0,-0.1,-0.2,800,0,,,,,,,,,,,,,,,,,,,
9947362,1495310341587,,,,,37,,,0.03,0.04,0.98,-3.0,-0.2,-0.2,800,0,1,1,0.0,0,39.538612,-122.332062,0.0,4.354,312.5,9,3,1.9,15,4.26,8,0.1633,76.9577,76.95,16
9947381,1495310341606,,,,,,,,0.02,0.04,0.99,-3.0,-0.2,-0.2,800,0,,,,,,,,,,,,,,,,,,,
9947401,1495310341626,,,,,,,,0.02,0.04,0.99,-3.0,-0.2,-0.2,800,0,,,,,,,,,,,,,,,,,,,
9947421,1495310341646,,,,,,,,0.03,0.03,0.98,-3.0,-0.2,-0.2,800,0,,,,,,,,,,,,,,,,,,,
9947441,1495310341666,,,,,,,,0.03,0.04,0.99,-3.0,-0.1,-0.2,800,0,,,,,,,,,,,,,,,,,,,
9947463,1495310341688,0,138.1,,168.6,37,164.9,,0.03,0.04,0.99,-3.0,-0.1,-0.2,800,0,1,1,0.0,0,39.538612,-122.332062,0.0,4.354,312.5,9,3,1.9,15,4.26,8,0.1633,76.9594,76.9517,16
9947482,1495310341707,,,,,,,,0.02,0.04,0.99,-3.0,-0.1,-0.2,800,0,,,,,,,,,,,,,,,,,,,
9947502,1495310341727,,,,,,,,0.02,0.04,0.99,-3.0,-0.1,-0.2,800,0,,,,,,,,,,,,,,,,,,,
9947522,1495310341747,,,,,,,,0.02,0.04,0.99,-3.0,-0.1,-0.3,800,0,,,,,,,,,,,,,,,,,,,
9947542,1495310341767,,,,,,,,0.02,0.04,0.98,-3.0,-0.1,-0.2,800,0,,,,,,,,,,,,,,,,,,,
9947564,1495310341789,,,,,34,,,0.02,0.04,0.99,-3.0,-0.1,-0.2,800,0,1,1,0.0,0,39.538612,-122.332062,0.0,4.354,312.5,9,3,1.9,15,4.26,8,0.1633,76.9611,76.9533,16
9947583,1495310341809,,,,,,,,0.02,0.04,0.99,-3.0,-0.1,-0.2,800,0,,,,,,,,,,,,,,,,,,,
9947603,1495310341829,,,,,,,,0.02,0.04,0.99,-3.0,-0.1,-0.2,800,0,,,,,,,,,,,,,,,,,,,
9947623,1495310341849,,,,,,,,0.02,0.04,0.99,-3.0,-0.1,-0.2,800,0,,,,,,,,,,,,,,,,,,,
9947643,1495310341869,,,,,,,,0.02,0.04,0.99,-3.0,-0.1,-0.2,800,0,,,,,,,,,,,,,,,,,,,
9947665,1495310341891,0,137.5,,168.1,35,164.3,,0.02,0.04,0.99,-3.0,-0.2,-0.2,800,0,1,1,0.0,0,39.538612,-122.332062,0.0,4.354,312.5,9,3,1.9,15,4.26,8,0.1633,76.9628,76.955,16
9947684,1495310341909,,,,,,,,0.03,0.04,0.99,-3.0,-0.1,-0.1,820,0,,,,,,,,,,,,,,,,,,,
9947704,1495310341929,,,,,,,,0.03,0.05,0.99,-3.0,-0.2,-0.1,820,0,,,,,,,,,,,,,,,,,,,
9947724,1495310341949,,,,,,,,0.03,0.05,0.99,-3.0,-0.2,-0.2,800,0,,,,,,,,,,,,,,,,,,,
9947744,1495310341969,,,,,,,,0.02,0.04,0.99,-3.0,-0.1,-0.2,800,0,,,,,,,,,,,,,,,,,,,
9947766,1495310341991,,,,,39,,,0.03,0.04,0.99,-3.0,-0.1,-0.2,800,0,1,1,0.0,0,39.538612,-122.332062,0.0,4.354,312.5,9,3,1.9,15,4.26,8,0.1633,76.9645,76.9567,16
9947785,1495310342003,,,,,,,,0.03,0.04,0.98,-3.0,-0.1,-0.2,800,0,,,,,,,,,,,,,,,,,,,
9947805,1495310342023,,,,,,,,0.03,0.04,0.99,-3.0,-0.0,-0.1,800,0,,,,,,,,,,,,,,,,,,,
9947825,1495310342043,,,,,,,,0.02,0.05,0.99,-3.0,-0.1,-0.2,800,0,,,,,,,,,,,,,,,,,,,
9947845,1495310342063,,,,,,,,0.03,0.04,0.99,-3.0,-0.1,-0.2,800,0,,,,,,,,,,,,,,,,,,,
9947867,1495310342085,1,138.1,-0.5,168.6,36,164.7,14.41,0.02,0.04,0.99,-3.0,-0.1,-0.2,800,0,1,1,0.0,0,39.538612,-122.332062,0.0,4.354,312.5,9,3,1.9,15,4.26,8,0.1633,76.966,76.9583,16
9947886,1495310342108,,,,,,,,0.02,0.04,0.98,-3.0,-0.1,-0.2,800,0,,,,,,,,,,,,,,,,,,,
9947906,1495310342128,,,,,,,,0.03,0.04,0.99,-3.0,-0.1,-0.2,800,0,,,,,,,,,,,,,,,,,,,
9947926,1495310342148,,,,,,,,0.02,0.05,0.99,-3.0,-0.2,-0.1,800,0,,,,,,,,,,,,,,,,,,,
9947946,1495310342168,,,,,,,,0.02,0.04,0.99,-3.0,-0.2,-0.2,800,0,,,,,,,,,,,,,,,,,,,
9947968,1495310342195,,,,,39,,,0.02,0.04,0.99,-3.0,-0.2,-0.2,800,0,1,1,0.0,0,39.538612,-122.332062,0.0,4.354,312.5,9,3,1.9,15,4.26,8,0.1633,76.9679,76.9617,16
9947987,1495310342214,,,,,,,,0.02,0.04,0.99,-3.0,-0.1,-0.2,800,0,,,,,,,,,,,,,,,,,,,
9948007,1495310342234,,,,,,,,0.02,0.04,0.98,-3.0,-0.2,-0.2,800,0,,,,,,,,,,,,,,,,,,,
9948027,1495310342254,,,,,,,,0.03,0.04,0.99,-3.0,-0.1,-0.2,800,0,,,,,,,,,,,,,,,,,,,
9948047,1495310342274,,,,,,,,0.02,0.05,0.99,-3.0,-0.2,-0.2,800,0,,,,,,,,,,,,,,,,,,,
9948069,1495310342293,0,137.6,,168.2,35,164.3,,0.02,0.04,0.99,-3.0,-0.2,-0.2,800,0,1,1,0.0,0,39.538612,-122.332062,0.0,4.354,312.5,9,3,1.9,15,4.26,8,0.1633,76.9695,76.9633,16
9948088,1495310342312,,,,,,,,0.02,0.03,0.98,-2.9,-0.1,-0.2,800,0,,,,,,,,,,,,,,,,,,,
9948108,1495310342332,,,,,,,,0.02,0.03,0.98,-3.0,-0.1,-0.2,800,0,,,,,,,,,,,,,,,,,,,
9948128,1495310342352,,,,,,,,0.02,0.03,0.98,-3.0,-0.0,-0.2,800,0,,,,,,,,,,,,,,,,,,,
9948148,1495310342372,,,,,,,,0.02,0.04,0.99,-3.0,-0.0,-0.1,800,0,,,,,,,,,,,,,,,,,,,
9948170,1495310342396,,,,,37,,,0.02,0.04,0.99,-3.0,-0.0,-0.2,800,0,1,1,0.0,0,39.538612,-122.332062,0.0,4.354,312.5,9,3,1.9,15,4.26,8,0.1633,76.9712,76.965,16
9948189,1495310342415,,,,,,,,0.02,0.04,0.99,-2.9,-0.0,-0.2,800,0,,,,,,,,,,,,,,,,,,,
9948209,1495310342435,,,,,,,,0.02,0.04,0.99,-2.9,-0.0,-0.2,800,0,,,,,,,,,,,,,,,,,,,
9948229,1495310342455,,,,,,,,0.02,0.04,0.98,-2.9,-0.1,-0.2,800,0,,,,,,,,,,,,,,,,,,,
9948249,1495310342475,,,,,,,,0.02,0.04,0.99,-3.0,-0.0,-0.1,800,0,,,,,,,,,,,,,,,,,,,
9948271,1495310342497,0,137.6,,168.3,38,164.5,,0.02,0.04,0.99,-3.0,-0.1,-0.1,820,0,1,1,0.0,0,39.538612,-122.332062,0.0,4.354,312.5,9,3,1.9,15,4.26,8,0.1633,76.9729,76.9667,16
9948290,1495310342516,,,,,,,,0.02,0.05,0.99,-3.0,-0.1,-0.2,800,0,,,,,,,,,,,,,,,,,,,
9948310,1495310342536,,,,,,,,0.02,0.04,0.99,-3.0,-0.1,-0.2,800,0,,,,,,,,,,,,,,,,,,,
9948330,1495310342556,,,,,,,,0.02,0.04,0.99,-3.0,-0.1,-0.2,800,0,,,,,,,,,,,,,,,,,,,
9948350,1495310342576,,,,,,,,0.02,0.04,0.98,-3.0,-0.1,-0.2,800,0,,,,,,,,,,,,,,,,,,,
9948372,1495310342598,,,,,34,,,0.03,0.04,0.99,-3.0,-0.1,-0.1,800,0,1,1,0.0,0,39.538612,-122.332062,0.0,4.354,312.5,9,3,1.9,15,4.26,8,0.1633,76.9746,76.9683,16
9948391,1495310342617,,,,,,,,0.03,0.05,0.99,-3.0,-0.1,-0.1,800,0,,,,,,,,,,,,,,,,,,,
9948411,1495310342637,,,,,,,,0.03,0.05,0.99,-3.0,-0.1,-0.1,800,0,,,,,,,,,,,,,,,,,,,
9948431,1495310342657,,,,,,,,0.02,0.04,0.99,-3.0,-0.1,-0.2,800,0,,,,,,,,,,,,,,,,,,,
9948451,1495310342677,,,,,,,,0.03,0.04,0.99,-3.0,-0.0,-0.2,800,0,,,,,,,,,,,,,,,,,,,
9948473,1495310342699,0,138.1,,168.7,34,164.9,,0.02,0.04,0.99,-3.0,0.0,-0.2,800,0,1,1,0.0,0,39.538612,-122.332062,0.0,4.354,312.5,9,3,1.9,15,4.26,8,0.1633,76.9763,76.97,16
9948492,1495310342718,,,,,,,,0.03,0.04,0.99,-3.0,0.1,-0.1,800,0,,,,,,,,,,,,,,,,,,,
9948512,1495310342738,,,,,,,,0.02,0.04,0.99,-3.0,0.0,-0.1,800,0,,,,,,,,,,,,,,,,,,,
9948532,1495310342758,,,,,,,,0.02,0.04,0.99,-3.0,0.0,-0.2,800,0,,,,,,,,,,,,,,,,,,,
9948552,1495310342778,,,,,,,,0.02,0.04,0.99,-3.0,0.0,-0.2,800,0,,,,,,,,,,,,,,,,,,,
9948574,1495310342799,,,,,38,,,0.02,0.04,0.99,-3.0,-0.0,-0.1,800,0,1,1,0.0,0,39.538612,-122.332062,0.0,4.354,312.5,9,3,1.9,15,4.26,8,0.1633,76.9779,76.9717,16
9948593,1495310342818,,,,,,,,0.02,0.04,0.98,-3.0,-0.0,-0.2,800,0,,,,,,,,,,,,,,,,,,,
9948613,1495310342838,,,,,,,,0.02,0.04,0.99,-3.0,-0.1,-0.1,800,0,,,,,,,,,,,,,,,,,,,
9948633,1495310342858,,,,,,,,0.02,0.04,0.99,-3.0,-0.1,-0.1,800,0,,,,,,,,,,,,,,,,,,,
9948653,1495310342878,,,,,,,,0.02,0.04,0.99,-3.0,-0.1,-0.2,800,0,,,,,,,,,,,,,,,,,,,
9948675,1495310342900,0,137.4,,168.2,37,164.2,,0.02,0.04,0.99,-3.0,-0.1,-0.1,800,0,1,1,0.0,0,39.538612,-122.332062,0.0,4.354,312.5,9,3,1.9,15,4.26,8,0.1633,76.9796,76.9733,16
9948694,1495310342919,,,,,,,,0.02,0.04,0.99,-3.0,-0.1,-0.1,800,0,,,,,,,,,,,,,,,,,,,
9948714,1495310342939,,,,,,,,0.03,0.04,0.99,-3.0,-0.1,-0.1,800,0,,,,,,,,,,,,,,,,,,,
9948734,1495310342959,,,,,,,,0.02,0.05,0.99,-3.0,-0.2,-0.1,800,0,,,,,,,,,,,,,,,,,,,
9948754,1495310342979,,,,,,,,0.02,0.04,0.99,-3.0,-0.1,-0.1,800,0,,,,,,,,,,,,,,,,,,,
9948776,1495310342996,,,,,34,,,0.03,0.04,0.99,-3.0,-0.1,-0.1,800,0,1,1,0.0,0,39.538612,-122.332062,0.0,4.354,312.5,9,3,1.9,15,4.26,8,0.1633,76.9812,76.975,16
9948795,1495310343015,,,,,,,,0.03,0.04,0.99,-3.0,-0.1,-0.1,800,0,,,,,,,,,,,,,,,,,,,
9948815,1495310343035,,,,,,,,0.03,0.04,0.99,-3.0,-0.0,-0.1,780,0,,,,,,,,,,,,,,,,,,,
9948835,1495310343055,,,,,,,,0.03,0.05,0.99,-3.0,-0.0,-0.1,800,0,,,,,,,,,,,,,,,,,,,
9948855,1495310343075,,,,,,,,0.03,0.04,0.99,-3.0,0.0,-0.1,800,0,,,,,,,,,,,,,,,,,,,
9948877,1495310343102,1,138.0,-0.4,168.6,36,164.6,14.45,0.03,0.04,0.99,-3.0,0.0,-0.2,800,0,1,1,0.0,0,39.538612,-122.332062,0.0,4.354,312.5,9,3,1.9,15,4.26,8,0.1633,76.983,76.9767,16
9948896,1495310343121,,,,,,,,0.03,0.04,0.99,-3.0,0.0,-0.2,800,0,,,,,,,,,,,,,,,,,,,
9948916,1495310343141,,,,,,,,0.03,0.04,0.99,-3.0,0.0,-0.1,780,0,,,,,,,,,,,,,,,,,,,
9948936,1495310343161,,,,,,,,0.03,0.05,0.99,-3.0,0.0,-0.1,800,0,,,,,,,,,,,,,,,,,,,
9948956,1495310343181,,,,,,,,0.03,0.05,1.0,-3.0,0.0,-0.2,780,0,,,,,,,,,,,,,,,,,,,
9948978,1495310343203,,,,,36,,,0.02,0.04,1.0,-3.0,0.0,-0.2,780,0,1,1,0.0,0,39.538612,-122.332062,0.0,4.354,312.5,9,3,1.9,15,4.26,8,0.1633,76.9847,76.9783,16
9948997,1495310343222,,,,,,,,0.02,0.04,0.99,-3.0,0.1,-0.2,780,0,,,,,,,,,,,,,,,,,,,
9949017,1495310343242,,,,,,,,0.02,0.04,0.99,-3.0,0.1,-0.2,800,0,,,,,,,,,,,,,,,,,,,
9949037,1495310343262,,,,,,,,0.03,0.04,0.99,-3.0,0.0,-0.1,800,0,,,,,,,,,,,,,,,,,,,
9949057,1495310343282,,,,,,,,0.02,0.04,1.0,-3.0,0.1,-0.2,780,0,,,,,,,,,,,,,,,,,,,
9949079,1495310343304,0,138.1,,169.0,36,164.8,,0.02,0.04,1.0,-3.0,0.1,-0.2,780,0,1,1,0.0,0,39.538612,-122.332062,0.0,4.354,312.5,9,3,1.9,15,4.26,8,0.1633,76.9864,76.98,16
9949098,1495310343323,,,,,,,,0.02,0.04,0.99,-3.0,0.1,-0.2,780,0,,,,,,,,,,,,,,,,,,,
9949118,1495310343343,,,,,,,,0.02,0.04,0.99,-3.0,0.1,-0.2,780,0,,,,,,,,,,,,,,,,,,,
9949138,1495310343363,,,,,,,,0.02,0.05,0.99,-3.0,0.1,-0.1,780,0,,,,,,,,,,,,,,,,,,,
9949158,1495310343383,,,,,,,,0.02,0.05,1.0,-3.0,0.1,-0.2,780,0,,,,,,,,,,,,,,,,,,,
9949180,1495310343405,,,,,36,,,0.02,0.04,1.0,-3.0,0.1,-0.2,780,0,1,1,0.0,0,39.538612,-122.332062,0.0,4.354,312.5,9,3,1.9,15,4.26,8,0.1633,76.988,76.9817,16
9949199,1495310343424,,,,,,,,0.02,0.04,0.99,-3.0,0.1,-0.2,780,0,,,,,,,,,,,,,,,,,,,
9949219,1495310343444,,,,,,,,0.02,0.04,0.99,-3.0,0.2,-0.2,780,0,,,,,,,,,,,,,,,,,,,
9949239,1495310343464,,,,,,,,0.02,0.04,0.99,-3.0,0.1,-0.1,780,0,,,,,,,,,,,,,,,,,,,
9949259,1495310343484,,,,,,,,0.02,0.04,0.99,-3.0,0.1,-0.2,760,0,,,,,,,,,,,,,,,,,,,
9949281,1495310343506,1,137.4,,168.3,37,164.1,,0.02,0.04,0.99,-3.0,0.1,-0.2,780,0,1,1,0.0,0,39.538612,-122.332062,0.0,4.354,312.5,9,3,1.9,15,4.26,8,0.1633,76.9897,76.9833,16
9949300,1495310343525,,,,,,,,0.02,0.04,0.99,-3.0,0.1,-0.2,780,0,,,,,,,,,,,,,,,,,,,
9949320,1495310343545,,,,,,,,0.02,0.04,0.99,-3.0,0.2,-0.1,780,0,,,,,,,,,,,,,,,,,,,
9949340,1495310343565,,,,,,,,0.02,0.04,0.99,-3.0,0.1,-0.1,780,0,,,,,,,,,,,,,,,,,,,
9949360,1495310343585,,,,,,,,0.02,0.04,0.99,-3.0,0.1,-0.2,760,0,,,,,,,,,,,,,,,,,,,
9949382,1495310343607,,,,,33,,,0.02,0.04,0.99,-3.0,0.1,-0.2,760,0,1,1,0.0,0,39.538612,-122.332062,0.0,4.354,312.5,9,3,1.9,15,4.26,8,0.1633,76.9914,76.985,16
9949401,1495310343626,,,,,,,,0.02,0.04,0.99,-3.0,0.1,-0.1,760,0,,,,,,,,,,,,,,,,,,,
9949421,1495310343646,,,,,,,,0.03,0.04,0.99,-3.0,0.1,-0.1,760,0,,,,,,,,,,,,,,,,,,,
9949441,1495310343666,,,,,,,,0.02,0.04,0.99,-3.0,0.0,-0.1,780,0,,,,,,,,,,,,,,,,,,,
9949461,1495310343686,,,,,,,,0.03,0.04,0.99,-3.0,0.0,-0.2,780,0,,,,,,,,,,,,,,,,,,,
9949483,1495310343710,0,138.2,,168.9,36,164.8,,0.03,0.04,0.98,-3.0,-0.0,-0.2,780,0,1,1,0.0,0,39.538612,-122.332062,0.0,4.354,312.5,9,3,1.9,15,4.26,8,0.1633,76.9931,76.9867,16
9949502,1495310343729,,,,,,,,0.03,0.04,0.98,-3.0,-0.0,-0.1,780,0,,,,,,,,,,,,,,,,,,,
9949522,1495310343749,,,,,,,,0.03,0.04,0.98,-3.0,-0.0,-0.1,780,0,,,,,,,,,,,,,,,,,,,
9949542,1495310343769,,,,,,,,0.03,0.04,0.99,-3.0,-0.1,-0.1,780,0,,,,,,,,,,,,,,,,,,,
9949562,1495310343789,,,,,,,,0.03,0.03,0.99,-3.0,-0.1,-0.2,760,0,,,,,,,,,,,,,,,,,,,
9949584,1495310343810,,,,,37,,,0.03,0.03,0.98,-3.0,-0.1,-0.2,760,0,1,1,0.0,0,39.538612,-122.332062,0.0,4.354,312.5,9,3,1.9,15,4.26,8,0.1633,76.9948,76.9883,16
9949603,1495310343829,,,,,,,,0.03,0.04,0.98,-3.0,-0.0,-0.1,780,0,,,,,,,,,,,,,,,,,,,
9949623,1495310343849,,,,,,,,0.03,0.04,0.99,-3.0,-0.1,-0.1,780,0,,,,,,,,,,,,,,,,,,,
9949643,1495310343869,,,,,,,,0.03,0.04,0.99,-3.0,-0.1,-0.1,780,0,,,,,,,,,,,,,,,,,,,
9949663,1495310343889,,,,,,,,0.03,0.04,0.99,-3.0,-0.1,-0.2,760,0,,,,,,,,,,,,,,,,,,,
9949685,1495310343909,0,138.1,,168.8,32,164.7,,0.02,0.04,0.99,-3.0,-0.1,-0.1,760,0,1,1,0.0,0,39.538612,-122.332062,0.0,4.354,312.5,9,3,1.9,15,4.26,8,0.1633,76.9964,76.99,16
9949704,1495310343928,,,,,,,,0.03,0.04,0.98,-3.1,-0.1,-0.1,760,0,,,,,,,,,,,,,,,,,,,
9949724,1495310343948,,,,,,,,0.03,0.05,0.99,-3.1,-0.2,-0.1,780,0,,,,,,,,,,,,,,,,,,,
9949744,1495310343968,,,,,,,,0.02,0.05,0.99,-3.0,-0.1,-0.2,780,0,,,,,,,,,,,,,,,,,,,
9949764,1495310343988,,,,,,,,0.02,0.04,0.99,-3.0,-0.1,-0.2,780,0,,,,,,,,,,,,,,,,,,,
9949786,1495310344004,,,,,36,,,0.02,0.04,0.98,-3.0,-0.2,-0.1,780,0,1,1,0.0,0,39.538612,-122.332062,0.0,4.354,312.5,9,3,1.9,15,4.26,8,0.1633,76.998,76.9917,16
9949805,1495310344023,,,,,,,,0.03,0.04,0.99,-3.0,-0.1,-0.1,780,0,,,,,,,,,,,,,,,,,,,
9949825,1495310344043,,,,,,,,0.02,0.05,0.99,-3.0,-0.3,-0.1,780,0,,,,,,,,,,,,,,,,,,,
9949845,1495310344063,,,,,,,,0.02,0.05,0.99,-3.0,-0.2,-0.2,780,0,,,,,,,,,,,,,,,,,,,
9949865,1495310344091,,,,,,,,0.02,0.04,0.99,-3.0,-0.2,-0.2,780,0,,,,,,,,,,,,,,,,,,,
9949887,1495310344113,0,137.4,-0.7,168.3,38,164.2,14.52,0.02,0.05,0.99,-3.0,-0.2,-0.1,780,0,1,1,0.0,0,39.538612,-122.332062,0.0,4.354,312.5,9,3,1.9,15,4.26,8,0.1633,76.9998,76.9933,16
9949906,1495310344132,,,,,,,,0.02,0.05,0.99,-3.0,-0.2,-0.1,780,0,,,,,,,,,,,,,,,,,,,
9949926,1495310344152,,,,,,,,0.02,0.05,0.99,-3.0,-0.3,-0.1,780,0,,,,,,,,,,,,,,,,,,,
9949946,1495310344172,,,,,,,,0.02,0.05,0.99,-3.0,-0.2,-0.1,780,0,,,,,,,,,,,,,,,,,,,
9949966,1495310344192,,,,,,,,0.02,0.04,0.99,-3.0,-0.2,-0.1,780,0,,,,,,,,,,,,,,,,,,,
9949988,1495310344214,,,,,38,,,0.02,0.04,0.98,-3.0,-0.2,-0.1,780,0,1,1,0.0,0,39.538612,-122.332062,0.0,4.354,312.5,9,3,1.9,15,4.26,8,0.1633,77.0015,76.995,16
9950007,1495310344233,,,,,,,,0.02,0.04,0.98,-3.0,-0.2,-0.1,780,0,,,,,,,,,,,,,,,,,,,
9950027,1495310344253,,,,,,,,0.02,0.04,0.99,-3.0,-0.3,-0.1,780,0,,,,,,,,,,,,,,,,,,,
9950047,1495310344273,,,,,,,,0.02,0.04,0.99,-3.0,-0.3,-0.1,780,0,,,,,,,,,,,,,,,,,,,
9950067,1495310344293,,,,,,,,0.02,0.04,0.98,-3.0,-0.3,-0.1,780,0,,,,,,,,,,,,,,,,,,,
9950089,1495310344315,0,137.9,,168.8,37,164.6,,0.02,0.04,0.98,-3.0,-0.2,-0.1,780,0,1,1,0.0,0,39.538612,-122.332062,0.0,4.354,312.5,9,3,1.9,15,4.26,8,0.1633,77.0032,76.9967,16
9950108,1495310344334,,,,,,,,0.02,0.04,0.99,-3.0,-0.2,-0.0,780,0,,,,,,,,,,,,,,,,,,,
9950128,1495310344354,,,,,,,,0.02,0.04,0.99,-3.0,-0.2,-0.1,780,0,,,,,,,,,,,,,,,,,,,
9950148,1495310344374,,,,,,,,0.02,0.04,0.99,-3.0,-0.2,-0.1,780,0,,,,,,,,,,,,,,,,,,,
9950168,1495310344394,,,,,,,,0.02,0.04,0.99,-3.0,-0.2,-0.1,780,0,,,,,,,,,,,,,,,,,,,
9950190,1495310344416,,,,,34,,,0.02,0.04,0.99,-3.0,-0.1,-0.1,780,0,1,1,0.0,0,39.538612,-122.332062,0.0,4.354,312.5,9,3,1.9,15,4.26,8,0.1633,77.0049,76.9983,16
9950209,1495310344435,,,,,,,,0.02,0.04,0.99,-3.0,-0.1,-0.1,780,0,,,,,,,,,,,,,,,,,,,
9950229,1495310344455,,,,,,,,0.02,0.04,0.99,-3.0,-0.2,-0.1,780,0,,,,,,,,,,,,,,,,,,,
9950249,1495310344475,,,,,,,,0.02,0.03,0.99,-3.0,-0.1,-0.1,780,0,,,,,,,,,,,,,,,,,,,
9950269,1495310344495,,,,,,,,0.02,0.03,0.99,-3.0,-0.1,-0.1,780,0,,,,,,,,,,,,,,,,,,,
9950291,1495310344517,0,138.0,,168.9,31,164.6,,0.02,0.03,0.99,-3.0,-0.0,-0.1,760,0,1,1,0.0,0,39.538612,-122.332062,0.0,4.354,312.5,9,3,1.9,15,4.26,8,0.1633,77.0066,77.0,16
9950310,1495310344536,,,,,,,,0.02,0.04,0.99,-3.0,-0.1,-0.1,780,0,,,,,,,,,,,,,,,,,,,
9950330,1495310344556,,,,,,,,0.02,0.04,0.99,-3.0,-0.0,-0.2,780,0,,,,,,,,,,,,,,,,,,,
9950350,1495310344576,,,,,,,,0.02,0.03,0.99,-3.0,-0.0,-0.2,780,0,,,,,,,,,,,,,,,,,,,
9950370,1495310344597,,,,,,,,0.02,0.03,0.99,-3.0,-0.0,-0.1,780,0,,,,,,,,,,,,,,,,,,,
9950392,1495310344619,,,,,33,,,0.02,0.04,0.99,-3.0,0.1,-0.1,780,0,1,1,0.0,0,39.538612,-122.332062,0.0,4.354,312.5,9,3,1.9,15,4.26,8,0.1633,77.0083,77.0017,16
9950411,1495310344638,,,,,,,,0.02,0.04,0.99,-3.0,-0.0,-0.1,780,0,,,,,,,,,,,,,,,,,,,
9950431,1495310344658,,,,,,,,0.02,0.04,0.99,-3.0,0.0,-0.2,780,0,,,,,,,,,,,,,,,,,,,
9950451,1495310344678,,,,,,,,0.02,0.04,0.99,-3.0,0.0,-0.2,780,0,,,,,,,,,,,,,,,,,,,
9950471,1495310344697,,,,,,,,0.02,0.04,0.99,-3.0,0.0,-0.2,780,0,,,,,,,,,,,,,,,,,,,
9950493,1495310344719,0,137.6,,168.6,35,164.2,,0.02,0.04,0.99,-3.0,0.1,-0.2,780,0,1,1,0.0,0,39.538612,-122.332062,0.0,4.354,312.5,9,3,1.9,15,4.26,8,0.1633,77.0099,77.0033,16
9950512,1495310344738,,,,,,,,0.02,0.05,1.0,-3.0,0.0,-0.2,780,0,,,,,,,,,,,,,,,,,,,
9950532,1495310344758,,,,,,,,0.02,0.04,1.0,-3.0,0.1,-0.2,780,0,,,,,,,,,,,,,,,,,,,
9950552,1495310344778,,,,,,,,0.02,0.04,1.0,-3.0,0.0,-0.2,780,0,,,,,,,,,,,,,,,,,,,
9950572,1495310344798,,,,,,,,0.02,0.04,0.99,-3.0,0.0,-0.2,780,0,,,,,,,,,,,,,,,,,,,
9950594,1495310344820,,,,,31,,,0.03,0.04,0.99,-3.0,0.0,-0.2,780,0,1,1,0.0,0,39.538612,-122.332062,0.0,4.354,312.5,9,3,1.9,15,4.26,8,0.1633,77.0116,77.005,16
9950613,1495310344839,,,,,,,,0.02,0.04,0.99,-3.0,-0.1,-0.2,780,0,,,,,,,,,,,,,,,,,,,
9950633,1495310344859,,,,,,,,0.02,0.04,0.99,-3.0,-0.0,-0.2,780,0,,,,,,,,,,,,,,,,,,,
9950653,1495310344879,,,,,,,,0.02,0.04,0.99,-3.0,-0.1,-0.2,780,0,,,,,,,,,,,,,,,,,,,
9950673,1495310344898,,,,,,,,0.03,0.05,0.99,-3.0,-0.0,-0.1,780,0,,,,,,,,,,,,,,,,,,,
9950695,1495310344920,0,137.8,,168.8,33,164.4,,0.03,0.05,0.99,-3.0,-0.1,-0.1,780,0,1,1,0.0,0,39.538612,-122.332062,0.0,4.354,312.5,9,3,1.9,15,4.26,8,0.1633,77.0133,77.0067,16
9950714,1495310344939,,,,,,,,0.02,0.05,1.0,-3.0,-0.1,-0.1,780,0,,,,,,,,,,,,,,,,,,,
9950734,1495310344959,,,,,,,,0.03,0.04,0.99,-3.0,-0.1,-0.2,780,0,,,,,,,,,,,,,,,,,,,
9950754,1495310344979,,,,,,,,0.03,0.04,0.99,-3.0,-0.1,-0.2,780,0,,,,,,,,,,,,,,,,,,,
9950774,1495310344993,,,,,,,,0.03,0.04,0.99,-3.0,-0.0,-0.2,780,0,,,,,,,,,,,,,,,,,,,
9950796,1495310345015,,,,,37,,,0.03,0.05,0.99,-3.0,-0.1,-0.1,780,0,1,1,0.0,0,39.538612,-122.332062,0.0,4.354,312.5,9,3,1.9,15,4.26,8,0.1633,77.0149,77.0083,16
9950815,1495310345034,,,,,,,,0.03,0.05,0.99,-3.0,-0.2,-0.2,780,0,,,,,,,,,,,,,,,,,,,
9950835,1495310345054,,,,,,,,0.03,0.04,0.99,-3.0,-0.1,-0.2,780,0,,,,,,,,,,,,,,,,,,,
9950855,1495310345074,,,,,,,,0.03,0.04,0.99,-3.0,-0.1,-0.2,780,0,,,,,,,,,,,,,,,,,,,
9950875,1495310345098,,,,,,,,0.03,0.04,0.98,-3.0,-0.1,-0.1,780,0,,,,,,,,,,,,,,,,,,,
9950897,1495310345120,0,137.6,-0.5,168.6,36,164.2,14.48,0.03,0.05,0.99,-3.0,-0.2,-0.1,780,0,1,1,0.0,0,39.538612,-122.332062,0.0,4.354,312.5,9,3,1.9,15,4.26,8,0.1633,77.0166,77.01,16
9950916,1495310345139,,,,,,,,0.02,0.05,0.99,-3.0,-0.2,-0.2,780,0,,,,,,,,,,,,,,,,,,,
9950936,1495310345159,,,,,,,,0.02,0.04,0.99,-3.0,-0.2,-0.2,760,0,,,,,,,,,,,,,,,,,,,
9950956,1495310345179,,,,,,,,0.02,0.04,0.98,-3.0,-0.2,-0.1,760,0,,,,,,,,,,,,,,,,,,,
9950976,1495310345199,,,,,,,,0.03,0.04,0.98,-3.0,-0.1,-0.1,780,0,,,,,,,,,,,,,,,,,,,
9950998,1495310345221,,,,,35,,,0.02,0.05,0.99,-3.0,-0.2,-0.1,780,0,1,1,0.0,0,39.538612,-122.332062,0.0,4.354,312.5,9,3,1.9,15,4.26,8,0.1633,77.0183,77.0117,16
9951017,1495310345240,,,,,,,,0.02,0.05,0.99,-3.0,-0.2,-0.1,780,0,,,,,,,,,,,,,,,,,,,
9951037,1495310345260,,,,,,,,0.02,0.04,0.99,-3.0,-0.2,-0.1,780,0,,,,,,,,,,,,,,,,,,,
9951057,1495310345280,,,,,,,,0.02,0.04,0.98,-3.0,-0.2,-0.1,780,0,,,,,,,,,,,,,,,,,,,
9951077,1495310345302,,,,,,,,0.02,0.05,0.98,-3.0,-0.2,-0.1,780,0,,,,,,,,,,,,,,,,,,,
9951099,1495310345324,0,137.5,,168.6,34,164.3,,0.02,0.05,0.99,-3.0,-0.3,-0.1,780,0,1,1,0.0,0,39.538612,-122.332062,0.0,4.354,312.5,9,3,1.9,15,4.26,8,0.1633,77.02,77.0133,16
9951118,1495310345343,,,,,,,,0.02,0.05,0.99,-3.0,-0.2,-0.2,760,0,,,,,,,,,,,,,,,,,,,
9951138,1495310345363,,,,,,,,0.02,0.04,0.99,-3.0,-0.2,-0.2,760,0,,,,,,,,,,,,,,,,,,,
9951158,1495310345383,,,,,,,,0.02,0.04,0.98,-3.0,-0.2,-0.1,780,0,,,,,,,,,,,,,,,,,,,
9951178,1495310345404,,,,,,,,0.02,0.05,0.99,-3.0,-0.2,-0.1,780,0,,,,,,,,,,,,,,,,,,,
9951200,1495310345426,,,,,34,,,0.02,0.05,0.99,-3.0,-0.1,-0.1,760,0,1,1,0.0,0,39.538612,-122.332062,0.0,4.354,312.5,9,3,1.9,15,4.26,8,0.1633,77.0217,77.015,16
9951219,1495310345445,,,,,,,,0.02,0.04,0.99,-3.0,-0.1,-0.2,780,0,,,,,,,,,,,,,,,,,,,
9951239,1495310345465,,,,,,,,0.02,0.04,0.99,-3.0,-0.2,-0.2,780,0,,,,,,,,,,,,,,,,,,,
9951259,1495310345485,,,,,,,,0.02,0.04,0.99,-3.0,-0.2,-0.2,760,0,,,,,,,,,,,,,,,,,,,
9951279,1495310345506,,,,,,,,0.02,0.05,0.99,-3.0,-0.2,-0.1,780,0,,,,,,,,,,,,,,,,,,,
9951301,1495310345528,0,137.8,,168.9,36,164.2,,0.02,0.05,0.99,-3.0,-0.1,-0.2,780,0,1,1,0.0,0,39.538612,-122.332062,0.0,4.354,312.5,9,3,1.9,15,4.26,8,0.1633,77.0234,77.0167,16
9951320,1495310345547,,,,,,,,0.02,0.04,0.99,-2.9,-0.1,-0.2,780,0,,,,,,,,,,,,,,,,,,,
9951340,1495310345567,,,,,,,,0.02,0.04,0.99,-3.0,-0.1,-0.2,780,0,,,,,,,,,,,,,,,,,,,
9951360,1495310345587,,,,,,,,0.02,0.04,0.99,-3.0,-0.0,-0.2,760,0,,,,,,,,,,,,,,,,,,,
9951380,1495310345607,,,,,,,,0.02,0.05,0.99,-3.0,-0.1,-0.1,780,0,,,,,,,,,,,,,,,,,,,
9951402,1495310345629,,,,,33,,,0.02,0.05,0.99,-2.9,-0.0,-0.2,780,0,1,1,0.0,0,39.538612,-122.332062,0.0,4.354,312.5,9,3,1.9,15,4.26,8,0.1633,77.0251,77.0183,16
9951421,1495310345648,,,,,,,,0.02,0.04,0.99,-2.9,0.0,-0.2,780,0,,,,,,,,,,,,,,,,,,,
9951441,1495310345668,,,,,,,,0.02,0.04,0.99,-3.0,0.0,-0.2,780,0,,,,,,,,,,,,,,,,,,,
9951461,1495310345688,,,,,,,,0.03,0.04,0.99,-3.0,0.1,-0.2,780,0,,,,,,,,,,,,,,,,,,,
9951481,1495310345706,,,,,,,,0.02,0.04,0.99,-3.0,0.0,-0.1,780,0,,,,,,,,,,,,,,,,,,,
9951503,1495310345728,0,137.8,,169.0,35,164.3,,0.02,0.04,0.99,-3.0,0.0,-0.2,780,0,1,1,0.0,0,39.538612,-122.332062,0.0,4.354,312.5,9,3,1.9,15,4.26,8,0.1633,77.0267,77.02,16
9951522,1495310345747,,,,,,,,0.02,0.04,0.99,-3.0,0.0,-0.2,780,0,,,,,,,,,,,,,,,,,,,
9951542,1495310345767,,,,,,,,0.02,0.04,0.99,-3.0,0.0,-0.2,780,0,,,,,,,,,,,,,,,,,,,
9951562,1495310345787,,,,,,,,0.03,0.04,0.99,-3.0,0.1,-0.1,780,0,,,,,,,,,,,,,,,,,,,
9951582,1495310345805,,,,,,,,0.03,0.04,0.99,-3.0,-0.0,-0.1,780,0,,,,,,,,,,,,,,,,,,,
9951604,1495310345827,,,,,37,,,0.03,0.04,0.99,-3.0,0.0,-0.2,780,0,1,1,0.0,0,39.538612,-122.332062,0.0,4.354,312.5,9,3,1.9,15,4.26,8,0.1633,77.0284,77.0217,16
9951623,1495310345846,,,,,,,,0.03,0.04,0.99,-3.0,0.0,-0.2,780,0,,,,,,,,,,,,,,,,,,,
9951643,1495310345866,,,,,,,,0.03,0.04,0.99,-3.0,0.1,-0.2,780,0,,,,,,,,,,,,,,,,,,,
9951663,1495310345886,,,,,,,,0.03,0.04,0.99,-3.0,0.1,-0.1,780,0,,,,,,,,,,,,,,,,,,,
9951683,1495310345909,,,,,,,,0.03,0.04,0.99,-3.0,0.0,-0.1,780,0,,,,,,,,,,,,,,,,,,,
9951705,1495310345931,0,137.6,,168.8,36,164.1,,0.03,0.03,0.99,-3.0,0.0,-0.2,780,0,1,1,0.0,0,39.538612,-122.332062,0.0,4.354,312.5,9,3,1.9,15,4.26,8,0.1633,77.0301,77.0233,16
9951724,1495310345950,,,,,,,,0.03,0.03,0.98,-3.0,-0.0,-0.2,780,0,,,,,,,,,,,,,,,,,,,
9951744,1495310345970,,,,,,,,0.03,0.03,0.98,-3.0,-0.0,-0.1,780,0,,,,,,,,,,,,,,,,,,,
9951764,1495310345990,,,,,,,,0.03,0.03,0.98,-3.0,0.0,-0.1,780,0,,,,,,,,,,,,,,,,,,,
9951784,1495310346002,,,,,,,,0.03,0.04,0.99,-3.0,0.0,-0.1,780,0,,,,,,,,,,,,,,,,,,,
9951806,1495310346024,,,,,35,,,0.03,0.03,0.99,-3.0,0.0,-0.2,780,0,1,1,0.0,0,39.538612,-122.332062,0.0,4.354,312.5,9,3,1.9,15,4.26,8,0.1633,77.0317,77.025,16
9951825,1495310346043,,,,,,,,0.03,0.03,0.98,-3.0,-0.0,-0.1,780,0,,,,,,,,,,,,,,,,,,,
9951845,1495310346063,,,,,,,,0.03,0.03,0.98,-3.0,0.0,-0.2,780,0,,,,,,,,,,,,,,,,,,,
9951865,1495310346091,,,,,,,,0.03,0.04,0.98,-3.0,-0.0,-0.1,760,0,,,,,,,,,,,,,,,,,,,
9951885,1495310346111,,,,,,,,0.03,0.04,0.98,-3.0,-0.1,-0.2,760,0,,,,,,,,,,,,,,,,,,,
9951907,1495310346133,1,138.0,-0.3,169.3,34,164.6,14.48,0.03,0.03,0.98,-3.0,-0.1,-0.2,780,0,1,1,0.0,0,39.538612,-122.332062,0.0,4.354,312.5,9,3,1.9,15,4.26,8,0.1633,77.0335,77.0267,16
9951926,1495310346152,,,,,,,,0.03,0.03,0.98,-3.0,-0.1,-0.2,780,0,,,,,,,,,,,,,,,,,,,
9951946,1495310346172,,,,,,,,0.03,0.03,0.98,-3.0,-0.0,-0.1,780,0,,,,,,,,,,,,,,,,,,,
9951966,1495310346193,,,,,,,,0.03,0.04,0.98,-3.0,-0.2,-0.1,760,0,,,,,,,,,,,,,,,,,,,
9951986,1495310346213,,,,,,,,0.02,0.04,0.98,-3.0,-0.1,-0.2,760,0,,,,,,,,,,,,,,,,,,,
9952008,1495310346235,,,,,34,,,0.02,0.04,0.98,-3.0,-0.1,-0.2,760,0,1,1,0.0,0,39.538612,-122.332062,0.0,4.354,312.5,9,3,1.9,15,4.26,8,0.1633,77.0352,77.0283,16
9952027,1495310346254,,,,,,,,0.02,0.04,0.98,-3.0,-0.2,-0.2,760,0,,,,,,,,,,,,,,,,,,,
9952047,1495310346274,,,,,,,,0.03,0.04,0.98,-3.0,-0.1,-0.1,760,0,,,,,,,,,,,,,,,,,,,
9952067,1495310346293,,,,,,,,0.02,0.04,0.98,-3.0,-0.2,-0.2,760,0,,,,,,,,,,,,,,,,,,,
9952087,1495310346313,,,,,,,,0.02,0.04,0.98,-3.0,-0.1,-0.2,760,0,,,,,,,,,,,,,,,,,,,
9952109,1495310346335,0,138.1,,169.4,35,164.1,,0.02,0.04,0.98,-3.0,-0.2,-0.2,760,0,1,1,0.0,0,39.538612,-122.332062,0.0,4.354,312.5,9,3,1.9,15,4.26,8,0.1633,77.0369,77.03,16
9952128,1495310346354,,,,,,,,0.02,0.04,0.98,-3.0,-0.1,-0.1,760,0,,,,,,,,,,,,,,,,,,,
9952148,1495310346374,,,,,,,,0.02,0.04,0.99,-3.0,-0.2,-0.1,740,0,,,,,,,,,,,,,,,,,,,
9952168,1495310346394,,,,,,,,0.02,0.04,0.99,-3.0,-0.1,-0.2,740,0,,,,,,,,,,,,,,,,,,,
9952188,1495310346414,,,,,,,,0.02,0.03,0.99,-3.0,-0.1,-0.2,740,0,,,,,,,,,,,,,,,,,,,
9952210,1495310346436,,,,,37,,,0.02,0.03,0.98,-3.0,-0.0,-0.1,740,0,1,1,0.0,0,39.538612,-122.332062,0.0,4.354,312.5,9,3,1.9,15,4.26,8,0.1633,77.0386,77.0317,16
9952229,1495310346455,,,,,,,,0.03,0.04,0.98,-3.0,0.1,-0.1,760,0,,,,,,,,,,,,,,,,,,,
9952249,1495310346475,,,,,,,,0.02,0.04,0.99,-3.0,-0.0,-0.1,760,0,,,,,,,,,,,,,,,,,,,
9952269,1495310346495,,,,,,,,0.03,0.04,0.99,-3.0,0.0,-0.2,760,0,,,,,,,,,,,,,,,,,,,
9952289,1495310346515,,,,,,,,0.02,0.04,0.98,-3.0,-0.1,-0.1,740,0,,,,,,,,,,,,,,,,,,,
9952311,1495310346537,0,137.7,,169.0,33,164.3,,0.03,0.05,0.98,-3.0,0.0,-0.1,740,0,1,1,0.0,0,39.538612,-122.332062,0.0,4.354,312.5,9,3,1.9,15,4.26,8,0.1633,77.0402,77.0333,16
9952330,1495310346556,,,,,,,,0.02,0.05,0.99,-3.0,-0.1,-0.1,740,0,,,,,,,,,,,,,,,,,,,
9952350,1495310346576,,,,,,,,0.02,0.05,0.99,-3.0,-0.1,-0.2,740,0,,,,,,,,,,,,,,,,,,,
9952370,1495310346596,,,,,,,,0.03,0.05,0.99,-3.0,-0.1,-0.2,740,0,,,,,,,,,,,,,,,,,,,
9952390,1495310346616,,,,,,,,0.03,0.04,0.99,-3.0,0.0,-0.2,760,0,,,,,,,,,,,,,,,,,,,
9952412,1495310346638,,,,,34,,,0.03,0.04,0.99,-3.0,-0.1,-0.2,740,0,1,1,0.0,0,39.538612,-122.332062,0.0,4.354,312.5,9,3,1.9,15,4.26,8,0.1633,77.0419,77.035,16
9952431,1495310346657,,,,,,,,0.03,0.04,0.99,-3.0,-0.0,-0.2,740,0,,,,,,,,,,,,,,,,,,,
9952451,1495310346677,,,,,,,,0.03,0.04,0.99,-3.0,-0.1,-0.2,740,0,,,,,,,,,,,,,,,,,,,
9952471,1495310346697,,,,,,,,0.03,0.04,0.99,-3.0,-0.0,-0.2,740,0,,,,,,,,,,,,,,,,,,,
9952491,1495310346717,,,,,,,,0.03,0.04,0.99,-2.9,-0.2,-0.2,740,0,,,,,,,,,,,,,,,,,,,
9952513,1495310346739,0,138.2,,169.5,34,164.1,,0.03,0.04,0.99,-2.9,-0.1,-0.3,740,0,1,1,0.0,0,39.538612,-122.332062,0.0,4.354,312.5,9,3,1.9,15,4.26,8,0.1633,77.0436,77.0367,16
9952532,1495310346758,,,,,,,,0.03,0.04,0.99,-2.9,-0.1,-0.2,740,0,,,,,,,,,,,,,,,,,,,
9952552,1495310346778,,,,,,,,0.02,0.04,0.98,-2.9,-0.1,-0.2,740,0,,,,,,,,,,,,,,,,,,,
9952572,1495310346798,,,,,,,,0.03,0.04,0.98,-2.9,-0.2,-0.1,740,0,,,,,,,,,,,,,,,,,,,
9952592,1495310346818,,,,,,,,0.02,0.04,0.99,-2.9,-0.1,-0.2,740,0,,,,,,,,,,,,,,,,,,,
9952614,1495310346840,,,,,31,,,0.02,0.04,0.99,-2.9,-0.1,-0.2,740,0,1,1,0.0,0,39.538612,-122.332062,0.0,4.354,312.5,9,3,1.9,15,4.26,8,0.1633,77.0453,77.0383,16
9952633,1495310346859,,,,,,,,0.02,0.04,0.98,-2.9,-0.2,-0.2,740,0,,,,,,,,,,,,,,,,,,,
9952653,1495310346879,,,,,,,,0.03,0.05,0.98,-2.9,-0.1,-0.1,740,0,,,,,,,,,,,,,,,,,,,
9952673,1495310346898,,,,,,,,0.02,0.05,0.99,-2.9,-0.2,-0.2,740,0,,,,,,,,,,,,,,,,,,,
9952693,1495310346918,,,,,,,,0.02,0.04,0.99,-2.9,-0.2,-0.2,740,0,,,,,,,,,,,,,,,,,,,
9952715,1495310346940,0,137.5,,168.8,32,164.6,,0.02,0.05,0.98,-2.9,-0.2,-0.1,740,0,1,1,0.0,0,39.538612,-122.332062,0.0,4.354,312.5,9,3,1.9,15,4.26,8,0.1633,77.047,77.04,16
9952734,1495310346959,,,,,,,,0.02,0.05,0.98,-3.0,-0.1,-0.1,740,0,,,,,,,,,,,,,,,,,,,
9952754,1495310346979,,,,,,,,0.02,0.05,0.99,-3.0,-0.1,-0.2,740,0,,,,,,,,,,,,,,,,,,,
9952774,1495310346995,,,,,,,,0.02,0.04,0.99,-3.0,-0.1,-0.2,740,0,,,,,,,,,,,,,,,,,,,
9952794,1495310347015,,,,,,,,0.02,0.05,0.98,-3.0,-0.1,-0.2,740,0,,,,,,,,,,,,,,,,,,,
9952816,1495310347037,,,,,35,,,0.02,0.05,0.98,-3.0,0.0,-0.1,740,0,1,1,0.0,0,39.538612,-122.332062,0.0,4.354,312.5,9,3,1.9,15,4.26,8,0.1633,77.0486,77.0417,16
9952835,1495310347056,,,,,,,,0.02,0.05,0.99,-3.0,-0.1,-0.1,740,0,,,,,,,,,,,,,,,,,,,
9952855,1495310347076,,,,,,,,0.02,0.05,0.99,-3.0,0.0,-0.2,740,0,,,,,,,,,,,,,,,,,,,
9952875,1495310347100,,,,,,,,0.02,0.05,0.99,-3.0,-0.1,-0.2,740,0,,,,,,,,,,,,,,,,,,,
9952895,1495310347120,,,,,,,,0.03,0.05,0.99,-3.0,0.0,-0.1,740,0,,,,,,,,,,,,,,,,,,,
9952917,1495310347142,0,138.1,-0.4,169.6,35,164.1,14.54,0.02,0.05,0.99,-3.0,-0.1,-0.1,740,0,1,1,0.0,0,39.538612,-122.332062,0.0,4.354,312.5,9,3,1.9,15,4.26,8,0.1633,77.0503,77.0433,16
9952936,1495310347161,,,,,,,,0.02,0.04,1.0,-3.0,-0.0,-0.2,740,0,,,,,,,,,,,,,,,,,,,
9952956,1495310347181,,,,,,,,0.02,0.04,0.99,-3.0,-0.0,-0.2,740,0,,,,,,,,,,,,,,,,,,,
9952976,1495310347201,,,,,,,,0.03,0.04,0.99,-3.0,0.1,-0.1,740,0,,,,,,,,,,,,,,,,,,,
9952996,1495310347221,,,,,,,,0.02,0.04,1.0,-3.0,-0.0,-0.2,740,0,,,,,,,,,,,,,,,,,,,
9953018,1495310347243,,,,,34,,,0.03,0.04,0.99,-3.0,0.0,-0.2,740,0,1,1,0.0,0,39.538612,-122.332062,0.0,4.354,312.5,9,3,1.9,15,4.26,8,0.1633,77.052,77.045,16
9953037,1495310347262,,,,,,,,0.03,0.03,0.99,-3.0,-0.0,-0.2,740,0,,,,,,,,,,,,,,,,,,,
9953057,1495310347282,,,,,,,,0.03,0.03,0.98,-3.0,-0.0,-0.2,740,0,,,,,,,,,,,,,,,,,,,
9953077,1495310347302,,,,,,,,0.03,0.03,0.99,-2.9,-0.1,-0.2,740,0,,,,,,,,,,,,,,,,,,,
9953097,1495310347322,,,,,,,,0.02,0.03,0.99,-2.9,-0.1,-0.2,740,0,,,,,,,,,,,,,,,,,,,
9953119,1495310347344,0,138.2,,169.7,34,164.1,,0.02,0.03,0.99,-2.9,-0.1,-0.2,740,0,1,1,0.0,0,39.538612,-122.332062,0.0,4.354,312.5,9,3,1.9,15,4.26,8,0.1633,77.0537,77.0467,16
9953138,1495310347363,,,,,,,,0.02,0.03,0.99,-2.9,-0.1,-0.2,740,0,,,,,,,,,,,,,,,,,,,
9953158,1495310347383,,,,,,,,0.03,0.03,0.99,-2.9,-0.2,-0.1,740,0,,,,,,,,,,,,,,,,,,,
9953178,1495310347403,,,,,,,,0.02,0.03,0.99,-2.9,-0.1,-0.2,740,0,,,,,,,,,,,,,,,,,,,
9953198,1495310347423,,,,,,,,0.02,0.03,0.99,-2.9,-0.1,-0.2,740,0,,,,,,,,,,,,,,,,,,,
9953220,1495310347445,,,,,33,,,0.02,0.03,0.98,-2.9,-0.1,-0.2,740,0,1,1,0.0,0,39.538612,-122.332062,0.0,4.354,312.5,9,3,1.9,15,4.26,8,0.1633,77.0554,77.0483,16
9953239,1495310347464,,,,,,,,0.02,0.04,0.98,-2.9,-0.2,-0.1,740,0,,,,,,,,,,,,,,,,,,,
9953259,1495310347484,,,,,,,,0.02,0.03,0.98,-2.9,-0.2,-0.2,720,0,,,,,,,,,,,,,,,,,,,
9953279,1495310347506,,,,,,,,0.02,0.03,0.98,-2.9,-0.2,-0.2,720,0,,,,,,,,,,,,,,,,,,,
9953299,1495310347526,,,,,,,,0.02,0.03,0.97,-2.9,-0.2,-0.1,740,0,,,,,,,,,,,,,,,,,,,
9953321,1495310347548,0,137.7,,169.1,33,164.7,,0.02,0.04,0.98,-2.9,-0.2,-0.1,740,0,1,1,0.0,0,39.538612,-122.332062,0.0,4.354,312.5,9,3,1.9,15,4.26,8,0.1633,77.0571,77.05,16
9953340,1495310347567,,,,,,,,0.02,0.04,0.98,-2.9,-0.2,-0.1,740,0,,,,,,,,,,,,,,,,,,,
9953360,1495310347587,,,,,,,,0.02,0.04,0.98,-2.9,-0.2,-0.1,740,0,,,,,,,,,,,,,,,,,,,
9953380,1495310347607,,,,,,,,0.02,0.04,0.98,-3.0,-0.2,-0.1,740,0,,,,,,,,,,,,,,,,,,,
9953400,1495310347627,,,,,,,,0.02,0.05,0.98,-3.0,-0.2,-0.0,740,0,,,,,,,,,,,,,,,,,,,
9953422,1495310347649,,,,,35,,,0.02,0.05,0.98,-3.0,-0.2,-0.1,740,0,1,1,0.0,0,39.538612,-122.332062,0.0,4.354,312.5,9,3,1.9,15,4.26,8,0.1633,77.0588,77.0517,16
9953441,1495310347668,,,,,,,,0.02,0.05,0.98,-3.0,-0.2,-0.1,740,0,,,,,,,,,,,,,,,,,,,
9953461,1495310347688,,,,,,,,0.02,0.05,0.98,-3.0,-0.3,-0.1,740,0,,,,,,,,,,,,,,,,,,,
9953481,1495310347708,,,,,,,,0.02,0.05,0.98,-3.0,-0.2,-0.1,740,0,,,,,,,,,,,,,,,,,,,
9953501,1495310347728,,,,,,,,0.02,0.05,0.98,-3.0,-0.2,-0.1,740,0,,,,,,,,,,,,,,,,,,,
9953523,1495310347750,0,138.0,,169.5,33,164.7,,0.02,0.05,0.98,-3.0,-0.2,-0.2,740,0,1,1,0.0,0,39.538612,-122.332062,0.0,4.354,312.5,9,3,1.9,15,4.26,8,0.1633,77.0604,77.0533,16
9953542,1495310347769,,,,,,,,0.01,0.05,0.98,-3.0,-0.2,-0.1,740,0,,,,,,,,,,,,,,,,,,,
9953562,1495310347789,,,,,,,,0.02,0.05,0.98,-3.0,-0.1,-0.1,740,0,,,,,,,,,,,,,,,,,,,
9953582,1495310347809,,,,,,,,0.02,0.05,0.98,-3.0,-0.2,-0.2,740,0,,,,,,,,,,,,,,,,,,,
9953602,1495310347829,,,,,,,,0.02,0.05,0.98,-3.0,-0.1,-0.2,740,0,,,,,,,,,,,,,,,,,,,
9953624,1495310347851,,,,,33,,,0.02,0.05,0.98,-3.1,-0.2,-0.1,740,0,1,1,0.0,0,39.538612,-122.332062,0.0,4.354,312.5,9,3,1.9,15,4.26,8,0.1633,77.0621,77.055,16
9953643,1495310347870,,,,,,,,0.02,0.05,0.98,-3.1,-0.1,-0.1,740,0,,,,,,,,,,,,,,,,,,,
9953663,1495310347890,,,,,,,,0.01,0.05,0.98,-3.1,-0.2,-0.1,740,0,,,,,,,,,,,,,,,,,,,
9953683,1495310347909,,,,,,,,0.02,0.05,0.99,-3.1,-0.1,-0.1,740,0,,,,,,,,,,,,,,,,,,,
9953703,1495310347929,,,,,,,,0.02,0.05,0.99,-3.1,-0.1,-0.1,740,0,,,,,,,,,,,,,,,,,,,
9953725,1495310347951,0,137.7,,169.2,33,164.7,,0.02,0.05,0.98,-3.1,0.0,-0.1,740,0,1,1,0.0,0,39.538612,-122.332062,0.0,4.354,312.5,9,3,1.9,15,4.26,8,0.1633,77.0638,77.0567,16
9953744,1495310347970,,,,,,,,0.02,0.06,0.99,-3.1,-0.1,-0.1,740,0,,,,,,,,,,,,,,,,,,,
9953764,1495310347990,,,,,,,,0.02,0.05,0.99,-3.1,-0.0,-0.2,740,0,,,,,,,,,,,,,,,,,,,
9953784,1495310348002,,,,,,,,0.02,0.05,0.99,-3.0,-0.1,-0.2,740,0,,,,,,,,,,,,,,,,,,,
9953804,1495310348022,,,,,,,,0.02,0.05,0.99,-3.1,0.0,-0.1,740,0,,,,,,,,,,,,,,,,,,,
9953826,1495310348044,,,,,34,,,0.02,0.05,0.99,-3.1,-0.2,-0.1,740,0,1,1,0.0,0,39.538612,-122.332062,0.0,4.354,312.5,9,3,1.9,15,4.26,8,0.1633,77.0654,77.0583,16
9953845,1495310348063,,,,,,,,0.02,0.05,0.99,-3.0,-0.1,-0.2,740,0,,,,,,,,,,,,,,,,,,,
9953865,1495310348091,,,,,,,,0.02,0.04,0.99,-3.0,-0.1,-0.2,740,0,,,,,,,,,,,,,,,,,,,
9953885,1495310348111,,,,,,,,0.02,0.04,0.99,-3.0,-0.1,-0.2,740,0,,,,,,,,,,,,,,,,,,,
9953905,1495310348131,,,,,,,,0.02,0.04,0.99,-3.0,-0.1,-0.2,740,0,,,,,,,,,,,,,,,,,,,
9953927,1495310348153,0,137.6,-0.4,169.2,34,164.8,14.52,0.03,0.04,0.99,-3.0,-0.1,-0.2,740,0,1,1,0.0,0,39.538612,-122.332062,0.0,4.354,312.5,9,3,1.9,15,4.26,8,0.1633,77.0672,77.06,16
9953946,1495310348172,,,,,,,,0.03,0.04,0.99,-3.0,-0.1,-0.2,740,0,,,,,,,,,,,,,,,,,,,
9953966,1495310348192,,,,,,,,0.03,0.04,0.98,-3.0,-0.1,-0.2,740,0,,,,,,,,,,,,,,,,,,,
9953986,1495310348212,,,,,,,,0.03,0.04,0.99,-3.0,-0.1,-0.2,740,0,,,,,,,,,,,,,,,,,,,
9954006,1495310348232,,,,,,,,0.03,0.04,0.99,-2.9,-0.1,-0.2,740,0,,,,,,,,,,,,,,,,,,,
9954028,1495310348254,,,,,33,,,0.02,0.04,0.99,-2.9,-0.2,-0.2,740,0,1,1,0.0,0,39.538612,-122.332062,0.0,4.354,312.5,9,3,1.9,15,4.26,8,0.1633,77.0688,77.0617,16
9954047,1495310348273,,,,,,,,0.02,0.04,0.98,-2.9,-0.2,-0.2,720,0,,,,,,,,,,,,,,,,,,,
9954067,1495310348293,,,,,,,,0.02,0.04,0.98,-2.9,-0.2,-0.2,720,0,,,,,,,,,,,,,,,,,,,
9954087,1495310348313,,,,,,,,0.02,0.04,0.98,-2.9,-0.2,-0.2,720,0,,,,,,,,,,,,,,,,,,,
9954107,1495310348333,,,,,,,,0.02,0.04,0.98,-2.9,-0.2,-0.2,720,0,,,,,,,,,,,,,,,,,,,
9954129,1495310348355,0,138.2,,169.7,30,164.2,,0.02,0.04,0.98,-2.9,-0.1,-0.2,720,0,1,1,0.0,0,39.538612,-122.332062,0.0,4.354,312.5,9,3,1.9,15,4.26,8,0.1633,77.0705,77.0633,16
9954148,1495310348374,,,,,,,,0.03,0.04,0.98,-2.9,-0.2,-0.1,720,0,,,,,,,,,,,,,,,,,,,
9954168,1495310348394,,,,,,,,0.03,0.04,0.98,-2.9,-0.2,-0.2,720,0,,,,,,,,,,,,,,,,,,,
9954188,1495310348414,,,,,,,,0.03,0.04,0.98,-2.9,-0.2,-0.2,720,0,,,,,,,,,,,,,,,,,,,
9954208,1495310348434,,,,,,,,0.03,0.05,0.98,-2.9,-0.1,-0.1,720,0,,,,,,,,,,,,,,,,,,,
9954230,1495310348456,,,,,31,,,0.03,0.04,0.99,-2.9,-0.2,-0.2,720,0,1,1,0.0,0,39.538612,-122.332062,0.0,4.354,312.5,9,3,1.9,15,4.26,8,0.1633,77.0722,77.065,16
9954249,1495310348475,,,,,,,,0.03,0.04,0.99,-2.9,-0.1,-0.2,720,0,,,,,,,,,,,,,,,,,,,
9954269,1495310348495,,,,,,,,0.03,0.05,0.99,-2.9,-0.1,-0.2,720,0,,,,,,,,,,,,,,,,,,,
9954289,1495310348515,,,,,,,,0.03,0.05,0.99,-2.9,-0.0,-0.2,720,0,,,,,,,,,,,,,,,,,,,
9954309,1495310348535,,,,,,,,0.03,0.05,0.99,-2.9,-0.1,-0.2,740,0,,,,,,,,,,,,,,,,,,,
9954331,1495310348557,0,137.6,,169.3,34,164.5,,0.03,0.04,0.99,-2.9,-0.1,-0.2,740,0,1,1,0.0,0,39.538612,-122.332062,0.0,4.354,312.5,9,3,1.9,15,4.26,8,0.1633,77.0739,77.0667,16
9954350,1495310348576,,,,,,,,0.03,0.04,0.99,-2.9,-0.1,-0.2,720,0,,,,,,,,,,,,,,,,,,,
9954370,1495310348597,,,,,,,,0.03,0.04,0.99,-3.0,0.0,-0.2,720,0,,,,,,,,,,,,,,,,,,,
9954390,1495310348617,,,,,,,,0.03,0.04,0.99,-3.0,-0.1,-0.3,720,0,,,,,,,,,,,,,,,,,,,
9954410,1495310348637,,,,,,,,0.03,0.04,0.99,-3.0,-0.1,-0.3,720,0,,,,,,,,,,,,,,,,,,,
9954432,1495310348659,,,,,32,,,0.02,0.04,0.99,-3.0,-0.1,-0.2,720,0,1,1,0.0,0,39.538612,-122.332062,0.0,4.354,312.5,9,3,1.9,15,4.26,8,0.1633,77.0756,77.0683,16
9954451,1495310348678,,,,,,,,0.03,0.04,0.99,-3.0,-0.1,-0.2,720,0,,,,,,,,,,,,,,,,,,,
9954471,1495310348697,,,,,,,,0.02,0.04,0.99,-3.0,-0.1,-0.2,720,0,,,,,,,,,,,,,,,,,,,
9954491,1495310348717,,,,,,,,0.02,0.04,0.99,-3.0,-0.0,-0.2,720,0,,,,,,,,,,,,,,,,,,,
9954511,1495310348737,,,,,,,,0.02,0.04,0.99,-3.0,-0.1,-0.2,740,0,,,,,,,,,,,,,,,,,,,
9954533,1495310348759,0,137.5,,169.3,32,164.5,,0.02,0.04,0.98,-3.0,-0.1,-0.2,720,0,1,1,0.0,0,39.538612,-122.332062,0.0,4.354,312.5,9,3,1.9,15,4.26,8,0.1633,77.0773,77.07,16
9954552,1495310348778,,,,,,,,0.02,0.04,0.99,-3.0,-0.1,-0.2,720,0,,,,,,,,,,,,,,,,,,,
9954572,1495310348798,,,,,,,,0.02,0.04,0.99,-3.0,-0.1,-0.2,720,0,,,,,,,,,,,,,,,,,,,
9954592,1495310348818,,,,,,,,0.02,0.04,0.98,-3.0,-0.2,-0.1,720,0,,,,,,,,,,,,,,,,,,,
9954612,1495310348838,,,,,,,,0.02,0.04,0.98,-3.0,-0.2,-0.1,740,0,,,,,,,,,,,,,,,,,,,
9954634,1495310348860,,,,,31,,,0.02,0.04,0.98,-3.0,-0.2,-0.2,740,0,1,1,0.0,0,39.538612,-122.332062,0.0,4.354,312.5,9,3,1.9,15,4.26,8,0.1633,77.0789,77.0717,16
9954653,1495310348879,,,,,,,,0.02,0.04,0.99,-3.0,-0.1,-0.2,740,0,,,,,,,,,,,,,,,,,,,
9954673,1495310348898,,,,,,,,0.02,0.05,0.98,-3.0,-0.2,-0.1,740,0,,,,,,,,,,,,,,,,,,,
9954693,1495310348918,,,,,,,,0.02,0.05,0.98,-3.0,-0.2,-0.1,720,0,,,,,,,,,,,,,,,,,,,
9954713,1495310348938,,,,,,,,0.02,0.05,0.98,-3.0,-0.2,-0.2,740,0,,,,,,,,,,,,,,,,,,,
9954735,1495310348960,0,137.6,,169.3,35,164.8,,0.02,0.04,0.98,-3.0,-0.2,-0.2,740,0,1,1,0.0,0,39.538612,-122.332062,0.0,4.354,312.5,9,3,1.9,15,4.26,8,0.1633,77.0806,77.0733,16
9954754,1495310348979,,,,,,,,0.02,0.04,0.98,-3.0,-0.3,-0.2,740,0,,,,,,,,,,,,,,,,,,,
9954774,1495310348993,,,,,,,,0.02,0.05,0.98,-3.0,-0.2,-0.1,740,0,,,,,,,,,,,,,,,,,,,
9954794,1495310349013,,,,,,,,0.02,0.05,0.98,-3.0,-0.2,-0.2,740,0,,,,,,,,,,,,,,,,,,,
9954814,1495310349033,,,,,,,,0.02,0.05,0.98,-3.0,-0.2,-0.2,740,0,,,,,,,,,,,,,,,,,,,
9954836,1495310349055,,,,,33,,,0.01,0.05,0.98,-3.0,-0.2,-0.2,740,0,1,1,0.0,0,39.538612,-122.332062,0.0,4.354,312.5,9,3,1.9,15,4.26,8,0.1633,77.0822,77.075,16
9954855,1495310349074,,,,,,,,0.02,0.05,0.98,-3.0,-0.2,-0.1,740,0,,,,,,,,,,,,,,,,,,,
9954875,1495310349102,,,,,,,,0.02,0.05,0.98,-3.0,-0.2,-0.2,740,0,,,,,,,,,,,,,,,,,,,
9954895,1495310349122,,,,,,,,0.02,0.05,0.98,-3.0,-0.2,-0.2,740,0,,,,,,,,,,,,,,,,,,,
9954915,1495310349142,,,,,,,,0.01,0.05,0.98,-3.0,-0.2,-0.1,740,0,,,,,,,,,,,,,,,,,,,
9954937,1495310349164,0,137.6,-0.6,169.1,33,164.6,14.54,0.02,0.05,0.98,-3.0,-0.2,-0.1,740,0,1,1,0.0,0,39.538612,-122.332062,0.0,4.354,312.5,9,3,1.9,15,4.26,8,0.1633,77.084,77.0767,16
9954956,1495310349183,,,,,,,,0.01,0.05,0.98,-3.0,-0.2,-0.1,740,0,,,,,,,,,,,,,,,,,,,
9954976,1495310349201,,,,,,,,0.01,0.04,0.98,-3.0,-0.2,-0.2,740,0,,,,,,,,,,,,,,,,,,,
9954996,1495310349221,,,,,,,,0.01,0.05,0.98,-3.0,-0.2,-0.2,740,0,,,,,,,,,,,,,,,,,,,
9955016,1495310349241,,,,,,,,0.02,0.05,0.98,-3.0,-0.2,-0.1,740,0,,,,,,,,,,,,,,,,,,,
9955038,1495310349263,,,,,35,,,0.01,0.05,0.98,-3.0,-0.2,-0.2,740,0,1,1,0.0,0,39.538612,-122.332062,0.0,4.354,312.5,9,3,1.9,15,4.26,8,0.1633,77.0857,77.0783,16
9955057,1495310349282,,,,,,,,0.01,0.05,0.98,-3.0,-0.2,-0.2,740,0,,,,,,,,,,,,,,,,,,,
9955077,1495310349304,,,,,,,,0.01,0.05,0.98,-3.0,-0.2,-0.1,740,0,,,,,,,,,,,,,,,,,,,
9955097,1495310349324,,,,,,,,0.02,0.05,0.97,-3.0,-0.2,-0.1,720,0,,,,,,,,,,,,,,,,,,,
9955117,1495310349344,,,,,,,,0.01,0.05,0.98,-3.0,-0.2,-0.2,740,0,,,,,,,,,,,,,,,,,,,
9955139,1495310349366,0,138.2,,169.9,32,164.2,,0.01,0.05,0.98,-3.0,-0.2,-0.2,740,0,1,1,0.0,0,39.538612,-122.332062,0.0,4.354,312.5,9,3,1.9,15,4.26,8,0.1633,77.0874,77.08,16
