"Interval"|"ms"|0|0|1,"Utc"|"ms"|0|0|1,"FuelLevel"|"F"|0|100|5,"OilTemp"|"F"|0.0|300.0|5,"CoolantPressPSI"|"PSI"|0.0|20.0|1,"Coolant"|"F"|0.0|300.0|5,"OilPress"|"PSI"|0|150|10,"EngineTemp"|"F"|0.0|300.0|5,"Battery"|"Volts"|0.0|20.0|1,"AccelX"|"G"|-3.0|3.0|50,"AccelY"|"G"|-3.0|3.0|50,"AccelZ"|"G"|-3.0|3.0|50,"Yaw"|"Deg/Sec"|-300.0|300.0|50,"Pitch"|"Deg/Sec"|-300.0|300.0|50,"Roll"|"Deg/Sec"|-300.0|300.0|50,"RPM"|""|0|10000|50,"Driveshaft"|"RPM"|0|5000|50,"GPIO1"|""|0|1|10,"GPIO2"|""|0|1|10,"GearRatio"|""|-5.0|5.0|10,"Gear"|""|-1|5|10,"Latitude"|"Degrees"|-180.0|180.0|10,"Longitude"|"Degrees"|-180.0|180.0|10,"Speed"|"mph"|0.0|150.0|10,"Distance"|"mi"|0.0|0.0|10,"Altitude"|"ft"|0.0|4000.0|10,"GPSSats"|""|0|20|10,"GPSQual"|""|0|5|10,"GPSDOP"|""|0.0|20.0|10,"LapCount"|""|0|0|10,"LapTime"|"Min"|0.0|0.0|10,"Sector"|""|0|0|10,"SectorTime"|"Min"|0.0|0.0|10,"PredTime"|"Min"|0.0|0.0|10,"ElapsedTime"|"Min"|0.0|0.0|10,"CurrentLap"|""|0|0|10
9599739,1495309993959,,,,,,,,0.07,0.09,0.99,-3.0,-0.1,-0.3,360,8,,,,,,,,,,,,,,,,,,,
9599759,1495309993979,,,,,,,,0.05,0.08,0.98,-3.0,-0.1,-0.3,360,8,,,,,,,,,,,,,,,,,,,
9599779,1495309993993,,,,,,,,0.05,0.09,0.97,-3.0,-0.3,-0.4,580,8,,,,,,,,,,,,,,,,,,,
9599799,1495309994013,,,,,,,,0.06,0.08,0.97,-2.9,0.0,-0.6,720,8,,,,,,,,,,,,,,,,,,,
9599821,1495309994035,0,134.3,,145.4,0,147.0,,0.05,0.05,0.97,-2.9,0.0,-0.6,720,8,1,0,248.571,0,39.540588,-122.332367,0.0,4.2,388.0,9,3,1.8,15,4.26,8,0.1633,71.7034,71.1583,16
9599840,1495309994054,,,,,,,,0.04,0.04,0.95,-2.9,0.1,-0.5,840,8,,,,,,,,,,,,,,,,,,,
9599860,1495309994074,,,,,,,,0.05,0.03,0.97,-2.8,0.2,-0.5,880,8,,,,,,,,,,,,,,,,,,,
9599880,1495309994098,,,,,,,,0.06,0.05,0.97,-2.9,0.2,-0.3,840,8,,,,,,,,,,,,,,,,,,,
9599900,1495309994118,,,,,,,,0.06,0.07,0.97,-3.0,0.1,-0.1,820,512820,,,,,,,,,,,,,,,,,,,
9599922,1495309994140,,,,,0,,,0.06,0.08,0.98,-3.0,-0.1,-0.2,760,0,1,0,120.0,0,39.540588,-122.332367,0.0,4.2,388.0,9,3,1.8,15,4.26,8,0.1633,71.7051,71.16,16
9599941,1495309994159,,,,,,,,0.06,0.07,0.98,-3.0,-0.1,-0.2,760,0,,,,,,,,,,,,,,,,,,,
9599961,1495309994179,,,,,,,,0.06,0.06,0.98,-2.9,-0.1,-0.3,740,0,,,,,,,,,,,,,,,,,,,
9599981,1495309994202,,,,,,,,0.06,0.07,0.98,-3.0,-0.2,-0.2,700,0,,,,,,,,,,,,,,,,,,,
9600001,1495309994222,,,,,,,,0.06,0.07,0.98,-3.0,-0.3,-0.2,680,0,,,,,,,,,,,,,,,,,,,
9600023,1495309994244,0,134.5,,145.6,1,146.2,,0.05,0.06,0.99,-2.9,-0.3,-0.3,680,0,1,0,0.0,0,39.540588,-122.332367,0.0,4.2,388.0,9,3,1.8,15,4.26,8,0.1633,71.7069,71.1617,16
9600042,1495309994263,,,,,,,,0.05,0.07,0.99,-3.0,-0.3,-0.2,660,0,,,,,,,,,,,,,,,,,,,
9600062,1495309994283,,,,,,,,0.05,0.06,0.98,-2.9,-0.1,-0.2,600,0,,,,,,,,,,,,,,,,,,,
9600082,1495309994302,,,,,,,,0.05,0.06,0.98,-2.9,-0.1,-0.1,600,0,,,,,,,,,,,,,,,,,,,
9600102,1495309994322,,,,,,,,0.07,0.07,0.99,-3.0,-0.1,0.0,700,0,,,,,,,,,,,,,,,,,,,
9600124,1495309994344,,,,,2,,,0.06,0.06,0.99,-3.0,-0.0,-0.3,760,0,1,0,0.0,0,39.540588,-122.332367,0.0,4.2,388.0,9,3,1.8,15,4.26,8,0.1633,71.7085,71.1633,16
9600143,1495309994363,,,,,,,,0.06,0.05,0.99,-2.9,-0.0,-0.4,820,0,,,,,,,,,,,,,,,,,,,
9600163,1495309994383,,,,,,,,0.06,0.05,0.99,-2.9,-0.2,-0.4,820,0,,,,,,,,,,,,,,,,,,,
9600183,1495309994403,,,,,,,,0.05,0.05,0.99,-2.9,-0.1,-0.4,840,0,,,,,,,,,,,,,,,,,,,
9600203,1495309994423,,,,,,,,0.05,0.03,0.98,-2.9,-0.0,-0.2,840,0,,,,,,,,,,,,,,,,,,,
9600225,1495309994445,0,133.9,,145.1,2,147.0,,0.05,0.05,0.99,-3.0,-0.1,-0.1,880,0,1,0,0.0,0,39.540588,-122.332367,0.0,4.2,388.0,9,3,1.8,15,4.26,8,0.1633,71.7102,71.165,16
9600244,1495309994464,,,,,,,,0.05,0.05,0.98,-3.0,-0.4,-0.1,860,0,,,,,,,,,,,,,,,,,,,
9600264,1495309994484,,,,,,,,0.05,0.05,0.98,-2.9,-0.1,-0.1,900,0,,,,,,,,,,,,,,,,,,,
9600284,1495309994503,,,,,,,,0.05,0.07,0.99,-2.9,-0.1,-0.2,900,0,,,,,,,,,,,,,,,,,,,
9600304,1495309994523,,,,,,,,0.05,0.06,0.99,-3.0,-0.1,-0.2,900,0,,,,,,,,,,,,,,,,,,,
9600326,1495309994545,,,,,2,,,0.06,0.06,1.0,-2.9,-0.2,-0.2,900,0,1,0,0.0,0,39.540588,-122.332367,0.0,4.2,388.0,9,3,1.8,15,4.26,8,0.1633,71.7119,71.1667,16
9600345,1495309994564,,,,,,,,0.05,0.06,1.0,-2.9,-0.3,-0.3,920,0,,,,,,,,,,,,,,,,,,,
9600365,1495309994584,,,,,,,,0.05,0.06,0.99,-2.9,-0.3,-0.3,920,0,,,,,,,,,,,,,,,,,,,
9600385,1495309994604,,,,,,,,0.05,0.06,0.99,-3.0,-0.3,-0.2,960,0,,,,,,,,,,,,,,,,,,,
9600405,1495309994624,,,,,,,,0.05,0.07,0.99,-3.0,-0.3,-0.1,980,0,,,,,,,,,,,,,,,,,,,
9600427,1495309994646,1,134.2,-0.7,145.3,1,146.9,14.13,0.05,0.07,0.98,-3.0,-0.3,-0.1,980,0,1,0,0.0,0,39.540588,-122.332367,0.0,4.2,388.0,9,3,1.8,15,4.26,8,0.1633,71.7136,71.1683,16
9600446,1495309994665,,,,,,,,0.05,0.06,0.98,-3.0,-0.2,-0.0,960,0,,,,,,,,,,,,,,,,,,,
9600466,1495309994685,,,,,,,,0.05,0.07,0.99,-3.0,-0.2,-0.0,980,0,,,,,,,,,,,,,,,,,,,
9600486,1495309994705,,,,,,,,0.05,0.08,0.99,-3.0,-0.2,0.0,980,0,,,,,,,,,,,,,,,,,,,
9600506,1495309994725,,,,,,,,0.05,0.08,0.99,-3.0,-0.1,-0.0,980,0,,,,,,,,,,,,,,,,,,,
9600528,1495309994747,,,,,4,,,0.05,0.09,0.99,-2.9,-0.1,-0.0,1000,0,1,0,0.0,0,39.540588,-122.332367,0.0,4.2,388.0,9,3,1.8,15,4.26,8,0.1633,71.7152,71.17,16
9600547,1495309994766,,,,,,,,0.05,0.09,1.0,-2.9,-0.0,-0.0,980,0,,,,,,,,,,,,,,,,,,,
9600567,1495309994786,,,,,,,,0.05,0.1,1.0,-2.9,-0.1,-0.0,980,0,,,,,,,,,,,,,,,,,,,
9600587,1495309994804,,,,,,,,0.05,0.1,1.0,-2.9,-0.0,-0.0,980,0,,,,,,,,,,,,,,,,,,,
9600607,1495309994824,,,,,,,,0.05,0.1,1.0,-2.9,-0.1,-0.0,980,0,,,,,,,,,,,,,,,,,,,
9600629,1495309994846,1,134.3,,145.4,6,146.8,,0.06,0.1,1.0,-2.9,-0.1,-0.0,1000,0,1,1,0.0,0,39.540588,-122.332367,0.0,4.2,388.0,9,3,1.8,15,4.26,8,0.1633,71.7169,71.1717,16
9600648,1495309994865,,,,,,,,0.06,0.11,0.99,-2.9,-0.2,-0.0,1000,0,,,,,,,,,,,,,,,,,,,
9600668,1495309994885,,,,,,,,0.06,0.12,0.99,-2.9,-0.2,-0.0,980,0,,,,,,,,,,,,,,,,,,,
9600688,1495309994907,,,,,,,,0.06,0.11,0.99,-3.0,-0.2,-0.0,980,0,,,,,,,,,,,,,,,,,,,
9600708,1495309994927,,,,,,,,0.06,0.11,0.99,-2.9,-0.3,0.0,980,0,,,,,,,,,,,,,,,,,,,
9600730,1495309994949,,,,,8,,,0.05,0.11,0.99,-2.9,-0.3,0.0,980,0,1,1,0.0,0,39.540588,-122.332367,0.0,4.2,388.0,9,3,1.8,15,4.26,8,0.1633,71.7186,71.1733,16
9600749,1495309994968,,,,,,,,0.05,0.11,0.99,-2.9,-0.3,0.0,980,0,,,,,,,,,,,,,,,,,,,
9600769,1495309994988,,,,,,,,0.05,0.12,0.99,-2.9,-0.4,0.0,980,0,,,,,,,,,,,,,,,,,,,
9600789,1495309995004,,,,,,,,0.05,0.12,0.99,-2.9,-0.5,0.0,960,0,,,,,,,,,,,,,,,,,,,
9600809,1495309995024,,,,,,,,0.05,0.12,1.0,-2.9,-0.5,0.1,960,0,,,,,,,,,,,,,,,,,,,
9600831,1495309995046,1,134.1,,145.3,12,146.9,,0.05,0.12,0.99,-2.9,-0.5,0.1,960,0,1,1,0.0,0,39.540588,-122.332367,0.0,4.2,388.0,9,3,1.8,15,4.26,8,0.1633,71.7202,71.175,16
9600850,1495309995065,,,,,,,,0.05,0.12,1.0,-2.9,-0.4,0.1,960,0,,,,,,,,,,,,,,,,,,,
9600870,1495309995091,,,,,,,,0.05,0.13,1.0,-2.9,-0.4,0.1,960,0,,,,,,,,,,,,,,,,,,,
9600890,1495309995111,,,,,,,,0.05,0.13,1.0,-2.9,-0.4,0.1,960,0,,,,,,,,,,,,,,,,,,,
9600910,1495309995131,,,,,,,,0.05,0.14,1.0,-3.0,-0.4,-0.0,940,0,,,,,,,,,,,,,,,,,,,
9600932,1495309995153,,,,,14,,,0.06,0.15,1.0,-3.0,-0.3,-0.0,940,0,1,1,0.0,0,39.540588,-122.332367,0.0,4.2,388.0,9,3,1.8,15,4.26,8,0.1633,71.722,71.1767,16
9600951,1495309995172,,,,,,,,0.06,0.15,1.0,-3.0,-0.3,-0.0,940,0,,,,,,,,,,,,,,,,,,,
9600971,1495309995192,,,,,,,,0.06,0.15,1.0,-3.1,-0.3,-0.0,920,0,,,,,,,,,,,,,,,,,,,
9600991,1495309995210,,,,,,,,0.06,0.15,1.0,-3.1,-0.4,-0.1,920,0,,,,,,,,,,,,,,,,,,,
9601011,1495309995230,,,,,,,,0.06,0.14,1.0,-3.0,-0.4,-0.1,920,0,,,,,,,,,,,,,,,,,,,
9601033,1495309995252,0,133.8,,145.0,15,146.8,,0.05,0.14,1.0,-3.0,-0.4,-0.2,920,0,1,1,0.0,0,39.540588,-122.332367,0.0,4.2,388.0,9,3,1.8,15,4.26,8,0.1633,71.7237,71.1783,16
9601052,1495309995271,,,,,,,,0.05,0.13,1.0,-2.9,-0.4,-0.3,900,0,,,,,,,,,,,,,,,,,,,
9601072,1495309995291,,,,,,,,0.04,0.13,0.99,-2.9,-0.3,-0.3,900,0,,,,,,,,,,,,,,,,,,,
9601092,1495309995311,,,,,,,,0.04,0.11,0.99,-2.9,-0.3,-0.4,900,0,,,,,,,,,,,,,,,,,,,
9601112,1495309995331,,,,,,,,0.04,0.1,0.99,-2.9,-0.2,-0.4,900,0,,,,,,,,,,,,,,,,,,,
9601134,1495309995353,,,,,17,,,0.04,0.1,0.99,-2.9,-0.3,-0.3,880,0,1,1,0.0,0,39.540588,-122.332367,0.0,4.2,388.0,9,3,1.8,15,4.26,8,0.1633,71.7253,71.18,16
9601153,1495309995372,,,,,,,,0.04,0.09,0.98,-2.9,-0.3,-0.3,880,0,,,,,,,,,,,,,,,,,,,
9601173,1495309995392,,,,,,,,0.04,0.09,0.98,-2.9,-0.3,-0.2,880,0,,,,,,,,,,,,,,,,,,,
9601193,1495309995412,,,,,,,,0.05,0.09,0.98,-3.0,-0.2,-0.1,880,0,,,,,,,,,,,,,,,,,,,
9601213,1495309995432,,,,,,,,0.05,0.1,0.98,-3.0,-0.2,-0.1,880,0,,,,,,,,,,,,,,,,,,,
9601235,1495309995454,0,134.0,,145.3,19,146.8,,0.05,0.1,0.99,-3.1,-0.3,-0.1,860,0,1,1,0.0,0,39.540588,-122.332367,0.0,4.2,388.0,9,3,1.8,15,4.26,8,0.1633,71.727,71.1817,16
9601254,1495309995473,,,,,,,,0.05,0.09,0.99,-3.0,-0.3,-0.1,860,0,,,,,,,,,,,,,,,,,,,
9601274,1495309995492,,,,,,,,0.05,0.09,0.99,-3.0,-0.3,-0.2,860,0,,,,,,,,,,,,,,,,,,,
9601294,1495309995512,,,,,,,,0.05,0.09,0.99,-3.0,-0.2,-0.3,860,0,,,,,,,,,,,,,,,,,,,
9601314,1495309995532,,,,,,,,0.05,0.08,0.99,-2.9,-0.2,-0.3,840,0,,,,,,,,,,,,,,,,,,,
9601336,1495309995554,,,,,22,,,0.04,0.08,0.99,-3.0,-0.2,-0.2,840,0,1,1,0.0,0,39.540588,-122.332367,0.0,4.2,388.0,9,3,1.8,15,4.26,8,0.1633,71.7287,71.1833,16
9601355,1495309995573,,,,,,,,0.04,0.08,0.99,-3.0,-0.1,-0.2,840,0,,,,,,,,,,,,,,,,,,,
9601375,1495309995593,,,,,,,,0.05,0.08,0.99,-3.0,-0.1,-0.1,840,0,,,,,,,,,,,,,,,,,,,
9601395,1495309995613,,,,,,,,0.05,0.09,0.99,-3.0,-0.3,-0.1,840,0,,,,,,,,,,,,,,,,,,,
9601415,1495309995633,,,,,,,,0.04,0.08,0.99,-3.0,-0.3,-0.2,840,0,,,,,,,,,,,,,,,,,,,
9601437,1495309995655,0,134.2,-0.4,145.3,29,146.8,14.49,0.05,0.08,0.99,-3.0,-0.2,-0.2,840,0,1,1,0.0,0,39.540588,-122.332367,0.0,4.2,388.0,9,3,1.8,15,4.26,8,0.1633,71.7304,71.185,16
9601456,1495309995674,,,,,,,,0.05,0.08,0.99,-2.9,-0.2,-0.2,820,0,,,,,,,,,,,,,,,,,,,
9601476,1495309995696,,,,,,,,0.04,0.08,0.99,-3.0,-0.2,-0.2,820,0,,,,,,,,,,,,,,,,,,,
9601496,1495309995716,,,,,,,,0.05,0.08,0.99,-3.0,-0.1,-0.1,820,0,,,,,,,,,,,,,,,,,,,
9601516,1495309995736,,,,,,,,0.05,0.08,0.99,-3.0,-0.1,-0.1,820,0,,,,,,,,,,,,,,,,,,,
9601538,1495309995758,,,,,33,,,0.04,0.08,1.0,-3.0,-0.1,-0.1,820,0,1,1,0.0,0,39.540588,-122.332367,0.0,4.2,388.0,9,3,1.8,15,4.26,8,0.1633,71.7321,71.1867,16
9601557,1495309995777,,,,,,,,0.04,0.08,0.99,-3.0,-0.1,-0.2,820,0,,,,,,,,,,,,,,,,,,,
9601577,1495309995798,,,,,,,,0.04,0.07,0.99,-3.0,-0.1,-0.2,820,0,,,,,,,,,,,,,,,,,,,
9601597,1495309995818,,,,,,,,0.04,0.08,0.99,-3.0,-0.2,-0.2,820,0,,,,,,,,,,,,,,,,,,,
9601617,1495309995838,,,,,,,,0.04,0.07,0.99,-3.0,-0.1,-0.2,820,0,,,,,,,,,,,,,,,,,,,
9601639,1495309995860,0,133.7,,145.1,35,146.5,,0.04,0.08,0.99,-3.0,-0.2,-0.1,820,0,1,1,0.0,0,39.540588,-122.332367,0.0,4.2,388.0,9,3,1.8,15,4.26,8,0.1633,71.7338,71.1883,16
9601658,1495309995879,,,,,,,,0.04,0.08,0.99,-3.0,-0.3,-0.1,820,0,,,,,,,,,,,,,,,,,,,
9601678,1495309995898,,,,,,,,0.04,0.07,0.99,-3.0,-0.3,-0.2,820,0,,,,,,,,,,,,,,,,,,,
9601698,1495309995918,,,,,,,,0.04,0.07,0.99,-3.0,-0.2,-0.2,820,0,,,,,,,,,,,,,,,,,,,
9601718,1495309995938,,,,,,,,0.04,0.08,0.99,-3.0,-0.3,-0.2,820,0,,,,,,,,,,,,,,,,,,,
9601740,1495309995960,,,,,37,,,0.05,0.08,0.99,-3.0,-0.1,-0.1,820,0,1,1,0.0,0,39.540588,-122.332367,0.0,4.2,388.0,9,3,1.8,15,4.26,8,0.1633,71.7355,71.19,16
9601759,1495309995979,,,,,,,,0.05,0.08,0.99,-3.0,-0.2,-0.1,800,0,,,,,,,,,,,,,,,,,,,
9601779,1495309995993,,,,,,,,0.04,0.08,0.99,-3.0,-0.2,-0.2,800,0,,,,,,,,,,,,,,,,,,,
9601799,1495309996013,,,,,,,,0.04,0.07,0.99,-2.9,-0.1,-0.2,800,0,,,,,,,,,,,,,,,,,,,
9601819,1495309996033,,,,,,,,0.05,0.07,0.99,-3.0,-0.2,-0.2,800,0,,,,,,,,,,,,,,,,,,,
9601841,1495309996055,0,133.7,,144.9,38,146.6,,0.04,0.07,0.99,-3.0,-0.2,-0.2,800,0,1,1,0.0,0,39.540588,-122.332367,0.0,4.2,388.0,9,3,1.8,15,4.26,8,0.1633,71.7371,71.1917,16
9601860,1495309996074,,,,,,,,0.05,0.07,0.99,-3.0,-0.1,-0.1,820,0,,,,,,,,,,,,,,,,,,,
9601880,1495309996100,,,,,,,,0.05,0.08,0.99,-3.0,-0.2,-0.1,820,0,,,,,,,,,,,,,,,,,,,
9601900,1495309996120,,,,,,,,0.05,0.08,0.99,-3.0,-0.2,-0.1,800,0,,,,,,,,,,,,,,,,,,,
9601920,1495309996140,,,,,,,,0.05,0.07,0.99,-3.0,-0.1,-0.2,800,0,,,,,,,,,,,,,,,,,,,
9601942,1495309996162,,,,,41,,,0.05,0.07,0.99,-3.0,-0.2,-0.1,800,0,1,1,0.0,0,39.540588,-122.332367,0.0,4.2,388.0,9,3,1.8,15,4.26,8,0.1633,71.7388,71.1933,16
9601961,1495309996181,,,,,,,,0.05,0.08,0.99,-3.0,-0.2,-0.1,800,0,,,,,,,,,,,,,,,,,,,
9601981,1495309996201,,,,,,,,0.05,0.09,0.99,-3.0,-0.1,-0.1,800,0,,,,,,,,,,,,,,,,,,,
9602001,1495309996221,,,,,,,,0.05,0.09,1.0,-3.0,-0.2,-0.1,800,0,,,,,,,,,,,,,,,,,,,
9602021,1495309996241,,,,,,,,0.04,0.08,0.99,-3.0,-0.2,-0.1,800,0,,,,,,,,,,,,,,,,,,,
9602043,1495309996263,1,133.7,,145.5,41,146.5,,0.05,0.08,0.99,-3.0,-0.1,-0.1,800,0,1,1,0.0,0,39.540588,-122.332367,0.0,4.2,388.0,9,3,1.8,15,4.26,8,0.1633,71.7405,71.195,16
9602062,1495309996282,,,,,,,,0.05,0.08,0.99,-3.0,-0.3,-0.1,800,0,,,,,,,,,,,,,,,,,,,
9602082,1495309996302,,,,,,,,0.05,0.08,0.99,-3.0,-0.1,-0.1,800,0,,,,,,,,,,,,,,,,,,,
9602102,1495309996322,,,,,,,,0.05,0.08,0.99,-3.0,-0.2,-0.0,800,0,,,,,,,,,,,,,,,,,,,
9602122,1495309996342,,,,,,,,0.05,0.09,1.0,-3.0,-0.2,-0.1,800,0,,,,,,,,,,,,,,,,,,,
9602144,1495309996364,,,,,44,,,0.04,0.08,1.0,-3.0,-0.2,-0.2,820,0,1,1,0.0,0,39.540588,-122.332367,0.0,4.2,388.0,9,3,1.8,15,4.26,8,0.1633,71.7422,71.1967,16
9602163,1495309996383,,,,,,,,0.05,0.07,1.0,-3.0,-0.1,-0.2,820,0,,,,,,,,,,,,,,,,,,,
9602183,1495309996403,,,,,,,,0.04,0.08,0.99,-3.0,-0.2,-0.2,820,0,,,,,,,,,,,,,,,,,,,
9602203,1495309996423,,,,,,,,0.05,0.08,0.99,-3.0,-0.1,-0.2,820,0,,,,,,,,,,,,,,,,,,,
9602223,1495309996443,,,,,,,,0.05,0.08,0.99,-3.0,-0.2,-0.1,820,0,,,,,,,,,,,,,,,,,,,
9602245,1495309996465,0,133.7,,145.5,43,146.5,,0.05,0.08,0.99,-3.0,-0.2,-0.2,800,0,1,1,0.0,0,39.540588,-122.332367,0.0,4.2,388.0,9,3,1.8,15,4.26,8,0.1633,71.7439,71.1983,16
9602264,1495309996484,,,,,,,,0.04,0.07,0.99,-2.9,-0.1,-0.2,820,0,,,,,,,,,,,,,,,,,,,
9602284,1495309996503,,,,,,,,0.05,0.07,0.99,-2.9,-0.2,-0.2,820,0,,,,,,,,,,,,,,,,,,,
9602304,1495309996523,,,,,,,,0.04,0.07,0.98,-3.0,-0.2,-0.2,820,0,,,,,,,,,,,,,,,,,,,
9602324,1495309996543,,,,,,,,0.05,0.07,0.99,-3.0,-0.0,-0.2,820,0,,,,,,,,,,,,,,,,,,,
9602346,1495309996565,,,,,43,,,0.05,0.07,0.99,-3.0,-0.2,-0.2,800,0,1,1,0.0,0,39.540588,-122.332367,0.0,4.2,388.0,9,3,1.8,15,4.26,8,0.1633,71.7456,71.2,16
9602365,1495309996584,,,,,,,,0.04,0.07,0.99,-3.0,-0.2,-0.2,800,0,,,,,,,,,,,,,,,,,,,
9602385,1495309996604,,,,,,,,0.04,0.07,0.99,-3.0,-0.1,-0.2,800,0,,,,,,,,,,,,,,,,,,,
9602405,1495309996624,,,,,,,,0.05,0.06,0.99,-3.0,-0.2,-0.2,800,0,,,,,,,,,,,,,,,,,,,
9602425,1495309996644,,,,,,,,0.05,0.07,0.98,-3.0,-0.2,-0.2,800,0,,,,,,,,,,,,,,,,,,,
9602447,1495309996666,0,134.4,-0.6,145.8,42,146.6,14.53,0.05,0.07,0.99,-3.0,-0.1,-0.1,820,0,1,1,0.0,0,39.540588,-122.332367,0.0,4.2,388.0,9,3,1.8,15,4.26,8,0.1633,71.7472,71.2017,16
9602466,1495309996685,,,,,,,,0.05,0.07,0.99,-3.0,-0.3,-0.1,820,0,,,,,,,,,,,,,,,,,,,
9602486,1495309996705,,,,,,,,0.05,0.07,0.99,-3.0,-0.2,-0.2,800,0,,,,,,,,,,,,,,,,,,,
9602506,1495309996725,,,,,,,,0.05,0.07,0.99,-3.0,-0.1,-0.2,800,0,,,,,,,,,,,,,,,,,,,
9602526,1495309996745,,,,,,,,0.05,0.07,0.99,-3.0,-0.2,-0.2,800,0,,,,,,,,,,,,,,,,,,,
9602548,1495309996767,,,,,44,,,0.05,0.07,0.99,-3.0,-0.1,-0.1,800,0,1,1,0.0,0,39.540588,-122.332367,0.0,4.2,388.0,9,3,1.8,15,4.26,8,0.1633,71.7489,71.2033,16
9602567,1495309996786,,,,,,,,0.05,0.08,0.99,-3.1,-0.0,-0.1,800,0,,,,,,,,,,,,,,,,,,,
9602587,1495309996806,,,,,,,,0.05,0.08,1.0,-3.1,-0.1,-0.1,820,0,,,,,,,,,,,,,,,,,,,
9602607,1495309996826,,,,,,,,0.05,0.08,0.99,-3.0,-0.1,-0.1,820,0,,,,,,,,,,,,,,,,,,,
9602627,1495309996846,,,,,,,,0.05,0.07,0.99,-3.0,-0.0,-0.1,800,0,,,,,,,,,,,,,,,,,,,
9602649,1495309996868,0,134.3,,145.9,43,146.7,,0.05,0.07,0.99,-3.0,-0.2,-0.1,800,0,1,1,0.0,0,39.540588,-122.332367,0.0,4.2,388.0,9,3,1.8,15,4.26,8,0.1633,71.7506,71.205,16
9602668,1495309996887,,,,,,,,0.05,0.08,0.99,-3.0,-0.1,-0.1,800,0,,,,,,,,,,,,,,,,,,,
9602688,1495309996907,,,,,,,,0.05,0.08,0.99,-3.0,-0.2,-0.1,800,0,,,,,,,,,,,,,,,,,,,
9602708,1495309996927,,,,,,,,0.05,0.08,1.0,-3.0,-0.3,-0.2,800,0,,,,,,,,,,,,,,,,,,,
9602728,1495309996947,,,,,,,,0.05,0.08,0.99,-3.0,-0.2,-0.2,800,0,,,,,,,,,,,,,,,,,,,
9602750,1495309996969,,,,,44,,,0.05,0.07,0.99,-3.0,-0.2,-0.2,800,0,1,1,0.0,0,39.540588,-122.332367,0.0,4.2,388.0,9,3,1.8,15,4.26,8,0.1633,71.7523,71.2067,16
9602769,1495309996988,,,,,,,,0.05,0.08,0.99,-3.0,-0.3,-0.2,800,0,,,,,,,,,,,,,,,,,,,
9602789,1495309997002,,,,,,,,0.05,0.08,0.99,-3.0,-0.2,-0.1,800,0,,,,,,,,,,,,,,,,,,,
9602809,1495309997022,,,,,,,,0.05,0.08,0.99,-3.0,-0.3,-0.1,800,0,,,,,,,,,,,,,,,,,,,
9602829,1495309997042,,,,,,,,0.05,0.08,0.99,-3.0,-0.3,-0.2,800,0,,,,,,,,,,,,,,,,,,,
9602851,1495309997064,0,133.8,,145.8,44,146.7,,0.05,0.07,0.99,-2.9,-0.2,-0.2,820,0,1,1,0.0,0,39.540588,-122.332367,0.0,4.2,388.0,9,3,1.8,15,4.26,8,0.1633,71.7539,71.2083,16
9602870,1495309997083,,,,,,,,0.05,0.07,0.99,-2.9,-0.2,-0.2,820,0,,,,,,,,,,,,,,,,,,,
9602890,1495309997109,,,,,,,,0.05,0.07,0.99,-3.0,-0.2,-0.2,820,0,,,,,,,,,,,,,,,,,,,
9602910,1495309997129,,,,,,,,0.05,0.08,0.99,-3.0,-0.0,-0.1,820,0,,,,,,,,,,,,,,,,,,,
9602930,1495309997149,,,,,,,,0.05,0.08,0.99,-3.0,-0.2,-0.1,820,0,,,,,,,,,,,,,,,,,,,
9602952,1495309997171,,,,,46,,,0.05,0.08,0.99,-2.9,-0.2,-0.2,820,0,1,1,0.0,0,39.540588,-122.332367,0.0,4.2,388.0,9,3,1.8,15,4.26,8,0.1633,71.7557,71.21,16
9602971,1495309997190,,,,,,,,0.05,0.07,0.99,-2.9,-0.1,-0.2,820,0,,,,,,,,,,,,,,,,,,,
9602991,1495309997210,,,,,,,,0.05,0.06,0.98,-2.9,-0.2,-0.2,820,0,,,,,,,,,,,,,,,,,,,
9603011,1495309997230,,,,,,,,0.05,0.07,0.98,-3.0,-0.2,-0.1,820,0,,,,,,,,,,,,,,,,,,,
9603031,1495309997250,,,,,,,,0.05,0.07,0.99,-3.0,-0.1,-0.1,820,0,,,,,,,,,,,,,,,,,,,
9603053,1495309997272,0,134.6,,145.2,45,146.1,,0.05,0.07,0.99,-3.0,-0.3,-0.1,820,0,1,1,0.0,0,39.540588,-122.332367,0.0,4.2,388.0,9,3,1.8,15,4.26,8,0.1633,71.7573,71.2117,16
9603072,1495309997291,,,,,,,,0.04,0.07,0.99,-3.0,-0.2,-0.1,820,0,,,,,,,,,,,,,,,,,,,
9603092,1495309997311,,,,,,,,0.04,0.07,0.99,-2.9,-0.1,-0.1,820,0,,,,,,,,,,,,,,,,,,,
9603112,1495309997331,,,,,,,,0.05,0.07,0.99,-3.0,-0.2,-0.1,820,0,,,,,,,,,,,,,,,,,,,
9603132,1495309997351,,,,,,,,0.05,0.07,0.99,-3.0,-0.1,-0.1,820,0,,,,,,,,,,,,,,,,,,,
9603154,1495309997373,,,,,43,,,0.05,0.08,0.99,-3.0,0.0,-0.1,820,0,1,1,0.0,0,39.540588,-122.332367,0.0,4.2,388.0,9,3,1.8,15,4.26,8,0.1633,71.759,71.2133,16
9603173,1495309997393,,,,,,,,0.05,0.08,0.99,-3.0,-0.1,-0.1,820,0,,,,,,,,,,,,,,,,,,,
9603193,1495309997413,,,,,,,,0.05,0.08,0.99,-3.0,-0.1,-0.1,820,0,,,,,,,,,,,,,,,,,,,
9603213,1495309997433,,,,,,,,0.05,0.08,0.99,-3.0,-0.0,-0.1,820,0,,,,,,,,,,,,,,,,,,,
9603233,1495309997453,,,,,,,,0.05,0.07,0.99,-3.0,-0.1,-0.2,820,0,,,,,,,,,,,,,,,,,,,
9603255,1495309997475,0,134.5,,145.1,44,146.1,,0.05,0.08,0.99,-3.0,-0.2,-0.1,820,0,1,1,0.0,0,39.540588,-122.332367,0.0,4.2,388.0,9,3,1.8,15,4.26,8,0.1633,71.7607,71.215,16
9603274,1495309997492,,,,,,,,0.05,0.07,0.99,-3.0,-0.1,-0.1,820,0,,,,,,,,,,,,,,,,,,,
9603294,1495309997512,,,,,,,,0.05,0.08,0.99,-3.0,-0.2,-0.1,820,0,,,,,,,,,,,,,,,,,,,
9603314,1495309997532,,,,,,,,0.05,0.08,0.99,-3.0,-0.2,-0.1,820,0,,,,,,,,,,,,,,,,,,,
9603334,1495309997552,,,,,,,,0.05,0.07,0.99,-3.0,-0.2,-0.2,820,0,,,,,,,,,,,,,,,,,,,
9603356,1495309997574,,,,,43,,,0.05,0.07,0.99,-3.0,-0.2,-0.2,820,0,1,1,0.0,0,39.540588,-122.332367,0.0,4.2,388.0,9,3,1.8,15,4.26,8,0.1633,71.7624,71.2167,16
9603375,1495309997593,,,,,,,,0.04,0.07,0.98,-3.0,-0.2,-0.2,820,0,,,,,,,,,,,,,,,,,,,
9603395,1495309997613,,,,,,,,0.05,0.07,0.99,-3.0,-0.1,-0.1,820,0,,,,,,,,,,,,,,,,,,,
9603415,1495309997633,,,,,,,,0.05,0.08,0.99,-3.0,-0.2,-0.1,820,0,,,,,,,,,,,,,,,,,,,
9603435,1495309997653,,,,,,,,0.05,0.08,0.99,-3.0,-0.2,-0.2,820,0,,,,,,,,,,,,,,,,,,,
9603457,1495309997675,0,134.5,-0.3,145.9,46,146.7,14.51,0.04,0.08,0.99,-3.0,-0.1,-0.2,820,0,1,1,0.0,0,39.540588,-122.332367,0.0,4.2,388.0,9,3,1.8,15,4.26,8,0.1633,71.7641,71.2183,16
9603476,1495309997696,,,,,,,,0.05,0.07,0.99,-3.0,-0.1,-0.2,820,0,,,,,,,,,,,,,,,,,,,
9603496,1495309997716,,,,,,,,0.05,0.08,0.99,-3.0,-0.2,-0.2,820,0,,,,,,,,,,,,,,,,,,,
9603516,1495309997736,,,,,,,,0.05,0.08,0.99,-3.0,-0.1,-0.2,820,0,,,,,,,,,,,,,,,,,,,
9603536,1495309997756,,,,,,,,0.05,0.08,0.99,-3.0,-0.2,-0.1,820,0,,,,,,,,,,,,,,,,,,,
9603558,1495309997778,,,,,45,,,0.05,0.08,0.99,-3.0,-0.2,-0.2,820,0,1,1,0.0,0,39.540588,-122.332367,0.0,4.2,388.0,9,3,1.8,15,4.26,8,0.1633,71.7658,71.22,16
9603577,1495309997797,,,,,,,,0.05,0.07,0.99,-3.0,-0.2,-0.2,820,0,,,,,,,,,,,,,,,,,,,
9603597,1495309997817,,,,,,,,0.05,0.07,0.99,-3.0,-0.1,-0.2,820,0,,,,,,,,,,,,,,,,,,,
9603617,1495309997837,,,,,,,,0.05,0.07,0.99,-3.0,-0.2,-0.2,820,0,,,,,,,,,,,,,,,,,,,
9603637,1495309997857,,,,,,,,0.05,0.07,0.99,-3.0,-0.1,-0.1,820,0,,,,,,,,,,,,,,,,,,,
9603659,1495309997879,0,134.6,,145.0,44,145.9,,0.05,0.08,0.99,-3.0,-0.2,-0.1,820,0,1,1,0.0,0,39.540588,-122.332367,0.0,4.2,388.0,9,3,1.8,15,4.26,8,0.1633,71.7674,71.2217,16
9603678,1495309997896,,,,,,,,0.05,0.08,0.99,-3.0,-0.2,-0.1,820,0,,,,,,,,,,,,,,,,,,,
9603698,1495309997916,,,,,,,,0.05,0.07,0.99,-2.9,-0.2,-0.2,800,0,,,,,,,,,,,,,,,,,,,
9603718,1495309997936,,,,,,,,0.05,0.07,0.99,-2.9,-0.2,-0.2,820,0,,,,,,,,,,,,,,,,,,,
9603738,1495309997956,,,,,,,,0.05,0.07,0.99,-3.0,-0.3,-0.1,820,0,,,,,,,,,,,,,,,,,,,
9603760,1495309997978,,,,,44,,,0.05,0.07,0.99,-3.0,-0.1,-0.1,820,0,1,1,0.0,0,39.540588,-122.332367,0.0,4.2,388.0,9,3,1.8,15,4.26,8,0.1633,71.7691,71.2233,16
9603779,1495309997993,,,,,,,,0.05,0.07,0.99,-3.0,-0.2,-0.1,820,0,,,,,,,,,,,,,,,,,,,
9603799,1495309998013,,,,,,,,0.05,0.08,0.99,-3.0,-0.2,-0.1,800,0,,,,,,,,,,,,,,,,,,,
9603819,1495309998033,,,,,,,,0.05,0.07,0.99,-3.0,-0.2,-0.2,800,0,,,,,,,,,,,,,,,,,,,
9603839,1495309998053,,,,,,,,0.05,0.07,0.99,-3.0,-0.1,-0.2,800,0,,,,,,,,,,,,,,,,,,,
9603861,1495309998075,0,134.0,,146.0,44,146.8,,0.05,0.07,0.99,-3.0,-0.2,-0.1,800,0,1,1,0.0,0,39.540588,-122.332367,0.0,4.2,388.0,9,3,1.8,15,4.26,8,0.1633,71.7707,71.225,16
9603880,1495309998100,,,,,,,,0.05,0.07,0.99,-3.0,-0.0,-0.1,800,0,,,,,,,,,,,,,,,,,,,
9603900,1495309998120,,,,,,,,0.05,0.08,0.99,-3.0,-0.2,-0.1,820,0,,,,,,,,,,,,,,,,,,,
9603920,1495309998140,,,,,,,,0.05,0.08,0.99,-3.0,-0.2,-0.1,800,0,,,,,,,,,,,,,,,,,,,
9603940,1495309998160,,,,,,,,0.05,0.07,0.99,-3.0,-0.1,-0.2,800,0,,,,,,,,,,,,,,,,,,,
9603962,1495309998182,,,,,43,,,0.05,0.07,0.99,-3.0,-0.2,-0.2,800,0,1,1,0.0,0,39.540588,-122.332367,0.0,4.2,388.0,9,3,1.8,15,4.26,8,0.1633,71.7725,71.2267,16
9603981,1495309998202,,,,,,,,0.05,0.08,0.99,-3.0,-0.3,-0.1,800,0,,,,,,,,,,,,,,,,,,,
9604001,1495309998222,,,,,,,,0.05,0.08,0.99,-3.0,-0.1,-0.1,800,0,,,,,,,,,,,,,,,,,,,
9604021,1495309998242,,,,,,,,0.05,0.08,0.99,-3.0,-0.2,-0.1,800,0,,,,,,,,,,,,,,,,,,,
9604041,1495309998262,,,,,,,,0.05,0.08,0.99,-3.0,-0.2,-0.1,820,0,,,,,,,,,,,,,,,,,,,
9604063,1495309998284,1,134.6,,145.9,45,146.6,,0.05,0.08,0.99,-3.0,-0.1,-0.1,800,0,1,1,0.0,0,39.540588,-122.332367,0.0,4.2,388.0,9,3,1.8,15,4.26,8,0.1633,71.7742,71.2283,16
9604082,1495309998302,,,,,,,,0.05,0.07,0.99,-3.0,-0.3,-0.1,800,0,,,,,,,,,,,,,,,,,,,
9604102,1495309998322,,,,,,,,0.05,0.08,0.99,-3.0,-0.1,-0.1,800,0,,,,,,,,,,,,,,,,,,,
9604122,1495309998342,,,,,,,,0.05,0.08,0.99,-3.0,-0.2,-0.1,820,0,,,,,,,,,,,,,,,,,,,
9604142,1495309998362,,,,,,,,0.05,0.08,0.99,-3.0,-0.3,-0.1,800,0,,,,,,,,,,,,,,,,,,,
9604164,1495309998384,,,,,44,,,0.05,0.08,0.99,-3.0,-0.2,-0.1,820,0,1,1,0.0,0,39.540588,-122.332367,0.0,4.2,388.0,9,3,1.8,15,4.26,8,0.1633,71.7759,71.23,16
9604183,1495309998403,,,,,,,,0.05,0.07,0.99,-3.0,-0.1,-0.1,820,0,,,,,,,,,,,,,,,,,,,
9604203,1495309998423,,,,,,,,0.05,0.07,0.99,-3.0,-0.3,-0.1,820,0,,,,,,,,,,,,,,,,,,,
9604223,1495309998443,,,,,,,,0.05,0.07,0.99,-3.0,-0.1,-0.1,820,0,,,,,,,,,,,,,,,,,,,
9604243,1495309998463,,,,,,,,0.05,0.07,0.99,-3.0,-0.2,-0.0,800,0,,,,,,,,,,,,,,,,,,,
9604265,1495309998485,0,134.6,,145.1,42,146.1,,0.05,0.08,0.99,-3.0,-0.2,-0.1,800,0,1,1,0.0,0,39.540588,-122.332367,0.0,4.2,388.0,9,3,1.8,15,4.26,8,0.1633,71.7775,71.2317,16
9604284,1495309998503,,,,,,,,0.05,0.07,0.99,-3.0,-0.2,-0.2,800,0,,,,,,,,,,,,,,,,,,,
9604304,1495309998523,,,,,,,,0.05,0.07,0.98,-3.0,-0.2,-0.1,800,0,,,,,,,,,,,,,,,,,,,
9604324,1495309998543,,,,,,,,0.05,0.07,0.98,-3.0,-0.3,-0.1,800,0,,,,,,,,,,,,,,,,,,,
9604344,1495309998563,,,,,,,,0.05,0.07,0.98,-3.0,-0.1,-0.1,820,0,,,,,,,,,,,,,,,,,,,
9604366,1495309998585,,,,,45,,,0.05,0.07,0.98,-3.0,-0.3,-0.1,820,0,1,1,0.0,0,39.540588,-122.332367,0.0,4.2,388.0,9,3,1.8,15,4.26,8,0.1633,71.7792,71.2333,16
9604385,1495309998604,,,,,,,,0.05,0.08,0.99,-3.0,-0.3,-0.1,800,0,,,,,,,,,,,,,,,,,,,
9604405,1495309998624,,,,,,,,0.05,0.07,0.99,-3.0,-0.2,-0.1,800,0,,,,,,,,,,,,,,,,,,,
9604425,1495309998644,,,,,,,,0.05,0.07,0.99,-3.0,-0.2,-0.1,800,0,,,,,,,,,,,,,,,,,,,
9604445,1495309998664,,,,,,,,0.05,0.07,0.99,-3.0,-0.2,-0.1,800,0,,,,,,,,,,,,,,,,,,,
9604467,1495309998686,0,133.8,-0.5,145.9,43,146.8,14.51,0.05,0.08,0.99,-3.0,-0.1,-0.1,820,0,1,1,0.0,0,39.540588,-122.332367,0.0,4.2,388.0,9,3,1.8,15,4.26,8,0.1633,71.7809,71.235,16
9604486,1495309998705,,,,,,,,0.05,0.08,0.99,-3.0,-0.2,-0.1,820,0,,,,,,,,,,,,,,,,,,,
9604506,1495309998725,,,,,,,,0.05,0.08,0.99,-3.0,-0.2,-0.1,800,0,,,,,,,,,,,,,,,,,,,
9604526,1495309998745,,,,,,,,0.05,0.07,0.99,-3.0,-0.1,-0.1,800,0,,,,,,,,,,,,,,,,,,,
9604546,1495309998765,,,,,,,,0.05,0.07,0.99,-3.0,-0.2,-0.1,800,0,,,,,,,,,,,,,,,,,,,
9604568,1495309998787,,,,,43,,,0.05,0.07,0.99,-3.0,-0.2,-0.1,800,0,1,1,0.0,0,39.540588,-122.332367,0.0,4.2,388.0,9,3,1.8,15,4.26,8,0.1633,71.7826,71.2367,16
9604587,1495309998806,,,,,,,,0.05,0.08,0.99,-3.1,-0.1,-0.1,800,0,,,,,,,,,,,,,,,,,,,
9604607,1495309998826,,,,,,,,0.05,0.08,0.99,-3.0,-0.2,-0.1,800,0,,,,,,,,,,,,,,,,,,,
9604627,1495309998846,,,,,,,,0.05,0.07,0.99,-3.0,-0.2,-0.2,820,0,,,,,,,,,,,,,,,,,,,
9604647,1495309998866,,,,,,,,0.05,0.08,0.99,-3.0,-0.1,-0.1,800,0,,,,,,,,,,,,,,,,,,,
9604669,1495309998888,0,134.4,,145.1,43,146.0,,0.05,0.08,0.99,-3.0,-0.2,-0.1,800,0,1,1,0.0,0,39.540588,-122.332367,0.0,4.2,388.0,9,3,1.8,15,4.26,8,0.1633,71.7843,71.2383,16
9604688,1495309998907,,,,,,,,0.05,0.08,0.99,-3.1,-0.1,-0.1,800,0,,,,,,,,,,,,,,,,,,,
9604708,1495309998927,,,,,,,,0.05,0.08,0.99,-3.1,-0.1,-0.1,800,0,,,,,,,,,,,,,,,,,,,
9604728,1495309998947,,,,,,,,0.05,0.08,0.99,-3.0,-0.2,-0.2,800,0,,,,,,,,,,,,,,,,,,,
9604748,1495309998967,,,,,,,,0.05,0.07,0.99,-3.0,-0.1,-0.2,800,0,,,,,,,,,,,,,,,,,,,
9604770,1495309998989,,,,,44,,,0.05,0.07,0.99,-3.0,-0.2,-0.2,800,0,1,1,0.0,0,39.540588,-122.332367,0.0,4.2,388.0,9,3,1.8,15,4.26,8,0.1633,71.7859,71.24,16
9604789,1495309999004,,,,,,,,0.05,0.07,0.99,-3.0,-0.2,-0.2,820,0,,,,,,,,,,,,,,,,,,,
9604809,1495309999024,,,,,,,,0.05,0.08,0.99,-3.0,-0.1,-0.1,800,0,,,,,,,,,,,,,,,,,,,
9604829,1495309999044,,,,,,,,0.05,0.08,0.99,-3.0,-0.2,-0.1,800,0,,,,,,,,,,,,,,,,,,,
9604849,1495309999064,,,,,,,,0.05,0.08,0.99,-3.0,-0.2,-0.2,800,0,,,,,,,,,,,,,,,,,,,
9604871,1495309999086,0,134.7,,145.2,44,146.0,,0.05,0.07,0.98,-3.0,-0.2,-0.2,800,0,1,1,0.0,0,39.540588,-122.332367,0.0,4.2,388.0,9,3,1.8,15,4.26,8,0.1633,71.7876,71.2417,16
9604890,1495309999109,,,,,,,,0.05,0.07,0.98,-3.0,-0.2,-0.1,800,0,,,,,,,,,,,,,,,,,,,
9604910,1495309999129,,,,,,,,0.05,0.07,0.98,-3.0,-0.2,-0.1,800,0,,,,,,,,,,,,,,,,,,,
9604930,1495309999149,,,,,,,,0.05,0.08,0.98,-3.0,-0.1,-0.1,820,0,,,,,,,,,,,,,,,,,,,
9604950,1495309999169,,,,,,,,0.05,0.07,0.98,-3.0,-0.2,-0.1,800,0,,,,,,,,,,,,,,,,,,,
9604972,1495309999193,,,,,43,,,0.05,0.07,0.98,-2.9,-0.2,-0.1,800,0,1,1,0.0,0,39.540588,-122.332367,0.0,4.2,388.0,9,3,1.8,15,4.26,8,0.1633,71.7894,71.245,16
9604991,1495309999212,,,,,,,,0.05,0.07,0.98,-2.9,-0.1,-0.1,800,0,,,,,,,,,,,,,,,,,,,
9605011,1495309999232,,,,,,,,0.05,0.07,0.98,-3.0,-0.2,-0.1,800,0,,,,,,,,,,,,,,,,,,,
9605031,1495309999252,,,,,,,,0.05,0.07,0.98,-3.0,-0.1,-0.1,800,0,,,,,,,,,,,,,,,,,,,
9605051,1495309999272,,,,,,,,0.05,0.07,0.98,-3.0,-0.2,-0.0,800,0,,,,,,,,,,,,,,,,,,,
9605073,1495309999294,0,134.1,,146.0,43,146.6,,0.05,0.07,0.98,-3.0,-0.2,-0.1,820,0,1,1,0.0,0,39.540588,-122.332367,0.0,4.2,388.0,9,3,1.8,15,4.26,8,0.1633,71.791,71.245,16
9605092,1495309999309,,,,,,,,0.05,0.07,0.98,-2.9,-0.2,-0.1,800,0,,,,,,,,,,,,,,,,,,,
9605112,1495309999329,,,,,,,,0.05,0.07,0.98,-2.9,-0.2,-0.1,800,0,,,,,,,,,,,,,,,,,,,
9605132,1495309999349,,,,,,,,0.05,0.07,0.98,-2.9,-0.3,-0.1,800,0,,,,,,,,,,,,,,,,,,,
9605152,1495309999369,,,,,,,,0.05,0.08,0.98,-2.9,-0.1,-0.1,800,0,,,,,,,,,,,,,,,,,,,
9605174,1495309999393,,,,,45,,,0.05,0.08,0.99,-3.0,-0.2,-0.1,800,0,1,1,0.0,0,39.540588,-122.332367,0.0,4.2,388.0,9,3,1.8,15,4.26,8,0.1633,71.7927,71.2483,16
9605193,1495309999412,,,,,,,,0.05,0.08,0.99,-2.9,-0.2,-0.2,800,0,,,,,,,,,,,,,,,,,,,
9605213,1495309999432,,,,,,,,0.05,0.07,0.98,-2.9,-0.1,-0.2,820,0,,,,,,,,,,,,,,,,,,,
9605233,1495309999452,,,,,,,,0.05,0.07,0.98,-2.9,-0.3,-0.2,820,0,,,,,,,,,,,,,,,,,,,
9605253,1495309999472,,,,,,,,0.05,0.07,0.98,-3.0,-0.2,-0.2,800,0,,,,,,,,,,,,,,,,,,,
9605275,1495309999495,0,134.6,,146.0,42,146.2,,0.05,0.08,0.98,-3.0,-0.2,-0.1,800,0,1,1,0.0,0,39.540588,-122.332367,0.0,4.2,388.0,9,3,1.8,15,4.26,8,0.1633,71.7944,71.25,16
9605294,1495309999514,,,,,,,,0.05,0.08,0.99,-3.0,-0.2,-0.1,800,0,,,,,,,,,,,,,,,,,,,
9605314,1495309999534,,,,,,,,0.05,0.07,0.99,-2.9,-0.2,-0.2,800,0,,,,,,,,,,,,,,,,,,,
9605334,1495309999554,,,,,,,,0.05,0.07,0.99,-3.0,-0.1,-0.2,800,0,,,,,,,,,,,,,,,,,,,
9605354,1495309999574,,,,,,,,0.05,0.07,0.99,-3.0,-0.3,-0.1,800,0,,,,,,,,,,,,,,,,,,,
9605376,1495309999594,,,,,44,,,0.05,0.07,0.99,-3.0,-0.1,-0.1,820,0,1,1,0.0,0,39.540588,-122.332367,0.0,4.2,388.0,9,3,1.8,15,4.26,8,0.1633,71.796,71.2517,16
9605395,1495309999613,,,,,,,,0.05,0.08,0.99,-3.0,-0.1,-0.1,820,0,,,,,,,,,,,,,,,,,,,
9605415,1495309999633,,,,,,,,0.05,0.08,0.99,-3.0,-0.2,-0.1,800,0,,,,,,,,,,,,,,,,,,,
9605435,1495309999653,,,,,,,,0.05,0.07,0.99,-3.0,-0.1,-0.1,800,0,,,,,,,,,,,,,,,,,,,
9605455,1495309999673,,,,,,,,0.05,0.07,0.99,-3.0,-0.1,-0.1,800,0,,,,,,,,,,,,,,,,,,,
9605477,1495309999697,0,134.4,-0.5,146.1,43,146.7,14.56,0.05,0.08,0.99,-3.0,-0.1,-0.1,800,0,1,1,0.0,0,39.540588,-122.332367,0.0,4.2,388.0,9,3,1.8,15,4.26,8,0.1633,71.7978,71.2533,16
9605496,1495309999716,,,,,,,,0.05,0.07,0.99,-3.0,0.1,-0.1,800,0,,,,,,,,,,,,,,,,,,,
9605516,1495309999736,,,,,,,,0.05,0.08,0.99,-3.0,-0.1,-0.0,800,0,,,,,,,,,,,,,,,,,,,
9605536,1495309999756,,,,,,,,0.05,0.08,0.99,-3.0,-0.1,-0.1,800,0,,,,,,,,,,,,,,,,,,,
9605556,1495309999776,,,,,,,,0.05,0.08,0.99,-3.0,-0.0,-0.1,800,0,,,,,,,,,,,,,,,,,,,
9605578,1495309999799,,,,,43,,,0.05,0.07,0.99,-3.0,-0.2,-0.1,800,0,1,1,0.0,0,39.540588,-122.332367,0.0,4.2,388.0,9,3,1.8,15,4.26,8,0.1633,71.7995,71.255,16
9605597,1495309999818,,,,,,,,0.05,0.08,0.99,-3.0,-0.2,-0.0,800,0,,,,,,,,,,,,,,,,,,,
9605617,1495309999838,,,,,,,,0.05,0.08,0.99,-3.0,-0.2,-0.0,800,0,,,,,,,,,,,,,,,,,,,
9605637,1495309999858,,,,,,,,0.05,0.08,0.99,-3.0,-0.3,-0.0,800,0,,,,,,,,,,,,,,,,,,,
9605657,1495309999878,,,,,,,,0.05,0.08,0.99,-3.0,-0.2,-0.1,800,0,,,,,,,,,,,,,,,,,,,
9605679,1495309999899,1,134.1,,146.0,45,146.6,,0.05,0.08,0.99,-3.0,-0.2,-0.1,800,0,1,1,0.0,0,39.540588,-122.332367,0.0,4.2,388.0,9,3,1.8,15,4.26,8,0.1633,71.8011,71.2567,16
9605698,1495309999918,,,,,,,,0.05,0.08,0.99,-3.0,-0.3,-0.1,800,0,,,,,,,,,,,,,,,,,,,
9605718,1495309999938,,,,,,,,0.05,0.08,0.99,-3.0,-0.1,-0.1,800,0,,,,,,,,,,,,,,,,,,,
9605738,1495309999958,,,,,,,,0.05,0.08,0.99,-3.0,-0.2,-0.1,800,0,,,,,,,,,,,,,,,,,,,
9605758,1495309999978,,,,,,,,0.05,0.08,0.99,-3.0,-0.2,-0.1,800,0,,,,,,,,,,,,,,,,,,,
9605780,1495309999996,,,,,45,,,0.05,0.07,0.99,-3.0,-0.2,-0.2,800,0,1,1,0.0,0,39.540588,-122.332367,0.0,4.2,388.0,9,3,1.8,15,4.26,8,0.1633,71.8027,71.2583,16
9605799,1495310000015,,,,,,,,0.05,0.07,0.99,-3.0,-0.1,-0.1,800,0,,,,,,,,,,,,,,,,,,,
9605819,1495310000035,,,,,,,,0.05,0.08,0.99,-3.0,-0.2,-0.1,800,0,,,,,,,,,,,,,,,,,,,
9605839,1495310000055,,,,,,,,0.05,0.08,0.99,-3.0,-0.1,-0.1,800,0,,,,,,,,,,,,,,,,,,,
9605859,1495310000075,,,,,,,,0.05,0.08,0.99,-3.0,-0.2,-0.1,800,0,,,,,,,,,,,,,,,,,,,
9605881,1495310000101,0,134.2,,145.4,43,146.2,,0.05,0.08,0.99,-3.0,-0.2,-0.1,800,0,1,1,0.0,0,39.540588,-122.332367,0.0,4.2,388.0,9,3,1.8,15,4.26,8,0.1633,71.8045,71.26,16
9605900,1495310000120,,,,,,,,0.05,0.08,0.99,-3.0,-0.1,-0.1,800,0,,,,,,,,,,,,,,,,,,,
9605920,1495310000140,,,,,,,,0.05,0.07,0.99,-3.0,-0.2,-0.1,800,0,,,,,,,,,,,,,,,,,,,
9605940,1495310000160,,,,,,,,0.05,0.07,0.98,-3.0,-0.2,-0.1,800,0,,,,,,,,,,,,,,,,,,,
9605960,1495310000180,,,,,,,,0.05,0.08,0.99,-3.0,-0.1,-0.1,820,0,,,,,,,,,,,,,,,,,,,
9605982,1495310000202,,,,,45,,,0.05,0.08,0.99,-3.0,-0.2,-0.1,820,0,1,1,0.0,0,39.540588,-122.332367,0.0,4.2,388.0,9,3,1.8,15,4.26,8,0.1633,71.8062,71.2617,16
9606001,1495310000221,,,,,,,,0.05,0.08,0.99,-3.0,-0.1,-0.2,800,0,,,,,,,,,,,,,,,,,,,
9606021,1495310000241,,,,,,,,0.05,0.07,0.99,-3.0,-0.1,-0.2,800,0,,,,,,,,,,,,,,,,,,,
9606041,1495310000261,,,,,,,,0.05,0.08,0.99,-3.0,-0.2,-0.2,800,0,,,,,,,,,,,,,,,,,,,
9606061,1495310000281,,,,,,,,0.05,0.08,0.99,-3.0,-0.0,-0.2,800,0,,,,,,,,,,,,,,,,,,,
9606083,1495310000303,0,134.2,,145.9,44,146.4,,0.05,0.09,0.99,-3.0,-0.1,-0.1,800,0,1,1,0.0,0,39.540588,-122.332367,0.0,4.2,388.0,9,3,1.8,15,4.26,8,0.1633,71.8079,71.2633,16
9606102,1495310000322,,,,,,,,0.05,0.08,0.99,-3.0,-0.2,-0.1,820,0,,,,,,,,,,,,,,,,,,,
9606122,1495310000342,,,,,,,,0.05,0.08,0.99,-3.0,-0.2,-0.2,820,0,,,,,,,,,,,,,,,,,,,
9606142,1495310000362,,,,,,,,0.05,0.08,0.99,-3.0,-0.1,-0.1,800,0,,,,,,,,,,,,,,,,,,,
9606162,1495310000382,,,,,,,,0.05,0.08,0.99,-3.0,-0.2,-0.1,800,0,,,,,,,,,,,,,,,,,,,
9606184,1495310000404,,,,,42,,,0.05,0.08,0.99,-3.0,-0.1,-0.1,820,0,1,1,0.0,0,39.540588,-122.332367,0.0,4.2,388.0,9,3,1.8,15,4.26,8,0.1633,71.8095,71.265,16
9606203,1495310000423,,,,,,,,0.05,0.08,0.99,-3.0,-0.2,-0.1,800,0,,,,,,,,,,,,,,,,,,,
9606223,1495310000443,,,,,,,,0.05,0.08,1.0,-3.0,-0.2,-0.1,800,0,,,,,,,,,,,,,,,,,,,
9606243,1495310000463,,,,,,,,0.05,0.08,0.99,-3.0,-0.1,-0.1,820,0,,,,,,,,,,,,,,,,,,,
9606263,1495310000483,,,,,,,,0.05,0.08,0.99,-3.0,-0.1,-0.1,820,0,,,,,,,,,,,,,,,,,,,
9606285,1495310000504,0,134.5,,146.2,44,146.6,,0.05,0.08,0.99,-3.0,-0.2,-0.1,800,0,1,1,0.0,0,39.540588,-122.332367,0.0,4.2,388.0,9,3,1.8,15,4.26,8,0.1633,71.8112,71.2667,16
9606304,1495310000523,,,,,,,,0.05,0.08,0.99,-3.0,-0.0,-0.1,800,0,,,,,,,,,,,,,,,,,,,
9606324,1495310000543,,,,,,,,0.05,0.09,0.99,-3.0,-0.2,-0.1,800,0,,,,,,,,,,,,,,,,,,,
9606344,1495310000563,,,,,,,,0.05,0.08,0.99,-3.0,-0.2,-0.1,800,0,,,,,,,,,,,,,,,,,,,
9606364,1495310000583,,,,,,,,0.05,0.08,0.99,-3.0,-0.1,-0.2,800,0,,,,,,,,,,,,,,,,,,,
9606386,1495310000607,,,,,44,,,0.05,0.08,0.99,-3.0,-0.1,-0.2,800,0,1,1,0.0,0,39.540588,-122.332367,0.0,4.2,388.0,9,3,1.8,15,4.26,8,0.1633,71.8129,71.2683,16
9606405,1495310000626,,,,,,,,0.05,0.08,0.99,-3.0,-0.1,-0.1,820,0,,,,,,,,,,,,,,,,,,,
9606425,1495310000646,,,,,,,,0.05,0.08,0.99,-3.0,-0.0,-0.1,820,0,,,,,,,,,,,,,,,,,,,
9606445,1495310000666,,,,,,,,0.05,0.08,0.99,-3.0,-0.1,-0.1,800,0,,,,,,,,,,,,,,,,,,,
9606465,1495310000686,,,,,,,,0.05,0.08,0.99,-3.0,-0.1,-0.1,800,0,,,,,,,,,,,,,,,,,,,
9606487,1495310000706,0,134.5,-0.4,146.2,45,146.6,14.51,0.05,0.08,0.99,-3.0,-0.1,-0.1,800,0,1,1,0.0,0,39.540588,-122.332367,0.0,4.2,388.0,9,3,1.8,15,4.26,8,0.1633,71.8146,71.27,16
9606506,1495310000725,,,,,,,,0.05,0.08,0.99,-3.0,-0.2,-0.1,800,0,,,,,,,,,,,,,,,,,,,
9606526,1495310000745,,,,,,,,0.05,0.07,0.98,-3.0,-0.2,-0.1,800,0,,,,,,,,,,,,,,,,,,,
9606546,1495310000765,,,,,,,,0.05,0.08,0.99,-3.0,-0.2,-0.1,820,0,,,,,,,,,,,,,,,,,,,
9606566,1495310000785,,,,,,,,0.05,0.08,0.99,-3.0,-0.2,-0.1,800,0,,,,,,,,,,,,,,,,,,,
9606588,1495310000807,,,,,44,,,0.05,0.07,0.99,-2.9,-0.2,-0.2,800,0,1,1,0.0,0,39.540588,-122.332367,0.0,4.2,388.0,9,3,1.8,15,4.26,8,0.1633,71.8163,71.2717,16
9606607,1495310000826,,,,,,,,0.05,0.07,0.99,-2.9,-0.1,-0.1,800,0,,,,,,,,,,,,,,,,,,,
9606627,1495310000846,,,,,,,,0.05,0.08,0.99,-3.0,-0.2,-0.1,800,0,,,,,,,,,,,,,,,,,,,
9606647,1495310000866,,,,,,,,0.05,0.08,0.99,-3.0,-0.1,-0.1,800,0,,,,,,,,,,,,,,,,,,,
9606667,1495310000886,,,,,,,,0.05,0.08,0.99,-3.0,-0.2,-0.1,800,0,,,,,,,,,,,,,,,,,,,
9606689,1495310000910,0,134.7,,146.3,45,146.6,,0.05,0.08,0.99,-3.0,-0.2,-0.1,820,0,1,1,0.0,0,39.540588,-122.332367,0.0,4.2,388.0,9,3,1.8,15,4.26,8,0.1633,71.818,71.2733,16
9606708,1495310000929,,,,,,,,0.05,0.07,0.99,-2.9,-0.1,-0.2,820,0,,,,,,,,,,,,,,,,,,,
9606728,1495310000949,,,,,,,,0.05,0.07,1.0,-2.9,-0.1,-0.2,820,0,,,,,,,,,,,,,,,,,,,
9606748,1495310000969,,,,,,,,0.05,0.07,0.99,-2.9,-0.2,-0.2,820,0,,,,,,,,,,,,,,,,,,,
9606768,1495310000989,,,,,,,,0.05,0.07,0.99,-2.9,-0.1,-0.2,820,0,,,,,,,,,,,,,,,,,,,
9606790,1495310001003,,,,,44,,,0.05,0.08,1.0,-2.9,-0.3,-0.1,820,0,1,1,0.0,0,39.540588,-122.332367,0.0,4.2,388.0,9,3,1.8,15,4.26,8,0.1633,71.8195,71.275,16
9606809,1495310001022,,,,,,,,0.04,0.08,1.0,-2.9,-0.2,-0.2,820,0,,,,,,,,,,,,,,,,,,,
9606829,1495310001042,,,,,,,,0.04,0.07,0.99,-2.9,-0.1,-0.2,820,0,,,,,,,,,,,,,,,,,,,
9606849,1495310001062,,,,,,,,0.05,0.07,0.99,-2.9,-0.2,-0.2,820,0,,,,,,,,,,,,,,,,,,,
9606869,1495310001082,,,,,,,,0.04,0.07,0.99,-2.9,-0.2,-0.2,820,0,,,,,,,,,,,,,,,,,,,
9606891,1495310001112,0,134.2,,145.6,45,146.0,,0.05,0.07,0.99,-2.9,-0.1,-0.2,820,0,1,1,0.0,0,39.540588,-122.332367,0.0,4.2,388.0,9,3,1.8,15,4.26,8,0.1633,71.8213,71.2767,16
9606910,1495310001131,,,,,,,,0.05,0.07,0.99,-3.0,-0.3,-0.2,820,0,,,,,,,,,,,,,,,,,,,
9606930,1495310001151,,,,,,,,0.05,0.07,0.99,-2.9,-0.3,-0.2,820,0,,,,,,,,,,,,,,,,,,,
9606950,1495310001171,,,,,,,,0.05,0.06,0.99,-2.9,-0.1,-0.2,820,0,,,,,,,,,,,,,,,,,,,
9606970,1495310001191,,,,,,,,0.05,0.06,0.99,-2.9,-0.2,-0.2,820,0,,,,,,,,,,,,,,,,,,,
9606992,1495310001213,,,,,44,,,0.05,0.07,0.99,-2.9,-0.1,-0.2,820,0,1,1,0.0,0,39.540588,-122.332367,0.0,4.2,388.0,9,3,1.8,15,4.26,8,0.1633,71.823,71.2783,16
9607011,1495310001232,,,,,,,,0.05,0.07,0.99,-2.9,0.0,-0.2,820,0,,,,,,,,,,,,,,,,,,,
9607031,1495310001252,,,,,,,,0.05,0.07,0.99,-2.9,-0.1,-0.1,800,0,,,,,,,,,,,,,,,,,,,
9607051,1495310001272,,,,,,,,0.05,0.07,0.99,-2.9,-0.1,-0.2,820,0,,,,,,,,,,,,,,,,,,,
9607071,1495310001292,,,,,,,,0.04,0.07,0.99,-2.9,-0.1,-0.2,800,0,,,,,,,,,,,,,,,,,,,
9607093,1495310001314,0,134.6,,146.2,45,146.2,,0.05,0.07,0.99,-2.9,-0.2,-0.2,800,0,1,1,0.0,0,39.540588,-122.332367,0.0,4.2,388.0,9,3,1.8,15,4.26,8,0.1633,71.8247,71.28,16
9607112,1495310001333,,,,,,,,0.04,0.07,0.98,-3.0,-0.3,-0.1,800,0,,,,,,,,,,,,,,,,,,,
9607132,1495310001353,,,,,,,,0.05,0.07,0.99,-3.0,-0.1,-0.1,820,0,,,,,,,,,,,,,,,,,,,
9607152,1495310001373,,,,,,,,0.05,0.07,0.99,-3.0,-0.3,-0.1,820,0,,,,,,,,,,,,,,,,,,,
9607172,1495310001393,,,,,,,,0.05,0.07,0.99,-2.9,-0.3,-0.2,800,0,,,,,,,,,,,,,,,,,,,
9607194,1495310001415,,,,,44,,,0.05,0.07,0.99,-2.9,-0.2,-0.1,800,0,1,1,0.0,0,39.540588,-122.332367,0.0,4.2,388.0,9,3,1.8,15,4.26,8,0.1633,71.8264,71.2817,16
9607213,1495310001434,,,,,,,,0.05,0.07,0.99,-2.9,-0.2,-0.1,800,0,,,,,,,,,,,,,,,,,,,
9607233,1495310001454,,,,,,,,0.05,0.07,0.99,-2.9,-0.1,-0.1,800,0,,,,,,,,,,,,,,,,,,,
9607253,1495310001474,,,,,,,,0.05,0.08,0.99,-2.9,-0.1,-0.1,800,0,,,,,,,,,,,,,,,,,,,
9607273,1495310001493,,,,,,,,0.05,0.08,0.99,-3.0,-0.2,-0.1,820,0,,,,,,,,,,,,,,,,,,,
9607295,1495310001515,0,133.9,,145.5,43,145.9,,0.05,0.08,0.99,-3.0,-0.1,-0.1,820,0,1,1,0.0,0,39.540588,-122.332367,0.0,4.2,388.0,9,3,1.8,15,4.26,8,0.1633,71.828,71.2833,16
9607314,1495310001534,,,,,,,,0.05,0.07,0.99,-3.0,-0.1,-0.1,800,0,,,,,,,,,,,,,,,,,,,
9607334,1495310001554,,,,,,,,0.05,0.07,0.99,-3.0,-0.2,-0.1,800,0,,,,,,,,,,,,,,,,,,,
9607354,1495310001574,,,,,,,,0.05,0.07,0.99,-3.0,-0.1,-0.1,820,0,,,,,,,,,,,,,,,,,,,
9607374,1495310001594,,,,,,,,0.05,0.08,0.99,-3.0,-0.2,-0.1,800,0,,,,,,,,,,,,,,,,,,,
9607396,1495310001616,,,,,44,,,0.05,0.08,0.99,-3.0,-0.2,-0.1,800,0,1,1,0.0,0,39.540588,-122.332367,0.0,4.2,388.0,9,3,1.8,15,4.26,8,0.1633,71.8297,71.285,16
9607415,1495310001635,,,,,,,,0.05,0.08,0.99,-2.9,-0.2,-0.2,820,0,,,,,,,,,,,,,,,,,,,
9607435,1495310001655,,,,,,,,0.05,0.07,0.99,-2.9,-0.2,-0.2,820,0,,,,,,,,,,,,,,,,,,,
9607455,1495310001675,,,,,,,,0.05,0.08,0.99,-2.9,-0.2,-0.2,820,0,,,,,,,,,,,,,,,,,,,
9607475,1495310001695,,,,,,,,0.05,0.07,0.99,-3.0,-0.1,-0.2,800,0,,,,,,,,,,,,,,,,,,,
9607497,1495310001717,0,134.7,-0.4,146.4,44,146.6,14.53,0.05,0.08,0.99,-3.0,-0.2,-0.1,820,0,1,1,0.0,0,39.540588,-122.332367,0.0,4.2,388.0,9,3,1.8,15,4.26,8,0.1633,71.8314,71.2867,16
9607516,1495310001736,,,,,,,,0.05,0.08,0.99,-3.0,-0.3,-0.2,800,0,,,,,,,,,,,,,,,,,,,
9607536,1495310001756,,,,,,,,0.05,0.07,0.99,-2.9,-0.2,-0.2,800,0,,,,,,,,,,,,,,,,,,,
9607556,1495310001776,,,,,,,,0.05,0.06,0.99,-2.9,-0.2,-0.2,820,0,,,,,,,,,,,,,,,,,,,
9607576,1495310001796,,,,,,,,0.05,0.07,0.98,-3.0,-0.2,-0.1,820,0,,,,,,,,,,,,,,,,,,,
9607598,1495310001818,,,,,43,,,0.05,0.07,0.99,-3.0,-0.1,-0.1,820,0,1,1,0.0,0,39.540588,-122.332367,0.0,4.2,388.0,9,3,1.8,15,4.26,8,0.1633,71.8331,71.2883,16
9607617,1495310001837,,,,,,,,0.05,0.08,0.99,-3.0,-0.2,-0.1,800,0,,,,,,,,,,,,,,,,,,,
9607637,1495310001857,,,,,,,,0.05,0.08,0.99,-3.0,-0.2,-0.1,820,0,,,,,,,,,,,,,,,,,,,
9607657,1495310001877,,,,,,,,0.05,0.07,0.99,-3.0,-0.1,-0.2,820,0,,,,,,,,,,,,,,,,,,,
9607677,1495310001897,,,,,,,,0.05,0.07,0.99,-3.0,-0.1,-0.2,820,0,,,,,,,,,,,,,,,,,,,
9607699,1495310001919,0,134.6,,146.4,43,146.5,,0.05,0.07,0.99,-3.0,-0.2,-0.2,820,0,1,1,0.0,0,39.540588,-122.332367,0.0,4.2,388.0,9,3,1.8,15,4.26,8,0.1633,71.8348,71.29,16
9607718,1495310001938,,,,,,,,0.05,0.07,0.99,-3.0,-0.1,-0.1,820,0,,,,,,,,,,,,,,,,,,,
9607738,1495310001958,,,,,,,,0.05,0.07,0.99,-3.0,-0.2,-0.1,820,0,,,,,,,,,,,,,,,,,,,
9607758,1495310001978,,,,,,,,0.05,0.07,0.99,-3.0,-0.2,-0.1,820,0,,,,,,,,,,,,,,,,,,,
9607778,1495310001992,,,,,,,,0.04,0.08,0.99,-3.0,-0.1,-0.1,820,0,,,,,,,,,,,,,,,,,,,
9607800,1495310002014,,,,,45,,,0.05,0.07,0.99,-3.0,-0.3,-0.1,820,0,1,1,0.0,0,39.540588,-122.332367,0.0,4.2,388.0,9,3,1.8,15,4.26,8,0.1633,71.8364,71.2917,16
9607819,1495310002033,,,,,,,,0.04,0.07,0.99,-3.0,-0.4,-0.1,820,0,,,,,,,,,,,,,,,,,,,
9607839,1495310002053,,,,,,,,0.05,0.07,0.99,-3.0,-0.1,-0.1,820,0,,,,,,,,,,,,,,,,,,,
9607859,1495310002073,,,,,,,,0.05,0.08,0.99,-3.0,-0.3,-0.1,840,0,,,,,,,,,,,,,,,,,,,
9607879,1495310002099,,,,,,,,0.05,0.08,0.99,-3.0,-0.3,-0.1,840,0,,,,,,,,,,,,,,,,,,,
9607901,1495310002121,0,134.6,,146.4,45,146.3,,0.05,0.08,0.99,-3.0,-0.2,-0.1,820,0,1,1,0.0,0,39.540588,-122.332367,0.0,4.2,388.0,9,3,1.8,15,4.26,8,0.1633,71.8382,71.2933,16
9607920,1495310002140,,,,,,,,0.05,0.07,1.0,-3.0,-0.2,-0.1,820,0,,,,,,,,,,,,,,,,,,,
9607940,1495310002160,,,,,,,,0.05,0.07,0.99,-3.0,-0.2,-0.1,820,0,,,,,,,,,,,,,,,,,,,
9607960,1495310002180,,,,,,,,0.05,0.08,0.99,-3.0,-0.1,-0.1,820,0,,,,,,,,,,,,,,,,,,,
9607980,1495310002201,,,,,,,,0.05,0.08,0.99,-3.0,-0.1,-0.1,820,0,,,,,,,,,,,,,,,,,,,
9608002,1495310002223,,,,,45,,,0.05,0.08,0.99,-3.0,-0.2,-0.1,840,0,1,1,0.0,0,39.540588,-122.332367,0.0,4.2,388.0,9,3,1.8,15,4.26,8,0.1633,71.8399,71.295,16
9608021,1495310002242,,,,,,,,0.04,0.08,1.0,-3.0,-0.1,-0.1,840,0,,,,,,,,,,,,,,,,,,,
9608041,1495310002262,,,,,,,,0.04,0.07,0.99,-3.0,-0.2,-0.1,820,0,,,,,,,,,,,,,,,,,,,
9608061,1495310002282,,,,,,,,0.05,0.08,0.99,-3.0,-0.2,-0.2,820,0,,,,,,,,,,,,,,,,,,,
9608081,1495310002301,,,,,,,,0.05,0.08,0.99,-3.0,-0.2,-0.1,820,0,,,,,,,,,,,,,,,,,,,
9608103,1495310002323,0,134.0,,145.8,43,146.1,,0.05,0.08,0.99,-3.0,-0.1,-0.1,820,0,1,1,0.0,0,39.540588,-122.332367,0.0,4.2,388.0,9,3,1.8,15,4.26,8,0.1633,71.8415,71.2967,16
9608122,1495310002342,,,,,,,,0.06,0.08,0.99,-3.0,-0.1,-0.1,820,0,,,,,,,,,,,,,,,,,,,
9608142,1495310002362,,,,,,,,0.05,0.08,0.99,-3.0,-0.2,-0.1,840,0,,,,,,,,,,,,,,,,,,,
9608162,1495310002382,,,,,,,,0.05,0.08,0.99,-3.0,-0.2,-0.1,840,0,,,,,,,,,,,,,,,,,,,
9608182,1495310002402,,,,,,,,0.05,0.07,0.99,-3.0,-0.1,-0.1,820,0,,,,,,,,,,,,,,,,,,,
9608204,1495310002424,,,,,45,,,0.05,0.07,0.98,-3.0,-0.2,-0.2,820,0,1,1,0.0,0,39.540588,-122.332367,0.0,4.2,388.0,9,3,1.8,15,4.26,8,0.1633,71.8432,71.2983,16
9608223,1495310002443,,,,,,,,0.05,0.08,0.98,-3.0,-0.3,-0.1,820,0,,,,,,,,,,,,,,,,,,,
9608243,1495310002463,,,,,,,,0.05,0.08,0.98,-3.0,-0.2,-0.1,820,0,,,,,,,,,,,,,,,,,,,
9608263,1495310002483,,,,,,,,0.05,0.08,0.98,-3.0,-0.3,-0.0,820,0,,,,,,,,,,,,,,,,,,,
9608283,1495310002502,,,,,,,,0.05,0.08,0.99,-3.0,-0.3,-0.1,840,0,,,,,,,,,,,,,,,,,,,
9608305,1495310002524,0,134.4,,146.2,46,146.4,,0.05,0.08,0.99,-3.0,-0.2,-0.1,840,0,1,1,0.0,0,39.540588,-122.332367,0.0,4.2,388.0,9,3,1.8,15,4.26,8,0.1633,71.8449,71.3,16
9608324,1495310002543,,,,,,,,0.05,0.08,0.99,-3.0,-0.2,-0.2,820,0,,,,,,,,,,,,,,,,,,,
9608344,1495310002563,,,,,,,,0.05,0.08,0.98,-3.0,-0.3,-0.2,820,0,,,,,,,,,,,,,,,,,,,
9608364,1495310002583,,,,,,,,0.05,0.08,0.98,-3.0,-0.2,-0.1,820,0,,,,,,,,,,,,,,,,,,,
9608384,1495310002603,,,,,,,,0.05,0.08,0.99,-3.0,-0.2,-0.1,820,0,,,,,,,,,,,,,,,,,,,
9608406,1495310002625,,,,,43,,,0.05,0.08,0.99,-3.0,-0.2,-0.1,820,0,1,1,0.0,0,39.540588,-122.332367,0.0,4.2,388.0,9,3,1.8,15,4.26,8,0.1633,71.8466,71.3017,16
9608425,1495310002644,,,,,,,,0.04,0.08,0.99,-3.0,-0.2,-0.2,820,0,,,,,,,,,,,,,,,,,,,
9608445,1495310002664,,,,,,,,0.05,0.08,0.99,-3.0,-0.2,-0.2,820,0,,,,,,,,,,,,,,,,,,,
9608465,1495310002684,,,,,,,,0.05,0.08,0.99,-3.0,-0.2,-0.2,820,0,,,,,,,,,,,,,,,,,,,
9608485,1495310002704,,,,,,,,0.05,0.08,0.99,-3.0,-0.2,-0.2,820,0,,,,,,,,,,,,,,,,,,,
9608507,1495310002726,0,134.6,-0.4,146.5,44,146.5,14.56,0.05,0.08,0.99,-3.0,-0.2,-0.1,820,0,1,1,0.0,0,39.540588,-122.332367,0.0,4.2,388.0,9,3,1.8,15,4.26,8,0.1633,71.8482,71.3033,16
9608526,1495310002745,,,,,,,,0.05,0.08,0.99,-3.0,-0.2,-0.1,820,0,,,,,,,,,,,,,,,,,,,
9608546,1495310002765,,,,,,,,0.05,0.09,1.0,-3.0,-0.2,-0.2,820,0,,,,,,,,,,,,,,,,,,,
9608566,1495310002785,,,,,,,,0.05,0.08,1.0,-3.0,-0.2,-0.2,840,0,,,,,,,,,,,,,,,,,,,
9608586,1495310002805,,,,,,,,0.05,0.08,0.99,-3.0,-0.2,-0.2,840,0,,,,,,,,,,,,,,,,,,,
9608608,1495310002827,,,,,45,,,0.05,0.07,0.99,-3.0,-0.2,-0.2,840,0,1,1,0.0,0,39.540588,-122.332367,0.0,4.2,388.0,9,3,1.8,15,4.26,8,0.1633,71.8499,71.305,16
9608627,1495310002846,,,,,,,,0.05,0.07,0.99,-3.0,-0.1,-0.2,820,0,,,,,,,,,,,,,,,,,,,
9608647,1495310002866,,,,,,,,0.05,0.08,0.99,-3.0,-0.2,-0.1,820,0,,,,,,,,,,,,,,,,,,,
9608667,1495310002886,,,,,,,,0.04,0.08,0.99,-3.0,-0.2,-0.1,820,0,,,,,,,,,,,,,,,,,,,
9608687,1495310002908,,,,,,,,0.04,0.08,0.99,-2.9,-0.2,-0.2,820,0,,,,,,,,,,,,,,,,,,,
9608709,1495310002930,1,134.0,,145.8,44,146.0,,0.04,0.08,0.99,-3.0,-0.1,-0.2,820,0,1,1,0.0,0,39.540588,-122.332367,0.0,4.2,388.0,9,3,1.8,15,4.26,8,0.1633,71.8516,71.3067,16
9608728,1495310002949,,,,,,,,0.04,0.08,0.99,-2.9,-0.2,-0.2,820,0,,,,,,,,,,,,,,,,,,,
9608748,1495310002969,,,,,,,,0.05,0.07,0.99,-2.9,-0.1,-0.2,820,0,,,,,,,,,,,,,,,,,,,
9608768,1495310002989,,,,,,,,0.05,0.08,0.99,-3.0,-0.2,-0.1,820,0,,,,,,,,,,,,,,,,,,,
9608788,1495310003003,,,,,,,,0.05,0.08,1.0,-3.0,-0.2,-0.1,820,0,,,,,,,,,,,,,,,,,,,
9608810,1495310003025,,,,,44,,,0.05,0.07,1.0,-2.9,-0.2,-0.1,820,0,1,1,0.0,0,39.540588,-122.332367,0.0,4.2,388.0,9,3,1.8,15,4.26,8,0.1633,71.8532,71.3083,16
9608829,1495310003044,,,,,,,,0.05,0.07,1.0,-2.9,-0.1,-0.2,820,0,,,,,,,,,,,,,,,,,,,
9608849,1495310003064,,,,,,,,0.05,0.07,0.99,-3.0,-0.2,-0.2,820,0,,,,,,,,,,,,,,,,,,,
9608869,1495310003084,,,,,,,,0.05,0.07,0.99,-3.0,-0.0,-0.1,820,0,,,,,,,,,,,,,,,,,,,
9608889,1495310003110,,,,,,,,0.05,0.08,0.99,-3.0,-0.2,-0.1,820,0,,,,,,,,,,,,,,,,,,,
9608911,1495310003132,0,134.2,,146.0,43,146.2,,0.04,0.08,0.99,-3.0,-0.2,-0.1,800,0,1,1,0.0,0,39.540588,-122.332367,0.0,4.2,388.0,9,3,1.8,15,4.26,8,0.1633,71.855,71.31,16
9608930,1495310003151,,,,,,,,0.04,0.08,0.99,-3.0,-0.2,-0.1,820,0,,,,,,,,,,,,,,,,,,,
9608950,1495310003171,,,,,,,,0.05,0.07,0.99,-3.0,-0.2,-0.2,820,0,,,,,,,,,,,,,,,,,,,
9608970,1495310003191,,,,,,,,0.05,0.07,0.99,-3.0,-0.3,-0.2,820,0,,,,,,,,,,,,,,,,,,,
9608990,1495310003211,,,,,,,,0.05,0.07,0.99,-3.0,-0.2,-0.2,820,0,,,,,,,,,,,,,,,,,,,
9609012,1495310003233,,,,,43,,,0.05,0.08,0.99,-3.0,-0.3,-0.1,820,0,1,1,0.0,0,39.540588,-122.332367,0.0,4.2,388.0,9,3,1.8,15,4.26,8,0.1633,71.8567,71.3117,16
9609031,1495310003252,,,,,,,,0.05,0.08,1.0,-3.0,-0.3,-0.2,820,0,,,,,,,,,,,,,,,,,,,
9609051,1495310003272,,,,,,,,0.05,0.07,1.0,-3.0,-0.3,-0.2,820,0,,,,,,,,,,,,,,,,,,,
9609071,1495310003292,,,,,,,,0.05,0.07,1.0,-3.0,-0.2,-0.2,820,0,,,,,,,,,,,,,,,,,,,
9609091,1495310003312,,,,,,,,0.05,0.08,0.99,-3.0,-0.4,-0.2,820,0,,,,,,,,,,,,,,,,,,,
9609113,1495310003334,0,134.1,,146.0,45,146.2,,0.05,0.08,0.99,-3.0,-0.2,-0.2,820,0,1,1,0.0,0,39.540588,-122.332367,0.0,4.2,388.0,9,3,1.8,15,4.26,8,0.1633,71.8584,71.3133,16
9609132,1495310003353,,,,,,,,0.05,0.08,1.0,-3.0,-0.2,-0.1,820,0,,,,,,,,,,,,,,,,,,,
9609152,1495310003373,,,,,,,,0.05,0.08,1.0,-3.0,-0.3,-0.2,820,0,,,,,,,,,,,,,,,,,,,
9609172,1495310003393,,,,,,,,0.05,0.09,1.0,-3.0,-0.2,-0.2,820,0,,,,,,,,,,,,,,,,,,,
9609192,1495310003413,,,,,,,,0.05,0.08,1.0,-3.0,-0.2,-0.3,800,0,,,,,,,,,,,,,,,,,,,
9609214,1495310003435,,,,,44,,,0.05,0.08,0.99,-3.0,-0.3,-0.2,800,0,1,1,0.0,0,39.540588,-122.332367,0.0,4.2,388.0,9,3,1.8,15,4.26,8,0.1633,71.86,71.315,16
9609233,1495310003454,,,,,,,,0.05,0.08,0.99,-3.0,-0.2,-0.2,820,0,,,,,,,,,,,,,,,,,,,
9609253,1495310003474,,,,,,,,0.05,0.08,0.99,-3.0,-0.3,-0.2,820,0,,,,,,,,,,,,,,,,,,,
9609273,1495310003493,,,,,,,,0.05,0.08,0.99,-3.0,-0.3,-0.2,820,0,,,,,,,,,,,,,,,,,,,
9609293,1495310003513,,,,,,,,0.05,0.08,0.99,-3.0,-0.2,-0.2,820,0,,,,,,,,,,,,,,,,,,,
9609315,1495310003535,0,134.4,,146.2,45,146.0,,0.05,0.08,0.99,-3.0,-0.2,-0.2,820,0,1,1,0.0,0,39.540588,-122.332367,0.0,4.2,388.0,9,3,1.8,15,4.26,8,0.1633,71.8617,71.3167,16
9609334,1495310003554,,,,,,,,0.05,0.08,0.99,-3.0,-0.2,-0.2,820,2,,,,,,,,,,,,,,,,,,,
9609354,1495310003574,,,,,,,,0.04,0.08,0.99,-3.0,-0.1,-0.2,820,2,,,,,,,,,,,,,,,,,,,
9609374,1495310003594,,,,,,,,0.05,0.09,0.99,-3.0,-0.1,-0.1,820,2,,,,,,,,,,,,,,,,,,,
9609394,1495310003614,,,,,,,,0.05,0.09,0.99,-3.0,-0.2,-0.2,820,2,,,,,,,,,,,,,,,,,,,
9609416,1495310003636,,,,,44,,,0.05,0.09,0.99,-3.0,-0.2,-0.2,820,2,1,1,0.0,0,39.540588,-122.332367,0.0,4.2,388.0,9,3,1.8,15,4.26,8,0.1633,71.8634,71.3183,16
9609435,1495310003655,,,,,,,,0.05,0.09,0.99,-3.0,-0.2,-0.2,820,2,,,,,,,,,,,,,,,,,,,
9609455,1495310003675,,,,,,,,0.04,0.08,0.99,-3.0,-0.2,-0.2,820,2,,,,,,,,,,,,,,,,,,,
9609475,1495310003695,,,,,,,,0.04,0.08,0.98,-3.0,-0.2,-0.2,820,2,,,,,,,,,,,,,,,,,,,
9609495,1495310003715,,,,,,,,0.05,0.08,0.98,-3.0,-0.2,-0.2,820,2,,,,,,,,,,,,,,,,,,,
9609517,1495310003737,0,134.5,-0.3,146.4,44,146.4,14.48,0.05,0.08,0.98,-3.0,-0.3,-0.2,820,2,1,1,820.0,0,39.540588,-122.332367,0.0,4.2,388.0,9,3,1.8,15,4.26,8,0.1633,71.8651,71.32,16
9609536,1495310003756,,,,,,,,0.05,0.08,0.98,-3.0,-0.3,-0.2,820,2,,,,,,,,,,,,,,,,,,,
9609556,1495310003776,,,,,,,,0.05,0.07,0.98,-3.0,-0.2,-0.2,820,2,,,,,,,,,,,,,,,,,,,
9609576,1495310003797,,,,,,,,0.05,0.07,0.99,-3.0,-0.3,-0.2,820,2,,,,,,,,,,,,,,,,,,,
9609596,1495310003817,,,,,,,,0.04,0.07,0.99,-3.0,-0.2,-0.1,820,2,,,,,,,,,,,,,,,,,,,
9609618,1495310003839,,,,,45,,,0.05,0.08,0.99,-3.0,-0.1,-0.1,800,2,1,1,820.0,0,39.540588,-122.332367,0.0,4.2,388.0,9,3,1.8,15,4.26,8,0.1633,71.8668,71.3217,16
9609637,1495310003858,,,,,,,,0.05,0.08,0.99,-3.0,-0.2,-0.1,800,2,,,,,,,,,,,,,,,,,,,
9609657,1495310003878,,,,,,,,0.04,0.08,0.99,-3.0,-0.2,-0.1,800,2,,,,,,,,,,,,,,,,,,,
9609677,1495310003897,,,,,,,,0.04,0.08,0.99,-3.0,-0.1,-0.1,800,2,,,,,,,,,,,,,,,,,,,
9609697,1495310003917,,,,,,,,0.04,0.08,0.99,-3.0,-0.3,-0.2,800,2,,,,,,,,,,,,,,,,,,,
9609719,1495310003939,0,133.9,,145.9,43,145.9,,0.04,0.08,0.98,-3.0,-0.2,-0.1,800,2,1,1,800.0,0,39.540588,-122.332367,0.0,4.2,388.0,9,3,1.8,15,4.26,8,0.1633,71.8684,71.3233,16
9609738,1495310003958,,,,,,,,0.05,0.08,0.99,-3.0,-0.1,-0.1,800,2,,,,,,,,,,,,,,,,,,,
9609758,1495310003978,,,,,,,,0.05,0.08,0.99,-3.0,-0.2,-0.1,800,2,,,,,,,,,,,,,,,,,,,
9609778,1495310003992,,,,,,,,0.05,0.08,0.99,-3.0,-0.2,-0.2,800,2,,,,,,,,,,,,,,,,,,,
9609798,1495310004012,,,,,,,,0.05,0.07,0.99,-3.0,-0.1,-0.1,800,2,,,,,,,,,,,,,,,,,,,
9609820,1495310004034,,,,,43,,,0.05,0.07,0.98,-3.0,-0.2,-0.1,800,2,1,1,800.0,0,39.540588,-122.332367,0.0,4.2,388.0,9,3,1.8,15,4.26,8,0.1633,71.87,71.325,16
9609839,1495310004053,,,,,,,,0.05,0.08,0.98,-3.0,-0.0,-0.1,800,2,,,,,,,,,,,,,,,,,,,
9609859,1495310004073,,,,,,,,0.05,0.08,0.98,-3.0,-0.1,-0.1,800,2,,,,,,,,,,,,,,,,,,,
9609879,1495310004097,,,,,,,,0.05,0.08,0.99,-3.0,-0.2,-0.1,800,2,,,,,,,,,,,,,,,,,,,
9609899,1495310004117,,,,,,,,0.05,0.08,0.99,-3.0,-0.1,-0.1,800,2,,,,,,,,,,,,,,,,,,,
9609921,1495310004139,0,135.0,,146.7,43,146.4,,0.05,0.08,0.98,-3.0,-0.2,-0.1,800,2,1,1,800.0,0,39.540588,-122.332367,0.0,4.2,388.0,9,3,1.8,15,4.26,8,0.1633,71.8718,71.3267,16
9609940,1495310004158,,,,,,,,0.05,0.08,0.98,-3.0,-0.2,-0.1,800,2,,,,,,,,,,,,,,,,,,,
9609960,1495310004178,,,,,,,,0.05,0.08,0.99,-3.0,-0.1,-0.1,800,2,,,,,,,,,,,,,,,,,,,
9609980,1495310004200,,,,,,,,0.05,0.08,0.99,-3.0,-0.2,-0.1,800,2,,,,,,,,,,,,,,,,,,,
9610000,1495310004220,,,,,,,,0.05,0.07,0.99,-2.9,-0.2,-0.1,800,2,,,,,,,,,,,,,,,,,,,
9610022,1495310004242,,,,,42,,,0.05,0.07,0.99,-2.9,-0.1,-0.1,800,2,1,1,800.0,0,39.540588,-122.332367,0.0,4.2,388.0,9,3,1.8,15,4.26,8,0.1633,71.8735,71.3283,16
9610041,1495310004261,,,,,,,,0.05,0.06,0.98,-3.0,-0.3,-0.1,800,2,,,,,,,,,,,,,,,,,,,
9610061,1495310004281,,,,,,,,0.05,0.07,0.98,-3.0,-0.2,-0.1,800,2,,,,,,,,,,,,,,,,,,,
9610081,1495310004301,,,,,,,,0.05,0.07,0.99,-3.0,-0.2,-0.1,800,2,,,,,,,,,,,,,,,,,,,
9610101,1495310004321,,,,,,,,0.05,0.07,0.99,-2.9,-0.2,-0.1,800,2,,,,,,,,,,,,,,,,,,,
9610123,1495310004343,0,134.8,,146.7,44,146.5,,0.05,0.07,0.99,-3.0,-0.1,-0.1,800,2,1,1,800.0,0,39.540588,-122.332367,0.0,4.2,388.0,9,3,1.8,15,4.26,8,0.1633,71.8752,71.33,16
9610142,1495310004362,,,,,,,,0.05,0.06,0.98,-3.0,-0.2,-0.1,800,128205,,,,,,,,,,,,,,,,,,,
9610162,1495310004382,,,,,,,,0.05,0.07,0.98,-3.0,-0.2,-0.1,800,0,,,,,,,,,,,,,,,,,,,
9610182,1495310004400,,,,,,,,0.05,0.08,0.98,-3.0,-0.1,-0.0,820,0,,,,,,,,,,,,,,,,,,,
9610202,1495310004420,,,,,,,,0.05,0.07,0.99,-3.0,-0.1,-0.1,800,0,,,,,,,,,,,,,,,,,,,
9610224,1495310004442,,,,,44,,,0.05,0.07,0.98,-2.9,-0.1,-0.1,800,0,1,1,800.0,0,39.540588,-122.332367,0.0,4.2,388.0,9,3,1.8,15,4.26,8,0.1633,71.8768,71.3317,16
9610243,1495310004461,,,,,,,,0.05,0.07,0.98,-2.9,0.0,-0.1,800,0,,,,,,,,,,,,,,,,,,,
9610263,1495310004481,,,,,,,,0.05,0.07,0.98,-2.9,-0.1,-0.1,800,0,,,,,,,,,,,,,,,,,,,
9610283,1495310004502,,,,,,,,0.05,0.07,0.98,-3.0,0.1,-0.1,800,0,,,,,,,,,,,,,,,,,,,
9610303,1495310004522,,,,,,,,0.05,0.08,0.98,-3.0,0.0,-0.1,800,0,,,,,,,,,,,,,,,,,,,
9610325,1495310004544,0,134.9,,146.8,44,146.6,,0.05,0.08,0.99,-3.0,-0.1,-0.1,800,0,1,1,0.0,0,39.540588,-122.332367,0.0,4.2,388.0,9,3,1.8,15,4.26,8,0.1633,71.8785,71.3333,16
9610344,1495310004563,,,,,,,,0.05,0.07,0.99,-3.0,0.0,-0.1,800,0,,,,,,,,,,,,,,,,,,,
9610364,1495310004583,,,,,,,,0.05,0.07,0.99,-2.9,-0.0,-0.1,800,0,,,,,,,,,,,,,,,,,,,
9610384,1495310004606,,,,,,,,0.05,0.07,0.99,-3.0,-0.2,-0.1,800,0,,,,,,,,,,,,,,,,,,,
9610404,1495310004626,,,,,,,,0.05,0.07,0.99,-3.0,-0.0,-0.1,800,0,,,,,,,,,,,,,,,,,,,
9610426,1495310004648,,,,,44,,,0.05,0.07,0.99,-3.0,-0.1,-0.1,800,0,1,1,0.0,0,39.540588,-122.332367,0.0,4.2,388.0,9,3,1.8,15,4.26,8,0.1633,71.8803,71.335,16
9610445,1495310004667,,,,,,,,0.05,0.08,0.99,-3.0,-0.2,-0.1,800,0,,,,,,,,,,,,,,,,,,,
9610465,1495310004687,,,,,,,,0.05,0.08,0.99,-3.0,-0.1,-0.2,820,0,,,,,,,,,,,,,,,,,,,
9610485,1495310004704,,,,,,,,0.05,0.08,0.99,-3.0,-0.1,-0.2,820,0,,,,,,,,,,,,,,,,,,,
9610505,1495310004724,,,,,,,,0.05,0.08,0.99,-3.0,-0.1,-0.2,820,0,,,,,,,,,,,,,,,,,,,
9610527,1495310004746,0,134.9,-0.4,146.7,43,146.4,14.54,0.05,0.08,0.99,-3.0,-0.0,-0.1,820,0,1,1,0.0,0,39.540588,-122.332367,0.0,4.2,388.0,9,3,1.8,15,4.26,8,0.1633,71.8819,71.3367,16
9610546,1495310004765,,,,,,,,0.05,0.08,0.98,-3.0,-0.2,-0.1,820,0,,,,,,,,,,,,,,,,,,,
9610566,1495310004785,,,,,,,,0.05,0.08,0.99,-3.0,-0.2,-0.1,800,0,,,,,,,,,,,,,,,,,,,
9610586,1495310004805,,,,,,,,0.05,0.07,0.99,-3.0,-0.1,-0.1,800,0,,,,,,,,,,,,,,,,,,,
9610606,1495310004825,,,,,,,,0.05,0.07,0.99,-3.0,-0.2,-0.2,800,0,,,,,,,,,,,,,,,,,,,
9610628,1495310004847,,,,,44,,,0.05,0.08,0.99,-3.0,-0.1,-0.1,820,0,1,1,0.0,0,39.540588,-122.332367,0.0,4.2,388.0,9,3,1.8,15,4.26,8,0.1633,71.8836,71.3383,16
9610647,1495310004866,,,,,,,,0.05,0.08,0.99,-3.0,0.0,-0.1,820,0,,,,,,,,,,,,,,,,,,,
9610667,1495310004886,,,,,,,,0.05,0.08,0.99,-3.0,-0.1,-0.1,820,0,,,,,,,,,,,,,,,,,,,
9610687,1495310004906,,,,,,,,0.05,0.08,0.99,-3.0,-0.1,-0.2,820,0,,,,,,,,,,,,,,,,,,,
9610707,1495310004926,,,,,,,,0.05,0.08,0.99,-3.0,-0.0,-0.2,820,0,,,,,,,,,,,,,,,,,,,
9610729,1495310004948,0,134.6,,146.8,45,146.5,,0.05,0.07,0.99,-3.0,-0.2,-0.2,820,0,1,1,0.0,0,39.540588,-122.332367,0.0,4.2,388.0,9,3,1.8,15,4.26,8,0.1633,71.8853,71.34,16
9610748,1495310004967,,,,,,,,0.05,0.07,0.98,-3.0,-0.2,-0.1,820,0,,,,,,,,,,,,,,,,,,,
9610768,1495310004987,,,,,,,,0.05,0.07,0.98,-3.0,-0.1,-0.1,820,0,,,,,,,,,,,,,,,,,,,
9610788,1495310005001,,,,,,,,0.05,0.07,0.99,-3.0,-0.2,-0.1,820,0,,,,,,,,,,,,,,,,,,,
9610808,1495310005021,,,,,,,,0.05,0.07,0.99,-3.0,-0.2,-0.1,800,0,,,,,,,,,,,,,,,,,,,
9610830,1495310005043,,,,,43,,,0.05,0.07,0.99,-3.0,-0.1,-0.1,800,0,1,1,0.0,0,39.540588,-122.332367,0.0,4.2,388.0,9,3,1.8,15,4.26,8,0.1633,71.8868,71.3417,16
9610849,1495310005062,,,,,,,,0.05,0.07,0.99,-3.0,-0.2,-0.1,800,0,,,,,,,,,,,,,,,,,,,
9610869,1495310005082,,,,,,,,0.05,0.07,0.99,-2.9,-0.1,-0.1,800,0,,,,,,,,,,,,,,,,,,,
9610889,1495310005108,,,,,,,,0.05,0.08,0.98,-3.0,-0.1,-0.1,800,0,,,,,,,,,,,,,,,,,,,
9610909,1495310005128,,,,,,,,0.05,0.08,0.99,-3.0,-0.1,-0.1,800,0,,,,,,,,,,,,,,,,,,,
9610931,1495310005150,0,134.0,,146.0,45,145.9,,0.05,0.07,0.99,-2.9,-0.1,-0.1,800,0,1,1,0.0,0,39.540588,-122.332367,0.0,4.2,388.0,9,3,1.8,15,4.26,8,0.1633,71.8886,71.3433,16
9610950,1495310005169,,,,,,,,0.05,0.07,0.98,-2.9,-0.0,-0.1,800,0,,,,,,,,,,,,,,,,,,,
9610970,1495310005191,,,,,,,,0.05,0.07,0.98,-3.0,-0.2,-0.1,800,0,,,,,,,,,,,,,,,,,,,
9610990,1495310005211,,,,,,,,0.05,0.07,0.99,-2.9,0.0,-0.1,800,0,,,,,,,,,,,,,,,,,,,
9611010,1495310005231,,,,,,,,0.05,0.08,0.99,-2.9,-0.1,-0.1,800,0,,,,,,,,,,,,,,,,,,,
9611032,1495310005253,,,,,41,,,0.05,0.07,0.99,-2.9,-0.1,-0.2,800,0,1,1,0.0,0,39.540588,-122.332367,0.0,4.2,388.0,9,3,1.8,15,4.26,8,0.1633,71.8904,71.345,16
9611051,1495310005272,,,,,,,,0.04,0.07,0.99,-2.9,-0.1,-0.2,800,0,,,,,,,,,,,,,,,,,,,
9611071,1495310005292,,,,,,,,0.05,0.07,0.99,-2.9,-0.1,-0.2,800,0,,,,,,,,,,,,,,,,,,,
9611091,1495310005312,,,,,,,,0.05,0.07,0.98,-2.9,-0.1,-0.2,820,0,,,,,,,,,,,,,,,,,,,
9611111,1495310005332,,,,,,,,0.05,0.08,0.99,-2.9,-0.1,-0.2,800,0,,,,,,,,,,,,,,,,,,,
9611133,1495310005354,0,134.6,,146.6,44,146.5,,0.04,0.07,0.99,-3.0,-0.2,-0.2,800,0,1,1,0.0,0,39.540588,-122.332367,0.0,4.2,388.0,9,3,1.8,15,4.26,8,0.1633,71.892,71.3467,16
9611152,1495310005373,,,,,,,,0.04,0.07,0.99,-2.9,-0.2,-0.2,800,0,,,,,,,,,,,,,,,,,,,
9611172,1495310005393,,,,,,,,0.05,0.07,0.99,-2.9,-0.1,-0.2,800,0,,,,,,,,,,,,,,,,,,,
9611192,1495310005413,,,,,,,,0.05,0.07,0.99,-3.0,-0.3,-0.2,800,0,,,,,,,,,,,,,,,,,,,
9611212,1495310005433,,,,,,,,0.05,0.07,0.99,-3.0,-0.1,-0.2,800,0,,,,,,,,,,,,,,,,,,,
9611234,1495310005455,,,,,42,,,0.05,0.07,0.99,-3.0,-0.2,-0.1,800,0,1,1,0.0,0,39.540588,-122.332367,0.0,4.2,388.0,9,3,1.8,15,4.26,8,0.1633,71.8937,71.3483,16
9611253,1495310005474,,,,,,,,0.05,0.07,0.99,-3.0,-0.3,-0.2,800,0,,,,,,,,,,,,,,,,,,,
9611273,1495310005493,,,,,,,,0.04,0.07,0.99,-3.0,-0.2,-0.2,800,0,,,,,,,,,,,,,,,,,,,
9611293,1495310005513,,,,,,,,0.05,0.07,0.99,-3.0,-0.2,-0.1,800,0,,,,,,,,,,,,,,,,,,,
9611313,1495310005533,,,,,,,,0.05,0.07,0.99,-3.0,-0.1,-0.2,800,0,,,,,,,,,,,,,,,,,,,
9611335,1495310005555,0,134.6,,146.6,43,146.4,,0.05,0.08,0.99,-3.0,-0.0,-0.1,780,0,1,1,0.0,0,39.540588,-122.332367,0.0,4.2,388.0,9,3,1.8,15,4.26,8,0.1633,71.8954,71.35,16
9611354,1495310005574,,,,,,,,0.05,0.08,0.99,-3.0,-0.2,-0.2,800,0,,,,,,,,,,,,,,,,,,,
9611374,1495310005594,,,,,,,,0.05,0.07,0.99,-2.9,-0.1,-0.2,800,0,,,,,,,,,,,,,,,,,,,
9611394,1495310005614,,,,,,,,0.05,0.07,0.99,-2.9,-0.1,-0.2,800,0,,,,,,,,,,,,,,,,,,,
9611414,1495310005634,,,,,,,,0.05,0.07,0.99,-2.9,-0.2,-0.1,800,0,,,,,,,,,,,,,,,,,,,
9611436,1495310005656,,,,,42,,,0.05,0.08,0.99,-3.0,-0.0,-0.1,780,0,1,1,0.0,0,39.540588,-122.332367,0.0,4.2,388.0,9,3,1.8,15,4.26,8,0.1633,71.8971,71.3517,16
9611455,1495310005675,,,,,,,,0.05,0.08,0.99,-3.0,-0.1,-0.1,780,0,,,,,,,,,,,,,,,,,,,
9611475,1495310005695,,,,,,,,0.05,0.08,1.0,-2.9,-0.2,-0.2,780,0,,,,,,,,,,,,,,,,,,,
9611495,1495310005715,,,,,,,,0.05,0.07,1.0,-2.9,-0.2,-0.2,780,0,,,,,,,,,,,,,,,,,,,
9611515,1495310005735,,,,,,,,0.05,0.07,0.99,-2.9,-0.2,-0.1,800,0,,,,,,,,,,,,,,,,,,,
9611537,1495310005757,0,134.7,-0.5,146.8,44,146.2,14.61,0.05,0.08,0.99,-3.0,-0.1,-0.1,780,0,1,1,0.0,0,39.540588,-122.332367,0.0,4.2,388.0,9,3,1.8,15,4.26,8,0.1633,71.8988,71.3533,16
9611556,1495310005776,,,,,,,,0.05,0.08,0.99,-3.0,-0.2,-0.1,780,0,,,,,,,,,,,,,,,,,,,
9611576,1495310005796,,,,,,,,0.05,0.08,0.99,-2.9,-0.3,-0.2,760,0,,,,,,,,,,,,,,,,,,,
9611596,1495310005816,,,,,,,,0.05,0.07,0.99,-3.0,-0.2,-0.2,760,0,,,,,,,,,,,,,,,,,,,
9611616,1495310005836,,,,,,,,0.05,0.07,0.99,-3.0,-0.2,-0.1,760,0,,,,,,,,,,,,,,,,,,,
