"Interval"|"ms"|0|0|1,"Utc"|"ms"|0|0|1,"FuelLevel"|"F"|0|100|5,"OilTemp"|"F"|0.0|300.0|5,"CoolantPressPSI"|"PSI"|0.0|20.0|1,"Coolant"|"F"|0.0|300.0|5,"OilPress"|"PSI"|0|150|10,"EngineTemp"|"F"|0.0|300.0|5,"Battery"|"Volts"|0.0|20.0|1,"AccelX"|"G"|-3.0|3.0|50,"AccelY"|"G"|-3.0|3.0|50,"AccelZ"|"G"|-3.0|3.0|50,"Yaw"|"Deg/Sec"|-300.0|300.0|50,"Pitch"|"Deg/Sec"|-300.0|300.0|50,"Roll"|"Deg/Sec"|-300.0|300.0|50,"RPM"|""|0|10000|50,"Driveshaft"|"RPM"|0|5000|50,"GPIO1"|""|0|1|10,"GPIO2"|""|0|1|10,"GearRatio"|""|-5.0|5.0|10,"Gear"|""|-1|5|10,"Latitude"|"Degrees"|-180.0|180.0|10,"Longitude"|"Degrees"|-180.0|180.0|10,"Speed"|"mph"|0.0|150.0|10,"Distance"|"mi"|0.0|0.0|10,"Altitude"|"ft"|0.0|4000.0|10,"GPSSats"|""|0|20|10,"GPSQual"|""|0|5|10,"GPSDOP"|""|0.0|20.0|10,"LapCount"|""|0|0|10,"LapTime"|"Min"|0.0|0.0|10,"Sector"|""|0|0|10,"SectorTime"|"Min"|0.0|0.0|10,"PredTime"|"Min"|0.0|0.0|10,"ElapsedTime"|"Min"|0.0|0.0|10,"CurrentLap"|""|0|0|10
701574,1495245986209,,,,,0,,,0.0,0.1,0.98,-3.0,0.3,-0.3,300,0,1,0,0.0,0,39.536705,-122.332146,0.0,0.291,294.6,8,3,2.3,0,0.0,-1,0.0,0.0,0.0,0
701594,1495245986229,,,,,,,,-0.0,0.1,0.97,-2.9,0.2,-0.4,460,0,,,,,,,,,,,,,,,,,,,
701614,1495245986249,,,,,,,,-0.01,0.09,0.97,-2.9,0.1,-0.4,460,0,,,,,,,,,,,,,,,,,,,
701634,1495245986269,,,,,,,,-0.01,0.09,0.97,-2.9,0.2,-0.4,540,0,,,,,,,,,,,,,,,,,,,
701654,1495245986289,,,,,,,,-0.01,0.08,0.96,-2.9,0.2,-0.4,540,0,,,,,,,,,,,,,,,,,,,
701674,1495245986309,0,124.5,,159.4,1,146.7,,-0.01,0.09,0.97,-3.0,0.3,-0.3,560,0,1,0,0.0,0,39.536705,-122.332146,0.0,0.291,294.6,8,3,2.3,0,0.0,-1,0.0,0.0,0.0,0
701694,1495245986329,,,,,,,,-0.01,0.07,0.97,-2.9,0.4,-0.3,560,0,,,,,,,,,,,,,,,,,,,
701714,1495245986349,,,,,,,,-0.0,0.07,0.96,-3.0,0.8,-0.2,660,0,,,,,,,,,,,,,,,,,,,
701734,1495245986369,,,,,,,,0.0,0.08,0.96,-3.0,0.8,-0.2,780,0,,,,,,,,,,,,,,,,,,,
701754,1495245986389,,,,,,,,0.0,0.1,0.96,-3.0,0.8,-0.2,840,0,,,,,,,,,,,,,,,,,,,
701774,1495245986409,,,,,3,,,0.0,0.11,0.96,-3.0,0.9,-0.3,800,0,1,0,0.0,0,39.536705,-122.332146,0.0,0.291,294.6,8,3,2.3,0,0.0,-1,0.0,0.0,0.0,0
701794,1495245986429,,,,,,,,-0.0,0.1,0.96,-3.0,1.0,-0.5,800,0,,,,,,,,,,,,,,,,,,,
701814,1495245986449,,,,,,,,-0.01,0.1,0.97,-3.0,0.9,-0.5,760,0,,,,,,,,,,,,,,,,,,,
701834,1495245986469,,,,,,,,-0.01,0.09,0.96,-3.0,0.7,-0.3,720,0,,,,,,,,,,,,,,,,,,,
701854,1495245986491,,,,,,,,-0.01,0.09,0.97,-3.0,0.7,-0.4,720,2,,,,,,,,,,,,,,,,,,,
701874,1495245986511,0,124.6,,159.2,4,146.5,,-0.01,0.08,0.97,-3.0,0.8,-0.4,720,2,1,1,720.0,0,39.536705,-122.332146,0.0,0.291,294.6,8,3,2.3,0,0.0,-1,0.0,0.0,0.0,0
701894,1495245986531,,,,,,,,-0.01,0.08,0.97,-3.1,0.8,-0.3,780,2,,,,,,,,,,,,,,,,,,,
701914,1495245986551,,,,,,,,0.0,0.08,0.96,-3.1,0.8,-0.2,820,2,,,,,,,,,,,,,,,,,,,
701934,1495245986571,,,,,,,,0.0,0.09,0.96,-3.1,0.5,-0.2,840,2,,,,,,,,,,,,,,,,,,,
701954,1495245986591,,,,,,,,-0.0,0.1,0.96,-3.0,0.6,-0.3,880,2,,,,,,,,,,,,,,,,,,,
701974,1495245986611,,,,,6,,,-0.0,0.09,0.96,-3.0,0.5,-0.4,920,2,1,1,880.0,0,39.536705,-122.332146,0.0,0.291,294.6,8,3,2.3,0,0.0,-1,0.0,0.0,0.0,0
701994,1495245986631,,,,,,,,-0.0,0.08,0.95,-3.0,0.5,-0.4,940,2,,,,,,,,,,,,,,,,,,,
702014,1495245986651,,,,,,,,0.0,0.07,0.96,-3.0,0.5,-0.5,980,2,,,,,,,,,,,,,,,,,,,
702034,1495245986671,,,,,,,,0.0,0.07,0.96,-3.0,0.3,-0.4,1000,2,,,,,,,,,,,,,,,,,,,
702054,1495245986691,,,,,,,,0.01,0.07,0.97,-3.0,0.3,-0.4,980,2,,,,,,,,,,,,,,,,,,,
702074,1495245986711,0,124.8,-0.7,159.4,9,146.4,14.59,0.02,0.07,0.97,-3.0,0.3,-0.4,1000,2,1,1,980.0,0,39.536705,-122.332146,0.0,0.291,294.6,8,3,2.3,0,0.0,-1,0.0,0.0,0.0,0
702094,1495245986731,,,,,,,,0.02,0.07,0.98,-3.0,0.3,-0.3,1000,2,,,,,,,,,,,,,,,,,,,
702114,1495245986751,,,,,,,,0.02,0.07,0.98,-3.0,0.3,-0.3,1020,2,,,,,,,,,,,,,,,,,,,
702134,1495245986771,,,,,,,,0.02,0.07,0.98,-3.0,0.2,-0.3,1040,2,,,,,,,,,,,,,,,,,,,
702154,1495245986791,,,,,,,,0.02,0.07,0.97,-3.0,0.3,-0.3,1040,2,,,,,,,,,,,,,,,,,,,
702174,1495245986811,,,,,14,,,0.02,0.08,0.96,-3.0,0.2,-0.3,1040,2,1,1,1040.0,0,39.536705,-122.332146,0.0,0.291,294.6,8,3,2.3,0,0.0,-1,0.0,0.0,0.0,0
702194,1495245986831,,,,,,,,0.01,0.08,0.97,-2.9,0.3,-0.2,1060,2,,,,,,,,,,,,,,,,,,,
702214,1495245986851,,,,,,,,0.01,0.08,0.98,-3.0,0.4,-0.3,1080,2,,,,,,,,,,,,,,,,,,,
702234,1495245986871,,,,,,,,0.0,0.08,0.98,-3.0,0.4,-0.3,1080,2,,,,,,,,,,,,,,,,,,,
702254,1495245986891,,,,,,,,-0.0,0.08,0.97,-3.0,0.2,-0.3,1080,2,,,,,,,,,,,,,,,,,,,
702274,1495245986911,2,124.8,,160.0,17,147.0,,-0.0,0.08,0.97,-3.0,0.2,-0.3,1080,2,1,1,1080.0,0,39.536705,-122.332146,0.0,0.291,294.6,8,3,2.3,0,0.0,-1,0.0,0.0,0.0,0
702294,1495245986931,,,,,,,,-0.0,0.08,0.97,-3.0,0.2,-0.3,1100,2,,,,,,,,,,,,,,,,,,,
702314,1495245986951,,,,,,,,-0.0,0.08,0.97,-3.0,0.2,-0.3,1100,2,,,,,,,,,,,,,,,,,,,
702334,1495245986971,,,,,,,,-0.0,0.09,0.97,-3.0,0.1,-0.3,1080,2,,,,,,,,,,,,,,,,,,,
702354,1495245986991,,,,,,,,-0.0,0.08,0.98,-3.0,0.2,-0.3,1080,2,,,,,,,,,,,,,,,,,,,
702374,1495245987002,,,,,21,,,0.0,0.09,0.98,-3.0,0.2,-0.3,1080,2,1,1,1080.0,0,39.536705,-122.332146,0.0,0.291,294.6,8,3,2.3,0,0.0,-1,0.0,0.0,0.0,0
702394,1495245987022,,,,,,,,0.0,0.09,0.98,-3.0,0.2,-0.3,1060,2,,,,,,,,,,,,,,,,,,,
702414,1495245987042,,,,,,,,0.0,0.09,0.98,-3.0,0.2,-0.3,1060,2,,,,,,,,,,,,,,,,,,,
702434,1495245987062,,,,,,,,0.0,0.08,0.98,-3.0,0.3,-0.4,1060,2,,,,,,,,,,,,,,,,,,,
702454,1495245987082,,,,,,,,-0.0,0.08,0.98,-3.0,0.2,-0.3,1040,2,,,,,,,,,,,,,,,,,,,
702474,1495245987110,0,124.4,,159.4,22,146.7,,-0.0,0.08,0.98,-3.0,0.3,-0.3,1020,2,1,1,1020.0,0,39.536705,-122.332146,0.0,0.291,294.6,8,3,2.3,0,0.0,-1,0.0,0.0,0.0,0
702494,1495245987130,,,,,,,,-0.0,0.08,0.98,-3.0,0.3,-0.3,1020,2,,,,,,,,,,,,,,,,,,,
702514,1495245987150,,,,,,,,-0.0,0.08,0.97,-3.0,0.3,-0.3,1000,2,,,,,,,,,,,,,,,,,,,
702534,1495245987170,,,,,,,,-0.0,0.09,0.98,-3.0,0.2,-0.3,1000,2,,,,,,,,,,,,,,,,,,,
702554,1495245987190,,,,,,,,-0.01,0.09,0.97,-3.0,0.1,-0.3,980,2,,,,,,,,,,,,,,,,,,,
702574,1495245987210,,,,,29,,,-0.01,0.09,0.97,-2.9,0.2,-0.3,960,2,1,1,960.0,0,39.536705,-122.332146,0.0,0.291,294.6,8,3,2.3,0,0.0,-1,0.0,0.0,0.0,0
702594,1495245987230,,,,,,,,-0.01,0.09,0.97,-2.9,0.2,-0.3,940,2,,,,,,,,,,,,,,,,,,,
702614,1495245987250,,,,,,,,-0.01,0.09,0.98,-2.9,0.2,-0.3,920,2,,,,,,,,,,,,,,,,,,,
702634,1495245987270,,,,,,,,-0.01,0.1,0.98,-3.0,0.3,-0.3,920,2,,,,,,,,,,,,,,,,,,,
702654,1495245987290,,,,,,,,-0.01,0.09,0.98,-3.0,0.3,-0.3,900,2,,,,,,,,,,,,,,,,,,,
702674,1495245987310,0,124.5,,159.2,34,146.6,,-0.01,0.09,0.97,-3.0,0.3,-0.3,880,153846,1,1,900.0,0,39.536705,-122.332146,0.0,0.291,294.6,8,3,2.3,0,0.0,-1,0.0,0.0,0.0,0
702694,1495245987330,,,,,,,,-0.0,0.08,0.97,-3.0,0.3,-0.3,880,0,,,,,,,,,,,,,,,,,,,
702714,1495245987350,,,,,,,,-0.01,0.09,0.97,-3.0,0.2,-0.3,880,0,,,,,,,,,,,,,,,,,,,
702734,1495245987370,,,,,,,,-0.01,0.09,0.97,-3.0,0.2,-0.3,860,0,,,,,,,,,,,,,,,,,,,
702754,1495245987390,,,,,,,,-0.0,0.09,0.97,-3.0,0.2,-0.2,820,0,,,,,,,,,,,,,,,,,,,
702774,1495245987410,,,,,38,,,-0.0,0.1,0.97,-3.0,0.1,-0.2,820,0,1,1,0.0,0,39.536705,-122.332146,0.0,0.291,294.6,8,3,2.3,0,0.0,-1,0.0,0.0,0.0,0
702794,1495245987430,,,,,,,,-0.0,0.09,0.97,-3.0,0.1,-0.2,800,0,,,,,,,,,,,,,,,,,,,
702814,1495245987450,,,,,,,,-0.01,0.09,0.98,-3.0,0.1,-0.3,780,0,,,,,,,,,,,,,,,,,,,
702834,1495245987470,,,,,,,,-0.0,0.1,0.98,-3.0,0.1,-0.3,780,0,,,,,,,,,,,,,,,,,,,
702854,1495245987490,,,,,,,,-0.0,0.1,0.98,-3.0,0.2,-0.2,760,0,,,,,,,,,,,,,,,,,,,
702874,1495245987510,0,124.3,,159.4,43,146.6,,-0.0,0.1,0.98,-3.0,0.2,-0.2,760,0,1,1,0.0,0,39.536705,-122.332146,0.0,0.291,294.6,8,3,2.3,0,0.0,-1,0.0,0.0,0.0,0
702894,1495245987530,,,,,,,,-0.0,0.09,0.98,-3.0,0.2,-0.3,740,0,,,,,,,,,,,,,,,,,,,
702914,1495245987550,,,,,,,,-0.0,0.09,0.98,-3.0,0.1,-0.2,740,0,,,,,,,,,,,,,,,,,,,
702934,1495245987570,,,,,,,,0.0,0.1,0.97,-3.0,0.1,-0.2,720,0,,,,,,,,,,,,,,,,,,,
702954,1495245987590,,,,,,,,0.0,0.1,0.98,-3.0,0.0,-0.2,720,0,,,,,,,,,,,,,,,,,,,
702974,1495245987610,,,,,42,,,0.0,0.1,0.98,-3.0,0.1,-0.2,720,0,1,1,0.0,0,39.536705,-122.332146,0.0,0.291,294.6,8,3,2.3,0,0.0,-1,0.0,0.0,0.0,0
702994,1495245987630,,,,,,,,0.0,0.1,0.98,-3.0,0.1,-0.2,720,0,,,,,,,,,,,,,,,,,,,
703014,1495245987650,,,,,,,,0.0,0.1,0.98,-3.0,0.2,-0.2,700,0,,,,,,,,,,,,,,,,,,,
703034,1495245987670,,,,,,,,0.0,0.09,0.98,-3.0,0.2,-0.2,680,0,,,,,,,,,,,,,,,,,,,
703054,1495245987690,,,,,,,,-0.0,0.09,0.98,-3.0,0.2,-0.2,680,0,,,,,,,,,,,,,,,,,,,
703074,1495245987706,0,124.4,-0.6,159.4,45,146.6,14.65,-0.0,0.09,0.97,-3.0,0.2,-0.2,660,0,1,1,0.0,0,39.536705,-122.332146,0.0,0.291,294.6,8,3,2.3,0,0.0,-1,0.0,0.0,0.0,0
703094,1495245987726,,,,,,,,-0.0,0.09,0.97,-2.9,0.1,-0.2,660,0,,,,,,,,,,,,,,,,,,,
703114,1495245987746,,,,,,,,-0.0,0.09,0.97,-3.0,0.1,-0.2,660,0,,,,,,,,,,,,,,,,,,,
703134,1495245987766,,,,,,,,-0.0,0.09,0.97,-2.9,0.1,-0.2,660,0,,,,,,,,,,,,,,,,,,,
703154,1495245987786,,,,,,,,-0.01,0.08,0.97,-2.9,0.1,-0.2,660,0,,,,,,,,,,,,,,,,,,,
703174,1495245987810,,,,,43,,,-0.01,0.08,0.98,-2.9,0.1,-0.2,660,0,1,1,0.0,0,39.536705,-122.332146,0.0,0.291,294.6,8,3,2.3,0,0.0,-1,0.0,0.0,0.0,0
703194,1495245987830,,,,,,,,-0.01,0.09,0.98,-2.9,0.1,-0.2,640,0,,,,,,,,,,,,,,,,,,,
703214,1495245987850,,,,,,,,-0.01,0.09,0.98,-2.9,0.0,-0.2,640,0,,,,,,,,,,,,,,,,,,,
703234,1495245987870,,,,,,,,-0.0,0.09,0.98,-3.0,-0.0,-0.2,640,0,,,,,,,,,,,,,,,,,,,
703254,1495245987890,,,,,,,,-0.0,0.1,0.98,-3.0,-0.0,-0.1,640,0,,,,,,,,,,,,,,,,,,,
703274,1495245987910,0,124.1,,159.7,41,147.0,,-0.01,0.09,0.97,-3.0,0.0,-0.2,640,0,1,1,0.0,0,39.536705,-122.332146,0.0,0.291,294.6,8,3,2.3,0,0.0,-1,0.0,0.0,0.0,0
703294,1495245987930,,,,,,,,-0.01,0.1,0.97,-3.0,0.0,-0.2,640,0,,,,,,,,,,,,,,,,,,,
703314,1495245987950,,,,,,,,-0.0,0.11,0.97,-3.0,0.0,-0.1,640,0,,,,,,,,,,,,,,,,,,,
703334,1495245987970,,,,,,,,-0.01,0.1,0.98,-3.0,0.1,-0.2,640,0,,,,,,,,,,,,,,,,,,,
703354,1495245987990,,,,,,,,-0.0,0.1,0.98,-3.0,0.2,-0.2,660,0,,,,,,,,,,,,,,,,,,,
703374,1495245988003,,,,,37,,,-0.0,0.1,0.98,-3.0,0.1,-0.2,640,0,1,1,0.0,0,39.536705,-122.332146,0.0,0.291,294.6,8,3,2.3,0,0.0,-1,0.0,0.0,0.0,0
703394,1495245988023,,,,,,,,-0.0,0.09,0.98,-3.0,0.2,-0.2,640,0,,,,,,,,,,,,,,,,,,,
703414,1495245988043,,,,,,,,-0.0,0.1,0.98,-3.0,0.2,-0.2,640,0,,,,,,,,,,,,,,,,,,,
703434,1495245988063,,,,,,,,-0.0,0.1,0.98,-3.1,0.2,-0.2,640,0,,,,,,,,,,,,,,,,,,,
703454,1495245988083,,,,,,,,-0.0,0.1,0.98,-3.1,0.3,-0.2,640,0,,,,,,,,,,,,,,,,,,,
703474,1495245988109,0,124.8,,160.0,38,147.0,,0.0,0.1,0.98,-3.1,0.3,-0.3,660,0,1,1,0.0,0,39.536705,-122.332146,0.0,0.291,294.6,8,3,2.3,0,0.0,-1,0.0,0.0,0.0,0
703494,1495245988129,,,,,,,,0.0,0.1,0.98,-3.1,0.2,-0.3,660,0,,,,,,,,,,,,,,,,,,,
703514,1495245988149,,,,,,,,-0.0,0.09,0.98,-3.0,0.2,-0.3,660,0,,,,,,,,,,,,,,,,,,,
703534,1495245988169,,,,,,,,0.0,0.1,0.98,-3.0,0.3,-0.3,680,0,,,,,,,,,,,,,,,,,,,
703554,1495245988189,,,,,,,,0.0,0.11,0.98,-3.1,0.3,-0.2,680,0,,,,,,,,,,,,,,,,,,,
703574,1495245988209,,,,,40,,,0.0,0.1,0.98,-3.0,0.3,-0.3,680,0,1,1,0.0,0,39.536705,-122.332146,0.0,0.291,294.6,8,3,2.3,0,0.0,-1,0.0,0.0,0.0,0
703594,1495245988229,,,,,,,,0.01,0.1,0.98,-3.0,0.5,-0.3,680,0,,,,,,,,,,,,,,,,,,,
703614,1495245988249,,,,,,,,0.01,0.11,0.98,-3.1,0.5,-0.3,680,0,,,,,,,,,,,,,,,,,,,
703634,1495245988269,,,,,,,,0.01,0.1,0.98,-3.1,0.5,-0.3,680,0,,,,,,,,,,,,,,,,,,,
703654,1495245988289,,,,,,,,0.01,0.1,0.98,-3.1,0.4,-0.3,680,0,,,,,,,,,,,,,,,,,,,
703674,1495245988309,0,124.3,,159.6,41,146.7,,0.01,0.11,0.98,-3.1,0.4,-0.3,700,0,1,1,0.0,0,39.536705,-122.332146,0.0,0.291,294.6,8,3,2.3,0,0.0,-1,0.0,0.0,0.0,0
703694,1495245988329,,,,,,,,0.01,0.1,0.98,-3.1,0.3,-0.3,700,0,,,,,,,,,,,,,,,,,,,
703714,1495245988349,,,,,,,,0.0,0.1,0.98,-3.0,0.3,-0.3,700,0,,,,,,,,,,,,,,,,,,,
703734,1495245988369,,,,,,,,0.0,0.11,0.98,-3.1,0.3,-0.3,700,0,,,,,,,,,,,,,,,,,,,
703754,1495245988389,,,,,,,,0.0,0.1,0.97,-3.1,0.2,-0.3,700,0,,,,,,,,,,,,,,,,,,,
703774,1495245988409,,,,,46,,,-0.0,0.1,0.97,-3.0,0.2,-0.3,700,0,1,1,0.0,0,39.536705,-122.332146,0.0,0.291,294.6,8,3,2.3,0,0.0,-1,0.0,0.0,0.0,0
703794,1495245988429,,,,,,,,-0.0,0.1,0.98,-3.0,0.3,-0.3,700,0,,,,,,,,,,,,,,,,,,,
703814,1495245988449,,,,,,,,-0.0,0.1,0.98,-3.0,0.3,-0.2,720,0,,,,,,,,,,,,,,,,,,,
703834,1495245988469,,,,,,,,-0.0,0.11,0.98,-3.0,0.2,-0.3,720,0,,,,,,,,,,,,,,,,,,,
703854,1495245988491,,,,,,,,-0.0,0.11,0.98,-3.0,0.2,-0.3,720,0,,,,,,,,,,,,,,,,,,,
703874,1495245988511,0,124.9,,159.8,46,147.0,,-0.0,0.11,0.98,-3.1,0.1,-0.3,720,0,1,1,0.0,0,39.536705,-122.332146,0.0,0.291,294.6,8,3,2.3,0,0.0,-1,0.0,0.0,0.0,0
703894,1495245988531,,,,,,,,0.0,0.11,0.98,-3.1,0.1,-0.3,720,0,,,,,,,,,,,,,,,,,,,
703914,1495245988551,,,,,,,,0.0,0.11,0.98,-3.1,0.1,-0.3,720,0,,,,,,,,,,,,,,,,,,,
703934,1495245988571,,,,,,,,-0.0,0.1,0.98,-3.1,0.1,-0.3,720,0,,,,,,,,,,,,,,,,,,,
703954,1495245988591,,,,,,,,-0.0,0.1,0.98,-3.1,0.1,-0.3,720,0,,,,,,,,,,,,,,,,,,,
703974,1495245988611,,,,,46,,,-0.0,0.1,0.97,-3.1,0.0,-0.3,720,0,1,1,0.0,0,39.536705,-122.332146,0.0,0.291,294.6,8,3,2.3,0,0.0,-1,0.0,0.0,0.0,0
703994,1495245988631,,,,,,,,-0.0,0.1,0.98,-3.0,0.0,-0.4,720,0,,,,,,,,,,,,,,,,,,,
704014,1495245988651,,,,,,,,-0.01,0.1,0.98,-3.0,0.1,-0.4,720,0,,,,,,,,,,,,,,,,,,,
704034,1495245988671,,,,,,,,-0.0,0.1,0.97,-3.0,0.1,-0.3,740,0,,,,,,,,,,,,,,,,,,,
704054,1495245988691,,,,,,,,-0.01,0.1,0.98,-3.1,0.0,-0.3,740,0,,,,,,,,,,,,,,,,,,,
704074,1495245988711,0,125.0,-0.5,159.9,49,146.8,14.64,-0.01,0.1,0.98,-3.0,0.0,-0.3,720,0,1,1,0.0,0,39.536705,-122.332146,0.0,0.291,294.6,8,3,2.3,0,0.0,-1,0.0,0.0,0.0,0
704094,1495245988731,,,,,,,,-0.01,0.1,0.98,-3.0,0.0,-0.3,720,0,,,,,,,,,,,,,,,,,,,
704114,1495245988751,,,,,,,,-0.0,0.1,0.98,-3.0,0.1,-0.2,720,0,,,,,,,,,,,,,,,,,,,
704134,1495245988771,,,,,,,,-0.0,0.1,0.98,-3.0,0.1,-0.3,740,0,,,,,,,,,,,,,,,,,,,
704154,1495245988791,,,,,,,,-0.0,0.09,0.98,-3.0,0.1,-0.3,740,0,,,,,,,,,,,,,,,,,,,
704174,1495245988811,,,,,43,,,-0.0,0.09,0.98,-3.0,0.1,-0.3,740,0,1,1,0.0,0,39.536705,-122.332146,0.0,0.291,294.6,8,3,2.3,0,0.0,-1,0.0,0.0,0.0,0
704194,1495245988831,,,,,,,,-0.0,0.09,0.98,-3.0,0.2,-0.3,740,0,,,,,,,,,,,,,,,,,,,
704214,1495245988851,,,,,,,,-0.0,0.09,0.98,-3.0,0.1,-0.3,740,0,,,,,,,,,,,,,,,,,,,
704234,1495245988871,,,,,,,,-0.01,0.09,0.98,-3.0,0.1,-0.3,740,0,,,,,,,,,,,,,,,,,,,
704254,1495245988891,,,,,,,,-0.01,0.09,0.98,-3.0,0.1,-0.3,740,0,,,,,,,,,,,,,,,,,,,
704274,1495245988911,0,124.3,,159.1,44,146.9,,-0.0,0.1,0.98,-3.0,0.2,-0.2,740,0,1,1,0.0,0,39.536705,-122.332146,0.0,0.291,294.6,8,3,2.3,0,0.0,-1,0.0,0.0,0.0,0
704294,1495245988931,,,,,,,,-0.0,0.09,0.98,-3.0,0.2,-0.3,740,0,,,,,,,,,,,,,,,,,,,
704314,1495245988951,,,,,,,,-0.01,0.09,0.98,-3.0,0.2,-0.3,740,0,,,,,,,,,,,,,,,,,,,
704334,1495245988971,,,,,,,,-0.0,0.09,0.98,-3.0,0.2,-0.3,740,0,,,,,,,,,,,,,,,,,,,
704354,1495245988991,,,,,,,,-0.0,0.09,0.98,-3.0,0.3,-0.2,740,0,,,,,,,,,,,,,,,,,,,
704374,1495245989004,,,,,45,,,-0.0,0.09,0.98,-3.0,0.2,-0.3,740,0,1,1,0.0,0,39.536705,-122.332146,0.0,0.291,294.6,8,3,2.2,0,0.0,-1,0.0,0.0,0.0,0
704394,1495245989024,,,,,,,,-0.0,0.09,0.99,-3.0,0.3,-0.3,740,0,,,,,,,,,,,,,,,,,,,
704414,1495245989044,,,,,,,,-0.0,0.09,0.98,-3.0,0.2,-0.3,740,0,,,,,,,,,,,,,,,,,,,
704434,1495245989064,,,,,,,,0.0,0.09,0.98,-3.0,0.3,-0.2,740,0,,,,,,,,,,,,,,,,,,,
704454,1495245989084,,,,,,,,0.0,0.09,0.98,-3.0,0.2,-0.3,740,0,,,,,,,,,,,,,,,,,,,
704474,1495245989108,0,125.3,,160.2,46,146.3,,-0.0,0.09,0.98,-3.0,0.3,-0.3,740,0,1,1,0.0,0,39.536705,-122.332146,0.0,0.291,294.6,8,3,2.2,0,0.0,-1,0.0,0.0,0.0,0
704494,1495245989128,,,,,,,,0.0,0.09,0.99,-3.0,0.2,-0.3,740,0,,,,,,,,,,,,,,,,,,,
704514,1495245989148,,,,,,,,0.0,0.09,0.98,-3.0,0.3,-0.3,740,0,,,,,,,,,,,,,,,,,,,
704534,1495245989168,,,,,,,,-0.0,0.09,0.99,-3.0,0.3,-0.3,740,0,,,,,,,,,,,,,,,,,,,
704554,1495245989188,,,,,,,,-0.0,0.09,0.99,-3.0,0.3,-0.3,740,0,,,,,,,,,,,,,,,,,,,
704574,1495245989208,,,,,53,,,0.0,0.09,0.99,-3.0,0.3,-0.2,740,0,1,1,0.0,0,39.536705,-122.332146,0.0,0.291,294.6,8,3,2.2,0,0.0,-1,0.0,0.0,0.0,0
704594,1495245989228,,,,,,,,0.0,0.09,0.98,-3.1,0.3,-0.2,740,0,,,,,,,,,,,,,,,,,,,
704614,1495245989248,,,,,,,,0.0,0.09,0.99,-3.0,0.3,-0.2,740,0,,,,,,,,,,,,,,,,,,,
704634,1495245989268,,,,,,,,0.0,0.09,0.99,-3.0,0.3,-0.3,740,0,,,,,,,,,,,,,,,,,,,
704654,1495245989288,,,,,,,,0.0,0.09,0.99,-3.0,0.2,-0.3,740,0,,,,,,,,,,,,,,,,,,,
704674,1495245989310,0,125.3,,160.1,42,146.4,,0.0,0.09,0.98,-3.0,0.3,-0.2,740,0,1,1,0.0,0,39.536705,-122.332146,0.0,0.291,294.6,8,3,2.2,0,0.0,-1,0.0,0.0,0.0,0
704694,1495245989330,,,,,,,,0.0,0.09,0.99,-3.0,0.3,-0.3,740,0,,,,,,,,,,,,,,,,,,,
704714,1495245989350,,,,,,,,0.0,0.09,0.99,-3.0,0.3,-0.3,740,0,,,,,,,,,,,,,,,,,,,
704734,1495245989370,,,,,,,,0.0,0.09,0.99,-3.0,0.2,-0.3,740,0,,,,,,,,,,,,,,,,,,,
704754,1495245989390,,,,,,,,0.0,0.09,0.99,-3.0,0.2,-0.2,720,0,,,,,,,,,,,,,,,,,,,
704774,1495245989410,,,,,49,,,0.0,0.09,0.99,-3.0,0.2,-0.3,720,0,1,1,0.0,0,39.536705,-122.332146,0.0,0.291,294.6,8,3,2.2,0,0.0,-1,0.0,0.0,0.0,0
704794,1495245989430,,,,,,,,0.0,0.09,0.99,-3.0,0.2,-0.3,720,0,,,,,,,,,,,,,,,,,,,
704814,1495245989450,,,,,,,,0.0,0.09,0.98,-3.0,0.1,-0.2,720,0,,,,,,,,,,,,,,,,,,,
704834,1495245989470,,,,,,,,0.0,0.1,0.98,-3.0,0.2,-0.2,740,0,,,,,,,,,,,,,,,,,,,
704854,1495245989490,,,,,,,,0.0,0.1,0.98,-3.0,0.2,-0.3,720,0,,,,,,,,,,,,,,,,,,,
704874,1495245989510,0,125.1,,159.9,46,147.0,,0.0,0.1,0.98,-3.0,0.2,-0.3,720,0,1,1,0.0,0,39.536705,-122.332146,0.0,0.291,294.6,8,3,2.2,0,0.0,-1,0.0,0.0,0.0,0
704894,1495245989530,,,,,,,,0.0,0.1,0.97,-2.9,0.1,-0.3,720,0,,,,,,,,,,,,,,,,,,,
704914,1495245989550,,,,,,,,0.0,0.1,0.97,-2.9,0.1,-0.2,720,0,,,,,,,,,,,,,,,,,,,
704934,1495245989570,,,,,,,,0.0,0.1,0.98,-2.9,0.1,-0.3,720,0,,,,,,,,,,,,,,,,,,,
704954,1495245989590,,,,,,,,0.01,0.1,0.98,-2.9,0.1,-0.3,720,0,,,,,,,,,,,,,,,,,,,
704974,1495245989610,,,,,46,,,0.01,0.1,0.97,-2.9,0.1,-0.3,720,0,1,1,0.0,0,39.536705,-122.332146,0.0,0.291,294.6,8,3,2.2,0,0.0,-1,0.0,0.0,0.0,0
704994,1495245989630,,,,,,,,0.0,0.1,0.98,-3.0,0.1,-0.3,720,0,,,,,,,,,,,,,,,,,,,
705014,1495245989650,,,,,,,,0.0,0.1,0.98,-2.9,0.0,-0.3,720,0,,,,,,,,,,,,,,,,,,,
705034,1495245989670,,,,,,,,0.0,0.1,0.98,-2.9,0.1,-0.3,720,0,,,,,,,,,,,,,,,,,,,
705054,1495245989690,,,,,,,,0.01,0.1,0.98,-3.0,0.1,-0.2,720,0,,,,,,,,,,,,,,,,,,,
705074,1495245989710,0,125.3,-0.5,160.0,47,146.5,14.63,0.01,0.1,0.98,-3.0,0.1,-0.3,720,0,1,1,0.0,0,39.536705,-122.332146,0.0,0.291,294.6,8,3,2.2,0,0.0,-1,0.0,0.0,0.0,0
705094,1495245989730,,,,,,,,0.0,0.09,0.98,-3.0,0.1,-0.3,720,0,,,,,,,,,,,,,,,,,,,
705114,1495245989750,,,,,,,,0.0,0.1,0.98,-3.0,0.1,-0.2,720,0,,,,,,,,,,,,,,,,,,,
705134,1495245989770,,,,,,,,0.01,0.1,0.98,-3.0,0.1,-0.2,740,0,,,,,,,,,,,,,,,,,,,
705154,1495245989790,,,,,,,,0.01,0.09,0.98,-2.9,0.1,-0.3,740,0,,,,,,,,,,,,,,,,,,,
705174,1495245989810,,,,,48,,,0.0,0.09,0.98,-2.9,0.2,-0.3,740,0,1,1,0.0,0,39.536705,-122.332146,0.0,0.291,294.6,8,3,2.2,0,0.0,-1,0.0,0.0,0.0,0
705194,1495245989830,,,,,,,,0.0,0.1,0.98,-3.0,0.1,-0.3,740,0,,,,,,,,,,,,,,,,,,,
705214,1495245989850,,,,,,,,0.0,0.1,0.98,-3.0,0.1,-0.2,740,0,,,,,,,,,,,,,,,,,,,
705234,1495245989870,,,,,,,,0.0,0.09,0.98,-3.0,0.1,-0.3,740,0,,,,,,,,,,,,,,,,,,,
705254,1495245989890,,,,,,,,0.0,0.09,0.98,-3.0,0.1,-0.3,740,0,,,,,,,,,,,,,,,,,,,
705274,1495245989910,0,124.5,,159.5,48,147.1,,0.0,0.1,0.98,-3.0,0.1,-0.3,740,0,1,1,0.0,0,39.536705,-122.332146,0.0,0.291,294.6,8,3,2.2,0,0.0,-1,0.0,0.0,0.0,0
705294,1495245989930,,,,,,,,0.01,0.1,0.97,-3.0,0.1,-0.2,740,0,,,,,,,,,,,,,,,,,,,
705314,1495245989950,,,,,,,,0.01,0.1,0.98,-3.0,0.0,-0.2,740,0,,,,,,,,,,,,,,,,,,,
705334,1495245989970,,,,,,,,0.0,0.1,0.98,-3.0,0.1,-0.2,740,0,,,,,,,,,,,,,,,,,,,
705354,1495245989990,,,,,,,,0.0,0.1,0.98,-3.0,0.0,-0.2,740,0,,,,,,,,,,,,,,,,,,,
705374,1495245990003,,,,,48,,,0.0,0.1,0.97,-3.0,0.0,-0.2,740,0,1,1,0.0,0,39.536705,-122.332146,0.0,0.291,294.6,8,3,2.2,0,0.0,-1,0.0,0.0,0.0,0
705394,1495245990023,,,,,,,,0.0,0.1,0.98,-3.0,-0.0,-0.2,740,0,,,,,,,,,,,,,,,,,,,
705414,1495245990043,,,,,,,,0.0,0.1,0.98,-3.0,0.0,-0.2,740,0,,,,,,,,,,,,,,,,,,,
705434,1495245990063,,,,,,,,0.0,0.11,0.97,-3.0,-0.0,-0.1,740,0,,,,,,,,,,,,,,,,,,,
705454,1495245990083,,,,,,,,0.0,0.11,0.97,-3.0,0.0,-0.1,740,0,,,,,,,,,,,,,,,,,,,
705474,1495245990109,0,125.3,,160.1,50,146.5,,0.0,0.11,0.98,-3.0,-0.1,-0.2,740,0,1,1,0.0,0,39.536705,-122.332146,0.0,0.291,294.6,8,3,2.2,0,0.0,-1,0.0,0.0,0.0,0
705494,1495245990129,,,,,,,,0.0,0.11,0.98,-3.0,-0.0,-0.2,740,0,,,,,,,,,,,,,,,,,,,
705514,1495245990149,,,,,,,,0.0,0.11,0.97,-3.0,-0.0,-0.2,740,0,,,,,,,,,,,,,,,,,,,
705534,1495245990169,,,,,,,,0.0,0.11,0.97,-3.0,0.0,-0.2,740,0,,,,,,,,,,,,,,,,,,,
705554,1495245990189,,,,,,,,-0.0,0.11,0.98,-3.0,-0.0,-0.2,740,0,,,,,,,,,,,,,,,,,,,
705574,1495245990209,,,,,54,,,-0.0,0.1,0.98,-3.0,0.1,-0.2,740,0,1,1,0.0,0,39.536705,-122.332146,0.0,0.291,294.6,8,3,2.2,0,0.0,-1,0.0,0.0,0.0,0
705594,1495245990229,,,,,,,,-0.0,0.11,0.97,-3.0,0.0,-0.2,760,0,,,,,,,,,,,,,,,,,,,
705614,1495245990249,,,,,,,,0.0,0.11,0.97,-3.0,0.1,-0.1,760,0,,,,,,,,,,,,,,,,,,,
705634,1495245990269,,,,,,,,-0.0,0.11,0.98,-3.0,0.0,-0.1,760,0,,,,,,,,,,,,,,,,,,,
705654,1495245990291,,,,,,,,-0.0,0.1,0.98,-3.0,0.1,-0.2,780,0,,,,,,,,,,,,,,,,,,,
705674,1495245990311,0,125.1,,159.8,45,146.9,,-0.0,0.11,0.97,-3.0,0.0,-0.2,780,0,1,1,0.0,0,39.536705,-122.332146,0.0,0.291,294.6,8,3,2.2,0,0.0,-1,0.0,0.0,0.0,0
705694,1495245990331,,,,,,,,0.0,0.11,0.97,-3.0,0.1,-0.1,780,0,,,,,,,,,,,,,,,,,,,
705714,1495245990351,,,,,,,,-0.0,0.11,0.97,-3.0,-0.1,-0.1,780,0,,,,,,,,,,,,,,,,,,,
705734,1495245990371,,,,,,,,-0.0,0.11,0.98,-3.0,0.0,-0.2,800,0,,,,,,,,,,,,,,,,,,,
705754,1495245990391,,,,,,,,-0.01,0.11,0.98,-3.0,0.0,-0.2,820,0,,,,,,,,,,,,,,,,,,,
705774,1495245990411,,,,,54,,,-0.0,0.1,0.97,-3.0,-0.1,-0.2,820,0,1,1,0.0,0,39.536705,-122.332146,0.0,0.291,294.6,8,3,2.2,0,0.0,-1,0.0,0.0,0.0,0
705794,1495245990431,,,,,,,,-0.0,0.1,0.97,-3.0,0.0,-0.2,820,0,,,,,,,,,,,,,,,,,,,
705814,1495245990451,,,,,,,,0.0,0.11,0.97,-3.0,0.1,-0.1,840,0,,,,,,,,,,,,,,,,,,,
705834,1495245990471,,,,,,,,-0.0,0.1,0.97,-3.0,0.0,-0.1,840,0,,,,,,,,,,,,,,,,,,,
705854,1495245990491,,,,,,,,-0.0,0.1,0.98,-3.0,0.0,-0.2,860,0,,,,,,,,,,,,,,,,,,,
705874,1495245990511,0,125.1,,159.8,55,147.1,,-0.01,0.1,0.97,-2.9,0.0,-0.3,860,0,1,1,0.0,0,39.536705,-122.332146,0.0,0.291,294.6,8,3,2.2,0,0.0,-1,0.0,0.0,0.0,0
705894,1495245990531,,,,,,,,-0.01,0.09,0.97,-2.9,0.1,-0.3,880,0,,,,,,,,,,,,,,,,,,,
705914,1495245990551,,,,,,,,-0.01,0.09,0.96,-2.9,0.0,-0.3,900,0,,,,,,,,,,,,,,,,,,,
705934,1495245990571,,,,,,,,-0.0,0.1,0.96,-3.0,0.0,-0.2,900,0,,,,,,,,,,,,,,,,,,,
705954,1495245990591,,,,,,,,-0.0,0.1,0.97,-3.0,0.1,-0.1,900,0,,,,,,,,,,,,,,,,,,,
705974,1495245990611,,,,,53,,,0.0,0.1,0.97,-3.0,0.3,-0.1,900,0,1,1,0.0,0,39.536705,-122.332146,0.0,0.291,294.6,8,3,2.2,0,0.0,-1,0.0,0.0,0.0,0
705994,1495245990631,,,,,,,,0.0,0.1,0.98,-3.0,0.2,-0.1,900,0,,,,,,,,,,,,,,,,,,,
706014,1495245990651,,,,,,,,-0.0,0.1,0.98,-3.0,-0.0,-0.2,920,0,,,,,,,,,,,,,,,,,,,
706034,1495245990671,,,,,,,,-0.01,0.1,0.98,-3.0,-0.0,-0.2,920,0,,,,,,,,,,,,,,,,,,,
706054,1495245990691,,,,,,,,-0.01,0.09,0.99,-2.9,-0.0,-0.3,920,0,,,,,,,,,,,,,,,,,,,
706074,1495245990711,0,125.3,-0.5,160.1,59,146.3,14.65,-0.02,0.09,0.99,-2.9,0.0,-0.4,920,0,1,1,0.0,0,39.536705,-122.332146,0.0,0.291,294.6,8,3,2.2,0,0.0,-1,0.0,0.0,0.0,0
706094,1495245990731,,,,,,,,-0.02,0.09,0.98,-2.9,0.0,-0.4,940,0,,,,,,,,,,,,,,,,,,,
706114,1495245990751,,,,,,,,-0.02,0.08,0.98,-2.9,0.0,-0.4,940,0,,,,,,,,,,,,,,,,,,,
706134,1495245990771,,,,,,,,-0.02,0.07,0.97,-2.9,0.1,-0.4,940,0,,,,,,,,,,,,,,,,,,,
706154,1495245990791,,,,,,,,-0.02,0.06,0.97,-2.8,0.2,-0.4,940,0,,,,,,,,,,,,,,,,,,,
706174,1495245990811,,,,,62,,,-0.02,0.07,0.97,-2.9,0.2,-0.3,940,0,1,1,0.0,0,39.536705,-122.332146,0.0,0.291,294.6,8,3,2.2,0,0.0,-1,0.0,0.0,0.0,0
706194,1495245990831,,,,,,,,-0.02,0.07,0.97,-2.9,0.3,-0.3,940,0,,,,,,,,,,,,,,,,,,,
706214,1495245990851,,,,,,,,-0.02,0.08,0.96,-3.0,0.3,-0.2,920,0,,,,,,,,,,,,,,,,,,,
706234,1495245990871,,,,,,,,-0.02,0.08,0.97,-3.0,0.3,-0.1,920,0,,,,,,,,,,,,,,,,,,,
706254,1495245990891,,,,,,,,-0.01,0.09,0.97,-3.0,0.4,-0.1,920,0,,,,,,,,,,,,,,,,,,,
706274,1495245990911,0,124.5,,159.4,54,146.2,,-0.01,0.1,0.98,-3.0,0.5,-0.2,920,0,1,1,0.0,0,39.536705,-122.332146,0.0,0.291,294.6,8,3,2.2,0,0.0,-1,0.0,0.0,0.0,0
706294,1495245990931,,,,,,,,-0.0,0.1,0.98,-3.0,0.5,-0.1,920,0,,,,,,,,,,,,,,,,,,,
706314,1495245990951,,,,,,,,-0.0,0.1,0.98,-3.0,0.3,-0.1,920,0,,,,,,,,,,,,,,,,,,,
706334,1495245990971,,,,,,,,-0.01,0.1,0.99,-3.0,0.2,-0.2,920,0,,,,,,,,,,,,,,,,,,,
706354,1495245990991,,,,,,,,-0.02,0.09,0.99,-3.0,0.1,-0.2,920,0,,,,,,,,,,,,,,,,,,,
706374,1495245991004,,,,,54,,,-0.02,0.09,0.99,-3.0,0.1,-0.2,920,0,1,1,0.0,0,39.536705,-122.332146,0.0,0.291,294.6,8,3,2.2,0,0.0,-1,0.0,0.0,0.0,0
706394,1495245991024,,,,,,,,-0.02,0.1,0.99,-3.0,0.2,-0.3,900,0,,,,,,,,,,,,,,,,,,,
706414,1495245991044,,,,,,,,-0.03,0.09,0.98,-3.0,0.1,-0.3,920,0,,,,,,,,,,,,,,,,,,,
706434,1495245991064,,,,,,,,-0.03,0.07,0.98,-2.9,0.2,-0.3,920,0,,,,,,,,,,,,,,,,,,,
706454,1495245991084,,,,,,,,-0.03,0.07,0.97,-2.9,0.3,-0.3,900,0,,,,,,,,,,,,,,,,,,,
706474,1495245991110,0,124.7,,159.6,62,146.4,,-0.03,0.07,0.97,-2.9,0.3,-0.2,900,0,1,1,0.0,0,39.536705,-122.332146,0.0,0.291,294.6,8,3,2.2,0,0.0,-1,0.0,0.0,0.0,0
706494,1495245991130,,,,,,,,-0.02,0.09,0.97,-3.0,0.2,-0.2,900,0,,,,,,,,,,,,,,,,,,,
706514,1495245991150,,,,,,,,-0.02,0.09,0.97,-3.0,0.4,-0.2,880,0,,,,,,,,,,,,,,,,,,,
706534,1495245991170,,,,,,,,-0.02,0.1,0.98,-3.0,0.4,-0.1,880,0,,,,,,,,,,,,,,,,,,,
706554,1495245991190,,,,,,,,-0.02,0.11,0.98,-3.1,0.4,-0.2,880,0,,,,,,,,,,,,,,,,,,,
706574,1495245991210,,,,,56,,,-0.02,0.11,0.99,-3.1,0.3,-0.2,880,0,1,1,0.0,0,39.536705,-122.332146,0.0,0.291,294.6,8,3,2.2,0,0.0,-1,0.0,0.0,0.0,0
706594,1495245991230,,,,,,,,-0.03,0.1,0.99,-3.1,0.3,-0.3,860,0,,,,,,,,,,,,,,,,,,,
706614,1495245991250,,,,,,,,-0.03,0.09,0.99,-3.0,0.2,-0.3,860,0,,,,,,,,,,,,,,,,,,,
706634,1495245991270,,,,,,,,-0.03,0.09,0.98,-3.0,0.2,-0.3,860,0,,,,,,,,,,,,,,,,,,,
706654,1495245991290,,,,,,,,-0.03,0.09,0.97,-3.0,0.1,-0.3,860,0,,,,,,,,,,,,,,,,,,,
706674,1495245991310,0,125.2,,159.8,54,146.7,,-0.03,0.1,0.97,-3.1,0.2,-0.1,860,0,1,1,0.0,0,39.536705,-122.332146,0.0,0.291,294.6,8,3,2.2,0,0.0,-1,0.0,0.0,0.0,0
706694,1495245991330,,,,,,,,-0.02,0.1,0.97,-3.1,0.2,-0.1,860,0,,,,,,,,,,,,,,,,,,,
706714,1495245991350,,,,,,,,-0.02,0.11,0.97,-3.1,0.2,-0.1,860,2,,,,,,,,,,,,,,,,,,,
706734,1495245991370,,,,,,,,-0.03,0.11,0.98,-3.1,0.2,-0.2,840,2,,,,,,,,,,,,,,,,,,,
706754,1495245991390,,,,,,,,-0.03,0.11,0.98,-3.1,0.1,-0.3,840,2,,,,,,,,,,,,,,,,,,,
706774,1495245991410,,,,,58,,,-0.04,0.09,0.98,-3.1,0.1,-0.4,840,2,1,1,840.0,0,39.536705,-122.332146,0.0,0.291,294.6,8,3,2.2,0,0.0,-1,0.0,0.0,0.0,0
706794,1495245991430,,,,,,,,-0.04,0.09,0.97,-3.1,0.1,-0.3,840,15,,,,,,,,,,,,,,,,,,,
706814,1495245991450,,,,,,,,-0.03,0.1,0.97,-3.2,0.1,-0.2,840,15,,,,,,,,,,,,,,,,,,,
706834,1495245991470,,,,,,,,-0.02,0.1,0.97,-3.2,0.2,-0.1,840,15,,,,,,,,,,,,,,,,,,,
706854,1495245991490,,,,,,,,-0.02,0.11,0.97,-3.2,0.1,-0.1,840,15,,,,,,,,,,,,,,,,,,,
706874,1495245991510,0,125.4,,160.1,53,147.0,,-0.03,0.1,0.98,-3.2,0.1,-0.2,840,20,1,1,42.0,0,39.536705,-122.332146,0.0,0.291,294.6,8,3,2.2,0,0.0,-1,0.0,0.0,0.0,0
706894,1495245991530,,,,,,,,-0.03,0.1,0.98,-3.2,0.1,-0.4,820,20,,,,,,,,,,,,,,,,,,,
706914,1495245991550,,,,,,,,-0.03,0.09,0.98,-3.2,0.0,-0.3,820,20,,,,,,,,,,,,,,,,,,,
706934,1495245991570,,,,,,,,-0.03,0.09,0.97,-3.2,0.1,-0.2,820,22,,,,,,,,,,,,,,,,,,,
706954,1495245991590,,,,,,,,-0.02,0.1,0.97,-3.2,0.2,-0.1,820,22,,,,,,,,,,,,,,,,,,,
706974,1495245991610,,,,,52,,,-0.03,0.11,0.97,-3.2,0.1,-0.1,820,22,1,1,39.048,0,39.536705,-122.332146,0.0,0.291,294.6,8,3,2.2,0,0.0,-1,0.0,0.0,0.0,0
706994,1495245991630,,,,,,,,-0.03,0.11,0.98,-3.2,0.1,-0.2,820,22,,,,,,,,,,,,,,,,,,,
707014,1495245991650,,,,,,,,-0.03,0.1,0.98,-3.2,0.0,-0.3,820,22,,,,,,,,,,,,,,,,,,,
707034,1495245991670,,,,,,,,-0.03,0.09,0.98,-3.2,0.0,-0.3,820,22,,,,,,,,,,,,,,,,,,,
707054,1495245991690,,,,,,,,-0.03,0.1,0.97,-3.2,0.1,-0.2,820,23,,,,,,,,,,,,,,,,,,,
707074,1495245991710,0,125.4,-0.6,160.0,51,146.9,14.69,-0.02,0.1,0.97,-3.3,0.1,-0.1,800,23,1,1,34.783,0,39.536705,-122.332146,0.0,0.291,294.6,8,3,2.2,0,0.0,-1,0.0,0.0,0.0,0
707094,1495245991730,,,,,,,,-0.03,0.1,0.97,-3.3,0.0,-0.1,820,23,,,,,,,,,,,,,,,,,,,
707114,1495245991750,,,,,,,,-0.03,0.1,0.98,-3.3,0.1,-0.2,820,34,,,,,,,,,,,,,,,,,,,
707134,1495245991770,,,,,,,,-0.03,0.1,0.98,-3.3,0.1,-0.3,820,34,,,,,,,,,,,,,,,,,,,
707154,1495245991790,,,,,,,,-0.03,0.09,0.97,-3.3,0.1,-0.2,820,25,,,,,,,,,,,,,,,,,,,
707174,1495245991810,,,,,57,,,-0.03,0.1,0.97,-3.3,0.2,-0.1,820,25,1,1,34.167,0,39.536705,-122.332146,0.0,0.291,294.6,8,3,2.2,0,0.0,-1,0.0,0.0,0.0,0
707194,1495245991830,,,,,,,,-0.03,0.11,0.97,-3.4,0.2,-0.1,800,25,,,,,,,,,,,,,,,,,,,
707214,1495245991850,,,,,,,,-0.03,0.11,0.98,-3.4,0.3,-0.2,800,31,,,,,,,,,,,,,,,,,,,
707234,1495245991870,,,,,,,,-0.04,0.1,0.98,-3.4,0.2,-0.3,820,31,,,,,,,,,,,,,,,,,,,
707254,1495245991890,,,,,,,,-0.04,0.09,0.99,-3.4,0.2,-0.3,820,37,,,,,,,,,,,,,,,,,,,
707274,1495245991910,0,124.7,,159.5,50,146.3,,-0.04,0.09,0.98,-3.4,0.2,-0.2,820,37,1,1,22.778,0,39.536705,-122.332146,0.0,0.291,294.6,8,3,2.2,0,0.0,-1,0.0,0.0,0.0,0
707294,1495245991930,,,,,,,,-0.03,0.1,0.97,-3.4,0.2,-0.1,820,31,,,,,,,,,,,,,,,,,,,
707314,1495245991950,,,,,,,,-0.03,0.11,0.97,-3.5,0.2,-0.1,820,31,,,,,,,,,,,,,,,,,,,
707334,1495245991970,,,,,,,,-0.04,0.1,0.98,-3.5,0.2,-0.2,800,43,,,,,,,,,,,,,,,,,,,
707354,1495245991990,,,,,,,,-0.04,0.1,0.98,-3.5,0.1,-0.3,800,43,,,,,,,,,,,,,,,,,,,
707374,1495245992005,,,,,56,,,-0.04,0.09,0.98,-3.5,0.1,-0.2,800,34,1,1,18.605,0,39.536705,-122.332146,0.0,0.291,294.6,8,3,2.2,0,0.0,-1,0.0,0.0,0.0,0
707394,1495245992025,,,,,,,,-0.03,0.1,0.97,-3.6,0.1,-0.1,800,34,,,,,,,,,,,,,,,,,,,
707414,1495245992045,,,,,,,,-0.03,0.1,0.97,-3.6,0.1,-0.0,800,45,,,,,,,,,,,,,,,,,,,
707434,1495245992065,,,,,,,,-0.03,0.11,0.98,-3.6,0.2,-0.1,820,45,,,,,,,,,,,,,,,,,,,
707454,1495245992091,,,,,,,,-0.04,0.11,0.98,-3.6,0.1,-0.2,800,40,,,,,,,,,,,,,,,,,,,
707474,1495245992111,1,125.3,,160.0,59,146.9,,-0.04,0.1,0.98,-3.7,0.1,-0.2,800,40,1,1,20.0,0,39.536705,-122.332146,0.0,0.291,294.6,8,3,2.2,0,0.0,-1,0.0,0.0,0.0,0
707494,1495245992131,,,,,,,,-0.04,0.1,0.97,-3.7,0.2,-0.1,800,42,,,,,,,,,,,,,,,,,,,
707514,1495245992151,,,,,,,,-0.03,0.11,0.96,-3.8,0.3,-0.0,800,51,,,,,,,,,,,,,,,,,,,
707534,1495245992171,,,,,,,,-0.03,0.12,0.97,-3.8,0.2,-0.0,820,51,,,,,,,,,,,,,,,,,,,
707554,1495245992191,,,,,,,,-0.04,0.11,0.98,-3.9,0.3,-0.1,820,40,,,,,,,,,,,,,,,,,,,
707574,1495245992211,,,,,58,,,-0.04,0.1,0.98,-3.8,0.2,-0.2,820,51,1,1,20.5,0,39.536705,-122.332146,0.0,0.291,294.6,8,3,2.2,0,0.0,-1,0.0,0.0,0.0,0
707594,1495245992231,,,,,,,,-0.05,0.1,0.98,-3.9,0.2,-0.2,820,51,,,,,,,,,,,,,,,,,,,
707614,1495245992251,,,,,,,,-0.04,0.11,0.97,-4.0,0.3,-0.1,800,54,,,,,,,,,,,,,,,,,,,
707634,1495245992271,,,,,,,,-0.03,0.11,0.97,-4.1,0.3,-0.0,800,54,,,,,,,,,,,,,,,,,,,
707654,1495245992291,,,,,,,,-0.04,0.11,0.98,-4.1,0.3,-0.1,800,43,,,,,,,,,,,,,,,,,,,
707674,1495245992311,0,124.9,,159.6,56,146.5,,-0.04,0.11,0.98,-4.1,0.3,-0.2,800,58,1,1,13.793,0,39.536705,-122.332146,0.0,0.291,294.6,8,3,2.2,0,0.0,-1,0.0,0.0,0.0,0
707694,1495245992331,,,,,,,,-0.05,0.1,0.98,-4.1,0.2,-0.2,800,60,,,,,,,,,,,,,,,,,,,
707714,1495245992351,,,,,,,,-0.04,0.11,0.98,-4.2,0.2,-0.1,800,60,,,,,,,,,,,,,,,,,,,
707734,1495245992371,,,,,,,,-0.04,0.11,0.98,-4.3,0.2,0.0,800,45,,,,,,,,,,,,,,,,,,,
707754,1495245992391,,,,,,,,-0.04,0.12,0.98,-4.3,0.1,-0.0,800,63,,,,,,,,,,,,,,,,,,,
707774,1495245992411,,,,,58,,,-0.05,0.11,0.99,-4.3,0.1,-0.2,780,71,1,1,11.429,0,39.536705,-122.332146,0.0,0.291,294.6,8,3,2.2,0,0.0,-1,0.0,0.0,0.0,0
707794,1495245992431,,,,,,,,-0.05,0.1,0.99,-4.3,0.1,-0.2,780,71,,,,,,,,,,,,,,,,,,,
707814,1495245992451,,,,,,,,-0.05,0.11,0.98,-4.4,0.0,-0.1,780,48,,,,,,,,,,,,,,,,,,,
707834,1495245992471,,,,,,,,-0.04,0.11,0.98,-4.5,0.2,0.0,800,60,,,,,,,,,,,,,,,,,,,
707854,1495245992491,,,,,,,,-0.04,0.12,0.98,-4.5,0.1,-0.0,800,77,,,,,,,,,,,,,,,,,,,
707874,1495245992511,0,125.5,,160.1,53,146.9,,-0.05,0.12,0.99,-4.5,0.1,-0.2,800,60,1,1,10.526,0,39.536705,-122.332146,0.0,0.291,294.6,8,3,2.2,0,0.0,-1,0.0,0.0,0.0,0
707894,1495245992531,,,,,,,,-0.05,0.11,0.99,-4.6,0.1,-0.3,800,54,,,,,,,,,,,,,,,,,,,
707914,1495245992551,,,,,,,,-0.05,0.11,0.98,-4.6,0.1,-0.2,800,74,,,,,,,,,,,,,,,,,,,
707934,1495245992571,,,,,,,,-0.04,0.11,0.98,-4.7,0.2,-0.1,800,74,,,,,,,,,,,,,,,,,,,
707954,1495245992591,,,,,,,,-0.04,0.12,0.98,-4.7,0.1,-0.1,780,75,,,,,,,,,,,,,,,,,,,
707974,1495245992611,,,,,55,,,-0.05,0.12,0.99,-4.8,0.1,-0.3,800,60,1,1,13.0,0,39.536705,-122.332146,0.0,0.291,294.6,8,3,2.2,0,0.0,-1,0.0,0.0,0.0,0
707994,1495245992631,,,,,,,,-0.05,0.11,0.99,-4.8,0.1,-0.4,800,65,,,,,,,,,,,,,,,,,,,
708014,1495245992651,,,,,,,,-0.05,0.1,0.98,-4.9,0.0,-0.3,800,78,,,,,,,,,,,,,,,,,,,
708034,1495245992671,,,,,,,,-0.05,0.11,0.97,-5.0,0.1,-0.1,800,75,,,,,,,,,,,,,,,,,,,
708054,1495245992691,,,,,,,,-0.05,0.12,0.97,-5.1,-0.0,-0.1,780,68,,,,,,,,,,,,,,,,,,,
708074,1495245992711,0,124.7,-0.4,159.6,56,146.6,14.67,-0.05,0.11,0.98,-5.1,0.1,-0.3,800,71,1,1,11.143,0,39.536705,-122.332146,0.0,0.291,294.6,8,3,2.2,0,0.0,-1,0.0,0.0,0.0,0
708094,1495245992731,,,,,,,,-0.06,0.1,0.98,-5.1,0.1,-0.3,780,78,,,,,,,,,,,,,,,,,,,
708114,1495245992751,,,,,,,,-0.06,0.1,0.98,-5.2,-0.0,-0.3,780,82,,,,,,,,,,,,,,,,,,,
708134,1495245992771,,,,,,,,-0.05,0.11,0.97,-5.3,0.2,-0.1,800,77,,,,,,,,,,,,,,,,,,,
708154,1495245992791,,,,,,,,-0.05,0.11,0.97,-5.4,0.1,-0.1,800,74,,,,,,,,,,,,,,,,,,,
708174,1495245992811,,,,,55,,,-0.05,0.11,0.98,-5.4,0.1,-0.2,800,78,1,1,10.256,0,39.536705,-122.332146,0.0,0.291,294.6,8,3,2.2,0,0.0,-1,0.0,0.0,0.0,0
708194,1495245992831,,,,,,,,-0.06,0.1,0.98,-5.5,0.1,-0.3,780,86,,,,,,,,,,,,,,,,,,,
708214,1495245992851,,,,,,,,-0.06,0.1,0.98,-5.5,0.1,-0.3,780,88,,,,,,,,,,,,,,,,,,,
708234,1495245992871,,,,,,,,-0.05,0.11,0.97,-5.6,0.3,-0.2,780,80,,,,,,,,,,,,,,,,,,,
708254,1495245992891,,,,,,,,-0.05,0.11,0.97,-5.6,0.1,-0.1,780,89,,,,,,,,,,,,,,,,,,,
708274,1495245992911,0,125.3,,160.0,51,146.8,,-0.06,0.11,0.98,-5.7,0.1,-0.2,780,97,1,1,8.764,0,39.536705,-122.332146,0.0,0.291,294.6,8,3,2.2,0,0.0,-1,0.0,0.0,0.0,0
708294,1495245992931,,,,,,,,-0.06,0.11,0.98,-5.7,0.2,-0.3,800,92,,,,,,,,,,,,,,,,,,,
708314,1495245992951,,,,,,,,-0.06,0.1,0.97,-5.7,0.1,-0.2,800,82,,,,,,,,,,,,,,,,,,,
708334,1495245992971,,,,,,,,-0.06,0.11,0.97,-5.8,0.3,-0.1,800,83,,,,,,,,,,,,,,,,,,,
708354,1495245992991,,,,,,,,-0.06,0.11,0.97,-5.9,0.2,-0.0,780,103,,,,,,,,,,,,,,,,,,,
708374,1495245993004,,,,,53,,,-0.07,0.11,0.98,-5.9,0.2,-0.2,780,97,1,1,7.573,0,39.536705,-122.332146,0.0,0.291,294.6,8,3,2.2,0,0.0,-1,0.0,0.0,0.0,0
708394,1495245993024,,,,,,,,-0.07,0.1,0.98,-6.0,0.2,-0.2,780,88,,,,,,,,,,,,,,,,,,,
708414,1495245993044,,,,,,,,-0.07,0.1,0.98,-6.1,0.1,-0.1,780,91,,,,,,,,,,,,,,,,,,,
708434,1495245993064,,,,,,,,-0.06,0.1,0.97,-6.1,0.3,0.1,780,109,,,,,,,,,,,,,,,,,,,
708454,1495245993084,,,,,,,,-0.07,0.11,0.98,-6.2,0.2,0.1,780,105,,,,,,,,,,,,,,,,,,,
708474,1495245993110,0,125.5,,160.2,54,146.9,,-0.07,0.11,0.98,-6.2,0.2,-0.0,780,95,1,1,8.211,0,39.536732,-122.332176,0.97,0.291,271.4,8,3,2.2,0,0.0,-1,0.0,0.0,0.0,0
708494,1495245993130,,,,,,,,-0.07,0.1,0.98,-6.3,0.2,-0.0,780,103,,,,,,,,,,,,,,,,,,,
708514,1495245993150,,,,,,,,-0.07,0.11,0.98,-6.3,0.2,0.1,760,112,,,,,,,,,,,,,,,,,,,
708534,1495245993170,,,,,,,,-0.06,0.12,0.98,-6.4,0.3,0.2,760,106,,,,,,,,,,,,,,,,,,,
708554,1495245993190,,,,,,,,-0.06,0.12,0.99,-6.5,0.2,0.1,760,100,,,,,,,,,,,,,,,,,,,
708574,1495245993210,,,,,54,,,-0.07,0.11,0.99,-6.5,0.3,0.0,760,102,1,1,7.525,0,39.536732,-122.332176,1.04,0.291,271.4,8,3,2.2,0,0.0,-1,0.0,0.0,0.0,0
708594,1495245993230,,,,,,,,-0.07,0.1,0.99,-6.6,0.3,0.1,760,117,,,,,,,,,,,,,,,,,,,
708614,1495245993250,,,,,,,,-0.06,0.12,0.98,-6.6,0.4,0.2,760,117,,,,,,,,,,,,,,,,,,,
708634,1495245993270,,,,,,,,-0.06,0.12,0.99,-6.7,0.3,0.2,780,106,,,,,,,,,,,,,,,,,,,
708654,1495245993290,,,,,,,,-0.07,0.12,0.99,-6.7,0.2,0.1,760,111,,,,,,,,,,,,,,,,,,,
708674,1495245993310,0,124.9,,159.5,48,146.4,,-0.07,0.12,0.99,-6.7,0.3,0.0,760,123,1,1,6.441,0,39.536732,-122.332176,1.22,0.291,271.5,8,3,2.2,0,0.0,-1,0.0,0.0,0.0,0
708694,1495245993330,,,,,,,,-0.07,0.12,0.98,-6.7,0.3,0.1,760,123,,,,,,,,,,,,,,,,,,,
708714,1495245993350,,,,,,,,-0.07,0.12,0.98,-6.8,0.3,0.2,760,114,,,,,,,,,,,,,,,,,,,
708734,1495245993370,,,,,,,,-0.07,0.12,0.98,-6.9,0.2,0.1,760,122,,,,,,,,,,,,,,,,,,,
708754,1495245993392,,,,,,,,-0.07,0.11,0.99,-6.9,0.3,-0.1,760,128,,,,,,,,,,,,,,,,,,,
708774,1495245993412,,,,,55,,,-0.07,0.11,0.98,-7.0,0.2,-0.1,760,129,1,1,5.846,0,39.536732,-122.332176,1.32,0.291,271.5,8,3,2.2,0,0.0,-1,0.0,0.0,0.0,0
708794,1495245993432,,,,,,,,-0.07,0.12,0.98,-7.1,0.2,0.0,760,123,,,,,,,,,,,,,,,,,,,
708814,1495245993452,,,,,,,,-0.07,0.12,0.99,-7.1,0.3,0.0,760,123,,,,,,,,,,,,,,,,,,,
708834,1495245993472,,,,,,,,-0.08,0.12,0.99,-7.2,0.1,-0.1,760,129,,,,,,,,,,,,,,,,,,,
708854,1495245993492,,,,,,,,-0.07,0.11,0.99,-7.2,0.1,-0.1,760,135,,,,,,,,,,,,,,,,,,,
708874,1495245993510,0,125.6,,160.3,56,147.1,,-0.07,0.12,0.97,-7.3,0.2,-0.0,760,135,1,1,5.63,0,39.536732,-122.332176,1.51,0.291,271.6,8,3,2.2,0,0.0,-1,0.0,0.0,0.0,0
708894,1495245993530,,,,,,,,-0.07,0.12,0.97,-7.4,0.1,-0.0,760,132,,,,,,,,,,,,,,,,,,,
708914,1495245993550,,,,,,,,-0.08,0.11,0.98,-7.4,0.1,-0.2,760,134,,,,,,,,,,,,,,,,,,,
708934,1495245993570,,,,,,,,-0.08,0.11,0.98,-7.5,0.0,-0.2,760,145,,,,,,,,,,,,,,,,,,,
708954,1495245993592,,,,,,,,-0.08,0.12,0.97,-7.5,0.0,-0.1,760,149,,,,,,,,,,,,,,,,,,,
708974,1495245993612,,,,,49,,,-0.07,0.12,0.97,-7.6,-0.0,-0.0,740,142,1,1,5.068,0,39.536732,-122.332161,1.5,0.291,271.5,8,3,2.2,0,0.0,-1,0.0,0.0,0.0,0
708994,1495245993632,,,,,,,,-0.08,0.12,0.97,-7.6,-0.1,-0.1,740,137,,,,,,,,,,,,,,,,,,,
709014,1495245993652,,,,,,,,-0.08,0.11,0.98,-7.7,-0.0,-0.1,740,142,,,,,,,,,,,,,,,,,,,
709034,1495245993672,,,,,,,,-0.08,0.11,0.97,-7.8,-0.1,-0.0,740,158,,,,,,,,,,,,,,,,,,,
709054,1495245993692,,,,,,,,-0.08,0.12,0.97,-7.9,-0.0,0.1,740,158,,,,,,,,,,,,,,,,,,,
709074,1495245993710,0,125.5,-0.5,160.1,56,146.9,14.68,-0.08,0.12,0.97,-7.9,-0.0,0.0,760,140,1,1,4.933,0,39.536732,-122.332161,2.24,0.291,271.3,8,3,2.2,0,0.0,-1,0.0,0.0,0.0,0
709094,1495245993730,,,,,,,,-0.09,0.12,0.98,-7.9,0.0,-0.0,760,142,,,,,,,,,,,,,,,,,,,
709114,1495245993750,,,,,,,,-0.09,0.12,0.97,-8.0,-0.1,0.1,740,171,,,,,,,,,,,,,,,,,,,
709134,1495245993770,,,,,,,,-0.08,0.13,0.97,-8.1,-0.0,0.2,720,168,,,,,,,,,,,,,,,,,,,
709154,1495245993792,,,,,,,,-0.08,0.12,0.97,-8.1,0.0,0.1,720,145,,,,,,,,,,,,,,,,,,,
709174,1495245993812,,,,,56,,,-0.08,0.11,0.98,-8.1,0.1,-0.0,720,154,1,1,5.035,0,39.536732,-122.332161,2.58,0.291,271.2,8,3,2.2,0,0.0,-1,0.0,0.0,0.0,0
709194,1495245993832,,,,,,,,-0.08,0.12,0.98,-8.2,0.2,0.0,740,183,,,,,,,,,,,,,,,,,,,
709214,1495245993852,,,,,,,,-0.08,0.13,0.97,-8.2,0.1,0.1,740,185,,,,,,,,,,,,,,,,,,,
709234,1495245993872,,,,,,,,-0.09,0.12,0.97,-8.2,0.1,-0.1,740,157,,,,,,,,,,,,,,,,,,,
709254,1495245993892,,,,,,,,-0.08,0.12,0.98,-8.3,0.3,-0.2,740,145,,,,,,,,,,,,,,,,,,,
709274,1495245993912,0,125.4,,160.1,52,147.1,,-0.08,0.12,0.97,-8.3,0.2,-0.2,740,195,1,1,4.157,0,39.536732,-122.332161,2.72,0.291,271.1,8,3,2.2,0,0.0,-1,0.0,0.0,0.0,0
709294,1495245993932,,,,,,,,-0.08,0.14,0.96,-8.4,0.1,-0.2,720,203,,,,,,,,,,,,,,,,,,,
709314,1495245993952,,,,,,,,-0.09,0.13,0.97,-8.3,0.0,-0.4,720,175,,,,,,,,,,,,,,,,,,,
709334,1495245993972,,,,,,,,-0.09,0.13,0.97,-8.3,0.1,-0.6,720,148,,,,,,,,,,,,,,,,,,,
709354,1495245993992,,,,,,,,-0.09,0.13,0.96,-8.4,-0.0,-0.5,740,194,,,,,,,,,,,,,,,,,,,
709374,1495245994001,,,,,49,,,-0.09,0.13,0.96,-8.4,-0.1,-0.4,720,209,1,1,3.38,1,39.536732,-122.332161,3.14,0.292,271.0,8,3,2.2,0,0.0,-1,0.0,0.0,0.0,0
709394,1495245994021,,,,,,,,-0.09,0.13,0.96,-8.4,-0.1,-0.5,740,178,,,,,,,,,,,,,,,,,,,
709414,1495245994041,,,,,,,,-0.09,0.12,0.97,-8.4,-0.1,-0.6,740,151,,,,,,,,,,,,,,,,,,,
709434,1495245994061,,,,,,,,-0.08,0.13,0.97,-8.5,-0.1,-0.6,740,180,,,,,,,,,,,,,,,,,,,
709454,1495245994091,,,,,,,,-0.09,0.13,0.97,-8.5,-0.2,-0.6,740,220,,,,,,,,,,,,,,,,,,,
709474,1495245994111,0,125.6,,160.2,52,146.6,,-0.1,0.12,0.97,-8.4,-0.2,-0.9,720,195,1,1,3.592,0,39.536732,-122.332161,3.29,0.292,271.2,8,3,2.2,0,0.0,-1,0.0,0.0,0.0,0
709494,1495245994131,,,,,,,,-0.09,0.12,0.98,-8.4,-0.1,-1.0,720,175,,,,,,,,,,,,,,,,,,,
709514,1495245994151,,,,,,,,-0.08,0.12,0.97,-8.5,-0.1,-0.9,740,197,,,,,,,,,,,,,,,,,,,
709534,1495245994171,,,,,,,,-0.09,0.13,0.97,-8.5,-0.1,-0.9,740,215,,,,,,,,,,,,,,,,,,,
709554,1495245994191,,,,,,,,-0.09,0.12,0.98,-8.5,-0.2,-0.9,740,203,,,,,,,,,,,,,,,,,,,
709574,1495245994211,,,,,52,,,-0.09,0.11,0.98,-8.5,-0.2,-0.9,740,194,1,1,-3.776,-1,39.536732,-122.332161,3.61,0.292,271.3,8,3,2.2,0,0.0,-1,0.0,0.0,0.0,0
709594,1495245994231,,,,,,,,-0.09,0.12,0.97,-8.5,-0.1,-0.7,740,198,,,,,,,,,,,,,,,,,,,
709614,1495245994251,,,,,,,,-0.09,0.12,0.98,-8.5,-0.0,-0.7,720,211,,,,,,,,,,,,,,,,,,,
709634,1495245994271,,,,,,,,-0.09,0.12,0.99,-8.5,-0.2,-0.8,720,211,,,,,,,,,,,,,,,,,,,
709654,1495245994291,,,,,,,,-0.09,0.11,0.99,-8.5,-0.2,-0.7,720,211,,,,,,,,,,,,,,,,,,,
709674,1495245994311,0,125.0,,159.7,55,146.5,,-0.09,0.11,0.98,-8.6,-0.2,-0.6,720,212,1,1,3.396,1,39.536732,-122.332161,3.35,0.292,271.5,8,3,2.2,0,0.0,-1,0.0,0.0,0.0,0
709694,1495245994331,,,,,,,,-0.09,0.11,0.98,-8.6,-0.3,-0.7,720,212,,,,,,,,,,,,,,,,,,,
709714,1495245994351,,,,,,,,-0.09,0.11,0.98,-8.5,-0.3,-0.8,720,212,,,,,,,,,,,,,,,,,,,
709734,1495245994371,,,,,,,,-0.08,0.1,0.97,-8.6,-0.3,-0.7,740,214,,,,,,,,,,,,,,,,,,,
709754,1495245994391,,,,,,,,-0.08,0.11,0.97,-8.7,-0.4,-0.5,740,220,,,,,,,,,,,,,,,,,,,
709774,1495245994411,,,,,51,,,-0.08,0.11,0.98,-8.7,-0.4,-0.5,720,223,1,1,3.364,1,39.536732,-122.332146,3.41,0.292,271.6,8,3,2.2,0,0.0,-1,0.0,0.0,0.0,0
709794,1495245994431,,,,,,,,-0.08,0.12,0.98,-8.8,-0.5,-0.6,720,222,,,,,,,,,,,,,,,,,,,
709814,1495245994451,,,,,,,,-0.08,0.12,0.98,-8.9,-0.4,-0.5,720,222,,,,,,,,,,,,,,,,,,,
709834,1495245994471,,,,,,,,-0.08,0.13,0.98,-8.9,-0.5,-0.5,740,223,,,,,,,,,,,,,,,,,,,
709854,1495245994493,,,,,,,,-0.08,0.12,0.98,-8.9,-0.5,-0.6,740,226,,,,,,,,,,,,,,,,,,,
709874,1495245994513,0,125.6,,160.3,56,146.8,,-0.08,0.12,0.99,-9.0,-0.5,-0.6,740,229,1,1,3.304,1,39.536732,-122.332146,3.99,0.292,271.5,8,3,2.2,0,0.0,-1,0.0,0.0,0.0,0
709894,1495245994533,,,,,,,,-0.07,0.12,0.98,-9.1,-0.5,-0.5,760,229,,,,,,,,,,,,,,,,,,,
709914,1495245994553,,,,,,,,-0.07,0.13,0.97,-9.1,-0.4,-0.4,760,229,,,,,,,,,,,,,,,,,,,
709934,1495245994573,,,,,,,,-0.08,0.13,0.98,-9.1,-0.6,-0.5,760,235,,,,,,,,,,,,,,,,,,,
709954,1495245994591,,,,,,,,-0.08,0.12,0.97,-9.1,-0.4,-0.6,760,237,,,,,,,,,,,,,,,,,,,
709974,1495245994611,,,,,50,,,-0.07,0.12,0.96,-9.1,-0.4,-0.6,760,235,1,1,3.262,1,39.536732,-122.332146,4.07,0.292,271.5,8,3,2.2,0,0.0,-1,0.0,0.0,0.0,0
709994,1495245994631,,,,,,,,-0.07,0.13,0.95,-9.3,-0.3,-0.4,760,234,,,,,,,,,,,,,,,,,,,
710014,1495245994651,,,,,,,,-0.07,0.12,0.96,-9.3,-0.3,-0.4,780,238,,,,,,,,,,,,,,,,,,,
710034,1495245994671,,,,,,,,-0.07,0.12,0.97,-9.2,-0.3,-0.4,780,240,,,,,,,,,,,,,,,,,,,
710054,1495245994691,,,,,,,,-0.07,0.11,0.97,-9.3,-0.3,-0.3,780,242,,,,,,,,,,,,,,,,,,,
710074,1495245994711,0,125.5,-0.7,160.3,59,146.9,14.73,-0.06,0.12,0.97,-9.4,-0.1,-0.1,800,243,1,1,3.32,1,39.536732,-122.332146,4.41,0.292,271.7,8,3,2.2,0,0.0,-1,0.0,0.0,0.0,0
710094,1495245994731,,,,,,,,-0.05,0.13,0.97,-9.5,-0.1,-0.1,780,242,,,,,,,,,,,,,,,,,,,
710114,1495245994751,,,,,,,,-0.06,0.13,0.99,-9.5,-0.1,-0.2,780,243,,,,,,,,,,,,,,,,,,,
710134,1495245994771,,,,,,,,-0.06,0.12,0.99,-9.5,-0.2,-0.3,800,246,,,,,,,,,,,,,,,,,,,
710154,1495245994791,,,,,,,,-0.06,0.12,0.98,-9.5,-0.3,-0.3,800,246,,,,,,,,,,,,,,,,,,,
710174,1495245994811,,,,,50,,,-0.05,0.13,0.97,-9.6,-0.2,-0.2,800,246,1,1,3.252,1,39.536732,-122.332146,4.07,0.292,271.6,8,3,2.2,0,0.0,-1,0.0,0.0,0.0,0
710194,1495245994831,,,,,,,,-0.04,0.14,0.97,-9.6,-0.4,-0.1,800,248,,,,,,,,,,,,,,,,,,,
710214,1495245994851,,,,,,,,-0.05,0.13,0.98,-9.6,-0.4,-0.2,820,246,,,,,,,,,,,,,,,,,,,
710234,1495245994871,,,,,,,,-0.05,0.12,0.98,-9.6,-0.5,-0.2,800,252,,,,,,,,,,,,,,,,,,,
710254,1495245994891,,,,,,,,-0.05,0.11,0.98,-9.7,-0.6,-0.2,800,251,,,,,,,,,,,,,,,,,,,
710274,1495245994911,0,125.3,,160.0,54,146.9,,-0.05,0.12,0.97,-9.8,-0.6,0.0,800,252,1,1,3.213,1,39.536732,-122.332146,3.95,0.292,271.6,8,3,2.2,0,0.0,-1,0.0,0.0,0.0,0
710294,1495245994931,,,,,,,,-0.04,0.12,0.97,-9.8,-0.5,0.2,820,252,,,,,,,,,,,,,,,,,,,
710314,1495245994951,,,,,,,,-0.03,0.13,0.98,-9.8,-0.6,0.2,820,254,,,,,,,,,,,,,,,,,,,
710334,1495245994971,,,,,,,,-0.04,0.12,0.99,-9.8,-0.6,0.1,820,254,,,,,,,,,,,,,,,,,,,
710354,1495245994991,,,,,,,,-0.04,0.12,0.99,-9.8,-0.6,0.1,840,257,,,,,,,,,,,,,,,,,,,
710374,1495245995004,,,,,54,,,-0.04,0.11,0.99,-9.8,-0.5,0.1,820,257,1,1,3.294,1,39.536732,-122.332146,4.45,0.293,272.1,8,3,2.2,0,0.0,-1,0.0,0.0,0.0,0
710394,1495245995024,,,,,,,,-0.04,0.12,0.98,-9.9,-0.5,0.3,820,257,,,,,,,,,,,,,,,,,,,
710414,1495245995044,,,,,,,,-0.03,0.12,0.97,-9.9,-0.4,0.4,840,254,,,,,,,,,,,,,,,,,,,
710434,1495245995064,,,,,,,,-0.03,0.13,0.98,-9.9,-0.4,0.5,840,255,,,,,,,,,,,,,,,,,,,
710454,1495245995084,,,,,,,,-0.04,0.12,0.99,-10.0,-0.4,0.5,840,257,,,,,,,,,,,,,,,,,,,
710474,1495245995108,0,124.8,,159.5,58,146.4,,-0.05,0.12,0.98,-9.9,-0.5,0.5,840,258,1,1,3.231,1,39.536732,-122.332138,4.4,0.293,272.2,8,3,2.2,0,0.0,-1,0.0,0.0,0.0,0
710494,1495245995128,,,,,,,,-0.04,0.11,0.97,-10.0,-0.3,0.5,840,262,,,,,,,,,,,,,,,,,,,
710514,1495245995148,,,,,,,,-0.04,0.11,0.96,-10.0,-0.3,0.4,840,265,,,,,,,,,,,,,,,,,,,
710534,1495245995168,,,,,,,,-0.03,0.12,0.96,-10.0,-0.2,0.5,840,263,,,,,,,,,,,,,,,,,,,
710554,1495245995188,,,,,,,,-0.02,0.13,0.96,-10.1,-0.2,0.4,860,263,,,,,,,,,,,,,,,,,,,
710574,1495245995210,,,,,62,,,-0.03,0.15,0.97,-10.1,-0.3,0.3,860,263,1,1,3.258,1,39.536732,-122.332138,4.18,0.293,272.5,8,3,2.2,0,0.0,-1,0.0,0.0,0.0,0
710594,1495245995230,,,,,,,,-0.03,0.15,0.98,-10.0,-0.3,0.1,860,263,,,,,,,,,,,,,,,,,,,
710614,1495245995250,,,,,,,,-0.04,0.15,0.98,-10.0,-0.4,-0.2,860,266,,,,,,,,,,,,,,,,,,,
710634,1495245995270,,,,,,,,-0.04,0.13,0.98,-10.0,-0.3,-0.3,860,265,,,,,,,,,,,,,,,,,,,
710654,1495245995292,,,,,,,,-0.03,0.12,0.98,-10.0,-0.2,-0.3,860,268,,,,,,,,,,,,,,,,,,,
710674,1495245995312,0,125.6,,160.2,52,146.8,,-0.03,0.12,0.98,-10.0,-0.2,-0.3,860,266,1,1,3.258,1,39.536736,-122.332138,4.3,0.293,272.7,8,3,2.2,0,0.0,-1,0.0,0.0,0.0,0
710694,1495245995332,,,,,,,,-0.03,0.13,0.98,-10.1,-0.1,-0.2,860,266,,,,,,,,,,,,,,,,,,,
710714,1495245995352,,,,,,,,-0.02,0.14,0.98,-10.2,-0.2,-0.2,860,265,,,,,,,,,,,,,,,,,,,
710734,1495245995372,,,,,,,,-0.02,0.14,0.98,-10.2,-0.4,-0.2,880,268,,,,,,,,,,,,,,,,,,,
710754,1495245995392,,,,,,,,-0.04,0.14,0.99,-10.3,-0.3,-0.2,880,269,,,,,,,,,,,,,,,,,,,
710774,1495245995412,,,,,60,,,-0.04,0.14,0.98,-10.2,-0.5,-0.3,880,268,1,1,3.271,1,39.536736,-122.332138,4.22,0.293,272.8,8,3,2.2,0,0.0,-1,0.0,0.0,0.0,0
710794,1495245995432,,,,,,,,-0.04,0.13,0.98,-10.2,-0.5,-0.4,880,269,,,,,,,,,,,,,,,,,,,
710814,1495245995452,,,,,,,,-0.04,0.13,0.97,-10.2,-0.6,-0.4,880,269,,,,,,,,,,,,,,,,,,,
710834,1495245995472,,,,,,,,-0.03,0.14,0.97,-10.2,-0.6,-0.3,880,268,,,,,,,,,,,,,,,,,,,
710854,1495245995492,,,,,,,,-0.02,0.14,0.97,-10.2,-0.4,-0.4,880,269,,,,,,,,,,,,,,,,,,,
710874,1495245995512,0,124.9,,159.6,58,146.4,,-0.02,0.14,0.97,-10.2,-0.4,-0.4,880,268,1,1,3.296,1,39.536736,-122.332138,4.39,0.293,272.9,8,3,2.2,0,0.0,-1,0.0,0.0,0.0,0
710894,1495245995532,,,,,,,,-0.02,0.15,0.97,-10.2,-0.3,-0.4,880,269,,,,,,,,,,,,,,,,,,,
710914,1495245995552,,,,,,,,-0.02,0.14,0.97,-10.2,-0.4,-0.5,880,269,,,,,,,,,,,,,,,,,,,
710934,1495245995572,,,,,,,,-0.03,0.14,0.98,-10.2,-0.3,-0.7,880,269,,,,,,,,,,,,,,,,,,,
710954,1495245995592,,,,,,,,-0.03,0.14,0.97,-10.2,-0.2,-0.9,880,272,,,,,,,,,,,,,,,,,,,
710974,1495245995612,,,,,56,,,-0.02,0.13,0.97,-10.2,-0.1,-1.0,880,272,1,1,3.259,1,39.536736,-122.332123,4.84,0.293,273.0,8,3,2.2,0,0.0,-1,0.0,0.0,0.0,0
710994,1495245995632,,,,,,,,-0.02,0.12,0.97,-10.3,-0.1,-0.8,880,272,,,,,,,,,,,,,,,,,,,
711014,1495245995652,,,,,,,,-0.02,0.12,0.97,-10.4,-0.1,-0.7,880,275,,,,,,,,,,,,,,,,,,,
711034,1495245995672,,,,,,,,-0.02,0.12,0.98,-10.4,-0.1,-0.6,900,274,,,,,,,,,,,,,,,,,,,
711054,1495245995692,,,,,,,,-0.01,0.12,0.98,-10.5,-0.0,-0.7,900,274,,,,,,,,,,,,,,,,,,,
711074,1495245995712,0,124.8,-0.5,159.5,55,146.4,14.69,-0.01,0.13,0.99,-10.5,-0.0,-0.8,900,274,1,1,3.273,1,39.536736,-122.332123,4.63,0.293,273.2,8,3,2.2,0,0.0,-1,0.0,0.0,0.0,0
711094,1495245995732,,,,,,,,-0.02,0.12,0.98,-10.5,-0.2,-0.8,900,274,,,,,,,,,,,,,,,,,,,
711114,1495245995752,,,,,,,,-0.02,0.12,0.99,-10.5,-0.2,-0.9,880,272,,,,,,,,,,,,,,,,,,,
711134,1495245995772,,,,,,,,-0.03,0.13,0.99,-10.5,0.0,-0.8,880,274,,,,,,,,,,,,,,,,,,,
711154,1495245995792,,,,,,,,-0.03,0.13,0.98,-10.5,-0.0,-0.8,900,274,,,,,,,,,,,,,,,,,,,
711174,1495245995812,,,,,60,,,-0.03,0.12,0.97,-10.5,0.1,-0.7,900,275,1,1,3.273,1,39.536739,-122.332123,4.41,0.294,273.6,8,3,2.2,0,0.0,-1,0.0,0.0,0.0,0
711194,1495245995832,,,,,,,,-0.02,0.11,0.97,-10.5,0.1,-0.7,900,278,,,,,,,,,,,,,,,,,,,
711214,1495245995852,,,,,,,,-0.02,0.11,0.96,-10.6,0.1,-0.6,900,278,,,,,,,,,,,,,,,,,,,
711234,1495245995872,,,,,,,,-0.02,0.11,0.96,-10.6,0.0,-0.4,900,275,,,,,,,,,,,,,,,,,,,
711254,1495245995892,,,,,,,,-0.01,0.11,0.97,-10.6,0.2,-0.4,900,277,,,,,,,,,,,,,,,,,,,
711274,1495245995912,0,125.6,,160.1,57,147.0,,-0.01,0.12,0.98,-10.7,0.2,-0.4,900,280,1,1,3.261,1,39.536739,-122.332123,4.48,0.294,273.8,8,3,2.2,0,0.0,-1,0.0,0.0,0.0,0
711294,1495245995932,,,,,,,,-0.01,0.13,0.98,-10.8,0.2,-0.4,900,277,,,,,,,,,,,,,,,,,,,
711314,1495245995952,,,,,,,,-0.01,0.14,0.99,-10.8,0.1,-0.5,900,277,,,,,,,,,,,,,,,,,,,
711334,1495245995972,,,,,,,,-0.02,0.13,0.99,-10.8,-0.0,-0.6,900,277,,,,,,,,,,,,,,,,,,,
711354,1495245995992,,,,,,,,-0.02,0.14,0.99,-10.8,-0.0,-0.7,900,275,,,,,,,,,,,,,,,,,,,
711374,1495245996005,,,,,59,,,-0.02,0.13,0.99,-10.8,-0.1,-0.8,900,275,1,1,3.273,1,39.536739,-122.332123,4.81,0.294,273.9,8,3,2.2,0,0.0,-1,0.0,0.0,0.0,0
711394,1495245996025,,,,,,,,-0.02,0.11,0.98,-10.8,-0.1,-0.9,900,275,,,,,,,,,,,,,,,,,,,
711414,1495245996045,,,,,,,,-0.02,0.11,0.98,-10.8,-0.1,-1.0,900,277,,,,,,,,,,,,,,,,,,,
711434,1495245996065,,,,,,,,-0.01,0.11,0.98,-10.8,-0.2,-1.1,900,277,,,,,,,,,,,,,,,,,,,
711454,1495245996091,,,,,,,,-0.01,0.12,0.97,-10.9,-0.3,-1.1,900,277,,,,,,,,,,,,,,,,,,,
711474,1495245996111,0,125.5,,160.1,58,147.0,,-0.01,0.12,0.97,-11.0,-0.2,-1.2,900,275,1,1,3.273,1,39.536739,-122.332123,4.82,0.294,274.2,8,3,2.2,0,0.0,-1,0.0,0.0,0.0,0
711494,1495245996131,,,,,,,,-0.01,0.12,0.98,-11.0,-0.1,-1.4,900,275,,,,,,,,,,,,,,,,,,,
711514,1495245996151,,,,,,,,-0.01,0.13,0.98,-11.0,-0.2,-1.4,900,275,,,,,,,,,,,,,,,,,,,
711534,1495245996171,,,,,,,,-0.01,0.12,0.99,-11.0,-0.3,-1.4,900,277,,,,,,,,,,,,,,,,,,,
711554,1495245996191,,,,,,,,-0.01,0.11,1.0,-11.0,-0.2,-1.3,920,278,,,,,,,,,,,,,,,,,,,
711574,1495245996211,,,,,58,,,-0.01,0.11,1.0,-11.0,-0.1,-1.3,920,278,1,1,3.286,1,39.536743,-122.332108,4.67,0.294,274.6,8,3,2.2,0,0.0,-1,0.0,0.0,0.0,0
711594,1495245996231,,,,,,,,-0.01,0.11,0.99,-11.0,-0.1,-1.4,920,282,,,,,,,,,,,,,,,,,,,
711614,1495245996251,,,,,,,,-0.01,0.09,0.99,-11.0,0.0,-1.4,920,282,,,,,,,,,,,,,,,,,,,
711634,1495245996271,,,,,,,,-0.01,0.09,0.98,-11.0,0.3,-1.3,920,282,,,,,,,,,,,,,,,,,,,
711654,1495245996291,,,,,,,,-0.0,0.09,0.98,-11.1,0.3,-1.0,920,283,,,,,,,,,,,,,,,,,,,
711674,1495245996311,0,125.7,,160.2,61,147.0,,-0.0,0.1,0.97,-11.2,0.3,-0.8,920,283,1,1,3.274,1,39.536743,-122.332108,4.66,0.294,274.8,8,3,2.2,0,0.0,-1,0.0,0.0,0.0,0
711694,1495245996331,,,,,,,,-0.0,0.09,0.96,-11.3,0.3,-0.5,920,280,,,,,,,,,,,,,,,,,,,
711714,1495245996351,,,,,,,,-0.01,0.1,0.97,-11.3,0.3,-0.2,920,280,,,,,,,,,,,,,,,,,,,
711734,1495245996371,,,,,,,,-0.0,0.1,0.97,-11.3,0.5,-0.1,900,278,,,,,,,,,,,,,,,,,,,
711754,1495245996391,,,,,,,,0.0,0.12,0.98,-11.3,0.5,-0.1,900,277,,,,,,,,,,,,,,,,,,,
711774,1495245996411,,,,,55,,,0.01,0.13,0.98,-11.3,0.3,-0.0,900,277,1,1,3.261,1,39.536743,-122.332108,4.52,0.294,274.9,8,3,2.2,0,0.0,-1,0.0,0.0,0.0,0
711794,1495245996431,,,,,,,,0.0,0.12,0.98,-11.3,0.1,-0.0,900,278,,,,,,,,,,,,,,,,,,,
711814,1495245996451,,,,,,,,-0.0,0.12,0.99,-11.3,0.0,-0.0,900,278,,,,,,,,,,,,,,,,,,,
711834,1495245996471,,,,,,,,-0.0,0.13,1.0,-11.2,-0.0,-0.1,920,278,,,,,,,,,,,,,,,,,,,
711854,1495245996493,,,,,,,,-0.0,0.13,0.99,-11.2,-0.1,-0.3,900,278,,,,,,,,,,,,,,,,,,,
711874,1495245996513,0,125.1,,159.7,54,146.5,,-0.0,0.12,0.98,-11.2,-0.0,-0.3,900,280,1,1,3.237,1,39.536743,-122.332108,4.99,0.294,275.0,8,3,2.2,0,0.0,-1,0.0,0.0,0.0,0
711894,1495245996533,,,,,,,,-0.0,0.12,0.98,-11.2,0.1,-0.4,900,280,,,,,,,,,,,,,,,,,,,
711914,1495245996553,,,,,,,,0.0,0.11,0.97,-11.3,0.1,-0.3,900,280,,,,,,,,,,,,,,,,,,,
711934,1495245996573,,,,,,,,0.0,0.12,0.97,-11.4,0.0,-0.2,900,280,,,,,,,,,,,,,,,,,,,
711954,1495245996591,,,,,,,,0.0,0.12,0.97,-11.5,0.1,-0.0,920,278,,,,,,,,,,,,,,,,,,,
711974,1495245996611,,,,,55,,,0.0,0.12,0.97,-11.4,0.2,0.0,920,280,1,1,3.309,1,39.536743,-122.332108,5.06,0.295,275.7,8,3,2.2,0,0.0,-1,0.0,0.0,0.0,0
711994,1495245996631,,,,,,,,0.01,0.12,0.98,-11.5,0.2,0.1,900,278,,,,,,,,,,,,,,,,,,,
712014,1495245996651,,,,,,,,0.01,0.13,0.98,-11.5,0.1,0.1,900,277,,,,,,,,,,,,,,,,,,,
712034,1495245996671,,,,,,,,0.0,0.12,0.98,-11.5,-0.0,0.2,900,278,,,,,,,,,,,,,,,,,,,
712054,1495245996691,,,,,,,,-0.0,0.11,0.99,-11.5,0.0,0.2,900,280,,,,,,,,,,,,,,,,,,,
712074,1495245996711,0,125.7,-0.2,160.2,63,147.1,14.67,-0.01,0.11,0.99,-11.5,-0.0,0.2,920,280,1,1,3.274,1,39.536747,-122.3321,4.78,0.295,276.1,8,3,2.2,0,0.0,-1,0.0,0.0,0.0,0
712094,1495245996731,,,,,,,,-0.01,0.11,0.97,-11.5,-0.0,0.2,920,280,,,,,,,,,,,,,,,,,,,
712114,1495245996751,,,,,,,,-0.01,0.1,0.96,-11.4,-0.0,0.3,900,280,,,,,,,,,,,,,,,,,,,
712134,1495245996771,,,,,,,,-0.01,0.1,0.97,-11.4,-0.2,0.4,900,278,,,,,,,,,,,,,,,,,,,
712154,1495245996791,,,,,,,,-0.0,0.11,0.97,-11.3,-0.0,0.4,900,278,,,,,,,,,,,,,,,,,,,
712174,1495245996811,,,,,59,,,-0.0,0.12,0.97,-11.4,0.0,0.5,900,278,1,1,3.261,1,39.536747,-122.3321,4.82,0.295,276.7,8,3,2.2,0,0.0,-1,0.0,0.0,0.0,0
712194,1495245996831,,,,,,,,0.0,0.12,0.98,-11.4,0.0,0.5,900,278,,,,,,,,,,,,,,,,,,,
712214,1495245996851,,,,,,,,0.01,0.13,0.98,-11.3,0.1,0.5,900,277,,,,,,,,,,,,,,,,,,,
712234,1495245996871,,,,,,,,0.01,0.15,0.99,-11.4,0.2,0.4,920,278,,,,,,,,,,,,,,,,,,,
712254,1495245996891,,,,,,,,0.0,0.15,0.99,-11.4,0.2,0.2,900,277,,,,,,,,,,,,,,,,,,,
712274,1495245996911,0,125.1,,159.6,53,146.7,,0.0,0.15,0.99,-11.5,0.1,0.1,900,278,1,1,3.214,1,39.536747,-122.3321,4.94,0.295,277.0,8,3,2.2,0,0.0,-1,0.0,0.0,0.0,0
712294,1495245996931,,,,,,,,-0.01,0.14,0.99,-11.5,0.2,0.0,900,278,,,,,,,,,,,,,,,,,,,
712314,1495245996951,,,,,,,,-0.01,0.15,0.99,-11.5,0.2,-0.1,920,280,,,,,,,,,,,,,,,,,,,
712334,1495245996971,,,,,,,,-0.02,0.14,0.97,-11.6,0.2,-0.2,920,280,,,,,,,,,,,,,,,,,,,
712354,1495245996991,,,,,,,,-0.01,0.13,0.97,-11.6,0.2,-0.3,920,278,,,,,,,,,,,,,,,,,,,
712374,1495245997004,,,,,60,,,-0.01,0.11,0.96,-11.6,0.3,-0.3,900,280,1,1,3.309,1,39.536747,-122.3321,4.63,0.295,277.3,8,3,2.2,0,0.0,-1,0.0,0.0,0.0,0
712394,1495245997024,,,,,,,,-0.01,0.11,0.96,-11.6,0.3,-0.3,900,278,,,,,,,,,,,,,,,,,,,
712414,1495245997044,,,,,,,,-0.01,0.11,0.96,-11.6,0.2,-0.1,900,275,,,,,,,,,,,,,,,,,,,
712434,1495245997064,,,,,,,,-0.0,0.1,0.97,-11.6,0.3,-0.1,900,277,,,,,,,,,,,,,,,,,,,
712454,1495245997084,,,,,,,,0.0,0.1,0.97,-11.6,0.3,-0.1,900,278,,,,,,,,,,,,,,,,,,,
712474,1495245997110,0,125.0,,160.0,62,147.0,,0.01,0.11,0.98,-11.6,0.4,-0.1,900,278,1,1,3.261,1,39.536751,-122.3321,4.71,0.295,277.5,8,3,2.2,0,0.0,-1,0.0,0.0,0.0,0
712494,1495245997130,,,,,,,,0.01,0.13,0.98,-11.6,0.3,-0.2,900,278,,,,,,,,,,,,,,,,,,,
712514,1495245997150,,,,,,,,0.0,0.13,0.98,-11.6,0.1,-0.2,900,278,,,,,,,,,,,,,,,,,,,
712534,1495245997170,,,,,,,,-0.0,0.12,0.98,-11.6,0.1,-0.2,900,278,,,,,,,,,,,,,,,,,,,
712554,1495245997190,,,,,,,,-0.0,0.12,0.98,-11.6,0.2,-0.3,900,280,,,,,,,,,,,,,,,,,,,
712574,1495245997210,,,,,58,,,-0.01,0.12,0.97,-11.6,0.3,-0.3,920,280,1,1,3.203,1,39.536751,-122.332085,4.83,0.295,277.7,8,3,2.2,0,0.0,-1,0.0,0.0,0.0,0
712594,1495245997230,,,,,,,,-0.01,0.12,0.97,-11.6,0.3,-0.4,920,282,,,,,,,,,,,,,,,,,,,
712614,1495245997250,,,,,,,,-0.01,0.11,0.97,-11.6,0.3,-0.5,920,282,,,,,,,,,,,,,,,,,,,
712634,1495245997270,,,,,,,,-0.01,0.11,0.96,-11.6,0.4,-0.6,920,285,,,,,,,,,,,,,,,,,,,
712654,1495245997290,,,,,,,,-0.0,0.12,0.95,-11.6,0.5,-0.6,920,282,,,,,,,,,,,,,,,,,,,
712674,1495245997310,0,125.7,,159.3,58,146.5,,-0.0,0.12,0.95,-11.7,0.4,-0.6,920,282,1,1,3.286,1,39.536751,-122.332085,4.86,0.296,278.1,8,3,2.2,0,0.0,-1,0.0,0.0,0.0,0
712694,1495245997330,,,,,,,,-0.01,0.13,0.96,-11.6,0.5,-0.7,920,280,,,,,,,,,,,,,,,,,,,
712714,1495245997350,,,,,,,,-0.0,0.13,0.97,-11.6,0.7,-0.8,920,280,,,,,,,,,,,,,,,,,,,
712734,1495245997370,,,,,,,,-0.0,0.14,0.98,-11.6,0.6,-0.9,920,280,,,,,,,,,,,,,,,,,,,
712754,1495245997390,,,,,,,,-0.0,0.15,0.98,-11.7,0.6,-1.0,920,280,,,,,,,,,,,,,,,,,,,
712774,1495245997410,,,,,52,,,-0.0,0.14,0.99,-11.7,0.5,-1.0,920,280,1,1,3.286,1,39.536751,-122.332085,4.86,0.296,278.2,8,3,2.2,0,0.0,-1,0.0,0.0,0.0,0
712794,1495245997430,,,,,,,,-0.01,0.13,0.98,-11.7,0.6,-1.0,920,278,,,,,,,,,,,,,,,,,,,
712814,1495245997450,,,,,,,,-0.01,0.12,0.98,-11.7,0.6,-1.1,900,278,,,,,,,,,,,,,,,,,,,
712834,1495245997470,,,,,,,,-0.01,0.12,0.97,-11.7,0.7,-1.0,900,278,,,,,,,,,,,,,,,,,,,
712854,1495245997490,,,,,,,,-0.01,0.1,0.96,-11.8,0.6,-0.9,920,280,,,,,,,,,,,,,,,,,,,
712874,1495245997510,0,125.2,,160.0,59,147.0,,-0.01,0.09,0.96,-11.8,0.6,-0.7,920,277,1,1,3.309,1,39.536751,-122.332085,4.75,0.296,278.5,8,3,2.2,0,0.0,-1,0.0,0.0,0.0,0
712894,1495245997530,,,,,,,,-0.01,0.09,0.96,-11.8,0.6,-0.6,900,278,,,,,,,,,,,,,,,,,,,
712914,1495245997550,,,,,,,,-0.01,0.1,0.96,-11.8,0.5,-0.5,900,278,,,,,,,,,,,,,,,,,,,
712934,1495245997570,,,,,,,,-0.01,0.1,0.96,-11.9,0.5,-0.3,900,280,,,,,,,,,,,,,,,,,,,
712954,1495245997590,,,,,,,,-0.0,0.1,0.97,-11.9,0.5,-0.1,900,282,,,,,,,,,,,,,,,,,,,
712974,1495245997610,,,,,61,,,0.0,0.11,0.98,-11.8,0.5,-0.0,920,280,1,1,3.286,1,39.536751,-122.332085,4.92,0.296,278.9,8,3,2.2,0,0.0,-1,0.0,0.0,0.0,0
712994,1495245997630,,,,,,,,0.0,0.12,0.98,-11.8,0.5,0.0,920,282,,,,,,,,,,,,,,,,,,,
713014,1495245997650,,,,,,,,0.0,0.12,0.98,-11.8,0.3,0.1,920,282,,,,,,,,,,,,,,,,,,,
713034,1495245997670,,,,,,,,-0.0,0.12,0.98,-11.8,0.3,0.0,920,282,,,,,,,,,,,,,,,,,,,
713054,1495245997690,,,,,,,,-0.01,0.12,0.99,-11.7,0.3,-0.1,920,280,,,,,,,,,,,,,,,,,,,
713074,1495245997710,0,125.6,-0.3,160.1,67,146.9,14.7,-0.02,0.12,0.99,-11.7,0.5,-0.1,920,280,1,1,3.274,1,39.536755,-122.332085,4.91,0.296,279.2,8,3,2.2,0,0.0,-1,0.0,0.0,0.0,0
713094,1495245997730,,,,,,,,-0.02,0.12,0.98,-11.7,0.4,-0.2,920,282,,,,,,,,,,,,,,,,,,,
713114,1495245997750,,,,,,,,-0.02,0.11,0.97,-11.7,0.4,-0.2,920,282,,,,,,,,,,,,,,,,,,,
713134,1495245997770,,,,,,,,-0.01,0.11,0.97,-11.7,0.4,-0.2,920,280,,,,,,,,,,,,,,,,,,,
713154,1495245997792,,,,,,,,-0.01,0.11,0.97,-11.7,0.4,-0.2,900,277,,,,,,,,,,,,,,,,,,,
713174,1495245997812,,,,,58,,,-0.01,0.11,0.96,-11.8,0.4,-0.2,900,277,1,1,3.273,1,39.536755,-122.332069,5.08,0.296,279.4,8,3,2.2,0,0.0,-1,0.0,0.0,0.0,0
713194,1495245997832,,,,,,,,-0.01,0.12,0.97,-11.9,0.2,-0.1,900,275,,,,,,,,,,,,,,,,,,,
713214,1495245997852,,,,,,,,-0.01,0.12,0.97,-11.9,0.3,-0.0,900,275,,,,,,,,,,,,,,,,,,,
713234,1495245997872,,,,,,,,-0.0,0.13,0.98,-11.9,0.3,0.1,900,277,,,,,,,,,,,,,,,,,,,
713254,1495245997892,,,,,,,,-0.01,0.13,0.98,-11.9,0.3,0.2,900,277,,,,,,,,,,,,,,,,,,,
713274,1495245997912,0,125.5,,160.2,64,147.1,,-0.01,0.13,0.99,-11.9,0.1,0.2,900,277,1,1,3.237,1,39.536755,-122.332069,4.98,0.296,279.6,8,3,2.2,0,0.0,-1,0.0,0.0,0.0,0
713294,1495245997932,,,,,,,,-0.02,0.12,0.99,-11.8,0.2,0.2,900,278,,,,,,,,,,,,,,,,,,,
713314,1495245997952,,,,,,,,-0.02,0.12,0.99,-11.8,0.2,0.2,900,277,,,,,,,,,,,,,,,,,,,
713334,1495245997972,,,,,,,,-0.02,0.11,0.98,-11.8,0.2,0.1,900,280,,,,,,,,,,,,,,,,,,,
713354,1495245997992,,,,,,,,-0.02,0.1,0.98,-11.8,0.3,0.2,920,283,,,,,,,,,,,,,,,,,,,
713374,1495245998003,,,,,61,,,-0.01,0.09,0.97,-11.7,0.3,0.2,920,283,1,1,3.274,1,39.536758,-122.332069,4.9,0.297,279.7,8,3,2.2,0,0.0,-1,0.0,0.0,0.0,0
713394,1495245998023,,,,,,,,-0.01,0.09,0.97,-11.7,0.2,0.3,920,282,,,,,,,,,,,,,,,,,,,
713414,1495245998043,,,,,,,,-0.0,0.1,0.96,-11.8,0.0,0.4,920,282,,,,,,,,,,,,,,,,,,,
713434,1495245998063,,,,,,,,-0.0,0.11,0.96,-11.9,0.0,0.5,920,280,,,,,,,,,,,,,,,,,,,
713454,1495245998083,,,,,,,,-0.0,0.11,0.97,-11.8,0.1,0.5,920,280,,,,,,,,,,,,,,,,,,,
713474,1495245998109,0,125.7,,159.6,61,146.6,,0.0,0.12,0.98,-11.8,0.1,0.5,900,278,1,1,3.237,1,39.536758,-122.332069,4.99,0.297,279.9,8,3,2.2,0,0.0,-1,0.0,0.0,0.0,0
713494,1495245998129,,,,,,,,0.01,0.14,0.98,-11.9,0.1,0.6,920,280,,,,,,,,,,,,,,,,,,,
713514,1495245998149,,,,,,,,0.0,0.13,0.98,-11.9,0.0,0.6,920,278,,,,,,,,,,,,,,,,,,,
713534,1495245998169,,,,,,,,-0.01,0.12,0.99,-11.8,-0.0,0.6,920,278,,,,,,,,,,,,,,,,,,,
713554,1495245998191,,,,,,,,-0.01,0.12,0.99,-11.8,-0.0,0.6,900,280,,,,,,,,,,,,,,,,,,,
713574,1495245998211,,,,,62,,,-0.01,0.12,0.98,-11.8,0.1,0.6,900,278,1,1,3.214,1,39.536762,-122.332069,4.77,0.297,280.0,8,3,2.2,0,0.0,-1,0.0,0.0,0.0,0
