"Interval"|"ms"|0|0|1,"Utc"|"ms"|0|0|1,"FuelLevel"|"F"|0|100|5,"OilTemp"|"F"|0.0|300.0|5,"CoolantPressPSI"|"PSI"|0.0|20.0|1,"Coolant"|"F"|0.0|300.0|5,"OilPress"|"PSI"|0|150|10,"EngineTemp"|"F"|0.0|300.0|5,"Battery"|"Volts"|0.0|20.0|1,"AccelX"|"G"|-3.0|3.0|50,"AccelY"|"G"|-3.0|3.0|50,"AccelZ"|"G"|-3.0|3.0|50,"Yaw"|"Deg/Sec"|-300.0|300.0|50,"Pitch"|"Deg/Sec"|-300.0|300.0|50,"Roll"|"Deg/Sec"|-300.0|300.0|50,"RPM"|""|0|10000|50,"Driveshaft"|"RPM"|0|5000|50,"GPIO1"|""|0|1|10,"GPIO2"|""|0|1|10,"GearRatio"|""|-5.0|5.0|10,"Gear"|""|-1|5|10,"Latitude"|"Degrees"|-180.0|180.0|10,"Longitude"|"Degrees"|-180.0|180.0|10,"Speed"|"mph"|0.0|150.0|10,"Distance"|"mi"|0.0|0.0|10,"Altitude"|"ft"|0.0|4000.0|10,"GPSSats"|""|0|20|10,"GPSQual"|""|0|5|10,"GPSDOP"|""|0.0|20.0|10,"LapCount"|""|0|0|10,"LapTime"|"Min"|0.0|0.0|10,"Sector"|""|0|0|10,"SectorTime"|"Min"|0.0|0.0|10,"PredTime"|"Min"|0.0|0.0|10,"ElapsedTime"|"Min"|0.0|0.0|10,"CurrentLap"|""|0|0|10
98954,1495381602253,,,,,,,,0.04,0.1,0.98,-3.7,-1.4,-0.0,1560,480,,,,,,,,,,,,,,,,,,,
98974,1495381602349,,,,,66,,,0.03,0.1,1.0,-3.7,-1.6,0.0,1560,474,1,1,3.264,1,39.538918,-122.332428,8.32,0.0,350.8,6,3,2.5,0,0.0,-1,0.0,0.0,0.0,0
98994,1495381602369,,,,,,,,0.04,0.11,1.0,-3.7,-1.1,0.3,1560,478,,,,,,,,,,,,,,,,,,,
99014,1495381602389,,,,,,,,0.04,0.11,1.01,-3.7,-1.4,0.4,1560,482,,,,,,,,,,,,,,,,,,,
99034,1495381602409,,,,,,,,0.03,0.09,1.02,-3.6,-1.0,0.5,1580,478,,,,,,,,,,,,,,,,,,,
99054,1495381602429,,,,,,,,0.04,0.11,1.03,-3.5,-1.4,0.4,1560,482,,,,,,,,,,,,,,,,,,,
99074,1495381602449,0,67.8,0.3,93.6,65,83.2,14.69,0.04,0.11,1.01,-3.5,-1.2,0.3,1560,480,1,1,3.264,1,39.538906,-122.332428,8.82,0.0,335.9,6,3,2.5,0,0.0,-1,0.0,0.0,0.0,0
99094,1495381602469,,,,,,,,0.04,0.11,1.0,-3.5,-1.3,0.2,1580,480,,,,,,,,,,,,,,,,,,,
99114,1495381602489,,,,,,,,0.03,0.12,1.01,-3.5,-1.7,0.1,1560,478,,,,,,,,,,,,,,,,,,,
99134,1495381602509,,,,,,,,0.04,0.11,1.01,-3.5,-1.2,0.1,1560,480,,,,,,,,,,,,,,,,,,,
99154,1495381602531,,,,,,,,0.04,0.1,1.01,-3.5,-1.5,0.2,1560,480,,,,,,,,,,,,,,,,,,,
99174,1495381602551,,,,,64,,,0.04,0.09,1.0,-3.4,-1.0,0.4,1580,480,1,1,3.25,1,39.538902,-122.332428,8.53,0.001,331.1,6,3,2.5,0,0.0,-1,0.0,0.0,0.0,0
99194,1495381602571,,,,,,,,0.05,0.08,1.02,-3.4,-1.1,0.4,1580,482,,,,,,,,,,,,,,,,,,,
99214,1495381602591,,,,,,,,0.04,0.09,1.02,-3.5,-1.1,0.3,1580,478,,,,,,,,,,,,,,,,,,,
99234,1495381602611,,,,,,,,0.05,0.08,1.01,-3.5,-0.7,0.4,1560,485,,,,,,,,,,,,,,,,,,,
99254,1495381602631,,,,,,,,0.04,0.08,1.03,-3.5,-0.8,0.3,1580,486,,,,,,,,,,,,,,,,,,,
99274,1495381602651,0,68.6,,93.1,65,82.3,,0.04,0.09,1.04,-3.4,-0.3,0.5,1580,482,1,1,3.264,1,39.538902,-122.332428,8.53,0.001,331.1,6,3,2.5,0,0.0,-1,0.0,0.0,0.0,0
99294,1495381602649,,,,,,,,0.04,0.09,1.04,-3.4,-0.4,0.5,1580,485,,,,,,,,,,,,,,,,,,,
99314,1495381602669,,,,,,,,0.03,0.09,1.02,-3.4,-0.0,0.5,1580,480,,,,,,,,,,,,,,,,,,,
99334,1495381602689,,,,,,,,0.04,0.1,1.01,-3.4,0.2,0.7,1580,485,,,,,,,,,,,,,,,,,,,
99354,1495381602709,,,,,,,,0.03,0.1,1.01,-3.5,0.0,0.7,1580,488,,,,,,,,,,,,,,,,,,,
99374,1495381602749,,,,,63,,,0.04,0.1,1.0,-3.5,0.5,0.8,1580,486,1,1,3.285,1,39.538895,-122.332428,8.31,0.001,326.6,6,3,2.5,0,0.0,-1,0.0,0.0,0.0,0
99394,1495381602769,,,,,,,,0.03,0.1,1.0,-3.5,0.4,0.6,1580,486,,,,,,,,,,,,,,,,,,,
99414,1495381602789,,,,,,,,0.02,0.09,0.98,-3.5,0.8,0.6,1580,485,,,,,,,,,,,,,,,,,,,
99434,1495381602809,,,,,,,,0.03,0.1,0.99,-3.5,0.8,0.6,1580,488,,,,,,,,,,,,,,,,,,,
99454,1495381602829,,,,,,,,0.03,0.09,1.03,-3.5,0.8,0.5,1580,485,,,,,,,,,,,,,,,,,,,
99474,1495381602849,0,66.8,,93.7,65,84.4,,0.04,0.1,1.03,-3.4,1.3,0.5,1580,485,1,1,3.244,1,39.538895,-122.332428,8.34,0.001,326.3,6,3,2.5,0,0.0,-1,0.0,0.0,0.0,0
99494,1495381602869,,,,,,,,0.04,0.1,1.02,-3.4,0.9,0.3,1580,482,,,,,,,,,,,,,,,,,,,
99514,1495381602889,,,,,,,,0.03,0.1,1.02,-3.3,1.4,0.2,1580,480,,,,,,,,,,,,,,,,,,,
99534,1495381602909,,,,,,,,0.05,0.1,1.04,-3.2,1.1,0.1,1560,482,,,,,,,,,,,,,,,,,,,
99554,1495381602929,,,,,,,,0.04,0.1,1.02,-3.2,1.3,-0.1,1580,478,,,,,,,,,,,,,,,,,,,
99574,1495381602949,,,,,66,,,0.05,0.1,0.99,-3.2,1.3,-0.1,1580,480,1,1,3.264,1,39.538891,-122.332428,8.46,0.002,326.1,6,3,2.5,0,0.0,-1,0.0,0.0,0.0,0
99594,1495381602969,,,,,,,,0.04,0.1,1.0,-3.3,0.9,-0.3,1560,478,,,,,,,,,,,,,,,,,,,
99614,1495381602989,,,,,,,,0.04,0.09,1.01,-3.2,1.4,-0.6,1560,480,,,,,,,,,,,,,,,,,,,
99634,1495381603009,,,,,,,,0.05,0.09,1.01,-3.2,1.1,-0.7,1580,486,,,,,,,,,,,,,,,,,,,
99654,1495381603029,,,,,,,,0.04,0.08,1.0,-3.2,1.4,-0.6,1580,482,,,,,,,,,,,,,,,,,,,
99674,1495381603049,0,68.6,,93.4,66,82.4,,0.05,0.08,1.01,-3.2,1.4,-0.3,1580,485,1,1,3.243,1,39.538887,-122.332428,8.41,0.002,325.6,6,3,2.5,0,0.0,-1,0.0,0.0,0.0,0
99694,1495381603069,,,,,,,,0.04,0.08,1.03,-3.2,1.0,-0.1,1580,485,,,,,,,,,,,,,,,,,,,
99714,1495381603089,,,,,,,,0.05,0.07,1.02,-3.2,1.4,0.1,1580,485,,,,,,,,,,,,,,,,,,,
99734,1495381603109,,,,,,,,0.04,0.07,1.01,-3.1,0.9,-0.0,1580,488,,,,,,,,,,,,,,,,,,,
99754,1495381603129,,,,,,,,0.03,0.07,1.0,-3.1,1.4,-0.1,1580,485,,,,,,,,,,,,,,,,,,,
99774,1495381603144,,,,,66,,,0.04,0.07,1.01,-3.0,1.2,-0.2,1580,486,1,1,3.251,1,39.538887,-122.332428,8.4,0.002,324.6,6,3,2.5,0,0.0,-1,0.0,0.0,0.0,0
99794,1495381603164,,,,,,,,0.03,0.07,1.01,-3.0,1.1,-0.3,1580,482,,,,,,,,,,,,,,,,,,,
99814,1495381603184,,,,,,,,0.04,0.08,1.0,-2.9,1.5,-0.1,1580,482,,,,,,,,,,,,,,,,,,,
99834,1495381603204,,,,,,,,0.03,0.09,1.0,-2.9,1.0,-0.1,1580,485,,,,,,,,,,,,,,,,,,,
99854,1495381603224,,,,,,,,0.02,0.09,1.0,-2.9,1.4,0.1,1580,480,,,,,,,,,,,,,,,,,,,
99874,1495381603242,0,68.5,,94.2,67,83.4,,0.03,0.08,1.01,-2.9,1.0,0.1,1580,480,1,1,3.264,1,39.538883,-122.332428,8.33,0.002,324.0,6,3,2.5,0,0.0,-1,0.0,0.0,0.0,0
99894,1495381603262,,,,,,,,0.02,0.08,0.99,-2.9,0.8,0.1,1560,480,,,,,,,,,,,,,,,,,,,
99914,1495381603282,,,,,,,,0.03,0.08,0.98,-3.0,0.9,0.1,1560,477,,,,,,,,,,,,,,,,,,,
99934,1495381603302,,,,,,,,0.01,0.08,1.0,-3.0,0.5,0.1,1560,478,,,,,,,,,,,,,,,,,,,
99954,1495381603322,,,,,,,,0.02,0.08,1.01,-3.0,0.7,0.2,1560,478,,,,,,,,,,,,,,,,,,,
99974,1495381603344,,,,,62,,,0.03,0.07,1.01,-3.0,0.6,0.2,1560,478,1,1,3.277,1,39.538879,-122.33242,8.36,0.003,323.8,6,3,2.5,0,0.0,-1,0.0,0.0,0.0,0
99994,1495381603364,,,,,,,,0.01,0.06,1.0,-2.9,0.8,0.4,1560,478,,,,,,,,,,,,,,,,,,,
100014,1495381603384,,,,,,,,0.02,0.07,1.02,-2.9,0.4,0.4,1560,480,,,,,,,,,,,,,,,,,,,
100034,1495381603404,,,,,,,,0.01,0.07,1.02,-2.9,0.4,0.3,1560,478,,,,,,,,,,,,,,,,,,,
100054,1495381603424,,,,,,,,0.01,0.08,1.01,-2.9,0.6,0.3,1560,480,,,,,,,,,,,,,,,,,,,
100074,1495381603444,0,63.3,-0.4,90.4,62,83.4,14.74,0.01,0.08,1.02,-2.8,0.3,0.1,1560,482,1,1,3.264,1,39.538879,-122.33242,8.4,0.003,323.3,6,3,2.5,0,0.0,-1,0.0,0.0,0.0,0
100094,1495381603464,,,,,,,,0.02,0.08,1.03,-2.8,0.7,0.0,1580,478,,,,,,,,,,,,,,,,,,,
100114,1495381603484,,,,,,,,0.02,0.09,1.02,-2.8,0.2,-0.0,1560,485,,,,,,,,,,,,,,,,,,,
100134,1495381603504,,,,,,,,0.02,0.08,1.02,-2.8,0.7,0.0,1580,485,,,,,,,,,,,,,,,,,,,
100154,1495381603524,,,,,,,,0.03,0.08,1.04,-2.9,0.5,0.1,1580,485,,,,,,,,,,,,,,,,,,,
100174,1495381603546,,,,,65,,,0.02,0.08,1.04,-2.9,0.3,0.0,1580,482,1,1,3.292,1,39.538876,-122.33242,8.45,0.003,323.2,6,3,2.5,0,0.0,-1,0.0,0.0,0.0,0
100194,1495381603566,,,,,,,,0.03,0.07,1.03,-2.9,0.7,0.1,1580,485,,,,,,,,,,,,,,,,,,,
100214,1495381603586,,,,,,,,0.02,0.08,1.03,-3.0,0.2,-0.0,1580,485,,,,,,,,,,,,,,,,,,,
100234,1495381603606,,,,,,,,0.02,0.07,1.02,-2.9,0.4,-0.0,1580,480,,,,,,,,,,,,,,,,,,,
100254,1495381603626,,,,,,,,0.02,0.07,1.03,-2.9,0.0,-0.2,1580,482,,,,,,,,,,,,,,,,,,,
100274,1495381603638,0,65.5,,89.5,66,80.4,,0.01,0.07,1.03,-2.8,-0.1,-0.3,1560,478,1,1,3.285,1,39.538876,-122.33242,8.31,0.003,323.3,6,3,2.5,0,0.0,-1,0.0,0.0,0.0,0
100294,1495381603658,,,,,,,,0.02,0.07,1.03,-2.8,0.1,-0.3,1560,480,,,,,,,,,,,,,,,,,,,
100314,1495381603678,,,,,,,,0.01,0.08,1.04,-2.8,-0.3,-0.4,1580,480,,,,,,,,,,,,,,,,,,,
100334,1495381603698,,,,,,,,0.01,0.08,1.05,-2.7,0.0,-0.3,1560,477,,,,,,,,,,,,,,,,,,,
100354,1495381603718,,,,,,,,0.01,0.08,1.04,-2.7,-0.3,-0.2,1560,480,,,,,,,,,,,,,,,,,,,
100374,1495381603748,,,,,63,,,-0.0,0.07,1.02,-2.8,-0.2,-0.1,1560,477,1,1,3.264,1,39.538872,-122.33242,8.51,0.004,323.3,6,3,2.5,0,0.0,-1,0.0,0.0,0.0,0
100394,1495381603768,,,,,,,,0.01,0.08,1.02,-2.9,-0.5,-0.0,1560,477,,,,,,,,,,,,,,,,,,,
100414,1495381603788,,,,,,,,0.01,0.08,1.04,-3.0,-0.7,-0.2,1560,472,,,,,,,,,,,,,,,,,,,
100434,1495381603808,,,,,,,,0.02,0.08,1.02,-3.0,-0.5,-0.1,1540,474,,,,,,,,,,,,,,,,,,,
100454,1495381603828,,,,,,,,0.02,0.09,1.02,-3.0,-1.0,-0.1,1540,471,,,,,,,,,,,,,,,,,,,
100474,1495381603848,0,63.0,,90.0,64,83.1,,0.02,0.08,1.03,-2.9,-0.5,-0.0,1540,472,1,1,3.277,1,39.538868,-122.33242,8.36,0.004,323.2,6,3,2.5,0,0.0,-1,0.0,0.0,0.0,0
100494,1495381603868,,,,,,,,0.02,0.08,1.02,-2.9,-1.0,0.1,1540,472,,,,,,,,,,,,,,,,,,,
100514,1495381603888,,,,,,,,0.03,0.08,1.02,-2.9,-0.7,0.3,1560,477,,,,,,,,,,,,,,,,,,,
100534,1495381603908,,,,,,,,0.03,0.08,1.02,-2.8,-0.8,0.2,1560,478,,,,,,,,,,,,,,,,,,,
100554,1495381603928,,,,,,,,0.02,0.07,1.0,-2.8,-0.6,0.1,1560,474,,,,,,,,,,,,,,,,,,,
100574,1495381603948,,,,,61,,,0.04,0.09,1.01,-2.8,-0.6,0.1,1560,480,1,1,3.264,1,39.53886,-122.33242,8.34,0.004,322.9,6,3,2.5,0,0.0,-1,0.0,0.0,0.0,0
100594,1495381603968,,,,,,,,0.02,0.08,1.01,-2.8,-0.8,-0.1,1560,477,,,,,,,,,,,,,,,,,,,
100614,1495381603988,,,,,,,,0.02,0.08,0.98,-2.8,-0.6,0.1,1560,480,,,,,,,,,,,,,,,,,,,
100634,1495381604008,,,,,,,,0.02,0.08,0.98,-2.8,-0.7,0.1,1580,485,,,,,,,,,,,,,,,,,,,
100654,1495381604028,,,,,,,,0.03,0.07,0.99,-2.8,-0.6,0.2,1580,482,,,,,,,,,,,,,,,,,,,
100674,1495381604048,0,64.8,,91.2,64,84.1,,0.03,0.08,0.97,-2.9,-1.1,0.2,1580,482,1,1,3.25,1,39.538856,-122.33242,8.36,0.004,322.9,6,3,2.5,0,0.0,-1,0.0,0.0,0.0,0
100694,1495381604068,,,,,,,,0.02,0.07,0.96,-2.9,-0.7,0.2,1580,480,,,,,,,,,,,,,,,,,,,
100714,1495381604088,,,,,,,,0.02,0.08,0.97,-2.9,-1.1,0.1,1580,480,,,,,,,,,,,,,,,,,,,
100734,1495381604108,,,,,,,,0.01,0.08,0.99,-2.9,-1.4,-0.1,1560,480,,,,,,,,,,,,,,,,,,,
100754,1495381604128,,,,,,,,0.02,0.09,0.99,-2.9,-0.9,-0.3,1560,482,,,,,,,,,,,,,,,,,,,
100774,1495381604143,,,,,61,,,0.02,0.09,1.0,-2.8,-1.3,-0.4,1580,480,1,1,3.292,1,39.538856,-122.33242,8.4,0.004,322.8,6,3,2.5,0,0.0,-1,0.0,0.0,0.0,0
100794,1495381604163,,,,,,,,0.02,0.08,1.0,-2.7,-1.1,-0.4,1560,477,,,,,,,,,,,,,,,,,,,
100814,1495381604183,,,,,,,,0.02,0.09,1.02,-2.7,-1.2,-0.5,1560,480,,,,,,,,,,,,,,,,,,,
100834,1495381604201,,,,,,,,0.0,0.09,1.01,-2.7,-1.3,-0.6,1560,477,,,,,,,,,,,,,,,,,,,
100854,1495381604221,,,,,,,,0.02,0.09,1.01,-2.7,-1.0,-0.6,1560,477,,,,,,,,,,,,,,,,,,,
100874,1495381604241,0,63.6,,90.1,66,83.1,,0.01,0.09,1.02,-2.8,-1.5,-0.7,1540,477,1,1,3.277,1,39.538841,-122.33242,8.21,0.005,324.4,6,3,2.5,0,0.0,-1,0.0,0.0,0.0,0
100894,1495381604261,,,,,,,,0.02,0.09,1.01,-2.8,-1.0,-0.7,1560,474,,,,,,,,,,,,,,,,,,,
100914,1495381604281,,,,,,,,0.03,0.1,1.0,-2.8,-1.3,-1.0,1560,474,,,,,,,,,,,,,,,,,,,
100934,1495381604299,,,,,,,,0.02,0.08,1.0,-2.8,-1.0,-1.0,1560,474,,,,,,,,,,,,,,,,,,,
100954,1495381604319,,,,,,,,0.02,0.09,1.02,-2.8,-1.1,-1.1,1540,477,,,,,,,,,,,,,,,,,,,
100974,1495381604339,,,,,62,,,0.02,0.08,1.0,-2.8,-0.8,-1.0,1540,472,1,1,3.256,1,39.538837,-122.33242,8.29,0.005,324.5,6,3,2.5,0,0.0,-1,0.0,0.0,0.0,0
100994,1495381604359,,,,,,,,0.03,0.08,1.01,-2.9,-0.9,-0.8,1540,474,,,,,,,,,,,,,,,,,,,
101014,1495381604379,,,,,,,,0.02,0.08,1.0,-2.8,-1.2,-0.7,1560,474,,,,,,,,,,,,,,,,,,,
101034,1495381604401,,,,,,,,0.04,0.08,0.99,-2.8,-0.8,-0.5,1540,477,,,,,,,,,,,,,,,,,,,
101054,1495381604421,,,,,,,,0.03,0.07,1.0,-2.9,-1.3,-0.4,1560,477,,,,,,,,,,,,,,,,,,,
101074,1495381604441,0,66.2,-0.0,92.5,60,84.3,14.81,0.04,0.08,1.0,-2.8,-1.1,-0.1,1560,477,1,1,3.298,1,39.538837,-122.33242,8.29,0.005,324.3,6,3,2.5,0,0.0,-1,0.0,0.0,0.0,0
101094,1495381604461,,,,,,,,0.04,0.08,0.99,-2.8,-1.2,-0.0,1560,478,,,,,,,,,,,,,,,,,,,
101114,1495381604481,,,,,,,,0.03,0.08,0.98,-2.7,-0.8,0.2,1560,477,,,,,,,,,,,,,,,,,,,
101134,1495381604499,,,,,,,,0.05,0.09,1.0,-2.6,-1.2,0.2,1560,480,,,,,,,,,,,,,,,,,,,
101154,1495381604519,,,,,,,,0.04,0.09,1.01,-2.6,-1.2,0.2,1560,477,,,,,,,,,,,,,,,,,,,
101174,1495381604539,,,,,61,,,0.05,0.1,0.99,-2.6,-1.0,0.2,1580,478,1,1,3.25,1,39.538834,-122.33242,8.44,0.005,324.2,6,3,2.5,0,0.0,-1,0.0,0.0,0.0,0
101194,1495381604559,,,,,,,,0.05,0.1,1.01,-2.6,-1.0,0.2,1560,482,,,,,,,,,,,,,,,,,,,
101214,1495381604579,,,,,,,,0.05,0.09,1.03,-2.5,-0.5,0.3,1560,480,,,,,,,,,,,,,,,,,,,
101234,1495381604599,,,,,,,,0.05,0.09,1.02,-2.5,-0.8,0.3,1580,482,,,,,,,,,,,,,,,,,,,
101254,1495381604619,,,,,,,,0.04,0.09,1.01,-2.5,-0.4,0.3,1580,480,,,,,,,,,,,,,,,,,,,
101274,1495381604639,0,68.7,,95.1,64,84.3,,0.05,0.09,1.01,-2.5,-0.4,0.2,1560,482,1,1,3.25,1,39.53883,-122.33242,8.29,0.006,323.9,6,3,2.5,0,0.0,-1,0.0,0.0,0.0,0
101294,1495381604659,,,,,,,,0.04,0.09,1.02,-2.5,-0.5,-0.1,1580,480,,,,,,,,,,,,,,,,,,,
101314,1495381604679,,,,,,,,0.05,0.08,1.01,-2.5,0.2,-0.3,1560,480,,,,,,,,,,,,,,,,,,,
101334,1495381604699,,,,,,,,0.04,0.09,1.0,-2.5,-0.2,-0.5,1560,480,,,,,,,,,,,,,,,,,,,
101354,1495381604719,,,,,,,,0.03,0.09,0.99,-2.4,0.4,-0.5,1560,478,,,,,,,,,,,,,,,,,,,
101374,1495381604739,,,,,63,,,0.04,0.08,1.01,-2.4,0.4,-0.6,1560,480,1,1,3.25,1,39.538826,-122.33242,8.41,0.006,323.9,6,3,2.5,0,0.0,-1,0.0,0.0,0.0,0
101394,1495381604759,,,,,,,,0.03,0.08,0.99,-2.4,0.7,-0.7,1560,477,,,,,,,,,,,,,,,,,,,
101414,1495381604779,,,,,,,,0.03,0.09,1.0,-2.4,0.8,-0.9,1560,477,,,,,,,,,,,,,,,,,,,
101434,1495381604803,,,,,,,,0.02,0.09,1.02,-2.4,0.8,-1.4,1540,474,,,,,,,,,,,,,,,,,,,
101454,1495381604823,,,,,,,,0.03,0.1,1.0,-2.4,1.3,-1.5,1540,472,,,,,,,,,,,,,,,,,,,
101474,1495381604843,0,67.7,,94.3,63,83.1,,0.02,0.1,1.01,-2.5,0.9,-1.7,1540,472,1,1,3.298,1,39.538822,-122.33242,8.26,0.006,323.8,6,3,2.5,0,0.0,-1,0.0,0.0,0.0,0
101494,1495381604863,,,,,,,,0.03,0.09,1.01,-2.4,1.3,-1.6,1540,474,,,,,,,,,,,,,,,,,,,
101514,1495381604883,,,,,,,,0.02,0.09,1.0,-2.4,0.8,-1.5,1540,477,,,,,,,,,,,,,,,,,,,
101534,1495381604903,,,,,,,,0.02,0.08,1.01,-2.4,1.2,-1.2,1560,474,,,,,,,,,,,,,,,,,,,
101554,1495381604923,,,,,,,,0.02,0.07,1.02,-2.3,0.8,-1.2,1560,477,,,,,,,,,,,,,,,,,,,
101574,1495381604943,,,,,64,,,0.01,0.06,1.0,-2.2,0.7,-1.1,1560,477,1,1,3.256,1,39.538818,-122.33242,8.43,0.006,323.8,6,3,2.5,0,0.0,-1,0.0,0.0,0.0,0
101594,1495381604963,,,,,,,,0.02,0.06,1.01,-2.2,0.5,-0.9,1560,478,,,,,,,,,,,,,,,,,,,
101614,1495381604983,,,,,,,,0.01,0.06,1.01,-2.2,0.2,-0.9,1560,478,,,,,,,,,,,,,,,,,,,
101634,1495381604993,,,,,,,,0.02,0.06,0.99,-2.2,0.4,-0.7,1560,480,,,,,,,,,,,,,,,,,,,
101654,1495381605013,,,,,,,,0.02,0.06,1.01,-2.1,0.1,-0.5,1560,478,,,,,,,,,,,,,,,,,,,
101674,1495381605033,0,66.8,,93.4,61,83.2,,0.01,0.06,1.02,-2.1,0.4,-0.2,1560,477,1,1,3.25,1,39.538818,-122.33242,8.4,0.006,323.4,6,3,2.5,0,0.0,-1,0.0,0.0,0.0,0
101694,1495381605053,,,,,,,,0.02,0.07,1.02,-2.1,-0.2,0.1,1560,477,,,,,,,,,,,,,,,,,,,
101714,1495381605073,,,,,,,,0.01,0.06,1.0,-2.1,0.0,0.5,1560,474,,,,,,,,,,,,,,,,,,,
101734,1495381605103,,,,,,,,0.01,0.05,1.02,-2.1,0.0,0.9,1540,477,,,,,,,,,,,,,,,,,,,
101754,1495381605123,,,,,,,,0.0,0.06,1.03,-2.1,-0.3,1.2,1540,474,,,,,,,,,,,,,,,,,,,
101774,1495381605143,,,,,66,,,0.02,0.07,1.01,-2.2,-0.1,1.6,1560,472,1,1,3.277,1,39.538818,-122.33242,8.22,0.007,323.1,6,3,2.5,0,0.0,-1,0.0,0.0,0.0,0
101794,1495381605163,,,,,,,,0.01,0.07,1.03,-2.2,-0.4,1.9,1560,477,,,,,,,,,,,,,,,,,,,
101814,1495381605183,,,,,,,,0.02,0.08,1.04,-2.2,-0.2,2.2,1560,477,,,,,,,,,,,,,,,,,,,
101834,1495381605202,,,,,,,,0.02,0.08,1.03,-2.1,-0.2,2.2,1560,478,,,,,,,,,,,,,,,,,,,
101854,1495381605222,,,,,,,,0.02,0.07,1.04,-2.1,0.0,2.3,1560,474,,,,,,,,,,,,,,,,,,,
101874,1495381605242,0,65.3,,92.5,63,83.9,,0.03,0.08,1.05,-2.0,-0.2,2.3,1560,474,1,1,3.264,1,39.538815,-122.33242,8.32,0.007,323.0,6,3,2.5,0,0.0,-1,0.0,0.0,0.0,0
101894,1495381605262,,,,,,,,0.02,0.09,1.05,-2.0,-0.1,2.1,1560,477,,,,,,,,,,,,,,,,,,,
101914,1495381605282,,,,,,,,0.03,0.1,1.04,-2.0,0.1,2.0,1560,474,,,,,,,,,,,,,,,,,,,
101934,1495381605302,,,,,,,,0.02,0.1,1.05,-2.0,-0.3,1.6,1560,474,,,,,,,,,,,,,,,,,,,
101954,1495381605322,,,,,,,,0.03,0.1,1.05,-2.0,-0.0,1.3,1560,477,,,,,,,,,,,,,,,,,,,
101974,1495381605342,,,,,62,,,0.03,0.1,1.03,-2.0,-0.3,1.0,1560,477,1,1,3.298,1,39.538811,-122.33242,8.19,0.007,322.9,6,3,2.5,0,0.0,-1,0.0,0.0,0.0,0
101994,1495381605362,,,,,,,,0.02,0.1,1.03,-2.0,-0.1,0.8,1560,472,,,,,,,,,,,,,,,,,,,
102014,1495381605382,,,,,,,,0.02,0.1,1.04,-2.0,-0.5,0.4,1560,477,,,,,,,,,,,,,,,,,,,
102034,1495381605402,,,,,,,,0.01,0.09,1.01,-2.0,-0.3,0.1,1560,474,,,,,,,,,,,,,,,,,,,
102054,1495381605422,,,,,,,,0.01,0.08,1.01,-2.0,-0.4,-0.1,1540,472,,,,,,,,,,,,,,,,,,,
102074,1495381605442,0,65.4,-0.1,92.7,64,84.0,14.72,0.0,0.08,1.01,-2.0,-0.5,-0.4,1540,471,1,1,3.305,1,39.538807,-122.33242,8.23,0.007,322.8,6,3,2.5,0,0.0,-1,0.0,0.0,0.0,0
102094,1495381605462,,,,,,,,0.02,0.08,1.0,-2.0,-0.3,-0.5,1540,472,,,,,,,,,,,,,,,,,,,
102114,1495381605482,,,,,,,,0.02,0.09,1.01,-2.0,-0.6,-0.8,1540,471,,,,,,,,,,,,,,,,,,,
102134,1495381605500,,,,,,,,0.02,0.08,1.01,-1.9,-0.5,-1.1,1540,468,,,,,,,,,,,,,,,,,,,
102154,1495381605520,,,,,,,,0.02,0.09,1.0,-1.9,-0.8,-1.2,1540,471,,,,,,,,,,,,,,,,,,,
102174,1495381605540,,,,,62,,,0.02,0.08,1.0,-1.9,-0.6,-1.2,1540,468,1,1,3.284,1,39.538807,-122.33242,8.36,0.008,322.5,6,3,2.5,0,0.0,-1,0.0,0.0,0.0,0
102194,1495381605560,,,,,,,,0.02,0.08,1.01,-1.9,-0.8,-1.1,1520,469,,,,,,,,,,,,,,,,,,,
102214,1495381605580,,,,,,,,0.0,0.06,0.99,-1.8,-0.6,-0.9,1520,468,,,,,,,,,,,,,,,,,,,
102234,1495381605600,,,,,,,,0.01,0.07,1.0,-1.8,-0.9,-0.6,1520,471,,,,,,,,,,,,,,,,,,,
102254,1495381605620,,,,,,,,0.01,0.06,0.99,-1.9,-0.5,-0.4,1540,471,,,,,,,,,,,,,,,,,,,
102274,1495381605640,0,66.9,,94.0,59,84.4,,0.01,0.06,0.98,-1.9,-0.6,-0.2,1540,474,1,1,3.234,1,39.538803,-122.33242,8.23,0.008,322.3,6,3,2.5,0,0.0,-1,0.0,0.0,0.0,0
102294,1495381605660,,,,,,,,0.01,0.06,0.99,-2.0,-0.7,-0.3,1540,471,,,,,,,,,,,,,,,,,,,
102314,1495381605680,,,,,,,,0.03,0.07,0.98,-2.0,-0.4,-0.1,1540,471,,,,,,,,,,,,,,,,,,,
102334,1495381605700,,,,,,,,0.02,0.07,0.99,-2.1,-0.7,-0.1,1540,474,,,,,,,,,,,,,,,,,,,
102354,1495381605720,,,,,,,,0.03,0.08,0.99,-2.1,-0.3,0.2,1540,474,,,,,,,,,,,,,,,,,,,
102374,1495381605740,,,,,61,,,0.03,0.09,0.99,-2.1,-0.6,0.3,1540,477,1,1,3.277,1,39.538799,-122.33242,8.35,0.008,322.0,6,3,2.5,0,0.0,-1,0.0,0.0,0.0,0
102394,1495381605760,,,,,,,,0.03,0.07,0.99,-2.0,-0.1,0.5,1560,477,,,,,,,,,,,,,,,,,,,
102414,1495381605780,,,,,,,,0.03,0.09,0.99,-2.0,-0.5,0.6,1560,478,,,,,,,,,,,,,,,,,,,
102434,1495381605800,,,,,,,,0.03,0.08,0.99,-2.0,-0.3,0.8,1560,477,,,,,,,,,,,,,,,,,,,
102454,1495381605820,,,,,,,,0.03,0.09,1.01,-2.1,-0.1,0.9,1560,477,,,,,,,,,,,,,,,,,,,
102474,1495381605840,0,64.7,,91.9,64,83.3,,0.02,0.08,1.01,-2.1,-0.2,1.0,1560,474,1,1,3.298,1,39.538796,-122.33242,8.12,0.008,321.6,6,3,2.5,0,0.0,-1,0.0,0.0,0.0,0
102494,1495381605860,,,,,,,,0.02,0.08,1.0,-2.2,0.2,1.2,1540,477,,,,,,,,,,,,,,,,,,,
102514,1495381605880,,,,,,,,0.01,0.08,1.02,-2.2,0.0,1.2,1540,474,,,,,,,,,,,,,,,,,,,
102534,1495381605902,,,,,,,,0.01,0.08,1.01,-2.2,0.2,1.3,1540,472,,,,,,,,,,,,,,,,,,,
102554,1495381605922,,,,,,,,0.01,0.09,1.02,-2.2,-0.0,1.2,1540,469,,,,,,,,,,,,,,,,,,,
102574,1495381605942,,,,,61,,,0.0,0.08,1.02,-2.2,0.2,1.2,1520,469,1,1,3.277,1,39.538796,-122.33242,8.24,0.008,321.0,6,3,2.5,0,0.0,-1,0.0,0.0,0.0,0
102594,1495381605962,,,,,,,,0.01,0.09,1.02,-2.1,-0.0,1.2,1520,469,,,,,,,,,,,,,,,,,,,
102614,1495381605982,,,,,,,,0.01,0.09,1.01,-2.0,0.1,1.2,1520,465,,,,,,,,,,,,,,,,,,,
102634,1495381605994,,,,,,,,0.0,0.09,1.03,-2.0,-0.3,0.9,1520,469,,,,,,,,,,,,,,,,,,,
102654,1495381606014,,,,,,,,0.0,0.1,1.02,-1.9,-0.4,0.6,1520,468,,,,,,,,,,,,,,,,,,,
102674,1495381606034,0,66.9,,94.2,61,84.2,,0.01,0.11,1.02,-1.9,-0.5,0.4,1520,469,1,1,3.241,1,39.538796,-122.33242,8.24,0.009,320.5,6,3,2.5,0,0.0,-1,0.0,0.0,0.0,0
102694,1495381606054,,,,,,,,0.0,0.1,1.03,-1.9,-0.8,0.2,1520,469,,,,,,,,,,,,,,,,,,,
102714,1495381606074,,,,,,,,0.01,0.11,1.01,-1.9,-0.7,0.1,1540,469,,,,,,,,,,,,,,,,,,,
102734,1495381606100,,,,,,,,0.01,0.11,1.02,-1.9,-1.1,0.0,1540,471,,,,,,,,,,,,,,,,,,,
102754,1495381606120,,,,,,,,0.02,0.11,1.01,-2.0,-0.7,-0.0,1540,471,,,,,,,,,,,,,,,,,,,
102774,1495381606140,,,,,59,,,0.01,0.11,1.03,-2.1,-1.1,-0.1,1540,477,1,1,3.284,1,39.538792,-122.33242,8.27,0.009,320.1,6,3,2.5,0,0.0,-1,0.0,0.0,0.0,0
102794,1495381606160,,,,,,,,0.02,0.1,1.03,-2.0,-0.7,-0.0,1540,472,,,,,,,,,,,,,,,,,,,
102814,1495381606180,,,,,,,,0.02,0.09,1.03,-2.0,-1.1,-0.1,1560,477,,,,,,,,,,,,,,,,,,,
102834,1495381606201,,,,,,,,0.01,0.08,1.02,-2.0,-0.8,-0.0,1540,472,,,,,,,,,,,,,,,,,,,
102854,1495381606221,,,,,,,,0.02,0.09,1.03,-1.9,-1.2,0.0,1560,477,,,,,,,,,,,,,,,,,,,
102874,1495381606241,0,65.3,,92.8,61,84.0,,0.01,0.08,1.03,-1.9,-1.1,0.0,1560,472,1,1,3.263,1,39.538788,-122.33242,8.23,0.009,319.8,6,3,2.5,0,0.0,-1,0.0,0.0,0.0,0
102894,1495381606261,,,,,,,,0.01,0.09,1.02,-1.9,-1.1,0.2,1540,477,,,,,,,,,,,,,,,,,,,
102914,1495381606281,,,,,,,,0.01,0.09,1.04,-1.9,-1.3,0.2,1540,474,,,,,,,,,,,,,,,,,,,
102934,1495381606301,,,,,,,,0.03,0.1,1.04,-1.9,-0.9,0.2,1540,471,,,,,,,,,,,,,,,,,,,
102954,1495381606321,,,,,,,,0.01,0.1,1.04,-1.9,-1.3,0.1,1520,471,,,,,,,,,,,,,,,,,,,
102974,1495381606341,,,,,59,,,0.02,0.1,1.04,-1.9,-0.9,0.0,1540,469,1,1,3.256,1,39.538784,-122.33242,8.39,0.009,319.7,6,3,2.5,0,0.0,-1,0.0,0.0,0.0,0
102994,1495381606361,,,,,,,,0.02,0.1,1.04,-1.9,-1.0,-0.3,1520,469,,,,,,,,,,,,,,,,,,,
103014,1495381606381,,,,,,,,0.01,0.09,1.03,-1.9,-0.6,-0.4,1540,468,,,,,,,,,,,,,,,,,,,
103034,1495381606401,,,,,,,,0.02,0.09,1.04,-1.9,-0.9,-0.4,1520,469,,,,,,,,,,,,,,,,,,,
103054,1495381606421,,,,,,,,0.01,0.09,1.02,-1.9,-0.6,-0.4,1520,468,,,,,,,,,,,,,,,,,,,
103074,1495381606441,0,67.1,0.2,94.2,59,84.6,14.86,0.01,0.08,1.03,-2.0,-0.7,-0.3,1520,469,1,1,3.277,1,39.53878,-122.33242,8.16,0.01,319.4,6,3,2.5,0,0.0,-1,0.0,0.0,0.0,0
103094,1495381606461,,,,,,,,0.01,0.09,1.02,-2.0,-0.9,-0.3,1540,468,,,,,,,,,,,,,,,,,,,
103114,1495381606481,,,,,,,,0.02,0.08,1.0,-2.0,-0.7,-0.1,1520,471,,,,,,,,,,,,,,,,,,,
103134,1495381606499,,,,,,,,0.01,0.07,1.01,-2.0,-0.9,-0.2,1520,469,,,,,,,,,,,,,,,,,,,
103154,1495381606519,,,,,,,,0.02,0.08,1.0,-2.0,-0.6,-0.0,1540,471,,,,,,,,,,,,,,,,,,,
103174,1495381606539,,,,,61,,,0.02,0.08,1.01,-2.1,-1.1,-0.0,1540,471,1,1,3.284,1,39.538776,-122.33242,8.23,0.01,319.3,6,3,2.5,0,0.0,-1,0.0,0.0,0.0,0
103194,1495381606559,,,,,,,,0.03,0.07,1.01,-2.0,-0.7,-0.0,1540,472,,,,,,,,,,,,,,,,,,,
103214,1495381606579,,,,,,,,0.02,0.09,1.0,-2.0,-1.2,-0.1,1540,474,,,,,,,,,,,,,,,,,,,
103234,1495381606597,,,,,,,,0.03,0.08,0.99,-2.0,-0.6,0.0,1540,474,,,,,,,,,,,,,,,,,,,
103254,1495381606617,,,,,,,,0.02,0.09,1.01,-1.9,-0.8,-0.0,1560,474,,,,,,,,,,,,,,,,,,,
103274,1495381606637,0,64.7,,93.0,62,83.8,,0.02,0.09,0.99,-1.9,-0.7,0.0,1560,471,1,1,3.263,1,39.538776,-122.33242,8.23,0.01,319.5,6,3,2.5,0,0.0,-1,0.0,0.0,0.0,0
103294,1495381606657,,,,,,,,0.03,0.1,0.99,-2.0,-0.9,0.1,1540,477,,,,,,,,,,,,,,,,,,,
103314,1495381606677,,,,,,,,0.02,0.09,1.0,-2.0,-0.9,0.1,1560,472,,,,,,,,,,,,,,,,,,,
103334,1495381606697,,,,,,,,0.03,0.09,0.98,-2.0,-0.8,0.1,1560,472,,,,,,,,,,,,,,,,,,,
103354,1495381606717,,,,,,,,0.02,0.09,0.98,-2.0,-1.2,0.0,1540,474,,,,,,,,,,,,,,,,,,,
103374,1495381606737,,,,,62,,,0.03,0.08,1.01,-1.9,-0.7,-0.1,1540,472,1,1,3.277,1,39.538773,-122.33242,8.27,0.01,319.6,6,3,2.5,0,0.0,-1,0.0,0.0,0.0,0
103394,1495381606757,,,,,,,,0.03,0.09,1.0,-1.9,-1.1,-0.2,1540,472,,,,,,,,,,,,,,,,,,,
103414,1495381606777,,,,,,,,0.03,0.08,0.98,-1.9,-0.6,-0.1,1560,471,,,,,,,,,,,,,,,,,,,
103434,1495381606797,,,,,,,,0.02,0.08,0.99,-1.9,-0.7,-0.0,1540,472,,,,,,,,,,,,,,,,,,,
103454,1495381606817,,,,,,,,0.01,0.07,0.98,-1.9,-0.6,0.0,1540,471,,,,,,,,,,,,,,,,,,,
103474,1495381606837,0,66.8,,93.4,64,83.5,,0.01,0.08,0.99,-1.9,-0.8,0.1,1540,472,1,1,3.305,1,39.538769,-122.33242,8.37,0.011,319.7,6,3,2.5,0,0.0,-1,0.0,0.0,0.0,0
103494,1495381606857,,,,,,,,0.0,0.07,0.99,-1.9,-0.8,0.0,1540,471,,,,,,,,,,,,,,,,,,,
103514,1495381606877,,,,,,,,0.02,0.07,0.98,-2.0,-0.6,0.1,1540,471,,,,,,,,,,,,,,,,,,,
103534,1495381606901,,,,,,,,0.01,0.08,0.99,-2.0,-1.0,-0.0,1540,471,,,,,,,,,,,,,,,,,,,
103554,1495381606921,,,,,,,,0.02,0.08,0.99,-2.0,-0.5,0.0,1540,469,,,,,,,,,,,,,,,,,,,
103574,1495381606941,,,,,66,,,0.01,0.08,1.0,-2.0,-0.8,0.0,1540,471,1,1,3.277,1,39.538765,-122.33242,8.28,0.011,319.8,6,3,2.5,0,0.0,-1,0.0,0.0,0.0,0
103594,1495381606961,,,,,,,,0.02,0.07,1.0,-1.9,-0.2,0.3,1540,469,,,,,,,,,,,,,,,,,,,
103614,1495381606981,,,,,,,,0.02,0.07,1.0,-1.9,-0.3,0.2,1540,472,,,,,,,,,,,,,,,,,,,
103634,1495381606991,,,,,,,,0.0,0.06,1.0,-1.9,0.1,0.2,1540,471,,,,,,,,,,,,,,,,,,,
103654,1495381607011,,,,,,,,0.01,0.07,1.02,-1.9,-0.1,0.2,1540,474,,,,,,,,,,,,,,,,,,,
103674,1495381607031,0,67.1,,94.8,66,85.2,,0.01,0.07,1.01,-1.8,0.0,0.0,1540,472,1,1,3.277,1,39.538761,-122.33242,8.21,0.011,319.8,6,3,2.5,0,0.0,-1,0.0,0.0,0.0,0
103694,1495381607051,,,,,,,,0.01,0.08,1.02,-1.9,-0.1,-0.1,1540,472,,,,,,,,,,,,,,,,,,,
103714,1495381607071,,,,,,,,0.0,0.09,1.03,-1.9,-0.5,-0.3,1540,471,,,,,,,,,,,,,,,,,,,
103734,1495381607103,,,,,,,,0.01,0.08,1.02,-1.9,-0.2,-0.3,1540,474,,,,,,,,,,,,,,,,,,,
103754,1495381607123,,,,,,,,-0.0,0.08,1.03,-1.9,-0.6,-0.3,1540,477,,,,,,,,,,,,,,,,,,,
103774,1495381607143,,,,,64,,,0.01,0.08,1.03,-1.9,-0.2,-0.2,1560,474,1,1,3.263,1,39.538757,-122.33242,8.25,0.011,319.8,6,3,2.5,0,0.0,-1,0.0,0.0,0.0,0
103794,1495381607163,,,,,,,,0.0,0.08,1.02,-1.9,-0.5,-0.1,1560,474,,,,,,,,,,,,,,,,,,,
103814,1495381607183,,,,,,,,0.0,0.07,1.02,-1.9,-0.0,0.0,1540,472,,,,,,,,,,,,,,,,,,,
103834,1495381607202,,,,,,,,0.02,0.08,1.03,-2.0,-0.4,0.2,1540,474,,,,,,,,,,,,,,,,,,,
103854,1495381607222,,,,,,,,0.01,0.07,1.02,-2.0,-0.0,0.1,1540,474,,,,,,,,,,,,,,,,,,,
103874,1495381607242,0,67.4,,95.3,69,85.5,,0.02,0.07,1.02,-2.0,-0.2,0.1,1560,477,1,1,3.263,1,39.538757,-122.33242,8.16,0.011,319.7,6,3,2.5,0,0.0,-1,0.0,0.0,0.0,0
103894,1495381607262,,,,,,,,0.01,0.08,1.02,-2.1,-0.2,0.0,1560,477,,,,,,,,,,,,,,,,,,,
103914,1495381607282,,,,,,,,0.03,0.08,1.02,-2.1,0.1,-0.0,1540,477,,,,,,,,,,,,,,,,,,,
103934,1495381607298,,,,,,,,0.01,0.09,1.01,-2.1,-0.3,-0.1,1540,474,,,,,,,,,,,,,,,,,,,
103954,1495381607318,,,,,,,,0.02,0.09,1.02,-2.0,0.0,-0.1,1540,471,,,,,,,,,,,,,,,,,,,
103974,1495381607338,,,,,65,,,0.01,0.1,1.01,-2.1,-0.2,-0.2,1540,472,1,1,3.256,1,39.538754,-122.33242,8.34,0.012,319.7,6,3,2.5,0,0.0,-1,0.0,0.0,0.0,0
103994,1495381607358,,,,,,,,0.0,0.08,1.0,-2.1,0.1,-0.2,1540,469,,,,,,,,,,,,,,,,,,,
104014,1495381607378,,,,,,,,0.01,0.09,1.01,-2.1,-0.4,-0.1,1540,472,,,,,,,,,,,,,,,,,,,
104034,1495381607402,,,,,,,,0.01,0.09,1.0,-2.2,-0.3,-0.2,1540,469,,,,,,,,,,,,,,,,,,,
104054,1495381607422,,,,,,,,0.01,0.09,1.0,-2.3,-0.6,-0.2,1540,472,,,,,,,,,,,,,,,,,,,
104074,1495381607442,0,67.1,0.1,95.0,63,85.1,14.75,0.0,0.1,1.01,-2.3,-0.8,-0.3,1520,469,1,1,3.277,1,39.53875,-122.33242,8.43,0.012,319.6,6,3,2.5,0,0.0,-1,0.0,0.0,0.0,0
104094,1495381607462,,,,,,,,0.01,0.09,1.01,-2.4,-0.6,-0.2,1540,469,,,,,,,,,,,,,,,,,,,
104114,1495381607482,,,,,,,,0.01,0.09,1.01,-2.4,-0.8,-0.1,1540,472,,,,,,,,,,,,,,,,,,,
104134,1495381607500,,,,,,,,0.02,0.09,1.01,-2.4,-0.6,0.0,1540,472,,,,,,,,,,,,,,,,,,,
104154,1495381607520,,,,,,,,0.01,0.1,1.02,-2.4,-1.0,-0.0,1540,474,,,,,,,,,,,,,,,,,,,
104174,1495381607540,,,,,64,,,0.01,0.09,1.02,-2.4,-0.3,-0.0,1540,472,1,1,3.277,1,39.538746,-122.33242,8.19,0.012,319.5,6,3,2.5,0,0.0,-1,0.0,0.0,0.0,0
104194,1495381607560,,,,,,,,0.02,0.11,1.03,-2.4,-0.7,-0.1,1540,477,,,,,,,,,,,,,,,,,,,
104214,1495381607580,,,,,,,,0.01,0.1,1.02,-2.4,-0.4,-0.2,1540,474,,,,,,,,,,,,,,,,,,,
104234,1495381607598,,,,,,,,0.02,0.1,1.04,-2.4,-0.6,-0.3,1540,474,,,,,,,,,,,,,,,,,,,
104254,1495381607618,,,,,,,,0.0,0.09,1.03,-2.3,-0.6,-0.4,1560,472,,,,,,,,,,,,,,,,,,,
104274,1495381607638,0,66.8,,95.0,66,84.6,,0.02,0.09,1.03,-2.4,-0.5,-0.2,1540,474,1,1,3.256,1,39.538742,-122.33242,8.3,0.012,319.4,6,3,2.5,0,0.0,-1,0.0,0.0,0.0,0
104294,1495381607658,,,,,,,,0.0,0.09,1.04,-2.4,-0.8,-0.2,1540,474,,,,,,,,,,,,,,,,,,,
104314,1495381607678,,,,,,,,0.01,0.1,1.03,-2.4,-0.5,-0.0,1540,477,,,,,,,,,,,,,,,,,,,
104334,1495381607698,,,,,,,,0.01,0.1,1.03,-2.4,-0.8,-0.0,1560,472,,,,,,,,,,,,,,,,,,,
104354,1495381607718,,,,,,,,0.01,0.08,1.03,-2.4,-0.4,0.0,1540,474,,,,,,,,,,,,,,,,,,,
104374,1495381607738,,,,,63,,,0.01,0.08,1.03,-2.3,-0.7,-0.1,1540,477,1,1,3.256,1,39.538738,-122.33242,8.3,0.013,319.3,6,3,2.5,0,0.0,-1,0.0,0.0,0.0,0
104394,1495381607758,,,,,,,,-0.0,0.07,1.01,-2.3,-0.5,-0.1,1540,472,,,,,,,,,,,,,,,,,,,
104414,1495381607778,,,,,,,,0.01,0.08,1.01,-2.3,-0.9,-0.1,1560,477,,,,,,,,,,,,,,,,,,,
104434,1495381607798,,,,,,,,-0.0,0.08,1.0,-2.3,-0.8,-0.1,1540,474,,,,,,,,,,,,,,,,,,,
104454,1495381607818,,,,,,,,0.0,0.08,1.01,-2.2,-0.7,0.0,1540,477,,,,,,,,,,,,,,,,,,,
104474,1495381607838,0,66.9,,95.1,66,85.2,,0.0,0.09,1.02,-2.3,-1.0,-0.1,1560,474,1,1,3.298,1,39.538738,-122.33242,8.34,0.013,319.2,6,3,2.5,0,0.0,-1,0.0,0.0,0.0,0
104494,1495381607858,,,,,,,,0.01,0.1,1.02,-2.3,-0.7,-0.1,1560,474,,,,,,,,,,,,,,,,,,,
104514,1495381607878,,,,,,,,0.0,0.1,1.03,-2.3,-0.9,-0.2,1560,477,,,,,,,,,,,,,,,,,,,
104534,1495381607902,,,,,,,,0.01,0.09,1.03,-2.3,-0.5,-0.2,1540,472,,,,,,,,,,,,,,,,,,,
104554,1495381607922,,,,,,,,0.01,0.1,1.03,-2.3,-1.1,-0.3,1540,474,,,,,,,,,,,,,,,,,,,
104574,1495381607942,,,,,70,,,-0.0,0.09,1.01,-2.3,-0.8,-0.3,1540,471,1,1,3.298,1,39.538734,-122.33242,8.26,0.013,319.1,6,3,2.5,0,0.0,-1,0.0,0.0,0.0,0
104594,1495381607962,,,,,,,,0.0,0.1,1.03,-2.3,-0.9,-0.3,1540,472,,,,,,,,,,,,,,,,,,,
104614,1495381607982,,,,,,,,-0.01,0.1,1.02,-2.4,-1.0,-0.3,1540,469,,,,,,,,,,,,,,,,,,,
104634,1495381607994,,,,,,,,0.0,0.1,1.02,-2.4,-0.8,-0.0,1540,471,,,,,,,,,,,,,,,,,,,
104654,1495381608014,,,,,,,,-0.0,0.1,1.03,-2.4,-1.0,-0.1,1540,472,,,,,,,,,,,,,,,,,,,
104674,1495381608034,0,64.7,,93.6,66,84.3,,0.0,0.11,1.02,-2.4,-0.8,0.1,1540,472,1,1,3.277,1,39.538731,-122.33242,8.4,0.013,319.1,6,3,2.5,0,0.0,-1,0.0,0.0,0.0,0
104694,1495381608054,,,,,,,,0.0,0.11,1.02,-2.4,-1.1,-0.0,1540,477,,,,,,,,,,,,,,,,,,,
104714,1495381608074,,,,,,,,0.01,0.1,1.03,-2.4,-0.6,-0.1,1540,472,,,,,,,,,,,,,,,,,,,
104734,1495381608102,,,,,,,,0.01,0.11,1.03,-2.3,-1.1,-0.2,1540,477,,,,,,,,,,,,,,,,,,,
104754,1495381608122,,,,,,,,0.02,0.1,1.03,-2.3,-0.7,-0.2,1560,474,,,,,,,,,,,,,,,,,,,
104774,1495381608142,,,,,66,,,0.02,0.11,1.05,-2.3,-0.9,-0.3,1560,477,1,1,3.256,1,39.538727,-122.33242,8.37,0.014,318.9,6,3,2.5,0,0.0,-1,0.0,0.0,0.0,0
104794,1495381608162,,,,,,,,0.0,0.11,1.04,-2.3,-0.8,-0.3,1560,477,,,,,,,,,,,,,,,,,,,
104814,1495381608182,,,,,,,,0.02,0.11,1.04,-2.4,-0.7,-0.2,1560,480,,,,,,,,,,,,,,,,,,,
104834,1495381608201,,,,,,,,0.01,0.11,1.06,-2.4,-0.9,-0.2,1560,477,,,,,,,,,,,,,,,,,,,
104854,1495381608221,,,,,,,,0.01,0.11,1.04,-2.4,-0.7,-0.1,1560,477,,,,,,,,,,,,,,,,,,,
104874,1495381608241,0,66.9,,95.2,68,84.9,,0.01,0.11,1.03,-2.4,-1.0,-0.2,1560,478,1,1,3.277,1,39.538719,-122.33242,8.36,0.014,318.7,6,3,2.5,0,0.0,-1,0.0,0.0,0.0,0
104894,1495381608261,,,,,,,,0.01,0.1,1.04,-2.3,-0.6,-0.2,1560,477,,,,,,,,,,,,,,,,,,,
104914,1495381608281,,,,,,,,0.02,0.1,1.03,-2.3,-1.1,-0.2,1560,478,,,,,,,,,,,,,,,,,,,
104934,1495381608301,,,,,,,,0.01,0.09,1.0,-2.2,-0.7,-0.2,1560,477,,,,,,,,,,,,,,,,,,,
104954,1495381608321,,,,,,,,0.02,0.09,1.01,-2.2,-0.9,-0.1,1560,478,,,,,,,,,,,,,,,,,,,
104974,1495381608341,,,,,63,,,0.01,0.09,1.02,-2.2,-1.2,-0.1,1560,477,1,1,3.277,1,39.538715,-122.33242,8.37,0.014,318.6,6,3,2.5,0,0.0,-1,0.0,0.0,0.0,0
104994,1495381608361,,,,,,,,0.02,0.08,1.01,-2.3,-0.8,-0.1,1560,477,,,,,,,,,,,,,,,,,,,
105014,1495381608381,,,,,,,,0.01,0.08,1.01,-2.3,-1.1,-0.2,1560,477,,,,,,,,,,,,,,,,,,,
105034,1495381608401,,,,,,,,0.01,0.08,1.01,-2.2,-0.6,-0.1,1560,477,,,,,,,,,,,,,,,,,,,
105054,1495381608421,,,,,,,,0.02,0.09,1.02,-2.2,-0.9,-0.1,1560,477,,,,,,,,,,,,,,,,,,,
105074,1495381608441,0,66.9,0.1,95.7,68,85.4,14.8,0.01,0.08,1.0,-2.2,-0.6,-0.0,1540,472,1,1,3.298,1,39.538715,-122.33242,8.36,0.014,318.4,6,3,2.5,0,0.0,-1,0.0,0.0,0.0,0
105094,1495381608461,,,,,,,,0.01,0.09,1.01,-2.2,-0.9,-0.0,1560,474,,,,,,,,,,,,,,,,,,,
105114,1495381608481,,,,,,,,0.01,0.09,1.01,-2.2,-1.0,-0.0,1560,472,,,,,,,,,,,,,,,,,,,
105134,1495381608499,,,,,,,,0.02,0.09,0.99,-2.3,-0.8,0.0,1540,474,,,,,,,,,,,,,,,,,,,
105154,1495381608519,,,,,,,,0.02,0.1,1.0,-2.3,-1.3,-0.0,1560,474,,,,,,,,,,,,,,,,,,,
105174,1495381608539,,,,,63,,,0.03,0.1,1.0,-2.3,-0.9,0.0,1560,474,1,1,3.298,1,39.538712,-122.33242,8.28,0.014,318.3,6,3,2.5,0,0.0,-1,0.0,0.0,0.0,0
105194,1495381608559,,,,,,,,0.03,0.11,0.99,-2.3,-1.3,-0.0,1560,478,,,,,,,,,,,,,,,,,,,
105214,1495381608579,,,,,,,,0.03,0.09,0.98,-2.2,-0.8,0.0,1560,474,,,,,,,,,,,,,,,,,,,
105234,1495381608599,,,,,,,,0.04,0.09,1.0,-2.2,-1.1,-0.1,1560,477,,,,,,,,,,,,,,,,,,,
105254,1495381608619,,,,,,,,0.02,0.09,0.97,-2.2,-0.8,-0.2,1560,477,,,,,,,,,,,,,,,,,,,
105274,1495381608639,0,67.2,,95.7,65,84.8,,0.03,0.1,0.98,-2.2,-1.0,-0.2,1560,478,1,1,3.277,1,39.538708,-122.33242,8.4,0.015,318.2,6,3,2.5,0,0.0,-1,0.0,0.0,0.0,0
105294,1495381608659,,,,,,,,0.02,0.1,1.0,-2.2,-1.1,-0.2,1560,478,,,,,,,,,,,,,,,,,,,
105314,1495381608679,,,,,,,,0.03,0.1,0.99,-2.2,-0.8,-0.1,1560,478,,,,,,,,,,,,,,,,,,,
105334,1495381608697,,,,,,,,0.03,0.1,1.0,-2.3,-1.0,-0.1,1560,480,,,,,,,,,,,,,,,,,,,
105354,1495381608717,,,,,,,,0.02,0.08,1.01,-2.3,-0.6,0.0,1560,478,,,,,,,,,,,,,,,,,,,
105374,1495381608737,,,,,66,,,0.03,0.09,1.01,-2.3,-1.0,0.1,1560,480,1,1,3.25,1,39.538704,-122.33242,8.32,0.015,318.1,6,3,2.5,0,0.0,-1,0.0,0.0,0.0,0
105394,1495381608757,,,,,,,,0.02,0.09,0.99,-2.3,-0.5,0.2,1560,477,,,,,,,,,,,,,,,,,,,
105414,1495381608777,,,,,,,,0.03,0.09,1.01,-2.3,-0.6,0.2,1560,478,,,,,,,,,,,,,,,,,,,
105434,1495381608799,,,,,,,,0.02,0.09,1.01,-2.3,-0.9,0.0,1560,478,,,,,,,,,,,,,,,,,,,
105454,1495381608819,,,,,,,,0.03,0.09,1.0,-2.2,-0.5,0.0,1560,480,,,,,,,,,,,,,,,,,,,
105474,1495381608839,0,66.2,,95.6,66,85.9,,0.02,0.09,1.01,-2.3,-0.8,-0.0,1560,480,1,1,3.277,1,39.5387,-122.33242,8.44,0.015,318.0,6,3,2.5,0,0.0,-1,0.0,0.0,0.0,0
105494,1495381608859,,,,,,,,0.02,0.09,1.02,-2.2,-0.4,0.1,1560,477,,,,,,,,,,,,,,,,,,,
105514,1495381608879,,,,,,,,0.02,0.09,1.03,-2.2,-0.8,-0.0,1560,477,,,,,,,,,,,,,,,,,,,
105534,1495381608901,,,,,,,,0.01,0.08,1.01,-2.2,-0.8,-0.1,1540,471,,,,,,,,,,,,,,,,,,,
105554,1495381608921,,,,,,,,0.02,0.09,1.02,-2.2,-1.0,-0.2,1560,474,,,,,,,,,,,,,,,,,,,
105574,1495381608941,,,,,68,,,0.01,0.09,1.01,-2.3,-1.1,-0.3,1560,472,1,1,3.277,1,39.538696,-122.33242,8.27,0.015,317.9,6,3,2.5,0,0.0,-1,0.0,0.0,0.0,0
105594,1495381608961,,,,,,,,0.02,0.09,1.0,-2.3,-0.9,-0.2,1540,477,,,,,,,,,,,,,,,,,,,
105614,1495381608981,,,,,,,,0.02,0.09,1.02,-2.3,-1.2,-0.3,1560,477,,,,,,,,,,,,,,,,,,,
105634,1495381608991,,,,,,,,0.04,0.08,1.02,-2.4,-0.6,-0.2,1560,474,,,,,,,,,,,,,,,,,,,
105654,1495381609011,,,,,,,,0.03,0.09,1.0,-2.3,-1.0,-0.1,1560,478,,,,,,,,,,,,,,,,,,,
105674,1495381609031,0,67.2,,96.1,65,85.5,,0.03,0.08,0.99,-2.3,-0.5,0.0,1560,477,1,1,3.298,1,39.538696,-122.33242,8.35,0.016,317.8,6,3,2.5,0,0.0,-1,0.0,0.0,0.0,0
105694,1495381609051,,,,,,,,0.04,0.08,1.01,-2.3,-0.7,-0.0,1560,482,,,,,,,,,,,,,,,,,,,
105714,1495381609071,,,,,,,,0.03,0.08,0.99,-2.2,-0.8,-0.1,1560,478,,,,,,,,,,,,,,,,,,,
105734,1495381609097,,,,,,,,0.04,0.08,0.98,-2.2,-0.5,0.0,1560,480,,,,,,,,,,,,,,,,,,,
105754,1495381609117,,,,,,,,0.03,0.08,1.0,-2.3,-0.9,-0.1,1560,480,,,,,,,,,,,,,,,,,,,
105774,1495381609137,,,,,65,,,0.04,0.08,1.0,-2.2,-0.7,0.0,1560,478,1,1,3.25,1,39.538692,-122.33242,8.43,0.016,317.8,6,3,2.5,0,0.0,-1,0.0,0.0,0.0,0
105794,1495381609157,,,,,,,,0.03,0.09,1.0,-2.2,-0.9,-0.1,1560,480,,,,,,,,,,,,,,,,,,,
105814,1495381609177,,,,,,,,0.02,0.08,1.0,-2.2,-0.5,-0.0,1560,480,,,,,,,,,,,,,,,,,,,
105834,1495381609200,,,,,,,,0.03,0.1,1.02,-2.3,-0.7,0.0,1560,482,,,,,,,,,,,,,,,,,,,
105854,1495381609220,,,,,,,,0.02,0.1,1.02,-2.3,-0.7,0.0,1560,478,,,,,,,,,,,,,,,,,,,
105874,1495381609240,0,66.0,,95.7,66,86.1,,0.03,0.1,0.99,-2.3,-0.7,0.2,1560,478,1,1,3.243,1,39.538689,-122.33242,8.5,0.016,317.8,6,3,2.5,0,0.0,-1,0.0,0.0,0.0,0
105894,1495381609260,,,,,,,,0.03,0.11,1.01,-2.3,-0.9,0.3,1560,480,,,,,,,,,,,,,,,,,,,
105914,1495381609280,,,,,,,,0.04,0.1,1.02,-2.3,-0.4,0.3,1560,480,,,,,,,,,,,,,,,,,,,
105934,1495381609300,,,,,,,,0.03,0.1,1.01,-2.3,-1.0,0.2,1580,482,,,,,,,,,,,,,,,,,,,
105954,1495381609320,,,,,,,,0.02,0.09,0.99,-2.2,-0.6,0.1,1560,478,,,,,,,,,,,,,,,,,,,
105974,1495381609340,,,,,70,,,0.02,0.1,1.0,-2.3,-0.7,0.0,1560,480,1,1,3.25,1,39.538681,-122.33242,8.39,0.016,317.9,6,3,2.5,0,0.0,-1,0.0,0.0,0.0,0
105994,1495381609360,,,,,,,,0.01,0.1,1.01,-2.3,-0.9,-0.0,1560,478,,,,,,,,,,,,,,,,,,,
106014,1495381609380,,,,,,,,0.03,0.1,1.0,-2.3,-0.7,0.1,1560,480,,,,,,,,,,,,,,,,,,,
106034,1495381609400,,,,,,,,0.02,0.1,1.01,-2.3,-1.1,0.0,1560,480,,,,,,,,,,,,,,,,,,,
106054,1495381609420,,,,,,,,0.02,0.1,1.01,-2.2,-0.6,0.1,1560,477,,,,,,,,,,,,,,,,,,,
106074,1495381609440,0,67.2,0.2,96.2,66,85.5,14.83,0.02,0.1,1.02,-2.3,-0.9,0.1,1560,480,1,1,3.25,1,39.538677,-122.33242,8.42,0.017,317.8,6,3,2.5,0,0.0,-1,0.0,0.0,0.0,0
106094,1495381609460,,,,,,,,0.01,0.09,1.0,-2.3,-0.5,0.1,1560,478,,,,,,,,,,,,,,,,,,,
106114,1495381609480,,,,,,,,0.02,0.1,1.01,-2.3,-0.7,0.1,1560,480,,,,,,,,,,,,,,,,,,,
106134,1495381609500,,,,,,,,0.01,0.1,1.01,-2.4,-1.0,-0.1,1560,480,,,,,,,,,,,,,,,,,,,
106154,1495381609520,,,,,,,,0.02,0.1,1.0,-2.3,-0.6,-0.1,1560,478,,,,,,,,,,,,,,,,,,,
106174,1495381609540,,,,,68,,,0.02,0.11,1.0,-2.3,-0.9,-0.2,1580,478,1,1,3.25,1,39.538677,-122.33242,8.28,0.017,317.8,6,3,2.5,0,0.0,-1,0.0,0.0,0.0,0
106194,1495381609560,,,,,,,,0.01,0.1,1.0,-2.3,-0.5,-0.2,1560,480,,,,,,,,,,,,,,,,,,,
106214,1495381609580,,,,,,,,0.02,0.11,1.01,-2.2,-0.9,-0.3,1560,480,,,,,,,,,,,,,,,,,,,
106234,1495381609600,,,,,,,,0.02,0.1,0.99,-2.2,-0.5,-0.4,1560,478,,,,,,,,,,,,,,,,,,,
106254,1495381609620,,,,,,,,0.03,0.1,0.98,-2.2,-0.6,-0.3,1560,480,,,,,,,,,,,,,,,,,,,
106274,1495381609640,0,67.1,,96.5,64,85.9,,0.02,0.1,1.0,-2.2,-0.8,-0.4,1560,477,1,1,3.25,1,39.538673,-122.33242,8.48,0.017,317.7,6,3,2.5,0,0.0,-1,0.0,0.0,0.0,0
106294,1495381609660,,,,,,,,0.03,0.1,1.0,-2.2,-0.4,-0.3,1560,478,,,,,,,,,,,,,,,,,,,
106314,1495381609680,,,,,,,,0.02,0.1,1.0,-2.2,-0.8,-0.4,1560,482,,,,,,,,,,,,,,,,,,,
106334,1495381609700,,,,,,,,0.02,0.09,1.0,-2.2,-0.3,-0.3,1580,480,,,,,,,,,,,,,,,,,,,
106354,1495381609720,,,,,,,,0.03,0.09,1.02,-2.2,-0.6,-0.3,1580,482,,,,,,,,,,,,,,,,,,,
106374,1495381609740,,,,,68,,,0.02,0.09,1.01,-2.2,-0.4,-0.3,1560,482,1,1,3.277,1,39.53867,-122.33242,8.4,0.017,317.6,6,3,2.5,0,0.0,-1,0.0,0.0,0.0,0
106394,1495381609760,,,,,,,,0.03,0.1,1.02,-2.2,-0.3,-0.0,1580,482,,,,,,,,,,,,,,,,,,,
106414,1495381609780,,,,,,,,0.02,0.09,1.04,-2.2,-0.5,-0.0,1580,482,,,,,,,,,,,,,,,,,,,
106434,1495381609800,,,,,,,,0.03,0.1,1.03,-2.2,-0.1,0.2,1580,485,,,,,,,,,,,,,,,,,,,
106454,1495381609820,,,,,,,,0.03,0.1,1.02,-2.2,-0.4,0.1,1580,485,,,,,,,,,,,,,,,,,,,
106474,1495381609840,0,67.5,,96.6,70,85.7,,0.03,0.09,1.01,-2.1,-0.1,0.2,1580,482,1,1,3.285,1,39.538666,-122.33242,8.42,0.018,317.5,6,3,2.5,0,0.0,-1,0.0,0.0,0.0,0
106494,1495381609860,,,,,,,,0.04,0.09,1.02,-2.1,-0.4,0.2,1580,486,,,,,,,,,,,,,,,,,,,
106514,1495381609880,,,,,,,,0.03,0.09,1.02,-2.1,-0.6,0.0,1580,485,,,,,,,,,,,,,,,,,,,
106534,1495381609900,,,,,,,,0.04,0.11,1.0,-2.2,-0.5,0.1,1580,482,,,,,,,,,,,,,,,,,,,
106554,1495381609920,,,,,,,,0.03,0.1,1.01,-2.2,-0.9,-0.1,1580,480,,,,,,,,,,,,,,,,,,,
106574,1495381609940,,,,,67,,,0.03,0.1,1.01,-2.2,-0.4,-0.0,1560,480,1,1,3.285,1,39.538662,-122.33242,8.38,0.018,317.4,6,3,2.5,0,0.0,-1,0.0,0.0,0.0,0
106594,1495381609960,,,,,,,,0.04,0.11,1.02,-2.2,-0.8,-0.1,1580,482,,,,,,,,,,,,,,,,,,,
106614,1495381609980,,,,,,,,0.03,0.11,1.0,-2.3,-0.5,-0.2,1580,480,,,,,,,,,,,,,,,,,,,
106634,1495381610000,,,,,,,,0.04,0.11,0.99,-2.4,-0.6,-0.1,1580,480,,,,,,,,,,,,,,,,,,,
106654,1495381610010,,,,,,,,0.03,0.12,1.01,-2.4,-0.8,-0.2,1560,480,,,,,,,,,,,,,,,,,,,
106674,1495381610030,0,65.3,,95.8,68,86.5,,0.04,0.11,1.02,-2.4,-0.3,-0.2,1560,478,1,1,3.285,1,39.538658,-122.33242,8.44,0.018,317.4,6,3,2.5,0,0.0,-1,0.0,0.0,0.0,0
106694,1495381610050,,,,,,,,0.04,0.11,1.01,-2.4,-0.7,-0.2,1560,482,,,,,,,,,,,,,,,,,,,
106714,1495381610070,,,,,,,,0.03,0.1,0.99,-2.3,-0.3,-0.1,1560,477,,,,,,,,,,,,,,,,,,,
106734,1495381610100,,,,,,,,0.03,0.09,0.99,-2.3,-0.6,-0.1,1560,482,,,,,,,,,,,,,,,,,,,
106754,1495381610120,,,,,,,,0.03,0.09,0.98,-2.3,-0.9,-0.1,1560,477,,,,,,,,,,,,,,,,,,,
106774,1495381610140,,,,,65,,,0.04,0.09,0.97,-2.3,-0.8,-0.1,1560,478,1,1,3.25,1,39.538658,-122.33242,8.45,0.018,317.3,6,3,2.5,0,0.0,-1,0.0,0.0,0.0,0
106794,1495381610160,,,,,,,,0.02,0.08,0.98,-2.3,-1.1,-0.2,1560,478,,,,,,,,,,,,,,,,,,,
106814,1495381610180,,,,,,,,0.03,0.08,0.99,-2.3,-0.8,-0.2,1560,480,,,,,,,,,,,,,,,,,,,
106834,1495381610199,,,,,,,,0.03,0.1,0.99,-2.3,-1.0,-0.3,1560,480,,,,,,,,,,,,,,,,,,,
106854,1495381610219,,,,,,,,0.02,0.08,0.98,-2.2,-0.6,-0.3,1560,478,,,,,,,,,,,,,,,,,,,
106874,1495381610239,0,65.4,,94.7,69,84.5,,0.03,0.09,1.0,-2.2,-0.6,-0.3,1560,482,1,1,3.25,1,39.538654,-122.33242,8.59,0.018,317.3,6,3,2.5,0,0.0,-1,0.0,0.0,0.0,0
106894,1495381610259,,,,,,,,0.02,0.09,1.01,-2.3,-0.6,-0.3,1580,480,,,,,,,,,,,,,,,,,,,
106914,1495381610279,,,,,,,,0.03,0.1,1.0,-2.3,-0.5,-0.2,1580,485,,,,,,,,,,,,,,,,,,,
106934,1495381610301,,,,,,,,0.02,0.1,1.01,-2.3,-0.7,-0.2,1580,482,,,,,,,,,,,,,,,,,,,
106954,1495381610321,,,,,,,,0.03,0.09,1.02,-2.2,-0.1,-0.1,1580,485,,,,,,,,,,,,,,,,,,,
106974,1495381610341,,,,,68,,,0.04,0.09,1.01,-2.2,-0.5,-0.1,1580,486,1,1,3.292,1,39.53865,-122.33242,8.47,0.019,317.2,6,3,2.5,0,0.0,-1,0.0,0.0,0.0,0
106994,1495381610361,,,,,,,,0.03,0.08,1.0,-2.2,-0.3,-0.1,1580,488,,,,,,,,,,,,,,,,,,,
107014,1495381610381,,,,,,,,0.05,0.09,0.98,-2.3,-0.4,-0.0,1600,486,,,,,,,,,,,,,,,,,,,
107034,1495381610401,,,,,,,,0.04,0.1,1.0,-2.3,-0.8,-0.1,1580,486,,,,,,,,,,,,,,,,,,,
107054,1495381610421,,,,,,,,0.04,0.08,1.02,-2.3,-0.2,-0.1,1580,488,,,,,,,,,,,,,,,,,,,
107074,1495381610441,0,64.8,0.1,95.6,65,86.2,14.86,0.04,0.1,1.02,-2.3,-0.8,-0.2,1580,486,1,1,3.292,1,39.538647,-122.33242,8.41,0.019,317.2,6,3,2.5,0,0.0,-1,0.0,0.0,0.0,0
107094,1495381610461,,,,,,,,0.03,0.09,1.0,-2.3,-0.3,-0.2,1580,485,,,,,,,,,,,,,,,,,,,
107114,1495381610481,,,,,,,,0.05,0.09,1.0,-2.4,-0.4,-0.0,1580,485,,,,,,,,,,,,,,,,,,,
107134,1495381610499,,,,,,,,0.03,0.1,1.01,-2.4,-0.7,-0.1,1580,485,,,,,,,,,,,,,,,,,,,
107154,1495381610519,,,,,,,,0.04,0.09,1.01,-2.4,-0.1,-0.0,1580,480,,,,,,,,,,,,,,,,,,,
107174,1495381610539,,,,,69,,,0.04,0.1,1.01,-2.4,-0.6,-0.1,1560,482,1,1,3.251,1,39.538643,-122.33242,8.32,0.019,317.2,6,3,2.5,0,0.0,-1,0.0,0.0,0.0,0
107194,1495381610559,,,,,,,,0.03,0.09,0.99,-2.3,-0.2,-0.1,1560,480,,,,,,,,,,,,,,,,,,,
107214,1495381610579,,,,,,,,0.04,0.09,1.0,-2.3,-0.3,-0.1,1560,478,,,,,,,,,,,,,,,,,,,
107234,1495381610601,,,,,,,,0.03,0.09,1.01,-2.3,-0.5,-0.2,1560,477,,,,,,,,,,,,,,,,,,,
107254,1495381610621,,,,,,,,0.03,0.09,1.0,-2.3,-0.2,-0.1,1560,480,,,,,,,,,,,,,,,,,,,
107274,1495381610641,0,66.8,,95.7,67,84.5,,0.03,0.09,1.0,-2.4,-0.6,-0.2,1560,480,1,1,3.25,1,39.538639,-122.33242,8.38,0.019,317.1,6,3,2.5,0,0.0,-1,0.0,0.0,0.0,0
107294,1495381610661,,,,,,,,0.03,0.09,1.01,-2.3,-0.4,-0.2,1560,478,,,,,,,,,,,,,,,,,,,
107314,1495381610681,,,,,,,,0.03,0.09,1.03,-2.3,-0.6,-0.4,1560,480,,,,,,,,,,,,,,,,,,,
107334,1495381610701,,,,,,,,0.02,0.09,1.02,-2.3,-0.4,-0.5,1560,477,,,,,,,,,,,,,,,,,,,
107354,1495381610721,,,,,,,,0.03,0.09,1.01,-2.4,-0.4,-0.5,1560,482,,,,,,,,,,,,,,,,,,,
107374,1495381610741,,,,,69,,,0.03,0.09,1.02,-2.4,-0.4,-0.5,1580,480,1,1,3.305,1,39.538639,-122.33242,8.46,0.02,317.0,6,3,2.5,0,0.0,-1,0.0,0.0,0.0,0
107394,1495381610761,,,,,,,,0.04,0.09,1.0,-2.5,-0.1,-0.3,1580,482,,,,,,,,,,,,,,,,,,,
107414,1495381610781,,,,,,,,0.04,0.1,1.0,-2.5,-0.2,-0.2,1580,485,,,,,,,,,,,,,,,,,,,
107434,1495381610801,,,,,,,,0.04,0.08,1.01,-2.5,0.2,-0.1,1580,485,,,,,,,,,,,,,,,,,,,
107454,1495381610821,,,,,,,,0.04,0.08,1.02,-2.5,-0.1,-0.1,1600,488,,,,,,,,,,,,,,,,,,,
107474,1495381610841,0,65.4,,95.1,72,84.9,,0.03,0.08,1.02,-2.5,0.1,-0.2,1600,485,1,1,3.285,1,39.538635,-122.332405,8.42,0.02,316.9,6,3,2.5,0,0.0,-1,0.0,0.0,0.0,0
107494,1495381610861,,,,,,,,0.05,0.09,1.0,-2.5,0.2,-0.1,1580,491,,,,,,,,,,,,,,,,,,,
107514,1495381610881,,,,,,,,0.04,0.1,1.01,-2.5,-0.3,-0.1,1580,491,,,,,,,,,,,,,,,,,,,
107534,1495381610901,,,,,,,,0.04,0.08,1.02,-2.4,0.1,-0.0,1600,486,,,,,,,,,,,,,,,,,,,
107554,1495381610921,,,,,,,,0.05,0.1,1.02,-2.4,-0.4,-0.0,1580,491,,,,,,,,,,,,,,,,,,,
107574,1495381610941,,,,,66,,,0.04,0.09,1.02,-2.5,-0.2,-0.1,1580,491,1,1,3.251,1,39.538631,-122.332405,8.42,0.02,316.8,6,3,2.5,0,0.0,-1,0.0,0.0,0.0,0
107594,1495381610961,,,,,,,,0.04,0.1,1.01,-2.5,-0.2,-0.0,1600,488,,,,,,,,,,,,,,,,,,,
107614,1495381610981,,,,,,,,0.03,0.1,1.02,-2.5,-0.5,-0.2,1600,488,,,,,,,,,,,,,,,,,,,
107634,1495381610991,,,,,,,,0.02,0.09,1.03,-2.5,0.0,-0.1,1600,485,,,,,,,,,,,,,,,,,,,
107654,1495381611011,,,,,,,,0.03,0.1,1.04,-2.5,-0.6,-0.2,1580,486,,,,,,,,,,,,,,,,,,,
107674,1495381611031,0,65.0,,95.2,68,86.0,,0.02,0.11,1.02,-2.6,-0.5,-0.2,1580,480,1,1,3.285,1,39.538628,-122.332405,8.36,0.02,316.8,6,3,2.5,0,0.0,-1,0.0,0.0,0.0,0
107694,1495381611051,,,,,,,,0.04,0.11,1.0,-2.6,-0.6,-0.1,1580,482,,,,,,,,,,,,,,,,,,,
107714,1495381611071,,,,,,,,0.02,0.1,1.01,-2.6,-0.9,-0.1,1560,482,,,,,,,,,,,,,,,,,,,
107734,1495381611101,,,,,,,,0.03,0.1,1.01,-2.6,-0.3,0.0,1560,478,,,,,,,,,,,,,,,,,,,
107754,1495381611121,,,,,,,,0.04,0.11,1.02,-2.5,-1.1,-0.0,1560,480,,,,,,,,,,,,,,,,,,,
107774,1495381611141,,,,,72,,,0.03,0.1,1.0,-2.5,-0.8,-0.1,1560,478,1,1,3.285,1,39.538624,-122.332405,8.48,0.021,316.6,6,3,2.5,0,0.0,-1,0.0,0.0,0.0,0
107794,1495381611161,,,,,,,,0.03,0.11,1.01,-2.6,-0.8,-0.1,1560,480,,,,,,,,,,,,,,,,,,,
107814,1495381611181,,,,,,,,0.02,0.11,1.02,-2.6,-1.0,-0.2,1560,480,,,,,,,,,,,,,,,,,,,
107834,1495381611200,,,,,,,,0.04,0.1,1.02,-2.6,-0.4,-0.2,1580,485,,,,,,,,,,,,,,,,,,,
107854,1495381611220,,,,,,,,0.03,0.1,1.02,-2.6,-0.7,-0.2,1560,485,,,,,,,,,,,,,,,,,,,
107874,1495381611240,0,65.0,,95.4,66,85.9,,0.03,0.09,1.01,-2.6,-0.2,-0.1,1580,485,1,1,3.243,1,39.53862,-122.332405,8.48,0.021,316.5,6,3,2.5,0,0.0,-1,0.0,0.0,0.0,0
107894,1495381611260,,,,,,,,0.03,0.1,1.02,-2.6,-0.3,-0.1,1580,485,,,,,,,,,,,,,,,,,,,
107914,1495381611280,,,,,,,,0.03,0.1,0.99,-2.6,-0.2,0.1,1580,485,,,,,,,,,,,,,,,,,,,
107934,1495381611300,,,,,,,,0.05,0.1,0.98,-2.7,-0.1,0.2,1580,485,,,,,,,,,,,,,,,,,,,
107954,1495381611320,,,,,,,,0.03,0.1,0.98,-2.7,-0.5,0.2,1580,486,,,,,,,,,,,,,,,,,,,
107974,1495381611340,,,,,66,,,0.04,0.1,0.99,-2.8,-0.1,0.2,1580,488,1,1,3.285,1,39.538616,-122.332405,8.58,0.021,316.4,6,3,2.5,0,0.0,-1,0.0,0.0,0.0,0
107994,1495381611360,,,,,,,,0.04,0.1,1.01,-2.8,-0.4,0.1,1600,486,,,,,,,,,,,,,,,,,,,
108014,1495381611380,,,,,,,,0.03,0.09,0.99,-2.8,-0.3,0.2,1600,486,,,,,,,,,,,,,,,,,,,
108034,1495381611400,,,,,,,,0.04,0.09,0.98,-2.8,-0.3,0.3,1580,488,,,,,,,,,,,,,,,,,,,
108054,1495381611420,,,,,,,,0.03,0.1,1.0,-2.9,-0.6,0.1,1600,492,,,,,,,,,,,,,,,,,,,
108074,1495381611440,0,66.6,0.2,97.5,72,87.0,14.83,0.04,0.09,1.01,-2.9,-0.3,0.1,1600,491,1,1,3.265,1,39.538616,-122.332405,8.54,0.021,316.3,6,3,2.5,0,0.0,-1,0.0,0.0,0.0,0
108094,1495381611460,,,,,,,,0.05,0.1,1.01,-2.9,-0.7,-0.1,1600,491,,,,,,,,,,,,,,,,,,,
108114,1495381611480,,,,,,,,0.03,0.1,0.99,-2.9,-0.7,-0.2,1600,491,,,,,,,,,,,,,,,,,,,
108134,1495381611500,,,,,,,,0.04,0.1,0.98,-3.0,-0.4,-0.1,1600,488,,,,,,,,,,,,,,,,,,,
108154,1495381611520,,,,,,,,0.03,0.1,0.98,-3.1,-0.8,-0.2,1580,488,,,,,,,,,,,,,,,,,,,
108174,1495381611540,,,,,71,,,0.03,0.1,0.99,-3.0,-0.2,-0.1,1600,485,1,1,3.265,1,39.538612,-122.332405,8.47,0.022,316.1,6,3,2.5,0,0.0,-1,0.0,0.0,0.0,0
108194,1495381611560,,,,,,,,0.03,0.09,1.01,-3.1,-0.6,-0.2,1580,486,,,,,,,,,,,,,,,,,,,
108214,1495381611580,,,,,,,,0.02,0.09,1.0,-3.1,-0.5,-0.2,1580,482,,,,,,,,,,,,,,,,,,,
108234,1495381611600,,,,,,,,0.03,0.09,0.98,-3.1,-0.3,-0.1,1580,480,,,,,,,,,,,,,,,,,,,
108254,1495381611620,,,,,,,,0.01,0.09,0.99,-3.1,-0.6,-0.2,1560,480,,,,,,,,,,,,,,,,,,,
108274,1495381611640,0,65.0,,95.6,66,85.8,,0.02,0.09,1.0,-3.1,-0.1,-0.1,1560,478,1,1,3.285,1,39.538609,-122.332405,8.39,0.022,315.8,6,3,2.5,0,0.0,-1,0.0,0.0,0.0,0
108294,1495381611660,,,,,,,,0.02,0.09,1.03,-3.1,-0.5,-0.2,1580,478,,,,,,,,,,,,,,,,,,,
108314,1495381611680,,,,,,,,0.01,0.09,1.01,-3.1,-0.2,-0.2,1560,482,,,,,,,,,,,,,,,,,,,
108334,1495381611700,,,,,,,,0.03,0.1,1.01,-3.1,-0.3,-0.2,1560,482,,,,,,,,,,,,,,,,,,,
108354,1495381611720,,,,,,,,0.02,0.11,1.01,-3.1,-0.4,-0.3,1580,480,,,,,,,,,,,,,,,,,,,
108374,1495381611740,,,,,67,,,0.03,0.12,1.0,-3.1,-0.2,-0.2,1580,482,1,1,3.223,1,39.538605,-122.332405,8.63,0.022,315.6,6,3,2.5,0,0.0,-1,0.0,0.0,0.0,0
108394,1495381611760,,,,,,,,0.03,0.12,1.01,-3.2,-0.5,-0.3,1580,485,,,,,,,,,,,,,,,,,,,
108414,1495381611780,,,,,,,,0.03,0.11,1.02,-3.1,0.0,-0.1,1580,485,,,,,,,,,,,,,,,,,,,
108434,1495381611800,,,,,,,,0.04,0.11,1.02,-3.1,-0.5,0.0,1580,488,,,,,,,,,,,,,,,,,,,
108454,1495381611820,,,,,,,,0.03,0.11,1.01,-3.1,-0.5,0.0,1580,485,,,,,,,,,,,,,,,,,,,
108474,1495381611840,0,66.2,,95.9,67,85.1,,0.04,0.11,1.0,-3.1,-0.5,0.1,1580,488,1,1,3.264,1,39.538601,-122.332405,8.47,0.022,315.4,6,3,2.5,0,0.0,-1,0.0,0.0,0.0,0
108494,1495381611860,,,,,,,,0.04,0.12,1.02,-3.2,-0.8,-0.0,1600,488,,,,,,,,,,,,,,,,,,,
108514,1495381611880,,,,,,,,0.04,0.1,1.03,-3.1,-0.3,0.0,1600,488,,,,,,,,,,,,,,,,,,,
108534,1495381611902,,,,,,,,0.05,0.11,1.04,-3.0,-0.9,-0.0,1600,491,,,,,,,,,,,,,,,,,,,
108554,1495381611922,,,,,,,,0.03,0.11,1.03,-3.0,-0.7,-0.1,1600,488,,,,,,,,,,,,,,,,,,,
108574,1495381611942,,,,,67,,,0.05,0.12,1.01,-3.0,-0.6,-0.1,1600,492,1,1,3.285,1,39.538597,-122.332405,8.44,0.022,315.3,6,3,2.5,0,0.0,-1,0.0,0.0,0.0,0
108594,1495381611962,,,,,,,,0.03,0.11,1.02,-3.0,-0.9,-0.2,1620,492,,,,,,,,,,,,,,,,,,,
108614,1495381611982,,,,,,,,0.02,0.11,1.02,-3.0,-0.4,-0.2,1600,491,,,,,,,,,,,,,,,,,,,
108634,1495381611994,,,,,,,,0.04,0.12,1.02,-3.0,-0.8,-0.3,1600,491,,,,,,,,,,,,,,,,,,,
108654,1495381612014,,,,,,,,0.02,0.12,1.02,-3.1,-0.8,-0.4,1600,486,,,,,,,,,,,,,,,,,,,
108674,1495381612034,0,67.2,,97.9,66,86.6,,0.04,0.13,1.01,-3.1,-0.5,-0.2,1580,482,1,1,3.265,1,39.538597,-122.332405,8.6,0.023,315.3,6,3,2.5,0,0.0,-1,0.0,0.0,0.0,0
108694,1495381612054,,,,,,,,0.03,0.12,1.01,-3.2,-0.8,-0.2,1580,485,,,,,,,,,,,,,,,,,,,
108714,1495381612074,,,,,,,,0.02,0.11,1.01,-3.2,-0.3,-0.2,1580,478,,,,,,,,,,,,,,,,,,,
108734,1495381612098,,,,,,,,0.03,0.11,1.03,-3.2,-0.6,-0.2,1560,480,,,,,,,,,,,,,,,,,,,
108754,1495381612118,,,,,,,,0.02,0.11,1.03,-3.2,-0.8,-0.4,1560,478,,,,,,,,,,,,,,,,,,,
108774,1495381612138,,,,,69,,,0.03,0.12,1.0,-3.2,-0.7,-0.4,1560,480,1,1,3.285,1,39.538593,-122.332405,8.67,0.023,315.3,6,3,2.5,0,0.0,-1,0.0,0.0,0.0,0
108794,1495381612158,,,,,,,,0.02,0.12,1.02,-3.2,-1.0,-0.4,1560,478,,,,,,,,,,,,,,,,,,,
108814,1495381612178,,,,,,,,0.03,0.1,1.03,-3.1,-0.3,-0.4,1560,480,,,,,,,,,,,,,,,,,,,
108834,1495381612201,,,,,,,,0.04,0.11,1.03,-3.0,-0.9,-0.5,1560,485,,,,,,,,,,,,,,,,,,,
108854,1495381612221,,,,,,,,0.03,0.1,1.0,-3.0,-0.4,-0.4,1580,482,,,,,,,,,,,,,,,,,,,
108874,1495381612241,0,65.9,,95.9,67,85.4,,0.04,0.09,1.02,-3.0,-0.5,-0.4,1580,486,1,1,3.264,1,39.538586,-122.332405,8.66,0.023,315.4,6,3,2.5,0,0.0,-1,0.0,0.0,0.0,0
108894,1495381612261,,,,,,,,0.04,0.1,1.03,-3.0,-0.8,-0.4,1600,485,,,,,,,,,,,,,,,,,,,
108914,1495381612281,,,,,,,,0.05,0.1,1.02,-3.0,-0.3,-0.3,1580,488,,,,,,,,,,,,,,,,,,,
108934,1495381612301,,,,,,,,0.04,0.1,1.01,-3.0,-0.8,-0.2,1580,488,,,,,,,,,,,,,,,,,,,
108954,1495381612321,,,,,,,,0.04,0.08,1.0,-3.0,-0.2,0.0,1580,488,,,,,,,,,,,,,,,,,,,
108974,1495381612341,,,,,68,,,0.04,0.08,1.02,-3.0,-0.5,0.1,1600,491,1,1,3.251,1,39.538582,-122.332405,8.71,0.023,315.5,6,3,2.5,0,0.0,-1,0.0,0.0,0.0,0
108994,1495381612361,,,,,,,,0.04,0.09,1.03,-3.0,-0.8,0.0,1600,491,,,,,,,,,,,,,,,,,,,
109014,1495381612381,,,,,,,,0.05,0.08,1.02,-3.0,-0.4,-0.0,1600,492,,,,,,,,,,,,,,,,,,,
109034,1495381612401,,,,,,,,0.05,0.09,1.02,-3.0,-1.0,-0.1,1620,492,,,,,,,,,,,,,,,,,,,
109054,1495381612421,,,,,,,,0.04,0.08,1.0,-2.9,-0.5,-0.1,1620,491,,,,,,,,,,,,,,,,,,,
109074,1495381612441,0,66.6,0.4,98.2,68,87.4,14.85,0.05,0.09,1.02,-2.9,-0.9,-0.2,1620,494,1,1,3.252,1,39.538578,-122.332405,8.65,0.024,315.4,6,3,2.5,0,0.0,-1,0.0,0.0,0.0,0
109094,1495381612461,,,,,,,,0.04,0.1,1.03,-2.9,-1.2,-0.3,1600,494,,,,,,,,,,,,,,,,,,,
109114,1495381612481,,,,,,,,0.05,0.09,1.02,-2.8,-0.5,-0.3,1620,492,,,,,,,,,,,,,,,,,,,
109134,1495381612503,,,,,,,,0.06,0.1,1.03,-2.9,-1.0,-0.4,1600,494,,,,,,,,,,,,,,,,,,,
109154,1495381612523,,,,,,,,0.04,0.09,1.01,-2.9,-0.7,-0.3,1600,491,,,,,,,,,,,,,,,,,,,
109174,1495381612543,,,,,70,,,0.05,0.1,1.0,-2.9,-0.6,-0.2,1600,491,1,1,3.286,1,39.538578,-122.332405,8.51,0.024,315.4,6,3,2.5,0,0.0,-1,0.0,0.0,0.0,0
109194,1495381612563,,,,,,,,0.04,0.1,1.0,-3.0,-1.0,-0.3,1600,488,,,,,,,,,,,,,,,,,,,
109214,1495381612583,,,,,,,,0.03,0.09,0.99,-3.1,-0.5,-0.3,1600,486,,,,,,,,,,,,,,,,,,,
109234,1495381612603,,,,,,,,0.05,0.09,0.99,-3.1,-0.8,-0.4,1580,486,,,,,,,,,,,,,,,,,,,
109254,1495381612623,,,,,,,,0.03,0.09,1.01,-3.1,-0.8,-0.5,1600,485,,,,,,,,,,,,,,,,,,,
109274,1495381612643,0,65.1,,97.1,70,87.4,,0.04,0.09,0.99,-3.0,-0.6,-0.5,1580,485,1,1,3.285,1,39.53857,-122.332405,9.0,0.024,316.2,6,3,2.5,0,0.0,-1,0.0,0.0,0.0,0
109294,1495381612663,,,,,,,,0.04,0.1,1.0,-3.1,-1.0,-0.5,1580,486,,,,,,,,,,,,,,,,,,,
109314,1495381612683,,,,,,,,0.02,0.08,0.99,-3.0,-0.5,-0.4,1580,482,,,,,,,,,,,,,,,,,,,
109334,1495381612703,,,,,,,,0.03,0.1,1.0,-3.0,-1.1,-0.5,1580,485,,,,,,,,,,,,,,,,,,,
109354,1495381612723,,,,,,,,0.02,0.09,0.99,-3.0,-0.9,-0.5,1580,482,,,,,,,,,,,,,,,,,,,
109374,1495381612743,,,,,66,,,0.03,0.09,0.98,-3.0,-0.7,-0.4,1580,485,1,1,3.251,1,39.538567,-122.33242,8.94,0.024,316.7,6,3,2.5,0,0.0,-1,0.0,0.0,0.0,0
109394,1495381612763,,,,,,,,0.03,0.09,1.0,-3.0,-1.1,-0.4,1580,485,,,,,,,,,,,,,,,,,,,
109414,1495381612783,,,,,,,,0.03,0.08,1.01,-3.0,-0.7,-0.4,1580,486,,,,,,,,,,,,,,,,,,,
109434,1495381612803,,,,,,,,0.04,0.09,1.0,-3.0,-1.0,-0.4,1580,486,,,,,,,,,,,,,,,,,,,
109454,1495381612823,,,,,,,,0.04,0.09,0.99,-3.0,-0.5,-0.2,1580,485,,,,,,,,,,,,,,,,,,,
109474,1495381612843,0,65.0,,96.8,67,87.2,,0.04,0.09,1.0,-3.0,-0.7,-0.1,1580,486,1,1,3.251,1,39.538559,-122.33242,8.81,0.025,317.2,6,3,2.5,0,0.0,-1,0.0,0.0,0.0,0
109494,1495381612863,,,,,,,,0.03,0.09,1.01,-2.9,-1.1,-0.2,1600,486,,,,,,,,,,,,,,,,,,,
109514,1495381612883,,,,,,,,0.04,0.09,1.01,-2.9,-0.6,-0.2,1580,486,,,,,,,,,,,,,,,,,,,
109534,1495381612903,,,,,,,,0.04,0.09,1.01,-2.9,-1.3,-0.3,1580,488,,,,,,,,,,,,,,,,,,,
109554,1495381612923,,,,,,,,0.03,0.08,1.0,-2.8,-0.8,-0.2,1580,488,,,,,,,,,,,,,,,,,,,
109574,1495381612943,,,,,70,,,0.03,0.08,1.01,-2.9,-1.1,-0.1,1600,488,1,1,3.251,1,39.538559,-122.33242,8.93,0.025,317.6,6,3,2.5,0,0.0,-1,0.0,0.0,0.0,0
109594,1495381612963,,,,,,,,0.02,0.08,1.03,-2.9,-1.3,-0.2,1600,488,,,,,,,,,,,,,,,,,,,
109614,1495381612983,,,,,,,,0.04,0.08,1.03,-2.9,-0.8,-0.2,1600,491,,,,,,,,,,,,,,,,,,,
109634,1495381612995,,,,,,,,0.04,0.09,1.02,-2.9,-1.4,-0.2,1600,492,,,,,,,,,,,,,,,,,,,
109654,1495381613015,,,,,,,,0.02,0.08,1.0,-2.9,-0.9,-0.2,1600,492,,,,,,,,,,,,,,,,,,,
109674,1495381613035,0,65.0,,97.2,70,87.4,,0.04,0.09,0.99,-3.0,-0.9,-0.1,1600,491,1,1,3.265,1,39.538551,-122.33242,8.91,0.025,318.4,6,3,2.5,0,0.0,-1,0.0,0.0,0.0,0
109694,1495381613055,,,,,,,,0.03,0.09,1.01,-3.0,-1.3,-0.2,1600,492,,,,,,,,,,,,,,,,,,,
109714,1495381613075,,,,,,,,0.04,0.09,1.01,-3.0,-0.7,-0.1,1600,492,,,,,,,,,,,,,,,,,,,
109734,1495381613101,,,,,,,,0.05,0.1,1.02,-3.0,-1.1,-0.1,1620,494,,,,,,,,,,,,,,,,,,,
109754,1495381613121,,,,,,,,0.04,0.09,1.0,-2.9,-0.7,-0.1,1620,494,,,,,,,,,,,,,,,,,,,
109774,1495381613141,,,,,70,,,0.06,0.1,0.98,-2.9,-0.6,-0.1,1620,494,1,1,3.252,1,39.538544,-122.33242,8.9,0.025,319.2,6,3,2.5,0,0.0,-1,0.0,0.0,0.0,0
109794,1495381613161,,,,,,,,0.05,0.1,1.0,-3.0,-1.0,-0.3,1620,498,,,,,,,,,,,,,,,,,,,
109814,1495381613181,,,,,,,,0.04,0.1,0.99,-2.9,-0.5,-0.2,1620,494,,,,,,,,,,,,,,,,,,,
109834,1495381613202,,,,,,,,0.05,0.1,1.0,-2.9,-0.7,-0.2,1620,497,,,,,,,,,,,,,,,,,,,
109854,1495381613222,,,,,,,,0.03,0.09,1.01,-2.9,-0.9,-0.2,1620,497,,,,,,,,,,,,,,,,,,,
109874,1495381613242,0,65.4,,97.7,71,87.7,,0.04,0.09,1.01,-2.9,-0.3,-0.1,1620,492,1,1,3.266,1,39.53854,-122.33242,9.04,0.026,320.0,6,3,2.5,0,0.0,-1,0.0,0.0,0.0,0
109894,1495381613262,,,,,,,,0.04,0.09,1.02,-2.9,-0.6,-0.2,1620,494,,,,,,,,,,,,,,,,,,,
109914,1495381613282,,,,,,,,0.02,0.08,1.02,-2.9,-0.5,-0.3,1620,498,,,,,,,,,,,,,,,,,,,
109934,1495381613302,,,,,,,,0.04,0.08,1.0,-2.9,-0.1,-0.2,1620,494,,,,,,,,,,,,,,,,,,,
109954,1495381613322,,,,,,,,0.03,0.09,1.0,-3.0,-0.5,-0.1,1600,494,,,,,,,,,,,,,,,,,,,
109974,1495381613342,,,,,72,,,0.03,0.08,0.99,-2.9,0.3,0.1,1600,491,1,1,3.266,1,39.538536,-122.33242,8.93,0.026,320.8,6,3,2.5,0,0.0,-1,0.0,0.0,0.0,0
109994,1495381613362,,,,,,,,0.03,0.08,1.0,-2.9,-0.1,0.2,1600,492,,,,,,,,,,,,,,,,,,,
110014,1495381613382,,,,,,,,0.01,0.08,1.02,-2.9,-0.4,0.1,1600,488,,,,,,,,,,,,,,,,,,,
110034,1495381613402,,,,,,,,0.02,0.07,1.03,-2.9,0.1,0.1,1600,488,,,,,,,,,,,,,,,,,,,
110054,1495381613422,,,,,,,,0.02,0.07,1.03,-2.9,-0.6,0.1,1600,492,,,,,,,,,,,,,,,,,,,
110074,1495381613442,0,65.9,0.2,96.8,70,86.0,14.74,0.01,0.07,1.01,-2.9,-0.2,0.1,1600,488,1,1,3.285,1,39.538532,-122.33242,8.84,0.026,321.0,6,3,2.5,0,0.0,-1,0.0,0.0,0.0,0
110094,1495381613462,,,,,,,,0.03,0.08,1.0,-2.9,-0.5,0.1,1600,491,,,,,,,,,,,,,,,,,,,
110114,1495381613482,,,,,,,,0.02,0.08,1.02,-3.0,-0.8,-0.0,1600,488,,,,,,,,,,,,,,,,,,,
110134,1495381613502,,,,,,,,0.02,0.08,1.02,-2.9,-0.1,0.0,1600,488,,,,,,,,,,,,,,,,,,,
110154,1495381613522,,,,,,,,0.03,0.09,1.01,-3.0,-0.7,-0.0,1600,494,,,,,,,,,,,,,,,,,,,
110174,1495381613542,,,,,70,,,0.03,0.08,1.01,-3.0,-0.5,-0.1,1600,491,1,1,3.285,1,39.538528,-122.33242,8.88,0.026,321.5,6,3,2.5,0,0.0,-1,0.0,0.0,0.0,0
110194,1495381613562,,,,,,,,0.04,0.09,1.0,-3.0,-0.3,-0.0,1600,491,,,,,,,,,,,,,,,,,,,
110214,1495381613582,,,,,,,,0.04,0.09,1.0,-3.1,-0.6,-0.1,1600,492,,,,,,,,,,,,,,,,,,,
110234,1495381613602,,,,,,,,0.03,0.08,0.99,-3.1,-0.2,-0.0,1620,491,,,,,,,,,,,,,,,,,,,
110254,1495381613622,,,,,,,,0.05,0.09,0.99,-3.1,-0.5,-0.0,1600,494,,,,,,,,,,,,,,,,,,,
110274,1495381613642,0,65.0,,96.8,68,86.9,,0.03,0.08,1.0,-3.0,-0.5,-0.1,1600,497,1,1,3.265,1,39.538525,-122.33242,8.51,0.027,321.7,6,3,2.5,0,0.0,-1,0.0,0.0,0.0,0
110294,1495381613662,,,,,,,,0.05,0.09,1.0,-3.0,-0.3,-0.1,1620,494,,,,,,,,,,,,,,,,,,,
110314,1495381613682,,,,,,,,0.03,0.09,1.01,-3.0,-0.7,-0.1,1620,494,,,,,,,,,,,,,,,,,,,
110334,1495381613702,,,,,,,,0.02,0.08,1.01,-3.0,-0.4,-0.1,1600,492,,,,,,,,,,,,,,,,,,,
110354,1495381613722,,,,,,,,0.04,0.07,1.02,-3.0,-0.3,-0.0,1600,494,,,,,,,,,,,,,,,,,,,
110374,1495381613742,,,,,66,,,0.02,0.07,1.04,-3.0,-0.5,0.0,1620,494,1,1,3.293,1,39.538517,-122.33242,8.62,0.027,321.9,6,3,2.5,0,0.0,-1,0.0,0.0,0.0,0
110394,1495381613762,,,,,,,,0.04,0.07,1.04,-2.9,0.1,0.1,1620,492,,,,,,,,,,,,,,,,,,,
110414,1495381613782,,,,,,,,0.04,0.07,1.05,-2.9,-0.4,0.1,1600,492,,,,,,,,,,,,,,,,,,,
110434,1495381613802,,,,,,,,0.02,0.06,1.03,-2.9,-0.2,0.1,1600,492,,,,,,,,,,,,,,,,,,,
110454,1495381613822,,,,,,,,0.05,0.07,1.02,-2.9,0.3,0.2,1620,492,,,,,,,,,,,,,,,,,,,
110474,1495381613842,0,67.4,,99.1,66,87.8,,0.03,0.07,1.01,-2.9,-0.3,0.2,1600,492,1,1,3.252,1,39.538517,-122.33242,8.72,0.027,322.1,6,3,2.5,0,0.0,-1,0.0,0.0,0.0,0
110494,1495381613862,,,,,,,,0.03,0.06,1.01,-2.9,0.4,0.3,1600,492,,,,,,,,,,,,,,,,,,,
110514,1495381613882,,,,,,,,0.04,0.07,1.02,-2.9,-0.2,0.3,1620,492,,,,,,,,,,,,,,,,,,,
110534,1495381613900,,,,,,,,0.03,0.07,1.03,-2.9,-0.4,0.2,1620,492,,,,,,,,,,,,,,,,,,,
110554,1495381613920,,,,,,,,0.04,0.08,1.03,-2.9,-0.0,0.2,1600,494,,,,,,,,,,,,,,,,,,,
110574,1495381613940,,,,,68,,,0.05,0.09,1.03,-2.9,-0.6,0.0,1600,494,1,1,3.306,1,39.538513,-122.33242,8.75,0.027,322.4,6,3,2.5,0,0.0,-1,0.0,0.0,0.0,0
110594,1495381613960,,,,,,,,0.04,0.08,1.02,-2.9,-0.4,-0.0,1620,492,,,,,,,,,,,,,,,,,,,
110614,1495381613980,,,,,,,,0.05,0.09,1.01,-3.0,-0.4,0.0,1620,494,,,,,,,,,,,,,,,,,,,
110634,1495381613994,,,,,,,,0.04,0.09,1.02,-3.1,-0.7,0.0,1620,498,,,,,,,,,,,,,,,,,,,
110654,1495381614014,,,,,,,,0.04,0.09,1.01,-3.1,-0.2,-0.0,1620,494,,,,,,,,,,,,,,,,,,,
110674,1495381614034,0,67.2,,99.2,67,87.7,,0.05,0.11,1.02,-3.2,-0.6,-0.1,1620,497,1,1,3.266,1,39.538509,-122.33242,8.75,0.028,322.5,6,3,2.5,0,0.0,-1,0.0,0.0,0.0,0
110694,1495381614054,,,,,,,,0.04,0.1,1.03,-3.2,-0.6,-0.2,1620,494,,,,,,,,,,,,,,,,,,,
110714,1495381614074,,,,,,,,0.06,0.1,1.02,-3.3,-0.2,-0.1,1620,492,,,,,,,,,,,,,,,,,,,
110734,1495381614104,,,,,,,,0.05,0.1,1.03,-3.3,-0.7,-0.3,1620,492,,,,,,,,,,,,,,,,,,,
110754,1495381614124,,,,,,,,0.04,0.09,1.0,-3.3,-0.3,-0.2,1620,497,,,,,,,,,,,,,,,,,,,
110774,1495381614144,,,,,68,,,0.06,0.09,1.0,-3.3,-0.2,-0.2,1600,494,1,1,3.286,1,39.538506,-122.33242,8.75,0.028,322.5,6,3,2.5,0,0.0,-1,0.0,0.0,0.0,0
110794,1495381614164,,,,,,,,0.05,0.09,1.0,-3.3,-0.5,-0.1,1600,494,,,,,,,,,,,,,,,,,,,
110814,1495381614184,,,,,,,,0.05,0.08,1.0,-3.2,0.0,-0.1,1620,491,,,,,,,,,,,,,,,,,,,
110834,1495381614203,,,,,,,,0.05,0.09,1.01,-3.2,-0.4,-0.2,1620,494,,,,,,,,,,,,,,,,,,,
