"Interval"|"ms"|0|0|1,"Utc"|"ms"|0|0|1,"FuelLevel"|"F"|0|100|5,"OilTemp"|"F"|0.0|300.0|5,"CoolantPressPSI"|"PSI"|0.0|20.0|1,"Coolant"|"F"|0.0|300.0|5,"OilPress"|"PSI"|0|150|10,"EngineTemp"|"F"|0.0|300.0|5,"Battery"|"Volts"|0.0|20.0|1,"AccelX"|"G"|-3.0|3.0|50,"AccelY"|"G"|-3.0|3.0|50,"AccelZ"|"G"|-3.0|3.0|50,"Yaw"|"Deg/Sec"|-300.0|300.0|50,"Pitch"|"Deg/Sec"|-300.0|300.0|50,"Roll"|"Deg/Sec"|-300.0|300.0|50,"RPM"|""|0|10000|50,"Driveshaft"|"RPM"|0|5000|50,"GPIO1"|""|0|1|10,"GPIO2"|""|0|1|10,"GearRatio"|""|-5.0|5.0|10,"Gear"|""|-1|5|10,"Latitude"|"Degrees"|-180.0|180.0|10,"Longitude"|"Degrees"|-180.0|180.0|10,"Speed"|"mph"|0.0|150.0|10,"Distance"|"mi"|0.0|0.0|10,"Altitude"|"ft"|0.0|4000.0|10,"GPSSats"|""|0|20|10,"GPSQual"|""|0|5|10,"GPSDOP"|""|0.0|20.0|10,"LapCount"|""|0|0|10,"LapTime"|"Min"|0.0|0.0|10,"Sector"|""|0|0|10,"SectorTime"|"Min"|0.0|0.0|10,"PredTime"|"Min"|0.0|0.0|10,"ElapsedTime"|"Min"|0.0|0.0|10,"CurrentLap"|""|0|0|10
9254933,1495396028407,,,,,,,,0.04,0.09,0.98,-2.9,-0.7,-0.2,40,0,,,,,,,,,,,,,,,,,,,
9254953,1495396028427,,,,,,,,0.03,0.08,0.97,-2.8,-0.4,-0.2,40,0,,,,,,,,,,,,,,,,,,,
9254973,1495396028447,,,,,,,,0.04,0.08,0.97,-2.9,-0.2,-0.3,40,0,,,,,,,,,,,,,,,,,,,
9254993,1495396028467,,,,,,,,0.03,0.07,0.97,-2.8,-0.8,-0.4,40,0,,,,,,,,,,,,,,,,,,,
9255015,1495396028489,,,,,0,,,0.02,0.06,0.92,-2.8,-0.8,-0.6,160,0,1,1,0.0,0,39.540615,-122.332382,0.0,4.473,313.9,9,3,1.9,21,3.9433,8,0.1267,28.1018,27.5667,22
9255034,1495396028508,,,,,,,,0.02,0.07,0.9,-2.9,-0.5,-0.5,160,0,,,,,,,,,,,,,,,,,,,
9255054,1495396028528,,,,,,,,0.02,0.07,0.88,-2.9,-0.3,-0.3,160,0,,,,,,,,,,,,,,,,,,,
9255074,1495396028548,,,,,,,,0.03,0.07,0.89,-2.9,0.0,-0.3,160,0,,,,,,,,,,,,,,,,,,,
9255094,1495396028568,,,,,,,,0.03,0.1,0.9,-3.0,0.0,-0.1,160,0,,,,,,,,,,,,,,,,,,,
9255116,1495396028590,0,149.2,,169.7,0,161.0,,0.03,0.1,0.9,-3.1,-0.1,-0.0,160,0,1,1,0.0,0,39.540615,-122.332382,0.0,4.473,313.9,9,3,1.9,21,3.9433,8,0.1267,28.1035,27.5683,22
9255135,1495396028609,,,,,,,,0.03,0.11,0.94,-3.0,-0.1,-0.1,180,0,,,,,,,,,,,,,,,,,,,
9255155,1495396028629,,,,,,,,0.04,0.1,0.94,-2.8,-0.0,-0.2,180,0,,,,,,,,,,,,,,,,,,,
9255175,1495396028649,,,,,,,,0.04,0.09,0.94,-2.8,-0.0,-0.2,180,0,,,,,,,,,,,,,,,,,,,
9255195,1495396028669,,,,,,,,0.04,0.12,0.95,-2.9,-0.5,-0.1,180,0,,,,,,,,,,,,,,,,,,,
9255217,1495396028691,,,,,0,,,0.04,0.12,0.95,-2.9,-0.3,-0.2,180,0,1,1,0.0,0,39.540615,-122.332382,0.0,4.473,313.9,9,3,1.9,21,3.9433,8,0.1267,28.1052,27.57,22
9255236,1495396028709,,,,,,,,0.03,0.1,0.94,-2.9,0.2,-0.1,180,0,,,,,,,,,,,,,,,,,,,
9255256,1495396028729,,,,,,,,0.03,0.08,0.94,-2.8,0.1,-0.2,180,0,,,,,,,,,,,,,,,,,,,
9255276,1495396028749,,,,,,,,0.03,0.07,0.95,-2.9,0.0,-0.3,180,0,,,,,,,,,,,,,,,,,,,
9255296,1495396028769,,,,,,,,0.02,0.08,0.95,-2.9,-0.1,-0.3,180,0,,,,,,,,,,,,,,,,,,,
9255318,1495396028791,0,149.2,-0.5,169.7,0,160.9,10.45,0.02,0.06,0.95,-2.8,0.0,-0.3,200,0,1,1,0.0,0,39.540615,-122.332382,0.0,4.473,313.9,9,3,1.9,21,3.9433,8,0.1267,28.1068,27.5717,22
9255337,1495396028809,,,,,,,,0.03,0.05,0.95,-2.8,0.3,-0.3,200,0,,,,,,,,,,,,,,,,,,,
9255357,1495396028829,,,,,,,,0.03,0.05,0.93,-2.9,0.2,-0.2,200,0,,,,,,,,,,,,,,,,,,,
9255377,1495396028849,,,,,,,,0.02,0.04,0.94,-2.9,0.1,-0.2,200,0,,,,,,,,,,,,,,,,,,,
9255397,1495396028869,,,,,,,,0.02,0.04,0.97,-3.0,0.7,-0.1,200,0,,,,,,,,,,,,,,,,,,,
9255419,1495396028893,,,,,0,,,0.03,0.06,0.99,-3.1,0.5,0.3,200,0,1,1,0.0,0,39.540615,-122.332382,0.0,4.473,313.9,9,3,1.9,21,3.9433,8,0.1267,28.1085,27.575,22
9255438,1495396028912,,,,,,,,0.03,0.07,0.99,-3.1,-0.2,0.4,200,0,,,,,,,,,,,,,,,,,,,
9255458,1495396028932,,,,,,,,0.02,0.08,1.03,-3.1,-0.5,0.2,200,0,,,,,,,,,,,,,,,,,,,
9255478,1495396028952,,,,,,,,0.02,0.08,1.01,-3.0,-0.1,0.0,200,0,,,,,,,,,,,,,,,,,,,
9255498,1495396028972,,,,,,,,0.04,0.06,1.02,-2.9,-0.1,-0.3,200,0,,,,,,,,,,,,,,,,,,,
9255520,1495396028994,0,149.2,,169.7,0,160.9,,0.04,0.06,1.03,-2.9,-0.3,-0.2,200,0,1,1,0.0,0,39.540615,-122.332382,0.0,4.473,313.9,9,3,1.9,21,3.9433,8,0.1267,28.1102,27.575,22
9255539,1495396029005,,,,,,,,0.03,0.07,1.02,-2.9,-0.2,-0.1,200,0,,,,,,,,,,,,,,,,,,,
9255559,1495396029025,,,,,,,,0.04,0.05,1.02,-2.9,0.0,-0.1,200,0,,,,,,,,,,,,,,,,,,,
9255579,1495396029045,,,,,,,,0.04,0.08,1.02,-3.0,-0.4,-0.0,200,0,,,,,,,,,,,,,,,,,,,
9255599,1495396029065,,,,,,,,0.04,0.07,1.04,-3.0,-0.1,-0.1,200,0,,,,,,,,,,,,,,,,,,,
9255621,1495396029093,,,,,0,,,0.04,0.08,1.0,-3.0,0.2,-0.2,200,0,1,1,0.0,0,39.540615,-122.332382,0.0,4.473,313.9,9,3,1.9,21,3.9433,8,0.1267,28.1119,27.5783,22
9255640,1495396029112,,,,,,,,0.06,0.08,0.99,-3.0,0.4,-0.3,200,0,,,,,,,,,,,,,,,,,,,
9255660,1495396029132,,,,,,,,0.05,0.07,1.0,-3.0,-0.2,-0.3,200,0,,,,,,,,,,,,,,,,,,,
9255680,1495396029152,,,,,,,,0.04,0.07,1.0,-3.0,-0.2,-0.0,200,0,,,,,,,,,,,,,,,,,,,
9255700,1495396029172,,,,,,,,0.05,0.07,1.0,-3.0,0.2,0.0,200,5,,,,,,,,,,,,,,,,,,,
9255722,1495396029196,0,149.1,,169.7,0,161.1,,0.05,0.07,1.0,-3.0,-0.0,-0.0,200,5,1,1,0.0,0,39.540615,-122.332382,0.0,4.473,313.9,9,3,1.9,21,3.9433,8,0.1267,28.1136,27.58,22
9255741,1495396029215,,,,,,,,0.04,0.07,0.99,-2.9,-0.3,-0.1,200,5,,,,,,,,,,,,,,,,,,,
9255761,1495396029235,,,,,,,,0.04,0.07,0.99,-2.9,-0.1,-0.2,200,5,,,,,,,,,,,,,,,,,,,
9255781,1495396029255,,,,,,,,0.05,0.06,1.0,-2.9,-0.2,-0.3,200,5,,,,,,,,,,,,,,,,,,,
9255801,1495396029275,,,,,,,,0.04,0.07,0.99,-2.9,-0.2,-0.3,200,5,,,,,,,,,,,,,,,,,,,
9255823,1495396029297,,,,,0,,,0.04,0.07,0.98,-2.9,-0.1,-0.2,160,5,1,1,50.0,0,39.540615,-122.332382,0.0,4.473,313.9,9,3,1.9,21,3.9433,8,0.1267,28.1153,27.5817,22
9255842,1495396029316,,,,,,,,0.04,0.06,0.96,-2.9,-0.0,-0.1,160,5,,,,,,,,,,,,,,,,,,,
9255862,1495396029336,,,,,,,,0.04,0.06,0.97,-2.9,-0.1,-0.1,160,5,,,,,,,,,,,,,,,,,,,
9255882,1495396029356,,,,,,,,0.04,0.06,0.97,-2.9,-0.2,-0.1,160,5,,,,,,,,,,,,,,,,,,,
9255902,1495396029376,,,,,,,,0.04,0.06,0.98,-2.9,-0.2,-0.2,160,5,,,,,,,,,,,,,,,,,,,
9255924,1495396029397,0,148.7,,169.4,0,160.6,,0.05,0.06,0.97,-2.9,-0.3,-0.2,160,5,1,1,40.0,0,39.540615,-122.332382,0.0,4.473,313.9,9,3,1.9,21,3.9433,8,0.1267,28.1169,27.5833,22
9255943,1495396029416,,,,,,,,0.05,0.06,0.97,-2.9,-0.2,-0.2,160,5,,,,,,,,,,,,,,,,,,,
9255963,1495396029436,,,,,,,,0.04,0.07,0.97,-2.9,-0.2,-0.2,160,5,,,,,,,,,,,,,,,,,,,
9255983,1495396029456,,,,,,,,0.04,0.07,0.97,-2.9,-0.2,-0.2,160,5,,,,,,,,,,,,,,,,,,,
9256003,1495396029476,,,,,,,,0.04,0.07,0.97,-2.9,-0.2,-0.2,160,5,,,,,,,,,,,,,,,,,,,
9256025,1495396029498,,,,,0,,,0.05,0.07,0.97,-2.9,-0.1,-0.2,160,5,1,1,40.0,0,39.540615,-122.332382,0.0,4.473,313.9,9,3,1.9,21,3.9433,8,0.1267,28.1186,27.585,22
9256044,1495396029517,,,,,,,,0.05,0.07,0.97,-3.0,-0.2,-0.2,160,5,,,,,,,,,,,,,,,,,,,
9256064,1495396029537,,,,,,,,0.04,0.07,0.97,-3.0,-0.2,-0.2,160,5,,,,,,,,,,,,,,,,,,,
9256084,1495396029557,,,,,,,,0.04,0.07,0.97,-3.0,-0.3,-0.2,160,5,,,,,,,,,,,,,,,,,,,
9256104,1495396029577,,,,,,,,0.04,0.07,0.97,-3.0,-0.3,-0.1,160,5,,,,,,,,,,,,,,,,,,,
9256126,1495396029599,0,149.1,,169.7,0,161.0,,0.05,0.06,0.98,-3.0,-0.3,-0.1,60,5,1,1,40.0,0,39.540615,-122.332382,0.0,4.473,313.9,9,3,1.9,21,3.9433,8,0.1267,28.1203,27.5867,22
9256145,1495396029618,,,,,,,,0.05,0.07,0.98,-3.0,-0.3,-0.2,60,5,,,,,,,,,,,,,,,,,,,
9256165,1495396029638,,,,,,,,0.04,0.07,0.98,-3.0,-0.3,-0.2,60,5,,,,,,,,,,,,,,,,,,,
9256185,1495396029658,,,,,,,,0.05,0.07,0.98,-3.0,-0.3,-0.1,60,384615,,,,,,,,,,,,,,,,,,,
9256205,1495396029678,,,,,,,,0.05,0.07,0.99,-3.0,-0.3,-0.2,60,0,,,,,,,,,,,,,,,,,,,
9256227,1495396029700,,,,,0,,,0.05,0.07,0.99,-3.0,-0.3,-0.2,60,0,1,1,15.0,0,39.540615,-122.332382,0.0,4.473,313.9,9,3,1.9,21,3.9433,8,0.1267,28.122,27.5883,22
9256246,1495396029719,,,,,,,,0.05,0.07,0.99,-3.0,-0.2,-0.2,60,0,,,,,,,,,,,,,,,,,,,
9256266,1495396029739,,,,,,,,0.04,0.07,0.99,-3.0,-0.2,-0.2,60,0,,,,,,,,,,,,,,,,,,,
9256286,1495396029759,,,,,,,,0.04,0.07,0.99,-3.0,-0.2,-0.2,60,0,,,,,,,,,,,,,,,,,,,
9256306,1495396029779,,,,,,,,0.04,0.07,0.99,-3.0,-0.2,-0.2,60,0,,,,,,,,,,,,,,,,,,,
9256328,1495396029801,0,149.2,-0.5,169.8,0,161.2,12.55,0.04,0.07,0.99,-3.0,-0.1,-0.2,60,0,1,1,0.0,0,39.540615,-122.332382,0.0,4.473,313.9,9,3,1.9,21,3.9433,8,0.1267,28.1237,27.59,22
9256347,1495396029820,,,,,,,,0.04,0.07,0.99,-3.0,-0.2,-0.2,60,0,,,,,,,,,,,,,,,,,,,
9256367,1495396029840,,,,,,,,0.05,0.07,0.98,-3.0,-0.2,-0.2,60,0,,,,,,,,,,,,,,,,,,,
9256387,1495396029860,,,,,,,,0.04,0.07,0.98,-3.0,-0.1,-0.2,60,0,,,,,,,,,,,,,,,,,,,
9256407,1495396029880,,,,,,,,0.04,0.07,0.98,-3.0,-0.1,-0.2,60,0,,,,,,,,,,,,,,,,,,,
9256429,1495396029900,,,,,0,,,0.04,0.07,0.98,-3.0,-0.1,-0.2,60,0,1,1,0.0,0,39.540615,-122.332382,0.0,4.473,313.9,9,3,1.9,21,3.9433,8,0.1267,28.1253,27.5917,22
9256448,1495396029919,,,,,,,,0.04,0.07,0.98,-3.0,-0.1,-0.2,60,0,,,,,,,,,,,,,,,,,,,
9256468,1495396029939,,,,,,,,0.04,0.07,0.98,-3.0,-0.1,-0.2,60,0,,,,,,,,,,,,,,,,,,,
9256488,1495396029959,,,,,,,,0.04,0.07,0.98,-3.0,-0.1,-0.2,60,0,,,,,,,,,,,,,,,,,,,
9256508,1495396029979,,,,,,,,0.04,0.07,0.98,-3.0,-0.1,-0.2,60,0,,,,,,,,,,,,,,,,,,,
9256530,1495396029995,0,149.2,,169.7,0,161.0,,0.04,0.07,0.98,-3.0,-0.1,-0.2,60,0,1,1,0.0,0,39.540615,-122.332382,0.0,4.473,313.9,9,3,1.9,21,3.9433,8,0.1267,28.1269,27.5933,22
9256549,1495396030014,,,,,,,,0.04,0.07,0.98,-3.0,-0.2,-0.2,60,0,,,,,,,,,,,,,,,,,,,
9256569,1495396030034,,,,,,,,0.04,0.07,0.98,-3.0,-0.1,-0.2,60,0,,,,,,,,,,,,,,,,,,,
9256589,1495396030054,,,,,,,,0.04,0.07,0.98,-3.0,-0.1,-0.2,60,0,,,,,,,,,,,,,,,,,,,
9256609,1495396030074,,,,,,,,0.04,0.07,0.98,-3.0,-0.2,-0.2,60,0,,,,,,,,,,,,,,,,,,,
9256631,1495396030106,,,,,0,,,0.04,0.07,0.98,-3.0,-0.2,-0.2,60,0,1,1,0.0,0,39.540615,-122.332382,0.0,4.473,313.9,9,3,1.9,21,3.9433,8,0.1267,28.1288,27.595,22
9256650,1495396030125,,,,,,,,0.04,0.07,0.98,-3.0,-0.2,-0.2,60,0,,,,,,,,,,,,,,,,,,,
9256670,1495396030145,,,,,,,,0.04,0.07,0.98,-3.0,-0.2,-0.2,60,0,,,,,,,,,,,,,,,,,,,
9256690,1495396030165,,,,,,,,0.04,0.07,0.98,-3.0,-0.2,-0.2,60,0,,,,,,,,,,,,,,,,,,,
9256710,1495396030185,,,,,,,,0.04,0.07,0.98,-3.0,-0.2,-0.2,60,0,,,,,,,,,,,,,,,,,,,
9256732,1495396030205,0,149.2,,169.8,0,161.0,,0.04,0.07,0.97,-3.0,-0.2,-0.2,60,0,1,1,0.0,0,39.540615,-122.332382,0.0,4.473,313.9,9,3,1.9,21,3.9433,8,0.1267,28.1304,27.5967,22
9256751,1495396030224,,,,,,,,0.04,0.07,0.97,-3.0,-0.2,-0.2,60,0,,,,,,,,,,,,,,,,,,,
9256771,1495396030244,,,,,,,,0.04,0.07,0.97,-3.0,-0.2,-0.2,60,0,,,,,,,,,,,,,,,,,,,
9256791,1495396030264,,,,,,,,0.04,0.07,0.97,-3.0,-0.2,-0.2,60,0,,,,,,,,,,,,,,,,,,,
9256811,1495396030284,,,,,,,,0.04,0.07,0.98,-3.0,-0.2,-0.2,60,0,,,,,,,,,,,,,,,,,,,
9256833,1495396030308,,,,,0,,,0.04,0.07,0.97,-2.9,-0.2,-0.2,60,0,1,1,0.0,0,39.540615,-122.332382,0.0,4.473,313.9,9,3,1.9,21,3.9433,8,0.1267,28.1321,27.5983,22
9256852,1495396030327,,,,,,,,0.04,0.07,0.98,-2.9,-0.2,-0.2,60,0,,,,,,,,,,,,,,,,,,,
9256872,1495396030347,,,,,,,,0.04,0.07,0.98,-2.9,-0.1,-0.2,60,0,,,,,,,,,,,,,,,,,,,
9256892,1495396030367,,,,,,,,0.04,0.07,0.98,-2.9,-0.2,-0.2,60,0,,,,,,,,,,,,,,,,,,,
9256912,1495396030387,,,,,,,,0.04,0.07,0.98,-2.9,-0.2,-0.2,60,0,,,,,,,,,,,,,,,,,,,
9256934,1495396030408,0,149.1,,169.5,0,160.8,,0.04,0.07,0.98,-2.9,-0.2,-0.2,60,0,1,1,0.0,0,39.540615,-122.332382,0.0,4.473,313.9,9,3,1.9,21,3.9433,8,0.1267,28.1338,27.6,22
9256953,1495396030427,,,,,,,,0.04,0.07,0.98,-2.9,-0.1,-0.2,60,0,,,,,,,,,,,,,,,,,,,
9256973,1495396030447,,,,,,,,0.04,0.07,0.98,-3.0,-0.1,-0.2,60,0,,,,,,,,,,,,,,,,,,,
9256993,1495396030467,,,,,,,,0.04,0.07,0.98,-3.0,-0.2,-0.2,4000000,0,,,,,,,,,,,,,,,,,,,
9257013,1495396030487,,,,,,,,0.04,0.07,0.98,-3.0,-0.2,-0.2,0,0,,,,,,,,,,,,,,,,,,,
9257035,1495396030509,,,,,0,,,0.04,0.07,0.98,-3.0,-0.2,-0.2,0,0,1,1,0.0,0,39.540615,-122.332382,0.0,4.473,313.9,9,3,1.9,21,3.9433,8,0.1267,28.1355,27.6017,22
9257054,1495396030528,,,,,,,,0.04,0.07,0.98,-3.0,-0.1,-0.2,0,0,,,,,,,,,,,,,,,,,,,
9257074,1495396030548,,,,,,,,0.04,0.07,0.98,-3.0,-0.1,-0.2,0,0,,,,,,,,,,,,,,,,,,,
9257094,1495396030568,,,,,,,,0.04,0.07,0.98,-3.0,-0.2,-0.2,0,0,,,,,,,,,,,,,,,,,,,
9257114,1495396030588,,,,,,,,0.04,0.07,0.98,-3.0,-0.2,-0.2,0,0,,,,,,,,,,,,,,,,,,,
9257136,1495396030610,0,149.2,,169.8,0,161.1,,0.04,0.07,0.98,-3.0,-0.2,-0.2,0,0,1,1,0.0,0,39.540615,-122.332382,0.0,4.473,313.9,9,3,1.9,21,3.9433,8,0.1267,28.1372,27.6033,22
9257155,1495396030629,,,,,,,,0.04,0.07,0.98,-3.0,-0.2,-0.2,0,0,,,,,,,,,,,,,,,,,,,
9257175,1495396030649,,,,,,,,0.04,0.07,0.98,-3.0,-0.2,-0.2,0,0,,,,,,,,,,,,,,,,,,,
9257195,1495396030669,,,,,,,,0.04,0.07,0.98,-3.0,-0.2,-0.2,0,0,,,,,,,,,,,,,,,,,,,
9257215,1495396030689,,,,,,,,0.04,0.07,0.98,-3.0,-0.2,-0.2,0,0,,,,,,,,,,,,,,,,,,,
9257237,1495396030711,,,,,0,,,0.04,0.07,0.98,-3.0,-0.2,-0.2,0,0,1,1,0.0,0,39.540615,-122.332382,0.0,4.473,313.9,9,3,1.9,21,3.9433,8,0.1267,28.1388,27.605,22
9257256,1495396030730,,,,,,,,0.04,0.07,0.98,-3.0,-0.2,-0.2,0,0,,,,,,,,,,,,,,,,,,,
9257276,1495396030750,,,,,,,,0.04,0.07,0.98,-3.0,-0.2,-0.2,0,0,,,,,,,,,,,,,,,,,,,
9257296,1495396030770,,,,,,,,0.04,0.07,0.98,-3.0,-0.2,-0.2,0,0,,,,,,,,,,,,,,,,,,,
9257316,1495396030790,,,,,,,,0.04,0.07,0.98,-3.0,-0.2,-0.2,0,0,,,,,,,,,,,,,,,,,,,
9257338,1495396030812,0,149.0,-0.5,169.6,0,160.9,12.52,0.04,0.07,0.98,-3.0,-0.2,-0.2,0,0,1,1,0.0,0,39.540615,-122.332382,0.0,4.473,313.9,9,3,1.9,21,3.9433,8,0.1267,28.1405,27.6067,22
9257357,1495396030831,,,,,,,,0.04,0.07,0.97,-3.0,-0.2,-0.2,0,0,,,,,,,,,,,,,,,,,,,
9257377,1495396030851,,,,,,,,0.04,0.07,0.98,-3.0,-0.2,-0.2,0,0,,,,,,,,,,,,,,,,,,,
9257397,1495396030871,,,,,,,,0.04,0.07,0.98,-3.0,-0.2,-0.2,0,0,,,,,,,,,,,,,,,,,,,
9257417,1495396030891,,,,,,,,0.04,0.07,0.97,-3.0,-0.2,-0.2,0,0,,,,,,,,,,,,,,,,,,,
9257439,1495396030913,,,,,0,,,0.04,0.07,0.97,-2.9,-0.2,-0.2,0,0,1,1,0.0,0,39.540615,-122.332382,0.0,4.473,313.9,9,3,1.9,21,3.9433,8,0.1267,28.1422,27.6083,22
9257458,1495396030932,,,,,,,,0.04,0.07,0.97,-3.0,-0.2,-0.2,0,0,,,,,,,,,,,,,,,,,,,
9257478,1495396030952,,,,,,,,0.04,0.07,0.98,-3.0,-0.2,-0.2,0,0,,,,,,,,,,,,,,,,,,,
9257498,1495396030972,,,,,,,,0.04,0.07,0.98,-3.0,-0.2,-0.2,0,0,,,,,,,,,,,,,,,,,,,
9257518,1495396030992,,,,,,,,0.04,0.07,0.98,-3.0,-0.2,-0.2,0,0,,,,,,,,,,,,,,,,,,,
9257540,1495396031006,0,149.3,,169.8,0,161.1,,0.04,0.07,0.98,-3.0,-0.1,-0.2,0,0,1,1,0.0,0,39.540615,-122.332382,0.0,4.473,313.9,9,3,1.9,21,3.9433,8,0.1267,28.1438,27.61,22
9257559,1495396031025,,,,,,,,0.04,0.07,0.98,-3.0,-0.1,-0.2,0,0,,,,,,,,,,,,,,,,,,,
9257579,1495396031045,,,,,,,,0.04,0.07,0.98,-3.0,-0.1,-0.2,0,0,,,,,,,,,,,,,,,,,,,
9257599,1495396031065,,,,,,,,0.04,0.07,0.98,-3.0,-0.2,-0.2,0,0,,,,,,,,,,,,,,,,,,,
9257619,1495396031093,,,,,,,,0.04,0.07,0.98,-3.0,-0.2,-0.2,0,0,,,,,,,,,,,,,,,,,,,
9257641,1495396031115,,,,,0,,,0.04,0.07,0.98,-2.9,-0.2,-0.2,0,0,1,1,0.0,0,39.540615,-122.332382,0.0,4.473,313.9,9,3,1.9,21,3.9433,8,0.1267,28.1456,27.6117,22
9257660,1495396031134,,,,,,,,0.04,0.07,0.98,-2.9,-0.2,-0.2,0,0,,,,,,,,,,,,,,,,,,,
9257680,1495396031154,,,,,,,,0.04,0.07,0.98,-3.0,-0.2,-0.2,0,0,,,,,,,,,,,,,,,,,,,
9257700,1495396031174,,,,,,,,0.04,0.07,0.98,-3.0,-0.2,-0.2,0,0,,,,,,,,,,,,,,,,,,,
9257720,1495396031194,,,,,,,,0.04,0.07,0.98,-3.0,-0.2,-0.2,0,0,,,,,,,,,,,,,,,,,,,
9257742,1495396031216,0,149.3,,169.8,0,161.1,,0.04,0.07,0.98,-3.0,-0.2,-0.2,0,0,1,1,0.0,0,39.540615,-122.332382,0.0,4.473,313.9,9,3,1.9,21,3.9433,8,0.1267,28.1473,27.6133,22
9257761,1495396031235,,,,,,,,0.04,0.06,0.99,-3.0,-0.1,-0.2,0,0,,,,,,,,,,,,,,,,,,,
9257781,1495396031255,,,,,,,,0.04,0.06,1.01,-3.0,0.0,-0.0,0,0,,,,,,,,,,,,,,,,,,,
9257801,1495396031275,,,,,,,,0.04,0.07,1.01,-3.1,0.1,0.2,0,0,,,,,,,,,,,,,,,,,,,
9257821,1495396031295,,,,,,,,0.04,0.08,1.02,-3.1,-0.1,0.2,0,0,,,,,,,,,,,,,,,,,,,
9257843,1495396031317,,,,,0,,,0.04,0.07,1.03,-3.0,-0.2,0.1,0,0,1,1,0.0,0,39.540615,-122.332382,0.0,4.473,313.9,9,3,1.9,21,3.9433,8,0.1267,28.149,27.615,22
9257862,1495396031336,,,,,,,,0.05,0.08,1.02,-3.0,-0.2,0.0,0,0,,,,,,,,,,,,,,,,,,,
9257882,1495396031356,,,,,,,,0.05,0.08,1.02,-3.0,-0.4,-0.0,0,0,,,,,,,,,,,,,,,,,,,
9257902,1495396031376,,,,,,,,0.05,0.07,1.01,-3.0,-0.4,-0.1,0,0,,,,,,,,,,,,,,,,,,,
9257922,1495396031395,,,,,,,,0.05,0.06,1.01,-2.9,-0.4,-0.1,0,0,,,,,,,,,,,,,,,,,,,
9257944,1495396031417,0,149.2,,169.7,0,161.0,,0.04,0.06,1.01,-2.9,-0.4,-0.0,0,0,1,1,0.0,0,39.540615,-122.332382,0.0,4.473,313.9,9,3,1.9,21,3.9433,8,0.1267,28.1506,27.6167,22
9257963,1495396031436,,,,,,,,0.04,0.06,0.99,-2.9,-0.5,-0.1,0,0,,,,,,,,,,,,,,,,,,,
9257983,1495396031456,,,,,,,,0.04,0.05,0.99,-2.9,-0.5,-0.1,0,0,,,,,,,,,,,,,,,,,,,
9258003,1495396031476,,,,,,,,0.03,0.04,0.98,-2.9,-0.5,-0.3,0,0,,,,,,,,,,,,,,,,,,,
9258023,1495396031496,,,,,,,,0.03,0.04,0.98,-2.9,-0.4,-0.4,0,0,,,,,,,,,,,,,,,,,,,
9258045,1495396031518,,,,,0,,,0.03,0.04,0.97,-2.9,-0.5,-0.3,0,0,1,1,0.0,0,39.540615,-122.332382,0.0,4.473,313.9,9,3,1.9,21,3.9433,8,0.1267,28.1523,27.6183,22
9258064,1495396031537,,,,,,,,0.03,0.04,0.98,-2.9,-0.4,-0.3,0,0,,,,,,,,,,,,,,,,,,,
9258084,1495396031557,,,,,,,,0.03,0.03,0.95,-2.9,-0.4,-0.3,0,0,,,,,,,,,,,,,,,,,,,
9258104,1495396031577,,,,,,,,0.03,0.03,0.94,-2.9,-0.3,-0.2,0,0,,,,,,,,,,,,,,,,,,,
9258124,1495396031597,,,,,,,,0.03,0.04,0.94,-2.9,-0.3,-0.2,0,0,,,,,,,,,,,,,,,,,,,
9258146,1495396031619,0,149.2,,169.8,0,161.1,,0.03,0.04,0.95,-2.9,-0.3,-0.2,0,0,1,1,0.0,0,39.540615,-122.332382,0.0,4.473,313.9,9,3,1.9,21,3.9433,8,0.1267,28.154,27.62,22
9258165,1495396031638,,,,,,,,0.03,0.05,0.95,-2.9,-0.3,-0.3,0,0,,,,,,,,,,,,,,,,,,,
9258185,1495396031658,,,,,,,,0.03,0.04,0.94,-2.8,-0.3,-0.6,0,0,,,,,,,,,,,,,,,,,,,
9258205,1495396031678,,,,,,,,0.03,0.03,0.96,-2.9,-0.3,-0.5,40,0,,,,,,,,,,,,,,,,,,,
9258225,1495396031698,,,,,,,,0.03,0.03,0.96,-2.9,-0.1,-0.2,40,0,,,,,,,,,,,,,,,,,,,
9258247,1495396031720,,,,,0,,,0.04,0.03,0.95,-2.9,0.3,-0.1,40,0,1,1,0.0,0,39.540615,-122.332382,0.0,4.473,313.9,9,3,1.9,21,3.9433,8,0.1267,28.1557,27.6217,22
9258266,1495396031739,,,,,,,,0.04,0.03,0.95,-2.9,-0.0,-0.2,40,0,,,,,,,,,,,,,,,,,,,
9258286,1495396031759,,,,,,,,0.04,0.03,0.96,-2.9,-0.1,-0.3,240,0,,,,,,,,,,,,,,,,,,,
9258306,1495396031779,,,,,,,,0.04,0.03,0.98,-2.9,0.1,-0.3,240,0,,,,,,,,,,,,,,,,,,,
9258326,1495396031799,,,,,,,,0.04,0.05,0.98,-2.9,-0.1,-0.2,340,0,,,,,,,,,,,,,,,,,,,
9258348,1495396031821,0,149.3,-0.7,169.8,0,161.0,11.29,0.04,0.04,0.98,-2.9,-0.0,-0.3,340,0,1,1,0.0,0,39.540615,-122.332382,0.0,4.473,313.9,9,3,1.9,21,3.9433,8,0.1267,28.1574,27.6233,22
9258367,1495396031840,,,,,,,,0.04,0.05,0.98,-2.9,0.0,-0.3,340,0,,,,,,,,,,,,,,,,,,,
9258387,1495396031860,,,,,,,,0.04,0.05,0.98,-2.9,-0.1,-0.2,400,0,,,,,,,,,,,,,,,,,,,
9258407,1495396031880,,,,,,,,0.05,0.02,0.98,-2.9,0.1,-0.3,400,0,,,,,,,,,,,,,,,,,,,
9258427,1495396031900,,,,,,,,0.06,0.04,0.98,-3.0,0.3,0.0,520,0,,,,,,,,,,,,,,,,,,,
9258449,1495396031922,,,,,0,,,0.04,0.04,0.98,-2.9,0.3,-0.1,680,0,1,0,0.0,0,39.540615,-122.332382,0.0,4.473,313.9,9,3,1.9,21,3.9433,8,0.1267,28.159,27.625,22
9258468,1495396031941,,,,,,,,0.04,0.01,0.98,-2.7,0.2,-0.4,820,0,,,,,,,,,,,,,,,,,,,
9258488,1495396031961,,,,,,,,0.03,0.01,1.0,-2.7,0.7,-0.6,900,0,,,,,,,,,,,,,,,,,,,
9258508,1495396031981,,,,,,,,0.03,0.01,1.07,-2.7,0.7,-0.6,900,0,,,,,,,,,,,,,,,,,,,
9258528,1495396031995,,,,,,,,0.04,0.03,1.04,-2.8,0.3,-0.5,900,0,,,,,,,,,,,,,,,,,,,
9258550,1495396032017,0,149.1,,169.6,1,160.9,,0.05,0.01,1.04,-2.8,0.1,-0.5,860,0,1,0,0.0,0,39.540615,-122.332382,0.0,4.473,313.9,9,3,1.9,21,3.9433,8,0.1267,28.1606,27.6267,22
9258569,1495396032036,,,,,,,,0.05,0.02,1.06,-2.9,0.0,-0.1,820,0,,,,,,,,,,,,,,,,,,,
9258589,1495396032056,,,,,,,,0.05,0.05,1.07,-2.9,0.1,-0.1,820,0,,,,,,,,,,,,,,,,,,,
9258609,1495396032076,,,,,,,,0.05,0.04,1.05,-2.9,0.1,-0.2,840,0,,,,,,,,,,,,,,,,,,,
9258629,1495396032104,,,,,,,,0.06,0.05,1.03,-2.9,-0.2,-0.3,860,0,,,,,,,,,,,,,,,,,,,
9258651,1495396032126,,,,,2,,,0.05,0.04,1.07,-2.9,0.0,-0.4,860,0,1,0,0.0,0,39.540615,-122.332382,0.0,4.473,313.9,9,3,1.9,21,3.9433,8,0.1267,28.1624,27.6283,22
9258670,1495396032145,,,,,,,,0.05,0.05,1.11,-3.0,-0.1,-0.4,860,0,,,,,,,,,,,,,,,,,,,
9258690,1495396032165,,,,,,,,0.05,0.06,1.04,-3.0,-0.8,-0.2,900,0,,,,,,,,,,,,,,,,,,,
9258710,1495396032185,,,,,,,,0.05,0.06,1.07,-3.1,-0.5,-0.1,920,0,,,,,,,,,,,,,,,,,,,
9258730,1495396032205,,,,,,,,0.05,0.06,1.1,-3.1,-0.2,-0.1,960,0,,,,,,,,,,,,,,,,,,,
9258752,1495396032227,0,148.8,,169.4,1,160.7,,0.05,0.07,1.06,-3.0,-0.6,-0.1,1000,0,1,0,0.0,0,39.540615,-122.332382,0.0,4.473,313.9,9,3,1.9,21,3.9433,8,0.1267,28.1641,27.63,22
9258771,1495396032246,,,,,,,,0.05,0.07,1.02,-3.1,-0.7,-0.1,1000,0,,,,,,,,,,,,,,,,,,,
9258791,1495396032266,,,,,,,,0.04,0.07,1.02,-3.1,-0.9,0.1,1040,0,,,,,,,,,,,,,,,,,,,
9258811,1495396032286,,,,,,,,0.05,0.08,1.0,-3.2,-1.1,0.1,1060,0,,,,,,,,,,,,,,,,,,,
9258831,1495396032306,,,,,,,,0.06,0.07,1.0,-3.2,-0.9,0.1,1080,0,,,,,,,,,,,,,,,,,,,
9258853,1495396032328,,,,,3,,,0.06,0.08,1.05,-3.2,-0.9,0.1,1100,0,1,0,0.0,0,39.540615,-122.332382,0.0,4.473,313.9,9,3,1.9,21,3.9433,8,0.1267,28.1658,27.6317,22
9258872,1495396032347,,,,,,,,0.06,0.07,1.05,-3.2,-1.1,-0.2,1120,0,,,,,,,,,,,,,,,,,,,
9258892,1495396032367,,,,,,,,0.06,0.05,1.04,-3.2,-1.2,-0.2,1120,0,,,,,,,,,,,,,,,,,,,
9258912,1495396032387,,,,,,,,0.06,0.07,1.06,-3.1,-1.1,-0.2,1140,0,,,,,,,,,,,,,,,,,,,
9258932,1495396032406,,,,,,,,0.05,0.08,1.03,-3.1,-1.1,-0.1,1140,0,,,,,,,,,,,,,,,,,,,
9258954,1495396032428,0,149.2,,169.7,5,160.9,,0.06,0.06,1.05,-3.1,-0.9,-0.2,1160,0,1,0,0.0,0,39.540615,-122.332382,0.0,4.473,313.9,9,3,1.9,21,3.9433,8,0.1267,28.1675,27.6333,22
9258973,1495396032447,,,,,,,,0.05,0.09,1.02,-3.1,-0.5,-0.1,1180,0,,,,,,,,,,,,,,,,,,,
9258993,1495396032467,,,,,,,,0.06,0.09,1.04,-3.1,-0.9,-0.2,1160,0,,,,,,,,,,,,,,,,,,,
9259013,1495396032487,,,,,,,,0.06,0.06,1.04,-3.1,-1.1,-0.3,1160,0,,,,,,,,,,,,,,,,,,,
9259033,1495396032501,,,,,,,,0.05,0.1,1.06,-3.1,-0.7,-0.3,1160,0,,,,,,,,,,,,,,,,,,,
9259055,1495396032523,,,,,9,,,0.06,0.09,1.03,-3.0,-0.9,-0.4,1160,0,1,1,0.0,0,39.540615,-122.332382,0.0,4.473,313.9,9,3,1.9,21,3.9433,8,0.1267,28.1691,27.635,22
9259074,1495396032542,,,,,,,,0.07,0.08,1.03,-3.1,-0.4,-0.2,1140,0,,,,,,,,,,,,,,,,,,,
9259094,1495396032562,,,,,,,,0.06,0.11,1.02,-3.1,-0.6,-0.2,1140,0,,,,,,,,,,,,,,,,,,,
9259114,1495396032582,,,,,,,,0.05,0.08,1.0,-3.0,-0.7,-0.2,1120,0,,,,,,,,,,,,,,,,,,,
9259134,1495396032608,,,,,,,,0.05,0.07,0.98,-3.0,-0.2,-0.2,1100,0,,,,,,,,,,,,,,,,,,,
9259156,1495396032630,0,149.3,,169.8,11,161.1,,0.05,0.09,1.0,-3.0,-0.5,-0.2,1100,0,1,1,0.0,0,39.540615,-122.332382,0.0,4.473,313.9,9,3,1.9,21,3.9433,8,0.1267,28.1708,27.6367,22
9259175,1495396032649,,,,,,,,0.05,0.07,1.0,-3.0,-0.5,-0.2,1080,0,,,,,,,,,,,,,,,,,,,
9259195,1495396032669,,,,,,,,0.04,0.07,0.97,-3.0,-0.2,-0.2,1080,0,,,,,,,,,,,,,,,,,,,
9259215,1495396032689,,,,,,,,0.04,0.08,0.96,-3.0,-0.3,-0.2,1040,0,,,,,,,,,,,,,,,,,,,
9259235,1495396032709,,,,,,,,0.04,0.06,0.96,-3.0,-0.4,-0.2,1020,0,,,,,,,,,,,,,,,,,,,
9259257,1495396032731,,,,,12,,,0.04,0.07,0.96,-3.0,-0.4,-0.2,1020,0,1,1,0.0,0,39.540615,-122.332382,0.0,4.473,313.9,9,3,1.9,21,3.9433,8,0.1267,28.1725,27.6383,22
9259276,1495396032750,,,,,,,,0.04,0.08,0.96,-3.0,-0.2,-0.2,1000,0,,,,,,,,,,,,,,,,,,,
9259296,1495396032770,,,,,,,,0.05,0.07,0.97,-3.0,-0.2,-0.2,980,0,,,,,,,,,,,,,,,,,,,
9259316,1495396032790,,,,,,,,0.05,0.08,0.97,-3.0,-0.2,-0.2,960,0,,,,,,,,,,,,,,,,,,,
9259336,1495396032810,,,,,,,,0.05,0.08,0.98,-3.0,-0.1,-0.2,940,0,,,,,,,,,,,,,,,,,,,
9259358,1495396032832,0,149.4,-0.8,169.9,14,161.1,13.6,0.05,0.08,0.99,-3.0,-0.2,-0.2,940,0,1,1,0.0,0,39.540615,-122.332382,0.0,4.473,313.9,9,3,1.9,21,3.9433,8,0.1267,28.1742,27.64,22
9259377,1495396032851,,,,,,,,0.05,0.07,1.0,-3.0,-0.2,-0.2,920,0,,,,,,,,,,,,,,,,,,,
9259397,1495396032871,,,,,,,,0.04,0.07,1.0,-3.0,-0.0,-0.2,900,0,,,,,,,,,,,,,,,,,,,
9259417,1495396032891,,,,,,,,0.04,0.07,1.0,-3.0,0.0,-0.2,900,0,,,,,,,,,,,,,,,,,,,
9259437,1495396032911,,,,,,,,0.04,0.07,0.99,-3.0,-0.0,-0.2,880,0,,,,,,,,,,,,,,,,,,,
9259459,1495396032933,,,,,13,,,0.04,0.07,0.99,-3.0,-0.2,-0.2,840,0,1,1,0.0,0,39.540615,-122.332382,0.0,4.473,313.9,9,3,1.9,21,3.9433,8,0.1267,28.1759,27.6417,22
9259478,1495396032952,,,,,,,,0.04,0.06,1.0,-3.0,-0.2,-0.3,840,0,,,,,,,,,,,,,,,,,,,
9259498,1495396032972,,,,,,,,0.04,0.07,1.0,-2.9,-0.3,-0.3,820,0,,,,,,,,,,,,,,,,,,,
9259518,1495396032992,,,,,,,,0.04,0.07,0.99,-3.0,-0.2,-0.3,820,0,,,,,,,,,,,,,,,,,,,
9259538,1495396033004,,,,,,,,0.04,0.06,0.98,-3.0,-0.3,-0.2,800,0,,,,,,,,,,,,,,,,,,,
9259560,1495396033026,0,149.4,,170.0,15,161.1,,0.04,0.07,1.0,-3.0,-0.2,-0.2,780,0,1,1,0.0,0,39.540615,-122.332382,0.0,4.473,313.9,9,3,1.9,21,3.9433,8,0.1267,28.1774,27.6433,22
9259579,1495396033045,,,,,,,,0.04,0.08,1.0,-3.0,-0.2,-0.2,760,0,,,,,,,,,,,,,,,,,,,
9259599,1495396033065,,,,,,,,0.04,0.07,1.01,-3.0,-0.3,-0.2,740,0,,,,,,,,,,,,,,,,,,,
9259619,1495396033093,,,,,,,,0.04,0.07,1.0,-3.0,-0.2,-0.2,740,0,,,,,,,,,,,,,,,,,,,
9259639,1495396033113,,,,,,,,0.04,0.07,1.0,-3.0,-0.2,-0.2,740,0,,,,,,,,,,,,,,,,,,,
9259661,1495396033135,,,,,17,,,0.04,0.07,1.0,-3.0,-0.1,-0.2,720,0,1,1,0.0,0,39.540615,-122.332382,0.0,4.473,313.9,9,3,1.9,21,3.9433,8,0.1267,28.1793,27.645,22
9259680,1495396033154,,,,,,,,0.04,0.06,1.01,-2.9,0.0,-0.3,720,0,,,,,,,,,,,,,,,,,,,
9259700,1495396033174,,,,,,,,0.04,0.06,1.0,-3.0,-0.1,-0.2,720,0,,,,,,,,,,,,,,,,,,,
9259720,1495396033194,,,,,,,,0.05,0.06,1.0,-3.0,0.0,-0.2,700,0,,,,,,,,,,,,,,,,,,,
9259740,1495396033214,,,,,,,,0.04,0.06,0.99,-3.0,-0.0,-0.2,700,0,,,,,,,,,,,,,,,,,,,
9259762,1495396033236,0,148.9,,169.5,18,160.6,,0.04,0.06,1.0,-2.9,-0.0,-0.2,700,0,0,1,0.0,0,39.540615,-122.332382,0.0,4.473,313.9,9,3,1.9,21,3.9433,8,0.1267,28.1809,27.6467,22
9259781,1495396033255,,,,,,,,0.04,0.06,1.0,-3.0,0.0,-0.2,680,0,,,,,,,,,,,,,,,,,,,
9259801,1495396033275,,,,,,,,0.04,0.06,0.98,-3.0,0.1,-0.2,680,0,,,,,,,,,,,,,,,,,,,
9259821,1495396033295,,,,,,,,0.04,0.05,0.98,-3.0,0.1,-0.2,680,0,,,,,,,,,,,,,,,,,,,
9259841,1495396033315,,,,,,,,0.04,0.05,0.99,-3.0,0.1,-0.1,680,0,,,,,,,,,,,,,,,,,,,
9259863,1495396033337,,,,,17,,,0.04,0.06,0.99,-3.0,0.1,-0.0,680,0,0,1,0.0,0,39.540615,-122.332382,0.0,4.473,313.9,9,3,1.9,21,3.9433,8,0.1267,28.1826,27.6483,22
9259882,1495396033356,,,,,,,,0.04,0.05,0.98,-3.0,0.0,-0.1,680,0,,,,,,,,,,,,,,,,,,,
9259902,1495396033376,,,,,,,,0.04,0.06,0.99,-3.0,-0.0,-0.1,680,0,,,,,,,,,,,,,,,,,,,
9259922,1495396033395,,,,,,,,0.04,0.06,0.99,-3.0,-0.0,-0.1,680,0,,,,,,,,,,,,,,,,,,,
9259942,1495396033415,,,,,,,,0.04,0.07,0.99,-3.0,-0.1,-0.2,680,0,,,,,,,,,,,,,,,,,,,
9259964,1495396033437,0,148.9,,169.5,17,160.7,,0.04,0.06,0.99,-3.0,-0.2,-0.2,680,0,0,1,0.0,0,39.540615,-122.332382,0.0,4.473,313.9,9,3,1.9,21,3.9433,8,0.1267,28.1843,27.65,22
9259983,1495396033456,,,,,,,,0.04,0.06,1.0,-3.0,-0.3,-0.2,680,0,,,,,,,,,,,,,,,,,,,
9260003,1495396033476,,,,,,,,0.03,0.06,0.99,-3.0,-0.2,-0.2,680,2,,,,,,,,,,,,,,,,,,,
9260023,1495396033496,,,,,,,,0.04,0.06,0.98,-3.0,-0.1,-0.3,680,2,,,,,,,,,,,,,,,,,,,
9260043,1495396033516,,,,,,,,0.04,0.06,0.98,-3.0,-0.1,-0.2,680,2,,,,,,,,,,,,,,,,,,,
9260065,1495396033538,,,,,18,,,0.04,0.06,0.98,-3.0,-0.1,-0.1,680,2,0,1,0.0,0,39.540615,-122.332382,0.0,4.473,313.9,9,3,1.9,21,3.9433,8,0.1267,28.186,27.6517,22
9260084,1495396033557,,,,,,,,0.04,0.06,0.98,-3.0,-0.1,-0.2,680,2,,,,,,,,,,,,,,,,,,,
9260104,1495396033577,,,,,,,,0.04,0.06,0.98,-3.0,0.1,-0.1,680,2,,,,,,,,,,,,,,,,,,,
9260124,1495396033597,,,,,,,,0.04,0.08,0.99,-3.0,-0.1,-0.1,680,2,,,,,,,,,,,,,,,,,,,
9260144,1495396033617,,,,,,,,0.04,0.07,0.98,-3.0,-0.2,-0.2,680,2,,,,,,,,,,,,,,,,,,,
9260166,1495396033639,0,149.4,,170.0,18,161.1,,0.04,0.07,0.98,-3.0,-0.1,-0.2,680,2,0,1,680.0,0,39.540615,-122.332382,0.0,4.473,313.9,9,3,1.9,21,3.9433,8,0.1267,28.1877,27.6533,22
9260185,1495396033658,,,,,,,,0.04,0.08,0.98,-3.0,-0.1,-0.2,680,2,,,,,,,,,,,,,,,,,,,
9260205,1495396033678,,,,,,,,0.04,0.08,0.99,-3.0,-0.4,-0.2,680,2,,,,,,,,,,,,,,,,,,,
9260225,1495396033698,,,,,,,,0.04,0.08,0.99,-3.0,-0.4,-0.3,680,2,,,,,,,,,,,,,,,,,,,
9260245,1495396033718,,,,,,,,0.04,0.09,0.98,-3.1,-0.4,-0.2,680,2,,,,,,,,,,,,,,,,,,,
9260267,1495396033740,,,,,18,,,0.04,0.08,0.98,-3.0,-0.4,-0.2,680,2,0,1,680.0,0,39.540615,-122.332382,0.0,4.473,313.9,9,3,1.9,21,3.9433,8,0.1267,28.1893,27.655,22
9260286,1495396033759,,,,,,,,0.05,0.06,0.98,-3.0,-0.3,-0.3,680,2,,,,,,,,,,,,,,,,,,,
9260306,1495396033779,,,,,,,,0.04,0.06,0.98,-3.0,-0.2,-0.2,680,2,,,,,,,,,,,,,,,,,,,
9260326,1495396033799,,,,,,,,0.05,0.06,0.98,-3.0,-0.1,-0.2,700,2,,,,,,,,,,,,,,,,,,,
9260346,1495396033819,,,,,,,,0.05,0.06,0.98,-3.0,-0.2,-0.3,700,139860,,,,,,,,,,,,,,,,,,,
9260368,1495396033841,0,149.4,-0.9,170.1,19,160.7,12.99,0.04,0.06,0.98,-3.0,-0.3,-0.2,700,0,0,1,680.0,0,39.540615,-122.332382,0.0,4.473,313.9,9,3,1.9,21,3.9433,8,0.1267,28.191,27.6567,22
9260387,1495396033860,,,,,,,,0.04,0.07,0.98,-3.0,-0.3,-0.1,700,0,,,,,,,,,,,,,,,,,,,
9260407,1495396033880,,,,,,,,0.04,0.07,0.98,-3.0,-0.3,-0.2,700,0,,,,,,,,,,,,,,,,,,,
9260427,1495396033900,,,,,,,,0.04,0.07,0.98,-3.0,-0.3,-0.2,700,0,,,,,,,,,,,,,,,,,,,
9260447,1495396033920,,,,,,,,0.04,0.07,0.98,-2.9,-0.3,-0.1,700,0,,,,,,,,,,,,,,,,,,,
9260469,1495396033942,,,,,19,,,0.04,0.07,0.98,-3.0,-0.3,-0.1,700,0,0,1,0.0,0,39.540615,-122.332382,0.0,4.473,313.9,9,3,1.9,21,3.9433,8,0.1267,28.1927,27.6583,22
9260488,1495396033961,,,,,,,,0.04,0.07,0.99,-3.0,-0.3,-0.2,700,0,,,,,,,,,,,,,,,,,,,
9260508,1495396033981,,,,,,,,0.04,0.07,0.97,-3.0,-0.3,-0.2,700,0,,,,,,,,,,,,,,,,,,,
9260528,1495396033995,,,,,,,,0.04,0.07,0.97,-3.0,-0.3,-0.2,700,0,,,,,,,,,,,,,,,,,,,
9260548,1495396034015,,,,,,,,0.04,0.06,0.96,-3.0,-0.5,-0.2,700,0,,,,,,,,,,,,,,,,,,,
9260570,1495396034037,0,148.8,,169.5,18,161.1,,0.04,0.06,0.95,-2.9,-0.5,-0.3,700,0,0,1,0.0,0,39.540615,-122.332382,0.0,4.473,313.9,9,3,1.9,21,3.9433,8,0.1267,28.1943,27.66,22
9260589,1495396034056,,,,,,,,0.04,0.06,0.94,-2.9,-0.4,-0.3,700,0,,,,,,,,,,,,,,,,,,,
9260609,1495396034076,,,,,,,,0.04,0.06,0.94,-3.0,-0.3,-0.2,700,0,,,,,,,,,,,,,,,,,,,
9260629,1495396034102,,,,,,,,0.04,0.06,0.95,-2.9,-0.3,-0.3,700,0,,,,,,,,,,,,,,,,,,,
9260649,1495396034122,,,,,,,,0.03,0.05,0.96,-2.9,-0.4,-0.3,700,0,,,,,,,,,,,,,,,,,,,
9260671,1495396034144,,,,,20,,,0.04,0.06,0.95,-3.0,-0.4,-0.2,700,0,0,1,0.0,0,39.540615,-122.332382,0.0,4.473,313.9,9,3,1.9,21,3.9433,8,0.1267,28.1961,27.6617,22
9260690,1495396034163,,,,,,,,0.04,0.07,0.95,-3.0,-0.4,-0.2,700,0,,,,,,,,,,,,,,,,,,,
9260710,1495396034183,,,,,,,,0.04,0.06,0.96,-2.9,-0.2,-0.2,700,0,,,,,,,,,,,,,,,,,,,
9260730,1495396034205,,,,,,,,0.04,0.05,0.96,-3.0,-0.2,-0.2,700,0,,,,,,,,,,,,,,,,,,,
9260750,1495396034225,,,,,,,,0.04,0.06,0.96,-3.0,-0.1,-0.2,700,0,,,,,,,,,,,,,,,,,,,
9260772,1495396034247,0,149.4,,170.1,21,160.9,,0.05,0.06,0.97,-3.0,-0.2,-0.3,700,0,0,1,0.0,0,39.540615,-122.332382,0.0,4.473,313.9,9,3,1.9,21,3.9433,8,0.1267,28.1978,27.6633,22
9260791,1495396034266,,,,,,,,0.05,0.07,0.97,-2.9,-0.2,-0.3,700,0,,,,,,,,,,,,,,,,,,,
9260811,1495396034286,,,,,,,,0.06,0.07,0.98,-3.0,-0.1,-0.3,720,0,,,,,,,,,,,,,,,,,,,
9260831,1495396034306,,,,,,,,0.06,0.08,0.98,-3.0,0.0,-0.2,720,0,,,,,,,,,,,,,,,,,,,
9260851,1495396034326,,,,,,,,0.06,0.07,0.98,-3.0,-0.0,-0.3,700,0,,,,,,,,,,,,,,,,,,,
9260873,1495396034348,,,,,20,,,0.05,0.06,0.98,-3.0,0.0,-0.3,700,0,0,1,0.0,0,39.540615,-122.332382,0.0,4.473,313.9,9,3,1.9,21,3.9433,8,0.1267,28.1995,27.665,22
9260892,1495396034367,,,,,,,,0.05,0.07,0.98,-3.0,-0.1,-0.2,700,0,,,,,,,,,,,,,,,,,,,
9260912,1495396034387,,,,,,,,0.05,0.07,0.97,-3.0,-0.1,-0.1,720,0,,,,,,,,,,,,,,,,,,,
9260932,1495396034406,,,,,,,,0.05,0.07,0.98,-2.9,-0.0,-0.2,720,0,,,,,,,,,,,,,,,,,,,
9260952,1495396034426,,,,,,,,0.05,0.07,0.99,-3.0,-0.0,-0.2,720,0,,,,,,,,,,,,,,,,,,,
9260974,1495396034448,0,149.4,,170.2,20,160.6,,0.05,0.08,0.98,-3.0,-0.1,-0.1,720,0,0,1,0.0,0,39.540615,-122.332382,0.0,4.473,313.9,9,3,1.9,21,3.9433,8,0.1267,28.2011,27.6667,22
9260993,1495396034467,,,,,,,,0.05,0.07,0.98,-3.0,-0.3,-0.2,720,0,,,,,,,,,,,,,,,,,,,
9261013,1495396034487,,,,,,,,0.05,0.07,0.99,-3.0,-0.3,-0.3,720,0,,,,,,,,,,,,,,,,,,,
9261033,1495396034507,,,,,,,,0.05,0.07,0.98,-3.0,-0.3,-0.2,700,0,,,,,,,,,,,,,,,,,,,
9261053,1495396034527,,,,,,,,0.06,0.08,0.98,-2.9,-0.3,-0.2,700,0,,,,,,,,,,,,,,,,,,,
9261075,1495396034549,,,,,20,,,0.05,0.07,0.98,-2.9,-0.3,-0.3,700,0,0,1,0.0,0,39.540615,-122.332382,0.0,4.473,313.9,9,3,1.9,21,3.9433,8,0.1267,28.2028,27.6683,22
9261094,1495396034568,,,,,,,,0.05,0.06,0.98,-2.9,-0.4,-0.3,700,0,,,,,,,,,,,,,,,,,,,
9261114,1495396034588,,,,,,,,0.05,0.07,0.97,-3.0,-0.3,-0.2,700,0,,,,,,,,,,,,,,,,,,,
9261134,1495396034608,,,,,,,,0.05,0.07,0.97,-2.9,-0.3,-0.3,700,0,,,,,,,,,,,,,,,,,,,
9261154,1495396034628,,,,,,,,0.05,0.07,0.97,-2.9,-0.2,-0.3,700,0,,,,,,,,,,,,,,,,,,,
9261176,1495396034650,0,149.5,,170.2,19,160.7,,0.05,0.07,0.97,-3.0,-0.2,-0.3,700,0,0,1,0.0,0,39.540615,-122.332382,0.0,4.473,313.9,9,3,1.9,21,3.9433,8,0.1267,28.2045,27.67,22
9261195,1495396034669,,,,,,,,0.05,0.07,0.97,-3.0,-0.3,-0.2,700,0,,,,,,,,,,,,,,,,,,,
9261215,1495396034689,,,,,,,,0.04,0.06,0.97,-2.9,-0.2,-0.3,700,0,,,,,,,,,,,,,,,,,,,
9261235,1495396034705,,,,,,,,0.04,0.06,0.97,-3.0,-0.2,-0.3,700,0,,,,,,,,,,,,,,,,,,,
9261255,1495396034725,,,,,,,,0.05,0.06,0.97,-3.0,-0.2,-0.3,700,0,,,,,,,,,,,,,,,,,,,
9261277,1495396034747,,,,,20,,,0.04,0.07,0.97,-3.0,-0.3,-0.3,700,0,0,1,0.0,0,39.540615,-122.332382,0.0,4.473,313.9,9,3,1.9,21,3.9433,8,0.1267,28.2061,27.6717,22
9261296,1495396034766,,,,,,,,0.04,0.06,0.97,-2.9,-0.2,-0.3,700,0,,,,,,,,,,,,,,,,,,,
9261316,1495396034786,,,,,,,,0.04,0.06,0.97,-3.0,-0.1,-0.3,700,0,,,,,,,,,,,,,,,,,,,
9261336,1495396034810,,,,,,,,0.04,0.06,0.97,-3.0,-0.1,-0.2,700,0,,,,,,,,,,,,,,,,,,,
9261356,1495396034830,,,,,,,,0.04,0.06,0.98,-2.9,-0.1,-0.3,700,0,,,,,,,,,,,,,,,,,,,
9261378,1495396034852,0,149.4,-0.7,170.2,20,160.7,13.22,0.04,0.06,0.98,-2.9,-0.3,-0.3,700,0,0,1,0.0,0,39.540615,-122.332382,0.0,4.473,313.9,9,3,1.9,21,3.9433,8,0.1267,28.2079,27.6733,22
9261397,1495396034871,,,,,,,,0.04,0.07,0.98,-3.0,-0.3,-0.2,700,0,,,,,,,,,,,,,,,,,,,
9261417,1495396034891,,,,,,,,0.04,0.07,0.97,-3.0,-0.3,-0.2,700,0,,,,,,,,,,,,,,,,,,,
9261437,1495396034911,,,,,,,,0.04,0.07,0.97,-3.0,-0.2,-0.3,700,0,,,,,,,,,,,,,,,,,,,
9261457,1495396034931,,,,,,,,0.04,0.06,0.98,-3.0,-0.1,-0.2,700,0,,,,,,,,,,,,,,,,,,,
9261479,1495396034953,,,,,19,,,0.04,0.07,0.98,-3.0,-0.2,-0.1,700,0,0,1,0.0,0,39.540615,-122.332382,0.0,4.473,313.9,9,3,1.9,21,3.9433,8,0.1267,28.2096,27.675,22
9261498,1495396034972,,,,,,,,0.04,0.07,0.98,-3.0,-0.3,-0.2,700,0,,,,,,,,,,,,,,,,,,,
9261518,1495396034992,,,,,,,,0.04,0.07,0.98,-3.0,-0.3,-0.2,700,0,,,,,,,,,,,,,,,,,,,
9261538,1495396035004,,,,,,,,0.05,0.08,0.98,-3.0,-0.2,-0.2,700,0,,,,,,,,,,,,,,,,,,,
9261558,1495396035024,,,,,,,,0.05,0.08,0.98,-3.0,-0.2,-0.1,700,0,,,,,,,,,,,,,,,,,,,
9261580,1495396035046,0,149.2,,169.9,19,161.0,,0.05,0.07,0.98,-3.0,-0.2,-0.2,700,0,0,1,0.0,0,39.540615,-122.332382,0.0,4.473,313.9,9,3,1.9,21,3.9433,8,0.1267,28.2111,27.6767,22
9261599,1495396035065,,,,,,,,0.04,0.06,0.98,-3.0,-0.3,-0.3,700,0,,,,,,,,,,,,,,,,,,,
9261619,1495396035091,,,,,,,,0.04,0.07,0.98,-3.0,-0.2,-0.2,700,0,,,,,,,,,,,,,,,,,,,
9261639,1495396035111,,,,,,,,0.04,0.07,0.98,-2.9,-0.4,-0.2,700,0,,,,,,,,,,,,,,,,,,,
9261659,1495396035131,,,,,,,,0.05,0.07,0.98,-2.9,-0.4,-0.2,700,0,,,,,,,,,,,,,,,,,,,
9261681,1495396035153,,,,,20,,,0.05,0.07,0.98,-2.9,-0.3,-0.2,700,0,0,1,0.0,0,39.540615,-122.332382,0.0,4.473,313.9,9,3,1.9,21,3.9433,8,0.1267,28.2129,27.6783,22
9261700,1495396035172,,,,,,,,0.05,0.07,0.98,-3.0,-0.3,-0.2,700,0,,,,,,,,,,,,,,,,,,,
9261720,1495396035194,,,,,,,,0.04,0.06,0.98,-2.9,-0.2,-0.2,700,0,,,,,,,,,,,,,,,,,,,
9261740,1495396035214,,,,,,,,0.04,0.06,0.98,-2.9,-0.1,-0.2,700,0,,,,,,,,,,,,,,,,,,,
9261760,1495396035234,,,,,,,,0.04,0.07,0.98,-3.0,-0.2,-0.1,700,0,,,,,,,,,,,,,,,,,,,
9261782,1495396035256,0,148.9,,169.7,20,161.0,,0.04,0.07,0.98,-2.9,-0.3,-0.2,700,0,0,1,0.0,0,39.540615,-122.332382,0.0,4.473,313.9,9,3,1.9,21,3.9433,8,0.1267,28.2146,27.68,22
9261801,1495396035275,,,,,,,,0.04,0.06,0.98,-2.9,-0.3,-0.2,700,0,,,,,,,,,,,,,,,,,,,
9261821,1495396035295,,,,,,,,0.04,0.06,0.98,-3.0,-0.1,-0.2,700,0,,,,,,,,,,,,,,,,,,,
9261841,1495396035315,,,,,,,,0.05,0.07,0.98,-3.0,-0.1,-0.1,700,0,,,,,,,,,,,,,,,,,,,
9261861,1495396035335,,,,,,,,0.05,0.06,0.98,-3.0,-0.1,-0.2,700,0,,,,,,,,,,,,,,,,,,,
9261883,1495396035357,,,,,19,,,0.04,0.06,0.98,-3.0,-0.2,-0.2,700,0,0,1,0.0,0,39.540615,-122.332382,0.0,4.473,313.9,9,3,1.9,21,3.9433,8,0.1267,28.2163,27.6817,22
9261902,1495396035376,,,,,,,,0.04,0.07,0.98,-3.0,-0.2,-0.2,700,0,,,,,,,,,,,,,,,,,,,
9261922,1495396035395,,,,,,,,0.04,0.07,0.97,-3.0,-0.2,-0.2,700,0,,,,,,,,,,,,,,,,,,,
9261942,1495396035415,,,,,,,,0.04,0.07,0.98,-3.0,-0.1,-0.2,700,0,,,,,,,,,,,,,,,,,,,
9261962,1495396035435,,,,,,,,0.05,0.07,0.98,-3.0,-0.2,-0.2,700,0,,,,,,,,,,,,,,,,,,,
9261984,1495396035457,0,149.3,,170.1,19,161.2,,0.04,0.07,0.98,-3.0,-0.2,-0.1,700,0,0,1,0.0,0,39.540615,-122.332382,0.0,4.473,313.9,9,3,1.9,21,3.9433,8,0.1267,28.218,27.6833,22
9262003,1495396035476,,,,,,,,0.04,0.06,0.98,-2.9,-0.2,-0.2,700,0,,,,,,,,,,,,,,,,,,,
9262023,1495396035496,,,,,,,,0.04,0.06,0.98,-3.0,-0.2,-0.3,700,0,,,,,,,,,,,,,,,,,,,
9262043,1495396035516,,,,,,,,0.04,0.07,0.98,-3.0,-0.2,-0.2,700,0,,,,,,,,,,,,,,,,,,,
9262063,1495396035536,,,,,,,,0.04,0.07,0.98,-3.0,-0.4,-0.2,680,0,,,,,,,,,,,,,,,,,,,
9262085,1495396035558,,,,,19,,,0.04,0.06,0.98,-2.9,-0.3,-0.3,680,0,0,1,0.0,0,39.540615,-122.332382,0.0,4.473,313.9,9,3,1.9,21,3.9433,8,0.1267,28.2196,27.685,22
9262104,1495396035577,,,,,,,,0.04,0.06,0.98,-2.9,-0.2,-0.3,700,0,,,,,,,,,,,,,,,,,,,
9262124,1495396035597,,,,,,,,0.04,0.06,0.98,-3.0,-0.1,-0.2,700,0,,,,,,,,,,,,,,,,,,,
9262144,1495396035617,,,,,,,,0.04,0.06,0.97,-2.9,-0.3,-0.3,700,0,,,,,,,,,,,,,,,,,,,
9262164,1495396035637,,,,,,,,0.03,0.06,0.97,-2.9,-0.4,-0.3,700,0,,,,,,,,,,,,,,,,,,,
9262186,1495396035659,0,148.8,,169.7,19,161.2,,0.04,0.06,0.97,-3.0,-0.4,-0.3,700,0,0,1,0.0,0,39.540615,-122.332382,0.0,4.473,313.9,9,3,1.9,21,3.9433,8,0.1267,28.2213,27.6867,22
9262205,1495396035678,,,,,,,,0.04,0.07,0.97,-2.9,-0.4,-0.2,700,0,,,,,,,,,,,,,,,,,,,
9262225,1495396035698,,,,,,,,0.04,0.06,0.97,-2.9,-0.2,-0.3,700,0,,,,,,,,,,,,,,,,,,,
9262245,1495396035718,,,,,,,,0.04,0.05,0.97,-2.9,-0.1,-0.2,700,0,,,,,,,,,,,,,,,,,,,
9262265,1495396035738,,,,,,,,0.04,0.06,0.97,-3.0,-0.1,-0.2,700,0,,,,,,,,,,,,,,,,,,,
9262287,1495396035760,,,,,20,,,0.04,0.06,0.98,-3.0,-0.2,-0.2,700,0,0,1,0.0,0,39.540615,-122.332382,0.0,4.473,313.9,9,3,1.9,21,3.9433,8,0.1267,28.223,27.6883,22
9262306,1495396035779,,,,,,,,0.04,0.06,0.98,-2.9,-0.2,-0.2,700,0,,,,,,,,,,,,,,,,,,,
9262326,1495396035799,,,,,,,,0.04,0.06,0.98,-3.0,-0.1,-0.1,700,0,,,,,,,,,,,,,,,,,,,
9262346,1495396035819,,,,,,,,0.05,0.07,0.98,-3.0,-0.1,-0.1,700,0,,,,,,,,,,,,,,,,,,,
9262366,1495396035839,,,,,,,,0.05,0.06,0.98,-3.0,-0.2,-0.2,700,0,,,,,,,,,,,,,,,,,,,
9262388,1495396035861,0,148.8,-0.7,169.6,20,161.1,13.26,0.04,0.05,0.99,-3.0,-0.0,-0.2,700,0,0,1,0.0,0,39.540615,-122.332382,0.0,4.473,313.9,9,3,1.9,21,3.9433,8,0.1267,28.2247,27.69,22
9262407,1495396035880,,,,,,,,0.04,0.07,0.99,-3.0,-0.0,-0.1,700,0,,,,,,,,,,,,,,,,,,,
9262427,1495396035902,,,,,,,,0.04,0.07,0.99,-3.0,-0.1,-0.2,700,0,,,,,,,,,,,,,,,,,,,
9262447,1495396035922,,,,,,,,0.04,0.06,0.99,-3.0,-0.2,-0.2,700,0,,,,,,,,,,,,,,,,,,,
9262467,1495396035942,,,,,,,,0.04,0.08,0.99,-3.0,-0.4,-0.1,700,0,,,,,,,,,,,,,,,,,,,
9262489,1495396035964,,,,,19,,,0.04,0.07,0.99,-3.0,-0.2,-0.1,700,0,0,1,0.0,0,39.540615,-122.332382,0.0,4.473,313.9,9,3,1.9,21,3.9433,8,0.1267,28.2264,27.6917,22
9262508,1495396035983,,,,,,,,0.04,0.07,0.99,-2.9,-0.2,-0.2,700,0,,,,,,,,,,,,,,,,,,,
9262528,1495396035995,,,,,,,,0.04,0.07,0.99,-2.9,-0.1,-0.2,700,0,,,,,,,,,,,,,,,,,,,
9262548,1495396036015,,,,,,,,0.04,0.06,0.99,-3.0,-0.2,-0.1,700,0,,,,,,,,,,,,,,,,,,,
9262568,1495396036035,,,,,,,,0.04,0.06,0.98,-2.9,-0.4,-0.2,700,0,,,,,,,,,,,,,,,,,,,
9262590,1495396036057,0,149.2,,169.9,20,161.2,,0.04,0.06,0.99,-2.9,-0.3,-0.3,700,0,0,1,0.0,0,39.540615,-122.332382,0.0,4.473,313.9,9,3,1.9,21,3.9433,8,0.1267,28.2279,27.6933,22
9262609,1495396036076,,,,,,,,0.04,0.07,0.99,-3.0,-0.1,-0.2,700,0,,,,,,,,,,,,,,,,,,,
9262629,1495396036104,,,,,,,,0.04,0.07,0.99,-3.0,-0.1,-0.2,700,0,,,,,,,,,,,,,,,,,,,
9262649,1495396036124,,,,,,,,0.04,0.06,0.99,-3.0,-0.1,-0.3,700,0,,,,,,,,,,,,,,,,,,,
9262669,1495396036144,,,,,,,,0.03,0.06,1.0,-3.0,-0.2,-0.3,700,0,,,,,,,,,,,,,,,,,,,
9262691,1495396036166,,,,,20,,,0.03,0.06,0.99,-3.0,-0.2,-0.2,700,0,0,1,0.0,0,39.540615,-122.332382,0.0,4.473,313.9,9,3,1.9,21,3.9433,8,0.1267,28.2298,27.695,22
9262710,1495396036185,,,,,,,,0.04,0.06,0.99,-3.0,-0.1,-0.2,700,0,,,,,,,,,,,,,,,,,,,
9262730,1495396036205,,,,,,,,0.04,0.06,0.98,-3.0,-0.2,-0.2,700,0,,,,,,,,,,,,,,,,,,,
9262750,1495396036225,,,,,,,,0.04,0.06,0.98,-3.0,-0.3,-0.1,700,0,,,,,,,,,,,,,,,,,,,
9262770,1495396036245,,,,,,,,0.05,0.07,0.99,-3.0,-0.2,-0.1,700,0,,,,,,,,,,,,,,,,,,,
9262792,1495396036267,0,149.6,,170.3,19,160.6,,0.05,0.06,0.98,-3.0,-0.1,-0.2,700,0,0,1,0.0,0,39.540615,-122.332382,0.0,4.473,313.9,9,3,1.9,21,3.9433,8,0.1267,28.2314,27.6967,22
9262811,1495396036286,,,,,,,,0.05,0.06,0.99,-3.1,0.0,-0.2,700,0,,,,,,,,,,,,,,,,,,,
9262831,1495396036306,,,,,,,,0.05,0.07,0.99,-3.0,-0.1,-0.1,700,0,,,,,,,,,,,,,,,,,,,
9262851,1495396036326,,,,,,,,0.04,0.07,0.99,-3.0,-0.2,-0.2,700,0,,,,,,,,,,,,,,,,,,,
9262871,1495396036346,,,,,,,,0.04,0.07,0.99,-3.0,-0.2,-0.2,700,0,,,,,,,,,,,,,,,,,,,
9262893,1495396036368,,,,,20,,,0.04,0.07,0.98,-3.0,-0.2,-0.1,700,0,0,1,0.0,0,39.540615,-122.332382,0.0,4.473,313.9,9,3,1.9,21,3.9433,8,0.1267,28.2331,27.6983,22
9262912,1495396036387,,,,,,,,0.05,0.08,0.98,-3.0,-0.1,-0.1,680,0,,,,,,,,,,,,,,,,,,,
9262932,1495396036406,,,,,,,,0.05,0.07,0.99,-3.0,-0.2,-0.2,680,0,,,,,,,,,,,,,,,,,,,
9262952,1495396036426,,,,,,,,0.04,0.07,0.99,-3.0,-0.2,-0.2,700,0,,,,,,,,,,,,,,,,,,,
9262972,1495396036446,,,,,,,,0.04,0.07,0.99,-3.0,-0.1,-0.2,700,0,,,,,,,,,,,,,,,,,,,
9262994,1495396036468,0,148.9,,169.7,20,161.1,,0.04,0.06,0.98,-3.0,-0.3,-0.2,700,0,0,1,0.0,0,39.540615,-122.332382,0.0,4.473,313.9,9,3,1.9,21,3.9433,8,0.1267,28.2348,27.7,22
9263013,1495396036487,,,,,,,,0.04,0.06,0.98,-3.0,-0.4,-0.3,700,0,,,,,,,,,,,,,,,,,,,
9263033,1495396036507,,,,,,,,0.04,0.06,0.98,-3.0,-0.4,-0.2,700,0,,,,,,,,,,,,,,,,,,,
9263053,1495396036527,,,,,,,,0.04,0.07,0.98,-3.0,-0.3,-0.2,680,0,,,,,,,,,,,,,,,,,,,
9263073,1495396036547,,,,,,,,0.05,0.06,0.98,-3.0,-0.1,-0.2,680,0,,,,,,,,,,,,,,,,,,,
9263095,1495396036569,,,,,19,,,0.05,0.06,0.98,-3.0,-0.1,-0.2,680,0,0,1,0.0,0,39.540615,-122.332382,0.0,4.473,313.9,9,3,1.9,21,3.9433,8,0.1267,28.2365,27.7017,22
9263114,1495396036588,,,,,,,,0.05,0.06,0.98,-3.0,-0.2,-0.2,700,0,,,,,,,,,,,,,,,,,,,
9263134,1495396036608,,,,,,,,0.04,0.06,0.99,-3.0,-0.2,-0.2,700,0,,,,,,,,,,,,,,,,,,,
9263154,1495396036628,,,,,,,,0.05,0.06,0.98,-3.0,-0.1,-0.2,700,0,,,,,,,,,,,,,,,,,,,
9263174,1495396036648,,,,,,,,0.05,0.07,0.98,-3.0,-0.0,-0.1,700,0,,,,,,,,,,,,,,,,,,,
9263196,1495396036670,0,149.5,,170.4,19,160.5,,0.04,0.07,0.98,-3.0,-0.2,-0.2,700,0,0,1,0.0,0,39.540615,-122.332382,0.0,4.473,313.9,9,3,1.9,21,3.9433,8,0.1267,28.2382,27.7033,22
9263215,1495396036689,,,,,,,,0.04,0.06,0.99,-3.0,-0.2,-0.2,700,0,,,,,,,,,,,,,,,,,,,
9263235,1495396036709,,,,,,,,0.05,0.07,0.98,-3.0,-0.1,-0.2,700,0,,,,,,,,,,,,,,,,,,,
9263255,1495396036729,,,,,,,,0.05,0.07,0.98,-3.0,-0.0,-0.1,680,0,,,,,,,,,,,,,,,,,,,
9263275,1495396036749,,,,,,,,0.05,0.06,0.98,-3.0,-0.1,-0.2,700,0,,,,,,,,,,,,,,,,,,,
9263297,1495396036771,,,,,18,,,0.04,0.06,0.99,-3.0,-0.2,-0.3,700,0,0,1,0.0,0,39.540615,-122.332382,0.0,4.473,313.9,9,3,1.9,21,3.9433,8,0.1267,28.2398,27.705,22
9263316,1495396036790,,,,,,,,0.04,0.07,0.99,-3.0,-0.2,-0.2,700,0,,,,,,,,,,,,,,,,,,,
9263336,1495396036810,,,,,,,,0.04,0.07,0.98,-3.0,-0.2,-0.2,700,0,,,,,,,,,,,,,,,,,,,
9263356,1495396036830,,,,,,,,0.04,0.07,0.98,-3.0,-0.3,-0.2,700,0,,,,,,,,,,,,,,,,,,,
9263376,1495396036850,,,,,,,,0.05,0.07,0.98,-3.0,-0.4,-0.2,700,0,,,,,,,,,,,,,,,,,,,
9263398,1495396036872,0,149.5,-0.6,170.3,20,160.8,13.32,0.05,0.07,0.98,-3.0,-0.3,-0.2,700,0,0,1,0.0,0,39.540615,-122.332382,0.0,4.473,313.9,9,3,1.9,21,3.9433,8,0.1267,28.2415,27.7067,22
9263417,1495396036891,,,,,,,,0.05,0.07,0.98,-2.9,-0.2,-0.3,680,0,,,,,,,,,,,,,,,,,,,
9263437,1495396036911,,,,,,,,0.04,0.07,0.98,-3.0,-0.1,-0.3,680,0,,,,,,,,,,,,,,,,,,,
9263457,1495396036931,,,,,,,,0.04,0.07,0.98,-3.0,-0.2,-0.2,700,0,,,,,,,,,,,,,,,,,,,
9263477,1495396036951,,,,,,,,0.04,0.07,0.98,-3.0,-0.2,-0.2,700,0,,,,,,,,,,,,,,,,,,,
9263499,1495396036973,,,,,19,,,0.04,0.06,0.98,-2.9,-0.2,-0.2,700,0,0,1,0.0,0,39.540615,-122.332382,0.0,4.473,313.9,9,3,1.9,21,3.9433,8,0.1267,28.2432,27.7083,22
9263518,1495396036992,,,,,,,,0.05,0.07,0.98,-3.0,-0.1,-0.2,700,0,,,,,,,,,,,,,,,,,,,
9263538,1495396037004,,,,,,,,0.05,0.07,0.97,-3.0,-0.1,-0.1,700,0,,,,,,,,,,,,,,,,,,,
9263558,1495396037024,,,,,,,,0.05,0.06,0.98,-3.0,-0.1,-0.2,700,0,,,,,,,,,,,,,,,,,,,
9263578,1495396037044,,,,,,,,0.04,0.06,0.98,-3.0,-0.0,-0.2,700,0,,,,,,,,,,,,,,,,,,,
9263600,1495396037066,0,149.5,,170.4,20,160.5,,0.04,0.07,0.98,-3.0,0.0,-0.1,680,0,0,1,0.0,0,39.540615,-122.332382,0.0,4.473,313.9,9,3,1.9,21,3.9433,8,0.1267,28.2448,27.71,22
9263619,1495396037091,,,,,,,,0.04,0.07,0.98,-2.9,-0.0,-0.1,700,0,,,,,,,,,,,,,,,,,,,
9263639,1495396037111,,,,,,,,0.04,0.07,0.98,-3.0,-0.1,-0.2,700,0,,,,,,,,,,,,,,,,,,,
9263659,1495396037131,,,,,,,,0.05,0.08,0.98,-3.0,-0.2,-0.1,700,0,,,,,,,,,,,,,,,,,,,
9263679,1495396037151,,,,,,,,0.04,0.07,0.98,-3.0,-0.1,-0.1,700,0,,,,,,,,,,,,,,,,,,,
9263701,1495396037173,,,,,20,,,0.04,0.07,0.98,-2.9,-0.0,-0.1,700,0,0,1,0.0,0,39.540615,-122.332382,0.0,4.473,313.9,9,3,1.9,21,3.9433,8,0.1267,28.2465,27.7117,22
9263720,1495396037194,,,,,,,,0.04,0.07,0.98,-2.9,-0.0,-0.2,700,0,,,,,,,,,,,,,,,,,,,
9263740,1495396037214,,,,,,,,0.04,0.07,0.98,-3.0,-0.1,-0.1,700,0,,,,,,,,,,,,,,,,,,,
9263760,1495396037234,,,,,,,,0.04,0.06,0.98,-3.0,-0.3,-0.2,700,0,,,,,,,,,,,,,,,,,,,
9263780,1495396037254,,,,,,,,0.04,0.06,0.98,-3.0,-0.3,-0.2,700,0,,,,,,,,,,,,,,,,,,,
9263802,1495396037276,0,149.2,,170.0,19,161.1,,0.04,0.07,0.98,-3.0,-0.2,-0.1,700,0,0,1,0.0,0,39.540615,-122.332382,0.0,4.473,313.9,9,3,1.9,21,3.9433,8,0.1267,28.2483,27.7133,22
9263821,1495396037295,,,,,,,,0.04,0.07,0.97,-3.0,-0.1,-0.1,700,0,,,,,,,,,,,,,,,,,,,
9263841,1495396037315,,,,,,,,0.04,0.06,0.98,-3.0,-0.1,-0.2,700,0,,,,,,,,,,,,,,,,,,,
9263861,1495396037335,,,,,,,,0.04,0.06,0.98,-3.0,-0.2,-0.2,700,0,,,,,,,,,,,,,,,,,,,
9263881,1495396037355,,,,,,,,0.04,0.06,0.98,-3.0,-0.1,-0.2,700,0,,,,,,,,,,,,,,,,,,,
9263903,1495396037377,,,,,20,,,0.04,0.06,0.98,-3.0,-0.1,-0.2,700,0,0,1,0.0,0,39.540615,-122.332382,0.0,4.473,313.9,9,3,1.9,21,3.9433,8,0.1267,28.25,27.715,22
9263922,1495396037395,,,,,,,,0.04,0.06,0.97,-3.0,-0.1,-0.2,700,0,,,,,,,,,,,,,,,,,,,
9263942,1495396037415,,,,,,,,0.05,0.06,0.98,-3.0,-0.1,-0.1,680,0,,,,,,,,,,,,,,,,,,,
9263962,1495396037435,,,,,,,,0.05,0.07,0.98,-3.0,-0.1,-0.1,700,0,,,,,,,,,,,,,,,,,,,
9263982,1495396037455,,,,,,,,0.05,0.06,0.98,-3.0,0.0,-0.2,700,0,,,,,,,,,,,,,,,,,,,
9264004,1495396037477,0,149.6,,170.4,19,160.7,,0.04,0.06,0.99,-3.0,0.1,-0.2,680,0,0,1,0.0,0,39.540615,-122.332382,0.0,4.473,313.9,9,3,1.9,21,3.9433,8,0.1267,28.2516,27.7167,22
9264023,1495396037496,,,,,,,,0.05,0.07,0.99,-3.0,-0.1,-0.1,680,0,,,,,,,,,,,,,,,,,,,
9264043,1495396037516,,,,,,,,0.04,0.06,0.99,-3.0,-0.2,-0.2,700,0,,,,,,,,,,,,,,,,,,,
9264063,1495396037536,,,,,,,,0.04,0.06,0.99,-3.0,-0.3,-0.2,700,0,,,,,,,,,,,,,,,,,,,
9264083,1495396037556,,,,,,,,0.04,0.07,0.98,-3.0,-0.3,-0.2,680,0,,,,,,,,,,,,,,,,,,,
9264105,1495396037578,,,,,20,,,0.05,0.07,0.99,-3.0,-0.3,-0.2,680,0,0,1,0.0,0,39.540615,-122.332382,0.0,4.473,313.9,9,3,1.9,21,3.9433,8,0.1267,28.2533,27.7183,22
9264124,1495396037597,,,,,,,,0.05,0.06,0.99,-3.0,-0.3,-0.3,680,0,,,,,,,,,,,,,,,,,,,
9264144,1495396037617,,,,,,,,0.04,0.06,0.99,-3.0,-0.2,-0.2,680,0,,,,,,,,,,,,,,,,,,,
9264164,1495396037637,,,,,,,,0.04,0.06,0.98,-3.0,-0.1,-0.2,680,0,,,,,,,,,,,,,,,,,,,
9264184,1495396037657,,,,,,,,0.04,0.06,0.98,-3.0,-0.1,-0.3,680,0,,,,,,,,,,,,,,,,,,,
9264206,1495396037679,0,149.5,,170.4,20,160.5,,0.04,0.05,0.99,-3.0,-0.2,-0.3,680,0,0,1,0.0,0,39.540615,-122.332382,0.0,4.473,313.9,9,3,1.9,21,3.9433,8,0.1267,28.255,27.72,22
9264225,1495396037698,,,,,,,,0.04,0.06,0.98,-3.0,-0.2,-0.2,680,0,,,,,,,,,,,,,,,,,,,
9264245,1495396037718,,,,,,,,0.04,0.06,0.98,-3.0,-0.2,-0.2,680,0,,,,,,,,,,,,,,,,,,,
9264265,1495396037738,,,,,,,,0.04,0.06,0.98,-3.0,-0.2,-0.3,680,0,,,,,,,,,,,,,,,,,,,
9264285,1495396037758,,,,,,,,0.04,0.07,0.97,-3.0,-0.3,-0.1,680,0,,,,,,,,,,,,,,,,,,,
9264307,1495396037780,,,,,21,,,0.04,0.07,0.97,-3.0,-0.2,-0.1,680,0,0,1,0.0,0,39.540615,-122.332382,0.0,4.473,313.9,9,3,1.9,21,3.9433,8,0.1267,28.2567,27.7217,22
9264326,1495396037799,,,,,,,,0.04,0.06,0.97,-2.9,-0.1,-0.2,680,0,,,,,,,,,,,,,,,,,,,
9264346,1495396037819,,,,,,,,0.04,0.06,0.98,-3.0,0.0,-0.2,680,0,,,,,,,,,,,,,,,,,,,
9264366,1495396037839,,,,,,,,0.04,0.07,0.98,-3.0,-0.2,-0.2,680,0,,,,,,,,,,,,,,,,,,,
9264386,1495396037859,,,,,,,,0.04,0.06,0.98,-3.0,-0.3,-0.3,680,0,,,,,,,,,,,,,,,,,,,
9264408,1495396037881,0,149.1,-0.6,170.6,20,161.1,13.39,0.04,0.06,0.97,-3.0,-0.2,-0.2,680,0,0,1,0.0,0,39.540615,-122.332382,0.0,4.473,313.9,9,3,1.9,21,3.9433,8,0.1267,28.2584,27.7233,22
9264427,1495396037902,,,,,,,,0.04,0.07,0.97,-3.0,-0.1,-0.2,680,0,,,,,,,,,,,,,,,,,,,
9264447,1495396037922,,,,,,,,0.04,0.07,0.97,-3.0,-0.2,-0.2,680,0,,,,,,,,,,,,,,,,,,,
9264467,1495396037942,,,,,,,,0.04,0.07,0.97,-3.0,-0.3,-0.2,680,0,,,,,,,,,,,,,,,,,,,
9264487,1495396037962,,,,,,,,0.04,0.07,0.97,-3.0,-0.1,-0.2,680,0,,,,,,,,,,,,,,,,,,,
9264509,1495396037984,,,,,20,,,0.05,0.07,0.97,-3.0,-0.0,-0.2,680,0,0,1,0.0,0,39.540615,-122.332382,0.0,4.473,313.9,9,3,1.9,21,3.9433,8,0.1267,28.2601,27.725,22
9264528,1495396037995,,,,,,,,0.04,0.06,0.98,-3.0,-0.1,-0.3,680,0,,,,,,,,,,,,,,,,,,,
9264548,1495396038015,,,,,,,,0.04,0.07,0.99,-3.0,-0.2,-0.3,680,0,,,,,,,,,,,,,,,,,,,
9264568,1495396038035,,,,,,,,0.04,0.06,0.99,-3.0,-0.1,-0.3,680,0,,,,,,,,,,,,,,,,,,,
9264588,1495396038055,,,,,,,,0.04,0.06,0.99,-3.0,-0.1,-0.3,680,0,,,,,,,,,,,,,,,,,,,
9264610,1495396038077,0,149.4,,170.6,19,161.0,,0.04,0.06,0.99,-3.0,-0.2,-0.3,680,0,0,1,0.0,0,39.540615,-122.332382,0.0,4.473,313.9,9,3,1.9,21,3.9433,8,0.1267,28.2616,27.7267,22
9264629,1495396038102,,,,,,,,0.04,0.07,0.99,-3.0,-0.3,-0.2,680,0,,,,,,,,,,,,,,,,,,,
9264649,1495396038122,,,,,,,,0.04,0.07,0.99,-3.0,-0.2,-0.2,700,0,,,,,,,,,,,,,,,,,,,
9264669,1495396038142,,,,,,,,0.05,0.07,0.99,-3.0,-0.1,-0.2,700,0,,,,,,,,,,,,,,,,,,,
9264689,1495396038162,,,,,,,,0.05,0.07,0.99,-3.0,-0.1,-0.2,700,0,,,,,,,,,,,,,,,,,,,
9264711,1495396038184,,,,,20,,,0.04,0.07,0.99,-3.0,-0.2,-0.2,700,0,0,1,0.0,0,39.540615,-122.332382,0.0,4.473,313.9,9,3,1.9,21,3.9433,8,0.1267,28.2634,27.7283,22
9264730,1495396038205,,,,,,,,0.04,0.06,0.99,-3.0,-0.3,-0.3,700,0,,,,,,,,,,,,,,,,,,,
9264750,1495396038225,,,,,,,,0.04,0.07,0.99,-3.0,-0.2,-0.3,700,0,,,,,,,,,,,,,,,,,,,
9264770,1495396038245,,,,,,,,0.04,0.07,0.99,-3.0,-0.2,-0.2,700,0,,,,,,,,,,,,,,,,,,,
9264790,1495396038265,,,,,,,,0.04,0.07,0.99,-3.0,-0.4,-0.3,680,0,,,,,,,,,,,,,,,,,,,
9264812,1495396038287,0,149.6,,170.0,20,160.5,,0.04,0.07,0.98,-3.0,-0.3,-0.3,680,0,0,1,0.0,0,39.540615,-122.332382,0.0,4.473,313.9,9,3,1.9,21,3.9433,8,0.1267,28.2651,27.73,22
9264831,1495396038306,,,,,,,,0.04,0.07,0.98,-3.0,-0.2,-0.2,700,0,,,,,,,,,,,,,,,,,,,
9264851,1495396038326,,,,,,,,0.04,0.07,0.98,-3.0,-0.2,-0.2,700,0,,,,,,,,,,,,,,,,,,,
9264871,1495396038346,,,,,,,,0.04,0.06,0.98,-3.0,-0.2,-0.3,700,0,,,,,,,,,,,,,,,,,,,
9264891,1495396038366,,,,,,,,0.03,0.06,0.98,-3.0,-0.3,-0.3,700,0,,,,,,,,,,,,,,,,,,,
9264913,1495396038388,,,,,19,,,0.03,0.06,0.98,-3.0,-0.3,-0.3,700,0,0,1,0.0,0,39.540615,-122.332382,0.0,4.473,313.9,9,3,1.9,21,3.9433,8,0.1267,28.2668,27.7317,22
9264932,1495396038406,,,,,,,,0.04,0.07,0.98,-3.0,-0.2,-0.3,700,0,,,,,,,,,,,,,,,,,,,
9264952,1495396038426,,,,,,,,0.04,0.06,0.97,-3.0,-0.3,-0.3,700,0,,,,,,,,,,,,,,,,,,,
9264972,1495396038446,,,,,,,,0.04,0.07,0.98,-3.0,-0.3,-0.2,700,0,,,,,,,,,,,,,,,,,,,
9264992,1495396038466,,,,,,,,0.04,0.07,0.98,-3.0,-0.3,-0.1,700,0,,,,,,,,,,,,,,,,,,,
9265014,1495396038488,0,149.6,,170.1,20,160.5,,0.04,0.06,0.98,-3.0,-0.1,-0.2,700,0,0,1,0.0,0,39.540615,-122.332382,0.0,4.473,313.9,9,3,1.9,21,3.9433,8,0.1267,28.2685,27.7333,22
9265033,1495396038507,,,,,,,,0.04,0.06,0.98,-3.0,-0.1,-0.2,700,0,,,,,,,,,,,,,,,,,,,
9265053,1495396038527,,,,,,,,0.04,0.07,0.98,-3.0,-0.2,-0.1,700,0,,,,,,,,,,,,,,,,,,,
9265073,1495396038547,,,,,,,,0.04,0.06,0.98,-3.0,-0.3,-0.2,700,0,,,,,,,,,,,,,,,,,,,
9265093,1495396038567,,,,,,,,0.04,0.06,0.98,-3.0,-0.3,-0.2,700,0,,,,,,,,,,,,,,,,,,,
9265115,1495396038589,,,,,20,,,0.04,0.07,0.98,-3.0,-0.3,-0.1,680,0,0,1,0.0,0,39.540615,-122.332382,0.0,4.473,313.9,9,3,1.9,21,3.9433,8,0.1267,28.2701,27.735,22
9265134,1495396038608,,,,,,,,0.05,0.08,0.98,-3.0,-0.2,-0.1,680,0,,,,,,,,,,,,,,,,,,,
9265154,1495396038628,,,,,,,,0.05,0.07,0.98,-2.9,-0.2,-0.2,680,0,,,,,,,,,,,,,,,,,,,
9265174,1495396038648,,,,,,,,0.04,0.06,0.99,-3.0,-0.2,-0.2,700,0,,,,,,,,,,,,,,,,,,,
9265194,1495396038668,,,,,,,,0.04,0.06,0.98,-2.9,-0.1,-0.2,700,0,,,,,,,,,,,,,,,,,,,
9265216,1495396038690,0,149.6,,170.2,20,160.5,,0.04,0.06,0.98,-2.9,-0.2,-0.2,700,0,0,1,0.0,0,39.540615,-122.332382,0.0,4.473,313.9,9,3,1.9,21,3.9433,8,0.1267,28.2718,27.7367,22
9265235,1495396038709,,,,,,,,0.04,0.05,0.98,-2.9,-0.3,-0.3,700,0,,,,,,,,,,,,,,,,,,,
9265255,1495396038729,,,,,,,,0.04,0.06,0.98,-2.9,-0.3,-0.2,700,0,,,,,,,,,,,,,,,,,,,
9265275,1495396038749,,,,,,,,0.04,0.07,0.98,-2.9,-0.2,-0.2,680,0,,,,,,,,,,,,,,,,,,,
9265295,1495396038769,,,,,,,,0.05,0.06,0.97,-2.9,-0.1,-0.2,680,0,,,,,,,,,,,,,,,,,,,
9265317,1495396038791,,,,,19,,,0.05,0.06,0.98,-2.9,-0.1,-0.2,680,0,0,1,0.0,0,39.540615,-122.332382,0.0,4.473,313.9,9,3,1.9,21,3.9433,8,0.1267,28.2735,27.7383,22
9265336,1495396038809,,,,,,,,0.04,0.06,0.98,-2.9,-0.2,-0.1,700,0,,,,,,,,,,,,,,,,,,,
9265356,1495396038829,,,,,,,,0.04,0.06,0.98,-2.9,-0.2,-0.2,700,0,,,,,,,,,,,,,,,,,,,
9265376,1495396038849,,,,,,,,0.04,0.06,0.98,-3.0,-0.1,-0.2,700,0,,,,,,,,,,,,,,,,,,,
9265396,1495396038869,,,,,,,,0.05,0.06,0.98,-3.0,-0.1,-0.1,700,0,,,,,,,,,,,,,,,,,,,
9265418,1495396038891,0,149.7,-0.6,170.2,20,160.5,13.42,0.04,0.07,0.98,-2.9,-0.3,-0.2,700,0,0,1,0.0,0,39.540615,-122.332382,0.0,4.473,313.9,9,3,1.9,21,3.9433,8,0.1267,28.2752,27.74,22
9265437,1495396038909,,,,,,,,0.04,0.06,0.98,-2.9,-0.3,-0.2,700,0,,,,,,,,,,,,,,,,,,,
9265457,1495396038929,,,,,,,,0.05,0.07,0.98,-3.0,-0.2,-0.2,700,0,,,,,,,,,,,,,,,,,,,
9265477,1495396038949,,,,,,,,0.05,0.07,0.98,-3.0,-0.1,-0.2,680,0,,,,,,,,,,,,,,,,,,,
9265497,1495396038969,,,,,,,,0.05,0.07,0.98,-3.0,-0.2,-0.3,700,0,,,,,,,,,,,,,,,,,,,
9265519,1495396038991,,,,,21,,,0.04,0.06,0.98,-3.0,-0.2,-0.3,700,0,0,1,0.0,0,39.540615,-122.332382,0.0,4.473,313.9,9,3,1.9,21,3.9433,8,0.1267,28.2768,27.7417,22
9265538,1495396039004,,,,,,,,0.04,0.07,0.98,-3.0,-0.2,-0.2,700,0,,,,,,,,,,,,,,,,,,,
9265558,1495396039024,,,,,,,,0.05,0.07,0.98,-3.0,-0.2,-0.3,700,0,,,,,,,,,,,,,,,,,,,
9265578,1495396039044,,,,,,,,0.05,0.07,0.98,-3.0,-0.2,-0.3,700,0,,,,,,,,,,,,,,,,,,,
9265598,1495396039064,,,,,,,,0.05,0.07,0.98,-3.0,-0.2,-0.2,700,0,,,,,,,,,,,,,,,,,,,
9265620,1495396039094,0,149.3,,170.5,20,160.7,,0.05,0.07,0.98,-3.0,-0.2,-0.2,700,0,0,1,0.0,0,39.540615,-122.332382,0.0,4.473,313.9,9,3,1.9,21,3.9433,8,0.1267,28.2786,27.745,22
9265639,1495396039113,,,,,,,,0.04,0.06,0.98,-3.0,-0.1,-0.3,700,0,,,,,,,,,,,,,,,,,,,
9265659,1495396039133,,,,,,,,0.04,0.06,0.98,-3.0,-0.1,-0.3,700,0,,,,,,,,,,,,,,,,,,,
9265679,1495396039153,,,,,,,,0.04,0.06,0.97,-3.0,-0.2,-0.2,700,0,,,,,,,,,,,,,,,,,,,
9265699,1495396039173,,,,,,,,0.04,0.06,0.98,-3.0,-0.3,-0.3,700,0,,,,,,,,,,,,,,,,,,,
9265721,1495396039195,,,,,20,,,0.04,0.06,0.97,-3.0,-0.3,-0.3,700,0,0,1,0.0,0,39.540615,-122.332382,0.0,4.473,313.9,9,3,1.9,21,3.9433,8,0.1267,28.2803,27.7467,22
9265740,1495396039214,,,,,,,,0.04,0.06,0.97,-3.0,-0.2,-0.2,700,0,,,,,,,,,,,,,,,,,,,
9265760,1495396039234,,,,,,,,0.05,0.07,0.97,-3.0,-0.1,-0.2,700,0,,,,,,,,,,,,,,,,,,,
9265780,1495396039254,,,,,,,,0.05,0.06,0.98,-3.0,-0.1,-0.2,700,0,,,,,,,,,,,,,,,,,,,
9265800,1495396039274,,,,,,,,0.04,0.06,0.99,-3.0,-0.1,-0.2,700,0,,,,,,,,,,,,,,,,,,,
9265822,1495396039296,0,149.8,,170.1,20,160.4,,0.04,0.07,0.99,-3.0,-0.1,-0.1,700,0,0,1,0.0,0,39.540615,-122.332382,0.0,4.473,313.9,9,3,1.9,21,3.9433,8,0.1267,28.2819,27.7483,22
9265841,1495396039315,,,,,,,,0.05,0.07,0.99,-3.0,-0.1,-0.2,700,0,,,,,,,,,,,,,,,,,,,
9265861,1495396039335,,,,,,,,0.05,0.07,0.99,-3.0,-0.1,-0.2,700,0,,,,,,,,,,,,,,,,,,,
9265881,1495396039355,,,,,,,,0.04,0.07,0.98,-3.0,-0.2,-0.2,700,0,,,,,,,,,,,,,,,,,,,
9265901,1495396039375,,,,,,,,0.04,0.07,0.99,-3.0,-0.1,-0.2,700,0,,,,,,,,,,,,,,,,,,,
9265923,1495396039396,,,,,19,,,0.04,0.07,0.98,-3.0,0.0,-0.2,700,0,0,1,0.0,0,39.540615,-122.332382,0.0,4.473,313.9,9,3,1.9,21,3.9433,8,0.1267,28.2836,27.75,22
9265942,1495396039415,,,,,,,,0.04,0.06,0.98,-3.0,0.1,-0.2,700,0,,,,,,,,,,,,,,,,,,,
9265962,1495396039435,,,,,,,,0.04,0.07,0.98,-3.0,-0.1,-0.2,700,0,,,,,,,,,,,,,,,,,,,
9265982,1495396039455,,,,,,,,0.04,0.06,0.98,-3.0,-0.2,-0.3,700,0,,,,,,,,,,,,,,,,,,,
9266002,1495396039475,,,,,,,,0.04,0.06,0.98,-3.0,-0.2,-0.3,700,0,,,,,,,,,,,,,,,,,,,
9266024,1495396039495,0,148.9,,171.0,21,161.1,,0.04,0.07,0.98,-3.0,-0.1,-0.2,700,0,0,1,0.0,0,39.540615,-122.332382,0.0,4.473,313.9,9,3,1.9,21,3.9433,8,0.1267,28.2852,27.7517,22
9266043,1495396039514,,,,,,,,0.05,0.07,0.98,-3.0,-0.1,-0.2,700,0,,,,,,,,,,,,,,,,,,,
9266063,1495396039534,,,,,,,,0.04,0.06,0.98,-3.0,-0.1,-0.3,700,0,,,,,,,,,,,,,,,,,,,
9266083,1495396039554,,,,,,,,0.04,0.06,0.98,-3.0,-0.1,-0.3,700,0,,,,,,,,,,,,,,,,,,,
9266103,1495396039574,,,,,,,,0.04,0.06,0.98,-3.0,-0.0,-0.2,700,0,,,,,,,,,,,,,,,,,,,
9266125,1495396039598,,,,,20,,,0.04,0.06,0.98,-3.0,-0.1,-0.2,700,0,0,1,0.0,0,39.540615,-122.332382,0.0,4.473,313.9,9,3,1.9,21,3.9433,8,0.1267,28.287,27.7533,22
9266144,1495396039617,,,,,,,,0.04,0.05,0.98,-3.0,-0.2,-0.3,700,0,,,,,,,,,,,,,,,,,,,
9266164,1495396039637,,,,,,,,0.04,0.06,0.98,-3.0,-0.3,-0.2,680,0,,,,,,,,,,,,,,,,,,,
9266184,1495396039657,,,,,,,,0.04,0.06,0.98,-3.0,-0.2,-0.2,700,0,,,,,,,,,,,,,,,,,,,
9266204,1495396039677,,,,,,,,0.04,0.06,0.98,-2.9,-0.1,-0.2,700,0,,,,,,,,,,,,,,,,,,,
9266226,1495396039699,0,149.2,,170.7,20,160.9,,0.04,0.05,0.98,-3.0,-0.0,-0.2,700,0,0,1,0.0,0,39.540615,-122.332382,0.0,4.473,313.9,9,3,1.9,21,3.9433,8,0.1267,28.2887,27.755,22
9266245,1495396039718,,,,,,,,0.04,0.06,0.98,-3.0,-0.1,-0.1,700,0,,,,,,,,,,,,,,,,,,,
9266265,1495396039738,,,,,,,,0.04,0.06,0.98,-3.0,-0.1,-0.2,700,0,,,,,,,,,,,,,,,,,,,
9266285,1495396039758,,,,,,,,0.04,0.06,0.98,-2.9,-0.1,-0.2,700,0,,,,,,,,,,,,,,,,,,,
9266305,1495396039778,,,,,,,,0.05,0.07,0.98,-2.9,-0.1,-0.2,700,0,,,,,,,,,,,,,,,,,,,
9266327,1495396039800,,,,,20,,,0.05,0.07,0.98,-2.9,0.0,-0.2,700,0,0,1,0.0,0,39.540615,-122.332382,0.0,4.473,313.9,9,3,1.9,21,3.9433,8,0.1267,28.2903,27.7567,22
9266346,1495396039819,,,,,,,,0.05,0.06,0.98,-2.9,0.0,-0.2,700,0,,,,,,,,,,,,,,,,,,,
9266366,1495396039839,,,,,,,,0.04,0.06,0.98,-3.0,-0.1,-0.2,700,0,,,,,,,,,,,,,,,,,,,
9266386,1495396039859,,,,,,,,0.04,0.06,0.98,-3.0,-0.1,-0.1,700,0,,,,,,,,,,,,,,,,,,,
9266406,1495396039879,,,,,,,,0.04,0.06,0.98,-2.9,-0.2,-0.2,700,0,,,,,,,,,,,,,,,,,,,
9266428,1495396039901,0,149.0,-0.6,170.9,21,161.0,13.42,0.04,0.06,0.98,-2.9,-0.2,-0.3,700,0,0,1,0.0,0,39.540615,-122.332382,0.0,4.473,313.9,9,3,1.9,21,3.9433,8,0.1267,28.292,27.7583,22
9266447,1495396039920,,,,,,,,0.04,0.06,0.98,-2.9,-0.2,-0.2,700,0,,,,,,,,,,,,,,,,,,,
9266467,1495396039940,,,,,,,,0.04,0.06,0.98,-2.9,-0.2,-0.2,700,0,,,,,,,,,,,,,,,,,,,
9266487,1495396039960,,,,,,,,0.04,0.05,0.97,-2.9,-0.1,-0.3,700,0,,,,,,,,,,,,,,,,,,,
9266507,1495396039980,,,,,,,,0.04,0.05,0.97,-2.9,-0.1,-0.2,700,0,,,,,,,,,,,,,,,,,,,
9266529,1495396039996,,,,,20,,,0.04,0.06,0.97,-2.9,-0.1,-0.2,700,0,0,1,0.0,0,39.540615,-122.332382,0.0,4.473,313.9,9,3,1.9,21,3.9433,8,0.1267,28.2936,27.76,22
9266548,1495396040015,,,,,,,,0.04,0.06,0.97,-2.9,-0.2,-0.2,700,0,,,,,,,,,,,,,,,,,,,
9266568,1495396040035,,,,,,,,0.04,0.05,0.97,-2.9,-0.1,-0.2,700,0,,,,,,,,,,,,,,,,,,,
9266588,1495396040055,,,,,,,,0.04,0.05,0.97,-2.9,0.0,-0.2,700,0,,,,,,,,,,,,,,,,,,,
9266608,1495396040075,,,,,,,,0.04,0.06,0.97,-2.9,0.0,-0.1,700,0,,,,,,,,,,,,,,,,,,,
9266630,1495396040103,0,149.6,,170.5,21,160.6,,0.04,0.05,0.97,-2.9,-0.0,-0.2,700,0,0,1,0.0,0,39.540615,-122.332382,0.0,4.473,313.9,9,3,1.9,21,3.9433,8,0.1267,28.2954,27.7617,22
9266649,1495396040122,,,,,,,,0.04,0.06,0.98,-2.9,-0.2,-0.2,700,0,,,,,,,,,,,,,,,,,,,
9266669,1495396040142,,,,,,,,0.04,0.07,0.98,-2.9,-0.2,-0.1,700,0,,,,,,,,,,,,,,,,,,,
9266689,1495396040162,,,,,,,,0.04,0.07,0.97,-2.9,-0.1,-0.1,700,0,,,,,,,,,,,,,,,,,,,
9266709,1495396040182,,,,,,,,0.05,0.07,0.97,-2.9,-0.0,-0.2,700,0,,,,,,,,,,,,,,,,,,,
9266731,1495396040204,,,,,20,,,0.05,0.06,0.98,-2.9,-0.1,-0.2,700,0,0,1,0.0,0,39.540615,-122.332382,0.0,4.473,313.9,9,3,1.9,21,3.9433,8,0.1267,28.2971,27.7633,22
9266750,1495396040223,,,,,,,,0.05,0.07,0.98,-3.0,-0.2,-0.1,700,0,,,,,,,,,,,,,,,,,,,
9266770,1495396040243,,,,,,,,0.04,0.07,0.98,-2.9,-0.3,-0.2,700,0,,,,,,,,,,,,,,,,,,,
