"Interval"|"ms"|0|0|1,"Utc"|"ms"|0|0|1,"FuelLevel"|"F"|0|100|5,"OilTemp"|"F"|0.0|300.0|5,"CoolantPressPSI"|"PSI"|0.0|20.0|1,"Coolant"|"F"|0.0|300.0|5,"OilPress"|"PSI"|0|150|10,"EngineTemp"|"F"|0.0|300.0|5,"Battery"|"Volts"|0.0|20.0|1,"AccelX"|"G"|-3.0|3.0|50,"AccelY"|"G"|-3.0|3.0|50,"AccelZ"|"G"|-3.0|3.0|50,"Yaw"|"Deg/Sec"|-300.0|300.0|50,"Pitch"|"Deg/Sec"|-300.0|300.0|50,"Roll"|"Deg/Sec"|-300.0|300.0|50,"RPM"|""|0|10000|50,"Driveshaft"|"RPM"|0|5000|50,"GPIO1"|""|0|1|10,"GPIO2"|""|0|1|10,"GearRatio"|""|-5.0|5.0|10,"Gear"|""|-1|5|10,"Latitude"|"Degrees"|-180.0|180.0|10,"Longitude"|"Degrees"|-180.0|180.0|10,"Speed"|"mph"|0.0|150.0|10,"Distance"|"mi"|0.0|0.0|10,"Altitude"|"ft"|0.0|4000.0|10,"GPSSats"|""|0|20|10,"GPSQual"|""|0|5|10,"GPSDOP"|""|0.0|20.0|10,"LapCount"|""|0|0|10,"LapTime"|"Min"|0.0|0.0|10,"Sector"|""|0|0|10,"SectorTime"|"Min"|0.0|0.0|10,"PredTime"|"Min"|0.0|0.0|10,"ElapsedTime"|"Min"|0.0|0.0|10,"CurrentLap"|""|0|0|10
8135954,1495394909406,,,,,,,,0.01,0.07,1.0,-3.0,-0.4,-0.2,180,65,,,,,,,,,,,,,,,,,,,
8135974,1495394909426,,,,,,,,0.01,0.07,1.0,-3.0,-0.5,-0.2,180,65,,,,,,,,,,,,,,,,,,,
8135994,1495394909446,,,,,,,,0.02,0.08,0.99,-3.0,-0.2,-0.1,320,65,,,,,,,,,,,,,,,,,,,
8136014,1495394909466,,,,,,,,0.02,0.07,0.97,-2.9,-0.2,-0.1,320,65,,,,,,,,,,,,,,,,,,,
8136036,1495394909488,0,204.1,,204.1,0,214.6,,0.02,0.07,0.96,-2.9,-0.2,-0.1,320,65,0,1,2.812,0,39.538765,-122.332176,0.0,4.303,307.6,10,2,1.9,21,3.9433,8,0.1267,8.9272,8.9167,22
8136055,1495394909507,,,,,,,,0.02,0.07,0.97,-3.0,-0.2,-0.1,300,65,,,,,,,,,,,,,,,,,,,
8136075,1495394909527,,,,,,,,0.01,0.06,0.96,-3.0,0.0,-0.2,300,65,,,,,,,,,,,,,,,,,,,
8136095,1495394909547,,,,,,,,0.01,0.07,0.96,-3.0,-0.1,-0.2,300,65,,,,,,,,,,,,,,,,,,,
8136115,1495394909567,,,,,,,,0.02,0.08,0.96,-3.0,-0.2,-0.2,300,65,,,,,,,,,,,,,,,,,,,
8136137,1495394909589,,,,,0,,,0.02,0.05,0.97,-3.0,-0.0,-0.4,260,65,0,0,5.0,0,39.538765,-122.332176,0.0,4.303,307.6,10,2,1.9,21,3.9433,8,0.1267,8.9289,8.9183,22
8136156,1495394909608,,,,,,,,0.02,0.04,0.98,-3.0,-0.1,-0.3,260,65,,,,,,,,,,,,,,,,,,,
8136176,1495394909628,,,,,,,,0.03,0.05,0.98,-3.0,-0.1,-0.2,260,65,,,,,,,,,,,,,,,,,,,
8136196,1495394909648,,,,,,,,0.03,0.06,0.99,-3.0,-0.3,-0.2,280,65,,,,,,,,,,,,,,,,,,,
8136216,1495394909668,,,,,,,,0.02,0.06,0.98,-3.0,-0.1,-0.3,280,65,,,,,,,,,,,,,,,,,,,
8136238,1495394909690,0,204.0,3.0,204.2,0,214.9,11.27,0.02,0.05,0.96,-2.9,0.5,-0.3,280,65,0,0,4.062,0,39.538765,-122.332176,0.0,4.303,307.6,10,2,1.9,21,3.9433,8,0.1267,8.9305,8.92,22
8136257,1495394909709,,,,,,,,0.03,0.07,0.96,-2.9,0.7,-0.1,400,0,,,,,,,,,,,,,,,,,,,
8136277,1495394909729,,,,,,,,0.03,0.06,0.98,-3.0,0.8,-0.2,600,0,,,,,,,,,,,,,,,,,,,
8136297,1495394909749,,,,,,,,0.03,0.08,1.01,-3.0,1.0,-0.2,600,0,,,,,,,,,,,,,,,,,,,
8136317,1495394909769,,,,,,,,0.05,0.08,0.99,-3.0,0.8,0.1,720,0,,,,,,,,,,,,,,,,,,,
8136339,1495394909791,,,,,0,,,0.05,0.09,0.98,-3.0,1.0,0.0,840,0,0,0,4.375,0,39.538765,-122.332176,0.0,4.303,307.6,10,2,1.9,21,3.9433,8,0.1267,8.9322,8.9217,22
8136358,1495394909809,,,,,,,,0.06,0.07,0.98,-2.9,0.7,-0.2,920,0,,,,,,,,,,,,,,,,,,,
8136378,1495394909829,,,,,,,,0.05,0.06,0.98,-2.7,0.5,-0.5,980,0,,,,,,,,,,,,,,,,,,,
8136398,1495394909849,,,,,,,,0.05,0.07,0.96,-2.6,1.0,-0.6,1020,0,,,,,,,,,,,,,,,,,,,
8136418,1495394909869,,,,,,,,0.06,0.06,0.95,-2.6,1.4,-0.4,1000,0,,,,,,,,,,,,,,,,,,,
8136440,1495394909891,0,204.0,,204.2,3,214.9,,0.08,0.09,0.92,-2.7,1.5,-0.3,960,0,0,0,0.0,0,39.538765,-122.332176,0.0,4.303,307.6,10,2,1.9,21,3.9433,8,0.1267,8.9339,8.9233,22
8136459,1495394909909,,,,,,,,0.08,0.08,0.91,-2.7,1.6,-0.3,940,0,,,,,,,,,,,,,,,,,,,
8136479,1495394909929,,,,,,,,0.07,0.06,0.9,-2.6,1.3,-0.3,960,0,,,,,,,,,,,,,,,,,,,
8136499,1495394909949,,,,,,,,0.07,0.06,0.9,-2.7,1.0,-0.2,980,0,,,,,,,,,,,,,,,,,,,
8136519,1495394909969,,,,,,,,0.06,0.05,0.92,-2.7,0.9,-0.3,960,0,,,,,,,,,,,,,,,,,,,
8136541,1495394909991,,,,,6,,,0.06,0.03,0.91,-2.7,0.9,-0.4,940,0,0,0,0.0,0,39.538765,-122.332176,0.0,4.303,307.6,10,2,1.9,21,3.9433,8,0.1267,8.9356,8.925,22
8136560,1495394910004,,,,,,,,0.05,0.04,0.91,-2.7,1.0,-0.4,960,0,,,,,,,,,,,,,,,,,,,
8136580,1495394910024,,,,,,,,0.05,0.02,0.92,-2.7,1.0,-0.4,940,0,,,,,,,,,,,,,,,,,,,
8136600,1495394910044,,,,,,,,0.05,0.03,0.93,-2.8,0.9,-0.4,940,0,,,,,,,,,,,,,,,,,,,
8136620,1495394910064,,,,,,,,0.05,0.03,0.93,-2.8,0.8,-0.4,940,0,,,,,,,,,,,,,,,,,,,
8136642,1495394910096,0,204.0,,204.2,8,214.8,,0.04,0.03,0.93,-2.8,0.8,-0.3,920,0,0,1,0.0,0,39.538765,-122.332176,0.0,4.303,307.6,10,2,1.8,21,3.9433,8,0.1267,8.9373,8.9283,22
8136661,1495394910115,,,,,,,,0.03,0.03,0.93,-2.8,0.6,-0.3,940,0,,,,,,,,,,,,,,,,,,,
8136681,1495394910135,,,,,,,,0.02,0.03,0.96,-2.9,0.6,-0.4,920,0,,,,,,,,,,,,,,,,,,,
8136701,1495394910155,,,,,,,,0.02,0.04,0.97,-2.9,0.7,-0.3,920,0,,,,,,,,,,,,,,,,,,,
8136721,1495394910175,,,,,,,,0.03,0.06,0.98,-2.9,0.7,-0.2,900,0,,,,,,,,,,,,,,,,,,,
8136743,1495394910197,,,,,8,,,0.04,0.06,0.99,-3.0,0.8,-0.2,920,0,0,1,0.0,0,39.538765,-122.332176,0.0,4.303,307.6,10,2,1.8,21,3.9433,8,0.1267,8.939,8.93,22
8136762,1495394910216,,,,,,,,0.04,0.08,0.98,-3.0,0.8,-0.2,900,0,,,,,,,,,,,,,,,,,,,
8136782,1495394910236,,,,,,,,0.05,0.09,0.98,-3.1,0.5,-0.1,900,0,,,,,,,,,,,,,,,,,,,
8136802,1495394910256,,,,,,,,0.05,0.08,0.98,-3.1,0.4,-0.2,900,0,,,,,,,,,,,,,,,,,,,
8136822,1495394910276,,,,,,,,0.04,0.08,0.99,-3.1,0.3,-0.2,880,0,,,,,,,,,,,,,,,,,,,
8136844,1495394910295,0,203.7,,203.8,9,214.3,,0.03,0.08,0.98,-3.0,0.2,-0.2,880,0,0,1,0.0,0,39.538765,-122.332176,0.0,4.303,307.6,10,2,1.8,21,3.9433,8,0.1267,8.9406,8.9317,22
8136863,1495394910314,,,,,,,,0.03,0.07,0.98,-2.9,0.3,-0.4,880,0,,,,,,,,,,,,,,,,,,,
8136883,1495394910334,,,,,,,,0.03,0.07,0.97,-2.9,0.4,-0.4,880,0,,,,,,,,,,,,,,,,,,,
8136903,1495394910354,,,,,,,,0.03,0.08,0.97,-3.0,0.3,-0.3,880,0,,,,,,,,,,,,,,,,,,,
8136923,1495394910374,,,,,,,,0.03,0.08,0.97,-3.0,0.2,-0.2,880,0,,,,,,,,,,,,,,,,,,,
8136945,1495394910398,,,,,10,,,0.02,0.08,0.98,-3.0,0.3,-0.2,880,0,0,1,0.0,0,39.538765,-122.332176,0.0,4.303,307.6,10,2,1.8,21,3.9433,8,0.1267,8.9424,8.9333,22
8136964,1495394910417,,,,,,,,0.03,0.09,0.97,-3.0,0.4,-0.1,860,0,,,,,,,,,,,,,,,,,,,
8136984,1495394910437,,,,,,,,0.04,0.09,0.98,-3.0,0.5,-0.1,860,0,,,,,,,,,,,,,,,,,,,
8137004,1495394910457,,,,,,,,0.03,0.09,0.99,-3.0,0.2,-0.1,860,0,,,,,,,,,,,,,,,,,,,
8137024,1495394910477,,,,,,,,0.03,0.09,0.98,-3.0,-0.1,-0.2,860,0,,,,,,,,,,,,,,,,,,,
8137046,1495394910499,0,203.3,,203.5,10,214.0,,0.02,0.07,0.99,-2.9,0.1,-0.3,840,0,0,1,0.0,0,39.538765,-122.332176,0.0,4.303,307.6,10,2,1.8,21,3.9433,8,0.1267,8.944,8.935,22
8137065,1495394910518,,,,,,,,0.02,0.07,0.97,-2.9,0.3,-0.3,840,0,,,,,,,,,,,,,,,,,,,
8137085,1495394910538,,,,,,,,0.03,0.07,0.98,-2.9,0.2,-0.2,840,0,,,,,,,,,,,,,,,,,,,
8137105,1495394910558,,,,,,,,0.02,0.07,1.0,-3.0,0.1,-0.2,840,0,,,,,,,,,,,,,,,,,,,
8137125,1495394910578,,,,,,,,0.02,0.08,1.0,-3.0,0.2,-0.1,840,0,,,,,,,,,,,,,,,,,,,
8137147,1495394910598,,,,,10,,,0.03,0.08,0.99,-3.0,0.3,-0.1,840,0,0,1,0.0,0,39.538765,-122.332176,0.0,4.303,307.6,10,2,1.8,21,3.9433,8,0.1267,8.9457,8.9367,22
8137166,1495394910617,,,,,,,,0.03,0.08,0.98,-2.9,-0.0,-0.2,820,0,,,,,,,,,,,,,,,,,,,
8137186,1495394910637,,,,,,,,0.02,0.08,0.98,-2.9,-0.3,-0.3,820,0,,,,,,,,,,,,,,,,,,,
8137206,1495394910657,,,,,,,,0.02,0.07,0.98,-2.9,-0.1,-0.3,820,0,,,,,,,,,,,,,,,,,,,
8137226,1495394910677,,,,,,,,0.03,0.07,0.97,-2.9,-0.0,-0.2,820,0,,,,,,,,,,,,,,,,,,,
8137248,1495394910701,0,203.5,3.1,203.8,11,214.4,13.35,0.02,0.08,0.98,-3.0,-0.2,-0.1,800,0,0,1,0.0,0,39.538765,-122.332176,0.0,4.303,307.6,10,2,1.8,21,3.9433,8,0.1267,8.9474,8.9383,22
8137267,1495394910720,,,,,,,,0.02,0.08,0.97,-3.0,-0.1,-0.1,820,0,,,,,,,,,,,,,,,,,,,
8137287,1495394910740,,,,,,,,0.02,0.08,0.98,-2.9,-0.0,-0.2,800,0,,,,,,,,,,,,,,,,,,,
8137307,1495394910760,,,,,,,,0.02,0.08,0.97,-2.9,-0.2,-0.3,800,0,,,,,,,,,,,,,,,,,,,
8137327,1495394910780,,,,,,,,0.02,0.07,0.97,-2.9,-0.1,-0.3,800,0,,,,,,,,,,,,,,,,,,,
8137349,1495394910802,,,,,11,,,0.02,0.08,0.97,-2.9,-0.1,-0.2,800,0,0,1,0.0,0,39.538765,-122.332176,0.0,4.303,307.6,10,2,1.8,21,3.9433,8,0.1267,8.9491,8.94,22
8137368,1495394910821,,,,,,,,0.02,0.08,0.98,-3.0,-0.2,-0.1,800,0,,,,,,,,,,,,,,,,,,,
8137388,1495394910841,,,,,,,,0.02,0.09,0.99,-3.0,-0.1,-0.1,800,0,,,,,,,,,,,,,,,,,,,
8137408,1495394910861,,,,,,,,0.02,0.09,0.98,-2.9,-0.3,-0.2,780,0,,,,,,,,,,,,,,,,,,,
8137428,1495394910881,,,,,,,,0.02,0.08,0.98,-2.9,-0.3,-0.3,780,0,,,,,,,,,,,,,,,,,,,
8137450,1495394910903,0,203.3,,203.5,10,214.1,,0.02,0.08,0.98,-3.0,-0.2,-0.2,780,0,0,1,0.0,0,39.538765,-122.332176,0.0,4.303,307.6,10,2,1.8,21,3.9433,8,0.1267,8.9508,8.9417,22
8137469,1495394910922,,,,,,,,0.02,0.08,0.98,-3.0,-0.3,-0.2,780,0,,,,,,,,,,,,,,,,,,,
8137489,1495394910942,,,,,,,,0.02,0.09,0.98,-3.0,-0.3,-0.1,780,0,,,,,,,,,,,,,,,,,,,
8137509,1495394910962,,,,,,,,0.02,0.08,0.98,-3.0,-0.3,-0.3,780,0,,,,,,,,,,,,,,,,,,,
8137529,1495394910982,,,,,,,,0.02,0.08,0.98,-2.9,-0.2,-0.3,780,0,,,,,,,,,,,,,,,,,,,
8137551,1495394910996,,,,,10,,,0.02,0.09,0.98,-3.0,-0.2,-0.2,760,0,0,1,0.0,0,39.538765,-122.332176,0.0,4.303,307.6,10,2,1.6,21,3.9433,8,0.1267,8.9523,8.9433,22
8137570,1495394911015,,,,,,,,0.02,0.08,0.98,-3.0,-0.2,-0.1,780,0,,,,,,,,,,,,,,,,,,,
8137590,1495394911035,,,,,,,,0.02,0.09,0.99,-2.9,-0.1,-0.2,740,0,,,,,,,,,,,,,,,,,,,
8137610,1495394911055,,,,,,,,0.02,0.1,0.98,-2.9,-0.3,-0.2,760,0,,,,,,,,,,,,,,,,,,,
8137630,1495394911075,,,,,,,,0.02,0.09,0.98,-3.0,-0.3,-0.2,760,0,,,,,,,,,,,,,,,,,,,
8137652,1495394911103,0,203.3,,203.7,11,214.2,,0.02,0.09,0.98,-3.0,-0.1,-0.1,760,0,0,1,0.0,0,39.538765,-122.332176,0.0,4.303,307.6,10,2,1.6,21,3.9433,8,0.1267,8.9541,8.945,22
8137671,1495394911122,,,,,,,,0.02,0.1,0.98,-3.0,-0.3,-0.1,760,0,,,,,,,,,,,,,,,,,,,
8137691,1495394911142,,,,,,,,0.02,0.08,0.99,-2.9,-0.2,-0.2,760,0,,,,,,,,,,,,,,,,,,,
8137711,1495394911162,,,,,,,,0.02,0.08,0.99,-2.9,-0.1,-0.3,760,0,,,,,,,,,,,,,,,,,,,
8137731,1495394911182,,,,,,,,0.02,0.09,0.98,-3.0,-0.1,-0.2,740,0,,,,,,,,,,,,,,,,,,,
8137753,1495394911206,,,,,9,,,0.02,0.08,0.99,-3.0,-0.2,-0.2,740,0,0,1,0.0,0,39.538765,-122.332176,0.0,4.303,307.6,10,2,1.6,21,3.9433,8,0.1267,8.9558,8.9467,22
8137772,1495394911225,,,,,,,,0.02,0.08,0.99,-3.0,-0.1,-0.2,740,0,,,,,,,,,,,,,,,,,,,
8137792,1495394911245,,,,,,,,0.02,0.09,0.99,-2.9,-0.2,-0.2,740,0,,,,,,,,,,,,,,,,,,,
8137812,1495394911265,,,,,,,,0.02,0.08,0.99,-3.0,-0.2,-0.2,740,0,,,,,,,,,,,,,,,,,,,
8137832,1495394911285,,,,,,,,0.02,0.08,0.99,-3.0,-0.1,-0.2,740,0,,,,,,,,,,,,,,,,,,,
8137854,1495394911306,0,203.4,,203.9,10,214.2,,0.02,0.09,0.99,-3.0,-0.1,-0.2,720,0,0,1,0.0,0,39.538765,-122.332176,0.0,4.303,307.6,10,2,1.6,21,3.9433,8,0.1267,8.9575,8.9483,22
8137873,1495394911325,,,,,,,,0.02,0.08,0.99,-3.0,-0.0,-0.2,720,0,,,,,,,,,,,,,,,,,,,
8137893,1495394911345,,,,,,,,0.02,0.08,0.99,-3.0,-0.0,-0.2,740,0,,,,,,,,,,,,,,,,,,,
8137913,1495394911365,,,,,,,,0.02,0.09,0.98,-3.0,-0.1,-0.1,740,0,,,,,,,,,,,,,,,,,,,
8137933,1495394911385,,,,,,,,0.02,0.08,0.98,-3.0,-0.1,-0.2,740,0,,,,,,,,,,,,,,,,,,,
8137955,1495394911407,,,,,10,,,0.02,0.08,0.99,-3.0,0.0,-0.2,740,0,0,1,0.0,0,39.538765,-122.332176,0.0,4.303,307.6,10,2,1.6,21,3.9433,8,0.1267,8.9592,8.95,22
8137974,1495394911426,,,,,,,,0.02,0.08,0.99,-3.0,-0.0,-0.1,720,0,,,,,,,,,,,,,,,,,,,
8137994,1495394911446,,,,,,,,0.02,0.09,0.99,-3.0,-0.0,-0.1,720,0,,,,,,,,,,,,,,,,,,,
8138014,1495394911466,,,,,,,,0.02,0.09,1.0,-3.0,0.0,-0.1,740,0,,,,,,,,,,,,,,,,,,,
8138034,1495394911486,,,,,,,,0.02,0.08,1.0,-3.0,0.1,-0.2,740,0,,,,,,,,,,,,,,,,,,,
8138056,1495394911508,0,202.9,,203.6,10,213.9,,0.02,0.08,1.0,-3.0,0.0,-0.1,720,0,0,1,0.0,0,39.538765,-122.332176,0.0,4.303,307.6,10,2,1.6,21,3.9433,8,0.1267,8.9608,8.9517,22
8138075,1495394911527,,,,,,,,0.02,0.09,0.99,-3.0,-0.0,-0.1,740,0,,,,,,,,,,,,,,,,,,,
8138095,1495394911547,,,,,,,,0.02,0.08,0.99,-3.0,-0.0,-0.1,740,0,,,,,,,,,,,,,,,,,,,
8138115,1495394911567,,,,,,,,0.02,0.08,1.0,-3.0,0.0,-0.2,740,0,,,,,,,,,,,,,,,,,,,
8138135,1495394911587,,,,,,,,0.02,0.09,1.0,-3.0,-0.0,-0.1,720,0,,,,,,,,,,,,,,,,,,,
8138157,1495394911609,,,,,9,,,0.02,0.09,1.0,-3.0,-0.1,-0.1,720,0,0,1,0.0,0,39.538765,-122.332176,0.0,4.303,307.6,10,2,1.6,21,3.9433,8,0.1267,8.9625,8.9533,22
8138176,1495394911628,,,,,,,,0.02,0.08,1.0,-3.0,-0.0,-0.2,720,0,,,,,,,,,,,,,,,,,,,
8138196,1495394911648,,,,,,,,0.02,0.09,1.0,-3.0,-0.0,-0.2,720,0,,,,,,,,,,,,,,,,,,,
8138216,1495394911668,,,,,,,,0.02,0.09,0.99,-3.1,-0.1,-0.1,720,0,,,,,,,,,,,,,,,,,,,
8138236,1495394911688,,,,,,,,0.02,0.09,0.99,-3.0,-0.2,-0.1,720,0,,,,,,,,,,,,,,,,,,,
8138258,1495394911710,0,203.0,2.8,203.9,9,214.0,13.27,0.02,0.08,0.99,-3.0,-0.2,-0.2,720,0,0,1,0.0,0,39.538765,-122.332176,0.0,4.303,307.6,10,2,1.6,21,3.9433,8,0.1267,8.9642,8.955,22
8138277,1495394911729,,,,,,,,0.02,0.08,0.98,-3.0,-0.2,-0.2,720,0,,,,,,,,,,,,,,,,,,,
8138297,1495394911749,,,,,,,,0.02,0.09,0.99,-3.0,-0.2,-0.1,720,0,,,,,,,,,,,,,,,,,,,
8138317,1495394911769,,,,,,,,0.02,0.09,0.99,-3.0,-0.3,-0.1,720,0,,,,,,,,,,,,,,,,,,,
8138337,1495394911789,,,,,,,,0.02,0.08,0.98,-3.0,-0.4,-0.2,720,0,,,,,,,,,,,,,,,,,,,
8138359,1495394911811,,,,,10,,,0.02,0.08,0.98,-3.0,-0.4,-0.2,720,0,0,1,0.0,0,39.538765,-122.332176,0.0,4.303,307.6,10,2,1.6,21,3.9433,8,0.1267,8.9659,8.9567,22
8138378,1495394911830,,,,,,,,0.02,0.09,0.98,-3.0,-0.4,-0.2,720,0,,,,,,,,,,,,,,,,,,,
8138398,1495394911850,,,,,,,,0.02,0.09,0.98,-3.0,-0.4,-0.2,720,0,,,,,,,,,,,,,,,,,,,
8138418,1495394911870,,,,,,,,0.02,0.08,0.97,-3.0,-0.4,-0.2,720,0,,,,,,,,,,,,,,,,,,,
8138438,1495394911890,,,,,,,,0.02,0.09,0.97,-3.0,-0.4,-0.2,720,0,,,,,,,,,,,,,,,,,,,
8138460,1495394911912,0,203.7,,204.4,9,214.3,,0.02,0.09,0.97,-3.0,-0.3,-0.2,720,0,0,1,0.0,0,39.538765,-122.332176,0.0,4.303,307.6,10,2,1.6,21,3.9433,8,0.1267,8.9676,8.9583,22
8138479,1495394911931,,,,,,,,0.02,0.08,0.97,-3.0,-0.3,-0.2,720,0,,,,,,,,,,,,,,,,,,,
8138499,1495394911951,,,,,,,,0.01,0.07,0.98,-3.0,-0.3,-0.2,720,0,,,,,,,,,,,,,,,,,,,
8138519,1495394911971,,,,,,,,0.01,0.08,0.98,-3.0,-0.2,-0.2,700,0,,,,,,,,,,,,,,,,,,,
8138539,1495394911991,,,,,,,,0.02,0.08,0.98,-3.0,-0.2,-0.1,720,0,,,,,,,,,,,,,,,,,,,
8138561,1495394912007,,,,,9,,,0.02,0.07,0.98,-2.9,-0.1,-0.2,720,0,0,1,0.0,0,39.538765,-122.332176,0.0,4.303,307.6,10,2,1.6,21,3.9433,8,0.1267,8.9692,8.96,22
8138580,1495394912026,,,,,,,,0.02,0.08,0.98,-2.9,-0.1,-0.3,720,0,,,,,,,,,,,,,,,,,,,
8138600,1495394912046,,,,,,,,0.02,0.08,0.98,-2.9,-0.2,-0.2,720,0,,,,,,,,,,,,,,,,,,,
8138620,1495394912066,,,,,,,,0.02,0.08,0.98,-2.9,-0.1,-0.2,720,0,,,,,,,,,,,,,,,,,,,
8138640,1495394912092,,,,,,,,0.02,0.07,0.98,-2.9,-0.1,-0.3,720,0,,,,,,,,,,,,,,,,,,,
8138662,1495394912114,0,203.2,,204.1,10,213.9,,0.02,0.07,0.98,-2.9,-0.1,-0.3,720,0,0,1,0.0,0,39.538765,-122.332176,0.0,4.303,307.6,10,2,1.6,21,3.9433,8,0.1267,8.971,8.9617,22
8138681,1495394912133,,,,,,,,0.02,0.08,0.99,-3.0,-0.1,-0.2,740,0,,,,,,,,,,,,,,,,,,,
8138701,1495394912153,,,,,,,,0.02,0.08,0.98,-3.0,-0.1,-0.2,720,0,,,,,,,,,,,,,,,,,,,
8138721,1495394912173,,,,,,,,0.02,0.07,0.98,-3.0,-0.2,-0.3,740,0,,,,,,,,,,,,,,,,,,,
8138741,1495394912193,,,,,,,,0.02,0.07,0.98,-3.0,-0.1,-0.3,740,0,,,,,,,,,,,,,,,,,,,
8138763,1495394912215,,,,,9,,,0.02,0.08,0.99,-3.0,-0.1,-0.2,740,0,0,1,0.0,0,39.538765,-122.332176,0.0,4.303,307.6,10,2,1.6,21,3.9433,8,0.1267,8.9726,8.9633,22
8138782,1495394912234,,,,,,,,0.02,0.08,0.99,-3.0,-0.2,-0.2,720,0,,,,,,,,,,,,,,,,,,,
8138802,1495394912254,,,,,,,,0.02,0.07,0.99,-3.0,-0.2,-0.3,740,0,,,,,,,,,,,,,,,,,,,
8138822,1495394912274,,,,,,,,0.02,0.07,0.98,-3.0,-0.2,-0.3,740,0,,,,,,,,,,,,,,,,,,,
8138842,1495394912293,,,,,,,,0.02,0.08,0.98,-3.0,-0.2,-0.2,740,0,,,,,,,,,,,,,,,,,,,
8138864,1495394912315,0,203.0,,204.2,9,213.8,,0.02,0.08,0.97,-3.0,-0.2,-0.2,720,0,0,1,0.0,0,39.538765,-122.332176,0.0,4.303,307.6,10,2,1.6,21,3.9433,8,0.1267,8.9743,8.965,22
8138883,1495394912334,,,,,,,,0.02,0.07,0.97,-3.0,-0.3,-0.3,740,0,,,,,,,,,,,,,,,,,,,
8138903,1495394912354,,,,,,,,0.02,0.07,0.97,-3.0,-0.3,-0.3,740,0,,,,,,,,,,,,,,,,,,,
8138923,1495394912374,,,,,,,,0.02,0.08,0.97,-3.0,-0.3,-0.2,740,0,,,,,,,,,,,,,,,,,,,
8138943,1495394912396,,,,,,,,0.02,0.08,0.98,-3.0,-0.3,-0.3,720,0,,,,,,,,,,,,,,,,,,,
8138965,1495394912418,,,,,10,,,0.02,0.08,0.97,-3.0,-0.3,-0.3,720,0,0,1,0.0,0,39.538765,-122.332176,0.0,4.303,307.6,10,2,1.6,21,3.9433,8,0.1267,8.976,8.9667,22
8138984,1495394912437,,,,,,,,0.02,0.08,0.97,-3.0,-0.3,-0.3,720,0,,,,,,,,,,,,,,,,,,,
8139004,1495394912457,,,,,,,,0.02,0.08,0.97,-3.0,-0.3,-0.2,720,0,,,,,,,,,,,,,,,,,,,
8139024,1495394912477,,,,,,,,0.02,0.08,0.97,-3.0,-0.4,-0.2,720,0,,,,,,,,,,,,,,,,,,,
8139044,1495394912495,,,,,,,,0.02,0.07,0.97,-3.0,-0.4,-0.3,720,0,,,,,,,,,,,,,,,,,,,
8139066,1495394912517,0,203.2,,204.5,9,214.2,,0.02,0.08,0.98,-3.0,-0.4,-0.2,720,0,0,1,0.0,0,39.538765,-122.332176,0.0,4.303,307.6,10,2,1.6,21,3.9433,8,0.1267,8.9777,8.9683,22
8139085,1495394912536,,,,,,,,0.02,0.08,0.97,-3.0,-0.3,-0.1,720,0,,,,,,,,,,,,,,,,,,,
8139105,1495394912556,,,,,,,,0.02,0.08,0.97,-2.9,-0.3,-0.2,720,0,,,,,,,,,,,,,,,,,,,
8139125,1495394912576,,,,,,,,0.02,0.08,0.98,-2.9,-0.3,-0.2,720,0,,,,,,,,,,,,,,,,,,,
8139145,1495394912596,,,,,,,,0.02,0.08,0.98,-3.0,-0.2,-0.1,720,0,,,,,,,,,,,,,,,,,,,
8139167,1495394912618,,,,,10,,,0.02,0.08,0.98,-3.0,-0.2,-0.1,720,0,0,1,0.0,0,39.538765,-122.332176,0.0,4.303,307.6,10,2,1.6,21,3.9433,8,0.1267,8.9794,8.97,22
8139186,1495394912637,,,,,,,,0.02,0.07,0.99,-2.9,-0.2,-0.2,720,0,,,,,,,,,,,,,,,,,,,
8139206,1495394912657,,,,,,,,0.01,0.07,0.99,-2.9,-0.1,-0.2,720,0,,,,,,,,,,,,,,,,,,,
8139226,1495394912677,,,,,,,,0.02,0.08,0.99,-3.0,-0.0,-0.1,720,0,,,,,,,,,,,,,,,,,,,
8139246,1495394912697,,,,,,,,0.02,0.08,0.99,-3.0,-0.1,-0.2,720,0,,,,,,,,,,,,,,,,,,,
8139268,1495394912719,0,203.7,2.0,205.1,10,214.6,13.36,0.02,0.07,1.0,-3.0,-0.1,-0.2,720,0,0,1,0.0,0,39.538765,-122.332176,0.0,4.303,307.6,10,2,1.6,21,3.9433,8,0.1267,8.981,8.9717,22
8139287,1495394912738,,,,,,,,0.01,0.08,0.99,-3.0,-0.1,-0.3,720,0,,,,,,,,,,,,,,,,,,,
8139307,1495394912758,,,,,,,,0.02,0.08,0.99,-3.0,-0.1,-0.2,720,0,,,,,,,,,,,,,,,,,,,
8139327,1495394912778,,,,,,,,0.02,0.08,0.99,-3.0,-0.1,-0.2,720,0,,,,,,,,,,,,,,,,,,,
8139347,1495394912798,,,,,,,,0.02,0.08,0.99,-3.0,-0.2,-0.3,720,0,,,,,,,,,,,,,,,,,,,
8139369,1495394912820,,,,,10,,,0.02,0.08,0.98,-3.0,-0.2,-0.3,700,0,0,1,0.0,0,39.538765,-122.332176,0.0,4.303,307.6,10,2,1.6,21,3.9433,8,0.1267,8.9827,8.9733,22
8139388,1495394912839,,,,,,,,0.02,0.08,0.98,-3.0,-0.1,-0.2,740,0,,,,,,,,,,,,,,,,,,,
8139408,1495394912859,,,,,,,,0.02,0.08,0.97,-3.0,-0.2,-0.2,720,0,,,,,,,,,,,,,,,,,,,
8139428,1495394912879,,,,,,,,0.02,0.08,0.97,-3.0,-0.2,-0.3,720,0,,,,,,,,,,,,,,,,,,,
8139448,1495394912901,,,,,,,,0.03,0.08,0.97,-3.0,-0.2,-0.2,720,0,,,,,,,,,,,,,,,,,,,
8139470,1495394912923,0,203.6,,205.2,9,214.6,,0.03,0.09,0.97,-3.0,-0.2,-0.1,720,0,0,1,0.0,0,39.538765,-122.332176,0.0,4.303,307.6,10,2,1.6,21,3.9433,8,0.1267,8.9844,8.975,22
8139489,1495394912942,,,,,,,,0.03,0.09,0.97,-3.0,-0.3,-0.1,720,0,,,,,,,,,,,,,,,,,,,
8139509,1495394912962,,,,,,,,0.03,0.09,0.97,-3.0,-0.3,-0.2,720,0,,,,,,,,,,,,,,,,,,,
8139529,1495394912982,,,,,,,,0.03,0.09,0.98,-3.0,-0.3,-0.2,720,0,,,,,,,,,,,,,,,,,,,
8139549,1495394912994,,,,,,,,0.03,0.09,0.97,-3.0,-0.2,-0.1,720,0,,,,,,,,,,,,,,,,,,,
8139571,1495394913016,,,,,9,,,0.03,0.08,0.97,-3.0,-0.2,-0.2,720,0,0,1,0.0,0,39.538765,-122.332176,0.0,4.303,307.6,10,2,1.6,21,3.9433,8,0.1267,8.986,8.9767,22
8139590,1495394913035,,,,,,,,0.02,0.08,0.98,-3.0,-0.2,-0.2,720,0,,,,,,,,,,,,,,,,,,,
8139610,1495394913055,,,,,,,,0.02,0.09,0.98,-3.0,-0.2,-0.2,720,0,,,,,,,,,,,,,,,,,,,
8139630,1495394913075,,,,,,,,0.02,0.09,0.98,-3.0,-0.2,-0.2,720,0,,,,,,,,,,,,,,,,,,,
8139650,1495394913103,,,,,,,,0.02,0.08,0.98,-3.0,-0.1,-0.3,720,0,,,,,,,,,,,,,,,,,,,
8139672,1495394913125,0,202.9,,204.7,9,213.8,,0.02,0.08,0.98,-3.0,-0.1,-0.2,720,0,0,1,0.0,0,39.538765,-122.332176,0.0,4.303,307.6,10,2,1.6,21,3.9433,8,0.1267,8.9878,8.9783,22
8139691,1495394913144,,,,,,,,0.02,0.09,0.98,-3.0,-0.1,-0.2,720,0,,,,,,,,,,,,,,,,,,,
8139711,1495394913164,,,,,,,,0.02,0.09,0.99,-3.0,-0.2,-0.1,740,0,,,,,,,,,,,,,,,,,,,
8139731,1495394913184,,,,,,,,0.03,0.08,0.99,-3.0,-0.2,-0.2,720,0,,,,,,,,,,,,,,,,,,,
8139751,1495394913204,,,,,,,,0.03,0.08,0.98,-3.0,-0.1,-0.2,720,0,,,,,,,,,,,,,,,,,,,
8139773,1495394913226,,,,,10,,,0.03,0.09,0.98,-3.0,-0.1,-0.1,720,0,0,1,0.0,0,39.538765,-122.332176,0.0,4.303,307.6,10,2,1.6,21,3.9433,8,0.1267,8.9895,8.98,22
8139792,1495394913245,,,,,,,,0.03,0.09,0.98,-3.0,-0.2,-0.1,720,0,,,,,,,,,,,,,,,,,,,
8139812,1495394913265,,,,,,,,0.03,0.09,0.98,-3.0,-0.2,-0.2,720,0,,,,,,,,,,,,,,,,,,,
8139832,1495394913285,,,,,,,,0.03,0.09,0.98,-3.0,-0.2,-0.3,720,0,,,,,,,,,,,,,,,,,,,
8139852,1495394913304,,,,,,,,0.02,0.09,0.98,-3.0,-0.3,-0.2,720,0,,,,,,,,,,,,,,,,,,,
8139874,1495394913326,0,203.4,,205.3,9,214.2,,0.02,0.09,0.97,-3.0,-0.3,-0.2,720,0,0,1,0.0,0,39.538765,-122.332176,0.0,4.303,307.6,10,2,1.6,21,3.9433,8,0.1267,8.9911,8.9817,22
8139893,1495394913345,,,,,,,,0.02,0.08,0.97,-2.9,-0.3,-0.3,720,0,,,,,,,,,,,,,,,,,,,
8139913,1495394913365,,,,,,,,0.03,0.08,0.97,-3.0,-0.3,-0.2,720,0,,,,,,,,,,,,,,,,,,,
8139933,1495394913385,,,,,,,,0.02,0.09,0.97,-3.0,-0.3,-0.1,720,0,,,,,,,,,,,,,,,,,,,
8139953,1495394913405,,,,,,,,0.02,0.09,0.96,-2.9,-0.3,-0.2,720,0,,,,,,,,,,,,,,,,,,,
8139975,1495394913427,,,,,10,,,0.02,0.08,0.97,-2.9,-0.3,-0.2,720,0,0,1,0.0,0,39.538765,-122.332176,0.0,4.303,307.6,10,2,1.6,21,3.9433,8,0.1267,8.9928,8.9833,22
8139994,1495394913446,,,,,,,,0.02,0.08,0.97,-3.0,-0.3,-0.2,720,0,,,,,,,,,,,,,,,,,,,
8140014,1495394913466,,,,,,,,0.02,0.08,0.97,-3.0,-0.2,-0.2,720,0,,,,,,,,,,,,,,,,,,,
8140034,1495394913486,,,,,,,,0.02,0.08,0.97,-2.9,-0.2,-0.3,720,0,,,,,,,,,,,,,,,,,,,
8140054,1495394913506,,,,,,,,0.02,0.08,0.97,-2.9,-0.2,-0.2,720,0,,,,,,,,,,,,,,,,,,,
8140076,1495394913528,0,202.9,,204.9,9,213.8,,0.02,0.08,0.97,-3.0,-0.2,-0.2,720,0,0,1,0.0,0,39.538765,-122.332176,0.0,4.303,307.6,10,2,1.6,21,3.9433,8,0.1267,8.9945,8.985,22
8140095,1495394913547,,,,,,,,0.02,0.08,0.97,-3.0,-0.1,-0.1,720,0,,,,,,,,,,,,,,,,,,,
8140115,1495394913567,,,,,,,,0.02,0.08,0.98,-2.9,-0.1,-0.2,720,0,,,,,,,,,,,,,,,,,,,
8140135,1495394913587,,,,,,,,0.02,0.07,0.98,-3.0,-0.0,-0.2,720,0,,,,,,,,,,,,,,,,,,,
8140155,1495394913607,,,,,,,,0.02,0.08,0.98,-3.0,-0.0,-0.2,720,0,,,,,,,,,,,,,,,,,,,
8140177,1495394913629,,,,,10,,,0.02,0.08,0.98,-3.0,-0.1,-0.2,720,0,0,1,0.0,0,39.538765,-122.332176,0.0,4.303,307.6,10,2,1.6,21,3.9433,8,0.1267,8.9962,8.9867,22
8140196,1495394913648,,,,,,,,0.02,0.08,0.98,-2.9,-0.2,-0.3,720,0,,,,,,,,,,,,,,,,,,,
8140216,1495394913668,,,,,,,,0.02,0.07,0.98,-3.0,-0.1,-0.3,720,0,,,,,,,,,,,,,,,,,,,
8140236,1495394913688,,,,,,,,0.02,0.08,0.98,-3.0,-0.2,-0.3,720,0,,,,,,,,,,,,,,,,,,,
8140256,1495394913708,,,,,,,,0.02,0.08,0.98,-2.9,-0.2,-0.3,720,0,,,,,,,,,,,,,,,,,,,
8140278,1495394913730,0,203.3,1.1,205.2,9,213.9,13.35,0.02,0.07,0.98,-2.9,-0.2,-0.3,720,0,0,1,0.0,0,39.538765,-122.332176,0.0,4.303,307.6,10,2,1.6,21,3.9433,8,0.1267,8.9979,8.9883,22
8140297,1495394913749,,,,,,,,0.02,0.07,0.98,-3.0,-0.2,-0.3,720,0,,,,,,,,,,,,,,,,,,,
8140317,1495394913769,,,,,,,,0.02,0.08,0.98,-3.0,-0.2,-0.3,720,0,,,,,,,,,,,,,,,,,,,
8140337,1495394913789,,,,,,,,0.02,0.07,0.98,-3.0,-0.2,-0.3,700,0,,,,,,,,,,,,,,,,,,,
8140357,1495394913809,,,,,,,,0.01,0.07,0.99,-3.0,-0.2,-0.3,700,0,,,,,,,,,,,,,,,,,,,
8140379,1495394913831,,,,,9,,,0.02,0.07,0.99,-3.0,-0.1,-0.2,720,0,0,1,0.0,0,39.538765,-122.332176,0.0,4.303,307.6,10,2,1.6,21,3.9433,8,0.1267,8.9996,8.99,22
8140398,1495394913850,,,,,,,,0.02,0.08,0.98,-3.0,-0.0,-0.2,700,0,,,,,,,,,,,,,,,,,,,
8140418,1495394913870,,,,,,,,0.02,0.07,0.99,-3.0,-0.0,-0.3,700,0,,,,,,,,,,,,,,,,,,,
8140438,1495394913890,,,,,,,,0.02,0.07,0.99,-3.0,-0.1,-0.2,700,0,,,,,,,,,,,,,,,,,,,
8140458,1495394913910,,,,,,,,0.02,0.08,0.99,-3.0,-0.1,-0.2,720,0,,,,,,,,,,,,,,,,,,,
8140480,1495394913932,0,203.7,,205.8,10,214.6,,0.02,0.08,0.98,-3.0,-0.1,-0.2,700,0,0,1,0.0,0,39.538765,-122.332176,0.0,4.303,307.6,10,2,1.6,21,3.9433,8,0.1267,9.0013,8.9917,22
8140499,1495394913951,,,,,,,,0.02,0.08,0.98,-3.0,-0.1,-0.2,700,0,,,,,,,,,,,,,,,,,,,
8140519,1495394913971,,,,,,,,0.02,0.08,0.98,-3.0,-0.1,-0.2,720,0,,,,,,,,,,,,,,,,,,,
8140539,1495394913991,,,,,,,,0.02,0.08,0.98,-3.0,-0.0,-0.1,700,0,,,,,,,,,,,,,,,,,,,
8140559,1495394914005,,,,,,,,0.02,0.08,0.99,-3.0,-0.1,-0.2,720,0,,,,,,,,,,,,,,,,,,,
8140581,1495394914027,,,,,9,,,0.02,0.08,0.99,-3.0,-0.1,-0.2,720,0,0,1,0.0,0,39.538765,-122.332176,0.0,4.303,307.6,10,2,1.6,21,3.9433,8,0.1267,9.0028,8.9933,22
8140600,1495394914046,,,,,,,,0.02,0.08,0.99,-3.0,-0.0,-0.2,700,0,,,,,,,,,,,,,,,,,,,
8140620,1495394914066,,,,,,,,0.02,0.09,0.99,-3.0,-0.1,-0.2,700,0,,,,,,,,,,,,,,,,,,,
8140640,1495394914092,,,,,,,,0.02,0.08,1.0,-3.0,-0.1,-0.3,720,0,,,,,,,,,,,,,,,,,,,
8140660,1495394914112,,,,,,,,0.02,0.08,1.0,-3.0,-0.2,-0.2,720,0,,,,,,,,,,,,,,,,,,,
8140682,1495394914134,0,203.7,,206.0,9,214.6,,0.02,0.09,0.99,-3.0,-0.2,-0.2,700,0,0,1,0.0,0,39.538765,-122.332176,0.0,4.303,307.6,10,2,1.6,21,3.9433,8,0.1267,9.0046,8.995,22
8140701,1495394914153,,,,,,,,0.02,0.09,0.99,-3.0,-0.2,-0.2,720,0,,,,,,,,,,,,,,,,,,,
8140721,1495394914173,,,,,,,,0.02,0.09,0.99,-3.0,-0.2,-0.2,720,0,,,,,,,,,,,,,,,,,,,
8140741,1495394914193,,,,,,,,0.02,0.09,0.99,-3.0,-0.2,-0.2,700,0,,,,,,,,,,,,,,,,,,,
8140761,1495394914213,,,,,,,,0.02,0.09,0.99,-3.0,-0.2,-0.2,700,0,,,,,,,,,,,,,,,,,,,
8140783,1495394914235,,,,,9,,,0.02,0.08,0.99,-3.0,-0.1,-0.3,700,0,0,1,0.0,0,39.538765,-122.332176,0.0,4.303,307.6,10,2,1.6,21,3.9433,8,0.1267,9.0063,8.9967,22
8140802,1495394914254,,,,,,,,0.02,0.08,1.0,-3.0,-0.1,-0.3,700,0,,,,,,,,,,,,,,,,,,,
8140822,1495394914274,,,,,,,,0.02,0.08,1.0,-3.0,-0.2,-0.3,700,0,,,,,,,,,,,,,,,,,,,
8140842,1495394914295,,,,,,,,0.02,0.09,0.99,-3.0,-0.2,-0.3,700,0,,,,,,,,,,,,,,,,,,,
8140862,1495394914315,,,,,,,,0.02,0.08,0.99,-2.9,-0.3,-0.4,700,0,,,,,,,,,,,,,,,,,,,
8140884,1495394914337,0,202.8,,205.1,9,213.5,,0.02,0.08,0.99,-2.9,-0.3,-0.4,700,0,0,1,0.0,0,39.538765,-122.332176,0.0,4.303,307.6,10,2,1.6,21,3.9433,8,0.1267,9.008,8.9983,22
8140903,1495394914356,,,,,,,,0.02,0.08,0.99,-3.0,-0.3,-0.3,700,0,,,,,,,,,,,,,,,,,,,
8140923,1495394914376,,,,,,,,0.02,0.07,0.98,-2.9,-0.3,-0.3,700,0,,,,,,,,,,,,,,,,,,,
8140943,1495394914396,,,,,,,,0.02,0.07,0.98,-2.9,-0.3,-0.3,700,0,,,,,,,,,,,,,,,,,,,
8140963,1495394914416,,,,,,,,0.02,0.08,0.99,-3.0,-0.2,-0.2,700,0,,,,,,,,,,,,,,,,,,,
8140985,1495394914438,,,,,9,,,0.02,0.08,0.99,-2.9,-0.2,-0.2,700,0,0,1,0.0,0,39.538765,-122.332176,0.0,4.303,307.6,10,2,1.6,21,3.9433,8,0.1267,9.0097,9.0,22
8141004,1495394914457,,,,,,,,0.02,0.07,0.99,-2.9,-0.2,-0.3,700,0,,,,,,,,,,,,,,,,,,,
8141024,1495394914477,,,,,,,,0.02,0.08,0.99,-2.9,-0.2,-0.2,700,0,,,,,,,,,,,,,,,,,,,
8141044,1495394914497,,,,,,,,0.02,0.09,0.98,-2.9,-0.2,-0.2,700,0,,,,,,,,,,,,,,,,,,,
8141064,1495394914517,,,,,,,,0.02,0.08,0.98,-2.9,-0.2,-0.2,700,0,,,,,,,,,,,,,,,,,,,
8141086,1495394914539,0,202.7,,205.3,9,213.5,,0.02,0.08,0.98,-2.9,-0.1,-0.2,700,0,0,1,0.0,0,39.538765,-122.332176,0.0,4.303,307.6,10,2,1.6,21,3.9433,8,0.1267,9.0114,9.0017,22
8141105,1495394914558,,,,,,,,0.03,0.09,0.98,-2.9,0.0,-0.2,700,0,,,,,,,,,,,,,,,,,,,
8141125,1495394914578,,,,,,,,0.03,0.09,0.99,-3.0,0.0,-0.2,700,0,,,,,,,,,,,,,,,,,,,
8141145,1495394914598,,,,,,,,0.03,0.08,0.99,-2.9,-0.0,-0.2,700,0,,,,,,,,,,,,,,,,,,,
8141165,1495394914618,,,,,,,,0.02,0.08,0.99,-3.0,-0.0,-0.2,700,0,,,,,,,,,,,,,,,,,,,
8141187,1495394914640,,,,,10,,,0.02,0.08,0.99,-3.0,-0.1,-0.1,700,0,0,1,0.0,0,39.538765,-122.332176,0.0,4.303,307.6,10,2,1.6,21,3.9433,8,0.1267,9.0131,9.0033,22
8141206,1495394914659,,,,,,,,0.02,0.09,0.99,-3.0,-0.1,-0.2,700,0,,,,,,,,,,,,,,,,,,,
8141226,1495394914679,,,,,,,,0.02,0.09,0.99,-2.9,-0.1,-0.2,700,0,,,,,,,,,,,,,,,,,,,
8141246,1495394914699,,,,,,,,0.02,0.09,0.99,-3.0,-0.1,-0.2,720,0,,,,,,,,,,,,,,,,,,,
8141266,1495394914719,,,,,,,,0.02,0.09,0.99,-2.9,-0.1,-0.2,700,0,,,,,,,,,,,,,,,,,,,
8141288,1495394914741,0,203.6,0.8,206.2,9,214.2,13.45,0.02,0.08,0.99,-2.9,-0.1,-0.2,720,0,0,1,0.0,0,39.538765,-122.332176,0.0,4.303,307.6,10,2,1.6,21,3.9433,8,0.1267,9.0147,9.005,22
8141307,1495394914760,,,,,,,,0.02,0.08,1.0,-2.9,-0.0,-0.2,720,0,,,,,,,,,,,,,,,,,,,
8141327,1495394914780,,,,,,,,0.02,0.08,1.0,-2.9,-0.1,-0.2,700,0,,,,,,,,,,,,,,,,,,,
8141347,1495394914800,,,,,,,,0.03,0.09,0.99,-2.9,-0.1,-0.2,720,0,,,,,,,,,,,,,,,,,,,
8141367,1495394914820,,,,,,,,0.03,0.08,0.99,-2.9,-0.2,-0.3,720,0,,,,,,,,,,,,,,,,,,,
8141389,1495394914842,,,,,9,,,0.03,0.07,0.99,-2.9,-0.2,-0.3,720,0,0,1,0.0,0,39.538765,-122.332176,0.0,4.303,307.6,10,2,1.6,21,3.9433,8,0.1267,9.0164,9.0067,22
8141408,1495394914861,,,,,,,,0.03,0.08,0.98,-2.9,-0.2,-0.2,720,0,,,,,,,,,,,,,,,,,,,
8141428,1495394914881,,,,,,,,0.03,0.08,0.98,-2.9,-0.2,-0.3,700,0,,,,,,,,,,,,,,,,,,,
8141448,1495394914901,,,,,,,,0.03,0.08,1.02,-2.9,-0.1,-0.3,700,0,,,,,,,,,,,,,,,,,,,
8141468,1495394914921,,,,,,,,0.03,0.08,1.0,-2.9,-0.1,-0.3,720,0,,,,,,,,,,,,,,,,,,,
8141490,1495394914943,0,203.3,,206.1,10,214.1,,0.03,0.08,1.0,-2.9,-0.1,-0.2,720,0,0,1,0.0,0,39.538765,-122.332176,0.0,4.303,307.6,10,2,1.6,21,3.9433,8,0.1267,9.0181,9.0083,22
8141509,1495394914962,,,,,,,,0.02,0.08,1.01,-2.9,-0.2,-0.3,700,0,,,,,,,,,,,,,,,,,,,
8141529,1495394914982,,,,,,,,0.02,0.08,1.0,-2.9,-0.2,-0.3,700,0,,,,,,,,,,,,,,,,,,,
8141549,1495394914994,,,,,,,,0.02,0.08,1.01,-2.9,-0.1,-0.2,720,0,,,,,,,,,,,,,,,,,,,
8141569,1495394915014,,,,,,,,0.02,0.08,1.0,-2.9,-0.1,-0.2,720,0,,,,,,,,,,,,,,,,,,,
8141591,1495394915036,,,,,9,,,0.02,0.08,1.0,-2.9,-0.1,-0.3,720,0,0,1,0.0,0,39.538765,-122.332176,0.0,4.303,307.6,10,2,1.6,21,3.9433,8,0.1267,9.0197,9.01,22
8141610,1495394915055,,,,,,,,0.02,0.07,0.99,-3.0,-0.2,-0.3,720,8,,,,,,,,,,,,,,,,,,,
8141630,1495394915075,,,,,,,,0.02,0.08,1.0,-3.0,-0.2,-0.2,720,8,,,,,,,,,,,,,,,,,,,
8141650,1495394915103,,,,,,,,0.02,0.08,0.99,-3.0,-0.3,-0.2,720,8,,,,,,,,,,,,,,,,,,,
8141670,1495394915123,,,,,,,,0.02,0.08,0.99,-3.0,-0.1,-0.2,720,8,,,,,,,,,,,,,,,,,,,
8141692,1495394915145,0,202.8,,205.5,9,213.4,,0.02,0.08,0.99,-3.0,-0.1,-0.2,720,8,0,1,102.857,0,39.538765,-122.332176,0.0,4.303,307.6,10,2,1.6,21,3.9433,8,0.1267,9.0215,9.0117,22
8141711,1495394915164,,,,,,,,0.02,0.09,0.99,-3.0,-0.2,-0.2,700,8,,,,,,,,,,,,,,,,,,,
8141731,1495394915184,,,,,,,,0.02,0.08,0.99,-3.0,-0.2,-0.2,720,8,,,,,,,,,,,,,,,,,,,
8141751,1495394915204,,,,,,,,0.02,0.08,1.0,-3.0,-0.2,-0.2,720,8,,,,,,,,,,,,,,,,,,,
8141771,1495394915224,,,,,,,,0.03,0.09,1.0,-3.0,-0.2,-0.2,700,8,,,,,,,,,,,,,,,,,,,
8141793,1495394915246,,,,,9,,,0.03,0.09,1.0,-3.1,-0.1,-0.1,700,8,0,1,102.857,0,39.538765,-122.332176,0.0,4.303,307.6,10,2,1.6,21,3.9433,8,0.1267,9.0232,9.0133,22
8141812,1495394915265,,,,,,,,0.03,0.08,1.0,-3.0,-0.2,-0.2,700,8,,,,,,,,,,,,,,,,,,,
8141832,1495394915285,,,,,,,,0.03,0.08,1.0,-3.0,-0.3,-0.2,700,8,,,,,,,,,,,,,,,,,,,
8141852,1495394915304,,,,,,,,0.02,0.09,0.99,-3.1,-0.4,-0.1,700,8,,,,,,,,,,,,,,,,,,,
8141872,1495394915324,,,,,,,,0.02,0.09,0.99,-3.0,-0.3,-0.1,700,8,,,,,,,,,,,,,,,,,,,
8141894,1495394915346,0,203.0,,205.8,10,213.7,,0.02,0.09,0.99,-3.0,-0.3,-0.2,700,8,0,1,100.0,0,39.538765,-122.332176,0.0,4.303,307.6,10,2,1.6,21,3.9433,8,0.1267,9.0248,9.015,22
8141913,1495394915365,,,,,,,,0.02,0.09,0.99,-3.0,-0.3,-0.2,700,8,,,,,,,,,,,,,,,,,,,
8141933,1495394915385,,,,,,,,0.02,0.1,1.0,-3.0,-0.3,-0.2,700,8,,,,,,,,,,,,,,,,,,,
8141953,1495394915405,,,,,,,,0.02,0.09,1.0,-3.0,-0.3,-0.2,700,8,,,,,,,,,,,,,,,,,,,
8141973,1495394915425,,,,,,,,0.02,0.09,1.0,-3.0,-0.3,-0.3,700,8,,,,,,,,,,,,,,,,,,,
8141995,1495394915447,,,,,9,,,0.02,0.09,0.99,-3.0,-0.3,-0.2,700,8,0,1,100.0,0,39.538765,-122.332176,0.0,4.303,307.6,10,2,1.6,21,3.9433,8,0.1267,9.0265,9.0167,22
8142014,1495394915466,,,,,,,,0.02,0.09,0.98,-3.0,-0.2,-0.2,700,8,,,,,,,,,,,,,,,,,,,
8142034,1495394915486,,,,,,,,0.02,0.08,0.98,-2.9,-0.3,-0.3,700,8,,,,,,,,,,,,,,,,,,,
8142054,1495394915506,,,,,,,,0.02,0.08,0.98,-2.9,-0.2,-0.3,700,8,,,,,,,,,,,,,,,,,,,
8142074,1495394915526,,,,,,,,0.02,0.08,0.98,-3.0,-0.2,-0.2,720,8,,,,,,,,,,,,,,,,,,,
8142096,1495394915548,0,203.3,,206.4,10,214.2,,0.02,0.08,0.98,-3.0,-0.1,-0.2,720,8,0,1,100.0,0,39.538765,-122.332176,0.0,4.303,307.6,10,2,1.6,21,3.9433,8,0.1267,9.0282,9.0183,22
8142115,1495394915567,,,,,,,,0.02,0.08,0.98,-3.0,-0.0,-0.3,720,8,,,,,,,,,,,,,,,,,,,
8142135,1495394915587,,,,,,,,0.02,0.08,0.98,-3.0,0.0,-0.2,720,8,,,,,,,,,,,,,,,,,,,
8142155,1495394915607,,,,,,,,0.02,0.08,0.98,-3.0,0.1,-0.1,720,8,,,,,,,,,,,,,,,,,,,
8142175,1495394915627,,,,,,,,0.01,0.08,0.99,-3.0,0.1,-0.1,740,8,,,,,,,,,,,,,,,,,,,
8142197,1495394915649,,,,,10,,,0.01,0.08,0.99,-3.0,0.1,-0.2,740,8,0,1,102.857,0,39.538765,-122.332176,0.0,4.303,307.6,10,2,1.6,21,3.9433,8,0.1267,9.0299,9.02,22
8142216,1495394915668,,,,,,,,0.01,0.07,0.99,-3.0,0.0,-0.2,740,8,,,,,,,,,,,,,,,,,,,
8142236,1495394915688,,,,,,,,0.02,0.07,0.99,-3.0,0.1,-0.1,740,8,,,,,,,,,,,,,,,,,,,
8142256,1495394915708,,,,,,,,0.01,0.08,0.99,-3.0,0.1,-0.1,740,8,,,,,,,,,,,,,,,,,,,
8142276,1495394915728,,,,,,,,0.01,0.08,0.99,-3.0,0.0,-0.2,740,8,,,,,,,,,,,,,,,,,,,
8142298,1495394915750,0,203.4,0.4,206.4,10,213.3,13.6,0.01,0.07,0.99,-3.0,0.0,-0.2,760,8,0,1,105.714,0,39.538765,-122.332176,0.0,4.303,307.6,10,2,1.6,21,3.9433,8,0.1267,9.0316,9.0217,22
8142317,1495394915769,,,,,,,,0.02,0.08,0.98,-3.0,0.0,-0.1,760,8,,,,,,,,,,,,,,,,,,,
8142337,1495394915789,,,,,,,,0.02,0.09,0.98,-3.0,-0.0,-0.1,760,8,,,,,,,,,,,,,,,,,,,
8142357,1495394915809,,,,,,,,0.02,0.08,0.98,-3.0,-0.1,-0.2,760,8,,,,,,,,,,,,,,,,,,,
8142377,1495394915829,,,,,,,,0.02,0.08,0.98,-3.0,-0.0,-0.2,760,8,,,,,,,,,,,,,,,,,,,
8142399,1495394915851,,,,,11,,,0.02,0.09,0.98,-3.0,-0.0,-0.2,760,8,0,1,108.571,0,39.538765,-122.332176,0.0,4.303,307.6,10,2,1.6,21,3.9433,8,0.1267,9.0332,9.0233,22
8142418,1495394915870,,,,,,,,0.02,0.08,0.98,-3.0,-0.0,-0.1,760,8,,,,,,,,,,,,,,,,,,,
8142438,1495394915890,,,,,,,,0.02,0.07,0.99,-3.0,0.1,-0.1,760,8,,,,,,,,,,,,,,,,,,,
8142458,1495394915910,,,,,,,,0.01,0.07,0.99,-3.0,-0.0,-0.1,760,512820,,,,,,,,,,,,,,,,,,,
8142478,1495394915930,,,,,,,,0.02,0.07,0.98,-3.0,-0.1,-0.1,760,0,,,,,,,,,,,,,,,,,,,
8142500,1495394915952,0,203.1,,206.2,11,213.6,,0.02,0.07,0.99,-3.0,0.0,-0.1,780,0,0,1,108.571,0,39.538765,-122.332176,0.0,4.303,307.6,10,2,1.6,21,3.9433,8,0.1267,9.0349,9.025,22
8142519,1495394915971,,,,,,,,0.02,0.09,0.98,-3.0,-0.2,-0.0,760,0,,,,,,,,,,,,,,,,,,,
8142539,1495394915991,,,,,,,,0.02,0.07,0.98,-2.9,-0.3,-0.2,780,0,,,,,,,,,,,,,,,,,,,
8142559,1495394916003,,,,,,,,0.02,0.07,0.98,-2.9,-0.0,-0.3,780,0,,,,,,,,,,,,,,,,,,,
8142579,1495394916023,,,,,,,,0.02,0.08,0.98,-2.9,-0.1,-0.2,760,0,,,,,,,,,,,,,,,,,,,
8142601,1495394916045,,,,,10,,,0.02,0.07,0.98,-2.9,-0.2,-0.1,780,0,0,1,0.0,0,39.538765,-122.332176,0.0,4.303,307.6,10,2,1.6,21,3.9433,8,0.1267,9.0365,9.0267,22
8142620,1495394916064,,,,,,,,0.02,0.08,0.99,-3.0,0.1,-0.1,780,0,,,,,,,,,,,,,,,,,,,
8142640,1495394916092,,,,,,,,0.02,0.08,0.98,-2.9,-0.3,-0.3,760,0,,,,,,,,,,,,,,,,,,,
8142660,1495394916112,,,,,,,,0.02,0.07,0.98,-2.9,-0.3,-0.3,760,0,,,,,,,,,,,,,,,,,,,
8142680,1495394916132,,,,,,,,0.02,0.08,0.99,-3.0,0.0,-0.3,780,0,,,,,,,,,,,,,,,,,,,
8142702,1495394916154,0,202.9,,205.8,10,214.2,,0.02,0.08,0.98,-2.9,-0.2,-0.2,760,0,0,1,0.0,0,39.538765,-122.332176,0.0,4.303,307.6,10,2,1.6,21,3.9433,8,0.1267,9.0383,9.0283,22
8142721,1495394916173,,,,,,,,0.02,0.07,0.99,-2.9,0.0,-0.2,760,0,,,,,,,,,,,,,,,,,,,
8142741,1495394916193,,,,,,,,0.01,0.08,0.99,-2.9,-0.0,-0.2,760,0,,,,,,,,,,,,,,,,,,,
8142761,1495394916213,,,,,,,,0.02,0.08,0.97,-2.9,-0.1,-0.2,760,0,,,,,,,,,,,,,,,,,,,
8142781,1495394916233,,,,,,,,0.02,0.07,0.97,-3.0,-0.2,-0.2,760,0,,,,,,,,,,,,,,,,,,,
8142803,1495394916255,,,,,10,,,0.02,0.09,0.97,-3.0,-0.3,-0.1,740,0,0,1,0.0,0,39.538765,-122.332176,0.0,4.303,307.6,10,2,1.6,21,3.9433,8,0.1267,9.04,9.03,22
8142822,1495394916274,,,,,,,,0.02,0.07,0.97,-2.9,-0.4,-0.3,740,0,,,,,,,,,,,,,,,,,,,
8142842,1495394916293,,,,,,,,0.02,0.07,0.97,-3.0,-0.3,-0.4,740,0,,,,,,,,,,,,,,,,,,,
8142862,1495394916313,,,,,,,,0.02,0.08,0.98,-3.0,-0.3,-0.2,760,0,,,,,,,,,,,,,,,,,,,
8142882,1495394916333,,,,,,,,0.02,0.08,0.97,-2.9,-0.4,-0.2,740,0,,,,,,,,,,,,,,,,,,,
8142904,1495394916355,0,203.1,,206.3,10,213.4,,0.02,0.06,0.97,-2.9,-0.3,-0.3,740,0,0,1,0.0,0,39.538765,-122.332176,0.0,4.303,307.6,10,2,1.6,21,3.9433,8,0.1267,9.0416,9.0317,22
8142923,1495394916374,,,,,,,,0.02,0.07,0.97,-2.9,-0.3,-0.4,740,0,,,,,,,,,,,,,,,,,,,
8142943,1495394916394,,,,,,,,0.02,0.07,0.97,-2.9,-0.3,-0.3,740,0,,,,,,,,,,,,,,,,,,,
8142963,1495394916414,,,,,,,,0.02,0.07,0.98,-2.9,-0.2,-0.3,740,0,,,,,,,,,,,,,,,,,,,
8142983,1495394916434,,,,,,,,0.02,0.06,0.98,-2.9,-0.1,-0.4,740,0,,,,,,,,,,,,,,,,,,,
8143005,1495394916456,,,,,11,,,0.02,0.06,0.98,-2.9,-0.1,-0.4,740,0,0,1,0.0,0,39.538765,-122.332176,0.0,4.303,307.6,10,2,1.6,21,3.9433,8,0.1267,9.0433,9.0333,22
8143024,1495394916475,,,,,,,,0.02,0.06,0.97,-3.0,-0.1,-0.3,740,0,,,,,,,,,,,,,,,,,,,
8143044,1495394916495,,,,,,,,0.02,0.06,0.98,-3.0,-0.1,-0.2,740,0,,,,,,,,,,,,,,,,,,,
8143064,1495394916515,,,,,,,,0.02,0.06,0.99,-2.9,0.0,-0.3,740,0,,,,,,,,,,,,,,,,,,,
8143084,1495394916535,,,,,,,,0.02,0.06,0.98,-2.9,0.1,-0.3,740,0,,,,,,,,,,,,,,,,,,,
8143106,1495394916557,0,203.5,,206.6,11,213.1,,0.02,0.06,0.98,-2.9,0.1,-0.3,740,0,0,1,0.0,0,39.538765,-122.332176,0.0,4.303,307.6,10,2,1.6,21,3.9433,8,0.1267,9.045,9.035,22
8143125,1495394916576,,,,,,,,0.02,0.06,0.98,-3.0,0.1,-0.2,720,0,,,,,,,,,,,,,,,,,,,
8143145,1495394916596,,,,,,,,0.02,0.06,0.99,-2.9,0.2,-0.2,740,0,,,,,,,,,,,,,,,,,,,
8143165,1495394916616,,,,,,,,0.02,0.06,0.99,-2.9,0.1,-0.3,740,0,,,,,,,,,,,,,,,,,,,
8143185,1495394916636,,,,,,,,0.02,0.07,0.99,-3.0,0.1,-0.2,740,0,,,,,,,,,,,,,,,,,,,
8143207,1495394916658,,,,,9,,,0.02,0.07,0.99,-3.0,0.1,-0.2,740,0,0,1,0.0,0,39.538765,-122.332176,0.0,4.303,307.6,10,2,1.6,21,3.9433,8,0.1267,9.0467,9.0367,22
8143226,1495394916677,,,,,,,,0.02,0.07,0.99,-3.0,0.1,-0.2,740,0,,,,,,,,,,,,,,,,,,,
8143246,1495394916697,,,,,,,,0.02,0.07,0.99,-3.0,0.1,-0.3,740,0,,,,,,,,,,,,,,,,,,,
8143266,1495394916717,,,,,,,,0.02,0.07,0.99,-3.0,0.1,-0.2,740,0,,,,,,,,,,,,,,,,,,,
8143286,1495394916737,,,,,,,,0.02,0.07,0.99,-3.0,0.1,-0.1,720,0,,,,,,,,,,,,,,,,,,,
8143308,1495394916759,0,202.8,-0.0,205.9,9,213.4,13.64,0.02,0.07,0.99,-3.0,0.2,-0.2,740,0,0,1,0.0,0,39.538765,-122.332176,0.0,4.303,307.6,10,2,1.6,21,3.9433,8,0.1267,9.0484,9.0383,22
8143327,1495394916778,,,,,,,,0.02,0.07,0.99,-3.0,0.1,-0.2,740,0,,,,,,,,,,,,,,,,,,,
8143347,1495394916800,,,,,,,,0.02,0.07,0.99,-3.0,0.1,-0.2,720,0,,,,,,,,,,,,,,,,,,,
8143367,1495394916820,,,,,,,,0.02,0.08,0.99,-3.0,0.0,-0.2,740,0,,,,,,,,,,,,,,,,,,,
8143387,1495394916840,,,,,,,,0.02,0.08,0.99,-3.0,0.0,-0.2,720,0,,,,,,,,,,,,,,,,,,,
8143409,1495394916862,,,,,11,,,0.02,0.07,0.99,-3.0,0.1,-0.2,720,0,0,1,0.0,0,39.538765,-122.332176,0.0,4.303,307.6,10,2,1.6,21,3.9433,8,0.1267,9.0501,9.04,22
8143428,1495394916881,,,,,,,,0.02,0.08,0.99,-3.0,0.1,-0.2,740,0,,,,,,,,,,,,,,,,,,,
8143448,1495394916901,,,,,,,,0.02,0.08,0.99,-3.1,0.1,-0.1,720,0,,,,,,,,,,,,,,,,,,,
8143468,1495394916921,,,,,,,,0.02,0.08,1.0,-3.0,0.2,-0.1,740,0,,,,,,,,,,,,,,,,,,,
8143488,1495394916941,,,,,,,,0.02,0.08,0.99,-3.0,0.2,-0.2,740,0,,,,,,,,,,,,,,,,,,,
8143510,1495394916963,0,203.2,,206.4,11,213.1,,0.02,0.08,0.99,-3.1,0.1,-0.1,740,0,0,1,0.0,0,39.538765,-122.332176,0.0,4.303,307.6,10,2,1.6,21,3.9433,8,0.1267,9.0518,9.0417,22
8143529,1495394916982,,,,,,,,0.02,0.09,0.99,-3.1,0.1,-0.0,760,0,,,,,,,,,,,,,,,,,,,
8143549,1495394916994,,,,,,,,0.02,0.09,0.98,-3.1,0.1,-0.0,760,0,,,,,,,,,,,,,,,,,,,
8143569,1495394917014,,,,,,,,0.02,0.09,0.98,-3.0,-0.0,-0.2,760,0,,,,,,,,,,,,,,,,,,,
8143589,1495394917034,,,,,,,,0.02,0.09,0.98,-3.1,0.0,-0.2,760,0,,,,,,,,,,,,,,,,,,,
8143611,1495394917056,,,,,11,,,0.02,0.09,0.98,-3.1,0.0,-0.1,780,0,0,1,0.0,0,39.538765,-122.332176,0.0,4.303,307.6,10,2,1.8,21,3.9433,8,0.1267,9.0533,9.0433,22
8143630,1495394917075,,,,,,,,0.02,0.1,0.97,-3.1,-0.0,-0.0,780,0,,,,,,,,,,,,,,,,,,,
8143650,1495394917101,,,,,,,,0.02,0.08,0.98,-3.0,-0.0,-0.1,780,0,,,,,,,,,,,,,,,,,,,
8143670,1495394917121,,,,,,,,0.02,0.08,0.98,-3.0,0.0,-0.2,780,0,,,,,,,,,,,,,,,,,,,
8143690,1495394917141,,,,,,,,0.02,0.08,0.97,-3.0,-0.2,-0.2,780,0,,,,,,,,,,,,,,,,,,,
8143712,1495394917163,0,202.6,,205.9,11,213.1,,0.02,0.08,0.98,-3.0,-0.1,-0.1,800,0,0,1,0.0,0,39.538765,-122.332176,0.0,4.303,307.6,10,2,1.8,21,3.9433,8,0.1267,9.0551,9.045,22
8143731,1495394917182,,,,,,,,0.02,0.09,0.99,-3.0,-0.2,0.0,800,0,,,,,,,,,,,,,,,,,,,
8143751,1495394917204,,,,,,,,0.02,0.08,0.98,-2.9,-0.3,-0.1,800,0,,,,,,,,,,,,,,,,,,,
8143771,1495394917224,,,,,,,,0.02,0.08,0.99,-3.0,-0.3,-0.2,800,0,,,,,,,,,,,,,,,,,,,
8143791,1495394917244,,,,,,,,0.02,0.08,0.98,-2.9,-0.2,-0.2,800,0,,,,,,,,,,,,,,,,,,,
8143813,1495394917266,,,,,11,,,0.02,0.09,0.98,-3.0,-0.3,-0.1,820,0,0,1,0.0,0,39.538765,-122.332176,0.0,4.303,307.6,10,2,1.8,21,3.9433,8,0.1267,9.0568,9.0467,22
8143832,1495394917285,,,,,,,,0.03,0.09,0.98,-3.0,-0.4,0.0,820,0,,,,,,,,,,,,,,,,,,,
8143852,1495394917304,,,,,,,,0.02,0.1,0.99,-3.0,-0.1,0.0,820,0,,,,,,,,,,,,,,,,,,,
8143872,1495394917324,,,,,,,,0.03,0.09,0.98,-2.9,-0.3,-0.1,820,0,,,,,,,,,,,,,,,,,,,
8143892,1495394917344,,,,,,,,0.02,0.08,0.99,-2.9,-0.3,-0.3,820,0,,,,,,,,,,,,,,,,,,,
8143914,1495394917366,0,202.9,,206.5,12,213.0,,0.02,0.08,0.98,-2.9,-0.1,-0.3,820,0,0,1,0.0,0,39.538765,-122.332176,0.0,4.303,307.6,10,2,1.8,21,3.9433,8,0.1267,9.0585,9.0483,22
8143933,1495394917385,,,,,,,,0.02,0.08,0.97,-3.0,-0.1,-0.2,840,0,,,,,,,,,,,,,,,,,,,
8143953,1495394917405,,,,,,,,0.02,0.08,0.99,-3.0,-0.3,-0.1,840,0,,,,,,,,,,,,,,,,,,,
8143973,1495394917425,,,,,,,,0.02,0.1,0.99,-3.0,-0.1,0.0,840,0,,,,,,,,,,,,,,,,,,,
8143993,1495394917445,,,,,,,,0.03,0.1,0.98,-3.0,-0.0,-0.0,860,0,,,,,,,,,,,,,,,,,,,
8144015,1495394917467,,,,,13,,,0.03,0.09,0.98,-3.0,-0.4,-0.2,860,0,0,1,0.0,0,39.538765,-122.332176,0.0,4.303,307.6,10,2,1.8,21,3.9433,8,0.1267,9.0602,9.05,22
8144034,1495394917486,,,,,,,,0.02,0.08,0.99,-2.9,-0.5,-0.4,860,0,,,,,,,,,,,,,,,,,,,
8144054,1495394917506,,,,,,,,0.01,0.07,0.97,-2.8,-0.2,-0.4,880,0,,,,,,,,,,,,,,,,,,,
8144074,1495394917526,,,,,,,,0.02,0.07,0.98,-2.9,-0.1,-0.3,880,0,,,,,,,,,,,,,,,,,,,
8144094,1495394917546,,,,,,,,0.02,0.07,0.98,-3.0,-0.4,-0.2,880,0,,,,,,,,,,,,,,,,,,,
8144116,1495394917568,0,202.6,,206.0,11,213.3,,0.02,0.08,0.99,-3.0,-0.2,-0.2,880,0,0,1,0.0,0,39.538765,-122.332176,0.0,4.303,307.6,10,2,1.8,21,3.9433,8,0.1267,9.0618,9.0517,22
8144135,1495394917587,,,,,,,,0.02,0.09,0.98,-3.0,0.1,-0.1,880,0,,,,,,,,,,,,,,,,,,,
8144155,1495394917607,,,,,,,,0.03,0.09,0.98,-3.0,0.0,-0.1,880,0,,,,,,,,,,,,,,,,,,,
8144175,1495394917627,,,,,,,,0.03,0.09,0.98,-3.0,-0.5,-0.2,880,0,,,,,,,,,,,,,,,,,,,
8144195,1495394917647,,,,,,,,0.02,0.08,0.98,-2.9,-0.5,-0.3,900,0,,,,,,,,,,,,,,,,,,,
8144217,1495394917669,,,,,12,,,0.02,0.08,0.98,-2.9,-0.2,-0.4,900,0,0,1,0.0,0,39.538765,-122.332176,0.0,4.303,307.6,10,2,1.8,21,3.9433,8,0.1267,9.0635,9.0533,22
8144236,1495394917688,,,,,,,,0.02,0.07,0.97,-2.9,-0.0,-0.5,880,0,,,,,,,,,,,,,,,,,,,
8144256,1495394917708,,,,,,,,0.03,0.06,0.98,-2.9,-0.0,-0.4,900,0,,,,,,,,,,,,,,,,,,,
8144276,1495394917728,,,,,,,,0.02,0.06,0.99,-2.9,-0.1,-0.4,880,0,,,,,,,,,,,,,,,,,,,
8144296,1495394917748,,,,,,,,0.02,0.07,1.0,-3.0,-0.2,-0.3,880,0,,,,,,,,,,,,,,,,,,,
8144318,1495394917770,0,202.7,-0.3,206.1,13,212.9,13.88,0.02,0.08,1.0,-3.0,-0.1,-0.2,900,0,0,1,0.0,0,39.538765,-122.332176,0.0,4.303,307.6,10,2,1.8,21,3.9433,8,0.1267,9.0652,9.055,22
8144337,1495394917789,,,,,,,,0.03,0.09,0.99,-3.0,0.2,-0.1,900,0,,,,,,,,,,,,,,,,,,,
8144357,1495394917809,,,,,,,,0.04,0.09,1.0,-3.0,0.2,-0.1,900,0,,,,,,,,,,,,,,,,,,,
8144377,1495394917829,,,,,,,,0.04,0.09,0.99,-3.0,-0.1,-0.1,900,0,,,,,,,,,,,,,,,,,,,
8144397,1495394917849,,,,,,,,0.03,0.09,0.99,-3.0,-0.3,-0.2,900,0,,,,,,,,,,,,,,,,,,,
8144419,1495394917871,,,,,13,,,0.02,0.08,0.99,-2.9,-0.3,-0.3,900,0,0,1,0.0,0,39.538765,-122.332176,0.0,4.303,307.6,10,2,1.8,21,3.9433,8,0.1267,9.0669,9.0567,22
8144438,1495394917890,,,,,,,,0.01,0.07,0.98,-2.9,-0.3,-0.4,880,0,,,,,,,,,,,,,,,,,,,
8144458,1495394917910,,,,,,,,0.02,0.07,0.98,-2.8,-0.1,-0.5,900,5,,,,,,,,,,,,,,,,,,,
8144478,1495394917930,,,,,,,,0.02,0.06,0.97,-2.9,0.0,-0.5,900,43,,,,,,,,,,,,,,,,,,,
8144498,1495394917950,,,,,,,,0.02,0.06,0.98,-2.9,-0.1,-0.4,900,43,,,,,,,,,,,,,,,,,,,
8144520,1495394917972,0,202.9,,206.2,14,212.9,,0.04,0.07,0.99,-2.9,-0.3,-0.3,900,68,0,1,0.0,0,39.538765,-122.332176,0.0,4.303,307.6,10,2,1.8,21,3.9433,8,0.1267,9.0686,9.0583,22
8144539,1495394917991,,,,,,,,0.04,0.08,0.99,-2.9,-0.2,-0.2,880,49,,,,,,,,,,,,,,,,,,,
8144559,1495394918005,,,,,,,,0.04,0.09,1.0,-3.0,-0.3,-0.1,900,49,,,,,,,,,,,,,,,,,,,
8144579,1495394918025,,,,,,,,0.04,0.1,1.0,-3.0,-0.1,-0.1,880,38,,,,,,,,,,,,,,,,,,,
8144599,1495394918045,,,,,,,,0.04,0.1,0.99,-3.0,-0.1,-0.1,900,38,,,,,,,,,,,,,,,,,,,
8144621,1495394918067,,,,,13,,,0.04,0.09,0.99,-3.0,-0.4,-0.2,880,38,0,1,13.134,0,39.538765,-122.332176,0.0,4.303,307.6,10,2,1.8,21,3.9433,8,0.1267,9.0702,9.06,22
8144640,1495394918092,,,,,,,,0.04,0.09,1.0,-3.0,-0.5,-0.3,860,38,,,,,,,,,,,,,,,,,,,
8144660,1495394918112,,,,,,,,0.03,0.08,0.99,-3.0,-0.3,-0.3,860,38,,,,,,,,,,,,,,,,,,,
8144680,1495394918132,,,,,,,,0.03,0.07,0.98,-3.0,-0.1,-0.3,860,38,,,,,,,,,,,,,,,,,,,
8144700,1495394918152,,,,,,,,0.04,0.08,0.97,-3.0,-0.2,-0.2,840,29,,,,,,,,,,,,,,,,,,,
8144722,1495394918174,0,202.1,,205.8,13,213.4,,0.04,0.08,0.98,-3.1,-0.4,-0.2,840,29,0,1,23.158,0,39.538765,-122.332176,0.0,4.303,307.6,10,2,1.8,21,3.9433,8,0.1267,9.0719,9.0617,22
8144741,1495394918193,,,,,,,,0.04,0.09,1.0,-3.1,-0.2,-0.1,860,29,,,,,,,,,,,,,,,,,,,
8144761,1495394918213,,,,,,,,0.04,0.1,0.99,-3.1,-0.2,0.0,840,29,,,,,,,,,,,,,,,,,,,
8144781,1495394918233,,,,,,,,0.04,0.1,0.99,-3.1,-0.2,0.0,840,29,,,,,,,,,,,,,,,,,,,
8144801,1495394918253,,,,,,,,0.04,0.09,0.99,-3.1,-0.5,-0.1,860,29,,,,,,,,,,,,,,,,,,,
8144823,1495394918275,,,,,14,,,0.03,0.09,0.99,-3.1,-0.5,-0.3,840,29,0,1,29.655,0,39.538765,-122.332176,0.0,4.303,307.6,10,2,1.8,21,3.9433,8,0.1267,9.0736,9.0633,22
8144842,1495394918295,,,,,,,,0.03,0.08,0.98,-3.1,-0.2,-0.4,860,29,,,,,,,,,,,,,,,,,,,
8144862,1495394918315,,,,,,,,0.03,0.07,0.98,-3.1,-0.0,-0.3,860,9,,,,,,,,,,,,,,,,,,,
8144882,1495394918335,,,,,,,,0.03,0.08,0.99,-3.1,-0.3,-0.2,860,9,,,,,,,,,,,,,,,,,,,
8144902,1495394918355,,,,,,,,0.03,0.09,0.99,-3.1,-0.3,-0.1,860,9,,,,,,,,,,,,,,,,,,,
8144924,1495394918377,0,202.1,,205.7,13,213.5,,0.04,0.1,0.99,-3.2,-0.0,-0.1,840,9,0,1,28.966,0,39.538765,-122.332176,0.0,4.303,307.6,10,2,1.8,21,3.9433,8,0.1267,9.0753,9.065,22
8144943,1495394918396,,,,,,,,0.05,0.1,0.98,-3.1,-0.1,-0.1,860,9,,,,,,,,,,,,,,,,,,,
8144963,1495394918416,,,,,,,,0.04,0.09,0.98,-3.1,-0.4,-0.2,840,9,,,,,,,,,,,,,,,,,,,
8144983,1495394918436,,,,,,,,0.03,0.08,0.98,-3.1,-0.3,-0.3,860,9,,,,,,,,,,,,,,,,,,,
8145003,1495394918456,,,,,,,,0.03,0.07,0.98,-3.0,0.1,-0.3,840,9,,,,,,,,,,,,,,,,,,,
8145025,1495394918478,,,,,14,,,0.03,0.07,0.97,-3.1,-0.1,-0.2,840,9,0,1,93.333,0,39.538765,-122.332176,0.0,4.303,307.6,10,2,1.8,21,3.9433,8,0.1267,9.077,9.0667,22
8145044,1495394918495,,,,,,,,0.03,0.07,1.0,-3.1,-0.3,-0.1,860,9,,,,,,,,,,,,,,,,,,,
8145064,1495394918515,,,,,,,,0.04,0.09,0.99,-3.1,-0.1,-0.0,840,9,,,,,,,,,,,,,,,,,,,
8145084,1495394918535,,,,,,,,0.04,0.09,0.98,-3.1,0.2,-0.0,860,9,,,,,,,,,,,,,,,,,,,
8145104,1495394918555,,,,,,,,0.04,0.09,0.99,-3.1,-0.2,-0.1,840,9,,,,,,,,,,,,,,,,,,,
8145126,1495394918577,0,202.4,,205.8,12,213.4,,0.03,0.08,0.99,-3.1,-0.4,-0.2,860,9,0,1,95.556,0,39.538765,-122.332176,0.0,4.303,307.6,10,2,1.8,21,3.9433,8,0.1267,9.0787,9.0683,22
8145145,1495394918596,,,,,,,,0.02,0.07,0.98,-3.1,-0.1,-0.3,840,9,,,,,,,,,,,,,,,,,,,
8145165,1495394918616,,,,,,,,0.02,0.07,0.98,-3.1,0.1,-0.3,860,9,,,,,,,,,,,,,,,,,,,
8145185,1495394918636,,,,,,,,0.02,0.07,0.99,-3.1,-0.0,-0.2,860,9,,,,,,,,,,,,,,,,,,,
8145205,1495394918656,,,,,,,,0.02,0.08,0.99,-3.1,-0.0,-0.1,840,9,,,,,,,,,,,,,,,,,,,
8145227,1495394918678,,,,,13,,,0.02,0.08,1.0,-3.1,0.2,-0.1,880,9,0,1,95.556,0,39.538765,-122.332176,0.0,4.303,307.6,10,2,1.8,21,3.9433,8,0.1267,9.0803,9.07,22
8145246,1495394918699,,,,,,,,0.03,0.09,0.99,-3.1,0.2,-0.0,820,9,,,,,,,,,,,,,,,,,,,
8145266,1495394918719,,,,,,,,0.02,0.09,1.0,-3.1,-0.2,-0.2,860,9,,,,,,,,,,,,,,,,,,,
8145286,1495394918739,,,,,,,,0.01,0.08,1.0,-3.1,-0.3,-0.3,860,9,,,,,,,,,,,,,,,,,,,
8145306,1495394918759,,,,,,,,0.01,0.07,0.98,-3.0,0.1,-0.3,860,9,,,,,,,,,,,,,,,,,,,
8145328,1495394918781,0,201.8,-0.5,205.5,12,213.0,13.82,0.02,0.08,0.98,-3.1,0.1,-0.3,860,9,0,1,97.778,0,39.538765,-122.332176,0.0,4.303,307.6,10,2,1.8,21,3.9433,8,0.1267,9.0821,9.0717,22
8145347,1495394918800,,,,,,,,0.01,0.08,0.98,-3.1,-0.2,-0.2,840,9,,,,,,,,,,,,,,,,,,,
8145367,1495394918820,,,,,,,,0.01,0.08,1.0,-3.1,-0.4,-0.1,860,9,,,,,,,,,,,,,,,,,,,
8145387,1495394918840,,,,,,,,0.02,0.09,0.99,-3.1,-0.1,-0.1,860,9,,,,,,,,,,,,,,,,,,,
8145407,1495394918860,,,,,,,,0.02,0.09,0.99,-3.1,-0.2,-0.1,820,9,,,,,,,,,,,,,,,,,,,
8145429,1495394918882,,,,,14,,,0.02,0.08,0.99,-3.1,-0.5,-0.2,840,9,0,1,93.333,0,39.538765,-122.332176,0.0,4.303,307.6,10,2,1.8,21,3.9433,8,0.1267,9.0837,9.0733,22
8145448,1495394918901,,,,,,,,0.01,0.08,0.99,-3.1,-0.4,-0.3,840,9,,,,,,,,,,,,,,,,,,,
8145468,1495394918921,,,,,,,,0.01,0.07,0.97,-3.0,-0.1,-0.3,840,9,,,,,,,,,,,,,,,,,,,
8145488,1495394918941,,,,,,,,0.01,0.07,0.97,-3.1,-0.3,-0.2,820,9,,,,,,,,,,,,,,,,,,,
8145508,1495394918961,,,,,,,,0.01,0.08,0.98,-3.1,-0.5,-0.2,820,9,,,,,,,,,,,,,,,,,,,
8145530,1495394918983,0,201.8,,205.5,12,212.8,,0.01,0.08,0.98,-3.1,-0.1,-0.2,800,9,0,1,93.333,0,39.538765,-122.332176,0.0,4.303,307.6,10,2,1.8,21,3.9433,8,0.1267,9.0854,9.075,22
8145549,1495394918994,,,,,,,,0.01,0.08,0.97,-3.0,-0.2,-0.2,780,9,,,,,,,,,,,,,,,,,,,
8145569,1495394919014,,,,,,,,0.01,0.07,0.98,-3.0,-0.4,-0.3,780,9,,,,,,,,,,,,,,,,,,,
8145589,1495394919034,,,,,,,,0.0,0.08,0.97,-3.0,-0.3,-0.3,780,9,,,,,,,,,,,,,,,,,,,
8145609,1495394919054,,,,,,,,0.01,0.08,0.97,-3.1,-0.2,-0.2,780,9,,,,,,,,,,,,,,,,,,,
8145631,1495394919076,,,,,10,,,0.01,0.08,0.97,-3.1,-0.4,-0.1,760,9,0,1,88.889,0,39.538765,-122.332176,0.0,4.303,307.6,10,2,1.6,21,3.9433,8,0.1267,9.087,9.0767,22
8145650,1495394919101,,,,,,,,0.01,0.07,0.97,-3.0,-0.3,-0.2,780,9,,,,,,,,,,,,,,,,,,,
8145670,1495394919121,,,,,,,,0.0,0.07,0.97,-3.0,-0.2,-0.2,760,9,,,,,,,,,,,,,,,,,,,
8145690,1495394919141,,,,,,,,0.0,0.07,0.97,-3.0,-0.3,-0.2,760,769231,,,,,,,,,,,,,,,,,,,
8145710,1495394919161,,,,,,,,0.01,0.07,0.98,-3.1,-0.3,-0.1,760,0,,,,,,,,,,,,,,,,,,,
8145732,1495394919183,0,201.9,,205.6,11,213.1,,0.0,0.08,0.98,-3.1,-0.2,-0.1,780,0,0,1,84.444,0,39.538765,-122.332176,0.0,4.303,307.6,10,2,1.6,21,3.9433,8,0.1267,9.0888,9.0783,22
8145751,1495394919204,,,,,,,,0.01,0.07,0.99,-3.0,-0.4,-0.3,760,0,,,,,,,,,,,,,,,,,,,
8145771,1495394919224,,,,,,,,0.01,0.07,0.99,-3.0,-0.2,-0.3,760,0,,,,,,,,,,,,,,,,,,,
8145791,1495394919244,,,,,,,,0.01,0.08,0.99,-3.0,-0.1,-0.2,760,0,,,,,,,,,,,,,,,,,,,
8145811,1495394919264,,,,,,,,0.01,0.07,0.99,-3.0,-0.2,-0.2,780,0,,,,,,,,,,,,,,,,,,,
8145833,1495394919286,,,,,10,,,0.01,0.06,0.99,-3.0,-0.1,-0.3,740,0,0,1,0.0,0,39.538765,-122.332176,0.0,4.303,307.6,10,2,1.6,21,3.9433,8,0.1267,9.0905,9.08,22
8145852,1495394919304,,,,,,,,0.0,0.07,0.99,-3.0,-0.1,-0.3,740,0,,,,,,,,,,,,,,,,,,,
8145872,1495394919324,,,,,,,,0.01,0.06,0.98,-3.0,-0.2,-0.3,760,0,,,,,,,,,,,,,,,,,,,
8145892,1495394919344,,,,,,,,0.01,0.06,0.98,-3.0,-0.1,-0.2,740,0,,,,,,,,,,,,,,,,,,,
8145912,1495394919364,,,,,,,,0.01,0.08,0.99,-3.0,-0.1,-0.1,740,0,,,,,,,,,,,,,,,,,,,
8145934,1495394919386,0,202.2,,205.9,11,212.4,,0.01,0.06,0.98,-3.0,-0.2,-0.2,740,0,0,1,0.0,0,39.538765,-122.332176,0.0,4.303,307.6,10,2,1.6,21,3.9433,8,0.1267,9.0921,9.0817,22
8145953,1495394919405,,,,,,,,0.01,0.07,0.99,-3.0,-0.2,-0.3,740,0,,,,,,,,,,,,,,,,,,,
8145973,1495394919425,,,,,,,,0.01,0.08,0.98,-3.0,-0.2,-0.2,760,0,,,,,,,,,,,,,,,,,,,
8145993,1495394919445,,,,,,,,0.01,0.08,0.98,-3.0,-0.2,-0.2,740,0,,,,,,,,,,,,,,,,,,,
8146013,1495394919465,,,,,,,,0.02,0.07,0.98,-3.0,-0.3,-0.3,740,0,,,,,,,,,,,,,,,,,,,
8146035,1495394919487,,,,,9,,,0.02,0.08,0.98,-3.0,-0.3,-0.3,740,0,0,1,0.0,0,39.538765,-122.332176,0.0,4.303,307.6,10,2,1.6,21,3.9433,8,0.1267,9.0938,9.0833,22
8146054,1495394919506,,,,,,,,0.02,0.08,0.98,-3.0,-0.2,-0.2,740,0,,,,,,,,,,,,,,,,,,,
8146074,1495394919526,,,,,,,,0.02,0.08,0.97,-3.0,-0.2,-0.2,760,0,,,,,,,,,,,,,,,,,,,
8146094,1495394919546,,,,,,,,0.02,0.06,0.98,-2.9,-0.3,-0.4,720,3,,,,,,,,,,,,,,,,,,,
8146114,1495394919566,,,,,,,,0.03,0.07,0.97,-3.0,-0.3,-0.3,720,58,,,,,,,,,,,,,,,,,,,
8146136,1495394919588,0,202.3,,206.1,11,212.1,,0.04,0.07,0.97,-3.0,-0.3,-0.2,740,58,0,1,0.0,0,39.538765,-122.332176,0.0,4.303,307.6,10,2,1.6,21,3.9433,8,0.1267,9.0955,9.085,22
8146155,1495394919607,,,,,,,,0.04,0.07,0.98,-3.0,-0.2,-0.2,720,58,,,,,,,,,,,,,,,,,,,
8146175,1495394919627,,,,,,,,0.03,0.07,0.98,-2.9,-0.3,-0.3,740,35,,,,,,,,,,,,,,,,,,,
8146195,1495394919647,,,,,,,,0.03,0.07,0.98,-3.0,-0.2,-0.4,740,35,,,,,,,,,,,,,,,,,,,
8146215,1495394919667,,,,,,,,0.04,0.08,0.97,-3.0,-0.1,-0.2,740,35,,,,,,,,,,,,,,,,,,,
8146237,1495394919689,,,,,11,,,0.04,0.08,0.96,-3.0,-0.2,-0.2,740,35,0,1,12.759,0,39.538765,-122.332176,0.0,4.303,307.6,10,2,1.6,21,3.9433,8,0.1267,9.0972,9.0867,22
8146256,1495394919709,,,,,,,,0.04,0.07,0.97,-3.0,-0.2,-0.2,740,35,,,,,,,,,,,,,,,,,,,
8146276,1495394919729,,,,,,,,0.04,0.08,0.97,-3.0,-0.1,-0.3,740,35,,,,,,,,,,,,,,,,,,,
8146296,1495394919749,,,,,,,,0.04,0.08,0.97,-3.0,-0.1,-0.2,760,35,,,,,,,,,,,,,,,,,,,
8146316,1495394919769,,,,,,,,0.04,0.07,0.97,-3.0,0.0,-0.1,740,35,,,,,,,,,,,,,,,,,,,
8146338,1495394919791,0,201.6,-0.6,206.2,12,212.9,13.86,0.04,0.07,0.97,-3.0,-0.0,-0.3,760,35,0,1,21.143,0,39.538765,-122.332176,0.0,4.303,307.6,10,2,1.6,21,3.9433,8,0.1267,9.0989,9.0883,22
8146357,1495394919809,,,,,,,,0.03,0.06,0.97,-2.9,-0.2,-0.4,780,35,,,,,,,,,,,,,,,,,,,
8146377,1495394919829,,,,,,,,0.03,0.06,0.97,-3.0,-0.3,-0.3,780,35,,,,,,,,,,,,,,,,,,,
8146397,1495394919849,,,,,,,,0.04,0.06,0.97,-3.1,-0.2,-0.1,780,35,,,,,,,,,,,,,,,,,,,
8146417,1495394919869,,,,,,,,0.04,0.08,0.97,-3.1,-0.2,-0.1,780,35,,,,,,,,,,,,,,,,,,,
8146439,1495394919893,,,,,10,,,0.04,0.07,0.97,-3.0,-0.4,-0.3,820,35,0,1,21.714,0,39.538765,-122.332176,0.0,4.303,307.6,10,2,1.6,21,3.9433,8,0.1267,9.1006,9.0917,22
8146458,1495394919912,,,,,,,,0.03,0.07,0.97,-3.0,-0.3,-0.4,780,35,,,,,,,,,,,,,,,,,,,
8146478,1495394919932,,,,,,,,0.03,0.07,0.96,-3.0,-0.4,-0.3,780,35,,,,,,,,,,,,,,,,,,,
8146498,1495394919952,,,,,,,,0.04,0.07,0.96,-3.0,-0.3,-0.1,820,5,,,,,,,,,,,,,,,,,,,
8146518,1495394919972,,,,,,,,0.04,0.09,0.97,-3.1,-0.3,0.0,820,5,,,,,,,,,,,,,,,,,,,
8146540,1495394919994,0,201.6,,206.1,12,212.7,,0.04,0.08,0.97,-3.0,-0.4,-0.1,820,5,0,1,23.429,0,39.538765,-122.332176,0.0,4.303,307.6,10,2,1.6,21,3.9433,8,0.1267,9.1023,9.0917,22
8146559,1495394920003,,,,,,,,0.04,0.09,0.97,-3.0,-0.6,-0.3,820,5,,,,,,,,,,,,,,,,,,,
8146579,1495394920023,,,,,,,,0.03,0.08,0.97,-3.0,-0.4,-0.4,840,5,,,,,,,,,,,,,,,,,,,
8146599,1495394920043,,,,,,,,0.03,0.08,0.96,-3.1,-0.2,-0.3,840,5,,,,,,,,,,,,,,,,,,,
8146619,1495394920063,,,,,,,,0.04,0.07,0.97,-3.1,-0.2,-0.1,820,5,,,,,,,,,,,,,,,,,,,
8146641,1495394920093,,,,,11,,,0.04,0.09,0.98,-3.2,-0.2,-0.0,840,5,0,1,205.0,0,39.538765,-122.332176,0.0,4.303,307.6,10,2,1.6,21,3.9433,8,0.1267,9.1039,9.095,22
8146660,1495394920112,,,,,,,,0.04,0.1,0.99,-3.2,-0.0,-0.0,820,5,,,,,,,,,,,,,,,,,,,
8146680,1495394920132,,,,,,,,0.04,0.09,0.99,-3.1,-0.2,-0.1,840,5,,,,,,,,,,,,,,,,,,,
8146700,1495394920152,,,,,,,,0.04,0.09,0.99,-3.2,-0.5,-0.3,820,5,,,,,,,,,,,,,,,,,,,
8146720,1495394920172,,,,,,,,0.04,0.08,0.97,-3.1,-0.3,-0.3,840,6,,,,,,,,,,,,,,,,,,,
8146742,1495394920196,0,201.7,,205.5,13,212.0,,0.04,0.07,0.97,-3.2,-0.0,-0.2,840,6,0,1,210.0,0,39.538765,-122.332176,0.0,4.303,307.6,10,2,1.6,21,3.9433,8,0.1267,9.1056,9.0967,22
8146761,1495394920215,,,,,,,,0.04,0.07,0.98,-3.3,-0.1,-0.1,820,6,,,,,,,,,,,,,,,,,,,
8146781,1495394920235,,,,,,,,0.04,0.09,0.98,-3.3,-0.3,0.0,840,6,,,,,,,,,,,,,,,,,,,
8146801,1495394920255,,,,,,,,0.05,0.09,0.97,-3.3,-0.1,0.0,840,20,,,,,,,,,,,,,,,,,,,
8146821,1495394920275,,,,,,,,0.05,0.08,0.98,-3.3,-0.4,-0.1,820,20,,,,,,,,,,,,,,,,,,,
8146843,1495394920296,,,,,13,,,0.04,0.07,0.98,-3.2,-0.5,-0.3,820,25,0,1,136.667,0,39.538765,-122.332176,0.0,4.303,307.6,10,2,1.6,21,3.9433,8,0.1267,9.1073,9.0983,22
8146862,1495394920315,,,,,,,,0.04,0.07,0.96,-3.2,-0.3,-0.3,820,25,,,,,,,,,,,,,,,,,,,
8146882,1495394920335,,,,,,,,0.05,0.06,0.96,-3.3,-0.1,-0.2,820,25,,,,,,,,,,,,,,,,,,,
8146902,1495394920355,,,,,,,,0.05,0.07,0.97,-3.2,-0.4,-0.0,800,28,,,,,,,,,,,,,,,,,,,
8146922,1495394920375,,,,,,,,0.06,0.08,0.97,-3.2,-0.1,0.0,800,28,,,,,,,,,,,,,,,,,,,
8146944,1495394920397,0,201.1,,205.8,13,212.4,,0.06,0.08,0.98,-3.2,-0.2,-0.2,800,28,0,1,34.167,0,39.538765,-122.332176,0.0,4.303,307.6,10,2,1.6,21,3.9433,8,0.1267,9.109,9.1,22
8146963,1495394920416,,,,,,,,0.06,0.07,0.98,-3.1,-0.4,-0.3,780,26,,,,,,,,,,,,,,,,,,,
8146983,1495394920436,,,,,,,,0.06,0.07,0.97,-3.1,-0.6,-0.2,780,26,,,,,,,,,,,,,,,,,,,
8147003,1495394920456,,,,,,,,0.07,0.07,0.98,-3.2,-0.3,-0.1,780,31,,,,,,,,,,,,,,,,,,,
8147023,1495394920476,,,,,,,,0.07,0.1,0.97,-3.2,-0.4,-0.0,760,31,,,,,,,,,,,,,,,,,,,
8147045,1495394920498,,,,,13,,,0.07,0.08,0.98,-3.1,-0.5,-0.2,760,34,0,1,30.769,0,39.538765,-122.332176,0.0,4.303,307.6,10,2,1.6,21,3.9433,8,0.1267,9.1107,9.1017,22
8147064,1495394920517,,,,,,,,0.07,0.08,0.98,-3.1,-0.3,-0.3,760,34,,,,,,,,,,,,,,,,,,,
8147084,1495394920537,,,,,,,,0.07,0.08,0.97,-3.1,-0.4,-0.2,760,38,,,,,,,,,,,,,,,,,,,
8147104,1495394920557,,,,,,,,0.08,0.07,0.97,-3.1,-0.3,-0.1,760,38,,,,,,,,,,,,,,,,,,,
8147124,1495394920577,,,,,,,,0.07,0.09,0.98,-3.2,-0.3,-0.1,760,37,,,,,,,,,,,,,,,,,,,
8147146,1495394920599,0,200.8,,205.8,12,212.2,,0.07,0.08,0.97,-3.1,-0.5,-0.3,740,37,0,1,23.03,0,39.538765,-122.332176,0.0,4.303,307.6,10,2,1.6,21,3.9433,8,0.1267,9.1124,9.1033,22
8147165,1495394920618,,,,,,,,0.07,0.07,0.97,-3.1,-0.3,-0.4,740,46,,,,,,,,,,,,,,,,,,,
8147185,1495394920638,,,,,,,,0.07,0.09,0.97,-3.2,-0.3,-0.1,760,46,,,,,,,,,,,,,,,,,,,
8147205,1495394920658,,,,,,,,0.08,0.1,0.97,-3.1,-0.3,-0.1,740,42,,,,,,,,,,,,,,,,,,,
8147225,1495394920678,,,,,,,,0.08,0.08,0.97,-3.0,-0.4,-0.3,760,43,,,,,,,,,,,,,,,,,,,
8147247,1495394920700,,,,,12,,,0.07,0.08,0.98,-3.0,-0.2,-0.4,760,43,0,1,16.087,0,39.538765,-122.332176,0.0,4.303,307.6,10,2,1.6,21,3.9433,8,0.1267,9.114,9.105,22
8147266,1495394920719,,,,,,,,0.07,0.08,0.97,-3.0,-0.4,-0.2,760,52,,,,,,,,,,,,,,,,,,,
8147286,1495394920739,,,,,,,,0.07,0.06,0.98,-3.1,-0.2,-0.1,760,52,,,,,,,,,,,,,,,,,,,
8147306,1495394920759,,,,,,,,0.06,0.08,0.98,-3.1,-0.1,-0.1,760,38,,,,,,,,,,,,,,,,,,,
8147326,1495394920779,,,,,,,,0.05,0.08,0.98,-3.1,-0.1,-0.2,800,45,,,,,,,,,,,,,,,,,,,
8147348,1495394920801,0,201.6,-0.8,205.0,12,211.5,13.85,0.05,0.06,0.97,-3.1,-0.2,-0.3,800,45,0,1,14.615,0,39.538765,-122.332176,0.0,4.303,307.6,10,2,1.6,21,3.9433,8,0.1267,9.1157,9.1067,22
8147367,1495394920820,,,,,,,,0.05,0.09,0.97,-3.1,-0.0,-0.0,780,54,,,,,,,,,,,,,,,,,,,
8147387,1495394920840,,,,,,,,0.05,0.09,0.97,-3.1,-0.2,0.1,820,46,,,,,,,,,,,,,,,,,,,
8147407,1495394920860,,,,,,,,0.05,0.08,0.98,-3.1,0.0,0.1,820,46,,,,,,,,,,,,,,,,,,,
8147427,1495394920880,,,,,,,,0.05,0.09,0.97,-3.1,-0.1,-0.1,840,43,,,,,,,,,,,,,,,,,,,
8147449,1495394920902,,,,,12,,,0.04,0.07,0.97,-3.0,-0.1,-0.2,840,54,0,1,14.717,0,39.538765,-122.332176,0.0,4.303,307.6,10,2,1.6,21,3.9433,8,0.1267,9.1174,9.1083,22
8147468,1495394920921,,,,,,,,0.04,0.06,0.96,-3.0,0.1,-0.2,880,54,,,,,,,,,,,,,,,,,,,
8147488,1495394920941,,,,,,,,0.04,0.06,0.96,-3.0,0.1,-0.2,880,57,,,,,,,,,,,,,,,,,,,
8147508,1495394920961,,,,,,,,0.04,0.06,0.98,-3.0,0.1,-0.1,860,49,,,,,,,,,,,,,,,,,,,
8147528,1495394920981,,,,,,,,0.04,0.08,0.99,-3.0,0.3,-0.1,880,49,,,,,,,,,,,,,,,,,,,
8147550,1495394920995,0,200.7,,205.4,13,212.0,,0.04,0.08,1.0,-3.0,0.3,-0.0,880,49,0,1,15.849,0,39.538765,-122.332176,0.0,4.303,307.6,10,2,1.6,21,3.9433,8,0.1267,9.119,9.11,22
8147569,1495394921014,,,,,,,,0.04,0.07,1.0,-3.0,0.3,0.0,900,54,,,,,,,,,,,,,,,,,,,
8147589,1495394921034,,,,,,,,0.03,0.07,1.0,-3.0,0.0,-0.0,900,54,,,,,,,,,,,,,,,,,,,
8147609,1495394921054,,,,,,,,0.02,0.07,0.99,-3.0,-0.1,-0.1,920,52,,,,,,,,,,,,,,,,,,,
8147629,1495394921074,,,,,,,,0.02,0.07,0.98,-2.9,0.1,-0.2,920,51,,,,,,,,,,,,,,,,,,,
8147651,1495394921104,,,,,15,,,0.02,0.06,0.96,-2.9,0.2,-0.3,940,51,0,1,17.959,0,39.538765,-122.332176,0.0,4.303,307.6,10,2,1.6,21,3.9433,8,0.1267,9.1208,9.1117,22
8147670,1495394921123,,,,,,,,0.03,0.06,0.96,-2.9,0.1,-0.4,920,49,,,,,,,,,,,,,,,,,,,
8147690,1495394921143,,,,,,,,0.03,0.06,0.96,-2.9,0.0,-0.4,940,54,,,,,,,,,,,,,,,,,,,
8147710,1495394921163,,,,,,,,0.02,0.05,0.96,-2.9,0.0,-0.3,940,52,,,,,,,,,,,,,,,,,,,
8147730,1495394921183,,,,,,,,0.02,0.06,0.98,-3.0,-0.0,-0.2,940,52,,,,,,,,,,,,,,,,,,,
8147752,1495394921205,0,201.0,,205.0,14,211.3,,0.02,0.07,0.98,-3.0,0.0,-0.1,940,49,0,1,19.184,0,39.538765,-122.332176,0.0,4.303,307.6,10,2,1.6,21,3.9433,8,0.1267,9.1225,9.1133,22
