"Interval"|"ms"|0|0|1,"Utc"|"ms"|0|0|1,"FuelLevel"|"F"|0|100|5,"OilTemp"|"F"|0.0|300.0|5,"CoolantPressPSI"|"PSI"|0.0|20.0|1,"Coolant"|"F"|0.0|300.0|5,"OilPress"|"PSI"|0|150|10,"EngineTemp"|"F"|0.0|300.0|5,"Battery"|"Volts"|0.0|20.0|1,"AccelX"|"G"|-3.0|3.0|50,"AccelY"|"G"|-3.0|3.0|50,"AccelZ"|"G"|-3.0|3.0|50,"Yaw"|"Deg/Sec"|-300.0|300.0|50,"Pitch"|"Deg/Sec"|-300.0|300.0|50,"Roll"|"Deg/Sec"|-300.0|300.0|50,"RPM"|""|0|10000|50,"Driveshaft"|"RPM"|0|5000|50,"GPIO1"|""|0|1|10,"GPIO2"|""|0|1|10,"GearRatio"|""|-5.0|5.0|10,"Gear"|""|-1|5|10,"Latitude"|"Degrees"|-180.0|180.0|10,"Longitude"|"Degrees"|-180.0|180.0|10,"Speed"|"mph"|0.0|150.0|10,"Distance"|"mi"|0.0|0.0|10,"Altitude"|"ft"|0.0|4000.0|10,"GPSSats"|""|0|20|10,"GPSQual"|""|0|5|10,"GPSDOP"|""|0.0|20.0|10,"LapCount"|""|0|0|10,"LapTime"|"Min"|0.0|0.0|10,"Sector"|""|0|0|10,"SectorTime"|"Min"|0.0|0.0|10,"PredTime"|"Min"|0.0|0.0|10,"ElapsedTime"|"Min"|0.0|0.0|10,"CurrentLap"|""|0|0|10
26054,1495386799356,,,,,,,,0.03,0.07,1.0,-3.0,-0.4,-0.2,800,0,,,,,,,,,,,,,,,,,,,
26074,1495386799376,0,91.0,-0.4,96.0,60,91.5,14.76,0.03,0.07,0.99,-3.0,-0.1,-0.1,800,0,1,1,0.0,0,39.537434,-122.332703,0.0,0.0,436.4,4,2,0.5,0,0.0,-1,0.0,0.0,0.0,0
26094,1495386799396,,,,,,,,0.04,0.07,1.0,-3.0,-0.3,-0.1,800,0,,,,,,,,,,,,,,,,,,,
26114,1495386799416,,,,,,,,0.04,0.07,1.0,-3.0,-0.3,-0.1,800,0,,,,,,,,,,,,,,,,,,,
26134,1495386799436,,,,,,,,0.04,0.08,0.99,-3.0,-0.2,-0.1,820,0,,,,,,,,,,,,,,,,,,,
26154,1495386799452,,,,,,,,0.03,0.07,0.99,-3.0,-0.3,-0.1,800,0,,,,,,,,,,,,,,,,,,,
26174,1495386799472,,,,,58,,,0.03,0.07,1.0,-3.0,-0.1,-0.1,800,0,1,1,0.0,0,39.53743,-122.332703,0.0,0.0,431.5,7,2,2.0,0,0.0,-1,0.0,0.0,0.0,0
26194,1495386799492,,,,,,,,0.04,0.07,1.0,-3.0,-0.3,-0.1,800,0,,,,,,,,,,,,,,,,,,,
26214,1495386799512,,,,,,,,0.03,0.07,1.01,-3.0,-0.2,-0.1,800,0,,,,,,,,,,,,,,,,,,,
26234,1495386799532,,,,,,,,0.03,0.07,1.02,-3.0,-0.2,-0.1,800,0,,,,,,,,,,,,,,,,,,,
26254,1495386799552,,,,,,,,0.03,0.07,1.02,-3.0,-0.3,-0.1,800,0,,,,,,,,,,,,,,,,,,,
26274,1495386799560,0,88.7,,94.6,57,92.7,,0.02,0.07,1.02,-3.0,-0.3,-0.1,800,0,1,1,0.0,0,39.537426,-122.332687,0.0,0.0,406.9,7,2,2.0,0,0.0,-1,0.0,0.0,0.0,0
26294,1495386799580,,,,,,,,0.03,0.06,1.02,-3.0,-0.2,-0.2,800,0,,,,,,,,,,,,,,,,,,,
26314,1495386799600,,,,,,,,0.02,0.07,1.02,-3.1,-0.4,-0.1,800,0,,,,,,,,,,,,,,,,,,,
26334,1495386799620,,,,,,,,0.02,0.07,1.02,-3.0,-0.3,-0.1,800,0,,,,,,,,,,,,,,,,,,,
26354,1495386799656,,,,,,,,0.02,0.07,1.02,-3.0,-0.3,-0.2,800,0,,,,,,,,,,,,,,,,,,,
26374,1495386799676,,,,,60,,,0.02,0.06,1.02,-3.0,-0.5,-0.2,800,0,1,1,0.0,0,39.537437,-122.332687,0.0,0.0,403.6,7,2,2.0,0,0.0,-1,0.0,0.0,0.0,0
26394,1495386799696,,,,,,,,0.02,0.06,1.01,-3.0,-0.3,-0.1,800,0,,,,,,,,,,,,,,,,,,,
26414,1495386799716,,,,,,,,0.03,0.07,1.01,-3.0,-0.7,-0.1,800,0,,,,,,,,,,,,,,,,,,,
26434,1495386799736,,,,,,,,0.03,0.08,1.01,-3.0,-0.6,-0.1,800,0,,,,,,,,,,,,,,,,,,,
26454,1495386799754,,,,,,,,0.03,0.07,1.01,-3.0,-0.6,-0.1,800,0,,,,,,,,,,,,,,,,,,,
26474,1495386799774,0,89.2,,95.4,60,93.3,,0.02,0.07,1.02,-3.0,-0.7,-0.2,800,0,1,1,0.0,0,39.537437,-122.332687,0.0,0.0,402.0,7,2,2.0,0,0.0,-1,0.0,0.0,0.0,0
26494,1495386799794,,,,,,,,0.02,0.07,1.02,-3.0,-0.5,-0.1,800,0,,,,,,,,,,,,,,,,,,,
26514,1495386799814,,,,,,,,0.03,0.07,1.02,-3.0,-0.7,-0.1,800,0,,,,,,,,,,,,,,,,,,,
26534,1495386799834,,,,,,,,0.03,0.08,1.02,-3.0,-0.6,-0.1,800,0,,,,,,,,,,,,,,,,,,,
26554,1495386799854,,,,,,,,0.03,0.08,1.02,-3.0,-0.5,-0.1,800,0,,,,,,,,,,,,,,,,,,,
26574,1495386799874,,,,,58,,,0.03,0.07,1.04,-3.0,-0.5,-0.1,800,0,1,1,0.0,0,39.537445,-122.332672,0.0,0.0,398.8,7,2,2.0,0,0.0,-1,0.0,0.0,0.0,0
26594,1495386799894,,,,,,,,0.03,0.08,1.03,-3.0,-0.5,-0.1,800,0,,,,,,,,,,,,,,,,,,,
26614,1495386799914,,,,,,,,0.03,0.07,1.03,-3.0,-0.2,-0.1,800,0,,,,,,,,,,,,,,,,,,,
26634,1495386799934,,,,,,,,0.03,0.08,1.03,-3.0,-0.4,-0.1,800,0,,,,,,,,,,,,,,,,,,,
26654,1495386799954,,,,,,,,0.03,0.08,1.02,-3.0,-0.2,-0.1,800,0,,,,,,,,,,,,,,,,,,,
26674,1495386799974,0,90.8,,96.1,59,92.9,,0.03,0.07,1.02,-3.0,-0.3,-0.1,800,0,1,1,0.0,0,39.537449,-122.332672,0.0,0.0,389.8,7,2,2.0,0,0.0,-1,0.0,0.0,0.0,0
26694,1495386799994,,,,,,,,0.03,0.07,1.01,-3.0,-0.4,-0.1,800,0,,,,,,,,,,,,,,,,,,,
26714,1495386800014,,,,,,,,0.03,0.07,1.01,-3.0,-0.1,-0.1,800,0,,,,,,,,,,,,,,,,,,,
26734,1495386800034,,,,,,,,0.03,0.07,1.0,-3.0,-0.3,-0.0,800,0,,,,,,,,,,,,,,,,,,,
26754,1495386800053,,,,,,,,0.03,0.07,1.01,-3.0,-0.2,-0.0,800,0,,,,,,,,,,,,,,,,,,,
26774,1495386800073,,,,,60,,,0.03,0.07,1.01,-3.0,-0.2,-0.1,800,0,1,1,0.0,0,39.537453,-122.332672,0.0,0.0,385.1,7,2,2.0,0,0.0,-1,0.0,0.0,0.0,0
26794,1495386800093,,,,,,,,0.03,0.06,1.01,-3.0,-0.3,-0.1,800,0,,,,,,,,,,,,,,,,,,,
26814,1495386800113,,,,,,,,0.03,0.07,1.01,-3.0,-0.2,-0.2,800,0,,,,,,,,,,,,,,,,,,,
26834,1495386800133,,,,,,,,0.03,0.07,1.01,-3.0,-0.2,-0.1,800,0,,,,,,,,,,,,,,,,,,,
26854,1495386800151,,,,,,,,0.02,0.08,1.03,-3.0,-0.1,-0.1,800,0,,,,,,,,,,,,,,,,,,,
26874,1495386800171,0,90.8,,96.3,59,93.0,,0.02,0.08,1.03,-3.0,-0.1,-0.2,800,0,1,1,0.0,0,39.537453,-122.332672,0.0,0.0,380.5,7,2,2.0,0,0.0,-1,0.0,0.0,0.0,0
26894,1495386800191,,,,,,,,0.02,0.07,1.04,-3.0,-0.2,-0.2,800,0,,,,,,,,,,,,,,,,,,,
26914,1495386800211,,,,,,,,0.02,0.07,1.03,-3.0,-0.3,-0.2,800,0,,,,,,,,,,,,,,,,,,,
26934,1495386800231,,,,,,,,0.02,0.07,1.03,-3.0,-0.2,-0.2,800,0,,,,,,,,,,,,,,,,,,,
26954,1495386800251,,,,,,,,0.02,0.08,1.02,-3.0,-0.5,-0.2,800,0,,,,,,,,,,,,,,,,,,,
26974,1495386800271,,,,,58,,,0.02,0.07,1.02,-3.0,-0.4,-0.1,800,0,1,1,0.0,0,39.537456,-122.332657,0.0,0.0,377.3,7,2,2.0,0,0.0,-1,0.0,0.0,0.0,0
26994,1495386800291,,,,,,,,0.03,0.08,1.02,-3.0,-0.4,-0.2,800,0,,,,,,,,,,,,,,,,,,,
27014,1495386800311,,,,,,,,0.03,0.07,1.01,-3.0,-0.7,-0.2,800,0,,,,,,,,,,,,,,,,,,,
27034,1495386800331,,,,,,,,0.03,0.07,1.01,-3.0,-0.6,-0.2,800,0,,,,,,,,,,,,,,,,,,,
27054,1495386800351,,,,,,,,0.03,0.08,1.01,-3.0,-0.7,-0.2,800,0,,,,,,,,,,,,,,,,,,,
27074,1495386800367,0,89.0,-0.4,94.5,59,92.6,14.76,0.03,0.08,1.01,-3.0,-0.7,-0.1,800,0,1,1,0.0,0,39.537456,-122.332657,0.0,0.0,377.3,7,2,2.0,0,0.0,-1,0.0,0.0,0.0,0
27094,1495386800387,,,,,,,,0.03,0.08,1.0,-3.0,-0.6,-0.2,800,0,,,,,,,,,,,,,,,,,,,
27114,1495386800407,,,,,,,,0.03,0.07,1.01,-3.0,-0.7,-0.2,800,0,,,,,,,,,,,,,,,,,,,
27134,1495386800427,,,,,,,,0.03,0.08,1.01,-2.9,-0.5,-0.2,800,0,,,,,,,,,,,,,,,,,,,
27154,1495386800453,,,,,,,,0.03,0.07,1.02,-3.0,-0.5,-0.2,800,0,,,,,,,,,,,,,,,,,,,
27174,1495386800473,,,,,59,,,0.03,0.08,1.02,-3.0,-0.5,-0.1,800,0,1,1,0.0,0,39.537456,-122.332657,0.0,0.0,377.3,7,2,2.0,0,0.0,-1,0.0,0.0,0.0,0
27194,1495386800493,,,,,,,,0.03,0.08,1.01,-3.0,-0.3,-0.1,800,0,,,,,,,,,,,,,,,,,,,
27214,1495386800513,,,,,,,,0.03,0.07,1.01,-3.0,-0.5,-0.1,780,0,,,,,,,,,,,,,,,,,,,
27234,1495386800533,,,,,,,,0.03,0.08,1.01,-3.0,-0.4,-0.1,780,0,,,,,,,,,,,,,,,,,,,
27254,1495386800553,,,,,,,,0.04,0.07,1.01,-3.0,-0.2,-0.1,800,0,,,,,,,,,,,,,,,,,,,
27274,1495386800567,0,90.7,,96.1,58,93.0,,0.04,0.08,1.01,-3.0,-0.4,-0.1,780,0,1,1,0.0,0,39.537456,-122.332657,0.0,0.0,377.3,7,2,2.0,0,0.0,-1,0.0,0.0,0.0,0
27294,1495386800587,,,,,,,,0.04,0.08,1.0,-3.0,-0.3,-0.1,800,0,,,,,,,,,,,,,,,,,,,
27314,1495386800607,,,,,,,,0.04,0.07,1.01,-3.0,-0.3,-0.1,800,0,,,,,,,,,,,,,,,,,,,
27334,1495386800627,,,,,,,,0.03,0.07,1.01,-3.0,-0.3,-0.2,800,0,,,,,,,,,,,,,,,,,,,
27354,1495386800653,,,,,,,,0.04,0.07,1.0,-3.0,-0.2,-0.1,800,0,,,,,,,,,,,,,,,,,,,
27374,1495386800673,,,,,59,,,0.04,0.07,1.0,-3.0,-0.3,-0.1,780,0,1,1,0.0,0,39.537456,-122.332657,0.0,0.0,377.3,7,2,2.0,0,0.0,-1,0.0,0.0,0.0,0
27394,1495386800693,,,,,,,,0.04,0.08,1.0,-3.0,-0.3,-0.1,800,0,,,,,,,,,,,,,,,,,,,
27414,1495386800713,,,,,,,,0.04,0.07,1.0,-3.0,-0.3,-0.1,800,0,,,,,,,,,,,,,,,,,,,
27434,1495386800733,,,,,,,,0.03,0.07,1.0,-3.0,-0.3,-0.1,800,0,,,,,,,,,,,,,,,,,,,
27454,1495386800753,,,,,,,,0.04,0.07,1.0,-3.0,-0.2,-0.1,800,0,,,,,,,,,,,,,,,,,,,
27474,1495386800773,0,88.8,,94.6,59,91.4,,0.04,0.07,1.0,-3.0,-0.3,-0.1,800,0,1,1,0.0,0,39.537456,-122.332657,0.0,0.0,377.3,7,2,2.0,0,0.0,-1,0.0,0.0,0.0,0
27494,1495386800793,,,,,,,,0.04,0.07,1.0,-3.0,-0.1,-0.1,800,0,,,,,,,,,,,,,,,,,,,
27514,1495386800813,,,,,,,,0.04,0.07,1.0,-3.0,-0.2,-0.2,780,0,,,,,,,,,,,,,,,,,,,
27534,1495386800833,,,,,,,,0.03,0.07,1.0,-3.0,-0.3,-0.2,780,0,,,,,,,,,,,,,,,,,,,
27554,1495386800853,,,,,,,,0.04,0.08,1.0,-3.0,-0.1,-0.1,780,0,,,,,,,,,,,,,,,,,,,
27574,1495386800873,,,,,57,,,0.04,0.08,1.0,-3.1,-0.3,-0.0,780,0,1,1,0.0,0,39.537456,-122.332657,0.0,0.0,377.3,7,2,2.0,0,0.0,-1,0.0,0.0,0.0,0
27594,1495386800893,,,,,,,,0.04,0.08,1.0,-3.0,-0.3,-0.0,800,0,,,,,,,,,,,,,,,,,,,
27614,1495386800913,,,,,,,,0.04,0.07,1.01,-3.0,-0.2,-0.1,800,0,,,,,,,,,,,,,,,,,,,
27634,1495386800933,,,,,,,,0.03,0.07,1.01,-3.0,-0.3,-0.1,800,0,,,,,,,,,,,,,,,,,,,
27654,1495386800955,,,,,,,,0.04,0.07,1.0,-3.1,-0.1,-0.1,800,0,,,,,,,,,,,,,,,,,,,
27674,1495386800975,0,89.0,,94.2,59,91.8,,0.04,0.08,1.01,-3.1,-0.3,-0.1,800,0,1,1,0.0,0,39.537456,-122.332657,0.0,0.0,377.3,7,2,2.0,0,0.0,-1,0.0,0.0,0.0,0
27694,1495386800995,,,,,,,,0.03,0.07,1.0,-3.0,-0.3,-0.1,800,0,,,,,,,,,,,,,,,,,,,
27714,1495386801015,,,,,,,,0.04,0.07,1.0,-3.0,-0.2,-0.1,800,0,,,,,,,,,,,,,,,,,,,
27734,1495386801035,,,,,,,,0.03,0.07,1.01,-3.0,-0.4,-0.2,800,0,,,,,,,,,,,,,,,,,,,
27754,1495386801055,,,,,,,,0.04,0.06,0.99,-3.1,-0.1,-0.1,800,0,,,,,,,,,,,,,,,,,,,
27774,1495386801070,,,,,59,,,0.04,0.07,0.99,-3.0,-0.3,-0.0,800,0,1,1,0.0,0,39.537456,-122.332657,0.0,0.0,377.3,7,2,2.0,0,0.0,-1,0.0,0.0,0.0,0
27794,1495386801090,,,,,,,,0.04,0.06,0.99,-3.1,-0.2,-0.0,800,0,,,,,,,,,,,,,,,,,,,
27814,1495386801110,,,,,,,,0.04,0.07,1.0,-3.0,-0.2,-0.1,800,0,,,,,,,,,,,,,,,,,,,
27834,1495386801130,,,,,,,,0.03,0.06,1.0,-3.0,-0.3,-0.1,800,0,,,,,,,,,,,,,,,,,,,
27854,1495386801150,,,,,,,,0.03,0.07,0.99,-3.0,-0.0,-0.1,800,0,,,,,,,,,,,,,,,,,,,
27874,1495386801170,0,88.5,,94.2,57,91.8,,0.04,0.07,1.0,-3.0,-0.2,-0.1,800,0,1,1,0.0,0,39.537456,-122.332657,0.0,0.0,377.3,7,2,2.0,0,0.0,-1,0.0,0.0,0.0,0
27894,1495386801190,,,,,,,,0.03,0.07,0.99,-3.0,-0.1,-0.0,800,0,,,,,,,,,,,,,,,,,,,
27914,1495386801210,,,,,,,,0.03,0.08,1.0,-3.0,-0.1,-0.1,800,0,,,,,,,,,,,,,,,,,,,
27934,1495386801230,,,,,,,,0.03,0.07,1.0,-3.0,-0.3,-0.1,800,0,,,,,,,,,,,,,,,,,,,
27954,1495386801252,,,,,,,,0.02,0.08,1.01,-3.0,-0.1,-0.1,800,0,,,,,,,,,,,,,,,,,,,
27974,1495386801272,,,,,59,,,0.03,0.07,1.01,-3.0,-0.2,-0.1,800,0,1,1,0.0,0,39.537456,-122.332657,0.0,0.0,377.3,7,2,2.0,0,0.0,-1,0.0,0.0,0.0,0
27994,1495386801292,,,,,,,,0.02,0.07,1.02,-3.0,-0.1,-0.1,800,0,,,,,,,,,,,,,,,,,,,
28014,1495386801312,,,,,,,,0.02,0.07,1.02,-3.0,-0.1,-0.1,800,0,,,,,,,,,,,,,,,,,,,
28034,1495386801332,,,,,,,,0.02,0.07,1.02,-3.0,-0.2,-0.2,800,0,,,,,,,,,,,,,,,,,,,
28054,1495386801352,,,,,,,,0.02,0.06,1.02,-3.0,-0.3,-0.2,800,0,,,,,,,,,,,,,,,,,,,
28074,1495386801370,0,90.5,-0.6,96.2,59,92.3,14.75,0.02,0.06,1.02,-3.0,-0.2,-0.2,800,0,1,1,0.0,0,39.537468,-122.332657,0.0,0.0,356.9,8,2,2.0,0,0.0,-1,0.0,0.0,0.0,0
28094,1495386801390,,,,,,,,0.02,0.07,1.01,-3.0,-0.4,-0.1,800,0,,,,,,,,,,,,,,,,,,,
28114,1495386801410,,,,,,,,0.02,0.07,1.01,-3.0,-0.3,-0.1,800,0,,,,,,,,,,,,,,,,,,,
28134,1495386801430,,,,,,,,0.02,0.07,1.01,-3.0,-0.3,-0.1,800,0,,,,,,,,,,,,,,,,,,,
28154,1495386801452,,,,,,,,0.02,0.06,1.01,-3.0,-0.6,-0.2,800,0,,,,,,,,,,,,,,,,,,,
28174,1495386801472,,,,,59,,,0.02,0.07,1.01,-3.0,-0.3,-0.1,800,0,1,1,0.0,0,39.537468,-122.332657,0.0,0.0,356.9,8,2,2.0,0,0.0,-1,0.0,0.0,0.0,0
28194,1495386801492,,,,,,,,0.03,0.07,1.01,-3.0,-0.6,-0.1,800,0,,,,,,,,,,,,,,,,,,,
28214,1495386801512,,,,,,,,0.03,0.08,1.02,-3.0,-0.6,-0.1,800,0,,,,,,,,,,,,,,,,,,,
28234,1495386801532,,,,,,,,0.03,0.08,1.02,-3.0,-0.6,-0.1,800,0,,,,,,,,,,,,,,,,,,,
28254,1495386801552,,,,,,,,0.03,0.07,1.02,-3.0,-0.7,-0.1,800,0,,,,,,,,,,,,,,,,,,,
28274,1495386801566,0,88.7,,94.4,58,92.3,,0.03,0.08,1.02,-3.0,-0.5,-0.1,800,0,1,1,0.0,0,39.537468,-122.332657,0.0,0.0,356.9,8,2,2.0,0,0.0,-1,0.0,0.0,0.0,0
28294,1495386801586,,,,,,,,0.04,0.07,1.03,-3.0,-0.6,-0.1,800,0,,,,,,,,,,,,,,,,,,,
28314,1495386801606,,,,,,,,0.03,0.08,1.03,-3.0,-0.6,-0.1,800,0,,,,,,,,,,,,,,,,,,,
28334,1495386801626,,,,,,,,0.03,0.08,1.02,-3.0,-0.5,-0.1,800,0,,,,,,,,,,,,,,,,,,,
28354,1495386801652,,,,,,,,0.03,0.07,1.03,-3.0,-0.5,-0.2,800,0,,,,,,,,,,,,,,,,,,,
28374,1495386801672,,,,,60,,,0.03,0.08,1.03,-3.0,-0.5,-0.2,800,0,1,1,0.0,0,39.537468,-122.332657,0.0,0.0,356.9,8,2,2.0,0,0.0,-1,0.0,0.0,0.0,0
28394,1495386801692,,,,,,,,0.03,0.07,1.03,-3.0,-0.3,-0.1,800,0,,,,,,,,,,,,,,,,,,,
28414,1495386801712,,,,,,,,0.03,0.08,1.02,-3.0,-0.5,-0.1,800,0,,,,,,,,,,,,,,,,,,,
28434,1495386801732,,,,,,,,0.03,0.08,1.02,-3.0,-0.4,-0.1,800,0,,,,,,,,,,,,,,,,,,,
28454,1495386801754,,,,,,,,0.03,0.07,1.02,-3.0,-0.4,-0.1,800,0,,,,,,,,,,,,,,,,,,,
28474,1495386801774,0,89.0,,94.8,58,91.2,,0.03,0.07,1.02,-3.0,-0.5,-0.2,800,0,1,1,0.0,0,39.537468,-122.332657,0.0,0.0,356.9,8,2,2.0,0,0.0,-1,0.0,0.0,0.0,0
28494,1495386801794,,,,,,,,0.03,0.06,1.0,-3.0,-0.3,-0.1,800,0,,,,,,,,,,,,,,,,,,,
28514,1495386801814,,,,,,,,0.03,0.07,1.0,-3.0,-0.4,-0.1,800,0,,,,,,,,,,,,,,,,,,,
28534,1495386801834,,,,,,,,0.03,0.06,1.0,-3.0,-0.2,-0.1,800,0,,,,,,,,,,,,,,,,,,,
28554,1495386801852,,,,,,,,0.03,0.06,1.0,-3.0,-0.3,-0.1,800,0,,,,,,,,,,,,,,,,,,,
28574,1495386801872,,,,,59,,,0.03,0.06,1.0,-3.0,-0.4,-0.2,800,0,1,1,0.0,0,39.537468,-122.332657,0.0,0.0,356.9,8,2,2.0,0,0.0,-1,0.0,0.0,0.0,0
28594,1495386801892,,,,,,,,0.03,0.07,1.0,-3.0,-0.1,-0.1,800,0,,,,,,,,,,,,,,,,,,,
28614,1495386801912,,,,,,,,0.03,0.07,1.0,-3.0,-0.3,-0.1,800,0,,,,,,,,,,,,,,,,,,,
28634,1495386801932,,,,,,,,0.03,0.07,1.0,-3.0,-0.2,-0.0,800,0,,,,,,,,,,,,,,,,,,,
28654,1495386801952,,,,,,,,0.03,0.08,1.0,-3.0,-0.2,-0.1,820,0,,,,,,,,,,,,,,,,,,,
28674,1495386801972,0,90.1,,96.2,60,91.5,,0.03,0.07,1.0,-3.0,-0.3,-0.2,800,0,1,1,0.0,0,39.537468,-122.332657,0.0,0.0,356.9,8,2,2.0,0,0.0,-1,0.0,0.0,0.0,0
28694,1495386801992,,,,,,,,0.02,0.07,1.01,-3.0,-0.3,-0.2,800,0,,,,,,,,,,,,,,,,,,,
28714,1495386802012,,,,,,,,0.03,0.07,1.01,-3.0,-0.3,-0.1,800,0,,,,,,,,,,,,,,,,,,,
28734,1495386802032,,,,,,,,0.03,0.08,1.02,-3.0,-0.3,-0.1,800,0,,,,,,,,,,,,,,,,,,,
28754,1495386802051,,,,,,,,0.02,0.07,1.01,-3.0,-0.2,-0.1,800,0,,,,,,,,,,,,,,,,,,,
28774,1495386802071,,,,,59,,,0.02,0.07,1.02,-3.0,-0.3,-0.2,800,0,1,1,0.0,0,39.537468,-122.332657,0.0,0.0,356.9,8,2,2.0,0,0.0,-1,0.0,0.0,0.0,0
28794,1495386802091,,,,,,,,0.02,0.07,1.01,-3.0,-0.5,-0.2,800,0,,,,,,,,,,,,,,,,,,,
28814,1495386802111,,,,,,,,0.02,0.06,1.01,-3.0,-0.4,-0.2,800,0,,,,,,,,,,,,,,,,,,,
28834,1495386802131,,,,,,,,0.03,0.07,1.01,-3.0,-0.6,-0.2,800,0,,,,,,,,,,,,,,,,,,,
28854,1495386802151,,,,,,,,0.02,0.06,1.01,-3.0,-0.4,-0.2,800,0,,,,,,,,,,,,,,,,,,,
28874,1495386802171,0,90.9,,96.6,58,93.3,,0.02,0.06,1.01,-3.0,-0.5,-0.2,800,0,1,1,0.0,0,39.537468,-122.332657,0.0,0.0,356.9,8,2,2.0,0,0.0,-1,0.0,0.0,0.0,0
28894,1495386802195,,,,,,,,0.02,0.06,1.01,-2.9,-0.7,-0.2,800,0,,,,,,,,,,,,,,,,,,,
28914,1495386802215,,,,,,,,0.02,0.06,1.01,-3.0,-0.5,-0.2,800,0,,,,,,,,,,,,,,,,,,,
28934,1495386802235,,,,,,,,0.03,0.07,1.01,-3.0,-0.7,-0.2,800,0,,,,,,,,,,,,,,,,,,,
28954,1495386802255,,,,,,,,0.03,0.07,1.01,-3.0,-0.6,-0.2,800,0,,,,,,,,,,,,,,,,,,,
28974,1495386802275,,,,,58,,,0.03,0.07,1.01,-3.0,-0.6,-0.2,800,0,1,1,0.0,0,39.537468,-122.332657,0.0,0.0,356.9,8,2,2.0,0,0.0,-1,0.0,0.0,0.0,0
28994,1495386802293,,,,,,,,0.03,0.07,1.02,-3.0,-0.7,-0.3,800,0,,,,,,,,,,,,,,,,,,,
29014,1495386802313,,,,,,,,0.03,0.06,1.01,-3.0,-0.5,-0.2,800,0,,,,,,,,,,,,,,,,,,,
29034,1495386802333,,,,,,,,0.03,0.07,1.02,-3.0,-0.6,-0.2,800,0,,,,,,,,,,,,,,,,,,,
29054,1495386802353,,,,,,,,0.03,0.08,1.02,-3.0,-0.6,-0.1,800,0,,,,,,,,,,,,,,,,,,,
29074,1495386802373,0,88.4,-0.7,94.8,59,91.7,14.77,0.03,0.08,1.01,-3.0,-0.5,-0.2,800,0,1,1,0.0,0,39.537468,-122.332657,0.0,0.0,356.9,8,2,2.0,0,0.0,-1,0.0,0.0,0.0,0
29094,1495386802393,,,,,,,,0.03,0.07,1.03,-3.0,-0.6,-0.2,800,0,,,,,,,,,,,,,,,,,,,
29114,1495386802413,,,,,,,,0.03,0.08,1.02,-3.0,-0.5,-0.2,800,0,,,,,,,,,,,,,,,,,,,
29134,1495386802433,,,,,,,,0.03,0.08,1.02,-3.0,-0.5,-0.2,800,0,,,,,,,,,,,,,,,,,,,
29154,1495386802453,,,,,,,,0.03,0.08,1.02,-3.0,-0.6,-0.2,800,0,,,,,,,,,,,,,,,,,,,
29174,1495386802473,,,,,59,,,0.03,0.08,1.02,-3.0,-0.4,-0.2,780,0,1,1,0.0,0,39.537468,-122.332657,0.0,0.0,356.9,8,2,2.0,0,0.0,-1,0.0,0.0,0.0,0
29194,1495386802493,,,,,,,,0.03,0.07,1.02,-3.0,-0.5,-0.2,780,0,,,,,,,,,,,,,,,,,,,
29214,1495386802513,,,,,,,,0.03,0.07,1.02,-3.0,-0.5,-0.2,780,0,,,,,,,,,,,,,,,,,,,
29234,1495386802533,,,,,,,,0.04,0.07,1.02,-3.0,-0.4,-0.2,780,0,,,,,,,,,,,,,,,,,,,
29254,1495386802553,,,,,,,,0.04,0.08,1.02,-3.0,-0.4,-0.1,800,0,,,,,,,,,,,,,,,,,,,
29274,1495386802573,0,90.5,,96.5,58,93.7,,0.04,0.08,1.02,-3.0,-0.3,-0.1,800,0,1,1,0.0,0,39.537468,-122.332657,0.0,0.0,356.9,8,2,2.0,0,0.0,-1,0.0,0.0,0.0,0
29294,1495386802595,,,,,,,,0.04,0.08,1.02,-3.0,-0.5,-0.2,780,0,,,,,,,,,,,,,,,,,,,
29314,1495386802615,,,,,,,,0.03,0.08,1.02,-3.0,-0.4,-0.2,780,0,,,,,,,,,,,,,,,,,,,
29334,1495386802635,,,,,,,,0.04,0.08,1.02,-3.0,-0.3,-0.1,780,0,,,,,,,,,,,,,,,,,,,
29354,1495386802655,,,,,,,,0.04,0.08,1.02,-3.0,-0.3,-0.1,780,0,,,,,,,,,,,,,,,,,,,
29374,1495386802675,,,,,59,,,0.03,0.08,1.02,-3.0,-0.3,-0.2,780,0,1,1,0.0,0,39.537468,-122.332657,0.0,0.0,356.9,8,2,2.0,0,0.0,-1,0.0,0.0,0.0,0
29394,1495386802695,,,,,,,,0.04,0.08,1.02,-3.0,-0.4,-0.3,780,0,,,,,,,,,,,,,,,,,,,
29414,1495386802715,,,,,,,,0.04,0.08,1.02,-3.0,-0.4,-0.2,780,0,,,,,,,,,,,,,,,,,,,
29434,1495386802735,,,,,,,,0.04,0.08,1.02,-3.0,-0.3,-0.1,800,0,,,,,,,,,,,,,,,,,,,
29454,1495386802755,,,,,,,,0.04,0.09,1.02,-3.0,-0.4,-0.1,780,0,,,,,,,,,,,,,,,,,,,
29474,1495386802775,0,89.1,,95.9,56,92.9,,0.04,0.09,1.01,-3.0,-0.3,-0.1,780,0,1,1,0.0,0,39.537468,-122.332657,0.0,0.0,356.9,8,2,2.0,0,0.0,-1,0.0,0.0,0.0,0
29494,1495386802795,,,,,,,,0.04,0.08,1.02,-3.0,-0.4,-0.2,780,0,,,,,,,,,,,,,,,,,,,
29514,1495386802815,,,,,,,,0.03,0.08,1.02,-3.0,-0.3,-0.2,780,0,,,,,,,,,,,,,,,,,,,
29534,1495386802835,,,,,,,,0.04,0.08,1.03,-3.0,-0.4,-0.1,800,0,,,,,,,,,,,,,,,,,,,
29554,1495386802855,,,,,,,,0.04,0.09,1.03,-3.1,-0.4,-0.1,800,0,,,,,,,,,,,,,,,,,,,
29574,1495386802875,,,,,59,,,0.04,0.09,1.02,-3.0,-0.4,-0.2,800,0,1,1,0.0,0,39.537468,-122.332657,0.0,0.0,356.9,8,2,2.0,0,0.0,-1,0.0,0.0,0.0,0
29594,1495386802895,,,,,,,,0.04,0.08,1.02,-3.0,-0.5,-0.2,780,0,,,,,,,,,,,,,,,,,,,
29614,1495386802915,,,,,,,,0.04,0.08,1.02,-3.0,-0.4,-0.1,780,0,,,,,,,,,,,,,,,,,,,
29634,1495386802935,,,,,,,,0.04,0.08,1.02,-3.0,-0.4,-0.1,780,0,,,,,,,,,,,,,,,,,,,
29654,1495386802955,,,,,,,,0.04,0.08,1.03,-3.1,-0.3,-0.0,800,0,,,,,,,,,,,,,,,,,,,
29674,1495386802975,0,90.9,,97.0,58,93.5,,0.04,0.09,1.03,-3.0,-0.3,-0.1,800,0,1,1,0.0,0,39.537468,-122.332657,0.0,0.0,356.9,8,2,2.0,0,0.0,-1,0.0,0.0,0.0,0
29694,1495386802995,,,,,,,,0.04,0.08,1.03,-3.0,-0.4,-0.2,800,0,,,,,,,,,,,,,,,,,,,
29714,1495386803008,,,,,,,,0.04,0.08,1.02,-3.0,-0.4,-0.1,800,0,,,,,,,,,,,,,,,,,,,
29734,1495386803028,,,,,,,,0.04,0.08,1.03,-3.0,-0.4,-0.1,800,0,,,,,,,,,,,,,,,,,,,
29754,1495386803048,,,,,,,,0.04,0.09,1.03,-3.0,-0.4,-0.1,800,0,,,,,,,,,,,,,,,,,,,
29774,1495386803068,,,,,55,,,0.04,0.09,1.02,-3.0,-0.4,-0.1,800,0,1,1,0.0,0,39.537468,-122.332657,0.0,0.0,356.9,8,2,2.0,0,0.0,-1,0.0,0.0,0.0,0
29794,1495386803094,,,,,,,,0.04,0.08,1.03,-3.0,-0.4,-0.2,780,0,,,,,,,,,,,,,,,,,,,
29814,1495386803114,,,,,,,,0.04,0.08,1.02,-3.0,-0.3,-0.1,780,0,,,,,,,,,,,,,,,,,,,
29834,1495386803134,,,,,,,,0.04,0.08,1.03,-3.1,-0.4,-0.1,780,0,,,,,,,,,,,,,,,,,,,
29854,1495386803154,,,,,,,,0.04,0.09,1.04,-3.1,-0.3,-0.1,800,0,,,,,,,,,,,,,,,,,,,
29874,1495386803174,0,89.5,,94.7,59,91.4,,0.04,0.09,1.03,-3.0,-0.3,-0.1,800,0,1,1,0.0,0,39.537468,-122.332657,0.0,0.0,356.9,8,2,2.0,0,0.0,-1,0.0,0.0,0.0,0
29894,1495386803194,,,,,,,,0.04,0.08,1.03,-3.0,-0.4,-0.2,800,0,,,,,,,,,,,,,,,,,,,
29914,1495386803214,,,,,,,,0.04,0.08,1.03,-3.0,-0.4,-0.1,800,0,,,,,,,,,,,,,,,,,,,
29934,1495386803234,,,,,,,,0.04,0.08,1.03,-3.0,-0.3,-0.1,800,0,,,,,,,,,,,,,,,,,,,
29954,1495386803254,,,,,,,,0.04,0.09,1.03,-3.0,-0.3,-0.1,800,0,,,,,,,,,,,,,,,,,,,
29974,1495386803274,,,,,58,,,0.04,0.08,1.03,-3.0,-0.3,-0.1,800,0,1,1,0.0,0,39.537468,-122.332657,0.0,0.0,356.9,8,2,2.0,0,0.0,-1,0.0,0.0,0.0,0
29994,1495386803294,,,,,,,,0.04,0.08,1.04,-3.0,-0.2,-0.1,800,0,,,,,,,,,,,,,,,,,,,
30014,1495386803314,,,,,,,,0.04,0.08,1.03,-3.1,-0.2,-0.1,800,0,,,,,,,,,,,,,,,,,,,
30034,1495386803334,,,,,,,,0.04,0.08,1.03,-3.1,-0.0,-0.1,800,0,,,,,,,,,,,,,,,,,,,
30054,1495386803354,,,,,,,,0.04,0.08,1.03,-3.1,-0.2,-0.1,780,0,,,,,,,,,,,,,,,,,,,
30074,1495386803374,0,90.9,-0.3,96.8,58,93.5,14.74,0.04,0.08,1.02,-3.0,-0.2,-0.1,800,0,1,1,0.0,0,39.537468,-122.332657,0.0,0.0,356.9,8,2,2.0,0,0.0,-1,0.0,0.0,0.0,0
30094,1495386803394,,,,,,,,0.04,0.07,1.03,-3.0,-0.1,-0.2,800,0,,,,,,,,,,,,,,,,,,,
30114,1495386803414,,,,,,,,0.04,0.07,1.02,-3.0,-0.2,-0.2,800,0,,,,,,,,,,,,,,,,,,,
30134,1495386803434,,,,,,,,0.04,0.07,1.01,-3.0,-0.0,-0.2,800,0,,,,,,,,,,,,,,,,,,,
30154,1495386803454,,,,,,,,0.04,0.07,1.01,-3.0,-0.2,-0.1,800,0,,,,,,,,,,,,,,,,,,,
30174,1495386803474,,,,,58,,,0.04,0.07,1.01,-3.0,-0.1,-0.1,800,0,1,1,0.0,0,39.537468,-122.332657,0.0,0.0,356.9,8,2,2.0,0,0.0,-1,0.0,0.0,0.0,0
30194,1495386803494,,,,,,,,0.04,0.07,1.01,-3.0,-0.1,-0.2,800,0,,,,,,,,,,,,,,,,,,,
30214,1495386803514,,,,,,,,0.03,0.07,1.01,-3.0,-0.3,-0.2,800,0,,,,,,,,,,,,,,,,,,,
30234,1495386803534,,,,,,,,0.03,0.07,1.01,-3.0,0.0,-0.1,800,0,,,,,,,,,,,,,,,,,,,
30254,1495386803554,,,,,,,,0.03,0.07,1.01,-3.0,-0.2,-0.1,800,0,,,,,,,,,,,,,,,,,,,
30274,1495386803574,0,90.7,,96.5,59,92.9,,0.03,0.07,1.0,-3.0,-0.2,-0.1,800,0,1,1,0.0,0,39.537468,-122.332657,0.0,0.0,356.9,8,2,2.0,0,0.0,-1,0.0,0.0,0.0,0
30294,1495386803594,,,,,,,,0.03,0.07,1.0,-3.0,-0.1,-0.1,800,0,,,,,,,,,,,,,,,,,,,
30314,1495386803614,,,,,,,,0.03,0.06,1.0,-3.0,-0.2,-0.1,800,0,,,,,,,,,,,,,,,,,,,
30334,1495386803634,,,,,,,,0.03,0.06,0.99,-3.1,-0.0,-0.1,800,0,,,,,,,,,,,,,,,,,,,
30354,1495386803654,,,,,,,,0.03,0.06,1.0,-3.1,-0.1,-0.1,800,0,,,,,,,,,,,,,,,,,,,
30374,1495386803674,,,,,57,,,0.03,0.06,0.99,-3.0,-0.1,-0.1,780,0,1,1,0.0,0,39.537468,-122.332657,0.0,0.0,356.9,8,2,2.0,0,0.0,-1,0.0,0.0,0.0,0
30394,1495386803694,,,,,,,,0.03,0.06,1.0,-3.0,-0.1,-0.1,780,0,,,,,,,,,,,,,,,,,,,
30414,1495386803714,,,,,,,,0.02,0.06,1.0,-3.0,-0.2,-0.1,780,0,,,,,,,,,,,,,,,,,,,
30434,1495386803734,,,,,,,,0.03,0.06,0.99,-3.0,-0.0,-0.0,780,0,,,,,,,,,,,,,,,,,,,
30454,1495386803754,,,,,,,,0.03,0.06,0.99,-3.0,-0.2,-0.0,780,0,,,,,,,,,,,,,,,,,,,
30474,1495386803774,0,90.7,,96.8,57,93.3,,0.03,0.06,1.0,-3.0,-0.1,-0.0,780,0,1,1,0.0,0,39.537468,-122.332657,0.0,0.0,356.9,8,2,2.0,0,0.0,-1,0.0,0.0,0.0,0
30494,1495386803794,,,,,,,,0.03,0.06,1.01,-3.0,-0.1,-0.1,780,0,,,,,,,,,,,,,,,,,,,
30514,1495386803814,,,,,,,,0.02,0.06,1.01,-3.0,-0.2,-0.1,780,0,,,,,,,,,,,,,,,,,,,
30534,1495386803834,,,,,,,,0.02,0.07,1.01,-3.0,0.0,-0.0,780,0,,,,,,,,,,,,,,,,,,,
30554,1495386803854,,,,,,,,0.03,0.07,1.01,-3.0,-0.2,-0.0,780,0,,,,,,,,,,,,,,,,,,,
30574,1495386803874,,,,,58,,,0.02,0.07,1.0,-3.0,-0.2,-0.1,780,0,1,1,0.0,0,39.537468,-122.332657,0.0,0.0,356.9,8,2,2.0,0,0.0,-1,0.0,0.0,0.0,0
30594,1495386803894,,,,,,,,0.03,0.07,1.01,-3.0,-0.2,-0.1,780,0,,,,,,,,,,,,,,,,,,,
30614,1495386803914,,,,,,,,0.03,0.07,1.0,-3.0,-0.2,-0.1,780,0,,,,,,,,,,,,,,,,,,,
30634,1495386803934,,,,,,,,0.03,0.07,1.0,-3.0,-0.1,-0.1,780,0,,,,,,,,,,,,,,,,,,,
30654,1495386803954,,,,,,,,0.03,0.08,1.0,-3.0,-0.2,-0.1,780,0,,,,,,,,,,,,,,,,,,,
30674,1495386803974,0,90.7,,96.5,57,93.3,,0.03,0.08,0.99,-3.0,-0.2,-0.1,780,0,1,1,0.0,0,39.537468,-122.332657,0.0,0.0,356.9,8,2,2.0,0,0.0,-1,0.0,0.0,0.0,0
30694,1495386803994,,,,,,,,0.03,0.07,1.0,-2.9,-0.3,-0.2,780,0,,,,,,,,,,,,,,,,,,,
30714,1495386804009,,,,,,,,0.03,0.07,1.0,-3.0,-0.2,-0.2,780,0,,,,,,,,,,,,,,,,,,,
30734,1495386804029,,,,,,,,0.03,0.07,1.01,-3.0,-0.3,-0.2,800,0,,,,,,,,,,,,,,,,,,,
30754,1495386804049,,,,,,,,0.03,0.08,1.01,-3.0,-0.3,-0.1,800,0,,,,,,,,,,,,,,,,,,,
30774,1495386804069,,,,,59,,,0.03,0.08,1.0,-3.0,-0.3,-0.2,800,0,1,1,0.0,0,39.537468,-122.332657,0.0,0.0,356.9,8,2,2.0,0,0.0,-1,0.0,0.0,0.0,0
30794,1495386804093,,,,,,,,0.03,0.08,1.01,-3.0,-0.4,-0.2,780,0,,,,,,,,,,,,,,,,,,,
30814,1495386804113,,,,,,,,0.03,0.07,1.0,-3.0,-0.3,-0.1,780,0,,,,,,,,,,,,,,,,,,,
30834,1495386804133,,,,,,,,0.04,0.07,1.0,-3.0,-0.4,-0.1,780,0,,,,,,,,,,,,,,,,,,,
30854,1495386804153,,,,,,,,0.03,0.08,1.0,-3.0,-0.4,-0.1,780,0,,,,,,,,,,,,,,,,,,,
30874,1495386804173,0,90.7,,97.2,59,93.9,,0.03,0.07,1.0,-3.0,-0.3,-0.1,780,0,1,1,0.0,0,39.537468,-122.332657,0.0,0.0,356.9,8,2,2.0,0,0.0,-1,0.0,0.0,0.0,0
30894,1495386804191,,,,,,,,0.03,0.07,1.0,-3.0,-0.4,-0.2,780,0,,,,,,,,,,,,,,,,,,,
30914,1495386804211,,,,,,,,0.03,0.07,1.0,-3.0,-0.3,-0.1,780,0,,,,,,,,,,,,,,,,,,,
30934,1495386804231,,,,,,,,0.03,0.07,1.0,-3.0,-0.4,-0.1,780,0,,,,,,,,,,,,,,,,,,,
30954,1495386804251,,,,,,,,0.03,0.07,1.0,-3.0,-0.4,-0.0,780,0,,,,,,,,,,,,,,,,,,,
30974,1495386804271,,,,,60,,,0.03,0.07,1.0,-3.0,-0.4,-0.1,780,0,1,1,0.0,0,39.537468,-122.332657,0.0,0.0,356.9,8,2,2.0,0,0.0,-1,0.0,0.0,0.0,0
30994,1495386804293,,,,,,,,0.02,0.06,1.0,-3.0,-0.5,-0.1,780,0,,,,,,,,,,,,,,,,,,,
31014,1495386804313,,,,,,,,0.03,0.07,1.0,-3.0,-0.4,-0.1,780,0,,,,,,,,,,,,,,,,,,,
31034,1495386804333,,,,,,,,0.03,0.07,0.99,-3.0,-0.5,-0.0,780,0,,,,,,,,,,,,,,,,,,,
31054,1495386804353,,,,,,,,0.03,0.06,0.99,-3.0,-0.5,-0.1,780,0,,,,,,,,,,,,,,,,,,,
31074,1495386804373,0,89.5,-0.6,95.0,60,91.5,14.79,0.03,0.06,1.0,-3.0,-0.6,-0.1,780,0,1,1,0.0,0,39.537468,-122.332657,0.0,0.0,356.9,8,2,2.0,0,0.0,-1,0.0,0.0,0.0,0
31094,1495386804393,,,,,,,,0.03,0.06,1.0,-3.0,-0.6,-0.1,780,0,,,,,,,,,,,,,,,,,,,
31114,1495386804413,,,,,,,,0.03,0.07,0.99,-3.0,-0.5,-0.1,780,0,,,,,,,,,,,,,,,,,,,
31134,1495386804433,,,,,,,,0.03,0.08,1.0,-3.0,-0.6,-0.0,780,0,,,,,,,,,,,,,,,,,,,
31154,1495386804453,,,,,,,,0.03,0.07,1.0,-3.0,-0.6,-0.1,780,0,,,,,,,,,,,,,,,,,,,
31174,1495386804473,,,,,60,,,0.03,0.07,1.0,-3.0,-0.6,-0.1,780,0,1,1,0.0,0,39.537468,-122.332657,0.0,0.0,356.9,8,2,2.0,0,0.0,-1,0.0,0.0,0.0,0
31194,1495386804493,,,,,,,,0.02,0.07,1.0,-3.0,-0.6,-0.2,780,0,,,,,,,,,,,,,,,,,,,
31214,1495386804513,,,,,,,,0.02,0.07,1.01,-3.0,-0.5,-0.1,800,0,,,,,,,,,,,,,,,,,,,
31234,1495386804533,,,,,,,,0.02,0.08,1.01,-3.0,-0.6,-0.1,780,0,,,,,,,,,,,,,,,,,,,
31254,1495386804553,,,,,,,,0.02,0.08,1.01,-3.0,-0.5,-0.2,780,0,,,,,,,,,,,,,,,,,,,
31274,1495386804573,0,90.4,,97.4,60,93.9,,0.02,0.08,1.02,-3.0,-0.6,-0.2,780,0,1,1,0.0,0,39.537468,-122.332657,0.0,0.0,356.9,8,2,2.0,0,0.0,-1,0.0,0.0,0.0,0
31294,1495386804593,,,,,,,,0.02,0.07,1.02,-3.0,-0.6,-0.2,780,0,,,,,,,,,,,,,,,,,,,
31314,1495386804613,,,,,,,,0.02,0.07,1.01,-3.0,-0.5,-0.2,780,0,,,,,,,,,,,,,,,,,,,
31334,1495386804633,,,,,,,,0.02,0.08,1.02,-3.0,-0.5,-0.1,780,0,,,,,,,,,,,,,,,,,,,
31354,1495386804653,,,,,,,,0.02,0.08,1.02,-3.0,-0.4,-0.2,780,0,,,,,,,,,,,,,,,,,,,
31374,1495386804673,,,,,60,,,0.02,0.07,1.02,-3.0,-0.5,-0.3,780,0,1,1,0.0,0,39.537468,-122.332657,0.0,0.0,356.9,8,2,2.0,0,0.0,-1,0.0,0.0,0.0,0
31394,1495386804693,,,,,,,,0.01,0.07,1.02,-3.0,-0.4,-0.3,780,0,,,,,,,,,,,,,,,,,,,
31414,1495386804713,,,,,,,,0.02,0.07,1.02,-3.0,-0.4,-0.2,780,0,,,,,,,,,,,,,,,,,,,
31434,1495386804733,,,,,,,,0.02,0.07,1.01,-3.0,-0.4,-0.2,780,0,,,,,,,,,,,,,,,,,,,
31454,1495386804753,,,,,,,,0.01,0.07,1.02,-3.0,-0.4,-0.2,780,0,,,,,,,,,,,,,,,,,,,
31474,1495386804773,0,89.9,,96.8,60,93.6,,0.02,0.06,1.02,-3.0,-0.5,-0.2,780,0,1,1,0.0,0,39.537468,-122.332657,0.0,0.0,356.9,8,2,2.0,0,0.0,-1,0.0,0.0,0.0,0
31494,1495386804793,,,,,,,,0.02,0.07,1.01,-3.0,-0.3,-0.2,780,0,,,,,,,,,,,,,,,,,,,
31514,1495386804813,,,,,,,,0.02,0.07,1.01,-3.0,-0.4,-0.1,780,0,,,,,,,,,,,,,,,,,,,
31534,1495386804833,,,,,,,,0.02,0.07,1.01,-3.0,-0.3,-0.1,800,0,,,,,,,,,,,,,,,,,,,
31554,1495386804853,,,,,,,,0.02,0.07,1.01,-3.0,-0.2,-0.2,780,0,,,,,,,,,,,,,,,,,,,
31574,1495386804873,,,,,62,,,0.02,0.07,1.01,-3.0,-0.3,-0.2,780,0,1,1,0.0,0,39.537468,-122.332657,0.0,0.0,356.9,8,2,2.0,0,0.0,-1,0.0,0.0,0.0,0
31594,1495386804893,,,,,,,,0.02,0.07,1.01,-3.0,-0.1,-0.2,780,0,,,,,,,,,,,,,,,,,,,
31614,1495386804913,,,,,,,,0.02,0.07,1.01,-3.0,-0.2,-0.1,780,0,,,,,,,,,,,,,,,,,,,
31634,1495386804933,,,,,,,,0.02,0.07,1.01,-3.0,-0.1,-0.1,780,0,,,,,,,,,,,,,,,,,,,
31654,1495386804953,,,,,,,,0.02,0.07,1.01,-3.0,-0.1,-0.2,800,0,,,,,,,,,,,,,,,,,,,
31674,1495386804973,1,90.9,,97.1,60,93.0,,0.02,0.06,1.01,-3.0,-0.2,-0.2,780,0,1,1,0.0,0,39.537468,-122.332657,0.0,0.0,356.9,8,2,2.0,0,0.0,-1,0.0,0.0,0.0,0
31694,1495386804993,,,,,,,,0.02,0.06,1.0,-3.0,-0.1,-0.1,780,0,,,,,,,,,,,,,,,,,,,
31714,1495386805008,,,,,,,,0.02,0.06,1.0,-3.0,-0.2,-0.1,780,0,,,,,,,,,,,,,,,,,,,
31734,1495386805028,,,,,,,,0.02,0.07,1.0,-3.0,-0.1,-0.1,780,0,,,,,,,,,,,,,,,,,,,
31754,1495386805048,,,,,,,,0.02,0.07,1.0,-3.0,-0.1,-0.1,780,0,,,,,,,,,,,,,,,,,,,
31774,1495386805068,,,,,61,,,0.02,0.06,1.0,-3.0,-0.2,-0.2,780,0,1,1,0.0,0,39.537468,-122.332657,0.0,0.0,356.9,8,2,2.0,0,0.0,-1,0.0,0.0,0.0,0
31794,1495386805094,,,,,,,,0.02,0.06,0.99,-3.0,-0.0,-0.1,780,0,,,,,,,,,,,,,,,,,,,
31814,1495386805114,,,,,,,,0.02,0.07,1.0,-3.0,-0.2,-0.1,780,0,,,,,,,,,,,,,,,,,,,
31834,1495386805134,,,,,,,,0.02,0.07,1.0,-3.0,-0.1,-0.1,780,0,,,,,,,,,,,,,,,,,,,
31854,1495386805154,,,,,,,,0.02,0.06,1.0,-3.0,-0.1,-0.1,780,0,,,,,,,,,,,,,,,,,,,
31874,1495386805174,1,88.9,,95.1,59,92.7,,0.02,0.06,1.01,-3.0,-0.3,-0.1,800,0,1,1,0.0,0,39.537468,-122.332657,0.0,0.0,356.9,8,2,2.0,0,0.0,-1,0.0,0.0,0.0,0
31894,1495386805192,,,,,,,,0.02,0.07,1.0,-3.1,-0.1,-0.1,800,0,,,,,,,,,,,,,,,,,,,
31914,1495386805212,,,,,,,,0.03,0.07,1.0,-3.0,-0.2,-0.0,780,0,,,,,,,,,,,,,,,,,,,
31934,1495386805232,,,,,,,,0.02,0.07,1.0,-3.0,-0.2,-0.0,780,0,,,,,,,,,,,,,,,,,,,
31954,1495386805252,,,,,,,,0.03,0.06,1.0,-3.0,-0.1,-0.1,800,0,,,,,,,,,,,,,,,,,,,
31974,1495386805272,,,,,60,,,0.03,0.06,1.0,-3.0,-0.2,-0.1,800,0,1,1,0.0,0,39.537468,-122.332657,0.0,0.0,356.9,8,2,2.0,0,0.0,-1,0.0,0.0,0.0,0
31994,1495386805292,,,,,,,,0.03,0.06,1.0,-3.0,0.0,-0.1,800,0,,,,,,,,,,,,,,,,,,,
32014,1495386805312,,,,,,,,0.03,0.06,1.0,-3.0,-0.2,-0.0,780,0,,,,,,,,,,,,,,,,,,,
32034,1495386805332,,,,,,,,0.03,0.07,1.0,-3.0,-0.1,-0.1,780,0,,,,,,,,,,,,,,,,,,,
32054,1495386805352,,,,,,,,0.03,0.06,1.0,-3.0,-0.1,-0.1,780,0,,,,,,,,,,,,,,,,,,,
32074,1495386805372,0,90.2,-0.4,97.1,61,93.8,14.63,0.03,0.06,1.01,-3.1,-0.2,-0.1,780,0,1,1,0.0,0,39.537468,-122.332657,0.0,0.0,356.9,8,2,2.0,0,0.0,-1,0.0,0.0,0.0,0
32094,1495386805394,,,,,,,,0.03,0.06,0.99,-3.1,-0.1,-0.0,780,0,,,,,,,,,,,,,,,,,,,
32114,1495386805414,,,,,,,,0.03,0.06,0.99,-3.1,-0.2,-0.0,780,0,,,,,,,,,,,,,,,,,,,
32134,1495386805434,,,,,,,,0.03,0.06,0.99,-3.1,-0.2,-0.0,780,0,,,,,,,,,,,,,,,,,,,
32154,1495386805454,,,,,,,,0.03,0.07,1.0,-3.0,-0.2,-0.1,780,0,,,,,,,,,,,,,,,,,,,
32174,1495386805474,,,,,59,,,0.03,0.07,1.0,-3.0,-0.3,-0.1,780,0,1,1,0.0,0,39.537468,-122.332657,0.0,0.0,356.9,8,2,2.0,0,0.0,-1,0.0,0.0,0.0,0
32194,1495386805492,,,,,,,,0.04,0.07,1.0,-3.1,-0.2,-0.0,780,0,,,,,,,,,,,,,,,,,,,
32214,1495386805512,,,,,,,,0.04,0.08,1.0,-3.1,-0.3,0.0,780,0,,,,,,,,,,,,,,,,,,,
32234,1495386805532,,,,,,,,0.03,0.07,0.99,-3.0,-0.3,-0.1,780,0,,,,,,,,,,,,,,,,,,,
32254,1495386805552,,,,,,,,0.04,0.07,1.0,-3.0,-0.4,-0.1,780,0,,,,,,,,,,,,,,,,,,,
32274,1495386805572,0,90.7,,96.8,61,92.0,,0.03,0.08,1.0,-3.0,-0.4,-0.1,780,0,1,1,0.0,0,39.537468,-122.332657,0.0,0.0,356.9,8,2,2.0,0,0.0,-1,0.0,0.0,0.0,0
32294,1495386805592,,,,,,,,0.04,0.08,0.99,-3.0,-0.4,-0.0,780,0,,,,,,,,,,,,,,,,,,,
32314,1495386805612,,,,,,,,0.04,0.08,0.99,-3.0,-0.4,-0.0,780,0,,,,,,,,,,,,,,,,,,,
32334,1495386805632,,,,,,,,0.04,0.07,1.0,-3.0,-0.4,-0.1,780,0,,,,,,,,,,,,,,,,,,,
32354,1495386805652,,,,,,,,0.03,0.07,1.0,-3.0,-0.5,-0.1,760,0,,,,,,,,,,,,,,,,,,,
32374,1495386805672,,,,,60,,,0.03,0.08,1.0,-3.0,-0.4,-0.1,760,0,1,1,0.0,0,39.537468,-122.332657,0.0,0.0,356.9,8,2,2.0,0,0.0,-1,0.0,0.0,0.0,0
32394,1495386805692,,,,,,,,0.03,0.08,1.01,-3.0,-0.5,-0.0,780,0,,,,,,,,,,,,,,,,,,,
32414,1495386805712,,,,,,,,0.03,0.07,1.0,-3.0,-0.5,-0.0,780,0,,,,,,,,,,,,,,,,,,,
32434,1495386805732,,,,,,,,0.03,0.07,1.01,-3.0,-0.5,-0.1,780,0,,,,,,,,,,,,,,,,,,,
32454,1495386805752,,,,,,,,0.03,0.07,1.01,-3.0,-0.6,-0.1,780,0,,,,,,,,,,,,,,,,,,,
32474,1495386805772,0,88.6,,95.6,59,93.3,,0.03,0.08,1.0,-3.0,-0.5,-0.1,780,0,1,1,0.0,0,39.537468,-122.332657,0.0,0.0,356.9,8,2,2.0,0,0.0,-1,0.0,0.0,0.0,0
32494,1495386805792,,,,,,,,0.03,0.08,1.01,-3.0,-0.6,-0.1,780,0,,,,,,,,,,,,,,,,,,,
32514,1495386805812,,,,,,,,0.03,0.08,1.01,-3.0,-0.6,-0.1,780,0,,,,,,,,,,,,,,,,,,,
32534,1495386805832,,,,,,,,0.03,0.07,1.01,-3.0,-0.6,-0.2,780,0,,,,,,,,,,,,,,,,,,,
32554,1495386805852,,,,,,,,0.02,0.08,1.01,-3.0,-0.5,-0.2,780,0,,,,,,,,,,,,,,,,,,,
32574,1495386805872,,,,,61,,,0.03,0.07,1.01,-3.1,-0.5,-0.2,780,0,1,1,0.0,0,39.537468,-122.332657,0.0,0.0,356.9,8,2,2.0,0,0.0,-1,0.0,0.0,0.0,0
32594,1495386805894,,,,,,,,0.02,0.08,1.01,-3.1,-0.5,-0.1,780,0,,,,,,,,,,,,,,,,,,,
32614,1495386805914,,,,,,,,0.02,0.07,1.01,-3.0,-0.4,-0.2,760,0,,,,,,,,,,,,,,,,,,,
32634,1495386805934,,,,,,,,0.02,0.06,1.01,-3.0,-0.6,-0.2,780,0,,,,,,,,,,,,,,,,,,,
32654,1495386805954,,,,,,,,0.02,0.07,1.0,-3.0,-0.3,-0.2,780,0,,,,,,,,,,,,,,,,,,,
32674,1495386805974,0,88.9,,95.1,60,92.3,,0.03,0.07,1.01,-3.1,-0.4,-0.2,780,0,1,1,0.0,0,39.537468,-122.332657,0.0,0.0,356.9,8,2,2.0,0,0.0,-1,0.0,0.0,0.0,0
32694,1495386805994,,,,,,,,0.02,0.07,1.01,-3.0,-0.3,-0.1,780,0,,,,,,,,,,,,,,,,,,,
32714,1495386806007,,,,,,,,0.02,0.06,1.01,-3.0,-0.3,-0.2,780,0,,,,,,,,,,,,,,,,,,,
32734,1495386806027,,,,,,,,0.02,0.06,1.01,-3.0,-0.3,-0.2,780,0,,,,,,,,,,,,,,,,,,,
32754,1495386806047,,,,,,,,0.02,0.06,1.0,-3.0,-0.1,-0.1,780,0,,,,,,,,,,,,,,,,,,,
32774,1495386806067,,,,,60,,,0.03,0.07,1.01,-3.0,-0.2,-0.1,780,0,1,1,0.0,0,39.537468,-122.332657,0.0,0.0,356.9,8,2,2.0,0,0.0,-1,0.0,0.0,0.0,0
32794,1495386806091,,,,,,,,0.03,0.07,1.01,-3.0,-0.2,-0.1,780,0,,,,,,,,,,,,,,,,,,,
32814,1495386806111,,,,,,,,0.03,0.07,1.01,-3.0,-0.1,-0.2,780,0,,,,,,,,,,,,,,,,,,,
32834,1495386806131,,,,,,,,0.03,0.06,1.01,-3.0,-0.2,-0.2,780,0,,,,,,,,,,,,,,,,,,,
32854,1495386806151,,,,,,,,0.03,0.06,1.01,-3.0,-0.1,-0.1,780,0,,,,,,,,,,,,,,,,,,,
32874,1495386806171,0,90.7,,96.9,62,91.7,,0.03,0.07,1.0,-3.0,-0.2,-0.1,780,0,1,1,0.0,0,39.537468,-122.332657,0.0,0.0,356.9,8,2,2.0,0,0.0,-1,0.0,0.0,0.0,0
32894,1495386806193,,,,,,,,0.03,0.07,1.0,-3.0,-0.2,-0.1,780,0,,,,,,,,,,,,,,,,,,,
32914,1495386806213,,,,,,,,0.03,0.07,1.0,-3.0,-0.2,-0.2,780,0,,,,,,,,,,,,,,,,,,,
32934,1495386806233,,,,,,,,0.03,0.07,1.0,-3.0,-0.3,-0.2,780,0,,,,,,,,,,,,,,,,,,,
32954,1495386806253,,,,,,,,0.04,0.07,1.0,-3.0,-0.2,-0.2,780,0,,,,,,,,,,,,,,,,,,,
32974,1495386806273,,,,,59,,,0.03,0.07,1.0,-3.0,-0.2,-0.1,780,0,1,1,0.0,0,39.537468,-122.332657,0.0,0.0,356.9,8,2,2.0,0,0.0,-1,0.0,0.0,0.0,0
32994,1495386806293,,,,,,,,0.03,0.07,1.0,-3.0,-0.2,-0.2,780,0,,,,,,,,,,,,,,,,,,,
33014,1495386806313,,,,,,,,0.03,0.07,1.01,-3.0,-0.4,-0.2,780,0,,,,,,,,,,,,,,,,,,,
33034,1495386806333,,,,,,,,0.03,0.08,1.0,-3.0,-0.3,-0.2,780,0,,,,,,,,,,,,,,,,,,,
33054,1495386806353,,,,,,,,0.04,0.07,0.99,-3.0,-0.4,-0.2,780,0,,,,,,,,,,,,,,,,,,,
33074,1495386806373,0,89.8,-0.5,97.1,60,94.2,14.79,0.03,0.08,0.99,-3.0,-0.4,-0.1,780,0,1,1,0.0,0,39.537468,-122.332657,0.0,0.0,356.9,8,2,2.0,0,0.0,-1,0.0,0.0,0.0,0
33094,1495386806391,,,,,,,,0.03,0.07,1.0,-3.0,-0.3,-0.2,780,0,,,,,,,,,,,,,,,,,,,
33114,1495386806411,,,,,,,,0.03,0.06,1.0,-3.0,-0.5,-0.2,780,0,,,,,,,,,,,,,,,,,,,
33134,1495386806431,,,,,,,,0.03,0.07,1.0,-3.0,-0.4,-0.1,780,0,,,,,,,,,,,,,,,,,,,
33154,1495386806451,,,,,,,,0.03,0.07,1.0,-3.0,-0.5,-0.1,780,0,,,,,,,,,,,,,,,,,,,
33174,1495386806471,,,,,60,,,0.03,0.07,1.0,-3.0,-0.5,-0.1,780,0,1,1,0.0,0,39.537468,-122.332657,0.0,0.0,356.9,8,2,2.0,0,0.0,-1,0.0,0.0,0.0,0
33194,1495386806491,,,,,,,,0.03,0.07,1.0,-3.0,-0.5,-0.2,780,0,,,,,,,,,,,,,,,,,,,
33214,1495386806511,,,,,,,,0.03,0.06,1.0,-3.0,-0.6,-0.2,780,0,,,,,,,,,,,,,,,,,,,
33234,1495386806531,,,,,,,,0.03,0.07,1.0,-3.0,-0.5,-0.2,780,0,,,,,,,,,,,,,,,,,,,
33254,1495386806551,,,,,,,,0.03,0.07,1.0,-3.0,-0.6,-0.1,780,0,,,,,,,,,,,,,,,,,,,
33274,1495386806571,0,89.8,,97.1,60,93.9,,0.03,0.07,1.0,-3.0,-0.5,-0.2,780,0,1,1,0.0,0,39.537468,-122.332657,0.0,0.0,356.9,8,2,2.0,0,0.0,-1,0.0,0.0,0.0,0
33294,1495386806591,,,,,,,,0.03,0.07,1.0,-3.0,-0.6,-0.2,780,0,,,,,,,,,,,,,,,,,,,
33314,1495386806611,,,,,,,,0.03,0.07,1.01,-3.0,-0.5,-0.2,780,0,,,,,,,,,,,,,,,,,,,
33334,1495386806631,,,,,,,,0.03,0.07,1.01,-3.0,-0.4,-0.1,780,0,,,,,,,,,,,,,,,,,,,
33354,1495386806651,,,,,,,,0.03,0.07,1.01,-3.0,-0.4,-0.0,780,0,,,,,,,,,,,,,,,,,,,
33374,1495386806671,,,,,61,,,0.03,0.07,1.01,-3.0,-0.4,-0.1,780,0,1,1,0.0,0,39.537468,-122.332657,0.0,0.0,356.9,8,2,2.0,0,0.0,-1,0.0,0.0,0.0,0
33394,1495386806691,,,,,,,,0.02,0.07,1.02,-3.0,-0.5,-0.1,780,0,,,,,,,,,,,,,,,,,,,
33414,1495386806711,,,,,,,,0.02,0.07,1.01,-3.0,-0.2,-0.1,780,0,,,,,,,,,,,,,,,,,,,
33434,1495386806731,,,,,,,,0.03,0.07,1.01,-3.0,-0.3,-0.1,780,0,,,,,,,,,,,,,,,,,,,
33454,1495386806751,,,,,,,,0.03,0.07,1.01,-3.0,-0.3,-0.1,780,0,,,,,,,,,,,,,,,,,,,
33474,1495386806771,0,90.6,,97.6,59,93.7,,0.03,0.06,1.01,-3.0,-0.2,-0.1,780,0,1,1,0.0,0,39.537468,-122.332657,0.0,0.0,356.9,8,2,2.0,0,0.0,-1,0.0,0.0,0.0,0
33494,1495386806791,,,,,,,,0.03,0.06,1.01,-3.0,-0.2,-0.2,780,0,,,,,,,,,,,,,,,,,,,
33514,1495386806811,,,,,,,,0.03,0.07,1.01,-3.0,-0.1,-0.1,780,0,,,,,,,,,,,,,,,,,,,
33534,1495386806831,,,,,,,,0.03,0.07,1.01,-3.0,-0.2,-0.1,780,0,,,,,,,,,,,,,,,,,,,
33554,1495386806851,,,,,,,,0.03,0.08,1.01,-3.0,-0.2,-0.1,780,0,,,,,,,,,,,,,,,,,,,
33574,1495386806871,,,,,60,,,0.03,0.07,1.0,-3.0,-0.2,-0.1,780,0,1,1,0.0,0,39.537468,-122.332657,0.0,0.0,356.9,8,2,2.0,0,0.0,-1,0.0,0.0,0.0,0
33594,1495386806891,,,,,,,,0.03,0.07,1.0,-3.0,-0.2,-0.1,780,0,,,,,,,,,,,,,,,,,,,
33614,1495386806911,,,,,,,,0.04,0.07,1.0,-3.1,-0.2,-0.1,780,0,,,,,,,,,,,,,,,,,,,
33634,1495386806931,,,,,,,,0.04,0.08,1.01,-3.1,-0.2,-0.1,780,0,,,,,,,,,,,,,,,,,,,
33654,1495386806951,,,,,,,,0.03,0.08,1.0,-3.0,-0.3,-0.1,780,0,,,,,,,,,,,,,,,,,,,
33674,1495386806971,0,88.6,,96.2,61,93.6,,0.03,0.08,1.01,-3.0,-0.4,-0.1,780,0,1,1,0.0,0,39.537468,-122.332657,0.0,0.0,356.9,8,2,2.0,0,0.0,-1,0.0,0.0,0.0,0
33694,1495386806991,,,,,,,,0.03,0.07,1.01,-3.1,-0.3,-0.1,780,0,,,,,,,,,,,,,,,,,,,
33714,1495386807006,,,,,,,,0.03,0.07,1.0,-3.1,-0.4,-0.1,780,0,,,,,,,,,,,,,,,,,,,
33734,1495386807026,,,,,,,,0.03,0.08,1.01,-3.1,-0.4,-0.1,780,0,,,,,,,,,,,,,,,,,,,
33754,1495386807046,,,,,,,,0.03,0.08,1.01,-3.0,-0.4,-0.1,780,0,,,,,,,,,,,,,,,,,,,
33774,1495386807066,,,,,60,,,0.03,0.08,1.01,-3.0,-0.6,-0.2,800,0,1,1,0.0,0,39.537468,-122.332657,0.0,0.0,356.9,8,2,2.0,0,0.0,-1,0.0,0.0,0.0,0
33794,1495386807086,,,,,,,,0.03,0.08,1.0,-3.0,-0.5,-0.1,800,0,,,,,,,,,,,,,,,,,,,
33814,1495386807106,,,,,,,,0.04,0.08,1.0,-3.0,-0.6,-0.1,800,0,,,,,,,,,,,,,,,,,,,
33834,1495386807126,,,,,,,,0.04,0.08,1.0,-3.0,-0.6,-0.1,800,0,,,,,,,,,,,,,,,,,,,
33854,1495386807146,,,,,,,,0.03,0.08,1.0,-3.0,-0.5,-0.1,780,0,,,,,,,,,,,,,,,,,,,
33874,1495386807166,0,90.6,,97.3,62,92.0,,0.04,0.08,1.01,-3.0,-0.7,-0.1,780,0,1,1,0.0,0,39.537468,-122.332657,0.0,0.0,356.9,8,2,2.0,0,0.0,-1,0.0,0.0,0.0,0
33894,1495386807192,,,,,,,,0.03,0.08,1.01,-3.0,-0.5,-0.1,780,0,,,,,,,,,,,,,,,,,,,
33914,1495386807212,,,,,,,,0.04,0.08,1.0,-3.0,-0.7,-0.1,780,0,,,,,,,,,,,,,,,,,,,
33934,1495386807232,,,,,,,,0.03,0.08,1.01,-3.0,-0.7,-0.1,780,0,,,,,,,,,,,,,,,,,,,
33954,1495386807252,,,,,,,,0.03,0.08,1.0,-3.0,-0.7,-0.1,780,0,,,,,,,,,,,,,,,,,,,
33974,1495386807272,,,,,60,,,0.03,0.07,1.0,-3.0,-0.8,-0.1,780,0,1,1,0.0,0,39.537468,-122.332657,0.0,0.0,356.9,8,2,2.0,0,0.0,-1,0.0,0.0,0.0,0
33994,1495386807292,,,,,,,,0.03,0.08,1.0,-3.0,-0.6,-0.1,780,0,,,,,,,,,,,,,,,,,,,
34014,1495386807312,,,,,,,,0.03,0.08,1.0,-3.0,-0.8,-0.0,780,0,,,,,,,,,,,,,,,,,,,
34034,1495386807332,,,,,,,,0.03,0.08,1.0,-3.0,-0.7,-0.1,780,0,,,,,,,,,,,,,,,,,,,
34054,1495386807352,,,,,,,,0.03,0.07,1.01,-3.0,-0.7,-0.1,780,0,,,,,,,,,,,,,,,,,,,
34074,1495386807372,0,88.7,-0.5,96.2,59,93.7,14.66,0.03,0.07,1.01,-3.0,-0.7,-0.1,780,0,1,1,0.0,0,39.537468,-122.332657,0.0,0.0,356.9,8,2,2.0,0,0.0,-1,0.0,0.0,0.0,0
34094,1495386807392,,,,,,,,0.03,0.07,1.01,-3.0,-0.6,-0.1,780,0,,,,,,,,,,,,,,,,,,,
34114,1495386807412,,,,,,,,0.03,0.08,1.01,-3.0,-0.6,-0.1,780,0,,,,,,,,,,,,,,,,,,,
34134,1495386807432,,,,,,,,0.03,0.08,1.01,-3.0,-0.5,-0.1,780,0,,,,,,,,,,,,,,,,,,,
34154,1495386807452,,,,,,,,0.03,0.08,1.01,-2.9,-0.5,-0.2,780,0,,,,,,,,,,,,,,,,,,,
34174,1495386807472,,,,,60,,,0.02,0.08,1.02,-3.0,-0.4,-0.1,780,0,1,1,0.0,0,39.537468,-122.332657,0.0,0.0,356.9,8,2,2.0,0,0.0,-1,0.0,0.0,0.0,0
34194,1495386807492,,,,,,,,0.03,0.07,1.02,-3.0,-0.4,-0.1,760,0,,,,,,,,,,,,,,,,,,,
34214,1495386807512,,,,,,,,0.03,0.08,1.02,-3.0,-0.4,-0.1,760,0,,,,,,,,,,,,,,,,,,,
34234,1495386807532,,,,,,,,0.02,0.07,1.02,-3.0,-0.3,-0.2,780,0,,,,,,,,,,,,,,,,,,,
34254,1495386807552,,,,,,,,0.02,0.07,1.02,-3.0,-0.4,-0.2,780,0,,,,,,,,,,,,,,,,,,,
34274,1495386807572,0,89.8,,97.3,59,94.1,,0.03,0.08,1.02,-3.0,-0.2,-0.1,780,0,1,1,0.0,0,39.537468,-122.332657,0.0,0.0,356.9,8,2,2.0,0,0.0,-1,0.0,0.0,0.0,0
34294,1495386807592,,,,,,,,0.03,0.08,1.02,-3.0,-0.3,-0.0,780,0,,,,,,,,,,,,,,,,,,,
34314,1495386807612,,,,,,,,0.03,0.09,1.02,-3.0,-0.4,-0.1,780,0,,,,,,,,,,,,,,,,,,,
34334,1495386807632,,,,,,,,0.03,0.08,1.02,-3.0,-0.3,-0.1,780,0,,,,,,,,,,,,,,,,,,,
34354,1495386807652,,,,,,,,0.03,0.08,1.01,-3.0,-0.3,-0.1,780,0,,,,,,,,,,,,,,,,,,,
34374,1495386807672,,,,,60,,,0.04,0.08,1.01,-3.0,-0.3,-0.0,780,0,1,1,0.0,0,39.537468,-122.332657,0.0,0.0,356.9,8,2,2.0,0,0.0,-1,0.0,0.0,0.0,0
34394,1495386807692,,,,,,,,0.04,0.09,1.02,-3.1,-0.3,-0.0,780,0,,,,,,,,,,,,,,,,,,,
34414,1495386807712,,,,,,,,0.04,0.09,1.02,-3.0,-0.3,-0.1,780,0,,,,,,,,,,,,,,,,,,,
34434,1495386807732,,,,,,,,0.04,0.08,1.01,-3.0,-0.5,-0.1,780,0,,,,,,,,,,,,,,,,,,,
34454,1495386807752,,,,,,,,0.03,0.08,1.01,-3.0,-0.4,-0.1,780,0,,,,,,,,,,,,,,,,,,,
34474,1495386807772,0,89.5,,96.9,59,94.1,,0.04,0.08,1.01,-3.0,-0.6,-0.1,780,0,1,1,0.0,0,39.537468,-122.332657,0.0,0.0,356.9,8,2,2.0,0,0.0,-1,0.0,0.0,0.0,0
34494,1495386807792,,,,,,,,0.04,0.08,1.01,-3.0,-0.5,-0.1,780,0,,,,,,,,,,,,,,,,,,,
34514,1495386807812,,,,,,,,0.03,0.08,1.01,-3.0,-0.5,-0.1,780,0,,,,,,,,,,,,,,,,,,,
34534,1495386807832,,,,,,,,0.03,0.07,1.01,-3.0,-0.6,-0.1,780,0,,,,,,,,,,,,,,,,,,,
34554,1495386807852,,,,,,,,0.03,0.07,1.01,-3.0,-0.5,-0.1,780,0,,,,,,,,,,,,,,,,,,,
34574,1495386807872,,,,,60,,,0.03,0.08,1.01,-3.0,-0.6,-0.1,780,0,1,1,0.0,0,39.537468,-122.332657,0.0,0.0,356.9,8,2,2.0,0,0.0,-1,0.0,0.0,0.0,0
34594,1495386807892,,,,,,,,0.03,0.07,1.01,-3.0,-0.5,-0.1,780,0,,,,,,,,,,,,,,,,,,,
34614,1495386807912,,,,,,,,0.03,0.07,1.02,-3.0,-0.5,-0.2,780,0,,,,,,,,,,,,,,,,,,,
34634,1495386807932,,,,,,,,0.02,0.07,1.02,-3.0,-0.6,-0.2,780,0,,,,,,,,,,,,,,,,,,,
34654,1495386807952,,,,,,,,0.03,0.07,1.02,-3.0,-0.4,-0.1,780,0,,,,,,,,,,,,,,,,,,,
34674,1495386807972,0,90.0,,97.5,59,94.1,,0.03,0.07,1.02,-3.0,-0.4,-0.1,780,0,1,1,0.0,0,39.537468,-122.332657,0.0,0.0,356.9,8,2,2.0,0,0.0,-1,0.0,0.0,0.0,0
34694,1495386807992,,,,,,,,0.02,0.08,1.03,-3.0,-0.4,-0.2,780,0,,,,,,,,,,,,,,,,,,,
34714,1495386808005,,,,,,,,0.02,0.08,1.02,-3.0,-0.4,-0.2,780,0,,,,,,,,,,,,,,,,,,,
34734,1495386808025,,,,,,,,0.02,0.07,1.02,-3.0,-0.3,-0.2,780,0,,,,,,,,,,,,,,,,,,,
34754,1495386808045,,,,,,,,0.03,0.07,1.02,-3.0,-0.3,-0.1,780,0,,,,,,,,,,,,,,,,,,,
34774,1495386808065,,,,,60,,,0.03,0.07,1.02,-3.0,-0.3,-0.0,780,0,1,1,0.0,0,39.537468,-122.332657,0.0,0.0,356.9,8,2,2.0,0,0.0,-1,0.0,0.0,0.0,0
34794,1495386808091,,,,,,,,0.03,0.07,1.03,-3.0,-0.3,-0.1,780,0,,,,,,,,,,,,,,,,,,,
34814,1495386808111,,,,,,,,0.03,0.07,1.03,-3.0,-0.4,-0.1,780,0,,,,,,,,,,,,,,,,,,,
34834,1495386808131,,,,,,,,0.03,0.07,1.02,-3.0,-0.1,-0.0,780,0,,,,,,,,,,,,,,,,,,,
34854,1495386808151,,,,,,,,0.03,0.07,1.02,-3.0,-0.3,0.0,780,0,,,,,,,,,,,,,,,,,,,
34874,1495386808171,0,88.6,,95.6,60,93.0,,0.03,0.07,1.02,-3.0,-0.2,-0.0,780,0,1,1,0.0,0,39.537468,-122.332657,0.0,0.0,356.9,8,2,2.0,0,0.0,-1,0.0,0.0,0.0,0
34894,1495386808191,,,,,,,,0.03,0.06,1.02,-3.0,-0.1,-0.1,780,0,,,,,,,,,,,,,,,,,,,
34914,1495386808211,,,,,,,,0.02,0.06,1.02,-3.0,-0.3,-0.1,780,0,,,,,,,,,,,,,,,,,,,
34934,1495386808231,,,,,,,,0.03,0.07,1.01,-3.0,-0.0,-0.1,780,0,,,,,,,,,,,,,,,,,,,
34954,1495386808251,,,,,,,,0.03,0.07,1.01,-3.0,-0.2,-0.0,780,0,,,,,,,,,,,,,,,,,,,
34974,1495386808271,,,,,59,,,0.03,0.07,1.0,-3.0,-0.2,-0.1,780,0,1,1,0.0,0,39.537468,-122.332657,0.0,0.0,356.9,8,2,2.0,0,0.0,-1,0.0,0.0,0.0,0
34994,1495386808293,,,,,,,,0.03,0.07,1.01,-3.0,-0.2,-0.2,780,0,,,,,,,,,,,,,,,,,,,
35014,1495386808313,,,,,,,,0.03,0.07,1.01,-3.0,-0.2,-0.1,780,0,,,,,,,,,,,,,,,,,,,
35034,1495386808333,,,,,,,,0.04,0.07,1.0,-3.0,-0.1,-0.1,780,0,,,,,,,,,,,,,,,,,,,
35054,1495386808353,,,,,,,,0.03,0.07,1.0,-3.0,-0.2,-0.0,780,0,,,,,,,,,,,,,,,,,,,
35074,1495386808373,0,90.8,-0.3,98.0,60,93.5,14.79,0.03,0.07,1.0,-3.0,-0.2,-0.1,780,0,1,1,0.0,0,39.537468,-122.332657,0.0,0.0,356.9,8,2,2.0,0,0.0,-1,0.0,0.0,0.0,0
35094,1495386808391,,,,,,,,0.03,0.07,1.0,-3.0,-0.4,-0.2,780,0,,,,,,,,,,,,,,,,,,,
35114,1495386808411,,,,,,,,0.03,0.07,1.0,-3.0,-0.3,-0.1,780,0,,,,,,,,,,,,,,,,,,,
35134,1495386808431,,,,,,,,0.03,0.07,1.0,-3.0,-0.5,-0.1,780,0,,,,,,,,,,,,,,,,,,,
35154,1495386808451,,,,,,,,0.03,0.07,1.01,-3.0,-0.5,-0.1,780,0,,,,,,,,,,,,,,,,,,,
35174,1495386808471,,,,,60,,,0.03,0.07,1.0,-3.0,-0.6,-0.1,780,0,1,1,0.0,0,39.537468,-122.332657,0.0,0.0,356.9,8,2,2.0,0,0.0,-1,0.0,0.0,0.0,0
35194,1495386808493,,,,,,,,0.03,0.07,1.0,-3.0,-0.7,-0.2,780,0,,,,,,,,,,,,,,,,,,,
35214,1495386808513,,,,,,,,0.03,0.07,1.0,-3.0,-0.5,-0.1,780,0,,,,,,,,,,,,,,,,,,,
35234,1495386808533,,,,,,,,0.03,0.08,1.01,-3.0,-0.6,-0.0,780,0,,,,,,,,,,,,,,,,,,,
35254,1495386808553,,,,,,,,0.03,0.07,1.0,-3.0,-0.6,-0.1,780,0,,,,,,,,,,,,,,,,,,,
35274,1495386808573,0,90.7,,98.0,61,94.0,,0.03,0.07,1.0,-3.0,-0.6,-0.1,780,0,1,1,0.0,0,39.537468,-122.332657,0.0,0.0,356.9,8,2,2.0,0,0.0,-1,0.0,0.0,0.0,0
35294,1495386808593,,,,,,,,0.02,0.07,1.01,-3.0,-0.5,-0.1,780,0,,,,,,,,,,,,,,,,,,,
35314,1495386808613,,,,,,,,0.03,0.07,1.02,-3.0,-0.5,-0.1,780,0,,,,,,,,,,,,,,,,,,,
35334,1495386808633,,,,,,,,0.03,0.07,1.01,-3.0,-0.5,-0.1,780,0,,,,,,,,,,,,,,,,,,,
35354,1495386808653,,,,,,,,0.03,0.07,1.01,-3.0,-0.4,-0.1,760,0,,,,,,,,,,,,,,,,,,,
35374,1495386808673,,,,,58,,,0.03,0.07,1.01,-3.0,-0.4,-0.1,760,0,1,1,0.0,0,39.537468,-122.332657,0.0,0.0,356.9,8,2,2.0,0,0.0,-1,0.0,0.0,0.0,0
35394,1495386808693,,,,,,,,0.03,0.07,1.0,-3.0,-0.3,-0.1,760,0,,,,,,,,,,,,,,,,,,,
35414,1495386808713,,,,,,,,0.03,0.07,1.0,-3.0,-0.3,-0.0,760,0,,,,,,,,,,,,,,,,,,,
35434,1495386808733,,,,,,,,0.03,0.08,1.0,-3.0,-0.4,-0.1,760,0,,,,,,,,,,,,,,,,,,,
35454,1495386808753,,,,,,,,0.03,0.07,1.01,-3.0,-0.3,-0.1,760,0,,,,,,,,,,,,,,,,,,,
35474,1495386808773,0,90.4,,97.4,59,92.3,,0.03,0.07,1.0,-3.0,-0.4,-0.1,760,0,1,1,0.0,0,39.537468,-122.332657,0.0,0.0,356.9,8,2,2.0,0,0.0,-1,0.0,0.0,0.0,0
35494,1495386808793,,,,,,,,0.04,0.07,1.0,-3.0,-0.3,-0.1,780,0,,,,,,,,,,,,,,,,,,,
35514,1495386808813,,,,,,,,0.03,0.08,0.99,-3.0,-0.4,-0.0,760,0,,,,,,,,,,,,,,,,,,,
35534,1495386808833,,,,,,,,0.03,0.07,0.99,-3.0,-0.3,-0.1,760,0,,,,,,,,,,,,,,,,,,,
35554,1495386808853,,,,,,,,0.03,0.07,0.99,-3.0,-0.5,-0.1,760,0,,,,,,,,,,,,,,,,,,,
35574,1495386808873,,,,,59,,,0.03,0.07,0.99,-3.0,-0.5,-0.1,760,0,1,1,0.0,0,39.537468,-122.332657,0.0,0.0,356.9,8,2,2.0,0,0.0,-1,0.0,0.0,0.0,0
35594,1495386808893,,,,,,,,0.03,0.07,1.0,-3.0,-0.4,-0.1,760,0,,,,,,,,,,,,,,,,,,,
35614,1495386808913,,,,,,,,0.03,0.07,0.99,-3.0,-0.4,-0.1,760,0,,,,,,,,,,,,,,,,,,,
35634,1495386808933,,,,,,,,0.03,0.07,1.0,-3.0,-0.4,-0.2,760,0,,,,,,,,,,,,,,,,,,,
35654,1495386808953,,,,,,,,0.03,0.07,0.99,-3.0,-0.4,-0.1,760,0,,,,,,,,,,,,,,,,,,,
35674,1495386808973,0,90.4,,96.5,56,92.1,,0.03,0.07,0.99,-3.0,-0.3,-0.1,760,0,1,1,0.0,0,39.537468,-122.332657,0.0,0.0,356.9,8,2,2.0,0,0.0,-1,0.0,0.0,0.0,0
35694,1495386808993,,,,,,,,0.03,0.07,0.99,-3.0,-0.3,-0.0,760,0,,,,,,,,,,,,,,,,,,,
35714,1495386809004,,,,,,,,0.03,0.07,0.99,-3.0,-0.4,-0.1,760,0,,,,,,,,,,,,,,,,,,,
35734,1495386809024,,,,,,,,0.03,0.07,1.0,-3.0,-0.4,-0.1,760,0,,,,,,,,,,,,,,,,,,,
35754,1495386809044,,,,,,,,0.03,0.07,1.0,-3.0,-0.4,-0.1,760,0,,,,,,,,,,,,,,,,,,,
35774,1495386809064,,,,,59,,,0.03,0.08,1.0,-3.0,-0.4,-0.0,760,0,1,1,0.0,0,39.537468,-122.332657,0.0,0.0,356.9,8,2,2.0,0,0.0,-1,0.0,0.0,0.0,0
35794,1495386809092,,,,,,,,0.03,0.07,1.0,-3.0,-0.4,-0.1,780,0,,,,,,,,,,,,,,,,,,,
35814,1495386809112,,,,,,,,0.03,0.07,1.0,-2.9,-0.5,-0.1,780,0,,,,,,,,,,,,,,,,,,,
35834,1495386809132,,,,,,,,0.03,0.07,1.0,-3.0,-0.5,-0.1,780,0,,,,,,,,,,,,,,,,,,,
35854,1495386809152,,,,,,,,0.03,0.07,0.99,-3.0,-0.6,-0.0,780,0,,,,,,,,,,,,,,,,,,,
35874,1495386809172,0,90.9,,98.0,58,93.7,,0.03,0.07,1.0,-3.0,-0.6,-0.0,780,0,1,1,0.0,0,39.537468,-122.332657,0.0,0.0,356.9,8,2,2.0,0,0.0,-1,0.0,0.0,0.0,0
35894,1495386809192,,,,,,,,0.03,0.07,1.0,-3.0,-0.5,-0.1,780,0,,,,,,,,,,,,,,,,,,,
35914,1495386809212,,,,,,,,0.03,0.06,1.0,-2.9,-0.7,-0.2,780,0,,,,,,,,,,,,,,,,,,,
35934,1495386809232,,,,,,,,0.03,0.06,1.0,-2.9,-0.5,-0.1,800,0,,,,,,,,,,,,,,,,,,,
35954,1495386809252,,,,,,,,0.03,0.06,1.0,-3.0,-0.6,-0.1,800,0,,,,,,,,,,,,,,,,,,,
35974,1495386809272,,,,,59,,,0.02,0.06,0.99,-3.0,-0.5,-0.1,800,0,1,1,0.0,0,39.537468,-122.332657,0.0,0.0,356.9,8,2,2.0,0,0.0,-1,0.0,0.0,0.0,0
35994,1495386809292,,,,,,,,0.02,0.05,1.0,-3.0,-0.5,-0.2,800,0,,,,,,,,,,,,,,,,,,,
36014,1495386809312,,,,,,,,0.02,0.05,0.99,-3.0,-0.6,-0.2,800,0,,,,,,,,,,,,,,,,,,,
36034,1495386809332,,,,,,,,0.02,0.05,0.98,-3.0,-0.5,-0.1,800,0,,,,,,,,,,,,,,,,,,,
36054,1495386809352,,,,,,,,0.03,0.06,0.97,-3.0,-0.8,-0.1,800,0,,,,,,,,,,,,,,,,,,,
36074,1495386809372,0,90.4,-0.5,96.5,61,92.0,14.8,0.03,0.06,0.97,-3.0,-0.6,-0.1,800,0,1,1,0.0,0,39.537468,-122.332657,0.0,0.0,356.9,8,2,2.0,0,0.0,-1,0.0,0.0,0.0,0
36094,1495386809392,,,,,,,,0.03,0.05,0.96,-3.0,-0.7,-0.1,800,0,,,,,,,,,,,,,,,,,,,
36114,1495386809412,,,,,,,,0.03,0.06,0.97,-3.0,-0.9,-0.1,800,0,,,,,,,,,,,,,,,,,,,
36134,1495386809432,,,,,,,,0.03,0.06,0.97,-3.0,-0.7,-0.1,800,0,,,,,,,,,,,,,,,,,,,
36154,1495386809452,,,,,,,,0.04,0.06,0.98,-3.0,-0.7,-0.1,820,0,,,,,,,,,,,,,,,,,,,
36174,1495386809472,,,,,61,,,0.04,0.07,0.98,-3.0,-0.6,-0.1,820,0,1,1,0.0,0,39.537468,-122.332657,0.0,0.0,356.9,8,2,2.0,0,0.0,-1,0.0,0.0,0.0,0
36194,1495386809492,,,,,,,,0.04,0.06,0.97,-3.0,-0.6,-0.0,820,0,,,,,,,,,,,,,,,,,,,
36214,1495386809512,,,,,,,,0.03,0.05,0.99,-3.0,-0.4,-0.1,820,0,,,,,,,,,,,,,,,,,,,
36234,1495386809532,,,,,,,,0.03,0.05,0.99,-3.0,-0.4,-0.1,840,0,,,,,,,,,,,,,,,,,,,
36254,1495386809552,,,,,,,,0.03,0.05,1.0,-3.0,-0.2,-0.1,840,0,,,,,,,,,,,,,,,,,,,
36274,1495386809572,0,89.3,,97.4,61,94.0,,0.04,0.06,1.0,-3.0,-0.4,-0.1,840,0,1,1,0.0,0,39.537468,-122.332657,0.0,0.0,356.9,8,2,2.0,0,0.0,-1,0.0,0.0,0.0,0
36294,1495386809592,,,,,,,,0.03,0.06,1.02,-3.1,-0.4,-0.0,840,0,,,,,,,,,,,,,,,,,,,
36314,1495386809612,,,,,,,,0.03,0.06,1.02,-3.1,-0.3,0.0,840,0,,,,,,,,,,,,,,,,,,,
36334,1495386809632,,,,,,,,0.03,0.07,1.01,-3.1,-0.4,0.0,840,0,,,,,,,,,,,,,,,,,,,
36354,1495386809652,,,,,,,,0.03,0.07,1.0,-3.0,-0.5,-0.0,860,0,,,,,,,,,,,,,,,,,,,
36374,1495386809672,,,,,64,,,0.03,0.07,1.0,-3.0,-0.5,-0.1,860,0,1,1,0.0,0,39.537468,-122.332657,0.0,0.0,356.9,8,2,2.0,0,0.0,-1,0.0,0.0,0.0,0
36394,1495386809692,,,,,,,,0.03,0.07,1.0,-3.0,-0.2,-0.2,860,0,,,,,,,,,,,,,,,,,,,
36414,1495386809712,,,,,,,,0.04,0.08,1.0,-3.0,-0.5,-0.1,840,0,,,,,,,,,,,,,,,,,,,
36434,1495386809732,,,,,,,,0.03,0.08,1.02,-3.1,-0.4,-0.1,860,0,,,,,,,,,,,,,,,,,,,
36454,1495386809752,,,,,,,,0.03,0.07,1.0,-3.0,-0.4,-0.0,840,0,,,,,,,,,,,,,,,,,,,
36474,1495386809772,0,88.9,,97.1,64,94.2,,0.03,0.08,1.0,-3.0,-0.5,-0.1,840,0,1,1,0.0,0,39.537468,-122.332657,0.0,0.0,356.9,8,2,2.0,0,0.0,-1,0.0,0.0,0.0,0
36494,1495386809792,,,,,,,,0.03,0.07,1.0,-3.0,-0.5,-0.1,860,0,,,,,,,,,,,,,,,,,,,
36514,1495386809812,,,,,,,,0.03,0.07,1.0,-3.0,-0.6,-0.2,860,0,,,,,,,,,,,,,,,,,,,
36534,1495386809832,,,,,,,,0.03,0.07,1.01,-3.0,-0.3,-0.2,860,0,,,,,,,,,,,,,,,,,,,
36554,1495386809852,,,,,,,,0.03,0.08,1.01,-3.0,-0.4,-0.2,840,0,,,,,,,,,,,,,,,,,,,
36574,1495386809872,,,,,65,,,0.03,0.08,1.01,-3.0,-0.4,-0.1,840,0,1,1,0.0,0,39.537468,-122.332657,0.0,0.0,356.9,8,2,2.0,0,0.0,-1,0.0,0.0,0.0,0
36594,1495386809892,,,,,,,,0.03,0.07,0.99,-3.0,-0.4,-0.0,840,0,,,,,,,,,,,,,,,,,,,
36614,1495386809912,,,,,,,,0.03,0.08,1.0,-3.0,-0.5,-0.1,840,0,,,,,,,,,,,,,,,,,,,
36634,1495386809932,,,,,,,,0.03,0.07,1.01,-3.0,-0.5,-0.1,840,0,,,,,,,,,,,,,,,,,,,
36654,1495386809952,,,,,,,,0.03,0.08,1.0,-2.9,-0.5,-0.2,840,0,,,,,,,,,,,,,,,,,,,
36674,1495386809972,0,88.9,,97.1,65,94.2,,0.03,0.08,1.01,-3.0,-0.2,-0.2,840,0,1,1,0.0,0,39.537468,-122.332657,0.0,0.0,356.9,8,2,2.0,0,0.0,-1,0.0,0.0,0.0,0
36694,1495386809992,,,,,,,,0.03,0.08,1.01,-3.0,-0.4,-0.2,840,0,,,,,,,,,,,,,,,,,,,
36714,1495386810007,,,,,,,,0.03,0.08,1.02,-3.0,-0.3,-0.1,840,0,,,,,,,,,,,,,,,,,,,
36734,1495386810027,,,,,,,,0.02,0.08,1.01,-3.0,-0.3,-0.1,840,0,,,,,,,,,,,,,,,,,,,
36754,1495386810047,,,,,,,,0.02,0.08,1.01,-2.9,-0.3,-0.1,840,0,,,,,,,,,,,,,,,,,,,
36774,1495386810067,,,,,67,,,0.03,0.08,0.99,-2.9,-0.7,-0.2,840,0,1,1,0.0,0,39.537468,-122.332657,0.0,0.0,356.9,8,2,2.0,0,0.0,-1,0.0,0.0,0.0,0
36794,1495386810091,,,,,,,,0.03,0.08,0.99,-2.9,-0.6,-0.2,840,0,,,,,,,,,,,,,,,,,,,
36814,1495386810111,,,,,,,,0.03,0.07,0.98,-2.9,-0.5,-0.1,840,0,,,,,,,,,,,,,,,,,,,
36834,1495386810131,,,,,,,,0.03,0.07,0.98,-3.0,-0.6,-0.0,820,0,,,,,,,,,,,,,,,,,,,
36854,1495386810151,,,,,,,,0.04,0.08,0.99,-3.0,-0.3,-0.0,840,0,,,,,,,,,,,,,,,,,,,
36874,1495386810171,0,88.6,,97.1,64,94.3,,0.03,0.09,1.0,-3.0,-0.4,-0.1,840,0,1,1,0.0,0,39.537468,-122.332657,0.0,0.0,356.9,8,2,2.0,0,0.0,-1,0.0,0.0,0.0,0
36894,1495386810193,,,,,,,,0.03,0.07,1.01,-3.0,-0.4,-0.2,840,0,,,,,,,,,,,,,,,,,,,
36914,1495386810213,,,,,,,,0.02,0.07,1.01,-2.9,-0.5,-0.2,840,0,,,,,,,,,,,,,,,,,,,
36934,1495386810233,,,,,,,,0.02,0.06,1.0,-3.0,-0.4,-0.2,840,0,,,,,,,,,,,,,,,,,,,
36954,1495386810253,,,,,,,,0.03,0.07,1.02,-3.0,-0.6,-0.2,840,0,,,,,,,,,,,,,,,,,,,
36974,1495386810273,,,,,63,,,0.03,0.07,1.03,-3.0,-0.5,-0.1,840,0,1,1,0.0,0,39.537468,-122.332657,0.0,0.0,356.9,8,2,2.0,0,0.0,-1,0.0,0.0,0.0,0
36994,1495386810293,,,,,,,,0.03,0.07,1.02,-2.9,-0.7,-0.1,840,0,,,,,,,,,,,,,,,,,,,
37014,1495386810313,,,,,,,,0.03,0.07,1.02,-2.9,-0.4,-0.1,840,0,,,,,,,,,,,,,,,,,,,
37034,1495386810333,,,,,,,,0.03,0.06,1.01,-2.9,-0.5,-0.2,820,0,,,,,,,,,,,,,,,,,,,
37054,1495386810353,,,,,,,,0.03,0.07,1.02,-2.9,-0.2,-0.2,820,0,,,,,,,,,,,,,,,,,,,
37074,1495386810373,0,90.7,-0.3,98.3,65,93.9,14.73,0.03,0.07,1.03,-3.0,-0.3,-0.2,840,0,1,1,0.0,0,39.537468,-122.332657,0.0,0.0,356.9,8,2,2.0,0,0.0,-1,0.0,0.0,0.0,0
37094,1495386810391,,,,,,,,0.03,0.08,1.0,-3.0,-0.5,-0.0,840,0,,,,,,,,,,,,,,,,,,,
37114,1495386810411,,,,,,,,0.03,0.07,1.0,-3.0,-0.5,0.0,820,0,,,,,,,,,,,,,,,,,,,
37134,1495386810431,,,,,,,,0.03,0.08,0.99,-3.0,-0.5,-0.1,820,0,,,,,,,,,,,,,,,,,,,
37154,1495386810451,,,,,,,,0.04,0.08,0.99,-3.0,-0.8,-0.2,820,0,,,,,,,,,,,,,,,,,,,
37174,1495386810471,,,,,64,,,0.03,0.07,0.99,-3.0,-0.6,-0.2,820,0,1,1,0.0,0,39.537468,-122.332657,0.0,0.0,356.9,8,2,2.0,0,0.0,-1,0.0,0.0,0.0,0
37194,1495386810493,,,,,,,,0.04,0.07,0.97,-3.0,-0.5,-0.1,820,0,,,,,,,,,,,,,,,,,,,
37214,1495386810513,,,,,,,,0.04,0.07,0.97,-3.0,-0.5,-0.1,840,0,,,,,,,,,,,,,,,,,,,
37234,1495386810533,,,,,,,,0.04,0.08,0.98,-3.0,-0.3,-0.0,840,0,,,,,,,,,,,,,,,,,,,
37254,1495386810553,,,,,,,,0.04,0.08,0.98,-3.0,-0.3,-0.1,820,0,,,,,,,,,,,,,,,,,,,
37274,1495386810573,0,90.8,,98.6,65,93.9,,0.04,0.07,1.0,-3.0,-0.5,-0.2,820,0,1,1,0.0,0,39.537468,-122.332657,0.0,0.0,356.9,8,2,2.0,0,0.0,-1,0.0,0.0,0.0,0
37294,1495386810591,,,,,,,,0.03,0.07,0.99,-2.9,-0.5,-0.2,820,0,,,,,,,,,,,,,,,,,,,
37314,1495386810611,,,,,,,,0.03,0.07,0.98,-3.0,-0.4,-0.2,820,0,,,,,,,,,,,,,,,,,,,
37334,1495386810631,,,,,,,,0.03,0.07,0.97,-3.0,-0.6,-0.2,820,0,,,,,,,,,,,,,,,,,,,
37354,1495386810651,,,,,,,,0.04,0.07,0.99,-3.0,-0.5,-0.1,820,0,,,,,,,,,,,,,,,,,,,
37374,1495386810671,,,,,63,,,0.04,0.08,0.98,-3.0,-0.5,-0.1,820,0,1,1,0.0,0,39.537468,-122.332657,0.0,0.0,356.9,8,2,2.0,0,0.0,-1,0.0,0.0,0.0,0
37394,1495386810693,,,,,,,,0.04,0.08,1.0,-3.0,-0.6,-0.1,800,0,,,,,,,,,,,,,,,,,,,
37414,1495386810713,,,,,,,,0.03,0.07,1.0,-3.0,-0.5,-0.2,800,0,,,,,,,,,,,,,,,,,,,
37434,1495386810733,,,,,,,,0.04,0.07,0.99,-3.0,-0.3,-0.1,800,0,,,,,,,,,,,,,,,,,,,
37454,1495386810753,,,,,,,,0.04,0.07,0.98,-3.0,-0.4,-0.1,800,0,,,,,,,,,,,,,,,,,,,
37474,1495386810773,0,90.0,,98.0,64,94.6,,0.04,0.07,0.98,-3.0,-0.3,-0.0,800,0,1,1,0.0,0,39.537468,-122.332657,0.0,0.0,356.9,8,2,2.0,0,0.0,-1,0.0,0.0,0.0,0
37494,1495386810793,,,,,,,,0.04,0.08,0.98,-3.0,-0.3,-0.1,800,0,,,,,,,,,,,,,,,,,,,
37514,1495386810813,,,,,,,,0.04,0.07,0.98,-3.0,-0.4,-0.2,800,0,,,,,,,,,,,,,,,,,,,
37534,1495386810833,,,,,,,,0.04,0.07,0.99,-3.0,-0.2,-0.2,800,0,,,,,,,,,,,,,,,,,,,
37554,1495386810853,,,,,,,,0.04,0.07,0.99,-3.0,-0.2,-0.1,800,0,,,,,,,,,,,,,,,,,,,
37574,1495386810873,,,,,63,,,0.04,0.07,1.0,-3.1,-0.1,-0.1,800,0,1,1,0.0,0,39.537468,-122.332657,0.0,0.0,356.9,8,2,2.0,0,0.0,-1,0.0,0.0,0.0,0
37594,1495386810893,,,,,,,,0.04,0.08,1.01,-3.0,-0.1,-0.1,780,0,,,,,,,,,,,,,,,,,,,
37614,1495386810913,,,,,,,,0.04,0.07,1.01,-3.0,-0.2,-0.2,800,0,,,,,,,,,,,,,,,,,,,
37634,1495386810933,,,,,,,,0.03,0.07,1.01,-3.0,-0.1,-0.2,800,0,,,,,,,,,,,,,,,,,,,
37654,1495386810953,,,,,,,,0.04,0.07,1.01,-3.1,-0.1,-0.2,800,0,,,,,,,,,,,,,,,,,,,
37674,1495386810973,0,88.4,,96.5,61,93.3,,0.04,0.08,1.01,-3.1,-0.2,-0.1,800,0,1,1,0.0,0,39.537468,-122.332657,0.0,0.0,356.9,8,2,2.0,0,0.0,-1,0.0,0.0,0.0,0
37694,1495386810993,,,,,,,,0.03,0.08,1.01,-3.1,-0.2,-0.1,780,0,,,,,,,,,,,,,,,,,,,
37714,1495386811006,,,,,,,,0.03,0.08,1.02,-3.1,-0.3,-0.2,800,0,,,,,,,,,,,,,,,,,,,
37734,1495386811026,,,,,,,,0.03,0.07,1.02,-3.1,-0.2,-0.2,800,0,,,,,,,,,,,,,,,,,,,
37754,1495386811046,,,,,,,,0.03,0.07,1.02,-3.1,-0.2,-0.2,780,0,,,,,,,,,,,,,,,,,,,
37774,1495386811066,,,,,62,,,0.03,0.08,1.02,-3.1,-0.2,-0.1,800,0,1,1,0.0,0,39.537468,-122.332657,0.0,0.0,356.9,8,2,2.0,0,0.0,-1,0.0,0.0,0.0,0
37794,1495386811092,,,,,,,,0.03,0.08,1.02,-3.1,-0.2,-0.2,780,0,,,,,,,,,,,,,,,,,,,
37814,1495386811112,,,,,,,,0.03,0.07,1.02,-3.1,-0.3,-0.3,800,0,,,,,,,,,,,,,,,,,,,
37834,1495386811132,,,,,,,,0.03,0.07,1.03,-3.1,-0.3,-0.2,800,0,,,,,,,,,,,,,,,,,,,
37854,1495386811152,,,,,,,,0.03,0.07,1.02,-3.1,-0.3,-0.2,780,0,,,,,,,,,,,,,,,,,,,
37874,1495386811172,0,90.5,,98.3,61,94.5,,0.03,0.08,1.03,-3.1,-0.2,-0.2,780,0,1,1,0.0,0,39.537468,-122.332657,0.0,0.0,356.9,8,2,2.0,0,0.0,-1,0.0,0.0,0.0,0
37894,1495386811192,,,,,,,,0.03,0.08,1.03,-3.1,-0.2,-0.2,780,0,,,,,,,,,,,,,,,,,,,
37914,1495386811212,,,,,,,,0.03,0.07,1.02,-3.0,-0.3,-0.3,800,0,,,,,,,,,,,,,,,,,,,
37934,1495386811232,,,,,,,,0.03,0.07,1.02,-3.1,-0.2,-0.3,800,0,,,,,,,,,,,,,,,,,,,
37954,1495386811252,,,,,,,,0.03,0.07,1.02,-3.1,-0.2,-0.2,780,0,,,,,,,,,,,,,,,,,,,
37974,1495386811272,,,,,61,,,0.03,0.08,1.01,-3.1,-0.1,-0.1,800,0,1,1,0.0,0,39.537468,-122.332657,0.0,0.0,356.9,8,2,2.0,0,0.0,-1,0.0,0.0,0.0,0
37994,1495386811292,,,,,,,,0.03,0.07,1.02,-3.0,-0.1,-0.2,780,0,,,,,,,,,,,,,,,,,,,
38014,1495386811312,,,,,,,,0.03,0.06,1.02,-3.0,-0.2,-0.3,780,0,,,,,,,,,,,,,,,,,,,
38034,1495386811332,,,,,,,,0.03,0.06,1.02,-3.0,0.0,-0.3,780,0,,,,,,,,,,,,,,,,,,,
38054,1495386811352,,,,,,,,0.04,0.07,1.02,-3.1,-0.0,-0.2,780,0,,,,,,,,,,,,,,,,,,,
38074,1495386811372,0,88.7,-0.5,96.8,60,92.4,14.75,0.04,0.07,1.03,-3.1,0.1,-0.2,800,0,1,1,0.0,0,39.537468,-122.332657,0.0,0.0,356.9,8,2,2.0,0,0.0,-1,0.0,0.0,0.0,0
38094,1495386811394,,,,,,,,0.03,0.07,1.03,-3.1,0.1,-0.3,800,5,,,,,,,,,,,,,,,,,,,
38114,1495386811414,,,,,,,,0.03,0.07,1.02,-3.0,0.1,-0.3,800,5,,,,,,,,,,,,,,,,,,,
38134,1495386811434,,,,,,,,0.03,0.07,1.02,-3.1,0.2,-0.3,800,5,,,,,,,,,,,,,,,,,,,
38154,1495386811454,,,,,,,,0.04,0.07,1.02,-3.1,0.2,-0.2,780,5,,,,,,,,,,,,,,,,,,,
38174,1495386811474,,,,,60,,,0.04,0.08,1.02,-3.2,0.3,-0.2,780,17,1,1,200.0,0,39.537468,-122.332657,0.0,0.0,356.9,8,2,2.0,0,0.0,-1,0.0,0.0,0.0,0
38194,1495386811492,,,,,,,,0.04,0.08,1.02,-3.1,0.3,-0.2,780,17,,,,,,,,,,,,,,,,,,,
38214,1495386811512,,,,,,,,0.04,0.07,1.02,-3.1,0.2,-0.3,800,17,,,,,,,,,,,,,,,,,,,
38234,1495386811532,,,,,,,,0.04,0.07,1.02,-3.2,0.4,-0.3,800,17,,,,,,,,,,,,,,,,,,,
38254,1495386811552,,,,,,,,0.05,0.07,1.01,-3.2,0.3,-0.3,780,20,,,,,,,,,,,,,,,,,,,
38274,1495386811572,0,89.2,,96.8,60,93.0,,0.05,0.07,1.0,-3.2,0.3,-0.2,800,20,1,1,48.75,0,39.537468,-122.332657,0.0,0.0,356.9,8,2,2.0,0,0.0,-1,0.0,0.0,0.0,0
38294,1495386811592,,,,,,,,0.05,0.07,1.01,-3.2,0.4,-0.3,780,20,,,,,,,,,,,,,,,,,,,
38314,1495386811612,,,,,,,,0.05,0.06,1.0,-3.2,0.2,-0.4,780,22,,,,,,,,,,,,,,,,,,,
38334,1495386811632,,,,,,,,0.05,0.07,0.99,-3.3,0.4,-0.4,780,22,,,,,,,,,,,,,,,,,,,
38354,1495386811652,,,,,,,,0.06,0.07,1.0,-3.3,0.3,-0.4,780,22,,,,,,,,,,,,,,,,,,,
38374,1495386811672,,,,,60,,,0.06,0.08,1.0,-3.4,0.4,-0.4,800,26,1,1,37.143,0,39.537468,-122.332657,0.0,0.0,356.9,8,2,2.0,0,0.0,-1,0.0,0.0,0.0,0
38394,1495386811692,,,,,,,,0.06,0.07,1.0,-3.4,0.4,-0.5,780,26,,,,,,,,,,,,,,,,,,,
38414,1495386811712,,,,,,,,0.06,0.06,0.99,-3.3,0.3,-0.6,800,29,,,,,,,,,,,,,,,,,,,
38434,1495386811732,,,,,,,,0.06,0.06,0.98,-3.4,0.4,-0.6,800,29,,,,,,,,,,,,,,,,,,,
