"Interval"|"ms"|0|0|1,"Utc"|"ms"|0|0|1,"FuelLevel"|"F"|0|100|5,"OilTemp"|"F"|0.0|300.0|5,"CoolantPressPSI"|"PSI"|0.0|20.0|1,"Coolant"|"F"|0.0|300.0|5,"OilPress"|"PSI"|0|150|10,"EngineTemp"|"F"|0.0|300.0|5,"Battery"|"Volts"|0.0|20.0|1,"AccelX"|"G"|-3.0|3.0|50,"AccelY"|"G"|-3.0|3.0|50,"AccelZ"|"G"|-3.0|3.0|50,"Yaw"|"Deg/Sec"|-300.0|300.0|50,"Pitch"|"Deg/Sec"|-300.0|300.0|50,"Roll"|"Deg/Sec"|-300.0|300.0|50,"RPM"|""|0|10000|50,"Driveshaft"|"RPM"|0|5000|50,"GPIO1"|""|0|1|10,"GPIO2"|""|0|1|10,"GearRatio"|""|-5.0|5.0|10,"Gear"|""|-1|5|10,"Latitude"|"Degrees"|-180.0|180.0|10,"Longitude"|"Degrees"|-180.0|180.0|10,"Speed"|"mph"|0.0|150.0|10,"Distance"|"mi"|0.0|0.0|10,"Altitude"|"ft"|0.0|4000.0|10,"GPSSats"|""|0|20|10,"GPSQual"|""|0|5|10,"GPSDOP"|""|0.0|20.0|10,"LapCount"|""|0|0|10,"LapTime"|"Min"|0.0|0.0|10,"Sector"|""|0|0|10,"SectorTime"|"Min"|0.0|0.0|10,"PredTime"|"Min"|0.0|0.0|10,"ElapsedTime"|"Min"|0.0|0.0|10,"CurrentLap"|""|0|0|10
9402595,1495396176068,,,,,,,,0.03,0.08,1.01,-3.1,-0.1,-0.0,420,0,,,,,,,,,,,,,,,,,,,
9402615,1495396176096,,,,,,,,0.04,0.1,1.02,-3.1,-0.1,0.2,580,0,,,,,,,,,,,,,,,,,,,
9402635,1495396176116,,,,,,,,0.04,0.11,1.01,-3.1,0.1,-0.1,740,0,,,,,,,,,,,,,,,,,,,
9402655,1495396176136,,,,,,,,0.04,0.09,1.01,-3.0,-0.2,-0.5,800,0,,,,,,,,,,,,,,,,,,,
9402677,1495396176158,,,,,5,,,0.03,0.08,0.99,-3.0,0.2,-0.7,800,0,0,0,0.0,0,39.53878,-122.332184,0.0,4.61,278.8,9,2,2.3,21,3.9433,8,0.1267,30.039,30.0283,22
9402696,1495396176177,,,,,,,,0.04,0.09,0.99,-3.1,0.4,-0.4,760,0,,,,,,,,,,,,,,,,,,,
9402716,1495396176197,,,,,,,,0.05,0.1,0.99,-3.1,0.4,-0.1,720,0,,,,,,,,,,,,,,,,,,,
9402736,1495396176217,,,,,,,,0.05,0.11,1.0,-3.1,0.5,-0.1,720,0,,,,,,,,,,,,,,,,,,,
9402756,1495396176237,,,,,,,,0.05,0.11,0.99,-3.1,0.4,-0.1,680,2,,,,,,,,,,,,,,,,,,,
9402778,1495396176259,0,156.4,-0.5,175.2,9,179.0,13.04,0.05,0.1,0.97,-3.2,0.2,0.0,680,2,0,1,0.0,0,39.53878,-122.332184,0.0,4.61,278.8,9,2,2.3,21,3.9433,8,0.1267,30.0407,30.03,22
9402797,1495396176278,,,,,,,,0.05,0.1,0.98,-3.1,0.1,-0.1,760,2,,,,,,,,,,,,,,,,,,,
9402817,1495396176298,,,,,,,,0.04,0.1,0.97,-3.1,0.2,-0.3,780,2,,,,,,,,,,,,,,,,,,,
9402837,1495396176318,,,,,,,,0.03,0.09,0.99,-3.0,0.1,-0.3,780,2,,,,,,,,,,,,,,,,,,,
9402857,1495396176338,,,,,,,,0.03,0.09,1.0,-3.1,0.0,-0.2,760,2,,,,,,,,,,,,,,,,,,,
9402879,1495396176360,,,,,9,,,0.03,0.1,1.0,-3.1,0.1,-0.0,740,192308,0,1,680.0,0,39.53878,-122.332184,0.0,4.61,278.8,9,2,2.3,21,3.9433,8,0.1267,30.0424,30.0317,22
9402898,1495396176379,,,,,,,,0.03,0.1,1.0,-3.1,-0.1,-0.1,720,0,,,,,,,,,,,,,,,,,,,
9402918,1495396176399,,,,,,,,0.03,0.08,1.0,-3.1,-0.2,-0.1,720,0,,,,,,,,,,,,,,,,,,,
9402938,1495396176419,,,,,,,,0.02,0.09,0.98,-3.1,-0.2,0.1,740,0,,,,,,,,,,,,,,,,,,,
9402958,1495396176439,,,,,,,,0.02,0.1,0.97,-3.1,-0.3,0.2,820,0,,,,,,,,,,,,,,,,,,,
9402980,1495396176461,0,156.2,,175.0,11,178.7,,0.02,0.09,0.97,-3.0,-0.3,-0.1,840,0,0,1,0.0,0,39.53878,-122.332184,0.0,4.61,278.8,9,2,2.3,21,3.9433,8,0.1267,30.0441,30.0333,22
9402999,1495396176480,,,,,,,,0.02,0.09,0.97,-3.0,-0.4,-0.4,880,0,,,,,,,,,,,,,,,,,,,
9403019,1495396176500,,,,,,,,0.02,0.07,0.97,-3.0,-0.2,-0.5,920,0,,,,,,,,,,,,,,,,,,,
9403039,1495396176520,,,,,,,,0.02,0.06,0.97,-3.0,-0.2,-0.2,940,0,,,,,,,,,,,,,,,,,,,
9403059,1495396176540,,,,,,,,0.01,0.06,0.98,-3.1,-0.1,-0.1,960,0,,,,,,,,,,,,,,,,,,,
9403081,1495396176562,,,,,15,,,0.01,0.08,1.0,-3.1,-0.1,-0.1,980,0,0,1,0.0,0,39.53878,-122.332184,0.0,4.61,278.8,9,2,2.3,21,3.9433,8,0.1267,30.0457,30.035,22
9403100,1495396176581,,,,,,,,0.02,0.08,1.01,-3.0,0.0,-0.1,1000,0,,,,,,,,,,,,,,,,,,,
9403120,1495396176600,,,,,,,,0.02,0.07,1.02,-3.0,0.4,-0.1,960,0,,,,,,,,,,,,,,,,,,,
9403140,1495396176620,,,,,,,,0.02,0.08,1.06,-3.0,0.5,-0.2,980,0,,,,,,,,,,,,,,,,,,,
9403160,1495396176640,,,,,,,,0.02,0.08,1.1,-3.1,0.7,-0.1,980,0,,,,,,,,,,,,,,,,,,,
9403182,1495396176662,0,156.0,,174.7,18,178.5,,0.02,0.09,1.1,-3.0,0.6,-0.1,980,0,0,1,0.0,0,39.53878,-122.332184,0.0,4.61,278.8,9,2,2.3,21,3.9433,8,0.1267,30.0474,30.0367,22
9403201,1495396176681,,,,,,,,0.02,0.09,1.09,-3.0,0.5,-0.1,980,0,,,,,,,,,,,,,,,,,,,
9403221,1495396176701,,,,,,,,0.02,0.09,1.09,-3.0,0.6,-0.2,980,0,,,,,,,,,,,,,,,,,,,
9403241,1495396176721,,,,,,,,0.02,0.08,1.11,-3.0,0.6,-0.2,960,0,,,,,,,,,,,,,,,,,,,
9403261,1495396176741,,,,,,,,0.02,0.09,1.12,-3.0,0.6,-0.2,960,0,,,,,,,,,,,,,,,,,,,
9403283,1495396176763,,,,,21,,,0.02,0.09,1.14,-3.0,0.7,-0.2,960,0,0,1,0.0,0,39.53878,-122.332184,0.0,4.61,278.8,9,2,2.3,21,3.9433,8,0.1267,30.0491,30.0383,22
9403302,1495396176782,,,,,,,,0.03,0.09,1.14,-3.0,0.7,-0.2,940,0,,,,,,,,,,,,,,,,,,,
9403322,1495396176802,,,,,,,,0.03,0.09,1.13,-3.0,0.6,-0.2,940,0,,,,,,,,,,,,,,,,,,,
9403342,1495396176822,,,,,,,,0.03,0.1,1.14,-3.1,0.5,-0.2,940,0,,,,,,,,,,,,,,,,,,,
9403362,1495396176842,,,,,,,,0.04,0.1,1.13,-3.1,0.3,-0.3,940,0,,,,,,,,,,,,,,,,,,,
9403384,1495396176864,0,156.2,,174.9,24,178.8,,0.04,0.09,1.12,-3.1,0.1,-0.3,920,0,0,1,0.0,0,39.53878,-122.332184,0.0,4.61,278.8,9,2,2.3,21,3.9433,8,0.1267,30.0508,30.04,22
9403403,1495396176883,,,,,,,,0.04,0.1,1.13,-3.1,-0.1,-0.3,920,0,,,,,,,,,,,,,,,,,,,
9403423,1495396176903,,,,,,,,0.04,0.08,1.11,-3.0,-0.1,-0.3,920,0,,,,,,,,,,,,,,,,,,,
9403443,1495396176923,,,,,,,,0.03,0.09,1.1,-3.0,-0.2,-0.3,900,0,,,,,,,,,,,,,,,,,,,
9403463,1495396176943,,,,,,,,0.02,0.09,1.1,-3.0,-0.4,-0.3,900,0,,,,,,,,,,,,,,,,,,,
9403485,1495396176965,,,,,23,,,0.02,0.07,1.07,-3.0,-0.3,-0.3,900,0,0,1,0.0,0,39.53878,-122.332184,0.0,4.61,278.8,9,2,2.3,21,3.9433,8,0.1267,30.0525,30.0417,22
9403504,1495396176984,,,,,,,,0.02,0.07,1.05,-2.9,-0.2,-0.4,900,0,,,,,,,,,,,,,,,,,,,
9403524,1495396176996,,,,,,,,0.03,0.07,1.04,-2.9,-0.2,-0.4,880,0,,,,,,,,,,,,,,,,,,,
9403544,1495396177016,,,,,,,,0.03,0.06,1.03,-2.9,-0.2,-0.3,880,0,,,,,,,,,,,,,,,,,,,
9403564,1495396177036,,,,,,,,0.03,0.07,1.03,-3.0,-0.2,-0.2,880,0,,,,,,,,,,,,,,,,,,,
9403586,1495396177058,0,156.2,,174.9,26,178.7,,0.03,0.07,1.03,-3.0,-0.2,-0.2,880,0,0,1,0.0,0,39.53878,-122.332184,0.0,4.61,278.8,9,2,1.9,21,3.9433,8,0.1267,30.054,30.0433,22
9403605,1495396177077,,,,,,,,0.03,0.08,1.04,-3.0,-0.2,-0.1,860,0,,,,,,,,,,,,,,,,,,,
9403625,1495396177105,,,,,,,,0.03,0.1,1.03,-3.0,-0.2,-0.1,860,0,,,,,,,,,,,,,,,,,,,
9403645,1495396177125,,,,,,,,0.04,0.09,1.03,-3.0,0.0,-0.1,860,0,,,,,,,,,,,,,,,,,,,
9403665,1495396177145,,,,,,,,0.03,0.09,1.03,-3.0,-0.2,-0.2,860,0,,,,,,,,,,,,,,,,,,,
9403687,1495396177167,,,,,24,,,0.02,0.08,1.04,-2.9,-0.4,-0.3,840,0,0,1,0.0,0,39.53878,-122.332184,0.0,4.61,278.8,9,2,1.9,21,3.9433,8,0.1267,30.0558,30.045,22
9403706,1495396177186,,,,,,,,0.02,0.08,1.03,-2.9,-0.2,-0.3,840,0,,,,,,,,,,,,,,,,,,,
9403726,1495396177206,,,,,,,,0.02,0.08,1.02,-2.9,-0.1,-0.2,840,0,,,,,,,,,,,,,,,,,,,
9403746,1495396177226,,,,,,,,0.03,0.08,1.02,-2.9,-0.2,-0.2,840,0,,,,,,,,,,,,,,,,,,,
9403766,1495396177246,,,,,,,,0.03,0.09,1.02,-2.9,-0.3,-0.1,820,0,,,,,,,,,,,,,,,,,,,
9403788,1495396177268,0,156.0,-0.7,174.7,25,178.6,13.5,0.02,0.08,1.01,-2.9,0.0,-0.1,800,0,0,1,0.0,0,39.53878,-122.332184,0.0,4.61,278.8,9,2,1.9,21,3.9433,8,0.1267,30.0575,30.0467,22
9403807,1495396177287,,,,,,,,0.03,0.07,1.0,-2.9,0.0,-0.2,820,0,,,,,,,,,,,,,,,,,,,
9403827,1495396177307,,,,,,,,0.03,0.07,1.02,-2.9,-0.2,-0.3,800,0,,,,,,,,,,,,,,,,,,,
9403847,1495396177327,,,,,,,,0.02,0.06,1.01,-2.9,-0.2,-0.3,800,0,,,,,,,,,,,,,,,,,,,
9403867,1495396177347,,,,,,,,0.02,0.06,1.0,-2.9,-0.1,-0.2,800,0,,,,,,,,,,,,,,,,,,,
9403889,1495396177369,,,,,21,,,0.02,0.06,0.99,-2.9,-0.2,-0.1,780,0,0,1,0.0,0,39.53878,-122.332184,0.0,4.61,278.8,9,2,1.9,21,3.9433,8,0.1267,30.0592,30.0483,22
9403908,1495396177388,,,,,,,,0.02,0.06,0.98,-2.9,-0.0,-0.1,780,0,,,,,,,,,,,,,,,,,,,
9403928,1495396177408,,,,,,,,0.02,0.06,0.99,-2.8,-0.2,-0.3,780,0,,,,,,,,,,,,,,,,,,,
9403948,1495396177428,,,,,,,,0.02,0.06,0.99,-2.9,-0.2,-0.3,780,0,,,,,,,,,,,,,,,,,,,
9403968,1495396177448,,,,,,,,0.03,0.08,0.98,-3.0,-0.0,-0.2,760,0,,,,,,,,,,,,,,,,,,,
9403990,1495396177470,0,156.5,,175.2,24,179.1,,0.03,0.08,0.98,-3.0,-0.2,-0.1,760,0,0,1,0.0,0,39.53878,-122.332184,0.0,4.61,278.8,9,2,1.9,21,3.9433,8,0.1267,30.0609,30.05,22
9404009,1495396177489,,,,,,,,0.02,0.08,0.99,-2.9,-0.0,-0.2,760,0,,,,,,,,,,,,,,,,,,,
9404029,1495396177509,,,,,,,,0.02,0.08,0.99,-2.9,-0.1,-0.2,760,0,,,,,,,,,,,,,,,,,,,
9404049,1495396177529,,,,,,,,0.02,0.07,0.98,-2.9,-0.1,-0.2,760,0,,,,,,,,,,,,,,,,,,,
9404069,1495396177549,,,,,,,,0.02,0.08,0.98,-3.0,0.0,-0.1,740,0,,,,,,,,,,,,,,,,,,,
9404091,1495396177571,,,,,20,,,0.02,0.09,0.99,-2.9,-0.0,-0.1,740,0,0,1,0.0,0,39.53878,-122.332184,0.0,4.61,278.8,9,2,1.9,21,3.9433,8,0.1267,30.0625,30.0517,22
9404110,1495396177590,,,,,,,,0.02,0.08,1.0,-2.9,-0.1,-0.2,740,0,,,,,,,,,,,,,,,,,,,
9404130,1495396177609,,,,,,,,0.02,0.07,0.99,-2.9,-0.1,-0.2,740,0,,,,,,,,,,,,,,,,,,,
9404150,1495396177629,,,,,,,,0.02,0.09,0.97,-2.9,-0.2,-0.1,740,0,,,,,,,,,,,,,,,,,,,
9404170,1495396177649,,,,,,,,0.03,0.08,0.97,-2.9,-0.2,-0.2,740,0,,,,,,,,,,,,,,,,,,,
9404192,1495396177671,3,155.9,,174.8,21,178.4,,0.02,0.08,0.97,-2.9,-0.2,-0.2,720,0,0,1,0.0,0,39.53878,-122.332184,0.0,4.61,278.8,9,2,1.9,21,3.9433,8,0.1267,30.0642,30.0533,22
9404211,1495396177690,,,,,,,,0.02,0.08,0.95,-2.9,-0.3,-0.2,720,0,,,,,,,,,,,,,,,,,,,
9404231,1495396177710,,,,,,,,0.03,0.09,0.94,-3.0,-0.2,-0.1,720,0,,,,,,,,,,,,,,,,,,,
9404251,1495396177730,,,,,,,,0.03,0.09,0.95,-2.9,-0.2,-0.1,720,0,,,,,,,,,,,,,,,,,,,
9404271,1495396177750,,,,,,,,0.02,0.08,0.98,-2.9,-0.2,-0.2,720,0,,,,,,,,,,,,,,,,,,,
9404293,1495396177772,,,,,20,,,0.02,0.08,0.98,-2.9,-0.1,-0.2,720,0,0,1,0.0,0,39.53878,-122.332184,0.0,4.61,278.8,9,2,1.9,21,3.9433,8,0.1267,30.0659,30.055,22
9404312,1495396177793,,,,,,,,0.02,0.08,0.96,-2.9,-0.1,-0.1,720,0,,,,,,,,,,,,,,,,,,,
9404332,1495396177813,,,,,,,,0.02,0.08,0.97,-2.9,-0.1,-0.1,720,0,,,,,,,,,,,,,,,,,,,
9404352,1495396177833,,,,,,,,0.02,0.08,0.98,-2.9,-0.0,-0.2,720,0,,,,,,,,,,,,,,,,,,,
9404372,1495396177853,,,,,,,,0.02,0.08,0.98,-2.9,-0.0,-0.1,720,0,,,,,,,,,,,,,,,,,,,
9404394,1495396177875,0,156.3,,175.1,18,178.9,,0.02,0.08,0.98,-2.9,-0.1,-0.1,700,0,0,1,0.0,0,39.53878,-122.332184,0.0,4.61,278.8,9,2,1.9,21,3.9433,8,0.1267,30.0676,30.0567,22
9404413,1495396177892,,,,,,,,0.02,0.07,0.97,-2.9,-0.1,-0.2,720,0,,,,,,,,,,,,,,,,,,,
9404433,1495396177912,,,,,,,,0.02,0.08,0.98,-2.9,-0.1,-0.3,720,0,,,,,,,,,,,,,,,,,,,
9404453,1495396177932,,,,,,,,0.03,0.08,0.98,-2.9,-0.1,-0.2,720,0,,,,,,,,,,,,,,,,,,,
9404473,1495396177952,,,,,,,,0.03,0.08,0.96,-2.9,-0.2,-0.2,720,0,,,,,,,,,,,,,,,,,,,
9404495,1495396177974,,,,,19,,,0.02,0.08,0.97,-2.9,-0.3,-0.3,720,0,0,1,0.0,0,39.53878,-122.332184,0.0,4.61,278.8,9,2,1.9,21,3.9433,8,0.1267,30.0693,30.0583,22
9404514,1495396177993,,,,,,,,0.02,0.07,0.97,-2.9,-0.3,-0.3,720,0,,,,,,,,,,,,,,,,,,,
9404534,1495396178007,,,,,,,,0.02,0.08,0.97,-2.9,-0.3,-0.2,720,0,,,,,,,,,,,,,,,,,,,
9404554,1495396178027,,,,,,,,0.02,0.09,0.97,-2.9,-0.2,-0.2,700,0,,,,,,,,,,,,,,,,,,,
9404574,1495396178047,,,,,,,,0.02,0.08,0.98,-2.9,-0.1,-0.2,700,0,,,,,,,,,,,,,,,,,,,
9404596,1495396178069,0,156.5,,175.3,18,179.1,,0.02,0.09,0.98,-2.9,-0.0,-0.1,700,0,0,1,0.0,0,39.53878,-122.332184,0.0,4.61,278.8,9,2,2.3,21,3.9433,8,0.1267,30.0709,30.06,22
9404615,1495396178094,,,,,,,,0.03,0.09,0.99,-3.0,0.0,-0.0,720,0,,,,,,,,,,,,,,,,,,,
9404635,1495396178114,,,,,,,,0.02,0.08,0.99,-3.0,0.0,-0.1,720,0,,,,,,,,,,,,,,,,,,,
9404655,1495396178134,,,,,,,,0.02,0.09,0.99,-3.0,-0.0,-0.1,720,0,,,,,,,,,,,,,,,,,,,
9404675,1495396178154,,,,,,,,0.03,0.09,0.99,-3.0,-0.0,-0.1,720,0,,,,,,,,,,,,,,,,,,,
9404697,1495396178176,,,,,19,,,0.03,0.1,0.98,-3.0,-0.2,-0.1,720,0,0,1,0.0,0,39.53878,-122.332184,0.0,4.61,278.8,9,2,2.3,21,3.9433,8,0.1267,30.0726,30.0617,22
9404716,1495396178197,,,,,,,,0.03,0.09,0.98,-2.9,-0.3,-0.1,700,0,,,,,,,,,,,,,,,,,,,
9404736,1495396178217,,,,,,,,0.03,0.09,0.98,-3.0,-0.2,-0.1,700,0,,,,,,,,,,,,,,,,,,,
9404756,1495396178237,,,,,,,,0.03,0.1,0.97,-3.0,-0.2,-0.0,720,0,,,,,,,,,,,,,,,,,,,
9404776,1495396178257,,,,,,,,0.02,0.1,0.98,-3.0,-0.1,-0.0,720,0,,,,,,,,,,,,,,,,,,,
9404798,1495396178279,0,156.6,-0.7,175.6,21,179.4,13.43,0.02,0.1,0.99,-3.0,-0.1,-0.1,720,0,0,1,0.0,0,39.53878,-122.332184,0.0,4.61,278.8,9,2,2.3,21,3.9433,8,0.1267,30.0744,30.0633,22
9404817,1495396178298,,,,,,,,0.02,0.1,0.99,-3.0,-0.1,-0.1,720,0,,,,,,,,,,,,,,,,,,,
9404837,1495396178318,,,,,,,,0.02,0.1,0.99,-3.0,-0.1,-0.0,720,0,,,,,,,,,,,,,,,,,,,
9404857,1495396178338,,,,,,,,0.02,0.09,1.0,-3.0,-0.0,-0.1,720,0,,,,,,,,,,,,,,,,,,,
9404877,1495396178358,,,,,,,,0.02,0.09,1.0,-3.0,-0.0,-0.1,720,0,,,,,,,,,,,,,,,,,,,
9404899,1495396178380,,,,,18,,,0.02,0.09,1.0,-3.0,0.1,-0.1,720,0,0,1,0.0,0,39.53878,-122.332184,0.0,4.61,278.8,9,2,2.3,21,3.9433,8,0.1267,30.076,30.065,22
9404918,1495396178399,,,,,,,,0.03,0.09,1.0,-3.0,0.1,-0.1,720,0,,,,,,,,,,,,,,,,,,,
9404938,1495396178419,,,,,,,,0.03,0.08,1.0,-3.0,0.1,-0.2,720,0,,,,,,,,,,,,,,,,,,,
9404958,1495396178439,,,,,,,,0.03,0.08,0.99,-3.0,0.0,-0.2,720,0,,,,,,,,,,,,,,,,,,,
9404978,1495396178459,,,,,,,,0.03,0.09,0.99,-3.0,-0.0,-0.2,720,0,,,,,,,,,,,,,,,,,,,
9405000,1495396178481,0,156.3,,175.3,18,178.9,,0.03,0.09,0.98,-3.0,-0.1,-0.2,720,0,0,1,0.0,0,39.53878,-122.332184,0.0,4.61,278.8,9,2,2.3,21,3.9433,8,0.1267,30.0777,30.0667,22
9405019,1495396178500,,,,,,,,0.03,0.08,0.98,-3.0,-0.1,-0.2,720,0,,,,,,,,,,,,,,,,,,,
9405039,1495396178520,,,,,,,,0.03,0.08,0.98,-3.0,-0.1,-0.3,720,0,,,,,,,,,,,,,,,,,,,
9405059,1495396178540,,,,,,,,0.03,0.09,0.97,-3.0,-0.2,-0.2,720,0,,,,,,,,,,,,,,,,,,,
9405079,1495396178560,,,,,,,,0.03,0.1,0.96,-3.0,-0.3,-0.2,720,0,,,,,,,,,,,,,,,,,,,
9405101,1495396178582,,,,,21,,,0.03,0.09,0.97,-3.0,-0.3,-0.3,740,0,0,1,0.0,0,39.53878,-122.332184,0.0,4.61,278.8,9,2,2.3,21,3.9433,8,0.1267,30.0794,30.0683,22
9405120,1495396178600,,,,,,,,0.03,0.09,0.97,-3.1,-0.3,-0.3,740,0,,,,,,,,,,,,,,,,,,,
9405140,1495396178620,,,,,,,,0.03,0.1,0.97,-3.1,-0.4,-0.2,740,0,,,,,,,,,,,,,,,,,,,
9405160,1495396178640,,,,,,,,0.03,0.11,0.96,-3.1,-0.4,-0.2,740,0,,,,,,,,,,,,,,,,,,,
9405180,1495396178660,,,,,,,,0.03,0.1,0.96,-3.0,-0.3,-0.2,740,0,,,,,,,,,,,,,,,,,,,
9405202,1495396178682,0,156.5,,175.6,22,179.3,,0.03,0.1,0.95,-3.0,-0.3,-0.2,740,0,0,1,0.0,0,39.53878,-122.332184,0.0,4.61,278.8,9,2,2.3,21,3.9433,8,0.1267,30.0811,30.07,22
9405221,1495396178701,,,,,,,,0.03,0.1,0.95,-3.1,-0.4,-0.2,720,0,,,,,,,,,,,,,,,,,,,
9405241,1495396178721,,,,,,,,0.03,0.11,0.95,-3.1,-0.4,-0.1,740,0,,,,,,,,,,,,,,,,,,,
9405261,1495396178741,,,,,,,,0.03,0.09,0.96,-3.0,-0.4,-0.2,740,0,,,,,,,,,,,,,,,,,,,
9405281,1495396178761,,,,,,,,0.03,0.09,0.96,-3.0,-0.3,-0.2,740,0,,,,,,,,,,,,,,,,,,,
9405303,1495396178783,,,,,23,,,0.03,0.1,0.95,-3.0,-0.3,-0.2,740,0,0,1,0.0,0,39.53878,-122.332184,0.0,4.61,278.8,9,2,2.3,21,3.9433,8,0.1267,30.0828,30.0717,22
9405322,1495396178802,,,,,,,,0.03,0.09,0.95,-3.0,-0.3,-0.1,740,0,,,,,,,,,,,,,,,,,,,
9405342,1495396178822,,,,,,,,0.03,0.09,0.95,-3.0,-0.3,-0.2,740,0,,,,,,,,,,,,,,,,,,,
9405362,1495396178842,,,,,,,,0.02,0.09,0.95,-3.0,-0.3,-0.2,740,0,,,,,,,,,,,,,,,,,,,
9405382,1495396178862,,,,,,,,0.03,0.1,0.95,-3.0,-0.3,-0.1,740,0,,,,,,,,,,,,,,,,,,,
9405404,1495396178884,0,156.3,,175.5,20,178.8,,0.03,0.1,0.95,-3.0,-0.3,-0.1,740,0,0,1,0.0,0,39.53878,-122.332184,0.0,4.61,278.8,9,2,2.3,21,3.9433,8,0.1267,30.0844,30.0733,22
9405423,1495396178903,,,,,,,,0.03,0.09,0.96,-3.0,-0.3,-0.3,740,0,,,,,,,,,,,,,,,,,,,
9405443,1495396178923,,,,,,,,0.02,0.09,0.95,-3.0,-0.3,-0.3,740,0,,,,,,,,,,,,,,,,,,,
9405463,1495396178943,,,,,,,,0.03,0.1,0.95,-3.0,-0.4,-0.2,740,0,,,,,,,,,,,,,,,,,,,
9405483,1495396178963,,,,,,,,0.03,0.1,0.95,-3.0,-0.4,-0.2,740,0,,,,,,,,,,,,,,,,,,,
9405505,1495396178985,,,,,21,,,0.03,0.09,0.96,-3.0,-0.4,-0.3,740,0,0,1,0.0,0,39.53878,-122.332184,0.0,4.61,278.8,9,2,2.3,21,3.9433,8,0.1267,30.0861,30.075,22
9405524,1495396178998,,,,,,,,0.02,0.09,0.96,-3.0,-0.5,-0.3,740,0,,,,,,,,,,,,,,,,,,,
9405544,1495396179018,,,,,,,,0.03,0.1,0.95,-3.0,-0.4,-0.3,740,0,,,,,,,,,,,,,,,,,,,
9405564,1495396179038,,,,,,,,0.03,0.1,0.95,-3.0,-0.4,-0.3,740,0,,,,,,,,,,,,,,,,,,,
9405584,1495396179058,,,,,,,,0.03,0.09,0.96,-3.0,-0.4,-0.3,740,0,,,,,,,,,,,,,,,,,,,
9405606,1495396179080,0,156.6,,175.8,22,179.2,,0.03,0.09,0.96,-3.0,-0.5,-0.3,740,0,0,1,0.0,0,39.53878,-122.332184,0.0,4.61,278.8,9,2,2.3,21,3.9433,8,0.1267,30.0877,30.0767,22
9405625,1495396179105,,,,,,,,0.03,0.09,0.96,-3.0,-0.4,-0.3,740,0,,,,,,,,,,,,,,,,,,,
9405645,1495396179125,,,,,,,,0.03,0.09,0.96,-3.0,-0.4,-0.3,740,0,,,,,,,,,,,,,,,,,,,
9405665,1495396179145,,,,,,,,0.03,0.09,0.96,-3.0,-0.3,-0.3,740,0,,,,,,,,,,,,,,,,,,,
9405685,1495396179165,,,,,,,,0.03,0.09,0.97,-3.0,-0.4,-0.4,740,0,,,,,,,,,,,,,,,,,,,
9405707,1495396179187,,,,,22,,,0.03,0.09,0.96,-3.0,-0.3,-0.3,740,0,0,1,0.0,0,39.53878,-122.332184,0.0,4.61,278.8,9,2,2.3,21,3.9433,8,0.1267,30.0895,30.0783,22
9405726,1495396179206,,,,,,,,0.03,0.09,0.97,-3.1,-0.3,-0.2,740,0,,,,,,,,,,,,,,,,,,,
9405746,1495396179226,,,,,,,,0.03,0.09,0.97,-3.0,-0.3,-0.3,740,0,,,,,,,,,,,,,,,,,,,
9405766,1495396179246,,,,,,,,0.03,0.09,0.97,-3.0,-0.3,-0.3,740,0,,,,,,,,,,,,,,,,,,,
9405786,1495396179266,,,,,,,,0.03,0.08,0.97,-3.0,-0.3,-0.3,760,0,,,,,,,,,,,,,,,,,,,
9405808,1495396179288,0,156.4,-0.5,175.6,22,178.9,13.64,0.03,0.08,0.97,-3.0,-0.2,-0.2,740,0,0,1,0.0,0,39.53878,-122.332184,0.0,4.61,278.8,9,2,2.3,21,3.9433,8,0.1267,30.0912,30.08,22
9405827,1495396179307,,,,,,,,0.03,0.09,0.98,-3.0,-0.2,-0.2,760,0,,,,,,,,,,,,,,,,,,,
9405847,1495396179327,,,,,,,,0.02,0.08,0.98,-3.0,-0.3,-0.3,760,0,,,,,,,,,,,,,,,,,,,
9405867,1495396179347,,,,,,,,0.02,0.08,0.98,-3.0,-0.3,-0.2,760,0,,,,,,,,,,,,,,,,,,,
9405887,1495396179367,,,,,,,,0.03,0.09,0.98,-3.0,-0.2,-0.1,740,0,,,,,,,,,,,,,,,,,,,
9405909,1495396179389,,,,,21,,,0.02,0.1,0.97,-3.0,-0.3,-0.1,760,0,0,1,0.0,0,39.53878,-122.332184,0.0,4.61,278.8,9,2,2.3,21,3.9433,8,0.1267,30.0928,30.0817,22
9405928,1495396179408,,,,,,,,0.03,0.09,0.98,-3.0,-0.3,-0.2,760,0,,,,,,,,,,,,,,,,,,,
9405948,1495396179428,,,,,,,,0.02,0.09,0.98,-3.0,-0.3,-0.2,760,0,,,,,,,,,,,,,,,,,,,
9405968,1495396179448,,,,,,,,0.02,0.09,0.97,-3.0,-0.3,-0.2,760,0,,,,,,,,,,,,,,,,,,,
9405988,1495396179468,,,,,,,,0.03,0.09,0.97,-3.0,-0.3,-0.1,760,0,,,,,,,,,,,,,,,,,,,
9406010,1495396179490,0,156.7,,175.9,23,179.0,,0.03,0.09,0.98,-3.0,-0.2,-0.2,760,0,0,1,0.0,0,39.53878,-122.332184,0.0,4.61,278.8,9,2,2.3,21,3.9433,8,0.1267,30.0945,30.0833,22
9406029,1495396179509,,,,,,,,0.02,0.08,0.98,-3.0,-0.3,-0.3,760,0,,,,,,,,,,,,,,,,,,,
9406049,1495396179529,,,,,,,,0.02,0.08,0.97,-3.0,-0.3,-0.2,760,0,,,,,,,,,,,,,,,,,,,
9406069,1495396179549,,,,,,,,0.03,0.08,0.97,-3.0,-0.1,-0.1,760,2,,,,,,,,,,,,,,,,,,,
9406089,1495396179569,,,,,,,,0.03,0.09,0.98,-3.0,-0.2,-0.1,780,37,,,,,,,,,,,,,,,,,,,
9406111,1495396179591,,,,,21,,,0.02,0.08,0.99,-3.0,-0.3,-0.2,760,77,0,1,0.0,0,39.53878,-122.332184,0.0,4.61,278.8,9,2,2.3,21,3.9433,8,0.1267,30.0962,30.085,22
9406130,1495396179609,,,,,,,,0.01,0.07,0.98,-3.0,-0.2,-0.3,760,98,,,,,,,,,,,,,,,,,,,
9406150,1495396179629,,,,,,,,0.01,0.08,0.97,-3.0,-0.1,-0.3,760,98,,,,,,,,,,,,,,,,,,,
9406170,1495396179649,,,,,,,,0.03,0.07,0.97,-3.0,0.1,-0.2,760,98,,,,,,,,,,,,,,,,,,,
9406190,1495396179669,,,,,,,,0.02,0.08,0.97,-3.0,0.1,-0.2,740,37,,,,,,,,,,,,,,,,,,,
9406212,1495396179693,0,156.6,,176.0,21,179.1,,0.01,0.08,0.97,-3.0,-0.1,-0.3,760,34,0,1,7.755,0,39.53878,-122.332184,0.0,4.61,278.8,9,2,2.3,21,3.9433,8,0.1267,30.0979,30.0883,22
9406231,1495396179712,,,,,,,,-0.0,0.07,0.98,-3.0,0.0,-0.3,760,34,,,,,,,,,,,,,,,,,,,
9406251,1495396179732,,,,,,,,-0.0,0.08,0.97,-3.0,0.0,-0.2,740,34,,,,,,,,,,,,,,,,,,,
9406271,1495396179752,,,,,,,,0.0,0.09,0.97,-3.0,-0.1,-0.2,740,43,,,,,,,,,,,,,,,,,,,
9406291,1495396179772,,,,,,,,-0.0,0.07,0.98,-3.0,-0.1,-0.3,720,43,,,,,,,,,,,,,,,,,,,
9406313,1495396179794,,,,,22,,,-0.0,0.08,0.99,-3.0,-0.1,-0.2,720,43,0,1,23.03,0,39.53878,-122.332184,0.0,4.61,278.8,9,2,2.3,21,3.9433,8,0.1267,30.0996,30.09,22
9406332,1495396179813,,,,,,,,-0.0,0.09,0.98,-3.0,-0.1,-0.1,720,43,,,,,,,,,,,,,,,,,,,
9406352,1495396179833,,,,,,,,-0.0,0.09,0.97,-3.0,-0.1,-0.1,720,43,,,,,,,,,,,,,,,,,,,
9406372,1495396179853,,,,,,,,-0.01,0.08,0.98,-2.9,-0.1,-0.2,720,12,,,,,,,,,,,,,,,,,,,
9406392,1495396179873,,,,,,,,-0.01,0.08,0.98,-3.0,-0.1,-0.2,720,12,,,,,,,,,,,,,,,,,,,
9406414,1495396179895,0,156.5,,176.0,18,178.9,,-0.01,0.08,0.98,-3.0,0.1,-0.1,700,12,0,1,16.744,0,39.53878,-122.332184,0.0,4.61,278.8,9,2,2.3,21,3.9433,8,0.1267,30.1013,30.0917,22
9406433,1495396179914,,,,,,,,-0.01,0.08,0.98,-2.9,0.0,-0.2,700,12,,,,,,,,,,,,,,,,,,,
9406453,1495396179934,,,,,,,,-0.01,0.08,0.99,-2.9,0.1,-0.2,700,12,,,,,,,,,,,,,,,,,,,
9406473,1495396179954,,,,,,,,-0.0,0.08,0.99,-2.9,0.1,-0.1,700,18,,,,,,,,,,,,,,,,,,,
9406493,1495396179974,,,,,,,,-0.0,0.08,0.98,-2.9,-0.0,-0.1,700,18,,,,,,,,,,,,,,,,,,,
9406515,1495396179996,,,,,19,,,-0.01,0.07,0.98,-2.9,0.0,-0.3,700,18,0,1,58.333,0,39.53878,-122.332184,0.0,4.61,278.8,9,2,2.3,21,3.9433,8,0.1267,30.103,30.0917,22
9406534,1495396180007,,,,,,,,-0.01,0.08,0.98,-2.9,-0.0,-0.3,700,18,,,,,,,,,,,,,,,,,,,
9406554,1495396180027,,,,,,,,-0.01,0.09,0.98,-3.0,-0.1,-0.2,700,22,,,,,,,,,,,,,,,,,,,
9406574,1495396180047,,,,,,,,-0.01,0.09,0.98,-2.9,-0.1,-0.2,700,22,,,,,,,,,,,,,,,,,,,
9406594,1495396180067,,,,,,,,-0.01,0.09,1.0,-2.9,-0.2,-0.3,700,22,,,,,,,,,,,,,,,,,,,
9406616,1495396180095,0,156.5,,176.2,17,179.2,,-0.0,0.09,1.0,-2.9,-0.0,-0.1,700,22,0,1,38.889,0,39.53878,-122.332184,0.0,4.61,278.8,9,2,2.3,21,3.9433,8,0.1267,30.1046,30.095,22
9406635,1495396180114,,,,,,,,0.0,0.1,0.99,-2.9,0.0,-0.1,700,22,,,,,,,,,,,,,,,,,,,
9406655,1495396180134,,,,,,,,-0.0,0.09,0.99,-2.9,-0.1,-0.2,700,22,,,,,,,,,,,,,,,,,,,
9406675,1495396180154,,,,,,,,-0.01,0.09,0.99,-3.0,-0.2,-0.2,700,22,,,,,,,,,,,,,,,,,,,
9406695,1495396180174,,,,,,,,-0.01,0.09,0.99,-3.0,-0.2,-0.0,700,22,,,,,,,,,,,,,,,,,,,
9406717,1495396180198,,,,,20,,,-0.01,0.1,0.99,-2.9,-0.2,-0.1,700,22,0,1,33.333,0,39.53878,-122.332184,0.0,4.61,278.8,9,2,2.3,21,3.9433,8,0.1267,30.1063,30.0967,22
9406736,1495396180217,,,,,,,,-0.01,0.1,1.0,-2.9,-0.1,-0.2,700,26,,,,,,,,,,,,,,,,,,,
9406756,1495396180237,,,,,,,,-0.0,0.09,1.0,-2.9,0.0,-0.1,700,26,,,,,,,,,,,,,,,,,,,
9406776,1495396180257,,,,,,,,-0.0,0.09,1.0,-3.0,0.0,0.0,700,32,,,,,,,,,,,,,,,,,,,
9406796,1495396180277,,,,,,,,-0.01,0.08,1.01,-2.9,-0.1,-0.1,700,32,,,,,,,,,,,,,,,,,,,
9406818,1495396180299,0,156.8,-0.6,176.8,21,179.3,13.62,-0.01,0.09,1.0,-3.0,-0.2,-0.1,700,26,0,1,26.923,0,39.53878,-122.332184,0.0,4.61,278.8,9,2,2.3,21,3.9433,8,0.1267,30.108,30.0983,22
9406837,1495396180318,,,,,,,,-0.0,0.1,0.99,-3.0,-0.2,0.0,700,26,,,,,,,,,,,,,,,,,,,
9406857,1495396180338,,,,,,,,0.0,0.1,0.98,-3.0,-0.2,0.0,700,40,,,,,,,,,,,,,,,,,,,
9406877,1495396180358,,,,,,,,0.0,0.09,0.99,-3.0,-0.2,-0.1,700,40,,,,,,,,,,,,,,,,,,,
9406897,1495396180378,,,,,,,,-0.0,0.09,0.99,-3.1,-0.1,-0.1,700,40,,,,,,,,,,,,,,,,,,,
9406919,1495396180400,,,,,21,,,-0.01,0.09,0.98,-3.1,0.0,0.0,720,29,0,1,26.923,0,39.53878,-122.332184,0.0,4.61,278.8,9,2,2.3,21,3.9433,8,0.1267,30.1097,30.1,22
9406938,1495396180419,,,,,,,,-0.01,0.09,0.98,-3.1,0.1,-0.0,700,29,,,,,,,,,,,,,,,,,,,
9406958,1495396180439,,,,,,,,-0.01,0.09,0.99,-3.1,-0.0,-0.1,700,45,,,,,,,,,,,,,,,,,,,
9406978,1495396180459,,,,,,,,0.0,0.1,0.99,-3.1,0.0,0.0,700,45,,,,,,,,,,,,,,,,,,,
9406998,1495396180479,,,,,,,,0.0,0.09,0.99,-3.1,0.0,0.0,700,32,,,,,,,,,,,,,,,,,,,
9407020,1495396180501,0,156.6,,176.7,21,179.1,,-0.0,0.08,0.99,-3.1,0.0,-0.2,700,46,0,1,24.828,0,39.53878,-122.332184,0.0,4.61,278.8,9,2,2.3,21,3.9433,8,0.1267,30.1114,30.1017,22
9407039,1495396180520,,,,,,,,-0.01,0.09,0.98,-3.2,-0.1,-0.1,700,46,,,,,,,,,,,,,,,,,,,
9407059,1495396180540,,,,,,,,-0.0,0.1,0.97,-3.2,-0.3,-0.0,700,37,,,,,,,,,,,,,,,,,,,
9407079,1495396180560,,,,,,,,0.0,0.1,0.97,-3.2,-0.3,-0.0,700,37,,,,,,,,,,,,,,,,,,,
9407099,1495396180580,,,,,,,,-0.0,0.09,0.97,-3.2,-0.3,-0.2,700,45,,,,,,,,,,,,,,,,,,,
9407121,1495396180601,,,,,17,,,-0.0,0.09,0.98,-3.3,-0.1,-0.1,700,45,0,1,15.217,0,39.53878,-122.332184,0.0,4.61,278.8,9,2,2.3,21,3.9433,8,0.1267,30.1131,30.1033,22
9407140,1495396180620,,,,,,,,-0.0,0.09,0.99,-3.3,0.1,-0.0,700,49,,,,,,,,,,,,,,,,,,,
9407160,1495396180640,,,,,,,,-0.0,0.09,0.99,-3.3,0.0,-0.1,700,37,,,,,,,,,,,,,,,,,,,
9407180,1495396180660,,,,,,,,-0.01,0.08,0.99,-3.3,-0.1,-0.1,700,37,,,,,,,,,,,,,,,,,,,
9407200,1495396180680,,,,,,,,-0.0,0.09,0.98,-3.4,-0.3,0.0,700,57,,,,,,,,,,,,,,,,,,,
9407222,1495396180702,0,156.2,,176.3,19,178.5,,0.0,0.1,0.98,-3.4,-0.3,0.0,720,57,0,1,14.286,0,39.53878,-122.332184,0.0,4.61,278.8,9,2,2.3,21,3.9433,8,0.1267,30.1147,30.105,22
9407241,1495396180721,,,,,,,,0.0,0.09,0.99,-3.4,-0.3,-0.1,700,45,,,,,,,,,,,,,,,,,,,
9407261,1495396180741,,,,,,,,-0.0,0.09,0.99,-3.5,-0.2,-0.1,700,45,,,,,,,,,,,,,,,,,,,
9407281,1495396180761,,,,,,,,-0.0,0.11,0.99,-3.5,-0.3,0.0,720,62,,,,,,,,,,,,,,,,,,,
9407301,1495396180781,,,,,,,,-0.0,0.1,0.99,-3.5,-0.3,-0.0,720,62,,,,,,,,,,,,,,,,,,,
9407323,1495396180803,,,,,19,,,-0.0,0.09,1.0,-3.4,-0.3,-0.1,720,45,0,1,16.364,0,39.53878,-122.332184,0.0,4.61,278.8,9,2,2.3,21,3.9433,8,0.1267,30.1164,30.1067,22
9407342,1495396180822,,,,,,,,-0.0,0.09,1.0,-3.5,-0.1,-0.0,720,51,,,,,,,,,,,,,,,,,,,
9407362,1495396180842,,,,,,,,-0.0,0.09,1.0,-3.5,-0.1,0.0,720,51,,,,,,,,,,,,,,,,,,,
9407382,1495396180862,,,,,,,,-0.0,0.08,1.0,-3.4,-0.2,-0.1,720,63,,,,,,,,,,,,,,,,,,,
9407402,1495396180882,,,,,,,,-0.0,0.08,0.99,-3.4,-0.2,-0.1,720,48,,,,,,,,,,,,,,,,,,,
9407424,1495396180904,0,156.5,,176.7,21,179.0,,0.0,0.09,0.99,-3.5,-0.2,-0.1,720,48,0,1,16.364,0,39.53878,-122.332184,0.0,4.61,278.8,9,2,2.3,21,3.9433,8,0.1267,30.1181,30.1083,22
9407443,1495396180923,,,,,,,,0.0,0.09,0.99,-3.5,-0.2,0.0,720,54,,,,,,,,,,,,,,,,,,,
9407463,1495396180943,,,,,,,,0.0,0.08,1.0,-3.5,-0.2,-0.1,740,65,,,,,,,,,,,,,,,,,,,
9407483,1495396180963,,,,,,,,0.0,0.08,1.0,-3.5,-0.2,-0.2,740,51,,,,,,,,,,,,,,,,,,,
9407503,1495396180983,,,,,,,,0.01,0.1,0.99,-3.5,-0.2,-0.1,740,51,,,,,,,,,,,,,,,,,,,
9407525,1495396180999,,,,,23,,,0.01,0.1,0.98,-3.5,-0.3,-0.0,740,55,0,1,13.585,0,39.53878,-122.332184,0.0,4.61,278.8,9,2,2.3,21,3.9433,8,0.1267,30.1197,30.11,22
9407544,1495396181018,,,,,,,,0.01,0.1,0.99,-3.5,-0.2,-0.2,740,69,,,,,,,,,,,,,,,,,,,
9407564,1495396181038,,,,,,,,0.0,0.1,0.99,-3.6,-0.3,-0.2,740,58,,,,,,,,,,,,,,,,,,,
9407584,1495396181058,,,,,,,,0.01,0.11,0.98,-3.6,-0.4,-0.2,740,54,,,,,,,,,,,,,,,,,,,
9407604,1495396181078,,,,,,,,0.01,0.11,0.98,-3.6,-0.3,-0.1,740,69,,,,,,,,,,,,,,,,,,,
9407626,1495396181106,0,156.3,,176.7,21,178.5,,0.01,0.1,0.98,-3.6,-0.4,-0.2,740,69,0,1,13.455,0,39.53878,-122.332184,0.0,4.61,278.8,9,2,2.3,21,3.9433,8,0.1267,30.1215,30.1117,22
9407645,1495396181125,,,,,,,,0.0,0.09,0.99,-3.6,-0.4,-0.3,740,69,,,,,,,,,,,,,,,,,,,
9407665,1495396181145,,,,,,,,0.01,0.09,1.0,-3.6,-0.3,-0.2,740,57,,,,,,,,,,,,,,,,,,,
9407685,1495396181165,,,,,,,,0.01,0.09,1.0,-3.6,-0.3,-0.1,740,63,,,,,,,,,,,,,,,,,,,
9407705,1495396181185,,,,,,,,0.01,0.09,1.0,-3.6,-0.3,-0.2,740,74,,,,,,,,,,,,,,,,,,,
9407727,1495396181207,,,,,22,,,0.0,0.09,1.0,-3.6,-0.3,-0.3,740,69,0,1,10.725,0,39.53878,-122.332184,0.0,4.61,278.8,9,2,2.3,21,3.9433,8,0.1267,30.1231,30.1133,22
9407746,1495396181226,,,,,,,,0.0,0.08,1.0,-3.6,-0.2,-0.3,740,63,,,,,,,,,,,,,,,,,,,
9407766,1495396181246,,,,,,,,0.0,0.09,0.99,-3.7,-0.2,-0.1,740,68,,,,,,,,,,,,,,,,,,,
9407786,1495396181266,,,,,,,,-0.0,0.09,1.0,-3.7,-0.2,-0.1,740,72,,,,,,,,,,,,,,,,,,,
9407806,1495396181286,,,,,,,,-0.0,0.08,1.0,-3.6,-0.3,-0.2,760,72,,,,,,,,,,,,,,,,,,,
9407828,1495396181308,0,156.7,-0.7,177.3,22,179.0,13.76,-0.01,0.08,1.0,-3.7,-0.3,-0.2,760,69,0,1,10.725,0,39.53878,-122.332184,0.0,4.61,278.8,9,2,2.3,21,3.9433,8,0.1267,30.1248,30.115,22
9407847,1495396181327,,,,,,,,0.0,0.1,0.99,-3.8,-0.3,0.0,760,68,,,,,,,,,,,,,,,,,,,
9407867,1495396181347,,,,,,,,0.01,0.1,0.98,-3.8,-0.4,0.1,760,69,,,,,,,,,,,,,,,,,,,
9407887,1495396181367,,,,,,,,0.01,0.09,0.99,-3.8,-0.4,-0.1,760,71,,,,,,,,,,,,,,,,,,,
9407907,1495396181387,,,,,,,,0.0,0.09,0.99,-3.8,-0.2,-0.2,760,71,,,,,,,,,,,,,,,,,,,
9407929,1495396181409,,,,,20,,,0.01,0.09,0.98,-3.8,-0.4,-0.1,760,72,0,1,11.343,0,39.53878,-122.332184,0.0,4.61,278.8,9,2,2.3,21,3.9433,8,0.1267,30.1265,30.1167,22
9407948,1495396181428,,,,,,,,0.01,0.09,0.99,-3.8,-0.4,-0.0,760,75,,,,,,,,,,,,,,,,,,,
9407968,1495396181448,,,,,,,,0.01,0.09,0.99,-3.8,-0.2,-0.1,760,75,,,,,,,,,,,,,,,,,,,
9407988,1495396181468,,,,,,,,0.0,0.09,0.99,-3.8,-0.3,-0.2,780,75,,,,,,,,,,,,,,,,,,,
9408008,1495396181488,,,,,,,,0.0,0.08,0.98,-3.8,-0.3,-0.2,780,77,,,,,,,,,,,,,,,,,,,
9408030,1495396181510,0,156.4,,177.0,19,178.7,,0.01,0.08,0.98,-3.9,-0.1,-0.1,760,77,0,1,10.556,0,39.53878,-122.332184,0.0,4.61,278.8,9,2,2.3,21,3.9433,8,0.1267,30.1282,30.1183,22
9408049,1495396181529,,,,,,,,0.01,0.1,0.97,-3.8,-0.4,-0.0,780,77,,,,,,,,,,,,,,,,,,,
9408069,1495396181549,,,,,,,,0.01,0.08,0.98,-3.8,-0.3,-0.2,780,80,,,,,,,,,,,,,,,,,,,
9408089,1495396181569,,,,,,,,0.0,0.08,0.99,-3.8,-0.3,-0.3,780,82,,,,,,,,,,,,,,,,,,,
9408109,1495396181589,,,,,,,,0.01,0.08,0.98,-3.8,-0.4,-0.3,780,78,,,,,,,,,,,,,,,,,,,
9408131,1495396181612,,,,,22,,,0.02,0.07,0.98,-3.9,-0.3,-0.2,780,75,0,1,10.0,0,39.53878,-122.332184,0.0,4.61,278.8,9,2,2.3,21,3.9433,8,0.1267,30.1299,30.12,22
9408150,1495396181631,,,,,,,,0.01,0.1,0.97,-3.9,-0.5,-0.0,780,85,,,,,,,,,,,,,,,,,,,
9408170,1495396181651,,,,,,,,0.01,0.08,0.97,-3.8,-0.5,-0.2,800,83,,,,,,,,,,,,,,,,,,,
9408190,1495396181671,,,,,,,,0.01,0.07,0.98,-3.8,-0.3,-0.3,800,78,,,,,,,,,,,,,,,,,,,
9408210,1495396181691,,,,,,,,0.01,0.07,0.96,-3.8,-0.4,-0.3,800,80,,,,,,,,,,,,,,,,,,,
9408232,1495396181713,0,156.8,,177.7,18,179.3,,0.02,0.07,0.97,-3.8,-0.3,-0.1,800,83,0,1,10.0,0,39.53878,-122.332184,0.0,4.61,278.8,9,2,2.3,21,3.9433,8,0.1267,30.1316,30.1217,22
9408251,1495396181732,,,,,,,,0.02,0.09,0.98,-3.8,-0.4,-0.1,800,83,,,,,,,,,,,,,,,,,,,
9408271,1495396181752,,,,,,,,0.02,0.08,0.98,-3.8,-0.3,-0.2,780,83,,,,,,,,,,,,,,,,,,,
9408291,1495396181772,,,,,,,,0.01,0.08,0.99,-3.8,-0.3,-0.3,800,83,,,,,,,,,,,,,,,,,,,
9408311,1495396181792,,,,,,,,0.01,0.08,0.98,-3.7,-0.4,-0.2,800,86,,,,,,,,,,,,,,,,,,,
9408333,1495396181814,,,,,20,,,0.01,0.08,0.98,-3.8,-0.2,-0.1,800,86,0,1,9.639,0,39.53878,-122.332184,0.0,4.61,278.8,9,2,2.3,21,3.9433,8,0.1267,30.1333,30.1233,22
9408352,1495396181833,,,,,,,,0.01,0.08,0.98,-3.8,-0.3,-0.0,800,83,,,,,,,,,,,,,,,,,,,
9408372,1495396181853,,,,,,,,0.01,0.08,0.99,-3.8,-0.1,-0.1,780,88,,,,,,,,,,,,,,,,,,,
9408392,1495396181873,,,,,,,,0.01,0.08,0.99,-3.7,-0.2,-0.3,800,91,,,,,,,,,,,,,,,,,,,
9408412,1495396181893,,,,,,,,0.0,0.07,0.99,-3.7,-0.2,-0.3,800,89,,,,,,,,,,,,,,,,,,,
9408434,1495396181915,0,156.7,,177.7,23,179.1,,0.01,0.08,0.99,-3.7,-0.1,-0.1,780,89,0,1,9.639,0,39.53878,-122.332184,0.0,4.61,278.8,9,2,2.3,21,3.9433,8,0.1267,30.135,30.125,22
9408453,1495396181934,,,,,,,,0.01,0.08,0.98,-3.7,-0.2,0.0,800,89,,,,,,,,,,,,,,,,,,,
9408473,1495396181954,,,,,,,,0.01,0.09,0.98,-3.7,-0.1,0.1,800,89,,,,,,,,,,,,,,,,,,,
9408493,1495396181974,,,,,,,,0.01,0.08,0.98,-3.7,-0.3,-0.1,800,91,,,,,,,,,,,,,,,,,,,
9408513,1495396181994,,,,,,,,0.0,0.07,0.98,-3.6,-0.2,-0.3,800,94,,,,,,,,,,,,,,,,,,,
9408535,1495396182008,,,,,22,,,0.0,0.08,0.97,-3.6,-0.1,-0.2,800,94,0,1,8.764,0,39.53878,-122.332184,0.0,4.61,278.8,9,2,2.3,21,3.9433,8,0.1267,30.1365,30.1267,22
9408554,1495396182027,,,,,,,,0.01,0.08,0.97,-3.7,-0.1,-0.1,800,89,,,,,,,,,,,,,,,,,,,
9408574,1495396182047,,,,,,,,0.01,0.1,0.98,-3.7,-0.1,-0.0,800,89,,,,,,,,,,,,,,,,,,,
9408594,1495396182067,,,,,,,,0.01,0.09,0.98,-3.6,-0.2,-0.1,780,94,,,,,,,,,,,,,,,,,,,
9408614,1495396182095,,,,,,,,0.01,0.08,0.98,-3.5,-0.3,-0.2,800,95,,,,,,,,,,,,,,,,,,,
9408636,1495396182117,0,156.8,,177.6,20,178.9,,0.01,0.09,0.97,-3.5,-0.4,-0.2,800,92,0,1,8.696,0,39.53878,-122.332184,0.0,4.61,278.8,9,2,2.3,21,3.9433,8,0.1267,30.1383,30.1283,22
9408655,1495396182136,,,,,,,,0.01,0.1,0.97,-3.5,-0.3,-0.1,800,94,,,,,,,,,,,,,,,,,,,
9408675,1495396182156,,,,,,,,0.01,0.11,0.98,-3.5,-0.4,0.0,780,98,,,,,,,,,,,,,,,,,,,
9408695,1495396182176,,,,,,,,0.01,0.1,0.99,-3.5,-0.3,-0.1,780,100,,,,,,,,,,,,,,,,,,,
9408715,1495396182196,,,,,,,,0.01,0.1,0.99,-3.5,-0.3,-0.2,780,94,,,,,,,,,,,,,,,,,,,
9408737,1495396182218,,,,,21,,,0.0,0.09,0.98,-3.5,-0.4,-0.2,780,97,0,1,8.696,0,39.53878,-122.332184,0.0,4.61,278.8,9,2,2.3,21,3.9433,8,0.1267,30.14,30.13,22
9408756,1495396182237,,,,,,,,0.01,0.1,0.97,-3.5,-0.3,-0.1,780,102,,,,,,,,,,,,,,,,,,,
9408776,1495396182257,,,,,,,,0.01,0.11,0.98,-3.5,-0.4,0.0,780,100,,,,,,,,,,,,,,,,,,,
9408796,1495396182277,,,,,,,,0.01,0.1,0.99,-3.5,-0.3,-0.1,800,98,,,,,,,,,,,,,,,,,,,
9408816,1495396182297,,,,,,,,0.0,0.1,1.0,-3.4,-0.4,-0.3,780,100,,,,,,,,,,,,,,,,,,,
9408838,1495396182319,0,156.7,-0.5,177.5,21,178.6,13.82,0.0,0.09,0.99,-3.4,-0.5,-0.3,780,98,0,1,8.125,0,39.53878,-122.332184,0.0,4.61,278.8,9,2,2.3,21,3.9433,8,0.1267,30.1417,30.1317,22
9408857,1495396182338,,,,,,,,0.0,0.1,0.99,-3.4,-0.3,-0.2,780,98,,,,,,,,,,,,,,,,,,,
9408877,1495396182358,,,,,,,,0.01,0.1,0.98,-3.4,-0.4,-0.1,780,100,,,,,,,,,,,,,,,,,,,
9408897,1495396182378,,,,,,,,0.01,0.1,1.0,-3.4,-0.3,-0.1,780,100,,,,,,,,,,,,,,,,,,,
9408917,1495396182398,,,,,,,,0.0,0.1,0.99,-3.3,-0.4,-0.3,800,98,,,,,,,,,,,,,,,,,,,
9408939,1495396182420,,,,,21,,,0.01,0.09,0.99,-3.3,-0.3,-0.4,800,95,0,1,7.959,0,39.53878,-122.332184,0.0,4.61,278.8,9,2,2.3,21,3.9433,8,0.1267,30.1434,30.1333,22
9408958,1495396182439,,,,,,,,0.01,0.1,0.98,-3.3,-0.2,-0.3,800,97,,,,,,,,,,,,,,,,,,,
9408978,1495396182459,,,,,,,,0.02,0.1,0.97,-3.3,-0.3,-0.2,800,102,,,,,,,,,,,,,,,,,,,
9408998,1495396182479,,,,,,,,0.01,0.11,0.97,-3.3,-0.2,-0.2,800,105,,,,,,,,,,,,,,,,,,,
9409018,1495396182499,,,,,,,,0.01,0.1,0.97,-3.3,-0.3,-0.3,800,105,,,,,,,,,,,,,,,,,,,
9409040,1495396182521,0,156.7,,177.8,24,178.8,,0.01,0.09,0.98,-3.3,-0.2,-0.4,800,103,0,1,8.421,0,39.53878,-122.332184,0.0,4.61,278.8,9,2,2.3,21,3.9433,8,0.1267,30.1451,30.135,22
9409059,1495396182540,,,,,,,,0.01,0.09,0.96,-3.3,-0.2,-0.4,800,103,,,,,,,,,,,,,,,,,,,
9409079,1495396182560,,,,,,,,0.02,0.09,0.98,-3.4,-0.1,-0.3,820,100,,,,,,,,,,,,,,,,,,,
9409099,1495396182580,,,,,,,,0.02,0.1,0.99,-3.3,-0.2,-0.2,820,102,,,,,,,,,,,,,,,,,,,
9409119,1495396182599,,,,,,,,0.02,0.1,0.99,-3.3,-0.1,-0.3,820,105,,,,,,,,,,,,,,,,,,,
9409141,1495396182621,,,,,24,,,0.01,0.09,0.99,-3.2,-0.3,-0.5,820,106,0,1,7.767,0,39.53878,-122.332184,0.0,4.61,278.8,9,2,2.3,21,3.9433,8,0.1267,30.1467,30.1367,22
9409160,1495396182640,,,,,,,,0.01,0.08,0.99,-3.2,-0.3,-0.5,820,102,,,,,,,,,,,,,,,,,,,
9409180,1495396182660,,,,,,,,0.01,0.09,0.98,-3.2,-0.2,-0.5,820,100,,,,,,,,,,,,,,,,,,,
9409200,1495396182680,,,,,,,,0.02,0.09,0.99,-3.2,-0.2,-0.4,820,103,,,,,,,,,,,,,,,,,,,
9409220,1495396182700,,,,,,,,0.03,0.1,1.0,-3.3,-0.4,-0.3,820,103,,,,,,,,,,,,,,,,,,,
9409242,1495396182722,0,156.8,,178.1,26,179.0,,0.02,0.1,0.99,-3.2,-0.2,-0.3,820,103,0,1,7.736,0,39.53878,-122.332184,0.0,4.61,278.8,9,2,2.3,21,3.9433,8,0.1267,30.1484,30.1383,22
9409261,1495396182741,,,,,,,,0.03,0.09,0.99,-3.2,-0.2,-0.4,820,106,,,,,,,,,,,,,,,,,,,
9409281,1495396182761,,,,,,,,0.02,0.09,1.0,-3.3,-0.3,-0.5,820,106,,,,,,,,,,,,,,,,,,,
9409301,1495396182781,,,,,,,,0.02,0.08,0.98,-3.2,-0.2,-0.4,820,103,,,,,,,,,,,,,,,,,,,
9409321,1495396182801,,,,,,,,0.03,0.09,0.99,-3.3,-0.1,-0.3,820,105,,,,,,,,,,,,,,,,,,,
9409343,1495396182823,,,,,25,,,0.03,0.1,0.99,-3.3,-0.4,-0.2,800,106,0,1,7.885,0,39.53878,-122.332184,0.0,4.61,278.8,9,2,2.3,21,3.9433,8,0.1267,30.1501,30.14,22
9409362,1495396182842,,,,,,,,0.02,0.11,0.99,-3.3,-0.4,-0.2,840,108,,,,,,,,,,,,,,,,,,,
9409382,1495396182862,,,,,,,,0.02,0.1,1.0,-3.3,-0.3,-0.2,820,106,,,,,,,,,,,,,,,,,,,
9409402,1495396182882,,,,,,,,0.02,0.1,1.0,-3.2,-0.7,-0.3,820,106,,,,,,,,,,,,,,,,,,,
9409422,1495396182902,,,,,,,,0.02,0.09,1.0,-3.2,-0.7,-0.3,820,106,,,,,,,,,,,,,,,,,,,
9409444,1495396182924,0,156.8,,178.1,21,178.4,,0.02,0.09,0.98,-3.2,-0.4,-0.2,820,105,0,1,7.477,0,39.53878,-122.332184,0.0,4.61,278.8,9,2,2.3,21,3.9433,8,0.1267,30.1518,30.1417,22
9409463,1495396182943,,,,,,,,0.02,0.09,1.0,-3.2,-0.5,-0.3,820,105,,,,,,,,,,,,,,,,,,,
9409483,1495396182963,,,,,,,,0.02,0.1,1.01,-3.3,-0.6,-0.3,820,108,,,,,,,,,,,,,,,,,,,
9409503,1495396182983,,,,,,,,0.02,0.1,1.02,-3.2,-0.5,-0.4,820,108,,,,,,,,,,,,,,,,,,,
9409523,1495396182995,,,,,,,,0.02,0.09,1.01,-3.2,-0.8,-0.6,820,108,,,,,,,,,,,,,,,,,,,
9409545,1495396183017,,,,,23,,,0.01,0.08,1.0,-3.2,-0.7,-0.7,820,111,0,1,7.885,0,39.53878,-122.332184,0.0,4.61,278.8,9,2,2.3,21,3.9433,8,0.1267,30.1533,30.1433,22
9409564,1495396183036,,,,,,,,0.01,0.08,0.99,-3.2,-0.6,-0.7,820,111,,,,,,,,,,,,,,,,,,,
9409584,1495396183056,,,,,,,,0.02,0.08,1.0,-3.3,-0.5,-0.6,820,109,,,,,,,,,,,,,,,,,,,
9409604,1495396183076,,,,,,,,0.03,0.09,1.01,-3.3,-0.5,-0.5,820,109,,,,,,,,,,,,,,,,,,,
9409624,1495396183104,,,,,,,,0.03,0.09,1.0,-3.3,-0.2,-0.5,820,112,,,,,,,,,,,,,,,,,,,
9409646,1495396183126,0,156.4,,177.5,23,179.1,,0.02,0.08,0.99,-3.2,-0.3,-0.5,820,112,0,1,7.455,0,39.53878,-122.332184,0.0,4.61,278.8,9,2,2.3,21,3.9433,8,0.1267,30.1551,30.145,22
9409665,1495396183145,,,,,,,,0.02,0.08,1.0,-3.2,-0.4,-0.6,820,109,,,,,,,,,,,,,,,,,,,
9409685,1495396183165,,,,,,,,0.02,0.07,0.99,-3.1,-0.3,-0.5,820,109,,,,,,,,,,,,,,,,,,,
9409705,1495396183185,,,,,,,,0.02,0.08,0.98,-3.2,-0.2,-0.3,820,109,,,,,,,,,,,,,,,,,,,
9409725,1495396183205,,,,,,,,0.03,0.08,0.98,-3.1,-0.4,-0.2,820,109,,,,,,,,,,,,,,,,,,,
9409747,1495396183227,,,,,26,,,0.02,0.09,0.98,-3.1,-0.3,-0.1,820,109,0,1,7.321,0,39.53878,-122.332184,0.0,4.61,278.8,9,2,2.3,21,3.9433,8,0.1267,30.1568,30.1467,22
9409766,1495396183246,,,,,,,,0.03,0.1,0.98,-3.1,-0.4,-0.2,820,111,,,,,,,,,,,,,,,,,,,
9409786,1495396183266,,,,,,,,0.03,0.09,0.99,-3.1,-0.5,-0.3,820,111,,,,,,,,,,,,,,,,,,,
9409806,1495396183286,,,,,,,,0.02,0.09,0.98,-3.1,-0.4,-0.2,820,109,,,,,,,,,,,,,,,,,,,
9409826,1495396183306,,,,,,,,0.02,0.1,0.97,-3.2,-0.2,-0.1,840,111,,,,,,,,,,,,,,,,,,,
9409848,1495396183328,0,156.8,-0.3,178.3,20,178.3,13.98,0.03,0.08,0.97,-3.2,-0.2,-0.0,800,112,0,1,7.523,0,39.53878,-122.332184,0.0,4.61,278.8,9,2,2.3,21,3.9433,8,0.1267,30.1585,30.1483,22
9409867,1495396183347,,,,,,,,0.02,0.09,0.98,-3.2,-0.2,-0.0,820,111,,,,,,,,,,,,,,,,,,,
9409887,1495396183367,,,,,,,,0.03,0.09,0.99,-3.2,-0.2,-0.2,820,111,,,,,,,,,,,,,,,,,,,
9409907,1495396183387,,,,,,,,0.02,0.08,1.0,-3.2,-0.4,-0.3,820,112,,,,,,,,,,,,,,,,,,,
9409927,1495396183409,,,,,,,,0.02,0.08,0.99,-3.1,-0.3,-0.3,820,112,,,,,,,,,,,,,,,,,,,
9409949,1495396183431,,,,,26,,,0.02,0.08,0.98,-3.2,-0.2,-0.1,820,111,0,1,7.143,0,39.53878,-122.332184,0.0,4.61,278.8,9,2,2.3,21,3.9433,8,0.1267,30.1602,30.15,22
9409968,1495396183450,,,,,,,,0.03,0.09,0.99,-3.2,-0.2,0.0,820,111,,,,,,,,,,,,,,,,,,,
9409988,1495396183470,,,,,,,,0.03,0.1,0.99,-3.2,-0.4,0.1,820,114,,,,,,,,,,,,,,,,,,,
9410008,1495396183490,,,,,,,,0.03,0.09,1.0,-3.2,-0.3,-0.0,820,114,,,,,,,,,,,,,,,,,,,
9410028,1495396183509,,,,,,,,0.03,0.09,1.01,-3.1,-0.5,-0.1,820,112,,,,,,,,,,,,,,,,,,,
9410050,1495396183531,0,156.7,,178.0,22,178.8,,0.02,0.08,1.0,-3.1,-0.5,-0.2,820,112,0,1,7.455,0,39.53878,-122.332184,0.0,4.61,278.8,9,2,2.3,21,3.9433,8,0.1267,30.1619,30.1517,22
9410069,1495396183550,,,,,,,,0.02,0.09,0.98,-3.2,-0.3,0.0,800,114,,,,,,,,,,,,,,,,,,,
9410089,1495396183570,,,,,,,,0.03,0.09,0.99,-3.2,-0.2,0.1,820,112,,,,,,,,,,,,,,,,,,,
9410109,1495396183590,,,,,,,,0.03,0.09,1.0,-3.2,-0.3,0.1,800,114,,,,,,,,,,,,,,,,,,,
9410129,1495396183608,,,,,,,,0.03,0.09,1.0,-3.2,-0.2,-0.0,800,115,,,,,,,,,,,,,,,,,,,
9410151,1495396183630,,,,,23,,,0.02,0.08,1.0,-3.1,-0.3,-0.2,800,115,0,1,7.143,0,39.538742,-122.332199,0.97,4.61,235.4,9,2,2.3,21,3.9433,8,0.1267,30.1619,30.1533,22
9410170,1495396183649,,,,,,,,0.02,0.07,0.99,-3.1,-0.2,-0.2,800,114,,,,,,,,,,,,,,,,,,,
9410190,1495396183669,,,,,,,,0.02,0.09,0.98,-3.2,-0.0,-0.1,800,115,,,,,,,,,,,,,,,,,,,
9410210,1495396183691,,,,,,,,0.02,0.09,0.99,-3.2,-0.2,0.0,800,118,,,,,,,,,,,,,,,,,,,
9410230,1495396183711,,,,,,,,0.02,0.09,1.0,-3.2,-0.0,-0.0,780,114,,,,,,,,,,,,,,,,,,,
9410252,1495396183733,0,157.0,,178.5,25,178.0,,0.01,0.1,1.0,-3.1,-0.2,-0.2,800,112,0,1,6.957,0,39.538742,-122.332199,1.09,4.61,235.5,9,2,2.3,21,3.9433,8,0.1267,30.1636,30.155,22
9410271,1495396183752,,,,,,,,0.01,0.08,1.0,-3.1,-0.1,-0.3,800,118,,,,,,,,,,,,,,,,,,,
9410291,1495396183772,,,,,,,,0.01,0.09,0.99,-3.2,-0.1,-0.2,800,120,,,,,,,,,,,,,,,,,,,
9410311,1495396183792,,,,,,,,0.01,0.09,0.99,-3.2,-0.1,-0.0,800,117,,,,,,,,,,,,,,,,,,,
9410331,1495396183812,,,,,,,,0.01,0.1,0.99,-3.2,-0.0,-0.0,780,115,,,,,,,,,,,,,,,,,,,
9410353,1495396183834,,,,,23,,,0.01,0.09,0.99,-3.2,-0.1,-0.1,800,120,0,1,7.08,0,39.538742,-122.332199,1.07,4.61,235.5,9,2,2.3,21,3.9433,8,0.1267,30.1653,30.1567,22
9410372,1495396183853,,,,,,,,0.0,0.08,0.99,-3.2,-0.2,-0.2,800,123,,,,,,,,,,,,,,,,,,,
9410392,1495396183873,,,,,,,,0.01,0.08,0.98,-3.2,-0.2,-0.1,800,120,,,,,,,,,,,,,,,,,,,
9410412,1495396183893,,,,,,,,0.01,0.09,0.97,-3.2,-0.1,0.0,800,120,,,,,,,,,,,,,,,,,,,
9410432,1495396183913,,,,,,,,0.02,0.1,0.98,-3.2,-0.2,0.1,780,125,,,,,,,,,,,,,,,,,,,
9410454,1495396183935,0,156.9,,178.3,22,178.3,,0.02,0.09,0.98,-3.2,-0.2,-0.1,800,125,0,1,6.667,0,39.538742,-122.332199,1.09,4.61,235.5,9,2,2.3,21,3.9433,8,0.1267,30.167,30.1583,22
9410473,1495396183954,,,,,,,,0.01,0.09,0.98,-3.1,-0.3,-0.2,780,122,,,,,,,,,,,,,,,,,,,
9410493,1495396183974,,,,,,,,0.01,0.09,0.99,-3.1,-0.3,-0.2,780,123,,,,,,,,,,,,,,,,,,,
9410513,1495396183994,,,,,,,,0.01,0.1,0.98,-3.2,-0.1,0.0,800,125,,,,,,,,,,,,,,,,,,,
9410533,1495396184006,,,,,,,,0.02,0.1,0.98,-3.2,-0.2,0.1,780,122,,,,,,,,,,,,,,,,,,,
9410555,1495396184028,,,,,22,,,0.01,0.1,0.99,-3.2,-0.1,0.0,800,122,0,1,6.504,0,39.538742,-122.332199,1.0,4.61,235.6,9,2,1.9,21,3.9433,8,0.1267,30.1685,30.16,22
9410574,1495396184047,,,,,,,,0.01,0.09,1.0,-3.2,-0.2,-0.1,800,128,,,,,,,,,,,,,,,,,,,
9410594,1495396184067,,,,,,,,0.0,0.09,0.99,-3.1,-0.1,-0.2,800,129,,,,,,,,,,,,,,,,,,,
9410614,1495396184095,,,,,,,,0.01,0.1,0.99,-3.2,0.0,0.0,800,126,,,,,,,,,,,,,,,,,,,
9410634,1495396184115,,,,,,,,0.01,0.1,0.98,-3.2,-0.1,0.1,780,126,,,,,,,,,,,,,,,,,,,
9410656,1495396184137,0,156.5,,177.9,21,179.0,,0.01,0.1,0.99,-3.2,0.1,0.1,800,131,0,1,6.452,0,39.538742,-122.332199,0.0,4.61,235.6,9,2,1.9,21,3.9433,8,0.1267,30.1703,30.1617,22
9410675,1495396184156,,,,,,,,0.01,0.1,0.99,-3.1,-0.1,-0.1,780,128,,,,,,,,,,,,,,,,,,,
9410695,1495396184176,,,,,,,,-0.0,0.09,0.99,-3.1,-0.0,-0.1,800,125,,,,,,,,,,,,,,,,,,,
9410715,1495396184194,,,,,,,,-0.0,0.09,0.98,-3.1,0.0,0.0,800,129,,,,,,,,,,,,,,,,,,,
9410735,1495396184214,,,,,,,,0.01,0.09,0.97,-3.2,0.0,0.1,780,132,,,,,,,,,,,,,,,,,,,
9410757,1495396184236,,,,,23,,,0.01,0.11,0.97,-3.2,0.0,0.1,800,131,0,1,6.154,0,39.538742,-122.332199,0.99,4.61,235.4,9,2,1.9,21,3.9433,8,0.1267,30.172,30.1633,22
9410776,1495396184255,,,,,,,,0.01,0.09,0.98,-3.2,-0.1,-0.0,780,128,,,,,,,,,,,,,,,,,,,
9410796,1495396184275,,,,,,,,0.0,0.08,0.98,-3.2,-0.1,-0.2,800,132,,,,,,,,,,,,,,,,,,,
9410816,1495396184297,,,,,,,,-0.0,0.09,0.97,-3.2,-0.1,-0.1,800,135,,,,,,,,,,,,,,,,,,,
9410836,1495396184317,,,,,,,,0.01,0.09,0.98,-3.3,0.1,0.0,800,134,,,,,,,,,,,,,,,,,,,
9410858,1495396184339,0,156.8,-0.4,178.3,23,178.3,13.92,0.01,0.1,0.98,-3.3,-0.0,0.0,780,132,0,1,6.299,0,39.538742,-122.332199,0.0,4.61,235.4,9,2,1.9,21,3.9433,8,0.1267,30.1737,30.165,22
9410877,1495396184358,,,,,,,,0.01,0.1,0.99,-3.2,0.0,-0.1,780,135,,,,,,,,,,,,,,,,,,,
9410897,1495396184378,,,,,,,,-0.0,0.1,0.99,-3.2,-0.1,-0.2,800,137,,,,,,,,,,,,,,,,,,,
9410917,1495396184398,,,,,,,,-0.0,0.09,0.98,-3.2,-0.1,-0.1,800,135,,,,,,,,,,,,,,,,,,,
9410937,1495396184418,,,,,,,,0.01,0.1,0.98,-3.2,-0.0,0.0,780,134,,,,,,,,,,,,,,,,,,,
9410959,1495396184440,,,,,22,,,0.01,0.11,0.99,-3.2,-0.2,0.1,780,137,0,1,5.909,0,39.538742,-122.332199,0.0,4.61,235.4,9,2,1.9,21,3.9433,8,0.1267,30.1754,30.1667,22
9410978,1495396184459,,,,,,,,0.01,0.1,0.99,-3.2,-0.1,-0.0,780,137,,,,,,,,,,,,,,,,,,,
9410998,1495396184479,,,,,,,,-0.0,0.1,0.99,-3.2,-0.2,-0.2,780,135,,,,,,,,,,,,,,,,,,,
9411018,1495396184499,,,,,,,,-0.0,0.09,0.99,-3.2,-0.3,-0.2,780,135,,,,,,,,,,,,,,,,,,,
9411038,1495396184519,,,,,,,,0.0,0.1,0.99,-3.2,-0.1,-0.0,780,138,,,,,,,,,,,,,,,,,,,
9411060,1495396184541,0,156.3,,177.8,21,178.6,,0.01,0.11,0.98,-3.2,-0.2,0.1,800,142,0,1,5.735,0,39.538742,-122.332199,0.92,4.61,235.6,9,2,1.9,21,3.9433,8,0.1267,30.1771,30.1683,22
9411079,1495396184560,,,,,,,,0.01,0.11,0.99,-3.2,0.0,0.0,780,142,,,,,,,,,,,,,,,,,,,
9411099,1495396184580,,,,,,,,0.0,0.11,0.99,-3.2,-0.1,-0.1,780,142,,,,,,,,,,,,,,,,,,,
9411119,1495396184599,,,,,,,,-0.0,0.1,0.99,-3.2,-0.3,-0.1,780,140,,,,,,,,,,,,,,,,,,,
9411139,1495396184619,,,,,,,,0.0,0.11,0.98,-3.3,-0.1,0.0,780,142,,,,,,,,,,,,,,,,,,,
9411161,1495396184641,,,,,24,,,0.0,0.11,0.98,-3.3,-0.3,0.0,780,143,0,1,5.674,0,39.538742,-122.332199,0.0,4.61,235.6,9,2,1.9,21,3.9433,8,0.1267,30.1787,30.17,22
9411180,1495396184660,,,,,,,,0.0,0.11,0.99,-3.2,-0.1,-0.1,780,145,,,,,,,,,,,,,,,,,,,
9411200,1495396184680,,,,,,,,-0.0,0.11,0.99,-3.2,-0.2,-0.2,780,140,,,,,,,,,,,,,,,,,,,
9411220,1495396184700,,,,,,,,-0.0,0.1,0.99,-3.2,-0.2,-0.2,780,138,,,,,,,,,,,,,,,,,,,
9411240,1495396184720,,,,,,,,0.01,0.1,0.99,-3.3,0.0,-0.0,780,146,,,,,,,,,,,,,,,,,,,
9411262,1495396184742,0,156.7,,178.1,24,178.7,,0.01,0.11,0.99,-3.3,-0.2,0.1,780,151,0,1,5.417,0,39.538742,-122.332199,0.0,4.61,235.6,9,2,1.9,21,3.9433,8,0.1267,30.1804,30.1717,22
9411281,1495396184761,,,,,,,,0.01,0.11,0.99,-3.3,-0.0,0.0,780,145,,,,,,,,,,,,,,,,,,,
9411301,1495396184781,,,,,,,,0.0,0.11,0.99,-3.3,-0.2,-0.1,780,142,,,,,,,,,,,,,,,,,,,
9411321,1495396184801,,,,,,,,0.0,0.1,0.98,-3.3,-0.3,-0.1,780,148,,,,,,,,,,,,,,,,,,,
9411341,1495396184821,,,,,,,,0.01,0.1,0.98,-3.3,-0.1,0.0,780,152,,,,,,,,,,,,,,,,,,,
9411363,1495396184843,,,,,24,,,0.01,0.12,0.98,-3.3,-0.3,0.1,780,146,0,1,5.2,0,39.538742,-122.332199,1.16,4.61,236.1,9,2,1.9,21,3.9433,8,0.1267,30.1821,30.1733,22
9411382,1495396184862,,,,,,,,0.01,0.11,0.99,-3.3,-0.1,-0.0,760,142,,,,,,,,,,,,,,,,,,,
9411402,1495396184882,,,,,,,,0.0,0.11,0.99,-3.3,-0.1,-0.1,780,143,,,,,,,,,,,,,,,,,,,
9411422,1495396184902,,,,,,,,0.0,0.1,0.98,-3.3,-0.2,-0.1,780,149,,,,,,,,,,,,,,,,,,,
9411442,1495396184922,,,,,,,,0.01,0.1,0.99,-3.3,0.0,-0.0,780,151,,,,,,,,,,,,,,,,,,,
9411464,1495396184944,0,156.7,,178.1,22,178.5,,0.01,0.12,0.99,-3.3,-0.1,0.0,780,149,0,1,5.342,0,39.538742,-122.332199,1.06,4.61,236.3,9,2,1.9,21,3.9433,8,0.1267,30.1838,30.175,22
9411483,1495396184963,,,,,,,,0.01,0.1,1.0,-3.3,-0.1,-0.2,760,151,,,,,,,,,,,,,,,,,,,
9411503,1495396184983,,,,,,,,0.0,0.1,1.0,-3.3,0.0,-0.3,760,151,,,,,,,,,,,,,,,,,,,
9411523,1495396184997,,,,,,,,0.0,0.1,0.98,-3.3,-0.1,-0.2,780,152,,,,,,,,,,,,,,,,,,,
9411543,1495396185017,,,,,,,,0.01,0.09,0.98,-3.3,-0.0,-0.1,760,152,,,,,,,,,,,,,,,,,,,
9411565,1495396185039,,,,,20,,,0.01,0.1,0.99,-3.3,0.1,-0.1,760,154,0,1,5.235,0,39.538742,-122.332199,1.07,4.61,236.5,9,2,1.9,21,3.9433,8,0.1267,30.1854,30.1767,22
9411584,1495396185058,,,,,,,,0.01,0.09,0.99,-3.3,-0.2,-0.3,760,151,,,,,,,,,,,,,,,,,,,
9411604,1495396185078,,,,,,,,0.01,0.07,1.0,-3.3,0.0,-0.4,760,148,,,,,,,,,,,,,,,,,,,
9411624,1495396185104,,,,,,,,0.01,0.1,0.99,-3.3,0.0,-0.3,760,152,,,,,,,,,,,,,,,,,,,
9411644,1495396185124,,,,,,,,0.01,0.09,1.0,-3.3,-0.2,-0.2,760,157,,,,,,,,,,,,,,,,,,,
9411666,1495396185146,0,156.4,,177.7,22,178.3,,0.01,0.08,1.0,-3.2,0.0,-0.3,780,155,0,1,5.0,0,39.538742,-122.332199,1.09,4.61,236.9,9,2,1.9,21,3.9433,8,0.1267,30.1871,30.1783,22
9411685,1495396185165,,,,,,,,0.01,0.08,1.01,-3.2,-0.2,-0.4,760,154,,,,,,,,,,,,,,,,,,,
9411705,1495396185185,,,,,,,,0.01,0.07,1.0,-3.2,-0.2,-0.4,760,157,,,,,,,,,,,,,,,,,,,
9411725,1495396185205,,,,,,,,0.01,0.09,0.99,-3.2,-0.0,-0.1,780,158,,,,,,,,,,,,,,,,,,,
9411745,1495396185225,,,,,,,,0.01,0.1,0.98,-3.2,-0.3,-0.0,780,154,,,,,,,,,,,,,,,,,,,
9411767,1495396185247,,,,,22,,,0.01,0.08,0.99,-3.2,-0.3,-0.2,780,154,0,1,5.098,0,39.538742,-122.332199,1.15,4.61,237.4,9,2,1.9,21,3.9433,8,0.1267,30.1888,30.18,22
9411786,1495396185266,,,,,,,,0.0,0.09,0.99,-3.2,-0.4,-0.3,780,155,,,,,,,,,,,,,,,,,,,
9411806,1495396185286,,,,,,,,0.01,0.08,0.98,-3.2,-0.6,-0.3,780,158,,,,,,,,,,,,,,,,,,,
9411826,1495396185306,,,,,,,,0.02,0.09,0.98,-3.3,-0.4,-0.2,780,155,,,,,,,,,,,,,,,,,,,
9411846,1495396185326,,,,,,,,0.01,0.11,0.98,-3.3,-0.4,-0.1,760,155,,,,,,,,,,,,,,,,,,,
9411868,1495396185348,0,156.8,-0.4,178.6,21,177.9,13.96,0.01,0.08,0.98,-3.3,-0.6,-0.3,780,160,0,1,5.098,0,39.538742,-122.332199,0.0,4.61,237.4,9,2,1.9,21,3.9433,8,0.1267,30.1905,30.1817,22
9411887,1495396185367,,,,,,,,0.01,0.08,0.99,-3.3,-0.4,-0.3,780,162,,,,,,,,,,,,,,,,,,,
9411907,1495396185387,,,,,,,,0.0,0.09,0.98,-3.3,-0.4,-0.2,780,160,,,,,,,,,,,,,,,,,,,
9411927,1495396185407,,,,,,,,0.01,0.09,0.98,-3.3,-0.3,-0.0,780,160,,,,,,,,,,,,,,,,,,,
9411947,1495396185427,,,,,,,,0.01,0.11,0.99,-3.4,-0.0,0.0,780,162,,,,,,,,,,,,,,,,,,,
9411969,1495396185449,,,,,22,,,0.0,0.1,0.99,-3.3,-0.3,-0.2,800,162,0,1,4.875,0,39.538742,-122.332199,0.0,4.61,237.4,9,2,1.9,21,3.9433,8,0.1267,30.1922,30.1833,22
9411988,1495396185468,,,,,,,,0.0,0.09,0.99,-3.3,-0.0,-0.4,780,162,,,,,,,,,,,,,,,,,,,
9412008,1495396185488,,,,,,,,0.0,0.1,0.98,-3.3,0.1,-0.3,780,165,,,,,,,,,,,,,,,,,,,
9412028,1495396185506,,,,,,,,0.01,0.1,0.98,-3.2,-0.0,-0.3,780,166,,,,,,,,,,,,,,,,,,,
9412048,1495396185526,,,,,,,,0.01,0.12,0.98,-3.3,0.1,-0.3,800,163,,,,,,,,,,,,,,,,,,,
9412070,1495396185548,0,156.8,,178.3,22,177.8,,0.01,0.11,0.98,-3.2,-0.1,-0.3,780,162,0,1,4.969,0,39.538742,-122.332199,1.55,4.611,238.6,9,2,1.9,21,3.9433,8,0.1267,30.1938,30.185,22
9412089,1495396185567,,,,,,,,0.01,0.1,0.99,-3.2,-0.1,-0.4,780,166,,,,,,,,,,,,,,,,,,,
9412109,1495396185587,,,,,,,,0.01,0.1,0.99,-3.2,-0.2,-0.3,780,169,,,,,,,,,,,,,,,,,,,
9412129,1495396185606,,,,,,,,0.02,0.09,1.0,-3.3,-0.3,-0.2,800,165,,,,,,,,,,,,,,,,,,,
9412149,1495396185626,,,,,,,,0.02,0.11,1.0,-3.3,-0.4,-0.2,780,160,,,,,,,,,,,,,,,,,,,
9412171,1495396185648,,,,,22,,,0.02,0.1,0.99,-3.3,-0.5,-0.3,780,160,0,1,4.785,0,39.538742,-122.332199,1.53,4.611,239.2,9,2,1.9,21,3.9433,8,0.1267,30.1955,30.1867,22
9412190,1495396185667,,,,,,,,0.01,0.09,0.99,-3.3,-0.6,-0.3,800,163,,,,,,,,,,,,,,,,,,,
9412210,1495396185687,,,,,,,,0.02,0.09,0.98,-3.3,-0.7,-0.2,800,166,,,,,,,,,,,,,,,,,,,
9412230,1495396185709,,,,,,,,0.02,0.09,0.98,-3.3,-0.6,-0.0,800,169,,,,,,,,,,,,,,,,,,,
9412250,1495396185729,,,,,,,,0.03,0.11,0.98,-3.3,-0.7,0.1,780,168,,,,,,,,,,,,,,,,,,,
9412272,1495396185751,0,156.9,,178.6,22,177.7,,0.03,0.09,0.98,-3.2,-0.7,-0.0,800,165,0,1,4.845,0,39.538742,-122.332199,1.56,4.611,239.5,9,2,1.9,21,3.9433,8,0.1267,30.1972,30.1883,22
9412291,1495396185770,,,,,,,,0.02,0.09,0.99,-3.2,-0.8,-0.1,800,162,,,,,,,,,,,,,,,,,,,
9412311,1495396185790,,,,,,,,0.02,0.08,0.99,-3.2,-0.8,-0.1,800,166,,,,,,,,,,,,,,,,,,,
9412331,1495396185808,,,,,,,,0.03,0.09,0.98,-3.2,-0.5,0.0,780,169,,,,,,,,,,,,,,,,,,,
9412351,1495396185828,,,,,,,,0.03,0.1,0.98,-3.2,-0.6,0.1,800,166,,,,,,,,,,,,,,,,,,,
9412373,1495396185850,,,,,22,,,0.03,0.1,0.99,-3.3,-0.4,0.1,800,163,0,1,4.969,0,39.538742,-122.332199,1.67,4.611,239.7,9,2,1.9,21,3.9433,8,0.1267,30.1989,30.19,22
9412392,1495396185869,,,,,,,,0.03,0.1,0.99,-3.2,-0.5,-0.1,800,166,,,,,,,,,,,,,,,,,,,
9412412,1495396185891,,,,,,,,0.02,0.09,0.99,-3.2,-0.4,-0.1,800,171,,,,,,,,,,,,,,,,,,,
9412432,1495396185911,,,,,,,,0.02,0.09,0.98,-3.3,-0.3,-0.1,800,171,,,,,,,,,,,,,,,,,,,
9412452,1495396185931,,,,,,,,0.03,0.09,0.98,-3.3,-0.3,-0.0,800,168,,,,,,,,,,,,,,,,,,,
9412474,1495396185953,0,156.9,,178.5,24,177.5,,0.03,0.1,0.98,-3.3,-0.2,0.0,800,166,0,1,4.908,0,39.538742,-122.332199,2.0,4.611,240.6,9,2,1.9,21,3.9433,8,0.1267,30.2006,30.1917,22
9412493,1495396185972,,,,,,,,0.02,0.09,0.99,-3.2,-0.2,-0.1,800,165,,,,,,,,,,,,,,,,,,,
9412513,1495396185992,,,,,,,,0.02,0.09,0.99,-3.2,-0.4,-0.3,800,165,,,,,,,,,,,,,,,,,,,
9412533,1495396186006,,,,,,,,0.02,0.09,0.98,-3.2,-0.4,-0.2,800,169,,,,,,,,,,,,,,,,,,,
9412553,1495396186026,,,,,,,,0.02,0.09,0.98,-3.3,-0.3,-0.1,800,171,,,,,,,,,,,,,,,,,,,
9412575,1495396186048,,,,,25,,,0.03,0.1,0.98,-3.3,-0.5,-0.0,800,168,0,1,4.819,0,39.538742,-122.332199,1.83,4.611,241.0,9,2,1.9,21,3.9433,8,0.1267,30.2022,30.1933,22
9412594,1495396186067,,,,,,,,0.02,0.1,0.99,-3.3,-0.2,-0.0,800,166,,,,,,,,,,,,,,,,,,,
9412614,1495396186095,,,,,,,,0.02,0.1,0.99,-3.2,-0.4,-0.1,800,171,,,,,,,,,,,,,,,,,,,
9412634,1495396186115,,,,,,,,0.01,0.09,0.99,-3.2,-0.4,-0.2,800,171,,,,,,,,,,,,,,,,,,,
9412654,1495396186135,,,,,,,,0.01,0.1,0.98,-3.3,-0.3,0.0,800,168,,,,,,,,,,,,,,,,,,,
9412676,1495396186157,0,156.9,,178.6,25,177.5,,0.02,0.1,0.99,-3.3,-0.4,0.1,800,166,0,1,4.79,0,39.538738,-122.332199,1.77,4.611,241.1,9,2,1.9,21,3.9433,8,0.1267,30.2038,30.195,22
9412695,1495396186176,,,,,,,,0.02,0.11,0.98,-3.3,-0.4,0.2,800,171,,,,,,,,,,,,,,,,,,,
9412715,1495396186196,,,,,,,,0.02,0.1,0.98,-3.3,-0.5,0.0,800,169,,,,,,,,,,,,,,,,,,,
9412735,1495396186216,,,,,,,,0.02,0.1,0.99,-3.3,-0.4,-0.1,800,168,,,,,,,,,,,,,,,,,,,
9412755,1495396186236,,,,,,,,0.02,0.1,0.98,-3.3,-0.4,0.0,800,168,,,,,,,,,,,,,,,,,,,
9412777,1495396186258,,,,,20,,,0.03,0.1,0.98,-3.3,-0.4,0.1,780,171,0,1,4.79,0,39.538738,-122.332199,1.57,4.611,241.0,9,2,1.9,21,3.9433,8,0.1267,30.2055,30.1967,22
9412796,1495396186277,,,,,,,,0.03,0.12,0.98,-3.4,-0.5,0.2,800,171,,,,,,,,,,,,,,,,,,,
9412816,1495396186297,,,,,,,,0.03,0.1,0.99,-3.3,-0.4,0.1,800,171,,,,,,,,,,,,,,,,,,,
9412836,1495396186317,,,,,,,,0.02,0.1,0.99,-3.3,-0.5,-0.0,800,171,,,,,,,,,,,,,,,,,,,
9412856,1495396186337,,,,,,,,0.02,0.09,0.99,-3.3,-0.6,0.0,800,169,,,,,,,,,,,,,,,,,,,
9412878,1495396186359,0,157.0,-0.3,178.4,26,177.5,14.01,0.02,0.1,0.99,-3.4,-0.5,0.1,800,169,0,1,4.535,0,39.538738,-122.332199,2.35,4.611,241.1,9,2,1.9,21,3.9433,8,0.1267,30.2072,30.1983,22
9412897,1495396186378,,,,,,,,0.03,0.1,0.99,-3.4,-0.5,0.2,800,171,,,,,,,,,,,,,,,,,,,
9412917,1495396186398,,,,,,,,0.03,0.1,0.99,-3.3,-0.4,0.1,800,174,,,,,,,,,,,,,,,,,,,
9412937,1495396186418,,,,,,,,0.03,0.1,0.99,-3.3,-0.5,-0.1,800,172,,,,,,,,,,,,,,,,,,,
9412957,1495396186438,,,,,,,,0.02,0.08,0.99,-3.3,-0.5,-0.1,800,172,,,,,,,,,,,,,,,,,,,
9412979,1495396186460,,,,,25,,,0.03,0.09,0.99,-3.3,-0.3,0.1,800,172,0,1,4.734,0,39.538738,-122.332199,2.45,4.611,241.2,9,2,1.9,21,3.9433,8,0.1267,30.2089,30.2,22
9412998,1495396186479,,,,,,,,0.03,0.09,0.99,-3.3,-0.3,0.2,800,172,,,,,,,,,,,,,,,,,,,
9413018,1495396186499,,,,,,,,0.03,0.1,0.99,-3.3,-0.2,0.1,800,171,,,,,,,,,,,,,,,,,,,
9413038,1495396186519,,,,,,,,0.03,0.1,1.0,-3.3,-0.4,-0.0,800,171,,,,,,,,,,,,,,,,,,,
9413058,1495396186539,,,,,,,,0.02,0.08,1.0,-3.3,-0.3,-0.1,800,172,,,,,,,,,,,,,,,,,,,
9413080,1495396186561,0,156.9,,178.4,23,177.4,,0.02,0.1,0.98,-3.3,-0.1,0.1,800,174,0,1,4.651,0,39.538738,-122.332199,3.11,4.611,241.4,9,2,1.9,21,3.9433,8,0.1267,30.2106,30.2017,22
9413099,1495396186580,,,,,,,,0.03,0.1,0.99,-3.4,-0.0,0.2,800,174,,,,,,,,,,,,,,,,,,,
9413119,1495396186599,,,,,,,,0.03,0.11,0.99,-3.4,-0.1,0.3,800,175,,,,,,,,,,,,,,,,,,,
9413139,1495396186619,,,,,,,,0.03,0.1,1.0,-3.3,-0.1,0.1,800,177,,,,,,,,,,,,,,,,,,,
9413159,1495396186639,,,,,,,,0.02,0.1,1.0,-3.3,-0.2,-0.0,800,175,,,,,,,,,,,,,,,,,,,
9413181,1495396186661,,,,,21,,,0.02,0.1,1.0,-3.3,-0.1,-0.1,800,174,0,1,4.624,0,39.538738,-122.332199,2.81,4.611,241.5,9,2,1.9,21,3.9433,8,0.1267,30.2122,30.2033,22
9413200,1495396186680,,,,,,,,0.02,0.11,0.99,-3.3,0.0,0.1,800,174,,,,,,,,,,,,,,,,,,,
9413220,1495396186698,,,,,,,,0.02,0.12,1.0,-3.3,-0.1,0.1,800,177,,,,,,,,,,,,,,,,,,,
9413240,1495396186718,,,,,,,,0.02,0.11,1.0,-3.3,0.0,0.1,800,174,,,,,,,,,,,,,,,,,,,
9413260,1495396186738,,,,,,,,0.01,0.11,1.0,-3.3,-0.2,-0.1,800,174,,,,,,,,,,,,,,,,,,,
9413282,1495396186760,0,156.3,,177.6,25,177.8,,0.01,0.1,1.01,-3.3,-0.2,-0.1,800,177,0,1,4.624,0,39.538738,-122.332199,2.52,4.611,241.5,9,2,1.9,21,3.9433,8,0.1267,30.2139,30.205,22
9413301,1495396186779,,,,,,,,0.01,0.11,0.99,-3.3,-0.1,-0.0,800,180,,,,,,,,,,,,,,,,,,,
9413321,1495396186801,,,,,,,,0.02,0.1,0.99,-3.4,-0.1,0.1,800,178,,,,,,,,,,,,,,,,,,,
9413341,1495396186821,,,,,,,,0.02,0.12,0.99,-3.4,-0.2,0.1,800,178,,,,,,,,,,,,,,,,,,,
9413361,1495396186841,,,,,,,,0.02,0.11,0.98,-3.4,-0.3,0.0,800,177,,,,,,,,,,,,,,,,,,,
9413383,1495396186863,,,,,24,,,0.01,0.1,0.99,-3.4,-0.4,-0.1,800,177,0,1,4.494,0,39.538738,-122.332199,3.83,4.611,241.6,9,2,1.9,21,3.9433,8,0.1267,30.2156,30.2067,22
9413402,1495396186882,,,,,,,,0.02,0.1,0.97,-3.3,-0.4,-0.2,800,177,,,,,,,,,,,,,,,,,,,
9413422,1495396186902,,,,,,,,0.02,0.11,0.97,-3.4,-0.2,-0.0,800,180,,,,,,,,,,,,,,,,,,,
9413442,1495396186922,,,,,,,,0.02,0.12,0.98,-3.4,-0.4,0.0,800,183,,,,,,,,,,,,,,,,,,,
9413462,1495396186942,,,,,,,,0.02,0.12,0.99,-3.3,-0.2,-0.0,800,183,,,,,,,,,,,,,,,,,,,
9413484,1495396186964,0,156.8,,177.9,23,177.5,,0.01,0.11,0.99,-3.3,-0.4,-0.1,800,182,0,1,4.571,0,39.538734,-122.332199,3.41,4.611,242.0,9,2,1.9,21,3.9433,8,0.1267,30.2171,30.2083,22
9413503,1495396186983,,,,,,,,0.01,0.1,1.0,-3.3,-0.4,-0.2,800,180,,,,,,,,,,,,,,,,,,,
9413523,1495396186997,,,,,,,,0.01,0.11,0.98,-3.3,-0.2,-0.0,800,180,,,,,,,,,,,,,,,,,,,
9413543,1495396187017,,,,,,,,0.02,0.11,0.98,-3.3,-0.3,-0.0,800,180,,,,,,,,,,,,,,,,,,,
9413563,1495396187037,,,,,,,,0.02,0.12,0.98,-3.4,-0.2,-0.1,800,182,,,,,,,,,,,,,,,,,,,
9413585,1495396187059,,,,,22,,,0.02,0.11,0.98,-3.3,-0.3,-0.3,800,183,0,1,4.42,0,39.538734,-122.332199,3.6,4.611,242.3,9,2,1.9,21,3.9433,8,0.1267,30.2187,30.21,22
9413604,1495396187078,,,,,,,,0.01,0.11,0.98,-3.4,-0.3,-0.4,800,183,,,,,,,,,,,,,,,,,,,
9413624,1495396187106,,,,,,,,0.02,0.1,0.98,-3.4,-0.2,-0.3,800,185,,,,,,,,,,,,,,,,,,,
9413644,1495396187126,,,,,,,,0.02,0.1,0.98,-3.4,-0.2,-0.2,800,185,,,,,,,,,,,,,,,,,,,
9413664,1495396187146,,,,,,,,0.02,0.12,0.99,-3.5,-0.2,-0.1,800,186,,,,,,,,,,,,,,,,,,,
9413686,1495396187168,0,156.3,,178.3,24,177.7,,0.02,0.1,0.99,-3.4,-0.1,-0.2,800,183,0,1,4.372,0,39.538731,-122.332199,3.12,4.612,242.3,9,2,1.9,21,3.9433,8,0.1267,30.2204,30.2117,22
9413705,1495396187187,,,,,,,,0.02,0.1,0.99,-3.4,-0.2,-0.3,800,183,,,,,,,,,,,,,,,,,,,
9413725,1495396187207,,,,,,,,0.01,0.09,0.99,-3.3,-0.2,-0.3,800,185,,,,,,,,,,,,,,,,,,,
9413745,1495396187227,,,,,,,,0.02,0.1,0.98,-3.4,0.0,-0.1,800,188,,,,,,,,,,,,,,,,,,,
9413765,1495396187247,,,,,,,,0.02,0.11,0.98,-3.3,-0.1,-0.1,800,186,,,,,,,,,,,,,,,,,,,
9413787,1495396187269,,,,,24,,,0.02,0.11,0.99,-3.3,0.0,-0.1,800,186,0,1,4.372,0,39.538731,-122.332199,3.05,4.612,242.3,9,2,1.9,21,3.9433,8,0.1267,30.222,30.2133,22
9413806,1495396187288,,,,,,,,0.01,0.11,0.99,-3.3,-0.2,-0.3,800,186,,,,,,,,,,,,,,,,,,,
9413826,1495396187308,,,,,,,,0.01,0.1,0.99,-3.3,-0.2,-0.5,800,186,,,,,,,,,,,,,,,,,,,
9413846,1495396187328,,,,,,,,0.02,0.11,0.98,-3.3,0.0,-0.4,800,185,,,,,,,,,,,,,,,,,,,
9413866,1495396187348,,,,,,,,0.02,0.11,0.98,-3.3,0.0,-0.4,800,186,,,,,,,,,,,,,,,,,,,
9413888,1495396187370,0,156.4,-0.4,178.2,26,177.8,14.05,0.02,0.12,0.98,-3.4,0.0,-0.3,800,186,0,1,4.301,0,39.538727,-122.332199,2.68,4.612,242.1,9,2,1.9,21,3.9433,8,0.1267,30.2236,30.215,22
9413907,1495396187389,,,,,,,,0.02,0.1,0.99,-3.3,0.1,-0.5,800,183,,,,,,,,,,,,,,,,,,,
9413927,1495396187407,,,,,,,,0.02,0.1,0.99,-3.3,-0.1,-0.6,820,186,,,,,,,,,,,,,,,,,,,
9413947,1495396187427,,,,,,,,0.02,0.09,0.97,-3.3,-0.2,-0.6,820,189,,,,,,,,,,,,,,,,,,,
9413967,1495396187447,,,,,,,,0.02,0.09,0.98,-3.3,-0.0,-0.5,780,191,,,,,,,,,,,,,,,,,,,
9413989,1495396187469,,,,,20,,,0.03,0.1,0.98,-3.3,-0.2,-0.4,800,186,0,1,4.301,0,39.538727,-122.332199,2.61,4.612,242.1,9,2,1.9,21,3.9433,8,0.1267,30.2252,30.2167,22
9414008,1495396187488,,,,,,,,0.03,0.11,0.98,-3.3,-0.0,-0.4,800,183,,,,,,,,,,,,,,,,,,,
9414028,1495396187509,,,,,,,,0.03,0.1,0.98,-3.3,-0.1,-0.4,800,185,,,,,,,,,,,,,,,,,,,
9414048,1495396187529,,,,,,,,0.02,0.09,0.98,-3.3,-0.0,-0.4,800,186,,,,,,,,,,,,,,,,,,,
9414068,1495396187549,,,,,,,,0.02,0.09,0.98,-3.2,0.1,-0.3,800,186,,,,,,,,,,,,,,,,,,,
9414090,1495396187571,0,156.9,,177.4,23,176.9,,0.03,0.09,0.98,-3.2,0.2,-0.2,800,188,0,1,4.301,0,39.538723,-122.332199,2.52,4.612,242.0,9,2,1.9,21,3.9433,8,0.1267,30.2263,30.2183,22
9414109,1495396187590,,,,,,,,0.03,0.11,0.99,-3.2,0.1,-0.2,800,189,,,,,,,,,,,,,,,,,,,
9414129,1495396187610,,,,,,,,0.03,0.1,1.0,-3.1,0.2,-0.3,800,188,,,,,,,,,,,,,,,,,,,
9414149,1495396187630,,,,,,,,0.02,0.09,1.0,-3.1,0.1,-0.4,800,186,,,,,,,,,,,,,,,,,,,
9414169,1495396187650,,,,,,,,0.02,0.09,1.0,-3.1,0.2,-0.4,800,188,,,,,,,,,,,,,,,,,,,
9414191,1495396187672,,,,,25,,,0.03,0.09,0.99,-3.2,0.4,-0.3,800,186,0,1,4.233,0,39.538723,-122.332199,2.54,4.612,241.8,9,2,1.9,21,3.9433,8,0.1267,30.2279,30.22,22
9414210,1495396187691,,,,,,,,0.03,0.09,0.98,-3.2,0.3,-0.2,800,183,,,,,,,,,,,,,,,,,,,
9414230,1495396187709,,,,,,,,0.02,0.1,0.98,-3.2,0.4,-0.2,800,185,,,,,,,,,,,,,,,,,,,
9414250,1495396187729,,,,,,,,0.02,0.1,0.98,-3.1,0.1,-0.4,800,189,,,,,,,,,,,,,,,,,,,
9414270,1495396187749,,,,,,,,0.02,0.08,0.98,-3.1,0.1,-0.5,800,189,,,,,,,,,,,,,,,,,,,
9414292,1495396187771,0,157.0,,177.5,26,177.0,,0.02,0.09,0.97,-3.1,0.1,-0.5,800,185,0,1,4.348,0,39.538723,-122.332199,2.87,4.612,242.0,9,2,1.9,21,3.9433,8,0.1267,30.2296,30.2217,22
9414311,1495396187792,,,,,,,,0.03,0.09,0.97,-3.1,0.2,-0.4,800,183,,,,,,,,,,,,,,,,,,,
