"Interval"|"ms"|0|0|1,"Utc"|"ms"|0|0|1,"FuelLevel"|"F"|0|100|5,"OilTemp"|"F"|0.0|300.0|5,"CoolantPressPSI"|"PSI"|0.0|20.0|1,"Coolant"|"F"|0.0|300.0|5,"OilPress"|"PSI"|0|150|10,"EngineTemp"|"F"|0.0|300.0|5,"Battery"|"Volts"|0.0|20.0|1,"AccelX"|"G"|-3.0|3.0|50,"AccelY"|"G"|-3.0|3.0|50,"AccelZ"|"G"|-3.0|3.0|50,"Yaw"|"Deg/Sec"|-300.0|300.0|50,"Pitch"|"Deg/Sec"|-300.0|300.0|50,"Roll"|"Deg/Sec"|-300.0|300.0|50,"RPM"|""|0|10000|50,"Driveshaft"|"RPM"|0|5000|50,"GPIO1"|""|0|1|10,"GPIO2"|""|0|1|10,"GearRatio"|""|-5.0|5.0|10,"Gear"|""|-1|5|10,"Latitude"|"Degrees"|-180.0|180.0|10,"Longitude"|"Degrees"|-180.0|180.0|10,"Speed"|"mph"|0.0|150.0|10,"Distance"|"mi"|0.0|0.0|10,"Altitude"|"ft"|0.0|4000.0|10,"GPSSats"|""|0|20|10,"GPSQual"|""|0|5|10,"GPSDOP"|""|0.0|20.0|10,"LapCount"|""|0|0|10,"LapTime"|"Min"|0.0|0.0|10,"Sector"|""|0|0|10,"SectorTime"|"Min"|0.0|0.0|10,"PredTime"|"Min"|0.0|0.0|10,"ElapsedTime"|"Min"|0.0|0.0|10,"CurrentLap"|""|0|0|10
63754,1495236179404,,,,,,,,0.06,0.07,0.99,-0.5,0.0,0.0,780,54,,,,,,,,,,,,,,,,,,,
63774,1495236179424,,,,,57,,,0.05,0.06,0.99,-0.3,-0.0,-0.1,780,51,1,1,14.717,0,39.540634,-122.332344,0.0,0.0,519.0,5,2,0.9,0,0.0,-1,0.0,0.0,0.0,0
63794,1495236179444,,,,,,,,0.05,0.06,0.99,-0.2,0.0,-0.1,780,49,,,,,,,,,,,,,,,,,,,
63814,1495236179464,,,,,,,,0.05,0.06,0.99,-0.2,0.0,0.0,780,49,,,,,,,,,,,,,,,,,,,
63834,1495236179484,,,,,,,,0.06,0.06,0.99,-0.1,-0.0,0.1,780,55,,,,,,,,,,,,,,,,,,,
63854,1495236179504,,,,,,,,0.05,0.07,1.0,0.0,-0.0,0.1,800,54,,,,,,,,,,,,,,,,,,,
63874,1495236179524,0,89.9,,100.6,57,96.0,,0.05,0.06,1.0,0.1,-0.1,-0.0,780,54,1,1,14.717,0,39.540634,-122.332344,0.0,0.0,536.6,5,3,0.9,0,0.0,-1,0.0,0.0,0.0,0
63894,1495236179544,,,,,,,,0.05,0.06,1.0,0.2,-0.1,-0.0,780,51,,,,,,,,,,,,,,,,,,,
63914,1495236179564,,,,,,,,0.05,0.06,0.99,0.3,-0.0,0.1,780,54,,,,,,,,,,,,,,,,,,,
63934,1495236179584,,,,,,,,0.06,0.07,0.99,0.4,-0.0,0.2,780,55,,,,,,,,,,,,,,,,,,,
63954,1495236179604,,,,,,,,0.05,0.08,1.0,0.5,-0.1,0.1,780,55,,,,,,,,,,,,,,,,,,,
63974,1495236179624,,,,,56,,,0.05,0.07,1.0,0.7,-0.1,0.0,800,55,1,1,15.6,0,39.540634,-122.332344,0.0,0.0,564.8,5,3,0.9,0,0.0,-1,0.0,0.0,0.0,0
63994,1495236179644,,,,,,,,0.05,0.06,1.0,0.8,-0.1,-0.0,800,52,,,,,,,,,,,,,,,,,,,
64014,1495236179664,,,,,,,,0.06,0.07,0.99,0.9,-0.0,0.1,800,52,,,,,,,,,,,,,,,,,,,
64034,1495236179684,,,,,,,,0.06,0.07,0.99,1.0,-0.1,0.1,780,55,,,,,,,,,,,,,,,,,,,
64054,1495236179704,,,,,,,,0.06,0.08,1.0,1.1,-0.1,0.0,780,60,,,,,,,,,,,,,,,,,,,
64074,1495236179724,0,90.1,-0.4,100.5,57,96.6,14.76,0.05,0.07,1.01,1.2,-0.1,-0.1,780,54,1,1,15.385,0,39.540634,-122.332344,0.0,0.0,576.6,5,3,0.9,0,0.0,-1,0.0,0.0,0.0,0
64094,1495236179744,,,,,,,,0.05,0.07,1.0,1.3,-0.1,-0.1,780,54,,,,,,,,,,,,,,,,,,,
64114,1495236179764,,,,,,,,0.06,0.08,1.0,1.3,-0.1,0.0,800,54,,,,,,,,,,,,,,,,,,,
64134,1495236179784,,,,,,,,0.06,0.08,1.0,1.4,-0.1,0.1,800,62,,,,,,,,,,,,,,,,,,,
64154,1495236179804,,,,,,,,0.06,0.08,1.01,1.4,-0.1,-0.0,800,60,,,,,,,,,,,,,,,,,,,
64174,1495236179824,,,,,56,,,0.05,0.08,1.01,1.5,-0.1,-0.1,780,57,1,1,15.094,0,39.540634,-122.332344,1.1,0.0,581.0,5,3,0.9,0,0.0,-1,0.0,0.0,0.0,0
64194,1495236179844,,,,,,,,0.05,0.07,1.01,1.6,-0.1,-0.1,780,57,,,,,,,,,,,,,,,,,,,
64214,1495236179864,,,,,,,,0.05,0.07,1.0,1.6,-0.1,0.0,800,58,,,,,,,,,,,,,,,,,,,
64234,1495236179884,,,,,,,,0.06,0.08,1.0,1.7,-0.0,0.0,800,62,,,,,,,,,,,,,,,,,,,
64254,1495236179904,,,,,,,,0.05,0.08,1.0,1.8,-0.1,-0.0,800,63,,,,,,,,,,,,,,,,,,,
64274,1495236179904,0,88.4,,99.7,56,96.8,,0.05,0.07,1.0,1.9,-0.0,-0.1,800,63,1,1,13.793,0,39.540634,-122.332344,1.06,0.0,585.3,5,3,0.9,0,0.0,-1,0.0,0.0,0.0,0
64294,1495236179924,,,,,,,,0.05,0.07,1.0,2.0,-0.0,-0.2,800,60,,,,,,,,,,,,,,,,,,,
64314,1495236179944,,,,,,,,0.05,0.06,0.99,2.0,0.0,-0.0,820,58,,,,,,,,,,,,,,,,,,,
64334,1495236179964,,,,,,,,0.06,0.07,0.99,2.1,0.1,-0.0,800,65,,,,,,,,,,,,,,,,,,,
64354,1495236180004,,,,,,,,0.06,0.08,0.99,2.2,-0.0,-0.0,800,66,,,,,,,,,,,,,,,,,,,
64374,1495236180024,,,,,56,,,0.05,0.07,0.99,2.3,-0.0,-0.2,800,60,1,1,14.138,0,39.540634,-122.332344,1.03,0.0,591.1,5,3,0.9,0,0.0,-1,0.0,0.0,0.0,0
64394,1495236180044,,,,,,,,0.05,0.06,0.99,2.4,-0.0,-0.2,800,60,,,,,,,,,,,,,,,,,,,
64414,1495236180064,,,,,,,,0.06,0.06,0.98,2.4,0.0,-0.1,800,60,,,,,,,,,,,,,,,,,,,
64434,1495236180084,,,,,,,,0.06,0.07,0.98,2.4,0.1,0.0,800,65,,,,,,,,,,,,,,,,,,,
64454,1495236180104,,,,,,,,0.06,0.08,0.99,2.5,0.1,0.0,820,66,,,,,,,,,,,,,,,,,,,
64474,1495236180124,0,89.1,,99.3,57,95.1,,0.05,0.07,1.0,2.5,0.0,-0.0,800,63,1,1,13.333,0,39.540634,-122.332344,1.08,0.0,596.0,5,3,0.9,0,0.0,-1,0.0,0.0,0.0,0
64494,1495236180144,,,,,,,,0.05,0.07,0.99,2.7,-0.0,-0.1,820,62,,,,,,,,,,,,,,,,,,,
64514,1495236180164,,,,,,,,0.05,0.07,0.99,2.7,-0.0,-0.1,820,62,,,,,,,,,,,,,,,,,,,
64534,1495236180184,,,,,,,,0.05,0.07,0.99,2.8,0.1,-0.0,800,63,,,,,,,,,,,,,,,,,,,
64554,1495236180204,,,,,,,,0.06,0.08,0.99,2.8,0.1,0.0,800,69,,,,,,,,,,,,,,,,,,,
64574,1495236180224,,,,,56,,,0.05,0.07,1.0,2.8,-0.0,0.0,800,69,1,1,13.443,0,39.540634,-122.332344,1.13,0.0,599.7,5,3,0.9,0,0.0,-1,0.0,0.0,0.0,0
64594,1495236180244,,,,,,,,0.05,0.06,0.99,3.0,-0.1,-0.2,820,62,,,,,,,,,,,,,,,,,,,
64614,1495236180264,,,,,,,,0.04,0.05,0.99,3.1,-0.0,-0.3,800,63,,,,,,,,,,,,,,,,,,,
64634,1495236180284,,,,,,,,0.04,0.05,0.98,3.2,-0.1,-0.2,800,71,,,,,,,,,,,,,,,,,,,
64654,1495236180304,,,,,,,,0.05,0.07,0.98,3.3,-0.0,-0.2,780,69,,,,,,,,,,,,,,,,,,,
64674,1495236180324,0,88.5,,98.9,55,94.9,,0.05,0.08,0.99,3.3,-0.0,-0.2,780,69,1,1,13.443,0,39.540634,-122.332344,1.12,0.0,602.8,5,3,0.9,0,0.0,-1,0.0,0.0,0.0,0
64694,1495236180344,,,,,,,,0.04,0.07,0.99,3.5,-0.1,-0.3,780,65,,,,,,,,,,,,,,,,,,,
64714,1495236180364,,,,,,,,0.03,0.06,0.99,3.6,-0.1,-0.3,780,65,,,,,,,,,,,,,,,,,,,
64734,1495236180384,,,,,,,,0.04,0.06,0.99,3.7,-0.1,-0.2,780,69,,,,,,,,,,,,,,,,,,,
64754,1495236180401,,,,,,,,0.05,0.07,0.98,3.7,-0.0,-0.1,780,71,,,,,,,,,,,,,,,,,,,
64774,1495236180421,,,,,54,,,0.05,0.07,0.99,3.8,-0.0,-0.1,760,71,1,1,12.188,0,39.540634,-122.332344,1.17,0.0,600.6,5,3,0.9,0,0.0,-1,0.0,0.0,0.0,0
64794,1495236180441,,,,,,,,0.04,0.07,0.99,3.8,-0.1,-0.2,760,68,,,,,,,,,,,,,,,,,,,
64814,1495236180461,,,,,,,,0.05,0.07,0.99,3.9,-0.0,-0.2,760,66,,,,,,,,,,,,,,,,,,,
64834,1495236180481,,,,,,,,0.05,0.08,0.98,3.9,0.0,-0.1,760,69,,,,,,,,,,,,,,,,,,,
64854,1495236180501,,,,,,,,0.05,0.08,0.99,4.0,-0.1,-0.1,760,75,,,,,,,,,,,,,,,,,,,
64874,1495236180521,0,89.4,,100.6,54,97.1,,0.05,0.08,0.99,4.1,-0.1,-0.3,760,72,1,1,11.343,0,39.540634,-122.332344,1.18,0.0,599.0,5,3,0.9,0,0.0,-1,0.0,0.0,0.0,0
64894,1495236180541,,,,,,,,0.05,0.07,0.99,4.1,0.1,-0.3,760,72,,,,,,,,,,,,,,,,,,,
64914,1495236180561,,,,,,,,0.05,0.08,0.98,4.2,-0.0,-0.2,760,68,,,,,,,,,,,,,,,,,,,
64934,1495236180581,,,,,,,,0.05,0.08,0.98,4.2,-0.2,-0.2,740,69,,,,,,,,,,,,,,,,,,,
64954,1495236180601,,,,,,,,0.05,0.07,0.99,4.4,-0.1,-0.3,740,74,,,,,,,,,,,,,,,,,,,
64974,1495236180619,,,,,54,,,0.05,0.07,0.99,4.4,-0.2,-0.3,740,74,1,1,11.343,0,39.540634,-122.332344,1.23,0.0,595.2,5,3,0.9,0,0.0,-1,0.0,0.0,0.0,0
64994,1495236180639,,,,,,,,0.05,0.08,0.99,4.4,-0.1,-0.1,740,69,,,,,,,,,,,,,,,,,,,
65014,1495236180659,,,,,,,,0.05,0.08,0.99,4.4,-0.1,-0.1,740,71,,,,,,,,,,,,,,,,,,,
65034,1495236180679,,,,,,,,0.05,0.07,0.99,4.5,-0.1,-0.2,740,74,,,,,,,,,,,,,,,,,,,
65054,1495236180701,,,,,,,,0.05,0.07,0.99,4.6,-0.0,-0.2,740,74,,,,,,,,,,,,,,,,,,,
65074,1495236180721,0,89.0,-0.1,100.3,56,96.9,14.79,0.05,0.08,0.98,4.6,-0.0,-0.1,740,72,1,1,10.571,0,39.540634,-122.332344,1.26,0.0,592.1,5,3,0.9,0,0.0,-1,0.0,0.0,0.0,0
65094,1495236180741,,,,,,,,0.05,0.08,0.98,4.6,-0.1,-0.1,720,74,,,,,,,,,,,,,,,,,,,
65114,1495236180761,,,,,,,,0.05,0.08,0.99,4.6,-0.1,-0.2,720,75,,,,,,,,,,,,,,,,,,,
65134,1495236180781,,,,,,,,0.06,0.08,0.99,4.7,-0.0,-0.1,720,75,,,,,,,,,,,,,,,,,,,
65154,1495236180803,,,,,,,,0.07,0.09,0.98,4.7,-0.0,-0.1,720,75,,,,,,,,,,,,,,,,,,,
65174,1495236180823,,,,,58,,,0.06,0.1,0.99,4.8,-0.2,-0.1,720,78,1,1,9.6,0,39.540634,-122.332344,1.28,0.0,588.9,5,3,0.9,0,0.0,-1,0.0,0.0,0.0,0
65194,1495236180843,,,,,,,,0.06,0.09,1.0,4.8,-0.1,-0.3,720,78,,,,,,,,,,,,,,,,,,,
65214,1495236180863,,,,,,,,0.06,0.09,1.0,4.8,-0.1,-0.2,740,75,,,,,,,,,,,,,,,,,,,
65234,1495236180883,,,,,,,,0.07,0.09,0.99,4.9,-0.1,-0.1,740,74,,,,,,,,,,,,,,,,,,,
65254,1495236180903,,,,,,,,0.06,0.09,0.99,4.9,-0.1,-0.2,720,78,,,,,,,,,,,,,,,,,,,
65274,1495236180911,0,88.9,,100.3,61,97.0,,0.06,0.08,1.0,5.0,-0.0,-0.2,720,82,1,1,9.867,0,39.540634,-122.332344,1.34,0.0,586.5,5,3,0.9,0,0.0,-1,0.0,0.0,0.0,0
65294,1495236180931,,,,,,,,0.07,0.09,0.99,5.0,0.0,-0.1,720,78,,,,,,,,,,,,,,,,,,,
65314,1495236180951,,,,,,,,0.07,0.09,0.98,5.0,-0.0,-0.0,720,74,,,,,,,,,,,,,,,,,,,
65334,1495236180971,,,,,,,,0.06,0.08,0.99,5.1,-0.1,-0.2,740,75,,,,,,,,,,,,,,,,,,,
65354,1495236181003,,,,,,,,0.06,0.07,0.99,5.1,0.1,-0.3,740,80,,,,,,,,,,,,,,,,,,,
65374,1495236181023,,,,,60,,,0.06,0.08,0.98,5.1,0.2,-0.1,740,80,1,1,9.863,0,39.540634,-122.332344,1.34,0.0,583.8,5,3,0.9,0,0.0,-1,0.0,0.0,0.0,0
65394,1495236181043,,,,,,,,0.06,0.07,0.98,5.2,0.2,-0.0,740,77,,,,,,,,,,,,,,,,,,,
65414,1495236181063,,,,,,,,0.05,0.06,0.99,5.3,0.2,-0.2,720,75,,,,,,,,,,,,,,,,,,,
65434,1495236181083,,,,,,,,0.05,0.06,0.99,5.3,0.2,-0.3,720,78,,,,,,,,,,,,,,,,,,,
65454,1495236181103,,,,,,,,0.05,0.07,0.98,5.3,0.2,-0.2,740,80,,,,,,,,,,,,,,,,,,,
65474,1495236181123,0,87.9,,99.0,64,95.6,,0.05,0.08,0.98,5.4,0.1,-0.2,740,77,1,1,9.867,0,39.540634,-122.332344,1.45,0.0,583.6,5,3,0.9,0,0.0,-1,0.0,0.0,0.0,0
65494,1495236181143,,,,,,,,0.04,0.06,0.99,5.5,0.1,-0.4,740,78,,,,,,,,,,,,,,,,,,,
65514,1495236181163,,,,,,,,0.04,0.06,1.0,5.5,0.1,-0.4,740,80,,,,,,,,,,,,,,,,,,,
65534,1495236181183,,,,,,,,0.05,0.07,0.99,5.5,0.0,-0.3,760,82,,,,,,,,,,,,,,,,,,,
65554,1495236181203,,,,,,,,0.05,0.08,0.99,5.5,-0.0,-0.2,760,80,,,,,,,,,,,,,,,,,,,
65574,1495236181223,,,,,65,,,0.05,0.07,0.99,5.6,0.1,-0.4,740,82,1,1,9.25,0,39.540634,-122.332344,1.47,0.0,584.0,5,3,0.9,0,0.0,-1,0.0,0.0,0.0,0
65594,1495236181243,,,,,,,,0.04,0.06,1.0,5.6,0.1,-0.5,740,82,,,,,,,,,,,,,,,,,,,
65614,1495236181263,,,,,,,,0.05,0.07,0.98,5.6,0.1,-0.4,740,80,,,,,,,,,,,,,,,,,,,
65634,1495236181283,,,,,,,,0.06,0.07,0.98,5.6,0.1,-0.3,740,82,,,,,,,,,,,,,,,,,,,
65654,1495236181303,,,,,,,,0.05,0.07,0.99,5.6,0.0,-0.4,760,83,,,,,,,,,,,,,,,,,,,
65674,1495236181323,0,88.7,,99.4,65,94.8,,0.05,0.07,0.99,5.7,0.0,-0.5,760,86,1,1,9.136,0,39.540634,-122.332344,1.64,0.001,584.8,5,3,0.9,0,0.0,-1,0.0,0.0,0.0,0
65694,1495236181343,,,,,,,,0.05,0.06,0.98,5.7,-0.0,-0.4,760,83,,,,,,,,,,,,,,,,,,,
65714,1495236181363,,,,,,,,0.06,0.07,0.98,5.7,0.1,-0.3,760,80,,,,,,,,,,,,,,,,,,,
65734,1495236181383,,,,,,,,0.05,0.08,0.99,5.7,0.1,-0.4,740,82,,,,,,,,,,,,,,,,,,,
65754,1495236181403,,,,,,,,0.05,0.07,0.99,5.8,0.0,-0.6,760,85,,,,,,,,,,,,,,,,,,,
65774,1495236181420,,,,,64,,,0.05,0.07,0.99,5.9,0.1,-0.5,760,85,1,1,9.5,0,39.540634,-122.332344,1.57,0.001,585.0,5,3,0.9,0,0.0,-1,0.0,0.0,0.0,0
65794,1495236181440,,,,,,,,0.06,0.08,0.98,5.9,0.2,-0.3,760,83,,,,,,,,,,,,,,,,,,,
65814,1495236181460,,,,,,,,0.05,0.08,0.99,5.9,0.0,-0.3,760,86,,,,,,,,,,,,,,,,,,,
65834,1495236181480,,,,,,,,0.05,0.07,0.99,6.0,0.0,-0.4,760,86,,,,,,,,,,,,,,,,,,,
65854,1495236181496,,,,,,,,0.05,0.07,0.99,6.0,0.1,-0.4,760,86,,,,,,,,,,,,,,,,,,,
65874,1495236181516,0,88.3,,99.9,65,96.6,,0.05,0.08,0.98,6.0,0.1,-0.2,760,86,1,1,9.157,0,39.540634,-122.332344,1.71,0.001,584.4,5,3,0.9,0,0.0,-1,0.0,0.0,0.0,0
65894,1495236181536,,,,,,,,0.06,0.08,0.98,6.0,-0.1,-0.2,740,88,,,,,,,,,,,,,,,,,,,
65914,1495236181556,,,,,,,,0.05,0.08,0.99,6.0,0.0,-0.3,760,89,,,,,,,,,,,,,,,,,,,
65934,1495236181576,,,,,,,,0.04,0.07,1.0,6.1,-0.1,-0.4,760,86,,,,,,,,,,,,,,,,,,,
65954,1495236181596,,,,,,,,0.05,0.07,0.99,6.1,-0.1,-0.3,760,88,,,,,,,,,,,,,,,,,,,
65974,1495236181616,,,,,66,,,0.06,0.08,0.99,6.1,0.0,-0.2,760,91,1,1,8.315,0,39.540634,-122.332344,1.67,0.001,584.0,5,3,0.9,0,0.0,-1,0.0,0.0,0.0,0
65994,1495236181636,,,,,,,,0.05,0.08,0.99,6.2,0.0,-0.3,760,89,,,,,,,,,,,,,,,,,,,
66014,1495236181656,,,,,,,,0.05,0.08,0.99,6.2,0.0,-0.4,760,86,,,,,,,,,,,,,,,,,,,
66034,1495236181676,,,,,,,,0.05,0.07,0.98,6.2,0.2,-0.4,760,86,,,,,,,,,,,,,,,,,,,
66054,1495236181696,,,,,,,,0.06,0.08,0.97,6.2,0.2,-0.3,760,89,,,,,,,,,,,,,,,,,,,
66074,1495236181716,0,89.5,-0.6,100.6,67,95.4,14.74,0.05,0.09,0.98,6.3,0.1,-0.3,760,91,1,1,8.837,0,39.540634,-122.332344,1.64,0.001,583.1,5,3,0.9,0,0.0,-1,0.0,0.0,0.0,0
66094,1495236181736,,,,,,,,0.05,0.08,0.98,6.4,0.0,-0.4,760,88,,,,,,,,,,,,,,,,,,,
66114,1495236181756,,,,,,,,0.05,0.07,0.98,6.4,0.1,-0.4,760,88,,,,,,,,,,,,,,,,,,,
66134,1495236181776,,,,,,,,0.06,0.08,0.98,6.4,0.0,-0.2,760,91,,,,,,,,,,,,,,,,,,,
66154,1495236181800,,,,,,,,0.06,0.08,0.98,6.4,-0.1,-0.2,760,91,,,,,,,,,,,,,,,,,,,
66174,1495236181820,,,,,69,,,0.05,0.08,0.99,6.5,-0.1,-0.3,760,91,1,1,8.736,0,39.540634,-122.332344,1.67,0.001,582.3,5,3,0.9,0,0.0,-1,0.0,0.0,0.0,0
66194,1495236181840,,,,,,,,0.05,0.08,0.99,6.6,-0.1,-0.3,760,92,,,,,,,,,,,,,,,,,,,
66214,1495236181860,,,,,,,,0.05,0.08,0.98,6.6,-0.1,-0.2,760,94,,,,,,,,,,,,,,,,,,,
66234,1495236181880,,,,,,,,0.06,0.09,0.98,6.6,0.0,-0.1,760,92,,,,,,,,,,,,,,,,,,,
66254,1495236181900,,,,,,,,0.05,0.09,0.99,6.6,0.1,-0.2,760,91,,,,,,,,,,,,,,,,,,,
66274,1495236181920,0,89.5,,100.9,68,97.1,,0.05,0.08,0.99,6.7,0.1,-0.3,760,92,1,1,8.261,0,39.540634,-122.332344,1.6,0.001,582.4,5,3,0.9,0,0.0,-1,0.0,0.0,0.0,0
66294,1495236181940,,,,,,,,0.05,0.08,0.98,6.7,0.1,-0.3,760,94,,,,,,,,,,,,,,,,,,,
66314,1495236181960,,,,,,,,0.05,0.09,0.98,6.7,0.2,-0.2,760,94,,,,,,,,,,,,,,,,,,,
66334,1495236181980,,,,,,,,0.05,0.09,0.98,6.7,0.2,-0.3,760,92,,,,,,,,,,,,,,,,,,,
66354,1495236181992,,,,,,,,0.05,0.09,0.99,6.8,0.1,-0.5,760,92,,,,,,,,,,,,,,,,,,,
66374,1495236182012,,,,,68,,,0.05,0.09,0.98,6.8,0.1,-0.5,760,95,1,1,8.172,0,39.540634,-122.332344,1.66,0.001,583.0,5,3,0.9,0,0.0,-1,0.0,0.0,0.0,0
66394,1495236182032,,,,,,,,0.05,0.09,0.98,6.8,0.1,-0.5,740,94,,,,,,,,,,,,,,,,,,,
66414,1495236182052,,,,,,,,0.05,0.09,0.98,6.9,-0.1,-0.5,740,92,,,,,,,,,,,,,,,,,,,
66434,1495236182072,,,,,,,,0.05,0.08,0.99,7.0,-0.1,-0.6,760,92,,,,,,,,,,,,,,,,,,,
66454,1495236182098,,,,,,,,0.04,0.07,1.0,7.0,-0.1,-0.6,760,95,,,,,,,,,,,,,,,,,,,
66474,1495236182118,0,87.8,,99.3,66,96.1,,0.05,0.08,0.99,7.0,-0.0,-0.5,760,94,1,1,8.043,0,39.540634,-122.332344,1.76,0.001,584.4,5,3,0.9,0,0.0,-1,0.0,0.0,0.0,0
66494,1495236182138,,,,,,,,0.05,0.08,0.99,7.0,-0.0,-0.5,760,94,,,,,,,,,,,,,,,,,,,
66514,1495236182158,,,,,,,,0.04,0.08,0.99,7.1,0.1,-0.6,740,97,,,,,,,,,,,,,,,,,,,
66534,1495236182178,,,,,,,,0.04,0.08,1.0,7.1,0.1,-0.6,740,97,,,,,,,,,,,,,,,,,,,
66554,1495236182200,,,,,,,,0.05,0.08,0.99,7.1,0.1,-0.5,740,94,,,,,,,,,,,,,,,,,,,
66574,1495236182220,,,,,67,,,0.05,0.09,0.99,7.1,0.0,-0.4,740,92,1,1,7.917,0,39.540634,-122.332352,1.98,0.001,584.8,5,3,0.9,0,0.0,-1,0.0,0.0,0.0,0
66594,1495236182240,,,,,,,,0.05,0.08,0.99,7.2,0.1,-0.5,740,95,,,,,,,,,,,,,,,,,,,
66614,1495236182260,,,,,,,,0.04,0.08,1.0,7.2,0.1,-0.5,740,98,,,,,,,,,,,,,,,,,,,
66634,1495236182280,,,,,,,,0.05,0.08,0.99,7.2,0.1,-0.4,740,95,,,,,,,,,,,,,,,,,,,
66654,1495236182300,,,,,,,,0.05,0.08,0.98,7.2,0.1,-0.3,740,94,,,,,,,,,,,,,,,,,,,
66674,1495236182320,0,88.5,,100.0,66,96.4,,0.04,0.08,0.99,7.3,0.2,-0.5,740,95,1,1,7.551,0,39.540634,-122.332352,2.17,0.001,585.0,5,3,0.9,0,0.0,-1,0.0,0.0,0.0,0
66694,1495236182340,,,,,,,,0.04,0.08,0.99,7.3,0.2,-0.5,740,97,,,,,,,,,,,,,,,,,,,
66714,1495236182360,,,,,,,,0.04,0.08,0.98,7.3,0.1,-0.3,720,95,,,,,,,,,,,,,,,,,,,
66734,1495236182380,,,,,,,,0.05,0.08,0.98,7.4,0.1,-0.2,720,94,,,,,,,,,,,,,,,,,,,
66754,1495236182399,,,,,,,,0.04,0.07,0.99,7.4,0.1,-0.3,740,97,,,,,,,,,,,,,,,,,,,
66774,1495236182419,,,,,67,,,0.04,0.07,0.99,7.4,0.2,-0.3,740,100,1,1,7.5,0,39.540634,-122.332352,2.19,0.001,585.5,5,3,0.9,0,0.0,-1,0.0,0.0,0.0,0
66794,1495236182439,,,,,,,,0.05,0.07,0.98,7.4,0.1,-0.2,740,98,,,,,,,,,,,,,,,,,,,
66814,1495236182459,,,,,,,,0.04,0.07,0.97,7.4,0.0,-0.1,740,97,,,,,,,,,,,,,,,,,,,
66834,1495236182479,,,,,,,,0.04,0.07,0.98,7.5,0.0,-0.3,720,102,,,,,,,,,,,,,,,,,,,
66854,1495236182497,,,,,,,,0.04,0.07,0.98,7.5,0.1,-0.2,720,102,,,,,,,,,,,,,,,,,,,
66874,1495236182517,0,89.0,,100.8,62,97.1,,0.05,0.08,0.98,7.5,-0.0,-0.1,740,100,1,1,7.708,0,39.540634,-122.332352,2.18,0.001,585.3,5,2,0.9,0,0.0,-1,0.0,0.0,0.0,0
66894,1495236182537,,,,,,,,0.05,0.09,0.98,7.5,-0.1,-0.1,740,98,,,,,,,,,,,,,,,,,,,
66914,1495236182557,,,,,,,,0.04,0.08,0.99,7.6,-0.1,-0.2,740,100,,,,,,,,,,,,,,,,,,,
66934,1495236182577,,,,,,,,0.05,0.08,0.99,7.6,-0.1,-0.2,740,103,,,,,,,,,,,,,,,,,,,
66954,1495236182595,,,,,,,,0.05,0.09,0.99,7.6,-0.1,-0.1,740,98,,,,,,,,,,,,,,,,,,,
66974,1495236182615,,,,,65,,,0.05,0.09,0.99,7.7,-0.2,-0.1,760,97,1,1,7.551,0,39.540634,-122.332352,2.06,0.001,585.5,5,2,0.9,0,0.0,-1,0.0,0.0,0.0,0
66994,1495236182635,,,,,,,,0.05,0.08,1.0,7.7,-0.2,-0.2,720,100,,,,,,,,,,,,,,,,,,,
67014,1495236182655,,,,,,,,0.05,0.09,1.0,7.7,-0.1,-0.2,720,102,,,,,,,,,,,,,,,,,,,
67034,1495236182675,,,,,,,,0.05,0.1,0.99,7.7,-0.1,-0.1,740,100,,,,,,,,,,,,,,,,,,,
67054,1495236182697,,,,,,,,0.05,0.1,0.99,7.7,-0.3,-0.1,740,98,,,,,,,,,,,,,,,,,,,
67074,1495236182717,0,88.2,-0.7,99.2,67,94.9,14.74,0.04,0.09,1.0,7.8,-0.3,-0.2,740,98,1,1,7.129,0,39.540634,-122.332352,2.07,0.001,585.6,5,3,0.9,0,0.0,-1,0.0,0.0,0.0,0
67094,1495236182737,,,,,,,,0.04,0.08,1.0,7.8,-0.2,-0.2,740,100,,,,,,,,,,,,,,,,,,,
67114,1495236182757,,,,,,,,0.05,0.08,0.99,7.7,-0.2,-0.1,760,100,,,,,,,,,,,,,,,,,,,
67134,1495236182777,,,,,,,,0.05,0.09,0.99,7.8,-0.3,-0.0,760,100,,,,,,,,,,,,,,,,,,,
67154,1495236182797,,,,,,,,0.04,0.08,0.99,7.8,-0.2,-0.1,740,103,,,,,,,,,,,,,,,,,,,
67174,1495236182817,,,,,65,,,0.04,0.08,0.99,7.9,-0.2,-0.1,740,103,1,1,7.6,0,39.540634,-122.332352,2.02,0.001,585.8,5,3,0.9,0,0.0,-1,0.0,0.0,0.0,0
67194,1495236182837,,,,,,,,0.05,0.09,0.98,7.9,-0.2,0.0,760,102,,,,,,,,,,,,,,,,,,,
67214,1495236182857,,,,,,,,0.05,0.1,0.98,7.8,-0.3,0.1,760,100,,,,,,,,,,,,,,,,,,,
67234,1495236182877,,,,,,,,0.04,0.09,0.99,7.9,-0.2,0.0,760,102,,,,,,,,,,,,,,,,,,,
67254,1495236182899,,,,,,,,0.04,0.09,0.99,7.9,-0.3,-0.1,780,103,,,,,,,,,,,,,,,,,,,
67274,1495236182919,0,87.9,,99.7,66,96.3,,0.04,0.08,0.98,7.9,-0.2,-0.0,780,100,1,1,7.6,0,39.540634,-122.332352,2.05,0.001,585.7,5,3,0.9,0,0.0,-1,0.0,0.0,0.0,0
67294,1495236182939,,,,,,,,0.05,0.09,0.98,7.9,-0.2,0.0,780,100,,,,,,,,,,,,,,,,,,,
67314,1495236182959,,,,,,,,0.04,0.1,0.98,7.9,-0.3,-0.0,760,100,,,,,,,,,,,,,,,,,,,
67334,1495236182979,,,,,,,,0.04,0.09,0.99,7.9,-0.2,-0.1,780,100,,,,,,,,,,,,,,,,,,,
67354,1495236182991,,,,,,,,0.03,0.08,0.98,7.9,-0.1,-0.2,780,98,,,,,,,,,,,,,,,,,,,
67374,1495236183011,,,,,68,,,0.04,0.08,0.98,7.9,-0.2,-0.1,780,100,1,1,7.6,0,39.540634,-122.332352,2.23,0.001,585.7,5,3,0.9,0,0.0,-1,0.0,0.0,0.0,0
67394,1495236183031,,,,,,,,0.04,0.09,0.98,7.8,-0.1,-0.1,780,103,,,,,,,,,,,,,,,,,,,
67414,1495236183051,,,,,,,,0.04,0.1,0.98,7.8,-0.2,-0.2,780,103,,,,,,,,,,,,,,,,,,,
67434,1495236183071,,,,,,,,0.03,0.09,0.99,7.9,-0.3,-0.3,800,102,,,,,,,,,,,,,,,,,,,
67454,1495236183097,,,,,,,,0.03,0.09,0.99,7.9,-0.2,-0.4,800,102,,,,,,,,,,,,,,,,,,,
67474,1495236183117,0,90.0,,101.5,69,96.6,,0.03,0.09,0.98,7.9,-0.2,-0.3,780,105,1,1,7.573,0,39.540634,-122.332352,1.65,0.001,585.5,5,3,0.9,0,0.0,-1,0.0,0.0,0.0,0
67494,1495236183137,,,,,,,,0.04,0.09,0.98,7.9,-0.2,-0.2,780,103,,,,,,,,,,,,,,,,,,,
67514,1495236183157,,,,,,,,0.04,0.1,0.99,7.9,-0.3,-0.3,780,102,,,,,,,,,,,,,,,,,,,
67534,1495236183177,,,,,,,,0.03,0.09,0.99,8.0,-0.3,-0.3,780,102,,,,,,,,,,,,,,,,,,,
67554,1495236183199,,,,,,,,0.03,0.08,0.99,8.0,-0.3,-0.3,780,103,,,,,,,,,,,,,,,,,,,
67574,1495236183219,,,,,68,,,0.04,0.09,0.98,8.0,-0.3,-0.2,780,102,1,1,7.723,0,39.540634,-122.332352,1.82,0.001,585.5,5,3,0.9,0,0.0,-1,0.0,0.0,0.0,0
67594,1495236183239,,,,,,,,0.04,0.09,0.98,8.0,-0.3,-0.1,780,102,,,,,,,,,,,,,,,,,,,
67614,1495236183259,,,,,,,,0.04,0.09,0.99,8.0,-0.4,-0.2,780,103,,,,,,,,,,,,,,,,,,,
67634,1495236183279,,,,,,,,0.04,0.09,0.99,8.0,-0.4,-0.3,780,103,,,,,,,,,,,,,,,,,,,
67654,1495236183299,,,,,,,,0.04,0.09,0.99,8.0,-0.3,-0.2,780,102,,,,,,,,,,,,,,,,,,,
67674,1495236183319,0,88.9,,100.7,68,97.1,,0.05,0.09,0.98,8.0,-0.3,-0.1,760,102,1,1,7.573,0,39.540634,-122.332352,2.0,0.002,585.2,5,3,0.9,0,0.0,-1,0.0,0.0,0.0,0
67694,1495236183339,,,,,,,,0.05,0.1,0.99,8.0,-0.3,-0.1,760,105,,,,,,,,,,,,,,,,,,,
67714,1495236183359,,,,,,,,0.04,0.09,0.99,8.1,-0.3,-0.3,760,105,,,,,,,,,,,,,,,,,,,
67734,1495236183379,,,,,,,,0.04,0.09,0.99,8.1,-0.3,-0.4,760,103,,,,,,,,,,,,,,,,,,,
67754,1495236183392,,,,,,,,0.04,0.1,0.98,8.1,-0.3,-0.3,780,105,,,,,,,,,,,,,,,,,,,
67774,1495236183412,,,,,67,,,0.04,0.1,0.99,8.1,-0.3,-0.3,760,108,1,1,7.308,0,39.540634,-122.332367,1.91,0.002,585.2,5,2,0.9,0,0.0,-1,0.0,0.0,0.0,0
67794,1495236183432,,,,,,,,0.04,0.09,0.99,8.2,-0.2,-0.5,760,106,,,,,,,,,,,,,,,,,,,
67814,1495236183452,,,,,,,,0.03,0.09,1.0,8.2,-0.3,-0.6,760,102,,,,,,,,,,,,,,,,,,,
67834,1495236183472,,,,,,,,0.04,0.08,0.99,8.2,-0.3,-0.5,760,102,,,,,,,,,,,,,,,,,,,
67854,1495236183496,,,,,,,,0.04,0.09,0.99,8.2,-0.2,-0.4,760,106,,,,,,,,,,,,,,,,,,,
67874,1495236183516,0,89.1,,101.2,66,97.2,,0.04,0.09,0.99,8.2,-0.3,-0.4,760,105,1,1,7.379,0,39.540634,-122.332367,2.71,0.002,585.2,5,3,0.9,0,0.0,-1,0.0,0.0,0.0,0
67894,1495236183536,,,,,,,,0.03,0.08,0.99,8.3,-0.3,-0.5,760,103,,,,,,,,,,,,,,,,,,,
67914,1495236183556,,,,,,,,0.03,0.07,0.99,8.3,-0.3,-0.4,760,103,,,,,,,,,,,,,,,,,,,
67934,1495236183576,,,,,,,,0.04,0.08,0.98,8.2,-0.2,-0.3,740,105,,,,,,,,,,,,,,,,,,,
67954,1495236183594,,,,,,,,0.04,0.08,0.99,8.2,-0.3,-0.3,740,105,,,,,,,,,,,,,,,,,,,
67974,1495236183614,,,,,68,,,0.03,0.07,0.99,8.3,-0.3,-0.3,760,103,1,1,7.525,0,39.540634,-122.332367,2.34,0.002,585.1,5,3,0.9,0,0.0,-1,0.0,0.0,0.0,0
67994,1495236183634,,,,,,,,0.03,0.07,1.0,8.3,-0.3,-0.3,760,103,,,,,,,,,,,,,,,,,,,
68014,1495236183654,,,,,,,,0.04,0.08,0.99,8.2,-0.2,-0.2,760,106,,,,,,,,,,,,,,,,,,,
68034,1495236183674,,,,,,,,0.04,0.09,0.99,8.2,-0.3,-0.2,760,105,,,,,,,,,,,,,,,,,,,
68054,1495236183694,,,,,,,,0.03,0.09,1.0,8.2,-0.3,-0.3,760,103,,,,,,,,,,,,,,,,,,,
68074,1495236183714,0,89.6,-0.4,101.5,64,97.2,14.63,0.03,0.08,1.0,8.2,-0.2,-0.4,760,106,1,1,7.17,0,39.540634,-122.332367,2.13,0.002,585.0,5,3,0.9,0,0.0,-1,0.0,0.0,0.0,0
68094,1495236183734,,,,,,,,0.04,0.08,0.99,8.2,-0.2,-0.3,740,106,,,,,,,,,,,,,,,,,,,
68114,1495236183754,,,,,,,,0.04,0.08,0.99,8.2,-0.2,-0.3,740,105,,,,,,,,,,,,,,,,,,,
68134,1495236183774,,,,,,,,0.03,0.08,1.0,8.2,-0.0,-0.4,740,102,,,,,,,,,,,,,,,,,,,
68154,1495236183794,,,,,,,,0.03,0.08,1.0,8.2,0.0,-0.5,740,103,,,,,,,,,,,,,,,,,,,
68174,1495236183814,,,,,64,,,0.04,0.08,1.0,8.2,0.0,-0.4,760,105,1,1,7.115,0,39.540634,-122.332367,1.79,0.002,584.9,5,3,0.9,0,0.0,-1,0.0,0.0,0.0,0
68194,1495236183834,,,,,,,,0.05,0.08,0.99,8.2,0.0,-0.3,760,102,,,,,,,,,,,,,,,,,,,
68214,1495236183854,,,,,,,,0.04,0.09,1.0,8.2,0.0,-0.3,760,102,,,,,,,,,,,,,,,,,,,
68234,1495236183874,,,,,,,,0.04,0.08,1.0,8.2,-0.0,-0.5,740,102,,,,,,,,,,,,,,,,,,,
68254,1495236183898,,,,,,,,0.04,0.08,0.99,8.2,-0.1,-0.4,740,106,,,,,,,,,,,,,,,,,,,
68274,1495236183918,0,89.4,,101.5,65,97.4,,0.05,0.08,0.99,8.1,0.0,-0.3,760,105,1,1,7.525,0,39.540634,-122.332367,1.13,0.002,585.1,5,3,0.9,0,0.0,-1,0.0,0.0,0.0,0
68294,1495236183938,,,,,,,,0.04,0.09,0.99,8.2,-0.1,-0.2,760,103,,,,,,,,,,,,,,,,,,,
68314,1495236183958,,,,,,,,0.03,0.08,1.0,8.2,-0.1,-0.3,760,103,,,,,,,,,,,,,,,,,,,
68334,1495236183978,,,,,,,,0.03,0.07,1.0,8.2,-0.1,-0.3,760,105,,,,,,,,,,,,,,,,,,,
68354,1495236183998,,,,,,,,0.04,0.08,0.99,8.2,-0.1,-0.2,780,105,,,,,,,,,,,,,,,,,,,
68374,1495236184010,,,,,65,,,0.04,0.09,0.99,8.2,-0.2,-0.1,780,105,1,1,7.379,0,39.540634,-122.332367,1.46,0.002,585.5,5,3,0.9,0,0.0,-1,0.0,0.0,0.0,0
68394,1495236184030,,,,,,,,0.04,0.08,1.0,8.3,-0.2,-0.2,760,105,,,,,,,,,,,,,,,,,,,
68414,1495236184050,,,,,,,,0.03,0.08,1.0,8.3,-0.2,-0.3,780,103,,,,,,,,,,,,,,,,,,,
68434,1495236184070,,,,,,,,0.04,0.08,0.99,8.3,-0.2,-0.2,780,98,,,,,,,,,,,,,,,,,,,
68454,1495236184098,,,,,,,,0.04,0.08,0.99,8.3,-0.1,-0.1,780,95,,,,,,,,,,,,,,,,,,,
68474,1495236184118,0,88.4,,99.7,64,95.4,,0.04,0.09,0.99,8.3,-0.2,-0.1,780,95,1,1,7.308,0,39.540634,-122.332367,1.82,0.002,586.0,5,3,0.9,0,0.0,-1,0.0,0.0,0.0,0
68494,1495236184138,,,,,,,,0.03,0.09,1.0,8.4,-0.2,-0.1,800,94,,,,,,,,,,,,,,,,,,,
68514,1495236184158,,,,,,,,0.03,0.08,0.99,8.4,-0.2,-0.2,800,91,,,,,,,,,,,,,,,,,,,
68534,1495236184178,,,,,,,,0.03,0.08,0.99,8.3,-0.1,-0.1,800,91,,,,,,,,,,,,,,,,,,,
68554,1495236184198,,,,,,,,0.03,0.09,0.99,8.3,0.0,0.0,800,88,,,,,,,,,,,,,,,,,,,
68574,1495236184218,,,,,66,,,0.03,0.1,0.99,8.3,0.0,0.1,820,82,1,1,8.602,0,39.540634,-122.332367,1.93,0.002,586.5,5,3,0.9,0,0.0,-1,0.0,0.0,0.0,0
68594,1495236184238,,,,,,,,0.02,0.1,0.99,8.3,0.0,0.1,820,77,,,,,,,,,,,,,,,,,,,
68614,1495236184258,,,,,,,,0.02,0.09,0.99,8.2,-0.0,-0.1,840,74,,,,,,,,,,,,,,,,,,,
68634,1495236184278,,,,,,,,0.02,0.08,0.99,8.1,0.0,-0.1,840,74,,,,,,,,,,,,,,,,,,,
68654,1495236184298,,,,,,,,0.02,0.08,0.98,8.1,-0.0,-0.0,840,71,,,,,,,,,,,,,,,,,,,
68674,1495236184318,0,89.4,,101.5,68,97.4,,0.02,0.09,0.98,8.0,0.2,0.0,860,66,1,1,10.789,0,39.540634,-122.332367,1.79,0.002,586.3,5,3,0.9,0,0.0,-1,0.0,0.0,0.0,0
68694,1495236184338,,,,,,,,0.02,0.1,0.99,7.9,-0.0,0.0,860,66,,,,,,,,,,,,,,,,,,,
68714,1495236184358,,,,,,,,0.01,0.1,0.99,7.8,-0.2,-0.0,860,65,,,,,,,,,,,,,,,,,,,
68734,1495236184378,,,,,,,,0.01,0.1,0.99,7.8,-0.1,-0.2,860,83,,,,,,,,,,,,,,,,,,,
68754,1495236184397,,,,,,,,0.0,0.09,0.98,7.8,-0.1,-0.3,880,97,,,,,,,,,,,,,,,,,,,
68774,1495236184417,,,,,66,,,0.0,0.08,0.98,7.7,-0.2,-0.4,880,106,1,1,13.438,0,39.540638,-122.332367,1.76,0.002,586.5,5,3,0.9,0,0.0,-1,0.0,0.0,0.0,0
68794,1495236184437,,,,,,,,0.0,0.07,0.98,7.7,-0.1,-0.4,900,106,,,,,,,,,,,,,,,,,,,
68814,1495236184457,,,,,,,,0.01,0.08,0.98,7.5,-0.1,-0.3,900,105,,,,,,,,,,,,,,,,,,,
68834,1495236184477,,,,,,,,0.01,0.09,0.98,7.4,-0.1,-0.3,880,102,,,,,,,,,,,,,,,,,,,
68854,1495236184497,,,,,,,,0.01,0.09,0.99,7.3,-0.0,-0.2,880,91,,,,,,,,,,,,,,,,,,,
68874,1495236184517,0,87.9,,100.0,61,96.2,,0.01,0.11,0.99,7.2,-0.1,-0.2,900,89,1,1,8.491,0,39.540638,-122.332367,1.78,0.002,586.5,5,3,0.9,0,0.0,-1,0.0,0.0,0.0,0
68894,1495236184537,,,,,,,,0.01,0.11,0.99,7.1,-0.2,-0.2,900,86,,,,,,,,,,,,,,,,,,,
68914,1495236184557,,,,,,,,0.01,0.1,0.99,7.0,-0.3,-0.2,900,82,,,,,,,,,,,,,,,,,,,
68934,1495236184577,,,,,,,,0.0,0.1,0.99,7.0,-0.2,-0.3,920,82,,,,,,,,,,,,,,,,,,,
68954,1495236184597,,,,,,,,0.0,0.1,0.99,6.9,-0.1,-0.3,900,78,,,,,,,,,,,,,,,,,,,
68974,1495236184617,,,,,62,,,0.0,0.09,0.98,6.8,-0.1,-0.3,900,74,1,1,10.465,0,39.540638,-122.332367,1.69,0.002,586.6,5,3,0.9,0,0.0,-1,0.0,0.0,0.0,0
68994,1495236184637,,,,,,,,0.0,0.08,0.98,6.7,-0.0,-0.3,900,74,,,,,,,,,,,,,,,,,,,
69014,1495236184657,,,,,,,,0.0,0.08,0.98,6.7,-0.1,-0.3,920,72,,,,,,,,,,,,,,,,,,,
69034,1495236184677,,,,,,,,0.01,0.09,0.98,6.5,-0.1,-0.3,940,77,,,,,,,,,,,,,,,,,,,
69054,1495236184697,,,,,,,,0.01,0.09,0.98,6.4,-0.1,-0.2,940,83,,,,,,,,,,,,,,,,,,,
69074,1495236184717,0,89.5,-0.3,102.0,62,97.4,14.64,0.0,0.09,0.98,6.3,-0.2,-0.1,940,88,1,1,12.329,0,39.540638,-122.332367,1.78,0.002,586.9,5,3,0.9,0,0.0,-1,0.0,0.0,0.0,0
69094,1495236184737,,,,,,,,0.01,0.09,0.99,6.2,-0.1,-0.1,940,88,,,,,,,,,,,,,,,,,,,
69114,1495236184757,,,,,,,,0.01,0.1,0.99,6.1,0.0,-0.1,940,88,,,,,,,,,,,,,,,,,,,
69134,1495236184777,,,,,,,,0.01,0.11,1.0,6.0,0.1,-0.2,940,85,,,,,,,,,,,,,,,,,,,
69154,1495236184797,,,,,,,,0.01,0.12,0.99,5.9,-0.0,-0.2,940,85,,,,,,,,,,,,,,,,,,,
69174,1495236184817,,,,,59,,,0.01,0.12,0.99,5.7,-0.1,-0.2,960,82,1,1,10.805,0,39.540638,-122.332367,1.45,0.002,587.0,5,3,0.9,0,0.0,-1,0.0,0.0,0.0,0
69194,1495236184837,,,,,,,,0.01,0.11,0.99,5.7,-0.3,-0.2,960,80,,,,,,,,,,,,,,,,,,,
69214,1495236184857,,,,,,,,0.01,0.11,0.99,5.6,-0.3,-0.3,960,77,,,,,,,,,,,,,,,,,,,
69234,1495236184877,,,,,,,,0.01,0.1,0.99,5.5,-0.3,-0.3,960,74,,,,,,,,,,,,,,,,,,,
69254,1495236184899,,,,,,,,0.0,0.09,0.99,5.5,-0.2,-0.4,960,71,,,,,,,,,,,,,,,,,,,
69274,1495236184919,0,89.6,,102.1,64,97.2,,-0.0,0.09,0.99,5.4,-0.1,-0.5,960,71,1,1,12.632,0,39.540638,-122.332367,1.53,0.002,586.9,5,3,0.9,0,0.0,-1,0.0,0.0,0.0,0
69294,1495236184939,,,,,,,,-0.0,0.08,0.99,5.3,0.0,-0.5,980,69,,,,,,,,,,,,,,,,,,,
69314,1495236184959,,,,,,,,-0.01,0.08,0.99,5.2,0.1,-0.5,980,69,,,,,,,,,,,,,,,,,,,
69334,1495236184979,,,,,,,,-0.01,0.09,0.99,5.0,0.3,-0.6,960,68,,,,,,,,,,,,,,,,,,,
69354,1495236184999,,,,,,,,-0.01,0.09,0.99,4.9,0.3,-0.6,960,69,,,,,,,,,,,,,,,,,,,
69374,1495236185009,,,,,64,,,-0.01,0.08,0.99,4.9,0.3,-0.6,960,68,1,1,14.203,0,39.540638,-122.332382,1.37,0.002,587.0,5,3,0.9,0,0.0,-1,0.0,0.0,0.0,0
69394,1495236185029,,,,,,,,-0.01,0.08,0.98,4.8,0.3,-0.6,960,68,,,,,,,,,,,,,,,,,,,
69414,1495236185049,,,,,,,,-0.01,0.07,0.98,4.7,0.3,-0.7,980,68,,,,,,,,,,,,,,,,,,,
69434,1495236185069,,,,,,,,-0.01,0.07,0.97,4.6,0.3,-0.7,960,68,,,,,,,,,,,,,,,,,,,
69454,1495236185099,,,,,,,,-0.01,0.07,0.98,4.6,0.3,-0.6,960,68,,,,,,,,,,,,,,,,,,,
69474,1495236185119,0,89.8,,101.8,64,96.3,,-0.0,0.07,0.98,4.5,0.2,-0.6,960,66,1,1,14.328,0,39.540638,-122.332382,1.23,0.002,587.2,5,3,0.9,0,0.0,-1,0.0,0.0,0.0,0
69494,1495236185139,,,,,,,,0.0,0.07,0.98,4.4,0.2,-0.6,960,66,,,,,,,,,,,,,,,,,,,
69514,1495236185159,,,,,,,,0.0,0.07,0.99,4.3,0.2,-0.6,960,65,,,,,,,,,,,,,,,,,,,
69534,1495236185179,,,,,,,,0.01,0.07,0.99,4.2,0.2,-0.6,940,65,,,,,,,,,,,,,,,,,,,
69554,1495236185199,,,,,,,,0.01,0.08,0.99,4.0,0.1,-0.5,940,65,,,,,,,,,,,,,,,,,,,
69574,1495236185219,,,,,63,,,0.01,0.09,0.99,3.8,-0.0,-0.5,940,63,1,1,14.545,0,39.540638,-122.332382,1.37,0.002,586.9,5,3,0.9,0,0.0,-1,0.0,0.0,0.0,0
69594,1495236185239,,,,,,,,0.01,0.09,0.99,3.6,-0.1,-0.5,920,60,,,,,,,,,,,,,,,,,,,
69614,1495236185259,,,,,,,,0.01,0.09,0.99,3.4,-0.2,-0.4,920,58,,,,,,,,,,,,,,,,,,,
69634,1495236185279,,,,,,,,0.01,0.09,1.0,3.3,-0.1,-0.4,920,57,,,,,,,,,,,,,,,,,,,
69654,1495236185299,,,,,,,,0.01,0.1,1.0,3.1,-0.0,-0.4,920,57,,,,,,,,,,,,,,,,,,,
69674,1495236185319,0,89.6,,100.3,67,95.6,,0.01,0.1,1.0,3.0,-0.1,-0.4,920,57,1,1,15.333,0,39.540638,-122.332382,1.04,0.003,586.5,5,3,0.9,0,0.0,-1,0.0,0.0,0.0,0
69694,1495236185339,,,,,,,,0.01,0.1,1.0,2.8,-0.2,-0.5,920,54,,,,,,,,,,,,,,,,,,,
69714,1495236185359,,,,,,,,0.0,0.09,1.0,2.6,-0.2,-0.5,900,54,,,,,,,,,,,,,,,,,,,
69734,1495236185379,,,,,,,,-0.0,0.09,1.0,2.5,-0.1,-0.6,880,52,,,,,,,,,,,,,,,,,,,
69754,1495236185398,,,,,,,,-0.0,0.09,0.99,2.4,-0.0,-0.6,880,49,,,,,,,,,,,,,,,,,,,
69774,1495236185418,,,,,60,,,0.0,0.08,0.99,2.2,-0.0,-0.7,880,49,1,1,16.981,0,39.540638,-122.332382,0.98,0.003,586.8,5,3,0.9,0,0.0,-1,0.0,0.0,0.0,0
69794,1495236185438,,,,,,,,0.0,0.08,0.99,2.1,-0.0,-0.6,880,51,,,,,,,,,,,,,,,,,,,
69814,1495236185458,,,,,,,,0.0,0.08,0.99,1.9,-0.1,-0.6,880,63,,,,,,,,,,,,,,,,,,,
69834,1495236185478,,,,,,,,0.0,0.09,0.99,1.8,-0.1,-0.6,880,54,,,,,,,,,,,,,,,,,,,
69854,1495236185498,,,,,,,,0.01,0.09,0.99,1.6,-0.0,-0.6,860,54,,,,,,,,,,,,,,,,,,,
69874,1495236185518,0,87.8,,100.3,58,96.5,,0.01,0.09,0.99,1.5,-0.1,-0.6,860,51,1,1,13.968,0,39.540638,-122.332382,1.16,0.003,586.6,5,3,0.9,0,0.0,-1,0.0,0.0,0.0,0
69894,1495236185538,,,,,,,,0.0,0.09,0.99,1.3,-0.2,-0.6,860,49,,,,,,,,,,,,,,,,,,,
69914,1495236185558,,,,,,,,-0.0,0.08,0.99,1.3,-0.2,-0.6,860,49,,,,,,,,,,,,,,,,,,,
69934,1495236185578,,,,,,,,-0.0,0.08,0.99,1.1,-0.2,-0.7,860,48,,,,,,,,,,,,,,,,,,,
69954,1495236185598,,,,,,,,-0.0,0.07,0.99,1.0,-0.1,-0.7,860,48,,,,,,,,,,,,,,,,,,,
69974,1495236185618,,,,,57,,,-0.0,0.07,0.99,0.8,-0.1,-0.7,860,46,1,1,17.551,0,39.540638,-122.332382,1.03,0.003,586.7,5,3,0.9,0,0.0,-1,0.0,0.0,0.0,0
69994,1495236185638,,,,,,,,0.0,0.08,0.99,0.6,-0.1,-0.7,860,45,,,,,,,,,,,,,,,,,,,
70014,1495236185658,,,,,,,,0.01,0.08,0.99,0.5,-0.0,-0.6,860,45,,,,,,,,,,,,,,,,,,,
70034,1495236185678,,,,,,,,0.01,0.09,0.99,0.4,-0.1,-0.6,860,43,,,,,,,,,,,,,,,,,,,
70054,1495236185698,,,,,,,,0.0,0.08,1.0,0.3,-0.1,-0.6,860,43,,,,,,,,,,,,,,,,,,,
70074,1495236185718,0,88.5,-0.4,101.8,57,97.5,14.75,-0.0,0.08,0.99,0.2,-0.0,-0.7,860,42,1,1,19.545,0,39.540638,-122.332382,0.97,0.003,586.8,5,3,0.9,0,0.0,-1,0.0,0.0,0.0,0
70094,1495236185738,,,,,,,,-0.0,0.07,0.99,0.1,-0.1,-0.7,880,42,,,,,,,,,,,,,,,,,,,
70114,1495236185758,,,,,,,,-0.0,0.07,0.99,0.0,-0.0,-0.6,860,40,,,,,,,,,,,,,,,,,,,
70134,1495236185778,,,,,,,,-0.0,0.08,0.99,-0.1,0.0,-0.5,860,40,,,,,,,,,,,,,,,,,,,
70154,1495236185798,,,,,,,,-0.0,0.08,1.0,-0.2,0.1,-0.5,860,32,,,,,,,,,,,,,,,,,,,
70174,1495236185818,,,,,56,,,0.0,0.08,1.0,-0.3,0.1,-0.4,860,32,1,1,22.0,0,39.540638,-122.332382,0.0,0.003,586.8,5,3,0.9,0,0.0,-1,0.0,0.0,0.0,0
70194,1495236185838,,,,,,,,0.0,0.08,1.0,-0.4,-0.0,-0.4,860,35,,,,,,,,,,,,,,,,,,,
70214,1495236185858,,,,,,,,-0.0,0.08,1.0,-0.4,-0.1,-0.4,860,35,,,,,,,,,,,,,,,,,,,
70234,1495236185878,,,,,,,,-0.0,0.07,0.99,-0.5,-0.0,-0.5,880,42,,,,,,,,,,,,,,,,,,,
70254,1495236185898,,,,,,,,-0.01,0.07,0.99,-0.6,-0.0,-0.5,860,42,,,,,,,,,,,,,,,,,,,
70274,1495236185918,0,89.0,,102.0,56,97.7,,-0.01,0.07,0.99,-0.7,-0.0,-0.5,860,42,1,1,24.571,0,39.540638,-122.332382,0.0,0.003,586.6,5,3,0.9,0,0.0,-1,0.0,0.0,0.0,0
70294,1495236185938,,,,,,,,-0.0,0.07,0.99,-0.8,-0.1,-0.4,860,37,,,,,,,,,,,,,,,,,,,
70314,1495236185958,,,,,,,,0.0,0.07,0.99,-0.9,-0.1,-0.3,860,37,,,,,,,,,,,,,,,,,,,
70334,1495236185978,,,,,,,,0.0,0.08,0.99,-1.0,-0.1,-0.3,860,32,,,,,,,,,,,,,,,,,,,
70354,1495236185998,,,,,,,,-0.0,0.08,0.99,-1.1,-0.2,-0.4,880,32,,,,,,,,,,,,,,,,,,,
70374,1495236186010,,,,,59,,,-0.01,0.07,1.0,-1.2,-0.2,-0.4,880,32,1,1,23.889,0,39.540638,-122.332382,0.0,0.003,586.5,5,3,0.9,0,0.0,-1,0.0,0.0,0.0,0
70394,1495236186030,,,,,,,,-0.01,0.07,0.99,-1.2,-0.3,-0.5,860,32,,,,,,,,,,,,,,,,,,,
70414,1495236186050,,,,,,,,-0.01,0.06,0.98,-1.2,-0.2,-0.4,860,23,,,,,,,,,,,,,,,,,,,
70434,1495236186070,,,,,,,,-0.01,0.05,0.98,-1.3,-0.2,-0.5,860,23,,,,,,,,,,,,,,,,,,,
70454,1495236186098,,,,,,,,0.0,0.06,0.99,-1.4,-0.2,-0.4,860,25,,,,,,,,,,,,,,,,,,,
70474,1495236186118,0,88.1,,101.2,58,97.0,,0.01,0.06,0.99,-1.5,-0.1,-0.3,860,25,1,1,37.391,0,39.540638,-122.332382,0.0,0.003,586.2,5,3,0.9,0,0.0,-1,0.0,0.0,0.0,0
70494,1495236186138,,,,,,,,0.01,0.07,0.99,-1.5,-0.1,-0.3,860,25,,,,,,,,,,,,,,,,,,,
70514,1495236186158,,,,,,,,0.0,0.07,0.98,-1.6,-0.2,-0.3,880,29,,,,,,,,,,,,,,,,,,,
70534,1495236186178,,,,,,,,0.0,0.07,0.99,-1.6,-0.2,-0.4,860,29,,,,,,,,,,,,,,,,,,,
70554,1495236186198,,,,,,,,0.0,0.06,0.98,-1.7,-0.2,-0.4,860,29,,,,,,,,,,,,,,,,,,,
70574,1495236186218,,,,,61,,,-0.0,0.06,0.98,-1.8,-0.2,-0.4,840,29,1,1,30.345,0,39.540638,-122.332382,0.0,0.003,585.9,5,3,0.9,0,0.0,-1,0.0,0.0,0.0,0
70594,1495236186238,,,,,,,,-0.0,0.06,0.98,-1.8,-0.2,-0.4,840,18,,,,,,,,,,,,,,,,,,,
70614,1495236186258,,,,,,,,-0.0,0.06,0.98,-1.9,-0.2,-0.3,860,18,,,,,,,,,,,,,,,,,,,
70634,1495236186278,,,,,,,,0.0,0.06,0.98,-2.0,-0.2,-0.3,860,18,,,,,,,,,,,,,,,,,,,
70654,1495236186298,,,,,,,,0.0,0.07,0.99,-2.0,-0.2,-0.4,880,18,,,,,,,,,,,,,,,,,,,
70674,1495236186318,0,89.5,,102.2,62,97.4,,-0.0,0.06,0.99,-2.0,-0.2,-0.4,840,20,1,1,47.778,0,39.540638,-122.332382,0.0,0.003,585.9,5,3,0.9,0,0.0,-1,0.0,0.0,0.0,0
70694,1495236186338,,,,,,,,-0.0,0.06,0.99,-2.0,-0.2,-0.5,860,20,,,,,,,,,,,,,,,,,,,
70714,1495236186358,,,,,,,,-0.01,0.06,0.99,-2.0,-0.2,-0.5,860,20,,,,,,,,,,,,,,,,,,,
70734,1495236186378,,,,,,,,-0.0,0.05,0.99,-2.1,-0.2,-0.5,860,20,,,,,,,,,,,,,,,,,,,
70754,1495236186397,,,,,,,,-0.0,0.05,0.99,-2.1,-0.1,-0.5,860,20,,,,,,,,,,,,,,,,,,,
70774,1495236186417,,,,,61,,,-0.0,0.06,0.99,-2.2,-0.1,-0.4,860,18,1,1,43.0,0,39.540638,-122.332382,0.0,0.003,585.9,5,3,0.9,0,0.0,-1,0.0,0.0,0.0,0
70794,1495236186437,,,,,,,,0.0,0.06,1.0,-2.2,-0.1,-0.4,880,18,,,,,,,,,,,,,,,,,,,
70814,1495236186457,,,,,,,,0.0,0.06,1.0,-2.3,-0.2,-0.4,840,18,,,,,,,,,,,,,,,,,,,
70834,1495236186477,,,,,,,,0.0,0.06,1.0,-2.3,-0.2,-0.5,860,18,,,,,,,,,,,,,,,,,,,
70854,1495236186497,,,,,,,,-0.0,0.06,0.99,-2.3,-0.2,-0.5,840,18,,,,,,,,,,,,,,,,,,,
70874,1495236186517,0,88.5,,101.6,60,97.4,,-0.0,0.05,0.99,-2.4,-0.1,-0.5,840,18,1,1,46.667,0,39.540638,-122.332382,0.0,0.003,585.9,5,3,0.9,0,0.0,-1,0.0,0.0,0.0,0
70894,1495236186537,,,,,,,,-0.0,0.05,0.99,-2.4,-0.1,-0.5,840,18,,,,,,,,,,,,,,,,,,,
70914,1495236186557,,,,,,,,0.0,0.06,0.99,-2.4,-0.1,-0.4,860,18,,,,,,,,,,,,,,,,,,,
70934,1495236186577,,,,,,,,0.01,0.06,0.99,-2.5,-0.1,-0.4,880,18,,,,,,,,,,,,,,,,,,,
70954,1495236186597,,,,,,,,0.0,0.07,0.99,-2.5,-0.2,-0.4,820,18,,,,,,,,,,,,,,,,,,,
70974,1495236186617,,,,,60,,,0.0,0.06,1.0,-2.5,-0.2,-0.5,840,18,1,1,47.778,0,39.540638,-122.332382,0.0,0.003,585.9,5,3,0.9,0,0.0,-1,0.0,0.0,0.0,0
70994,1495236186637,,,,,,,,-0.0,0.06,0.99,-2.5,-0.2,-0.6,840,18,,,,,,,,,,,,,,,,,,,
71014,1495236186657,,,,,,,,-0.0,0.05,0.99,-2.5,-0.2,-0.6,860,18,,,,,,,,,,,,,,,,,,,
71034,1495236186677,,,,,,,,0.0,0.04,0.99,-2.6,-0.1,-0.6,860,18,,,,,,,,,,,,,,,,,,,
71054,1495236186697,,,,,,,,0.0,0.05,0.99,-2.6,-0.1,-0.5,860,18,,,,,,,,,,,,,,,,,,,
71074,1495236186717,0,89.5,-0.5,101.5,61,95.9,14.82,0.01,0.06,0.99,-2.7,-0.0,-0.4,880,18,1,1,46.667,0,39.540638,-122.332382,0.0,0.003,585.9,5,3,0.9,0,0.0,-1,0.0,0.0,0.0,0
71094,1495236186737,,,,,,,,0.01,0.07,0.99,-2.7,-0.1,-0.4,840,18,,,,,,,,,,,,,,,,,,,
71114,1495236186757,,,,,,,,0.01,0.06,0.99,-2.7,-0.2,-0.4,860,18,,,,,,,,,,,,,,,,,,,
71134,1495236186777,,,,,,,,0.0,0.06,0.99,-2.7,-0.3,-0.5,860,18,,,,,,,,,,,,,,,,,,,
71154,1495236186797,,,,,,,,0.0,0.05,0.98,-2.7,-0.3,-0.6,880,18,,,,,,,,,,,,,,,,,,,
71174,1495236186817,,,,,60,,,0.0,0.04,0.98,-2.7,-0.2,-0.6,880,18,1,1,47.778,0,39.540638,-122.332382,0.0,0.003,585.9,5,3,0.9,0,0.0,-1,0.0,0.0,0.0,0
71194,1495236186837,,,,,,,,0.0,0.04,0.98,-2.7,-0.2,-0.5,900,18,,,,,,,,,,,,,,,,,,,
71214,1495236186857,,,,,,,,0.01,0.05,0.98,-2.8,-0.2,-0.5,900,18,,,,,,,,,,,,,,,,,,,
71234,1495236186877,,,,,,,,0.01,0.05,0.99,-2.8,-0.1,-0.4,860,18,,,,,,,,,,,,,,,,,,,
71254,1495236186897,,,,,,,,0.02,0.07,0.99,-2.8,-0.1,-0.4,880,18,,,,,,,,,,,,,,,,,,,
71274,1495236186917,0,88.0,,101.2,60,97.2,,0.01,0.07,0.99,-2.8,-0.2,-0.4,880,18,1,1,50.0,0,39.540638,-122.332382,0.0,0.003,585.9,5,3,0.9,0,0.0,-1,0.0,0.0,0.0,0
71294,1495236186937,,,,,,,,0.01,0.06,0.99,-2.8,-0.2,-0.5,900,18,,,,,,,,,,,,,,,,,,,
71314,1495236186957,,,,,,,,0.01,0.05,0.99,-2.8,-0.2,-0.5,900,18,,,,,,,,,,,,,,,,,,,
71334,1495236186977,,,,,,,,0.0,0.05,0.99,-2.8,-0.1,-0.6,940,18,,,,,,,,,,,,,,,,,,,
71354,1495236186997,,,,,,,,0.01,0.04,0.98,-2.8,-0.1,-0.6,900,18,,,,,,,,,,,,,,,,,,,
71374,1495236187009,,,,,64,,,0.01,0.04,0.98,-2.8,-0.0,-0.6,920,18,1,1,50.0,0,39.540638,-122.332382,0.0,0.003,585.9,5,3,0.9,0,0.0,-1,0.0,0.0,0.0,0
71394,1495236187029,,,,,,,,0.01,0.03,0.99,-2.8,0.1,-0.6,920,18,,,,,,,,,,,,,,,,,,,
71414,1495236187049,,,,,,,,0.01,0.03,0.99,-2.8,0.0,-0.6,940,18,,,,,,,,,,,,,,,,,,,
71434,1495236187069,,,,,,,,0.02,0.04,0.99,-2.9,-0.2,-0.5,960,18,,,,,,,,,,,,,,,,,,,
71454,1495236187099,,,,,,,,0.02,0.04,0.99,-2.9,-0.2,-0.4,960,18,,,,,,,,,,,,,,,,,,,
71474,1495236187119,0,88.1,,100.6,64,96.8,,0.02,0.04,0.99,-2.9,-0.2,-0.4,960,18,1,1,51.111,0,39.540638,-122.332382,0.0,0.003,585.9,5,3,0.9,0,0.0,-1,0.0,0.0,0.0,0
71494,1495236187139,,,,,,,,0.02,0.05,0.99,-2.9,-0.2,-0.4,940,18,,,,,,,,,,,,,,,,,,,
71514,1495236187159,,,,,,,,0.02,0.05,1.0,-2.8,-0.1,-0.3,960,18,,,,,,,,,,,,,,,,,,,
71534,1495236187179,,,,,,,,0.02,0.06,1.01,-2.8,-0.0,-0.3,960,18,,,,,,,,,,,,,,,,,,,
71554,1495236187199,,,,,,,,0.03,0.06,1.01,-2.8,0.1,-0.2,980,18,,,,,,,,,,,,,,,,,,,
71574,1495236187219,,,,,64,,,0.03,0.07,1.02,-2.8,0.2,-0.2,980,1538462,1,1,53.333,0,39.540638,-122.332382,0.0,0.003,585.9,5,3,0.9,0,0.0,-1,0.0,0.0,0.0,0
71594,1495236187239,,,,,,,,0.03,0.07,1.02,-2.8,0.3,-0.2,1000,0,,,,,,,,,,,,,,,,,,,
71614,1495236187259,,,,,,,,0.04,0.07,1.02,-2.8,0.3,-0.2,980,0,,,,,,,,,,,,,,,,,,,
71634,1495236187279,,,,,,,,0.04,0.08,1.02,-2.9,0.3,-0.2,1000,92,,,,,,,,,,,,,,,,,,,
71654,1495236187299,,,,,,,,0.04,0.08,1.03,-3.0,0.3,-0.1,1000,92,,,,,,,,,,,,,,,,,,,
71674,1495236187319,0,88.1,,101.1,68,97.4,,0.04,0.08,1.03,-3.0,0.4,-0.1,1000,92,1,1,0.0,0,39.540638,-122.332382,0.0,0.003,585.9,5,3,0.9,0,0.0,-1,0.0,0.0,0.0,0
71694,1495236187339,,,,,,,,0.04,0.08,1.03,-3.0,0.5,-0.1,1000,26,,,,,,,,,,,,,,,,,,,
71714,1495236187359,,,,,,,,0.04,0.08,1.02,-3.0,0.6,-0.1,1000,26,,,,,,,,,,,,,,,,,,,
71734,1495236187379,,,,,,,,0.04,0.08,1.02,-3.0,0.7,-0.1,1000,26,,,,,,,,,,,,,,,,,,,
71754,1495236187398,,,,,,,,0.04,0.08,1.02,-2.9,0.8,-0.2,1000,26,,,,,,,,,,,,,,,,,,,
71774,1495236187418,,,,,69,,,0.04,0.08,1.02,-2.9,0.8,-0.2,1000,26,1,1,38.462,0,39.540638,-122.332382,0.0,0.003,585.9,5,3,0.9,0,0.0,-1,0.0,0.0,0.0,0
71794,1495236187438,,,,,,,,0.04,0.08,1.02,-2.9,0.9,-0.2,1000,26,,,,,,,,,,,,,,,,,,,
71814,1495236187458,,,,,,,,0.04,0.09,1.02,-2.9,0.9,-0.2,1000,26,,,,,,,,,,,,,,,,,,,
71834,1495236187478,,,,,,,,0.04,0.08,1.02,-2.8,0.9,-0.2,1000,26,,,,,,,,,,,,,,,,,,,
71854,1495236187498,,,,,,,,0.04,0.08,1.02,-2.8,0.9,-0.2,1000,26,,,,,,,,,,,,,,,,,,,
71874,1495236187518,1,89.4,,102.3,67,97.7,,0.04,0.08,1.02,-2.7,0.8,-0.1,1000,8,1,1,38.462,0,39.540638,-122.332382,0.0,0.003,585.9,5,3,0.9,0,0.0,-1,0.0,0.0,0.0,0
71894,1495236187538,,,,,,,,0.04,0.08,1.02,-2.7,0.8,-0.2,1000,8,,,,,,,,,,,,,,,,,,,
71914,1495236187558,,,,,,,,0.04,0.08,1.02,-2.7,0.8,-0.2,1000,8,,,,,,,,,,,,,,,,,,,
71934,1495236187578,,,,,,,,0.04,0.08,1.02,-2.6,0.6,-0.1,1000,8,,,,,,,,,,,,,,,,,,,
71954,1495236187598,,,,,,,,0.04,0.08,1.01,-2.6,0.5,-0.1,1000,8,,,,,,,,,,,,,,,,,,,
71974,1495236187618,,,,,67,,,0.04,0.08,1.01,-2.6,0.4,-0.1,1000,14,1,1,142.857,0,39.540638,-122.332382,0.0,0.003,585.9,5,3,0.9,0,0.0,-1,0.0,0.0,0.0,0
71994,1495236187638,,,,,,,,0.04,0.08,1.01,-2.6,0.2,-0.1,1000,14,,,,,,,,,,,,,,,,,,,
72014,1495236187658,,,,,,,,0.03,0.07,1.01,-2.6,0.1,-0.1,1000,14,,,,,,,,,,,,,,,,,,,
72034,1495236187678,,,,,,,,0.03,0.07,1.01,-2.5,-0.0,-0.1,1000,14,,,,,,,,,,,,,,,,,,,
72054,1495236187698,,,,,,,,0.03,0.07,1.0,-2.5,-0.1,-0.1,1000,17,,,,,,,,,,,,,,,,,,,
72074,1495236187718,0,89.6,-0.4,102.6,65,97.7,14.79,0.03,0.06,1.0,-2.5,-0.2,-0.1,980,17,1,1,76.923,0,39.540638,-122.332382,0.0,0.003,585.9,5,3,0.9,0,0.0,-1,0.0,0.0,0.0,0
72094,1495236187738,,,,,,,,0.03,0.06,1.0,-2.4,-0.3,-0.1,980,17,,,,,,,,,,,,,,,,,,,
72114,1495236187758,,,,,,,,0.02,0.05,1.0,-2.4,-0.3,-0.1,980,17,,,,,,,,,,,,,,,,,,,
72134,1495236187778,,,,,,,,0.02,0.04,1.0,-2.3,-0.4,-0.1,980,18,,,,,,,,,,,,,,,,,,,
72154,1495236187798,,,,,,,,0.02,0.03,0.99,-2.3,-0.4,-0.1,980,18,,,,,,,,,,,,,,,,,,,
72174,1495236187818,,,,,65,,,0.02,0.03,0.99,-2.2,-0.4,-0.0,980,18,1,1,61.25,0,39.540638,-122.332382,0.0,0.003,585.9,5,3,0.9,0,0.0,-1,0.0,0.0,0.0,0
72194,1495236187838,,,,,,,,0.02,0.03,0.99,-2.2,-0.5,-0.0,960,18,,,,,,,,,,,,,,,,,,,
72214,1495236187858,,,,,,,,0.02,0.03,1.0,-2.1,-0.5,-0.0,960,22,,,,,,,,,,,,,,,,,,,
72234,1495236187878,,,,,,,,0.02,0.03,1.0,-2.1,-0.4,-0.0,960,22,,,,,,,,,,,,,,,,,,,
72254,1495236187898,,,,,,,,0.02,0.03,1.0,-2.0,-0.4,0.0,960,22,,,,,,,,,,,,,,,,,,,
72274,1495236187918,0,88.0,,100.7,61,96.9,,0.02,0.03,1.0,-1.9,-0.2,0.0,960,23,1,1,53.333,0,39.540638,-122.332382,0.0,0.003,585.9,5,3,0.9,0,0.0,-1,0.0,0.0,0.0,0
72294,1495236187938,,,,,,,,0.02,0.04,1.01,-1.9,-0.2,0.0,960,23,,,,,,,,,,,,,,,,,,,
72314,1495236187958,,,,,,,,0.02,0.05,1.01,-1.8,-0.0,0.0,960,23,,,,,,,,,,,,,,,,,,,
72334,1495236187978,,,,,,,,0.02,0.05,1.01,-1.8,-0.0,0.0,960,23,,,,,,,,,,,,,,,,,,,
72354,1495236187998,,,,,,,,0.02,0.05,1.01,-1.8,0.0,0.0,940,23,,,,,,,,,,,,,,,,,,,
72374,1495236188010,,,,,59,,,0.03,0.06,1.01,-1.7,-0.0,0.0,940,23,1,1,41.739,0,39.540638,-122.332382,0.0,0.003,585.9,5,3,0.9,0,0.0,-1,0.0,0.0,0.0,0
72394,1495236188030,,,,,,,,0.02,0.06,1.0,-1.7,-0.1,0.0,960,29,,,,,,,,,,,,,,,,,,,
72414,1495236188050,,,,,,,,0.02,0.05,1.0,-1.6,-0.2,-0.0,960,29,,,,,,,,,,,,,,,,,,,
72434,1495236188070,,,,,,,,0.01,0.05,1.0,-1.6,-0.3,-0.1,940,29,,,,,,,,,,,,,,,,,,,
72454,1495236188098,,,,,,,,0.0,0.04,0.99,-1.5,-0.3,-0.1,940,29,,,,,,,,,,,,,,,,,,,
72474,1495236188118,0,90.0,,103.0,60,96.6,,-0.01,0.04,1.0,-1.4,-0.2,-0.2,920,29,1,1,33.103,0,39.540638,-122.332382,0.0,0.003,585.9,5,3,0.9,0,0.0,-1,0.0,0.0,0.0,0
72494,1495236188138,,,,,,,,-0.01,0.04,1.0,-1.3,-0.1,-0.3,920,31,,,,,,,,,,,,,,,,,,,
72514,1495236188158,,,,,,,,-0.02,0.04,0.99,-1.3,-0.1,-0.3,940,31,,,,,,,,,,,,,,,,,,,
72534,1495236188178,,,,,,,,-0.02,0.04,0.98,-1.2,-0.1,-0.4,940,35,,,,,,,,,,,,,,,,,,,
72554,1495236188198,,,,,,,,-0.02,0.03,0.97,-1.2,-0.1,-0.4,940,35,,,,,,,,,,,,,,,,,,,
72574,1495236188218,,,,,57,,,-0.02,0.03,0.97,-1.1,0.1,-0.4,920,32,1,1,30.667,0,39.540638,-122.332382,0.0,0.003,585.9,5,3,0.9,0,0.0,-1,0.0,0.0,0.0,0
72594,1495236188238,,,,,,,,-0.01,0.03,0.97,-1.0,0.1,-0.4,920,32,,,,,,,,,,,,,,,,,,,
72614,1495236188258,,,,,,,,-0.01,0.03,0.97,-1.0,0.1,-0.3,920,40,,,,,,,,,,,,,,,,,,,
72634,1495236188278,,,,,,,,-0.01,0.04,0.97,-1.0,0.0,-0.2,940,40,,,,,,,,,,,,,,,,,,,
72654,1495236188298,,,,,,,,-0.0,0.04,0.97,-1.0,0.0,-0.1,940,37,,,,,,,,,,,,,,,,,,,
72674,1495236188318,0,90.5,,103.5,56,97.7,,0.0,0.05,0.98,-0.9,-0.0,-0.1,920,37,1,1,23.0,0,39.540638,-122.332382,0.0,0.003,585.9,5,3,0.9,0,0.0,-1,0.0,0.0,0.0,0
72694,1495236188338,,,,,,,,0.0,0.07,0.99,-0.8,-0.0,-0.1,940,43,,,,,,,,,,,,,,,,,,,
72714,1495236188358,,,,,,,,0.0,0.07,0.99,-0.8,-0.1,-0.1,920,43,,,,,,,,,,,,,,,,,,,
72734,1495236188378,,,,,,,,0.0,0.07,0.99,-0.7,-0.2,-0.1,920,43,,,,,,,,,,,,,,,,,,,
72754,1495236188397,,,,,,,,-0.0,0.06,0.99,-0.6,-0.3,-0.1,900,45,,,,,,,,,,,,,,,,,,,
72774,1495236188417,,,,,58,,,-0.01,0.05,1.0,-0.5,-0.4,-0.2,940,48,1,1,21.395,0,39.540638,-122.332382,0.0,0.003,585.9,5,3,0.9,0,0.0,-1,0.0,0.0,0.0,0
72794,1495236188437,,,,,,,,-0.01,0.05,1.0,-0.3,-0.4,-0.2,920,48,,,,,,,,,,,,,,,,,,,
72814,1495236188457,,,,,,,,-0.02,0.04,0.99,-0.2,-0.3,-0.3,920,49,,,,,,,,,,,,,,,,,,,
72834,1495236188477,,,,,,,,-0.02,0.03,0.98,-0.1,-0.3,-0.3,900,49,,,,,,,,,,,,,,,,,,,
72854,1495236188497,,,,,,,,-0.02,0.02,0.98,-0.0,-0.3,-0.4,920,49,,,,,,,,,,,,,,,,,,,
72874,1495236188517,0,88.3,,101.5,58,97.8,,-0.02,0.02,0.98,0.1,-0.2,-0.4,900,54,1,1,18.776,0,39.540638,-122.332382,0.0,0.003,585.9,5,3,0.9,0,0.0,-1,0.0,0.0,0.0,0
72894,1495236188537,,,,,,,,-0.02,0.02,0.97,0.2,-0.1,-0.4,920,55,,,,,,,,,,,,,,,,,,,
72914,1495236188557,,,,,,,,-0.01,0.02,0.97,0.2,-0.1,-0.3,920,55,,,,,,,,,,,,,,,,,,,
72934,1495236188577,,,,,,,,-0.01,0.03,0.97,0.3,-0.1,-0.2,920,54,,,,,,,,,,,,,,,,,,,
72954,1495236188597,,,,,,,,-0.01,0.03,0.97,0.4,-0.1,-0.1,920,55,,,,,,,,,,,,,,,,,,,
72974,1495236188617,,,,,55,,,-0.01,0.05,0.98,0.5,-0.1,-0.0,900,63,1,1,16.727,0,39.540638,-122.332382,0.0,0.003,585.9,5,3,0.9,0,0.0,-1,0.0,0.0,0.0,0
72994,1495236188637,,,,,,,,-0.0,0.06,0.98,0.6,-0.1,-0.0,900,63,,,,,,,,,,,,,,,,,,,
73014,1495236188657,,,,,,,,-0.01,0.05,0.99,0.7,-0.2,-0.0,880,58,,,,,,,,,,,,,,,,,,,
73034,1495236188677,,,,,,,,-0.02,0.04,1.0,0.8,-0.3,-0.2,920,58,,,,,,,,,,,,,,,,,,,
73054,1495236188699,,,,,,,,-0.03,0.03,1.0,1.0,-0.2,-0.2,900,69,,,,,,,,,,,,,,,,,,,
73074,1495236188719,0,88.0,-0.6,101.4,58,97.7,14.74,-0.03,0.03,0.99,1.1,-0.2,-0.3,920,65,1,1,15.172,0,39.540638,-122.332382,0.0,0.003,585.9,5,3,0.9,0,0.0,-1,0.0,0.0,0.0,0
73094,1495236188739,,,,,,,,-0.04,0.01,0.99,1.3,-0.2,-0.4,900,60,,,,,,,,,,,,,,,,,,,
73114,1495236188759,,,,,,,,-0.03,0.01,0.98,1.4,-0.1,-0.3,900,71,,,,,,,,,,,,,,,,,,,
73134,1495236188779,,,,,,,,-0.03,0.0,0.98,1.5,-0.0,-0.3,880,74,,,,,,,,,,,,,,,,,,,
73154,1495236188799,,,,,,,,-0.03,0.01,0.98,1.6,0.1,-0.2,880,74,,,,,,,,,,,,,,,,,,,
73174,1495236188819,,,,,58,,,-0.02,0.01,0.98,1.6,0.1,-0.1,920,69,1,1,15.0,0,39.540638,-122.332382,0.94,0.003,588.7,5,3,0.9,0,0.0,-1,0.0,0.0,0.0,0
73194,1495236188839,,,,,,,,-0.01,0.02,0.98,1.7,0.1,-0.0,900,68,,,,,,,,,,,,,,,,,,,
73214,1495236188859,,,,,,,,-0.01,0.04,0.99,1.8,0.1,-0.1,900,83,,,,,,,,,,,,,,,,,,,
73234,1495236188879,,,,,,,,-0.02,0.04,0.99,1.9,-0.1,-0.1,880,80,,,,,,,,,,,,,,,,,,,
73254,1495236188899,,,,,,,,-0.02,0.04,1.0,2.0,-0.2,-0.1,900,80,,,,,,,,,,,,,,,,,,,
73274,1495236188919,0,88.1,,101.5,58,97.4,,-0.03,0.04,1.0,2.2,-0.2,-0.2,880,71,1,1,12.0,0,39.540638,-122.332382,1.06,0.003,588.9,5,3,0.9,0,0.0,-1,0.0,0.0,0.0,0
73294,1495236188939,,,,,,,,-0.04,0.03,1.0,2.3,-0.1,-0.3,920,89,,,,,,,,,,,,,,,,,,,
73314,1495236188959,,,,,,,,-0.04,0.02,0.99,2.4,-0.2,-0.4,900,91,,,,,,,,,,,,,,,,,,,
73334,1495236188979,,,,,,,,-0.04,0.01,0.98,2.5,-0.1,-0.4,900,77,,,,,,,,,,,,,,,,,,,
73354,1495236188991,,,,,,,,-0.03,0.01,0.98,2.6,-0.1,-0.3,880,75,,,,,,,,,,,,,,,,,,,
73374,1495236189011,,,,,58,,,-0.03,0.02,0.98,2.7,0.0,-0.2,880,88,1,1,10.337,0,39.540638,-122.332382,1.16,0.003,589.2,5,3,0.9,0,0.0,-1,0.0,0.0,0.0,0
73394,1495236189031,,,,,,,,-0.03,0.02,0.98,2.8,0.1,-0.1,900,97,,,,,,,,,,,,,,,,,,,
73414,1495236189051,,,,,,,,-0.02,0.03,0.98,2.9,0.1,-0.1,880,91,,,,,,,,,,,,,,,,,,,
73434,1495236189071,,,,,,,,-0.02,0.04,0.98,3.0,0.0,-0.1,920,82,,,,,,,,,,,,,,,,,,,
73454,1495236189099,,,,,,,,-0.02,0.04,0.99,3.1,-0.1,-0.2,900,92,,,,,,,,,,,,,,,,,,,
73474,1495236189119,0,89.5,,103.2,60,97.8,,-0.03,0.03,1.0,3.2,-0.2,-0.2,900,100,1,1,9.778,0,39.540638,-122.332382,1.29,0.003,589.3,5,3,0.9,0,0.0,-1,0.0,0.0,0.0,0
73494,1495236189139,,,,,,,,-0.04,0.03,1.0,3.4,-0.2,-0.3,880,102,,,,,,,,,,,,,,,,,,,
73514,1495236189159,,,,,,,,-0.04,0.02,0.99,3.5,-0.1,-0.4,900,95,,,,,,,,,,,,,,,,,,,
73534,1495236189179,,,,,,,,-0.04,0.01,0.98,3.6,-0.1,-0.4,880,94,,,,,,,,,,,,,,,,,,,
73554,1495236189199,,,,,,,,-0.04,0.0,0.98,3.8,-0.0,-0.5,920,105,,,,,,,,,,,,,,,,,,,
73574,1495236189219,,,,,59,,,-0.03,0.01,0.97,3.9,0.0,-0.4,920,106,1,1,9.263,0,39.540638,-122.332382,1.52,0.003,589.4,5,3,0.9,0,0.0,-1,0.0,0.0,0.0,0
73594,1495236189239,,,,,,,,-0.03,0.01,0.97,3.9,0.1,-0.3,920,97,,,,,,,,,,,,,,,,,,,
73614,1495236189259,,,,,,,,-0.02,0.02,0.97,4.0,0.1,-0.2,920,95,,,,,,,,,,,,,,,,,,,
73634,1495236189279,,,,,,,,-0.02,0.03,0.98,4.1,0.2,-0.2,900,112,,,,,,,,,,,,,,,,,,,
73654,1495236189299,,,,,,,,-0.02,0.04,0.99,4.2,0.2,-0.2,900,114,,,,,,,,,,,,,,,,,,,
73674,1495236189319,0,88.4,,102.2,59,97.7,,-0.02,0.03,0.99,4.3,-0.0,-0.2,900,108,1,1,9.684,0,39.540638,-122.332382,1.68,0.003,589.4,5,3,0.9,0,0.0,-1,0.0,0.0,0.0,0
73694,1495236189339,,,,,,,,-0.03,0.03,1.0,4.5,-0.1,-0.3,900,105,,,,,,,,,,,,,,,,,,,
73714,1495236189359,,,,,,,,-0.04,0.02,1.0,4.6,-0.1,-0.4,900,111,,,,,,,,,,,,,,,,,,,
73734,1495236189379,,,,,,,,-0.04,0.02,1.0,4.8,0.0,-0.4,900,117,,,,,,,,,,,,,,,,,,,
73754,1495236189398,,,,,,,,-0.04,0.01,0.99,4.9,-0.1,-0.5,880,115,,,,,,,,,,,,,,,,,,,
73774,1495236189418,,,,,61,,,-0.04,0.0,0.98,5.0,-0.1,-0.4,880,111,1,1,8.182,0,39.540638,-122.332382,1.84,0.003,589.3,5,3,0.9,0,0.0,-1,0.0,0.0,0.0,0
73794,1495236189438,,,,,,,,-0.03,-0.0,0.98,5.1,-0.0,-0.4,880,114,,,,,,,,,,,,,,,,,,,
73814,1495236189458,,,,,,,,-0.03,0.01,0.98,5.2,0.1,-0.3,880,128,,,,,,,,,,,,,,,,,,,
73834,1495236189478,,,,,,,,-0.03,0.01,0.98,5.3,0.1,-0.2,900,126,,,,,,,,,,,,,,,,,,,
73854,1495236189498,,,,,,,,-0.03,0.02,0.99,5.4,0.2,-0.2,880,118,,,,,,,,,,,,,,,,,,,
73874,1495236189518,0,88.5,,101.5,58,96.2,,-0.03,0.03,0.99,5.5,0.0,-0.2,880,120,1,1,7.333,0,39.540634,-122.332382,1.95,0.003,589.2,5,3,0.9,0,0.0,-1,0.0,0.0,0.0,0
73894,1495236189538,,,,,,,,-0.04,0.02,1.0,5.6,-0.0,-0.2,860,135,,,,,,,,,,,,,,,,,,,
73914,1495236189558,,,,,,,,-0.05,0.02,1.0,5.7,-0.0,-0.3,880,135,,,,,,,,,,,,,,,,,,,
73934,1495236189578,,,,,,,,-0.05,0.0,1.0,5.9,-0.1,-0.4,860,126,,,,,,,,,,,,,,,,,,,
73954,1495236189598,,,,,,,,-0.05,-0.01,0.99,6.0,-0.1,-0.4,880,132,,,,,,,,,,,,,,,,,,,
73974,1495236189618,,,,,57,,,-0.04,-0.01,0.99,6.1,0.0,-0.3,880,135,1,1,6.37,0,39.540634,-122.332382,2.25,0.003,589.1,5,3,0.9,0,0.0,-1,0.0,0.0,0.0,0
73994,1495236189638,,,,,,,,-0.04,-0.0,0.99,6.2,0.0,-0.2,880,138,,,,,,,,,,,,,,,,,,,
74014,1495236189658,,,,,,,,-0.04,0.01,0.99,6.2,0.1,-0.1,880,138,,,,,,,,,,,,,,,,,,,
74034,1495236189678,,,,,,,,-0.03,0.03,0.99,6.3,0.0,-0.1,860,140,,,,,,,,,,,,,,,,,,,
74054,1495236189698,,,,,,,,-0.03,0.03,0.99,6.4,-0.1,-0.1,880,143,,,,,,,,,,,,,,,,,,,
74074,1495236189718,0,89.7,-0.4,103.2,57,97.8,14.81,-0.04,0.02,1.0,6.5,-0.0,-0.2,860,149,1,1,6.377,0,39.540634,-122.332382,2.4,0.003,589.2,5,3,0.9,0,0.0,-1,0.0,0.0,0.0,0
74094,1495236189738,,,,,,,,-0.05,0.02,1.0,6.6,-0.1,-0.2,880,152,,,,,,,,,,,,,,,,,,,
74114,1495236189758,,,,,,,,-0.06,0.01,1.0,6.8,-0.1,-0.2,880,146,,,,,,,,,,,,,,,,,,,
74134,1495236189778,,,,,,,,-0.05,-0.0,0.99,6.9,-0.1,-0.2,880,148,,,,,,,,,,,,,,,,,,,
74154,1495236189798,,,,,,,,-0.05,0.01,0.98,6.9,0.0,-0.1,880,157,,,,,,,,,,,,,,,,,,,
74174,1495236189818,,,,,57,,,-0.05,0.01,0.99,6.9,0.1,-0.0,840,158,1,1,5.906,0,39.54063,-122.332382,2.52,0.003,589.2,5,3,0.9,0,0.0,-1,0.0,0.0,0.0,0
74194,1495236189838,,,,,,,,-0.05,0.03,1.0,7.0,0.1,-0.0,860,152,,,,,,,,,,,,,,,,,,,
74214,1495236189858,,,,,,,,-0.05,0.03,1.0,7.1,0.1,-0.1,840,157,,,,,,,,,,,,,,,,,,,
74234,1495236189878,,,,,,,,-0.06,0.02,1.01,7.2,0.0,-0.2,860,168,,,,,,,,,,,,,,,,,,,
74254,1495236189898,,,,,,,,-0.06,0.02,1.01,7.3,0.0,-0.3,860,171,,,,,,,,,,,,,,,,,,,
74274,1495236189918,0,88.6,,102.3,55,97.4,,-0.06,0.0,1.0,7.4,0.1,-0.3,840,163,1,1,5.526,0,39.54063,-122.332382,2.83,0.003,589.0,5,3,0.8,0,0.0,-1,0.0,0.0,0.0,0
74294,1495236189938,,,,,,,,-0.05,0.01,0.98,7.5,0.2,-0.1,840,162,,,,,,,,,,,,,,,,,,,
74314,1495236189958,,,,,,,,-0.05,0.02,0.98,7.5,0.4,-0.0,820,172,,,,,,,,,,,,,,,,,,,
74334,1495236189978,,,,,,,,-0.05,0.03,0.99,7.5,0.3,0.0,840,175,,,,,,,,,,,,,,,,,,,
74354,1495236189998,,,,,,,,-0.06,0.02,1.0,7.6,0.2,-0.0,820,172,,,,,,,,,,,,,,,,,,,
74374,1495236190010,,,,,57,,,-0.07,0.01,0.99,7.7,0.1,-0.2,840,174,1,1,4.852,0,39.540626,-122.332382,3.04,0.003,588.6,5,3,0.8,0,0.0,-1,0.0,0.0,0.0,0
74394,1495236190030,,,,,,,,-0.07,0.01,0.99,7.8,0.1,-0.3,840,178,,,,,,,,,,,,,,,,,,,
74414,1495236190050,,,,,,,,-0.07,0.0,0.98,7.8,0.1,-0.1,840,183,,,,,,,,,,,,,,,,,,,
74434,1495236190070,,,,,,,,-0.07,0.01,0.97,7.8,0.1,-0.0,840,189,,,,,,,,,,,,,,,,,,,
74454,1495236190098,,,,,,,,-0.06,0.02,0.98,7.9,0.2,-0.0,820,188,,,,,,,,,,,,,,,,,,,
74474,1495236190118,0,89.8,,103.2,58,98.0,,-0.06,0.03,0.99,7.9,0.0,-0.1,840,185,1,1,4.667,0,39.540626,-122.332382,3.29,0.003,588.2,5,3,0.8,0,0.0,-1,0.0,0.0,0.0,0
74494,1495236190138,,,,,,,,-0.07,0.02,1.0,8.0,0.1,-0.3,820,192,,,,,,,,,,,,,,,,,,,
74514,1495236190158,,,,,,,,-0.07,0.02,0.99,8.0,0.1,-0.5,860,200,,,,,,,,,,,,,,,,,,,
74534,1495236190178,,,,,,,,-0.08,0.01,0.98,8.1,0.0,-0.6,840,197,,,,,,,,,,,,,,,,,,,
74554,1495236190198,,,,,,,,-0.07,0.01,0.97,8.1,0.1,-0.5,840,197,,,,,,,,,,,,,,,,,,,
74574,1495236190218,,,,,57,,,-0.07,0.03,0.97,8.1,0.1,-0.5,840,211,1,1,4.141,0,39.540623,-122.332382,3.49,0.003,587.8,5,3,0.8,0,0.0,-1,0.0,0.0,0.0,0
74594,1495236190238,,,,,,,,-0.07,0.04,0.97,8.1,-0.0,-0.5,820,215,,,,,,,,,,,,,,,,,,,
74614,1495236190258,,,,,,,,-0.08,0.03,0.98,8.1,-0.1,-0.5,840,208,,,,,,,,,,,,,,,,,,,
74634,1495236190278,,,,,,,,-0.08,0.01,0.99,8.2,-0.1,-0.6,820,203,,,,,,,,,,,,,,,,,,,
74654,1495236190300,,,,,,,,-0.09,-0.0,0.99,8.2,-0.1,-0.6,840,212,,,,,,,,,,,,,,,,,,,
74674,1495236190320,0,89.6,,103.5,59,98.2,,-0.08,-0.01,0.98,8.2,-0.1,-0.5,840,220,1,1,4.0,0,39.540623,-122.332382,3.65,0.004,587.4,5,3,0.8,0,0.0,-1,0.0,0.0,0.0,0
74694,1495236190340,,,,,,,,-0.08,0.0,0.98,8.2,0.1,-0.3,840,220,,,,,,,,,,,,,,,,,,,
74714,1495236190360,,,,,,,,-0.07,0.01,0.98,8.2,0.1,-0.2,840,223,,,,,,,,,,,,,,,,,,,
74734,1495236190380,,,,,,,,-0.07,0.02,0.98,8.2,-0.1,-0.2,820,225,,,,,,,,,,,,,,,,,,,
74754,1495236190399,,,,,,,,-0.08,0.01,1.0,8.3,-0.1,-0.3,840,225,,,,,,,,,,,,,,,,,,,
74774,1495236190419,,,,,58,,,-0.09,-0.0,0.99,8.5,-0.1,-0.4,820,229,1,1,-3.801,-1,39.540623,-122.332382,3.86,0.004,587.4,5,3,0.8,0,0.0,-1,0.0,0.0,0.0,0
74794,1495236190439,,,,,,,,-0.08,-0.01,0.99,8.5,-0.1,-0.3,840,235,,,,,,,,,,,,,,,,,,,
74814,1495236190459,,,,,,,,-0.08,-0.0,0.97,8.5,-0.0,-0.2,840,232,,,,,,,,,,,,,,,,,,,
74834,1495236190479,,,,,,,,-0.07,0.01,0.97,8.5,0.1,-0.1,840,235,,,,,,,,,,,,,,,,,,,
74854,1495236190499,,,,,,,,-0.07,0.02,0.97,8.5,0.0,-0.1,820,242,,,,,,,,,,,,,,,,,,,
74874,1495236190519,0,89.5,,102.9,58,96.9,,-0.09,0.01,0.99,8.7,0.0,-0.2,800,245,1,1,3.605,0,39.540623,-122.332382,4.08,0.004,587.4,5,3,0.8,0,0.0,-1,0.0,0.0,0.0,0
74894,1495236190539,,,,,,,,-0.09,-0.01,0.98,8.8,0.0,-0.4,820,240,,,,,,,,,,,,,,,,,,,
74914,1495236190559,,,,,,,,-0.09,-0.02,0.98,8.9,-0.0,-0.5,820,243,,,,,,,,,,,,,,,,,,,
74934,1495236190579,,,,,,,,-0.08,-0.02,0.97,9.0,-0.1,-0.3,800,246,,,,,,,,,,,,,,,,,,,
74954,1495236190599,,,,,,,,-0.07,-0.01,0.97,9.1,0.0,-0.2,820,246,,,,,,,,,,,,,,,,,,,
74974,1495236190619,,,,,59,,,-0.07,-0.0,0.98,9.2,-0.2,-0.2,820,249,1,1,3.417,1,39.540619,-122.332382,4.25,0.004,587.4,5,3,0.8,0,0.0,-1,0.0,0.0,0.0,0
74994,1495236190639,,,,,,,,-0.08,-0.02,0.99,9.3,-0.1,-0.3,820,249,,,,,,,,,,,,,,,,,,,
75014,1495236190659,,,,,,,,-0.08,-0.03,0.99,9.5,-0.1,-0.5,800,255,,,,,,,,,,,,,,,,,,,
75034,1495236190679,,,,,,,,-0.07,-0.03,0.99,9.6,-0.1,-0.5,800,255,,,,,,,,,,,,,,,,,,,
75054,1495236190697,,,,,,,,-0.06,-0.02,0.98,9.6,-0.1,-0.3,840,260,,,,,,,,,,,,,,,,,,,
75074,1495236190717,0,89.8,-0.4,103.6,58,98.0,14.79,-0.05,-0.02,0.98,9.6,0.0,-0.2,820,258,1,1,3.254,1,39.540619,-122.332367,4.39,0.004,587.4,5,3,0.8,0,0.0,-1,0.0,0.0,0.0,0
75094,1495236190737,,,,,,,,-0.05,-0.01,0.99,9.7,-0.1,-0.2,860,258,,,,,,,,,,,,,,,,,,,
75114,1495236190757,,,,,,,,-0.06,-0.02,0.99,9.8,-0.1,-0.3,860,263,,,,,,,,,,,,,,,,,,,
75134,1495236190777,,,,,,,,-0.07,-0.02,0.99,9.9,-0.1,-0.3,880,269,,,,,,,,,,,,,,,,,,,
75154,1495236190799,,,,,,,,-0.07,-0.04,0.98,10.0,-0.2,-0.3,860,272,,,,,,,,,,,,,,,,,,,
75174,1495236190819,,,,,60,,,-0.07,-0.04,0.98,10.0,-0.1,-0.3,900,274,1,1,3.258,1,39.540615,-122.332367,4.6,0.004,587.4,5,3,0.8,0,0.0,-1,0.0,0.0,0.0,0
75194,1495236190839,,,,,,,,-0.06,-0.03,0.97,10.1,-0.1,-0.3,900,278,,,,,,,,,,,,,,,,,,,
75214,1495236190859,,,,,,,,-0.05,-0.01,0.98,10.0,-0.2,-0.2,880,278,,,,,,,,,,,,,,,,,,,
75234,1495236190879,,,,,,,,-0.04,0.01,0.99,10.1,-0.0,-0.1,900,275,,,,,,,,,,,,,,,,,,,
75254,1495236190899,,,,,,,,-0.05,0.02,1.0,10.2,-0.1,-0.1,920,277,,,,,,,,,,,,,,,,,,,
75274,1495236190919,0,88.3,,102.6,61,97.8,,-0.05,0.01,1.0,10.2,-0.2,-0.1,900,277,1,1,3.223,1,39.540615,-122.332367,4.8,0.004,587.5,5,3,0.8,0,0.0,-1,0.0,0.0,0.0,0
75294,1495236190939,,,,,,,,-0.06,0.01,1.0,10.2,-0.2,-0.2,880,277,,,,,,,,,,,,,,,,,,,
75314,1495236190959,,,,,,,,-0.07,-0.0,1.0,10.2,-0.2,-0.2,920,275,,,,,,,,,,,,,,,,,,,
75334,1495236190979,,,,,,,,-0.07,-0.01,0.98,10.3,-0.2,-0.3,880,280,,,,,,,,,,,,,,,,,,,
75354,1495236190991,,,,,,,,-0.07,-0.01,0.98,10.3,-0.1,-0.3,920,280,,,,,,,,,,,,,,,,,,,
75374,1495236191011,,,,,64,,,-0.07,-0.02,0.97,10.3,-0.1,-0.3,940,282,1,1,3.309,1,39.540611,-122.332367,4.92,0.004,587.5,5,3,0.8,0,0.0,-1,0.0,0.0,0.0,0
75394,1495236191031,,,,,,,,-0.06,-0.02,0.97,10.3,0.0,-0.3,920,288,,,,,,,,,,,,,,,,,,,
75414,1495236191051,,,,,,,,-0.05,-0.01,0.98,10.2,0.1,-0.3,920,289,,,,,,,,,,,,,,,,,,,
75434,1495236191071,,,,,,,,-0.04,-0.01,0.98,10.1,0.0,-0.2,940,288,,,,,,,,,,,,,,,,,,,
75454,1495236191099,,,,,,,,-0.04,-0.01,0.98,10.0,0.1,-0.1,940,291,,,,,,,,,,,,,,,,,,,
75474,1495236191119,0,89.9,,103.8,66,98.3,,-0.04,-0.0,0.99,9.9,0.2,-0.0,920,292,1,1,3.251,1,39.540607,-122.332367,5.14,0.005,587.4,5,3,0.8,0,0.0,-1,0.0,0.0,0.0,0
75494,1495236191139,,,,,,,,-0.03,0.0,1.0,9.8,0.3,0.0,940,295,,,,,,,,,,,,,,,,,,,
75514,1495236191159,,,,,,,,-0.02,0.01,1.0,9.7,0.2,0.1,960,295,,,,,,,,,,,,,,,,,,,
75534,1495236191179,,,,,,,,-0.02,0.03,1.0,9.6,0.2,0.1,960,297,,,,,,,,,,,,,,,,,,,
75554,1495236191199,,,,,,,,-0.02,0.03,1.0,9.4,0.1,0.1,960,297,,,,,,,,,,,,,,,,,,,
75574,1495236191219,,,,,68,,,-0.02,0.03,1.01,9.2,-0.1,0.1,980,300,1,1,3.254,1,39.540607,-122.332367,5.18,0.005,587.3,5,3,0.8,0,0.0,-1,0.0,0.0,0.0,0
75594,1495236191239,,,,,,,,-0.02,0.03,1.0,9.1,-0.3,0.1,960,300,,,,,,,,,,,,,,,,,,,
75614,1495236191259,,,,,,,,-0.02,0.03,1.0,9.0,-0.5,0.0,980,300,,,,,,,,,,,,,,,,,,,
75634,1495236191279,,,,,,,,-0.02,0.03,1.0,8.9,-0.6,-0.0,980,300,,,,,,,,,,,,,,,,,,,
75654,1495236191299,,,,,,,,-0.02,0.03,0.99,8.8,-0.9,-0.0,980,300,,,,,,,,,,,,,,,,,,,
75674,1495236191319,0,89.8,,103.9,70,98.4,,-0.03,0.03,0.98,8.6,-0.9,-0.1,980,302,1,1,3.289,1,39.540604,-122.332367,5.32,0.005,587.3,5,3,0.8,0,0.0,-1,0.0,0.0,0.0,0
75694,1495236191339,,,,,,,,-0.03,0.03,0.97,8.5,-1.0,-0.1,980,303,,,,,,,,,,,,,,,,,,,
75714,1495236191359,,,,,,,,-0.03,0.02,0.96,8.4,-1.1,-0.3,980,303,,,,,,,,,,,,,,,,,,,
75734,1495236191379,,,,,,,,-0.03,0.02,0.96,8.3,-1.1,-0.3,1000,305,,,,,,,,,,,,,,,,,,,
75754,1495236191398,,,,,,,,-0.03,0.02,0.96,8.2,-1.1,-0.3,1000,305,,,,,,,,,,,,,,,,,,,
75774,1495236191418,,,,,68,,,-0.03,0.01,0.96,8.1,-1.1,-0.2,1000,305,1,1,3.224,1,39.540604,-122.332367,5.38,0.005,586.9,5,3,0.8,0,0.0,-1,0.0,0.0,0.0,0
75794,1495236191438,,,,,,,,-0.04,0.01,0.96,8.0,-1.0,-0.2,1000,305,,,,,,,,,,,,,,,,,,,
75814,1495236191458,,,,,,,,-0.04,0.0,0.95,7.9,-1.1,-0.2,1000,306,,,,,,,,,,,,,,,,,,,
75834,1495236191478,,,,,,,,-0.04,-0.0,0.96,7.8,-1.1,-0.2,1000,308,,,,,,,,,,,,,,,,,,,
75854,1495236191498,,,,,,,,-0.04,0.0,0.95,7.6,-1.2,-0.2,1000,308,,,,,,,,,,,,,,,,,,,
75874,1495236191518,0,89.5,,103.8,64,98.6,,-0.03,0.0,0.95,7.5,-1.3,-0.2,1000,306,1,1,3.268,1,39.5406,-122.332367,5.46,0.005,586.7,5,3,0.8,0,0.0,-1,0.0,0.0,0.0,0
75894,1495236191538,,,,,,,,-0.03,0.01,0.94,7.4,-1.4,-0.1,1000,308,,,,,,,,,,,,,,,,,,,
75914,1495236191558,,,,,,,,-0.03,0.02,0.94,7.2,-1.4,-0.0,1000,308,,,,,,,,,,,,,,,,,,,
75934,1495236191578,,,,,,,,-0.03,0.03,0.93,7.0,-1.5,0.0,1000,309,,,,,,,,,,,,,,,,,,,
