"Interval"|"ms"|0|0|1,"Utc"|"ms"|0|0|1,"FuelLevel"|"F"|0|100|5,"OilTemp"|"F"|0.0|300.0|5,"CoolantPressPSI"|"PSI"|0.0|20.0|1,"Coolant"|"F"|0.0|300.0|5,"OilPress"|"PSI"|0|150|10,"EngineTemp"|"F"|0.0|300.0|5,"Battery"|"Volts"|0.0|20.0|1,"AccelX"|"G"|-3.0|3.0|50,"AccelY"|"G"|-3.0|3.0|50,"AccelZ"|"G"|-3.0|3.0|50,"Yaw"|"Deg/Sec"|-300.0|300.0|50,"Pitch"|"Deg/Sec"|-300.0|300.0|50,"Roll"|"Deg/Sec"|-300.0|300.0|50,"RPM"|""|0|10000|50,"Driveshaft"|"RPM"|0|5000|50,"GPIO1"|""|0|1|10,"GPIO2"|""|0|1|10,"GearRatio"|""|-5.0|5.0|10,"Gear"|""|-1|5|10,"Latitude"|"Degrees"|-180.0|180.0|10,"Longitude"|"Degrees"|-180.0|180.0|10,"Speed"|"mph"|0.0|150.0|10,"Distance"|"mi"|0.0|0.0|10,"Altitude"|"ft"|0.0|4000.0|10,"GPSSats"|""|0|20|10,"GPSQual"|""|0|5|10,"GPSDOP"|""|0.0|20.0|10,"LapCount"|""|0|0|10,"LapTime"|"Min"|0.0|0.0|10,"Sector"|""|0|0|10,"SectorTime"|"Min"|0.0|0.0|10,"PredTime"|"Min"|0.0|0.0|10,"ElapsedTime"|"Min"|0.0|0.0|10,"CurrentLap"|""|0|0|10
318654,1495236434304,,,,,,,,0.02,0.1,0.99,-3.1,-0.1,-0.1,200,0,,,,,,,,,,,,,,,,,,,
318674,1495236434324,0,94.4,,132.9,1,124.0,,0.02,0.09,0.99,-3.2,-0.0,-0.1,200,0,1,0,0.0,0,39.538933,-122.332237,0.0,0.129,293.3,7,3,1.3,0,0.0,-1,0.0,0.0,0.0,0
318694,1495236434344,,,,,,,,0.01,0.09,0.99,-3.2,0.0,0.0,200,0,,,,,,,,,,,,,,,,,,,
318714,1495236434364,,,,,,,,0.02,0.09,0.98,-3.2,0.1,0.1,320,0,,,,,,,,,,,,,,,,,,,
318734,1495236434384,,,,,,,,0.01,0.08,0.99,-3.2,0.1,-0.0,320,0,,,,,,,,,,,,,,,,,,,
318754,1495236434402,,,,,,,,0.01,0.07,0.98,-3.1,0.2,-0.1,460,0,,,,,,,,,,,,,,,,,,,
318774,1495236434422,,,,,2,,,0.01,0.07,0.98,-3.1,0.1,-0.2,460,0,1,0,0.0,0,39.538933,-122.332237,0.0,0.129,293.3,7,3,1.3,0,0.0,-1,0.0,0.0,0.0,0
318794,1495236434442,,,,,,,,0.02,0.08,0.98,-3.1,0.1,-0.2,520,0,,,,,,,,,,,,,,,,,,,
318814,1495236434462,,,,,,,,0.02,0.08,0.99,-3.1,0.1,-0.2,520,0,,,,,,,,,,,,,,,,,,,
318834,1495236434482,,,,,,,,0.02,0.07,0.98,-3.1,0.2,-0.1,500,0,,,,,,,,,,,,,,,,,,,
318854,1495236434504,,,,,,,,0.02,0.07,0.98,-3.1,0.1,0.0,500,0,,,,,,,,,,,,,,,,,,,
318874,1495236434524,0,93.6,,132.8,2,124.0,,0.02,0.09,0.98,-3.2,-0.1,0.1,640,0,1,0,0.0,0,39.538933,-122.332237,0.0,0.129,293.3,7,3,1.3,0,0.0,-1,0.0,0.0,0.0,0
318894,1495236434544,,,,,,,,0.01,0.08,0.99,-3.1,-0.0,-0.1,740,0,,,,,,,,,,,,,,,,,,,
318914,1495236434564,,,,,,,,0.02,0.07,0.99,-3.1,-0.2,-0.3,800,18,,,,,,,,,,,,,,,,,,,
318934,1495236434584,,,,,,,,0.02,0.07,0.99,-3.1,-0.2,-0.2,800,1538462,,,,,,,,,,,,,,,,,,,
318954,1495236434603,,,,,,,,0.02,0.07,0.98,-3.2,-0.0,0.0,860,0,,,,,,,,,,,,,,,,,,,
318974,1495236434623,,,,,5,,,0.03,0.09,0.99,-3.2,-0.2,0.2,920,0,1,1,0.0,0,39.538933,-122.332237,0.0,0.129,293.3,7,3,1.3,0,0.0,-1,0.0,0.0,0.0,0
318994,1495236434643,,,,,,,,0.03,0.11,0.99,-3.2,0.0,0.2,980,0,,,,,,,,,,,,,,,,,,,
319014,1495236434663,,,,,,,,0.04,0.1,0.99,-3.2,0.1,0.1,1020,0,,,,,,,,,,,,,,,,,,,
319034,1495236434683,,,,,,,,0.04,0.09,0.99,-3.2,0.2,-0.1,1060,0,,,,,,,,,,,,,,,,,,,
319054,1495236434703,,,,,,,,0.04,0.08,0.99,-3.2,0.2,-0.2,1020,0,,,,,,,,,,,,,,,,,,,
319074,1495236434723,0,94.2,-0.6,132.8,8,123.6,14.65,0.03,0.07,0.97,-3.1,0.3,-0.1,1020,0,1,1,0.0,0,39.538933,-122.332237,0.0,0.129,293.3,7,3,1.3,0,0.0,-1,0.0,0.0,0.0,0
319094,1495236434743,,,,,,,,0.03,0.07,0.98,-3.1,0.3,-0.0,1060,0,,,,,,,,,,,,,,,,,,,
319114,1495236434763,,,,,,,,0.03,0.08,0.98,-3.1,0.2,0.0,1060,0,,,,,,,,,,,,,,,,,,,
319134,1495236434783,,,,,,,,0.02,0.08,0.98,-3.1,0.1,-0.0,1080,0,,,,,,,,,,,,,,,,,,,
319154,1495236434803,,,,,,,,0.02,0.07,0.99,-3.1,0.1,-0.1,1080,0,,,,,,,,,,,,,,,,,,,
319174,1495236434823,,,,,9,,,0.02,0.08,0.99,-3.1,0.0,-0.1,1080,0,1,1,0.0,0,39.538933,-122.332237,0.0,0.129,293.3,7,3,1.3,0,0.0,-1,0.0,0.0,0.0,0
319194,1495236434843,,,,,,,,0.02,0.08,0.98,-3.1,0.0,-0.1,1080,0,,,,,,,,,,,,,,,,,,,
319214,1495236434863,,,,,,,,0.02,0.08,0.98,-3.1,0.0,-0.1,1080,0,,,,,,,,,,,,,,,,,,,
319234,1495236434883,,,,,,,,0.01,0.08,0.98,-3.1,0.1,-0.1,1080,0,,,,,,,,,,,,,,,,,,,
319254,1495236434903,,,,,,,,0.01,0.08,0.98,-3.1,0.0,-0.1,1080,0,,,,,,,,,,,,,,,,,,,
319274,1495236434923,0,95.1,,133.6,13,123.9,,0.01,0.08,0.97,-3.1,0.0,-0.1,1060,0,1,1,0.0,0,39.538933,-122.332237,0.0,0.129,293.3,7,3,1.3,0,0.0,-1,0.0,0.0,0.0,0
319294,1495236434943,,,,,,,,0.01,0.08,0.97,-3.1,0.1,-0.2,1060,0,,,,,,,,,,,,,,,,,,,
319314,1495236434963,,,,,,,,0.02,0.08,0.98,-3.1,0.1,-0.2,1040,0,,,,,,,,,,,,,,,,,,,
319334,1495236434983,,,,,,,,0.02,0.07,0.98,-3.1,0.2,-0.2,1020,0,,,,,,,,,,,,,,,,,,,
319354,1495236434995,,,,,,,,0.02,0.07,0.98,-3.1,0.2,-0.2,1020,0,,,,,,,,,,,,,,,,,,,
319374,1495236435015,,,,,18,,,0.02,0.07,0.98,-3.1,0.3,-0.2,1000,0,1,1,0.0,0,39.538933,-122.332237,0.0,0.129,293.3,7,3,2.5,0,0.0,-1,0.0,0.0,0.0,0
319394,1495236435035,,,,,,,,0.02,0.07,0.99,-3.1,0.3,-0.3,960,0,,,,,,,,,,,,,,,,,,,
319414,1495236435055,,,,,,,,0.02,0.07,0.99,-3.1,0.4,-0.3,940,0,,,,,,,,,,,,,,,,,,,
319434,1495236435075,,,,,,,,0.02,0.06,0.99,-3.1,0.4,-0.3,920,0,,,,,,,,,,,,,,,,,,,
319454,1495236435101,,,,,,,,0.02,0.07,0.98,-3.1,0.4,-0.2,880,0,,,,,,,,,,,,,,,,,,,
319474,1495236435121,0,95.3,,133.6,23,124.5,,0.02,0.07,0.99,-3.1,0.4,-0.2,860,0,1,1,0.0,0,39.538933,-122.332237,0.0,0.129,293.3,7,3,2.5,0,0.0,-1,0.0,0.0,0.0,0
319494,1495236435141,,,,,,,,0.02,0.08,0.99,-3.1,0.3,-0.1,820,0,,,,,,,,,,,,,,,,,,,
319514,1495236435161,,,,,,,,0.02,0.07,0.99,-3.1,0.3,-0.2,780,0,,,,,,,,,,,,,,,,,,,
319534,1495236435181,,,,,,,,0.02,0.07,0.99,-3.1,0.3,-0.2,780,0,,,,,,,,,,,,,,,,,,,
319554,1495236435203,,,,,,,,0.02,0.07,0.99,-3.1,0.2,-0.2,740,0,,,,,,,,,,,,,,,,,,,
319574,1495236435223,,,,,26,,,0.02,0.07,0.99,-3.1,0.2,-0.2,700,0,1,1,0.0,0,39.538933,-122.332237,0.0,0.129,293.3,7,3,2.5,0,0.0,-1,0.0,0.0,0.0,0
319594,1495236435243,,,,,,,,0.02,0.07,0.99,-3.1,0.2,-0.2,700,0,,,,,,,,,,,,,,,,,,,
319614,1495236435263,,,,,,,,0.02,0.07,0.99,-3.0,0.2,-0.2,660,0,,,,,,,,,,,,,,,,,,,
319634,1495236435283,,,,,,,,0.02,0.07,0.99,-3.1,0.2,-0.2,620,0,,,,,,,,,,,,,,,,,,,
319654,1495236435303,,,,,,,,0.02,0.07,0.98,-3.1,0.1,-0.2,620,0,,,,,,,,,,,,,,,,,,,
319674,1495236435323,0,94.8,,133.1,30,123.7,,0.02,0.07,0.99,-3.1,0.1,-0.2,580,0,1,1,0.0,0,39.538933,-122.332237,0.0,0.129,293.3,7,3,2.5,0,0.0,-1,0.0,0.0,0.0,0
319694,1495236435343,,,,,,,,0.02,0.07,0.99,-3.1,0.1,-0.1,580,0,,,,,,,,,,,,,,,,,,,
319714,1495236435363,,,,,,,,0.02,0.08,0.99,-3.1,0.2,-0.1,520,0,,,,,,,,,,,,,,,,,,,
319734,1495236435383,,,,,,,,0.02,0.07,0.99,-3.1,0.1,-0.1,520,0,,,,,,,,,,,,,,,,,,,
319754,1495236435403,,,,,,,,0.02,0.08,0.99,-3.1,0.1,-0.1,460,0,,,,,,,,,,,,,,,,,,,
319774,1495236435423,,,,,33,,,0.02,0.08,0.99,-3.1,0.1,-0.1,460,0,1,1,0.0,0,39.538933,-122.332237,0.0,0.129,293.3,7,3,2.5,0,0.0,-1,0.0,0.0,0.0,0
319794,1495236435443,,,,,,,,0.02,0.08,0.99,-3.1,0.0,-0.1,400,0,,,,,,,,,,,,,,,,,,,
319814,1495236435463,,,,,,,,0.02,0.08,0.99,-3.1,0.1,-0.1,400,0,,,,,,,,,,,,,,,,,,,
319834,1495236435483,,,,,,,,0.02,0.07,0.99,-3.1,0.1,-0.1,400,0,,,,,,,,,,,,,,,,,,,
319854,1495236435503,,,,,,,,0.02,0.08,0.99,-3.1,0.1,-0.1,340,0,,,,,,,,,,,,,,,,,,,
319874,1495236435523,0,93.8,,132.7,31,123.5,,0.02,0.08,0.99,-3.1,0.1,-0.1,340,0,1,1,0.0,0,39.538933,-122.332237,0.0,0.129,293.3,7,3,2.5,0,0.0,-1,0.0,0.0,0.0,0
319894,1495236435543,,,,,,,,0.02,0.08,0.99,-3.1,0.1,-0.1,340,0,,,,,,,,,,,,,,,,,,,
319914,1495236435563,,,,,,,,0.02,0.08,0.99,-3.1,0.1,-0.1,340,0,,,,,,,,,,,,,,,,,,,
319934,1495236435583,,,,,,,,0.02,0.07,0.99,-3.1,0.1,-0.1,300,0,,,,,,,,,,,,,,,,,,,
319954,1495236435603,,,,,,,,0.02,0.07,0.99,-3.0,0.1,-0.1,300,0,,,,,,,,,,,,,,,,,,,
319974,1495236435623,,,,,31,,,0.02,0.07,0.99,-3.0,0.0,-0.1,300,0,1,1,0.0,0,39.538933,-122.332237,0.0,0.129,293.3,7,3,2.5,0,0.0,-1,0.0,0.0,0.0,0
319994,1495236435643,,,,,,,,0.02,0.07,0.99,-3.1,0.0,-0.1,280,0,,,,,,,,,,,,,,,,,,,
320014,1495236435663,,,,,,,,0.01,0.07,0.99,-3.1,-0.0,-0.1,280,0,,,,,,,,,,,,,,,,,,,
320034,1495236435683,,,,,,,,0.02,0.08,0.98,-3.1,-0.0,-0.1,280,0,,,,,,,,,,,,,,,,,,,
320054,1495236435702,,,,,,,,0.02,0.08,0.98,-3.1,-0.1,-0.1,280,0,,,,,,,,,,,,,,,,,,,
320074,1495236435722,0,94.1,-0.6,133.1,29,124.2,12.66,0.02,0.09,0.98,-3.1,-0.1,-0.1,240,0,1,1,0.0,0,39.538933,-122.332237,0.0,0.129,293.3,7,3,2.5,0,0.0,-1,0.0,0.0,0.0,0
320094,1495236435742,,,,,,,,0.02,0.09,0.98,-3.1,-0.1,-0.1,240,0,,,,,,,,,,,,,,,,,,,
320114,1495236435762,,,,,,,,0.02,0.09,0.98,-3.1,-0.1,-0.1,240,0,,,,,,,,,,,,,,,,,,,
320134,1495236435782,,,,,,,,0.02,0.1,0.98,-3.1,-0.1,-0.2,240,0,,,,,,,,,,,,,,,,,,,
320154,1495236435802,,,,,,,,0.02,0.1,0.98,-3.1,-0.1,-0.2,240,0,,,,,,,,,,,,,,,,,,,
320174,1495236435822,,,,,28,,,0.02,0.1,0.98,-3.1,-0.2,-0.2,200,0,1,1,0.0,0,39.538933,-122.332237,0.0,0.129,293.3,7,3,2.5,0,0.0,-1,0.0,0.0,0.0,0
320194,1495236435842,,,,,,,,0.02,0.1,0.98,-3.1,-0.2,-0.1,200,0,,,,,,,,,,,,,,,,,,,
320214,1495236435862,,,,,,,,0.02,0.09,0.98,-3.1,-0.2,-0.1,200,0,,,,,,,,,,,,,,,,,,,
320234,1495236435882,,,,,,,,0.02,0.08,0.98,-3.1,-0.1,-0.1,200,0,,,,,,,,,,,,,,,,,,,
320254,1495236435902,,,,,,,,0.02,0.08,0.98,-3.1,-0.1,-0.1,200,0,,,,,,,,,,,,,,,,,,,
320274,1495236435922,0,93.9,,132.9,27,124.1,,0.02,0.08,0.99,-3.1,-0.1,-0.2,200,0,1,1,0.0,0,39.538933,-122.332237,0.0,0.129,293.3,7,3,2.5,0,0.0,-1,0.0,0.0,0.0,0
320294,1495236435942,,,,,,,,0.02,0.08,0.98,-3.1,-0.1,-0.2,160,0,,,,,,,,,,,,,,,,,,,
320314,1495236435962,,,,,,,,0.02,0.08,0.99,-3.1,-0.1,-0.1,160,0,,,,,,,,,,,,,,,,,,,
320334,1495236435982,,,,,,,,0.02,0.08,0.99,-3.1,-0.0,-0.0,160,0,,,,,,,,,,,,,,,,,,,
320354,1495236435996,,,,,,,,0.02,0.08,0.99,-3.1,-0.0,-0.0,160,0,,,,,,,,,,,,,,,,,,,
320374,1495236436016,,,,,25,,,0.02,0.08,0.99,-3.1,-0.0,-0.1,160,0,1,1,0.0,0,39.538933,-122.332237,0.0,0.129,293.3,7,3,2.5,0,0.0,-1,0.0,0.0,0.0,0
320394,1495236436036,,,,,,,,0.02,0.08,0.99,-3.1,-0.1,-0.2,160,0,,,,,,,,,,,,,,,,,,,
320414,1495236436056,,,,,,,,0.02,0.08,0.99,-3.1,-0.1,-0.2,140,0,,,,,,,,,,,,,,,,,,,
320434,1495236436076,,,,,,,,0.02,0.08,0.99,-3.0,-0.1,-0.1,140,0,,,,,,,,,,,,,,,,,,,
320454,1495236436102,,,,,,,,0.02,0.08,0.99,-3.0,-0.0,-0.1,140,0,,,,,,,,,,,,,,,,,,,
320474,1495236436122,0,93.8,,132.9,24,124.1,,0.02,0.08,0.98,-3.0,-0.0,-0.0,140,0,1,1,0.0,0,39.538933,-122.332237,0.0,0.129,293.3,7,3,2.5,0,0.0,-1,0.0,0.0,0.0,0
320494,1495236436142,,,,,,,,0.02,0.07,0.98,-3.0,-0.0,-0.1,140,0,,,,,,,,,,,,,,,,,,,
320514,1495236436162,,,,,,,,0.02,0.08,0.99,-3.0,0.0,-0.1,140,0,,,,,,,,,,,,,,,,,,,
320534,1495236436182,,,,,,,,0.02,0.08,0.99,-3.0,0.0,-0.2,140,0,,,,,,,,,,,,,,,,,,,
320554,1495236436202,,,,,,,,0.02,0.08,0.99,-3.0,-0.0,-0.2,140,0,,,,,,,,,,,,,,,,,,,
320574,1495236436222,,,,,21,,,0.02,0.08,0.99,-3.0,0.0,-0.1,140,0,1,1,0.0,0,39.538933,-122.332237,0.0,0.129,293.3,7,3,2.5,0,0.0,-1,0.0,0.0,0.0,0
320594,1495236436242,,,,,,,,0.02,0.07,0.99,-3.0,0.0,-0.1,140,0,,,,,,,,,,,,,,,,,,,
320614,1495236436262,,,,,,,,0.02,0.07,0.99,-3.0,0.1,-0.1,140,0,,,,,,,,,,,,,,,,,,,
320634,1495236436282,,,,,,,,0.02,0.07,0.99,-3.0,0.0,-0.1,80,0,,,,,,,,,,,,,,,,,,,
320654,1495236436304,,,,,,,,0.02,0.07,0.99,-3.0,0.0,-0.2,80,0,,,,,,,,,,,,,,,,,,,
320674,1495236436324,0,95.2,,133.7,19,124.3,,0.02,0.07,0.99,-3.0,0.0,-0.1,80,0,1,1,0.0,0,39.538933,-122.332237,0.0,0.129,293.3,7,3,2.5,0,0.0,-1,0.0,0.0,0.0,0
320694,1495236436344,,,,,,,,0.02,0.07,0.99,-3.1,0.0,-0.1,80,0,,,,,,,,,,,,,,,,,,,
320714,1495236436364,,,,,,,,0.02,0.07,0.99,-3.1,0.0,-0.1,80,0,,,,,,,,,,,,,,,,,,,
320734,1495236436384,,,,,,,,0.02,0.07,0.99,-3.1,0.0,-0.1,80,0,,,,,,,,,,,,,,,,,,,
320754,1495236436404,,,,,,,,0.02,0.07,0.99,-3.1,0.0,-0.1,80,0,,,,,,,,,,,,,,,,,,,
320774,1495236436424,,,,,17,,,0.02,0.07,0.99,-3.1,0.0,-0.2,80,0,1,1,0.0,0,39.538933,-122.332237,0.0,0.129,293.3,7,3,2.5,0,0.0,-1,0.0,0.0,0.0,0
320794,1495236436444,,,,,,,,0.02,0.07,0.99,-3.1,0.0,-0.2,80,0,,,,,,,,,,,,,,,,,,,
320814,1495236436464,,,,,,,,0.02,0.07,0.98,-3.1,0.0,-0.2,80,0,,,,,,,,,,,,,,,,,,,
320834,1495236436484,,,,,,,,0.02,0.07,0.98,-3.0,0.0,-0.1,80,0,,,,,,,,,,,,,,,,,,,
320854,1495236436504,,,,,,,,0.02,0.07,0.98,-3.0,0.0,-0.1,80,0,,,,,,,,,,,,,,,,,,,
320874,1495236436524,0,95.6,,133.7,16,124.4,,0.02,0.07,0.99,-3.0,0.1,-0.1,80,0,1,1,0.0,0,39.538933,-122.332237,0.0,0.129,293.3,7,3,2.5,0,0.0,-1,0.0,0.0,0.0,0
320894,1495236436544,,,,,,,,0.02,0.07,0.99,-3.1,0.0,-0.1,80,0,,,,,,,,,,,,,,,,,,,
320914,1495236436564,,,,,,,,0.02,0.07,0.99,-3.0,0.0,-0.1,80,0,,,,,,,,,,,,,,,,,,,
320934,1495236436584,,,,,,,,0.02,0.07,0.99,-3.0,0.1,-0.1,80,0,,,,,,,,,,,,,,,,,,,
320954,1495236436604,,,,,,,,0.02,0.07,0.99,-3.0,0.0,-0.1,80,0,,,,,,,,,,,,,,,,,,,
320974,1495236436624,,,,,15,,,0.02,0.07,0.99,-3.0,0.0,-0.1,80,0,1,1,0.0,0,39.538933,-122.332237,0.0,0.129,293.3,7,3,2.5,0,0.0,-1,0.0,0.0,0.0,0
320994,1495236436644,,,,,,,,0.02,0.07,0.99,-3.0,0.0,-0.1,80,0,,,,,,,,,,,,,,,,,,,
321014,1495236436664,,,,,,,,0.02,0.09,0.99,-3.1,-0.0,0.0,80,0,,,,,,,,,,,,,,,,,,,
321034,1495236436684,,,,,,,,-0.02,0.08,0.98,-2.9,0.2,-0.2,80,0,,,,,,,,,,,,,,,,,,,
321054,1495236436703,,,,,,,,-0.02,0.08,0.98,-2.9,0.1,-0.3,80,0,,,,,,,,,,,,,,,,,,,
321074,1495236436723,0,94.7,-0.0,133.3,14,123.8,10.06,-0.01,0.06,0.97,-3.0,0.4,-0.3,80,0,1,1,0.0,0,39.538933,-122.332237,0.0,0.129,293.3,7,3,2.5,0,0.0,-1,0.0,0.0,0.0,0
321094,1495236436743,,,,,,,,-0.01,0.06,0.96,-3.1,0.3,-0.1,80,0,,,,,,,,,,,,,,,,,,,
321114,1495236436763,,,,,,,,-0.0,0.07,0.97,-3.0,0.3,-0.0,80,0,,,,,,,,,,,,,,,,,,,
321134,1495236436783,,,,,,,,0.0,0.07,0.98,-3.0,0.2,-0.1,80,0,,,,,,,,,,,,,,,,,,,
321154,1495236436801,,,,,,,,0.01,0.06,0.98,-3.0,0.2,-0.1,80,0,,,,,,,,,,,,,,,,,,,
321174,1495236436821,,,,,14,,,0.01,0.05,0.98,-3.0,0.0,-0.1,80,0,1,1,0.0,0,39.538933,-122.332237,0.0,0.129,293.3,7,3,2.5,0,0.0,-1,0.0,0.0,0.0,0
321194,1495236436841,,,,,,,,0.01,0.06,0.98,-3.0,0.2,-0.1,80,0,,,,,,,,,,,,,,,,,,,
321214,1495236436861,,,,,,,,0.01,0.05,0.98,-3.0,0.2,-0.2,80,0,,,,,,,,,,,,,,,,,,,
321234,1495236436881,,,,,,,,0.01,0.06,0.98,-3.0,0.2,-0.1,80,0,,,,,,,,,,,,,,,,,,,
321254,1495236436903,,,,,,,,0.01,0.06,0.98,-3.0,0.1,-0.1,80,0,,,,,,,,,,,,,,,,,,,
321274,1495236436923,0,95.0,,133.5,15,124.2,,0.01,0.06,0.98,-3.0,0.1,-0.1,80,0,1,1,0.0,0,39.538933,-122.332237,0.0,0.129,293.3,7,3,2.5,0,0.0,-1,0.0,0.0,0.0,0
321294,1495236436943,,,,,,,,0.01,0.05,0.98,-3.1,0.1,-0.1,80,0,,,,,,,,,,,,,,,,,,,
321314,1495236436963,,,,,,,,0.01,0.05,0.98,-3.1,0.1,-0.2,80,0,,,,,,,,,,,,,,,,,,,
321334,1495236436983,,,,,,,,0.01,0.06,0.98,-3.1,0.1,-0.1,80,0,,,,,,,,,,,,,,,,,,,
321354,1495236436995,,,,,,,,0.02,0.07,0.98,-3.1,0.2,-0.1,80,0,,,,,,,,,,,,,,,,,,,
321374,1495236437015,,,,,15,,,0.02,0.06,0.98,-3.1,0.3,-0.1,80,0,1,1,0.0,0,39.538933,-122.332237,0.0,0.129,293.3,7,3,2.5,0,0.0,-1,0.0,0.0,0.0,0
321394,1495236437035,,,,,,,,0.02,0.06,0.99,-3.1,0.3,-0.1,80,0,,,,,,,,,,,,,,,,,,,
321414,1495236437055,,,,,,,,0.02,0.06,0.98,-3.0,0.2,-0.2,80,0,,,,,,,,,,,,,,,,,,,
321434,1495236437075,,,,,,,,0.01,0.05,0.98,-3.0,0.3,-0.2,80,0,,,,,,,,,,,,,,,,,,,
321454,1495236437101,,,,,,,,0.01,0.06,0.98,-3.0,0.3,-0.2,80,0,,,,,,,,,,,,,,,,,,,
321474,1495236437121,0,94.1,,132.9,15,124.1,,0.02,0.06,0.98,-3.0,0.4,-0.2,80,0,1,1,0.0,0,39.538933,-122.332237,0.0,0.129,293.3,7,3,2.5,0,0.0,-1,0.0,0.0,0.0,0
321494,1495236437141,,,,,,,,0.01,0.05,0.99,-3.0,0.2,-0.3,3720,0,,,,,,,,,,,,,,,,,,,
321514,1495236437161,,,,,,,,0.01,0.04,0.98,-2.9,0.1,-0.4,3740,0,,,,,,,,,,,,,,,,,,,
321534,1495236437181,,,,,,,,0.01,0.03,0.99,-2.9,0.0,-0.3,3740,0,,,,,,,,,,,,,,,,,,,
321554,1495236437203,,,,,,,,0.01,0.03,0.98,-2.9,0.3,-0.3,3740,0,,,,,,,,,,,,,,,,,,,
321574,1495236437223,,,,,15,,,0.01,0.03,0.99,-3.0,0.4,-0.2,3740,0,1,1,0.0,0,39.538933,-122.332237,0.0,0.129,293.3,7,3,2.5,0,0.0,-1,0.0,0.0,0.0,0
321594,1495236437243,,,,,,,,0.01,0.04,0.99,-3.0,0.2,0.1,3740,0,,,,,,,,,,,,,,,,,,,
321614,1495236437263,,,,,,,,0.01,0.05,0.99,-3.1,0.2,0.1,180,0,,,,,,,,,,,,,,,,,,,
321634,1495236437283,,,,,,,,0.01,0.06,1.0,-3.0,0.2,0.0,180,0,,,,,,,,,,,,,,,,,,,
321654,1495236437303,,,,,,,,0.01,0.06,0.99,-3.0,0.3,-0.0,180,0,,,,,,,,,,,,,,,,,,,
321674,1495236437323,0,94.7,,133.3,15,124.3,,0.02,0.08,0.99,-3.1,0.1,0.1,180,0,1,1,0.0,0,39.538933,-122.332237,0.0,0.129,293.3,7,3,2.5,0,0.0,-1,0.0,0.0,0.0,0
321694,1495236437343,,,,,,,,0.02,0.1,0.99,-3.1,0.1,0.1,180,0,,,,,,,,,,,,,,,,,,,
321714,1495236437363,,,,,,,,0.02,0.1,1.0,-3.2,0.1,0.0,180,0,,,,,,,,,,,,,,,,,,,
321734,1495236437383,,,,,,,,0.01,0.08,1.0,-3.1,0.2,-0.0,180,0,,,,,,,,,,,,,,,,,,,
321754,1495236437403,,,,,,,,0.02,0.08,0.99,-3.1,0.1,-0.0,180,0,,,,,,,,,,,,,,,,,,,
321774,1495236437423,,,,,16,,,0.01,0.08,0.99,-3.1,-0.0,-0.0,180,0,1,1,0.0,0,39.538933,-122.332237,0.0,0.129,293.3,7,3,2.5,0,0.0,-1,0.0,0.0,0.0,0
321794,1495236437443,,,,,,,,0.01,0.07,0.98,-3.1,0.1,-0.1,260,0,,,,,,,,,,,,,,,,,,,
321814,1495236437463,,,,,,,,0.01,0.08,0.98,-3.1,0.1,-0.1,260,0,,,,,,,,,,,,,,,,,,,
321834,1495236437483,,,,,,,,0.01,0.07,0.98,-3.1,0.1,-0.1,260,0,,,,,,,,,,,,,,,,,,,
321854,1495236437503,,,,,,,,0.01,0.07,0.98,-3.1,0.1,-0.1,340,0,,,,,,,,,,,,,,,,,,,
321874,1495236437523,0,94.9,,133.5,18,123.9,,0.01,0.07,0.98,-3.1,0.1,-0.0,340,0,1,1,0.0,0,39.538933,-122.332237,0.0,0.129,293.3,7,3,2.5,0,0.0,-1,0.0,0.0,0.0,0
321894,1495236437543,,,,,,,,0.02,0.08,0.99,-3.1,0.0,-0.0,360,0,,,,,,,,,,,,,,,,,,,
321914,1495236437563,,,,,,,,0.01,0.08,0.99,-3.1,0.0,-0.1,360,0,,,,,,,,,,,,,,,,,,,
321934,1495236437583,,,,,,,,0.01,0.07,0.98,-3.1,0.1,-0.1,360,0,,,,,,,,,,,,,,,,,,,
321954,1495236437603,,,,,,,,0.01,0.07,0.98,-3.1,0.1,-0.1,340,0,,,,,,,,,,,,,,,,,,,
321974,1495236437623,,,,,18,,,0.01,0.07,0.98,-3.1,0.0,-0.1,340,0,1,1,0.0,0,39.538933,-122.332237,0.0,0.129,293.3,7,3,2.5,0,0.0,-1,0.0,0.0,0.0,0
321994,1495236437643,,,,,,,,0.01,0.06,0.98,-3.1,0.0,-0.1,340,0,,,,,,,,,,,,,,,,,,,
322014,1495236437663,,,,,,,,0.01,0.07,0.98,-3.1,0.0,-0.1,400,0,,,,,,,,,,,,,,,,,,,
322034,1495236437683,,,,,,,,0.01,0.06,0.98,-3.1,0.0,-0.1,400,3,,,,,,,,,,,,,,,,,,,
322054,1495236437702,,,,,,,,0.02,0.07,0.98,-3.1,0.0,-0.1,440,3,,,,,,,,,,,,,,,,,,,
322074,1495236437722,0,95.6,-0.5,133.8,22,124.4,12.82,0.02,0.08,0.99,-3.1,-0.0,-0.1,440,3,1,1,146.667,0,39.538933,-122.332237,0.0,0.129,293.3,7,3,2.5,0,0.0,-1,0.0,0.0,0.0,0
322094,1495236437742,,,,,,,,0.02,0.08,0.99,-3.1,-0.1,-0.0,420,3,,,,,,,,,,,,,,,,,,,
322114,1495236437762,,,,,,,,0.02,0.08,0.99,-3.1,-0.0,-0.1,420,3,,,,,,,,,,,,,,,,,,,
322134,1495236437782,,,,,,,,0.02,0.08,0.99,-3.0,-0.0,-0.1,460,3,,,,,,,,,,,,,,,,,,,
322154,1495236437802,,,,,,,,0.01,0.07,0.99,-3.0,-0.1,-0.2,460,3,,,,,,,,,,,,,,,,,,,
322174,1495236437822,,,,,23,,,0.02,0.07,0.99,-3.0,-0.0,-0.3,480,3,1,1,153.333,0,39.538933,-122.332237,0.0,0.129,293.3,7,3,2.5,0,0.0,-1,0.0,0.0,0.0,0
322194,1495236437842,,,,,,,,0.01,0.06,0.99,-3.0,-0.1,-0.3,480,3,,,,,,,,,,,,,,,,,,,
322214,1495236437862,,,,,,,,0.01,0.07,0.99,-3.0,-0.0,-0.3,460,3,,,,,,,,,,,,,,,,,,,
322234,1495236437882,,,,,,,,0.01,0.07,0.99,-3.0,0.0,-0.2,460,3,,,,,,,,,,,,,,,,,,,
322254,1495236437902,,,,,,,,0.01,0.06,0.99,-3.0,0.0,-0.2,460,3,,,,,,,,,,,,,,,,,,,
322274,1495236437922,0,95.7,,133.7,25,124.0,,0.01,0.07,1.0,-3.0,-0.0,-0.2,460,3,1,1,153.333,0,39.538933,-122.332237,0.0,0.129,293.3,7,3,2.5,0,0.0,-1,0.0,0.0,0.0,0
322294,1495236437942,,,,,,,,0.01,0.06,0.99,-3.0,-0.1,-0.3,520,3,,,,,,,,,,,,,,,,,,,
322314,1495236437962,,,,,,,,0.01,0.07,0.99,-3.0,-0.1,-0.3,520,3,,,,,,,,,,,,,,,,,,,
322334,1495236437982,,,,,,,,0.02,0.07,0.99,-3.0,0.0,-0.2,580,3,,,,,,,,,,,,,,,,,,,
322354,1495236437996,,,,,,,,0.01,0.06,0.99,-3.0,0.0,-0.2,580,3,,,,,,,,,,,,,,,,,,,
322374,1495236438016,,,,,30,,,0.01,0.07,0.99,-3.0,-0.0,-0.1,600,3,1,1,193.333,0,39.538933,-122.332237,0.0,0.129,293.3,7,3,2.5,0,0.0,-1,0.0,0.0,0.0,0
322394,1495236438036,,,,,,,,0.01,0.07,0.99,-3.0,-0.1,-0.2,600,3,,,,,,,,,,,,,,,,,,,
322414,1495236438056,,,,,,,,0.01,0.06,0.99,-3.0,-0.1,-0.2,600,3,,,,,,,,,,,,,,,,,,,
322434,1495236438076,,,,,,,,0.01,0.07,0.99,-3.1,-0.1,-0.1,660,3,,,,,,,,,,,,,,,,,,,
322454,1495236438102,,,,,,,,0.01,0.07,0.99,-3.0,-0.1,-0.2,700,3,,,,,,,,,,,,,,,,,,,
322474,1495236438122,0,95.1,,133.8,36,124.2,,0.01,0.06,0.99,-3.0,-0.0,-0.2,700,3,1,1,220.0,0,39.538933,-122.332237,0.0,0.129,293.3,7,3,2.5,0,0.0,-1,0.0,0.0,0.0,0
322494,1495236438142,,,,,,,,0.0,0.07,0.99,-3.0,-0.0,-0.2,720,3,,,,,,,,,,,,,,,,,,,
322514,1495236438162,,,,,,,,0.01,0.08,0.99,-3.1,-0.2,-0.0,760,3,,,,,,,,,,,,,,,,,,,
322534,1495236438182,,,,,,,,0.01,0.08,0.99,-3.0,-0.2,-0.1,780,3,,,,,,,,,,,,,,,,,,,
322554,1495236438202,,,,,,,,0.01,0.07,0.99,-3.0,-0.1,-0.2,800,3,,,,,,,,,,,,,,,,,,,
322574,1495236438222,,,,,42,,,0.01,0.08,0.99,-3.1,-0.2,-0.2,800,3,1,1,260.0,0,39.538933,-122.332237,0.0,0.129,293.3,7,3,2.5,0,0.0,-1,0.0,0.0,0.0,0
322594,1495236438242,,,,,,,,0.01,0.08,0.99,-3.1,-0.2,-0.1,840,3,,,,,,,,,,,,,,,,,,,
322614,1495236438262,,,,,,,,0.02,0.1,0.99,-3.1,-0.1,0.0,880,3,,,,,,,,,,,,,,,,,,,
322634,1495236438282,,,,,,,,0.02,0.1,0.99,-3.1,0.0,-0.0,940,3,,,,,,,,,,,,,,,,,,,
322654,1495236438304,,,,,,,,0.03,0.1,0.99,-3.2,-0.0,-0.0,980,3,,,,,,,,,,,,,,,,,,,
322674,1495236438324,0,95.7,,133.8,55,124.0,,0.04,0.1,0.98,-3.1,-0.2,-0.0,1020,3,1,1,326.667,0,39.538933,-122.332237,0.0,0.129,293.3,7,3,2.5,0,0.0,-1,0.0,0.0,0.0,0
322694,1495236438344,,,,,,,,0.05,0.1,0.99,-3.1,-0.3,-0.1,1080,3,,,,,,,,,,,,,,,,,,,
322714,1495236438364,,,,,,,,0.05,0.09,0.99,-3.1,-0.1,-0.1,1160,3,,,,,,,,,,,,,,,,,,,
322734,1495236438384,,,,,,,,0.04,0.08,0.99,-3.1,-0.1,-0.1,1200,256409,,,,,,,,,,,,,,,,,,,
322754,1495236438402,,,,,,,,0.04,0.07,0.99,-3.2,-0.1,-0.2,1260,0,,,,,,,,,,,,,,,,,,,
322774,1495236438422,,,,,60,,,0.03,0.09,0.98,-3.2,0.1,-0.2,1280,0,1,1,0.0,0,39.538933,-122.332237,0.0,0.129,293.3,7,3,2.5,0,0.0,-1,0.0,0.0,0.0,0
322794,1495236438442,,,,,,,,0.03,0.08,0.98,-3.2,0.1,-0.1,1360,0,,,,,,,,,,,,,,,,,,,
322814,1495236438462,,,,,,,,0.03,0.07,0.99,-3.1,-0.1,-0.2,1400,0,,,,,,,,,,,,,,,,,,,
322834,1495236438482,,,,,,,,0.03,0.08,0.98,-3.1,-0.1,-0.1,1500,0,,,,,,,,,,,,,,,,,,,
322854,1495236438504,,,,,,,,0.03,0.08,0.98,-3.1,-0.1,-0.1,1540,0,,,,,,,,,,,,,,,,,,,
322874,1495236438524,0,94.9,,133.8,70,124.5,,0.03,0.08,0.98,-3.1,0.1,-0.1,1600,0,1,1,0.0,0,39.538933,-122.332237,0.0,0.129,293.3,7,3,2.5,0,0.0,-1,0.0,0.0,0.0,0
322894,1495236438544,,,,,,,,0.02,0.08,0.98,-3.1,-0.0,-0.1,1680,0,,,,,,,,,,,,,,,,,,,
322914,1495236438564,,,,,,,,0.02,0.08,0.98,-3.1,-0.1,-0.2,1720,0,,,,,,,,,,,,,,,,,,,
322934,1495236438584,,,,,,,,0.02,0.07,0.99,-3.1,-0.2,-0.2,1760,0,,,,,,,,,,,,,,,,,,,
322954,1495236438604,,,,,,,,0.02,0.07,0.97,-3.1,0.1,-0.1,1840,0,,,,,,,,,,,,,,,,,,,
322974,1495236438624,,,,,75,,,0.02,0.08,0.98,-3.1,-0.1,-0.1,1900,0,1,1,0.0,0,39.538933,-122.332237,0.0,0.129,293.3,7,3,2.5,0,0.0,-1,0.0,0.0,0.0,0
322994,1495236438644,,,,,,,,0.01,0.08,0.97,-3.1,-0.1,-0.1,1940,0,,,,,,,,,,,,,,,,,,,
323014,1495236438664,,,,,,,,0.01,0.08,0.97,-3.1,-0.1,-0.1,2000,0,,,,,,,,,,,,,,,,,,,
323034,1495236438684,,,,,,,,0.01,0.08,0.98,-3.1,-0.2,-0.1,2040,0,,,,,,,,,,,,,,,,,,,
323054,1495236438703,,,,,,,,-0.0,0.07,0.99,-3.1,-0.3,-0.2,2080,0,,,,,,,,,,,,,,,,,,,
323074,1495236438723,0,94.3,-0.7,132.9,68,123.9,14.68,-0.01,0.07,0.98,-3.2,-0.3,-0.2,2100,0,1,1,0.0,0,39.538933,-122.332237,0.0,0.129,293.3,7,3,2.5,0,0.0,-1,0.0,0.0,0.0,0
323094,1495236438743,,,,,,,,-0.02,0.07,0.99,-3.2,-0.1,-0.1,2160,0,,,,,,,,,,,,,,,,,,,
323114,1495236438763,,,,,,,,-0.01,0.07,1.0,-3.2,-0.2,-0.1,2180,0,,,,,,,,,,,,,,,,,,,
323134,1495236438783,,,,,,,,-0.01,0.07,0.99,-3.2,-0.1,-0.1,2280,0,,,,,,,,,,,,,,,,,,,
323154,1495236438803,,,,,,,,-0.01,0.07,0.99,-3.2,0.0,-0.2,2280,0,,,,,,,,,,,,,,,,,,,
323174,1495236438823,,,,,73,,,-0.0,0.06,0.97,-3.2,-0.1,-0.1,2280,0,1,1,0.0,0,39.538933,-122.332237,0.0,0.129,293.3,7,3,2.5,0,0.0,-1,0.0,0.0,0.0,0
323194,1495236438843,,,,,,,,-0.0,0.08,0.97,-3.1,-0.2,-0.1,2280,0,,,,,,,,,,,,,,,,,,,
323214,1495236438863,,,,,,,,0.01,0.06,0.98,-3.1,-0.2,-0.2,2340,0,,,,,,,,,,,,,,,,,,,
323234,1495236438883,,,,,,,,0.0,0.06,0.97,-3.1,-0.2,-0.2,2320,0,,,,,,,,,,,,,,,,,,,
323254,1495236438903,,,,,,,,0.01,0.07,0.97,-3.2,-0.3,-0.1,2420,0,,,,,,,,,,,,,,,,,,,
323274,1495236438923,0,94.5,,133.8,71,124.6,,0.01,0.08,0.99,-3.2,-0.4,-0.0,2440,0,1,1,0.0,0,39.538933,-122.332237,0.0,0.129,293.3,7,3,2.5,0,0.0,-1,0.0,0.0,0.0,0
323294,1495236438943,,,,,,,,0.01,0.08,0.99,-3.1,-0.6,-0.1,2460,0,,,,,,,,,,,,,,,,,,,
323314,1495236438963,,,,,,,,0.02,0.06,1.0,-3.2,-0.5,-0.1,2440,0,,,,,,,,,,,,,,,,,,,
323334,1495236438983,,,,,,,,0.01,0.07,1.0,-3.2,-0.6,-0.1,2460,0,,,,,,,,,,,,,,,,,,,
323354,1495236438997,,,,,,,,0.02,0.07,0.99,-3.1,-0.5,0.0,2520,0,,,,,,,,,,,,,,,,,,,
323374,1495236439017,,,,,63,,,0.02,0.07,0.99,-3.2,-0.5,-0.0,2500,0,1,1,0.0,0,39.538933,-122.332237,0.0,0.129,293.3,7,3,2.5,0,0.0,-1,0.0,0.0,0.0,0
323394,1495236439037,,,,,,,,0.02,0.09,0.99,-3.2,-0.5,-0.0,2580,0,,,,,,,,,,,,,,,,,,,
323414,1495236439057,,,,,,,,0.02,0.09,0.99,-3.1,-0.5,-0.1,2560,0,,,,,,,,,,,,,,,,,,,
323434,1495236439077,,,,,,,,0.02,0.08,1.0,-3.1,-0.4,-0.2,2620,0,,,,,,,,,,,,,,,,,,,
323454,1495236439101,,,,,,,,0.03,0.08,0.99,-3.1,-0.5,-0.2,2520,0,,,,,,,,,,,,,,,,,,,
323474,1495236439121,0,95.2,,132.9,67,123.6,,0.03,0.07,0.99,-3.1,-0.3,-0.2,2520,0,1,1,0.0,0,39.538933,-122.332237,0.0,0.129,293.3,7,3,2.5,0,0.0,-1,0.0,0.0,0.0,0
323494,1495236439141,,,,,,,,0.03,0.08,0.98,-3.1,-0.3,-0.1,2640,0,,,,,,,,,,,,,,,,,,,
323514,1495236439161,,,,,,,,0.03,0.09,0.97,-3.1,-0.4,-0.1,2580,0,,,,,,,,,,,,,,,,,,,
323534,1495236439181,,,,,,,,0.02,0.1,0.98,-3.1,-0.4,-0.1,2640,0,,,,,,,,,,,,,,,,,,,
323554,1495236439203,,,,,,,,0.02,0.1,0.98,-3.1,-0.3,-0.1,2580,0,,,,,,,,,,,,,,,,,,,
323574,1495236439223,,,,,81,,,0.02,0.1,0.99,-3.1,-0.3,-0.1,2600,0,1,1,0.0,0,39.538933,-122.332237,0.0,0.129,293.3,7,3,2.5,0,0.0,-1,0.0,0.0,0.0,0
323594,1495236439243,,,,,,,,0.01,0.09,0.98,-3.1,-0.3,-0.2,2700,0,,,,,,,,,,,,,,,,,,,
323614,1495236439263,,,,,,,,0.01,0.08,0.98,-3.1,-0.2,-0.2,2680,0,,,,,,,,,,,,,,,,,,,
323634,1495236439283,,,,,,,,0.01,0.07,0.98,-3.1,0.0,-0.1,2680,0,,,,,,,,,,,,,,,,,,,
323654,1495236439303,,,,,,,,0.02,0.08,0.98,-3.1,-0.0,-0.0,2720,0,,,,,,,,,,,,,,,,,,,
323674,1495236439323,0,96.0,,133.8,90,124.0,,0.01,0.09,0.98,-3.1,0.1,0.0,2660,0,1,1,0.0,0,39.538933,-122.332237,0.0,0.129,293.3,7,3,2.5,0,0.0,-1,0.0,0.0,0.0,0
323694,1495236439343,,,,,,,,0.02,0.08,0.99,-3.1,0.1,0.0,2660,0,,,,,,,,,,,,,,,,,,,
323714,1495236439363,,,,,,,,0.01,0.09,0.99,-3.1,0.1,-0.0,2780,0,,,,,,,,,,,,,,,,,,,
323734,1495236439383,,,,,,,,0.02,0.1,0.99,-3.1,0.0,-0.1,2720,0,,,,,,,,,,,,,,,,,,,
323754,1495236439403,,,,,,,,0.01,0.09,0.99,-3.1,0.1,-0.2,2740,0,,,,,,,,,,,,,,,,,,,
323774,1495236439423,,,,,72,,,0.02,0.08,0.99,-3.1,-0.1,-0.3,2800,0,1,1,0.0,0,39.538933,-122.332237,0.0,0.129,293.3,7,3,2.5,0,0.0,-1,0.0,0.0,0.0,0
323794,1495236439443,,,,,,,,0.02,0.07,0.98,-3.0,-0.1,-0.3,2700,0,,,,,,,,,,,,,,,,,,,
323814,1495236439463,,,,,,,,0.02,0.07,0.98,-3.0,-0.2,-0.3,2820,0,,,,,,,,,,,,,,,,,,,
323834,1495236439483,,,,,,,,0.02,0.07,0.98,-3.0,-0.3,-0.2,2760,0,,,,,,,,,,,,,,,,,,,
323854,1495236439503,,,,,,,,0.01,0.06,0.98,-3.0,-0.2,-0.1,2760,0,,,,,,,,,,,,,,,,,,,
323874,1495236439523,0,94.5,,133.8,84,124.6,,0.01,0.06,0.99,-3.0,-0.1,-0.0,2800,0,1,1,0.0,0,39.538933,-122.332237,0.0,0.129,293.3,7,3,2.5,0,0.0,-1,0.0,0.0,0.0,0
323894,1495236439543,,,,,,,,0.02,0.07,1.0,-3.1,-0.1,0.1,2800,0,,,,,,,,,,,,,,,,,,,
323914,1495236439563,,,,,,,,0.02,0.09,1.0,-3.1,-0.1,0.1,2760,0,,,,,,,,,,,,,,,,,,,
323934,1495236439583,,,,,,,,0.02,0.1,1.0,-3.1,-0.1,0.1,2860,0,,,,,,,,,,,,,,,,,,,
323954,1495236439603,,,,,,,,0.02,0.09,1.01,-3.1,-0.0,0.1,2840,0,,,,,,,,,,,,,,,,,,,
323974,1495236439623,,,,,83,,,0.02,0.09,1.0,-3.1,-0.0,0.0,2800,0,1,1,0.0,0,39.538933,-122.332237,0.0,0.129,293.3,7,3,2.5,0,0.0,-1,0.0,0.0,0.0,0
323994,1495236439643,,,,,,,,0.02,0.11,1.0,-3.1,-0.1,-0.0,2820,0,,,,,,,,,,,,,,,,,,,
324014,1495236439663,,,,,,,,0.02,0.11,1.0,-3.1,-0.1,-0.1,2840,0,,,,,,,,,,,,,,,,,,,
324034,1495236439683,,,,,,,,0.02,0.1,1.0,-3.1,0.0,-0.2,2840,0,,,,,,,,,,,,,,,,,,,
324054,1495236439702,,,,,,,,0.01,0.09,0.99,-3.1,0.0,-0.3,2820,0,,,,,,,,,,,,,,,,,,,
324074,1495236439722,0,95.8,-0.9,133.6,90,123.7,14.61,0.01,0.08,0.99,-3.0,-0.1,-0.4,2860,0,1,1,0.0,0,39.538933,-122.332237,0.0,0.129,293.3,7,3,2.5,0,0.0,-1,0.0,0.0,0.0,0
324094,1495236439742,,,,,,,,0.0,0.07,0.99,-3.0,-0.0,-0.4,2940,0,,,,,,,,,,,,,,,,,,,
324114,1495236439762,,,,,,,,0.0,0.06,1.0,-3.0,-0.0,-0.4,2900,0,,,,,,,,,,,,,,,,,,,
324134,1495236439782,,,,,,,,0.01,0.04,0.98,-2.9,-0.1,-0.4,2960,0,,,,,,,,,,,,,,,,,,,
324154,1495236439802,,,,,,,,-0.0,0.04,0.97,-2.9,0.0,-0.4,2900,0,,,,,,,,,,,,,,,,,,,
324174,1495236439822,,,,,76,,,0.0,0.04,0.97,-2.9,0.0,-0.4,2980,0,1,1,0.0,0,39.538933,-122.332237,0.0,0.129,293.3,7,3,2.5,0,0.0,-1,0.0,0.0,0.0,0
324194,1495236439842,,,,,,,,0.01,0.05,0.98,-2.9,0.0,-0.4,2880,0,,,,,,,,,,,,,,,,,,,
324214,1495236439862,,,,,,,,0.01,0.06,0.99,-3.0,0.1,-0.3,2940,0,,,,,,,,,,,,,,,,,,,
324234,1495236439882,,,,,,,,0.02,0.06,1.02,-3.0,0.1,-0.2,2920,0,,,,,,,,,,,,,,,,,,,
324254,1495236439902,,,,,,,,0.02,0.06,1.01,-3.1,0.0,-0.1,2940,0,,,,,,,,,,,,,,,,,,,
324274,1495236439922,0,94.1,,133.5,73,124.3,,0.03,0.06,1.02,-3.2,-0.0,-0.0,2940,0,1,1,0.0,0,39.538933,-122.332237,0.0,0.129,293.3,7,3,2.5,0,0.0,-1,0.0,0.0,0.0,0
324294,1495236439942,,,,,,,,0.03,0.05,1.01,-3.2,-0.2,0.1,2900,0,,,,,,,,,,,,,,,,,,,
324314,1495236439962,,,,,,,,0.02,0.05,1.0,-3.2,-0.2,0.2,2960,0,,,,,,,,,,,,,,,,,,,
324334,1495236439982,,,,,,,,0.02,0.05,0.99,-3.2,-0.4,0.2,2900,0,,,,,,,,,,,,,,,,,,,
324354,1495236439996,,,,,,,,0.01,0.05,0.99,-3.2,-0.5,0.3,2960,0,,,,,,,,,,,,,,,,,,,
324374,1495236440016,,,,,79,,,0.01,0.05,0.98,-3.2,-0.6,0.3,2940,0,1,1,0.0,0,39.538933,-122.332237,0.0,0.129,293.3,7,3,2.5,0,0.0,-1,0.0,0.0,0.0,0
324394,1495236440036,,,,,,,,0.0,0.05,0.97,-3.2,-0.6,0.3,2980,0,,,,,,,,,,,,,,,,,,,
324414,1495236440056,,,,,,,,-0.0,0.05,0.97,-3.2,-0.7,0.3,3020,0,,,,,,,,,,,,,,,,,,,
324434,1495236440076,,,,,,,,-0.01,0.04,0.97,-3.2,-0.7,0.3,3020,0,,,,,,,,,,,,,,,,,,,
324454,1495236440104,,,,,,,,-0.01,0.04,0.97,-3.2,-0.7,0.3,3080,0,,,,,,,,,,,,,,,,,,,
324474,1495236440124,0,94.5,,133.2,89,124.6,,-0.02,0.03,0.96,-3.2,-0.6,0.3,3020,0,1,1,0.0,0,39.538933,-122.332237,0.0,0.129,293.3,7,3,2.5,0,0.0,-1,0.0,0.0,0.0,0
324494,1495236440144,,,,,,,,-0.02,0.03,0.95,-3.2,-0.7,0.3,3020,0,,,,,,,,,,,,,,,,,,,
324514,1495236440164,,,,,,,,-0.02,0.02,0.95,-3.2,-0.7,0.3,3020,0,,,,,,,,,,,,,,,,,,,
324534,1495236440184,,,,,,,,-0.02,0.02,0.94,-3.3,-0.6,0.3,3020,0,,,,,,,,,,,,,,,,,,,
324554,1495236440204,,,,,,,,-0.01,0.02,0.95,-3.3,-0.7,0.3,3040,0,,,,,,,,,,,,,,,,,,,
324574,1495236440224,,,,,73,,,-0.02,0.01,0.95,-3.4,-0.5,0.3,3100,0,1,1,0.0,0,39.538933,-122.332237,0.0,0.129,293.3,7,3,2.5,0,0.0,-1,0.0,0.0,0.0,0
324594,1495236440244,,,,,,,,-0.01,0.01,0.97,-3.4,-0.7,0.3,3100,0,,,,,,,,,,,,,,,,,,,
324614,1495236440264,,,,,,,,-0.01,0.01,0.97,-3.5,-0.4,0.3,3000,0,,,,,,,,,,,,,,,,,,,
324634,1495236440284,,,,,,,,-0.0,0.02,0.99,-3.5,-0.6,0.2,3040,0,,,,,,,,,,,,,,,,,,,
324654,1495236440302,,,,,,,,0.0,0.04,1.0,-3.5,-0.5,0.2,3080,0,,,,,,,,,,,,,,,,,,,
324674,1495236440322,0,95.3,,133.8,72,124.6,,0.01,0.06,1.0,-3.5,-0.6,0.1,3060,0,1,1,0.0,0,39.538933,-122.332237,0.0,0.129,293.3,7,3,2.5,0,0.0,-1,0.0,0.0,0.0,0
324694,1495236440342,,,,,,,,0.03,0.08,1.0,-3.5,-0.6,0.1,3060,0,,,,,,,,,,,,,,,,,,,
324714,1495236440362,,,,,,,,0.04,0.1,0.99,-3.5,-0.7,0.1,3120,0,,,,,,,,,,,,,,,,,,,
324734,1495236440382,,,,,,,,0.04,0.12,0.97,-3.4,-0.8,0.0,3020,0,,,,,,,,,,,,,,,,,,,
324754,1495236440404,,,,,,,,0.05,0.12,0.98,-3.3,-0.9,-0.1,3080,0,,,,,,,,,,,,,,,,,,,
324774,1495236440424,,,,,75,,,0.04,0.12,0.98,-3.2,-0.7,-0.2,3140,0,1,1,0.0,0,39.538933,-122.332237,0.0,0.129,293.3,7,3,2.5,0,0.0,-1,0.0,0.0,0.0,0
324794,1495236440444,,,,,,,,0.03,0.11,0.98,-3.0,-0.7,-0.3,3120,0,,,,,,,,,,,,,,,,,,,
324814,1495236440464,,,,,,,,0.03,0.09,1.0,-3.0,-0.4,-0.4,3100,0,,,,,,,,,,,,,,,,,,,
324834,1495236440484,,,,,,,,0.01,0.08,0.99,-3.0,0.0,-0.4,3080,0,,,,,,,,,,,,,,,,,,,
324854,1495236440502,,,,,,,,0.01,0.07,1.0,-3.0,0.0,-0.4,3080,0,,,,,,,,,,,,,,,,,,,
324874,1495236440522,0,95.7,,133.9,88,124.3,,0.02,0.08,1.02,-3.1,0.2,-0.4,3140,0,1,1,0.0,0,39.538933,-122.332237,0.0,0.129,293.3,7,3,2.5,0,0.0,-1,0.0,0.0,0.0,0
324894,1495236440542,,,,,,,,0.01,0.09,1.02,-3.2,0.1,-0.3,3120,0,,,,,,,,,,,,,,,,,,,
324914,1495236440562,,,,,,,,0.01,0.12,1.0,-3.2,-0.1,-0.3,3180,0,,,,,,,,,,,,,,,,,,,
324934,1495236440582,,,,,,,,0.01,0.15,1.0,-3.2,-0.3,-0.3,3180,0,,,,,,,,,,,,,,,,,,,
324954,1495236440604,,,,,,,,0.0,0.15,0.99,-3.1,-0.2,-0.3,3180,0,,,,,,,,,,,,,,,,,,,
324974,1495236440624,,,,,82,,,0.01,0.14,0.98,-3.1,-0.2,-0.2,3180,0,1,1,0.0,0,39.538933,-122.332237,0.0,0.129,293.3,7,3,2.5,0,0.0,-1,0.0,0.0,0.0,0
324994,1495236440644,,,,,,,,0.01,0.11,0.98,-3.1,-0.1,-0.2,3180,0,,,,,,,,,,,,,,,,,,,
325014,1495236440664,,,,,,,,0.01,0.09,0.98,-3.1,0.1,-0.2,3180,0,,,,,,,,,,,,,,,,,,,
325034,1495236440684,,,,,,,,0.01,0.08,0.96,-3.1,0.1,-0.1,3180,0,,,,,,,,,,,,,,,,,,,
325054,1495236440703,,,,,,,,0.0,0.06,0.96,-3.1,0.0,-0.1,3180,0,,,,,,,,,,,,,,,,,,,
325074,1495236440723,0,94.4,-0.8,133.2,79,124.1,15.2,-0.0,0.04,0.95,-3.0,-0.1,-0.2,3180,0,1,1,0.0,0,39.538933,-122.332237,0.0,0.129,293.3,7,3,2.5,0,0.0,-1,0.0,0.0,0.0,0
325094,1495236440743,,,,,,,,-0.01,0.03,0.96,-3.0,0.0,-0.2,3180,0,,,,,,,,,,,,,,,,,,,
325114,1495236440763,,,,,,,,0.0,0.04,0.98,-2.9,0.2,-0.3,3180,0,,,,,,,,,,,,,,,,,,,
325134,1495236440783,,,,,,,,-0.0,0.04,0.98,-2.9,0.2,-0.4,3180,0,,,,,,,,,,,,,,,,,,,
325154,1495236440803,,,,,,,,-0.0,0.03,0.98,-3.0,-0.0,-0.4,3180,0,,,,,,,,,,,,,,,,,,,
325174,1495236440823,,,,,85,,,-0.0,0.03,0.98,-3.0,0.1,-0.3,3180,0,1,1,0.0,0,39.538933,-122.332237,0.0,0.129,293.3,7,3,2.5,0,0.0,-1,0.0,0.0,0.0,0
325194,1495236440843,,,,,,,,0.0,0.03,0.97,-3.0,0.1,-0.2,3180,0,,,,,,,,,,,,,,,,,,,
325214,1495236440863,,,,,,,,0.01,0.03,0.97,-3.0,-0.0,-0.1,3180,0,,,,,,,,,,,,,,,,,,,
325234,1495236440883,,,,,,,,0.01,0.04,0.98,-3.0,0.1,-0.1,3180,0,,,,,,,,,,,,,,,,,,,
325254,1495236440903,,,,,,,,0.01,0.04,0.98,-3.0,0.1,-0.2,3180,0,,,,,,,,,,,,,,,,,,,
325274,1495236440923,0,95.9,,134.1,62,124.4,,0.01,0.04,0.98,-3.0,0.1,-0.1,3180,0,1,1,0.0,0,39.538933,-122.332237,0.0,0.129,293.3,7,3,2.5,0,0.0,-1,0.0,0.0,0.0,0
325294,1495236440943,,,,,,,,0.01,0.04,0.98,-3.0,0.1,-0.1,3180,0,,,,,,,,,,,,,,,,,,,
325314,1495236440963,,,,,,,,0.01,0.05,0.97,-3.0,0.0,-0.1,3180,0,,,,,,,,,,,,,,,,,,,
325334,1495236440983,,,,,,,,0.02,0.06,0.96,-3.0,0.1,-0.1,3180,0,,,,,,,,,,,,,,,,,,,
325354,1495236440997,,,,,,,,0.01,0.06,0.96,-3.0,0.1,-0.1,3180,0,,,,,,,,,,,,,,,,,,,
325374,1495236441017,,,,,60,,,0.01,0.05,0.98,-3.1,0.1,-0.1,3180,0,1,1,0.0,0,39.538933,-122.332237,0.0,0.129,293.3,7,3,2.5,0,0.0,-1,0.0,0.0,0.0,0
325394,1495236441037,,,,,,,,0.01,0.05,0.98,-3.0,-0.0,-0.1,3180,0,,,,,,,,,,,,,,,,,,,
325414,1495236441057,,,,,,,,0.01,0.05,0.98,-3.0,-0.1,-0.1,3180,0,,,,,,,,,,,,,,,,,,,
325434,1495236441077,,,,,,,,0.01,0.05,0.98,-3.0,-0.3,-0.1,3180,0,,,,,,,,,,,,,,,,,,,
325454,1495236441103,,,,,,,,0.01,0.05,0.97,-3.0,-0.3,-0.0,3180,0,,,,,,,,,,,,,,,,,,,
325474,1495236441123,0,95.2,,133.9,64,124.6,,0.01,0.05,0.98,-3.0,-0.5,-0.0,3180,0,1,1,0.0,0,39.538933,-122.332237,0.0,0.129,293.3,7,3,2.5,0,0.0,-1,0.0,0.0,0.0,0
325494,1495236441143,,,,,,,,0.01,0.05,0.98,-3.0,-0.6,0.0,3180,0,,,,,,,,,,,,,,,,,,,
325514,1495236441163,,,,,,,,0.01,0.05,0.98,-3.0,-0.7,0.0,3180,0,,,,,,,,,,,,,,,,,,,
325534,1495236441183,,,,,,,,0.0,0.05,0.98,-3.0,-0.7,-0.0,3180,0,,,,,,,,,,,,,,,,,,,
325554,1495236441203,,,,,,,,0.0,0.05,0.98,-3.0,-0.5,-0.0,3180,0,,,,,,,,,,,,,,,,,,,
325574,1495236441223,,,,,75,,,0.0,0.06,0.99,-3.0,-0.4,-0.1,3180,0,1,1,0.0,0,39.538933,-122.332237,0.0,0.129,293.3,7,3,2.5,0,0.0,-1,0.0,0.0,0.0,0
325594,1495236441243,,,,,,,,0.01,0.05,0.99,-3.0,-0.4,-0.1,3180,0,,,,,,,,,,,,,,,,,,,
325614,1495236441263,,,,,,,,0.01,0.06,0.99,-3.0,-0.4,-0.1,3180,0,,,,,,,,,,,,,,,,,,,
325634,1495236441283,,,,,,,,0.01,0.06,0.99,-3.0,-0.4,-0.0,3180,0,,,,,,,,,,,,,,,,,,,
325654,1495236441303,,,,,,,,0.01,0.06,0.99,-3.0,-0.4,-0.0,3180,0,,,,,,,,,,,,,,,,,,,
325674,1495236441323,0,95.4,,134.0,68,124.6,,0.01,0.07,0.98,-3.0,-0.4,-0.1,3180,0,1,1,0.0,0,39.538933,-122.332237,0.0,0.129,293.3,7,3,2.5,0,0.0,-1,0.0,0.0,0.0,0
325694,1495236441343,,,,,,,,0.01,0.07,0.98,-3.0,-0.3,-0.1,3180,0,,,,,,,,,,,,,,,,,,,
325714,1495236441363,,,,,,,,0.01,0.07,0.98,-3.0,-0.3,-0.1,3180,0,,,,,,,,,,,,,,,,,,,
325734,1495236441383,,,,,,,,0.01,0.07,0.99,-3.0,-0.2,-0.1,3180,0,,,,,,,,,,,,,,,,,,,
325754,1495236441403,,,,,,,,0.01,0.07,0.99,-3.0,-0.0,-0.1,3180,0,,,,,,,,,,,,,,,,,,,
325774,1495236441423,,,,,57,,,0.01,0.07,0.99,-3.0,-0.0,-0.1,3180,0,1,1,0.0,0,39.538933,-122.332237,0.0,0.129,293.3,7,3,2.5,0,0.0,-1,0.0,0.0,0.0,0
325794,1495236441443,,,,,,,,0.01,0.07,0.99,-3.1,-0.1,-0.1,0,0,,,,,,,,,,,,,,,,,,,
325814,1495236441463,,,,,,,,0.02,0.07,0.99,-3.1,-0.0,-0.1,0,0,,,,,,,,,,,,,,,,,,,
