"Interval"|"ms"|0|0|1,"Utc"|"ms"|0|0|1,"FuelLevel"|"F"|0|100|5,"OilTemp"|"F"|0.0|300.0|5,"CoolantPressPSI"|"PSI"|0.0|20.0|1,"Coolant"|"F"|0.0|300.0|5,"OilPress"|"PSI"|0|150|10,"EngineTemp"|"F"|0.0|300.0|5,"Battery"|"Volts"|0.0|20.0|1,"AccelX"|"G"|-3.0|3.0|50,"AccelY"|"G"|-3.0|3.0|50,"AccelZ"|"G"|-3.0|3.0|50,"Yaw"|"Deg/Sec"|-300.0|300.0|50,"Pitch"|"Deg/Sec"|-300.0|300.0|50,"Roll"|"Deg/Sec"|-300.0|300.0|50,"RPM"|""|0|10000|50,"Driveshaft"|"RPM"|0|5000|50,"GPIO1"|""|0|1|10,"GPIO2"|""|0|1|10,"GearRatio"|""|-5.0|5.0|10,"Gear"|""|-1|5|10,"Latitude"|"Degrees"|-180.0|180.0|10,"Longitude"|"Degrees"|-180.0|180.0|10,"Speed"|"mph"|0.0|150.0|10,"Distance"|"mi"|0.0|0.0|10,"Altitude"|"ft"|0.0|4000.0|10,"GPSSats"|""|0|20|10,"GPSQual"|""|0|5|10,"GPSDOP"|""|0.0|20.0|10,"LapCount"|""|0|0|10,"LapTime"|"Min"|0.0|0.0|10,"Sector"|""|0|0|10,"SectorTime"|"Min"|0.0|0.0|10,"PredTime"|"Min"|0.0|0.0|10,"ElapsedTime"|"Min"|0.0|0.0|10,"CurrentLap"|""|0|0|10
36554,1495236483992,,,,,,,,0.01,0.06,0.98,-3.1,0.2,-0.1,40,0,,,,,,,,,,,,,,,,,,,
36574,1495236484012,,,,,1,,,0.02,0.06,0.99,-3.0,0.0,-0.1,40,0,1,1,0.0,0,39.538685,-122.332405,0.0,0.0,126.0,7,2,2.5,0,0.0,-1,0.0,0.0,0.0,0
36594,1495236484032,,,,,,,,0.02,0.07,0.99,-3.0,0.0,-0.2,260,0,,,,,,,,,,,,,,,,,,,
36614,1495236484052,,,,,,,,0.02,0.08,1.0,-3.0,0.1,-0.2,260,0,,,,,,,,,,,,,,,,,,,
36634,1495236484072,,,,,,,,0.01,0.07,0.99,-3.0,-0.0,-0.3,260,0,,,,,,,,,,,,,,,,,,,
36654,1495236484096,,,,,,,,0.02,0.08,0.99,-3.0,0.0,-0.2,400,0,,,,,,,,,,,,,,,,,,,
36674,1495236484116,0,93.5,,134.0,1,127.5,,0.02,0.08,1.0,-3.0,0.0,-0.2,400,0,1,1,0.0,0,39.538685,-122.332405,0.0,0.0,126.0,7,2,2.5,0,0.0,-1,0.0,0.0,0.0,0
36694,1495236484136,,,,,,,,0.02,0.08,1.0,-3.0,-0.0,-0.1,500,0,,,,,,,,,,,,,,,,,,,
36714,1495236484156,,,,,,,,0.02,0.08,1.0,-3.0,-0.0,-0.1,560,0,,,,,,,,,,,,,,,,,,,
36734,1495236484176,,,,,,,,0.02,0.1,0.99,-3.1,0.1,-0.1,560,0,,,,,,,,,,,,,,,,,,,
36754,1495236484195,,,,,,,,0.01,0.11,0.97,-3.0,-0.1,-0.1,640,0,,,,,,,,,,,,,,,,,,,
36774,1495236484215,,,,,3,,,0.02,0.08,0.97,-3.0,0.1,-0.3,780,0,1,0,0.0,0,39.538685,-122.332405,0.0,0.0,126.0,7,2,2.5,0,0.0,-1,0.0,0.0,0.0,0
36794,1495236484235,,,,,,,,0.01,0.07,0.98,-3.0,0.0,-0.5,780,0,,,,,,,,,,,,,,,,,,,
36814,1495236484255,,,,,,,,0.01,0.06,0.97,-3.0,0.2,-0.5,820,0,,,,,,,,,,,,,,,,,,,
36834,1495236484275,,,,,,,,0.01,0.07,0.96,-3.1,0.4,-0.3,760,0,,,,,,,,,,,,,,,,,,,
36854,1495236484295,,,,,,,,0.02,0.09,0.97,-3.1,0.5,-0.2,720,0,,,,,,,,,,,,,,,,,,,
36874,1495236484315,0,95.1,,133.5,5,126.2,,0.02,0.09,0.97,-3.1,0.5,-0.2,720,0,1,1,0.0,0,39.538685,-122.332405,0.0,0.0,126.0,7,2,2.5,0,0.0,-1,0.0,0.0,0.0,0
36894,1495236484335,,,,,,,,0.02,0.1,0.97,-3.1,0.5,-0.2,660,0,,,,,,,,,,,,,,,,,,,
36914,1495236484355,,,,,,,,0.03,0.1,0.98,-3.0,0.6,-0.2,660,0,,,,,,,,,,,,,,,,,,,
36934,1495236484375,,,,,,,,0.02,0.08,0.98,-3.0,0.4,-0.3,660,0,,,,,,,,,,,,,,,,,,,
36954,1495236484395,,,,,,,,0.03,0.08,0.97,-3.0,0.4,-0.4,720,0,,,,,,,,,,,,,,,,,,,
36974,1495236484415,,,,,5,,,0.03,0.08,0.97,-3.1,0.5,-0.2,760,0,1,1,0.0,0,39.538685,-122.332405,0.0,0.0,126.0,7,2,2.5,0,0.0,-1,0.0,0.0,0.0,0
36994,1495236484435,,,,,,,,0.03,0.07,0.98,-3.0,0.4,-0.2,720,0,,,,,,,,,,,,,,,,,,,
37014,1495236484455,,,,,,,,0.03,0.07,0.97,-3.0,0.3,-0.2,760,0,,,,,,,,,,,,,,,,,,,
37034,1495236484475,,,,,,,,0.03,0.07,0.98,-3.0,0.2,-0.1,760,0,,,,,,,,,,,,,,,,,,,
37054,1495236484495,,,,,,,,0.03,0.08,0.98,-3.1,0.3,0.0,800,0,,,,,,,,,,,,,,,,,,,
37074,1495236484515,0,97.0,-0.8,134.5,10,126.6,14.46,0.03,0.09,0.98,-3.1,0.1,-0.1,820,0,1,1,0.0,0,39.538685,-122.332405,0.0,0.0,126.0,7,2,2.5,0,0.0,-1,0.0,0.0,0.0,0
37094,1495236484535,,,,,,,,0.02,0.09,0.99,-3.0,0.1,-0.2,840,0,,,,,,,,,,,,,,,,,,,
37114,1495236484555,,,,,,,,0.02,0.09,0.98,-3.0,0.1,-0.2,860,0,,,,,,,,,,,,,,,,,,,
37134,1495236484575,,,,,,,,0.02,0.08,0.98,-3.0,0.0,-0.2,820,0,,,,,,,,,,,,,,,,,,,
37154,1495236484595,,,,,,,,0.02,0.07,0.98,-3.0,0.1,-0.2,820,0,,,,,,,,,,,,,,,,,,,
37174,1495236484615,,,,,12,,,0.02,0.08,0.98,-3.0,0.2,-0.1,840,0,1,1,0.0,0,39.538685,-122.332405,0.0,0.0,126.0,7,2,2.5,0,0.0,-1,0.0,0.0,0.0,0
37194,1495236484635,,,,,,,,0.02,0.08,0.98,-3.0,0.1,-0.1,820,0,,,,,,,,,,,,,,,,,,,
37214,1495236484655,,,,,,,,0.02,0.07,0.98,-3.0,0.1,-0.2,840,0,,,,,,,,,,,,,,,,,,,
37234,1495236484675,,,,,,,,0.01,0.07,0.98,-2.9,0.1,-0.3,840,0,,,,,,,,,,,,,,,,,,,
37254,1495236484695,,,,,,,,0.01,0.06,0.98,-2.9,0.2,-0.3,860,0,,,,,,,,,,,,,,,,,,,
37274,1495236484715,1,95.4,,133.7,14,126.5,,0.01,0.06,0.98,-3.0,0.2,-0.3,840,0,1,1,0.0,0,39.538685,-122.332405,0.0,0.0,126.0,7,2,2.5,0,0.0,-1,0.0,0.0,0.0,0
37294,1495236484735,,,,,,,,0.01,0.07,0.98,-3.0,0.2,-0.2,840,0,,,,,,,,,,,,,,,,,,,
37314,1495236484755,,,,,,,,0.02,0.07,0.99,-3.0,0.2,-0.1,840,0,,,,,,,,,,,,,,,,,,,
37334,1495236484775,,,,,,,,0.02,0.07,0.99,-3.0,0.2,-0.1,840,0,,,,,,,,,,,,,,,,,,,
37354,1495236484795,,,,,,,,0.02,0.07,0.99,-3.0,0.2,-0.2,820,0,,,,,,,,,,,,,,,,,,,
37374,1495236484815,,,,,19,,,0.02,0.07,0.99,-3.0,0.2,-0.2,800,0,1,1,0.0,0,39.538685,-122.332405,0.0,0.0,126.0,7,2,2.5,0,0.0,-1,0.0,0.0,0.0,0
37394,1495236484835,,,,,,,,0.01,0.07,0.99,-3.1,0.2,-0.2,800,0,,,,,,,,,,,,,,,,,,,
37414,1495236484855,,,,,,,,0.01,0.07,0.99,-3.1,0.1,-0.2,800,0,,,,,,,,,,,,,,,,,,,
37434,1495236484875,,,,,,,,0.01,0.07,0.99,-3.1,0.1,-0.1,780,0,,,,,,,,,,,,,,,,,,,
37454,1495236484895,,,,,,,,0.01,0.07,0.99,-3.0,0.0,-0.2,760,0,,,,,,,,,,,,,,,,,,,
37474,1495236484915,0,95.3,,134.4,25,127.1,,0.02,0.07,0.99,-3.1,0.1,-0.2,740,0,1,1,0.0,0,39.538685,-122.332405,0.0,0.0,126.0,7,2,2.5,0,0.0,-1,0.0,0.0,0.0,0
37494,1495236484935,,,,,,,,0.01,0.07,0.99,-3.0,0.1,-0.2,740,0,,,,,,,,,,,,,,,,,,,
37514,1495236484955,,,,,,,,0.02,0.07,0.99,-3.0,0.2,-0.1,720,0,,,,,,,,,,,,,,,,,,,
37534,1495236484975,,,,,,,,0.02,0.08,1.0,-3.1,0.2,-0.1,680,0,,,,,,,,,,,,,,,,,,,
37554,1495236484991,,,,,,,,0.01,0.07,0.99,-3.1,0.2,-0.1,680,0,,,,,,,,,,,,,,,,,,,
37574,1495236485011,,,,,28,,,0.02,0.08,1.0,-3.1,0.2,-0.1,640,0,1,1,0.0,0,39.538685,-122.332405,0.0,0.0,126.0,7,2,2.5,0,0.0,-1,0.0,0.0,0.0,0
37594,1495236485031,,,,,,,,0.02,0.07,0.99,-3.1,0.1,-0.1,620,0,,,,,,,,,,,,,,,,,,,
37614,1495236485051,,,,,,,,0.02,0.08,0.99,-3.1,0.1,-0.1,620,0,,,,,,,,,,,,,,,,,,,
37634,1495236485071,,,,,,,,0.02,0.08,0.99,-3.1,0.1,-0.1,580,0,,,,,,,,,,,,,,,,,,,
37654,1495236485095,,,,,,,,0.02,0.08,0.99,-3.1,0.1,-0.1,580,0,,,,,,,,,,,,,,,,,,,
37674,1495236485115,0,96.8,,133.6,32,126.0,,0.02,0.07,0.99,-3.1,0.1,-0.1,560,0,1,1,0.0,0,39.538685,-122.332405,0.0,0.0,126.0,7,2,2.5,0,0.0,-1,0.0,0.0,0.0,0
37694,1495236485135,,,,,,,,0.02,0.08,0.99,-3.1,0.1,-0.1,560,0,,,,,,,,,,,,,,,,,,,
37714,1495236485155,,,,,,,,0.02,0.07,0.99,-3.0,0.1,-0.1,500,0,,,,,,,,,,,,,,,,,,,
37734,1495236485175,,,,,,,,0.02,0.07,0.99,-3.0,0.1,-0.1,500,0,,,,,,,,,,,,,,,,,,,
37754,1495236485196,,,,,,,,0.02,0.08,0.99,-3.1,0.1,-0.1,440,0,,,,,,,,,,,,,,,,,,,
37774,1495236485216,,,,,33,,,0.02,0.07,0.99,-3.1,0.1,-0.1,440,0,1,1,0.0,0,39.538685,-122.332405,0.0,0.0,126.0,7,2,2.5,0,0.0,-1,0.0,0.0,0.0,0
37794,1495236485236,,,,,,,,0.02,0.08,0.99,-3.0,0.1,-0.1,440,0,,,,,,,,,,,,,,,,,,,
37814,1495236485256,,,,,,,,0.02,0.08,0.98,-3.1,0.1,-0.1,400,0,,,,,,,,,,,,,,,,,,,
37834,1495236485276,,,,,,,,0.01,0.07,0.98,-3.1,0.1,-0.1,400,0,,,,,,,,,,,,,,,,,,,
37854,1495236485296,,,,,,,,0.02,0.08,0.99,-3.1,0.1,-0.1,380,0,,,,,,,,,,,,,,,,,,,
37874,1495236485316,0,96.0,,133.4,33,126.2,,0.02,0.08,0.99,-3.1,0.1,-0.1,380,0,1,1,0.0,0,39.538685,-122.332405,0.0,0.0,126.0,7,2,2.5,0,0.0,-1,0.0,0.0,0.0,0
37894,1495236485336,,,,,,,,0.02,0.08,0.99,-3.1,0.1,-0.1,380,0,,,,,,,,,,,,,,,,,,,
37914,1495236485356,,,,,,,,0.02,0.08,0.99,-3.1,0.1,-0.1,360,0,,,,,,,,,,,,,,,,,,,
37934,1495236485376,,,,,,,,0.02,0.08,0.99,-3.0,0.1,-0.1,360,0,,,,,,,,,,,,,,,,,,,
37954,1495236485396,,,,,,,,0.02,0.08,0.99,-3.1,0.0,-0.1,360,0,,,,,,,,,,,,,,,,,,,
37974,1495236485416,,,,,33,,,0.02,0.08,0.99,-3.1,0.0,-0.2,360,0,1,1,0.0,0,39.538685,-122.332405,0.0,0.0,126.0,7,2,2.5,0,0.0,-1,0.0,0.0,0.0,0
37994,1495236485436,,,,,,,,0.02,0.09,0.99,-3.1,0.0,-0.1,360,0,,,,,,,,,,,,,,,,,,,
38014,1495236485456,,,,,,,,0.02,0.09,0.99,-3.1,0.1,-0.2,320,0,,,,,,,,,,,,,,,,,,,
38034,1495236485476,,,,,,,,0.02,0.09,0.99,-3.1,0.1,-0.2,320,0,,,,,,,,,,,,,,,,,,,
38054,1495236485496,,,,,,,,0.02,0.09,1.0,-3.1,0.0,-0.2,320,0,,,,,,,,,,,,,,,,,,,
38074,1495236485516,0,97.1,-0.6,134.3,32,126.5,12.43,0.02,0.1,1.0,-3.1,0.0,-0.2,320,0,1,1,0.0,0,39.538685,-122.332405,0.0,0.0,126.0,7,2,2.5,0,0.0,-1,0.0,0.0,0.0,0
38094,1495236485536,,,,,,,,0.03,0.08,1.0,-3.1,-0.0,-0.1,300,0,,,,,,,,,,,,,,,,,,,
38114,1495236485556,,,,,,,,0.02,0.09,1.0,-3.2,-0.0,-0.1,300,0,,,,,,,,,,,,,,,,,,,
38134,1495236485576,,,,,,,,0.03,0.1,0.99,-3.2,-0.1,-0.1,300,0,,,,,,,,,,,,,,,,,,,
38154,1495236485596,,,,,,,,0.02,0.09,0.99,-3.2,-0.1,-0.1,260,0,,,,,,,,,,,,,,,,,,,
38174,1495236485616,,,,,32,,,0.02,0.09,0.99,-3.2,-0.0,-0.1,260,0,1,1,0.0,0,39.538685,-122.332405,0.0,0.0,126.0,7,2,2.5,0,0.0,-1,0.0,0.0,0.0,0
38194,1495236485636,,,,,,,,0.02,0.08,0.99,-3.1,-0.0,-0.1,260,0,,,,,,,,,,,,,,,,,,,
38214,1495236485656,,,,,,,,0.02,0.09,0.99,-3.1,0.0,-0.1,260,0,,,,,,,,,,,,,,,,,,,
38234,1495236485676,,,,,,,,0.02,0.09,0.99,-3.1,0.0,-0.1,280,0,,,,,,,,,,,,,,,,,,,
38254,1495236485696,,,,,,,,0.02,0.09,0.99,-3.1,0.0,-0.1,280,0,,,,,,,,,,,,,,,,,,,
38274,1495236485716,0,96.5,,134.6,31,127.0,,0.02,0.08,0.99,-3.1,0.0,-0.1,280,0,1,1,0.0,0,39.538685,-122.332405,0.0,0.0,126.0,7,2,2.5,0,0.0,-1,0.0,0.0,0.0,0
38294,1495236485736,,,,,,,,0.02,0.08,0.99,-3.1,0.0,-0.1,300,0,,,,,,,,,,,,,,,,,,,
38314,1495236485756,,,,,,,,0.02,0.08,0.99,-3.1,0.0,-0.1,300,0,,,,,,,,,,,,,,,,,,,
38334,1495236485776,,,,,,,,0.02,0.08,0.99,-3.1,0.0,-0.1,300,0,,,,,,,,,,,,,,,,,,,
38354,1495236485796,,,,,,,,0.02,0.08,0.99,-3.1,0.0,-0.1,300,0,,,,,,,,,,,,,,,,,,,
38374,1495236485816,,,,,32,,,0.02,0.08,0.99,-3.1,0.0,-0.1,300,0,1,1,0.0,0,39.538685,-122.332405,0.0,0.0,126.0,7,2,2.5,0,0.0,-1,0.0,0.0,0.0,0
38394,1495236485836,,,,,,,,0.02,0.08,0.99,-3.1,-0.0,-0.1,300,0,,,,,,,,,,,,,,,,,,,
38414,1495236485856,,,,,,,,0.02,0.08,0.99,-3.1,-0.0,-0.1,300,0,,,,,,,,,,,,,,,,,,,
38434,1495236485876,,,,,,,,0.02,0.08,0.99,-3.1,0.0,-0.1,280,0,,,,,,,,,,,,,,,,,,,
38454,1495236485896,,,,,,,,0.02,0.08,0.99,-3.0,-0.0,-0.1,280,0,,,,,,,,,,,,,,,,,,,
38474,1495236485916,0,96.1,,134.5,29,127.1,,0.02,0.08,0.99,-3.0,-0.0,-0.1,280,0,1,1,0.0,0,39.538685,-122.332405,0.0,0.0,126.0,7,2,2.5,0,0.0,-1,0.0,0.0,0.0,0
38494,1495236485936,,,,,,,,0.02,0.08,0.99,-3.0,-0.1,-0.1,280,0,,,,,,,,,,,,,,,,,,,
38514,1495236485956,,,,,,,,0.02,0.08,0.99,-3.0,-0.0,-0.2,280,0,,,,,,,,,,,,,,,,,,,
38534,1495236485976,,,,,,,,0.02,0.08,0.99,-3.0,-0.0,-0.2,160,0,,,,,,,,,,,,,,,,,,,
38554,1495236485996,,,,,,,,0.02,0.08,0.99,-3.0,-0.0,-0.1,160,0,,,,,,,,,,,,,,,,,,,
38574,1495236486010,,,,,27,,,0.02,0.07,0.99,-3.0,-0.0,-0.1,160,0,1,1,0.0,0,39.538685,-122.332405,0.0,0.0,126.0,7,2,2.5,0,0.0,-1,0.0,0.0,0.0,0
38594,1495236486030,,,,,,,,0.02,0.07,0.99,-3.0,-0.0,-0.1,160,0,,,,,,,,,,,,,,,,,,,
38614,1495236486050,,,,,,,,0.02,0.07,0.99,-3.0,-0.0,-0.1,160,0,,,,,,,,,,,,,,,,,,,
38634,1495236486070,,,,,,,,0.02,0.07,0.99,-3.0,0.0,-0.1,160,0,,,,,,,,,,,,,,,,,,,
38654,1495236486096,,,,,,,,0.02,0.08,0.99,-3.0,0.0,-0.2,160,0,,,,,,,,,,,,,,,,,,,
38674,1495236486116,0,96.5,,133.4,25,126.1,,0.02,0.08,0.99,-3.0,0.0,-0.2,160,0,1,1,0.0,0,39.538685,-122.332405,0.0,0.0,126.0,7,2,2.5,0,0.0,-1,0.0,0.0,0.0,0
38694,1495236486136,,,,,,,,0.02,0.08,0.99,-3.0,0.0,-0.2,160,0,,,,,,,,,,,,,,,,,,,
38714,1495236486156,,,,,,,,0.02,0.08,0.99,-3.0,0.0,-0.1,160,0,,,,,,,,,,,,,,,,,,,
38734,1495236486176,,,,,,,,0.02,0.08,0.99,-3.0,0.1,-0.1,160,0,,,,,,,,,,,,,,,,,,,
38754,1495236486195,,,,,,,,0.02,0.08,0.99,-3.0,0.1,-0.1,160,0,,,,,,,,,,,,,,,,,,,
38774,1495236486215,,,,,21,,,0.02,0.07,0.99,-3.0,0.1,-0.1,160,0,1,1,0.0,0,39.538685,-122.332405,0.0,0.0,126.0,7,2,2.5,0,0.0,-1,0.0,0.0,0.0,0
38794,1495236486235,,,,,,,,0.02,0.07,0.99,-3.0,0.1,-0.1,160,0,,,,,,,,,,,,,,,,,,,
38814,1495236486255,,,,,,,,0.02,0.07,0.99,-3.0,0.1,-0.1,160,0,,,,,,,,,,,,,,,,,,,
38834,1495236486275,,,,,,,,0.01,0.07,0.99,-3.0,0.1,-0.1,160,0,,,,,,,,,,,,,,,,,,,
38854,1495236486295,,,,,,,,0.01,0.07,0.99,-3.0,0.0,-0.1,160,0,,,,,,,,,,,,,,,,,,,
38874,1495236486315,0,96.1,,133.5,20,126.4,,0.02,0.08,0.99,-3.0,0.0,-0.0,160,0,1,1,0.0,0,39.538685,-122.332405,0.0,0.0,126.0,7,2,2.5,0,0.0,-1,0.0,0.0,0.0,0
38894,1495236486335,,,,,,,,0.02,0.08,0.99,-3.0,0.0,-0.1,160,0,,,,,,,,,,,,,,,,,,,
38914,1495236486355,,,,,,,,0.02,0.08,0.99,-3.0,0.0,-0.1,160,0,,,,,,,,,,,,,,,,,,,
38934,1495236486375,,,,,,,,0.02,0.08,0.99,-3.0,0.0,-0.1,160,0,,,,,,,,,,,,,,,,,,,
38954,1495236486395,,,,,,,,0.02,0.08,0.99,-3.0,0.0,-0.1,160,0,,,,,,,,,,,,,,,,,,,
38974,1495236486405,,,,,19,,,0.02,0.08,0.99,-3.0,0.0,-0.1,160,0,1,1,0.0,0,39.538685,-122.332405,0.0,0.0,126.0,7,2,2.5,0,0.0,-1,0.0,0.0,0.0,0
38994,1495236486425,,,,,,,,0.02,0.08,0.99,-3.0,0.1,-0.1,160,0,,,,,,,,,,,,,,,,,,,
39014,1495236486445,,,,,,,,0.02,0.08,0.99,-3.1,0.1,-0.1,160,0,,,,,,,,,,,,,,,,,,,
39034,1495236486465,,,,,,,,0.02,0.08,0.99,-3.0,0.1,-0.1,160,0,,,,,,,,,,,,,,,,,,,
39054,1495236486495,,,,,,,,0.02,0.08,0.99,-3.0,0.1,-0.1,160,0,,,,,,,,,,,,,,,,,,,
39074,1495236486515,0,96.9,-0.5,133.5,18,125.9,12.56,0.01,0.08,0.99,-3.0,0.0,-0.1,160,0,1,1,0.0,0,39.538685,-122.332405,0.0,0.0,126.0,7,2,2.5,0,0.0,-1,0.0,0.0,0.0,0
39094,1495236486535,,,,,,,,0.02,0.08,0.99,-3.0,0.0,-0.1,160,0,,,,,,,,,,,,,,,,,,,
39114,1495236486555,,,,,,,,0.02,0.08,0.99,-3.0,0.0,-0.1,160,0,,,,,,,,,,,,,,,,,,,
39134,1495236486575,,,,,,,,0.02,0.08,0.99,-3.0,0.0,-0.1,160,0,,,,,,,,,,,,,,,,,,,
39154,1495236486595,,,,,,,,0.02,0.07,0.99,-3.1,0.0,-0.1,160,0,,,,,,,,,,,,,,,,,,,
39174,1495236486615,,,,,17,,,0.02,0.07,0.98,-3.1,0.0,-0.1,160,0,1,1,0.0,0,39.538685,-122.332405,0.0,0.0,126.0,7,2,2.5,0,0.0,-1,0.0,0.0,0.0,0
39194,1495236486635,,,,,,,,0.02,0.07,0.98,-3.1,0.0,-0.1,160,0,,,,,,,,,,,,,,,,,,,
39214,1495236486655,,,,,,,,0.02,0.07,0.99,-3.1,0.0,-0.1,160,0,,,,,,,,,,,,,,,,,,,
39234,1495236486675,,,,,,,,0.02,0.08,0.99,-3.1,0.1,-0.1,160,0,,,,,,,,,,,,,,,,,,,
39254,1495236486695,,,,,,,,0.02,0.08,0.99,-3.1,0.1,-0.1,160,0,,,,,,,,,,,,,,,,,,,
39274,1495236486715,0,95.8,,134.5,16,127.1,,0.02,0.08,0.99,-3.1,0.0,-0.1,160,0,1,1,0.0,0,39.538685,-122.332405,0.0,0.0,126.0,7,2,2.5,0,0.0,-1,0.0,0.0,0.0,0
39294,1495236486735,,,,,,,,0.02,0.08,0.99,-3.1,0.1,-0.1,160,0,,,,,,,,,,,,,,,,,,,
39314,1495236486755,,,,,,,,0.02,0.08,0.99,-3.1,0.1,-0.1,160,0,,,,,,,,,,,,,,,,,,,
39334,1495236486775,,,,,,,,0.02,0.08,0.99,-3.1,0.0,-0.1,160,0,,,,,,,,,,,,,,,,,,,
39354,1495236486797,,,,,,,,0.02,0.08,0.99,-3.1,0.1,-0.1,160,0,,,,,,,,,,,,,,,,,,,
39374,1495236486817,,,,,16,,,0.02,0.08,0.99,-3.1,0.1,-0.2,160,0,1,1,0.0,0,39.538685,-122.332405,0.0,0.0,126.0,7,2,2.5,0,0.0,-1,0.0,0.0,0.0,0
39394,1495236486837,,,,,,,,0.02,0.08,0.99,-3.1,0.1,-0.1,10000000,0,,,,,,,,,,,,,,,,,,,
39414,1495236486857,,,,,,,,0.02,0.08,0.99,-3.1,0.1,-0.1,0,0,,,,,,,,,,,,,,,,,,,
39434,1495236486877,,,,,,,,0.02,0.08,0.99,-3.1,0.1,-0.1,0,0,,,,,,,,,,,,,,,,,,,
39454,1495236486897,,,,,,,,0.02,0.08,0.99,-3.1,0.1,-0.1,0,0,,,,,,,,,,,,,,,,,,,
39474,1495236486917,0,97.1,,133.7,15,126.0,,0.02,0.08,0.99,-3.1,0.1,-0.1,0,0,1,1,0.0,0,39.538685,-122.332405,0.0,0.0,126.0,7,2,2.5,0,0.0,-1,0.0,0.0,0.0,0
39494,1495236486937,,,,,,,,0.02,0.08,0.98,-3.1,0.1,-0.1,0,0,,,,,,,,,,,,,,,,,,,
39514,1495236486957,,,,,,,,0.02,0.08,0.98,-3.1,-0.1,-0.1,0,0,,,,,,,,,,,,,,,,,,,
39534,1495236486977,,,,,,,,0.02,0.07,0.98,-3.1,-0.0,-0.1,0,0,,,,,,,,,,,,,,,,,,,
39554,1495236486991,,,,,,,,0.02,0.07,0.99,-3.1,0.0,-0.1,0,0,,,,,,,,,,,,,,,,,,,
39574,1495236487011,,,,,14,,,0.01,0.08,0.99,-3.1,0.1,-0.1,0,0,1,1,0.0,0,39.538685,-122.332405,0.0,0.0,126.0,7,2,2.5,0,0.0,-1,0.0,0.0,0.0,0
39594,1495236487031,,,,,,,,0.01,0.08,0.99,-3.1,0.1,-0.1,0,0,,,,,,,,,,,,,,,,,,,
39614,1495236487051,,,,,,,,0.01,0.08,0.99,-3.1,0.1,-0.1,0,0,,,,,,,,,,,,,,,,,,,
39634,1495236487071,,,,,,,,0.02,0.08,0.99,-3.1,0.1,-0.1,0,0,,,,,,,,,,,,,,,,,,,
39654,1495236487097,,,,,,,,0.01,0.08,0.99,-3.1,0.1,-0.1,0,0,,,,,,,,,,,,,,,,,,,
39674,1495236487117,0,96.6,,134.4,14,127.0,,0.02,0.07,0.99,-3.1,0.1,-0.1,0,0,1,1,0.0,0,39.538685,-122.332405,0.0,0.0,126.0,7,2,2.5,0,0.0,-1,0.0,0.0,0.0,0
39694,1495236487137,,,,,,,,0.02,0.07,0.99,-3.1,0.1,-0.1,0,0,,,,,,,,,,,,,,,,,,,
39714,1495236487157,,,,,,,,0.02,0.07,0.99,-3.0,0.1,-0.1,0,0,,,,,,,,,,,,,,,,,,,
39734,1495236487177,,,,,,,,0.02,0.07,0.99,-3.0,0.1,-0.1,0,0,,,,,,,,,,,,,,,,,,,
39754,1495236487196,,,,,,,,0.02,0.07,0.99,-3.0,0.1,-0.1,0,0,,,,,,,,,,,,,,,,,,,
39774,1495236487216,,,,,13,,,0.02,0.07,0.99,-3.0,0.1,-0.1,0,0,1,1,0.0,0,39.538685,-122.332405,0.0,0.0,126.0,7,2,2.5,0,0.0,-1,0.0,0.0,0.0,0
39794,1495236487236,,,,,,,,0.02,0.08,0.99,-3.0,0.1,-0.1,0,0,,,,,,,,,,,,,,,,,,,
39814,1495236487256,,,,,,,,0.02,0.07,0.99,-3.1,0.1,-0.1,0,0,,,,,,,,,,,,,,,,,,,
39834,1495236487276,,,,,,,,0.02,0.08,0.99,-3.1,0.1,-0.1,0,0,,,,,,,,,,,,,,,,,,,
39854,1495236487296,,,,,,,,0.02,0.08,0.99,-3.1,0.0,-0.0,0,0,,,,,,,,,,,,,,,,,,,
39874,1495236487316,0,96.8,,134.4,13,126.0,,0.02,0.07,0.99,-3.1,0.0,-0.0,0,0,1,1,0.0,0,39.538685,-122.332405,0.0,0.0,126.0,7,2,2.5,0,0.0,-1,0.0,0.0,0.0,0
39894,1495236487336,,,,,,,,0.02,0.08,0.99,-3.1,-0.0,-0.0,0,0,,,,,,,,,,,,,,,,,,,
39914,1495236487356,,,,,,,,0.02,0.08,0.99,-3.1,-0.0,-0.0,0,0,,,,,,,,,,,,,,,,,,,
39934,1495236487376,,,,,,,,0.02,0.08,0.99,-3.1,-0.0,-0.1,0,0,,,,,,,,,,,,,,,,,,,
39954,1495236487396,,,,,,,,0.02,0.08,0.99,-3.1,-0.0,-0.1,0,0,,,,,,,,,,,,,,,,,,,
39974,1495236487416,,,,,13,,,0.02,0.08,0.99,-3.0,-0.0,-0.1,0,0,1,1,0.0,0,39.538685,-122.332405,0.0,0.0,126.0,7,2,2.5,0,0.0,-1,0.0,0.0,0.0,0
39994,1495236487436,,,,,,,,0.02,0.08,0.99,-3.0,0.0,-0.1,0,0,,,,,,,,,,,,,,,,,,,
40014,1495236487456,,,,,,,,0.02,0.08,0.99,-3.0,0.0,-0.1,0,0,,,,,,,,,,,,,,,,,,,
40034,1495236487476,,,,,,,,0.02,0.07,1.0,-3.0,0.1,-0.1,0,0,,,,,,,,,,,,,,,,,,,
40054,1495236487494,,,,,,,,0.02,0.07,1.0,-3.0,0.1,-0.1,0,0,,,,,,,,,,,,,,,,,,,
40074,1495236487514,0,95.1,-0.6,133.8,12,127.0,12.57,0.02,0.07,1.0,-3.0,0.1,-0.1,0,0,1,1,0.0,0,39.538685,-122.332405,0.0,0.0,126.0,7,2,2.5,0,0.0,-1,0.0,0.0,0.0,0
40094,1495236487534,,,,,,,,0.02,0.07,1.0,-3.0,0.1,-0.1,0,0,,,,,,,,,,,,,,,,,,,
40114,1495236487554,,,,,,,,0.02,0.07,1.0,-3.0,0.1,-0.1,0,0,,,,,,,,,,,,,,,,,,,
40134,1495236487574,,,,,,,,0.02,0.07,0.99,-3.0,0.1,-0.1,0,0,,,,,,,,,,,,,,,,,,,
40154,1495236487594,,,,,,,,0.02,0.07,0.99,-3.0,0.1,-0.1,0,0,,,,,,,,,,,,,,,,,,,
40174,1495236487614,,,,,12,,,0.02,0.07,0.99,-3.0,0.1,-0.1,0,0,1,1,0.0,0,39.538685,-122.332405,0.0,0.0,126.0,7,2,2.5,0,0.0,-1,0.0,0.0,0.0,0
40194,1495236487634,,,,,,,,0.02,0.08,0.99,-3.0,0.1,-0.1,0,0,,,,,,,,,,,,,,,,,,,
40214,1495236487654,,,,,,,,0.02,0.08,0.99,-3.0,0.1,-0.1,0,0,,,,,,,,,,,,,,,,,,,
40234,1495236487674,,,,,,,,0.02,0.08,0.99,-3.0,0.1,-0.1,0,0,,,,,,,,,,,,,,,,,,,
40254,1495236487694,,,,,,,,0.02,0.08,0.99,-3.1,0.0,-0.1,0,0,,,,,,,,,,,,,,,,,,,
40274,1495236487714,0,96.5,,134.2,11,125.9,,0.02,0.08,0.99,-3.1,0.0,-0.1,0,0,1,1,0.0,0,39.538685,-122.332405,0.0,0.0,126.0,7,2,2.5,0,0.0,-1,0.0,0.0,0.0,0
40294,1495236487734,,,,,,,,0.02,0.08,0.99,-3.0,0.0,-0.1,0,0,,,,,,,,,,,,,,,,,,,
40314,1495236487754,,,,,,,,0.02,0.08,0.99,-3.0,-0.0,-0.1,0,0,,,,,,,,,,,,,,,,,,,
40334,1495236487774,,,,,,,,0.02,0.08,0.99,-3.0,0.0,-0.1,0,0,,,,,,,,,,,,,,,,,,,
40354,1495236487794,,,,,,,,0.02,0.08,0.99,-3.0,-0.1,-0.1,0,0,,,,,,,,,,,,,,,,,,,
40374,1495236487814,,,,,11,,,0.02,0.08,0.98,-3.0,-0.1,-0.1,0,0,1,1,0.0,0,39.538685,-122.332405,0.0,0.0,126.0,7,2,2.5,0,0.0,-1,0.0,0.0,0.0,0
40394,1495236487834,,,,,,,,0.02,0.08,0.98,-3.0,-0.1,-0.2,0,0,,,,,,,,,,,,,,,,,,,
40414,1495236487854,,,,,,,,0.02,0.08,0.98,-3.0,-0.1,-0.2,0,0,,,,,,,,,,,,,,,,,,,
40434,1495236487874,,,,,,,,0.02,0.08,0.98,-3.0,-0.0,-0.2,0,0,,,,,,,,,,,,,,,,,,,
40454,1495236487896,,,,,,,,0.02,0.08,0.98,-3.0,-0.0,-0.2,0,0,,,,,,,,,,,,,,,,,,,
40474,1495236487916,0,95.9,,134.2,10,127.2,,0.02,0.07,0.99,-3.0,0.0,-0.2,0,0,1,1,0.0,0,39.538685,-122.332405,0.0,0.0,126.0,7,2,2.5,0,0.0,-1,0.0,0.0,0.0,0
40494,1495236487936,,,,,,,,0.02,0.07,0.99,-3.1,0.0,-0.2,0,0,,,,,,,,,,,,,,,,,,,
40514,1495236487956,,,,,,,,0.02,0.07,0.99,-3.1,0.0,-0.1,0,0,,,,,,,,,,,,,,,,,,,
40534,1495236487976,,,,,,,,0.02,0.07,0.99,-3.0,0.0,-0.1,0,0,,,,,,,,,,,,,,,,,,,
40554,1495236487996,,,,,,,,0.02,0.08,0.99,-3.0,-0.0,-0.1,0,0,,,,,,,,,,,,,,,,,,,
40574,1495236488010,,,,,10,,,0.02,0.08,0.98,-3.0,-0.0,-0.1,0,0,1,1,0.0,0,39.538685,-122.332405,0.0,0.0,126.0,7,2,2.5,0,0.0,-1,0.0,0.0,0.0,0
40594,1495236488030,,,,,,,,0.02,0.08,0.98,-3.0,-0.0,-0.1,0,0,,,,,,,,,,,,,,,,,,,
40614,1495236488050,,,,,,,,0.02,0.08,0.98,-3.0,-0.0,-0.1,0,0,,,,,,,,,,,,,,,,,,,
40634,1495236488070,,,,,,,,0.02,0.08,0.98,-3.0,-0.0,-0.1,0,0,,,,,,,,,,,,,,,,,,,
40654,1495236488096,,,,,,,,0.02,0.08,0.98,-3.0,-0.0,-0.1,0,0,,,,,,,,,,,,,,,,,,,
40674,1495236488116,0,97.1,,134.5,10,126.9,,0.02,0.08,0.99,-3.0,0.0,-0.1,0,0,1,1,0.0,0,39.538685,-122.332405,0.0,0.0,126.0,7,2,2.5,0,0.0,-1,0.0,0.0,0.0,0
40694,1495236488136,,,,,,,,0.02,0.08,0.99,-3.1,0.0,-0.1,0,0,,,,,,,,,,,,,,,,,,,
40714,1495236488156,,,,,,,,0.02,0.08,0.99,-3.1,0.1,-0.1,0,0,,,,,,,,,,,,,,,,,,,
40734,1495236488176,,,,,,,,0.02,0.08,0.99,-3.1,0.1,-0.1,0,0,,,,,,,,,,,,,,,,,,,
40754,1495236488195,,,,,,,,0.02,0.08,0.99,-3.1,0.1,-0.2,0,0,,,,,,,,,,,,,,,,,,,
40774,1495236488215,,,,,9,,,0.02,0.08,0.99,-3.1,0.1,-0.1,0,0,1,1,0.0,0,39.538685,-122.332405,0.0,0.0,126.0,7,2,2.5,0,0.0,-1,0.0,0.0,0.0,0
40794,1495236488235,,,,,,,,0.02,0.08,0.99,-3.1,0.0,-0.1,0,0,,,,,,,,,,,,,,,,,,,
40814,1495236488255,,,,,,,,0.02,0.08,0.99,-3.1,0.0,-0.1,0,0,,,,,,,,,,,,,,,,,,,
40834,1495236488275,,,,,,,,0.02,0.08,0.99,-3.0,0.0,-0.1,0,0,,,,,,,,,,,,,,,,,,,
40854,1495236488295,,,,,,,,0.02,0.08,0.99,-3.1,0.0,-0.1,0,0,,,,,,,,,,,,,,,,,,,
40874,1495236488315,0,95.4,,133.6,9,127.0,,0.02,0.08,0.99,-3.1,-0.0,-0.1,0,0,1,1,0.0,0,39.538685,-122.332405,0.0,0.0,126.0,7,2,2.5,0,0.0,-1,0.0,0.0,0.0,0
40894,1495236488335,,,,,,,,0.02,0.08,0.99,-3.1,0.0,-0.1,0,0,,,,,,,,,,,,,,,,,,,
40914,1495236488355,,,,,,,,0.02,0.08,0.99,-3.1,0.0,-0.1,0,0,,,,,,,,,,,,,,,,,,,
40934,1495236488375,,,,,,,,0.02,0.08,0.99,-3.1,-0.0,-0.1,0,0,,,,,,,,,,,,,,,,,,,
40954,1495236488395,,,,,,,,0.02,0.08,0.99,-3.1,0.0,-0.1,0,0,,,,,,,,,,,,,,,,,,,
40974,1495236488415,,,,,9,,,0.02,0.08,0.99,-3.1,0.1,-0.1,0,0,1,1,0.0,0,39.538685,-122.332405,0.0,0.0,126.0,7,2,2.5,0,0.0,-1,0.0,0.0,0.0,0
40994,1495236488435,,,,,,,,0.02,0.08,0.99,-3.1,0.1,-0.1,0,0,,,,,,,,,,,,,,,,,,,
41014,1495236488455,,,,,,,,0.02,0.08,0.99,-3.1,0.1,-0.1,0,0,,,,,,,,,,,,,,,,,,,
41034,1495236488475,,,,,,,,0.02,0.07,0.99,-3.0,0.1,-0.1,0,0,,,,,,,,,,,,,,,,,,,
41054,1495236488495,,,,,,,,0.01,0.08,0.99,-3.1,0.1,-0.1,0,0,,,,,,,,,,,,,,,,,,,
41074,1495236488515,0,96.4,-0.5,134.2,8,126.9,8.65,0.01,0.08,0.99,-3.0,-0.0,-0.1,0,0,1,1,0.0,0,39.538685,-122.332405,0.0,0.0,126.0,7,2,2.5,0,0.0,-1,0.0,0.0,0.0,0
41094,1495236488535,,,,,,,,0.01,0.07,0.99,-3.0,-0.1,-0.1,0,0,,,,,,,,,,,,,,,,,,,
41114,1495236488555,,,,,,,,0.01,0.07,0.99,-3.0,-0.1,-0.2,0,0,,,,,,,,,,,,,,,,,,,
41134,1495236488575,,,,,,,,0.01,0.07,0.98,-3.0,-0.1,-0.3,0,0,,,,,,,,,,,,,,,,,,,
41154,1495236488595,,,,,,,,0.01,0.06,0.99,-3.0,-0.0,-0.3,0,0,,,,,,,,,,,,,,,,,,,
41174,1495236488615,,,,,9,,,0.0,0.06,0.98,-3.0,0.0,-0.2,0,0,1,1,0.0,0,39.538685,-122.332405,0.0,0.0,126.0,7,2,2.5,0,0.0,-1,0.0,0.0,0.0,0
41194,1495236488635,,,,,,,,0.01,0.07,0.99,-3.0,0.1,-0.2,0,0,,,,,,,,,,,,,,,,,,,
41214,1495236488655,,,,,,,,0.01,0.06,0.98,-3.0,0.1,-0.2,0,0,,,,,,,,,,,,,,,,,,,
41234,1495236488675,,,,,,,,0.01,0.06,0.98,-3.0,0.2,-0.2,0,0,,,,,,,,,,,,,,,,,,,
41254,1495236488695,,,,,,,,0.01,0.06,0.98,-3.0,0.1,-0.2,0,0,,,,,,,,,,,,,,,,,,,
41274,1495236488715,0,95.1,,133.3,9,127.5,,0.01,0.07,0.98,-3.1,0.1,-0.2,0,0,1,1,0.0,0,39.538685,-122.332405,0.0,0.0,126.0,7,2,2.5,0,0.0,-1,0.0,0.0,0.0,0
41294,1495236488735,,,,,,,,0.01,0.07,0.98,-3.1,0.1,-0.2,0,0,,,,,,,,,,,,,,,,,,,
41314,1495236488755,,,,,,,,0.02,0.07,0.99,-3.1,0.0,-0.2,0,0,,,,,,,,,,,,,,,,,,,
41334,1495236488775,,,,,,,,0.02,0.07,0.99,-3.1,0.0,-0.1,0,0,,,,,,,,,,,,,,,,,,,
41354,1495236488795,,,,,,,,0.02,0.07,0.99,-3.1,-0.0,-0.1,0,0,,,,,,,,,,,,,,,,,,,
41374,1495236488815,,,,,9,,,0.02,0.07,0.99,-3.0,-0.0,-0.1,0,0,1,1,0.0,0,39.538685,-122.332405,0.0,0.0,126.0,7,2,2.5,0,0.0,-1,0.0,0.0,0.0,0
41394,1495236488835,,,,,,,,0.02,0.07,0.99,-3.0,-0.1,-0.1,0,0,,,,,,,,,,,,,,,,,,,
41414,1495236488855,,,,,,,,0.02,0.07,0.99,-3.0,-0.0,-0.2,0,0,,,,,,,,,,,,,,,,,,,
41434,1495236488875,,,,,,,,0.01,0.06,0.99,-3.0,-0.1,-0.4,0,0,,,,,,,,,,,,,,,,,,,
41454,1495236488897,,,,,,,,0.0,0.07,0.99,-2.9,-0.0,-0.4,0,0,,,,,,,,,,,,,,,,,,,
41474,1495236488917,0,96.6,,134.3,9,126.2,,0.0,0.05,0.99,-2.9,0.1,-0.4,40,0,1,1,0.0,0,39.538685,-122.332405,0.0,0.0,126.0,7,2,2.5,0,0.0,-1,0.0,0.0,0.0,0
41494,1495236488937,,,,,,,,0.0,0.05,0.99,-3.0,0.3,-0.3,40,0,,,,,,,,,,,,,,,,,,,
41514,1495236488957,,,,,,,,0.01,0.05,0.99,-3.0,0.3,-0.2,40,0,,,,,,,,,,,,,,,,,,,
41534,1495236488977,,,,,,,,0.01,0.05,0.99,-3.0,0.2,-0.2,40,0,,,,,,,,,,,,,,,,,,,
41554,1495236488991,,,,,,,,0.01,0.06,1.0,-3.1,0.3,-0.3,40,0,,,,,,,,,,,,,,,,,,,
41574,1495236489011,,,,,10,,,0.01,0.06,0.99,-3.0,0.1,-0.2,200,0,1,1,0.0,0,39.538685,-122.332405,0.0,0.0,126.0,7,2,2.5,0,0.0,-1,0.0,0.0,0.0,0
41594,1495236489031,,,,,,,,0.0,0.05,0.99,-3.0,0.1,-0.1,200,0,,,,,,,,,,,,,,,,,,,
41614,1495236489051,,,,,,,,0.0,0.05,0.99,-3.0,-0.1,-0.1,200,0,,,,,,,,,,,,,,,,,,,
41634,1495236489071,,,,,,,,-0.0,0.04,0.99,-3.0,0.1,-0.2,340,0,,,,,,,,,,,,,,,,,,,
41654,1495236489097,,,,,,,,0.0,0.04,0.98,-3.0,0.1,-0.2,340,0,,,,,,,,,,,,,,,,,,,
41674,1495236489117,0,96.5,,134.3,12,126.0,,0.01,0.04,0.99,-3.0,0.1,-0.2,460,0,1,1,0.0,0,39.538685,-122.332405,0.0,0.0,126.0,7,2,2.5,0,0.0,-1,0.0,0.0,0.0,0
41694,1495236489137,,,,,,,,0.0,0.04,0.99,-3.0,-0.0,-0.2,540,0,,,,,,,,,,,,,,,,,,,
41714,1495236489157,,,,,,,,0.01,0.05,0.99,-3.1,0.1,-0.0,540,0,,,,,,,,,,,,,,,,,,,
41734,1495236489177,,,,,,,,0.01,0.07,0.99,-3.1,0.1,0.1,660,0,,,,,,,,,,,,,,,,,,,
41754,1495236489196,,,,,,,,0.02,0.05,0.99,-3.0,-0.0,-0.2,760,0,,,,,,,,,,,,,,,,,,,
41774,1495236489216,,,,,14,,,0.02,0.05,1.0,-3.0,0.3,-0.3,860,0,1,1,0.0,0,39.538685,-122.332405,0.0,0.0,126.0,7,2,2.5,0,0.0,-1,0.0,0.0,0.0,0
41794,1495236489236,,,,,,,,0.01,0.06,0.98,-3.1,0.4,-0.1,860,0,,,,,,,,,,,,,,,,,,,
41814,1495236489256,,,,,,,,0.02,0.06,0.99,-3.2,0.3,0.1,920,0,,,,,,,,,,,,,,,,,,,
41834,1495236489276,,,,,,,,0.02,0.08,0.99,-3.1,0.2,0.1,980,0,,,,,,,,,,,,,,,,,,,
41854,1495236489296,,,,,,,,0.02,0.09,1.0,-3.2,0.4,0.1,1060,0,,,,,,,,,,,,,,,,,,,
41874,1495236489316,0,96.9,,134.4,23,127.0,,0.02,0.09,1.0,-3.1,0.2,0.1,1120,2,1,1,0.0,0,39.538685,-122.332405,0.0,0.0,126.0,7,2,2.5,0,0.0,-1,0.0,0.0,0.0,0
41894,1495236489336,,,,,,,,0.01,0.1,1.0,-3.1,0.2,-0.0,1140,2,,,,,,,,,,,,,,,,,,,
41914,1495236489356,,,,,,,,0.02,0.1,1.0,-3.1,-0.0,-0.0,1140,153846,,,,,,,,,,,,,,,,,,,
41934,1495236489376,,,,,,,,0.02,0.11,0.99,-3.1,-0.0,-0.1,1140,0,,,,,,,,,,,,,,,,,,,
41954,1495236489396,,,,,,,,0.02,0.1,0.99,-3.1,0.0,-0.0,1160,0,,,,,,,,,,,,,,,,,,,
41974,1495236489416,,,,,34,,,0.02,0.11,0.99,-3.1,-0.2,0.1,1180,0,1,1,0.0,0,39.538685,-122.332405,0.0,0.0,126.0,7,2,2.5,0,0.0,-1,0.0,0.0,0.0,0
41994,1495236489436,,,,,,,,0.02,0.11,0.98,-3.1,-0.1,0.1,1200,0,,,,,,,,,,,,,,,,,,,
42014,1495236489456,,,,,,,,0.02,0.11,0.99,-3.1,-0.1,-0.0,1200,0,,,,,,,,,,,,,,,,,,,
42034,1495236489476,,,,,,,,0.02,0.1,0.98,-3.1,-0.2,-0.1,1200,0,,,,,,,,,,,,,,,,,,,
42054,1495236489496,,,,,,,,0.01,0.09,0.98,-3.0,-0.0,-0.2,1200,0,,,,,,,,,,,,,,,,,,,
42074,1495236489516,0,95.8,-0.8,133.7,44,126.2,14.62,0.01,0.1,0.97,-3.0,-0.1,-0.1,1220,0,1,1,0.0,0,39.538685,-122.332405,0.0,0.0,126.0,7,2,2.5,0,0.0,-1,0.0,0.0,0.0,0
42094,1495236489536,,,,,,,,0.02,0.09,0.98,-3.0,-0.0,-0.1,1240,0,,,,,,,,,,,,,,,,,,,
42114,1495236489556,,,,,,,,0.02,0.09,0.98,-3.0,-0.1,-0.1,1220,0,,,,,,,,,,,,,,,,,,,
42134,1495236489576,,,,,,,,0.01,0.09,0.98,-3.0,-0.1,-0.1,1240,0,,,,,,,,,,,,,,,,,,,
42154,1495236489596,,,,,,,,0.01,0.09,0.97,-3.0,-0.1,-0.1,1240,0,,,,,,,,,,,,,,,,,,,
42174,1495236489616,,,,,60,,,0.01,0.09,0.98,-3.1,-0.1,-0.2,1240,0,1,1,0.0,0,39.538685,-122.332405,0.0,0.0,126.0,7,2,2.5,0,0.0,-1,0.0,0.0,0.0,0
42194,1495236489636,,,,,,,,0.01,0.09,0.98,-3.1,0.0,-0.1,1220,0,,,,,,,,,,,,,,,,,,,
42214,1495236489656,,,,,,,,0.01,0.08,0.98,-3.1,0.1,-0.1,1220,0,,,,,,,,,,,,,,,,,,,
42234,1495236489676,,,,,,,,0.01,0.08,0.98,-3.1,0.1,-0.1,1200,0,,,,,,,,,,,,,,,,,,,
42254,1495236489696,,,,,,,,0.01,0.08,0.97,-3.1,0.1,-0.1,1200,0,,,,,,,,,,,,,,,,,,,
42274,1495236489716,0,96.8,,134.4,60,127.3,,0.01,0.08,0.97,-3.0,0.1,-0.1,1180,0,1,1,0.0,0,39.538685,-122.332405,0.0,0.0,126.0,7,2,2.5,0,0.0,-1,0.0,0.0,0.0,0
42294,1495236489736,,,,,,,,0.01,0.08,0.98,-3.1,0.1,-0.1,1160,0,,,,,,,,,,,,,,,,,,,
42314,1495236489756,,,,,,,,0.01,0.08,0.98,-3.1,0.2,-0.1,1140,0,,,,,,,,,,,,,,,,,,,
42334,1495236489776,,,,,,,,0.01,0.08,0.99,-3.0,0.3,-0.1,1140,0,,,,,,,,,,,,,,,,,,,
42354,1495236489796,,,,,,,,0.01,0.09,0.99,-3.0,0.1,-0.1,1120,0,,,,,,,,,,,,,,,,,,,
42374,1495236489816,,,,,61,,,0.01,0.09,0.99,-3.0,0.1,-0.1,1100,0,1,1,0.0,0,39.538685,-122.332405,0.0,0.0,126.0,7,2,2.5,0,0.0,-1,0.0,0.0,0.0,0
42394,1495236489836,,,,,,,,0.01,0.08,0.99,-3.0,0.1,-0.1,1080,0,,,,,,,,,,,,,,,,,,,
42414,1495236489856,,,,,,,,0.01,0.08,0.99,-3.0,0.1,-0.2,1040,0,,,,,,,,,,,,,,,,,,,
42434,1495236489876,,,,,,,,0.01,0.08,0.99,-3.0,0.1,-0.2,1020,0,,,,,,,,,,,,,,,,,,,
42454,1495236489896,,,,,,,,0.01,0.08,0.99,-3.0,0.0,-0.2,1020,0,,,,,,,,,,,,,,,,,,,
42474,1495236489916,0,97.4,,134.7,58,127.2,,0.01,0.08,0.99,-3.0,-0.0,-0.1,1000,0,1,1,0.0,0,39.538685,-122.332405,0.0,0.0,126.0,7,2,2.5,0,0.0,-1,0.0,0.0,0.0,0
42494,1495236489936,,,,,,,,0.01,0.07,0.99,-3.0,-0.1,-0.1,980,0,,,,,,,,,,,,,,,,,,,
42514,1495236489956,,,,,,,,0.01,0.08,0.99,-3.1,-0.0,-0.1,980,0,,,,,,,,,,,,,,,,,,,
42534,1495236489976,,,,,,,,0.01,0.07,0.99,-3.1,-0.1,-0.1,980,0,,,,,,,,,,,,,,,,,,,
42554,1495236489992,,,,,,,,0.01,0.08,0.99,-3.1,-0.1,-0.0,960,0,,,,,,,,,,,,,,,,,,,
42574,1495236490012,,,,,59,,,0.01,0.08,1.0,-3.1,-0.2,-0.0,940,0,1,1,0.0,0,39.538685,-122.332405,0.0,0.0,126.0,7,2,0.6,0,0.0,-1,0.0,0.0,0.0,0
42594,1495236490032,,,,,,,,0.01,0.08,0.99,-3.1,-0.3,0.0,940,0,,,,,,,,,,,,,,,,,,,
42614,1495236490052,,,,,,,,0.0,0.09,0.99,-3.2,-0.3,-0.0,940,0,,,,,,,,,,,,,,,,,,,
42634,1495236490072,,,,,,,,0.0,0.09,0.99,-3.1,-0.3,-0.1,940,0,,,,,,,,,,,,,,,,,,,
42654,1495236490096,,,,,,,,0.01,0.09,0.99,-3.1,-0.2,-0.1,920,0,,,,,,,,,,,,,,,,,,,
42674,1495236490116,0,97.5,,134.7,56,127.3,,0.01,0.09,0.99,-3.1,-0.2,-0.1,920,0,1,1,0.0,0,39.538685,-122.332405,0.0,0.0,126.0,7,2,0.6,0,0.0,-1,0.0,0.0,0.0,0
42694,1495236490136,,,,,,,,0.01,0.09,0.99,-3.1,-0.2,-0.1,900,0,,,,,,,,,,,,,,,,,,,
42714,1495236490156,,,,,,,,0.01,0.09,0.99,-3.1,-0.3,-0.1,900,0,,,,,,,,,,,,,,,,,,,
42734,1495236490176,,,,,,,,0.0,0.09,1.0,-3.1,-0.3,-0.1,900,0,,,,,,,,,,,,,,,,,,,
42754,1495236490195,,,,,,,,0.0,0.08,1.0,-3.1,-0.2,-0.2,920,0,,,,,,,,,,,,,,,,,,,
42774,1495236490215,,,,,57,,,0.0,0.07,0.99,-3.1,-0.1,-0.3,920,0,1,1,0.0,0,39.538685,-122.332405,0.0,0.0,126.0,7,2,0.6,0,0.0,-1,0.0,0.0,0.0,0
42794,1495236490235,,,,,,,,0.0,0.07,0.99,-3.1,-0.1,-0.3,900,0,,,,,,,,,,,,,,,,,,,
42814,1495236490255,,,,,,,,0.0,0.06,0.99,-3.1,-0.0,-0.2,900,0,,,,,,,,,,,,,,,,,,,
42834,1495236490275,,,,,,,,0.01,0.06,0.99,-3.1,-0.0,-0.1,900,0,,,,,,,,,,,,,,,,,,,
42854,1495236490295,,,,,,,,0.01,0.07,0.99,-3.1,-0.0,-0.0,900,0,,,,,,,,,,,,,,,,,,,
42874,1495236490315,0,96.2,,134.0,60,127.1,,0.01,0.07,0.99,-3.1,-0.0,0.0,920,0,1,1,0.0,0,39.538685,-122.332405,0.0,0.0,126.0,7,2,0.6,0,0.0,-1,0.0,0.0,0.0,0
42894,1495236490335,,,,,,,,0.01,0.08,0.99,-3.1,-0.0,0.1,920,0,,,,,,,,,,,,,,,,,,,
42914,1495236490355,,,,,,,,0.02,0.09,1.0,-3.1,0.1,0.1,940,0,,,,,,,,,,,,,,,,,,,
42934,1495236490375,,,,,,,,0.02,0.1,0.99,-3.1,0.0,0.0,940,0,,,,,,,,,,,,,,,,,,,
42954,1495236490395,,,,,,,,0.02,0.1,0.98,-3.1,-0.0,0.0,940,0,,,,,,,,,,,,,,,,,,,
42974,1495236490415,,,,,57,,,0.02,0.09,0.98,-3.1,-0.2,-0.0,940,0,1,1,0.0,0,39.538685,-122.332405,0.0,0.0,126.0,7,2,0.6,0,0.0,-1,0.0,0.0,0.0,0
42994,1495236490435,,,,,,,,0.01,0.08,0.98,-3.1,-0.3,-0.1,960,0,,,,,,,,,,,,,,,,,,,
43014,1495236490455,,,,,,,,0.01,0.08,0.98,-3.1,-0.4,-0.2,960,0,,,,,,,,,,,,,,,,,,,
43034,1495236490475,,,,,,,,0.0,0.08,0.97,-3.0,-0.4,-0.2,980,0,,,,,,,,,,,,,,,,,,,
43054,1495236490495,,,,,,,,0.0,0.08,0.97,-3.0,-0.4,-0.3,980,0,,,,,,,,,,,,,,,,,,,
43074,1495236490515,0,96.8,-0.6,134.3,60,127.4,14.74,-0.0,0.07,0.97,-2.9,-0.4,-0.3,980,0,1,1,0.0,0,39.538685,-122.332405,0.0,0.0,126.0,7,2,0.6,0,0.0,-1,0.0,0.0,0.0,0
43094,1495236490535,,,,,,,,-0.0,0.07,0.98,-3.0,-0.3,-0.3,980,0,,,,,,,,,,,,,,,,,,,
43114,1495236490555,,,,,,,,-0.01,0.08,0.99,-3.0,-0.2,-0.3,1000,0,,,,,,,,,,,,,,,,,,,
43134,1495236490575,,,,,,,,-0.01,0.07,0.99,-3.0,-0.1,-0.4,1000,0,,,,,,,,,,,,,,,,,,,
43154,1495236490597,,,,,,,,-0.01,0.07,0.99,-3.0,-0.1,-0.4,1020,0,,,,,,,,,,,,,,,,,,,
43174,1495236490617,,,,,58,,,-0.01,0.06,0.98,-3.0,-0.1,-0.4,1000,0,1,1,0.0,0,39.538685,-122.332405,0.0,0.0,126.0,7,2,0.6,0,0.0,-1,0.0,0.0,0.0,0
43194,1495236490637,,,,,,,,-0.01,0.05,0.98,-3.0,-0.1,-0.3,1000,0,,,,,,,,,,,,,,,,,,,
43214,1495236490657,,,,,,,,-0.02,0.05,0.99,-3.0,0.0,-0.3,1020,0,,,,,,,,,,,,,,,,,,,
43234,1495236490677,,,,,,,,-0.01,0.04,0.99,-3.0,-0.0,-0.3,1020,0,,,,,,,,,,,,,,,,,,,
43254,1495236490697,,,,,,,,-0.01,0.05,0.98,-3.0,-0.1,-0.3,1040,0,,,,,,,,,,,,,,,,,,,
43274,1495236490717,0,97.1,,134.6,60,127.5,,-0.01,0.06,0.98,-3.0,-0.2,-0.3,1040,0,1,1,0.0,0,39.538685,-122.332405,0.0,0.0,126.0,7,2,0.6,0,0.0,-1,0.0,0.0,0.0,0
43294,1495236490737,,,,,,,,-0.0,0.05,0.97,-3.0,-0.2,-0.3,1040,0,,,,,,,,,,,,,,,,,,,
43314,1495236490757,,,,,,,,0.0,0.06,0.98,-3.0,-0.2,-0.2,1040,0,,,,,,,,,,,,,,,,,,,
43334,1495236490777,,,,,,,,0.01,0.06,0.98,-3.0,-0.1,-0.2,1040,0,,,,,,,,,,,,,,,,,,,
43354,1495236490797,,,,,,,,0.01,0.06,0.98,-3.0,-0.0,-0.2,1040,0,,,,,,,,,,,,,,,,,,,
43374,1495236490817,,,,,65,,,0.01,0.06,0.99,-3.0,0.1,-0.2,1040,0,1,1,0.0,0,39.538685,-122.332405,0.0,0.0,126.0,7,2,0.6,0,0.0,-1,0.0,0.0,0.0,0
43394,1495236490837,,,,,,,,0.01,0.06,0.99,-3.0,0.1,-0.2,1040,0,,,,,,,,,,,,,,,,,,,
43414,1495236490857,,,,,,,,0.01,0.06,0.98,-3.0,0.1,-0.2,1040,0,,,,,,,,,,,,,,,,,,,
43434,1495236490877,,,,,,,,0.01,0.06,0.98,-3.0,0.1,-0.2,1040,0,,,,,,,,,,,,,,,,,,,
43454,1495236490897,,,,,,,,0.0,0.07,0.99,-3.0,0.1,-0.1,1040,0,,,,,,,,,,,,,,,,,,,
43474,1495236490917,0,96.8,,134.3,60,127.3,,0.01,0.07,0.99,-3.0,0.1,-0.1,1060,0,1,1,0.0,0,39.538685,-122.332405,0.0,0.0,126.0,7,2,0.6,0,0.0,-1,0.0,0.0,0.0,0
43494,1495236490937,,,,,,,,0.01,0.07,0.98,-3.0,0.0,-0.1,1040,0,,,,,,,,,,,,,,,,,,,
43514,1495236490957,,,,,,,,0.01,0.07,0.97,-3.0,-0.1,-0.2,1040,0,,,,,,,,,,,,,,,,,,,
43534,1495236490977,,,,,,,,0.01,0.08,0.97,-3.0,-0.1,-0.2,1040,2,,,,,,,,,,,,,,,,,,,
43554,1495236490991,,,,,,,,0.01,0.08,0.98,-3.0,-0.1,-0.2,1040,2,,,,,,,,,,,,,,,,,,,
43574,1495236491011,,,,,65,,,0.01,0.08,0.99,-3.0,-0.0,-0.2,1060,2,1,1,1040.0,0,39.538685,-122.332405,0.0,0.0,126.0,7,2,2.5,0,0.0,-1,0.0,0.0,0.0,0
43594,1495236491031,,,,,,,,0.01,0.08,0.99,-3.0,-0.0,-0.2,1060,2,,,,,,,,,,,,,,,,,,,
43614,1495236491051,,,,,,,,0.0,0.08,0.98,-3.0,-0.0,-0.2,1060,2,,,,,,,,,,,,,,,,,,,
43634,1495236491071,,,,,,,,0.0,0.08,0.98,-3.0,-0.1,-0.2,1060,2,,,,,,,,,,,,,,,,,,,
43654,1495236491097,,,,,,,,0.0,0.08,0.97,-3.0,-0.1,-0.2,1060,2,,,,,,,,,,,,,,,,,,,
43674,1495236491117,0,95.6,,133.6,60,126.6,,0.01,0.08,0.97,-3.0,-0.1,-0.2,1060,2,1,1,1060.0,0,39.538685,-122.332405,0.0,0.0,126.0,7,2,2.5,0,0.0,-1,0.0,0.0,0.0,0
43694,1495236491137,,,,,,,,0.01,0.08,0.98,-3.0,-0.0,-0.2,1060,2,,,,,,,,,,,,,,,,,,,
43714,1495236491157,,,,,,,,0.01,0.08,0.98,-3.1,0.0,-0.1,1060,2,,,,,,,,,,,,,,,,,,,
43734,1495236491177,,,,,,,,0.01,0.08,0.98,-3.1,0.0,-0.1,1060,2,,,,,,,,,,,,,,,,,,,
43754,1495236491196,,,,,,,,0.01,0.08,0.98,-3.1,0.1,-0.1,1060,2,,,,,,,,,,,,,,,,,,,
43774,1495236491216,,,,,66,,,0.01,0.07,0.98,-3.1,0.0,-0.1,1060,2,1,1,1060.0,0,39.538685,-122.332405,0.0,0.0,126.0,7,2,2.5,0,0.0,-1,0.0,0.0,0.0,0
43794,1495236491236,,,,,,,,0.01,0.07,0.98,-3.1,0.0,-0.1,1060,2,,,,,,,,,,,,,,,,,,,
43814,1495236491256,,,,,,,,0.01,0.08,0.99,-3.0,0.1,-0.0,1060,2,,,,,,,,,,,,,,,,,,,
43834,1495236491276,,,,,,,,0.01,0.08,0.98,-3.0,0.1,-0.1,1060,2,,,,,,,,,,,,,,,,,,,
43854,1495236491296,,,,,,,,0.02,0.08,0.98,-3.1,0.1,-0.1,1040,2,,,,,,,,,,,,,,,,,,,
43874,1495236491316,0,95.7,,133.8,59,126.7,,0.01,0.08,0.99,-3.1,0.2,-0.1,1040,2,1,1,1060.0,0,39.538685,-122.332405,0.0,0.0,126.0,7,2,2.5,0,0.0,-1,0.0,0.0,0.0,0
43894,1495236491336,,,,,,,,0.01,0.08,0.99,-3.1,0.2,-0.1,1040,2,,,,,,,,,,,,,,,,,,,
43914,1495236491356,,,,,,,,0.01,0.08,0.99,-3.1,0.1,-0.1,1040,2,,,,,,,,,,,,,,,,,,,
43934,1495236491376,,,,,,,,0.01,0.08,0.99,-3.1,0.1,-0.1,1040,2,,,,,,,,,,,,,,,,,,,
43954,1495236491396,,,,,,,,0.01,0.08,0.99,-3.1,-0.0,-0.2,1060,2,,,,,,,,,,,,,,,,,,,
43974,1495236491416,,,,,59,,,0.01,0.08,0.99,-3.1,-0.0,-0.2,1040,2,1,1,1040.0,0,39.538685,-122.332405,0.0,0.0,126.0,7,2,2.5,0,0.0,-1,0.0,0.0,0.0,0
43994,1495236491436,,,,,,,,0.01,0.09,0.99,-3.1,-0.0,-0.2,1040,2,,,,,,,,,,,,,,,,,,,
44014,1495236491456,,,,,,,,0.02,0.08,0.99,-3.1,0.1,-0.2,1040,2,,,,,,,,,,,,,,,,,,,
44034,1495236491476,,,,,,,,0.02,0.08,0.99,-3.1,0.2,-0.1,1040,2,,,,,,,,,,,,,,,,,,,
44054,1495236491496,,,,,,,,0.02,0.08,0.99,-3.1,0.2,-0.1,1040,2,,,,,,,,,,,,,,,,,,,
44074,1495236491516,0,96.8,-0.6,134.4,56,127.4,14.75,0.02,0.08,0.99,-3.1,0.2,-0.1,1040,2,1,1,1040.0,0,39.538685,-122.332405,0.0,0.0,126.0,7,2,2.5,0,0.0,-1,0.0,0.0,0.0,0
44094,1495236491536,,,,,,,,0.02,0.08,0.99,-3.1,0.1,-0.1,1040,2,,,,,,,,,,,,,,,,,,,
44114,1495236491556,,,,,,,,0.02,0.08,0.99,-3.1,0.1,-0.1,1040,2,,,,,,,,,,,,,,,,,,,
44134,1495236491576,,,,,,,,0.02,0.08,0.99,-3.1,0.1,-0.1,1040,2,,,,,,,,,,,,,,,,,,,
44154,1495236491596,,,,,,,,0.02,0.08,0.99,-3.1,0.1,-0.1,1040,2,,,,,,,,,,,,,,,,,,,
44174,1495236491616,,,,,64,,,0.03,0.08,0.99,-3.1,0.0,-0.1,1040,2,1,1,1040.0,0,39.538685,-122.332405,0.0,0.0,126.0,7,2,2.5,0,0.0,-1,0.0,0.0,0.0,0
44194,1495236491636,,,,,,,,0.03,0.08,0.98,-3.1,0.0,-0.1,1020,2,,,,,,,,,,,,,,,,,,,
44214,1495236491656,,,,,,,,0.03,0.08,0.97,-3.1,-0.0,-0.1,1020,2,,,,,,,,,,,,,,,,,,,
44234,1495236491676,,,,,,,,0.03,0.08,0.97,-3.0,0.1,-0.1,1020,2,,,,,,,,,,,,,,,,,,,
44254,1495236491696,,,,,,,,0.03,0.08,0.98,-3.1,0.1,-0.1,1020,2,,,,,,,,,,,,,,,,,,,
44274,1495236491716,0,96.3,,134.0,55,127.1,,0.02,0.08,0.98,-3.1,0.2,-0.1,1020,2,1,1,1020.0,0,39.538685,-122.332405,0.0,0.0,126.0,7,2,2.5,0,0.0,-1,0.0,0.0,0.0,0
44294,1495236491736,,,,,,,,0.02,0.08,0.99,-3.1,0.2,-0.2,1020,2,,,,,,,,,,,,,,,,,,,
44314,1495236491756,,,,,,,,0.02,0.08,0.98,-3.1,0.2,-0.2,1020,2,,,,,,,,,,,,,,,,,,,
44334,1495236491776,,,,,,,,0.02,0.07,0.99,-3.1,0.3,-0.3,1000,0,,,,,,,,,,,,,,,,,,,
44354,1495236491796,,,,,,,,0.01,0.07,0.99,-3.1,0.3,-0.3,1000,0,,,,,,,,,,,,,,,,,,,
44374,1495236491816,,,,,55,,,0.01,0.06,1.0,-3.1,0.3,-0.3,1000,0,1,1,0.007,0,39.538685,-122.332405,0.0,0.0,126.0,7,2,2.5,0,0.0,-1,0.0,0.0,0.0,0
44394,1495236491836,,,,,,,,0.01,0.06,1.0,-3.1,0.3,-0.3,1020,0,,,,,,,,,,,,,,,,,,,
44414,1495236491856,,,,,,,,0.01,0.06,1.0,-3.1,0.2,-0.3,1020,0,,,,,,,,,,,,,,,,,,,
44434,1495236491876,,,,,,,,0.0,0.06,1.0,-3.1,0.2,-0.3,1000,0,,,,,,,,,,,,,,,,,,,
44454,1495236491896,,,,,,,,0.0,0.05,1.0,-3.0,0.1,-0.3,1000,0,,,,,,,,,,,,,,,,,,,
44474,1495236491916,0,93.8,,132.4,62,125.2,,0.0,0.05,0.99,-3.0,-0.0,-0.3,1000,0,1,1,0.0,0,39.538685,-122.332405,0.0,0.0,126.0,7,2,2.5,0,0.0,-1,0.0,0.0,0.0,0
44494,1495236491936,,,,,,,,-0.0,0.05,0.99,-3.0,-0.1,-0.3,1000,0,,,,,,,,,,,,,,,,,,,
44514,1495236491956,,,,,,,,0.0,0.05,0.99,-2.9,-0.1,-0.3,1000,0,,,,,,,,,,,,,,,,,,,
44534,1495236491976,,,,,,,,-0.0,0.05,0.99,-2.9,-0.2,-0.3,1000,0,,,,,,,,,,,,,,,,,,,
44554,1495236491992,,,,,,,,-0.0,0.05,0.99,-2.9,-0.3,-0.3,980,0,,,,,,,,,,,,,,,,,,,
44574,1495236492012,,,,,54,,,-0.0,0.06,0.98,-2.9,-0.3,-0.3,980,0,1,1,0.0,0,39.538685,-122.332405,0.0,0.0,126.0,7,2,2.5,0,0.0,-1,0.0,0.0,0.0,0
44594,1495236492032,,,,,,,,-0.0,0.05,0.98,-2.9,-0.4,-0.2,980,0,,,,,,,,,,,,,,,,,,,
44614,1495236492052,,,,,,,,-0.0,0.05,0.98,-2.9,-0.5,-0.2,980,0,,,,,,,,,,,,,,,,,,,
44634,1495236492072,,,,,,,,-0.0,0.05,0.97,-2.9,-0.6,-0.2,1000,0,,,,,,,,,,,,,,,,,,,
44654,1495236492096,,,,,,,,-0.0,0.05,0.97,-2.9,-0.6,-0.2,980,0,,,,,,,,,,,,,,,,,,,
44674,1495236492116,0,95.6,,133.6,60,126.3,,-0.0,0.06,0.97,-2.9,-0.7,-0.2,980,0,1,1,0.0,0,39.538685,-122.332405,0.0,0.0,126.0,7,2,2.5,0,0.0,-1,0.0,0.0,0.0,0
44694,1495236492136,,,,,,,,-0.01,0.05,0.96,-2.9,-0.7,-0.2,980,0,,,,,,,,,,,,,,,,,,,
44714,1495236492156,,,,,,,,-0.01,0.05,0.96,-2.9,-0.7,-0.2,980,0,,,,,,,,,,,,,,,,,,,
44734,1495236492176,,,,,,,,-0.01,0.05,0.96,-2.8,-0.8,-0.2,980,0,,,,,,,,,,,,,,,,,,,
44754,1495236492195,,,,,,,,-0.01,0.05,0.96,-2.8,-0.7,-0.2,980,0,,,,,,,,,,,,,,,,,,,
44774,1495236492215,,,,,59,,,-0.01,0.06,0.96,-2.8,-0.8,-0.2,980,0,1,1,0.0,0,39.538685,-122.332405,0.0,0.0,126.0,7,2,2.5,0,0.0,-1,0.0,0.0,0.0,0
44794,1495236492235,,,,,,,,-0.01,0.06,0.96,-2.8,-0.7,-0.2,980,0,,,,,,,,,,,,,,,,,,,
44814,1495236492255,,,,,,,,-0.01,0.05,0.96,-2.8,-0.7,-0.2,980,0,,,,,,,,,,,,,,,,,,,
44834,1495236492275,,,,,,,,-0.01,0.05,0.96,-2.8,-0.7,-0.3,980,0,,,,,,,,,,,,,,,,,,,
44854,1495236492295,,,,,,,,-0.01,0.05,0.97,-2.8,-0.7,-0.3,980,0,,,,,,,,,,,,,,,,,,,
44874,1495236492315,0,97.7,,134.7,56,127.5,,-0.02,0.05,0.97,-2.8,-0.6,-0.3,980,0,1,1,0.0,0,39.538685,-122.332405,0.0,0.0,126.0,7,2,2.5,0,0.0,-1,0.0,0.0,0.0,0
44894,1495236492335,,,,,,,,-0.01,0.05,0.97,-2.8,-0.5,-0.3,980,0,,,,,,,,,,,,,,,,,,,
44914,1495236492355,,,,,,,,-0.02,0.06,0.97,-2.8,-0.5,-0.3,980,0,,,,,,,,,,,,,,,,,,,
44934,1495236492375,,,,,,,,-0.02,0.05,0.97,-2.8,-0.3,-0.3,960,0,,,,,,,,,,,,,,,,,,,
44954,1495236492397,,,,,,,,-0.01,0.05,0.98,-2.8,-0.2,-0.3,960,0,,,,,,,,,,,,,,,,,,,
44974,1495236492417,,,,,56,,,-0.01,0.06,0.98,-2.9,-0.0,-0.4,960,0,1,1,0.0,0,39.538685,-122.332405,0.0,0.0,126.0,7,2,2.5,0,0.0,-1,0.0,0.0,0.0,0
44994,1495236492437,,,,,,,,-0.01,0.06,0.99,-2.9,0.1,-0.4,960,0,,,,,,,,,,,,,,,,,,,
45014,1495236492457,,,,,,,,-0.01,0.06,0.99,-2.9,0.1,-0.4,960,0,,,,,,,,,,,,,,,,,,,
45034,1495236492477,,,,,,,,-0.01,0.06,0.99,-3.0,0.2,-0.4,960,0,,,,,,,,,,,,,,,,,,,
45054,1495236492495,,,,,,,,-0.0,0.06,0.98,-3.0,0.2,-0.4,960,0,,,,,,,,,,,,,,,,,,,
45074,1495236492515,0,95.9,-0.6,133.7,58,126.3,14.74,-0.0,0.05,0.97,-3.0,0.2,-0.4,960,0,1,1,0.0,0,39.538685,-122.332405,0.0,0.0,126.0,7,2,2.5,0,0.0,-1,0.0,0.0,0.0,0
45094,1495236492535,,,,,,,,0.0,0.05,0.97,-2.9,0.2,-0.4,960,0,,,,,,,,,,,,,,,,,,,
45114,1495236492555,,,,,,,,0.01,0.04,0.96,-2.9,0.2,-0.4,960,0,,,,,,,,,,,,,,,,,,,
45134,1495236492575,,,,,,,,0.01,0.04,0.96,-2.9,0.2,-0.4,960,0,,,,,,,,,,,,,,,,,,,
45154,1495236492597,,,,,,,,0.02,0.04,0.96,-2.9,0.2,-0.4,960,2,,,,,,,,,,,,,,,,,,,
45174,1495236492617,,,,,60,,,0.02,0.05,0.97,-2.9,0.2,-0.4,960,2,1,1,0.0,0,39.538685,-122.332405,0.0,0.0,126.0,7,2,2.5,0,0.0,-1,0.0,0.0,0.0,0
45194,1495236492637,,,,,,,,0.03,0.06,0.97,-2.9,0.2,-0.4,960,2,,,,,,,,,,,,,,,,,,,
45214,1495236492657,,,,,,,,0.03,0.06,0.98,-3.0,0.1,-0.4,960,2,,,,,,,,,,,,,,,,,,,
45234,1495236492677,,,,,,,,0.03,0.07,0.98,-3.0,-0.0,-0.3,960,2,,,,,,,,,,,,,,,,,,,
45254,1495236492695,,,,,,,,0.03,0.07,0.98,-3.1,-0.1,-0.2,960,14,,,,,,,,,,,,,,,,,,,
45274,1495236492715,1,95.8,,133.8,62,126.8,,0.03,0.07,0.98,-3.1,-0.2,-0.2,940,14,1,1,960.0,0,39.538685,-122.332405,0.0,0.0,126.0,7,2,2.5,0,0.0,-1,0.0,0.0,0.0,0
45294,1495236492735,,,,,,,,0.03,0.08,0.98,-3.1,-0.1,-0.1,940,14,,,,,,,,,,,,,,,,,,,
45314,1495236492755,,,,,,,,0.03,0.08,0.99,-3.1,-0.1,-0.1,940,14,,,,,,,,,,,,,,,,,,,
45334,1495236492775,,,,,,,,0.04,0.08,1.0,-3.1,0.0,-0.1,940,14,,,,,,,,,,,,,,,,,,,
45354,1495236492797,,,,,,,,0.05,0.09,1.0,-3.1,0.2,-0.1,940,15,,,,,,,,,,,,,,,,,,,
45374,1495236492817,,,,,64,,,0.05,0.1,1.0,-3.1,0.2,-0.0,960,15,1,1,72.308,0,39.538685,-122.332405,0.0,0.0,126.0,7,2,2.5,0,0.0,-1,0.0,0.0,0.0,0
45394,1495236492837,,,,,,,,0.05,0.1,1.0,-3.1,0.1,-0.0,940,15,,,,,,,,,,,,,,,,,,,
45414,1495236492857,,,,,,,,0.05,0.09,1.0,-3.2,0.0,-0.0,940,15,,,,,,,,,,,,,,,,,,,
45434,1495236492877,,,,,,,,0.04,0.09,0.99,-3.2,-0.2,-0.0,940,18,,,,,,,,,,,,,,,,,,,
45454,1495236492897,,,,,,,,0.04,0.09,0.99,-3.1,-0.3,-0.1,920,18,,,,,,,,,,,,,,,,,,,
45474,1495236492917,0,96.3,,133.8,57,126.3,,0.03,0.09,1.0,-3.1,-0.2,-0.1,920,18,1,1,52.222,0,39.538685,-122.332405,0.0,0.0,126.0,7,2,2.5,0,0.0,-1,0.0,0.0,0.0,0
45494,1495236492937,,,,,,,,0.03,0.09,1.0,-3.1,-0.1,-0.2,920,20,,,,,,,,,,,,,,,,,,,
45514,1495236492957,,,,,,,,0.03,0.09,0.99,-3.1,0.0,-0.2,920,20,,,,,,,,,,,,,,,,,,,
45534,1495236492977,,,,,,,,0.03,0.08,0.98,-3.1,0.1,-0.3,920,20,,,,,,,,,,,,,,,,,,,
45554,1495236492991,,,,,,,,0.03,0.07,0.97,-3.1,0.1,-0.3,920,20,,,,,,,,,,,,,,,,,,,
45574,1495236493011,,,,,61,,,0.04,0.07,0.97,-3.1,0.2,-0.3,920,22,1,1,46.0,0,39.538685,-122.332405,0.0,0.0,126.0,7,2,2.5,0,0.0,-1,0.0,0.0,0.0,0
45594,1495236493031,,,,,,,,0.04,0.07,0.97,-3.1,0.1,-0.2,920,22,,,,,,,,,,,,,,,,,,,
45614,1495236493051,,,,,,,,0.04,0.08,0.97,-3.2,0.0,-0.2,920,22,,,,,,,,,,,,,,,,,,,
45634,1495236493071,,,,,,,,0.04,0.09,0.98,-3.2,0.0,-0.1,920,25,,,,,,,,,,,,,,,,,,,
45654,1495236493097,,,,,,,,0.04,0.09,0.98,-3.2,0.1,-0.1,920,25,,,,,,,,,,,,,,,,,,,
45674,1495236493117,0,96.5,,134.2,62,127.2,,0.05,0.1,0.99,-3.2,0.1,-0.1,900,26,1,1,38.333,0,39.538685,-122.332405,0.0,0.0,126.0,7,2,2.5,0,0.0,-1,0.0,0.0,0.0,0
45694,1495236493137,,,,,,,,0.05,0.11,0.99,-3.2,0.0,-0.1,900,26,,,,,,,,,,,,,,,,,,,
45714,1495236493157,,,,,,,,0.05,0.1,0.99,-3.2,-0.2,-0.1,900,26,,,,,,,,,,,,,,,,,,,
45734,1495236493177,,,,,,,,0.04,0.09,1.0,-3.2,-0.3,-0.1,900,28,,,,,,,,,,,,,,,,,,,
45754,1495236493196,,,,,,,,0.03,0.09,1.0,-3.2,-0.3,-0.1,920,28,,,,,,,,,,,,,,,,,,,
45774,1495236493216,,,,,56,,,0.03,0.08,1.0,-3.1,-0.2,-0.2,920,28,1,1,33.333,0,39.538685,-122.332405,0.0,0.0,126.0,7,2,2.5,0,0.0,-1,0.0,0.0,0.0,0
45794,1495236493236,,,,,,,,0.03,0.07,0.99,-3.1,-0.1,-0.2,900,29,,,,,,,,,,,,,,,,,,,
45814,1495236493256,,,,,,,,0.03,0.06,0.98,-3.1,-0.1,-0.3,900,29,,,,,,,,,,,,,,,,,,,
45834,1495236493276,,,,,,,,0.04,0.06,0.98,-3.1,-0.0,-0.2,900,31,,,,,,,,,,,,,,,,,,,
45854,1495236493296,,,,,,,,0.04,0.06,0.97,-3.1,-0.1,-0.1,900,31,,,,,,,,,,,,,,,,,,,
45874,1495236493316,0,95.7,,133.7,59,126.6,,0.04,0.07,0.97,-3.1,-0.1,-0.1,900,32,1,1,30.0,0,39.538685,-122.332405,0.0,0.0,126.0,7,2,2.5,0,0.0,-1,0.0,0.0,0.0,0
45894,1495236493336,,,,,,,,0.04,0.07,0.98,-3.1,0.0,-0.0,900,32,,,,,,,,,,,,,,,,,,,
45914,1495236493356,,,,,,,,0.05,0.08,0.98,-3.2,0.1,-0.0,920,32,,,,,,,,,,,,,,,,,,,
45934,1495236493376,,,,,,,,0.05,0.08,0.99,-3.2,-0.0,-0.0,900,34,,,,,,,,,,,,,,,,,,,
45954,1495236493396,,,,,,,,0.05,0.08,0.99,-3.2,-0.2,-0.0,900,34,,,,,,,,,,,,,,,,,,,
45974,1495236493416,,,,,57,,,0.04,0.09,0.99,-3.2,-0.2,-0.1,900,35,1,1,27.273,0,39.538685,-122.332405,0.0,0.0,126.0,7,2,2.5,0,0.0,-1,0.0,0.0,0.0,0
45994,1495236493436,,,,,,,,0.03,0.09,0.99,-3.2,-0.2,-0.1,900,35,,,,,,,,,,,,,,,,,,,
46014,1495236493456,,,,,,,,0.03,0.08,0.99,-3.2,-0.2,-0.2,900,37,,,,,,,,,,,,,,,,,,,
46034,1495236493476,,,,,,,,0.04,0.07,0.98,-3.2,-0.1,-0.2,900,37,,,,,,,,,,,,,,,,,,,
46054,1495236493496,,,,,,,,0.04,0.07,0.98,-3.2,-0.0,-0.2,900,38,,,,,,,,,,,,,,,,,,,
46074,1495236493516,0,96.5,-0.5,134.2,57,127.2,14.73,0.04,0.07,0.97,-3.2,-0.0,-0.2,900,40,1,1,25.0,0,39.538685,-122.332405,0.0,0.0,126.0,7,2,2.5,0,0.0,-1,0.0,0.0,0.0,0
46094,1495236493536,,,,,,,,0.04,0.07,0.97,-3.3,-0.0,-0.1,900,40,,,,,,,,,,,,,,,,,,,
46114,1495236493556,,,,,,,,0.04,0.08,0.97,-3.3,0.1,-0.0,900,42,,,,,,,,,,,,,,,,,,,
46134,1495236493576,,,,,,,,0.05,0.08,0.98,-3.3,0.1,0.0,920,42,,,,,,,,,,,,,,,,,,,
46154,1495236493596,,,,,,,,0.05,0.09,0.99,-3.3,0.2,0.0,920,43,,,,,,,,,,,,,,,,,,,
46174,1495236493616,,,,,60,,,0.05,0.09,0.99,-3.3,0.2,0.0,920,43,1,1,22.439,0,39.538685,-122.332405,0.0,0.0,126.0,7,2,2.5,0,0.0,-1,0.0,0.0,0.0,0
46194,1495236493636,,,,,,,,0.05,0.08,1.0,-3.3,0.0,0.0,920,43,,,,,,,,,,,,,,,,,,,
46214,1495236493656,,,,,,,,0.04,0.08,1.0,-3.2,-0.2,-0.0,920,48,,,,,,,,,,,,,,,,,,,
46234,1495236493676,,,,,,,,0.04,0.07,1.0,-3.2,-0.2,-0.1,920,48,,,,,,,,,,,,,,,,,,,
46254,1495236493696,,,,,,,,0.03,0.08,1.0,-3.2,-0.1,-0.2,920,45,,,,,,,,,,,,,,,,,,,
46274,1495236493716,0,96.8,,134.4,55,127.4,,0.03,0.07,0.99,-3.2,-0.1,-0.2,920,49,1,1,19.574,0,39.538685,-122.332405,0.0,0.0,126.0,7,2,2.5,0,0.0,-1,0.0,0.0,0.0,0
46294,1495236493736,,,,,,,,0.04,0.05,0.98,-3.2,0.0,-0.3,920,49,,,,,,,,,,,,,,,,,,,
46314,1495236493756,,,,,,,,0.04,0.05,0.97,-3.2,0.1,-0.3,920,49,,,,,,,,,,,,,,,,,,,
46334,1495236493776,,,,,,,,0.04,0.04,0.97,-3.2,0.1,-0.3,920,49,,,,,,,,,,,,,,,,,,,
46354,1495236493796,,,,,,,,0.05,0.04,0.97,-3.2,0.1,-0.3,920,49,,,,,,,,,,,,,,,,,,,
46374,1495236493816,,,,,56,,,0.05,0.04,0.97,-3.2,0.1,-0.2,920,51,1,1,18.776,0,39.538685,-122.332405,0.0,0.0,126.0,7,2,2.5,0,0.0,-1,0.0,0.0,0.0,0
46394,1495236493836,,,,,,,,0.05,0.05,0.98,-3.2,0.2,-0.1,920,54,,,,,,,,,,,,,,,,,,,
46414,1495236493856,,,,,,,,0.05,0.06,0.98,-3.2,0.2,-0.0,920,54,,,,,,,,,,,,,,,,,,,
46434,1495236493876,,,,,,,,0.05,0.07,0.99,-3.2,0.2,-0.0,940,52,,,,,,,,,,,,,,,,,,,
46454,1495236493896,,,,,,,,0.05,0.07,1.0,-3.2,0.2,-0.0,920,55,,,,,,,,,,,,,,,,,,,
46474,1495236493916,0,97.6,,134.9,55,127.2,,0.05,0.07,1.0,-3.3,0.1,-0.0,920,55,1,1,18.077,0,39.538685,-122.332405,0.0,0.0,126.0,7,2,2.5,0,0.0,-1,0.0,0.0,0.0,0
46494,1495236493936,,,,,,,,0.05,0.07,1.0,-3.3,-0.1,-0.0,920,57,,,,,,,,,,,,,,,,,,,
46514,1495236493956,,,,,,,,0.05,0.06,1.0,-3.2,-0.2,-0.1,920,55,,,,,,,,,,,,,,,,,,,
46534,1495236493976,,,,,,,,0.04,0.06,1.0,-3.2,-0.2,-0.1,920,58,,,,,,,,,,,,,,,,,,,
46554,1495236493992,,,,,,,,0.03,0.05,1.0,-3.2,-0.1,-0.2,920,58,,,,,,,,,,,,,,,,,,,
46574,1495236494012,,,,,61,,,0.03,0.05,0.99,-3.2,0.0,-0.3,920,58,1,1,15.862,0,39.538685,-122.332405,0.0,0.0,126.0,7,2,2.5,0,0.0,-1,0.0,0.0,0.0,0
46594,1495236494032,,,,,,,,0.03,0.05,0.98,-3.2,0.0,-0.3,920,60,,,,,,,,,,,,,,,,,,,
46614,1495236494052,,,,,,,,0.04,0.04,0.98,-3.2,0.1,-0.3,920,62,,,,,,,,,,,,,,,,,,,
46634,1495236494072,,,,,,,,0.04,0.04,0.98,-3.2,0.2,-0.3,920,62,,,,,,,,,,,,,,,,,,,
46654,1495236494098,,,,,,,,0.04,0.04,0.98,-3.2,0.2,-0.3,920,63,,,,,,,,,,,,,,,,,,,
46674,1495236494118,1,97.4,,134.7,60,126.9,,0.04,0.04,0.98,-3.2,0.1,-0.2,920,63,1,1,15.082,0,39.538685,-122.332405,0.0,0.0,126.0,7,2,2.5,0,0.0,-1,0.0,0.0,0.0,0
46694,1495236494138,,,,,,,,0.05,0.05,0.98,-3.3,-0.0,-0.1,920,63,,,,,,,,,,,,,,,,,,,
46714,1495236494158,,,,,,,,0.05,0.06,0.99,-3.3,0.1,-0.1,920,66,,,,,,,,,,,,,,,,,,,
46734,1495236494178,,,,,,,,0.05,0.06,1.0,-3.3,0.1,-0.1,920,66,,,,,,,,,,,,,,,,,,,
46754,1495236494197,,,,,,,,0.05,0.07,1.0,-3.3,0.1,-0.0,920,65,,,,,,,,,,,,,,,,,,,
46774,1495236494217,,,,,56,,,0.05,0.07,1.0,-3.3,0.0,-0.0,920,68,1,1,13.939,0,39.538685,-122.332405,0.0,0.0,126.0,7,2,2.5,0,0.0,-1,0.0,0.0,0.0,0
46794,1495236494237,,,,,,,,0.05,0.07,1.0,-3.3,-0.1,0.0,920,69,,,,,,,,,,,,,,,,,,,
46814,1495236494257,,,,,,,,0.04,0.06,1.0,-3.3,-0.2,-0.0,920,68,,,,,,,,,,,,,,,,,,,
46834,1495236494277,,,,,,,,0.04,0.06,1.0,-3.3,-0.2,-0.1,920,69,,,,,,,,,,,,,,,,,,,
46854,1495236494295,,,,,,,,0.03,0.06,0.99,-3.3,-0.1,-0.1,920,69,,,,,,,,,,,,,,,,,,,
46874,1495236494315,0,97.7,,134.9,61,127.4,,0.03,0.05,0.98,-3.3,0.0,-0.2,920,71,1,1,13.333,0,39.538685,-122.332405,0.0,0.0,126.0,7,2,2.5,0,0.0,-1,0.0,0.0,0.0,0
46894,1495236494335,,,,,,,,0.04,0.04,0.98,-3.3,0.0,-0.2,920,71,,,,,,,,,,,,,,,,,,,
46914,1495236494355,,,,,,,,0.04,0.03,0.98,-3.3,0.1,-0.2,920,72,,,,,,,,,,,,,,,,,,,
46934,1495236494375,,,,,,,,0.04,0.03,0.98,-3.2,0.1,-0.2,920,71,,,,,,,,,,,,,,,,,,,
46954,1495236494397,,,,,,,,0.04,0.04,0.98,-3.3,0.2,-0.1,920,72,,,,,,,,,,,,,,,,,,,
46974,1495236494417,,,,,56,,,0.04,0.05,0.98,-3.3,0.2,-0.1,920,75,1,1,13.143,0,39.538685,-122.332405,0.0,0.0,126.0,7,2,2.5,0,0.0,-1,0.0,0.0,0.0,0
46994,1495236494437,,,,,,,,0.04,0.05,0.99,-3.4,0.1,-0.1,920,75,,,,,,,,,,,,,,,,,,,
47014,1495236494457,,,,,,,,0.05,0.06,0.99,-3.4,0.2,-0.0,920,72,,,,,,,,,,,,,,,,,,,
47034,1495236494477,,,,,,,,0.05,0.07,1.0,-3.4,0.2,-0.0,920,75,,,,,,,,,,,,,,,,,,,
47054,1495236494497,,,,,,,,0.05,0.07,1.0,-3.4,0.2,-0.0,920,78,,,,,,,,,,,,,,,,,,,
47074,1495236494517,0,97.4,-0.6,134.8,54,127.0,14.77,0.05,0.07,1.0,-3.5,0.0,-0.0,920,78,1,1,12.267,0,39.538685,-122.332405,0.0,0.0,126.0,7,2,2.5,0,0.0,-1,0.0,0.0,0.0,0
47094,1495236494537,,,,,,,,0.04,0.07,1.0,-3.4,-0.1,-0.1,900,78,,,,,,,,,,,,,,,,,,,
47114,1495236494557,,,,,,,,0.04,0.06,1.01,-3.4,-0.1,-0.1,920,78,,,,,,,,,,,,,,,,,,,
47134,1495236494577,,,,,,,,0.03,0.06,1.0,-3.4,-0.0,-0.2,920,77,,,,,,,,,,,,,,,,,,,
47154,1495236494597,,,,,,,,0.03,0.05,0.99,-3.4,0.1,-0.3,920,80,,,,,,,,,,,,,,,,,,,
47174,1495236494617,,,,,59,,,0.03,0.05,0.98,-3.4,0.1,-0.3,920,83,1,1,12.105,0,39.538685,-122.332405,0.0,0.0,126.0,7,2,2.5,0,0.0,-1,0.0,0.0,0.0,0
47194,1495236494637,,,,,,,,0.04,0.05,0.98,-3.3,0.1,-0.3,920,82,,,,,,,,,,,,,,,,,,,
47214,1495236494657,,,,,,,,0.04,0.05,0.98,-3.3,0.2,-0.3,920,78,,,,,,,,,,,,,,,,,,,
47234,1495236494677,,,,,,,,0.04,0.06,0.99,-3.4,0.2,-0.2,920,80,,,,,,,,,,,,,,,,,,,
47254,1495236494697,,,,,,,,0.04,0.06,0.99,-3.5,0.2,-0.2,920,80,,,,,,,,,,,,,,,,,,,
47274,1495236494717,0,96.6,,134.3,57,127.1,,0.04,0.06,0.99,-3.5,0.2,-0.2,940,82,1,1,11.5,0,39.538685,-122.332405,0.0,0.0,126.0,7,2,2.5,0,0.0,-1,0.0,0.0,0.0,0
47294,1495236494737,,,,,,,,0.04,0.07,1.0,-3.4,0.3,-0.1,920,82,,,,,,,,,,,,,,,,,,,
47314,1495236494757,,,,,,,,0.04,0.08,1.01,-3.5,0.3,-0.1,940,80,,,,,,,,,,,,,,,,,,,
47334,1495236494777,,,,,,,,0.04,0.08,1.01,-3.5,0.3,-0.1,940,82,,,,,,,,,,,,,,,,,,,
47354,1495236494797,,,,,,,,0.04,0.07,1.01,-3.5,0.2,-0.1,940,83,,,,,,,,,,,,,,,,,,,
47374,1495236494817,,,,,63,,,0.04,0.08,1.01,-3.5,0.0,-0.1,940,85,1,1,11.605,0,39.538685,-122.332405,0.0,0.0,126.0,7,2,2.5,0,0.0,-1,0.0,0.0,0.0,0
47394,1495236494837,,,,,,,,0.04,0.07,1.0,-3.4,-0.1,-0.1,940,83,,,,,,,,,,,,,,,,,,,
47414,1495236494857,,,,,,,,0.03,0.07,1.0,-3.4,-0.1,-0.1,940,82,,,,,,,,,,,,,,,,,,,
47434,1495236494877,,,,,,,,0.02,0.06,1.0,-3.4,-0.0,-0.1,940,83,,,,,,,,,,,,,,,,,,,
47454,1495236494897,,,,,,,,0.02,0.06,0.99,-3.4,0.1,-0.2,940,83,,,,,,,,,,,,,,,,,,,
47474,1495236494917,0,97.4,,134.7,63,127.0,,0.02,0.06,0.99,-3.4,0.1,-0.2,940,82,1,1,11.325,0,39.538685,-122.332405,0.0,0.0,126.0,7,2,2.5,0,0.0,-1,0.0,0.0,0.0,0
47494,1495236494937,,,,,,,,0.02,0.06,0.98,-3.4,0.2,-0.3,940,80,,,,,,,,,,,,,,,,,,,
47514,1495236494957,,,,,,,,0.02,0.06,0.97,-3.4,0.3,-0.3,960,80,,,,,,,,,,,,,,,,,,,
47534,1495236494977,,,,,,,,0.02,0.05,0.97,-3.4,0.3,-0.3,960,82,,,,,,,,,,,,,,,,,,,
47554,1495236494991,,,,,,,,0.02,0.05,0.97,-3.4,0.4,-0.3,960,82,,,,,,,,,,,,,,,,,,,
47574,1495236495011,,,,,57,,,0.02,0.05,0.98,-3.4,0.4,-0.3,960,80,1,1,11.852,0,39.538685,-122.332405,0.0,0.0,126.0,7,2,2.5,0,0.0,-1,0.0,0.0,0.0,0
47594,1495236495031,,,,,,,,0.02,0.05,0.98,-3.4,0.4,-0.3,960,82,,,,,,,,,,,,,,,,,,,
47614,1495236495051,,,,,,,,0.02,0.05,0.99,-3.4,0.3,-0.3,980,83,,,,,,,,,,,,,,,,,,,
47634,1495236495071,,,,,,,,0.02,0.05,0.99,-3.4,0.3,-0.2,980,83,,,,,,,,,,,,,,,,,,,
47654,1495236495093,,,,,,,,0.02,0.06,1.0,-3.4,0.3,-0.2,980,82,,,,,,,,,,,,,,,,,,,
47674,1495236495113,0,96.2,,133.9,62,126.4,,0.02,0.06,1.0,-3.5,0.2,-0.1,1000,82,1,1,11.807,0,39.538685,-122.332405,0.0,0.0,126.0,7,2,2.5,0,0.0,-1,0.0,0.0,0.0,0
47694,1495236495133,,,,,,,,0.02,0.07,1.0,-3.5,0.2,-0.1,980,82,,,,,,,,,,,,,,,,,,,
47714,1495236495153,,,,,,,,0.01,0.06,1.01,-3.5,0.2,-0.1,980,82,,,,,,,,,,,,,,,,,,,
47734,1495236495173,,,,,,,,0.01,0.07,1.01,-3.5,0.1,-0.1,980,82,,,,,,,,,,,,,,,,,,,
47754,1495236495192,,,,,,,,0.01,0.08,1.01,-3.5,0.0,-0.0,980,82,,,,,,,,,,,,,,,,,,,
47774,1495236495212,,,,,66,,,0.0,0.08,1.01,-3.5,-0.1,-0.0,980,82,1,1,12.099,0,39.538685,-122.332405,0.0,0.0,126.0,7,2,2.5,0,0.0,-1,0.0,0.0,0.0,0
47794,1495236495232,,,,,,,,0.0,0.08,1.01,-3.6,-0.1,0.0,1000,82,,,,,,,,,,,,,,,,,,,
47814,1495236495252,,,,,,,,0.0,0.08,1.01,-3.6,-0.1,0.0,1000,80,,,,,,,,,,,,,,,,,,,
47834,1495236495272,,,,,,,,0.0,0.08,1.01,-3.6,-0.1,0.1,1000,78,,,,,,,,,,,,,,,,,,,
47854,1495236495294,,,,,,,,-0.0,0.08,1.01,-3.7,-0.1,0.1,980,80,,,,,,,,,,,,,,,,,,,
47874,1495236495314,0,96.2,,134.1,59,126.6,,-0.0,0.08,1.01,-3.6,-0.1,0.1,1000,78,1,1,12.821,0,39.538685,-122.332405,0.0,0.0,126.0,7,2,2.5,0,0.0,-1,0.0,0.0,0.0,0
47894,1495236495334,,,,,,,,-0.01,0.08,1.01,-3.6,-0.1,0.1,980,80,,,,,,,,,,,,,,,,,,,
47914,1495236495354,,,,,,,,-0.01,0.09,1.01,-3.6,-0.2,0.1,1000,80,,,,,,,,,,,,,,,,,,,
47934,1495236495374,,,,,,,,-0.01,0.09,1.01,-3.7,-0.2,0.1,1000,78,,,,,,,,,,,,,,,,,,,
47954,1495236495392,,,,,,,,-0.01,0.09,1.01,-3.6,-0.2,0.1,980,78,,,,,,,,,,,,,,,,,,,
47974,1495236495412,,,,,65,,,-0.01,0.09,1.01,-3.6,-0.2,0.1,980,80,1,1,12.821,0,39.538685,-122.332405,0.0,0.0,126.0,7,2,2.5,0,0.0,-1,0.0,0.0,0.0,0
47994,1495236495432,,,,,,,,-0.01,0.08,1.01,-3.6,-0.2,0.1,1000,78,,,,,,,,,,,,,,,,,,,
48014,1495236495452,,,,,,,,-0.01,0.09,1.01,-3.6,-0.3,0.1,1000,77,,,,,,,,,,,,,,,,,,,
48034,1495236495472,,,,,,,,-0.0,0.08,1.01,-3.6,-0.2,0.0,1000,77,,,,,,,,,,,,,,,,,,,
48054,1495236495496,,,,,,,,-0.0,0.08,1.01,-3.7,-0.2,0.0,1000,77,,,,,,,,,,,,,,,,,,,
48074,1495236495516,0,97.4,-0.4,135.1,58,127.3,14.75,-0.0,0.08,1.01,-3.7,-0.2,0.0,1000,77,1,1,13.158,0,39.538662,-122.332352,1.1,0.0,235.7,7,2,2.5,0,0.0,-1,0.0,0.0,0.0,0
48094,1495236495536,,,,,,,,0.0,0.08,1.02,-3.7,-0.3,0.0,1000,77,,,,,,,,,,,,,,,,,,,
48114,1495236495556,,,,,,,,0.0,0.08,1.01,-3.7,-0.3,0.0,1000,75,,,,,,,,,,,,,,,,,,,
48134,1495236495576,,,,,,,,0.0,0.08,1.02,-3.7,-0.2,-0.0,1000,75,,,,,,,,,,,,,,,,,,,
48154,1495236495596,,,,,,,,0.01,0.07,1.02,-3.6,-0.2,-0.0,1000,77,,,,,,,,,,,,,,,,,,,
48174,1495236495616,,,,,67,,,0.01,0.07,1.02,-3.7,-0.2,-0.1,1000,75,1,1,13.333,0,39.538662,-122.332352,1.09,0.0,235.9,7,2,2.5,0,0.0,-1,0.0,0.0,0.0,0
48194,1495236495636,,,,,,,,0.01,0.08,1.01,-3.6,-0.2,-0.1,1000,75,,,,,,,,,,,,,,,,,,,
48214,1495236495656,,,,,,,,0.01,0.08,1.02,-3.6,-0.3,-0.1,1000,77,,,,,,,,,,,,,,,,,,,
48234,1495236495676,,,,,,,,0.01,0.08,1.02,-3.6,-0.3,-0.1,1000,77,,,,,,,,,,,,,,,,,,,
48254,1495236495696,,,,,,,,0.02,0.08,1.02,-3.5,-0.3,-0.1,1000,75,,,,,,,,,,,,,,,,,,,
48274,1495236495716,0,97.4,,134.1,65,126.6,,0.02,0.07,1.02,-3.5,-0.2,-0.2,1000,75,1,1,13.158,0,39.538662,-122.332352,0.98,0.0,236.2,7,2,2.5,0,0.0,-1,0.0,0.0,0.0,0
48294,1495236495736,,,,,,,,0.02,0.07,1.02,-3.5,-0.2,-0.2,1000,75,,,,,,,,,,,,,,,,,,,
48314,1495236495756,,,,,,,,0.02,0.07,1.01,-3.5,-0.3,-0.2,1000,75,,,,,,,,,,,,,,,,,,,
48334,1495236495776,,,,,,,,0.02,0.06,1.01,-3.5,-0.4,-0.2,1000,77,,,,,,,,,,,,,,,,,,,
48354,1495236495796,,,,,,,,0.03,0.07,1.01,-3.5,-0.3,-0.2,1000,75,,,,,,,,,,,,,,,,,,,
48374,1495236495816,,,,,65,,,0.03,0.06,1.02,-3.4,-0.3,-0.2,1000,74,1,1,13.158,0,39.538662,-122.332352,0.94,0.0,236.3,7,2,2.5,0,0.0,-1,0.0,0.0,0.0,0
48394,1495236495836,,,,,,,,0.03,0.06,1.01,-3.4,-0.3,-0.2,1000,75,,,,,,,,,,,,,,,,,,,
48414,1495236495856,,,,,,,,0.03,0.06,1.01,-3.4,-0.3,-0.2,1000,74,,,,,,,,,,,,,,,,,,,
48434,1495236495876,,,,,,,,0.03,0.06,1.01,-3.4,-0.3,-0.2,1000,74,,,,,,,,,,,,,,,,,,,
48454,1495236495896,,,,,,,,0.04,0.05,1.01,-3.4,-0.3,-0.2,1000,75,,,,,,,,,,,,,,,,,,,
48474,1495236495916,0,97.6,,134.4,66,126.7,,0.04,0.05,1.0,-3.3,-0.3,-0.3,1000,75,1,1,13.699,0,39.538662,-122.332352,0.0,0.0,236.3,7,2,2.5,0,0.0,-1,0.0,0.0,0.0,0
48494,1495236495936,,,,,,,,0.04,0.05,1.0,-3.3,-0.3,-0.3,1000,77,,,,,,,,,,,,,,,,,,,
48514,1495236495956,,,,,,,,0.04,0.05,1.0,-3.3,-0.2,-0.4,1000,78,,,,,,,,,,,,,,,,,,,
48534,1495236495976,,,,,,,,0.04,0.05,0.99,-3.3,-0.2,-0.4,1000,80,,,,,,,,,,,,,,,,,,,
48554,1495236495994,,,,,,,,0.04,0.05,0.99,-3.3,-0.2,-0.4,1000,85,,,,,,,,,,,,,,,,,,,
48574,1495236496014,,,,,66,,,0.04,0.04,0.98,-3.3,-0.2,-0.4,1000,88,1,1,12.5,0,39.538662,-122.332352,0.0,0.0,236.3,7,2,2.5,0,0.0,-1,0.0,0.0,0.0,0
48594,1495236496034,,,,,,,,0.04,0.05,0.98,-3.3,-0.2,-0.4,1000,80,,,,,,,,,,,,,,,,,,,
48614,1495236496054,,,,,,,,0.04,0.05,0.97,-3.3,-0.2,-0.4,980,68,,,,,,,,,,,,,,,,,,,
48634,1495236496074,,,,,,,,0.04,0.04,0.97,-3.3,-0.2,-0.4,980,66,,,,,,,,,,,,,,,,,,,
48654,1495236496092,,,,,,,,0.04,0.05,0.97,-3.2,-0.2,-0.4,980,74,,,,,,,,,,,,,,,,,,,
48674,1495236496112,0,96.8,,135.1,60,127.6,,0.04,0.04,0.96,-3.2,-0.2,-0.4,980,82,1,1,14.848,0,39.538662,-122.332352,0.0,0.0,236.3,7,2,2.5,0,0.0,-1,0.0,0.0,0.0,0
48694,1495236496132,,,,,,,,0.04,0.04,0.96,-3.2,-0.3,-0.3,980,80,,,,,,,,,,,,,,,,,,,
48714,1495236496152,,,,,,,,0.04,0.05,0.96,-3.2,-0.3,-0.3,960,74,,,,,,,,,,,,,,,,,,,
48734,1495236496172,,,,,,,,0.04,0.04,0.96,-3.2,-0.3,-0.3,980,69,,,,,,,,,,,,,,,,,,,
48754,1495236496197,,,,,,,,0.04,0.04,0.96,-3.2,-0.3,-0.3,980,72,,,,,,,,,,,,,,,,,,,
48774,1495236496217,,,,,60,,,0.04,0.04,0.97,-3.2,-0.2,-0.3,980,75,1,1,14.203,0,39.538662,-122.332352,0.0,0.0,236.3,7,2,2.5,0,0.0,-1,0.0,0.0,0.0,0
48794,1495236496237,,,,,,,,0.04,0.04,0.97,-3.2,-0.2,-0.3,960,78,,,,,,,,,,,,,,,,,,,
48814,1495236496257,,,,,,,,0.04,0.04,0.98,-3.2,-0.2,-0.3,960,77,,,,,,,,,,,,,,,,,,,
48834,1495236496277,,,,,,,,0.04,0.04,0.99,-3.2,-0.1,-0.2,940,71,,,,,,,,,,,,,,,,,,,
48854,1495236496297,,,,,,,,0.04,0.05,0.99,-3.3,-0.2,-0.2,960,69,,,,,,,,,,,,,,,,,,,
48874,1495236496317,0,96.8,,135.2,62,127.7,,0.04,0.05,0.99,-3.3,-0.2,-0.2,980,74,1,1,13.429,0,39.538662,-122.332352,0.0,0.0,236.3,7,2,2.5,0,0.0,-1,0.0,0.0,0.0,0
48894,1495236496337,,,,,,,,0.04,0.06,0.99,-3.4,-0.3,-0.1,960,77,,,,,,,,,,,,,,,,,,,
48914,1495236496357,,,,,,,,0.04,0.05,0.99,-3.4,-0.3,-0.1,960,75,,,,,,,,,,,,,,,,,,,
