"Interval"|"ms"|0|0|1,"Utc"|"ms"|0|0|1,"FuelLevel"|"F"|0|100|5,"OilTemp"|"F"|0.0|300.0|5,"CoolantPressPSI"|"PSI"|0.0|20.0|1,"Coolant"|"F"|0.0|300.0|5,"OilPress"|"PSI"|0|150|10,"EngineTemp"|"F"|0.0|300.0|5,"Battery"|"Volts"|0.0|20.0|1,"AccelX"|"G"|-3.0|3.0|50,"AccelY"|"G"|-3.0|3.0|50,"AccelZ"|"G"|-3.0|3.0|50,"Yaw"|"Deg/Sec"|-300.0|300.0|50,"Pitch"|"Deg/Sec"|-300.0|300.0|50,"Roll"|"Deg/Sec"|-300.0|300.0|50,"RPM"|""|0|10000|50,"Driveshaft"|"RPM"|0|5000|50,"GPIO1"|""|0|1|10,"GPIO2"|""|0|1|10,"GearRatio"|""|-5.0|5.0|10,"Gear"|""|-1|5|10,"Latitude"|"Degrees"|-180.0|180.0|10,"Longitude"|"Degrees"|-180.0|180.0|10,"Speed"|"mph"|0.0|150.0|10,"Distance"|"mi"|0.0|0.0|10,"Altitude"|"ft"|0.0|4000.0|10,"GPSSats"|""|0|20|10,"GPSQual"|""|0|5|10,"GPSDOP"|""|0.0|20.0|10,"LapCount"|""|0|0|10,"LapTime"|"Min"|0.0|0.0|10,"Sector"|""|0|0|10,"SectorTime"|"Min"|0.0|0.0|10,"PredTime"|"Min"|0.0|0.0|10,"ElapsedTime"|"Min"|0.0|0.0|10,"CurrentLap"|""|0|0|10
226674,1495236674118,0,102.4,,143.3,1,132.4,,0.02,0.12,0.99,-3.1,-0.0,0.1,300,0,1,1,0.0,0,39.538654,-122.332306,0.0,0.002,251.0,7,2,2.5,0,0.0,-1,0.0,0.0,0.0,0
226694,1495236674138,,,,,,,,0.02,0.11,1.0,-3.2,0.2,-0.1,300,0,,,,,,,,,,,,,,,,,,,
226714,1495236674158,,,,,,,,0.02,0.11,1.0,-3.1,0.1,-0.2,300,0,,,,,,,,,,,,,,,,,,,
226734,1495236674178,,,,,,,,0.02,0.11,0.99,-3.1,0.0,-0.1,440,0,,,,,,,,,,,,,,,,,,,
226754,1495236674198,,,,,,,,0.02,0.11,1.0,-3.1,0.1,-0.1,440,0,,,,,,,,,,,,,,,,,,,
226774,1495236674218,,,,,2,,,0.02,0.11,1.0,-3.1,0.1,-0.1,500,0,1,0,0.0,0,39.538654,-122.332306,0.0,0.002,251.0,7,2,2.5,0,0.0,-1,0.0,0.0,0.0,0
226794,1495236674238,,,,,,,,0.02,0.11,0.99,-3.1,0.0,0.0,500,0,,,,,,,,,,,,,,,,,,,
226814,1495236674258,,,,,,,,0.03,0.12,1.0,-3.1,0.1,0.0,500,0,,,,,,,,,,,,,,,,,,,
226834,1495236674278,,,,,,,,0.02,0.11,0.99,-3.1,-0.2,-0.1,580,0,,,,,,,,,,,,,,,,,,,
226854,1495236674300,,,,,,,,0.03,0.11,0.98,-3.0,-0.4,-0.2,580,0,,,,,,,,,,,,,,,,,,,
226874,1495236674320,0,101.2,,142.8,3,132.8,,0.03,0.11,0.98,-3.1,-0.4,-0.1,720,0,1,0,0.0,0,39.538654,-122.332306,0.0,0.002,251.0,7,2,2.5,0,0.0,-1,0.0,0.0,0.0,0
226894,1495236674340,,,,,,,,0.03,0.12,0.98,-3.2,-0.6,0.1,760,0,,,,,,,,,,,,,,,,,,,
226914,1495236674360,,,,,,,,0.03,0.12,0.99,-3.1,-0.5,0.0,720,0,,,,,,,,,,,,,,,,,,,
226934,1495236674380,,,,,,,,0.03,0.11,0.99,-3.0,-0.6,-0.1,720,0,,,,,,,,,,,,,,,,,,,
226954,1495236674399,,,,,,,,0.02,0.11,0.99,-3.0,-0.5,-0.0,680,0,,,,,,,,,,,,,,,,,,,
226974,1495236674419,,,,,5,,,0.03,0.11,0.98,-3.0,-0.5,-0.0,640,0,1,1,0.0,0,39.538654,-122.332306,0.0,0.002,251.0,7,2,2.5,0,0.0,-1,0.0,0.0,0.0,0
226994,1495236674439,,,,,,,,0.02,0.1,0.99,-3.0,-0.4,-0.0,640,0,,,,,,,,,,,,,,,,,,,
227014,1495236674459,,,,,,,,0.02,0.1,0.99,-3.0,-0.4,0.0,640,0,,,,,,,,,,,,,,,,,,,
227034,1495236674479,,,,,,,,0.02,0.1,0.99,-3.0,-0.4,-0.1,720,0,,,,,,,,,,,,,,,,,,,
227054,1495236674499,,,,,,,,0.01,0.09,0.99,-2.9,-0.4,-0.2,720,0,,,,,,,,,,,,,,,,,,,
227074,1495236674519,0,101.5,-0.7,142.7,6,131.7,13.98,0.01,0.08,0.99,-3.0,-0.4,-0.3,760,0,1,1,0.0,0,39.538654,-122.332306,0.0,0.002,251.0,7,2,2.5,0,0.0,-1,0.0,0.0,0.0,0
227094,1495236674539,,,,,,,,0.02,0.09,0.99,-3.0,-0.2,-0.1,740,0,,,,,,,,,,,,,,,,,,,
227114,1495236674559,,,,,,,,0.01,0.09,0.99,-3.0,-0.3,-0.2,780,0,,,,,,,,,,,,,,,,,,,
227134,1495236674579,,,,,,,,0.01,0.08,0.99,-3.0,-0.2,-0.2,840,0,,,,,,,,,,,,,,,,,,,
227154,1495236674597,,,,,,,,0.01,0.08,0.99,-3.0,-0.2,-0.2,880,0,,,,,,,,,,,,,,,,,,,
227174,1495236674617,,,,,9,,,0.02,0.08,0.98,-3.0,-0.3,-0.1,880,0,1,1,0.0,0,39.538654,-122.332306,0.0,0.002,251.0,7,2,2.5,0,0.0,-1,0.0,0.0,0.0,0
227194,1495236674637,,,,,,,,0.02,0.09,0.99,-3.1,-0.2,-0.1,920,0,,,,,,,,,,,,,,,,,,,
227214,1495236674657,,,,,,,,0.02,0.09,0.99,-3.1,-0.0,-0.1,940,0,,,,,,,,,,,,,,,,,,,
227234,1495236674677,,,,,,,,0.03,0.1,1.0,-3.0,0.1,-0.1,920,0,,,,,,,,,,,,,,,,,,,
227254,1495236674699,,,,,,,,0.03,0.1,0.99,-3.1,0.0,-0.0,940,0,,,,,,,,,,,,,,,,,,,
227274,1495236674719,0,102.3,,142.6,11,131.7,,0.04,0.11,0.99,-3.1,-0.2,-0.0,940,0,1,1,0.0,0,39.538654,-122.332306,0.0,0.002,251.0,7,2,2.5,0,0.0,-1,0.0,0.0,0.0,0
227294,1495236674739,,,,,,,,0.04,0.11,0.99,-3.1,-0.3,-0.1,960,0,,,,,,,,,,,,,,,,,,,
227314,1495236674759,,,,,,,,0.03,0.11,0.99,-3.1,-0.5,-0.1,980,0,,,,,,,,,,,,,,,,,,,
227334,1495236674779,,,,,,,,0.03,0.1,0.98,-3.1,-0.5,-0.2,980,0,,,,,,,,,,,,,,,,,,,
227354,1495236674799,,,,,,,,0.02,0.09,0.97,-3.0,-0.6,-0.1,980,0,,,,,,,,,,,,,,,,,,,
227374,1495236674819,,,,,16,,,0.02,0.09,0.97,-3.0,-0.5,-0.2,1000,0,1,1,0.0,0,39.538654,-122.332306,0.0,0.002,251.0,7,2,2.5,0,0.0,-1,0.0,0.0,0.0,0
227394,1495236674839,,,,,,,,0.01,0.09,0.97,-2.9,-0.6,-0.2,1000,0,,,,,,,,,,,,,,,,,,,
227414,1495236674859,,,,,,,,0.01,0.09,0.97,-2.9,-0.7,-0.2,1020,0,,,,,,,,,,,,,,,,,,,
227434,1495236674879,,,,,,,,0.0,0.08,0.96,-2.9,-0.7,-0.2,1020,0,,,,,,,,,,,,,,,,,,,
227454,1495236674899,,,,,,,,0.0,0.08,0.96,-2.9,-0.7,-0.2,1020,0,,,,,,,,,,,,,,,,,,,
227474,1495236674919,0,101.3,,143.5,18,132.7,,-0.0,0.09,0.95,-2.9,-0.7,-0.2,1000,0,1,1,0.0,0,39.538654,-122.332306,0.0,0.002,251.0,7,2,2.5,0,0.0,-1,0.0,0.0,0.0,0
227494,1495236674939,,,,,,,,-0.0,0.08,0.95,-2.9,-0.8,-0.2,1000,0,,,,,,,,,,,,,,,,,,,
227514,1495236674959,,,,,,,,-0.0,0.08,0.95,-2.9,-0.7,-0.2,1000,0,,,,,,,,,,,,,,,,,,,
227534,1495236674979,,,,,,,,0.0,0.07,0.95,-2.9,-0.7,-0.2,980,0,,,,,,,,,,,,,,,,,,,
227554,1495236674993,,,,,,,,0.0,0.07,0.95,-2.9,-0.7,-0.2,980,0,,,,,,,,,,,,,,,,,,,
227574,1495236675013,,,,,27,,,0.0,0.08,0.95,-3.0,-0.7,-0.2,980,0,1,1,0.0,0,39.538654,-122.332306,0.0,0.002,251.0,7,2,2.5,0,0.0,-1,0.0,0.0,0.0,0
227594,1495236675033,,,,,,,,0.01,0.08,0.94,-3.0,-0.7,-0.2,980,0,,,,,,,,,,,,,,,,,,,
227614,1495236675053,,,,,,,,0.01,0.07,0.94,-3.0,-0.7,-0.2,960,0,,,,,,,,,,,,,,,,,,,
227634,1495236675073,,,,,,,,0.0,0.07,0.94,-3.0,-0.7,-0.1,960,0,,,,,,,,,,,,,,,,,,,
227654,1495236675099,,,,,,,,0.0,0.07,0.94,-3.0,-0.7,-0.1,940,0,,,,,,,,,,,,,,,,,,,
227674,1495236675119,0,101.8,,142.8,31,131.9,,0.0,0.06,0.94,-3.0,-0.7,-0.1,920,0,1,1,0.0,0,39.538654,-122.332306,0.0,0.002,251.0,7,2,2.5,0,0.0,-1,0.0,0.0,0.0,0
227694,1495236675139,,,,,,,,0.0,0.07,0.95,-3.0,-0.6,-0.2,900,0,,,,,,,,,,,,,,,,,,,
227714,1495236675159,,,,,,,,0.0,0.08,0.96,-3.0,-0.5,-0.2,900,0,,,,,,,,,,,,,,,,,,,
227734,1495236675179,,,,,,,,0.01,0.08,0.95,-3.0,-0.4,-0.2,880,0,,,,,,,,,,,,,,,,,,,
227754,1495236675199,,,,,,,,0.01,0.08,0.96,-3.0,-0.3,-0.2,880,0,,,,,,,,,,,,,,,,,,,
227774,1495236675219,,,,,36,,,0.01,0.07,0.96,-3.0,-0.3,-0.1,860,0,1,1,0.0,0,39.538654,-122.332306,0.0,0.002,251.0,7,2,2.5,0,0.0,-1,0.0,0.0,0.0,0
227794,1495236675239,,,,,,,,0.01,0.08,0.97,-3.0,-0.3,-0.1,860,0,,,,,,,,,,,,,,,,,,,
227814,1495236675259,,,,,,,,0.01,0.08,0.97,-3.1,-0.2,-0.1,840,0,,,,,,,,,,,,,,,,,,,
227834,1495236675279,,,,,,,,0.02,0.08,0.97,-3.0,-0.3,-0.1,820,0,,,,,,,,,,,,,,,,,,,
227854,1495236675299,,,,,,,,0.02,0.08,0.96,-3.0,-0.2,-0.1,800,0,,,,,,,,,,,,,,,,,,,
227874,1495236675319,0,102.6,,143.4,47,132.1,,0.02,0.08,0.96,-3.0,-0.1,-0.2,780,0,1,1,0.0,0,39.538654,-122.332306,0.0,0.002,251.0,7,2,2.5,0,0.0,-1,0.0,0.0,0.0,0
227894,1495236675339,,,,,,,,0.02,0.08,0.97,-3.0,-0.1,-0.2,780,0,,,,,,,,,,,,,,,,,,,
227914,1495236675359,,,,,,,,0.02,0.08,0.97,-3.0,-0.1,-0.1,760,0,,,,,,,,,,,,,,,,,,,
227934,1495236675379,,,,,,,,0.02,0.09,0.97,-3.0,-0.2,-0.2,740,0,,,,,,,,,,,,,,,,,,,
227954,1495236675398,,,,,,,,0.02,0.09,0.97,-3.0,-0.1,-0.2,740,0,,,,,,,,,,,,,,,,,,,
227974,1495236675418,,,,,55,,,0.02,0.09,0.98,-3.0,-0.1,-0.2,740,0,1,1,0.0,0,39.538654,-122.332306,0.0,0.002,251.0,7,2,2.5,0,0.0,-1,0.0,0.0,0.0,0
227994,1495236675438,,,,,,,,0.02,0.08,0.98,-3.0,-0.1,-0.2,700,0,,,,,,,,,,,,,,,,,,,
228014,1495236675458,,,,,,,,0.02,0.08,0.98,-3.0,-0.1,-0.2,700,0,,,,,,,,,,,,,,,,,,,
228034,1495236675478,,,,,,,,0.02,0.07,0.98,-2.9,-0.0,-0.2,700,0,,,,,,,,,,,,,,,,,,,
228054,1495236675498,,,,,,,,0.02,0.07,0.98,-2.9,0.0,-0.2,680,0,,,,,,,,,,,,,,,,,,,
228074,1495236675518,0,101.4,-0.6,142.8,49,132.1,14.65,0.02,0.07,0.98,-2.9,0.1,-0.2,680,0,1,1,0.0,0,39.538654,-122.332306,0.0,0.002,251.0,7,2,2.5,0,0.0,-1,0.0,0.0,0.0,0
228094,1495236675538,,,,,,,,0.02,0.07,0.97,-2.9,0.0,-0.2,680,0,,,,,,,,,,,,,,,,,,,
228114,1495236675558,,,,,,,,0.02,0.07,0.98,-2.9,0.1,-0.2,660,0,,,,,,,,,,,,,,,,,,,
228134,1495236675578,,,,,,,,0.02,0.07,0.98,-2.9,0.1,-0.1,640,0,,,,,,,,,,,,,,,,,,,
228154,1495236675598,,,,,,,,0.02,0.07,0.98,-2.9,0.1,-0.1,640,0,,,,,,,,,,,,,,,,,,,
228174,1495236675618,,,,,50,,,0.02,0.08,0.98,-3.0,0.1,-0.1,600,0,1,1,0.0,0,39.538654,-122.332306,0.0,0.002,251.0,7,2,2.5,0,0.0,-1,0.0,0.0,0.0,0
228194,1495236675638,,,,,,,,0.02,0.08,0.98,-3.0,0.1,-0.2,600,0,,,,,,,,,,,,,,,,,,,
228214,1495236675658,,,,,,,,0.02,0.08,0.97,-3.0,0.1,-0.2,600,0,,,,,,,,,,,,,,,,,,,
228234,1495236675678,,,,,,,,0.02,0.08,0.98,-3.0,0.1,-0.2,600,0,,,,,,,,,,,,,,,,,,,
228254,1495236675698,,,,,,,,0.02,0.08,0.98,-3.0,0.1,-0.2,600,0,,,,,,,,,,,,,,,,,,,
228274,1495236675718,0,101.8,,142.6,52,131.9,,0.02,0.08,0.98,-3.0,0.2,-0.2,580,0,1,1,0.0,0,39.538654,-122.332306,0.0,0.002,251.0,7,2,2.5,0,0.0,-1,0.0,0.0,0.0,0
228294,1495236675738,,,,,,,,0.02,0.08,0.98,-3.0,0.2,-0.2,580,0,,,,,,,,,,,,,,,,,,,
228314,1495236675758,,,,,,,,0.02,0.08,0.98,-3.0,0.1,-0.2,580,0,,,,,,,,,,,,,,,,,,,
228334,1495236675778,,,,,,,,0.02,0.08,0.98,-3.0,0.1,-0.2,560,0,,,,,,,,,,,,,,,,,,,
228354,1495236675798,,,,,,,,0.02,0.07,0.98,-3.0,0.1,-0.2,560,0,,,,,,,,,,,,,,,,,,,
228374,1495236675818,,,,,51,,,0.02,0.08,0.98,-3.0,0.1,-0.2,540,0,1,1,0.0,0,39.538654,-122.332306,0.0,0.002,251.0,7,2,2.5,0,0.0,-1,0.0,0.0,0.0,0
228394,1495236675838,,,,,,,,0.02,0.08,0.98,-3.0,0.1,-0.2,540,0,,,,,,,,,,,,,,,,,,,
228414,1495236675858,,,,,,,,0.02,0.08,0.98,-3.0,0.1,-0.1,540,0,,,,,,,,,,,,,,,,,,,
228434,1495236675878,,,,,,,,0.01,0.08,0.98,-3.0,0.0,-0.1,540,0,,,,,,,,,,,,,,,,,,,
228454,1495236675898,,,,,,,,0.02,0.08,0.98,-3.0,0.0,-0.1,540,0,,,,,,,,,,,,,,,,,,,
228474,1495236675918,0,101.7,,142.8,51,132.1,,0.01,0.08,0.98,-3.0,-0.1,-0.2,560,0,1,1,0.0,0,39.538654,-122.332306,0.0,0.002,251.0,7,2,2.5,0,0.0,-1,0.0,0.0,0.0,0
228494,1495236675938,,,,,,,,0.01,0.08,0.98,-3.0,0.0,-0.2,560,0,,,,,,,,,,,,,,,,,,,
228514,1495236675958,,,,,,,,0.02,0.09,0.98,-3.0,0.0,-0.2,540,0,,,,,,,,,,,,,,,,,,,
228534,1495236675978,,,,,,,,0.01,0.09,0.98,-3.0,-0.0,-0.2,540,0,,,,,,,,,,,,,,,,,,,
228554,1495236675992,,,,,,,,0.02,0.09,0.98,-3.0,0.0,-0.2,540,0,,,,,,,,,,,,,,,,,,,
228574,1495236676012,,,,,47,,,0.02,0.08,0.98,-3.0,-0.0,-0.2,540,0,1,1,0.0,0,39.538654,-122.332306,0.0,0.002,251.0,7,2,2.5,0,0.0,-1,0.0,0.0,0.0,0
228594,1495236676032,,,,,,,,0.02,0.08,0.98,-3.0,-0.0,-0.2,540,0,,,,,,,,,,,,,,,,,,,
228614,1495236676052,,,,,,,,0.02,0.08,0.98,-3.0,-0.0,-0.2,540,0,,,,,,,,,,,,,,,,,,,
228634,1495236676072,,,,,,,,0.02,0.08,0.98,-3.0,0.0,-0.2,560,0,,,,,,,,,,,,,,,,,,,
228654,1495236676098,,,,,,,,0.02,0.08,0.98,-3.0,0.0,-0.2,560,0,,,,,,,,,,,,,,,,,,,
228674,1495236676118,0,102.9,,143.6,52,132.4,,0.02,0.08,0.98,-3.0,0.1,-0.2,560,0,1,1,0.0,0,39.538654,-122.332306,0.0,0.002,251.0,7,2,2.5,0,0.0,-1,0.0,0.0,0.0,0
228694,1495236676138,,,,,,,,0.02,0.09,0.98,-3.0,0.1,-0.1,580,0,,,,,,,,,,,,,,,,,,,
228714,1495236676158,,,,,,,,0.02,0.08,0.98,-3.0,0.1,-0.2,580,0,,,,,,,,,,,,,,,,,,,
228734,1495236676178,,,,,,,,0.02,0.09,0.98,-3.0,0.2,-0.2,580,0,,,,,,,,,,,,,,,,,,,
228754,1495236676198,,,,,,,,0.01,0.08,0.97,-3.0,0.1,-0.2,580,0,,,,,,,,,,,,,,,,,,,
228774,1495236676218,,,,,52,,,0.02,0.08,0.97,-3.0,0.1,-0.2,580,0,1,1,0.0,0,39.538654,-122.332306,0.0,0.002,251.0,7,2,2.5,0,0.0,-1,0.0,0.0,0.0,0
228794,1495236676238,,,,,,,,0.02,0.09,0.98,-3.1,0.1,-0.2,600,0,,,,,,,,,,,,,,,,,,,
228814,1495236676258,,,,,,,,0.02,0.08,0.98,-3.0,0.0,-0.2,600,0,,,,,,,,,,,,,,,,,,,
228834,1495236676278,,,,,,,,0.02,0.09,0.98,-3.1,0.1,-0.2,600,0,,,,,,,,,,,,,,,,,,,
228854,1495236676300,,,,,,,,0.02,0.08,0.98,-3.0,-0.0,-0.2,620,0,,,,,,,,,,,,,,,,,,,
228874,1495236676320,0,102.0,,143.7,50,132.7,,0.02,0.08,0.98,-3.0,-0.0,-0.2,620,0,1,1,0.0,0,39.538654,-122.332306,0.0,0.002,251.0,7,2,2.5,0,0.0,-1,0.0,0.0,0.0,0
228894,1495236676340,,,,,,,,0.02,0.08,0.99,-3.1,0.0,-0.2,640,0,,,,,,,,,,,,,,,,,,,
228914,1495236676360,,,,,,,,0.02,0.08,0.99,-3.1,0.0,-0.2,640,0,,,,,,,,,,,,,,,,,,,
228934,1495236676380,,,,,,,,0.01,0.07,0.99,-3.0,0.0,-0.2,640,0,,,,,,,,,,,,,,,,,,,
228954,1495236676397,,,,,,,,0.02,0.08,0.99,-3.1,0.0,-0.2,640,0,,,,,,,,,,,,,,,,,,,
228974,1495236676417,,,,,54,,,0.01,0.08,0.99,-3.0,-0.0,-0.2,640,0,1,1,0.0,0,39.538654,-122.332306,0.0,0.002,251.0,7,2,2.5,0,0.0,-1,0.0,0.0,0.0,0
228994,1495236676437,,,,,,,,0.01,0.08,0.99,-3.0,0.1,-0.2,640,0,,,,,,,,,,,,,,,,,,,
229014,1495236676457,,,,,,,,0.02,0.09,0.99,-3.0,0.1,-0.2,660,0,,,,,,,,,,,,,,,,,,,
229034,1495236676477,,,,,,,,0.01,0.08,0.99,-3.0,0.1,-0.2,660,0,,,,,,,,,,,,,,,,,,,
229054,1495236676499,,,,,,,,0.01,0.08,0.99,-3.0,0.1,-0.2,660,0,,,,,,,,,,,,,,,,,,,
229074,1495236676519,0,101.1,-0.5,143.3,52,132.5,14.73,0.01,0.08,0.99,-3.0,0.1,-0.1,680,0,1,1,0.0,0,39.538654,-122.332306,0.0,0.002,251.0,7,2,2.5,0,0.0,-1,0.0,0.0,0.0,0
229094,1495236676539,,,,,,,,0.01,0.08,0.99,-3.0,0.1,-0.2,680,0,,,,,,,,,,,,,,,,,,,
229114,1495236676559,,,,,,,,0.01,0.08,0.99,-3.0,0.1,-0.2,680,0,,,,,,,,,,,,,,,,,,,
229134,1495236676579,,,,,,,,0.01,0.09,0.99,-3.0,0.1,-0.2,680,0,,,,,,,,,,,,,,,,,,,
229154,1495236676595,,,,,,,,0.0,0.08,0.99,-3.0,0.1,-0.2,680,0,,,,,,,,,,,,,,,,,,,
229174,1495236676615,,,,,59,,,0.0,0.08,0.99,-2.9,0.1,-0.2,680,0,1,1,0.0,0,39.538654,-122.332306,0.0,0.002,251.0,7,2,2.5,0,0.0,-1,0.0,0.0,0.0,0
229194,1495236676635,,,,,,,,0.0,0.09,0.98,-3.0,0.0,-0.2,680,0,,,,,,,,,,,,,,,,,,,
229214,1495236676655,,,,,,,,0.0,0.08,0.98,-3.0,-0.1,-0.1,680,0,,,,,,,,,,,,,,,,,,,
229234,1495236676675,,,,,,,,0.0,0.08,0.98,-3.0,-0.1,-0.2,680,0,,,,,,,,,,,,,,,,,,,
229254,1495236676699,,,,,,,,0.0,0.08,0.98,-3.0,-0.0,-0.2,680,0,,,,,,,,,,,,,,,,,,,
229274,1495236676719,0,103.0,,143.6,57,132.4,,0.01,0.09,0.99,-3.0,-0.1,-0.2,680,0,1,1,0.0,0,39.538654,-122.332306,0.0,0.002,251.0,7,2,2.5,0,0.0,-1,0.0,0.0,0.0,0
229294,1495236676739,,,,,,,,0.01,0.08,0.98,-3.0,-0.1,-0.2,680,0,,,,,,,,,,,,,,,,,,,
229314,1495236676759,,,,,,,,0.01,0.08,0.98,-3.0,-0.1,-0.2,680,0,,,,,,,,,,,,,,,,,,,
229334,1495236676779,,,,,,,,0.01,0.09,0.98,-3.0,-0.1,-0.2,680,0,,,,,,,,,,,,,,,,,,,
229354,1495236676799,,,,,,,,0.01,0.09,0.98,-3.0,-0.1,-0.2,680,0,,,,,,,,,,,,,,,,,,,
229374,1495236676819,,,,,62,,,0.01,0.09,0.98,-3.0,-0.0,-0.2,680,0,1,1,0.0,0,39.538654,-122.332306,0.0,0.002,251.0,7,2,2.5,0,0.0,-1,0.0,0.0,0.0,0
229394,1495236676839,,,,,,,,0.01,0.09,0.98,-3.0,-0.0,-0.2,680,0,,,,,,,,,,,,,,,,,,,
229414,1495236676859,,,,,,,,0.01,0.08,0.98,-3.0,-0.0,-0.2,680,0,,,,,,,,,,,,,,,,,,,
229434,1495236676879,,,,,,,,0.01,0.08,0.99,-3.0,0.0,-0.2,680,0,,,,,,,,,,,,,,,,,,,
229454,1495236676899,,,,,,,,0.01,0.09,0.99,-3.0,-0.0,-0.2,680,0,,,,,,,,,,,,,,,,,,,
229474,1495236676919,0,101.4,,142.9,56,132.7,,0.01,0.08,0.98,-3.0,-0.1,-0.2,680,0,1,1,0.0,0,39.538654,-122.332306,0.0,0.002,251.0,7,2,2.5,0,0.0,-1,0.0,0.0,0.0,0
229494,1495236676939,,,,,,,,0.01,0.08,0.98,-3.0,-0.1,-0.2,680,0,,,,,,,,,,,,,,,,,,,
229514,1495236676959,,,,,,,,0.01,0.08,0.98,-3.0,-0.1,-0.2,680,0,,,,,,,,,,,,,,,,,,,
229534,1495236676979,,,,,,,,0.02,0.09,0.98,-3.0,-0.1,-0.2,680,0,,,,,,,,,,,,,,,,,,,
229554,1495236676993,,,,,,,,0.02,0.09,0.98,-3.0,-0.1,-0.2,680,0,,,,,,,,,,,,,,,,,,,
229574,1495236677013,,,,,57,,,0.02,0.09,0.98,-3.0,-0.1,-0.2,680,0,1,1,0.0,0,39.538654,-122.332306,0.0,0.002,251.0,7,2,2.5,0,0.0,-1,0.0,0.0,0.0,0
229594,1495236677033,,,,,,,,0.02,0.09,0.99,-3.0,-0.0,-0.2,660,0,,,,,,,,,,,,,,,,,,,
229614,1495236677053,,,,,,,,0.02,0.09,0.98,-3.0,-0.0,-0.2,660,0,,,,,,,,,,,,,,,,,,,
229634,1495236677073,,,,,,,,0.02,0.09,0.98,-3.0,0.1,-0.3,660,0,,,,,,,,,,,,,,,,,,,
229654,1495236677097,,,,,,,,0.02,0.09,0.98,-3.1,0.1,-0.2,660,0,,,,,,,,,,,,,,,,,,,
229674,1495236677117,0,103.5,,143.9,57,130.7,,0.02,0.09,0.98,-3.0,0.1,-0.2,660,0,1,1,0.0,0,39.538654,-122.332306,0.0,0.002,251.0,7,2,2.5,0,0.0,-1,0.0,0.0,0.0,0
229694,1495236677137,,,,,,,,0.02,0.09,0.99,-3.1,0.2,-0.2,660,0,,,,,,,,,,,,,,,,,,,
229714,1495236677157,,,,,,,,0.03,0.09,0.99,-3.1,0.2,-0.2,660,0,,,,,,,,,,,,,,,,,,,
229734,1495236677177,,,,,,,,0.03,0.09,0.99,-3.0,0.3,-0.2,660,0,,,,,,,,,,,,,,,,,,,
229754,1495236677199,,,,,,,,0.02,0.09,0.99,-3.0,0.3,-0.2,660,0,,,,,,,,,,,,,,,,,,,
229774,1495236677219,,,,,55,,,0.03,0.09,0.99,-3.0,0.3,-0.2,660,0,1,1,0.0,0,39.538654,-122.332306,0.0,0.002,251.0,7,2,2.5,0,0.0,-1,0.0,0.0,0.0,0
229794,1495236677239,,,,,,,,0.02,0.09,0.99,-3.0,0.3,-0.2,660,0,,,,,,,,,,,,,,,,,,,
229814,1495236677259,,,,,,,,0.02,0.09,0.99,-3.0,0.4,-0.3,660,0,,,,,,,,,,,,,,,,,,,
229834,1495236677279,,,,,,,,0.02,0.09,0.99,-3.0,0.4,-0.3,660,0,,,,,,,,,,,,,,,,,,,
229854,1495236677299,,,,,,,,0.03,0.09,0.99,-3.0,0.5,-0.3,660,0,,,,,,,,,,,,,,,,,,,
229874,1495236677319,0,102.9,,143.7,60,132.4,,0.03,0.09,0.99,-3.0,0.5,-0.2,640,0,1,1,0.0,0,39.538654,-122.332306,0.0,0.002,251.0,7,2,2.5,0,0.0,-1,0.0,0.0,0.0,0
229894,1495236677339,,,,,,,,0.03,0.09,0.99,-3.0,0.5,-0.2,640,0,,,,,,,,,,,,,,,,,,,
229914,1495236677359,,,,,,,,0.03,0.09,0.99,-3.0,0.5,-0.3,640,0,,,,,,,,,,,,,,,,,,,
229934,1495236677379,,,,,,,,0.03,0.09,0.99,-3.0,0.5,-0.3,640,0,,,,,,,,,,,,,,,,,,,
229954,1495236677398,,,,,,,,0.03,0.09,0.99,-3.0,0.6,-0.3,640,0,,,,,,,,,,,,,,,,,,,
229974,1495236677418,,,,,56,,,0.03,0.09,0.99,-3.0,0.5,-0.3,640,0,1,1,0.0,0,39.538654,-122.332306,0.0,0.002,251.0,7,2,2.5,0,0.0,-1,0.0,0.0,0.0,0
229994,1495236677438,,,,,,,,0.03,0.09,0.99,-3.0,0.5,-0.3,640,0,,,,,,,,,,,,,,,,,,,
230014,1495236677458,,,,,,,,0.03,0.09,0.98,-3.0,0.4,-0.2,640,0,,,,,,,,,,,,,,,,,,,
230034,1495236677478,,,,,,,,0.03,0.09,0.98,-3.0,0.4,-0.2,640,0,,,,,,,,,,,,,,,,,,,
230054,1495236677498,,,,,,,,0.03,0.09,0.98,-3.0,0.3,-0.2,640,0,,,,,,,,,,,,,,,,,,,
230074,1495236677518,0,101.2,-0.5,142.6,53,132.6,14.69,0.03,0.09,0.98,-3.0,0.3,-0.2,640,0,1,1,0.0,0,39.538654,-122.332306,0.0,0.002,251.0,7,2,2.5,0,0.0,-1,0.0,0.0,0.0,0
230094,1495236677538,,,,,,,,0.03,0.09,0.98,-3.0,0.2,-0.2,640,0,,,,,,,,,,,,,,,,,,,
230114,1495236677558,,,,,,,,0.03,0.08,0.98,-3.0,0.2,-0.3,640,0,,,,,,,,,,,,,,,,,,,
230134,1495236677578,,,,,,,,0.03,0.08,0.98,-3.0,0.1,-0.3,640,0,,,,,,,,,,,,,,,,,,,
230154,1495236677598,,,,,,,,0.02,0.08,0.98,-3.0,0.1,-0.3,640,0,,,,,,,,,,,,,,,,,,,
230174,1495236677618,,,,,57,,,0.02,0.08,0.98,-3.0,0.2,-0.2,620,0,1,1,0.0,0,39.538654,-122.332306,0.0,0.002,251.0,7,2,2.5,0,0.0,-1,0.0,0.0,0.0,0
230194,1495236677638,,,,,,,,0.02,0.08,0.98,-3.0,0.1,-0.2,620,0,,,,,,,,,,,,,,,,,,,
230214,1495236677658,,,,,,,,0.02,0.08,0.99,-3.0,0.1,-0.3,620,0,,,,,,,,,,,,,,,,,,,
230234,1495236677678,,,,,,,,0.02,0.09,0.98,-3.0,0.1,-0.2,620,0,,,,,,,,,,,,,,,,,,,
230254,1495236677698,,,,,,,,0.02,0.08,0.98,-3.0,0.1,-0.3,620,0,,,,,,,,,,,,,,,,,,,
230274,1495236677718,0,101.3,,142.8,58,132.5,,0.02,0.08,0.98,-3.0,0.1,-0.3,620,0,1,1,0.0,0,39.538654,-122.332306,0.0,0.002,251.0,7,2,2.5,0,0.0,-1,0.0,0.0,0.0,0
230294,1495236677738,,,,,,,,0.02,0.09,0.98,-3.0,0.1,-0.3,620,0,,,,,,,,,,,,,,,,,,,
230314,1495236677758,,,,,,,,0.02,0.08,0.99,-3.0,0.1,-0.3,620,0,,,,,,,,,,,,,,,,,,,
230334,1495236677778,,,,,,,,0.02,0.09,0.99,-3.0,0.1,-0.2,640,0,,,,,,,,,,,,,,,,,,,
230354,1495236677798,,,,,,,,0.02,0.09,0.99,-3.0,0.1,-0.2,620,0,,,,,,,,,,,,,,,,,,,
230374,1495236677818,,,,,53,,,0.02,0.08,0.99,-3.0,-0.0,-0.3,620,0,1,1,0.0,0,39.538654,-122.332306,0.0,0.002,251.0,7,2,2.5,0,0.0,-1,0.0,0.0,0.0,0
230394,1495236677838,,,,,,,,0.02,0.09,0.98,-3.0,-0.0,-0.2,640,0,,,,,,,,,,,,,,,,,,,
230414,1495236677858,,,,,,,,0.02,0.08,0.98,-3.0,-0.0,-0.3,620,0,,,,,,,,,,,,,,,,,,,
230434,1495236677878,,,,,,,,0.02,0.08,0.98,-3.0,0.1,-0.3,620,0,,,,,,,,,,,,,,,,,,,
230454,1495236677898,,,,,,,,0.02,0.08,0.98,-3.0,0.1,-0.3,640,0,,,,,,,,,,,,,,,,,,,
230474,1495236677918,0,102.9,,143.7,56,131.6,,0.02,0.08,0.98,-3.0,0.1,-0.3,640,0,1,1,0.0,0,39.538654,-122.332306,0.0,0.002,251.0,7,2,2.5,0,0.0,-1,0.0,0.0,0.0,0
230494,1495236677938,,,,,,,,0.02,0.08,0.99,-3.0,0.2,-0.2,640,0,,,,,,,,,,,,,,,,,,,
230514,1495236677958,,,,,,,,0.02,0.08,0.98,-3.0,0.2,-0.2,640,0,,,,,,,,,,,,,,,,,,,
230534,1495236677978,,,,,,,,0.02,0.08,0.99,-3.0,0.2,-0.2,640,0,,,,,,,,,,,,,,,,,,,
230554,1495236677992,,,,,,,,0.03,0.08,0.99,-3.0,0.1,-0.2,640,0,,,,,,,,,,,,,,,,,,,
230574,1495236678012,,,,,54,,,0.03,0.09,0.98,-3.0,0.1,-0.2,640,0,1,1,0.0,0,39.538654,-122.332306,0.0,0.002,251.0,7,2,2.5,0,0.0,-1,0.0,0.0,0.0,0
230594,1495236678032,,,,,,,,0.02,0.08,0.98,-3.0,0.1,-0.2,640,0,,,,,,,,,,,,,,,,,,,
230614,1495236678052,,,,,,,,0.02,0.09,0.98,-3.0,0.0,-0.2,640,0,,,,,,,,,,,,,,,,,,,
230634,1495236678072,,,,,,,,0.02,0.08,0.98,-3.0,0.0,-0.2,640,0,,,,,,,,,,,,,,,,,,,
230654,1495236678094,,,,,,,,0.02,0.08,0.99,-3.0,-0.0,-0.2,640,0,,,,,,,,,,,,,,,,,,,
230674,1495236678114,0,101.4,,142.8,53,132.4,,0.02,0.09,0.99,-3.0,-0.0,-0.2,640,0,1,1,0.0,0,39.538654,-122.332306,0.0,0.002,251.0,7,2,2.5,0,0.0,-1,0.0,0.0,0.0,0
230694,1495236678134,,,,,,,,0.02,0.08,0.99,-3.0,-0.1,-0.2,640,0,,,,,,,,,,,,,,,,,,,
230714,1495236678154,,,,,,,,0.02,0.08,0.99,-3.0,-0.0,-0.2,640,0,,,,,,,,,,,,,,,,,,,
230734,1495236678174,,,,,,,,0.02,0.08,0.99,-3.0,0.0,-0.2,640,0,,,,,,,,,,,,,,,,,,,
230754,1495236678200,,,,,,,,0.01,0.08,0.99,-3.0,0.0,-0.2,640,0,,,,,,,,,,,,,,,,,,,
230774,1495236678220,,,,,61,,,0.01,0.08,0.99,-3.0,0.1,-0.2,640,0,1,1,0.0,0,39.538654,-122.332306,0.0,0.002,251.0,7,2,2.5,0,0.0,-1,0.0,0.0,0.0,0
230794,1495236678240,,,,,,,,0.01,0.08,0.99,-3.0,0.1,-0.2,640,0,,,,,,,,,,,,,,,,,,,
230814,1495236678260,,,,,,,,0.01,0.08,0.98,-3.0,0.0,-0.2,640,0,,,,,,,,,,,,,,,,,,,
230834,1495236678280,,,,,,,,0.01,0.08,0.98,-3.0,0.1,-0.2,640,0,,,,,,,,,,,,,,,,,,,
230854,1495236678298,,,,,,,,0.02,0.08,0.98,-3.0,0.1,-0.2,640,0,,,,,,,,,,,,,,,,,,,
230874,1495236678318,0,101.5,,143.0,57,132.7,,0.02,0.08,0.98,-3.0,0.1,-0.2,640,0,1,1,0.0,0,39.538654,-122.332306,0.0,0.002,251.0,7,2,2.5,0,0.0,-1,0.0,0.0,0.0,0
230894,1495236678338,,,,,,,,0.02,0.08,0.98,-3.0,0.1,-0.2,640,0,,,,,,,,,,,,,,,,,,,
230914,1495236678358,,,,,,,,0.02,0.08,0.98,-3.0,0.1,-0.2,640,0,,,,,,,,,,,,,,,,,,,
230934,1495236678378,,,,,,,,0.02,0.08,0.99,-3.0,0.1,-0.2,640,0,,,,,,,,,,,,,,,,,,,
230954,1495236678399,,,,,,,,0.02,0.08,0.99,-3.0,0.2,-0.2,640,0,,,,,,,,,,,,,,,,,,,
230974,1495236678419,,,,,62,,,0.02,0.08,0.98,-3.0,0.1,-0.2,640,0,1,1,0.0,0,39.538654,-122.332306,0.0,0.002,251.0,7,2,2.5,0,0.0,-1,0.0,0.0,0.0,0
230994,1495236678439,,,,,,,,0.02,0.08,0.99,-3.0,0.1,-0.2,640,0,,,,,,,,,,,,,,,,,,,
231014,1495236678459,,,,,,,,0.02,0.09,0.99,-3.0,0.2,-0.2,640,0,,,,,,,,,,,,,,,,,,,
231034,1495236678479,,,,,,,,0.03,0.09,0.98,-3.0,0.1,-0.2,660,0,,,,,,,,,,,,,,,,,,,
231054,1495236678499,,,,,,,,0.02,0.08,0.99,-2.9,0.1,-0.2,660,0,,,,,,,,,,,,,,,,,,,
231074,1495236678519,0,103.3,-0.3,143.9,53,131.7,14.68,0.02,0.09,0.99,-3.0,0.1,-0.2,660,0,1,1,0.0,0,39.538654,-122.332306,0.0,0.002,251.0,7,2,2.5,0,0.0,-1,0.0,0.0,0.0,0
231094,1495236678539,,,,,,,,0.03,0.09,0.98,-2.9,0.1,-0.2,640,0,,,,,,,,,,,,,,,,,,,
231114,1495236678559,,,,,,,,0.02,0.08,0.98,-2.9,0.0,-0.3,640,0,,,,,,,,,,,,,,,,,,,
231134,1495236678579,,,,,,,,0.02,0.08,0.98,-2.9,0.1,-0.3,640,0,,,,,,,,,,,,,,,,,,,
231154,1495236678599,,,,,,,,0.02,0.08,0.98,-3.0,0.1,-0.3,640,0,,,,,,,,,,,,,,,,,,,
231174,1495236678619,,,,,55,,,0.02,0.08,0.98,-3.0,0.1,-0.3,640,0,1,1,0.0,0,39.538654,-122.332306,0.0,0.002,251.0,7,2,2.5,0,0.0,-1,0.0,0.0,0.0,0
231194,1495236678639,,,,,,,,0.02,0.08,0.98,-3.0,0.0,-0.2,640,0,,,,,,,,,,,,,,,,,,,
231214,1495236678659,,,,,,,,0.02,0.08,0.98,-3.0,-0.0,-0.2,640,0,,,,,,,,,,,,,,,,,,,
231234,1495236678679,,,,,,,,0.01,0.08,0.99,-3.0,-0.0,-0.3,640,0,,,,,,,,,,,,,,,,,,,
231254,1495236678697,,,,,,,,0.02,0.08,0.98,-3.0,-0.0,-0.2,640,0,,,,,,,,,,,,,,,,,,,
231274,1495236678717,0,102.6,,143.3,60,131.7,,0.01,0.07,0.99,-3.0,-0.1,-0.2,640,0,1,1,0.0,0,39.538654,-122.332306,0.0,0.002,251.0,7,2,2.5,0,0.0,-1,0.0,0.0,0.0,0
231294,1495236678737,,,,,,,,0.01,0.07,0.99,-3.0,-0.0,-0.2,640,0,,,,,,,,,,,,,,,,,,,
231314,1495236678757,,,,,,,,0.01,0.08,0.98,-3.0,0.0,-0.2,640,0,,,,,,,,,,,,,,,,,,,
231334,1495236678777,,,,,,,,0.01,0.08,0.99,-3.0,-0.0,-0.2,640,0,,,,,,,,,,,,,,,,,,,
231354,1495236678799,,,,,,,,0.01,0.08,0.99,-3.0,0.0,-0.2,640,0,,,,,,,,,,,,,,,,,,,
231374,1495236678819,,,,,55,,,0.01,0.08,0.99,-3.0,0.1,-0.1,640,0,1,1,0.0,0,39.538654,-122.332306,0.0,0.002,251.0,7,2,2.5,0,0.0,-1,0.0,0.0,0.0,0
231394,1495236678839,,,,,,,,0.01,0.08,0.99,-3.0,0.0,-0.2,660,0,,,,,,,,,,,,,,,,,,,
231414,1495236678859,,,,,,,,0.01,0.08,0.99,-3.0,0.1,-0.2,660,0,,,,,,,,,,,,,,,,,,,
231434,1495236678879,,,,,,,,0.01,0.08,0.99,-3.0,0.2,-0.2,660,0,,,,,,,,,,,,,,,,,,,
231454,1495236678899,,,,,,,,0.01,0.08,0.99,-3.0,0.1,-0.2,660,0,,,,,,,,,,,,,,,,,,,
231474,1495236678919,0,103.3,,143.9,55,132.3,,0.01,0.08,0.99,-3.0,0.2,-0.2,660,0,1,1,0.0,0,39.538654,-122.332306,0.0,0.002,251.0,7,2,2.5,0,0.0,-1,0.0,0.0,0.0,0
231494,1495236678939,,,,,,,,0.01,0.09,0.99,-3.1,0.2,-0.1,660,0,,,,,,,,,,,,,,,,,,,
231514,1495236678959,,,,,,,,0.01,0.08,0.99,-3.0,0.2,-0.1,660,0,,,,,,,,,,,,,,,,,,,
231534,1495236678979,,,,,,,,0.01,0.08,0.99,-3.1,0.2,-0.2,660,0,,,,,,,,,,,,,,,,,,,
231554,1495236678993,,,,,,,,0.02,0.09,0.99,-3.1,0.3,-0.1,660,0,,,,,,,,,,,,,,,,,,,
231574,1495236679013,,,,,57,,,0.02,0.09,0.99,-3.1,0.2,-0.1,660,0,1,1,0.0,0,39.538654,-122.332306,0.0,0.002,251.0,7,2,2.5,0,0.0,-1,0.0,0.0,0.0,0
231594,1495236679033,,,,,,,,0.02,0.09,0.99,-3.1,0.3,-0.2,660,0,,,,,,,,,,,,,,,,,,,
231614,1495236679053,,,,,,,,0.02,0.09,0.99,-3.1,0.3,-0.1,660,0,,,,,,,,,,,,,,,,,,,
231634,1495236679073,,,,,,,,0.02,0.09,0.99,-3.1,0.3,-0.2,660,0,,,,,,,,,,,,,,,,,,,
231654,1495236679099,,,,,,,,0.02,0.09,0.99,-3.1,0.3,-0.2,660,0,,,,,,,,,,,,,,,,,,,
231674,1495236679119,0,102.6,,143.5,56,132.6,,0.02,0.09,0.99,-3.1,0.4,-0.2,660,0,1,1,0.0,0,39.538654,-122.332306,0.0,0.002,251.0,7,2,2.5,0,0.0,-1,0.0,0.0,0.0,0
231694,1495236679139,,,,,,,,0.02,0.08,0.99,-3.1,0.3,-0.2,660,0,,,,,,,,,,,,,,,,,,,
231714,1495236679159,,,,,,,,0.02,0.09,0.99,-3.1,0.4,-0.2,660,0,,,,,,,,,,,,,,,,,,,
231734,1495236679179,,,,,,,,0.02,0.09,0.99,-3.1,0.4,-0.2,660,0,,,,,,,,,,,,,,,,,,,
231754,1495236679199,,,,,,,,0.02,0.09,0.99,-3.1,0.4,-0.2,660,0,,,,,,,,,,,,,,,,,,,
231774,1495236679219,,,,,63,,,0.02,0.09,0.99,-3.1,0.4,-0.2,660,0,1,1,0.0,0,39.538654,-122.332306,0.0,0.002,251.0,7,2,2.5,0,0.0,-1,0.0,0.0,0.0,0
231794,1495236679239,,,,,,,,0.02,0.09,0.99,-3.1,0.5,-0.2,660,0,,,,,,,,,,,,,,,,,,,
231814,1495236679259,,,,,,,,0.02,0.09,0.99,-3.0,0.4,-0.3,660,0,,,,,,,,,,,,,,,,,,,
231834,1495236679279,,,,,,,,0.01,0.09,0.99,-3.0,0.5,-0.3,660,0,,,,,,,,,,,,,,,,,,,
231854,1495236679299,,,,,,,,0.02,0.09,0.99,-3.0,0.5,-0.2,660,0,,,,,,,,,,,,,,,,,,,
231874,1495236679319,0,103.2,,143.9,59,132.4,,0.02,0.09,0.99,-3.0,0.4,-0.2,660,0,1,1,0.0,0,39.538654,-122.332306,0.0,0.002,251.0,7,2,2.5,0,0.0,-1,0.0,0.0,0.0,0
231894,1495236679339,,,,,,,,0.01,0.09,0.99,-3.0,0.5,-0.2,660,0,,,,,,,,,,,,,,,,,,,
231914,1495236679359,,,,,,,,0.02,0.09,0.99,-3.0,0.4,-0.2,660,0,,,,,,,,,,,,,,,,,,,
231934,1495236679379,,,,,,,,0.01,0.09,0.99,-3.0,0.4,-0.2,660,0,,,,,,,,,,,,,,,,,,,
231954,1495236679398,,,,,,,,0.01,0.09,0.99,-3.0,0.4,-0.2,660,0,,,,,,,,,,,,,,,,,,,
231974,1495236679418,,,,,63,,,0.01,0.09,0.99,-3.0,0.4,-0.2,660,0,1,1,0.0,0,39.538654,-122.332306,0.0,0.002,251.0,7,2,2.5,0,0.0,-1,0.0,0.0,0.0,0
231994,1495236679438,,,,,,,,0.01,0.09,0.99,-3.0,0.3,-0.2,660,0,,,,,,,,,,,,,,,,,,,
232014,1495236679458,,,,,,,,0.01,0.09,0.99,-3.0,0.3,-0.2,660,0,,,,,,,,,,,,,,,,,,,
232034,1495236679478,,,,,,,,0.01,0.09,0.99,-3.0,0.3,-0.2,660,0,,,,,,,,,,,,,,,,,,,
232054,1495236679498,,,,,,,,0.01,0.09,0.99,-3.0,0.3,-0.2,660,0,,,,,,,,,,,,,,,,,,,
232074,1495236679518,0,103.5,-0.6,144.0,63,132.6,14.71,0.01,0.09,0.99,-3.0,0.2,-0.2,660,3,1,1,0.0,0,39.538654,-122.332306,0.0,0.002,251.0,7,2,2.5,0,0.0,-1,0.0,0.0,0.0,0
232094,1495236679538,,,,,,,,0.01,0.09,0.98,-3.0,0.1,-0.1,660,3,,,,,,,,,,,,,,,,,,,
232114,1495236679558,,,,,,,,0.01,0.09,0.99,-3.0,0.0,-0.1,680,3,,,,,,,,,,,,,,,,,,,
232134,1495236679578,,,,,,,,0.01,0.08,0.99,-3.0,0.0,-0.2,680,2,,,,,,,,,,,,,,,,,,,
232154,1495236679598,,,,,,,,0.02,0.09,0.99,-3.0,-0.1,-0.1,680,2,,,,,,,,,,,,,,,,,,,
232174,1495236679618,,,,,62,,,0.02,0.08,0.99,-3.0,-0.2,-0.1,660,2,1,1,680.0,0,39.538654,-122.332306,0.0,0.002,251.0,7,2,2.5,0,0.0,-1,0.0,0.0,0.0,0
232194,1495236679638,,,,,,,,0.02,0.08,0.99,-3.0,-0.2,-0.2,660,2,,,,,,,,,,,,,,,,,,,
232214,1495236679658,,,,,,,,0.02,0.09,0.99,-3.0,-0.2,-0.2,660,2,,,,,,,,,,,,,,,,,,,
232234,1495236679678,,,,,,,,0.02,0.08,0.99,-3.0,-0.3,-0.2,640,2,,,,,,,,,,,,,,,,,,,
232254,1495236679698,,,,,,,,0.02,0.08,0.99,-3.1,-0.3,-0.2,640,2,,,,,,,,,,,,,,,,,,,
232274,1495236679718,0,102.0,,143.0,55,131.5,,0.03,0.08,0.99,-3.1,-0.3,-0.2,640,2,1,1,640.0,0,39.538654,-122.332306,0.0,0.002,251.0,7,2,2.5,0,0.0,-1,0.0,0.0,0.0,0
232294,1495236679738,,,,,,,,0.03,0.08,0.98,-3.1,-0.3,-0.2,640,2,,,,,,,,,,,,,,,,,,,
232314,1495236679758,,,,,,,,0.03,0.08,0.98,-3.1,-0.3,-0.2,640,2,,,,,,,,,,,,,,,,,,,
232334,1495236679778,,,,,,,,0.03,0.08,0.98,-3.2,-0.3,-0.2,640,2,,,,,,,,,,,,,,,,,,,
232354,1495236679798,,,,,,,,0.03,0.07,0.98,-3.2,-0.3,-0.2,620,2,,,,,,,,,,,,,,,,,,,
232374,1495236679818,,,,,59,,,0.03,0.08,0.98,-3.2,-0.2,-0.1,620,2,1,1,620.0,0,39.538654,-122.332306,0.0,0.002,251.0,7,2,2.5,0,0.0,-1,0.0,0.0,0.0,0
232394,1495236679838,,,,,,,,0.04,0.08,0.98,-3.2,-0.2,-0.1,620,2,,,,,,,,,,,,,,,,,,,
232414,1495236679858,,,,,,,,0.04,0.07,0.99,-3.2,-0.1,-0.1,620,2,,,,,,,,,,,,,,,,,,,
232434,1495236679878,,,,,,,,0.04,0.08,0.99,-3.2,-0.1,-0.1,600,2,,,,,,,,,,,,,,,,,,,
232454,1495236679900,,,,,,,,0.04,0.08,0.98,-3.2,-0.2,-0.1,600,2,,,,,,,,,,,,,,,,,,,
232474,1495236679920,0,101.8,,143.2,52,132.0,,0.04,0.07,0.98,-3.2,-0.1,-0.2,600,5,1,1,600.0,0,39.538654,-122.332306,0.0,0.002,251.0,7,2,2.5,0,0.0,-1,0.0,0.0,0.0,0
232494,1495236679940,,,,,,,,0.04,0.08,0.98,-3.2,-0.1,-0.1,600,5,,,,,,,,,,,,,,,,,,,
232514,1495236679960,,,,,,,,0.04,0.08,0.98,-3.3,-0.1,-0.1,600,5,,,,,,,,,,,,,,,,,,,
232534,1495236679980,,,,,,,,0.04,0.08,0.98,-3.3,-0.0,-0.1,600,5,,,,,,,,,,,,,,,,,,,
232554,1495236679992,,,,,,,,0.04,0.08,0.98,-3.3,-0.1,-0.1,600,5,,,,,,,,,,,,,,,,,,,
232574,1495236680012,,,,,53,,,0.04,0.08,0.98,-3.3,-0.1,-0.1,600,5,1,1,150.0,0,39.538654,-122.332306,0.0,0.002,251.0,7,2,2.5,0,0.0,-1,0.0,0.0,0.0,0
232594,1495236680032,,,,,,,,0.04,0.08,0.99,-3.4,-0.0,-0.1,600,14,,,,,,,,,,,,,,,,,,,
232614,1495236680052,,,,,,,,0.04,0.08,0.98,-3.4,-0.1,-0.1,600,14,,,,,,,,,,,,,,,,,,,
232634,1495236680072,,,,,,,,0.04,0.08,0.98,-3.4,-0.0,-0.1,600,14,,,,,,,,,,,,,,,,,,,
232654,1495236680098,,,,,,,,0.04,0.09,0.98,-3.4,-0.1,-0.1,600,14,,,,,,,,,,,,,,,,,,,
232674,1495236680118,0,102.3,,143.4,58,132.2,,0.04,0.08,0.98,-3.4,-0.0,-0.1,600,15,1,1,46.154,0,39.538654,-122.332306,0.0,0.002,251.0,7,2,2.5,0,0.0,-1,0.0,0.0,0.0,0
232694,1495236680138,,,,,,,,0.04,0.09,0.99,-3.4,-0.1,-0.1,600,15,,,,,,,,,,,,,,,,,,,
232714,1495236680158,,,,,,,,0.04,0.08,0.98,-3.4,-0.1,-0.1,620,15,,,,,,,,,,,,,,,,,,,
232734,1495236680178,,,,,,,,0.04,0.09,0.99,-3.5,-0.0,-0.1,620,17,,,,,,,,,,,,,,,,,,,
232754,1495236680200,,,,,,,,0.05,0.1,0.98,-3.5,-0.0,-0.1,600,17,,,,,,,,,,,,,,,,,,,
232774,1495236680220,,,,,58,,,0.04,0.09,0.98,-3.5,-0.0,-0.1,600,17,1,1,37.5,0,39.538654,-122.332306,0.0,0.002,251.0,7,2,2.5,0,0.0,-1,0.0,0.0,0.0,0
232794,1495236680240,,,,,,,,0.04,0.09,0.99,-3.5,-0.0,-0.1,600,17,,,,,,,,,,,,,,,,,,,
232814,1495236680260,,,,,,,,0.04,0.09,0.98,-3.5,-0.1,-0.1,620,18,,,,,,,,,,,,,,,,,,,
232834,1495236680280,,,,,,,,0.04,0.08,0.98,-3.5,-0.1,-0.2,620,18,,,,,,,,,,,,,,,,,,,
232854,1495236680300,,,,,,,,0.04,0.08,0.98,-3.6,-0.0,-0.1,620,18,,,,,,,,,,,,,,,,,,,
232874,1495236680320,0,101.7,,143.1,56,131.9,,0.04,0.08,0.98,-3.5,-0.0,-0.1,640,18,1,1,34.444,0,39.538654,-122.332306,0.0,0.002,251.0,7,2,2.5,0,0.0,-1,0.0,0.0,0.0,0
232894,1495236680340,,,,,,,,0.03,0.08,0.98,-3.5,-0.0,-0.1,640,26,,,,,,,,,,,,,,,,,,,
232914,1495236680360,,,,,,,,0.04,0.09,0.98,-3.6,-0.0,-0.1,640,26,,,,,,,,,,,,,,,,,,,
232934,1495236680380,,,,,,,,0.04,0.08,0.98,-3.6,-0.0,-0.1,640,22,,,,,,,,,,,,,,,,,,,
232954,1495236680399,,,,,,,,0.04,0.09,0.98,-3.6,0.1,-0.1,640,22,,,,,,,,,,,,,,,,,,,
232974,1495236680419,,,,,62,,,0.04,0.09,0.98,-3.7,0.1,-0.1,640,22,1,1,30.476,0,39.538654,-122.332306,0.0,0.002,251.0,7,2,2.5,0,0.0,-1,0.0,0.0,0.0,0
232994,1495236680439,,,,,,,,0.04,0.09,0.98,-3.6,0.1,-0.1,640,22,,,,,,,,,,,,,,,,,,,
233014,1495236680459,,,,,,,,0.04,0.09,0.98,-3.7,0.1,-0.1,640,22,,,,,,,,,,,,,,,,,,,
233034,1495236680479,,,,,,,,0.04,0.1,0.98,-3.7,0.2,-0.1,660,22,,,,,,,,,,,,,,,,,,,
233054,1495236680499,,,,,,,,0.04,0.09,0.98,-3.7,0.1,-0.1,660,22,,,,,,,,,,,,,,,,,,,
233074,1495236680519,0,102.1,-0.6,143.3,60,131.7,14.75,0.04,0.09,0.99,-3.7,0.2,-0.2,660,34,1,1,31.429,0,39.538654,-122.332306,0.0,0.002,251.0,7,2,2.5,0,0.0,-1,0.0,0.0,0.0,0
233094,1495236680539,,,,,,,,0.04,0.09,0.98,-3.8,0.3,-0.1,680,34,,,,,,,,,,,,,,,,,,,
233114,1495236680559,,,,,,,,0.03,0.09,0.98,-3.8,0.3,-0.2,680,34,,,,,,,,,,,,,,,,,,,
233134,1495236680579,,,,,,,,0.03,0.09,0.98,-3.8,0.3,-0.2,680,20,,,,,,,,,,,,,,,,,,,
233154,1495236680599,,,,,,,,0.03,0.09,0.99,-3.8,0.4,-0.1,680,20,,,,,,,,,,,,,,,,,,,
233174,1495236680619,,,,,62,,,0.03,0.09,0.99,-3.8,0.5,-0.1,680,20,1,1,34.0,0,39.538654,-122.332306,0.0,0.002,251.0,7,2,2.5,0,0.0,-1,0.0,0.0,0.0,0
233194,1495236680639,,,,,,,,0.02,0.09,0.99,-3.8,0.5,-0.1,680,20,,,,,,,,,,,,,,,,,,,
233214,1495236680659,,,,,,,,0.02,0.09,0.98,-3.9,0.5,-0.0,700,20,,,,,,,,,,,,,,,,,,,
233234,1495236680679,,,,,,,,0.01,0.09,0.98,-3.9,0.4,-0.0,720,20,,,,,,,,,,,,,,,,,,,
233254,1495236680699,,,,,,,,0.01,0.08,0.98,-3.8,0.4,-0.0,720,17,,,,,,,,,,,,,,,,,,,
233274,1495236680719,0,103.2,,143.9,60,132.0,,0.01,0.08,0.98,-3.8,0.4,-0.0,720,17,1,1,45.0,0,39.538654,-122.332306,0.0,0.002,251.0,7,2,2.5,0,0.0,-1,0.0,0.0,0.0,0
233294,1495236680739,,,,,,,,0.01,0.08,0.99,-3.8,0.5,0.0,720,17,,,,,,,,,,,,,,,,,,,
233314,1495236680759,,,,,,,,0.01,0.09,0.99,-3.8,0.4,-0.0,740,17,,,,,,,,,,,,,,,,,,,
233334,1495236680779,,,,,,,,0.01,0.08,0.99,-3.8,0.4,-0.0,740,17,,,,,,,,,,,,,,,,,,,
233354,1495236680799,,,,,,,,0.01,0.08,0.99,-3.8,0.3,-0.0,740,17,,,,,,,,,,,,,,,,,,,
233374,1495236680819,,,,,59,,,0.01,0.08,0.99,-3.8,0.4,0.0,740,17,1,1,46.25,0,39.538654,-122.332306,0.0,0.002,251.0,7,2,2.5,0,0.0,-1,0.0,0.0,0.0,0
233394,1495236680839,,,,,,,,0.01,0.09,0.99,-3.8,0.3,0.0,760,17,,,,,,,,,,,,,,,,,,,
233414,1495236680859,,,,,,,,0.0,0.09,0.99,-3.7,0.4,-0.0,760,17,,,,,,,,,,,,,,,,,,,
233434,1495236680879,,,,,,,,0.0,0.08,0.99,-3.7,0.3,-0.0,760,17,,,,,,,,,,,,,,,,,,,
233454,1495236680899,,,,,,,,0.0,0.08,0.99,-3.7,0.4,0.0,760,17,,,,,,,,,,,,,,,,,,,
233474,1495236680919,0,102.7,,143.6,65,132.4,,0.0,0.08,0.99,-3.7,0.2,0.0,760,17,1,1,47.5,0,39.538654,-122.332306,0.0,0.002,251.0,7,2,2.5,0,0.0,-1,0.0,0.0,0.0,0
233494,1495236680939,,,,,,,,0.0,0.08,0.99,-3.7,0.3,-0.0,760,17,,,,,,,,,,,,,,,,,,,
233514,1495236680959,,,,,,,,0.0,0.08,0.99,-3.7,0.3,-0.1,760,5,,,,,,,,,,,,,,,,,,,
233534,1495236680979,,,,,,,,0.0,0.08,0.98,-3.6,0.3,-0.0,760,5,,,,,,,,,,,,,,,,,,,
233554,1495236680993,,,,,,,,0.0,0.08,0.98,-3.6,0.2,-0.0,780,5,,,,,,,,,,,,,,,,,,,
233574,1495236681013,,,,,57,,,-0.0,0.08,0.99,-3.6,0.2,-0.1,760,5,1,1,195.0,0,39.538654,-122.332306,0.0,0.002,251.0,7,2,2.5,0,0.0,-1,0.0,0.0,0.0,0
233594,1495236681033,,,,,,,,-0.0,0.08,0.99,-3.5,0.2,-0.1,780,17,,,,,,,,,,,,,,,,,,,
233614,1495236681053,,,,,,,,-0.0,0.08,0.98,-3.5,0.2,-0.1,780,17,,,,,,,,,,,,,,,,,,,
233634,1495236681073,,,,,,,,0.0,0.08,0.98,-3.5,0.2,-0.0,780,17,,,,,,,,,,,,,,,,,,,
233654,1495236681099,,,,,,,,-0.0,0.09,0.99,-3.5,0.1,-0.0,780,17,,,,,,,,,,,,,,,,,,,
233674,1495236681119,0,102.1,,143.3,58,131.7,,-0.0,0.08,0.99,-3.5,0.2,-0.1,780,17,1,1,48.75,0,39.538654,-122.332306,0.0,0.002,251.0,7,2,2.5,0,0.0,-1,0.0,0.0,0.0,0
233694,1495236681139,,,,,,,,-0.0,0.09,0.99,-3.5,0.1,-0.1,780,15,,,,,,,,,,,,,,,,,,,
233714,1495236681159,,,,,,,,0.0,0.09,0.99,-3.5,0.2,-0.1,780,15,,,,,,,,,,,,,,,,,,,
233734,1495236681179,,,,,,,,0.01,0.09,0.99,-3.5,0.2,-0.0,800,15,,,,,,,,,,,,,,,,,,,
233754,1495236681199,,,,,,,,0.0,0.09,0.99,-3.5,0.1,-0.1,800,15,,,,,,,,,,,,,,,,,,,
233774,1495236681219,,,,,59,,,0.0,0.09,0.99,-3.5,0.1,-0.1,800,15,1,1,53.333,0,39.538654,-122.332306,0.0,0.002,251.0,7,2,2.5,0,0.0,-1,0.0,0.0,0.0,0
233794,1495236681239,,,,,,,,0.0,0.09,0.99,-3.4,0.0,-0.2,800,15,,,,,,,,,,,,,,,,,,,
233814,1495236681259,,,,,,,,0.0,0.08,0.99,-3.4,-0.0,-0.1,800,12,,,,,,,,,,,,,,,,,,,
233834,1495236681279,,,,,,,,0.0,0.08,0.99,-3.4,-0.0,-0.1,780,12,,,,,,,,,,,,,,,,,,,
233854,1495236681299,,,,,,,,-0.0,0.09,1.0,-3.3,-0.0,-0.1,800,12,,,,,,,,,,,,,,,,,,,
233874,1495236681319,0,102.6,,143.7,59,132.4,,0.0,0.08,1.0,-3.3,0.1,-0.2,780,12,1,1,66.667,0,39.538654,-122.332306,0.0,0.002,251.0,7,2,2.5,0,0.0,-1,0.0,0.0,0.0,0
233894,1495236681339,,,,,,,,-0.0,0.08,1.0,-3.3,-0.0,-0.2,780,12,,,,,,,,,,,,,,,,,,,
233914,1495236681359,,,,,,,,-0.0,0.08,0.99,-3.3,-0.0,-0.2,780,12,,,,,,,,,,,,,,,,,,,
233934,1495236681379,,,,,,,,-0.0,0.08,0.99,-3.3,0.0,-0.1,780,12,,,,,,,,,,,,,,,,,,,
233954,1495236681396,,,,,,,,-0.01,0.08,0.99,-3.3,-0.1,-0.1,780,12,,,,,,,,,,,,,,,,,,,
233974,1495236681416,,,,,59,,,-0.01,0.08,0.99,-3.3,0.1,-0.2,760,12,1,1,65.0,0,39.538654,-122.332306,0.0,0.002,251.0,7,2,2.5,0,0.0,-1,0.0,0.0,0.0,0
233994,1495236681436,,,,,,,,-0.01,0.08,0.99,-3.3,-0.0,-0.2,760,12,,,,,,,,,,,,,,,,,,,
234014,1495236681456,,,,,,,,-0.01,0.08,0.99,-3.3,-0.0,-0.2,760,12,,,,,,,,,,,,,,,,,,,
234034,1495236681476,,,,,,,,-0.01,0.09,0.99,-3.3,-0.0,-0.2,760,12,,,,,,,,,,,,,,,,,,,
234054,1495236681498,,,,,,,,-0.01,0.08,0.99,-3.3,-0.0,-0.2,760,12,,,,,,,,,,,,,,,,,,,
234074,1495236681518,0,102.0,-0.6,143.3,57,132.0,14.61,-0.01,0.08,0.99,-3.2,-0.1,-0.2,760,12,1,1,63.333,0,39.538654,-122.332306,0.0,0.002,251.0,7,2,2.5,0,0.0,-1,0.0,0.0,0.0,0
234094,1495236681538,,,,,,,,-0.01,0.08,0.99,-3.2,-0.1,-0.2,740,12,,,,,,,,,,,,,,,,,,,
234114,1495236681558,,,,,,,,-0.01,0.08,0.98,-3.2,-0.0,-0.2,740,12,,,,,,,,,,,,,,,,,,,
234134,1495236681578,,,,,,,,-0.01,0.08,0.99,-3.2,-0.1,-0.2,740,12,,,,,,,,,,,,,,,,,,,
234154,1495236681598,,,,,,,,-0.01,0.08,0.99,-3.2,-0.0,-0.2,740,12,,,,,,,,,,,,,,,,,,,
234174,1495236681618,,,,,60,,,-0.01,0.08,0.98,-3.2,-0.1,-0.2,740,12,1,1,61.667,0,39.538654,-122.332306,0.0,0.002,251.0,7,2,2.5,0,0.0,-1,0.0,0.0,0.0,0
234194,1495236681638,,,,,,,,-0.0,0.09,0.98,-3.2,-0.1,-0.1,740,12,,,,,,,,,,,,,,,,,,,
234214,1495236681658,,,,,,,,-0.0,0.09,0.98,-3.2,-0.1,-0.2,740,12,,,,,,,,,,,,,,,,,,,
234234,1495236681678,,,,,,,,-0.0,0.09,0.98,-3.2,-0.1,-0.2,740,12,,,,,,,,,,,,,,,,,,,
234254,1495236681698,,,,,,,,0.0,0.09,0.98,-3.2,-0.1,-0.2,720,12,,,,,,,,,,,,,,,,,,,
234274,1495236681718,0,103.5,,144.2,53,132.6,,0.0,0.09,0.98,-3.2,-0.1,-0.1,720,12,1,1,60.0,0,39.538654,-122.332306,0.0,0.002,251.0,7,2,2.5,0,0.0,-1,0.0,0.0,0.0,0
234294,1495236681738,,,,,,,,0.01,0.08,0.98,-3.1,-0.2,-0.1,720,12,,,,,,,,,,,,,,,,,,,
234314,1495236681758,,,,,,,,0.01,0.08,0.98,-3.1,-0.1,-0.1,720,12,,,,,,,,,,,,,,,,,,,
234334,1495236681778,,,,,,,,0.01,0.09,0.98,-3.1,-0.1,-0.1,720,12,,,,,,,,,,,,,,,,,,,
234354,1495236681798,,,,,,,,0.01,0.08,0.98,-3.1,-0.1,-0.1,720,12,,,,,,,,,,,,,,,,,,,
234374,1495236681818,,,,,56,,,0.01,0.08,0.98,-3.0,-0.1,-0.1,720,12,1,1,60.0,0,39.538654,-122.332306,0.0,0.002,251.0,7,2,2.5,0,0.0,-1,0.0,0.0,0.0,0
234394,1495236681838,,,,,,,,0.01,0.09,0.98,-3.0,-0.1,-0.1,720,12,,,,,,,,,,,,,,,,,,,
234414,1495236681858,,,,,,,,0.02,0.09,0.98,-3.1,-0.0,-0.1,700,12,,,,,,,,,,,,,,,,,,,
234434,1495236681878,,,,,,,,0.01,0.09,0.98,-3.1,-0.0,-0.1,700,12,,,,,,,,,,,,,,,,,,,
234454,1495236681898,,,,,,,,0.01,0.09,0.98,-3.1,-0.0,-0.1,700,12,,,,,,,,,,,,,,,,,,,
234474,1495236681918,0,103.3,,144.1,52,132.1,,0.01,0.09,0.98,-3.1,-0.1,-0.1,700,12,1,1,58.333,0,39.538654,-122.332306,0.0,0.002,251.0,7,2,2.5,0,0.0,-1,0.0,0.0,0.0,0
234494,1495236681938,,,,,,,,0.01,0.09,0.98,-3.1,-0.1,-0.1,700,12,,,,,,,,,,,,,,,,,,,
234514,1495236681958,,,,,,,,0.01,0.08,0.98,-3.1,-0.1,-0.2,700,12,,,,,,,,,,,,,,,,,,,
234534,1495236681978,,,,,,,,0.01,0.08,0.98,-3.0,-0.1,-0.2,700,12,,,,,,,,,,,,,,,,,,,
234554,1495236681994,,,,,,,,0.02,0.09,0.98,-3.0,-0.1,-0.1,700,12,,,,,,,,,,,,,,,,,,,
234574,1495236682014,,,,,57,,,0.02,0.08,0.98,-3.0,-0.1,-0.2,700,12,1,1,58.333,0,39.538654,-122.332306,0.0,0.002,251.0,7,2,2.5,0,0.0,-1,0.0,0.0,0.0,0
234594,1495236682034,,,,,,,,0.02,0.08,0.98,-3.0,-0.1,-0.2,700,12,,,,,,,,,,,,,,,,,,,
234614,1495236682054,,,,,,,,0.02,0.08,0.98,-3.0,-0.0,-0.1,700,12,,,,,,,,,,,,,,,,,,,
234634,1495236682074,,,,,,,,0.01,0.08,0.98,-3.0,-0.1,-0.1,700,769231,,,,,,,,,,,,,,,,,,,
234654,1495236682100,,,,,,,,0.01,0.08,0.99,-3.0,-0.1,-0.2,700,0,,,,,,,,,,,,,,,,,,,
234674,1495236682120,0,103.5,,144.1,53,132.5,,0.02,0.08,0.98,-3.0,-0.1,-0.1,700,0,1,1,0.0,0,39.538654,-122.332306,0.0,0.002,251.0,7,2,2.5,0,0.0,-1,0.0,0.0,0.0,0
234694,1495236682140,,,,,,,,0.02,0.08,0.98,-3.0,-0.0,-0.1,700,0,,,,,,,,,,,,,,,,,,,
234714,1495236682160,,,,,,,,0.02,0.08,0.99,-3.0,-0.0,-0.1,700,0,,,,,,,,,,,,,,,,,,,
234734,1495236682180,,,,,,,,0.02,0.08,0.99,-3.0,0.1,-0.1,700,0,,,,,,,,,,,,,,,,,,,
234754,1495236682200,,,,,,,,0.02,0.08,0.99,-3.0,0.1,-0.1,700,0,,,,,,,,,,,,,,,,,,,
234774,1495236682220,,,,,55,,,0.01,0.08,0.99,-3.0,0.1,-0.1,700,0,1,1,0.0,0,39.538654,-122.332306,0.0,0.002,251.0,7,2,2.5,0,0.0,-1,0.0,0.0,0.0,0
234794,1495236682240,,,,,,,,0.01,0.08,0.99,-3.0,0.0,-0.2,700,0,,,,,,,,,,,,,,,,,,,
234814,1495236682260,,,,,,,,0.02,0.09,0.99,-3.0,0.0,-0.2,700,0,,,,,,,,,,,,,,,,,,,
234834,1495236682280,,,,,,,,0.02,0.09,0.99,-3.0,0.0,-0.1,720,0,,,,,,,,,,,,,,,,,,,
234854,1495236682300,,,,,,,,0.02,0.09,0.99,-3.0,-0.0,-0.2,700,0,,,,,,,,,,,,,,,,,,,
234874,1495236682320,0,103.5,,144.2,58,132.5,,0.01,0.08,0.99,-3.0,0.0,-0.2,700,0,1,1,0.0,0,39.538654,-122.332306,0.0,0.002,251.0,7,2,2.5,0,0.0,-1,0.0,0.0,0.0,0
234894,1495236682340,,,,,,,,0.02,0.08,0.99,-3.0,0.0,-0.2,700,0,,,,,,,,,,,,,,,,,,,
234914,1495236682360,,,,,,,,0.01,0.08,0.99,-3.0,0.1,-0.2,700,0,,,,,,,,,,,,,,,,,,,
234934,1495236682380,,,,,,,,0.01,0.08,0.99,-3.0,0.1,-0.2,700,0,,,,,,,,,,,,,,,,,,,
234954,1495236682399,,,,,,,,0.01,0.08,0.99,-3.0,0.0,-0.2,700,0,,,,,,,,,,,,,,,,,,,
234974,1495236682419,,,,,55,,,0.02,0.08,0.98,-3.0,0.1,-0.1,720,0,1,1,0.0,0,39.538654,-122.332306,0.0,0.002,251.0,7,2,2.5,0,0.0,-1,0.0,0.0,0.0,0
234994,1495236682439,,,,,,,,0.01,0.08,0.99,-3.0,0.1,-0.2,720,0,,,,,,,,,,,,,,,,,,,
235014,1495236682459,,,,,,,,0.01,0.08,0.99,-3.1,0.1,-0.2,720,0,,,,,,,,,,,,,,,,,,,
235034,1495236682479,,,,,,,,0.01,0.08,0.98,-3.1,0.0,-0.2,720,0,,,,,,,,,,,,,,,,,,,
235054,1495236682499,,,,,,,,0.01,0.08,0.98,-3.1,-0.0,-0.2,720,0,,,,,,,,,,,,,,,,,,,
235074,1495236682519,0,103.2,-0.8,144.0,58,132.0,14.71,0.01,0.08,0.98,-3.1,-0.1,-0.2,720,0,1,1,0.0,0,39.538654,-122.332306,0.0,0.002,251.0,7,2,2.5,0,0.0,-1,0.0,0.0,0.0,0
235094,1495236682539,,,,,,,,0.01,0.08,0.98,-3.1,-0.0,-0.2,720,0,,,,,,,,,,,,,,,,,,,
235114,1495236682559,,,,,,,,0.01,0.08,0.98,-3.1,0.0,-0.2,700,0,,,,,,,,,,,,,,,,,,,
235134,1495236682579,,,,,,,,0.01,0.08,0.99,-3.0,0.1,-0.2,700,0,,,,,,,,,,,,,,,,,,,
235154,1495236682597,,,,,,,,0.01,0.08,0.99,-3.0,0.1,-0.2,700,0,,,,,,,,,,,,,,,,,,,
235174,1495236682617,,,,,57,,,0.01,0.08,0.99,-3.0,0.1,-0.2,720,0,1,1,0.0,0,39.538654,-122.332306,0.0,0.002,251.0,7,2,2.5,0,0.0,-1,0.0,0.0,0.0,0
235194,1495236682637,,,,,,,,0.02,0.09,0.98,-3.1,0.0,-0.1,720,0,,,,,,,,,,,,,,,,,,,
235214,1495236682657,,,,,,,,0.02,0.08,0.98,-3.1,0.0,-0.2,720,0,,,,,,,,,,,,,,,,,,,
235234,1495236682677,,,,,,,,0.02,0.08,0.99,-3.1,0.1,-0.2,720,0,,,,,,,,,,,,,,,,,,,
235254,1495236682699,,,,,,,,0.02,0.08,0.98,-3.1,0.0,-0.1,720,0,,,,,,,,,,,,,,,,,,,
235274,1495236682719,0,101.8,,143.4,57,132.0,,0.02,0.08,0.98,-3.0,0.0,-0.2,700,0,1,1,0.0,0,39.538654,-122.332306,0.0,0.002,251.0,7,2,2.5,0,0.0,-1,0.0,0.0,0.0,0
235294,1495236682739,,,,,,,,0.01,0.08,0.99,-3.0,0.0,-0.2,700,0,,,,,,,,,,,,,,,,,,,
235314,1495236682759,,,,,,,,0.02,0.08,0.99,-3.0,0.1,-0.2,720,0,,,,,,,,,,,,,,,,,,,
235334,1495236682779,,,,,,,,0.02,0.08,0.98,-3.0,0.1,-0.1,720,0,,,,,,,,,,,,,,,,,,,
235354,1495236682799,,,,,,,,0.02,0.08,0.99,-3.0,0.1,-0.2,720,0,,,,,,,,,,,,,,,,,,,
235374,1495236682819,,,,,60,,,0.02,0.09,0.99,-3.1,0.1,-0.2,720,0,1,1,0.0,0,39.538654,-122.332306,0.0,0.002,251.0,7,2,2.5,0,0.0,-1,0.0,0.0,0.0,0
235394,1495236682839,,,,,,,,0.02,0.08,0.99,-3.1,0.1,-0.2,720,0,,,,,,,,,,,,,,,,,,,
235414,1495236682859,,,,,,,,0.01,0.08,0.98,-3.1,0.1,-0.2,700,0,,,,,,,,,,,,,,,,,,,
235434,1495236682879,,,,,,,,0.01,0.08,0.98,-3.0,0.0,-0.2,700,0,,,,,,,,,,,,,,,,,,,
235454,1495236682899,,,,,,,,0.01,0.08,0.98,-3.0,0.0,-0.2,700,0,,,,,,,,,,,,,,,,,,,
235474,1495236682919,0,102.8,,144.0,52,132.5,,0.02,0.08,0.98,-3.0,0.1,-0.2,700,0,1,1,0.0,0,39.538654,-122.332306,0.0,0.002,251.0,7,2,2.5,0,0.0,-1,0.0,0.0,0.0,0
235494,1495236682939,,,,,,,,0.02,0.08,0.98,-3.0,0.1,-0.2,700,0,,,,,,,,,,,,,,,,,,,
235514,1495236682959,,,,,,,,0.01,0.08,0.98,-3.0,0.2,-0.2,700,0,,,,,,,,,,,,,,,,,,,
235534,1495236682979,,,,,,,,0.01,0.08,0.98,-3.1,0.1,-0.2,700,0,,,,,,,,,,,,,,,,,,,
235554,1495236682993,,,,,,,,0.01,0.08,0.98,-3.1,0.1,-0.2,700,0,,,,,,,,,,,,,,,,,,,
235574,1495236683013,,,,,56,,,0.01,0.08,0.98,-3.0,0.0,-0.2,700,0,1,1,0.0,0,39.538654,-122.332306,0.0,0.002,251.0,7,2,2.5,0,0.0,-1,0.0,0.0,0.0,0
235594,1495236683033,,,,,,,,0.01,0.08,0.99,-3.1,0.1,-0.2,700,0,,,,,,,,,,,,,,,,,,,
235614,1495236683053,,,,,,,,0.02,0.09,0.99,-3.1,0.1,-0.2,700,0,,,,,,,,,,,,,,,,,,,
235634,1495236683073,,,,,,,,0.02,0.09,0.99,-3.0,0.0,-0.2,700,0,,,,,,,,,,,,,,,,,,,
235654,1495236683099,,,,,,,,0.02,0.09,0.99,-3.0,0.1,-0.2,700,0,,,,,,,,,,,,,,,,,,,
235674,1495236683119,0,102.3,,143.6,58,132.2,,0.01,0.08,0.99,-3.1,0.1,-0.1,700,0,1,1,0.0,0,39.538654,-122.332306,0.0,0.002,251.0,7,2,2.5,0,0.0,-1,0.0,0.0,0.0,0
235694,1495236683139,,,,,,,,0.01,0.09,0.99,-3.0,0.1,-0.2,700,0,,,,,,,,,,,,,,,,,,,
235714,1495236683159,,,,,,,,0.01,0.08,0.99,-3.0,0.1,-0.2,700,0,,,,,,,,,,,,,,,,,,,
235734,1495236683179,,,,,,,,0.01,0.09,0.99,-3.0,-0.0,-0.2,700,0,,,,,,,,,,,,,,,,,,,
235754,1495236683199,,,,,,,,0.01,0.09,0.98,-3.0,-0.0,-0.2,700,0,,,,,,,,,,,,,,,,,,,
235774,1495236683219,,,,,58,,,0.01,0.09,0.98,-3.0,-0.0,-0.2,700,0,1,1,0.0,0,39.538654,-122.332306,0.0,0.002,251.0,7,2,2.5,0,0.0,-1,0.0,0.0,0.0,0
235794,1495236683239,,,,,,,,0.01,0.08,0.98,-3.0,0.1,-0.2,700,0,,,,,,,,,,,,,,,,,,,
235814,1495236683259,,,,,,,,0.02,0.08,0.99,-3.0,0.1,-0.2,700,0,,,,,,,,,,,,,,,,,,,
235834,1495236683279,,,,,,,,0.01,0.08,0.99,-3.0,0.1,-0.2,700,0,,,,,,,,,,,,,,,,,,,
235854,1495236683299,,,,,,,,0.01,0.08,0.99,-3.0,0.1,-0.2,700,0,,,,,,,,,,,,,,,,,,,
235874,1495236683319,0,102.0,,143.5,58,131.9,,0.01,0.09,0.99,-3.0,0.0,-0.2,700,0,1,1,0.0,0,39.538654,-122.332306,0.0,0.002,251.0,7,2,2.5,0,0.0,-1,0.0,0.0,0.0,0
235894,1495236683339,,,,,,,,0.01,0.09,0.98,-3.0,-0.1,-0.2,700,0,,,,,,,,,,,,,,,,,,,
235914,1495236683359,,,,,,,,0.01,0.08,0.98,-3.0,-0.1,-0.2,700,0,,,,,,,,,,,,,,,,,,,
235934,1495236683379,,,,,,,,0.02,0.08,0.98,-3.0,-0.0,-0.2,700,0,,,,,,,,,,,,,,,,,,,
235954,1495236683398,,,,,,,,0.02,0.08,0.98,-3.0,0.0,-0.2,700,0,,,,,,,,,,,,,,,,,,,
235974,1495236683418,,,,,54,,,0.02,0.08,0.98,-3.0,0.1,-0.2,700,0,1,1,0.0,0,39.538654,-122.332306,0.0,0.002,251.0,7,2,2.5,0,0.0,-1,0.0,0.0,0.0,0
235994,1495236683438,,,,,,,,0.01,0.08,0.99,-3.0,0.1,-0.3,700,0,,,,,,,,,,,,,,,,,,,
236014,1495236683458,,,,,,,,0.01,0.08,0.98,-3.0,0.0,-0.2,700,0,,,,,,,,,,,,,,,,,,,
236034,1495236683478,,,,,,,,0.02,0.09,0.98,-3.0,-0.0,-0.2,700,0,,,,,,,,,,,,,,,,,,,
236054,1495236683498,,,,,,,,0.02,0.08,0.98,-3.0,-0.1,-0.2,700,0,,,,,,,,,,,,,,,,,,,
236074,1495236683518,0,103.3,-0.5,144.4,61,132.3,14.73,0.02,0.08,0.98,-3.0,-0.0,-0.2,700,0,1,1,0.0,0,39.538654,-122.332306,0.0,0.002,251.0,7,2,2.5,0,0.0,-1,0.0,0.0,0.0,0
236094,1495236683538,,,,,,,,0.02,0.09,0.98,-3.0,0.0,-0.2,700,0,,,,,,,,,,,,,,,,,,,
236114,1495236683558,,,,,,,,0.02,0.08,0.99,-3.0,0.1,-0.2,700,0,,,,,,,,,,,,,,,,,,,
236134,1495236683578,,,,,,,,0.02,0.08,0.98,-3.0,0.1,-0.2,700,0,,,,,,,,,,,,,,,,,,,
236154,1495236683598,,,,,,,,0.02,0.09,0.98,-3.1,0.1,-0.2,700,0,,,,,,,,,,,,,,,,,,,
236174,1495236683618,,,,,60,,,0.02,0.09,0.98,-3.0,-0.0,-0.1,700,0,1,1,0.0,0,39.538654,-122.332306,0.0,0.002,251.0,7,2,2.5,0,0.0,-1,0.0,0.0,0.0,0
236194,1495236683638,,,,,,,,0.02,0.08,0.98,-3.0,-0.1,-0.2,700,0,,,,,,,,,,,,,,,,,,,
236214,1495236683658,,,,,,,,0.02,0.08,0.98,-3.0,-0.0,-0.2,700,0,,,,,,,,,,,,,,,,,,,
236234,1495236683678,,,,,,,,0.02,0.09,0.98,-3.0,0.0,-0.2,700,0,,,,,,,,,,,,,,,,,,,
236254,1495236683698,,,,,,,,0.02,0.08,0.98,-3.0,0.1,-0.2,700,0,,,,,,,,,,,,,,,,,,,
236274,1495236683718,0,102.0,,143.6,61,131.8,,0.02,0.08,0.98,-3.0,0.1,-0.2,700,0,1,1,0.0,0,39.538654,-122.332306,0.0,0.002,251.0,7,2,2.5,0,0.0,-1,0.0,0.0,0.0,0
236294,1495236683738,,,,,,,,0.01,0.08,0.98,-3.1,0.0,-0.2,700,0,,,,,,,,,,,,,,,,,,,
236314,1495236683758,,,,,,,,0.01,0.08,0.98,-3.1,-0.0,-0.2,700,0,,,,,,,,,,,,,,,,,,,
236334,1495236683778,,,,,,,,0.02,0.08,0.98,-3.0,-0.1,-0.2,700,0,,,,,,,,,,,,,,,,,,,
236354,1495236683798,,,,,,,,0.02,0.08,0.98,-3.0,-0.1,-0.2,700,0,,,,,,,,,,,,,,,,,,,
236374,1495236683818,,,,,57,,,0.02,0.08,0.98,-3.1,0.0,-0.2,700,0,1,1,0.0,0,39.538654,-122.332306,0.0,0.002,251.0,7,2,2.5,0,0.0,-1,0.0,0.0,0.0,0
236394,1495236683838,,,,,,,,0.02,0.08,0.98,-3.0,0.0,-0.2,700,0,,,,,,,,,,,,,,,,,,,
236414,1495236683858,,,,,,,,0.02,0.08,0.98,-3.1,0.1,-0.2,700,0,,,,,,,,,,,,,,,,,,,
236434,1495236683878,,,,,,,,0.02,0.08,0.98,-3.1,0.1,-0.2,700,0,,,,,,,,,,,,,,,,,,,
236454,1495236683898,,,,,,,,0.01,0.08,0.99,-3.1,0.1,-0.2,700,0,,,,,,,,,,,,,,,,,,,
236474,1495236683918,0,102.0,,143.6,56,132.0,,0.01,0.08,0.98,-3.0,0.1,-0.2,700,0,1,1,0.0,0,39.538654,-122.332306,0.0,0.002,251.0,7,2,2.5,0,0.0,-1,0.0,0.0,0.0,0
236494,1495236683938,,,,,,,,0.01,0.08,0.98,-3.0,0.1,-0.2,700,0,,,,,,,,,,,,,,,,,,,
236514,1495236683958,,,,,,,,0.02,0.08,0.98,-3.1,0.1,-0.2,700,0,,,,,,,,,,,,,,,,,,,
236534,1495236683978,,,,,,,,0.02,0.08,0.98,-3.0,0.1,-0.2,700,0,,,,,,,,,,,,,,,,,,,
236554,1495236683994,,,,,,,,0.02,0.08,0.98,-3.1,0.2,-0.2,700,0,,,,,,,,,,,,,,,,,,,
236574,1495236684014,,,,,54,,,0.02,0.08,0.98,-3.1,0.2,-0.2,700,0,1,1,0.0,0,39.538654,-122.332306,0.0,0.002,251.0,7,2,2.5,0,0.0,-1,0.0,0.0,0.0,0
236594,1495236684034,,,,,,,,0.02,0.08,0.98,-3.0,0.2,-0.2,700,0,,,,,,,,,,,,,,,,,,,
236614,1495236684054,,,,,,,,0.01,0.08,0.98,-3.0,0.2,-0.2,700,0,,,,,,,,,,,,,,,,,,,
236634,1495236684074,,,,,,,,0.01,0.08,0.98,-3.1,0.1,-0.2,700,0,,,,,,,,,,,,,,,,,,,
236654,1495236684100,,,,,,,,0.01,0.08,0.98,-3.1,0.0,-0.1,700,0,,,,,,,,,,,,,,,,,,,
236674,1495236684120,0,103.2,,144.4,55,132.7,,0.02,0.08,0.98,-3.1,0.0,-0.2,700,0,1,1,0.0,0,39.538654,-122.332306,0.0,0.002,251.0,7,2,2.5,0,0.0,-1,0.0,0.0,0.0,0
236694,1495236684140,,,,,,,,0.02,0.08,0.98,-3.1,0.1,-0.2,700,0,,,,,,,,,,,,,,,,,,,
236714,1495236684160,,,,,,,,0.02,0.08,0.98,-3.1,0.1,-0.1,700,0,,,,,,,,,,,,,,,,,,,
236734,1495236684180,,,,,,,,0.02,0.08,0.98,-3.0,0.2,-0.2,700,0,,,,,,,,,,,,,,,,,,,
236754,1495236684200,,,,,,,,0.01,0.08,0.98,-3.0,0.2,-0.2,700,0,,,,,,,,,,,,,,,,,,,
236774,1495236684220,,,,,53,,,0.01,0.08,0.98,-3.1,0.1,-0.2,700,0,1,1,0.0,0,39.538654,-122.332306,0.0,0.002,251.0,7,2,2.5,0,0.0,-1,0.0,0.0,0.0,0
236794,1495236684240,,,,,,,,0.01,0.08,0.98,-3.1,0.0,-0.2,700,0,,,,,,,,,,,,,,,,,,,
236814,1495236684260,,,,,,,,0.01,0.08,0.98,-3.0,0.0,-0.2,700,0,,,,,,,,,,,,,,,,,,,
236834,1495236684280,,,,,,,,0.02,0.08,0.98,-3.0,0.1,-0.2,700,0,,,,,,,,,,,,,,,,,,,
236854,1495236684300,,,,,,,,0.02,0.08,0.98,-3.0,0.1,-0.2,700,0,,,,,,,,,,,,,,,,,,,
236874,1495236684320,0,102.6,,144.1,58,132.4,,0.02,0.08,0.98,-3.0,0.2,-0.2,700,0,1,1,0.0,0,39.538654,-122.332306,0.0,0.002,251.0,7,2,2.5,0,0.0,-1,0.0,0.0,0.0,0
236894,1495236684340,,,,,,,,0.02,0.08,0.99,-3.0,0.2,-0.2,700,0,,,,,,,,,,,,,,,,,,,
236914,1495236684360,,,,,,,,0.02,0.08,0.99,-3.1,0.2,-0.2,700,0,,,,,,,,,,,,,,,,,,,
236934,1495236684380,,,,,,,,0.02,0.08,0.99,-3.1,0.1,-0.1,700,0,,,,,,,,,,,,,,,,,,,
236954,1495236684399,,,,,,,,0.02,0.08,0.99,-3.0,0.1,-0.2,700,0,,,,,,,,,,,,,,,,,,,
236974,1495236684419,,,,,57,,,0.02,0.09,0.99,-3.1,0.0,-0.2,700,0,1,1,0.0,0,39.538654,-122.332306,0.0,0.002,251.0,7,2,2.5,0,0.0,-1,0.0,0.0,0.0,0
236994,1495236684439,,,,,,,,0.02,0.09,0.99,-3.1,0.0,-0.1,700,0,,,,,,,,,,,,,,,,,,,
237014,1495236684459,,,,,,,,0.02,0.09,0.99,-3.1,0.1,-0.2,700,0,,,,,,,,,,,,,,,,,,,
237034,1495236684479,,,,,,,,0.02,0.08,0.99,-3.1,0.1,-0.2,700,0,,,,,,,,,,,,,,,,,,,
237054,1495236684499,,,,,,,,0.02,0.08,0.99,-3.1,0.1,-0.2,700,0,,,,,,,,,,,,,,,,,,,
237074,1495236684519,0,103.5,-0.3,144.5,52,132.7,14.75,0.01,0.08,0.99,-3.0,0.1,-0.2,700,0,1,1,0.0,0,39.538654,-122.332306,0.0,0.002,251.0,7,2,2.5,0,0.0,-1,0.0,0.0,0.0,0
237094,1495236684539,,,,,,,,0.01,0.08,0.99,-3.0,0.1,-0.2,700,0,,,,,,,,,,,,,,,,,,,
237114,1495236684559,,,,,,,,0.01,0.08,0.99,-3.0,0.1,-0.1,700,0,,,,,,,,,,,,,,,,,,,
237134,1495236684579,,,,,,,,0.02,0.09,0.98,-3.1,-0.0,-0.1,700,0,,,,,,,,,,,,,,,,,,,
237154,1495236684599,,,,,,,,0.02,0.08,0.98,-3.0,-0.0,-0.1,700,0,,,,,,,,,,,,,,,,,,,
237174,1495236684619,,,,,51,,,0.02,0.09,0.98,-3.0,0.0,-0.1,700,0,1,1,0.0,0,39.538654,-122.332306,0.0,0.002,251.0,7,2,2.5,0,0.0,-1,0.0,0.0,0.0,0
237194,1495236684639,,,,,,,,0.02,0.09,0.99,-3.0,0.1,-0.1,700,0,,,,,,,,,,,,,,,,,,,
237214,1495236684659,,,,,,,,0.02,0.08,0.99,-3.0,0.1,-0.2,700,0,,,,,,,,,,,,,,,,,,,
237234,1495236684679,,,,,,,,0.02,0.08,0.99,-3.0,0.1,-0.2,700,0,,,,,,,,,,,,,,,,,,,
237254,1495236684699,,,,,,,,0.02,0.09,0.99,-3.1,0.1,-0.1,700,0,,,,,,,,,,,,,,,,,,,
237274,1495236684719,0,103.2,,144.3,59,132.0,,0.02,0.09,0.98,-3.1,0.0,-0.1,700,0,1,1,0.0,0,39.538654,-122.332306,0.0,0.002,251.0,7,2,2.5,0,0.0,-1,0.0,0.0,0.0,0
237294,1495236684739,,,,,,,,0.02,0.09,0.98,-3.0,-0.0,-0.2,700,0,,,,,,,,,,,,,,,,,,,
237314,1495236684759,,,,,,,,0.02,0.09,0.98,-3.1,0.1,-0.2,700,0,,,,,,,,,,,,,,,,,,,
237334,1495236684779,,,,,,,,0.02,0.09,0.98,-3.1,0.1,-0.2,700,0,,,,,,,,,,,,,,,,,,,
237354,1495236684799,,,,,,,,0.02,0.09,0.99,-3.0,0.1,-0.2,700,0,,,,,,,,,,,,,,,,,,,
237374,1495236684819,,,,,57,,,0.02,0.09,0.99,-3.0,0.1,-0.2,700,0,1,1,0.0,0,39.538654,-122.332306,0.0,0.002,251.0,7,2,2.5,0,0.0,-1,0.0,0.0,0.0,0
237394,1495236684839,,,,,,,,0.02,0.09,0.99,-3.0,0.1,-0.2,700,0,,,,,,,,,,,,,,,,,,,
237414,1495236684859,,,,,,,,0.02,0.09,0.98,-3.1,-0.0,-0.2,700,0,,,,,,,,,,,,,,,,,,,
237434,1495236684879,,,,,,,,0.02,0.08,0.98,-3.0,-0.1,-0.2,700,0,,,,,,,,,,,,,,,,,,,
237454,1495236684899,,,,,,,,0.02,0.09,0.98,-3.0,-0.0,-0.2,700,0,,,,,,,,,,,,,,,,,,,
237474,1495236684919,0,102.1,,143.8,54,132.2,,0.02,0.09,0.98,-3.0,0.0,-0.2,700,0,1,1,0.0,0,39.538654,-122.332306,0.0,0.002,251.0,7,2,2.5,0,0.0,-1,0.0,0.0,0.0,0
237494,1495236684939,,,,,,,,0.02,0.09,0.99,-3.0,0.0,-0.3,700,0,,,,,,,,,,,,,,,,,,,
237514,1495236684959,,,,,,,,0.01,0.08,0.99,-3.0,0.1,-0.3,700,0,,,,,,,,,,,,,,,,,,,
237534,1495236684979,,,,,,,,0.01,0.09,0.99,-3.1,0.0,-0.2,700,0,,,,,,,,,,,,,,,,,,,
237554,1495236684993,,,,,,,,0.01,0.09,0.98,-3.1,-0.1,-0.2,700,0,,,,,,,,,,,,,,,,,,,
237574,1495236685013,,,,,57,,,0.02,0.09,0.98,-3.1,-0.1,-0.2,700,0,1,1,0.0,0,39.538654,-122.332306,0.0,0.002,251.0,7,2,2.5,0,0.0,-1,0.0,0.0,0.0,0
237594,1495236685033,,,,,,,,0.02,0.09,0.98,-3.1,-0.0,-0.2,700,0,,,,,,,,,,,,,,,,,,,
237614,1495236685053,,,,,,,,0.02,0.09,0.98,-3.1,0.0,-0.1,700,0,,,,,,,,,,,,,,,,,,,
237634,1495236685073,,,,,,,,0.02,0.09,0.99,-3.1,0.0,-0.2,700,0,,,,,,,,,,,,,,,,,,,
237654,1495236685099,,,,,,,,0.02,0.09,0.99,-3.0,0.1,-0.2,700,0,,,,,,,,,,,,,,,,,,,
237674,1495236685119,0,102.3,,143.8,54,131.9,,0.02,0.09,0.99,-3.1,0.1,-0.1,700,0,1,1,0.0,0,39.538654,-122.332306,0.0,0.002,251.0,7,2,2.5,0,0.0,-1,0.0,0.0,0.0,0
237694,1495236685139,,,,,,,,0.02,0.09,0.98,-3.1,-0.0,-0.1,700,0,,,,,,,,,,,,,,,,,,,
237714,1495236685159,,,,,,,,0.02,0.09,0.98,-3.1,-0.1,-0.1,720,0,,,,,,,,,,,,,,,,,,,
237734,1495236685179,,,,,,,,0.02,0.09,0.98,-3.1,0.0,-0.2,720,0,,,,,,,,,,,,,,,,,,,
237754,1495236685199,,,,,,,,0.02,0.09,0.98,-3.1,0.0,-0.1,700,0,,,,,,,,,,,,,,,,,,,
237774,1495236685219,,,,,56,,,0.02,0.09,0.98,-3.0,0.0,-0.2,700,0,1,1,0.0,0,39.538654,-122.332306,0.0,0.002,251.0,7,2,2.5,0,0.0,-1,0.0,0.0,0.0,0
237794,1495236685239,,,,,,,,0.02,0.09,0.98,-3.0,0.0,-0.2,700,0,,,,,,,,,,,,,,,,,,,
237814,1495236685259,,,,,,,,0.02,0.09,0.98,-3.1,0.0,-0.1,700,0,,,,,,,,,,,,,,,,,,,
237834,1495236685279,,,,,,,,0.02,0.09,0.98,-3.1,-0.0,-0.1,700,0,,,,,,,,,,,,,,,,,,,
237854,1495236685299,,,,,,,,0.02,0.09,0.98,-3.0,-0.1,-0.2,700,0,,,,,,,,,,,,,,,,,,,
237874,1495236685319,0,103.2,,144.7,56,132.6,,0.02,0.09,0.98,-3.0,-0.1,-0.2,700,0,1,1,0.0,0,39.538654,-122.332306,0.0,0.002,251.0,7,2,2.5,0,0.0,-1,0.0,0.0,0.0,0
237894,1495236685339,,,,,,,,0.02,0.09,0.98,-3.0,0.0,-0.1,700,0,,,,,,,,,,,,,,,,,,,
237914,1495236685359,,,,,,,,0.02,0.09,0.98,-3.0,0.1,-0.2,700,0,,,,,,,,,,,,,,,,,,,
237934,1495236685379,,,,,,,,0.02,0.08,0.98,-3.0,0.1,-0.2,700,0,,,,,,,,,,,,,,,,,,,
237954,1495236685398,,,,,,,,0.02,0.09,0.98,-3.0,0.0,-0.1,700,0,,,,,,,,,,,,,,,,,,,
237974,1495236685418,,,,,60,,,0.02,0.08,0.98,-3.0,-0.1,-0.1,700,0,1,1,0.0,0,39.538654,-122.332306,0.0,0.002,251.0,7,2,2.5,0,0.0,-1,0.0,0.0,0.0,0
237994,1495236685438,,,,,,,,0.02,0.08,0.98,-3.0,-0.1,-0.2,700,0,,,,,,,,,,,,,,,,,,,
238014,1495236685458,,,,,,,,0.02,0.09,0.98,-3.0,-0.0,-0.1,700,0,,,,,,,,,,,,,,,,,,,
238034,1495236685478,,,,,,,,0.02,0.09,0.98,-3.0,0.0,-0.1,700,0,,,,,,,,,,,,,,,,,,,
238054,1495236685498,,,,,,,,0.02,0.09,0.98,-3.0,0.1,-0.2,700,0,,,,,,,,,,,,,,,,,,,
238074,1495236685518,0,102.7,-0.5,144.6,61,132.8,14.75,0.02,0.09,0.98,-3.0,0.1,-0.1,700,0,1,1,0.0,0,39.538654,-122.332306,0.0,0.002,251.0,7,2,2.5,0,0.0,-1,0.0,0.0,0.0,0
238094,1495236685538,,,,,,,,0.02,0.09,0.99,-3.0,0.1,-0.1,700,0,,,,,,,,,,,,,,,,,,,
238114,1495236685558,,,,,,,,0.02,0.09,0.99,-3.0,0.0,-0.1,700,0,,,,,,,,,,,,,,,,,,,
238134,1495236685578,,,,,,,,0.02,0.08,0.99,-3.0,0.0,-0.2,700,0,,,,,,,,,,,,,,,,,,,
238154,1495236685598,,,,,,,,0.02,0.09,0.99,-3.0,0.0,-0.2,700,0,,,,,,,,,,,,,,,,,,,
238174,1495236685618,,,,,55,,,0.02,0.09,0.99,-3.0,0.1,-0.2,700,0,1,1,0.0,0,39.538654,-122.332306,0.0,0.002,251.0,7,2,2.5,0,0.0,-1,0.0,0.0,0.0,0
238194,1495236685638,,,,,,,,0.02,0.08,0.99,-3.0,0.1,-0.2,700,0,,,,,,,,,,,,,,,,,,,
238214,1495236685658,,,,,,,,0.02,0.08,0.99,-3.0,0.1,-0.2,700,0,,,,,,,,,,,,,,,,,,,
238234,1495236685678,,,,,,,,0.02,0.08,0.98,-3.0,0.1,-0.2,700,0,,,,,,,,,,,,,,,,,,,
238254,1495236685698,,,,,,,,0.01,0.08,0.98,-3.0,0.1,-0.2,700,0,,,,,,,,,,,,,,,,,,,
238274,1495236685718,0,102.5,,144.6,57,132.8,,0.01,0.08,0.99,-3.0,0.1,-0.2,700,0,1,1,0.0,0,39.538654,-122.332306,0.0,0.002,251.0,7,2,2.5,0,0.0,-1,0.0,0.0,0.0,0
238294,1495236685738,,,,,,,,0.01,0.08,0.99,-3.0,0.1,-0.2,700,0,,,,,,,,,,,,,,,,,,,
238314,1495236685758,,,,,,,,0.02,0.09,0.99,-3.1,0.1,-0.1,700,0,,,,,,,,,,,,,,,,,,,
238334,1495236685778,,,,,,,,0.02,0.08,0.99,-3.0,0.1,-0.2,700,0,,,,,,,,,,,,,,,,,,,
238354,1495236685798,,,,,,,,0.01,0.08,0.98,-3.1,0.1,-0.2,700,0,,,,,,,,,,,,,,,,,,,
238374,1495236685818,,,,,55,,,0.01,0.08,0.98,-3.1,0.2,-0.1,700,0,1,1,0.0,0,39.538654,-122.332306,0.0,0.002,251.0,7,2,2.5,0,0.0,-1,0.0,0.0,0.0,0
238394,1495236685838,,,,,,,,0.01,0.08,0.98,-3.1,0.1,-0.2,700,0,,,,,,,,,,,,,,,,,,,
238414,1495236685858,,,,,,,,0.01,0.08,0.99,-3.0,0.0,-0.2,700,0,,,,,,,,,,,,,,,,,,,
238434,1495236685878,,,,,,,,0.01,0.08,0.99,-3.0,0.0,-0.2,700,0,,,,,,,,,,,,,,,,,,,
238454,1495236685898,,,,,,,,0.02,0.09,0.99,-3.0,0.0,-0.2,700,0,,,,,,,,,,,,,,,,,,,
238474,1495236685918,0,102.2,,144.3,57,132.5,,0.02,0.08,0.99,-3.0,0.1,-0.2,700,0,1,1,0.0,0,39.538654,-122.332306,0.0,0.002,251.0,7,2,2.5,0,0.0,-1,0.0,0.0,0.0,0
238494,1495236685938,,,,,,,,0.02,0.08,0.99,-3.0,0.2,-0.2,700,0,,,,,,,,,,,,,,,,,,,
238514,1495236685958,,,,,,,,0.02,0.08,0.99,-3.0,0.2,-0.1,700,0,,,,,,,,,,,,,,,,,,,
238534,1495236685978,,,,,,,,0.01,0.08,0.99,-3.0,0.1,-0.2,700,0,,,,,,,,,,,,,,,,,,,
238554,1495236685994,,,,,,,,0.01,0.08,0.99,-3.0,0.0,-0.2,700,0,,,,,,,,,,,,,,,,,,,
238574,1495236686014,,,,,55,,,0.01,0.08,0.99,-3.0,0.1,-0.2,700,0,1,1,0.0,0,39.538654,-122.332306,0.0,0.002,251.0,7,2,2.5,0,0.0,-1,0.0,0.0,0.0,0
238594,1495236686034,,,,,,,,0.02,0.09,0.99,-3.0,0.1,-0.2,700,0,,,,,,,,,,,,,,,,,,,
238614,1495236686054,,,,,,,,0.02,0.08,0.99,-3.0,0.0,-0.2,700,0,,,,,,,,,,,,,,,,,,,
238634,1495236686074,,,,,,,,0.02,0.08,0.99,-3.1,0.1,-0.2,700,0,,,,,,,,,,,,,,,,,,,
238654,1495236686098,,,,,,,,0.02,0.08,0.99,-3.1,0.1,-0.2,700,0,,,,,,,,,,,,,,,,,,,
238674,1495236686118,0,102.2,,144.4,58,132.8,,0.01,0.08,0.99,-3.1,0.1,-0.2,700,0,1,1,0.0,0,39.538654,-122.332306,0.0,0.002,251.0,7,2,2.5,0,0.0,-1,0.0,0.0,0.0,0
238694,1495236686138,,,,,,,,0.01,0.08,0.99,-3.1,0.1,-0.2,700,0,,,,,,,,,,,,,,,,,,,
238714,1495236686158,,,,,,,,0.01,0.08,0.99,-3.1,0.1,-0.2,700,0,,,,,,,,,,,,,,,,,,,
238734,1495236686178,,,,,,,,0.02,0.08,0.98,-3.1,0.1,-0.2,700,0,,,,,,,,,,,,,,,,,,,
238754,1495236686196,,,,,,,,0.02,0.08,0.98,-3.1,0.0,-0.2,700,0,,,,,,,,,,,,,,,,,,,
238774,1495236686216,,,,,62,,,0.02,0.08,0.98,-3.1,0.1,-0.2,700,0,1,1,0.0,0,39.538654,-122.332306,0.0,0.002,251.0,7,2,2.5,0,0.0,-1,0.0,0.0,0.0,0
238794,1495236686236,,,,,,,,0.02,0.08,0.98,-3.1,0.2,-0.1,700,0,,,,,,,,,,,,,,,,,,,
238814,1495236686256,,,,,,,,0.02,0.08,0.99,-3.0,0.2,-0.2,700,0,,,,,,,,,,,,,,,,,,,
238834,1495236686276,,,,,,,,0.02,0.08,0.99,-3.0,0.1,-0.2,700,0,,,,,,,,,,,,,,,,,,,
238854,1495236686300,,,,,,,,0.02,0.08,0.98,-3.0,0.1,-0.2,700,0,,,,,,,,,,,,,,,,,,,
