"Interval"|"ms"|0|0|1,"Utc"|"ms"|0|0|1,"FuelLevel"|"F"|0|100|5,"OilTemp"|"F"|0.0|300.0|5,"CoolantPressPSI"|"PSI"|0.0|20.0|1,"Coolant"|"F"|0.0|300.0|5,"OilPress"|"PSI"|0|150|10,"EngineTemp"|"F"|0.0|300.0|5,"Battery"|"Volts"|0.0|20.0|1,"AccelX"|"G"|-3.0|3.0|50,"AccelY"|"G"|-3.0|3.0|50,"AccelZ"|"G"|-3.0|3.0|50,"Yaw"|"Deg/Sec"|-300.0|300.0|50,"Pitch"|"Deg/Sec"|-300.0|300.0|50,"Roll"|"Deg/Sec"|-300.0|300.0|50,"RPM"|""|0|10000|50,"Driveshaft"|"RPM"|0|5000|50,"GPIO1"|""|0|1|10,"GPIO2"|""|0|1|10,"GearRatio"|""|-5.0|5.0|10,"Gear"|""|-1|5|10,"Latitude"|"Degrees"|-180.0|180.0|10,"Longitude"|"Degrees"|-180.0|180.0|10,"Speed"|"mph"|0.0|150.0|10,"Distance"|"mi"|0.0|0.0|10,"Altitude"|"ft"|0.0|4000.0|10,"GPSSats"|""|0|20|10,"GPSQual"|""|0|5|10,"GPSDOP"|""|0.0|20.0|10,"LapCount"|""|0|0|10,"LapTime"|"Min"|0.0|0.0|10,"Sector"|""|0|0|10,"SectorTime"|"Min"|0.0|0.0|10,"PredTime"|"Min"|0.0|0.0|10,"ElapsedTime"|"Min"|0.0|0.0|10,"CurrentLap"|""|0|0|10
42054,1495245326678,,,,,,,,0.03,0.07,1.01,-3.0,-0.1,-0.1,260,18,,,,,,,,,,,,,,,,,,,
42074,1495245326698,0,104.3,-0.4,113.1,11,109.9,11.4,0.03,0.07,1.01,-3.0,-0.1,-0.2,260,18,1,1,14.444,0,39.540623,-122.332069,0.0,0.0,551.0,4,2,1.5,0,0.0,-1,0.0,0.0,0.0,0
42094,1495245326718,,,,,,,,0.03,0.09,1.01,-3.1,-0.1,-0.1,380,18,,,,,,,,,,,,,,,,,,,
42114,1495245326738,,,,,,,,0.03,0.08,1.01,-3.1,-0.1,-0.0,380,18,,,,,,,,,,,,,,,,,,,
42134,1495245326758,,,,,,,,0.02,0.11,1.0,-3.1,-0.2,0.0,500,18,,,,,,,,,,,,,,,,,,,
42154,1495245326778,,,,,,,,0.03,0.09,1.0,-3.1,-0.1,-0.1,500,18,,,,,,,,,,,,,,,,,,,
42174,1495245326798,,,,,14,,,0.03,0.1,1.0,-3.1,-0.1,-0.1,640,18,1,1,14.444,0,39.540623,-122.332069,0.0,0.0,551.0,4,2,1.5,0,0.0,-1,0.0,0.0,0.0,0
42194,1495245326818,,,,,,,,0.03,0.1,0.99,-3.2,-0.2,-0.1,700,18,,,,,,,,,,,,,,,,,,,
42214,1495245326838,,,,,,,,0.03,0.1,1.0,-3.1,-0.3,-0.1,740,18,,,,,,,,,,,,,,,,,,,
42234,1495245326858,,,,,,,,0.03,0.1,0.99,-3.1,-0.1,-0.0,740,18,,,,,,,,,,,,,,,,,,,
42254,1495245326878,,,,,,,,0.03,0.12,1.0,-3.2,-0.0,0.2,800,18,,,,,,,,,,,,,,,,,,,
42274,1495245326892,0,103.6,,113.1,18,111.1,,0.03,0.12,0.99,-3.2,-0.0,0.2,880,18,1,1,38.889,0,39.540623,-122.332069,0.0,0.0,551.0,4,2,1.5,0,0.0,-1,0.0,0.0,0.0,0
42294,1495245326912,,,,,,,,0.03,0.12,0.99,-3.2,-0.1,0.1,900,18,,,,,,,,,,,,,,,,,,,
42314,1495245326932,,,,,,,,0.04,0.12,0.99,-3.1,-0.2,0.0,860,0,,,,,,,,,,,,,,,,,,,
42334,1495245326952,,,,,,,,0.03,0.1,0.99,-3.0,-0.2,-0.2,860,0,,,,,,,,,,,,,,,,,,,
42354,1495245326972,,,,,,,,0.04,0.1,0.99,-2.9,-0.2,-0.3,920,5,,,,,,,,,,,,,,,,,,,
42374,1495245326998,,,,,25,,,0.04,0.08,0.99,-2.9,-0.1,-0.3,940,5,1,1,0.001,0,39.540623,-122.332069,0.0,0.0,551.0,4,2,1.5,0,0.0,-1,0.0,0.0,0.0,0
42394,1495245327018,,,,,,,,0.04,0.07,0.99,-3.0,-0.2,-0.2,940,5,,,,,,,,,,,,,,,,,,,
42414,1495245327038,,,,,,,,0.04,0.07,0.99,-3.0,-0.3,-0.2,980,5,,,,,,,,,,,,,,,,,,,
42434,1495245327058,,,,,,,,0.04,0.08,0.98,-3.1,-0.4,-0.1,980,5,,,,,,,,,,,,,,,,,,,
42454,1495245327078,,,,,,,,0.04,0.08,0.98,-3.1,-0.4,-0.1,1000,5,,,,,,,,,,,,,,,,,,,
42474,1495245327098,0,104.9,,113.9,35,111.4,,0.04,0.09,0.98,-3.1,-0.5,-0.0,1020,5,1,1,235.0,0,39.540623,-122.332069,0.0,0.0,551.0,4,2,1.5,0,0.0,-1,0.0,0.0,0.0,0
42494,1495245327118,,,,,,,,0.04,0.1,0.98,-3.1,-0.6,0.0,1020,5,,,,,,,,,,,,,,,,,,,
42514,1495245327138,,,,,,,,0.04,0.09,0.98,-3.1,-0.7,0.0,1040,5,,,,,,,,,,,,,,,,,,,
42534,1495245327158,,,,,,,,0.04,0.1,0.99,-3.1,-0.6,0.0,1040,5,,,,,,,,,,,,,,,,,,,
42554,1495245327178,,,,,,,,0.05,0.09,1.0,-3.1,-0.6,-0.0,1040,5,,,,,,,,,,,,,,,,,,,
42574,1495245327198,,,,,47,,,0.05,0.09,1.0,-3.0,-0.6,-0.1,1040,5,1,1,255.0,0,39.540623,-122.332069,0.0,0.0,551.0,4,2,1.5,0,0.0,-1,0.0,0.0,0.0,0
42594,1495245327218,,,,,,,,0.06,0.1,1.0,-3.0,-0.7,-0.1,1040,5,,,,,,,,,,,,,,,,,,,
42614,1495245327238,,,,,,,,0.06,0.1,0.99,-3.0,-0.6,-0.1,1040,5,,,,,,,,,,,,,,,,,,,
42634,1495245327258,,,,,,,,0.06,0.11,0.99,-3.0,-0.6,-0.1,1020,5,,,,,,,,,,,,,,,,,,,
42654,1495245327278,,,,,,,,0.06,0.11,0.99,-3.0,-0.5,-0.1,1020,5,,,,,,,,,,,,,,,,,,,
42674,1495245327300,0,104.8,,113.7,60,110.5,,0.05,0.11,0.99,-3.0,-0.4,-0.1,1000,5,1,1,260.0,0,39.540623,-122.332069,0.0,0.0,551.0,4,2,1.5,0,0.0,-1,0.0,0.0,0.0,0
42694,1495245327320,,,,,,,,0.05,0.11,0.99,-3.1,-0.3,-0.1,980,5,,,,,,,,,,,,,,,,,,,
42714,1495245327340,,,,,,,,0.05,0.11,0.99,-3.1,-0.2,-0.1,940,5,,,,,,,,,,,,,,,,,,,
42734,1495245327360,,,,,,,,0.05,0.1,0.99,-3.1,-0.2,-0.1,920,5,,,,,,,,,,,,,,,,,,,
42754,1495245327380,,,,,,,,0.05,0.1,0.98,-3.0,-0.1,-0.1,900,5,,,,,,,,,,,,,,,,,,,
42774,1495245327395,,,,,63,,,0.05,0.09,0.99,-3.0,-0.2,-0.1,880,5,1,1,235.0,0,39.540623,-122.332069,0.0,0.0,551.0,4,2,1.5,0,0.0,-1,0.0,0.0,0.0,0
42794,1495245327415,,,,,,,,0.05,0.1,0.99,-2.9,-0.2,-0.2,840,5,,,,,,,,,,,,,,,,,,,
42814,1495245327435,,,,,,,,0.04,0.1,0.99,-3.0,-0.2,-0.2,840,5,,,,,,,,,,,,,,,,,,,
42834,1495245327455,,,,,,,,0.04,0.1,0.99,-3.0,-0.1,-0.2,820,5,,,,,,,,,,,,,,,,,,,
42854,1495245327475,,,,,,,,0.04,0.1,0.99,-3.0,-0.1,-0.2,780,5,,,,,,,,,,,,,,,,,,,
42874,1495245327493,0,104.1,,113.4,61,111.5,,0.04,0.1,0.99,-3.0,-0.1,-0.1,720,5,1,1,210.0,0,39.540623,-122.332069,0.0,0.0,551.0,4,2,1.5,0,0.0,-1,0.0,0.0,0.0,0
42894,1495245327513,,,,,,,,0.04,0.09,0.99,-3.0,-0.2,-0.1,720,5,,,,,,,,,,,,,,,,,,,
42914,1495245327533,,,,,,,,0.04,0.09,0.99,-3.0,-0.2,-0.1,680,5,,,,,,,,,,,,,,,,,,,
42934,1495245327553,,,,,,,,0.04,0.09,0.99,-3.0,-0.2,-0.2,640,5,,,,,,,,,,,,,,,,,,,
42954,1495245327573,,,,,,,,0.04,0.09,0.99,-3.1,-0.3,-0.2,640,5,,,,,,,,,,,,,,,,,,,
42974,1495245327593,,,,,55,,,0.04,0.1,0.99,-3.1,-0.3,-0.2,600,5,1,1,170.0,0,39.540623,-122.332069,0.0,0.0,551.0,4,2,1.5,0,0.0,-1,0.0,0.0,0.0,0
42994,1495245327613,,,,,,,,0.04,0.1,0.99,-3.0,-0.3,-0.2,600,5,,,,,,,,,,,,,,,,,,,
43014,1495245327633,,,,,,,,0.04,0.09,0.99,-3.0,-0.2,-0.2,540,5,,,,,,,,,,,,,,,,,,,
43034,1495245327653,,,,,,,,0.04,0.09,0.98,-3.0,-0.3,-0.2,540,5,,,,,,,,,,,,,,,,,,,
43054,1495245327673,,,,,,,,0.04,0.09,0.98,-3.0,-0.2,-0.2,460,5,,,,,,,,,,,,,,,,,,,
43074,1495245327695,0,104.8,-0.4,113.8,54,111.2,13.42,0.04,0.09,0.99,-3.0,-0.2,-0.2,460,5,1,1,135.0,0,39.540623,-122.332069,0.0,0.0,551.0,4,2,1.5,0,0.0,-1,0.0,0.0,0.0,0
43094,1495245327715,,,,,,,,0.04,0.09,0.99,-3.0,-0.2,-0.2,400,5,,,,,,,,,,,,,,,,,,,
43114,1495245327735,,,,,,,,0.04,0.09,0.98,-3.0,-0.1,-0.2,400,5,,,,,,,,,,,,,,,,,,,
43134,1495245327755,,,,,,,,0.04,0.09,0.99,-3.0,-0.1,-0.2,400,5,,,,,,,,,,,,,,,,,,,
43154,1495245327775,,,,,,,,0.04,0.09,0.98,-3.0,-0.2,-0.1,360,5,,,,,,,,,,,,,,,,,,,
43174,1495245327797,,,,,51,,,0.04,0.09,0.99,-3.0,-0.1,-0.1,360,307692,1,1,100.0,0,39.540623,-122.332069,0.0,0.0,551.0,4,2,1.5,0,0.0,-1,0.0,0.0,0.0,0
43194,1495245327817,,,,,,,,0.04,0.09,0.99,-3.0,-0.1,-0.1,360,0,,,,,,,,,,,,,,,,,,,
43214,1495245327837,,,,,,,,0.04,0.09,0.98,-3.0,-0.1,-0.1,300,0,,,,,,,,,,,,,,,,,,,
43234,1495245327857,,,,,,,,0.04,0.09,0.99,-3.0,-0.1,-0.1,300,0,,,,,,,,,,,,,,,,,,,
43254,1495245327877,,,,,,,,0.04,0.09,0.98,-3.0,-0.1,-0.1,300,0,,,,,,,,,,,,,,,,,,,
43274,1495245327889,0,103.3,,112.5,48,110.8,,0.04,0.09,0.98,-3.0,-0.1,-0.2,300,0,1,1,0.0,0,39.540623,-122.332069,0.0,0.0,551.0,4,2,1.5,0,0.0,-1,0.0,0.0,0.0,0
43294,1495245327909,,,,,,,,0.04,0.09,0.98,-3.0,-0.1,-0.2,280,0,,,,,,,,,,,,,,,,,,,
43314,1495245327929,,,,,,,,0.04,0.08,0.98,-3.0,-0.1,-0.2,280,0,,,,,,,,,,,,,,,,,,,
43334,1495245327949,,,,,,,,0.04,0.08,0.98,-3.0,-0.0,-0.2,280,0,,,,,,,,,,,,,,,,,,,
43354,1495245327969,,,,,,,,0.04,0.08,0.98,-3.1,-0.0,-0.2,280,0,,,,,,,,,,,,,,,,,,,
43374,1495245327997,,,,,43,,,0.04,0.08,0.99,-3.1,-0.0,-0.2,200,0,1,1,0.0,0,39.540623,-122.332069,0.0,0.0,551.0,4,2,1.5,0,0.0,-1,0.0,0.0,0.0,0
43394,1495245328017,,,,,,,,0.04,0.08,0.98,-3.1,-0.1,-0.2,200,0,,,,,,,,,,,,,,,,,,,
43414,1495245328037,,,,,,,,0.04,0.08,0.98,-3.1,-0.1,-0.2,200,0,,,,,,,,,,,,,,,,,,,
43434,1495245328057,,,,,,,,0.04,0.08,0.98,-3.0,-0.1,-0.1,200,0,,,,,,,,,,,,,,,,,,,
43454,1495245328077,,,,,,,,0.04,0.08,0.98,-3.1,-0.1,-0.1,200,0,,,,,,,,,,,,,,,,,,,
43474,1495245328097,0,103.9,,113.2,37,111.4,,0.04,0.08,0.99,-3.0,-0.1,-0.2,200,0,1,1,0.0,0,39.540623,-122.332069,0.0,0.0,551.0,4,2,1.5,0,0.0,-1,0.0,0.0,0.0,0
43494,1495245328117,,,,,,,,0.04,0.09,0.99,-3.0,-0.1,-0.2,200,0,,,,,,,,,,,,,,,,,,,
43514,1495245328137,,,,,,,,0.04,0.09,0.99,-3.0,-0.1,-0.2,200,0,,,,,,,,,,,,,,,,,,,
43534,1495245328157,,,,,,,,0.04,0.09,0.98,-3.0,-0.1,-0.2,200,0,,,,,,,,,,,,,,,,,,,
43554,1495245328177,,,,,,,,0.04,0.08,0.98,-3.0,-0.1,-0.2,100,0,,,,,,,,,,,,,,,,,,,
43574,1495245328197,,,,,33,,,0.04,0.08,0.99,-3.0,-0.1,-0.2,100,0,1,1,0.0,0,39.540623,-122.332069,0.0,0.0,551.0,4,2,1.5,0,0.0,-1,0.0,0.0,0.0,0
43594,1495245328217,,,,,,,,0.04,0.09,0.99,-3.0,-0.1,-0.2,100,0,,,,,,,,,,,,,,,,,,,
43614,1495245328237,,,,,,,,0.04,0.09,0.99,-3.0,-0.1,-0.2,100,0,,,,,,,,,,,,,,,,,,,
43634,1495245328257,,,,,,,,0.04,0.08,0.99,-3.0,-0.1,-0.2,100,0,,,,,,,,,,,,,,,,,,,
43654,1495245328277,,,,,,,,0.04,0.08,0.99,-3.0,-0.1,-0.2,100,0,,,,,,,,,,,,,,,,,,,
43674,1495245328297,0,103.5,,112.5,29,110.0,,0.04,0.08,0.99,-2.9,-0.1,-0.1,100,0,1,1,0.0,0,39.540623,-122.332069,0.0,0.0,551.0,4,2,1.5,0,0.0,-1,0.0,0.0,0.0,0
43694,1495245328317,,,,,,,,0.04,0.07,0.98,-3.0,-0.1,-0.1,100,0,,,,,,,,,,,,,,,,,,,
43714,1495245328337,,,,,,,,0.04,0.07,0.98,-2.9,-0.1,-0.1,100,0,,,,,,,,,,,,,,,,,,,
43734,1495245328357,,,,,,,,0.04,0.07,0.98,-2.9,-0.1,-0.1,100,0,,,,,,,,,,,,,,,,,,,
43754,1495245328377,,,,,,,,0.04,0.07,0.98,-2.9,-0.0,-0.2,100,0,,,,,,,,,,,,,,,,,,,
43774,1495245328396,,,,,25,,,0.04,0.07,0.98,-2.9,-0.0,-0.2,100,0,1,1,0.0,0,39.540623,-122.332069,0.0,0.0,551.0,4,2,1.5,0,0.0,-1,0.0,0.0,0.0,0
43794,1495245328416,,,,,,,,0.04,0.06,0.98,-2.9,0.0,-0.2,100,0,,,,,,,,,,,,,,,,,,,
43814,1495245328436,,,,,,,,0.04,0.06,0.98,-2.9,0.1,-0.2,100,0,,,,,,,,,,,,,,,,,,,
43834,1495245328456,,,,,,,,0.04,0.06,0.98,-3.0,0.1,-0.2,100,0,,,,,,,,,,,,,,,,,,,
43854,1495245328476,,,,,,,,0.04,0.07,0.98,-3.0,0.1,-0.2,100,0,,,,,,,,,,,,,,,,,,,
43874,1495245328498,0,103.5,,112.3,23,109.9,,0.04,0.07,0.98,-3.0,0.0,-0.2,100,0,1,1,0.0,0,39.540623,-122.332069,0.0,0.0,551.0,4,2,1.5,0,0.0,-1,0.0,0.0,0.0,0
43894,1495245328518,,,,,,,,0.04,0.07,0.98,-3.0,-0.0,-0.2,100,0,,,,,,,,,,,,,,,,,,,
43914,1495245328538,,,,,,,,0.04,0.07,0.98,-3.0,-0.0,-0.1,100,0,,,,,,,,,,,,,,,,,,,
43934,1495245328558,,,,,,,,0.04,0.07,0.98,-3.0,-0.0,-0.1,100,0,,,,,,,,,,,,,,,,,,,
43954,1495245328578,,,,,,,,0.04,0.07,0.98,-3.0,-0.0,-0.1,100,0,,,,,,,,,,,,,,,,,,,
43974,1495245328596,,,,,22,,,0.04,0.07,0.99,-3.0,-0.1,-0.1,100,0,1,1,0.0,0,39.540623,-122.332069,0.0,0.0,551.0,4,2,1.5,0,0.0,-1,0.0,0.0,0.0,0
43994,1495245328616,,,,,,,,0.04,0.08,0.99,-3.0,-0.1,-0.1,100,0,,,,,,,,,,,,,,,,,,,
44014,1495245328636,,,,,,,,0.04,0.08,0.98,-3.0,-0.1,-0.1,100,0,,,,,,,,,,,,,,,,,,,
44034,1495245328656,,,,,,,,0.04,0.08,0.98,-3.0,-0.1,-0.1,100,0,,,,,,,,,,,,,,,,,,,
44054,1495245328676,,,,,,,,0.04,0.08,0.98,-3.0,-0.1,-0.2,100,0,,,,,,,,,,,,,,,,,,,
44074,1495245328696,0,103.5,-0.6,112.2,20,109.9,12.87,0.04,0.08,0.99,-3.0,-0.1,-0.2,100,0,1,1,0.0,0,39.540623,-122.332069,0.0,0.0,551.0,4,2,1.5,0,0.0,-1,0.0,0.0,0.0,0
44094,1495245328716,,,,,,,,0.04,0.08,0.99,-3.0,-0.1,-0.2,100,0,,,,,,,,,,,,,,,,,,,
44114,1495245328736,,,,,,,,0.04,0.08,0.99,-3.0,-0.1,-0.2,100,0,,,,,,,,,,,,,,,,,,,
44134,1495245328756,,,,,,,,0.04,0.08,0.99,-3.0,-0.1,-0.2,100,0,,,,,,,,,,,,,,,,,,,
44154,1495245328776,,,,,,,,0.04,0.08,0.99,-3.0,-0.1,-0.2,100,0,,,,,,,,,,,,,,,,,,,
44174,1495245328798,,,,,19,,,0.04,0.08,0.99,-3.0,-0.1,-0.2,100,0,1,1,0.0,0,39.540623,-122.332069,0.0,0.0,551.0,4,2,1.5,0,0.0,-1,0.0,0.0,0.0,0
44194,1495245328818,,,,,,,,0.04,0.08,0.99,-3.0,-0.1,-0.2,100,0,,,,,,,,,,,,,,,,,,,
44214,1495245328838,,,,,,,,0.04,0.08,0.99,-3.0,-0.1,-0.1,100,0,,,,,,,,,,,,,,,,,,,
44234,1495245328858,,,,,,,,0.04,0.08,0.99,-3.0,-0.2,-0.1,100,0,,,,,,,,,,,,,,,,,,,
44254,1495245328878,,,,,,,,0.04,0.08,0.99,-3.0,-0.2,-0.1,100,0,,,,,,,,,,,,,,,,,,,
44274,1495245328898,0,104.5,,113.9,17,111.6,,0.04,0.08,0.99,-3.0,-0.1,-0.1,100,0,1,1,0.0,0,39.540623,-122.332069,0.0,0.0,551.0,4,2,1.5,0,0.0,-1,0.0,0.0,0.0,0
44294,1495245328918,,,,,,,,0.05,0.08,0.99,-3.0,-0.2,-0.1,100,0,,,,,,,,,,,,,,,,,,,
44314,1495245328938,,,,,,,,0.05,0.08,0.99,-3.0,-0.2,-0.1,100,0,,,,,,,,,,,,,,,,,,,
44334,1495245328958,,,,,,,,0.04,0.08,0.99,-3.0,-0.2,-0.2,100,0,,,,,,,,,,,,,,,,,,,
44354,1495245328978,,,,,,,,0.04,0.08,0.99,-3.0,-0.2,-0.2,100,0,,,,,,,,,,,,,,,,,,,
44374,1495245328998,,,,,16,,,0.04,0.08,0.99,-3.0,-0.2,-0.2,100,0,1,1,0.0,0,39.540623,-122.332069,0.0,0.0,551.0,4,2,1.5,0,0.0,-1,0.0,0.0,0.0,0
44394,1495245329010,,,,,,,,0.04,0.08,0.99,-3.0,-0.2,-0.2,100,0,,,,,,,,,,,,,,,,,,,
44414,1495245329030,,,,,,,,0.04,0.08,0.99,-3.1,-0.2,-0.2,6666660,0,,,,,,,,,,,,,,,,,,,
44434,1495245329050,,,,,,,,0.04,0.08,0.99,-3.1,-0.2,-0.2,0,0,,,,,,,,,,,,,,,,,,,
44454,1495245329070,,,,,,,,0.04,0.08,0.99,-3.0,-0.2,-0.1,0,0,,,,,,,,,,,,,,,,,,,
44474,1495245329098,0,103.3,,112.5,16,110.2,,0.04,0.08,0.99,-3.0,-0.2,-0.1,0,0,1,1,0.0,0,39.540623,-122.332069,0.0,0.0,551.0,4,2,1.5,0,0.0,-1,0.0,0.0,0.0,0
44494,1495245329118,,,,,,,,0.04,0.08,0.99,-3.0,-0.2,-0.1,0,0,,,,,,,,,,,,,,,,,,,
44514,1495245329138,,,,,,,,0.04,0.08,0.99,-3.0,-0.2,-0.1,0,0,,,,,,,,,,,,,,,,,,,
44534,1495245329158,,,,,,,,0.04,0.08,0.99,-3.0,-0.1,-0.1,0,0,,,,,,,,,,,,,,,,,,,
44554,1495245329178,,,,,,,,0.04,0.08,0.99,-3.1,-0.1,-0.1,0,0,,,,,,,,,,,,,,,,,,,
44574,1495245329198,,,,,15,,,0.04,0.08,0.99,-3.0,-0.1,-0.1,0,0,1,1,0.0,0,39.540623,-122.332069,0.0,0.0,551.0,4,2,1.5,0,0.0,-1,0.0,0.0,0.0,0
44594,1495245329218,,,,,,,,0.04,0.08,0.99,-3.0,-0.1,-0.1,0,0,,,,,,,,,,,,,,,,,,,
44614,1495245329238,,,,,,,,0.04,0.08,0.99,-3.0,-0.1,-0.1,0,0,,,,,,,,,,,,,,,,,,,
44634,1495245329258,,,,,,,,0.04,0.08,0.99,-3.0,-0.2,-0.1,0,0,,,,,,,,,,,,,,,,,,,
44654,1495245329278,,,,,,,,0.04,0.08,0.99,-3.0,-0.1,-0.1,0,0,,,,,,,,,,,,,,,,,,,
44674,1495245329297,0,103.2,,112.5,14,110.1,,0.04,0.08,0.99,-3.0,-0.1,-0.1,0,0,1,1,0.0,0,39.540623,-122.332069,0.0,0.0,551.0,4,2,1.5,0,0.0,-1,0.0,0.0,0.0,0
44694,1495245329317,,,,,,,,0.04,0.08,0.99,-3.0,-0.2,-0.1,0,0,,,,,,,,,,,,,,,,,,,
44714,1495245329337,,,,,,,,0.04,0.08,0.99,-3.0,-0.2,-0.1,0,0,,,,,,,,,,,,,,,,,,,
44734,1495245329357,,,,,,,,0.04,0.08,0.99,-3.0,-0.1,-0.1,0,0,,,,,,,,,,,,,,,,,,,
44754,1495245329377,,,,,,,,0.04,0.08,0.99,-3.0,-0.1,-0.1,0,0,,,,,,,,,,,,,,,,,,,
44774,1495245329397,,,,,13,,,0.04,0.08,0.99,-3.0,-0.1,-0.1,0,0,1,1,0.0,0,39.540623,-122.332069,0.0,0.0,551.0,4,2,1.5,0,0.0,-1,0.0,0.0,0.0,0
44794,1495245329417,,,,,,,,0.04,0.08,0.99,-3.0,-0.1,-0.2,0,0,,,,,,,,,,,,,,,,,,,
44814,1495245329437,,,,,,,,0.04,0.08,0.99,-3.0,-0.1,-0.2,0,0,,,,,,,,,,,,,,,,,,,
44834,1495245329457,,,,,,,,0.04,0.08,0.99,-3.0,-0.1,-0.2,0,0,,,,,,,,,,,,,,,,,,,
44854,1495245329477,,,,,,,,0.04,0.08,0.99,-3.0,-0.1,-0.2,0,0,,,,,,,,,,,,,,,,,,,
44874,1495245329497,0,103.3,,112.5,13,110.2,,0.04,0.08,0.99,-3.0,-0.1,-0.2,0,0,1,1,0.0,0,39.540623,-122.332069,0.0,0.0,551.0,4,2,1.5,0,0.0,-1,0.0,0.0,0.0,0
44894,1495245329517,,,,,,,,0.04,0.08,0.99,-3.0,-0.1,-0.1,0,0,,,,,,,,,,,,,,,,,,,
44914,1495245329537,,,,,,,,0.04,0.08,0.99,-3.0,-0.1,-0.2,0,0,,,,,,,,,,,,,,,,,,,
44934,1495245329557,,,,,,,,0.04,0.08,0.99,-3.0,-0.1,-0.2,0,0,,,,,,,,,,,,,,,,,,,
44954,1495245329577,,,,,,,,0.04,0.08,0.99,-3.0,-0.1,-0.2,0,0,,,,,,,,,,,,,,,,,,,
44974,1495245329597,,,,,13,,,0.04,0.08,0.99,-3.0,-0.1,-0.1,0,0,1,1,0.0,0,39.540623,-122.332069,0.0,0.0,551.0,4,2,1.5,0,0.0,-1,0.0,0.0,0.0,0
44994,1495245329617,,,,,,,,0.04,0.08,0.99,-3.0,-0.1,-0.1,0,0,,,,,,,,,,,,,,,,,,,
45014,1495245329637,,,,,,,,0.04,0.08,0.99,-3.0,-0.1,-0.2,0,0,,,,,,,,,,,,,,,,,,,
45034,1495245329657,,,,,,,,0.04,0.08,0.99,-3.0,-0.1,-0.1,0,0,,,,,,,,,,,,,,,,,,,
45054,1495245329677,,,,,,,,0.04,0.08,0.99,-3.0,-0.1,-0.1,0,0,,,,,,,,,,,,,,,,,,,
45074,1495245329697,0,103.2,-0.5,112.9,11,110.7,12.86,0.04,0.08,0.99,-3.0,-0.1,-0.1,0,0,1,1,0.0,0,39.540623,-122.332069,0.0,0.0,551.0,4,2,1.5,0,0.0,-1,0.0,0.0,0.0,0
45094,1495245329717,,,,,,,,0.04,0.08,0.99,-3.0,-0.1,-0.1,0,0,,,,,,,,,,,,,,,,,,,
45114,1495245329737,,,,,,,,0.04,0.08,0.99,-3.0,-0.1,-0.2,0,0,,,,,,,,,,,,,,,,,,,
45134,1495245329757,,,,,,,,0.04,0.08,0.99,-3.0,-0.1,-0.2,0,0,,,,,,,,,,,,,,,,,,,
45154,1495245329777,,,,,,,,0.04,0.08,0.99,-3.0,-0.1,-0.2,0,0,,,,,,,,,,,,,,,,,,,
45174,1495245329799,,,,,12,,,0.04,0.08,0.99,-3.0,-0.1,-0.2,0,0,1,1,0.0,0,39.540623,-122.332069,0.0,0.0,551.0,4,2,1.5,0,0.0,-1,0.0,0.0,0.0,0
45194,1495245329819,,,,,,,,0.04,0.08,0.99,-3.0,-0.1,-0.2,0,0,,,,,,,,,,,,,,,,,,,
45214,1495245329839,,,,,,,,0.04,0.08,0.99,-3.0,-0.1,-0.2,0,0,,,,,,,,,,,,,,,,,,,
45234,1495245329859,,,,,,,,0.04,0.08,0.99,-3.0,-0.2,-0.2,0,0,,,,,,,,,,,,,,,,,,,
45254,1495245329879,,,,,,,,0.04,0.08,0.99,-3.0,-0.2,-0.2,0,0,,,,,,,,,,,,,,,,,,,
45274,1495245329899,0,105.0,,114.3,11,111.5,,0.04,0.08,0.99,-3.0,-0.2,-0.2,0,0,1,1,0.0,0,39.540623,-122.332069,0.0,0.0,551.0,4,2,1.5,0,0.0,-1,0.0,0.0,0.0,0
45294,1495245329919,,,,,,,,0.04,0.08,0.99,-3.0,-0.2,-0.2,0,0,,,,,,,,,,,,,,,,,,,
45314,1495245329939,,,,,,,,0.04,0.08,0.99,-3.1,-0.2,-0.2,0,0,,,,,,,,,,,,,,,,,,,
45334,1495245329959,,,,,,,,0.04,0.08,0.99,-3.1,-0.2,-0.2,0,0,,,,,,,,,,,,,,,,,,,
45354,1495245329979,,,,,,,,0.04,0.08,0.99,-3.1,-0.2,-0.2,0,0,,,,,,,,,,,,,,,,,,,
45374,1495245329993,,,,,10,,,0.04,0.08,0.99,-3.1,-0.1,-0.2,0,0,1,1,0.0,0,39.540623,-122.332069,0.0,0.0,551.0,4,2,1.5,0,0.0,-1,0.0,0.0,0.0,0
45394,1495245330013,,,,,,,,0.04,0.08,0.99,-3.1,-0.1,-0.2,0,0,,,,,,,,,,,,,,,,,,,
45414,1495245330033,,,,,,,,0.04,0.09,0.99,-3.1,-0.3,-0.2,0,0,,,,,,,,,,,,,,,,,,,
45434,1495245330053,,,,,,,,0.04,0.06,0.98,-3.0,-0.4,-0.3,0,0,,,,,,,,,,,,,,,,,,,
45454,1495245330073,,,,,,,,0.04,0.07,0.97,-3.0,-0.5,-0.3,0,0,,,,,,,,,,,,,,,,,,,
45474,1495245330097,0,104.2,,113.6,10,110.6,,0.05,0.07,0.98,-3.0,-0.3,-0.2,0,0,1,1,0.0,0,39.540623,-122.332069,0.0,0.0,551.0,4,2,1.5,0,0.0,-1,0.0,0.0,0.0,0
45494,1495245330117,,,,,,,,0.04,0.08,0.98,-3.0,-0.4,-0.3,0,0,,,,,,,,,,,,,,,,,,,
45514,1495245330137,,,,,,,,0.04,0.07,0.98,-3.0,-0.2,-0.5,0,0,,,,,,,,,,,,,,,,,,,
45534,1495245330157,,,,,,,,0.04,0.07,0.98,-3.0,-0.3,-0.3,0,0,,,,,,,,,,,,,,,,,,,
45554,1495245330177,,,,,,,,0.04,0.08,0.98,-3.0,-0.1,-0.2,0,0,,,,,,,,,,,,,,,,,,,
45574,1495245330199,,,,,11,,,0.04,0.09,0.99,-3.1,-0.1,-0.1,0,0,1,1,0.0,0,39.540623,-122.332069,0.0,0.0,551.0,4,2,1.5,0,0.0,-1,0.0,0.0,0.0,0
45594,1495245330219,,,,,,,,0.04,0.09,0.99,-3.1,-0.1,-0.2,0,0,,,,,,,,,,,,,,,,,,,
45614,1495245330239,,,,,,,,0.05,0.09,0.99,-3.0,-0.0,-0.3,0,0,,,,,,,,,,,,,,,,,,,
45634,1495245330259,,,,,,,,0.04,0.09,0.98,-3.0,-0.1,-0.3,0,0,,,,,,,,,,,,,,,,,,,
45654,1495245330279,,,,,,,,0.04,0.08,0.99,-3.0,-0.1,-0.3,0,0,,,,,,,,,,,,,,,,,,,
45674,1495245330297,0,104.7,,114.1,11,111.5,,0.04,0.08,0.98,-3.0,-0.1,-0.3,0,0,1,1,0.0,0,39.540623,-122.332069,0.0,0.0,551.0,4,2,1.5,0,0.0,-1,0.0,0.0,0.0,0
45694,1495245330317,,,,,,,,0.03,0.08,0.99,-3.0,-0.1,-0.2,0,0,,,,,,,,,,,,,,,,,,,
45714,1495245330337,,,,,,,,0.03,0.08,0.98,-2.9,-0.2,-0.1,0,0,,,,,,,,,,,,,,,,,,,
45734,1495245330357,,,,,,,,0.04,0.09,0.99,-3.0,-0.1,-0.1,0,0,,,,,,,,,,,,,,,,,,,
45754,1495245330377,,,,,,,,0.04,0.08,0.99,-3.0,-0.1,-0.3,0,0,,,,,,,,,,,,,,,,,,,
45774,1495245330396,,,,,12,,,0.04,0.08,0.99,-3.0,-0.1,-0.3,0,0,1,1,0.0,0,39.540623,-122.332069,0.0,0.0,551.0,4,2,1.5,0,0.0,-1,0.0,0.0,0.0,0
45794,1495245330416,,,,,,,,0.03,0.09,0.99,-3.0,0.0,-0.3,20,0,,,,,,,,,,,,,,,,,,,
45814,1495245330436,,,,,,,,0.03,0.08,0.99,-3.0,0.0,-0.1,20,0,,,,,,,,,,,,,,,,,,,
45834,1495245330456,,,,,,,,0.04,0.09,0.99,-3.0,-0.0,0.0,380,0,,,,,,,,,,,,,,,,,,,
45854,1495245330476,,,,,,,,0.04,0.08,0.99,-3.0,-0.0,-0.1,380,0,,,,,,,,,,,,,,,,,,,
45874,1495245330496,0,104.8,,114.3,15,111.4,,0.04,0.08,0.99,-3.1,-0.0,-0.2,500,0,1,1,0.0,0,39.540623,-122.332069,0.0,0.0,551.0,4,2,1.5,0,0.0,-1,0.0,0.0,0.0,0
45894,1495245330516,,,,,,,,0.04,0.08,0.99,-3.1,-0.1,-0.4,500,0,,,,,,,,,,,,,,,,,,,
45914,1495245330536,,,,,,,,0.04,0.08,0.99,-3.1,-0.1,-0.3,560,0,,,,,,,,,,,,,,,,,,,
45934,1495245330556,,,,,,,,0.04,0.08,0.99,-3.1,-0.1,-0.2,560,0,,,,,,,,,,,,,,,,,,,
45954,1495245330576,,,,,,,,0.04,0.07,0.99,-3.1,-0.1,-0.2,620,0,,,,,,,,,,,,,,,,,,,
45974,1495245330598,,,,,18,,,0.04,0.08,1.0,-3.1,-0.1,-0.1,660,0,1,1,0.0,0,39.540623,-122.332069,0.0,0.0,551.0,4,2,1.5,0,0.0,-1,0.0,0.0,0.0,0
45994,1495245330618,,,,,,,,0.05,0.07,0.99,-3.0,-0.1,-0.2,760,0,,,,,,,,,,,,,,,,,,,
46014,1495245330638,,,,,,,,0.04,0.07,0.99,-3.0,-0.0,-0.2,760,0,,,,,,,,,,,,,,,,,,,
46034,1495245330658,,,,,,,,0.04,0.08,0.98,-3.1,0.2,-0.0,840,0,,,,,,,,,,,,,,,,,,,
46054,1495245330678,,,,,,,,0.05,0.1,0.98,-3.2,0.2,0.1,900,0,,,,,,,,,,,,,,,,,,,
46074,1495245330698,0,103.2,-0.8,112.8,26,110.3,12.28,0.06,0.11,0.99,-3.2,0.3,0.2,960,0,1,1,0.0,0,39.540623,-122.332069,0.0,0.0,551.0,4,2,1.5,0,0.0,-1,0.0,0.0,0.0,0
46094,1495245330718,,,,,,,,0.06,0.11,1.0,-3.1,0.5,0.2,1000,0,,,,,,,,,,,,,,,,,,,
46114,1495245330738,,,,,,,,0.07,0.11,1.0,-3.1,0.5,0.0,1040,0,,,,,,,,,,,,,,,,,,,
46134,1495245330758,,,,,,,,0.06,0.11,1.01,-3.1,0.6,-0.1,1080,0,,,,,,,,,,,,,,,,,,,
46154,1495245330778,,,,,,,,0.06,0.11,1.01,-3.1,0.5,-0.1,1080,0,,,,,,,,,,,,,,,,,,,
46174,1495245330798,,,,,37,,,0.05,0.1,1.01,-3.1,0.2,-0.2,1100,0,1,1,0.0,0,39.540623,-122.332069,0.0,0.0,551.0,4,2,1.5,0,0.0,-1,0.0,0.0,0.0,0
46194,1495245330818,,,,,,,,0.05,0.09,1.01,-3.0,0.1,-0.2,1100,0,,,,,,,,,,,,,,,,,,,
46214,1495245330838,,,,,,,,0.06,0.08,1.01,-3.0,0.1,-0.2,1120,0,,,,,,,,,,,,,,,,,,,
46234,1495245330858,,,,,,,,0.05,0.08,1.0,-3.0,0.3,-0.2,1120,0,,,,,,,,,,,,,,,,,,,
46254,1495245330878,,,,,,,,0.05,0.07,1.0,-3.0,0.2,-0.2,1100,2,,,,,,,,,,,,,,,,,,,
46274,1495245330898,0,103.8,,112.9,50,110.0,,0.05,0.08,0.98,-3.1,0.1,-0.2,1100,192308,1,1,0.0,0,39.540623,-122.332069,0.0,0.0,551.0,4,2,1.5,0,0.0,-1,0.0,0.0,0.0,0
46294,1495245330918,,,,,,,,0.05,0.09,0.97,-3.1,0.1,-0.1,1140,0,,,,,,,,,,,,,,,,,,,
46314,1495245330938,,,,,,,,0.05,0.09,0.97,-3.1,0.1,-0.1,1080,0,,,,,,,,,,,,,,,,,,,
46334,1495245330958,,,,,,,,0.05,0.08,0.98,-3.1,0.2,-0.1,1080,0,,,,,,,,,,,,,,,,,,,
46354,1495245330978,,,,,,,,0.04,0.09,0.98,-3.1,0.1,-0.1,1060,0,,,,,,,,,,,,,,,,,,,
46374,1495245330992,,,,,62,,,0.04,0.09,0.98,-3.1,0.1,-0.1,1040,0,1,1,0.0,0,39.540623,-122.332069,0.0,0.0,551.0,4,2,1.5,0,0.0,-1,0.0,0.0,0.0,0
46394,1495245331012,,,,,,,,0.04,0.09,0.98,-3.1,0.1,-0.1,1040,0,,,,,,,,,,,,,,,,,,,
46414,1495245331032,,,,,,,,0.04,0.09,0.98,-3.1,0.0,-0.1,1000,0,,,,,,,,,,,,,,,,,,,
46434,1495245331052,,,,,,,,0.05,0.09,0.99,-3.1,0.0,-0.1,1000,0,,,,,,,,,,,,,,,,,,,
46454,1495245331072,,,,,,,,0.05,0.09,0.99,-3.1,-0.0,-0.1,980,0,,,,,,,,,,,,,,,,,,,
46474,1495245331098,0,104.4,,113.9,63,111.6,,0.05,0.08,1.0,-3.1,-0.0,-0.1,940,0,1,1,0.0,0,39.540623,-122.332069,0.0,0.0,551.0,4,2,1.5,0,0.0,-1,0.0,0.0,0.0,0
46494,1495245331118,,,,,,,,0.05,0.09,1.0,-3.1,-0.1,-0.1,900,0,,,,,,,,,,,,,,,,,,,
46514,1495245331138,,,,,,,,0.05,0.09,0.99,-3.1,-0.2,-0.2,860,0,,,,,,,,,,,,,,,,,,,
46534,1495245331158,,,,,,,,0.05,0.09,1.0,-3.1,-0.2,-0.2,860,0,,,,,,,,,,,,,,,,,,,
46554,1495245331178,,,,,,,,0.05,0.08,0.99,-3.1,-0.2,-0.1,820,0,,,,,,,,,,,,,,,,,,,
46574,1495245331198,,,,,59,,,0.05,0.09,0.99,-3.1,-0.2,-0.1,780,0,1,1,0.0,0,39.540623,-122.332069,0.0,0.0,551.0,4,2,1.5,0,0.0,-1,0.0,0.0,0.0,0
46594,1495245331218,,,,,,,,0.05,0.08,0.99,-3.1,-0.2,-0.1,740,0,,,,,,,,,,,,,,,,,,,
46614,1495245331238,,,,,,,,0.04,0.08,0.99,-3.1,-0.2,-0.1,740,0,,,,,,,,,,,,,,,,,,,
46634,1495245331258,,,,,,,,0.04,0.08,0.99,-3.0,-0.2,-0.1,700,0,,,,,,,,,,,,,,,,,,,
46654,1495245331278,,,,,,,,0.05,0.08,0.99,-3.1,-0.3,-0.2,640,0,,,,,,,,,,,,,,,,,,,
46674,1495245331298,0,104.1,,114.0,58,111.6,,0.05,0.08,0.99,-3.0,-0.3,-0.2,640,0,1,1,0.0,0,39.540623,-122.332069,0.0,0.0,551.0,4,2,1.5,0,0.0,-1,0.0,0.0,0.0,0
46694,1495245331318,,,,,,,,0.05,0.08,0.99,-3.0,-0.2,-0.1,580,0,,,,,,,,,,,,,,,,,,,
46714,1495245331338,,,,,,,,0.04,0.09,0.99,-3.0,-0.2,-0.1,580,0,,,,,,,,,,,,,,,,,,,
46734,1495245331358,,,,,,,,0.05,0.09,0.99,-3.1,-0.2,-0.1,520,0,,,,,,,,,,,,,,,,,,,
46754,1495245331378,,,,,,,,0.05,0.08,0.99,-3.0,-0.2,-0.1,520,0,,,,,,,,,,,,,,,,,,,
46774,1495245331397,,,,,54,,,0.04,0.09,0.99,-3.1,-0.2,-0.1,440,0,1,1,0.0,0,39.540623,-122.332069,0.0,0.0,551.0,4,2,1.5,0,0.0,-1,0.0,0.0,0.0,0
46794,1495245331417,,,,,,,,0.04,0.09,0.99,-3.0,-0.3,-0.1,440,0,,,,,,,,,,,,,,,,,,,
46814,1495245331437,,,,,,,,0.04,0.08,0.99,-3.0,-0.2,-0.1,400,0,,,,,,,,,,,,,,,,,,,
46834,1495245331457,,,,,,,,0.05,0.09,0.99,-3.0,-0.3,-0.1,400,0,,,,,,,,,,,,,,,,,,,
46854,1495245331477,,,,,,,,0.05,0.09,0.99,-3.0,-0.3,-0.1,400,0,,,,,,,,,,,,,,,,,,,
46874,1495245331497,0,104.7,,114.2,53,110.5,,0.05,0.09,0.99,-3.1,-0.3,-0.1,360,0,1,1,0.0,0,39.540623,-122.332069,0.0,0.0,551.0,4,2,1.5,0,0.0,-1,0.0,0.0,0.0,0
46894,1495245331517,,,,,,,,0.04,0.09,0.99,-3.1,-0.2,-0.1,360,0,,,,,,,,,,,,,,,,,,,
46914,1495245331537,,,,,,,,0.04,0.09,0.99,-3.0,-0.2,-0.2,360,0,,,,,,,,,,,,,,,,,,,
46934,1495245331557,,,,,,,,0.05,0.09,0.99,-3.1,-0.2,-0.2,320,0,,,,,,,,,,,,,,,,,,,
46954,1495245331577,,,,,,,,0.04,0.08,0.99,-3.0,-0.2,-0.2,320,0,,,,,,,,,,,,,,,,,,,
46974,1495245331595,,,,,46,,,0.04,0.08,0.99,-3.0,-0.2,-0.2,320,0,1,1,0.0,0,39.540623,-122.332069,0.0,0.0,551.0,4,2,1.5,0,0.0,-1,0.0,0.0,0.0,0
46994,1495245331615,,,,,,,,0.04,0.09,0.99,-3.1,-0.2,-0.2,320,0,,,,,,,,,,,,,,,,,,,
47014,1495245331635,,,,,,,,0.04,0.09,0.99,-3.1,-0.2,-0.2,240,0,,,,,,,,,,,,,,,,,,,
47034,1495245331655,,,,,,,,0.04,0.08,0.99,-3.0,-0.2,-0.2,240,0,,,,,,,,,,,,,,,,,,,
47054,1495245331675,,,,,,,,0.04,0.08,0.99,-3.0,-0.2,-0.2,240,0,,,,,,,,,,,,,,,,,,,
47074,1495245331697,0,103.5,-0.5,113.2,42,111.1,12.63,0.04,0.08,0.99,-3.0,-0.2,-0.1,240,0,1,1,0.0,0,39.540623,-122.332069,0.0,0.0,551.0,4,2,1.5,0,0.0,-1,0.0,0.0,0.0,0
47094,1495245331717,,,,,,,,0.04,0.08,1.0,-3.0,-0.2,-0.1,240,0,,,,,,,,,,,,,,,,,,,
47114,1495245331737,,,,,,,,0.04,0.09,1.0,-3.0,-0.2,-0.2,180,0,,,,,,,,,,,,,,,,,,,
47134,1495245331757,,,,,,,,0.04,0.08,1.0,-3.0,-0.2,-0.2,180,0,,,,,,,,,,,,,,,,,,,
47154,1495245331777,,,,,,,,0.04,0.09,1.0,-3.1,-0.2,-0.1,180,0,,,,,,,,,,,,,,,,,,,
47174,1495245331797,,,,,38,,,0.04,0.09,1.0,-3.0,-0.2,-0.1,180,0,1,1,0.0,0,39.540623,-122.332069,0.0,0.0,551.0,4,2,1.5,0,0.0,-1,0.0,0.0,0.0,0
47194,1495245331817,,,,,,,,0.04,0.09,0.99,-3.0,-0.2,-0.1,180,0,,,,,,,,,,,,,,,,,,,
47214,1495245331837,,,,,,,,0.04,0.08,0.99,-3.0,-0.3,-0.1,180,0,,,,,,,,,,,,,,,,,,,
47234,1495245331857,,,,,,,,0.05,0.09,0.99,-3.0,-0.2,-0.2,160,0,,,,,,,,,,,,,,,,,,,
47254,1495245331877,,,,,,,,0.05,0.09,0.98,-3.0,-0.2,-0.2,160,15,,,,,,,,,,,,,,,,,,,
47274,1495245331897,0,104.2,,113.1,35,109.8,,0.05,0.09,0.98,-3.0,-0.1,-0.2,160,15,1,1,0.0,0,39.540623,-122.332069,0.0,0.0,551.0,4,2,1.5,0,0.0,-1,0.0,0.0,0.0,0
47294,1495245331917,,,,,,,,0.05,0.09,0.98,-3.0,-0.1,-0.1,160,15,,,,,,,,,,,,,,,,,,,
47314,1495245331937,,,,,,,,0.05,0.09,0.98,-3.0,-0.1,-0.1,160,15,,,,,,,,,,,,,,,,,,,
47334,1495245331957,,,,,,,,0.05,0.09,0.98,-3.0,-0.1,-0.2,160,15,,,,,,,,,,,,,,,,,,,
47354,1495245331977,,,,,,,,0.05,0.09,0.97,-3.0,-0.1,-0.2,140,15,,,,,,,,,,,,,,,,,,,
47374,1495245331991,,,,,32,,,0.05,0.09,0.98,-3.0,-0.1,-0.2,140,15,1,1,10.667,0,39.540623,-122.332069,0.0,0.0,551.0,4,2,1.5,0,0.0,-1,0.0,0.0,0.0,0
47394,1495245332011,,,,,,,,0.05,0.09,0.98,-3.0,-0.1,-0.2,140,15,,,,,,,,,,,,,,,,,,,
47414,1495245332031,,,,,,,,0.05,0.09,0.98,-3.0,-0.1,-0.1,140,15,,,,,,,,,,,,,,,,,,,
47434,1495245332051,,,,,,,,0.04,0.09,0.98,-3.0,-0.1,-0.1,140,15,,,,,,,,,,,,,,,,,,,
47454,1495245332071,,,,,,,,0.04,0.09,0.98,-3.0,-0.1,-0.2,140,15,,,,,,,,,,,,,,,,,,,
47474,1495245332095,0,105.0,,114.7,31,111.9,,0.04,0.08,0.98,-3.0,-0.1,-0.2,140,15,1,1,9.333,0,39.540623,-122.332069,0.0,0.0,551.0,4,2,1.5,0,0.0,-1,0.0,0.0,0.0,0
47494,1495245332115,,,,,,,,0.04,0.09,0.98,-3.0,-0.1,-0.2,140,15,,,,,,,,,,,,,,,,,,,
47514,1495245332135,,,,,,,,0.04,0.09,0.98,-3.0,-0.1,-0.1,120,15,,,,,,,,,,,,,,,,,,,
47534,1495245332155,,,,,,,,0.04,0.09,0.98,-3.0,-0.1,-0.1,120,15,,,,,,,,,,,,,,,,,,,
47554,1495245332175,,,,,,,,0.05,0.08,0.98,-3.1,-0.2,-0.1,120,15,,,,,,,,,,,,,,,,,,,
47574,1495245332199,,,,,28,,,0.05,0.08,0.98,-3.0,-0.1,-0.1,120,15,1,1,8.0,0,39.540623,-122.332069,0.0,0.0,551.0,4,2,1.5,0,0.0,-1,0.0,0.0,0.0,0
47594,1495245332219,,,,,,,,0.05,0.08,0.98,-3.0,-0.1,-0.1,120,15,,,,,,,,,,,,,,,,,,,
47614,1495245332239,,,,,,,,0.05,0.09,0.98,-3.0,-0.1,-0.2,120,15,,,,,,,,,,,,,,,,,,,
47634,1495245332259,,,,,,,,0.04,0.08,0.98,-3.0,-0.1,-0.1,120,15,,,,,,,,,,,,,,,,,,,
47654,1495245332279,,,,,,,,0.04,0.09,0.98,-3.0,-0.1,-0.1,120,15,,,,,,,,,,,,,,,,,,,
47674,1495245332297,0,103.2,,112.5,26,109.6,,0.04,0.08,0.99,-3.0,-0.0,-0.1,120,15,1,1,8.0,0,39.540623,-122.332069,0.0,0.0,551.0,4,2,1.5,0,0.0,-1,0.0,0.0,0.0,0
47694,1495245332317,,,,,,,,0.04,0.08,0.99,-3.0,-0.1,-0.1,120,15,,,,,,,,,,,,,,,,,,,
47714,1495245332337,,,,,,,,0.04,0.09,0.99,-3.0,-0.1,-0.1,120,15,,,,,,,,,,,,,,,,,,,
47734,1495245332357,,,,,,,,0.04,0.08,0.99,-3.0,-0.1,-0.2,120,15,,,,,,,,,,,,,,,,,,,
47754,1495245332377,,,,,,,,0.04,0.08,0.99,-3.0,-0.1,-0.2,80,15,,,,,,,,,,,,,,,,,,,
47774,1495245332398,,,,,21,,,0.04,0.08,0.99,-3.0,-0.0,-0.2,80,15,1,1,8.0,0,39.540623,-122.332069,0.0,0.0,551.0,4,2,1.5,0,0.0,-1,0.0,0.0,0.0,0
47794,1495245332418,,,,,,,,0.04,0.08,0.99,-3.1,-0.1,-0.1,80,15,,,,,,,,,,,,,,,,,,,
47814,1495245332438,,,,,,,,0.04,0.08,0.99,-3.1,-0.1,-0.1,80,15,,,,,,,,,,,,,,,,,,,
47834,1495245332458,,,,,,,,0.04,0.08,0.99,-3.1,-0.1,-0.1,80,15,,,,,,,,,,,,,,,,,,,
47854,1495245332478,,,,,,,,0.04,0.08,0.99,-3.1,-0.0,-0.1,80,15,,,,,,,,,,,,,,,,,,,
47874,1495245332498,0,102.7,,112.5,20,110.1,,0.04,0.08,0.99,-3.0,-0.1,-0.2,80,15,1,1,5.333,0,39.540623,-122.332069,0.0,0.0,551.0,4,2,1.5,0,0.0,-1,0.0,0.0,0.0,0
47894,1495245332518,,,,,,,,0.04,0.08,0.98,-3.0,-0.1,-0.2,80,15,,,,,,,,,,,,,,,,,,,
47914,1495245332538,,,,,,,,0.04,0.08,0.98,-3.0,-0.0,-0.2,80,15,,,,,,,,,,,,,,,,,,,
47934,1495245332558,,,,,,,,0.04,0.07,0.98,-3.0,-0.0,-0.2,80,15,,,,,,,,,,,,,,,,,,,
47954,1495245332578,,,,,,,,0.04,0.07,0.98,-3.0,-0.0,-0.2,80,15,,,,,,,,,,,,,,,,,,,
47974,1495245332596,,,,,20,,,0.04,0.07,0.98,-3.0,-0.1,-0.2,80,15,1,1,5.333,0,39.540623,-122.332069,0.0,0.0,551.0,4,2,1.5,0,0.0,-1,0.0,0.0,0.0,0
47994,1495245332616,,,,,,,,0.03,0.07,0.98,-3.0,-0.1,-0.2,80,15,,,,,,,,,,,,,,,,,,,
48014,1495245332636,,,,,,,,0.03,0.08,0.99,-3.0,-0.2,-0.1,80,15,,,,,,,,,,,,,,,,,,,
48034,1495245332656,,,,,,,,0.04,0.07,0.97,-3.0,0.3,-0.2,80,15,,,,,,,,,,,,,,,,,,,
48054,1495245332676,,,,,,,,0.04,0.11,0.98,-3.0,0.3,-0.2,80,15,,,,,,,,,,,,,,,,,,,
48074,1495245332698,0,103.2,-0.6,114.5,19,111.9,9.89,0.03,0.11,0.99,-3.0,0.2,-0.3,80,15,1,1,5.333,0,39.540623,-122.332069,0.0,0.0,551.0,4,2,1.5,0,0.0,-1,0.0,0.0,0.0,0
48094,1495245332718,,,,,,,,0.03,0.1,0.98,-3.0,0.1,-0.3,80,1538462,,,,,,,,,,,,,,,,,,,
48114,1495245332738,,,,,,,,0.03,0.1,0.98,-2.9,-0.0,-0.3,80,0,,,,,,,,,,,,,,,,,,,
48134,1495245332758,,,,,,,,0.03,0.09,0.98,-3.0,0.1,-0.3,80,0,,,,,,,,,,,,,,,,,,,
48154,1495245332778,,,,,,,,0.03,0.08,0.98,-3.0,-0.0,-0.2,80,0,,,,,,,,,,,,,,,,,,,
48174,1495245332798,,,,,18,,,0.03,0.08,0.98,-3.0,-0.0,-0.2,80,0,1,1,0.0,0,39.540623,-122.332069,0.0,0.0,551.0,4,2,1.5,0,0.0,-1,0.0,0.0,0.0,0
48194,1495245332818,,,,,,,,0.03,0.08,0.98,-3.0,0.0,-0.2,80,0,,,,,,,,,,,,,,,,,,,
48214,1495245332838,,,,,,,,0.03,0.08,0.98,-3.0,0.0,-0.2,80,0,,,,,,,,,,,,,,,,,,,
48234,1495245332858,,,,,,,,0.03,0.09,0.98,-3.0,0.0,-0.2,80,0,,,,,,,,,,,,,,,,,,,
48254,1495245332878,,,,,,,,0.03,0.09,0.99,-3.0,0.0,-0.1,80,0,,,,,,,,,,,,,,,,,,,
48274,1495245332898,0,103.2,,114.5,18,111.9,,0.04,0.09,0.98,-3.0,-0.1,-0.1,80,0,1,1,0.0,0,39.540623,-122.332069,0.0,0.0,551.0,4,2,1.5,0,0.0,-1,0.0,0.0,0.0,0
48294,1495245332918,,,,,,,,0.04,0.09,0.99,-3.0,-0.1,-0.0,80,0,,,,,,,,,,,,,,,,,,,
48314,1495245332938,,,,,,,,0.04,0.08,0.99,-3.0,-0.1,-0.1,80,0,,,,,,,,,,,,,,,,,,,
48334,1495245332958,,,,,,,,0.04,0.07,0.99,-2.9,-0.1,-0.3,80,0,,,,,,,,,,,,,,,,,,,
48354,1495245332978,,,,,,,,0.04,0.06,0.98,-3.0,0.1,-0.3,80,0,,,,,,,,,,,,,,,,,,,
48374,1495245332998,,,,,19,,,0.05,0.06,0.98,-3.0,0.1,-0.1,80,0,1,1,0.0,0,39.540623,-122.332069,0.0,0.0,551.0,4,2,1.5,0,0.0,-1,0.0,0.0,0.0,0
48394,1495245333010,,,,,,,,0.05,0.08,0.97,-3.0,0.1,0.0,80,0,,,,,,,,,,,,,,,,,,,
48414,1495245333030,,,,,,,,0.05,0.09,0.98,-3.0,-0.1,0.0,80,0,,,,,,,,,,,,,,,,,,,
48434,1495245333050,,,,,,,,0.05,0.1,0.98,-3.1,0.1,-0.0,80,0,,,,,,,,,,,,,,,,,,,
48454,1495245333070,,,,,,,,0.05,0.09,0.98,-3.0,0.1,-0.3,80,0,,,,,,,,,,,,,,,,,,,
48474,1495245333098,0,103.2,,114.3,18,111.9,,0.06,0.08,0.98,-3.0,0.2,-0.4,80,0,1,1,0.0,0,39.540623,-122.332069,0.0,0.0,551.0,4,2,1.5,0,0.0,-1,0.0,0.0,0.0,0
48494,1495245333118,,,,,,,,0.06,0.09,0.98,-3.0,0.2,-0.2,80,0,,,,,,,,,,,,,,,,,,,
48514,1495245333138,,,,,,,,0.06,0.1,0.98,-3.0,0.1,-0.0,80,0,,,,,,,,,,,,,,,,,,,
48534,1495245333158,,,,,,,,0.06,0.11,0.98,-3.0,0.0,0.0,80,0,,,,,,,,,,,,,,,,,,,
48554,1495245333178,,,,,,,,0.06,0.11,0.98,-3.1,0.1,-0.0,80,0,,,,,,,,,,,,,,,,,,,
48574,1495245333198,,,,,19,,,0.04,0.1,0.99,-3.0,0.0,-0.2,80,0,1,1,0.0,0,39.540623,-122.332069,0.0,0.0,551.0,4,2,1.5,0,0.0,-1,0.0,0.0,0.0,0
48594,1495245333218,,,,,,,,0.03,0.1,0.98,-2.9,-0.0,-0.4,20,0,,,,,,,,,,,,,,,,,,,
48614,1495245333238,,,,,,,,0.03,0.09,0.99,-2.9,-0.0,-0.4,20,0,,,,,,,,,,,,,,,,,,,
48634,1495245333258,,,,,,,,0.03,0.08,0.98,-2.9,0.0,-0.2,20,0,,,,,,,,,,,,,,,,,,,
48654,1495245333278,,,,,,,,0.03,0.08,0.98,-3.0,0.1,-0.2,20,0,,,,,,,,,,,,,,,,,,,
48674,1495245333298,0,104.8,,114.7,19,111.5,,0.03,0.08,0.99,-3.0,0.1,-0.2,20,0,1,1,0.0,0,39.540623,-122.332069,0.0,0.0,551.0,4,2,1.5,0,0.0,-1,0.0,0.0,0.0,0
48694,1495245333318,,,,,,,,0.04,0.09,0.99,-3.1,0.0,-0.0,20,0,,,,,,,,,,,,,,,,,,,
48714,1495245333338,,,,,,,,0.04,0.1,0.99,-3.2,-0.2,0.1,180,0,,,,,,,,,,,,,,,,,,,
48734,1495245333358,,,,,,,,0.04,0.12,0.99,-3.2,-0.2,0.1,180,0,,,,,,,,,,,,,,,,,,,
48754,1495245333378,,,,,,,,0.04,0.11,0.99,-3.2,-0.2,0.0,180,0,,,,,,,,,,,,,,,,,,,
48774,1495245333397,,,,,20,,,0.05,0.11,1.0,-3.2,-0.1,0.1,280,0,1,1,0.0,0,39.540623,-122.332069,0.0,0.0,551.0,4,2,1.5,0,0.0,-1,0.0,0.0,0.0,0
48794,1495245333417,,,,,,,,0.04,0.1,1.0,-3.2,-0.2,-0.0,280,0,,,,,,,,,,,,,,,,,,,
48814,1495245333437,,,,,,,,0.04,0.1,1.0,-3.2,-0.2,-0.1,280,0,,,,,,,,,,,,,,,,,,,
48834,1495245333457,,,,,,,,0.04,0.1,1.0,-3.2,-0.2,-0.1,380,0,,,,,,,,,,,,,,,,,,,
48854,1495245333477,,,,,,,,0.04,0.09,1.0,-3.2,-0.3,-0.1,380,0,,,,,,,,,,,,,,,,,,,
48874,1495245333497,0,105.2,,114.2,22,111.1,,0.04,0.1,0.99,-3.3,-0.1,-0.0,360,0,1,1,0.0,0,39.540623,-122.332069,0.0,0.0,551.0,4,2,1.5,0,0.0,-1,0.0,0.0,0.0,0
48894,1495245333517,,,,,,,,0.04,0.1,0.99,-3.2,-0.1,-0.1,360,0,,,,,,,,,,,,,,,,,,,
48914,1495245333537,,,,,,,,0.04,0.1,0.99,-3.3,-0.0,-0.1,360,0,,,,,,,,,,,,,,,,,,,
48934,1495245333557,,,,,,,,0.04,0.1,0.98,-3.3,-0.0,-0.1,320,0,,,,,,,,,,,,,,,,,,,
48954,1495245333577,,,,,,,,0.03,0.09,0.98,-3.3,-0.0,-0.1,320,0,,,,,,,,,,,,,,,,,,,
48974,1495245333597,,,,,24,,,0.03,0.08,0.98,-3.2,-0.1,-0.1,320,0,1,1,0.0,0,39.540623,-122.332069,0.0,0.0,551.0,4,2,1.5,0,0.0,-1,0.0,0.0,0.0,0
48994,1495245333617,,,,,,,,0.03,0.08,0.98,-3.2,-0.0,-0.1,380,0,,,,,,,,,,,,,,,,,,,
49014,1495245333637,,,,,,,,0.03,0.08,0.99,-3.2,-0.0,-0.1,380,0,,,,,,,,,,,,,,,,,,,
49034,1495245333657,,,,,,,,0.03,0.08,0.98,-3.3,-0.2,-0.1,440,0,,,,,,,,,,,,,,,,,,,
49054,1495245333677,,,,,,,,0.04,0.08,0.98,-3.2,-0.2,-0.1,440,0,,,,,,,,,,,,,,,,,,,
49074,1495245333697,0,102.8,-0.4,113.3,26,111.4,11.53,0.03,0.09,0.98,-3.3,-0.2,-0.1,440,0,1,1,0.0,0,39.540623,-122.332069,0.0,0.0,551.0,4,2,1.5,0,0.0,-1,0.0,0.0,0.0,0
49094,1495245333717,,,,,,,,0.03,0.08,0.98,-3.2,-0.2,-0.2,440,0,,,,,,,,,,,,,,,,,,,
49114,1495245333737,,,,,,,,0.04,0.09,0.99,-3.2,-0.2,-0.2,440,0,,,,,,,,,,,,,,,,,,,
49134,1495245333757,,,,,,,,0.03,0.09,0.99,-3.3,-0.2,-0.2,440,0,,,,,,,,,,,,,,,,,,,
49154,1495245333777,,,,,,,,0.03,0.09,0.99,-3.2,-0.2,-0.2,440,0,,,,,,,,,,,,,,,,,,,
49174,1495245333797,,,,,29,,,0.03,0.08,0.99,-3.3,-0.2,-0.2,440,0,1,1,0.0,0,39.540623,-122.332069,0.0,0.0,551.0,4,2,1.5,0,0.0,-1,0.0,0.0,0.0,0
49194,1495245333817,,,,,,,,0.03,0.07,0.99,-3.2,-0.2,-0.3,440,0,,,,,,,,,,,,,,,,,,,
49214,1495245333837,,,,,,,,0.03,0.07,0.99,-3.3,-0.1,-0.2,520,0,,,,,,,,,,,,,,,,,,,
49234,1495245333857,,,,,,,,0.03,0.07,0.99,-3.3,-0.2,-0.2,520,0,,,,,,,,,,,,,,,,,,,
49254,1495245333877,,,,,,,,0.03,0.07,0.99,-3.3,-0.2,-0.2,500,0,,,,,,,,,,,,,,,,,,,
49274,1495245333897,0,105.1,,114.4,34,110.9,,0.03,0.07,0.99,-3.3,-0.2,-0.2,560,0,1,1,0.0,0,39.540623,-122.332069,0.0,0.0,551.0,4,2,1.5,0,0.0,-1,0.0,0.0,0.0,0
49294,1495245333917,,,,,,,,0.03,0.07,0.98,-3.3,-0.3,-0.1,560,0,,,,,,,,,,,,,,,,,,,
49314,1495245333937,,,,,,,,0.03,0.08,0.99,-3.3,-0.2,-0.0,580,0,,,,,,,,,,,,,,,,,,,
49334,1495245333957,,,,,,,,0.03,0.08,0.98,-3.3,-0.2,-0.1,580,0,,,,,,,,,,,,,,,,,,,
49354,1495245333977,,,,,,,,0.03,0.08,0.99,-3.3,-0.2,-0.0,620,0,,,,,,,,,,,,,,,,,,,
49374,1495245333991,,,,,37,,,0.03,0.09,0.99,-3.4,-0.2,-0.0,640,0,1,1,0.0,0,39.540623,-122.332069,0.0,0.0,551.0,4,2,1.5,0,0.0,-1,0.0,0.0,0.0,0
49394,1495245334011,,,,,,,,0.03,0.09,0.99,-3.4,-0.2,-0.1,640,0,,,,,,,,,,,,,,,,,,,
49414,1495245334031,,,,,,,,0.03,0.09,0.99,-3.4,-0.1,0.0,660,0,,,,,,,,,,,,,,,,,,,
49434,1495245334051,,,,,,,,0.04,0.09,0.99,-3.5,-0.2,0.1,700,0,,,,,,,,,,,,,,,,,,,
49454,1495245334071,,,,,,,,0.03,0.09,1.0,-3.5,-0.2,0.0,720,0,,,,,,,,,,,,,,,,,,,
49474,1495245334097,0,103.4,,113.1,47,110.6,,0.04,0.08,1.0,-3.5,-0.1,-0.0,720,0,1,1,0.0,0,39.540623,-122.332069,0.0,0.0,551.0,4,2,1.5,0,0.0,-1,0.0,0.0,0.0,0
49494,1495245334117,,,,,,,,0.04,0.08,0.99,-3.5,-0.0,0.1,740,0,,,,,,,,,,,,,,,,,,,
49514,1495245334137,,,,,,,,0.04,0.09,1.0,-3.5,-0.2,0.1,760,0,,,,,,,,,,,,,,,,,,,
49534,1495245334157,,,,,,,,0.04,0.08,0.99,-3.4,-0.3,-0.0,780,0,,,,,,,,,,,,,,,,,,,
49554,1495245334177,,,,,,,,0.04,0.08,0.99,-3.5,-0.3,-0.0,780,0,,,,,,,,,,,,,,,,,,,
49574,1495245334199,,,,,54,,,0.04,0.08,0.99,-3.5,-0.3,0.1,800,0,1,1,0.0,0,39.540623,-122.332069,0.0,0.0,551.0,4,2,1.5,0,0.0,-1,0.0,0.0,0.0,0
49594,1495245334219,,,,,,,,0.04,0.09,0.98,-3.6,-0.2,0.2,800,0,,,,,,,,,,,,,,,,,,,
49614,1495245334239,,,,,,,,0.04,0.1,0.99,-3.6,-0.3,0.2,840,0,,,,,,,,,,,,,,,,,,,
49634,1495245334259,,,,,,,,0.04,0.09,0.99,-3.5,-0.2,0.0,840,0,,,,,,,,,,,,,,,,,,,
49654,1495245334279,,,,,,,,0.04,0.08,0.99,-3.5,-0.2,-0.1,860,0,,,,,,,,,,,,,,,,,,,
49674,1495245334299,0,103.1,,113.5,62,111.1,,0.04,0.06,0.99,-3.4,-0.2,-0.1,880,0,1,1,0.0,0,39.540623,-122.332069,0.0,0.0,551.0,4,2,1.5,0,0.0,-1,0.0,0.0,0.0,0
49694,1495245334319,,,,,,,,0.04,0.06,0.98,-3.5,-0.3,-0.0,880,0,,,,,,,,,,,,,,,,,,,
49714,1495245334339,,,,,,,,0.04,0.06,0.98,-3.5,-0.1,0.1,900,0,,,,,,,,,,,,,,,,,,,
49734,1495245334359,,,,,,,,0.05,0.08,0.98,-3.6,-0.0,0.1,900,0,,,,,,,,,,,,,,,,,,,
49754,1495245334379,,,,,,,,0.06,0.1,0.99,-3.6,-0.0,0.1,920,0,,,,,,,,,,,,,,,,,,,
49774,1495245334398,,,,,62,,,0.05,0.11,0.99,-3.7,-0.1,0.1,920,0,1,1,0.0,0,39.540623,-122.332069,0.0,0.0,551.0,4,2,1.5,0,0.0,-1,0.0,0.0,0.0,0
49794,1495245334418,,,,,,,,0.05,0.1,1.0,-3.7,-0.3,0.1,920,0,,,,,,,,,,,,,,,,,,,
49814,1495245334438,,,,,,,,0.04,0.1,1.0,-3.7,-0.3,0.0,940,0,,,,,,,,,,,,,,,,,,,
49834,1495245334458,,,,,,,,0.04,0.1,1.0,-3.6,-0.2,-0.0,940,0,,,,,,,,,,,,,,,,,,,
49854,1495245334478,,,,,,,,0.04,0.1,1.0,-3.7,-0.2,-0.1,960,0,,,,,,,,,,,,,,,,,,,
49874,1495245334498,0,104.4,,113.1,64,110.0,,0.03,0.09,1.0,-3.7,-0.1,-0.1,960,0,1,1,0.0,0,39.540623,-122.332069,0.0,0.0,551.0,4,2,1.5,0,0.0,-1,0.0,0.0,0.0,0
49894,1495245334518,,,,,,,,0.03,0.08,0.99,-3.7,-0.1,-0.1,940,0,,,,,,,,,,,,,,,,,,,
49914,1495245334538,,,,,,,,0.03,0.08,0.98,-3.7,-0.1,-0.2,960,0,,,,,,,,,,,,,,,,,,,
49934,1495245334558,,,,,,,,0.03,0.07,0.98,-3.7,-0.1,-0.2,960,0,,,,,,,,,,,,,,,,,,,
49954,1495245334578,,,,,,,,0.04,0.06,0.97,-3.6,-0.1,-0.2,960,12,,,,,,,,,,,,,,,,,,,
49974,1495245334596,,,,,65,,,0.04,0.06,0.98,-3.6,0.0,-0.3,960,12,1,1,0.0,0,39.540623,-122.332069,0.0,0.0,551.0,4,2,1.5,0,0.0,-1,0.0,0.0,0.0,0
49994,1495245334616,,,,,,,,0.04,0.05,0.98,-3.6,-0.0,-0.3,960,12,,,,,,,,,,,,,,,,,,,
50014,1495245334636,,,,,,,,0.05,0.06,0.99,-3.7,-0.0,-0.3,960,12,,,,,,,,,,,,,,,,,,,
50034,1495245334656,,,,,,,,0.05,0.06,0.99,-3.7,0.0,-0.2,960,20,,,,,,,,,,,,,,,,,,,
50054,1495245334676,,,,,,,,0.04,0.06,1.0,-3.8,0.0,-0.2,940,20,,,,,,,,,,,,,,,,,,,
50074,1495245334698,0,104.8,-0.5,114.6,60,111.4,14.67,0.04,0.06,1.0,-3.9,-0.1,-0.1,940,31,1,1,80.0,0,39.540623,-122.332069,0.0,0.0,551.0,4,2,1.5,0,0.0,-1,0.0,0.0,0.0,0
50094,1495245334718,,,,,,,,0.04,0.06,1.0,-3.9,-0.2,0.0,940,46,,,,,,,,,,,,,,,,,,,
50114,1495245334738,,,,,,,,0.04,0.08,0.99,-3.9,-0.4,0.1,940,58,,,,,,,,,,,,,,,,,,,
50134,1495245334758,,,,,,,,0.04,0.09,0.99,-3.9,-0.4,0.1,940,58,,,,,,,,,,,,,,,,,,,
50154,1495245334778,,,,,,,,0.04,0.09,1.0,-3.9,-0.3,0.1,920,58,,,,,,,,,,,,,,,,,,,
50174,1495245334798,,,,,63,,,0.05,0.09,1.0,-3.9,-0.2,0.2,920,58,1,1,20.435,0,39.540623,-122.332069,0.0,0.0,551.0,4,2,1.5,0,0.0,-1,0.0,0.0,0.0,0
50194,1495245334818,,,,,,,,0.05,0.1,1.0,-4.0,-0.2,0.3,920,38,,,,,,,,,,,,,,,,,,,
50214,1495245334838,,,,,,,,0.05,0.11,0.99,-4.1,-0.4,0.3,900,38,,,,,,,,,,,,,,,,,,,
50234,1495245334858,,,,,,,,0.04,0.1,1.0,-4.2,-0.4,0.3,900,20,,,,,,,,,,,,,,,,,,,
50254,1495245334878,,,,,,,,0.03,0.09,1.0,-4.2,-0.4,0.2,900,20,,,,,,,,,,,,,,,,,,,
50274,1495245334892,0,104.7,,114.5,61,110.2,,0.03,0.09,1.0,-4.2,-0.4,0.0,880,20,1,1,23.684,0,39.540623,-122.332069,0.0,0.0,551.0,4,2,1.5,0,0.0,-1,0.0,0.0,0.0,0
50294,1495245334912,,,,,,,,0.03,0.09,0.99,-4.2,-0.3,-0.0,880,20,,,,,,,,,,,,,,,,,,,
50314,1495245334932,,,,,,,,0.03,0.08,0.99,-4.2,-0.3,-0.0,860,20,,,,,,,,,,,,,,,,,,,
50334,1495245334952,,,,,,,,0.03,0.08,0.99,-4.3,-0.3,-0.0,860,20,,,,,,,,,,,,,,,,,,,
50354,1495245334972,,,,,,,,0.03,0.09,0.98,-4.3,-0.2,0.1,860,14,,,,,,,,,,,,,,,,,,,
50374,1495245334992,,,,,61,,,0.04,0.11,0.98,-4.4,-0.1,0.1,860,14,1,1,44.0,0,39.540623,-122.332069,0.0,0.0,551.0,4,2,1.5,0,0.0,-1,0.0,0.0,0.0,0
50394,1495245335010,,,,,,,,0.04,0.12,0.99,-4.5,-0.2,0.1,860,14,,,,,,,,,,,,,,,,,,,
50414,1495245335030,,,,,,,,0.03,0.12,1.0,-4.5,-0.2,-0.0,860,14,,,,,,,,,,,,,,,,,,,
50434,1495245335050,,,,,,,,0.03,0.12,1.01,-4.5,-0.2,-0.2,840,14,,,,,,,,,,,,,,,,,,,
50454,1495245335070,,,,,,,,0.02,0.1,1.01,-4.6,-0.3,-0.2,840,15,,,,,,,,,,,,,,,,,,,
50474,1495245335098,1,104.8,,114.6,62,110.1,,0.02,0.1,1.0,-4.6,-0.3,-0.2,840,15,1,1,66.154,0,39.540623,-122.332069,0.0,0.0,551.0,4,2,1.5,0,0.0,-1,0.0,0.0,0.0,0
50494,1495245335118,,,,,,,,0.03,0.1,0.99,-4.7,-0.4,0.0,840,15,,,,,,,,,,,,,,,,,,,
50514,1495245335138,,,,,,,,0.04,0.1,0.99,-4.8,-0.3,0.1,820,15,,,,,,,,,,,,,,,,,,,
50534,1495245335158,,,,,,,,0.04,0.11,0.99,-4.8,-0.3,0.1,840,17,,,,,,,,,,,,,,,,,,,
50554,1495245335178,,,,,,,,0.03,0.11,0.99,-4.8,-0.3,-0.1,820,17,,,,,,,,,,,,,,,,,,,
50574,1495245335198,,,,,63,,,0.03,0.11,0.99,-4.8,-0.3,-0.2,820,17,1,1,54.667,0,39.540623,-122.332069,0.0,0.0,551.0,4,2,1.5,0,0.0,-1,0.0,0.0,0.0,0
50594,1495245335218,,,,,,,,0.02,0.09,0.99,-4.9,-0.3,-0.2,820,17,,,,,,,,,,,,,,,,,,,
50614,1495245335238,,,,,,,,0.03,0.09,0.99,-4.9,-0.2,-0.0,800,18,,,,,,,,,,,,,,,,,,,
50634,1495245335258,,,,,,,,0.03,0.1,0.99,-5.0,-0.1,0.1,800,18,,,,,,,,,,,,,,,,,,,
50654,1495245335278,,,,,,,,0.03,0.11,0.99,-5.0,-0.2,0.1,820,18,,,,,,,,,,,,,,,,,,,
50674,1495245335298,0,104.7,,114.5,61,110.1,,0.03,0.11,1.0,-5.0,-0.3,-0.1,820,18,1,1,50.0,0,39.540623,-122.332069,0.0,0.0,551.0,4,2,1.5,0,0.0,-1,0.0,0.0,0.0,0
50694,1495245335318,,,,,,,,0.02,0.1,1.0,-5.0,-0.2,-0.2,800,23,,,,,,,,,,,,,,,,,,,
50714,1495245335338,,,,,,,,0.02,0.09,1.0,-5.1,-0.2,-0.1,800,23,,,,,,,,,,,,,,,,,,,
50734,1495245335358,,,,,,,,0.02,0.1,0.99,-5.2,-0.2,0.0,800,25,,,,,,,,,,,,,,,,,,,
50754,1495245335378,,,,,,,,0.03,0.11,0.99,-5.3,-0.1,0.1,800,25,,,,,,,,,,,,,,,,,,,
50774,1495245335397,,,,,61,,,0.02,0.11,0.99,-5.4,-0.2,-0.0,820,25,1,1,34.783,0,39.540623,-122.332069,0.0,0.0,551.0,4,2,1.5,0,0.0,-1,0.0,0.0,0.0,0
50794,1495245335417,,,,,,,,0.01,0.1,1.0,-5.3,-0.2,-0.2,820,23,,,,,,,,,,,,,,,,,,,
50814,1495245335437,,,,,,,,0.01,0.1,1.0,-5.4,-0.2,-0.2,820,23,,,,,,,,,,,,,,,,,,,
50834,1495245335457,,,,,,,,0.01,0.09,0.99,-5.5,-0.2,-0.1,820,23,,,,,,,,,,,,,,,,,,,
50854,1495245335477,,,,,,,,0.02,0.1,0.98,-5.6,-0.1,-0.0,800,31,,,,,,,,,,,,,,,,,,,
50874,1495245335497,0,104.1,,114.6,61,112.2,,0.02,0.11,0.98,-5.6,-0.1,-0.0,800,31,1,1,35.652,0,39.540623,-122.332069,0.0,0.0,551.0,4,2,1.5,0,0.0,-1,0.0,0.0,0.0,0
50894,1495245335517,,,,,,,,0.01,0.11,0.99,-5.7,-0.1,-0.1,800,28,,,,,,,,,,,,,,,,,,,
50914,1495245335537,,,,,,,,0.0,0.1,0.99,-5.7,-0.1,-0.2,820,28,,,,,,,,,,,,,,,,,,,
50934,1495245335557,,,,,,,,0.0,0.08,0.99,-5.7,-0.0,-0.2,820,28,,,,,,,,,,,,,,,,,,,
50954,1495245335577,,,,,,,,0.01,0.09,0.98,-5.8,-0.0,-0.1,820,31,,,,,,,,,,,,,,,,,,,
50974,1495245335597,,,,,62,,,0.02,0.09,0.98,-6.0,0.1,0.0,820,31,1,1,29.63,0,39.540623,-122.332069,0.0,0.0,551.0,4,2,1.5,0,0.0,-1,0.0,0.0,0.0,0
50994,1495245335617,,,,,,,,0.01,0.1,0.98,-6.1,0.0,-0.1,820,34,,,,,,,,,,,,,,,,,,,
51014,1495245335637,,,,,,,,0.01,0.11,0.99,-6.1,-0.1,-0.2,820,34,,,,,,,,,,,,,,,,,,,
51034,1495245335657,,,,,,,,0.0,0.1,0.99,-6.2,-0.1,-0.3,820,34,,,,,,,,,,,,,,,,,,,
51054,1495245335677,,,,,,,,0.0,0.09,0.99,-6.3,-0.1,-0.2,820,32,,,,,,,,,,,,,,,,,,,
51074,1495245335697,0,103.1,-0.9,113.3,61,110.8,14.71,0.01,0.1,0.98,-6.4,-0.1,-0.1,820,38,1,1,24.848,0,39.540623,-122.332069,0.0,0.0,551.0,4,2,1.5,0,0.0,-1,0.0,0.0,0.0,0
51094,1495245335717,,,,,,,,0.02,0.1,0.97,-6.5,0.0,0.0,840,38,,,,,,,,,,,,,,,,,,,
51114,1495245335737,,,,,,,,0.02,0.11,0.98,-6.6,-0.1,-0.1,840,38,,,,,,,,,,,,,,,,,,,
51134,1495245335757,,,,,,,,0.01,0.11,0.99,-6.7,-0.2,-0.2,840,35,,,,,,,,,,,,,,,,,,,
51154,1495245335777,,,,,,,,0.01,0.1,0.99,-6.7,-0.1,-0.3,820,40,,,,,,,,,,,,,,,,,,,
51174,1495245335797,,,,,62,,,0.01,0.09,0.99,-6.8,-0.1,-0.2,820,40,1,1,22.105,0,39.540623,-122.332069,0.0,0.0,551.0,4,2,1.5,0,0.0,-1,0.0,0.0,0.0,0
51194,1495245335817,,,,,,,,0.01,0.1,0.98,-6.8,-0.1,-0.1,820,42,,,,,,,,,,,,,,,,,,,
51214,1495245335837,,,,,,,,0.02,0.1,0.98,-7.0,0.1,0.0,840,42,,,,,,,,,,,,,,,,,,,
51234,1495245335857,,,,,,,,0.02,0.12,0.98,-7.1,-0.1,-0.0,840,40,,,,,,,,,,,,,,,,,,,
51254,1495245335877,,,,,,,,0.01,0.11,0.99,-7.1,-0.1,-0.2,840,40,,,,,,,,,,,,,,,,,,,
51274,1495245335897,0,104.3,,114.8,64,112.2,,0.01,0.1,0.99,-7.2,-0.2,-0.3,840,46,1,1,20.488,0,39.540623,-122.332069,0.0,0.0,551.0,4,2,1.5,0,0.0,-1,0.0,0.0,0.0,0
51294,1495245335917,,,,,,,,0.01,0.09,0.99,-7.2,-0.2,-0.3,840,45,,,,,,,,,,,,,,,,,,,
51314,1495245335937,,,,,,,,0.01,0.1,0.98,-7.3,-0.3,-0.1,840,45,,,,,,,,,,,,,,,,,,,
51334,1495245335957,,,,,,,,0.02,0.11,0.98,-7.5,-0.1,-0.0,840,46,,,,,,,,,,,,,,,,,,,
51354,1495245335977,,,,,,,,0.02,0.12,0.98,-7.6,-0.2,0.0,840,49,,,,,,,,,,,,,,,,,,,
51374,1495245335991,,,,,60,,,0.02,0.12,0.99,-7.7,-0.3,-0.1,840,49,1,1,19.091,0,39.540623,-122.332069,0.0,0.0,551.0,4,2,1.5,0,0.0,-1,0.0,0.0,0.0,0
51394,1495245336011,,,,,,,,0.01,0.11,1.0,-7.8,-0.3,-0.3,840,46,,,,,,,,,,,,,,,,,,,
51414,1495245336031,,,,,,,,0.0,0.11,1.0,-7.8,-0.3,-0.3,840,52,,,,,,,,,,,,,,,,,,,
51434,1495245336051,,,,,,,,0.01,0.09,0.99,-7.9,-0.4,-0.2,840,52,,,,,,,,,,,,,,,,,,,
51454,1495245336071,,,,,,,,0.01,0.1,0.98,-8.1,-0.3,-0.1,840,51,,,,,,,,,,,,,,,,,,,
51474,1495245336099,0,104.7,,115.2,62,112.2,,0.02,0.11,0.97,-8.2,-0.2,0.0,840,52,1,1,18.261,0,39.540623,-122.332069,0.0,0.0,551.0,4,2,1.5,0,0.0,-1,0.0,0.0,0.0,0
51494,1495245336119,,,,,,,,0.01,0.12,0.97,-8.3,-0.4,-0.0,840,52,,,,,,,,,,,,,,,,,,,
51514,1495245336139,,,,,,,,0.01,0.12,0.99,-8.3,-0.3,-0.1,840,58,,,,,,,,,,,,,,,,,,,
51534,1495245336159,,,,,,,,-0.0,0.11,0.99,-8.3,-0.4,-0.3,840,52,,,,,,,,,,,,,,,,,,,
51554,1495245336179,,,,,,,,-0.0,0.1,0.99,-8.5,-0.3,-0.2,820,58,,,,,,,,,,,,,,,,,,,
51574,1495245336199,,,,,64,,,-0.0,0.1,0.98,-8.6,-0.3,-0.1,820,58,1,1,14.483,0,39.540623,-122.332069,0.0,0.0,551.0,4,2,1.5,0,0.0,-1,0.0,0.0,0.0,0
51594,1495245336219,,,,,,,,0.01,0.11,0.97,-8.7,-0.2,0.1,820,63,,,,,,,,,,,,,,,,,,,
51614,1495245336239,,,,,,,,0.01,0.12,0.98,-8.8,-0.3,0.1,820,57,,,,,,,,,,,,,,,,,,,
51634,1495245336259,,,,,,,,-0.0,0.12,0.99,-8.9,-0.2,-0.0,820,60,,,,,,,,,,,,,,,,,,,
51654,1495245336279,,,,,,,,-0.01,0.11,1.0,-8.9,-0.2,-0.2,820,68,,,,,,,,,,,,,,,,,,,
51674,1495245336299,1,105.2,,115.4,62,111.4,,-0.01,0.1,1.0,-9.1,-0.2,-0.2,820,68,1,1,14.643,0,39.540623,-122.332069,0.0,0.0,551.0,4,2,1.5,0,0.0,-1,0.0,0.0,0.0,0
51694,1495245336319,,,,,,,,-0.0,0.1,0.99,-9.2,-0.3,-0.1,820,63,,,,,,,,,,,,,,,,,,,
51714,1495245336339,,,,,,,,0.01,0.11,0.98,-9.3,-0.1,-0.0,820,62,,,,,,,,,,,,,,,,,,,
51734,1495245336359,,,,,,,,0.01,0.12,0.99,-9.5,-0.2,-0.0,820,66,,,,,,,,,,,,,,,,,,,
51754,1495245336379,,,,,,,,0.01,0.12,1.0,-9.6,-0.2,-0.1,820,69,,,,,,,,,,,,,,,,,,,
51774,1495245336394,,,,,61,,,-0.0,0.11,1.0,-9.6,-0.2,-0.2,820,69,1,1,13.443,0,39.540623,-122.332069,0.0,0.0,551.0,4,2,1.5,0,0.0,-1,0.0,0.0,0.0,0
51794,1495245336414,,,,,,,,-0.0,0.1,1.0,-9.7,-0.1,-0.2,820,66,,,,,,,,,,,,,,,,,,,
51814,1495245336434,,,,,,,,0.0,0.1,0.99,-9.8,-0.1,-0.1,820,68,,,,,,,,,,,,,,,,,,,
51834,1495245336454,,,,,,,,0.01,0.11,0.98,-10.0,0.0,-0.0,820,75,,,,,,,,,,,,,,,,,,,
51854,1495245336474,,,,,,,,0.0,0.12,0.99,-10.1,-0.1,-0.0,800,77,,,,,,,,,,,,,,,,,,,
51874,1495245336500,0,102.9,,113.3,61,111.2,,-0.0,0.12,0.99,-10.2,-0.2,-0.2,800,71,1,1,12.424,0,39.540623,-122.332069,0.0,0.0,551.0,4,2,1.5,0,0.0,-1,0.0,0.0,0.0,0
51894,1495245336520,,,,,,,,-0.01,0.11,0.99,-10.3,-0.2,-0.2,800,69,,,,,,,,,,,,,,,,,,,
51914,1495245336540,,,,,,,,-0.01,0.1,0.99,-10.4,-0.3,-0.1,800,78,,,,,,,,,,,,,,,,,,,
51934,1495245336560,,,,,,,,0.0,0.11,0.98,-10.6,-0.2,0.1,800,83,,,,,,,,,,,,,,,,,,,
51954,1495245336580,,,,,,,,0.0,0.11,0.98,-10.7,-0.3,0.1,820,78,,,,,,,,,,,,,,,,,,,
51974,1495245336598,,,,,60,,,-0.0,0.11,1.0,-10.8,-0.2,0.0,820,75,1,1,11.594,0,39.540623,-122.332069,0.0,0.0,551.0,4,2,1.5,0,0.0,-1,0.0,0.0,0.0,0
51994,1495245336618,,,,,,,,-0.01,0.1,1.0,-10.9,-0.3,-0.1,820,83,,,,,,,,,,,,,,,,,,,
52014,1495245336638,,,,,,,,-0.01,0.1,1.0,-11.0,-0.3,-0.0,820,88,,,,,,,,,,,,,,,,,,,
52034,1495245336658,,,,,,,,-0.01,0.11,0.99,-11.2,-0.3,0.2,800,85,,,,,,,,,,,,,,,,,,,
52054,1495245336678,,,,,,,,0.0,0.12,0.99,-11.4,-0.2,0.3,820,80,,,,,,,,,,,,,,,,,,,
52074,1495245336698,0,105.2,-0.3,115.6,59,111.1,14.66,0.0,0.13,0.99,-11.5,-0.5,0.2,820,86,1,1,9.425,0,39.540623,-122.332069,0.0,0.0,551.0,4,2,1.5,0,0.0,-1,0.0,0.0,0.0,0
52094,1495245336718,,,,,,,,-0.01,0.12,0.99,-11.5,-0.5,0.1,820,89,,,,,,,,,,,,,,,,,,,
52114,1495245336738,,,,,,,,-0.01,0.11,1.0,-11.6,-0.5,-0.1,820,85,,,,,,,,,,,,,,,,,,,
52134,1495245336758,,,,,,,,-0.01,0.1,0.99,-11.7,-0.5,0.0,820,86,,,,,,,,,,,,,,,,,,,
52154,1495245336778,,,,,,,,-0.0,0.11,0.98,-11.9,-0.4,0.2,820,92,,,,,,,,,,,,,,,,,,,
52174,1495245336800,,,,,60,,,0.0,0.12,0.98,-12.0,-0.3,0.2,820,95,1,1,9.213,0,39.540623,-122.332069,0.0,0.0,551.0,4,2,1.5,0,0.0,-1,0.0,0.0,0.0,0
52194,1495245336820,,,,,,,,-0.0,0.13,0.99,-12.1,-0.3,0.1,820,92,,,,,,,,,,,,,,,,,,,
52214,1495245336840,,,,,,,,-0.01,0.12,0.99,-12.2,-0.4,-0.0,820,91,,,,,,,,,,,,,,,,,,,
52234,1495245336860,,,,,,,,-0.01,0.11,0.99,-12.3,-0.3,-0.1,820,94,,,,,,,,,,,,,,,,,,,
52254,1495245336880,,,,,,,,-0.0,0.1,0.98,-12.5,-0.4,0.1,820,97,,,,,,,,,,,,,,,,,,,
52274,1495245336900,0,104.9,,115.1,60,110.0,,0.0,0.12,0.97,-12.7,-0.3,0.2,820,100,1,1,9.213,0,39.540623,-122.332069,0.0,0.0,551.0,4,2,1.5,0,0.0,-1,0.0,0.0,0.0,0
52294,1495245336920,,,,,,,,0.01,0.12,0.97,-12.8,-0.4,0.2,820,100,,,,,,,,,,,,,,,,,,,
52314,1495245336940,,,,,,,,0.0,0.12,0.98,-12.9,-0.4,0.0,820,97,,,,,,,,,,,,,,,,,,,
52334,1495245336960,,,,,,,,-0.0,0.12,0.99,-13.0,-0.4,-0.1,800,98,,,,,,,,,,,,,,,,,,,
52354,1495245336980,,,,,,,,-0.01,0.11,0.99,-13.1,-0.3,-0.0,820,106,,,,,,,,,,,,,,,,,,,
52374,1495245336994,,,,,60,,,-0.0,0.11,0.98,-13.3,-0.3,0.2,820,105,1,1,8.542,0,39.540623,-122.332069,0.0,0.0,551.0,4,2,1.5,0,0.0,-1,0.0,0.0,0.0,0
52394,1495245337014,,,,,,,,0.01,0.13,0.97,-13.5,-0.2,0.3,820,102,,,,,,,,,,,,,,,,,,,
52414,1495245337034,,,,,,,,0.01,0.13,0.98,-13.6,-0.3,0.4,820,106,,,,,,,,,,,,,,,,,,,
52434,1495245337054,,,,,,,,-0.0,0.13,0.99,-13.7,-0.3,0.3,820,112,,,,,,,,,,,,,,,,,,,
52454,1495245337074,,,,,,,,-0.01,0.13,0.99,-13.8,-0.3,0.1,820,108,,,,,,,,,,,,,,,,,,,
52474,1495245337100,0,104.7,,115.6,62,112.2,,-0.01,0.12,0.99,-13.9,-0.2,0.1,820,103,1,1,8.119,0,39.540623,-122.332069,0.0,0.0,551.0,4,2,1.5,0,0.0,-1,0.0,0.0,0.0,0
52494,1495245337120,,,,,,,,-0.0,0.13,0.98,-14.0,-0.2,0.3,820,112,,,,,,,,,,,,,,,,,,,
52514,1495245337140,,,,,,,,0.01,0.13,0.98,-14.2,-0.0,0.4,820,117,,,,,,,,,,,,,,,,,,,
52534,1495245337160,,,,,,,,0.01,0.14,0.99,-14.3,-0.2,0.3,820,112,,,,,,,,,,,,,,,,,,,
52554,1495245337180,,,,,,,,-0.0,0.14,1.0,-14.4,-0.2,0.1,820,111,,,,,,,,,,,,,,,,,,,
52574,1495245337202,,,,,60,,,-0.01,0.13,1.01,-14.5,-0.3,-0.0,820,118,1,1,7.321,0,39.540623,-122.332069,0.0,0.0,551.0,4,2,1.5,0,0.0,-1,0.0,0.0,0.0,0
52594,1495245337222,,,,,,,,-0.0,0.12,1.0,-14.6,-0.3,0.0,820,120,,,,,,,,,,,,,,,,,,,
52614,1495245337242,,,,,,,,-0.0,0.13,0.99,-14.8,-0.3,0.2,820,117,,,,,,,,,,,,,,,,,,,
52634,1495245337262,,,,,,,,0.0,0.14,0.99,-15.0,-0.3,0.3,820,117,,,,,,,,,,,,,,,,,,,
52654,1495245337282,,,,,,,,-0.0,0.14,0.99,-15.1,-0.4,0.2,820,122,,,,,,,,,,,,,,,,,,,
52674,1495245337300,0,104.4,,115.4,58,112.7,,-0.01,0.13,0.99,-15.1,-0.4,0.1,820,123,1,1,6.833,0,39.540619,-122.332085,1.11,0.0,538.0,4,2,1.5,0,0.0,-1,0.0,0.0,0.0,0
52694,1495245337320,,,,,,,,-0.01,0.12,0.99,-15.2,-0.3,0.0,820,123,,,,,,,,,,,,,,,,,,,
52714,1495245337340,,,,,,,,-0.01,0.11,0.98,-15.4,-0.3,0.1,820,123,,,,,,,,,,,,,,,,,,,
52734,1495245337360,,,,,,,,0.0,0.13,0.98,-15.6,-0.2,0.2,820,123,,,,,,,,,,,,,,,,,,,
52754,1495245337380,,,,,,,,0.0,0.14,0.98,-15.7,-0.3,0.2,820,125,,,,,,,,,,,,,,,,,,,
52774,1495245337399,,,,,61,,,-0.0,0.14,0.99,-15.9,-0.2,0.0,820,128,1,1,6.667,0,39.540619,-122.332085,0.0,0.0,538.0,4,2,1.5,0,0.0,-1,0.0,0.0,0.0,0
52794,1495245337419,,,,,,,,-0.01,0.13,1.0,-15.9,-0.3,-0.1,820,131,,,,,,,,,,,,,,,,,,,
52814,1495245337439,,,,,,,,-0.01,0.12,1.0,-16.0,-0.2,-0.1,820,131,,,,,,,,,,,,,,,,,,,
52834,1495245337459,,,,,,,,0.0,0.13,0.98,-16.2,-0.4,0.0,820,131,,,,,,,,,,,,,,,,,,,
52854,1495245337479,,,,,,,,0.01,0.14,0.98,-16.3,-0.3,0.1,820,137,,,,,,,,,,,,,,,,,,,
52874,1495245337501,0,105.0,,115.5,61,111.5,,0.01,0.15,0.98,-16.4,-0.4,0.1,820,137,1,1,6.308,0,39.540619,-122.332085,0.0,0.0,538.0,4,2,1.5,0,0.0,-1,0.0,0.0,0.0,0
52894,1495245337521,,,,,,,,0.0,0.14,0.99,-16.5,-0.4,-0.1,820,132,,,,,,,,,,,,,,,,,,,
52914,1495245337541,,,,,,,,-0.01,0.13,0.99,-16.6,-0.5,-0.3,820,132,,,,,,,,,,,,,,,,,,,
52934,1495245337561,,,,,,,,-0.01,0.13,0.99,-16.7,-0.4,-0.3,820,138,,,,,,,,,,,,,,,,,,,
52954,1495245337581,,,,,,,,-0.0,0.14,0.98,-16.9,-0.4,-0.2,820,138,,,,,,,,,,,,,,,,,,,
52974,1495245337599,,,,,61,,,0.01,0.14,0.98,-17.1,-0.3,-0.1,820,132,1,1,6.357,0,39.540619,-122.332085,1.11,0.0,537.2,4,2,1.5,0,0.0,-1,0.0,0.0,0.0,0
52994,1495245337619,,,,,,,,0.01,0.16,0.98,-17.2,-0.4,-0.1,820,132,,,,,,,,,,,,,,,,,,,
53014,1495245337639,,,,,,,,0.01,0.15,0.99,-17.3,-0.5,-0.3,820,137,,,,,,,,,,,,,,,,,,,
53034,1495245337659,,,,,,,,0.0,0.14,0.99,-17.4,-0.4,-0.4,820,138,,,,,,,,,,,,,,,,,,,
53054,1495245337679,,,,,,,,0.01,0.13,0.99,-17.5,-0.4,-0.4,820,138,,,,,,,,,,,,,,,,,,,
53074,1495245337699,0,104.3,-0.5,115.3,59,112.8,14.63,0.01,0.14,0.98,-17.6,-0.4,-0.3,840,138,1,1,6.165,0,39.540619,-122.332085,1.11,0.0,536.9,4,2,1.5,0,0.0,-1,0.0,0.0,0.0,0
53094,1495245337719,,,,,,,,0.02,0.14,0.98,-17.8,-0.2,-0.2,840,138,,,,,,,,,,,,,,,,,,,
53114,1495245337739,,,,,,,,0.03,0.15,0.98,-17.9,-0.2,-0.2,860,142,,,,,,,,,,,,,,,,,,,
53134,1495245337759,,,,,,,,0.02,0.15,1.0,-18.0,-0.2,-0.2,860,148,,,,,,,,,,,,,,,,,,,
53154,1495245337779,,,,,,,,0.02,0.15,1.0,-18.0,-0.2,-0.3,860,148,,,,,,,,,,,,,,,,,,,
53174,1495245337799,,,,,61,,,0.02,0.14,0.99,-18.1,-0.1,-0.4,880,143,1,1,6.143,0,39.540619,-122.332085,1.11,0.0,536.6,4,2,1.5,0,0.0,-1,0.0,0.0,0.0,0
53194,1495245337819,,,,,,,,0.02,0.12,0.99,-18.1,-0.2,-0.3,880,138,,,,,,,,,,,,,,,,,,,
53214,1495245337839,,,,,,,,0.03,0.12,0.98,-18.2,-0.3,-0.2,880,145,,,,,,,,,,,,,,,,,,,
53234,1495245337859,,,,,,,,0.03,0.12,0.98,-18.3,-0.3,-0.1,880,149,,,,,,,,,,,,,,,,,,,
53254,1495245337879,,,,,,,,0.04,0.13,0.98,-18.4,-0.4,-0.0,900,146,,,,,,,,,,,,,,,,,,,
53274,1495245337901,0,104.1,,115.2,62,112.7,,0.04,0.15,0.98,-18.5,-0.4,-0.0,900,146,1,1,6.241,0,39.540619,-122.332085,1.02,0.0,536.5,4,2,1.5,0,0.0,-1,0.0,0.0,0.0,0
53294,1495245337921,,,,,,,,0.03,0.15,0.99,-18.6,-0.6,-0.0,900,149,,,,,,,,,,,,,,,,,,,
53314,1495245337941,,,,,,,,0.03,0.15,0.99,-18.6,-0.8,-0.0,900,148,,,,,,,,,,,,,,,,,,,
53334,1495245337961,,,,,,,,0.03,0.15,1.0,-18.7,-0.8,-0.0,900,148,,,,,,,,,,,,,,,,,,,
53354,1495245337981,,,,,,,,0.02,0.15,0.99,-18.7,-0.7,-0.0,900,149,,,,,,,,,,,,,,,,,,,
53374,1495245337993,,,,,67,,,0.01,0.14,0.98,-18.7,-0.7,0.0,900,146,1,1,6.122,0,39.540619,-122.332085,1.15,0.0,536.3,4,2,1.5,0,0.0,-1,0.0,0.0,0.0,0
53394,1495245338013,,,,,,,,0.02,0.13,0.98,-18.7,-0.6,0.1,920,146,,,,,,,,,,,,,,,,,,,
53414,1495245338033,,,,,,,,0.02,0.12,0.98,-18.7,-0.5,0.1,900,149,,,,,,,,,,,,,,,,,,,
53434,1495245338053,,,,,,,,0.03,0.12,0.97,-18.8,-0.5,0.2,900,154,,,,,,,,,,,,,,,,,,,
53454,1495245338073,,,,,,,,0.04,0.12,0.97,-18.9,-0.4,0.3,900,151,,,,,,,,,,,,,,,,,,,
53474,1495245338099,0,104.0,,115.3,65,112.4,,0.04,0.13,0.98,-18.9,-0.2,0.4,900,149,1,1,6.174,0,39.540619,-122.332085,1.15,0.0,536.3,4,2,1.5,0,0.0,-1,0.0,0.0,0.0,0
53494,1495245338119,,,,,,,,0.05,0.15,0.99,-19.0,-0.2,0.4,900,152,,,,,,,,,,,,,,,,,,,
53514,1495245338139,,,,,,,,0.05,0.16,0.99,-19.1,-0.3,0.4,920,152,,,,,,,,,,,,,,,,,,,
53534,1495245338159,,,,,,,,0.05,0.17,0.99,-19.2,-0.4,0.4,900,151,,,,,,,,,,,,,,,,,,,
53554,1495245338179,,,,,,,,0.04,0.16,1.0,-19.2,-0.3,0.3,900,152,,,,,,,,,,,,,,,,,,,
53574,1495245338201,,,,,63,,,0.04,0.17,1.0,-19.2,-0.4,0.2,900,152,1,1,6.053,0,39.540619,-122.332085,1.15,0.0,536.1,4,2,1.5,0,0.0,-1,0.0,0.0,0.0,0
53594,1495245338221,,,,,,,,0.03,0.16,0.99,-19.3,-0.5,0.2,900,149,,,,,,,,,,,,,,,,,,,
53614,1495245338241,,,,,,,,0.03,0.14,0.99,-19.3,-0.4,0.1,900,148,,,,,,,,,,,,,,,,,,,
53634,1495245338261,,,,,,,,0.04,0.13,0.98,-19.3,-0.2,0.1,900,148,,,,,,,,,,,,,,,,,,,
53654,1495245338281,,,,,,,,0.04,0.13,0.98,-19.4,-0.2,0.2,900,148,,,,,,,,,,,,,,,,,,,
53674,1495245338301,0,104.7,,115.7,63,111.3,,0.04,0.13,0.97,-19.4,-0.2,0.2,900,148,1,1,6.04,0,39.540619,-122.332085,1.12,0.0,536.0,4,2,1.5,0,0.0,-1,0.0,0.0,0.0,0
53694,1495245338321,,,,,,,,0.05,0.13,0.98,-19.5,-0.1,0.2,880,148,,,,,,,,,,,,,,,,,,,
53714,1495245338341,,,,,,,,0.05,0.15,0.98,-19.5,-0.0,0.2,880,145,,,,,,,,,,,,,,,,,,,
53734,1495245338361,,,,,,,,0.05,0.15,0.98,-19.5,-0.1,0.3,860,143,,,,,,,,,,,,,,,,,,,
53754,1495245338381,,,,,,,,0.05,0.15,0.99,-19.5,-0.2,0.2,860,143,,,,,,,,,,,,,,,,,,,
53774,1495245338400,,,,,63,,,0.05,0.15,0.99,-19.5,-0.3,0.2,860,143,1,1,6.027,0,39.540619,-122.332085,1.1,0.0,535.9,4,2,1.5,0,0.0,-1,0.0,0.0,0.0,0
53794,1495245338420,,,,,,,,0.05,0.14,0.99,-19.6,-0.3,0.1,860,143,,,,,,,,,,,,,,,,,,,
53814,1495245338440,,,,,,,,0.05,0.13,0.99,-19.6,-0.3,0.2,840,142,,,,,,,,,,,,,,,,,,,
53834,1495245338460,,,,,,,,0.05,0.14,0.99,-19.6,-0.3,0.2,840,142,,,,,,,,,,,,,,,,,,,
53854,1495245338480,,,,,,,,0.05,0.14,0.99,-19.6,-0.3,0.2,840,142,,,,,,,,,,,,,,,,,,,
53874,1495245338500,0,105.2,,116.1,58,112.7,,0.05,0.15,0.99,-19.6,-0.4,0.2,820,143,1,1,6.014,0,39.540619,-122.332085,1.36,0.0,535.7,4,2,1.5,0,0.0,-1,0.0,0.0,0.0,0
53894,1495245338520,,,,,,,,0.05,0.14,0.99,-19.6,-0.4,0.1,820,145,,,,,,,,,,,,,,,,,,,
53914,1495245338540,,,,,,,,0.05,0.14,0.99,-19.6,-0.4,0.1,820,148,,,,,,,,,,,,,,,,,,,
53934,1495245338560,,,,,,,,0.05,0.14,0.99,-19.6,-0.4,0.0,800,148,,,,,,,,,,,,,,,,,,,
53954,1495245338580,,,,,,,,0.05,0.14,0.99,-19.6,-0.4,0.1,800,149,,,,,,,,,,,,,,,,,,,
53974,1495245338602,,,,,54,,,0.05,0.14,0.99,-19.6,-0.3,0.1,780,151,1,1,5.616,0,39.540619,-122.332085,1.12,0.0,535.7,4,2,1.5,0,0.0,-1,0.0,0.0,0.0,0
53994,1495245338622,,,,,,,,0.05,0.14,0.99,-19.6,-0.4,0.1,780,151,,,,,,,,,,,,,,,,,,,
54014,1495245338642,,,,,,,,0.05,0.14,0.99,-19.5,-0.4,0.1,760,151,,,,,,,,,,,,,,,,,,,
54034,1495245338662,,,,,,,,0.05,0.14,0.99,-19.6,-0.3,0.1,760,152,,,,,,,,,,,,,,,,,,,
54054,1495245338682,,,,,,,,0.06,0.14,0.99,-19.6,-0.4,0.2,760,152,,,,,,,,,,,,,,,,,,,
54074,1495245338702,0,105.0,-0.5,116.0,54,111.9,14.68,0.06,0.15,0.99,-19.6,-0.3,0.3,760,154,1,1,5.2,0,39.540619,-122.332085,1.12,0.0,535.7,4,2,1.5,0,0.0,-1,0.0,0.0,0.0,0
54094,1495245338722,,,,,,,,0.05,0.14,0.99,-19.6,-0.3,0.2,760,154,,,,,,,,,,,,,,,,,,,
54114,1495245338742,,,,,,,,0.05,0.15,0.99,-19.6,-0.3,0.2,760,155,,,,,,,,,,,,,,,,,,,
54134,1495245338762,,,,,,,,0.05,0.15,0.98,-19.6,-0.4,0.2,740,157,,,,,,,,,,,,,,,,,,,
54154,1495245338782,,,,,,,,0.05,0.15,0.98,-19.6,-0.4,0.2,720,158,,,,,,,,,,,,,,,,,,,
54174,1495245338800,,,,,58,,,0.05,0.14,0.99,-19.6,-0.4,0.2,720,158,1,1,4.967,0,39.540619,-122.332085,1.6,0.0,535.7,4,2,1.5,0,0.0,-1,0.0,0.0,0.0,0
54194,1495245338820,,,,,,,,0.05,0.14,0.99,-19.5,-0.4,0.1,720,158,,,,,,,,,,,,,,,,,,,
54214,1495245338840,,,,,,,,0.05,0.15,0.98,-19.5,-0.4,0.2,720,155,,,,,,,,,,,,,,,,,,,
54234,1495245338860,,,,,,,,0.05,0.15,0.98,-19.5,-0.4,0.2,720,152,,,,,,,,,,,,,,,,,,,
54254,1495245338880,,,,,,,,0.05,0.14,0.98,-19.5,-0.4,0.1,700,148,,,,,,,,,,,,,,,,,,,
54274,1495245338900,0,105.2,,116.3,60,112.5,,0.06,0.14,0.99,-19.4,-0.4,0.1,700,146,1,1,4.615,0,39.540623,-122.332085,1.5,0.0,535.7,4,2,1.5,0,0.0,-1,0.0,0.0,0.0,0
54294,1495245338920,,,,,,,,0.06,0.14,0.98,-19.4,-0.3,0.1,700,142,,,,,,,,,,,,,,,,,,,
54314,1495245338940,,,,,,,,0.06,0.14,0.99,-19.4,-0.3,0.1,700,137,,,,,,,,,,,,,,,,,,,
