"Interval"|"ms"|0|0|1,"Utc"|"ms"|0|0|1,"FuelLevel"|"F"|0|100|5,"OilTemp"|"F"|0.0|300.0|5,"CoolantPressPSI"|"PSI"|0.0|20.0|1,"Coolant"|"F"|0.0|300.0|5,"OilPress"|"PSI"|0|150|10,"EngineTemp"|"F"|0.0|300.0|5,"Battery"|"Volts"|0.0|20.0|1,"AccelX"|"G"|-3.0|3.0|50,"AccelY"|"G"|-3.0|3.0|50,"AccelZ"|"G"|-3.0|3.0|50,"Yaw"|"Deg/Sec"|-300.0|300.0|50,"Pitch"|"Deg/Sec"|-300.0|300.0|50,"Roll"|"Deg/Sec"|-300.0|300.0|50,"RPM"|""|0|10000|50,"Driveshaft"|"RPM"|0|5000|50,"GPIO1"|""|0|1|10,"GPIO2"|""|0|1|10,"GearRatio"|""|-5.0|5.0|10,"Gear"|""|-1|5|10,"Latitude"|"Degrees"|-180.0|180.0|10,"Longitude"|"Degrees"|-180.0|180.0|10,"Speed"|"mph"|0.0|150.0|10,"Distance"|"mi"|0.0|0.0|10,"Altitude"|"ft"|0.0|4000.0|10,"GPSSats"|""|0|20|10,"GPSQual"|""|0|5|10,"GPSDOP"|""|0.0|20.0|10,"LapCount"|""|0|0|10,"LapTime"|"Min"|0.0|0.0|10,"Sector"|""|0|0|10,"SectorTime"|"Min"|0.0|0.0|10,"PredTime"|"Min"|0.0|0.0|10,"ElapsedTime"|"Min"|0.0|0.0|10,"CurrentLap"|""|0|0|10
255954,1495245540581,,,,,,,,-0.02,0.07,0.98,-2.9,-0.3,-0.5,900,0,,,,,,,,,,,,,,,,,,,
255974,1495245540600,,,,,0,,,-0.02,0.05,0.98,-2.9,-0.3,-0.2,900,0,1,0,0.0,0,39.536701,-122.332176,0.0,0.289,303.1,9,3,1.4,0,0.0,-1,0.0,0.0,0.0,0
255994,1495245540620,,,,,,,,-0.02,0.06,0.98,-2.9,-0.3,-0.1,900,0,,,,,,,,,,,,,,,,,,,
256014,1495245540640,,,,,,,,-0.02,0.06,0.98,-2.9,-0.0,-0.2,340,0,,,,,,,,,,,,,,,,,,,
256034,1495245540660,,,,,,,,-0.02,0.05,0.99,-2.9,-0.3,-0.4,520,0,,,,,,,,,,,,,,,,,,,
256054,1495245540680,,,,,,,,-0.02,0.06,0.98,-2.9,-0.2,-0.4,520,0,,,,,,,,,,,,,,,,,,,
256074,1495245540700,0,109.3,-0.2,159.3,1,151.9,12.29,-0.01,0.07,0.99,-2.9,-0.2,-0.2,620,0,1,0,0.0,0,39.536701,-122.332176,0.0,0.289,303.1,9,3,1.4,0,0.0,-1,0.0,0.0,0.0,0
256094,1495245540720,,,,,,,,-0.01,0.06,0.98,-2.9,-0.3,-0.3,740,0,,,,,,,,,,,,,,,,,,,
256114,1495245540740,,,,,,,,-0.0,0.07,0.97,-2.9,0.0,-0.1,740,0,,,,,,,,,,,,,,,,,,,
256134,1495245540760,,,,,,,,-0.0,0.09,0.97,-3.0,0.1,0.1,840,0,,,,,,,,,,,,,,,,,,,
256154,1495245540780,,,,,,,,-0.01,0.11,0.97,-3.1,0.1,0.0,940,0,,,,,,,,,,,,,,,,,,,
256174,1495245540800,,,,,4,,,-0.01,0.11,0.97,-3.0,0.2,-0.2,980,0,1,0,0.0,0,39.536701,-122.332176,0.0,0.289,303.1,9,3,1.4,0,0.0,-1,0.0,0.0,0.0,0
256194,1495245540820,,,,,,,,0.0,0.11,0.98,-3.1,0.4,-0.2,960,0,,,,,,,,,,,,,,,,,,,
256214,1495245540840,,,,,,,,0.01,0.12,0.98,-3.1,0.4,-0.1,920,0,,,,,,,,,,,,,,,,,,,
256234,1495245540860,,,,,,,,0.01,0.13,0.98,-3.1,0.3,0.0,900,0,,,,,,,,,,,,,,,,,,,
256254,1495245540880,,,,,,,,0.01,0.13,0.98,-3.1,0.1,0.0,940,0,,,,,,,,,,,,,,,,,,,
256274,1495245540900,0,109.8,,159.5,6,152.5,,0.0,0.13,0.98,-3.0,-0.1,-0.0,980,2,1,1,0.0,0,39.536701,-122.332176,0.0,0.289,303.1,9,3,1.4,0,0.0,-1,0.0,0.0,0.0,0
256294,1495245540920,,,,,,,,-0.0,0.13,0.98,-3.0,-0.2,-0.1,1000,2,,,,,,,,,,,,,,,,,,,
256314,1495245540940,,,,,,,,-0.01,0.13,0.98,-3.0,-0.3,-0.2,1000,2,,,,,,,,,,,,,,,,,,,
256334,1495245540960,,,,,,,,-0.02,0.13,0.97,-3.0,-0.4,-0.2,1020,2,,,,,,,,,,,,,,,,,,,
256354,1495245540980,,,,,,,,-0.03,0.12,0.97,-3.0,-0.6,-0.1,1060,2,,,,,,,,,,,,,,,,,,,
256374,1495245540994,,,,,10,,,-0.03,0.12,0.96,-3.0,-0.7,-0.1,1080,2,1,1,1060.0,0,39.536701,-122.332176,0.0,0.289,303.1,9,3,1.4,0,0.0,-1,0.0,0.0,0.0,0
256394,1495245541014,,,,,,,,-0.03,0.11,0.97,-3.0,-0.6,-0.1,1120,2,,,,,,,,,,,,,,,,,,,
256414,1495245541034,,,,,,,,-0.02,0.09,0.97,-3.0,-0.4,-0.2,1140,128205,,,,,,,,,,,,,,,,,,,
256434,1495245541054,,,,,,,,-0.03,0.1,0.97,-3.0,-0.3,-0.2,1160,0,,,,,,,,,,,,,,,,,,,
256454,1495245541074,,,,,,,,-0.02,0.1,0.96,-3.0,-0.3,-0.2,1180,0,,,,,,,,,,,,,,,,,,,
256474,1495245541100,0,107.8,,158.6,15,150.9,,-0.02,0.1,0.97,-3.0,-0.1,-0.2,1200,0,1,1,0.0,0,39.536701,-122.332176,0.0,0.289,303.1,9,3,1.4,0,0.0,-1,0.0,0.0,0.0,0
256494,1495245541120,,,,,,,,-0.02,0.1,0.96,-3.0,-0.2,-0.2,1220,0,,,,,,,,,,,,,,,,,,,
256514,1495245541140,,,,,,,,-0.02,0.1,0.96,-3.0,-0.2,-0.2,1220,0,,,,,,,,,,,,,,,,,,,
256534,1495245541160,,,,,,,,-0.02,0.1,0.97,-3.1,-0.1,-0.2,1220,0,,,,,,,,,,,,,,,,,,,
256554,1495245541180,,,,,,,,-0.02,0.1,0.98,-3.1,0.0,-0.2,1240,0,,,,,,,,,,,,,,,,,,,
256574,1495245541200,,,,,23,,,-0.01,0.09,0.98,-3.1,0.1,-0.2,1240,0,1,1,0.0,0,39.536701,-122.332176,0.0,0.289,303.1,9,3,1.4,0,0.0,-1,0.0,0.0,0.0,0
256594,1495245541220,,,,,,,,-0.01,0.1,0.98,-3.1,0.0,-0.2,1260,0,,,,,,,,,,,,,,,,,,,
256614,1495245541240,,,,,,,,-0.01,0.1,0.98,-3.1,0.0,-0.2,1240,0,,,,,,,,,,,,,,,,,,,
256634,1495245541260,,,,,,,,-0.01,0.1,0.98,-3.1,-0.0,-0.1,1240,0,,,,,,,,,,,,,,,,,,,
256654,1495245541280,,,,,,,,-0.01,0.1,0.97,-3.1,-0.0,-0.1,1240,0,,,,,,,,,,,,,,,,,,,
256674,1495245541296,0,111.7,,160.6,26,152.8,,-0.01,0.1,0.97,-3.0,-0.1,-0.2,1240,0,1,1,0.0,0,39.536701,-122.332176,0.0,0.289,303.1,9,3,1.4,0,0.0,-1,0.0,0.0,0.0,0
256694,1495245541316,,,,,,,,-0.01,0.09,0.98,-3.1,0.0,-0.2,1220,0,,,,,,,,,,,,,,,,,,,
256714,1495245541336,,,,,,,,-0.01,0.09,0.98,-3.0,0.1,-0.2,1220,0,,,,,,,,,,,,,,,,,,,
256734,1495245541356,,,,,,,,-0.01,0.09,0.97,-3.0,0.2,-0.2,1200,0,,,,,,,,,,,,,,,,,,,
256754,1495245541376,,,,,,,,-0.01,0.09,0.97,-3.0,0.1,-0.1,1180,0,,,,,,,,,,,,,,,,,,,
256774,1495245541402,,,,,39,,,-0.01,0.09,0.97,-3.0,0.1,-0.2,1180,0,1,1,0.0,0,39.536701,-122.332176,0.0,0.289,303.1,9,3,1.4,0,0.0,-1,0.0,0.0,0.0,0
256794,1495245541422,,,,,,,,-0.01,0.09,0.97,-3.1,0.1,-0.2,1160,0,,,,,,,,,,,,,,,,,,,
256814,1495245541442,,,,,,,,-0.01,0.1,0.98,-3.0,0.1,-0.2,1140,0,,,,,,,,,,,,,,,,,,,
256834,1495245541462,,,,,,,,-0.01,0.09,0.98,-3.0,0.2,-0.2,1140,0,,,,,,,,,,,,,,,,,,,
256854,1495245541482,,,,,,,,-0.01,0.08,0.97,-3.0,0.0,-0.2,1120,0,,,,,,,,,,,,,,,,,,,
256874,1495245541502,0,108.1,,158.8,55,151.4,,-0.01,0.08,0.97,-3.0,0.1,-0.2,1100,0,1,1,0.0,0,39.536701,-122.332176,0.0,0.289,303.1,9,3,1.4,0,0.0,-1,0.0,0.0,0.0,0
256894,1495245541522,,,,,,,,-0.01,0.08,0.98,-3.0,0.3,-0.1,1080,0,,,,,,,,,,,,,,,,,,,
256914,1495245541542,,,,,,,,-0.01,0.08,0.98,-3.1,0.2,-0.1,1060,0,,,,,,,,,,,,,,,,,,,
256934,1495245541562,,,,,,,,-0.01,0.09,0.98,-3.1,0.1,-0.1,1040,0,,,,,,,,,,,,,,,,,,,
256954,1495245541582,,,,,,,,-0.01,0.08,0.98,-3.1,0.1,-0.1,1020,0,,,,,,,,,,,,,,,,,,,
256974,1495245541601,,,,,56,,,-0.01,0.09,0.99,-3.1,0.1,-0.1,1000,0,1,1,0.0,0,39.536701,-122.332176,0.0,0.289,303.1,9,3,1.4,0,0.0,-1,0.0,0.0,0.0,0
256994,1495245541621,,,,,,,,-0.01,0.09,0.99,-3.1,0.1,-0.1,980,0,,,,,,,,,,,,,,,,,,,
257014,1495245541641,,,,,,,,-0.01,0.09,0.99,-3.1,0.1,-0.1,960,0,,,,,,,,,,,,,,,,,,,
257034,1495245541661,,,,,,,,-0.0,0.09,0.99,-3.1,0.1,-0.2,940,0,,,,,,,,,,,,,,,,,,,
257054,1495245541681,,,,,,,,-0.0,0.09,0.99,-3.1,0.0,-0.1,920,2,,,,,,,,,,,,,,,,,,,
257074,1495245541701,0,108.0,-0.6,158.7,64,150.9,14.53,-0.01,0.1,1.0,-3.1,0.0,-0.2,920,71,1,1,940.0,0,39.536701,-122.332176,0.0,0.289,303.1,9,3,1.4,0,0.0,-1,0.0,0.0,0.0,0
257094,1495245541721,,,,,,,,-0.01,0.09,1.0,-3.1,-0.0,-0.1,900,71,,,,,,,,,,,,,,,,,,,
257114,1495245541741,,,,,,,,-0.01,0.09,1.0,-3.0,-0.0,-0.2,880,71,,,,,,,,,,,,,,,,,,,
257134,1495245541761,,,,,,,,-0.01,0.09,1.0,-3.0,-0.0,-0.2,860,71,,,,,,,,,,,,,,,,,,,
257154,1495245541781,,,,,,,,-0.01,0.09,0.99,-3.0,-0.0,-0.2,840,71,,,,,,,,,,,,,,,,,,,
257174,1495245541801,,,,,60,,,-0.01,0.09,0.99,-3.0,0.0,-0.2,820,71,1,1,12.0,0,39.536701,-122.332176,0.0,0.289,303.1,9,3,1.4,0,0.0,-1,0.0,0.0,0.0,0
257194,1495245541821,,,,,,,,-0.01,0.09,0.99,-3.0,0.0,-0.2,800,71,,,,,,,,,,,,,,,,,,,
257214,1495245541841,,,,,,,,-0.01,0.09,0.99,-3.0,0.1,-0.1,800,71,,,,,,,,,,,,,,,,,,,
257234,1495245541861,,,,,,,,-0.01,0.09,0.99,-3.0,0.1,-0.1,760,71,,,,,,,,,,,,,,,,,,,
257254,1495245541881,,,,,,,,-0.01,0.09,0.99,-3.0,0.1,-0.1,740,71,,,,,,,,,,,,,,,,,,,
257274,1495245541901,0,109.1,,159.2,53,151.8,,-0.01,0.09,0.99,-3.0,0.1,-0.1,740,71,1,1,10.857,0,39.536701,-122.332176,0.0,0.289,303.1,9,3,1.4,0,0.0,-1,0.0,0.0,0.0,0
257294,1495245541921,,,,,,,,-0.01,0.09,0.99,-3.0,0.0,-0.1,740,71,,,,,,,,,,,,,,,,,,,
257314,1495245541941,,,,,,,,-0.01,0.1,0.99,-3.1,0.0,-0.1,720,71,,,,,,,,,,,,,,,,,,,
257334,1495245541961,,,,,,,,-0.01,0.09,0.99,-3.0,0.0,-0.1,700,71,,,,,,,,,,,,,,,,,,,
257354,1495245541981,,,,,,,,-0.01,0.09,0.99,-3.0,0.0,-0.1,700,71,,,,,,,,,,,,,,,,,,,
257374,1495245541995,,,,,51,,,-0.01,0.09,0.98,-3.0,0.0,-0.1,680,71,1,1,10.0,0,39.536701,-122.332176,0.0,0.289,303.1,9,3,1.4,0,0.0,-1,0.0,0.0,0.0,0
257394,1495245542015,,,,,,,,-0.0,0.09,0.98,-3.0,-0.0,-0.1,660,71,,,,,,,,,,,,,,,,,,,
257414,1495245542035,,,,,,,,-0.0,0.09,0.98,-3.0,0.0,-0.1,660,71,,,,,,,,,,,,,,,,,,,
257434,1495245542055,,,,,,,,-0.0,0.09,0.98,-3.0,0.1,-0.1,660,71,,,,,,,,,,,,,,,,,,,
257454,1495245542075,,,,,,,,0.0,0.09,0.98,-3.0,0.1,-0.1,640,71,,,,,,,,,,,,,,,,,,,
257474,1495245542099,0,108.0,,158.7,52,151.0,,0.0,0.1,0.98,-3.0,0.1,-0.1,640,71,1,1,9.429,0,39.536701,-122.332176,0.0,0.289,303.1,9,3,1.4,0,0.0,-1,0.0,0.0,0.0,0
257494,1495245542119,,,,,,,,0.01,0.1,0.99,-3.0,0.1,-0.1,640,71,,,,,,,,,,,,,,,,,,,
257514,1495245542139,,,,,,,,0.01,0.1,0.98,-3.0,0.1,-0.1,620,71,,,,,,,,,,,,,,,,,,,
257534,1495245542159,,,,,,,,0.01,0.1,0.99,-3.0,0.0,-0.2,620,71,,,,,,,,,,,,,,,,,,,
257554,1495245542179,,,,,,,,0.01,0.1,0.99,-3.0,0.0,-0.2,600,71,,,,,,,,,,,,,,,,,,,
257574,1495245542201,,,,,50,,,0.01,0.1,0.99,-3.0,0.1,-0.2,600,71,1,1,8.571,0,39.536701,-122.332176,0.0,0.289,303.1,9,3,1.4,0,0.0,-1,0.0,0.0,0.0,0
257594,1495245542221,,,,,,,,0.01,0.1,0.99,-3.1,0.2,-0.2,580,71,,,,,,,,,,,,,,,,,,,
257614,1495245542241,,,,,,,,0.01,0.1,0.98,-3.0,0.1,-0.3,580,71,,,,,,,,,,,,,,,,,,,
257634,1495245542261,,,,,,,,0.01,0.1,0.98,-3.0,0.1,-0.2,580,71,,,,,,,,,,,,,,,,,,,
257654,1495245542281,,,,,,,,0.01,0.1,0.98,-3.0,0.1,-0.2,580,71,,,,,,,,,,,,,,,,,,,
257674,1495245542301,0,109.2,,159.3,49,151.8,,0.0,0.09,0.98,-3.0,0.1,-0.2,580,71,1,1,8.286,0,39.536701,-122.332176,0.0,0.289,303.1,9,3,1.4,0,0.0,-1,0.0,0.0,0.0,0
257694,1495245542321,,,,,,,,0.01,0.09,0.98,-3.0,0.1,-0.2,580,71,,,,,,,,,,,,,,,,,,,
257714,1495245542341,,,,,,,,0.01,0.09,0.98,-2.9,0.1,-0.2,580,71,,,,,,,,,,,,,,,,,,,
257734,1495245542361,,,,,,,,0.0,0.1,0.98,-2.9,0.0,-0.2,560,71,,,,,,,,,,,,,,,,,,,
257754,1495245542381,,,,,,,,0.0,0.1,0.98,-2.9,0.0,-0.3,560,71,,,,,,,,,,,,,,,,,,,
257774,1495245542401,,,,,47,,,0.0,0.1,0.98,-2.9,0.0,-0.2,560,71,1,1,8.0,0,39.536701,-122.332176,0.0,0.289,303.1,9,3,1.4,0,0.0,-1,0.0,0.0,0.0,0
257794,1495245542421,,,,,,,,0.0,0.1,0.99,-3.0,0.0,-0.2,540,71,,,,,,,,,,,,,,,,,,,
257814,1495245542441,,,,,,,,0.0,0.1,0.99,-3.0,0.0,-0.2,540,71,,,,,,,,,,,,,,,,,,,
257834,1495245542461,,,,,,,,0.0,0.1,0.99,-3.0,0.0,-0.2,560,71,,,,,,,,,,,,,,,,,,,
257854,1495245542481,,,,,,,,0.0,0.1,0.99,-2.9,0.0,-0.3,560,71,,,,,,,,,,,,,,,,,,,
257874,1495245542501,0,108.4,,158.9,42,151.1,,0.0,0.1,0.99,-2.9,0.0,-0.3,560,71,1,1,8.0,0,39.536701,-122.332176,0.0,0.289,303.1,9,3,1.4,0,0.0,-1,0.0,0.0,0.0,0
257894,1495245542521,,,,,,,,0.0,0.1,0.98,-2.9,-0.1,-0.3,560,71,,,,,,,,,,,,,,,,,,,
257914,1495245542541,,,,,,,,0.0,0.1,0.98,-2.9,-0.0,-0.3,560,0,,,,,,,,,,,,,,,,,,,
257934,1495245542561,,,,,,,,0.0,0.11,0.98,-2.9,0.1,-0.2,560,0,,,,,,,,,,,,,,,,,,,
257954,1495245542581,,,,,,,,-0.0,0.11,0.98,-2.9,0.1,-0.3,560,0,,,,,,,,,,,,,,,,,,,
257974,1495245542600,,,,,41,,,0.0,0.12,0.99,-2.9,0.0,-0.3,560,0,1,1,0.0,0,39.536701,-122.332176,0.0,0.289,303.1,9,3,1.4,0,0.0,-1,0.0,0.0,0.0,0
257994,1495245542620,,,,,,,,0.0,0.11,0.98,-2.9,-0.0,-0.3,560,0,,,,,,,,,,,,,,,,,,,
258014,1495245542640,,,,,,,,0.0,0.11,0.98,-3.0,0.0,-0.3,560,0,,,,,,,,,,,,,,,,,,,
258034,1495245542660,,,,,,,,-0.0,0.11,0.98,-2.9,-0.0,-0.3,580,0,,,,,,,,,,,,,,,,,,,
258054,1495245542680,,,,,,,,-0.0,0.1,0.98,-2.9,0.0,-0.3,580,0,,,,,,,,,,,,,,,,,,,
258074,1495245542700,0,108.6,-0.4,159.0,42,151.0,14.64,-0.0,0.11,0.98,-2.9,0.0,-0.3,580,0,1,1,0.0,0,39.536701,-122.332176,0.0,0.289,303.1,9,3,1.4,0,0.0,-1,0.0,0.0,0.0,0
258094,1495245542720,,,,,,,,-0.0,0.1,0.98,-2.9,0.0,-0.3,580,0,,,,,,,,,,,,,,,,,,,
258114,1495245542740,,,,,,,,-0.0,0.11,0.99,-3.0,0.1,-0.3,580,0,,,,,,,,,,,,,,,,,,,
258134,1495245542760,,,,,,,,-0.0,0.1,0.98,-2.9,0.0,-0.4,600,0,,,,,,,,,,,,,,,,,,,
258154,1495245542780,,,,,,,,-0.01,0.1,0.99,-2.9,-0.0,-0.4,600,0,,,,,,,,,,,,,,,,,,,
258174,1495245542798,,,,,39,,,-0.0,0.11,0.99,-2.9,-0.0,-0.4,600,0,1,1,0.0,0,39.536701,-122.332176,0.0,0.289,303.1,9,3,1.4,0,0.0,-1,0.0,0.0,0.0,0
258194,1495245542818,,,,,,,,-0.01,0.1,0.98,-2.9,0.0,-0.4,600,0,,,,,,,,,,,,,,,,,,,
258214,1495245542838,,,,,,,,-0.0,0.11,0.99,-3.0,0.1,-0.4,620,0,,,,,,,,,,,,,,,,,,,
258234,1495245542858,,,,,,,,-0.0,0.1,0.98,-2.9,0.0,-0.4,620,0,,,,,,,,,,,,,,,,,,,
258254,1495245542878,,,,,,,,0.0,0.1,0.99,-3.0,0.0,-0.4,620,0,,,,,,,,,,,,,,,,,,,
258274,1495245542902,0,108.3,,158.9,44,150.9,,0.0,0.1,0.98,-3.0,-0.1,-0.3,640,0,1,1,0.0,0,39.536701,-122.332176,0.0,0.289,303.1,9,3,1.4,0,0.0,-1,0.0,0.0,0.0,0
258294,1495245542922,,,,,,,,0.0,0.1,0.98,-2.9,-0.2,-0.4,660,0,,,,,,,,,,,,,,,,,,,
258314,1495245542942,,,,,,,,-0.0,0.1,0.98,-2.9,-0.2,-0.3,660,0,,,,,,,,,,,,,,,,,,,
258334,1495245542962,,,,,,,,-0.0,0.1,0.98,-3.0,-0.2,-0.3,660,0,,,,,,,,,,,,,,,,,,,
258354,1495245542982,,,,,,,,-0.01,0.09,0.98,-3.0,-0.2,-0.3,660,0,,,,,,,,,,,,,,,,,,,
258374,1495245542996,,,,,46,,,-0.01,0.08,0.98,-3.0,-0.2,-0.3,660,0,1,1,0.0,0,39.536701,-122.332176,0.0,0.289,303.1,9,3,1.4,0,0.0,-1,0.0,0.0,0.0,0
258394,1495245543016,,,,,,,,-0.01,0.09,0.98,-3.0,-0.2,-0.3,660,0,,,,,,,,,,,,,,,,,,,
258414,1495245543036,,,,,,,,-0.01,0.09,0.98,-3.0,-0.3,-0.2,680,0,,,,,,,,,,,,,,,,,,,
258434,1495245543056,,,,,,,,-0.01,0.09,0.98,-3.0,-0.3,-0.3,680,0,,,,,,,,,,,,,,,,,,,
258454,1495245543076,,,,,,,,-0.0,0.09,0.98,-3.0,-0.3,-0.3,700,0,,,,,,,,,,,,,,,,,,,
258474,1495245543100,0,109.4,,159.3,45,151.7,,-0.0,0.09,0.98,-3.0,-0.3,-0.3,700,0,1,1,0.0,0,39.536701,-122.332176,0.0,0.289,303.1,9,3,1.4,0,0.0,-1,0.0,0.0,0.0,0
258494,1495245543120,,,,,,,,-0.0,0.09,0.98,-3.0,-0.2,-0.3,700,0,,,,,,,,,,,,,,,,,,,
258514,1495245543140,,,,,,,,-0.0,0.09,0.99,-3.0,-0.1,-0.4,700,0,,,,,,,,,,,,,,,,,,,
258534,1495245543160,,,,,,,,-0.0,0.09,0.99,-3.0,-0.0,-0.3,700,0,,,,,,,,,,,,,,,,,,,
258554,1495245543180,,,,,,,,-0.01,0.09,0.99,-3.0,-0.1,-0.4,700,0,,,,,,,,,,,,,,,,,,,
258574,1495245543202,,,,,50,,,-0.01,0.09,0.99,-3.0,-0.1,-0.4,700,0,1,1,0.0,0,39.536701,-122.332176,0.0,0.289,303.1,9,3,1.4,0,0.0,-1,0.0,0.0,0.0,0
258594,1495245543222,,,,,,,,-0.01,0.09,0.99,-3.0,-0.1,-0.4,720,0,,,,,,,,,,,,,,,,,,,
258614,1495245543242,,,,,,,,-0.0,0.1,0.99,-3.1,0.0,-0.3,720,0,,,,,,,,,,,,,,,,,,,
258634,1495245543262,,,,,,,,-0.0,0.1,0.99,-3.1,0.1,-0.4,720,0,,,,,,,,,,,,,,,,,,,
258654,1495245543282,,,,,,,,-0.01,0.1,0.99,-3.1,0.1,-0.4,720,0,,,,,,,,,,,,,,,,,,,
258674,1495245543300,0,109.6,,159.6,46,151.8,,-0.01,0.1,0.99,-3.2,0.1,-0.3,720,0,1,1,0.0,0,39.536701,-122.332176,0.0,0.289,303.1,9,3,1.4,0,0.0,-1,0.0,0.0,0.0,0
258694,1495245543320,,,,,,,,-0.01,0.09,0.98,-3.2,0.0,-0.3,720,0,,,,,,,,,,,,,,,,,,,
258714,1495245543340,,,,,,,,-0.01,0.09,0.98,-3.1,-0.0,-0.3,720,0,,,,,,,,,,,,,,,,,,,
258734,1495245543360,,,,,,,,-0.01,0.09,0.98,-3.1,0.1,-0.3,720,0,,,,,,,,,,,,,,,,,,,
258754,1495245543380,,,,,,,,-0.01,0.09,0.98,-3.1,0.1,-0.3,720,0,,,,,,,,,,,,,,,,,,,
258774,1495245543402,,,,,48,,,-0.01,0.09,0.98,-3.1,0.0,-0.4,720,0,1,1,0.0,0,39.536701,-122.332176,0.0,0.289,303.1,9,3,1.4,0,0.0,-1,0.0,0.0,0.0,0
258794,1495245543422,,,,,,,,-0.01,0.09,0.98,-3.1,-0.0,-0.4,740,0,,,,,,,,,,,,,,,,,,,
258814,1495245543442,,,,,,,,-0.01,0.09,0.98,-3.1,0.0,-0.4,740,0,,,,,,,,,,,,,,,,,,,
258834,1495245543462,,,,,,,,-0.0,0.09,0.97,-3.1,0.1,-0.4,720,0,,,,,,,,,,,,,,,,,,,
258854,1495245543482,,,,,,,,-0.01,0.09,0.98,-3.1,0.1,-0.4,720,0,,,,,,,,,,,,,,,,,,,
258874,1495245543502,0,108.2,,159.3,52,151.6,,-0.01,0.09,0.98,-3.1,0.1,-0.4,720,0,1,1,0.0,0,39.536701,-122.332176,0.0,0.289,303.1,9,3,1.4,0,0.0,-1,0.0,0.0,0.0,0
258894,1495245543522,,,,,,,,-0.0,0.1,0.98,-3.2,0.1,-0.4,720,0,,,,,,,,,,,,,,,,,,,
258914,1495245543542,,,,,,,,-0.0,0.1,0.98,-3.2,0.2,-0.3,720,0,,,,,,,,,,,,,,,,,,,
258934,1495245543562,,,,,,,,-0.0,0.1,0.99,-3.2,0.2,-0.3,720,0,,,,,,,,,,,,,,,,,,,
258954,1495245543582,,,,,,,,-0.01,0.1,0.99,-3.2,0.3,-0.3,720,0,,,,,,,,,,,,,,,,,,,
258974,1495245543601,,,,,49,,,-0.0,0.1,0.99,-3.3,0.2,-0.3,720,9,1,1,0.0,0,39.536701,-122.332176,0.0,0.289,303.1,9,3,1.4,0,0.0,-1,0.0,0.0,0.0,0
258994,1495245543621,,,,,,,,-0.0,0.1,0.99,-3.3,0.2,-0.3,720,9,,,,,,,,,,,,,,,,,,,
259014,1495245543641,,,,,,,,-0.0,0.1,0.99,-3.3,0.1,-0.3,720,9,,,,,,,,,,,,,,,,,,,
259034,1495245543661,,,,,,,,-0.01,0.1,0.98,-3.3,0.2,-0.3,720,9,,,,,,,,,,,,,,,,,,,
259054,1495245543681,,,,,,,,-0.01,0.1,0.98,-3.3,0.2,-0.3,720,17,,,,,,,,,,,,,,,,,,,
259074,1495245543699,0,109.3,-0.4,159.7,48,151.8,14.68,-0.01,0.1,0.98,-3.3,0.1,-0.3,720,17,1,1,45.0,0,39.536701,-122.332176,0.0,0.289,303.1,9,3,1.4,0,0.0,-1,0.0,0.0,0.0,0
259094,1495245543719,,,,,,,,-0.01,0.09,0.98,-3.3,0.0,-0.3,720,17,,,,,,,,,,,,,,,,,,,
259114,1495245543739,,,,,,,,-0.0,0.09,0.98,-3.3,0.0,-0.3,720,25,,,,,,,,,,,,,,,,,,,
259134,1495245543759,,,,,,,,-0.0,0.09,0.98,-3.3,0.1,-0.3,720,25,,,,,,,,,,,,,,,,,,,
259154,1495245543779,,,,,,,,-0.0,0.09,0.99,-3.3,0.1,-0.4,720,25,,,,,,,,,,,,,,,,,,,
259174,1495245543799,,,,,58,,,-0.01,0.1,0.99,-3.3,0.1,-0.4,720,25,1,1,30.0,0,39.536701,-122.332176,0.0,0.289,303.1,9,3,1.4,0,0.0,-1,0.0,0.0,0.0,0
259194,1495245543819,,,,,,,,-0.0,0.1,0.99,-3.4,0.1,-0.3,720,25,,,,,,,,,,,,,,,,,,,
259214,1495245543839,,,,,,,,-0.0,0.1,0.98,-3.4,0.1,-0.2,700,28,,,,,,,,,,,,,,,,,,,
259234,1495245543859,,,,,,,,-0.0,0.09,0.98,-3.4,0.0,-0.3,700,28,,,,,,,,,,,,,,,,,,,
259254,1495245543879,,,,,,,,0.0,0.09,0.98,-3.5,0.1,-0.2,700,28,,,,,,,,,,,,,,,,,,,
259274,1495245543901,0,109.6,,159.3,50,151.1,,0.0,0.1,0.98,-3.5,0.1,-0.1,720,28,1,1,25.926,0,39.536701,-122.332176,0.0,0.289,303.1,9,3,1.4,0,0.0,-1,0.0,0.0,0.0,0
259294,1495245543921,,,,,,,,0.0,0.09,0.98,-3.5,0.1,-0.1,700,28,,,,,,,,,,,,,,,,,,,
259314,1495245543941,,,,,,,,0.0,0.09,0.98,-3.5,0.1,-0.2,700,28,,,,,,,,,,,,,,,,,,,
259334,1495245543961,,,,,,,,0.0,0.1,0.98,-3.5,0.0,-0.2,700,28,,,,,,,,,,,,,,,,,,,
259354,1495245543981,,,,,,,,0.0,0.1,0.98,-3.6,0.0,-0.1,700,28,,,,,,,,,,,,,,,,,,,
259374,1495245543993,,,,,52,,,0.01,0.1,0.98,-3.6,0.1,-0.1,700,28,1,1,25.926,0,39.536701,-122.332176,0.0,0.289,303.1,9,3,1.4,0,0.0,-1,0.0,0.0,0.0,0
259394,1495245544013,,,,,,,,0.01,0.09,0.98,-3.7,0.1,-0.1,700,28,,,,,,,,,,,,,,,,,,,
259414,1495245544033,,,,,,,,0.01,0.09,0.98,-3.7,0.1,-0.0,720,28,,,,,,,,,,,,,,,,,,,
259434,1495245544053,,,,,,,,0.0,0.09,0.98,-3.7,0.0,-0.0,720,12,,,,,,,,,,,,,,,,,,,
259454,1495245544073,,,,,,,,0.0,0.09,0.98,-3.7,0.0,-0.1,720,12,,,,,,,,,,,,,,,,,,,
259474,1495245544101,0,110.8,,160.1,51,151.9,,0.0,0.09,0.98,-3.7,0.1,-0.1,720,12,1,1,60.0,0,39.536701,-122.332176,0.0,0.289,303.1,9,3,1.4,0,0.0,-1,0.0,0.0,0.0,0
259494,1495245544121,,,,,,,,0.01,0.09,0.98,-3.7,0.1,-0.0,720,12,,,,,,,,,,,,,,,,,,,
259514,1495245544141,,,,,,,,0.0,0.09,0.98,-3.7,0.1,-0.1,720,12,,,,,,,,,,,,,,,,,,,
259534,1495245544161,,,,,,,,-0.0,0.09,0.98,-3.7,-0.0,-0.1,720,12,,,,,,,,,,,,,,,,,,,
259554,1495245544181,,,,,,,,-0.0,0.1,0.98,-3.7,-0.0,-0.0,720,12,,,,,,,,,,,,,,,,,,,
259574,1495245544201,,,,,55,,,0.0,0.1,0.98,-3.8,-0.0,0.0,720,12,1,1,60.0,0,39.536701,-122.332176,0.0,0.289,303.1,9,3,1.4,0,0.0,-1,0.0,0.0,0.0,0
259594,1495245544221,,,,,,,,-0.0,0.1,0.99,-3.8,0.0,-0.1,740,12,,,,,,,,,,,,,,,,,,,
259614,1495245544241,,,,,,,,-0.0,0.1,0.99,-3.8,0.1,-0.1,740,12,,,,,,,,,,,,,,,,,,,
259634,1495245544261,,,,,,,,-0.0,0.1,0.98,-3.8,0.0,-0.0,740,14,,,,,,,,,,,,,,,,,,,
259654,1495245544281,,,,,,,,0.0,0.1,0.98,-3.9,-0.0,-0.0,740,14,,,,,,,,,,,,,,,,,,,
259674,1495245544301,0,108.7,,160.8,53,152.7,,0.0,0.1,0.98,-3.9,-0.1,-0.1,740,14,1,1,56.923,0,39.536701,-122.332176,0.0,0.289,303.1,9,3,1.4,0,0.0,-1,0.0,0.0,0.0,0
259694,1495245544321,,,,,,,,-0.0,0.09,0.98,-3.9,-0.1,-0.1,740,14,,,,,,,,,,,,,,,,,,,
259714,1495245544341,,,,,,,,0.0,0.1,0.98,-3.9,-0.1,-0.1,740,14,,,,,,,,,,,,,,,,,,,
259734,1495245544361,,,,,,,,0.0,0.1,0.98,-4.0,-0.1,-0.0,740,15,,,,,,,,,,,,,,,,,,,
259754,1495245544381,,,,,,,,-0.0,0.1,0.98,-4.0,-0.1,-0.1,760,15,,,,,,,,,,,,,,,,,,,
259774,1495245544403,,,,,58,,,-0.0,0.09,0.99,-4.0,-0.1,-0.1,760,15,1,1,49.333,0,39.536701,-122.332176,0.0,0.289,303.1,9,3,1.4,0,0.0,-1,0.0,0.0,0.0,0
259794,1495245544423,,,,,,,,-0.0,0.09,0.98,-4.0,-0.1,-0.1,760,15,,,,,,,,,,,,,,,,,,,
259814,1495245544443,,,,,,,,0.01,0.1,0.98,-4.1,0.0,-0.0,760,17,,,,,,,,,,,,,,,,,,,
259834,1495245544463,,,,,,,,0.0,0.1,0.99,-4.1,0.0,-0.1,760,17,,,,,,,,,,,,,,,,,,,
259854,1495245544483,,,,,,,,0.0,0.09,0.99,-4.1,0.0,-0.2,760,17,,,,,,,,,,,,,,,,,,,
259874,1495245544503,0,107.3,,160.1,50,152.5,,0.01,0.09,0.99,-4.1,-0.0,-0.1,760,17,1,1,47.5,0,39.536701,-122.332176,0.0,0.289,303.1,9,3,1.4,0,0.0,-1,0.0,0.0,0.0,0
259894,1495245544523,,,,,,,,0.01,0.09,0.98,-4.2,0.0,-0.1,780,18,,,,,,,,,,,,,,,,,,,
259914,1495245544543,,,,,,,,0.01,0.1,0.98,-4.2,-0.1,-0.1,780,18,,,,,,,,,,,,,,,,,,,
259934,1495245544563,,,,,,,,0.01,0.09,0.98,-4.1,-0.0,-0.2,780,18,,,,,,,,,,,,,,,,,,,
259954,1495245544583,,,,,,,,0.01,0.09,0.98,-4.2,-0.0,-0.2,780,20,,,,,,,,,,,,,,,,,,,
259974,1495245544600,,,,,51,,,0.01,0.09,0.98,-4.2,-0.1,-0.2,780,20,1,1,43.333,0,39.536701,-122.332176,0.0,0.289,303.1,9,3,1.4,0,0.0,-1,0.0,0.0,0.0,0
259994,1495245544620,,,,,,,,0.01,0.09,0.98,-4.2,-0.1,-0.1,780,20,,,,,,,,,,,,,,,,,,,
260014,1495245544640,,,,,,,,0.01,0.09,0.98,-4.3,-0.2,-0.1,780,20,,,,,,,,,,,,,,,,,,,
260034,1495245544660,,,,,,,,0.01,0.09,0.98,-4.2,-0.1,-0.1,780,22,,,,,,,,,,,,,,,,,,,
260054,1495245544680,,,,,,,,0.01,0.09,0.98,-4.3,-0.1,-0.1,780,22,,,,,,,,,,,,,,,,,,,
260074,1495245544700,0,107.2,-0.8,159.1,58,151.7,14.58,0.01,0.09,0.98,-4.3,-0.1,-0.1,800,22,1,1,37.143,0,39.536701,-122.332176,0.0,0.289,303.1,9,3,1.4,0,0.0,-1,0.0,0.0,0.0,0
260094,1495245544720,,,,,,,,0.01,0.09,0.98,-4.3,-0.1,-0.0,800,23,,,,,,,,,,,,,,,,,,,
260114,1495245544740,,,,,,,,0.01,0.09,0.98,-4.4,-0.2,-0.0,800,23,,,,,,,,,,,,,,,,,,,
260134,1495245544760,,,,,,,,0.01,0.1,0.98,-4.4,-0.1,-0.1,800,23,,,,,,,,,,,,,,,,,,,
260154,1495245544780,,,,,,,,0.01,0.09,0.98,-4.4,-0.2,-0.1,800,25,,,,,,,,,,,,,,,,,,,
260174,1495245544800,,,,,56,,,0.01,0.09,0.98,-4.4,-0.2,-0.1,780,25,1,1,33.333,0,39.536701,-122.332176,0.0,0.289,303.1,9,3,1.4,0,0.0,-1,0.0,0.0,0.0,0
260194,1495245544820,,,,,,,,0.01,0.1,0.98,-4.5,-0.2,0.0,800,25,,,,,,,,,,,,,,,,,,,
260214,1495245544840,,,,,,,,0.01,0.1,0.98,-4.5,-0.2,0.0,800,25,,,,,,,,,,,,,,,,,,,
260234,1495245544860,,,,,,,,0.01,0.1,0.99,-4.5,-0.2,-0.1,800,25,,,,,,,,,,,,,,,,,,,
260254,1495245544880,,,,,,,,0.0,0.1,0.99,-4.5,-0.2,-0.2,800,25,,,,,,,,,,,,,,,,,,,
260274,1495245544900,0,107.3,,160.3,55,152.5,,0.01,0.1,0.98,-4.6,-0.2,-0.1,800,26,1,1,33.333,0,39.536701,-122.332176,0.0,0.289,303.1,9,2,1.4,0,0.0,-1,0.0,0.0,0.0,0
260294,1495245544920,,,,,,,,0.01,0.1,0.98,-4.6,-0.2,-0.1,800,26,,,,,,,,,,,,,,,,,,,
260314,1495245544940,,,,,,,,0.01,0.1,0.98,-4.6,-0.3,-0.1,800,28,,,,,,,,,,,,,,,,,,,
260334,1495245544960,,,,,,,,0.01,0.1,0.99,-4.6,-0.2,-0.1,800,28,,,,,,,,,,,,,,,,,,,
260354,1495245544980,,,,,,,,0.01,0.1,0.99,-4.6,-0.3,-0.2,800,28,,,,,,,,,,,,,,,,,,,
260374,1495245544996,,,,,55,,,0.01,0.09,0.98,-4.7,-0.2,-0.2,800,29,1,1,29.63,0,39.536701,-122.332176,0.0,0.289,303.1,9,3,1.5,0,0.0,-1,0.0,0.0,0.0,0
260394,1495245545016,,,,,,,,0.01,0.1,0.98,-4.7,-0.2,-0.1,800,29,,,,,,,,,,,,,,,,,,,
260414,1495245545036,,,,,,,,0.01,0.1,0.98,-4.7,-0.2,-0.1,800,29,,,,,,,,,,,,,,,,,,,
260434,1495245545056,,,,,,,,0.01,0.1,0.98,-4.7,-0.2,-0.1,800,29,,,,,,,,,,,,,,,,,,,
260454,1495245545076,,,,,,,,0.01,0.1,0.98,-4.7,-0.2,-0.1,800,29,,,,,,,,,,,,,,,,,,,
260474,1495245545102,0,110.7,,160.4,60,152.0,,0.01,0.1,0.98,-4.7,-0.1,-0.1,800,31,1,1,27.586,0,39.536701,-122.332176,0.0,0.289,303.1,9,3,1.5,0,0.0,-1,0.0,0.0,0.0,0
260494,1495245545122,,,,,,,,0.02,0.1,0.98,-4.8,-0.1,-0.1,800,31,,,,,,,,,,,,,,,,,,,
260514,1495245545142,,,,,,,,0.02,0.1,0.98,-4.8,-0.0,-0.0,800,31,,,,,,,,,,,,,,,,,,,
260534,1495245545162,,,,,,,,0.02,0.1,0.98,-4.8,-0.0,-0.1,800,31,,,,,,,,,,,,,,,,,,,
260554,1495245545182,,,,,,,,0.02,0.1,0.98,-4.8,-0.0,-0.2,800,31,,,,,,,,,,,,,,,,,,,
260574,1495245545202,,,,,58,,,0.01,0.1,0.98,-4.8,0.0,-0.2,800,32,1,1,26.667,0,39.536701,-122.332176,0.0,0.289,303.1,9,3,1.5,0,0.0,-1,0.0,0.0,0.0,0
260594,1495245545222,,,,,,,,0.02,0.1,0.98,-4.9,0.0,-0.2,800,32,,,,,,,,,,,,,,,,,,,
260614,1495245545242,,,,,,,,0.02,0.1,0.98,-4.9,0.1,-0.1,800,32,,,,,,,,,,,,,,,,,,,
260634,1495245545262,,,,,,,,0.01,0.1,0.99,-4.9,0.1,-0.1,800,32,,,,,,,,,,,,,,,,,,,
260654,1495245545282,,,,,,,,0.01,0.1,0.99,-4.9,0.1,-0.2,800,35,,,,,,,,,,,,,,,,,,,
260674,1495245545302,1,111.6,,160.0,59,151.4,,0.01,0.09,0.98,-5.0,0.1,-0.2,800,35,1,1,25.0,0,39.536701,-122.332176,0.0,0.289,303.1,9,3,1.5,0,0.0,-1,0.0,0.0,0.0,0
260694,1495245545322,,,,,,,,0.01,0.09,0.98,-5.0,0.1,-0.2,800,34,,,,,,,,,,,,,,,,,,,
260714,1495245545342,,,,,,,,0.02,0.09,0.98,-5.0,0.2,-0.1,800,34,,,,,,,,,,,,,,,,,,,
260734,1495245545362,,,,,,,,0.02,0.09,0.98,-5.0,0.2,-0.1,800,37,,,,,,,,,,,,,,,,,,,
260754,1495245545382,,,,,,,,0.02,0.1,0.99,-5.0,0.2,-0.1,780,37,,,,,,,,,,,,,,,,,,,
260774,1495245545402,,,,,58,,,0.01,0.09,0.99,-5.0,0.2,-0.2,800,35,1,1,22.222,0,39.536701,-122.332176,0.0,0.289,303.1,9,3,1.5,0,0.0,-1,0.0,0.0,0.0,0
260794,1495245545422,,,,,,,,0.02,0.09,0.98,-5.0,0.2,-0.1,800,35,,,,,,,,,,,,,,,,,,,
260814,1495245545442,,,,,,,,0.02,0.09,0.98,-5.1,0.3,-0.1,800,35,,,,,,,,,,,,,,,,,,,
260834,1495245545462,,,,,,,,0.01,0.1,0.98,-5.1,0.2,-0.1,800,37,,,,,,,,,,,,,,,,,,,
260854,1495245545482,,,,,,,,0.01,0.1,0.99,-5.1,0.2,-0.1,800,38,,,,,,,,,,,,,,,,,,,
260874,1495245545502,0,111.4,,158.8,60,150.4,,0.01,0.1,0.99,-5.2,0.2,-0.2,780,38,1,1,22.222,0,39.536701,-122.332176,0.0,0.289,303.1,9,3,1.5,0,0.0,-1,0.0,0.0,0.0,0
260894,1495245545522,,,,,,,,0.01,0.1,0.99,-5.2,0.1,-0.2,780,38,,,,,,,,,,,,,,,,,,,
260914,1495245545542,,,,,,,,0.01,0.09,0.99,-5.2,0.2,-0.1,780,37,,,,,,,,,,,,,,,,,,,
260934,1495245545562,,,,,,,,0.01,0.1,0.99,-5.2,0.1,-0.1,780,38,,,,,,,,,,,,,,,,,,,
260954,1495245545582,,,,,,,,0.01,0.1,0.99,-5.2,0.1,-0.2,800,38,,,,,,,,,,,,,,,,,,,
260974,1495245545601,,,,,58,,,0.0,0.09,0.99,-5.3,0.1,-0.2,780,40,1,1,20.526,0,39.536701,-122.332176,0.0,0.289,303.1,9,3,1.5,0,0.0,-1,0.0,0.0,0.0,0
260994,1495245545621,,,,,,,,0.01,0.09,0.99,-5.3,0.1,-0.2,780,40,,,,,,,,,,,,,,,,,,,
261014,1495245545641,,,,,,,,0.01,0.09,0.99,-5.3,0.1,-0.2,780,38,,,,,,,,,,,,,,,,,,,
261034,1495245545661,,,,,,,,0.01,0.1,0.99,-5.3,0.1,-0.2,780,38,,,,,,,,,,,,,,,,,,,
261054,1495245545681,,,,,,,,0.0,0.09,0.99,-5.2,0.1,-0.2,780,38,,,,,,,,,,,,,,,,,,,
261074,1495245545701,0,111.4,-0.1,159.9,57,151.0,14.46,0.0,0.09,0.99,-5.2,0.1,-0.2,780,38,1,1,20.526,0,39.536701,-122.332176,0.0,0.289,303.1,9,3,1.5,0,0.0,-1,0.0,0.0,0.0,0
261094,1495245545721,,,,,,,,0.0,0.09,0.99,-5.3,0.1,-0.2,780,40,,,,,,,,,,,,,,,,,,,
261114,1495245545741,,,,,,,,0.01,0.09,0.98,-5.3,0.1,-0.1,780,40,,,,,,,,,,,,,,,,,,,
261134,1495245545761,,,,,,,,0.0,0.09,0.98,-5.3,0.1,-0.1,780,38,,,,,,,,,,,,,,,,,,,
261154,1495245545781,,,,,,,,0.0,0.1,0.98,-5.2,0.1,-0.2,780,38,,,,,,,,,,,,,,,,,,,
261174,1495245545801,,,,,57,,,0.0,0.09,0.99,-5.2,0.1,-0.2,780,40,1,1,20.526,0,39.536701,-122.332176,0.0,0.289,303.1,9,3,1.5,0,0.0,-1,0.0,0.0,0.0,0
261194,1495245545821,,,,,,,,0.0,0.09,0.98,-5.3,0.1,-0.2,780,40,,,,,,,,,,,,,,,,,,,
261214,1495245545841,,,,,,,,0.01,0.09,0.98,-5.3,0.2,-0.1,780,42,,,,,,,,,,,,,,,,,,,
261234,1495245545861,,,,,,,,0.0,0.09,0.99,-5.3,0.2,-0.1,780,42,,,,,,,,,,,,,,,,,,,
261254,1495245545881,,,,,,,,0.0,0.09,0.99,-5.3,0.2,-0.2,780,42,,,,,,,,,,,,,,,,,,,
261274,1495245545901,0,108.2,,159.0,60,152.6,,0.0,0.09,0.99,-5.3,0.2,-0.2,780,42,1,1,19.024,0,39.536701,-122.332176,0.0,0.289,303.1,9,3,1.5,0,0.0,-1,0.0,0.0,0.0,0
261294,1495245545921,,,,,,,,0.0,0.09,0.98,-5.2,0.2,-0.2,780,42,,,,,,,,,,,,,,,,,,,
261314,1495245545941,,,,,,,,0.01,0.09,0.98,-5.2,0.2,-0.1,780,43,,,,,,,,,,,,,,,,,,,
261334,1495245545961,,,,,,,,0.01,0.09,0.99,-5.2,0.2,-0.2,780,43,,,,,,,,,,,,,,,,,,,
261354,1495245545981,,,,,,,,0.01,0.09,0.99,-5.2,0.2,-0.2,780,42,,,,,,,,,,,,,,,,,,,
261374,1495245545995,,,,,53,,,0.01,0.09,0.98,-5.1,0.2,-0.2,780,42,1,1,18.14,0,39.536701,-122.332176,0.0,0.289,303.1,9,3,1.4,0,0.0,-1,0.0,0.0,0.0,0
261394,1495245546015,,,,,,,,0.01,0.09,0.98,-5.1,0.2,-0.2,780,42,,,,,,,,,,,,,,,,,,,
261414,1495245546035,,,,,,,,0.01,0.1,0.98,-5.1,0.1,-0.1,780,42,,,,,,,,,,,,,,,,,,,
261434,1495245546055,,,,,,,,0.01,0.09,0.98,-5.1,0.1,-0.2,780,45,,,,,,,,,,,,,,,,,,,
261454,1495245546075,,,,,,,,0.01,0.09,0.99,-5.1,0.1,-0.2,780,43,,,,,,,,,,,,,,,,,,,
261474,1495245546095,0,108.1,,158.9,50,152.6,,0.01,0.09,0.98,-5.1,0.0,-0.2,780,43,1,1,17.727,0,39.536701,-122.332176,0.0,0.289,303.1,9,3,1.4,0,0.0,-1,0.0,0.0,0.0,0
261494,1495245546115,,,,,,,,0.01,0.09,0.98,-5.1,0.1,-0.2,760,45,,,,,,,,,,,,,,,,,,,
261514,1495245546135,,,,,,,,0.01,0.09,0.98,-5.0,-0.0,-0.2,760,45,,,,,,,,,,,,,,,,,,,
261534,1495245546155,,,,,,,,0.0,0.09,0.99,-5.0,0.0,-0.2,780,43,,,,,,,,,,,,,,,,,,,
261554,1495245546175,,,,,,,,0.0,0.09,0.98,-5.0,0.0,-0.2,780,46,,,,,,,,,,,,,,,,,,,
261574,1495245546203,,,,,57,,,0.0,0.09,0.98,-5.0,0.0,-0.2,780,46,1,1,18.14,0,39.536701,-122.332176,0.0,0.289,303.1,9,3,1.4,0,0.0,-1,0.0,0.0,0.0,0
261594,1495245546223,,,,,,,,0.01,0.09,0.98,-5.0,0.0,-0.1,780,46,,,,,,,,,,,,,,,,,,,
261614,1495245546243,,,,,,,,0.0,0.09,0.99,-5.0,0.1,-0.1,780,46,,,,,,,,,,,,,,,,,,,
261634,1495245546263,,,,,,,,-0.0,0.09,0.99,-5.0,0.1,-0.1,780,46,,,,,,,,,,,,,,,,,,,
261654,1495245546283,,,,,,,,0.0,0.09,0.99,-5.0,0.1,-0.1,780,46,,,,,,,,,,,,,,,,,,,
261674,1495245546301,0,108.5,,159.1,57,151.3,,0.0,0.09,0.99,-5.0,0.1,-0.0,760,46,1,1,16.957,0,39.536701,-122.332176,0.0,0.289,303.1,9,3,1.4,0,0.0,-1,0.0,0.0,0.0,0
261694,1495245546321,,,,,,,,0.0,0.09,0.98,-5.0,0.0,-0.0,780,46,,,,,,,,,,,,,,,,,,,
261714,1495245546341,,,,,,,,0.0,0.09,0.99,-4.9,0.1,-0.1,780,46,,,,,,,,,,,,,,,,,,,
261734,1495245546361,,,,,,,,-0.0,0.09,0.99,-4.9,0.1,-0.1,780,49,,,,,,,,,,,,,,,,,,,
261754,1495245546381,,,,,,,,0.0,0.09,0.99,-4.9,0.0,-0.1,780,46,,,,,,,,,,,,,,,,,,,
261774,1495245546403,,,,,54,,,0.01,0.09,0.98,-4.9,0.1,0.0,780,46,1,1,15.918,0,39.536701,-122.332176,0.0,0.289,303.1,9,3,1.4,0,0.0,-1,0.0,0.0,0.0,0
261794,1495245546423,,,,,,,,0.0,0.09,0.99,-4.9,0.1,0.0,760,48,,,,,,,,,,,,,,,,,,,
261814,1495245546443,,,,,,,,0.0,0.09,0.99,-4.8,0.1,-0.0,780,48,,,,,,,,,,,,,,,,,,,
261834,1495245546463,,,,,,,,0.01,0.09,0.99,-4.8,0.1,-0.0,780,48,,,,,,,,,,,,,,,,,,,
261854,1495245546483,,,,,,,,0.01,0.09,0.98,-4.8,0.1,0.0,780,49,,,,,,,,,,,,,,,,,,,
261874,1495245546503,0,110.6,,160.5,54,150.6,,0.01,0.09,0.98,-4.8,0.1,0.1,780,49,1,1,15.918,0,39.536701,-122.332176,0.0,0.289,303.1,9,3,1.4,0,0.0,-1,0.0,0.0,0.0,0
261894,1495245546523,,,,,,,,0.01,0.09,0.99,-4.8,0.1,0.0,780,49,,,,,,,,,,,,,,,,,,,
261914,1495245546543,,,,,,,,0.01,0.08,0.99,-4.8,0.1,-0.0,780,48,,,,,,,,,,,,,,,,,,,
261934,1495245546563,,,,,,,,0.01,0.08,0.98,-4.7,0.1,-0.0,780,51,,,,,,,,,,,,,,,,,,,
261954,1495245546583,,,,,,,,0.01,0.08,0.98,-4.7,0.1,0.0,760,51,,,,,,,,,,,,,,,,,,,
261974,1495245546600,,,,,54,,,0.01,0.09,0.98,-4.6,0.0,0.0,760,51,1,1,15.2,0,39.536701,-122.332176,0.0,0.289,303.1,9,3,1.4,0,0.0,-1,0.0,0.0,0.0,0
261994,1495245546620,,,,,,,,0.01,0.08,0.99,-4.6,0.0,0.0,780,51,,,,,,,,,,,,,,,,,,,
262014,1495245546640,,,,,,,,0.01,0.08,0.99,-4.5,0.0,-0.0,780,51,,,,,,,,,,,,,,,,,,,
262034,1495245546660,,,,,,,,0.01,0.08,0.98,-4.4,-0.0,0.0,780,52,,,,,,,,,,,,,,,,,,,
262054,1495245546680,,,,,,,,0.02,0.09,0.98,-4.4,0.0,0.1,780,51,,,,,,,,,,,,,,,,,,,
262074,1495245546700,0,107.5,-0.7,158.8,53,152.6,14.58,0.01,0.09,0.99,-4.4,0.0,0.1,780,51,1,1,15.0,0,39.536701,-122.332176,0.0,0.289,303.1,9,3,1.4,0,0.0,-1,0.0,0.0,0.0,0
262094,1495245546720,,,,,,,,0.01,0.09,0.99,-4.3,0.0,0.0,780,54,,,,,,,,,,,,,,,,,,,
262114,1495245546740,,,,,,,,0.01,0.09,0.99,-4.3,-0.0,0.0,780,54,,,,,,,,,,,,,,,,,,,
262134,1495245546760,,,,,,,,0.01,0.09,0.98,-4.3,0.0,0.1,780,54,,,,,,,,,,,,,,,,,,,
262154,1495245546780,,,,,,,,0.01,0.09,0.98,-4.2,-0.1,0.2,780,54,,,,,,,,,,,,,,,,,,,
262174,1495245546802,,,,,59,,,0.01,0.1,0.99,-4.2,-0.0,0.1,780,57,1,1,14.717,0,39.536701,-122.332176,0.0,0.289,303.1,9,3,1.4,0,0.0,-1,0.0,0.0,0.0,0
262194,1495245546822,,,,,,,,0.01,0.09,0.99,-4.2,-0.0,0.1,780,55,,,,,,,,,,,,,,,,,,,
262214,1495245546842,,,,,,,,0.01,0.09,0.98,-4.2,-0.0,0.1,780,55,,,,,,,,,,,,,,,,,,,
262234,1495245546862,,,,,,,,0.02,0.09,0.98,-4.2,0.1,0.1,780,55,,,,,,,,,,,,,,,,,,,
262254,1495245546882,,,,,,,,0.01,0.09,0.99,-4.1,-0.0,0.1,780,58,,,,,,,,,,,,,,,,,,,
262274,1495245546902,0,111.5,,160.8,59,150.9,,0.02,0.09,0.98,-4.1,0.0,-0.0,780,57,1,1,13.448,0,39.536701,-122.332176,0.0,0.289,303.1,9,3,1.4,0,0.0,-1,0.0,0.0,0.0,0
262294,1495245546922,,,,,,,,0.01,0.09,0.98,-4.0,0.1,-0.1,780,57,,,,,,,,,,,,,,,,,,,
262314,1495245546942,,,,,,,,0.01,0.09,0.98,-4.0,0.0,-0.1,780,57,,,,,,,,,,,,,,,,,,,
262334,1495245546962,,,,,,,,0.02,0.09,0.98,-4.0,0.1,-0.0,780,58,,,,,,,,,,,,,,,,,,,
262354,1495245546982,,,,,,,,0.02,0.09,0.99,-3.9,0.1,-0.1,780,57,,,,,,,,,,,,,,,,,,,
262374,1495245546996,,,,,58,,,0.02,0.08,0.99,-3.9,0.1,-0.1,780,60,1,1,13.448,0,39.536701,-122.332176,0.0,0.289,303.1,9,3,1.4,0,0.0,-1,0.0,0.0,0.0,0
262394,1495245547016,,,,,,,,0.02,0.08,0.99,-3.8,0.1,-0.1,780,60,,,,,,,,,,,,,,,,,,,
262414,1495245547036,,,,,,,,0.02,0.08,0.98,-3.8,0.1,-0.1,780,62,,,,,,,,,,,,,,,,,,,
262434,1495245547056,,,,,,,,0.02,0.09,0.98,-3.7,-0.0,-0.0,780,58,,,,,,,,,,,,,,,,,,,
262454,1495245547076,,,,,,,,0.02,0.09,0.98,-3.7,0.1,-0.1,780,60,,,,,,,,,,,,,,,,,,,
262474,1495245547100,0,110.5,,160.4,56,151.1,,0.02,0.09,0.98,-3.6,0.1,-0.1,780,62,1,1,13.448,0,39.536701,-122.332176,0.0,0.289,303.1,9,3,1.4,0,0.0,-1,0.0,0.0,0.0,0
262494,1495245547120,,,,,,,,0.02,0.09,0.98,-3.6,0.0,-0.1,780,62,,,,,,,,,,,,,,,,,,,
262514,1495245547140,,,,,,,,0.02,0.09,0.98,-3.6,0.1,-0.0,780,62,,,,,,,,,,,,,,,,,,,
262534,1495245547160,,,,,,,,0.02,0.1,0.98,-3.6,-0.1,-0.0,780,62,,,,,,,,,,,,,,,,,,,
262554,1495245547180,,,,,,,,0.02,0.1,0.98,-3.5,0.0,-0.1,780,63,,,,,,,,,,,,,,,,,,,
262574,1495245547202,,,,,58,,,0.02,0.1,0.98,-3.4,-0.1,-0.1,780,63,1,1,12.787,0,39.536701,-122.332176,0.0,0.289,303.1,9,3,1.4,0,0.0,-1,0.0,0.0,0.0,0
262594,1495245547222,,,,,,,,0.02,0.09,0.98,-3.4,-0.1,-0.1,780,63,,,,,,,,,,,,,,,,,,,
262614,1495245547242,,,,,,,,0.02,0.1,0.98,-3.4,-0.1,-0.0,800,65,,,,,,,,,,,,,,,,,,,
262634,1495245547262,,,,,,,,0.02,0.1,0.98,-3.4,-0.1,-0.0,800,66,,,,,,,,,,,,,,,,,,,
262654,1495245547282,,,,,,,,0.02,0.1,0.99,-3.4,-0.1,-0.1,800,63,,,,,,,,,,,,,,,,,,,
262674,1495245547302,0,109.1,,159.6,60,151.6,,0.02,0.09,0.99,-3.4,-0.2,-0.2,800,65,1,1,12.698,0,39.536701,-122.332176,0.0,0.289,303.1,9,3,1.4,0,0.0,-1,0.0,0.0,0.0,0
262694,1495245547322,,,,,,,,0.02,0.09,0.98,-3.4,-0.1,-0.2,800,65,,,,,,,,,,,,,,,,,,,
262714,1495245547342,,,,,,,,0.02,0.1,0.98,-3.4,-0.1,-0.1,800,65,,,,,,,,,,,,,,,,,,,
262734,1495245547362,,,,,,,,0.02,0.1,0.98,-3.4,-0.1,-0.0,800,62,,,,,,,,,,,,,,,,,,,
262754,1495245547382,,,,,,,,0.02,0.1,0.98,-3.4,-0.1,-0.0,820,58,,,,,,,,,,,,,,,,,,,
262774,1495245547402,,,,,61,,,0.02,0.1,0.98,-3.4,-0.0,-0.1,820,55,1,1,13.793,0,39.536701,-122.332176,0.0,0.289,303.1,9,3,1.4,0,0.0,-1,0.0,0.0,0.0,0
262794,1495245547422,,,,,,,,0.02,0.09,0.98,-3.3,0.0,-0.1,820,55,,,,,,,,,,,,,,,,,,,
262814,1495245547442,,,,,,,,0.01,0.09,0.98,-3.3,0.0,-0.1,820,52,,,,,,,,,,,,,,,,,,,
262834,1495245547462,,,,,,,,0.01,0.09,0.98,-3.3,0.1,-0.1,820,51,,,,,,,,,,,,,,,,,,,
262854,1495245547482,,,,,,,,0.01,0.09,0.98,-3.3,0.1,-0.0,820,51,,,,,,,,,,,,,,,,,,,
262874,1495245547502,0,108.9,,159.6,61,151.8,,0.01,0.1,0.99,-3.3,0.1,-0.1,820,54,1,1,16.4,0,39.536701,-122.332176,0.0,0.289,303.1,9,3,1.4,0,0.0,-1,0.0,0.0,0.0,0
262894,1495245547522,,,,,,,,0.01,0.09,0.99,-3.2,0.0,-0.1,820,48,,,,,,,,,,,,,,,,,,,
262914,1495245547542,,,,,,,,0.01,0.09,0.98,-3.2,0.0,-0.1,820,48,,,,,,,,,,,,,,,,,,,
262934,1495245547562,,,,,,,,0.01,0.09,0.98,-3.2,-0.0,-0.0,820,48,,,,,,,,,,,,,,,,,,,
262954,1495245547582,,,,,,,,0.01,0.1,0.98,-3.2,0.0,-0.0,820,48,,,,,,,,,,,,,,,,,,,
262974,1495245547597,,,,,52,,,0.01,0.1,0.98,-3.2,-0.0,0.0,820,48,1,1,17.447,0,39.536701,-122.332176,0.0,0.289,303.1,9,3,1.4,0,0.0,-1,0.0,0.0,0.0,0
262994,1495245547617,,,,,,,,0.01,0.1,0.98,-3.2,-0.0,0.0,820,48,,,,,,,,,,,,,,,,,,,
263014,1495245547637,,,,,,,,0.01,0.1,0.98,-3.2,0.0,0.0,820,52,,,,,,,,,,,,,,,,,,,
263034,1495245547657,,,,,,,,0.01,0.09,0.98,-3.2,0.0,-0.0,820,52,,,,,,,,,,,,,,,,,,,
263054,1495245547677,,,,,,,,0.01,0.1,0.98,-3.2,0.1,0.0,820,60,,,,,,,,,,,,,,,,,,,
263074,1495245547701,0,109.1,-0.6,159.7,54,151.7,14.73,0.01,0.1,0.98,-3.1,0.1,0.1,840,69,1,1,13.667,0,39.536701,-122.332176,0.0,0.289,303.1,9,3,1.4,0,0.0,-1,0.0,0.0,0.0,0
263094,1495245547721,,,,,,,,0.01,0.1,0.98,-3.1,0.1,0.1,840,74,,,,,,,,,,,,,,,,,,,
263114,1495245547741,,,,,,,,0.0,0.1,0.98,-3.1,0.0,0.1,840,72,,,,,,,,,,,,,,,,,,,
263134,1495245547761,,,,,,,,0.0,0.1,0.98,-3.0,0.0,0.1,840,68,,,,,,,,,,,,,,,,,,,
263154,1495245547781,,,,,,,,0.0,0.1,0.98,-3.0,-0.0,0.0,840,68,,,,,,,,,,,,,,,,,,,
263174,1495245547801,,,,,58,,,0.0,0.1,0.98,-3.0,-0.0,0.0,840,65,1,1,12.537,0,39.536701,-122.332176,0.0,0.289,303.1,9,3,1.4,0,0.0,-1,0.0,0.0,0.0,0
263194,1495245547821,,,,,,,,0.0,0.1,0.98,-3.0,-0.0,0.1,820,66,,,,,,,,,,,,,,,,,,,
263214,1495245547841,,,,,,,,0.0,0.1,0.98,-3.0,0.1,0.2,840,69,,,,,,,,,,,,,,,,,,,
263234,1495245547861,,,,,,,,0.0,0.1,0.99,-3.0,0.1,0.2,840,72,,,,,,,,,,,,,,,,,,,
263254,1495245547881,,,,,,,,0.0,0.1,0.99,-2.9,0.1,0.1,820,72,,,,,,,,,,,,,,,,,,,
263274,1495245547901,0,110.7,,160.5,62,151.4,,0.0,0.1,0.99,-2.9,0.2,0.0,820,71,1,1,11.667,0,39.536701,-122.332176,0.0,0.289,303.1,9,3,1.4,0,0.0,-1,0.0,0.0,0.0,0
263294,1495245547921,,,,,,,,0.0,0.1,0.99,-2.9,0.2,0.0,820,69,,,,,,,,,,,,,,,,,,,
263314,1495245547941,,,,,,,,-0.0,0.1,0.98,-2.8,0.1,0.0,820,68,,,,,,,,,,,,,,,,,,,
263334,1495245547961,,,,,,,,0.0,0.1,0.99,-2.8,0.1,0.0,820,66,,,,,,,,,,,,,,,,,,,
263354,1495245547981,,,,,,,,0.0,0.11,0.99,-2.8,0.0,-0.0,820,68,,,,,,,,,,,,,,,,,,,
263374,1495245547997,,,,,60,,,-0.0,0.1,0.99,-2.7,0.0,-0.1,820,69,1,1,12.424,0,39.536701,-122.332176,0.0,0.289,303.1,9,3,1.4,0,0.0,-1,0.0,0.0,0.0,0
263394,1495245548017,,,,,,,,0.0,0.1,0.98,-2.6,0.0,-0.2,820,71,,,,,,,,,,,,,,,,,,,
263414,1495245548037,,,,,,,,0.0,0.1,0.98,-2.6,0.1,-0.2,820,71,,,,,,,,,,,,,,,,,,,
263434,1495245548057,,,,,,,,0.0,0.1,0.98,-2.5,0.0,-0.2,820,71,,,,,,,,,,,,,,,,,,,
263454,1495245548077,,,,,,,,0.01,0.1,0.98,-2.5,0.1,-0.2,820,71,,,,,,,,,,,,,,,,,,,
263474,1495245548101,0,110.7,,160.5,54,151.7,,0.01,0.1,0.98,-2.5,0.0,-0.2,820,69,1,1,11.714,0,39.536701,-122.332176,0.0,0.289,303.1,9,3,1.4,0,0.0,-1,0.0,0.0,0.0,0
263494,1495245548121,,,,,,,,0.0,0.1,0.99,-2.4,0.0,-0.2,820,69,,,,,,,,,,,,,,,,,,,
263514,1495245548141,,,,,,,,-0.0,0.09,0.99,-2.4,0.0,-0.3,820,69,,,,,,,,,,,,,,,,,,,
263534,1495245548161,,,,,,,,0.0,0.09,0.98,-2.3,0.0,-0.3,820,69,,,,,,,,,,,,,,,,,,,
263554,1495245548181,,,,,,,,0.0,0.09,0.98,-2.3,-0.1,-0.2,820,69,,,,,,,,,,,,,,,,,,,
263574,1495245548201,,,,,54,,,0.0,0.09,0.98,-2.3,-0.0,-0.2,820,71,1,1,11.884,0,39.536701,-122.332176,0.0,0.289,303.1,9,3,1.4,0,0.0,-1,0.0,0.0,0.0,0
263594,1495245548221,,,,,,,,0.0,0.09,0.99,-2.3,-0.1,-0.1,820,71,,,,,,,,,,,,,,,,,,,
263614,1495245548241,,,,,,,,0.0,0.1,0.99,-2.2,-0.1,-0.2,820,72,,,,,,,,,,,,,,,,,,,
263634,1495245548261,,,,,,,,0.0,0.09,0.99,-2.2,-0.1,-0.2,820,71,,,,,,,,,,,,,,,,,,,
263654,1495245548281,,,,,,,,0.01,0.09,0.98,-2.2,-0.0,-0.2,820,71,,,,,,,,,,,,,,,,,,,
263674,1495245548301,0,109.6,,160.1,54,151.4,,0.01,0.1,0.98,-2.2,-0.0,-0.1,820,71,1,1,11.714,0,39.536701,-122.332176,0.0,0.289,303.1,9,3,1.4,0,0.0,-1,0.0,0.0,0.0,0
263694,1495245548321,,,,,,,,0.01,0.1,0.98,-2.1,0.1,-0.1,820,71,,,,,,,,,,,,,,,,,,,
263714,1495245548341,,,,,,,,0.01,0.1,0.99,-2.1,0.1,-0.1,840,71,,,,,,,,,,,,,,,,,,,
263734,1495245548361,,,,,,,,0.0,0.1,0.99,-2.1,0.1,-0.1,820,71,,,,,,,,,,,,,,,,,,,
263754,1495245548381,,,,,,,,0.0,0.09,0.99,-2.0,0.1,-0.2,840,71,,,,,,,,,,,,,,,,,,,
263774,1495245548403,,,,,63,,,0.0,0.09,0.99,-2.0,0.0,-0.2,840,71,1,1,11.714,0,39.536701,-122.332176,0.0,0.289,303.1,9,3,1.4,0,0.0,-1,0.0,0.0,0.0,0
263794,1495245548423,,,,,,,,0.0,0.1,0.98,-2.0,-0.0,-0.1,840,71,,,,,,,,,,,,,,,,,,,
263814,1495245548443,,,,,,,,0.0,0.1,0.98,-2.1,0.0,-0.1,840,71,,,,,,,,,,,,,,,,,,,
263834,1495245548463,,,,,,,,0.01,0.1,0.98,-2.1,-0.0,-0.0,840,71,,,,,,,,,,,,,,,,,,,
263854,1495245548483,,,,,,,,0.0,0.1,0.98,-2.0,-0.1,-0.0,840,71,,,,,,,,,,,,,,,,,,,
263874,1495245548501,0,109.2,,159.9,56,151.1,,0.0,0.1,0.98,-2.0,-0.0,-0.1,840,71,1,1,12.0,0,39.536701,-122.332176,0.0,0.289,303.1,9,3,1.4,0,0.0,-1,0.0,0.0,0.0,0
263894,1495245548521,,,,,,,,0.0,0.1,0.98,-2.0,0.1,-0.1,840,71,,,,,,,,,,,,,,,,,,,
263914,1495245548541,,,,,,,,0.0,0.09,0.98,-2.0,0.0,-0.1,840,72,,,,,,,,,,,,,,,,,,,
263934,1495245548561,,,,,,,,0.0,0.1,0.98,-2.0,-0.0,-0.0,840,72,,,,,,,,,,,,,,,,,,,
263954,1495245548581,,,,,,,,0.0,0.11,0.98,-2.0,-0.1,-0.1,840,72,,,,,,,,,,,,,,,,,,,
263974,1495245548600,,,,,52,,,0.0,0.11,0.98,-2.0,-0.2,-0.1,840,71,1,1,11.667,0,39.536701,-122.332176,0.0,0.289,303.1,9,3,1.4,0,0.0,-1,0.0,0.0,0.0,0
263994,1495245548620,,,,,,,,0.0,0.11,0.99,-2.0,-0.2,-0.1,840,72,,,,,,,,,,,,,,,,,,,
264014,1495245548640,,,,,,,,0.0,0.1,0.98,-2.0,-0.2,-0.2,840,72,,,,,,,,,,,,,,,,,,,
264034,1495245548660,,,,,,,,0.01,0.1,0.98,-2.0,-0.1,-0.2,840,72,,,,,,,,,,,,,,,,,,,
264054,1495245548680,,,,,,,,0.01,0.1,0.98,-2.0,-0.1,-0.2,840,72,,,,,,,,,,,,,,,,,,,
264074,1495245548702,0,110.2,-0.4,160.5,60,151.7,14.75,0.01,0.1,0.98,-2.0,-0.0,-0.1,840,72,1,1,11.667,0,39.536705,-122.332161,1.02,0.289,301.0,9,3,1.4,0,0.0,-1,0.0,0.0,0.0,0
264094,1495245548722,,,,,,,,0.01,0.11,0.98,-1.9,-0.0,-0.1,840,72,,,,,,,,,,,,,,,,,,,
264114,1495245548742,,,,,,,,0.0,0.11,0.99,-1.9,-0.1,-0.1,840,72,,,,,,,,,,,,,,,,,,,
264134,1495245548762,,,,,,,,0.0,0.1,0.99,-1.9,-0.2,-0.2,840,72,,,,,,,,,,,,,,,,,,,
264154,1495245548782,,,,,,,,0.0,0.1,0.98,-1.9,-0.1,-0.3,840,74,,,,,,,,,,,,,,,,,,,
264174,1495245548802,,,,,57,,,0.0,0.1,0.98,-1.9,-0.1,-0.3,840,74,1,1,11.507,0,39.536705,-122.332161,0.98,0.289,301.0,9,3,1.4,0,0.0,-1,0.0,0.0,0.0,0
264194,1495245548822,,,,,,,,0.01,0.1,0.98,-1.9,-0.0,-0.2,840,74,,,,,,,,,,,,,,,,,,,
264214,1495245548842,,,,,,,,0.01,0.1,0.98,-2.0,0.1,-0.2,840,74,,,,,,,,,,,,,,,,,,,
264234,1495245548862,,,,,,,,0.01,0.1,0.99,-1.9,0.1,-0.2,860,72,,,,,,,,,,,,,,,,,,,
264254,1495245548882,,,,,,,,0.0,0.1,0.99,-1.9,0.0,-0.3,840,72,,,,,,,,,,,,,,,,,,,
264274,1495245548902,0,110.2,,160.4,60,151.3,,-0.0,0.1,0.99,-1.9,0.0,-0.4,840,72,1,1,11.944,0,39.536705,-122.332161,0.0,0.289,301.0,9,3,1.4,0,0.0,-1,0.0,0.0,0.0,0
264294,1495245548922,,,,,,,,-0.0,0.1,0.99,-1.8,0.0,-0.4,840,72,,,,,,,,,,,,,,,,,,,
264314,1495245548942,,,,,,,,0.0,0.09,0.98,-1.8,0.0,-0.4,840,72,,,,,,,,,,,,,,,,,,,
264334,1495245548962,,,,,,,,0.0,0.1,0.98,-1.8,0.0,-0.3,840,72,,,,,,,,,,,,,,,,,,,
264354,1495245548982,,,,,,,,0.0,0.1,0.98,-1.8,0.1,-0.2,840,74,,,,,,,,,,,,,,,,,,,
264374,1495245548996,,,,,62,,,0.0,0.1,0.99,-1.8,0.0,-0.2,840,74,1,1,11.667,0,39.536705,-122.332161,0.0,0.289,301.0,9,3,1.4,0,0.0,-1,0.0,0.0,0.0,0
264394,1495245549016,,,,,,,,-0.0,0.1,0.99,-1.8,-0.0,-0.2,840,74,,,,,,,,,,,,,,,,,,,
264414,1495245549036,,,,,,,,-0.0,0.1,0.99,-1.8,-0.1,-0.3,840,74,,,,,,,,,,,,,,,,,,,
264434,1495245549056,,,,,,,,-0.0,0.1,0.98,-1.8,-0.1,-0.3,840,72,,,,,,,,,,,,,,,,,,,
264454,1495245549076,,,,,,,,-0.0,0.09,0.98,-1.8,-0.2,-0.3,840,72,,,,,,,,,,,,,,,,,,,
264474,1495245549102,0,109.2,,160.0,63,151.0,,-0.0,0.1,0.98,-1.8,-0.1,-0.2,840,71,1,1,11.667,0,39.536705,-122.332161,0.96,0.289,300.9,9,3,1.4,0,0.0,-1,0.0,0.0,0.0,0
264494,1495245549122,,,,,,,,0.0,0.1,0.98,-1.8,-0.0,-0.1,840,71,,,,,,,,,,,,,,,,,,,
264514,1495245549142,,,,,,,,0.0,0.1,0.99,-1.8,-0.0,-0.1,840,71,,,,,,,,,,,,,,,,,,,
264534,1495245549162,,,,,,,,-0.0,0.1,0.99,-1.7,-0.1,-0.1,840,69,,,,,,,,,,,,,,,,,,,
264554,1495245549182,,,,,,,,-0.01,0.1,0.99,-1.7,-0.1,-0.2,840,69,,,,,,,,,,,,,,,,,,,
264574,1495245549202,,,,,60,,,-0.01,0.1,0.99,-1.7,-0.1,-0.2,840,69,1,1,12.174,0,39.536705,-122.332161,0.0,0.289,300.9,9,3,1.4,0,0.0,-1,0.0,0.0,0.0,0
264594,1495245549222,,,,,,,,-0.01,0.1,0.98,-1.7,-0.3,-0.1,840,69,,,,,,,,,,,,,,,,,,,
264614,1495245549242,,,,,,,,-0.01,0.1,0.98,-1.7,-0.2,0.0,840,69,,,,,,,,,,,,,,,,,,,
264634,1495245549262,,,,,,,,-0.0,0.1,0.98,-1.7,-0.2,0.0,840,69,,,,,,,,,,,,,,,,,,,
264654,1495245549282,,,,,,,,-0.0,0.11,0.99,-1.7,-0.2,0.0,840,69,,,,,,,,,,,,,,,,,,,
264674,1495245549302,0,110.6,,160.7,54,151.8,,-0.01,0.1,0.99,-1.7,-0.1,-0.1,840,69,1,1,12.174,0,39.536705,-122.332161,0.0,0.289,300.9,9,3,1.4,0,0.0,-1,0.0,0.0,0.0,0
264694,1495245549322,,,,,,,,-0.01,0.1,0.99,-1.7,-0.1,-0.1,840,68,,,,,,,,,,,,,,,,,,,
264714,1495245549342,,,,,,,,-0.01,0.1,0.99,-1.6,-0.1,-0.1,840,68,,,,,,,,,,,,,,,,,,,
264734,1495245549362,,,,,,,,-0.01,0.1,0.98,-1.7,-0.2,-0.0,840,68,,,,,,,,,,,,,,,,,,,
264754,1495245549382,,,,,,,,-0.01,0.1,0.98,-1.6,-0.2,0.0,840,68,,,,,,,,,,,,,,,,,,,
264774,1495245549402,,,,,55,,,-0.01,0.1,0.98,-1.6,-0.2,0.0,840,68,1,1,12.537,0,39.536705,-122.332161,0.97,0.289,300.8,9,3,1.4,0,0.0,-1,0.0,0.0,0.0,0
264794,1495245549422,,,,,,,,-0.01,0.1,0.98,-1.6,-0.2,-0.0,840,68,,,,,,,,,,,,,,,,,,,
264814,1495245549442,,,,,,,,-0.01,0.1,0.98,-1.6,-0.1,-0.1,820,68,,,,,,,,,,,,,,,,,,,
264834,1495245549462,,,,,,,,-0.01,0.1,0.98,-1.6,-0.0,-0.2,840,69,,,,,,,,,,,,,,,,,,,
264854,1495245549482,,,,,,,,-0.01,0.1,0.98,-1.5,-0.0,-0.1,840,69,,,,,,,,,,,,,,,,,,,
264874,1495245549500,0,109.7,,160.3,61,151.4,,-0.01,0.1,0.98,-1.5,-0.0,-0.1,820,69,1,1,12.174,0,39.536705,-122.332161,1.07,0.289,300.7,9,3,1.4,0,0.0,-1,0.0,0.0,0.0,0
264894,1495245549520,,,,,,,,-0.01,0.1,0.99,-1.5,0.0,-0.1,820,68,,,,,,,,,,,,,,,,,,,
264914,1495245549540,,,,,,,,-0.01,0.1,0.99,-1.5,-0.0,-0.1,820,68,,,,,,,,,,,,,,,,,,,
264934,1495245549560,,,,,,,,-0.01,0.1,0.99,-1.5,-0.0,-0.1,840,68,,,,,,,,,,,,,,,,,,,
264954,1495245549580,,,,,,,,-0.01,0.09,0.99,-1.4,0.0,-0.2,820,66,,,,,,,,,,,,,,,,,,,
264974,1495245549601,,,,,51,,,-0.01,0.09,0.98,-1.4,0.0,-0.1,820,65,1,1,12.727,0,39.536705,-122.332161,1.1,0.289,300.6,9,3,1.4,0,0.0,-1,0.0,0.0,0.0,0
264994,1495245549621,,,,,,,,-0.0,0.1,0.98,-1.4,0.0,-0.1,820,66,,,,,,,,,,,,,,,,,,,
265014,1495245549641,,,,,,,,-0.0,0.1,0.98,-1.4,0.1,-0.0,820,66,,,,,,,,,,,,,,,,,,,
265034,1495245549661,,,,,,,,-0.0,0.1,0.99,-1.3,0.1,-0.1,820,66,,,,,,,,,,,,,,,,,,,
265054,1495245549681,,,,,,,,-0.01,0.1,0.99,-1.3,0.1,-0.1,820,66,,,,,,,,,,,,,,,,,,,
265074,1495245549701,0,110.5,-0.2,160.8,59,151.4,14.74,-0.01,0.09,0.99,-1.3,0.1,-0.2,840,65,1,1,12.424,0,39.536705,-122.332161,1.14,0.289,300.6,9,3,1.4,0,0.0,-1,0.0,0.0,0.0,0
265094,1495245549721,,,,,,,,-0.0,0.09,0.99,-1.2,0.1,-0.2,840,65,,,,,,,,,,,,,,,,,,,
265114,1495245549741,,,,,,,,-0.01,0.09,0.98,-1.2,0.1,-0.1,820,65,,,,,,,,,,,,,,,,,,,
265134,1495245549761,,,,,,,,-0.01,0.09,0.99,-1.2,0.1,-0.1,820,65,,,,,,,,,,,,,,,,,,,
265154,1495245549781,,,,,,,,-0.01,0.1,0.99,-1.1,0.1,-0.1,820,65,,,,,,,,,,,,,,,,,,,
265174,1495245549801,,,,,57,,,-0.01,0.09,0.99,-1.1,0.0,-0.1,820,65,1,1,12.812,0,39.536705,-122.332161,1.1,0.289,300.5,9,3,1.4,0,0.0,-1,0.0,0.0,0.0,0
265194,1495245549821,,,,,,,,-0.01,0.09,0.99,-1.0,0.1,-0.2,820,65,,,,,,,,,,,,,,,,,,,
265214,1495245549841,,,,,,,,-0.01,0.09,0.99,-1.0,0.0,-0.1,820,65,,,,,,,,,,,,,,,,,,,
265234,1495245549861,,,,,,,,-0.01,0.09,0.99,-1.0,0.1,-0.1,840,63,,,,,,,,,,,,,,,,,,,
265254,1495245549881,,,,,,,,-0.01,0.1,0.99,-0.9,0.1,-0.1,820,63,,,,,,,,,,,,,,,,,,,
265274,1495245549901,0,110.1,,160.6,60,151.5,,-0.0,0.1,0.99,-0.9,0.1,-0.1,820,65,1,1,13.016,0,39.536705,-122.332161,1.06,0.29,300.5,9,3,1.4,0,0.0,-1,0.0,0.0,0.0,0
265294,1495245549921,,,,,,,,-0.01,0.1,0.99,-0.9,0.1,-0.1,820,65,,,,,,,,,,,,,,,,,,,
265314,1495245549941,,,,,,,,-0.01,0.09,0.99,-0.8,0.2,-0.1,820,65,,,,,,,,,,,,,,,,,,,
265334,1495245549961,,,,,,,,-0.0,0.09,0.98,-0.8,0.1,-0.1,820,65,,,,,,,,,,,,,,,,,,,
265354,1495245549981,,,,,,,,-0.01,0.1,0.98,-0.8,0.1,-0.1,820,63,,,,,,,,,,,,,,,,,,,
265374,1495245549995,,,,,51,,,-0.0,0.1,0.98,-0.8,0.2,-0.0,820,63,1,1,13.016,0,39.536705,-122.332161,0.94,0.29,300.5,9,3,1.4,0,0.0,-1,0.0,0.0,0.0,0
265394,1495245550015,,,,,,,,-0.01,0.1,0.99,-0.8,0.1,-0.0,820,63,,,,,,,,,,,,,,,,,,,
265414,1495245550035,,,,,,,,-0.01,0.1,0.99,-0.7,0.1,-0.0,820,63,,,,,,,,,,,,,,,,,,,
265434,1495245550055,,,,,,,,-0.01,0.09,0.99,-0.7,0.1,-0.1,820,63,,,,,,,,,,,,,,,,,,,
265454,1495245550075,,,,,,,,-0.0,0.1,0.98,-0.7,0.0,-0.0,820,63,,,,,,,,,,,,,,,,,,,
265474,1495245550101,0,110.2,,160.6,54,151.3,,-0.0,0.1,0.98,-0.7,0.1,0.0,820,63,1,1,13.016,0,39.536705,-122.332161,0.96,0.29,300.4,9,3,1.4,0,0.0,-1,0.0,0.0,0.0,0
265494,1495245550121,,,,,,,,-0.0,0.1,0.98,-0.6,0.1,0.0,820,63,,,,,,,,,,,,,,,,,,,
265514,1495245550141,,,,,,,,-0.0,0.1,0.99,-0.6,0.1,-0.0,840,62,,,,,,,,,,,,,,,,,,,
265534,1495245550161,,,,,,,,-0.0,0.1,0.99,-0.5,0.1,-0.1,820,62,,,,,,,,,,,,,,,,,,,
265554,1495245550181,,,,,,,,-0.0,0.1,0.99,-0.5,0.2,-0.1,820,62,,,,,,,,,,,,,,,,,,,
265574,1495245550201,,,,,61,,,-0.0,0.09,0.99,-0.5,0.2,-0.1,820,62,1,1,13.443,0,39.536705,-122.332161,0.0,0.29,300.4,9,3,1.4,0,0.0,-1,0.0,0.0,0.0,0
265594,1495245550221,,,,,,,,-0.01,0.1,0.99,-0.5,0.2,-0.0,820,62,,,,,,,,,,,,,,,,,,,
265614,1495245550241,,,,,,,,-0.0,0.1,0.99,-0.5,0.3,0.0,820,62,,,,,,,,,,,,,,,,,,,
265634,1495245550261,,,,,,,,-0.01,0.1,0.99,-0.5,0.2,-0.0,840,62,,,,,,,,,,,,,,,,,,,
265654,1495245550281,,,,,,,,-0.0,0.1,0.99,-0.5,0.2,-0.1,840,62,,,,,,,,,,,,,,,,,,,
265674,1495245550301,0,110.2,,160.7,58,151.2,,-0.0,0.1,0.98,-0.4,0.2,-0.1,820,62,1,1,13.77,0,39.536705,-122.332161,0.0,0.29,300.4,9,3,1.4,0,0.0,-1,0.0,0.0,0.0,0
265694,1495245550321,,,,,,,,-0.0,0.1,0.98,-0.4,0.2,-0.1,820,62,,,,,,,,,,,,,,,,,,,
265714,1495245550341,,,,,,,,0.0,0.1,0.98,-0.4,0.2,-0.0,820,62,,,,,,,,,,,,,,,,,,,
265734,1495245550361,,,,,,,,0.0,0.1,0.98,-0.4,0.3,-0.0,820,62,,,,,,,,,,,,,,,,,,,
265754,1495245550381,,,,,,,,0.0,0.1,0.99,-0.3,0.3,-0.0,820,62,,,,,,,,,,,,,,,,,,,
265774,1495245550401,,,,,61,,,0.0,0.1,0.99,-0.3,0.3,-0.1,840,62,1,1,13.443,0,39.536705,-122.332161,0.0,0.29,300.4,9,3,1.4,0,0.0,-1,0.0,0.0,0.0,0
265794,1495245550421,,,,,,,,0.0,0.1,0.99,-0.3,0.3,-0.1,840,62,,,,,,,,,,,,,,,,,,,
265814,1495245550441,,,,,,,,0.0,0.09,0.99,-0.3,0.3,-0.1,840,62,,,,,,,,,,,,,,,,,,,
265834,1495245550461,,,,,,,,0.0,0.1,0.98,-0.2,0.2,-0.1,840,62,,,,,,,,,,,,,,,,,,,
265854,1495245550481,,,,,,,,0.0,0.1,0.98,-0.2,0.2,-0.1,840,62,,,,,,,,,,,,,,,,,,,
265874,1495245550501,0,110.6,,161.0,56,151.8,,0.0,0.11,0.99,-0.2,0.1,-0.1,820,62,1,1,13.77,0,39.536705,-122.332161,1.01,0.29,300.1,9,3,1.4,0,0.0,-1,0.0,0.0,0.0,0
265894,1495245550521,,,,,,,,0.0,0.11,0.99,-0.2,0.1,-0.1,820,62,,,,,,,,,,,,,,,,,,,
265914,1495245550541,,,,,,,,0.0,0.1,0.98,-0.1,0.2,-0.2,840,62,,,,,,,,,,,,,,,,,,,
265934,1495245550561,,,,,,,,0.01,0.1,0.98,-0.1,0.2,-0.2,840,62,,,,,,,,,,,,,,,,,,,
265954,1495245550581,,,,,,,,0.01,0.1,0.98,-0.1,0.2,-0.1,840,62,,,,,,,,,,,,,,,,,,,
265974,1495245550600,,,,,55,,,0.01,0.1,0.98,-0.1,0.3,-0.1,820,62,1,1,13.77,0,39.536705,-122.332161,0.93,0.29,300.0,9,3,1.4,0,0.0,-1,0.0,0.0,0.0,0
265994,1495245550620,,,,,,,,0.0,0.11,0.98,-0.1,0.2,-0.1,820,62,,,,,,,,,,,,,,,,,,,
266014,1495245550640,,,,,,,,-0.0,0.11,0.98,-0.0,0.2,-0.2,820,62,,,,,,,,,,,,,,,,,,,
266034,1495245550660,,,,,,,,-0.0,0.1,0.98,-0.0,0.2,-0.2,820,62,,,,,,,,,,,,,,,,,,,
266054,1495245550680,,,,,,,,-0.0,0.1,0.98,0.0,0.2,-0.2,840,62,,,,,,,,,,,,,,,,,,,
266074,1495245550700,0,110.3,-0.3,160.9,62,151.8,14.67,-0.0,0.1,0.98,0.0,0.1,-0.2,840,62,1,1,13.443,0,39.536705,-122.332161,0.97,0.29,299.9,9,3,1.4,0,0.0,-1,0.0,0.0,0.0,0
266094,1495245550720,,,,,,,,0.0,0.1,0.98,0.0,0.1,-0.1,840,62,,,,,,,,,,,,,,,,,,,
266114,1495245550740,,,,,,,,0.01,0.11,0.98,0.0,0.2,-0.1,840,62,,,,,,,,,,,,,,,,,,,
266134,1495245550760,,,,,,,,0.0,0.11,0.98,0.0,0.1,-0.1,840,62,,,,,,,,,,,,,,,,,,,
266154,1495245550780,,,,,,,,0.0,0.11,0.98,0.1,0.2,-0.2,840,62,,,,,,,,,,,,,,,,,,,
266174,1495245550800,,,,,58,,,0.0,0.1,0.98,0.1,0.2,-0.2,840,62,1,1,13.77,0,39.536705,-122.332161,0.0,0.29,299.9,9,3,1.4,0,0.0,-1,0.0,0.0,0.0,0
266194,1495245550820,,,,,,,,0.0,0.1,0.98,0.1,0.2,-0.2,840,62,,,,,,,,,,,,,,,,,,,
266214,1495245550840,,,,,,,,0.0,0.1,0.98,0.1,0.1,-0.2,840,62,,,,,,,,,,,,,,,,,,,
266234,1495245550860,,,,,,,,0.0,0.1,0.98,0.1,0.2,-0.1,840,62,,,,,,,,,,,,,,,,,,,
266254,1495245550880,,,,,,,,0.0,0.11,0.98,0.1,0.0,-0.1,840,63,,,,,,,,,,,,,,,,,,,
266274,1495245550896,0,109.6,,160.5,60,151.1,,0.0,0.11,0.98,0.1,0.0,-0.1,840,63,1,1,13.77,0,39.536705,-122.332161,0.0,0.29,299.9,9,3,1.4,0,0.0,-1,0.0,0.0,0.0,0
266294,1495245550916,,,,,,,,0.0,0.11,0.98,0.2,0.1,-0.2,840,62,,,,,,,,,,,,,,,,,,,
266314,1495245550936,,,,,,,,0.0,0.11,0.98,0.2,0.2,-0.2,840,62,,,,,,,,,,,,,,,,,,,
266334,1495245550956,,,,,,,,0.0,0.1,0.98,0.2,0.2,-0.2,840,62,,,,,,,,,,,,,,,,,,,
266354,1495245550976,,,,,,,,0.0,0.11,0.98,0.2,0.2,-0.2,840,60,,,,,,,,,,,,,,,,,,,
266374,1495245550996,,,,,60,,,0.0,0.11,0.99,0.2,0.3,-0.2,840,60,1,1,13.77,0,39.536705,-122.332161,0.94,0.29,299.7,9,3,1.4,0,0.0,-1,0.0,0.0,0.0,0
266394,1495245551016,,,,,,,,-0.0,0.11,0.99,0.1,0.1,-0.2,840,62,,,,,,,,,,,,,,,,,,,
266414,1495245551036,,,,,,,,-0.0,0.11,0.99,0.1,0.1,-0.2,840,62,,,,,,,,,,,,,,,,,,,
266434,1495245551056,,,,,,,,-0.0,0.11,0.98,0.1,0.1,-0.3,820,60,,,,,,,,,,,,,,,,,,,
266454,1495245551076,,,,,,,,0.0,0.11,0.98,0.1,0.1,-0.3,820,60,,,,,,,,,,,,,,,,,,,
266474,1495245551102,0,110.3,,160.9,59,151.7,,0.0,0.11,0.98,0.1,0.1,-0.3,820,60,1,1,13.667,0,39.536705,-122.332161,0.95,0.29,299.7,9,3,1.4,0,0.0,-1,0.0,0.0,0.0,0
266494,1495245551122,,,,,,,,0.0,0.11,0.98,0.1,0.2,-0.3,820,60,,,,,,,,,,,,,,,,,,,
266514,1495245551142,,,,,,,,-0.0,0.11,0.98,0.1,0.2,-0.2,820,58,,,,,,,,,,,,,,,,,,,
266534,1495245551162,,,,,,,,-0.0,0.11,0.99,0.1,0.2,-0.3,820,60,,,,,,,,,,,,,,,,,,,
266554,1495245551182,,,,,,,,-0.0,0.11,0.98,0.1,0.2,-0.3,820,60,,,,,,,,,,,,,,,,,,,
266574,1495245551202,,,,,60,,,-0.0,0.11,0.98,0.1,0.2,-0.3,820,60,1,1,13.667,0,39.536705,-122.332161,0.0,0.29,299.7,9,3,1.4,0,0.0,-1,0.0,0.0,0.0,0
266594,1495245551222,,,,,,,,-0.0,0.11,0.98,0.1,0.1,-0.3,800,60,,,,,,,,,,,,,,,,,,,
266614,1495245551242,,,,,,,,-0.0,0.11,0.98,0.1,0.2,-0.3,800,58,,,,,,,,,,,,,,,,,,,
266634,1495245551262,,,,,,,,-0.0,0.11,0.98,0.1,0.1,-0.3,800,58,,,,,,,,,,,,,,,,,,,
266654,1495245551282,,,,,,,,-0.0,0.11,0.98,0.1,0.1,-0.3,800,58,,,,,,,,,,,,,,,,,,,
266674,1495245551302,1,109.3,,160.5,56,151.2,,-0.0,0.11,0.98,0.1,0.2,-0.4,820,60,1,1,13.793,0,39.536705,-122.332161,0.0,0.29,299.7,9,3,1.4,0,0.0,-1,0.0,0.0,0.0,0
266694,1495245551322,,,,,,,,-0.0,0.1,0.98,0.1,0.1,-0.4,820,60,,,,,,,,,,,,,,,,,,,
266714,1495245551342,,,,,,,,-0.0,0.1,0.98,0.1,0.1,-0.4,800,60,,,,,,,,,,,,,,,,,,,
266734,1495245551362,,,,,,,,-0.0,0.11,0.98,0.1,0.1,-0.3,800,60,,,,,,,,,,,,,,,,,,,
266754,1495245551382,,,,,,,,-0.0,0.1,0.98,0.1,0.1,-0.4,800,60,,,,,,,,,,,,,,,,,,,
266774,1495245551402,,,,,59,,,-0.0,0.1,0.98,0.1,0.1,-0.4,800,60,1,1,13.333,0,39.536705,-122.332161,0.0,0.29,299.7,9,3,1.4,0,0.0,-1,0.0,0.0,0.0,0
266794,1495245551422,,,,,,,,-0.0,0.1,0.98,0.1,0.1,-0.4,800,60,,,,,,,,,,,,,,,,,,,
266814,1495245551442,,,,,,,,0.0,0.1,0.98,0.1,0.0,-0.3,800,60,,,,,,,,,,,,,,,,,,,
266834,1495245551462,,,,,,,,0.0,0.1,0.98,0.1,0.1,-0.3,800,60,,,,,,,,,,,,,,,,,,,
266854,1495245551482,,,,,,,,0.0,0.1,0.98,0.1,0.2,-0.2,780,60,,,,,,,,,,,,,,,,,,,
266874,1495245551502,0,111.1,,161.4,59,151.9,,0.0,0.1,0.98,0.1,0.1,-0.2,780,58,1,1,13.333,0,39.536705,-122.332161,0.0,0.29,299.7,9,3,1.4,0,0.0,-1,0.0,0.0,0.0,0
266894,1495245551522,,,,,,,,0.0,0.1,0.98,0.0,0.2,-0.2,780,58,,,,,,,,,,,,,,,,,,,
266914,1495245551542,,,,,,,,0.01,0.11,0.98,0.0,0.2,-0.2,780,58,,,,,,,,,,,,,,,,,,,
266934,1495245551562,,,,,,,,0.01,0.11,0.98,0.0,0.2,-0.1,780,58,,,,,,,,,,,,,,,,,,,
266954,1495245551582,,,,,,,,0.0,0.11,0.99,0.0,0.2,-0.2,780,58,,,,,,,,,,,,,,,,,,,
266974,1495245551601,,,,,55,,,0.0,0.11,0.98,0.0,0.2,-0.2,780,58,1,1,13.448,0,39.536705,-122.332161,0.0,0.29,299.7,9,3,1.4,0,0.0,-1,0.0,0.0,0.0,0
266994,1495245551621,,,,,,,,0.01,0.11,0.98,0.0,0.1,-0.2,780,58,,,,,,,,,,,,,,,,,,,
267014,1495245551641,,,,,,,,0.01,0.11,0.98,0.0,0.2,-0.2,780,58,,,,,,,,,,,,,,,,,,,
267034,1495245551661,,,,,,,,0.0,0.11,0.98,-0.0,0.1,-0.2,760,58,,,,,,,,,,,,,,,,,,,
267054,1495245551681,,,,,,,,0.0,0.11,0.98,-0.0,0.2,-0.2,760,58,,,,,,,,,,,,,,,,,,,
267074,1495245551701,0,109.8,-0.3,160.8,55,151.5,14.68,0.0,0.11,0.98,-0.0,0.2,-0.2,760,58,1,1,13.103,0,39.536705,-122.332161,0.0,0.29,299.7,9,3,1.4,0,0.0,-1,0.0,0.0,0.0,0
267094,1495245551721,,,,,,,,0.0,0.11,0.97,-0.0,0.1,-0.2,780,58,,,,,,,,,,,,,,,,,,,
267114,1495245551741,,,,,,,,0.0,0.11,0.98,-0.0,0.1,-0.2,760,58,,,,,,,,,,,,,,,,,,,
267134,1495245551761,,,,,,,,0.0,0.11,0.98,-0.0,0.2,-0.2,760,58,,,,,,,,,,,,,,,,,,,
267154,1495245551781,,,,,,,,-0.0,0.11,0.98,-0.0,0.2,-0.2,760,58,,,,,,,,,,,,,,,,,,,
267174,1495245551801,,,,,54,,,0.0,0.11,0.98,-0.0,0.2,-0.1,760,58,1,1,13.103,0,39.536705,-122.332161,0.0,0.29,299.7,9,3,1.4,0,0.0,-1,0.0,0.0,0.0,0
267194,1495245551821,,,,,,,,0.0,0.11,0.98,-0.0,0.3,-0.1,740,58,,,,,,,,,,,,,,,,,,,
267214,1495245551841,,,,,,,,-0.0,0.11,0.99,-0.0,0.3,-0.2,760,58,,,,,,,,,,,,,,,,,,,
267234,1495245551861,,,,,,,,0.0,0.11,0.99,-0.0,0.3,-0.2,760,58,,,,,,,,,,,,,,,,,,,
267254,1495245551881,,,,,,,,0.0,0.11,0.99,0.0,0.3,-0.2,760,58,,,,,,,,,,,,,,,,,,,
267274,1495245551901,0,111.1,,161.4,57,151.9,,0.0,0.12,0.98,-0.1,0.3,-0.1,760,58,1,1,13.103,0,39.536705,-122.332161,0.0,0.29,299.7,9,3,1.4,0,0.0,-1,0.0,0.0,0.0,0
267294,1495245551921,,,,,,,,0.0,0.12,0.98,-0.1,0.0,-0.1,760,58,,,,,,,,,,,,,,,,,,,
267314,1495245551941,,,,,,,,0.0,0.12,0.98,-0.1,0.1,-0.2,760,58,,,,,,,,,,,,,,,,,,,
267334,1495245551961,,,,,,,,0.0,0.12,0.98,-0.1,0.1,-0.1,760,58,,,,,,,,,,,,,,,,,,,
267354,1495245551981,,,,,,,,0.0,0.12,0.97,-0.1,0.1,-0.1,740,58,,,,,,,,,,,,,,,,,,,
267374,1495245551995,,,,,52,,,0.0,0.12,0.97,-0.1,0.1,-0.2,760,58,1,1,12.759,0,39.536705,-122.332161,0.0,0.29,299.7,9,3,1.4,0,0.0,-1,0.0,0.0,0.0,0
267394,1495245552015,,,,,,,,0.0,0.11,0.98,-0.1,0.1,-0.2,760,57,,,,,,,,,,,,,,,,,,,
267414,1495245552035,,,,,,,,-0.0,0.12,0.98,-0.1,0.1,-0.2,760,58,,,,,,,,,,,,,,,,,,,
267434,1495245552055,,,,,,,,0.0,0.12,0.98,-0.1,0.1,-0.2,760,58,,,,,,,,,,,,,,,,,,,
267454,1495245552075,,,,,,,,0.01,0.12,0.97,-0.1,0.2,-0.2,740,58,,,,,,,,,,,,,,,,,,,
267474,1495245552101,0,110.9,,161.4,56,152.0,,0.0,0.11,0.98,-0.1,0.2,-0.2,740,58,1,1,12.759,0,39.536705,-122.332161,0.0,0.29,299.7,9,3,1.4,0,0.0,-1,0.0,0.0,0.0,0
267494,1495245552121,,,,,,,,0.0,0.11,0.98,-0.1,0.2,-0.3,740,58,,,,,,,,,,,,,,,,,,,
267514,1495245552141,,,,,,,,0.01,0.11,0.98,-0.1,0.2,-0.3,740,57,,,,,,,,,,,,,,,,,,,
267534,1495245552161,,,,,,,,0.01,0.11,0.99,-0.1,0.3,-0.3,760,57,,,,,,,,,,,,,,,,,,,
267554,1495245552181,,,,,,,,0.01,0.11,0.99,-0.1,0.2,-0.3,760,58,,,,,,,,,,,,,,,,,,,
267574,1495245552203,,,,,56,,,0.01,0.11,0.99,-0.0,0.3,-0.3,760,58,1,1,13.103,0,39.536705,-122.332161,0.0,0.29,299.7,9,3,1.4,0,0.0,-1,0.0,0.0,0.0,0
267594,1495245552223,,,,,,,,0.01,0.11,0.99,-0.1,0.3,-0.3,760,58,,,,,,,,,,,,,,,,,,,
267614,1495245552243,,,,,,,,0.01,0.11,0.99,-0.1,0.4,-0.3,740,58,,,,,,,,,,,,,,,,,,,
267634,1495245552263,,,,,,,,0.01,0.11,0.99,-0.0,0.3,-0.3,760,58,,,,,,,,,,,,,,,,,,,
267654,1495245552283,,,,,,,,0.01,0.11,0.99,-0.0,0.3,-0.3,740,58,,,,,,,,,,,,,,,,,,,
267674,1495245552303,0,110.3,,161.1,59,151.8,,0.01,0.11,0.99,-0.0,0.4,-0.3,740,58,1,1,13.103,0,39.536705,-122.332161,0.0,0.29,299.7,9,3,1.4,0,0.0,-1,0.0,0.0,0.0,0
267694,1495245552323,,,,,,,,0.01,0.11,0.98,-0.0,0.3,-0.3,760,60,,,,,,,,,,,,,,,,,,,
267714,1495245552343,,,,,,,,0.01,0.11,0.98,-0.0,0.2,-0.2,760,60,,,,,,,,,,,,,,,,,,,
267734,1495245552363,,,,,,,,0.01,0.11,0.98,0.0,0.2,-0.2,760,60,,,,,,,,,,,,,,,,,,,
267754,1495245552383,,,,,,,,0.0,0.11,0.98,0.0,0.2,-0.2,760,60,,,,,,,,,,,,,,,,,,,
267774,1495245552399,,,,,52,,,0.0,0.11,0.97,0.0,0.2,-0.2,740,60,1,1,12.667,0,39.536705,-122.332161,0.0,0.29,299.7,9,3,1.4,0,0.0,-1,0.0,0.0,0.0,0
267794,1495245552419,,,,,,,,0.0,0.11,0.97,0.0,0.2,-0.2,760,60,,,,,,,,,,,,,,,,,,,
267814,1495245552439,,,,,,,,-0.0,0.11,0.98,0.0,0.3,-0.3,740,60,,,,,,,,,,,,,,,,,,,
267834,1495245552459,,,,,,,,-0.0,0.11,0.98,0.0,0.2,-0.3,740,60,,,,,,,,,,,,,,,,,,,
267854,1495245552479,,,,,,,,-0.0,0.11,0.98,0.0,0.2,-0.2,740,60,,,,,,,,,,,,,,,,,,,
267874,1495245552501,0,110.8,,161.5,61,151.9,,0.0,0.11,0.98,0.0,0.3,-0.2,760,60,1,1,12.333,0,39.536705,-122.332161,0.0,0.29,299.7,9,3,1.4,0,0.0,-1,0.0,0.0,0.0,0
267894,1495245552521,,,,,,,,-0.0,0.11,0.98,0.0,0.3,-0.2,760,60,,,,,,,,,,,,,,,,,,,
267914,1495245552541,,,,,,,,-0.0,0.11,0.98,0.0,0.3,-0.2,760,58,,,,,,,,,,,,,,,,,,,
267934,1495245552561,,,,,,,,0.0,0.11,0.98,-0.0,0.3,-0.2,740,58,,,,,,,,,,,,,,,,,,,
267954,1495245552581,,,,,,,,0.0,0.11,0.98,-0.0,0.3,-0.2,740,58,,,,,,,,,,,,,,,,,,,
267974,1495245552602,,,,,54,,,-0.01,0.1,0.99,-0.0,0.3,-0.2,740,58,1,1,12.759,0,39.536705,-122.332161,0.92,0.29,298.8,9,3,1.4,0,0.0,-1,0.0,0.0,0.0,0
267994,1495245552622,,,,,,,,-0.0,0.1,0.99,-0.0,0.3,-0.2,740,58,,,,,,,,,,,,,,,,,,,
268014,1495245552642,,,,,,,,-0.0,0.1,0.99,-0.0,0.4,-0.2,760,57,,,,,,,,,,,,,,,,,,,
268034,1495245552662,,,,,,,,-0.0,0.1,0.99,-0.0,0.4,-0.1,760,57,,,,,,,,,,,,,,,,,,,
268054,1495245552682,,,,,,,,-0.01,0.11,0.99,-0.0,0.3,-0.2,760,55,,,,,,,,,,,,,,,,,,,
268074,1495245552702,1,109.9,-0.3,160.9,54,151.3,14.72,-0.01,0.11,0.99,-0.1,0.3,-0.1,740,55,1,1,13.571,0,39.536705,-122.332161,0.91,0.29,298.7,9,3,1.4,0,0.0,-1,0.0,0.0,0.0,0
268094,1495245552722,,,,,,,,-0.01,0.11,0.99,-0.1,0.3,-0.1,740,55,,,,,,,,,,,,,,,,,,,
