"Interval"|"ms"|0|0|1,"Utc"|"ms"|0|0|1,"FuelLevel"|"F"|0|100|5,"OilTemp"|"F"|0.0|300.0|5,"CoolantPressPSI"|"PSI"|0.0|20.0|1,"Coolant"|"F"|0.0|300.0|5,"OilPress"|"PSI"|0|150|10,"EngineTemp"|"F"|0.0|300.0|5,"Battery"|"Volts"|0.0|20.0|1,"AccelX"|"G"|-3.0|3.0|50,"AccelY"|"G"|-3.0|3.0|50,"AccelZ"|"G"|-3.0|3.0|50,"Yaw"|"Deg/Sec"|-300.0|300.0|50,"Pitch"|"Deg/Sec"|-300.0|300.0|50,"Roll"|"Deg/Sec"|-300.0|300.0|50,"RPM"|""|0|10000|50,"Driveshaft"|"RPM"|0|5000|50,"GearRatio"|""|-5.0|5.0|10,"Gear"|""|-1|5|10,"Latitude"|"Degrees"|-180.0|180.0|10,"Longitude"|"Degrees"|-180.0|180.0|10,"Speed"|"MPH"|0.0|150.0|10,"Distance"|"Miles"|0.0|0.0|10,"Altitude"|"Feet"|0.0|4000.0|10,"GPSSats"|""|0|20|10,"GPSQual"|""|0|5|10,"GPSDOP"|""|0.0|20.0|10,"LapCount"|""|0|0|10,"LapTime"|"Min"|0.0|0.0|10,"Sector"|""|0|0|10,"SectorTime"|"Min"|0.0|0.0|10,"PredTime"|"Min"|0.0|0.0|5,"ElapsedTime"|"Min"|0.0|0.0|10,"CurrentLap"|""|0|0|10
1805272,1480296348207,,,,,,,,-0.04,0.04,0.98,-3.1,0.8,0.0,200,0,,,,,,,,,,,,,,,,,
1805292,1480296348227,,,,,,,,-0.04,0.05,0.98,-3.1,0.8,0.0,200,0,,,,,,,,,,,,,,,,,
1805312,1480296348247,,,,,,,,-0.05,0.04,0.98,-3.1,0.7,-0.0,200,0,,,,,,,,,,,,,,,,,
1805332,1480296348267,0,83.2,,145.4,0,129.0,,-0.05,0.05,0.98,-3.1,0.6,0.0,200,0,0.0,0,37.47834,-122.203697,0.0,0.0,14.8,11,3,1.4,0,0.0,-1,0.0,0.0,0.0,0
1805352,1480296348287,,,,,,,,-0.05,0.05,0.98,-3.1,0.7,0.1,280,0,,,,,,,,,,,,,,,,,
1805372,1480296348208,,,,,,,,-0.05,0.06,0.98,-3.1,0.6,0.1,280,0,,,,,,,,,,,,,,,,,
1805392,1480296348228,,,,,,,,-0.04,0.05,0.99,-3.1,0.6,0.2,280,0,,,,,,,,,,,,,,,,,
1805412,1480296348248,,,,,,,,-0.05,0.05,0.99,-3.1,0.6,0.2,340,0,,,,,,,,,,,,,,,,,
1805432,1480296348268,,,,,0,,,-0.05,0.05,0.99,-3.1,0.5,0.1,340,0,0.0,0,37.47834,-122.203697,0.0,0.0,14.8,11,3,1.4,0,0.0,-1,0.0,,0.0,0
1805452,1480296348288,,,,,,,,-0.05,0.06,0.99,-3.1,0.5,0.2,360,0,,,,,,,,,,,,,,,,,
1805472,1480296348308,,,,,,,,-0.05,0.06,0.99,-3.1,0.6,0.2,360,0,,,,,,,,,,,,,,,,,
1805492,1480296348328,,,,,,,,-0.05,0.06,1.0,-3.1,0.5,0.2,500,0,,,,,,,,,,,,,,,,,
1805512,1480296348348,,,,,,,,-0.05,0.05,1.0,-3.2,0.5,0.2,500,0,,,,,,,,,,,,,,,,,
1805532,1480296348368,0,81.7,,145.0,0,129.2,,-0.04,0.06,1.0,-3.2,0.5,0.2,680,0,0.0,0,37.47834,-122.203697,0.0,0.0,14.8,11,3,1.4,0,0.0,-1,0.0,0.0,0.0,0
1805552,1480296348388,,,,,,,,-0.04,0.05,1.0,-3.2,0.6,0.3,780,0,,,,,,,,,,,,,,,,,
1805572,1480296348408,,,,,,,,-0.04,0.06,1.0,-3.1,0.5,0.3,820,0,,,,,,,,,,,,,,,,,
1805592,1480296348428,,,,,,,,-0.05,0.06,1.0,-3.2,0.4,0.3,820,0,,,,,,,,,,,,,,,,,
1805612,1480296348448,,,,,,,,-0.05,0.06,1.0,-3.1,0.6,0.2,820,0,,,,,,,,,,,,,,,,,
1805632,1480296348468,,,,,1,,,-0.04,0.06,1.0,-3.1,0.5,0.2,760,0,0.0,0,37.47834,-122.203697,0.0,0.0,14.8,11,3,1.4,0,0.0,-1,0.0,,0.0,0
1805652,1480296348488,,,,,,,,-0.04,0.07,0.99,-3.1,0.5,0.2,740,0,,,,,,,,,,,,,,,,,
1805672,1480296348508,,,,,,,,-0.05,0.07,0.99,-3.1,0.5,0.2,740,0,,,,,,,,,,,,,,,,,
1805692,1480296348528,,,,,,,,-0.05,0.06,1.0,-3.1,0.5,0.2,740,0,,,,,,,,,,,,,,,,,
1805712,1480296348548,,,,,,,,-0.04,0.07,1.0,-3.1,0.9,0.2,740,0,,,,,,,,,,,,,,,,,
1805732,1480296348568,0,83.2,,145.4,2,129.0,,-0.04,0.07,1.0,-3.1,0.9,0.2,720,0,0.0,0,37.47834,-122.203697,0.0,0.0,14.8,11,3,1.4,0,0.0,-1,0.0,0.0,0.0,0
1805752,1480296348588,,,,,,,,-0.04,0.06,1.0,-3.1,0.8,0.2,720,0,,,,,,,,,,,,,,,,,
1805772,1480296348608,,,,,,,,-0.05,0.06,1.0,-3.1,0.6,0.2,740,0,,,,,,,,,,,,,,,,,
1805792,1480296348628,,,,,,,,-0.04,0.06,1.0,-3.1,0.8,0.2,800,0,,,,,,,,,,,,,,,,,
1805812,1480296348648,,,,,,,,-0.04,0.07,1.0,-3.1,0.6,0.2,840,0,,,,,,,,,,,,,,,,,
1805832,1480296348668,,,,,2,,,-0.04,0.06,1.01,-3.1,0.7,0.2,880,0,0.0,0,37.47834,-122.203697,0.0,0.0,14.8,11,3,1.4,0,0.0,-1,0.0,,0.0,0
1805852,1480296348688,,,,,,,,-0.04,0.07,1.0,-3.1,0.7,0.3,900,0,,,,,,,,,,,,,,,,,
1805872,1480296348708,,,,,,,,-0.05,0.07,0.99,-3.1,0.4,0.3,920,0,,,,,,,,,,,,,,,,,
1805892,1480296348728,,,,,,,,-0.05,0.07,1.0,-3.2,0.5,0.2,940,0,,,,,,,,,,,,,,,,,
1805912,1480296348748,,,,,,,,-0.05,0.07,1.01,-3.1,0.6,0.2,960,0,,,,,,,,,,,,,,,,,
1805932,1480296348768,0,83.4,,145.2,3,129.0,,-0.05,0.06,1.01,-3.1,0.6,0.3,960,0,0.0,0,37.47834,-122.203697,0.0,0.0,14.8,11,3,1.4,0,0.0,-1,0.0,0.0,0.0,0
1805952,1480296348788,,,,,,,,-0.05,0.06,1.01,-3.1,0.5,0.2,980,0,,,,,,,,,,,,,,,,,
1805972,1480296348908,,,,,,,,-0.06,0.06,1.0,-3.1,0.5,0.3,1000,0,,,,,,,,,,,,,,,,,
1805992,1480296348928,,,,,,,,-0.06,0.06,1.0,-3.1,0.3,0.3,1020,0,,,,,,,,,,,,,,,,,
1806012,1480296348948,,,,,,,,-0.06,0.05,0.99,-3.1,0.4,0.3,1060,0,,,,,,,,,,,,,,,,,
1806032,1480296348968,,,,,4,,,-0.06,0.05,0.99,-3.1,0.3,0.3,1060,0,0.0,0,37.47834,-122.203697,0.0,0.0,14.8,11,3,1.4,0,0.0,-1,0.0,,0.0,0
1806052,1480296348988,,,,,,,,-0.06,0.04,0.99,-3.1,0.2,0.2,1080,0,,,,,,,,,,,,,,,,,
1806072,1480296349008,,,,,,,,-0.05,0.04,0.98,-3.1,0.2,0.2,1100,0,,,,,,,,,,,,,,,,,
1806092,1480296349028,,,,,,,,-0.05,0.04,0.98,-3.1,0.4,0.2,1100,0,,,,,,,,,,,,,,,,,
1806112,1480296349048,,,,,,,,-0.05,0.04,0.99,-3.1,0.5,0.2,1120,0,,,,,,,,,,,,,,,,,
1806132,1480296349068,0,83.1,0.9,144.9,6,129.1,14.85,-0.05,0.06,0.99,-3.1,0.3,0.3,1140,0,0.0,0,37.47834,-122.203697,0.0,0.0,14.8,11,3,1.4,0,0.0,-1,0.0,0.0,0.0,0
1806152,1480296349088,,,,,,,,-0.05,0.06,1.0,-3.1,0.3,0.2,1140,0,,,,,,,,,,,,,,,,,
1806172,1480296349008,,,,,,,,-0.04,0.06,1.0,-3.1,0.5,0.2,1160,0,,,,,,,,,,,,,,,,,
1806192,1480296349028,,,,,,,,-0.05,0.06,1.01,-3.1,0.6,0.2,1160,0,,,,,,,,,,,,,,,,,
1806212,1480296349048,,,,,,,,-0.05,0.06,1.0,-3.1,0.5,0.2,1160,0,,,,,,,,,,,,,,,,,
1806232,1480296349068,,,,,8,,,-0.05,0.06,1.01,-3.1,0.6,0.2,1180,0,0.0,0,37.47834,-122.203697,0.0,0.0,14.8,11,3,1.4,0,0.0,-1,0.0,,0.0,0
1806252,1480296349088,,,,,,,,-0.05,0.07,1.01,-3.1,0.5,0.2,1180,0,,,,,,,,,,,,,,,,,
1806272,1480296349108,,,,,,,,-0.05,0.07,1.01,-3.1,0.4,0.2,1160,0,,,,,,,,,,,,,,,,,
1806292,1480296349128,,,,,,,,-0.05,0.07,1.01,-3.1,0.5,0.3,1160,0,,,,,,,,,,,,,,,,,
1806312,1480296349148,,,,,,,,-0.05,0.07,1.0,-3.1,0.4,0.3,1160,0,,,,,,,,,,,,,,,,,
1806332,1480296349168,0,83.1,,144.9,9,129.3,,-0.05,0.06,0.99,-3.1,0.3,0.3,1160,0,0.0,0,37.47834,-122.203697,0.0,0.0,14.8,11,3,1.4,0,0.0,-1,0.0,0.0,0.0,0
1806352,1480296349188,,,,,,,,-0.05,0.06,1.0,-3.1,0.4,0.2,1140,0,,,,,,,,,,,,,,,,,
1806372,1480296349208,,,,,,,,-0.05,0.07,1.0,-3.1,0.3,0.3,1140,0,,,,,,,,,,,,,,,,,
1806392,1480296349228,,,,,,,,-0.05,0.08,1.01,-3.1,0.3,0.3,1140,0,,,,,,,,,,,,,,,,,
1806412,1480296349248,,,,,,,,-0.04,0.08,1.01,-3.1,0.5,0.3,1120,0,,,,,,,,,,,,,,,,,
1806432,1480296349268,,,,,12,,,-0.05,0.08,1.02,-3.1,0.6,0.3,1120,0,0.0,0,37.47834,-122.203697,0.0,0.0,14.8,11,3,1.4,0,0.0,-1,0.0,,0.0,0
1806452,1480296349288,,,,,,,,-0.05,0.08,1.01,-3.1,0.5,0.3,1120,0,,,,,,,,,,,,,,,,,
1806472,1480296349308,,,,,,,,-0.05,0.07,1.0,-3.1,0.5,0.3,1100,0,,,,,,,,,,,,,,,,,
1806492,1480296349328,,,,,,,,-0.05,0.07,1.01,-3.1,0.6,0.2,1100,0,,,,,,,,,,,,,,,,,
1806512,1480296349348,,,,,,,,-0.05,0.07,1.01,-3.1,0.6,0.2,1080,0,,,,,,,,,,,,,,,,,
1806532,1480296349368,0,83.1,,144.8,13,129.1,,-0.05,0.07,1.0,-3.1,0.5,0.2,1080,0,0.0,0,37.47834,-122.203697,0.0,0.0,14.8,11,3,1.4,0,0.0,-1,0.0,0.0,0.0,0
1806552,1480296349388,,,,,,,,-0.05,0.08,1.0,-3.1,0.4,0.2,1080,0,,,,,,,,,,,,,,,,,
1806572,1480296349408,,,,,,,,-0.05,0.08,1.0,-3.1,0.4,0.2,1060,0,,,,,,,,,,,,,,,,,
1806592,1480296349428,,,,,,,,-0.04,0.08,1.0,-3.1,0.5,0.2,1040,0,,,,,,,,,,,,,,,,,
1806612,1480296349448,,,,,,,,-0.04,0.08,1.0,-3.1,0.5,0.3,1020,0,,,,,,,,,,,,,,,,,
1806632,1480296349468,,,,,15,,,-0.05,0.08,1.0,-3.1,0.5,0.3,1020,0,0.0,0,37.47834,-122.203697,0.0,0.0,14.8,11,3,1.4,0,0.0,-1,0.0,,0.0,0
1806652,1480296349488,,,,,,,,-0.05,0.08,1.0,-3.1,0.6,0.3,1000,0,,,,,,,,,,,,,,,,,
1806672,1480296349509,,,,,,,,-0.05,0.08,1.0,-3.1,0.5,0.3,1000,0,,,,,,,,,,,,,,,,,
1806692,1480296349529,,,,,,,,-0.05,0.08,1.0,-3.1,0.5,0.3,980,0,,,,,,,,,,,,,,,,,
1806712,1480296349549,,,,,,,,-0.06,0.08,0.99,-3.2,0.5,0.3,980,0,,,,,,,,,,,,,,,,,
1806732,1480296349569,1,82.9,,144.9,16,129.2,,-0.06,0.07,1.0,-3.1,0.4,0.3,960,0,0.0,0,37.47834,-122.203697,0.0,0.0,14.8,11,3,1.4,0,0.0,-1,0.0,0.0,0.0,0
1806752,1480296349589,,,,,,,,-0.06,0.07,1.0,-3.1,0.4,0.3,960,0,,,,,,,,,,,,,,,,,
1806772,1480296349708,,,,,,,,-0.06,0.07,0.99,-3.1,0.4,0.3,960,0,,,,,,,,,,,,,,,,,
1806792,1480296349728,,,,,,,,-0.06,0.07,0.99,-3.1,0.3,0.3,960,0,,,,,,,,,,,,,,,,,
1806812,1480296349748,,,,,,,,-0.05,0.07,0.99,-3.2,0.4,0.3,940,0,,,,,,,,,,,,,,,,,
1806832,1480296349768,,,,,18,,,-0.05,0.07,1.0,-3.2,0.5,0.2,940,0,0.0,0,37.47834,-122.203697,0.0,0.0,14.8,11,3,1.4,0,0.0,-1,0.0,,0.0,0
1806852,1480296349788,,,,,,,,-0.05,0.07,1.0,-3.2,0.6,0.2,920,0,,,,,,,,,,,,,,,,,
1806872,1480296349808,,,,,,,,-0.05,0.07,1.0,-3.2,0.6,0.2,920,0,,,,,,,,,,,,,,,,,
1806892,1480296349828,,,,,,,,-0.05,0.07,0.99,-3.1,0.6,0.3,920,0,,,,,,,,,,,,,,,,,
1806912,1480296349848,,,,,,,,-0.05,0.07,1.0,-3.1,0.5,0.3,900,0,,,,,,,,,,,,,,,,,
1806932,1480296349868,0,83.4,,145.1,19,129.1,,-0.05,0.08,1.0,-3.2,0.6,0.3,900,0,0.0,0,37.47834,-122.203697,0.0,0.0,14.8,11,3,1.4,0,0.0,-1,0.0,0.0,0.0,0
1806952,1480296349888,,,,,,,,-0.05,0.08,1.0,-3.2,0.6,0.3,900,0,,,,,,,,,,,,,,,,,
1806972,1480296349808,,,,,,,,-0.05,0.08,1.0,-3.2,0.5,0.3,900,0,,,,,,,,,,,,,,,,,
1806992,1480296349828,,,,,,,,-0.05,0.08,1.0,-3.1,0.5,0.2,880,0,,,,,,,,,,,,,,,,,
1807012,1480296349848,,,,,,,,-0.05,0.08,1.0,-3.1,0.6,0.2,880,0,,,,,,,,,,,,,,,,,
1807032,1480296349868,,,,,18,,,-0.05,0.08,1.0,-3.1,0.6,0.2,880,0,0.0,0,37.47834,-122.203697,0.0,0.0,14.8,11,3,1.4,0,0.0,-1,0.0,,0.0,0
1807052,1480296349888,,,,,,,,-0.05,0.08,0.99,-3.1,0.5,0.2,880,0,,,,,,,,,,,,,,,,,
1807072,1480296349902,,,,,,,,-0.05,0.08,0.99,-3.1,0.6,0.2,880,0,,,,,,,,,,,,,,,,,
1807092,1480296349922,,,,,,,,-0.05,0.09,0.99,-3.1,0.5,0.2,860,0,,,,,,,,,,,,,,,,,
1807112,1480296349942,,,,,,,,-0.05,0.08,0.99,-3.1,0.5,0.2,860,0,,,,,,,,,,,,,,,,,
1807132,1480296349962,0,81.3,0.3,144.4,18,127.7,14.91,-0.05,0.08,1.0,-3.1,0.5,0.2,860,0,0.0,0,37.47834,-122.203697,0.0,0.0,14.8,11,3,1.4,0,0.0,-1,0.0,0.0,0.0,0
1807152,1480296349982,,,,,,,,-0.05,0.08,1.0,-3.1,0.4,0.2,860,0,,,,,,,,,,,,,,,,,
1807172,1480296350008,,,,,,,,-0.05,0.07,1.0,-3.1,0.5,0.2,860,0,,,,,,,,,,,,,,,,,
1807192,1480296350028,,,,,,,,-0.05,0.08,0.99,-3.1,0.6,0.2,860,0,,,,,,,,,,,,,,,,,
1807212,1480296350048,,,,,,,,-0.05,0.08,0.99,-3.2,0.5,0.2,860,0,,,,,,,,,,,,,,,,,
1807232,1480296350068,,,,,20,,,-0.04,0.08,0.99,-3.1,0.5,0.2,860,0,0.0,0,37.47834,-122.203697,0.0,0.0,14.8,11,3,1.4,0,0.0,-1,0.0,,0.0,0
1807252,1480296350088,,,,,,,,-0.05,0.08,0.99,-3.1,0.5,0.3,860,0,,,,,,,,,,,,,,,,,
1807272,1480296350108,,,,,,,,-0.05,0.08,0.99,-3.1,0.5,0.3,840,0,,,,,,,,,,,,,,,,,
1807292,1480296350128,,,,,,,,-0.05,0.08,0.99,-3.1,0.5,0.3,840,0,,,,,,,,,,,,,,,,,
1807312,1480296350148,,,,,,,,-0.05,0.07,1.0,-3.1,0.5,0.2,840,0,,,,,,,,,,,,,,,,,
1807332,1480296350168,0,83.6,,145.2,23,129.2,,-0.05,0.07,1.0,-3.1,0.6,0.2,840,0,0.0,0,37.47834,-122.203697,0.0,0.0,14.8,11,3,1.4,0,0.0,-1,0.0,0.0,0.0,0
1807352,1480296350188,,,,,,,,-0.05,0.07,0.99,-3.1,0.5,0.2,840,0,,,,,,,,,,,,,,,,,
1807372,1480296350208,,,,,,,,-0.04,0.07,0.99,-3.1,0.5,0.2,840,0,,,,,,,,,,,,,,,,,
1807392,1480296350228,,,,,,,,-0.05,0.07,0.99,-3.1,0.4,0.3,840,0,,,,,,,,,,,,,,,,,
1807412,1480296350248,,,,,,,,-0.05,0.07,0.99,-3.1,0.5,0.3,840,0,,,,,,,,,,,,,,,,,
1807432,1480296350268,,,,,24,,,-0.05,0.07,1.0,-3.1,0.5,0.3,840,0,0.0,0,37.47834,-122.203697,0.0,0.0,14.8,11,3,1.4,0,0.0,-1,0.0,,0.0,0
1807452,1480296350288,,,,,,,,-0.05,0.07,1.0,-3.1,0.5,0.3,840,0,,,,,,,,,,,,,,,,,
1807472,1480296350307,,,,,,,,-0.05,0.07,0.99,-3.1,0.5,0.3,840,0,,,,,,,,,,,,,,,,,
1807492,1480296350327,,,,,,,,-0.05,0.07,0.99,-3.1,0.5,0.3,840,0,,,,,,,,,,,,,,,,,
1807512,1480296350347,,,,,,,,-0.05,0.07,0.99,-3.1,0.5,0.3,840,0,,,,,,,,,,,,,,,,,
1807532,1480296350367,0,81.6,,144.3,28,128.5,,-0.05,0.08,0.99,-3.1,0.4,0.3,840,0,0.0,0,37.47834,-122.203697,0.0,0.0,14.8,11,3,1.4,0,0.0,-1,0.0,0.0,0.0,0
1807552,1480296350387,,,,,,,,-0.05,0.07,0.99,-3.1,0.5,0.3,840,0,,,,,,,,,,,,,,,,,
1807572,1480296350507,,,,,,,,-0.05,0.07,0.99,-3.1,0.4,0.3,840,0,,,,,,,,,,,,,,,,,
1807592,1480296350527,,,,,,,,-0.05,0.07,0.99,-3.1,0.4,0.2,840,0,,,,,,,,,,,,,,,,,
1807612,1480296350547,,,,,,,,-0.05,0.07,0.99,-3.1,0.5,0.2,840,0,,,,,,,,,,,,,,,,,
1807632,1480296350567,,,,,33,,,-0.04,0.07,0.99,-3.1,0.5,0.2,840,0,0.0,0,37.47834,-122.203697,0.0,0.0,14.8,11,3,1.4,0,0.0,-1,0.0,,0.0,0
1807652,1480296350587,,,,,,,,-0.05,0.08,0.99,-3.1,0.4,0.2,840,0,,,,,,,,,,,,,,,,,
1807672,1480296350607,,,,,,,,-0.05,0.08,0.99,-3.1,0.4,0.2,840,0,,,,,,,,,,,,,,,,,
1807692,1480296350627,,,,,,,,-0.05,0.08,0.99,-3.1,0.5,0.3,840,0,,,,,,,,,,,,,,,,,
1807712,1480296350647,,,,,,,,-0.05,0.07,0.99,-3.1,0.4,0.2,840,0,,,,,,,,,,,,,,,,,
1807732,1480296350667,0,82.5,,144.8,35,128.9,,-0.05,0.07,0.99,-3.1,0.5,0.2,840,0,0.0,0,37.47834,-122.203697,0.0,0.0,14.8,11,3,1.4,0,0.0,-1,0.0,0.0,0.0,0
1807752,1480296350687,,,,,,,,-0.04,0.07,0.99,-3.1,0.5,0.2,840,0,,,,,,,,,,,,,,,,,
1807772,1480296350608,,,,,,,,-0.04,0.08,0.99,-3.2,0.5,0.2,840,0,,,,,,,,,,,,,,,,,
1807792,1480296350628,,,,,,,,-0.04,0.08,0.99,-3.1,0.5,0.3,840,0,,,,,,,,,,,,,,,,,
1807812,1480296350648,,,,,,,,-0.05,0.08,1.0,-3.2,0.5,0.3,840,0,,,,,,,,,,,,,,,,,
1807832,1480296350668,,,,,38,,,-0.05,0.08,1.0,-3.2,0.5,0.3,840,0,0.0,0,37.47834,-122.203697,0.0,0.0,14.8,11,3,1.4,0,0.0,-1,0.0,,0.0,0
1807852,1480296350688,,,,,,,,-0.05,0.08,1.01,-3.1,0.5,0.3,840,0,,,,,,,,,,,,,,,,,
1807872,1480296350708,,,,,,,,-0.05,0.08,1.0,-3.1,0.6,0.3,840,0,,,,,,,,,,,,,,,,,
1807892,1480296350728,,,,,,,,-0.04,0.08,1.0,-3.2,0.6,0.2,840,0,,,,,,,,,,,,,,,,,
1807912,1480296350748,,,,,,,,-0.04,0.08,1.0,-3.2,0.6,0.3,840,0,,,,,,,,,,,,,,,,,
1807932,1480296350768,0,81.1,,144.5,41,127.9,,-0.04,0.08,1.0,-3.2,0.5,0.3,860,0,0.0,0,37.47834,-122.203697,0.0,0.0,14.8,11,3,1.4,0,0.0,-1,0.0,0.0,0.0,0
1807952,1480296350788,,,,,,,,-0.05,0.08,1.01,-3.2,0.6,0.3,860,0,,,,,,,,,,,,,,,,,
1807972,1480296350808,,,,,,,,-0.05,0.08,1.01,-3.1,0.6,0.3,860,0,,,,,,,,,,,,,,,,,
1807992,1480296350828,,,,,,,,-0.05,0.08,1.01,-3.2,0.5,0.3,840,0,,,,,,,,,,,,,,,,,
1808012,1480296350848,,,,,,,,-0.04,0.08,1.01,-3.1,0.6,0.2,840,0,,,,,,,,,,,,,,,,,
1808032,1480296350868,,,,,44,,,-0.04,0.08,1.0,-3.1,0.6,0.3,840,0,0.0,0,37.47834,-122.203697,0.0,0.0,14.8,11,3,1.4,0,0.0,-1,0.0,,0.0,0
1808052,1480296350888,,,,,,,,-0.04,0.07,1.0,-3.1,0.6,0.2,840,0,,,,,,,,,,,,,,,,,
1808072,1480296350902,,,,,,,,-0.04,0.08,1.0,-3.1,0.5,0.3,840,0,,,,,,,,,,,,,,,,,
1808092,1480296350922,,,,,,,,-0.05,0.08,1.01,-3.1,0.6,0.2,840,0,,,,,,,,,,,,,,,,,
1808112,1480296350942,,,,,,,,-0.05,0.08,1.01,-3.1,0.6,0.2,840,0,,,,,,,,,,,,,,,,,
1808132,1480296350962,1,83.1,0.3,145.5,49,128.0,14.95,-0.05,0.08,1.01,-3.1,0.5,0.2,840,0,0.0,0,37.47834,-122.203697,0.0,0.0,14.8,11,3,1.4,0,0.0,-1,0.0,0.0,0.0,0
1808152,1480296350982,,,,,,,,-0.05,0.08,1.01,-3.1,0.6,0.2,840,0,,,,,,,,,,,,,,,,,
1808172,1480296351008,,,,,,,,-0.04,0.08,1.0,-3.1,0.6,0.2,840,0,,,,,,,,,,,,,,,,,
1808192,1480296351028,,,,,,,,-0.04,0.08,1.0,-3.1,0.6,0.2,840,0,,,,,,,,,,,,,,,,,
1808212,1480296351048,,,,,,,,-0.04,0.08,1.0,-3.1,0.5,0.3,840,0,,,,,,,,,,,,,,,,,
1808232,1480296351068,,,,,52,,,-0.05,0.08,1.01,-3.1,0.6,0.3,840,0,0.0,0,37.47834,-122.203697,0.0,0.0,14.8,11,3,1.4,0,0.0,-1,0.0,,0.0,0
1808252,1480296351088,,,,,,,,-0.05,0.08,1.01,-3.1,0.6,0.3,840,0,,,,,,,,,,,,,,,,,
1808272,1480296351108,,,,,,,,-0.05,0.08,1.01,-3.1,0.5,0.2,840,0,,,,,,,,,,,,,,,,,
1808292,1480296351128,,,,,,,,-0.05,0.07,1.01,-3.1,0.6,0.2,840,0,,,,,,,,,,,,,,,,,
1808312,1480296351148,,,,,,,,-0.04,0.08,1.0,-3.1,0.6,0.2,840,0,,,,,,,,,,,,,,,,,
1808332,1480296351168,0,82.1,,145.2,56,128.8,,-0.04,0.08,1.0,-3.1,0.6,0.2,840,0,0.0,0,37.47834,-122.203697,0.0,0.0,14.8,11,3,1.4,0,0.0,-1,0.0,0.0,0.0,0
1808352,1480296351188,,,,,,,,-0.04,0.08,1.0,-3.1,0.6,0.2,840,0,,,,,,,,,,,,,,,,,
1808372,1480296351307,,,,,,,,-0.05,0.07,1.01,-3.1,0.7,0.2,840,0,,,,,,,,,,,,,,,,,
1808392,1480296351327,,,,,,,,-0.05,0.08,1.0,-3.1,0.6,0.2,840,0,,,,,,,,,,,,,,,,,
1808412,1480296351347,,,,,,,,-0.05,0.08,1.01,-3.1,0.6,0.2,840,0,,,,,,,,,,,,,,,,,
1808432,1480296351367,,,,,55,,,-0.05,0.07,1.0,-3.1,0.7,0.2,840,0,0.0,0,37.47834,-122.203697,0.0,0.0,14.8,11,3,1.4,0,0.0,-1,0.0,,0.0,0
1808452,1480296351387,,,,,,,,-0.04,0.08,1.0,-3.1,0.7,0.2,840,0,,,,,,,,,,,,,,,,,
1808472,1480296351407,,,,,,,,-0.04,0.08,1.0,-3.2,0.7,0.2,840,0,,,,,,,,,,,,,,,,,
1808492,1480296351427,,,,,,,,-0.05,0.08,1.0,-3.2,0.6,0.3,840,0,,,,,,,,,,,,,,,,,
1808512,1480296351447,,,,,,,,-0.05,0.07,1.0,-3.1,0.7,0.2,840,0,,,,,,,,,,,,,,,,,
1808532,1480296351467,0,82.4,,145.6,56,128.8,,-0.05,0.07,1.01,-3.1,0.6,0.2,840,0,0.0,0,37.47834,-122.203697,0.0,0.0,14.8,11,3,1.4,0,0.0,-1,0.0,0.0,0.0,0
1808552,1480296351487,,,,,,,,-0.05,0.07,1.0,-3.1,0.6,0.2,840,0,,,,,,,,,,,,,,,,,
1808572,1480296351408,,,,,,,,-0.05,0.07,1.0,-3.1,0.7,0.2,840,0,,,,,,,,,,,,,,,,,
1808592,1480296351428,,,,,,,,-0.04,0.07,1.0,-3.1,0.7,0.2,840,0,,,,,,,,,,,,,,,,,
1808612,1480296351448,,,,,,,,-0.04,0.07,0.99,-3.1,0.6,0.3,840,0,,,,,,,,,,,,,,,,,
1808632,1480296351468,,,,,54,,,-0.05,0.07,1.0,-3.1,0.6,0.3,840,0,0.0,0,37.47834,-122.203697,0.0,0.0,14.8,11,3,1.4,0,0.0,-1,0.0,,0.0,0
1808652,1480296351488,,,,,,,,-0.05,0.07,1.0,-3.1,0.6,0.2,840,0,,,,,,,,,,,,,,,,,
1808672,1480296351508,,,,,,,,-0.05,0.07,1.0,-3.1,0.6,0.2,840,0,,,,,,,,,,,,,,,,,
1808692,1480296351528,,,,,,,,-0.05,0.07,0.99,-3.1,0.6,0.2,840,0,,,,,,,,,,,,,,,,,
1808712,1480296351548,,,,,,,,-0.05,0.07,0.99,-3.1,0.5,0.2,840,0,,,,,,,,,,,,,,,,,
1808732,1480296351568,0,83.1,,145.6,54,128.9,,-0.04,0.07,0.99,-3.1,0.5,0.2,840,0,0.0,0,37.47834,-122.203697,0.0,0.0,14.8,11,3,1.4,0,0.0,-1,0.0,0.0,0.0,0
1808752,1480296351588,,,,,,,,-0.05,0.07,0.99,-3.1,0.5,0.2,840,0,,,,,,,,,,,,,,,,,
1808772,1480296351608,,,,,,,,-0.05,0.07,0.99,-3.1,0.5,0.2,840,0,,,,,,,,,,,,,,,,,
1808792,1480296351628,,,,,,,,-0.05,0.07,0.99,-3.1,0.5,0.2,840,0,,,,,,,,,,,,,,,,,
1808812,1480296351648,,,,,,,,-0.05,0.07,0.99,-3.1,0.5,0.2,840,0,,,,,,,,,,,,,,,,,
1808832,1480296351668,,,,,55,,,-0.05,0.07,0.99,-3.1,0.5,0.2,840,0,0.0,0,37.47834,-122.203697,0.0,0.0,14.8,11,3,1.4,0,0.0,-1,0.0,,0.0,0
1808852,1480296351688,,,,,,,,-0.04,0.07,0.99,-3.1,0.5,0.2,840,0,,,,,,,,,,,,,,,,,
1808872,1480296351708,,,,,,,,-0.05,0.07,0.99,-3.1,0.4,0.2,820,0,,,,,,,,,,,,,,,,,
1808892,1480296351728,,,,,,,,-0.05,0.08,0.99,-3.1,0.4,0.2,840,0,,,,,,,,,,,,,,,,,
1808912,1480296351748,,,,,,,,-0.05,0.08,0.99,-3.1,0.5,0.2,820,0,,,,,,,,,,,,,,,,,
1808932,1480296351768,1,82.5,,145.5,55,128.9,,-0.05,0.07,1.0,-3.1,0.5,0.1,820,0,0.0,0,37.47834,-122.203697,0.0,0.0,14.8,11,3,1.4,0,0.0,-1,0.0,0.0,0.0,0
1808952,1480296351788,,,,,,,,-0.05,0.07,0.99,-3.1,0.5,0.2,820,0,,,,,,,,,,,,,,,,,
1808972,1480296351808,,,,,,,,-0.04,0.08,0.99,-3.1,0.6,0.2,820,0,,,,,,,,,,,,,,,,,
1808992,1480296351828,,,,,,,,-0.04,0.08,0.99,-3.1,0.6,0.2,820,0,,,,,,,,,,,,,,,,,
1809012,1480296351848,,,,,,,,-0.05,0.08,1.0,-3.1,0.6,0.2,820,0,,,,,,,,,,,,,,,,,
1809032,1480296351868,,,,,58,,,-0.05,0.08,1.0,-3.1,0.6,0.2,820,0,0.0,0,37.47834,-122.203697,0.0,0.0,14.8,11,3,1.4,0,0.0,-1,0.0,,0.0,0
1809052,1480296351888,,,,,,,,-0.05,0.08,1.0,-3.1,0.6,0.2,820,0,,,,,,,,,,,,,,,,,
1809072,1480296351902,,,,,,,,-0.05,0.07,1.0,-3.1,0.6,0.2,820,0,,,,,,,,,,,,,,,,,
1809092,1480296351922,,,,,,,,-0.05,0.08,0.99,-3.1,0.6,0.2,820,0,,,,,,,,,,,,,,,,,
1809112,1480296351942,,,,,,,,-0.05,0.08,0.99,-3.1,0.5,0.2,820,0,,,,,,,,,,,,,,,,,
1809132,1480296351962,0,83.8,0.9,146.0,56,128.9,14.93,-0.05,0.08,0.99,-3.1,0.4,0.3,820,0,0.0,0,37.47834,-122.203697,0.0,0.0,14.8,11,3,1.4,0,0.0,-1,0.0,0.0,0.0,0
1809152,1480296351982,,,,,,,,-0.05,0.08,0.99,-3.1,0.5,0.2,840,0,,,,,,,,,,,,,,,,,
1809172,1480296352107,,,,,,,,-0.05,0.08,1.0,-3.1,0.5,0.2,820,0,,,,,,,,,,,,,,,,,
1809192,1480296352127,,,,,,,,-0.05,0.08,1.0,-3.1,0.5,0.2,820,0,,,,,,,,,,,,,,,,,
1809212,1480296352147,,,,,,,,-0.04,0.07,0.99,-3.1,0.6,0.2,820,0,,,,,,,,,,,,,,,,,
1809232,1480296352167,,,,,56,,,-0.04,0.07,0.99,-3.1,0.6,0.2,840,0,0.0,0,37.47834,-122.203697,0.0,0.0,14.8,11,3,1.4,0,0.0,-1,0.0,,0.0,0
1809252,1480296352187,,,,,,,,-0.05,0.08,1.0,-3.1,0.6,0.3,820,0,,,,,,,,,,,,,,,,,
1809272,1480296352207,,,,,,,,-0.05,0.07,1.0,-3.1,0.6,0.3,820,0,,,,,,,,,,,,,,,,,
1809292,1480296352227,,,,,,,,-0.05,0.07,1.0,-3.1,0.6,0.3,820,0,,,,,,,,,,,,,,,,,
1809312,1480296352247,,,,,,,,-0.05,0.07,1.0,-3.1,0.6,0.3,820,0,,,,,,,,,,,,,,,,,
1809332,1480296352267,0,83.8,,145.9,56,129.0,,-0.05,0.07,1.0,-3.1,0.6,0.3,820,0,0.0,0,37.47834,-122.203697,0.0,0.0,14.8,11,3,1.4,0,0.0,-1,0.0,0.0,0.0,0
1809352,1480296352287,,,,,,,,-0.04,0.07,1.0,-3.1,0.6,0.3,820,0,,,,,,,,,,,,,,,,,
1809372,1480296352208,,,,,,,,-0.05,0.07,0.99,-3.1,0.5,0.3,820,0,,,,,,,,,,,,,,,,,
1809392,1480296352228,,,,,,,,-0.05,0.07,0.99,-3.1,0.5,0.3,820,0,,,,,,,,,,,,,,,,,
1809412,1480296352248,,,,,,,,-0.05,0.07,1.0,-3.1,0.5,0.3,820,0,,,,,,,,,,,,,,,,,
1809432,1480296352268,,,,,56,,,-0.05,0.07,0.99,-3.1,0.5,0.3,820,0,0.0,0,37.47834,-122.203697,0.0,0.0,14.8,11,3,1.4,0,0.0,-1,0.0,,0.0,0
1809452,1480296352288,,,,,,,,-0.04,0.07,0.99,-3.1,0.6,0.3,820,0,,,,,,,,,,,,,,,,,
1809472,1480296352308,,,,,,,,-0.04,0.07,0.99,-3.1,0.6,0.3,820,0,,,,,,,,,,,,,,,,,
1809492,1480296352328,,,,,,,,-0.04,0.07,1.0,-3.1,0.5,0.3,820,0,,,,,,,,,,,,,,,,,
1809512,1480296352348,,,,,,,,-0.05,0.07,1.0,-3.1,0.6,0.3,820,0,,,,,,,,,,,,,,,,,
1809532,1480296352368,1,82.2,,145.6,58,128.6,,-0.04,0.07,1.0,-3.1,0.6,0.3,820,0,0.0,0,37.47834,-122.203697,0.0,0.0,14.8,11,3,1.4,0,0.0,-1,0.0,0.0,0.0,0
1809552,1480296352388,,,,,,,,-0.04,0.07,1.0,-3.1,0.6,0.3,820,0,,,,,,,,,,,,,,,,,
1809572,1480296352408,,,,,,,,-0.04,0.07,1.0,-3.1,0.6,0.3,820,0,,,,,,,,,,,,,,,,,
1809592,1480296352428,,,,,,,,-0.04,0.07,0.99,-3.1,0.5,0.3,820,0,,,,,,,,,,,,,,,,,
1809612,1480296352448,,,,,,,,-0.05,0.08,1.0,-3.1,0.5,0.3,820,0,,,,,,,,,,,,,,,,,
1809632,1480296352468,,,,,58,,,-0.05,0.07,1.0,-3.1,0.5,0.3,820,0,0.0,0,37.47834,-122.203697,0.0,0.0,14.8,11,3,1.4,0,0.0,-1,0.0,,0.0,0
1809652,1480296352488,,,,,,,,-0.04,0.07,1.0,-3.1,0.5,0.3,820,0,,,,,,,,,,,,,,,,,
1809672,1480296352508,,,,,,,,-0.05,0.07,1.0,-3.1,0.6,0.2,820,0,,,,,,,,,,,,,,,,,
1809692,1480296352528,,,,,,,,-0.04,0.07,1.0,-3.1,0.7,0.2,820,0,,,,,,,,,,,,,,,,,
1809712,1480296352548,,,,,,,,-0.04,0.07,1.0,-3.1,0.6,0.3,820,0,,,,,,,,,,,,,,,,,
1809732,1480296352568,0,81.3,,145.0,57,128.1,,-0.04,0.07,1.0,-3.1,0.6,0.3,820,0,0.0,0,37.47834,-122.203697,0.0,0.0,14.8,11,3,1.4,0,0.0,-1,0.0,0.0,0.0,0
1809752,1480296352588,,,,,,,,-0.05,0.07,1.0,-3.1,0.7,0.3,820,0,,,,,,,,,,,,,,,,,
1809772,1480296352608,,,,,,,,-0.05,0.07,1.0,-3.1,0.6,0.3,820,0,,,,,,,,,,,,,,,,,
1809792,1480296352628,,,,,,,,-0.05,0.07,1.0,-3.1,0.6,0.2,820,0,,,,,,,,,,,,,,,,,
1809812,1480296352648,,,,,,,,-0.05,0.07,1.0,-3.1,0.7,0.2,820,0,,,,,,,,,,,,,,,,,
1809832,1480296352668,,,,,57,,,-0.05,0.07,0.99,-3.1,0.5,0.3,820,0,0.0,0,37.47834,-122.203697,0.0,0.0,14.8,11,3,1.4,0,0.0,-1,0.0,,0.0,0
1809852,1480296352688,,,,,,,,-0.05,0.08,0.99,-3.1,0.5,0.3,820,0,,,,,,,,,,,,,,,,,
1809872,1480296352708,,,,,,,,-0.05,0.07,1.0,-3.1,0.6,0.2,820,0,,,,,,,,,,,,,,,,,
1809892,1480296352728,,,,,,,,-0.05,0.07,1.0,-3.1,0.6,0.2,820,0,,,,,,,,,,,,,,,,,
1809912,1480296352748,,,,,,,,-0.05,0.07,1.0,-3.1,0.6,0.2,820,0,,,,,,,,,,,,,,,,,
1809932,1480296352768,0,83.5,,146.2,56,129.2,,-0.04,0.07,1.0,-3.1,0.7,0.2,820,0,0.0,0,37.47834,-122.203697,0.0,0.0,14.8,11,3,1.4,0,0.0,-1,0.0,0.0,0.0,0
1809952,1480296352788,,,,,,,,-0.05,0.07,0.99,-3.1,0.6,0.3,820,0,,,,,,,,,,,,,,,,,
1809972,1480296352908,,,,,,,,-0.05,0.07,0.99,-3.1,0.7,0.2,800,0,,,,,,,,,,,,,,,,,
1809992,1480296352928,,,,,,,,-0.05,0.07,0.99,-3.1,0.6,0.2,820,0,,,,,,,,,,,,,,,,,
1810012,1480296352948,,,,,,,,-0.05,0.07,0.99,-3.1,0.6,0.2,820,0,,,,,,,,,,,,,,,,,
1810032,1480296352968,,,,,59,,,-0.05,0.07,0.99,-3.1,0.6,0.2,820,0,0.0,0,37.47834,-122.203697,0.0,0.0,14.8,11,3,1.4,0,0.0,-1,0.0,,0.0,0
1810052,1480296352988,,,,,,,,-0.04,0.07,0.99,-3.1,0.6,0.3,820,0,,,,,,,,,,,,,,,,,
1810072,1480296353008,,,,,,,,-0.05,0.07,1.0,-3.1,0.6,0.3,820,0,,,,,,,,,,,,,,,,,
1810092,1480296353028,,,,,,,,-0.05,0.07,1.0,-3.1,0.6,0.3,820,0,,,,,,,,,,,,,,,,,
1810112,1480296353048,,,,,,,,-0.05,0.07,1.0,-3.1,0.6,0.2,820,0,,,,,,,,,,,,,,,,,
1810132,1480296353068,0,84.3,1.4,146.4,59,129.3,14.84,-0.05,0.07,1.0,-3.1,0.6,0.2,820,0,0.0,0,37.47834,-122.203697,0.0,0.0,14.8,11,3,1.4,0,0.0,-1,0.0,0.0,0.0,0
1810152,1480296353088,,,,,,,,-0.05,0.07,1.0,-3.1,0.6,0.2,820,0,,,,,,,,,,,,,,,,,
1810172,1480296353008,,,,,,,,-0.05,0.07,0.99,-3.1,0.5,0.3,820,0,,,,,,,,,,,,,,,,,
1810192,1480296353028,,,,,,,,-0.05,0.07,0.99,-3.1,0.5,0.3,820,0,,,,,,,,,,,,,,,,,
1810212,1480296353048,,,,,,,,-0.05,0.07,0.99,-3.1,0.5,0.3,820,0,,,,,,,,,,,,,,,,,
1810232,1480296353068,,,,,58,,,-0.05,0.07,1.0,-3.1,0.5,0.2,820,0,0.0,0,37.47834,-122.203697,0.0,0.0,14.8,11,3,1.4,0,0.0,-1,0.0,,0.0,0
1810252,1480296353088,,,,,,,,-0.05,0.07,1.0,-3.1,0.5,0.2,820,0,,,,,,,,,,,,,,,,,
1810272,1480296353108,,,,,,,,-0.05,0.07,1.0,-3.1,0.7,0.2,820,0,,,,,,,,,,,,,,,,,
1810292,1480296353128,,,,,,,,-0.04,0.07,1.0,-3.1,0.6,0.3,820,0,,,,,,,,,,,,,,,,,
1810312,1480296353148,,,,,,,,-0.05,0.07,1.0,-3.1,0.6,0.2,820,0,,,,,,,,,,,,,,,,,
1810332,1480296353168,0,84.6,,146.3,59,129.1,,-0.05,0.07,1.0,-3.1,0.6,0.2,820,0,0.0,0,37.47834,-122.203697,0.0,0.0,14.8,11,3,1.4,0,0.0,-1,0.0,0.0,0.0,0
1810352,1480296353188,,,,,,,,-0.05,0.07,1.0,-3.1,0.6,0.2,820,0,,,,,,,,,,,,,,,,,
1810372,1480296353208,,,,,,,,-0.05,0.07,1.0,-3.1,0.6,0.3,820,0,,,,,,,,,,,,,,,,,
1810392,1480296353228,,,,,,,,-0.05,0.07,1.0,-3.1,0.6,0.3,820,0,,,,,,,,,,,,,,,,,
1810412,1480296353248,,,,,,,,-0.05,0.08,0.99,-3.1,0.5,0.3,820,0,,,,,,,,,,,,,,,,,
1810432,1480296353268,,,,,59,,,-0.05,0.07,0.99,-3.1,0.5,0.3,820,0,0.0,0,37.47834,-122.203697,0.0,0.0,14.8,11,3,1.4,0,0.0,-1,0.0,,0.0,0
1810452,1480296353288,,,,,,,,-0.05,0.07,1.0,-3.1,0.5,0.3,820,0,,,,,,,,,,,,,,,,,
1810472,1480296353308,,,,,,,,-0.05,0.07,1.0,-3.1,0.5,0.2,820,0,,,,,,,,,,,,,,,,,
1810492,1480296353328,,,,,,,,-0.05,0.07,1.0,-3.1,0.6,0.2,820,0,,,,,,,,,,,,,,,,,
1810512,1480296353348,,,,,,,,-0.05,0.07,1.0,-3.1,0.7,0.2,820,0,,,,,,,,,,,,,,,,,
1810532,1480296353368,0,81.3,,145.2,60,128.9,,-0.04,0.07,1.0,-3.1,0.6,0.2,820,0,0.0,0,37.47834,-122.203697,0.0,0.0,14.8,11,3,1.4,0,0.0,-1,0.0,0.0,0.0,0
1810552,1480296353388,,,,,,,,-0.05,0.07,1.0,-3.1,0.7,0.2,820,0,,,,,,,,,,,,,,,,,
1810572,1480296353408,,,,,,,,-0.05,0.07,1.0,-3.1,0.7,0.2,820,0,,,,,,,,,,,,,,,,,
1810592,1480296353428,,,,,,,,-0.05,0.07,1.0,-3.1,0.7,0.2,820,0,,,,,,,,,,,,,,,,,
1810612,1480296353448,,,,,,,,-0.05,0.07,1.0,-3.1,0.6,0.2,820,0,,,,,,,,,,,,,,,,,
1810632,1480296353468,,,,,61,,,-0.05,0.07,1.0,-3.1,0.7,0.2,820,0,0.0,0,37.47834,-122.203697,0.0,0.0,14.8,11,3,1.4,0,0.0,-1,0.0,,0.0,0
1810652,1480296353488,,,,,,,,-0.04,0.08,0.99,-3.1,0.6,0.2,820,0,,,,,,,,,,,,,,,,,
1810672,1480296353508,,,,,,,,-0.05,0.08,0.99,-3.1,0.6,0.2,820,0,,,,,,,,,,,,,,,,,
1810692,1480296353528,,,,,,,,-0.05,0.08,1.0,-3.1,0.5,0.2,820,0,,,,,,,,,,,,,,,,,
1810712,1480296353548,,,,,,,,-0.05,0.07,1.0,-3.1,0.6,0.2,820,0,,,,,,,,,,,,,,,,,
1810732,1480296353568,0,84.6,,146.3,59,127.9,,-0.05,0.07,0.99,-3.1,0.6,0.2,820,0,0.0,0,37.47834,-122.203697,0.0,0.0,14.8,11,3,1.4,0,0.0,-1,0.0,0.0,0.0,0
1810752,1480296353588,,,,,,,,-0.04,0.07,0.99,-3.1,0.7,0.2,820,0,,,,,,,,,,,,,,,,,
1810772,1480296353707,,,,,,,,-0.04,0.07,0.99,-3.1,0.6,0.2,820,0,,,,,,,,,,,,,,,,,
1810792,1480296353727,,,,,,,,-0.05,0.07,0.99,-3.1,0.6,0.2,820,0,,,,,,,,,,,,,,,,,
1810812,1480296353747,,,,,,,,-0.05,0.07,0.99,-3.1,0.6,0.2,820,0,,,,,,,,,,,,,,,,,
1810832,1480296353767,,,,,61,,,-0.05,0.07,1.0,-3.1,0.6,0.2,820,0,0.0,0,37.47834,-122.203697,0.0,0.0,14.8,11,3,1.4,0,0.0,-1,0.0,,0.0,0
1810852,1480296353787,,,,,,,,-0.05,0.07,0.99,-3.1,0.6,0.2,820,0,,,,,,,,,,,,,,,,,
1810872,1480296353807,,,,,,,,-0.05,0.07,0.99,-3.1,0.6,0.2,820,0,,,,,,,,,,,,,,,,,
1810892,1480296353827,,,,,,,,-0.05,0.07,0.99,-3.1,0.5,0.3,820,0,,,,,,,,,,,,,,,,,
1810912,1480296353847,,,,,,,,-0.05,0.07,0.99,-3.1,0.5,0.2,820,0,,,,,,,,,,,,,,,,,
1810932,1480296353867,0,84.9,,146.5,62,128.4,,-0.05,0.07,0.99,-3.1,0.5,0.2,820,0,0.0,0,37.47834,-122.203697,0.0,0.0,14.8,11,3,1.4,0,0.0,-1,0.0,0.0,0.0,0
1810952,1480296353887,,,,,,,,-0.05,0.07,0.99,-3.1,0.5,0.2,820,0,,,,,,,,,,,,,,,,,
1810972,1480296353808,,,,,,,,-0.05,0.07,0.99,-3.1,0.6,0.2,820,0,,,,,,,,,,,,,,,,,
1810992,1480296353828,,,,,,,,-0.05,0.07,0.99,-3.1,0.7,0.2,820,0,,,,,,,,,,,,,,,,,
1811012,1480296353848,,,,,,,,-0.05,0.07,0.99,-3.1,0.6,0.2,820,0,,,,,,,,,,,,,,,,,
1811032,1480296353868,,,,,60,,,-0.05,0.07,0.99,-3.1,0.7,0.2,820,0,0.0,0,37.47834,-122.203697,0.0,0.0,14.8,11,3,1.4,0,0.0,-1,0.0,,0.0,0
1811052,1480296353888,,,,,,,,-0.05,0.07,0.99,-3.1,0.7,0.2,820,0,,,,,,,,,,,,,,,,,
1811072,1480296353901,,,,,,,,-0.05,0.07,0.99,-3.1,0.6,0.2,820,0,,,,,,,,,,,,,,,,,
1811092,1480296353921,,,,,,,,-0.05,0.07,0.99,-3.1,0.6,0.2,820,0,,,,,,,,,,,,,,,,,
1811112,1480296353941,,,,,,,,-0.05,0.07,0.99,-3.1,0.7,0.2,820,0,,,,,,,,,,,,,,,,,
1811132,1480296353961,0,82.8,0.2,145.0,61,127.7,14.91,-0.05,0.07,0.99,-3.1,0.5,0.2,820,0,0.0,0,37.47834,-122.203697,0.0,0.0,14.8,11,3,1.4,0,0.0,-1,0.0,0.0,0.0,0
1811152,1480296353981,,,,,,,,-0.05,0.07,0.99,-3.1,0.5,0.2,820,0,,,,,,,,,,,,,,,,,
1811172,1480296354008,,,,,,,,-0.05,0.07,0.99,-3.1,0.6,0.2,820,0,,,,,,,,,,,,,,,,,
1811192,1480296354028,,,,,,,,-0.05,0.07,0.99,-3.1,0.5,0.2,820,0,,,,,,,,,,,,,,,,,
1811212,1480296354048,,,,,,,,-0.05,0.07,0.99,-3.1,0.6,0.2,820,0,,,,,,,,,,,,,,,,,
1811232,1480296354068,,,,,59,,,-0.05,0.07,0.99,-3.1,0.6,0.2,820,0,0.0,0,37.47834,-122.203697,0.0,0.0,14.8,11,3,1.4,0,0.0,-1,0.0,,0.0,0
1811252,1480296354088,,,,,,,,-0.05,0.07,0.99,-3.0,0.6,0.2,820,0,,,,,,,,,,,,,,,,,
1811272,1480296354108,,,,,,,,-0.05,0.07,0.99,-3.1,0.6,0.2,820,0,,,,,,,,,,,,,,,,,
1811292,1480296354128,,,,,,,,-0.05,0.07,0.99,-3.1,0.6,0.2,820,0,,,,,,,,,,,,,,,,,
1811312,1480296354148,,,,,,,,-0.05,0.07,0.99,-3.1,0.5,0.2,820,0,,,,,,,,,,,,,,,,,
1811332,1480296354168,0,84.3,,145.8,61,127.0,,-0.05,0.07,0.99,-3.1,0.6,0.2,820,0,0.0,0,37.47834,-122.203697,0.0,0.0,14.8,11,3,1.4,0,0.0,-1,0.0,0.0,0.0,0
1811352,1480296354188,,,,,,,,-0.05,0.07,0.99,-3.1,0.6,0.2,820,0,,,,,,,,,,,,,,,,,
1811372,1480296354208,,,,,,,,-0.05,0.07,0.99,-3.1,0.5,0.2,820,0,,,,,,,,,,,,,,,,,
1811392,1480296354228,,,,,,,,-0.05,0.07,0.99,-3.1,0.5,0.2,820,0,,,,,,,,,,,,,,,,,
1811412,1480296354248,,,,,,,,-0.05,0.07,1.0,-3.1,0.5,0.2,820,0,,,,,,,,,,,,,,,,,
1811432,1480296354268,,,,,61,,,-0.05,0.07,1.0,-3.1,0.5,0.2,820,0,0.0,0,37.47834,-122.203697,0.0,0.0,14.8,11,3,1.4,0,0.0,-1,0.0,,0.0,0
1811452,1480296354288,,,,,,,,-0.05,0.07,0.99,-3.1,0.5,0.2,820,0,,,,,,,,,,,,,,,,,
1811472,1480296354308,,,,,,,,-0.05,0.07,0.99,-3.1,0.5,0.2,820,0,,,,,,,,,,,,,,,,,
1811492,1480296354328,,,,,,,,-0.05,0.07,0.99,-3.1,0.5,0.2,820,0,,,,,,,,,,,,,,,,,
1811512,1480296354348,,,,,,,,-0.05,0.07,0.99,-3.1,0.5,0.2,820,0,,,,,,,,,,,,,,,,,
1811532,1480296354368,1,84.1,,146.7,63,129.2,,-0.05,0.07,1.0,-3.1,0.5,0.2,800,0,0.0,0,37.47834,-122.203697,0.0,0.0,14.8,11,3,1.4,0,0.0,-1,0.0,0.0,0.0,0
1811552,1480296354388,,,,,,,,-0.05,0.07,1.0,-3.1,0.5,0.2,800,0,,,,,,,,,,,,,,,,,
1811572,1480296354507,,,,,,,,-0.05,0.07,1.0,-3.1,0.6,0.2,800,0,,,,,,,,,,,,,,,,,
1811592,1480296354527,,,,,,,,-0.04,0.07,1.0,-3.1,0.6,0.2,800,0,,,,,,,,,,,,,,,,,
1811612,1480296354547,,,,,,,,-0.04,0.07,1.0,-3.1,0.5,0.2,820,0,,,,,,,,,,,,,,,,,
1811632,1480296354567,,,,,61,,,-0.05,0.07,1.0,-3.1,0.6,0.2,820,0,0.0,0,37.47834,-122.203697,0.0,0.0,14.8,11,3,1.4,0,0.0,-1,0.0,,0.0,0
1811652,1480296354587,,,,,,,,-0.05,0.07,1.0,-3.1,0.6,0.2,820,0,,,,,,,,,,,,,,,,,
1811672,1480296354607,,,,,,,,-0.05,0.07,0.99,-3.1,0.5,0.2,820,0,,,,,,,,,,,,,,,,,
1811692,1480296354627,,,,,,,,-0.05,0.07,0.99,-3.1,0.6,0.2,820,0,,,,,,,,,,,,,,,,,
1811712,1480296354647,,,,,,,,-0.05,0.07,0.99,-3.1,0.5,0.2,820,0,,,,,,,,,,,,,,,,,
1811732,1480296354667,0,83.8,,146.7,60,129.3,,-0.05,0.07,0.99,-3.1,0.5,0.2,820,0,0.0,0,37.47834,-122.203697,0.0,0.0,14.8,11,3,1.4,0,0.0,-1,0.0,0.0,0.0,0
1811752,1480296354687,,,,,,,,-0.05,0.07,1.0,-3.1,0.5,0.2,820,0,,,,,,,,,,,,,,,,,
1811772,1480296354608,,,,,,,,-0.05,0.07,1.0,-3.2,0.5,0.2,820,0,,,,,,,,,,,,,,,,,
1811792,1480296354628,,,,,,,,-0.05,0.07,0.99,-3.1,0.5,0.2,820,0,,,,,,,,,,,,,,,,,
1811812,1480296354648,,,,,,,,-0.04,0.07,0.99,-3.1,0.5,0.2,820,0,,,,,,,,,,,,,,,,,
1811832,1480296354668,,,,,61,,,-0.05,0.07,0.99,-3.1,0.4,0.2,820,0,0.0,0,37.47834,-122.203697,0.0,0.0,14.8,11,3,1.4,0,0.0,-1,0.0,,0.0,0
1811852,1480296354688,,,,,,,,-0.05,0.07,0.99,-3.1,0.5,0.2,820,0,,,,,,,,,,,,,,,,,
1811872,1480296354708,,,,,,,,-0.05,0.07,1.0,-3.1,0.5,0.2,820,0,,,,,,,,,,,,,,,,,
1811892,1480296354728,,,,,,,,-0.05,0.07,1.0,-3.1,0.5,0.2,820,0,,,,,,,,,,,,,,,,,
1811912,1480296354748,,,,,,,,-0.04,0.07,1.0,-3.1,0.6,0.2,820,0,,,,,,,,,,,,,,,,,
1811932,1480296354768,0,81.5,,145.5,61,128.9,,-0.04,0.07,1.0,-3.1,0.6,0.2,820,0,0.0,0,37.47834,-122.203697,0.0,0.0,14.8,11,3,1.4,0,0.0,-1,0.0,0.0,0.0,0
1811952,1480296354788,,,,,,,,-0.05,0.07,1.0,-3.1,0.5,0.2,800,0,,,,,,,,,,,,,,,,,
1811972,1480296354808,,,,,,,,-0.05,0.07,1.0,-3.1,0.6,0.2,820,0,,,,,,,,,,,,,,,,,
1811992,1480296354828,,,,,,,,-0.05,0.07,1.0,-3.1,0.6,0.2,820,0,,,,,,,,,,,,,,,,,
1812012,1480296354848,,,,,,,,-0.05,0.07,0.99,-3.1,0.5,0.2,820,0,,,,,,,,,,,,,,,,,
1812032,1480296354868,,,,,59,,,-0.05,0.07,0.99,-3.1,0.6,0.2,820,0,0.0,0,37.47834,-122.203697,0.0,0.0,14.8,11,3,1.4,0,0.0,-1,0.0,,0.0,0
1812052,1480296354888,,,,,,,,-0.05,0.07,0.99,-3.1,0.5,0.2,820,0,,,,,,,,,,,,,,,,,
1812072,1480296354902,,,,,,,,-0.05,0.07,0.99,-3.1,0.5,0.2,820,0,,,,,,,,,,,,,,,,,
1812092,1480296354922,,,,,,,,-0.05,0.07,0.99,-3.1,0.5,0.2,820,0,,,,,,,,,,,,,,,,,
1812112,1480296354942,,,,,,,,-0.05,0.07,1.0,-3.1,0.5,0.2,820,0,,,,,,,,,,,,,,,,,
1812132,1480296354962,0,84.4,0.8,146.6,61,127.9,14.94,-0.05,0.07,0.99,-3.1,0.5,0.2,820,0,0.0,0,37.47834,-122.203697,0.0,0.0,14.8,11,3,1.4,0,0.0,-1,0.0,0.0,0.0,0
1812152,1480296354982,,,,,,,,-0.04,0.07,0.99,-3.1,0.6,0.2,820,0,,,,,,,,,,,,,,,,,
1812172,1480296355008,,,,,,,,-0.05,0.07,0.99,-3.1,0.5,0.2,820,0,,,,,,,,,,,,,,,,,
1812192,1480296355028,,,,,,,,-0.05,0.07,0.99,-3.1,0.5,0.2,820,0,,,,,,,,,,,,,,,,,
1812212,1480296355048,,,,,,,,-0.05,0.07,0.99,-3.1,0.5,0.2,820,0,,,,,,,,,,,,,,,,,
1812232,1480296355068,,,,,61,,,-0.05,0.07,0.99,-3.1,0.5,0.2,820,0,0.0,0,37.47834,-122.203697,0.0,0.0,14.8,11,3,1.4,0,0.0,-1,0.0,,0.0,0
1812252,1480296355088,,,,,,,,-0.04,0.07,0.99,-3.1,0.5,0.2,800,0,,,,,,,,,,,,,,,,,
1812272,1480296355107,,,,,,,,-0.04,0.07,0.99,-3.1,0.5,0.2,820,0,,,,,,,,,,,,,,,,,
1812292,1480296355127,,,,,,,,-0.04,0.07,0.99,-3.1,0.5,0.2,820,0,,,,,,,,,,,,,,,,,
1812312,1480296355147,,,,,,,,-0.04,0.07,0.99,-3.1,0.5,0.2,820,0,,,,,,,,,,,,,,,,,
1812332,1480296355167,0,84.3,,146.7,61,129.0,,-0.05,0.07,1.0,-3.1,0.5,0.2,820,0,0.0,0,37.47834,-122.203697,0.0,0.0,14.8,11,3,1.4,0,0.0,-1,0.0,0.0,0.0,0
1812352,1480296355187,,,,,,,,-0.05,0.07,1.0,-3.1,0.5,0.2,800,0,,,,,,,,,,,,,,,,,
1812372,1480296355307,,,,,,,,-0.05,0.07,1.0,-3.1,0.5,0.2,800,0,,,,,,,,,,,,,,,,,
1812392,1480296355327,,,,,,,,-0.05,0.07,0.99,-3.1,0.4,0.2,800,0,,,,,,,,,,,,,,,,,
1812412,1480296355347,,,,,,,,-0.05,0.07,0.99,-3.1,0.5,0.2,800,0,,,,,,,,,,,,,,,,,
1812432,1480296355367,,,,,61,,,-0.05,0.07,1.0,-3.1,0.5,0.2,800,0,0.0,0,37.47834,-122.203697,0.0,0.0,14.8,11,3,1.4,0,0.0,-1,0.0,,0.0,0
1812452,1480296355387,,,,,,,,-0.05,0.07,1.0,-3.1,0.5,0.2,800,0,,,,,,,,,,,,,,,,,
1812472,1480296355407,,,,,,,,-0.05,0.06,0.99,-3.1,0.5,0.2,800,0,,,,,,,,,,,,,,,,,
1812492,1480296355427,,,,,,,,-0.05,0.07,0.99,-3.1,0.4,0.3,800,0,,,,,,,,,,,,,,,,,
1812512,1480296355447,,,,,,,,-0.05,0.07,0.99,-3.1,0.4,0.2,800,0,,,,,,,,,,,,,,,,,
1812532,1480296355467,0,83.1,,146.4,60,129.0,,-0.05,0.07,1.0,-3.1,0.4,0.2,800,0,0.0,0,37.47834,-122.203697,0.0,0.0,14.8,11,3,1.4,0,0.0,-1,0.0,0.0,0.0,0
1812552,1480296355487,,,,,,,,-0.05,0.07,1.0,-3.1,0.5,0.2,800,0,,,,,,,,,,,,,,,,,
1812572,1480296355408,,,,,,,,-0.05,0.07,1.0,-3.1,0.5,0.2,800,0,,,,,,,,,,,,,,,,,
1812592,1480296355428,,,,,,,,-0.04,0.07,1.0,-3.1,0.6,0.2,800,0,,,,,,,,,,,,,,,,,
1812612,1480296355448,,,,,,,,-0.05,0.07,0.99,-3.1,0.5,0.2,800,0,,,,,,,,,,,,,,,,,
1812632,1480296355468,,,,,61,,,-0.05,0.07,0.99,-3.1,0.5,0.2,800,0,0.0,0,37.47834,-122.203697,0.0,0.0,14.8,11,3,1.4,0,0.0,-1,0.0,,0.0,0
1812652,1480296355488,,,,,,,,-0.05,0.07,0.99,-3.1,0.5,0.2,800,0,,,,,,,,,,,,,,,,,
1812672,1480296355508,,,,,,,,-0.05,0.07,0.99,-3.1,0.5,0.2,800,0,,,,,,,,,,,,,,,,,
1812692,1480296355528,,,,,,,,-0.05,0.07,0.99,-3.1,0.6,0.2,800,0,,,,,,,,,,,,,,,,,
1812712,1480296355548,,,,,,,,-0.04,0.07,0.99,-3.1,0.6,0.3,800,0,,,,,,,,,,,,,,,,,
1812732,1480296355568,0,82.3,,146.0,61,128.9,,-0.04,0.07,1.0,-3.1,0.5,0.2,800,0,0.0,0,37.47834,-122.203697,0.0,0.0,14.8,11,3,1.4,0,0.0,-1,0.0,0.0,0.0,0
1812752,1480296355588,,,,,,,,-0.05,0.07,1.0,-3.1,0.6,0.2,800,0,,,,,,,,,,,,,,,,,
1812772,1480296355608,,,,,,,,-0.05,0.07,1.0,-3.1,0.5,0.2,800,0,,,,,,,,,,,,,,,,,
1812792,1480296355628,,,,,,,,-0.05,0.07,0.99,-3.1,0.5,0.2,800,0,,,,,,,,,,,,,,,,,
1812812,1480296355648,,,,,,,,-0.05,0.07,0.99,-3.1,0.6,0.2,820,0,,,,,,,,,,,,,,,,,
1812832,1480296355668,,,,,60,,,-0.05,0.07,1.0,-3.1,0.5,0.2,800,0,0.0,0,37.47834,-122.203697,0.0,0.0,14.8,11,3,1.4,0,0.0,-1,0.0,,0.0,0
1812852,1480296355688,,,,,,,,-0.05,0.07,0.99,-3.1,0.5,0.2,800,0,,,,,,,,,,,,,,,,,
1812872,1480296355708,,,,,,,,-0.05,0.07,1.0,-3.1,0.6,0.2,800,0,,,,,,,,,,,,,,,,,
1812892,1480296355728,,,,,,,,-0.05,0.07,1.0,-3.1,0.6,0.2,800,0,,,,,,,,,,,,,,,,,
1812912,1480296355748,,,,,,,,-0.05,0.07,1.0,-3.1,0.6,0.2,800,0,,,,,,,,,,,,,,,,,
1812932,1480296355768,0,84.0,,146.8,61,129.0,,-0.05,0.07,0.99,-3.1,0.5,0.2,800,0,0.0,0,37.47834,-122.203697,0.0,0.0,14.8,11,3,1.4,0,0.0,-1,0.0,0.0,0.0,0
1812952,1480296355788,,,,,,,,-0.05,0.07,1.0,-3.1,0.5,0.2,800,0,,,,,,,,,,,,,,,,,
1812972,1480296355808,,,,,,,,-0.05,0.07,1.0,-3.1,0.5,0.2,800,0,,,,,,,,,,,,,,,,,
1812992,1480296355828,,,,,,,,-0.05,0.07,1.0,-3.1,0.5,0.1,800,0,,,,,,,,,,,,,,,,,
1813012,1480296355848,,,,,,,,-0.05,0.07,1.0,-3.1,0.5,0.2,820,0,,,,,,,,,,,,,,,,,
1813032,1480296355868,,,,,60,,,-0.04,0.07,0.99,-3.1,0.5,0.2,820,0,0.0,0,37.47834,-122.203697,0.0,0.0,14.8,11,3,1.4,0,0.0,-1,0.0,,0.0,0
1813052,1480296355888,,,,,,,,-0.05,0.07,1.0,-3.1,0.4,0.2,820,0,,,,,,,,,,,,,,,,,
1813072,1480296355902,,,,,,,,-0.05,0.07,1.0,-3.1,0.5,0.2,820,0,,,,,,,,,,,,,,,,,
1813092,1480296355922,,,,,,,,-0.05,0.07,1.0,-3.1,0.5,0.2,820,0,,,,,,,,,,,,,,,,,
1813112,1480296355942,,,,,,,,-0.05,0.07,1.0,-3.1,0.5,0.2,820,0,,,,,,,,,,,,,,,,,
1813132,1480296355962,0,82.7,0.4,145.8,60,128.1,14.96,-0.05,0.07,1.0,-3.1,0.6,0.2,800,0,0.0,0,37.47834,-122.203697,0.0,0.0,14.8,11,3,1.4,0,0.0,-1,0.0,0.0,0.0,0
1813152,1480296355982,,,,,,,,-0.04,0.07,1.0,-3.1,0.6,0.2,820,0,,,,,,,,,,,,,,,,,
1813172,1480296356107,,,,,,,,-0.05,0.07,1.0,-3.1,0.6,0.2,820,0,,,,,,,,,,,,,,,,,
1813192,1480296356127,,,,,,,,-0.05,0.07,1.0,-3.1,0.6,0.2,820,0,,,,,,,,,,,,,,,,,
1813212,1480296356147,,,,,,,,-0.05,0.07,1.0,-3.1,0.6,0.2,820,0,,,,,,,,,,,,,,,,,
1813232,1480296356167,,,,,60,,,-0.05,0.07,1.0,-3.1,0.6,0.2,820,0,0.0,0,37.47834,-122.203697,0.0,0.0,14.8,11,3,1.4,0,0.0,-1,0.0,,0.0,0
1813252,1480296356187,,,,,,,,-0.05,0.07,1.0,-3.1,0.6,0.2,820,0,,,,,,,,,,,,,,,,,
1813272,1480296356207,,,,,,,,-0.05,0.07,0.99,-3.1,0.5,0.2,820,0,,,,,,,,,,,,,,,,,
1813292,1480296356227,,,,,,,,-0.05,0.07,1.0,-3.1,0.6,0.2,820,0,,,,,,,,,,,,,,,,,
1813312,1480296356247,,,,,,,,-0.05,0.07,1.0,-3.1,0.6,0.2,800,0,,,,,,,,,,,,,,,,,
1813332,1480296356267,0,82.2,,145.9,60,128.7,,-0.05,0.07,1.0,-3.1,0.6,0.2,800,0,0.0,0,37.47834,-122.203697,0.0,0.0,14.8,11,3,1.4,0,0.0,-1,0.0,0.0,0.0,0
1813352,1480296356287,,,,,,,,-0.05,0.07,1.0,-3.1,0.6,0.2,820,0,,,,,,,,,,,,,,,,,
1813372,1480296356208,,,,,,,,-0.04,0.07,0.99,-3.1,0.6,0.2,820,0,,,,,,,,,,,,,,,,,
1813392,1480296356228,,,,,,,,-0.05,0.07,1.0,-3.1,0.5,0.2,820,0,,,,,,,,,,,,,,,,,
1813412,1480296356248,,,,,,,,-0.05,0.07,0.99,-3.1,0.5,0.2,800,0,,,,,,,,,,,,,,,,,
1813432,1480296356268,,,,,59,,,-0.05,0.07,1.0,-3.1,0.5,0.2,800,0,0.0,0,37.47834,-122.203697,0.0,0.0,14.8,11,3,1.4,0,0.0,-1,0.0,,0.0,0
1813452,1480296356288,,,,,,,,-0.05,0.07,1.0,-3.1,0.6,0.2,800,0,,,,,,,,,,,,,,,,,
1813472,1480296356308,,,,,,,,-0.04,0.07,1.0,-3.1,0.7,0.2,800,0,,,,,,,,,,,,,,,,,
1813492,1480296356328,,,,,,,,-0.04,0.08,0.99,-3.1,0.6,0.3,800,0,,,,,,,,,,,,,,,,,
1813512,1480296356348,,,,,,,,-0.05,0.07,0.99,-3.1,0.6,0.3,800,0,,,,,,,,,,,,,,,,,
1813532,1480296356368,0,83.1,,146.6,60,129.1,,-0.05,0.07,0.99,-3.1,0.6,0.2,800,0,0.0,0,37.47834,-122.203697,0.0,0.0,14.8,11,3,1.4,0,0.0,-1,0.0,0.0,0.0,0
1813552,1480296356388,,,,,,,,-0.05,0.07,0.99,-3.1,0.6,0.2,800,0,,,,,,,,,,,,,,,,,
1813572,1480296356408,,,,,,,,-0.05,0.07,0.99,-3.1,0.6,0.2,800,0,,,,,,,,,,,,,,,,,
1813592,1480296356428,,,,,,,,-0.04,0.07,0.99,-3.1,0.6,0.3,800,0,,,,,,,,,,,,,,,,,
1813612,1480296356448,,,,,,,,-0.05,0.07,1.0,-3.1,0.6,0.3,800,0,,,,,,,,,,,,,,,,,
1813632,1480296356468,,,,,60,,,-0.05,0.07,0.99,-3.1,0.6,0.3,800,0,0.0,0,37.47834,-122.203697,0.0,0.0,14.8,11,3,1.4,0,0.0,-1,0.0,,0.0,0
1813652,1480296356488,,,,,,,,-0.05,0.07,1.0,-3.1,0.6,0.3,800,0,,,,,,,,,,,,,,,,,
1813672,1480296356508,,,,,,,,-0.05,0.07,0.99,-3.1,0.6,0.3,820,0,,,,,,,,,,,,,,,,,
1813692,1480296356528,,,,,,,,-0.05,0.07,0.99,-3.1,0.6,0.3,820,0,,,,,,,,,,,,,,,,,
1813712,1480296356548,,,,,,,,-0.05,0.07,0.99,-3.1,0.6,0.3,800,0,,,,,,,,,,,,,,,,,
1813732,1480296356568,0,82.1,,145.9,61,128.5,,-0.05,0.07,0.99,-3.1,0.6,0.3,800,0,0.0,0,37.47834,-122.203697,0.0,0.0,14.8,11,3,1.4,0,0.0,-1,0.0,0.0,0.0,0
1813752,1480296356588,,,,,,,,-0.05,0.07,1.0,-3.1,0.6,0.3,820,0,,,,,,,,,,,,,,,,,
1813772,1480296356608,,,,,,,,-0.05,0.07,1.0,-3.1,0.6,0.3,820,0,,,,,,,,,,,,,,,,,
1813792,1480296356628,,,,,,,,-0.05,0.07,1.0,-3.1,0.6,0.3,800,0,,,,,,,,,,,,,,,,,
1813812,1480296356648,,,,,,,,-0.05,0.07,0.99,-3.1,0.6,0.3,800,0,,,,,,,,,,,,,,,,,
1813832,1480296356668,,,,,61,,,-0.05,0.07,0.99,-3.1,0.5,0.3,800,0,0.0,0,37.47834,-122.203697,0.0,0.0,14.8,11,3,1.4,0,0.0,-1,0.0,,0.0,0
1813852,1480296356688,,,,,,,,-0.05,0.07,0.99,-3.1,0.5,0.3,800,0,,,,,,,,,,,,,,,,,
1813872,1480296356708,,,,,,,,-0.05,0.07,1.0,-3.1,0.5,0.2,800,0,,,,,,,,,,,,,,,,,
1813892,1480296356728,,,,,,,,-0.05,0.07,1.0,-3.1,0.6,0.2,800,0,,,,,,,,,,,,,,,,,
1813912,1480296356748,,,,,,,,-0.04,0.07,0.99,-3.1,0.6,0.2,800,0,,,,,,,,,,,,,,,,,
1813932,1480296356768,0,83.4,,146.9,59,129.2,,-0.05,0.07,1.0,-3.1,0.5,0.3,800,0,0.0,0,37.47834,-122.203697,0.0,0.0,14.8,11,3,1.4,0,0.0,-1,0.0,0.0,0.0,0
1813952,1480296356788,,,,,,,,-0.05,0.07,1.0,-3.1,0.5,0.2,800,0,,,,,,,,,,,,,,,,,
1813972,1480296356907,,,,,,,,-0.05,0.07,1.0,-3.1,0.6,0.2,800,0,,,,,,,,,,,,,,,,,
1813992,1480296356927,,,,,,,,-0.05,0.07,1.0,-3.1,0.6,0.2,800,0,,,,,,,,,,,,,,,,,
1814012,1480296356947,,,,,,,,-0.04,0.07,1.0,-3.1,0.6,0.2,800,0,,,,,,,,,,,,,,,,,
1814032,1480296356967,,,,,59,,,-0.04,0.07,1.0,-3.1,0.6,0.3,820,0,0.0,0,37.47834,-122.203697,0.0,0.0,14.8,11,3,1.4,0,0.0,-1,0.0,,0.0,0
1814052,1480296356987,,,,,,,,-0.04,0.07,1.0,-3.1,0.6,0.3,800,0,,,,,,,,,,,,,,,,,
1814072,1480296357007,,,,,,,,-0.05,0.07,0.99,-3.1,0.6,0.2,820,0,,,,,,,,,,,,,,,,,
1814092,1480296357027,,,,,,,,-0.05,0.07,1.0,-3.1,0.6,0.2,820,0,,,,,,,,,,,,,,,,,
1814112,1480296357047,,,,,,,,-0.05,0.07,1.0,-3.1,0.6,0.2,820,0,,,,,,,,,,,,,,,,,
1814132,1480296357067,0,83.4,0.4,145.8,60,127.8,14.96,-0.04,0.07,0.99,-3.1,0.7,0.3,820,0,0.0,0,37.47834,-122.203697,0.0,0.0,14.8,11,3,1.4,0,0.0,-1,0.0,0.0,0.0,0
1814152,1480296357087,,,,,,,,-0.05,0.07,1.0,-3.1,0.6,0.3,820,0,,,,,,,,,,,,,,,,,
1814172,1480296357006,,,,,,,,-0.05,0.07,1.0,-3.1,0.6,0.3,800,0,,,,,,,,,,,,,,,,,
1814192,1480296357026,,,,,,,,-0.05,0.07,1.0,-3.1,0.7,0.3,800,0,,,,,,,,,,,,,,,,,
1814212,1480296357046,,,,,,,,-0.05,0.07,1.0,-3.1,0.6,0.3,800,0,,,,,,,,,,,,,,,,,
1814232,1480296357066,,,,,59,,,-0.05,0.07,0.99,-3.1,0.6,0.3,800,0,0.0,0,37.47834,-122.203697,0.0,0.0,14.8,11,3,1.4,0,0.0,-1,0.0,,0.0,0
1814252,1480296357086,,,,,,,,-0.05,0.07,0.99,-3.1,0.5,0.3,800,0,,,,,,,,,,,,,,,,,
1814272,1480296357108,,,,,,,,-0.05,0.07,0.99,-3.1,0.5,0.2,800,0,,,,,,,,,,,,,,,,,
1814292,1480296357128,,,,,,,,-0.05,0.07,0.99,-3.1,0.5,0.2,800,0,,,,,,,,,,,,,,,,,
1814312,1480296357148,,,,,,,,-0.05,0.07,1.0,-3.1,0.5,0.2,800,0,,,,,,,,,,,,,,,,,
1814332,1480296357168,0,82.3,,146.4,58,129.2,,-0.05,0.07,1.0,-3.1,0.6,0.2,800,0,0.0,0,37.47834,-122.203697,0.0,0.0,14.8,11,3,1.4,0,0.0,-1,0.0,0.0,0.0,0
1814352,1480296357188,,,,,,,,-0.04,0.07,1.0,-3.1,0.7,0.2,800,0,,,,,,,,,,,,,,,,,
1814372,1480296357208,,,,,,,,-0.05,0.07,0.99,-3.1,0.5,0.2,800,0,,,,,,,,,,,,,,,,,
1814392,1480296357228,,,,,,,,-0.05,0.07,0.99,-3.1,0.6,0.2,820,0,,,,,,,,,,,,,,,,,
1814412,1480296357248,,,,,,,,-0.05,0.07,1.0,-3.1,0.6,0.2,820,0,,,,,,,,,,,,,,,,,
1814432,1480296357268,,,,,60,,,-0.05,0.07,1.0,-3.1,0.6,0.2,820,0,0.0,0,37.47834,-122.203697,0.0,0.0,14.8,11,3,1.4,0,0.0,-1,0.0,,0.0,0
1814452,1480296357288,,,,,,,,-0.04,0.07,1.0,-3.1,0.7,0.2,800,0,,,,,,,,,,,,,,,,,
1814472,1480296357308,,,,,,,,-0.04,0.07,1.0,-3.1,0.6,0.2,820,0,,,,,,,,,,,,,,,,,
1814492,1480296357328,,,,,,,,-0.04,0.07,1.0,-3.1,0.6,0.2,820,0,,,,,,,,,,,,,,,,,
1814512,1480296357348,,,,,,,,-0.05,0.07,1.0,-3.1,0.6,0.2,820,0,,,,,,,,,,,,,,,,,
1814532,1480296357368,0,82.2,,145.8,59,128.2,,-0.05,0.07,1.0,-3.1,0.6,0.2,820,0,0.0,0,37.47834,-122.203697,0.0,0.0,14.8,11,3,1.4,0,0.0,-1,0.0,0.0,0.0,0
1814552,1480296357388,,,,,,,,-0.05,0.07,1.0,-3.1,0.6,0.2,820,0,,,,,,,,,,,,,,,,,
1814572,1480296357403,,,,,,,,-0.05,0.07,1.0,-3.1,0.6,0.2,820,0,,,,,,,,,,,,,,,,,
1814592,1480296357423,,,,,,,,-0.05,0.07,0.99,-3.1,0.6,0.2,800,0,,,,,,,,,,,,,,,,,
1814612,1480296357443,,,,,,,,-0.05,0.07,1.0,-3.1,0.6,0.2,820,0,,,,,,,,,,,,,,,,,
1814632,1480296357463,,,,,62,,,-0.05,0.07,1.0,-3.1,0.6,0.2,800,0,0.0,0,37.47834,-122.203697,0.0,0.0,14.8,11,3,1.4,0,0.0,-1,0.0,,0.0,0
1814652,1480296357483,,,,,,,,-0.05,0.07,1.0,-3.1,0.6,0.2,800,0,,,,,,,,,,,,,,,,,
1814672,1480296357508,,,,,,,,-0.05,0.07,0.99,-3.1,0.6,0.2,820,0,,,,,,,,,,,,,,,,,
1814692,1480296357528,,,,,,,,-0.05,0.07,0.99,-3.1,0.6,0.2,800,0,,,,,,,,,,,,,,,,,
1814712,1480296357548,,,,,,,,-0.05,0.07,0.99,-3.1,0.5,0.2,800,0,,,,,,,,,,,,,,,,,
1814732,1480296357568,0,85.0,,146.9,60,127.4,,-0.05,0.07,0.99,-3.1,0.5,0.2,800,0,0.0,0,37.47834,-122.203697,0.0,0.0,14.8,11,3,1.4,0,0.0,-1,0.0,0.0,0.0,0
1814752,1480296357588,,,,,,,,-0.05,0.07,1.0,-3.1,0.5,0.2,800,0,,,,,,,,,,,,,,,,,
1814772,1480296357708,,,,,,,,-0.05,0.07,1.0,-3.1,0.5,0.2,820,0,,,,,,,,,,,,,,,,,
1814792,1480296357728,,,,,,,,-0.05,0.07,0.99,-3.1,0.7,0.2,800,0,,,,,,,,,,,,,,,,,
1814812,1480296357748,,,,,,,,-0.04,0.08,0.99,-3.1,0.6,0.2,800,0,,,,,,,,,,,,,,,,,
1814832,1480296357768,,,,,60,,,-0.05,0.07,0.99,-3.1,0.6,0.2,800,0,0.0,0,37.47834,-122.203697,0.0,0.0,14.8,11,3,1.4,0,0.0,-1,0.0,,0.0,0
1814852,1480296357788,,,,,,,,-0.05,0.07,0.99,-3.1,0.6,0.2,800,0,,,,,,,,,,,,,,,,,
1814872,1480296357808,,,,,,,,-0.05,0.07,0.99,-3.1,0.6,0.2,800,0,,,,,,,,,,,,,,,,,
1814892,1480296357828,,,,,,,,-0.05,0.07,0.99,-3.1,0.6,0.2,800,0,,,,,,,,,,,,,,,,,
1814912,1480296357848,,,,,,,,-0.04,0.07,0.99,-3.1,0.6,0.2,800,0,,,,,,,,,,,,,,,,,
1814932,1480296357868,0,84.9,,147.5,61,129.3,,-0.05,0.08,1.0,-3.1,0.6,0.2,800,0,0.0,0,37.47834,-122.203697,0.0,0.0,14.8,11,3,1.4,0,0.0,-1,0.0,0.0,0.0,0
1814952,1480296357888,,,,,,,,-0.05,0.07,1.0,-3.1,0.6,0.2,800,0,,,,,,,,,,,,,,,,,
1814972,1480296357808,,,,,,,,-0.05,0.07,1.0,-3.1,0.6,0.2,800,0,,,,,,,,,,,,,,,,,
1814992,1480296357828,,,,,,,,-0.05,0.07,1.0,-3.1,0.5,0.2,800,0,,,,,,,,,,,,,,,,,
1815012,1480296357848,,,,,,,,-0.05,0.07,1.0,-3.1,0.6,0.2,800,0,,,,,,,,,,,,,,,,,
1815032,1480296357868,,,,,60,,,-0.05,0.08,1.0,-3.1,0.5,0.2,800,0,0.0,0,37.47834,-122.203697,0.0,0.0,14.8,11,3,1.4,0,0.0,-1,0.0,,0.0,0
1815052,1480296357888,,,,,,,,-0.05,0.07,1.0,-3.1,0.5,0.2,800,0,,,,,,,,,,,,,,,,,
1815072,1480296357902,,,,,,,,-0.05,0.07,1.0,-3.1,0.6,0.2,800,0,,,,,,,,,,,,,,,,,
1815092,1480296357922,,,,,,,,-0.05,0.07,1.0,-3.1,0.5,0.2,800,0,,,,,,,,,,,,,,,,,
1815112,1480296357942,,,,,,,,-0.05,0.08,1.0,-3.1,0.5,0.2,800,0,,,,,,,,,,,,,,,,,
1815132,1480296357962,0,82.3,0.5,146.5,58,129.2,14.91,-0.05,0.08,1.0,-3.1,0.4,0.2,800,0,0.0,0,37.47834,-122.203697,0.0,0.0,14.8,11,3,1.4,0,0.0,-1,0.0,0.0,0.0,0
1815152,1480296357982,,,,,,,,-0.05,0.08,1.0,-3.1,0.4,0.2,800,0,,,,,,,,,,,,,,,,,
1815172,1480296358007,,,,,,,,-0.05,0.08,1.0,-3.1,0.4,0.2,800,0,,,,,,,,,,,,,,,,,
1815192,1480296358027,,,,,,,,-0.05,0.07,1.0,-3.1,0.5,0.2,800,0,,,,,,,,,,,,,,,,,
1815212,1480296358047,,,,,,,,-0.05,0.07,1.0,-3.1,0.4,0.2,800,0,,,,,,,,,,,,,,,,,
1815232,1480296358067,,,,,59,,,-0.04,0.07,0.99,-3.1,0.5,0.2,800,0,0.0,0,37.47834,-122.203697,0.0,0.0,14.8,11,3,1.4,0,0.0,-1,0.0,,0.0,0
1815252,1480296358087,,,,,,,,-0.05,0.07,0.99,-3.1,0.4,0.2,800,0,,,,,,,,,,,,,,,,,
1815272,1480296358108,,,,,,,,-0.05,0.07,0.99,-3.1,0.4,0.2,800,0,,,,,,,,,,,,,,,,,
1815292,1480296358128,,,,,,,,-0.05,0.07,1.0,-3.1,0.5,0.2,800,0,,,,,,,,,,,,,,,,,
1815312,1480296358148,,,,,,,,-0.05,0.07,1.0,-3.1,0.5,0.2,800,0,,,,,,,,,,,,,,,,,
1815332,1480296358168,0,81.9,,146.0,58,128.7,,-0.04,0.07,0.99,-3.1,0.6,0.2,780,0,0.0,0,37.47834,-122.203697,0.0,0.0,14.8,11,3,1.4,0,0.0,-1,0.0,0.0,0.0,0
1815352,1480296358188,,,,,,,,-0.04,0.08,0.99,-3.1,0.5,0.2,800,0,,,,,,,,,,,,,,,,,
1815372,1480296358208,,,,,,,,-0.05,0.07,0.99,-3.1,0.5,0.2,800,0,,,,,,,,,,,,,,,,,
1815392,1480296358228,,,,,,,,-0.05,0.08,1.0,-3.1,0.5,0.2,800,0,,,,,,,,,,,,,,,,,
1815412,1480296358248,,,,,,,,-0.05,0.08,1.0,-3.1,0.5,0.2,800,0,,,,,,,,,,,,,,,,,
1815432,1480296358268,,,,,59,,,-0.04,0.07,1.0,-3.1,0.6,0.2,800,0,0.0,0,37.47834,-122.203697,0.0,0.0,14.8,11,3,1.4,0,0.0,-1,0.0,,0.0,0
1815452,1480296358288,,,,,,,,-0.04,0.08,1.0,-3.1,0.6,0.2,800,0,,,,,,,,,,,,,,,,,
1815472,1480296358308,,,,,,,,-0.05,0.07,1.0,-3.1,0.5,0.2,800,0,,,,,,,,,,,,,,,,,
1815492,1480296358328,,,,,,,,-0.05,0.07,1.0,-3.1,0.5,0.2,800,0,,,,,,,,,,,,,,,,,
1815512,1480296358348,,,,,,,,-0.05,0.07,1.0,-3.1,0.6,0.2,800,0,,,,,,,,,,,,,,,,,
1815532,1480296358368,0,84.6,,147.6,59,129.6,,-0.04,0.07,1.0,-3.1,0.7,0.2,800,0,0.0,0,37.47834,-122.203697,0.0,0.0,14.8,11,3,1.4,0,0.0,-1,0.0,0.0,0.0,0
1815552,1480296358388,,,,,,,,-0.04,0.08,0.99,-3.1,0.6,0.2,800,0,,,,,,,,,,,,,,,,,
1815572,1480296358507,,,,,,,,-0.05,0.08,0.99,-3.1,0.6,0.2,800,0,,,,,,,,,,,,,,,,,
1815592,1480296358527,,,,,,,,-0.05,0.08,1.0,-3.1,0.6,0.2,800,0,,,,,,,,,,,,,,,,,
1815612,1480296358547,,,,,,,,-0.05,0.07,0.99,-3.1,0.6,0.2,800,0,,,,,,,,,,,,,,,,,
1815632,1480296358567,,,,,57,,,-0.05,0.07,1.0,-3.1,0.6,0.2,800,0,0.0,0,37.47834,-122.203697,0.0,0.0,14.8,11,3,1.4,0,0.0,-1,0.0,,0.0,0
1815652,1480296358587,,,,,,,,-0.04,0.08,0.99,-3.1,0.6,0.2,800,0,,,,,,,,,,,,,,,,,
1815672,1480296358607,,,,,,,,-0.04,0.08,1.0,-3.1,0.6,0.2,800,0,,,,,,,,,,,,,,,,,
1815692,1480296358627,,,,,,,,-0.05,0.07,1.0,-3.1,0.6,0.2,800,0,,,,,,,,,,,,,,,,,
1815712,1480296358647,,,,,,,,-0.05,0.08,1.0,-3.1,0.5,0.2,800,0,,,,,,,,,,,,,,,,,
1815732,1480296358667,0,85.0,,147.6,58,129.4,,-0.05,0.08,1.0,-3.1,0.5,0.2,800,0,0.0,0,37.47834,-122.203697,0.0,0.0,14.8,11,3,1.4,0,0.0,-1,0.0,0.0,0.0,0
1815752,1480296358687,,,,,,,,-0.04,0.08,1.0,-3.1,0.6,0.2,800,0,,,,,,,,,,,,,,,,,
1815772,1480296358608,,,,,,,,-0.04,0.08,1.0,-3.1,0.6,0.2,800,0,,,,,,,,,,,,,,,,,
1815792,1480296358628,,,,,,,,-0.05,0.08,1.0,-3.1,0.6,0.2,800,0,,,,,,,,,,,,,,,,,
1815812,1480296358648,,,,,,,,-0.05,0.08,1.01,-3.1,0.6,0.2,800,0,,,,,,,,,,,,,,,,,
1815832,1480296358668,,,,,58,,,-0.05,0.07,1.0,-3.1,0.5,0.2,800,0,0.0,0,37.47834,-122.203697,0.0,0.0,14.8,11,3,1.4,0,0.0,-1,0.0,,0.0,0
1815852,1480296358688,,,,,,,,-0.05,0.07,1.0,-3.1,0.6,0.2,800,0,,,,,,,,,,,,,,,,,
1815872,1480296358708,,,,,,,,-0.05,0.07,1.0,-3.1,0.6,0.2,780,0,,,,,,,,,,,,,,,,,
1815892,1480296358728,,,,,,,,-0.05,0.07,1.0,-3.1,0.6,0.2,780,0,,,,,,,,,,,,,,,,,
1815912,1480296358748,,,,,,,,-0.05,0.07,1.0,-3.1,0.6,0.2,780,0,,,,,,,,,,,,,,,,,
1815932,1480296358768,0,81.9,,146.1,56,128.7,,-0.05,0.07,1.0,-3.1,0.5,0.2,780,0,0.0,0,37.47834,-122.203697,0.0,0.0,14.8,11,3,1.4,0,0.0,-1,0.0,0.0,0.0,0
1815952,1480296358788,,,,,,,,-0.05,0.07,1.0,-3.1,0.6,0.2,800,0,,,,,,,,,,,,,,,,,
1815972,1480296358808,,,,,,,,-0.05,0.07,1.01,-3.1,0.6,0.2,800,0,,,,,,,,,,,,,,,,,
1815992,1480296358828,,,,,,,,-0.05,0.07,1.0,-3.1,0.6,0.2,800,0,,,,,,,,,,,,,,,,,
1816012,1480296358848,,,,,,,,-0.05,0.07,1.01,-3.1,0.6,0.2,800,0,,,,,,,,,,,,,,,,,
1816032,1480296358868,,,,,58,,,-0.06,0.07,1.0,-3.1,0.6,0.2,800,0,0.0,0,37.47834,-122.203697,0.0,0.0,14.8,11,3,1.4,0,0.0,-1,0.0,,0.0,0
1816052,1480296358888,,,,,,,,-0.05,0.07,1.0,-3.1,0.6,0.2,800,0,,,,,,,,,,,,,,,,,
1816072,1480296358902,,,,,,,,-0.05,0.07,1.0,-3.1,0.6,0.2,800,0,,,,,,,,,,,,,,,,,
1816092,1480296358922,,,,,,,,-0.05,0.07,1.0,-3.1,0.6,0.2,800,0,,,,,,,,,,,,,,,,,
1816112,1480296358942,,,,,,,,-0.05,0.07,1.0,-3.1,0.6,0.2,800,0,,,,,,,,,,,,,,,,,
1816132,1480296358962,0,83.2,0.6,147.2,59,129.6,14.91,-0.06,0.07,1.0,-3.1,0.6,0.2,800,0,0.0,0,37.47834,-122.203697,0.0,0.0,14.8,11,3,1.4,0,0.0,-1,0.0,0.0,0.0,0
1816152,1480296358982,,,,,,,,-0.05,0.07,0.99,-3.1,0.6,0.2,800,0,,,,,,,,,,,,,,,,,
1816172,1480296359004,,,,,,,,-0.05,0.07,0.99,-3.1,0.5,0.2,800,0,,,,,,,,,,,,,,,,,
1816192,1480296359024,,,,,,,,-0.06,0.07,0.99,-3.1,0.5,0.2,800,0,,,,,,,,,,,,,,,,,
1816212,1480296359044,,,,,,,,-0.05,0.07,0.99,-3.1,0.5,0.2,800,0,,,,,,,,,,,,,,,,,
1816232,1480296359064,,,,,57,,,-0.05,0.07,0.99,-3.1,0.5,0.2,800,0,0.0,0,37.47834,-122.203697,0.0,0.0,14.8,11,3,1.4,0,0.0,-1,0.0,,0.0,0
1816252,1480296359084,,,,,,,,-0.05,0.07,0.99,-3.1,0.5,0.2,800,0,,,,,,,,,,,,,,,,,
1816272,1480296359108,,,,,,,,-0.05,0.07,0.99,-3.1,0.4,0.2,800,0,,,,,,,,,,,,,,,,,
1816292,1480296359128,,,,,,,,-0.05,0.07,0.99,-3.1,0.4,0.2,800,0,,,,,,,,,,,,,,,,,
1816312,1480296359148,,,,,,,,-0.05,0.07,0.99,-3.1,0.4,0.2,800,0,,,,,,,,,,,,,,,,,
1816332,1480296359168,0,82.4,,146.1,58,128.4,,-0.05,0.07,0.99,-3.1,0.4,0.2,800,0,0.0,0,37.47834,-122.203697,0.0,0.0,14.8,11,3,1.4,0,0.0,-1,0.0,0.0,0.0,0
1816352,1480296359188,,,,,,,,-0.05,0.07,0.99,-3.1,0.4,0.2,800,0,,,,,,,,,,,,,,,,,
1816372,1480296359308,,,,,,,,-0.04,0.07,0.99,-3.1,0.5,0.2,800,0,,,,,,,,,,,,,,,,,
1816392,1480296359328,,,,,,,,-0.05,0.07,0.99,-3.1,0.5,0.3,800,0,,,,,,,,,,,,,,,,,
1816412,1480296359348,,,,,,,,-0.05,0.07,0.99,-3.1,0.5,0.3,800,0,,,,,,,,,,,,,,,,,
1816432,1480296359368,,,,,59,,,-0.05,0.07,1.0,-3.1,0.5,0.2,800,0,0.0,0,37.47834,-122.203697,0.0,0.0,14.8,10,3,1.4,0,0.0,-1,0.0,,0.0,0
1816452,1480296359388,,,,,,,,-0.05,0.07,1.0,-3.1,0.5,0.2,800,0,,,,,,,,,,,,,,,,,
1816472,1480296359408,,,,,,,,-0.04,0.07,1.0,-3.1,0.6,0.2,800,0,,,,,,,,,,,,,,,,,
1816492,1480296359428,,,,,,,,-0.04,0.07,0.99,-3.1,0.6,0.2,800,0,,,,,,,,,,,,,,,,,
1816512,1480296359448,,,,,,,,-0.05,0.07,0.99,-3.1,0.6,0.2,800,0,,,,,,,,,,,,,,,,,
1816532,1480296359468,0,82.3,,146.4,58,127.7,,-0.05,0.07,0.99,-3.1,0.6,0.2,800,0,0.0,0,37.47834,-122.203697,0.0,0.0,14.8,10,3,1.4,0,0.0,-1,0.0,0.0,0.0,0
1816552,1480296359488,,,,,,,,-0.05,0.07,0.99,-3.1,0.5,0.2,800,0,,,,,,,,,,,,,,,,,
1816572,1480296359408,,,,,,,,-0.05,0.07,0.99,-3.1,0.5,0.2,800,0,,,,,,,,,,,,,,,,,
1816592,1480296359428,,,,,,,,-0.04,0.07,0.99,-3.1,0.6,0.2,800,0,,,,,,,,,,,,,,,,,
1816612,1480296359448,,,,,,,,-0.04,0.07,1.0,-3.1,0.5,0.2,800,0,,,,,,,,,,,,,,,,,
1816632,1480296359468,,,,,61,,,-0.05,0.07,1.0,-3.1,0.6,0.2,800,0,0.0,0,37.47834,-122.203697,0.0,0.0,14.8,10,3,1.4,0,0.0,-1,0.0,,0.0,0
1816652,1480296359488,,,,,,,,-0.05,0.07,1.0,-3.1,0.6,0.1,800,0,,,,,,,,,,,,,,,,,
1816672,1480296359508,,,,,,,,-0.05,0.07,1.0,-3.1,0.6,0.2,800,0,,,,,,,,,,,,,,,,,
1816692,1480296359528,,,,,,,,-0.05,0.07,0.99,-3.1,0.6,0.2,800,0,,,,,,,,,,,,,,,,,
1816712,1480296359548,,,,,,,,-0.05,0.07,0.99,-3.1,0.5,0.2,800,0,,,,,,,,,,,,,,,,,
1816732,1480296359568,0,83.8,,147.3,60,127.9,,-0.05,0.07,0.99,-3.1,0.5,0.2,800,0,0.0,0,37.47834,-122.203697,0.0,0.0,14.8,10,3,1.4,0,0.0,-1,0.0,0.0,0.0,0
1816752,1480296359588,,,,,,,,-0.05,0.07,0.99,-3.1,0.6,0.2,800,0,,,,,,,,,,,,,,,,,
1816772,1480296359608,,,,,,,,-0.05,0.07,0.99,-3.1,0.5,0.2,800,0,,,,,,,,,,,,,,,,,
1816792,1480296359628,,,,,,,,-0.05,0.07,0.99,-3.1,0.5,0.2,800,0,,,,,,,,,,,,,,,,,
1816812,1480296359648,,,,,,,,-0.05,0.07,0.99,-3.1,0.5,0.2,800,0,,,,,,,,,,,,,,,,,
1816832,1480296359668,,,,,59,,,-0.05,0.07,0.99,-3.1,0.4,0.2,800,0,0.0,0,37.47834,-122.203697,0.0,0.0,14.8,10,3,1.4,0,0.0,-1,0.0,,0.0,0
1816852,1480296359688,,,,,,,,-0.05,0.07,1.0,-3.1,0.5,0.2,800,0,,,,,,,,,,,,,,,,,
1816872,1480296359708,,,,,,,,-0.05,0.07,1.0,-3.1,0.5,0.2,800,0,,,,,,,,,,,,,,,,,
1816892,1480296359728,,,,,,,,-0.05,0.07,1.0,-3.1,0.5,0.2,800,0,,,,,,,,,,,,,,,,,
1816912,1480296359748,,,,,,,,-0.04,0.07,1.0,-3.1,0.6,0.2,800,0,,,,,,,,,,,,,,,,,
1816932,1480296359768,0,85.0,,147.4,59,129.8,,-0.04,0.07,1.0,-3.1,0.5,0.2,800,0,0.0,0,37.47834,-122.203697,0.0,0.0,14.8,10,3,1.4,0,0.0,-1,0.0,0.0,0.0,0
1816952,1480296359788,,,,,,,,-0.05,0.07,1.0,-3.1,0.5,0.2,800,0,,,,,,,,,,,,,,,,,
1816972,1480296359809,,,,,,,,-0.05,0.07,1.0,-3.1,0.5,0.2,820,0,,,,,,,,,,,,,,,,,
1816992,1480296359829,,,,,,,,-0.05,0.07,1.0,-3.1,0.6,0.2,820,0,,,,,,,,,,,,,,,,,
1817012,1480296359849,,,,,,,,-0.04,0.07,1.0,-3.1,0.6,0.2,800,0,,,,,,,,,,,,,,,,,
1817032,1480296359869,,,,,59,,,-0.04,0.07,1.0,-3.1,0.6,0.2,800,0,0.0,0,37.47834,-122.203697,0.0,0.0,14.8,10,3,1.4,0,0.0,-1,0.0,,0.0,0
1817052,1480296359889,,,,,,,,-0.04,0.07,1.0,-3.1,0.6,0.2,800,0,,,,,,,,,,,,,,,,,
1817072,1480296359901,,,,,,,,-0.05,0.07,1.0,-3.1,0.7,0.2,800,0,,,,,,,,,,,,,,,,,
1817092,1480296359921,,,,,,,,-0.05,0.07,1.0,-3.1,0.6,0.2,800,0,,,,,,,,,,,,,,,,,
1817112,1480296359941,,,,,,,,-0.05,0.07,1.0,-3.1,0.6,0.2,800,0,,,,,,,,,,,,,,,,,
1817132,1480296359961,0,84.8,0.8,147.4,59,130.0,14.92,-0.04,0.07,1.0,-3.1,0.7,0.2,820,0,0.0,0,37.47834,-122.203697,0.0,0.0,14.8,10,3,1.4,0,0.0,-1,0.0,0.0,0.0,0
1817152,1480296359981,,,,,,,,-0.05,0.07,1.0,-3.1,0.6,0.2,800,0,,,,,,,,,,,,,,,,,
1817172,1480296360107,,,,,,,,-0.05,0.07,1.0,-3.1,0.7,0.2,800,0,,,,,,,,,,,,,,,,,
1817192,1480296360127,,,,,,,,-0.05,0.07,1.0,-3.1,0.7,0.2,800,0,,,,,,,,,,,,,,,,,
1817212,1480296360147,,,,,,,,-0.05,0.07,1.0,-3.1,0.6,0.2,800,0,,,,,,,,,,,,,,,,,
1817232,1480296360167,,,,,61,,,-0.05,0.07,1.0,-3.1,0.6,0.2,800,0,0.0,0,37.47834,-122.203697,0.0,0.0,14.8,10,3,1.4,0,0.0,-1,0.0,,0.0,0
1817252,1480296360187,,,,,,,,-0.05,0.07,0.99,-3.1,0.5,0.3,800,0,,,,,,,,,,,,,,,,,
1817272,1480296360207,,,,,,,,-0.05,0.07,0.99,-3.1,0.5,0.2,800,0,,,,,,,,,,,,,,,,,
1817292,1480296360227,,,,,,,,-0.05,0.07,0.99,-3.1,0.5,0.2,800,0,,,,,,,,,,,,,,,,,
1817312,1480296360247,,,,,,,,-0.05,0.07,0.99,-3.1,0.5,0.2,800,0,,,,,,,,,,,,,,,,,
1817332,1480296360267,0,83.7,,146.6,56,129.5,,-0.05,0.07,0.99,-3.1,0.5,0.2,800,0,0.0,0,37.47834,-122.203697,0.0,0.0,14.8,10,3,1.4,0,0.0,-1,0.0,0.0,0.0,0
1817352,1480296360287,,,,,,,,-0.04,0.07,0.99,-3.1,0.5,0.2,800,0,,,,,,,,,,,,,,,,,
1817372,1480296360208,,,,,,,,-0.05,0.07,0.99,-3.1,0.4,0.2,800,0,,,,,,,,,,,,,,,,,
1817392,1480296360228,,,,,,,,-0.05,0.07,0.99,-3.1,0.5,0.2,800,0,,,,,,,,,,,,,,,,,
1817412,1480296360248,,,,,,,,-0.05,0.07,1.0,-3.1,0.5,0.2,800,0,,,,,,,,,,,,,,,,,
1817432,1480296360268,,,,,58,,,-0.05,0.07,1.0,-3.1,0.5,0.2,800,0,0.0,0,37.47834,-122.203697,0.0,0.0,14.8,10,3,1.4,0,0.0,-1,0.0,,0.0,0
1817452,1480296360288,,,,,,,,-0.04,0.07,0.99,-3.1,0.6,0.2,800,0,,,,,,,,,,,,,,,,,
1817472,1480296360308,,,,,,,,-0.05,0.07,0.99,-3.1,0.5,0.2,820,0,,,,,,,,,,,,,,,,,
1817492,1480296360328,,,,,,,,-0.05,0.07,0.99,-3.1,0.6,0.2,800,0,,,,,,,,,,,,,,,,,
1817512,1480296360348,,,,,,,,-0.05,0.07,0.99,-3.1,0.6,0.2,820,0,,,,,,,,,,,,,,,,,
1817532,1480296360368,0,85.3,,148.0,58,129.4,,-0.05,0.07,0.99,-3.1,0.6,0.2,820,0,0.0,0,37.47834,-122.203697,0.0,0.0,14.8,10,3,1.4,0,0.0,-1,0.0,0.0,0.0,0
1817552,1480296360388,,,,,,,,-0.05,0.07,0.99,-3.1,0.6,0.2,820,0,,,,,,,,,,,,,,,,,
1817572,1480296360408,,,,,,,,-0.04,0.07,0.99,-3.1,0.6,0.2,800,0,,,,,,,,,,,,,,,,,
1817592,1480296360428,,,,,,,,-0.04,0.07,0.99,-3.1,0.6,0.2,800,0,,,,,,,,,,,,,,,,,
1817612,1480296360448,,,,,,,,-0.05,0.07,1.0,-3.1,0.6,0.2,800,0,,,,,,,,,,,,,,,,,
1817632,1480296360468,,,,,59,,,-0.05,0.07,1.0,-3.1,0.6,0.2,800,0,0.0,0,37.47834,-122.203697,0.0,0.0,14.8,10,3,1.4,0,0.0,-1,0.0,,0.0,0
1817652,1480296360488,,,,,,,,-0.05,0.07,0.99,-3.1,0.6,0.2,820,0,,,,,,,,,,,,,,,,,
1817672,1480296360508,,,,,,,,-0.05,0.07,0.99,-3.1,0.6,0.2,800,0,,,,,,,,,,,,,,,,,
1817692,1480296360528,,,,,,,,-0.05,0.07,1.0,-3.1,0.5,0.2,800,0,,,,,,,,,,,,,,,,,
1817712,1480296360548,,,,,,,,-0.05,0.07,1.0,-3.1,0.6,0.2,800,0,,,,,,,,,,,,,,,,,
1817732,1480296360568,1,85.3,,148.0,60,129.5,,-0.05,0.07,1.0,-3.1,0.6,0.2,800,0,0.0,0,37.47834,-122.203697,0.0,0.0,14.8,10,3,1.4,0,0.0,-1,0.0,0.0,0.0,0
1817752,1480296360588,,,,,,,,-0.05,0.07,1.0,-3.1,0.6,0.2,800,0,,,,,,,,,,,,,,,,,
1817772,1480296360608,,,,,,,,-0.05,0.07,0.99,-3.1,0.6,0.2,800,0,,,,,,,,,,,,,,,,,
1817792,1480296360628,,,,,,,,-0.05,0.07,0.99,-3.1,0.5,0.3,800,0,,,,,,,,,,,,,,,,,
1817812,1480296360648,,,,,,,,-0.05,0.07,0.99,-3.1,0.4,0.2,800,0,,,,,,,,,,,,,,,,,
1817832,1480296360668,,,,,59,,,-0.05,0.07,0.99,-3.1,0.5,0.2,800,0,0.0,0,37.47834,-122.203697,0.0,0.0,14.8,10,3,1.4,0,0.0,-1,0.0,,0.0,0
1817852,1480296360688,,,,,,,,-0.05,0.07,0.99,-3.1,0.5,0.2,800,0,,,,,,,,,,,,,,,,,
1817872,1480296360708,,,,,,,,-0.05,0.07,0.99,-3.1,0.5,0.2,800,0,,,,,,,,,,,,,,,,,
1817892,1480296360728,,,,,,,,-0.05,0.07,0.99,-3.1,0.5,0.2,800,0,,,,,,,,,,,,,,,,,
1817912,1480296360748,,,,,,,,-0.05,0.07,0.99,-3.1,0.5,0.2,800,0,,,,,,,,,,,,,,,,,
