"Interval"|"ms"|0|0|1,"Utc"|"ms"|0|0|1,"FuelLevel"|"F"|0|100|5,"OilTemp"|"F"|0.0|300.0|5,"CoolantPressPSI"|"PSI"|0.0|20.0|5,"Coolant"|"F"|0.0|300.0|5,"OilPress"|"PSI"|0|150|10,"EngineTemp"|"F"|0.0|300.0|5,"Battery"|"Volts"|0.0|20.0|1,"AccelX"|"G"|-3.0|3.0|50,"AccelY"|"G"|-3.0|3.0|50,"AccelZ"|"G"|-3.0|3.0|50,"Yaw"|"Deg/Sec"|-300.0|300.0|50,"Pitch"|"Deg/Sec"|-300.0|300.0|50,"Roll"|"Deg/Sec"|-300.0|300.0|50,"RPM"|""|0|10000|50,"Driveshaft"|"RPM"|0|5000|50,"GearRatio"|""|-5.0|5.0|10,"Gear"|""|-1|5|10,"Latitude"|"Degrees"|-180.0|180.0|10,"Longitude"|"Degrees"|-180.0|180.0|10,"Speed"|"MPH"|0.0|150.0|10,"Distance"|"Miles"|0.0|0.0|10,"Altitude"|"Feet"|0.0|4000.0|10,"GPSSats"|""|0|20|10,"GPSQual"|""|0|5|10,"GPSDOP"|""|0.0|20.0|10,"LapCount"|""|0|0|10,"LapTime"|"Min"|0.0|0.0|10,"Sector"|""|0|0|10,"SectorTime"|"Min"|0.0|0.0|10,"PredTime"|"Min"|0.0|0.0|5,"ElapsedTime"|"Min"|0.0|0.0|10,"CurrentLap"|""|0|0|10
,,,,,,,,,,,,,,,,,,,,,,,,,,,,,,,,,
550428,1480295092934,0,47.6,0.0,44.7,0,47.7,,-0.06,0.11,1.0,-3.2,0.3,0.4,160,0,0.0,0,37.478325,-122.203674,0.0,0.0,23.6,10,3,1.5,0,0.0,-1,0.0,0.0,0.0,0
550448,1480295092954,,,,,,,,-0.06,0.11,1.0,-3.2,0.3,0.4,160,0,,,,,,,,,,,,,,,,,
550468,1480295092974,,,,,,,,-0.05,0.11,1.0,-3.2,0.4,0.4,160,0,,,,,,,,,,,,,,,,,
550488,1480295092994,,,,,,,,-0.05,0.1,1.0,-3.2,0.4,0.5,160,0,,,,,,,,,,,,,,,,,
550508,1480295093014,,,,,,,,-0.04,0.08,1.01,-3.2,0.3,0.5,160,0,,,,,,,,,,,,,,,,,
550528,1480295093034,,,,,0,,,-0.05,0.09,1.01,-3.2,0.3,0.4,160,0,0.0,0,37.478325,-122.203674,0.0,0.0,23.6,10,3,1.5,0,0.0,-1,0.0,,0.0,0
550548,1480295093054,,,,,,,,-0.05,0.08,1.01,-3.1,0.4,0.4,160,0,,,,,,,,,,,,,,,,,
550568,1480295093074,,,,,,,,-0.05,0.08,1.01,-3.2,0.5,0.4,160,0,,,,,,,,,,,,,,,,,
550588,1480295092995,,,,,,,,-0.05,0.06,1.0,-3.2,0.5,0.3,160,0,,,,,,,,,,,,,,,,,
550608,1480295093015,,,,,,,,-0.04,0.06,1.0,-3.2,0.6,0.2,160,0,,,,,,,,,,,,,,,,,
550628,1480295093035,0,50.4,0.25,48.3,0,50.0,10.69,-0.04,0.06,0.99,-3.1,0.7,0.1,160,0,0.0,0,37.478325,-122.203674,0.0,0.0,23.6,10,3,1.5,0,0.0,-1,0.0,0.0,0.0,0
550648,1480295093055,,,,,,,,-0.03,0.06,0.99,-3.1,0.7,0.1,160,0,,,,,,,,,,,,,,,,,
550668,1480295093075,,,,,,,,-0.04,0.06,0.99,-3.1,0.7,0.1,160,0,,,,,,,,,,,,,,,,,
550688,1480295093095,,,,,,,,-0.04,0.06,0.99,-3.1,0.7,0.1,160,0,,,,,,,,,,,,,,,,,
550708,1480295093115,,,,,,,,-0.05,0.07,0.99,-3.1,0.5,0.2,160,0,,,,,,,,,,,,,,,,,
550728,1480295093135,,,,,0,,,-0.05,0.08,0.99,-3.1,0.5,0.2,160,0,0.0,0,37.478325,-122.203674,0.0,0.0,23.6,10,3,1.5,0,0.0,-1,0.0,,0.0,0
550748,1480295093155,,,,,,,,-0.05,0.08,0.99,-3.1,0.4,0.2,160,0,,,,,,,,,,,,,,,,,
550768,1480295093175,,,,,,,,-0.05,0.09,0.99,-3.1,0.4,0.2,160,0,,,,,,,,,,,,,,,,,
550788,1480295093195,,,,,,,,-0.05,0.09,0.99,-3.1,0.5,0.2,160,0,,,,,,,,,,,,,,,,,
550808,1480295093215,,,,,,,,-0.05,0.1,0.99,-3.1,0.5,0.3,160,0,,,,,,,,,,,,,,,,,
550828,1480295093235,0,49.0,0.0,46.7,0,50.0,,-0.05,0.11,1.0,-3.1,0.4,0.4,160,0,0.0,0,37.478325,-122.203674,0.0,0.0,23.6,10,3,1.5,0,0.0,-1,0.0,0.0,0.0,0
550848,1480295093255,,,,,,,,-0.05,0.11,1.0,-3.1,0.3,0.5,160,0,,,,,,,,,,,,,,,,,
550868,1480295093275,,,,,,,,-0.05,0.11,1.0,-3.1,0.2,0.4,160,0,,,,,,,,,,,,,,,,,
550888,1480295093295,,,,,,,,-0.05,0.11,1.0,-3.1,0.1,0.4,160,0,,,,,,,,,,,,,,,,,
550908,1480295093315,,,,,,,,-0.05,0.1,1.0,-3.1,0.1,0.4,160,0,,,,,,,,,,,,,,,,,
550928,1480295093335,,,,,0,,,-0.04,0.09,1.0,-3.1,0.1,0.3,160,0,0.0,0,37.478325,-122.203674,0.0,0.0,23.6,10,3,1.5,0,0.0,-1,0.0,,0.0,0
550948,1480295093355,,,,,,,,-0.04,0.08,0.99,-3.2,0.2,0.2,160,0,,,,,,,,,,,,,,,,,
550968,1480295093375,,,,,,,,-0.04,0.07,1.0,-3.2,0.5,0.2,160,0,,,,,,,,,,,,,,,,,
550988,1480295093395,,,,,,,,-0.04,0.07,0.98,-3.2,0.6,0.2,160,0,,,,,,,,,,,,,,,,,
551008,1480295093415,,,,,,,,-0.05,0.06,0.98,-3.1,0.6,0.2,160,0,,,,,,,,,,,,,,,,,
551028,1480295093435,0,47.9,0.0,46.1,0,47.2,,-0.05,0.07,0.98,-3.1,0.6,0.2,160,0,0.0,0,37.478325,-122.203674,0.0,0.0,23.6,10,3,1.5,0,0.0,-1,0.0,0.0,0.0,0
551048,1480295093455,,,,,,,,-0.05,0.05,0.99,-3.2,0.4,0.1,160,0,,,,,,,,,,,,,,,,,
551068,1480295093475,,,,,,,,-0.04,0.05,0.98,-3.2,0.6,0.1,160,0,,,,,,,,,,,,,,,,,
551088,1480295093495,,,,,,,,-0.04,0.05,0.98,-3.1,0.8,0.0,160,0,,,,,,,,,,,,,,,,,
551108,1480295093515,,,,,,,,-0.03,0.05,0.98,-3.1,0.8,0.1,160,0,,,,,,,,,,,,,,,,,
551128,1480295093535,,,,,0,,,-0.04,0.05,0.99,-3.1,0.7,0.1,160,0,0.0,0,37.478325,-122.203674,0.0,0.0,23.6,10,3,1.5,0,0.0,-1,0.0,,0.0,0
551148,1480295093555,,,,,,,,-0.04,0.06,0.99,-3.1,0.7,0.1,160,0,,,,,,,,,,,,,,,,,
551168,1480295093575,,,,,,,,-0.04,0.05,0.99,-3.1,0.6,0.0,160,0,,,,,,,,,,,,,,,,,
551188,1480295093694,,,,,,,,-0.03,0.04,0.98,-3.1,0.7,-0.1,160,0,,,,,,,,,,,,,,,,,
551208,1480295093714,,,,,,,,-0.05,0.04,0.99,-3.1,0.8,-0.0,160,0,,,,,,,,,,,,,,,,,
551228,1480295093734,0,49.0,0.0,47.2,1,47.9,,-0.05,0.04,0.99,-3.0,0.8,-0.1,160,0,0.0,0,37.478325,-122.203674,0.0,0.0,23.6,10,3,1.5,0,0.0,-1,0.0,0.0,0.0,0
551248,1480295093754,,,,,,,,-0.05,0.04,0.99,-3.1,0.6,-0.0,160,0,,,,,,,,,,,,,,,,,
551268,1480295093774,,,,,,,,-0.05,0.04,0.99,-3.1,0.7,0.0,160,0,,,,,,,,,,,,,,,,,
551288,1480295093794,,,,,,,,-0.04,0.03,0.99,-3.0,0.7,-0.0,160,0,,,,,,,,,,,,,,,,,
551308,1480295093814,,,,,,,,-0.04,0.05,0.98,-3.0,0.7,-0.0,160,0,,,,,,,,,,,,,,,,,
551328,1480295093834,,,,,0,,,-0.04,0.04,0.98,-3.0,0.5,-0.0,160,0,0.0,0,37.478325,-122.203674,0.0,0.0,23.6,10,3,1.5,0,0.0,-1,0.0,,0.0,0
551348,1480295093854,,,,,,,,-0.04,0.04,0.98,-3.0,0.6,-0.0,160,0,,,,,,,,,,,,,,,,,
551368,1480295093874,,,,,,,,-0.04,0.05,0.98,-3.0,0.5,-0.0,160,0,,,,,,,,,,,,,,,,,
551388,1480295093795,,,,,,,,-0.04,0.05,0.98,-3.0,0.5,-0.0,160,0,,,,,,,,,,,,,,,,,
551408,1480295093815,,,,,,,,-0.05,0.06,0.98,-3.0,0.5,0.1,160,0,,,,,,,,,,,,,,,,,
551428,1480295093835,0,49.7,0.0,47.0,0,48.5,,-0.05,0.07,0.98,-3.1,0.4,0.1,160,0,0.0,0,37.478325,-122.203674,0.0,0.0,23.6,10,3,1.5,0,0.0,-1,0.0,0.0,0.0,0
551448,1480295093855,,,,,,,,-0.05,0.07,0.99,-3.1,0.3,0.2,160,0,,,,,,,,,,,,,,,,,
551468,1480295093875,,,,,,,,-0.04,0.07,0.99,-3.0,0.3,0.1,160,0,,,,,,,,,,,,,,,,,
551488,1480295093895,,,,,,,,-0.04,0.07,0.99,-3.0,0.4,0.1,160,0,,,,,,,,,,,,,,,,,
551508,1480295093906,,,,,,,,-0.04,0.08,0.99,-3.1,0.4,0.2,160,0,,,,,,,,,,,,,,,,,
551528,1480295093926,,,,,0,,,-0.05,0.1,0.99,-3.1,0.4,0.3,160,0,0.0,0,37.478325,-122.203674,0.0,0.0,23.6,10,3,1.5,0,0.0,-1,0.0,,0.0,0
551548,1480295093946,,,,,,,,-0.05,0.1,1.0,-3.2,0.4,0.4,160,0,,,,,,,,,,,,,,,,,
551568,1480295093966,,,,,,,,-0.05,0.1,0.99,-3.1,0.4,0.4,160,0,,,,,,,,,,,,,,,,,
551588,1480295093995,,,,,,,,-0.06,0.09,0.99,-3.1,0.4,0.3,160,0,,,,,,,,,,,,,,,,,
551608,1480295094015,,,,,,,,-0.06,0.09,1.0,-3.1,0.4,0.3,160,0,,,,,,,,,,,,,,,,,
551628,1480295094035,0,49.7,0.0,46.9,0,48.5,10.51,-0.05,0.1,1.0,-3.1,0.5,0.4,160,0,0.0,0,37.478325,-122.203674,0.0,0.0,23.6,10,3,1.5,0,0.0,-1,0.0,0.0,0.0,0
551648,1480295094055,,,,,,,,-0.05,0.1,1.0,-3.2,0.5,0.4,160,0,,,,,,,,,,,,,,,,,
551668,1480295094075,,,,,,,,-0.05,0.09,1.01,-3.2,0.4,0.4,160,0,,,,,,,,,,,,,,,,,
551688,1480295094095,,,,,,,,-0.06,0.09,1.0,-3.2,0.5,0.4,160,0,,,,,,,,,,,,,,,,,
551708,1480295094115,,,,,,,,-0.06,0.09,1.0,-3.1,0.6,0.4,160,0,,,,,,,,,,,,,,,,,
551728,1480295094135,,,,,0,,,-0.06,0.08,0.99,-3.1,0.6,0.4,160,0,0.0,0,37.478325,-122.203674,0.0,0.0,23.6,10,3,1.5,0,0.0,-1,0.0,,0.0,0
551748,1480295094155,,,,,,,,-0.05,0.09,0.99,-3.2,0.6,0.5,160,0,,,,,,,,,,,,,,,,,
551768,1480295094175,,,,,,,,-0.05,0.1,0.99,-3.2,0.6,0.5,160,0,,,,,,,,,,,,,,,,,
551788,1480295094195,,,,,,,,-0.05,0.09,1.0,-3.2,0.6,0.5,160,0,,,,,,,,,,,,,,,,,
551808,1480295094215,,,,,,,,-0.05,0.09,1.0,-3.2,0.6,0.5,160,0,,,,,,,,,,,,,,,,,
551828,1480295094235,0,49.1,0.0,46.7,1,48.4,,-0.06,0.09,1.0,-3.2,0.6,0.4,160,0,0.0,0,37.478325,-122.203674,0.0,0.0,23.6,10,3,1.5,0,0.0,-1,0.0,0.0,0.0,0
551848,1480295094255,,,,,,,,-0.06,0.09,1.0,-3.2,0.7,0.4,160,0,,,,,,,,,,,,,,,,,
551868,1480295094275,,,,,,,,-0.05,0.1,1.0,-3.2,0.8,0.5,160,0,,,,,,,,,,,,,,,,,
551888,1480295094295,,,,,,,,-0.05,0.1,1.01,-3.2,0.8,0.6,160,0,,,,,,,,,,,,,,,,,
551908,1480295094315,,,,,,,,-0.05,0.1,1.01,-3.2,0.7,0.6,160,0,,,,,,,,,,,,,,,,,
551928,1480295094335,,,,,0,,,-0.06,0.1,1.01,-3.3,0.6,0.5,160,0,0.0,0,37.478325,-122.203674,0.0,0.0,23.6,10,3,1.5,0,0.0,-1,0.0,,0.0,0
551948,1480295094355,,,,,,,,-0.06,0.09,1.01,-3.2,0.7,0.5,160,33,,,,,,,,,,,,,,,,,
551968,1480295094375,,,,,,,,-0.06,0.09,1.01,-3.2,0.7,0.5,160,33,,,,,,,,,,,,,,,,,
551988,1480295094494,,,,,,,,-0.06,0.09,1.01,-3.2,0.8,0.5,160,1538461,,,,,,,,,,,,,,,,,
552008,1480295094514,,,,,,,,-0.05,0.08,1.01,-3.2,0.8,0.5,160,0,,,,,,,,,,,,,,,,,
552028,1480295094534,0,49.6,0.1,48.5,0,50.5,,-0.05,0.08,1.01,-3.2,0.8,0.4,160,0,0.0,0,37.478325,-122.203674,0.0,0.0,23.6,10,3,1.5,0,0.0,-1,0.0,0.0,0.0,0
552048,1480295094554,,,,,,,,-0.06,0.08,1.01,-3.2,0.7,0.4,140,0,,,,,,,,,,,,,,,,,
552068,1480295094574,,,,,,,,-0.06,0.08,1.01,-3.2,0.7,0.3,140,0,,,,,,,,,,,,,,,,,
552088,1480295094594,,,,,,,,-0.06,0.08,1.01,-3.2,0.7,0.3,140,0,,,,,,,,,,,,,,,,,
552108,1480295094614,,,,,,,,-0.06,0.08,1.0,-3.1,0.6,0.3,140,0,,,,,,,,,,,,,,,,,
552128,1480295094634,,,,,0,,,-0.05,0.08,1.0,-3.2,0.6,0.3,140,0,0.0,0,37.478325,-122.203674,0.0,0.0,23.6,10,3,1.5,0,0.0,-1,0.0,,0.0,0
552148,1480295094654,,,,,,,,-0.05,0.08,1.0,-3.2,0.6,0.3,140,0,,,,,,,,,,,,,,,,,
552168,1480295094674,,,,,,,,-0.05,0.07,1.0,-3.2,0.6,0.3,140,0,,,,,,,,,,,,,,,,,
552188,1480295094594,,,,,,,,-0.05,0.07,1.0,-3.1,0.6,0.3,10000000,0,,,,,,,,,,,,,,,,,
552208,1480295094614,,,,,,,,-0.05,0.07,1.0,-3.1,0.6,0.2,0,0,,,,,,,,,,,,,,,,,
552228,1480295094634,0,50.3,0.34,48.5,0,50.3,,-0.05,0.07,0.99,-3.1,0.6,0.3,0,0,0.0,0,37.478325,-122.203674,0.0,0.0,23.6,10,3,1.5,0,0.0,-1,0.0,0.0,0.0,0
552248,1480295094654,,,,,,,,-0.05,0.07,0.99,-3.1,0.6,0.3,0,0,,,,,,,,,,,,,,,,,
552268,1480295094674,,,,,,,,-0.05,0.07,0.99,-3.1,0.6,0.3,0,0,,,,,,,,,,,,,,,,,
552288,1480295094695,,,,,,,,-0.05,0.07,0.99,-3.1,0.5,0.3,0,0,,,,,,,,,,,,,,,,,
552308,1480295094715,,,,,,,,-0.05,0.07,0.99,-3.1,0.5,0.2,4480,0,,,,,,,,,,,,,,,,,
552328,1480295094735,,,,,0,,,-0.05,0.07,0.99,-3.1,0.5,0.2,4480,0,0.0,0,37.478325,-122.203674,0.0,0.0,23.6,10,3,1.5,0,0.0,-1,0.0,,0.0,0
552348,1480295094755,,,,,,,,-0.05,0.07,0.99,-3.1,0.5,0.2,4480,0,,,,,,,,,,,,,,,,,
552368,1480295094775,,,,,,,,-0.05,0.07,0.99,-3.1,0.5,0.2,4480,0,,,,,,,,,,,,,,,,,
552388,1480295094794,,,,,,,,-0.05,0.07,0.99,-3.1,0.5,0.2,4480,0,,,,,,,,,,,,,,,,,
552408,1480295094814,,,,,,,,-0.05,0.07,0.99,-3.1,0.4,0.2,4480,0,,,,,,,,,,,,,,,,,
552428,1480295094834,0,48.2,0.0,45.1,1,46.9,,-0.05,0.07,0.99,-3.1,0.4,0.2,4480,0,0.0,0,37.478325,-122.203674,0.0,0.0,23.6,10,3,1.5,0,0.0,-1,0.0,0.0,0.0,0
552448,1480295094854,,,,,,,,-0.05,0.07,0.99,-3.1,0.5,0.2,0,0,,,,,,,,,,,,,,,,,
552468,1480295094874,,,,,,,,-0.05,0.07,1.0,-3.1,0.5,0.2,0,0,,,,,,,,,,,,,,,,,
552488,1480295094894,,,,,,,,-0.05,0.07,1.0,-3.1,0.5,0.2,0,0,,,,,,,,,,,,,,,,,
552508,1480295094906,,,,,,,,-0.05,0.07,1.0,-3.1,0.5,0.2,0,0,,,,,,,,,,,,,,,,,
552528,1480295094926,,,,,1,,,-0.05,0.07,1.0,-3.1,0.5,0.2,0,0,0.0,0,37.478325,-122.203674,0.0,0.0,23.6,10,3,1.5,0,0.0,-1,0.0,,0.0,0
552548,1480295094946,,,,,,,,-0.05,0.07,1.0,-3.1,0.5,0.2,0,0,,,,,,,,,,,,,,,,,
552568,1480295094966,,,,,,,,-0.05,0.07,1.0,-3.1,0.5,0.2,0,0,,,,,,,,,,,,,,,,,
552588,1480295094994,,,,,,,,-0.05,0.07,1.0,-3.1,0.5,0.2,0,0,,,,,,,,,,,,,,,,,
552608,1480295095014,,,,,,,,-0.05,0.07,1.0,-3.1,0.5,0.2,0,0,,,,,,,,,,,,,,,,,
552628,1480295095034,0,50.4,0.34,48.1,1,50.0,12.53,-0.05,0.07,1.0,-3.1,0.5,0.2,0,0,0.0,0,37.478325,-122.203674,0.0,0.0,23.6,10,3,1.5,0,0.0,-1,0.0,0.0,0.0,0
552648,1480295095054,,,,,,,,-0.05,0.07,1.0,-3.1,0.5,0.2,0,0,,,,,,,,,,,,,,,,,
552668,1480295095074,,,,,,,,-0.05,0.07,1.0,-3.1,0.5,0.2,0,0,,,,,,,,,,,,,,,,,
552688,1480295095095,,,,,,,,-0.05,0.07,1.0,-3.1,0.5,0.2,0,0,,,,,,,,,,,,,,,,,
552708,1480295095115,,,,,,,,-0.05,0.07,1.0,-3.1,0.5,0.2,0,0,,,,,,,,,,,,,,,,,
552728,1480295095135,,,,,0,,,-0.05,0.07,1.0,-3.1,0.5,0.2,0,0,0.0,0,37.478325,-122.203674,0.0,0.0,23.6,10,3,1.5,0,0.0,-1,0.0,,0.0,0
552748,1480295095155,,,,,,,,-0.05,0.07,1.0,-3.1,0.5,0.2,0,0,,,,,,,,,,,,,,,,,
552768,1480295095175,,,,,,,,-0.05,0.07,1.0,-3.1,0.5,0.2,0,0,,,,,,,,,,,,,,,,,
552788,1480295095294,,,,,,,,-0.05,0.07,1.0,-3.1,0.5,0.2,0,0,,,,,,,,,,,,,,,,,
552808,1480295095314,,,,,,,,-0.05,0.07,1.0,-3.1,0.5,0.2,0,0,,,,,,,,,,,,,,,,,
552828,1480295095334,0,49.6,0.0,46.8,0,48.4,,-0.05,0.07,1.0,-3.1,0.5,0.2,0,0,0.0,0,37.478325,-122.203674,0.0,0.0,23.6,10,3,1.5,0,0.0,-1,0.0,0.0,0.0,0
552848,1480295095354,,,,,,,,-0.05,0.07,0.99,-3.1,0.5,0.2,0,0,,,,,,,,,,,,,,,,,
552868,1480295095374,,,,,,,,-0.05,0.07,1.0,-3.1,0.5,0.2,0,0,,,,,,,,,,,,,,,,,
552888,1480295095394,,,,,,,,-0.05,0.07,0.99,-3.1,0.5,0.2,0,0,,,,,,,,,,,,,,,,,
552908,1480295095414,,,,,,,,-0.05,0.07,0.99,-3.1,0.5,0.2,0,0,,,,,,,,,,,,,,,,,
552928,1480295095434,,,,,0,,,-0.05,0.07,0.99,-3.1,0.5,0.2,0,0,0.0,0,37.478325,-122.203674,0.0,0.0,23.6,10,3,1.5,0,0.0,-1,0.0,,0.0,0
552948,1480295095454,,,,,,,,-0.05,0.07,0.99,-3.1,0.5,0.2,0,0,,,,,,,,,,,,,,,,,
552968,1480295095474,,,,,,,,-0.05,0.07,0.99,-3.1,0.5,0.2,0,0,,,,,,,,,,,,,,,,,
552988,1480295095395,,,,,,,,-0.05,0.07,0.99,-3.1,0.5,0.2,0,0,,,,,,,,,,,,,,,,,
553008,1480295095415,,,,,,,,-0.05,0.07,0.99,-3.1,0.5,0.2,0,0,,,,,,,,,,,,,,,,,
553028,1480295095435,0,50.5,0.34,47.9,1,49.5,,-0.04,0.07,0.99,-3.1,0.4,0.2,0,0,0.0,0,37.478325,-122.203674,0.0,0.0,23.6,10,3,1.5,0,0.0,-1,0.0,0.0,0.0,0
553048,1480295095455,,,,,,,,-0.04,0.07,0.99,-3.1,0.4,0.2,0,0,,,,,,,,,,,,,,,,,
553068,1480295095475,,,,,,,,-0.04,0.07,0.99,-3.1,0.4,0.2,0,0,,,,,,,,,,,,,,,,,
553088,1480295095495,,,,,,,,-0.04,0.07,0.99,-3.1,0.4,0.2,0,0,,,,,,,,,,,,,,,,,
553108,1480295095515,,,,,,,,-0.04,0.07,0.99,-3.1,0.4,0.2,0,0,,,,,,,,,,,,,,,,,
553128,1480295095535,,,,,0,,,-0.04,0.07,0.99,-3.1,0.4,0.2,0,0,0.0,0,37.478325,-122.203674,0.0,0.0,23.6,10,3,1.5,0,0.0,-1,0.0,,0.0,0
553148,1480295095555,,,,,,,,-0.05,0.07,0.99,-3.1,0.4,0.2,0,0,,,,,,,,,,,,,,,,,
553168,1480295095575,,,,,,,,-0.05,0.07,0.99,-3.1,0.5,0.2,0,0,,,,,,,,,,,,,,,,,
553188,1480295095595,,,,,,,,-0.05,0.07,1.0,-3.1,0.5,0.2,0,0,,,,,,,,,,,,,,,,,
553208,1480295095615,,,,,,,,-0.05,0.07,1.0,-3.1,0.5,0.2,0,0,,,,,,,,,,,,,,,,,
553228,1480295095635,0,49.6,0.2,48.5,0,50.5,,-0.05,0.07,1.0,-3.1,0.5,0.2,0,0,0.0,0,37.478325,-122.203674,0.0,0.0,23.6,10,3,1.5,0,0.0,-1,0.0,0.0,0.0,0
553248,1480295095655,,,,,,,,-0.05,0.07,1.0,-3.0,0.5,0.2,0,0,,,,,,,,,,,,,,,,,
553268,1480295095675,,,,,,,,-0.05,0.07,1.0,-3.1,0.5,0.2,0,0,,,,,,,,,,,,,,,,,
553288,1480295095695,,,,,,,,-0.05,0.07,1.0,-3.1,0.5,0.2,0,0,,,,,,,,,,,,,,,,,
553308,1480295095715,,,,,,,,-0.05,0.07,1.0,-3.1,0.5,0.2,0,0,,,,,,,,,,,,,,,,,
553328,1480295095735,,,,,0,,,-0.05,0.07,1.0,-3.1,0.5,0.1,0,0,0.0,0,37.478325,-122.203674,0.0,0.0,23.6,10,3,1.5,0,0.0,-1,0.0,,0.0,0
553348,1480295095755,,,,,,,,-0.05,0.07,1.0,-3.1,0.5,0.2,0,0,,,,,,,,,,,,,,,,,
553368,1480295095775,,,,,,,,-0.05,0.07,0.99,-3.1,0.5,0.2,0,0,,,,,,,,,,,,,,,,,
553388,1480295095795,,,,,,,,-0.05,0.07,0.99,-3.1,0.5,0.2,0,0,,,,,,,,,,,,,,,,,
553408,1480295095815,,,,,,,,-0.05,0.07,0.99,-3.1,0.5,0.2,0,0,,,,,,,,,,,,,,,,,
553428,1480295095835,0,49.1,0.0,45.9,1,47.5,,-0.05,0.07,0.99,-3.1,0.5,0.2,0,0,0.0,0,37.478325,-122.203674,0.0,0.0,23.6,10,3,1.5,0,0.0,-1,0.0,0.0,0.0,0
553448,1480295095855,,,,,,,,-0.05,0.07,0.99,-3.1,0.5,0.2,0,0,,,,,,,,,,,,,,,,,
553468,1480295095875,,,,,,,,-0.05,0.07,0.99,-3.1,0.5,0.2,0,0,,,,,,,,,,,,,,,,,
553488,1480295095895,,,,,,,,-0.05,0.07,0.99,-3.1,0.5,0.2,0,0,,,,,,,,,,,,,,,,,
553508,1480295095905,,,,,,,,-0.05,0.07,0.99,-3.1,0.5,0.2,0,0,,,,,,,,,,,,,,,,,
553528,1480295095925,,,,,0,,,-0.04,0.07,0.99,-3.1,0.5,0.2,0,0,0.0,0,37.478325,-122.203674,0.0,0.0,23.6,10,3,1.5,0,0.0,-1,0.0,,0.0,0
553548,1480295095945,,,,,,,,-0.04,0.07,0.99,-3.1,0.5,0.2,0,0,,,,,,,,,,,,,,,,,
553568,1480295095965,,,,,,,,-0.04,0.07,0.99,-3.1,0.5,0.2,0,0,,,,,,,,,,,,,,,,,
553588,1480295096092,,,,,,,,-0.04,0.07,0.99,-3.1,0.5,0.2,0,0,,,,,,,,,,,,,,,,,
553608,1480295096112,,,,,,,,-0.04,0.07,0.99,-3.1,0.5,0.2,0,0,,,,,,,,,,,,,,,,,
553628,1480295096132,0,49.1,0.0,45.9,1,46.8,12.56,-0.04,0.07,0.99,-3.1,0.5,0.2,0,0,0.0,0,37.478325,-122.203674,0.0,0.0,23.6,10,3,1.5,0,0.0,-1,0.0,0.0,0.0,0
553648,1480295096152,,,,,,,,-0.04,0.07,0.99,-3.1,0.5,0.2,0,0,,,,,,,,,,,,,,,,,
553668,1480295096172,,,,,,,,-0.05,0.07,1.0,-3.1,0.5,0.2,0,0,,,,,,,,,,,,,,,,,
553688,1480295096192,,,,,,,,-0.05,0.07,1.0,-3.1,0.5,0.2,0,0,,,,,,,,,,,,,,,,,
553708,1480295096212,,,,,,,,-0.05,0.07,1.0,-3.1,0.5,0.2,0,0,,,,,,,,,,,,,,,,,
553728,1480295096232,,,,,0,,,-0.05,0.07,1.0,-3.1,0.5,0.2,0,0,0.0,0,37.478325,-122.203674,0.0,0.0,23.6,10,3,1.5,0,0.0,-1,0.0,,0.0,0
553748,1480295096252,,,,,,,,-0.05,0.07,1.0,-3.1,0.5,0.2,0,0,,,,,,,,,,,,,,,,,
553768,1480295096272,,,,,,,,-0.05,0.07,1.0,-3.1,0.5,0.2,0,0,,,,,,,,,,,,,,,,,
553788,1480295096195,,,,,,,,-0.05,0.07,1.0,-3.1,0.5,0.2,0,0,,,,,,,,,,,,,,,,,
553808,1480295096215,,,,,,,,-0.05,0.07,1.0,-3.1,0.5,0.2,0,0,,,,,,,,,,,,,,,,,
553828,1480295096235,0,50.5,0.34,48.1,1,48.5,,-0.05,0.07,1.0,-3.1,0.5,0.2,0,0,0.0,0,37.478325,-122.203674,0.0,0.0,23.6,10,3,1.5,0,0.0,-1,0.0,0.0,0.0,0
553848,1480295096255,,,,,,,,-0.05,0.07,1.0,-3.1,0.5,0.2,0,0,,,,,,,,,,,,,,,,,
553868,1480295096275,,,,,,,,-0.05,0.07,1.0,-3.1,0.5,0.2,0,0,,,,,,,,,,,,,,,,,
553888,1480295096295,,,,,,,,-0.05,0.07,1.0,-3.1,0.5,0.2,0,0,,,,,,,,,,,,,,,,,
553908,1480295096315,,,,,,,,-0.05,0.07,1.0,-3.1,0.5,0.2,0,0,,,,,,,,,,,,,,,,,
553928,1480295096335,,,,,0,,,-0.05,0.07,1.0,-3.1,0.5,0.2,0,0,0.0,0,37.478325,-122.203674,0.0,0.0,23.6,10,3,1.5,0,0.0,-1,0.0,,0.0,0
553948,1480295096355,,,,,,,,-0.05,0.07,1.0,-3.1,0.5,0.2,0,0,,,,,,,,,,,,,,,,,
553968,1480295096375,,,,,,,,-0.05,0.07,0.99,-3.1,0.5,0.2,0,0,,,,,,,,,,,,,,,,,
553988,1480295096395,,,,,,,,-0.05,0.07,0.99,-3.1,0.5,0.2,0,0,,,,,,,,,,,,,,,,,
554008,1480295096415,,,,,,,,-0.05,0.07,0.99,-3.1,0.5,0.2,0,0,,,,,,,,,,,,,,,,,
554028,1480295096435,0,50.1,0.2,47.6,0,47.3,,-0.05,0.07,0.99,-3.1,0.5,0.2,0,0,0.0,0,37.478325,-122.203674,0.0,0.0,23.6,10,3,1.5,0,0.0,-1,0.0,0.0,0.0,0
554048,1480295096455,,,,,,,,-0.05,0.07,0.99,-3.1,0.5,0.2,0,0,,,,,,,,,,,,,,,,,
554068,1480295096475,,,,,,,,-0.05,0.07,0.99,-3.1,0.5,0.2,0,0,,,,,,,,,,,,,,,,,
554088,1480295096495,,,,,,,,-0.05,0.07,0.99,-3.1,0.5,0.2,0,0,,,,,,,,,,,,,,,,,
554108,1480295096515,,,,,,,,-0.05,0.07,0.99,-3.1,0.5,0.2,0,0,,,,,,,,,,,,,,,,,
554128,1480295096535,,,,,1,,,-0.04,0.07,0.99,-3.1,0.5,0.2,0,0,0.0,0,37.478325,-122.203674,0.0,0.0,23.6,10,3,1.5,0,0.0,-1,0.0,,0.0,0
554148,1480295096555,,,,,,,,-0.04,0.07,0.99,-3.1,0.5,0.2,0,0,,,,,,,,,,,,,,,,,
554168,1480295096575,,,,,,,,-0.04,0.07,0.99,-3.1,0.5,0.2,0,0,,,,,,,,,,,,,,,,,
554188,1480295096595,,,,,,,,-0.05,0.07,0.99,-3.1,0.5,0.2,0,0,,,,,,,,,,,,,,,,,
554208,1480295096615,,,,,,,,-0.05,0.07,0.99,-3.1,0.5,0.2,0,0,,,,,,,,,,,,,,,,,
554228,1480295096635,0,48.4,0.0,45.6,0,47.7,,-0.05,0.07,0.99,-3.1,0.5,0.2,0,0,0.0,0,37.478325,-122.203674,0.0,0.0,23.6,10,3,1.5,0,0.0,-1,0.0,0.0,0.0,0
554248,1480295096655,,,,,,,,-0.05,0.07,0.99,-3.1,0.6,0.2,0,0,,,,,,,,,,,,,,,,,
554268,1480295096675,,,,,,,,-0.05,0.07,0.99,-3.1,0.6,0.1,0,0,,,,,,,,,,,,,,,,,
554288,1480295096695,,,,,,,,-0.05,0.07,1.0,-3.1,0.6,0.1,0,0,,,,,,,,,,,,,,,,,
554308,1480295096715,,,,,,,,-0.05,0.07,1.0,-3.1,0.6,0.1,0,0,,,,,,,,,,,,,,,,,
554328,1480295096735,,,,,0,,,-0.05,0.07,1.0,-3.1,0.5,0.1,0,0,0.0,0,37.478325,-122.203674,0.0,0.0,23.6,10,3,1.5,0,0.0,-1,0.0,,0.0,0
554348,1480295096755,,,,,,,,-0.05,0.07,1.0,-3.1,0.5,0.1,0,0,,,,,,,,,,,,,,,,,
554368,1480295096775,,,,,,,,-0.05,0.07,1.0,-3.1,0.5,0.1,0,0,,,,,,,,,,,,,,,,,
554388,1480295096894,,,,,,,,-0.05,0.07,1.0,-3.1,0.5,0.1,0,0,,,,,,,,,,,,,,,,,
554408,1480295096914,,,,,,,,-0.05,0.07,1.0,-3.1,0.5,0.1,0,0,,,,,,,,,,,,,,,,,
554428,1480295096934,0,47.5,0.0,45.7,0,48.5,,-0.05,0.07,0.99,-3.1,0.5,0.1,0,0,0.0,0,37.478325,-122.203674,0.0,0.0,23.6,10,3,1.5,0,0.0,-1,0.0,0.0,0.0,0
554448,1480295096954,,,,,,,,-0.05,0.07,0.99,-3.1,0.5,0.1,0,0,,,,,,,,,,,,,,,,,
554468,1480295096974,,,,,,,,-0.04,0.07,0.99,-3.1,0.5,0.1,0,0,,,,,,,,,,,,,,,,,
554488,1480295096994,,,,,,,,-0.04,0.07,0.99,-3.1,0.4,0.1,0,0,,,,,,,,,,,,,,,,,
554508,1480295097014,,,,,,,,-0.05,0.08,0.98,-3.1,0.4,0.2,0,0,,,,,,,,,,,,,,,,,
554528,1480295097034,,,,,0,,,-0.05,0.1,0.99,-3.1,0.3,0.3,0,0,0.0,0,37.478325,-122.203674,0.0,0.0,23.6,10,3,1.5,0,0.0,-1,0.0,,0.0,0
554548,1480295097054,,,,,,,,-0.05,0.1,0.99,-3.1,0.3,0.2,0,0,,,,,,,,,,,,,,,,,
554568,1480295097074,,,,,,,,-0.05,0.11,0.99,-3.1,0.4,0.2,0,0,,,,,,,,,,,,,,,,,
554588,1480295096994,,,,,,,,-0.06,0.11,1.0,-3.1,0.3,0.1,0,0,,,,,,,,,,,,,,,,,
554608,1480295097014,,,,,,,,-0.05,0.1,0.99,-3.1,0.3,0.0,0,0,,,,,,,,,,,,,,,,,
554628,1480295097034,0,49.4,0.0,46.9,1,47.6,9.77,-0.05,0.11,0.98,-3.1,0.3,0.0,0,0,0.0,0,37.478325,-122.203674,0.0,0.0,23.6,10,3,1.5,0,0.0,-1,0.0,0.0,0.0,0
554648,1480295097054,,,,,,,,-0.05,0.1,0.98,-3.0,0.4,-0.0,0,0,,,,,,,,,,,,,,,,,
554668,1480295097074,,,,,,,,-0.05,0.1,0.98,-3.0,0.3,-0.0,0,0,,,,,,,,,,,,,,,,,
554688,1480295097095,,,,,,,,-0.05,0.1,0.98,-3.1,0.3,0.0,0,0,,,,,,,,,,,,,,,,,
554708,1480295097115,,,,,,,,-0.05,0.09,0.98,-3.1,0.4,0.1,0,0,,,,,,,,,,,,,,,,,
554728,1480295097135,,,,,0,,,-0.05,0.09,0.98,-3.1,0.4,0.1,0,0,0.0,0,37.478325,-122.203674,0.0,0.0,23.6,10,3,1.5,0,0.0,-1,0.0,,0.0,0
554748,1480295097155,,,,,,,,-0.05,0.09,0.98,-3.1,0.4,0.1,0,0,,,,,,,,,,,,,,,,,
554768,1480295097175,,,,,,,,-0.05,0.08,0.98,-3.1,0.4,0.1,0,0,,,,,,,,,,,,,,,,,
554788,1480295097195,,,,,,,,-0.05,0.07,0.98,-3.1,0.4,0.1,0,0,,,,,,,,,,,,,,,,,
554808,1480295097215,,,,,,,,-0.05,0.07,0.98,-3.1,0.4,0.1,0,0,,,,,,,,,,,,,,,,,
554828,1480295097235,0,50.2,0.25,48.0,0,48.9,,-0.05,0.07,0.98,-3.1,0.4,0.1,0,0,0.0,0,37.478325,-122.203674,0.0,0.0,23.6,10,3,1.5,0,0.0,-1,0.0,0.0,0.0,0
554848,1480295097255,,,,,,,,-0.05,0.07,0.98,-3.1,0.4,0.1,0,0,,,,,,,,,,,,,,,,,
554868,1480295097275,,,,,,,,-0.05,0.07,0.98,-3.1,0.4,0.1,0,0,,,,,,,,,,,,,,,,,
554888,1480295097294,,,,,,,,-0.05,0.06,0.98,-3.1,0.5,-0.0,0,0,,,,,,,,,,,,,,,,,
554908,1480295097314,,,,,,,,-0.05,0.06,0.98,-3.1,0.6,-0.1,0,0,,,,,,,,,,,,,,,,,
554928,1480295097334,,,,,0,,,-0.05,0.06,0.98,-3.1,0.7,-0.1,0,0,0.0,0,37.478325,-122.203674,0.0,0.0,23.6,10,3,1.5,0,0.0,-1,0.0,,0.0,0
554948,1480295097354,,,,,,,,-0.05,0.06,0.99,-3.1,0.6,-0.1,0,0,,,,,,,,,,,,,,,,,
554968,1480295097374,,,,,,,,-0.05,0.06,0.98,-3.0,0.6,-0.0,0,0,,,,,,,,,,,,,,,,,
554988,1480295097395,,,,,,,,-0.04,0.07,0.98,-3.1,0.7,0.1,0,0,,,,,,,,,,,,,,,,,
555008,1480295097415,,,,,,,,-0.04,0.09,0.98,-3.1,0.6,0.2,0,0,,,,,,,,,,,,,,,,,
555028,1480295097435,0,48.5,0.0,45.7,0,47.3,,-0.05,0.09,0.98,-3.1,0.6,0.3,0,0,0.0,0,37.478325,-122.203674,0.0,0.0,23.6,10,3,1.5,0,0.0,-1,0.0,0.0,0.0,0
555048,1480295097455,,,,,,,,-0.05,0.09,0.98,-3.1,0.7,0.3,180,0,,,,,,,,,,,,,,,,,
555068,1480295097475,,,,,,,,-0.05,0.09,0.98,-3.1,0.7,0.3,180,0,,,,,,,,,,,,,,,,,
555088,1480295097494,,,,,,,,-0.06,0.09,0.98,-3.1,0.5,0.3,180,0,,,,,,,,,,,,,,,,,
555108,1480295097514,,,,,,,,-0.06,0.1,0.98,-3.1,0.6,0.3,280,0,,,,,,,,,,,,,,,,,
555128,1480295097534,,,,,1,,,-0.06,0.08,0.98,-3.1,0.6,0.3,280,0,0.0,0,37.478325,-122.203674,0.0,0.0,23.6,10,3,1.5,0,0.0,-1,0.0,,0.0,0
555148,1480295097554,,,,,,,,-0.06,0.08,0.98,-3.2,0.6,0.3,280,0,,,,,,,,,,,,,,,,,
555168,1480295097574,,,,,,,,-0.06,0.08,0.98,-3.2,0.6,0.2,420,0,,,,,,,,,,,,,,,,,
555188,1480295097694,,,,,,,,-0.06,0.07,0.98,-3.1,0.5,0.2,420,0,,,,,,,,,,,,,,,,,
555208,1480295097714,,,,,,,,-0.06,0.07,0.98,-3.1,0.6,0.1,520,0,,,,,,,,,,,,,,,,,
555228,1480295097734,0,49.2,0.0,46.5,1,47.0,,-0.06,0.07,0.98,-3.1,0.5,0.1,560,0,0.0,0,37.478325,-122.203674,0.0,0.0,23.6,10,3,1.5,0,0.0,-1,0.0,0.0,0.0,0
555248,1480295097754,,,,,,,,-0.05,0.07,0.98,-3.1,0.6,0.1,560,0,,,,,,,,,,,,,,,,,
555268,1480295097774,,,,,,,,-0.05,0.07,0.98,-3.1,0.8,0.2,520,0,,,,,,,,,,,,,,,,,
555288,1480295097794,,,,,,,,-0.05,0.07,0.98,-3.1,0.7,0.1,520,0,,,,,,,,,,,,,,,,,
555308,1480295097814,,,,,,,,-0.06,0.08,0.99,-3.1,0.7,0.1,500,0,,,,,,,,,,,,,,,,,
555328,1480295097834,,,,,0,,,-0.06,0.07,0.99,-3.1,0.6,0.1,500,0,0.0,0,37.478325,-122.203674,0.0,0.0,23.6,10,3,1.5,0,0.0,-1,0.0,,0.0,0
555348,1480295097854,,,,,,,,-0.06,0.08,0.99,-3.1,0.6,0.2,500,0,,,,,,,,,,,,,,,,,
555368,1480295097874,,,,,,,,-0.05,0.07,0.99,-3.2,0.6,0.1,400,0,,,,,,,,,,,,,,,,,
555388,1480295097795,,,,,,,,-0.05,0.07,0.99,-3.1,0.6,0.1,400,0,,,,,,,,,,,,,,,,,
555408,1480295097815,,,,,,,,-0.05,0.08,0.99,-3.2,0.5,0.2,400,0,,,,,,,,,,,,,,,,,
555428,1480295097835,0,48.8,0.0,45.3,1,46.8,,-0.06,0.08,0.99,-3.1,0.5,0.3,300,58,0.0,0,37.478325,-122.203674,0.0,0.0,23.6,10,3,1.5,0,0.0,-1,0.0,0.0,0.0,0
555448,1480295097855,,,,,,,,-0.06,0.07,1.0,-3.1,0.6,0.3,300,58,,,,,,,,,,,,,,,,,
555468,1480295097875,,,,,,,,-0.05,0.07,1.0,-3.1,0.7,0.2,300,58,,,,,,,,,,,,,,,,,
555488,1480295097895,,,,,,,,-0.05,0.07,1.0,-3.2,0.7,0.3,300,58,,,,,,,,,,,,,,,,,
555508,1480295097906,,,,,,,,-0.05,0.07,1.0,-3.2,0.7,0.2,300,58,,,,,,,,,,,,,,,,,
555528,1480295097926,,,,,1,,,-0.05,0.07,1.0,-3.2,0.6,0.2,300,58,5.172,0,37.478325,-122.203674,0.0,0.0,23.6,10,3,1.5,0,0.0,-1,0.0,,0.0,0
555548,1480295097946,,,,,,,,-0.05,0.07,1.0,-3.1,0.7,0.2,300,0,,,,,,,,,,,,,,,,,
555568,1480295097966,,,,,,,,-0.05,0.08,1.0,-3.1,0.6,0.2,300,0,,,,,,,,,,,,,,,,,
555588,1480295097991,,,,,,,,-0.05,0.07,1.0,-3.2,0.7,0.2,200,0,,,,,,,,,,,,,,,,,
555608,1480295098011,,,,,,,,-0.05,0.07,1.0,-3.2,0.7,0.2,200,0,,,,,,,,,,,,,,,,,
555628,1480295098031,0,50.5,0.39,48.2,1,48.6,12.14,-0.05,0.07,1.0,-3.2,0.7,0.2,200,0,0.0,0,37.478325,-122.203674,0.0,0.0,23.6,10,3,1.5,0,0.0,-1,0.0,0.0,0.0,0
555648,1480295098051,,,,,,,,-0.05,0.07,1.0,-3.1,0.7,0.2,260,0,,,,,,,,,,,,,,,,,
555668,1480295098071,,,,,,,,-0.05,0.06,1.0,-3.1,0.7,0.1,260,0,,,,,,,,,,,,,,,,,
555688,1480295098095,,,,,,,,-0.05,0.07,1.0,-3.1,0.6,0.1,260,0,,,,,,,,,,,,,,,,,
555708,1480295098115,,,,,,,,-0.05,0.07,0.99,-3.1,0.6,0.2,260,0,,,,,,,,,,,,,,,,,
555728,1480295098135,,,,,0,,,-0.05,0.07,1.0,-3.1,0.6,0.2,260,0,0.0,0,37.478325,-122.203674,0.0,0.0,23.6,10,3,1.5,0,0.0,-1,0.0,,0.0,0
555748,1480295098155,,,,,,,,-0.05,0.07,0.99,-3.2,0.6,0.2,260,0,,,,,,,,,,,,,,,,,
555768,1480295098175,,,,,,,,-0.05,0.06,0.99,-3.1,0.6,0.2,260,0,,,,,,,,,,,,,,,,,
555788,1480295098195,,,,,,,,-0.05,0.06,0.99,-3.1,0.6,0.2,9580,0,,,,,,,,,,,,,,,,,
555808,1480295098215,,,,,,,,-0.05,0.07,1.0,-3.1,0.6,0.2,9580,0,,,,,,,,,,,,,,,,,
555828,1480295098235,0,49.3,0.0,46.3,1,46.8,,-0.05,0.07,1.0,-3.1,0.6,0.2,9580,0,0.0,0,37.478325,-122.203674,0.0,0.0,23.6,10,3,1.5,0,0.0,-1,0.0,0.0,0.0,0
555848,1480295098255,,,,,,,,-0.05,0.07,0.99,-3.2,0.5,0.2,9580,0,,,,,,,,,,,,,,,,,
555868,1480295098275,,,,,,,,-0.05,0.07,0.99,-3.2,0.5,0.2,9580,0,,,,,,,,,,,,,,,,,
555888,1480295098295,,,,,,,,-0.05,0.07,0.99,-3.2,0.5,0.2,9580,0,,,,,,,,,,,,,,,,,
555908,1480295098315,,,,,,,,-0.05,0.07,0.99,-3.1,0.5,0.2,0,0,,,,,,,,,,,,,,,,,
555928,1480295098335,,,,,0,,,-0.05,0.07,1.0,-3.1,0.5,0.2,0,0,0.0,0,37.478325,-122.203674,0.0,0.0,23.6,10,3,1.5,0,0.0,-1,0.0,,0.0,0
555948,1480295098355,,,,,,,,-0.05,0.07,1.0,-3.1,0.5,0.2,0,0,,,,,,,,,,,,,,,,,
555968,1480295098375,,,,,,,,-0.05,0.07,1.0,-3.1,0.5,0.2,0,0,,,,,,,,,,,,,,,,,
555988,1480295098494,,,,,,,,-0.05,0.07,1.0,-3.1,0.5,0.2,0,0,,,,,,,,,,,,,,,,,
556008,1480295098514,,,,,,,,-0.05,0.07,1.0,-3.1,0.5,0.2,0,0,,,,,,,,,,,,,,,,,
556028,1480295098534,0,48.2,0.0,45.3,0,47.9,,-0.05,0.06,1.0,-3.1,0.5,0.2,0,0,0.0,0,37.478325,-122.203674,0.0,0.0,23.6,10,3,1.5,0,0.0,-1,0.0,0.0,0.0,0
556048,1480295098554,,,,,,,,-0.05,0.06,1.0,-3.1,0.5,0.1,0,0,,,,,,,,,,,,,,,,,
556068,1480295098574,,,,,,,,-0.05,0.07,1.0,-3.1,0.5,0.1,0,0,,,,,,,,,,,,,,,,,
556088,1480295098594,,,,,,,,-0.05,0.07,1.0,-3.1,0.5,0.1,0,0,,,,,,,,,,,,,,,,,
556108,1480295098614,,,,,,,,-0.05,0.07,1.0,-3.1,0.5,0.2,0,0,,,,,,,,,,,,,,,,,
556128,1480295098634,,,,,1,,,-0.05,0.07,1.0,-3.1,0.5,0.1,0,0,0.0,0,37.478325,-122.203674,0.0,0.0,23.6,10,3,1.5,0,0.0,-1,0.0,,0.0,0
556148,1480295098654,,,,,,,,-0.05,0.07,1.0,-3.1,0.5,0.1,0,0,,,,,,,,,,,,,,,,,
556168,1480295098674,,,,,,,,-0.05,0.07,1.0,-3.1,0.5,0.1,0,0,,,,,,,,,,,,,,,,,
556188,1480295098595,,,,,,,,-0.05,0.07,1.0,-3.1,0.5,0.1,0,0,,,,,,,,,,,,,,,,,
556208,1480295098615,,,,,,,,-0.05,0.07,1.0,-3.1,0.5,0.1,0,0,,,,,,,,,,,,,,,,,
556228,1480295098635,0,47.6,0.0,45.6,0,48.3,,-0.05,0.07,0.99,-3.1,0.5,0.1,0,0,0.0,0,37.478325,-122.203674,0.0,0.0,23.6,10,3,1.5,0,0.0,-1,0.0,0.0,0.0,0
556248,1480295098655,,,,,,,,-0.05,0.07,1.0,-3.1,0.5,0.1,0,0,,,,,,,,,,,,,,,,,
556268,1480295098675,,,,,,,,-0.05,0.07,0.99,-3.1,0.5,0.1,0,0,,,,,,,,,,,,,,,,,
556288,1480295098695,,,,,,,,-0.05,0.07,0.99,-3.1,0.5,0.2,0,0,,,,,,,,,,,,,,,,,
556308,1480295098715,,,,,,,,-0.05,0.07,1.0,-3.1,0.5,0.2,0,0,,,,,,,,,,,,,,,,,
556328,1480295098735,,,,,0,,,-0.05,0.07,1.0,-3.1,0.5,0.2,0,0,0.0,0,37.478325,-122.203674,0.0,0.0,23.6,10,3,1.5,0,0.0,-1,0.0,,0.0,0
556348,1480295098755,,,,,,,,-0.05,0.07,0.99,-3.1,0.5,0.2,0,0,,,,,,,,,,,,,,,,,
556368,1480295098775,,,,,,,,-0.05,0.07,0.99,-3.1,0.5,0.2,0,0,,,,,,,,,,,,,,,,,
556388,1480295098795,,,,,,,,-0.05,0.07,0.99,-3.1,0.5,0.2,0,0,,,,,,,,,,,,,,,,,
556408,1480295098815,,,,,,,,-0.05,0.07,0.99,-3.1,0.5,0.1,0,0,,,,,,,,,,,,,,,,,
556428,1480295098835,0,47.3,0.0,45.9,0,48.8,,-0.05,0.07,0.99,-3.1,0.5,0.2,0,0,0.0,0,37.478325,-122.203674,0.0,0.0,23.6,10,3,1.5,0,0.0,-1,0.0,0.0,0.0,0
556448,1480295098855,,,,,,,,-0.05,0.07,0.99,-3.1,0.5,0.2,0,0,,,,,,,,,,,,,,,,,
556468,1480295098875,,,,,,,,-0.05,0.07,0.99,-3.1,0.5,0.2,0,0,,,,,,,,,,,,,,,,,
556488,1480295098895,,,,,,,,-0.05,0.07,0.99,-3.1,0.5,0.2,0,0,,,,,,,,,,,,,,,,,
556508,1480295098905,,,,,,,,-0.05,0.07,0.99,-3.1,0.5,0.2,0,0,,,,,,,,,,,,,,,,,
556528,1480295098925,,,,,0,,,-0.05,0.07,0.99,-3.1,0.5,0.2,0,0,0.0,0,37.478325,-122.203674,0.0,0.0,23.6,10,3,1.5,0,0.0,-1,0.0,,0.0,0
556548,1480295098945,,,,,,,,-0.05,0.07,0.99,-3.1,0.5,0.2,0,0,,,,,,,,,,,,,,,,,
556568,1480295098965,,,,,,,,-0.05,0.07,0.99,-3.1,0.5,0.2,0,0,,,,,,,,,,,,,,,,,
556588,1480295098995,,,,,,,,-0.05,0.07,0.99,-3.1,0.5,0.2,0,0,,,,,,,,,,,,,,,,,
556608,1480295099015,,,,,,,,-0.05,0.07,0.99,-3.1,0.5,0.2,0,0,,,,,,,,,,,,,,,,,
556628,1480295099035,0,47.4,0.0,46.2,0,49.7,12.38,-0.05,0.07,0.99,-3.1,0.5,0.2,0,0,0.0,0,37.478325,-122.203674,0.0,0.0,23.6,10,3,1.5,0,0.0,-1,0.0,0.0,0.0,0
556648,1480295099055,,,,,,,,-0.05,0.07,0.99,-3.2,0.5,0.2,0,0,,,,,,,,,,,,,,,,,
556668,1480295099075,,,,,,,,-0.05,0.07,0.99,-3.2,0.5,0.2,0,0,,,,,,,,,,,,,,,,,
556688,1480295099095,,,,,,,,-0.05,0.07,0.99,-3.2,0.5,0.2,0,0,,,,,,,,,,,,,,,,,
556708,1480295099115,,,,,,,,-0.05,0.07,0.99,-3.1,0.5,0.2,0,0,,,,,,,,,,,,,,,,,
556728,1480295099135,,,,,0,,,-0.05,0.07,0.99,-3.1,0.5,0.2,0,0,0.0,0,37.478325,-122.203674,0.0,0.0,23.6,10,3,1.5,0,0.0,-1,0.0,,0.0,0
556748,1480295099155,,,,,,,,-0.05,0.07,0.99,-3.1,0.5,0.2,0,0,,,,,,,,,,,,,,,,,
556768,1480295099175,,,,,,,,-0.05,0.07,0.99,-3.1,0.5,0.2,0,0,,,,,,,,,,,,,,,,,
556788,1480295099294,,,,,,,,-0.05,0.07,0.99,-3.1,0.5,0.2,0,0,,,,,,,,,,,,,,,,,
556808,1480295099314,,,,,,,,-0.05,0.07,0.99,-3.1,0.5,0.2,0,0,,,,,,,,,,,,,,,,,
556828,1480295099334,0,47.6,0.0,46.3,0,49.6,,-0.05,0.07,0.99,-3.1,0.5,0.2,0,0,0.0,0,37.478325,-122.203674,0.0,0.0,23.6,10,3,1.5,0,0.0,-1,0.0,0.0,0.0,0
556848,1480295099354,,,,,,,,-0.05,0.07,0.99,-3.1,0.5,0.2,0,0,,,,,,,,,,,,,,,,,
556868,1480295099374,,,,,,,,-0.05,0.07,0.99,-3.1,0.5,0.2,0,0,,,,,,,,,,,,,,,,,
556888,1480295099394,,,,,,,,-0.05,0.07,0.99,-3.1,0.5,0.2,0,0,,,,,,,,,,,,,,,,,
556908,1480295099414,,,,,,,,-0.05,0.07,0.99,-3.1,0.5,0.2,0,0,,,,,,,,,,,,,,,,,
556928,1480295099434,,,,,0,,,-0.05,0.07,0.99,-3.1,0.5,0.2,0,0,0.0,0,37.478325,-122.203674,0.0,0.0,23.6,10,3,1.5,0,0.0,-1,0.0,,0.0,0
556948,1480295099454,,,,,,,,-0.05,0.07,0.99,-3.1,0.5,0.2,0,0,,,,,,,,,,,,,,,,,
556968,1480295099474,,,,,,,,-0.05,0.07,0.99,-3.1,0.5,0.2,0,0,,,,,,,,,,,,,,,,,
556988,1480295099395,,,,,,,,-0.05,0.07,0.99,-3.1,0.5,0.2,0,0,,,,,,,,,,,,,,,,,
557008,1480295099415,,,,,,,,-0.05,0.07,0.99,-3.1,0.5,0.2,0,0,,,,,,,,,,,,,,,,,
557028,1480295099435,0,49.4,0.15,48.1,0,49.5,,-0.05,0.07,0.99,-3.1,0.5,0.2,0,0,0.0,0,37.478325,-122.203674,0.0,0.0,23.6,10,3,1.5,0,0.0,-1,0.0,0.0,0.0,0
557048,1480295099455,,,,,,,,-0.05,0.07,0.99,-3.1,0.5,0.2,0,0,,,,,,,,,,,,,,,,,
557068,1480295099475,,,,,,,,-0.05,0.07,0.99,-3.1,0.5,0.1,0,0,,,,,,,,,,,,,,,,,
557088,1480295099495,,,,,,,,-0.05,0.07,0.99,-3.1,0.5,0.2,0,0,,,,,,,,,,,,,,,,,
557108,1480295099515,,,,,,,,-0.05,0.07,0.99,-3.1,0.5,0.1,0,0,,,,,,,,,,,,,,,,,
557128,1480295099535,,,,,0,,,-0.05,0.07,0.99,-3.1,0.5,0.1,0,0,0.0,0,37.478325,-122.203674,0.0,0.0,23.6,10,3,1.5,0,0.0,-1,0.0,,0.0,0
557148,1480295099555,,,,,,,,-0.05,0.07,0.99,-3.1,0.5,0.1,0,0,,,,,,,,,,,,,,,,,
557168,1480295099575,,,,,,,,-0.05,0.07,0.99,-3.1,0.5,0.1,0,0,,,,,,,,,,,,,,,,,
557188,1480295099595,,,,,,,,-0.05,0.07,0.99,-3.1,0.5,0.1,0,0,,,,,,,,,,,,,,,,,
557208,1480295099615,,,,,,,,-0.05,0.07,0.99,-3.1,0.5,0.1,0,0,,,,,,,,,,,,,,,,,
557228,1480295099635,0,48.5,0.0,45.6,0,47.7,,-0.05,0.07,0.99,-3.1,0.5,0.1,0,0,0.0,0,37.478325,-122.203674,0.0,0.0,23.6,10,3,1.5,0,0.0,-1,0.0,0.0,0.0,0
557248,1480295099655,,,,,,,,-0.05,0.07,0.99,-3.1,0.5,0.2,0,0,,,,,,,,,,,,,,,,,
557268,1480295099675,,,,,,,,-0.05,0.07,0.99,-3.1,0.5,0.2,0,0,,,,,,,,,,,,,,,,,
557288,1480295099696,,,,,,,,-0.05,0.07,0.99,-3.1,0.5,0.2,0,0,,,,,,,,,,,,,,,,,
557308,1480295099716,,,,,,,,-0.05,0.07,0.99,-3.1,0.5,0.2,0,0,,,,,,,,,,,,,,,,,
557328,1480295099736,,,,,0,,,-0.05,0.07,0.99,-3.1,0.5,0.2,0,0,0.0,0,37.478325,-122.203674,0.0,0.0,23.6,10,3,1.5,0,0.0,-1,0.0,,0.0,0
557348,1480295099756,,,,,,,,-0.05,0.07,0.99,-3.1,0.5,0.2,0,0,,,,,,,,,,,,,,,,,
557368,1480295099776,,,,,,,,-0.05,0.07,0.99,-3.1,0.5,0.2,0,0,,,,,,,,,,,,,,,,,
557388,1480295099795,,,,,,,,-0.05,0.07,0.99,-3.1,0.5,0.2,0,0,,,,,,,,,,,,,,,,,
557408,1480295099815,,,,,,,,-0.05,0.07,0.99,-3.1,0.5,0.2,0,0,,,,,,,,,,,,,,,,,
557428,1480295099835,0,49.6,0.0,47.1,1,47.4,,-0.05,0.07,0.99,-3.1,0.5,0.2,0,0,0.0,0,37.478325,-122.203674,0.0,0.0,23.6,10,3,1.5,0,0.0,-1,0.0,0.0,0.0,0
557448,1480295099855,,,,,,,,-0.05,0.07,0.99,-3.1,0.5,0.2,0,0,,,,,,,,,,,,,,,,,
557468,1480295099875,,,,,,,,-0.05,0.07,0.99,-3.1,0.5,0.2,0,0,,,,,,,,,,,,,,,,,
557488,1480295099895,,,,,,,,-0.05,0.07,0.99,-3.1,0.5,0.2,0,0,,,,,,,,,,,,,,,,,
557508,1480295099906,,,,,,,,-0.05,0.07,0.99,-3.1,0.5,0.2,0,0,,,,,,,,,,,,,,,,,
557528,1480295099926,,,,,0,,,-0.05,0.07,0.99,-3.1,0.5,0.2,0,0,0.0,0,37.478325,-122.203674,0.0,0.0,23.6,10,3,1.5,0,0.0,-1,0.0,,0.0,0
557548,1480295099946,,,,,,,,-0.05,0.07,0.99,-3.1,0.5,0.2,0,0,,,,,,,,,,,,,,,,,
557568,1480295099966,,,,,,,,-0.05,0.07,0.99,-3.1,0.5,0.2,0,0,,,,,,,,,,,,,,,,,
557588,1480295100093,,,,,,,,-0.05,0.07,0.99,-3.1,0.5,0.2,0,0,,,,,,,,,,,,,,,,,
557608,1480295100113,,,,,,,,-0.05,0.07,0.99,-3.1,0.5,0.2,0,0,,,,,,,,,,,,,,,,,
557628,1480295100133,0,49.6,0.0,46.8,1,47.2,12.41,-0.05,0.07,0.99,-3.1,0.5,0.2,0,0,0.0,0,37.478325,-122.203674,0.0,0.0,23.6,10,3,1.5,0,0.0,-1,0.0,0.0,0.0,0
557648,1480295100153,,,,,,,,-0.05,0.07,0.99,-3.1,0.4,0.2,0,0,,,,,,,,,,,,,,,,,
557668,1480295100173,,,,,,,,-0.05,0.07,0.99,-3.1,0.4,0.2,0,0,,,,,,,,,,,,,,,,,
557688,1480295100193,,,,,,,,-0.05,0.07,0.99,-3.1,0.4,0.2,0,0,,,,,,,,,,,,,,,,,
557708,1480295100213,,,,,,,,-0.05,0.07,0.99,-3.1,0.4,0.2,0,0,,,,,,,,,,,,,,,,,
557728,1480295100233,,,,,0,,,-0.05,0.07,0.99,-3.1,0.4,0.2,0,0,0.0,0,37.478325,-122.203674,0.0,0.0,23.6,10,3,1.5,0,0.0,-1,0.0,,0.0,0
557748,1480295100253,,,,,,,,-0.05,0.07,0.99,-3.1,0.5,0.2,0,0,,,,,,,,,,,,,,,,,
557768,1480295100273,,,,,,,,-0.05,0.07,0.99,-3.1,0.5,0.2,0,0,,,,,,,,,,,,,,,,,
557788,1480295100195,,,,,,,,-0.05,0.07,0.99,-3.1,0.5,0.2,0,0,,,,,,,,,,,,,,,,,
557808,1480295100215,,,,,,,,-0.05,0.07,0.99,-3.1,0.5,0.2,0,0,,,,,,,,,,,,,,,,,
557828,1480295100235,0,49.2,0.0,46.0,0,47.4,,-0.05,0.07,0.99,-3.1,0.5,0.2,0,0,0.0,0,37.478325,-122.203674,0.0,0.0,23.6,10,3,1.5,0,0.0,-1,0.0,0.0,0.0,0
557848,1480295100255,,,,,,,,-0.05,0.07,0.99,-3.1,0.5,0.2,0,0,,,,,,,,,,,,,,,,,
557868,1480295100275,,,,,,,,-0.05,0.07,0.99,-3.1,0.4,0.2,0,0,,,,,,,,,,,,,,,,,
557888,1480295100295,,,,,,,,-0.05,0.07,0.99,-3.1,0.4,0.2,0,0,,,,,,,,,,,,,,,,,
557908,1480295100315,,,,,,,,-0.05,0.07,0.99,-3.1,0.4,0.2,0,0,,,,,,,,,,,,,,,,,
557928,1480295100335,,,,,1,,,-0.05,0.07,0.99,-3.1,0.4,0.2,0,0,0.0,0,37.478325,-122.203674,0.0,0.0,23.6,10,3,1.5,0,0.0,-1,0.0,,0.0,0
557948,1480295100355,,,,,,,,-0.05,0.07,0.99,-3.1,0.5,0.2,0,0,,,,,,,,,,,,,,,,,
557968,1480295100375,,,,,,,,-0.05,0.07,0.99,-3.1,0.5,0.2,0,0,,,,,,,,,,,,,,,,,
557988,1480295100395,,,,,,,,-0.05,0.07,0.99,-3.1,0.5,0.2,0,0,,,,,,,,,,,,,,,,,
558008,1480295100415,,,,,,,,-0.05,0.07,0.99,-3.1,0.5,0.1,0,0,,,,,,,,,,,,,,,,,
558028,1480295100435,0,48.6,0.0,47.7,0,49.8,,-0.04,0.07,0.99,-3.1,0.5,0.2,0,0,0.0,0,37.478325,-122.203674,0.0,0.0,23.6,10,3,1.5,0,0.0,-1,0.0,0.0,0.0,0
558048,1480295100455,,,,,,,,-0.05,0.07,0.99,-3.1,0.5,0.2,0,0,,,,,,,,,,,,,,,,,
558068,1480295100475,,,,,,,,-0.04,0.07,0.99,-3.1,0.5,0.2,0,0,,,,,,,,,,,,,,,,,
558088,1480295100495,,,,,,,,-0.04,0.07,0.99,-3.1,0.5,0.2,0,0,,,,,,,,,,,,,,,,,
558108,1480295100515,,,,,,,,-0.04,0.07,0.99,-3.1,0.5,0.2,0,0,,,,,,,,,,,,,,,,,
558128,1480295100535,,,,,0,,,-0.04,0.07,0.99,-3.1,0.5,0.2,0,0,0.0,0,37.478325,-122.203674,0.0,0.0,23.6,10,3,1.5,0,0.0,-1,0.0,,0.0,0
558148,1480295100555,,,,,,,,-0.05,0.07,0.99,-3.1,0.5,0.2,0,0,,,,,,,,,,,,,,,,,
558168,1480295100575,,,,,,,,-0.05,0.07,0.99,-3.1,0.5,0.2,0,0,,,,,,,,,,,,,,,,,
558188,1480295100595,,,,,,,,-0.05,0.07,0.99,-3.1,0.5,0.2,0,0,,,,,,,,,,,,,,,,,
558208,1480295100615,,,,,,,,-0.05,0.07,0.99,-3.1,0.5,0.2,0,0,,,,,,,,,,,,,,,,,
558228,1480295100635,0,48.3,0.0,47.2,0,50.0,,-0.05,0.07,1.0,-3.1,0.5,0.2,0,0,0.0,0,37.478325,-122.203674,0.0,0.0,23.6,10,3,1.5,0,0.0,-1,0.0,0.0,0.0,0
558248,1480295100655,,,,,,,,-0.05,0.07,1.0,-3.1,0.5,0.2,0,0,,,,,,,,,,,,,,,,,
558268,1480295100675,,,,,,,,-0.05,0.07,0.99,-3.1,0.5,0.2,0,0,,,,,,,,,,,,,,,,,
558288,1480295100695,,,,,,,,-0.05,0.07,0.99,-3.1,0.5,0.2,0,0,,,,,,,,,,,,,,,,,
558308,1480295100715,,,,,,,,-0.05,0.07,0.99,-3.1,0.5,0.2,0,0,,,,,,,,,,,,,,,,,
558328,1480295100735,,,,,0,,,-0.05,0.07,0.99,-3.1,0.5,0.2,0,0,0.0,0,37.478325,-122.203674,0.0,0.0,23.6,10,3,1.5,0,0.0,-1,0.0,,0.0,0
558348,1480295100755,,,,,,,,-0.05,0.07,0.99,-3.1,0.5,0.2,0,0,,,,,,,,,,,,,,,,,
558368,1480295100775,,,,,,,,-0.05,0.07,0.99,-3.1,0.5,0.2,0,0,,,,,,,,,,,,,,,,,
558388,1480295100895,,,,,,,,-0.05,0.07,1.0,-3.1,0.5,0.2,0,0,,,,,,,,,,,,,,,,,
558408,1480295100915,,,,,,,,-0.05,0.07,1.0,-3.1,0.5,0.2,0,0,,,,,,,,,,,,,,,,,
558428,1480295100935,0,47.6,0.0,45.7,0,48.5,,-0.05,0.07,1.0,-3.1,0.5,0.2,0,0,0.0,0,37.478325,-122.203674,0.0,0.0,23.6,10,3,1.5,0,0.0,-1,0.0,0.0,0.0,0
558448,1480295100955,,,,,,,,-0.05,0.07,1.0,-3.1,0.5,0.2,0,0,,,,,,,,,,,,,,,,,
558468,1480295100975,,,,,,,,-0.05,0.08,0.99,-3.1,0.5,0.2,0,0,,,,,,,,,,,,,,,,,
558488,1480295100995,,,,,,,,-0.05,0.09,0.99,-3.1,0.4,0.3,0,0,,,,,,,,,,,,,,,,,
558508,1480295101015,,,,,,,,-0.06,0.1,0.99,-3.1,0.5,0.4,0,0,,,,,,,,,,,,,,,,,
558528,1480295101035,,,,,0,,,-0.06,0.09,1.0,-3.1,0.6,0.4,0,0,0.0,0,37.478325,-122.203674,0.0,0.0,23.6,10,3,1.5,0,0.0,-1,0.0,,0.0,0
558548,1480295101055,,,,,,,,-0.06,0.1,1.0,-3.2,0.6,0.4,0,0,,,,,,,,,,,,,,,,,
558568,1480295101075,,,,,,,,-0.05,0.1,1.0,-3.1,0.5,0.4,0,0,,,,,,,,,,,,,,,,,
558588,1480295100995,,,,,,,,-0.05,0.09,1.0,-3.1,0.5,0.4,0,0,,,,,,,,,,,,,,,,,
558608,1480295101015,,,,,,,,-0.05,0.08,1.0,-3.1,0.6,0.4,0,0,,,,,,,,,,,,,,,,,
558628,1480295101035,0,50.0,0.2,47.8,0,48.6,9.94,-0.05,0.08,1.0,-3.1,0.6,0.4,0,0,0.0,0,37.478325,-122.203674,0.0,0.0,23.6,10,3,1.5,0,0.0,-1,0.0,0.0,0.0,0
558648,1480295101055,,,,,,,,-0.05,0.09,1.0,-3.1,0.5,0.4,0,0,,,,,,,,,,,,,,,,,
558668,1480295101075,,,,,,,,-0.05,0.09,1.0,-3.1,0.6,0.4,0,0,,,,,,,,,,,,,,,,,
558688,1480295101095,,,,,,,,-0.05,0.08,1.01,-3.1,0.6,0.4,0,0,,,,,,,,,,,,,,,,,
558708,1480295101115,,,,,,,,-0.05,0.08,1.0,-3.1,0.6,0.4,0,0,,,,,,,,,,,,,,,,,
558728,1480295101135,,,,,0,,,-0.05,0.09,1.0,-3.1,0.6,0.3,0,0,0.0,0,37.478325,-122.203674,0.0,0.0,23.6,10,3,1.5,0,0.0,-1,0.0,,0.0,0
558748,1480295101155,,,,,,,,-0.05,0.08,1.0,-3.1,0.6,0.3,0,0,,,,,,,,,,,,,,,,,
558768,1480295101175,,,,,,,,-0.05,0.08,1.0,-3.1,0.5,0.3,0,0,,,,,,,,,,,,,,,,,
558788,1480295101195,,,,,,,,-0.05,0.07,0.99,-3.1,0.6,0.3,0,0,,,,,,,,,,,,,,,,,
558808,1480295101215,,,,,,,,-0.04,0.07,0.99,-3.1,0.5,0.2,0,0,,,,,,,,,,,,,,,,,
558828,1480295101235,0,49.0,0.0,47.9,0,49.7,,-0.05,0.07,0.99,-3.1,0.6,0.2,0,0,0.0,0,37.478325,-122.203674,0.0,0.0,23.6,10,3,1.5,0,0.0,-1,0.0,0.0,0.0,0
558848,1480295101255,,,,,,,,-0.05,0.08,0.99,-3.1,0.5,0.3,0,0,,,,,,,,,,,,,,,,,
558868,1480295101275,,,,,,,,-0.05,0.08,0.99,-3.1,0.5,0.3,0,0,,,,,,,,,,,,,,,,,
558888,1480295101295,,,,,,,,-0.06,0.09,0.99,-3.1,0.5,0.3,0,0,,,,,,,,,,,,,,,,,
558908,1480295101315,,,,,,,,-0.05,0.09,1.0,-3.1,0.4,0.3,0,0,,,,,,,,,,,,,,,,,
558928,1480295101335,,,,,0,,,-0.05,0.09,0.99,-3.1,0.4,0.2,0,0,0.0,0,37.478325,-122.203674,0.0,0.0,23.6,10,3,1.5,0,0.0,-1,0.0,,0.0,0
558948,1480295101355,,,,,,,,-0.05,0.09,0.99,-3.1,0.4,0.3,0,0,,,,,,,,,,,,,,,,,
558968,1480295101375,,,,,,,,-0.05,0.08,1.0,-3.2,0.5,0.3,0,0,,,,,,,,,,,,,,,,,
558988,1480295101395,,,,,,,,-0.04,0.08,1.0,-3.2,0.5,0.3,0,0,,,,,,,,,,,,,,,,,
559008,1480295101415,,,,,,,,-0.03,0.07,0.99,-3.2,0.4,0.3,0,0,,,,,,,,,,,,,,,,,
559028,1480295101435,0,48.5,0.0,45.8,0,47.7,,-0.03,0.07,1.0,-3.1,0.3,0.3,220,0,0.0,0,37.478325,-122.203674,0.0,0.0,23.6,10,3,1.5,0,0.0,-1,0.0,0.0,0.0,0
559048,1480295101455,,,,,,,,-0.03,0.06,1.0,-3.1,0.4,0.2,220,0,,,,,,,,,,,,,,,,,
559068,1480295101475,,,,,,,,-0.03,0.07,1.0,-3.1,0.4,0.2,220,0,,,,,,,,,,,,,,,,,
559088,1480295101495,,,,,,,,-0.03,0.07,1.0,-3.2,0.5,0.2,300,0,,,,,,,,,,,,,,,,,
559108,1480295101515,,,,,,,,-0.03,0.07,1.0,-3.2,0.6,0.2,300,0,,,,,,,,,,,,,,,,,
559128,1480295101535,,,,,0,,,-0.03,0.07,1.0,-3.2,0.6,0.3,440,0,0.0,0,37.478325,-122.203674,0.0,0.0,23.6,10,3,1.5,0,0.0,-1,0.0,,0.0,0
559148,1480295101555,,,,,,,,-0.04,0.07,1.0,-3.2,0.5,0.2,440,0,,,,,,,,,,,,,,,,,
559168,1480295101575,,,,,,,,-0.05,0.08,1.0,-3.2,0.4,0.3,520,0,,,,,,,,,,,,,,,,,
559188,1480295101694,,,,,,,,-0.05,0.06,1.0,-3.1,0.4,0.2,520,0,,,,,,,,,,,,,,,,,
559208,1480295101714,,,,,,,,-0.04,0.08,1.0,-3.2,0.5,0.2,600,0,,,,,,,,,,,,,,,,,
559228,1480295101734,0,50.2,0.25,47.8,0,48.2,,-0.05,0.08,1.0,-3.2,0.4,0.4,700,0,0.0,0,37.478325,-122.203674,0.0,0.0,23.6,10,3,1.5,0,0.0,-1,0.0,0.0,0.0,0
559248,1480295101754,,,,,,,,-0.05,0.08,1.0,-3.3,0.3,0.4,740,0,,,,,,,,,,,,,,,,,
559268,1480295101774,,,,,,,,-0.06,0.08,1.0,-3.2,0.5,0.4,740,0,,,,,,,,,,,,,,,,,
559288,1480295101794,,,,,,,,-0.06,0.08,1.01,-3.2,0.5,0.4,700,0,,,,,,,,,,,,,,,,,
559308,1480295101814,,,,,,,,-0.06,0.07,1.01,-3.2,0.6,0.3,620,0,,,,,,,,,,,,,,,,,
559328,1480295101834,,,,,0,,,-0.06,0.07,1.0,-3.1,0.5,0.3,620,0,0.0,0,37.478325,-122.203674,0.0,0.0,23.6,10,3,1.5,0,0.0,-1,0.0,,0.0,0
559348,1480295101854,,,,,,,,-0.06,0.08,1.0,-3.2,0.5,0.3,540,0,,,,,,,,,,,,,,,,,
559368,1480295101874,,,,,,,,-0.06,0.08,1.0,-3.2,0.5,0.3,540,0,,,,,,,,,,,,,,,,,
559388,1480295101795,,,,,,,,-0.06,0.08,1.0,-3.2,0.5,0.3,500,0,,,,,,,,,,,,,,,,,
559408,1480295101815,,,,,,,,-0.06,0.08,1.0,-3.2,0.5,0.3,500,0,,,,,,,,,,,,,,,,,
559428,1480295101835,0,49.7,0.2,48.2,1,49.4,,-0.06,0.08,1.0,-3.1,0.5,0.3,520,0,0.0,0,37.478325,-122.203674,0.0,0.0,23.6,10,3,1.5,0,0.0,-1,0.0,0.0,0.0,0
559448,1480295101855,,,,,,,,-0.06,0.08,1.0,-3.1,0.5,0.3,520,0,,,,,,,,,,,,,,,,,
559468,1480295101875,,,,,,,,-0.06,0.08,1.01,-3.2,0.5,0.4,540,0,,,,,,,,,,,,,,,,,
559488,1480295101895,,,,,,,,-0.06,0.08,1.01,-3.2,0.5,0.4,540,0,,,,,,,,,,,,,,,,,
559508,1480295101906,,,,,,,,-0.06,0.08,1.01,-3.2,0.5,0.4,540,0,,,,,,,,,,,,,,,,,
559528,1480295101926,,,,,0,,,-0.06,0.06,1.01,-3.1,0.5,0.3,540,0,0.0,0,37.478325,-122.203674,0.0,0.0,23.6,10,3,1.5,0,0.0,-1,0.0,,0.0,0
559548,1480295101946,,,,,,,,-0.06,0.06,1.0,-3.1,0.5,0.3,520,0,,,,,,,,,,,,,,,,,
559568,1480295101966,,,,,,,,-0.06,0.06,1.0,-3.1,0.3,0.3,600,0,,,,,,,,,,,,,,,,,
559588,1480295101995,,,,,,,,-0.05,0.05,0.99,-3.1,0.5,0.2,600,0,,,,,,,,,,,,,,,,,
559608,1480295102015,,,,,,,,-0.04,0.06,0.99,-3.1,0.4,0.2,540,0,,,,,,,,,,,,,,,,,
559628,1480295102035,0,49.9,0.39,48.2,1,49.1,14.28,-0.04,0.05,0.99,-3.1,0.3,0.2,540,0,0.0,0,37.478325,-122.203674,0.0,0.0,23.6,10,3,1.5,0,0.0,-1,0.0,0.0,0.0,0
559648,1480295102055,,,,,,,,-0.04,0.06,0.98,-3.1,0.4,0.2,640,0,,,,,,,,,,,,,,,,,
559668,1480295102075,,,,,,,,-0.04,0.05,0.98,-3.1,0.4,0.3,640,0,,,,,,,,,,,,,,,,,
559688,1480295102096,,,,,,,,-0.05,0.06,0.98,-3.1,0.4,0.2,640,0,,,,,,,,,,,,,,,,,
559708,1480295102116,,,,,,,,-0.04,0.06,0.97,-3.1,0.4,0.3,680,0,,,,,,,,,,,,,,,,,
559728,1480295102136,,,,,0,,,-0.05,0.05,0.98,-3.1,0.4,0.3,700,0,0.0,0,37.478325,-122.203674,0.0,0.0,23.6,10,3,1.5,0,0.0,-1,0.0,,0.0,0
559748,1480295102156,,,,,,,,-0.06,0.06,0.98,-3.1,0.3,0.3,720,0,,,,,,,,,,,,,,,,,
559768,1480295102176,,,,,,,,-0.05,0.06,0.98,-3.1,0.4,0.2,720,0,,,,,,,,,,,,,,,,,
559788,1480295102195,,,,,,,,-0.05,0.06,0.99,-3.1,0.5,0.2,760,0,,,,,,,,,,,,,,,,,
559808,1480295102215,,,,,,,,-0.05,0.06,0.99,-3.1,0.4,0.2,780,0,,,,,,,,,,,,,,,,,
559828,1480295102235,0,47.3,0.0,45.3,1,48.2,,-0.05,0.06,0.99,-3.1,0.4,0.2,800,0,0.0,0,37.478325,-122.203674,0.0,0.0,23.6,10,3,1.5,0,0.0,-1,0.0,0.0,0.0,0
559848,1480295102255,,,,,,,,-0.05,0.05,0.99,-3.1,0.4,0.2,800,0,,,,,,,,,,,,,,,,,
559868,1480295102275,,,,,,,,-0.05,0.06,0.99,-3.1,0.4,0.1,800,0,,,,,,,,,,,,,,,,,
559888,1480295102295,,,,,,,,-0.05,0.06,0.99,-3.1,0.5,0.1,840,0,,,,,,,,,,,,,,,,,
559908,1480295102315,,,,,,,,-0.04,0.06,0.99,-3.1,0.5,0.1,820,0,,,,,,,,,,,,,,,,,
559928,1480295102335,,,,,1,,,-0.05,0.06,0.99,-3.1,0.5,0.2,840,0,0.0,0,37.478325,-122.203674,0.0,0.0,23.6,10,3,1.5,0,0.0,-1,0.0,,0.0,0
559948,1480295102355,,,,,,,,-0.05,0.07,0.99,-3.1,0.7,0.2,860,0,,,,,,,,,,,,,,,,,
559968,1480295102375,,,,,,,,-0.05,0.07,0.99,-3.1,0.6,0.2,880,0,,,,,,,,,,,,,,,,,
559988,1480295102495,,,,,,,,-0.05,0.06,1.0,-3.1,0.5,0.1,880,0,,,,,,,,,,,,,,,,,
560008,1480295102515,,,,,,,,-0.05,0.06,1.0,-3.1,0.8,0.1,880,0,,,,,,,,,,,,,,,,,
560028,1480295102535,0,50.2,0.34,48.4,1,49.4,,-0.05,0.06,0.99,-3.0,0.6,0.1,920,0,0.0,0,37.478325,-122.203674,0.0,0.0,23.6,10,3,1.5,0,0.0,-1,0.0,0.0,0.0,0
560048,1480295102555,,,,,,,,-0.05,0.06,0.99,-3.1,0.5,0.1,920,0,,,,,,,,,,,,,,,,,
560068,1480295102575,,,,,,,,-0.04,0.06,0.99,-3.1,0.6,0.2,940,0,,,,,,,,,,,,,,,,,
560088,1480295102595,,,,,,,,-0.03,0.06,1.0,-3.1,0.8,0.2,960,0,,,,,,,,,,,,,,,,,
560108,1480295102615,,,,,,,,-0.03,0.07,1.0,-3.1,0.7,0.2,960,0,,,,,,,,,,,,,,,,,
560128,1480295102635,,,,,1,,,-0.03,0.08,0.99,-3.1,0.6,0.2,960,0,0.0,0,37.478325,-122.203674,0.0,0.0,23.6,10,3,1.5,0,0.0,-1,0.0,,0.0,0
560148,1480295102655,,,,,,,,-0.04,0.09,0.99,-3.1,0.3,0.3,980,0,,,,,,,,,,,,,,,,,
560168,1480295102675,,,,,,,,-0.04,0.09,0.98,-3.2,0.0,0.4,980,0,,,,,,,,,,,,,,,,,
560188,1480295102595,,,,,,,,-0.05,0.09,0.98,-3.2,-0.4,0.5,1000,0,,,,,,,,,,,,,,,,,
560208,1480295102615,,,,,,,,-0.05,0.09,0.98,-3.2,-0.6,0.5,1000,0,,,,,,,,,,,,,,,,,
560228,1480295102635,0,47.3,0.0,45.2,1,47.6,,-0.04,0.09,0.97,-3.3,-0.8,0.6,1020,0,0.0,0,37.478325,-122.203674,0.0,0.0,23.6,10,3,1.5,0,0.0,-1,0.0,0.0,0.0,0
560248,1480295102655,,,,,,,,-0.04,0.09,0.97,-3.3,-0.9,0.6,1020,0,,,,,,,,,,,,,,,,,
560268,1480295102675,,,,,,,,-0.04,0.09,0.96,-3.3,-1.0,0.6,1020,0,,,,,,,,,,,,,,,,,
560288,1480295102695,,,,,,,,-0.03,0.1,0.97,-3.3,-0.9,0.6,1040,0,,,,,,,,,,,,,,,,,
560308,1480295102715,,,,,,,,-0.03,0.1,0.97,-3.3,-0.7,0.6,1020,0,,,,,,,,,,,,,,,,,
560328,1480295102735,,,,,1,,,-0.02,0.09,0.98,-3.3,-0.5,0.6,1060,0,0.0,0,37.478325,-122.203674,0.0,0.0,23.6,10,3,1.5,0,0.0,-1,0.0,,0.0,0
560348,1480295102755,,,,,,,,-0.01,0.09,0.98,-3.2,-0.3,0.5,1040,0,,,,,,,,,,,,,,,,,
560368,1480295102775,,,,,,,,-0.01,0.08,0.99,-3.2,-0.2,0.5,1040,0,,,,,,,,,,,,,,,,,
560388,1480295102795,,,,,,,,-0.01,0.07,0.98,-3.2,0.1,0.4,1040,0,,,,,,,,,,,,,,,,,
560408,1480295102815,,,,,,,,-0.02,0.06,0.97,-3.2,0.2,0.3,1040,0,,,,,,,,,,,,,,,,,
560428,1480295102835,0,47.1,0.0,45.2,1,48.0,,-0.02,0.07,0.97,-3.2,0.3,0.3,1040,0,0.0,0,37.478325,-122.203674,0.0,0.0,23.6,10,3,1.5,0,0.0,-1,0.0,0.0,0.0,0
560448,1480295102855,,,,,,,,-0.03,0.06,0.97,-3.2,0.4,0.2,1040,0,,,,,,,,,,,,,,,,,
560468,1480295102875,,,,,,,,-0.03,0.07,0.98,-3.1,0.4,0.2,1040,0,,,,,,,,,,,,,,,,,
560488,1480295102895,,,,,,,,-0.04,0.06,0.98,-3.1,0.3,0.1,1040,0,,,,,,,,,,,,,,,,,
560508,1480295102907,,,,,,,,-0.03,0.06,0.98,-3.1,0.3,0.2,1040,0,,,,,,,,,,,,,,,,,
560528,1480295102927,,,,,1,,,-0.04,0.06,0.97,-3.0,0.2,0.2,1040,0,0.0,0,37.478325,-122.203674,0.0,0.0,23.6,10,3,1.5,0,0.0,-1,0.0,,0.0,0
560548,1480295102947,,,,,,,,-0.04,0.07,0.98,-3.1,0.3,0.2,1040,0,,,,,,,,,,,,,,,,,
560568,1480295102967,,,,,,,,-0.05,0.08,0.98,-3.1,0.4,0.2,1040,0,,,,,,,,,,,,,,,,,
560588,1480295102995,,,,,,,,-0.05,0.09,1.0,-3.1,0.5,0.2,1040,0,,,,,,,,,,,,,,,,,
560608,1480295103015,,,,,,,,-0.05,0.09,1.0,-3.0,0.6,0.3,1020,0,,,,,,,,,,,,,,,,,
560628,1480295103035,0,49.1,0.1,47.6,1,47.4,15.0,-0.05,0.09,1.01,-3.0,0.6,0.3,1000,0,0.0,0,37.478325,-122.203674,0.0,0.0,23.6,10,3,1.6,0,0.0,-1,0.0,0.0,0.0,0
560648,1480295103055,,,,,,,,-0.06,0.08,1.02,-3.0,0.7,0.3,1000,0,,,,,,,,,,,,,,,,,
560668,1480295103075,,,,,,,,-0.06,0.08,1.02,-3.1,0.6,0.3,1000,0,,,,,,,,,,,,,,,,,
560688,1480295103095,,,,,,,,-0.06,0.08,1.03,-3.1,0.6,0.4,1020,0,,,,,,,,,,,,,,,,,
560708,1480295103115,,,,,,,,-0.07,0.08,1.03,-3.1,0.5,0.4,1000,0,,,,,,,,,,,,,,,,,
560728,1480295103135,,,,,1,,,-0.07,0.08,1.03,-3.1,0.4,0.4,1000,0,0.0,0,37.478325,-122.203674,0.0,0.0,23.6,10,3,1.6,0,0.0,-1,0.0,,0.0,0
560748,1480295103155,,,,,,,,-0.07,0.08,1.03,-3.1,0.3,0.5,1000,0,,,,,,,,,,,,,,,,,
560768,1480295103175,,,,,,,,-0.07,0.09,1.03,-3.2,0.1,0.5,1000,0,,,,,,,,,,,,,,,,,
560788,1480295103294,,,,,,,,-0.07,0.09,1.03,-3.2,0.0,0.5,1000,0,,,,,,,,,,,,,,,,,
560808,1480295103314,,,,,,,,-0.07,0.1,1.02,-3.2,-0.1,0.6,1000,0,,,,,,,,,,,,,,,,,
560828,1480295103334,0,49.6,0.0,47.9,1,48.5,,-0.07,0.1,1.02,-3.2,-0.3,0.6,1000,0,0.0,0,37.478325,-122.203674,0.0,0.0,23.6,10,3,1.6,0,0.0,-1,0.0,0.0,0.0,0
560848,1480295103354,,,,,,,,-0.07,0.1,1.02,-3.2,-0.4,0.6,1000,0,,,,,,,,,,,,,,,,,
560868,1480295103374,,,,,,,,-0.06,0.11,1.01,-3.3,-0.5,0.6,1000,0,,,,,,,,,,,,,,,,,
560888,1480295103394,,,,,,,,-0.06,0.11,1.0,-3.3,-0.7,0.7,1000,0,,,,,,,,,,,,,,,,,
560908,1480295103414,,,,,,,,-0.06,0.11,1.0,-3.3,-0.8,0.7,1000,0,,,,,,,,,,,,,,,,,
560928,1480295103434,,,,,0,,,-0.06,0.11,0.99,-3.3,-0.9,0.7,1000,0,0.0,0,37.478325,-122.203674,0.0,0.0,23.6,10,3,1.6,0,0.0,-1,0.0,,0.0,0
560948,1480295103454,,,,,,,,-0.06,0.11,0.99,-3.3,-0.9,0.7,1000,0,,,,,,,,,,,,,,,,,
560968,1480295103474,,,,,,,,-0.06,0.12,0.98,-3.3,-1.0,0.8,1000,0,,,,,,,,,,,,,,,,,
560988,1480295103395,,,,,,,,-0.05,0.12,0.98,-3.3,-1.0,0.8,1000,0,,,,,,,,,,,,,,,,,
561008,1480295103415,,,,,,,,-0.05,0.12,0.97,-3.3,-1.1,0.8,1000,0,,,,,,,,,,,,,,,,,
561028,1480295103435,0,48.1,0.0,45.9,1,48.9,,-0.05,0.12,0.97,-3.3,-1.0,0.8,1000,0,0.0,0,37.478325,-122.203674,0.0,0.0,23.6,10,3,1.6,0,0.0,-1,0.0,0.0,0.0,0
561048,1480295103455,,,,,,,,-0.05,0.12,0.96,-3.3,-1.0,0.8,1000,0,,,,,,,,,,,,,,,,,
561068,1480295103475,,,,,,,,-0.05,0.12,0.96,-3.3,-1.1,0.8,1000,0,,,,,,,,,,,,,,,,,
561088,1480295103495,,,,,,,,-0.05,0.12,0.96,-3.3,-1.0,0.7,1000,0,,,,,,,,,,,,,,,,,
561108,1480295103515,,,,,,,,-0.04,0.12,0.96,-3.3,-0.9,0.7,1000,0,,,,,,,,,,,,,,,,,
561128,1480295103535,,,,,1,,,-0.04,0.11,0.96,-3.3,-0.8,0.7,1000,0,0.0,0,37.478325,-122.203674,0.0,0.0,23.6,10,3,1.6,0,0.0,-1,0.0,,0.0,0
561148,1480295103555,,,,,,,,-0.03,0.1,0.96,-3.3,-0.6,0.7,1020,0,,,,,,,,,,,,,,,,,
561168,1480295103575,,,,,,,,-0.03,0.1,0.96,-3.3,-0.5,0.6,1020,0,,,,,,,,,,,,,,,,,
561188,1480295103595,,,,,,,,-0.02,0.1,0.97,-3.3,-0.3,0.6,1020,0,,,,,,,,,,,,,,,,,
561208,1480295103615,,,,,,,,-0.01,0.09,0.98,-3.3,-0.1,0.5,1000,0,,,,,,,,,,,,,,,,,
561228,1480295103635,1,48.0,0.0,46.8,1,47.0,,-0.01,0.08,0.98,-3.3,0.1,0.5,1000,0,0.0,0,37.478325,-122.203674,0.0,0.0,23.6,10,3,1.6,0,0.0,-1,0.0,0.0,0.0,0
561248,1480295103655,,,,,,,,-0.0,0.07,0.98,-3.3,0.3,0.4,1000,0,,,,,,,,,,,,,,,,,
561268,1480295103675,,,,,,,,-0.0,0.07,0.98,-3.3,0.4,0.3,1020,0,,,,,,,,,,,,,,,,,
561288,1480295103695,,,,,,,,0.0,0.06,0.98,-3.2,0.6,0.2,1020,0,,,,,,,,,,,,,,,,,
561308,1480295103715,,,,,,,,0.01,0.05,0.98,-3.2,0.7,0.1,1020,0,,,,,,,,,,,,,,,,,
561328,1480295103735,,,,,1,,,0.0,0.04,0.97,-3.2,0.9,0.1,1020,0,0.0,0,37.478325,-122.203674,0.0,0.0,23.6,10,3,1.6,0,0.0,-1,0.0,,0.0,0
561348,1480295103755,,,,,,,,0.0,0.04,0.96,-3.2,0.9,0.0,1020,0,,,,,,,,,,,,,,,,,
561368,1480295103775,,,,,,,,-0.01,0.04,0.96,-3.2,1.0,0.0,1020,0,,,,,,,,,,,,,,,,,
561388,1480295103795,,,,,,,,-0.01,0.04,0.96,-3.2,1.0,0.0,1040,0,,,,,,,,,,,,,,,,,
561408,1480295103815,,,,,,,,-0.02,0.04,0.96,-3.2,1.0,-0.0,1040,0,,,,,,,,,,,,,,,,,
561428,1480295103835,0,47.2,0.0,45.4,1,48.2,,-0.03,0.04,0.96,-3.1,1.0,-0.0,1040,0,0.0,0,37.478325,-122.203674,0.0,0.0,23.6,10,3,1.6,0,0.0,-1,0.0,0.0,0.0,0
561448,1480295103855,,,,,,,,-0.03,0.04,0.97,-3.1,0.9,-0.1,1040,0,,,,,,,,,,,,,,,,,
561468,1480295103875,,,,,,,,-0.04,0.03,0.98,-3.1,0.7,-0.1,1040,0,,,,,,,,,,,,,,,,,
561488,1480295103895,,,,,,,,-0.04,0.04,0.97,-3.1,0.6,-0.0,1040,0,,,,,,,,,,,,,,,,,
561508,1480295103906,,,,,,,,-0.04,0.05,0.97,-3.1,0.5,0.0,1040,0,,,,,,,,,,,,,,,,,
561528,1480295103926,,,,,2,,,-0.05,0.06,0.98,-3.1,0.4,0.1,1040,0,0.0,0,37.478325,-122.203674,0.0,0.0,23.6,10,3,1.6,0,0.0,-1,0.0,,0.0,0
561548,1480295103946,,,,,,,,-0.05,0.08,0.98,-3.1,0.5,0.2,1040,0,,,,,,,,,,,,,,,,,
561568,1480295103966,,,,,,,,-0.05,0.08,0.99,-3.1,0.5,0.2,1040,0,,,,,,,,,,,,,,,,,
561588,1480295104095,,,,,,,,-0.06,0.08,1.0,-3.1,0.6,0.3,1040,0,,,,,,,,,,,,,,,,,
561608,1480295104115,,,,,,,,-0.06,0.08,1.0,-3.1,0.5,0.3,1040,0,,,,,,,,,,,,,,,,,
561628,1480295104135,0,49.1,0.2,47.0,2,50.1,14.93,-0.06,0.08,0.99,-3.1,0.3,0.4,1040,0,0.0,0,37.478325,-122.203674,0.0,0.0,23.6,10,3,1.6,0,0.0,-1,0.0,0.0,0.0,0
561648,1480295104155,,,,,,,,-0.06,0.09,0.99,-3.2,0.2,0.4,1040,0,,,,,,,,,,,,,,,,,
561668,1480295104175,,,,,,,,-0.05,0.09,0.99,-3.2,0.1,0.4,1040,0,,,,,,,,,,,,,,,,,
561688,1480295104195,,,,,,,,-0.05,0.08,0.99,-3.2,0.1,0.4,1040,0,,,,,,,,,,,,,,,,,
561708,1480295104215,,,,,,,,-0.03,0.07,0.99,-3.2,0.3,0.3,1040,0,,,,,,,,,,,,,,,,,
561728,1480295104235,,,,,5,,,-0.03,0.06,0.99,-3.2,0.4,0.2,1040,0,0.0,0,37.478325,-122.203674,0.0,0.0,23.6,10,3,1.6,0,0.0,-1,0.0,,0.0,0
561748,1480295104255,,,,,,,,-0.03,0.05,0.98,-3.2,0.5,0.2,1020,0,,,,,,,,,,,,,,,,,
561768,1480295104275,,,,,,,,-0.03,0.05,0.97,-3.2,0.5,0.1,1020,0,,,,,,,,,,,,,,,,,
561788,1480295104195,,,,,,,,-0.03,0.05,0.97,-3.2,0.6,0.1,1020,0,,,,,,,,,,,,,,,,,
561808,1480295104215,,,,,,,,-0.03,0.04,0.97,-3.2,0.7,0.1,1000,0,,,,,,,,,,,,,,,,,
561828,1480295104235,0,47.3,0.0,45.6,6,48.0,,-0.04,0.05,0.96,-3.1,0.7,0.1,1000,0,0.0,0,37.478325,-122.203674,0.0,0.0,23.6,10,3,1.6,0,0.0,-1,0.0,0.0,0.0,0
561848,1480295104255,,,,,,,,-0.04,0.05,0.96,-3.1,0.7,0.0,1020,0,,,,,,,,,,,,,,,,,
561868,1480295104275,,,,,,,,-0.04,0.05,0.96,-3.1,0.7,-0.0,1000,0,,,,,,,,,,,,,,,,,
561888,1480295104295,,,,,,,,-0.04,0.05,0.96,-3.1,0.7,-0.0,1000,0,,,,,,,,,,,,,,,,,
561908,1480295104315,,,,,,,,-0.05,0.05,0.96,-3.1,0.6,-0.1,1000,0,,,,,,,,,,,,,,,,,
561928,1480295104335,,,,,8,,,-0.05,0.05,0.97,-3.0,0.6,-0.1,1000,0,0.0,0,37.478325,-122.203674,0.0,0.0,23.6,10,3,1.6,0,0.0,-1,0.0,,0.0,0
561948,1480295104355,,,,,,,,-0.06,0.04,0.97,-3.0,0.6,-0.1,1000,0,,,,,,,,,,,,,,,,,
561968,1480295104375,,,,,,,,-0.06,0.03,0.98,-3.0,0.6,-0.1,1000,0,,,,,,,,,,,,,,,,,
561988,1480295104395,,,,,,,,-0.06,0.03,0.98,-3.0,0.5,-0.1,1000,0,,,,,,,,,,,,,,,,,
562008,1480295104415,,,,,,,,-0.06,0.03,0.98,-3.0,0.5,-0.2,1000,0,,,,,,,,,,,,,,,,,
562028,1480295104435,0,47.3,0.0,45.9,13,48.4,,-0.07,0.02,0.98,-3.0,0.5,-0.2,1000,0,0.0,0,37.478325,-122.203674,0.0,0.0,23.6,10,3,1.6,0,0.0,-1,0.0,0.0,0.0,0
562048,1480295104455,,,,,,,,-0.07,0.02,0.99,-3.0,0.3,-0.2,1000,0,,,,,,,,,,,,,,,,,
562068,1480295104475,,,,,,,,-0.07,0.02,0.99,-3.0,0.3,-0.2,1000,0,,,,,,,,,,,,,,,,,
562088,1480295104495,,,,,,,,-0.07,0.02,0.99,-2.9,0.2,-0.1,1000,0,,,,,,,,,,,,,,,,,
562108,1480295104515,,,,,,,,-0.07,0.02,0.99,-2.9,0.2,-0.1,1000,0,,,,,,,,,,,,,,,,,
562128,1480295104535,,,,,24,,,-0.06,0.03,0.99,-3.0,0.1,-0.1,1000,0,0.0,0,37.478325,-122.203674,0.0,0.0,23.6,10,3,1.6,0,0.0,-1,0.0,,0.0,0
562148,1480295104555,,,,,,,,-0.06,0.04,0.99,-3.0,0.1,-0.1,1000,0,,,,,,,,,,,,,,,,,
562168,1480295104575,,,,,,,,-0.06,0.04,0.99,-3.0,0.1,-0.0,1000,0,,,,,,,,,,,,,,,,,
562188,1480295104595,,,,,,,,-0.06,0.05,0.99,-3.0,0.0,0.0,1000,0,,,,,,,,,,,,,,,,,
562208,1480295104610,,,,,,,,-0.06,0.06,0.98,-3.0,0.0,0.1,1020,0,,,,,,,,,,,,,,,,,
562228,1480295104630,0,50.2,0.29,47.5,27,49.7,,-0.06,0.07,0.98,-3.0,0.1,0.1,1000,0,0.0,0,37.478325,-122.203674,0.0,0.0,23.6,10,3,1.6,0,0.0,-1,0.0,0.0,0.0,0
562248,1480295104650,,,,,,,,-0.06,0.08,0.98,-3.0,0.1,0.2,1000,0,,,,,,,,,,,,,,,,,
562268,1480295104670,,,,,,,,-0.07,0.09,0.98,-3.0,0.2,0.2,1000,0,,,,,,,,,,,,,,,,,
562288,1480295104696,,,,,,,,-0.07,0.11,0.98,-3.0,0.4,0.3,1000,0,,,,,,,,,,,,,,,,,
562308,1480295104716,,,,,,,,-0.07,0.11,0.98,-3.0,0.5,0.3,1000,0,,,,,,,,,,,,,,,,,
562328,1480295104736,,,,,32,,,-0.07,0.12,0.99,-3.0,0.6,0.3,1020,0,0.0,0,37.478325,-122.203674,0.0,0.0,23.6,10,3,1.6,0,0.0,-1,0.0,,0.0,0
562348,1480295104756,,,,,,,,-0.07,0.12,1.0,-3.1,0.7,0.3,1020,0,,,,,,,,,,,,,,,,,
562368,1480295104776,,,,,,,,-0.07,0.11,1.01,-3.0,0.8,0.3,1000,0,,,,,,,,,,,,,,,,,
562388,1480295104895,,,,,,,,-0.07,0.11,1.02,-3.1,0.8,0.3,1000,0,,,,,,,,,,,,,,,,,
562408,1480295104915,,,,,,,,-0.07,0.11,1.02,-3.1,0.9,0.3,980,0,,,,,,,,,,,,,,,,,
562428,1480295104935,0,49.7,0.1,47.1,40,49.2,,-0.07,0.11,1.03,-3.1,0.9,0.3,1000,0,0.0,0,37.478325,-122.203674,0.0,0.0,23.6,10,3,1.6,0,0.0,-1,0.0,0.0,0.0,0
562448,1480295104955,,,,,,,,-0.08,0.11,1.04,-3.1,0.9,0.3,1000,0,,,,,,,,,,,,,,,,,
562468,1480295104975,,,,,,,,-0.08,0.1,1.04,-3.1,1.1,0.3,1000,0,,,,,,,,,,,,,,,,,
562488,1480295104995,,,,,,,,-0.08,0.09,1.04,-3.1,1.1,0.3,1000,0,,,,,,,,,,,,,,,,,
562508,1480295105015,,,,,,,,-0.08,0.09,1.04,-3.1,1.0,0.3,1000,0,,,,,,,,,,,,,,,,,
562528,1480295105035,,,,,48,,,-0.09,0.09,1.04,-3.1,1.0,0.3,1000,0,0.0,0,37.478325,-122.203674,0.0,0.0,23.6,10,3,1.6,0,0.0,-1,0.0,,0.0,0
562548,1480295105055,,,,,,,,-0.09,0.09,1.04,-3.2,1.0,0.4,1000,0,,,,,,,,,,,,,,,,,
562568,1480295105075,,,,,,,,-0.09,0.08,1.05,-3.1,0.9,0.4,1000,0,,,,,,,,,,,,,,,,,
562588,1480295104995,,,,,,,,-0.09,0.08,1.05,-3.2,1.0,0.4,1000,0,,,,,,,,,,,,,,,,,
562608,1480295105015,,,,,,,,-0.09,0.08,1.05,-3.2,1.0,0.4,980,0,,,,,,,,,,,,,,,,,
562628,1480295105035,0,48.8,0.0,44.6,50,47.4,15.01,-0.09,0.09,1.04,-3.2,0.9,0.4,980,0,0.0,0,37.478325,-122.203674,0.0,0.0,23.6,10,3,1.6,0,0.0,-1,0.0,0.0,0.0,0
562648,1480295105055,,,,,,,,-0.09,0.08,1.05,-3.2,0.8,0.4,1000,0,,,,,,,,,,,,,,,,,
562668,1480295105075,,,,,,,,-0.09,0.08,1.05,-3.2,0.8,0.5,1000,0,,,,,,,,,,,,,,,,,
562688,1480295105096,,,,,,,,-0.1,0.09,1.05,-3.2,0.8,0.5,1000,0,,,,,,,,,,,,,,,,,
562708,1480295105116,,,,,,,,-0.1,0.09,1.05,-3.2,0.8,0.5,1000,0,,,,,,,,,,,,,,,,,
562728,1480295105136,,,,,53,,,-0.1,0.09,1.05,-3.2,0.7,0.5,1000,0,0.0,0,37.478325,-122.203674,0.0,0.0,23.6,10,3,1.6,0,0.0,-1,0.0,,0.0,0
562748,1480295105156,,,,,,,,-0.1,0.09,1.04,-3.2,0.6,0.5,980,0,,,,,,,,,,,,,,,,,
562768,1480295105176,,,,,,,,-0.1,0.09,1.04,-3.2,0.5,0.5,980,0,,,,,,,,,,,,,,,,,
562788,1480295105195,,,,,,,,-0.1,0.1,1.04,-3.3,0.5,0.5,980,0,,,,,,,,,,,,,,,,,
562808,1480295105215,,,,,,,,-0.1,0.1,1.04,-3.2,0.5,0.5,980,0,,,,,,,,,,,,,,,,,
562828,1480295105235,0,47.1,0.0,44.4,55,46.8,,-0.1,0.1,1.04,-3.3,0.6,0.5,980,0,0.0,0,37.478325,-122.203674,0.0,0.0,23.6,10,3,1.6,0,0.0,-1,0.0,0.0,0.0,0
562848,1480295105255,,,,,,,,-0.1,0.09,1.04,-3.3,0.6,0.5,980,0,,,,,,,,,,,,,,,,,
562868,1480295105275,,,,,,,,-0.1,0.1,1.04,-3.3,0.6,0.5,980,0,,,,,,,,,,,,,,,,,
562888,1480295105296,,,,,,,,-0.1,0.1,1.05,-3.3,0.7,0.5,960,0,,,,,,,,,,,,,,,,,
562908,1480295105316,,,,,,,,-0.1,0.1,1.05,-3.3,0.7,0.5,980,0,,,,,,,,,,,,,,,,,
562928,1480295105336,,,,,55,,,-0.1,0.1,1.05,-3.3,0.8,0.5,980,0,0.0,0,37.478325,-122.203674,0.0,0.0,23.6,10,3,1.6,0,0.0,-1,0.0,,0.0,0
562948,1480295105356,,,,,,,,-0.09,0.1,1.06,-3.3,1.0,0.5,980,0,,,,,,,,,,,,,,,,,
562968,1480295105376,,,,,,,,-0.1,0.1,1.05,-3.2,1.0,0.5,980,0,,,,,,,,,,,,,,,,,
562988,1480295105396,,,,,,,,-0.09,0.1,1.05,-3.2,1.0,0.5,980,0,,,,,,,,,,,,,,,,,
563008,1480295105416,,,,,,,,-0.09,0.1,1.04,-3.2,1.1,0.5,980,0,,,,,,,,,,,,,,,,,
563028,1480295105436,0,46.9,0.0,45.3,55,47.4,,-0.09,0.1,1.04,-3.2,1.1,0.5,980,0,0.0,0,37.478325,-122.203674,0.0,0.0,23.6,10,3,1.6,0,0.0,-1,0.0,0.0,0.0,0
563048,1480295105456,,,,,,,,-0.09,0.11,1.04,-3.2,1.0,0.5,980,0,,,,,,,,,,,,,,,,,
563068,1480295105476,,,,,,,,-0.09,0.11,1.03,-3.1,1.0,0.4,980,0,,,,,,,,,,,,,,,,,
563088,1480295105496,,,,,,,,-0.08,0.11,1.03,-3.1,1.0,0.4,980,0,,,,,,,,,,,,,,,,,
563108,1480295105516,,,,,,,,-0.08,0.11,1.02,-3.1,1.0,0.4,980,0,,,,,,,,,,,,,,,,,
563128,1480295105536,,,,,56,,,-0.08,0.12,1.01,-3.1,0.9,0.5,980,0,0.0,0,37.478325,-122.203674,0.0,0.0,23.6,10,3,1.6,0,0.0,-1,0.0,,0.0,0
563148,1480295105556,,,,,,,,-0.08,0.12,1.01,-3.1,0.8,0.5,980,0,,,,,,,,,,,,,,,,,
563168,1480295105576,,,,,,,,-0.08,0.13,1.0,-3.1,0.7,0.5,980,0,,,,,,,,,,,,,,,,,
563188,1480295105694,,,,,,,,-0.08,0.13,1.0,-3.1,0.6,0.5,980,0,,,,,,,,,,,,,,,,,
563208,1480295105714,,,,,,,,-0.08,0.13,1.0,-3.1,0.6,0.5,980,0,,,,,,,,,,,,,,,,,
563228,1480295105734,0,50.2,0.58,47.4,59,49.7,,-0.07,0.13,0.99,-3.1,0.6,0.5,980,0,0.0,0,37.478325,-122.203674,0.0,0.0,23.6,10,3,1.6,0,0.0,-1,0.0,0.0,0.0,0
563248,1480295105754,,,,,,,,-0.07,0.13,0.99,-3.1,0.5,0.5,980,0,,,,,,,,,,,,,,,,,
