"Interval"|"ms"|0|0|1,"Utc"|"ms"|0|0|1,"FuelLevel"|"F"|0|100|5,"OilTemp"|"F"|0.0|300.0|5,"CoolantPressPSI"|"PSI"|0.0|20.0|1,"Coolant"|"F"|0.0|300.0|5,"OilPress"|"PSI"|0|150|10,"EngineTemp"|"F"|0.0|300.0|5,"Battery"|"Volts"|0.0|20.0|1,"AccelX"|"G"|-3.0|3.0|50,"AccelY"|"G"|-3.0|3.0|50,"AccelZ"|"G"|-3.0|3.0|50,"Yaw"|"Deg/Sec"|-300.0|300.0|50,"Pitch"|"Deg/Sec"|-300.0|300.0|50,"Roll"|"Deg/Sec"|-300.0|300.0|50,"RPM"|""|0|10000|50,"Driveshaft"|"RPM"|0|5000|50,"GPIO1"|""|0|1|10,"GPIO2"|""|0|1|10,"GearRatio"|""|-5.0|5.0|10,"Gear"|""|-1|5|10,"Latitude"|"Degrees"|-180.0|180.0|10,"Longitude"|"Degrees"|-180.0|180.0|10,"Speed"|"mph"|0.0|150.0|10,"Distance"|"mi"|0.0|0.0|10,"Altitude"|"ft"|0.0|4000.0|10,"GPSSats"|""|0|20|10,"GPSQual"|""|0|5|10,"GPSDOP"|""|0.0|20.0|10,"LapCount"|""|0|0|10,"LapTime"|"Min"|0.0|0.0|10,"Sector"|""|0|0|10,"SectorTime"|"Min"|0.0|0.0|10,"PredTime"|"Min"|0.0|0.0|10,"ElapsedTime"|"Min"|0.0|0.0|10,"CurrentLap"|""|0|0|10
49454,1489962456169,,,,,,,,0.03,0.06,0.99,-3.1,0.3,-0.1,820,0,,,,,,,,,,,,,,,,,,,
49474,1489962456189,0,54.6,,54.1,52,54.0,,0.03,0.06,1.0,-3.1,0.4,-0.2,820,0,1,1,0.0,0,37.478252,-122.203735,0.0,0.0,100.7,4,2,0.7,0,0.0,-1,0.0,0.0,0.0,0
49494,1489962456209,,,,,,,,0.03,0.06,1.0,-3.1,0.4,-0.2,820,0,,,,,,,,,,,,,,,,,,,
49514,1489962456243,,,,,,,,0.03,0.05,0.99,-3.1,0.4,-0.2,820,0,,,,,,,,,,,,,,,,,,,
49534,1489962456263,,,,,,,,0.03,0.06,0.99,-3.1,0.3,-0.2,840,0,,,,,,,,,,,,,,,,,,,
49554,1489962456283,,,,,,,,0.03,0.06,0.99,-3.1,0.3,-0.2,840,0,,,,,,,,,,,,,,,,,,,
49574,1489962456303,,,,,52,,,0.03,0.06,0.99,-3.1,0.2,-0.1,860,0,1,1,0.0,0,37.478256,-122.203735,0.0,0.0,68.9,4,3,0.7,0,0.0,-1,0.0,0.0,0.0,0
49594,1489962456323,,,,,,,,0.03,0.06,0.99,-3.1,0.1,-0.1,820,0,,,,,,,,,,,,,,,,,,,
49614,1489962456343,,,,,,,,0.03,0.06,0.99,-3.1,0.2,-0.2,840,0,,,,,,,,,,,,,,,,,,,
49634,1489962456363,,,,,,,,0.03,0.05,0.99,-3.1,0.3,-0.2,840,0,,,,,,,,,,,,,,,,,,,
49654,1489962456383,,,,,,,,0.04,0.06,0.99,-3.1,0.2,-0.2,820,0,,,,,,,,,,,,,,,,,,,
49674,1489962456403,0,54.2,,54.8,51,54.6,,0.04,0.06,0.99,-3.1,0.3,-0.2,840,0,1,1,0.0,0,37.478256,-122.203735,0.0,0.0,56.3,4,3,0.7,0,0.0,-1,0.0,0.0,0.0,0
49694,1489962456423,,,,,,,,0.04,0.07,0.99,-3.1,0.3,-0.1,840,0,,,,,,,,,,,,,,,,,,,
49714,1489962456442,,,,,,,,0.03,0.07,1.0,-3.1,0.3,-0.1,860,0,,,,,,,,,,,,,,,,,,,
49734,1489962456462,,,,,,,,0.03,0.06,1.0,-3.1,0.2,-0.2,800,0,,,,,,,,,,,,,,,,,,,
49754,1489962456482,,,,,,,,0.03,0.06,1.0,-3.1,0.2,-0.2,800,0,,,,,,,,,,,,,,,,,,,
49774,1489962456502,,,,,51,,,0.03,0.06,0.99,-3.1,0.2,-0.2,820,0,1,1,0.0,0,37.478256,-122.203735,0.0,0.0,52.4,4,3,0.7,0,0.0,-1,0.0,0.0,0.0,0
49794,1489962456522,,,,,,,,0.03,0.06,0.99,-3.1,0.2,-0.2,820,0,,,,,,,,,,,,,,,,,,,
49814,1489962456542,,,,,,,,0.04,0.06,0.98,-3.1,0.2,-0.1,840,0,,,,,,,,,,,,,,,,,,,
49834,1489962456560,,,,,,,,0.03,0.07,0.99,-3.1,0.2,-0.1,840,0,,,,,,,,,,,,,,,,,,,
49854,1489962456580,,,,,,,,0.03,0.07,0.99,-3.1,0.2,-0.1,840,0,,,,,,,,,,,,,,,,,,,
49874,1489962456600,1,53.2,,54.5,51,52.4,,0.02,0.06,0.99,-3.1,0.3,-0.2,800,0,1,1,0.0,0,37.478256,-122.203735,0.0,0.0,44.6,5,3,0.4,0,0.0,-1,0.0,0.0,0.0,0
49894,1489962456620,,,,,,,,0.02,0.06,1.0,-3.1,0.4,-0.2,800,0,,,,,,,,,,,,,,,,,,,
49914,1489962456640,,,,,,,,0.02,0.06,0.99,-3.1,0.3,-0.2,820,0,,,,,,,,,,,,,,,,,,,
49934,1489962456660,,,,,,,,0.02,0.06,0.99,-3.1,0.3,-0.1,820,0,,,,,,,,,,,,,,,,,,,
49954,1489962456680,,,,,,,,0.02,0.07,1.0,-3.1,0.2,-0.1,840,0,,,,,,,,,,,,,,,,,,,
49974,1489962456700,,,,,51,,,0.02,0.07,1.0,-3.1,0.1,-0.1,840,0,1,1,0.0,0,37.47826,-122.203735,0.0,0.0,36.9,5,3,0.4,0,0.0,-1,0.0,0.0,0.0,0
49994,1489962456720,,,,,,,,0.02,0.07,1.0,-3.1,0.1,-0.2,860,0,,,,,,,,,,,,,,,,,,,
50014,1489962456740,,,,,,,,0.02,0.07,1.0,-3.1,0.3,-0.2,860,0,,,,,,,,,,,,,,,,,,,
50034,1489962456760,,,,,,,,0.03,0.07,1.0,-3.1,0.3,-0.2,820,0,,,,,,,,,,,,,,,,,,,
50054,1489962456780,,,,,,,,0.03,0.07,1.0,-3.1,0.4,-0.2,840,0,,,,,,,,,,,,,,,,,,,
50074,1489962456800,0,54.0,14.4,55.5,51,53.9,14.93,0.03,0.07,1.0,-3.1,0.4,-0.1,840,0,1,1,0.0,0,37.47826,-122.203728,0.0,0.0,30.2,5,3,0.4,0,0.0,-1,0.0,0.0,0.0,0
50094,1489962456820,,,,,,,,0.02,0.07,1.01,-3.1,0.4,-0.1,840,0,,,,,,,,,,,,,,,,,,,
50114,1489962456842,,,,,,,,0.02,0.07,1.0,-3.1,0.4,-0.1,840,0,,,,,,,,,,,,,,,,,,,
50134,1489962456862,,,,,,,,0.02,0.07,1.0,-3.1,0.3,-0.2,860,0,,,,,,,,,,,,,,,,,,,
50154,1489962456882,,,,,,,,0.03,0.06,1.0,-3.0,0.3,-0.2,860,0,,,,,,,,,,,,,,,,,,,
50174,1489962456902,,,,,51,,,0.03,0.07,0.99,-3.1,0.3,-0.2,820,0,1,1,0.0,0,37.47826,-122.203728,0.0,0.0,24.9,5,3,0.4,0,0.0,-1,0.0,0.0,0.0,0
50194,1489962456922,,,,,,,,0.03,0.07,0.99,-3.1,0.4,-0.2,840,0,,,,,,,,,,,,,,,,,,,
50214,1489962456942,,,,,,,,0.03,0.07,0.99,-3.1,0.3,-0.1,840,0,,,,,,,,,,,,,,,,,,,
50234,1489962456942,,,,,,,,0.03,0.07,1.0,-3.1,0.4,-0.2,840,0,,,,,,,,,,,,,,,,,,,
50254,1489962456962,,,,,,,,0.03,0.07,1.0,-3.1,0.3,-0.2,840,0,,,,,,,,,,,,,,,,,,,
50274,1489962456982,0,52.6,,54.3,51,53.9,,0.03,0.07,1.0,-3.1,0.3,-0.2,840,0,1,1,0.0,0,37.47826,-122.203728,0.0,0.0,21.5,5,3,0.4,0,0.0,-1,0.0,0.0,0.0,0
50294,1489962457002,,,,,,,,0.03,0.06,0.99,-3.1,0.2,-0.2,860,0,,,,,,,,,,,,,,,,,,,
50314,1489962457022,,,,,,,,0.03,0.06,0.99,-3.1,0.2,-0.2,820,0,,,,,,,,,,,,,,,,,,,
50334,1489962457060,,,,,,,,0.03,0.07,0.99,-3.1,0.2,-0.1,820,0,,,,,,,,,,,,,,,,,,,
50354,1489962457080,,,,,,,,0.03,0.06,0.99,-3.1,0.1,-0.2,820,0,,,,,,,,,,,,,,,,,,,
50374,1489962457100,,,,,49,,,0.03,0.07,0.99,-3.1,0.1,-0.2,820,0,1,1,0.0,0,37.478264,-122.203728,0.0,0.0,18.9,5,3,0.4,0,0.0,-1,0.0,0.0,0.0,0
50394,1489962457120,,,,,,,,0.03,0.06,0.99,-3.1,0.2,-0.2,820,0,,,,,,,,,,,,,,,,,,,
50414,1489962457140,,,,,,,,0.04,0.06,0.99,-3.1,0.2,-0.3,820,0,,,,,,,,,,,,,,,,,,,
50434,1489962457160,,,,,,,,0.04,0.06,0.98,-3.1,0.2,-0.2,840,0,,,,,,,,,,,,,,,,,,,
50454,1489962457180,,,,,,,,0.03,0.07,0.99,-3.1,0.2,-0.2,800,0,,,,,,,,,,,,,,,,,,,
50474,1489962457200,0,53.6,,54.3,52,53.9,,0.03,0.07,0.99,-3.1,0.2,-0.2,820,0,1,1,0.0,0,37.478264,-122.203728,0.0,0.0,18.9,5,3,0.4,0,0.0,-1,0.0,0.0,0.0,0
50494,1489962457220,,,,,,,,0.03,0.06,0.99,-3.1,0.1,-0.2,820,0,,,,,,,,,,,,,,,,,,,
50514,1489962457240,,,,,,,,0.03,0.05,0.99,-3.1,0.2,-0.2,820,0,,,,,,,,,,,,,,,,,,,
50534,1489962457260,,,,,,,,0.03,0.06,0.99,-3.1,0.2,-0.3,820,0,,,,,,,,,,,,,,,,,,,
50554,1489962457280,,,,,,,,0.04,0.06,0.98,-3.1,0.1,-0.2,840,0,,,,,,,,,,,,,,,,,,,
50574,1489962457300,,,,,51,,,0.04,0.06,0.98,-3.1,0.2,-0.2,860,0,1,1,0.0,0,37.478264,-122.203728,0.0,0.0,18.9,5,3,0.4,0,0.0,-1,0.0,0.0,0.0,0
50594,1489962457320,,,,,,,,0.03,0.06,0.99,-3.1,0.1,-0.2,820,0,,,,,,,,,,,,,,,,,,,
50614,1489962457340,,,,,,,,0.03,0.06,0.99,-3.1,0.2,-0.2,840,0,,,,,,,,,,,,,,,,,,,
50634,1489962457360,,,,,,,,0.03,0.06,0.99,-3.1,0.3,-0.2,840,0,,,,,,,,,,,,,,,,,,,
50654,1489962457380,,,,,,,,0.03,0.06,0.99,-3.1,0.3,-0.2,840,0,,,,,,,,,,,,,,,,,,,
50674,1489962457400,0,53.5,,53.5,51,53.9,,0.03,0.06,0.99,-3.1,0.2,-0.2,840,0,1,1,0.0,0,37.478264,-122.203728,0.0,0.0,18.9,5,3,0.4,0,0.0,-1,0.0,0.0,0.0,0
50694,1489962457420,,,,,,,,0.03,0.06,0.99,-3.1,0.2,-0.1,840,0,,,,,,,,,,,,,,,,,,,
50714,1489962457440,,,,,,,,0.03,0.06,0.99,-3.1,0.2,-0.1,860,0,,,,,,,,,,,,,,,,,,,
50734,1489962457457,,,,,,,,0.03,0.07,0.99,-3.1,0.1,-0.2,820,0,,,,,,,,,,,,,,,,,,,
50754,1489962457477,,,,,,,,0.03,0.07,0.99,-3.1,0.1,-0.2,840,0,,,,,,,,,,,,,,,,,,,
50774,1489962457497,,,,,50,,,0.03,0.06,0.99,-3.1,0.2,-0.2,840,0,1,1,0.0,0,37.478264,-122.203728,0.0,0.0,18.9,5,3,0.4,0,0.0,-1,0.0,0.0,0.0,0
50794,1489962457517,,,,,,,,0.04,0.06,0.99,-3.1,0.2,-0.3,840,0,,,,,,,,,,,,,,,,,,,
50814,1489962457537,,,,,,,,0.04,0.06,0.99,-3.1,0.3,-0.2,840,0,,,,,,,,,,,,,,,,,,,
50834,1489962457557,,,,,,,,0.04,0.06,0.99,-3.1,0.3,-0.2,840,0,,,,,,,,,,,,,,,,,,,
50854,1489962457577,,,,,,,,0.03,0.06,1.0,-3.1,0.2,-0.2,860,0,,,,,,,,,,,,,,,,,,,
50874,1489962457597,0,51.7,,53.7,51,53.4,,0.02,0.06,1.0,-3.1,0.2,-0.2,820,0,1,1,0.0,0,37.478264,-122.203728,0.0,0.0,18.9,5,3,0.4,0,0.0,-1,0.0,0.0,0.0,0
50894,1489962457617,,,,,,,,0.03,0.05,1.0,-3.1,0.1,-0.2,840,0,,,,,,,,,,,,,,,,,,,
50914,1489962457637,,,,,,,,0.03,0.05,0.99,-3.1,0.2,-0.2,840,0,,,,,,,,,,,,,,,,,,,
50934,1489962457655,,,,,,,,0.03,0.06,0.99,-3.1,0.2,-0.2,840,0,,,,,,,,,,,,,,,,,,,
50954,1489962457675,,,,,,,,0.03,0.06,0.99,-3.1,0.3,-0.2,840,0,,,,,,,,,,,,,,,,,,,
50974,1489962457695,,,,,51,,,0.03,0.06,0.99,-3.1,0.3,-0.1,840,0,1,1,0.0,0,37.478264,-122.203728,0.0,0.0,18.9,5,3,0.4,0,0.0,-1,0.0,0.0,0.0,0
50994,1489962457715,,,,,,,,0.03,0.07,1.0,-3.1,0.3,-0.2,840,0,,,,,,,,,,,,,,,,,,,
51014,1489962457735,,,,,,,,0.03,0.06,1.0,-3.1,0.3,-0.2,820,0,,,,,,,,,,,,,,,,,,,
51034,1489962457755,,,,,,,,0.02,0.06,1.0,-3.1,0.3,-0.2,820,0,,,,,,,,,,,,,,,,,,,
51054,1489962457775,,,,,,,,0.03,0.07,1.0,-3.1,0.2,-0.2,820,0,,,,,,,,,,,,,,,,,,,
51074,1489962457795,0,53.2,14.3,53.0,51,53.3,14.94,0.03,0.06,0.99,-3.1,0.1,-0.2,820,0,1,1,0.0,0,37.478264,-122.203728,0.0,0.0,18.9,5,3,0.4,0,0.0,-1,0.0,0.0,0.0,0
51094,1489962457815,,,,,,,,0.03,0.07,0.99,-3.1,0.1,-0.1,820,0,,,,,,,,,,,,,,,,,,,
51114,1489962457835,,,,,,,,0.03,0.06,0.99,-3.1,0.1,-0.1,820,0,,,,,,,,,,,,,,,,,,,
51134,1489962457859,,,,,,,,0.03,0.07,1.0,-3.1,0.1,-0.2,840,0,,,,,,,,,,,,,,,,,,,
51154,1489962457879,,,,,,,,0.03,0.06,0.99,-3.1,0.2,-0.2,840,0,,,,,,,,,,,,,,,,,,,
51174,1489962457899,,,,,51,,,0.03,0.06,0.99,-3.1,0.2,-0.2,800,0,1,1,0.0,0,37.478264,-122.203728,0.0,0.0,18.9,5,3,0.4,0,0.0,-1,0.0,0.0,0.0,0
51194,1489962457919,,,,,,,,0.03,0.06,0.99,-3.1,0.3,-0.2,820,0,,,,,,,,,,,,,,,,,,,
51214,1489962457939,,,,,,,,0.03,0.07,0.99,-3.1,0.3,-0.1,820,0,,,,,,,,,,,,,,,,,,,
51234,1489962457949,,,,,,,,0.03,0.06,1.0,-3.1,0.3,-0.2,840,0,,,,,,,,,,,,,,,,,,,
51254,1489962457969,,,,,,,,0.03,0.06,1.0,-3.1,0.3,-0.2,820,0,,,,,,,,,,,,,,,,,,,
51274,1489962457989,0,53.2,,54.8,50,54.2,,0.03,0.06,1.0,-3.1,0.3,-0.2,820,0,1,1,0.0,0,37.478264,-122.203728,0.0,0.0,18.9,5,3,0.4,0,0.0,-1,0.0,0.0,0.0,0
51294,1489962458009,,,,,,,,0.03,0.06,0.99,-3.1,0.2,-0.2,840,0,,,,,,,,,,,,,,,,,,,
51314,1489962458029,,,,,,,,0.03,0.06,0.99,-3.1,0.2,-0.2,800,0,,,,,,,,,,,,,,,,,,,
51334,1489962458059,,,,,,,,0.03,0.06,0.99,-3.1,0.1,-0.1,820,0,,,,,,,,,,,,,,,,,,,
51354,1489962458079,,,,,,,,0.03,0.06,0.99,-3.1,0.1,-0.2,820,0,,,,,,,,,,,,,,,,,,,
51374,1489962458099,,,,,50,,,0.03,0.06,0.99,-3.1,0.0,-0.2,820,0,1,1,0.0,0,37.478264,-122.203728,0.0,0.0,18.9,5,3,0.4,0,0.0,-1,0.0,0.0,0.0,0
51394,1489962458119,,,,,,,,0.04,0.05,0.99,-3.1,0.2,-0.2,820,0,,,,,,,,,,,,,,,,,,,
51414,1489962458139,,,,,,,,0.04,0.06,0.98,-3.1,0.2,-0.2,820,0,,,,,,,,,,,,,,,,,,,
51434,1489962458159,,,,,,,,0.04,0.06,0.99,-3.1,0.3,-0.2,820,0,,,,,,,,,,,,,,,,,,,
51454,1489962458179,,,,,,,,0.04,0.06,0.99,-3.1,0.4,-0.2,800,0,,,,,,,,,,,,,,,,,,,
51474,1489962458199,0,54.1,,55.1,51,54.5,,0.03,0.06,0.99,-3.1,0.4,-0.2,820,0,1,1,0.0,0,37.478264,-122.203728,0.0,0.0,18.9,5,3,0.4,0,0.0,-1,0.0,0.0,0.0,0
51494,1489962458219,,,,,,,,0.02,0.06,0.99,-3.1,0.5,-0.2,820,0,,,,,,,,,,,,,,,,,,,
51514,1489962458239,,,,,,,,0.03,0.05,0.99,-3.1,0.5,-0.2,820,0,,,,,,,,,,,,,,,,,,,
51534,1489962458259,,,,,,,,0.02,0.06,0.99,-3.1,0.4,-0.2,820,0,,,,,,,,,,,,,,,,,,,
51554,1489962458279,,,,,,,,0.02,0.06,0.99,-3.1,0.3,-0.1,820,0,,,,,,,,,,,,,,,,,,,
51574,1489962458299,,,,,50,,,0.02,0.06,0.99,-3.1,0.3,-0.1,820,0,1,1,0.0,0,37.478264,-122.203728,0.0,0.0,18.9,5,3,0.4,0,0.0,-1,0.0,0.0,0.0,0
51594,1489962458319,,,,,,,,0.02,0.06,0.99,-3.1,0.2,-0.2,800,0,,,,,,,,,,,,,,,,,,,
51614,1489962458339,,,,,,,,0.02,0.06,1.0,-3.1,0.2,-0.2,800,0,,,,,,,,,,,,,,,,,,,
51634,1489962458359,,,,,,,,0.03,0.06,0.99,-3.1,0.1,-0.2,820,0,,,,,,,,,,,,,,,,,,,
51654,1489962458379,,,,,,,,0.03,0.06,0.99,-3.1,0.1,-0.2,820,0,,,,,,,,,,,,,,,,,,,
51674,1489962458399,0,53.7,,54.8,50,54.2,,0.03,0.07,0.98,-3.1,0.1,-0.1,820,0,1,1,0.0,0,37.478264,-122.203728,0.0,0.0,18.9,5,3,0.4,0,0.0,-1,0.0,0.0,0.0,0
51694,1489962458419,,,,,,,,0.03,0.06,0.99,-3.1,0.1,-0.1,820,0,,,,,,,,,,,,,,,,,,,
51714,1489962458439,,,,,,,,0.03,0.06,0.99,-3.1,0.1,-0.2,840,0,,,,,,,,,,,,,,,,,,,
51734,1489962458456,,,,,,,,0.03,0.07,0.99,-3.1,0.2,-0.2,840,0,,,,,,,,,,,,,,,,,,,
51754,1489962458476,,,,,,,,0.03,0.07,0.99,-3.1,0.2,-0.2,800,0,,,,,,,,,,,,,,,,,,,
51774,1489962458492,,,,,49,,,0.03,0.07,0.99,-3.1,0.3,-0.2,820,0,1,1,0.0,0,37.478264,-122.203728,0.0,0.0,18.9,5,3,0.4,0,0.0,-1,0.0,0.0,0.0,0
51794,1489962458512,,,,,,,,0.03,0.07,0.99,-3.1,0.3,-0.1,820,0,,,,,,,,,,,,,,,,,,,
51814,1489962458532,,,,,,,,0.03,0.07,0.99,-3.1,0.3,-0.2,820,0,,,,,,,,,,,,,,,,,,,
51834,1489962458552,,,,,,,,0.03,0.06,0.99,-3.1,0.3,-0.2,820,0,,,,,,,,,,,,,,,,,,,
51854,1489962458572,,,,,,,,0.03,0.06,0.99,-3.1,0.3,-0.3,820,0,,,,,,,,,,,,,,,,,,,
51874,1489962458592,0,54.0,,55.1,50,54.5,,0.03,0.06,0.99,-3.1,0.2,-0.2,840,0,1,1,0.0,0,37.478264,-122.203728,0.0,0.0,18.9,5,3,0.4,0,0.0,-1,0.0,0.0,0.0,0
51894,1489962458612,,,,,,,,0.03,0.07,0.99,-3.1,0.2,-0.2,800,0,,,,,,,,,,,,,,,,,,,
51914,1489962458632,,,,,,,,0.02,0.07,1.0,-3.1,0.1,-0.1,820,0,,,,,,,,,,,,,,,,,,,
51934,1489962458652,,,,,,,,0.02,0.07,1.0,-3.1,0.0,-0.2,800,0,,,,,,,,,,,,,,,,,,,
51954,1489962458672,,,,,,,,0.02,0.06,1.0,-3.1,0.0,-0.2,820,0,,,,,,,,,,,,,,,,,,,
51974,1489962458692,,,,,50,,,0.03,0.06,0.99,-3.1,0.2,-0.2,820,0,1,1,0.0,0,37.478264,-122.203728,0.0,0.0,18.9,5,3,0.4,0,0.0,-1,0.0,0.0,0.0,0
51994,1489962458712,,,,,,,,0.03,0.06,0.99,-3.1,0.2,-0.2,820,0,,,,,,,,,,,,,,,,,,,
52014,1489962458732,,,,,,,,0.03,0.06,0.99,-3.1,0.3,-0.2,840,0,,,,,,,,,,,,,,,,,,,
52034,1489962458752,,,,,,,,0.03,0.06,0.99,-3.1,0.3,-0.1,820,0,,,,,,,,,,,,,,,,,,,
52054,1489962458772,,,,,,,,0.03,0.06,0.99,-3.1,0.3,-0.2,820,0,,,,,,,,,,,,,,,,,,,
52074,1489962458794,1,53.4,14.7,55.8,50,54.9,14.9,0.03,0.06,1.0,-3.1,0.4,-0.2,820,0,1,1,0.0,0,37.478264,-122.203728,0.0,0.0,18.9,5,3,0.4,0,0.0,-1,0.0,0.0,0.0,0
52094,1489962458814,,,,,,,,0.03,0.06,0.99,-3.1,0.4,-0.2,820,0,,,,,,,,,,,,,,,,,,,
52114,1489962458834,,,,,,,,0.03,0.06,0.99,-3.1,0.3,-0.2,820,0,,,,,,,,,,,,,,,,,,,
52134,1489962458854,,,,,,,,0.02,0.06,0.99,-3.1,0.4,-0.2,840,0,,,,,,,,,,,,,,,,,,,
52154,1489962458874,,,,,,,,0.02,0.07,0.99,-3.1,0.2,-0.2,840,0,,,,,,,,,,,,,,,,,,,
52174,1489962458896,,,,,51,,,0.02,0.07,0.99,-3.1,0.2,-0.2,800,0,1,1,0.0,0,37.478264,-122.203728,0.0,0.0,18.9,5,3,0.4,0,0.0,-1,0.0,0.0,0.0,0
52194,1489962458916,,,,,,,,0.02,0.06,0.99,-3.1,0.2,-0.2,820,0,,,,,,,,,,,,,,,,,,,
52214,1489962458936,,,,,,,,0.03,0.06,0.99,-3.1,0.3,-0.2,820,0,,,,,,,,,,,,,,,,,,,
52234,1489962458956,,,,,,,,0.03,0.07,0.99,-3.1,0.2,-0.2,820,0,,,,,,,,,,,,,,,,,,,
52254,1489962458976,,,,,,,,0.03,0.07,0.99,-3.2,0.3,-0.1,820,0,,,,,,,,,,,,,,,,,,,
52274,1489962458996,0,54.1,,54.9,50,54.5,,0.03,0.07,0.99,-3.2,0.3,-0.1,840,0,1,1,0.0,0,37.478264,-122.203728,0.0,0.0,18.9,5,3,0.4,0,0.0,-1,0.0,0.0,0.0,0
52294,1489962459008,,,,,,,,0.03,0.07,1.0,-3.1,0.3,-0.1,860,0,,,,,,,,,,,,,,,,,,,
52314,1489962459028,,,,,,,,0.03,0.07,1.0,-3.1,0.3,-0.2,820,0,,,,,,,,,,,,,,,,,,,
52334,1489962459048,,,,,,,,0.02,0.06,1.0,-3.1,0.3,-0.2,820,0,,,,,,,,,,,,,,,,,,,
52354,1489962459068,,,,,,,,0.03,0.07,1.0,-3.1,0.1,-0.2,840,0,,,,,,,,,,,,,,,,,,,
52374,1489962459096,,,,,49,,,0.03,0.07,0.99,-3.1,0.1,-0.1,820,0,1,1,0.0,0,37.478264,-122.203728,0.0,0.0,18.9,5,3,0.4,0,0.0,-1,0.0,0.0,0.0,0
52394,1489962459116,,,,,,,,0.03,0.07,0.99,-3.1,0.1,-0.1,840,0,,,,,,,,,,,,,,,,,,,
52414,1489962459136,,,,,,,,0.03,0.07,1.0,-3.1,0.0,-0.1,840,0,,,,,,,,,,,,,,,,,,,
52434,1489962459156,,,,,,,,0.03,0.07,1.0,-3.1,0.1,-0.2,860,0,,,,,,,,,,,,,,,,,,,
52454,1489962459176,,,,,,,,0.03,0.07,1.0,-3.1,0.2,-0.2,820,0,,,,,,,,,,,,,,,,,,,
52474,1489962459196,0,53.0,,52.4,50,52.1,,0.03,0.06,0.99,-3.1,0.2,-0.2,820,0,1,1,0.0,0,37.478264,-122.203728,0.0,0.0,18.9,5,3,0.4,0,0.0,-1,0.0,0.0,0.0,0
52494,1489962459216,,,,,,,,0.03,0.07,0.99,-3.2,0.2,-0.2,840,0,,,,,,,,,,,,,,,,,,,
52514,1489962459236,,,,,,,,0.02,0.07,0.99,-3.1,0.3,-0.1,840,0,,,,,,,,,,,,,,,,,,,
52534,1489962459256,,,,,,,,0.02,0.07,0.99,-3.2,0.2,-0.1,840,0,,,,,,,,,,,,,,,,,,,
52554,1489962459276,,,,,,,,0.02,0.07,0.99,-3.1,0.2,-0.1,840,0,,,,,,,,,,,,,,,,,,,
52574,1489962459296,,,,,49,,,0.02,0.07,0.99,-3.1,0.2,-0.2,840,0,1,1,0.0,0,37.478264,-122.203728,0.0,0.0,18.9,5,3,0.4,0,0.0,-1,0.0,0.0,0.0,0
52594,1489962459316,,,,,,,,0.02,0.06,0.99,-3.1,0.3,-0.2,840,0,,,,,,,,,,,,,,,,,,,
52614,1489962459336,,,,,,,,0.03,0.06,0.99,-3.1,0.3,-0.2,820,0,,,,,,,,,,,,,,,,,,,
52634,1489962459356,,,,,,,,0.03,0.06,0.99,-3.1,0.4,-0.2,820,0,,,,,,,,,,,,,,,,,,,
52654,1489962459376,,,,,,,,0.03,0.07,0.99,-3.1,0.4,-0.1,820,0,,,,,,,,,,,,,,,,,,,
52674,1489962459396,0,50.9,,53.7,50,54.4,,0.02,0.07,1.0,-3.1,0.4,-0.2,820,0,1,1,0.0,0,37.478264,-122.203728,0.0,0.0,18.9,5,3,0.4,0,0.0,-1,0.0,0.0,0.0,0
52694,1489962459416,,,,,,,,0.02,0.07,1.0,-3.1,0.4,-0.2,820,0,,,,,,,,,,,,,,,,,,,
52714,1489962459436,,,,,,,,0.02,0.06,1.0,-3.1,0.4,-0.2,820,0,,,,,,,,,,,,,,,,,,,
52734,1489962459456,,,,,,,,0.03,0.06,0.99,-3.2,0.3,-0.2,840,0,,,,,,,,,,,,,,,,,,,
52754,1489962459476,,,,,,,,0.03,0.06,0.99,-3.2,0.3,-0.2,820,0,,,,,,,,,,,,,,,,,,,
52774,1489962459493,,,,,50,,,0.03,0.07,0.98,-3.2,0.2,-0.2,820,0,1,1,0.0,0,37.478264,-122.203728,0.0,0.0,18.9,5,3,0.4,0,0.0,-1,0.0,0.0,0.0,0
52794,1489962459513,,,,,,,,0.03,0.06,0.99,-3.2,0.1,-0.2,820,0,,,,,,,,,,,,,,,,,,,
52814,1489962459533,,,,,,,,0.03,0.06,0.99,-3.1,0.2,-0.2,820,0,,,,,,,,,,,,,,,,,,,
52834,1489962459553,,,,,,,,0.03,0.06,0.99,-3.1,0.3,-0.2,820,0,,,,,,,,,,,,,,,,,,,
52854,1489962459573,,,,,,,,0.03,0.06,0.99,-3.1,0.3,-0.2,820,0,,,,,,,,,,,,,,,,,,,
52874,1489962459593,0,50.9,,52.4,50,53.0,,0.03,0.06,0.99,-3.1,0.3,-0.2,840,0,1,1,0.0,0,37.478264,-122.203728,0.0,0.0,18.9,5,3,0.4,0,0.0,-1,0.0,0.0,0.0,0
52894,1489962459613,,,,,,,,0.03,0.07,0.99,-3.1,0.4,-0.2,800,0,,,,,,,,,,,,,,,,,,,
52914,1489962459633,,,,,,,,0.03,0.06,0.99,-3.1,0.4,-0.2,820,0,,,,,,,,,,,,,,,,,,,
52934,1489962459653,,,,,,,,0.02,0.06,0.99,-3.1,0.3,-0.2,820,0,,,,,,,,,,,,,,,,,,,
52954,1489962459673,,,,,,,,0.02,0.06,0.99,-3.1,0.3,-0.2,820,0,,,,,,,,,,,,,,,,,,,
52974,1489962459693,,,,,50,,,0.02,0.06,0.99,-3.2,0.2,-0.3,820,0,1,1,0.0,0,37.478264,-122.203728,0.0,0.0,18.9,5,3,0.4,0,0.0,-1,0.0,0.0,0.0,0
52994,1489962459713,,,,,,,,0.03,0.06,0.98,-3.2,0.2,-0.2,820,0,,,,,,,,,,,,,,,,,,,
53014,1489962459733,,,,,,,,0.03,0.06,0.99,-3.1,0.1,-0.2,840,0,,,,,,,,,,,,,,,,,,,
53034,1489962459753,,,,,,,,0.03,0.06,0.99,-3.1,0.1,-0.2,800,0,,,,,,,,,,,,,,,,,,,
53054,1489962459773,,,,,,,,0.03,0.06,0.99,-3.1,0.1,-0.2,820,0,,,,,,,,,,,,,,,,,,,
53074,1489962459793,0,50.9,14.4,53.3,49,53.9,14.81,0.03,0.06,0.99,-3.1,0.3,-0.2,820,0,1,1,0.0,0,37.478264,-122.203728,0.0,0.0,18.9,5,3,0.4,0,0.0,-1,0.0,0.0,0.0,0
53094,1489962459813,,,,,,,,0.04,0.06,0.99,-3.1,0.2,-0.3,820,0,,,,,,,,,,,,,,,,,,,
53114,1489962459833,,,,,,,,0.04,0.06,0.99,-3.1,0.3,-0.2,820,0,,,,,,,,,,,,,,,,,,,
53134,1489962459853,,,,,,,,0.04,0.06,0.99,-3.1,0.4,-0.2,840,0,,,,,,,,,,,,,,,,,,,
53154,1489962459873,,,,,,,,0.03,0.06,1.0,-3.1,0.3,-0.2,840,0,,,,,,,,,,,,,,,,,,,
53174,1489962459895,,,,,50,,,0.03,0.06,1.0,-3.1,0.2,-0.2,820,0,1,1,0.0,0,37.478264,-122.203728,0.0,0.0,18.9,5,3,0.4,0,0.0,-1,0.0,0.0,0.0,0
53194,1489962459915,,,,,,,,0.03,0.06,1.0,-3.1,0.2,-0.2,820,0,,,,,,,,,,,,,,,,,,,
53214,1489962459935,,,,,,,,0.03,0.06,0.99,-3.1,0.2,-0.2,820,0,,,,,,,,,,,,,,,,,,,
53234,1489962459955,,,,,,,,0.03,0.06,0.99,-3.1,0.2,-0.2,820,0,,,,,,,,,,,,,,,,,,,
53254,1489962459975,,,,,,,,0.03,0.06,0.99,-3.1,0.2,-0.1,840,0,,,,,,,,,,,,,,,,,,,
53274,1489962459995,0,53.2,,52.8,50,51.4,,0.03,0.06,0.99,-3.1,0.2,-0.1,840,0,1,1,0.0,0,37.478264,-122.203728,0.0,0.0,18.9,5,3,0.4,0,0.0,-1,0.0,0.0,0.0,0
53294,1489962460007,,,,,,,,0.03,0.06,0.99,-3.1,0.2,-0.1,840,0,,,,,,,,,,,,,,,,,,,
53314,1489962460027,,,,,,,,0.03,0.06,0.99,-3.1,0.3,-0.2,820,0,,,,,,,,,,,,,,,,,,,
53334,1489962460047,,,,,,,,0.03,0.06,0.99,-3.1,0.3,-0.2,820,0,,,,,,,,,,,,,,,,,,,
53354,1489962460067,,,,,,,,0.03,0.06,0.99,-3.1,0.3,-0.2,820,0,,,,,,,,,,,,,,,,,,,
53374,1489962460093,,,,,50,,,0.03,0.07,0.99,-3.1,0.3,-0.1,820,0,1,1,0.0,0,37.478264,-122.203728,0.0,0.0,18.9,5,3,0.4,0,0.0,-1,0.0,0.0,0.0,0
53394,1489962460113,,,,,,,,0.02,0.07,0.99,-3.1,0.3,-0.1,820,0,,,,,,,,,,,,,,,,,,,
53414,1489962460133,,,,,,,,0.02,0.07,1.0,-3.1,0.2,-0.1,840,0,,,,,,,,,,,,,,,,,,,
53434,1489962460153,,,,,,,,0.02,0.06,0.99,-3.1,0.2,-0.2,840,0,,,,,,,,,,,,,,,,,,,
53454,1489962460173,,,,,,,,0.02,0.06,0.99,-3.1,0.3,-0.2,840,0,,,,,,,,,,,,,,,,,,,
53474,1489962460193,0,53.3,,56.0,51,54.3,,0.03,0.06,0.98,-3.1,0.3,-0.2,820,0,1,1,0.0,0,37.478264,-122.203728,0.0,0.0,18.9,5,3,0.4,0,0.0,-1,0.0,0.0,0.0,0
53494,1489962460213,,,,,,,,0.03,0.06,0.99,-3.1,0.4,-0.1,820,0,,,,,,,,,,,,,,,,,,,
53514,1489962460233,,,,,,,,0.02,0.07,0.99,-3.1,0.4,-0.1,820,0,,,,,,,,,,,,,,,,,,,
53534,1489962460253,,,,,,,,0.02,0.06,0.99,-3.1,0.4,-0.2,840,0,,,,,,,,,,,,,,,,,,,
53554,1489962460273,,,,,,,,0.02,0.06,0.99,-3.1,0.4,-0.2,840,0,,,,,,,,,,,,,,,,,,,
53574,1489962460293,,,,,50,,,0.02,0.06,0.99,-3.1,0.4,-0.2,840,0,1,1,0.0,0,37.478264,-122.203728,0.0,0.0,18.9,5,3,0.4,0,0.0,-1,0.0,0.0,0.0,0
53594,1489962460313,,,,,,,,0.03,0.06,0.99,-3.1,0.3,-0.2,840,0,,,,,,,,,,,,,,,,,,,
53614,1489962460333,,,,,,,,0.03,0.06,0.98,-3.1,0.2,-0.2,820,0,,,,,,,,,,,,,,,,,,,
53634,1489962460353,,,,,,,,0.03,0.07,0.98,-3.1,0.2,-0.1,820,0,,,,,,,,,,,,,,,,,,,
53654,1489962460373,,,,,,,,0.03,0.07,0.99,-3.1,0.1,-0.2,840,0,,,,,,,,,,,,,,,,,,,
53674,1489962460391,0,52.9,,55.8,51,54.6,,0.03,0.07,0.99,-3.1,0.1,-0.2,840,0,1,1,0.0,0,37.478264,-122.203728,0.0,0.0,18.9,5,3,0.4,0,0.0,-1,0.0,0.0,0.0,0
53694,1489962460411,,,,,,,,0.03,0.06,0.99,-3.1,0.2,-0.2,840,0,,,,,,,,,,,,,,,,,,,
53714,1489962460431,,,,,,,,0.03,0.06,0.99,-3.1,0.3,-0.2,840,0,,,,,,,,,,,,,,,,,,,
53734,1489962460451,,,,,,,,0.03,0.06,0.98,-3.2,0.2,-0.2,840,0,,,,,,,,,,,,,,,,,,,
53754,1489962460471,,,,,,,,0.03,0.07,0.98,-3.2,0.2,-0.2,820,0,,,,,,,,,,,,,,,,,,,
53774,1489962460491,,,,,50,,,0.02,0.07,0.98,-3.2,0.1,-0.2,840,0,1,1,0.0,0,37.478264,-122.203728,0.0,0.0,18.9,5,3,0.4,0,0.0,-1,0.0,0.0,0.0,0
53794,1489962460510,,,,,,,,0.02,0.06,0.99,-3.2,0.1,-0.2,820,0,,,,,,,,,,,,,,,,,,,
53814,1489962460530,,,,,,,,0.02,0.06,0.99,-3.2,0.1,-0.2,820,0,,,,,,,,,,,,,,,,,,,
53834,1489962460550,,,,,,,,0.03,0.06,0.99,-3.2,0.2,-0.2,820,0,,,,,,,,,,,,,,,,,,,
53854,1489962460570,,,,,,,,0.03,0.06,0.98,-3.2,0.2,-0.2,840,0,,,,,,,,,,,,,,,,,,,
53874,1489962460590,0,53.2,,53.3,50,51.5,,0.03,0.06,0.98,-3.2,0.3,-0.2,840,0,1,1,0.0,0,37.478264,-122.203728,0.0,0.0,18.9,5,3,0.4,0,0.0,-1,0.0,0.0,0.0,0
53894,1489962460610,,,,,,,,0.03,0.07,0.99,-3.2,0.3,-0.2,800,0,,,,,,,,,,,,,,,,,,,
53914,1489962460630,,,,,,,,0.03,0.06,0.99,-3.1,0.4,-0.2,820,0,,,,,,,,,,,,,,,,,,,
53934,1489962460650,,,,,,,,0.02,0.06,0.99,-3.1,0.4,-0.2,800,0,,,,,,,,,,,,,,,,,,,
53954,1489962460670,,,,,,,,0.03,0.06,0.99,-3.1,0.4,-0.2,800,0,,,,,,,,,,,,,,,,,,,
53974,1489962460690,,,,,51,,,0.03,0.06,0.99,-3.2,0.4,-0.2,820,0,1,1,0.0,0,37.478264,-122.203728,0.0,0.0,18.9,5,3,0.4,0,0.0,-1,0.0,0.0,0.0,0
53994,1489962460710,,,,,,,,0.02,0.06,0.99,-3.2,0.4,-0.2,820,0,,,,,,,,,,,,,,,,,,,
54014,1489962460730,,,,,,,,0.02,0.06,0.99,-3.1,0.2,-0.2,820,0,,,,,,,,,,,,,,,,,,,
54034,1489962460750,,,,,,,,0.02,0.06,0.99,-3.1,0.1,-0.2,800,0,,,,,,,,,,,,,,,,,,,
54054,1489962460770,,,,,,,,0.02,0.06,0.99,-3.1,0.2,-0.2,800,0,,,,,,,,,,,,,,,,,,,
54074,1489962460790,0,50.9,14.6,54.0,49,54.5,14.96,0.03,0.06,0.99,-3.2,0.1,-0.2,800,0,1,1,0.0,0,37.478264,-122.203728,0.0,0.0,18.9,5,3,0.4,0,0.0,-1,0.0,0.0,0.0,0
54094,1489962460810,,,,,,,,0.03,0.06,0.99,-3.2,0.1,-0.1,800,0,,,,,,,,,,,,,,,,,,,
54114,1489962460830,,,,,,,,0.03,0.07,0.98,-3.2,0.1,-0.1,800,0,,,,,,,,,,,,,,,,,,,
54134,1489962460850,,,,,,,,0.03,0.06,0.99,-3.1,0.0,-0.1,820,0,,,,,,,,,,,,,,,,,,,
54154,1489962460870,,,,,,,,0.03,0.06,0.99,-3.1,0.1,-0.2,820,0,,,,,,,,,,,,,,,,,,,
54174,1489962460892,,,,,49,,,0.03,0.06,0.99,-3.1,0.2,-0.2,820,0,1,1,0.0,0,37.478264,-122.203728,0.0,0.0,18.9,5,3,0.4,0,0.0,-1,0.0,0.0,0.0,0
54194,1489962460912,,,,,,,,0.04,0.06,0.98,-3.1,0.1,-0.2,800,0,,,,,,,,,,,,,,,,,,,
54214,1489962460932,,,,,,,,0.04,0.06,0.98,-3.1,0.3,-0.1,820,0,,,,,,,,,,,,,,,,,,,
54234,1489962460952,,,,,,,,0.03,0.07,0.98,-3.1,0.3,-0.1,820,0,,,,,,,,,,,,,,,,,,,
54254,1489962460972,,,,,,,,0.03,0.06,0.99,-3.1,0.3,-0.2,820,0,,,,,,,,,,,,,,,,,,,
54274,1489962460992,0,54.0,,55.5,50,51.9,,0.03,0.06,0.99,-3.1,0.3,-0.2,820,0,1,1,0.0,0,37.478264,-122.203728,0.0,0.0,18.9,5,3,0.4,0,0.0,-1,0.0,0.0,0.0,0
54294,1489962461004,,,,,,,,0.03,0.06,0.99,-3.1,0.4,-0.2,820,0,,,,,,,,,,,,,,,,,,,
54314,1489962461024,,,,,,,,0.03,0.06,0.99,-3.1,0.3,-0.2,840,0,,,,,,,,,,,,,,,,,,,
54334,1489962461044,,,,,,,,0.03,0.06,0.99,-3.1,0.3,-0.1,800,0,,,,,,,,,,,,,,,,,,,
54354,1489962461064,,,,,,,,0.03,0.07,0.99,-3.1,0.3,-0.2,820,0,,,,,,,,,,,,,,,,,,,
54374,1489962461094,,,,,48,,,0.02,0.06,0.99,-3.1,0.2,-0.2,820,0,1,1,0.0,0,37.478264,-122.203728,0.0,0.0,18.9,5,3,0.4,0,0.0,-1,0.0,0.0,0.0,0
54394,1489962461114,,,,,,,,0.02,0.05,0.99,-3.1,0.3,-0.3,820,0,,,,,,,,,,,,,,,,,,,
54414,1489962461134,,,,,,,,0.03,0.06,0.99,-3.1,0.2,-0.2,820,0,,,,,,,,,,,,,,,,,,,
54434,1489962461154,,,,,,,,0.03,0.05,0.99,-3.1,0.1,-0.2,820,0,,,,,,,,,,,,,,,,,,,
54454,1489962461174,,,,,,,,0.03,0.06,0.99,-3.1,0.2,-0.2,840,0,,,,,,,,,,,,,,,,,,,
54474,1489962461194,0,52.6,,55.7,50,54.9,,0.03,0.07,0.99,-3.1,0.1,-0.2,800,0,1,1,0.0,0,37.478264,-122.203728,0.0,0.0,18.9,5,3,0.4,0,0.0,-1,0.0,0.0,0.0,0
54494,1489962461214,,,,,,,,0.03,0.06,0.99,-3.1,0.2,-0.2,820,0,,,,,,,,,,,,,,,,,,,
54514,1489962461234,,,,,,,,0.03,0.06,0.99,-3.1,0.3,-0.3,820,0,,,,,,,,,,,,,,,,,,,
54534,1489962461254,,,,,,,,0.04,0.06,0.99,-3.1,0.3,-0.3,820,0,,,,,,,,,,,,,,,,,,,
54554,1489962461274,,,,,,,,0.04,0.06,0.99,-3.1,0.3,-0.2,820,0,,,,,,,,,,,,,,,,,,,
54574,1489962461294,,,,,49,,,0.04,0.07,0.99,-3.1,0.4,-0.2,840,0,1,1,0.0,0,37.478264,-122.203728,0.0,0.0,18.9,5,3,0.4,0,0.0,-1,0.0,0.0,0.0,0
54594,1489962461314,,,,,,,,0.03,0.06,0.99,-3.1,0.3,-0.2,840,0,,,,,,,,,,,,,,,,,,,
54614,1489962461334,,,,,,,,0.02,0.06,1.0,-3.1,0.2,-0.2,820,0,,,,,,,,,,,,,,,,,,,
54634,1489962461296,,,,,,,,0.02,0.06,1.0,-3.1,0.2,-0.3,820,0,,,,,,,,,,,,,,,,,,,
54654,1489962461316,,,,,,,,0.03,0.05,0.99,-3.1,0.2,-0.2,820,0,,,,,,,,,,,,,,,,,,,
54674,1489962461394,0,52.6,,52.7,49,52.6,,0.03,0.06,0.99,-3.1,0.2,-0.2,820,0,1,1,0.0,0,37.478272,-122.203728,0.0,0.0,-1.8,6,3,2.1,0,0.0,-1,0.0,0.0,0.0,0
54694,1489962461414,,,,,,,,0.03,0.06,0.98,-3.1,0.2,-0.1,840,0,,,,,,,,,,,,,,,,,,,
54714,1489962461434,,,,,,,,0.03,0.06,0.98,-3.1,0.2,-0.1,840,0,,,,,,,,,,,,,,,,,,,
54734,1489962461454,,,,,,,,0.03,0.06,0.99,-3.1,0.2,-0.2,840,0,,,,,,,,,,,,,,,,,,,
54754,1489962461474,,,,,,,,0.02,0.06,0.99,-3.1,0.3,-0.2,820,0,,,,,,,,,,,,,,,,,,,
54774,1489962461491,,,,,50,,,0.03,0.06,0.99,-3.1,0.4,-0.2,820,0,1,1,0.0,0,37.478272,-122.203728,0.0,0.0,-1.8,6,3,2.1,0,0.0,-1,0.0,0.0,0.0,0
54794,1489962461511,,,,,,,,0.03,0.06,0.99,-3.1,0.3,-0.2,820,0,,,,,,,,,,,,,,,,,,,
54814,1489962461531,,,,,,,,0.02,0.06,0.99,-3.1,0.2,-0.1,820,0,,,,,,,,,,,,,,,,,,,
54834,1489962461551,,,,,,,,0.02,0.06,0.99,-3.1,0.2,-0.1,820,0,,,,,,,,,,,,,,,,,,,
54854,1489962461571,,,,,,,,0.02,0.06,1.0,-3.1,0.2,-0.2,820,0,,,,,,,,,,,,,,,,,,,
54874,1489962461591,1,53.2,,53.3,50,51.7,,0.02,0.06,1.0,-3.1,0.2,-0.2,840,0,1,1,0.0,0,37.478272,-122.203728,0.0,0.0,-1.8,6,3,2.1,0,0.0,-1,0.0,0.0,0.0,0
54894,1489962461609,,,,,,,,0.03,0.05,0.99,-3.1,0.3,-0.2,840,0,,,,,,,,,,,,,,,,,,,
54914,1489962461629,,,,,,,,0.03,0.06,0.99,-3.1,0.2,-0.2,820,0,,,,,,,,,,,,,,,,,,,
54934,1489962461649,,,,,,,,0.03,0.06,0.99,-3.1,0.4,-0.2,820,0,,,,,,,,,,,,,,,,,,,
54954,1489962461669,,,,,,,,0.03,0.06,0.99,-3.1,0.4,-0.2,820,0,,,,,,,,,,,,,,,,,,,
54974,1489962461689,,,,,48,,,0.03,0.06,0.99,-3.1,0.4,-0.2,820,0,1,1,0.0,0,37.478272,-122.203728,0.0,0.0,-1.8,6,3,2.1,0,0.0,-1,0.0,0.0,0.0,0
54994,1489962461709,,,,,,,,0.02,0.06,0.99,-3.1,0.4,-0.2,820,0,,,,,,,,,,,,,,,,,,,
55014,1489962461729,,,,,,,,0.03,0.05,0.99,-3.1,0.5,-0.3,820,0,,,,,,,,,,,,,,,,,,,
55034,1489962461749,,,,,,,,0.03,0.06,0.99,-3.1,0.4,-0.2,840,0,,,,,,,,,,,,,,,,,,,
55054,1489962461769,,,,,,,,0.03,0.06,0.99,-3.1,0.4,-0.2,820,0,,,,,,,,,,,,,,,,,,,
55074,1489962461789,0,53.5,14.6,56.4,50,54.4,14.93,0.02,0.06,0.99,-3.1,0.3,-0.2,820,0,1,1,0.0,0,37.478272,-122.203728,0.0,0.0,-1.8,6,3,2.1,0,0.0,-1,0.0,0.0,0.0,0
55094,1489962461809,,,,,,,,0.02,0.06,1.0,-3.1,0.2,-0.2,820,0,,,,,,,,,,,,,,,,,,,
55114,1489962461809,,,,,,,,0.02,0.06,1.0,-3.1,0.3,-0.2,820,0,,,,,,,,,,,,,,,,,,,
55134,1489962461829,,,,,,,,0.03,0.05,0.99,-3.1,0.3,-0.2,820,0,,,,,,,,,,,,,,,,,,,
55154,1489962461849,,,,,,,,0.03,0.06,0.99,-3.1,0.2,-0.2,820,0,,,,,,,,,,,,,,,,,,,
55174,1489962461893,,,,,49,,,0.03,0.06,0.99,-3.1,0.3,-0.2,840,0,1,1,0.0,0,37.478272,-122.203728,0.0,0.0,2.7,7,3,1.9,0,0.0,-1,0.0,0.0,0.0,0
55194,1489962461913,,,,,,,,0.03,0.06,0.99,-3.1,0.3,-0.2,820,0,,,,,,,,,,,,,,,,,,,
55214,1489962461933,,,,,,,,0.03,0.06,0.99,-3.1,0.3,-0.2,820,0,,,,,,,,,,,,,,,,,,,
55234,1489962461953,,,,,,,,0.03,0.06,0.99,-3.1,0.4,-0.3,820,0,,,,,,,,,,,,,,,,,,,
55254,1489962461973,,,,,,,,0.03,0.05,0.99,-3.1,0.4,-0.3,820,0,,,,,,,,,,,,,,,,,,,
55274,1489962461993,0,54.0,,55.7,50,51.7,,0.03,0.06,0.99,-3.1,0.4,-0.2,820,0,1,1,0.0,0,37.478272,-122.203728,0.0,0.0,2.7,7,3,1.9,0,0.0,-1,0.0,0.0,0.0,0
55294,1489962462005,,,,,,,,0.02,0.06,0.99,-3.1,0.4,-0.1,820,0,,,,,,,,,,,,,,,,,,,
55314,1489962462025,,,,,,,,0.02,0.06,0.99,-3.1,0.3,-0.1,840,0,,,,,,,,,,,,,,,,,,,
55334,1489962462045,,,,,,,,0.02,0.06,0.99,-3.1,0.2,-0.2,800,0,,,,,,,,,,,,,,,,,,,
55354,1489962462065,,,,,,,,0.02,0.06,0.99,-3.1,0.2,-0.2,800,0,,,,,,,,,,,,,,,,,,,
55374,1489962462093,,,,,50,,,0.03,0.05,0.99,-3.1,0.2,-0.2,820,0,1,1,0.0,0,37.478272,-122.203728,0.0,0.0,2.7,7,3,1.9,0,0.0,-1,0.0,0.0,0.0,0
55394,1489962462113,,,,,,,,0.03,0.06,0.99,-3.1,0.1,-0.1,820,0,,,,,,,,,,,,,,,,,,,
55414,1489962462133,,,,,,,,0.03,0.06,0.99,-3.1,0.1,-0.1,820,0,,,,,,,,,,,,,,,,,,,
55434,1489962462153,,,,,,,,0.03,0.06,0.99,-3.1,0.1,-0.1,820,0,,,,,,,,,,,,,,,,,,,
55454,1489962462173,,,,,,,,0.03,0.06,0.99,-3.1,0.2,-0.1,820,0,,,,,,,,,,,,,,,,,,,
55474,1489962462193,0,53.7,,56.6,50,54.3,,0.03,0.06,1.0,-3.1,0.3,-0.2,820,0,1,1,0.0,0,37.478272,-122.203728,0.0,0.0,2.7,7,3,1.9,0,0.0,-1,0.0,0.0,0.0,0
55494,1489962462213,,,,,,,,0.03,0.06,0.99,-3.1,0.4,-0.2,800,0,,,,,,,,,,,,,,,,,,,
55514,1489962462233,,,,,,,,0.03,0.06,0.99,-3.1,0.4,-0.2,800,0,,,,,,,,,,,,,,,,,,,
55534,1489962462253,,,,,,,,0.03,0.06,1.0,-3.1,0.5,-0.1,800,0,,,,,,,,,,,,,,,,,,,
55554,1489962462273,,,,,,,,0.03,0.06,1.0,-3.1,0.5,-0.2,800,0,,,,,,,,,,,,,,,,,,,
55574,1489962462293,,,,,48,,,0.02,0.06,1.0,-3.1,0.5,-0.2,800,0,1,1,0.0,0,37.478272,-122.203728,0.0,0.0,2.7,7,3,1.9,0,0.0,-1,0.0,0.0,0.0,0
55594,1489962462313,,,,,,,,0.03,0.06,1.0,-3.1,0.5,-0.2,820,0,,,,,,,,,,,,,,,,,,,
55614,1489962462333,,,,,,,,0.03,0.06,0.99,-3.1,0.4,-0.2,820,0,,,,,,,,,,,,,,,,,,,
55634,1489962462353,,,,,,,,0.02,0.06,0.99,-3.1,0.4,-0.1,800,0,,,,,,,,,,,,,,,,,,,
55654,1489962462373,,,,,,,,0.02,0.06,1.0,-3.1,0.3,-0.1,820,0,,,,,,,,,,,,,,,,,,,
55674,1489962462393,0,50.8,,54.2,49,54.8,,0.02,0.06,1.0,-3.1,0.2,-0.1,820,0,1,1,0.0,0,37.478272,-122.203728,0.0,0.0,2.7,7,3,1.9,0,0.0,-1,0.0,0.0,0.0,0
55694,1489962462413,,,,,,,,0.02,0.06,1.0,-3.1,0.2,-0.2,820,0,,,,,,,,,,,,,,,,,,,
55714,1489962462433,,,,,,,,0.02,0.06,1.0,-3.1,0.2,-0.2,820,0,,,,,,,,,,,,,,,,,,,
55734,1489962462453,,,,,,,,0.03,0.06,0.99,-3.1,0.1,-0.1,840,0,,,,,,,,,,,,,,,,,,,
55754,1489962462473,,,,,,,,0.03,0.06,0.98,-3.1,0.2,-0.1,840,0,,,,,,,,,,,,,,,,,,,
55774,1489962462492,,,,,49,,,0.03,0.06,0.99,-3.1,0.2,-0.1,820,0,1,1,0.0,0,37.478272,-122.203728,0.0,0.0,2.7,7,3,1.9,0,0.0,-1,0.0,0.0,0.0,0
55794,1489962462512,,,,,,,,0.03,0.06,0.99,-3.1,0.3,-0.2,820,0,,,,,,,,,,,,,,,,,,,
55814,1489962462532,,,,,,,,0.03,0.06,0.99,-3.1,0.4,-0.2,820,0,,,,,,,,,,,,,,,,,,,
55834,1489962462552,,,,,,,,0.03,0.06,0.98,-3.1,0.3,-0.2,820,0,,,,,,,,,,,,,,,,,,,
55854,1489962462572,,,,,,,,0.03,0.06,0.98,-3.1,0.3,-0.2,820,0,,,,,,,,,,,,,,,,,,,
55874,1489962462592,0,53.5,,56.9,50,54.5,,0.03,0.07,0.99,-3.1,0.4,-0.1,820,0,1,1,0.0,0,37.478272,-122.203728,0.0,0.0,2.7,7,3,1.9,0,0.0,-1,0.0,0.0,0.0,0
55894,1489962462610,,,,,,,,0.02,0.07,0.99,-3.1,0.3,-0.2,840,0,,,,,,,,,,,,,,,,,,,
55914,1489962462630,,,,,,,,0.02,0.06,0.99,-3.1,0.2,-0.2,800,0,,,,,,,,,,,,,,,,,,,
55934,1489962462650,,,,,,,,0.02,0.06,1.0,-3.1,0.2,-0.2,800,0,,,,,,,,,,,,,,,,,,,
55954,1489962462670,,,,,,,,0.03,0.06,0.99,-3.1,0.2,-0.2,820,0,,,,,,,,,,,,,,,,,,,
55974,1489962462690,,,,,50,,,0.03,0.06,0.99,-3.1,0.1,-0.1,820,0,1,1,0.0,0,37.478272,-122.203728,0.0,0.0,2.7,7,3,1.9,0,0.0,-1,0.0,0.0,0.0,0
55994,1489962462710,,,,,,,,0.03,0.07,0.98,-3.1,0.1,-0.1,820,0,,,,,,,,,,,,,,,,,,,
56014,1489962462730,,,,,,,,0.03,0.06,0.99,-3.1,0.1,-0.1,800,0,,,,,,,,,,,,,,,,,,,
56034,1489962462750,,,,,,,,0.03,0.06,0.99,-3.1,0.2,-0.2,820,0,,,,,,,,,,,,,,,,,,,
56054,1489962462770,,,,,,,,0.03,0.06,0.99,-3.1,0.3,-0.2,820,0,,,,,,,,,,,,,,,,,,,
56074,1489962462790,0,51.0,14.4,53.1,49,53.3,14.97,0.04,0.06,0.98,-3.1,0.3,-0.2,800,0,1,1,0.0,0,37.478272,-122.203728,0.0,0.0,2.7,7,3,1.9,0,0.0,-1,0.0,0.0,0.0,0
56094,1489962462810,,,,,,,,0.04,0.06,0.99,-3.1,0.4,-0.2,820,0,,,,,,,,,,,,,,,,,,,
56114,1489962462830,,,,,,,,0.03,0.06,0.99,-3.1,0.4,-0.1,800,0,,,,,,,,,,,,,,,,,,,
56134,1489962462850,,,,,,,,0.03,0.06,0.99,-3.1,0.4,-0.2,820,0,,,,,,,,,,,,,,,,,,,
56154,1489962462870,,,,,,,,0.03,0.05,0.99,-3.1,0.4,-0.2,820,0,,,,,,,,,,,,,,,,,,,
56174,1489962462894,,,,,50,,,0.03,0.05,0.99,-3.1,0.5,-0.2,820,0,1,1,0.0,0,37.478272,-122.203728,0.0,0.0,2.7,7,3,1.9,0,0.0,-1,0.0,0.0,0.0,0
56194,1489962462914,,,,,,,,0.03,0.05,0.99,-3.2,0.3,-0.2,820,0,,,,,,,,,,,,,,,,,,,
56214,1489962462934,,,,,,,,0.03,0.06,0.99,-3.2,0.3,-0.2,800,0,,,,,,,,,,,,,,,,,,,
56234,1489962462954,,,,,,,,0.02,0.06,0.99,-3.2,0.2,-0.2,820,0,,,,,,,,,,,,,,,,,,,
56254,1489962462974,,,,,,,,0.02,0.06,0.99,-3.2,0.2,-0.2,800,0,,,,,,,,,,,,,,,,,,,
56274,1489962462994,0,51.2,,53.1,49,53.2,,0.02,0.05,0.99,-3.1,0.1,-0.2,800,0,1,1,0.0,0,37.478272,-122.203728,0.0,0.0,2.7,7,3,1.9,0,0.0,-1,0.0,0.0,0.0,0
56294,1489962463006,,,,,,,,0.03,0.06,0.99,-3.1,0.1,-0.3,820,0,,,,,,,,,,,,,,,,,,,
56314,1489962463026,,,,,,,,0.03,0.05,0.99,-3.2,0.0,-0.2,820,0,,,,,,,,,,,,,,,,,,,
56334,1489962463046,,,,,,,,0.03,0.06,0.99,-3.2,0.1,-0.2,840,0,,,,,,,,,,,,,,,,,,,
56354,1489962463066,,,,,,,,0.03,0.06,0.99,-3.1,0.1,-0.2,800,0,,,,,,,,,,,,,,,,,,,
56374,1489962463094,,,,,48,,,0.03,0.06,0.99,-3.1,0.1,-0.2,820,0,1,1,0.0,0,37.478272,-122.203728,0.0,0.0,2.7,7,3,1.9,0,0.0,-1,0.0,0.0,0.0,0
56394,1489962463114,,,,,,,,0.03,0.06,0.99,-3.1,0.2,-0.2,820,0,,,,,,,,,,,,,,,,,,,
56414,1489962463134,,,,,,,,0.04,0.06,0.99,-3.1,0.2,-0.2,800,0,,,,,,,,,,,,,,,,,,,
56434,1489962463154,,,,,,,,0.04,0.06,0.99,-3.1,0.3,-0.2,800,0,,,,,,,,,,,,,,,,,,,
56454,1489962463174,,,,,,,,0.03,0.07,0.99,-3.1,0.3,-0.2,820,0,,,,,,,,,,,,,,,,,,,
56474,1489962463194,0,52.7,,56.1,48,54.9,,0.03,0.07,1.0,-3.1,0.3,-0.2,820,0,1,1,0.0,0,37.478272,-122.203728,0.0,0.0,2.7,7,3,1.9,0,0.0,-1,0.0,0.0,0.0,0
56494,1489962463214,,,,,,,,0.03,0.06,1.0,-3.1,0.4,-0.2,820,0,,,,,,,,,,,,,,,,,,,
56514,1489962463234,,,,,,,,0.03,0.06,1.0,-3.1,0.4,-0.2,800,0,,,,,,,,,,,,,,,,,,,
56534,1489962463254,,,,,,,,0.03,0.06,0.99,-3.1,0.3,-0.2,820,0,,,,,,,,,,,,,,,,,,,
56554,1489962463274,,,,,,,,0.02,0.07,0.99,-3.1,0.4,-0.1,820,0,,,,,,,,,,,,,,,,,,,
56574,1489962463294,,,,,49,,,0.02,0.07,1.0,-3.1,0.3,-0.2,820,0,1,1,0.0,0,37.478272,-122.203728,0.0,0.0,2.7,7,3,1.9,0,0.0,-1,0.0,0.0,0.0,0
56594,1489962463314,,,,,,,,0.02,0.07,1.0,-3.1,0.2,-0.2,820,0,,,,,,,,,,,,,,,,,,,
56614,1489962463334,,,,,,,,0.02,0.06,1.0,-3.1,0.2,-0.2,820,0,,,,,,,,,,,,,,,,,,,
56634,1489962463354,,,,,,,,0.03,0.06,0.99,-3.1,0.2,-0.2,820,0,,,,,,,,,,,,,,,,,,,
56654,1489962463374,,,,,,,,0.03,0.06,0.99,-3.1,0.1,-0.2,800,0,,,,,,,,,,,,,,,,,,,
56674,1489962463394,0,53.2,,53.9,49,51.8,,0.03,0.07,0.99,-3.1,0.0,-0.1,820,0,1,1,0.0,0,37.478272,-122.203728,0.0,0.0,2.7,7,3,1.9,0,0.0,-1,0.0,0.0,0.0,0
56694,1489962463414,,,,,,,,0.03,0.06,0.99,-3.1,-0.0,-0.2,800,0,,,,,,,,,,,,,,,,,,,
56714,1489962463434,,,,,,,,0.03,0.06,0.99,-3.1,0.1,-0.2,800,0,,,,,,,,,,,,,,,,,,,
56734,1489962463454,,,,,,,,0.03,0.06,0.99,-3.1,0.2,-0.2,800,0,,,,,,,,,,,,,,,,,,,
56754,1489962463474,,,,,,,,0.04,0.06,0.99,-3.1,0.2,-0.2,820,0,,,,,,,,,,,,,,,,,,,
56774,1489962463491,,,,,49,,,0.03,0.07,0.99,-3.1,0.3,-0.2,820,0,1,1,0.0,0,37.478272,-122.203728,0.0,0.0,2.7,7,3,1.9,0,0.0,-1,0.0,0.0,0.0,0
56794,1489962463511,,,,,,,,0.03,0.07,0.99,-3.1,0.3,-0.2,800,0,,,,,,,,,,,,,,,,,,,
56814,1489962463531,,,,,,,,0.03,0.06,0.99,-3.1,0.3,-0.2,820,0,,,,,,,,,,,,,,,,,,,
56834,1489962463551,,,,,,,,0.03,0.06,0.99,-3.1,0.4,-0.2,820,0,,,,,,,,,,,,,,,,,,,
56854,1489962463571,,,,,,,,0.03,0.05,0.99,-3.1,0.4,-0.2,820,0,,,,,,,,,,,,,,,,,,,
56874,1489962463591,0,53.6,,55.4,48,51.7,,0.03,0.06,0.99,-3.1,0.4,-0.2,820,0,1,1,0.0,0,37.478272,-122.203728,0.0,0.0,2.7,7,3,1.9,0,0.0,-1,0.0,0.0,0.0,0
56894,1489962463611,,,,,,,,0.03,0.06,0.99,-3.1,0.4,-0.1,820,0,,,,,,,,,,,,,,,,,,,
56914,1489962463631,,,,,,,,0.02,0.06,0.99,-3.1,0.3,-0.1,820,0,,,,,,,,,,,,,,,,,,,
56934,1489962463651,,,,,,,,0.02,0.06,1.0,-3.1,0.2,-0.2,820,0,,,,,,,,,,,,,,,,,,,
56954,1489962463671,,,,,,,,0.02,0.06,1.0,-3.1,0.2,-0.2,820,0,,,,,,,,,,,,,,,,,,,
56974,1489962463691,,,,,49,,,0.03,0.06,0.99,-3.1,0.1,-0.2,820,0,1,1,0.0,0,37.478272,-122.203728,0.0,0.0,2.7,7,3,1.9,0,0.0,-1,0.0,0.0,0.0,0
56994,1489962463711,,,,,,,,0.03,0.06,0.99,-3.1,0.0,-0.2,800,0,,,,,,,,,,,,,,,,,,,
57014,1489962463731,,,,,,,,0.03,0.06,0.99,-3.1,0.0,-0.2,800,0,,,,,,,,,,,,,,,,,,,
57034,1489962463751,,,,,,,,0.03,0.06,0.99,-3.1,0.0,-0.2,800,0,,,,,,,,,,,,,,,,,,,
57054,1489962463771,,,,,,,,0.03,0.06,0.99,-3.1,0.1,-0.2,820,0,,,,,,,,,,,,,,,,,,,
57074,1489962463791,0,52.0,14.5,55.7,49,55.3,14.94,0.03,0.06,0.99,-3.1,0.2,-0.2,820,0,1,1,0.0,0,37.478272,-122.203728,0.0,0.0,2.7,7,3,1.9,0,0.0,-1,0.0,0.0,0.0,0
57094,1489962463811,,,,,,,,0.04,0.06,0.98,-3.1,0.2,-0.2,800,0,,,,,,,,,,,,,,,,,,,
57114,1489962463831,,,,,,,,0.04,0.06,0.98,-3.1,0.3,-0.2,820,0,,,,,,,,,,,,,,,,,,,
57134,1489962463851,,,,,,,,0.03,0.06,0.99,-3.1,0.4,-0.2,800,0,,,,,,,,,,,,,,,,,,,
57154,1489962463871,,,,,,,,0.03,0.06,0.99,-3.1,0.4,-0.2,820,0,,,,,,,,,,,,,,,,,,,
57174,1489962463893,,,,,49,,,0.03,0.06,0.99,-3.1,0.5,-0.2,820,0,1,1,0.0,0,37.478272,-122.203728,0.0,0.0,2.7,7,3,1.9,0,0.0,-1,0.0,0.0,0.0,0
57194,1489962463913,,,,,,,,0.03,0.06,0.99,-3.1,0.4,-0.2,820,0,,,,,,,,,,,,,,,,,,,
57214,1489962463933,,,,,,,,0.03,0.06,0.98,-3.1,0.3,-0.2,820,0,,,,,,,,,,,,,,,,,,,
57234,1489962463953,,,,,,,,0.03,0.06,0.99,-3.1,0.4,-0.1,800,0,,,,,,,,,,,,,,,,,,,
57254,1489962463973,,,,,,,,0.02,0.06,0.99,-3.1,0.3,-0.2,800,0,,,,,,,,,,,,,,,,,,,
57274,1489962463993,1,50.9,,54.5,47,54.7,,0.02,0.05,0.99,-3.1,0.2,-0.2,800,0,1,1,0.0,0,37.478272,-122.203728,0.0,0.0,2.7,7,3,1.9,0,0.0,-1,0.0,0.0,0.0,0
57294,1489962464005,,,,,,,,0.02,0.05,0.99,-3.1,0.3,-0.2,800,0,,,,,,,,,,,,,,,,,,,
57314,1489962464025,,,,,,,,0.03,0.06,0.99,-3.1,0.1,-0.2,820,0,,,,,,,,,,,,,,,,,,,
57334,1489962464045,,,,,,,,0.02,0.05,0.98,-3.1,0.1,-0.2,820,0,,,,,,,,,,,,,,,,,,,
57354,1489962464065,,,,,,,,0.03,0.06,0.98,-3.1,0.1,-0.2,840,0,,,,,,,,,,,,,,,,,,,
57374,1489962464091,,,,,48,,,0.02,0.06,0.99,-3.1,0.1,-0.2,820,0,1,1,0.0,0,37.478272,-122.203728,0.0,0.0,2.7,7,3,1.9,0,0.0,-1,0.0,0.0,0.0,0
57394,1489962464111,,,,,,,,0.02,0.07,0.99,-3.1,0.0,-0.2,820,0,,,,,,,,,,,,,,,,,,,
57414,1489962464131,,,,,,,,0.03,0.06,0.98,-3.1,0.2,-0.2,820,0,,,,,,,,,,,,,,,,,,,
57434,1489962464151,,,,,,,,0.04,0.07,0.98,-3.1,0.2,-0.2,820,0,,,,,,,,,,,,,,,,,,,
57454,1489962464171,,,,,,,,0.04,0.07,0.98,-3.1,0.3,-0.2,820,0,,,,,,,,,,,,,,,,,,,
57474,1489962464193,0,51.1,,53.4,49,53.5,,0.03,0.07,0.99,-3.1,0.4,-0.2,820,0,1,1,0.0,0,37.478272,-122.203728,0.0,0.0,2.7,7,3,1.9,0,0.0,-1,0.0,0.0,0.0,0
57494,1489962464213,,,,,,,,0.03,0.07,0.99,-3.1,0.3,-0.2,840,0,,,,,,,,,,,,,,,,,,,
57514,1489962464233,,,,,,,,0.03,0.07,0.99,-3.1,0.4,-0.2,820,0,,,,,,,,,,,,,,,,,,,
57534,1489962464253,,,,,,,,0.03,0.06,0.99,-3.1,0.4,-0.2,820,0,,,,,,,,,,,,,,,,,,,
57554,1489962464273,,,,,,,,0.03,0.06,0.99,-3.1,0.3,-0.2,820,0,,,,,,,,,,,,,,,,,,,
57574,1489962464293,,,,,49,,,0.02,0.06,0.99,-3.1,0.2,-0.2,820,0,1,1,0.0,0,37.478272,-122.203728,0.0,0.0,2.7,7,3,1.9,0,0.0,-1,0.0,0.0,0.0,0
57594,1489962464313,,,,,,,,0.02,0.07,0.99,-3.1,0.2,-0.2,820,0,,,,,,,,,,,,,,,,,,,
57614,1489962464333,,,,,,,,0.02,0.07,1.0,-3.1,0.1,-0.2,820,0,,,,,,,,,,,,,,,,,,,
57634,1489962464353,,,,,,,,0.02,0.07,1.0,-3.1,0.1,-0.2,820,0,,,,,,,,,,,,,,,,,,,
57654,1489962464373,,,,,,,,0.03,0.06,0.99,-3.1,0.2,-0.2,820,0,,,,,,,,,,,,,,,,,,,
57674,1489962464393,0,53.5,,55.1,50,51.8,,0.03,0.06,0.99,-3.1,0.2,-0.2,800,0,1,1,0.0,0,37.478272,-122.203728,0.0,0.0,2.7,7,3,1.9,0,0.0,-1,0.0,0.0,0.0,0
57694,1489962464413,,,,,,,,0.03,0.06,0.98,-3.1,0.2,-0.2,820,0,,,,,,,,,,,,,,,,,,,
57714,1489962464433,,,,,,,,0.03,0.06,0.99,-3.1,0.3,-0.2,800,0,,,,,,,,,,,,,,,,,,,
57734,1489962464453,,,,,,,,0.03,0.06,0.99,-3.1,0.3,-0.2,820,0,,,,,,,,,,,,,,,,,,,
57754,1489962464473,,,,,,,,0.03,0.06,0.99,-3.1,0.4,-0.3,820,0,,,,,,,,,,,,,,,,,,,
57774,1489962464492,,,,,49,,,0.03,0.05,0.99,-3.1,0.4,-0.3,820,0,1,1,0.0,0,37.478272,-122.203728,0.0,0.0,2.7,7,3,1.9,0,0.0,-1,0.0,0.0,0.0,0
57794,1489962464512,,,,,,,,0.03,0.06,0.99,-3.1,0.4,-0.3,820,0,,,,,,,,,,,,,,,,,,,
57814,1489962464532,,,,,,,,0.03,0.06,0.99,-3.1,0.4,-0.2,800,0,,,,,,,,,,,,,,,,,,,
57834,1489962464552,,,,,,,,0.02,0.06,0.99,-3.1,0.4,-0.2,820,0,,,,,,,,,,,,,,,,,,,
57854,1489962464572,,,,,,,,0.02,0.06,1.0,-3.1,0.3,-0.3,800,0,,,,,,,,,,,,,,,,,,,
57874,1489962464594,0,54.3,,56.3,49,52.3,,0.02,0.06,1.0,-3.1,0.4,-0.3,800,0,1,1,0.0,0,37.478272,-122.203728,0.0,0.0,2.7,7,3,1.9,0,0.0,-1,0.0,0.0,0.0,0
57894,1489962464614,,,,,,,,0.02,0.06,0.99,-3.1,0.2,-0.3,800,0,,,,,,,,,,,,,,,,,,,
57914,1489962464634,,,,,,,,0.02,0.06,0.99,-3.2,0.2,-0.2,800,0,,,,,,,,,,,,,,,,,,,
57934,1489962464654,,,,,,,,0.02,0.07,0.99,-3.2,0.1,-0.2,820,0,,,,,,,,,,,,,,,,,,,
57954,1489962464674,,,,,,,,0.02,0.06,1.0,-3.2,0.1,-0.2,780,0,,,,,,,,,,,,,,,,,,,
57974,1489962464694,,,,,49,,,0.02,0.06,1.0,-3.2,0.1,-0.3,780,0,1,1,0.0,0,37.478272,-122.203728,0.0,0.0,2.7,7,3,1.9,0,0.0,-1,0.0,0.0,0.0,0
57994,1489962464714,,,,,,,,0.03,0.06,0.99,-3.1,0.0,-0.2,800,0,,,,,,,,,,,,,,,,,,,
58014,1489962464734,,,,,,,,0.03,0.07,0.99,-3.1,0.0,-0.2,800,0,,,,,,,,,,,,,,,,,,,
58034,1489962464754,,,,,,,,0.03,0.07,0.99,-3.1,0.1,-0.2,800,0,,,,,,,,,,,,,,,,,,,
58054,1489962464774,,,,,,,,0.03,0.06,1.0,-3.1,0.1,-0.3,800,0,,,,,,,,,,,,,,,,,,,
58074,1489962464794,0,51.4,14.6,55.5,48,55.2,14.83,0.03,0.06,1.0,-3.1,0.1,-0.3,800,0,1,1,0.0,0,37.478272,-122.203728,0.0,0.0,2.7,7,3,1.9,0,0.0,-1,0.0,0.0,0.0,0
58094,1489962464814,,,,,,,,0.03,0.06,0.99,-3.1,0.2,-0.3,820,0,,,,,,,,,,,,,,,,,,,
58114,1489962464834,,,,,,,,0.04,0.06,0.99,-3.1,0.1,-0.2,780,0,,,,,,,,,,,,,,,,,,,
58134,1489962464854,,,,,,,,0.03,0.06,0.99,-3.1,0.2,-0.2,800,0,,,,,,,,,,,,,,,,,,,
58154,1489962464874,,,,,,,,0.04,0.06,0.99,-3.1,0.1,-0.2,780,0,,,,,,,,,,,,,,,,,,,
58174,1489962464894,,,,,47,,,0.03,0.06,0.99,-3.1,0.1,-0.3,780,0,1,1,0.0,0,37.478272,-122.203728,0.0,0.0,2.7,7,3,1.9,0,0.0,-1,0.0,0.0,0.0,0
58194,1489962464914,,,,,,,,0.04,0.06,0.99,-3.1,0.3,-0.3,800,0,,,,,,,,,,,,,,,,,,,
58214,1489962464934,,,,,,,,0.04,0.06,0.98,-3.1,0.3,-0.2,800,0,,,,,,,,,,,,,,,,,,,
58234,1489962464954,,,,,,,,0.04,0.06,0.98,-3.1,0.3,-0.2,820,0,,,,,,,,,,,,,,,,,,,
58254,1489962464974,,,,,,,,0.04,0.06,0.99,-3.1,0.3,-0.2,800,0,,,,,,,,,,,,,,,,,,,
58274,1489962464994,0,53.5,,56.9,48,54.6,,0.04,0.06,0.99,-3.1,0.3,-0.2,800,0,1,1,0.0,0,37.478272,-122.203728,0.0,0.0,2.7,7,3,1.9,0,0.0,-1,0.0,0.0,0.0,0
58294,1489962465006,,,,,,,,0.04,0.06,0.99,-3.1,0.5,-0.2,800,0,,,,,,,,,,,,,,,,,,,
58314,1489962465026,,,,,,,,0.04,0.06,0.99,-3.1,0.4,-0.2,800,0,,,,,,,,,,,,,,,,,,,
58334,1489962465046,,,,,,,,0.04,0.06,0.99,-3.1,0.5,-0.2,800,0,,,,,,,,,,,,,,,,,,,
58354,1489962465066,,,,,,,,0.04,0.07,0.99,-3.1,0.6,-0.2,800,0,,,,,,,,,,,,,,,,,,,
58374,1489962465094,,,,,49,,,0.03,0.07,1.0,-3.1,0.6,-0.2,820,0,1,1,0.0,0,37.478272,-122.203728,0.0,0.0,2.7,7,3,1.9,0,0.0,-1,0.0,0.0,0.0,0
58394,1489962465114,,,,,,,,0.03,0.06,1.0,-3.1,0.6,-0.2,820,0,,,,,,,,,,,,,,,,,,,
58414,1489962465134,,,,,,,,0.03,0.06,1.0,-3.1,0.6,-0.3,780,0,,,,,,,,,,,,,,,,,,,
58434,1489962465154,,,,,,,,0.03,0.06,0.99,-3.1,0.5,-0.2,820,0,,,,,,,,,,,,,,,,,,,
58454,1489962465174,,,,,,,,0.03,0.06,1.0,-3.1,0.5,-0.2,820,0,,,,,,,,,,,,,,,,,,,
58474,1489962465192,0,51.7,,56.0,53,55.7,,0.02,0.06,1.0,-3.1,0.5,-0.2,820,0,1,1,0.0,0,37.478272,-122.203728,0.0,0.0,2.7,7,3,1.9,0,0.0,-1,0.0,0.0,0.0,0
58494,1489962465212,,,,,,,,0.02,0.06,1.0,-3.1,0.4,-0.2,820,0,,,,,,,,,,,,,,,,,,,
58514,1489962465232,,,,,,,,0.02,0.06,1.0,-3.1,0.4,-0.2,820,0,,,,,,,,,,,,,,,,,,,
58534,1489962465252,,,,,,,,0.03,0.06,0.99,-3.1,0.4,-0.2,840,0,,,,,,,,,,,,,,,,,,,
58554,1489962465272,,,,,,,,0.03,0.06,0.99,-3.1,0.3,-0.2,800,0,,,,,,,,,,,,,,,,,,,
58574,1489962465294,,,,,58,,,0.03,0.07,0.99,-3.1,0.3,-0.1,820,0,1,1,0.0,0,37.478272,-122.203728,0.0,0.0,2.7,7,3,1.9,0,0.0,-1,0.0,0.0,0.0,0
58594,1489962465314,,,,,,,,0.03,0.07,0.99,-3.1,0.3,-0.2,820,0,,,,,,,,,,,,,,,,,,,
58614,1489962465334,,,,,,,,0.03,0.07,0.99,-3.1,0.2,-0.2,820,0,,,,,,,,,,,,,,,,,,,
58634,1489962465354,,,,,,,,0.03,0.06,0.99,-3.1,0.4,-0.3,820,0,,,,,,,,,,,,,,,,,,,
58654,1489962465374,,,,,,,,0.04,0.06,0.99,-3.1,0.4,-0.3,820,0,,,,,,,,,,,,,,,,,,,
58674,1489962465394,0,50.7,,53.7,61,52.6,,0.04,0.06,0.99,-3.1,0.4,-0.3,840,0,1,1,0.0,0,37.478272,-122.203728,0.0,0.0,2.7,7,3,1.9,0,0.0,-1,0.0,0.0,0.0,0
58694,1489962465414,,,,,,,,0.03,0.06,0.99,-3.1,0.4,-0.2,800,0,,,,,,,,,,,,,,,,,,,
58714,1489962465434,,,,,,,,0.03,0.06,1.0,-3.1,0.4,-0.2,800,0,,,,,,,,,,,,,,,,,,,
58734,1489962465454,,,,,,,,0.02,0.06,1.0,-3.1,0.4,-0.3,800,0,,,,,,,,,,,,,,,,,,,
58754,1489962465474,,,,,,,,0.03,0.06,1.0,-3.1,0.4,-0.3,800,0,,,,,,,,,,,,,,,,,,,
58774,1489962465493,,,,,66,,,0.03,0.06,0.99,-3.1,0.3,-0.2,800,0,1,1,0.0,0,37.478272,-122.203728,0.0,0.0,2.7,7,3,1.9,0,0.0,-1,0.0,0.0,0.0,0
58794,1489962465513,,,,,,,,0.02,0.06,0.99,-3.1,0.3,-0.2,820,0,,,,,,,,,,,,,,,,,,,
58814,1489962465533,,,,,,,,0.02,0.06,0.99,-3.1,0.3,-0.2,840,0,,,,,,,,,,,,,,,,,,,
58834,1489962465553,,,,,,,,0.02,0.06,1.0,-3.1,0.2,-0.2,780,0,,,,,,,,,,,,,,,,,,,
58854,1489962465573,,,,,,,,0.02,0.06,1.0,-3.1,0.2,-0.3,780,0,,,,,,,,,,,,,,,,,,,
58874,1489962465593,0,54.0,,56.6,67,54.9,,0.03,0.07,0.99,-3.1,0.2,-0.2,800,0,1,1,0.0,0,37.478272,-122.203728,0.0,0.0,2.7,7,3,1.9,0,0.0,-1,0.0,0.0,0.0,0
58894,1489962465613,,,,,,,,0.03,0.07,0.99,-3.1,0.1,-0.2,800,0,,,,,,,,,,,,,,,,,,,
58914,1489962465633,,,,,,,,0.03,0.07,0.99,-3.1,0.1,-0.2,800,0,,,,,,,,,,,,,,,,,,,
58934,1489962465653,,,,,,,,0.03,0.07,0.99,-3.1,0.0,-0.2,800,0,,,,,,,,,,,,,,,,,,,
58954,1489962465673,,,,,,,,0.03,0.07,0.99,-3.1,0.0,-0.2,800,0,,,,,,,,,,,,,,,,,,,
58974,1489962465693,,,,,69,,,0.04,0.07,0.99,-3.1,0.1,-0.2,820,0,1,1,0.0,0,37.478272,-122.203728,0.0,0.0,2.7,7,3,1.9,0,0.0,-1,0.0,0.0,0.0,0
58994,1489962465713,,,,,,,,0.04,0.07,0.98,-3.1,0.1,-0.2,780,0,,,,,,,,,,,,,,,,,,,
59014,1489962465733,,,,,,,,0.04,0.07,0.98,-3.1,0.1,-0.2,800,0,,,,,,,,,,,,,,,,,,,
59034,1489962465753,,,,,,,,0.04,0.07,0.98,-3.1,0.1,-0.2,800,0,,,,,,,,,,,,,,,,,,,
59054,1489962465773,,,,,,,,0.04,0.07,0.98,-3.1,0.1,-0.3,800,0,,,,,,,,,,,,,,,,,,,
59074,1489962465793,0,53.0,14.7,55.2,67,54.6,14.97,0.04,0.06,0.98,-3.1,0.3,-0.3,800,0,1,1,0.0,0,37.478272,-122.203728,0.0,0.0,2.7,7,3,1.9,0,0.0,-1,0.0,0.0,0.0,0
59094,1489962465813,,,,,,,,0.04,0.06,0.98,-3.1,0.3,-0.2,800,0,,,,,,,,,,,,,,,,,,,
59114,1489962465833,,,,,,,,0.04,0.06,0.98,-3.1,0.3,-0.2,820,0,,,,,,,,,,,,,,,,,,,
59134,1489962465853,,,,,,,,0.03,0.06,0.98,-3.1,0.4,-0.2,780,0,,,,,,,,,,,,,,,,,,,
59154,1489962465873,,,,,,,,0.03,0.06,0.99,-3.1,0.3,-0.3,800,0,,,,,,,,,,,,,,,,,,,
59174,1489962465893,,,,,67,,,0.03,0.06,0.99,-3.1,0.4,-0.3,800,0,1,1,0.0,0,37.478272,-122.203728,0.0,0.0,2.7,7,3,1.9,0,0.0,-1,0.0,0.0,0.0,0
59194,1489962465913,,,,,,,,0.04,0.05,0.99,-3.1,0.4,-0.3,820,0,,,,,,,,,,,,,,,,,,,
59214,1489962465933,,,,,,,,0.03,0.05,0.99,-3.1,0.5,-0.3,820,0,,,,,,,,,,,,,,,,,,,
59234,1489962465953,,,,,,,,0.03,0.06,0.99,-3.1,0.5,-0.2,820,0,,,,,,,,,,,,,,,,,,,
59254,1489962465973,,,,,,,,0.03,0.06,0.99,-3.1,0.4,-0.2,840,0,,,,,,,,,,,,,,,,,,,
59274,1489962465993,1,50.9,,54.8,66,52.6,,0.02,0.06,0.99,-3.1,0.4,-0.2,800,0,1,1,0.0,0,37.478272,-122.203728,0.0,0.0,2.7,7,3,1.9,0,0.0,-1,0.0,0.0,0.0,0
59294,1489962466005,,,,,,,,0.03,0.06,1.0,-3.1,0.4,-0.2,800,0,,,,,,,,,,,,,,,,,,,
59314,1489962466025,,,,,,,,0.02,0.06,0.99,-3.1,0.3,-0.2,800,0,,,,,,,,,,,,,,,,,,,
59334,1489962466045,,,,,,,,0.02,0.06,0.99,-3.1,0.3,-0.1,800,0,,,,,,,,,,,,,,,,,,,
59354,1489962466065,,,,,,,,0.02,0.06,0.99,-3.1,0.3,-0.1,800,0,,,,,,,,,,,,,,,,,,,
59374,1489962466095,,,,,64,,,0.02,0.06,1.0,-3.1,0.2,-0.2,800,0,1,1,0.0,0,37.478272,-122.203728,0.0,0.0,2.7,7,3,1.9,0,0.0,-1,0.0,0.0,0.0,0
59394,1489962466115,,,,,,,,0.02,0.06,1.0,-3.1,0.2,-0.2,800,0,,,,,,,,,,,,,,,,,,,
59414,1489962466135,,,,,,,,0.03,0.06,0.99,-3.1,0.2,-0.2,820,0,,,,,,,,,,,,,,,,,,,
59434,1489962466155,,,,,,,,0.03,0.06,0.99,-3.1,0.2,-0.2,780,0,,,,,,,,,,,,,,,,,,,
59454,1489962466175,,,,,,,,0.03,0.07,0.99,-3.1,0.1,-0.1,800,0,,,,,,,,,,,,,,,,,,,
59474,1489962466195,0,52.3,,54.5,65,54.2,,0.03,0.07,0.99,-3.1,0.1,-0.1,800,0,1,1,0.0,0,37.478272,-122.203728,0.0,0.0,2.7,7,3,1.9,0,0.0,-1,0.0,0.0,0.0,0
59494,1489962466215,,,,,,,,0.02,0.07,0.99,-3.1,0.0,-0.1,820,0,,,,,,,,,,,,,,,,,,,
59514,1489962466235,,,,,,,,0.03,0.06,0.99,-3.1,0.1,-0.2,820,0,,,,,,,,,,,,,,,,,,,
59534,1489962466255,,,,,,,,0.04,0.07,0.98,-3.1,0.1,-0.2,820,0,,,,,,,,,,,,,,,,,,,
59554,1489962466275,,,,,,,,0.03,0.07,0.98,-3.1,0.3,-0.2,840,0,,,,,,,,,,,,,,,,,,,
59574,1489962466293,,,,,63,,,0.03,0.07,0.99,-3.1,0.3,-0.2,780,0,1,1,0.0,0,37.478272,-122.203728,0.0,0.0,2.7,7,3,1.9,0,0.0,-1,0.0,0.0,0.0,0
59594,1489962466313,,,,,,,,0.03,0.06,0.99,-3.1,0.4,-0.2,800,0,,,,,,,,,,,,,,,,,,,
59614,1489962466333,,,,,,,,0.03,0.06,0.99,-3.1,0.5,-0.2,800,0,,,,,,,,,,,,,,,,,,,
59634,1489962466353,,,,,,,,0.03,0.06,0.99,-3.1,0.5,-0.2,800,0,,,,,,,,,,,,,,,,,,,
59654,1489962466373,,,,,,,,0.03,0.06,0.99,-3.1,0.5,-0.2,820,0,,,,,,,,,,,,,,,,,,,
59674,1489962466393,0,52.7,,56.7,64,52.6,,0.03,0.07,0.99,-3.1,0.5,-0.1,820,0,1,1,0.0,0,37.478272,-122.203728,0.0,0.0,2.7,7,3,1.9,0,0.0,-1,0.0,0.0,0.0,0
59694,1489962466413,,,,,,,,0.03,0.07,0.99,-3.1,0.4,-0.1,840,0,,,,,,,,,,,,,,,,,,,
59714,1489962466433,,,,,,,,0.02,0.06,0.99,-3.1,0.3,-0.2,780,0,,,,,,,,,,,,,,,,,,,
59734,1489962466453,,,,,,,,0.02,0.06,0.99,-3.1,0.4,-0.2,780,0,,,,,,,,,,,,,,,,,,,
59754,1489962466473,,,,,,,,0.03,0.06,0.99,-3.1,0.2,-0.2,820,0,,,,,,,,,,,,,,,,,,,
59774,1489962466494,,,,,63,,,0.02,0.06,0.99,-3.1,0.1,-0.2,800,0,1,1,0.0,0,37.478272,-122.203728,0.0,0.0,2.7,7,3,1.9,0,0.0,-1,0.0,0.0,0.0,0
59794,1489962466514,,,,,,,,0.02,0.06,0.99,-3.1,0.1,-0.1,800,0,,,,,,,,,,,,,,,,,,,
59814,1489962466534,,,,,,,,0.02,0.06,0.99,-3.1,0.0,-0.2,800,0,,,,,,,,,,,,,,,,,,,
59834,1489962466554,,,,,,,,0.02,0.06,0.99,-3.1,0.0,-0.2,800,0,,,,,,,,,,,,,,,,,,,
59854,1489962466574,,,,,,,,0.03,0.06,0.99,-3.1,0.1,-0.2,820,0,,,,,,,,,,,,,,,,,,,
59874,1489962466594,0,51.2,,55.1,64,52.7,,0.03,0.06,0.98,-3.1,0.1,-0.2,780,0,1,1,0.0,0,37.478272,-122.203728,0.0,0.0,2.7,7,3,1.9,0,0.0,-1,0.0,0.0,0.0,0
59894,1489962466614,,,,,,,,0.03,0.06,0.98,-3.1,0.1,-0.1,800,0,,,,,,,,,,,,,,,,,,,
59914,1489962466634,,,,,,,,0.03,0.06,0.99,-3.1,0.1,-0.2,800,0,,,,,,,,,,,,,,,,,,,
59934,1489962466654,,,,,,,,0.03,0.06,0.98,-3.1,0.1,-0.2,800,0,,,,,,,,,,,,,,,,,,,
59954,1489962466674,,,,,,,,0.04,0.06,0.98,-3.1,0.2,-0.2,800,0,,,,,,,,,,,,,,,,,,,
59974,1489962466694,,,,,63,,,0.04,0.06,0.98,-3.1,0.2,-0.2,800,0,1,1,0.0,0,37.478272,-122.203728,0.0,0.0,2.7,7,3,1.9,0,0.0,-1,0.0,0.0,0.0,0
59994,1489962466714,,,,,,,,0.04,0.06,0.98,-3.1,0.3,-0.2,820,0,,,,,,,,,,,,,,,,,,,
60014,1489962466734,,,,,,,,0.03,0.07,0.98,-3.1,0.3,-0.2,780,0,,,,,,,,,,,,,,,,,,,
60034,1489962466754,,,,,,,,0.03,0.06,0.99,-3.1,0.3,-0.2,800,0,,,,,,,,,,,,,,,,,,,
60054,1489962466774,,,,,,,,0.04,0.06,0.99,-3.1,0.4,-0.2,800,0,,,,,,,,,,,,,,,,,,,
60074,1489962466794,0,53.6,14.6,56.9,63,54.6,14.98,0.04,0.06,0.99,-3.1,0.4,-0.2,800,0,1,1,0.0,0,37.478272,-122.203728,0.0,0.0,2.7,7,3,1.9,0,0.0,-1,0.0,0.0,0.0,0
60094,1489962466814,,,,,,,,0.04,0.07,0.99,-3.1,0.4,-0.2,800,0,,,,,,,,,,,,,,,,,,,
60114,1489962466834,,,,,,,,0.03,0.07,0.99,-3.1,0.4,-0.1,820,0,,,,,,,,,,,,,,,,,,,
60134,1489962466854,,,,,,,,0.03,0.07,1.0,-3.1,0.4,-0.2,840,0,,,,,,,,,,,,,,,,,,,
60154,1489962466874,,,,,,,,0.03,0.06,1.0,-3.1,0.5,-0.2,840,0,,,,,,,,,,,,,,,,,,,
60174,1489962466894,,,,,61,,,0.03,0.06,0.99,-3.1,0.5,-0.2,800,0,1,1,0.0,0,37.478272,-122.203728,0.0,0.0,2.7,7,3,1.9,0,0.0,-1,0.0,0.0,0.0,0
60194,1489962466914,,,,,,,,0.03,0.06,0.99,-3.1,0.4,-0.2,820,0,,,,,,,,,,,,,,,,,,,
60214,1489962466934,,,,,,,,0.02,0.07,0.99,-3.1,0.4,-0.1,820,0,,,,,,,,,,,,,,,,,,,
60234,1489962466954,,,,,,,,0.02,0.07,0.99,-3.1,0.4,-0.1,820,0,,,,,,,,,,,,,,,,,,,
60254,1489962466974,,,,,,,,0.02,0.07,1.0,-3.1,0.3,-0.2,820,0,,,,,,,,,,,,,,,,,,,
60274,1489962466994,0,53.2,,56.9,63,54.0,,0.02,0.06,1.0,-3.1,0.3,-0.2,820,0,1,1,0.0,0,37.478272,-122.203728,0.0,0.0,2.7,7,3,1.9,0,0.0,-1,0.0,0.0,0.0,0
60294,1489962467006,,,,,,,,0.03,0.06,0.99,-3.1,0.2,-0.2,840,0,,,,,,,,,,,,,,,,,,,
60314,1489962467026,,,,,,,,0.03,0.06,0.99,-3.1,0.2,-0.2,800,0,,,,,,,,,,,,,,,,,,,
60334,1489962467046,,,,,,,,0.03,0.06,0.99,-3.1,0.2,-0.2,800,0,,,,,,,,,,,,,,,,,,,
60354,1489962467066,,,,,,,,0.03,0.06,0.99,-3.1,0.1,-0.2,800,0,,,,,,,,,,,,,,,,,,,
60374,1489962467094,,,,,60,,,0.03,0.06,0.99,-3.1,0.1,-0.2,800,0,1,1,0.0,0,37.478272,-122.203728,0.0,0.0,2.7,7,3,1.9,0,0.0,-1,0.0,0.0,0.0,0
60394,1489962467114,,,,,,,,0.03,0.06,0.99,-3.1,0.2,-0.2,800,0,,,,,,,,,,,,,,,,,,,
60414,1489962467134,,,,,,,,0.04,0.06,0.99,-3.1,0.2,-0.2,800,0,,,,,,,,,,,,,,,,,,,
60434,1489962467154,,,,,,,,0.03,0.07,0.99,-3.1,0.3,-0.2,820,0,,,,,,,,,,,,,,,,,,,
60454,1489962467174,,,,,,,,0.03,0.07,0.99,-3.1,0.3,-0.2,780,0,,,,,,,,,,,,,,,,,,,
60474,1489962467194,0,53.1,,56.9,61,53.9,,0.03,0.07,0.99,-3.1,0.3,-0.2,780,0,1,1,0.0,0,37.478272,-122.203728,0.0,0.0,2.7,7,3,1.9,0,0.0,-1,0.0,0.0,0.0,0
60494,1489962467214,,,,,,,,0.04,0.07,0.98,-3.1,0.4,-0.2,780,0,,,,,,,,,,,,,,,,,,,
60514,1489962467234,,,,,,,,0.04,0.07,0.98,-3.1,0.4,-0.2,780,0,,,,,,,,,,,,,,,,,,,
60534,1489962467254,,,,,,,,0.04,0.07,0.98,-3.1,0.3,-0.2,780,0,,,,,,,,,,,,,,,,,,,
60554,1489962467274,,,,,,,,0.04,0.07,0.98,-3.1,0.3,-0.2,780,0,,,,,,,,,,,,,,,,,,,
60574,1489962467294,,,,,61,,,0.04,0.06,0.98,-3.1,0.4,-0.2,780,0,1,1,0.0,0,37.478272,-122.203728,0.0,0.0,2.7,7,3,1.9,0,0.0,-1,0.0,0.0,0.0,0
60594,1489962467314,,,,,,,,0.04,0.06,0.98,-3.1,0.5,-0.2,800,0,,,,,,,,,,,,,,,,,,,
60614,1489962467334,,,,,,,,0.04,0.06,0.98,-3.1,0.4,-0.2,780,0,,,,,,,,,,,,,,,,,,,
60634,1489962467354,,,,,,,,0.04,0.06,0.98,-3.1,0.3,-0.2,780,0,,,,,,,,,,,,,,,,,,,
60654,1489962467374,,,,,,,,0.04,0.06,0.98,-3.1,0.3,-0.2,780,0,,,,,,,,,,,,,,,,,,,
60674,1489962467394,0,50.9,,54.3,60,53.6,,0.04,0.06,0.98,-3.1,0.4,-0.3,780,0,1,1,0.0,0,37.478272,-122.203728,0.0,0.0,2.7,7,3,1.9,0,0.0,-1,0.0,0.0,0.0,0
60694,1489962467414,,,,,,,,0.04,0.06,0.98,-3.1,0.5,-0.3,800,0,,,,,,,,,,,,,,,,,,,
60714,1489962467434,,,,,,,,0.04,0.06,0.98,-3.1,0.4,-0.2,800,0,,,,,,,,,,,,,,,,,,,
60734,1489962467454,,,,,,,,0.04,0.06,0.97,-3.1,0.5,-0.2,820,0,,,,,,,,,,,,,,,,,,,
60754,1489962467474,,,,,,,,0.04,0.06,0.98,-3.1,0.5,-0.2,780,0,,,,,,,,,,,,,,,,,,,
60774,1489962467493,,,,,61,,,0.04,0.06,0.98,-3.1,0.4,-0.3,780,0,1,1,0.0,0,37.478272,-122.203728,0.0,0.0,2.7,7,3,1.9,0,0.0,-1,0.0,0.0,0.0,0
60794,1489962467513,,,,,,,,0.04,0.06,0.98,-3.1,0.5,-0.3,800,0,,,,,,,,,,,,,,,,,,,
60814,1489962467533,,,,,,,,0.04,0.06,0.97,-3.1,0.4,-0.2,800,0,,,,,,,,,,,,,,,,,,,
60834,1489962467553,,,,,,,,0.04,0.06,0.97,-3.1,0.5,-0.2,800,0,,,,,,,,,,,,,,,,,,,
60854,1489962467573,,,,,,,,0.04,0.06,0.98,-3.1,0.4,-0.2,820,0,,,,,,,,,,,,,,,,,,,
60874,1489962467595,0,50.7,,54.6,59,52.3,,0.04,0.06,0.98,-3.1,0.4,-0.2,840,0,1,1,0.0,0,37.478272,-122.203728,0.0,0.0,2.7,7,3,1.9,0,0.0,-1,0.0,0.0,0.0,0
60894,1489962467615,,,,,,,,0.04,0.06,0.98,-3.1,0.5,-0.2,840,0,,,,,,,,,,,,,,,,,,,
60914,1489962467635,,,,,,,,0.04,0.06,0.98,-3.1,0.5,-0.2,780,0,,,,,,,,,,,,,,,,,,,
60934,1489962467655,,,,,,,,0.04,0.06,0.98,-3.2,0.5,-0.2,800,0,,,,,,,,,,,,,,,,,,,
60954,1489962467675,,,,,,,,0.03,0.07,0.99,-3.1,0.6,-0.2,800,0,,,,,,,,,,,,,,,,,,,
60974,1489962467695,,,,,60,,,0.03,0.07,0.99,-3.1,0.6,-0.2,800,0,1,1,0.0,0,37.478272,-122.203728,0.0,0.0,2.7,7,3,1.9,0,0.0,-1,0.0,0.0,0.0,0
60994,1489962467715,,,,,,,,0.03,0.06,0.99,-3.1,0.6,-0.2,800,0,,,,,,,,,,,,,,,,,,,
61014,1489962467735,,,,,,,,0.03,0.06,0.99,-3.1,0.6,-0.2,800,0,,,,,,,,,,,,,,,,,,,
61034,1489962467755,,,,,,,,0.03,0.06,0.99,-3.1,0.5,-0.2,820,0,,,,,,,,,,,,,,,,,,,
61054,1489962467775,,,,,,,,0.03,0.06,0.99,-3.1,0.5,-0.2,780,0,,,,,,,,,,,,,,,,,,,
61074,1489962467795,0,51.8,14.5,56.5,60,54.1,15.0,0.02,0.06,0.99,-3.1,0.4,-0.2,800,0,1,1,0.0,0,37.478272,-122.203728,0.0,0.0,2.7,7,3,1.9,0,0.0,-1,0.0,0.0,0.0,0
61094,1489962467815,,,,,,,,0.02,0.06,0.99,-3.1,0.3,-0.2,800,0,,,,,,,,,,,,,,,,,,,
61114,1489962467835,,,,,,,,0.02,0.06,0.99,-3.1,0.4,-0.2,800,0,,,,,,,,,,,,,,,,,,,
61134,1489962467855,,,,,,,,0.02,0.06,0.98,-3.1,0.3,-0.2,800,0,,,,,,,,,,,,,,,,,,,
61154,1489962467875,,,,,,,,0.02,0.06,0.98,-3.1,0.2,-0.1,800,0,,,,,,,,,,,,,,,,,,,
61174,1489962467895,,,,,61,,,0.02,0.06,0.99,-3.1,0.1,-0.2,820,0,1,1,0.0,0,37.478272,-122.203728,0.0,0.0,2.7,7,3,1.9,0,0.0,-1,0.0,0.0,0.0,0
61194,1489962467915,,,,,,,,0.01,0.06,0.99,-3.1,0.1,-0.2,780,0,,,,,,,,,,,,,,,,,,,
61214,1489962467935,,,,,,,,0.01,0.06,0.99,-3.1,0.2,-0.2,780,0,,,,,,,,,,,,,,,,,,,
61234,1489962467955,,,,,,,,0.02,0.06,0.98,-3.1,0.0,-0.2,800,0,,,,,,,,,,,,,,,,,,,
61254,1489962467975,,,,,,,,0.02,0.07,0.98,-3.2,0.0,-0.1,780,0,,,,,,,,,,,,,,,,,,,
61274,1489962467995,0,53.0,,57.2,59,54.7,,0.01,0.07,0.99,-3.1,0.0,-0.2,800,0,1,1,0.0,0,37.478272,-122.203728,0.0,0.0,2.7,7,3,1.9,0,0.0,-1,0.0,0.0,0.0,0
61294,1489962468007,,,,,,,,0.02,0.07,0.99,-3.1,0.0,-0.2,800,0,,,,,,,,,,,,,,,,,,,
61314,1489962468027,,,,,,,,0.02,0.06,0.99,-3.1,0.0,-0.2,800,0,,,,,,,,,,,,,,,,,,,
61334,1489962468047,,,,,,,,0.03,0.06,0.99,-3.1,-0.0,-0.2,820,0,,,,,,,,,,,,,,,,,,,
61354,1489962468067,,,,,,,,0.03,0.06,0.99,-3.2,0.0,-0.2,780,0,,,,,,,,,,,,,,,,,,,
61374,1489962468095,,,,,60,,,0.03,0.06,0.99,-3.2,-0.0,-0.1,800,0,1,1,0.0,0,37.478272,-122.203728,0.0,0.0,2.7,7,3,1.9,0,0.0,-1,0.0,0.0,0.0,0
61394,1489962468115,,,,,,,,0.03,0.06,0.99,-3.2,-0.1,-0.2,780,0,,,,,,,,,,,,,,,,,,,
61414,1489962468135,,,,,,,,0.03,0.06,0.99,-3.2,-0.0,-0.2,780,0,,,,,,,,,,,,,,,,,,,
61434,1489962468155,,,,,,,,0.03,0.06,0.99,-3.2,-0.1,-0.2,780,0,,,,,,,,,,,,,,,,,,,
61454,1489962468175,,,,,,,,0.03,0.07,0.99,-3.2,-0.0,-0.2,800,0,,,,,,,,,,,,,,,,,,,
61474,1489962468195,0,50.7,,55.4,60,52.6,,0.03,0.06,0.99,-3.2,0.0,-0.2,820,0,1,1,0.0,0,37.478272,-122.203728,0.0,0.0,2.7,7,3,1.9,0,0.0,-1,0.0,0.0,0.0,0
61494,1489962468215,,,,,,,,0.03,0.06,0.99,-3.2,-0.0,-0.2,760,0,,,,,,,,,,,,,,,,,,,
61514,1489962468235,,,,,,,,0.03,0.06,0.99,-3.2,0.0,-0.2,760,0,,,,,,,,,,,,,,,,,,,
61534,1489962468255,,,,,,,,0.04,0.06,0.99,-3.2,-0.0,-0.2,800,0,,,,,,,,,,,,,,,,,,,
61554,1489962468275,,,,,,,,0.03,0.07,0.99,-3.2,-0.0,-0.2,800,0,,,,,,,,,,,,,,,,,,,
61574,1489962468295,,,,,58,,,0.03,0.06,0.99,-3.2,-0.1,-0.2,800,0,1,1,0.0,0,37.478272,-122.203728,0.0,0.0,2.7,7,3,1.9,0,0.0,-1,0.0,0.0,0.0,0
61594,1489962468315,,,,,,,,0.03,0.06,1.0,-3.2,-0.1,-0.2,800,0,,,,,,,,,,,,,,,,,,,
61614,1489962468335,,,,,,,,0.03,0.07,0.99,-3.2,-0.0,-0.2,800,0,,,,,,,,,,,,,,,,,,,
61634,1489962468355,,,,,,,,0.04,0.06,0.99,-3.2,-0.1,-0.3,820,0,,,,,,,,,,,,,,,,,,,
61654,1489962468375,,,,,,,,0.04,0.07,0.99,-3.2,-0.0,-0.2,780,0,,,,,,,,,,,,,,,,,,,
61674,1489962468395,0,53.7,,57.9,60,55.4,,0.04,0.07,0.99,-3.2,-0.1,-0.2,800,0,1,1,0.0,0,37.478272,-122.203728,0.0,0.0,2.7,7,3,1.9,0,0.0,-1,0.0,0.0,0.0,0
61694,1489962468415,,,,,,,,0.04,0.07,0.99,-3.1,-0.1,-0.2,780,0,,,,,,,,,,,,,,,,,,,
61714,1489962468435,,,,,,,,0.04,0.07,0.99,-3.1,-0.1,-0.2,780,0,,,,,,,,,,,,,,,,,,,
61734,1489962468455,,,,,,,,0.04,0.07,0.99,-3.1,-0.0,-0.2,800,0,,,,,,,,,,,,,,,,,,,
61754,1489962468475,,,,,,,,0.04,0.07,0.99,-3.1,-0.0,-0.2,800,0,,,,,,,,,,,,,,,,,,,
61774,1489962468494,,,,,60,,,0.04,0.07,0.99,-3.1,0.1,-0.2,820,0,1,1,0.0,0,37.478272,-122.203728,0.0,0.0,2.7,7,3,1.9,0,0.0,-1,0.0,0.0,0.0,0
61794,1489962468514,,,,,,,,0.04,0.07,0.99,-3.1,0.1,-0.2,780,0,,,,,,,,,,,,,,,,,,,
61814,1489962468534,,,,,,,,0.04,0.07,0.99,-3.1,0.1,-0.2,780,0,,,,,,,,,,,,,,,,,,,
61834,1489962468554,,,,,,,,0.04,0.07,0.99,-3.1,0.2,-0.3,800,0,,,,,,,,,,,,,,,,,,,
61854,1489962468574,,,,,,,,0.04,0.07,0.99,-3.1,0.2,-0.2,800,0,,,,,,,,,,,,,,,,,,,
61874,1489962468594,0,53.7,,57.0,60,54.7,,0.04,0.07,0.98,-3.1,0.2,-0.2,800,0,1,1,0.0,0,37.478272,-122.203728,0.0,0.0,2.7,7,3,1.9,0,0.0,-1,0.0,0.0,0.0,0
61894,1489962468614,,,,,,,,0.04,0.07,0.99,-3.1,0.2,-0.2,800,0,,,,,,,,,,,,,,,,,,,
61914,1489962468634,,,,,,,,0.04,0.07,0.99,-3.1,0.3,-0.2,820,0,,,,,,,,,,,,,,,,,,,
61934,1489962468654,,,,,,,,0.04,0.07,0.99,-3.1,0.4,-0.3,820,0,,,,,,,,,,,,,,,,,,,
61954,1489962468674,,,,,,,,0.04,0.07,0.98,-3.1,0.3,-0.2,780,0,,,,,,,,,,,,,,,,,,,
61974,1489962468694,,,,,58,,,0.04,0.07,0.99,-3.1,0.5,-0.2,800,0,1,1,0.0,0,37.478272,-122.203728,0.0,0.0,2.7,7,3,1.9,0,0.0,-1,0.0,0.0,0.0,0
