"Interval"|"ms"|0|0|1,"Utc"|"ms"|0|0|1,"FuelLevel"|"F"|0|100|5,"OilTemp"|"F"|0.0|300.0|5,"CoolantPressPSI"|"PSI"|0.0|20.0|1,"Coolant"|"F"|0.0|300.0|5,"OilPress"|"PSI"|0|150|10,"EngineTemp"|"F"|0.0|300.0|5,"Battery"|"Volts"|0.0|20.0|1,"AccelX"|"G"|-3.0|3.0|50,"AccelY"|"G"|-3.0|3.0|50,"AccelZ"|"G"|-3.0|3.0|50,"Yaw"|"Deg/Sec"|-300.0|300.0|50,"Pitch"|"Deg/Sec"|-300.0|300.0|50,"Roll"|"Deg/Sec"|-300.0|300.0|50,"RPM"|""|0|10000|50,"Driveshaft"|"RPM"|0|5000|50,"GPIO1"|""|0|1|10,"GPIO2"|""|0|1|10,"GearRatio"|""|-5.0|5.0|10,"Gear"|""|-1|5|10,"Latitude"|"Degrees"|-180.0|180.0|10,"Longitude"|"Degrees"|-180.0|180.0|10,"Speed"|"mph"|0.0|150.0|10,"Distance"|"mi"|0.0|0.0|10,"Altitude"|"ft"|0.0|4000.0|10,"GPSSats"|""|0|20|10,"GPSQual"|""|0|5|10,"GPSDOP"|""|0.0|20.0|10,"LapCount"|""|0|0|10,"LapTime"|"Min"|0.0|0.0|10,"Sector"|""|0|0|10,"SectorTime"|"Min"|0.0|0.0|10,"PredTime"|"Min"|0.0|0.0|10,"ElapsedTime"|"Min"|0.0|0.0|10,"CurrentLap"|""|0|0|10
4974575,1489967381564,,,,,,,,0.01,0.08,1.03,-3.1,0.2,0.0,60,0,,,,,,,,,,,,,,,,,,,
4974595,1489967381584,,,,,,,,0.01,0.07,1.02,-3.1,0.3,0.0,60,0,,,,,,,,,,,,,,,,,,,
4974615,1489967381604,,,,,,,,0.01,0.08,1.03,-3.1,0.3,-0.0,180,0,,,,,,,,,,,,,,,,,,,
4974635,1489967381624,,,,,,,,0.01,0.08,1.03,-3.1,0.4,-0.0,180,0,,,,,,,,,,,,,,,,,,,
4974655,1489967381644,0,89.0,-0.4,95.1,0,94.9,11.32,0.01,0.08,1.02,-3.1,0.3,-0.0,180,0,1,1,0.0,0,37.478378,-122.203697,0.0,0.0,31.9,10,3,1.6,0,0.0,-1,0.0,0.0,0.0,0
4974675,1489967381664,,,,,,,,0.0,0.08,1.01,-3.1,0.2,-0.0,180,0,,,,,,,,,,,,,,,,,,,
4974695,1489967381684,,,,,,,,0.01,0.06,1.01,-3.1,0.3,-0.1,180,0,,,,,,,,,,,,,,,,,,,
4974715,1489967381704,,,,,,,,0.02,0.06,1.01,-3.1,0.2,-0.2,200,0,,,,,,,,,,,,,,,,,,,
4974735,1489967381724,,,,,,,,0.02,0.05,1.0,-3.1,0.3,-0.2,200,0,,,,,,,,,,,,,,,,,,,
4974755,1489967381744,,,,,0,,,0.03,0.05,1.0,-3.1,0.4,-0.2,200,0,1,1,0.0,0,37.478378,-122.203697,0.0,0.0,31.9,10,3,1.6,0,0.0,-1,0.0,0.0,0.0,0
4974775,1489967381764,,,,,,,,0.03,0.06,1.0,-3.1,0.4,-0.2,200,0,,,,,,,,,,,,,,,,,,,
4974795,1489967381784,,,,,,,,0.02,0.05,1.0,-3.1,0.4,-0.2,200,0,,,,,,,,,,,,,,,,,,,
4974815,1489967381804,,,,,,,,0.02,0.06,1.0,-3.1,0.4,-0.2,200,0,,,,,,,,,,,,,,,,,,,
4974835,1489967381824,,,,,,,,0.02,0.05,0.98,-3.1,0.4,-0.2,200,0,,,,,,,,,,,,,,,,,,,
4974855,1489967381844,0,89.2,,95.0,0,93.8,,0.02,0.07,0.98,-3.1,0.2,-0.1,380,0,1,1,0.0,0,37.478378,-122.203697,0.0,0.0,31.9,10,3,1.6,0,0.0,-1,0.0,0.0,0.0,0
4974875,1489967381864,,,,,,,,0.02,0.04,0.98,-3.0,0.3,-0.1,380,0,,,,,,,,,,,,,,,,,,,
4974895,1489967381884,,,,,,,,0.03,0.06,0.97,-3.1,0.4,-0.1,600,0,,,,,,,,,,,,,,,,,,,
4974915,1489967381904,,,,,,,,0.02,0.04,0.98,-3.1,0.6,0.0,720,0,,,,,,,,,,,,,,,,,,,
4974935,1489967381924,,,,,,,,0.03,0.06,0.98,-3.1,0.4,0.0,740,0,,,,,,,,,,,,,,,,,,,
4974955,1489967381944,,,,,0,,,0.02,0.03,0.98,-3.1,0.4,-0.1,740,0,1,0,0.0,0,37.478378,-122.203697,0.0,0.0,31.9,10,3,1.6,0,0.0,-1,0.0,0.0,0.0,0
4974975,1489967381964,,,,,,,,0.01,0.04,0.99,-3.1,0.5,-0.1,700,0,,,,,,,,,,,,,,,,,,,
4974995,1489967381984,,,,,,,,0.01,0.03,1.0,-3.1,0.5,-0.1,680,0,,,,,,,,,,,,,,,,,,,
4975015,1489967381998,,,,,,,,0.01,0.03,1.0,-3.1,0.4,-0.1,680,0,,,,,,,,,,,,,,,,,,,
4975035,1489967382018,,,,,,,,0.02,0.03,1.0,-3.1,0.3,-0.1,680,0,,,,,,,,,,,,,,,,,,,
4975055,1489967382038,0,89.5,,95.1,1,93.9,,0.02,0.04,1.0,-3.1,0.3,-0.1,640,0,1,0,0.0,0,37.478378,-122.203697,0.0,0.0,31.9,10,3,1.6,0,0.0,-1,0.0,0.0,0.0,0
4975075,1489967382058,,,,,,,,0.02,0.04,0.99,-3.1,0.3,-0.1,640,0,,,,,,,,,,,,,,,,,,,
4975095,1489967382078,,,,,,,,0.02,0.04,0.99,-3.2,0.2,-0.1,600,0,,,,,,,,,,,,,,,,,,,
4975115,1489967382104,,,,,,,,0.02,0.05,1.0,-3.2,0.2,-0.1,600,0,,,,,,,,,,,,,,,,,,,
4975135,1489967382124,,,,,,,,0.02,0.04,1.0,-3.2,0.2,-0.1,560,0,,,,,,,,,,,,,,,,,,,
4975155,1489967382144,,,,,1,,,0.02,0.05,0.99,-3.1,0.2,-0.1,560,0,1,0,0.0,0,37.478378,-122.203697,0.0,0.0,31.9,10,3,1.6,0,0.0,-1,0.0,0.0,0.0,0
4975175,1489967382164,,,,,,,,0.02,0.04,1.0,-3.1,0.2,-0.1,560,0,,,,,,,,,,,,,,,,,,,
4975195,1489967382184,,,,,,,,0.02,0.06,0.99,-3.1,0.2,-0.1,620,0,,,,,,,,,,,,,,,,,,,
4975215,1489967382204,,,,,,,,0.02,0.06,0.99,-3.1,0.1,-0.0,700,0,,,,,,,,,,,,,,,,,,,
4975235,1489967382224,,,,,,,,0.02,0.06,1.0,-3.1,0.1,-0.1,700,0,,,,,,,,,,,,,,,,,,,
4975255,1489967382244,0,89.2,,95.0,2,93.9,,0.02,0.06,1.01,-3.1,0.1,-0.0,720,0,1,0,0.0,0,37.478378,-122.203697,0.0,0.0,31.9,10,3,1.6,0,0.0,-1,0.0,0.0,0.0,0
4975275,1489967382264,,,,,,,,0.02,0.06,1.01,-3.1,0.1,-0.0,740,0,,,,,,,,,,,,,,,,,,,
4975295,1489967382284,,,,,,,,0.01,0.06,1.0,-3.1,0.0,-0.0,780,0,,,,,,,,,,,,,,,,,,,
4975315,1489967382304,,,,,,,,0.01,0.07,1.01,-3.1,0.0,-0.0,780,0,,,,,,,,,,,,,,,,,,,
4975335,1489967382324,,,,,,,,0.01,0.07,1.01,-3.1,0.0,-0.0,800,0,,,,,,,,,,,,,,,,,,,
4975355,1489967382344,,,,,2,,,0.01,0.07,1.01,-3.1,0.0,-0.1,800,0,1,0,0.0,0,37.478378,-122.203697,0.0,0.0,31.9,10,3,1.6,0,0.0,-1,0.0,0.0,0.0,0
4975375,1489967382364,,,,,,,,0.01,0.06,1.01,-3.1,0.0,-0.1,820,0,,,,,,,,,,,,,,,,,,,
4975395,1489967382384,,,,,,,,0.02,0.07,1.01,-3.1,0.1,-0.0,820,0,,,,,,,,,,,,,,,,,,,
4975415,1489967382404,,,,,,,,0.02,0.07,1.01,-3.1,0.1,-0.1,820,0,,,,,,,,,,,,,,,,,,,
4975435,1489967382424,,,,,,,,0.02,0.07,1.01,-3.1,0.1,-0.1,820,0,,,,,,,,,,,,,,,,,,,
4975455,1489967382444,0,86.9,,92.7,3,93.2,,0.02,0.07,1.02,-3.1,0.1,-0.1,820,0,1,0,0.0,0,37.478378,-122.203697,0.0,0.0,31.9,10,3,1.6,0,0.0,-1,0.0,0.0,0.0,0
4975475,1489967382464,,,,,,,,0.02,0.06,1.01,-3.1,0.1,-0.1,820,0,,,,,,,,,,,,,,,,,,,
4975495,1489967382484,,,,,,,,0.02,0.06,1.01,-3.1,0.1,-0.0,840,0,,,,,,,,,,,,,,,,,,,
4975515,1489967382503,,,,,,,,0.02,0.07,1.01,-3.1,0.1,-0.0,860,0,,,,,,,,,,,,,,,,,,,
4975535,1489967382523,,,,,,,,0.02,0.07,1.01,-3.1,-0.0,-0.0,880,0,,,,,,,,,,,,,,,,,,,
4975555,1489967382543,,,,,5,,,0.02,0.05,1.01,-3.1,-0.0,-0.1,900,0,1,1,0.0,0,37.478378,-122.203697,0.0,0.0,31.9,10,3,1.6,0,0.0,-1,0.0,0.0,0.0,0
4975575,1489967382563,,,,,,,,0.02,0.05,1.0,-3.1,0.0,-0.1,920,0,,,,,,,,,,,,,,,,,,,
4975595,1489967382583,,,,,,,,0.02,0.04,1.0,-3.1,0.2,-0.1,940,0,,,,,,,,,,,,,,,,,,,
4975615,1489967382603,,,,,,,,0.03,0.03,0.99,-3.1,0.2,-0.2,960,0,,,,,,,,,,,,,,,,,,,
4975635,1489967382623,,,,,,,,0.04,0.04,0.99,-3.1,0.3,-0.1,980,0,,,,,,,,,,,,,,,,,,,
4975655,1489967382643,1,88.7,-0.9,94.2,5,93.0,14.93,0.04,0.04,1.0,-3.1,0.3,-0.1,1000,0,1,1,0.0,0,37.478378,-122.203697,0.0,0.0,31.9,10,3,1.6,0,0.0,-1,0.0,0.0,0.0,0
4975675,1489967382663,,,,,,,,0.04,0.04,0.99,-3.1,0.3,-0.2,1020,0,,,,,,,,,,,,,,,,,,,
4975695,1489967382683,,,,,,,,0.04,0.05,0.99,-3.1,0.2,-0.1,1020,0,,,,,,,,,,,,,,,,,,,
4975715,1489967382703,,,,,,,,0.04,0.05,0.99,-3.1,0.2,-0.1,1020,0,,,,,,,,,,,,,,,,,,,
4975735,1489967382723,,,,,,,,0.04,0.04,0.99,-3.1,0.2,-0.1,1040,0,,,,,,,,,,,,,,,,,,,
4975755,1489967382743,,,,,5,,,0.04,0.04,0.99,-3.1,0.3,-0.1,1040,0,1,1,0.0,0,37.478378,-122.203697,0.0,0.0,31.9,10,3,1.6,0,0.0,-1,0.0,0.0,0.0,0
4975775,1489967382763,,,,,,,,0.04,0.04,0.99,-3.1,0.3,-0.1,1040,0,,,,,,,,,,,,,,,,,,,
4975795,1489967382783,,,,,,,,0.04,0.04,0.99,-3.1,0.4,-0.1,1060,0,,,,,,,,,,,,,,,,,,,
4975815,1489967382803,,,,,,,,0.04,0.04,0.99,-3.1,0.3,-0.1,1060,0,,,,,,,,,,,,,,,,,,,
4975835,1489967382823,,,,,,,,0.03,0.04,0.99,-3.1,0.2,-0.1,1060,0,,,,,,,,,,,,,,,,,,,
4975855,1489967382843,0,88.4,,93.0,6,92.4,,0.03,0.04,0.98,-3.1,0.1,-0.1,1040,0,1,1,0.0,0,37.478378,-122.203697,0.0,0.0,31.9,10,3,1.6,0,0.0,-1,0.0,0.0,0.0,0
4975875,1489967382863,,,,,,,,0.03,0.04,0.99,-3.1,0.1,-0.1,1040,0,,,,,,,,,,,,,,,,,,,
4975895,1489967382883,,,,,,,,0.03,0.05,0.99,-3.1,0.1,-0.1,1060,0,,,,,,,,,,,,,,,,,,,
4975915,1489967382905,,,,,,,,0.04,0.04,0.99,-3.1,0.2,-0.1,1060,0,,,,,,,,,,,,,,,,,,,
4975935,1489967382925,,,,,,,,0.03,0.05,0.99,-3.1,0.2,-0.1,1060,0,,,,,,,,,,,,,,,,,,,
4975955,1489967382945,,,,,5,,,0.03,0.05,0.99,-3.2,0.3,-0.1,1040,0,1,1,0.0,0,37.478378,-122.203697,0.0,0.0,31.9,10,3,1.6,0,0.0,-1,0.0,0.0,0.0,0
4975975,1489967382965,,,,,,,,0.03,0.06,1.0,-3.2,0.2,-0.1,1040,0,,,,,,,,,,,,,,,,,,,
4975995,1489967382985,,,,,,,,0.03,0.05,1.0,-3.2,0.2,-0.1,1040,0,,,,,,,,,,,,,,,,,,,
4976015,1489967382999,,,,,,,,0.03,0.06,1.0,-3.2,0.1,-0.1,1040,0,,,,,,,,,,,,,,,,,,,
4976035,1489967383019,,,,,,,,0.03,0.06,1.01,-3.2,0.1,-0.1,1020,0,,,,,,,,,,,,,,,,,,,
4976055,1489967383039,1,87.2,,93.8,5,93.9,,0.03,0.06,1.0,-3.1,0.1,-0.0,1020,0,1,1,0.0,0,37.478378,-122.203697,0.0,0.0,31.9,10,3,1.6,0,0.0,-1,0.0,0.0,0.0,0
4976075,1489967383059,,,,,,,,0.03,0.07,1.0,-3.2,0.0,-0.0,1000,0,,,,,,,,,,,,,,,,,,,
4976095,1489967383079,,,,,,,,0.03,0.06,1.01,-3.1,0.2,-0.1,1000,0,,,,,,,,,,,,,,,,,,,
4976115,1489967383105,,,,,,,,0.03,0.07,1.0,-3.1,0.2,-0.0,1000,0,,,,,,,,,,,,,,,,,,,
4976135,1489967383125,,,,,,,,0.04,0.07,1.0,-3.2,0.2,-0.0,1000,0,,,,,,,,,,,,,,,,,,,
4976155,1489967383145,,,,,4,,,0.04,0.06,1.0,-3.2,0.3,-0.0,1000,0,1,1,0.0,0,37.478378,-122.203697,0.0,0.0,31.9,10,3,1.6,0,0.0,-1,0.0,0.0,0.0,0
4976175,1489967383165,,,,,,,,0.03,0.06,1.0,-3.1,0.4,-0.0,980,0,,,,,,,,,,,,,,,,,,,
4976195,1489967383185,,,,,,,,0.03,0.06,1.0,-3.2,0.4,-0.0,980,0,,,,,,,,,,,,,,,,,,,
4976215,1489967383205,,,,,,,,0.03,0.06,1.0,-3.2,0.3,-0.0,960,0,,,,,,,,,,,,,,,,,,,
4976235,1489967383225,,,,,,,,0.04,0.06,1.0,-3.2,0.3,-0.0,960,0,,,,,,,,,,,,,,,,,,,
4976255,1489967383245,0,88.4,,94.5,5,94.3,,0.04,0.07,1.0,-3.1,0.4,-0.0,960,0,1,1,0.0,0,37.478378,-122.203697,0.0,0.0,31.9,10,3,1.6,0,0.0,-1,0.0,0.0,0.0,0
4976275,1489967383265,,,,,,,,0.04,0.07,1.0,-3.1,0.4,-0.0,960,0,,,,,,,,,,,,,,,,,,,
4976295,1489967383285,,,,,,,,0.04,0.07,1.01,-3.1,0.4,-0.0,960,0,,,,,,,,,,,,,,,,,,,
4976315,1489967383305,,,,,,,,0.03,0.07,1.01,-3.1,0.3,-0.0,940,0,,,,,,,,,,,,,,,,,,,
4976335,1489967383325,,,,,,,,0.03,0.07,1.01,-3.1,0.3,0.0,940,0,,,,,,,,,,,,,,,,,,,
4976355,1489967383345,,,,,10,,,0.03,0.07,1.01,-3.1,0.2,0.0,940,0,1,1,0.0,0,37.478378,-122.203697,0.0,0.0,31.9,10,3,1.6,0,0.0,-1,0.0,0.0,0.0,0
4976375,1489967383365,,,,,,,,0.02,0.07,1.02,-3.1,0.2,0.0,940,0,,,,,,,,,,,,,,,,,,,
4976395,1489967383385,,,,,,,,0.02,0.07,1.02,-3.1,0.3,0.0,940,0,,,,,,,,,,,,,,,,,,,
4976415,1489967383405,,,,,,,,0.02,0.07,1.03,-3.1,0.4,-0.0,940,0,,,,,,,,,,,,,,,,,,,
4976435,1489967383425,,,,,,,,0.02,0.07,1.02,-3.1,0.4,-0.0,920,0,,,,,,,,,,,,,,,,,,,
4976455,1489967383445,0,88.6,,93.3,15,92.7,,0.02,0.07,1.02,-3.1,0.3,-0.1,920,0,1,1,0.0,0,37.478378,-122.203697,0.0,0.0,31.9,10,3,1.6,0,0.0,-1,0.0,0.0,0.0,0
4976475,1489967383465,,,,,,,,0.02,0.07,1.02,-3.1,0.2,-0.1,920,0,,,,,,,,,,,,,,,,,,,
4976495,1489967383485,,,,,,,,0.02,0.07,1.02,-3.2,0.2,-0.1,920,0,,,,,,,,,,,,,,,,,,,
4976515,1489967383504,,,,,,,,0.02,0.07,1.01,-3.1,0.2,-0.1,920,0,,,,,,,,,,,,,,,,,,,
4976535,1489967383524,,,,,,,,0.03,0.06,1.01,-3.1,0.2,-0.1,920,0,,,,,,,,,,,,,,,,,,,
4976555,1489967383544,,,,,18,,,0.03,0.06,1.01,-3.1,0.2,-0.1,920,0,1,1,0.0,0,37.478378,-122.203697,0.0,0.0,31.9,10,3,1.6,0,0.0,-1,0.0,0.0,0.0,0
4976575,1489967383564,,,,,,,,0.03,0.06,1.0,-3.1,0.2,-0.1,920,0,,,,,,,,,,,,,,,,,,,
4976595,1489967383584,,,,,,,,0.03,0.06,1.0,-3.1,0.2,-0.1,920,0,,,,,,,,,,,,,,,,,,,
4976615,1489967383604,,,,,,,,0.04,0.06,1.0,-3.1,0.2,-0.1,920,0,,,,,,,,,,,,,,,,,,,
4976635,1489967383624,,,,,,,,0.03,0.07,1.0,-3.1,0.2,-0.0,920,0,,,,,,,,,,,,,,,,,,,
4976655,1489967383644,0,89.2,-0.3,95.2,22,94.5,14.94,0.03,0.07,1.0,-3.1,0.1,-0.0,920,0,1,1,0.0,0,37.478378,-122.203697,0.0,0.0,31.9,10,3,1.6,0,0.0,-1,0.0,0.0,0.0,0
4976675,1489967383664,,,,,,,,0.03,0.08,1.0,-3.1,0.1,0.0,920,0,,,,,,,,,,,,,,,,,,,
4976695,1489967383684,,,,,,,,0.02,0.08,1.01,-3.1,0.1,-0.0,920,0,,,,,,,,,,,,,,,,,,,
4976715,1489967383704,,,,,,,,0.02,0.08,1.01,-3.1,0.2,-0.0,920,0,,,,,,,,,,,,,,,,,,,
4976735,1489967383724,,,,,,,,0.02,0.08,1.01,-3.1,0.2,-0.0,920,0,,,,,,,,,,,,,,,,,,,
4976755,1489967383744,,,,,28,,,0.02,0.08,1.01,-3.1,0.2,-0.0,920,0,1,1,0.0,0,37.478378,-122.203697,0.0,0.0,31.9,10,3,1.6,0,0.0,-1,0.0,0.0,0.0,0
4976775,1489967383764,,,,,,,,0.02,0.08,1.01,-3.1,0.1,-0.1,920,0,,,,,,,,,,,,,,,,,,,
4976795,1489967383784,,,,,,,,0.02,0.07,1.01,-3.1,0.2,-0.1,920,0,,,,,,,,,,,,,,,,,,,
4976815,1489967383802,,,,,,,,0.02,0.07,1.01,-3.1,0.2,-0.1,920,0,,,,,,,,,,,,,,,,,,,
4976835,1489967383822,,,,,,,,0.03,0.06,1.0,-3.1,0.2,-0.1,920,0,,,,,,,,,,,,,,,,,,,
4976855,1489967383842,1,88.9,,94.8,36,94.7,,0.03,0.06,1.0,-3.1,0.2,-0.1,920,0,1,1,0.0,0,37.478378,-122.203697,0.0,0.0,31.9,10,3,1.6,0,0.0,-1,0.0,0.0,0.0,0
4976875,1489967383862,,,,,,,,0.04,0.06,0.99,-3.1,0.2,-0.1,920,0,,,,,,,,,,,,,,,,,,,
4976895,1489967383882,,,,,,,,0.04,0.06,0.99,-3.1,0.2,-0.1,940,0,,,,,,,,,,,,,,,,,,,
4976915,1489967383904,,,,,,,,0.04,0.07,1.0,-3.1,0.1,-0.0,940,0,,,,,,,,,,,,,,,,,,,
4976935,1489967383924,,,,,,,,0.04,0.07,1.0,-3.1,0.0,-0.0,940,0,,,,,,,,,,,,,,,,,,,
4976955,1489967383944,,,,,44,,,0.03,0.07,1.0,-3.1,-0.0,0.0,940,0,1,1,0.0,0,37.478378,-122.203697,0.0,0.0,31.9,10,3,1.6,0,0.0,-1,0.0,0.0,0.0,0
4976975,1489967383964,,,,,,,,0.02,0.07,1.0,-3.1,0.0,0.0,940,0,,,,,,,,,,,,,,,,,,,
4976995,1489967383984,,,,,,,,0.02,0.07,1.01,-3.1,0.1,0.0,940,0,,,,,,,,,,,,,,,,,,,
4977015,1489967383998,,,,,,,,0.02,0.07,1.01,-3.1,0.2,-0.0,940,0,,,,,,,,,,,,,,,,,,,
4977035,1489967384018,,,,,,,,0.02,0.07,1.02,-3.1,0.2,-0.0,940,0,,,,,,,,,,,,,,,,,,,
4977055,1489967384038,0,89.2,,94.9,54,93.9,,0.02,0.07,1.02,-3.1,0.2,-0.0,940,0,1,1,0.0,0,37.478378,-122.203697,0.0,0.0,31.9,10,3,1.6,0,0.0,-1,0.0,0.0,0.0,0
4977075,1489967384058,,,,,,,,0.02,0.07,1.01,-3.1,0.2,-0.0,940,0,,,,,,,,,,,,,,,,,,,
4977095,1489967384078,,,,,,,,0.02,0.08,1.01,-3.1,0.1,-0.0,940,0,,,,,,,,,,,,,,,,,,,
4977115,1489967384104,,,,,,,,0.03,0.07,1.01,-3.1,0.1,-0.1,940,0,,,,,,,,,,,,,,,,,,,
4977135,1489967384124,,,,,,,,0.02,0.07,1.0,-3.1,0.1,-0.1,940,0,,,,,,,,,,,,,,,,,,,
4977155,1489967384144,,,,,59,,,0.02,0.07,1.0,-3.1,0.2,-0.1,960,0,1,1,0.0,0,37.478378,-122.203697,0.0,0.0,31.9,10,3,1.6,0,0.0,-1,0.0,0.0,0.0,0
4977175,1489967384164,,,,,,,,0.02,0.06,1.0,-3.1,0.2,-0.1,960,0,,,,,,,,,,,,,,,,,,,
4977195,1489967384184,,,,,,,,0.02,0.06,0.99,-3.1,0.2,-0.1,940,0,,,,,,,,,,,,,,,,,,,
4977215,1489967384204,,,,,,,,0.02,0.05,0.99,-3.1,0.2,-0.1,940,0,,,,,,,,,,,,,,,,,,,
4977235,1489967384224,,,,,,,,0.03,0.06,0.99,-3.1,0.2,-0.1,940,0,,,,,,,,,,,,,,,,,,,
4977255,1489967384244,1,87.1,,92.7,61,92.1,,0.03,0.06,0.99,-3.1,0.3,-0.1,940,0,1,1,0.0,0,37.478378,-122.203697,0.0,0.0,31.9,10,3,1.6,0,0.0,-1,0.0,0.0,0.0,0
4977275,1489967384264,,,,,,,,0.03,0.06,0.99,-3.1,0.3,-0.1,940,0,,,,,,,,,,,,,,,,,,,
4977295,1489967384284,,,,,,,,0.04,0.06,0.99,-3.1,0.3,-0.0,960,0,,,,,,,,,,,,,,,,,,,
4977315,1489967384304,,,,,,,,0.04,0.06,1.0,-3.1,0.3,-0.0,960,0,,,,,,,,,,,,,,,,,,,
4977335,1489967384324,,,,,,,,0.03,0.07,1.0,-3.1,0.2,-0.0,940,0,,,,,,,,,,,,,,,,,,,
4977355,1489967384344,,,,,62,,,0.03,0.08,1.0,-3.1,0.1,0.0,940,0,1,1,0.0,0,37.478378,-122.203697,0.0,0.0,31.9,10,3,1.6,0,0.0,-1,0.0,0.0,0.0,0
4977375,1489967384364,,,,,,,,0.03,0.08,1.0,-3.1,0.0,-0.0,940,0,,,,,,,,,,,,,,,,,,,
4977395,1489967384384,,,,,,,,0.02,0.08,1.0,-3.1,-0.1,0.0,960,0,,,,,,,,,,,,,,,,,,,
4977415,1489967384404,,,,,,,,0.02,0.08,1.01,-3.1,-0.0,0.0,960,0,,,,,,,,,,,,,,,,,,,
4977435,1489967384424,,,,,,,,0.02,0.07,1.01,-3.1,0.1,0.0,940,0,,,,,,,,,,,,,,,,,,,
4977455,1489967384444,0,87.5,,92.7,61,91.9,,0.02,0.07,1.01,-3.1,0.1,-0.0,940,0,1,1,0.0,0,37.478378,-122.203697,0.0,0.0,31.9,10,3,1.6,0,0.0,-1,0.0,0.0,0.0,0
4977475,1489967384464,,,,,,,,0.02,0.07,1.01,-3.1,0.2,-0.0,940,0,,,,,,,,,,,,,,,,,,,
4977495,1489967384484,,,,,,,,0.02,0.07,1.01,-3.2,0.2,-0.0,940,0,,,,,,,,,,,,,,,,,,,
4977515,1489967384503,,,,,,,,0.02,0.07,1.01,-3.1,0.2,-0.0,940,0,,,,,,,,,,,,,,,,,,,
4977535,1489967384523,,,,,,,,0.02,0.07,1.01,-3.1,0.2,-0.0,940,0,,,,,,,,,,,,,,,,,,,
4977555,1489967384543,,,,,62,,,0.02,0.07,1.01,-3.1,0.2,-0.1,940,0,1,1,0.0,0,37.478378,-122.203697,0.0,0.0,31.9,10,3,1.6,0,0.0,-1,0.0,0.0,0.0,0
4977575,1489967384563,,,,,,,,0.02,0.07,1.01,-3.1,0.2,-0.1,920,0,,,,,,,,,,,,,,,,,,,
4977595,1489967384583,,,,,,,,0.02,0.07,1.01,-3.1,0.3,-0.1,920,0,,,,,,,,,,,,,,,,,,,
4977615,1489967384603,,,,,,,,0.03,0.06,1.01,-3.1,0.3,-0.1,920,0,,,,,,,,,,,,,,,,,,,
4977635,1489967384623,,,,,,,,0.03,0.06,1.0,-3.1,0.2,-0.1,940,0,,,,,,,,,,,,,,,,,,,
4977655,1489967384643,1,89.6,-0.6,95.3,60,94.4,14.88,0.03,0.05,1.0,-3.1,0.2,-0.1,940,0,1,1,0.0,0,37.478378,-122.203697,0.0,0.0,31.9,10,3,1.6,0,0.0,-1,0.0,0.0,0.0,0
4977675,1489967384663,,,,,,,,0.03,0.05,1.0,-3.1,0.2,-0.1,940,0,,,,,,,,,,,,,,,,,,,
4977695,1489967384683,,,,,,,,0.03,0.05,1.0,-3.1,0.3,-0.1,920,0,,,,,,,,,,,,,,,,,,,
4977715,1489967384703,,,,,,,,0.03,0.05,1.0,-3.1,0.3,-0.1,920,0,,,,,,,,,,,,,,,,,,,
4977735,1489967384723,,,,,,,,0.03,0.06,1.0,-3.1,0.2,-0.1,920,0,,,,,,,,,,,,,,,,,,,
4977755,1489967384743,,,,,61,,,0.03,0.07,1.0,-3.1,0.1,-0.1,920,0,1,1,0.0,0,37.478378,-122.203697,0.0,0.0,31.9,10,3,1.6,0,0.0,-1,0.0,0.0,0.0,0
4977775,1489967384763,,,,,,,,0.02,0.07,1.01,-3.1,0.1,-0.0,920,0,,,,,,,,,,,,,,,,,,,
4977795,1489967384783,,,,,,,,0.02,0.06,1.01,-3.1,0.2,-0.0,920,0,,,,,,,,,,,,,,,,,,,
4977815,1489967384803,,,,,,,,0.02,0.06,1.02,-3.1,0.3,-0.0,940,0,,,,,,,,,,,,,,,,,,,
4977835,1489967384823,,,,,,,,0.02,0.06,1.02,-3.1,0.2,-0.0,920,0,,,,,,,,,,,,,,,,,,,
4977855,1489967384843,0,89.2,,95.6,59,94.7,,0.02,0.07,1.01,-3.1,0.2,-0.0,920,0,1,1,0.0,0,37.478378,-122.203697,0.0,0.0,31.9,10,3,1.6,0,0.0,-1,0.0,0.0,0.0,0
4977875,1489967384863,,,,,,,,0.02,0.06,1.01,-3.1,0.1,-0.1,920,0,,,,,,,,,,,,,,,,,,,
4977895,1489967384883,,,,,,,,0.02,0.06,1.01,-3.1,0.1,-0.1,920,0,,,,,,,,,,,,,,,,,,,
4977915,1489967384905,,,,,,,,0.02,0.06,1.01,-3.1,0.2,-0.1,920,0,,,,,,,,,,,,,,,,,,,
4977935,1489967384925,,,,,,,,0.02,0.06,1.01,-3.1,0.2,-0.1,920,0,,,,,,,,,,,,,,,,,,,
4977955,1489967384945,,,,,59,,,0.03,0.05,1.0,-3.1,0.2,-0.1,920,0,1,1,0.0,0,37.478378,-122.203697,0.0,0.0,31.9,10,3,1.6,0,0.0,-1,0.0,0.0,0.0,0
4977975,1489967384965,,,,,,,,0.03,0.05,1.0,-3.1,0.2,-0.1,920,0,,,,,,,,,,,,,,,,,,,
4977995,1489967384985,,,,,,,,0.03,0.05,1.0,-3.1,0.2,-0.1,920,0,,,,,,,,,,,,,,,,,,,
4978015,1489967384997,,,,,,,,0.03,0.06,1.0,-3.1,0.2,-0.0,920,0,,,,,,,,,,,,,,,,,,,
4978035,1489967385017,,,,,,,,0.03,0.06,1.0,-3.1,0.1,-0.0,920,0,,,,,,,,,,,,,,,,,,,
4978055,1489967385037,0,86.9,,93.9,61,94.4,,0.03,0.06,1.0,-3.1,-0.0,0.0,920,0,1,1,0.0,0,37.478378,-122.203697,0.0,0.0,31.9,10,3,1.6,0,0.0,-1,0.0,0.0,0.0,0
4978075,1489967385057,,,,,,,,0.02,0.07,1.0,-3.1,-0.0,0.0,920,0,,,,,,,,,,,,,,,,,,,
4978095,1489967385077,,,,,,,,0.02,0.07,1.0,-3.1,0.0,0.0,920,0,,,,,,,,,,,,,,,,,,,
4978115,1489967385105,,,,,,,,0.02,0.06,1.01,-3.1,0.1,-0.0,920,0,,,,,,,,,,,,,,,,,,,
4978135,1489967385125,,,,,,,,0.02,0.07,1.01,-3.1,0.2,-0.0,920,0,,,,,,,,,,,,,,,,,,,
4978155,1489967385145,,,,,60,,,0.02,0.07,1.01,-3.1,0.1,-0.0,920,0,1,1,0.0,0,37.478378,-122.203697,0.0,0.0,31.9,10,3,1.6,0,0.0,-1,0.0,0.0,0.0,0
4978175,1489967385165,,,,,,,,0.02,0.07,1.01,-3.1,0.0,-0.1,920,0,,,,,,,,,,,,,,,,,,,
4978195,1489967385185,,,,,,,,0.02,0.07,1.01,-3.1,0.1,-0.1,920,0,,,,,,,,,,,,,,,,,,,
4978215,1489967385205,,,,,,,,0.02,0.07,1.01,-3.1,0.1,-0.1,920,0,,,,,,,,,,,,,,,,,,,
4978235,1489967385225,,,,,,,,0.02,0.06,1.0,-3.1,0.1,-0.1,920,0,,,,,,,,,,,,,,,,,,,
4978255,1489967385245,1,87.1,,92.4,60,92.7,,0.03,0.06,1.0,-3.1,0.1,-0.1,920,0,1,1,0.0,0,37.478378,-122.203697,0.0,0.0,31.9,10,3,1.6,0,0.0,-1,0.0,0.0,0.0,0
4978275,1489967385265,,,,,,,,0.03,0.06,1.0,-3.1,0.1,-0.1,920,0,,,,,,,,,,,,,,,,,,,
4978295,1489967385285,,,,,,,,0.03,0.06,1.0,-3.1,0.1,-0.1,920,0,,,,,,,,,,,,,,,,,,,
4978315,1489967385305,,,,,,,,0.03,0.07,1.0,-3.1,0.1,-0.1,920,0,,,,,,,,,,,,,,,,,,,
4978335,1489967385325,,,,,,,,0.03,0.07,1.01,-3.1,0.0,-0.0,920,0,,,,,,,,,,,,,,,,,,,
4978355,1489967385345,,,,,59,,,0.02,0.08,1.01,-3.1,0.0,-0.0,900,0,1,1,0.0,0,37.478378,-122.203697,0.0,0.0,31.9,10,3,1.6,0,0.0,-1,0.0,0.0,0.0,0
4978375,1489967385365,,,,,,,,0.02,0.07,1.01,-3.1,0.1,-0.0,920,0,,,,,,,,,,,,,,,,,,,
4978395,1489967385385,,,,,,,,0.02,0.08,1.02,-3.1,0.2,-0.0,920,0,,,,,,,,,,,,,,,,,,,
4978415,1489967385404,,,,,,,,0.02,0.08,1.02,-3.1,0.1,-0.0,920,0,,,,,,,,,,,,,,,,,,,
4978435,1489967385424,,,,,,,,0.02,0.08,1.02,-3.1,0.0,-0.0,920,0,,,,,,,,,,,,,,,,,,,
4978455,1489967385444,0,87.6,,92.6,61,92.4,,0.02,0.08,1.01,-3.1,0.0,-0.1,920,0,1,1,0.0,0,37.478378,-122.203697,0.0,0.0,31.9,10,3,1.6,0,0.0,-1,0.0,0.0,0.0,0
4978475,1489967385464,,,,,,,,0.03,0.08,1.01,-3.1,0.1,-0.1,920,0,,,,,,,,,,,,,,,,,,,
4978495,1489967385484,,,,,,,,0.03,0.07,1.01,-3.1,0.1,-0.1,920,0,,,,,,,,,,,,,,,,,,,
4978515,1489967385504,,,,,,,,0.03,0.07,1.01,-3.1,0.1,-0.1,920,0,,,,,,,,,,,,,,,,,,,
4978535,1489967385524,,,,,,,,0.03,0.07,1.0,-3.1,0.2,-0.1,920,0,,,,,,,,,,,,,,,,,,,
4978555,1489967385544,,,,,58,,,0.03,0.07,1.0,-3.1,0.2,-0.1,920,0,1,1,0.0,0,37.478378,-122.203697,0.0,0.0,31.9,10,3,1.6,0,0.0,-1,0.0,0.0,0.0,0
4978575,1489967385564,,,,,,,,0.04,0.07,1.0,-3.1,0.2,-0.0,920,0,,,,,,,,,,,,,,,,,,,
4978595,1489967385584,,,,,,,,0.03,0.08,1.0,-3.1,0.1,-0.0,920,0,,,,,,,,,,,,,,,,,,,
4978615,1489967385604,,,,,,,,0.03,0.08,1.0,-3.1,0.1,0.0,920,0,,,,,,,,,,,,,,,,,,,
4978635,1489967385624,,,,,,,,0.03,0.08,1.01,-3.1,0.1,-0.0,920,0,,,,,,,,,,,,,,,,,,,
4978655,1489967385644,0,88.1,-0.5,94.8,60,95.1,14.88,0.02,0.07,1.01,-3.1,0.2,-0.0,920,0,1,1,0.0,0,37.478378,-122.203697,0.0,0.0,31.9,10,3,1.6,0,0.0,-1,0.0,0.0,0.0,0
4978675,1489967385664,,,,,,,,0.02,0.07,1.01,-3.1,0.2,-0.0,920,0,,,,,,,,,,,,,,,,,,,
4978695,1489967385684,,,,,,,,0.02,0.07,1.01,-3.1,0.1,-0.0,920,0,,,,,,,,,,,,,,,,,,,
4978715,1489967385702,,,,,,,,0.02,0.07,1.01,-3.1,0.1,-0.0,920,0,,,,,,,,,,,,,,,,,,,
4978735,1489967385722,,,,,,,,0.02,0.07,1.01,-3.1,0.1,-0.1,900,0,,,,,,,,,,,,,,,,,,,
4978755,1489967385742,,,,,61,,,0.03,0.06,1.0,-3.1,0.2,-0.1,900,0,1,1,0.0,0,37.478378,-122.203697,0.0,0.0,31.9,10,3,1.6,0,0.0,-1,0.0,0.0,0.0,0
4978775,1489967385762,,,,,,,,0.03,0.06,1.0,-3.1,0.2,-0.1,900,0,,,,,,,,,,,,,,,,,,,
4978795,1489967385782,,,,,,,,0.03,0.06,1.0,-3.1,0.2,-0.1,900,0,,,,,,,,,,,,,,,,,,,
4978815,1489967385804,,,,,,,,0.03,0.06,1.0,-3.1,0.2,-0.1,920,0,,,,,,,,,,,,,,,,,,,
4978835,1489967385824,,,,,,,,0.03,0.06,1.0,-3.1,0.2,-0.1,900,0,,,,,,,,,,,,,,,,,,,
4978855,1489967385844,0,87.8,,94.6,60,95.0,,0.03,0.07,1.0,-3.1,0.1,-0.0,920,0,1,1,0.0,0,37.478378,-122.203697,0.0,0.0,31.9,10,3,1.6,0,0.0,-1,0.0,0.0,0.0,0
4978875,1489967385864,,,,,,,,0.03,0.07,1.0,-3.1,0.1,-0.0,900,0,,,,,,,,,,,,,,,,,,,
4978895,1489967385884,,,,,,,,0.03,0.06,1.0,-3.1,0.2,-0.0,900,0,,,,,,,,,,,,,,,,,,,
4978915,1489967385904,,,,,,,,0.02,0.07,1.01,-3.1,0.2,-0.0,900,0,,,,,,,,,,,,,,,,,,,
4978935,1489967385924,,,,,,,,0.02,0.07,1.0,-3.1,0.1,-0.0,900,0,,,,,,,,,,,,,,,,,,,
4978955,1489967385944,,,,,60,,,0.02,0.06,1.01,-3.1,0.1,-0.1,900,0,1,1,0.0,0,37.478378,-122.203697,0.0,0.0,31.9,10,3,1.6,0,0.0,-1,0.0,0.0,0.0,0
4978975,1489967385964,,,,,,,,0.02,0.06,1.0,-3.1,0.1,-0.1,920,0,,,,,,,,,,,,,,,,,,,
4978995,1489967385984,,,,,,,,0.02,0.06,1.0,-3.1,0.2,-0.1,900,0,,,,,,,,,,,,,,,,,,,
4979015,1489967385998,,,,,,,,0.03,0.06,1.0,-3.1,0.1,-0.1,900,0,,,,,,,,,,,,,,,,,,,
4979035,1489967386018,,,,,,,,0.03,0.06,0.99,-3.1,0.1,-0.1,900,0,,,,,,,,,,,,,,,,,,,
4979055,1489967386038,0,86.9,,93.5,58,94.3,,0.03,0.06,0.99,-3.1,0.2,-0.1,900,0,1,1,0.0,0,37.478378,-122.203697,0.0,0.0,31.9,10,3,1.6,0,0.0,-1,0.0,0.0,0.0,0
4979075,1489967386058,,,,,,,,0.03,0.07,0.99,-3.1,0.1,-0.0,900,0,,,,,,,,,,,,,,,,,,,
4979095,1489967386078,,,,,,,,0.03,0.07,0.99,-3.1,-0.1,0.0,920,0,,,,,,,,,,,,,,,,,,,
4979115,1489967386104,,,,,,,,0.02,0.07,0.99,-3.1,-0.0,0.0,920,0,,,,,,,,,,,,,,,,,,,
4979135,1489967386124,,,,,,,,0.02,0.06,1.0,-3.1,0.1,0.0,900,0,,,,,,,,,,,,,,,,,,,
4979155,1489967386144,,,,,59,,,0.02,0.06,1.0,-3.1,0.1,0.0,900,0,1,1,0.0,0,37.478378,-122.203697,0.0,0.0,31.9,10,3,1.6,0,0.0,-1,0.0,0.0,0.0,0
4979175,1489967386164,,,,,,,,0.02,0.06,1.0,-3.1,0.1,-0.0,900,0,,,,,,,,,,,,,,,,,,,
4979195,1489967386184,,,,,,,,0.02,0.06,1.0,-3.1,0.1,-0.1,900,0,,,,,,,,,,,,,,,,,,,
4979215,1489967386204,,,,,,,,0.02,0.06,1.0,-3.1,0.2,-0.1,900,0,,,,,,,,,,,,,,,,,,,
4979235,1489967386224,,,,,,,,0.02,0.06,1.0,-3.1,0.1,-0.1,900,0,,,,,,,,,,,,,,,,,,,
4979255,1489967386244,0,86.6,,92.7,57,93.5,,0.03,0.06,1.0,-3.1,0.1,-0.1,900,0,1,1,0.0,0,37.478378,-122.203697,0.0,0.0,31.9,10,3,1.6,0,0.0,-1,0.0,0.0,0.0,0
4979275,1489967386264,,,,,,,,0.03,0.06,1.0,-3.1,0.2,-0.0,900,0,,,,,,,,,,,,,,,,,,,
4979295,1489967386284,,,,,,,,0.03,0.07,1.0,-3.1,0.1,-0.0,900,0,,,,,,,,,,,,,,,,,,,
4979315,1489967386304,,,,,,,,0.03,0.07,1.0,-3.1,0.1,-0.0,900,0,,,,,,,,,,,,,,,,,,,
4979335,1489967386324,,,,,,,,0.02,0.07,1.0,-3.1,0.1,0.0,900,0,,,,,,,,,,,,,,,,,,,
4979355,1489967386344,,,,,59,,,0.02,0.07,1.01,-3.1,0.2,0.0,900,0,1,1,0.0,0,37.478378,-122.203697,0.0,0.0,31.9,10,3,1.6,0,0.0,-1,0.0,0.0,0.0,0
4979375,1489967386364,,,,,,,,0.02,0.07,1.01,-3.1,0.3,0.0,900,0,,,,,,,,,,,,,,,,,,,
4979395,1489967386384,,,,,,,,0.02,0.07,1.01,-3.1,0.2,0.0,900,0,,,,,,,,,,,,,,,,,,,
4979415,1489967386404,,,,,,,,0.02,0.06,1.01,-3.1,0.1,-0.0,900,0,,,,,,,,,,,,,,,,,,,
4979435,1489967386424,,,,,,,,0.02,0.06,1.01,-3.1,0.2,-0.1,900,0,,,,,,,,,,,,,,,,,,,
4979455,1489967386444,0,89.4,,94.7,60,92.2,,0.02,0.06,1.01,-3.1,0.2,-0.1,920,0,1,1,0.0,0,37.478378,-122.203697,0.0,0.0,31.9,10,3,1.6,0,0.0,-1,0.0,0.0,0.0,0
4979475,1489967386464,,,,,,,,0.03,0.05,1.0,-3.1,0.2,-0.1,920,0,,,,,,,,,,,,,,,,,,,
4979495,1489967386484,,,,,,,,0.03,0.05,1.0,-3.1,0.2,-0.1,920,0,,,,,,,,,,,,,,,,,,,
4979515,1489967386503,,,,,,,,0.03,0.05,1.0,-3.1,0.3,-0.1,920,0,,,,,,,,,,,,,,,,,,,
4979535,1489967386523,,,,,,,,0.03,0.06,1.0,-3.1,0.2,-0.1,920,0,,,,,,,,,,,,,,,,,,,
4979555,1489967386543,,,,,61,,,0.03,0.07,1.0,-3.1,0.1,-0.0,900,0,1,1,0.0,0,37.478378,-122.203697,0.0,0.0,31.9,10,3,1.6,0,0.0,-1,0.0,0.0,0.0,0
4979575,1489967386563,,,,,,,,0.03,0.07,1.01,-3.1,0.1,-0.0,900,0,,,,,,,,,,,,,,,,,,,
4979595,1489967386583,,,,,,,,0.02,0.06,1.01,-3.1,0.2,-0.0,920,0,,,,,,,,,,,,,,,,,,,
4979615,1489967386603,,,,,,,,0.02,0.07,1.01,-3.1,0.2,-0.0,920,0,,,,,,,,,,,,,,,,,,,
4979635,1489967386623,,,,,,,,0.02,0.07,1.01,-3.1,0.2,-0.0,920,0,,,,,,,,,,,,,,,,,,,
4979655,1489967386643,0,87.1,-0.6,92.6,60,92.6,14.92,0.02,0.07,1.01,-3.1,0.2,-0.0,900,0,1,1,0.0,0,37.478378,-122.203697,0.0,0.0,31.9,10,3,1.6,0,0.0,-1,0.0,0.0,0.0,0
4979675,1489967386663,,,,,,,,0.02,0.06,1.01,-3.1,0.2,-0.1,900,0,,,,,,,,,,,,,,,,,,,
4979695,1489967386683,,,,,,,,0.02,0.06,1.01,-3.1,0.2,-0.1,920,0,,,,,,,,,,,,,,,,,,,
4979715,1489967386705,,,,,,,,0.03,0.06,1.01,-3.1,0.3,-0.1,920,0,,,,,,,,,,,,,,,,,,,
4979735,1489967386725,,,,,,,,0.03,0.06,1.0,-3.1,0.3,-0.1,920,0,,,,,,,,,,,,,,,,,,,
4979755,1489967386745,,,,,59,,,0.03,0.06,1.0,-3.1,0.3,-0.1,920,0,1,1,0.0,0,37.478378,-122.203697,0.0,0.0,31.9,10,3,1.6,0,0.0,-1,0.0,0.0,0.0,0
4979775,1489967386765,,,,,,,,0.03,0.06,1.0,-3.1,0.3,-0.1,920,0,,,,,,,,,,,,,,,,,,,
4979795,1489967386785,,,,,,,,0.03,0.06,1.0,-3.1,0.2,-0.1,900,0,,,,,,,,,,,,,,,,,,,
4979815,1489967386803,,,,,,,,0.03,0.07,1.0,-3.1,0.1,-0.0,900,0,,,,,,,,,,,,,,,,,,,
4979835,1489967386823,,,,,,,,0.02,0.06,1.0,-3.1,0.1,-0.0,900,0,,,,,,,,,,,,,,,,,,,
4979855,1489967386843,0,88.1,,92.7,59,92.5,,0.02,0.06,1.01,-3.1,0.2,-0.0,920,0,1,1,0.0,0,37.478378,-122.203697,0.0,0.0,31.9,10,3,1.6,0,0.0,-1,0.0,0.0,0.0,0
4979875,1489967386863,,,,,,,,0.02,0.07,1.01,-3.1,0.2,-0.1,920,0,,,,,,,,,,,,,,,,,,,
4979895,1489967386883,,,,,,,,0.02,0.07,1.01,-3.1,0.2,-0.0,920,0,,,,,,,,,,,,,,,,,,,
4979915,1489967386903,,,,,,,,0.02,0.07,1.01,-3.1,0.2,-0.1,900,0,,,,,,,,,,,,,,,,,,,
4979935,1489967386923,,,,,,,,0.02,0.06,1.01,-3.1,0.3,-0.1,900,0,,,,,,,,,,,,,,,,,,,
4979955,1489967386943,,,,,59,,,0.02,0.06,1.0,-3.1,0.4,-0.1,900,0,1,1,0.0,0,37.478378,-122.203697,0.0,0.0,31.9,10,3,1.6,0,0.0,-1,0.0,0.0,0.0,0
4979975,1489967386963,,,,,,,,0.03,0.06,1.0,-3.1,0.3,-0.1,900,0,,,,,,,,,,,,,,,,,,,
4979995,1489967386983,,,,,,,,0.03,0.06,0.99,-3.1,0.3,-0.1,900,0,,,,,,,,,,,,,,,,,,,
4980015,1489967386999,,,,,,,,0.03,0.06,1.0,-3.1,0.3,-0.1,900,0,,,,,,,,,,,,,,,,,,,
4980035,1489967387019,,,,,,,,0.03,0.06,1.0,-3.1,0.3,-0.1,920,0,,,,,,,,,,,,,,,,,,,
4980055,1489967387039,0,87.8,,92.7,59,92.3,,0.03,0.07,1.0,-3.1,0.2,-0.0,900,0,1,1,0.0,0,37.478378,-122.203697,0.0,0.0,31.9,10,3,1.6,0,0.0,-1,0.0,0.0,0.0,0
4980075,1489967387059,,,,,,,,0.03,0.07,1.0,-3.1,0.1,-0.0,900,0,,,,,,,,,,,,,,,,,,,
4980095,1489967387079,,,,,,,,0.02,0.07,1.01,-3.1,0.2,-0.0,900,0,,,,,,,,,,,,,,,,,,,
4980115,1489967387105,,,,,,,,0.02,0.07,1.01,-3.1,0.2,-0.1,900,0,,,,,,,,,,,,,,,,,,,
4980135,1489967387125,,,,,,,,0.02,0.07,1.01,-3.1,0.2,-0.1,900,0,,,,,,,,,,,,,,,,,,,
4980155,1489967387145,,,,,60,,,0.02,0.07,1.01,-3.1,0.2,-0.1,900,0,1,1,0.0,0,37.478378,-122.203697,0.0,0.0,31.9,10,3,1.6,0,0.0,-1,0.0,0.0,0.0,0
4980175,1489967387165,,,,,,,,0.02,0.07,1.01,-3.1,0.2,-0.1,900,0,,,,,,,,,,,,,,,,,,,
4980195,1489967387185,,,,,,,,0.03,0.07,1.01,-3.1,0.2,-0.1,900,0,,,,,,,,,,,,,,,,,,,
4980215,1489967387205,,,,,,,,0.03,0.07,1.0,-3.1,0.2,-0.1,900,0,,,,,,,,,,,,,,,,,,,
4980235,1489967387225,,,,,,,,0.03,0.07,1.0,-3.1,0.2,-0.1,900,0,,,,,,,,,,,,,,,,,,,
4980255,1489967387245,0,88.9,,93.3,58,92.0,,0.03,0.07,1.0,-3.1,0.2,-0.1,900,0,1,1,0.0,0,37.478378,-122.203697,0.0,0.0,31.9,10,3,1.6,0,0.0,-1,0.0,0.0,0.0,0
4980275,1489967387265,,,,,,,,0.03,0.07,1.0,-3.1,0.1,-0.0,920,0,,,,,,,,,,,,,,,,,,,
4980295,1489967387285,,,,,,,,0.02,0.07,1.0,-3.1,0.0,-0.0,900,0,,,,,,,,,,,,,,,,,,,
4980315,1489967387305,,,,,,,,0.02,0.07,1.01,-3.1,0.1,-0.0,900,0,,,,,,,,,,,,,,,,,,,
4980335,1489967387325,,,,,,,,0.02,0.07,1.01,-3.1,0.2,-0.0,900,0,,,,,,,,,,,,,,,,,,,
4980355,1489967387345,,,,,58,,,0.02,0.07,1.01,-3.1,0.2,-0.1,900,0,1,1,0.0,0,37.478378,-122.203697,0.0,0.0,31.9,10,3,1.6,0,0.0,-1,0.0,0.0,0.0,0
4980375,1489967387365,,,,,,,,0.02,0.07,1.01,-3.1,0.1,-0.1,900,0,,,,,,,,,,,,,,,,,,,
4980395,1489967387385,,,,,,,,0.02,0.06,1.01,-3.1,0.1,-0.1,900,0,,,,,,,,,,,,,,,,,,,
4980415,1489967387405,,,,,,,,0.02,0.06,1.01,-3.1,0.2,-0.1,920,0,,,,,,,,,,,,,,,,,,,
4980435,1489967387425,,,,,,,,0.03,0.06,1.0,-3.1,0.2,-0.2,900,0,,,,,,,,,,,,,,,,,,,
4980455,1489967387445,0,87.4,,92.6,58,92.7,,0.03,0.06,1.0,-3.1,0.1,-0.1,900,0,1,1,0.0,0,37.478378,-122.203697,0.0,0.0,31.9,10,3,1.6,0,0.0,-1,0.0,0.0,0.0,0
4980475,1489967387465,,,,,,,,0.03,0.06,1.0,-3.1,0.2,-0.1,900,0,,,,,,,,,,,,,,,,,,,
4980495,1489967387485,,,,,,,,0.03,0.06,1.0,-3.1,0.2,-0.1,900,0,,,,,,,,,,,,,,,,,,,
4980515,1489967387504,,,,,,,,0.03,0.07,1.0,-3.1,0.1,-0.1,900,0,,,,,,,,,,,,,,,,,,,
4980535,1489967387524,,,,,,,,0.02,0.07,1.0,-3.1,0.1,-0.0,900,0,,,,,,,,,,,,,,,,,,,
4980555,1489967387544,,,,,59,,,0.02,0.06,1.01,-3.1,0.2,-0.0,900,0,1,1,0.0,0,37.478378,-122.203697,0.0,0.0,31.9,10,3,1.6,0,0.0,-1,0.0,0.0,0.0,0
4980575,1489967387564,,,,,,,,0.02,0.06,1.01,-3.1,0.2,-0.0,880,0,,,,,,,,,,,,,,,,,,,
4980595,1489967387584,,,,,,,,0.02,0.06,1.01,-3.1,0.1,-0.0,900,0,,,,,,,,,,,,,,,,,,,
4980615,1489967387604,,,,,,,,0.02,0.06,1.0,-3.1,0.0,-0.1,900,0,,,,,,,,,,,,,,,,,,,
4980635,1489967387624,,,,,,,,0.02,0.06,1.0,-3.1,0.1,-0.1,900,0,,,,,,,,,,,,,,,,,,,
4980655,1489967387644,1,89.3,-0.8,94.6,61,92.2,14.83,0.03,0.06,1.0,-3.1,0.2,-0.1,900,0,1,1,0.0,0,37.478378,-122.203697,0.0,0.0,31.9,10,3,1.6,0,0.0,-1,0.0,0.0,0.0,0
4980675,1489967387664,,,,,,,,0.03,0.06,1.0,-3.1,0.1,-0.1,900,0,,,,,,,,,,,,,,,,,,,
4980695,1489967387684,,,,,,,,0.03,0.06,1.0,-3.1,0.2,-0.1,900,0,,,,,,,,,,,,,,,,,,,
4980715,1489967387704,,,,,,,,0.03,0.06,1.0,-3.1,0.2,-0.0,880,0,,,,,,,,,,,,,,,,,,,
4980735,1489967387724,,,,,,,,0.03,0.07,1.0,-3.1,0.1,-0.0,880,0,,,,,,,,,,,,,,,,,,,
4980755,1489967387744,,,,,59,,,0.02,0.06,1.0,-3.1,0.1,-0.0,880,0,1,1,0.0,0,37.478378,-122.203697,0.0,0.0,31.9,10,3,1.6,0,0.0,-1,0.0,0.0,0.0,0
4980775,1489967387764,,,,,,,,0.02,0.07,1.0,-3.1,0.2,-0.1,880,0,,,,,,,,,,,,,,,,,,,
4980795,1489967387784,,,,,,,,0.02,0.07,1.0,-3.1,0.1,-0.1,900,0,,,,,,,,,,,,,,,,,,,
4980815,1489967387804,,,,,,,,0.02,0.06,1.01,-3.1,0.0,-0.1,900,0,,,,,,,,,,,,,,,,,,,
4980835,1489967387824,,,,,,,,0.02,0.06,1.0,-3.1,0.1,-0.1,880,0,,,,,,,,,,,,,,,,,,,
4980855,1489967387844,0,86.6,,92.9,59,93.5,,0.03,0.06,1.0,-3.1,0.2,-0.1,880,0,1,1,0.0,0,37.478378,-122.203697,0.0,0.0,31.9,10,3,1.6,0,0.0,-1,0.0,0.0,0.0,0
4980875,1489967387864,,,,,,,,0.03,0.06,1.0,-3.1,0.2,-0.1,880,0,,,,,,,,,,,,,,,,,,,
4980895,1489967387884,,,,,,,,0.03,0.06,1.0,-3.1,0.2,-0.1,880,0,,,,,,,,,,,,,,,,,,,
4980915,1489967387904,,,,,,,,0.03,0.07,1.0,-3.1,0.2,-0.0,880,0,,,,,,,,,,,,,,,,,,,
4980935,1489967387924,,,,,,,,0.02,0.07,1.0,-3.1,0.1,-0.0,900,0,,,,,,,,,,,,,,,,,,,
4980955,1489967387944,,,,,57,,,0.02,0.06,1.0,-3.1,0.1,-0.0,900,0,1,1,0.0,0,37.478378,-122.203697,0.0,0.0,31.9,10,3,1.6,0,0.0,-1,0.0,0.0,0.0,0
4980975,1489967387964,,,,,,,,0.02,0.07,1.0,-3.1,0.1,-0.0,880,0,,,,,,,,,,,,,,,,,,,
4980995,1489967387984,,,,,,,,0.02,0.07,1.01,-3.1,0.1,-0.1,880,0,,,,,,,,,,,,,,,,,,,
4981015,1489967387998,,,,,,,,0.02,0.06,1.0,-3.1,0.0,-0.1,880,0,,,,,,,,,,,,,,,,,,,
4981035,1489967388018,,,,,,,,0.02,0.06,1.0,-3.1,0.2,-0.1,880,0,,,,,,,,,,,,,,,,,,,
4981055,1489967388038,0,89.4,,95.9,56,94.8,,0.03,0.06,1.0,-3.1,0.2,-0.1,880,0,1,1,0.0,0,37.478378,-122.203697,0.0,0.0,31.9,10,3,1.6,0,0.0,-1,0.0,0.0,0.0,0
4981075,1489967388058,,,,,,,,0.03,0.06,0.99,-3.1,0.2,-0.1,900,0,,,,,,,,,,,,,,,,,,,
4981095,1489967388078,,,,,,,,0.03,0.06,0.99,-3.1,0.2,-0.1,900,0,,,,,,,,,,,,,,,,,,,
4981115,1489967388104,,,,,,,,0.03,0.06,1.0,-3.1,0.2,-0.1,880,0,,,,,,,,,,,,,,,,,,,
4981135,1489967388124,,,,,,,,0.03,0.06,1.0,-3.1,0.2,-0.1,880,0,,,,,,,,,,,,,,,,,,,
4981155,1489967388144,,,,,56,,,0.02,0.06,1.0,-3.1,0.2,-0.1,880,0,1,1,0.0,0,37.478378,-122.203697,0.0,0.0,31.9,10,3,1.6,0,0.0,-1,0.0,0.0,0.0,0
4981175,1489967388164,,,,,,,,0.02,0.06,1.0,-3.1,0.2,-0.1,880,0,,,,,,,,,,,,,,,,,,,
4981195,1489967388184,,,,,,,,0.02,0.07,1.0,-3.1,0.1,-0.1,900,0,,,,,,,,,,,,,,,,,,,
4981215,1489967388204,,,,,,,,0.02,0.07,1.0,-3.1,0.2,-0.1,900,0,,,,,,,,,,,,,,,,,,,
4981235,1489967388224,,,,,,,,0.02,0.06,1.0,-3.1,0.3,-0.1,880,0,,,,,,,,,,,,,,,,,,,
4981255,1489967388244,0,88.7,,93.3,56,92.2,,0.03,0.06,1.0,-3.1,0.3,-0.1,880,0,1,1,0.0,0,37.478378,-122.203697,0.0,0.0,31.9,10,3,1.6,0,0.0,-1,0.0,0.0,0.0,0
4981275,1489967388264,,,,,,,,0.03,0.06,1.0,-3.1,0.3,-0.0,880,0,,,,,,,,,,,,,,,,,,,
4981295,1489967388284,,,,,,,,0.03,0.07,1.0,-3.2,0.2,-0.0,880,0,,,,,,,,,,,,,,,,,,,
4981315,1489967388304,,,,,,,,0.03,0.07,1.0,-3.2,0.2,-0.0,880,0,,,,,,,,,,,,,,,,,,,
4981335,1489967388324,,,,,,,,0.02,0.07,1.0,-3.1,0.2,-0.0,900,0,,,,,,,,,,,,,,,,,,,
4981355,1489967388344,,,,,57,,,0.02,0.07,1.01,-3.1,0.2,-0.0,900,0,1,1,0.0,0,37.478378,-122.203697,0.0,0.0,31.9,10,3,1.6,0,0.0,-1,0.0,0.0,0.0,0
4981375,1489967388364,,,,,,,,0.02,0.07,1.01,-3.1,0.2,-0.0,880,0,,,,,,,,,,,,,,,,,,,
4981395,1489967388384,,,,,,,,0.02,0.07,1.01,-3.1,0.1,-0.1,880,0,,,,,,,,,,,,,,,,,,,
4981415,1489967388403,,,,,,,,0.02,0.06,1.0,-3.1,0.1,-0.1,900,0,,,,,,,,,,,,,,,,,,,
4981435,1489967388423,,,,,,,,0.03,0.06,1.0,-3.1,0.2,-0.1,900,0,,,,,,,,,,,,,,,,,,,
4981455,1489967388443,0,88.7,,93.1,56,92.2,,0.03,0.06,1.0,-3.1,0.2,-0.1,900,0,1,1,0.0,0,37.478378,-122.203697,0.0,0.0,31.9,10,3,1.6,0,0.0,-1,0.0,0.0,0.0,0
4981475,1489967388463,,,,,,,,0.03,0.06,1.0,-3.1,0.3,-0.1,900,0,,,,,,,,,,,,,,,,,,,
4981495,1489967388483,,,,,,,,0.03,0.06,1.0,-3.1,0.2,-0.1,900,0,,,,,,,,,,,,,,,,,,,
4981515,1489967388503,,,,,,,,0.03,0.06,1.0,-3.1,0.2,-0.0,900,0,,,,,,,,,,,,,,,,,,,
4981535,1489967388523,,,,,,,,0.03,0.06,1.0,-3.1,0.1,-0.0,900,0,,,,,,,,,,,,,,,,,,,
4981555,1489967388543,,,,,57,,,0.02,0.06,1.0,-3.1,0.2,-0.1,900,0,1,1,0.0,0,37.478378,-122.203697,0.0,0.0,31.9,10,3,1.6,0,0.0,-1,0.0,0.0,0.0,0
4981575,1489967388563,,,,,,,,0.02,0.07,1.0,-3.1,0.1,-0.0,900,0,,,,,,,,,,,,,,,,,,,
4981595,1489967388583,,,,,,,,0.02,0.06,1.0,-3.1,0.0,-0.1,900,0,,,,,,,,,,,,,,,,,,,
4981615,1489967388599,,,,,,,,0.02,0.06,1.0,-3.2,0.1,-0.1,900,0,,,,,,,,,,,,,,,,,,,
4981635,1489967388619,,,,,,,,0.03,0.06,1.0,-3.1,0.2,-0.1,880,0,,,,,,,,,,,,,,,,,,,
4981655,1489967388639,0,90.0,-0.5,95.6,58,93.7,14.77,0.03,0.06,0.99,-3.2,0.2,-0.1,880,0,1,1,0.0,0,37.478378,-122.203697,0.0,0.0,31.9,10,3,1.6,0,0.0,-1,0.0,0.0,0.0,0
4981675,1489967388659,,,,,,,,0.03,0.06,0.99,-3.1,0.2,-0.0,900,0,,,,,,,,,,,,,,,,,,,
4981695,1489967388679,,,,,,,,0.03,0.06,1.0,-3.1,0.2,0.0,900,0,,,,,,,,,,,,,,,,,,,
4981715,1489967388703,,,,,,,,0.03,0.07,1.0,-3.1,0.2,0.0,900,0,,,,,,,,,,,,,,,,,,,
4981735,1489967388723,,,,,,,,0.02,0.07,1.0,-3.1,0.1,0.0,900,0,,,,,,,,,,,,,,,,,,,
4981755,1489967388743,,,,,59,,,0.02,0.06,1.0,-3.1,0.1,-0.0,900,0,1,1,0.0,0,37.478378,-122.203697,0.0,0.0,31.9,10,3,1.6,0,0.0,-1,0.0,0.0,0.0,0
4981775,1489967388763,,,,,,,,0.02,0.07,1.01,-3.1,0.2,-0.0,880,0,,,,,,,,,,,,,,,,,,,
4981795,1489967388783,,,,,,,,0.02,0.07,1.0,-3.2,0.1,-0.0,880,0,,,,,,,,,,,,,,,,,,,
4981815,1489967388803,,,,,,,,0.02,0.07,1.0,-3.1,0.0,-0.0,880,0,,,,,,,,,,,,,,,,,,,
4981835,1489967388823,,,,,,,,0.02,0.07,1.0,-3.1,0.2,-0.0,900,0,,,,,,,,,,,,,,,,,,,
4981855,1489967388843,0,89.2,,94.3,58,92.0,,0.03,0.06,1.0,-3.1,0.2,-0.1,900,0,1,1,0.0,0,37.478378,-122.203697,0.0,0.0,31.9,10,3,1.6,0,0.0,-1,0.0,0.0,0.0,0
4981875,1489967388863,,,,,,,,0.03,0.06,0.99,-3.1,0.1,-0.0,900,0,,,,,,,,,,,,,,,,,,,
4981895,1489967388883,,,,,,,,0.03,0.06,0.99,-3.1,0.2,-0.0,900,0,,,,,,,,,,,,,,,,,,,
4981915,1489967388905,,,,,,,,0.03,0.07,1.0,-3.1,0.1,-0.0,880,0,,,,,,,,,,,,,,,,,,,
4981935,1489967388925,,,,,,,,0.03,0.07,1.0,-3.1,0.1,-0.0,880,0,,,,,,,,,,,,,,,,,,,
4981955,1489967388945,,,,,57,,,0.02,0.06,1.0,-3.1,0.1,0.0,880,0,1,1,0.0,0,37.478378,-122.203697,0.0,0.0,31.9,10,3,1.6,0,0.0,-1,0.0,0.0,0.0,0
4981975,1489967388965,,,,,,,,0.02,0.07,1.0,-3.1,0.1,-0.0,880,0,,,,,,,,,,,,,,,,,,,
4981995,1489967388985,,,,,,,,0.02,0.07,1.0,-3.1,0.0,-0.0,880,0,,,,,,,,,,,,,,,,,,,
4982015,1489967388999,,,,,,,,0.02,0.06,1.0,-3.2,0.1,-0.1,900,0,,,,,,,,,,,,,,,,,,,
4982035,1489967389019,,,,,,,,0.02,0.06,1.0,-3.2,0.2,-0.1,880,0,,,,,,,,,,,,,,,,,,,
4982055,1489967389039,0,89.5,,95.4,57,93.3,,0.03,0.06,0.99,-3.1,0.2,-0.1,880,0,1,1,0.0,0,37.478378,-122.203697,0.0,0.0,31.9,10,3,1.6,0,0.0,-1,0.0,0.0,0.0,0
4982075,1489967389059,,,,,,,,0.03,0.06,0.99,-3.2,0.2,-0.1,880,0,,,,,,,,,,,,,,,,,,,
4982095,1489967389079,,,,,,,,0.03,0.07,0.99,-3.2,0.1,-0.0,880,0,,,,,,,,,,,,,,,,,,,
4982115,1489967389105,,,,,,,,0.03,0.07,1.0,-3.2,0.1,-0.0,900,0,,,,,,,,,,,,,,,,,,,
4982135,1489967389125,,,,,,,,0.02,0.07,1.0,-3.2,0.1,-0.0,900,0,,,,,,,,,,,,,,,,,,,
4982155,1489967389145,,,,,56,,,0.02,0.07,1.0,-3.2,0.2,-0.0,900,0,1,1,0.0,0,37.478378,-122.203697,0.0,0.0,31.9,10,3,1.6,0,0.0,-1,0.0,0.0,0.0,0
4982175,1489967389165,,,,,,,,0.02,0.07,1.01,-3.2,0.2,-0.0,880,0,,,,,,,,,,,,,,,,,,,
4982195,1489967389185,,,,,,,,0.02,0.07,1.01,-3.2,0.1,-0.0,880,0,,,,,,,,,,,,,,,,,,,
4982215,1489967389205,,,,,,,,0.02,0.06,1.01,-3.2,0.1,-0.0,880,0,,,,,,,,,,,,,,,,,,,
4982235,1489967389225,,,,,,,,0.02,0.06,1.0,-3.2,0.2,-0.0,880,0,,,,,,,,,,,,,,,,,,,
4982255,1489967389245,0,89.8,,95.4,57,93.4,,0.03,0.06,1.0,-3.2,0.2,-0.0,880,0,1,1,0.0,0,37.478378,-122.203697,0.0,0.0,31.9,10,3,1.6,0,0.0,-1,0.0,0.0,0.0,0
4982275,1489967389265,,,,,,,,0.03,0.06,1.0,-3.2,0.2,-0.0,880,0,,,,,,,,,,,,,,,,,,,
4982295,1489967389285,,,,,,,,0.03,0.06,1.0,-3.2,0.1,-0.0,900,0,,,,,,,,,,,,,,,,,,,
4982315,1489967389305,,,,,,,,0.03,0.07,1.0,-3.2,0.1,-0.0,880,0,,,,,,,,,,,,,,,,,,,
4982335,1489967389325,,,,,,,,0.02,0.06,1.0,-3.2,0.1,-0.0,880,0,,,,,,,,,,,,,,,,,,,
4982355,1489967389345,,,,,56,,,0.02,0.07,1.0,-3.2,0.2,-0.0,880,0,1,1,0.0,0,37.478378,-122.203697,0.0,0.0,31.9,10,3,1.6,0,0.0,-1,0.0,0.0,0.0,0
4982375,1489967389365,,,,,,,,0.02,0.06,1.0,-3.2,0.2,-0.0,880,0,,,,,,,,,,,,,,,,,,,
4982395,1489967389385,,,,,,,,0.02,0.06,1.0,-3.2,0.1,-0.1,900,0,,,,,,,,,,,,,,,,,,,
4982415,1489967389404,,,,,,,,0.02,0.06,1.0,-3.1,0.2,-0.1,900,0,,,,,,,,,,,,,,,,,,,
4982435,1489967389424,,,,,,,,0.02,0.05,0.99,-3.1,0.2,-0.1,900,0,,,,,,,,,,,,,,,,,,,
4982455,1489967389444,0,89.6,,95.6,58,94.2,,0.03,0.06,0.99,-3.2,0.2,-0.1,880,0,1,1,0.0,0,37.478378,-122.203697,0.0,0.0,31.9,10,3,1.6,0,0.0,-1,0.0,0.0,0.0,0
4982475,1489967389464,,,,,,,,0.03,0.06,0.99,-3.1,0.1,-0.1,880,0,,,,,,,,,,,,,,,,,,,
4982495,1489967389484,,,,,,,,0.03,0.06,0.99,-3.1,0.1,-0.0,880,0,,,,,,,,,,,,,,,,,,,
4982515,1489967389504,,,,,,,,0.02,0.06,0.99,-3.1,0.1,-0.0,880,0,,,,,,,,,,,,,,,,,,,
4982535,1489967389524,,,,,,,,0.02,0.06,1.0,-3.1,0.1,-0.0,880,0,,,,,,,,,,,,,,,,,,,
4982555,1489967389544,,,,,56,,,0.02,0.06,1.0,-3.1,0.2,-0.0,900,0,1,1,0.0,0,37.478378,-122.203697,0.0,0.0,31.9,10,3,1.6,0,0.0,-1,0.0,0.0,0.0,0
4982575,1489967389564,,,,,,,,0.02,0.06,1.0,-3.1,0.1,-0.1,880,0,,,,,,,,,,,,,,,,,,,
4982595,1489967389584,,,,,,,,0.02,0.06,1.0,-3.2,0.1,-0.1,880,0,,,,,,,,,,,,,,,,,,,
4982615,1489967389604,,,,,,,,0.02,0.06,1.0,-3.1,0.2,-0.1,880,0,,,,,,,,,,,,,,,,,,,
4982635,1489967389624,,,,,,,,0.03,0.06,1.0,-3.1,0.2,-0.1,880,0,,,,,,,,,,,,,,,,,,,
4982655,1489967389644,0,87.6,-0.5,94.2,56,94.2,14.92,0.03,0.06,1.0,-3.2,0.2,-0.0,880,0,1,1,0.0,0,37.478378,-122.203697,0.0,0.0,31.9,10,3,1.6,0,0.0,-1,0.0,0.0,0.0,0
4982675,1489967389664,,,,,,,,0.03,0.07,1.0,-3.2,0.1,-0.0,880,0,,,,,,,,,,,,,,,,,,,
4982695,1489967389684,,,,,,,,0.03,0.07,1.0,-3.2,0.1,-0.0,900,0,,,,,,,,,,,,,,,,,,,
4982715,1489967389704,,,,,,,,0.02,0.07,1.0,-3.2,0.1,-0.0,880,0,,,,,,,,,,,,,,,,,,,
4982735,1489967389724,,,,,,,,0.02,0.07,1.0,-3.2,0.1,-0.0,880,0,,,,,,,,,,,,,,,,,,,
4982755,1489967389744,,,,,58,,,0.02,0.07,1.01,-3.2,0.1,-0.0,880,0,1,1,0.0,0,37.478378,-122.203697,0.0,0.0,31.9,10,3,1.6,0,0.0,-1,0.0,0.0,0.0,0
4982775,1489967389764,,,,,,,,0.02,0.06,1.01,-3.1,0.1,-0.1,880,0,,,,,,,,,,,,,,,,,,,
4982795,1489967389784,,,,,,,,0.02,0.06,1.0,-3.1,0.2,-0.1,900,0,,,,,,,,,,,,,,,,,,,
4982815,1489967389802,,,,,,,,0.03,0.06,1.0,-3.1,0.2,-0.1,900,0,,,,,,,,,,,,,,,,,,,
4982835,1489967389822,,,,,,,,0.03,0.06,1.0,-3.1,0.2,-0.1,900,0,,,,,,,,,,,,,,,,,,,
4982855,1489967389842,0,89.2,,94.2,57,92.3,,0.03,0.06,1.0,-3.1,0.2,-0.0,880,0,1,1,0.0,0,37.478378,-122.203697,0.0,0.0,31.9,10,3,1.6,0,0.0,-1,0.0,0.0,0.0,0
4982875,1489967389862,,,,,,,,0.03,0.06,1.0,-3.1,0.1,-0.0,880,0,,,,,,,,,,,,,,,,,,,
4982895,1489967389882,,,,,,,,0.03,0.07,1.0,-3.2,0.1,-0.0,880,0,,,,,,,,,,,,,,,,,,,
4982915,1489967389904,,,,,,,,0.03,0.06,1.0,-3.1,0.1,-0.1,880,0,,,,,,,,,,,,,,,,,,,
4982935,1489967389924,,,,,,,,0.02,0.07,1.0,-3.1,0.1,-0.0,900,0,,,,,,,,,,,,,,,,,,,
4982955,1489967389944,,,,,58,,,0.02,0.07,1.01,-3.1,0.1,-0.1,900,0,1,1,0.0,0,37.478378,-122.203697,0.0,0.0,31.9,10,3,1.6,0,0.0,-1,0.0,0.0,0.0,0
4982975,1489967389964,,,,,,,,0.03,0.06,1.01,-3.1,0.1,-0.1,880,0,,,,,,,,,,,,,,,,,,,
4982995,1489967389984,,,,,,,,0.03,0.06,1.0,-3.1,0.2,-0.1,880,0,,,,,,,,,,,,,,,,,,,
4983015,1489967389998,,,,,,,,0.03,0.07,1.0,-3.1,0.2,-0.1,880,0,,,,,,,,,,,,,,,,,,,
4983035,1489967390018,,,,,,,,0.03,0.07,1.0,-3.1,0.2,-0.1,880,0,,,,,,,,,,,,,,,,,,,
4983055,1489967390038,0,88.6,,95.3,55,94.7,,0.03,0.07,1.0,-3.1,0.1,-0.0,900,0,1,1,0.0,0,37.478378,-122.203697,0.0,0.0,31.9,10,3,1.6,0,0.0,-1,0.0,0.0,0.0,0
4983075,1489967390058,,,,,,,,0.03,0.07,1.0,-3.1,0.0,0.0,900,0,,,,,,,,,,,,,,,,,,,
4983095,1489967390078,,,,,,,,0.03,0.07,1.0,-3.1,0.0,0.0,900,0,,,,,,,,,,,,,,,,,,,
4983115,1489967390096,,,,,,,,0.02,0.07,1.01,-3.1,0.1,-0.0,880,0,,,,,,,,,,,,,,,,,,,
4983135,1489967390116,,,,,,,,0.02,0.07,1.01,-3.1,0.1,-0.0,900,0,,,,,,,,,,,,,,,,,,,
4983155,1489967390136,,,,,56,,,0.02,0.07,1.01,-3.1,0.1,-0.0,900,0,1,1,0.0,0,37.478378,-122.203697,0.0,0.0,31.9,10,3,1.6,0,0.0,-1,0.0,0.0,0.0,0
4983175,1489967390156,,,,,,,,0.02,0.07,1.01,-3.1,0.1,-0.1,900,0,,,,,,,,,,,,,,,,,,,
4983195,1489967390176,,,,,,,,0.02,0.06,1.01,-3.1,0.2,-0.1,900,0,,,,,,,,,,,,,,,,,,,
4983215,1489967390204,,,,,,,,0.03,0.06,1.0,-3.1,0.2,-0.1,900,0,,,,,,,,,,,,,,,,,,,
4983235,1489967390224,,,,,,,,0.03,0.06,1.0,-3.1,0.1,-0.1,900,0,,,,,,,,,,,,,,,,,,,
4983255,1489967390244,0,88.9,,93.6,57,92.3,,0.03,0.06,1.0,-3.1,0.1,-0.1,880,0,1,1,0.0,0,37.478378,-122.203697,0.0,0.0,31.9,10,3,1.6,0,0.0,-1,0.0,0.0,0.0,0
4983275,1489967390264,,,,,,,,0.03,0.06,1.0,-3.1,0.1,-0.1,880,0,,,,,,,,,,,,,,,,,,,
4983295,1489967390284,,,,,,,,0.03,0.06,1.0,-3.1,0.0,-0.1,880,0,,,,,,,,,,,,,,,,,,,
4983315,1489967390304,,,,,,,,0.02,0.06,1.0,-3.1,0.1,-0.1,880,0,,,,,,,,,,,,,,,,,,,
4983335,1489967390324,,,,,,,,0.03,0.06,1.01,-3.1,0.2,-0.1,880,0,,,,,,,,,,,,,,,,,,,
4983355,1489967390344,,,,,57,,,0.02,0.06,1.01,-3.1,0.1,-0.1,900,0,1,1,0.0,0,37.478378,-122.203697,0.0,0.0,31.9,10,3,1.6,0,0.0,-1,0.0,0.0,0.0,0
4983375,1489967390364,,,,,,,,0.02,0.06,1.0,-3.1,0.1,-0.1,860,0,,,,,,,,,,,,,,,,,,,
4983395,1489967390384,,,,,,,,0.02,0.06,1.0,-3.1,0.2,-0.1,860,0,,,,,,,,,,,,,,,,,,,
4983415,1489967390404,,,,,,,,0.03,0.06,1.0,-3.1,0.2,-0.1,860,0,,,,,,,,,,,,,,,,,,,
4983435,1489967390424,,,,,,,,0.03,0.06,1.0,-3.1,0.2,-0.1,860,0,,,,,,,,,,,,,,,,,,,
4983455,1489967390444,0,89.8,,95.8,56,94.1,,0.03,0.07,1.0,-3.1,0.1,-0.0,880,0,1,1,0.0,0,37.478378,-122.203697,0.0,0.0,31.9,10,3,1.6,0,0.0,-1,0.0,0.0,0.0,0
4983475,1489967390464,,,,,,,,0.02,0.07,1.0,-3.1,0.1,-0.0,880,0,,,,,,,,,,,,,,,,,,,
4983495,1489967390484,,,,,,,,0.02,0.07,1.01,-3.1,0.1,-0.0,880,0,,,,,,,,,,,,,,,,,,,
4983515,1489967390503,,,,,,,,0.02,0.07,1.01,-3.1,0.1,-0.1,860,0,,,,,,,,,,,,,,,,,,,
4983535,1489967390523,,,,,,,,0.02,0.06,1.01,-3.1,0.1,-0.1,860,0,,,,,,,,,,,,,,,,,,,
4983555,1489967390543,,,,,57,,,0.02,0.06,1.01,-3.1,0.1,-0.1,860,0,1,1,0.0,0,37.478378,-122.203697,0.0,0.0,31.9,10,3,1.6,0,0.0,-1,0.0,0.0,0.0,0
4983575,1489967390563,,,,,,,,0.03,0.06,1.0,-3.1,0.1,-0.1,860,0,,,,,,,,,,,,,,,,,,,
4983595,1489967390583,,,,,,,,0.03,0.06,1.0,-3.1,0.1,-0.0,880,0,,,,,,,,,,,,,,,,,,,
4983615,1489967390603,,,,,,,,0.03,0.06,1.0,-3.1,0.1,-0.0,880,0,,,,,,,,,,,,,,,,,,,
4983635,1489967390623,,,,,,,,0.03,0.06,1.0,-3.1,0.0,-0.0,900,0,,,,,,,,,,,,,,,,,,,
4983655,1489967390643,0,89.2,-0.1,95.6,57,94.6,14.88,0.03,0.06,1.0,-3.1,0.0,-0.0,880,0,1,1,0.0,0,37.478378,-122.203697,0.0,0.0,31.9,10,3,1.6,0,0.0,-1,0.0,0.0,0.0,0
4983675,1489967390663,,,,,,,,0.02,0.06,1.0,-3.1,0.1,-0.0,880,0,,,,,,,,,,,,,,,,,,,
4983695,1489967390683,,,,,,,,0.02,0.06,1.01,-3.1,0.1,-0.0,880,0,,,,,,,,,,,,,,,,,,,
4983715,1489967390703,,,,,,,,0.02,0.06,1.01,-3.1,0.1,-0.1,880,0,,,,,,,,,,,,,,,,,,,
4983735,1489967390723,,,,,,,,0.02,0.06,1.0,-3.1,0.2,-0.1,880,0,,,,,,,,,,,,,,,,,,,
4983755,1489967390743,,,,,58,,,0.03,0.06,1.0,-3.1,0.2,-0.1,880,0,1,1,0.0,0,37.478378,-122.203697,0.0,0.0,31.9,10,3,1.6,0,0.0,-1,0.0,0.0,0.0,0
4983775,1489967390763,,,,,,,,0.03,0.06,1.0,-3.1,0.2,-0.1,900,0,,,,,,,,,,,,,,,,,,,
4983795,1489967390783,,,,,,,,0.03,0.06,1.0,-3.1,0.2,-0.1,880,0,,,,,,,,,,,,,,,,,,,
4983815,1489967390803,,,,,,,,0.03,0.07,1.0,-3.1,0.1,-0.0,880,0,,,,,,,,,,,,,,,,,,,
4983835,1489967390823,,,,,,,,0.02,0.06,1.0,-3.1,0.1,-0.0,880,0,,,,,,,,,,,,,,,,,,,
4983855,1489967390843,0,89.4,,95.4,57,94.8,,0.02,0.06,1.0,-3.1,0.2,-0.0,880,0,1,1,0.0,0,37.478378,-122.203697,0.0,0.0,31.9,10,3,1.6,0,0.0,-1,0.0,0.0,0.0,0
4983875,1489967390863,,,,,,,,0.02,0.07,1.01,-3.1,0.2,-0.0,880,0,,,,,,,,,,,,,,,,,,,
4983895,1489967390883,,,,,,,,0.02,0.06,1.01,-3.1,0.2,-0.1,900,0,,,,,,,,,,,,,,,,,,,
4983915,1489967390905,,,,,,,,0.02,0.06,1.01,-3.1,0.2,-0.1,880,0,,,,,,,,,,,,,,,,,,,
4983935,1489967390925,,,,,,,,0.03,0.06,1.0,-3.1,0.2,-0.1,880,0,,,,,,,,,,,,,,,,,,,
4983955,1489967390945,,,,,58,,,0.03,0.06,1.0,-3.1,0.2,-0.1,880,0,1,1,0.0,0,37.478378,-122.203697,0.0,0.0,31.9,10,3,1.6,0,0.0,-1,0.0,0.0,0.0,0
4983975,1489967390965,,,,,,,,0.03,0.07,1.0,-3.1,0.2,-0.1,880,0,,,,,,,,,,,,,,,,,,,
4983995,1489967390985,,,,,,,,0.03,0.07,1.0,-3.1,0.1,-0.0,880,0,,,,,,,,,,,,,,,,,,,
4984015,1489967390997,,,,,,,,0.02,0.07,1.0,-3.1,0.1,-0.0,900,0,,,,,,,,,,,,,,,,,,,
4984035,1489967391017,,,,,,,,0.02,0.07,1.01,-3.1,0.2,-0.1,900,0,,,,,,,,,,,,,,,,,,,
4984055,1489967391037,0,88.4,,94.3,58,92.4,,0.02,0.07,1.01,-3.1,0.2,-0.1,880,0,1,1,0.0,0,37.478378,-122.203697,0.0,0.0,31.9,10,3,1.6,0,0.0,-1,0.0,0.0,0.0,0
4984075,1489967391057,,,,,,,,0.02,0.07,1.01,-3.1,0.1,-0.1,860,0,,,,,,,,,,,,,,,,,,,
4984095,1489967391077,,,,,,,,0.02,0.07,1.01,-3.1,0.1,-0.1,860,0,,,,,,,,,,,,,,,,,,,
4984115,1489967391105,,,,,,,,0.02,0.07,1.01,-3.1,0.2,-0.1,860,0,,,,,,,,,,,,,,,,,,,
4984135,1489967391125,,,,,,,,0.03,0.07,1.0,-3.1,0.1,-0.1,880,0,,,,,,,,,,,,,,,,,,,
4984155,1489967391145,,,,,56,,,0.03,0.07,1.0,-3.1,0.1,-0.1,880,0,1,1,0.0,0,37.478378,-122.203697,0.0,0.0,31.9,10,3,1.6,0,0.0,-1,0.0,0.0,0.0,0
4984175,1489967391165,,,,,,,,0.03,0.07,1.0,-3.1,0.1,-0.0,880,0,,,,,,,,,,,,,,,,,,,
4984195,1489967391185,,,,,,,,0.03,0.07,1.01,-3.1,0.1,-0.0,860,0,,,,,,,,,,,,,,,,,,,
4984215,1489967391205,,,,,,,,0.02,0.07,1.01,-3.1,0.2,-0.1,860,0,,,,,,,,,,,,,,,,,,,
4984235,1489967391225,,,,,,,,0.02,0.07,1.01,-3.1,0.1,-0.1,860,0,,,,,,,,,,,,,,,,,,,
4984255,1489967391245,0,89.0,,94.7,58,92.3,,0.02,0.06,1.01,-3.1,0.2,-0.1,860,0,1,1,0.0,0,37.478378,-122.203697,0.0,0.0,31.9,10,3,1.6,0,0.0,-1,0.0,0.0,0.0,0
4984275,1489967391265,,,,,,,,0.02,0.06,1.01,-3.1,0.2,-0.1,860,0,,,,,,,,,,,,,,,,,,,
4984295,1489967391285,,,,,,,,0.03,0.06,1.0,-3.1,0.2,-0.1,880,0,,,,,,,,,,,,,,,,,,,
4984315,1489967391305,,,,,,,,0.03,0.06,1.0,-3.1,0.2,-0.1,880,0,,,,,,,,,,,,,,,,,,,
4984335,1489967391325,,,,,,,,0.03,0.07,1.0,-3.1,0.2,-0.1,860,0,,,,,,,,,,,,,,,,,,,
4984355,1489967391345,,,,,57,,,0.02,0.06,1.0,-3.1,0.2,-0.0,860,0,1,1,0.0,0,37.478378,-122.203697,0.0,0.0,31.9,10,3,1.6,0,0.0,-1,0.0,0.0,0.0,0
4984375,1489967391365,,,,,,,,0.02,0.06,1.01,-3.1,0.2,-0.1,860,0,,,,,,,,,,,,,,,,,,,
4984395,1489967391385,,,,,,,,0.02,0.06,1.01,-3.1,0.1,-0.1,880,0,,,,,,,,,,,,,,,,,,,
4984415,1489967391405,,,,,,,,0.02,0.06,1.01,-3.1,0.1,-0.1,880,0,,,,,,,,,,,,,,,,,,,
4984435,1489967391425,,,,,,,,0.02,0.06,1.0,-3.1,0.2,-0.1,880,0,,,,,,,,,,,,,,,,,,,
4984455,1489967391445,0,88.5,,94.5,56,94.4,,0.03,0.06,1.0,-3.1,0.2,-0.1,880,0,1,1,0.0,0,37.478378,-122.203697,0.0,0.0,31.9,10,3,1.6,0,0.0,-1,0.0,0.0,0.0,0
4984475,1489967391465,,,,,,,,0.03,0.06,1.0,-3.1,0.2,-0.1,860,0,,,,,,,,,,,,,,,,,,,
4984495,1489967391485,,,,,,,,0.03,0.06,1.0,-3.1,0.1,-0.0,880,0,,,,,,,,,,,,,,,,,,,
4984515,1489967391504,,,,,,,,0.03,0.07,1.0,-3.1,0.1,-0.0,880,0,,,,,,,,,,,,,,,,,,,
4984535,1489967391524,,,,,,,,0.03,0.06,1.01,-3.1,0.1,-0.0,880,0,,,,,,,,,,,,,,,,,,,
4984555,1489967391544,,,,,57,,,0.02,0.07,1.01,-3.1,0.2,-0.0,880,0,1,1,0.0,0,37.478378,-122.203697,0.0,0.0,31.9,10,3,1.6,0,0.0,-1,0.0,0.0,0.0,0
4984575,1489967391564,,,,,,,,0.02,0.07,1.01,-3.1,0.2,-0.0,900,0,,,,,,,,,,,,,,,,,,,
4984595,1489967391584,,,,,,,,0.02,0.06,1.01,-3.1,0.1,-0.1,860,0,,,,,,,,,,,,,,,,,,,
4984615,1489967391604,,,,,,,,0.02,0.06,1.01,-3.1,0.2,-0.1,880,0,,,,,,,,,,,,,,,,,,,
4984635,1489967391624,,,,,,,,0.03,0.06,1.01,-3.1,0.3,-0.1,880,0,,,,,,,,,,,,,,,,,,,
4984655,1489967391644,0,87.7,-0.6,93.8,56,93.8,14.91,0.03,0.06,1.01,-3.1,0.2,-0.1,880,0,1,1,0.0,0,37.478378,-122.203697,0.0,0.0,31.9,10,3,1.6,0,0.0,-1,0.0,0.0,0.0,0
4984675,1489967391664,,,,,,,,0.03,0.06,1.0,-3.1,0.2,-0.0,880,0,,,,,,,,,,,,,,,,,,,
4984695,1489967391684,,,,,,,,0.03,0.07,1.0,-3.1,0.1,-0.0,880,0,,,,,,,,,,,,,,,,,,,
4984715,1489967391704,,,,,,,,0.02,0.07,1.01,-3.1,0.1,-0.0,900,0,,,,,,,,,,,,,,,,,,,
4984735,1489967391724,,,,,,,,0.02,0.07,1.01,-3.1,0.1,-0.0,860,0,,,,,,,,,,,,,,,,,,,
4984755,1489967391744,,,,,57,,,0.02,0.07,1.01,-3.1,0.1,-0.0,880,0,1,1,0.0,0,37.478378,-122.203697,0.0,0.0,31.9,10,3,1.6,0,0.0,-1,0.0,0.0,0.0,0
4984775,1489967391764,,,,,,,,0.02,0.06,1.01,-3.1,0.0,-0.1,880,0,,,,,,,,,,,,,,,,,,,
4984795,1489967391784,,,,,,,,0.02,0.06,1.0,-3.1,0.1,-0.1,880,0,,,,,,,,,,,,,,,,,,,
4984815,1489967391804,,,,,,,,0.03,0.06,1.0,-3.1,0.1,-0.1,880,0,,,,,,,,,,,,,,,,,,,
4984835,1489967391824,,,,,,,,0.03,0.06,0.99,-3.1,0.1,-0.1,880,0,,,,,,,,,,,,,,,,,,,
4984855,1489967391844,0,89.7,,96.0,56,94.6,,0.03,0.06,0.99,-3.1,0.1,-0.1,900,0,1,1,0.0,0,37.478378,-122.203697,0.0,0.0,31.9,10,3,1.6,0,0.0,-1,0.0,0.0,0.0,0
4984875,1489967391864,,,,,,,,0.03,0.07,0.99,-3.1,0.1,-0.0,860,0,,,,,,,,,,,,,,,,,,,
4984895,1489967391884,,,,,,,,0.02,0.07,1.0,-3.1,0.2,-0.0,880,0,,,,,,,,,,,,,,,,,,,
4984915,1489967391904,,,,,,,,0.02,0.06,1.0,-3.1,0.1,-0.0,860,0,,,,,,,,,,,,,,,,,,,
4984935,1489967391924,,,,,,,,0.02,0.06,1.0,-3.1,0.1,-0.1,860,0,,,,,,,,,,,,,,,,,,,
4984955,1489967391944,,,,,58,,,0.02,0.06,1.0,-3.1,0.1,-0.1,880,0,1,1,0.0,0,37.478378,-122.203697,0.0,0.0,31.9,10,3,1.6,0,0.0,-1,0.0,0.0,0.0,0
4984975,1489967391964,,,,,,,,0.02,0.06,1.0,-3.1,0.2,-0.1,900,0,,,,,,,,,,,,,,,,,,,
4984995,1489967391984,,,,,,,,0.03,0.06,1.0,-3.1,0.2,-0.1,900,0,,,,,,,,,,,,,,,,,,,
4985015,1489967391998,,,,,,,,0.03,0.06,0.99,-3.1,0.2,-0.1,860,0,,,,,,,,,,,,,,,,,,,
4985035,1489967392018,,,,,,,,0.03,0.06,0.99,-3.1,0.1,-0.0,860,0,,,,,,,,,,,,,,,,,,,
4985055,1489967392038,0,89.0,,95.2,56,94.5,,0.03,0.06,0.99,-3.1,0.1,-0.0,860,0,1,1,0.0,0,37.478378,-122.203697,0.0,0.0,31.9,10,3,1.6,0,0.0,-1,0.0,0.0,0.0,0
4985075,1489967392058,,,,,,,,0.03,0.06,1.0,-3.1,0.2,-0.0,860,0,,,,,,,,,,,,,,,,,,,
4985095,1489967392078,,,,,,,,0.02,0.06,1.0,-3.1,0.1,-0.0,880,0,,,,,,,,,,,,,,,,,,,
4985115,1489967392104,,,,,,,,0.02,0.06,1.0,-3.1,0.1,-0.1,880,0,,,,,,,,,,,,,,,,,,,
4985135,1489967392124,,,,,,,,0.02,0.06,1.0,-3.1,0.1,-0.1,860,0,,,,,,,,,,,,,,,,,,,
4985155,1489967392144,,,,,56,,,0.03,0.06,1.0,-3.1,0.2,-0.1,860,0,1,1,0.0,0,37.478378,-122.203697,0.0,0.0,31.9,10,3,1.6,0,0.0,-1,0.0,0.0,0.0,0
4985175,1489967392164,,,,,,,,0.03,0.06,1.0,-3.1,0.2,-0.1,860,0,,,,,,,,,,,,,,,,,,,
4985195,1489967392184,,,,,,,,0.03,0.06,1.0,-3.1,0.2,-0.1,860,0,,,,,,,,,,,,,,,,,,,
4985215,1489967392204,,,,,,,,0.03,0.07,1.0,-3.1,0.1,-0.0,880,0,,,,,,,,,,,,,,,,,,,
4985235,1489967392224,,,,,,,,0.02,0.07,1.0,-3.1,0.2,-0.0,880,0,,,,,,,,,,,,,,,,,,,
4985255,1489967392244,0,87.5,,93.6,55,92.5,,0.02,0.07,1.0,-3.1,0.2,-0.0,900,0,1,1,0.0,0,37.478378,-122.203697,0.0,0.0,31.9,10,3,1.6,0,0.0,-1,0.0,0.0,0.0,0
4985275,1489967392264,,,,,,,,0.02,0.07,1.01,-3.1,0.1,-0.1,860,0,,,,,,,,,,,,,,,,,,,
4985295,1489967392284,,,,,,,,0.02,0.06,1.01,-3.1,0.1,-0.1,880,0,,,,,,,,,,,,,,,,,,,
4985315,1489967392304,,,,,,,,0.03,0.06,1.0,-3.1,0.1,-0.1,880,0,,,,,,,,,,,,,,,,,,,
4985335,1489967392324,,,,,,,,0.03,0.06,1.0,-3.1,0.1,-0.1,880,0,,,,,,,,,,,,,,,,,,,
4985355,1489967392344,,,,,55,,,0.03,0.07,1.0,-3.1,0.2,-0.1,880,0,1,1,0.0,0,37.478378,-122.203697,0.0,0.0,31.9,10,3,1.6,0,0.0,-1,0.0,0.0,0.0,0
4985375,1489967392364,,,,,,,,0.03,0.07,1.0,-3.1,0.1,-0.1,880,0,,,,,,,,,,,,,,,,,,,
4985395,1489967392384,,,,,,,,0.03,0.07,1.0,-3.1,0.1,-0.0,900,0,,,,,,,,,,,,,,,,,,,
4985415,1489967392406,,,,,,,,0.03,0.07,1.0,-3.1,0.1,-0.0,860,0,,,,,,,,,,,,,,,,,,,
4985435,1489967392426,,,,,,,,0.02,0.07,1.0,-3.1,0.1,-0.0,880,0,,,,,,,,,,,,,,,,,,,
4985455,1489967392446,0,87.5,,93.8,55,93.6,,0.02,0.06,1.0,-3.1,0.1,-0.1,860,0,1,1,0.0,0,37.478378,-122.203697,0.0,0.0,31.9,10,3,1.6,0,0.0,-1,0.0,0.0,0.0,0
4985475,1489967392466,,,,,,,,0.02,0.06,1.0,-3.1,0.1,-0.1,880,0,,,,,,,,,,,,,,,,,,,
4985495,1489967392486,,,,,,,,0.03,0.06,1.0,-3.1,0.2,-0.1,880,0,,,,,,,,,,,,,,,,,,,
4985515,1489967392503,,,,,,,,0.03,0.06,1.0,-3.1,0.2,-0.1,880,0,,,,,,,,,,,,,,,,,,,
4985535,1489967392523,,,,,,,,0.03,0.06,1.0,-3.1,0.2,-0.0,900,0,,,,,,,,,,,,,,,,,,,
4985555,1489967392543,,,,,55,,,0.03,0.07,1.0,-3.1,0.1,-0.0,860,0,1,1,0.0,0,37.478378,-122.203697,0.0,0.0,31.9,10,3,1.6,0,0.0,-1,0.0,0.0,0.0,0
4985575,1489967392563,,,,,,,,0.02,0.07,1.0,-3.1,0.2,0.0,860,0,,,,,,,,,,,,,,,,,,,
4985595,1489967392583,,,,,,,,0.02,0.07,1.0,-3.1,0.2,-0.0,860,0,,,,,,,,,,,,,,,,,,,
4985615,1489967392605,,,,,,,,0.02,0.07,1.0,-3.2,0.1,-0.0,880,0,,,,,,,,,,,,,,,,,,,
4985635,1489967392625,,,,,,,,0.02,0.06,1.0,-3.1,0.1,-0.1,880,0,,,,,,,,,,,,,,,,,,,
4985655,1489967392645,1,89.4,-0.8,95.4,56,92.4,14.91,0.02,0.06,1.0,-3.1,0.2,-0.1,900,0,1,1,0.0,0,37.478378,-122.203697,0.0,0.0,31.9,10,3,1.6,0,0.0,-1,0.0,0.0,0.0,0
4985675,1489967392665,,,,,,,,0.03,0.06,1.0,-3.1,0.2,-0.0,900,0,,,,,,,,,,,,,,,,,,,
4985695,1489967392685,,,,,,,,0.03,0.06,0.99,-3.1,0.2,-0.0,880,0,,,,,,,,,,,,,,,,,,,
4985715,1489967392703,,,,,,,,0.03,0.06,0.99,-3.1,0.2,-0.0,880,0,,,,,,,,,,,,,,,,,,,
4985735,1489967392723,,,,,,,,0.03,0.07,1.0,-3.1,0.1,-0.0,880,0,,,,,,,,,,,,,,,,,,,
4985755,1489967392743,,,,,56,,,0.03,0.06,1.0,-3.1,0.2,-0.0,880,0,1,1,0.0,0,37.478378,-122.203697,0.0,0.0,31.9,10,3,1.6,0,0.0,-1,0.0,0.0,0.0,0
4985775,1489967392763,,,,,,,,0.02,0.07,1.0,-3.1,0.2,-0.0,880,0,,,,,,,,,,,,,,,,,,,
4985795,1489967392783,,,,,,,,0.02,0.07,1.0,-3.1,0.2,-0.0,900,0,,,,,,,,,,,,,,,,,,,
4985815,1489967392805,,,,,,,,0.02,0.06,1.0,-3.1,0.2,-0.1,860,0,,,,,,,,,,,,,,,,,,,
4985835,1489967392825,,,,,,,,0.02,0.06,1.0,-3.1,0.2,-0.1,880,0,,,,,,,,,,,,,,,,,,,
4985855,1489967392845,0,88.7,,95.0,56,94.6,,0.03,0.06,1.0,-3.1,0.2,-0.1,880,0,1,1,0.0,0,37.478378,-122.203697,0.0,0.0,31.9,10,3,1.6,0,0.0,-1,0.0,0.0,0.0,0
4985875,1489967392865,,,,,,,,0.03,0.06,1.0,-3.1,0.2,-0.0,880,0,,,,,,,,,,,,,,,,,,,
4985895,1489967392885,,,,,,,,0.03,0.06,1.0,-3.1,0.1,-0.0,880,0,,,,,,,,,,,,,,,,,,,
4985915,1489967392905,,,,,,,,0.03,0.07,1.0,-3.1,0.1,-0.0,880,0,,,,,,,,,,,,,,,,,,,
4985935,1489967392925,,,,,,,,0.03,0.07,1.0,-3.1,0.1,-0.0,900,0,,,,,,,,,,,,,,,,,,,
4985955,1489967392945,,,,,57,,,0.03,0.07,1.0,-3.1,0.1,-0.1,860,0,1,1,0.0,0,37.478378,-122.203697,0.0,0.0,31.9,10,3,1.6,0,0.0,-1,0.0,0.0,0.0,0
4985975,1489967392965,,,,,,,,0.02,0.06,1.0,-3.1,0.1,-0.1,860,0,,,,,,,,,,,,,,,,,,,
4985995,1489967392985,,,,,,,,0.02,0.06,1.0,-3.1,0.1,-0.1,860,0,,,,,,,,,,,,,,,,,,,
4986015,1489967392999,,,,,,,,0.03,0.06,1.0,-3.1,0.2,-0.1,860,0,,,,,,,,,,,,,,,,,,,
4986035,1489967393019,,,,,,,,0.03,0.06,1.0,-3.1,0.2,-0.1,880,0,,,,,,,,,,,,,,,,,,,
4986055,1489967393039,0,89.0,,95.3,57,94.8,,0.03,0.06,1.0,-3.1,0.2,-0.0,880,0,1,1,0.0,0,37.478378,-122.203697,0.0,0.0,31.9,10,3,1.6,0,0.0,-1,0.0,0.0,0.0,0
4986075,1489967393059,,,,,,,,0.03,0.06,1.0,-3.1,0.1,-0.0,880,0,,,,,,,,,,,,,,,,,,,
4986095,1489967393079,,,,,,,,0.03,0.06,1.0,-3.1,0.1,-0.0,860,0,,,,,,,,,,,,,,,,,,,
4986115,1489967393105,,,,,,,,0.02,0.06,1.0,-3.1,0.1,-0.0,880,0,,,,,,,,,,,,,,,,,,,
4986135,1489967393125,,,,,,,,0.02,0.06,1.0,-3.1,0.1,-0.1,860,0,,,,,,,,,,,,,,,,,,,
4986155,1489967393145,,,,,56,,,0.02,0.06,1.01,-3.1,0.1,-0.1,860,0,1,1,0.0,0,37.478378,-122.203697,0.0,0.0,31.9,10,3,1.6,0,0.0,-1,0.0,0.0,0.0,0
4986175,1489967393165,,,,,,,,0.02,0.06,1.0,-3.1,0.2,-0.1,880,0,,,,,,,,,,,,,,,,,,,
4986195,1489967393185,,,,,,,,0.03,0.06,1.0,-3.1,0.2,-0.1,880,0,,,,,,,,,,,,,,,,,,,
4986215,1489967393205,,,,,,,,0.03,0.06,1.0,-3.1,0.2,-0.1,900,0,,,,,,,,,,,,,,,,,,,
4986235,1489967393225,,,,,,,,0.03,0.06,1.0,-3.1,0.2,-0.1,860,0,,,,,,,,,,,,,,,,,,,
4986255,1489967393245,0,87.8,,95.0,56,94.1,,0.03,0.06,1.0,-3.1,0.1,-0.0,880,0,1,1,0.0,0,37.478378,-122.203697,0.0,0.0,31.9,10,3,1.6,0,0.0,-1,0.0,0.0,0.0,0
4986275,1489967393265,,,,,,,,0.02,0.06,1.0,-3.1,0.1,-0.0,880,0,,,,,,,,,,,,,,,,,,,
4986295,1489967393285,,,,,,,,0.02,0.07,1.0,-3.1,0.1,-0.1,880,0,,,,,,,,,,,,,,,,,,,
4986315,1489967393305,,,,,,,,0.02,0.06,1.0,-3.1,0.1,-0.1,880,0,,,,,,,,,,,,,,,,,,,
4986335,1489967393325,,,,,,,,0.02,0.06,1.0,-3.1,0.2,-0.1,900,0,,,,,,,,,,,,,,,,,,,
4986355,1489967393345,,,,,56,,,0.03,0.06,1.0,-3.1,0.2,-0.1,900,0,1,1,0.0,0,37.478378,-122.203697,0.0,0.0,31.9,10,3,1.6,0,0.0,-1,0.0,0.0,0.0,0
4986375,1489967393365,,,,,,,,0.03,0.06,1.0,-3.1,0.2,-0.1,860,0,,,,,,,,,,,,,,,,,,,
4986395,1489967393385,,,,,,,,0.03,0.06,0.99,-3.1,0.2,-0.1,880,0,,,,,,,,,,,,,,,,,,,
4986415,1489967393400,,,,,,,,0.03,0.07,0.99,-3.1,0.2,-0.0,880,0,,,,,,,,,,,,,,,,,,,
4986435,1489967393420,,,,,,,,0.03,0.07,1.0,-3.1,0.2,-0.0,880,0,,,,,,,,,,,,,,,,,,,
4986455,1489967393440,0,89.9,,96.1,57,94.5,,0.02,0.07,1.0,-3.1,0.2,-0.0,880,0,1,1,0.0,0,37.478378,-122.203697,0.0,0.0,31.9,10,3,1.6,0,0.0,-1,0.0,0.0,0.0,0
4986475,1489967393460,,,,,,,,0.02,0.07,1.01,-3.1,0.2,-0.0,900,0,,,,,,,,,,,,,,,,,,,
4986495,1489967393480,,,,,,,,0.02,0.06,1.01,-3.1,0.2,-0.1,860,0,,,,,,,,,,,,,,,,,,,
4986515,1489967393504,,,,,,,,0.02,0.06,1.0,-3.1,0.2,-0.1,880,0,,,,,,,,,,,,,,,,,,,
4986535,1489967393524,,,,,,,,0.02,0.07,1.0,-3.1,0.3,-0.1,880,0,,,,,,,,,,,,,,,,,,,
4986555,1489967393544,,,,,56,,,0.03,0.07,1.0,-3.1,0.2,-0.1,880,0,1,1,0.0,0,37.478378,-122.203697,0.0,0.0,31.9,10,3,1.6,0,0.0,-1,0.0,0.0,0.0,0
4986575,1489967393564,,,,,,,,0.03,0.07,1.0,-3.1,0.2,-0.1,880,0,,,,,,,,,,,,,,,,,,,
4986595,1489967393584,,,,,,,,0.03,0.07,1.0,-3.1,0.1,-0.0,880,0,,,,,,,,,,,,,,,,,,,
4986615,1489967393604,,,,,,,,0.02,0.07,1.0,-3.1,0.2,-0.0,880,0,,,,,,,,,,,,,,,,,,,
4986635,1489967393624,,,,,,,,0.02,0.07,1.0,-3.1,0.2,-0.1,860,0,,,,,,,,,,,,,,,,,,,
4986655,1489967393644,0,89.5,-0.3,95.4,56,93.6,14.93,0.02,0.07,1.0,-3.1,0.1,-0.1,880,0,1,1,0.0,0,37.478378,-122.203697,0.0,0.0,31.9,10,3,1.6,0,0.0,-1,0.0,0.0,0.0,0
4986675,1489967393664,,,,,,,,0.02,0.06,1.0,-3.1,0.2,-0.1,860,0,,,,,,,,,,,,,,,,,,,
4986695,1489967393684,,,,,,,,0.02,0.06,1.0,-3.1,0.2,-0.1,860,0,,,,,,,,,,,,,,,,,,,
4986715,1489967393704,,,,,,,,0.03,0.06,1.0,-3.1,0.2,-0.1,860,0,,,,,,,,,,,,,,,,,,,
4986735,1489967393724,,,,,,,,0.03,0.06,1.0,-3.1,0.2,-0.1,880,0,,,,,,,,,,,,,,,,,,,
4986755,1489967393744,,,,,57,,,0.03,0.06,1.0,-3.1,0.1,-0.0,900,0,1,1,0.0,0,37.478378,-122.203697,0.0,0.0,31.9,10,3,1.6,0,0.0,-1,0.0,0.0,0.0,0
4986775,1489967393764,,,,,,,,0.03,0.07,1.0,-3.1,0.1,-0.0,860,0,,,,,,,,,,,,,,,,,,,
4986795,1489967393784,,,,,,,,0.02,0.06,1.0,-3.1,0.1,-0.0,880,0,,,,,,,,,,,,,,,,,,,
4986815,1489967393804,,,,,,,,0.02,0.06,1.0,-3.1,0.1,-0.0,880,0,,,,,,,,,,,,,,,,,,,
4986835,1489967393824,,,,,,,,0.02,0.06,1.01,-3.1,0.0,-0.1,880,0,,,,,,,,,,,,,,,,,,,
4986855,1489967393844,1,88.3,,93.8,57,92.3,,0.02,0.06,1.0,-3.1,0.1,-0.1,880,0,1,1,0.0,0,37.478378,-122.203697,0.0,0.0,31.9,10,3,1.6,0,0.0,-1,0.0,0.0,0.0,0
4986875,1489967393864,,,,,,,,0.03,0.06,1.0,-3.1,0.1,-0.1,880,0,,,,,,,,,,,,,,,,,,,
