"Interval"|"ms"|0|0|1,"Utc"|"ms"|0|0|1,"FuelLevel"|"F"|0|100|5,"OilTemp"|"F"|0.0|300.0|5,"CoolantPressPSI"|"PSI"|0.0|20.0|1,"Coolant"|"F"|0.0|300.0|5,"OilPress"|"PSI"|0|150|10,"EngineTemp"|"F"|0.0|300.0|5,"Battery"|"Volts"|0.0|20.0|1,"AccelX"|"G"|-3.0|3.0|50,"AccelY"|"G"|-3.0|3.0|50,"AccelZ"|"G"|-3.0|3.0|50,"Yaw"|"Deg/Sec"|-300.0|300.0|50,"Pitch"|"Deg/Sec"|-300.0|300.0|50,"Roll"|"Deg/Sec"|-300.0|300.0|50,"RPM"|""|0|10000|50,"Driveshaft"|"RPM"|0|5000|50,"GPIO1"|""|0|1|10,"GPIO2"|""|0|1|10,"GearRatio"|""|-5.0|5.0|10,"Gear"|""|-1|5|10,"Latitude"|"Degrees"|-180.0|180.0|10,"Longitude"|"Degrees"|-180.0|180.0|10,"Speed"|"mph"|0.0|150.0|10,"Distance"|"mi"|0.0|0.0|10,"Altitude"|"ft"|0.0|4000.0|10,"GPSSats"|""|0|20|10,"GPSQual"|""|0|5|10,"GPSDOP"|""|0.0|20.0|10,"LapCount"|""|0|0|10,"LapTime"|"Min"|0.0|0.0|10,"Sector"|""|0|0|10,"SectorTime"|"Min"|0.0|0.0|10,"PredTime"|"Min"|0.0|0.0|10,"ElapsedTime"|"Min"|0.0|0.0|10,"CurrentLap"|""|0|0|10
58554,1490380269366,,,,,,,,-0.02,0.07,0.98,-3.2,0.5,-0.2,840,11,,,,,,,,,,,,,,,,,,,
58574,1490380269428,,,,,65,,,-0.02,0.07,0.99,-3.2,0.3,-0.3,840,11,1,1,84.0,0,37.478546,-122.203972,0.0,0.0,110.0,4,3,1.5,0,0.0,-1,0.0,0.0,0.0,0
58594,1490380269448,,,,,,,,-0.03,0.07,0.98,-3.2,0.4,-0.4,820,11,,,,,,,,,,,,,,,,,,,
58614,1490380269468,,,,,,,,-0.03,0.06,0.98,-3.2,0.4,-0.4,820,11,,,,,,,,,,,,,,,,,,,
58634,1490380269488,,,,,,,,-0.03,0.06,0.98,-3.2,0.4,-0.3,820,11,,,,,,,,,,,,,,,,,,,
58654,1490380269508,,,,,,,,-0.03,0.07,0.97,-3.2,0.5,-0.2,820,11,,,,,,,,,,,,,,,,,,,
58674,1490380269530,0,48.2,,52.8,63,52.7,,-0.03,0.07,0.98,-3.2,0.4,-0.2,820,11,1,1,84.0,0,37.478546,-122.203972,0.0,0.0,87.1,4,3,1.5,0,0.0,-1,0.0,0.0,0.0,0
58694,1490380269550,,,,,,,,-0.04,0.08,0.99,-3.1,0.3,-0.3,820,11,,,,,,,,,,,,,,,,,,,
58714,1490380269570,,,,,,,,-0.04,0.07,0.99,-3.1,0.3,-0.4,820,11,,,,,,,,,,,,,,,,,,,
58734,1490380269590,,,,,,,,-0.04,0.07,0.99,-3.2,0.4,-0.4,820,11,,,,,,,,,,,,,,,,,,,
58754,1490380269610,,,,,,,,-0.04,0.07,0.98,-3.2,0.4,-0.3,820,11,,,,,,,,,,,,,,,,,,,
58774,1490380269629,,,,,65,,,-0.04,0.07,0.98,-3.2,0.4,-0.2,820,11,1,1,82.0,0,37.478546,-122.203972,0.0,0.0,82.7,4,3,1.5,0,0.0,-1,0.0,0.0,0.0,0
58794,1490380269649,,,,,,,,-0.04,0.07,0.98,-3.2,0.4,-0.2,820,11,,,,,,,,,,,,,,,,,,,
58814,1490380269669,,,,,,,,-0.05,0.07,0.99,-3.2,0.4,-0.3,820,11,,,,,,,,,,,,,,,,,,,
58834,1490380269689,,,,,,,,-0.05,0.06,0.99,-3.1,0.3,-0.4,820,11,,,,,,,,,,,,,,,,,,,
58854,1490380269709,,,,,,,,-0.06,0.06,0.99,-3.2,0.2,-0.4,820,11,,,,,,,,,,,,,,,,,,,
58874,1490380269727,0,46.4,,52.0,64,49.6,,-0.06,0.06,0.98,-3.2,0.3,-0.3,820,11,1,1,82.0,0,37.478546,-122.203972,0.0,0.0,82.5,4,3,1.5,0,0.0,-1,0.0,0.0,0.0,0
58894,1490380269747,,,,,,,,-0.05,0.06,0.98,-3.2,0.3,-0.2,820,11,,,,,,,,,,,,,,,,,,,
58914,1490380269767,,,,,,,,-0.05,0.07,0.99,-3.2,0.2,-0.1,820,11,,,,,,,,,,,,,,,,,,,
58934,1490380269787,,,,,,,,-0.06,0.07,0.99,-3.1,0.2,-0.3,820,11,,,,,,,,,,,,,,,,,,,
58954,1490380269807,,,,,,,,-0.06,0.06,0.99,-3.1,0.2,-0.4,820,11,,,,,,,,,,,,,,,,,,,
58974,1490380269827,,,,,64,,,-0.06,0.06,0.99,-3.1,0.2,-0.3,820,11,1,1,82.0,0,37.478546,-122.203972,0.0,0.0,80.4,4,3,1.5,0,0.0,-1,0.0,0.0,0.0,0
58994,1490380269847,,,,,,,,-0.06,0.06,0.98,-3.1,0.3,-0.3,820,11,,,,,,,,,,,,,,,,,,,
59014,1490380269867,,,,,,,,-0.06,0.06,0.98,-3.1,0.3,-0.2,800,11,,,,,,,,,,,,,,,,,,,
59034,1490380269887,,,,,,,,-0.06,0.07,0.98,-3.1,0.1,-0.2,800,11,,,,,,,,,,,,,,,,,,,
59054,1490380269907,,,,,,,,-0.07,0.07,0.98,-3.1,0.2,-0.3,800,11,,,,,,,,,,,,,,,,,,,
59074,1490380269927,0,48.2,0.3,54.4,61,49.9,14.81,-0.07,0.06,0.98,-3.1,0.2,-0.4,800,11,1,1,80.0,0,37.478546,-122.203972,0.0,0.0,79.1,4,3,1.5,0,0.0,-1,0.0,0.0,0.0,0
59094,1490380269947,,,,,,,,-0.06,0.06,0.98,-3.1,0.2,-0.3,800,11,,,,,,,,,,,,,,,,,,,
59114,1490380269967,,,,,,,,-0.06,0.07,0.97,-3.1,0.2,-0.2,800,11,,,,,,,,,,,,,,,,,,,
59134,1490380269987,,,,,,,,-0.05,0.07,0.98,-3.1,0.1,-0.2,820,11,,,,,,,,,,,,,,,,,,,
59154,1490380270007,,,,,,,,-0.06,0.07,0.99,-3.1,0.1,-0.3,820,11,,,,,,,,,,,,,,,,,,,
59174,1490380270027,,,,,63,,,-0.06,0.06,0.99,-3.1,0.1,-0.4,800,11,1,1,82.0,0,37.478546,-122.203972,0.0,0.0,78.6,4,3,1.5,0,0.0,-1,0.0,0.0,0.0,0
59194,1490380270047,,,,,,,,-0.06,0.06,0.99,-3.1,0.0,-0.4,800,11,,,,,,,,,,,,,,,,,,,
59214,1490380270067,,,,,,,,-0.06,0.06,0.99,-3.1,0.2,-0.3,800,2,,,,,,,,,,,,,,,,,,,
59234,1490380270087,,,,,,,,-0.06,0.06,0.99,-3.1,0.2,-0.2,780,2,,,,,,,,,,,,,,,,,,,
59254,1490380270107,,,,,,,,-0.07,0.06,0.99,-3.1,0.2,-0.2,780,2,,,,,,,,,,,,,,,,,,,
59274,1490380270127,1,46.7,,51.7,61,51.1,,-0.08,0.06,1.0,-3.1,0.3,-0.4,780,2,1,1,780.0,0,37.478546,-122.203972,0.0,0.0,78.6,4,3,1.5,0,0.0,-1,0.0,0.0,0.0,0
59294,1490380270127,,,,,,,,-0.08,0.06,0.99,-3.1,0.3,-0.3,780,2,,,,,,,,,,,,,,,,,,,
59314,1490380270147,,,,,,,,-0.08,0.06,0.99,-3.1,0.4,-0.2,760,2,,,,,,,,,,,,,,,,,,,
59334,1490380270167,,,,,,,,-0.08,0.06,0.99,-3.1,0.4,-0.2,740,2,,,,,,,,,,,,,,,,,,,
59354,1490380270187,,,,,,,,-0.09,0.06,0.99,-3.1,0.3,-0.3,720,2,,,,,,,,,,,,,,,,,,,
59374,1490380270227,,,,,59,,,-0.09,0.06,0.99,-3.1,0.3,-0.3,720,8,1,1,740.0,0,37.478546,-122.203972,0.0,0.0,82.1,4,3,1.5,0,0.0,-1,0.0,0.0,0.0,0
59394,1490380270247,,,,,,,,-0.09,0.06,0.99,-3.1,0.4,-0.2,720,8,,,,,,,,,,,,,,,,,,,
59414,1490380270267,,,,,,,,-0.09,0.06,0.98,-3.0,0.4,-0.2,720,8,,,,,,,,,,,,,,,,,,,
59434,1490380270287,,,,,,,,-0.09,0.05,0.99,-3.0,0.3,-0.2,720,8,,,,,,,,,,,,,,,,,,,
59454,1490380270307,,,,,,,,-0.09,0.06,0.99,-3.0,0.4,-0.2,720,8,,,,,,,,,,,,,,,,,,,
59474,1490380270325,0,46.4,,52.1,57,50.5,,-0.09,0.06,0.99,-3.0,0.4,-0.1,700,8,1,1,102.857,0,37.478546,-122.203972,0.0,0.0,82.1,4,3,1.5,0,0.0,-1,0.0,0.0,0.0,0
59494,1490380270345,,,,,,,,-0.09,0.05,0.99,-3.0,0.5,-0.2,700,8,,,,,,,,,,,,,,,,,,,
59514,1490380270365,,,,,,,,-0.1,0.06,0.99,-3.1,0.6,-0.3,700,15,,,,,,,,,,,,,,,,,,,
59534,1490380270385,,,,,,,,-0.09,0.08,0.98,-3.1,0.6,-0.2,700,15,,,,,,,,,,,,,,,,,,,
59554,1490380270405,,,,,,,,-0.1,0.07,0.99,-3.1,0.5,-0.2,700,15,,,,,,,,,,,,,,,,,,,
59574,1490380270425,,,,,54,,,-0.1,0.06,0.99,-3.1,0.4,-0.3,700,15,1,1,46.667,0,37.478546,-122.203972,0.0,0.0,82.1,4,3,1.5,0,0.0,-1,0.0,0.0,0.0,0
59594,1490380270445,,,,,,,,-0.09,0.07,0.98,-3.1,0.6,-0.2,720,17,,,,,,,,,,,,,,,,,,,
59614,1490380270465,,,,,,,,-0.09,0.06,0.98,-3.2,0.7,-0.2,720,17,,,,,,,,,,,,,,,,,,,
59634,1490380270485,,,,,,,,-0.1,0.06,0.99,-3.2,0.7,-0.4,720,18,,,,,,,,,,,,,,,,,,,
59654,1490380270505,,,,,,,,-0.1,0.07,0.99,-3.2,0.8,-0.4,720,18,,,,,,,,,,,,,,,,,,,
59674,1490380270527,0,46.4,,52.5,55,49.5,,-0.09,0.08,0.98,-3.2,0.9,-0.3,700,18,1,1,40.0,0,37.478546,-122.203972,0.0,0.0,82.1,4,3,1.5,0,0.0,-1,0.0,0.0,0.0,0
59694,1490380270547,,,,,,,,-0.09,0.08,0.98,-3.2,0.8,-0.3,720,20,,,,,,,,,,,,,,,,,,,
59714,1490380270567,,,,,,,,-0.1,0.07,0.98,-3.2,0.8,-0.4,720,20,,,,,,,,,,,,,,,,,,,
59734,1490380270587,,,,,,,,-0.1,0.07,0.98,-3.2,0.8,-0.4,720,20,,,,,,,,,,,,,,,,,,,
59754,1490380270607,,,,,,,,-0.09,0.07,0.98,-3.2,0.8,-0.3,720,20,,,,,,,,,,,,,,,,,,,
59774,1490380270622,,,,,52,,,-0.1,0.07,0.98,-3.2,0.7,-0.3,740,45,1,1,36.0,0,37.478546,-122.203972,0.0,0.0,82.1,4,3,1.5,0,0.0,-1,0.0,0.0,0.0,0
59794,1490380270642,,,,,,,,-0.1,0.06,0.99,-3.2,0.7,-0.4,740,23,,,,,,,,,,,,,,,,,,,
59814,1490380270662,,,,,,,,-0.1,0.07,0.98,-3.2,0.7,-0.3,740,23,,,,,,,,,,,,,,,,,,,
59834,1490380270682,,,,,,,,-0.09,0.07,0.97,-3.3,0.8,-0.2,740,23,,,,,,,,,,,,,,,,,,,
59854,1490380270702,,,,,,,,-0.09,0.07,0.98,-3.3,0.7,-0.2,740,23,,,,,,,,,,,,,,,,,,,
59874,1490380270720,1,49.1,,54.9,54,51.5,,-0.09,0.06,0.99,-3.3,0.7,-0.4,760,23,1,1,32.174,0,37.478546,-122.203972,0.0,0.0,82.1,4,3,1.5,0,0.0,-1,0.0,0.0,0.0,0
59894,1490380270740,,,,,,,,-0.1,0.07,0.98,-3.3,0.7,-0.3,760,23,,,,,,,,,,,,,,,,,,,
59914,1490380270760,,,,,,,,-0.09,0.07,0.98,-3.3,0.7,-0.2,760,46,,,,,,,,,,,,,,,,,,,
59934,1490380270780,,,,,,,,-0.09,0.08,0.98,-3.3,0.7,-0.1,780,46,,,,,,,,,,,,,,,,,,,
59954,1490380270800,,,,,,,,-0.1,0.08,0.98,-3.3,0.7,-0.2,780,26,,,,,,,,,,,,,,,,,,,
59974,1490380270820,,,,,53,,,-0.09,0.07,0.98,-3.3,0.7,-0.3,780,26,1,1,16.957,0,37.478546,-122.203972,0.0,0.0,82.1,4,3,1.5,0,0.0,-1,0.0,0.0,0.0,0
59994,1490380270840,,,,,,,,-0.09,0.08,0.98,-3.3,0.8,-0.2,760,26,,,,,,,,,,,,,,,,,,,
60014,1490380270860,,,,,,,,-0.08,0.08,0.98,-3.4,0.8,-0.2,760,31,,,,,,,,,,,,,,,,,,,
60034,1490380270880,,,,,,,,-0.09,0.08,0.99,-3.4,0.8,-0.2,780,43,,,,,,,,,,,,,,,,,,,
60054,1490380270900,,,,,,,,-0.09,0.08,0.99,-3.3,0.9,-0.4,780,43,,,,,,,,,,,,,,,,,,,
60074,1490380270920,0,48.7,0.2,52.8,56,52.1,14.89,-0.09,0.07,0.99,-3.4,0.9,-0.4,780,43,1,1,26.0,0,37.478546,-122.203972,0.0,0.0,82.1,4,3,1.5,0,0.0,-1,0.0,0.0,0.0,0
60094,1490380270940,,,,,,,,-0.08,0.08,0.98,-3.4,0.9,-0.3,780,29,,,,,,,,,,,,,,,,,,,
60114,1490380270960,,,,,,,,-0.08,0.08,0.98,-3.4,0.9,-0.3,780,29,,,,,,,,,,,,,,,,,,,
60134,1490380270980,,,,,,,,-0.08,0.08,0.99,-3.4,0.9,-0.3,780,48,,,,,,,,,,,,,,,,,,,
60154,1490380271000,,,,,,,,-0.09,0.07,0.99,-3.4,0.9,-0.5,760,48,,,,,,,,,,,,,,,,,,,
60174,1490380271024,,,,,57,,,-0.08,0.07,0.99,-3.4,1.0,-0.4,760,29,1,1,16.596,0,37.478546,-122.203972,0.0,0.0,82.1,4,3,1.5,0,0.0,-1,0.0,0.0,0.0,0
60194,1490380271044,,,,,,,,-0.08,0.07,0.98,-3.4,1.0,-0.3,780,29,,,,,,,,,,,,,,,,,,,
60214,1490380271064,,,,,,,,-0.08,0.07,0.98,-3.4,0.9,-0.2,780,51,,,,,,,,,,,,,,,,,,,
60234,1490380271084,,,,,,,,-0.09,0.07,0.99,-3.4,0.9,-0.3,780,51,,,,,,,,,,,,,,,,,,,
60254,1490380271104,,,,,,,,-0.09,0.06,0.99,-3.3,0.9,-0.4,780,31,,,,,,,,,,,,,,,,,,,
60274,1490380271116,0,46.5,,52.9,57,49.7,,-0.09,0.06,0.99,-3.4,1.0,-0.2,780,54,1,1,15.6,0,37.478546,-122.203972,0.0,0.0,82.1,4,3,1.5,0,0.0,-1,0.0,0.0,0.0,0
60294,1490380271136,,,,,,,,-0.08,0.07,0.98,-3.4,1.1,-0.1,780,54,,,,,,,,,,,,,,,,,,,
60314,1490380271156,,,,,,,,-0.08,0.07,0.99,-3.4,1.1,-0.1,780,54,,,,,,,,,,,,,,,,,,,
60334,1490380271176,,,,,,,,-0.09,0.07,0.99,-3.4,1.1,-0.2,780,31,,,,,,,,,,,,,,,,,,,
60354,1490380271196,,,,,,,,-0.09,0.07,0.99,-3.4,1.2,-0.2,780,55,,,,,,,,,,,,,,,,,,,
60374,1490380271226,,,,,59,,,-0.09,0.07,0.99,-3.5,1.2,-0.1,780,55,1,1,26.0,0,37.478546,-122.203972,0.0,0.0,82.1,4,3,1.5,0,0.0,-1,0.0,0.0,0.0,0
60394,1490380271246,,,,,,,,-0.08,0.08,0.98,-3.5,1.3,-0.1,780,35,,,,,,,,,,,,,,,,,,,
60414,1490380271266,,,,,,,,-0.09,0.08,1.0,-3.6,1.4,-0.1,760,35,,,,,,,,,,,,,,,,,,,
60434,1490380271286,,,,,,,,-0.09,0.07,1.0,-3.6,1.4,-0.3,760,49,,,,,,,,,,,,,,,,,,,
60454,1490380271306,,,,,,,,-0.09,0.07,0.99,-3.6,1.6,-0.2,760,49,,,,,,,,,,,,,,,,,,,
60474,1490380271326,0,49.4,,53.7,57,53.2,,-0.08,0.08,0.98,-3.7,1.5,-0.2,740,48,1,1,15.51,0,37.478546,-122.203972,0.0,0.0,82.1,4,3,1.5,0,0.0,-1,0.0,0.0,0.0,0
60494,1490380271346,,,,,,,,-0.09,0.07,0.98,-3.7,1.5,-0.2,760,38,,,,,,,,,,,,,,,,,,,
60514,1490380271366,,,,,,,,-0.09,0.07,0.99,-3.7,1.5,-0.3,740,38,,,,,,,,,,,,,,,,,,,
60534,1490380271386,,,,,,,,-0.09,0.07,0.98,-3.8,1.5,-0.3,740,55,,,,,,,,,,,,,,,,,,,
60554,1490380271406,,,,,,,,-0.09,0.07,0.98,-3.8,1.4,-0.2,740,55,,,,,,,,,,,,,,,,,,,
60574,1490380271428,,,,,58,,,-0.09,0.07,0.98,-3.9,1.4,-0.2,740,38,1,1,13.455,0,37.478546,-122.203972,0.0,0.0,82.1,4,2,1.5,0,0.0,-1,0.0,0.0,0.0,0
60594,1490380271448,,,,,,,,-0.09,0.07,0.99,-3.9,1.4,-0.2,740,52,,,,,,,,,,,,,,,,,,,
60614,1490380271468,,,,,,,,-0.1,0.07,0.99,-3.9,1.4,-0.2,740,52,,,,,,,,,,,,,,,,,,,
60634,1490380271488,,,,,,,,-0.09,0.07,0.98,-3.9,1.4,-0.1,740,43,,,,,,,,,,,,,,,,,,,
60654,1490380271508,,,,,,,,-0.1,0.07,0.98,-3.9,1.3,-0.1,740,49,,,,,,,,,,,,,,,,,,,
60674,1490380271528,1,47.3,,52.7,57,52.0,,-0.1,0.07,0.99,-3.9,1.3,-0.2,740,49,1,1,17.209,0,37.478546,-122.203972,0.0,0.0,82.1,4,2,1.5,0,0.0,-1,0.0,0.0,0.0,0
60694,1490380271548,,,,,,,,-0.1,0.07,0.99,-4.0,1.4,-0.2,740,52,,,,,,,,,,,,,,,,,,,
60714,1490380271568,,,,,,,,-0.09,0.08,0.98,-4.0,1.4,-0.1,720,52,,,,,,,,,,,,,,,,,,,
60734,1490380271588,,,,,,,,-0.1,0.07,0.99,-4.0,1.4,-0.1,700,43,,,,,,,,,,,,,,,,,,,
60754,1490380271608,,,,,,,,-0.1,0.07,0.99,-4.0,1.4,-0.1,700,57,,,,,,,,,,,,,,,,,,,
60774,1490380271625,,,,,56,,,-0.09,0.08,0.98,-4.1,1.5,-0.1,700,57,1,1,16.744,0,37.478546,-122.203972,0.0,0.0,82.1,4,2,1.5,0,0.0,-1,0.0,0.0,0.0,0
60794,1490380271645,,,,,,,,-0.09,0.07,0.98,-4.1,1.5,-0.1,700,46,,,,,,,,,,,,,,,,,,,
60814,1490380271665,,,,,,,,-0.09,0.07,0.98,-4.1,1.5,-0.2,700,49,,,,,,,,,,,,,,,,,,,
60834,1490380271685,,,,,,,,-0.1,0.08,0.98,-4.1,1.5,-0.2,680,57,,,,,,,,,,,,,,,,,,,
60854,1490380271701,,,,,,,,-0.09,0.08,0.98,-4.1,1.5,-0.1,680,57,,,,,,,,,,,,,,,,,,,
60874,1490380271721,0,49.2,,53.7,55,52.0,,-0.1,0.07,0.98,-4.1,1.5,-0.2,680,46,1,1,13.878,0,37.478546,-122.203972,0.0,0.0,82.1,4,2,1.5,0,0.0,-1,0.0,0.0,0.0,0
60894,1490380271741,,,,,,,,-0.1,0.07,0.98,-4.1,1.5,-0.3,680,58,,,,,,,,,,,,,,,,,,,
60914,1490380271761,,,,,,,,-0.1,0.08,0.98,-4.1,1.5,-0.2,680,58,,,,,,,,,,,,,,,,,,,
60934,1490380271781,,,,,,,,-0.1,0.07,0.98,-4.1,1.4,-0.2,660,54,,,,,,,,,,,,,,,,,,,
60954,1490380271801,,,,,,,,-0.1,0.07,0.98,-4.2,1.5,-0.2,660,46,,,,,,,,,,,,,,,,,,,
60974,1490380271821,,,,,55,,,-0.1,0.08,0.98,-4.2,1.6,-0.1,660,65,1,1,12.83,0,37.478546,-122.203972,0.0,0.0,82.1,4,2,1.5,0,0.0,-1,0.0,0.0,0.0,0
60994,1490380271841,,,,,,,,-0.1,0.07,0.98,-4.2,1.5,-0.1,660,65,,,,,,,,,,,,,,,,,,,
61014,1490380271861,,,,,,,,-0.1,0.07,0.98,-4.2,1.6,-0.1,660,57,,,,,,,,,,,,,,,,,,,
61034,1490380271881,,,,,,,,-0.1,0.07,0.98,-4.2,1.7,-0.1,680,46,,,,,,,,,,,,,,,,,,,
61054,1490380271907,,,,,,,,-0.1,0.08,0.97,-4.2,1.6,-0.0,680,46,,,,,,,,,,,,,,,,,,,
61074,1490380271927,0,46.3,0.1,52.3,53,49.6,14.85,-0.1,0.07,0.98,-4.2,1.7,-0.1,680,66,1,1,12.143,0,37.478546,-122.203972,0.0,0.0,82.1,4,2,1.5,0,0.0,-1,0.0,0.0,0.0,0
61094,1490380271947,,,,,,,,-0.11,0.07,0.98,-4.2,1.8,-0.1,680,60,,,,,,,,,,,,,,,,,,,
61114,1490380271967,,,,,,,,-0.1,0.08,0.98,-4.2,1.9,-0.0,660,60,,,,,,,,,,,,,,,,,,,
61134,1490380271987,,,,,,,,-0.11,0.06,0.98,-4.2,1.8,-0.2,660,46,,,,,,,,,,,,,,,,,,,
61154,1490380271997,,,,,,,,-0.11,0.07,0.98,-4.2,1.9,-0.2,680,66,,,,,,,,,,,,,,,,,,,
61174,1490380272017,,,,,54,,,-0.11,0.07,0.98,-4.1,1.9,-0.1,680,65,1,1,14.348,0,37.478546,-122.203972,0.0,0.0,82.1,4,2,1.5,0,0.0,-1,0.0,0.0,0.0,0
61194,1490380272037,,,,,,,,-0.11,0.06,0.98,-4.1,1.8,-0.2,680,48,,,,,,,,,,,,,,,,,,,
61214,1490380272057,,,,,,,,-0.11,0.07,0.98,-4.1,1.8,-0.2,680,48,,,,,,,,,,,,,,,,,,,
61234,1490380272077,,,,,,,,-0.11,0.07,0.98,-4.1,1.9,-0.1,680,65,,,,,,,,,,,,,,,,,,,
61254,1490380272107,,,,,,,,-0.12,0.06,0.98,-4.1,1.8,-0.2,680,71,,,,,,,,,,,,,,,,,,,
61274,1490380272127,0,49.4,,54.5,54,52.3,,-0.12,0.07,0.98,-4.1,1.8,-0.2,680,51,1,1,10.625,0,37.478546,-122.203972,0.0,0.0,82.1,4,2,1.5,0,0.0,-1,0.0,0.0,0.0,0
61294,1490380272147,,,,,,,,-0.11,0.07,0.97,-4.1,1.8,-0.1,680,57,,,,,,,,,,,,,,,,,,,
61314,1490380272167,,,,,,,,-0.12,0.07,0.97,-4.1,1.7,-0.2,680,57,,,,,,,,,,,,,,,,,,,
61334,1490380272187,,,,,,,,-0.12,0.07,0.98,-4.1,1.6,-0.2,680,74,,,,,,,,,,,,,,,,,,,
61354,1490380272205,,,,,,,,-0.11,0.07,0.98,-4.1,1.7,-0.3,680,60,,,,,,,,,,,,,,,,,,,
61374,1490380272225,,,,,54,,,-0.11,0.07,0.98,-4.1,1.7,-0.3,680,51,1,1,9.315,0,37.478546,-122.203972,0.0,0.0,82.1,4,3,1.5,0,0.0,-1,0.0,0.0,0.0,0
61394,1490380272245,,,,,,,,-0.12,0.06,0.99,-4.0,1.7,-0.4,680,71,,,,,,,,,,,,,,,,,,,
61414,1490380272265,,,,,,,,-0.12,0.07,0.99,-4.0,1.9,-0.4,680,71,,,,,,,,,,,,,,,,,,,
61434,1490380272285,,,,,,,,-0.11,0.07,0.98,-3.9,1.9,-0.3,680,71,,,,,,,,,,,,,,,,,,,
61454,1490380272291,,,,,,,,-0.12,0.06,0.99,-3.8,1.9,-0.4,680,52,,,,,,,,,,,,,,,,,,,
61474,1490380272311,0,49.7,,54.9,54,52.7,,-0.12,0.06,0.98,-3.8,2.0,-0.4,680,65,1,1,9.714,0,37.478546,-122.203972,0.0,0.0,74.0,5,3,2.1,0,0.0,-1,0.0,0.0,0.0,0
61494,1490380272331,,,,,,,,-0.11,0.06,0.98,-3.7,2.1,-0.3,660,78,,,,,,,,,,,,,,,,,,,
61514,1490380272351,,,,,,,,-0.12,0.06,0.99,-3.6,2.0,-0.4,680,66,,,,,,,,,,,,,,,,,,,
61534,1490380272371,,,,,,,,-0.12,0.05,0.99,-3.6,1.9,-0.4,680,66,,,,,,,,,,,,,,,,,,,
61554,1490380272405,,,,,,,,-0.11,0.06,0.99,-3.6,1.9,-0.3,680,72,,,,,,,,,,,,,,,,,,,
61574,1490380272425,,,,,55,,,-0.12,0.06,0.99,-3.6,1.9,-0.3,680,72,1,1,10.303,0,37.478546,-122.203972,0.0,0.0,74.0,5,3,2.1,0,0.0,-1,0.0,0.0,0.0,0
61594,1490380272445,,,,,,,,-0.12,0.06,0.99,-3.5,1.9,-0.3,680,78,,,,,,,,,,,,,,,,,,,
61614,1490380272465,,,,,,,,-0.12,0.07,0.99,-3.5,1.9,-0.2,680,65,,,,,,,,,,,,,,,,,,,
61634,1490380272485,,,,,,,,-0.11,0.07,0.99,-3.5,1.9,-0.2,660,60,,,,,,,,,,,,,,,,,,,
61654,1490380272503,,,,,,,,-0.12,0.07,0.99,-3.4,1.8,-0.2,660,74,,,,,,,,,,,,,,,,,,,
61674,1490380272523,0,46.8,,54.3,56,51.1,,-0.12,0.07,0.98,-3.4,2.0,-0.1,660,77,1,1,11.0,0,37.478546,-122.203972,0.0,0.0,74.0,5,3,2.1,0,0.0,-1,0.0,0.0,0.0,0
61694,1490380272543,,,,,,,,-0.11,0.08,0.97,-3.4,2.1,-0.0,680,63,,,,,,,,,,,,,,,,,,,
61714,1490380272563,,,,,,,,-0.12,0.07,0.98,-3.3,2.1,-0.1,680,62,,,,,,,,,,,,,,,,,,,
61734,1490380272583,,,,,,,,-0.12,0.07,0.98,-3.3,2.2,-0.1,680,77,,,,,,,,,,,,,,,,,,,
61754,1490380272598,,,,,,,,-0.12,0.07,0.97,-3.3,2.3,-0.1,680,75,,,,,,,,,,,,,,,,,,,
61774,1490380272618,,,,,55,,,-0.12,0.06,0.97,-3.3,2.3,-0.3,680,75,1,1,11.148,0,37.478538,-122.203957,0.97,0.0,63.6,5,3,2.1,0,0.0,-1,0.0,0.0,0.0,0
61794,1490380272638,,,,,,,,-0.13,0.07,0.98,-3.3,2.3,-0.3,680,60,,,,,,,,,,,,,,,,,,,
61814,1490380272658,,,,,,,,-0.12,0.07,0.97,-3.3,2.3,-0.3,680,68,,,,,,,,,,,,,,,,,,,
61834,1490380272678,,,,,,,,-0.13,0.06,0.97,-3.2,2.3,-0.3,660,82,,,,,,,,,,,,,,,,,,,
61854,1490380272698,,,,,,,,-0.13,0.07,0.97,-3.2,2.2,-0.3,660,75,,,,,,,,,,,,,,,,,,,
61874,1490380272718,0,49.6,,55.2,55,52.7,,-0.13,0.07,0.97,-3.2,2.2,-0.2,680,66,1,1,8.395,0,37.478538,-122.203957,0.97,0.0,63.6,5,3,2.1,0,0.0,-1,0.0,0.0,0.0,0
61894,1490380272738,,,,,,,,-0.13,0.06,0.97,-3.2,2.1,-0.4,680,71,,,,,,,,,,,,,,,,,,,
61914,1490380272702,,,,,,,,-0.13,0.06,0.98,-3.2,2.2,-0.4,680,78,,,,,,,,,,,,,,,,,,,
61934,1490380272722,,,,,,,,-0.13,0.07,0.97,-3.2,2.2,-0.4,680,75,,,,,,,,,,,,,,,,,,,
61954,1490380272802,,,,,,,,-0.13,0.06,0.98,-3.2,2.1,-0.5,680,69,,,,,,,,,,,,,,,,,,,
61974,1490380272822,,,,,55,,,-0.12,0.06,0.98,-3.2,2.1,-0.5,680,72,1,1,9.067,0,37.478538,-122.203957,1.06,0.0,55.2,6,3,0.5,0,0.0,-1,0.0,0.0,0.0,0
61994,1490380272842,,,,,,,,-0.12,0.07,0.98,-3.3,2.2,-0.4,660,78,,,,,,,,,,,,,,,,,,,
62014,1490380272862,,,,,,,,-0.11,0.07,0.98,-3.3,2.1,-0.3,680,75,,,,,,,,,,,,,,,,,,,
62034,1490380272882,,,,,,,,-0.11,0.07,0.99,-3.3,2.2,-0.2,680,63,,,,,,,,,,,,,,,,,,,
62054,1490380272906,,,,,,,,-0.1,0.07,0.99,-3.4,2.3,-0.1,680,63,,,,,,,,,,,,,,,,,,,
62074,1490380272926,0,49.6,-0.0,55.7,55,53.3,14.96,-0.09,0.06,0.99,-3.4,2.3,-0.0,680,62,1,1,9.067,0,37.478535,-122.203957,1.06,0.0,51.6,6,3,0.5,0,0.0,-1,0.0,0.0,0.0,0
62094,1490380272946,,,,,,,,-0.08,0.06,0.99,-3.4,2.3,-0.1,680,63,,,,,,,,,,,,,,,,,,,
62114,1490380272966,,,,,,,,-0.07,0.06,0.99,-3.4,2.3,-0.1,700,63,,,,,,,,,,,,,,,,,,,
62134,1490380272986,,,,,,,,-0.05,0.06,0.98,-3.4,2.3,-0.1,700,51,,,,,,,,,,,,,,,,,,,
62154,1490380272998,,,,,,,,-0.05,0.06,0.99,-3.3,2.2,-0.1,700,46,,,,,,,,,,,,,,,,,,,
62174,1490380273018,,,,,56,,,-0.04,0.06,0.99,-3.2,2.2,-0.2,700,55,1,1,14.0,0,37.478535,-122.203957,1.02,0.0,48.1,6,3,0.5,0,0.0,-1,0.0,0.0,0.0,0
62194,1490380273038,,,,,,,,-0.03,0.07,0.98,-3.2,2.1,-0.1,720,55,,,,,,,,,,,,,,,,,,,
62214,1490380273058,,,,,,,,-0.03,0.07,0.99,-3.0,1.8,-0.1,740,55,,,,,,,,,,,,,,,,,,,
62234,1490380273078,,,,,,,,-0.02,0.06,0.98,-2.9,1.7,-0.2,760,43,,,,,,,,,,,,,,,,,,,
62254,1490380273104,,,,,,,,-0.02,0.06,0.98,-2.8,1.6,-0.3,760,43,,,,,,,,,,,,,,,,,,,
62274,1490380273124,0,48.6,,55.7,58,52.6,,-0.01,0.06,0.98,-2.8,1.5,-0.3,760,35,1,1,17.209,0,37.478535,-122.203957,0.98,0.0,45.0,6,3,0.5,0,0.0,-1,0.0,0.0,0.0,0
62294,1490380273144,,,,,,,,-0.01,0.06,0.98,-2.7,1.3,-0.3,760,35,,,,,,,,,,,,,,,,,,,
62314,1490380273164,,,,,,,,-0.01,0.06,0.98,-2.7,1.3,-0.4,780,35,,,,,,,,,,,,,,,,,,,
62334,1490380273184,,,,,,,,-0.01,0.05,0.98,-2.7,1.2,-0.4,780,23,,,,,,,,,,,,,,,,,,,
62354,1490380273204,,,,,,,,-0.0,0.05,0.97,-2.7,1.2,-0.3,780,23,,,,,,,,,,,,,,,,,,,
62374,1490380273224,,,,,60,,,0.0,0.06,0.97,-2.7,1.1,-0.2,800,23,1,1,22.286,0,37.478535,-122.203957,0.0,0.0,45.0,6,3,0.5,0,0.0,-1,0.0,0.0,0.0,0
62394,1490380273244,,,,,,,,0.0,0.06,0.98,-2.7,0.9,-0.1,780,23,,,,,,,,,,,,,,,,,,,
62414,1490380273264,,,,,,,,-0.01,0.06,0.98,-2.7,0.8,-0.1,800,23,,,,,,,,,,,,,,,,,,,
62434,1490380273284,,,,,,,,-0.01,0.06,0.98,-2.7,0.7,-0.2,800,23,,,,,,,,,,,,,,,,,,,
62454,1490380273304,,,,,,,,-0.01,0.07,0.97,-2.7,0.7,-0.1,760,23,,,,,,,,,,,,,,,,,,,
62474,1490380273324,0,48.9,,53.0,61,51.7,,-0.01,0.08,0.97,-2.7,0.7,-0.1,780,23,1,1,34.783,0,37.478535,-122.203957,0.0,0.0,45.0,6,3,0.5,0,0.0,-1,0.0,0.0,0.0,0
62494,1490380273344,,,,,,,,-0.02,0.08,0.98,-2.7,0.5,-0.2,760,23,,,,,,,,,,,,,,,,,,,
62514,1490380273364,,,,,,,,-0.03,0.08,0.98,-2.8,0.4,-0.4,760,23,,,,,,,,,,,,,,,,,,,
62534,1490380273384,,,,,,,,-0.03,0.08,0.98,-2.9,0.4,-0.4,760,23,,,,,,,,,,,,,,,,,,,
62554,1490380273404,,,,,,,,-0.03,0.08,0.97,-2.9,0.4,-0.4,740,15,,,,,,,,,,,,,,,,,,,
62574,1490380273424,,,,,62,,,-0.04,0.08,0.98,-3.0,0.2,-0.4,740,15,1,1,33.043,0,37.478535,-122.203957,0.0,0.0,45.0,6,3,0.5,0,0.0,-1,0.0,0.0,0.0,0
62594,1490380273444,,,,,,,,-0.04,0.08,0.98,-3.0,0.2,-0.4,740,15,,,,,,,,,,,,,,,,,,,
62614,1490380273464,,,,,,,,-0.05,0.07,0.98,-3.0,0.2,-0.4,700,15,,,,,,,,,,,,,,,,,,,
62634,1490380273484,,,,,,,,-0.04,0.07,0.98,-3.0,0.2,-0.3,680,15,,,,,,,,,,,,,,,,,,,
62654,1490380273502,,,,,,,,-0.05,0.06,0.98,-3.0,0.1,-0.4,680,8,,,,,,,,,,,,,,,,,,,
62674,1490380273522,0,49.0,,55.8,62,53.2,,-0.05,0.06,0.98,-3.0,-0.1,-0.4,680,8,1,1,45.333,0,37.478535,-122.203957,0.0,0.0,45.0,6,3,0.5,0,0.0,-1,0.0,0.0,0.0,0
62694,1490380273542,,,,,,,,-0.05,0.06,0.98,-3.0,-0.1,-0.3,660,8,,,,,,,,,,,,,,,,,,,
62714,1490380273562,,,,,,,,-0.06,0.05,0.98,-2.9,-0.2,-0.4,660,8,,,,,,,,,,,,,,,,,,,
62734,1490380273582,,,,,,,,-0.06,0.05,0.98,-2.9,-0.2,-0.3,640,8,,,,,,,,,,,,,,,,,,,
62754,1490380273599,,,,,,,,-0.07,0.06,0.98,-2.8,-0.2,-0.2,620,15,,,,,,,,,,,,,,,,,,,
62774,1490380273619,,,,,58,,,-0.07,0.06,0.98,-2.8,-0.3,-0.2,620,15,1,1,91.429,0,37.478535,-122.203957,0.0,0.0,45.0,6,3,0.5,0,0.0,-1,0.0,0.0,0.0,0
62794,1490380273639,,,,,,,,-0.08,0.07,0.98,-2.7,-0.3,-0.2,600,15,,,,,,,,,,,,,,,,,,,
62814,1490380273659,,,,,,,,-0.09,0.06,0.98,-2.7,-0.4,-0.1,600,17,,,,,,,,,,,,,,,,,,,
62834,1490380273679,,,,,,,,-0.09,0.07,0.98,-2.7,-0.3,-0.1,560,17,,,,,,,,,,,,,,,,,,,
62854,1490380273701,,,,,,,,-0.1,0.07,0.98,-2.7,-0.3,-0.1,560,17,,,,,,,,,,,,,,,,,,,
62874,1490380273721,0,48.4,,52.7,55,50.6,,-0.11,0.07,0.98,-2.7,-0.3,-0.1,560,17,1,1,35.0,0,37.478535,-122.203957,0.0,0.0,45.0,6,3,0.5,0,0.0,-1,0.0,0.0,0.0,0
62894,1490380273741,,,,,,,,-0.12,0.08,0.98,-2.7,-0.4,-0.1,540,17,,,,,,,,,,,,,,,,,,,
62914,1490380273761,,,,,,,,-0.12,0.07,0.98,-2.8,-0.4,-0.1,540,17,,,,,,,,,,,,,,,,,,,
62934,1490380273781,,,,,,,,-0.13,0.08,0.98,-2.8,-0.5,-0.1,540,17,,,,,,,,,,,,,,,,,,,
62954,1490380273801,,,,,,,,-0.13,0.07,0.98,-2.8,-0.5,-0.1,540,17,,,,,,,,,,,,,,,,,,,
62974,1490380273821,,,,,52,,,-0.14,0.08,0.98,-2.9,-0.4,-0.1,560,17,1,1,33.75,0,37.478535,-122.203957,0.0,0.0,45.0,6,3,0.5,0,0.0,-1,0.0,0.0,0.0,0
62994,1490380273841,,,,,,,,-0.15,0.07,0.98,-2.9,-0.4,-0.2,560,17,,,,,,,,,,,,,,,,,,,
63014,1490380273861,,,,,,,,-0.15,0.07,0.98,-2.9,-0.3,-0.3,560,17,,,,,,,,,,,,,,,,,,,
63034,1490380273881,,,,,,,,-0.16,0.07,0.98,-2.9,-0.2,-0.3,560,17,,,,,,,,,,,,,,,,,,,
63054,1490380273905,,,,,,,,-0.16,0.07,0.98,-3.0,-0.4,-0.3,560,17,,,,,,,,,,,,,,,,,,,
63074,1490380273925,0,49.7,0.2,56.0,53,52.3,14.96,-0.16,0.09,0.98,-3.0,-0.3,-0.3,580,17,1,1,35.0,0,37.478535,-122.203957,0.0,0.0,45.0,6,3,0.5,0,0.0,-1,0.0,0.0,0.0,0
63094,1490380273945,,,,,,,,-0.17,0.07,0.98,-3.0,-0.2,-0.3,580,17,,,,,,,,,,,,,,,,,,,
63114,1490380273965,,,,,,,,-0.17,0.08,0.98,-3.1,0.0,-0.4,600,17,,,,,,,,,,,,,,,,,,,
63134,1490380273985,,,,,,,,-0.18,0.07,0.98,-3.1,0.0,-0.4,600,17,,,,,,,,,,,,,,,,,,,
63154,1490380273997,,,,,,,,-0.18,0.06,0.98,-3.1,0.0,-0.5,600,17,,,,,,,,,,,,,,,,,,,
63174,1490380274017,,,,,52,,,-0.17,0.07,0.97,-3.1,0.2,-0.4,640,17,1,1,37.5,0,37.478535,-122.203957,0.0,0.0,45.0,6,3,0.5,0,0.0,-1,0.0,0.0,0.0,0
63194,1490380274037,,,,,,,,-0.17,0.06,0.97,-3.1,0.2,-0.4,620,17,,,,,,,,,,,,,,,,,,,
63214,1490380274057,,,,,,,,-0.17,0.07,0.98,-3.1,0.2,-0.4,620,17,,,,,,,,,,,,,,,,,,,
63234,1490380274077,,,,,,,,-0.17,0.07,0.97,-3.2,0.1,-0.3,640,15,,,,,,,,,,,,,,,,,,,
63254,1490380274103,,,,,,,,-0.16,0.06,0.98,-3.2,0.2,-0.4,660,15,,,,,,,,,,,,,,,,,,,
63274,1490380274123,0,48.2,,55.5,55,53.1,,-0.17,0.06,0.97,-3.2,0.2,-0.4,660,15,1,1,42.667,0,37.478535,-122.203957,0.0,0.0,45.0,6,3,0.5,0,0.0,-1,0.0,0.0,0.0,0
63294,1490380274143,,,,,,,,-0.15,0.08,0.97,-3.2,0.1,-0.3,680,15,,,,,,,,,,,,,,,,,,,
63314,1490380274163,,,,,,,,-0.15,0.07,0.97,-3.2,0.1,-0.3,660,15,,,,,,,,,,,,,,,,,,,
63334,1490380274183,,,,,,,,-0.15,0.06,0.98,-3.2,0.1,-0.5,660,15,,,,,,,,,,,,,,,,,,,
63354,1490380274205,,,,,,,,-0.15,0.07,0.97,-3.2,0.1,-0.4,700,15,,,,,,,,,,,,,,,,,,,
63374,1490380274225,,,,,57,,,-0.14,0.07,0.96,-3.2,0.1,-0.4,680,15,1,1,44.0,0,37.478535,-122.203957,0.0,0.0,45.0,6,3,0.5,0,0.0,-1,0.0,0.0,0.0,0
63394,1490380274245,,,,,,,,-0.14,0.07,0.97,-3.2,0.0,-0.4,680,3,,,,,,,,,,,,,,,,,,,
63414,1490380274265,,,,,,,,-0.14,0.07,0.97,-3.2,0.1,-0.4,680,3,,,,,,,,,,,,,,,,,,,
63434,1490380274285,,,,,,,,-0.14,0.07,0.97,-3.2,0.2,-0.3,660,3,,,,,,,,,,,,,,,,,,,
63454,1490380274305,,,,,,,,-0.13,0.07,0.97,-3.2,0.1,-0.4,660,3,,,,,,,,,,,,,,,,,,,
63474,1490380274325,0,50.1,,55.8,59,51.1,,-0.13,0.07,0.97,-3.2,0.3,-0.4,660,3,1,1,220.0,0,37.478535,-122.203957,0.0,0.0,45.0,6,3,0.5,0,0.0,-1,0.0,0.0,0.0,0
63494,1490380274345,,,,,,,,-0.13,0.07,0.97,-3.3,0.2,-0.3,660,3,,,,,,,,,,,,,,,,,,,
63514,1490380274365,,,,,,,,-0.12,0.06,0.97,-3.3,0.2,-0.4,660,3,,,,,,,,,,,,,,,,,,,
63534,1490380274385,,,,,,,,-0.12,0.07,0.97,-3.3,0.4,-0.3,660,3,,,,,,,,,,,,,,,,,,,
63554,1490380274405,,,,,,,,-0.12,0.06,0.97,-3.3,0.5,-0.3,640,3,,,,,,,,,,,,,,,,,,,
63574,1490380274425,,,,,57,,,-0.12,0.06,0.98,-3.2,0.3,-0.4,640,3,1,1,220.0,0,37.478535,-122.203957,0.0,0.0,45.0,6,3,0.5,0,0.0,-1,0.0,0.0,0.0,0
63594,1490380274445,,,,,,,,-0.11,0.06,0.97,-3.2,0.5,-0.3,640,3,,,,,,,,,,,,,,,,,,,
63614,1490380274465,,,,,,,,-0.12,0.06,0.97,-3.2,0.5,-0.3,640,3,,,,,,,,,,,,,,,,,,,
63634,1490380274485,,,,,,,,-0.12,0.06,0.98,-3.2,0.4,-0.4,640,3,,,,,,,,,,,,,,,,,,,
63654,1490380274503,,,,,,,,-0.11,0.06,0.98,-3.2,0.5,-0.3,640,3,,,,,,,,,,,,,,,,,,,
63674,1490380274523,0,46.4,,53.7,59,52.5,,-0.12,0.06,0.98,-3.2,0.4,-0.2,660,3,1,1,213.333,0,37.478535,-122.203957,0.0,0.0,45.0,6,3,0.5,0,0.0,-1,0.0,0.0,0.0,0
63694,1490380274543,,,,,,,,-0.12,0.06,0.98,-3.1,0.4,-0.3,660,3,,,,,,,,,,,,,,,,,,,
63714,1490380274563,,,,,,,,-0.12,0.07,0.98,-3.2,0.5,-0.2,660,3,,,,,,,,,,,,,,,,,,,
63734,1490380274583,,,,,,,,-0.12,0.06,0.98,-3.2,0.4,-0.2,660,3,,,,,,,,,,,,,,,,,,,
63754,1490380274602,,,,,,,,-0.12,0.06,0.99,-3.1,0.3,-0.3,660,3,,,,,,,,,,,,,,,,,,,
63774,1490380274622,,,,,61,,,-0.11,0.07,0.98,-3.1,0.5,-0.1,660,3,1,1,220.0,0,37.478535,-122.203957,0.0,0.0,45.0,6,3,0.5,0,0.0,-1,0.0,0.0,0.0,0
63794,1490380274642,,,,,,,,-0.12,0.06,0.98,-3.1,0.4,-0.2,660,3,,,,,,,,,,,,,,,,,,,
63814,1490380274662,,,,,,,,-0.13,0.06,0.98,-3.1,0.2,-0.3,660,3,,,,,,,,,,,,,,,,,,,
63834,1490380274682,,,,,,,,-0.12,0.08,0.98,-3.1,0.4,-0.2,660,3,,,,,,,,,,,,,,,,,,,
63854,1490380274702,,,,,,,,-0.12,0.08,0.98,-3.1,0.3,-0.2,680,3,,,,,,,,,,,,,,,,,,,
63874,1490380274722,0,50.1,,55.7,61,51.5,,-0.13,0.07,0.99,-3.1,0.2,-0.3,680,3,1,1,220.0,0,37.478535,-122.203957,0.0,0.0,45.0,6,3,0.5,0,0.0,-1,0.0,0.0,0.0,0
63894,1490380274742,,,,,,,,-0.12,0.08,0.98,-3.1,0.5,-0.2,680,2,,,,,,,,,,,,,,,,,,,
63914,1490380274762,,,,,,,,-0.13,0.08,0.98,-3.1,0.4,-0.2,680,2,,,,,,,,,,,,,,,,,,,
63934,1490380274782,,,,,,,,-0.12,0.08,0.98,-3.0,0.3,-0.4,680,2,,,,,,,,,,,,,,,,,,,
63954,1490380274802,,,,,,,,-0.12,0.08,0.98,-3.1,0.4,-0.4,680,2,,,,,,,,,,,,,,,,,,,
63974,1490380274822,,,,,63,,,-0.13,0.08,0.97,-3.1,0.4,-0.2,680,2,1,1,680.0,0,37.478535,-122.203957,0.0,0.0,45.0,6,3,0.5,0,0.0,-1,0.0,0.0,0.0,0
63994,1490380274842,,,,,,,,-0.13,0.06,0.98,-3.1,0.4,-0.3,680,2,,,,,,,,,,,,,,,,,,,
64014,1490380274862,,,,,,,,-0.14,0.07,0.97,-3.2,0.6,-0.4,680,2,,,,,,,,,,,,,,,,,,,
64034,1490380274882,,,,,,,,-0.13,0.08,0.97,-3.2,0.5,-0.3,680,2,,,,,,,,,,,,,,,,,,,
64054,1490380274902,,,,,,,,-0.14,0.07,0.97,-3.2,0.5,-0.3,700,8,,,,,,,,,,,,,,,,,,,
64074,1490380274922,0,49.3,0.4,54.6,65,50.1,14.96,-0.14,0.07,0.98,-3.1,0.4,-0.4,700,8,1,1,680.0,0,37.478535,-122.203957,0.0,0.0,45.0,6,3,0.5,0,0.0,-1,0.0,0.0,0.0,0
64094,1490380274942,,,,,,,,-0.14,0.07,0.97,-3.2,0.5,-0.3,680,8,,,,,,,,,,,,,,,,,,,
64114,1490380274962,,,,,,,,-0.14,0.07,0.97,-3.2,0.4,-0.3,680,8,,,,,,,,,,,,,,,,,,,
64134,1490380274982,,,,,,,,-0.14,0.07,0.98,-3.2,0.3,-0.4,680,8,,,,,,,,,,,,,,,,,,,
64154,1490380274998,,,,,,,,-0.14,0.07,0.97,-3.3,0.4,-0.4,660,8,,,,,,,,,,,,,,,,,,,
64174,1490380275018,,,,,64,,,-0.14,0.06,0.96,-3.2,0.4,-0.4,680,8,1,1,97.143,0,37.478535,-122.203957,0.0,0.0,45.0,6,3,0.5,0,0.0,-1,0.0,0.0,0.0,0
64194,1490380275038,,,,,,,,-0.14,0.07,0.98,-3.2,0.5,-0.5,680,8,,,,,,,,,,,,,,,,,,,
64214,1490380275058,,,,,,,,-0.14,0.07,0.97,-3.3,0.7,-0.4,660,14,,,,,,,,,,,,,,,,,,,
64234,1490380275078,,,,,,,,-0.14,0.07,0.97,-3.3,0.7,-0.4,680,14,,,,,,,,,,,,,,,,,,,
64254,1490380275106,,,,,,,,-0.15,0.06,0.98,-3.3,0.8,-0.5,660,14,,,,,,,,,,,,,,,,,,,
64274,1490380275126,0,48.5,,56.0,64,53.4,,-0.15,0.07,0.97,-3.3,1.0,-0.4,660,14,1,1,52.308,0,37.478535,-122.203957,0.0,0.0,45.0,6,3,0.5,0,0.0,-1,0.0,0.0,0.0,0
64294,1490380275146,,,,,,,,-0.15,0.07,0.97,-3.4,0.9,-0.3,680,14,,,,,,,,,,,,,,,,,,,
64314,1490380275166,,,,,,,,-0.15,0.06,0.98,-3.4,1.0,-0.4,660,15,,,,,,,,,,,,,,,,,,,
64334,1490380275186,,,,,,,,-0.17,0.08,0.98,-3.4,1.1,-0.4,660,15,,,,,,,,,,,,,,,,,,,
64354,1490380275206,,,,,,,,-0.16,0.08,0.98,-3.5,1.1,-0.3,680,15,,,,,,,,,,,,,,,,,,,
64374,1490380275226,,,,,67,,,-0.17,0.07,0.99,-3.5,1.3,-0.4,680,17,1,1,44.0,0,37.478535,-122.203957,0.0,0.0,45.0,6,3,0.5,0,0.0,-1,0.0,0.0,0.0,0
64394,1490380275246,,,,,,,,-0.18,0.07,0.99,-3.4,1.3,-0.5,680,17,,,,,,,,,,,,,,,,,,,
64414,1490380275266,,,,,,,,-0.17,0.07,0.99,-3.5,1.4,-0.3,700,18,,,,,,,,,,,,,,,,,,,
64434,1490380275286,,,,,,,,-0.19,0.06,0.99,-3.5,1.2,-0.3,700,18,,,,,,,,,,,,,,,,,,,
64454,1490380275306,,,,,,,,-0.19,0.07,0.99,-3.5,1.2,-0.4,720,18,,,,,,,,,,,,,,,,,,,
64474,1490380275326,0,48.7,,53.3,66,50.7,,-0.19,0.08,0.98,-3.6,1.5,-0.4,720,18,1,1,38.889,0,37.478535,-122.203957,0.0,0.0,45.0,6,3,0.5,0,0.0,-1,0.0,0.0,0.0,0
64494,1490380275346,,,,,,,,-0.2,0.08,0.97,-3.6,1.6,-0.2,720,23,,,,,,,,,,,,,,,,,,,
64514,1490380275366,,,,,,,,-0.21,0.07,0.98,-3.6,1.7,-0.4,740,57,,,,,,,,,,,,,,,,,,,
64534,1490380275386,,,,,,,,-0.21,0.07,0.99,-3.6,1.9,-0.5,760,57,,,,,,,,,,,,,,,,,,,
64554,1490380275406,,,,,,,,-0.21,0.08,0.97,-3.6,2.1,-0.4,760,29,,,,,,,,,,,,,,,,,,,
64574,1490380275426,,,,,67,,,-0.22,0.08,0.97,-3.7,2.0,-0.2,760,60,1,1,13.214,0,37.478535,-122.203957,0.0,0.0,45.0,6,3,0.5,0,0.0,-1,0.0,0.0,0.0,0
64594,1490380275446,,,,,,,,-0.24,0.08,0.97,-3.7,2.1,-0.3,760,60,,,,,,,,,,,,,,,,,,,
64614,1490380275466,,,,,,,,-0.24,0.07,0.97,-3.8,2.2,-0.4,760,88,,,,,,,,,,,,,,,,,,,
64634,1490380275486,,,,,,,,-0.25,0.08,0.95,-3.8,2.2,-0.5,760,88,,,,,,,,,,,,,,,,,,,
64654,1490380275504,,,,,,,,-0.25,0.08,0.95,-3.9,2.4,-0.3,760,83,,,,,,,,,,,,,,,,,,,
64674,1490380275524,0,46.6,,53.9,67,52.7,,-0.28,0.09,0.94,-4.0,2.3,-0.4,760,103,1,1,8.736,0,37.478535,-122.203957,0.0,0.0,45.0,6,3,0.5,0,0.0,-1,0.0,0.0,0.0,0
64694,1490380275544,,,,,,,,-0.28,0.07,0.96,-4.0,2.4,-0.5,760,103,,,,,,,,,,,,,,,,,,,
64714,1490380275564,,,,,,,,-0.28,0.07,0.95,-4.0,2.3,-0.6,760,49,,,,,,,,,,,,,,,,,,,
64734,1490380275584,,,,,,,,-0.29,0.08,0.93,-4.1,2.6,-0.5,780,128,,,,,,,,,,,,,,,,,,,
64754,1490380275601,,,,,,,,-0.3,0.08,0.93,-4.2,2.5,-0.5,760,132,,,,,,,,,,,,,,,,,,,
64774,1490380275621,,,,,67,,,-0.3,0.08,0.94,-4.2,2.4,-0.6,740,88,1,1,6.142,0,37.478535,-122.203957,0.0,0.0,45.0,6,3,0.5,0,0.0,-1,0.0,0.0,0.0,0
64794,1490380275641,,,,,,,,-0.3,0.07,0.94,-4.2,2.4,-0.7,740,52,,,,,,,,,,,,,,,,,,,
64814,1490380275661,,,,,,,,-0.32,0.07,0.92,-4.3,2.3,-0.7,740,158,,,,,,,,,,,,,,,,,,,
64834,1490380275681,,,,,,,,-0.32,0.07,0.92,-4.3,2.2,-0.6,720,137,,,,,,,,,,,,,,,,,,,
64854,1490380275701,,,,,,,,-0.33,0.06,0.93,-4.3,2.2,-0.8,680,137,,,,,,,,,,,,,,,,,,,
64874,1490380275721,0,49.7,,56.8,64,52.8,,-0.32,0.07,0.93,-4.3,2.1,-0.7,680,82,1,1,4.39,0,37.478527,-122.203934,0.98,0.0,22.4,6,3,0.5,0,0.0,-1,0.0,0.0,0.0,0
64894,1490380275741,,,,,,,,-0.33,0.07,0.92,-4.4,2.0,-0.6,660,177,,,,,,,,,,,,,,,,,,,
64914,1490380275761,,,,,,,,-0.34,0.06,0.93,-4.4,1.9,-0.6,620,160,,,,,,,,,,,,,,,,,,,
64934,1490380275781,,,,,,,,-0.33,0.07,0.93,-4.4,1.9,-0.6,620,122,,,,,,,,,,,,,,,,,,,
64954,1490380275803,,,,,,,,-0.32,0.06,0.93,-4.4,1.8,-0.5,580,71,,,,,,,,,,,,,,,,,,,
64974,1490380275823,,,,,60,,,-0.31,0.05,0.95,-4.3,1.5,-0.5,580,128,1,1,5.124,0,37.478527,-122.203934,1.58,0.0,22.3,6,3,0.5,0,0.0,-1,0.0,0.0,0.0,0
64994,1490380275843,,,,,,,,-0.3,0.06,0.95,-4.3,1.3,-0.5,560,138,,,,,,,,,,,,,,,,,,,
65014,1490380275863,,,,,,,,-0.29,0.05,0.94,-4.3,1.2,-0.5,560,123,,,,,,,,,,,,,,,,,,,
65034,1490380275883,,,,,,,,-0.27,0.05,0.95,-4.3,1.1,-0.6,580,86,,,,,,,,,,,,,,,,,,,
65054,1490380275905,,,,,,,,-0.25,0.05,0.95,-4.2,0.8,-0.5,620,86,,,,,,,,,,,,,,,,,,,
65074,1490380275925,0,48.4,-0.1,56.3,57,53.6,14.86,-0.23,0.05,0.95,-4.2,0.6,-0.5,620,95,1,1,6.744,0,37.478527,-122.203934,2.27,0.0,22.3,6,3,0.5,0,0.0,-1,0.0,0.0,0.0,0
65094,1490380275945,,,,,,,,-0.22,0.06,0.95,-4.1,0.7,-0.5,660,91,,,,,,,,,,,,,,,,,,,
65114,1490380275965,,,,,,,,-0.21,0.06,0.95,-4.0,0.6,-0.4,680,91,,,,,,,,,,,,,,,,,,,
65134,1490380275985,,,,,,,,-0.2,0.05,0.96,-3.9,0.3,-0.4,680,98,,,,,,,,,,,,,,,,,,,
65154,1490380275999,,,,,,,,-0.18,0.06,0.96,-3.9,0.2,-0.3,680,114,,,,,,,,,,,,,,,,,,,
65174,1490380276019,,,,,57,,,-0.15,0.05,0.98,-3.9,0.3,0.0,740,152,1,1,7.391,0,37.478523,-122.203934,2.68,0.0,22.1,6,3,0.5,0,0.0,-1,0.0,0.0,0.0,0
65194,1490380276039,,,,,,,,-0.13,0.05,0.99,-3.9,0.0,0.2,760,152,,,,,,,,,,,,,,,,,,,
65214,1490380276059,,,,,,,,-0.11,0.04,1.01,-3.8,-0.3,0.1,780,140,,,,,,,,,,,,,,,,,,,
65234,1490380276079,,,,,,,,-0.08,0.05,1.01,-3.8,-0.6,0.1,780,131,,,,,,,,,,,,,,,,,,,
65254,1490380276107,,,,,,,,-0.06,0.05,1.03,-3.7,-1.0,0.1,820,125,,,,,,,,,,,,,,,,,,,
65274,1490380276127,0,48.5,,56.1,59,53.3,,-0.05,0.05,1.04,-3.7,-1.6,0.1,820,111,1,1,5.652,0,37.478523,-122.203934,2.25,0.0,21.9,6,3,0.5,0,0.0,-1,0.0,0.0,0.0,0
65294,1490380276147,,,,,,,,-0.05,0.06,1.05,-3.6,-2.2,-0.1,840,105,,,,,,,,,,,,,,,,,,,
65314,1490380276167,,,,,,,,-0.05,0.06,1.04,-3.4,-2.7,-0.3,840,98,,,,,,,,,,,,,,,,,,,
65334,1490380276187,,,,,,,,-0.05,0.05,1.03,-3.3,-3.0,-0.4,880,92,,,,,,,,,,,,,,,,,,,
65354,1490380276207,,,,,,,,-0.04,0.05,1.02,-3.3,-3.3,-0.3,900,88,,,,,,,,,,,,,,,,,,,
65374,1490380276227,,,,,64,,,-0.04,0.05,1.01,-3.3,-3.4,-0.2,900,82,1,1,9.13,0,37.478523,-122.203934,1.92,0.0,21.9,6,3,0.5,0,0.0,-1,0.0,0.0,0.0,0
65394,1490380276247,,,,,,,,-0.03,0.05,1.0,-3.3,-3.3,-0.0,920,75,,,,,,,,,,,,,,,,,,,
65414,1490380276267,,,,,,,,-0.02,0.05,1.0,-3.4,-3.2,0.0,940,69,,,,,,,,,,,,,,,,,,,
65434,1490380276287,,,,,,,,-0.02,0.06,0.99,-3.4,-3.1,0.0,940,66,,,,,,,,,,,,,,,,,,,
65454,1490380276305,,,,,,,,-0.01,0.07,0.99,-3.5,-2.9,0.0,940,60,,,,,,,,,,,,,,,,,,,
65474,1490380276325,0,48.4,,56.3,67,53.6,,-0.01,0.07,0.98,-3.6,-2.6,0.0,960,58,1,1,14.242,0,37.478523,-122.203934,1.5,0.0,21.8,6,3,0.5,0,0.0,-1,0.0,0.0,0.0,0
65494,1490380276345,,,,,,,,-0.01,0.08,0.98,-3.6,-2.5,0.1,960,58,,,,,,,,,,,,,,,,,,,
65514,1490380276365,,,,,,,,-0.01,0.07,0.97,-3.6,-2.4,0.2,980,65,,,,,,,,,,,,,,,,,,,
65534,1490380276385,,,,,,,,-0.02,0.07,0.97,-3.5,-2.3,0.2,960,77,,,,,,,,,,,,,,,,,,,
65554,1490380276405,,,,,,,,-0.02,0.07,0.97,-3.5,-2.2,0.3,960,77,,,,,,,,,,,,,,,,,,,
65574,1490380276425,,,,,63,,,-0.02,0.07,0.97,-3.4,-2.1,0.2,960,74,1,1,12.632,0,37.478523,-122.203934,1.45,0.001,21.8,6,3,0.5,0,0.0,-1,0.0,0.0,0.0,0
65594,1490380276445,,,,,,,,-0.02,0.07,0.97,-3.3,-2.1,0.1,960,65,,,,,,,,,,,,,,,,,,,
65614,1490380276465,,,,,,,,-0.02,0.07,0.98,-3.3,-2.0,-0.1,940,62,,,,,,,,,,,,,,,,,,,
65634,1490380276485,,,,,,,,-0.02,0.07,0.98,-3.2,-1.8,-0.2,960,62,,,,,,,,,,,,,,,,,,,
65654,1490380276505,,,,,,,,-0.02,0.07,0.98,-3.2,-1.7,-0.3,920,54,,,,,,,,,,,,,,,,,,,
65674,1490380276525,0,46.6,,54.8,63,53.5,,-0.02,0.07,0.99,-3.1,-1.5,-0.4,920,48,1,1,15.738,0,37.478523,-122.203934,1.22,0.001,21.6,6,3,0.5,0,0.0,-1,0.0,0.0,0.0,0
65694,1490380276545,,,,,,,,-0.02,0.07,0.99,-3.1,-1.4,-0.4,920,48,,,,,,,,,,,,,,,,,,,
65714,1490380276565,,,,,,,,-0.01,0.07,0.98,-3.2,-1.4,-0.4,920,42,,,,,,,,,,,,,,,,,,,
65734,1490380276585,,,,,,,,-0.01,0.06,0.98,-3.2,-1.4,-0.3,920,42,,,,,,,,,,,,,,,,,,,
65754,1490380276606,,,,,,,,-0.01,0.06,0.98,-3.3,-1.2,-0.2,920,42,,,,,,,,,,,,,,,,,,,
65774,1490380276626,,,,,62,,,-0.01,0.06,0.98,-3.3,-1.0,-0.2,920,35,1,1,22.439,0,37.478523,-122.203934,0.95,0.001,21.5,6,3,0.5,0,0.0,-1,0.0,0.0,0.0,0
65794,1490380276646,,,,,,,,-0.0,0.06,0.98,-3.4,-0.9,-0.1,920,35,,,,,,,,,,,,,,,,,,,
65814,1490380276666,,,,,,,,-0.0,0.07,0.98,-3.4,-1.0,-0.1,900,29,,,,,,,,,,,,,,,,,,,
65834,1490380276686,,,,,,,,0.0,0.07,0.98,-3.3,-1.0,-0.1,880,29,,,,,,,,,,,,,,,,,,,
65854,1490380276706,,,,,,,,0.0,0.07,0.98,-3.3,-0.9,-0.1,880,34,,,,,,,,,,,,,,,,,,,
65874,1490380276726,0,49.4,,55.8,60,50.4,,-0.0,0.07,0.98,-3.2,-0.9,-0.2,860,58,1,1,30.345,0,37.478523,-122.203934,0.0,0.001,21.2,6,3,0.5,0,0.0,-1,0.0,0.0,0.0,0
65894,1490380276746,,,,,,,,-0.01,0.07,0.98,-3.2,-0.8,-0.2,860,80,,,,,,,,,,,,,,,,,,,
65914,1490380276766,,,,,,,,-0.02,0.07,0.98,-3.1,-0.7,-0.3,840,92,,,,,,,,,,,,,,,,,,,
65934,1490380276786,,,,,,,,-0.02,0.06,0.99,-3.1,-0.7,-0.3,840,92,,,,,,,,,,,,,,,,,,,
65954,1490380276804,,,,,,,,-0.02,0.07,0.98,-3.1,-0.6,-0.3,820,38,,,,,,,,,,,,,,,,,,,
65974,1490380276824,,,,,60,,,-0.01,0.07,0.98,-3.1,-0.4,-0.3,820,38,1,1,9.13,0,37.478523,-122.203934,0.0,0.001,21.0,6,3,0.5,0,0.0,-1,0.0,0.0,0.0,0
65994,1490380276844,,,,,,,,-0.02,0.07,0.99,-3.1,-0.3,-0.2,800,42,,,,,,,,,,,,,,,,,,,
66014,1490380276864,,,,,,,,-0.03,0.07,0.99,-3.2,-0.4,-0.3,820,42,,,,,,,,,,,,,,,,,,,
66034,1490380276884,,,,,,,,-0.04,0.07,0.99,-3.2,-0.2,-0.4,800,55,,,,,,,,,,,,,,,,,,,
66054,1490380276906,,,,,,,,-0.04,0.06,0.99,-3.2,-0.1,-0.3,800,55,,,,,,,,,,,,,,,,,,,
66074,1490380276926,0,46.3,-0.1,54.1,57,53.1,14.94,-0.04,0.07,0.98,-3.3,0.0,-0.2,780,55,1,1,14.909,0,37.478523,-122.203934,0.0,0.001,20.6,6,3,0.5,0,0.0,-1,0.0,0.0,0.0,0
66094,1490380276946,,,,,,,,-0.04,0.06,0.98,-3.3,0.1,-0.2,740,55,,,,,,,,,,,,,,,,,,,
66114,1490380276966,,,,,,,,-0.05,0.06,0.98,-3.2,0.1,-0.2,720,55,,,,,,,,,,,,,,,,,,,
66134,1490380276986,,,,,,,,-0.05,0.07,0.98,-3.2,0.2,-0.3,720,55,,,,,,,,,,,,,,,,,,,
66154,1490380276998,,,,,,,,-0.06,0.07,0.98,-3.2,0.3,-0.3,720,55,,,,,,,,,,,,,,,,,,,
66174,1490380277018,,,,,56,,,-0.07,0.07,0.98,-3.1,0.3,-0.3,700,55,1,1,13.091,0,37.478523,-122.203934,0.0,0.001,20.2,6,3,0.5,0,0.0,-1,0.0,0.0,0.0,0
66194,1490380277038,,,,,,,,-0.07,0.06,0.97,-3.1,0.4,-0.3,700,55,,,,,,,,,,,,,,,,,,,
66214,1490380277058,,,,,,,,-0.08,0.06,0.97,-3.1,0.5,-0.3,680,55,,,,,,,,,,,,,,,,,,,
66234,1490380277078,,,,,,,,-0.08,0.06,0.97,-3.0,0.6,-0.2,660,55,,,,,,,,,,,,,,,,,,,
66254,1490380277106,,,,,,,,-0.09,0.06,0.97,-3.0,0.7,-0.2,660,55,,,,,,,,,,,,,,,,,,,
66274,1490380277126,0,50.1,,56.4,53,50.8,,-0.1,0.06,0.97,-3.1,0.7,-0.2,640,55,1,1,12.0,0,37.478523,-122.203934,0.0,0.001,19.9,6,3,0.5,0,0.0,-1,0.0,0.0,0.0,0
66294,1490380277146,,,,,,,,-0.1,0.07,0.97,-3.1,0.7,-0.2,620,55,,,,,,,,,,,,,,,,,,,
66314,1490380277166,,,,,,,,-0.11,0.07,0.97,-3.1,0.7,-0.2,620,55,,,,,,,,,,,,,,,,,,,
66334,1490380277186,,,,,,,,-0.11,0.08,0.97,-3.1,0.8,-0.1,620,55,,,,,,,,,,,,,,,,,,,
66354,1490380277206,,,,,,,,-0.12,0.07,0.97,-3.1,0.7,-0.2,620,55,,,,,,,,,,,,,,,,,,,
66374,1490380277226,,,,,53,,,-0.12,0.07,0.97,-3.1,0.8,-0.2,620,55,1,1,11.273,0,37.478523,-122.203934,0.0,0.001,19.6,6,3,0.5,0,0.0,-1,0.0,0.0,0.0,0
66394,1490380277246,,,,,,,,-0.13,0.08,0.97,-3.1,0.7,-0.1,620,55,,,,,,,,,,,,,,,,,,,
66414,1490380277266,,,,,,,,-0.13,0.07,0.97,-3.1,0.6,-0.2,620,55,,,,,,,,,,,,,,,,,,,
66434,1490380277286,,,,,,,,-0.13,0.07,0.97,-3.1,0.6,-0.2,620,55,,,,,,,,,,,,,,,,,,,
66454,1490380277306,,,,,,,,-0.13,0.07,0.97,-3.1,0.5,-0.3,620,55,,,,,,,,,,,,,,,,,,,
66474,1490380277326,0,48.2,,53.7,53,51.1,,-0.14,0.06,0.97,-3.0,0.5,-0.3,620,55,1,1,11.273,0,37.478519,-122.203934,0.0,0.001,19.2,6,3,0.5,0,0.0,-1,0.0,0.0,0.0,0
66494,1490380277346,,,,,,,,-0.13,0.07,0.97,-3.1,0.5,-0.3,640,55,,,,,,,,,,,,,,,,,,,
66514,1490380277366,,,,,,,,-0.14,0.06,0.97,-3.0,0.5,-0.3,660,55,,,,,,,,,,,,,,,,,,,
66534,1490380277386,,,,,,,,-0.13,0.05,0.97,-3.0,0.3,-0.5,660,55,,,,,,,,,,,,,,,,,,,
66554,1490380277406,,,,,,,,-0.13,0.06,0.97,-3.0,0.4,-0.4,680,55,,,,,,,,,,,,,,,,,,,
66574,1490380277426,,,,,55,,,-0.13,0.06,0.97,-3.0,0.4,-0.4,680,55,1,1,12.0,0,37.478519,-122.203934,0.0,0.001,18.9,6,3,0.5,0,0.0,-1,0.0,0.0,0.0,0
66594,1490380277446,,,,,,,,-0.14,0.07,0.98,-2.9,0.3,-0.6,680,55,,,,,,,,,,,,,,,,,,,
66614,1490380277466,,,,,,,,-0.13,0.07,0.98,-2.9,0.4,-0.5,700,20,,,,,,,,,,,,,,,,,,,
66634,1490380277486,,,,,,,,-0.14,0.08,0.98,-2.9,0.4,-0.5,680,20,,,,,,,,,,,,,,,,,,,
66654,1490380277506,,,,,,,,-0.14,0.06,0.98,-2.8,0.4,-0.6,700,20,,,,,,,,,,,,,,,,,,,
66674,1490380277526,0,46.4,,54.0,56,52.9,,-0.14,0.07,0.98,-2.8,0.4,-0.6,700,20,1,1,34.0,0,37.478519,-122.203934,0.0,0.001,18.9,6,3,0.5,0,0.0,-1,0.0,0.0,0.0,0
66694,1490380277546,,,,,,,,-0.13,0.08,0.97,-2.8,0.3,-0.4,700,20,,,,,,,,,,,,,,,,,,,
66714,1490380277566,,,,,,,,-0.14,0.06,0.98,-2.8,0.2,-0.5,720,20,,,,,,,,,,,,,,,,,,,
66734,1490380277586,,,,,,,,-0.14,0.06,0.98,-2.8,0.2,-0.6,720,20,,,,,,,,,,,,,,,,,,,
66754,1490380277605,,,,,,,,-0.14,0.07,0.97,-2.8,0.2,-0.5,720,20,,,,,,,,,,,,,,,,,,,
66774,1490380277625,,,,,58,,,-0.14,0.07,0.97,-2.9,0.3,-0.4,700,2,1,1,36.0,0,37.478519,-122.203934,0.0,0.001,18.9,6,3,0.5,0,0.0,-1,0.0,0.0,0.0,0
66794,1490380277645,,,,,,,,-0.14,0.07,0.97,-2.8,0.3,-0.5,720,2,,,,,,,,,,,,,,,,,,,
66814,1490380277665,,,,,,,,-0.15,0.07,0.97,-2.9,0.3,-0.6,720,2,,,,,,,,,,,,,,,,,,,
66834,1490380277685,,,,,,,,-0.15,0.08,0.97,-3.0,0.3,-0.5,720,2,,,,,,,,,,,,,,,,,,,
66854,1490380277705,,,,,,,,-0.15,0.08,0.97,-3.0,0.2,-0.5,720,2,,,,,,,,,,,,,,,,,,,
66874,1490380277725,1,50.0,,56.9,60,52.3,,-0.15,0.07,0.97,-3.0,0.1,-0.6,720,14,1,1,720.0,0,37.478519,-122.203934,0.0,0.001,18.9,6,3,0.5,0,0.0,-1,0.0,0.0,0.0,0
66894,1490380277745,,,,,,,,-0.16,0.07,0.97,-3.0,0.2,-0.6,720,14,,,,,,,,,,,,,,,,,,,
66914,1490380277765,,,,,,,,-0.16,0.06,0.96,-3.0,0.2,-0.5,720,17,,,,,,,,,,,,,,,,,,,
66934,1490380277785,,,,,,,,-0.17,0.05,0.97,-2.9,0.0,-0.6,700,17,,,,,,,,,,,,,,,,,,,
66954,1490380277805,,,,,,,,-0.17,0.05,0.97,-2.9,0.1,-0.7,700,17,,,,,,,,,,,,,,,,,,,
66974,1490380277825,,,,,62,,,-0.17,0.07,0.97,-2.9,0.3,-0.6,680,17,1,1,45.0,0,37.478519,-122.203934,0.0,0.001,18.9,6,3,0.5,0,0.0,-1,0.0,0.0,0.0,0
66994,1490380277845,,,,,,,,-0.17,0.07,0.97,-2.8,0.2,-0.6,680,18,,,,,,,,,,,,,,,,,,,
67014,1490380277865,,,,,,,,-0.18,0.06,0.97,-2.8,0.1,-0.6,680,18,,,,,,,,,,,,,,,,,,,
67034,1490380277885,,,,,,,,-0.17,0.07,0.97,-2.9,0.1,-0.5,680,18,,,,,,,,,,,,,,,,,,,
67054,1490380277905,,,,,,,,-0.17,0.06,0.97,-2.8,0.0,-0.5,680,18,,,,,,,,,,,,,,,,,,,
67074,1490380277925,0,48.2,0.3,56.6,60,53.8,14.81,-0.18,0.06,0.99,-2.8,-0.1,-0.5,680,22,1,1,37.778,0,37.478519,-122.203934,0.0,0.001,18.9,6,3,0.5,0,0.0,-1,0.0,0.0,0.0,0
67094,1490380277945,,,,,,,,-0.18,0.07,0.99,-2.8,0.0,-0.4,680,51,,,,,,,,,,,,,,,,,,,
67114,1490380277965,,,,,,,,-0.18,0.06,0.98,-2.8,-0.1,-0.3,660,51,,,,,,,,,,,,,,,,,,,
67134,1490380277985,,,,,,,,-0.18,0.05,0.98,-2.8,-0.2,-0.3,680,51,,,,,,,,,,,,,,,,,,,
67154,1490380277997,,,,,,,,-0.18,0.06,0.98,-2.8,-0.3,-0.3,680,25,,,,,,,,,,,,,,,,,,,
67174,1490380278017,,,,,62,,,-0.18,0.06,0.97,-2.8,-0.3,-0.2,660,54,1,1,13.2,0,37.478519,-122.203934,0.0,0.001,18.9,6,3,0.5,0,0.0,-1,0.0,0.0,0.0,0
67194,1490380278037,,,,,,,,-0.19,0.05,0.98,-2.7,-0.4,-0.3,660,54,,,,,,,,,,,,,,,,,,,
67214,1490380278057,,,,,,,,-0.19,0.06,0.98,-2.7,-0.3,-0.3,660,54,,,,,,,,,,,,,,,,,,,
67234,1490380278077,,,,,,,,-0.18,0.07,0.97,-2.6,-0.4,-0.2,680,65,,,,,,,,,,,,,,,,,,,
67254,1490380278105,,,,,,,,-0.19,0.05,0.97,-2.5,-0.5,-0.3,680,28,,,,,,,,,,,,,,,,,,,
67274,1490380278125,0,46.7,,55.4,61,53.5,,-0.19,0.05,0.96,-2.5,-0.5,-0.4,680,72,1,1,10.625,0,37.478519,-122.203934,0.0,0.001,18.9,6,3,0.5,0,0.0,-1,0.0,0.0,0.0,0
67294,1490380278145,,,,,,,,-0.19,0.07,0.95,-2.5,-0.5,-0.4,680,72,,,,,,,,,,,,,,,,,,,
67314,1490380278165,,,,,,,,-0.19,0.06,0.95,-2.4,-0.6,-0.4,680,35,,,,,,,,,,,,,,,,,,,
67334,1490380278185,,,,,,,,-0.19,0.06,0.97,-2.3,-0.6,-0.5,680,58,,,,,,,,,,,,,,,,,,,
67354,1490380278205,,,,,,,,-0.19,0.07,0.96,-2.4,-0.6,-0.4,680,58,,,,,,,,,,,,,,,,,,,
67374,1490380278225,,,,,63,,,-0.19,0.07,0.96,-2.3,-0.7,-0.4,680,77,1,1,19.429,0,37.478519,-122.203934,0.92,0.001,17.0,6,3,0.5,0,0.0,-1,0.0,0.0,0.0,0
67394,1490380278245,,,,,,,,-0.19,0.06,0.97,-2.3,-0.8,-0.4,680,77,,,,,,,,,,,,,,,,,,,
67414,1490380278265,,,,,,,,-0.18,0.06,0.98,-2.4,-0.7,-0.3,700,69,,,,,,,,,,,,,,,,,,,
67434,1490380278285,,,,,,,,-0.18,0.06,0.97,-2.4,-0.7,-0.1,700,86,,,,,,,,,,,,,,,,,,,
67454,1490380278305,,,,,,,,-0.19,0.05,0.97,-2.3,-0.8,-0.2,700,86,,,,,,,,,,,,,,,,,,,
67474,1490380278325,0,47.2,,56.1,63,54.1,,-0.18,0.06,0.97,-2.3,-0.9,-0.2,700,86,1,1,10.145,0,37.478519,-122.203934,0.93,0.001,16.5,6,3,0.5,0,0.0,-1,0.0,0.0,0.0,0
67494,1490380278345,,,,,,,,-0.17,0.06,0.97,-2.3,-0.9,-0.2,700,37,,,,,,,,,,,,,,,,,,,
67514,1490380278365,,,,,,,,-0.17,0.06,0.96,-2.3,-1.1,-0.2,700,60,,,,,,,,,,,,,,,,,,,
67534,1490380278385,,,,,,,,-0.18,0.05,0.97,-2.2,-1.1,-0.4,700,86,,,,,,,,,,,,,,,,,,,
67554,1490380278405,,,,,,,,-0.16,0.05,0.97,-2.2,-1.0,-0.3,720,54,,,,,,,,,,,,,,,,,,,
67574,1490380278425,,,,,63,,,-0.16,0.06,0.96,-2.1,-1.0,-0.2,740,51,1,1,8.14,0,37.478519,-122.203934,1.11,0.001,16.3,6,3,0.5,0,0.0,-1,0.0,0.0,0.0,0
67594,1490380278445,,,,,,,,-0.16,0.05,0.97,-2.1,-1.1,-0.3,740,86,,,,,,,,,,,,,,,,,,,
67614,1490380278465,,,,,,,,-0.16,0.05,0.98,-2.1,-1.2,-0.3,740,86,,,,,,,,,,,,,,,,,,,
67634,1490380278485,,,,,,,,-0.15,0.06,0.97,-2.1,-1.2,-0.3,740,77,,,,,,,,,,,,,,,,,,,
67654,1490380278505,,,,,,,,-0.14,0.06,0.97,-2.1,-1.1,-0.2,740,48,,,,,,,,,,,,,,,,,,,
67674,1490380278525,0,49.0,,57.3,66,53.2,,-0.14,0.06,0.98,-2.1,-1.1,-0.3,740,69,1,1,9.737,0,37.478519,-122.203934,1.2,0.001,16.1,6,3,0.5,0,0.0,-1,0.0,0.0,0.0,0
67694,1490380278545,,,,,,,,-0.14,0.06,0.99,-2.1,-1.1,-0.3,740,83,,,,,,,,,,,,,,,,,,,
67714,1490380278565,,,,,,,,-0.14,0.06,0.98,-2.1,-1.1,-0.2,760,83,,,,,,,,,,,,,,,,,,,
67734,1490380278585,,,,,,,,-0.12,0.06,0.97,-2.1,-1.0,-0.1,760,58,,,,,,,,,,,,,,,,,,,
67754,1490380278606,,,,,,,,-0.13,0.06,0.98,-2.1,-1.2,-0.1,760,54,,,,,,,,,,,,,,,,,,,
67774,1490380278626,,,,,69,,,-0.13,0.06,0.98,-2.1,-1.2,-0.2,760,83,1,1,13.103,0,37.478519,-122.203934,1.02,0.001,15.8,6,3,0.5,0,0.0,-1,0.0,0.0,0.0,0
67794,1490380278646,,,,,,,,-0.13,0.06,0.97,-2.2,-1.3,-0.2,760,77,,,,,,,,,,,,,,,,,,,
67814,1490380278666,,,,,,,,-0.12,0.06,0.97,-2.2,-1.3,-0.1,740,48,,,,,,,,,,,,,,,,,,,
67834,1490380278686,,,,,,,,-0.12,0.06,0.97,-2.2,-1.4,-0.1,740,69,,,,,,,,,,,,,,,,,,,
67854,1490380278706,,,,,,,,-0.13,0.06,0.97,-2.2,-1.4,-0.2,760,85,,,,,,,,,,,,,,,,,,,
67874,1490380278726,0,47.2,,54.0,68,51.9,,-0.12,0.06,0.97,-2.3,-1.5,-0.2,760,85,1,1,15.745,0,37.478519,-122.203934,1.27,0.001,15.8,6,3,0.5,0,0.0,-1,0.0,0.0,0.0,0
67894,1490380278746,,,,,,,,-0.12,0.06,0.97,-2.3,-1.5,-0.1,760,60,,,,,,,,,,,,,,,,,,,
67914,1490380278766,,,,,,,,-0.11,0.06,0.97,-2.4,-1.5,0.0,760,51,,,,,,,,,,,,,,,,,,,
67934,1490380278786,,,,,,,,-0.12,0.06,0.98,-2.4,-1.5,-0.1,760,78,,,,,,,,,,,,,,,,,,,
67954,1490380278806,,,,,,,,-0.12,0.06,0.98,-2.4,-1.4,-0.1,760,71,,,,,,,,,,,,,,,,,,,
67974,1490380278826,,,,,68,,,-0.11,0.06,0.97,-2.4,-1.4,-0.0,740,71,1,1,9.744,0,37.478519,-122.203934,1.24,0.001,15.7,6,3,0.5,0,0.0,-1,0.0,0.0,0.0,0
67994,1490380278846,,,,,,,,-0.1,0.07,0.97,-2.4,-1.4,0.0,740,51,,,,,,,,,,,,,,,,,,,
68014,1490380278866,,,,,,,,-0.11,0.07,0.98,-2.4,-1.4,-0.1,740,71,,,,,,,,,,,,,,,,,,,
68034,1490380278886,,,,,,,,-0.11,0.06,0.98,-2.4,-1.4,-0.2,740,77,,,,,,,,,,,,,,,,,,,
68054,1490380278906,,,,,,,,-0.11,0.07,0.98,-2.4,-1.4,-0.1,740,55,,,,,,,,,,,,,,,,,,,
68074,1490380278926,0,50.1,0.2,57.5,67,52.5,14.95,-0.1,0.07,0.97,-2.5,-1.3,-0.1,740,60,1,1,9.737,0,37.478523,-122.203934,1.12,0.001,15.5,6,3,0.5,0,0.0,-1,0.0,0.0,0.0,0
68094,1490380278946,,,,,,,,-0.11,0.07,0.98,-2.4,-1.3,-0.1,740,80,,,,,,,,,,,,,,,,,,,
68114,1490380278966,,,,,,,,-0.11,0.07,0.98,-2.5,-1.3,-0.2,740,80,,,,,,,,,,,,,,,,,,,
68134,1490380278986,,,,,,,,-0.1,0.08,0.98,-2.5,-1.4,-0.1,720,63,,,,,,,,,,,,,,,,,,,
68154,1490380278998,,,,,,,,-0.09,0.08,0.98,-2.5,-1.4,-0.0,740,48,,,,,,,,,,,,,,,,,,,
68174,1490380279018,,,,,67,,,-0.1,0.08,0.98,-2.5,-1.4,-0.1,740,74,1,1,11.429,0,37.478523,-122.203934,1.23,0.001,15.5,6,3,0.5,0,0.0,-1,0.0,0.0,0.0,0
68194,1490380279038,,,,,,,,-0.1,0.08,0.99,-2.5,-1.4,-0.1,740,77,,,,,,,,,,,,,,,,,,,
68214,1490380279058,,,,,,,,-0.09,0.09,0.98,-2.6,-1.4,0.0,740,77,,,,,,,,,,,,,,,,,,,
68234,1490380279078,,,,,,,,-0.09,0.09,0.98,-2.6,-1.4,0.1,760,51,,,,,,,,,,,,,,,,,,,
68254,1490380279104,,,,,,,,-0.09,0.09,0.99,-2.7,-1.5,-0.0,740,62,,,,,,,,,,,,,,,,,,,
68274,1490380279124,0,49.6,,56.7,65,50.8,,-0.09,0.09,0.99,-2.7,-1.6,-0.0,740,75,1,1,15.2,0,37.478523,-122.203934,1.15,0.001,15.4,6,3,0.5,0,0.0,-1,0.0,0.0,0.0,0
68294,1490380279144,,,,,,,,-0.09,0.09,0.98,-2.8,-1.6,0.1,760,58,,,,,,,,,,,,,,,,,,,
68314,1490380279164,,,,,,,,-0.09,0.09,0.98,-2.9,-1.6,0.2,740,57,,,,,,,,,,,,,,,,,,,
68334,1490380279184,,,,,,,,-0.09,0.09,0.99,-2.9,-1.6,0.2,760,57,,,,,,,,,,,,,,,,,,,
68354,1490380279206,,,,,,,,-0.09,0.08,1.0,-3.0,-1.5,0.1,760,71,,,,,,,,,,,,,,,,,,,
68374,1490380279226,,,,,67,,,-0.09,0.09,0.99,-3.0,-1.5,0.2,760,58,1,1,13.214,0,37.478523,-122.203934,1.35,0.001,15.4,6,3,0.5,0,0.0,-1,0.0,0.0,0.0,0
68394,1490380279246,,,,,,,,-0.08,0.09,0.98,-3.1,-1.4,0.2,760,52,,,,,,,,,,,,,,,,,,,
68414,1490380279266,,,,,,,,-0.08,0.09,0.99,-3.1,-1.5,0.2,740,66,,,,,,,,,,,,,,,,,,,
68434,1490380279286,,,,,,,,-0.08,0.09,0.99,-3.2,-1.5,0.1,740,66,,,,,,,,,,,,,,,,,,,
68454,1490380279306,,,,,,,,-0.08,0.09,0.99,-3.3,-1.5,0.1,740,58,,,,,,,,,,,,,,,,,,,
68474,1490380279326,0,48.9,,57.6,68,53.5,,-0.07,0.1,0.98,-3.3,-1.5,0.2,740,51,1,1,11.212,0,37.478523,-122.203934,1.18,0.001,15.5,6,3,0.5,0,0.0,-1,0.0,0.0,0.0,0
68494,1490380279346,,,,,,,,-0.07,0.09,0.98,-3.4,-1.5,0.1,760,65,,,,,,,,,,,,,,,,,,,
68514,1490380279366,,,,,,,,-0.08,0.09,0.99,-3.4,-1.5,0.0,760,65,,,,,,,,,,,,,,,,,,,
68534,1490380279386,,,,,,,,-0.07,0.08,0.99,-3.5,-1.4,0.0,760,57,,,,,,,,,,,,,,,,,,,
68554,1490380279406,,,,,,,,-0.07,0.09,0.98,-3.6,-1.3,0.1,760,51,,,,,,,,,,,,,,,,,,,
68574,1490380279426,,,,,67,,,-0.06,0.08,0.98,-3.7,-1.4,0.1,760,51,1,1,13.571,0,37.478523,-122.203934,1.03,0.001,15.5,6,3,0.5,0,0.0,-1,0.0,0.0,0.0,0
68594,1490380279446,,,,,,,,-0.06,0.08,0.99,-3.7,-1.4,-0.0,760,60,,,,,,,,,,,,,,,,,,,
68614,1490380279466,,,,,,,,-0.06,0.08,0.99,-3.7,-1.3,-0.1,760,52,,,,,,,,,,,,,,,,,,,
68634,1490380279486,,,,,,,,-0.06,0.08,0.98,-3.8,-1.2,-0.1,740,51,,,,,,,,,,,,,,,,,,,
68654,1490380279508,,,,,,,,-0.05,0.08,0.98,-3.8,-1.2,-0.0,760,51,,,,,,,,,,,,,,,,,,,
68674,1490380279528,0,50.0,,57.6,66,52.9,,-0.06,0.08,0.98,-3.7,-1.2,-0.1,760,55,1,1,14.231,0,37.478523,-122.203934,1.09,0.001,15.6,6,3,0.5,0,0.0,-1,0.0,0.0,0.0,0
68694,1490380279548,,,,,,,,-0.06,0.07,0.99,-3.7,-1.2,-0.2,760,55,,,,,,,,,,,,,,,,,,,
68714,1490380279568,,,,,,,,-0.06,0.07,0.98,-3.7,-1.2,-0.1,780,46,,,,,,,,,,,,,,,,,,,
68734,1490380279588,,,,,,,,-0.05,0.07,0.97,-3.7,-1.1,-0.0,760,52,,,,,,,,,,,,,,,,,,,
68754,1490380279607,,,,,,,,-0.05,0.08,0.98,-3.7,-1.1,-0.0,760,52,,,,,,,,,,,,,,,,,,,
68774,1490380279627,,,,,65,,,-0.05,0.08,0.98,-3.7,-1.2,-0.1,760,46,1,1,14.615,0,37.478523,-122.203934,0.98,0.001,15.6,6,3,0.5,0,0.0,-1,0.0,0.0,0.0,0
68794,1490380279647,,,,,,,,-0.05,0.08,0.98,-3.8,-1.1,-0.1,760,43,,,,,,,,,,,,,,,,,,,
68814,1490380279667,,,,,,,,-0.05,0.08,0.98,-3.8,-1.0,0.0,760,43,,,,,,,,,,,,,,,,,,,
68834,1490380279687,,,,,,,,-0.05,0.08,0.98,-3.8,-1.0,0.1,760,49,,,,,,,,,,,,,,,,,,,
68854,1490380279703,,,,,,,,-0.05,0.08,0.98,-3.8,-1.0,-0.0,760,49,,,,,,,,,,,,,,,,,,,
68874,1490380279723,0,47.2,,54.3,63,52.3,,-0.05,0.08,0.99,-3.8,-1.0,-0.1,760,37,1,1,15.51,0,37.478523,-122.203934,0.0,0.001,15.6,6,3,0.5,0,0.0,-1,0.0,0.0,0.0,0
68894,1490380279743,,,,,,,,-0.05,0.08,0.98,-3.9,-1.0,-0.0,760,37,,,,,,,,,,,,,,,,,,,
68914,1490380279763,,,,,,,,-0.05,0.08,0.98,-3.9,-1.0,-0.0,760,48,,,,,,,,,,,,,,,,,,,
68934,1490380279783,,,,,,,,-0.05,0.09,0.98,-3.9,-0.9,-0.1,760,48,,,,,,,,,,,,,,,,,,,
68954,1490380279807,,,,,,,,-0.06,0.08,0.99,-3.8,-0.9,-0.2,760,35,,,,,,,,,,,,,,,,,,,
68974,1490380279827,,,,,66,,,-0.05,0.08,0.98,-3.8,-0.9,-0.2,760,35,1,1,16.17,0,37.478523,-122.203934,0.0,0.001,15.6,6,3,0.5,0,0.0,-1,0.0,0.0,0.0,0
68994,1490380279847,,,,,,,,-0.05,0.08,0.97,-3.9,-0.9,-0.1,760,40,,,,,,,,,,,,,,,,,,,
69014,1490380279867,,,,,,,,-0.05,0.08,0.98,-3.8,-0.9,-0.1,760,40,,,,,,,,,,,,,,,,,,,
69034,1490380279887,,,,,,,,-0.05,0.08,0.98,-3.8,-0.9,-0.2,760,34,,,,,,,,,,,,,,,,,,,
69054,1490380279907,,,,,,,,-0.05,0.07,0.98,-3.8,-0.9,-0.3,760,34,,,,,,,,,,,,,,,,,,,
69074,1490380279927,0,49.1,0.0,57.6,66,53.2,14.98,-0.05,0.08,0.97,-3.8,-0.8,-0.2,760,35,1,1,23.03,0,37.478523,-122.203934,0.0,0.001,15.5,6,3,0.5,0,0.0,-1,0.0,0.0,0.0,0
69094,1490380279947,,,,,,,,-0.05,0.08,0.98,-3.8,-0.8,-0.2,760,35,,,,,,,,,,,,,,,,,,,
69114,1490380279967,,,,,,,,-0.05,0.08,0.98,-3.7,-0.8,-0.2,780,34,,,,,,,,,,,,,,,,,,,
69134,1490380279987,,,,,,,,-0.05,0.07,0.99,-3.7,-0.8,-0.3,780,34,,,,,,,,,,,,,,,,,,,
69154,1490380279999,,,,,,,,-0.05,0.08,0.98,-3.7,-0.7,-0.1,780,34,,,,,,,,,,,,,,,,,,,
69174,1490380280019,,,,,68,,,-0.05,0.08,0.98,-3.7,-0.7,-0.1,780,29,1,1,23.636,0,37.478523,-122.203934,0.0,0.001,15.3,6,3,0.5,0,0.0,-1,0.0,0.0,0.0,0
69194,1490380280039,,,,,,,,-0.05,0.08,0.99,-3.7,-0.7,-0.1,760,29,,,,,,,,,,,,,,,,,,,
69214,1490380280059,,,,,,,,-0.06,0.07,0.99,-3.7,-0.6,-0.2,760,29,,,,,,,,,,,,,,,,,,,
69234,1490380280079,,,,,,,,-0.05,0.07,0.99,-3.7,-0.6,-0.3,760,35,,,,,,,,,,,,,,,,,,,
69254,1490380280107,,,,,,,,-0.05,0.08,0.98,-3.7,-0.6,-0.2,760,35,,,,,,,,,,,,,,,,,,,
69274,1490380280127,0,48.2,,57.0,64,51.0,,-0.04,0.08,0.98,-3.7,-0.6,-0.2,780,26,1,1,21.714,0,37.478523,-122.203934,0.0,0.001,15.2,6,3,0.5,0,0.0,-1,0.0,0.0,0.0,0
69294,1490380280147,,,,,,,,-0.05,0.08,0.98,-3.7,-0.6,-0.2,780,26,,,,,,,,,,,,,,,,,,,
69314,1490380280167,,,,,,,,-0.05,0.07,0.99,-3.6,-0.6,-0.3,780,26,,,,,,,,,,,,,,,,,,,
69334,1490380280187,,,,,,,,-0.04,0.07,0.98,-3.6,-0.5,-0.2,780,26,,,,,,,,,,,,,,,,,,,
69354,1490380280207,,,,,,,,-0.04,0.07,0.98,-3.6,-0.4,-0.2,780,20,,,,,,,,,,,,,,,,,,,
69374,1490380280227,,,,,64,,,-0.03,0.07,0.98,-3.6,-0.5,-0.2,800,20,1,1,30.0,0,37.478523,-122.203934,0.0,0.001,15.2,6,3,0.5,0,0.0,-1,0.0,0.0,0.0,0
69394,1490380280247,,,,,,,,-0.04,0.07,0.99,-3.6,-0.6,-0.3,800,20,,,,,,,,,,,,,,,,,,,
69414,1490380280267,,,,,,,,-0.04,0.07,0.99,-3.6,-0.5,-0.4,800,20,,,,,,,,,,,,,,,,,,,
69434,1490380280287,,,,,,,,-0.04,0.07,0.99,-3.6,-0.5,-0.4,800,20,,,,,,,,,,,,,,,,,,,
69454,1490380280307,,,,,,,,-0.03,0.07,0.98,-3.5,-0.4,-0.3,800,20,,,,,,,,,,,,,,,,,,,
69474,1490380280327,0,48.8,,56.3,66,54.0,,-0.03,0.07,0.98,-3.5,-0.4,-0.2,800,20,1,1,40.0,0,37.478523,-122.203934,0.0,0.001,15.2,6,3,0.5,0,0.0,-1,0.0,0.0,0.0,0
69494,1490380280347,,,,,,,,-0.03,0.08,0.99,-3.5,-0.4,-0.3,800,20,,,,,,,,,,,,,,,,,,,
69514,1490380280367,,,,,,,,-0.03,0.07,0.99,-3.5,-0.4,-0.4,800,17,,,,,,,,,,,,,,,,,,,
69534,1490380280387,,,,,,,,-0.03,0.07,0.99,-3.4,-0.3,-0.3,800,17,,,,,,,,,,,,,,,,,,,
69554,1490380280407,,,,,,,,-0.03,0.07,0.98,-3.4,-0.3,-0.2,800,17,,,,,,,,,,,,,,,,,,,
69574,1490380280427,,,,,67,,,-0.02,0.07,0.98,-3.4,-0.3,-0.2,800,17,1,1,50.0,0,37.478523,-122.203934,0.0,0.001,15.2,6,3,0.5,0,0.0,-1,0.0,0.0,0.0,0
69594,1490380280447,,,,,,,,-0.03,0.08,0.99,-3.4,-0.3,-0.2,800,17,,,,,,,,,,,,,,,,,,,
69614,1490380280467,,,,,,,,-0.03,0.08,0.99,-3.3,-0.3,-0.3,820,17,,,,,,,,,,,,,,,,,,,
69634,1490380280487,,,,,,,,-0.03,0.07,0.99,-3.3,-0.3,-0.3,820,17,,,,,,,,,,,,,,,,,,,
69654,1490380280507,,,,,,,,-0.03,0.08,0.98,-3.3,-0.2,-0.2,800,17,,,,,,,,,,,,,,,,,,,
69674,1490380280527,0,48.1,,57.3,66,51.3,,-0.03,0.07,0.98,-3.3,-0.1,-0.2,800,17,1,1,51.25,0,37.478523,-122.203934,0.0,0.001,15.2,6,3,0.5,0,0.0,-1,0.0,0.0,0.0,0
69694,1490380280547,,,,,,,,-0.03,0.08,0.99,-3.3,-0.1,-0.1,800,17,,,,,,,,,,,,,,,,,,,
69714,1490380280567,,,,,,,,-0.04,0.08,0.99,-3.3,-0.2,-0.3,800,17,,,,,,,,,,,,,,,,,,,
69734,1490380280587,,,,,,,,-0.05,0.07,0.99,-3.2,-0.1,-0.4,800,17,,,,,,,,,,,,,,,,,,,
69754,1490380280606,,,,,,,,-0.05,0.07,0.99,-3.3,0.0,-0.3,800,17,,,,,,,,,,,,,,,,,,,
69774,1490380280626,,,,,68,,,-0.05,0.08,0.98,-3.3,0.1,-0.3,780,17,1,1,50.0,0,37.478523,-122.203934,0.0,0.001,15.2,6,3,0.5,0,0.0,-1,0.0,0.0,0.0,0
69794,1490380280646,,,,,,,,-0.05,0.08,0.99,-3.2,0.1,-0.2,760,17,,,,,,,,,,,,,,,,,,,
69814,1490380280666,,,,,,,,-0.06,0.08,0.99,-3.2,0.1,-0.3,740,17,,,,,,,,,,,,,,,,,,,
69834,1490380280686,,,,,,,,-0.06,0.07,0.99,-3.2,0.1,-0.3,740,17,,,,,,,,,,,,,,,,,,,
69854,1490380280706,,,,,,,,-0.06,0.08,0.98,-3.2,0.1,-0.3,720,17,,,,,,,,,,,,,,,,,,,
69874,1490380280726,0,46.7,,54.6,63,52.4,,-0.06,0.08,0.98,-3.2,0.1,-0.3,720,17,1,1,46.25,0,37.478523,-122.203934,0.0,0.001,15.2,6,3,0.5,0,0.0,-1,0.0,0.0,0.0,0
69894,1490380280746,,,,,,,,-0.06,0.07,0.98,-3.2,0.1,-0.4,720,17,,,,,,,,,,,,,,,,,,,
69914,1490380280766,,,,,,,,-0.06,0.07,0.99,-3.2,-0.0,-0.4,720,17,,,,,,,,,,,,,,,,,,,
69934,1490380280786,,,,,,,,-0.06,0.08,0.98,-3.2,0.0,-0.3,700,17,,,,,,,,,,,,,,,,,,,
69954,1490380280806,,,,,,,,-0.06,0.07,0.98,-3.2,-0.1,-0.4,700,17,,,,,,,,,,,,,,,,,,,
69974,1490380280826,,,,,62,,,-0.06,0.07,0.99,-3.2,-0.0,-0.3,700,17,1,1,43.75,0,37.478523,-122.203934,0.0,0.001,15.2,6,3,0.5,0,0.0,-1,0.0,0.0,0.0,0
69994,1490380280846,,,,,,,,-0.06,0.08,0.98,-3.2,0.0,-0.3,680,17,,,,,,,,,,,,,,,,,,,
70014,1490380280866,,,,,,,,-0.06,0.08,0.98,-3.2,0.0,-0.3,680,17,,,,,,,,,,,,,,,,,,,
70034,1490380280886,,,,,,,,-0.07,0.07,0.99,-3.2,0.1,-0.3,680,17,,,,,,,,,,,,,,,,,,,
70054,1490380280906,,,,,,,,-0.07,0.08,0.99,-3.2,0.1,-0.2,680,17,,,,,,,,,,,,,,,,,,,
70074,1490380280926,0,49.1,0.1,57.8,60,52.6,14.97,-0.07,0.08,0.98,-3.2,0.1,-0.2,660,17,1,1,42.5,0,37.478523,-122.203934,0.0,0.001,15.2,6,3,0.5,0,0.0,-1,0.0,0.0,0.0,0
70094,1490380280946,,,,,,,,-0.08,0.07,0.99,-3.2,0.1,-0.3,660,17,,,,,,,,,,,,,,,,,,,
70114,1490380280966,,,,,,,,-0.08,0.07,0.99,-3.2,0.2,-0.3,680,17,,,,,,,,,,,,,,,,,,,
70134,1490380280986,,,,,,,,-0.07,0.08,0.98,-3.2,0.2,-0.3,660,17,,,,,,,,,,,,,,,,,,,
70154,1490380281000,,,,,,,,-0.08,0.07,0.98,-3.1,0.1,-0.4,660,17,,,,,,,,,,,,,,,,,,,
70174,1490380281020,,,,,58,,,-0.08,0.07,0.98,-3.2,0.1,-0.4,660,17,1,1,41.25,0,37.478523,-122.203934,0.0,0.001,15.2,6,3,0.5,0,0.0,-1,0.0,0.0,0.0,0
70194,1490380281040,,,,,,,,-0.08,0.07,0.98,-3.2,0.1,-0.3,660,17,,,,,,,,,,,,,,,,,,,
70214,1490380281060,,,,,,,,-0.08,0.06,0.98,-3.1,0.1,-0.4,660,17,,,,,,,,,,,,,,,,,,,
70234,1490380281080,,,,,,,,-0.08,0.07,0.99,-3.1,0.1,-0.4,660,17,,,,,,,,,,,,,,,,,,,
70254,1490380281106,,,,,,,,-0.08,0.07,0.98,-3.2,0.0,-0.3,680,17,,,,,,,,,,,,,,,,,,,
70274,1490380281126,0,47.2,,56.9,56,50.9,,-0.09,0.06,0.99,-3.1,0.0,-0.4,680,17,1,1,41.25,0,37.478523,-122.203934,0.0,0.001,15.2,6,3,0.5,0,0.0,-1,0.0,0.0,0.0,0
70294,1490380281146,,,,,,,,-0.1,0.07,0.98,-3.2,0.1,-0.4,680,17,,,,,,,,,,,,,,,,,,,
70314,1490380281166,,,,,,,,-0.09,0.08,0.98,-3.2,0.2,-0.3,680,17,,,,,,,,,,,,,,,,,,,
70334,1490380281186,,,,,,,,-0.1,0.06,0.98,-3.2,0.2,-0.4,680,2,,,,,,,,,,,,,,,,,,,
70354,1490380281206,,,,,,,,-0.1,0.07,0.98,-3.2,0.3,-0.3,680,2,,,,,,,,,,,,,,,,,,,
70374,1490380281226,,,,,55,,,-0.1,0.08,0.97,-3.2,0.2,-0.3,680,2,1,1,42.5,0,37.478523,-122.203934,0.0,0.001,15.2,6,3,0.5,0,0.0,-1,0.0,0.0,0.0,0
70394,1490380281246,,,,,,,,-0.1,0.07,0.97,-3.2,0.3,-0.3,680,2,,,,,,,,,,,,,,,,,,,
70414,1490380281266,,,,,,,,-0.1,0.07,0.98,-3.2,0.1,-0.3,680,2,,,,,,,,,,,,,,,,,,,
70434,1490380281286,,,,,,,,-0.1,0.08,0.97,-3.2,0.2,-0.2,660,14,,,,,,,,,,,,,,,,,,,
70454,1490380281306,,,,,,,,-0.1,0.07,0.98,-3.2,0.1,-0.2,680,14,,,,,,,,,,,,,,,,,,,
70474,1490380281326,0,49.4,,58.4,55,53.7,,-0.11,0.07,0.98,-3.2,-0.0,-0.3,680,14,1,1,660.0,0,37.478523,-122.203934,0.0,0.001,15.2,6,3,0.5,0,0.0,-1,0.0,0.0,0.0,0
70494,1490380281346,,,,,,,,-0.1,0.08,0.98,-3.3,0.0,-0.2,680,14,,,,,,,,,,,,,,,,,,,
70514,1490380281366,,,,,,,,-0.1,0.08,0.98,-3.3,0.0,-0.2,680,14,,,,,,,,,,,,,,,,,,,
70534,1490380281386,,,,,,,,-0.11,0.08,0.99,-3.3,-0.1,-0.3,680,15,,,,,,,,,,,,,,,,,,,
70554,1490380281406,,,,,,,,-0.11,0.08,0.99,-3.3,-0.1,-0.3,680,15,,,,,,,,,,,,,,,,,,,
70574,1490380281426,,,,,53,,,-0.11,0.09,0.98,-3.3,-0.1,-0.2,680,15,1,1,45.333,0,37.478523,-122.203934,0.0,0.001,15.2,6,3,0.5,0,0.0,-1,0.0,0.0,0.0,0
70594,1490380281446,,,,,,,,-0.11,0.08,0.98,-3.3,-0.1,-0.4,680,18,,,,,,,,,,,,,,,,,,,
70614,1490380281466,,,,,,,,-0.11,0.09,0.98,-3.3,-0.0,-0.3,680,18,,,,,,,,,,,,,,,,,,,
70634,1490380281486,,,,,,,,-0.11,0.08,0.98,-3.3,-0.0,-0.2,700,18,,,,,,,,,,,,,,,,,,,
70654,1490380281506,,,,,,,,-0.11,0.07,0.98,-3.3,-0.2,-0.3,700,20,,,,,,,,,,,,,,,,,,,
70674,1490380281526,0,46.6,,56.4,53,50.8,,-0.11,0.07,0.98,-3.3,-0.2,-0.3,700,20,1,1,38.889,0,37.478523,-122.203934,0.0,0.001,15.2,6,3,0.5,0,0.0,-1,0.0,0.0,0.0,0
70694,1490380281546,,,,,,,,-0.11,0.08,0.97,-3.3,-0.2,-0.2,700,20,,,,,,,,,,,,,,,,,,,
