"Interval"|"ms"|0|0|1,"Utc"|"ms"|0|0|1,"FuelLevel"|"F"|0|100|5,"OilTemp"|"F"|0.0|300.0|5,"CoolantPressPSI"|"PSI"|0.0|20.0|1,"Coolant"|"F"|0.0|300.0|5,"OilPress"|"PSI"|0|150|10,"EngineTemp"|"F"|0.0|300.0|5,"Battery"|"Volts"|0.0|20.0|1,"AccelX"|"G"|-3.0|3.0|50,"AccelY"|"G"|-3.0|3.0|50,"AccelZ"|"G"|-3.0|3.0|50,"Yaw"|"Deg/Sec"|-300.0|300.0|50,"Pitch"|"Deg/Sec"|-300.0|300.0|50,"Roll"|"Deg/Sec"|-300.0|300.0|50,"RPM"|""|0|10000|50,"Driveshaft"|"RPM"|0|5000|50,"GPIO1"|""|0|1|10,"GPIO2"|""|0|1|10,"GearRatio"|""|-5.0|5.0|10,"Gear"|""|-1|5|10,"Latitude"|"Degrees"|-180.0|180.0|10,"Longitude"|"Degrees"|-180.0|180.0|10,"Speed"|"mph"|0.0|150.0|10,"Distance"|"mi"|0.0|0.0|10,"Altitude"|"ft"|0.0|4000.0|10,"GPSSats"|""|0|20|10,"GPSQual"|""|0|5|10,"GPSDOP"|""|0.0|20.0|10,"LapCount"|""|0|0|10,"LapTime"|"Min"|0.0|0.0|10,"Sector"|""|0|0|10,"SectorTime"|"Min"|0.0|0.0|10,"PredTime"|"Min"|0.0|0.0|10,"ElapsedTime"|"Min"|0.0|0.0|10,"CurrentLap"|""|0|0|10
40554,1490393808724,,,,,,,,0.01,0.06,1.0,-3.2,0.2,0.0,40,0,,,,,,,,,,,,,,,,,,,
40574,1490393808744,,,,,18,,,0.01,0.06,0.99,-3.2,0.2,0.0,40,0,1,1,0.0,0,38.159241,-122.454208,0.0,0.0,70.7,7,3,2.0,0,0.0,-1,0.0,0.0,0.0,0
40594,1490393808764,,,,,,,,0.01,0.06,0.99,-3.1,0.3,-0.0,40,0,,,,,,,,,,,,,,,,,,,
40614,1490393808784,,,,,,,,0.01,0.06,0.99,-3.1,0.3,-0.1,260,0,,,,,,,,,,,,,,,,,,,
40634,1490393808806,,,,,,,,0.01,0.05,0.99,-3.1,0.3,-0.1,260,0,,,,,,,,,,,,,,,,,,,
40654,1490393808826,,,,,,,,0.01,0.06,0.98,-3.2,0.3,0.0,480,0,,,,,,,,,,,,,,,,,,,
40674,1490393808846,0,53.0,,51.1,23,52.6,,0.02,0.05,0.99,-3.1,0.3,-0.0,640,0,1,1,0.0,0,38.159241,-122.454208,0.0,0.0,70.7,7,3,2.0,0,0.0,-1,0.0,0.0,0.0,0
40694,1490393808866,,,,,,,,0.02,0.04,1.0,-3.1,0.0,-0.2,780,0,,,,,,,,,,,,,,,,,,,
40714,1490393808886,,,,,,,,0.01,0.04,0.98,-3.2,0.4,-0.0,780,0,,,,,,,,,,,,,,,,,,,
40734,1490393808907,,,,,,,,0.03,0.05,0.99,-3.2,0.4,0.2,900,0,,,,,,,,,,,,,,,,,,,
40754,1490393808927,,,,,,,,0.03,0.07,1.0,-3.3,-0.1,0.2,980,0,,,,,,,,,,,,,,,,,,,
40774,1490393808947,,,,,30,,,0.02,0.08,1.0,-3.3,0.0,0.1,1060,0,1,1,0.0,0,38.159241,-122.454208,0.0,0.0,70.7,7,3,2.0,0,0.0,-1,0.0,0.0,0.0,0
40794,1490393808967,,,,,,,,0.02,0.09,1.01,-3.3,0.2,0.0,1080,0,,,,,,,,,,,,,,,,,,,
40814,1490393808987,,,,,,,,0.02,0.08,1.0,-3.3,0.2,-0.1,1100,0,,,,,,,,,,,,,,,,,,,
40834,1490393809001,,,,,,,,0.02,0.07,1.0,-3.2,0.1,-0.2,1140,0,,,,,,,,,,,,,,,,,,,
40854,1490393809021,,,,,,,,0.02,0.07,1.0,-3.2,0.1,-0.3,1160,0,,,,,,,,,,,,,,,,,,,
40874,1490393809041,0,52.9,,51.9,43,53.3,,0.01,0.07,0.99,-3.2,0.3,-0.3,1160,0,1,1,0.0,0,38.159241,-122.454208,0.0,0.0,70.7,7,3,2.0,0,0.0,-1,0.0,0.0,0.0,0
40894,1490393809061,,,,,,,,0.01,0.08,1.0,-3.2,0.3,-0.3,1160,0,,,,,,,,,,,,,,,,,,,
40914,1490393809081,,,,,,,,0.01,0.08,1.0,-3.3,0.3,-0.2,1160,0,,,,,,,,,,,,,,,,,,,
40934,1490393809107,,,,,,,,0.02,0.08,1.0,-3.2,0.2,-0.1,1180,0,,,,,,,,,,,,,,,,,,,
40954,1490393809127,,,,,,,,0.02,0.07,1.0,-3.2,0.2,-0.2,1180,0,,,,,,,,,,,,,,,,,,,
40974,1490393809147,,,,,51,,,0.02,0.07,1.0,-3.2,0.1,-0.2,1160,0,1,1,0.0,0,38.159241,-122.454208,0.0,0.0,70.7,7,3,2.0,0,0.0,-1,0.0,0.0,0.0,0
40994,1490393809167,,,,,,,,0.01,0.07,1.0,-3.2,0.2,-0.3,1160,0,,,,,,,,,,,,,,,,,,,
41014,1490393809187,,,,,,,,0.01,0.07,0.99,-3.2,0.2,-0.3,1140,0,,,,,,,,,,,,,,,,,,,
41034,1490393809207,,,,,,,,0.01,0.08,0.99,-3.2,0.2,-0.3,1100,0,,,,,,,,,,,,,,,,,,,
41054,1490393809227,,,,,,,,0.01,0.08,0.99,-3.2,0.2,-0.2,1060,0,,,,,,,,,,,,,,,,,,,
41074,1490393809247,0,50.3,-0.4,49.6,58,50.8,14.94,0.01,0.08,0.99,-3.2,0.2,-0.2,1040,0,1,1,0.0,0,38.159241,-122.454208,0.0,0.0,70.7,7,3,2.0,0,0.0,-1,0.0,0.0,0.0,0
41094,1490393809267,,,,,,,,0.01,0.08,0.99,-3.2,0.2,-0.2,1020,0,,,,,,,,,,,,,,,,,,,
41114,1490393809287,,,,,,,,0.0,0.08,0.98,-3.1,0.2,-0.3,980,0,,,,,,,,,,,,,,,,,,,
41134,1490393809307,,,,,,,,0.0,0.07,0.99,-3.1,0.2,-0.3,920,0,,,,,,,,,,,,,,,,,,,
41154,1490393809327,,,,,,,,0.0,0.07,0.98,-3.1,0.2,-0.4,920,0,,,,,,,,,,,,,,,,,,,
41174,1490393809347,,,,,60,,,0.0,0.06,0.99,-3.1,0.2,-0.3,860,0,1,1,0.0,0,38.159241,-122.454208,0.0,0.0,70.7,7,3,2.0,0,0.0,-1,0.0,0.0,0.0,0
41194,1490393809367,,,,,,,,0.0,0.06,0.98,-3.1,0.2,-0.3,800,0,,,,,,,,,,,,,,,,,,,
41214,1490393809387,,,,,,,,0.0,0.06,0.98,-3.1,0.2,-0.3,760,0,,,,,,,,,,,,,,,,,,,
41234,1490393809407,,,,,,,,0.0,0.06,0.99,-3.1,0.2,-0.3,700,0,,,,,,,,,,,,,,,,,,,
41254,1490393809427,,,,,,,,0.0,0.06,0.99,-3.1,0.2,-0.3,700,0,,,,,,,,,,,,,,,,,,,
41274,1490393809447,0,51.2,,51.4,58,52.7,,0.0,0.06,0.99,-3.1,0.3,-0.3,640,0,1,1,0.0,0,38.159241,-122.454208,0.0,0.0,70.7,7,3,2.0,0,0.0,-1,0.0,0.0,0.0,0
41294,1490393809467,,,,,,,,-0.0,0.06,0.98,-3.1,0.3,-0.3,640,0,,,,,,,,,,,,,,,,,,,
41314,1490393809487,,,,,,,,0.0,0.06,0.98,-3.1,0.3,-0.3,580,0,,,,,,,,,,,,,,,,,,,
41334,1490393809503,,,,,,,,-0.0,0.06,0.98,-3.1,0.3,-0.3,580,0,,,,,,,,,,,,,,,,,,,
41354,1490393809523,,,,,,,,0.0,0.06,0.98,-3.1,0.3,-0.3,520,0,,,,,,,,,,,,,,,,,,,
41374,1490393809543,,,,,55,,,0.0,0.06,0.98,-3.2,0.2,-0.3,520,0,1,1,0.0,0,38.159241,-122.454208,0.0,0.0,70.7,7,3,2.0,0,0.0,-1,0.0,0.0,0.0,0
41394,1490393809563,,,,,,,,0.0,0.06,0.98,-3.2,0.2,-0.2,440,0,,,,,,,,,,,,,,,,,,,
41414,1490393809583,,,,,,,,0.0,0.06,0.99,-3.2,0.2,-0.2,440,0,,,,,,,,,,,,,,,,,,,
41434,1490393809603,,,,,,,,0.0,0.06,0.98,-3.1,0.2,-0.2,380,0,,,,,,,,,,,,,,,,,,,
41454,1490393809623,,,,,,,,-0.0,0.05,0.98,-3.1,0.2,-0.2,380,0,,,,,,,,,,,,,,,,,,,
41474,1490393809643,0,51.6,,51.5,54,52.9,,-0.0,0.05,0.98,-3.1,0.3,-0.2,380,0,1,1,0.0,0,38.159241,-122.454208,0.0,0.0,70.7,7,3,2.0,0,0.0,-1,0.0,0.0,0.0,0
41494,1490393809663,,,,,,,,-0.0,0.06,0.98,-3.1,0.3,-0.2,340,0,,,,,,,,,,,,,,,,,,,
41514,1490393809683,,,,,,,,-0.0,0.06,0.99,-3.1,0.3,-0.2,340,0,,,,,,,,,,,,,,,,,,,
41534,1490393809703,,,,,,,,-0.0,0.05,0.98,-3.1,0.2,-0.2,340,0,,,,,,,,,,,,,,,,,,,
41554,1490393809723,,,,,,,,-0.0,0.06,0.99,-3.1,0.2,-0.2,300,0,,,,,,,,,,,,,,,,,,,
41574,1490393809743,,,,,54,,,-0.0,0.05,0.99,-3.1,0.3,-0.2,300,0,1,1,0.0,0,38.159241,-122.454208,0.0,0.0,70.7,7,3,2.0,0,0.0,-1,0.0,0.0,0.0,0
41594,1490393809763,,,,,,,,-0.0,0.05,0.98,-3.1,0.3,-0.2,300,0,,,,,,,,,,,,,,,,,,,
41614,1490393809783,,,,,,,,-0.0,0.06,0.98,-3.1,0.3,-0.3,320,0,,,,,,,,,,,,,,,,,,,
41634,1490393809803,,,,,,,,-0.0,0.06,0.99,-3.1,0.3,-0.3,320,0,,,,,,,,,,,,,,,,,,,
41654,1490393809823,,,,,,,,-0.0,0.05,0.99,-3.1,0.3,-0.3,320,0,,,,,,,,,,,,,,,,,,,
41674,1490393809843,0,52.6,,51.5,55,52.9,,-0.0,0.06,0.99,-3.1,0.3,-0.3,320,0,1,1,0.0,0,38.159241,-122.454208,0.0,0.0,70.7,7,3,2.0,0,0.0,-1,0.0,0.0,0.0,0
41694,1490393809863,,,,,,,,0.0,0.05,0.99,-3.1,0.3,-0.2,280,0,,,,,,,,,,,,,,,,,,,
41714,1490393809883,,,,,,,,0.0,0.05,0.99,-3.1,0.3,-0.2,280,0,,,,,,,,,,,,,,,,,,,
41734,1490393809906,,,,,,,,0.0,0.06,0.99,-3.1,0.3,-0.3,280,0,,,,,,,,,,,,,,,,,,,
41754,1490393809926,,,,,,,,0.0,0.06,0.99,-3.2,0.3,-0.3,300,0,,,,,,,,,,,,,,,,,,,
41774,1490393809946,,,,,55,,,0.0,0.06,0.99,-3.1,0.3,-0.3,300,0,1,1,0.0,0,38.159241,-122.454208,0.0,0.0,70.7,7,3,2.0,0,0.0,-1,0.0,0.0,0.0,0
41794,1490393809966,,,,,,,,0.0,0.06,0.99,-3.1,0.3,-0.3,300,0,,,,,,,,,,,,,,,,,,,
41814,1490393809986,,,,,,,,0.0,0.06,0.99,-3.1,0.4,-0.3,300,0,,,,,,,,,,,,,,,,,,,
41834,1490393809998,,,,,,,,0.0,0.06,0.99,-3.1,0.4,-0.3,240,0,,,,,,,,,,,,,,,,,,,
41854,1490393810018,,,,,,,,0.0,0.06,0.99,-3.1,0.4,-0.2,240,0,,,,,,,,,,,,,,,,,,,
41874,1490393810038,0,52.9,,51.7,54,52.9,,0.0,0.06,0.99,-3.1,0.4,-0.2,240,0,1,1,0.0,0,38.159241,-122.454208,0.0,0.0,70.7,7,3,2.0,0,0.0,-1,0.0,0.0,0.0,0
41894,1490393810058,,,,,,,,0.0,0.06,0.99,-3.1,0.4,-0.2,240,0,,,,,,,,,,,,,,,,,,,
41914,1490393810078,,,,,,,,0.0,0.06,0.99,-3.1,0.4,-0.2,240,0,,,,,,,,,,,,,,,,,,,
41934,1490393810106,,,,,,,,0.0,0.06,0.99,-3.1,0.3,-0.3,240,0,,,,,,,,,,,,,,,,,,,
41954,1490393810126,,,,,,,,0.0,0.06,0.99,-3.1,0.3,-0.3,240,0,,,,,,,,,,,,,,,,,,,
41974,1490393810146,,,,,54,,,0.0,0.06,0.99,-3.1,0.3,-0.3,240,0,1,1,0.0,0,38.159241,-122.454208,0.0,0.0,70.7,7,3,2.0,0,0.0,-1,0.0,0.0,0.0,0
41994,1490393810166,,,,,,,,0.0,0.06,0.99,-3.1,0.3,-0.3,220,0,,,,,,,,,,,,,,,,,,,
42014,1490393810186,,,,,,,,0.0,0.06,0.99,-3.1,0.3,-0.2,220,0,,,,,,,,,,,,,,,,,,,
42034,1490393810206,,,,,,,,0.0,0.06,0.99,-3.1,0.3,-0.1,220,0,,,,,,,,,,,,,,,,,,,
42054,1490393810226,,,,,,,,-0.0,0.06,0.99,-3.1,0.3,-0.1,220,0,,,,,,,,,,,,,,,,,,,
42074,1490393810246,0,50.3,-0.4,50.4,55,52.9,12.4,0.0,0.06,0.99,-3.1,0.3,-0.1,280,0,1,1,0.0,0,38.159241,-122.454208,0.0,0.0,70.7,7,3,2.0,0,0.0,-1,0.0,0.0,0.0,0
42094,1490393810266,,,,,,,,0.0,0.06,0.99,-3.1,0.3,-0.2,280,0,,,,,,,,,,,,,,,,,,,
42114,1490393810286,,,,,,,,0.0,0.07,0.99,-3.1,0.2,-0.3,280,0,,,,,,,,,,,,,,,,,,,
42134,1490393810306,,,,,,,,0.0,0.06,0.99,-3.1,0.2,-0.3,340,0,,,,,,,,,,,,,,,,,,,
42154,1490393810326,,,,,,,,0.0,0.06,0.99,-3.1,0.3,-0.3,340,0,,,,,,,,,,,,,,,,,,,
42174,1490393810346,,,,,62,,,0.0,0.07,0.99,-3.1,0.3,-0.2,400,0,1,1,0.0,0,38.159241,-122.454208,0.0,0.0,70.7,7,3,2.0,0,0.0,-1,0.0,0.0,0.0,0
42194,1490393810366,,,,,,,,0.0,0.07,0.99,-3.1,0.3,-0.2,400,0,,,,,,,,,,,,,,,,,,,
42214,1490393810386,,,,,,,,0.0,0.07,0.99,-3.1,0.3,-0.2,440,0,,,,,,,,,,,,,,,,,,,
42234,1490393810406,,,,,,,,0.0,0.07,0.99,-3.1,0.3,-0.2,440,0,,,,,,,,,,,,,,,,,,,
42254,1490393810426,,,,,,,,-0.0,0.06,0.99,-3.1,0.3,-0.3,480,0,,,,,,,,,,,,,,,,,,,
42274,1490393810446,0,52.3,,51.3,61,50.4,,-0.0,0.06,0.99,-3.1,0.3,-0.4,480,0,1,1,0.0,0,38.159241,-122.454208,0.0,0.0,70.7,7,3,2.0,0,0.0,-1,0.0,0.0,0.0,0
42294,1490393810466,,,,,,,,-0.01,0.06,0.99,-3.1,0.3,-0.4,560,0,,,,,,,,,,,,,,,,,,,
42314,1490393810486,,,,,,,,-0.01,0.05,0.99,-3.1,0.3,-0.5,560,0,,,,,,,,,,,,,,,,,,,
42334,1490393810504,,,,,,,,-0.01,0.05,0.99,-3.1,0.3,-0.3,620,0,,,,,,,,,,,,,,,,,,,
42354,1490393810524,,,,,,,,-0.01,0.06,0.99,-3.1,0.3,-0.2,700,0,,,,,,,,,,,,,,,,,,,
42374,1490393810544,,,,,64,,,-0.01,0.05,0.99,-3.1,0.3,-0.3,740,0,1,1,0.0,0,38.159241,-122.454208,0.0,0.0,70.7,7,3,2.0,0,0.0,-1,0.0,0.0,0.0,0
42394,1490393810564,,,,,,,,-0.01,0.06,0.99,-3.1,0.3,-0.2,740,0,,,,,,,,,,,,,,,,,,,
42414,1490393810584,,,,,,,,-0.0,0.07,0.99,-3.2,0.5,-0.0,800,0,,,,,,,,,,,,,,,,,,,
42434,1490393810604,,,,,,,,-0.0,0.07,0.99,-3.2,0.2,-0.1,840,0,,,,,,,,,,,,,,,,,,,
42454,1490393810624,,,,,,,,-0.01,0.08,0.99,-3.1,0.3,-0.3,880,0,,,,,,,,,,,,,,,,,,,
42474,1490393810644,0,52.0,,52.0,65,52.8,,-0.01,0.06,0.98,-3.1,0.2,-0.5,920,0,1,1,0.0,0,38.159241,-122.454208,0.0,0.0,70.7,7,3,2.0,0,0.0,-1,0.0,0.0,0.0,0
42494,1490393810664,,,,,,,,-0.01,0.05,0.98,-3.0,-0.1,-0.5,960,0,,,,,,,,,,,,,,,,,,,
42514,1490393810684,,,,,,,,-0.02,0.05,0.97,-3.0,0.1,-0.6,980,0,,,,,,,,,,,,,,,,,,,
42534,1490393810706,,,,,,,,-0.03,0.03,0.97,-3.0,0.4,-0.5,1000,0,,,,,,,,,,,,,,,,,,,
42554,1490393810726,,,,,,,,-0.02,0.02,0.97,-3.1,0.5,-0.4,1020,0,,,,,,,,,,,,,,,,,,,
42574,1490393810746,,,,,67,,,-0.01,0.02,0.97,-3.1,0.6,-0.4,1040,0,1,1,0.0,0,38.159241,-122.454208,0.0,0.0,70.7,7,3,2.0,0,0.0,-1,0.0,0.0,0.0,0
42594,1490393810766,,,,,,,,-0.01,0.01,0.98,-3.1,0.5,-0.4,1040,0,,,,,,,,,,,,,,,,,,,
42614,1490393810786,,,,,,,,-0.02,0.01,0.97,-3.1,0.5,-0.4,1060,0,,,,,,,,,,,,,,,,,,,
42634,1490393810804,,,,,,,,-0.02,0.01,0.97,-3.1,0.5,-0.5,1040,0,,,,,,,,,,,,,,,,,,,
42654,1490393810824,,,,,,,,-0.02,0.02,0.97,-3.1,0.5,-0.5,1040,0,,,,,,,,,,,,,,,,,,,
42674,1490393810844,0,51.1,,51.1,64,53.1,,-0.01,0.02,0.97,-3.1,0.5,-0.4,1020,0,1,1,0.0,0,38.159241,-122.454208,0.0,0.0,70.7,7,3,2.0,0,0.0,-1,0.0,0.0,0.0,0
42694,1490393810864,,,,,,,,-0.01,0.03,0.98,-3.1,0.5,-0.3,980,0,,,,,,,,,,,,,,,,,,,
42714,1490393810884,,,,,,,,-0.01,0.04,0.98,-3.1,0.4,-0.3,960,0,,,,,,,,,,,,,,,,,,,
42734,1490393810907,,,,,,,,-0.02,0.04,0.98,-3.1,0.4,-0.3,960,0,,,,,,,,,,,,,,,,,,,
42754,1490393810927,,,,,,,,-0.02,0.04,0.98,-3.1,0.4,-0.3,940,0,,,,,,,,,,,,,,,,,,,
42774,1490393810947,,,,,64,,,-0.01,0.05,0.98,-3.1,0.4,-0.4,920,0,1,1,0.0,0,38.159241,-122.454208,0.0,0.0,70.7,7,3,2.0,0,0.0,-1,0.0,0.0,0.0,0
42794,1490393810967,,,,,,,,-0.01,0.05,0.98,-3.1,0.4,-0.4,880,0,,,,,,,,,,,,,,,,,,,
42814,1490393810987,,,,,,,,-0.01,0.04,0.98,-3.1,0.3,-0.4,840,0,,,,,,,,,,,,,,,,,,,
42834,1490393810999,,,,,,,,-0.01,0.04,0.98,-3.1,0.4,-0.4,840,0,,,,,,,,,,,,,,,,,,,
42854,1490393811019,,,,,,,,-0.01,0.04,0.98,-3.1,0.4,-0.4,800,0,,,,,,,,,,,,,,,,,,,
42874,1490393811039,0,52.4,,51.7,61,50.8,,-0.01,0.04,0.98,-3.1,0.4,-0.3,780,0,1,1,0.0,0,38.159241,-122.454208,0.0,0.0,70.7,7,3,2.0,0,0.0,-1,0.0,0.0,0.0,0
42894,1490393811059,,,,,,,,-0.01,0.04,0.98,-3.1,0.4,-0.3,740,0,,,,,,,,,,,,,,,,,,,
42914,1490393811079,,,,,,,,-0.0,0.05,0.98,-3.1,0.3,-0.3,740,0,,,,,,,,,,,,,,,,,,,
42934,1490393811107,,,,,,,,-0.0,0.05,0.98,-3.1,0.3,-0.3,700,0,,,,,,,,,,,,,,,,,,,
42954,1490393811127,,,,,,,,-0.0,0.06,0.98,-3.1,0.4,-0.3,660,0,,,,,,,,,,,,,,,,,,,
42974,1490393811147,,,,,57,,,-0.0,0.05,0.99,-3.1,0.3,-0.3,660,0,1,1,0.0,0,38.159241,-122.454208,0.0,0.0,70.7,7,3,2.0,0,0.0,-1,0.0,0.0,0.0,0
42994,1490393811167,,,,,,,,-0.0,0.06,0.99,-3.1,0.3,-0.3,600,0,,,,,,,,,,,,,,,,,,,
43014,1490393811187,,,,,,,,-0.0,0.06,0.99,-3.1,0.4,-0.3,600,0,,,,,,,,,,,,,,,,,,,
43034,1490393811207,,,,,,,,-0.0,0.05,0.99,-3.1,0.4,-0.3,600,0,,,,,,,,,,,,,,,,,,,
43054,1490393811227,,,,,,,,0.0,0.06,0.99,-3.1,0.3,-0.3,580,0,,,,,,,,,,,,,,,,,,,
43074,1490393811247,0,52.1,-0.3,49.8,55,50.6,14.95,-0.0,0.06,0.99,-3.1,0.3,-0.3,580,0,1,1,0.0,0,38.159241,-122.454208,0.0,0.0,70.7,7,3,2.0,0,0.0,-1,0.0,0.0,0.0,0
43094,1490393811267,,,,,,,,0.0,0.06,0.99,-3.1,0.4,-0.2,560,0,,,,,,,,,,,,,,,,,,,
43114,1490393811287,,,,,,,,0.0,0.06,0.98,-3.1,0.3,-0.2,560,0,,,,,,,,,,,,,,,,,,,
43134,1490393811307,,,,,,,,-0.0,0.06,0.99,-3.1,0.3,-0.3,540,0,,,,,,,,,,,,,,,,,,,
43154,1490393811327,,,,,,,,-0.0,0.06,0.99,-3.1,0.3,-0.2,540,0,,,,,,,,,,,,,,,,,,,
43174,1490393811347,,,,,55,,,0.0,0.06,0.99,-3.1,0.4,-0.3,520,0,1,1,0.0,0,38.159241,-122.454208,0.0,0.0,70.7,7,3,2.0,0,0.0,-1,0.0,0.0,0.0,0
43194,1490393811367,,,,,,,,0.0,0.06,0.99,-3.1,0.3,-0.2,520,0,,,,,,,,,,,,,,,,,,,
43214,1490393811387,,,,,,,,0.0,0.06,0.98,-3.1,0.4,-0.2,520,0,,,,,,,,,,,,,,,,,,,
43234,1490393811407,,,,,,,,0.0,0.06,0.99,-3.1,0.4,-0.2,520,0,,,,,,,,,,,,,,,,,,,
43254,1490393811427,,,,,,,,0.0,0.06,0.99,-3.1,0.3,-0.2,480,0,,,,,,,,,,,,,,,,,,,
43274,1490393811447,0,51.7,,52.0,55,53.1,,-0.0,0.06,0.99,-3.1,0.3,-0.2,520,0,1,1,0.0,0,38.159241,-122.454208,0.0,0.0,70.7,7,3,2.0,0,0.0,-1,0.0,0.0,0.0,0
43294,1490393811467,,,,,,,,0.0,0.06,0.99,-3.1,0.3,-0.3,520,0,,,,,,,,,,,,,,,,,,,
43314,1490393811487,,,,,,,,0.0,0.05,0.99,-3.1,0.3,-0.3,520,0,,,,,,,,,,,,,,,,,,,
43334,1490393811505,,,,,,,,-0.0,0.05,0.99,-3.1,0.3,-0.3,520,0,,,,,,,,,,,,,,,,,,,
43354,1490393811525,,,,,,,,-0.0,0.05,0.99,-3.1,0.3,-0.3,520,0,,,,,,,,,,,,,,,,,,,
43374,1490393811545,,,,,56,,,-0.0,0.05,0.99,-3.1,0.3,-0.3,520,0,1,1,0.0,0,38.159241,-122.454208,0.0,0.0,70.7,7,3,2.0,0,0.0,-1,0.0,0.0,0.0,0
43394,1490393811565,,,,,,,,0.0,0.06,0.99,-3.1,0.3,-0.2,540,0,,,,,,,,,,,,,,,,,,,
43414,1490393811585,,,,,,,,0.0,0.05,0.99,-3.1,0.3,-0.2,540,0,,,,,,,,,,,,,,,,,,,
43434,1490393811605,,,,,,,,0.0,0.06,0.99,-3.1,0.3,-0.2,560,0,,,,,,,,,,,,,,,,,,,
43454,1490393811625,,,,,,,,-0.0,0.05,0.99,-3.1,0.2,-0.2,580,0,,,,,,,,,,,,,,,,,,,
43474,1490393811645,0,51.5,,49.9,57,51.1,,-0.0,0.05,0.99,-3.1,0.2,-0.3,580,0,1,1,0.0,0,38.159241,-122.454208,0.0,0.0,70.7,7,3,2.0,0,0.0,-1,0.0,0.0,0.0,0
43494,1490393811665,,,,,,,,-0.0,0.06,0.99,-3.1,0.2,-0.3,620,0,,,,,,,,,,,,,,,,,,,
43514,1490393811685,,,,,,,,-0.01,0.05,0.98,-3.1,0.2,-0.4,620,0,,,,,,,,,,,,,,,,,,,
43534,1490393811705,,,,,,,,-0.0,0.06,0.99,-3.1,0.3,-0.3,640,0,,,,,,,,,,,,,,,,,,,
43554,1490393811725,,,,,,,,-0.0,0.06,0.98,-3.1,0.3,-0.3,680,0,,,,,,,,,,,,,,,,,,,
43574,1490393811745,,,,,61,,,-0.0,0.05,0.98,-3.1,0.3,-0.3,680,0,1,1,0.0,0,38.159241,-122.454208,0.0,0.0,70.7,7,3,2.0,0,0.0,-1,0.0,0.0,0.0,0
43594,1490393811765,,,,,,,,-0.0,0.05,0.98,-3.1,0.4,-0.3,660,0,,,,,,,,,,,,,,,,,,,
43614,1490393811785,,,,,,,,-0.0,0.06,0.98,-3.1,0.3,-0.2,700,0,,,,,,,,,,,,,,,,,,,
43634,1490393811805,,,,,,,,-0.0,0.05,0.98,-3.0,0.3,-0.3,680,0,,,,,,,,,,,,,,,,,,,
43654,1490393811825,,,,,,,,-0.0,0.05,0.98,-3.1,0.2,-0.3,680,0,,,,,,,,,,,,,,,,,,,
43674,1490393811845,0,52.5,,51.4,65,50.6,,-0.0,0.05,0.98,-3.1,0.3,-0.2,720,0,1,1,0.0,0,38.159241,-122.454208,0.0,0.0,70.7,7,3,2.0,0,0.0,-1,0.0,0.0,0.0,0
43694,1490393811865,,,,,,,,-0.0,0.05,0.98,-3.1,0.3,-0.2,740,0,,,,,,,,,,,,,,,,,,,
43714,1490393811885,,,,,,,,-0.0,0.04,0.98,-3.1,0.3,-0.3,760,0,,,,,,,,,,,,,,,,,,,
43734,1490393811906,,,,,,,,-0.0,0.05,0.98,-3.1,0.2,-0.3,760,0,,,,,,,,,,,,,,,,,,,
43754,1490393811926,,,,,,,,0.0,0.05,0.98,-3.1,0.2,-0.2,760,0,,,,,,,,,,,,,,,,,,,
43774,1490393811946,,,,,66,,,0.0,0.05,0.98,-3.1,0.2,-0.2,780,0,1,1,0.0,0,38.159241,-122.454208,0.0,0.0,70.7,7,3,2.0,0,0.0,-1,0.0,0.0,0.0,0
43794,1490393811966,,,,,,,,-0.0,0.05,0.98,-3.1,0.2,-0.3,800,0,,,,,,,,,,,,,,,,,,,
43814,1490393811986,,,,,,,,-0.01,0.04,0.98,-3.1,0.2,-0.4,820,0,,,,,,,,,,,,,,,,,,,
43834,1490393811998,,,,,,,,-0.01,0.04,0.98,-3.1,0.3,-0.4,820,0,,,,,,,,,,,,,,,,,,,
43854,1490393812018,,,,,,,,0.0,0.05,0.97,-3.1,0.4,-0.2,840,0,,,,,,,,,,,,,,,,,,,
43874,1490393812038,0,52.1,,52.5,66,53.0,,0.0,0.05,0.97,-3.1,0.3,-0.1,840,0,1,1,0.0,0,38.159241,-122.454208,0.0,0.0,70.7,7,3,2.0,0,0.0,-1,0.0,0.0,0.0,0
43894,1490393812058,,,,,,,,0.0,0.06,0.98,-3.1,0.2,-0.2,840,0,,,,,,,,,,,,,,,,,,,
43914,1490393812078,,,,,,,,-0.0,0.06,0.98,-3.1,0.3,-0.3,840,0,,,,,,,,,,,,,,,,,,,
43934,1490393812106,,,,,,,,-0.01,0.05,0.98,-3.1,0.2,-0.4,860,0,,,,,,,,,,,,,,,,,,,
43954,1490393812126,,,,,,,,-0.01,0.04,0.98,-3.1,0.3,-0.4,860,0,,,,,,,,,,,,,,,,,,,
43974,1490393812146,,,,,64,,,-0.0,0.04,0.97,-3.1,0.3,-0.3,860,0,1,1,0.0,0,38.159241,-122.454208,0.0,0.0,70.7,7,3,2.0,0,0.0,-1,0.0,0.0,0.0,0
43994,1490393812166,,,,,,,,0.0,0.05,0.96,-3.1,0.4,-0.2,880,0,,,,,,,,,,,,,,,,,,,
44014,1490393812186,,,,,,,,0.01,0.05,0.97,-3.1,0.4,-0.1,880,0,,,,,,,,,,,,,,,,,,,
44034,1490393812206,,,,,,,,0.01,0.06,0.97,-3.1,0.3,-0.1,860,0,,,,,,,,,,,,,,,,,,,
44054,1490393812226,,,,,,,,0.01,0.06,0.97,-3.1,0.3,-0.2,840,0,,,,,,,,,,,,,,,,,,,
44074,1490393812246,0,52.0,0.0,52.1,65,53.1,14.93,0.0,0.05,0.98,-3.1,0.3,-0.3,820,0,1,1,0.0,0,38.159241,-122.454208,0.0,0.0,70.7,7,3,2.0,0,0.0,-1,0.0,0.0,0.0,0
44094,1490393812266,,,,,,,,-0.0,0.05,0.98,-3.1,0.3,-0.3,840,0,,,,,,,,,,,,,,,,,,,
44114,1490393812286,,,,,,,,-0.0,0.05,0.98,-3.1,0.3,-0.3,840,0,,,,,,,,,,,,,,,,,,,
44134,1490393812306,,,,,,,,-0.0,0.06,0.97,-3.1,0.3,-0.2,820,0,,,,,,,,,,,,,,,,,,,
44154,1490393812326,,,,,,,,0.0,0.06,0.97,-3.1,0.3,-0.2,800,0,,,,,,,,,,,,,,,,,,,
44174,1490393812346,,,,,62,,,0.0,0.06,0.98,-3.1,0.3,-0.2,780,0,1,1,0.0,0,38.159241,-122.454208,0.0,0.0,70.7,7,3,2.0,0,0.0,-1,0.0,0.0,0.0,0
44194,1490393812366,,,,,,,,0.0,0.06,0.98,-3.1,0.3,-0.2,760,0,,,,,,,,,,,,,,,,,,,
44214,1490393812386,,,,,,,,0.0,0.05,0.98,-3.1,0.2,-0.3,760,0,,,,,,,,,,,,,,,,,,,
44234,1490393812406,,,,,,,,0.0,0.06,0.98,-3.1,0.3,-0.2,740,0,,,,,,,,,,,,,,,,,,,
44254,1490393812426,,,,,,,,0.0,0.06,0.98,-3.1,0.3,-0.2,740,0,,,,,,,,,,,,,,,,,,,
44274,1490393812446,0,52.7,,52.2,60,52.6,,-0.0,0.05,0.98,-3.1,0.3,-0.3,740,0,1,1,0.0,0,38.159241,-122.454208,0.0,0.0,70.7,7,3,2.0,0,0.0,-1,0.0,0.0,0.0,0
44294,1490393812466,,,,,,,,-0.0,0.05,0.98,-3.1,0.3,-0.3,740,0,,,,,,,,,,,,,,,,,,,
44314,1490393812486,,,,,,,,-0.0,0.05,0.98,-3.1,0.3,-0.3,740,0,,,,,,,,,,,,,,,,,,,
44334,1490393812504,,,,,,,,0.0,0.05,0.98,-3.1,0.3,-0.3,720,0,,,,,,,,,,,,,,,,,,,
44354,1490393812524,,,,,,,,0.0,0.05,0.98,-3.1,0.3,-0.2,700,0,,,,,,,,,,,,,,,,,,,
44374,1490393812544,,,,,58,,,0.0,0.06,0.99,-3.1,0.4,-0.2,700,0,1,1,0.0,0,38.159241,-122.454208,0.0,0.0,70.7,7,3,2.0,0,0.0,-1,0.0,0.0,0.0,0
44394,1490393812564,,,,,,,,0.0,0.06,0.99,-3.1,0.3,-0.2,700,0,,,,,,,,,,,,,,,,,,,
44414,1490393812584,,,,,,,,0.0,0.06,0.98,-3.1,0.2,-0.3,700,0,,,,,,,,,,,,,,,,,,,
44434,1490393812604,,,,,,,,-0.0,0.06,0.99,-3.1,0.3,-0.3,700,0,,,,,,,,,,,,,,,,,,,
44454,1490393812624,,,,,,,,0.0,0.06,0.99,-3.1,0.3,-0.2,700,0,,,,,,,,,,,,,,,,,,,
44474,1490393812644,0,50.0,,50.8,57,53.1,,0.0,0.06,0.98,-3.1,0.3,-0.3,680,0,1,1,0.0,0,38.159241,-122.454208,0.0,0.0,70.7,7,3,2.0,0,0.0,-1,0.0,0.0,0.0,0
44494,1490393812664,,,,,,,,0.0,0.06,0.98,-3.1,0.3,-0.3,680,0,,,,,,,,,,,,,,,,,,,
44514,1490393812684,,,,,,,,0.0,0.06,0.99,-3.2,0.3,-0.2,660,0,,,,,,,,,,,,,,,,,,,
44534,1490393812704,,,,,,,,0.0,0.06,0.99,-3.2,0.3,-0.2,640,0,,,,,,,,,,,,,,,,,,,
44554,1490393812724,,,,,,,,0.0,0.06,0.98,-3.2,0.3,-0.2,640,0,,,,,,,,,,,,,,,,,,,
44574,1490393812744,,,,,57,,,0.0,0.06,0.99,-3.2,0.3,-0.2,640,0,1,1,0.0,0,38.159241,-122.454208,0.0,0.0,70.7,7,3,2.0,0,0.0,-1,0.0,0.0,0.0,0
44594,1490393812764,,,,,,,,0.0,0.06,0.99,-3.1,0.3,-0.2,620,0,,,,,,,,,,,,,,,,,,,
44614,1490393812784,,,,,,,,0.0,0.06,0.99,-3.1,0.4,-0.2,620,0,,,,,,,,,,,,,,,,,,,
44634,1490393812804,,,,,,,,0.0,0.06,0.99,-3.1,0.4,-0.2,640,0,,,,,,,,,,,,,,,,,,,
44654,1490393812824,,,,,,,,0.0,0.06,0.99,-3.1,0.4,-0.2,640,0,,,,,,,,,,,,,,,,,,,
44674,1490393812844,0,50.0,,50.1,55,52.6,,0.0,0.06,0.99,-3.1,0.4,-0.2,640,0,1,1,0.0,0,38.159241,-122.454208,0.0,0.0,70.7,7,3,2.0,0,0.0,-1,0.0,0.0,0.0,0
44694,1490393812864,,,,,,,,0.0,0.06,0.99,-3.1,0.3,-0.2,620,0,,,,,,,,,,,,,,,,,,,
44714,1490393812884,,,,,,,,0.0,0.06,0.99,-3.1,0.2,-0.3,620,0,,,,,,,,,,,,,,,,,,,
44734,1490393812907,,,,,,,,0.0,0.06,0.99,-3.1,0.3,-0.2,620,0,,,,,,,,,,,,,,,,,,,
44754,1490393812927,,,,,,,,0.0,0.07,0.99,-3.1,0.3,-0.2,600,0,,,,,,,,,,,,,,,,,,,
44774,1490393812947,,,,,55,,,-0.0,0.06,0.99,-3.1,0.3,-0.2,600,0,1,1,0.0,0,38.159241,-122.454208,0.0,0.0,70.7,7,3,2.0,0,0.0,-1,0.0,0.0,0.0,0
44794,1490393812967,,,,,,,,-0.0,0.07,0.99,-3.1,0.3,-0.2,620,0,,,,,,,,,,,,,,,,,,,
44814,1490393812987,,,,,,,,-0.0,0.06,0.99,-3.1,0.3,-0.3,620,0,,,,,,,,,,,,,,,,,,,
44834,1490393813001,,,,,,,,-0.01,0.06,0.99,-3.1,0.3,-0.4,620,0,,,,,,,,,,,,,,,,,,,
44854,1490393813021,,,,,,,,-0.0,0.07,0.99,-3.1,0.3,-0.3,640,0,,,,,,,,,,,,,,,,,,,
44874,1490393813041,0,52.4,,52.0,57,50.8,,-0.0,0.06,0.99,-3.1,0.2,-0.4,640,0,1,1,0.0,0,38.159241,-122.454208,0.0,0.0,70.7,7,3,2.0,0,0.0,-1,0.0,0.0,0.0,0
44894,1490393813061,,,,,,,,-0.0,0.06,0.99,-3.1,0.2,-0.3,640,0,,,,,,,,,,,,,,,,,,,
44914,1490393813081,,,,,,,,-0.0,0.06,0.99,-3.1,0.3,-0.3,640,0,,,,,,,,,,,,,,,,,,,
44934,1490393813107,,,,,,,,-0.0,0.05,0.99,-3.1,0.2,-0.3,660,0,,,,,,,,,,,,,,,,,,,
44954,1490393813127,,,,,,,,-0.0,0.05,0.99,-3.1,0.2,-0.3,660,0,,,,,,,,,,,,,,,,,,,
44974,1490393813147,,,,,58,,,-0.0,0.06,0.99,-3.2,0.2,-0.2,680,0,1,1,0.0,0,38.159241,-122.454208,0.0,0.0,70.7,7,3,2.0,0,0.0,-1,0.0,0.0,0.0,0
44994,1490393813167,,,,,,,,-0.0,0.05,0.98,-3.1,0.2,-0.3,700,0,,,,,,,,,,,,,,,,,,,
45014,1490393813187,,,,,,,,-0.0,0.05,0.98,-3.1,0.2,-0.4,700,0,,,,,,,,,,,,,,,,,,,
45034,1490393813207,,,,,,,,-0.0,0.05,0.98,-3.1,0.2,-0.3,720,0,,,,,,,,,,,,,,,,,,,
45054,1490393813227,,,,,,,,0.0,0.05,0.98,-3.1,0.2,-0.3,720,0,,,,,,,,,,,,,,,,,,,
45074,1490393813247,0,51.4,-0.3,51.9,60,53.5,14.93,-0.0,0.05,0.98,-3.1,0.3,-0.3,720,0,1,1,0.0,0,38.159241,-122.454208,0.0,0.0,70.7,7,3,2.0,0,0.0,-1,0.0,0.0,0.0,0
45094,1490393813267,,,,,,,,-0.0,0.05,0.99,-3.1,0.3,-0.2,720,0,,,,,,,,,,,,,,,,,,,
45114,1490393813287,,,,,,,,0.0,0.06,0.99,-3.2,0.3,-0.1,740,0,,,,,,,,,,,,,,,,,,,
45134,1490393813303,,,,,,,,0.01,0.06,0.98,-3.1,0.2,-0.2,760,0,,,,,,,,,,,,,,,,,,,
45154,1490393813323,,,,,,,,-0.0,0.06,0.99,-3.1,0.2,-0.3,780,0,,,,,,,,,,,,,,,,,,,
45174,1490393813343,,,,,62,,,-0.01,0.05,0.99,-3.1,0.2,-0.3,800,0,1,1,0.0,0,38.159241,-122.454208,0.0,0.0,70.7,7,3,2.0,0,0.0,-1,0.0,0.0,0.0,0
45194,1490393813363,,,,,,,,-0.0,0.05,0.99,-3.1,0.2,-0.3,800,0,,,,,,,,,,,,,,,,,,,
45214,1490393813383,,,,,,,,0.0,0.06,0.98,-3.1,0.3,-0.3,800,0,,,,,,,,,,,,,,,,,,,
45234,1490393813407,,,,,,,,0.0,0.06,0.98,-3.2,0.3,-0.2,800,0,,,,,,,,,,,,,,,,,,,
45254,1490393813427,,,,,,,,-0.0,0.06,0.98,-3.2,0.3,-0.3,820,0,,,,,,,,,,,,,,,,,,,
45274,1490393813447,0,52.9,,52.3,67,52.1,,-0.01,0.05,0.99,-3.1,0.2,-0.4,820,0,1,1,0.0,0,38.159241,-122.454208,0.0,0.0,70.7,7,3,2.0,0,0.0,-1,0.0,0.0,0.0,0
45294,1490393813467,,,,,,,,-0.01,0.05,0.99,-3.1,0.2,-0.4,820,0,,,,,,,,,,,,,,,,,,,
45314,1490393813487,,,,,,,,-0.0,0.05,0.98,-3.1,0.3,-0.2,840,0,,,,,,,,,,,,,,,,,,,
45334,1490393813505,,,,,,,,0.01,0.05,0.98,-3.1,0.3,-0.1,840,0,,,,,,,,,,,,,,,,,,,
45354,1490393813525,,,,,,,,0.01,0.06,0.99,-3.1,0.3,-0.1,840,0,,,,,,,,,,,,,,,,,,,
45374,1490393813545,,,,,67,,,0.0,0.06,0.99,-3.1,0.3,-0.2,820,0,1,1,0.0,0,38.159241,-122.454208,0.0,0.0,70.7,7,3,2.0,0,0.0,-1,0.0,0.0,0.0,0
45394,1490393813565,,,,,,,,0.0,0.05,0.99,-3.1,0.3,-0.4,820,0,,,,,,,,,,,,,,,,,,,
45414,1490393813585,,,,,,,,-0.0,0.05,0.99,-3.1,0.3,-0.4,820,0,,,,,,,,,,,,,,,,,,,
45434,1490393813607,,,,,,,,-0.0,0.05,0.98,-3.1,0.4,-0.3,820,0,,,,,,,,,,,,,,,,,,,
45454,1490393813627,,,,,,,,0.01,0.05,0.98,-3.1,0.4,-0.2,820,0,,,,,,,,,,,,,,,,,,,
45474,1490393813647,0,51.6,,51.9,65,52.9,,0.01,0.06,0.98,-3.1,0.3,-0.2,820,0,1,1,0.0,0,38.159241,-122.454208,0.0,0.0,70.7,7,3,2.0,0,0.0,-1,0.0,0.0,0.0,0
45494,1490393813667,,,,,,,,0.0,0.06,0.99,-3.1,0.3,-0.2,800,0,,,,,,,,,,,,,,,,,,,
45514,1490393813687,,,,,,,,0.0,0.05,0.99,-3.1,0.3,-0.3,780,0,,,,,,,,,,,,,,,,,,,
45534,1490393813707,,,,,,,,0.0,0.05,0.99,-3.1,0.3,-0.3,780,0,,,,,,,,,,,,,,,,,,,
45554,1490393813727,,,,,,,,0.0,0.06,0.99,-3.1,0.3,-0.2,760,0,,,,,,,,,,,,,,,,,,,
45574,1490393813747,,,,,62,,,0.0,0.06,0.99,-3.1,0.3,-0.2,760,0,1,1,0.0,0,38.159241,-122.454208,0.0,0.0,70.7,7,3,2.0,0,0.0,-1,0.0,0.0,0.0,0
45594,1490393813767,,,,,,,,-0.0,0.06,0.99,-3.1,0.2,-0.3,760,0,,,,,,,,,,,,,,,,,,,
45614,1490393813787,,,,,,,,-0.0,0.05,0.99,-3.1,0.3,-0.3,760,0,,,,,,,,,,,,,,,,,,,
45634,1490393813807,,,,,,,,-0.0,0.05,0.99,-3.1,0.3,-0.2,760,0,,,,,,,,,,,,,,,,,,,
45654,1490393813827,,,,,,,,0.0,0.06,0.99,-3.1,0.3,-0.2,760,0,,,,,,,,,,,,,,,,,,,
45674,1490393813847,0,51.7,,50.0,61,51.0,,0.0,0.06,0.99,-3.1,0.3,-0.2,740,0,1,1,0.0,0,38.159241,-122.454208,0.0,0.0,70.7,7,3,2.0,0,0.0,-1,0.0,0.0,0.0,0
45694,1490393813867,,,,,,,,0.0,0.05,0.99,-3.1,0.3,-0.2,740,0,,,,,,,,,,,,,,,,,,,
45714,1490393813887,,,,,,,,0.0,0.05,0.99,-3.1,0.3,-0.2,720,0,,,,,,,,,,,,,,,,,,,
45734,1490393813906,,,,,,,,0.0,0.06,0.98,-3.2,0.3,-0.2,720,0,,,,,,,,,,,,,,,,,,,
45754,1490393813926,,,,,,,,0.0,0.05,0.98,-3.1,0.3,-0.3,720,0,,,,,,,,,,,,,,,,,,,
45774,1490393813946,,,,,59,,,-0.0,0.05,0.99,-3.1,0.3,-0.3,720,0,1,1,0.0,0,38.159241,-122.454208,0.0,0.0,70.7,7,3,2.0,0,0.0,-1,0.0,0.0,0.0,0
45794,1490393813966,,,,,,,,0.0,0.05,0.99,-3.1,0.3,-0.2,720,0,,,,,,,,,,,,,,,,,,,
45814,1490393813986,,,,,,,,0.0,0.05,0.99,-3.1,0.3,-0.3,700,0,,,,,,,,,,,,,,,,,,,
45834,1490393814000,,,,,,,,0.0,0.05,0.99,-3.1,0.3,-0.3,700,0,,,,,,,,,,,,,,,,,,,
45854,1490393814020,,,,,,,,0.0,0.05,0.99,-3.1,0.3,-0.2,680,0,,,,,,,,,,,,,,,,,,,
45874,1490393814040,0,52.6,,52.5,57,52.7,,0.0,0.06,0.99,-3.1,0.4,-0.2,660,0,1,1,0.0,0,38.159241,-122.454208,0.0,0.0,70.7,7,3,2.0,0,0.0,-1,0.0,0.0,0.0,0
45894,1490393814060,,,,,,,,-0.0,0.05,0.99,-3.1,0.3,-0.3,660,0,,,,,,,,,,,,,,,,,,,
45914,1490393814080,,,,,,,,0.0,0.05,0.99,-3.1,0.3,-0.3,660,0,,,,,,,,,,,,,,,,,,,
45934,1490393814106,,,,,,,,0.0,0.06,0.99,-3.1,0.3,-0.2,680,0,,,,,,,,,,,,,,,,,,,
45954,1490393814126,,,,,,,,-0.0,0.05,0.99,-3.1,0.3,-0.3,660,0,,,,,,,,,,,,,,,,,,,
45974,1490393814146,,,,,57,,,-0.0,0.05,0.99,-3.1,0.3,-0.3,660,0,1,1,0.0,0,38.159241,-122.454208,0.0,0.0,70.7,7,3,2.0,0,0.0,-1,0.0,0.0,0.0,0
45994,1490393814166,,,,,,,,-0.0,0.06,0.99,-3.1,0.3,-0.3,660,0,,,,,,,,,,,,,,,,,,,
46014,1490393814186,,,,,,,,-0.0,0.05,0.99,-3.1,0.3,-0.3,660,0,,,,,,,,,,,,,,,,,,,
46034,1490393814208,,,,,,,,-0.0,0.05,0.99,-3.1,0.3,-0.3,660,0,,,,,,,,,,,,,,,,,,,
46054,1490393814228,,,,,,,,-0.0,0.06,0.99,-3.1,0.3,-0.3,640,0,,,,,,,,,,,,,,,,,,,
46074,1490393814248,0,52.5,-0.3,52.0,56,50.7,14.81,-0.0,0.05,0.99,-3.1,0.2,-0.4,640,0,1,1,0.0,0,38.159241,-122.454208,0.0,0.0,70.7,7,3,2.0,0,0.0,-1,0.0,0.0,0.0,0
46094,1490393814268,,,,,,,,-0.0,0.06,1.0,-3.1,0.3,-0.3,640,0,,,,,,,,,,,,,,,,,,,
46114,1490393814288,,,,,,,,-0.0,0.06,0.99,-3.1,0.3,-0.3,640,0,,,,,,,,,,,,,,,,,,,
46134,1490393814308,,,,,,,,-0.01,0.05,1.0,-3.1,0.3,-0.4,640,0,,,,,,,,,,,,,,,,,,,
46154,1490393814328,,,,,,,,-0.0,0.06,1.0,-3.1,0.3,-0.4,660,0,,,,,,,,,,,,,,,,,,,
46174,1490393814348,,,,,56,,,-0.0,0.06,0.99,-3.1,0.3,-0.4,660,0,1,1,0.0,0,38.159241,-122.454208,0.0,0.0,70.7,7,3,2.0,0,0.0,-1,0.0,0.0,0.0,0
46194,1490393814368,,,,,,,,-0.0,0.05,0.99,-3.1,0.3,-0.4,660,0,,,,,,,,,,,,,,,,,,,
46214,1490393814388,,,,,,,,-0.0,0.06,0.99,-3.1,0.4,-0.4,660,0,,,,,,,,,,,,,,,,,,,
46234,1490393814408,,,,,,,,-0.0,0.06,0.99,-3.1,0.3,-0.3,660,0,,,,,,,,,,,,,,,,,,,
46254,1490393814428,,,,,,,,-0.0,0.06,0.99,-3.1,0.3,-0.4,680,0,,,,,,,,,,,,,,,,,,,
46274,1490393814448,0,52.6,,52.3,57,51.1,,-0.0,0.06,0.99,-3.1,0.3,-0.3,680,0,1,1,0.0,0,38.159241,-122.454208,0.0,0.0,70.7,7,3,2.0,0,0.0,-1,0.0,0.0,0.0,0
46294,1490393814468,,,,,,,,0.0,0.07,0.99,-3.1,0.3,-0.3,680,0,,,,,,,,,,,,,,,,,,,
46314,1490393814488,,,,,,,,0.0,0.06,0.99,-3.1,0.2,-0.3,700,0,,,,,,,,,,,,,,,,,,,
46334,1490393814508,,,,,,,,-0.0,0.06,1.0,-3.1,0.2,-0.3,700,0,,,,,,,,,,,,,,,,,,,
46354,1490393814528,,,,,,,,0.0,0.06,0.99,-3.1,0.3,-0.3,680,0,,,,,,,,,,,,,,,,,,,
46374,1490393814548,,,,,58,,,0.0,0.06,0.99,-3.1,0.2,-0.3,700,0,1,1,0.0,0,38.159241,-122.454208,0.0,0.0,70.7,7,3,2.0,0,0.0,-1,0.0,0.0,0.0,0
46394,1490393814568,,,,,,,,-0.0,0.05,0.99,-3.1,0.2,-0.4,700,0,,,,,,,,,,,,,,,,,,,
46414,1490393814588,,,,,,,,0.0,0.06,0.99,-3.1,0.4,-0.2,700,0,,,,,,,,,,,,,,,,,,,
46434,1490393814608,,,,,,,,0.01,0.06,0.98,-3.1,0.4,-0.2,720,0,,,,,,,,,,,,,,,,,,,
46454,1490393814628,,,,,,,,-0.0,0.05,0.99,-3.1,0.3,-0.3,740,0,,,,,,,,,,,,,,,,,,,
46474,1490393814648,0,50.2,,49.8,61,52.0,,-0.0,0.05,0.99,-3.1,0.3,-0.4,740,0,1,1,0.0,0,38.159241,-122.454208,0.0,0.0,70.7,7,3,2.0,0,0.0,-1,0.0,0.0,0.0,0
46494,1490393814668,,,,,,,,-0.0,0.06,0.99,-3.1,0.3,-0.3,760,0,,,,,,,,,,,,,,,,,,,
46514,1490393814688,,,,,,,,0.0,0.06,0.99,-3.1,0.4,-0.3,760,0,,,,,,,,,,,,,,,,,,,
46534,1490393814708,,,,,,,,-0.0,0.05,0.99,-3.1,0.3,-0.3,760,0,,,,,,,,,,,,,,,,,,,
46554,1490393814728,,,,,,,,-0.0,0.04,0.99,-3.1,0.4,-0.4,780,0,,,,,,,,,,,,,,,,,,,
46574,1490393814748,,,,,63,,,-0.0,0.05,0.99,-3.1,0.3,-0.3,780,0,1,1,0.0,0,38.159241,-122.454208,0.0,0.0,70.7,7,3,2.0,0,0.0,-1,0.0,0.0,0.0,0
46594,1490393814768,,,,,,,,0.0,0.05,0.98,-3.1,0.4,-0.2,780,0,,,,,,,,,,,,,,,,,,,
46614,1490393814788,,,,,,,,0.0,0.06,0.98,-3.1,0.4,-0.2,780,0,,,,,,,,,,,,,,,,,,,
46634,1490393814808,,,,,,,,-0.0,0.06,0.98,-3.1,0.4,-0.3,800,0,,,,,,,,,,,,,,,,,,,
46654,1490393814828,,,,,,,,-0.0,0.05,0.99,-3.1,0.4,-0.3,800,0,,,,,,,,,,,,,,,,,,,
46674,1490393814848,0,50.3,,51.3,63,53.1,,-0.0,0.05,0.99,-3.1,0.3,-0.3,800,0,1,1,0.0,0,38.159241,-122.454208,0.0,0.0,70.7,7,3,2.0,0,0.0,-1,0.0,0.0,0.0,0
46694,1490393814868,,,,,,,,-0.0,0.05,0.99,-3.1,0.4,-0.3,780,0,,,,,,,,,,,,,,,,,,,
46714,1490393814888,,,,,,,,-0.0,0.06,0.99,-3.1,0.4,-0.2,780,0,,,,,,,,,,,,,,,,,,,
46734,1490393814907,,,,,,,,-0.0,0.05,0.99,-3.0,0.4,-0.3,780,0,,,,,,,,,,,,,,,,,,,
46754,1490393814927,,,,,,,,-0.0,0.05,0.99,-3.0,0.4,-0.3,800,0,,,,,,,,,,,,,,,,,,,
46774,1490393814947,,,,,67,,,-0.0,0.04,0.99,-3.1,0.4,-0.2,800,0,1,1,0.0,0,38.159241,-122.454208,0.0,0.0,70.7,7,3,2.0,0,0.0,-1,0.0,0.0,0.0,0
46794,1490393814967,,,,,,,,0.0,0.06,0.98,-3.1,0.5,-0.1,800,0,,,,,,,,,,,,,,,,,,,
46814,1490393814987,,,,,,,,0.0,0.06,0.99,-3.1,0.3,-0.1,800,0,,,,,,,,,,,,,,,,,,,
46834,1490393815001,,,,,,,,-0.0,0.06,0.99,-3.1,0.3,-0.2,800,0,,,,,,,,,,,,,,,,,,,
46854,1490393815021,,,,,,,,-0.0,0.05,0.99,-3.1,0.4,-0.3,780,0,,,,,,,,,,,,,,,,,,,
46874,1490393815041,0,50.5,,51.4,67,53.1,,0.0,0.06,0.99,-3.1,0.4,-0.3,780,0,1,1,0.0,0,38.159241,-122.454208,0.0,0.0,70.7,7,3,2.0,0,0.0,-1,0.0,0.0,0.0,0
46894,1490393815061,,,,,,,,0.01,0.07,0.98,-3.1,0.4,-0.1,800,0,,,,,,,,,,,,,,,,,,,
46914,1490393815081,,,,,,,,0.01,0.07,0.98,-3.1,0.3,-0.1,800,0,,,,,,,,,,,,,,,,,,,
46934,1490393815107,,,,,,,,0.0,0.07,0.99,-3.1,0.4,-0.2,800,0,,,,,,,,,,,,,,,,,,,
46954,1490393815127,,,,,,,,-0.0,0.06,0.99,-3.1,0.4,-0.3,800,0,,,,,,,,,,,,,,,,,,,
46974,1490393815147,,,,,65,,,-0.0,0.06,0.98,-3.1,0.3,-0.3,800,0,1,1,0.0,0,38.159241,-122.454208,0.0,0.0,70.7,7,3,2.0,0,0.0,-1,0.0,0.0,0.0,0
46994,1490393815167,,,,,,,,-0.0,0.06,0.98,-3.1,0.4,-0.2,780,0,,,,,,,,,,,,,,,,,,,
47014,1490393815187,,,,,,,,0.0,0.06,0.98,-3.1,0.4,-0.2,760,0,,,,,,,,,,,,,,,,,,,
47034,1490393815207,,,,,,,,-0.0,0.06,0.98,-3.1,0.4,-0.2,760,0,,,,,,,,,,,,,,,,,,,
47054,1490393815227,,,,,,,,-0.0,0.05,0.98,-3.1,0.4,-0.2,760,0,,,,,,,,,,,,,,,,,,,
47074,1490393815247,0,50.2,-0.2,51.1,66,53.1,14.95,0.0,0.06,0.98,-3.1,0.4,-0.2,760,0,1,1,0.0,0,38.159241,-122.454208,0.0,0.0,70.7,7,3,2.0,0,0.0,-1,0.0,0.0,0.0,0
47094,1490393815267,,,,,,,,0.0,0.06,0.98,-3.1,0.4,-0.1,760,0,,,,,,,,,,,,,,,,,,,
47114,1490393815287,,,,,,,,0.0,0.06,0.99,-3.1,0.3,-0.2,740,0,,,,,,,,,,,,,,,,,,,
47134,1490393815307,,,,,,,,-0.0,0.06,0.99,-3.1,0.3,-0.2,740,0,,,,,,,,,,,,,,,,,,,
47154,1490393815327,,,,,,,,-0.0,0.06,0.99,-3.1,0.3,-0.2,740,0,,,,,,,,,,,,,,,,,,,
47174,1490393815347,,,,,64,,,0.0,0.06,0.99,-3.1,0.3,-0.2,720,0,1,1,0.0,0,38.159241,-122.454208,0.0,0.0,70.7,7,3,2.0,0,0.0,-1,0.0,0.0,0.0,0
47194,1490393815367,,,,,,,,-0.0,0.06,0.99,-3.1,0.3,-0.2,740,0,,,,,,,,,,,,,,,,,,,
47214,1490393815387,,,,,,,,-0.0,0.05,0.99,-3.1,0.3,-0.2,740,0,,,,,,,,,,,,,,,,,,,
47234,1490393815407,,,,,,,,-0.0,0.06,0.98,-3.1,0.3,-0.2,740,0,,,,,,,,,,,,,,,,,,,
47254,1490393815427,,,,,,,,0.0,0.06,0.98,-3.1,0.4,-0.2,740,0,,,,,,,,,,,,,,,,,,,
47274,1490393815447,0,52.0,,52.6,64,53.1,,-0.0,0.06,0.98,-3.1,0.4,-0.2,720,0,1,1,0.0,0,38.159241,-122.454208,0.0,0.0,70.7,7,3,2.0,0,0.0,-1,0.0,0.0,0.0,0
47294,1490393815467,,,,,,,,-0.0,0.06,0.98,-3.1,0.4,-0.3,720,0,,,,,,,,,,,,,,,,,,,
47314,1490393815487,,,,,,,,-0.0,0.06,0.98,-3.1,0.4,-0.3,700,0,,,,,,,,,,,,,,,,,,,
47334,1490393815507,,,,,,,,0.0,0.06,0.98,-3.1,0.3,-0.3,700,0,,,,,,,,,,,,,,,,,,,
47354,1490393815527,,,,,,,,-0.0,0.06,0.98,-3.1,0.3,-0.3,720,0,,,,,,,,,,,,,,,,,,,
47374,1490393815547,,,,,63,,,0.0,0.06,0.98,-3.1,0.4,-0.2,720,0,1,1,0.0,0,38.159241,-122.454208,0.0,0.0,70.7,7,3,2.0,0,0.0,-1,0.0,0.0,0.0,0
47394,1490393815567,,,,,,,,0.0,0.06,0.98,-3.1,0.3,-0.1,720,0,,,,,,,,,,,,,,,,,,,
47414,1490393815587,,,,,,,,0.0,0.06,0.99,-3.1,0.2,-0.2,720,0,,,,,,,,,,,,,,,,,,,
47434,1490393815607,,,,,,,,-0.0,0.06,0.99,-3.1,0.2,-0.2,720,0,,,,,,,,,,,,,,,,,,,
47454,1490393815627,,,,,,,,-0.0,0.06,0.99,-3.1,0.3,-0.2,720,0,,,,,,,,,,,,,,,,,,,
47474,1490393815647,0,52.6,,52.6,61,52.9,,0.0,0.06,0.99,-3.1,0.3,-0.2,700,0,1,1,0.0,0,38.159241,-122.454208,0.0,0.0,70.7,7,3,2.0,0,0.0,-1,0.0,0.0,0.0,0
47494,1490393815667,,,,,,,,-0.0,0.05,0.98,-3.1,0.3,-0.3,700,0,,,,,,,,,,,,,,,,,,,
47514,1490393815687,,,,,,,,-0.0,0.05,0.99,-3.1,0.3,-0.3,700,0,,,,,,,,,,,,,,,,,,,
47534,1490393815707,,,,,,,,-0.0,0.05,0.98,-3.1,0.3,-0.3,720,0,,,,,,,,,,,,,,,,,,,
47554,1490393815727,,,,,,,,-0.0,0.05,0.98,-3.1,0.3,-0.3,720,0,,,,,,,,,,,,,,,,,,,
47574,1490393815747,,,,,59,,,-0.0,0.05,0.98,-3.1,0.3,-0.3,720,0,1,1,0.0,0,38.159241,-122.454208,0.0,0.0,70.7,7,3,2.0,0,0.0,-1,0.0,0.0,0.0,0
47594,1490393815767,,,,,,,,-0.0,0.05,0.98,-3.1,0.4,-0.2,720,0,,,,,,,,,,,,,,,,,,,
47614,1490393815787,,,,,,,,0.0,0.05,0.98,-3.1,0.4,-0.2,700,0,,,,,,,,,,,,,,,,,,,
47634,1490393815807,,,,,,,,-0.0,0.06,0.98,-3.1,0.3,-0.3,700,0,,,,,,,,,,,,,,,,,,,
47654,1490393815827,,,,,,,,-0.0,0.05,0.98,-3.1,0.3,-0.3,700,0,,,,,,,,,,,,,,,,,,,
47674,1490393815847,0,50.3,,50.3,59,52.4,,0.0,0.06,0.98,-3.1,0.3,-0.2,700,0,1,1,0.0,0,38.159241,-122.454208,0.0,0.0,70.7,7,3,2.0,0,0.0,-1,0.0,0.0,0.0,0
47694,1490393815867,,,,,,,,0.0,0.06,0.98,-3.1,0.3,-0.2,720,0,,,,,,,,,,,,,,,,,,,
47714,1490393815887,,,,,,,,0.0,0.05,0.98,-3.1,0.3,-0.3,720,0,,,,,,,,,,,,,,,,,,,
47734,1490393815906,,,,,,,,0.0,0.06,0.98,-3.1,0.3,-0.2,720,0,,,,,,,,,,,,,,,,,,,
47754,1490393815926,,,,,,,,0.0,0.06,0.98,-3.1,0.3,-0.1,720,0,,,,,,,,,,,,,,,,,,,
47774,1490393815946,,,,,59,,,0.0,0.06,0.98,-3.1,0.3,-0.2,700,0,1,1,0.0,0,38.159241,-122.454208,0.0,0.0,70.7,7,3,2.0,0,0.0,-1,0.0,0.0,0.0,0
47794,1490393815966,,,,,,,,0.0,0.06,0.98,-3.1,0.3,-0.2,700,0,,,,,,,,,,,,,,,,,,,
47814,1490393815986,,,,,,,,0.0,0.07,0.98,-3.1,0.3,-0.2,700,0,,,,,,,,,,,,,,,,,,,
47834,1490393816000,,,,,,,,0.0,0.07,0.98,-3.1,0.3,-0.2,700,0,,,,,,,,,,,,,,,,,,,
47854,1490393816020,,,,,,,,-0.0,0.06,0.98,-3.1,0.3,-0.3,720,0,,,,,,,,,,,,,,,,,,,
47874,1490393816040,0,50.1,,50.5,57,52.8,,-0.0,0.06,0.99,-3.1,0.3,-0.2,720,0,1,1,0.0,0,38.159241,-122.454208,0.0,0.0,70.7,7,3,2.0,0,0.0,-1,0.0,0.0,0.0,0
47894,1490393816060,,,,,,,,0.0,0.07,0.98,-3.1,0.4,-0.2,740,0,,,,,,,,,,,,,,,,,,,
47914,1490393816080,,,,,,,,0.0,0.07,0.98,-3.1,0.3,-0.2,740,0,,,,,,,,,,,,,,,,,,,
47934,1490393816104,,,,,,,,0.0,0.06,0.99,-3.1,0.3,-0.3,720,0,,,,,,,,,,,,,,,,,,,
47954,1490393816124,,,,,,,,0.0,0.06,0.99,-3.1,0.4,-0.3,720,0,,,,,,,,,,,,,,,,,,,
47974,1490393816144,,,,,59,,,0.0,0.06,0.99,-3.1,0.4,-0.2,740,6,1,1,0.0,0,38.159241,-122.454208,0.0,0.0,70.7,7,3,2.0,0,0.0,-1,0.0,0.0,0.0,0
47994,1490393816164,,,,,,,,0.0,0.06,0.98,-3.1,0.4,-0.3,740,6,,,,,,,,,,,,,,,,,,,
48014,1490393816184,,,,,,,,-0.0,0.06,0.98,-3.1,0.4,-0.3,760,6,,,,,,,,,,,,,,,,,,,
48034,1490393816206,,,,,,,,0.0,0.06,0.99,-3.1,0.4,-0.2,760,6,,,,,,,,,,,,,,,,,,,
48054,1490393816226,,,,,,,,0.01,0.06,0.99,-3.2,0.4,-0.1,760,6,,,,,,,,,,,,,,,,,,,
48074,1490393816246,0,50.3,-0.4,51.1,58,50.9,14.93,0.01,0.06,0.99,-3.2,0.3,-0.1,780,6,1,1,123.333,0,38.159241,-122.454208,0.0,0.0,70.7,7,3,2.0,0,0.0,-1,0.0,0.0,0.0,0
48094,1490393816266,,,,,,,,-0.0,0.06,0.99,-3.1,0.3,-0.2,760,6,,,,,,,,,,,,,,,,,,,
48114,1490393816286,,,,,,,,-0.0,0.06,0.99,-3.1,0.3,-0.3,760,6,,,,,,,,,,,,,,,,,,,
48134,1490393816308,,,,,,,,-0.0,0.06,0.99,-3.2,0.3,-0.3,780,6,,,,,,,,,,,,,,,,,,,
48154,1490393816328,,,,,,,,0.0,0.06,0.98,-3.2,0.3,-0.2,760,6,,,,,,,,,,,,,,,,,,,
48174,1490393816348,,,,,61,,,-0.0,0.06,0.99,-3.2,0.3,-0.2,780,6,1,1,126.667,0,38.159241,-122.454208,0.0,0.0,70.7,7,3,2.0,0,0.0,-1,0.0,0.0,0.0,0
48194,1490393816368,,,,,,,,-0.0,0.06,0.99,-3.1,0.2,-0.3,800,6,,,,,,,,,,,,,,,,,,,
48214,1490393816388,,,,,,,,-0.0,0.05,0.99,-3.2,0.3,-0.3,800,6,,,,,,,,,,,,,,,,,,,
48234,1490393816408,,,,,,,,-0.0,0.06,0.98,-3.2,0.3,-0.2,800,6,,,,,,,,,,,,,,,,,,,
48254,1490393816428,,,,,,,,0.0,0.06,0.99,-3.2,0.3,-0.2,780,6,,,,,,,,,,,,,,,,,,,
48274,1490393816448,0,50.4,,50.2,60,52.2,,-0.0,0.06,0.99,-3.2,0.3,-0.2,780,6,1,1,133.333,0,38.159241,-122.454208,0.0,0.0,70.7,7,3,2.0,0,0.0,-1,0.0,0.0,0.0,0
48294,1490393816468,,,,,,,,-0.0,0.05,0.99,-3.1,0.3,-0.3,780,6,,,,,,,,,,,,,,,,,,,
48314,1490393816488,,,,,,,,-0.0,0.05,0.99,-3.1,0.3,-0.3,780,6,,,,,,,,,,,,,,,,,,,
48334,1490393816508,,,,,,,,-0.0,0.05,0.99,-3.2,0.4,-0.3,780,512820,,,,,,,,,,,,,,,,,,,
48354,1490393816528,,,,,,,,0.0,0.05,0.99,-3.1,0.4,-0.2,780,0,,,,,,,,,,,,,,,,,,,
48374,1490393816548,,,,,60,,,-0.0,0.05,0.99,-3.1,0.4,-0.3,800,0,1,1,130.0,0,38.159241,-122.454208,0.0,0.0,70.7,7,3,2.0,0,0.0,-1,0.0,0.0,0.0,0
48394,1490393816568,,,,,,,,-0.0,0.04,0.99,-3.1,0.4,-0.3,760,0,,,,,,,,,,,,,,,,,,,
48414,1490393816588,,,,,,,,-0.0,0.04,0.99,-3.1,0.4,-0.3,760,0,,,,,,,,,,,,,,,,,,,
48434,1490393816608,,,,,,,,-0.0,0.05,0.99,-3.1,0.4,-0.3,760,0,,,,,,,,,,,,,,,,,,,
48454,1490393816628,,,,,,,,-0.0,0.04,0.99,-3.1,0.4,-0.3,740,0,,,,,,,,,,,,,,,,,,,
48474,1490393816648,0,51.4,,52.6,62,50.9,,-0.0,0.05,0.99,-3.1,0.4,-0.3,760,0,1,1,0.0,0,38.159241,-122.454208,0.0,0.0,70.7,7,3,2.0,0,0.0,-1,0.0,0.0,0.0,0
48494,1490393816668,,,,,,,,-0.0,0.04,0.99,-3.1,0.3,-0.3,760,0,,,,,,,,,,,,,,,,,,,
48514,1490393816688,,,,,,,,0.0,0.05,0.98,-3.1,0.3,-0.3,760,0,,,,,,,,,,,,,,,,,,,
48534,1490393816708,,,,,,,,0.0,0.05,0.99,-3.1,0.3,-0.3,760,0,,,,,,,,,,,,,,,,,,,
48554,1490393816728,,,,,,,,-0.0,0.05,0.99,-3.1,0.3,-0.3,740,0,,,,,,,,,,,,,,,,,,,
48574,1490393816748,,,,,61,,,-0.0,0.05,0.99,-3.1,0.3,-0.3,740,0,1,1,0.0,0,38.159241,-122.454208,0.0,0.0,70.7,7,3,2.0,0,0.0,-1,0.0,0.0,0.0,0
48594,1490393816768,,,,,,,,0.0,0.06,0.98,-3.1,0.3,-0.3,740,0,,,,,,,,,,,,,,,,,,,
48614,1490393816788,,,,,,,,0.0,0.06,0.98,-3.1,0.4,-0.3,720,0,,,,,,,,,,,,,,,,,,,
48634,1490393816806,,,,,,,,-0.0,0.05,0.98,-3.1,0.4,-0.4,740,0,,,,,,,,,,,,,,,,,,,
48654,1490393816826,,,,,,,,-0.0,0.05,0.98,-3.2,0.4,-0.4,740,0,,,,,,,,,,,,,,,,,,,
48674,1490393816846,0,51.9,,52.6,60,51.2,,-0.0,0.05,0.98,-3.2,0.4,-0.3,740,0,1,1,0.0,0,38.159241,-122.454208,0.0,0.0,70.7,7,3,2.0,0,0.0,-1,0.0,0.0,0.0,0
48694,1490393816866,,,,,,,,0.0,0.05,0.98,-3.2,0.4,-0.3,740,0,,,,,,,,,,,,,,,,,,,
48714,1490393816886,,,,,,,,-0.0,0.05,0.99,-3.2,0.4,-0.3,720,0,,,,,,,,,,,,,,,,,,,
48734,1490393816907,,,,,,,,-0.01,0.05,0.99,-3.2,0.4,-0.4,720,0,,,,,,,,,,,,,,,,,,,
48754,1490393816927,,,,,,,,-0.01,0.05,0.99,-3.2,0.4,-0.4,720,0,,,,,,,,,,,,,,,,,,,
48774,1490393816947,,,,,59,,,-0.0,0.05,0.99,-3.2,0.4,-0.4,720,0,1,1,0.0,0,38.159241,-122.454208,0.0,0.0,70.7,7,3,2.0,0,0.0,-1,0.0,0.0,0.0,0
48794,1490393816967,,,,,,,,-0.0,0.05,0.99,-3.1,0.3,-0.4,720,0,,,,,,,,,,,,,,,,,,,
48814,1490393816987,,,,,,,,-0.0,0.05,0.99,-3.1,0.3,-0.4,720,0,,,,,,,,,,,,,,,,,,,
48834,1490393816999,,,,,,,,-0.0,0.05,0.99,-3.1,0.3,-0.3,700,0,,,,,,,,,,,,,,,,,,,
48854,1490393817019,,,,,,,,-0.0,0.05,0.99,-3.1,0.3,-0.4,720,0,,,,,,,,,,,,,,,,,,,
48874,1490393817039,0,51.6,,50.9,58,52.7,,-0.0,0.05,0.99,-3.1,0.3,-0.4,720,0,1,1,0.0,0,38.159241,-122.454208,0.0,0.0,70.7,7,3,2.0,0,0.0,-1,0.0,0.0,0.0,0
48894,1490393817059,,,,,,,,0.0,0.05,0.99,-3.1,0.3,-0.4,680,0,,,,,,,,,,,,,,,,,,,
48914,1490393817079,,,,,,,,0.0,0.05,0.99,-3.1,0.3,-0.4,680,0,,,,,,,,,,,,,,,,,,,
48934,1490393817107,,,,,,,,-0.0,0.05,0.99,-3.1,0.3,-0.4,680,0,,,,,,,,,,,,,,,,,,,
48954,1490393817127,,,,,,,,0.0,0.06,0.98,-3.1,0.3,-0.4,660,0,,,,,,,,,,,,,,,,,,,
48974,1490393817147,,,,,56,,,0.0,0.06,0.98,-3.1,0.3,-0.4,660,0,1,1,0.0,0,38.159241,-122.454208,0.0,0.0,70.7,7,3,2.0,0,0.0,-1,0.0,0.0,0.0,0
48994,1490393817167,,,,,,,,-0.0,0.06,0.98,-3.1,0.3,-0.4,660,0,,,,,,,,,,,,,,,,,,,
49014,1490393817187,,,,,,,,0.0,0.06,0.98,-3.1,0.3,-0.4,660,0,,,,,,,,,,,,,,,,,,,
49034,1490393817207,,,,,,,,0.0,0.06,0.98,-3.1,0.3,-0.4,660,0,,,,,,,,,,,,,,,,,,,
49054,1490393817227,,,,,,,,-0.0,0.06,0.98,-3.1,0.3,-0.4,660,0,,,,,,,,,,,,,,,,,,,
49074,1490393817247,0,52.3,-0.3,52.0,55,53.6,14.96,-0.0,0.06,0.98,-3.1,0.3,-0.3,640,0,1,1,0.0,0,38.159241,-122.454208,0.0,0.0,70.7,7,3,2.0,0,0.0,-1,0.0,0.0,0.0,0
49094,1490393817267,,,,,,,,-0.0,0.06,0.98,-3.1,0.4,-0.3,640,0,,,,,,,,,,,,,,,,,,,
49114,1490393817287,,,,,,,,-0.0,0.05,0.99,-3.1,0.4,-0.3,640,0,,,,,,,,,,,,,,,,,,,
49134,1490393817307,,,,,,,,0.0,0.06,0.98,-3.1,0.3,-0.2,620,0,,,,,,,,,,,,,,,,,,,
49154,1490393817327,,,,,,,,-0.0,0.06,0.98,-3.1,0.3,-0.3,640,0,,,,,,,,,,,,,,,,,,,
49174,1490393817347,,,,,55,,,-0.0,0.05,0.99,-3.1,0.3,-0.3,640,0,1,1,0.0,0,38.159241,-122.454208,0.0,0.0,70.7,7,3,2.0,0,0.0,-1,0.0,0.0,0.0,0
49194,1490393817367,,,,,,,,0.0,0.06,0.98,-3.1,0.3,-0.2,660,0,,,,,,,,,,,,,,,,,,,
49214,1490393817387,,,,,,,,0.0,0.05,0.99,-3.1,0.3,-0.3,660,0,,,,,,,,,,,,,,,,,,,
49234,1490393817407,,,,,,,,0.0,0.05,0.99,-3.1,0.3,-0.3,660,0,,,,,,,,,,,,,,,,,,,
49254,1490393817427,,,,,,,,0.0,0.06,0.99,-3.1,0.3,-0.3,640,0,,,,,,,,,,,,,,,,,,,
49274,1490393817447,0,50.8,,52.3,55,51.0,,0.0,0.06,0.99,-3.1,0.3,-0.3,640,0,1,1,0.0,0,38.159241,-122.454208,0.0,0.0,70.7,7,3,2.0,0,0.0,-1,0.0,0.0,0.0,0
49294,1490393817467,,,,,,,,0.0,0.06,0.99,-3.1,0.3,-0.3,640,0,,,,,,,,,,,,,,,,,,,
49314,1490393817487,,,,,,,,0.0,0.07,0.99,-3.1,0.3,-0.2,640,0,,,,,,,,,,,,,,,,,,,
49334,1490393817507,,,,,,,,0.0,0.06,0.99,-3.1,0.3,-0.2,640,0,,,,,,,,,,,,,,,,,,,
49354,1490393817527,,,,,,,,0.0,0.06,0.99,-3.2,0.2,-0.2,640,0,,,,,,,,,,,,,,,,,,,
49374,1490393817547,,,,,57,,,0.0,0.07,0.99,-3.2,0.3,-0.1,640,0,1,1,0.0,0,38.159241,-122.454208,0.0,0.0,70.7,7,3,2.0,0,0.0,-1,0.0,0.0,0.0,0
49394,1490393817567,,,,,,,,0.0,0.06,0.99,-3.1,0.2,-0.3,660,0,,,,,,,,,,,,,,,,,,,
49414,1490393817587,,,,,,,,-0.0,0.06,1.0,-3.2,0.3,-0.3,660,0,,,,,,,,,,,,,,,,,,,
49434,1490393817607,,,,,,,,-0.0,0.07,0.99,-3.2,0.3,-0.2,640,0,,,,,,,,,,,,,,,,,,,
49454,1490393817627,,,,,,,,-0.0,0.06,0.99,-3.1,0.3,-0.3,660,0,,,,,,,,,,,,,,,,,,,
49474,1490393817647,0,50.3,,50.5,56,52.0,,-0.0,0.06,0.99,-3.2,0.3,-0.2,660,0,1,1,0.0,0,38.159241,-122.454208,0.0,0.0,70.7,7,3,2.0,0,0.0,-1,0.0,0.0,0.0,0
49494,1490393817667,,,,,,,,0.0,0.07,0.99,-3.2,0.4,-0.1,660,0,,,,,,,,,,,,,,,,,,,
49514,1490393817687,,,,,,,,0.0,0.06,0.99,-3.2,0.3,-0.2,700,0,,,,,,,,,,,,,,,,,,,
49534,1490393817709,,,,,,,,0.0,0.06,0.99,-3.1,0.3,-0.2,700,0,,,,,,,,,,,,,,,,,,,
49554,1490393817729,,,,,,,,0.01,0.07,0.99,-3.2,0.4,-0.1,720,0,,,,,,,,,,,,,,,,,,,
49574,1490393817749,,,,,57,,,0.01,0.06,0.99,-3.2,0.4,-0.1,740,0,1,1,0.0,0,38.159241,-122.454208,0.0,0.0,70.7,7,3,2.0,0,0.0,-1,0.0,0.0,0.0,0
49594,1490393817769,,,,,,,,0.0,0.06,0.99,-3.1,0.3,-0.2,720,0,,,,,,,,,,,,,,,,,,,
49614,1490393817789,,,,,,,,0.0,0.06,0.99,-3.2,0.4,-0.2,720,3,,,,,,,,,,,,,,,,,,,
49634,1490393817807,,,,,,,,0.01,0.07,0.99,-3.2,0.4,-0.1,720,3,,,,,,,,,,,,,,,,,,,
49654,1490393817827,,,,,,,,0.0,0.07,0.99,-3.1,0.4,-0.1,740,28,,,,,,,,,,,,,,,,,,,
49674,1490393817847,1,53.0,,52.8,62,53.5,,-0.01,0.06,0.99,-3.1,0.5,-0.2,760,28,1,1,0.0,0,38.159241,-122.454208,0.0,0.0,70.7,7,3,2.0,0,0.0,-1,0.0,0.0,0.0,0
49694,1490393817867,,,,,,,,-0.01,0.06,0.99,-3.1,0.4,-0.1,760,28,,,,,,,,,,,,,,,,,,,
49714,1490393817887,,,,,,,,-0.0,0.06,0.99,-3.1,0.3,-0.0,760,40,,,,,,,,,,,,,,,,,,,
49734,1490393817908,,,,,,,,0.0,0.06,0.99,-3.1,0.4,-0.1,780,40,,,,,,,,,,,,,,,,,,,
49754,1490393817928,,,,,,,,-0.0,0.06,1.0,-3.1,0.4,-0.2,760,40,,,,,,,,,,,,,,,,,,,
49774,1490393817948,,,,,62,,,0.0,0.06,1.0,-3.1,0.3,-0.2,760,40,1,1,19.0,0,38.159241,-122.454208,0.0,0.0,70.7,7,3,2.0,0,0.0,-1,0.0,0.0,0.0,0
49794,1490393817968,,,,,,,,0.0,0.06,0.99,-3.1,0.4,-0.2,760,40,,,,,,,,,,,,,,,,,,,
49814,1490393817988,,,,,,,,0.01,0.07,0.99,-3.1,0.4,-0.1,740,40,,,,,,,,,,,,,,,,,,,
49834,1490393818000,,,,,,,,0.0,0.06,0.99,-3.1,0.4,-0.2,760,40,,,,,,,,,,,,,,,,,,,
49854,1490393818020,,,,,,,,0.0,0.06,1.0,-3.1,0.4,-0.3,760,40,,,,,,,,,,,,,,,,,,,
49874,1490393818040,0,50.4,,51.4,65,51.1,,0.0,0.06,0.99,-3.1,0.4,-0.2,760,40,1,1,18.5,0,38.159241,-122.454208,0.0,0.0,70.7,7,3,2.0,0,0.0,-1,0.0,0.0,0.0,0
49894,1490393818060,,,,,,,,0.01,0.06,0.99,-3.1,0.5,-0.2,760,40,,,,,,,,,,,,,,,,,,,
49914,1490393818080,,,,,,,,0.01,0.06,0.99,-3.1,0.4,-0.2,740,40,,,,,,,,,,,,,,,,,,,
49934,1490393818106,,,,,,,,0.01,0.06,0.99,-3.1,0.4,-0.3,740,40,,,,,,,,,,,,,,,,,,,
49954,1490393818126,,,,,,,,0.01,0.06,0.99,-3.2,0.4,-0.3,740,40,,,,,,,,,,,,,,,,,,,
49974,1490393818146,,,,,65,,,0.01,0.07,0.99,-3.2,0.4,-0.2,740,40,1,1,19.0,0,38.159241,-122.454208,0.0,0.0,70.7,7,3,2.0,0,0.0,-1,0.0,0.0,0.0,0
49994,1490393818166,,,,,,,,0.01,0.06,0.99,-3.2,0.3,-0.2,740,40,,,,,,,,,,,,,,,,,,,
50014,1490393818186,,,,,,,,0.01,0.06,0.99,-3.1,0.3,-0.3,740,40,,,,,,,,,,,,,,,,,,,
50034,1490393818208,,,,,,,,0.01,0.06,0.99,-3.1,0.4,-0.3,740,40,,,,,,,,,,,,,,,,,,,
50054,1490393818228,,,,,,,,0.01,0.06,0.99,-3.1,0.4,-0.2,740,40,,,,,,,,,,,,,,,,,,,
50074,1490393818248,0,50.8,-0.4,52.6,66,51.1,14.94,0.01,0.06,0.99,-3.1,0.3,-0.3,720,40,1,1,18.5,0,38.159241,-122.454208,0.0,0.0,70.7,7,3,2.0,0,0.0,-1,0.0,0.0,0.0,0
50094,1490393818268,,,,,,,,0.01,0.06,0.99,-3.1,0.3,-0.3,720,40,,,,,,,,,,,,,,,,,,,
50114,1490393818288,,,,,,,,0.01,0.07,0.99,-3.1,0.3,-0.3,700,40,,,,,,,,,,,,,,,,,,,
50134,1490393818308,,,,,,,,0.02,0.07,0.99,-3.1,0.3,-0.3,700,40,,,,,,,,,,,,,,,,,,,
50154,1490393818328,,,,,,,,0.01,0.06,0.99,-3.1,0.3,-0.3,700,40,,,,,,,,,,,,,,,,,,,
50174,1490393818348,,,,,66,,,0.01,0.06,0.99,-3.2,0.3,-0.3,700,40,1,1,17.5,0,38.159241,-122.454208,0.0,0.0,70.7,7,3,2.0,0,0.0,-1,0.0,0.0,0.0,0
50194,1490393818368,,,,,,,,0.02,0.07,0.99,-3.2,0.3,-0.2,680,40,,,,,,,,,,,,,,,,,,,
50214,1490393818388,,,,,,,,0.02,0.06,0.99,-3.2,0.2,-0.3,680,40,,,,,,,,,,,,,,,,,,,
50234,1490393818408,,,,,,,,0.02,0.06,0.99,-3.2,0.3,-0.3,680,40,,,,,,,,,,,,,,,,,,,
50254,1490393818428,,,,,,,,0.02,0.06,0.99,-3.2,0.3,-0.3,640,40,,,,,,,,,,,,,,,,,,,
50274,1490393818448,0,52.2,,50.8,63,52.1,,0.02,0.06,0.99,-3.2,0.3,-0.3,620,40,1,1,17.0,0,38.159241,-122.454208,0.0,0.0,70.7,7,3,2.0,0,0.0,-1,0.0,0.0,0.0,0
50294,1490393818468,,,,,,,,0.02,0.06,0.99,-3.2,0.3,-0.3,620,40,,,,,,,,,,,,,,,,,,,
50314,1490393818488,,,,,,,,0.02,0.06,0.99,-3.2,0.3,-0.2,620,40,,,,,,,,,,,,,,,,,,,
50334,1490393818510,,,,,,,,0.02,0.06,0.99,-3.2,0.3,-0.2,620,2,,,,,,,,,,,,,,,,,,,
50354,1490393818530,,,,,,,,0.02,0.06,0.99,-3.3,0.3,-0.2,620,2,,,,,,,,,,,,,,,,,,,
50374,1490393818550,,,,,62,,,0.02,0.06,0.99,-3.3,0.4,-0.2,600,2,1,1,15.5,0,38.159241,-122.454208,0.0,0.0,70.7,7,3,2.0,0,0.0,-1,0.0,0.0,0.0,0
50394,1490393818570,,,,,,,,0.02,0.06,0.99,-3.3,0.4,-0.3,600,2,,,,,,,,,,,,,,,,,,,
50414,1490393818590,,,,,,,,0.02,0.06,0.99,-3.3,0.3,-0.2,620,2,,,,,,,,,,,,,,,,,,,
50434,1490393818610,,,,,,,,0.02,0.06,0.99,-3.3,0.3,-0.3,600,15,,,,,,,,,,,,,,,,,,,
50454,1490393818630,,,,,,,,0.02,0.06,0.99,-3.3,0.3,-0.3,600,15,,,,,,,,,,,,,,,,,,,
50474,1490393818650,0,52.9,,52.9,59,53.4,,0.02,0.06,0.99,-3.3,0.3,-0.3,600,15,1,1,620.0,0,38.159241,-122.454208,0.0,0.0,70.7,7,3,2.0,0,0.0,-1,0.0,0.0,0.0,0
50494,1490393818670,,,,,,,,0.02,0.05,0.99,-3.3,0.3,-0.4,600,15,,,,,,,,,,,,,,,,,,,
50514,1490393818690,,,,,,,,0.02,0.06,0.99,-3.3,0.4,-0.3,580,18,,,,,,,,,,,,,,,,,,,
50534,1490393818710,,,,,,,,0.03,0.05,0.98,-3.3,0.3,-0.3,600,18,,,,,,,,,,,,,,,,,,,
50554,1490393818730,,,,,,,,0.03,0.06,0.98,-3.3,0.3,-0.3,600,18,,,,,,,,,,,,,,,,,,,
50574,1490393818750,,,,,57,,,0.03,0.06,0.98,-3.3,0.3,-0.3,580,23,1,1,32.222,0,38.159241,-122.454208,0.0,0.0,70.7,7,3,2.0,0,0.0,-1,0.0,0.0,0.0,0
50594,1490393818770,,,,,,,,0.02,0.05,0.98,-3.3,0.4,-0.4,580,23,,,,,,,,,,,,,,,,,,,
50614,1490393818790,,,,,,,,0.03,0.06,0.98,-3.3,0.5,-0.3,600,23,,,,,,,,,,,,,,,,,,,
50634,1490393818810,,,,,,,,0.03,0.06,0.98,-3.3,0.4,-0.3,600,22,,,,,,,,,,,,,,,,,,,
50654,1490393818830,,,,,,,,0.03,0.06,0.98,-3.3,0.4,-0.4,600,22,,,,,,,,,,,,,,,,,,,
50674,1490393818850,0,51.4,,50.7,57,51.3,,0.03,0.06,0.98,-3.3,0.4,-0.4,580,22,1,1,26.087,0,38.159241,-122.454208,0.0,0.0,70.7,7,3,2.0,0,0.0,-1,0.0,0.0,0.0,0
50694,1490393818870,,,,,,,,0.02,0.05,0.98,-3.3,0.4,-0.4,580,22,,,,,,,,,,,,,,,,,,,
50714,1490393818890,,,,,,,,0.03,0.06,0.98,-3.4,0.5,-0.3,580,22,,,,,,,,,,,,,,,,,,,
50734,1490393818909,,,,,,,,0.03,0.05,0.98,-3.4,0.5,-0.3,600,22,,,,,,,,,,,,,,,,,,,
50754,1490393818929,,,,,,,,0.03,0.06,0.98,-3.4,0.5,-0.3,600,22,,,,,,,,,,,,,,,,,,,
50774,1490393818949,,,,,57,,,0.02,0.06,0.98,-3.4,0.5,-0.2,620,26,1,1,27.619,0,38.159241,-122.454208,0.0,0.0,70.7,7,3,2.0,0,0.0,-1,0.0,0.0,0.0,0
50794,1490393818969,,,,,,,,0.02,0.06,0.98,-3.4,0.5,-0.3,620,26,,,,,,,,,,,,,,,,,,,
50814,1490393818989,,,,,,,,0.02,0.06,0.98,-3.5,0.6,-0.3,660,26,,,,,,,,,,,,,,,,,,,
50834,1490393819003,,,,,,,,0.02,0.06,0.98,-3.5,0.6,-0.2,660,20,,,,,,,,,,,,,,,,,,,
50854,1490393819023,,,,,,,,0.01,0.05,0.98,-3.5,0.7,-0.2,660,20,,,,,,,,,,,,,,,,,,,
50874,1490393819043,0,52.0,,53.2,57,53.6,,0.01,0.06,0.99,-3.5,0.8,-0.2,640,20,1,1,25.385,0,38.159241,-122.454208,0.0,0.0,70.7,7,3,2.0,0,0.0,-1,0.0,0.0,0.0,0
50894,1490393819063,,,,,,,,0.0,0.06,0.99,-3.5,0.7,-0.1,680,32,,,,,,,,,,,,,,,,,,,
50914,1490393819083,,,,,,,,-0.01,0.06,1.0,-3.5,0.8,-0.1,680,32,,,,,,,,,,,,,,,,,,,
50934,1490393819103,,,,,,,,-0.01,0.06,1.0,-3.5,1.0,-0.1,680,32,,,,,,,,,,,,,,,,,,,
50954,1490393819123,,,,,,,,-0.01,0.06,1.0,-3.5,1.1,-0.0,700,22,,,,,,,,,,,,,,,,,,,
50974,1490393819143,,,,,60,,,-0.02,0.05,1.0,-3.5,1.0,-0.1,720,22,1,1,21.25,0,38.159241,-122.454208,0.0,0.0,70.7,7,3,2.0,0,0.0,-1,0.0,0.0,0.0,0
50994,1490393819163,,,,,,,,-0.03,0.05,1.0,-3.5,1.2,-0.2,720,22,,,,,,,,,,,,,,,,,,,
51014,1490393819183,,,,,,,,-0.03,0.05,1.0,-3.6,1.2,-0.1,740,22,,,,,,,,,,,,,,,,,,,
51034,1490393819209,,,,,,,,-0.04,0.05,1.0,-3.6,1.2,-0.0,740,22,,,,,,,,,,,,,,,,,,,
51054,1490393819229,,,,,,,,-0.05,0.05,1.0,-3.5,1.3,-0.1,760,22,,,,,,,,,,,,,,,,,,,
51074,1490393819249,0,52.0,0.1,53.2,63,53.5,14.91,-0.05,0.05,0.99,-3.5,1.3,-0.2,780,14,1,1,35.238,0,38.159241,-122.454208,0.0,0.0,70.7,7,3,2.0,0,0.0,-1,0.0,0.0,0.0,0
51094,1490393819269,,,,,,,,-0.05,0.05,0.98,-3.5,1.2,-0.1,780,14,,,,,,,,,,,,,,,,,,,
51114,1490393819289,,,,,,,,-0.05,0.06,0.98,-3.5,1.3,0.0,800,14,,,,,,,,,,,,,,,,,,,
51134,1490393819309,,,,,,,,-0.05,0.06,0.98,-3.5,1.1,-0.0,820,14,,,,,,,,,,,,,,,,,,,
51154,1490393819329,,,,,,,,-0.06,0.06,0.99,-3.5,1.1,-0.1,800,14,,,,,,,,,,,,,,,,,,,
51174,1490393819349,,,,,64,,,-0.06,0.05,0.98,-3.4,1.0,-0.3,800,14,1,1,61.538,0,38.159241,-122.454208,0.0,0.0,70.7,7,3,2.0,0,0.0,-1,0.0,0.0,0.0,0
51194,1490393819369,,,,,,,,-0.06,0.05,0.98,-3.4,0.9,-0.3,800,14,,,,,,,,,,,,,,,,,,,
51214,1490393819389,,,,,,,,-0.05,0.06,0.97,-3.4,1.0,-0.1,800,14,,,,,,,,,,,,,,,,,,,
51234,1490393819409,,,,,,,,-0.05,0.06,0.97,-3.3,0.8,-0.1,800,14,,,,,,,,,,,,,,,,,,,
51254,1490393819429,,,,,,,,-0.05,0.06,0.98,-3.3,0.7,-0.2,800,14,,,,,,,,,,,,,,,,,,,
51274,1490393819449,0,50.1,,51.3,66,51.3,,-0.05,0.05,0.98,-3.2,0.5,-0.3,800,14,1,1,61.538,0,38.159241,-122.454208,0.0,0.0,70.7,7,3,2.0,0,0.0,-1,0.0,0.0,0.0,0
51294,1490393819469,,,,,,,,-0.05,0.05,0.98,-3.2,0.4,-0.3,800,14,,,,,,,,,,,,,,,,,,,
51314,1490393819489,,,,,,,,-0.04,0.06,0.98,-3.2,0.5,-0.2,760,14,,,,,,,,,,,,,,,,,,,
51334,1490393819509,,,,,,,,-0.04,0.06,0.98,-3.2,0.3,-0.1,760,14,,,,,,,,,,,,,,,,,,,
51354,1490393819529,,,,,,,,-0.04,0.05,0.98,-3.1,0.2,-0.2,740,14,,,,,,,,,,,,,,,,,,,
51374,1490393819549,,,,,68,,,-0.04,0.05,0.99,-3.1,0.2,-0.3,740,14,1,1,58.462,0,38.159241,-122.454208,0.0,0.0,70.7,7,3,2.0,0,0.0,-1,0.0,0.0,0.0,0
51394,1490393819569,,,,,,,,-0.04,0.06,0.98,-3.1,0.1,-0.2,740,14,,,,,,,,,,,,,,,,,,,
51414,1490393819589,,,,,,,,-0.03,0.06,0.98,-3.1,0.1,-0.2,740,14,,,,,,,,,,,,,,,,,,,
51434,1490393819609,,,,,,,,-0.03,0.06,0.98,-3.1,0.1,-0.2,720,14,,,,,,,,,,,,,,,,,,,
51454,1490393819629,,,,,,,,-0.03,0.05,0.99,-3.1,0.1,-0.2,720,14,,,,,,,,,,,,,,,,,,,
51474,1490393819649,0,52.6,,52.4,67,53.2,,-0.03,0.05,0.98,-3.1,0.0,-0.2,700,14,1,1,56.923,0,38.159241,-122.454208,0.0,0.0,70.7,7,3,2.0,0,0.0,-1,0.0,0.0,0.0,0
51494,1490393819669,,,,,,,,-0.02,0.05,0.98,-3.1,-0.0,-0.2,680,14,,,,,,,,,,,,,,,,,,,
51514,1490393819689,,,,,,,,-0.02,0.05,0.98,-3.1,0.1,-0.2,680,14,,,,,,,,,,,,,,,,,,,
51534,1490393819709,,,,,,,,-0.01,0.06,0.98,-3.1,0.2,-0.2,660,14,,,,,,,,,,,,,,,,,,,
51554,1490393819729,,,,,,,,-0.01,0.05,0.98,-3.1,0.1,-0.3,660,14,,,,,,,,,,,,,,,,,,,
51574,1490393819749,,,,,64,,,-0.01,0.05,0.98,-3.1,0.1,-0.3,660,14,1,1,52.308,0,38.159241,-122.454208,0.0,0.0,70.7,7,3,2.0,0,0.0,-1,0.0,0.0,0.0,0
51594,1490393819769,,,,,,,,-0.0,0.05,0.98,-3.2,0.2,-0.3,640,14,,,,,,,,,,,,,,,,,,,
51614,1490393819789,,,,,,,,0.0,0.05,0.98,-3.2,0.2,-0.3,620,14,,,,,,,,,,,,,,,,,,,
51634,1490393819809,,,,,,,,0.0,0.05,0.98,-3.2,0.3,-0.3,620,14,,,,,,,,,,,,,,,,,,,
51654,1490393819829,,,,,,,,0.01,0.05,0.98,-3.2,0.3,-0.3,580,14,,,,,,,,,,,,,,,,,,,
51674,1490393819849,0,50.4,,52.1,60,52.6,,0.01,0.05,0.98,-3.1,0.3,-0.4,580,14,1,1,49.231,0,38.159241,-122.454208,0.0,0.0,70.7,7,3,2.0,0,0.0,-1,0.0,0.0,0.0,0
51694,1490393819869,,,,,,,,0.01,0.05,0.98,-3.1,0.3,-0.3,540,14,,,,,,,,,,,,,,,,,,,
51714,1490393819889,,,,,,,,0.01,0.05,0.98,-3.1,0.2,-0.4,540,14,,,,,,,,,,,,,,,,,,,
51734,1490393819908,,,,,,,,0.01,0.05,0.98,-3.1,0.2,-0.3,500,14,,,,,,,,,,,,,,,,,,,
51754,1490393819928,,,,,,,,0.01,0.05,0.98,-3.1,0.2,-0.3,500,14,,,,,,,,,,,,,,,,,,,
51774,1490393819948,,,,,57,,,0.02,0.06,0.99,-3.1,0.2,-0.3,480,14,1,1,41.538,0,38.159241,-122.454208,0.0,0.0,70.7,7,3,0.1,0,0.0,-1,0.0,0.0,0.0,0
51794,1490393819968,,,,,,,,0.02,0.05,0.99,-3.1,0.2,-0.3,480,14,,,,,,,,,,,,,,,,,,,
51814,1490393819988,,,,,,,,0.02,0.06,0.99,-3.1,0.2,-0.3,460,14,,,,,,,,,,,,,,,,,,,
51834,1490393820002,,,,,,,,0.02,0.05,0.99,-3.1,0.2,-0.3,460,14,,,,,,,,,,,,,,,,,,,
51854,1490393820022,,,,,,,,0.03,0.05,0.98,-3.1,0.2,-0.2,440,14,,,,,,,,,,,,,,,,,,,
51874,1490393820042,0,51.4,,51.1,53,51.3,,0.03,0.05,0.98,-3.1,0.3,-0.2,440,14,1,1,35.385,0,38.159241,-122.454208,0.0,0.0,70.7,7,3,0.1,0,0.0,-1,0.0,0.0,0.0,0
51894,1490393820062,,,,,,,,0.03,0.05,0.98,-3.1,0.3,-0.2,440,769231,,,,,,,,,,,,,,,,,,,
51914,1490393820082,,,,,,,,0.03,0.06,0.99,-3.1,0.3,-0.2,400,0,,,,,,,,,,,,,,,,,,,
51934,1490393820108,,,,,,,,0.02,0.05,0.98,-3.1,0.3,-0.2,400,0,,,,,,,,,,,,,,,,,,,
51954,1490393820128,,,,,,,,0.03,0.06,0.99,-3.2,0.4,-0.2,360,0,,,,,,,,,,,,,,,,,,,
51974,1490393820148,,,,,53,,,0.03,0.06,0.99,-3.2,0.4,-0.2,360,25,1,1,0.0,0,38.159241,-122.454208,0.0,0.0,70.7,7,3,0.1,0,0.0,-1,0.0,0.0,0.0,0
51994,1490393820168,,,,,,,,0.02,0.06,0.99,-3.2,0.4,-0.2,360,25,,,,,,,,,,,,,,,,,,,
52014,1490393820188,,,,,,,,0.02,0.06,0.99,-3.2,0.4,-0.2,360,25,,,,,,,,,,,,,,,,,,,
52034,1490393820210,,,,,,,,0.02,0.06,0.99,-3.3,0.4,-0.2,360,25,,,,,,,,,,,,,,,,,,,
52054,1490393820230,,,,,,,,0.02,0.06,0.99,-3.2,0.4,-0.2,360,25,,,,,,,,,,,,,,,,,,,
52074,1490393820250,0,51.4,-0.4,52.8,53,53.1,13.42,0.02,0.06,0.99,-3.3,0.5,-0.2,360,25,1,1,15.0,0,38.159241,-122.454208,0.0,0.0,70.7,7,3,0.1,0,0.0,-1,0.0,0.0,0.0,0
52094,1490393820270,,,,,,,,0.02,0.06,0.99,-3.3,0.6,-0.2,360,25,,,,,,,,,,,,,,,,,,,
52114,1490393820290,,,,,,,,0.02,0.06,0.99,-3.2,0.6,-0.2,360,12,,,,,,,,,,,,,,,,,,,
52134,1490393820310,,,,,,,,0.02,0.06,0.99,-3.3,0.6,-0.2,360,12,,,,,,,,,,,,,,,,,,,
52154,1490393820330,,,,,,,,0.01,0.05,0.99,-3.2,0.6,-0.2,360,12,,,,,,,,,,,,,,,,,,,
52174,1490393820350,,,,,53,,,0.01,0.06,0.99,-3.2,0.6,-0.2,380,12,1,1,15.0,0,38.159241,-122.454208,0.0,0.0,70.7,7,3,0.1,0,0.0,-1,0.0,0.0,0.0,0
52194,1490393820370,,,,,,,,0.01,0.06,0.99,-3.3,0.6,-0.2,380,12,,,,,,,,,,,,,,,,,,,
52214,1490393820390,,,,,,,,0.01,0.06,0.99,-3.2,0.6,-0.3,380,12,,,,,,,,,,,,,,,,,,,
52234,1490393820410,,,,,,,,0.01,0.06,0.99,-3.2,0.6,-0.3,360,12,,,,,,,,,,,,,,,,,,,
52254,1490393820430,,,,,,,,0.01,0.05,0.99,-3.2,0.6,-0.3,360,12,,,,,,,,,,,,,,,,,,,
52274,1490393820450,0,51.6,,53.1,55,53.5,,0.01,0.06,0.99,-3.3,0.5,-0.3,380,12,1,1,31.667,0,38.159241,-122.454208,0.0,0.0,70.7,7,3,0.1,0,0.0,-1,0.0,0.0,0.0,0
52294,1490393820470,,,,,,,,0.01,0.05,0.99,-3.3,0.6,-0.2,380,12,,,,,,,,,,,,,,,,,,,
52314,1490393820490,,,,,,,,0.01,0.06,0.99,-3.3,0.5,-0.2,420,12,,,,,,,,,,,,,,,,,,,
52334,1490393820510,,,,,,,,0.01,0.06,0.98,-3.3,0.5,-0.2,420,6,,,,,,,,,,,,,,,,,,,
52354,1490393820530,,,,,,,,0.0,0.05,0.98,-3.2,0.6,-0.4,420,6,,,,,,,,,,,,,,,,,,,
52374,1490393820550,,,,,57,,,0.0,0.06,0.98,-3.3,0.7,-0.3,440,6,1,1,31.667,0,38.159241,-122.454208,0.0,0.0,70.7,7,3,2.0,0,0.0,-1,0.0,0.0,0.0,0
52394,1490393820570,,,,,,,,0.0,0.05,0.98,-3.3,0.5,-0.4,440,6,,,,,,,,,,,,,,,,,,,
52414,1490393820590,,,,,,,,-0.0,0.07,0.98,-3.3,0.5,-0.4,480,6,,,,,,,,,,,,,,,,,,,
52434,1490393820608,,,,,,,,-0.01,0.05,0.98,-3.2,0.5,-0.5,480,6,,,,,,,,,,,,,,,,,,,
52454,1490393820628,,,,,,,,-0.01,0.07,0.98,-3.3,0.5,-0.4,540,14,,,,,,,,,,,,,,,,,,,
52474,1490393820648,0,52.6,,53.1,62,53.4,,-0.01,0.06,0.98,-3.2,0.4,-0.5,560,14,1,1,80.0,0,38.159241,-122.454208,0.0,0.0,70.7,7,3,2.0,0,0.0,-1,0.0,0.0,0.0,0
52494,1490393820668,,,,,,,,-0.01,0.07,0.98,-3.2,0.4,-0.5,560,14,,,,,,,,,,,,,,,,,,,
52514,1490393820688,,,,,,,,-0.0,0.07,0.98,-3.2,0.4,-0.4,580,14,,,,,,,,,,,,,,,,,,,
52534,1490393820710,,,,,,,,-0.01,0.05,0.98,-3.2,0.4,-0.6,580,14,,,,,,,,,,,,,,,,,,,
52554,1490393820730,,,,,,,,-0.01,0.07,0.97,-3.2,0.6,-0.4,600,14,,,,,,,,,,,,,,,,,,,
52574,1490393820750,,,,,64,,,-0.0,0.07,0.97,-3.2,0.8,-0.3,660,12,1,1,44.615,0,38.159241,-122.454208,0.0,0.0,70.7,7,3,2.0,0,0.0,-1,0.0,0.0,0.0,0
52594,1490393820770,,,,,,,,-0.01,0.05,0.98,-3.2,0.8,-0.4,660,12,,,,,,,,,,,,,,,,,,,
52614,1490393820790,,,,,,,,0.0,0.06,0.98,-3.3,0.9,-0.2,700,12,,,,,,,,,,,,,,,,,,,
52634,1490393820810,,,,,,,,0.01,0.07,0.98,-3.3,0.8,-0.2,680,12,,,,,,,,,,,,,,,,,,,
52654,1490393820830,,,,,,,,0.0,0.06,0.98,-3.2,0.9,-0.3,740,12,,,,,,,,,,,,,,,,,,,
52674,1490393820850,0,52.6,,53.3,64,51.7,,0.01,0.06,0.99,-3.2,0.8,-0.3,740,15,1,1,58.333,0,38.159241,-122.454208,0.0,0.0,70.7,7,3,2.0,0,0.0,-1,0.0,0.0,0.0,0
52694,1490393820870,,,,,,,,0.02,0.07,0.99,-3.3,0.9,-0.2,740,15,,,,,,,,,,,,,,,,,,,
52714,1490393820890,,,,,,,,0.03,0.07,0.98,-3.3,0.8,-0.1,760,15,,,,,,,,,,,,,,,,,,,
52734,1490393820909,,,,,,,,0.02,0.08,0.98,-3.2,0.9,-0.2,780,15,,,,,,,,,,,,,,,,,,,
52754,1490393820929,,,,,,,,0.01,0.07,0.99,-3.2,0.9,-0.4,800,18,,,,,,,,,,,,,,,,,,,
52774,1490393820949,,,,,64,,,0.02,0.05,0.98,-3.2,0.9,-0.4,800,18,1,1,50.667,0,38.159241,-122.454208,0.0,0.0,70.7,7,3,2.0,0,0.0,-1,0.0,0.0,0.0,0
52794,1490393820969,,,,,,,,0.03,0.07,0.97,-3.3,0.9,-0.1,820,18,,,,,,,,,,,,,,,,,,,
52814,1490393820989,,,,,,,,0.04,0.07,0.97,-3.3,0.8,0.0,800,23,,,,,,,,,,,,,,,,,,,
52834,1490393821003,,,,,,,,0.04,0.08,0.98,-3.3,0.8,-0.1,820,23,,,,,,,,,,,,,,,,,,,
52854,1490393821023,,,,,,,,0.03,0.07,0.99,-3.3,0.7,-0.4,820,23,,,,,,,,,,,,,,,,,,,
52874,1490393821043,1,51.7,,51.1,66,51.4,,0.03,0.06,0.99,-3.3,0.6,-0.5,840,23,1,1,34.783,0,38.159241,-122.454208,0.0,0.0,70.7,7,3,2.0,0,0.0,-1,0.0,0.0,0.0,0
52894,1490393821063,,,,,,,,0.03,0.05,0.98,-3.3,0.7,-0.3,840,23,,,,,,,,,,,,,,,,,,,
52914,1490393821083,,,,,,,,0.04,0.06,0.97,-3.4,0.8,-0.1,880,23,,,,,,,,,,,,,,,,,,,
52934,1490393821109,,,,,,,,0.04,0.06,0.97,-3.4,0.7,-0.1,880,23,,,,,,,,,,,,,,,,,,,
52954,1490393821129,,,,,,,,0.03,0.07,0.97,-3.4,0.7,-0.2,880,23,,,,,,,,,,,,,,,,,,,
52974,1490393821149,,,,,66,,,0.03,0.07,0.97,-3.4,0.8,-0.3,880,23,1,1,38.261,0,38.159241,-122.454208,0.0,0.0,70.7,7,3,2.0,0,0.0,-1,0.0,0.0,0.0,0
52994,1490393821169,,,,,,,,0.03,0.06,0.97,-3.4,0.8,-0.4,880,23,,,,,,,,,,,,,,,,,,,
53014,1490393821189,,,,,,,,0.02,0.06,0.97,-3.4,0.7,-0.4,900,23,,,,,,,,,,,,,,,,,,,
53034,1490393821209,,,,,,,,0.02,0.05,0.96,-3.4,0.7,-0.4,900,23,,,,,,,,,,,,,,,,,,,
