"Interval"|"ms"|0|0|1,"Utc"|"ms"|0|0|1,"FuelLevel"|"F"|0|100|5,"OilTemp"|"F"|0.0|300.0|5,"CoolantPressPSI"|"PSI"|0.0|20.0|1,"Coolant"|"F"|0.0|300.0|5,"OilPress"|"PSI"|0|150|10,"EngineTemp"|"F"|0.0|300.0|5,"Battery"|"Volts"|0.0|20.0|1,"AccelX"|"G"|-3.0|3.0|50,"AccelY"|"G"|-3.0|3.0|50,"AccelZ"|"G"|-3.0|3.0|50,"Yaw"|"Deg/Sec"|-300.0|300.0|50,"Pitch"|"Deg/Sec"|-300.0|300.0|50,"Roll"|"Deg/Sec"|-300.0|300.0|50,"RPM"|""|0|10000|50,"Driveshaft"|"RPM"|0|5000|50,"GPIO1"|""|0|1|10,"GPIO2"|""|0|1|10,"GearRatio"|""|-5.0|5.0|10,"Gear"|""|-1|5|10,"Latitude"|"Degrees"|-180.0|180.0|10,"Longitude"|"Degrees"|-180.0|180.0|10,"Speed"|"mph"|0.0|150.0|10,"Distance"|"mi"|0.0|0.0|10,"Altitude"|"ft"|0.0|4000.0|10,"GPSSats"|""|0|20|10,"GPSQual"|""|0|5|10,"GPSDOP"|""|0.0|20.0|10,"LapCount"|""|0|0|10,"LapTime"|"Min"|0.0|0.0|10,"Sector"|""|0|0|10,"SectorTime"|"Min"|0.0|0.0|10,"PredTime"|"Min"|0.0|0.0|10,"ElapsedTime"|"Min"|0.0|0.0|10,"CurrentLap"|""|0|0|10
18354,1490395425152,,,,,,,,-0.01,0.07,0.98,-3.1,-0.1,-0.3,60,0,,,,,,,,,,,,,,,,,,,
18374,1490395425172,,,,,1,,,-0.0,0.08,0.99,-3.1,-0.1,-0.3,60,0,1,1,0.0,0,38.159363,-122.454186,0.0,0.0,55.6,7,2,2.0,0,0.0,-1,0.0,0.0,0.0,0
18394,1490395425192,,,,,,,,-0.0,0.08,0.99,-3.1,-0.1,-0.3,240,0,,,,,,,,,,,,,,,,,,,
18414,1490395425212,,,,,,,,-0.0,0.07,0.99,-3.1,0.0,-0.3,240,0,,,,,,,,,,,,,,,,,,,
18434,1490395425232,,,,,,,,0.0,0.08,0.99,-3.1,0.0,-0.3,240,0,,,,,,,,,,,,,,,,,,,
18454,1490395425252,,,,,,,,-0.0,0.07,0.99,-3.1,0.0,-0.3,340,0,,,,,,,,,,,,,,,,,,,
18474,1490395425272,0,63.6,,76.1,1,67.8,,-0.0,0.07,0.99,-3.1,-0.0,-0.2,340,0,1,1,0.0,0,38.159363,-122.454186,0.0,0.0,55.6,7,2,2.0,0,0.0,-1,0.0,0.0,0.0,0
18494,1490395425292,,,,,,,,0.0,0.08,0.99,-3.1,0.0,-0.3,340,0,,,,,,,,,,,,,,,,,,,
18514,1490395425312,,,,,,,,0.0,0.08,0.99,-3.1,0.0,-0.4,320,0,,,,,,,,,,,,,,,,,,,
18534,1490395425332,,,,,,,,-0.0,0.08,0.99,-3.1,0.0,-0.3,320,0,,,,,,,,,,,,,,,,,,,
18554,1490395425352,,,,,,,,-0.0,0.08,0.99,-3.1,0.0,-0.3,320,0,,,,,,,,,,,,,,,,,,,
18574,1490395425372,,,,,1,,,-0.0,0.07,0.99,-3.1,0.0,-0.5,260,0,1,0,0.0,0,38.159363,-122.454186,0.0,0.0,55.6,7,2,2.0,0,0.0,-1,0.0,0.0,0.0,0
18594,1490395425392,,,,,,,,-0.01,0.07,0.98,-3.1,0.2,-0.3,260,0,,,,,,,,,,,,,,,,,,,
18614,1490395425412,,,,,,,,-0.0,0.04,0.97,-3.1,0.3,-0.3,260,0,,,,,,,,,,,,,,,,,,,
18634,1490395425432,,,,,,,,0.0,0.06,0.99,-3.1,0.4,-0.3,420,0,,,,,,,,,,,,,,,,,,,
18654,1490395425452,,,,,,,,-0.01,0.05,0.98,-3.1,0.2,-0.4,620,0,,,,,,,,,,,,,,,,,,,
18674,1490395425472,0,60.7,,71.9,2,65.8,,-0.0,0.05,0.98,-3.1,0.2,-0.4,620,0,1,0,0.0,0,38.159363,-122.454186,0.0,0.0,55.6,7,2,2.0,0,0.0,-1,0.0,0.0,0.0,0
18694,1490395425491,,,,,,,,0.0,0.06,0.99,-3.1,0.3,-0.4,720,0,,,,,,,,,,,,,,,,,,,
18714,1490395425511,,,,,,,,0.01,0.07,0.98,-3.1,0.3,-0.3,760,0,,,,,,,,,,,,,,,,,,,
18734,1490395425531,,,,,,,,0.0,0.08,1.0,-3.2,0.2,-0.2,760,0,,,,,,,,,,,,,,,,,,,
18754,1490395425551,,,,,,,,0.0,0.09,1.0,-3.1,0.2,-0.3,760,0,,,,,,,,,,,,,,,,,,,
18774,1490395425571,,,,,3,,,0.0,0.08,0.99,-3.2,0.1,-0.4,740,0,1,0,0.0,0,38.159363,-122.454186,0.0,0.0,55.6,7,2,2.0,0,0.0,-1,0.0,0.0,0.0,0
18794,1490395425591,,,,,,,,0.0,0.08,0.99,-3.1,0.2,-0.4,740,0,,,,,,,,,,,,,,,,,,,
18814,1490395425611,,,,,,,,-0.0,0.07,1.0,-3.1,0.1,-0.4,760,0,,,,,,,,,,,,,,,,,,,
18834,1490395425631,,,,,,,,-0.01,0.07,0.99,-3.1,0.1,-0.5,820,0,,,,,,,,,,,,,,,,,,,
18854,1490395425651,,,,,,,,-0.01,0.06,0.99,-3.1,0.1,-0.6,820,0,,,,,,,,,,,,,,,,,,,
18874,1490395425671,0,63.6,,71.8,4,67.1,,-0.01,0.07,0.99,-3.1,0.1,-0.5,740,0,1,0,0.0,0,38.159363,-122.454186,0.0,0.0,55.6,7,2,2.0,0,0.0,-1,0.0,0.0,0.0,0
18894,1490395425693,,,,,,,,-0.01,0.07,0.98,-3.1,0.1,-0.4,680,0,,,,,,,,,,,,,,,,,,,
18914,1490395425713,,,,,,,,-0.01,0.07,0.98,-3.1,0.1,-0.3,680,0,,,,,,,,,,,,,,,,,,,
18934,1490395425733,,,,,,,,-0.01,0.07,0.98,-3.1,0.1,-0.3,700,0,,,,,,,,,,,,,,,,,,,
18954,1490395425753,,,,,,,,-0.0,0.08,0.98,-3.1,0.0,-0.3,700,0,,,,,,,,,,,,,,,,,,,
18974,1490395425773,,,,,5,,,-0.01,0.07,0.97,-3.1,-0.1,-0.4,740,0,1,1,0.0,0,38.159363,-122.454186,0.0,0.0,55.6,7,2,2.0,0,0.0,-1,0.0,0.0,0.0,0
18994,1490395425793,,,,,,,,-0.01,0.07,0.97,-3.1,0.0,-0.4,740,0,,,,,,,,,,,,,,,,,,,
19014,1490395425813,,,,,,,,-0.0,0.08,0.97,-3.2,0.1,-0.3,780,0,,,,,,,,,,,,,,,,,,,
19034,1490395425833,,,,,,,,-0.0,0.07,0.98,-3.2,0.1,-0.2,800,0,,,,,,,,,,,,,,,,,,,
19054,1490395425853,,,,,,,,-0.0,0.08,0.99,-3.2,0.1,-0.2,840,0,,,,,,,,,,,,,,,,,,,
19074,1490395425873,0,63.9,0.1,75.4,6,69.5,14.87,-0.0,0.08,0.99,-3.1,0.1,-0.3,840,0,1,1,0.0,0,38.159363,-122.454186,0.0,0.0,55.6,7,2,2.0,0,0.0,-1,0.0,0.0,0.0,0
19094,1490395425893,,,,,,,,-0.0,0.07,0.99,-3.1,-0.0,-0.3,860,0,,,,,,,,,,,,,,,,,,,
19114,1490395425913,,,,,,,,0.0,0.07,0.98,-3.2,0.1,-0.3,860,0,,,,,,,,,,,,,,,,,,,
19134,1490395425933,,,,,,,,0.0,0.08,0.98,-3.1,0.0,-0.3,880,0,,,,,,,,,,,,,,,,,,,
19154,1490395425953,,,,,,,,0.0,0.07,0.99,-3.1,0.0,-0.3,900,0,,,,,,,,,,,,,,,,,,,
19174,1490395425973,,,,,8,,,0.0,0.08,0.99,-3.2,0.2,-0.3,900,0,1,1,0.0,0,38.159363,-122.454186,0.0,0.0,55.6,7,2,2.0,0,0.0,-1,0.0,0.0,0.0,0
19194,1490395425993,,,,,,,,0.01,0.08,0.99,-3.1,0.1,-0.3,920,0,,,,,,,,,,,,,,,,,,,
19214,1490395426007,,,,,,,,0.0,0.08,1.0,-3.1,-0.1,-0.3,920,0,,,,,,,,,,,,,,,,,,,
19234,1490395426027,,,,,,,,-0.01,0.08,0.99,-3.1,-0.1,-0.4,940,0,,,,,,,,,,,,,,,,,,,
19254,1490395426047,,,,,,,,-0.01,0.08,0.98,-3.1,0.1,-0.5,960,0,,,,,,,,,,,,,,,,,,,
19274,1490395426067,0,64.6,,75.0,11,68.9,,-0.01,0.07,0.99,-3.1,-0.0,-0.5,960,0,1,1,0.0,0,38.159355,-122.454193,0.0,0.0,69.1,8,2,1.7,0,0.0,-1,0.0,0.0,0.0,0
19294,1490395426093,,,,,,,,-0.02,0.07,0.98,-3.1,-0.1,-0.5,980,0,,,,,,,,,,,,,,,,,,,
19314,1490395426113,,,,,,,,-0.02,0.06,0.99,-3.1,-0.0,-0.6,1000,0,,,,,,,,,,,,,,,,,,,
19334,1490395426133,,,,,,,,-0.02,0.06,0.98,-3.1,0.0,-0.6,1020,0,,,,,,,,,,,,,,,,,,,
19354,1490395426153,,,,,,,,-0.03,0.05,0.98,-3.1,0.1,-0.6,1020,0,,,,,,,,,,,,,,,,,,,
19374,1490395426173,,,,,14,,,-0.03,0.06,0.98,-3.1,0.1,-0.6,1020,0,1,1,0.0,0,38.159355,-122.454193,0.0,0.0,69.1,8,2,1.7,0,0.0,-1,0.0,0.0,0.0,0
19394,1490395426193,,,,,,,,-0.03,0.06,0.98,-3.1,0.1,-0.5,1040,0,,,,,,,,,,,,,,,,,,,
19414,1490395426213,,,,,,,,-0.03,0.06,0.98,-3.1,0.1,-0.5,1040,0,,,,,,,,,,,,,,,,,,,
19434,1490395426233,,,,,,,,-0.02,0.07,0.98,-3.1,0.1,-0.5,1040,0,,,,,,,,,,,,,,,,,,,
19454,1490395426253,,,,,,,,-0.02,0.06,0.98,-3.1,0.0,-0.5,1060,0,,,,,,,,,,,,,,,,,,,
19474,1490395426273,0,64.3,,75.4,19,69.4,,-0.03,0.07,0.98,-3.1,-0.1,-0.5,1040,0,1,1,0.0,0,38.159355,-122.454193,0.0,0.0,69.1,8,2,1.7,0,0.0,-1,0.0,0.0,0.0,0
19494,1490395426293,,,,,,,,-0.03,0.07,0.98,-3.1,-0.2,-0.5,1040,0,,,,,,,,,,,,,,,,,,,
19514,1490395426313,,,,,,,,-0.03,0.07,0.99,-3.1,-0.2,-0.4,1040,0,,,,,,,,,,,,,,,,,,,
19534,1490395426333,,,,,,,,-0.02,0.08,0.99,-3.1,-0.3,-0.4,1040,0,,,,,,,,,,,,,,,,,,,
19554,1490395426353,,,,,,,,-0.01,0.08,0.99,-3.1,-0.3,-0.3,1020,0,,,,,,,,,,,,,,,,,,,
19574,1490395426373,,,,,23,,,-0.01,0.08,0.99,-3.1,-0.2,-0.3,1000,0,1,1,0.0,0,38.159355,-122.454193,0.0,0.0,69.1,8,2,1.7,0,0.0,-1,0.0,0.0,0.0,0
19594,1490395426393,,,,,,,,-0.01,0.08,0.99,-3.1,-0.2,-0.3,1000,0,,,,,,,,,,,,,,,,,,,
19614,1490395426413,,,,,,,,-0.01,0.08,0.99,-3.1,-0.1,-0.4,980,0,,,,,,,,,,,,,,,,,,,
19634,1490395426433,,,,,,,,-0.0,0.08,0.99,-3.1,-0.1,-0.3,980,0,,,,,,,,,,,,,,,,,,,
19654,1490395426453,,,,,,,,0.0,0.08,0.99,-3.1,-0.1,-0.3,980,0,,,,,,,,,,,,,,,,,,,
19674,1490395426473,0,63.9,,75.3,30,69.2,,0.0,0.09,0.99,-3.1,-0.0,-0.3,980,0,1,1,0.0,0,38.159355,-122.454193,0.0,0.0,69.1,8,2,1.7,0,0.0,-1,0.0,0.0,0.0,0
19694,1490395426492,,,,,,,,0.01,0.08,0.99,-3.1,0.0,-0.3,960,0,,,,,,,,,,,,,,,,,,,
19714,1490395426512,,,,,,,,0.01,0.09,1.0,-3.1,0.1,-0.3,960,0,,,,,,,,,,,,,,,,,,,
19734,1490395426532,,,,,,,,0.01,0.09,1.0,-3.1,0.1,-0.3,960,0,,,,,,,,,,,,,,,,,,,
19754,1490395426552,,,,,,,,0.01,0.09,1.0,-3.1,0.1,-0.2,940,0,,,,,,,,,,,,,,,,,,,
19774,1490395426572,,,,,38,,,0.01,0.09,1.0,-3.1,0.1,-0.2,940,0,1,1,0.0,0,38.159355,-122.454193,0.0,0.0,69.1,8,2,1.7,0,0.0,-1,0.0,0.0,0.0,0
19794,1490395426592,,,,,,,,0.01,0.09,1.0,-3.1,0.1,-0.3,940,0,,,,,,,,,,,,,,,,,,,
19814,1490395426612,,,,,,,,0.01,0.09,1.0,-3.1,0.0,-0.3,940,0,,,,,,,,,,,,,,,,,,,
19834,1490395426632,,,,,,,,0.01,0.09,1.0,-3.1,-0.0,-0.3,920,0,,,,,,,,,,,,,,,,,,,
19854,1490395426652,,,,,,,,0.01,0.09,1.0,-3.1,-0.0,-0.3,900,0,,,,,,,,,,,,,,,,,,,
19874,1490395426672,0,64.5,,75.5,47,69.5,,0.0,0.09,1.0,-3.1,-0.1,-0.4,900,0,1,1,0.0,0,38.159355,-122.454193,0.0,0.0,69.1,8,2,1.7,0,0.0,-1,0.0,0.0,0.0,0
19894,1490395426692,,,,,,,,-0.0,0.08,0.99,-3.1,-0.1,-0.4,900,0,,,,,,,,,,,,,,,,,,,
19914,1490395426712,,,,,,,,-0.0,0.07,1.0,-3.1,-0.1,-0.5,900,0,,,,,,,,,,,,,,,,,,,
19934,1490395426732,,,,,,,,-0.01,0.07,0.99,-3.1,0.0,-0.5,900,0,,,,,,,,,,,,,,,,,,,
19954,1490395426752,,,,,,,,-0.0,0.07,0.99,-3.1,0.0,-0.4,880,0,,,,,,,,,,,,,,,,,,,
19974,1490395426772,,,,,52,,,0.0,0.07,0.99,-3.1,0.0,-0.3,880,0,1,1,0.0,0,38.159355,-122.454193,0.0,0.0,69.1,8,2,1.7,0,0.0,-1,0.0,0.0,0.0,0
19994,1490395426792,,,,,,,,0.01,0.07,1.0,-3.1,0.1,-0.2,880,0,,,,,,,,,,,,,,,,,,,
20014,1490395426812,,,,,,,,0.01,0.08,1.0,-3.1,0.1,-0.1,880,0,,,,,,,,,,,,,,,,,,,
20034,1490395426832,,,,,,,,0.01,0.09,1.0,-3.1,-0.0,-0.1,880,0,,,,,,,,,,,,,,,,,,,
20054,1490395426852,,,,,,,,0.01,0.09,1.0,-3.1,-0.1,-0.2,880,0,,,,,,,,,,,,,,,,,,,
20074,1490395426872,0,63.1,0.2,75.0,54,68.6,14.86,0.01,0.09,1.0,-3.1,-0.1,-0.3,880,0,1,1,0.0,0,38.159355,-122.454193,0.0,0.0,69.1,8,2,1.7,0,0.0,-1,0.0,0.0,0.0,0
20094,1490395426892,,,,,,,,0.01,0.09,0.99,-3.1,-0.1,-0.4,860,0,,,,,,,,,,,,,,,,,,,
20114,1490395426912,,,,,,,,0.0,0.08,0.99,-3.1,-0.0,-0.4,840,0,,,,,,,,,,,,,,,,,,,
20134,1490395426932,,,,,,,,0.01,0.09,0.99,-3.1,-0.1,-0.3,840,0,,,,,,,,,,,,,,,,,,,
20154,1490395426952,,,,,,,,0.01,0.08,0.99,-3.1,-0.1,-0.2,840,0,,,,,,,,,,,,,,,,,,,
20174,1490395426972,,,,,58,,,0.01,0.09,0.99,-3.1,-0.1,-0.2,840,0,1,1,0.0,0,38.159355,-122.454193,0.0,0.0,69.1,8,2,1.7,0,0.0,-1,0.0,0.0,0.0,0
20194,1490395426992,,,,,,,,0.01,0.09,0.99,-3.1,-0.0,-0.2,840,0,,,,,,,,,,,,,,,,,,,
20214,1490395427006,,,,,,,,0.01,0.09,0.99,-3.1,-0.1,-0.3,840,0,,,,,,,,,,,,,,,,,,,
20234,1490395427026,,,,,,,,0.0,0.08,0.99,-3.1,-0.2,-0.4,840,0,,,,,,,,,,,,,,,,,,,
20254,1490395427046,,,,,,,,0.0,0.07,0.99,-3.0,0.0,-0.3,840,0,,,,,,,,,,,,,,,,,,,
20274,1490395427066,0,64.2,,74.2,63,68.3,,0.0,0.08,0.98,-3.1,-0.0,-0.3,840,0,1,1,0.0,0,38.159355,-122.454193,0.0,0.0,69.1,8,2,1.7,0,0.0,-1,0.0,0.0,0.0,0
20294,1490395427092,,,,,,,,0.01,0.08,0.99,-3.1,-0.0,-0.2,840,0,,,,,,,,,,,,,,,,,,,
20314,1490395427112,,,,,,,,0.01,0.09,0.99,-3.1,-0.0,-0.1,860,0,,,,,,,,,,,,,,,,,,,
20334,1490395427132,,,,,,,,0.01,0.09,0.99,-3.1,-0.0,-0.1,860,0,,,,,,,,,,,,,,,,,,,
20354,1490395427152,,,,,,,,0.01,0.09,0.99,-3.1,-0.0,-0.2,860,0,,,,,,,,,,,,,,,,,,,
20374,1490395427172,,,,,64,,,0.0,0.09,0.99,-3.1,-0.1,-0.3,840,0,1,1,0.0,0,38.159355,-122.454193,0.0,0.0,69.1,8,2,1.7,0,0.0,-1,0.0,0.0,0.0,0
20394,1490395427192,,,,,,,,0.0,0.08,0.99,-3.1,-0.0,-0.3,860,0,,,,,,,,,,,,,,,,,,,
20414,1490395427208,,,,,,,,0.01,0.08,0.99,-3.1,-0.1,-0.3,860,0,,,,,,,,,,,,,,,,,,,
20434,1490395427228,,,,,,,,0.01,0.08,0.99,-3.1,-0.1,-0.2,860,0,,,,,,,,,,,,,,,,,,,
20454,1490395427248,,,,,,,,0.01,0.09,0.99,-3.1,0.0,-0.1,860,0,,,,,,,,,,,,,,,,,,,
20474,1490395427268,0,61.3,,73.6,61,66.8,,0.01,0.09,0.99,-3.1,-0.0,-0.1,880,0,1,1,0.0,0,38.159355,-122.454193,0.0,0.0,69.1,8,2,1.7,0,0.0,-1,0.0,0.0,0.0,0
20494,1490395427292,,,,,,,,0.01,0.09,0.99,-3.1,-0.0,-0.2,880,0,,,,,,,,,,,,,,,,,,,
20514,1490395427312,,,,,,,,0.0,0.08,0.99,-3.1,-0.1,-0.3,860,0,,,,,,,,,,,,,,,,,,,
20534,1490395427332,,,,,,,,0.0,0.07,0.99,-3.0,-0.1,-0.4,880,0,,,,,,,,,,,,,,,,,,,
20554,1490395427352,,,,,,,,0.0,0.07,0.99,-3.0,0.1,-0.5,880,0,,,,,,,,,,,,,,,,,,,
20574,1490395427372,,,,,65,,,0.01,0.07,0.99,-3.0,0.0,-0.4,880,0,1,1,0.0,0,38.159355,-122.454193,0.0,0.0,69.1,8,2,1.7,0,0.0,-1,0.0,0.0,0.0,0
20594,1490395427392,,,,,,,,0.01,0.07,0.99,-3.1,0.0,-0.3,880,0,,,,,,,,,,,,,,,,,,,
20614,1490395427412,,,,,,,,0.01,0.08,0.99,-3.1,0.1,-0.2,880,0,,,,,,,,,,,,,,,,,,,
20634,1490395427432,,,,,,,,0.01,0.08,0.99,-3.1,0.1,-0.1,880,0,,,,,,,,,,,,,,,,,,,
20654,1490395427452,,,,,,,,0.01,0.08,1.0,-3.1,0.1,-0.2,880,0,,,,,,,,,,,,,,,,,,,
20674,1490395427472,0,61.9,,72.4,64,65.7,,0.01,0.09,1.0,-3.1,0.1,-0.2,880,0,1,1,0.0,0,38.159355,-122.454193,0.0,0.0,69.1,8,2,1.7,0,0.0,-1,0.0,0.0,0.0,0
20694,1490395427491,,,,,,,,0.0,0.09,0.99,-3.1,-0.1,-0.4,880,0,,,,,,,,,,,,,,,,,,,
20714,1490395427511,,,,,,,,-0.0,0.07,0.99,-3.0,-0.0,-0.4,880,0,,,,,,,,,,,,,,,,,,,
20734,1490395427531,,,,,,,,-0.0,0.06,0.99,-3.0,0.1,-0.4,900,0,,,,,,,,,,,,,,,,,,,
20754,1490395427551,,,,,,,,-0.0,0.06,0.99,-3.0,0.1,-0.4,900,0,,,,,,,,,,,,,,,,,,,
20774,1490395427571,,,,,63,,,-0.0,0.07,0.99,-3.1,0.1,-0.2,900,0,1,1,0.0,0,38.159355,-122.454193,0.0,0.0,69.1,8,2,1.7,0,0.0,-1,0.0,0.0,0.0,0
20794,1490395427591,,,,,,,,0.0,0.07,0.99,-3.1,0.1,-0.2,900,0,,,,,,,,,,,,,,,,,,,
20814,1490395427611,,,,,,,,0.01,0.08,0.99,-3.1,0.2,-0.1,900,0,,,,,,,,,,,,,,,,,,,
20834,1490395427631,,,,,,,,0.01,0.08,0.99,-3.1,0.1,-0.1,900,0,,,,,,,,,,,,,,,,,,,
20854,1490395427651,,,,,,,,0.01,0.09,0.99,-3.1,0.1,-0.2,900,0,,,,,,,,,,,,,,,,,,,
20874,1490395427671,0,61.5,,72.6,62,68.3,,0.01,0.09,0.99,-3.1,0.1,-0.3,900,0,1,1,0.0,0,38.159355,-122.454193,0.0,0.0,69.1,8,2,1.7,0,0.0,-1,0.0,0.0,0.0,0
20894,1490395427693,,,,,,,,0.0,0.09,0.99,-3.1,0.1,-0.4,900,0,,,,,,,,,,,,,,,,,,,
20914,1490395427713,,,,,,,,0.0,0.08,0.99,-3.1,0.1,-0.5,900,0,,,,,,,,,,,,,,,,,,,
20934,1490395427733,,,,,,,,-0.0,0.07,0.99,-3.1,0.1,-0.5,900,0,,,,,,,,,,,,,,,,,,,
20954,1490395427753,,,,,,,,-0.0,0.06,0.99,-3.1,0.1,-0.5,900,0,,,,,,,,,,,,,,,,,,,
20974,1490395427773,,,,,65,,,0.0,0.06,0.99,-3.1,0.1,-0.4,900,0,1,1,0.0,0,38.159355,-122.454193,0.0,0.0,69.1,8,2,1.7,0,0.0,-1,0.0,0.0,0.0,0
20994,1490395427793,,,,,,,,0.0,0.06,0.98,-3.1,0.1,-0.3,920,0,,,,,,,,,,,,,,,,,,,
21014,1490395427813,,,,,,,,0.01,0.07,0.99,-3.1,0.2,-0.2,920,0,,,,,,,,,,,,,,,,,,,
21034,1490395427833,,,,,,,,0.01,0.08,0.99,-3.1,0.2,-0.1,920,0,,,,,,,,,,,,,,,,,,,
21054,1490395427853,,,,,,,,0.02,0.09,0.99,-3.1,0.2,-0.1,900,0,,,,,,,,,,,,,,,,,,,
21074,1490395427873,0,62.7,-0.2,72.4,65,66.8,14.93,0.02,0.09,0.99,-3.1,0.1,-0.1,920,0,1,1,0.0,0,38.159355,-122.454193,0.0,0.0,69.1,8,2,1.7,0,0.0,-1,0.0,0.0,0.0,0
21094,1490395427893,,,,,,,,0.01,0.09,0.99,-3.1,0.0,-0.2,920,0,,,,,,,,,,,,,,,,,,,
21114,1490395427913,,,,,,,,0.01,0.09,1.0,-3.1,0.1,-0.3,920,0,,,,,,,,,,,,,,,,,,,
21134,1490395427933,,,,,,,,0.0,0.09,0.99,-3.1,0.0,-0.4,920,0,,,,,,,,,,,,,,,,,,,
21154,1490395427953,,,,,,,,-0.0,0.09,0.98,-3.1,-0.1,-0.4,920,0,,,,,,,,,,,,,,,,,,,
21174,1490395427973,,,,,63,,,-0.01,0.07,0.99,-3.0,-0.0,-0.5,920,0,1,1,0.0,0,38.159355,-122.454193,0.0,0.0,69.1,8,2,1.7,0,0.0,-1,0.0,0.0,0.0,0
21194,1490395427993,,,,,,,,-0.01,0.06,0.99,-3.1,0.1,-0.5,920,0,,,,,,,,,,,,,,,,,,,
21214,1490395428007,,,,,,,,-0.01,0.05,0.99,-3.0,0.1,-0.4,920,0,,,,,,,,,,,,,,,,,,,
21234,1490395428027,,,,,,,,-0.0,0.05,0.98,-3.1,0.1,-0.3,920,0,,,,,,,,,,,,,,,,,,,
21254,1490395428047,,,,,,,,-0.0,0.06,0.98,-3.1,0.1,-0.2,920,0,,,,,,,,,,,,,,,,,,,
21274,1490395428067,0,61.3,,72.7,61,68.2,,0.01,0.06,0.98,-3.1,0.2,-0.2,920,0,1,1,0.0,0,38.159355,-122.454193,0.0,0.0,69.1,8,2,1.7,0,0.0,-1,0.0,0.0,0.0,0
21294,1490395428093,,,,,,,,0.01,0.07,0.99,-3.1,0.2,-0.1,920,0,,,,,,,,,,,,,,,,,,,
21314,1490395428113,,,,,,,,0.02,0.08,0.99,-3.1,0.2,-0.1,920,0,,,,,,,,,,,,,,,,,,,
21334,1490395428133,,,,,,,,0.02,0.09,0.99,-3.1,0.1,-0.1,920,0,,,,,,,,,,,,,,,,,,,
21354,1490395428153,,,,,,,,0.02,0.09,0.99,-3.1,0.0,-0.2,920,0,,,,,,,,,,,,,,,,,,,
21374,1490395428173,,,,,63,,,0.01,0.09,1.0,-3.1,0.0,-0.3,920,0,1,1,0.0,0,38.159355,-122.454193,0.0,0.0,69.1,8,2,1.7,0,0.0,-1,0.0,0.0,0.0,0
21394,1490395428193,,,,,,,,0.01,0.09,1.0,-3.1,0.1,-0.3,920,0,,,,,,,,,,,,,,,,,,,
21414,1490395428213,,,,,,,,0.0,0.09,1.0,-3.0,0.0,-0.4,920,0,,,,,,,,,,,,,,,,,,,
21434,1490395428233,,,,,,,,-0.0,0.09,0.99,-3.0,-0.1,-0.5,920,0,,,,,,,,,,,,,,,,,,,
21454,1490395428253,,,,,,,,-0.01,0.08,0.99,-3.0,-0.0,-0.5,920,0,,,,,,,,,,,,,,,,,,,
21474,1490395428273,0,63.9,,75.5,63,68.9,,-0.01,0.06,0.99,-3.0,0.0,-0.5,920,0,1,1,0.0,0,38.159355,-122.454193,0.0,0.0,69.1,8,2,1.7,0,0.0,-1,0.0,0.0,0.0,0
21494,1490395428293,,,,,,,,-0.01,0.05,0.99,-3.0,0.1,-0.5,920,0,,,,,,,,,,,,,,,,,,,
21514,1490395428313,,,,,,,,-0.0,0.05,0.98,-3.0,0.2,-0.4,920,0,,,,,,,,,,,,,,,,,,,
21534,1490395428333,,,,,,,,0.0,0.06,0.98,-3.1,0.2,-0.3,920,0,,,,,,,,,,,,,,,,,,,
21554,1490395428353,,,,,,,,0.0,0.06,0.98,-3.1,0.2,-0.2,920,0,,,,,,,,,,,,,,,,,,,
21574,1490395428373,,,,,63,,,0.01,0.07,0.98,-3.1,0.2,-0.2,900,0,1,1,0.0,0,38.159355,-122.454193,0.0,0.0,69.1,8,2,1.7,0,0.0,-1,0.0,0.0,0.0,0
21594,1490395428393,,,,,,,,0.01,0.08,0.99,-3.1,0.3,-0.1,920,0,,,,,,,,,,,,,,,,,,,
21614,1490395428413,,,,,,,,0.02,0.08,0.99,-3.1,0.1,-0.1,920,0,,,,,,,,,,,,,,,,,,,
21634,1490395428433,,,,,,,,0.01,0.09,0.99,-3.1,-0.0,-0.2,920,0,,,,,,,,,,,,,,,,,,,
21654,1490395428453,,,,,,,,0.01,0.09,0.99,-3.1,-0.0,-0.2,920,0,,,,,,,,,,,,,,,,,,,
21674,1490395428473,0,64.6,,75.0,62,66.0,,0.01,0.09,1.0,-3.1,0.0,-0.3,920,0,1,1,0.0,0,38.159355,-122.454193,0.0,0.0,69.1,8,2,1.7,0,0.0,-1,0.0,0.0,0.0,0
21694,1490395428492,,,,,,,,0.0,0.09,0.99,-3.1,-0.0,-0.4,900,0,,,,,,,,,,,,,,,,,,,
21714,1490395428512,,,,,,,,-0.0,0.08,0.99,-3.1,0.0,-0.4,900,0,,,,,,,,,,,,,,,,,,,
21734,1490395428532,,,,,,,,-0.01,0.07,0.99,-3.1,0.1,-0.4,900,0,,,,,,,,,,,,,,,,,,,
21754,1490395428552,,,,,,,,-0.0,0.06,0.99,-3.1,0.1,-0.4,900,0,,,,,,,,,,,,,,,,,,,
21774,1490395428572,,,,,60,,,-0.0,0.07,0.99,-3.1,0.1,-0.3,900,0,1,1,0.0,0,38.159355,-122.454193,0.0,0.0,69.1,8,2,1.7,0,0.0,-1,0.0,0.0,0.0,0
21794,1490395428592,,,,,,,,0.0,0.07,0.99,-3.1,0.1,-0.2,900,0,,,,,,,,,,,,,,,,,,,
21814,1490395428608,,,,,,,,0.01,0.07,0.99,-3.1,0.2,-0.1,900,0,,,,,,,,,,,,,,,,,,,
21834,1490395428628,,,,,,,,0.01,0.08,0.99,-3.2,0.2,-0.1,880,0,,,,,,,,,,,,,,,,,,,
21854,1490395428648,,,,,,,,0.01,0.09,0.99,-3.2,0.1,-0.1,900,0,,,,,,,,,,,,,,,,,,,
21874,1490395428668,0,65.1,,75.3,59,67.1,,0.01,0.09,1.0,-3.2,0.1,-0.2,900,0,1,1,0.0,0,38.159355,-122.454193,0.0,0.0,69.1,8,2,1.7,0,0.0,-1,0.0,0.0,0.0,0
21894,1490395428692,,,,,,,,0.01,0.09,0.99,-3.1,0.1,-0.3,900,0,,,,,,,,,,,,,,,,,,,
21914,1490395428712,,,,,,,,-0.0,0.09,0.99,-3.1,-0.0,-0.4,900,0,,,,,,,,,,,,,,,,,,,
21934,1490395428732,,,,,,,,-0.01,0.08,0.99,-3.1,-0.1,-0.5,900,0,,,,,,,,,,,,,,,,,,,
21954,1490395428752,,,,,,,,-0.01,0.07,0.99,-3.1,0.0,-0.5,900,0,,,,,,,,,,,,,,,,,,,
21974,1490395428772,,,,,61,,,-0.0,0.06,0.99,-3.1,0.1,-0.4,900,0,1,1,0.0,0,38.159355,-122.454193,0.0,0.0,69.1,8,2,1.7,0,0.0,-1,0.0,0.0,0.0,0
21994,1490395428792,,,,,,,,-0.0,0.07,0.98,-3.1,0.1,-0.3,900,0,,,,,,,,,,,,,,,,,,,
22014,1490395428812,,,,,,,,0.0,0.07,0.98,-3.1,0.0,-0.2,900,0,,,,,,,,,,,,,,,,,,,
22034,1490395428832,,,,,,,,0.01,0.07,0.99,-3.2,0.2,-0.1,900,0,,,,,,,,,,,,,,,,,,,
22054,1490395428852,,,,,,,,0.01,0.08,0.99,-3.2,0.1,-0.1,900,0,,,,,,,,,,,,,,,,,,,
22074,1490395428872,0,63.1,-0.2,72.2,61,66.6,14.92,0.01,0.09,0.99,-3.2,0.0,-0.2,900,0,1,1,0.0,0,38.159355,-122.454193,0.0,0.0,69.1,8,2,1.7,0,0.0,-1,0.0,0.0,0.0,0
22094,1490395428892,,,,,,,,0.01,0.09,0.99,-3.2,-0.1,-0.2,900,0,,,,,,,,,,,,,,,,,,,
22114,1490395428912,,,,,,,,0.01,0.09,0.99,-3.1,0.0,-0.3,900,0,,,,,,,,,,,,,,,,,,,
22134,1490395428932,,,,,,,,0.0,0.09,0.99,-3.1,-0.1,-0.4,900,0,,,,,,,,,,,,,,,,,,,
22154,1490395428952,,,,,,,,-0.0,0.08,0.99,-3.0,-0.2,-0.5,900,0,,,,,,,,,,,,,,,,,,,
22174,1490395428972,,,,,62,,,-0.01,0.07,0.99,-3.1,-0.0,-0.5,900,0,1,1,0.0,0,38.159355,-122.454193,0.0,0.0,69.1,8,2,1.7,0,0.0,-1,0.0,0.0,0.0,0
22194,1490395428992,,,,,,,,-0.0,0.06,0.99,-3.1,0.1,-0.5,900,0,,,,,,,,,,,,,,,,,,,
22214,1490395429006,,,,,,,,-0.0,0.07,0.98,-3.1,0.0,-0.4,900,0,,,,,,,,,,,,,,,,,,,
22234,1490395429026,,,,,,,,0.0,0.07,0.98,-3.1,0.0,-0.3,900,0,,,,,,,,,,,,,,,,,,,
22254,1490395429046,,,,,,,,0.01,0.07,0.99,-3.1,0.2,-0.2,900,0,,,,,,,,,,,,,,,,,,,
22274,1490395429066,0,61.6,,72.5,59,67.9,,0.01,0.08,0.99,-3.1,0.2,-0.2,880,0,1,1,0.0,0,38.159355,-122.454193,0.0,0.0,69.1,8,2,1.7,0,0.0,-1,0.0,0.0,0.0,0
22294,1490395429092,,,,,,,,0.01,0.09,0.99,-3.1,0.0,-0.2,900,0,,,,,,,,,,,,,,,,,,,
22314,1490395429112,,,,,,,,0.01,0.09,0.99,-3.1,-0.0,-0.3,880,0,,,,,,,,,,,,,,,,,,,
22334,1490395429132,,,,,,,,0.01,0.09,0.99,-3.1,-0.1,-0.4,880,0,,,,,,,,,,,,,,,,,,,
22354,1490395429152,,,,,,,,0.0,0.08,0.99,-3.1,-0.1,-0.4,880,0,,,,,,,,,,,,,,,,,,,
22374,1490395429172,,,,,60,,,-0.0,0.08,0.99,-3.1,-0.0,-0.5,880,0,1,1,0.0,0,38.159355,-122.454193,0.0,0.0,69.1,8,2,1.7,0,0.0,-1,0.0,0.0,0.0,0
22394,1490395429192,,,,,,,,0.0,0.07,0.99,-3.1,0.0,-0.4,880,0,,,,,,,,,,,,,,,,,,,
22414,1490395429212,,,,,,,,0.0,0.07,0.98,-3.2,0.1,-0.3,880,0,,,,,,,,,,,,,,,,,,,
22434,1490395429232,,,,,,,,0.0,0.08,0.98,-3.2,0.1,-0.2,880,0,,,,,,,,,,,,,,,,,,,
22454,1490395429252,,,,,,,,0.01,0.08,0.99,-3.2,0.1,-0.2,880,0,,,,,,,,,,,,,,,,,,,
22474,1490395429272,0,64.2,,74.2,60,66.2,,0.01,0.08,0.99,-3.2,0.0,-0.2,880,0,1,1,0.0,0,38.159355,-122.454193,0.0,0.0,69.1,8,2,1.7,0,0.0,-1,0.0,0.0,0.0,0
22494,1490395429292,,,,,,,,0.01,0.08,0.99,-3.2,0.0,-0.2,860,0,,,,,,,,,,,,,,,,,,,
22514,1490395429312,,,,,,,,0.01,0.08,0.99,-3.2,0.1,-0.3,860,0,,,,,,,,,,,,,,,,,,,
22534,1490395429332,,,,,,,,-0.0,0.07,0.99,-3.1,0.0,-0.4,860,0,,,,,,,,,,,,,,,,,,,
22554,1490395429352,,,,,,,,-0.0,0.06,0.99,-3.1,0.2,-0.5,860,0,,,,,,,,,,,,,,,,,,,
22574,1490395429372,,,,,59,,,0.0,0.06,0.98,-3.1,0.2,-0.4,860,0,1,1,0.0,0,38.159355,-122.454193,0.0,0.0,69.1,8,2,1.7,0,0.0,-1,0.0,0.0,0.0,0
22594,1490395429392,,,,,,,,0.0,0.06,0.98,-3.1,0.1,-0.3,860,0,,,,,,,,,,,,,,,,,,,
22614,1490395429412,,,,,,,,0.01,0.07,0.98,-3.2,0.2,-0.2,860,0,,,,,,,,,,,,,,,,,,,
22634,1490395429432,,,,,,,,0.01,0.08,0.99,-3.2,0.2,-0.2,860,0,,,,,,,,,,,,,,,,,,,
22654,1490395429452,,,,,,,,0.01,0.08,0.99,-3.2,0.2,-0.2,860,0,,,,,,,,,,,,,,,,,,,
22674,1490395429472,0,64.3,,73.9,59,66.0,,0.0,0.08,0.99,-3.1,0.1,-0.3,860,0,1,1,0.0,0,38.159355,-122.454193,0.0,0.0,69.1,8,2,1.7,0,0.0,-1,0.0,0.0,0.0,0
22694,1490395429491,,,,,,,,-0.0,0.07,0.99,-3.1,-0.0,-0.4,860,0,,,,,,,,,,,,,,,,,,,
22714,1490395429511,,,,,,,,-0.0,0.07,0.99,-3.1,0.2,-0.5,860,0,,,,,,,,,,,,,,,,,,,
22734,1490395429531,,,,,,,,0.0,0.07,0.98,-3.1,0.1,-0.4,860,0,,,,,,,,,,,,,,,,,,,
22754,1490395429551,,,,,,,,0.0,0.07,0.98,-3.1,0.1,-0.3,860,0,,,,,,,,,,,,,,,,,,,
22774,1490395429571,,,,,57,,,0.0,0.07,0.99,-3.1,0.1,-0.2,860,0,1,1,0.0,0,38.159355,-122.454193,0.0,0.0,69.1,8,2,1.7,0,0.0,-1,0.0,0.0,0.0,0
22794,1490395429591,,,,,,,,0.0,0.08,0.99,-3.1,0.1,-0.1,860,0,,,,,,,,,,,,,,,,,,,
22814,1490395429611,,,,,,,,0.0,0.08,0.99,-3.1,0.1,-0.2,860,0,,,,,,,,,,,,,,,,,,,
22834,1490395429631,,,,,,,,0.0,0.08,0.99,-3.1,-0.1,-0.3,860,0,,,,,,,,,,,,,,,,,,,
22854,1490395429651,,,,,,,,-0.0,0.07,0.99,-3.1,-0.0,-0.5,880,0,,,,,,,,,,,,,,,,,,,
22874,1490395429671,0,64.8,,75.3,57,68.0,,-0.01,0.07,0.99,-3.1,0.1,-0.4,880,0,1,1,0.0,0,38.159355,-122.454193,0.0,0.0,69.1,8,2,1.7,0,0.0,-1,0.0,0.0,0.0,0
22894,1490395429693,,,,,,,,-0.0,0.07,0.98,-3.1,0.1,-0.4,880,0,,,,,,,,,,,,,,,,,,,
22914,1490395429713,,,,,,,,-0.0,0.07,0.98,-3.1,0.2,-0.3,880,0,,,,,,,,,,,,,,,,,,,
22934,1490395429733,,,,,,,,0.0,0.07,0.99,-3.1,0.2,-0.2,880,0,,,,,,,,,,,,,,,,,,,
22954,1490395429753,,,,,,,,0.0,0.08,0.99,-3.1,0.2,-0.2,880,0,,,,,,,,,,,,,,,,,,,
22974,1490395429773,,,,,56,,,0.0,0.08,0.99,-3.1,0.1,-0.2,880,0,1,1,0.0,0,38.159355,-122.454193,0.0,0.0,69.1,8,2,1.7,0,0.0,-1,0.0,0.0,0.0,0
22994,1490395429793,,,,,,,,-0.0,0.09,0.99,-3.1,0.1,-0.3,900,0,,,,,,,,,,,,,,,,,,,
23014,1490395429813,,,,,,,,-0.01,0.08,0.99,-3.1,0.1,-0.4,900,0,,,,,,,,,,,,,,,,,,,
23034,1490395429833,,,,,,,,-0.01,0.08,0.99,-3.1,0.2,-0.5,900,0,,,,,,,,,,,,,,,,,,,
23054,1490395429853,,,,,,,,-0.01,0.07,0.98,-3.1,0.2,-0.4,900,0,,,,,,,,,,,,,,,,,,,
23074,1490395429873,0,63.7,-0.3,72.6,56,66.5,14.89,-0.0,0.07,0.98,-3.1,0.2,-0.4,900,0,1,1,0.0,0,38.159355,-122.454193,0.0,0.0,69.1,8,2,1.7,0,0.0,-1,0.0,0.0,0.0,0
23094,1490395429893,,,,,,,,-0.0,0.08,0.98,-3.1,0.3,-0.3,900,0,,,,,,,,,,,,,,,,,,,
23114,1490395429913,,,,,,,,-0.0,0.08,0.98,-3.2,0.4,-0.2,900,0,,,,,,,,,,,,,,,,,,,
23134,1490395429933,,,,,,,,0.0,0.08,0.98,-3.2,0.3,-0.2,900,0,,,,,,,,,,,,,,,,,,,
23154,1490395429953,,,,,,,,0.01,0.09,0.98,-3.2,0.2,-0.2,900,0,,,,,,,,,,,,,,,,,,,
23174,1490395429973,,,,,57,,,0.01,0.1,0.99,-3.2,0.1,-0.2,900,0,1,1,0.0,0,38.159355,-122.454193,0.0,0.0,69.1,8,2,1.7,0,0.0,-1,0.0,0.0,0.0,0
23194,1490395429993,,,,,,,,0.0,0.1,0.99,-3.2,0.1,-0.3,900,0,,,,,,,,,,,,,,,,,,,
23214,1490395430007,,,,,,,,-0.0,0.09,0.99,-3.1,0.1,-0.4,900,0,,,,,,,,,,,,,,,,,,,
23234,1490395430027,,,,,,,,-0.01,0.09,0.98,-3.1,0.0,-0.5,900,0,,,,,,,,,,,,,,,,,,,
23254,1490395430047,,,,,,,,-0.01,0.07,0.99,-3.1,0.1,-0.5,900,0,,,,,,,,,,,,,,,,,,,
23274,1490395430067,0,61.3,,73.7,58,69.4,,-0.01,0.06,0.98,-3.1,0.1,-0.5,900,0,1,1,0.0,0,38.159355,-122.454193,0.0,0.0,69.1,8,2,1.7,0,0.0,-1,0.0,0.0,0.0,0
23294,1490395430087,,,,,,,,-0.0,0.06,0.98,-3.1,0.1,-0.4,900,0,,,,,,,,,,,,,,,,,,,
23314,1490395430105,,,,,,,,-0.0,0.07,0.98,-3.1,0.1,-0.3,900,0,,,,,,,,,,,,,,,,,,,
23334,1490395430125,,,,,,,,0.0,0.07,0.98,-3.2,0.2,-0.2,900,0,,,,,,,,,,,,,,,,,,,
23354,1490395430145,,,,,,,,0.01,0.07,0.99,-3.2,0.2,-0.2,900,0,,,,,,,,,,,,,,,,,,,
23374,1490395430165,,,,,57,,,0.01,0.08,0.98,-3.2,0.2,-0.1,900,0,1,1,0.0,0,38.159355,-122.454193,0.0,0.0,69.1,8,2,1.7,0,0.0,-1,0.0,0.0,0.0,0
23394,1490395430193,,,,,,,,0.01,0.09,0.99,-3.2,0.1,-0.2,900,0,,,,,,,,,,,,,,,,,,,
23414,1490395430213,,,,,,,,0.01,0.09,0.99,-3.1,0.0,-0.2,900,0,,,,,,,,,,,,,,,,,,,
23434,1490395430233,,,,,,,,0.0,0.1,0.99,-3.1,-0.0,-0.3,900,0,,,,,,,,,,,,,,,,,,,
23454,1490395430253,,,,,,,,-0.0,0.09,0.98,-3.1,-0.1,-0.4,900,0,,,,,,,,,,,,,,,,,,,
23474,1490395430273,0,61.5,,73.4,57,68.8,,-0.0,0.08,0.99,-3.1,-0.0,-0.5,900,0,1,1,0.0,0,38.159355,-122.454193,0.0,0.0,69.1,8,2,1.7,0,0.0,-1,0.0,0.0,0.0,0
23494,1490395430293,,,,,,,,-0.01,0.07,0.98,-3.1,0.1,-0.5,900,0,,,,,,,,,,,,,,,,,,,
23514,1490395430313,,,,,,,,-0.0,0.07,0.98,-3.1,0.1,-0.4,900,0,,,,,,,,,,,,,,,,,,,
23534,1490395430333,,,,,,,,-0.0,0.07,0.98,-3.1,0.0,-0.3,900,0,,,,,,,,,,,,,,,,,,,
23554,1490395430353,,,,,,,,0.0,0.07,0.98,-3.2,0.1,-0.2,900,0,,,,,,,,,,,,,,,,,,,
23574,1490395430373,,,,,58,,,0.0,0.07,0.99,-3.2,0.2,-0.2,900,0,1,1,0.0,0,38.159355,-122.454193,0.0,0.0,69.1,8,2,1.7,0,0.0,-1,0.0,0.0,0.0,0
23594,1490395430393,,,,,,,,0.01,0.09,0.99,-3.2,0.1,-0.1,880,0,,,,,,,,,,,,,,,,,,,
23614,1490395430413,,,,,,,,0.01,0.09,0.99,-3.2,0.1,-0.2,900,0,,,,,,,,,,,,,,,,,,,
23634,1490395430433,,,,,,,,0.0,0.09,0.99,-3.2,0.1,-0.3,900,0,,,,,,,,,,,,,,,,,,,
23654,1490395430453,,,,,,,,0.0,0.09,0.99,-3.2,0.0,-0.4,900,0,,,,,,,,,,,,,,,,,,,
23674,1490395430473,0,64.5,,75.0,55,66.0,,-0.0,0.09,0.99,-3.1,-0.0,-0.5,900,0,1,1,0.0,0,38.159355,-122.454193,0.0,0.0,69.1,8,2,1.7,0,0.0,-1,0.0,0.0,0.0,0
23694,1490395430492,,,,,,,,-0.0,0.08,0.99,-3.1,0.0,-0.5,880,0,,,,,,,,,,,,,,,,,,,
23714,1490395430512,,,,,,,,-0.0,0.08,0.99,-3.1,0.1,-0.4,880,0,,,,,,,,,,,,,,,,,,,
23734,1490395430532,,,,,,,,0.0,0.08,0.98,-3.1,0.0,-0.3,880,0,,,,,,,,,,,,,,,,,,,
23754,1490395430552,,,,,,,,0.0,0.08,0.98,-3.2,0.0,-0.2,880,0,,,,,,,,,,,,,,,,,,,
23774,1490395430572,,,,,60,,,0.01,0.08,0.98,-3.2,0.2,-0.2,880,0,1,1,0.0,0,38.159355,-122.454193,0.0,0.0,69.1,8,2,1.7,0,0.0,-1,0.0,0.0,0.0,0
23794,1490395430592,,,,,,,,0.01,0.09,0.98,-3.2,0.1,-0.2,900,0,,,,,,,,,,,,,,,,,,,
23814,1490395430612,,,,,,,,0.01,0.09,0.99,-3.2,0.0,-0.2,880,0,,,,,,,,,,,,,,,,,,,
23834,1490395430632,,,,,,,,0.01,0.09,0.99,-3.1,0.0,-0.3,880,0,,,,,,,,,,,,,,,,,,,
23854,1490395430652,,,,,,,,0.0,0.09,0.98,-3.1,-0.0,-0.4,880,0,,,,,,,,,,,,,,,,,,,
23874,1490395430672,0,62.1,,72.4,58,67.4,,-0.0,0.08,0.98,-3.1,-0.0,-0.4,880,0,1,1,0.0,0,38.159355,-122.454193,0.0,0.0,69.1,8,2,1.7,0,0.0,-1,0.0,0.0,0.0,0
23894,1490395430692,,,,,,,,-0.0,0.07,0.98,-3.1,0.1,-0.4,880,0,,,,,,,,,,,,,,,,,,,
23914,1490395430712,,,,,,,,0.0,0.07,0.98,-3.1,0.1,-0.4,900,0,,,,,,,,,,,,,,,,,,,
23934,1490395430732,,,,,,,,0.0,0.07,0.98,-3.1,0.1,-0.3,900,0,,,,,,,,,,,,,,,,,,,
23954,1490395430752,,,,,,,,0.01,0.07,0.99,-3.1,0.2,-0.2,900,0,,,,,,,,,,,,,,,,,,,
23974,1490395430772,,,,,57,,,0.01,0.08,0.99,-3.1,0.2,-0.1,880,0,1,1,0.0,0,38.159355,-122.454193,0.0,0.0,69.1,8,2,1.7,0,0.0,-1,0.0,0.0,0.0,0
23994,1490395430792,,,,,,,,0.02,0.09,0.99,-3.2,0.1,-0.1,900,0,,,,,,,,,,,,,,,,,,,
24014,1490395430812,,,,,,,,0.01,0.09,0.99,-3.2,0.0,-0.2,900,0,,,,,,,,,,,,,,,,,,,
24034,1490395430832,,,,,,,,0.01,0.09,0.99,-3.1,0.0,-0.3,900,0,,,,,,,,,,,,,,,,,,,
24054,1490395430852,,,,,,,,0.0,0.09,0.99,-3.1,-0.1,-0.4,900,0,,,,,,,,,,,,,,,,,,,
24074,1490395430872,0,64.2,-0.1,73.4,56,66.1,14.89,0.0,0.08,0.99,-3.1,-0.0,-0.5,900,0,1,1,0.0,0,38.159355,-122.454193,0.0,0.0,69.1,8,2,1.7,0,0.0,-1,0.0,0.0,0.0,0
24094,1490395430892,,,,,,,,-0.0,0.07,0.99,-3.1,0.0,-0.5,900,0,,,,,,,,,,,,,,,,,,,
24114,1490395430912,,,,,,,,-0.0,0.06,0.99,-3.1,0.1,-0.4,900,0,,,,,,,,,,,,,,,,,,,
24134,1490395430932,,,,,,,,-0.0,0.06,0.98,-3.1,0.0,-0.3,900,0,,,,,,,,,,,,,,,,,,,
24154,1490395430952,,,,,,,,0.0,0.07,0.98,-3.2,0.1,-0.2,900,0,,,,,,,,,,,,,,,,,,,
24174,1490395430972,,,,,58,,,0.01,0.07,0.99,-3.2,0.3,-0.1,900,0,1,1,0.0,0,38.159355,-122.454193,0.0,0.0,69.1,8,2,1.7,0,0.0,-1,0.0,0.0,0.0,0
24194,1490395430992,,,,,,,,0.02,0.08,0.99,-3.2,0.2,-0.1,900,0,,,,,,,,,,,,,,,,,,,
24214,1490395431006,,,,,,,,0.02,0.08,0.99,-3.2,0.1,-0.2,900,0,,,,,,,,,,,,,,,,,,,
24234,1490395431026,,,,,,,,0.01,0.09,0.99,-3.2,0.0,-0.2,900,0,,,,,,,,,,,,,,,,,,,
24254,1490395431046,,,,,,,,0.01,0.09,1.0,-3.1,0.1,-0.3,900,0,,,,,,,,,,,,,,,,,,,
24274,1490395431066,0,65.1,,75.6,56,68.3,,0.01,0.09,0.99,-3.1,0.0,-0.4,900,0,1,1,0.0,0,38.159355,-122.454193,0.0,0.0,69.1,8,2,1.7,0,0.0,-1,0.0,0.0,0.0,0
24294,1490395431092,,,,,,,,0.0,0.08,0.99,-3.1,-0.0,-0.5,900,0,,,,,,,,,,,,,,,,,,,
24314,1490395431112,,,,,,,,-0.0,0.07,0.99,-3.1,0.0,-0.5,900,0,,,,,,,,,,,,,,,,,,,
24334,1490395431132,,,,,,,,-0.0,0.06,0.99,-3.1,0.1,-0.4,900,0,,,,,,,,,,,,,,,,,,,
24354,1490395431152,,,,,,,,0.0,0.07,0.99,-3.1,0.1,-0.3,900,0,,,,,,,,,,,,,,,,,,,
24374,1490395431172,,,,,58,,,0.01,0.07,0.98,-3.1,0.1,-0.2,900,0,1,1,0.0,0,38.159355,-122.454193,0.0,0.0,69.1,8,2,1.7,0,0.0,-1,0.0,0.0,0.0,0
24394,1490395431192,,,,,,,,0.01,0.07,0.99,-3.2,0.2,-0.2,900,0,,,,,,,,,,,,,,,,,,,
24414,1490395431212,,,,,,,,0.01,0.08,0.99,-3.2,0.2,-0.1,900,0,,,,,,,,,,,,,,,,,,,
24434,1490395431232,,,,,,,,0.02,0.09,0.99,-3.2,0.0,-0.2,900,0,,,,,,,,,,,,,,,,,,,
24454,1490395431252,,,,,,,,0.02,0.09,0.99,-3.2,-0.0,-0.2,900,0,,,,,,,,,,,,,,,,,,,
24474,1490395431272,0,63.3,,72.4,60,66.8,,0.01,0.09,0.99,-3.1,0.0,-0.3,900,0,1,1,0.0,0,38.159355,-122.454193,0.0,0.0,69.1,8,2,1.7,0,0.0,-1,0.0,0.0,0.0,0
24494,1490395431292,,,,,,,,0.01,0.09,0.99,-3.1,0.0,-0.4,880,0,,,,,,,,,,,,,,,,,,,
24514,1490395431312,,,,,,,,0.0,0.08,0.99,-3.1,0.0,-0.5,880,0,,,,,,,,,,,,,,,,,,,
24534,1490395431332,,,,,,,,0.0,0.07,0.99,-3.1,0.1,-0.5,880,0,,,,,,,,,,,,,,,,,,,
24554,1490395431352,,,,,,,,0.0,0.07,0.99,-3.1,0.1,-0.4,900,0,,,,,,,,,,,,,,,,,,,
24574,1490395431372,,,,,58,,,0.0,0.07,0.98,-3.1,0.0,-0.3,900,0,1,1,0.0,0,38.159355,-122.454193,0.0,0.0,69.1,8,2,1.7,0,0.0,-1,0.0,0.0,0.0,0
24594,1490395431392,,,,,,,,0.01,0.07,0.98,-3.1,0.1,-0.3,900,0,,,,,,,,,,,,,,,,,,,
24614,1490395431412,,,,,,,,0.01,0.07,0.99,-3.2,0.2,-0.2,900,0,,,,,,,,,,,,,,,,,,,
24634,1490395431432,,,,,,,,0.01,0.08,0.99,-3.2,0.2,-0.1,880,0,,,,,,,,,,,,,,,,,,,
24654,1490395431452,,,,,,,,0.01,0.09,0.99,-3.2,0.1,-0.2,880,0,,,,,,,,,,,,,,,,,,,
24674,1490395431472,0,64.3,,75.4,60,68.6,,0.01,0.09,0.99,-3.1,0.1,-0.2,880,0,1,1,0.0,0,38.159355,-122.454193,0.0,0.0,69.1,8,2,1.7,0,0.0,-1,0.0,0.0,0.0,0
24694,1490395431491,,,,,,,,0.01,0.09,0.98,-3.1,-0.0,-0.4,880,0,,,,,,,,,,,,,,,,,,,
24714,1490395431511,,,,,,,,-0.0,0.08,0.99,-3.1,-0.0,-0.4,900,0,,,,,,,,,,,,,,,,,,,
24734,1490395431531,,,,,,,,-0.0,0.07,0.98,-3.0,0.1,-0.4,900,0,,,,,,,,,,,,,,,,,,,
24754,1490395431551,,,,,,,,0.0,0.07,0.98,-3.0,0.1,-0.4,880,0,,,,,,,,,,,,,,,,,,,
24774,1490395431571,,,,,59,,,0.0,0.07,0.98,-3.1,0.1,-0.2,880,0,1,1,0.0,0,38.159355,-122.454193,0.0,0.0,69.1,8,2,1.7,0,0.0,-1,0.0,0.0,0.0,0
24794,1490395431593,,,,,,,,0.01,0.07,0.99,-3.1,0.1,-0.1,880,0,,,,,,,,,,,,,,,,,,,
24814,1490395431613,,,,,,,,0.01,0.08,0.99,-3.1,0.1,-0.1,880,0,,,,,,,,,,,,,,,,,,,
24834,1490395431633,,,,,,,,0.01,0.09,0.99,-3.1,0.0,-0.1,880,0,,,,,,,,,,,,,,,,,,,
24854,1490395431653,,,,,,,,0.01,0.09,0.99,-3.1,0.0,-0.2,900,0,,,,,,,,,,,,,,,,,,,
24874,1490395431673,0,64.3,,75.8,61,68.8,,0.01,0.09,0.99,-3.1,0.1,-0.3,900,0,1,1,0.0,0,38.159355,-122.454193,0.0,0.0,69.1,8,2,1.7,0,0.0,-1,0.0,0.0,0.0,0
24894,1490395431693,,,,,,,,0.0,0.08,0.99,-3.1,0.0,-0.4,880,0,,,,,,,,,,,,,,,,,,,
24914,1490395431713,,,,,,,,0.0,0.08,0.99,-3.1,-0.0,-0.4,900,0,,,,,,,,,,,,,,,,,,,
24934,1490395431733,,,,,,,,-0.0,0.07,0.98,-3.1,0.1,-0.4,880,0,,,,,,,,,,,,,,,,,,,
24954,1490395431753,,,,,,,,0.0,0.07,0.98,-3.1,0.1,-0.3,900,0,,,,,,,,,,,,,,,,,,,
24974,1490395431773,,,,,59,,,0.0,0.07,0.98,-3.1,0.0,-0.2,900,0,1,1,0.0,0,38.159355,-122.454193,0.0,0.0,69.1,8,2,1.7,0,0.0,-1,0.0,0.0,0.0,0
24994,1490395431793,,,,,,,,0.01,0.08,0.99,-3.1,0.1,-0.2,900,0,,,,,,,,,,,,,,,,,,,
25014,1490395431813,,,,,,,,0.01,0.08,0.99,-3.1,0.2,-0.1,900,0,,,,,,,,,,,,,,,,,,,
25034,1490395431833,,,,,,,,0.01,0.09,0.99,-3.1,0.1,-0.2,880,0,,,,,,,,,,,,,,,,,,,
25054,1490395431853,,,,,,,,0.01,0.09,0.99,-3.1,0.0,-0.2,880,0,,,,,,,,,,,,,,,,,,,
25074,1490395431873,0,61.3,-0.1,72.6,60,68.3,14.89,0.01,0.09,0.99,-3.1,0.0,-0.3,880,0,1,1,0.0,0,38.159355,-122.454193,0.0,0.0,69.1,8,2,1.7,0,0.0,-1,0.0,0.0,0.0,0
25094,1490395431893,,,,,,,,0.0,0.09,0.99,-3.1,-0.1,-0.4,880,0,,,,,,,,,,,,,,,,,,,
25114,1490395431913,,,,,,,,-0.0,0.07,0.99,-3.0,0.0,-0.5,880,0,,,,,,,,,,,,,,,,,,,
25134,1490395431933,,,,,,,,-0.0,0.07,0.98,-3.1,0.1,-0.4,880,0,,,,,,,,,,,,,,,,,,,
25154,1490395431953,,,,,,,,-0.0,0.07,0.98,-3.1,0.0,-0.3,880,0,,,,,,,,,,,,,,,,,,,
25174,1490395431973,,,,,58,,,0.0,0.07,0.98,-3.1,0.1,-0.2,880,0,1,1,0.0,0,38.159355,-122.454193,0.0,0.0,69.1,8,2,1.7,0,0.0,-1,0.0,0.0,0.0,0
25194,1490395431993,,,,,,,,0.0,0.08,0.98,-3.1,0.2,-0.2,880,0,,,,,,,,,,,,,,,,,,,
25214,1490395432003,,,,,,,,0.01,0.09,0.99,-3.1,0.1,-0.2,880,0,,,,,,,,,,,,,,,,,,,
25234,1490395432023,,,,,,,,0.01,0.1,0.99,-3.1,0.0,-0.2,880,0,,,,,,,,,,,,,,,,,,,
25254,1490395432043,,,,,,,,0.0,0.1,0.99,-3.0,-0.0,-0.3,900,0,,,,,,,,,,,,,,,,,,,
25274,1490395432063,0,63.9,,75.6,58,69.1,,-0.0,0.1,0.98,-3.0,-0.1,-0.4,900,0,1,1,0.0,0,38.159355,-122.454193,0.0,0.0,69.1,8,2,1.7,0,0.0,-1,0.0,0.0,0.0,0
25294,1490395432093,,,,,,,,-0.01,0.09,0.98,-3.0,-0.0,-0.5,880,0,,,,,,,,,,,,,,,,,,,
25314,1490395432113,,,,,,,,-0.01,0.07,0.98,-3.1,0.1,-0.5,880,0,,,,,,,,,,,,,,,,,,,
25334,1490395432133,,,,,,,,-0.0,0.07,0.98,-3.0,0.1,-0.4,880,0,,,,,,,,,,,,,,,,,,,
25354,1490395432153,,,,,,,,-0.0,0.07,0.97,-3.1,0.0,-0.3,880,0,,,,,,,,,,,,,,,,,,,
25374,1490395432173,,,,,59,,,0.0,0.07,0.98,-3.1,0.1,-0.3,880,0,1,1,0.0,0,38.159355,-122.454193,0.0,0.0,69.1,8,2,1.7,0,0.0,-1,0.0,0.0,0.0,0
25394,1490395432193,,,,,,,,0.01,0.08,0.98,-3.1,0.2,-0.2,900,0,,,,,,,,,,,,,,,,,,,
25414,1490395432213,,,,,,,,0.01,0.09,0.98,-3.1,0.1,-0.2,900,0,,,,,,,,,,,,,,,,,,,
25434,1490395432233,,,,,,,,0.01,0.1,0.99,-3.1,0.1,-0.3,880,0,,,,,,,,,,,,,,,,,,,
25454,1490395432253,,,,,,,,0.01,0.1,0.99,-3.1,0.1,-0.4,900,0,,,,,,,,,,,,,,,,,,,
25474,1490395432273,0,63.6,,72.6,60,66.5,,0.0,0.09,0.99,-3.1,0.0,-0.4,880,0,1,1,0.0,0,38.159355,-122.454193,0.0,0.0,69.1,8,2,1.7,0,0.0,-1,0.0,0.0,0.0,0
25494,1490395432293,,,,,,,,-0.01,0.08,0.98,-3.0,0.0,-0.5,900,0,,,,,,,,,,,,,,,,,,,
25514,1490395432313,,,,,,,,-0.01,0.07,0.98,-3.1,0.1,-0.5,900,0,,,,,,,,,,,,,,,,,,,
25534,1490395432333,,,,,,,,-0.01,0.07,0.98,-3.1,0.1,-0.5,900,0,,,,,,,,,,,,,,,,,,,
25554,1490395432353,,,,,,,,-0.0,0.07,0.98,-3.1,0.1,-0.4,900,0,,,,,,,,,,,,,,,,,,,
25574,1490395432373,,,,,56,,,0.0,0.07,0.98,-3.1,0.1,-0.3,880,0,1,1,0.0,0,38.159355,-122.454193,0.0,0.0,69.1,8,2,1.7,0,0.0,-1,0.0,0.0,0.0,0
25594,1490395432393,,,,,,,,0.0,0.08,0.99,-3.1,0.2,-0.2,880,0,,,,,,,,,,,,,,,,,,,
25614,1490395432413,,,,,,,,0.01,0.08,0.99,-3.1,0.1,-0.2,880,0,,,,,,,,,,,,,,,,,,,
25634,1490395432433,,,,,,,,0.0,0.09,0.99,-3.1,0.1,-0.3,880,0,,,,,,,,,,,,,,,,,,,
25654,1490395432453,,,,,,,,0.0,0.09,0.99,-3.1,-0.0,-0.4,880,0,,,,,,,,,,,,,,,,,,,
25674,1490395432473,0,61.6,,73.3,58,68.6,,-0.0,0.08,0.98,-3.1,-0.0,-0.5,880,0,1,1,0.0,0,38.159355,-122.454193,0.0,0.0,69.1,8,2,1.7,0,0.0,-1,0.0,0.0,0.0,0
25694,1490395432492,,,,,,,,-0.0,0.07,0.98,-3.1,-0.0,-0.5,880,0,,,,,,,,,,,,,,,,,,,
25714,1490395432512,,,,,,,,-0.0,0.07,0.98,-3.1,0.0,-0.4,880,0,,,,,,,,,,,,,,,,,,,
25734,1490395432532,,,,,,,,0.0,0.07,0.98,-3.1,-0.0,-0.3,880,0,,,,,,,,,,,,,,,,,,,
25754,1490395432552,,,,,,,,0.0,0.07,0.98,-3.1,0.0,-0.2,880,0,,,,,,,,,,,,,,,,,,,
25774,1490395432572,,,,,58,,,0.01,0.08,0.98,-3.1,0.2,-0.2,880,0,1,1,0.0,0,38.159355,-122.454193,0.0,0.0,69.1,8,2,1.7,0,0.0,-1,0.0,0.0,0.0,0
25794,1490395432592,,,,,,,,0.01,0.09,0.98,-3.2,0.0,-0.2,880,0,,,,,,,,,,,,,,,,,,,
25814,1490395432612,,,,,,,,0.01,0.09,0.99,-3.1,-0.0,-0.2,900,0,,,,,,,,,,,,,,,,,,,
25834,1490395432632,,,,,,,,0.01,0.09,0.99,-3.1,-0.1,-0.3,880,0,,,,,,,,,,,,,,,,,,,
25854,1490395432652,,,,,,,,0.01,0.09,0.98,-3.1,-0.1,-0.4,880,0,,,,,,,,,,,,,,,,,,,
25874,1490395432672,0,64.8,,75.0,55,66.3,,0.0,0.08,0.98,-3.1,-0.0,-0.5,880,0,1,1,0.0,0,38.159355,-122.454193,0.0,0.0,69.1,8,2,1.7,0,0.0,-1,0.0,0.0,0.0,0
25894,1490395432692,,,,,,,,-0.0,0.07,0.98,-3.1,0.1,-0.5,880,0,,,,,,,,,,,,,,,,,,,
25914,1490395432712,,,,,,,,0.0,0.07,0.98,-3.1,0.1,-0.4,880,0,,,,,,,,,,,,,,,,,,,
25934,1490395432732,,,,,,,,0.0,0.08,0.98,-3.1,0.0,-0.3,880,0,,,,,,,,,,,,,,,,,,,
25954,1490395432752,,,,,,,,0.0,0.08,0.98,-3.2,0.1,-0.2,900,0,,,,,,,,,,,,,,,,,,,
25974,1490395432772,,,,,60,,,0.01,0.08,0.99,-3.2,0.1,-0.1,880,0,1,1,0.0,0,38.159355,-122.454193,0.0,0.0,69.1,8,2,1.7,0,0.0,-1,0.0,0.0,0.0,0
25994,1490395432792,,,,,,,,0.01,0.09,0.99,-3.2,0.1,-0.2,880,0,,,,,,,,,,,,,,,,,,,
26014,1490395432812,,,,,,,,0.01,0.09,0.99,-3.1,0.1,-0.3,880,0,,,,,,,,,,,,,,,,,,,
26034,1490395432832,,,,,,,,0.0,0.09,0.99,-3.1,0.0,-0.4,880,0,,,,,,,,,,,,,,,,,,,
26054,1490395432852,,,,,,,,-0.0,0.08,0.99,-3.1,-0.1,-0.5,900,0,,,,,,,,,,,,,,,,,,,
26074,1490395432872,0,61.6,0.0,72.7,59,68.3,14.91,-0.01,0.08,0.98,-3.1,-0.0,-0.5,900,0,1,1,0.0,0,38.159355,-122.454193,0.0,0.0,69.1,8,2,1.7,0,0.0,-1,0.0,0.0,0.0,0
26094,1490395432892,,,,,,,,-0.0,0.07,0.98,-3.1,0.0,-0.4,880,0,,,,,,,,,,,,,,,,,,,
26114,1490395432912,,,,,,,,-0.0,0.08,0.98,-3.1,0.1,-0.4,880,0,,,,,,,,,,,,,,,,,,,
26134,1490395432932,,,,,,,,-0.0,0.07,0.99,-3.1,0.0,-0.3,880,0,,,,,,,,,,,,,,,,,,,
26154,1490395432952,,,,,,,,0.0,0.08,0.99,-3.1,0.1,-0.3,880,0,,,,,,,,,,,,,,,,,,,
26174,1490395432972,,,,,58,,,0.01,0.08,0.99,-3.2,0.1,-0.2,880,0,1,1,0.0,0,38.159355,-122.454193,0.0,0.0,69.1,8,2,1.7,0,0.0,-1,0.0,0.0,0.0,0
26194,1490395432992,,,,,,,,0.01,0.09,0.99,-3.1,0.0,-0.3,880,0,,,,,,,,,,,,,,,,,,,
26214,1490395433008,,,,,,,,0.0,0.09,0.99,-3.1,0.0,-0.3,880,0,,,,,,,,,,,,,,,,,,,
26234,1490395433028,,,,,,,,-0.0,0.08,0.99,-3.1,-0.0,-0.5,860,0,,,,,,,,,,,,,,,,,,,
26254,1490395433048,,,,,,,,-0.01,0.08,0.99,-3.1,0.1,-0.5,880,0,,,,,,,,,,,,,,,,,,,
26274,1490395433068,0,64.5,,75.0,61,66.6,,-0.0,0.07,0.99,-3.1,0.1,-0.5,880,0,1,1,0.0,0,38.159355,-122.454193,0.0,0.0,69.1,8,2,2.0,0,0.0,-1,0.0,0.0,0.0,0
26294,1490395433094,,,,,,,,-0.0,0.07,0.99,-3.1,0.0,-0.4,900,0,,,,,,,,,,,,,,,,,,,
26314,1490395433114,,,,,,,,-0.0,0.07,0.99,-3.1,0.1,-0.3,900,0,,,,,,,,,,,,,,,,,,,
26334,1490395433134,,,,,,,,0.01,0.07,0.99,-3.1,0.2,-0.2,880,0,,,,,,,,,,,,,,,,,,,
26354,1490395433154,,,,,,,,0.01,0.08,0.99,-3.1,0.2,-0.2,900,0,,,,,,,,,,,,,,,,,,,
26374,1490395433174,,,,,57,,,0.01,0.09,0.99,-3.1,0.2,-0.2,860,0,1,1,0.0,0,38.159355,-122.454193,0.0,0.0,69.1,8,2,2.0,0,0.0,-1,0.0,0.0,0.0,0
26394,1490395433194,,,,,,,,0.01,0.08,1.0,-3.1,0.1,-0.3,880,0,,,,,,,,,,,,,,,,,,,
26414,1490395433214,,,,,,,,0.0,0.08,0.99,-3.1,0.1,-0.4,880,0,,,,,,,,,,,,,,,,,,,
26434,1490395433234,,,,,,,,-0.0,0.07,0.99,-3.1,0.1,-0.5,880,0,,,,,,,,,,,,,,,,,,,
26454,1490395433254,,,,,,,,-0.0,0.06,0.99,-3.0,0.2,-0.5,880,0,,,,,,,,,,,,,,,,,,,
26474,1490395433274,1,64.3,,74.9,59,66.2,,-0.0,0.06,0.98,-3.1,0.2,-0.4,900,0,1,1,0.0,0,38.159355,-122.454193,0.0,0.0,69.1,8,2,2.0,0,0.0,-1,0.0,0.0,0.0,0
26494,1490395433294,,,,,,,,0.0,0.06,0.98,-3.1,0.1,-0.3,900,0,,,,,,,,,,,,,,,,,,,
26514,1490395433314,,,,,,,,0.0,0.07,0.99,-3.1,0.2,-0.2,880,0,,,,,,,,,,,,,,,,,,,
26534,1490395433334,,,,,,,,0.01,0.08,0.99,-3.1,0.2,-0.2,900,0,,,,,,,,,,,,,,,,,,,
26554,1490395433354,,,,,,,,0.01,0.09,0.99,-3.2,0.1,-0.2,900,0,,,,,,,,,,,,,,,,,,,
26574,1490395433374,,,,,59,,,0.01,0.09,0.99,-3.1,0.1,-0.3,900,0,1,1,0.0,0,38.159355,-122.454193,0.0,0.0,69.1,8,2,2.0,0,0.0,-1,0.0,0.0,0.0,0
26594,1490395433394,,,,,,,,0.0,0.09,0.99,-3.1,0.1,-0.4,900,0,,,,,,,,,,,,,,,,,,,
26614,1490395433410,,,,,,,,-0.0,0.08,0.99,-3.1,-0.0,-0.5,900,0,,,,,,,,,,,,,,,,,,,
26634,1490395433430,,,,,,,,-0.01,0.07,0.98,-3.1,0.0,-0.5,900,0,,,,,,,,,,,,,,,,,,,
26654,1490395433450,,,,,,,,-0.01,0.07,0.98,-3.1,0.1,-0.4,900,0,,,,,,,,,,,,,,,,,,,
26674,1490395433470,0,61.6,,72.7,60,68.3,,-0.0,0.06,0.98,-3.1,0.2,-0.4,900,0,1,1,0.0,0,38.159355,-122.454193,0.0,0.0,69.1,8,2,2.0,0,0.0,-1,0.0,0.0,0.0,0
26694,1490395433493,,,,,,,,-0.0,0.07,0.98,-3.1,0.1,-0.3,900,0,,,,,,,,,,,,,,,,,,,
26714,1490395433513,,,,,,,,0.0,0.07,0.98,-3.1,0.2,-0.2,900,0,,,,,,,,,,,,,,,,,,,
26734,1490395433533,,,,,,,,0.01,0.08,0.98,-3.1,0.2,-0.2,900,0,,,,,,,,,,,,,,,,,,,
26754,1490395433553,,,,,,,,0.01,0.09,0.99,-3.1,0.2,-0.2,900,0,,,,,,,,,,,,,,,,,,,
26774,1490395433573,,,,,57,,,0.01,0.09,0.99,-3.1,0.1,-0.2,880,0,1,1,0.0,0,38.159355,-122.454193,0.0,0.0,69.1,8,2,2.0,0,0.0,-1,0.0,0.0,0.0,0
26794,1490395433593,,,,,,,,0.01,0.09,0.99,-3.1,0.1,-0.3,900,0,,,,,,,,,,,,,,,,,,,
26814,1490395433613,,,,,,,,0.0,0.09,0.99,-3.1,0.0,-0.4,900,0,,,,,,,,,,,,,,,,,,,
26834,1490395433633,,,,,,,,0.0,0.09,0.99,-3.1,-0.1,-0.4,900,0,,,,,,,,,,,,,,,,,,,
26854,1490395433653,,,,,,,,-0.01,0.08,0.99,-3.1,-0.0,-0.5,900,0,,,,,,,,,,,,,,,,,,,
26874,1490395433673,0,64.3,,74.8,60,66.3,,-0.01,0.07,0.98,-3.1,0.1,-0.4,920,0,1,1,0.0,0,38.159355,-122.454193,0.0,0.0,69.1,8,2,2.0,0,0.0,-1,0.0,0.0,0.0,0
26894,1490395433693,,,,,,,,-0.0,0.06,0.98,-3.1,0.1,-0.3,900,0,,,,,,,,,,,,,,,,,,,
26914,1490395433713,,,,,,,,0.0,0.07,0.98,-3.1,0.1,-0.2,900,0,,,,,,,,,,,,,,,,,,,
26934,1490395433733,,,,,,,,0.01,0.07,0.99,-3.1,0.1,-0.2,900,0,,,,,,,,,,,,,,,,,,,
26954,1490395433753,,,,,,,,0.01,0.07,0.99,-3.1,0.2,-0.1,900,0,,,,,,,,,,,,,,,,,,,
26974,1490395433773,,,,,57,,,0.02,0.08,0.99,-3.1,0.1,-0.2,900,0,1,1,0.0,0,38.159355,-122.454193,0.0,0.0,69.1,8,2,2.0,0,0.0,-1,0.0,0.0,0.0,0
26994,1490395433793,,,,,,,,0.02,0.09,0.99,-3.1,0.0,-0.2,900,0,,,,,,,,,,,,,,,,,,,
27014,1490395433813,,,,,,,,0.01,0.09,1.0,-3.1,0.0,-0.3,920,0,,,,,,,,,,,,,,,,,,,
27034,1490395433833,,,,,,,,0.01,0.09,0.99,-3.1,-0.0,-0.4,900,0,,,,,,,,,,,,,,,,,,,
27054,1490395433853,,,,,,,,0.0,0.09,0.99,-3.1,-0.0,-0.4,900,0,,,,,,,,,,,,,,,,,,,
27074,1490395433873,0,64.2,-0.0,74.2,60,69.4,14.92,-0.0,0.08,0.99,-3.1,0.0,-0.5,900,0,1,1,0.0,0,38.159355,-122.454193,0.0,0.0,69.1,8,2,2.0,0,0.0,-1,0.0,0.0,0.0,0
27094,1490395433893,,,,,,,,-0.0,0.07,0.99,-3.1,0.1,-0.4,900,0,,,,,,,,,,,,,,,,,,,
27114,1490395433913,,,,,,,,-0.0,0.07,0.98,-3.1,0.1,-0.3,900,0,,,,,,,,,,,,,,,,,,,
27134,1490395433933,,,,,,,,0.0,0.07,0.98,-3.1,0.1,-0.3,900,0,,,,,,,,,,,,,,,,,,,
27154,1490395433953,,,,,,,,0.01,0.07,0.98,-3.1,0.2,-0.2,900,0,,,,,,,,,,,,,,,,,,,
27174,1490395433973,,,,,58,,,0.01,0.07,0.98,-3.1,0.2,-0.2,880,0,1,1,0.0,0,38.159355,-122.454193,0.0,0.0,69.1,8,2,2.0,0,0.0,-1,0.0,0.0,0.0,0
27194,1490395433993,,,,,,,,0.01,0.08,0.99,-3.1,0.1,-0.2,880,0,,,,,,,,,,,,,,,,,,,
27214,1490395434007,,,,,,,,0.01,0.09,0.99,-3.1,0.0,-0.2,880,0,,,,,,,,,,,,,,,,,,,
27234,1490395434027,,,,,,,,0.01,0.09,0.99,-3.1,0.1,-0.3,880,0,,,,,,,,,,,,,,,,,,,
27254,1490395434047,,,,,,,,0.0,0.09,0.99,-3.1,-0.0,-0.4,900,0,,,,,,,,,,,,,,,,,,,
27274,1490395434067,0,63.8,,73.7,58,69.1,,-0.0,0.08,0.99,-3.1,0.0,-0.4,900,0,1,1,0.0,0,38.159355,-122.454193,0.0,0.0,69.1,8,2,2.0,0,0.0,-1,0.0,0.0,0.0,0
27294,1490395434093,,,,,,,,-0.0,0.07,0.99,-3.1,0.1,-0.4,860,0,,,,,,,,,,,,,,,,,,,
27314,1490395434113,,,,,,,,-0.0,0.07,0.99,-3.1,0.1,-0.3,860,0,,,,,,,,,,,,,,,,,,,
27334,1490395434133,,,,,,,,-0.0,0.07,0.99,-3.1,0.1,-0.2,880,0,,,,,,,,,,,,,,,,,,,
27354,1490395434153,,,,,,,,0.01,0.08,0.99,-3.1,0.2,-0.2,860,0,,,,,,,,,,,,,,,,,,,
27374,1490395434173,,,,,57,,,0.01,0.08,0.99,-3.2,0.1,-0.2,880,0,1,1,0.0,0,38.159355,-122.454193,0.0,0.0,69.1,8,2,2.0,0,0.0,-1,0.0,0.0,0.0,0
27394,1490395434193,,,,,,,,0.0,0.08,0.99,-3.1,0.1,-0.3,880,0,,,,,,,,,,,,,,,,,,,
27414,1490395434213,,,,,,,,-0.0,0.08,1.0,-3.1,0.1,-0.4,880,0,,,,,,,,,,,,,,,,,,,
27434,1490395434233,,,,,,,,-0.01,0.07,1.0,-3.1,-0.0,-0.5,840,0,,,,,,,,,,,,,,,,,,,
27454,1490395434253,,,,,,,,-0.01,0.07,0.99,-3.1,0.1,-0.5,840,0,,,,,,,,,,,,,,,,,,,
27474,1490395434273,0,61.6,,72.7,57,67.4,,-0.0,0.07,0.99,-3.1,0.2,-0.3,840,0,1,1,0.0,0,38.159355,-122.454193,0.0,0.0,69.1,8,2,2.0,0,0.0,-1,0.0,0.0,0.0,0
27494,1490395434293,,,,,,,,0.0,0.07,0.98,-3.1,0.1,-0.2,840,0,,,,,,,,,,,,,,,,,,,
27514,1490395434313,,,,,,,,0.01,0.08,0.98,-3.1,0.2,-0.1,860,0,,,,,,,,,,,,,,,,,,,
27534,1490395434333,,,,,,,,0.0,0.09,0.99,-3.1,0.1,-0.2,840,0,,,,,,,,,,,,,,,,,,,
27554,1490395434353,,,,,,,,-0.0,0.08,0.99,-3.1,0.1,-0.3,860,0,,,,,,,,,,,,,,,,,,,
27574,1490395434373,,,,,55,,,-0.01,0.07,0.99,-3.1,0.0,-0.4,820,0,1,1,0.0,0,38.159355,-122.454193,0.0,0.0,69.1,8,2,2.0,0,0.0,-1,0.0,0.0,0.0,0
27594,1490395434393,,,,,,,,-0.01,0.07,0.99,-3.1,0.1,-0.4,840,0,,,,,,,,,,,,,,,,,,,
27614,1490395434413,,,,,,,,-0.0,0.07,0.98,-3.1,0.2,-0.3,840,0,,,,,,,,,,,,,,,,,,,
27634,1490395434433,,,,,,,,0.01,0.07,0.98,-3.1,0.2,-0.2,820,0,,,,,,,,,,,,,,,,,,,
27654,1490395434453,,,,,,,,0.01,0.08,0.98,-3.1,0.1,-0.1,840,0,,,,,,,,,,,,,,,,,,,
27674,1490395434473,0,61.2,,74.0,57,65.4,,0.0,0.08,0.99,-3.1,0.2,-0.2,840,0,1,1,0.0,0,38.159355,-122.454193,0.0,0.0,69.1,8,2,2.0,0,0.0,-1,0.0,0.0,0.0,0
27694,1490395434492,,,,,,,,0.0,0.08,1.0,-3.1,0.1,-0.4,860,0,,,,,,,,,,,,,,,,,,,
27714,1490395434512,,,,,,,,-0.01,0.07,1.0,-3.1,0.0,-0.4,820,0,,,,,,,,,,,,,,,,,,,
27734,1490395434532,,,,,,,,-0.0,0.07,0.99,-3.1,0.1,-0.4,820,0,,,,,,,,,,,,,,,,,,,
27754,1490395434552,,,,,,,,0.0,0.08,0.99,-3.1,0.1,-0.3,840,0,,,,,,,,,,,,,,,,,,,
27774,1490395434572,,,,,54,,,0.01,0.08,0.98,-3.1,0.1,-0.2,840,0,1,1,0.0,0,38.159355,-122.454193,0.0,0.0,69.1,8,2,2.0,0,0.0,-1,0.0,0.0,0.0,0
27794,1490395434592,,,,,,,,0.0,0.09,0.98,-3.1,0.1,-0.2,840,0,,,,,,,,,,,,,,,,,,,
27814,1490395434612,,,,,,,,0.0,0.09,0.99,-3.1,0.1,-0.3,840,0,,,,,,,,,,,,,,,,,,,
27834,1490395434632,,,,,,,,-0.0,0.08,1.0,-3.1,0.0,-0.4,860,0,,,,,,,,,,,,,,,,,,,
27854,1490395434652,,,,,,,,-0.01,0.08,1.0,-3.1,0.0,-0.5,820,0,,,,,,,,,,,,,,,,,,,
27874,1490395434672,0,64.5,,74.4,55,69.2,,-0.0,0.07,0.99,-3.1,0.1,-0.4,820,0,1,1,0.0,0,38.159355,-122.454193,0.0,0.0,69.1,8,2,2.0,0,0.0,-1,0.0,0.0,0.0,0
27894,1490395434692,,,,,,,,0.0,0.08,0.98,-3.1,0.1,-0.3,840,0,,,,,,,,,,,,,,,,,,,
27914,1490395434712,,,,,,,,0.01,0.08,0.98,-3.1,0.1,-0.2,840,0,,,,,,,,,,,,,,,,,,,
27934,1490395434732,,,,,,,,0.01,0.09,0.99,-3.1,0.1,-0.2,860,0,,,,,,,,,,,,,,,,,,,
27954,1490395434752,,,,,,,,0.0,0.09,1.0,-3.1,0.1,-0.3,840,0,,,,,,,,,,,,,,,,,,,
27974,1490395434772,,,,,54,,,-0.0,0.08,1.0,-3.1,-0.0,-0.4,860,0,1,1,0.0,0,38.159355,-122.454193,0.0,0.0,69.1,8,2,2.0,0,0.0,-1,0.0,0.0,0.0,0
27994,1490395434794,,,,,,,,-0.0,0.07,0.99,-3.1,0.0,-0.4,820,0,,,,,,,,,,,,,,,,,,,
28014,1490395434814,,,,,,,,-0.0,0.07,0.98,-3.1,0.1,-0.3,820,0,,,,,,,,,,,,,,,,,,,
28034,1490395434834,,,,,,,,0.0,0.08,0.98,-3.1,0.1,-0.2,840,0,,,,,,,,,,,,,,,,,,,
28054,1490395434854,,,,,,,,0.01,0.08,0.98,-3.1,0.1,-0.2,820,0,,,,,,,,,,,,,,,,,,,
28074,1490395434874,0,61.6,-0.3,74.6,55,66.2,14.91,0.01,0.09,0.99,-3.1,0.1,-0.2,840,0,1,1,0.0,0,38.159355,-122.454193,0.0,0.0,69.1,8,2,2.0,0,0.0,-1,0.0,0.0,0.0,0
28094,1490395434892,,,,,,,,0.0,0.08,0.99,-3.1,-0.0,-0.4,840,0,,,,,,,,,,,,,,,,,,,
28114,1490395434912,,,,,,,,-0.0,0.07,1.0,-3.1,-0.1,-0.4,840,0,,,,,,,,,,,,,,,,,,,
28134,1490395434932,,,,,,,,-0.0,0.07,0.99,-3.1,0.0,-0.4,840,0,,,,,,,,,,,,,,,,,,,
28154,1490395434952,,,,,,,,-0.0,0.07,0.98,-3.1,0.0,-0.3,820,0,,,,,,,,,,,,,,,,,,,
28174,1490395434972,,,,,52,,,0.0,0.08,0.98,-3.1,0.1,-0.2,820,0,1,1,0.0,0,38.159355,-122.454193,0.0,0.0,69.1,8,2,2.0,0,0.0,-1,0.0,0.0,0.0,0
28194,1490395434992,,,,,,,,0.0,0.08,0.99,-3.1,0.0,-0.2,820,0,,,,,,,,,,,,,,,,,,,
28214,1490395435008,,,,,,,,-0.0,0.08,0.99,-3.1,0.1,-0.3,820,0,,,,,,,,,,,,,,,,,,,
28234,1490395435028,,,,,,,,-0.01,0.07,1.0,-3.1,-0.1,-0.4,820,0,,,,,,,,,,,,,,,,,,,
28254,1490395435048,,,,,,,,-0.01,0.07,0.99,-3.1,0.1,-0.4,820,0,,,,,,,,,,,,,,,,,,,
28274,1490395435068,0,61.6,,74.3,55,66.3,,-0.0,0.07,0.99,-3.1,0.2,-0.3,820,0,1,1,0.0,0,38.159355,-122.454193,0.0,0.0,69.1,8,2,2.0,0,0.0,-1,0.0,0.0,0.0,0
28294,1490395435094,,,,,,,,0.01,0.08,0.98,-3.1,0.1,-0.2,800,0,,,,,,,,,,,,,,,,,,,
28314,1490395435114,,,,,,,,0.0,0.08,0.99,-3.1,0.1,-0.2,820,0,,,,,,,,,,,,,,,,,,,
28334,1490395435134,,,,,,,,-0.0,0.08,1.0,-3.1,0.1,-0.3,800,0,,,,,,,,,,,,,,,,,,,
28354,1490395435154,,,,,,,,-0.01,0.07,1.0,-3.1,0.0,-0.4,820,0,,,,,,,,,,,,,,,,,,,
28374,1490395435174,,,,,53,,,-0.01,0.07,0.99,-3.1,0.1,-0.4,820,0,1,1,0.0,0,38.159355,-122.454193,0.0,0.0,69.1,8,2,2.0,0,0.0,-1,0.0,0.0,0.0,0
28394,1490395435194,,,,,,,,-0.0,0.08,0.98,-3.1,0.2,-0.2,820,0,,,,,,,,,,,,,,,,,,,
28414,1490395435214,,,,,,,,0.0,0.08,0.98,-3.1,0.1,-0.2,820,0,,,,,,,,,,,,,,,,,,,
28434,1490395435234,,,,,,,,-0.01,0.09,0.99,-3.1,0.1,-0.2,800,0,,,,,,,,,,,,,,,,,,,
28454,1490395435254,,,,,,,,-0.01,0.08,0.99,-3.1,0.1,-0.4,800,0,,,,,,,,,,,,,,,,,,,
28474,1490395435274,0,64.7,,74.1,52,69.5,,-0.01,0.07,0.99,-3.0,0.0,-0.5,800,0,1,1,0.0,0,38.159355,-122.454193,0.0,0.0,69.1,8,2,2.0,0,0.0,-1,0.0,0.0,0.0,0
28494,1490395435294,,,,,,,,-0.01,0.07,0.98,-3.0,0.1,-0.3,800,0,,,,,,,,,,,,,,,,,,,
28514,1490395435314,,,,,,,,-0.0,0.08,0.98,-3.1,0.3,-0.2,820,0,,,,,,,,,,,,,,,,,,,
28534,1490395435334,,,,,,,,0.0,0.09,0.98,-3.1,0.1,-0.2,820,0,,,,,,,,,,,,,,,,,,,
28554,1490395435354,,,,,,,,-0.0,0.09,0.99,-3.1,0.1,-0.3,820,0,,,,,,,,,,,,,,,,,,,
28574,1490395435374,,,,,53,,,-0.01,0.07,0.99,-3.0,0.0,-0.4,800,0,1,1,0.0,0,38.159355,-122.454193,0.0,0.0,69.1,8,2,2.0,0,0.0,-1,0.0,0.0,0.0,0
28594,1490395435394,,,,,,,,-0.01,0.08,0.99,-3.0,0.0,-0.3,800,0,,,,,,,,,,,,,,,,,,,
28614,1490395435414,,,,,,,,-0.0,0.08,0.98,-3.1,0.2,-0.2,800,0,,,,,,,,,,,,,,,,,,,
28634,1490395435434,,,,,,,,0.0,0.08,0.98,-3.1,0.1,-0.1,800,0,,,,,,,,,,,,,,,,,,,
28654,1490395435454,,,,,,,,-0.0,0.09,0.99,-3.1,0.1,-0.2,820,0,,,,,,,,,,,,,,,,,,,
28674,1490395435474,0,61.7,,72.4,53,67.7,,-0.01,0.08,1.0,-3.0,0.1,-0.4,820,0,1,1,0.0,0,38.159355,-122.454193,0.0,0.0,69.1,8,2,2.0,0,0.0,-1,0.0,0.0,0.0,0
28694,1490395435493,,,,,,,,-0.01,0.07,1.0,-3.0,0.1,-0.4,820,0,,,,,,,,,,,,,,,,,,,
28714,1490395435513,,,,,,,,-0.01,0.07,0.99,-3.1,0.1,-0.3,820,0,,,,,,,,,,,,,,,,,,,
28734,1490395435533,,,,,,,,0.0,0.08,0.98,-3.1,0.3,-0.2,800,0,,,,,,,,,,,,,,,,,,,
28754,1490395435553,,,,,,,,0.0,0.08,0.98,-3.1,0.1,-0.2,800,0,,,,,,,,,,,,,,,,,,,
28774,1490395435573,,,,,52,,,-0.0,0.08,0.99,-3.1,0.1,-0.3,800,0,1,1,0.0,0,38.159355,-122.454193,0.0,0.0,69.1,8,2,2.0,0,0.0,-1,0.0,0.0,0.0,0
28794,1490395435593,,,,,,,,-0.0,0.07,0.99,-3.1,0.0,-0.4,820,0,,,,,,,,,,,,,,,,,,,
28814,1490395435613,,,,,,,,-0.0,0.07,0.99,-3.1,0.0,-0.3,820,0,,,,,,,,,,,,,,,,,,,
28834,1490395435633,,,,,,,,0.0,0.08,0.98,-3.1,0.1,-0.2,800,0,,,,,,,,,,,,,,,,,,,
28854,1490395435653,,,,,,,,0.01,0.08,0.98,-3.1,0.1,-0.2,820,0,,,,,,,,,,,,,,,,,,,
28874,1490395435673,0,62.2,,72.4,50,67.9,,-0.0,0.09,0.99,-3.1,0.1,-0.3,780,0,1,1,0.0,0,38.159355,-122.454193,0.0,0.0,69.1,8,2,2.0,0,0.0,-1,0.0,0.0,0.0,0
28894,1490395435693,,,,,,,,-0.01,0.08,0.99,-3.1,0.1,-0.4,800,0,,,,,,,,,,,,,,,,,,,
28914,1490395435713,,,,,,,,-0.01,0.08,1.0,-3.1,0.0,-0.4,800,0,,,,,,,,,,,,,,,,,,,
28934,1490395435733,,,,,,,,-0.0,0.08,0.98,-3.1,0.0,-0.3,780,0,,,,,,,,,,,,,,,,,,,
28954,1490395435753,,,,,,,,0.0,0.08,0.98,-3.1,0.1,-0.2,800,0,,,,,,,,,,,,,,,,,,,
28974,1490395435773,,,,,52,,,-0.0,0.08,0.99,-3.1,0.0,-0.2,800,0,1,1,0.0,0,38.159355,-122.454193,0.0,0.0,69.1,8,2,2.0,0,0.0,-1,0.0,0.0,0.0,0
28994,1490395435793,,,,,,,,-0.01,0.08,0.99,-3.1,0.1,-0.4,820,0,,,,,,,,,,,,,,,,,,,
29014,1490395435813,,,,,,,,-0.01,0.07,0.99,-3.0,0.1,-0.4,820,0,,,,,,,,,,,,,,,,,,,
29034,1490395435833,,,,,,,,-0.0,0.08,0.98,-3.1,0.1,-0.3,780,0,,,,,,,,,,,,,,,,,,,
29054,1490395435853,,,,,,,,0.0,0.08,0.98,-3.1,0.2,-0.2,800,0,,,,,,,,,,,,,,,,,,,
29074,1490395435873,0,61.6,-0.2,72.2,52,67.3,14.88,-0.0,0.08,0.99,-3.1,0.0,-0.2,780,0,1,1,0.0,0,38.159355,-122.454193,0.0,0.0,69.1,8,2,2.0,0,0.0,-1,0.0,0.0,0.0,0
29094,1490395435893,,,,,,,,-0.01,0.08,0.99,-3.0,0.1,-0.4,800,0,,,,,,,,,,,,,,,,,,,
29114,1490395435913,,,,,,,,-0.01,0.07,0.99,-3.0,0.1,-0.5,800,0,,,,,,,,,,,,,,,,,,,
29134,1490395435933,,,,,,,,-0.0,0.07,0.99,-3.1,0.1,-0.3,800,2,,,,,,,,,,,,,,,,,,,
29154,1490395435953,,,,,,,,0.0,0.08,0.98,-3.1,0.2,-0.2,820,2,,,,,,,,,,,,,,,,,,,
29174,1490395435973,,,,,51,,,0.0,0.08,0.99,-3.1,0.0,-0.2,780,2,1,1,0.0,0,38.159355,-122.454193,0.0,0.0,69.1,8,2,2.0,0,0.0,-1,0.0,0.0,0.0,0
29194,1490395435993,,,,,,,,-0.01,0.08,0.99,-3.0,0.1,-0.3,800,2,,,,,,,,,,,,,,,,,,,
29214,1490395436007,,,,,,,,-0.01,0.07,0.99,-3.0,0.1,-0.5,780,2,,,,,,,,,,,,,,,,,,,
29234,1490395436027,,,,,,,,-0.0,0.07,0.98,-3.0,0.1,-0.4,780,2,,,,,,,,,,,,,,,,,,,
29254,1490395436047,,,,,,,,-0.0,0.08,0.98,-3.1,0.2,-0.3,800,9,,,,,,,,,,,,,,,,,,,
29274,1490395436067,0,61.5,,73.7,54,67.4,,0.0,0.08,0.98,-3.1,0.1,-0.2,800,9,1,1,800.0,0,38.159355,-122.454193,0.0,0.0,69.1,8,2,2.0,0,0.0,-1,0.0,0.0,0.0,0
29294,1490395436093,,,,,,,,-0.01,0.08,0.98,-3.0,0.1,-0.3,820,9,,,,,,,,,,,,,,,,,,,
29314,1490395436113,,,,,,,,-0.01,0.07,0.99,-3.0,0.0,-0.5,780,9,,,,,,,,,,,,,,,,,,,
29334,1490395436133,,,,,,,,-0.01,0.07,0.98,-3.0,0.1,-0.4,780,9,,,,,,,,,,,,,,,,,,,
29354,1490395436153,,,,,,,,-0.0,0.08,0.98,-3.0,0.2,-0.2,800,9,,,,,,,,,,,,,,,,,,,
29374,1490395436173,,,,,56,,,0.0,0.09,0.98,-3.0,0.0,-0.2,780,9,1,1,91.111,0,38.159355,-122.454193,0.0,0.0,69.1,8,2,2.0,0,0.0,-1,0.0,0.0,0.0,0
29394,1490395436193,,,,,,,,-0.01,0.09,0.99,-3.0,0.0,-0.3,800,9,,,,,,,,,,,,,,,,,,,
29414,1490395436213,,,,,,,,-0.01,0.08,0.99,-3.0,0.0,-0.5,800,9,,,,,,,,,,,,,,,,,,,
29434,1490395436233,,,,,,,,-0.01,0.08,0.99,-3.0,0.1,-0.4,800,9,,,,,,,,,,,,,,,,,,,
29454,1490395436253,,,,,,,,-0.01,0.09,0.98,-3.0,0.2,-0.3,800,9,,,,,,,,,,,,,,,,,,,
29474,1490395436273,0,63.5,,72.5,55,66.8,,-0.0,0.09,0.98,-3.0,0.1,-0.2,780,17,1,1,88.889,0,38.159355,-122.454193,0.0,0.0,69.1,8,2,2.0,0,0.0,-1,0.0,0.0,0.0,0
29494,1490395436293,,,,,,,,-0.01,0.09,0.98,-3.0,0.1,-0.3,800,17,,,,,,,,,,,,,,,,,,,
29514,1490395436313,,,,,,,,-0.02,0.08,0.99,-3.0,0.1,-0.4,780,17,,,,,,,,,,,,,,,,,,,
29534,1490395436333,,,,,,,,-0.02,0.08,0.98,-3.0,0.2,-0.4,780,17,,,,,,,,,,,,,,,,,,,
29554,1490395436353,,,,,,,,-0.01,0.09,0.99,-3.0,0.2,-0.3,780,17,,,,,,,,,,,,,,,,,,,
29574,1490395436373,,,,,58,,,-0.0,0.09,0.99,-3.0,0.0,-0.2,780,17,1,1,50.0,0,38.159355,-122.454193,0.0,0.0,69.1,8,2,2.0,0,0.0,-1,0.0,0.0,0.0,0
29594,1490395436393,,,,,,,,-0.01,0.09,0.99,-3.0,0.0,-0.4,780,17,,,,,,,,,,,,,,,,,,,
29614,1490395436413,,,,,,,,-0.02,0.08,1.0,-3.0,0.0,-0.4,780,17,,,,,,,,,,,,,,,,,,,
29634,1490395436433,,,,,,,,-0.02,0.08,0.99,-3.1,0.1,-0.3,740,18,,,,,,,,,,,,,,,,,,,
29654,1490395436453,,,,,,,,-0.02,0.09,0.98,-3.1,0.2,-0.2,760,18,,,,,,,,,,,,,,,,,,,
29674,1490395436473,0,62.9,,74.9,56,68.6,,-0.02,0.08,0.99,-3.1,0.1,-0.3,740,18,1,1,48.75,0,38.159355,-122.454193,0.0,0.0,69.1,8,2,2.0,0,0.0,-1,0.0,0.0,0.0,0
29694,1490395436492,,,,,,,,-0.03,0.07,0.99,-3.0,0.1,-0.4,760,18,,,,,,,,,,,,,,,,,,,
29714,1490395436512,,,,,,,,-0.03,0.08,0.99,-3.0,0.1,-0.4,760,20,,,,,,,,,,,,,,,,,,,
29734,1490395436532,,,,,,,,-0.03,0.08,0.98,-3.0,0.1,-0.3,760,20,,,,,,,,,,,,,,,,,,,
29754,1490395436552,,,,,,,,-0.03,0.08,0.98,-3.0,0.1,-0.2,760,20,,,,,,,,,,,,,,,,,,,
29774,1490395436572,,,,,59,,,-0.03,0.07,0.99,-3.0,0.1,-0.4,740,23,1,1,38.0,0,38.159355,-122.454193,0.0,0.0,69.1,8,2,2.0,0,0.0,-1,0.0,0.0,0.0,0
29794,1490395436594,,,,,,,,-0.04,0.07,0.99,-3.0,0.2,-0.3,740,23,,,,,,,,,,,,,,,,,,,
29814,1490395436614,,,,,,,,-0.03,0.08,0.98,-3.0,0.2,-0.2,760,23,,,,,,,,,,,,,,,,,,,
29834,1490395436634,,,,,,,,-0.03,0.08,0.98,-3.0,0.1,-0.2,740,34,,,,,,,,,,,,,,,,,,,
29854,1490395436654,,,,,,,,-0.03,0.08,0.99,-3.0,0.1,-0.3,760,34,,,,,,,,,,,,,,,,,,,
29874,1490395436674,0,63.6,,75.1,57,68.6,,-0.03,0.08,0.99,-3.0,0.2,-0.3,760,26,1,1,33.043,0,38.159355,-122.454193,0.0,0.0,69.1,8,2,2.0,0,0.0,-1,0.0,0.0,0.0,0
29894,1490395436692,,,,,,,,-0.03,0.08,0.99,-3.0,0.2,-0.3,740,26,,,,,,,,,,,,,,,,,,,
29914,1490395436712,,,,,,,,-0.03,0.08,0.98,-3.0,0.1,-0.2,760,26,,,,,,,,,,,,,,,,,,,
29934,1490395436732,,,,,,,,-0.03,0.08,0.98,-3.0,0.1,-0.3,740,31,,,,,,,,,,,,,,,,,,,
29954,1490395436752,,,,,,,,-0.03,0.08,0.99,-2.9,0.2,-0.3,740,31,,,,,,,,,,,,,,,,,,,
29974,1490395436772,,,,,61,,,-0.03,0.09,0.99,-3.0,0.2,-0.3,760,35,1,1,29.231,0,38.159355,-122.454193,0.0,0.0,69.1,8,2,2.0,0,0.0,-1,0.0,0.0,0.0,0
29994,1490395436792,,,,,,,,-0.03,0.09,0.99,-2.9,0.2,-0.2,740,35,,,,,,,,,,,,,,,,,,,
30014,1490395436810,,,,,,,,-0.03,0.08,0.99,-2.9,0.1,-0.3,760,34,,,,,,,,,,,,,,,,,,,
30034,1490395436830,,,,,,,,-0.03,0.08,1.0,-2.9,0.2,-0.4,760,34,,,,,,,,,,,,,,,,,,,
30054,1490395436850,,,,,,,,-0.03,0.08,0.99,-2.9,0.1,-0.3,760,40,,,,,,,,,,,,,,,,,,,
30074,1490395436870,0,65.1,0.0,75.6,57,69.6,14.89,-0.03,0.08,0.98,-2.9,0.1,-0.3,760,40,1,1,22.424,0,38.159355,-122.454193,0.0,0.0,69.1,8,2,2.0,0,0.0,-1,0.0,0.0,0.0,0
30094,1490395436894,,,,,,,,-0.03,0.08,0.98,-2.9,0.1,-0.3,720,38,,,,,,,,,,,,,,,,,,,
30114,1490395436914,,,,,,,,-0.03,0.08,0.99,-2.9,0.1,-0.4,720,46,,,,,,,,,,,,,,,,,,,
30134,1490395436934,,,,,,,,-0.03,0.08,0.99,-2.9,0.1,-0.3,740,46,,,,,,,,,,,,,,,,,,,
30154,1490395436954,,,,,,,,-0.03,0.08,0.98,-2.9,0.1,-0.2,740,38,,,,,,,,,,,,,,,,,,,
30174,1490395436974,,,,,60,,,-0.03,0.07,0.99,-2.9,0.0,-0.3,760,38,1,1,18.947,0,38.159355,-122.454193,0.0,0.0,69.1,8,2,2.0,0,0.0,-1,0.0,0.0,0.0,0
30194,1490395436994,,,,,,,,-0.03,0.07,0.99,-2.9,0.1,-0.4,760,51,,,,,,,,,,,,,,,,,,,
30214,1490395437008,,,,,,,,-0.03,0.07,0.99,-2.9,0.1,-0.4,740,45,,,,,,,,,,,,,,,,,,,
30234,1490395437028,,,,,,,,-0.03,0.07,0.98,-2.9,0.1,-0.3,760,45,,,,,,,,,,,,,,,,,,,
30254,1490395437048,,,,,,,,-0.03,0.07,0.98,-2.8,0.0,-0.4,720,46,,,,,,,,,,,,,,,,,,,
30274,1490395437068,0,64.7,,75.0,59,69.2,,-0.04,0.07,0.99,-2.8,0.1,-0.4,720,57,1,1,14.8,0,38.159355,-122.454193,0.0,0.0,69.1,8,2,1.7,0,0.0,-1,0.0,0.0,0.0,0
30294,1490395437092,,,,,,,,-0.03,0.08,0.99,-2.8,0.1,-0.3,740,57,,,,,,,,,,,,,,,,,,,
30314,1490395437112,,,,,,,,-0.03,0.08,0.98,-2.8,0.1,-0.3,720,45,,,,,,,,,,,,,,,,,,,
30334,1490395437132,,,,,,,,-0.03,0.07,0.99,-2.8,0.0,-0.4,740,54,,,,,,,,,,,,,,,,,,,
30354,1490395437152,,,,,,,,-0.03,0.07,0.99,-2.8,0.1,-0.4,740,54,,,,,,,,,,,,,,,,,,,
30374,1490395437172,,,,,60,,,-0.03,0.07,0.99,-2.8,0.1,-0.3,740,57,1,1,16.364,0,38.159355,-122.454193,0.0,0.0,69.1,8,3,1.7,0,0.0,-1,0.0,0.0,0.0,0
30394,1490395437192,,,,,,,,-0.03,0.08,0.98,-2.8,0.0,-0.2,740,49,,,,,,,,,,,,,,,,,,,
30414,1490395437212,,,,,,,,-0.03,0.07,0.99,-2.8,-0.0,-0.3,720,60,,,,,,,,,,,,,,,,,,,
30434,1490395437232,,,,,,,,-0.04,0.08,0.99,-2.8,0.0,-0.3,720,60,,,,,,,,,,,,,,,,,,,
30454,1490395437252,,,,,,,,-0.03,0.08,0.99,-2.8,0.0,-0.2,740,58,,,,,,,,,,,,,,,,,,,
30474,1490395437272,0,64.3,,73.3,59,68.2,,-0.03,0.08,0.98,-2.8,-0.1,-0.2,720,54,1,1,15.102,0,38.159355,-122.454193,0.0,0.0,69.1,8,3,1.7,0,0.0,-1,0.0,0.0,0.0,0
30494,1490395437292,,,,,,,,-0.04,0.08,0.99,-2.7,-0.1,-0.3,740,66,,,,,,,,,,,,,,,,,,,
30514,1490395437312,,,,,,,,-0.04,0.08,0.99,-2.7,0.0,-0.3,740,66,,,,,,,,,,,,,,,,,,,
30534,1490395437332,,,,,,,,-0.03,0.08,0.99,-2.7,-0.0,-0.3,740,66,,,,,,,,,,,,,,,,,,,
30554,1490395437352,,,,,,,,-0.03,0.08,0.99,-2.7,-0.0,-0.2,760,54,,,,,,,,,,,,,,,,,,,
30574,1490395437372,,,,,59,,,-0.04,0.08,0.99,-2.7,-0.1,-0.3,720,65,1,1,11.212,0,38.159355,-122.454193,0.0,0.0,69.1,8,3,1.7,0,0.0,-1,0.0,0.0,0.0,0
30594,1490395437394,,,,,,,,-0.04,0.08,0.99,-2.7,-0.1,-0.4,720,74,,,,,,,,,,,,,,,,,,,
30614,1490395437414,,,,,,,,-0.03,0.08,0.99,-2.7,-0.1,-0.3,740,63,,,,,,,,,,,,,,,,,,,
30634,1490395437434,,,,,,,,-0.03,0.09,0.99,-2.7,-0.1,-0.3,740,62,,,,,,,,,,,,,,,,,,,
30654,1490395437454,,,,,,,,-0.03,0.08,0.99,-2.7,-0.2,-0.4,740,74,,,,,,,,,,,,,,,,,,,
30674,1490395437474,0,61.5,,72.5,59,66.5,,-0.03,0.08,1.0,-2.7,-0.1,-0.4,740,74,1,1,10.137,0,38.159355,-122.454193,0.0,0.0,69.1,8,3,1.7,0,0.0,-1,0.0,0.0,0.0,0
30694,1490395437493,,,,,,,,-0.03,0.08,0.99,-2.6,-0.0,-0.3,740,74,,,,,,,,,,,,,,,,,,,
30714,1490395437513,,,,,,,,-0.03,0.08,0.99,-2.6,-0.1,-0.3,760,65,,,,,,,,,,,,,,,,,,,
30734,1490395437533,,,,,,,,-0.03,0.08,0.99,-2.6,-0.1,-0.3,720,71,,,,,,,,,,,,,,,,,,,
30754,1490395437553,,,,,,,,-0.03,0.08,0.99,-2.6,0.0,-0.4,720,80,,,,,,,,,,,,,,,,,,,
30774,1490395437573,,,,,57,,,-0.03,0.08,0.99,-2.6,0.1,-0.3,740,72,1,1,11.875,0,38.159355,-122.454193,0.0,0.0,69.1,8,3,1.7,0,0.0,-1,0.0,0.0,0.0,0
30794,1490395437593,,,,,,,,-0.03,0.08,0.98,-2.5,0.0,-0.3,720,66,,,,,,,,,,,,,,,,,,,
30814,1490395437613,,,,,,,,-0.04,0.08,0.99,-2.5,-0.0,-0.4,740,77,,,,,,,,,,,,,,,,,,,
