"Interval"|"ms"|0|0|1,"Utc"|"ms"|0|0|1,"FuelLevel"|"F"|0|100|5,"OilTemp"|"F"|0.0|300.0|5,"CoolantPressPSI"|"PSI"|0.0|20.0|1,"Coolant"|"F"|0.0|300.0|5,"OilPress"|"PSI"|0|150|10,"EngineTemp"|"F"|0.0|300.0|5,"Battery"|"Volts"|0.0|20.0|1,"AccelX"|"G"|-3.0|3.0|50,"AccelY"|"G"|-3.0|3.0|50,"AccelZ"|"G"|-3.0|3.0|50,"Yaw"|"Deg/Sec"|-300.0|300.0|50,"Pitch"|"Deg/Sec"|-300.0|300.0|50,"Roll"|"Deg/Sec"|-300.0|300.0|50,"RPM"|""|0|10000|50,"Driveshaft"|"RPM"|0|5000|50,"GPIO1"|""|0|1|10,"GPIO2"|""|0|1|10,"GearRatio"|""|-5.0|5.0|10,"Gear"|""|-1|5|10,"Latitude"|"Degrees"|-180.0|180.0|10,"Longitude"|"Degrees"|-180.0|180.0|10,"Speed"|"mph"|0.0|150.0|10,"Distance"|"mi"|0.0|0.0|10,"Altitude"|"ft"|0.0|4000.0|10,"GPSSats"|""|0|20|10,"GPSQual"|""|0|5|10,"GPSDOP"|""|0.0|20.0|10,"LapCount"|""|0|0|10,"LapTime"|"Min"|0.0|0.0|10,"Sector"|""|0|0|10,"SectorTime"|"Min"|0.0|0.0|10,"PredTime"|"Min"|0.0|0.0|10,"ElapsedTime"|"Min"|0.0|0.0|10,"CurrentLap"|""|0|0|10
31054,1490396490521,,,,,,,,0.03,0.04,1.0,-3.1,0.2,-0.5,580,0,,,,,,,,,,,,,,,,,,,
31074,1490396490541,0,95.4,-0.4,138.5,1,118.9,11.12,0.04,0.04,0.99,-3.0,-0.2,-0.5,580,0,1,0,0.0,0,38.160439,-122.453674,0.0,0.0,187.2,9,2,2.1,0,0.0,-1,0.0,0.0,0.0,0
31094,1490396490561,,,,,,,,0.04,0.06,0.99,-3.1,-0.1,-0.3,720,0,,,,,,,,,,,,,,,,,,,
31114,1490396490581,,,,,,,,0.04,0.06,0.99,-3.1,-0.1,-0.2,840,0,,,,,,,,,,,,,,,,,,,
31134,1490396490601,,,,,,,,0.03,0.07,1.0,-3.1,-0.2,-0.2,860,0,,,,,,,,,,,,,,,,,,,
31154,1490396490621,,,,,,,,0.03,0.08,1.01,-3.1,-0.1,-0.3,820,0,,,,,,,,,,,,,,,,,,,
31174,1490396490641,,,,,2,,,0.03,0.07,1.01,-3.1,0.0,-0.5,780,0,1,0,0.0,0,38.160439,-122.453674,0.0,0.0,187.2,9,2,2.1,0,0.0,-1,0.0,0.0,0.0,0
31194,1490396490661,,,,,,,,0.02,0.07,1.0,-3.0,-0.1,-0.5,780,0,,,,,,,,,,,,,,,,,,,
31214,1490396490681,,,,,,,,0.02,0.06,1.0,-3.1,0.0,-0.3,760,6,,,,,,,,,,,,,,,,,,,
31234,1490396490701,,,,,,,,0.02,0.06,1.01,-3.1,0.0,-0.3,800,6,,,,,,,,,,,,,,,,,,,
31254,1490396490721,,,,,,,,0.02,0.05,1.01,-3.0,0.2,-0.3,800,6,,,,,,,,,,,,,,,,,,,
31274,1490396490741,0,96.2,,139.6,3,119.0,,0.02,0.05,1.01,-3.0,-0.0,-0.4,820,6,1,0,0.0,0,38.160439,-122.453674,0.0,0.0,187.2,9,2,2.1,0,0.0,-1,0.0,0.0,0.0,0
31294,1490396490761,,,,,,,,0.02,0.05,1.0,-3.0,0.0,-0.5,820,6,,,,,,,,,,,,,,,,,,,
31314,1490396490781,,,,,,,,0.02,0.05,0.99,-3.0,0.0,-0.4,760,6,,,,,,,,,,,,,,,,,,,
31334,1490396490801,,,,,,,,0.01,0.05,0.99,-3.0,0.1,-0.3,720,6,,,,,,,,,,,,,,,,,,,
31354,1490396490821,,,,,,,,0.01,0.05,0.99,-3.0,0.1,-0.3,720,6,,,,,,,,,,,,,,,,,,,
31374,1490396490841,,,,,4,,,0.02,0.05,1.0,-3.0,0.1,-0.2,720,6,1,1,126.667,0,38.160439,-122.453674,0.0,0.0,187.2,9,2,2.1,0,0.0,-1,0.0,0.0,0.0,0
31394,1490396490861,,,,,,,,0.02,0.06,0.99,-3.1,0.0,-0.2,740,6,,,,,,,,,,,,,,,,,,,
31414,1490396490881,,,,,,,,0.02,0.07,1.0,-3.1,0.1,-0.3,740,6,,,,,,,,,,,,,,,,,,,
31434,1490396490899,,,,,,,,0.02,0.07,1.0,-3.0,0.2,-0.3,720,6,,,,,,,,,,,,,,,,,,,
31454,1490396490919,,,,,,,,0.02,0.07,1.0,-3.1,0.2,-0.3,720,6,,,,,,,,,,,,,,,,,,,
31474,1490396490939,0,93.9,,139.0,5,121.0,,0.02,0.07,1.0,-3.1,0.4,-0.2,720,6,1,1,123.333,0,38.160439,-122.453674,0.0,0.0,187.2,9,2,2.1,0,0.0,-1,0.0,0.0,0.0,0
31494,1490396490959,,,,,,,,0.02,0.07,0.99,-3.1,0.2,-0.3,720,6,,,,,,,,,,,,,,,,,,,
31514,1490396490979,,,,,,,,0.03,0.07,0.99,-3.1,0.3,-0.3,720,6,,,,,,,,,,,,,,,,,,,
31534,1490396490997,,,,,,,,0.03,0.07,0.99,-3.1,0.3,-0.3,720,6,,,,,,,,,,,,,,,,,,,
31554,1490396491017,,,,,,,,0.03,0.06,0.99,-3.1,0.3,-0.3,720,6,,,,,,,,,,,,,,,,,,,
31574,1490396491037,,,,,6,,,0.03,0.06,0.98,-3.0,0.3,-0.3,720,6,1,1,120.0,0,38.160439,-122.453674,0.0,0.0,187.2,9,2,0.6,0,0.0,-1,0.0,0.0,0.0,0
31594,1490396491057,,,,,,,,0.02,0.05,0.99,-3.1,0.2,-0.3,720,6,,,,,,,,,,,,,,,,,,,
31614,1490396491077,,,,,,,,0.03,0.05,0.98,-3.1,0.3,-0.3,700,6,,,,,,,,,,,,,,,,,,,
31634,1490396491103,,,,,,,,0.02,0.05,0.98,-3.1,0.3,-0.3,680,6,,,,,,,,,,,,,,,,,,,
31654,1490396491123,,,,,,,,0.02,0.05,0.99,-3.1,0.3,-0.3,680,6,,,,,,,,,,,,,,,,,,,
31674,1490396491143,0,95.8,,138.7,7,118.5,,0.02,0.06,0.98,-3.1,0.3,-0.3,660,6,1,1,116.667,0,38.160439,-122.453674,0.0,0.0,187.2,9,2,0.6,0,0.0,-1,0.0,0.0,0.0,0
31694,1490396491163,,,,,,,,0.02,0.05,0.99,-3.1,0.3,-0.3,640,6,,,,,,,,,,,,,,,,,,,
31714,1490396491183,,,,,,,,0.02,0.06,0.98,-3.1,0.3,-0.3,640,6,,,,,,,,,,,,,,,,,,,
31734,1490396491200,,,,,,,,0.02,0.07,0.98,-3.1,0.2,-0.3,620,6,,,,,,,,,,,,,,,,,,,
31754,1490396491220,,,,,,,,0.02,0.06,0.99,-3.1,0.2,-0.3,600,6,,,,,,,,,,,,,,,,,,,
31774,1490396491240,,,,,8,,,0.02,0.06,0.98,-3.1,0.1,-0.3,600,6,1,1,106.667,0,38.160408,-122.453682,1.18,0.0,88.5,9,2,0.6,0,0.0,-1,0.0,0.0,0.0,0
31794,1490396491260,,,,,,,,0.02,0.06,0.99,-3.1,0.2,-0.3,560,6,,,,,,,,,,,,,,,,,,,
31814,1490396491280,,,,,,,,0.02,0.06,0.99,-3.1,0.2,-0.3,560,6,,,,,,,,,,,,,,,,,,,
31834,1490396491300,,,,,,,,0.02,0.07,0.98,-3.1,0.1,-0.3,540,6,,,,,,,,,,,,,,,,,,,
31854,1490396491320,,,,,,,,0.02,0.06,0.98,-3.1,0.2,-0.3,540,6,,,,,,,,,,,,,,,,,,,
31874,1490396491340,0,94.1,,139.3,8,121.0,,0.02,0.06,0.98,-3.1,0.1,-0.3,500,6,1,1,93.333,0,38.160408,-122.453682,1.07,0.0,88.5,9,2,0.6,0,0.0,-1,0.0,0.0,0.0,0
31894,1490396491360,,,,,,,,0.02,0.06,0.98,-3.1,0.2,-0.3,500,6,,,,,,,,,,,,,,,,,,,
31914,1490396491380,,,,,,,,0.02,0.07,0.98,-3.1,0.1,-0.3,480,6,,,,,,,,,,,,,,,,,,,
31934,1490396491404,,,,,,,,0.02,0.07,0.98,-3.1,0.1,-0.3,480,6,,,,,,,,,,,,,,,,,,,
31954,1490396491424,,,,,,,,0.02,0.07,0.98,-3.1,0.1,-0.3,420,6,,,,,,,,,,,,,,,,,,,
31974,1490396491444,,,,,9,,,0.02,0.07,0.99,-3.1,0.2,-0.3,420,6,1,1,83.333,0,38.160408,-122.453682,0.0,0.0,88.5,9,2,0.6,0,0.0,-1,0.0,0.0,0.0,0
31994,1490396491464,,,,,,,,0.02,0.07,0.99,-3.1,0.2,-0.3,420,6,,,,,,,,,,,,,,,,,,,
32014,1490396491484,,,,,,,,0.02,0.07,0.99,-3.1,0.2,-0.3,380,6,,,,,,,,,,,,,,,,,,,
32034,1490396491502,,,,,,,,0.02,0.07,0.99,-3.1,0.1,-0.3,380,384615,,,,,,,,,,,,,,,,,,,
32054,1490396491522,,,,,,,,0.02,0.07,0.99,-3.1,0.2,-0.3,360,0,,,,,,,,,,,,,,,,,,,
32074,1490396491542,0,96.0,-0.4,139.4,9,118.6,13.27,0.02,0.07,0.99,-3.1,0.1,-0.3,360,0,1,1,70.0,0,38.160408,-122.453682,0.0,0.0,88.5,9,2,0.6,0,0.0,-1,0.0,0.0,0.0,0
32094,1490396491562,,,,,,,,0.02,0.07,0.98,-3.1,0.2,-0.2,360,0,,,,,,,,,,,,,,,,,,,
32114,1490396491582,,,,,,,,0.02,0.07,0.98,-3.1,0.0,-0.3,340,0,,,,,,,,,,,,,,,,,,,
32134,1490396491602,,,,,,,,0.02,0.06,0.98,-3.1,0.2,-0.3,340,0,,,,,,,,,,,,,,,,,,,
32154,1490396491622,,,,,,,,0.02,0.07,0.98,-3.1,0.1,-0.3,340,0,,,,,,,,,,,,,,,,,,,
32174,1490396491642,,,,,9,,,0.02,0.07,0.98,-3.1,0.1,-0.3,340,0,1,1,0.0,0,38.160408,-122.453682,0.0,0.0,88.5,9,2,0.6,0,0.0,-1,0.0,0.0,0.0,0
32194,1490396491662,,,,,,,,0.02,0.07,0.99,-3.1,0.2,-0.3,300,0,,,,,,,,,,,,,,,,,,,
32214,1490396491682,,,,,,,,0.02,0.07,0.99,-3.1,0.1,-0.3,300,0,,,,,,,,,,,,,,,,,,,
32234,1490396491702,,,,,,,,0.02,0.07,0.99,-3.1,0.2,-0.3,300,0,,,,,,,,,,,,,,,,,,,
32254,1490396491722,,,,,,,,0.02,0.07,0.99,-3.1,0.2,-0.3,260,0,,,,,,,,,,,,,,,,,,,
32274,1490396491742,0,96.4,,139.7,10,120.0,,0.02,0.07,0.99,-3.1,0.2,-0.3,260,0,1,1,0.0,0,38.160408,-122.453682,0.0,0.0,88.5,9,2,0.6,0,0.0,-1,0.0,0.0,0.0,0
32294,1490396491762,,,,,,,,0.02,0.07,0.99,-3.1,0.1,-0.3,260,0,,,,,,,,,,,,,,,,,,,
32314,1490396491782,,,,,,,,0.02,0.07,0.99,-3.1,0.1,-0.3,260,0,,,,,,,,,,,,,,,,,,,
32334,1490396491802,,,,,,,,0.02,0.07,0.99,-3.1,0.2,-0.3,260,0,,,,,,,,,,,,,,,,,,,
32354,1490396491822,,,,,,,,0.02,0.07,0.99,-3.1,0.2,-0.3,220,0,,,,,,,,,,,,,,,,,,,
32374,1490396491842,,,,,10,,,0.02,0.07,0.99,-3.1,0.2,-0.3,220,0,1,1,0.0,0,38.160408,-122.453682,0.0,0.0,88.5,9,2,0.6,0,0.0,-1,0.0,0.0,0.0,0
32394,1490396491862,,,,,,,,0.02,0.07,0.99,-3.1,0.2,-0.3,220,0,,,,,,,,,,,,,,,,,,,
32414,1490396491882,,,,,,,,0.02,0.07,0.99,-3.1,0.1,-0.3,220,0,,,,,,,,,,,,,,,,,,,
32434,1490396491902,,,,,,,,0.02,0.07,0.99,-3.1,0.1,-0.3,220,0,,,,,,,,,,,,,,,,,,,
32454,1490396491922,,,,,,,,0.02,0.07,0.99,-3.1,0.2,-0.3,180,0,,,,,,,,,,,,,,,,,,,
32474,1490396491942,0,95.7,,139.3,11,118.6,,0.02,0.07,0.99,-3.1,0.1,-0.3,180,0,1,1,0.0,0,38.160408,-122.453682,1.02,0.0,89.4,9,2,0.6,0,0.0,-1,0.0,0.0,0.0,0
32494,1490396491962,,,,,,,,0.02,0.07,0.99,-3.1,0.2,-0.3,180,0,,,,,,,,,,,,,,,,,,,
32514,1490396491982,,,,,,,,0.02,0.07,0.99,-3.1,0.2,-0.2,180,0,,,,,,,,,,,,,,,,,,,
32534,1490396491996,,,,,,,,0.02,0.07,0.99,-3.1,0.2,-0.3,180,0,,,,,,,,,,,,,,,,,,,
32554,1490396492016,,,,,,,,0.02,0.07,0.99,-3.1,0.2,-0.3,180,0,,,,,,,,,,,,,,,,,,,
32574,1490396492036,,,,,10,,,0.02,0.07,0.99,-3.1,0.2,-0.3,180,0,1,1,0.0,0,38.160408,-122.453682,0.93,0.0,89.5,9,2,0.3,0,0.0,-1,0.0,0.0,0.0,0
32594,1490396492056,,,,,,,,0.02,0.07,0.99,-3.1,0.2,-0.3,120,0,,,,,,,,,,,,,,,,,,,
32614,1490396492076,,,,,,,,0.02,0.07,0.99,-3.1,0.2,-0.3,120,0,,,,,,,,,,,,,,,,,,,
32634,1490396492098,,,,,,,,0.02,0.07,0.99,-3.1,0.2,-0.2,120,0,,,,,,,,,,,,,,,,,,,
32654,1490396492118,,,,,,,,0.02,0.07,0.99,-3.1,0.1,-0.2,120,0,,,,,,,,,,,,,,,,,,,
32674,1490396492138,0,96.3,,139.5,10,118.9,,0.02,0.07,0.99,-3.1,0.1,-0.3,120,0,1,1,0.0,0,38.160408,-122.453682,0.98,0.0,89.6,9,2,0.3,0,0.0,-1,0.0,0.0,0.0,0
32694,1490396492158,,,,,,,,0.02,0.07,0.99,-3.1,0.1,-0.3,120,0,,,,,,,,,,,,,,,,,,,
32714,1490396492178,,,,,,,,0.02,0.07,0.99,-3.1,0.2,-0.3,120,0,,,,,,,,,,,,,,,,,,,
32734,1490396492201,,,,,,,,0.02,0.07,0.99,-3.1,0.2,-0.3,120,0,,,,,,,,,,,,,,,,,,,
32754,1490396492221,,,,,,,,0.02,0.07,0.99,-3.1,0.1,-0.3,120,0,,,,,,,,,,,,,,,,,,,
32774,1490396492241,,,,,10,,,0.02,0.06,0.99,-3.1,0.2,-0.3,120,0,1,1,0.0,0,38.160408,-122.453682,1.03,0.0,89.6,9,2,0.3,0,0.0,-1,0.0,0.0,0.0,0
32794,1490396492261,,,,,,,,0.02,0.07,0.99,-3.1,0.2,-0.3,120,0,,,,,,,,,,,,,,,,,,,
32814,1490396492281,,,,,,,,0.02,0.06,0.99,-3.1,0.3,-0.3,80,0,,,,,,,,,,,,,,,,,,,
32834,1490396492301,,,,,,,,0.02,0.06,0.99,-3.1,0.2,-0.3,80,0,,,,,,,,,,,,,,,,,,,
32854,1490396492321,,,,,,,,0.02,0.06,0.99,-3.1,0.2,-0.3,80,0,,,,,,,,,,,,,,,,,,,
32874,1490396492341,0,93.8,,138.9,8,120.8,,0.02,0.06,0.99,-3.1,0.2,-0.3,80,0,1,1,0.0,0,38.160408,-122.453682,1.15,0.0,89.6,9,2,0.3,0,0.0,-1,0.0,0.0,0.0,0
32894,1490396492361,,,,,,,,0.02,0.06,0.99,-3.1,0.2,-0.3,80,0,,,,,,,,,,,,,,,,,,,
32914,1490396492381,,,,,,,,0.02,0.06,0.99,-3.1,0.2,-0.3,80,0,,,,,,,,,,,,,,,,,,,
32934,1490396492403,,,,,,,,0.02,0.07,0.99,-3.1,0.2,-0.3,80,0,,,,,,,,,,,,,,,,,,,
32954,1490396492423,,,,,,,,0.02,0.07,0.99,-3.1,0.2,-0.3,80,0,,,,,,,,,,,,,,,,,,,
32974,1490396492443,,,,,8,,,0.02,0.07,0.99,-3.1,0.2,-0.3,80,0,1,1,0.0,0,38.160408,-122.453682,1.15,0.0,89.5,9,2,0.3,0,0.0,-1,0.0,0.0,0.0,0
32994,1490396492463,,,,,,,,0.02,0.07,0.99,-3.1,0.2,-0.3,80,0,,,,,,,,,,,,,,,,,,,
33014,1490396492483,,,,,,,,0.02,0.06,0.99,-3.1,0.2,-0.3,80,0,,,,,,,,,,,,,,,,,,,
33034,1490396492503,,,,,,,,0.02,0.07,0.99,-3.1,0.2,-0.3,80,0,,,,,,,,,,,,,,,,,,,
33054,1490396492523,,,,,,,,0.02,0.07,0.99,-3.1,0.2,-0.3,80,0,,,,,,,,,,,,,,,,,,,
33074,1490396492543,0,95.0,-0.4,139.6,8,121.1,12.29,0.02,0.07,0.99,-3.1,0.2,-0.3,80,0,1,1,0.0,0,38.160408,-122.453682,1.15,0.0,89.5,9,2,0.3,0,0.0,-1,0.0,0.0,0.0,0
33094,1490396492563,,,,,,,,0.02,0.07,0.99,-3.1,0.2,-0.3,80,0,,,,,,,,,,,,,,,,,,,
33114,1490396492583,,,,,,,,0.02,0.06,0.99,-3.1,0.2,-0.3,80,0,,,,,,,,,,,,,,,,,,,
33134,1490396492603,,,,,,,,0.02,0.07,0.99,-3.1,0.2,-0.3,80,0,,,,,,,,,,,,,,,,,,,
33154,1490396492623,,,,,,,,0.02,0.06,0.99,-3.1,0.2,-0.3,80,0,,,,,,,,,,,,,,,,,,,
33174,1490396492643,,,,,7,,,0.02,0.06,0.99,-3.1,0.2,-0.3,80,0,1,1,0.0,0,38.160408,-122.453682,1.15,0.0,89.5,9,2,0.3,0,0.0,-1,0.0,0.0,0.0,0
33194,1490396492663,,,,,,,,0.02,0.07,0.98,-3.1,0.2,-0.3,80,0,,,,,,,,,,,,,,,,,,,
33214,1490396492683,,,,,,,,0.02,0.07,0.99,-3.1,0.2,-0.3,80,0,,,,,,,,,,,,,,,,,,,
33234,1490396492703,,,,,,,,0.02,0.07,0.99,-3.1,0.2,-0.3,80,0,,,,,,,,,,,,,,,,,,,
33254,1490396492723,,,,,,,,0.02,0.07,0.99,-3.1,0.2,-0.3,80,0,,,,,,,,,,,,,,,,,,,
33274,1490396492743,0,93.7,,138.5,6,119.9,,0.02,0.07,0.99,-3.1,0.2,-0.3,80,0,1,1,0.0,0,38.160408,-122.453682,0.97,0.0,89.5,9,2,0.3,0,0.0,-1,0.0,0.0,0.0,0
33294,1490396492763,,,,,,,,0.02,0.08,0.99,-3.1,0.1,-0.3,80,0,,,,,,,,,,,,,,,,,,,
33314,1490396492783,,,,,,,,0.02,0.07,0.99,-3.1,0.1,-0.3,80,0,,,,,,,,,,,,,,,,,,,
33334,1490396492803,,,,,,,,0.02,0.07,0.99,-3.1,0.1,-0.3,80,0,,,,,,,,,,,,,,,,,,,
33354,1490396492823,,,,,,,,0.02,0.07,0.99,-3.1,0.1,-0.3,80,0,,,,,,,,,,,,,,,,,,,
33374,1490396492843,,,,,6,,,0.02,0.07,0.99,-3.1,0.1,-0.3,80,0,1,1,0.0,0,38.160408,-122.453682,0.0,0.0,89.5,9,2,0.3,0,0.0,-1,0.0,0.0,0.0,0
33394,1490396492863,,,,,,,,0.02,0.07,0.99,-3.1,0.2,-0.3,80,0,,,,,,,,,,,,,,,,,,,
33414,1490396492883,,,,,,,,0.02,0.07,0.98,-3.1,0.1,-0.3,80,0,,,,,,,,,,,,,,,,,,,
33434,1490396492903,,,,,,,,0.02,0.07,0.99,-3.1,0.2,-0.3,80,0,,,,,,,,,,,,,,,,,,,
33454,1490396492923,,,,,,,,0.02,0.07,0.99,-3.1,0.3,-0.3,80,0,,,,,,,,,,,,,,,,,,,
33474,1490396492943,0,95.3,,138.3,6,118.8,,0.02,0.07,0.99,-3.1,0.3,-0.3,80,0,1,1,0.0,0,38.160408,-122.453682,0.0,0.0,89.5,9,2,0.3,0,0.0,-1,0.0,0.0,0.0,0
33494,1490396492963,,,,,,,,0.02,0.07,0.99,-3.1,0.3,-0.3,80,0,,,,,,,,,,,,,,,,,,,
33514,1490396492983,,,,,,,,0.02,0.07,0.99,-3.1,0.3,-0.3,80,0,,,,,,,,,,,,,,,,,,,
33534,1490396492997,,,,,,,,0.02,0.07,0.99,-3.1,0.2,-0.3,80,0,,,,,,,,,,,,,,,,,,,
33554,1490396493017,,,,,,,,0.02,0.07,0.99,-3.1,0.2,-0.3,80,0,,,,,,,,,,,,,,,,,,,
33574,1490396493037,,,,,6,,,0.02,0.07,0.99,-3.1,0.1,-0.3,80,0,1,1,0.0,0,38.160408,-122.453682,0.0,0.0,89.7,9,2,1.7,0,0.0,-1,0.0,0.0,0.0,0
33594,1490396493057,,,,,,,,0.02,0.07,1.0,-3.1,0.2,-0.2,80,0,,,,,,,,,,,,,,,,,,,
33614,1490396493077,,,,,,,,0.02,0.08,1.01,-3.2,-0.1,-0.1,80,0,,,,,,,,,,,,,,,,,,,
33634,1490396493097,,,,,,,,0.01,0.07,1.01,-3.2,-0.0,-0.3,80,0,,,,,,,,,,,,,,,,,,,
33654,1490396493117,,,,,,,,0.01,0.07,1.0,-3.2,0.2,-0.4,80,0,,,,,,,,,,,,,,,,,,,
33674,1490396493137,0,94.5,,139.2,5,120.7,,0.02,0.08,1.0,-3.2,0.3,-0.2,6666660,0,1,1,0.0,0,38.160408,-122.453682,0.0,0.0,89.7,9,2,1.7,0,0.0,-1,0.0,0.0,0.0,0
33694,1490396493157,,,,,,,,0.03,0.08,1.0,-3.2,0.2,-0.1,0,0,,,,,,,,,,,,,,,,,,,
33714,1490396493177,,,,,,,,0.03,0.09,1.01,-3.2,0.2,-0.1,0,0,,,,,,,,,,,,,,,,,,,
33734,1490396493200,,,,,,,,0.03,0.09,1.01,-3.2,0.4,-0.2,0,0,,,,,,,,,,,,,,,,,,,
33754,1490396493220,,,,,,,,0.02,0.09,1.0,-3.1,0.2,-0.4,0,0,,,,,,,,,,,,,,,,,,,
33774,1490396493240,,,,,5,,,0.02,0.08,1.0,-3.1,0.1,-0.5,0,0,1,1,0.0,0,38.160408,-122.453682,0.0,0.0,89.7,9,2,1.7,0,0.0,-1,0.0,0.0,0.0,0
33794,1490396493260,,,,,,,,0.02,0.07,0.99,-3.1,0.2,-0.4,0,0,,,,,,,,,,,,,,,,,,,
33814,1490396493280,,,,,,,,0.02,0.08,0.99,-3.1,0.3,-0.3,0,0,,,,,,,,,,,,,,,,,,,
33834,1490396493302,,,,,,,,0.02,0.07,0.99,-3.1,0.2,-0.3,0,0,,,,,,,,,,,,,,,,,,,
33854,1490396493322,,,,,,,,0.02,0.07,0.99,-3.1,0.2,-0.3,0,0,,,,,,,,,,,,,,,,,,,
33874,1490396493342,0,96.0,,139.8,6,120.2,,0.02,0.07,0.99,-3.1,0.3,-0.2,0,0,1,1,0.0,0,38.160408,-122.453682,0.0,0.0,89.7,9,2,1.7,0,0.0,-1,0.0,0.0,0.0,0
33894,1490396493362,,,,,,,,0.02,0.07,0.99,-3.1,0.2,-0.2,0,0,,,,,,,,,,,,,,,,,,,
33914,1490396493382,,,,,,,,0.02,0.07,0.99,-3.1,0.2,-0.3,0,0,,,,,,,,,,,,,,,,,,,
33934,1490396493402,,,,,,,,0.02,0.07,0.99,-3.1,0.1,-0.3,0,0,,,,,,,,,,,,,,,,,,,
33954,1490396493422,,,,,,,,0.01,0.07,0.99,-3.1,0.1,-0.4,0,0,,,,,,,,,,,,,,,,,,,
33974,1490396493442,,,,,6,,,0.01,0.07,1.0,-3.1,0.1,-0.4,0,0,1,1,0.0,0,38.160408,-122.453682,0.0,0.0,89.7,9,2,1.7,0,0.0,-1,0.0,0.0,0.0,0
33994,1490396493462,,,,,,,,0.01,0.06,0.99,-3.1,0.1,-0.3,0,0,,,,,,,,,,,,,,,,,,,
34014,1490396493482,,,,,,,,0.01,0.06,0.99,-3.1,0.2,-0.3,0,0,,,,,,,,,,,,,,,,,,,
34034,1490396493500,,,,,,,,0.01,0.05,0.99,-3.1,0.2,-0.3,0,0,,,,,,,,,,,,,,,,,,,
34054,1490396493520,,,,,,,,0.01,0.05,0.99,-3.2,0.2,-0.2,0,0,,,,,,,,,,,,,,,,,,,
34074,1490396493540,0,95.2,-0.4,139.4,6,120.7,9.82,0.02,0.06,1.0,-3.2,0.2,-0.0,0,0,1,1,0.0,0,38.160408,-122.453682,0.0,0.0,89.7,9,2,1.7,0,0.0,-1,0.0,0.0,0.0,0
34094,1490396493560,,,,,,,,0.03,0.08,1.0,-3.2,-0.0,0.0,40,0,,,,,,,,,,,,,,,,,,,
34114,1490396493580,,,,,,,,0.03,0.08,1.0,-3.2,0.1,-0.0,40,0,,,,,,,,,,,,,,,,,,,
34134,1490396493600,,,,,,,,0.03,0.09,1.0,-3.2,0.1,-0.1,40,0,,,,,,,,,,,,,,,,,,,
34154,1490396493620,,,,,,,,0.03,0.09,1.0,-3.1,0.0,-0.2,40,0,,,,,,,,,,,,,,,,,,,
34174,1490396493640,,,,,6,,,0.03,0.07,1.0,-3.1,-0.0,-0.4,40,0,1,1,0.0,0,38.160408,-122.453682,0.0,0.0,89.7,9,2,1.7,0,0.0,-1,0.0,0.0,0.0,0
34194,1490396493660,,,,,,,,0.03,0.07,1.01,-3.1,0.1,-0.3,40,0,,,,,,,,,,,,,,,,,,,
34214,1490396493680,,,,,,,,0.04,0.07,1.0,-3.1,0.2,-0.2,160,0,,,,,,,,,,,,,,,,,,,
34234,1490396493702,,,,,,,,0.04,0.08,1.0,-3.2,0.1,-0.1,160,0,,,,,,,,,,,,,,,,,,,
34254,1490396493722,,,,,,,,0.04,0.08,1.0,-3.2,0.1,-0.1,160,0,,,,,,,,,,,,,,,,,,,
34274,1490396493742,0,95.2,,139.6,7,120.9,,0.03,0.08,1.0,-3.2,0.3,-0.1,160,0,1,1,0.0,0,38.160408,-122.453682,0.0,0.0,89.7,9,2,1.7,0,0.0,-1,0.0,0.0,0.0,0
34294,1490396493762,,,,,,,,0.03,0.08,0.99,-3.1,0.2,-0.3,160,0,,,,,,,,,,,,,,,,,,,
34314,1490396493782,,,,,,,,0.02,0.08,0.99,-3.1,0.1,-0.4,180,0,,,,,,,,,,,,,,,,,,,
34334,1490396493802,,,,,,,,0.02,0.08,0.99,-3.1,0.2,-0.4,180,0,,,,,,,,,,,,,,,,,,,
34354,1490396493822,,,,,,,,0.02,0.07,0.99,-3.1,0.3,-0.2,180,0,,,,,,,,,,,,,,,,,,,
34374,1490396493842,,,,,7,,,0.02,0.07,0.99,-3.1,0.3,-0.2,180,0,1,1,0.0,0,38.160408,-122.453682,0.0,0.0,89.7,9,2,1.7,0,0.0,-1,0.0,0.0,0.0,0
34394,1490396493862,,,,,,,,0.02,0.05,0.99,-3.1,0.2,-0.2,180,0,,,,,,,,,,,,,,,,,,,
34414,1490396493882,,,,,,,,0.03,0.06,0.98,-3.2,0.4,-0.1,180,0,,,,,,,,,,,,,,,,,,,
34434,1490396493902,,,,,,,,0.04,0.07,0.98,-3.2,0.2,0.0,180,0,,,,,,,,,,,,,,,,,,,
34454,1490396493922,,,,,,,,0.03,0.07,0.99,-3.2,0.1,-0.1,180,0,,,,,,,,,,,,,,,,,,,
34474,1490396493942,0,94.2,,138.6,6,119.9,,0.03,0.08,0.99,-3.1,0.0,-0.1,180,0,1,1,0.0,0,38.160408,-122.453682,0.0,0.0,89.7,9,2,1.7,0,0.0,-1,0.0,0.0,0.0,0
34494,1490396493962,,,,,,,,0.03,0.09,0.99,-3.2,0.1,-0.0,180,0,,,,,,,,,,,,,,,,,,,
34514,1490396493982,,,,,,,,0.03,0.1,1.0,-3.2,0.1,-0.0,180,0,,,,,,,,,,,,,,,,,,,
34534,1490396493994,,,,,,,,0.03,0.1,0.99,-3.2,-0.0,-0.1,180,0,,,,,,,,,,,,,,,,,,,
34554,1490396494014,,,,,,,,0.03,0.1,1.0,-3.2,0.1,-0.2,180,0,,,,,,,,,,,,,,,,,,,
34574,1490396494034,,,,,7,,,0.03,0.09,1.0,-3.1,0.1,-0.2,180,0,1,1,0.0,0,38.160408,-122.453682,0.0,0.0,89.7,9,2,1.9,0,0.0,-1,0.0,0.0,0.0,0
34594,1490396494054,,,,,,,,0.02,0.08,1.0,-3.1,-0.0,-0.3,180,0,,,,,,,,,,,,,,,,,,,
34614,1490396494074,,,,,,,,0.01,0.07,0.99,-3.1,0.0,-0.4,180,0,,,,,,,,,,,,,,,,,,,
34634,1490396494102,,,,,,,,0.01,0.07,0.99,-3.1,-0.1,-0.5,180,0,,,,,,,,,,,,,,,,,,,
34654,1490396494122,,,,,,,,0.01,0.07,0.98,-3.1,-0.0,-0.5,180,0,,,,,,,,,,,,,,,,,,,
34674,1490396494142,0,95.6,,139.8,7,120.8,,0.01,0.06,0.98,-3.1,0.2,-0.3,180,0,1,1,0.0,0,38.160408,-122.453682,0.0,0.0,89.7,9,2,1.9,0,0.0,-1,0.0,0.0,0.0,0
34694,1490396494162,,,,,,,,0.01,0.06,0.98,-3.1,0.2,-0.3,180,0,,,,,,,,,,,,,,,,,,,
34714,1490396494182,,,,,,,,0.02,0.07,0.99,-3.1,0.1,-0.1,180,0,,,,,,,,,,,,,,,,,,,
34734,1490396494201,,,,,,,,0.02,0.07,0.99,-3.1,0.1,-0.1,200,0,,,,,,,,,,,,,,,,,,,
34754,1490396494221,,,,,,,,0.02,0.07,0.99,-3.1,0.1,-0.2,200,0,,,,,,,,,,,,,,,,,,,
34774,1490396494241,,,,,8,,,0.02,0.07,1.0,-3.1,0.1,-0.2,200,0,1,1,0.0,0,38.160408,-122.453682,0.0,0.0,89.7,9,2,1.9,0,0.0,-1,0.0,0.0,0.0,0
34794,1490396494261,,,,,,,,0.02,0.07,0.99,-3.1,0.1,-0.3,200,0,,,,,,,,,,,,,,,,,,,
34814,1490396494281,,,,,,,,0.02,0.06,0.99,-3.1,0.1,-0.4,200,0,,,,,,,,,,,,,,,,,,,
34834,1490396494301,,,,,,,,0.02,0.06,0.99,-3.1,0.2,-0.4,220,0,,,,,,,,,,,,,,,,,,,
34854,1490396494321,,,,,,,,0.02,0.06,0.99,-3.1,0.3,-0.3,220,0,,,,,,,,,,,,,,,,,,,
34874,1490396494341,0,96.0,,139.4,8,118.9,,0.02,0.06,0.99,-3.1,0.2,-0.3,220,0,1,1,0.0,0,38.160408,-122.453682,0.0,0.0,89.7,9,2,1.9,0,0.0,-1,0.0,0.0,0.0,0
34894,1490396494361,,,,,,,,0.02,0.06,0.99,-3.1,0.2,-0.3,220,0,,,,,,,,,,,,,,,,,,,
34914,1490396494381,,,,,,,,0.02,0.06,0.99,-3.1,0.2,-0.4,220,0,,,,,,,,,,,,,,,,,,,
34934,1490396494399,,,,,,,,0.02,0.06,0.98,-3.1,0.2,-0.4,220,0,,,,,,,,,,,,,,,,,,,
34954,1490396494419,,,,,,,,0.02,0.06,0.98,-3.1,0.2,-0.4,220,0,,,,,,,,,,,,,,,,,,,
34974,1490396494439,,,,,8,,,0.02,0.07,0.98,-3.1,0.3,-0.2,220,0,1,1,0.0,0,38.160408,-122.453682,0.0,0.0,89.7,9,2,1.9,0,0.0,-1,0.0,0.0,0.0,0
34994,1490396494459,,,,,,,,0.02,0.07,0.98,-3.1,0.2,-0.2,240,0,,,,,,,,,,,,,,,,,,,
35014,1490396494479,,,,,,,,0.02,0.07,0.99,-3.1,0.2,-0.2,240,0,,,,,,,,,,,,,,,,,,,
35034,1490396494501,,,,,,,,0.02,0.07,0.99,-3.1,0.2,-0.2,240,0,,,,,,,,,,,,,,,,,,,
35054,1490396494521,,,,,,,,0.02,0.07,0.99,-3.1,0.2,-0.3,240,0,,,,,,,,,,,,,,,,,,,
35074,1490396494541,0,95.9,-0.4,139.9,9,120.9,10.64,0.02,0.06,0.99,-3.1,0.1,-0.4,240,0,1,1,0.0,0,38.160408,-122.453682,0.0,0.0,89.7,9,2,1.9,0,0.0,-1,0.0,0.0,0.0,0
35094,1490396494561,,,,,,,,0.02,0.06,0.99,-3.1,0.1,-0.4,240,0,,,,,,,,,,,,,,,,,,,
35114,1490396494581,,,,,,,,0.02,0.07,0.99,-3.1,0.1,-0.4,240,0,,,,,,,,,,,,,,,,,,,
35134,1490396494601,,,,,,,,0.02,0.06,0.99,-3.1,0.1,-0.3,240,0,,,,,,,,,,,,,,,,,,,
35154,1490396494621,,,,,,,,0.03,0.06,1.0,-3.1,0.1,-0.2,260,0,,,,,,,,,,,,,,,,,,,
35174,1490396494641,,,,,10,,,0.03,0.06,1.0,-3.1,0.0,-0.2,260,0,1,1,0.0,0,38.160408,-122.453682,0.0,0.0,89.7,9,2,1.9,0,0.0,-1,0.0,0.0,0.0,0
35194,1490396494661,,,,,,,,0.03,0.07,1.0,-3.1,0.1,-0.2,260,0,,,,,,,,,,,,,,,,,,,
35214,1490396494681,,,,,,,,0.03,0.07,0.99,-3.1,0.1,-0.2,280,0,,,,,,,,,,,,,,,,,,,
35234,1490396494701,,,,,,,,0.02,0.07,0.99,-3.1,0.1,-0.2,280,0,,,,,,,,,,,,,,,,,,,
35254,1490396494721,,,,,,,,0.03,0.07,1.0,-3.1,0.1,-0.3,280,0,,,,,,,,,,,,,,,,,,,
35274,1490396494741,0,96.5,,139.8,11,119.8,,0.02,0.08,1.0,-3.1,0.1,-0.3,280,0,1,1,0.0,0,38.160408,-122.453682,0.0,0.0,89.7,9,2,1.9,0,0.0,-1,0.0,0.0,0.0,0
35294,1490396494761,,,,,,,,0.02,0.08,1.0,-3.1,0.1,-0.2,280,0,,,,,,,,,,,,,,,,,,,
35314,1490396494781,,,,,,,,0.03,0.08,1.0,-3.1,0.0,-0.3,280,0,,,,,,,,,,,,,,,,,,,
35334,1490396494801,,,,,,,,0.02,0.07,1.0,-3.1,0.0,-0.3,280,0,,,,,,,,,,,,,,,,,,,
35354,1490396494821,,,,,,,,0.02,0.06,1.0,-3.1,0.1,-0.4,280,0,,,,,,,,,,,,,,,,,,,
35374,1490396494841,,,,,10,,,0.01,0.06,0.99,-3.1,0.1,-0.4,280,0,1,1,0.0,0,38.160408,-122.453682,0.0,0.0,89.7,9,2,1.9,0,0.0,-1,0.0,0.0,0.0,0
35394,1490396494861,,,,,,,,0.01,0.06,0.99,-3.1,0.2,-0.3,280,0,,,,,,,,,,,,,,,,,,,
35414,1490396494881,,,,,,,,0.01,0.06,0.99,-3.2,0.4,-0.2,260,0,,,,,,,,,,,,,,,,,,,
35434,1490396494901,,,,,,,,0.02,0.07,1.0,-3.2,0.1,-0.1,260,0,,,,,,,,,,,,,,,,,,,
35454,1490396494921,,,,,,,,0.02,0.06,1.0,-3.2,0.0,-0.1,260,0,,,,,,,,,,,,,,,,,,,
35474,1490396494941,0,96.2,,139.8,12,120.1,,0.02,0.07,1.0,-3.2,0.1,-0.2,260,0,1,1,0.0,0,38.160408,-122.453682,0.0,0.0,89.7,9,2,1.9,0,0.0,-1,0.0,0.0,0.0,0
35494,1490396494961,,,,,,,,0.01,0.06,1.0,-3.1,0.2,-0.4,260,0,,,,,,,,,,,,,,,,,,,
35514,1490396494981,,,,,,,,0.01,0.06,1.0,-3.1,0.1,-0.4,260,0,,,,,,,,,,,,,,,,,,,
35534,1490396494995,,,,,,,,0.02,0.06,1.0,-3.1,0.2,-0.4,260,0,,,,,,,,,,,,,,,,,,,
35554,1490396495015,,,,,,,,0.02,0.06,1.0,-3.1,0.3,-0.4,260,0,,,,,,,,,,,,,,,,,,,
35574,1490396495035,,,,,12,,,0.02,0.06,1.0,-3.1,0.2,-0.4,240,0,1,1,0.0,0,38.160408,-122.453682,0.0,0.0,89.7,9,2,1.9,0,0.0,-1,0.0,0.0,0.0,0
35594,1490396495055,,,,,,,,0.01,0.06,1.0,-3.1,0.1,-0.4,240,0,,,,,,,,,,,,,,,,,,,
35614,1490396495075,,,,,,,,0.01,0.06,0.99,-3.0,0.1,-0.4,240,0,,,,,,,,,,,,,,,,,,,
35634,1490396495101,,,,,,,,0.01,0.06,0.99,-3.1,0.1,-0.3,240,0,,,,,,,,,,,,,,,,,,,
35654,1490396495121,,,,,,,,0.02,0.07,0.99,-3.1,0.2,-0.3,240,0,,,,,,,,,,,,,,,,,,,
35674,1490396495141,0,95.4,,138.7,11,119.0,,0.01,0.07,0.99,-3.1,0.1,-0.3,240,0,1,1,0.0,0,38.160408,-122.453682,0.0,0.0,89.7,9,2,1.9,0,0.0,-1,0.0,0.0,0.0,0
35694,1490396495161,,,,,,,,0.01,0.06,1.0,-3.0,0.1,-0.3,240,0,,,,,,,,,,,,,,,,,,,
35714,1490396495181,,,,,,,,0.01,0.06,0.99,-3.0,-0.0,-0.4,240,0,,,,,,,,,,,,,,,,,,,
35734,1490396495202,,,,,,,,0.01,0.05,0.99,-3.0,-0.0,-0.4,240,0,,,,,,,,,,,,,,,,,,,
35754,1490396495222,,,,,,,,0.01,0.06,0.99,-3.1,0.0,-0.4,200,0,,,,,,,,,,,,,,,,,,,
35774,1490396495242,,,,,12,,,0.01,0.06,0.99,-3.1,0.0,-0.3,200,0,1,1,0.0,0,38.160408,-122.453682,0.0,0.0,89.7,9,2,1.9,0,0.0,-1,0.0,0.0,0.0,0
35794,1490396495262,,,,,,,,0.01,0.06,0.99,-3.1,-0.0,-0.3,200,0,,,,,,,,,,,,,,,,,,,
35814,1490396495282,,,,,,,,0.01,0.06,0.99,-3.1,0.0,-0.3,200,0,,,,,,,,,,,,,,,,,,,
35834,1490396495302,,,,,,,,0.02,0.06,0.99,-3.1,0.0,-0.3,200,0,,,,,,,,,,,,,,,,,,,
35854,1490396495322,,,,,,,,0.02,0.07,0.99,-3.1,-0.0,-0.3,200,0,,,,,,,,,,,,,,,,,,,
35874,1490396495342,0,95.3,,138.5,11,118.9,,0.02,0.07,0.98,-3.1,0.0,-0.3,200,0,1,1,0.0,0,38.160408,-122.453682,0.0,0.0,89.7,9,2,1.9,0,0.0,-1,0.0,0.0,0.0,0
35894,1490396495362,,,,,,,,0.02,0.07,0.98,-3.1,-0.0,-0.3,200,0,,,,,,,,,,,,,,,,,,,
35914,1490396495382,,,,,,,,0.02,0.07,0.98,-3.1,-0.0,-0.2,200,0,,,,,,,,,,,,,,,,,,,
35934,1490396495402,,,,,,,,0.02,0.07,0.98,-3.1,0.0,-0.2,100,0,,,,,,,,,,,,,,,,,,,
35954,1490396495422,,,,,,,,0.01,0.07,0.98,-3.1,0.0,-0.2,100,0,,,,,,,,,,,,,,,,,,,
35974,1490396495442,,,,,11,,,0.02,0.06,0.98,-3.1,0.0,-0.3,100,0,1,1,0.0,0,38.160408,-122.453682,0.0,0.0,89.7,9,2,1.9,0,0.0,-1,0.0,0.0,0.0,0
35994,1490396495462,,,,,,,,0.02,0.06,0.99,-3.1,0.0,-0.3,100,0,,,,,,,,,,,,,,,,,,,
36014,1490396495482,,,,,,,,0.02,0.06,0.98,-3.1,0.0,-0.3,100,0,,,,,,,,,,,,,,,,,,,
36034,1490396495502,,,,,,,,0.02,0.06,0.98,-3.1,0.1,-0.3,100,0,,,,,,,,,,,,,,,,,,,
36054,1490396495522,,,,,,,,0.02,0.06,0.98,-3.1,0.0,-0.3,100,0,,,,,,,,,,,,,,,,,,,
36074,1490396495542,0,96.0,-0.2,139.9,10,120.4,12.11,0.02,0.06,0.98,-3.1,0.0,-0.3,100,0,1,1,0.0,0,38.160408,-122.453682,0.0,0.0,89.7,9,2,1.9,0,0.0,-1,0.0,0.0,0.0,0
36094,1490396495562,,,,,,,,0.02,0.06,0.98,-3.1,0.0,-0.3,100,0,,,,,,,,,,,,,,,,,,,
36114,1490396495582,,,,,,,,0.02,0.05,0.99,-3.1,0.1,-0.3,100,0,,,,,,,,,,,,,,,,,,,
36134,1490396495600,,,,,,,,0.02,0.06,0.99,-3.1,0.1,-0.2,100,0,,,,,,,,,,,,,,,,,,,
36154,1490396495620,,,,,,,,0.02,0.06,0.99,-3.1,0.1,-0.2,100,0,,,,,,,,,,,,,,,,,,,
36174,1490396495640,,,,,8,,,0.02,0.06,0.99,-3.1,0.1,-0.2,100,0,1,1,0.0,0,38.160408,-122.453682,0.0,0.0,89.7,9,2,1.9,0,0.0,-1,0.0,0.0,0.0,0
36194,1490396495660,,,,,,,,0.02,0.06,0.98,-3.1,0.1,-0.2,100,0,,,,,,,,,,,,,,,,,,,
36214,1490396495680,,,,,,,,0.02,0.06,0.98,-3.1,0.1,-0.3,100,0,,,,,,,,,,,,,,,,,,,
36234,1490396495702,,,,,,,,0.02,0.06,0.98,-3.1,0.1,-0.4,100,0,,,,,,,,,,,,,,,,,,,
36254,1490396495722,,,,,,,,0.02,0.06,0.98,-3.1,0.1,-0.3,100,0,,,,,,,,,,,,,,,,,,,
36274,1490396495742,0,95.7,,139.7,9,120.7,,0.02,0.06,0.98,-3.1,0.1,-0.3,100,0,1,1,0.0,0,38.160408,-122.453682,0.0,0.0,89.7,9,2,1.9,0,0.0,-1,0.0,0.0,0.0,0
36294,1490396495762,,,,,,,,0.02,0.06,0.98,-3.1,0.2,-0.3,40,0,,,,,,,,,,,,,,,,,,,
36314,1490396495782,,,,,,,,0.02,0.06,0.98,-3.1,0.1,-0.3,40,0,,,,,,,,,,,,,,,,,,,
36334,1490396495802,,,,,,,,0.02,0.06,0.99,-3.1,0.2,-0.3,40,0,,,,,,,,,,,,,,,,,,,
36354,1490396495822,,,,,,,,0.02,0.06,0.99,-3.1,0.2,-0.3,40,0,,,,,,,,,,,,,,,,,,,
36374,1490396495842,,,,,8,,,0.02,0.06,0.98,-3.1,0.2,-0.3,40,0,1,1,0.0,0,38.160408,-122.453682,0.0,0.0,89.7,9,2,1.9,0,0.0,-1,0.0,0.0,0.0,0
36394,1490396495862,,,,,,,,0.02,0.06,0.98,-3.1,0.2,-0.2,40,0,,,,,,,,,,,,,,,,,,,
36414,1490396495882,,,,,,,,0.02,0.06,0.99,-3.1,0.2,-0.2,40,0,,,,,,,,,,,,,,,,,,,
36434,1490396495902,,,,,,,,0.02,0.06,0.99,-3.1,0.1,-0.2,40,0,,,,,,,,,,,,,,,,,,,
36454,1490396495922,,,,,,,,0.02,0.06,0.98,-3.1,0.2,-0.2,40,0,,,,,,,,,,,,,,,,,,,
36474,1490396495942,0,93.9,,138.8,8,120.4,,0.02,0.06,0.99,-3.1,0.2,-0.2,40,0,1,1,0.0,0,38.160408,-122.453682,0.0,0.0,89.7,9,2,1.9,0,0.0,-1,0.0,0.0,0.0,0
36494,1490396495962,,,,,,,,0.02,0.06,0.99,-3.0,0.2,-0.2,40,0,,,,,,,,,,,,,,,,,,,
36514,1490396495982,,,,,,,,0.02,0.06,0.99,-3.1,0.2,-0.2,40,0,,,,,,,,,,,,,,,,,,,
36534,1490396495996,,,,,,,,0.01,0.06,0.99,-3.1,0.2,-0.2,40,0,,,,,,,,,,,,,,,,,,,
36554,1490396496016,,,,,,,,0.02,0.06,0.99,-3.1,0.2,-0.2,40,0,,,,,,,,,,,,,,,,,,,
36574,1490396496036,,,,,8,,,0.02,0.06,0.99,-3.1,0.2,-0.2,40,0,1,1,0.0,0,38.160408,-122.453682,0.0,0.0,89.7,9,2,1.9,0,0.0,-1,0.0,0.0,0.0,0
36594,1490396496056,,,,,,,,0.02,0.06,0.99,-3.1,0.3,-0.3,40,0,,,,,,,,,,,,,,,,,,,
36614,1490396496076,,,,,,,,0.02,0.06,0.99,-3.1,0.2,-0.3,40,0,,,,,,,,,,,,,,,,,,,
36634,1490396496102,,,,,,,,0.02,0.06,0.99,-3.1,0.2,-0.2,40,0,,,,,,,,,,,,,,,,,,,
36654,1490396496122,,,,,,,,0.02,0.06,0.99,-3.1,0.2,-0.2,40,0,,,,,,,,,,,,,,,,,,,
36674,1490396496142,0,94.5,,138.7,7,119.4,,0.02,0.06,0.99,-3.1,0.2,-0.2,40,0,1,1,0.0,0,38.160408,-122.453682,0.0,0.0,89.7,9,2,1.9,0,0.0,-1,0.0,0.0,0.0,0
36694,1490396496162,,,,,,,,0.02,0.06,0.99,-3.1,0.2,-0.2,40,0,,,,,,,,,,,,,,,,,,,
36714,1490396496182,,,,,,,,0.02,0.06,0.99,-3.1,0.2,-0.2,40,0,,,,,,,,,,,,,,,,,,,
36734,1490396496201,,,,,,,,0.02,0.06,0.99,-3.1,0.2,-0.3,40,0,,,,,,,,,,,,,,,,,,,
36754,1490396496221,,,,,,,,0.02,0.08,1.0,-3.1,0.2,-0.2,40,0,,,,,,,,,,,,,,,,,,,
36774,1490396496241,,,,,7,,,-0.01,0.08,0.99,-3.0,0.6,-0.3,40,0,1,1,0.0,0,38.160408,-122.453682,0.0,0.0,89.7,9,2,1.9,0,0.0,-1,0.0,0.0,0.0,0
36794,1490396496261,,,,,,,,-0.01,0.08,1.0,-3.0,0.7,-0.4,40,0,,,,,,,,,,,,,,,,,,,
36814,1490396496281,,,,,,,,-0.01,0.08,0.99,-3.1,0.4,-0.6,40,0,,,,,,,,,,,,,,,,,,,
36834,1490396496301,,,,,,,,-0.02,0.06,0.98,-3.1,0.5,-0.5,40,0,,,,,,,,,,,,,,,,,,,
36854,1490396496321,,,,,,,,-0.01,0.06,0.98,-3.1,0.6,-0.3,40,0,,,,,,,,,,,,,,,,,,,
36874,1490396496341,0,96.2,,139.6,8,119.5,,0.0,0.07,0.99,-3.1,0.5,-0.2,40,0,1,1,0.0,0,38.160408,-122.453682,0.0,0.0,89.7,9,2,1.9,0,0.0,-1,0.0,0.0,0.0,0
36894,1490396496361,,,,,,,,0.0,0.08,0.99,-3.2,0.3,-0.2,40,0,,,,,,,,,,,,,,,,,,,
36914,1490396496381,,,,,,,,0.0,0.09,0.99,-3.1,0.3,-0.2,40,0,,,,,,,,,,,,,,,,,,,
36934,1490396496401,,,,,,,,0.01,0.09,1.0,-3.1,0.3,-0.3,40,0,,,,,,,,,,,,,,,,,,,
36954,1490396496421,,,,,,,,0.01,0.08,1.0,-3.1,0.2,-0.4,40,0,,,,,,,,,,,,,,,,,,,
36974,1490396496441,,,,,7,,,0.01,0.08,1.0,-3.1,0.2,-0.4,40,0,1,1,0.0,0,38.160408,-122.453682,0.0,0.0,89.7,9,2,1.9,0,0.0,-1,0.0,0.0,0.0,0
36994,1490396496461,,,,,,,,0.0,0.08,1.0,-3.1,0.3,-0.3,40,0,,,,,,,,,,,,,,,,,,,
37014,1490396496481,,,,,,,,0.0,0.08,0.99,-3.1,0.2,-0.3,40,0,,,,,,,,,,,,,,,,,,,
37034,1490396496501,,,,,,,,0.01,0.07,0.99,-3.1,0.2,-0.3,40,0,,,,,,,,,,,,,,,,,,,
37054,1490396496521,,,,,,,,0.01,0.07,0.99,-3.1,0.3,-0.4,40,0,,,,,,,,,,,,,,,,,,,
37074,1490396496541,0,95.0,-0.4,138.8,8,119.2,10.07,0.01,0.06,0.99,-3.1,0.2,-0.5,40,0,1,1,0.0,0,38.160408,-122.453682,0.0,0.0,89.7,9,2,1.9,0,0.0,-1,0.0,0.0,0.0,0
37094,1490396496561,,,,,,,,0.01,0.05,0.98,-3.0,0.3,-0.6,40,0,,,,,,,,,,,,,,,,,,,
37114,1490396496581,,,,,,,,0.02,0.05,0.98,-3.1,0.4,-0.4,40,0,,,,,,,,,,,,,,,,,,,
37134,1490396496601,,,,,,,,0.02,0.05,0.97,-3.1,0.5,-0.3,40,0,,,,,,,,,,,,,,,,,,,
37154,1490396496621,,,,,,,,0.03,0.05,0.98,-3.1,0.4,-0.2,4000000,0,,,,,,,,,,,,,,,,,,,
37174,1490396496641,,,,,9,,,0.02,0.06,0.98,-3.1,0.4,-0.3,0,0,1,1,0.0,0,38.160408,-122.453682,0.0,0.0,89.7,9,2,1.9,0,0.0,-1,0.0,0.0,0.0,0
37194,1490396496661,,,,,,,,0.02,0.05,0.98,-3.1,0.4,-0.5,0,0,,,,,,,,,,,,,,,,,,,
37214,1490396496681,,,,,,,,0.01,0.04,0.97,-3.0,0.3,-0.6,0,0,,,,,,,,,,,,,,,,,,,
37234,1490396496701,,,,,,,,0.01,0.04,0.97,-3.0,0.6,-0.6,0,0,,,,,,,,,,,,,,,,,,,
37254,1490396496721,,,,,,,,0.01,0.04,0.97,-3.1,0.7,-0.4,0,0,,,,,,,,,,,,,,,,,,,
37274,1490396496741,0,95.7,,139.5,9,119.0,,0.01,0.04,0.97,-3.1,0.6,-0.4,0,0,1,1,0.0,0,38.160408,-122.453682,0.0,0.0,89.7,9,2,1.9,0,0.0,-1,0.0,0.0,0.0,0
37294,1490396496761,,,,,,,,0.01,0.04,0.98,-3.1,0.5,-0.4,0,0,,,,,,,,,,,,,,,,,,,
37314,1490396496781,,,,,,,,0.01,0.03,0.98,-3.0,0.5,-0.5,0,0,,,,,,,,,,,,,,,,,,,
37334,1490396496801,,,,,,,,0.0,0.03,0.97,-3.1,0.5,-0.6,100,0,,,,,,,,,,,,,,,,,,,
37354,1490396496821,,,,,,,,0.01,0.02,0.97,-3.1,0.7,-0.4,100,0,,,,,,,,,,,,,,,,,,,
37374,1490396496841,,,,,9,,,0.01,0.02,0.96,-3.1,0.8,-0.3,100,0,1,1,0.0,0,38.160408,-122.453682,0.0,0.0,89.7,9,2,1.9,0,0.0,-1,0.0,0.0,0.0,0
37394,1490396496861,,,,,,,,0.02,0.03,0.97,-3.1,0.7,-0.2,100,0,,,,,,,,,,,,,,,,,,,
37414,1490396496881,,,,,,,,0.02,0.03,0.97,-3.2,0.7,-0.3,100,0,,,,,,,,,,,,,,,,,,,
37434,1490396496901,,,,,,,,0.01,0.04,0.98,-3.2,0.6,-0.3,200,0,,,,,,,,,,,,,,,,,,,
37454,1490396496921,,,,,,,,0.02,0.04,0.98,-3.2,0.5,-0.2,200,0,,,,,,,,,,,,,,,,,,,
37474,1490396496941,0,95.9,,139.9,10,120.1,,0.02,0.05,0.98,-3.2,0.5,-0.2,200,0,1,1,0.0,0,38.160408,-122.453682,0.0,0.0,89.7,9,2,1.9,0,0.0,-1,0.0,0.0,0.0,0
37494,1490396496961,,,,,,,,0.02,0.05,0.98,-3.2,0.5,-0.2,200,0,,,,,,,,,,,,,,,,,,,
37514,1490396496981,,,,,,,,0.02,0.05,0.98,-3.2,0.5,-0.3,280,0,,,,,,,,,,,,,,,,,,,
37534,1490396496995,,,,,,,,0.02,0.05,0.98,-3.2,0.3,-0.3,280,0,,,,,,,,,,,,,,,,,,,
37554,1490396497015,,,,,,,,0.02,0.05,0.98,-3.2,0.3,-0.3,280,0,,,,,,,,,,,,,,,,,,,
37574,1490396497035,,,,,10,,,0.02,0.05,0.98,-3.2,0.3,-0.3,320,0,1,1,0.0,0,38.160408,-122.453682,0.0,0.0,89.7,9,2,1.9,0,0.0,-1,0.0,0.0,0.0,0
37594,1490396497055,,,,,,,,0.02,0.05,0.98,-3.1,0.2,-0.2,320,0,,,,,,,,,,,,,,,,,,,
37614,1490396497075,,,,,,,,0.03,0.06,0.98,-3.2,0.2,-0.0,440,0,,,,,,,,,,,,,,,,,,,
37634,1490396497101,,,,,,,,0.03,0.05,0.99,-3.1,0.1,-0.1,440,0,,,,,,,,,,,,,,,,,,,
37654,1490396497121,,,,,,,,0.02,0.06,1.0,-3.2,0.3,-0.2,600,0,,,,,,,,,,,,,,,,,,,
37674,1490396497141,0,96.0,,139.7,12,121.0,,0.02,0.08,0.99,-3.2,0.2,-0.1,760,0,1,1,0.0,0,38.160408,-122.453682,0.0,0.0,89.7,9,2,1.9,0,0.0,-1,0.0,0.0,0.0,0
37694,1490396497161,,,,,,,,0.02,0.06,1.0,-3.1,0.3,-0.3,880,0,,,,,,,,,,,,,,,,,,,
37714,1490396497181,,,,,,,,0.01,0.04,1.0,-3.1,0.3,-0.4,980,0,,,,,,,,,,,,,,,,,,,
37734,1490396497202,,,,,,,,0.01,0.04,0.99,-3.0,0.1,-0.4,1080,0,,,,,,,,,,,,,,,,,,,
37754,1490396497222,,,,,,,,0.01,0.03,1.0,-3.0,0.1,-0.4,1120,0,,,,,,,,,,,,,,,,,,,
37774,1490396497242,,,,,18,,,0.01,0.04,0.99,-3.0,0.2,-0.4,1180,0,1,1,0.0,0,38.160408,-122.453682,0.0,0.0,89.7,9,2,1.9,0,0.0,-1,0.0,0.0,0.0,0
37794,1490396497262,,,,,,,,0.01,0.03,0.98,-3.1,0.4,-0.3,1220,0,,,,,,,,,,,,,,,,,,,
37814,1490396497282,,,,,,,,0.01,0.04,0.98,-3.1,0.3,-0.3,1220,0,,,,,,,,,,,,,,,,,,,
37834,1490396497302,,,,,,,,0.01,0.04,0.97,-3.1,0.1,-0.3,1240,0,,,,,,,,,,,,,,,,,,,
37854,1490396497322,,,,,,,,0.01,0.04,0.98,-3.1,0.1,-0.2,1260,0,,,,,,,,,,,,,,,,,,,
37874,1490396497342,0,93.9,,138.6,25,119.4,,0.01,0.06,0.98,-3.1,0.2,-0.2,1200,0,1,1,0.0,0,38.160408,-122.453682,0.0,0.0,89.7,9,2,1.9,0,0.0,-1,0.0,0.0,0.0,0
37894,1490396497362,,,,,,,,0.02,0.06,0.98,-3.1,0.3,-0.2,1220,0,,,,,,,,,,,,,,,,,,,
37914,1490396497382,,,,,,,,0.02,0.06,0.99,-3.1,0.0,-0.2,1240,0,,,,,,,,,,,,,,,,,,,
37934,1490396497400,,,,,,,,0.02,0.07,0.98,-3.1,0.1,-0.2,1280,0,,,,,,,,,,,,,,,,,,,
37954,1490396497420,,,,,,,,0.02,0.06,0.98,-3.1,-0.1,-0.2,1360,0,,,,,,,,,,,,,,,,,,,
37974,1490396497440,,,,,34,,,0.02,0.06,0.99,-3.1,0.1,-0.3,1380,0,1,1,0.0,0,38.160408,-122.453682,0.0,0.0,89.7,9,2,1.9,0,0.0,-1,0.0,0.0,0.0,0
37994,1490396497460,,,,,,,,0.02,0.06,0.98,-3.1,0.1,-0.3,1400,0,,,,,,,,,,,,,,,,,,,
38014,1490396497480,,,,,,,,0.02,0.06,0.98,-3.1,-0.0,-0.3,1420,0,,,,,,,,,,,,,,,,,,,
38034,1490396497500,,,,,,,,0.02,0.06,0.98,-3.1,0.0,-0.3,1440,0,,,,,,,,,,,,,,,,,,,
38054,1490396497520,,,,,,,,0.02,0.06,0.98,-3.1,0.1,-0.2,1440,0,,,,,,,,,,,,,,,,,,,
38074,1490396497540,0,93.9,-0.5,138.8,48,118.6,14.71,0.02,0.06,0.98,-3.1,0.1,-0.3,1460,0,1,1,0.0,0,38.160408,-122.453682,0.0,0.0,89.7,9,2,1.9,0,0.0,-1,0.0,0.0,0.0,0
38094,1490396497560,,,,,,,,0.02,0.06,0.99,-3.1,0.1,-0.2,1460,0,,,,,,,,,,,,,,,,,,,
38114,1490396497580,,,,,,,,0.02,0.06,0.99,-3.1,0.1,-0.3,1440,0,,,,,,,,,,,,,,,,,,,
38134,1490396497602,,,,,,,,0.02,0.06,0.98,-3.1,0.1,-0.3,1460,0,,,,,,,,,,,,,,,,,,,
38154,1490396497622,,,,,,,,0.02,0.05,0.99,-3.1,0.1,-0.3,1460,0,,,,,,,,,,,,,,,,,,,
38174,1490396497642,,,,,58,,,0.02,0.06,0.98,-3.1,0.0,-0.3,1440,0,1,1,0.0,0,38.160408,-122.453682,0.0,0.0,89.7,9,2,1.9,0,0.0,-1,0.0,0.0,0.0,0
38194,1490396497662,,,,,,,,0.02,0.06,0.98,-3.1,0.1,-0.3,1420,0,,,,,,,,,,,,,,,,,,,
38214,1490396497682,,,,,,,,0.02,0.06,0.99,-3.1,0.2,-0.3,1420,0,,,,,,,,,,,,,,,,,,,
38234,1490396497700,,,,,,,,0.02,0.07,0.99,-3.1,0.2,-0.3,1420,0,,,,,,,,,,,,,,,,,,,
38254,1490396497720,,,,,,,,0.02,0.07,0.99,-3.1,0.1,-0.3,1400,0,,,,,,,,,,,,,,,,,,,
38274,1490396497740,0,94.2,,139.9,58,118.6,,0.02,0.07,0.99,-3.1,0.0,-0.3,1380,0,1,1,0.0,0,38.160408,-122.453682,0.0,0.0,89.7,9,2,1.9,0,0.0,-1,0.0,0.0,0.0,0
38294,1490396497760,,,,,,,,0.02,0.07,0.99,-3.1,0.1,-0.2,1360,0,,,,,,,,,,,,,,,,,,,
38314,1490396497780,,,,,,,,0.02,0.07,0.99,-3.1,0.1,-0.2,1340,0,,,,,,,,,,,,,,,,,,,
38334,1490396497802,,,,,,,,0.02,0.07,0.99,-3.2,0.2,-0.2,1340,0,,,,,,,,,,,,,,,,,,,
38354,1490396497822,,,,,,,,0.02,0.07,0.99,-3.1,0.1,-0.2,1320,0,,,,,,,,,,,,,,,,,,,
38374,1490396497842,,,,,60,,,0.02,0.07,0.99,-3.1,0.2,-0.2,1300,0,1,1,0.0,0,38.160408,-122.453682,0.0,0.0,89.7,9,2,1.9,0,0.0,-1,0.0,0.0,0.0,0
38394,1490396497862,,,,,,,,0.02,0.07,0.99,-3.1,0.3,-0.2,1300,0,,,,,,,,,,,,,,,,,,,
38414,1490396497882,,,,,,,,0.02,0.07,1.0,-3.1,0.2,-0.2,1300,0,,,,,,,,,,,,,,,,,,,
38434,1490396497902,,,,,,,,0.02,0.07,0.99,-3.1,0.1,-0.2,1140,0,,,,,,,,,,,,,,,,,,,
38454,1490396497922,,,,,,,,0.02,0.07,0.99,-3.1,0.1,-0.2,1280,0,,,,,,,,,,,,,,,,,,,
38474,1490396497942,0,95.9,,139.6,57,121.0,,0.02,0.07,1.0,-3.1,0.1,-0.3,1340,0,1,1,0.0,0,38.160408,-122.453682,0.0,0.0,89.7,9,2,1.9,0,0.0,-1,0.0,0.0,0.0,0
38494,1490396497962,,,,,,,,0.02,0.07,1.0,-3.1,0.1,-0.3,1340,0,,,,,,,,,,,,,,,,,,,
38514,1490396497982,,,,,,,,0.02,0.06,0.99,-3.1,0.1,-0.2,1340,0,,,,,,,,,,,,,,,,,,,
38534,1490396497996,,,,,,,,0.02,0.06,0.99,-3.1,0.1,-0.2,1380,0,,,,,,,,,,,,,,,,,,,
38554,1490396498016,,,,,,,,0.02,0.06,0.99,-3.1,0.1,-0.2,1380,0,,,,,,,,,,,,,,,,,,,
38574,1490396498036,,,,,58,,,0.02,0.06,0.98,-3.1,-0.0,-0.2,1440,0,1,1,0.0,0,38.160408,-122.453682,0.0,0.0,89.7,9,2,1.9,0,0.0,-1,0.0,0.0,0.0,0
38594,1490396498056,,,,,,,,0.02,0.06,0.99,-3.1,-0.0,-0.2,1460,0,,,,,,,,,,,,,,,,,,,
38614,1490396498076,,,,,,,,0.03,0.06,0.99,-3.1,-0.0,-0.2,1520,0,,,,,,,,,,,,,,,,,,,
38634,1490396498102,,,,,,,,0.03,0.06,0.99,-3.1,0.0,-0.2,1540,0,,,,,,,,,,,,,,,,,,,
38654,1490396498122,,,,,,,,0.03,0.06,0.99,-3.1,-0.1,-0.2,1600,0,,,,,,,,,,,,,,,,,,,
38674,1490396498142,0,95.9,,140.0,63,119.5,,0.03,0.07,0.99,-3.1,-0.1,-0.2,1640,0,1,1,0.0,0,38.160408,-122.453682,0.0,0.0,89.7,9,2,1.9,0,0.0,-1,0.0,0.0,0.0,0
38694,1490396498162,,,,,,,,0.03,0.06,1.0,-3.1,-0.1,-0.2,1680,0,,,,,,,,,,,,,,,,,,,
38714,1490396498182,,,,,,,,0.03,0.06,1.0,-3.1,0.1,-0.2,1720,0,,,,,,,,,,,,,,,,,,,
38734,1490396498201,,,,,,,,0.03,0.07,0.99,-3.1,0.1,-0.1,1800,0,,,,,,,,,,,,,,,,,,,
38754,1490396498221,,,,,,,,0.02,0.07,1.0,-3.1,0.1,-0.2,1860,0,,,,,,,,,,,,,,,,,,,
38774,1490396498241,,,,,62,,,0.02,0.07,1.0,-3.1,-0.1,-0.2,1900,0,1,1,0.0,0,38.160408,-122.453682,0.0,0.0,89.7,9,2,1.9,0,0.0,-1,0.0,0.0,0.0,0
38794,1490396498261,,,,,,,,0.02,0.07,0.99,-3.2,0.0,-0.2,1960,0,,,,,,,,,,,,,,,,,,,
38814,1490396498281,,,,,,,,0.02,0.07,1.0,-3.2,0.1,-0.2,2020,0,,,,,,,,,,,,,,,,,,,
38834,1490396498301,,,,,,,,0.02,0.07,0.99,-3.2,0.0,-0.2,2080,0,,,,,,,,,,,,,,,,,,,
38854,1490396498321,,,,,,,,0.01,0.06,0.99,-3.2,0.1,-0.2,2140,0,,,,,,,,,,,,,,,,,,,
38874,1490396498341,0,95.9,,139.7,69,121.0,,0.01,0.06,0.98,-3.1,0.1,-0.2,2180,0,1,1,0.0,0,38.160408,-122.453682,0.0,0.0,89.7,9,2,1.9,0,0.0,-1,0.0,0.0,0.0,0
38894,1490396498361,,,,,,,,0.0,0.07,0.98,-3.1,0.0,-0.2,2220,0,,,,,,,,,,,,,,,,,,,
38914,1490396498381,,,,,,,,0.0,0.06,0.99,-3.2,-0.2,-0.2,2200,0,,,,,,,,,,,,,,,,,,,
38934,1490396498401,,,,,,,,0.01,0.05,0.98,-3.2,-0.1,-0.2,2280,0,,,,,,,,,,,,,,,,,,,
38954,1490396498421,,,,,,,,0.01,0.07,0.98,-3.2,-0.0,-0.2,2260,0,,,,,,,,,,,,,,,,,,,
38974,1490396498441,,,,,65,,,0.01,0.06,0.99,-3.2,0.1,-0.2,2260,0,1,1,0.0,0,38.160408,-122.453682,0.0,0.0,89.7,9,2,1.9,0,0.0,-1,0.0,0.0,0.0,0
38994,1490396498461,,,,,,,,0.01,0.07,0.98,-3.2,-0.0,-0.2,2240,0,,,,,,,,,,,,,,,,,,,
39014,1490396498481,,,,,,,,0.01,0.06,0.98,-3.2,-0.0,-0.2,2240,0,,,,,,,,,,,,,,,,,,,
39034,1490396498501,,,,,,,,0.02,0.06,0.99,-3.2,0.1,-0.2,2260,0,,,,,,,,,,,,,,,,,,,
39054,1490396498521,,,,,,,,0.01,0.07,0.98,-3.1,0.1,-0.2,2260,0,,,,,,,,,,,,,,,,,,,
39074,1490396498541,0,96.5,-0.0,139.9,66,120.7,14.82,0.01,0.07,0.98,-3.1,0.0,-0.2,2240,0,1,1,0.0,0,38.160408,-122.453682,0.0,0.0,89.7,9,2,1.9,0,0.0,-1,0.0,0.0,0.0,0
39094,1490396498561,,,,,,,,0.02,0.06,0.98,-3.1,0.0,-0.2,2200,0,,,,,,,,,,,,,,,,,,,
39114,1490396498581,,,,,,,,0.02,0.06,0.99,-3.1,0.0,-0.3,2160,0,,,,,,,,,,,,,,,,,,,
39134,1490396498601,,,,,,,,0.02,0.06,0.98,-3.1,0.1,-0.3,2160,0,,,,,,,,,,,,,,,,,,,
39154,1490396498621,,,,,,,,0.01,0.05,0.99,-3.1,0.1,-0.3,2100,0,,,,,,,,,,,,,,,,,,,
39174,1490396498641,,,,,66,,,0.01,0.06,0.98,-3.1,0.1,-0.3,2020,0,1,1,0.0,0,38.160408,-122.453682,0.0,0.0,89.7,9,2,1.9,0,0.0,-1,0.0,0.0,0.0,0
39194,1490396498661,,,,,,,,0.01,0.06,0.98,-3.1,0.2,-0.3,2040,0,,,,,,,,,,,,,,,,,,,
39214,1490396498681,,,,,,,,0.01,0.06,0.98,-3.1,0.2,-0.3,2000,0,,,,,,,,,,,,,,,,,,,
39234,1490396498703,,,,,,,,0.02,0.06,0.99,-3.1,0.2,-0.2,1960,0,,,,,,,,,,,,,,,,,,,
39254,1490396498723,,,,,,,,0.02,0.07,0.98,-3.1,0.2,-0.2,1940,0,,,,,,,,,,,,,,,,,,,
39274,1490396498743,0,94.2,,138.6,63,119.5,,0.02,0.07,0.98,-3.1,0.1,-0.3,1900,0,1,1,0.0,0,38.160408,-122.453682,0.0,0.0,89.7,9,2,1.9,0,0.0,-1,0.0,0.0,0.0,0
39294,1490396498763,,,,,,,,0.02,0.07,0.98,-3.1,0.2,-0.3,1860,0,,,,,,,,,,,,,,,,,,,
39314,1490396498783,,,,,,,,0.02,0.07,0.99,-3.1,0.3,-0.3,1860,0,,,,,,,,,,,,,,,,,,,
39334,1490396498801,,,,,,,,0.02,0.06,0.99,-3.1,0.3,-0.3,1820,0,,,,,,,,,,,,,,,,,,,
39354,1490396498821,,,,,,,,0.02,0.06,1.0,-3.1,0.3,-0.3,1800,0,,,,,,,,,,,,,,,,,,,
39374,1490396498841,,,,,61,,,0.02,0.06,1.0,-3.1,0.1,-0.3,1820,0,1,1,0.0,0,38.160408,-122.453682,0.0,0.0,89.7,9,2,1.9,0,0.0,-1,0.0,0.0,0.0,0
39394,1490396498861,,,,,,,,0.02,0.06,0.99,-3.1,0.0,-0.3,1800,0,,,,,,,,,,,,,,,,,,,
39414,1490396498881,,,,,,,,0.02,0.06,0.99,-3.1,0.1,-0.3,1800,0,,,,,,,,,,,,,,,,,,,
39434,1490396498901,,,,,,,,0.02,0.06,0.99,-3.1,0.1,-0.3,1780,0,,,,,,,,,,,,,,,,,,,
39454,1490396498921,,,,,,,,0.02,0.06,0.99,-3.1,0.1,-0.3,1780,0,,,,,,,,,,,,,,,,,,,
39474,1490396498941,0,95.9,,139.3,71,120.9,,0.02,0.06,0.99,-3.1,0.0,-0.3,1780,0,1,1,0.0,0,38.160408,-122.453682,0.0,0.0,89.7,9,2,1.9,0,0.0,-1,0.0,0.0,0.0,0
39494,1490396498961,,,,,,,,0.02,0.07,0.98,-3.1,0.1,-0.3,1780,0,,,,,,,,,,,,,,,,,,,
39514,1490396498981,,,,,,,,0.02,0.07,0.98,-3.1,0.2,-0.3,1780,0,,,,,,,,,,,,,,,,,,,
39534,1490396498995,,,,,,,,0.02,0.07,0.98,-3.1,0.2,-0.3,1760,0,,,,,,,,,,,,,,,,,,,
39554,1490396499015,,,,,,,,0.02,0.07,0.99,-3.1,0.2,-0.3,1780,0,,,,,,,,,,,,,,,,,,,
39574,1490396499035,,,,,65,,,0.02,0.07,0.99,-3.1,0.2,-0.3,1780,0,1,1,0.0,0,38.160408,-122.453682,0.0,0.0,89.7,9,2,1.9,0,0.0,-1,0.0,0.0,0.0,0
39594,1490396499055,,,,,,,,0.01,0.07,0.99,-3.1,0.2,-0.3,1760,0,,,,,,,,,,,,,,,,,,,
39614,1490396499075,,,,,,,,0.01,0.07,0.99,-3.1,0.3,-0.3,1780,0,,,,,,,,,,,,,,,,,,,
39634,1490396499101,,,,,,,,0.01,0.07,0.99,-3.1,0.2,-0.3,1780,0,,,,,,,,,,,,,,,,,,,
39654,1490396499121,,,,,,,,0.02,0.07,0.99,-3.1,0.3,-0.3,1780,0,,,,,,,,,,,,,,,,,,,
39674,1490396499141,0,94.1,,139.0,66,119.0,,0.02,0.07,0.99,-3.1,0.2,-0.3,1760,0,1,1,0.0,0,38.160408,-122.453682,0.0,0.0,89.7,9,2,1.9,0,0.0,-1,0.0,0.0,0.0,0
39694,1490396499161,,,,,,,,0.02,0.07,0.99,-3.1,0.3,-0.3,1760,0,,,,,,,,,,,,,,,,,,,
39714,1490396499181,,,,,,,,0.02,0.07,0.99,-3.1,0.2,-0.3,1780,0,,,,,,,,,,,,,,,,,,,
39734,1490396499200,,,,,,,,0.02,0.07,0.99,-3.1,0.2,-0.3,1780,0,,,,,,,,,,,,,,,,,,,
39754,1490396499220,,,,,,,,0.02,0.07,0.99,-3.1,0.1,-0.3,1800,0,,,,,,,,,,,,,,,,,,,
39774,1490396499240,,,,,64,,,0.02,0.07,0.99,-3.1,0.2,-0.3,1800,0,1,1,0.0,0,38.160408,-122.453682,0.0,0.0,89.7,9,2,1.9,0,0.0,-1,0.0,0.0,0.0,0
39794,1490396499260,,,,,,,,0.02,0.08,0.98,-3.1,0.2,-0.2,1780,0,,,,,,,,,,,,,,,,,,,
39814,1490396499280,,,,,,,,0.02,0.08,0.97,-3.1,0.1,-0.3,1840,0,,,,,,,,,,,,,,,,,,,
39834,1490396499302,,,,,,,,0.02,0.07,0.98,-3.2,0.1,-0.2,1840,0,,,,,,,,,,,,,,,,,,,
39854,1490396499322,,,,,,,,0.02,0.07,0.98,-3.1,0.0,-0.2,1860,0,,,,,,,,,,,,,,,,,,,
39874,1490396499342,0,93.8,,138.9,63,118.8,,0.02,0.07,0.98,-3.1,0.2,-0.3,1860,0,1,1,0.0,0,38.160408,-122.453682,0.0,0.0,89.7,9,2,1.9,0,0.0,-1,0.0,0.0,0.0,0
39894,1490396499362,,,,,,,,0.02,0.07,0.98,-3.2,0.2,-0.2,1860,0,,,,,,,,,,,,,,,,,,,
39914,1490396499382,,,,,,,,0.02,0.07,0.98,-3.1,0.3,-0.2,1900,0,,,,,,,,,,,,,,,,,,,
39934,1490396499402,,,,,,,,0.02,0.07,0.98,-3.2,0.2,-0.2,1900,0,,,,,,,,,,,,,,,,,,,
39954,1490396499422,,,,,,,,0.02,0.07,0.98,-3.2,0.1,-0.2,1900,0,,,,,,,,,,,,,,,,,,,
39974,1490396499442,,,,,66,,,0.02,0.08,0.98,-3.2,0.1,-0.2,1880,0,1,1,0.0,0,38.160408,-122.453682,0.0,0.0,89.7,9,2,1.9,0,0.0,-1,0.0,0.0,0.0,0
39994,1490396499462,,,,,,,,0.02,0.08,0.98,-3.2,0.1,-0.2,1900,0,,,,,,,,,,,,,,,,,,,
40014,1490396499482,,,,,,,,0.02,0.09,0.98,-3.2,0.0,-0.2,2000,0,,,,,,,,,,,,,,,,,,,
40034,1490396499502,,,,,,,,0.02,0.09,0.98,-3.2,-0.0,-0.3,2040,0,,,,,,,,,,,,,,,,,,,
40054,1490396499522,,,,,,,,0.02,0.09,0.98,-3.2,-0.1,-0.2,2080,0,,,,,,,,,,,,,,,,,,,
40074,1490396499542,0,94.4,-0.5,138.7,66,118.5,14.86,0.01,0.09,0.97,-3.2,-0.1,-0.2,2140,0,1,1,0.0,0,38.160408,-122.453682,0.0,0.0,89.7,9,2,1.9,0,0.0,-1,0.0,0.0,0.0,0
40094,1490396499562,,,,,,,,0.01,0.09,0.98,-3.2,-0.2,-0.2,2160,0,,,,,,,,,,,,,,,,,,,
40114,1490396499582,,,,,,,,0.01,0.08,0.98,-3.2,-0.3,-0.2,2280,0,,,,,,,,,,,,,,,,,,,
40134,1490396499602,,,,,,,,0.02,0.08,0.98,-3.2,-0.1,-0.2,2360,0,,,,,,,,,,,,,,,,,,,
40154,1490396499622,,,,,,,,0.02,0.09,0.97,-3.2,0.1,-0.2,2400,0,,,,,,,,,,,,,,,,,,,
40174,1490396499642,,,,,68,,,0.02,0.09,0.98,-3.2,-0.2,-0.2,2500,0,1,1,0.0,0,38.160408,-122.453682,0.0,0.0,89.7,9,2,1.9,0,0.0,-1,0.0,0.0,0.0,0
40194,1490396499662,,,,,,,,0.02,0.09,0.98,-3.1,-0.1,-0.2,2520,0,,,,,,,,,,,,,,,,,,,
40214,1490396499682,,,,,,,,0.02,0.09,0.98,-3.2,-0.1,-0.2,2640,0,,,,,,,,,,,,,,,,,,,
40234,1490396499702,,,,,,,,0.02,0.06,0.98,-3.1,0.1,-0.3,2680,0,,,,,,,,,,,,,,,,,,,
40254,1490396499722,,,,,,,,0.02,0.07,0.97,-3.2,-0.1,-0.2,2680,0,,,,,,,,,,,,,,,,,,,
40274,1490396499742,0,96.5,,140.0,74,120.9,,0.02,0.06,0.97,-3.2,-0.2,-0.1,2760,0,1,1,0.0,0,38.160408,-122.453682,0.0,0.0,89.7,9,2,1.9,0,0.0,-1,0.0,0.0,0.0,0
40294,1490396499762,,,,,,,,0.03,0.06,0.99,-3.2,0.1,-0.1,2800,0,,,,,,,,,,,,,,,,,,,
40314,1490396499782,,,,,,,,0.03,0.07,0.99,-3.1,0.3,-0.1,2860,0,,,,,,,,,,,,,,,,,,,
40334,1490396499802,,,,,,,,0.03,0.08,0.98,-3.1,0.2,-0.1,2920,0,,,,,,,,,,,,,,,,,,,
40354,1490396499822,,,,,,,,0.03,0.09,0.97,-3.2,-0.1,-0.1,2920,0,,,,,,,,,,,,,,,,,,,
40374,1490396499842,,,,,65,,,0.02,0.08,0.97,-3.2,-0.3,-0.1,2940,0,1,1,0.0,0,38.160408,-122.453682,0.0,0.0,89.7,9,2,1.9,0,0.0,-1,0.0,0.0,0.0,0
40394,1490396499862,,,,,,,,0.02,0.08,0.97,-3.2,-0.4,-0.2,3040,0,,,,,,,,,,,,,,,,,,,
40414,1490396499882,,,,,,,,0.01,0.08,0.96,-3.1,-0.4,-0.2,3060,0,,,,,,,,,,,,,,,,,,,
40434,1490396499902,,,,,,,,0.01,0.08,0.97,-3.1,-0.4,-0.2,3040,0,,,,,,,,,,,,,,,,,,,
40454,1490396499922,,,,,,,,-0.0,0.08,0.95,-3.1,-0.4,-0.2,3100,0,,,,,,,,,,,,,,,,,,,
40474,1490396499942,0,95.9,,138.7,73,118.9,,-0.01,0.07,0.97,-3.1,-0.5,-0.3,3120,0,1,1,0.0,0,38.160408,-122.453682,0.0,0.0,89.7,9,2,1.9,0,0.0,-1,0.0,0.0,0.0,0
40494,1490396499962,,,,,,,,0.0,0.07,0.97,-3.1,-0.6,-0.3,3160,0,,,,,,,,,,,,,,,,,,,
40514,1490396499982,,,,,,,,0.0,0.07,0.95,-3.1,-0.5,-0.2,3200,0,,,,,,,,,,,,,,,,,,,
40534,1490396499996,,,,,,,,0.0,0.06,0.97,-3.2,-0.3,-0.2,3240,0,,,,,,,,,,,,,,,,,,,
40554,1490396500016,,,,,,,,0.01,0.06,0.98,-3.2,-0.2,-0.2,3260,0,,,,,,,,,,,,,,,,,,,
40574,1490396500036,,,,,79,,,0.01,0.08,0.97,-3.2,-0.3,-0.2,3240,0,1,1,0.0,0,38.160408,-122.453682,0.0,0.0,89.7,9,2,1.9,0,0.0,-1,0.0,0.0,0.0,0
40594,1490396500056,,,,,,,,0.01,0.07,0.98,-3.2,-0.4,-0.1,3180,0,,,,,,,,,,,,,,,,,,,
40614,1490396500076,,,,,,,,0.01,0.06,0.97,-3.2,-0.5,-0.1,3240,0,,,,,,,,,,,,,,,,,,,
40634,1490396500102,,,,,,,,0.02,0.06,0.98,-3.2,-0.3,-0.1,3260,0,,,,,,,,,,,,,,,,,,,
40654,1490396500122,,,,,,,,0.02,0.07,0.98,-3.2,-0.1,-0.2,3280,0,,,,,,,,,,,,,,,,,,,
40674,1490396500142,0,93.9,,138.8,74,118.7,,0.01,0.08,0.96,-3.1,0.1,-0.3,3280,0,1,1,0.0,0,38.160408,-122.453682,0.0,0.0,89.7,9,2,1.9,0,0.0,-1,0.0,0.0,0.0,0
40694,1490396500162,,,,,,,,0.01,0.06,0.97,-3.1,0.1,-0.3,3360,0,,,,,,,,,,,,,,,,,,,
40714,1490396500182,,,,,,,,0.0,0.08,0.97,-3.2,-0.1,-0.4,3300,0,,,,,,,,,,,,,,,,,,,
40734,1490396500201,,,,,,,,0.01,0.08,0.95,-3.1,-0.1,-0.3,3380,0,,,,,,,,,,,,,,,,,,,
40754,1490396500221,,,,,,,,0.0,0.06,0.96,-3.1,0.0,-0.3,3360,0,,,,,,,,,,,,,,,,,,,
40774,1490396500241,,,,,76,,,-0.0,0.06,0.95,-3.2,-0.1,-0.2,3340,0,1,1,0.0,0,38.160408,-122.453682,0.0,0.0,89.7,9,2,1.9,0,0.0,-1,0.0,0.0,0.0,0
40794,1490396500261,,,,,,,,-0.0,0.06,0.95,-3.1,-0.2,-0.2,3420,0,,,,,,,,,,,,,,,,,,,
40814,1490396500281,,,,,,,,-0.0,0.05,0.95,-3.1,-0.1,-0.2,3420,0,,,,,,,,,,,,,,,,,,,
40834,1490396500301,,,,,,,,-0.0,0.07,0.94,-3.1,-0.1,-0.3,3380,0,,,,,,,,,,,,,,,,,,,
40854,1490396500321,,,,,,,,0.0,0.07,0.96,-3.1,0.1,-0.4,3420,0,,,,,,,,,,,,,,,,,,,
40874,1490396500341,0,96.2,,139.6,81,120.6,,0.0,0.09,0.96,-3.1,0.2,-0.3,3440,0,1,1,0.0,0,38.160408,-122.453682,0.0,0.0,89.7,9,2,1.9,0,0.0,-1,0.0,0.0,0.0,0
40894,1490396500361,,,,,,,,0.02,0.08,0.98,-3.2,0.0,-0.3,3440,0,,,,,,,,,,,,,,,,,,,
40914,1490396500381,,,,,,,,0.01,0.06,0.97,-3.1,0.1,-0.3,3480,0,,,,,,,,,,,,,,,,,,,
40934,1490396500401,,,,,,,,0.01,0.07,0.97,-3.2,-0.1,-0.3,3400,0,,,,,,,,,,,,,,,,,,,
40954,1490396500421,,,,,,,,0.01,0.05,0.97,-3.1,-0.0,-0.3,3460,0,,,,,,,,,,,,,,,,,,,
40974,1490396500441,,,,,75,,,0.01,0.06,0.96,-3.1,0.1,-0.4,3440,0,1,1,0.0,0,38.160408,-122.453682,0.0,0.0,89.7,9,2,1.9,0,0.0,-1,0.0,0.0,0.0,0
40994,1490396500461,,,,,,,,0.01,0.06,0.98,-3.0,0.3,-0.4,3440,0,,,,,,,,,,,,,,,,,,,
41014,1490396500481,,,,,,,,0.02,0.08,0.97,-3.1,0.3,-0.3,3500,0,,,,,,,,,,,,,,,,,,,
41034,1490396500501,,,,,,,,0.02,0.06,1.0,-3.0,0.3,-0.3,3540,0,,,,,,,,,,,,,,,,,,,
41054,1490396500521,,,,,,,,0.01,0.07,0.99,-3.1,-0.1,-0.2,3500,0,,,,,,,,,,,,,,,,,,,
41074,1490396500541,0,93.6,-0.5,138.9,84,118.9,14.83,0.02,0.05,1.0,-3.0,0.1,-0.3,3520,0,1,1,0.0,0,38.160408,-122.453682,0.0,0.0,89.7,9,2,1.9,0,0.0,-1,0.0,0.0,0.0,0
41094,1490396500561,,,,,,,,0.02,0.07,0.99,-3.1,0.1,-0.2,3520,0,,,,,,,,,,,,,,,,,,,
41114,1490396500581,,,,,,,,0.02,0.06,1.0,-3.1,0.2,-0.2,3520,0,,,,,,,,,,,,,,,,,,,
41134,1490396500601,,,,,,,,0.02,0.09,0.98,-3.1,0.0,-0.2,3580,0,,,,,,,,,,,,,,,,,,,
41154,1490396500621,,,,,,,,0.01,0.06,0.98,-3.1,0.3,-0.1,3560,0,,,,,,,,,,,,,,,,,,,
41174,1490396500641,,,,,73,,,0.01,0.06,0.98,-3.1,0.0,-0.2,3540,0,1,1,0.0,0,38.160408,-122.453682,0.0,0.0,89.7,9,2,1.9,0,0.0,-1,0.0,0.0,0.0,0
41194,1490396500661,,,,,,,,0.01,0.05,0.99,-3.1,0.1,-0.2,3580,0,,,,,,,,,,,,,,,,,,,
41214,1490396500681,,,,,,,,0.01,0.03,0.99,-3.1,-0.1,-0.2,3540,0,,,,,,,,,,,,,,,,,,,
41234,1490396500703,,,,,,,,0.01,0.05,0.96,-3.2,0.0,-0.1,3600,0,,,,,,,,,,,,,,,,,,,
41254,1490396500723,,,,,,,,0.0,0.03,0.99,-3.1,0.4,-0.1,3540,0,,,,,,,,,,,,,,,,,,,
41274,1490396500743,0,94.5,,139.4,72,120.1,,0.01,0.04,0.98,-3.2,-0.0,-0.1,3560,0,1,1,0.0,0,38.160408,-122.453682,0.0,0.0,89.7,9,2,1.9,0,0.0,-1,0.0,0.0,0.0,0
41294,1490396500763,,,,,,,,0.01,0.02,0.99,-3.1,-0.0,-0.2,3480,0,,,,,,,,,,,,,,,,,,,
41314,1490396500783,,,,,,,,-0.0,0.02,0.98,-3.1,0.0,-0.2,3580,0,,,,,,,,,,,,,,,,,,,
41334,1490396500801,,,,,,,,-0.0,0.02,0.98,-3.1,0.3,-0.2,3500,0,,,,,,,,,,,,,,,,,,,
41354,1490396500821,,,,,,,,0.01,0.04,0.95,-3.2,0.3,-0.1,3480,0,,,,,,,,,,,,,,,,,,,
41374,1490396500841,,,,,71,,,0.0,0.02,0.97,-3.2,0.3,-0.1,3440,0,1,1,0.0,0,38.160408,-122.453682,0.0,0.0,89.7,9,2,1.9,0,0.0,-1,0.0,0.0,0.0,0
41394,1490396500861,,,,,,,,0.0,0.04,0.98,-3.2,0.0,-0.2,3360,0,,,,,,,,,,,,,,,,,,,
41414,1490396500881,,,,,,,,0.01,0.02,0.98,-3.1,0.1,-0.2,3300,0,,,,,,,,,,,,,,,,,,,
41434,1490396500901,,,,,,,,0.01,0.03,0.99,-3.1,0.3,-0.3,3320,0,,,,,,,,,,,,,,,,,,,
41454,1490396500921,,,,,,,,0.01,0.03,0.99,-3.1,0.3,-0.3,3280,0,,,,,,,,,,,,,,,,,,,
41474,1490396500941,1,94.0,,138.8,77,118.9,,0.01,0.04,1.0,-3.1,0.2,-0.4,3240,0,1,1,0.0,0,38.160408,-122.453682,0.0,0.0,89.7,9,2,1.9,0,0.0,-1,0.0,0.0,0.0,0
41494,1490396500961,,,,,,,,0.01,0.07,1.0,-3.1,0.1,-0.4,3200,0,,,,,,,,,,,,,,,,,,,
41514,1490396500981,,,,,,,,0.01,0.08,1.0,-3.1,0.2,-0.3,3120,0,,,,,,,,,,,,,,,,,,,
41534,1490396500997,,,,,,,,0.01,0.07,0.99,-3.1,0.3,-0.3,3160,0,,,,,,,,,,,,,,,,,,,
41554,1490396501017,,,,,,,,0.02,0.06,1.0,-3.1,0.3,-0.3,3120,0,,,,,,,,,,,,,,,,,,,
41574,1490396501037,,,,,65,,,0.02,0.06,1.0,-3.1,0.3,-0.3,3100,0,1,1,0.0,0,38.160408,-122.453682,0.0,0.0,89.7,9,2,1.9,0,0.0,-1,0.0,0.0,0.0,0
41594,1490396501057,,,,,,,,0.02,0.06,1.0,-3.1,0.3,-0.2,3060,0,,,,,,,,,,,,,,,,,,,
41614,1490396501077,,,,,,,,0.02,0.08,1.0,-3.1,0.1,-0.2,2980,0,,,,,,,,,,,,,,,,,,,
41634,1490396501103,,,,,,,,0.02,0.09,1.0,-3.1,0.1,-0.2,2940,0,,,,,,,,,,,,,,,,,,,
41654,1490396501123,,,,,,,,0.03,0.09,1.0,-3.1,0.1,-0.2,2920,0,,,,,,,,,,,,,,,,,,,
41674,1490396501143,0,96.2,,139.7,79,120.8,,0.03,0.09,1.01,-3.1,0.2,-0.2,2860,0,1,1,0.0,0,38.160408,-122.453682,0.0,0.0,89.7,9,2,1.9,0,0.0,-1,0.0,0.0,0.0,0
41694,1490396501163,,,,,,,,0.04,0.09,1.0,-3.1,0.2,-0.2,2820,0,,,,,,,,,,,,,,,,,,,
41714,1490396501183,,,,,,,,0.04,0.11,1.0,-3.1,0.3,-0.2,2820,0,,,,,,,,,,,,,,,,,,,
41734,1490396501200,,,,,,,,0.04,0.12,1.0,-3.1,0.4,-0.2,2800,0,,,,,,,,,,,,,,,,,,,
41754,1490396501220,,,,,,,,0.04,0.12,1.01,-3.1,0.4,-0.2,2800,0,,,,,,,,,,,,,,,,,,,
41774,1490396501240,,,,,74,,,0.03,0.11,1.0,-3.2,0.2,-0.2,2740,5,1,1,0.0,0,38.160408,-122.453682,0.0,0.0,89.7,9,2,1.9,0,0.0,-1,0.0,0.0,0.0,0
41794,1490396501260,,,,,,,,0.02,0.1,1.01,-3.1,0.1,-0.3,2720,5,,,,,,,,,,,,,,,,,,,
41814,1490396501280,,,,,,,,0.02,0.09,1.0,-3.1,0.3,-0.4,2720,5,,,,,,,,,,,,,,,,,,,
41834,1490396501300,,,,,,,,0.02,0.09,1.01,-3.1,0.4,-0.4,2620,5,,,,,,,,,,,,,,,,,,,
41854,1490396501320,,,,,,,,0.01,0.08,1.01,-3.0,0.2,-0.4,2620,5,,,,,,,,,,,,,,,,,,,
41874,1490396501340,1,96.5,,139.9,73,121.1,,0.01,0.07,1.0,-3.0,0.4,-0.3,2620,5,1,1,690.0,0,38.160408,-122.453682,0.0,0.0,89.7,9,2,1.9,0,0.0,-1,0.0,0.0,0.0,0
41894,1490396501360,,,,,,,,0.02,0.06,1.01,-3.1,0.5,-0.3,2660,5,,,,,,,,,,,,,,,,,,,
41914,1490396501380,,,,,,,,0.03,0.07,1.0,-3.1,0.4,-0.2,2640,5,,,,,,,,,,,,,,,,,,,
41934,1490396501402,,,,,,,,0.03,0.07,1.0,-3.1,0.4,-0.2,2580,5,,,,,,,,,,,,,,,,,,,
41954,1490396501422,,,,,,,,0.03,0.07,1.01,-3.0,0.4,-0.2,2540,5,,,,,,,,,,,,,,,,,,,
41974,1490396501442,,,,,65,,,0.02,0.08,1.01,-3.0,0.3,-0.3,2580,5,1,1,645.0,0,38.160408,-122.453682,0.0,0.0,89.7,9,2,1.9,0,0.0,-1,0.0,0.0,0.0,0
41994,1490396501462,,,,,,,,0.02,0.08,1.01,-3.1,0.3,-0.3,2520,5,,,,,,,,,,,,,,,,,,,
42014,1490396501482,,,,,,,,0.02,0.08,1.0,-3.0,0.2,-0.3,2540,5,,,,,,,,,,,,,,,,,,,
42034,1490396501502,,,,,,,,0.02,0.07,1.01,-3.1,0.3,-0.2,2460,5,,,,,,,,,,,,,,,,,,,
42054,1490396501522,,,,,,,,0.03,0.08,1.0,-3.1,0.3,-0.2,2540,5,,,,,,,,,,,,,,,,,,,
42074,1490396501542,0,94.0,-0.2,138.7,64,120.8,14.86,0.03,0.07,1.0,-3.1,0.2,-0.2,2480,5,1,1,630.0,0,38.160408,-122.453682,0.0,0.0,89.7,9,2,1.9,0,0.0,-1,0.0,0.0,0.0,0
42094,1490396501562,,,,,,,,0.03,0.08,1.0,-3.1,0.2,-0.2,2440,5,,,,,,,,,,,,,,,,,,,
42114,1490396501582,,,,,,,,0.03,0.07,1.01,-3.0,0.3,-0.3,2440,5,,,,,,,,,,,,,,,,,,,
42134,1490396501602,,,,,,,,0.03,0.07,1.01,-3.0,0.2,-0.4,2420,5,,,,,,,,,,,,,,,,,,,
42154,1490396501622,,,,,,,,0.03,0.07,1.0,-3.0,0.2,-0.3,2460,5,,,,,,,,,,,,,,,,,,,
42174,1490396501642,,,,,67,,,0.03,0.08,0.99,-3.1,0.3,-0.3,2460,5,1,1,625.0,0,38.160408,-122.453682,0.0,0.0,89.7,9,2,1.9,0,0.0,-1,0.0,0.0,0.0,0
42194,1490396501662,,,,,,,,0.03,0.07,0.99,-3.1,0.3,-0.3,2400,5,,,,,,,,,,,,,,,,,,,
42214,1490396501682,,,,,,,,0.03,0.07,0.99,-3.1,0.3,-0.3,2440,5,,,,,,,,,,,,,,,,,,,
42234,1490396501702,,,,,,,,0.03,0.06,0.99,-3.1,0.4,-0.3,2380,5,,,,,,,,,,,,,,,,,,,
42254,1490396501722,,,,,,,,0.03,0.05,0.99,-3.1,0.4,-0.3,2400,5,,,,,,,,,,,,,,,,,,,
42274,1490396501742,0,93.9,,138.5,66,120.6,,0.03,0.07,0.99,-3.1,0.4,-0.3,2340,5,1,1,595.0,0,38.160408,-122.453682,0.0,0.0,89.7,9,2,1.9,0,0.0,-1,0.0,0.0,0.0,0
42294,1490396501762,,,,,,,,0.03,0.07,0.99,-3.0,0.3,-0.3,2340,5,,,,,,,,,,,,,,,,,,,
42314,1490396501782,,,,,,,,0.03,0.06,0.99,-3.1,0.3,-0.4,2300,5,,,,,,,,,,,,,,,,,,,
42334,1490396501802,,,,,,,,0.03,0.06,1.0,-3.1,0.3,-0.4,2320,5,,,,,,,,,,,,,,,,,,,
42354,1490396501822,,,,,,,,0.03,0.06,0.99,-3.1,0.3,-0.3,2380,5,,,,,,,,,,,,,,,,,,,
42374,1490396501842,,,,,66,,,0.03,0.06,0.99,-3.1,0.3,-0.3,2360,5,1,1,600.0,0,38.160408,-122.453682,0.0,0.0,89.7,9,2,1.9,0,0.0,-1,0.0,0.0,0.0,0
42394,1490396501862,,,,,,,,0.03,0.06,0.99,-3.1,0.3,-0.3,2320,5,,,,,,,,,,,,,,,,,,,
42414,1490396501882,,,,,,,,0.02,0.05,0.99,-3.1,0.3,-0.3,2300,5,,,,,,,,,,,,,,,,,,,
42434,1490396501902,,,,,,,,0.02,0.05,0.99,-3.1,0.3,-0.3,2320,5,,,,,,,,,,,,,,,,,,,
42454,1490396501922,,,,,,,,0.03,0.06,0.99,-3.1,0.2,-0.3,2320,5,,,,,,,,,,,,,,,,,,,
42474,1490396501942,0,95.1,,138.3,65,119.7,,0.03,0.06,0.99,-3.1,0.1,-0.2,2300,5,1,1,580.0,0,38.160408,-122.453682,0.0,0.0,89.7,9,2,1.9,0,0.0,-1,0.0,0.0,0.0,0
42494,1490396501962,,,,,,,,0.03,0.05,0.99,-3.1,0.1,-0.3,2360,5,,,,,,,,,,,,,,,,,,,
42514,1490396501982,,,,,,,,0.03,0.06,0.98,-3.1,0.2,-0.3,2300,5,,,,,,,,,,,,,,,,,,,
42534,1490396501996,,,,,,,,0.03,0.06,0.99,-3.1,0.1,-0.3,2240,5,,,,,,,,,,,,,,,,,,,
42554,1490396502016,,,,,,,,0.03,0.05,0.99,-3.1,0.1,-0.3,2260,5,,,,,,,,,,,,,,,,,,,
42574,1490396502036,,,,,64,,,0.03,0.06,0.99,-3.1,0.1,-0.3,2280,5,1,1,565.0,0,38.160408,-122.453682,0.0,0.0,89.7,9,2,1.9,0,0.0,-1,0.0,0.0,0.0,0
42594,1490396502056,,,,,,,,0.03,0.05,0.99,-3.1,0.1,-0.3,2260,5,,,,,,,,,,,,,,,,,,,
42614,1490396502076,,,,,,,,0.03,0.05,0.99,-3.1,0.1,-0.2,2280,5,,,,,,,,,,,,,,,,,,,
42634,1490396502102,,,,,,,,0.03,0.05,1.0,-3.1,0.2,-0.3,2240,5,,,,,,,,,,,,,,,,,,,
42654,1490396502122,,,,,,,,0.02,0.05,0.99,-3.1,0.2,-0.3,2260,5,,,,,,,,,,,,,,,,,,,
42674,1490396502142,0,95.1,,138.2,68,119.7,,0.02,0.05,0.99,-3.1,0.2,-0.3,2280,5,1,1,560.0,0,38.160408,-122.453682,0.0,0.0,89.7,9,2,1.9,0,0.0,-1,0.0,0.0,0.0,0
42694,1490396502162,,,,,,,,0.02,0.05,0.99,-3.1,0.1,-0.3,2240,5,,,,,,,,,,,,,,,,,,,
42714,1490396502182,,,,,,,,0.02,0.05,0.99,-3.1,0.1,-0.3,2260,384615,,,,,,,,,,,,,,,,,,,
42734,1490396502201,,,,,,,,0.02,0.05,0.99,-3.1,0.1,-0.3,2200,0,,,,,,,,,,,,,,,,,,,
42754,1490396502221,,,,,,,,0.01,0.05,0.99,-3.1,0.2,-0.3,2200,0,,,,,,,,,,,,,,,,,,,
42774,1490396502241,,,,,66,,,0.02,0.05,0.99,-3.1,0.1,-0.2,2260,0,1,1,555.0,0,38.160408,-122.453682,0.0,0.0,89.7,9,2,1.9,0,0.0,-1,0.0,0.0,0.0,0
42794,1490396502261,,,,,,,,0.02,0.05,0.99,-3.1,0.1,-0.2,2180,0,,,,,,,,,,,,,,,,,,,
42814,1490396502281,,,,,,,,0.02,0.05,0.99,-3.1,0.1,-0.2,2220,0,,,,,,,,,,,,,,,,,,,
42834,1490396502301,,,,,,,,0.02,0.06,0.99,-3.1,0.1,-0.2,2240,0,,,,,,,,,,,,,,,,,,,
42854,1490396502321,,,,,,,,0.02,0.06,0.99,-3.1,0.1,-0.2,2220,0,,,,,,,,,,,,,,,,,,,
42874,1490396502341,0,94.1,,138.7,65,121.3,,0.02,0.06,0.99,-3.1,0.1,-0.2,2240,0,1,1,0.0,0,38.160408,-122.453682,0.0,0.0,89.7,9,2,1.9,0,0.0,-1,0.0,0.0,0.0,0
42894,1490396502361,,,,,,,,0.03,0.06,0.99,-3.1,0.1,-0.3,2180,0,,,,,,,,,,,,,,,,,,,
42914,1490396502381,,,,,,,,0.02,0.06,1.0,-3.1,0.1,-0.3,2180,0,,,,,,,,,,,,,,,,,,,
42934,1490396502401,,,,,,,,0.02,0.07,1.0,-3.1,0.1,-0.3,2180,0,,,,,,,,,,,,,,,,,,,
42954,1490396502421,,,,,,,,0.02,0.07,0.99,-3.1,0.0,-0.3,2180,0,,,,,,,,,,,,,,,,,,,
42974,1490396502441,,,,,70,,,0.02,0.06,0.99,-3.1,0.1,-0.3,2160,0,1,1,0.0,0,38.160408,-122.453682,0.0,0.0,89.7,9,2,1.9,0,0.0,-1,0.0,0.0,0.0,0
42994,1490396502461,,,,,,,,0.02,0.06,0.99,-3.1,0.1,-0.3,2220,0,,,,,,,,,,,,,,,,,,,
43014,1490396502481,,,,,,,,0.02,0.07,0.98,-3.1,0.1,-0.3,2200,0,,,,,,,,,,,,,,,,,,,
43034,1490396502501,,,,,,,,0.02,0.07,0.99,-3.1,0.1,-0.2,2160,0,,,,,,,,,,,,,,,,,,,
43054,1490396502521,,,,,,,,0.02,0.06,0.98,-3.1,-0.0,-0.2,2160,0,,,,,,,,,,,,,,,,,,,
43074,1490396502541,0,95.1,-0.4,139.2,65,122.0,14.88,0.02,0.06,0.99,-3.1,0.0,-0.2,2200,0,1,1,0.0,0,38.160408,-122.453682,0.0,0.0,89.7,9,2,1.9,0,0.0,-1,0.0,0.0,0.0,0
43094,1490396502561,,,,,,,,0.02,0.06,0.98,-3.1,0.0,-0.2,2200,0,,,,,,,,,,,,,,,,,,,
43114,1490396502581,,,,,,,,0.02,0.06,0.98,-3.1,0.1,-0.2,2200,0,,,,,,,,,,,,,,,,,,,
43134,1490396502601,,,,,,,,0.02,0.06,0.98,-3.1,0.1,-0.2,2180,0,,,,,,,,,,,,,,,,,,,
43154,1490396502621,,,,,,,,0.02,0.06,0.98,-3.1,-0.1,-0.2,2220,0,,,,,,,,,,,,,,,,,,,
43174,1490396502641,,,,,65,,,0.02,0.05,0.98,-3.1,-0.1,-0.1,2200,0,1,1,0.0,0,38.160408,-122.453682,0.0,0.0,89.7,9,2,1.9,0,0.0,-1,0.0,0.0,0.0,0
43194,1490396502661,,,,,,,,0.02,0.05,0.98,-3.1,0.0,-0.2,2200,0,,,,,,,,,,,,,,,,,,,
43214,1490396502681,,,,,,,,0.02,0.06,0.98,-3.1,0.1,-0.2,2200,0,,,,,,,,,,,,,,,,,,,
43234,1490396502701,,,,,,,,0.02,0.06,0.98,-3.1,0.1,-0.2,2200,0,,,,,,,,,,,,,,,,,,,
43254,1490396502721,,,,,,,,0.02,0.06,0.98,-3.1,0.0,-0.2,2220,0,,,,,,,,,,,,,,,,,,,
43274,1490396502741,0,93.8,,138.3,65,121.5,,0.02,0.06,0.98,-3.1,0.0,-0.2,2200,0,1,1,0.0,0,38.160408,-122.453682,0.0,0.0,89.7,9,2,1.9,0,0.0,-1,0.0,0.0,0.0,0
43294,1490396502761,,,,,,,,0.02,0.05,0.99,-3.1,0.0,-0.2,2180,0,,,,,,,,,,,,,,,,,,,
43314,1490396502781,,,,,,,,0.02,0.06,0.98,-3.1,0.0,-0.2,2200,0,,,,,,,,,,,,,,,,,,,
43334,1490396502801,,,,,,,,0.02,0.06,0.98,-3.1,0.1,-0.1,2180,0,,,,,,,,,,,,,,,,,,,
43354,1490396502821,,,,,,,,0.02,0.05,0.98,-3.1,0.2,-0.1,2180,0,,,,,,,,,,,,,,,,,,,
43374,1490396502841,,,,,68,,,0.02,0.05,0.98,-3.1,0.1,-0.1,2180,0,1,1,0.0,0,38.160408,-122.453682,0.0,0.0,89.7,9,2,1.9,0,0.0,-1,0.0,0.0,0.0,0
43394,1490396502861,,,,,,,,0.02,0.05,0.98,-3.1,-0.1,-0.1,2160,0,,,,,,,,,,,,,,,,,,,
43414,1490396502881,,,,,,,,0.02,0.05,0.98,-3.1,0.1,-0.1,2200,0,,,,,,,,,,,,,,,,,,,
43434,1490396502901,,,,,,,,0.02,0.05,0.98,-3.1,0.1,-0.2,2200,0,,,,,,,,,,,,,,,,,,,
43454,1490396502921,,,,,,,,0.02,0.06,0.98,-3.1,0.2,-0.1,2200,0,,,,,,,,,,,,,,,,,,,
43474,1490396502941,0,96.5,,139.4,70,120.0,,0.02,0.06,0.98,-3.1,0.1,-0.1,2200,0,1,1,0.0,0,38.160408,-122.453682,0.0,0.0,89.7,9,2,1.9,0,0.0,-1,0.0,0.0,0.0,0
43494,1490396502961,,,,,,,,0.02,0.06,0.98,-3.1,-0.0,-0.1,2140,0,,,,,,,,,,,,,,,,,,,
