"Interval"|"ms"|0|0|1,"Utc"|"ms"|0|0|1,"FuelLevel"|"F"|0.0|100.0|5,"OilTemp"|"F"|0|300|5,"Coolant"|"F"|0|300|5,"OilPress"|"PSI"|0|150|10,"EngineTemp"|"F"|0|300|5,"Battery"|"Volts"|0.0|20.0|1,"AccelX"|"G"|-3.0|3.0|50,"AccelY"|"G"|-3.0|3.0|50,"AccelZ"|"G"|-3.0|3.0|50,"Yaw"|"Deg/Sec"|-300.0|300.0|50,"Pitch"|"Deg/Sec"|-300.0|300.0|50,"Roll"|"Deg/Sec"|-300.0|300.0|50,"RPM"|""|0|10000|50,"Wheel"|"RPM"|0|5000|50,"Latitude"|"Degrees"|-180.0|180.0|50,"Longitude"|"Degrees"|-180.0|180.0|50,"Speed"|"MPH"|0.0|150.0|50,"Distance"|"Miles"|0.0|0.0|50,"Altitude"|"Feet"|0.0|4000.0|50,"GPSSats"|""|0|20|50,"GPSQual"|""|0|5|50,"GPSDOP"|""|0.0|20.0|50,"LapCount"|""|0|0|50,"LapTime"|"Min"|0.0|0.0|50,"Sector"|""|0|0|50,"SectorTime"|"Min"|0.0|0.0|50,"PredTime"|"Min"|0.0|0.0|5,"ElapsedTime"|"Min"|0.0|0.0|50,"CurrentLap"|""|0|0|50
24641,1463871976877,,,,,,,0.01,0.06,0.99,-3.3,0.0,0.0,0,0,39.53957,-122.332352,0.0,0.004,340.5,9,2,2.0,0,0.0,-1,0.0,,0.0,0
24661,1463871977124,,,,,,,0.01,0.06,1.0,-3.3,0.0,0.0,0,0,39.53957,-122.332352,0.0,0.004,340.5,9,2,2.0,0,0.0,-1,0.0,,0.0,0
24681,1463871977144,,,,,,,0.01,0.06,0.99,-3.2,-0.0,0.0,0,0,39.53957,-122.332352,0.0,0.004,340.5,9,2,2.0,0,0.0,-1,0.0,,0.0,0
24701,1463871977163,,,,0,,,0.01,0.06,1.0,-3.2,-0.0,-0.0,0,0,39.53957,-122.332352,0.0,0.004,340.5,9,2,2.0,0,0.0,-1,0.0,,0.0,0
24721,1463871977183,,,,,,,0.01,0.06,1.0,-3.2,-0.0,0.0,0,0,39.53957,-122.332352,0.0,0.004,340.5,9,2,2.0,0,0.0,-1,0.0,,0.0,0
24741,1463871977204,,,,,,,0.01,0.06,1.0,-3.2,-0.0,0.0,0,0,39.53957,-122.332352,0.0,0.004,340.5,9,2,2.0,0,0.0,-1,0.0,,0.0,0
24761,1463871977224,,,,,,,0.01,0.06,1.0,-3.1,-0.0,0.0,0,0,39.53957,-122.332352,0.0,0.004,340.5,9,2,2.0,0,0.0,-1,0.0,,0.0,0
24781,1463871977243,,,,,,,0.01,0.07,1.0,-3.1,-0.0,0.0,0,0,39.53957,-122.332352,0.0,0.004,340.5,9,2,2.0,0,0.0,-1,0.0,,0.0,0
24801,1463871977264,0.001,56,53,0,55,,0.01,0.07,1.0,-3.1,-0.0,0.0,0,0,39.53957,-122.332352,0.0,0.004,340.5,9,2,2.0,0,0.0,-1,0.0,0.0,0.0,0
24821,1463871977283,,,,,,,0.01,0.07,1.0,-3.1,-0.1,0.0,0,0,39.53957,-122.332352,0.0,0.004,340.5,9,2,2.0,0,0.0,-1,0.0,,0.0,0
24841,1463871977303,,,,,,,0.01,0.07,1.0,-3.1,-0.1,0.0,0,0,39.53957,-122.332352,0.0,0.004,340.5,9,2,2.0,0,0.0,-1,0.0,,0.0,0
24861,1463871977324,,,,,,,0.01,0.07,1.0,-3.1,-0.1,0.0,0,0,39.53957,-122.332352,0.0,0.004,340.5,9,2,2.0,0,0.0,-1,0.0,,0.0,0
24881,1463871977344,,,,,,,0.01,0.07,1.0,-3.1,-0.1,-0.0,0,0,39.53957,-122.332352,0.0,0.004,340.5,9,2,2.0,0,0.0,-1,0.0,,0.0,0
24901,1463871977364,,,,0,,,0.01,0.07,1.0,-3.1,-0.1,0.0,0,0,39.53957,-122.332352,0.0,0.004,340.5,9,2,2.0,0,0.0,-1,0.0,,0.0,0
24921,1463871977383,,,,,,,0.01,0.07,1.0,-3.1,-0.1,0.0,0,0,39.53957,-122.332352,0.0,0.004,340.5,9,2,2.0,0,0.0,-1,0.0,,0.0,0
24941,1463871977403,,,,,,,0.01,0.07,1.0,-3.1,-0.1,0.0,0,0,39.53957,-122.332352,0.0,0.004,340.5,9,2,2.0,0,0.0,-1,0.0,,0.0,0
24961,1463871977424,,,,,,,0.01,0.07,1.0,-3.1,-0.1,0.0,0,0,39.53957,-122.332352,0.0,0.004,340.5,9,2,2.0,0,0.0,-1,0.0,,0.0,0
24981,1463871977444,,,,,,,0.02,0.07,0.99,-3.1,-0.1,0.0,0,0,39.53957,-122.332352,0.0,0.004,340.5,9,2,2.0,0,0.0,-1,0.0,,0.0,0
25001,1463871977464,0.001,55,53,0,55,12.77,0.02,0.07,0.99,-3.1,-0.1,0.0,0,0,39.53957,-122.332352,0.0,0.004,340.5,9,2,2.0,0,0.0,-1,0.0,0.0,0.0,0
25021,1463871977483,,,,,,,0.02,0.07,0.99,-3.1,-0.1,0.0,0,0,39.53957,-122.332352,0.0,0.004,340.5,9,2,2.0,0,0.0,-1,0.0,,0.0,0
25041,1463871977504,,,,,,,0.02,0.07,0.99,-3.1,-0.1,-0.0,0,0,39.53957,-122.332352,0.0,0.004,340.5,9,2,2.0,0,0.0,-1,0.0,,0.0,0
25061,1463871977523,,,,,,,0.02,0.07,0.99,-3.1,-0.1,-0.0,0,0,39.53957,-122.332352,0.0,0.004,340.5,9,2,2.0,0,0.0,-1,0.0,,0.0,0
25081,1463871977544,,,,,,,0.02,0.07,0.99,-3.1,-0.1,0.0,0,0,39.53957,-122.332352,0.0,0.004,340.5,9,2,2.0,0,0.0,-1,0.0,,0.0,0
25101,1463871977563,,,,0,,,0.02,0.07,0.99,-3.1,-0.1,-0.0,0,0,39.53957,-122.332352,0.0,0.004,340.5,9,2,2.0,0,0.0,-1,0.0,,0.0,0
25121,1463871977583,,,,,,,0.02,0.07,0.99,-3.1,-0.1,-0.0,0,0,39.53957,-122.332352,0.0,0.004,340.5,9,2,2.0,0,0.0,-1,0.0,,0.0,0
25141,1463871977604,,,,,,,0.02,0.07,1.0,-3.1,-0.1,0.0,0,0,39.53957,-122.332352,0.0,0.004,340.5,9,2,2.0,0,0.0,-1,0.0,,0.0,0
25161,1463871977624,,,,,,,0.02,0.07,0.99,-3.1,-0.1,-0.0,0,0,39.53957,-122.332352,0.0,0.004,340.5,9,2,2.0,0,0.0,-1,0.0,,0.0,0
25181,1463871977644,,,,,,,0.01,0.06,0.99,-3.1,-0.1,-0.0,0,0,39.53957,-122.332352,0.0,0.004,340.5,9,2,2.0,0,0.0,-1,0.0,,0.0,0
25201,1463871977664,0.001,54,52,0,55,,0.01,0.06,0.99,-3.1,-0.1,-0.0,0,0,39.53957,-122.332352,0.0,0.004,340.5,9,2,2.0,0,0.0,-1,0.0,0.0,0.0,0
25221,1463871977683,,,,,,,0.02,0.06,0.99,-3.1,-0.1,-0.0,0,0,39.53957,-122.332352,0.0,0.004,340.5,9,2,2.0,0,0.0,-1,0.0,,0.0,0
25241,1463871977704,,,,,,,0.02,0.06,0.99,-3.1,-0.1,-0.0,0,0,39.53957,-122.332352,0.0,0.004,340.5,9,2,2.0,0,0.0,-1,0.0,,0.0,0
25261,1463871977723,,,,,,,0.02,0.07,0.99,-3.0,-0.1,-0.0,0,0,39.53957,-122.332352,0.0,0.004,340.5,9,2,2.0,0,0.0,-1,0.0,,0.0,0
25281,1463871977744,,,,,,,0.02,0.07,0.99,-3.0,-0.1,-0.0,0,0,39.53957,-122.332352,0.0,0.004,340.5,9,2,2.0,0,0.0,-1,0.0,,0.0,0
25301,1463871977763,,,,0,,,0.02,0.07,0.99,-3.0,-0.1,-0.0,0,0,39.53957,-122.332352,0.0,0.004,340.5,9,2,2.0,0,0.0,-1,0.0,,0.0,0
25321,1463871977783,,,,,,,0.02,0.07,0.99,-3.0,-0.1,-0.0,0,0,39.53957,-122.332352,0.0,0.004,340.5,9,2,2.0,0,0.0,-1,0.0,,0.0,0
25341,1463871977803,,,,,,,0.02,0.07,0.99,-3.0,-0.1,-0.0,0,0,39.53957,-122.332352,0.0,0.004,340.5,9,2,2.0,0,0.0,-1,0.0,,0.0,0
25361,1463871977824,,,,,,,0.02,0.07,0.99,-3.1,-0.1,-0.0,0,0,39.53957,-122.332352,0.0,0.004,340.5,9,2,2.0,0,0.0,-1,0.0,,0.0,0
25381,1463871977844,,,,,,,0.02,0.07,0.99,-3.1,-0.1,-0.0,0,0,39.53957,-122.332352,0.0,0.004,340.5,9,2,2.0,0,0.0,-1,0.0,,0.0,0
25401,1463871977864,0.0,54,52,0,57,,0.02,0.06,0.99,-3.1,-0.1,-0.0,0,0,39.53957,-122.332352,0.0,0.004,340.5,9,2,2.0,0,0.0,-1,0.0,0.0,0.0,0
25421,1463871977883,,,,,,,0.02,0.07,0.99,-3.1,-0.1,-0.0,0,0,39.53957,-122.332352,0.0,0.004,340.5,9,2,2.0,0,0.0,-1,0.0,,0.0,0
25441,1463871977904,,,,,,,0.02,0.07,0.99,-3.0,-0.1,-0.0,0,0,39.53957,-122.332352,0.0,0.004,340.5,9,2,2.0,0,0.0,-1,0.0,,0.0,0
25461,1463871977924,,,,,,,0.02,0.07,0.99,-3.1,-0.1,-0.0,0,0,39.53957,-122.332352,0.0,0.004,340.5,9,2,2.0,0,0.0,-1,0.0,,0.0,0
25481,1463871977944,,,,,,,0.02,0.06,0.99,-3.0,-0.1,-0.0,0,0,39.53957,-122.332352,0.0,0.004,340.5,9,2,2.0,0,0.0,-1,0.0,,0.0,0
25501,1463871977964,,,,0,,,0.02,0.06,0.99,-3.0,-0.1,-0.0,0,0,39.53957,-122.332352,0.0,0.004,340.5,9,2,2.0,0,0.0,-1,0.0,,0.0,0
25521,1463871977980,,,,,,,0.02,0.06,0.99,-3.1,-0.1,-0.0,0,0,39.53957,-122.332352,0.0,0.004,340.5,9,2,2.0,0,0.0,-1,0.0,,0.0,0
25541,1463871978003,,,,,,,0.02,0.07,0.99,-3.0,-0.1,-0.0,0,0,39.53957,-122.332352,0.0,0.004,340.5,9,2,2.0,0,0.0,-1,0.0,,0.0,0
25561,1463871978024,,,,,,,0.02,0.07,0.99,-3.0,-0.1,-0.0,0,0,39.53957,-122.332352,0.0,0.004,340.5,9,2,2.0,0,0.0,-1,0.0,,0.0,0
25581,1463871978043,,,,,,,0.02,0.07,0.99,-3.1,-0.1,-0.0,0,0,39.53957,-122.332352,0.0,0.004,340.5,9,2,2.0,0,0.0,-1,0.0,,0.0,0
25601,1463871978064,0.001,55,53,0,54,,0.02,0.07,0.99,-3.0,-0.1,-0.0,0,0,39.53957,-122.332352,0.0,0.004,340.5,9,2,2.0,0,0.0,-1,0.0,0.0,0.0,0
25621,1463871978083,,,,,,,0.02,0.07,0.99,-3.0,-0.1,-0.0,0,0,39.53957,-122.332352,0.0,0.004,340.5,9,2,2.0,0,0.0,-1,0.0,,0.0,0
25641,1463871978101,,,,,,,0.02,0.07,0.99,-3.0,-0.1,-0.0,0,0,39.53957,-122.332352,0.0,0.004,340.5,9,2,2.0,0,0.0,-1,0.0,,0.0,0
25661,1463871978124,,,,,,,0.02,0.07,0.99,-3.0,-0.1,-0.0,0,0,39.53957,-122.332352,0.0,0.004,340.5,9,2,2.0,0,0.0,-1,0.0,,0.0,0
25681,1463871978144,,,,,,,0.02,0.07,0.99,-3.0,-0.1,-0.0,0,0,39.53957,-122.332352,0.0,0.004,340.5,9,2,2.0,0,0.0,-1,0.0,,0.0,0
25701,1463871978163,,,,0,,,0.02,0.07,0.99,-3.0,-0.1,-0.0,0,0,39.53957,-122.332352,0.0,0.004,340.5,9,2,2.0,0,0.0,-1,0.0,,0.0,0
25721,1463871978183,,,,,,,0.02,0.07,0.99,-3.0,-0.1,-0.0,0,0,39.53957,-122.332352,0.0,0.004,340.5,9,2,2.0,0,0.0,-1,0.0,,0.0,0
25741,1463871978203,,,,,,,0.02,0.07,0.99,-3.1,-0.1,-0.0,0,0,39.53957,-122.332352,0.0,0.004,340.5,9,2,2.0,0,0.0,-1,0.0,,0.0,0
25761,1463871978223,,,,,,,0.02,0.07,0.99,-3.1,-0.1,-0.0,0,0,39.53957,-122.332352,0.0,0.004,340.5,9,2,2.0,0,0.0,-1,0.0,,0.0,0
25781,1463871978243,,,,,,,0.02,0.07,0.99,-3.1,-0.1,-0.0,0,0,39.53957,-122.332352,0.0,0.004,340.5,9,2,2.0,0,0.0,-1,0.0,,0.0,0
25801,1463871978263,0.0,55,53,0,56,,0.02,0.07,0.99,-3.0,-0.1,-0.0,0,0,39.53957,-122.332352,0.0,0.004,340.5,9,2,2.0,0,0.0,-1,0.0,0.0,0.0,0
25821,1463871978283,,,,,,,0.02,0.07,1.0,-3.0,-0.1,-0.0,0,0,39.53957,-122.332352,0.0,0.004,340.5,9,2,2.0,0,0.0,-1,0.0,,0.0,0
25841,1463871978303,,,,,,,0.02,0.07,0.99,-3.0,-0.1,-0.0,0,0,39.53957,-122.332352,0.0,0.004,340.5,9,2,2.0,0,0.0,-1,0.0,,0.0,0
25861,1463871978324,,,,,,,0.02,0.07,0.99,-3.0,-0.1,-0.0,0,0,39.53957,-122.332352,0.0,0.004,340.5,9,2,2.0,0,0.0,-1,0.0,,0.0,0
25881,1463871978344,,,,,,,0.02,0.07,0.99,-3.0,-0.1,-0.0,0,0,39.53957,-122.332352,0.0,0.004,340.5,9,2,2.0,0,0.0,-1,0.0,,0.0,0
25901,1463871978363,,,,0,,,0.02,0.07,0.99,-3.0,-0.1,-0.0,0,0,39.53957,-122.332352,0.0,0.004,340.5,9,2,2.0,0,0.0,-1,0.0,,0.0,0
25921,1463871978383,,,,,,,0.02,0.07,0.99,-3.0,-0.1,-0.0,0,0,39.53957,-122.332352,0.0,0.004,340.5,9,2,2.0,0,0.0,-1,0.0,,0.0,0
25941,1463871978403,,,,,,,0.02,0.07,0.99,-3.0,-0.1,-0.0,0,0,39.53957,-122.332352,0.0,0.004,340.5,9,2,2.0,0,0.0,-1,0.0,,0.0,0
25961,1463871978423,,,,,,,0.02,0.07,0.99,-3.0,-0.1,-0.0,0,0,39.53957,-122.332352,0.0,0.004,340.5,9,2,2.0,0,0.0,-1,0.0,,0.0,0
25981,1463871978443,,,,,,,0.02,0.07,0.99,-3.0,-0.1,-0.0,0,0,39.53957,-122.332352,0.0,0.004,340.5,9,2,2.0,0,0.0,-1,0.0,,0.0,0
26001,1463871978463,0.0,53,54,0,56,12.7,0.02,0.07,0.99,-3.0,-0.1,-0.0,0,0,39.53957,-122.332352,0.0,0.004,340.5,9,2,2.0,0,0.0,-1,0.0,0.0,0.0,0
26021,1463871978483,,,,,,,0.02,0.06,0.99,-3.0,-0.1,-0.0,0,0,39.53957,-122.332352,0.0,0.004,340.5,9,2,2.0,0,0.0,-1,0.0,,0.0,0
26041,1463871978503,,,,,,,0.02,0.07,0.99,-3.0,-0.1,-0.0,0,0,39.53957,-122.332352,0.0,0.004,340.5,9,2,2.0,0,0.0,-1,0.0,,0.0,0
26061,1463871978523,,,,,,,0.02,0.07,0.99,-3.0,-0.1,-0.0,0,0,39.53957,-122.332352,0.0,0.004,340.5,9,2,2.0,0,0.0,-1,0.0,,0.0,0
26081,1463871978543,,,,,,,0.02,0.07,0.99,-3.0,-0.1,-0.0,0,0,39.53957,-122.332352,0.0,0.004,340.5,9,2,2.0,0,0.0,-1,0.0,,0.0,0
26101,1463871978563,,,,0,,,0.02,0.07,0.99,-3.0,-0.1,-0.0,0,0,39.53957,-122.332352,0.0,0.004,340.5,9,2,2.0,0,0.0,-1,0.0,,0.0,0
26121,1463871978583,,,,,,,0.02,0.07,0.99,-3.0,-0.1,-0.0,0,0,39.53957,-122.332352,0.0,0.004,340.5,9,2,2.0,0,0.0,-1,0.0,,0.0,0
26141,1463871978604,,,,,,,0.02,0.07,0.99,-3.0,-0.1,-0.0,0,0,39.53957,-122.332352,0.0,0.004,340.5,9,2,2.0,0,0.0,-1,0.0,,0.0,0
26161,1463871978623,,,,,,,0.02,0.07,0.99,-3.0,-0.1,-0.0,0,0,39.53957,-122.332352,0.0,0.004,340.5,9,2,2.0,0,0.0,-1,0.0,,0.0,0
26181,1463871978644,,,,,,,0.02,0.07,0.99,-3.0,-0.1,-0.0,0,0,39.53957,-122.332352,0.0,0.004,340.5,9,2,2.0,0,0.0,-1,0.0,,0.0,0
26201,1463871978664,0.001,55,52,0,55,,0.02,0.07,0.99,-3.0,-0.1,-0.0,0,0,39.53957,-122.332352,0.0,0.004,340.5,9,2,2.0,0,0.0,-1,0.0,0.0,0.0,0
26221,1463871978683,,,,,,,0.02,0.07,0.99,-3.0,-0.1,-0.0,0,0,39.53957,-122.332352,0.0,0.004,340.5,9,2,2.0,0,0.0,-1,0.0,,0.0,0
26241,1463871978704,,,,,,,0.02,0.07,0.99,-3.0,-0.1,-0.0,0,0,39.53957,-122.332352,0.0,0.004,340.5,9,2,2.0,0,0.0,-1,0.0,,0.0,0
26261,1463871978724,,,,,,,0.02,0.07,0.99,-3.1,-0.1,-0.0,0,0,39.53957,-122.332352,0.0,0.004,340.5,9,2,2.0,0,0.0,-1,0.0,,0.0,0
26281,1463871978744,,,,,,,0.02,0.07,1.0,-3.1,-0.1,-0.0,0,0,39.53957,-122.332352,0.0,0.004,340.5,9,2,2.0,0,0.0,-1,0.0,,0.0,0
26301,1463871978764,,,,0,,,0.02,0.07,0.99,-3.1,-0.1,-0.0,0,0,39.53957,-122.332352,0.0,0.004,340.5,9,2,2.0,0,0.0,-1,0.0,,0.0,0
26321,1463871978783,,,,,,,0.02,0.07,1.0,-3.0,-0.1,-0.0,0,0,39.53957,-122.332352,0.0,0.004,340.5,9,2,2.0,0,0.0,-1,0.0,,0.0,0
26341,1463871978804,,,,,,,0.02,0.07,1.0,-3.0,-0.1,-0.0,0,0,39.53957,-122.332352,0.0,0.004,340.5,9,2,2.0,0,0.0,-1,0.0,,0.0,0
26361,1463871978824,,,,,,,0.02,0.07,1.0,-3.1,-0.1,-0.0,0,0,39.53957,-122.332352,0.0,0.004,340.5,9,2,2.0,0,0.0,-1,0.0,,0.0,0
26381,1463871978843,,,,,,,0.02,0.06,1.0,-3.1,-0.1,-0.0,0,0,39.53957,-122.332352,0.0,0.004,340.5,9,2,2.0,0,0.0,-1,0.0,,0.0,0
26401,1463871978863,0.0,55,53,0,54,,0.02,0.06,1.0,-3.1,-0.1,-0.0,0,0,39.53957,-122.332352,0.0,0.004,340.5,9,2,2.0,0,0.0,-1,0.0,0.0,0.0,0
26421,1463871978882,,,,,,,0.02,0.06,0.99,-3.0,-0.1,-0.0,0,0,39.53957,-122.332352,0.0,0.004,340.5,9,2,2.0,0,0.0,-1,0.0,,0.0,0
26441,1463871978903,,,,,,,0.02,0.06,1.0,-3.0,-0.1,-0.0,0,0,39.53957,-122.332352,0.0,0.004,340.5,9,2,2.0,0,0.0,-1,0.0,,0.0,0
26461,1463871978924,,,,,,,0.02,0.06,0.99,-3.0,-0.1,-0.0,0,0,39.53957,-122.332352,0.0,0.004,340.5,9,2,2.0,0,0.0,-1,0.0,,0.0,0
26481,1463871978943,,,,,,,0.02,0.06,1.0,-3.1,-0.1,-0.0,0,0,39.53957,-122.332352,0.0,0.004,340.5,9,2,2.0,0,0.0,-1,0.0,,0.0,0
26501,1463871978963,,,,0,,,0.02,0.07,1.0,-3.1,-0.1,-0.0,0,0,39.53957,-122.332352,0.0,0.004,340.5,9,2,2.0,0,0.0,-1,0.0,,0.0,0
26521,1463871978979,,,,,,,0.02,0.07,1.0,-3.1,-0.1,-0.0,0,0,39.53957,-122.332352,0.0,0.004,340.5,9,2,2.0,0,0.0,-1,0.0,,0.0,0
26541,1463871979004,,,,,,,0.02,0.07,1.0,-3.1,-0.1,-0.0,0,0,39.53957,-122.332352,0.0,0.004,340.5,9,2,2.0,0,0.0,-1,0.0,,0.0,0
26561,1463871979024,,,,,,,0.02,0.07,1.0,-3.1,-0.1,-0.0,0,0,39.53957,-122.332352,0.0,0.004,340.5,9,2,2.0,0,0.0,-1,0.0,,0.0,0
26581,1463871979044,,,,,,,0.02,0.07,1.0,-3.1,-0.1,-0.0,0,0,39.53957,-122.332352,0.0,0.004,340.5,9,2,2.0,0,0.0,-1,0.0,,0.0,0
26601,1463871979062,0.0,56,51,0,56,,0.02,0.07,1.0,-3.1,-0.1,-0.0,0,0,39.53957,-122.332352,0.0,0.004,340.5,9,2,2.0,0,0.0,-1,0.0,0.0,0.0,0
26621,1463871979083,,,,,,,0.02,0.07,1.0,-3.1,-0.1,-0.0,0,0,39.53957,-122.332352,0.0,0.004,340.5,9,2,2.0,0,0.0,-1,0.0,,0.0,0
26641,1463871979104,,,,,,,0.02,0.07,1.0,-3.1,-0.1,-0.0,0,0,39.53957,-122.332352,0.0,0.004,340.5,9,2,2.0,0,0.0,-1,0.0,,0.0,0
26661,1463871979124,,,,,,,0.02,0.06,0.99,-3.1,-0.1,-0.0,0,0,39.53957,-122.332352,0.0,0.004,340.5,9,2,2.0,0,0.0,-1,0.0,,0.0,0
26681,1463871979144,,,,,,,0.02,0.06,0.99,-3.1,-0.1,-0.0,0,0,39.53957,-122.332352,0.0,0.004,340.5,9,2,2.0,0,0.0,-1,0.0,,0.0,0
26701,1463871979163,,,,0,,,0.02,0.07,0.99,-3.1,-0.1,-0.0,0,0,39.53957,-122.332352,0.0,0.004,340.5,9,2,2.0,0,0.0,-1,0.0,,0.0,0
26721,1463871979183,,,,,,,0.02,0.07,0.99,-3.1,-0.1,-0.0,0,0,39.53957,-122.332352,0.0,0.004,340.5,9,2,2.0,0,0.0,-1,0.0,,0.0,0
26741,1463871979203,,,,,,,0.02,0.07,1.0,-3.1,-0.1,-0.0,0,0,39.53957,-122.332352,0.0,0.004,340.5,9,2,2.0,0,0.0,-1,0.0,,0.0,0
26761,1463871979224,,,,,,,0.02,0.07,1.0,-3.1,-0.1,-0.0,0,0,39.53957,-122.332352,0.0,0.004,340.5,9,2,2.0,0,0.0,-1,0.0,,0.0,0
26781,1463871979244,,,,,,,0.02,0.07,1.0,-3.1,-0.1,-0.0,0,0,39.53957,-122.332352,0.0,0.004,340.5,9,2,2.0,0,0.0,-1,0.0,,0.0,0
26801,1463871979264,0.001,55,52,0,55,,0.02,0.07,1.0,-3.1,-0.1,-0.0,0,0,39.53957,-122.332352,0.0,0.004,340.5,9,2,2.0,0,0.0,-1,0.0,0.0,0.0,0
26821,1463871979283,,,,,,,0.02,0.07,0.99,-3.1,-0.1,0.0,0,0,39.53957,-122.332352,0.0,0.004,340.5,9,2,2.0,0,0.0,-1,0.0,,0.0,0
26841,1463871979304,,,,,,,0.02,0.07,0.99,-3.1,-0.1,-0.0,0,0,39.53957,-122.332352,0.0,0.004,340.5,9,2,2.0,0,0.0,-1,0.0,,0.0,0
26861,1463871979323,,,,,,,0.02,0.07,0.99,-3.1,-0.1,-0.0,0,0,39.53957,-122.332352,0.0,0.004,340.5,9,2,2.0,0,0.0,-1,0.0,,0.0,0
26881,1463871979344,,,,,,,0.02,0.07,0.99,-3.1,-0.1,-0.0,0,0,39.53957,-122.332352,0.0,0.004,340.5,9,2,2.0,0,0.0,-1,0.0,,0.0,0
26901,1463871979364,,,,0,,,0.02,0.07,0.99,-3.1,-0.1,-0.0,0,0,39.53957,-122.332352,0.0,0.004,340.5,9,2,2.0,0,0.0,-1,0.0,,0.0,0
26921,1463871979383,,,,,,,0.02,0.07,0.99,-3.1,-0.1,-0.0,0,0,39.53957,-122.332352,0.0,0.004,340.5,9,2,2.0,0,0.0,-1,0.0,,0.0,0
26941,1463871979404,,,,,,,0.02,0.07,0.99,-3.1,-0.1,-0.0,0,0,39.53957,-122.332352,0.0,0.004,340.5,9,2,2.0,0,0.0,-1,0.0,,0.0,0
26961,1463871979423,,,,,,,0.02,0.07,0.99,-3.1,-0.1,-0.0,0,0,39.53957,-122.332352,0.0,0.004,340.5,9,2,2.0,0,0.0,-1,0.0,,0.0,0
26981,1463871979443,,,,,,,0.02,0.07,0.99,-3.1,-0.1,-0.0,0,0,39.53957,-122.332352,0.0,0.004,340.5,9,2,2.0,0,0.0,-1,0.0,,0.0,0
27001,1463871979464,0.0,55,52,0,55,12.77,0.02,0.07,1.0,-3.1,-0.1,-0.0,0,0,39.53957,-122.332352,0.0,0.004,340.5,9,2,2.0,0,0.0,-1,0.0,0.0,0.0,0
27021,1463871979483,,,,,,,0.02,0.07,1.0,-3.1,-0.1,-0.0,0,0,39.53957,-122.332352,0.0,0.004,340.5,9,2,2.0,0,0.0,-1,0.0,,0.0,0
27041,1463871979504,,,,,,,0.02,0.07,0.99,-3.1,-0.1,-0.0,0,0,39.53957,-122.332352,0.0,0.004,340.5,9,2,2.0,0,0.0,-1,0.0,,0.0,0
27061,1463871979523,,,,,,,0.02,0.07,0.99,-3.1,-0.1,-0.0,0,0,39.53957,-122.332352,0.0,0.004,340.5,9,2,2.0,0,0.0,-1,0.0,,0.0,0
27081,1463871979544,,,,,,,0.02,0.07,0.99,-3.1,-0.1,-0.0,0,0,39.53957,-122.332352,0.0,0.004,340.5,9,2,2.0,0,0.0,-1,0.0,,0.0,0
27101,1463871979563,,,,0,,,0.02,0.07,0.99,-3.1,-0.1,-0.0,0,0,39.53957,-122.332352,0.0,0.004,340.5,9,2,2.0,0,0.0,-1,0.0,,0.0,0
27121,1463871979583,,,,,,,0.02,0.07,0.99,-3.1,-0.1,-0.0,0,0,39.53957,-122.332352,0.0,0.004,340.5,9,2,2.0,0,0.0,-1,0.0,,0.0,0
27141,1463871979603,,,,,,,0.02,0.07,0.99,-3.1,-0.1,-0.0,0,0,39.53957,-122.332352,0.0,0.004,340.5,9,2,2.0,0,0.0,-1,0.0,,0.0,0
27161,1463871979624,,,,,,,0.02,0.07,0.99,-3.1,-0.1,-0.0,0,0,39.53957,-122.332352,0.0,0.004,340.5,9,2,2.0,0,0.0,-1,0.0,,0.0,0
27181,1463871979643,,,,,,,0.02,0.07,1.0,-3.1,-0.1,-0.0,0,0,39.53957,-122.332352,0.0,0.004,340.5,9,2,2.0,0,0.0,-1,0.0,,0.0,0
27201,1463871979664,0.001,55,52,0,55,,0.02,0.07,1.0,-3.1,-0.1,-0.0,0,0,39.53957,-122.332352,0.0,0.004,340.5,9,2,2.0,0,0.0,-1,0.0,0.0,0.0,0
27221,1463871979683,,,,,,,0.02,0.07,1.0,-3.1,-0.0,-0.0,0,0,39.53957,-122.332352,0.0,0.004,340.5,9,2,2.0,0,0.0,-1,0.0,,0.0,0
27241,1463871979703,,,,,,,0.02,0.07,1.0,-3.1,-0.0,-0.0,0,0,39.53957,-122.332352,0.0,0.004,340.5,9,2,2.0,0,0.0,-1,0.0,,0.0,0
27261,1463871979724,,,,,,,0.02,0.07,0.99,-3.1,-0.1,0.0,0,0,39.53957,-122.332352,0.0,0.004,340.5,9,2,2.0,0,0.0,-1,0.0,,0.0,0
27281,1463871979743,,,,,,,0.02,0.07,1.0,-3.1,-0.1,-0.0,0,0,39.53957,-122.332352,0.0,0.004,340.5,9,2,2.0,0,0.0,-1,0.0,,0.0,0
27301,1463871979763,,,,0,,,0.02,0.07,1.0,-3.1,-0.1,-0.0,0,0,39.53957,-122.332352,0.0,0.004,340.5,9,2,2.0,0,0.0,-1,0.0,,0.0,0
27321,1463871979782,,,,,,,0.02,0.07,0.99,-3.0,-0.1,-0.0,0,0,39.53957,-122.332352,0.0,0.004,340.5,9,2,2.0,0,0.0,-1,0.0,,0.0,0
27341,1463871979803,,,,,,,0.02,0.07,1.0,-3.0,-0.1,-0.0,0,0,39.53957,-122.332352,0.0,0.004,340.5,9,2,2.0,0,0.0,-1,0.0,,0.0,0
27361,1463871979823,,,,,,,0.02,0.07,0.99,-3.0,-0.1,-0.0,0,0,39.53957,-122.332352,0.0,0.004,340.5,9,2,2.0,0,0.0,-1,0.0,,0.0,0
27381,1463871979843,,,,,,,0.02,0.07,0.99,-3.0,-0.1,-0.0,0,0,39.53957,-122.332352,0.0,0.004,340.5,9,2,2.0,0,0.0,-1,0.0,,0.0,0
27401,1463871979863,0.001,55,54,0,55,,0.02,0.07,0.99,-3.0,-0.1,-0.0,0,0,39.53957,-122.332352,0.0,0.004,340.5,9,2,2.0,0,0.0,-1,0.0,0.0,0.0,0
27421,1463871979883,,,,,,,0.02,0.07,0.99,-3.1,-0.1,0.0,0,0,39.53957,-122.332352,0.0,0.004,340.5,9,2,2.0,0,0.0,-1,0.0,,0.0,0
27441,1463871979904,,,,,,,0.02,0.07,0.99,-3.1,-0.1,0.0,0,0,39.53957,-122.332352,0.0,0.004,340.5,9,2,2.0,0,0.0,-1,0.0,,0.0,0
27461,1463871979922,,,,,,,0.02,0.07,1.0,-3.1,-0.1,0.0,0,0,39.53957,-122.332352,0.0,0.004,340.5,9,2,2.0,0,0.0,-1,0.0,,0.0,0
27481,1463871979943,,,,,,,0.02,0.07,1.0,-3.1,-0.1,0.0,0,0,39.53957,-122.332352,0.0,0.004,340.5,9,2,2.0,0,0.0,-1,0.0,,0.0,0
27501,1463871979964,,,,0,,,0.02,0.07,1.0,-3.1,-0.1,0.0,0,0,39.53957,-122.332352,0.0,0.004,340.5,9,2,2.0,0,0.0,-1,0.0,,0.0,0
27521,1463871979980,,,,,,,0.02,0.07,1.0,-3.1,-0.1,0.0,0,0,39.53957,-122.332352,0.0,0.004,340.5,9,2,2.0,0,0.0,-1,0.0,,0.0,0
27541,1463871980004,,,,,,,0.02,0.07,1.0,-3.1,-0.1,0.0,0,0,39.53957,-122.332352,0.0,0.004,340.5,9,2,2.0,0,0.0,-1,0.0,,0.0,0
27561,1463871980022,,,,,,,0.02,0.07,1.0,-3.1,-0.1,0.0,0,0,39.53957,-122.332352,0.0,0.004,340.5,9,2,2.0,0,0.0,-1,0.0,,0.0,0
27581,1463871980044,,,,,,,0.02,0.07,1.0,-3.1,-0.1,0.0,0,0,39.53957,-122.332352,0.0,0.004,340.5,9,2,2.0,0,0.0,-1,0.0,,0.0,0
27601,1463871980064,0.001,55,54,0,56,,0.02,0.07,1.0,-3.1,-0.1,0.0,0,0,39.53957,-122.332352,0.0,0.004,340.5,9,2,2.0,0,0.0,-1,0.0,0.0,0.0,0
27621,1463871980083,,,,,,,0.02,0.07,1.0,-3.1,-0.1,0.0,0,0,39.53957,-122.332352,0.0,0.004,340.5,9,2,2.0,0,0.0,-1,0.0,,0.0,0
27641,1463871980104,,,,,,,0.02,0.07,1.0,-3.1,-0.1,-0.0,0,0,39.53957,-122.332352,0.0,0.004,340.5,9,2,2.0,0,0.0,-1,0.0,,0.0,0
27661,1463871980124,,,,,,,0.02,0.06,0.99,-3.1,-0.1,-0.0,0,0,39.53957,-122.332352,0.0,0.004,340.5,9,2,2.0,0,0.0,-1,0.0,,0.0,0
27681,1463871980144,,,,,,,0.02,0.06,1.0,-3.1,-0.1,-0.0,0,0,39.53957,-122.332352,0.0,0.004,340.5,9,2,2.0,0,0.0,-1,0.0,,0.0,0
27701,1463871980163,,,,0,,,0.02,0.06,0.99,-3.1,-0.1,-0.0,0,0,39.53957,-122.332352,0.0,0.004,340.5,9,2,2.0,0,0.0,-1,0.0,,0.0,0
27721,1463871980183,,,,,,,0.02,0.06,0.99,-3.0,-0.1,-0.0,0,0,39.53957,-122.332352,0.0,0.004,340.5,9,2,2.0,0,0.0,-1,0.0,,0.0,0
27741,1463871980204,,,,,,,0.02,0.06,0.99,-3.0,-0.1,-0.0,0,0,39.53957,-122.332352,0.0,0.004,340.5,9,2,2.0,0,0.0,-1,0.0,,0.0,0
27761,1463871980224,,,,,,,0.02,0.06,1.0,-3.0,-0.1,-0.0,0,0,39.53957,-122.332352,0.0,0.004,340.5,9,2,2.0,0,0.0,-1,0.0,,0.0,0
27781,1463871980243,,,,,,,0.02,0.06,1.0,-3.0,-0.1,-0.0,0,0,39.53957,-122.332352,0.0,0.004,340.5,9,2,2.0,0,0.0,-1,0.0,,0.0,0
27801,1463871980262,0.001,55,54,0,56,,0.02,0.06,1.0,-3.0,-0.1,-0.0,0,0,39.53957,-122.332352,0.0,0.004,340.5,9,2,2.0,0,0.0,-1,0.0,0.0,0.0,0
27821,1463871980282,,,,,,,0.02,0.06,1.0,-3.0,-0.1,-0.0,0,0,39.53957,-122.332352,0.0,0.004,340.5,9,2,2.0,0,0.0,-1,0.0,,0.0,0
27841,1463871980303,,,,,,,0.02,0.07,1.0,-3.0,-0.1,-0.0,0,0,39.53957,-122.332352,0.0,0.004,340.5,9,2,2.0,0,0.0,-1,0.0,,0.0,0
27861,1463871980324,,,,,,,0.02,0.07,1.0,-3.0,-0.1,-0.0,0,0,39.53957,-122.332352,0.0,0.004,340.5,9,2,2.0,0,0.0,-1,0.0,,0.0,0
27881,1463871980344,,,,,,,0.02,0.07,1.0,-3.0,-0.1,-0.0,0,0,39.53957,-122.332352,0.0,0.004,340.5,9,2,2.0,0,0.0,-1,0.0,,0.0,0
27901,1463871980364,,,,0,,,0.02,0.07,1.0,-3.0,-0.1,-0.0,0,0,39.53957,-122.332352,0.0,0.004,340.5,9,2,2.0,0,0.0,-1,0.0,,0.0,0
27921,1463871980383,,,,,,,0.02,0.06,1.0,-3.0,-0.1,-0.0,0,0,39.53957,-122.332352,0.0,0.004,340.5,9,2,2.0,0,0.0,-1,0.0,,0.0,0
27941,1463871980404,,,,,,,0.02,0.06,1.0,-3.0,-0.1,0.0,0,0,39.53957,-122.332352,0.0,0.004,340.5,9,2,2.0,0,0.0,-1,0.0,,0.0,0
27961,1463871980424,,,,,,,0.02,0.06,1.0,-3.0,-0.1,-0.0,0,0,39.53957,-122.332352,0.0,0.004,340.5,9,2,2.0,0,0.0,-1,0.0,,0.0,0
27981,1463871980444,,,,,,,0.02,0.06,1.0,-3.0,-0.1,-0.0,0,0,39.53957,-122.332352,0.0,0.004,340.5,9,2,2.0,0,0.0,-1,0.0,,0.0,0
28001,1463871980464,0.001,55,52,0,56,12.77,0.02,0.06,1.0,-3.0,-0.1,-0.0,0,0,39.53957,-122.332352,0.0,0.004,340.5,9,2,2.0,0,0.0,-1,0.0,0.0,0.0,0
28021,1463871980483,,,,,,,0.02,0.06,1.0,-3.0,-0.1,-0.0,0,0,39.53957,-122.332352,0.0,0.004,340.5,9,2,2.0,0,0.0,-1,0.0,,0.0,0
28041,1463871980504,,,,,,,0.02,0.07,1.0,-3.0,-0.1,-0.0,0,0,39.53957,-122.332352,0.0,0.004,340.5,9,2,2.0,0,0.0,-1,0.0,,0.0,0
28061,1463871980524,,,,,,,0.02,0.07,1.0,-3.0,-0.1,-0.0,0,0,39.53957,-122.332352,0.0,0.004,340.5,9,2,2.0,0,0.0,-1,0.0,,0.0,0
28081,1463871980544,,,,,,,0.02,0.07,0.99,-3.0,-0.1,-0.0,0,0,39.53957,-122.332352,0.0,0.004,340.5,9,2,2.0,0,0.0,-1,0.0,,0.0,0
28101,1463871980564,,,,0,,,0.02,0.07,1.0,-3.0,-0.1,-0.0,0,0,39.53957,-122.332352,0.0,0.004,340.5,9,2,2.0,0,0.0,-1,0.0,,0.0,0
28121,1463871980583,,,,,,,0.02,0.07,1.0,-3.0,-0.1,-0.0,0,0,39.53957,-122.332352,0.0,0.004,340.5,9,2,2.0,0,0.0,-1,0.0,,0.0,0
28141,1463871980604,,,,,,,0.02,0.07,1.0,-3.0,-0.1,-0.0,0,0,39.53957,-122.332352,0.0,0.004,340.5,9,2,2.0,0,0.0,-1,0.0,,0.0,0
28161,1463871980624,,,,,,,0.02,0.07,0.99,-3.0,-0.1,-0.0,0,0,39.53957,-122.332352,0.0,0.004,340.5,9,2,2.0,0,0.0,-1,0.0,,0.0,0
28181,1463871980644,,,,,,,0.02,0.07,0.99,-3.0,-0.1,-0.0,0,0,39.53957,-122.332352,0.0,0.004,340.5,9,2,2.0,0,0.0,-1,0.0,,0.0,0
28201,1463871980664,0.001,55,54,0,56,,0.02,0.06,0.99,-3.0,-0.1,-0.0,0,0,39.53957,-122.332352,0.0,0.004,340.5,9,2,2.0,0,0.0,-1,0.0,0.0,0.0,0
28221,1463871980683,,,,,,,0.02,0.07,0.99,-3.1,-0.1,-0.0,0,0,39.53957,-122.332352,0.0,0.004,340.5,9,2,2.0,0,0.0,-1,0.0,,0.0,0
28241,1463871980703,,,,,,,0.02,0.07,0.99,-3.0,-0.1,-0.0,0,0,39.53957,-122.332352,0.0,0.004,340.5,9,2,2.0,0,0.0,-1,0.0,,0.0,0
28261,1463871980724,,,,,,,0.02,0.07,0.99,-3.0,-0.1,-0.0,0,0,39.53957,-122.332352,0.0,0.004,340.5,9,2,2.0,0,0.0,-1,0.0,,0.0,0
28281,1463871980744,,,,,,,0.02,0.07,1.0,-3.0,-0.1,-0.0,0,0,39.53957,-122.332352,0.0,0.004,340.5,9,2,2.0,0,0.0,-1,0.0,,0.0,0
28301,1463871980764,,,,0,,,0.02,0.07,1.0,-3.0,-0.1,-0.0,0,0,39.53957,-122.332352,0.0,0.004,340.5,9,2,2.0,0,0.0,-1,0.0,,0.0,0
28321,1463871980783,,,,,,,0.02,0.06,1.0,-3.0,-0.1,-0.0,0,0,39.53957,-122.332352,0.0,0.004,340.5,9,2,2.0,0,0.0,-1,0.0,,0.0,0
28341,1463871980804,,,,,,,0.02,0.06,1.0,-3.0,-0.1,-0.1,0,0,39.53957,-122.332352,0.0,0.004,340.5,9,2,2.0,0,0.0,-1,0.0,,0.0,0
28361,1463871980824,,,,,,,0.02,0.06,1.0,-3.0,-0.1,-0.0,0,0,39.53957,-122.332352,0.0,0.004,340.5,9,2,2.0,0,0.0,-1,0.0,,0.0,0
28381,1463871980844,,,,,,,0.02,0.07,1.0,-3.0,-0.1,-0.0,0,0,39.53957,-122.332352,0.0,0.004,340.5,9,2,2.0,0,0.0,-1,0.0,,0.0,0
28401,1463871980864,0.001,53,55,0,54,,0.02,0.07,1.0,-3.0,-0.1,-0.0,0,0,39.53957,-122.332352,0.0,0.004,340.5,9,2,2.0,0,0.0,-1,0.0,0.0,0.0,0
28421,1463871980883,,,,,,,0.01,0.07,1.0,-3.0,-0.1,-0.0,0,0,39.53957,-122.332352,0.0,0.004,340.5,9,2,2.0,0,0.0,-1,0.0,,0.0,0
28441,1463871980903,,,,,,,0.01,0.07,1.0,-3.1,-0.1,-0.0,0,0,39.53957,-122.332352,0.0,0.004,340.5,9,2,2.0,0,0.0,-1,0.0,,0.0,0
28461,1463871980924,,,,,,,0.01,0.07,1.0,-3.0,-0.1,-0.0,0,0,39.53957,-122.332352,0.0,0.004,340.5,9,2,2.0,0,0.0,-1,0.0,,0.0,0
28481,1463871980944,,,,,,,0.01,0.07,1.0,-3.0,-0.1,-0.0,0,0,39.53957,-122.332352,0.0,0.004,340.5,9,2,2.0,0,0.0,-1,0.0,,0.0,0
28501,1463871980964,,,,0,,,0.01,0.07,1.0,-3.0,-0.1,-0.0,0,0,39.53957,-122.332352,0.0,0.004,340.5,9,2,2.0,0,0.0,-1,0.0,,0.0,0
28521,1463871980980,,,,,,,0.01,0.07,1.0,-3.0,-0.0,0.0,0,0,39.53957,-122.332352,0.0,0.004,340.5,9,2,2.0,0,0.0,-1,0.0,,0.0,0
28541,1463871981004,,,,,,,0.01,0.06,1.0,-3.0,-0.1,-0.0,0,0,39.53957,-122.332352,0.0,0.004,340.5,9,2,2.0,0,0.0,-1,0.0,,0.0,0
28561,1463871981024,,,,,,,0.01,0.06,1.0,-3.0,-0.1,-0.0,0,0,39.53957,-122.332352,0.0,0.004,340.5,9,2,2.0,0,0.0,-1,0.0,,0.0,0
28581,1463871981044,,,,,,,0.01,0.06,0.99,-3.0,-0.1,-0.0,0,0,39.53957,-122.332352,0.0,0.004,340.5,9,2,2.0,0,0.0,-1,0.0,,0.0,0
28601,1463871981063,0.001,56,54,0,55,,0.02,0.06,0.99,-3.0,-0.1,-0.0,0,0,39.53957,-122.332352,0.0,0.004,340.5,9,2,2.0,0,0.0,-1,0.0,0.0,0.0,0
28621,1463871981083,,,,,,,0.02,0.06,0.99,-3.0,-0.1,-0.0,0,0,39.53957,-122.332352,0.0,0.004,340.5,9,2,2.0,0,0.0,-1,0.0,,0.0,0
28641,1463871981104,,,,,,,0.01,0.06,1.0,-3.0,-0.1,-0.0,0,0,39.53957,-122.332352,0.0,0.004,340.5,9,2,2.0,0,0.0,-1,0.0,,0.0,0
28661,1463871981124,,,,,,,0.01,0.07,0.99,-3.0,-0.1,-0.0,0,0,39.53957,-122.332352,0.0,0.004,340.5,9,2,2.0,0,0.0,-1,0.0,,0.0,0
28681,1463871981144,,,,,,,0.02,0.07,0.99,-3.0,-0.1,-0.0,0,0,39.53957,-122.332352,0.0,0.004,340.5,9,2,2.0,0,0.0,-1,0.0,,0.0,0
28701,1463871981163,,,,0,,,0.02,0.07,0.99,-3.0,-0.1,-0.0,0,0,39.53957,-122.332352,0.0,0.004,340.5,9,2,2.0,0,0.0,-1,0.0,,0.0,0
28721,1463871981183,,,,,,,0.02,0.06,0.99,-3.0,-0.1,-0.0,0,0,39.53957,-122.332352,0.0,0.004,340.5,9,2,2.0,0,0.0,-1,0.0,,0.0,0
28741,1463871981204,,,,,,,0.02,0.07,0.99,-3.0,-0.1,-0.0,0,0,39.53957,-122.332352,0.0,0.004,340.5,9,2,2.0,0,0.0,-1,0.0,,0.0,0
28761,1463871981224,,,,,,,0.02,0.06,0.99,-3.0,-0.1,-0.0,0,0,39.53957,-122.332352,0.0,0.004,340.5,9,2,2.0,0,0.0,-1,0.0,,0.0,0
28781,1463871981244,,,,,,,0.02,0.06,0.99,-3.0,-0.1,0.0,0,0,39.53957,-122.332352,0.0,0.004,340.5,9,2,2.0,0,0.0,-1,0.0,,0.0,0
28801,1463871981264,0.001,55,53,0,55,,0.02,0.06,0.99,-3.0,-0.1,0.0,0,0,39.53957,-122.332352,0.0,0.004,340.5,9,2,2.0,0,0.0,-1,0.0,0.0,0.0,0
28821,1463871981283,,,,,,,0.02,0.06,0.99,-3.1,-0.1,-0.0,0,0,39.53957,-122.332352,0.0,0.004,340.5,9,2,2.0,0,0.0,-1,0.0,,0.0,0
28841,1463871981304,,,,,,,0.02,0.06,0.99,-3.1,-0.1,-0.0,0,0,39.53957,-122.332352,0.0,0.004,340.5,9,2,2.0,0,0.0,-1,0.0,,0.0,0
28861,1463871981324,,,,,,,0.02,0.06,0.99,-3.1,-0.1,0.0,0,0,39.53957,-122.332352,0.0,0.004,340.5,9,2,2.0,0,0.0,-1,0.0,,0.0,0
28881,1463871981343,,,,,,,0.02,0.06,0.99,-3.1,-0.1,0.0,0,0,39.53957,-122.332352,0.0,0.004,340.5,9,2,2.0,0,0.0,-1,0.0,,0.0,0
28901,1463871981363,,,,0,,,0.02,0.06,0.99,-3.0,-0.1,-0.0,0,0,39.53957,-122.332352,0.0,0.004,340.5,9,2,2.0,0,0.0,-1,0.0,,0.0,0
28921,1463871981382,,,,,,,0.02,0.06,0.99,-3.0,-0.1,-0.0,0,0,39.53957,-122.332352,0.0,0.004,340.5,9,2,2.0,0,0.0,-1,0.0,,0.0,0
28941,1463871981403,,,,,,,0.02,0.06,0.99,-3.0,-0.1,-0.0,0,0,39.53957,-122.332352,0.0,0.004,340.5,9,2,2.0,0,0.0,-1,0.0,,0.0,0
28961,1463871981423,,,,,,,0.02,0.06,0.99,-3.0,-0.1,-0.0,0,0,39.53957,-122.332352,0.0,0.004,340.5,9,2,2.0,0,0.0,-1,0.0,,0.0,0
28981,1463871981443,,,,,,,0.02,0.07,0.99,-3.0,-0.1,-0.0,0,0,39.53957,-122.332352,0.0,0.004,340.5,9,2,2.0,0,0.0,-1,0.0,,0.0,0
29001,1463871981464,0.001,54,55,0,54,12.69,0.02,0.06,0.99,-3.1,-0.1,-0.0,0,0,39.53957,-122.332352,0.0,0.004,340.5,9,2,2.0,0,0.0,-1,0.0,0.0,0.0,0
29021,1463871981482,,,,,,,0.02,0.06,0.99,-3.0,-0.1,-0.0,0,0,39.53957,-122.332352,0.0,0.004,340.5,9,2,2.0,0,0.0,-1,0.0,,0.0,0
29041,1463871981502,,,,,,,0.02,0.06,0.99,-3.0,-0.1,-0.0,0,0,39.53957,-122.332352,0.0,0.004,340.5,9,2,2.0,0,0.0,-1,0.0,,0.0,0
29061,1463871981523,,,,,,,0.02,0.06,0.99,-3.1,-0.1,-0.0,0,0,39.53957,-122.332352,0.0,0.004,340.5,9,2,2.0,0,0.0,-1,0.0,,0.0,0
29081,1463871981542,,,,,,,0.02,0.07,0.99,-3.1,-0.1,-0.0,0,0,39.53957,-122.332352,0.0,0.004,340.5,9,2,2.0,0,0.0,-1,0.0,,0.0,0
29101,1463871981562,,,,0,,,0.02,0.06,0.99,-3.0,-0.1,-0.0,0,0,39.53957,-122.332352,0.0,0.004,340.5,9,2,2.0,0,0.0,-1,0.0,,0.0,0
29121,1463871981582,,,,,,,0.02,0.06,0.99,-3.1,-0.1,-0.0,0,0,39.53957,-122.332352,1.11,0.004,333.9,9,2,2.0,0,0.0,-1,0.0,,0.0,0
29141,1463871981602,,,,,,,0.02,0.06,0.99,-3.1,-0.1,-0.0,0,0,39.53957,-122.332352,1.3,0.004,333.9,9,2,2.0,0,0.0,-1,0.0,,0.0,0
29161,1463871981621,,,,,,,0.02,0.06,0.99,-3.1,-0.1,-0.0,0,0,39.53957,-122.332352,2.26,0.004,333.9,9,2,2.0,0,0.0,-1,0.0,,0.0,0
29181,1463871981643,,,,,,,0.02,0.06,0.99,-3.1,-0.1,-0.0,0,0,39.53957,-122.332352,2.1,0.004,333.8,9,2,2.0,0,0.0,-1,0.0,,0.0,0
29201,1463871981663,0.0,56,53,0,55,,0.02,0.06,0.99,-3.0,-0.1,-0.0,0,0,39.53957,-122.332352,0.0,0.004,333.8,9,2,2.0,0,0.0,-1,0.0,0.0,0.0,0
29221,1463871981684,,,,,,,0.02,0.07,0.99,-3.0,-0.1,-0.0,0,0,39.53957,-122.332352,0.0,0.004,333.8,9,2,2.0,0,0.0,-1,0.0,,0.0,0
29241,1463871981703,,,,,,,0.02,0.07,0.99,-3.0,-0.1,0.0,0,0,39.53957,-122.332352,0.0,0.004,333.8,9,2,2.0,0,0.0,-1,0.0,,0.0,0
29261,1463871981724,,,,,,,0.02,0.07,0.99,-3.0,-0.1,0.0,0,0,39.53957,-122.332352,0.0,0.004,333.8,9,2,2.0,0,0.0,-1,0.0,,0.0,0
29281,1463871981744,,,,,,,0.02,0.07,0.99,-3.0,-0.1,0.0,0,0,39.53957,-122.332352,0.0,0.004,333.7,9,2,2.0,0,0.0,-1,0.0,,0.0,0
29301,1463871981764,,,,0,,,0.02,0.06,0.99,-3.0,-0.1,-0.0,0,0,39.53957,-122.332352,0.0,0.004,333.7,9,2,2.0,0,0.0,-1,0.0,,0.0,0
29321,1463871981783,,,,,,,0.02,0.06,0.99,-3.0,-0.1,-0.0,0,0,39.53957,-122.332352,0.0,0.004,333.7,9,2,2.0,0,0.0,-1,0.0,,0.0,0
29341,1463871981803,,,,,,,0.02,0.06,1.0,-3.0,-0.1,-0.0,0,0,39.53957,-122.332352,0.0,0.004,333.7,9,2,2.0,0,0.0,-1,0.0,,0.0,0
29361,1463871981823,,,,,,,0.02,0.06,0.99,-3.0,-0.1,-0.0,0,0,39.53957,-122.332352,0.0,0.004,333.6,9,2,2.0,0,0.0,-1,0.0,,0.0,0
29381,1463871981842,,,,,,,0.02,0.07,0.99,-3.0,-0.1,-0.0,0,0,39.53957,-122.332352,0.0,0.004,333.6,9,2,2.0,0,0.0,-1,0.0,,0.0,0
29401,1463871981863,0.001,55,52,0,54,,0.02,0.07,1.0,-3.0,-0.1,-0.0,0,0,39.53957,-122.332352,0.0,0.004,333.6,9,2,2.0,0,0.0,-1,0.0,0.0,0.0,0
29421,1463871981882,,,,,,,0.02,0.07,1.0,-3.0,-0.1,-0.0,0,0,39.53957,-122.332352,0.0,0.004,333.6,9,2,2.0,0,0.0,-1,0.0,,0.0,0
29441,1463871981903,,,,,,,0.02,0.07,1.0,-3.0,-0.1,-0.0,0,0,39.53957,-122.332352,0.0,0.004,333.6,9,2,2.0,0,0.0,-1,0.0,,0.0,0
29461,1463871981922,,,,,,,0.02,0.07,0.99,-3.0,-0.1,-0.0,0,0,39.53957,-122.332352,0.0,0.004,333.6,9,2,2.0,0,0.0,-1,0.0,,0.0,0
29481,1463871981941,,,,,,,0.02,0.07,0.99,-3.0,-0.1,-0.0,0,0,39.53957,-122.332352,0.0,0.004,333.6,9,2,2.0,0,0.0,-1,0.0,,0.0,0
29501,1463871981963,,,,0,,,0.02,0.07,0.99,-3.0,-0.0,-0.0,0,0,39.53957,-122.332352,0.0,0.004,333.6,9,2,2.0,0,0.0,-1,0.0,,0.0,0
29521,1463871981980,,,,,,,0.02,0.06,0.99,-3.0,-0.0,-0.0,0,0,39.53957,-122.332352,0.0,0.004,333.6,9,2,2.0,0,0.0,-1,0.0,,0.0,0
29541,1463871982003,,,,,,,0.02,0.07,0.99,-3.0,-0.0,-0.0,0,0,39.53957,-122.332352,0.0,0.004,333.6,9,2,2.0,0,0.0,-1,0.0,,0.0,0
29561,1463871982022,,,,,,,0.02,0.07,0.99,-3.0,-0.0,-0.0,0,0,39.53957,-122.332352,0.0,0.004,333.6,9,2,2.0,0,0.0,-1,0.0,,0.0,0
29581,1463871982041,,,,,,,0.02,0.06,0.99,-3.0,-0.0,-0.1,0,0,39.53957,-122.332352,0.0,0.004,333.6,9,2,2.0,0,0.0,-1,0.0,,0.0,0
29601,1463871982063,0.001,55,54,0,56,,0.02,0.06,0.99,-3.0,-0.0,-0.0,0,0,39.53957,-122.332352,0.0,0.004,333.6,9,2,2.0,0,0.0,-1,0.0,0.0,0.0,0
29621,1463871982082,,,,,,,0.02,0.06,0.99,-3.0,-0.1,-0.0,0,0,39.53957,-122.332352,0.0,0.004,333.6,9,2,2.0,0,0.0,-1,0.0,,0.0,0
29641,1463871982103,,,,,,,0.02,0.06,0.99,-3.0,-0.1,-0.0,0,0,39.53957,-122.332352,0.0,0.004,333.6,9,2,2.0,0,0.0,-1,0.0,,0.0,0
29661,1463871982123,,,,,,,0.02,0.06,1.0,-3.0,-0.1,-0.0,0,0,39.53957,-122.332352,0.0,0.004,333.6,9,2,2.0,0,0.0,-1,0.0,,0.0,0
29681,1463871982143,,,,,,,0.02,0.06,1.0,-3.0,-0.1,-0.0,0,0,39.53957,-122.332352,0.0,0.004,333.6,9,2,2.0,0,0.0,-1,0.0,,0.0,0
29701,1463871982163,,,,0,,,0.02,29701,1463871982163,,,,0,,,0.02,0.07,1.0,-3.0,-0.1,-0.0,0,0,39.53957,-122.332352,0.0,0.004,333.6,9,2,2.0,0,0.0,-1,0.0,,0.0,0
29721,1463871982191,,,,,,,0.02,0.07,1.0,-3.0,-0.1,-0.0,0,0,39.53957,-122.332352,0.0,0.004,333.6,9,2,2.0,0,0.0,-1,0.0,,0.0,0
29741,1463871982212,,,,,,,0.02,0.07,0.99,-3.0,-0.1,-0.0,0,0,39.53957,-122.332352,0.0,0.004,333.6,9,2,2.0,0,0.0,-1,0.0,,0.0,0
29761,1463871982232,,,,,,,0.02,0.07,0.99,-3.1,-0.1,-0.0,0,0,39.53957,-122.332352,0.0,0.004,333.6,9,2,2.0,0,0.0,-1,0.0,,0.0,0
29781,1463871982252,,,,,,,0.02,0.07,0.99,-3.1,-0.1,-0.0,0,0,39.53957,-122.332352,0.0,0.004,333.6,9,2,2.0,0,0.0,-1,0.0,,0.0,0
29801,1463871982272,0.003,54,54,0,55,,0.02,0.07,0.99,-3.1,-0.1,-0.0,0,0,39.53957,-122.332352,0.0,0.004,333.6,9,2,2.0,0,0.0,-1,0.0,0.0,0.0,0
29821,1463871982293,,,,,,,0.02,0.07,0.99,-3.1,-0.1,0.0,0,0,39.53957,-122.332352,0.0,0.004,333.6,9,2,2.0,0,0.0,-1,0.0,,0.0,0
29841,1463871982312,,,,,,,0.02,0.07,0.99,-3.0,-0.1,0.0,0,0,39.53957,-122.332352,0.0,0.004,333.6,9,2,2.0,0,0.0,-1,0.0,,0.0,0
29861,1463871982332,,,,,,,0.02,0.07,0.99,-3.0,-0.1,0.0,0,0,39.53957,-122.332352,0.0,0.004,333.6,9,2,2.0,0,0.0,-1,0.0,,0.0,0
29881,1463871982351,,,,,,,0.02,0.07,0.99,-3.0,-0.1,0.0,0,0,39.53957,-122.332352,0.0,0.004,333.6,9,2,2.0,0,0.0,-1,0.0,,0.0,0
29901,1463871982372,,,,0,,,0.02,0.07,0.99,-3.0,-0.1,0.0,0,0,39.53957,-122.332352,0.0,0.004,333.6,9,2,2.0,0,0.0,-1,0.0,,0.0,0
29921,1463871982392,,,,,,,0.02,0.07,0.99,-3.0,-0.1,0.0,0,0,39.53957,-122.332352,0.0,0.004,333.6,9,2,2.0,0,0.0,-1,0.0,,0.0,0
29941,1463871982412,,,,,,,0.02,0.06,0.99,-3.1,-0.1,-0.0,0,0,39.53957,-122.332352,0.0,0.004,333.6,9,2,2.0,0,0.0,-1,0.0,,0.0,0
29961,1463871982432,,,,,,,0.02,0.06,0.99,-3.1,-0.1,-0.0,0,0,39.53957,-122.332352,0.0,0.004,333.6,9,2,2.0,0,0.0,-1,0.0,,0.0,0
29981,1463871982452,,,,,,,0.02,0.06,0.99,-3.1,-0.1,0.0,0,0,39.53957,-122.332352,0.0,0.004,333.6,9,2,2.0,0,0.0,-1,0.0,,0.0,0
30001,1463871982472,0.001,55,54,0,55,12.76,0.02,0.07,0.99,-3.1,-0.1,-0.0,0,0,39.53957,-122.332352,0.0,0.004,333.6,9,2,2.0,0,0.0,-1,0.0,0.0,0.0,0
30021,1463871982492,,,,,,,0.02,0.07,0.99,-3.1,-0.1,-0.0,0,0,39.53957,-122.332352,0.0,0.004,333.6,9,2,2.0,0,0.0,-1,0.0,,0.0,0
30041,1463871982511,,,,,,,0.02,0.07,0.99,-3.1,-0.1,-0.0,0,0,39.53957,-122.332352,0.0,0.004,333.6,9,2,2.0,0,0.0,-1,0.0,,0.0,0
30061,1463871982531,,,,,,,0.02,0.07,0.99,-3.1,-0.1,-0.0,0,0,39.53957,-122.332352,0.0,0.004,333.6,9,2,2.0,0,0.0,-1,0.0,,0.0,0
30081,1463871982552,,,,,,,0.02,0.07,0.99,-3.1,-0.1,-0.0,0,0,39.53957,-122.332352,0.0,0.004,333.6,9,2,2.0,0,0.0,-1,0.0,,0.0,0
30101,1463871982572,,,,0,,,0.02,0.07,0.99,-3.1,-0.1,-0.0,0,0,39.53957,-122.332352,0.0,0.004,333.6,9,2,2.0,0,0.0,-1,0.0,,0.0,0
30121,1463871982592,,,,,,,0.02,0.07,0.99,-3.1,-0.1,-0.0,0,0,39.53957,-122.332352,0.0,0.004,333.6,9,2,2.0,0,0.0,-1,0.0,,0.0,0
30141,1463871982611,,,,,,,0.02,0.07,0.99,-3.1,-0.1,-0.0,0,0,39.53957,-122.332352,0.0,0.004,333.6,9,2,2.0,0,0.0,-1,0.0,,0.0,0
30161,1463871982631,,,,,,,0.02,0.07,0.99,-3.1,-0.1,-0.0,0,0,39.53957,-122.332352,0.0,0.004,333.6,9,2,2.0,0,0.0,-1,0.0,,0.0,0
30181,1463871982652,,,,,,,0.02,0.07,0.99,-3.1,-0.1,0.0,0,0,39.53957,-122.332352,0.0,0.004,333.6,9,2,2.0,0,0.0,-1,0.0,,0.0,0
30201,1463871982672,0.003,54,55,0,57,,0.02,0.07,0.99,-3.1,-0.1,0.0,0,0,39.53957,-122.332352,0.0,0.004,333.6,9,2,2.0,0,0.0,-1,0.0,0.0,0.0,0
30221,1463871982691,,,,,,,0.02,0.07,0.99,-3.1,-0.1,-0.0,0,0,39.53957,-122.332352,0.0,0.004,333.6,9,2,2.0,0,0.0,-1,0.0,,0.0,0
30241,1463871982712,,,,,,,0.02,0.07,0.99,-3.1,-0.1,0.0,0,0,39.53957,-122.332352,0.0,0.004,333.6,9,2,2.0,0,0.0,-1,0.0,,0.0,0
30261,1463871982732,,,,,,,0.02,0.07,0.99,-3.0,-0.1,0.0,0,0,39.53957,-122.332352,0.0,0.004,333.6,9,2,2.0,0,0.0,-1,0.0,,0.0,0
30281,1463871982752,,,,,,,0.02,0.07,0.99,-3.0,-0.1,-0.0,0,0,39.53957,-122.332352,0.0,0.004,333.6,9,2,2.0,0,0.0,-1,0.0,,0.0,0
30301,1463871982772,,,,0,,,0.02,0.07,0.99,-3.0,-0.1,0.0,0,0,39.53957,-122.332352,0.0,0.004,333.6,9,2,2.0,0,0.0,-1,0.0,,0.0,0
30321,1463871982791,,,,,,,0.02,0.07,0.99,-3.0,-0.1,0.0,0,0,39.53957,-122.332352,0.0,0.004,333.6,9,2,2.0,0,0.0,-1,0.0,,0.0,0
30341,1463871982812,,,,,,,0.02,0.07,0.99,-3.0,-0.1,0.0,0,0,39.53957,-122.332352,0.0,0.004,333.6,9,2,2.0,0,0.0,-1,0.0,,0.0,0
30361,1463871982831,,,,,,,0.02,0.07,0.99,-3.0,-0.1,0.0,0,0,39.53957,-122.332352,0.0,0.004,333.6,9,2,2.0,0,0.0,-1,0.0,,0.0,0
30381,1463871982851,,,,,,,0.02,0.07,0.99,-3.0,-0.1,-0.0,0,0,39.53957,-122.332352,0.0,0.004,333.6,9,2,2.0,0,0.0,-1,0.0,,0.0,0
30401,1463871982872,0.001,56,54,0,55,,0.02,0.07,0.99,-3.0,-0.1,0.0,0,0,39.53957,-122.332352,0.0,0.004,333.6,9,2,2.0,0,0.0,-1,0.0,0.0,0.0,0
30421,1463871982891,,,,,,,0.02,0.07,0.99,-3.0,-0.1,-0.0,0,0,39.53957,-122.332352,0.0,0.004,333.6,9,2,2.0,0,0.0,-1,0.0,,0.0,0
30441,1463871982911,,,,,,,0.02,0.07,0.99,-3.0,-0.1,-0.0,0,0,39.53957,-122.332352,0.0,0.004,333.6,9,2,2.0,0,0.0,-1,0.0,,0.0,0
30461,1463871982931,,,,,,,0.02,0.07,0.99,-3.0,-0.1,-0.0,0,0,39.53957,-122.332352,0.0,0.004,333.6,9,2,2.0,0,0.0,-1,0.0,,0.0,0
30481,1463871982951,,,,,,,0.02,0.07,0.99,-3.0,-0.1,-0.0,0,0,39.53957,-122.332352,0.0,0.004,333.6,9,2,2.0,0,0.0,-1,0.0,,0.0,0
30501,1463871982971,,,,0,,,0.02,0.07,0.99,-3.0,-0.1,-0.0,0,0,39.53957,-122.332352,0.0,0.004,333.6,9,2,2.0,0,0.0,-1,0.0,,0.0,0
30521,1463871982991,,,,,,,0.02,0.07,0.99,-3.0,-0.1,-0.0,0,0,39.53957,-122.332352,0.0,0.004,333.6,9,2,2.0,0,0.0,-1,0.0,,0.0,0
30541,1463871983011,,,,,,,0.02,0.07,0.99,-3.0,-0.1,-0.0,0,0,39.53957,-122.332352,0.0,0.004,333.6,9,2,2.0,0,0.0,-1,0.0,,0.0,0
30561,1463871983032,,,,,,,0.02,0.07,0.99,-3.0,-0.1,-0.0,0,0,39.53957,-122.332352,0.0,0.004,333.6,9,2,2.0,0,0.0,-1,0.0,,0.0,0
30581,1463871983052,,,,,,,0.02,0.07,0.99,-3.0,-0.1,-0.0,0,0,39.53957,-122.332352,0.0,0.004,333.6,9,2,2.0,0,0.0,-1,0.0,,0.0,0
30601,1463871983072,0.003,55,54,0,55,,0.02,0.07,0.99,-3.0,-0.1,-0.0,0,0,39.53957,-122.332352,0.0,0.004,333.6,9,2,2.0,0,0.0,-1,0.0,0.0,0.0,0
30621,1463871983093,,,,,,,0.02,0.07,0.99,-3.0,-0.1,-0.0,0,0,39.53957,-122.332352,0.0,0.004,333.6,9,2,2.0,0,0.0,-1,0.0,,0.0,0
30641,1463871983112,,,,,,,0.02,0.07,0.99,-3.0,-0.1,-0.0,0,0,39.53957,-122.332352,0.0,0.004,333.6,9,2,2.0,0,0.0,-1,0.0,,0.0,0
30661,1463871983133,,,,,,,0.02,0.07,0.99,-3.0,-0.1,-0.0,0,0,39.53957,-122.332352,0.0,0.004,333.6,9,2,2.0,0,0.0,-1,0.0,,0.0,0
30681,1463871983152,,,,,,,0.02,0.06,0.99,-3.0,-0.0,-0.0,0,0,39.53957,-122.332352,0.0,0.004,333.6,9,2,2.0,0,0.0,-1,0.0,,0.0,0
30701,1463871983172,,,,0,,,0.02,0.06,0.99,-3.0,-0.0,0.0,0,0,39.53957,-122.332352,0.0,0.004,333.6,9,2,2.0,0,0.0,-1,0.0,,0.0,0
30721,1463871983192,,,,,,,0.02,0.06,0.99,-3.0,-0.0,-0.0,0,0,39.53957,-122.332352,0.0,0.004,333.6,9,2,2.0,0,0.0,-1,0.0,,0.0,0
30741,1463871983212,,,,,,,0.02,0.06,0.99,-3.0,-0.0,0.0,0,0,39.53957,-122.332352,0.0,0.004,333.6,9,2,2.0,0,0.0,-1,0.0,,0.0,0
30761,1463871983233,,,,,,,0.02,0.06,0.99,-3.0,-0.0,-0.0,0,0,39.53957,-122.332352,0.0,0.004,333.6,9,2,2.0,0,0.0,-1,0.0,,0.0,0
30781,1463871983252,,,,,,,0.02,0.06,0.99,-3.0,-0.0,-0.0,0,0,39.53957,-122.332352,0.0,0.004,333.6,9,2,2.0,0,0.0,-1,0.0,,0.0,0
30801,1463871983272,0.003,54,52,0,57,,0.02,0.06,0.99,-3.1,-0.0,-0.0,0,0,39.53957,-122.332352,0.0,0.004,333.6,9,2,2.0,0,0.0,-1,0.0,0.0,0.0,0
30821,1463871983293,,,,,,,0.02,0.06,0.99,-3.0,-0.0,-0.0,0,0,39.53957,-122.332352,0.0,0.004,333.6,9,2,2.0,0,0.0,-1,0.0,,0.0,0
30841,1463871983312,,,,,,,0.02,0.06,0.99,-3.0,-0.0,-0.0,0,0,39.53957,-122.332352,0.0,0.004,333.6,9,2,2.0,0,0.0,-1,0.0,,0.0,0
30861,1463871983332,,,,,,,0.02,0.06,0.99,-3.1,-0.1,-0.0,0,0,39.53957,-122.332352,0.0,0.004,333.6,9,2,2.0,0,0.0,-1,0.0,,0.0,0
30881,1463871983353,,,,,,,0.02,0.07,0.99,-3.1,-0.1,-0.0,0,0,39.53957,-122.332352,0.0,0.004,333.6,9,2,2.0,0,0.0,-1,0.0,,0.0,0
30901,1463871983372,,,,0,,,0.02,0.07,0.99,-3.1,-0.1,-0.0,0,0,39.53957,-122.332352,0.0,0.004,333.6,9,2,2.0,0,0.0,-1,0.0,,0.0,0
30921,1463871983393,,,,,,,0.02,0.07,0.99,-3.1,-0.1,-0.0,0,0,39.53957,-122.332352,0.0,0.004,333.6,9,2,2.0,0,0.0,-1,0.0,,0.0,0
30941,1463871983413,,,,,,,0.02,0.07,0.99,-3.0,-0.1,-0.0,0,0,39.53957,-122.332352,0.0,0.004,333.6,9,2,2.0,0,0.0,-1,0.0,,0.0,0
30961,1463871983433,,,,,,,0.02,0.07,0.99,-3.0,-0.1,-0.0,0,0,39.53957,-122.332352,0.0,0.004,333.6,9,2,2.0,0,0.0,-1,0.0,,0.0,0
30981,1463871983453,,,,,,,0.02,0.07,0.99,-3.0,-0.1,-0.0,0,0,39.53957,-122.332352,0.0,0.004,333.6,9,2,2.0,0,0.0,-1,0.0,,0.0,0
31001,1463871983472,0.003,55,54,0,56,12.77,0.02,0.07,0.99,-3.0,-0.1,-0.0,0,0,39.53957,-122.332352,0.0,0.004,333.6,9,2,2.0,0,0.0,-1,0.0,0.0,0.0,0
31021,1463871983493,,,,,,,0.02,0.07,0.99,-3.0,-0.1,-0.0,0,0,39.53957,-122.332352,0.0,0.004,333.6,9,2,2.0,0,0.0,-1,0.0,,0.0,0
31041,1463871983513,,,,,,,0.02,0.07,0.99,-3.0,-0.1,-0.0,0,0,39.53957,-122.332352,0.0,0.004,333.6,9,2,2.0,0,0.0,-1,0.0,,0.0,0
31061,1463871983533,,,,,,,0.02,0.07,0.99,-3.1,-0.1,-0.0,0,0,39.53957,-122.332352,0.0,0.004,333.6,9,2,2.0,0,0.0,-1,0.0,,0.0,0
31081,1463871983553,,,,,,,0.02,0.07,0.99,-3.0,-0.0,-0.0,0,0,39.53957,-122.332352,0.0,0.004,333.6,9,2,2.0,0,0.0,-1,0.0,,0.0,0
31101,1463871983572,,,,0,,,0.02,0.07,0.99,-3.0,-0.1,-0.0,0,0,39.53957,-122.332352,0.0,0.004,333.6,9,2,2.0,0,0.0,-1,0.0,,0.0,0
31121,1463871983593,,,,,,,0.02,0.06,0.99,-3.0,-0.1,-0.0,0,0,39.53957,-122.332352,0.0,0.004,333.6,9,2,2.0,0,0.0,-1,0.0,,0.0,0
31141,1463871983613,,,,,,,0.02,0.06,1.0,-3.0,-0.1,0.0,0,0,39.53957,-122.332352,0.0,0.004,333.6,9,2,2.0,0,0.0,-1,0.0,,0.0,0
31161,1463871983632,,,,,,,0.02,0.06,0.99,-3.0,-0.1,0.0,0,0,39.53957,-122.332352,0.0,0.004,333.6,9,2,2.0,0,0.0,-1,0.0,,0.0,0
31181,1463871983652,,,,,,,0.02,0.06,1.0,-3.0,-0.1,0.0,0,0,39.53957,-122.332352,0.0,0.004,333.6,9,2,2.0,0,0.0,-1,0.0,,0.0,0
31201,1463871983672,0.003,55,53,0,55,,0.02,0.07,0.99,-3.0,-0.1,0.0,0,0,39.53957,-122.332352,0.0,0.004,333.6,9,2,2.0,0,0.0,-1,0.0,0.0,0.0,0
31221,1463871983692,,,,,,,0.02,0.07,0.99,-3.0,-0.1,0.0,0,0,39.53957,-122.332352,0.0,0.004,333.6,9,2,2.0,0,0.0,-1,0.0,,0.0,0
31241,1463871983712,,,,,,,0.02,0.07,0.99,-3.0,-0.1,0.0,0,0,39.53957,-122.332352,0.0,0.004,333.6,9,2,2.0,0,0.0,-1,0.0,,0.0,0
31261,1463871983732,,,,,,,0.02,0.07,0.99,-3.0,-0.1,-0.0,0,0,39.53957,-122.332352,0.0,0.004,333.6,9,2,2.0,0,0.0,-1,0.0,,0.0,0
31281,1463871983753,,,,,,,0.02,0.07,0.99,-3.0,-0.1,-0.0,0,0,39.53957,-122.332352,0.0,0.004,333.6,9,2,2.0,0,0.0,-1,0.0,,0.0,0
31301,1463871983772,,,,0,,,0.02,0.07,0.99,-3.0,-0.1,-0.0,0,0,39.53957,-122.332352,0.0,0.004,333.6,9,2,2.0,0,0.0,-1,0.0,,0.0,0
31321,1463871983792,,,,,,,0.02,0.07,1.0,-3.0,-0.1,-0.0,0,0,39.53957,-122.332352,0.0,0.004,333.6,9,2,2.0,0,0.0,-1,0.0,,0.0,0
31341,1463871983812,,,,,,,0.02,0.07,1.0,-3.1,-0.1,-0.0,0,0,39.53957,-122.332352,0.0,0.004,333.6,9,2,2.0,0,0.0,-1,0.0,,0.0,0
31361,1463871983833,,,,,,,0.02,0.07,1.0,-3.1,-0.1,-0.0,0,0,39.53957,-122.332352,0.0,0.004,333.6,9,2,2.0,0,0.0,-1,0.0,,0.0,0
31381,1463871983853,,,,,,,0.02,0.07,1.0,-3.1,-0.1,-0.0,0,0,39.53957,-122.332352,0.0,0.004,333.6,9,2,2.0,0,0.0,-1,0.0,,0.0,0
31401,1463871983872,0.003,55,53,0,55,,0.02,0.07,1.0,-3.0,-0.1,-0.0,0,0,39.53957,-122.332352,0.0,0.004,333.6,9,2,2.0,0,0.0,-1,0.0,0.0,0.0,0
31421,1463871983892,,,,,,,0.02,0.07,1.0,-3.0,-0.1,-0.0,0,0,39.53957,-122.332352,0.0,0.004,333.6,9,2,2.0,0,0.0,-1,0.0,,0.0,0
31441,1463871983912,,,,,,,0.02,0.07,1.0,-3.0,-0.1,-0.0,0,0,39.53957,-122.332352,0.0,0.004,333.6,9,2,2.0,0,0.0,-1,0.0,,0.0,0
31461,1463871983932,,,,,,,0.02,0.07,1.0,-3.0,-0.1,-0.0,0,0,39.53957,-122.332352,0.0,0.004,333.6,9,2,2.0,0,0.0,-1,0.0,,0.0,0
31481,1463871983952,,,,,,,0.02,0.07,1.0,-3.0,-0.1,-0.0,0,0,39.53957,-122.332352,0.0,0.004,333.6,9,2,2.0,0,0.0,-1,0.0,,0.0,0
31501,1463871983972,,,,0,,,0.02,0.07,1.0,-3.1,-0.1,-0.0,0,0,39.53957,-122.332352,0.0,0.004,333.6,9,2,2.0,0,0.0,-1,0.0,,0.0,0
31521,1463871983993,,,,,,,0.02,0.06,1.0,-3.1,-0.1,-0.0,0,0,39.53957,-122.332352,0.0,0.004,333.6,9,2,2.0,0,0.0,-1,0.0,,0.0,0
31541,1463871984013,,,,,,,0.02,0.06,1.0,-3.1,-0.1,-0.0,0,0,39.53957,-122.332352,0.0,0.004,333.6,9,2,2.0,0,0.0,-1,0.0,,0.0,0
31561,1463871984032,,,,,,,0.02,0.06,0.99,-3.1,-0.1,-0.0,0,0,39.53957,-122.332352,0.0,0.004,333.6,9,2,2.0,0,0.0,-1,0.0,,0.0,0
31581,1463871984053,,,,,,,0.02,0.06,0.99,-3.1,-0.1,-0.0,0,0,39.53957,-122.332352,0.0,0.004,333.6,9,2,2.0,0,0.0,-1,0.0,,0.0,0
31601,1463871984072,0.003,55,53,0,55,,0.02,0.06,0.99,-3.1,-0.1,0.0,0,0,39.53957,-122.332352,0.0,0.004,333.6,9,2,2.0,0,0.0,-1,0.0,0.0,0.0,0
31621,1463871984093,,,,,,,0.02,0.06,1.0,-3.0,-0.1,0.0,0,0,39.53957,-122.332352,0.0,0.004,333.6,9,2,2.0,0,0.0,-1,0.0,,0.0,0
31641,1463871984112,,,,,,,0.02,0.07,1.0,-3.0,-0.1,0.0,0,0,39.53957,-122.332352,0.0,0.004,333.6,9,2,2.0,0,0.0,-1,0.0,,0.0,0
31661,1463871984132,,,,,,,0.02,0.07,1.0,-3.0,-0.1,0.0,0,0,39.53957,-122.332352,0.0,0.004,333.6,9,2,2.0,0,0.0,-1,0.0,,0.0,0
31681,1463871984153,,,,,,,0.02,0.07,0.99,-3.0,-0.1,0.0,0,0,39.53957,-122.332352,0.0,0.004,333.6,9,2,2.0,0,0.0,-1,0.0,,0.0,0
31701,1463871984172,,,,0,,,0.02,0.07,0.99,-3.0,-0.1,0.0,0,0,39.53957,-122.332352,0.0,0.004,333.6,9,2,2.0,0,0.0,-1,0.0,,0.0,0
31721,1463871984193,,,,,,,0.02,0.07,0.99,-3.1,-0.1,0.0,0,0,39.53957,-122.332352,0.0,0.004,333.6,9,2,2.0,0,0.0,-1,0.0,,0.0,0
31741,1463871984213,,,,,,,0.02,0.07,0.99,-3.1,-0.1,0.0,0,0,39.53957,-122.332352,0.0,0.004,333.6,9,2,2.0,0,0.0,-1,0.0,,0.0,0
31761,1463871984233,,,,,,,0.02,0.07,0.99,-3.0,-0.1,0.0,0,0,39.53957,-122.332352,0.0,0.004,333.6,9,2,2.0,0,0.0,-1,0.0,,0.0,0
31781,1463871984253,,,,,,,0.02,0.07,0.99,-3.0,-0.1,0.0,0,0,39.53957,-122.332352,0.0,0.004,333.6,9,2,2.0,0,0.0,-1,0.0,,0.0,0
31801,1463871984272,0.003,56,53,0,55,,0.02,0.07,0.99,-3.0,-0.1,0.0,0,0,39.53957,-122.332352,0.0,0.004,333.6,9,2,2.0,0,0.0,-1,0.0,0.0,0.0,0
31821,1463871984293,,,,,,,0.02,0.07,0.99,-3.0,-0.1,0.0,0,0,39.53957,-122.332352,0.0,0.004,333.6,9,2,2.0,0,0.0,-1,0.0,,0.0,0
31841,1463871984313,,,,,,,0.02,0.07,0.99,-3.0,-0.1,0.0,0,0,39.53957,-122.332352,0.0,0.004,333.6,9,2,2.0,0,0.0,-1,0.0,,0.0,0
31861,1463871984333,,,,,,,0.02,0.07,0.99,-3.1,-0.1,0.0,0,0,39.53957,-122.332352,0.0,0.004,333.6,9,2,2.0,0,0.0,-1,0.0,,0.0,0
31881,1463871984353,,,,,,,0.02,0.07,0.99,-3.0,-0.1,0.0,0,0,39.53957,-122.332352,0.0,0.004,333.6,9,2,2.0,0,0.0,-1,0.0,,0.0,0
31901,1463871984372,,,,0,,,0.02,0.07,0.99,-3.0,-0.1,0.0,0,0,39.53957,-122.332352,0.0,0.004,333.6,9,2,2.0,0,0.0,-1,0.0,,0.0,0
31921,1463871984393,,,,,,,0.02,0.07,0.99,-3.1,-0.1,-0.0,0,0,39.53957,-122.332352,0.0,0.004,333.6,9,2,2.0,0,0.0,-1,0.0,,0.0,0
31941,1463871984413,,,,,,,0.02,0.07,0.99,-3.1,-0.1,-0.0,0,0,39.53957,-122.332352,0.0,0.004,333.6,9,2,2.0,0,0.0,-1,0.0,,0.0,0
31961,1463871984432,,,,,,,0.02,0.07,0.99,-3.1,-0.1,0.0,0,0,39.53957,-122.332352,0.0,0.004,333.6,9,2,2.0,0,0.0,-1,0.0,,0.0,0
31981,1463871984453,,,,,,,0.02,0.07,0.99,-3.1,-0.1,-0.0,0,0,39.53957,-122.332352,0.0,0.004,333.6,9,2,2.0,0,0.0,-1,0.0,,0.0,0
32001,1463871984472,0.003,55,54,0,57,12.72,0.01,0.07,0.99,-3.0,-0.1,0.0,0,0,39.53957,-122.332352,0.0,0.004,333.6,9,2,2.0,0,0.0,-1,0.0,0.0,0.0,0
32021,1463871984493,,,,,,,0.01,0.07,0.99,-3.0,-0.1,0.0,0,0,39.53957,-122.332352,0.0,0.004,333.6,9,2,2.0,0,0.0,-1,0.0,,0.0,0
32041,1463871984512,,,,,,,0.02,0.07,0.99,-3.0,-0.1,0.0,0,0,39.53957,-122.332352,0.0,0.004,333.6,9,2,2.0,0,0.0,-1,0.0,,0.0,0
32061,1463871984533,,,,,,,0.02,0.07,0.99,-3.0,-0.1,0.0,0,0,39.53957,-122.332352,0.0,0.004,333.6,9,2,2.0,0,0.0,-1,0.0,,0.0,0
32081,1463871984553,,,,,,,0.02,0.07,1.0,-3.0,-0.1,0.0,0,0,39.53957,-122.332352,0.0,0.004,333.6,9,2,2.0,0,0.0,-1,0.0,,0.0,0
32101,1463871984572,,,,0,,,0.01,0.07,1.0,-3.0,-0.1,0.0,0,0,39.53957,-122.332352,0.0,0.004,333.6,9,2,2.0,0,0.0,-1,0.0,,0.0,0
32121,1463871984593,,,,,,,0.01,0.07,1.0,-3.1,-0.1,0.0,0,0,39.53957,-122.332352,0.0,0.004,333.6,9,2,2.0,0,0.0,-1,0.0,,0.0,0
32141,1463871984613,,,,,,,0.01,0.07,0.99,-3.1,-0.1,-0.0,0,0,39.53957,-122.332352,0.0,0.004,333.6,9,2,2.0,0,0.0,-1,0.0,,0.0,0
32161,1463871984633,,,,,,,0.02,0.07,0.99,-3.0,-0.1,-0.0,0,0,39.53957,-122.332352,0.0,0.004,333.6,9,2,2.0,0,0.0,-1,0.0,,0.0,0
32181,1463871984652,,,,,,,0.01,0.07,0.99,-3.0,-0.1,-0.0,0,0,39.53957,-122.332352,0.0,0.004,333.6,9,2,2.0,0,0.0,-1,0.0,,0.0,0
32201,1463871984672,0.003,56,54,0,54,,0.01,0.07,0.99,-3.0,-0.1,-0.0,0,0,39.53957,-122.332352,0.0,0.004,333.6,9,2,2.0,0,0.0,-1,0.0,0.0,0.0,0
32221,1463871984693,,,,,,,0.02,0.07,0.99,-3.0,-0.1,-0.0,0,0,39.53957,-122.332352,0.0,0.004,333.6,9,2,2.0,0,0.0,-1,0.0,,0.0,0
32241,1463871984713,,,,,,,0.01,0.07,0.99,-3.0,-0.1,-0.0,0,0,39.53957,-122.332352,0.0,0.004,333.6,9,2,2.0,0,0.0,-1,0.0,,0.0,0
32261,1463871984733,,,,,,,0.01,0.07,0.99,-3.1,-0.1,-0.0,0,0,39.53957,-122.332352,0.0,0.004,333.6,9,2,2.0,0,0.0,-1,0.0,,0.0,0
32281,1463871984753,,,,,,,0.01,0.07,0.99,-3.0,-0.1,-0.0,0,0,39.53957,-122.332352,0.0,0.004,333.6,9,2,2.0,0,0.0,-1,0.0,,0.0,0
32301,1463871984772,,,,0,,,0.01,0.07,0.99,-3.1,-0.1,-0.0,0,0,39.53957,-122.332352,0.0,0.004,333.6,9,2,2.0,0,0.0,-1,0.0,,0.0,0
32321,1463871984793,,,,,,,0.02,0.07,0.99,-3.1,-0.1,-0.0,0,0,39.53957,-122.332352,0.0,0.004,333.6,9,2,2.0,0,0.0,-1,0.0,,0.0,0
32341,1463871984813,,,,,,,0.02,0.07,0.99,-3.0,-0.1,-0.0,0,0,39.53957,-122.332352,0.0,0.004,333.6,9,2,2.0,0,0.0,-1,0.0,,0.0,0
32361,1463871984833,,,,,,,0.02,0.07,0.99,-3.1,-0.1,-0.0,0,0,39.53957,-122.332352,0.0,0.004,333.6,9,2,2.0,0,0.0,-1,0.0,,0.0,0
32381,1463871984853,,,,,,,0.02,0.07,0.99,-3.1,-0.1,-0.0,0,0,39.53957,-122.332352,0.0,0.004,333.6,9,2,2.0,0,0.0,-1,0.0,,0.0,0
32401,1463871984872,0.003,55,54,0,56,,0.01,0.07,0.99,-3.1,-0.1,-0.0,0,0,39.53957,-122.332352,0.0,0.004,333.6,9,2,2.0,0,0.0,-1,0.0,0.0,0.0,0
32421,1463871984893,,,,,,,0.01,0.07,0.99,-3.0,-0.1,-0.0,0,0,39.53957,-122.332352,0.0,0.004,333.6,9,2,2.0,0,0.0,-1,0.0,,0.0,0
32441,1463871984913,,,,,,,0.01,0.07,0.99,-3.0,-0.1,-0.0,0,0,39.53957,-122.332352,0.0,0.004,333.6,9,2,2.0,0,0.0,-1,0.0,,0.0,0
32461,1463871984932,,,,,,,0.01,0.07,0.99,-3.0,-0.1,0.0,0,0,39.53957,-122.332352,0.0,0.004,333.6,9,2,2.0,0,0.0,-1,0.0,,0.0,0
32481,1463871984952,,,,,,,0.01,0.07,0.99,-3.0,-0.1,0.0,0,0,39.53957,-122.332352,0.0,0.004,333.6,9,2,2.0,0,0.0,-1,0.0,,0.0,0
32501,1463871984972,,,,0,,,0.01,0.07,0.99,-3.1,-0.1,0.0,0,0,39.53957,-122.332352,0.0,0.004,333.6,9,2,2.0,0,0.0,-1,0.0,,0.0,0
32521,1463871984992,,,,,,,0.01,0.07,1.0,-3.1,-0.1,0.0,0,0,39.53957,-122.332352,0.0,0.004,333.6,9,2,2.0,0,0.0,-1,0.0,,0.0,0
32541,1463871985012,,,,,,,0.01,0.07,1.0,-3.1,-0.1,0.0,0,0,39.53957,-122.332352,0.0,0.004,333.6,9,2,2.0,0,0.0,-1,0.0,,0.0,0
32561,1463871985032,,,,,,,0.01,0.07,1.0,-3.1,-0.1,0.0,0,0,39.53957,-122.332352,0.0,0.004,333.6,9,2,2.0,0,0.0,-1,0.0,,0.0,0
32581,1463871985053,,,,,,,0.01,0.07,1.0,-3.1,-0.1,0.0,0,0,39.53957,-122.332352,0.0,0.004,333.6,9,2,2.0,0,0.0,-1,0.0,,0.0,0
32601,1463871985072,0.001,55,53,0,55,,0.02,0.07,1.0,-3.0,-0.1,0.0,0,0,39.53957,-122.332352,0.0,0.004,333.6,9,2,2.0,0,0.0,-1,0.0,0.0,0.0,0
32621,1463871985093,,,,,,,0.02,0.07,1.0,-3.1,-0.1,-0.0,0,0,39.53957,-122.332352,0.0,0.004,333.6,9,2,2.0,0,0.0,-1,0.0,,0.0,0
32641,1463871985113,,,,,,,0.02,0.07,1.0,-3.0,-0.1,-0.0,0,0,39.53957,-122.332352,0.0,0.004,333.6,9,2,2.0,0,0.0,-1,0.0,,0.0,0
32661,1463871985133,,,,,,,0.01,0.07,1.0,-3.1,-0.1,-0.0,0,0,39.53957,-122.332352,0.0,0.004,333.6,9,2,2.0,0,0.0,-1,0.0,,0.0,0
32681,1463871985153,,,,,,,0.01,0.07,1.0,-3.1,-0.1,-0.0,0,0,39.53957,-122.332352,0.0,0.004,333.6,9,2,2.0,0,0.0,-1,0.0,,0.0,0
32701,1463871985172,,,,0,,,0.02,0.07,1.0,-3.1,-0.1,-0.0,0,0,39.53957,-122.332352,0.0,0.004,333.6,9,2,2.0,0,0.0,-1,0.0,,0.0,0
32721,1463871985193,,,,,,,0.02,0.07,1.0,-3.1,-0.1,-0.0,0,0,39.53957,-122.332352,0.0,0.004,333.6,9,2,2.0,0,0.0,-1,0.0,,0.0,0
32741,1463871985213,,,,,,,0.02,0.07,1.0,-3.1,-0.1,-0.0,0,0,39.53957,-122.332352,0.0,0.004,333.6,9,2,2.0,0,0.0,-1,0.0,,0.0,0
32761,1463871985233,,,,,,,0.02,0.07,0.99,-3.1,-0.1,-0.0,0,0,39.53957,-122.332352,0.0,0.004,333.6,9,2,2.0,0,0.0,-1,0.0,,0.0,0
32781,1463871985253,,,,,,,0.02,0.07,0.99,-3.1,-0.1,-0.0,0,0,39.53957,-122.332352,0.0,0.004,333.6,9,2,2.0,0,0.0,-1,0.0,,0.0,0
32801,1463871985272,0.003,55,53,0,56,,0.02,0.06,0.99,-3.1,-0.1,-0.0,0,0,39.53957,-122.332352,0.0,0.004,333.6,9,2,2.0,0,0.0,-1,0.0,0.0,0.0,0
32821,1463871985293,,,,,,,0.02,0.06,0.99,-3.0,-0.1,-0.0,0,0,39.53957,-122.332352,0.0,0.004,333.6,9,2,2.0,0,0.0,-1,0.0,,0.0,0
32841,1463871985312,,,,,,,0.02,0.06,0.99,-3.0,-0.1,-0.0,0,0,39.53957,-122.332352,0.0,0.004,333.6,9,2,2.0,0,0.0,-1,0.0,,0.0,0
32861,1463871985333,,,,,,,0.02,0.07,1.0,-3.0,-0.1,-0.0,0,0,39.53957,-122.332352,0.0,0.004,333.6,9,2,2.0,0,0.0,-1,0.0,,0.0,0
32881,1463871985352,,,,,,,0.02,0.07,1.0,-3.0,-0.1,-0.0,0,0,39.53957,-122.332352,0.0,0.004,333.6,9,2,2.0,0,0.0,-1,0.0,,0.0,0
32901,1463871985372,,,,0,,,0.02,0.07,1.0,-3.0,-0.1,-0.0,0,0,39.53957,-122.332352,0.0,0.004,333.6,9,2,2.0,0,0.0,-1,0.0,,0.0,0
32921,1463871985393,,,,,,,0.02,0.07,1.0,-3.0,-0.1,-0.0,0,0,39.53957,-122.332352,0.0,0.004,333.6,9,2,2.0,0,0.0,-1,0.0,,0.0,0
32941,1463871985412,,,,,,,0.02,0.07,0.99,-3.0,-0.1,-0.0,0,0,39.53957,-122.332352,0.0,0.004,333.6,9,2,2.0,0,0.0,-1,0.0,,0.0,0
32961,1463871985433,,,,,,,0.02,0.07,1.0,-3.0,-0.1,-0.0,0,0,39.53957,-122.332352,0.0,0.004,333.6,9,2,2.0,0,0.0,-1,0.0,,0.0,0
32981,1463871985453,,,,,,,0.02,0.07,1.0,-3.0,-0.1,-0.0,0,0,39.53957,-122.332352,0.0,0.004,333.6,9,2,2.0,0,0.0,-1,0.0,,0.0,0
33001,1463871985472,0.003,55,52,0,56,12.76,0.02,0.07,1.0,-3.1,-0.1,-0.0,0,0,39.53957,-122.332352,0.0,0.004,333.6,9,2,2.0,0,0.0,-1,0.0,0.0,0.0,0
33021,1463871985493,,,,,,,0.02,0.07,1.0,-3.0,-0.1,-0.0,0,0,39.53957,-122.332352,0.0,0.004,333.6,9,2,2.0,0,0.0,-1,0.0,,0.0,0
33041,1463871985513,,,,,,,0.02,0.07,1.0,-3.0,-0.1,-0.0,0,0,39.53957,-122.332352,0.0,0.004,333.6,9,2,2.0,0,0.0,-1,0.0,,0.0,0
33061,1463871985533,,,,,,,0.01,0.07,1.0,-3.0,-0.1,-0.0,0,0,39.53957,-122.332352,0.0,0.004,333.6,9,2,2.0,0,0.0,-1,0.0,,0.0,0
33081,1463871985553,,,,,,,0.01,0.07,1.0,-3.1,-0.1,-0.0,0,0,39.53957,-122.332352,0.0,0.004,333.6,9,2,2.0,0,0.0,-1,0.0,,0.0,0
33101,1463871985572,,,,0,,,0.01,0.07,1.0,-3.1,-0.1,-0.0,0,0,39.53957,-122.332352,0.0,0.004,333.6,9,2,2.0,0,0.0,-1,0.0,,0.0,0
33121,1463871985593,,,,,,,0.01,0.07,0.99,-3.1,-0.1,-0.0,0,0,39.53957,-122.332352,0.0,0.004,333.6,9,2,2.0,0,0.0,-1,0.0,,0.0,0
33141,1463871985613,,,,,,,0.01,0.07,0.99,-3.1,-0.1,-0.0,0,0,39.53957,-122.332352,0.0,0.004,333.6,9,2,2.0,0,0.0,-1,0.0,,0.0,0
33161,1463871985633,,,,,,,0.01,0.07,0.99,-3.1,-0.1,-0.0,0,0,39.53957,-122.332352,0.0,0.004,333.6,9,2,2.0,0,0.0,-1,0.0,,0.0,0
33181,1463871985653,,,,,,,0.01,0.07,0.99,-3.1,-0.1,-0.0,0,0,39.53957,-122.332352,0.0,0.004,333.6,9,2,2.0,0,0.0,-1,0.0,,0.0,0
33201,1463871985672,0.003,56,54,0,55,,0.01,0.07,0.99,-3.1,-0.1,-0.0,0,0,39.53957,-122.332352,0.0,0.004,333.6,9,2,2.0,0,0.0,-1,0.0,0.0,0.0,0
33221,1463871985693,,,,,,,0.02,0.07,0.99,-3.1,-0.1,-0.0,0,0,39.53957,-122.332352,0.0,0.004,333.6,9,2,2.0,0,0.0,-1,0.0,,0.0,0
33241,1463871985713,,,,,,,0.02,0.07,1.0,-3.1,-0.1,-0.0,0,0,39.53957,-122.332352,0.0,0.004,333.6,9,2,2.0,0,0.0,-1,0.0,,0.0,0
33261,1463871985733,,,,,,,0.02,0.07,1.0,-3.1,-0.1,-0.0,0,0,39.53957,-122.332352,0.0,0.004,333.6,9,2,2.0,0,0.0,-1,0.0,,0.0,0
33281,1463871985753,,,,,,,0.02,0.07,1.0,-3.0,-0.1,-0.0,0,0,39.53957,-122.332352,0.0,0.004,333.6,9,2,2.0,0,0.0,-1,0.0,,0.0,0
33301,1463871985771,,,,0,,,0.02,0.07,1.0,-3.0,-0.1,-0.0,0,0,39.53957,-122.332352,0.0,0.004,333.6,9,2,2.0,0,0.0,-1,0.0,,0.0,0
33321,1463871985793,,,,,,,0.02,0.07,1.0,-3.0,-0.1,-0.0,0,0,39.53957,-122.332352,0.0,0.004,333.6,9,2,2.0,0,0.0,-1,0.0,,0.0,0
33341,1463871985813,,,,,,,0.02,0.07,1.0,-3.0,-0.1,-0.0,0,0,39.53957,-122.332352,0.0,0.004,333.6,9,2,2.0,0,0.0,-1,0.0,,0.0,0
33361,1463871985833,,,,,,,0.02,0.07,1.0,-3.0,-0.1,-0.0,0,0,39.53957,-122.332352,0.0,0.004,333.6,9,2,2.0,0,0.0,-1,0.0,,0.0,0
33381,1463871985853,,,,,,,0.02,0.07,0.99,-3.0,-0.1,-0.0,0,0,39.53957,-122.332352,0.0,0.004,333.6,9,2,2.0,0,0.0,-1,0.0,,0.0,0
33401,1463871985872,0.003,55,53,0,55,,0.02,0.07,0.99,-3.0,-0.1,-0.0,0,0,39.53957,-122.332352,0.0,0.004,333.6,9,2,2.0,0,0.0,-1,0.0,0.0,0.0,0
33421,1463871985893,,,,,,,0.02,0.07,0.99,-3.0,-0.1,-0.0,0,0,39.53957,-122.332352,0.0,0.004,333.6,9,2,2.0,0,0.0,-1,0.0,,0.0,0
33441,1463871985913,,,,,,,0.02,0.07,0.99,-3.0,-0.1,-0.0,0,0,39.53957,-122.332352,0.0,0.004,333.6,9,2,2.0,0,0.0,-1,0.0,,0.0,0
33461,1463871985933,,,,,,,0.02,0.07,0.99,-3.0,-0.1,-0.0,0,0,39.53957,-122.332352,0.0,0.004,333.6,9,2,2.0,0,0.0,-1,0.0,,0.0,0
33481,1463871985953,,,,,,,0.02,0.07,0.99,-3.0,-0.1,-0.0,0,0,39.53957,-122.332352,0.0,0.004,333.6,9,2,2.0,0,0.0,-1,0.0,,0.0,0
33501,1463871985973,,,,0,,,0.02,0.07,0.99,-3.0,-0.1,-0.0,0,0,39.53957,-122.332352,0.0,0.004,333.6,9,2,2.0,0,0.0,-1,0.0,,0.0,0
33521,1463871985993,,,,,,,0.02,0.07,0.99,-3.0,-0.1,-0.0,0,0,39.53957,-122.332352,0.0,0.004,333.6,9,2,2.0,0,0.0,-1,0.0,,0.0,0
33541,1463871986013,,,,,,,0.02,0.06,0.99,-3.0,-0.1,0.0,0,0,39.53957,-122.332352,0.0,0.004,333.6,9,2,2.0,0,0.0,-1,0.0,,0.0,0
33561,1463871986033,,,,,,,0.02,0.07,0.99,-3.0,-0.1,0.0,0,0,39.53957,-122.332352,0.0,0.004,333.6,9,2,2.0,0,0.0,-1,0.0,,0.0,0
33581,1463871986053,,,,,,,0.02,0.07,0.99,-3.0,-0.1,0.0,0,0,39.53957,-122.332352,0.0,0.004,333.6,9,2,2.0,0,0.0,-1,0.0,,0.0,0
33601,1463871986072,0.001,56,54,0,55,,0.02,0.06,0.99,-3.0,-0.1,-0.0,0,0,39.53957,-122.332352,0.0,0.004,333.6,9,2,2.0,0,0.0,-1,0.0,0.0,0.0,0
33621,1463871986093,,,,,,,0.02,0.06,0.99,-3.0,-0.1,-0.0,0,0,39.53957,-122.332352,0.0,0.004,333.6,9,2,2.0,0,0.0,-1,0.0,,0.0,0
33641,1463871986113,,,,,,,0.02,0.07,0.99,-3.0,-0.1,-0.0,0,0,39.53957,-122.332352,0.0,0.004,333.6,9,2,2.0,0,0.0,-1,0.0,,0.0,0
33661,1463871986132,,,,,,,0.02,0.07,0.99,-3.0,-0.1,0.0,0,0,39.53957,-122.332352,0.0,0.004,333.6,9,2,2.0,0,0.0,-1,0.0,,0.0,0
33681,1463871986152,,,,,,,0.02,0.07,0.99,-3.0,-0.1,0.0,0,0,39.53957,-122.332352,0.0,0.004,333.6,9,2,2.0,0,0.0,-1,0.0,,0.0,0
33701,1463871986172,,,,0,,,0.02,0.07,0.99,-3.0,-0.1,0.0,0,0,39.53957,-122.332352,0.0,0.004,333.6,9,2,2.0,0,0.0,-1,0.0,,0.0,0
33721,1463871986192,,,,,,,0.02,0.07,0.99,-3.1,-0.1,0.0,0,0,39.53957,-122.332352,0.0,0.004,333.6,9,2,2.0,0,0.0,-1,0.0,,0.0,0
33741,1463871986212,,,,,,,0.02,0.07,0.99,-3.1,-0.1,0.0,0,0,39.53957,-122.332352,0.0,0.004,333.6,9,2,2.0,0,0.0,-1,0.0,,0.0,0
33761,1463871986233,,,,,,,0.02,0.07,0.99,-3.1,-0.1,0.0,0,0,39.53957,-122.332352,0.0,0.004,333.6,9,2,2.0,0,0.0,-1,0.0,,0.0,0
33781,1463871986252,,,,,,,0.02,0.07,0.99,-3.1,-0.1,0.0,0,0,39.53957,-122.332352,0.0,0.004,333.6,9,2,2.0,0,0.0,-1,0.0,,0.0,0
33801,1463871986272,0.003,58,54,0,53,,0.02,0.07,0.99,-3.1,-0.1,0.0,0,0,39.53957,-122.332352,0.0,0.004,333.6,9,2,2.0,0,0.0,-1,0.0,0.0,0.0,0
33821,1463871986293,,,,,,,0.02,0.06,0.99,-3.1,-0.1,0.0,0,0,39.53957,-122.332352,0.0,0.004,333.6,9,2,2.0,0,0.0,-1,0.0,,0.0,0
33841,1463871986313,,,,,,,0.02,0.07,1.0,-3.1,-0.1,0.0,0,0,39.53957,-122.332352,0.0,0.004,333.6,9,2,2.0,0,0.0,-1,0.0,,0.0,0
33861,1463871986333,,,,,,,0.02,0.07,0.99,-3.1,-0.1,0.0,0,0,39.53957,-122.332352,0.0,0.004,333.6,9,2,2.0,0,0.0,-1,0.0,,0.0,0
33881,1463871986353,,,,,,,0.02,0.07,0.99,-3.1,-0.1,0.0,0,0,39.53957,-122.332352,0.0,0.004,333.6,9,2,2.0,0,0.0,-1,0.0,,0.0,0
33901,1463871986372,,,,0,,,0.02,0.07,0.99,-3.1,-0.1,-0.0,0,0,39.53957,-122.332352,0.0,0.004,333.6,9,2,2.0,0,0.0,-1,0.0,,0.0,0
33921,1463871986393,,,,,,,0.02,0.07,0.99,-3.1,-0.1,0.0,0,0,39.53957,-122.332352,0.0,0.004,333.6,9,2,2.0,0,0.0,-1,0.0,,0.0,0
33941,1463871986412,,,,,,,0.02,0.07,0.99,-3.1,-0.1,0.0,0,0,39.53957,-122.332352,0.0,0.004,333.6,9,2,2.0,0,0.0,-1,0.0,,0.0,0
33961,1463871986433,,,,,,,0.02,0.07,0.99,-3.1,-0.1,-0.0,0,0,39.53957,-122.332352,0.0,0.004,333.6,9,2,2.0,0,0.0,-1,0.0,,0.0,0
33981,1463871986453,,,,,,,0.02,0.07,0.99,-3.1,-0.1,-0.0,0,0,39.53957,-122.332352,0.0,0.004,333.6,9,2,2.0,0,0.0,-1,0.0,,0.0,0
34001,1463871986471,0.001,56,54,0,55,12.77,0.02,0.07,0.99,-3.1,-0.1,-0.0,0,0,39.53957,-122.332352,0.0,0.004,333.6,9,2,2.0,0,0.0,-1,0.0,0.0,0.0,0
