"Interval"|"ms"|0|0|1,"Utc"|"ms"|0|0|1,"FuelLevel"|"F"|0.0|100.0|5,"OilTemp"|"F"|0|300|5,"Coolant"|"F"|0|300|5,"OilPress"|"PSI"|0|150|10,"EngineTemp"|"F"|0|300|5,"Battery"|"Volts"|0.0|20.0|1,"AccelX"|"G"|-3.0|3.0|50,"AccelY"|"G"|-3.0|3.0|50,"AccelZ"|"G"|-3.0|3.0|50,"Yaw"|"Deg/Sec"|-300.0|300.0|50,"Pitch"|"Deg/Sec"|-300.0|300.0|50,"Roll"|"Deg/Sec"|-300.0|300.0|50,"RPM"|""|0|10000|50,"Wheel"|"RPM"|0|5000|50,"Latitude"|"Degrees"|-180.0|180.0|50,"Longitude"|"Degrees"|-180.0|180.0|50,"Speed"|"MPH"|0.0|150.0|50,"Distance"|"Miles"|0.0|0.0|50,"Altitude"|"Feet"|0.0|4000.0|50,"GPSSats"|""|0|20|50,"GPSQual"|""|0|5|50,"GPSDOP"|""|0.0|20.0|50,"LapCount"|""|0|0|50,"LapTime"|"Min"|0.0|0.0|50,"Sector"|""|0|0|50,"SectorTime"|"Min"|0.0|0.0|50,"PredTime"|"Min"|0.0|0.0|5,"ElapsedTime"|"Min"|0.0|0.0|50,"CurrentLap"|""|0|0|50
86281,1463878015332,,,,,,,0.01,0.04,1.0,-3.1,-0.4,-0.3,430,0,39.539646,-122.332382,0.0,0.026,306.0,7,3,2.3,0,0.0,-1,0.0,,0.0,0
86301,1463878015595,,,,46,,,0.02,0.05,1.0,-3.0,-0.5,-0.3,1000,0,39.539646,-122.332382,0.0,0.026,306.0,7,3,2.3,0,0.0,-1,0.0,,0.0,0
86321,1463878015615,,,,,,,0.02,0.05,0.99,-2.9,-0.7,-0.3,1020,0,39.539646,-122.332382,0.0,0.026,306.0,7,3,2.3,0,0.0,-1,0.0,,0.0,0
86341,1463878015635,,,,,,,0.03,0.07,0.97,-2.9,-0.8,-0.3,1050,0,39.539646,-122.332382,0.0,0.026,306.0,7,3,2.3,0,0.0,-1,0.0,,0.0,0
86361,1463878015655,,,,,,,0.04,0.07,0.95,-2.8,-0.9,-0.3,1070,0,39.539646,-122.332382,0.0,0.026,306.0,7,3,2.3,0,0.0,-1,0.0,,0.0,0
86381,1463878015675,,,,,,,0.06,0.07,0.96,-2.8,-0.7,-0.4,1110,0,39.539646,-122.332382,0.0,0.026,306.0,7,3,2.3,0,0.0,-1,0.0,,0.0,0
86401,1463878015695,0.393,143,157,50,154,,0.07,0.07,0.94,-2.8,-0.4,-0.3,1110,0,39.539646,-122.332382,0.0,0.026,306.0,7,3,2.3,0,0.0,-1,0.0,0.0,0.0,0
86421,1463878015715,,,,,,,0.06,0.07,0.95,-2.8,-0.3,-0.3,1060,0,39.539646,-122.332382,0.0,0.026,306.0,7,3,2.3,0,0.0,-1,0.0,,0.0,0
86441,1463878015735,,,,,,,0.05,0.06,0.96,-2.9,-0.4,-0.3,1060,0,39.539646,-122.332382,0.0,0.026,306.0,7,3,2.3,0,0.0,-1,0.0,,0.0,0
86461,1463878015755,,,,,,,0.05,0.06,0.95,-2.9,-0.5,-0.2,1080,0,39.539646,-122.332382,0.0,0.026,306.0,7,3,2.3,0,0.0,-1,0.0,,0.0,0
86481,1463878015775,,,,,,,0.05,0.07,0.96,-2.9,-0.4,-0.2,1040,0,39.539646,-122.332382,0.0,0.026,306.0,7,3,2.3,0,0.0,-1,0.0,,0.0,0
86501,1463878015795,,,,52,,,0.05,0.06,0.97,-3.0,-0.4,-0.2,1050,0,39.539646,-122.332382,0.0,0.026,306.0,7,3,2.3,0,0.0,-1,0.0,,0.0,0
86521,1463878015815,,,,,,,0.04,0.06,0.98,-3.0,-0.3,-0.2,1060,0,39.539646,-122.332382,0.0,0.026,306.0,7,3,2.3,0,0.0,-1,0.0,,0.0,0
86541,1463878015836,,,,,,,0.03,0.06,0.98,-3.0,-0.4,-0.2,1050,0,39.539646,-122.332382,0.0,0.026,306.0,7,3,2.3,0,0.0,-1,0.0,,0.0,0
86561,1463878015856,,,,,,,0.04,0.07,0.97,-3.0,-0.5,-0.2,1030,0,39.539646,-122.332382,0.0,0.026,306.0,7,3,2.3,0,0.0,-1,0.0,,0.0,0
86581,1463878015875,,,,,,,0.04,0.08,0.97,-3.0,-0.5,-0.1,1030,0,39.539646,-122.332382,0.0,0.026,306.0,7,3,2.3,0,0.0,-1,0.0,,0.0,0
86601,1463878015896,0.003,143,158,50,154,,0.05,0.08,0.97,-3.0,-0.4,-0.1,1000,0,39.539646,-122.332382,0.0,0.026,306.0,7,3,2.3,0,0.0,-1,0.0,0.0,0.0,0
86621,1463878015916,,,,,,,0.04,0.09,0.97,-3.0,-0.4,-0.1,1000,0,39.539646,-122.332382,0.0,0.026,306.0,7,3,2.3,0,0.0,-1,0.0,,0.0,0
86641,1463878015936,,,,,,,0.04,0.09,0.98,-3.1,-0.4,-0.1,990,0,39.539646,-122.332382,0.0,0.026,306.0,7,3,2.3,0,0.0,-1,0.0,,0.0,0
86661,1463878015956,,,,,,,0.04,0.1,0.97,-3.0,-0.4,-0.0,950,0,39.539646,-122.332382,0.0,0.026,306.0,7,3,2.3,0,0.0,-1,0.0,,0.0,0
86681,1463878015972,,,,,,,0.04,0.11,0.97,-3.0,-0.5,-0.0,940,0,39.539646,-122.332382,0.0,0.026,306.0,7,3,2.3,0,0.0,-1,0.0,,0.0,0
86701,1463878015996,,,,52,,,0.03,0.11,0.96,-3.0,-0.6,-0.0,940,0,39.539646,-122.332382,0.0,0.026,306.0,7,3,2.3,0,0.0,-1,0.0,,0.0,0
86721,1463878016016,,,,,,,0.02,0.1,0.97,-3.1,-0.6,-0.0,900,0,39.539646,-122.332382,0.0,0.026,306.0,7,3,2.3,0,0.0,-1,0.0,,0.0,0
86741,1463878016034,,,,,,,0.02,0.1,0.97,-3.1,-0.5,-0.1,890,0,39.539646,-122.332382,0.0,0.026,306.0,7,3,2.3,0,0.0,-1,0.0,,0.0,0
86761,1463878016056,,,,,,,0.02,0.1,0.97,-3.1,-0.4,-0.1,880,0,39.539646,-122.332382,0.0,0.026,306.0,7,3,2.3,0,0.0,-1,0.0,,0.0,0
86781,1463878016075,,,,,,,0.03,0.1,0.98,-3.1,-0.5,-0.1,860,0,39.539646,-122.332382,0.0,0.026,306.0,7,3,2.3,0,0.0,-1,0.0,,0.0,0
86801,1463878016096,0.005,143,157,49,154,,0.02,0.09,0.99,-3.1,-0.4,-0.2,820,0,39.539646,-122.332382,0.0,0.026,306.0,7,3,2.3,0,0.0,-1,0.0,0.0,0.0,0
86821,1463878016116,,,,,,,0.02,0.09,0.98,-3.1,-0.3,-0.1,800,0,39.539646,-122.332382,0.0,0.026,306.0,7,3,2.3,0,0.0,-1,0.0,,0.0,0
86841,1463878016136,,,,,,,0.02,0.08,0.98,-3.1,-0.3,-0.1,810,0,39.539646,-122.332382,0.0,0.026,306.0,7,3,2.3,0,0.0,-1,0.0,,0.0,0
86861,1463878016156,,,,,,,0.02,0.07,0.99,-3.1,-0.4,-0.1,770,0,39.539646,-122.332382,0.0,0.026,306.0,7,3,2.3,0,0.0,-1,0.0,,0.0,0
86881,1463878016175,,,,,,,0.02,0.08,0.98,-3.1,-0.3,-0.1,640,0,39.539646,-122.332382,0.0,0.026,306.0,7,3,2.3,0,0.0,-1,0.0,,0.0,0
86901,1463878016196,,,,48,,,0.02,0.07,0.98,-3.1,-0.4,-0.1,750,0,39.539646,-122.332382,0.0,0.026,306.0,7,3,2.3,0,0.0,-1,0.0,,0.0,0
86921,1463878016216,,,,,,,0.02,0.07,0.98,-3.1,-0.5,-0.1,730,0,39.539646,-122.332382,0.0,0.026,306.0,7,3,2.3,0,0.0,-1,0.0,,0.0,0
86941,1463878016236,,,,,,,0.02,0.06,0.98,-3.1,-0.5,-0.1,690,0,39.539646,-122.332382,0.0,0.026,306.0,7,3,2.3,0,0.0,-1,0.0,,0.0,0
86961,1463878016256,,,,,,,0.02,0.06,0.98,-3.1,-0.5,-0.1,690,0,39.539646,-122.332382,0.0,0.026,306.0,7,3,2.3,0,0.0,-1,0.0,,0.0,0
86981,1463878016275,,,,,,,0.02,0.06,0.99,-3.1,-0.3,-0.1,660,0,39.539646,-122.332382,0.0,0.026,306.0,7,3,2.3,0,0.0,-1,0.0,,0.0,0
87001,1463878016296,0.284,143,157,50,154,14.35,0.02,0.07,0.99,-3.1,-0.2,-0.1,640,0,39.539646,-122.332382,0.0,0.026,306.0,7,3,2.3,0,0.0,-1,0.0,0.0,0.0,0
87021,1463878016316,,,,,,,0.02,0.07,0.98,-3.1,-0.3,-0.1,630,0,39.539646,-122.332382,0.0,0.026,306.0,7,3,2.3,0,0.0,-1,0.0,,0.0,0
87041,1463878016336,,,,,,,0.02,0.07,0.99,-3.1,-0.2,-0.1,600,0,39.539646,-122.332382,0.0,0.026,306.0,7,3,2.3,0,0.0,-1,0.0,,0.0,0
87061,1463878016355,,,,,,,0.02,0.07,0.99,-3.1,-0.2,-0.1,600,0,39.539646,-122.332382,0.0,0.026,306.0,7,3,2.3,0,0.0,-1,0.0,,0.0,0
87081,1463878016375,,,,,,,0.02,0.07,0.99,-3.0,-0.1,-0.1,570,0,39.539646,-122.332382,0.0,0.026,306.0,7,3,2.3,0,0.0,-1,0.0,,0.0,0
87101,1463878016396,,,,46,,,0.02,0.07,0.99,-3.0,-0.1,-0.0,580,0,39.539646,-122.332382,0.0,0.026,306.0,7,3,2.3,0,0.0,-1,0.0,,0.0,0
87121,1463878016416,,,,,,,0.02,0.07,0.99,-3.0,-0.1,-0.1,520,0,39.539646,-122.332382,0.0,0.026,306.0,7,3,2.3,0,0.0,-1,0.0,,0.0,0
87141,1463878016436,,,,,,,0.02,0.07,0.98,-3.0,-0.1,-0.0,520,0,39.539646,-122.332382,0.0,0.026,306.0,7,3,2.3,0,0.0,-1,0.0,,0.0,0
87161,1463878016456,,,,,,,0.02,0.06,0.99,-3.1,-0.1,-0.0,500,0,39.539646,-122.332382,0.0,0.026,306.0,7,3,2.3,0,0.0,-1,0.0,,0.0,0
87181,1463878016475,,,,,,,0.02,0.06,0.98,-3.1,-0.1,0.0,510,0,39.539646,-122.332382,0.0,0.026,306.0,7,3,2.3,0,0.0,-1,0.0,,0.0,0
87201,1463878016495,0.001,143,158,41,154,,0.02,0.06,0.98,-3.1,-0.2,0.1,510,0,39.539646,-122.332382,0.0,0.026,306.0,7,3,2.3,0,0.0,-1,0.0,0.0,0.0,0
87221,1463878016516,,,,,,,0.02,0.06,0.98,-3.1,-0.2,0.1,510,0,39.539646,-122.332382,0.0,0.026,306.0,7,3,2.3,0,0.0,-1,0.0,,0.0,0
87241,1463878016536,,,,,,,0.03,0.06,0.97,-3.1,-0.3,0.2,510,0,39.539646,-122.332382,0.0,0.026,306.0,7,3,2.3,0,0.0,-1,0.0,,0.0,0
87261,1463878016556,,,,,,,0.03,0.06,0.97,-3.1,-0.3,0.2,510,0,39.539646,-122.332382,0.0,0.026,306.0,7,3,2.3,0,0.0,-1,0.0,,0.0,0
87281,1463878016575,,,,,,,0.03,0.07,0.97,-3.2,-0.3,0.2,520,0,39.539646,-122.332382,0.0,0.026,306.0,7,3,2.3,0,0.0,-1,0.0,,0.0,0
87301,1463878016596,,,,38,,,0.03,0.07,0.97,-3.2,-0.3,0.2,510,0,39.539646,-122.332382,0.0,0.026,306.0,7,3,2.3,0,0.0,-1,0.0,,0.0,0
87321,1463878016616,,,,,,,0.03,0.07,0.98,-3.1,-0.3,0.2,500,0,39.539646,-122.332382,0.0,0.026,306.0,7,3,2.3,0,0.0,-1,0.0,,0.0,0
87341,1463878016636,,,,,,,0.03,0.07,0.98,-3.1,-0.2,0.2,490,0,39.539646,-122.332382,0.0,0.026,306.0,7,3,2.3,0,0.0,-1,0.0,,0.0,0
87361,1463878016656,,,,,,,0.03,0.07,0.98,-3.1,-0.2,0.2,480,0,39.539646,-122.332382,0.0,0.026,306.0,7,3,2.3,0,0.0,-1,0.0,,0.0,0
87381,1463878016675,,,,,,,0.03,0.07,0.98,-3.1,-0.2,0.2,470,0,39.539646,-122.332382,0.0,0.026,306.0,7,3,2.3,0,0.0,-1,0.0,,0.0,0
87401,1463878016696,0.001,143,157,40,155,,0.03,0.06,0.98,-3.1,-0.3,0.2,470,0,39.539646,-122.332382,0.0,0.026,306.0,7,3,2.3,0,0.0,-1,0.0,0.0,0.0,0
87421,1463878016716,,,,,,,0.03,0.07,0.98,-3.1,-0.3,0.2,470,0,39.539646,-122.332382,0.0,0.026,306.0,7,3,2.3,0,0.0,-1,0.0,,0.0,0
87441,1463878016736,,,,,,,0.03,0.07,0.98,-3.1,-0.3,0.2,460,0,39.539646,-122.332382,0.0,0.026,306.0,7,3,2.3,0,0.0,-1,0.0,,0.0,0
87461,1463878016756,,,,,,,0.03,0.08,0.99,-3.1,-0.3,0.2,460,0,39.539646,-122.332382,0.0,0.026,306.0,7,3,2.3,0,0.0,-1,0.0,,0.0,0
87481,1463878016775,,,,,,,0.03,0.08,0.99,-3.1,-0.3,0.2,450,0,39.539646,-122.332382,0.0,0.026,306.0,7,3,2.3,0,0.0,-1,0.0,,0.0,0
87501,1463878016796,,,,36,,,0.03,0.09,0.99,-3.1,-0.3,0.2,440,0,39.539646,-122.332382,0.0,0.026,306.0,7,3,2.3,0,0.0,-1,0.0,,0.0,0
87521,1463878016816,,,,,,,0.03,0.09,0.99,-3.1,-0.3,0.1,440,0,39.539646,-122.332382,0.0,0.026,306.0,7,3,2.3,0,0.0,-1,0.0,,0.0,0
87541,1463878016836,,,,,,,0.03,0.08,0.99,-3.1,-0.4,0.0,430,0,39.539646,-122.332382,0.0,0.026,306.0,7,3,2.3,0,0.0,-1,0.0,,0.0,0
87561,1463878016856,,,,,,,0.02,0.08,0.99,-3.1,-0.4,-0.0,430,0,39.539646,-122.332382,0.0,0.026,306.0,7,3,2.3,0,0.0,-1,0.0,,0.0,0
87581,1463878016875,,,,,,,0.02,0.07,0.99,-3.1,-0.4,-0.1,420,0,39.539646,-122.332382,0.0,0.026,306.0,7,3,2.3,0,0.0,-1,0.0,,0.0,0
87601,1463878016896,0.244,144,157,35,154,,0.02,0.07,0.99,-3.1,-0.3,-0.0,420,0,39.539646,-122.332382,0.0,0.026,306.0,7,3,2.3,0,0.0,-1,0.0,0.0,0.0,0
87621,1463878016916,,,,,,,0.02,0.07,0.99,-3.2,-0.3,0.0,420,0,39.539646,-122.332382,0.0,0.026,306.0,7,3,2.3,0,0.0,-1,0.0,,0.0,0
87641,1463878016936,,,,,,,0.03,0.08,1.0,-3.2,-0.3,0.1,420,0,39.539646,-122.332382,0.0,0.026,306.0,7,3,2.3,0,0.0,-1,0.0,,0.0,0
87661,1463878016956,,,,,,,0.03,0.08,1.0,-3.2,-0.4,0.0,420,0,39.539646,-122.332382,0.0,0.026,306.0,7,3,2.3,0,0.0,-1,0.0,,0.0,0
87681,1463878016972,,,,,,,0.02,0.08,1.0,-3.1,-0.4,-0.1,420,0,39.539646,-122.332382,0.0,0.026,306.0,7,3,2.3,0,0.0,-1,0.0,,0.0,0
87701,1463878016996,,,,33,,,0.02,0.08,1.0,-3.1,-0.4,-0.1,420,0,39.539646,-122.332382,0.0,0.026,306.0,7,3,2.3,0,0.0,-1,0.0,,0.0,0
87721,1463878017016,,,,,,,0.02,0.07,0.99,-3.1,-0.4,-0.1,410,0,39.539646,-122.332382,0.0,0.026,306.0,7,3,2.3,0,0.0,-1,0.0,,0.0,0
87741,1463878017036,,,,,,,0.02,0.07,0.99,-3.1,-0.4,-0.1,410,0,39.539646,-122.332382,0.0,0.026,306.0,7,3,2.3,0,0.0,-1,0.0,,0.0,0
87761,1463878017056,,,,,,,0.02,0.07,1.0,-3.1,-0.3,0.1,400,0,39.539646,-122.332382,0.0,0.026,306.0,7,3,2.3,0,0.0,-1,0.0,,0.0,0
87781,1463878017075,,,,,,,0.03,0.07,1.0,-3.1,-0.3,0.1,400,0,39.539646,-122.332382,0.0,0.026,306.0,7,3,2.3,0,0.0,-1,0.0,,0.0,0
87801,1463878017096,0.003,143,158,31,154,,0.02,0.07,1.0,-3.1,-0.2,-0.1,410,0,39.539646,-122.332382,0.0,0.026,306.0,7,3,2.3,0,0.0,-1,0.0,0.0,0.0,0
87821,1463878017116,,,,,,,0.02,0.07,1.0,-3.0,-0.2,-0.2,420,0,39.539646,-122.332382,0.0,0.026,306.0,7,3,2.3,0,0.0,-1,0.0,,0.0,0
87841,1463878017136,,,,,,,0.02,0.07,0.99,-3.0,-0.2,-0.2,420,0,39.539646,-122.332382,0.0,0.026,306.0,7,3,2.3,0,0.0,-1,0.0,,0.0,0
87861,1463878017156,,,,,,,0.02,0.07,0.99,-3.0,-0.3,-0.2,420,0,39.539646,-122.332382,0.0,0.026,306.0,7,3,2.3,0,0.0,-1,0.0,,0.0,0
87881,1463878017175,,,,,,,0.02,0.07,1.0,-3.1,-0.2,-0.1,410,0,39.539646,-122.332382,0.0,0.026,306.0,7,3,2.3,0,0.0,-1,0.0,,0.0,0
87901,1463878017196,,,,30,,,0.02,0.07,1.0,-3.1,-0.2,-0.1,400,0,39.539646,-122.332382,0.0,0.026,306.0,7,3,2.3,0,0.0,-1,0.0,,0.0,0
87921,1463878017216,,,,,,,0.02,0.07,1.0,-3.0,-0.3,-0.1,410,0,39.539646,-122.332382,0.0,0.026,306.0,7,3,2.3,0,0.0,-1,0.0,,0.0,0
87941,1463878017235,,,,,,,0.01,0.06,1.0,-3.0,-0.3,-0.2,420,0,39.539646,-122.332382,0.0,0.026,306.0,7,3,2.3,0,0.0,-1,0.0,,0.0,0
87961,1463878017256,,,,,,,0.02,0.06,0.99,-3.0,-0.3,-0.2,430,0,39.539646,-122.332382,0.0,0.026,306.0,7,3,2.3,0,0.0,-1,0.0,,0.0,0
87981,1463878017275,,,,,,,0.02,0.06,0.99,-3.0,-0.3,-0.1,430,0,39.539646,-122.332382,0.0,0.026,306.0,7,3,2.3,0,0.0,-1,0.0,,0.0,0
88001,1463878017296,0.003,143,157,28,154,14.33,0.02,0.06,0.99,-3.1,-0.1,-0.1,440,0,39.539646,-122.332382,0.0,0.026,306.0,7,3,2.3,0,0.0,-1,0.0,0.0,0.0,0
88021,1463878017315,,,,,,,0.02,0.07,1.0,-3.1,-0.1,-0.0,450,0,39.539646,-122.332382,0.0,0.026,306.0,7,3,2.3,0,0.0,-1,0.0,,0.0,0
88041,1463878017336,,,,,,,0.02,0.08,1.0,-3.1,-0.2,0.0,450,0,39.539646,-122.332382,0.0,0.026,306.0,7,3,2.3,0,0.0,-1,0.0,,0.0,0
88061,1463878017355,,,,,,,0.02,0.08,1.01,-3.1,-0.2,-0.0,460,0,39.539646,-122.332382,0.0,0.026,306.0,7,3,2.3,0,0.0,-1,0.0,,0.0,0
88081,1463878017376,,,,,,,0.02,0.08,1.01,-3.1,-0.2,-0.1,470,0,39.539646,-122.332382,0.0,0.026,306.0,7,3,2.3,0,0.0,-1,0.0,,0.0,0
88101,1463878017396,,,,38,,,0.01,0.08,1.0,-3.0,-0.2,-0.2,490,0,39.539646,-122.332382,0.0,0.026,306.0,7,3,2.3,0,0.0,-1,0.0,,0.0,0
88121,1463878017416,,,,,,,0.01,0.07,1.0,-3.0,-0.2,-0.2,500,0,39.539646,-122.332382,0.0,0.026,306.0,7,3,2.3,0,0.0,-1,0.0,,0.0,0
88141,1463878017436,,,,,,,0.01,0.07,1.01,-3.0,-0.3,-0.1,510,0,39.539646,-122.332382,0.0,0.026,306.0,7,3,2.3,0,0.0,-1,0.0,,0.0,0
88161,1463878017456,,,,,,,0.0,0.07,1.01,-3.0,-0.2,-0.1,530,0,39.539646,-122.332382,0.0,0.026,306.0,7,3,2.3,0,0.0,-1,0.0,,0.0,0
88181,1463878017475,,,,,,,0.01,0.07,1.02,-3.0,-0.3,-0.1,540,0,39.539646,-122.332382,0.0,0.026,306.0,7,3,2.3,0,0.0,-1,0.0,,0.0,0
88201,1463878017496,0.003,143,157,46,154,,0.01,0.07,1.01,-3.0,-0.3,-0.0,570,0,39.539646,-122.332382,0.0,0.026,306.0,7,3,2.3,0,0.0,-1,0.0,0.0,0.0,0
88221,1463878017516,,,,,,,0.02,0.08,1.0,-3.0,-0.3,-0.0,580,0,39.539646,-122.332382,0.0,0.026,306.0,7,3,2.3,0,0.0,-1,0.0,,0.0,0
88241,1463878017536,,,,,,,0.01,0.06,0.99,-3.0,-0.3,-0.1,600,0,39.539646,-122.332382,0.0,0.026,306.0,7,3,2.3,0,0.0,-1,0.0,,0.0,0
88261,1463878017556,,,,,,,0.01,0.06,0.99,-3.0,-0.5,-0.1,610,0,39.539646,-122.332382,0.0,0.026,306.0,7,3,2.3,0,0.0,-1,0.0,,0.0,0
88281,1463878017575,,,,,,,0.02,0.07,1.0,-3.1,-0.4,-0.1,640,0,39.539646,-122.332382,0.0,0.026,306.0,7,3,2.3,0,0.0,-1,0.0,,0.0,0
88301,1463878017596,,,,47,,,0.02,0.07,0.99,-3.1,-0.4,-0.0,640,0,39.539646,-122.332382,0.0,0.026,306.0,7,3,2.3,0,0.0,-1,0.0,,0.0,0
88321,1463878017616,,,,,,,0.02,0.06,0.99,-3.1,-0.2,-0.1,660,0,39.539646,-122.332382,0.0,0.026,306.0,7,3,2.3,0,0.0,-1,0.0,,0.0,0
88341,1463878017636,,,,,,,0.02,0.07,0.98,-3.1,-0.2,-0.1,690,0,39.539646,-122.332382,0.0,0.026,306.0,7,3,2.3,0,0.0,-1,0.0,,0.0,0
88361,1463878017656,,,,,,,0.01,0.07,0.98,-3.1,-0.3,-0.1,700,0,39.539646,-122.332382,0.0,0.026,306.0,7,3,2.3,0,0.0,-1,0.0,,0.0,0
88381,1463878017675,,,,,,,0.02,0.07,0.99,-3.1,-0.3,-0.1,700,0,39.539646,-122.332382,0.0,0.026,306.0,7,3,2.3,0,0.0,-1,0.0,,0.0,0
88401,1463878017696,0.003,143,157,47,155,,0.02,0.07,1.0,-3.2,-0.0,-0.1,720,0,39.539646,-122.332382,0.0,0.026,306.0,7,3,2.3,0,0.0,-1,0.0,0.0,0.0,0
88421,1463878017715,,,,,,,0.02,0.07,0.99,-3.1,0.1,-0.1,740,0,39.539646,-122.332382,0.0,0.026,306.0,7,3,2.3,0,0.0,-1,0.0,,0.0,0
88441,1463878017736,,,,,,,0.03,0.07,1.02,-3.1,0.3,0.0,760,0,39.539646,-122.332382,0.0,0.026,306.0,7,3,2.3,0,0.0,-1,0.0,,0.0,0
88461,1463878017756,,,,,,,0.03,0.09,1.01,-3.1,0.3,-0.0,760,0,39.539646,-122.332382,0.0,0.026,306.0,7,3,2.3,0,0.0,-1,0.0,,0.0,0
88481,1463878017775,,,,,,,0.03,0.1,1.02,-3.1,0.3,0.0,770,0,39.539646,-122.332382,0.0,0.026,306.0,7,3,2.3,0,0.0,-1,0.0,,0.0,0
88501,1463878017796,,,,48,,,0.03,0.09,1.02,-3.1,0.3,0.0,790,0,39.539646,-122.332382,0.0,0.026,306.0,7,3,2.3,0,0.0,-1,0.0,,0.0,0
88521,1463878017816,,,,,,,0.02,0.09,1.01,-3.1,0.3,-0.0,800,0,39.539646,-122.332382,0.0,0.026,306.0,7,3,2.3,0,0.0,-1,0.0,,0.0,0
88541,1463878017836,,,,,,,0.02,0.09,1.0,-3.1,0.1,0.0,800,0,39.539646,-122.332382,0.0,0.026,306.0,7,3,2.3,0,0.0,-1,0.0,,0.0,0
88561,1463878017856,,,,,,,0.02,0.09,0.99,-3.0,0.0,-0.0,810,0,39.539646,-122.332382,0.0,0.026,306.0,7,3,2.3,0,0.0,-1,0.0,,0.0,0
88581,1463878017875,,,,,,,0.02,0.08,1.0,-3.0,0.1,-0.0,830,0,39.539646,-122.332382,0.0,0.026,306.0,7,3,2.3,0,0.0,-1,0.0,,0.0,0
88601,1463878017896,0.003,143,157,43,155,,0.02,0.08,0.99,-3.1,0.2,-0.0,820,0,39.539646,-122.332382,0.0,0.026,306.0,7,3,2.3,0,0.0,-1,0.0,0.0,0.0,0
88621,1463878017915,,,,,,,0.02,0.08,0.99,-3.0,0.0,-0.1,850,0,39.539646,-122.332382,0.0,0.026,306.0,7,3,2.3,0,0.0,-1,0.0,,0.0,0
88641,1463878017936,,,,,,,0.02,0.07,0.99,-3.0,-0.1,-0.1,860,0,39.539646,-122.332382,0.0,0.026,306.0,7,3,2.3,0,0.0,-1,0.0,,0.0,0
88661,1463878017954,,,,,,,0.02,0.07,0.99,-3.0,-0.0,-0.1,840,0,39.539646,-122.332382,0.0,0.026,306.0,7,3,2.3,0,0.0,-1,0.0,,0.0,0
88681,1463878017972,,,,,,,0.02,0.07,0.99,-3.0,-0.1,-0.1,850,0,39.539646,-122.332382,0.0,0.026,306.0,7,3,2.3,0,0.0,-1,0.0,,0.0,0
88701,1463878017996,,,,45,,,0.02,0.07,1.0,-3.0,-0.0,-0.1,860,0,39.539646,-122.332382,0.0,0.026,306.0,7,3,2.3,0,0.0,-1,0.0,,0.0,0
88721,1463878018016,,,,,,,0.02,0.07,0.99,-3.0,-0.1,-0.1,860,0,39.539646,-122.332382,0.0,0.026,306.0,7,3,2.3,0,0.0,-1,0.0,,0.0,0
88741,1463878018036,,,,,,,0.02,0.07,0.99,-3.1,0.0,-0.1,860,0,39.539646,-122.332382,0.0,0.026,306.0,7,3,2.3,0,0.0,-1,0.0,,0.0,0
88761,1463878018056,,,,,,,0.02,0.07,0.99,-3.1,-0.1,-0.1,860,0,39.539646,-122.332382,0.0,0.026,306.0,7,3,2.3,0,0.0,-1,0.0,,0.0,0
88781,1463878018075,,,,,,,0.02,0.06,0.99,-3.0,-0.2,-0.1,880,0,39.539646,-122.332382,0.0,0.026,306.0,7,3,2.3,0,0.0,-1,0.0,,0.0,0
88801,1463878018096,0.003,143,157,48,154,,0.02,0.06,1.0,-3.0,-0.1,-0.1,890,0,39.539646,-122.332382,0.0,0.026,306.0,7,3,2.3,0,0.0,-1,0.0,0.0,0.0,0
88821,1463878018116,,,,,,,0.02,0.07,0.99,-3.0,-0.1,-0.1,890,0,39.539646,-122.332382,0.0,0.026,306.0,7,3,2.3,0,0.0,-1,0.0,,0.0,0
88841,1463878018136,,,,,,,0.02,0.07,0.99,-3.1,-0.2,-0.1,890,0,39.539646,-122.332382,0.0,0.026,306.0,7,3,2.3,0,0.0,-1,0.0,,0.0,0
88861,1463878018156,,,,,,,0.02,0.06,1.0,-3.0,-0.2,-0.1,890,0,39.539646,-122.332382,0.0,0.026,306.0,7,3,2.3,0,0.0,-1,0.0,,0.0,0
88881,1463878018175,,,,,,,0.02,0.07,1.0,-3.0,-0.2,-0.1,890,0,39.539646,-122.332382,0.0,0.026,306.0,7,3,2.3,0,0.0,-1,0.0,,0.0,0
88901,1463878018196,,,,48,,,0.02,0.06,1.0,-3.1,-0.1,-0.1,890,0,39.539646,-122.332382,0.0,0.026,306.0,7,3,2.3,0,0.0,-1,0.0,,0.0,0
88921,1463878018216,,,,,,,0.02,0.06,1.0,-3.1,-0.0,-0.1,900,0,39.539646,-122.332382,0.0,0.026,306.0,7,3,2.3,0,0.0,-1,0.0,,0.0,0
88941,1463878018236,,,,,,,0.02,0.07,1.0,-3.1,-0.1,-0.1,890,0,39.539646,-122.332382,0.0,0.026,306.0,7,3,2.3,0,0.0,-1,0.0,,0.0,0
88961,1463878018256,,,,,,,0.02,0.06,0.99,-3.1,-0.2,-0.1,900,0,39.539646,-122.332382,0.0,0.026,306.0,7,3,2.3,0,0.0,-1,0.0,,0.0,0
88981,1463878018275,,,,,,,0.02,0.07,0.99,-3.1,-0.3,-0.1,910,0,39.539646,-122.332382,0.0,0.026,306.0,7,3,2.3,0,0.0,-1,0.0,,0.0,0
89001,1463878018296,0.003,143,157,48,155,14.38,0.02,0.07,0.98,-3.1,-0.1,-0.1,910,0,39.539646,-122.332382,0.0,0.026,306.0,7,3,2.3,0,0.0,-1,0.0,0.0,0.0,0
89021,1463878018316,,,,,,,0.02,0.06,0.98,-3.1,-0.2,-0.1,920,0,39.539646,-122.332382,0.0,0.026,306.0,7,3,2.3,0,0.0,-1,0.0,,0.0,0
89041,1463878018336,,,,,,,0.02,0.06,0.98,-3.1,-0.2,-0.1,930,0,39.539646,-122.332382,0.0,0.026,306.0,7,3,2.3,0,0.0,-1,0.0,,0.0,0
89061,1463878018356,,,,,,,0.02,0.05,0.98,-3.0,-0.3,-0.1,900,0,39.539646,-122.332382,0.0,0.026,306.0,7,3,2.3,0,0.0,-1,0.0,,0.0,0
89081,1463878018375,,,,,,,0.02,0.05,0.98,-3.1,-0.2,-0.0,900,0,39.539646,-122.332382,0.0,0.026,306.0,7,3,2.3,0,0.0,-1,0.0,,0.0,0
89101,1463878018396,,,,46,,,0.02,0.06,0.98,-3.0,-0.3,-0.0,920,0,39.539646,-122.332382,0.0,0.026,306.0,7,3,2.3,0,0.0,-1,0.0,,0.0,0
89121,1463878018416,,,,,,,0.02,0.06,0.97,-3.0,-0.3,0.0,940,0,39.539646,-122.332382,0.0,0.026,306.0,7,3,2.3,0,0.0,-1,0.0,,0.0,0
89141,1463878018436,,,,,,,0.02,0.06,0.97,-3.1,-0.2,0.0,930,0,39.539646,-122.332382,0.0,0.026,306.0,7,3,2.3,0,0.0,-1,0.0,,0.0,0
89161,1463878018456,,,,,,,0.02,0.06,0.97,-3.0,-0.2,-0.0,930,0,39.539646,-122.332382,0.0,0.026,306.0,7,3,2.3,0,0.0,-1,0.0,,0.0,0
89181,1463878018475,,,,,,,0.02,0.06,0.98,-3.0,-0.1,-0.0,930,0,39.539646,-122.332382,0.0,0.026,306.0,7,3,2.3,0,0.0,-1,0.0,,0.0,0
89201,1463878018496,0.233,143,157,48,154,,0.02,0.06,0.97,-3.0,-0.2,-0.1,920,0,39.539646,-122.332382,0.0,0.026,306.0,7,3,2.3,0,0.0,-1,0.0,0.0,0.0,0
89221,1463878018515,,,,,,,0.02,0.06,0.97,-3.0,-0.2,-0.1,920,0,39.539646,-122.332382,0.0,0.026,306.0,7,3,2.3,0,0.0,-1,0.0,,0.0,0
89241,1463878018536,,,,,,,0.02,0.06,0.98,-3.1,-0.3,-0.0,920,0,39.539646,-122.332382,0.0,0.026,306.0,7,3,2.3,0,0.0,-1,0.0,,0.0,0
89261,1463878018556,,,,,,,0.02,0.06,0.97,-3.0,-0.1,-0.0,930,0,39.539646,-122.332382,0.0,0.026,306.0,7,3,2.3,0,0.0,-1,0.0,,0.0,0
89281,1463878018575,,,,,,,0.02,0.06,0.97,-3.1,-0.2,-0.0,930,0,39.539646,-122.332382,0.0,0.026,306.0,7,3,2.3,0,0.0,-1,0.0,,0.0,0
89301,1463878018595,,,,52,,,0.02,0.07,0.97,-3.0,-0.2,0.0,920,0,39.539646,-122.332382,0.0,0.026,306.0,7,3,2.3,0,0.0,-1,0.0,,0.0,0
89321,1463878018616,,,,,,,0.02,0.06,0.98,-3.0,-0.2,-0.0,920,0,39.539646,-122.332382,0.0,0.026,306.0,7,3,2.3,0,0.0,-1,0.0,,0.0,0
89341,1463878018636,,,,,,,0.02,0.06,0.98,-3.0,-0.2,0.0,920,0,39.539646,-122.332382,0.0,0.026,306.0,7,3,2.3,0,0.0,-1,0.0,,0.0,0
89361,1463878018656,,,,,,,0.03,0.07,0.98,-3.0,-0.2,0.0,940,0,39.539646,-122.332382,0.0,0.026,306.0,7,3,2.3,0,0.0,-1,0.0,,0.0,0
89381,1463878018675,,,,,,,0.03,0.08,0.99,-3.0,-0.1,0.0,930,0,39.539646,-122.332382,0.0,0.026,306.0,7,3,2.3,0,0.0,-1,0.0,,0.0,0
89401,1463878018695,0.003,143,157,55,154,,0.02,0.08,0.99,-3.0,-0.1,0.0,920,0,39.539646,-122.332382,0.0,0.026,306.0,7,3,2.3,0,0.0,-1,0.0,0.0,0.0,0
89421,1463878018716,,,,,,,0.02,0.08,0.98,-3.0,-0.1,-0.0,930,0,39.539646,-122.332382,0.0,0.026,306.0,7,3,2.3,0,0.0,-1,0.0,,0.0,0
89441,1463878018736,,,,,,,0.02,0.08,0.98,-3.0,-0.0,-0.1,930,0,39.539646,-122.332382,0.0,0.026,306.0,7,3,2.3,0,0.0,-1,0.0,,0.0,0
89461,1463878018756,,,,,,,0.02,0.08,0.99,-3.0,0.0,-0.1,920,0,39.539646,-122.332382,0.0,0.026,306.0,7,3,2.3,0,0.0,-1,0.0,,0.0,0
89481,1463878018775,,,,,,,0.03,0.08,0.99,-3.0,-0.0,-0.1,920,0,39.539646,-122.332382,0.0,0.026,306.0,7,3,2.3,0,0.0,-1,0.0,,0.0,0
89501,1463878018796,,,,49,,,0.03,0.07,0.99,-3.0,-0.0,-0.1,940,0,39.539646,-122.332382,0.0,0.026,306.0,7,3,2.3,0,0.0,-1,0.0,,0.0,0
89521,1463878018816,,,,,,,0.02,0.07,0.98,-3.1,-0.2,-0.2,930,0,39.539646,-122.332382,0.0,0.026,306.0,7,3,2.3,0,0.0,-1,0.0,,0.0,0
89541,1463878018836,,,,,,,0.02,0.07,0.98,-3.1,-0.2,-0.2,940,0,39.539646,-122.332382,0.0,0.026,306.0,7,3,2.3,0,0.0,-1,0.0,,0.0,0
89561,1463878018856,,,,,,,0.02,0.07,0.98,-3.1,-0.2,-0.1,940,0,39.539646,-122.332382,0.0,0.026,306.0,7,3,2.3,0,0.0,-1,0.0,,0.0,0
89581,1463878018875,,,,,,,0.02,0.07,0.98,-3.1,0.0,-0.1,930,0,39.539646,-122.332382,0.0,0.026,306.0,7,3,2.3,0,0.0,-1,0.0,,0.0,0
89601,1463878018896,0.003,143,157,50,155,,0.02,0.06,0.97,-3.1,-0.0,-0.1,940,0,39.539646,-122.332382,0.0,0.026,306.0,7,3,2.3,0,0.0,-1,0.0,0.0,0.0,0
89621,1463878018914,,,,,,,0.02,0.06,0.97,-3.0,-0.1,-0.1,940,0,39.539646,-122.332382,0.0,0.026,306.0,7,3,2.3,0,0.0,-1,0.0,,0.0,0
89641,1463878018936,,,,,,,0.02,0.06,0.98,-3.0,-0.1,-0.1,940,0,39.539646,-122.332382,0.0,0.026,306.0,7,3,2.3,0,0.0,-1,0.0,,0.0,0
89661,1463878018956,,,,,,,0.02,0.07,0.97,-3.1,-0.1,-0.0,910,0,39.539646,-122.332382,0.0,0.026,306.0,7,3,2.3,0,0.0,-1,0.0,,0.0,0
89681,1463878018972,,,,,,,0.02,0.07,0.98,-3.0,-0.1,-0.0,930,0,39.539646,-122.332382,0.0,0.026,306.0,7,3,2.3,0,0.0,-1,0.0,,0.0,0
89701,1463878018996,,,,48,,,0.02,0.08,0.98,-3.0,-0.0,-0.0,920,0,39.539646,-122.332382,0.0,0.026,306.0,7,3,2.3,0,0.0,-1,0.0,,0.0,0
89721,1463878019016,,,,,,,0.02,0.08,0.98,-3.0,0.0,-0.0,930,0,39.539646,-122.332382,0.0,0.026,306.0,7,3,2.3,0,0.0,-1,0.0,,0.0,0
89741,1463878019036,,,,,,,0.02,0.08,0.99,-3.0,0.1,-0.0,920,0,39.539646,-122.332382,0.0,0.026,306.0,7,3,2.3,0,0.0,-1,0.0,,0.0,0
89761,1463878019056,,,,,,,0.02,0.07,0.99,-3.0,0.2,0.0,920,0,39.539646,-122.332382,0.0,0.026,306.0,7,3,2.3,0,0.0,-1,0.0,,0.0,0
89781,1463878019075,,,,,,,0.02,0.08,0.99,-3.0,0.0,-0.0,930,0,39.539646,-122.332382,0.0,0.026,306.0,7,3,2.3,0,0.0,-1,0.0,,0.0,0
89801,1463878019096,0.464,143,157,48,155,,0.02,0.07,0.98,-3.0,-0.0,-0.1,930,0,39.539646,-122.332382,0.0,0.026,306.0,7,3,2.3,0,0.0,-1,0.0,0.0,0.0,0
89821,1463878019116,,,,,,,0.02,0.07,0.98,-3.0,-0.1,-0.1,910,0,39.539646,-122.332382,0.0,0.026,306.0,7,3,2.3,0,0.0,-1,0.0,,0.0,0
89841,1463878019136,,,,,,,0.02,0.07,0.99,-3.0,0.1,0.0,900,0,39.539646,-122.332382,0.0,0.026,306.0,7,3,2.3,0,0.0,-1,0.0,,0.0,0
89861,1463878019156,,,,,,,0.02,0.07,0.98,-3.0,0.0,0.0,900,0,39.539646,-122.332382,0.0,0.026,306.0,7,3,2.3,0,0.0,-1,0.0,,0.0,0
89881,1463878019175,,,,,,,0.02,0.07,0.98,-3.0,-0.2,0.0,910,0,39.539646,-122.332382,0.0,0.026,306.0,7,3,2.3,0,0.0,-1,0.0,,0.0,0
89901,1463878019196,,,,52,,,0.03,0.06,0.98,-3.0,-0.2,-0.0,910,0,39.539646,-122.332382,0.0,0.026,306.0,7,3,2.3,0,0.0,-1,0.0,,0.0,0
89921,1463878019216,,,,,,,0.03,0.06,0.99,-3.0,-0.2,-0.0,890,0,39.539646,-122.332382,0.0,0.026,306.0,7,3,2.3,0,0.0,-1,0.0,,0.0,0
89941,1463878019236,,,,,,,0.03,0.07,0.98,-3.0,-0.3,-0.0,880,0,39.539646,-122.332382,0.0,0.026,306.0,7,3,2.3,0,0.0,-1,0.0,,0.0,0
89961,1463878019256,,,,,,,0.02,0.06,0.99,-3.1,-0.3,-0.0,880,0,39.539646,-122.332382,0.0,0.026,306.0,7,3,2.3,0,0.0,-1,0.0,,0.0,0
89981,1463878019276,,,,,,,0.03,0.07,0.99,-3.1,-0.3,-0.0,880,0,39.539646,-122.332382,0.0,0.026,306.0,7,3,2.3,0,0.0,-1,0.0,,0.0,0
90001,1463878019296,0.328,143,157,50,155,14.37,0.03,0.07,0.99,-3.2,-0.4,-0.1,890,0,39.539646,-122.332382,0.0,0.026,306.0,7,3,2.3,0,0.0,-1,0.0,0.0,0.0,0
90021,1463878019316,,,,,,,0.03,0.07,0.99,-3.2,-0.4,-0.0,880,0,39.539646,-122.332382,0.0,0.026,306.0,7,3,2.3,0,0.0,-1,0.0,,0.0,0
90041,1463878019336,,,,,,,0.03,0.06,0.98,-3.2,-0.3,-0.0,880,0,39.539646,-122.332382,0.0,0.026,306.0,7,3,2.3,0,0.0,-1,0.0,,0.0,0
90061,1463878019356,,,,,,,0.03,0.07,0.98,-3.2,-0.3,-0.0,890,0,39.539646,-122.332382,0.0,0.026,306.0,7,3,2.3,0,0.0,-1,0.0,,0.0,0
90081,1463878019375,,,,,,,0.03,0.07,0.97,-3.2,-0.4,-0.0,900,0,39.539646,-122.332382,0.0,0.026,306.0,7,3,2.3,0,0.0,-1,0.0,,0.0,0
90101,1463878019396,,,,51,,,0.03,0.06,0.98,-3.2,-0.4,-0.1,880,0,39.539646,-122.332382,0.0,0.026,306.0,7,3,2.3,0,0.0,-1,0.0,,0.0,0
90121,1463878019416,,,,,,,0.03,0.06,0.99,-3.2,-0.4,-0.1,880,0,39.539646,-122.332382,0.0,0.026,306.0,7,3,2.3,0,0.0,-1,0.0,,0.0,0
90141,1463878019436,,,,,,,0.03,0.06,0.99,-3.3,-0.4,-0.1,870,0,39.539646,-122.332382,0.0,0.026,306.0,7,3,2.3,0,0.0,-1,0.0,,0.0,0
90161,1463878019456,,,,,,,0.03,0.06,1.0,-3.3,-0.3,-0.1,880,0,39.539646,-122.332382,0.0,0.026,306.0,7,3,2.3,0,0.0,-1,0.0,,0.0,0
90181,1463878019475,,,,,,,0.03,0.06,0.99,-3.3,-0.4,-0.1,870,0,39.539646,-122.332382,0.0,0.026,306.0,7,3,2.3,0,0.0,-1,0.0,,0.0,0
90201,1463878019496,0.001,143,158,51,154,,0.03,0.05,0.99,-3.3,-0.3,-0.1,900,0,39.539646,-122.332382,0.0,0.026,306.0,7,3,2.3,0,0.0,-1,0.0,0.0,0.0,0
90221,1463878019515,,,,,,,0.03,0.06,0.99,-3.3,-0.2,-0.0,890,0,39.539646,-122.332382,0.0,0.026,306.0,7,3,2.3,0,0.0,-1,0.0,,0.0,0
90241,1463878019536,,,,,,,0.03,0.05,0.99,-3.3,-0.1,-0.0,880,0,39.539646,-122.332382,0.0,0.026,306.0,7,3,2.3,0,0.0,-1,0.0,,0.0,0
90261,1463878019556,,,,,,,0.03,0.05,1.0,-3.3,-0.1,-0.1,870,0,39.539646,-122.332382,0.0,0.026,306.0,7,3,2.3,0,0.0,-1,0.0,,0.0,0
90281,1463878019575,,,,,,,0.04,0.05,1.0,-3.4,-0.0,-0.1,880,0,39.539646,-122.332382,0.0,0.026,306.0,7,3,2.3,0,0.0,-1,0.0,,0.0,0
90301,1463878019596,,,,49,,,0.04,0.06,1.02,-3.4,0.0,-0.1,900,0,39.539646,-122.332382,0.0,0.026,306.0,7,3,2.3,0,0.0,-1,0.0,,0.0,0
90321,1463878019616,,,,,,,0.04,0.06,1.01,-3.4,-0.1,-0.0,880,0,39.539646,-122.332382,0.0,0.026,306.0,7,3,2.3,0,0.0,-1,0.0,,0.0,0
90341,1463878019636,,,,,,,0.04,0.06,1.01,-3.4,0.0,-0.0,880,0,39.539646,-122.332382,0.0,0.026,306.0,7,3,2.3,0,0.0,-1,0.0,,0.0,0
90361,1463878019655,,,,,,,0.05,0.07,1.01,-3.5,0.0,-0.0,890,15,39.539646,-122.332382,0.0,0.026,306.0,7,3,2.3,0,0.0,-1,0.0,,0.0,0
90381,1463878019675,,,,,,,0.04,0.06,1.0,-3.5,-0.2,-0.0,900,15,39.539646,-122.332382,0.0,0.026,306.0,7,3,2.3,0,0.0,-1,0.0,,0.0,0
90401,1463878019696,0.003,143,158,48,155,,0.05,0.06,1.02,-3.5,-0.0,-0.0,900,15,39.539646,-122.332382,0.0,0.026,306.0,7,3,2.3,0,0.0,-1,0.0,0.0,0.0,0
90421,1463878019716,,,,,,,0.05,0.06,1.01,-3.6,0.1,0.0,900,15,39.539646,-122.332382,0.0,0.026,306.0,7,3,2.3,0,0.0,-1,0.0,,0.0,0
90441,1463878019736,,,,,,,0.05,0.07,1.01,-3.6,0.1,-0.0,900,13,39.539646,-122.332382,0.0,0.026,306.0,7,3,2.3,0,0.0,-1,0.0,,0.0,0
90461,1463878019756,,,,,,,0.05,0.07,1.02,-3.6,0.1,-0.0,900,13,39.539646,-122.332382,0.0,0.026,306.0,7,3,2.3,0,0.0,-1,0.0,,0.0,0
90481,1463878019775,,,,,,,0.06,0.07,1.02,-3.7,0.2,0.0,890,13,39.539646,-122.332382,0.0,0.026,306.0,7,3,2.3,0,0.0,-1,0.0,,0.0,0
90501,1463878019796,,,,50,,,0.06,0.08,1.02,-3.7,0.1,0.0,900,13,39.539646,-122.332382,0.0,0.026,306.0,7,3,2.3,0,0.0,-1,0.0,,0.0,0
90521,1463878019815,,,,,,,0.05,0.08,1.02,-3.7,-0.0,-0.0,910,18,39.539646,-122.332382,0.0,0.026,306.0,7,3,2.3,0,0.0,-1,0.0,,0.0,0
90541,1463878019836,,,,,,,0.05,0.08,1.03,-3.8,0.1,-0.0,920,18,39.539646,-122.332382,0.0,0.026,306.0,7,3,2.3,0,0.0,-1,0.0,,0.0,0
90561,1463878019856,,,,,,,0.06,0.09,1.02,-3.8,0.2,-0.0,940,18,39.539646,-122.332382,0.0,0.026,306.0,7,3,2.3,0,0.0,-1,0.0,,0.0,0
90581,1463878019875,,,,,,,0.06,0.08,1.01,-3.8,0.0,-0.0,910,20,39.539646,-122.332382,0.0,0.026,306.0,7,3,2.3,0,0.0,-1,0.0,,0.0,0
90601,1463878019896,0.422,143,157,52,155,,0.05,0.08,1.01,-3.8,-0.0,-0.0,920,20,39.539646,-122.332382,0.0,0.026,306.0,7,3,2.3,0,0.0,-1,0.0,0.0,0.0,0
90621,1463878019916,,,,,,,0.05,0.07,1.0,-3.9,-0.1,-0.0,940,20,39.539646,-122.332382,0.0,0.026,306.0,7,3,2.3,0,0.0,-1,0.0,,0.0,0
90641,1463878019936,,,,,,,0.04,0.07,1.01,-3.9,0.0,0.0,950,20,39.539646,-122.332382,0.0,0.026,306.0,7,3,2.3,0,0.0,-1,0.0,,0.0,0
90661,1463878019956,,,,,,,0.04,0.08,1.02,-3.9,0.0,0.1,960,23,39.539646,-122.332382,0.0,0.026,306.0,7,3,2.3,0,0.0,-1,0.0,,0.0,0
90681,1463878019972,,,,,,,0.05,0.09,1.01,-3.9,0.1,0.1,970,23,39.539646,-122.332382,0.0,0.026,306.0,7,3,2.3,0,0.0,-1,0.0,,0.0,0
90701,1463878019996,,,,48,,,0.05,0.1,1.0,-4.0,0.1,0.0,970,27,39.539646,-122.332382,0.0,0.026,306.0,7,3,2.3,0,0.0,-1,0.0,,0.0,0
90721,1463878020016,,,,,,,0.05,0.09,1.0,-4.1,0.1,-0.1,980,27,39.539646,-122.332382,0.0,0.026,306.0,7,3,2.3,0,0.0,-1,0.0,,0.0,0
90741,1463878020036,,,,,,,0.06,0.08,1.0,-4.1,0.0,-0.1,990,27,39.539646,-122.332382,0.0,0.026,306.0,7,3,2.3,0,0.0,-1,0.0,,0.0,0
90761,1463878020056,,,,,,,0.06,0.08,1.0,-4.1,0.1,-0.1,990,27,39.539646,-122.332382,0.0,0.026,306.0,7,3,2.3,0,0.0,-1,0.0,,0.0,0
90781,1463878020076,,,,,,,0.07,0.07,1.01,-4.2,0.2,-0.2,960,27,39.539646,-122.332382,0.0,0.026,306.0,7,3,2.3,0,0.0,-1,0.0,,0.0,0
90801,1463878020096,0.001,143,158,53,154,,0.07,0.07,1.0,-4.3,0.2,-0.2,980,30,39.539646,-122.332382,0.0,0.026,306.0,7,3,2.3,0,0.0,-1,0.0,0.0,0.0,0
90821,1463878020116,,,,,,,0.08,0.06,1.0,-4.3,0.2,-0.2,990,30,39.539646,-122.332382,0.0,0.026,306.0,7,3,2.3,0,0.0,-1,0.0,,0.0,0
90841,1463878020136,,,,,,,0.08,0.06,1.01,-4.3,0.3,-0.3,980,30,39.539646,-122.332382,0.0,0.026,306.0,7,3,2.3,0,0.0,-1,0.0,,0.0,0
90861,1463878020156,,,,,,,0.08,0.07,0.99,-4.3,0.2,-0.2,1000,30,39.539646,-122.332382,0.0,0.026,306.0,7,3,2.3,0,0.0,-1,0.0,,0.0,0
90881,1463878020175,,,,,,,0.08,0.07,1.0,-4.3,0.2,-0.3,1010,30,39.539646,-122.332382,0.0,0.026,306.0,7,3,2.3,0,0.0,-1,0.0,,0.0,0
90901,1463878020196,,,,50,,,0.09,0.07,1.01,-4.4,0.3,-0.3,1010,35,39.539646,-122.332382,0.0,0.026,306.0,7,3,2.3,0,0.0,-1,0.0,,0.0,0
90921,1463878020216,,,,,,,0.09,0.08,1.0,-4.4,0.1,-0.2,1020,35,39.539646,-122.332382,0.0,0.026,306.0,7,3,2.3,0,0.0,-1,0.0,,0.0,0
90941,1463878020236,,,,,,,0.1,0.08,0.98,-4.4,0.1,-0.2,1030,32,39.539646,-122.332382,0.0,0.026,306.0,7,3,2.3,0,0.0,-1,0.0,,0.0,0
90961,1463878020255,,,,,,,0.1,0.07,0.97,-4.4,0.2,-0.2,1060,32,39.539646,-122.332382,0.0,0.026,306.0,7,3,2.3,0,0.0,-1,0.0,,0.0,0
90981,1463878020275,,,,,,,0.1,0.07,0.98,-4.5,0.4,-0.2,1030,36,39.539646,-122.332382,0.0,0.026,306.0,7,3,2.3,0,0.0,-1,0.0,,0.0,0
91001,1463878020296,0.025,143,157,50,155,14.28,0.09,0.08,0.99,-4.6,0.7,-0.2,1050,36,39.539646,-122.332382,0.0,0.026,306.0,7,3,2.3,0,0.0,-1,0.0,0.0,0.0,0
91021,1463878020316,,,,,,,0.08,0.08,1.0,-4.6,0.6,-0.1,1060,35,39.539646,-122.332382,0.0,0.026,306.0,7,3,2.3,0,0.0,-1,0.0,,0.0,0
91041,1463878020336,,,,,,,0.07,0.08,1.0,-4.6,0.4,-0.1,1090,35,39.539646,-122.332382,0.0,0.026,306.0,7,3,2.3,0,0.0,-1,0.0,,0.0,0
91061,1463878020356,,,,,,,0.06,0.07,1.0,-4.6,0.1,-0.1,1070,36,39.539646,-122.332382,0.0,0.026,306.0,7,3,2.3,0,0.0,-1,0.0,,0.0,0
91081,1463878020375,,,,,,,0.06,0.08,1.0,-4.7,0.0,-0.0,1080,36,39.539646,-122.332382,0.0,0.026,306.0,7,3,2.3,0,0.0,-1,0.0,,0.0,0
91101,1463878020396,,,,49,,,0.07,0.09,0.98,-4.7,0.0,0.0,1110,38,39.539646,-122.332382,0.0,0.026,306.0,7,3,2.3,0,0.0,-1,0.0,,0.0,0
91121,1463878020416,,,,,,,0.06,0.09,0.99,-4.7,0.2,0.1,1090,38,39.539646,-122.332382,0.0,0.026,306.0,7,3,2.3,0,0.0,-1,0.0,,0.0,0
91141,1463878020436,,,,,,,0.06,0.1,0.98,-4.7,0.2,0.1,1130,38,39.539646,-122.332382,0.0,0.026,306.0,7,3,2.3,0,0.0,-1,0.0,,0.0,0
91161,1463878020456,,,,,,,0.05,0.09,0.99,-4.7,0.0,0.1,1100,38,39.539646,-122.332382,0.0,0.026,306.0,7,3,2.3,0,0.0,-1,0.0,,0.0,0
91181,1463878020475,,,,,,,0.04,0.08,1.01,-4.7,-0.0,-0.0,1120,40,39.539646,-122.332382,0.0,0.026,306.0,7,3,2.3,0,0.0,-1,0.0,,0.0,0
91201,1463878020496,0.058,143,157,55,154,,0.06,0.1,1.01,-4.8,0.1,-0.0,1140,40,39.539646,-122.332382,0.0,0.026,306.0,7,3,2.3,0,0.0,-1,0.0,0.0,0.0,0
91221,1463878020521,,,,,,,0.05,0.09,1.01,-4.7,0.1,-0.0,1130,40,39.539646,-122.332382,0.0,0.026,306.0,7,3,2.3,0,0.0,-1,0.0,,0.0,0
91241,1463878020545,,,,,,,0.04,0.09,1.01,-4.7,0.0,-0.0,1160,40,39.539646,-122.332382,0.0,0.026,306.0,7,3,2.3,0,0.0,-1,0.0,,0.0,0
91261,1463878020565,,,,,,,0.04,0.08,1.01,-4.8,-0.2,-0.1,1160,40,39.539646,-122.332382,0.0,0.026,306.0,7,3,2.3,0,0.0,-1,0.0,,0.0,0
91281,1463878020584,,,,,,,0.05,0.08,1.02,-4.8,-0.1,-0.0,1120,41,39.539646,-122.332382,0.0,0.026,306.0,7,3,2.3,0,0.0,-1,0.0,,0.0,0
91301,1463878020605,,,,51,,,0.05,0.08,1.01,-4.9,0.1,0.0,1140,41,39.539646,-122.332382,0.0,0.026,306.0,7,3,2.3,0,0.0,-1,0.0,,0.0,0
91321,1463878020625,,,,,,,0.04,0.07,1.03,-4.8,-0.1,0.1,1130,41,39.539646,-122.332382,0.0,0.026,306.0,7,3,2.3,0,0.0,-1,0.0,,0.0,0
91341,1463878020645,,,,,,,0.04,0.07,1.01,-4.8,-0.1,0.1,1140,41,39.539646,-122.332382,0.0,0.026,306.0,7,3,2.3,0,0.0,-1,0.0,,0.0,0
91361,1463878020665,,,,,,,0.04,0.08,1.02,-4.8,0.0,0.1,1160,41,39.539646,-122.332382,0.0,0.026,306.0,7,3,2.3,0,0.0,-1,0.0,,0.0,0
91381,1463878020684,,,,,,,0.04,0.07,1.02,-4.9,0.0,0.1,1150,43,39.539646,-122.332382,0.0,0.026,306.0,7,3,2.3,0,0.0,-1,0.0,,0.0,0
91401,1463878020705,0.003,143,158,52,155,,0.04,0.08,1.01,-4.9,-0.1,0.1,1140,43,39.539646,-122.332382,0.0,0.026,306.0,7,3,2.3,0,0.0,-1,0.0,0.0,0.0,0
91421,1463878020725,,,,,,,0.04,0.08,1.03,-4.9,0.1,0.1,1150,43,39.539646,-122.332382,0.0,0.026,306.0,7,3,2.3,0,0.0,-1,0.0,,0.0,0
91441,1463878020745,,,,,,,0.05,0.08,1.02,-4.9,0.1,0.1,1130,43,39.539646,-122.332382,0.0,0.026,306.0,7,3,2.3,0,0.0,-1,0.0,,0.0,0
91461,1463878020765,,,,,,,0.04,0.08,1.02,-4.9,-0.1,0.0,1140,43,39.539646,-122.332382,0.0,0.026,306.0,7,3,2.3,0,0.0,-1,0.0,,0.0,0
91481,1463878020784,,,,,,,0.04,0.08,1.02,-4.9,-0.0,0.1,1160,43,39.539646,-122.332382,0.0,0.026,306.0,7,3,2.3,0,0.0,-1,0.0,,0.0,0
91501,1463878020805,,,,54,,,0.04,0.08,1.01,-4.9,0.0,0.1,1180,43,39.539646,-122.332382,0.0,0.026,306.0,7,3,2.3,0,0.0,-1,0.0,,0.0,0
91521,1463878020825,,,,,,,0.04,0.08,1.01,-4.9,-0.1,0.0,1150,44,39.539646,-122.332382,0.0,0.026,306.0,7,3,2.3,0,0.0,-1,0.0,,0.0,0
91541,1463878020843,,,,,,,0.04,0.08,1.02,-5.0,-0.1,0.1,1160,44,39.539646,-122.332382,0.0,0.026,306.0,7,3,2.3,0,0.0,-1,0.0,,0.0,0
91561,1463878020865,,,,,,,0.04,0.08,1.0,-5.0,0.0,0.1,1150,44,39.539646,-122.332382,0.0,0.026,306.0,7,3,2.3,0,0.0,-1,0.0,,0.0,0
91581,1463878020885,,,,,,,0.04,0.07,1.02,-4.9,-0.1,0.1,1140,44,39.539646,-122.332382,0.0,0.026,306.0,7,3,2.3,0,0.0,-1,0.0,,0.0,0
91601,1463878020905,0.496,143,157,49,155,,0.04,0.08,1.02,-4.9,-0.1,0.1,1150,44,39.539646,-122.332382,0.0,0.026,306.0,7,3,2.3,0,0.0,-1,0.0,0.0,0.0,0
91621,1463878020925,,,,,,,0.04,0.07,1.01,-5.0,0.0,0.1,1150,44,39.539646,-122.332382,0.0,0.026,306.0,7,3,2.3,0,0.0,-1,0.0,,0.0,0
91641,1463878020945,,,,,,,0.03,0.06,1.02,-5.0,-0.1,0.1,1150,44,39.539646,-122.332382,0.0,0.026,306.0,7,3,2.3,0,0.0,-1,0.0,,0.0,0
91661,1463878020965,,,,,,,0.03,0.08,1.01,-5.0,-0.1,0.1,1170,44,39.539646,-122.332382,0.0,0.026,306.0,7,3,2.3,0,0.0,-1,0.0,,0.0,0
91681,1463878020981,,,,,,,0.03,0.07,0.98,-5.0,-0.0,0.1,1170,44,39.539646,-122.332382,0.0,0.026,306.0,7,3,2.3,0,0.0,-1,0.0,,0.0,0
91701,1463878021005,,,,59,,,0.02,0.07,1.0,-5.0,-0.1,0.0,1190,44,39.539646,-122.332382,0.0,0.026,306.0,7,3,2.3,0,0.0,-1,0.0,,0.0,0
91721,1463878021025,,,,,,,0.02,0.08,1.0,-5.0,-0.1,0.0,1160,44,39.539646,-122.332382,0.0,0.026,306.0,7,3,2.3,0,0.0,-1,0.0,,0.0,0
91741,1463878021045,,,,,,,0.02,0.08,0.98,-5.0,0.0,0.0,1150,44,39.539646,-122.332382,0.0,0.026,306.0,7,3,2.3,0,0.0,-1,0.0,,0.0,0
91761,1463878021065,,,,,,,0.02,0.07,0.99,-5.0,-0.1,0.1,1150,46,39.539646,-122.332382,0.0,0.026,306.0,7,3,2.3,0,0.0,-1,0.0,,0.0,0
91781,1463878021084,,,,,,,0.03,0.07,1.0,-5.0,-0.1,0.2,1170,46,39.539646,-122.332382,0.0,0.026,306.0,7,3,2.3,0,0.0,-1,0.0,,0.0,0
91801,1463878021105,0.003,143,157,49,155,,0.03,0.07,0.98,-5.0,0.2,0.1,1190,44,39.539646,-122.332382,0.0,0.026,306.0,7,3,2.3,0,0.0,-1,0.0,0.0,0.0,0
91821,1463878021125,,,,,,,0.02,0.07,1.0,-5.0,0.1,0.1,1170,46,39.539646,-122.332382,0.0,0.026,306.0,7,3,2.3,0,0.0,-1,0.0,,0.0,0
91841,1463878021145,,,,,,,0.02,0.07,0.99,-5.0,0.1,0.2,1150,46,39.539646,-122.332382,0.0,0.026,306.0,7,3,2.3,0,0.0,-1,0.0,,0.0,0
91861,1463878021165,,,,,,,0.03,0.08,0.99,-5.0,0.2,0.2,1150,46,39.539646,-122.332382,0.0,0.026,306.0,7,3,2.3,0,0.0,-1,0.0,,0.0,0
91881,1463878021184,,,,,,,0.02,0.07,1.02,-5.0,0.1,0.1,1160,46,39.539646,-122.332382,0.0,0.026,306.0,7,3,2.3,0,0.0,-1,0.0,,0.0,0
91901,1463878021205,,,,54,,,0.02,0.08,1.0,-5.0,-0.1,0.1,1170,46,39.539646,-122.332382,0.0,0.026,306.0,7,3,2.3,0,0.0,-1,0.0,,0.0,0
91921,1463878021225,,,,,,,0.02,0.07,0.99,-5.0,0.1,0.1,1160,46,39.539646,-122.332382,0.0,0.026,306.0,7,3,2.3,0,0.0,-1,0.0,,0.0,0
91941,1463878021245,,,,,,,0.03,0.07,1.0,-4.9,-0.0,0.1,1150,46,39.539646,-122.332382,0.0,0.026,306.0,7,3,2.3,0,0.0,-1,0.0,,0.0,0
91961,1463878021265,,,,,,,0.03,0.06,0.99,-4.9,-0.0,0.1,1190,47,39.539646,-122.332382,0.0,0.026,306.0,7,3,2.3,0,0.0,-1,0.0,,0.0,0
91981,1463878021284,,,,,,,0.03,0.07,0.99,-4.9,0.1,0.1,1170,47,39.539646,-122.332382,0.0,0.026,306.0,7,3,2.3,0,0.0,-1,0.0,,0.0,0
92001,1463878021305,0.003,143,158,50,155,14.41,0.03,0.05,1.0,-4.9,-0.0,0.0,1170,47,39.539646,-122.332382,0.0,0.026,306.0,7,3,2.3,0,0.0,-1,0.0,0.0,0.0,0
92021,1463878021325,,,,,,,0.03,0.07,0.99,-5.0,-0.1,0.1,1190,47,39.539646,-122.332382,0.0,0.026,306.0,7,3,2.3,0,0.0,-1,0.0,,0.0,0
92041,1463878021345,,,,,,,0.02,0.07,0.98,-5.0,-0.0,0.1,1170,47,39.539646,-122.332382,0.0,0.026,306.0,7,3,2.3,0,0.0,-1,0.0,,0.0,0
92061,1463878021365,,,,,,,0.02,0.07,1.01,-5.0,-0.0,0.0,1150,47,39.539646,-122.332382,0.0,0.026,306.0,7,3,2.3,0,0.0,-1,0.0,,0.0,0
92081,1463878021384,,,,,,,0.02,0.07,0.99,-5.0,-0.1,0.1,1160,47,39.539646,-122.332382,0.0,0.026,306.0,7,3,2.3,0,0.0,-1,0.0,,0.0,0
92101,1463878021405,,,,50,,,0.02,0.07,0.99,-5.0,0.0,0.1,1180,47,39.539646,-122.332382,0.0,0.026,306.0,7,3,2.3,0,0.0,-1,0.0,,0.0,0
92121,1463878021425,,,,,,,0.02,0.06,1.0,-4.9,-0.1,0.1,1150,49,39.539646,-122.332382,0.0,0.026,306.0,7,3,2.3,0,0.0,-1,0.0,,0.0,0
92141,1463878021445,,,,,,,0.03,0.07,0.99,-4.9,-0.0,0.2,1200,49,39.539646,-122.332382,0.0,0.026,306.0,7,3,2.3,0,0.0,-1,0.0,,0.0,0
92161,1463878021465,,,,,,,0.02,0.06,0.98,-4.9,0.0,0.2,1150,49,39.539646,-122.332382,0.0,0.026,306.0,7,3,2.3,0,0.0,-1,0.0,,0.0,0
92181,1463878021484,,,,,,,0.02,0.06,1.0,-4.9,-0.1,0.1,1150,49,39.539646,-122.332382,0.0,0.026,306.0,7,3,2.3,0,0.0,-1,0.0,,0.0,0
92201,1463878021505,0.368,143,158,54,155,,0.02,0.07,0.99,-4.9,-0.1,0.2,1160,49,39.539631,-122.332382,0.94,0.028,310.4,7,3,2.3,0,0.0,-1,0.0,0.0,0.0,0
92221,1463878021525,,,,,,,0.02,0.07,0.99,-4.9,0.1,0.2,1160,49,39.539631,-122.332382,0.95,0.028,310.4,7,3,2.3,0,0.0,-1,0.0,,0.0,0
92241,1463878021545,,,,,,,0.02,0.07,1.0,-4.9,-0.1,0.1,1170,49,39.539631,-122.332382,0.93,0.028,310.4,7,3,2.3,0,0.0,-1,0.0,,0.0,0
92261,1463878021565,,,,,,,0.03,0.07,1.01,-4.9,-0.0,0.1,1130,49,39.539631,-122.332382,0.0,0.028,310.4,7,3,2.3,0,0.0,-1,0.0,,0.0,0
92281,1463878021584,,,,,,,0.02,0.06,1.0,-4.9,0.1,0.2,1170,49,39.539631,-122.332382,0.0,0.028,310.4,7,3,2.3,0,0.0,-1,0.0,,0.0,0
92301,1463878021605,,,,49,,,0.02,0.07,1.01,-4.9,0.1,0.1,1170,49,39.539631,-122.332382,0.0,0.028,310.4,7,3,2.3,0,0.0,-1,0.0,,0.0,0
92321,1463878021625,,,,,,,0.03,0.08,1.01,-4.9,-0.1,0.1,1160,49,39.539631,-122.332382,0.0,0.028,310.4,7,3,2.3,0,0.0,-1,0.0,,0.0,0
92341,1463878021645,,,,,,,0.03,0.07,1.01,-4.9,0.1,0.1,1170,50,39.539631,-122.332382,0.0,0.028,310.4,7,3,2.3,0,0.0,-1,0.0,,0.0,0
92361,1463878021665,,,,,,,0.02,0.07,0.99,-4.9,-0.1,0.0,1150,50,39.539631,-122.332382,0.0,0.028,310.4,7,3,2.3,0,0.0,-1,0.0,,0.0,0
92381,1463878021684,,,,,,,0.03,0.07,0.99,-4.9,-0.1,0.0,1150,50,39.539631,-122.332382,0.0,0.028,310.4,7,3,2.3,0,0.0,-1,0.0,,0.0,0
92401,1463878021705,0.003,143,157,55,155,,0.03,0.07,0.99,-4.9,-0.2,0.1,1170,50,39.539631,-122.332382,0.0,0.028,310.4,7,3,2.3,0,0.0,-1,0.0,0.0,0.0,0
92421,1463878021725,,,,,,,0.03,0.07,0.98,-4.9,-0.2,0.1,1160,52,39.539631,-122.332382,0.0,0.028,310.4,7,3,2.3,0,0.0,-1,0.0,,0.0,0
92441,1463878021745,,,,,,,0.03,0.07,0.99,-4.9,-0.1,0.0,1180,52,39.539631,-122.332382,0.0,0.028,310.4,7,3,2.3,0,0.0,-1,0.0,,0.0,0
92461,1463878021765,,,,,,,0.03,0.06,1.0,-5.0,-0.1,0.0,1190,52,39.539631,-122.332382,0.0,0.028,310.4,7,3,2.3,0,0.0,-1,0.0,,0.0,0
92481,1463878021784,,,,,,,0.03,0.08,1.0,-5.0,-0.1,0.0,1150,52,39.539631,-122.332382,0.0,0.028,310.4,7,3,2.3,0,0.0,-1,0.0,,0.0,0
92501,1463878021803,,,,45,,,0.03,0.08,1.0,-5.0,-0.0,-0.0,1170,52,39.539631,-122.332382,0.0,0.028,310.4,7,3,2.3,0,0.0,-1,0.0,,0.0,0
92521,1463878021825,,,,,,,0.03,0.07,1.01,-5.0,-0.1,-0.0,1140,52,39.539631,-122.332382,0.0,0.028,310.4,7,3,2.3,0,0.0,-1,0.0,,0.0,0
92541,1463878021845,,,,,,,0.02,0.08,0.99,-4.9,-0.2,-0.1,1160,53,39.539631,-122.332382,0.97,0.028,310.7,7,3,2.3,0,0.0,-1,0.0,,0.0,0
92561,1463878021865,,,,,,,0.02,0.08,0.99,-4.9,-0.0,-0.1,1130,52,39.539631,-122.332382,0.93,0.028,310.7,7,3,2.3,0,0.0,-1,0.0,,0.0,0
92581,1463878021885,,,,,,,0.02,0.06,0.99,-4.9,-0.1,-0.0,1150,53,39.539631,-122.332382,0.93,0.028,310.7,7,3,2.3,0,0.0,-1,0.0,,0.0,0
92601,1463878021905,0.001,143,158,56,155,,0.03,0.07,0.99,-4.9,-0.1,0.0,1150,53,39.539631,-122.332382,0.91,0.028,310.7,7,3,2.3,0,0.0,-1,0.0,0.0,0.0,0
92621,1463878021925,,,,,,,0.03,0.07,0.98,-5.0,0.1,-0.0,1160,55,39.539631,-122.332382,0.95,0.028,310.7,7,3,2.3,0,0.0,-1,0.0,,0.0,0
92641,1463878021945,,,,,,,0.02,0.06,1.0,-5.0,0.0,-0.1,1160,55,39.539631,-122.332382,0.0,0.028,310.7,7,3,2.3,0,0.0,-1,0.0,,0.0,0
92661,1463878021965,,,,,,,0.03,0.07,0.98,-5.1,0.1,0.0,1160,55,39.539631,-122.332382,0.0,0.028,310.7,7,3,2.3,0,0.0,-1,0.0,,0.0,0
92681,1463878021981,,,,,,,0.03,0.08,0.98,-5.0,0.1,-0.0,1160,55,39.539631,-122.332382,0.0,0.028,310.7,7,3,2.3,0,0.0,-1,0.0,,0.0,0
92701,1463878022005,,,,47,,,0.03,0.07,1.0,-5.0,0.2,-0.0,1150,55,39.539631,-122.332382,0.0,0.028,310.7,7,3,2.3,0,0.0,-1,0.0,,0.0,0
92721,1463878022025,,,,,,,0.03,0.07,0.99,-5.0,0.0,-0.0,1170,56,39.539631,-122.332382,0.0,0.028,310.7,7,3,2.3,0,0.0,-1,0.0,,0.0,0
92741,1463878022045,,,,,,,0.03,0.07,0.98,-5.0,0.1,0.0,1180,56,39.539631,-122.332382,0.0,0.028,310.7,7,3,2.3,0,0.0,-1,0.0,,0.0,0
92761,1463878022064,,,,,,,0.04,0.06,1.01,-5.0,-0.1,0.1,1170,56,39.539631,-122.332382,0.0,0.028,310.7,7,3,2.3,0,0.0,-1,0.0,,0.0,0
92781,1463878022084,,,,,,,0.04,0.07,0.99,-5.0,-0.0,0.1,1180,56,39.539631,-122.332382,0.0,0.028,310.7,7,3,2.3,0,0.0,-1,0.0,,0.0,0
92801,1463878022103,0.003,144,158,50,155,,0.04,0.07,0.99,-5.0,0.0,0.0,1150,56,39.539631,-122.332382,0.0,0.028,310.7,7,3,2.3,0,0.0,-1,0.0,0.0,0.0,0
92821,1463878022124,,,,,,,0.04,0.07,1.0,-5.1,-0.0,0.0,1120,56,39.539631,-122.332382,0.0,0.028,310.7,7,2,2.3,0,0.0,-1,0.0,,0.0,0
92841,1463878022144,,,,,,,0.04,0.07,1.01,-5.1,-0.1,0.0,1140,58,39.539631,-122.332382,1.07,0.028,310.8,7,3,2.3,0,0.0,-1,0.0,,0.0,0
92861,1463878022164,,,,,,,0.04,0.07,1.03,-5.1,0.2,-0.0,1160,58,39.539631,-122.332382,1.39,0.028,310.8,7,3,2.3,0,0.0,-1,0.0,,0.0,0
92881,1463878022184,,,,,,,0.04,0.08,1.01,-5.1,0.1,-0.0,1160,56,39.539631,-122.332382,1.27,0.028,310.8,7,3,2.3,0,0.0,-1,0.0,,0.0,0
92901,1463878022204,,,,51,,,0.03,0.07,1.02,-5.1,0.0,-0.1,1140,58,39.539631,-122.332382,0.0,0.028,310.8,7,3,2.3,0,0.0,-1,0.0,,0.0,0
92921,1463878022224,,,,,,,0.03,0.08,1.01,-5.2,0.1,-0.0,1160,58,39.539631,-122.332382,0.0,0.028,310.8,7,3,2.3,0,0.0,-1,0.0,,0.0,0
92941,1463878022244,,,,,,,0.04,0.08,1.0,-5.1,0.1,0.0,1150,60,39.539631,-122.332382,1.18,0.028,310.8,7,3,2.3,0,0.0,-1,0.0,,0.0,0
92961,1463878022264,,,,,,,0.03,0.08,1.02,-5.2,-0.0,-0.1,1140,60,39.539631,-122.332382,1.37,0.028,310.8,7,3,2.3,0,0.0,-1,0.0,,0.0,0
92981,1463878022284,,,,,,,0.03,0.08,1.0,-5.2,-0.0,-0.1,1160,60,39.539631,-122.332382,0.0,0.028,310.8,7,3,2.3,0,0.0,-1,0.0,,0.0,0
93001,1463878022304,0.001,143,158,50,155,14.4,0.03,0.07,0.99,-5.2,0.1,-0.0,1140,60,39.539631,-122.332382,1.9,0.028,310.8,7,3,2.3,0,0.0,-1,0.0,0.0,0.0,0
93021,1463878022324,,,,,,,0.03,0.06,1.02,-5.2,0.0,-0.1,1170,60,39.539631,-122.332382,1.45,0.028,310.8,7,3,2.3,0,0.0,-1,0.0,,0.0,0
93041,1463878022344,,,,,,,0.04,0.07,1.0,-5.2,0.0,-0.1,1150,60,39.539631,-122.332382,0.0,0.028,310.8,7,3,2.3,0,0.0,-1,0.0,,0.0,0
93061,1463878022364,,,,,,,0.04,0.07,1.0,-5.1,0.1,-0.1,1160,60,39.539631,-122.332382,2.59,0.028,310.8,7,2,2.3,0,0.0,-1,0.0,,0.0,0
93081,1463878022383,,,,,,,0.04,0.06,1.02,-5.2,0.1,-0.1,1190,61,39.539631,-122.332382,5.54,0.028,310.8,7,3,2.3,0,0.0,-1,0.0,,0.0,0
93101,1463878022404,,,,48,,,0.04,0.08,1.0,-5.2,-0.0,-0.1,1150,61,39.539631,-122.332382,6.03,0.028,310.8,7,2,2.3,0,0.0,-1,0.0,,0.0,0
93121,1463878022424,,,,,,,0.04,0.09,1.01,-5.3,0.2,-0.1,1150,61,39.539631,-122.332382,5.59,0.028,310.9,7,2,2.3,0,0.0,-1,0.0,,0.0,0
93141,1463878022444,,,,,,,0.03,0.08,1.02,-5.2,0.0,-0.2,1160,61,39.539631,-122.332382,3.27,0.028,310.9,7,2,2.3,0,0.0,-1,0.0,,0.0,0
93161,1463878022465,,,,,,,0.03,0.08,1.0,-5.2,-0.1,-0.2,1160,61,39.539631,-122.332382,3.9,0.028,310.9,7,2,2.3,0,0.0,-1,0.0,,0.0,0
93181,1463878022483,,,,,,,0.03,0.08,1.0,-5.2,0.0,-0.2,1160,63,39.539631,-122.332382,2.04,0.028,310.8,7,3,2.3,0,0.0,-1,0.0,,0.0,0
93201,1463878022504,0.005,143,159,53,155,,0.03,0.06,1.0,-5.2,0.0,-0.1,1140,63,39.539631,-122.332382,2.16,0.028,310.7,7,2,2.3,0,0.0,-1,0.0,0.0,0.0,0
93221,1463878022524,,,,,,,0.03,0.07,0.98,-5.2,-0.0,-0.1,1160,63,39.539631,-122.332382,1.87,0.028,310.6,7,2,2.3,0,0.0,-1,0.0,,0.0,0
93241,1463878022544,,,,,,,0.02,0.07,0.98,-5.2,0.1,-0.1,1140,63,39.539631,-122.332382,0.0,0.028,310.6,7,2,2.3,0,0.0,-1,0.0,,0.0,0
93261,1463878022563,,,,,,,0.02,0.06,1.01,-5.3,0.2,-0.2,1150,63,39.539631,-122.332382,1.97,0.028,310.6,7,3,2.3,0,0.0,-1,0.0,,0.0,0
93281,1463878022584,,,,,,,0.02,0.07,0.99,-5.3,0.2,-0.0,1170,63,39.539631,-122.332382,0.0,0.028,310.5,7,2,2.3,0,0.0,-1,0.0,,0.0,0
93301,1463878022605,,,,53,,,0.03,0.08,0.99,-5.3,0.3,-0.0,1170,63,39.539631,-122.332382,3.2,0.028,310.7,7,3,2.3,0,0.0,-1,0.0,,0.0,0
93321,1463878022624,,,,,,,0.02,0.08,1.0,-5.3,0.2,-0.1,1170,63,39.539631,-122.332382,6.11,0.028,311.1,7,3,2.3,0,0.0,-1,0.0,,0.0,0
93341,1463878022644,,,,,,,0.02,0.07,1.01,-5.3,0.1,-0.1,1160,63,39.539631,-122.332382,5.24,0.028,311.2,7,2,2.3,0,0.0,-1,0.0,,0.0,0
93361,1463878022663,,,,,,,0.02,0.07,0.99,-5.3,0.2,-0.0,1160,63,39.539631,-122.332382,6.23,0.028,311.3,7,3,2.3,0,0.0,-1,0.0,,0.0,0
93381,1463878022684,,,,,,,0.02,0.06,1.0,-5.3,0.2,-0.1,1160,63,39.539631,-122.332382,6.45,0.028,311.3,7,2,2.3,0,0.0,-1,0.0,,0.0,0
93401,1463878022703,0.314,144,158,47,155,,0.03,0.07,1.0,-5.3,0.1,-0.0,1200,63,39.539631,-122.332382,8.43,0.028,311.3,7,2,2.3,0,0.0,-1,0.0,0.0,0.0,0
93421,1463878022724,,,,,,,0.02,0.06,1.0,-5.3,0.3,-0.0,1170,63,39.539631,-122.332382,7.97,0.028,311.4,7,2,2.3,0,0.0,-1,0.0,,0.0,0
93441,1463878022743,,,,,,,0.02,0.07,0.99,-5.3,0.1,-0.1,1140,63,39.539631,-122.332382,7.65,0.028,311.5,7,2,2.3,0,0.0,-1,0.0,,0.0,0
93461,1463878022764,,,,,,,0.02,0.07,0.99,-5.3,0.1,-0.0,1210,63,39.539627,-122.332382,6.91,0.028,311.5,7,2,2.3,0,0.0,-1,0.0,,0.0,0
93481,1463878022784,,,,,,,0.02,0.07,1.0,-5.3,-0.0,0.0,1150,63,39.539627,-122.332382,7.57,0.028,311.5,7,2,2.3,0,0.0,-1,0.0,,0.0,0
93501,1463878022804,,,,48,,,0.02,0.06,0.98,-5.3,0.0,-0.0,1170,63,39.539627,-122.332382,7.32,0.028,311.5,7,2,2.3,0,0.0,-1,0.0,,0.0,0
93521,1463878022823,,,,,,,0.03,0.07,0.99,-5.3,0.0,-0.1,1170,63,39.539627,-122.332382,8.24,0.028,311.6,7,2,2.3,0,0.0,-1,0.0,,0.0,0
93541,1463878022844,,,,,,,0.02,0.06,1.0,-5.3,0.0,-0.1,1170,64,39.539627,-122.332382,6.0,0.028,311.6,7,2,2.3,0,0.0,-1,0.0,,0.0,0
93561,1463878022863,,,,,,,0.03,0.08,1.0,-5.3,-0.0,-0.1,1200,64,39.539623,-122.332382,4.74,0.028,311.7,7,3,2.3,0,0.0,-1,0.0,,0.0,0
93581,1463878022884,,,,,,,0.02,0.08,0.97,-5.3,0.1,-0.0,1180,64,39.539623,-122.332382,4.67,0.028,311.7,7,3,2.3,0,0.0,-1,0.0,,0.0,0
93601,1463878022903,0.003,143,158,53,156,,0.02,0.07,0.99,-5.3,0.1,-0.1,1150,64,39.539623,-122.332382,0.0,0.028,311.5,7,3,2.3,0,0.0,-1,0.0,0.0,0.0,0
93621,1463878022923,,,,,,,0.02,0.08,0.99,-5.3,-0.0,-0.1,1170,64,39.539623,-122.332382,0.0,0.028,311.4,7,2,2.3,0,0.0,-1,0.0,,0.0,0
93641,1463878022944,,,,,,,0.02,0.07,0.99,-5.2,0.2,-0.1,1180,64,39.539623,-122.332382,2.02,0.028,311.4,7,3,2.3,0,0.0,-1,0.0,,0.0,0
93661,1463878022964,,,,,,,0.02,0.08,1.0,-5.3,0.1,-0.0,1200,64,39.539623,-122.332382,0.0,0.028,311.4,7,3,2.3,0,0.0,-1,0.0,,0.0,0
93681,1463878022982,,,,,,,0.02,0.08,1.02,-5.3,0.3,-0.1,1180,64,39.539623,-122.332382,0.0,0.028,311.4,7,3,2.3,0,0.0,-1,0.0,,0.0,0
93701,1463878023005,,,,56,,,0.02,0.08,1.02,-5.3,0.3,-0.1,1160,64,39.539623,-122.332382,0.0,0.028,311.4,7,2,1.9,0,0.0,-1,0.0,,0.0,0
93721,1463878023025,,,,,,,0.02,0.08,0.99,-5.3,0.1,-0.1,1180,64,39.539623,-122.332382,0.0,0.028,311.4,7,2,1.9,0,0.0,-1,0.0,,0.0,0
93741,1463878023045,,,,,,,0.01,0.08,0.99,-5.2,0.3,-0.1,1140,64,39.539623,-122.332382,0.0,0.028,311.4,7,2,1.9,0,0.0,-1,0.0,,0.0,0
93761,1463878023065,,,,,,,0.02,0.06,1.0,-5.2,0.3,-0.1,1170,64,39.539623,-122.332382,0.0,0.028,311.4,7,2,1.9,0,0.0,-1,0.0,,0.0,0
93781,1463878023085,,,,,,,0.02,0.07,1.0,-5.2,0.2,-0.1,1190,64,39.539623,-122.332382,0.0,0.028,311.4,7,2,1.9,0,0.0,-1,0.0,,0.0,0
93801,1463878023105,0.003,144,157,54,156,,0.02,0.07,0.97,-5.2,0.3,-0.1,1180,66,39.539623,-122.332382,0.0,0.028,311.4,7,2,1.9,0,0.0,-1,0.0,0.0,0.0,0
93821,1463878023125,,,,,,,0.01,0.06,0.99,-5.2,0.3,-0.1,1170,69,39.539623,-122.332382,0.0,0.028,311.4,7,2,1.9,0,0.0,-1,0.0,,0.0,0
93841,1463878023145,,,,,,,0.02,0.07,0.97,-5.3,0.2,-0.0,1170,69,39.539623,-122.332382,0.95,0.028,311.4,7,2,1.9,0,0.0,-1,0.0,,0.0,0
93861,1463878023166,,,,,,,0.02,0.08,0.97,-5.2,0.3,-0.1,1170,69,39.539623,-122.332382,0.0,0.028,311.4,7,3,1.9,0,0.0,-1,0.0,,0.0,0
93881,1463878023185,,,,,,,0.02,0.08,0.98,-5.2,0.1,-0.1,1160,67,39.539623,-122.332382,0.0,0.028,311.4,7,2,1.9,0,0.0,-1,0.0,,0.0,0
93901,1463878023205,,,,49,,,0.03,0.08,0.99,-5.2,0.2,-0.1,1170,67,39.539623,-122.332382,0.0,0.028,311.4,7,2,1.9,0,0.0,-1,0.0,,0.0,0
93921,1463878023226,,,,,,,0.03,0.07,0.98,-5.2,0.3,-0.0,1170,67,39.539623,-122.332382,0.0,0.028,311.4,7,2,1.9,0,0.0,-1,0.0,,0.0,0
93941,1463878023245,,,,,,,0.03,0.08,0.98,-5.3,0.4,-0.1,1160,67,39.539623,-122.332382,0.0,0.028,311.4,7,2,1.9,0,0.0,-1,0.0,,0.0,0
93961,1463878023265,,,,,,,0.04,0.09,0.99,-5.3,0.3,-0.1,1170,69,39.539623,-122.332382,0.0,0.028,311.4,7,2,1.9,0,0.0,-1,0.0,,0.0,0
93981,1463878023285,,,,,,,0.04,0.07,0.98,-5.3,0.5,-0.1,1150,70,39.539623,-122.332382,0.0,0.028,311.4,7,2,1.9,0,0.0,-1,0.0,,0.0,0
94001,1463878023305,0.003,143,158,53,155,14.37,0.03,0.08,0.98,-5.3,0.3,-0.1,1190,70,39.539623,-122.332382,0.0,0.028,311.4,7,2,1.9,0,0.0,-1,0.0,0.0,0.0,0
94021,1463878023325,,,,,,,0.03,0.08,0.98,-5.3,0.3,-0.1,1150,70,39.539623,-122.332382,1.31,0.028,311.3,7,2,1.9,0,0.0,-1,0.0,,0.0,0
94041,1463878023345,,,,,,,0.04,0.08,0.97,-5.3,0.1,-0.1,1160,72,39.539623,-122.332382,1.51,0.028,311.3,7,2,1.9,0,0.0,-1,0.0,,0.0,0
94061,1463878023365,,,,,,,0.04,0.07,0.97,-5.3,0.2,-0.1,1150,73,39.539623,-122.332382,1.94,0.028,311.3,7,2,1.9,0,0.0,-1,0.0,,0.0,0
94081,1463878023385,,,,,,,0.04,0.08,0.99,-5.4,0.2,-0.2,1160,75,39.539623,-122.332382,1.67,0.028,311.3,7,2,1.9,0,0.0,-1,0.0,,0.0,0
94101,1463878023405,,,,54,,,0.04,0.07,0.98,-5.4,0.2,-0.1,1150,73,39.539623,-122.332382,1.4,0.028,311.4,7,2,1.9,0,0.0,-1,0.0,,0.0,0
94121,1463878023426,,,,,,,0.04,0.08,0.98,-5.4,0.1,-0.1,1120,73,39.539623,-122.332382,1.21,0.028,311.4,7,2,1.9,0,0.0,-1,0.0,,0.0,0
94141,1463878023446,,,,,,,0.04,0.08,1.01,-5.4,0.2,-0.1,1170,75,39.539623,-122.332382,0.0,0.028,311.4,7,2,1.9,0,0.0,-1,0.0,,0.0,0
94161,1463878023466,,,,,,,0.04,0.08,0.99,-5.4,0.1,-0.1,1180,75,39.539623,-122.332382,0.0,0.028,311.4,7,2,1.9,0,0.0,-1,0.0,,0.0,0
94181,1463878023485,,,,,,,0.04,0.08,1.0,-5.4,0.0,-0.3,1150,75,39.539623,-122.332382,0.0,0.028,311.4,7,2,1.9,0,0.0,-1,0.0,,0.0,0
94201,1463878023506,0.463,143,158,51,155,,0.04,0.08,1.0,-5.5,0.1,-0.2,1110,76,39.539623,-122.332382,0.0,0.028,311.4,7,2,1.9,0,0.0,-1,0.0,0.0,0.0,0
94221,1463878023525,,,,,,,0.04,0.08,0.99,-5.4,0.1,-0.2,1130,76,39.539623,-122.332382,0.0,0.028,311.4,7,2,1.9,0,0.0,-1,0.0,,0.0,0
94241,1463878023546,,,,,,,0.04,0.08,1.01,-5.5,0.0,-0.2,1140,76,39.539623,-122.332382,0.0,0.028,311.4,7,2,1.9,0,0.0,-1,0.0,,0.0,0
94261,1463878023565,,,,,,,0.04,0.08,0.99,-5.5,-0.1,-0.2,1140,78,39.539623,-122.332382,0.0,0.028,311.4,7,2,1.9,0,0.0,-1,0.0,,0.0,0
94281,1463878023586,,,,,,,0.04,0.07,0.99,-5.5,0.0,-0.2,1130,80,39.539623,-122.332382,0.0,0.028,311.3,7,2,1.9,0,0.0,-1,0.0,,0.0,0
94301,1463878023606,,,,47,,,0.04,0.07,0.99,-5.5,-0.2,-0.1,1130,80,39.539623,-122.332382,0.0,0.028,311.3,7,2,1.9,0,0.0,-1,0.0,,0.0,0
94321,1463878023625,,,,,,,0.04,0.07,0.99,-5.5,-0.1,-0.1,1140,80,39.539623,-122.332382,0.0,0.028,311.3,7,2,1.9,0,0.0,-1,0.0,,0.0,0
94341,1463878023645,,,,,,,0.04,0.07,1.0,-5.6,-0.0,-0.2,1130,80,39.539623,-122.332382,0.0,0.028,311.3,7,3,1.9,0,0.0,-1,0.0,,0.0,0
94361,1463878023666,,,,,,,0.04,0.07,0.98,-5.5,0.0,-0.2,1130,81,39.539623,-122.332382,0.0,0.028,311.3,7,2,1.9,0,0.0,-1,0.0,,0.0,0
94381,1463878023685,,,,,,,0.03,0.06,0.99,-5.6,-0.0,-0.2,1110,81,39.539623,-122.332382,0.0,0.028,311.3,7,2,1.9,0,0.0,-1,0.0,,0.0,0
94401,1463878023705,0.003,145,158,53,155,,0.04,0.06,0.98,-5.6,-0.0,-0.1,1150,81,39.539623,-122.332382,0.0,0.028,311.3,7,2,1.9,0,0.0,-1,0.0,0.0,0.0,0
94421,1463878023724,,,,,,,0.03,0.06,0.98,-5.6,0.2,-0.2,1140,81,39.539623,-122.332382,0.0,0.028,311.3,7,2,1.9,0,0.0,-1,0.0,,0.0,0
94441,1463878023746,,,,,,,0.03,0.07,0.99,-5.6,0.1,-0.2,1140,83,39.539623,-122.332382,0.0,0.028,311.3,7,2,1.9,0,0.0,-1,0.0,,0.0,0
94461,1463878023765,,,,,,,0.03,0.07,0.98,-5.7,0.2,-0.2,1120,84,39.539623,-122.332382,0.0,0.028,311.3,7,2,1.9,0,0.0,-1,0.0,,0.0,0
94481,1463878023785,,,,,,,0.03,0.08,0.99,-5.7,0.2,-0.2,1150,84,39.539623,-122.332382,0.0,0.028,311.3,7,2,1.9,0,0.0,-1,0.0,,0.0,0
94501,1463878023805,,,,56,,,0.03,0.07,0.98,-5.6,0.2,-0.1,1120,86,39.539623,-122.332382,0.0,0.028,311.3,7,2,1.9,0,0.0,-1,0.0,,0.0,0
94521,1463878023826,,,,,,,0.03,0.07,1.0,-5.7,0.1,-0.2,1160,84,39.539623,-122.332382,0.0,0.028,311.3,7,3,1.9,0,0.0,-1,0.0,,0.0,0
94541,1463878023846,,,,,,,0.03,0.09,0.99,-5.6,0.0,-0.1,1130,86,39.539623,-122.332382,0.0,0.028,311.3,7,2,1.9,0,0.0,-1,0.0,,0.0,0
94561,1463878023865,,,,,,,0.03,0.08,0.99,-5.6,0.2,-0.2,1140,84,39.539623,-122.332382,0.0,0.028,311.3,7,2,1.9,0,0.0,-1,0.0,,0.0,0
94581,1463878023886,,,,,,,0.03,0.08,1.0,-5.6,-0.0,-0.2,1170,86,39.539623,-122.332382,0.99,0.028,311.3,7,2,1.9,0,0.0,-1,0.0,,0.0,0
94601,1463878023905,0.003,143,158,51,155,,0.03,0.07,0.99,-5.6,-0.1,-0.2,1150,86,39.539623,-122.332382,0.97,0.028,311.3,7,2,1.9,0,0.0,-1,0.0,0.0,0.0,0
94621,1463878023925,,,,,,,0.02,0.07,0.99,-5.6,-0.1,-0.2,1140,87,39.539623,-122.332382,1.0,0.028,311.3,7,2,1.9,0,0.0,-1,0.0,,0.0,0
94641,1463878023946,,,,,,,0.03,0.07,0.99,-5.5,0.0,-0.2,1140,87,39.539623,-122.332382,1.03,0.028,311.3,7,3,1.9,0,0.0,-1,0.0,,0.0,0
94661,1463878023966,,,,,,,0.02,0.07,0.99,-5.5,-0.0,-0.2,1160,86,39.539623,-122.332382,1.03,0.028,311.3,7,2,1.9,0,0.0,-1,0.0,,0.0,0
94681,1463878023981,,,,,,,0.02,0.06,0.99,-5.5,-0.2,-0.2,1110,86,39.539623,-122.332382,1.01,0.028,311.3,7,2,1.9,0,0.0,-1,0.0,,0.0,0
94701,1463878024005,,,,54,,,0.02,0.06,0.99,-5.4,-0.0,-0.2,1110,86,39.539623,-122.332382,0.0,0.028,311.3,7,3,0.5,0,0.0,-1,0.0,,0.0,0
94721,1463878024025,,,,,,,0.02,0.05,0.98,-5.4,-0.2,-0.2,1110,87,39.539623,-122.332382,0.0,0.028,311.3,7,3,0.5,0,0.0,-1,0.0,,0.0,0
94741,1463878024045,,,,,,,0.02,0.05,0.99,-5.4,-0.1,-0.2,1120,89,39.539623,-122.332382,1.2,0.028,311.3,7,3,0.5,0,0.0,-1,0.0,,0.0,0
94761,1463878024065,,,,,,,0.02,0.05,0.99,-5.4,-0.0,-0.2,1130,89,39.539623,-122.332382,1.09,0.028,311.3,7,3,0.5,0,0.0,-1,0.0,,0.0,0
94781,1463878024085,,,,,,,0.02,0.06,0.98,-5.3,-0.1,-0.2,1100,89,39.539623,-122.332382,0.92,0.028,311.3,7,3,0.5,0,0.0,-1,0.0,,0.0,0
94801,1463878024105,0.001,143,158,54,156,,0.02,0.05,0.99,-5.2,-0.1,-0.2,1100,89,39.539623,-122.332382,0.98,0.028,311.3,7,3,0.5,0,0.0,-1,0.0,0.0,0.0,0
94821,1463878024125,,,,,,,0.02,0.05,0.98,-5.2,-0.0,-0.3,1110,89,39.539623,-122.332382,1.0,0.028,311.3,7,3,0.5,0,0.0,-1,0.0,,0.0,0
94841,1463878024145,,,,,,,0.02,0.05,0.98,-5.2,-0.1,-0.3,1100,89,39.539623,-122.332382,1.1,0.028,311.3,7,3,0.5,0,0.0,-1,0.0,,0.0,0
94861,1463878024165,,,,,,,0.02,0.05,0.98,-5.1,-0.0,-0.3,1100,87,39.539623,-122.332382,1.03,0.028,311.3,7,3,0.5,0,0.0,-1,0.0,,0.0,0
94881,1463878024185,,,,,,,0.02,0.05,0.97,-5.1,-0.1,-0.3,1080,87,39.539623,-122.332382,1.07,0.028,311.3,7,3,0.5,0,0.0,-1,0.0,,0.0,0
94901,1463878024205,,,,52,,,0.02,0.05,0.98,-5.1,-0.1,-0.4,1080,87,39.539623,-122.332382,1.0,0.028,311.3,7,3,0.5,0,0.0,-1,0.0,,0.0,0
94921,1463878024225,,,,,,,0.02,0.04,0.97,-5.0,-0.0,-0.4,1070,89,39.539623,-122.332382,1.12,0.028,311.3,7,3,0.5,0,0.0,-1,0.0,,0.0,0
94941,1463878024245,,,,,,,0.02,0.05,0.97,-5.0,0.0,-0.4,1050,89,39.539623,-122.332382,1.19,0.028,311.3,7,3,0.5,0,0.0,-1,0.0,,0.0,0
94961,1463878024265,,,,,,,0.01,0.05,0.97,-5.0,0.0,-0.4,1040,89,39.539623,-122.332382,1.35,0.028,311.3,7,3,0.5,0,0.0,-1,0.0,,0.0,0
94981,1463878024285,,,,,,,0.01,0.05,0.98,-4.9,-0.1,-0.4,1050,87,39.539623,-122.332382,1.47,0.028,311.3,7,3,0.5,0,0.0,-1,0.0,,0.0,0
95001,1463878024305,0.421,144,157,54,156,14.35,0.0,0.05,0.98,-4.9,-0.1,-0.4,1040,89,39.539623,-122.332382,1.38,0.028,311.3,7,3,0.5,0,0.0,-1,0.0,0.0,0.0,0
95021,1463878024325,,,,,,,0.01,0.05,0.97,-4.8,-0.1,-0.4,1010,89,39.539623,-122.332382,1.4,0.028,311.3,7,3,0.5,0,0.0,-1,0.0,,0.0,0
95041,1463878024345,,,,,,,0.01,0.06,0.98,-4.8,-0.1,-0.3,1020,90,39.539623,-122.332382,1.37,0.028,311.2,7,3,0.5,0,0.0,-1,0.0,,0.0,0
95061,1463878024365,,,,,,,0.01,0.06,0.98,-4.7,-0.2,-0.3,1000,92,39.539623,-122.332382,1.75,0.028,311.2,7,3,0.5,0,0.0,-1,0.0,,0.0,0
95081,1463878024385,,,,,,,0.01,0.06,0.98,-4.7,-0.2,-0.2,1010,90,39.539623,-122.332382,1.53,0.028,311.2,7,3,0.5,0,0.0,-1,0.0,,0.0,0
95101,1463878024406,,,,48,,,0.02,0.07,0.97,-4.7,-0.2,-0.2,980,90,39.539623,-122.332382,1.46,0.028,311.2,7,3,0.5,0,0.0,-1,0.0,,0.0,0
95121,1463878024425,,,,,,,0.02,0.07,0.97,-4.6,-0.1,-0.2,970,89,39.539623,-122.332382,1.37,0.028,311.2,7,3,0.5,0,0.0,-1,0.0,,0.0,0
95141,1463878024445,,,,,,,0.02,0.08,0.97,-4.6,-0.2,-0.1,960,90,39.539623,-122.332382,1.65,0.028,311.2,7,3,0.5,0,0.0,-1,0.0,,0.0,0
95161,1463878024465,,,,,,,0.01,0.08,0.97,-4.6,-0.3,-0.1,930,92,39.539623,-122.332382,1.66,0.028,311.2,7,3,0.5,0,0.0,-1,0.0,,0.0,0
95181,1463878024484,,,,,,,0.01,0.08,0.96,-4.5,-0.5,-0.1,920,93,39.539623,-122.332382,1.72,0.028,311.1,7,3,0.5,0,0.0,-1,0.0,,0.0,0
95201,1463878024506,0.001,143,158,49,156,,0.0,0.07,0.96,-4.5,-0.5,-0.1,910,92,39.539623,-122.332382,1.64,0.028,311.1,7,3,0.5,0,0.0,-1,0.0,0.0,0.0,0
95221,1463878024526,,,,,,,0.01,0.07,0.97,-4.5,-0.4,-0.1,900,89,39.539623,-122.332382,1.52,0.028,311.1,7,3,0.5,0,0.0,-1,0.0,,0.0,0
95241,1463878024546,,,,,,,0.02,0.07,0.97,-4.5,-0.3,-0.1,880,89,39.539623,-122.332382,1.84,0.028,311.1,7,3,0.5,0,0.0,-1,0.0,,0.0,0
95261,1463878024565,,,,,,,0.02,0.07,0.97,-4.4,-0.4,-0.2,870,89,39.539623,-122.332382,1.72,0.028,311.1,7,3,0.5,0,0.0,-1,0.0,,0.0,0
95281,1463878024585,,,,,,,0.02,0.08,0.97,-4.4,-0.4,-0.1,860,90,39.539623,-122.332382,1.72,0.028,311.1,7,3,0.5,0,0.0,-1,0.0,,0.0,0
95301,1463878024605,,,,53,,,0.02,0.08,0.98,-4.4,-0.3,-0.1,840,90,39.539623,-122.332382,1.88,0.028,311.0,7,3,0.5,0,0.0,-1,0.0,,0.0,0
95321,1463878024625,,,,,,,0.02,0.07,0.98,-4.4,-0.5,-0.1,840,90,39.539623,-122.332382,1.99,0.028,311.1,7,3,0.5,0,0.0,-1,0.0,,0.0,0
