"Interval"|"ms"|0|0|1,"Utc"|"ms"|0|0|1,"FuelLevel"|"F"|0.0|100.0|5,"OilTemp"|"F"|0|300|5,"Coolant"|"F"|0|300|5,"OilPress"|"PSI"|0|150|10,"EngineTemp"|"F"|0|300|5,"Battery"|"Volts"|0.0|20.0|1,"AccelX"|"G"|-3.0|3.0|50,"AccelY"|"G"|-3.0|3.0|50,"AccelZ"|"G"|-3.0|3.0|50,"Yaw"|"Deg/Sec"|-300.0|300.0|50,"Pitch"|"Deg/Sec"|-300.0|300.0|50,"Roll"|"Deg/Sec"|-300.0|300.0|50,"RPM"|""|0|10000|50,"Wheel"|"RPM"|0|5000|50,"Latitude"|"Degrees"|-180.0|180.0|50,"Longitude"|"Degrees"|-180.0|180.0|50,"Speed"|"MPH"|0.0|150.0|50,"Distance"|"Miles"|0.0|0.0|50,"Altitude"|"Feet"|0.0|4000.0|50,"GPSSats"|""|0|20|50,"GPSQual"|""|0|5|50,"GPSDOP"|""|0.0|20.0|50,"LapCount"|""|0|0|50,"LapTime"|"Min"|0.0|0.0|50,"Sector"|""|0|0|50,"SectorTime"|"Min"|0.0|0.0|50,"PredTime"|"Min"|0.0|0.0|5,"ElapsedTime"|"Min"|0.0|0.0|50,"CurrentLap"|""|0|0|50
2173581,1463931883491,,,,,,,0.01,0.09,0.99,-3.1,-0.5,-0.0,720,0,39.53965,-122.331352,0.0,0.745,301.7,9,3,1.8,0,0.0,-1,0.0,,0.0,0
2173601,1463931883753,0.37,146,182,22,178,,0.01,0.08,0.99,-2.9,-0.5,-0.1,700,0,39.53965,-122.331352,0.0,0.745,301.7,9,3,1.8,0,0.0,-1,0.0,0.0,0.0,0
2173621,1463931883773,,,,,,,0.0,0.08,0.99,-2.9,-0.2,-0.1,700,0,39.53965,-122.331352,0.0,0.745,301.7,9,3,1.8,0,0.0,-1,0.0,,0.0,0
2173641,1463931883794,,,,,,,0.01,0.09,0.99,-2.9,-0.2,-0.1,700,0,39.53965,-122.331352,0.0,0.745,301.7,9,3,1.8,0,0.0,-1,0.0,,0.0,0
2173661,1463931883814,,,,,,,0.01,0.09,0.98,-2.9,-0.2,-0.1,720,0,39.53965,-122.331352,0.0,0.745,301.7,9,3,1.8,0,0.0,-1,0.0,,0.0,0
2173681,1463931883834,,,,,,,0.01,0.09,0.98,-2.9,-0.2,-0.1,720,0,39.53965,-122.331352,0.0,0.745,301.7,9,3,1.8,0,0.0,-1,0.0,,0.0,0
2173701,1463931883855,,,,23,,,0.01,0.09,0.98,-2.9,-0.3,-0.0,700,0,39.53965,-122.331352,0.0,0.745,301.7,9,3,1.8,0,0.0,-1,0.0,,0.0,0
2173721,1463931883875,,,,,,,0.02,0.08,0.98,-2.9,-0.3,-0.0,680,0,39.53965,-122.331352,0.0,0.745,301.7,9,3,1.8,0,0.0,-1,0.0,,0.0,0
2173741,1463931883896,,,,,,,0.02,0.08,0.98,-2.9,-0.3,-0.1,680,0,39.53965,-122.331352,0.0,0.745,301.7,9,3,1.8,0,0.0,-1,0.0,,0.0,0
2173761,1463931883916,,,,,,,0.02,0.09,0.98,-2.9,-0.2,-0.0,700,0,39.53965,-122.331352,0.0,0.745,301.7,9,3,1.8,0,0.0,-1,0.0,,0.0,0
2173781,1463931883937,,,,,,,0.02,0.09,0.99,-2.9,-0.3,-0.0,700,0,39.53965,-122.331352,0.0,0.745,301.7,9,3,1.8,0,0.0,-1,0.0,,0.0,0
2173801,1463931883958,0.048,146,181,24,177,,0.01,0.08,0.99,-2.9,-0.4,-0.1,700,0,39.53965,-122.331352,0.0,0.745,301.7,9,3,1.8,0,0.0,-1,0.0,0.0,0.0,0
2173821,1463931883978,,,,,,,0.01,0.08,0.99,-2.9,-0.4,-0.1,700,0,39.53965,-122.331352,0.0,0.745,301.7,9,3,1.8,0,0.0,-1,0.0,,0.0,0
2173841,1463931883987,,,,,,,0.01,0.09,0.98,-2.9,-0.4,0.0,720,0,39.53965,-122.331352,0.0,0.745,301.7,9,3,1.8,0,0.0,-1,0.0,,0.0,0
2173861,1463931884008,,,,,,,0.02,0.08,0.98,-3.0,-0.4,0.0,700,0,39.53965,-122.331352,0.0,0.745,301.7,9,3,1.8,0,0.0,-1,0.0,,0.0,0
2173881,1463931884028,,,,,,,0.02,0.09,0.98,-3.0,-0.3,-0.0,700,0,39.53965,-122.331352,0.0,0.745,301.7,9,3,1.8,0,0.0,-1,0.0,,0.0,0
2173901,1463931884049,,,,21,,,0.02,0.09,0.98,-3.0,-0.3,0.0,680,0,39.53965,-122.331352,0.0,0.745,301.7,9,3,1.8,0,0.0,-1,0.0,,0.0,0
2173921,1463931884069,,,,,,,0.02,0.09,0.98,-3.0,-0.3,0.1,700,0,39.53965,-122.331352,0.0,0.745,301.7,9,3,1.8,0,0.0,-1,0.0,,0.0,0
2173941,1463931884089,,,,,,,0.02,0.08,0.98,-3.0,-0.3,0.0,700,0,39.53965,-122.331352,0.0,0.745,301.7,9,3,1.8,0,0.0,-1,0.0,,0.0,0
2173961,1463931884109,,,,,,,0.01,0.09,0.98,-3.0,-0.3,-0.0,700,0,39.53965,-122.331352,0.0,0.745,301.7,9,3,1.8,0,0.0,-1,0.0,,0.0,0
2173981,1463931884130,,,,,,,0.01,0.09,0.99,-3.0,-0.5,0.1,700,0,39.53965,-122.331352,0.0,0.745,301.7,9,3,1.8,0,0.0,-1,0.0,,0.0,0
2174001,1463931884151,0.068,146,181,24,177,14.55,0.01,0.08,0.98,-3.0,-0.5,0.0,720,0,39.53965,-122.331352,0.0,0.745,301.7,9,3,1.8,0,0.0,-1,0.0,0.0,0.0,0
2174021,1463931884171,,,,,,,0.01,0.09,0.98,-3.0,-0.5,-0.0,720,0,39.53965,-122.331352,0.0,0.745,301.7,9,3,1.8,0,0.0,-1,0.0,,0.0,0
2174041,1463931884192,,,,,,,0.02,0.1,0.98,-3.0,-0.4,0.0,700,0,39.53965,-122.331352,0.0,0.745,301.7,9,3,1.8,0,0.0,-1,0.0,,0.0,0
2174061,1463931884212,,,,,,,0.02,0.09,0.98,-3.0,-0.3,0.0,680,0,39.53965,-122.331352,0.0,0.745,301.7,9,3,1.8,0,0.0,-1,0.0,,0.0,0
2174081,1463931884233,,,,,,,0.01,0.09,0.98,-3.0,-0.4,-0.0,700,0,39.53965,-122.331352,0.0,0.745,301.7,9,3,1.8,0,0.0,-1,0.0,,0.0,0
2174101,1463931884253,,,,21,,,0.01,0.09,0.98,-3.0,-0.4,-0.0,700,0,39.53965,-122.331352,0.0,0.745,301.7,9,3,1.8,0,0.0,-1,0.0,,0.0,0
2174121,1463931884273,,,,,,,0.01,0.09,0.98,-3.0,-0.4,0.0,700,0,39.53965,-122.331352,0.0,0.745,301.7,9,3,1.8,0,0.0,-1,0.0,,0.0,0
2174141,1463931884294,,,,,,,0.01,0.09,0.98,-3.0,-0.5,-0.0,700,0,39.53965,-122.331352,0.0,0.745,301.7,9,3,1.8,0,0.0,-1,0.0,,0.0,0
2174161,1463931884314,,,,,,,0.01,0.09,0.97,-3.0,-0.5,-0.1,700,0,39.53965,-122.331352,0.0,0.745,301.7,9,3,1.8,0,0.0,-1,0.0,,0.0,0
2174181,1463931884334,,,,,,,0.01,0.1,0.97,-3.0,-0.4,0.0,720,0,39.53965,-122.331352,0.0,0.745,301.7,9,3,1.8,0,0.0,-1,0.0,,0.0,0
2174201,1463931884355,0.07,147,181,23,177,,0.01,0.1,0.97,-3.0,-0.3,0.0,700,0,39.53965,-122.331352,0.0,0.745,301.7,9,3,1.8,0,0.0,-1,0.0,0.0,0.0,0
2174221,1463931884375,,,,,,,0.01,0.09,0.97,-3.0,-0.3,-0.1,680,0,39.53965,-122.331352,0.0,0.745,301.7,9,3,1.8,0,0.0,-1,0.0,,0.0,0
2174241,1463931884396,,,,,,,0.01,0.09,0.98,-3.0,-0.2,-0.1,680,0,39.53965,-122.331352,0.0,0.745,301.7,9,3,1.8,0,0.0,-1,0.0,,0.0,0
2174261,1463931884416,,,,,,,0.01,0.1,0.97,-3.0,-0.3,0.0,700,0,39.53965,-122.331352,0.0,0.745,301.7,9,3,1.8,0,0.0,-1,0.0,,0.0,0
2174281,1463931884437,,,,,,,0.01,0.09,0.97,-3.0,-0.4,-0.0,700,0,39.53965,-122.331352,0.0,0.745,301.7,9,3,1.8,0,0.0,-1,0.0,,0.0,0
2174301,1463931884457,,,,24,,,0.01,0.1,0.97,-3.0,-0.4,-0.1,700,0,39.53965,-122.331352,0.0,0.745,301.7,9,3,1.8,0,0.0,-1,0.0,,0.0,0
2174321,1463931884477,,,,,,,0.02,0.1,0.97,-3.0,-0.3,-0.0,700,0,39.53965,-122.331352,0.0,0.745,301.7,9,3,1.8,0,0.0,-1,0.0,,0.0,0
2174341,1463931884497,,,,,,,0.02,0.1,0.97,-3.1,-0.3,0.0,720,0,39.53965,-122.331352,0.0,0.745,301.7,9,3,1.8,0,0.0,-1,0.0,,0.0,0
2174361,1463931884518,,,,,,,0.02,0.1,0.97,-3.0,-0.2,-0.1,700,0,39.53965,-122.331352,0.0,0.745,301.7,9,3,1.8,0,0.0,-1,0.0,,0.0,0
2174381,1463931884538,,,,,,,0.01,0.1,0.98,-3.1,-0.1,-0.1,700,0,39.53965,-122.331352,0.0,0.745,301.7,9,3,1.8,0,0.0,-1,0.0,,0.0,0
2174401,1463931884559,0.078,147,181,24,177,,0.02,0.1,0.98,-3.1,-0.2,-0.0,680,0,39.53965,-122.331352,0.0,0.745,301.7,9,3,1.8,0,0.0,-1,0.0,0.0,0.0,0
2174421,1463931884579,,,,,,,0.02,0.09,0.98,-3.0,-0.3,-0.0,700,0,39.53965,-122.331352,0.0,0.745,301.7,9,3,1.8,0,0.0,-1,0.0,,0.0,0
2174441,1463931884599,,,,,,,0.01,0.1,0.98,-3.0,-0.4,-0.1,700,0,39.53965,-122.331352,0.0,0.745,301.7,9,3,1.8,0,0.0,-1,0.0,,0.0,0
2174461,1463931884619,,,,,,,0.01,0.1,0.98,-3.1,-0.3,0.0,700,0,39.53965,-122.331352,0.0,0.745,301.7,9,3,1.8,0,0.0,-1,0.0,,0.0,0
2174481,1463931884640,,,,,,,0.02,0.1,0.97,-3.1,-0.2,0.0,700,0,39.53965,-122.331352,0.0,0.745,301.7,9,3,1.8,0,0.0,-1,0.0,,0.0,0
2174501,1463931884660,,,,25,,,0.01,0.08,0.98,-3.0,-0.2,-0.1,720,0,39.53965,-122.331352,0.0,0.745,301.7,9,3,1.8,0,0.0,-1,0.0,,0.0,0
2174521,1463931884680,,,,,,,0.01,0.09,0.98,-3.0,-0.2,-0.1,720,0,39.53965,-122.331352,0.0,0.745,301.7,9,3,1.8,0,0.0,-1,0.0,,0.0,0
2174541,1463931884700,,,,,,,0.01,0.08,0.98,-3.0,-0.2,-0.0,680,0,39.53965,-122.331352,0.0,0.745,301.7,9,3,1.8,0,0.0,-1,0.0,,0.0,0
2174561,1463931884720,,,,,,,0.01,0.09,0.98,-3.0,-0.2,-0.0,680,0,39.53965,-122.331352,0.0,0.745,301.7,9,3,1.8,0,0.0,-1,0.0,,0.0,0
2174581,1463931884741,,,,,,,0.01,0.09,0.98,-3.0,-0.3,-0.0,680,0,39.53965,-122.331352,0.0,0.745,301.7,9,3,1.8,0,0.0,-1,0.0,,0.0,0
2174601,1463931884762,0.072,147,182,24,177,,0.02,0.1,0.97,-3.0,-0.3,0.1,680,0,39.53965,-122.331352,0.0,0.745,301.7,9,3,1.8,0,0.0,-1,0.0,0.0,0.0,0
2174621,1463931884782,,,,,,,0.02,0.09,0.98,-3.0,-0.2,0.1,680,0,39.53965,-122.331352,0.0,0.745,301.7,9,3,1.8,0,0.0,-1,0.0,,0.0,0
2174641,1463931884802,,,,,,,0.02,0.08,0.97,-3.0,-0.2,0.0,680,0,39.53965,-122.331352,0.0,0.745,301.7,9,3,1.8,0,0.0,-1,0.0,,0.0,0
2174661,1463931884823,,,,,,,0.02,0.09,0.97,-3.0,-0.2,0.0,680,0,39.53965,-122.331352,0.0,0.745,301.7,9,3,1.8,0,0.0,-1,0.0,,0.0,0
2174681,1463931884844,,,,,,,0.02,0.09,0.97,-3.0,-0.2,0.1,700,0,39.53965,-122.331352,0.0,0.745,301.7,9,3,1.8,0,0.0,-1,0.0,,0.0,0
2174701,1463931884864,,,,23,,,0.02,0.09,0.98,-3.0,-0.1,-0.0,680,0,39.53965,-122.331352,0.0,0.745,301.7,9,3,1.8,0,0.0,-1,0.0,,0.0,0
2174721,1463931884884,,,,,,,0.02,0.09,0.99,-3.0,-0.1,-0.0,680,0,39.53965,-122.331352,0.0,0.745,301.7,9,3,1.8,0,0.0,-1,0.0,,0.0,0
2174741,1463931884905,,,,,,,0.02,0.1,0.99,-3.0,-0.2,-0.0,660,0,39.53965,-122.331352,0.0,0.745,301.7,9,3,1.8,0,0.0,-1,0.0,,0.0,0
2174761,1463931884925,,,,,,,0.01,0.09,0.99,-3.0,-0.4,-0.1,680,0,39.53965,-122.331352,0.0,0.745,301.7,9,3,1.8,0,0.0,-1,0.0,,0.0,0
2174781,1463931884946,,,,,,,0.01,0.09,0.99,-3.0,-0.4,-0.1,680,0,39.53965,-122.331352,0.0,0.745,301.7,9,3,1.8,0,0.0,-1,0.0,,0.0,0
2174801,1463931884967,0.08,147,181,23,177,,0.02,0.1,0.99,-3.0,-0.4,0.0,680,0,39.53965,-122.331352,0.0,0.745,301.7,9,3,1.8,0,0.0,-1,0.0,0.0,0.0,0
2174821,1463931884977,,,,,,,0.02,0.09,0.99,-3.0,-0.4,-0.0,680,0,39.53965,-122.331352,0.0,0.745,301.7,9,3,1.8,0,0.0,-1,0.0,,0.0,0
2174841,1463931884998,,,,,,,0.02,0.09,0.98,-3.0,-0.4,-0.0,680,0,39.53965,-122.331352,0.0,0.745,301.7,9,3,1.8,0,0.0,-1,0.0,,0.0,0
2174861,1463931885018,,,,,,,0.02,0.09,0.98,-3.1,-0.4,0.1,700,0,39.53965,-122.331352,0.0,0.745,301.7,9,3,1.8,0,0.0,-1,0.0,,0.0,0
2174881,1463931885039,,,,,,,0.02,0.09,0.98,-3.0,-0.4,0.1,680,0,39.53965,-122.331352,0.0,0.745,301.7,9,3,1.8,0,0.0,-1,0.0,,0.0,0
2174901,1463931885060,,,,22,,,0.02,0.09,0.97,-3.0,-0.4,0.0,680,0,39.53965,-122.331352,0.0,0.745,301.7,9,3,1.8,0,0.0,-1,0.0,,0.0,0
2174921,1463931885079,,,,,,,0.02,0.1,0.98,-3.0,-0.4,0.0,660,0,39.53965,-122.331352,0.0,0.745,301.7,9,3,1.8,0,0.0,-1,0.0,,0.0,0
2174941,1463931885100,,,,,,,0.02,0.1,0.97,-3.0,-0.4,0.0,660,0,39.53965,-122.331352,0.0,0.745,301.7,9,3,1.8,0,0.0,-1,0.0,,0.0,0
2174961,1463931885120,,,,,,,0.02,0.1,0.97,-3.0,-0.3,-0.1,660,0,39.53965,-122.331352,0.0,0.745,301.7,9,3,1.8,0,0.0,-1,0.0,,0.0,0
2174981,1463931885141,,,,,,,0.02,0.11,0.97,-3.0,-0.3,-0.0,660,0,39.53965,-122.331352,0.0,0.745,301.7,9,3,1.8,0,0.0,-1,0.0,,0.0,0
2175001,1463931885161,0.074,147,182,21,177,14.59,0.02,0.1,0.97,-3.0,-0.3,-0.0,680,0,39.53965,-122.331352,0.0,0.745,301.7,9,3,1.8,0,0.0,-1,0.0,0.0,0.0,0
2175021,1463931885181,,,,,,,0.03,0.09,0.97,-3.0,-0.2,-0.1,680,0,39.53965,-122.331352,0.0,0.745,301.7,9,3,1.8,0,0.0,-1,0.0,,0.0,0
2175041,1463931885202,,,,,,,0.03,0.1,0.97,-3.0,-0.1,-0.0,700,0,39.53965,-122.331352,0.0,0.745,301.7,9,3,1.8,0,0.0,-1,0.0,,0.0,0
2175061,1463931885223,,,,,,,0.03,0.09,0.97,-3.0,-0.1,-0.0,680,0,39.53965,-122.331352,0.0,0.745,301.7,9,3,1.8,0,0.0,-1,0.0,,0.0,0
2175081,1463931885244,,,,,,,0.02,0.09,0.97,-3.0,-0.2,-0.0,660,0,39.53965,-122.331352,0.0,0.745,301.7,9,3,1.8,0,0.0,-1,0.0,,0.0,0
2175101,1463931885264,,,,21,,,0.02,0.09,0.98,-3.0,-0.1,0.0,660,0,39.53965,-122.331352,0.0,0.745,301.7,9,3,1.8,0,0.0,-1,0.0,,0.0,0
2175121,1463931885283,,,,,,,0.02,0.1,0.98,-3.0,-0.2,0.1,660,0,39.53965,-122.331352,0.0,0.745,301.7,9,3,1.8,0,0.0,-1,0.0,,0.0,0
2175141,1463931885304,,,,,,,0.02,0.09,0.98,-3.0,-0.3,0.0,680,0,39.53965,-122.331352,0.0,0.745,301.7,9,3,1.8,0,0.0,-1,0.0,,0.0,0
2175161,1463931885324,,,,,,,0.02,0.1,0.98,-3.0,-0.3,0.0,680,0,39.53965,-122.331352,0.0,0.745,301.7,9,3,1.8,0,0.0,-1,0.0,,0.0,0
2175181,1463931885345,,,,,,,0.01,0.1,0.98,-3.1,-0.3,0.1,680,0,39.53965,-122.331352,0.0,0.745,301.7,9,3,1.8,0,0.0,-1,0.0,,0.0,0
2175201,1463931885365,0.052,147,182,24,177,,0.01,0.09,0.98,-3.0,-0.5,0.0,700,0,39.53965,-122.331352,0.0,0.745,301.7,9,3,1.8,0,0.0,-1,0.0,0.0,0.0,0
2175221,1463931885384,,,,,,,0.01,0.1,0.97,-3.0,-0.6,-0.1,700,0,39.53965,-122.331352,0.0,0.745,301.7,9,3,1.8,0,0.0,-1,0.0,,0.0,0
2175241,1463931885405,,,,,,,0.01,0.1,0.98,-3.1,-0.5,0.0,680,0,39.53965,-122.331352,0.0,0.745,301.7,9,3,1.8,0,0.0,-1,0.0,,0.0,0
2175261,1463931885426,,,,,,,0.01,0.1,0.98,-3.0,-0.5,0.0,660,0,39.53965,-122.331352,0.0,0.745,301.7,9,3,1.8,0,0.0,-1,0.0,,0.0,0
2175281,1463931885447,,,,,,,0.02,0.09,0.98,-3.0,-0.3,-0.0,660,0,39.53965,-122.331352,0.0,0.745,301.7,9,3,1.8,0,0.0,-1,0.0,,0.0,0
2175301,1463931885468,,,,24,,,0.02,0.11,0.98,-3.0,-0.2,0.1,660,0,39.53965,-122.331352,0.0,0.745,301.7,9,3,1.8,0,0.0,-1,0.0,,0.0,0
2175321,1463931885487,,,,,,,0.02,0.1,0.98,-3.0,-0.2,0.1,680,0,39.53965,-122.331352,0.0,0.745,301.7,9,3,1.8,0,0.0,-1,0.0,,0.0,0
2175341,1463931885508,,,,,,,0.02,0.09,0.98,-3.0,-0.2,-0.0,680,0,39.53965,-122.331352,0.0,0.745,301.7,9,3,1.8,0,0.0,-1,0.0,,0.0,0
2175361,1463931885529,,,,,,,0.02,0.09,0.98,-3.0,-0.1,0.0,680,0,39.53965,-122.331352,0.0,0.745,301.7,9,3,1.8,0,0.0,-1,0.0,,0.0,0
2175381,1463931885549,,,,,,,0.02,0.09,0.98,-3.1,-0.1,0.0,700,0,39.53965,-122.331352,0.0,0.745,301.7,9,3,1.8,0,0.0,-1,0.0,,0.0,0
2175401,1463931885569,0.003,146,181,24,177,,0.02,0.08,0.97,-3.1,-0.2,-0.0,680,0,39.53965,-122.331352,0.0,0.745,301.7,9,3,1.8,0,0.0,-1,0.0,0.0,0.0,0
2175421,1463931885589,,,,,,,0.02,0.08,0.97,-3.1,-0.1,-0.0,680,0,39.53965,-122.331352,0.0,0.745,301.7,9,3,1.8,0,0.0,-1,0.0,,0.0,0
2175441,1463931885611,,,,,,,0.01,0.09,0.98,-3.1,-0.1,0.0,660,0,39.53965,-122.331352,0.0,0.745,301.7,9,3,1.8,0,0.0,-1,0.0,,0.0,0
2175461,1463931885632,,,,,,,0.01,0.09,0.97,-3.1,-0.2,-0.0,680,0,39.53965,-122.331352,0.0,0.745,301.7,9,3,1.8,0,0.0,-1,0.0,,0.0,0
2175481,1463931885652,,,,,,,0.01,0.09,0.97,-3.1,-0.2,-0.1,680,0,39.53965,-122.331352,0.0,0.745,301.7,9,3,1.8,0,0.0,-1,0.0,,0.0,0
2175501,1463931885672,,,,23,,,0.02,0.11,0.98,-3.1,-0.2,0.0,680,0,39.53965,-122.331352,0.0,0.745,301.7,9,3,1.8,0,0.0,-1,0.0,,0.0,0
2175521,1463931885693,,,,,,,0.02,0.1,0.98,-3.0,-0.3,-0.0,680,0,39.53965,-122.331352,0.0,0.745,301.7,9,3,1.8,0,0.0,-1,0.0,,0.0,0
2175541,1463931885713,,,,,,,0.02,0.1,0.98,-3.0,-0.3,-0.1,680,0,39.53965,-122.331352,0.0,0.745,301.7,9,3,1.8,0,0.0,-1,0.0,,0.0,0
2175561,1463931885734,,,,,,,0.02,0.1,0.98,-3.0,-0.3,-0.0,720,0,39.53965,-122.331352,0.0,0.745,301.7,9,3,1.8,0,0.0,-1,0.0,,0.0,0
2175581,1463931885751,,,,,,,0.02,0.1,0.98,-3.0,-0.3,-0.0,680,0,39.53965,-122.331352,0.0,0.745,301.7,9,3,1.8,0,0.0,-1,0.0,,0.0,0
2175601,1463931885771,0.075,147,182,22,178,,0.02,0.09,0.98,-3.0,-0.3,-0.0,680,0,39.53965,-122.331352,0.0,0.745,301.7,9,2,1.8,0,0.0,-1,0.0,0.0,0.0,0
2175621,1463931885791,,,,,,,0.02,0.1,0.98,-3.0,-0.3,-0.0,660,0,39.53965,-122.331352,0.0,0.745,301.7,9,2,1.8,0,0.0,-1,0.0,,0.0,0
2175641,1463931885810,,,,,,,0.02,0.1,0.99,-3.0,-0.3,0.0,680,0,39.53965,-122.331352,0.0,0.745,301.7,9,2,1.8,0,0.0,-1,0.0,,0.0,0
2175661,1463931885825,,,,,,,0.02,0.09,0.99,-3.0,-0.4,-0.1,680,0,39.53965,-122.331352,0.0,0.745,301.7,9,3,1.8,0,0.0,-1,0.0,,0.0,0
2175681,1463931885841,,,,,,,0.02,0.1,1.0,-3.0,-0.3,-0.0,680,0,39.539642,-122.331352,1.3,0.746,318.4,9,2,1.8,0,0.0,-1,0.0,,0.0,0
2175701,1463931885857,,,,22,,,0.02,0.1,1.0,-3.0,-0.3,0.0,680,0,39.539642,-122.331352,2.36,0.746,318.4,9,2,1.8,0,0.0,-1,0.0,,0.0,0
2175721,1463931885876,,,,,,,0.01,0.09,1.0,-3.0,-0.4,-0.1,700,0,39.539642,-122.331352,3.6,0.746,318.4,9,2,1.8,0,0.0,-1,0.0,,0.0,0
2175741,1463931885892,,,,,,,0.01,0.09,1.01,-3.0,-0.4,-0.1,700,0,39.539646,-122.331352,8.83,0.746,318.4,9,2,1.8,0,0.0,-1,0.0,,0.0,0
2175761,1463931885912,,,,,,,0.01,0.09,1.0,-3.0,-0.5,0.0,680,0,39.539646,-122.331352,8.83,0.746,318.4,9,2,1.8,0,0.0,-1,0.0,,0.0,0
2175781,1463931885929,,,,,,,0.01,0.08,1.0,-3.0,-0.4,0.0,660,0,39.539646,-122.331352,11.31,0.746,318.5,9,2,1.8,0,0.0,-1,0.0,,0.0,0
2175801,1463931885947,0.055,147,181,24,177,,0.01,0.08,1.0,-3.0,-0.4,0.0,660,0,39.539646,-122.331352,14.78,0.746,318.5,9,2,1.8,0,0.0,-1,0.0,0.0,0.0,0
2175821,1463931885964,,,,,,,0.02,0.09,0.99,-3.0,-0.4,0.1,660,0,39.539646,-122.331352,16.07,0.746,318.8,9,3,1.8,0,0.0,-1,0.0,,0.0,0
2175841,1463931885973,,,,,,,0.02,0.08,0.98,-3.0,-0.4,0.1,680,0,39.53965,-122.331352,14.77,0.746,319.0,9,2,1.8,0,0.0,-1,0.0,,0.0,0
2175861,1463931885991,,,,,,,0.02,0.08,0.98,-3.0,-0.4,0.0,680,0,39.53965,-122.331352,14.67,0.746,319.3,9,2,0.5,0,0.0,-1,0.0,,0.0,0
2175881,1463931886011,,,,,,,0.03,0.09,0.98,-3.0,-0.3,0.0,680,0,39.53965,-122.331352,14.67,0.746,319.3,9,2,0.5,0,0.0,-1,0.0,,0.0,0
2175901,1463931886030,,,,23,,,0.03,0.09,0.97,-3.0,-0.3,0.0,700,0,39.53965,-122.331352,13.81,0.746,319.5,9,2,0.5,0,0.0,-1,0.0,,0.0,0
2175921,1463931886049,,,,,,,0.03,0.09,0.98,-3.0,-0.3,-0.0,700,0,39.53965,-122.331352,13.32,0.746,319.7,9,2,0.5,0,0.0,-1,0.0,,0.0,0
2175941,1463931886066,,,,,,,0.03,0.1,0.98,-3.0,-0.3,-0.0,680,0,39.53965,-122.331352,13.41,0.746,319.8,9,2,0.5,0,0.0,-1,0.0,,0.0,0
2175961,1463931886085,,,,,,,0.03,0.1,0.98,-3.0,-0.2,-0.0,660,0,39.53965,-122.331352,13.86,0.746,319.9,9,2,0.5,0,0.0,-1,0.0,,0.0,0
2175981,1463931886107,,,,,,,0.02,0.09,0.98,-3.0,-0.3,-0.1,660,0,39.53965,-122.331352,14.39,0.746,320.0,9,2,0.5,0,0.0,-1,0.0,,0.0,0
2176001,1463931886127,0.08,147,181,24,177,14.53,0.02,0.1,0.98,-3.0,-0.2,-0.0,660,0,39.539654,-122.331352,14.13,0.747,320.1,9,3,0.5,0,0.0,-1,0.0,0.0,0.0,0
2176021,1463931886146,,,,,,,0.02,0.1,0.98,-3.0,-0.2,0.0,680,0,39.539654,-122.331352,14.95,0.747,320.1,9,2,0.5,0,0.0,-1,0.0,,0.0,0
2176041,1463931886166,,,,,,,0.02,0.09,0.98,-2.9,-0.3,-0.1,680,0,39.539654,-122.331352,15.41,0.747,320.2,9,2,0.5,0,0.0,-1,0.0,,0.0,0
2176061,1463931886186,,,,,,,0.02,0.09,0.99,-3.0,-0.3,-0.0,680,0,39.539654,-122.331352,15.76,0.747,320.2,9,2,0.5,0,0.0,-1,0.0,,0.0,0
2176081,1463931886205,,,,,,,0.02,0.1,0.98,-3.0,-0.3,0.0,700,0,39.539654,-122.331352,15.96,0.747,320.3,9,2,0.5,0,0.0,-1,0.0,,0.0,0
2176101,1463931886225,,,,23,,,0.02,0.09,0.98,-3.0,-0.2,0.0,680,0,39.539658,-122.331352,16.82,0.747,320.3,9,2,0.5,0,0.0,-1,0.0,,0.0,0
2176121,1463931886244,,,,,,,0.02,0.1,0.98,-3.0,-0.2,0.0,680,0,39.539658,-122.331345,16.95,0.747,320.3,9,2,0.5,0,0.0,-1,0.0,,0.0,0
2176141,1463931886264,,,,,,,0.01,0.1,0.98,-3.0,-0.3,0.1,660,0,39.539658,-122.331345,17.48,0.747,320.3,9,2,0.5,0,0.0,-1,0.0,,0.0,0
2176161,1463931886283,,,,,,,0.02,0.1,0.98,-3.0,-0.2,0.0,660,0,39.539658,-122.331345,18.58,0.747,320.3,9,2,0.5,0,0.0,-1,0.0,,0.0,0
2176181,1463931886303,,,,,,,0.01,0.1,0.98,-3.0,-0.3,0.0,660,0,39.539661,-122.331345,18.83,0.748,320.3,9,2,0.5,0,0.0,-1,0.0,,0.0,0
2176201,1463931886322,0.087,147,181,22,177,,0.01,0.1,0.98,-3.0,-0.4,0.0,660,0,39.539661,-122.331345,19.17,0.748,320.3,9,2,0.5,0,0.0,-1,0.0,0.0,0.0,0
2176221,1463931886342,,,,,,,0.01,0.1,0.98,-3.0,-0.4,0.0,660,0,39.539661,-122.331345,19.33,0.748,320.3,9,2,0.5,0,0.0,-1,0.0,,0.0,0
2176241,1463931886361,,,,,,,0.01,0.09,0.98,-3.0,-0.4,-0.0,660,0,39.539661,-122.331345,20.0,0.748,320.4,9,2,0.5,0,0.0,-1,0.0,,0.0,0
2176261,1463931886379,,,,,,,0.02,0.09,0.99,-3.0,-0.5,0.0,700,0,39.539665,-122.331329,20.16,0.749,320.4,9,2,0.5,0,0.0,-1,0.0,,0.0,0
2176281,1463931886398,,,,,,,0.02,0.09,0.98,-3.0,-0.4,0.0,660,0,39.539665,-122.331329,21.36,0.749,320.4,9,2,0.5,0,0.0,-1,0.0,,0.0,0
2176301,1463931886418,,,,22,,,0.02,0.08,0.98,-3.0,-0.4,-0.0,660,0,39.539665,-122.331329,21.86,0.749,320.4,9,2,0.5,0,0.0,-1,0.0,,0.0,0
2176321,1463931886437,,,,,,,0.02,0.09,0.98,-3.1,-0.3,0.0,640,0,39.539669,-122.331329,22.17,0.749,320.4,9,2,0.5,0,0.0,-1,0.0,,0.0,0
2176341,1463931886457,,,,,,,0.02,0.09,0.97,-3.0,-0.4,-0.0,640,0,39.539669,-122.331329,21.81,0.749,320.4,9,2,0.5,0,0.0,-1,0.0,,0.0,0
2176361,1463931886477,,,,,,,0.02,0.08,0.97,-3.0,-0.3,-0.1,640,0,39.539669,-122.331329,21.47,0.749,320.4,9,2,0.5,0,0.0,-1,0.0,,0.0,0
2176381,1463931886497,,,,,,,0.03,0.1,0.97,-3.0,-0.3,-0.0,640,0,39.539669,-122.331329,21.54,0.749,320.4,9,2,0.5,0,0.0,-1,0.0,,0.0,0
2176401,1463931886516,0.063,147,182,20,177,,0.02,0.09,0.97,-3.0,-0.3,-0.0,640,0,39.539669,-122.331314,21.39,0.75,320.4,9,2,0.5,0,0.0,-1,0.0,0.0,0.0,0
2176421,1463931886535,,,,,,,0.02,0.09,0.97,-3.0,-0.3,-0.0,640,0,39.539669,-122.331314,21.43,0.75,320.4,9,2,0.5,0,0.0,-1,0.0,,0.0,0
2176441,1463931886554,,,,,,,0.03,0.1,0.98,-3.0,-0.3,0.0,660,0,39.539669,-122.331314,21.2,0.75,320.4,9,2,0.5,0,0.0,-1,0.0,,0.0,0
2176461,1463931886652,,,,,,,0.03,0.09,0.97,-3.0,-0.3,0.0,620,0,39.539673,-122.331306,21.39,0.75,320.5,9,2,0.5,0,0.0,-1,0.0,,0.0,0
2176481,1463931886672,,,,,,,0.03,0.1,0.98,-3.0,-0.3,0.0,620,0,39.539673,-122.331306,21.39,0.75,320.5,9,2,0.5,0,0.0,-1,0.0,,0.0,0
2176501,1463931886692,,,,19,,,0.03,0.1,0.98,-3.1,-0.3,0.0,600,0,39.539677,-122.331306,21.21,0.75,320.5,9,2,0.5,0,0.0,-1,0.0,,0.0,0
2176521,1463931886712,,,,,,,0.02,0.09,0.97,-3.0,-0.4,-0.0,600,0,39.539677,-122.331306,18.67,0.75,320.5,9,3,0.5,0,0.0,-1,0.0,,0.0,0
2176541,1463931886732,,,,,,,0.02,0.09,0.98,-3.0,-0.4,0.0,600,0,39.539677,-122.331306,18.67,0.75,320.5,9,3,0.5,0,0.0,-1,0.0,,0.0,0
2176561,1463931886750,,,,,,,0.02,0.09,0.97,-3.0,-0.4,0.0,600,0,39.539677,-122.331306,19.47,0.75,320.5,9,2,0.5,0,0.0,-1,0.0,,0.0,0
2176581,1463931886769,,,,,,,0.02,0.08,0.97,-3.0,-0.3,-0.0,600,0,39.53968,-122.331306,19.16,0.751,320.5,9,2,0.5,0,0.0,-1,0.0,,0.0,0
2176601,1463931886788,0.07,147,182,20,177,,0.02,0.09,0.98,-3.1,-0.3,0.0,600,0,39.53968,-122.331291,19.27,0.751,320.6,9,2,0.5,0,0.0,-1,0.0,0.0,0.0,0
2176621,1463931886806,,,,,,,0.02,0.09,0.97,-3.0,-0.3,-0.0,600,0,39.53968,-122.331291,19.42,0.751,320.6,9,2,0.5,0,0.0,-1,0.0,,0.0,0
2176641,1463931886826,,,,,,,0.02,0.08,0.98,-3.0,-0.2,0.0,620,0,39.53968,-122.331291,19.04,0.751,320.6,9,2,0.5,0,0.0,-1,0.0,,0.0,0
2176661,1463931886845,,,,,,,0.02,0.09,0.98,-3.0,-0.3,0.0,600,0,39.539684,-122.331291,18.85,0.752,320.6,9,2,0.5,0,0.0,-1,0.0,,0.0,0
2176681,1463931886864,,,,,,,0.02,0.09,0.97,-3.0,-0.3,0.0,600,0,39.539684,-122.331291,19.24,0.752,320.6,9,2,0.5,0,0.0,-1,0.0,,0.0,0
2176701,1463931886883,,,,18,,,0.03,0.09,0.98,-3.0,-0.3,0.1,560,0,39.539684,-122.331291,19.68,0.752,320.6,9,2,0.5,0,0.0,-1,0.0,,0.0,0
2176721,1463931886902,,,,,,,0.02,0.08,0.98,-3.0,-0.4,-0.0,560,0,39.539684,-122.331291,19.76,0.752,320.6,9,2,0.5,0,0.0,-1,0.0,,0.0,0
2176741,1463931886921,,,,,,,0.02,0.08,0.98,-3.0,-0.3,0.0,560,0,39.539688,-122.331291,20.49,0.752,320.6,9,2,0.5,0,0.0,-1,0.0,,0.0,0
2176761,1463931886941,,,,,,,0.03,0.08,0.98,-3.0,-0.3,0.0,560,0,39.539688,-122.331276,20.36,0.753,320.6,9,2,0.5,0,0.0,-1,0.0,,0.0,0
2176781,1463931886960,,,,,,,0.02,0.09,0.97,-3.0,-0.3,-0.0,560,0,39.539688,-122.331276,20.3,0.753,320.6,9,2,0.5,0,0.0,-1,0.0,,0.0,0
2176801,1463931886980,0.075,148,181,17,177,,0.03,0.09,0.97,-3.1,-0.2,0.0,560,0,39.539688,-122.331276,20.3,0.753,320.6,9,2,0.5,0,0.0,-1,0.0,0.0,0.0,0
2176821,1463931886991,,,,,,,0.02,0.09,0.97,-3.0,-0.2,-0.0,560,0,39.539692,-122.331276,19.75,0.753,320.6,9,2,2.1,0,0.0,-1,0.0,,0.0,0
2176841,1463931887012,,,,,,,0.02,0.1,0.97,-3.0,-0.2,0.0,580,0,39.539692,-122.331276,19.66,0.753,320.6,9,2,2.1,0,0.0,-1,0.0,,0.0,0
2176861,1463931887034,,,,,,,0.02,0.1,0.97,-3.0,-0.3,-0.0,580,0,39.539692,-122.331276,19.56,0.753,320.6,9,2,2.1,0,0.0,-1,0.0,,0.0,0
2176881,1463931887056,,,,,,,0.03,0.1,0.97,-3.0,-0.3,-0.0,560,0,39.539692,-122.331276,19.48,0.753,320.6,9,2,2.1,0,0.0,-1,0.0,,0.0,0
2176901,1463931887076,,,,17,,,0.03,0.1,0.98,-3.0,-0.2,-0.0,540,0,39.539692,-122.331268,19.4,0.753,320.6,9,2,2.1,0,0.0,-1,0.0,,0.0,0
2176921,1463931887096,,,,,,,0.03,0.11,0.98,-3.1,-0.2,0.0,540,0,39.539692,-122.331268,19.27,0.753,320.6,9,2,2.1,0,0.0,-1,0.0,,0.0,0
2176941,1463931887118,,,,,,,0.03,0.1,0.98,-3.0,-0.2,0.1,540,0,39.539692,-122.331268,19.15,0.753,320.7,9,2,2.1,0,0.0,-1,0.0,,0.0,0
2176961,1463931887140,,,,,,,0.03,0.1,0.98,-3.0,-0.1,0.0,540,0,39.539692,-122.331268,19.01,0.753,320.7,9,2,2.1,0,0.0,-1,0.0,,0.0,0
2176981,1463931887161,,,,,,,0.02,0.1,0.98,-3.0,-0.1,0.1,540,0,39.539696,-122.331268,18.91,0.754,320.7,9,2,2.1,0,0.0,-1,0.0,,0.0,0
2177001,1463931887183,0.08,147,182,16,177,13.62,0.02,0.09,0.98,-3.0,-0.2,0.0,540,0,39.539696,-122.331268,18.81,0.754,320.7,9,2,2.1,0,0.0,-1,0.0,0.0,0.0,0
2177021,1463931887205,,,,,,,0.02,0.1,0.98,-3.0,-0.3,0.0,540,0,39.539696,-122.331268,18.66,0.754,320.7,9,2,2.1,0,0.0,-1,0.0,,0.0,0
2177041,1463931887227,,,,,,,0.02,0.09,0.98,-3.0,-0.3,-0.0,540,0,39.539696,-122.331268,18.57,0.754,320.7,9,2,2.1,0,0.0,-1,0.0,,0.0,0
2177061,1463931887248,,,,,,,0.02,0.09,0.99,-3.0,-0.2,0.0,560,0,39.5397,-122.331268,18.49,0.754,320.7,9,2,2.1,0,0.0,-1,0.0,,0.0,0
2177081,1463931887271,,,,,,,0.02,0.1,0.98,-3.0,-0.3,0.1,560,0,39.5397,-122.331253,18.2,0.755,320.7,9,2,2.1,0,0.0,-1,0.0,,0.0,0
2177101,1463931887293,,,,18,,,0.02,0.1,0.98,-3.0,-0.2,0.1,560,0,39.5397,-122.331253,18.17,0.755,320.7,9,2,2.1,0,0.0,-1,0.0,,0.0,0
2177121,1463931887314,,,,,,,0.02,0.11,0.98,-3.0,-0.2,0.1,540,0,39.539703,-122.331253,18.1,0.755,320.7,9,2,2.1,0,0.0,-1,0.0,,0.0,0
2177141,1463931887334,,,,,,,0.02,0.1,0.98,-3.0,-0.3,0.1,540,0,39.539703,-122.331253,17.98,0.755,320.7,9,2,0.4,0,0.0,-1,0.0,,0.0,0
2177161,1463931887354,,,,,,,0.02,0.11,0.98,-3.1,-0.3,0.1,540,0,39.539703,-122.331253,17.83,0.755,320.8,9,2,0.4,0,0.0,-1,0.0,,0.0,0
2177181,1463931887374,,,,,,,0.02,0.1,0.98,-3.0,-0.3,0.0,540,0,39.539703,-122.331253,17.74,0.755,320.8,9,2,0.4,0,0.0,-1,0.0,,0.0,0
2177201,1463931887395,0.065,147,182,16,178,,0.02,0.1,0.98,-3.1,-0.3,0.0,540,0,39.539707,-122.331253,17.67,0.755,320.8,9,2,0.4,0,0.0,-1,0.0,0.0,0.0,0
2177221,1463931887415,,,,,,,0.02,0.09,0.98,-3.0,-0.4,-0.0,540,0,39.539707,-122.331238,17.59,0.756,320.8,9,2,0.4,0,0.0,-1,0.0,,0.0,0
2177241,1463931887436,,,,,,,0.02,0.1,0.98,-3.1,-0.4,0.0,560,0,39.539707,-122.331238,17.44,0.756,320.8,9,2,0.4,0,0.0,-1,0.0,,0.0,0
2177261,1463931887376,,,,,,,0.02,0.09,0.98,-3.0,-0.4,0.0,580,0,39.539703,-122.331253,17.37,0.757,320.8,9,2,0.4,0,0.0,-1,0.0,,0.0,0
2177281,1463931887397,,,,,,,0.02,0.09,0.98,-3.0,-0.4,-0.1,580,0,39.539703,-122.331253,17.28,0.757,320.8,9,2,0.4,0,0.0,-1,0.0,,0.0,0
2177301,1463931887418,,,,18,,,0.02,0.09,0.98,-3.1,-0.1,-0.0,580,0,39.539707,-122.331253,17.16,0.757,320.8,9,2,0.4,0,0.0,-1,0.0,,0.0,0
2177321,1463931887439,,,,,,,0.02,0.1,0.98,-3.1,-0.2,-0.1,580,0,39.539707,-122.331238,16.99,0.758,320.8,9,2,0.4,0,0.0,-1,0.0,,0.0,0
2177341,1463931887459,,,,,,,0.02,0.1,0.97,-3.1,-0.2,-0.0,540,0,39.539707,-122.331238,16.59,0.758,320.8,9,2,0.4,0,0.0,-1,0.0,,0.0,0
2177361,1463931887480,,,,,,,0.02,0.1,0.97,-3.0,-0.2,-0.0,540,0,39.539707,-122.331238,16.53,0.758,320.8,9,2,0.4,0,0.0,-1,0.0,,0.0,0
2177381,1463931887500,,,,,,,0.02,0.11,0.98,-3.0,-0.2,-0.0,540,0,39.539711,-122.331238,16.45,0.758,320.8,9,2,0.4,0,0.0,-1,0.0,,0.0,0
2177401,1463931887520,0.026,147,182,18,178,,0.02,0.11,0.98,-3.0,-0.3,-0.0,560,0,39.539711,-122.331238,16.03,0.758,320.8,9,2,0.4,0,0.0,-1,0.0,0.0,0.0,0
2177421,1463931887541,,,,,,,0.02,0.1,0.98,-3.0,-0.2,-0.0,560,0,39.539711,-122.331238,15.75,0.758,320.8,9,2,0.4,0,0.0,-1,0.0,,0.0,0
2177441,1463931887562,,,,,,,0.02,0.1,0.98,-3.0,-0.2,-0.0,580,0,39.539711,-122.331238,15.69,0.758,320.8,9,2,0.4,0,0.0,-1,0.0,,0.0,0
2177461,1463931887582,,,,,,,0.02,0.09,0.98,-3.0,-0.3,-0.1,580,0,39.539711,-122.331238,15.44,0.758,320.9,9,2,0.4,0,0.0,-1,0.0,,0.0,0
2177481,1463931887604,,,,,,,0.02,0.09,0.98,-3.0,-0.2,-0.1,620,0,39.539711,-122.331238,15.36,0.758,320.9,9,2,0.4,0,0.0,-1,0.0,,0.0,0
2177501,1463931887625,,,,19,,,0.02,0.08,0.97,-3.0,-0.3,-0.1,600,0,39.539711,-122.331238,12.99,0.758,320.9,9,3,0.4,0,0.0,-1,0.0,,0.0,0
2177521,1463931887647,,,,,,,0.01,0.08,0.97,-3.0,-0.3,-0.0,600,0,39.539711,-122.33123,12.96,0.759,320.9,9,2,0.4,0,0.0,-1,0.0,,0.0,0
2177541,1463931887667,,,,,,,0.01,0.09,0.97,-3.0,-0.3,-0.0,580,0,39.539711,-122.33123,11.62,0.759,320.9,9,3,0.4,0,0.0,-1,0.0,,0.0,0
2177561,1463931887687,,,,,,,0.01,0.09,0.97,-3.0,-0.3,-0.1,580,0,39.539711,-122.33123,11.58,0.759,320.9,9,2,0.4,0,0.0,-1,0.0,,0.0,0
2177581,1463931887707,,,,,,,0.01,0.09,0.97,-3.0,-0.2,-0.0,600,0,39.539711,-122.33123,11.5,0.759,320.9,9,2,0.4,0,0.0,-1,0.0,,0.0,0
2177601,1463931887727,0.085,147,182,20,177,,0.01,0.1,0.97,-3.0,-0.3,0.0,620,0,39.539711,-122.33123,11.46,0.759,320.9,9,2,0.4,0,0.0,-1,0.0,0.0,0.0,0
2177621,1463931887748,,,,,,,0.01,0.1,0.97,-3.0,-0.4,-0.0,620,0,39.539715,-122.33123,11.44,0.759,320.9,9,2,0.4,0,0.0,-1,0.0,,0.0,0
2177641,1463931887771,,,,,,,0.02,0.11,0.97,-3.1,-0.3,-0.0,640,0,39.539715,-122.33123,11.25,0.759,320.9,9,2,0.4,0,0.0,-1,0.0,,0.0,0
2177661,1463931887792,,,,,,,0.02,0.11,0.97,-3.1,-0.3,-0.0,660,0,39.539715,-122.33123,9.73,0.759,320.9,9,3,0.4,0,0.0,-1,0.0,,0.0,0
2177681,1463931887813,,,,,,,0.02,0.1,0.97,-3.0,-0.4,-0.1,660,0,39.539715,-122.33123,9.71,0.759,320.8,9,2,0.4,0,0.0,-1,0.0,,0.0,0
2177701,1463931887834,,,,20,,,0.02,0.11,0.98,-3.1,-0.4,-0.0,640,0,39.539715,-122.33123,9.7,0.759,320.8,9,2,0.4,0,0.0,-1,0.0,,0.0,0
2177721,1463931887854,,,,,,,0.02,0.1,0.98,-3.0,-0.5,-0.0,640,0,39.539715,-122.33123,9.66,0.759,320.8,9,2,0.4,0,0.0,-1,0.0,,0.0,0
2177741,1463931887874,,,,,,,0.02,0.09,0.98,-3.0,-0.5,0.0,640,0,39.539719,-122.33123,9.31,0.759,320.8,9,2,0.4,0,0.0,-1,0.0,,0.0,0
2177761,1463931887896,,,,,,,0.02,0.1,0.98,-3.1,-0.6,0.1,640,0,39.539719,-122.33123,9.28,0.759,320.8,9,2,0.4,0,0.0,-1,0.0,,0.0,0
2177781,1463931887920,,,,,,,0.02,0.1,0.97,-3.1,-0.6,0.1,660,0,39.539719,-122.331215,9.27,0.76,320.8,9,2,0.4,0,0.0,-1,0.0,,0.0,0
2177801,1463931887943,0.094,147,182,20,178,,0.02,0.1,0.97,-3.1,-0.6,0.0,660,0,39.539719,-122.331215,9.27,0.76,320.8,9,2,0.4,0,0.0,-1,0.0,0.0,0.0,0
2177821,1463931887966,,,,,,,0.02,0.1,0.97,-3.1,-0.5,0.1,660,0,39.539719,-122.331215,9.2,0.76,320.8,9,2,0.4,0,0.0,-1,0.0,,0.0,0
2177841,1463931887975,,,,,,,0.01,0.1,0.96,-3.1,-0.6,0.1,700,0,39.539719,-122.331215,7.93,0.76,320.8,9,3,0.4,0,0.0,-1,0.0,,0.0,0
2177861,1463931887995,,,,,,,0.01,0.1,0.97,-3.1,-0.6,-0.0,700,0,39.539719,-122.331215,7.46,0.76,320.8,9,3,1.8,0,0.0,-1,0.0,,0.0,0
2177881,1463931888016,,,,,,,0.01,0.11,0.97,-3.1,-0.7,-0.0,680,0,39.539719,-122.331215,2.3,0.76,320.9,9,3,1.8,0,0.0,-1,0.0,,0.0,0
2177901,1463931888037,,,,21,,,0.02,0.1,0.97,-3.1,-0.6,-0.0,660,0,39.539719,-122.331215,2.76,0.76,320.9,9,3,1.8,0,0.0,-1,0.0,,0.0,0
2177921,1463931888057,,,,,,,0.02,0.09,0.97,-3.0,-0.5,-0.0,660,0,39.539719,-122.331215,0.0,0.76,321.0,9,3,1.8,0,0.0,-1,0.0,,0.0,0
2177941,1463931888077,,,,,,,0.03,0.1,0.97,-3.1,-0.4,0.0,660,0,39.539719,-122.331215,1.41,0.76,321.0,9,3,1.8,0,0.0,-1,0.0,,0.0,0
2177961,1463931888099,,,,,,,0.02,0.1,0.97,-3.0,-0.4,0.0,680,0,39.539719,-122.331215,0.0,0.76,320.9,9,3,1.8,0,0.0,-1,0.0,,0.0,0
2177981,1463931888120,,,,,,,0.02,0.09,0.97,-3.0,-0.2,-0.0,680,0,39.539719,-122.331215,0.0,0.76,321.0,9,3,1.8,0,0.0,-1,0.0,,0.0,0
2178001,1463931888142,0.073,147,181,22,177,14.37,0.03,0.1,0.97,-3.1,-0.1,0.0,680,0,39.539719,-122.331215,0.0,0.76,321.0,9,3,1.8,0,0.0,-1,0.0,0.0,0.0,0
2178021,1463931888164,,,,,,,0.03,0.1,0.97,-3.0,-0.1,0.1,700,0,39.539719,-122.33123,0.0,0.761,321.2,9,3,1.8,0,0.0,-1,0.0,,0.0,0
2178041,1463931888186,,,,,,,0.02,0.09,0.97,-3.0,-0.2,0.0,700,0,39.539719,-122.33123,0.0,0.761,321.1,9,3,1.8,0,0.0,-1,0.0,,0.0,0
2178061,1463931888212,,,,,,,0.02,0.1,0.97,-3.0,-0.2,-0.0,700,0,39.539719,-122.33123,0.0,0.761,321.1,9,3,1.8,0,0.0,-1,0.0,,0.0,0
2178081,1463931888234,,,,,,,0.02,0.1,0.98,-3.0,-0.2,0.1,680,0,39.539719,-122.33123,0.0,0.761,321.2,9,3,1.8,0,0.0,-1,0.0,,0.0,0
2178101,1463931888256,,,,24,,,0.01,0.1,0.98,-3.0,-0.3,0.0,700,0,39.539719,-122.33123,0.0,0.761,321.2,9,3,1.8,0,0.0,-1,0.0,,0.0,0
2178121,1463931888277,,,,,,,0.01,0.1,0.98,-3.0,-0.5,-0.1,700,0,39.539719,-122.33123,0.0,0.761,321.2,9,3,1.8,0,0.0,-1,0.0,,0.0,0
2178141,1463931888299,,,,,,,0.01,0.11,0.98,-3.0,-0.5,0.1,700,0,39.539719,-122.33123,0.0,0.761,321.2,9,3,1.8,0,0.0,-1,0.0,,0.0,0
2178161,1463931888321,,,,,,,0.02,0.1,0.98,-3.0,-0.4,0.1,700,0,39.539719,-122.33123,0.0,0.761,321.2,9,3,1.8,0,0.0,-1,0.0,,0.0,0
2178181,1463931888343,,,,,,,0.02,0.09,0.98,-3.0,-0.4,-0.1,720,0,39.539719,-122.33123,0.0,0.761,321.2,9,3,1.8,0,0.0,-1,0.0,,0.0,0
2178201,1463931888365,0.075,147,181,25,177,,0.02,0.09,0.98,-3.0,-0.3,-0.1,720,0,39.539719,-122.33123,0.0,0.761,321.2,9,3,1.8,0,0.0,-1,0.0,0.0,0.0,0
2178221,1463931888387,,,,,,,0.02,0.09,0.98,-3.0,-0.3,-0.0,720,0,39.539719,-122.33123,0.0,0.761,321.2,9,3,1.8,0,0.0,-1,0.0,,0.0,0
2178241,1463931888411,,,,,,,0.02,0.08,0.98,-3.0,-0.4,-0.1,700,0,39.539719,-122.33123,0.0,0.761,321.2,9,3,1.8,0,0.0,-1,0.0,,0.0,0
2178261,1463931888433,,,,,,,0.02,0.08,0.98,-2.9,-0.4,-0.1,700,0,39.539719,-122.33123,0.0,0.761,321.2,9,3,1.8,0,0.0,-1,0.0,,0.0,0
2178281,1463931888455,,,,,,,0.02,0.09,0.98,-3.0,-0.2,0.0,720,0,39.539719,-122.33123,0.0,0.761,321.2,9,3,1.8,0,0.0,-1,0.0,,0.0,0
2178301,1463931888476,,,,23,,,0.02,0.09,0.98,-3.0,-0.1,0.1,720,0,39.539719,-122.33123,0.0,0.761,321.2,9,3,1.8,0,0.0,-1,0.0,,0.0,0
2178321,1463931888498,,,,,,,0.02,0.09,0.98,-2.9,-0.3,-0.1,720,0,39.539719,-122.33123,0.0,0.761,321.2,9,3,1.8,0,0.0,-1,0.0,,0.0,0
2178341,1463931888520,,,,,,,0.02,0.09,0.98,-3.0,-0.2,-0.1,720,0,39.539719,-122.33123,0.0,0.761,321.2,9,3,1.8,0,0.0,-1,0.0,,0.0,0
2178361,1463931888542,,,,,,,0.02,0.1,0.98,-3.0,-0.3,0.1,740,0,39.539719,-122.33123,0.0,0.761,321.2,9,3,1.8,0,0.0,-1,0.0,,0.0,0
2178381,1463931888564,,,,,,,0.02,0.1,0.97,-3.0,-0.4,0.1,720,0,39.539719,-122.33123,0.0,0.761,321.2,9,3,1.8,0,0.0,-1,0.0,,0.0,0
2178401,1463931888585,0.048,147,182,25,177,,0.02,0.09,0.96,-2.9,-0.4,0.0,720,0,39.539719,-122.33123,0.0,0.761,321.2,9,3,1.8,0,0.0,-1,0.0,0.0,0.0,0
2178421,1463931888607,,,,,,,0.02,0.08,0.96,-3.0,-0.3,0.0,720,0,39.539719,-122.33123,0.0,0.761,321.2,9,3,1.8,0,0.0,-1,0.0,,0.0,0
2178441,1463931888631,,,,,,,0.02,0.09,0.96,-3.0,-0.3,0.1,720,0,39.539719,-122.33123,0.0,0.761,321.2,9,3,1.8,0,0.0,-1,0.0,,0.0,0
2178461,1463931888662,,,,,,,0.02,0.09,0.97,-3.1,-0.4,0.2,740,0,39.539719,-122.33123,0.0,0.761,321.2,9,3,1.8,0,0.0,-1,0.0,,0.0,0
2178481,1463931888684,,,,,,,0.03,0.09,0.95,-3.0,-0.3,0.2,740,0,39.539719,-122.33123,0.0,0.761,321.2,9,3,1.8,0,0.0,-1,0.0,,0.0,0
2178501,1463931888711,,,,25,,,0.02,0.09,0.96,-3.0,-0.3,0.1,740,0,39.539719,-122.33123,0.0,0.761,321.2,9,3,1.8,0,0.0,-1,0.0,,0.0,0
2178521,1463931888654,,,,,,,0.01,0.09,0.96,-3.0,-0.3,0.1,740,0,39.539715,-122.33123,3.89,0.761,323.3,9,3,1.8,0,0.0,-1,0.0,,0.0,0
2178541,1463931888676,,,,,,,0.01,0.09,0.96,-3.0,-0.4,0.2,740,0,39.539711,-122.33123,1.0,0.761,325.7,9,3,1.8,0,0.0,-1,0.0,,0.0,0
2178561,1463931888699,,,,,,,0.02,0.09,0.96,-3.1,-0.5,0.2,740,0,39.539711,-122.33123,0.0,0.761,327.2,9,3,1.8,0,0.0,-1,0.0,,0.0,0
2178581,1463931888720,,,,,,,0.01,0.09,0.96,-3.0,-0.5,0.1,740,0,39.539711,-122.33123,0.0,0.761,328.3,9,3,1.8,0,0.0,-1,0.0,,0.0,0
2178601,1463931888744,0.003,147,182,27,177,,0.01,0.08,0.97,-3.0,-0.6,0.0,740,0,39.539711,-122.33123,0.0,0.761,329.0,9,3,1.8,0,0.0,-1,0.0,0.0,0.0,0
2178621,1463931888767,,,,,,,0.01,0.09,0.96,-3.1,-0.6,0.1,740,0,39.539711,-122.33123,0.0,0.761,329.5,9,3,1.8,0,0.0,-1,0.0,,0.0,0
2178641,1463931888792,,,,,,,0.02,0.09,0.96,-3.1,-0.6,0.1,740,0,39.539711,-122.33123,0.0,0.761,330.0,9,3,1.8,0,0.0,-1,0.0,,0.0,0
2178661,1463931888815,,,,,,,0.01,0.09,0.96,-3.1,-0.7,-0.0,740,0,39.539711,-122.33123,0.0,0.761,330.1,9,3,1.8,0,0.0,-1,0.0,,0.0,0
2178681,1463931888838,,,,,,,0.01,0.09,0.96,-3.1,-0.6,-0.0,740,0,39.539711,-122.33123,0.0,0.761,330.2,9,3,1.8,0,0.0,-1,0.0,,0.0,0
2178701,1463931888860,,,,24,,,0.01,0.09,0.95,-3.1,-0.5,0.0,740,0,39.539711,-122.33123,0.0,0.761,330.1,9,3,1.8,0,0.0,-1,0.0,,0.0,0
2178721,1463931888881,,,,,,,0.02,0.09,0.95,-3.0,-0.5,0.0,720,0,39.539711,-122.33123,0.0,0.761,330.1,9,3,1.8,0,0.0,-1,0.0,,0.0,0
2178741,1463931888903,,,,,,,0.01,0.09,0.96,-3.0,-0.5,-0.0,720,0,39.539711,-122.33123,0.0,0.761,330.1,9,3,1.8,0,0.0,-1,0.0,,0.0,0
2178761,1463931888926,,,,,,,0.01,0.09,0.96,-3.1,-0.4,0.0,720,0,39.539711,-122.33123,0.0,0.761,330.1,9,3,1.8,0,0.0,-1,0.0,,0.0,0
2178781,1463931888948,,,,,,,0.02,0.09,0.96,-3.1,-0.3,0.1,720,0,39.539711,-122.33123,0.0,0.761,330.1,9,3,1.8,0,0.0,-1,0.0,,0.0,0
2178801,1463931888970,0.064,147,182,24,178,,0.02,0.09,0.97,-3.1,-0.4,0.1,720,0,39.539711,-122.33123,0.0,0.761,330.1,9,3,1.8,0,0.0,-1,0.0,0.0,0.0,0
2178821,1463931888982,,,,,,,0.01,0.08,0.97,-3.0,-0.5,-0.1,740,0,39.539711,-122.33123,0.0,0.761,330.1,9,3,1.8,0,0.0,-1,0.0,,0.0,0
2178841,1463931889004,,,,,,,0.01,0.08,0.96,-3.1,-0.4,-0.0,740,0,39.539711,-122.33123,0.0,0.761,330.1,9,3,1.8,0,0.0,-1,0.0,,0.0,0
2178861,1463931889026,,,,,,,0.01,0.08,0.96,-3.0,-0.3,0.1,720,0,39.539711,-122.33123,0.0,0.761,330.1,9,3,1.8,0,0.0,-1,0.0,,0.0,0
2178881,1463931889048,,,,,,,0.01,0.08,0.96,-3.0,-0.2,0.0,700,0,39.539711,-122.33123,0.0,0.761,330.1,9,3,1.8,0,0.0,-1,0.0,,0.0,0
2178901,1463931889071,,,,24,,,0.01,0.09,0.97,-3.0,-0.3,-0.0,700,0,39.539711,-122.33123,0.0,0.761,330.1,9,3,1.8,0,0.0,-1,0.0,,0.0,0
2178921,1463931889093,,,,,,,0.02,0.1,0.96,-3.0,-0.2,0.1,700,0,39.539711,-122.33123,0.0,0.761,330.1,9,3,1.8,0,0.0,-1,0.0,,0.0,0
2178941,1463931889114,,,,,,,0.02,0.1,0.96,-3.0,-0.2,0.1,720,0,39.539711,-122.33123,0.0,0.761,330.1,9,3,1.8,0,0.0,-1,0.0,,0.0,0
2178961,1463931889136,,,,,,,0.02,0.09,0.96,-3.0,-0.2,0.0,720,0,39.539711,-122.33123,0.0,0.761,330.1,9,3,1.8,0,0.0,-1,0.0,,0.0,0
2178981,1463931889158,,,,,,,0.02,0.09,0.97,-3.0,-0.1,0.1,720,0,39.539711,-122.33123,0.0,0.761,330.1,9,3,1.8,0,0.0,-1,0.0,,0.0,0
2179001,1463931889178,0.093,147,182,26,178,14.36,0.02,0.09,0.97,-3.0,-0.2,0.1,720,0,39.539711,-122.33123,0.0,0.761,330.1,9,3,1.8,0,0.0,-1,0.0,0.0,0.0,0
2179021,1463931889200,,,,,,,0.02,0.08,0.97,-3.0,-0.3,0.1,700,0,39.539711,-122.33123,0.0,0.761,330.1,9,3,1.8,0,0.0,-1,0.0,,0.0,0
2179041,1463931889222,,,,,,,0.02,0.08,0.97,-3.0,-0.4,0.1,700,0,39.539711,-122.33123,0.0,0.761,330.1,9,3,1.8,0,0.0,-1,0.0,,0.0,0
2179061,1463931889244,,,,,,,0.02,0.08,0.97,-3.1,-0.2,0.1,700,0,39.539711,-122.33123,0.0,0.761,330.1,9,3,1.8,0,0.0,-1,0.0,,0.0,0
2179081,1463931889266,,,,,,,0.02,0.1,0.97,-3.1,-0.2,0.2,700,0,39.539711,-122.33123,0.0,0.761,330.1,9,3,1.8,0,0.0,-1,0.0,,0.0,0
2179101,1463931889288,,,,23,,,0.02,0.09,0.98,-3.0,-0.2,0.0,700,0,39.539711,-122.33123,0.0,0.761,330.1,9,3,1.8,0,0.0,-1,0.0,,0.0,0
2179121,1463931889311,,,,,,,0.02,0.09,0.98,-3.1,-0.2,0.0,700,0,39.539711,-122.33123,0.0,0.761,330.1,9,3,1.8,0,0.0,-1,0.0,,0.0,0
2179141,1463931889332,,,,,,,0.02,0.1,0.98,-3.1,-0.3,0.1,700,0,39.539711,-122.33123,0.0,0.761,330.1,9,3,1.8,0,0.0,-1,0.0,,0.0,0
2179161,1463931889354,,,,,,,0.02,0.1,0.98,-3.0,-0.3,-0.0,700,0,39.539711,-122.33123,0.0,0.761,330.1,9,3,1.8,0,0.0,-1,0.0,,0.0,0
2179181,1463931889375,,,,,,,0.01,0.1,0.98,-3.0,-0.4,-0.1,700,0,39.539711,-122.33123,0.0,0.761,330.1,9,3,1.8,0,0.0,-1,0.0,,0.0,0
2179201,1463931889397,0.07,147,182,22,178,,0.02,0.1,0.98,-3.0,-0.4,-0.0,700,0,39.539711,-122.33123,0.0,0.761,330.1,9,3,1.8,0,0.0,-1,0.0,0.0,0.0,0
2179221,1463931889419,,,,,,,0.02,0.09,0.98,-3.1,-0.4,-0.0,680,0,39.539711,-122.33123,0.0,0.761,330.1,9,3,1.8,0,0.0,-1,0.0,,0.0,0
2179241,1463931889441,,,,,,,0.01,0.08,0.98,-3.0,-0.3,-0.0,680,0,39.539711,-122.33123,0.0,0.761,330.1,9,3,1.8,0,0.0,-1,0.0,,0.0,0
2179261,1463931889463,,,,,,,0.02,0.09,0.98,-3.1,-0.2,0.0,680,0,39.539711,-122.33123,0.0,0.761,330.1,9,3,1.8,0,0.0,-1,0.0,,0.0,0
2179281,1463931889485,,,,,,,0.02,0.1,0.97,-3.0,-0.2,0.1,680,0,39.539711,-122.33123,0.0,0.761,330.1,9,3,1.8,0,0.0,-1,0.0,,0.0,0
2179301,1463931889504,,,,22,,,0.01,0.09,0.98,-3.0,-0.4,-0.0,680,0,39.539711,-122.33123,0.0,0.761,330.1,9,3,1.8,0,0.0,-1,0.0,,0.0,0
2179321,1463931889446,,,,,,,0.01,0.09,0.99,-3.1,-0.4,-0.0,680,0,39.539711,-122.33123,0.0,0.761,330.1,9,3,1.8,0,0.0,-1,0.0,,0.0,0
2179341,1463931889468,,,,,,,0.01,0.1,0.98,-3.1,-0.5,0.0,700,0,39.539711,-122.33123,0.0,0.761,330.1,9,3,1.8,0,0.0,-1,0.0,,0.0,0
2179361,1463931889492,,,,,,,0.02,0.09,0.98,-3.1,-0.5,-0.0,680,0,39.539711,-122.33123,0.0,0.761,330.1,9,3,1.8,0,0.0,-1,0.0,,0.0,0
2179381,1463931889514,,,,,,,0.02,0.09,0.98,-3.1,-0.5,-0.0,680,0,39.539711,-122.33123,0.0,0.761,330.1,9,3,1.8,0,0.0,-1,0.0,,0.0,0
2179401,1463931889536,0.092,147,182,23,177,,0.01,0.1,0.98,-3.1,-0.5,0.0,660,0,39.539711,-122.33123,0.0,0.761,330.1,9,3,1.8,0,0.0,-1,0.0,0.0,0.0,0
2179421,1463931889558,,,,,,,0.02,0.1,0.98,-3.1,-0.5,0.0,660,0,39.539711,-122.33123,0.0,0.761,330.1,9,3,1.8,0,0.0,-1,0.0,,0.0,0
2179441,1463931889578,,,,,,,0.02,0.1,0.98,-3.0,-0.4,-0.0,660,0,39.539711,-122.33123,0.0,0.761,330.1,9,3,1.8,0,0.0,-1,0.0,,0.0,0
2179461,1463931889600,,,,,,,0.02,0.11,0.98,-3.1,-0.3,0.1,660,0,39.539711,-122.33123,0.0,0.761,330.1,9,3,1.8,0,0.0,-1,0.0,,0.0,0
2179481,1463931889622,,,,,,,0.02,0.1,0.98,-3.0,-0.3,0.0,680,0,39.539711,-122.33123,0.0,0.761,330.1,9,3,1.8,0,0.0,-1,0.0,,0.0,0
2179501,1463931889644,,,,23,,,0.02,0.09,0.98,-3.0,-0.3,-0.0,680,0,39.539711,-122.33123,0.0,0.761,330.1,9,3,1.8,0,0.0,-1,0.0,,0.0,0
2179521,1463931889665,,,,,,,0.03,0.1,0.99,-3.0,-0.3,0.0,680,0,39.539711,-122.33123,0.0,0.761,330.1,9,3,1.8,0,0.0,-1,0.0,,0.0,0
2179541,1463931889687,,,,,,,0.02,0.09,0.98,-3.0,-0.3,0.1,680,0,39.539711,-122.33123,0.0,0.761,330.1,9,3,1.8,0,0.0,-1,0.0,,0.0,0
2179561,1463931889709,,,,,,,0.02,0.09,0.98,-3.0,-0.3,-0.0,680,0,39.539711,-122.33123,0.0,0.761,330.1,9,3,1.8,0,0.0,-1,0.0,,0.0,0
2179581,1463931889731,,,,,,,0.02,0.09,0.98,-3.0,-0.2,0.0,660,0,39.539711,-122.33123,0.0,0.761,330.1,9,3,1.8,0,0.0,-1,0.0,,0.0,0
2179601,1463931889753,0.053,147,182,24,177,,0.02,0.1,0.98,-3.0,-0.2,0.0,660,0,39.539711,-122.33123,0.0,0.761,330.1,9,3,1.8,0,0.0,-1,0.0,0.0,0.0,0
2179621,1463931889775,,,,,,,0.02,0.09,0.98,-3.0,-0.3,-0.0,660,0,39.539711,-122.33123,0.0,0.761,330.1,9,3,1.8,0,0.0,-1,0.0,,0.0,0
2179641,1463931889796,,,,,,,0.03,0.1,0.99,-3.0,-0.2,0.0,660,0,39.539711,-122.33123,0.0,0.761,330.1,9,3,1.8,0,0.0,-1,0.0,,0.0,0
2179661,1463931889818,,,,,,,0.02,0.1,0.98,-3.0,-0.2,-0.0,680,0,39.539711,-122.33123,0.0,0.761,330.1,9,3,1.8,0,0.0,-1,0.0,,0.0,0
2179681,1463931889840,,,,,,,0.02,0.09,0.98,-3.0,-0.3,-0.1,680,0,39.539711,-122.33123,0.0,0.761,330.1,9,3,1.8,0,0.0,-1,0.0,,0.0,0
2179701,1463931889862,,,,23,,,0.03,0.1,0.98,-3.0,-0.3,-0.1,680,0,39.539711,-122.33123,0.0,0.761,330.1,9,3,1.8,0,0.0,-1,0.0,,0.0,0
2179721,1463931889884,,,,,,,0.03,0.09,0.98,-3.0,-0.2,-0.0,680,0,39.539711,-122.33123,0.0,0.761,330.1,9,3,1.8,0,0.0,-1,0.0,,0.0,0
2179741,1463931889905,,,,,,,0.03,0.09,0.97,-3.0,-0.2,-0.0,680,0,39.539711,-122.33123,0.0,0.761,330.1,9,3,1.8,0,0.0,-1,0.0,,0.0,0
2179761,1463931889928,,,,,,,0.03,0.1,0.98,-3.0,-0.3,0.0,640,0,39.539711,-122.33123,0.0,0.761,330.1,9,3,1.8,0,0.0,-1,0.0,,0.0,0
2179781,1463931889952,,,,,,,0.03,0.1,0.97,-3.0,-0.2,0.1,640,0,39.539711,-122.33123,0.0,0.761,330.1,9,3,1.8,0,0.0,-1,0.0,,0.0,0
2179801,1463931889972,0.098,147,182,20,178,,0.02,0.09,0.97,-3.0,-0.2,0.0,640,0,39.539711,-122.33123,0.0,0.761,330.1,9,3,1.8,0,0.0,-1,0.0,0.0,0.0,0
2179821,1463931889983,,,,,,,0.03,0.1,0.97,-3.0,-0.1,0.0,660,0,39.539711,-122.33123,0.0,0.761,330.1,9,3,1.8,0,0.0,-1,0.0,,0.0,0
2179841,1463931890005,,,,,,,0.02,0.1,0.97,-3.0,-0.1,0.1,680,0,39.539711,-122.33123,0.0,0.761,330.1,9,3,1.8,0,0.0,-1,0.0,,0.0,0
2179861,1463931890027,,,,,,,0.02,0.1,0.97,-3.0,-0.1,-0.0,680,0,39.539711,-122.33123,0.0,0.761,330.1,9,3,1.8,0,0.0,-1,0.0,,0.0,0
2179881,1463931890048,,,,,,,0.02,0.1,0.98,-3.0,0.1,-0.0,680,0,39.539711,-122.33123,0.0,0.761,330.1,9,3,1.8,0,0.0,-1,0.0,,0.0,0
2179901,1463931890069,,,,21,,,0.02,0.1,0.98,-3.0,-0.0,0.0,680,0,39.539711,-122.33123,0.0,0.761,330.1,9,3,1.8,0,0.0,-1,0.0,,0.0,0
2179921,1463931890092,,,,,,,0.02,0.09,0.98,-3.0,-0.0,0.0,660,0,39.539711,-122.33123,0.0,0.761,330.1,9,3,1.8,0,0.0,-1,0.0,,0.0,0
2179941,1463931890114,,,,,,,0.02,0.1,0.98,-3.0,0.0,0.0,660,0,39.539711,-122.33123,0.0,0.761,330.1,9,3,1.8,0,0.0,-1,0.0,,0.0,0
2179961,1463931890135,,,,,,,0.02,0.1,0.98,-3.0,-0.0,0.1,660,0,39.539711,-122.33123,0.0,0.761,330.1,9,3,1.8,0,0.0,-1,0.0,,0.0,0
2179981,1463931890158,,,,,,,0.01,0.09,0.98,-3.0,-0.3,0.0,680,0,39.539711,-122.33123,0.0,0.761,330.1,9,3,1.8,0,0.0,-1,0.0,,0.0,0
2180001,1463931890179,0.065,147,182,20,177,14.42,0.01,0.1,0.98,-3.0,-0.3,0.0,680,0,39.539711,-122.33123,0.0,0.761,330.1,9,3,1.8,0,0.0,-1,0.0,0.0,0.0,0
2180021,1463931890201,,,,,,,0.01,0.1,0.98,-3.1,-0.3,0.1,680,0,39.539711,-122.33123,0.0,0.761,330.1,9,3,1.8,0,0.0,-1,0.0,,0.0,0
2180041,1463931890222,,,,,,,0.01,0.09,0.98,-3.0,-0.4,0.0,700,0,39.539711,-122.33123,0.0,0.761,330.1,9,3,1.8,0,0.0,-1,0.0,,0.0,0
2180061,1463931890244,,,,,,,0.01,0.09,0.98,-3.0,-0.5,-0.0,700,0,39.539711,-122.33123,0.0,0.761,330.1,9,3,1.8,0,0.0,-1,0.0,,0.0,0
2180081,1463931890266,,,,,,,0.01,0.09,0.98,-3.0,-0.6,0.0,680,0,39.539711,-122.33123,0.0,0.761,330.1,9,3,1.8,0,0.0,-1,0.0,,0.0,0
2180101,1463931890287,,,,22,,,0.01,0.09,0.98,-3.1,-0.5,0.0,660,0,39.539711,-122.33123,0.0,0.761,330.1,9,3,1.8,0,0.0,-1,0.0,,0.0,0
2180121,1463931890311,,,,,,,0.01,0.09,0.97,-3.0,-0.4,0.0,660,0,39.539711,-122.33123,0.0,0.761,330.1,9,3,1.8,0,0.0,-1,0.0,,0.0,0
2180141,1463931890333,,,,,,,0.02,0.1,0.97,-3.1,-0.4,0.1,660,0,39.539711,-122.33123,0.0,0.761,330.1,9,3,1.8,0,0.0,-1,0.0,,0.0,0
2180161,1463931890354,,,,,,,0.02,0.1,0.97,-3.0,-0.2,0.1,680,0,39.539711,-122.33123,0.0,0.761,330.1,9,3,1.8,0,0.0,-1,0.0,,0.0,0
2180181,1463931890376,,,,,,,0.02,0.09,0.98,-3.0,-0.2,0.0,680,0,39.539711,-122.33123,0.0,0.761,330.1,9,3,1.8,0,0.0,-1,0.0,,0.0,0
2180201,1463931890397,0.101,147,182,22,177,,0.03,0.1,0.98,-3.0,-0.1,0.1,700,0,39.539711,-122.33123,0.0,0.761,330.1,9,3,1.8,0,0.0,-1,0.0,0.0,0.0,0
2180221,1463931890419,,,,,,,0.03,0.1,0.97,-3.0,-0.2,0.1,720,0,39.539711,-122.33123,0.0,0.761,330.1,9,3,1.8,0,0.0,-1,0.0,,0.0,0
2180241,1463931890442,,,,,,,0.03,0.09,0.97,-3.0,-0.2,0.0,700,0,39.539711,-122.33123,0.0,0.761,330.1,9,3,1.8,0,0.0,-1,0.0,,0.0,0
2180261,1463931890463,,,,,,,0.02,0.08,0.98,-3.0,-0.1,0.1,700,0,39.539711,-122.33123,0.0,0.761,330.1,9,3,1.8,0,0.0,-1,0.0,,0.0,0
2180281,1463931890485,,,,,,,0.02,0.09,0.98,-3.0,-0.1,0.1,680,0,39.539711,-122.33123,0.0,0.761,330.1,9,3,1.8,0,0.0,-1,0.0,,0.0,0
2180301,1463931890502,,,,25,,,0.02,0.09,0.98,-3.0,-0.2,0.1,700,0,39.539711,-122.33123,0.0,0.761,330.1,9,3,1.8,0,0.0,-1,0.0,,0.0,0
2180321,1463931890442,,,,,,,0.02,0.09,0.98,-3.0,-0.2,-0.0,700,0,39.539711,-122.33123,0.0,0.761,330.1,9,3,1.8,0,0.0,-1,0.0,,0.0,0
2180341,1463931890543,,,,,,,0.02,0.1,0.98,-3.1,-0.2,0.1,700,0,39.539711,-122.33123,0.0,0.761,330.1,9,3,1.8,0,0.0,-1,0.0,,0.0,0
2180361,1463931890566,,,,,,,0.02,0.11,0.97,-3.0,-0.2,0.1,700,0,39.539711,-122.33123,0.0,0.761,330.1,9,3,1.8,0,0.0,-1,0.0,,0.0,0
2180381,1463931890585,,,,,,,0.02,0.09,0.98,-3.0,-0.1,-0.0,720,0,39.539711,-122.33123,0.0,0.761,330.1,9,3,1.8,0,0.0,-1,0.0,,0.0,0
2180401,1463931890527,0.077,148,182,26,177,,0.02,0.1,0.98,-3.0,-0.0,-0.1,720,0,39.539711,-122.33123,0.0,0.761,330.1,9,3,1.8,0,0.0,-1,0.0,0.0,0.0,0
2180421,1463931890548,,,,,,,0.01,0.09,0.98,-3.0,-0.2,0.0,700,0,39.539711,-122.33123,0.0,0.761,330.1,9,3,1.8,0,0.0,-1,0.0,,0.0,0
2180441,1463931890572,,,,,,,0.02,0.09,0.99,-3.0,-0.3,-0.0,700,0,39.539711,-122.33123,0.0,0.761,330.1,9,3,1.8,0,0.0,-1,0.0,,0.0,0
2180461,1463931890594,,,,,,,0.01,0.08,0.98,-3.0,-0.3,-0.1,700,0,39.539711,-122.33123,0.0,0.761,330.1,9,3,1.8,0,0.0,-1,0.0,,0.0,0
2180481,1463931890616,,,,,,,0.02,0.08,0.98,-3.1,-0.2,0.1,700,0,39.539711,-122.33123,0.0,0.761,330.1,9,3,1.8,0,0.0,-1,0.0,,0.0,0
2180501,1463931890638,,,,23,,,0.02,0.08,0.98,-3.1,-0.2,0.1,720,0,39.539711,-122.33123,0.0,0.761,330.1,9,3,1.8,0,0.0,-1,0.0,,0.0,0
2180521,1463931890659,,,,,,,0.02,0.07,0.97,-3.0,-0.2,-0.0,720,0,39.539711,-122.33123,0.0,0.761,330.1,9,3,1.8,0,0.0,-1,0.0,,0.0,0
2180541,1463931890680,,,,,,,0.01,0.08,0.98,-3.1,-0.1,-0.1,720,0,39.539711,-122.33123,0.0,0.761,330.1,9,3,1.8,0,0.0,-1,0.0,,0.0,0
2180561,1463931890702,,,,,,,0.01,0.08,0.98,-3.1,-0.2,0.0,740,0,39.539711,-122.33123,0.0,0.761,330.1,9,3,1.8,0,0.0,-1,0.0,,0.0,0
2180581,1463931890724,,,,,,,0.02,0.09,0.97,-3.0,-0.2,0.0,720,0,39.539711,-122.33123,0.0,0.761,330.1,9,3,1.8,0,0.0,-1,0.0,,0.0,0
2180601,1463931890745,0.163,147,182,22,177,,0.02,0.09,0.97,-3.0,-0.3,-0.1,720,0,39.539711,-122.33123,0.0,0.761,330.1,9,3,1.8,0,0.0,-1,0.0,0.0,0.0,0
2180621,1463931890767,,,,,,,0.01,0.08,0.97,-3.1,-0.1,-0.0,720,0,39.539711,-122.33123,0.0,0.761,330.1,9,3,1.8,0,0.0,-1,0.0,,0.0,0
2180641,1463931890788,,,,,,,0.01,0.09,0.97,-3.1,-0.2,0.1,720,0,39.539711,-122.33123,0.0,0.761,330.1,9,3,1.8,0,0.0,-1,0.0,,0.0,0
2180661,1463931890812,,,,,,,0.02,0.09,0.98,-3.1,-0.2,0.0,740,0,39.539711,-122.33123,0.0,0.761,330.1,9,3,1.8,0,0.0,-1,0.0,,0.0,0
2180681,1463931890834,,,,,,,0.01,0.08,0.98,-3.1,-0.2,-0.0,740,0,39.539711,-122.33123,0.0,0.761,330.1,9,3,1.8,0,0.0,-1,0.0,,0.0,0
2180701,1463931890855,,,,26,,,0.01,0.08,0.98,-3.1,-0.0,0.0,740,0,39.539711,-122.33123,0.0,0.761,330.1,9,3,1.8,0,0.0,-1,0.0,,0.0,0
2180721,1463931890877,,,,,,,0.01,0.09,0.98,-3.1,0.0,0.1,760,0,39.539711,-122.33123,0.0,0.761,330.1,9,3,1.8,0,0.0,-1,0.0,,0.0,0
2180741,1463931890898,,,,,,,0.01,0.09,0.97,-3.1,-0.1,0.0,740,0,39.539711,-122.33123,0.0,0.761,330.1,9,3,1.8,0,0.0,-1,0.0,,0.0,0
2180761,1463931890921,,,,,,,0.01,0.09,0.99,-3.0,-0.2,-0.1,740,0,39.539711,-122.33123,0.0,0.761,330.1,9,3,1.8,0,0.0,-1,0.0,,0.0,0
2180781,1463931890943,,,,,,,0.01,0.09,0.99,-3.1,-0.1,-0.0,740,0,39.539711,-122.33123,0.0,0.761,330.1,9,3,1.8,0,0.0,-1,0.0,,0.0,0
2180801,1463931890965,0.073,147,183,27,178,,0.02,0.1,0.98,-3.1,-0.0,0.1,740,0,39.539711,-122.33123,0.0,0.761,330.1,9,3,1.8,0,0.0,-1,0.0,0.0,0.0,0
2180821,1463931890976,,,,,,,0.02,0.09,0.99,-3.1,0.0,0.0,740,0,39.539711,-122.33123,0.0,0.761,330.1,9,3,1.8,0,0.0,-1,0.0,,0.0,0
2180841,1463931890998,,,,,,,0.01,0.09,0.99,-3.1,-0.1,-0.1,760,0,39.539711,-122.33123,0.0,0.761,330.1,9,3,1.8,0,0.0,-1,0.0,,0.0,0
2180861,1463931891020,,,,,,,0.01,0.08,0.99,-3.1,-0.1,-0.0,760,0,39.539711,-122.33123,0.0,0.761,330.1,9,3,1.8,0,0.0,-1,0.0,,0.0,0
2180881,1463931891042,,,,,,,0.02,0.09,0.98,-3.1,0.0,0.1,760,0,39.539711,-122.33123,0.0,0.761,330.1,9,3,1.8,0,0.0,-1,0.0,,0.0,0
2180901,1463931891063,,,,25,,,0.02,0.1,0.98,-3.1,-0.0,0.1,760,0,39.539711,-122.33123,0.0,0.761,330.1,9,3,1.8,0,0.0,-1,0.0,,0.0,0
2180921,1463931891084,,,,,,,0.02,0.1,0.99,-3.0,-0.2,-0.0,740,0,39.539711,-122.33123,0.0,0.761,330.1,9,3,1.8,0,0.0,-1,0.0,,0.0,0
2180941,1463931891105,,,,,,,0.01,0.09,0.98,-3.0,-0.1,-0.0,740,0,39.539711,-122.33123,0.0,0.761,330.1,9,3,1.8,0,0.0,-1,0.0,,0.0,0
2180961,1463931891127,,,,,,,0.02,0.1,0.98,-3.1,-0.1,0.1,740,0,39.539711,-122.33123,0.0,0.761,330.1,9,3,1.8,0,0.0,-1,0.0,,0.0,0
2180981,1463931891151,,,,,,,0.02,0.1,0.97,-3.0,-0.1,0.1,760,0,39.539711,-122.33123,0.0,0.761,330.1,9,3,1.8,0,0.0,-1,0.0,,0.0,0
2181001,1463931891172,0.055,147,182,25,177,14.37,0.02,0.1,0.98,-3.0,-0.2,-0.0,760,0,39.539711,-122.33123,0.0,0.761,330.1,9,3,1.8,0,0.0,-1,0.0,0.0,0.0,0
2181021,1463931891194,,,,,,,0.01,0.1,0.97,-3.0,-0.1,-0.0,760,0,39.539711,-122.33123,0.0,0.761,330.1,9,3,1.8,0,0.0,-1,0.0,,0.0,0
2181041,1463931891215,,,,,,,0.02,0.1,0.97,-3.0,-0.1,0.0,760,0,39.539711,-122.33123,0.0,0.761,330.1,9,3,1.8,0,0.0,-1,0.0,,0.0,0
2181061,1463931891237,,,,,,,0.02,0.1,0.97,-3.0,-0.2,0.1,740,0,39.539711,-122.33123,0.0,0.761,330.1,9,3,1.8,0,0.0,-1,0.0,,0.0,0
2181081,1463931891259,,,,,,,0.02,0.09,0.98,-3.0,-0.3,0.0,740,0,39.539711,-122.33123,0.0,0.761,330.1,9,3,1.8,0,0.0,-1,0.0,,0.0,0
2181101,1463931891280,,,,25,,,0.02,0.09,0.97,-3.0,-0.2,-0.0,740,0,39.539711,-122.33123,0.0,0.761,330.1,9,3,1.8,0,0.0,-1,0.0,,0.0,0
2181121,1463931891302,,,,,,,0.02,0.09,0.97,-3.0,-0.1,0.1,740,0,39.539711,-122.33123,0.0,0.761,330.1,9,3,1.8,0,0.0,-1,0.0,,0.0,0
2181141,1463931891324,,,,,,,0.02,0.1,0.97,-3.0,-0.2,0.2,740,0,39.539711,-122.33123,0.0,0.761,330.1,9,3,1.8,0,0.0,-1,0.0,,0.0,0
2181161,1463931891346,,,,,,,0.02,0.1,0.97,-3.0,-0.2,0.0,740,0,39.539711,-122.33123,0.0,0.761,330.1,9,3,1.8,0,0.0,-1,0.0,,0.0,0
2181181,1463931891367,,,,,,,0.02,0.1,0.98,-3.0,-0.1,-0.0,740,0,39.539711,-122.33123,0.0,0.761,330.1,9,3,1.8,0,0.0,-1,0.0,,0.0,0
2181201,1463931891391,0.073,148,183,23,178,,0.02,0.1,0.98,-3.0,-0.1,0.0,740,0,39.539711,-122.33123,0.0,0.761,330.1,9,3,1.8,0,0.0,-1,0.0,0.0,0.0,0
2181221,1463931891413,,,,,,,0.03,0.1,0.98,-3.0,-0.1,0.1,740,0,39.539711,-122.33123,0.0,0.761,330.1,9,3,1.8,0,0.0,-1,0.0,,0.0,0
2181241,1463931891434,,,,,,,0.03,0.1,0.98,-3.0,-0.1,0.1,740,0,39.539711,-122.33123,0.0,0.761,330.1,9,3,1.8,0,0.0,-1,0.0,,0.0,0
2181261,1463931891456,,,,,,,0.02,0.09,0.99,-3.0,-0.1,0.0,740,0,39.539711,-122.33123,0.0,0.761,330.1,9,3,1.8,0,0.0,-1,0.0,,0.0,0
2181281,1463931891477,,,,,,,0.02,0.09,0.98,-3.0,-0.0,0.1,740,0,39.539711,-122.33123,0.0,0.761,330.1,9,3,1.8,0,0.0,-1,0.0,,0.0,0
2181301,1463931891498,,,,25,,,0.03,0.1,0.97,-3.0,-0.0,0.1,740,0,39.539711,-122.33123,0.0,0.761,330.1,9,3,1.8,0,0.0,-1,0.0,,0.0,0
2181321,1463931891520,,,,,,,0.03,0.09,0.97,-3.0,0.0,-0.0,740,0,39.539711,-122.33123,0.0,0.761,330.1,9,3,1.8,0,0.0,-1,0.0,,0.0,0
2181341,1463931891542,,,,,,,0.02,0.09,0.98,-2.9,0.0,-0.1,740,0,39.539711,-122.33123,0.0,0.761,330.1,9,3,1.8,0,0.0,-1,0.0,,0.0,0
2181361,1463931891564,,,,,,,0.02,0.09,0.98,-3.0,-0.1,0.0,740,0,39.539711,-122.33123,0.0,0.761,330.1,9,3,1.8,0,0.0,-1,0.0,,0.0,0
2181381,1463931891588,,,,,,,0.03,0.09,0.98,-3.0,-0.1,0.1,740,0,39.539711,-122.33123,0.0,0.761,330.1,9,3,1.8,0,0.0,-1,0.0,,0.0,0
2181401,1463931891531,0.05,147,182,23,178,,0.03,0.09,0.98,-3.0,-0.0,0.0,720,0,39.539711,-122.33123,0.0,0.761,330.1,9,3,1.8,0,0.0,-1,0.0,0.0,0.0,0
2181421,1463931891553,,,,,,,0.02,0.09,0.98,-3.0,-0.1,-0.0,720,0,39.539711,-122.33123,0.0,0.761,330.1,9,3,1.8,0,0.0,-1,0.0,,0.0,0
2181441,1463931891574,,,,,,,0.03,0.09,0.97,-3.1,-0.1,0.1,720,0,39.539711,-122.33123,0.0,0.761,330.1,9,3,1.8,0,0.0,-1,0.0,,0.0,0
2181461,1463931891596,,,,,,,0.04,0.1,0.97,-3.0,-0.1,0.1,720,0,39.539711,-122.33123,0.0,0.761,330.1,9,3,1.8,0,0.0,-1,0.0,,0.0,0
2181481,1463931891618,,,,,,,0.03,0.09,0.98,-3.0,-0.1,-0.0,720,0,39.539711,-122.33123,0.0,0.761,330.1,9,3,1.8,0,0.0,-1,0.0,,0.0,0
2181501,1463931891640,,,,24,,,0.03,0.1,0.97,-3.0,-0.1,-0.0,720,0,39.539711,-122.33123,0.0,0.761,330.1,9,3,1.8,0,0.0,-1,0.0,,0.0,0
2181521,1463931891661,,,,,,,0.03,0.09,0.97,-3.0,-0.2,0.1,740,0,39.539711,-122.33123,0.0,0.761,330.1,9,3,1.8,0,0.0,-1,0.0,,0.0,0
2181541,1463931891682,,,,,,,0.03,0.09,0.96,-3.0,-0.3,0.1,720,0,39.539711,-122.33123,0.0,0.761,330.1,9,3,1.8,0,0.0,-1,0.0,,0.0,0
2181561,1463931891704,,,,,,,0.03,0.09,0.97,-3.0,-0.2,-0.0,700,0,39.539711,-122.33123,0.0,0.761,330.1,9,3,1.8,0,0.0,-1,0.0,,0.0,0
2181581,1463931891726,,,,,,,0.02,0.1,0.98,-3.1,-0.2,0.1,700,0,39.539711,-122.33123,0.0,0.761,330.1,9,3,1.8,0,0.0,-1,0.0,,0.0,0
2181601,1463931891748,0.08,147,183,25,177,,0.02,0.1,0.98,-3.1,-0.2,0.1,700,0,39.539711,-122.33123,0.0,0.761,330.1,9,3,1.8,0,0.0,-1,0.0,0.0,0.0,0
2181621,1463931891769,,,,,,,0.02,0.09,0.98,-3.1,-0.3,0.0,700,0,39.539711,-122.33123,0.0,0.761,330.1,9,3,1.8,0,0.0,-1,0.0,,0.0,0
2181641,1463931891791,,,,,,,0.02,0.09,0.99,-3.0,-0.3,-0.0,700,0,39.539711,-122.33123,0.0,0.761,330.1,9,3,1.8,0,0.0,-1,0.0,,0.0,0
2181661,1463931891812,,,,,,,0.02,0.1,0.98,-3.1,-0.4,0.0,700,0,39.539711,-122.33123,0.0,0.761,330.1,9,3,1.8,0,0.0,-1,0.0,,0.0,0
2181681,1463931891834,,,,,,,0.03,0.1,0.98,-3.1,-0.5,0.0,720,0,39.539711,-122.33123,0.0,0.761,330.1,9,3,1.8,0,0.0,-1,0.0,,0.0,0
2181701,1463931891856,,,,22,,,0.02,0.1,0.98,-3.1,-0.4,-0.0,720,0,39.539711,-122.33123,0.0,0.761,330.1,9,3,1.8,0,0.0,-1,0.0,,0.0,0
2181721,1463931891877,,,,,,,0.03,0.1,0.98,-3.1,-0.3,0.0,700,0,39.539711,-122.33123,0.0,0.761,330.1,9,3,1.8,0,0.0,-1,0.0,,0.0,0
2181741,1463931891898,,,,,,,0.02,0.09,0.97,-3.0,-0.3,0.0,680,0,39.539711,-122.33123,0.0,0.761,330.1,9,3,1.8,0,0.0,-1,0.0,,0.0,0
2181761,1463931891921,,,,,,,0.02,0.09,0.97,-3.0,-0.4,-0.0,680,0,39.539711,-122.33123,0.0,0.761,330.1,9,3,1.8,0,0.0,-1,0.0,,0.0,0
2181781,1463931891943,,,,,,,0.01,0.09,0.97,-3.0,-0.3,-0.1,680,0,39.539711,-122.33123,0.0,0.761,330.1,9,3,1.8,0,0.0,-1,0.0,,0.0,0
2181801,1463931891966,0.043,147,182,22,178,,0.02,0.09,0.98,-3.1,-0.3,-0.0,680,0,39.539711,-122.33123,0.0,0.761,330.1,9,3,1.8,0,0.0,-1,0.0,0.0,0.0,0
2181821,1463931891977,,,,,,,0.02,0.09,0.97,-3.0,-0.5,-0.1,680,0,39.539711,-122.33123,0.0,0.761,330.1,9,3,1.8,0,0.0,-1,0.0,,0.0,0
2181841,1463931891998,,,,,,,0.01,0.08,0.98,-3.0,-0.5,-0.1,680,0,39.539711,-122.33123,0.0,0.761,330.1,9,3,1.8,0,0.0,-1,0.0,,0.0,0
2181861,1463931892021,,,,,,,0.02,0.09,0.98,-3.0,-0.4,0.0,700,0,39.539711,-122.33123,0.0,0.761,330.1,9,3,1.8,0,0.0,-1,0.0,,0.0,0
2181881,1463931892042,,,,,,,0.02,0.09,0.97,-3.0,-0.4,0.1,680,0,39.539711,-122.33123,0.0,0.761,330.1,9,3,1.8,0,0.0,-1,0.0,,0.0,0
2181901,1463931892065,,,,21,,,0.02,0.09,0.97,-3.0,-0.4,0.0,680,0,39.539711,-122.33123,0.0,0.761,330.1,9,3,1.8,0,0.0,-1,0.0,,0.0,0
2181921,1463931892086,,,,,,,0.02,0.1,0.97,-3.0,-0.3,0.1,660,0,39.539711,-122.33123,0.0,0.761,330.1,9,3,1.8,0,0.0,-1,0.0,,0.0,0
2181941,1463931892108,,,,,,,0.02,0.1,0.97,-3.0,-0.2,0.1,660,0,39.539711,-122.33123,0.0,0.761,330.1,9,3,1.8,0,0.0,-1,0.0,,0.0,0
2181961,1463931892131,,,,,,,0.02,0.09,0.97,-3.0,-0.3,0.0,660,0,39.539711,-122.33123,0.0,0.761,330.1,9,3,1.8,0,0.0,-1,0.0,,0.0,0
2181981,1463931892153,,,,,,,0.02,0.1,0.97,-3.0,-0.2,0.0,680,0,39.539711,-122.33123,0.0,0.761,330.1,9,3,1.8,0,0.0,-1,0.0,,0.0,0
2182001,1463931892173,0.058,147,182,21,177,14.31,0.02,0.09,0.97,-3.0,-0.2,0.0,680,0,39.539711,-122.33123,0.0,0.761,330.1,9,3,1.8,0,0.0,-1,0.0,0.0,0.0,0
2182021,1463931892195,,,,,,,0.02,0.08,0.97,-3.0,-0.3,-0.1,680,0,39.539711,-122.33123,0.0,0.761,330.1,9,3,1.8,0,0.0,-1,0.0,,0.0,0
2182041,1463931892217,,,,,,,0.02,0.09,0.97,-3.0,-0.2,-0.0,680,0,39.539711,-122.33123,0.0,0.761,330.1,9,3,1.8,0,0.0,-1,0.0,,0.0,0
2182061,1463931892238,,,,,,,0.02,0.09,0.97,-3.0,-0.3,-0.0,680,0,39.539711,-122.33123,0.0,0.761,330.1,9,3,1.8,0,0.0,-1,0.0,,0.0,0
2182081,1463931892260,,,,,,,0.02,0.09,0.97,-2.9,-0.3,-0.0,660,0,39.539711,-122.33123,0.0,0.761,330.1,9,3,1.8,0,0.0,-1,0.0,,0.0,0
2182101,1463931892281,,,,20,,,0.02,0.1,0.97,-3.0,-0.3,0.0,660,0,39.539711,-122.33123,0.0,0.761,330.1,9,3,1.8,0,0.0,-1,0.0,,0.0,0
2182121,1463931892303,,,,,,,0.02,0.1,0.98,-3.0,-0.2,0.1,660,0,39.539711,-122.33123,0.0,0.761,330.1,9,3,1.8,0,0.0,-1,0.0,,0.0,0
2182141,1463931892325,,,,,,,0.02,0.09,0.98,-3.0,-0.3,0.0,660,0,39.539711,-122.33123,0.0,0.761,330.1,9,3,1.8,0,0.0,-1,0.0,,0.0,0
2182161,1463931892347,,,,,,,0.02,0.09,0.98,-3.0,-0.3,0.0,660,0,39.539711,-122.33123,0.0,0.761,330.1,9,3,1.8,0,0.0,-1,0.0,,0.0,0
2182181,1463931892368,,,,,,,0.02,0.09,0.98,-3.0,-0.3,0.1,680,0,39.539711,-122.33123,0.0,0.761,330.1,9,3,1.8,0,0.0,-1,0.0,,0.0,0
2182201,1463931892389,0.048,147,182,23,178,,0.01,0.08,0.98,-3.0,-0.4,-0.0,680,0,39.539711,-122.33123,0.0,0.761,330.1,9,3,1.8,0,0.0,-1,0.0,0.0,0.0,0
2182221,1463931892407,,,,,,,0.01,0.09,0.98,-3.0,-0.4,-0.0,680,0,39.539711,-122.33123,0.0,0.761,330.1,9,3,1.8,0,0.0,-1,0.0,,0.0,0
2182241,1463931892425,,,,,,,0.01,0.09,0.98,-3.0,-0.4,0.0,680,0,39.539711,-122.33123,0.0,0.761,330.1,9,3,1.8,0,0.0,-1,0.0,,0.0,0
2182261,1463931892443,,,,,,,0.01,0.08,0.98,-3.0,-0.4,-0.0,660,0,39.539696,-122.331253,1.5,0.763,315.1,9,2,1.8,0,0.0,-1,0.0,,0.0,0
2182281,1463931892462,,,,,,,0.01,0.09,0.98,-3.0,-0.3,0.0,660,0,39.5397,-122.331253,5.3,0.763,315.1,9,2,1.8,0,0.0,-1,0.0,,0.0,0
2182301,1463931892479,,,,23,,,0.01,0.1,0.98,-3.0,-0.4,0.1,660,0,39.5397,-122.331253,8.02,0.763,315.1,9,3,1.8,0,0.0,-1,0.0,,0.0,0
2182321,1463931892498,,,,,,,0.02,0.1,0.97,-3.0,-0.5,0.1,660,0,39.5397,-122.331253,8.49,0.763,315.1,9,3,1.8,0,0.0,-1,0.0,,0.0,0
2182341,1463931892516,,,,,,,0.02,0.09,0.97,-3.0,-0.5,0.1,660,0,39.5397,-122.331253,10.16,0.763,315.0,9,2,1.8,0,0.0,-1,0.0,,0.0,0
2182361,1463931892535,,,,,,,0.02,0.09,0.98,-3.1,-0.5,0.1,680,0,39.5397,-122.331253,15.29,0.763,315.1,9,2,1.8,0,0.0,-1,0.0,,0.0,0
2182381,1463931892555,,,,,,,0.02,0.09,0.98,-3.0,-0.6,0.1,680,0,39.539703,-122.331253,16.13,0.764,315.1,9,2,1.9,0,0.0,-1,0.0,,0.0,0
2182401,1463931892574,0.001,147,182,21,178,,0.02,0.1,0.97,-3.0,-0.5,0.0,680,0,39.539703,-122.331253,16.03,0.764,315.1,9,2,1.9,0,0.0,-1,0.0,0.0,0.0,0
2182421,1463931892594,,,,,,,0.02,0.1,0.97,-3.0,-0.5,0.0,680,0,39.539703,-122.331253,17.62,0.764,315.2,9,2,1.9,0,0.0,-1,0.0,,0.0,0
2182441,1463931892614,,,,,,,0.02,0.1,0.98,-3.0,-0.4,0.0,640,0,39.539707,-122.331268,19.31,0.764,315.2,9,2,1.9,0,0.0,-1,0.0,,0.0,0
2182461,1463931892633,,,,,,,0.02,0.09,0.97,-3.0,-0.4,-0.1,640,0,39.539707,-122.331268,19.43,0.764,315.3,9,2,1.9,0,0.0,-1,0.0,,0.0,0
2182481,1463931892653,,,,,,,0.03,0.1,0.97,-3.0,-0.3,0.0,660,0,39.539711,-122.331268,18.04,0.765,315.2,9,2,1.9,0,0.0,-1,0.0,,0.0,0
2182501,1463931892671,,,,22,,,0.02,0.09,0.98,-3.0,-0.3,0.0,660,0,39.539711,-122.331268,17.76,0.765,315.2,9,2,1.9,0,0.0,-1,0.0,,0.0,0
2182521,1463931892691,,,,,,,0.02,0.08,0.98,-3.0,-0.3,0.0,660,0,39.539711,-122.331268,17.76,0.765,315.2,9,2,1.9,0,0.0,-1,0.0,,0.0,0
2182541,1463931892708,,,,,,,0.03,0.09,0.98,-3.0,-0.1,0.1,660,0,39.539711,-122.331268,19.14,0.765,315.2,9,3,1.9,0,0.0,-1,0.0,,0.0,0
2182561,1463931892726,,,,,,,0.02,0.09,0.97,-3.0,-0.1,0.1,680,0,39.539711,-122.331268,20.6,0.765,315.2,9,3,1.9,0,0.0,-1,0.0,,0.0,0
2182581,1463931892743,,,,,,,0.02,0.08,0.98,-3.0,-0.1,0.0,680,0,39.539711,-122.331268,19.79,0.765,315.2,9,3,1.9,0,0.0,-1,0.0,,0.0,0
2182601,1463931892760,0.097,147,182,22,178,,0.02,0.09,0.97,-3.0,-0.1,0.0,680,0,39.539715,-122.331268,18.23,0.765,315.2,9,2,1.9,0,0.0,-1,0.0,0.0,0.0,0
