"Interval"|"ms"|0|0|1,"Utc"|"ms"|0|0|1,"FuelLevel"|"F"|0.0|100.0|5,"OilTemp"|"F"|0|300|5,"Coolant"|"F"|0|300|5,"OilPress"|"PSI"|0|150|10,"EngineTemp"|"F"|0|300|5,"Battery"|"Volts"|0.0|20.0|1,"AccelX"|"G"|-3.0|3.0|50,"AccelY"|"G"|-3.0|3.0|50,"AccelZ"|"G"|-3.0|3.0|50,"Yaw"|"Deg/Sec"|-300.0|300.0|50,"Pitch"|"Deg/Sec"|-300.0|300.0|50,"Roll"|"Deg/Sec"|-300.0|300.0|50,"RPM"|""|0|10000|50,"Wheel"|"RPM"|0|5000|50,"Latitude"|"Degrees"|-180.0|180.0|50,"Longitude"|"Degrees"|-180.0|180.0|50,"Speed"|"MPH"|0.0|150.0|50,"Distance"|"Miles"|0.0|0.0|50,"Altitude"|"Feet"|0.0|4000.0|50,"GPSSats"|""|0|20|50,"GPSQual"|""|0|5|50,"GPSDOP"|""|0.0|20.0|50,"LapCount"|""|0|0|50,"LapTime"|"Min"|0.0|0.0|50,"Sector"|""|0|0|50,"SectorTime"|"Min"|0.0|0.0|50,"PredTime"|"Min"|0.0|0.0|5,"ElapsedTime"|"Min"|0.0|0.0|50,"CurrentLap"|""|0|0|50
357981,1463947623963,,,,,,,0.04,0.06,0.98,-3.1,-0.2,-0.1,0,0,39.536552,-122.332199,4.74,0.007,259.8,8,2,1.9,0,0.0,-1,0.0,,0.0,0
358001,1463947623983,0.09,190,169,0,169,12.38,0.04,0.06,0.98,-3.1,-0.2,-0.1,0,0,39.536552,-122.332199,5.32,0.007,259.8,8,2,1.9,0,0.0,-1,0.0,0.0,0.0,0
358021,1463947624001,,,,,,,0.04,0.06,0.98,-3.1,-0.2,-0.1,0,0,39.536552,-122.332199,5.33,0.007,259.8,8,2,1.8,0,0.0,-1,0.0,,0.0,0
358041,1463947624021,,,,,,,0.03,0.06,0.98,-3.1,-0.2,-0.1,0,0,39.536552,-122.332199,5.33,0.007,259.8,8,2,1.8,0,0.0,-1,0.0,,0.0,0
358061,1463947624039,,,,,,,0.03,0.06,0.98,-3.1,-0.2,-0.1,0,0,39.536552,-122.332199,5.27,0.007,259.8,8,2,1.8,0,0.0,-1,0.0,,0.0,0
358081,1463947624056,,,,,,,0.04,0.06,0.98,-3.1,-0.2,-0.1,0,0,39.536552,-122.332199,5.31,0.007,259.8,8,2,1.8,0,0.0,-1,0.0,,0.0,0
358101,1463947624074,,,,0,,,0.03,0.06,0.98,-3.1,-0.2,-0.1,0,0,39.536556,-122.332199,5.07,0.007,259.8,8,2,1.8,0,0.0,-1,0.0,,0.0,0
358121,1463947624090,,,,,,,0.03,0.06,0.98,-3.1,-0.2,-0.1,0,0,39.536556,-122.332199,5.16,0.007,259.8,8,2,1.8,0,0.0,-1,0.0,,0.0,0
358141,1463947624107,,,,,,,0.03,0.06,0.98,-3.1,-0.2,-0.1,0,0,39.536556,-122.332199,5.1,0.007,259.8,8,2,1.8,0,0.0,-1,0.0,,0.0,0
358161,1463947624124,,,,,,,0.03,0.06,0.98,-3.0,-0.2,-0.2,0,0,39.536556,-122.332199,4.75,0.007,259.8,8,2,1.8,0,0.0,-1,0.0,,0.0,0
358181,1463947624144,,,,,,,0.03,0.06,0.98,-3.0,-0.1,-0.1,0,0,39.536556,-122.332199,4.75,0.007,259.8,8,2,1.8,0,0.0,-1,0.0,,0.0,0
358201,1463947624240,0.09,191,170,0,169,,0.03,0.06,0.98,-3.0,-0.1,-0.2,0,0,39.536556,-122.332199,4.78,0.007,259.9,8,2,1.8,0,0.0,-1,0.0,0.0,0.0,0
358221,1463947624256,,,,,,,0.03,0.06,0.98,-3.0,-0.1,-0.2,0,0,39.53656,-122.332199,4.85,0.008,259.9,8,2,1.8,0,0.0,-1,0.0,,0.0,0
358241,1463947624273,,,,,,,0.03,0.06,0.98,-3.0,-0.1,-0.2,0,0,39.53656,-122.332199,4.79,0.008,259.9,8,2,1.8,0,0.0,-1,0.0,,0.0,0
358261,1463947624290,,,,,,,0.03,0.06,0.98,-3.0,-0.1,-0.2,0,0,39.53656,-122.332214,5.21,0.008,259.9,8,2,1.8,0,0.0,-1,0.0,,0.0,0
358281,1463947624308,,,,,,,0.03,0.06,0.98,-3.0,-0.1,-0.2,0,0,39.53656,-122.332214,4.79,0.008,259.9,8,2,1.8,0,0.0,-1,0.0,,0.0,0
358301,1463947624325,,,,0,,,0.03,0.06,0.98,-3.0,-0.2,-0.2,0,0,39.53656,-122.332214,4.17,0.008,259.9,8,2,1.8,0,0.0,-1,0.0,,0.0,0
358321,1463947624341,,,,,,,0.03,0.06,0.98,-3.0,-0.2,-0.2,0,0,39.53656,-122.332214,4.52,0.008,259.9,8,2,1.8,0,0.0,-1,0.0,,0.0,0
358341,1463947624361,,,,,,,0.03,0.06,0.98,-3.0,-0.2,-0.2,0,0,39.53656,-122.332214,4.52,0.008,259.9,8,2,1.8,0,0.0,-1,0.0,,0.0,0
358361,1463947624379,,,,,,,0.03,0.07,0.98,-3.0,-0.2,-0.2,0,0,39.53656,-122.332214,3.74,0.008,259.9,8,2,1.8,0,0.0,-1,0.0,,0.0,0
358381,1463947624396,,,,,,,0.03,0.07,0.98,-3.0,-0.2,-0.2,0,0,39.53656,-122.332214,1.49,0.008,259.8,8,2,1.8,0,0.0,-1,0.0,,0.0,0
358401,1463947624414,0.096,190,169,0,169,,0.03,0.07,0.98,-3.0,-0.2,-0.2,0,0,39.53656,-122.332214,0.0,0.008,259.8,8,2,1.8,0,0.0,-1,0.0,0.0,0.0,0
358421,1463947624430,,,,,,,0.03,0.07,0.98,-3.0,-0.2,-0.2,0,0,39.53656,-122.332214,0.0,0.008,259.8,8,2,1.8,0,0.0,-1,0.0,,0.0,0
358441,1463947624446,,,,,,,0.03,0.07,0.98,-3.1,-0.2,-0.2,0,0,39.53656,-122.332214,0.0,0.008,259.8,8,2,1.8,0,0.0,-1,0.0,,0.0,0
358461,1463947624464,,,,,,,0.03,0.07,0.98,-3.0,-0.2,-0.2,0,0,39.53656,-122.332214,0.95,0.008,259.8,8,2,1.8,0,0.0,-1,0.0,,0.0,0
358481,1463947624481,,,,,,,0.03,0.07,0.98,-3.0,-0.2,-0.2,0,0,39.53656,-122.332214,0.0,0.008,259.8,8,2,1.8,0,0.0,-1,0.0,,0.0,0
358501,1463947624501,,,,0,,,0.03,0.07,0.98,-3.0,-0.2,-0.2,0,0,39.53656,-122.332214,0.0,0.008,259.8,8,2,1.8,0,0.0,-1,0.0,,0.0,0
358521,1463947624518,,,,,,,0.03,0.07,0.98,-3.0,-0.2,-0.2,0,0,39.53656,-122.332214,1.68,0.008,259.8,8,2,1.8,0,0.0,-1,0.0,,0.0,0
358541,1463947624535,,,,,,,0.03,0.07,0.98,-3.0,-0.2,-0.2,0,0,39.53656,-122.332214,2.67,0.008,259.8,8,2,1.8,0,0.0,-1,0.0,,0.0,0
358561,1463947624553,,,,,,,0.03,0.07,0.98,-3.0,-0.2,-0.2,0,0,39.53656,-122.332214,2.39,0.008,259.8,8,2,1.8,0,0.0,-1,0.0,,0.0,0
358581,1463947624569,,,,,,,0.03,0.07,0.98,-3.0,-0.2,-0.2,0,0,39.53656,-122.332214,3.03,0.008,259.7,8,2,1.8,0,0.0,-1,0.0,,0.0,0
358601,1463947624586,0.085,190,169,0,169,,0.03,0.07,0.98,-3.0,-0.2,-0.2,0,0,39.53656,-122.332214,3.09,0.008,259.7,8,2,1.8,0,0.0,-1,0.0,0.0,0.0,0
358621,1463947624603,,,,,,,0.03,0.07,0.98,-3.0,-0.2,-0.2,0,0,39.53656,-122.332214,2.82,0.008,259.7,8,2,1.8,0,0.0,-1,0.0,,0.0,0
358641,1463947624623,,,,,,,0.03,0.07,0.98,-3.0,-0.2,-0.1,0,0,39.53656,-122.332214,2.82,0.008,259.7,8,2,1.8,0,0.0,-1,0.0,,0.0,0
358661,1463947624639,,,,,,,0.03,0.07,0.98,-3.0,-0.2,-0.1,0,0,39.53656,-122.332214,2.98,0.008,259.7,8,2,1.8,0,0.0,-1,0.0,,0.0,0
358681,1463947624655,,,,,,,0.03,0.07,0.98,-3.0,-0.2,-0.1,0,0,39.53656,-122.332214,3.31,0.008,259.7,8,2,1.8,0,0.0,-1,0.0,,0.0,0
358701,1463947624673,,,,0,,,0.03,0.07,0.98,-3.0,-0.2,-0.1,0,0,39.53656,-122.332214,3.29,0.008,259.7,8,2,1.8,0,0.0,-1,0.0,,0.0,0
358721,1463947624691,,,,,,,0.03,0.07,0.98,-3.0,-0.2,-0.1,0,0,39.53656,-122.332214,3.71,0.008,259.6,8,2,1.8,0,0.0,-1,0.0,,0.0,0
358741,1463947624707,,,,,,,0.03,0.07,0.98,-3.0,-0.2,-0.1,0,0,39.536556,-122.332214,4.0,0.009,259.6,8,2,1.8,0,0.0,-1,0.0,,0.0,0
358761,1463947624724,,,,,,,0.03,0.07,0.98,-3.0,-0.2,-0.1,0,0,39.536556,-122.332214,3.16,0.009,259.5,8,2,1.8,0,0.0,-1,0.0,,0.0,0
358781,1463947624821,,,,,,,0.03,0.07,0.98,-3.0,-0.2,-0.1,0,0,39.536556,-122.332214,2.5,0.009,259.4,8,2,1.8,0,0.0,-1,0.0,,0.0,0
358801,1463947624841,0.08,190,169,0,170,,0.03,0.07,0.98,-3.0,-0.2,-0.1,0,0,39.536556,-122.332214,2.5,0.009,259.4,8,2,1.8,0,0.0,-1,0.0,0.0,0.0,0
358821,1463947624859,,,,,,,0.03,0.07,0.98,-3.0,-0.2,-0.1,0,0,39.536556,-122.332214,3.0,0.009,259.4,8,2,1.8,0,0.0,-1,0.0,,0.0,0
358841,1463947624876,,,,,,,0.03,0.07,0.98,-3.0,-0.2,-0.1,0,0,39.536556,-122.332214,3.31,0.009,259.3,8,2,1.8,0,0.0,-1,0.0,,0.0,0
358861,1463947624893,,,,,,,0.03,0.07,0.98,-3.0,-0.2,-0.1,0,0,39.536556,-122.332214,3.25,0.009,259.3,8,2,1.8,0,0.0,-1,0.0,,0.0,0
358881,1463947624909,,,,,,,0.03,0.07,0.98,-3.0,-0.2,-0.1,0,0,39.536556,-122.332214,4.01,0.009,259.3,8,2,1.8,0,0.0,-1,0.0,,0.0,0
358901,1463947624926,,,,0,,,0.03,0.07,0.98,-3.0,-0.2,-0.0,0,0,39.536556,-122.332214,5.23,0.009,259.3,8,2,1.8,0,0.0,-1,0.0,,0.0,0
358921,1463947624944,,,,,,,0.03,0.07,0.98,-3.0,-0.3,-0.0,0,0,39.536556,-122.332214,5.97,0.009,259.3,8,2,1.8,0,0.0,-1,0.0,,0.0,0
358941,1463947624964,,,,,,,0.03,0.07,0.98,-3.0,-0.2,-0.1,0,0,39.536556,-122.332214,5.97,0.009,259.3,8,2,1.8,0,0.0,-1,0.0,,0.0,0
358961,1463947624980,,,,,,,0.03,0.07,0.98,-3.0,-0.2,-0.1,0,0,39.536556,-122.332214,5.76,0.009,259.3,8,2,1.8,0,0.0,-1,0.0,,0.0,0
358981,1463947624982,,,,,,,0.03,0.07,0.98,-3.0,-0.2,-0.1,0,0,39.536552,-122.332214,5.18,0.009,259.3,8,2,1.8,0,0.0,-1,0.0,,0.0,0
359001,1463947625002,0.09,191,170,0,170,12.42,0.03,0.07,0.98,-3.0,-0.3,-0.1,0,0,39.536552,-122.332214,5.18,0.009,259.3,8,2,1.8,0,0.0,-1,0.0,0.0,0.0,0
359021,1463947625017,,,,,,,0.03,0.07,0.98,-3.0,-0.2,-0.1,0,0,39.536552,-122.332214,3.99,0.009,259.3,8,2,1.8,0,0.0,-1,0.0,,0.0,0
359041,1463947625033,,,,,,,0.03,0.07,0.98,-3.0,-0.2,-0.1,0,0,39.536552,-122.332214,4.02,0.009,259.3,8,2,1.8,0,0.0,-1,0.0,,0.0,0
359061,1463947625049,,,,,,,0.03,0.07,0.98,-3.0,-0.2,-0.1,0,0,39.536552,-122.332214,3.78,0.009,259.3,8,2,1.8,0,0.0,-1,0.0,,0.0,0
359081,1463947625064,,,,,,,0.03,0.07,0.98,-3.0,-0.2,-0.1,0,0,39.536552,-122.332214,3.91,0.009,259.3,8,2,1.8,0,0.0,-1,0.0,,0.0,0
359101,1463947625084,,,,0,,,0.03,0.07,0.98,-3.0,-0.2,-0.1,0,0,39.536552,-122.332214,3.91,0.009,259.3,8,2,1.8,0,0.0,-1,0.0,,0.0,0
359121,1463947625100,,,,,,,0.03,0.07,0.98,-3.0,-0.2,-0.1,0,0,39.536552,-122.332214,2.97,0.009,259.3,8,2,1.8,0,0.0,-1,0.0,,0.0,0
359141,1463947625116,,,,,,,0.03,0.07,0.98,-3.0,-0.2,-0.1,0,0,39.536552,-122.332214,2.71,0.009,259.3,8,2,1.8,0,0.0,-1,0.0,,0.0,0
359161,1463947625135,,,,,,,0.03,0.07,0.98,-3.0,-0.2,-0.1,0,0,39.536552,-122.332214,2.04,0.009,259.3,8,2,1.8,0,0.0,-1,0.0,,0.0,0
359181,1463947625154,,,,,,,0.03,0.07,0.98,-3.0,-0.2,-0.1,0,0,39.536552,-122.332214,1.88,0.009,259.3,8,2,1.8,0,0.0,-1,0.0,,0.0,0
359201,1463947625172,0.089,190,169,0,169,,0.03,0.07,0.98,-3.0,-0.2,-0.1,0,0,39.536552,-122.332214,1.33,0.009,259.3,8,2,1.8,0,0.0,-1,0.0,0.0,0.0,0
359221,1463947625191,,,,,,,0.03,0.07,0.98,-3.0,-0.2,-0.1,0,0,39.536552,-122.332214,0.94,0.009,259.3,8,2,1.8,0,0.0,-1,0.0,,0.0,0
359241,1463947625210,,,,,,,0.03,0.07,0.98,-3.0,-0.2,-0.1,0,0,39.536552,-122.332214,0.0,0.009,259.3,8,2,1.8,0,0.0,-1,0.0,,0.0,0
359261,1463947625228,,,,,,,0.03,0.07,0.98,-3.0,-0.2,-0.1,0,0,39.536552,-122.332214,0.0,0.009,259.3,8,2,1.8,0,0.0,-1,0.0,,0.0,0
359281,1463947625328,,,,,,,0.03,0.07,0.98,-3.0,-0.2,-0.1,0,0,39.536552,-122.332214,0.0,0.009,259.3,8,2,1.8,0,0.0,-1,0.0,,0.0,0
359301,1463947625347,,,,0,,,0.03,0.07,0.98,-3.0,-0.2,-0.1,0,0,39.536552,-122.332214,0.0,0.009,259.3,8,2,1.8,0,0.0,-1,0.0,,0.0,0
359321,1463947625368,,,,,,,0.03,0.07,0.98,-3.0,-0.2,-0.1,0,0,39.536552,-122.332214,0.0,0.009,259.3,8,2,1.8,0,0.0,-1,0.0,,0.0,0
359341,1463947625387,,,,,,,0.03,0.07,0.98,-3.0,-0.2,-0.1,0,0,39.536552,-122.332214,0.0,0.009,259.3,8,2,1.8,0,0.0,-1,0.0,,0.0,0
359361,1463947625406,,,,,,,0.03,0.07,0.98,-3.0,-0.2,-0.1,0,0,39.536552,-122.332214,0.0,0.009,259.3,8,2,1.8,0,0.0,-1,0.0,,0.0,0
359381,1463947625424,,,,,,,0.03,0.07,0.98,-3.0,-0.2,-0.1,0,0,39.536552,-122.332214,0.0,0.009,259.3,8,2,1.8,0,0.0,-1,0.0,,0.0,0
359401,1463947625443,0.08,190,169,0,169,,0.03,0.07,0.98,-3.0,-0.2,-0.1,0,0,39.536552,-122.332214,0.0,0.009,259.3,8,2,1.8,0,0.0,-1,0.0,0.0,0.0,0
359421,1463947625461,,,,,,,0.03,0.07,0.98,-3.0,-0.2,-0.1,0,0,39.536552,-122.332214,0.0,0.009,259.3,8,2,1.8,0,0.0,-1,0.0,,0.0,0
359441,1463947625481,,,,,,,0.03,0.07,0.98,-3.0,-0.2,-0.1,0,0,39.536552,-122.332214,0.0,0.009,259.3,8,2,1.8,0,0.0,-1,0.0,,0.0,0
359461,1463947625498,,,,,,,0.03,0.07,0.98,-3.0,-0.2,-0.1,0,0,39.536552,-122.332214,0.0,0.009,259.3,8,2,1.8,0,0.0,-1,0.0,,0.0,0
359481,1463947625516,,,,,,,0.03,0.07,0.98,-3.0,-0.2,-0.1,0,0,39.536552,-122.332214,0.0,0.009,259.3,8,2,1.8,0,0.0,-1,0.0,,0.0,0
359501,1463947625532,,,,0,,,0.03,0.07,0.98,-3.0,-0.2,-0.1,0,0,39.536552,-122.332214,0.0,0.009,259.3,8,2,1.8,0,0.0,-1,0.0,,0.0,0
359521,1463947625549,,,,,,,0.03,0.07,0.98,-3.0,-0.2,-0.1,0,0,39.536552,-122.332214,0.0,0.009,259.3,8,2,1.8,0,0.0,-1,0.0,,0.0,0
359541,1463947625567,,,,,,,0.03,0.07,0.98,-3.0,-0.2,-0.1,0,0,39.536552,-122.332214,0.0,0.009,259.3,8,2,1.8,0,0.0,-1,0.0,,0.0,0
359561,1463947625585,,,,,,,0.03,0.07,0.98,-3.0,-0.2,-0.1,0,0,39.536552,-122.332214,0.0,0.009,259.3,8,2,1.8,0,0.0,-1,0.0,,0.0,0
359581,1463947625603,,,,,,,0.03,0.07,0.98,-3.0,-0.2,-0.1,0,0,39.536552,-122.332214,0.0,0.009,259.3,8,2,1.8,0,0.0,-1,0.0,,0.0,0
359601,1463947625622,0.096,190,169,0,169,,0.03,0.06,0.98,-3.0,-0.2,-0.1,0,0,39.536552,-122.332214,0.0,0.009,259.3,8,2,1.8,0,0.0,-1,0.0,0.0,0.0,0
359621,1463947625642,,,,,,,0.03,0.07,0.98,-3.0,-0.2,-0.1,0,0,39.536552,-122.332214,0.0,0.009,259.3,8,2,1.8,0,0.0,-1,0.0,,0.0,0
359641,1463947625660,,,,,,,0.03,0.06,0.98,-3.0,-0.2,-0.1,0,0,39.536552,-122.332214,0.0,0.009,259.3,8,2,1.8,0,0.0,-1,0.0,,0.0,0
359661,1463947625678,,,,,,,0.03,0.07,0.98,-3.0,-0.2,-0.1,0,0,39.536552,-122.332214,0.0,0.009,259.3,8,2,1.8,0,0.0,-1,0.0,,0.0,0
359681,1463947625694,,,,,,,0.03,0.07,0.98,-3.0,-0.2,-0.1,0,0,39.536552,-122.332214,0.0,0.009,259.3,8,2,1.8,0,0.0,-1,0.0,,0.0,0
359701,1463947625712,,,,0,,,0.03,0.06,0.98,-3.0,-0.2,-0.1,0,0,39.536552,-122.332214,0.0,0.009,259.3,8,2,1.8,0,0.0,-1,0.0,,0.0,0
359721,1463947625731,,,,,,,0.03,0.07,0.98,-3.0,-0.2,-0.1,0,0,39.536552,-122.332214,0.0,0.009,259.3,8,2,1.8,0,0.0,-1,0.0,,0.0,0
359741,1463947625751,,,,,,,0.03,0.06,0.98,-3.0,-0.2,-0.1,0,0,39.536552,-122.332214,0.0,0.009,259.3,8,2,1.8,0,0.0,-1,0.0,,0.0,0
359761,1463947625769,,,,,,,0.03,0.07,0.98,-3.0,-0.2,-0.1,0,0,39.536552,-122.332214,0.0,0.009,259.3,8,2,1.8,0,0.0,-1,0.0,,0.0,0
359781,1463947625789,,,,,,,0.03,0.06,0.98,-3.0,-0.2,-0.1,0,0,39.536552,-122.332214,0.0,0.009,259.3,8,2,1.8,0,0.0,-1,0.0,,0.0,0
359801,1463947625809,0.085,190,169,0,169,,0.03,0.06,0.98,-3.0,-0.2,-0.1,0,0,39.536552,-122.332214,0.0,0.009,259.3,8,2,1.8,0,0.0,-1,0.0,0.0,0.0,0
359821,1463947625829,,,,,,,0.03,0.06,0.98,-3.0,-0.2,-0.1,0,0,39.536552,-122.332214,0.0,0.009,259.3,8,2,1.8,0,0.0,-1,0.0,,0.0,0
359841,1463947625848,,,,,,,0.03,0.06,0.98,-3.0,-0.2,-0.1,0,0,39.536552,-122.332214,0.0,0.009,259.3,8,2,1.8,0,0.0,-1,0.0,,0.0,0
359861,1463947625866,,,,,,,0.03,0.06,0.98,-3.0,-0.2,-0.1,0,0,39.536552,-122.332214,0.0,0.009,259.3,8,2,1.8,0,0.0,-1,0.0,,0.0,0
359881,1463947625884,,,,,,,0.03,0.06,0.98,-3.0,-0.2,-0.1,0,0,39.536552,-122.332214,0.0,0.009,259.3,8,2,1.8,0,0.0,-1,0.0,,0.0,0
359901,1463947625902,,,,0,,,0.04,0.06,0.98,-3.0,-0.2,-0.1,0,0,39.536552,-122.332214,0.0,0.009,259.3,8,2,1.8,0,0.0,-1,0.0,,0.0,0
359921,1463947625921,,,,,,,0.03,0.06,0.98,-3.0,-0.2,-0.1,0,0,39.536552,-122.332214,0.0,0.009,259.3,8,2,1.8,0,0.0,-1,0.0,,0.0,0
359941,1463947625941,,,,,,,0.04,0.06,0.98,-3.0,-0.2,-0.1,0,0,39.536552,-122.332214,0.0,0.009,259.3,8,2,1.8,0,0.0,-1,0.0,,0.0,0
359961,1463947625959,,,,,,,0.04,0.06,0.98,-3.0,-0.2,-0.1,0,0,39.536552,-122.332214,0.0,0.009,259.3,8,2,1.8,0,0.0,-1,0.0,,0.0,0
359981,1463947625978,,,,,,,0.04,0.07,0.98,-3.0,-0.2,-0.1,0,0,39.536552,-122.332214,0.0,0.009,259.3,8,2,1.8,0,0.0,-1,0.0,,0.0,0
360001,1463947625984,0.092,190,169,0,169,12.43,0.04,0.07,0.98,-3.0,-0.2,-0.1,0,0,39.536552,-122.332214,0.0,0.009,259.3,8,2,1.8,0,0.0,-1,0.0,0.0,0.0,0
360021,1463947626004,,,,,,,0.04,0.07,0.98,-3.0,-0.2,-0.1,0,0,39.536552,-122.332214,0.0,0.009,259.3,8,2,1.8,0,0.0,-1,0.0,,0.0,0
360041,1463947626020,,,,,,,0.04,0.07,0.98,-3.0,-0.2,-0.1,0,0,39.536552,-122.332214,0.0,0.009,259.3,8,2,1.8,0,0.0,-1,0.0,,0.0,0
360061,1463947626038,,,,,,,0.04,0.07,0.98,-3.0,-0.2,-0.1,0,0,39.536552,-122.332214,0.0,0.009,259.3,8,2,1.8,0,0.0,-1,0.0,,0.0,0
360081,1463947626055,,,,,,,0.04,0.07,0.98,-3.0,-0.2,-0.1,0,0,39.536552,-122.332214,0.0,0.009,259.3,8,2,1.8,0,0.0,-1,0.0,,0.0,0
360101,1463947626072,,,,0,,,0.04,0.07,0.98,-3.0,-0.2,-0.1,0,0,39.536552,-122.332214,0.0,0.009,259.3,8,2,1.8,0,0.0,-1,0.0,,0.0,0
360121,1463947626087,,,,,,,0.04,0.07,0.98,-3.0,-0.2,-0.1,0,0,39.536552,-122.332214,0.0,0.009,259.3,8,2,1.8,0,0.0,-1,0.0,,0.0,0
360141,1463947626104,,,,,,,0.04,0.07,0.98,-3.0,-0.2,-0.1,0,0,39.536552,-122.332214,0.0,0.009,259.3,8,2,1.8,0,0.0,-1,0.0,,0.0,0
360161,1463947626201,,,,,,,0.04,0.07,0.98,-3.0,-0.2,-0.1,0,0,39.536552,-122.332214,0.0,0.009,259.3,8,2,1.8,0,0.0,-1,0.0,,0.0,0
360181,1463947626221,,,,,,,0.04,0.07,0.98,-3.0,-0.2,-0.1,0,0,39.536552,-122.332214,0.0,0.009,259.3,8,2,1.8,0,0.0,-1,0.0,,0.0,0
360201,1463947626238,0.078,190,170,0,170,,0.04,0.07,0.98,-3.0,-0.2,-0.1,0,0,39.536552,-122.332214,0.0,0.009,259.3,8,2,1.8,0,0.0,-1,0.0,0.0,0.0,0
360221,1463947626256,,,,,,,0.04,0.07,0.98,-3.0,-0.2,-0.1,0,0,39.536552,-122.332214,0.0,0.009,259.3,8,2,1.8,0,0.0,-1,0.0,,0.0,0
360241,1463947626274,,,,,,,0.03,0.07,0.98,-3.0,-0.2,-0.1,0,0,39.536552,-122.332214,0.0,0.009,259.3,8,2,1.8,0,0.0,-1,0.0,,0.0,0
360261,1463947626291,,,,,,,0.04,0.07,0.98,-3.0,-0.2,-0.1,0,0,39.536552,-122.332214,0.0,0.009,259.3,8,2,1.8,0,0.0,-1,0.0,,0.0,0
360281,1463947626309,,,,,,,0.03,0.07,0.98,-3.0,-0.2,-0.1,0,0,39.536552,-122.332214,0.0,0.009,259.3,8,2,1.8,0,0.0,-1,0.0,,0.0,0
360301,1463947626327,,,,0,,,0.03,0.07,0.98,-3.0,-0.2,-0.1,0,0,39.536552,-122.332214,0.0,0.009,259.3,8,2,1.8,0,0.0,-1,0.0,,0.0,0
360321,1463947626346,,,,,,,0.03,0.07,0.98,-3.0,-0.2,-0.1,0,0,39.536552,-122.332214,0.0,0.009,259.3,8,2,1.8,0,0.0,-1,0.0,,0.0,0
360341,1463947626364,,,,,,,0.03,0.07,0.98,-3.0,-0.2,-0.1,0,0,39.536552,-122.332214,0.0,0.009,259.3,8,2,1.8,0,0.0,-1,0.0,,0.0,0
360361,1463947626382,,,,,,,0.03,0.07,0.98,-3.0,-0.2,-0.1,0,0,39.536552,-122.332214,0.0,0.009,259.3,8,2,1.8,0,0.0,-1,0.0,,0.0,0
360381,1463947626402,,,,,,,0.03,0.07,0.98,-3.0,-0.2,-0.1,0,0,39.536552,-122.332214,0.0,0.009,259.3,8,2,1.8,0,0.0,-1,0.0,,0.0,0
360401,1463947626420,0.085,190,169,0,169,,0.03,0.07,0.98,-3.0,-0.2,-0.1,0,0,39.536552,-122.332214,0.0,0.009,259.3,8,2,1.8,0,0.0,-1,0.0,0.0,0.0,0
360421,1463947626437,,,,,,,0.03,0.07,0.98,-3.0,-0.2,-0.1,0,0,39.536552,-122.332214,0.0,0.009,259.3,8,2,1.8,0,0.0,-1,0.0,,0.0,0
360441,1463947626455,,,,,,,0.03,0.07,0.98,-3.0,-0.2,-0.1,0,0,39.536552,-122.332214,0.0,0.009,259.3,8,2,1.8,0,0.0,-1,0.0,,0.0,0
360461,1463947626472,,,,,,,0.03,0.07,0.98,-3.0,-0.2,-0.1,0,0,39.536552,-122.332214,0.0,0.009,259.3,8,2,1.8,0,0.0,-1,0.0,,0.0,0
360481,1463947626489,,,,,,,0.03,0.06,0.98,-3.0,-0.1,-0.1,0,0,39.536552,-122.332214,0.0,0.009,259.3,8,2,1.8,0,0.0,-1,0.0,,0.0,0
360501,1463947626505,,,,0,,,0.03,0.07,0.98,-3.0,-0.1,-0.1,0,0,39.536552,-122.332214,0.0,0.009,259.3,8,2,1.8,0,0.0,-1,0.0,,0.0,0
360521,1463947626522,,,,,,,0.03,0.07,0.98,-3.0,-0.2,-0.1,0,0,39.536552,-122.332214,0.0,0.009,259.3,8,2,1.8,0,0.0,-1,0.0,,0.0,0
360541,1463947626542,,,,,,,0.04,0.06,0.98,-3.0,-0.1,-0.1,0,0,39.536552,-122.332214,0.0,0.009,259.3,8,2,1.8,0,0.0,-1,0.0,,0.0,0
360561,1463947626558,,,,,,,0.03,0.07,0.98,-3.0,-0.1,-0.1,0,0,39.536552,-122.332214,0.0,0.009,259.3,8,2,1.8,0,0.0,-1,0.0,,0.0,0
360581,1463947626575,,,,,,,0.03,0.06,0.98,-3.0,-0.1,-0.1,0,0,39.536552,-122.332214,1.25,0.009,259.9,8,2,1.8,0,0.0,-1,0.0,,0.0,0
360601,1463947626591,0.075,190,170,0,170,,0.03,0.07,0.98,-3.0,-0.1,-0.1,0,0,39.536552,-122.332214,1.27,0.009,259.9,8,2,1.8,0,0.0,-1,0.0,0.0,0.0,0
360621,1463947626606,,,,,,,0.03,0.07,0.98,-3.0,-0.1,-0.1,0,0,39.536552,-122.332214,1.34,0.009,260.0,8,2,1.8,0,0.0,-1,0.0,,0.0,0
360641,1463947626623,,,,,,,0.03,0.07,0.98,-3.0,-0.1,-0.1,0,0,39.536552,-122.332214,1.5,0.009,260.0,8,2,1.8,0,0.0,-1,0.0,,0.0,0
360661,1463947626643,,,,,,,0.03,0.07,0.98,-3.0,-0.1,-0.1,0,0,39.536552,-122.332214,1.5,0.009,260.0,8,2,1.8,0,0.0,-1,0.0,,0.0,0
360681,1463947626658,,,,,,,0.04,0.07,0.98,-3.0,-0.1,-0.1,0,0,39.536552,-122.332214,1.65,0.009,260.0,8,2,1.8,0,0.0,-1,0.0,,0.0,0
360701,1463947626674,,,,0,,,0.04,0.07,0.98,-3.0,-0.1,-0.1,0,0,39.536552,-122.332214,1.7,0.009,260.0,8,2,1.8,0,0.0,-1,0.0,,0.0,0
360721,1463947626690,,,,,,,0.04,0.07,0.98,-3.0,-0.2,-0.1,0,0,39.536552,-122.332214,2.97,0.009,259.9,8,2,1.8,0,0.0,-1,0.0,,0.0,0
360741,1463947626705,,,,,,,0.03,0.07,0.98,-3.0,-0.1,-0.1,0,0,39.536552,-122.332214,3.09,0.009,259.9,8,2,1.8,0,0.0,-1,0.0,,0.0,0
360761,1463947626801,,,,,,,0.03,0.07,0.98,-3.0,-0.1,-0.1,0,0,39.536552,-122.332214,4.68,0.009,260.1,8,2,1.8,0,0.0,-1,0.0,,0.0,0
360781,1463947626821,,,,,,,0.03,0.07,0.98,-3.0,-0.1,-0.1,0,0,39.536552,-122.332214,4.68,0.009,260.1,8,2,1.8,0,0.0,-1,0.0,,0.0,0
360801,1463947626837,0.08,190,170,0,170,,0.03,0.07,0.98,-3.0,-0.2,-0.1,0,0,39.536552,-122.332214,5.71,0.009,260.0,8,2,1.8,0,0.0,-1,0.0,0.0,0.0,0
360821,1463947626852,,,,,,,0.04,0.07,0.98,-3.0,-0.2,-0.1,0,0,39.536552,-122.332214,6.4,0.009,260.0,8,2,1.8,0,0.0,-1,0.0,,0.0,0
360841,1463947626868,,,,,,,0.03,0.07,0.97,-3.0,-0.2,-0.1,0,0,39.536552,-122.332214,5.05,0.009,259.9,8,2,1.8,0,0.0,-1,0.0,,0.0,0
360861,1463947626885,,,,,,,0.03,0.07,0.97,-3.0,-0.2,-0.1,0,0,39.536552,-122.332214,1.85,0.009,259.8,8,2,1.8,0,0.0,-1,0.0,,0.0,0
360881,1463947626901,,,,,,,0.03,0.07,0.97,-3.0,-0.2,-0.1,0,0,39.536552,-122.332214,1.84,0.009,259.8,8,2,1.8,0,0.0,-1,0.0,,0.0,0
360901,1463947626921,,,,0,,,0.04,0.07,0.97,-3.0,-0.2,-0.1,0,0,39.536552,-122.332214,1.84,0.009,259.8,8,2,1.8,0,0.0,-1,0.0,,0.0,0
360921,1463947626937,,,,,,,0.04,0.07,0.97,-3.0,-0.2,-0.1,0,0,39.536552,-122.332214,1.66,0.009,259.7,8,2,1.8,0,0.0,-1,0.0,,0.0,0
360941,1463947626952,,,,,,,0.04,0.07,0.97,-3.0,-0.2,-0.1,0,0,39.536552,-122.332214,2.18,0.009,259.7,8,2,1.8,0,0.0,-1,0.0,,0.0,0
360961,1463947626967,,,,,,,0.03,0.06,0.98,-3.0,-0.2,-0.1,0,0,39.536552,-122.332214,4.55,0.009,259.7,8,2,1.8,0,0.0,-1,0.0,,0.0,0
360981,1463947626987,,,,,,,0.03,0.06,0.98,-3.0,-0.2,-0.1,0,0,39.536552,-122.332214,4.55,0.009,259.7,8,2,1.8,0,0.0,-1,0.0,,0.0,0
361001,1463947626993,0.092,191,170,0,169,12.37,0.03,0.06,0.98,-3.0,-0.2,-0.1,0,0,39.536552,-122.332214,3.94,0.009,259.6,8,2,1.8,0,0.0,-1,0.0,0.0,0.0,0
361021,1463947627011,,,,,,,0.03,0.06,0.98,-3.0,-0.2,-0.1,0,0,39.536552,-122.332199,3.74,0.01,259.6,8,2,0.1,0,0.0,-1,0.0,,0.0,0
361041,1463947627029,,,,,,,0.03,0.06,0.98,-3.0,-0.2,-0.1,0,0,39.536556,-122.332199,3.56,0.01,259.6,8,2,0.1,0,0.0,-1,0.0,,0.0,0
361061,1463947627047,,,,,,,0.03,0.06,0.98,-3.0,-0.2,-0.1,0,0,39.536556,-122.332199,3.37,0.01,259.5,8,2,0.1,0,0.0,-1,0.0,,0.0,0
361081,1463947627065,,,,,,,0.03,0.06,0.98,-3.0,-0.2,-0.1,0,0,39.536556,-122.332199,3.53,0.01,259.5,8,2,0.1,0,0.0,-1,0.0,,0.0,0
361101,1463947627083,,,,0,,,0.04,0.06,0.98,-3.0,-0.2,-0.1,0,0,39.536556,-122.332199,3.65,0.01,259.5,8,2,0.1,0,0.0,-1,0.0,,0.0,0
361121,1463947627101,,,,,,,0.04,0.06,0.98,-3.0,-0.2,-0.1,0,0,39.536556,-122.332199,4.08,0.01,259.5,8,2,0.1,0,0.0,-1,0.0,,0.0,0
361141,1463947627121,,,,,,,0.04,0.06,0.98,-3.0,-0.2,-0.1,0,0,39.536556,-122.332199,4.08,0.01,259.5,8,2,0.1,0,0.0,-1,0.0,,0.0,0
361161,1463947627140,,,,,,,0.04,0.06,0.98,-3.0,-0.2,-0.1,0,0,39.536556,-122.332199,4.59,0.01,259.4,8,2,0.1,0,0.0,-1,0.0,,0.0,0
361181,1463947627157,,,,,,,0.03,0.06,0.98,-3.0,-0.2,-0.1,0,0,39.536556,-122.332199,4.75,0.01,259.4,8,2,0.1,0,0.0,-1,0.0,,0.0,0
361201,1463947627176,0.088,190,170,0,169,,0.04,0.06,0.98,-3.0,-0.2,-0.1,0,0,39.536556,-122.332199,5.18,0.01,259.4,8,2,0.1,0,0.0,-1,0.0,0.0,0.0,0
361221,1463947627194,,,,,,,0.03,0.07,0.98,-3.0,-0.2,-0.1,0,0,39.536556,-122.332199,5.68,0.01,259.4,8,2,0.1,0,0.0,-1,0.0,,0.0,0
361241,1463947627213,,,,,,,0.03,0.07,0.98,-3.0,-0.2,-0.0,0,0,39.536556,-122.332199,5.76,0.01,259.4,8,2,0.1,0,0.0,-1,0.0,,0.0,0
361261,1463947627231,,,,,,,0.03,0.07,0.98,-3.0,-0.2,-0.0,0,0,39.536556,-122.332199,5.95,0.01,259.4,8,2,0.1,0,0.0,-1,0.0,,0.0,0
361281,1463947627249,,,,,,,0.03,0.07,0.98,-3.0,-0.2,-0.0,0,0,39.53656,-122.332199,5.9,0.01,259.4,8,2,0.1,0,0.0,-1,0.0,,0.0,0
361301,1463947627267,,,,0,,,0.03,0.07,0.98,-3.0,-0.2,-0.0,0,0,39.53656,-122.332199,6.07,0.01,259.4,8,2,0.1,0,0.0,-1,0.0,,0.0,0
361321,1463947627366,,,,,,,0.03,0.07,0.98,-3.0,-0.2,-0.0,0,0,39.53656,-122.332199,7.75,0.01,259.4,8,2,0.1,0,0.0,-1,0.0,,0.0,0
361341,1463947627383,,,,,,,0.03,0.07,0.98,-3.0,-0.2,-0.1,0,0,39.536564,-122.332199,8.35,0.01,259.4,8,2,0.1,0,0.0,-1,0.0,,0.0,0
361361,1463947627402,,,,,,,0.03,0.07,0.98,-3.0,-0.2,-0.0,0,0,39.536564,-122.332199,8.59,0.01,259.4,8,2,0.1,0,0.0,-1,0.0,,0.0,0
361381,1463947627422,,,,,,,0.03,0.07,0.98,-3.0,-0.2,-0.0,0,0,39.536564,-122.332199,8.59,0.01,259.4,8,2,0.1,0,0.0,-1,0.0,,0.0,0
361401,1463947627440,0.09,191,170,0,169,,0.03,0.07,0.97,-3.1,-0.2,-0.0,0,0,39.536564,-122.332199,8.21,0.01,259.4,8,2,0.1,0,0.0,-1,0.0,0.0,0.0,0
361421,1463947627458,,,,,,,0.03,0.07,0.98,-3.1,-0.2,-0.1,0,0,39.536564,-122.332199,8.28,0.01,259.4,8,2,0.1,0,0.0,-1,0.0,,0.0,0
361441,1463947627477,,,,,,,0.03,0.06,0.98,-3.1,-0.2,-0.1,0,0,39.536564,-122.332199,8.13,0.01,259.4,8,2,0.1,0,0.0,-1,0.0,,0.0,0
361461,1463947627495,,,,,,,0.03,0.06,0.98,-3.0,-0.2,-0.0,0,0,39.536568,-122.332199,7.7,0.011,259.4,8,2,0.1,0,0.0,-1,0.0,,0.0,0
361481,1463947627513,,,,,,,0.03,0.07,0.98,-3.0,-0.2,-0.0,0,0,39.536568,-122.332199,7.93,0.011,259.4,8,2,0.1,0,0.0,-1,0.0,,0.0,0
361501,1463947627532,,,,0,,,0.03,0.07,0.97,-3.0,-0.2,-0.0,0,0,39.536568,-122.332199,7.71,0.011,259.4,8,2,0.1,0,0.0,-1,0.0,,0.0,0
361521,1463947627548,,,,,,,0.03,0.07,0.97,-3.0,-0.2,-0.1,0,0,39.536568,-122.332199,7.17,0.011,259.4,8,2,0.1,0,0.0,-1,0.0,,0.0,0
361541,1463947627567,,,,,,,0.03,0.06,0.98,-3.0,-0.2,-0.1,0,0,39.536568,-122.332199,7.35,0.011,259.4,8,2,0.1,0,0.0,-1,0.0,,0.0,0
361561,1463947627585,,,,,,,0.03,0.06,0.98,-3.0,-0.2,-0.1,0,0,39.536568,-122.332199,6.98,0.011,259.4,8,2,0.1,0,0.0,-1,0.0,,0.0,0
361581,1463947627604,,,,,,,0.03,0.06,0.98,-3.0,-0.2,-0.1,0,0,39.536572,-122.332199,5.89,0.011,259.4,8,2,0.1,0,0.0,-1,0.0,,0.0,0
361601,1463947627623,0.088,190,170,0,170,,0.03,0.06,0.98,-3.0,-0.2,-0.1,0,0,39.536572,-122.332199,5.87,0.011,259.5,8,2,0.1,0,0.0,-1,0.0,0.0,0.0,0
361621,1463947627642,,,,,,,0.03,0.06,0.98,-3.0,-0.2,-0.1,0,0,39.536572,-122.332199,5.87,0.011,259.5,8,2,0.1,0,0.0,-1,0.0,,0.0,0
361641,1463947627662,,,,,,,0.03,0.06,0.98,-3.0,-0.2,-0.1,0,0,39.536572,-122.332199,5.87,0.011,259.5,8,2,0.1,0,0.0,-1,0.0,,0.0,0
361661,1463947627680,,,,,,,0.03,0.06,0.98,-3.0,-0.2,-0.1,0,0,39.536572,-122.332199,5.19,0.011,259.5,8,2,0.1,0,0.0,-1,0.0,,0.0,0
361681,1463947627697,,,,,,,0.03,0.06,0.98,-3.0,-0.2,-0.0,0,0,39.536572,-122.332199,4.52,0.011,259.5,8,2,0.1,0,0.0,-1,0.0,,0.0,0
361701,1463947627716,,,,0,,,0.03,0.06,0.98,-3.0,-0.2,-0.0,0,0,39.536572,-122.332199,4.27,0.011,259.5,8,2,0.1,0,0.0,-1,0.0,,0.0,0
361721,1463947627734,,,,,,,0.03,0.06,0.98,-3.0,-0.2,-0.0,0,0,39.536572,-122.332199,4.46,0.011,259.5,8,2,0.1,0,0.0,-1,0.0,,0.0,0
361741,1463947627753,,,,,,,0.03,0.06,0.98,-3.0,-0.2,-0.0,0,0,39.536572,-122.332199,5.11,0.011,259.5,8,2,0.1,0,0.0,-1,0.0,,0.0,0
361761,1463947627772,,,,,,,0.03,0.06,0.98,-3.0,-0.2,-0.0,0,0,39.536572,-122.332199,5.19,0.011,259.6,8,2,0.1,0,0.0,-1,0.0,,0.0,0
361781,1463947627789,,,,,,,0.03,0.06,0.98,-3.0,-0.2,-0.0,0,0,39.536572,-122.332199,5.11,0.011,259.6,8,2,0.1,0,0.0,-1,0.0,,0.0,0
361801,1463947627808,0.087,190,170,0,170,,0.03,0.06,0.98,-3.0,-0.2,-0.0,0,0,39.536572,-122.332199,5.95,0.011,259.6,8,2,0.1,0,0.0,-1,0.0,0.0,0.0,0
361821,1463947627826,,,,,,,0.03,0.06,0.98,-3.0,-0.2,-0.0,0,0,39.536572,-122.332199,6.19,0.011,259.6,8,2,0.1,0,0.0,-1,0.0,,0.0,0
361841,1463947627844,,,,,,,0.03,0.07,0.98,-3.0,-0.2,-0.1,0,0,39.536572,-122.332199,5.82,0.011,259.6,8,2,0.1,0,0.0,-1,0.0,,0.0,0
361861,1463947627863,,,,,,,0.03,0.07,0.98,-3.0,-0.2,-0.0,0,0,39.536572,-122.332199,5.53,0.011,259.6,8,2,0.1,0,0.0,-1,0.0,,0.0,0
361881,1463947627883,,,,,,,0.03,0.07,0.98,-3.0,-0.2,-0.1,0,0,39.536572,-122.332199,5.53,0.011,259.6,8,2,0.1,0,0.0,-1,0.0,,0.0,0
361901,1463947627900,,,,0,,,0.03,0.07,0.98,-3.0,-0.2,-0.0,0,0,39.536572,-122.332199,5.61,0.011,259.7,8,2,0.1,0,0.0,-1,0.0,,0.0,0
361921,1463947627919,,,,,,,0.03,0.07,0.98,-3.0,-0.2,-0.0,0,0,39.536572,-122.332199,5.77,0.011,259.7,8,2,0.1,0,0.0,-1,0.0,,0.0,0
361941,1463947627938,,,,,,,0.03,0.07,0.98,-3.0,-0.2,-0.0,0,0,39.536575,-122.332199,5.68,0.011,259.7,8,2,0.1,0,0.0,-1,0.0,,0.0,0
361961,1463947627956,,,,,,,0.03,0.07,0.98,-3.0,-0.2,-0.0,0,0,39.536575,-122.332199,5.43,0.011,259.7,8,2,0.1,0,0.0,-1,0.0,,0.0,0
361981,1463947627977,,,,,,,0.03,0.07,0.98,-3.0,-0.1,-0.0,0,0,39.536575,-122.332199,5.12,0.011,259.7,8,2,0.1,0,0.0,-1,0.0,,0.0,0
362001,1463947627981,0.09,190,169,0,169,12.43,0.03,0.07,0.98,-3.0,-0.2,-0.0,0,0,39.536575,-122.332199,4.81,0.011,259.7,8,2,0.1,0,0.0,-1,0.0,0.0,0.0,0
362021,1463947628001,,,,,,,0.03,0.07,0.98,-3.0,-0.2,-0.0,0,0,39.536575,-122.332199,4.81,0.011,259.7,8,2,0.1,0,0.0,-1,0.0,,0.0,0
362041,1463947628016,,,,,,,0.03,0.07,0.98,-3.0,-0.2,-0.0,0,0,39.536575,-122.332199,4.75,0.011,259.7,8,2,1.8,0,0.0,-1,0.0,,0.0,0
362061,1463947628033,,,,,,,0.03,0.07,0.98,-3.0,-0.2,-0.0,0,0,39.536575,-122.332199,4.7,0.011,259.7,8,2,1.8,0,0.0,-1,0.0,,0.0,0
362081,1463947628048,,,,,,,0.03,0.07,0.98,-3.0,-0.2,-0.1,0,0,39.536575,-122.332199,4.66,0.011,259.8,8,2,1.8,0,0.0,-1,0.0,,0.0,0
362101,1463947628065,,,,0,,,0.03,0.07,0.98,-3.0,-0.2,-0.1,0,0,39.536575,-122.332199,3.09,0.011,259.8,8,2,1.8,0,0.0,-1,0.0,,0.0,0
362121,1463947628164,,,,,,,0.04,0.07,0.98,-3.0,-0.2,-0.1,0,0,39.536575,-122.332199,2.36,0.011,259.8,8,2,1.8,0,0.0,-1,0.0,,0.0,0
362141,1463947628184,,,,,,,0.04,0.07,0.98,-3.0,-0.2,-0.1,0,0,39.536575,-122.332199,2.17,0.011,259.9,8,2,2.2,0,0.0,-1,0.0,,0.0,0
362161,1463947628204,,,,,,,0.04,0.07,0.98,-3.0,-0.2,-0.1,0,0,39.536575,-122.332199,2.16,0.011,259.9,8,2,1.8,0,0.0,-1,0.0,,0.0,0
362181,1463947628223,,,,,,,0.04,0.07,0.98,-3.0,-0.2,-0.1,0,0,39.536575,-122.332199,1.28,0.011,259.9,8,2,2.2,0,0.0,-1,0.0,,0.0,0
362201,1463947628243,0.096,191,170,0,169,,0.03,0.07,0.98,-3.0,-0.2,-0.1,0,0,39.536575,-122.332199,1.27,0.011,259.9,8,2,2.2,0,0.0,-1,0.0,0.0,0.0,0
362221,1463947628262,,,,,,,0.03,0.07,0.98,-3.0,-0.2,-0.1,0,0,39.536575,-122.332199,1.57,0.011,259.9,8,2,2.2,0,0.0,-1,0.0,,0.0,0
362241,1463947628282,,,,,,,0.03,0.07,0.97,-3.0,-0.2,-0.1,0,0,39.536575,-122.332199,1.57,0.011,259.9,8,2,2.2,0,0.0,-1,0.0,,0.0,0
362261,1463947628300,,,,,,,0.04,0.07,0.97,-3.0,-0.2,-0.0,0,0,39.536575,-122.332199,2.75,0.011,259.9,8,2,2.2,0,0.0,-1,0.0,,0.0,0
362281,1463947628322,,,,,,,0.04,0.07,0.98,-3.0,-0.2,-0.1,0,0,39.536575,-122.332199,1.26,0.011,260.0,8,2,2.2,0,0.0,-1,0.0,,0.0,0
362301,1463947628341,,,,0,,,0.04,0.07,0.98,-3.1,-0.2,-0.0,0,0,39.536575,-122.332199,1.26,0.011,260.0,8,2,2.2,0,0.0,-1,0.0,,0.0,0
362321,1463947628361,,,,,,,0.04,0.07,0.98,-3.1,-0.2,-0.1,0,0,39.536575,-122.332199,1.26,0.011,260.0,8,2,2.2,0,0.0,-1,0.0,,0.0,0
362341,1463947628380,,,,,,,0.04,0.07,0.98,-3.0,-0.2,-0.1,0,0,39.536575,-122.332199,3.59,0.011,259.9,8,2,2.2,0,0.0,-1,0.0,,0.0,0
362361,1463947628400,,,,,,,0.03,0.07,0.98,-3.0,-0.2,-0.1,0,0,39.536575,-122.332199,4.45,0.011,259.9,8,2,2.2,0,0.0,-1,0.0,,0.0,0
362381,1463947628420,,,,,,,0.03,0.07,0.98,-3.0,-0.2,-0.1,0,0,39.536575,-122.332199,4.39,0.011,259.9,8,2,2.2,0,0.0,-1,0.0,,0.0,0
362401,1463947628439,0.082,190,170,0,169,,0.03,0.07,0.98,-3.0,-0.2,-0.1,0,0,39.536579,-122.332199,4.85,0.012,259.8,8,2,2.2,0,0.0,-1,0.0,0.0,0.0,0
362421,1463947628458,,,,,,,0.03,0.07,0.98,-3.0,-0.2,-0.1,0,0,39.536579,-122.332199,6.45,0.012,259.8,8,2,2.2,0,0.0,-1,0.0,,0.0,0
362441,1463947628478,,,,,,,0.03,0.07,0.97,-3.0,-0.2,-0.1,0,0,39.536579,-122.332199,4.66,0.012,259.8,8,2,2.2,0,0.0,-1,0.0,,0.0,0
362461,1463947628497,,,,,,,0.04,0.07,0.97,-3.1,-0.2,-0.1,0,0,39.536579,-122.332199,5.12,0.012,259.8,8,2,0.4,0,0.0,-1,0.0,,0.0,0
362481,1463947628517,,,,,,,0.04,0.07,0.97,-3.1,-0.2,-0.1,0,0,39.536579,-122.332199,5.62,0.012,259.8,8,2,0.4,0,0.0,-1,0.0,,0.0,0
362501,1463947628539,,,,0,,,0.03,0.07,0.97,-3.1,-0.2,-0.1,0,0,39.536579,-122.332199,6.32,0.012,259.8,8,2,0.4,0,0.0,-1,0.0,,0.0,0
362521,1463947628559,,,,,,,0.04,0.07,0.98,-3.0,-0.2,-0.1,0,0,39.536579,-122.332199,4.91,0.012,259.7,8,2,0.4,0,0.0,-1,0.0,,0.0,0
362541,1463947628581,,,,,,,0.04,0.07,0.98,-3.0,-0.2,-0.1,0,0,39.536583,-122.332199,5.77,0.012,259.7,8,2,0.4,0,0.0,-1,0.0,,0.0,0
362561,1463947628601,,,,,,,0.04,0.07,0.98,-3.0,-0.2,-0.0,0,0,39.536583,-122.332199,5.77,0.012,259.7,8,2,0.4,0,0.0,-1,0.0,,0.0,0
362581,1463947628620,,,,,,,0.04,0.07,0.98,-3.0,-0.2,-0.0,0,0,39.536583,-122.332214,7.33,0.013,259.7,8,2,0.4,0,0.0,-1,0.0,,0.0,0
362601,1463947628641,0.09,190,170,0,169,,0.04,0.07,0.98,-3.0,-0.2,-0.0,0,0,39.536583,-122.332214,5.09,0.013,259.6,8,2,0.4,0,0.0,-1,0.0,0.0,0.0,0
362621,1463947628661,,,,,,,0.04,0.07,0.98,-3.0,-0.2,-0.0,0,0,39.536583,-122.332214,5.09,0.013,259.6,8,2,0.4,0,0.0,-1,0.0,,0.0,0
362641,1463947628680,,,,,,,0.04,0.07,0.98,-3.0,-0.2,-0.0,0,0,39.536583,-122.332214,6.07,0.013,259.6,8,2,0.4,0,0.0,-1,0.0,,0.0,0
362661,1463947628700,,,,,,,0.04,0.07,0.98,-3.0,-0.2,-0.0,0,0,39.536583,-122.332214,5.1,0.013,259.5,8,2,0.4,0,0.0,-1,0.0,,0.0,0
362681,1463947628719,,,,,,,0.04,0.07,0.98,-3.0,-0.2,-0.0,0,0,39.536583,-122.332214,5.06,0.013,259.5,8,2,0.4,0,0.0,-1,0.0,,0.0,0
362701,1463947628741,,,,0,,,0.04,0.07,0.98,-3.0,-0.2,-0.1,0,0,39.536587,-122.332214,5.62,0.013,259.4,8,2,0.4,0,0.0,-1,0.0,,0.0,0
362721,1463947628762,,,,,,,0.04,0.07,0.98,-3.0,-0.2,-0.1,0,0,39.536587,-122.332214,3.73,0.013,259.4,8,2,0.4,0,0.0,-1,0.0,,0.0,0
362741,1463947628783,,,,,,,0.04,0.07,0.98,-3.0,-0.2,-0.1,0,0,39.536587,-122.332214,3.52,0.013,259.4,8,2,0.4,0,0.0,-1,0.0,,0.0,0
362761,1463947628803,,,,,,,0.04,0.07,0.98,-3.0,-0.2,-0.1,0,0,39.536587,-122.332214,5.06,0.013,259.4,8,2,0.4,0,0.0,-1,0.0,,0.0,0
362781,1463947628823,,,,,,,0.04,0.07,0.98,-3.0,-0.2,-0.1,0,0,39.536587,-122.332214,3.49,0.013,259.3,8,2,0.4,0,0.0,-1,0.0,,0.0,0
362801,1463947628843,0.094,191,170,0,169,,0.04,0.07,0.98,-3.0,-0.2,-0.1,0,0,39.536587,-122.332214,2.44,0.013,259.3,8,2,0.4,0,0.0,-1,0.0,0.0,0.0,0
362821,1463947628864,,,,,,,0.04,0.07,0.98,-3.0,-0.2,-0.1,0,0,39.536587,-122.332214,2.95,0.013,259.3,8,2,0.4,0,0.0,-1,0.0,,0.0,0
362841,1463947628885,,,,,,,0.04,0.07,0.98,-3.0,-0.2,-0.1,0,0,39.536587,-122.332214,2.92,0.013,259.3,8,2,0.4,0,0.0,-1,0.0,,0.0,0
362861,1463947628906,,,,,,,0.04,0.07,0.97,-3.0,-0.2,-0.1,0,0,39.536587,-122.332214,2.72,0.013,259.3,8,2,0.4,0,0.0,-1,0.0,,0.0,0
362881,1463947628926,,,,,,,0.04,0.07,0.97,-3.0,-0.2,-0.1,0,0,39.536587,-122.332214,3.45,0.013,259.3,8,2,0.4,0,0.0,-1,0.0,,0.0,0
362901,1463947628949,,,,0,,,0.04,0.07,0.97,-3.0,-0.2,-0.1,0,0,39.536587,-122.332214,1.97,0.013,2362901,1463947628949,,,,0,,,0.04,0.07,0.97,-3.0,-0.2,-0.1,0,0,39.536587,-122.332214,1.97,0.013,259.3,8,2,0.4,0,0.0,-1,0.0,,0.0,0
362921,1463947628984,,,,,,,0.04,0.07,0.97,-3.0,-0.2,-0.1,0,0,39.536587,-122.332214,1.83,0.013,259.3,8,2,0.4,0,0.0,-1,0.0,,0.0,0
362941,1463947628925,,,,,,,0.04,0.07,0.97,-3.0,-0.2,-0.1,0,0,39.536587,-122.332214,2.88,0.013,259.1,8,2,0.4,0,0.0,-1,0.0,,0.0,0
362961,1463947628948,,,,,,,0.04,0.07,0.98,-3.0,-0.2,-0.1,0,0,39.536587,-122.332214,2.47,0.013,259.2,8,2,0.4,0,0.0,-1,0.0,,0.0,0
362981,1463947628971,,,,,,,0.04,0.07,0.98,-3.0,-0.2,-0.1,0,0,39.536587,-122.332214,2.47,0.013,259.2,8,2,0.4,0,0.0,-1,0.0,,0.0,0
363001,1463947628982,0.101,190,170,0,169,12.41,0.04,0.06,0.98,-3.0,-0.2,-0.1,0,0,39.536587,-122.332214,2.47,0.013,259.2,8,2,0.4,0,0.0,-1,0.0,0.0,0.0,0
363021,1463947629003,,,,,,,0.03,0.06,0.98,-3.0,-0.2,-0.1,0,0,39.536587,-122.332214,2.71,0.013,259.3,8,2,0.4,0,0.0,-1,0.0,,0.0,0
363041,1463947629024,,,,,,,0.03,0.06,0.98,-3.0,-0.2,-0.1,0,0,39.536587,-122.332214,2.78,0.013,259.3,8,2,0.4,0,0.0,-1,0.0,,0.0,0
363061,1463947629045,,,,,,,0.04,0.06,0.98,-3.0,-0.2,-0.1,0,0,39.536587,-122.332214,3.13,0.013,259.3,8,2,0.4,0,0.0,-1,0.0,,0.0,0
363081,1463947629065,,,,,,,0.03,0.06,0.98,-3.0,-0.2,-0.1,0,0,39.536587,-122.332214,3.17,0.013,259.4,8,2,0.4,0,0.0,-1,0.0,,0.0,0
363101,1463947629086,,,,0,,,0.03,0.06,0.98,-3.0,-0.2,-0.1,0,0,39.536587,-122.332214,3.88,0.013,259.4,8,2,0.4,0,0.0,-1,0.0,,0.0,0
363121,1463947629107,,,,,,,0.03,0.06,0.97,-3.0,-0.2,-0.1,0,0,39.536587,-122.332199,3.93,0.014,259.4,8,2,0.4,0,0.0,-1,0.0,,0.0,0
363141,1463947629128,,,,,,,0.03,0.06,0.98,-3.0,-0.2,-0.1,0,0,39.536587,-122.332199,4.27,0.014,259.4,8,2,0.4,0,0.0,-1,0.0,,0.0,0
363161,1463947629149,,,,,,,0.03,0.06,0.98,-3.0,-0.2,-0.1,0,0,39.536587,-122.332199,4.33,0.014,259.4,8,2,0.4,0,0.0,-1,0.0,,0.0,0
363181,1463947629170,,,,,,,0.03,0.07,0.98,-3.0,-0.2,-0.1,0,0,39.536587,-122.332199,4.55,0.014,259.5,8,2,0.4,0,0.0,-1,0.0,,0.0,0
363201,1463947629190,0.088,190,170,0,169,,0.03,0.06,0.98,-3.0,-0.2,-0.1,0,0,39.536587,-122.332199,5.01,0.014,259.5,8,2,0.4,0,0.0,-1,0.0,0.0,0.0,0
363221,1463947629211,,,,,,,0.03,0.06,0.98,-3.0,-0.2,-0.1,0,0,39.536587,-122.332199,4.71,0.014,259.5,8,2,0.4,0,0.0,-1,0.0,,0.0,0
363241,1463947629232,,,,,,,0.03,0.07,0.98,-3.0,-0.2,-0.1,0,0,39.536587,-122.332199,5.16,0.014,259.5,8,2,0.4,0,0.0,-1,0.0,,0.0,0
363261,1463947629253,,,,,,,0.03,0.07,0.98,-3.0,-0.2,-0.1,0,0,39.536587,-122.332199,5.57,0.014,259.5,8,2,0.4,0,0.0,-1,0.0,,0.0,0
363281,1463947629274,,,,,,,0.03,0.07,0.98,-3.0,-0.2,-0.1,0,0,39.536587,-122.332199,6.02,0.014,259.5,8,2,0.4,0,0.0,-1,0.0,,0.0,0
363301,1463947629297,,,,0,,,0.03,0.07,0.98,-3.0,-0.2,-0.1,0,0,39.536587,-122.332199,5.96,0.014,259.5,8,2,0.4,0,0.0,-1,0.0,,0.0,0
363321,1463947629319,,,,,,,0.03,0.06,0.98,-3.0,-0.2,-0.1,0,0,39.536587,-122.332199,5.56,0.014,259.5,8,2,0.4,0,0.0,-1,0.0,,0.0,0
363341,1463947629339,,,,,,,0.03,0.06,0.98,-3.0,-0.2,-0.1,0,0,39.536587,-122.332199,5.77,0.014,259.5,8,2,0.4,0,0.0,-1,0.0,,0.0,0
363361,1463947629361,,,,,,,0.04,0.06,0.98,-3.0,-0.2,-0.0,0,0,39.536587,-122.332199,5.41,0.014,259.5,8,2,0.4,0,0.0,-1,0.0,,0.0,0
363381,1463947629381,,,,,,,0.04,0.06,0.98,-3.0,-0.2,-0.0,0,0,39.536587,-122.332199,5.18,0.014,259.5,8,2,0.4,0,0.0,-1,0.0,,0.0,0
363401,1463947629402,0.092,190,170,0,169,,0.04,0.06,0.98,-3.0,-0.2,-0.1,0,0,39.536587,-122.332199,5.04,0.014,259.5,8,2,0.4,0,0.0,-1,0.0,0.0,0.0,0
363421,1463947629422,,,,,,,0.04,0.06,0.98,-3.0,-0.2,-0.1,0,0,39.536587,-122.332199,4.85,0.014,259.6,8,2,0.4,0,0.0,-1,0.0,,0.0,0
363441,1463947629444,,,,,,,0.04,0.07,0.98,-3.0,-0.2,-0.1,0,0,39.536587,-122.332199,5.09,0.014,259.6,8,2,0.4,0,0.0,-1,0.0,,0.0,0
363461,1463947629464,,,,,,,0.04,0.07,0.98,-3.0,-0.2,-0.1,0,0,39.536587,-122.332199,5.55,0.014,259.6,8,2,0.4,0,0.0,-1,0.0,,0.0,0
363481,1463947629485,,,,,,,0.04,0.07,0.98,-3.0,-0.2,-0.1,0,0,39.536587,-122.332199,6.35,0.014,259.6,8,2,0.4,0,0.0,-1,0.0,,0.0,0
363501,1463947629507,,,,0,,,0.04,0.07,0.98,-3.0,-0.2,-0.1,0,0,39.536587,-122.332199,6.36,0.014,259.6,8,2,0.4,0,0.0,-1,0.0,,0.0,0
363521,1463947629528,,,,,,,0.04,0.07,0.98,-3.0,-0.2,-0.1,0,0,39.536587,-122.332199,6.82,0.014,259.6,8,2,0.4,0,0.0,-1,0.0,,0.0,0
363541,1463947629549,,,,,,,0.04,0.07,0.98,-3.0,-0.2,-0.1,0,0,39.536583,-122.332199,7.07,0.014,259.6,8,2,0.4,0,0.0,-1,0.0,,0.0,0
363561,1463947629570,,,,,,,0.04,0.07,0.98,-3.0,-0.2,-0.1,0,0,39.536583,-122.332184,7.25,0.015,259.6,8,2,0.4,0,0.0,-1,0.0,,0.0,0
363581,1463947629590,,,,,,,0.04,0.07,0.98,-3.0,-0.2,-0.1,0,0,39.536583,-122.332184,7.39,0.015,259.6,8,2,0.4,0,0.0,-1,0.0,,0.0,0
363601,1463947629611,0.09,190,170,0,169,,0.04,0.07,0.98,-3.0,-0.2,-0.1,0,0,39.536583,-122.332184,7.37,0.015,259.6,8,2,0.4,0,0.0,-1,0.0,0.0,0.0,0
363621,1463947629632,,,,,,,0.04,0.06,0.98,-3.0,-0.2,-0.1,0,0,39.536583,-122.332184,7.32,0.015,259.6,8,2,0.4,0,0.0,-1,0.0,,0.0,0
363641,1463947629652,,,,,,,0.03,0.06,0.98,-3.0,-0.2,-0.1,0,0,39.536583,-122.332184,6.91,0.015,259.7,8,2,0.4,0,0.0,-1,0.0,,0.0,0
363661,1463947629673,,,,,,,0.03,0.06,0.98,-3.0,-0.2,-0.1,0,0,39.536583,-122.332184,6.86,0.015,259.7,8,2,0.4,0,0.0,-1,0.0,,0.0,0
363681,1463947629693,,,,,,,0.03,0.06,0.98,-3.0,-0.2,-0.1,0,0,39.536583,-122.332184,6.47,0.015,259.7,8,2,0.4,0,0.0,-1,0.0,,0.0,0
363701,1463947629714,,,,0,,,0.03,0.07,0.98,-3.0,-0.2,-0.1,0,0,39.536583,-122.332184,6.45,0.015,259.7,8,2,0.4,0,0.0,-1,0.0,,0.0,0
363721,1463947629733,,,,,,,0.03,0.07,0.98,-3.0,-0.2,-0.1,0,0,39.536579,-122.332184,6.19,0.015,259.7,8,2,0.4,0,0.0,-1,0.0,,0.0,0
363741,1463947629753,,,,,,,0.03,0.07,0.98,-3.0,-0.2,-0.1,0,0,39.536579,-122.332184,6.03,0.015,259.7,8,2,0.4,0,0.0,-1,0.0,,0.0,0
363761,1463947629773,,,,,,,0.03,0.07,0.98,-3.0,-0.2,-0.1,0,0,39.536579,-122.332184,5.68,0.015,259.7,8,2,0.4,0,0.0,-1,0.0,,0.0,0
363781,1463947629792,,,,,,,0.03,0.07,0.98,-3.0,-0.2,-0.1,0,0,39.536579,-122.332184,5.48,0.015,259.7,8,2,0.4,0,0.0,-1,0.0,,0.0,0
363801,1463947629813,0.092,190,169,0,169,,0.03,0.07,0.98,-3.0,-0.2,-0.1,0,0,39.536579,-122.332184,4.83,0.015,259.7,8,2,0.4,0,0.0,-1,0.0,0.0,0.0,0
363821,1463947629832,,,,,,,0.03,0.07,0.98,-3.0,-0.2,-0.1,0,0,39.536579,-122.332184,4.33,0.015,259.7,8,2,0.4,0,0.0,-1,0.0,,0.0,0
363841,1463947629853,,,,,,,0.03,0.06,0.98,-3.0,-0.2,-0.1,0,0,39.536579,-122.332184,3.95,0.015,259.7,8,2,0.4,0,0.0,-1,0.0,,0.0,0
363861,1463947629874,,,,,,,0.04,0.07,0.98,-3.0,-0.2,-0.1,0,0,39.536579,-122.332184,3.66,0.015,259.7,8,2,0.4,0,0.0,-1,0.0,,0.0,0
363881,1463947629895,,,,,,,0.04,0.07,0.98,-3.0,-0.2,-0.1,0,0,39.536579,-122.332184,3.31,0.015,259.7,8,2,0.4,0,0.0,-1,0.0,,0.0,0
363901,1463947629915,,,,0,,,0.03,0.07,0.98,-3.0,-0.2,-0.1,0,0,39.536579,-122.332184,3.14,0.015,259.6,8,2,0.4,0,0.0,-1,0.0,,0.0,0
363921,1463947629936,,,,,,,0.03,0.07,0.98,-3.0,-0.2,-0.1,0,0,39.536579,-122.332184,2.81,0.015,259.6,8,2,0.4,0,0.0,-1,0.0,,0.0,0
363941,1463947629955,,,,,,,0.03,0.07,0.98,-3.0,-0.2,-0.1,0,0,39.536575,-122.332184,2.62,0.015,259.6,8,2,0.4,0,0.0,-1,0.0,,0.0,0
363961,1463947629976,,,,,,,0.03,0.07,0.98,-3.0,-0.2,-0.1,0,0,39.536575,-122.332184,2.53,0.015,259.6,8,2,0.4,0,0.0,-1,0.0,,0.0,0
363981,1463947629984,,,,,,,0.03,0.07,0.98,-3.0,-0.2,-0.1,0,0,39.536575,-122.332184,2.27,0.015,259.6,8,2,0.4,0,0.0,-1,0.0,,0.0,0
364001,1463947630005,0.088,190,169,0,169,12.41,0.03,0.07,0.98,-3.0,-0.2,-0.1,0,0,39.536575,-122.332184,2.0,0.015,259.6,8,2,0.4,0,0.0,-1,0.0,0.0,0.0,0
364021,1463947630025,,,,,,,0.03,0.07,0.98,-3.0,-0.2,-0.1,0,0,39.536575,-122.332184,0.0,0.015,259.7,8,2,0.4,0,0.0,-1,0.0,,0.0,0
364041,1463947630047,,,,,,,0.03,0.07,0.98,-3.0,-0.2,-0.1,0,0,39.536575,-122.332184,0.0,0.015,259.8,8,2,0.4,0,0.0,-1,0.0,,0.0,0
364061,1463947630061,,,,,,,0.03,0.07,0.98,-3.0,-0.2,-0.1,0,0,39.536575,-122.332184,0.0,0.015,259.9,8,2,0.4,0,0.0,-1,0.0,,0.0,0
364081,1463947630083,,,,,,,0.03,0.07,0.98,-3.0,-0.2,-0.1,0,0,39.536575,-122.332184,0.0,0.015,259.9,8,2,0.4,0,0.0,-1,0.0,,0.0,0
364101,1463947630103,,,,0,,,0.03,0.07,0.98,-3.0,-0.2,-0.1,0,0,39.536575,-122.332184,0.0,0.015,259.9,8,2,0.4,0,0.0,-1,0.0,,0.0,0
364121,1463947630118,,,,,,,0.03,0.07,0.98,-3.0,-0.2,-0.1,0,0,39.536575,-122.332184,0.0,0.015,259.9,8,2,0.4,0,0.0,-1,0.0,,0.0,0
364141,1463947630139,,,,,,,0.03,0.07,0.98,-3.0,-0.2,-0.1,0,0,39.536575,-122.332184,0.0,0.015,260.0,8,2,1.9,0,0.0,-1,0.0,,0.0,0
364161,1463947630159,,,,,,,0.03,0.07,0.98,-3.0,-0.2,-0.1,0,0,39.536575,-122.332184,0.0,0.015,260.0,8,2,1.9,0,0.0,-1,0.0,,0.0,0
364181,1463947630179,,,,,,,0.03,0.07,0.98,-3.0,-0.2,-0.1,0,0,39.536575,-122.332184,0.0,0.015,260.0,8,2,1.9,0,0.0,-1,0.0,,0.0,0
364201,1463947630199,0.092,190,170,0,169,,0.03,0.07,0.98,-3.0,-0.2,-0.1,0,0,39.536575,-122.332184,0.0,0.015,260.0,8,2,1.9,0,0.0,-1,0.0,0.0,0.0,0
364221,1463947630218,,,,,,,0.03,0.07,0.98,-3.0,-0.2,-0.1,0,0,39.536575,-122.332184,0.0,0.015,260.0,8,2,1.9,0,0.0,-1,0.0,,0.0,0
364241,1463947630238,,,,,,,0.03,0.07,0.98,-3.0,-0.2,-0.1,0,0,39.536575,-122.332184,0.0,0.015,260.0,8,2,1.9,0,0.0,-1,0.0,,0.0,0
364261,1463947630256,,,,,,,0.03,0.07,0.98,-3.0,-0.2,-0.1,0,0,39.536575,-122.332184,0.0,0.015,260.0,8,2,1.9,0,0.0,-1,0.0,,0.0,0
364281,1463947630274,,,,,,,0.03,0.07,0.98,-3.0,-0.2,-0.1,0,0,39.536575,-122.332184,0.0,0.015,260.0,8,2,1.9,0,0.0,-1,0.0,,0.0,0
364301,1463947630294,,,,0,,,0.03,0.07,0.98,-3.0,-0.2,-0.1,0,0,39.536575,-122.332184,0.0,0.015,260.0,8,2,1.9,0,0.0,-1,0.0,,0.0,0
364321,1463947630313,,,,,,,0.03,0.07,0.98,-3.0,-0.2,-0.1,0,0,39.536575,-122.332184,0.0,0.015,260.0,8,2,1.9,0,0.0,-1,0.0,,0.0,0
364341,1463947630333,,,,,,,0.03,0.07,0.98,-3.0,-0.2,-0.1,0,0,39.536575,-122.332184,0.0,0.015,260.0,8,2,1.9,0,0.0,-1,0.0,,0.0,0
364361,1463947630351,,,,,,,0.03,0.07,0.98,-3.0,-0.2,-0.1,0,0,39.536575,-122.332184,0.0,0.015,260.0,8,2,1.9,0,0.0,-1,0.0,,0.0,0
364381,1463947630369,,,,,,,0.03,0.07,0.98,-3.0,-0.2,-0.1,0,0,39.536575,-122.332184,0.0,0.015,260.0,8,2,1.9,0,0.0,-1,0.0,,0.0,0
364401,1463947630388,0.089,190,170,0,169,,0.03,0.07,0.98,-3.0,-0.2,-0.1,0,0,39.536575,-122.332184,0.0,0.015,260.0,8,2,1.9,0,0.0,-1,0.0,0.0,0.0,0
364421,1463947630408,,,,,,,0.03,0.07,0.98,-3.0,-0.2,-0.1,0,0,39.536575,-122.332184,0.0,0.015,260.0,8,2,1.9,0,0.0,-1,0.0,,0.0,0
364441,1463947630427,,,,,,,0.03,0.07,0.98,-3.0,-0.2,-0.1,0,0,39.536575,-122.332184,0.0,0.015,260.0,8,2,1.9,0,0.0,-1,0.0,,0.0,0
364461,1463947630445,,,,,,,0.03,0.07,0.98,-3.0,-0.2,-0.1,0,0,39.536575,-122.332184,0.0,0.015,260.0,8,2,1.9,0,0.0,-1,0.0,,0.0,0
364481,1463947630464,,,,,,,0.03,0.07,0.98,-3.0,-0.2,-0.1,0,0,39.536575,-122.332184,0.0,0.015,260.0,8,2,1.9,0,0.0,-1,0.0,,0.0,0
364501,1463947630483,,,,0,,,0.03,0.07,0.98,-3.0,-0.2,-0.1,0,0,39.536575,-122.332184,0.0,0.015,260.0,8,2,1.9,0,0.0,-1,0.0,,0.0,0
364521,1463947630503,,,,,,,0.03,0.07,0.98,-3.0,-0.2,-0.1,0,0,39.536575,-122.332184,0.0,0.015,260.0,8,2,1.9,0,0.0,-1,0.0,,0.0,0
364541,1463947630521,,,,,,,0.03,0.07,0.98,-3.0,-0.2,-0.1,0,0,39.536575,-122.332184,0.0,0.015,260.0,8,2,1.9,0,0.0,-1,0.0,,0.0,0
364561,1463947630541,,,,,,,0.03,0.07,0.98,-3.0,-0.2,-0.1,0,0,39.536575,-122.332184,0.0,0.015,260.0,8,2,1.9,0,0.0,-1,0.0,,0.0,0
364581,1463947630560,,,,,,,0.03,0.07,0.98,-3.0,-0.2,-0.1,0,0,39.536575,-122.332184,0.0,0.015,260.0,8,2,1.9,0,0.0,-1,0.0,,0.0,0
364601,1463947630577,0.083,190,170,0,169,,0.03,0.07,0.98,-3.0,-0.2,-0.1,0,0,39.536575,-122.332184,0.0,0.015,260.0,8,2,1.9,0,0.0,-1,0.0,0.0,0.0,0
364621,1463947630677,,,,,,,0.03,0.07,0.98,-3.0,-0.2,-0.1,0,0,39.536575,-122.332184,0.0,0.015,260.0,8,2,1.9,0,0.0,-1,0.0,,0.0,0
364641,1463947630696,,,,,,,0.03,0.07,0.98,-3.0,-0.2,-0.1,0,0,39.536575,-122.332184,0.0,0.015,260.0,8,2,1.9,0,0.0,-1,0.0,,0.0,0
364661,1463947630715,,,,,,,0.03,0.06,0.98,-3.0,-0.2,-0.1,0,0,39.536575,-122.332184,0.0,0.015,260.0,8,2,1.9,0,0.0,-1,0.0,,0.0,0
364681,1463947630735,,,,,,,0.03,0.06,0.98,-3.0,-0.2,-0.1,0,0,39.536575,-122.332184,0.0,0.015,260.0,8,2,1.9,0,0.0,-1,0.0,,0.0,0
364701,1463947630755,,,,0,,,0.03,0.06,0.98,-3.0,-0.2,-0.1,0,0,39.536575,-122.332184,0.0,0.015,260.0,8,2,1.9,0,0.0,-1,0.0,,0.0,0
364721,1463947630773,,,,,,,0.03,0.06,0.98,-3.0,-0.2,-0.1,0,0,39.536575,-122.332184,0.0,0.015,260.0,8,2,1.9,0,0.0,-1,0.0,,0.0,0
364741,1463947630791,,,,,,,0.03,0.07,0.98,-3.0,-0.2,-0.1,0,0,39.536575,-122.332184,0.0,0.015,260.0,8,2,1.9,0,0.0,-1,0.0,,0.0,0
364761,1463947630811,,,,,,,0.04,0.06,0.98,-3.0,-0.2,-0.1,0,0,39.536575,-122.332184,0.0,0.015,260.0,8,2,1.9,0,0.0,-1,0.0,,0.0,0
364781,1463947630830,,,,,,,0.04,0.06,0.98,-3.0,-0.2,-0.1,0,0,39.536575,-122.332184,0.0,0.015,260.0,8,2,1.9,0,0.0,-1,0.0,,0.0,0
364801,1463947630849,0.093,190,170,0,169,,0.04,0.06,0.98,-3.0,-0.2,-0.1,0,0,39.536575,-122.332184,0.0,0.015,260.0,8,2,1.9,0,0.0,-1,0.0,0.0,0.0,0
364821,1463947630868,,,,,,,0.03,0.07,0.98,-3.0,-0.2,-0.1,0,0,39.536575,-122.332184,0.0,0.015,260.0,8,2,1.9,0,0.0,-1,0.0,,0.0,0
364841,1463947630887,,,,,,,0.03,0.06,0.98,-3.0,-0.2,-0.1,0,0,39.536575,-122.332184,0.0,0.015,260.0,8,2,1.9,0,0.0,-1,0.0,,0.0,0
364861,1463947630905,,,,,,,0.03,0.06,0.98,-3.0,-0.2,-0.1,0,0,39.536575,-122.332184,0.0,0.015,260.0,8,2,1.9,0,0.0,-1,0.0,,0.0,0
364881,1463947630923,,,,,,,0.03,0.07,0.98,-3.0,-0.2,-0.1,0,0,39.536575,-122.332184,0.0,0.015,260.0,8,2,1.9,0,0.0,-1,0.0,,0.0,0
364901,1463947630944,,,,0,,,0.03,0.07,0.98,-3.0,-0.2,-0.1,0,0,39.536575,-122.332184,0.0,0.015,260.0,8,2,1.9,0,0.0,-1,0.0,,0.0,0
364921,1463947630964,,,,,,,0.03,0.07,0.98,-3.0,-0.2,-0.1,0,0,39.536575,-122.332184,0.0,0.015,260.0,8,2,1.9,0,0.0,-1,0.0,,0.0,0
364941,1463947630984,,,,,,,0.04,0.07,0.98,-3.0,-0.2,-0.1,0,0,39.536575,-122.332184,0.0,0.015,260.0,8,2,1.9,0,0.0,-1,0.0,,0.0,0
364961,1463947630988,,,,,,,0.04,0.07,0.98,-3.0,-0.2,-0.1,0,0,39.536575,-122.332184,0.0,0.015,260.0,8,2,1.9,0,0.0,-1,0.0,,0.0,0
364981,1463947631007,,,,,,,0.04,0.07,0.98,-3.0,-0.2,-0.1,0,0,39.536575,-122.332184,0.0,0.015,260.0,8,2,1.8,0,0.0,-1,0.0,,0.0,0
365001,1463947631026,0.09,190,170,0,169,12.42,0.04,0.07,0.98,-3.0,-0.2,-0.1,0,0,39.536575,-122.332184,0.0,0.015,260.0,8,2,1.8,0,0.0,-1,0.0,0.0,0.0,0
365021,1463947631045,,,,,,,0.03,0.07,0.98,-3.0,-0.2,-0.1,0,0,39.536575,-122.332184,0.0,0.015,260.0,8,2,1.8,0,0.0,-1,0.0,,0.0,0
365041,1463947631062,,,,,,,0.03,0.07,0.98,-3.0,-0.2,-0.1,0,0,39.536575,-122.332184,0.0,0.015,260.0,8,2,1.8,0,0.0,-1,0.0,,0.0,0
365061,1463947631082,,,,,,,0.04,0.07,0.98,-3.0,-0.2,-0.1,0,0,39.536575,-122.332184,0.0,0.015,260.0,8,2,1.8,0,0.0,-1,0.0,,0.0,0
365081,1463947631100,,,,,,,0.04,0.07,0.98,-3.0,-0.2,-0.1,0,0,39.536575,-122.332184,0.0,0.015,260.0,8,2,1.8,0,0.0,-1,0.0,,0.0,0
365101,1463947631119,,,,0,,,0.03,0.07,0.98,-3.0,-0.2,-0.1,0,0,39.536575,-122.332184,0.0,0.015,260.0,8,2,1.8,0,0.0,-1,0.0,,0.0,0
365121,1463947631138,,,,,,,0.03,0.07,0.98,-3.0,-0.2,-0.1,0,0,39.536575,-122.332184,0.0,0.015,260.0,8,2,1.8,0,0.0,-1,0.0,,0.0,0
365141,1463947631157,,,,,,,0.03,0.07,0.98,-3.0,-0.2,-0.1,0,0,39.536575,-122.332184,0.0,0.015,260.0,8,2,1.8,0,0.0,-1,0.0,,0.0,0
365161,1463947631177,,,,,,,0.03,0.07,0.98,-3.0,-0.2,-0.1,0,0,39.536575,-122.332184,0.0,0.015,260.0,8,2,1.8,0,0.0,-1,0.0,,0.0,0
365181,1463947631194,,,,,,,0.03,0.07,0.98,-3.0,-0.2,-0.1,0,0,39.536575,-122.332184,0.0,0.015,260.0,8,2,1.8,0,0.0,-1,0.0,,0.0,0
365201,1463947631213,0.094,190,169,0,169,,0.03,0.07,0.98,-3.0,-0.2,-0.1,0,0,39.536575,-122.332184,0.0,0.015,260.0,8,2,1.8,0,0.0,-1,0.0,0.0,0.0,0
365221,1463947631232,,,,,,,0.03,0.07,0.98,-3.0,-0.2,-0.1,0,0,39.536575,-122.332184,0.0,0.015,260.0,8,2,1.8,0,0.0,-1,0.0,,0.0,0
365241,1463947631251,,,,,,,0.03,0.07,0.98,-3.0,-0.2,-0.1,0,0,39.536575,-122.332184,0.0,0.015,260.0,8,2,1.8,0,0.0,-1,0.0,,0.0,0
365261,1463947631271,,,,,,,0.03,0.07,0.98,-3.0,-0.2,-0.1,0,0,39.536575,-122.332184,0.0,0.015,260.0,8,2,1.8,0,0.0,-1,0.0,,0.0,0
365281,1463947631289,,,,,,,0.03,0.07,0.98,-3.0,-0.2,-0.1,0,0,39.536575,-122.332184,0.0,0.015,260.0,8,2,1.8,0,0.0,-1,0.0,,0.0,0
365301,1463947631308,,,,0,,,0.03,0.07,0.98,-3.0,-0.2,-0.1,0,0,39.536575,-122.332184,0.0,0.015,260.0,8,2,1.8,0,0.0,-1,0.0,,0.0,0
365321,1463947631327,,,,,,,0.03,0.07,0.98,-3.0,-0.2,-0.1,0,0,39.536575,-122.332184,0.0,0.015,260.0,8,2,1.8,0,0.0,-1,0.0,,0.0,0
365341,1463947631344,,,,,,,0.03,0.07,0.98,-3.0,-0.2,-0.1,0,0,39.536575,-122.332184,0.0,0.015,260.0,8,2,1.8,0,0.0,-1,0.0,,0.0,0
365361,1463947631363,,,,,,,0.03,0.07,0.98,-3.0,-0.2,-0.1,0,0,39.536575,-122.332184,0.0,0.015,260.0,8,2,1.8,0,0.0,-1,0.0,,0.0,0
365381,1463947631381,,,,,,,0.03,0.07,0.98,-3.0,-0.2,-0.1,0,0,39.536575,-122.332184,0.0,0.015,260.0,8,2,1.8,0,0.0,-1,0.0,,0.0,0
365401,1463947631401,0.08,190,170,0,169,,0.03,0.07,0.98,-3.0,-0.2,-0.1,0,0,39.536575,-122.332184,0.0,0.015,260.0,8,2,1.8,0,0.0,-1,0.0,0.0,0.0,0
365421,1463947631421,,,,,,,0.04,0.07,0.98,-3.0,-0.2,-0.1,0,0,39.536575,-122.332184,0.0,0.015,260.0,8,2,1.8,0,0.0,-1,0.0,,0.0,0
365441,1463947631439,,,,,,,0.04,0.07,0.98,-3.0,-0.2,-0.1,0,0,39.536575,-122.332184,0.0,0.015,260.0,8,2,1.8,0,0.0,-1,0.0,,0.0,0
365461,1463947631459,,,,,,,0.04,0.07,0.98,-3.0,-0.2,-0.1,0,0,39.536575,-122.332184,0.0,0.015,260.0,8,2,1.8,0,0.0,-1,0.0,,0.0,0
365481,1463947631476,,,,,,,0.03,0.07,0.98,-3.0,-0.2,-0.1,0,0,39.536575,-122.332184,0.0,0.015,260.0,8,2,1.8,0,0.0,-1,0.0,,0.0,0
365501,1463947631494,,,,0,,,0.03,0.07,0.98,-3.0,-0.2,-0.1,0,0,39.536575,-122.332184,0.0,0.015,260.0,8,2,1.8,0,0.0,-1,0.0,,0.0,0
365521,1463947631511,,,,,,,0.03,0.07,0.98,-3.0,-0.2,-0.1,0,0,39.536575,-122.332184,0.0,0.015,260.0,8,2,1.8,0,0.0,-1,0.0,,0.0,0
365541,1463947631530,,,,,,,0.03,0.07,0.98,-3.0,-0.2,-0.1,0,0,39.536575,-122.332184,0.0,0.015,260.0,8,2,1.8,0,0.0,-1,0.0,,0.0,0
365561,1463947631549,,,,,,,0.03,0.06,0.98,-3.0,-0.2,-0.1,0,0,39.536575,-122.332184,0.0,0.015,260.0,8,2,1.8,0,0.0,-1,0.0,,0.0,0
365581,1463947631568,,,,,,,0.03,0.06,0.98,-3.0,-0.2,-0.1,0,0,39.536575,-122.332184,0.0,0.015,260.0,8,2,1.8,0,0.0,-1,0.0,,0.0,0
365601,1463947631586,0.09,190,169,0,169,,0.03,0.07,0.98,-3.0,-0.2,-0.1,0,0,39.536575,-122.332184,0.0,0.015,260.0,8,2,1.8,0,0.0,-1,0.0,0.0,0.0,0
365621,1463947631605,,,,,,,0.03,0.07,0.98,-3.0,-0.2,-0.1,0,0,39.536575,-122.332184,0.0,0.015,260.0,8,2,1.8,0,0.0,-1,0.0,,0.0,0
365641,1463947631624,,,,,,,0.03,0.07,0.98,-3.0,-0.2,-0.1,0,0,39.536575,-122.332184,0.0,0.015,260.0,8,2,1.8,0,0.0,-1,0.0,,0.0,0
365661,1463947631643,,,,,,,0.03,0.07,0.98,-3.0,-0.2,-0.1,0,0,39.536575,-122.332184,0.0,0.015,260.0,8,2,1.8,0,0.0,-1,0.0,,0.0,0
365681,1463947631661,,,,,,,0.03,0.07,0.98,-3.0,-0.2,-0.1,0,0,39.536575,-122.332184,0.0,0.015,260.0,8,2,1.8,0,0.0,-1,0.0,,0.0,0
365701,1463947631681,,,,0,,,0.03,0.07,0.98,-3.0,-0.2,-0.1,0,0,39.536575,-122.332184,0.0,0.015,260.0,8,2,1.8,0,0.0,-1,0.0,,0.0,0
365721,1463947631698,,,,,,,0.03,0.07,0.98,-3.0,-0.2,-0.1,0,0,39.536575,-122.332184,0.0,0.015,260.0,8,2,1.8,0,0.0,-1,0.0,,0.0,0
365741,1463947631797,,,,,,,0.03,0.07,0.98,-3.0,-0.2,-0.1,0,0,39.536575,-122.332184,0.0,0.015,260.0,8,2,1.8,0,0.0,-1,0.0,,0.0,0
365761,1463947631816,,,,,,,0.03,0.07,0.98,-3.0,-0.2,-0.1,0,0,39.536575,-122.332184,0.0,0.015,260.0,8,2,1.8,0,0.0,-1,0.0,,0.0,0
365781,1463947631836,,,,,,,0.03,0.07,0.98,-3.0,-0.2,-0.1,0,0,39.536575,-122.332184,0.0,0.015,260.0,8,2,1.8,0,0.0,-1,0.0,,0.0,0
365801,1463947631855,0.08,189,169,0,169,,0.03,0.07,0.98,-3.0,-0.2,-0.1,0,0,39.536575,-122.332184,0.0,0.015,260.0,8,2,1.8,0,0.0,-1,0.0,0.0,0.0,0
365821,1463947631874,,,,,,,0.03,0.07,0.98,-3.0,-0.2,-0.1,0,0,39.536575,-122.332184,0.0,0.015,260.0,8,2,1.8,0,0.0,-1,0.0,,0.0,0
365841,1463947631892,,,,,,,0.03,0.07,0.98,-3.0,-0.2,-0.1,0,0,39.536575,-122.332184,0.0,0.015,260.0,8,2,1.8,0,0.0,-1,0.0,,0.0,0
365861,1463947631912,,,,,,,0.03,0.07,0.98,-3.0,-0.2,-0.1,0,0,39.536575,-122.332184,0.0,0.015,260.0,8,2,1.8,0,0.0,-1,0.0,,0.0,0
365881,1463947631931,,,,,,,0.03,0.07,0.98,-3.0,-0.2,-0.1,0,0,39.536575,-122.332184,0.0,0.015,260.0,8,2,1.8,0,0.0,-1,0.0,,0.0,0
365901,1463947631949,,,,0,,,0.03,0.07,0.98,-3.0,-0.2,-0.1,0,0,39.536575,-122.332184,0.0,0.015,260.0,8,2,1.8,0,0.0,-1,0.0,,0.0,0
365921,1463947631969,,,,,,,0.03,0.07,0.98,-3.0,-0.2,-0.1,0,0,39.536575,-122.332184,0.0,0.015,260.0,8,2,1.8,0,0.0,-1,0.0,,0.0,0
365941,1463947631989,,,,,,,0.03,0.07,0.98,-3.0,-0.2,-0.1,0,0,39.536575,-122.332184,0.0,0.015,260.0,8,2,1.8,0,0.0,-1,0.0,,0.0,0
365961,1463947631996,,,,,,,0.03,0.07,0.98,-3.0,-0.2,-0.1,0,0,39.536575,-122.332184,0.0,0.015,260.0,8,2,1.8,0,0.0,-1,0.0,,0.0,0
365981,1463947632015,,,,,,,0.03,0.07,0.98,-3.0,-0.2,-0.1,0,0,39.536575,-122.332184,0.0,0.015,260.0,8,2,1.8,0,0.0,-1,0.0,,0.0,0
366001,1463947632034,0.089,189,169,0,169,12.43,0.03,0.07,0.98,-3.0,-0.2,-0.1,0,0,39.536575,-122.332184,0.0,0.015,260.0,8,2,1.8,0,0.0,-1,0.0,0.0,0.0,0
366021,1463947632053,,,,,,,0.03,0.07,0.98,-3.0,-0.2,-0.1,0,0,39.536575,-122.332184,0.0,0.015,260.0,8,2,1.8,0,0.0,-1,0.0,,0.0,0
366041,1463947632071,,,,,,,0.03,0.07,0.98,-3.0,-0.2,-0.1,0,0,39.536575,-122.332184,0.0,0.015,260.0,8,2,1.8,0,0.0,-1,0.0,,0.0,0
366061,1463947632089,,,,,,,0.03,0.07,0.98,-3.0,-0.2,-0.1,0,0,39.536575,-122.332184,0.0,0.015,260.0,8,2,1.8,0,0.0,-1,0.0,,0.0,0
366081,1463947632108,,,,,,,0.03,0.07,0.98,-3.0,-0.2,-0.1,0,0,39.536575,-122.332184,0.0,0.015,260.0,8,2,1.8,0,0.0,-1,0.0,,0.0,0
366101,1463947632126,,,,0,,,0.03,0.07,0.98,-3.0,-0.2,-0.1,0,0,39.536575,-122.332184,0.0,0.015,260.0,8,2,1.8,0,0.0,-1,0.0,,0.0,0
366121,1463947632145,,,,,,,0.03,0.07,0.98,-3.0,-0.2,-0.1,0,0,39.536575,-122.332184,0.0,0.015,260.0,8,2,1.8,0,0.0,-1,0.0,,0.0,0
366141,1463947632164,,,,,,,0.03,0.07,0.98,-3.0,-0.2,-0.1,0,0,39.536575,-122.332184,0.0,0.015,260.0,8,2,1.8,0,0.0,-1,0.0,,0.0,0
366161,1463947632183,,,,,,,0.03,0.07,0.98,-3.0,-0.2,-0.1,0,0,39.536575,-122.332184,0.0,0.015,260.0,8,2,1.8,0,0.0,-1,0.0,,0.0,0
366181,1463947632201,,,,,,,0.03,0.07,0.98,-3.0,-0.2,-0.1,0,0,39.536575,-122.332184,0.0,0.015,260.0,8,2,1.8,0,0.0,-1,0.0,,0.0,0
366201,1463947632221,0.089,190,170,0,169,,0.03,0.07,0.98,-3.0,-0.2,-0.1,0,0,39.536575,-122.332184,0.0,0.015,260.0,8,2,1.8,0,0.0,-1,0.0,0.0,0.0,0
366221,1463947632240,,,,,,,0.03,0.07,0.98,-3.0,-0.2,-0.1,0,0,39.536575,-122.332184,0.0,0.015,260.0,8,2,1.8,0,0.0,-1,0.0,,0.0,0
366241,1463947632259,,,,,,,0.03,0.07,0.98,-3.0,-0.2,-0.1,0,0,39.536575,-122.332184,0.0,0.015,260.0,8,2,1.8,0,0.0,-1,0.0,,0.0,0
366261,1463947632278,,,,,,,0.03,0.07,0.98,-3.0,-0.2,-0.1,0,0,39.536575,-122.332184,0.0,0.015,260.0,8,2,1.8,0,0.0,-1,0.0,,0.0,0
366281,1463947632296,,,,,,,0.03,0.07,0.98,-3.0,-0.2,-0.1,0,0,39.536575,-122.332184,0.0,0.015,260.0,8,2,1.8,0,0.0,-1,0.0,,0.0,0
366301,1463947632315,,,,0,,,0.03,0.07,0.98,-3.0,-0.2,-0.1,0,0,39.536575,-122.332184,0.0,0.015,260.0,8,2,1.8,0,0.0,-1,0.0,,0.0,0
366321,1463947632334,,,,,,,0.04,0.07,0.98,-3.0,-0.2,-0.1,0,0,39.536575,-122.332184,0.0,0.015,260.0,8,2,1.8,0,0.0,-1,0.0,,0.0,0
366341,1463947632354,,,,,,,0.03,0.07,0.98,-3.0,-0.2,-0.1,0,0,39.536575,-122.332184,0.0,0.015,260.0,8,2,1.8,0,0.0,-1,0.0,,0.0,0
366361,1463947632372,,,,,,,0.03,0.07,0.98,-3.0,-0.2,-0.1,0,0,39.536575,-122.332184,0.0,0.015,260.0,8,2,1.8,0,0.0,-1,0.0,,0.0,0
366381,1463947632390,,,,,,,0.03,0.07,0.98,-3.0,-0.2,-0.1,0,0,39.536575,-122.332184,0.0,0.015,260.0,8,2,1.8,0,0.0,-1,0.0,,0.0,0
366401,1463947632409,0.093,190,170,0,169,,0.03,0.07,0.98,-3.0,-0.2,-0.1,0,0,39.536575,-122.332184,0.0,0.015,260.0,8,2,1.8,0,0.0,-1,0.0,0.0,0.0,0
366421,1463947632428,,,,,,,0.03,0.07,0.98,-3.0,-0.2,-0.1,0,0,39.536575,-122.332184,0.0,0.015,260.0,8,2,1.8,0,0.0,-1,0.0,,0.0,0
366441,1463947632446,,,,,,,0.03,0.06,0.98,-3.0,-0.2,-0.1,0,0,39.536575,-122.332184,0.0,0.015,260.0,8,2,1.8,0,0.0,-1,0.0,,0.0,0
366461,1463947632464,,,,,,,0.03,0.07,0.98,-3.0,-0.2,-0.1,0,0,39.536575,-122.332184,0.0,0.015,260.0,8,2,1.8,0,0.0,-1,0.0,,0.0,0
366481,1463947632483,,,,,,,0.03,0.07,0.98,-3.0,-0.2,-0.1,0,0,39.536575,-122.332184,0.0,0.015,260.0,8,2,1.8,0,0.0,-1,0.0,,0.0,0
366501,1463947632503,,,,0,,,0.03,0.07,0.98,-3.0,-0.2,-0.1,0,0,39.536575,-122.332184,0.0,0.015,260.0,8,2,1.8,0,0.0,-1,0.0,,0.0,0
366521,1463947632520,,,,,,,0.03,0.07,0.98,-3.0,-0.2,-0.0,0,0,39.536575,-122.332184,0.0,0.015,260.0,8,2,1.8,0,0.0,-1,0.0,,0.0,0
366541,1463947632539,,,,,,,0.03,0.07,0.98,-3.0,-0.2,-0.0,0,0,39.536575,-122.332184,0.0,0.015,260.0,8,2,1.8,0,0.0,-1,0.0,,0.0,0
366561,1463947632558,,,,,,,0.03,0.07,0.98,-3.0,-0.2,-0.0,0,0,39.536575,-122.332184,0.0,0.015,260.0,8,2,1.8,0,0.0,-1,0.0,,0.0,0
366581,1463947632576,,,,,,,0.03,0.07,0.98,-3.0,-0.2,-0.0,0,0,39.536575,-122.332184,0.0,0.015,260.0,8,2,1.8,0,0.0,-1,0.0,,0.0,0
366601,1463947632593,0.09,190,169,0,169,,0.03,0.07,0.98,-3.0,-0.2,-0.0,0,0,39.536575,-122.332184,0.0,0.015,260.0,8,2,1.8,0,0.0,-1,0.0,0.0,0.0,0
366621,1463947632612,,,,,,,0.03,0.07,0.98,-3.0,-0.2,-0.0,0,0,39.536575,-122.332184,0.0,0.015,260.0,8,2,1.8,0,0.0,-1,0.0,,0.0,0
366641,1463947632630,,,,,,,0.03,0.07,0.98,-3.0,-0.2,-0.1,0,0,39.536575,-122.332184,0.0,0.015,260.0,8,2,1.8,0,0.0,-1,0.0,,0.0,0
366661,1463947632649,,,,,,,0.03,0.07,0.98,-3.0,-0.2,-0.1,0,0,39.536575,-122.332184,0.0,0.015,260.0,8,2,1.8,0,0.0,-1,0.0,,0.0,0
366681,1463947632667,,,,,,,0.03,0.07,0.98,-3.0,-0.2,-0.1,0,0,39.536575,-122.332184,0.0,0.015,260.0,8,2,1.8,0,0.0,-1,0.0,,0.0,0
366701,1463947632685,,,,0,,,0.03,0.07,0.98,-3.0,-0.2,-0.1,0,0,39.536575,-122.332184,0.0,0.015,260.0,8,2,1.8,0,0.0,-1,0.0,,0.0,0
366721,1463947632702,,,,,,,0.03,0.07,0.98,-3.0,-0.2,-0.1,0,0,39.536575,-122.332184,0.0,0.015,260.0,8,2,1.8,0,0.0,-1,0.0,,0.0,0
366741,1463947632722,,,,,,,0.03,0.07,0.98,-3.0,-0.2,-0.1,0,0,39.536575,-122.332184,0.0,0.015,260.0,8,2,1.8,0,0.0,-1,0.0,,0.0,0
366761,1463947632740,,,,,,,0.03,0.06,0.98,-3.0,-0.2,-0.1,0,0,39.536575,-122.332184,0.0,0.015,260.0,8,2,1.8,0,0.0,-1,0.0,,0.0,0
366781,1463947632755,,,,,,,0.03,0.06,0.98,-3.0,-0.2,-0.1,0,0,39.536575,-122.332184,0.0,0.015,260.0,8,2,1.8,0,0.0,-1,0.0,,0.0,0
366801,1463947632852,0.093,189,170,0,169,,0.03,0.06,0.98,-3.0,-0.2,-0.1,0,0,39.536575,-122.332184,0.0,0.015,260.0,8,2,1.8,0,0.0,-1,0.0,0.0,0.0,0
366821,1463947632869,,,,,,,0.03,0.06,0.98,-3.0,-0.2,-0.1,0,0,39.536575,-122.332184,0.0,0.015,260.0,8,2,1.8,0,0.0,-1,0.0,,0.0,0
366841,1463947632888,,,,,,,0.03,0.06,0.98,-3.0,-0.2,-0.1,0,0,39.536575,-122.332184,0.0,0.015,260.0,8,2,1.8,0,0.0,-1,0.0,,0.0,0
366861,1463947632907,,,,,,,0.03,0.07,0.98,-3.0,-0.2,-0.1,0,0,39.536575,-122.332184,0.0,0.015,260.0,8,2,1.8,0,0.0,-1,0.0,,0.0,0
366881,1463947632926,,,,,,,0.03,0.07,0.98,-3.0,-0.2,-0.1,0,0,39.536575,-122.332184,0.0,0.015,260.0,8,2,1.8,0,0.0,-1,0.0,,0.0,0
366901,1463947632946,,,,0,,,0.03,0.07,0.98,-3.0,-0.2,-0.1,0,0,39.536575,-122.332184,0.0,0.015,260.0,8,2,1.8,0,0.0,-1,0.0,,0.0,0
366921,1463947632964,,,,,,,0.03,0.07,0.98,-3.0,-0.2,-0.1,0,0,39.536575,-122.332184,0.0,0.015,260.0,8,2,1.8,0,0.0,-1,0.0,,0.0,0
366941,1463947632984,,,,,,,0.03,0.07,0.98,-3.0,-0.2,-0.1,0,0,39.536575,-122.332184,0.0,0.015,260.0,8,2,1.8,0,0.0,-1,0.0,,0.0,0
366961,1463947632991,,,,,,,0.03,0.07,0.98,-3.0,-0.2,-0.1,0,0,39.536575,-122.332184,0.0,0.015,260.0,8,2,1.8,0,0.0,-1,0.0,,0.0,0
366981,1463947633009,,,,,,,0.03,0.07,0.98,-3.0,-0.2,-0.1,0,0,39.536575,-122.332184,0.0,0.015,260.0,8,2,1.8,0,0.0,-1,0.0,,0.0,0
367001,1463947633027,0.08,189,170,0,169,12.42,0.03,0.07,0.98,-3.0,-0.2,-0.1,0,0,39.536575,-122.332184,0.0,0.015,260.0,8,2,1.8,0,0.0,-1,0.0,0.0,0.0,0
367021,1463947633047,,,,,,,0.03,0.07,0.98,-3.0,-0.2,-0.1,0,0,39.536575,-122.332184,0.0,0.015,260.0,8,2,1.8,0,0.0,-1,0.0,,0.0,0
367041,1463947633065,,,,,,,0.03,0.07,0.98,-3.0,-0.2,-0.1,0,0,39.536575,-122.332184,0.0,0.015,260.0,8,2,1.8,0,0.0,-1,0.0,,0.0,0
367061,1463947633083,,,,,,,0.03,0.06,0.98,-3.0,-0.2,-0.1,0,0,39.536575,-122.332184,0.0,0.015,260.0,8,2,1.8,0,0.0,-1,0.0,,0.0,0
367081,1463947633103,,,,,,,0.03,0.07,0.98,-3.0,-0.2,-0.1,0,0,39.536575,-122.332184,0.0,0.015,260.0,8,2,1.8,0,0.0,-1,0.0,,0.0,0
