"Interval"|"ms"|0|0|1,"Utc"|"ms"|0|0|1,"FuelLevel"|"F"|0|100|5,"OilTemp"|"F"|0.0|300.0|5,"CoolantPressPSI"|"PSI"|0.0|20.0|1,"Coolant"|"F"|0.0|300.0|5,"OilPress"|"PSI"|0|150|10,"EngineTemp"|"F"|0.0|300.0|5,"Battery"|"Volts"|0.0|20.0|1,"AccelX"|"G"|-3.0|3.0|50,"AccelY"|"G"|-3.0|3.0|50,"AccelZ"|"G"|-3.0|3.0|50,"Yaw"|"Deg/Sec"|-300.0|300.0|50,"Pitch"|"Deg/Sec"|-300.0|300.0|50,"Roll"|"Deg/Sec"|-300.0|300.0|50,"RPM"|""|0|10000|50,"Driveshaft"|"RPM"|0|5000|50,"GPIO1"|""|0|1|10,"GPIO2"|""|0|1|10,"GearRatio"|""|-5.0|5.0|10,"Gear"|""|-1|5|10,"Latitude"|"Degrees"|-180.0|180.0|10,"Longitude"|"Degrees"|-180.0|180.0|10,"Speed"|"MPH"|0.0|150.0|10,"Distance"|"Miles"|0.0|0.0|10,"Altitude"|"Feet"|0.0|4000.0|10,"GPSSats"|""|0|20|10,"GPSQual"|""|0|5|10,"GPSDOP"|""|0.0|20.0|10,"LapCount"|""|0|0|10,"LapTime"|"Min"|0.0|0.0|10,"Sector"|""|0|0|10,"SectorTime"|"Min"|0.0|0.0|10,"PredTime"|"Min"|0.0|0.0|5,"ElapsedTime"|"Min"|0.0|0.0|10,"CurrentLap"|""|0|0|10
120729,1480714490732,,,,,,,,-0.12,0.04,1.0,-3.1,0.2,0.1,920,0,,,,,,,,,,,,,,,,,,,
120749,1480714490752,,,,,1,,,-0.12,0.05,1.0,-3.1,0.2,0.1,320,0,1,0,0.0,0,37.478443,-122.203751,0.0,0.0,19.7,10,3,1.7,0,0.0,-1,0.0,,0.0,0
120769,1480714490772,,,,,,,,-0.12,0.05,1.0,-3.1,0.2,0.2,320,0,,,,,,,,,,,,,,,,,,,
120789,1480714490802,,,,,,,,-0.12,0.05,1.0,-3.1,0.3,0.0,320,0,,,,,,,,,,,,,,,,,,,
120809,1480714490822,,,,,,,,-0.13,0.04,1.0,-3.1,0.3,-0.0,480,0,,,,,,,,,,,,,,,,,,,
120829,1480714490842,,,,,,,,-0.13,0.04,1.0,-3.1,0.4,-0.0,500,0,,,,,,,,,,,,,,,,,,,
120849,1480714490862,0,52.7,,92.2,2,79.1,,-0.12,0.05,1.0,-3.2,0.4,0.1,500,0,1,0,0.0,0,37.478443,-122.203751,0.0,0.0,19.7,10,3,1.7,0,0.0,-1,0.0,0.0,0.0,0
120869,1480714490882,,,,,,,,-0.13,0.05,1.01,-3.2,0.5,0.2,600,0,,,,,,,,,,,,,,,,,,,
120889,1480714490902,,,,,,,,-0.13,0.04,1.0,-3.1,0.4,0.1,760,0,,,,,,,,,,,,,,,,,,,
120909,1480714490910,,,,,,,,-0.14,0.03,0.99,-3.1,0.4,-0.1,760,0,,,,,,,,,,,,,,,,,,,
120929,1480714490930,,,,,,,,-0.12,0.02,1.01,-3.1,-0.0,-0.1,860,0,,,,,,,,,,,,,,,,,,,
120949,1480714490950,,,,,2,,,-0.13,0.02,1.0,-3.1,-0.1,-0.0,900,0,1,0,0.0,0,37.478443,-122.203751,0.0,0.0,19.7,10,3,1.7,0,0.0,-1,0.0,,0.0,0
120969,1480714490970,,,,,,,,-0.13,0.02,1.0,-3.2,0.0,0.0,900,0,,,,,,,,,,,,,,,,,,,
120989,1480714490996,,,,,,,,-0.12,0.04,1.01,-3.2,0.1,0.1,860,0,,,,,,,,,,,,,,,,,,,
121009,1480714491016,,,,,,,,-0.11,0.05,1.01,-3.2,-0.1,0.1,820,0,,,,,,,,,,,,,,,,,,,
121029,1480714491036,,,,,,,,-0.11,0.04,1.01,-3.2,0.0,0.1,820,0,,,,,,,,,,,,,,,,,,,
121049,1480714491056,1,54.2,1.9,92.7,3,81.7,13.48,-0.12,0.03,1.02,-3.2,0.1,0.1,840,13,1,0,0.0,0,37.478443,-122.203751,0.0,0.0,19.7,10,3,1.7,0,0.0,-1,0.0,0.0,0.0,0
121069,1480714491076,,,,,,,,-0.12,0.04,1.02,-3.2,0.0,0.2,840,769230,,,,,,,,,,,,,,,,,,,
121089,1480714491109,,,,,,,,-0.12,0.04,1.01,-3.1,-0.1,0.1,900,0,,,,,,,,,,,,,,,,,,,
121109,1480714491129,,,,,,,,-0.13,0.04,1.01,-3.1,0.0,0.1,900,0,,,,,,,,,,,,,,,,,,,
121129,1480714491149,,,,,,,,-0.13,0.05,1.01,-3.2,0.3,0.1,920,0,,,,,,,,,,,,,,,,,,,
121149,1480714491169,,,,,5,,,-0.12,0.05,1.02,-3.2,0.6,0.0,900,0,1,0,0.0,0,37.478443,-122.203751,0.0,0.0,19.7,10,3,1.7,0,0.0,-1,0.0,,0.0,0
121169,1480714491189,,,,,,,,-0.11,0.06,1.01,-3.2,0.3,0.0,920,0,,,,,,,,,,,,,,,,,,,
121189,1480714491196,,,,,,,,-0.12,0.06,1.0,-3.2,-0.1,0.0,940,0,,,,,,,,,,,,,,,,,,,
121209,1480714491216,,,,,,,,-0.13,0.07,1.0,-3.2,-0.3,0.0,960,0,,,,,,,,,,,,,,,,,,,
121229,1480714491236,,,,,,,,-0.14,0.07,1.0,-3.2,-0.2,0.1,980,0,,,,,,,,,,,,,,,,,,,
121249,1480714491256,0,53.5,,91.8,6,81.7,,-0.15,0.06,1.0,-3.2,0.1,0.1,1000,0,1,0,0.0,0,37.478443,-122.203751,0.0,0.0,19.7,10,3,1.7,0,0.0,-1,0.0,0.0,0.0,0
121269,1480714491276,,,,,,,,-0.16,0.06,1.0,-3.2,0.2,0.1,1040,0,,,,,,,,,,,,,,,,,,,
121289,1480714491407,,,,,,,,-0.16,0.05,0.99,-3.1,0.2,0.0,1060,0,,,,,,,,,,,,,,,,,,,
121309,1480714491427,,,,,,,,-0.16,0.05,0.98,-3.2,0.0,0.0,1080,0,,,,,,,,,,,,,,,,,,,
121329,1480714491447,,,,,,,,-0.16,0.05,0.98,-3.2,-0.1,-0.0,1100,0,,,,,,,,,,,,,,,,,,,
121349,1480714491467,,,,,9,,,-0.15,0.05,0.98,-3.2,0.1,-0.0,1160,0,1,0,0.0,0,37.478443,-122.203751,0.0,0.0,19.7,10,3,1.7,0,0.0,-1,0.0,,0.0,0
121369,1480714491487,,,,,,,,-0.15,0.04,0.97,-3.2,0.2,-0.0,1160,0,,,,,,,,,,,,,,,,,,,
121389,1480714491507,,,,,,,,-0.15,0.04,0.98,-3.1,0.1,-0.0,1180,0,,,,,,,,,,,,,,,,,,,
121409,1480714491527,,,,,,,,-0.15,0.06,0.97,-3.1,0.0,-0.0,1180,0,,,,,,,,,,,,,,,,,,,
121429,1480714491547,,,,,,,,-0.15,0.05,0.97,-3.2,-0.0,0.0,1200,0,,,,,,,,,,,,,,,,,,,
121449,1480714491567,1,52.4,,92.3,13,81.0,,-0.15,0.06,0.96,-3.2,-0.1,-0.0,1200,0,1,0,0.0,0,37.478443,-122.203751,0.0,0.0,19.7,10,3,1.7,0,0.0,-1,0.0,0.0,0.0,0
121469,1480714491587,,,,,,,,-0.15,0.05,0.96,-3.2,-0.1,-0.1,1180,0,,,,,,,,,,,,,,,,,,,
121489,1480714491506,,,,,,,,-0.16,0.05,0.96,-3.2,-0.0,-0.1,1200,0,,,,,,,,,,,,,,,,,,,
121509,1480714491526,,,,,,,,-0.15,0.04,0.96,-3.1,0.1,-0.1,1200,0,,,,,,,,,,,,,,,,,,,
121529,1480714491546,,,,,,,,-0.16,0.04,0.96,-3.1,0.1,-0.1,1200,0,,,,,,,,,,,,,,,,,,,
121549,1480714491566,,,,,20,,,-0.16,0.04,0.96,-3.1,-0.0,-0.1,1180,0,1,0,0.0,0,37.478443,-122.203751,0.0,0.0,19.7,10,3,1.7,0,0.0,-1,0.0,,0.0,0
121569,1480714491586,,,,,,,,-0.16,0.05,0.96,-3.1,-0.1,-0.0,1140,0,,,,,,,,,,,,,,,,,,,
121589,1480714491593,,,,,,,,-0.16,0.04,0.97,-3.1,-0.1,0.0,1140,0,,,,,,,,,,,,,,,,,,,
121609,1480714491613,,,,,,,,-0.15,0.04,0.97,-3.1,-0.2,-0.0,1140,0,,,,,,,,,,,,,,,,,,,
121629,1480714491633,,,,,,,,-0.15,0.04,0.97,-3.1,-0.0,-0.1,1120,0,,,,,,,,,,,,,,,,,,,
121649,1480714491653,0,53.9,,91.8,29,81.0,,-0.15,0.04,0.97,-3.1,0.1,-0.1,1100,0,1,0,0.0,0,37.478443,-122.203751,0.0,0.0,19.7,10,3,1.7,0,0.0,-1,0.0,0.0,0.0,0
121669,1480714491673,,,,,,,,-0.15,0.04,0.97,-3.1,-0.1,-0.0,1080,0,,,,,,,,,,,,,,,,,,,
121689,1480714491702,,,,,,,,-0.15,0.04,0.97,-3.1,-0.2,-0.1,1060,0,,,,,,,,,,,,,,,,,,,
121709,1480714491722,,,,,,,,-0.14,0.04,0.97,-3.1,-0.0,-0.0,1060,0,,,,,,,,,,,,,,,,,,,
121729,1480714491742,,,,,,,,-0.14,0.04,0.98,-3.1,0.2,-0.0,1040,0,,,,,,,,,,,,,,,,,,,
121749,1480714491762,,,,,40,,,-0.14,0.05,0.98,-3.1,0.3,-0.0,1020,0,1,0,0.0,0,37.478443,-122.203751,0.0,0.0,19.7,10,3,1.7,0,0.0,-1,0.0,,0.0,0
121769,1480714491782,,,,,,,,-0.15,0.05,0.99,-3.1,0.3,-0.0,980,0,,,,,,,,,,,,,,,,,,,
121789,1480714491791,,,,,,,,-0.15,0.06,0.99,-3.1,0.3,0.0,960,0,,,,,,,,,,,,,,,,,,,
121809,1480714491811,,,,,,,,-0.15,0.06,0.99,-3.1,0.4,0.0,940,0,,,,,,,,,,,,,,,,,,,
121829,1480714491831,,,,,,,,-0.15,0.06,0.99,-3.1,0.6,0.0,920,0,,,,,,,,,,,,,,,,,,,
121849,1480714491851,1,51.7,,91.9,49,80.5,,-0.14,0.06,1.0,-3.1,0.6,0.0,900,0,1,0,0.0,0,37.478443,-122.203751,0.0,0.0,19.7,10,3,1.7,0,0.0,-1,0.0,0.0,0.0,0
121869,1480714491871,,,,,,,,-0.14,0.06,0.99,-3.1,0.4,0.0,880,0,,,,,,,,,,,,,,,,,,,
121889,1480714491896,,,,,,,,-0.14,0.06,0.99,-3.1,0.4,0.0,860,0,,,,,,,,,,,,,,,,,,,
121909,1480714491916,,,,,,,,-0.15,0.06,0.99,-3.1,0.4,0.0,840,0,,,,,,,,,,,,,,,,,,,
121929,1480714491936,,,,,,,,-0.15,0.06,0.99,-3.1,0.4,0.0,820,0,,,,,,,,,,,,,,,,,,,
121949,1480714491956,,,,,54,,,-0.15,0.06,0.99,-3.1,0.4,0.0,820,0,1,0,0.0,0,37.478443,-122.203751,0.0,0.0,19.7,10,3,1.7,0,0.0,-1,0.0,,0.0,0
121969,1480714491976,,,,,,,,-0.15,0.06,0.99,-3.1,0.3,-0.0,800,0,,,,,,,,,,,,,,,,,,,
121989,1480714492002,,,,,,,,-0.14,0.06,0.98,-3.1,0.2,-0.0,780,0,,,,,,,,,,,,,,,,,,,
122009,1480714492022,,,,,,,,-0.14,0.06,0.99,-3.1,0.2,-0.1,780,0,,,,,,,,,,,,,,,,,,,
122029,1480714492042,,,,,,,,-0.14,0.06,0.98,-3.1,0.2,-0.1,780,0,,,,,,,,,,,,,,,,,,,
122049,1480714492062,0,53.3,1.0,90.6,55,79.5,14.88,-0.14,0.06,0.98,-3.1,0.1,-0.0,760,0,1,0,0.0,0,37.478443,-122.203751,0.0,0.0,19.7,10,3,1.7,0,0.0,-1,0.0,0.0,0.0,0
122069,1480714492082,,,,,,,,-0.14,0.06,0.99,-3.1,0.2,-0.0,760,0,,,,,,,,,,,,,,,,,,,
122089,1480714492192,,,,,,,,-0.14,0.06,0.99,-3.1,0.2,-0.0,740,0,,,,,,,,,,,,,,,,,,,
122109,1480714492212,,,,,,,,-0.14,0.05,0.99,-3.1,0.1,-0.1,760,0,,,,,,,,,,,,,,,,,,,
122129,1480714492232,,,,,,,,-0.14,0.05,0.99,-3.1,0.2,-0.0,760,0,,,,,,,,,,,,,,,,,,,
122149,1480714492252,,,,,58,,,-0.14,0.05,0.99,-3.1,0.3,0.0,760,0,1,0,0.0,0,37.478443,-122.203751,0.0,0.0,19.7,10,3,1.7,0,0.0,-1,0.0,,0.0,0
122169,1480714492272,,,,,,,,-0.14,0.05,0.99,-3.1,0.2,-0.0,760,0,,,,,,,,,,,,,,,,,,,
122189,1480714492292,,,,,,,,-0.14,0.05,0.98,-3.1,0.2,-0.0,740,0,,,,,,,,,,,,,,,,,,,
122209,1480714492312,,,,,,,,-0.14,0.05,0.98,-3.1,0.2,-0.0,740,0,,,,,,,,,,,,,,,,,,,
122229,1480714492332,,,,,,,,-0.14,0.06,0.98,-3.1,0.2,0.0,740,0,,,,,,,,,,,,,,,,,,,
122249,1480714492352,0,53.6,,91.1,60,80.6,,-0.14,0.06,0.98,-3.1,0.1,0.0,740,0,1,0,0.0,0,37.478443,-122.203751,0.0,0.0,19.7,10,3,1.7,0,0.0,-1,0.0,0.0,0.0,0
122269,1480714492372,,,,,,,,-0.15,0.05,0.98,-3.1,0.0,-0.0,760,0,,,,,,,,,,,,,,,,,,,
122289,1480714492291,,,,,,,,-0.15,0.06,0.98,-3.1,0.1,-0.0,760,0,,,,,,,,,,,,,,,,,,,
122309,1480714492311,,,,,,,,-0.15,0.06,0.98,-3.1,0.1,0.0,760,0,,,,,,,,,,,,,,,,,,,
122329,1480714492331,,,,,,,,-0.14,0.06,0.98,-3.1,0.0,0.0,780,0,,,,,,,,,,,,,,,,,,,
122349,1480714492351,,,,,61,,,-0.15,0.05,0.99,-3.1,0.1,-0.0,780,0,1,0,0.0,0,37.478443,-122.203751,0.0,0.0,19.7,10,3,1.7,0,0.0,-1,0.0,,0.0,0
122369,1480714492371,,,,,,,,-0.15,0.05,0.98,-3.1,0.2,-0.1,800,0,,,,,,,,,,,,,,,,,,,
122389,1480714492400,,,,,,,,-0.14,0.05,0.98,-3.1,0.2,-0.0,800,0,,,,,,,,,,,,,,,,,,,
122409,1480714492420,,,,,,,,-0.14,0.05,0.98,-3.1,0.1,0.1,800,0,,,,,,,,,,,,,,,,,,,
122429,1480714492440,,,,,,,,-0.14,0.06,0.99,-3.1,0.2,0.1,800,0,,,,,,,,,,,,,,,,,,,
122449,1480714492460,0,54.3,,92.9,61,81.7,,-0.14,0.05,1.0,-3.1,0.2,0.0,820,0,1,0,0.0,0,37.478443,-122.203751,0.0,0.0,19.7,10,3,1.7,0,0.0,-1,0.0,0.0,0.0,0
122469,1480714492480,,,,,,,,-0.15,0.05,0.99,-3.1,0.2,-0.1,840,0,,,,,,,,,,,,,,,,,,,
122489,1480714492508,,,,,,,,-0.15,0.05,0.99,-3.1,0.3,-0.1,840,0,,,,,,,,,,,,,,,,,,,
122509,1480714492528,,,,,,,,-0.14,0.05,0.99,-3.1,0.3,-0.1,840,0,,,,,,,,,,,,,,,,,,,
122529,1480714492548,,,,,,,,-0.14,0.05,0.99,-3.1,0.1,0.0,840,0,,,,,,,,,,,,,,,,,,,
122549,1480714492568,,,,,60,,,-0.13,0.05,0.99,-3.1,0.2,0.0,860,0,1,0,0.0,0,37.478443,-122.203751,0.0,0.0,19.7,10,3,1.7,0,0.0,-1,0.0,,0.0,0
122569,1480714492588,,,,,,,,-0.13,0.06,1.0,-3.1,0.1,0.1,860,0,,,,,,,,,,,,,,,,,,,
122589,1480714492599,,,,,,,,-0.13,0.06,1.0,-3.1,0.0,0.0,880,0,,,,,,,,,,,,,,,,,,,
122609,1480714492619,,,,,,,,-0.14,0.05,0.99,-3.1,0.0,-0.1,880,0,,,,,,,,,,,,,,,,,,,
122629,1480714492639,,,,,,,,-0.14,0.04,0.99,-3.1,0.2,-0.2,900,0,,,,,,,,,,,,,,,,,,,
122649,1480714492659,0,51.5,,90.4,60,78.7,,-0.14,0.04,0.99,-3.1,0.3,-0.2,900,0,1,0,0.0,0,37.478443,-122.203751,0.0,0.0,19.7,10,3,1.7,0,0.0,-1,0.0,0.0,0.0,0
122669,1480714492679,,,,,,,,-0.13,0.04,0.99,-3.1,0.3,-0.1,900,0,,,,,,,,,,,,,,,,,,,
122689,1480714492708,,,,,,,,-0.14,0.04,1.0,-3.1,0.2,-0.1,900,0,,,,,,,,,,,,,,,,,,,
122709,1480714492728,,,,,,,,-0.14,0.04,1.02,-3.2,0.2,0.1,920,0,,,,,,,,,,,,,,,,,,,
122729,1480714492748,,,,,,,,-0.14,0.05,1.02,-3.2,0.3,0.2,920,0,,,,,,,,,,,,,,,,,,,
122749,1480714492768,,,,,62,,,-0.14,0.06,1.02,-3.2,0.5,0.2,940,0,1,0,0.0,0,37.478443,-122.203751,0.0,0.0,19.7,10,3,1.7,0,0.0,-1,0.0,,0.0,0
122769,1480714492788,,,,,,,,-0.13,0.06,1.01,-3.2,0.6,0.2,940,0,,,,,,,,,,,,,,,,,,,
122789,1480714492798,,,,,,,,-0.13,0.08,1.0,-3.2,0.6,0.2,940,0,,,,,,,,,,,,,,,,,,,
122809,1480714492818,,,,,,,,-0.14,0.09,0.99,-3.2,0.3,0.2,940,0,,,,,,,,,,,,,,,,,,,
122829,1480714492838,,,,,,,,-0.14,0.08,0.99,-3.2,0.1,0.1,940,0,,,,,,,,,,,,,,,,,,,
122849,1480714492858,0,51.4,,91.4,61,79.9,,-0.15,0.08,0.99,-3.2,-0.1,0.1,960,0,1,0,0.0,0,37.478443,-122.203751,0.0,0.0,19.7,10,3,1.7,0,0.0,-1,0.0,0.0,0.0,0
122869,1480714492878,,,,,,,,-0.15,0.07,0.99,-3.2,-0.0,0.0,940,0,,,,,,,,,,,,,,,,,,,
122889,1480714493004,,,,,,,,-0.15,0.07,0.99,-3.2,0.2,-0.1,940,0,,,,,,,,,,,,,,,,,,,
122909,1480714493024,,,,,,,,-0.16,0.07,0.98,-3.1,0.4,-0.1,940,0,,,,,,,,,,,,,,,,,,,
122929,1480714493044,,,,,,,,-0.16,0.06,0.97,-3.1,0.5,-0.2,940,0,,,,,,,,,,,,,,,,,,,
122949,1480714493064,,,,,60,,,-0.16,0.06,0.97,-3.1,0.5,-0.2,940,0,1,0,0.0,0,37.478443,-122.203751,0.0,0.0,19.7,10,3,1.7,0,0.0,-1,0.0,,0.0,0
122969,1480714493084,,,,,,,,-0.16,0.05,0.98,-3.1,0.4,-0.3,960,0,,,,,,,,,,,,,,,,,,,
122989,1480714493104,,,,,,,,-0.15,0.05,0.97,-3.1,0.3,-0.3,960,0,,,,,,,,,,,,,,,,,,,
123009,1480714493124,,,,,,,,-0.15,0.04,0.98,-3.1,0.4,-0.2,940,0,,,,,,,,,,,,,,,,,,,
123029,1480714493144,,,,,,,,-0.15,0.04,0.99,-3.1,0.5,-0.2,940,0,,,,,,,,,,,,,,,,,,,
123049,1480714493164,0,53.2,1.3,93.0,60,81.2,14.93,-0.14,0.03,0.99,-3.1,0.5,-0.1,940,0,1,0,0.0,0,37.478443,-122.203751,0.0,0.0,19.7,10,3,1.7,0,0.0,-1,0.0,0.0,0.0,0
123069,1480714493184,,,,,,,,-0.14,0.04,0.99,-3.2,0.5,-0.0,940,0,,,,,,,,,,,,,,,,,,,
123089,1480714493103,,,,,,,,-0.13,0.04,1.0,-3.2,0.5,0.0,940,0,,,,,,,,,,,,,,,,,,,
123109,1480714493123,,,,,,,,-0.13,0.04,1.0,-3.2,0.4,0.1,940,0,,,,,,,,,,,,,,,,,,,
123129,1480714493143,,,,,,,,-0.14,0.05,1.0,-3.2,0.4,0.2,940,0,,,,,,,,,,,,,,,,,,,
123149,1480714493163,,,,,59,,,-0.14,0.05,0.99,-3.2,0.3,0.2,920,0,1,0,0.0,0,37.478443,-122.203751,0.0,0.0,19.7,10,3,1.7,0,0.0,-1,0.0,,0.0,0
123169,1480714493183,,,,,,,,-0.14,0.06,1.0,-3.2,0.3,0.3,920,0,,,,,,,,,,,,,,,,,,,
123189,1480714493193,,,,,,,,-0.14,0.06,1.0,-3.2,0.5,0.2,920,0,,,,,,,,,,,,,,,,,,,
123209,1480714493213,,,,,,,,-0.13,0.05,1.0,-3.2,0.5,0.1,920,0,,,,,,,,,,,,,,,,,,,
123229,1480714493233,,,,,,,,-0.14,0.05,0.99,-3.1,0.2,0.1,920,0,,,,,,,,,,,,,,,,,,,
123249,1480714493253,0,51.8,,92.1,59,80.4,,-0.15,0.06,0.98,-3.2,0.1,0.1,920,0,1,0,0.0,0,37.478443,-122.203751,0.0,0.0,19.7,10,3,1.7,0,0.0,-1,0.0,0.0,0.0,0
123269,1480714493273,,,,,,,,-0.15,0.05,0.99,-3.2,0.1,0.0,900,0,,,,,,,,,,,,,,,,,,,
123289,1480714493302,,,,,,,,-0.15,0.04,0.99,-3.2,0.3,-0.1,920,0,,,,,,,,,,,,,,,,,,,
123309,1480714493322,,,,,,,,-0.15,0.03,0.98,-3.2,0.3,-0.2,920,0,,,,,,,,,,,,,,,,,,,
123329,1480714493342,,,,,,,,-0.15,0.03,0.98,-3.1,0.3,-0.2,920,0,,,,,,,,,,,,,,,,,,,
123349,1480714493362,,,,,59,,,-0.14,0.03,0.98,-3.1,0.4,-0.2,920,0,1,0,0.0,0,37.478443,-122.203751,0.0,0.0,19.7,10,3,1.7,0,0.0,-1,0.0,,0.0,0
123369,1480714493382,,,,,,,,-0.14,0.03,0.98,-3.2,0.3,-0.1,920,0,,,,,,,,,,,,,,,,,,,
123389,1480714493391,,,,,,,,-0.14,0.03,0.98,-3.2,0.2,-0.1,920,0,,,,,,,,,,,,,,,,,,,
123409,1480714493411,,,,,,,,-0.14,0.03,0.99,-3.2,0.2,-0.0,900,0,,,,,,,,,,,,,,,,,,,
123429,1480714493431,,,,,,,,-0.14,0.04,0.99,-3.2,0.3,0.0,900,0,,,,,,,,,,,,,,,,,,,
123449,1480714493451,0,51.7,,90.8,56,79.1,,-0.14,0.04,0.99,-3.2,0.5,0.1,880,0,1,0,0.0,0,37.478443,-122.203751,0.0,0.0,19.7,10,3,1.7,0,0.0,-1,0.0,0.0,0.0,0
123469,1480714493471,,,,,,,,-0.14,0.04,0.98,-3.2,0.4,0.1,900,0,,,,,,,,,,,,,,,,,,,
123489,1480714493497,,,,,,,,-0.14,0.04,0.99,-3.2,0.2,0.0,900,0,,,,,,,,,,,,,,,,,,,
123509,1480714493517,,,,,,,,-0.15,0.04,0.99,-3.1,0.2,-0.0,900,0,,,,,,,,,,,,,,,,,,,
123529,1480714493537,,,,,,,,-0.14,0.04,0.99,-3.1,0.2,-0.1,880,0,,,,,,,,,,,,,,,,,,,
123549,1480714493557,,,,,55,,,-0.14,0.04,0.98,-3.1,0.3,-0.1,880,0,1,0,0.0,0,37.478443,-122.203751,0.0,0.0,19.7,10,3,1.7,0,0.0,-1,0.0,,0.0,0
123569,1480714493577,,,,,,,,-0.14,0.04,0.98,-3.1,0.3,-0.1,880,0,,,,,,,,,,,,,,,,,,,
123589,1480714493608,,,,,,,,-0.14,0.04,0.98,-3.2,0.2,-0.0,880,0,,,,,,,,,,,,,,,,,,,
123609,1480714493628,,,,,,,,-0.14,0.05,0.98,-3.2,0.1,0.0,880,0,,,,,,,,,,,,,,,,,,,
123629,1480714493648,,,,,,,,-0.14,0.05,0.98,-3.2,0.2,0.1,880,0,,,,,,,,,,,,,,,,,,,
123649,1480714493668,0,54.3,,93.5,56,81.4,,-0.13,0.05,0.98,-3.2,0.3,0.1,880,0,1,0,0.0,0,37.478443,-122.203751,0.0,0.0,19.7,10,3,1.7,0,0.0,-1,0.0,0.0,0.0,0
123669,1480714493688,,,,,,,,-0.13,0.06,0.99,-3.1,0.1,0.1,880,0,,,,,,,,,,,,,,,,,,,
123689,1480714493794,,,,,,,,-0.14,0.06,0.99,-3.1,0.1,0.0,880,0,,,,,,,,,,,,,,,,,,,
123709,1480714493814,,,,,,,,-0.14,0.06,0.98,-3.1,0.2,-0.0,880,0,,,,,,,,,,,,,,,,,,,
123729,1480714493834,,,,,,,,-0.14,0.06,0.98,-3.1,0.2,-0.1,880,0,,,,,,,,,,,,,,,,,,,
123749,1480714493854,,,,,55,,,-0.14,0.05,0.98,-3.1,0.3,-0.1,880,0,1,0,0.0,0,37.478443,-122.203751,0.0,0.0,19.7,10,3,1.7,0,0.0,-1,0.0,,0.0,0
123769,1480714493874,,,,,,,,-0.14,0.05,0.98,-3.1,0.2,-0.0,880,0,,,,,,,,,,,,,,,,,,,
123789,1480714493894,,,,,,,,-0.13,0.05,0.98,-3.1,0.1,0.0,880,0,,,,,,,,,,,,,,,,,,,
123809,1480714493914,,,,,,,,-0.14,0.05,0.98,-3.1,0.2,0.1,880,0,,,,,,,,,,,,,,,,,,,
123829,1480714493934,,,,,,,,-0.13,0.06,0.98,-3.1,0.4,0.1,880,0,,,,,,,,,,,,,,,,,,,
123849,1480714493954,0,52.3,,92.4,55,81.5,,-0.13,0.06,0.98,-3.1,0.1,0.1,880,0,1,0,0.0,0,37.478443,-122.203751,0.0,0.0,19.7,10,3,1.7,0,0.0,-1,0.0,0.0,0.0,0
123869,1480714493974,,,,,,,,-0.14,0.06,0.98,-3.1,0.0,0.0,880,0,,,,,,,,,,,,,,,,,,,
123889,1480714493891,,,,,,,,-0.14,0.06,0.97,-3.1,0.2,-0.0,880,0,,,,,,,,,,,,,,,,,,,
123909,1480714493911,,,,,,,,-0.15,0.06,0.97,-3.1,0.3,-0.1,880,0,,,,,,,,,,,,,,,,,,,
123929,1480714493931,,,,,,,,-0.14,0.05,0.98,-3.1,0.4,-0.1,880,0,,,,,,,,,,,,,,,,,,,
123949,1480714493951,,,,,55,,,-0.14,0.06,0.98,-3.1,0.4,-0.0,880,0,1,0,0.0,0,37.478443,-122.203751,0.0,0.0,19.7,10,3,1.7,0,0.0,-1,0.0,,0.0,0
123969,1480714493971,,,,,,,,-0.14,0.06,0.99,-3.1,0.2,0.0,880,0,,,,,,,,,,,,,,,,,,,
123989,1480714494004,,,,,,,,-0.14,0.07,0.99,-3.1,0.4,0.1,880,0,,,,,,,,,,,,,,,,,,,
124009,1480714494024,,,,,,,,-0.13,0.07,1.0,-3.1,0.5,0.1,880,0,,,,,,,,,,,,,,,,,,,
124029,1480714494044,,,,,,,,-0.13,0.07,0.99,-3.1,0.3,0.1,880,0,,,,,,,,,,,,,,,,,,,
124049,1480714494064,0,52.3,1.0,90.9,55,79.6,14.87,-0.14,0.07,0.99,-3.1,0.2,0.0,880,0,1,0,0.0,0,37.478443,-122.203751,0.0,0.0,19.7,10,3,1.7,0,0.0,-1,0.0,0.0,0.0,0
124069,1480714494084,,,,,,,,-0.14,0.06,0.99,-3.1,0.3,-0.0,880,0,,,,,,,,,,,,,,,,,,,
124089,1480714494091,,,,,,,,-0.14,0.06,0.98,-3.1,0.4,-0.1,880,0,,,,,,,,,,,,,,,,,,,
124109,1480714494111,,,,,,,,-0.14,0.06,0.99,-3.1,0.4,-0.1,880,0,,,,,,,,,,,,,,,,,,,
124129,1480714494131,,,,,,,,-0.14,0.06,0.98,-3.1,0.4,-0.1,880,0,,,,,,,,,,,,,,,,,,,
124149,1480714494151,,,,,56,,,-0.14,0.06,0.98,-3.1,0.2,-0.0,880,0,1,0,0.0,0,37.478443,-122.203751,0.0,0.0,19.7,10,3,1.7,0,0.0,-1,0.0,,0.0,0
124169,1480714494171,,,,,,,,-0.14,0.06,0.98,-3.1,0.3,0.0,880,0,,,,,,,,,,,,,,,,,,,
124189,1480714494201,,,,,,,,-0.14,0.06,0.98,-3.1,0.4,0.0,880,0,,,,,,,,,,,,,,,,,,,
124209,1480714494221,,,,,,,,-0.13,0.07,0.98,-3.1,0.3,0.0,880,0,,,,,,,,,,,,,,,,,,,
124229,1480714494241,,,,,,,,-0.14,0.07,0.99,-3.1,0.1,0.0,880,0,,,,,,,,,,,,,,,,,,,
124249,1480714494261,0,53.9,,93.3,56,81.1,,-0.14,0.06,0.98,-3.1,0.2,-0.1,880,0,1,0,0.0,0,37.478443,-122.203751,0.0,0.0,19.7,10,3,1.7,0,0.0,-1,0.0,0.0,0.0,0
124269,1480714494281,,,,,,,,-0.14,0.06,0.97,-3.1,0.3,-0.1,880,0,,,,,,,,,,,,,,,,,,,
124289,1480714494309,,,,,,,,-0.15,0.06,0.97,-3.0,0.4,-0.2,900,0,,,,,,,,,,,,,,,,,,,
124309,1480714494329,,,,,,,,-0.14,0.06,0.97,-3.1,0.4,-0.1,900,0,,,,,,,,,,,,,,,,,,,
124329,1480714494349,,,,,,,,-0.14,0.06,0.99,-3.1,0.3,-0.1,900,0,,,,,,,,,,,,,,,,,,,
124349,1480714494369,,,,,54,,,-0.15,0.05,0.99,-3.1,0.4,0.1,880,0,1,0,0.0,0,37.478443,-122.203751,0.0,0.0,19.7,10,3,1.7,0,0.0,-1,0.0,,0.0,0
124369,1480714494389,,,,,,,,-0.15,0.06,0.99,-3.2,0.5,0.1,880,0,,,,,,,,,,,,,,,,,,,
124389,1480714494399,,,,,,,,-0.14,0.06,1.0,-3.2,0.6,0.1,880,0,,,,,,,,,,,,,,,,,,,
124409,1480714494419,,,,,,,,-0.14,0.06,0.99,-3.2,0.3,0.1,880,0,,,,,,,,,,,,,,,,,,,
124429,1480714494439,,,,,,,,-0.14,0.06,1.0,-3.2,0.2,0.0,900,0,,,,,,,,,,,,,,,,,,,
124449,1480714494459,0,52.3,,92.6,56,81.9,,-0.15,0.06,1.0,-3.1,0.3,-0.1,900,0,1,0,0.0,0,37.478443,-122.203751,0.0,0.0,19.7,10,3,1.7,0,0.0,-1,0.0,0.0,0.0,0
124469,1480714494479,,,,,,,,-0.15,0.05,1.0,-3.1,0.3,-0.1,880,0,,,,,,,,,,,,,,,,,,,
124489,1480714494607,,,,,,,,-0.14,0.05,1.0,-3.1,0.3,-0.1,900,0,,,,,,,,,,,,,,,,,,,
124509,1480714494627,,,,,,,,-0.14,0.05,0.99,-3.1,0.4,-0.1,880,0,,,,,,,,,,,,,,,,,,,
124529,1480714494647,,,,,,,,-0.13,0.05,1.0,-3.1,0.2,-0.0,880,0,,,,,,,,,,,,,,,,,,,
124549,1480714494667,,,,,57,,,-0.14,0.05,0.99,-3.1,0.1,0.1,900,0,1,0,0.0,0,37.478443,-122.203751,0.0,0.0,19.7,10,3,1.7,0,0.0,-1,0.0,,0.0,0
124569,1480714494687,,,,,,,,-0.13,0.06,1.0,-3.2,0.3,0.1,900,0,,,,,,,,,,,,,,,,,,,
124589,1480714494707,,,,,,,,-0.13,0.06,1.0,-3.1,0.4,0.1,900,0,,,,,,,,,,,,,,,,,,,
124609,1480714494727,,,,,,,,-0.13,0.06,0.99,-3.1,0.3,0.1,900,0,,,,,,,,,,,,,,,,,,,
124629,1480714494747,,,,,,,,-0.13,0.07,0.99,-3.1,0.1,0.1,900,0,,,,,,,,,,,,,,,,,,,
124649,1480714494767,0,51.4,,92.2,57,81.4,,-0.14,0.07,0.99,-3.1,0.2,0.0,900,0,1,0,0.0,0,37.478443,-122.203751,0.0,0.0,19.7,10,3,1.7,0,0.0,-1,0.0,0.0,0.0,0
124669,1480714494787,,,,,,,,-0.14,0.06,0.98,-3.1,0.2,-0.0,900,0,,,,,,,,,,,,,,,,,,,
124689,1480714494709,,,,,,,,-0.14,0.06,0.97,-3.1,0.3,-0.1,900,0,,,,,,,,,,,,,,,,,,,
124709,1480714494729,,,,,,,,-0.14,0.05,0.98,-3.1,0.4,-0.1,900,0,,,,,,,,,,,,,,,,,,,
124729,1480714494749,,,,,,,,-0.14,0.05,0.98,-3.1,0.5,-0.1,900,0,,,,,,,,,,,,,,,,,,,
124749,1480714494769,,,,,57,,,-0.13,0.06,0.99,-3.1,0.3,-0.0,900,0,1,0,0.0,0,37.478443,-122.203751,0.0,0.0,19.7,10,3,1.7,0,0.0,-1,0.0,,0.0,0
124769,1480714494789,,,,,,,,-0.13,0.06,0.98,-3.2,0.2,0.0,900,0,,,,,,,,,,,,,,,,,,,
124789,1480714494800,,,,,,,,-0.13,0.06,0.98,-3.2,0.3,0.1,900,0,,,,,,,,,,,,,,,,,,,
124809,1480714494820,,,,,,,,-0.13,0.06,0.98,-3.2,0.5,0.1,900,0,,,,,,,,,,,,,,,,,,,
124829,1480714494840,,,,,,,,-0.13,0.07,0.99,-3.1,0.4,0.1,900,0,,,,,,,,,,,,,,,,,,,
124849,1480714494860,0,53.2,,93.6,56,81.7,,-0.13,0.06,0.98,-3.1,0.1,0.0,900,0,1,0,0.0,0,37.478443,-122.203751,0.0,0.0,19.7,10,3,1.7,0,0.0,-1,0.0,0.0,0.0,0
124869,1480714494880,,,,,,,,-0.14,0.06,0.99,-3.1,0.1,-0.0,900,0,,,,,,,,,,,,,,,,,,,
124889,1480714494900,,,,,,,,-0.14,0.05,0.99,-3.1,0.3,-0.1,900,0,,,,,,,,,,,,,,,,,,,
124909,1480714494908,,,,,,,,-0.14,0.06,0.98,-3.1,0.3,-0.1,880,0,,,,,,,,,,,,,,,,,,,
124929,1480714494928,,,,,,,,-0.14,0.05,0.98,-3.1,0.4,-0.1,900,0,,,,,,,,,,,,,,,,,,,
124949,1480714494948,,,,,57,,,-0.13,0.05,0.98,-3.1,0.4,-0.1,900,0,1,0,0.0,0,37.478443,-122.203751,0.0,0.0,19.7,10,3,1.7,0,0.0,-1,0.0,,0.0,0
124969,1480714494968,,,,,,,,-0.13,0.05,0.99,-3.1,0.2,-0.0,900,0,,,,,,,,,,,,,,,,,,,
124989,1480714494998,,,,,,,,-0.13,0.05,0.98,-3.2,0.1,0.1,900,0,,,,,,,,,,,,,,,,,,,
125009,1480714495018,,,,,,,,-0.13,0.06,0.99,-3.2,0.3,0.1,880,0,,,,,,,,,,,,,,,,,,,
125029,1480714495038,,,,,,,,-0.12,0.06,0.99,-3.2,0.4,0.1,880,0,,,,,,,,,,,,,,,,,,,
125049,1480714495058,0,53.9,1.2,92.7,58,79.3,14.89,-0.13,0.06,0.98,-3.1,0.2,0.1,880,0,1,0,0.0,0,37.478443,-122.203751,0.0,0.0,19.7,10,3,1.7,0,0.0,-1,0.0,0.0,0.0,0
125069,1480714495078,,,,,,,,-0.14,0.06,0.99,-3.1,0.2,0.0,880,0,,,,,,,,,,,,,,,,,,,
125089,1480714495108,,,,,,,,-0.14,0.05,0.99,-3.1,0.4,-0.1,880,0,,,,,,,,,,,,,,,,,,,
125109,1480714495128,,,,,,,,-0.14,0.05,0.98,-3.1,0.4,-0.1,880,0,,,,,,,,,,,,,,,,,,,
125129,1480714495148,,,,,,,,-0.14,0.05,0.99,-3.1,0.5,-0.1,880,0,,,,,,,,,,,,,,,,,,,
125149,1480714495168,,,,,57,,,-0.14,0.05,0.99,-3.1,0.4,-0.0,880,0,1,0,0.0,0,37.478443,-122.203751,0.0,0.0,19.7,10,3,1.7,0,0.0,-1,0.0,,0.0,0
125169,1480714495188,,,,,,,,-0.14,0.06,0.99,-3.1,0.2,0.0,880,0,,,,,,,,,,,,,,,,,,,
125189,1480714495199,,,,,,,,-0.14,0.06,0.99,-3.1,0.4,0.1,880,0,,,,,,,,,,,,,,,,,,,
125209,1480714495219,,,,,,,,-0.14,0.06,0.99,-3.2,0.6,0.1,880,0,,,,,,,,,,,,,,,,,,,
125229,1480714495239,,,,,,,,-0.14,0.06,0.98,-3.1,0.3,0.1,880,0,,,,,,,,,,,,,,,,,,,
125249,1480714495259,0,51.8,,92.7,56,81.8,,-0.14,0.06,0.99,-3.1,0.2,0.0,900,0,1,0,0.0,0,37.478443,-122.203751,0.0,0.0,19.7,10,3,1.7,0,0.0,-1,0.0,0.0,0.0,0
125269,1480714495279,,,,,,,,-0.15,0.06,0.98,-3.1,0.3,-0.1,880,0,,,,,,,,,,,,,,,,,,,
125289,1480714495408,,,,,,,,-0.15,0.06,0.97,-3.1,0.4,-0.1,880,0,,,,,,,,,,,,,,,,,,,
125309,1480714495428,,,,,,,,-0.15,0.06,0.98,-3.1,0.5,-0.2,880,0,,,,,,,,,,,,,,,,,,,
125329,1480714495448,,,,,,,,-0.15,0.06,0.98,-3.1,0.6,-0.1,900,0,,,,,,,,,,,,,,,,,,,
125349,1480714495468,,,,,58,,,-0.14,0.06,0.99,-3.1,0.4,-0.0,900,0,1,0,0.0,0,37.478443,-122.203751,0.0,0.0,19.7,10,3,1.7,0,0.0,-1,0.0,,0.0,0
125369,1480714495488,,,,,,,,-0.15,0.06,0.99,-3.1,0.4,0.0,900,0,,,,,,,,,,,,,,,,,,,
125389,1480714495508,,,,,,,,-0.15,0.06,0.99,-3.1,0.5,0.1,900,0,,,,,,,,,,,,,,,,,,,
125409,1480714495528,,,,,,,,-0.14,0.06,1.0,-3.1,0.6,0.1,900,0,,,,,,,,,,,,,,,,,,,
125429,1480714495548,,,,,,,,-0.14,0.07,0.98,-3.1,0.4,0.1,880,0,,,,,,,,,,,,,,,,,,,
125449,1480714495568,0,51.1,,91.6,58,81.1,,-0.14,0.07,0.99,-3.1,0.3,0.0,880,0,1,0,0.0,0,37.478443,-122.203751,0.0,0.0,19.7,10,3,1.7,0,0.0,-1,0.0,0.0,0.0,0
125469,1480714495588,,,,,,,,-0.15,0.07,0.99,-3.1,0.4,-0.0,900,0,,,,,,,,,,,,,,,,,,,
125489,1480714495508,,,,,,,,-0.14,0.06,0.99,-3.1,0.4,-0.1,900,0,,,,,,,,,,,,,,,,,,,
125509,1480714495528,,,,,,,,-0.14,0.05,0.99,-3.1,0.4,-0.2,900,0,,,,,,,,,,,,,,,,,,,
125529,1480714495548,,,,,,,,-0.14,0.05,0.99,-3.1,0.5,-0.1,900,0,,,,,,,,,,,,,,,,,,,
125549,1480714495568,,,,,58,,,-0.13,0.05,0.99,-3.1,0.4,-0.1,900,0,1,0,0.0,0,37.478443,-122.203751,0.0,0.0,19.7,10,3,1.7,0,0.0,-1,0.0,,0.0,0
125569,1480714495588,,,,,,,,-0.14,0.05,1.0,-3.1,0.2,-0.0,900,0,,,,,,,,,,,,,,,,,,,
125589,1480714495595,,,,,,,,-0.13,0.05,1.0,-3.1,0.4,0.1,900,0,,,,,,,,,,,,,,,,,,,
125609,1480714495615,,,,,,,,-0.13,0.05,1.0,-3.1,0.5,0.1,900,0,,,,,,,,,,,,,,,,,,,
125629,1480714495635,,,,,,,,-0.13,0.06,1.0,-3.1,0.4,0.1,900,0,,,,,,,,,,,,,,,,,,,
125649,1480714495655,0,53.7,,92.2,59,79.3,,-0.13,0.06,1.0,-3.1,0.2,0.0,900,0,1,0,0.0,0,37.478443,-122.203751,0.0,0.0,19.7,10,3,1.7,0,0.0,-1,0.0,0.0,0.0,0
125669,1480714495675,,,,,,,,-0.14,0.06,1.0,-3.1,0.2,-0.0,900,0,,,,,,,,,,,,,,,,,,,
125689,1480714495707,,,,,,,,-0.14,0.06,1.0,-3.1,0.3,-0.1,900,0,,,,,,,,,,,,,,,,,,,
125709,1480714495727,,,,,,,,-0.14,0.06,0.99,-3.1,0.3,-0.1,880,0,,,,,,,,,,,,,,,,,,,
125729,1480714495747,,,,,,,,-0.14,0.05,0.99,-3.1,0.4,-0.1,900,0,,,,,,,,,,,,,,,,,,,
125749,1480714495767,,,,,58,,,-0.13,0.05,0.99,-3.1,0.4,-0.1,900,0,1,0,0.0,0,37.478443,-122.203751,0.0,0.0,19.7,10,3,1.7,0,0.0,-1,0.0,,0.0,0
125769,1480714495787,,,,,,,,-0.13,0.05,0.99,-3.1,0.2,0.0,900,0,,,,,,,,,,,,,,,,,,,
125789,1480714495794,,,,,,,,-0.13,0.05,0.98,-3.1,0.0,0.1,900,0,,,,,,,,,,,,,,,,,,,
125809,1480714495814,,,,,,,,-0.13,0.05,0.99,-3.1,0.2,0.1,900,0,,,,,,,,,,,,,,,,,,,
125829,1480714495834,,,,,,,,-0.12,0.05,0.99,-3.1,0.4,0.1,900,0,,,,,,,,,,,,,,,,,,,
125849,1480714495854,0,53.6,,94.6,58,82.0,,-0.12,0.05,0.98,-3.1,0.2,0.1,880,0,1,0,0.0,0,37.478443,-122.203751,0.0,0.0,19.7,10,3,1.7,0,0.0,-1,0.0,0.0,0.0,0
125869,1480714495874,,,,,,,,-0.13,0.05,0.99,-3.1,0.0,0.1,900,0,,,,,,,,,,,,,,,,,,,
125889,1480714495903,,,,,,,,-0.13,0.05,0.99,-3.1,0.2,0.0,900,0,,,,,,,,,,,,,,,,,,,
125909,1480714495923,,,,,,,,-0.13,0.05,0.98,-3.1,0.3,-0.0,900,0,,,,,,,,,,,,,,,,,,,
125929,1480714495943,,,,,,,,-0.14,0.05,0.97,-3.1,0.3,-0.1,880,0,,,,,,,,,,,,,,,,,,,
125949,1480714495963,,,,,56,,,-0.14,0.05,0.98,-3.1,0.5,-0.0,880,0,1,0,0.0,0,37.478443,-122.203751,0.0,0.0,19.7,10,3,1.7,0,0.0,-1,0.0,,0.0,0
125969,1480714495983,,,,,,,,-0.13,0.05,0.98,-3.1,0.4,-0.0,880,0,,,,,,,,,,,,,,,,,,,
125989,1480714496010,,,,,,,,-0.13,0.05,0.98,-3.1,0.2,0.0,880,0,,,,,,,,,,,,,,,,,,,
126009,1480714496030,,,,,,,,-0.13,0.05,0.98,-3.2,0.3,0.1,880,0,,,,,,,,,,,,,,,,,,,
126029,1480714496050,,,,,,,,-0.13,0.05,0.98,-3.2,0.5,0.1,900,0,,,,,,,,,,,,,,,,,,,
126049,1480714496070,0,54.4,1.6,94.0,56,79.2,14.94,-0.13,0.06,0.98,-3.1,0.4,0.1,900,0,1,0,0.0,0,37.478443,-122.203751,0.0,0.0,19.7,10,3,1.7,0,0.0,-1,0.0,0.0,0.0,0
126069,1480714496090,,,,,,,,-0.14,0.05,0.99,-3.1,0.2,0.1,880,0,,,,,,,,,,,,,,,,,,,
126089,1480714496202,,,,,,,,-0.14,0.06,0.98,-3.1,0.3,0.0,880,0,,,,,,,,,,,,,,,,,,,
126109,1480714496222,,,,,,,,-0.14,0.05,0.98,-3.1,0.3,-0.1,880,0,,,,,,,,,,,,,,,,,,,
126129,1480714496242,,,,,,,,-0.14,0.05,0.97,-3.1,0.3,-0.0,880,0,,,,,,,,,,,,,,,,,,,
126149,1480714496262,,,,,58,,,-0.13,0.05,0.97,-3.1,0.3,0.0,880,0,1,0,0.0,0,37.478443,-122.203751,0.0,0.0,19.7,10,3,1.7,0,0.0,-1,0.0,,0.0,0
126169,1480714496282,,,,,,,,-0.13,0.05,0.98,-3.1,0.2,0.0,880,0,,,,,,,,,,,,,,,,,,,
126189,1480714496302,,,,,,,,-0.13,0.05,0.97,-3.2,0.0,0.1,900,0,,,,,,,,,,,,,,,,,,,
126209,1480714496322,,,,,,,,-0.13,0.05,0.98,-3.2,0.3,0.2,900,0,,,,,,,,,,,,,,,,,,,
126229,1480714496342,,,,,,,,-0.12,0.05,0.99,-3.1,0.3,0.1,880,0,,,,,,,,,,,,,,,,,,,
126249,1480714496362,0,54.0,,94.9,58,82.1,,-0.13,0.05,0.97,-3.1,0.0,0.1,880,0,1,0,0.0,0,37.478443,-122.203751,0.0,0.0,19.7,10,3,1.7,0,0.0,-1,0.0,0.0,0.0,0
126269,1480714496382,,,,,,,,-0.14,0.05,0.99,-3.1,0.1,-0.0,900,0,,,,,,,,,,,,,,,,,,,
126289,1480714496303,,,,,,,,-0.14,0.06,0.98,-3.1,0.2,-0.1,900,0,,,,,,,,,,,,,,,,,,,
126309,1480714496323,,,,,,,,-0.14,0.05,0.98,-3.1,0.3,-0.1,900,0,,,,,,,,,,,,,,,,,,,
126329,1480714496343,,,,,,,,-0.15,0.05,0.97,-3.1,0.3,-0.2,900,0,,,,,,,,,,,,,,,,,,,
126349,1480714496363,,,,,57,,,-0.14,0.05,0.97,-3.1,0.4,-0.1,900,0,1,0,0.0,0,37.478443,-122.203751,0.0,0.0,19.7,10,3,1.7,0,0.0,-1,0.0,,0.0,0
126369,1480714496383,,,,,,,,-0.14,0.05,0.98,-3.1,0.4,-0.0,900,0,,,,,,,,,,,,,,,,,,,
126389,1480714496391,,,,,,,,-0.14,0.05,0.98,-3.2,0.2,0.0,880,0,,,,,,,,,,,,,,,,,,,
126409,1480714496411,,,,,,,,-0.14,0.05,0.99,-3.2,0.4,0.1,900,0,,,,,,,,,,,,,,,,,,,
126429,1480714496431,,,,,,,,-0.14,0.05,0.99,-3.2,0.5,0.1,900,0,,,,,,,,,,,,,,,,,,,
126449,1480714496451,0,54.3,,94.4,60,79.6,,-0.13,0.06,0.99,-3.2,0.4,0.1,900,0,1,0,0.0,0,37.478443,-122.203751,0.0,0.0,19.7,10,3,1.7,0,0.0,-1,0.0,0.0,0.0,0
126469,1480714496471,,,,,,,,-0.14,0.06,0.98,-3.2,0.2,0.0,900,0,,,,,,,,,,,,,,,,,,,
126489,1480714496501,,,,,,,,-0.15,0.06,0.98,-3.2,0.4,0.0,900,0,,,,,,,,,,,,,,,,,,,
126509,1480714496521,,,,,,,,-0.15,0.05,0.98,-3.1,0.3,-0.0,880,0,,,,,,,,,,,,,,,,,,,
126529,1480714496541,,,,,,,,-0.15,0.05,0.98,-3.1,0.4,-0.1,900,0,,,,,,,,,,,,,,,,,,,
126549,1480714496561,,,,,57,,,-0.14,0.04,0.98,-3.2,0.4,-0.0,900,0,1,0,0.0,0,37.478443,-122.203751,0.0,0.0,19.7,10,3,1.7,0,0.0,-1,0.0,,0.0,0
126569,1480714496581,,,,,,,,-0.14,0.04,0.98,-3.2,0.3,0.0,900,0,,,,,,,,,,,,,,,,,,,
126589,1480714496592,,,,,,,,-0.14,0.05,0.97,-3.2,0.1,0.1,900,0,,,,,,,,,,,,,,,,,,,
126609,1480714496612,,,,,,,,-0.14,0.05,0.98,-3.2,0.1,0.1,900,0,,,,,,,,,,,,,,,,,,,
126629,1480714496632,,,,,,,,-0.14,0.05,0.98,-3.2,0.3,0.1,900,0,,,,,,,,,,,,,,,,,,,
126649,1480714496652,0,52.0,,93.9,57,82.5,,-0.13,0.06,0.98,-3.2,0.2,0.1,880,0,1,0,0.0,0,37.478443,-122.203751,0.0,0.0,19.7,10,3,1.7,0,0.0,-1,0.0,0.0,0.0,0
126669,1480714496672,,,,,,,,-0.14,0.05,0.98,-3.2,-0.0,0.1,900,0,,,,,,,,,,,,,,,,,,,
126689,1480714496700,,,,,,,,-0.14,0.06,0.99,-3.1,0.0,0.0,900,0,,,,,,,,,,,,,,,,,,,
126709,1480714496720,,,,,,,,-0.15,0.06,0.98,-3.1,0.2,-0.1,900,0,,,,,,,,,,,,,,,,,,,
126729,1480714496740,,,,,,,,-0.15,0.06,0.98,-3.1,0.2,-0.2,900,0,,,,,,,,,,,,,,,,,,,
126749,1480714496760,,,,,55,,,-0.14,0.06,0.98,-3.1,0.2,-0.2,900,0,1,0,0.0,0,37.478443,-122.203751,0.0,0.0,19.7,10,3,1.7,0,0.0,-1,0.0,,0.0,0
126769,1480714496780,,,,,,,,-0.14,0.06,0.98,-3.1,0.3,-0.2,900,0,,,,,,,,,,,,,,,,,,,
126789,1480714496810,,,,,,,,-0.14,0.06,0.98,-3.1,0.0,-0.1,900,0,,,,,,,,,,,,,,,,,,,
126809,1480714496830,,,,,,,,-0.14,0.06,0.98,-3.2,0.0,-0.1,900,0,,,,,,,,,,,,,,,,,,,
126829,1480714496850,,,,,,,,-0.14,0.06,0.98,-3.2,0.2,-0.0,900,0,,,,,,,,,,,,,,,,,,,
126849,1480714496870,0,52.0,,91.9,58,80.0,,-0.13,0.06,0.98,-3.2,0.3,0.0,900,0,1,0,0.0,0,37.478443,-122.203751,0.0,0.0,19.7,10,3,1.7,0,0.0,-1,0.0,0.0,0.0,0
126869,1480714496890,,,,,,,,-0.13,0.06,0.99,-3.2,0.2,0.1,900,0,,,,,,,,,,,,,,,,,,,
126889,1480714496996,,,,,,,,-0.14,0.06,0.98,-3.2,0.0,0.0,900,0,,,,,,,,,,,,,,,,,,,
126909,1480714497016,,,,,,,,-0.14,0.06,0.98,-3.2,0.1,-0.1,880,0,,,,,,,,,,,,,,,,,,,
126929,1480714497036,,,,,,,,-0.14,0.05,0.98,-3.2,0.2,-0.1,880,0,,,,,,,,,,,,,,,,,,,
126949,1480714497056,,,,,56,,,-0.14,0.05,0.97,-3.2,0.1,-0.2,880,0,1,0,0.0,0,37.478443,-122.203751,0.0,0.0,19.7,10,3,1.7,0,0.0,-1,0.0,,0.0,0
126969,1480714497076,,,,,,,,-0.14,0.05,0.97,-3.2,0.2,-0.2,900,0,,,,,,,,,,,,,,,,,,,
126989,1480714497096,,,,,,,,-0.13,0.05,0.97,-3.2,0.3,-0.1,900,0,,,,,,,,,,,,,,,,,,,
127009,1480714497116,,,,,,,,-0.13,0.06,0.97,-3.2,0.1,-0.0,880,0,,,,,,,,,,,,,,,,,,,
127029,1480714497136,,,,,,,,-0.13,0.06,0.98,-3.3,0.0,0.1,900,0,,,,,,,,,,,,,,,,,,,
127049,1480714497156,0,53.5,0.8,92.2,56,79.4,14.91,-0.13,0.06,0.98,-3.3,0.3,0.1,880,0,1,0,0.0,0,37.478443,-122.203751,0.0,0.0,19.7,10,3,1.7,0,0.0,-1,0.0,0.0,0.0,0
127069,1480714497176,,,,,,,,-0.13,0.06,0.99,-3.3,0.3,0.1,880,0,,,,,,,,,,,,,,,,,,,
127089,1480714497096,,,,,,,,-0.14,0.05,0.99,-3.3,0.1,0.0,880,0,,,,,,,,,,,,,,,,,,,
127109,1480714497116,,,,,,,,-0.14,0.05,0.98,-3.2,0.1,-0.1,880,0,,,,,,,,,,,,,,,,,,,
127129,1480714497136,,,,,,,,-0.14,0.04,0.99,-3.2,0.1,-0.2,880,0,,,,,,,,,,,,,,,,,,,
127149,1480714497156,,,,,57,,,-0.14,0.05,0.98,-3.1,0.2,-0.2,880,0,1,0,0.0,0,37.478443,-122.203751,0.0,0.0,19.7,10,3,1.7,0,0.0,-1,0.0,,0.0,0
127169,1480714497176,,,,,,,,-0.14,0.04,0.98,-3.1,0.3,-0.2,880,0,,,,,,,,,,,,,,,,,,,
127189,1480714497207,,,,,,,,-0.13,0.04,0.98,-3.1,0.2,-0.1,880,0,,,,,,,,,,,,,,,,,,,
127209,1480714497227,,,,,,,,-0.14,0.04,0.98,-3.1,-0.0,-0.0,880,0,,,,,,,,,,,,,,,,,,,
127229,1480714497247,,,,,,,,-0.13,0.04,0.98,-3.1,0.2,0.0,880,0,,,,,,,,,,,,,,,,,,,
127249,1480714497267,0,53.1,,92.2,58,79.2,,-0.13,0.05,0.98,-3.1,0.3,0.0,900,0,1,0,0.0,0,37.478443,-122.203751,0.0,0.0,19.7,10,3,1.7,0,0.0,-1,0.0,0.0,0.0,0
127269,1480714497287,,,,,,,,-0.13,0.05,0.98,-3.1,-0.0,0.0,880,0,,,,,,,,,,,,,,,,,,,
127289,1480714497297,,,,,,,,-0.14,0.05,0.99,-3.1,-0.0,0.0,900,0,,,,,,,,,,,,,,,,,,,
127309,1480714497317,,,,,,,,-0.14,0.05,0.98,-3.1,0.1,-0.1,880,0,,,,,,,,,,,,,,,,,,,
127329,1480714497337,,,,,,,,-0.15,0.05,0.98,-3.0,0.1,-0.1,880,0,,,,,,,,,,,,,,,,,,,
127349,1480714497357,,,,,57,,,-0.14,0.04,0.99,-3.1,0.2,-0.0,900,0,1,0,0.0,0,37.478443,-122.203751,0.0,0.0,19.7,10,3,1.7,0,0.0,-1,0.0,,0.0,0
127369,1480714497377,,,,,,,,-0.14,0.06,0.99,-3.1,0.1,0.0,900,0,,,,,,,,,,,,,,,,,,,
127389,1480714497406,,,,,,,,-0.14,0.06,0.99,-3.1,-0.0,0.0,900,0,,,,,,,,,,,,,,,,,,,
127409,1480714497426,,,,,,,,-0.15,0.06,1.0,-3.1,0.1,-0.0,880,0,,,,,,,,,,,,,,,,,,,
127429,1480714497446,,,,,,,,-0.14,0.06,0.99,-3.1,0.3,-0.0,880,0,,,,,,,,,,,,,,,,,,,
127449,1480714497466,0,53.5,,92.4,57,79.1,,-0.14,0.07,1.0,-3.1,0.1,-0.0,880,0,1,0,0.0,0,37.478443,-122.203751,0.0,0.0,19.7,10,3,1.7,0,0.0,-1,0.0,0.0,0.0,0
127469,1480714497486,,,,,,,,-0.14,0.06,0.98,-3.1,-0.1,-0.1,880,0,,,,,,,,,,,,,,,,,,,
127489,1480714497496,,,,,,,,-0.15,0.06,0.99,-3.1,0.0,-0.2,880,0,,,,,,,,,,,,,,,,,,,
127509,1480714497516,,,,,,,,-0.15,0.05,0.99,-3.1,0.1,-0.2,900,0,,,,,,,,,,,,,,,,,,,
127529,1480714497536,,,,,,,,-0.15,0.05,0.98,-3.1,0.1,-0.3,880,0,,,,,,,,,,,,,,,,,,,
127549,1480714497556,,,,,56,,,-0.12,0.05,1.01,-3.3,0.2,-0.1,880,0,1,0,0.0,0,37.478443,-122.203751,0.0,0.0,19.7,10,3,1.7,0,0.0,-1,0.0,,0.0,0
127569,1480714497576,,,,,,,,-0.12,0.05,1.01,-3.3,-0.1,-0.1,880,0,,,,,,,,,,,,,,,,,,,
127589,1480714497606,,,,,,,,-0.12,0.06,1.0,-3.3,-0.2,-0.1,880,0,,,,,,,,,,,,,,,,,,,
127609,1480714497626,,,,,,,,-0.13,0.08,1.01,-3.3,0.1,-0.0,880,0,,,,,,,,,,,,,,,,,,,
127629,1480714497646,,,,,,,,-0.12,0.08,1.0,-3.3,0.2,0.0,880,0,,,,,,,,,,,,,,,,,,,
127649,1480714497666,0,53.7,,95.2,56,81.9,,-0.13,0.08,1.0,-3.3,0.1,-0.0,900,0,1,0,0.0,0,37.478443,-122.203751,0.0,0.0,19.7,10,3,1.7,0,0.0,-1,0.0,0.0,0.0,0
127669,1480714497686,,,,,,,,-0.13,0.08,1.0,-3.2,0.0,-0.0,880,0,,,,,,,,,,,,,,,,,,,
127689,1480714497795,,,,,,,,-0.14,0.07,0.99,-3.2,0.2,-0.1,880,0,,,,,,,,,,,,,,,,,,,
127709,1480714497815,,,,,,,,-0.14,0.06,0.99,-3.2,0.3,-0.2,880,0,,,,,,,,,,,,,,,,,,,
127729,1480714497835,,,,,,,,-0.14,0.05,0.98,-3.2,0.4,-0.2,900,0,,,,,,,,,,,,,,,,,,,
127749,1480714497855,,,,,55,,,-0.13,0.05,0.98,-3.2,0.4,-0.1,900,0,1,0,0.0,0,37.478443,-122.203751,0.0,0.0,19.7,10,3,1.7,0,0.0,-1,0.0,,0.0,0
127769,1480714497875,,,,,,,,-0.13,0.05,0.98,-3.2,0.3,-0.0,900,0,,,,,,,,,,,,,,,,,,,
127789,1480714497895,,,,,,,,-0.13,0.06,0.98,-3.2,0.2,0.1,900,0,,,,,,,,,,,,,,,,,,,
127809,1480714497915,,,,,,,,-0.13,0.06,0.99,-3.2,0.4,0.1,900,0,,,,,,,,,,,,,,,,,,,
127829,1480714497935,,,,,,,,-0.13,0.06,0.98,-3.2,0.5,0.1,900,0,,,,,,,,,,,,,,,,,,,
127849,1480714497955,0,54.0,,95.4,56,81.8,,-0.13,0.07,0.97,-3.2,0.3,0.1,900,0,1,0,0.0,0,37.478443,-122.203751,0.0,0.0,19.7,10,3,1.7,0,0.0,-1,0.0,0.0,0.0,0
127869,1480714497975,,,,,,,,-0.14,0.06,0.98,-3.1,0.1,0.1,900,0,,,,,,,,,,,,,,,,,,,
127889,1480714497891,,,,,,,,-0.14,0.06,0.97,-3.1,0.1,-0.0,900,0,,,,,,,,,,,,,,,,,,,
127909,1480714497911,,,,,,,,-0.14,0.05,0.97,-3.1,0.3,-0.1,900,0,,,,,,,,,,,,,,,,,,,
127929,1480714497931,,,,,,,,-0.14,0.05,0.96,-3.1,0.2,-0.2,900,0,,,,,,,,,,,,,,,,,,,
127949,1480714497951,,,,,57,,,-0.14,0.04,0.97,-3.1,0.2,-0.1,880,0,1,0,0.0,0,37.478443,-122.203751,0.0,0.0,19.7,10,3,1.7,0,0.0,-1,0.0,,0.0,0
127969,1480714497971,,,,,,,,-0.13,0.05,0.97,-3.1,0.3,-0.1,880,0,,,,,,,,,,,,,,,,,,,
127989,1480714497999,,,,,,,,-0.13,0.05,0.97,-3.1,0.1,0.0,880,0,,,,,,,,,,,,,,,,,,,
128009,1480714498019,,,,,,,,-0.13,0.05,0.97,-3.1,0.0,0.1,880,0,,,,,,,,,,,,,,,,,,,
128029,1480714498039,,,,,,,,-0.13,0.06,0.97,-3.1,0.2,0.1,900,0,,,,,,,,,,,,,,,,,,,
128049,1480714498059,0,53.2,1.0,93.0,58,79.7,14.96,-0.13,0.06,0.97,-3.1,0.2,0.1,900,0,1,0,0.0,0,37.478443,-122.203751,0.0,0.0,19.7,10,3,1.7,0,0.0,-1,0.0,0.0,0.0,0
128069,1480714498079,,,,,,,,-0.14,0.06,0.97,-3.1,0.0,0.0,880,0,,,,,,,,,,,,,,,,,,,
128089,1480714498107,,,,,,,,-0.14,0.06,0.97,-3.1,0.1,-0.1,880,0,,,,,,,,,,,,,,,,,,,
128109,1480714498127,,,,,,,,-0.14,0.05,0.97,-3.1,0.2,-0.1,880,0,,,,,,,,,,,,,,,,,,,
128129,1480714498147,,,,,,,,-0.14,0.05,0.96,-3.1,0.2,-0.2,880,0,,,,,,,,,,,,,,,,,,,
128149,1480714498167,,,,,57,,,-0.14,0.05,0.97,-3.1,0.3,-0.1,880,0,1,0,0.0,0,37.478443,-122.203751,0.0,0.0,19.7,10,3,1.7,0,0.0,-1,0.0,,0.0,0
128169,1480714498187,,,,,,,,-0.13,0.05,0.97,-3.1,0.2,-0.0,880,0,,,,,,,,,,,,,,,,,,,
128189,1480714498195,,,,,,,,-0.13,0.06,0.96,-3.1,0.1,0.0,900,0,,,,,,,,,,,,,,,,,,,
128209,1480714498215,,,,,,,,-0.13,0.06,0.97,-3.1,0.2,0.0,880,0,,,,,,,,,,,,,,,,,,,
128229,1480714498235,,,,,,,,-0.13,0.06,0.97,-3.2,0.4,0.0,880,0,,,,,,,,,,,,,,,,,,,
128249,1480714498255,0,51.2,,93.6,55,81.7,,-0.13,0.06,0.97,-3.2,0.1,0.0,880,0,1,0,0.0,0,37.478443,-122.203751,0.0,0.0,19.7,10,3,1.7,0,0.0,-1,0.0,0.0,0.0,0
128269,1480714498275,,,,,,,,-0.14,0.05,0.99,-3.1,0.0,-0.0,880,0,,,,,,,,,,,,,,,,,,,
128289,1480714498301,,,,,,,,-0.14,0.05,0.97,-3.1,0.2,-0.1,900,0,,,,,,,,,,,,,,,,,,,
128309,1480714498321,,,,,,,,-0.14,0.05,0.97,-3.1,0.2,-0.2,900,0,,,,,,,,,,,,,,,,,,,
128329,1480714498341,,,,,,,,-0.15,0.04,0.97,-3.1,0.3,-0.2,880,0,,,,,,,,,,,,,,,,,,,
128349,1480714498361,,,,,56,,,-0.14,0.05,0.97,-3.1,0.4,-0.1,880,0,1,0,0.0,0,37.478443,-122.203751,0.0,0.0,19.7,10,3,1.7,0,0.0,-1,0.0,,0.0,0
128369,1480714498381,,,,,,,,-0.14,0.05,0.98,-3.1,0.3,-0.1,880,0,,,,,,,,,,,,,,,,,,,
128389,1480714498393,,,,,,,,-0.14,0.05,0.99,-3.1,0.2,0.0,880,0,,,,,,,,,,,,,,,,,,,
128409,1480714498413,,,,,,,,-0.14,0.06,0.99,-3.1,0.4,0.1,880,0,,,,,,,,,,,,,,,,,,,
128429,1480714498433,,,,,,,,-0.14,0.06,0.99,-3.1,0.5,0.1,900,0,,,,,,,,,,,,,,,,,,,
128449,1480714498453,0,54.2,,95.7,57,81.9,,-0.14,0.06,0.98,-3.1,0.3,0.1,900,0,1,0,0.0,0,37.478443,-122.203751,0.0,0.0,19.7,10,3,1.7,0,0.0,-1,0.0,0.0,0.0,0
128469,1480714498473,,,,,,,,-0.15,0.05,1.0,-3.1,0.1,0.0,880,0,,,,,,,,,,,,,,,,,,,
128489,1480714498597,,,,,,,,-0.15,0.05,0.98,-3.1,0.3,-0.1,900,0,,,,,,,,,,,,,,,,,,,
128509,1480714498617,,,,,,,,-0.15,0.05,0.98,-3.1,0.3,-0.1,900,0,,,,,,,,,,,,,,,,,,,
128529,1480714498637,,,,,,,,-0.15,0.05,0.97,-3.1,0.3,-0.1,900,0,,,,,,,,,,,,,,,,,,,
128549,1480714498657,,,,,57,,,-0.15,0.04,0.98,-3.1,0.4,-0.1,900,0,1,0,0.0,0,37.478443,-122.203751,0.0,0.0,19.7,10,3,1.7,0,0.0,-1,0.0,,0.0,0
128569,1480714498677,,,,,,,,-0.14,0.05,0.98,-3.1,0.4,-0.1,920,0,,,,,,,,,,,,,,,,,,,
128589,1480714498697,,,,,,,,-0.14,0.05,0.99,-3.1,0.3,-0.0,920,0,,,,,,,,,,,,,,,,,,,
128609,1480714498717,,,,,,,,-0.14,0.06,0.99,-3.1,0.2,0.0,900,0,,,,,,,,,,,,,,,,,,,
128629,1480714498737,,,,,,,,-0.15,0.07,1.0,-3.1,0.4,0.1,900,0,,,,,,,,,,,,,,,,,,,
128649,1480714498757,0,54.3,,95.9,56,81.9,,-0.14,0.06,0.99,-3.1,0.5,0.1,900,0,1,0,0.0,0,37.478443,-122.203751,0.0,0.0,19.7,10,3,1.7,0,0.0,-1,0.0,0.0,0.0,0
128669,1480714498777,,,,,,,,-0.14,0.07,0.99,-3.1,0.3,0.1,900,0,,,,,,,,,,,,,,,,,,,
128689,1480714498693,,,,,,,,-0.15,0.06,0.98,-3.1,0.0,0.0,900,0,,,,,,,,,,,,,,,,,,,
128709,1480714498713,,,,,,,,-0.15,0.06,0.98,-3.1,0.1,-0.1,900,0,,,,,,,,,,,,,,,,,,,
128729,1480714498733,,,,,,,,-0.15,0.06,0.98,-3.0,0.2,-0.1,880,0,,,,,,,,,,,,,,,,,,,
128749,1480714498753,,,,,57,,,-0.15,0.05,0.97,-3.0,0.2,-0.1,900,0,1,0,0.0,0,37.478443,-122.203751,0.0,0.0,19.7,10,3,1.7,0,0.0,-1,0.0,,0.0,0
128769,1480714498773,,,,,,,,-0.15,0.05,0.98,-3.0,0.2,-0.1,880,0,,,,,,,,,,,,,,,,,,,
128789,1480714498803,,,,,,,,-0.14,0.05,0.98,-3.0,0.3,-0.0,880,0,,,,,,,,,,,,,,,,,,,
128809,1480714498823,,,,,,,,-0.14,0.05,0.99,-3.1,0.2,0.0,900,0,,,,,,,,,,,,,,,,,,,
128829,1480714498843,,,,,,,,-0.15,0.06,0.99,-3.1,0.2,0.1,900,0,,,,,,,,,,,,,,,,,,,
128849,1480714498863,0,52.9,,95.4,57,82.6,,-0.15,0.06,1.0,-3.1,0.4,0.1,900,0,1,0,0.0,0,37.478443,-122.203751,0.0,0.0,19.7,10,3,1.7,0,0.0,-1,0.0,0.0,0.0,0
128869,1480714498883,,,,,,,,-0.14,0.07,0.99,-3.1,0.4,0.1,880,0,,,,,,,,,,,,,,,,,,,
128889,1480714498906,,,,,,,,-0.14,0.07,0.98,-3.1,0.1,0.1,900,0,,,,,,,,,,,,,,,,,,,
128909,1480714498926,,,,,,,,-0.15,0.07,0.99,-3.1,0.1,-0.0,880,0,,,,,,,,,,,,,,,,,,,
128929,1480714498946,,,,,,,,-0.15,0.06,0.98,-3.1,0.3,-0.1,900,0,,,,,,,,,,,,,,,,,,,
128949,1480714498966,,,,,57,,,-0.15,0.05,0.98,-3.1,0.2,-0.1,900,0,1,0,0.0,0,37.478443,-122.203751,0.0,0.0,19.7,10,3,1.7,0,0.0,-1,0.0,,0.0,0
128969,1480714498986,,,,,,,,-0.15,0.05,0.98,-3.1,0.3,-0.1,900,0,,,,,,,,,,,,,,,,,,,
128989,1480714498994,,,,,,,,-0.14,0.05,0.98,-3.1,0.3,-0.1,880,0,,,,,,,,,,,,,,,,,,,
129009,1480714499014,,,,,,,,-0.14,0.05,0.99,-3.1,0.2,-0.0,880,0,,,,,,,,,,,,,,,,,,,
129029,1480714499034,,,,,,,,-0.14,0.05,0.99,-3.1,0.1,0.0,900,0,,,,,,,,,,,,,,,,,,,
129049,1480714499054,0,53.5,1.4,96.0,58,82.5,14.92,-0.14,0.05,0.99,-3.1,0.3,0.0,900,0,1,0,0.0,0,37.478443,-122.203751,0.0,0.0,19.7,10,3,1.7,0,0.0,-1,0.0,0.0,0.0,0
129069,1480714499074,,,,,,,,-0.13,0.06,1.0,-3.1,0.4,0.1,900,0,,,,,,,,,,,,,,,,,,,
129089,1480714499101,,,,,,,,-0.13,0.06,0.99,-3.1,0.2,0.1,900,0,,,,,,,,,,,,,,,,,,,
129109,1480714499121,,,,,,,,-0.14,0.06,0.99,-3.1,0.0,0.0,900,0,,,,,,,,,,,,,,,,,,,
129129,1480714499141,,,,,,,,-0.15,0.06,0.98,-3.1,0.1,-0.0,880,0,,,,,,,,,,,,,,,,,,,
129149,1480714499161,,,,,57,,,-0.15,0.06,0.98,-3.1,0.3,-0.1,880,0,1,0,0.0,0,37.478443,-122.203751,0.0,0.0,19.7,10,3,1.7,0,0.0,-1,0.0,,0.0,0
129169,1480714499181,,,,,,,,-0.15,0.05,0.98,-3.1,0.3,-0.1,880,0,,,,,,,,,,,,,,,,,,,
129189,1480714499209,,,,,,,,-0.15,0.06,0.98,-3.1,0.4,-0.1,880,0,,,,,,,,,,,,,,,,,,,
129209,1480714499229,,,,,,,,-0.14,0.06,1.0,-3.1,0.4,-0.0,880,0,,,,,,,,,,,,,,,,,,,
129229,1480714499249,,,,,,,,-0.14,0.06,1.0,-3.1,0.3,-0.0,900,0,,,,,,,,,,,,,,,,,,,
129249,1480714499269,0,51.5,,94.6,57,82.4,,-0.14,0.07,1.0,-3.2,0.4,0.1,900,0,1,0,0.0,0,37.478443,-122.203751,0.0,0.0,19.7,10,3,1.7,0,0.0,-1,0.0,0.0,0.0,0
129269,1480714499289,,,,,,,,-0.14,0.07,1.01,-3.2,0.5,0.1,880,0,,,,,,,,,,,,,,,,,,,
129289,1480714499396,,,,,,,,-0.14,0.07,0.99,-3.1,0.3,0.0,880,0,,,,,,,,,,,,,,,,,,,
129309,1480714499416,,,,,,,,-0.14,0.07,1.0,-3.1,0.2,-0.0,880,0,,,,,,,,,,,,,,,,,,,
129329,1480714499436,,,,,,,,-0.15,0.06,1.0,-3.1,0.3,-0.1,880,0,,,,,,,,,,,,,,,,,,,
129349,1480714499456,,,,,56,,,-0.14,0.05,0.99,-3.1,0.3,-0.1,880,0,1,0,0.0,0,37.478443,-122.203751,0.0,0.0,19.7,10,3,1.7,0,0.0,-1,0.0,,0.0,0
129369,1480714499476,,,,,,,,-0.14,0.04,0.99,-3.1,0.3,-0.1,900,0,,,,,,,,,,,,,,,,,,,
129389,1480714499496,,,,,,,,-0.13,0.05,0.99,-3.1,0.3,-0.1,860,0,,,,,,,,,,,,,,,,,,,
129409,1480714499516,,,,,,,,-0.13,0.05,0.99,-3.1,0.1,-0.0,860,0,,,,,,,,,,,,,,,,,,,
129429,1480714499536,,,,,,,,-0.14,0.06,0.99,-3.1,0.1,0.1,880,0,,,,,,,,,,,,,,,,,,,
129449,1480714499556,0,54.3,,96.5,56,82.0,,-0.13,0.06,0.99,-3.2,0.3,0.1,880,0,1,0,0.0,0,37.478443,-122.203751,0.0,0.0,19.7,10,3,1.7,0,0.0,-1,0.0,0.0,0.0,0
129469,1480714499576,,,,,,,,-0.13,0.07,1.0,-3.1,0.3,0.1,900,0,,,,,,,,,,,,,,,,,,,
129489,1480714499492,,,,,,,,-0.13,0.07,0.99,-3.1,0.1,0.1,900,0,,,,,,,,,,,,,,,,,,,
129509,1480714499512,,,,,,,,-0.14,0.07,0.99,-3.1,0.1,0.0,920,0,,,,,,,,,,,,,,,,,,,
129529,1480714499532,,,,,,,,-0.15,0.06,0.99,-3.1,0.3,-0.1,880,0,,,,,,,,,,,,,,,,,,,
129549,1480714499552,,,,,57,,,-0.14,0.06,0.98,-3.1,0.3,-0.1,880,0,1,0,0.0,0,37.478443,-122.203751,0.0,0.0,19.7,10,3,1.7,0,0.0,-1,0.0,,0.0,0
129569,1480714499572,,,,,,,,-0.14,0.05,0.99,-3.1,0.4,-0.1,880,0,,,,,,,,,,,,,,,,,,,
129589,1480714499600,,,,,,,,-0.14,0.06,0.98,-3.1,0.5,-0.1,880,0,,,,,,,,,,,,,,,,,,,
129609,1480714499620,,,,,,,,-0.14,0.06,0.99,-3.1,0.4,-0.0,900,0,,,,,,,,,,,,,,,,,,,
129629,1480714499640,,,,,,,,-0.14,0.07,1.0,-3.1,0.3,0.0,900,0,,,,,,,,,,,,,,,,,,,
129649,1480714499660,0,50.8,,94.3,58,79.3,,-0.14,0.07,1.0,-3.1,0.5,0.1,900,0,1,0,0.0,0,37.478443,-122.203751,0.0,0.0,19.7,10,3,1.7,0,0.0,-1,0.0,0.0,0.0,0
129669,1480714499680,,,,,,,,-0.14,0.07,1.0,-3.1,0.4,0.1,860,0,,,,,,,,,,,,,,,,,,,
129689,1480714499707,,,,,,,,-0.14,0.07,0.99,-3.1,0.1,0.0,880,0,,,,,,,,,,,,,,,,,,,
129709,1480714499727,,,,,,,,-0.14,0.07,0.99,-3.1,0.2,-0.0,880,0,,,,,,,,,,,,,,,,,,,
129729,1480714499747,,,,,,,,-0.15,0.06,0.99,-3.1,0.3,-0.1,880,0,,,,,,,,,,,,,,,,,,,
129749,1480714499767,,,,,55,,,-0.14,0.05,0.99,-3.1,0.3,-0.1,880,0,1,0,0.0,0,37.478443,-122.203751,0.0,0.0,19.7,10,3,1.7,0,0.0,-1,0.0,,0.0,0
129769,1480714499787,,,,,,,,-0.14,0.05,0.99,-3.1,0.3,-0.1,900,0,,,,,,,,,,,,,,,,,,,
129789,1480714499794,,,,,,,,-0.13,0.06,0.99,-3.1,0.2,-0.1,900,0,,,,,,,,,,,,,,,,,,,
129809,1480714499814,,,,,,,,-0.13,0.06,0.99,-3.1,0.1,0.0,860,0,,,,,,,,,,,,,,,,,,,
129829,1480714499834,,,,,,,,-0.14,0.06,0.99,-3.1,0.3,0.1,880,0,,,,,,,,,,,,,,,,,,,
129849,1480714499854,0,54.6,,97.1,56,82.6,,-0.13,0.06,0.99,-3.2,0.3,0.1,880,0,1,0,0.0,0,37.478443,-122.203751,0.0,0.0,19.7,10,3,1.7,0,0.0,-1,0.0,0.0,0.0,0
129869,1480714499874,,,,,,,,-0.14,0.06,0.98,-3.1,0.0,0.0,880,0,,,,,,,,,,,,,,,,,,,
129889,1480714499899,,,,,,,,-0.14,0.06,0.99,-3.1,0.1,-0.0,880,0,,,,,,,,,,,,,,,,,,,
129909,1480714499919,,,,,,,,-0.15,0.06,0.98,-3.1,0.2,-0.1,900,0,,,,,,,,,,,,,,,,,,,
129929,1480714499939,,,,,,,,-0.15,0.05,0.98,-3.1,0.3,-0.2,860,0,,,,,,,,,,,,,,,,,,,
129949,1480714499959,,,,,56,,,-0.14,0.05,0.99,-3.1,0.3,-0.1,880,0,1,0,0.0,0,37.478443,-122.203751,0.0,0.0,19.7,10,3,1.7,0,0.0,-1,0.0,,0.0,0
129969,1480714499979,,,,,,,,-0.14,0.05,0.98,-3.1,0.2,-0.1,880,0,,,,,,,,,,,,,,,,,,,
129989,1480714500007,,,,,,,,-0.14,0.05,0.99,-3.1,0.2,0.0,860,0,,,,,,,,,,,,,,,,,,,
130009,1480714500027,,,,,,,,-0.14,0.06,0.99,-3.2,0.5,0.1,880,0,,,,,,,,,,,,,,,,,,,
130029,1480714500047,,,,,,,,-0.14,0.06,0.99,-3.2,0.4,0.1,880,0,,,,,,,,,,,,,,,,,,,
130049,1480714500067,0,51.7,0.9,93.7,57,81.1,14.85,-0.14,0.06,0.98,-3.2,0.2,0.1,900,0,1,0,0.0,0,37.478443,-122.203751,0.0,0.0,19.7,10,3,1.7,0,0.0,-1,0.0,0.0,0.0,0
130069,1480714500087,,,,,,,,-0.15,0.06,0.99,-3.1,0.2,-0.0,860,0,,,,,,,,,,,,,,,,,,,
130089,1480714500193,,,,,,,,-0.15,0.05,0.99,-3.1,0.3,-0.1,880,0,,,,,,,,,,,,,,,,,,,
130109,1480714500213,,,,,,,,-0.15,0.05,0.98,-3.1,0.3,-0.1,880,0,,,,,,,,,,,,,,,,,,,
130129,1480714500233,,,,,,,,-0.14,0.04,1.0,-3.1,0.5,-0.1,880,0,,,,,,,,,,,,,,,,,,,
130149,1480714500253,,,,,55,,,-0.14,0.05,1.01,-3.1,0.4,-0.1,880,0,1,0,0.0,0,37.478443,-122.203751,0.0,0.0,19.7,10,3,1.7,0,0.0,-1,0.0,,0.0,0
130169,1480714500273,,,,,,,,-0.14,0.04,1.0,-3.1,0.4,-0.0,880,0,,,,,,,,,,,,,,,,,,,
130189,1480714500293,,,,,,,,-0.14,0.05,1.0,-3.1,0.5,0.0,900,0,,,,,,,,,,,,,,,,,,,
130209,1480714500313,,,,,,,,-0.13,0.06,1.01,-3.1,0.5,0.0,860,0,,,,,,,,,,,,,,,,,,,
130229,1480714500333,,,,,,,,-0.13,0.06,1.01,-3.1,0.3,0.0,880,0,,,,,,,,,,,,,,,,,,,
130249,1480714500353,0,54.6,,96.5,57,83.2,,-0.14,0.06,1.01,-3.1,0.2,-0.1,880,0,1,0,0.0,0,37.478443,-122.203751,0.0,0.0,19.7,10,3,1.7,0,0.0,-1,0.0,0.0,0.0,0
130269,1480714500373,,,,,,,,-0.14,0.05,1.0,-3.1,0.4,-0.2,880,0,,,,,,,,,,,,,,,,,,,
130289,1480714500306,,,,,,,,-0.14,0.04,0.99,-3.1,0.3,-0.2,900,0,,,,,,,,,,,,,,,,,,,
130309,1480714500326,,,,,,,,-0.13,0.04,0.98,-3.0,0.4,-0.2,920,0,,,,,,,,,,,,,,,,,,,
130329,1480714500346,,,,,,,,-0.13,0.04,0.98,-3.1,0.4,-0.1,880,0,,,,,,,,,,,,,,,,,,,
130349,1480714500366,,,,,57,,,-0.13,0.04,0.98,-3.1,0.3,-0.1,880,0,1,0,0.0,0,37.478443,-122.203751,0.0,0.0,19.7,10,3,1.7,0,0.0,-1,0.0,,0.0,0
130369,1480714500386,,,,,,,,-0.13,0.05,0.99,-3.1,0.2,0.0,900,0,,,,,,,,,,,,,,,,,,,
130389,1480714500406,,,,,,,,-0.13,0.05,0.98,-3.1,0.4,0.1,900,0,,,,,,,,,,,,,,,,,,,
130409,1480714500410,,,,,,,,-0.13,0.06,0.99,-3.1,0.5,0.1,900,0,,,,,,,,,,,,,,,,,,,
130429,1480714500430,,,,,,,,-0.13,0.06,0.98,-3.1,0.3,0.0,900,0,,,,,,,,,,,,,,,,,,,
130449,1480714500450,0,52.1,,96.4,58,79.6,,-0.13,0.06,0.99,-3.1,0.1,-0.0,920,0,1,0,0.0,0,37.478443,-122.203751,0.0,0.0,19.7,10,3,1.7,0,0.0,-1,0.0,0.0,0.0,0
130469,1480714500470,,,,,,,,-0.14,0.05,0.98,-3.1,0.2,-0.1,880,0,,,,,,,,,,,,,,,,,,,
130489,1480714500500,,,,,,,,-0.14,0.05,0.97,-3.1,0.3,-0.1,900,0,,,,,,,,,,,,,,,,,,,
130509,1480714500520,,,,,,,,-0.14,0.04,0.98,-3.1,0.3,-0.2,880,0,,,,,,,,,,,,,,,,,,,
130529,1480714500540,,,,,,,,-0.14,0.05,0.98,-3.1,0.4,-0.1,900,0,,,,,,,,,,,,,,,,,,,
130549,1480714500560,,,,,56,,,-0.13,0.05,0.99,-3.1,0.4,-0.0,900,0,1,0,0.0,0,37.478443,-122.203751,0.0,0.0,19.7,10,3,1.7,0,0.0,-1,0.0,,0.0,0
130569,1480714500580,,,,,,,,-0.14,0.06,1.0,-3.1,0.3,0.1,900,0,,,,,,,,,,,,,,,,,,,
130589,1480714500607,,,,,,,,-0.14,0.07,1.01,-3.1,0.3,0.1,920,0,,,,,,,,,,,,,,,,,,,
130609,1480714500627,,,,,,,,-0.14,0.07,1.0,-3.1,0.5,0.2,880,0,,,,,,,,,,,,,,,,,,,
130629,1480714500647,,,,,,,,-0.13,0.07,1.0,-3.1,0.5,0.1,900,0,,,,,,,,,,,,,,,,,,,
130649,1480714500667,0,52.0,,96.0,58,79.5,,-0.14,0.07,1.0,-3.1,0.3,0.1,900,0,1,0,0.0,0,37.478443,-122.203751,0.0,0.0,19.7,10,3,1.7,0,0.0,-1,0.0,0.0,0.0,0
130669,1480714500687,,,,,,,,-0.14,0.08,0.99,-3.1,0.2,0.1,900,0,,,,,,,,,,,,,,,,,,,
130689,1480714500694,,,,,,,,-0.15,0.07,0.99,-3.1,0.3,-0.0,900,0,,,,,,,,,,,,,,,,,,,
130709,1480714500714,,,,,,,,-0.15,0.07,0.98,-3.1,0.3,-0.1,920,0,,,,,,,,,,,,,,,,,,,
130729,1480714500734,,,,,,,,-0.15,0.06,0.98,-3.1,0.4,-0.1,880,0,,,,,,,,,,,,,,,,,,,
130749,1480714500754,,,,,58,,,-0.14,0.06,0.98,-3.1,0.4,-0.1,880,0,1,0,0.0,0,37.478443,-122.203751,0.0,0.0,19.7,10,3,1.7,0,0.0,-1,0.0,,0.0,0
130769,1480714500774,,,,,,,,-0.14,0.06,0.99,-3.1,0.4,-0.0,880,0,,,,,,,,,,,,,,,,,,,
130789,1480714500798,,,,,,,,-0.14,0.06,0.98,-3.1,0.2,0.0,880,0,,,,,,,,,,,,,,,,,,,
130809,1480714500818,,,,,,,,-0.14,0.07,0.99,-3.1,0.3,0.1,880,0,,,,,,,,,,,,,,,,,,,
130829,1480714500838,,,,,,,,-0.14,0.07,0.99,-3.1,0.5,0.1,880,0,,,,,,,,,,,,,,,,,,,
130849,1480714500858,0,53.9,,97.4,58,81.6,,-0.14,0.07,0.99,-3.1,0.3,0.1,900,0,1,0,0.0,0,37.478443,-122.203751,0.0,0.0,19.7,10,3,1.7,0,0.0,-1,0.0,0.0,0.0,0
130869,1480714500878,,,,,,,,-0.15,0.07,0.99,-3.1,0.2,-0.0,880,0,,,,,,,,,,,,,,,,,,,
130889,1480714501004,,,,,,,,-0.15,0.07,0.98,-3.1,0.3,-0.1,880,0,,,,,,,,,,,,,,,,,,,
130909,1480714501024,,,,,,,,-0.15,0.06,0.98,-3.1,0.3,-0.1,880,0,,,,,,,,,,,,,,,,,,,
130929,1480714501044,,,,,,,,-0.15,0.05,0.97,-3.1,0.4,-0.1,900,0,,,,,,,,,,,,,,,,,,,
130949,1480714501064,,,,,55,,,-0.14,0.05,0.97,-3.1,0.4,-0.1,900,0,1,0,0.0,0,37.478443,-122.203751,0.0,0.0,19.7,10,3,1.7,0,0.0,-1,0.0,,0.0,0
130969,1480714501084,,,,,,,,-0.13,0.05,0.97,-3.1,0.2,-0.0,900,0,,,,,,,,,,,,,,,,,,,
130989,1480714501104,,,,,,,,-0.14,0.05,0.97,-3.1,0.1,0.0,900,0,,,,,,,,,,,,,,,,,,,
131009,1480714501124,,,,,,,,-0.13,0.06,0.97,-3.1,0.3,0.1,880,0,,,,,,,,,,,,,,,,,,,
131029,1480714501144,,,,,,,,-0.13,0.06,0.97,-3.1,0.4,0.1,880,0,,,,,,,,,,,,,,,,,,,
131049,1480714501164,0,51.3,1.0,96.0,57,79.6,14.9,-0.13,0.06,0.97,-3.1,0.2,0.0,880,0,1,0,0.0,0,37.478443,-122.203751,0.0,0.0,19.7,10,3,1.7,0,0.0,-1,0.0,0.0,0.0,0
131069,1480714501184,,,,,,,,-0.14,0.06,0.98,-3.1,0.1,-0.0,880,0,,,,,,,,,,,,,,,,,,,
131089,1480714501100,,,,,,,,-0.14,0.06,0.97,-3.1,0.2,-0.1,880,0,,,,,,,,,,,,,,,,,,,
131109,1480714501120,,,,,,,,-0.14,0.05,0.97,-3.0,0.3,-0.1,900,0,,,,,,,,,,,,,,,,,,,
131129,1480714501140,,,,,,,,-0.15,0.05,0.96,-3.0,0.4,-0.2,880,0,,,,,,,,,,,,,,,,,,,
131149,1480714501160,,,,,58,,,-0.14,0.05,0.97,-3.1,0.4,-0.1,900,0,1,0,0.0,0,37.478443,-122.203751,0.0,0.0,19.7,10,3,1.7,0,0.0,-1,0.0,,0.0,0
131169,1480714501180,,,,,,,,-0.13,0.05,0.98,-3.1,0.3,-0.0,900,0,,,,,,,,,,,,,,,,,,,
131189,1480714501205,,,,,,,,-0.14,0.05,0.98,-3.1,0.2,0.0,900,0,,,,,,,,,,,,,,,,,,,
131209,1480714501225,,,,,,,,-0.14,0.06,0.99,-3.1,0.4,0.1,900,0,,,,,,,,,,,,,,,,,,,
131229,1480714501245,,,,,,,,-0.14,0.06,0.98,-3.1,0.5,0.1,900,0,,,,,,,,,,,,,,,,,,,
131249,1480714501265,0,53.2,,95.1,56,82.9,,-0.13,0.07,0.98,-3.1,0.4,0.1,920,0,1,0,0.0,0,37.478443,-122.203751,0.0,0.0,19.7,10,3,1.7,0,0.0,-1,0.0,0.0,0.0,0
131269,1480714501285,,,,,,,,-0.14,0.06,0.99,-3.1,0.2,0.0,880,0,,,,,,,,,,,,,,,,,,,
131289,1480714501293,,,,,,,,-0.14,0.06,0.98,-3.1,0.2,-0.0,900,0,,,,,,,,,,,,,,,,,,,
131309,1480714501313,,,,,,,,-0.15,0.06,0.98,-3.1,0.3,-0.1,900,0,,,,,,,,,,,,,,,,,,,
131329,1480714501333,,,,,,,,-0.15,0.06,0.97,-3.1,0.3,-0.1,900,0,,,,,,,,,,,,,,,,,,,
131349,1480714501353,,,,,56,,,-0.15,0.05,0.98,-3.1,0.4,-0.1,900,0,1,0,0.0,0,37.478443,-122.203751,0.0,0.0,19.7,10,3,1.7,0,0.0,-1,0.0,,0.0,0
131369,1480714501373,,,,,,,,-0.15,0.06,0.98,-3.1,0.5,-0.1,920,0,,,,,,,,,,,,,,,,,,,
131389,1480714501401,,,,,,,,-0.14,0.05,0.99,-3.1,0.4,-0.1,920,0,,,,,,,,,,,,,,,,,,,
131409,1480714501421,,,,,,,,-0.15,0.05,0.98,-3.1,0.2,-0.0,880,0,,,,,,,,,,,,,,,,,,,
131429,1480714501441,,,,,,,,-0.15,0.06,0.99,-3.1,0.3,0.0,880,0,,,,,,,,,,,,,,,,,,,
131449,1480714501461,0,54.3,,97.8,57,82.1,,-0.14,0.06,0.99,-3.1,0.5,0.1,880,0,1,0,0.0,0,37.478443,-122.203751,0.0,0.0,19.7,10,3,1.7,0,0.0,-1,0.0,0.0,0.0,0
131469,1480714501481,,,,,,,,-0.14,0.07,0.99,-3.1,0.3,0.1,880,0,,,,,,,,,,,,,,,,,,,
131489,1480714501508,,,,,,,,-0.15,0.06,1.0,-3.1,0.2,0.0,880,0,,,,,,,,,,,,,,,,,,,
131509,1480714501528,,,,,,,,-0.15,0.06,0.99,-3.1,0.4,-0.0,900,0,,,,,,,,,,,,,,,,,,,
131529,1480714501548,,,,,,,,-0.15,0.05,0.99,-3.1,0.3,-0.1,860,0,,,,,,,,,,,,,,,,,,,
131549,1480714501568,,,,,54,,,-0.15,0.05,0.99,-3.1,0.4,-0.1,880,0,1,0,0.0,0,37.478443,-122.203751,0.0,0.0,19.7,10,3,1.7,0,0.0,-1,0.0,,0.0,0
131569,1480714501588,,,,,,,,-0.14,0.05,0.99,-3.1,0.4,-0.0,880,0,,,,,,,,,,,,,,,,,,,
131589,1480714501595,,,,,,,,-0.14,0.05,1.0,-3.1,0.2,-0.0,860,0,,,,,,,,,,,,,,,,,,,
131609,1480714501615,,,,,,,,-0.14,0.06,1.0,-3.2,0.3,0.1,880,0,,,,,,,,,,,,,,,,,,,
131629,1480714501635,,,,,,,,-0.14,0.06,1.0,-3.2,0.4,0.1,880,0,,,,,,,,,,,,,,,,,,,
131649,1480714501655,0,52.1,,94.8,56,82.1,,-0.14,0.07,1.0,-3.1,0.2,0.0,900,0,1,0,0.0,0,37.478443,-122.203751,0.0,0.0,19.7,10,3,1.7,0,0.0,-1,0.0,0.0,0.0,0
131669,1480714501675,,,,,,,,-0.14,0.06,1.0,-3.1,0.1,-0.0,860,0,,,,,,,,,,,,,,,,,,,
131689,1480714501802,,,,,,,,-0.15,0.06,0.99,-3.2,0.3,-0.1,880,0,,,,,,,,,,,,,,,,,,,
131709,1480714501822,,,,,,,,-0.15,0.05,0.99,-3.1,0.3,-0.2,880,0,,,,,,,,,,,,,,,,,,,
131729,1480714501842,,,,,,,,-0.15,0.05,0.98,-3.2,0.4,-0.1,880,0,,,,,,,,,,,,,,,,,,,
131749,1480714501862,,,,,56,,,-0.14,0.05,0.98,-3.2,0.4,-0.1,880,0,1,0,0.0,0,37.478443,-122.203751,0.0,0.0,19.7,10,3,1.7,0,0.0,-1,0.0,,0.0,0
131769,1480714501882,,,,,,,,-0.14,0.06,0.97,-3.2,0.2,-0.0,880,0,,,,,,,,,,,,,,,,,,,
131789,1480714501902,,,,,,,,-0.14,0.06,0.98,-3.2,0.3,0.1,920,0,,,,,,,,,,,,,,,,,,,
131809,1480714501922,,,,,,,,-0.14,0.06,0.98,-3.2,0.5,0.1,880,0,,,,,,,,,,,,,,,,,,,
131829,1480714501942,,,,,,,,-0.14,0.07,0.98,-3.2,0.3,0.1,880,0,,,,,,,,,,,,,,,,,,,
131849,1480714501962,0,54.2,,96.6,55,82.1,,-0.14,0.06,0.99,-3.1,0.2,0.0,880,0,1,0,0.0,0,37.478443,-122.203751,0.0,0.0,19.7,10,3,1.7,0,0.0,-1,0.0,0.0,0.0,0
131869,1480714501982,,,,,,,,-0.15,0.06,0.99,-3.1,0.3,-0.1,900,0,,,,,,,,,,,,,,,,,,,
131889,1480714501895,,,,,,,,-0.14,0.05,0.99,-3.1,0.3,-0.1,900,0,,,,,,,,,,,,,,,,,,,
131909,1480714501915,,,,,,,,-0.14,0.05,0.99,-3.1,0.4,-0.2,920,0,,,,,,,,,,,,,,,,,,,
131929,1480714501935,,,,,,,,-0.14,0.04,0.99,-3.1,0.4,-0.2,880,0,,,,,,,,,,,,,,,,,,,
131949,1480714501955,,,,,56,,,-0.14,0.05,0.99,-3.1,0.5,-0.1,880,0,1,0,0.0,0,37.478443,-122.203751,0.0,0.0,19.7,10,3,1.7,0,0.0,-1,0.0,,0.0,0
131969,1480714501975,,,,,,,,-0.13,0.05,0.99,-3.1,0.3,-0.1,900,0,,,,,,,,,,,,,,,,,,,
131989,1480714502003,,,,,,,,-0.14,0.06,1.0,-3.2,0.3,0.0,900,0,,,,,,,,,,,,,,,,,,,
132009,1480714502023,,,,,,,,-0.13,0.06,0.99,-3.2,0.5,0.1,900,0,,,,,,,,,,,,,,,,,,,
132029,1480714502043,,,,,,,,-0.13,0.06,1.0,-3.1,0.5,0.0,900,0,,,,,,,,,,,,,,,,,,,
132049,1480714502063,0,53.9,1.7,98.0,55,83.6,14.89,-0.14,0.06,0.99,-3.1,0.3,0.0,920,0,1,0,0.0,0,37.478443,-122.203751,0.0,0.0,19.7,10,3,1.7,0,0.0,-1,0.0,0.0,0.0,0
132069,1480714502083,,,,,,,,-0.14,0.06,1.0,-3.1,0.2,-0.0,860,0,,,,,,,,,,,,,,,,,,,
132089,1480714502091,,,,,,,,-0.14,0.05,1.0,-3.1,0.4,-0.1,880,0,,,,,,,,,,,,,,,,,,,
132109,1480714502111,,,,,,,,-0.14,0.05,0.99,-3.1,0.4,-0.1,880,0,,,,,,,,,,,,,,,,,,,
132129,1480714502131,,,,,,,,-0.14,0.05,0.99,-3.1,0.4,-0.2,880,0,,,,,,,,,,,,,,,,,,,
132149,1480714502151,,,,,57,,,-0.13,0.05,0.99,-3.1,0.4,-0.1,900,0,1,0,0.0,0,37.478443,-122.203751,0.0,0.0,19.7,10,3,1.7,0,0.0,-1,0.0,,0.0,0
132169,1480714502171,,,,,,,,-0.13,0.05,0.99,-3.1,0.2,-0.0,900,0,,,,,,,,,,,,,,,,,,,
132189,1480714502200,,,,,,,,-0.13,0.06,1.0,-3.1,0.2,0.1,920,0,,,,,,,,,,,,,,,,,,,
132209,1480714502220,,,,,,,,-0.13,0.06,1.01,-3.2,0.4,0.1,860,0,,,,,,,,,,,,,,,,,,,
132229,1480714502240,,,,,,,,-0.13,0.06,1.01,-3.2,0.4,0.1,880,0,,,,,,,,,,,,,,,,,,,
132249,1480714502260,0,54.8,,97.4,57,83.5,,-0.13,0.06,1.0,-3.1,0.2,0.1,880,0,1,0,0.0,0,37.478443,-122.203751,0.0,0.0,19.7,10,3,1.7,0,0.0,-1,0.0,0.0,0.0,0
132269,1480714502280,,,,,,,,-0.14,0.06,1.0,-3.1,0.2,0.0,880,44,,,,,,,,,,,,,,,,,,,
132289,1480714502309,,,,,,,,-0.14,0.05,1.0,-3.1,0.3,-0.1,880,44,,,,,,,,,,,,,,,,,,,
132309,1480714502329,,,,,,,,-0.14,0.05,1.0,-3.1,0.4,-0.1,900,33,,,,,,,,,,,,,,,,,,,
132329,1480714502349,,,,,,,,-0.14,0.05,1.0,-3.1,0.3,-0.1,860,33,,,,,,,,,,,,,,,,,,,
132349,1480714502369,,,,,55,,,-0.13,0.05,1.0,-3.1,0.4,-0.1,860,49,1,0,27.273,0,37.478443,-122.203751,0.0,0.0,19.7,10,3,1.7,0,0.0,-1,0.0,,0.0,0
132369,1480714502389,,,,,,,,-0.12,0.06,1.0,-3.1,0.1,-0.0,860,49,,,,,,,,,,,,,,,,,,,
132389,1480714502399,,,,,,,,-0.12,0.06,1.0,-3.1,0.3,0.0,860,49,,,,,,,,,,,,,,,,,,,
132409,1480714502419,,,,,,,,-0.12,0.06,0.99,-3.1,0.2,0.0,860,49,,,,,,,,,,,,,,,,,,,
132429,1480714502439,,,,,,,,-0.13,0.06,0.99,-3.1,0.1,-0.1,860,27,,,,,,,,,,,,,,,,,,,
132449,1480714502459,0,54.9,,97.5,54,83.2,,-0.13,0.07,0.99,-3.1,0.1,-0.2,880,27,1,0,31.852,0,37.478443,-122.203751,0.0,0.0,19.7,10,3,1.7,0,0.0,-1,0.0,0.0,0.0,0
132469,1480714502479,,,,,,,,-0.13,0.06,0.98,-3.1,0.2,-0.2,840,27,,,,,,,,,,,,,,,,,,,
132489,1480714502606,,,,,,,,-0.13,0.05,0.98,-3.2,0.3,-0.1,840,27,,,,,,,,,,,,,,,,,,,
132509,1480714502626,,,,,,,,-0.12,0.06,0.98,-3.2,0.3,-0.1,840,1538461,,,,,,,,,,,,,,,,,,,
132529,1480714502646,,,,,,,,-0.12,0.06,0.99,-3.2,0.4,-0.0,840,0,,,,,,,,,,,,,,,,,,,
132549,1480714502666,,,,,53,,,-0.12,0.06,0.99,-3.2,0.4,-0.0,840,0,1,0,0.0,0,37.478443,-122.203751,0.0,0.0,19.7,10,3,1.7,0,0.0,-1,0.0,,0.0,0
132569,1480714502686,,,,,,,,-0.13,0.06,1.0,-3.2,0.4,-0.1,840,0,,,,,,,,,,,,,,,,,,,
132589,1480714502706,,,,,,,,-0.13,0.06,1.0,-3.2,0.3,-0.2,860,0,,,,,,,,,,,,,,,,,,,
132609,1480714502726,,,,,,,,-0.13,0.05,0.99,-3.2,0.4,-0.1,820,0,,,,,,,,,,,,,,,,,,,
132629,1480714502746,,,,,,,,-0.13,0.05,0.99,-3.2,0.4,-0.1,820,0,,,,,,,,,,,,,,,,,,,
132649,1480714502766,0,55.2,,98.4,53,84.0,,-0.13,0.05,0.99,-3.2,0.3,-0.1,820,0,1,0,0.0,0,37.478443,-122.203751,0.0,0.0,19.7,10,3,1.7,0,0.0,-1,0.0,0.0,0.0,0
132669,1480714502786,,,,,,,,-0.13,0.05,0.99,-3.2,0.2,-0.1,800,0,,,,,,,,,,,,,,,,,,,
132689,1480714502703,,,,,,,,-0.13,0.05,0.99,-3.2,0.2,-0.1,820,0,,,,,,,,,,,,,,,,,,,
132709,1480714502723,,,,,,,,-0.13,0.05,0.99,-3.2,0.0,-0.2,800,0,,,,,,,,,,,,,,,,,,,
132729,1480714502743,,,,,,,,-0.14,0.05,0.98,-3.2,0.1,-0.1,800,0,,,,,,,,,,,,,,,,,,,
132749,1480714502763,,,,,53,,,-0.13,0.05,0.98,-3.2,0.1,-0.0,820,0,1,0,0.0,0,37.478443,-122.203751,0.0,0.0,19.7,10,3,1.7,0,0.0,-1,0.0,,0.0,0
132769,1480714502783,,,,,,,,-0.13,0.06,0.98,-3.2,0.1,0.0,800,0,,,,,,,,,,,,,,,,,,,
132789,1480714502793,,,,,,,,-0.13,0.07,0.99,-3.2,0.1,0.0,800,0,,,,,,,,,,,,,,,,,,,
132809,1480714502813,,,,,,,,-0.14,0.06,0.99,-3.1,0.1,-0.1,800,0,,,,,,,,,,,,,,,,,,,
132829,1480714502833,,,,,,,,-0.14,0.06,0.98,-3.2,0.1,-0.1,820,0,,,,,,,,,,,,,,,,,,,
132849,1480714502853,0,53.7,,95.5,54,81.7,,-0.14,0.06,0.98,-3.2,0.2,-0.0,820,0,1,0,0.0,0,37.478443,-122.203751,0.0,0.0,19.7,10,3,1.7,0,0.0,-1,0.0,0.0,0.0,0
132869,1480714502873,,,,,,,,-0.14,0.07,0.99,-3.2,0.2,0.1,820,0,,,,,,,,,,,,,,,,,,,
132889,1480714502896,,,,,,,,-0.14,0.07,0.99,-3.2,0.3,0.1,840,0,,,,,,,,,,,,,,,,,,,
132909,1480714502916,,,,,,,,-0.15,0.06,1.0,-3.2,0.2,0.1,820,0,,,,,,,,,,,,,,,,,,,
132929,1480714502936,,,,,,,,-0.15,0.06,1.0,-3.2,0.2,0.0,820,0,,,,,,,,,,,,,,,,,,,
132949,1480714502956,,,,,54,,,-0.16,0.05,1.0,-3.2,0.2,-0.1,820,0,1,0,0.0,0,37.478443,-122.203751,0.0,0.0,19.7,10,3,1.7,0,0.0,-1,0.0,,0.0,0
132969,1480714502976,,,,,,,,-0.15,0.05,0.99,-3.2,0.3,-0.0,820,0,,,,,,,,,,,,,,,,,,,
132989,1480714503007,,,,,,,,-0.15,0.06,0.99,-3.2,0.2,0.1,840,0,,,,,,,,,,,,,,,,,,,
133009,1480714503027,,,,,,,,-0.15,0.06,1.0,-3.2,0.3,0.1,840,0,,,,,,,,,,,,,,,,,,,
133029,1480714503047,,,,,,,,-0.15,0.07,1.01,-3.2,0.2,0.1,860,0,,,,,,,,,,,,,,,,,,,
