"Interval"|"ms"|0|0|1,"Utc"|"ms"|0|0|1,"FuelLevel"|"F"|0|100|5,"OilTemp"|"F"|0.0|300.0|5,"CoolantPressPSI"|"PSI"|0.0|20.0|1,"Coolant"|"F"|0.0|300.0|5,"OilPress"|"PSI"|0|150|10,"EngineTemp"|"F"|0.0|300.0|5,"Battery"|"Volts"|0.0|20.0|1,"AccelX"|"G"|-3.0|3.0|50,"AccelY"|"G"|-3.0|3.0|50,"AccelZ"|"G"|-3.0|3.0|50,"Yaw"|"Deg/Sec"|-300.0|300.0|50,"Pitch"|"Deg/Sec"|-300.0|300.0|50,"Roll"|"Deg/Sec"|-300.0|300.0|50,"RPM"|""|0|10000|50,"Driveshaft"|"RPM"|0|5000|50,"GPIO1"|""|0|1|10,"GPIO2"|""|0|1|10,"GearRatio"|""|-5.0|5.0|10,"Gear"|""|-1|5|10,"Latitude"|"Degrees"|-180.0|180.0|10,"Longitude"|"Degrees"|-180.0|180.0|10,"Speed"|"MPH"|0.0|150.0|10,"Distance"|"Miles"|0.0|0.0|10,"Altitude"|"Feet"|0.0|4000.0|10,"GPSSats"|""|0|20|10,"GPSQual"|""|0|5|10,"GPSDOP"|""|0.0|20.0|10,"LapCount"|""|0|0|10,"LapTime"|"Min"|0.0|0.0|10,"Sector"|""|0|0|10,"SectorTime"|"Min"|0.0|0.0|10,"PredTime"|"Min"|0.0|0.0|5,"ElapsedTime"|"Min"|0.0|0.0|10,"CurrentLap"|""|0|0|10
8873,1480783411558,,,,,,,,0.02,0.11,1.01,-3.2,0.1,0.3,560,0,,,,,,,,,,,,,,,,,,,
8893,1480783411578,,,,,,,,0.02,0.12,1.01,-3.2,0.0,0.2,280,0,,,,,,,,,,,,,,,,,,,
8913,1480783411598,,,,,,,,0.02,0.11,1.02,-3.2,-0.0,0.1,280,0,,,,,,,,,,,,,,,,,,,
8933,1480783411621,,,,,,,,0.02,0.11,1.01,-3.2,-0.1,-0.0,420,0,,,,,,,,,,,,,,,,,,,
8953,1480783411641,,,,,0,,,0.02,0.11,1.01,-3.2,-0.1,-0.0,420,0,0,0,0.0,0,38.15918,-122.454437,0.0,0.0,71.2,7,2,2.5,0,0.0,-1,0.0,,0.0,0
8973,1480783411661,,,,,,,,0.02,0.11,1.01,-3.1,-0.1,-0.0,520,0,,,,,,,,,,,,,,,,,,,
8993,1480783411681,,,,,,,,0.01,0.11,1.0,-3.1,-0.1,-0.1,520,0,,,,,,,,,,,,,,,,,,,
9013,1480783411701,,,,,,,,0.01,0.1,1.01,-3.1,0.0,-0.1,580,0,,,,,,,,,,,,,,,,,,,
9033,1480783411721,,,,,,,,0.01,0.1,1.01,-3.1,-0.1,-0.2,680,0,,,,,,,,,,,,,,,,,,,
9053,1480783411721,0,133.7,7.4,173.6,1,152.4,11.43,0.01,0.09,1.0,-3.1,-0.2,-0.2,680,0,0,0,0.0,0,38.15918,-122.454437,0.0,0.0,59.1,7,2,2.5,0,0.0,-1,0.0,0.0,0.0,0
9073,1480783411741,,,,,,,,0.02,0.09,0.99,-3.1,-0.0,-0.0,780,0,,,,,,,,,,,,,,,,,,,
9093,1480783411761,,,,,,,,0.02,0.1,0.99,-3.2,-0.0,0.1,820,0,,,,,,,,,,,,,,,,,,,
9113,1480783411781,,,,,,,,0.02,0.1,1.0,-3.2,-0.1,0.1,780,0,,,,,,,,,,,,,,,,,,,
9133,1480783411801,,,,,,,,0.02,0.1,1.01,-3.2,-0.1,0.0,780,0,,,,,,,,,,,,,,,,,,,
9153,1480783411840,,,,,2,,,0.02,0.1,1.01,-3.2,-0.0,-0.0,760,0,0,0,0.0,0,38.15918,-122.454437,0.0,0.0,54.4,7,2,2.5,0,0.0,-1,0.0,,0.0,0
9173,1480783411860,,,,,,,,0.02,0.11,1.01,-3.2,-0.1,-0.0,680,0,,,,,,,,,,,,,,,,,,,
9193,1480783411880,,,,,,,,0.02,0.1,1.01,-3.2,-0.1,-0.1,660,0,,,,,,,,,,,,,,,,,,,
9213,1480783411900,,,,,,,,0.02,0.11,1.01,-3.2,-0.1,-0.1,660,0,,,,,,,,,,,,,,,,,,,
9233,1480783411920,,,,,,,,0.03,0.11,1.01,-3.2,0.1,-0.0,700,0,,,,,,,,,,,,,,,,,,,
9253,1480783411939,0,132.0,,172.5,1,153.0,,0.03,0.11,1.01,-3.2,0.2,-0.1,720,0,0,0,0.0,0,38.15918,-122.454437,0.0,0.0,50.6,7,2,2.5,0,0.0,-1,0.0,0.0,0.0,0
9273,1480783411959,,,,,,,,0.03,0.1,1.01,-3.1,0.1,-0.2,720,0,,,,,,,,,,,,,,,,,,,
9293,1480783411979,,,,,,,,0.03,0.1,1.01,-3.1,0.1,-0.1,660,0,,,,,,,,,,,,,,,,,,,
9313,1480783411999,,,,,,,,0.02,0.11,1.01,-3.1,0.1,-0.1,620,0,,,,,,,,,,,,,,,,,,,
9333,1480783412019,,,,,,,,0.02,0.1,1.01,-3.1,0.1,-0.1,620,0,,,,,,,,,,,,,,,,,,,
9353,1480783412138,,,,,2,,,0.02,0.1,1.02,-3.1,0.1,-0.1,580,0,0,0,0.0,0,38.15918,-122.454437,0.0,0.0,44.6,7,2,2.5,0,0.0,-1,0.0,,0.0,0
9373,1480783412158,,,,,,,,0.02,0.1,1.01,-3.1,0.1,-0.1,580,0,,,,,,,,,,,,,,,,,,,
9393,1480783412178,,,,,,,,0.02,0.1,1.01,-3.1,0.0,-0.1,520,0,,,,,,,,,,,,,,,,,,,
9413,1480783412198,,,,,,,,0.02,0.1,1.01,-3.1,0.0,-0.1,520,0,,,,,,,,,,,,,,,,,,,
9433,1480783412218,,,,,,,,0.02,0.1,1.01,-3.1,-0.1,-0.1,560,0,,,,,,,,,,,,,,,,,,,
9453,1480783412238,1,133.6,,173.6,3,153.0,,0.02,0.1,1.01,-3.1,-0.0,-0.1,540,0,0,0,0.0,0,38.15918,-122.454437,0.0,0.0,44.6,7,2,2.5,0,0.0,-1,0.0,0.0,0.0,0
9473,1480783412258,,,,,,,,0.02,0.1,1.01,-3.1,-0.0,-0.1,540,0,,,,,,,,,,,,,,,,,,,
9493,1480783412278,,,,,,,,0.02,0.1,1.01,-3.1,-0.1,-0.1,500,0,,,,,,,,,,,,,,,,,,,
9513,1480783412298,,,,,,,,0.02,0.1,1.01,-3.2,-0.1,-0.0,500,0,,,,,,,,,,,,,,,,,,,
9533,1480783412318,,,,,,,,0.02,0.1,1.01,-3.1,-0.0,-0.0,520,0,,,,,,,,,,,,,,,,,,,
9553,1480783412239,,,,,3,,,0.02,0.1,1.01,-3.2,-0.1,-0.1,520,0,0,0,0.0,0,38.15918,-122.454437,0.0,0.0,43.5,7,2,2.5,0,0.0,-1,0.0,,0.0,0
9573,1480783412259,,,,,,,,0.02,0.1,1.02,-3.1,-0.0,-0.1,540,0,,,,,,,,,,,,,,,,,,,
9593,1480783412279,,,,,,,,0.02,0.1,1.01,-3.1,0.0,-0.1,540,0,,,,,,,,,,,,,,,,,,,
9613,1480783412299,,,,,,,,0.02,0.1,1.01,-3.1,-0.0,-0.1,540,0,,,,,,,,,,,,,,,,,,,
9633,1480783412319,,,,,,,,0.01,0.1,1.01,-3.1,-0.1,-0.1,540,0,,,,,,,,,,,,,,,,,,,
9653,1480783412339,0,133.7,,173.4,4,152.3,,0.02,0.1,1.01,-3.1,-0.1,-0.1,520,0,0,0,0.0,0,38.159176,-122.454437,0.0,0.001,42.4,7,2,2.5,0,0.0,-1,0.0,0.0,0.0,0
9673,1480783412359,,,,,,,,0.01,0.1,1.01,-3.1,-0.1,-0.1,520,0,,,,,,,,,,,,,,,,,,,
9693,1480783412379,,,,,,,,0.01,0.1,1.01,-3.1,-0.1,-0.1,520,0,,,,,,,,,,,,,,,,,,,
9713,1480783412399,,,,,,,,0.01,0.09,1.01,-3.1,-0.1,-0.1,520,0,,,,,,,,,,,,,,,,,,,
9733,1480783412419,,,,,,,,0.02,0.1,1.01,-3.1,-0.1,-0.1,540,0,,,,,,,,,,,,,,,,,,,
9753,1480783412437,,,,,4,,,0.02,0.09,1.01,-3.1,-0.1,-0.1,520,0,0,0,0.0,0,38.159176,-122.454437,0.0,0.001,42.1,7,2,2.5,0,0.0,-1,0.0,,0.0,0
9773,1480783412457,,,,,,,,0.02,0.1,1.01,-3.1,-0.1,-0.1,520,0,,,,,,,,,,,,,,,,,,,
9793,1480783412477,,,,,,,,0.02,0.1,1.0,-3.1,-0.1,-0.0,520,0,,,,,,,,,,,,,,,,,,,
9813,1480783412497,,,,,,,,0.02,0.1,1.0,-3.1,-0.2,-0.1,520,0,,,,,,,,,,,,,,,,,,,
9833,1480783412517,,,,,,,,0.02,0.1,1.01,-3.1,-0.1,-0.1,500,0,,,,,,,,,,,,,,,,,,,
9853,1480783412537,0,132.3,,172.2,5,152.5,,0.02,0.1,1.01,-3.1,-0.1,-0.1,500,0,0,0,0.0,0,38.159176,-122.454437,0.0,0.001,42.1,7,2,2.5,0,0.0,-1,0.0,0.0,0.0,0
9873,1480783412557,,,,,,,,0.02,0.1,1.01,-3.1,-0.1,-0.1,500,0,,,,,,,,,,,,,,,,,,,
9893,1480783412577,,,,,,,,0.02,0.09,1.01,-3.1,-0.0,-0.1,500,0,,,,,,,,,,,,,,,,,,,
9913,1480783412597,,,,,,,,0.02,0.09,1.01,-3.1,-0.0,-0.1,480,0,,,,,,,,,,,,,,,,,,,
9933,1480783412617,,,,,,,,0.01,0.09,1.01,-3.1,-0.0,-0.1,480,0,,,,,,,,,,,,,,,,,,,
9953,1480783412637,,,,,7,,,0.01,0.09,1.01,-3.1,-0.0,-0.1,460,0,0,0,0.0,0,38.159176,-122.454437,0.0,0.001,42.1,7,2,2.5,0,0.0,-1,0.0,,0.0,0
9973,1480783412657,,,,,,,,0.01,0.09,1.01,-3.1,0.0,-0.1,460,0,,,,,,,,,,,,,,,,,,,
9993,1480783412677,,,,,,,,0.01,0.08,1.01,-3.1,0.0,-0.1,460,0,,,,,,,,,,,,,,,,,,,
10013,1480783412697,,,,,,,,0.01,0.09,1.01,-3.1,0.1,-0.1,440,0,,,,,,,,,,,,,,,,,,,
10033,1480783412717,,,,,,,,0.01,0.08,1.01,-3.1,0.0,-0.1,440,0,,,,,,,,,,,,,,,,,,,
10053,1480783412729,0,132.7,7.2,173.4,7,153.4,12.47,0.01,0.09,1.01,-3.1,0.0,-0.1,440,0,0,0,0.0,0,38.159176,-122.454437,0.0,0.001,42.1,7,2,2.5,0,0.0,-1,0.0,0.0,0.0,0
10073,1480783412749,,,,,,,,0.01,0.09,1.01,-3.1,0.0,-0.1,440,0,,,,,,,,,,,,,,,,,,,
10093,1480783412769,,,,,,,,0.02,0.09,1.01,-3.2,-0.0,-0.0,440,0,,,,,,,,,,,,,,,,,,,
10113,1480783412789,,,,,,,,0.02,0.09,1.01,-3.1,-0.0,-0.0,440,0,,,,,,,,,,,,,,,,,,,
10133,1480783412809,,,,,,,,0.02,0.09,1.01,-3.1,-0.1,-0.0,420,0,,,,,,,,,,,,,,,,,,,
10153,1480783412936,,,,,8,,,0.02,0.09,1.01,-3.2,-0.1,-0.0,420,0,0,0,0.0,0,38.159176,-122.454437,0.0,0.001,42.1,7,2,2.5,0,0.0,-1,0.0,,0.0,0
10173,1480783412956,,,,,,,,0.01,0.09,1.01,-3.1,-0.1,-0.1,420,0,,,,,,,,,,,,,,,,,,,
10193,1480783412976,,,,,,,,0.02,0.09,1.02,-3.1,-0.0,-0.1,420,0,,,,,,,,,,,,,,,,,,,
10213,1480783412996,,,,,,,,0.02,0.09,1.01,-3.1,-0.0,-0.1,420,0,,,,,,,,,,,,,,,,,,,
10233,1480783413016,,,,,,,,0.02,0.1,1.01,-3.1,-0.1,-0.1,400,0,,,,,,,,,,,,,,,,,,,
10253,1480783413036,0,133.9,,173.4,8,152.0,,0.01,0.09,1.01,-3.1,-0.0,-0.1,400,0,0,0,0.0,0,38.159176,-122.454437,0.0,0.001,42.1,7,2,2.5,0,0.0,-1,0.0,0.0,0.0,0
10273,1480783413056,,,,,,,,0.01,0.1,1.01,-3.1,-0.1,-0.1,400,0,,,,,,,,,,,,,,,,,,,
10293,1480783413076,,,,,,,,0.01,0.09,1.01,-3.2,-0.1,-0.1,400,0,,,,,,,,,,,,,,,,,,,
10313,1480783413096,,,,,,,,0.01,0.09,1.01,-3.1,-0.0,-0.1,400,0,,,,,,,,,,,,,,,,,,,
10333,1480783413116,,,,,,,,0.02,0.09,1.01,-3.2,-0.0,-0.1,400,0,,,,,,,,,,,,,,,,,,,
10353,1480783413036,,,,,8,,,0.01,0.09,1.01,-3.2,-0.0,-0.1,400,0,0,0,0.0,0,38.159176,-122.454437,0.0,0.001,42.1,7,2,2.5,0,0.0,-1,0.0,,0.0,0
10373,1480783413056,,,,,,,,0.02,0.09,1.01,-3.2,-0.0,-0.1,400,0,,,,,,,,,,,,,,,,,,,
10393,1480783413076,,,,,,,,0.01,0.09,1.01,-3.1,-0.0,-0.1,400,0,,,,,,,,,,,,,,,,,,,
10413,1480783413096,,,,,,,,0.01,0.09,1.01,-3.1,-0.0,-0.1,400,0,,,,,,,,,,,,,,,,,,,
10433,1480783413116,,,,,,,,0.02,0.1,1.01,-3.1,0.0,-0.1,380,0,,,,,,,,,,,,,,,,,,,
10453,1480783413137,0,133.1,,172.5,8,151.7,,0.02,0.09,1.01,-3.1,0.0,-0.1,380,0,0,0,0.0,0,38.159176,-122.454437,0.0,0.001,42.1,7,2,2.5,0,0.0,-1,0.0,0.0,0.0,0
10473,1480783413157,,,,,,,,0.02,0.1,1.01,-3.1,0.0,-0.1,380,0,,,,,,,,,,,,,,,,,,,
10493,1480783413177,,,,,,,,0.02,0.09,1.0,-3.1,-0.0,-0.1,380,0,,,,,,,,,,,,,,,,,,,
10513,1480783413197,,,,,,,,0.02,0.09,1.0,-3.1,-0.0,-0.1,380,0,,,,,,,,,,,,,,,,,,,
10533,1480783413217,,,,,,,,0.02,0.1,1.0,-3.1,-0.0,-0.1,380,0,,,,,,,,,,,,,,,,,,,
10553,1480783413236,,,,,9,,,0.02,0.09,1.01,-3.1,-0.0,-0.1,380,0,0,0,0.0,0,38.159176,-122.454437,0.0,0.001,42.1,7,2,2.5,0,0.0,-1,0.0,,0.0,0
10573,1480783413256,,,,,,,,0.02,0.1,1.01,-3.2,-0.1,-0.0,380,0,,,,,,,,,,,,,,,,,,,
10593,1480783413276,,,,,,,,0.02,0.1,1.01,-3.2,-0.1,-0.1,380,0,,,,,,,,,,,,,,,,,,,
10613,1480783413321,,,,,,,,0.02,0.09,1.01,-3.2,-0.1,-0.1,380,0,,,,,,,,,,,,,,,,,,,
10633,1480783413341,,,,,,,,0.02,0.1,1.01,-3.2,-0.1,-0.1,400,0,,,,,,,,,,,,,,,,,,,
10653,1480783413361,0,133.0,,172.5,9,151.9,,0.02,0.1,1.01,-3.2,-0.1,-0.0,400,0,0,0,0.0,0,38.159176,-122.454437,0.0,0.001,46.1,8,2,2.4,0,0.0,-1,0.0,0.0,0.0,0
10673,1480783413381,,,,,,,,0.02,0.1,1.01,-3.2,-0.1,-0.0,400,0,,,,,,,,,,,,,,,,,,,
10693,1480783413401,,,,,,,,0.02,0.1,1.01,-3.1,-0.1,-0.0,380,0,,,,,,,,,,,,,,,,,,,
10713,1480783413421,,,,,,,,0.02,0.09,1.01,-3.1,-0.1,-0.0,380,0,,,,,,,,,,,,,,,,,,,
10733,1480783413410,,,,,,,,0.02,0.1,1.01,-3.2,-0.1,-0.0,380,0,,,,,,,,,,,,,,,,,,,
10753,1480783413430,,,,,9,,,0.02,0.1,1.0,-3.2,-0.1,-0.0,380,0,0,0,0.0,0,38.159176,-122.454437,0.0,0.001,46.1,8,2,2.4,0,0.0,-1,0.0,,0.0,0
10773,1480783413450,,,,,,,,0.02,0.1,1.0,-3.1,-0.1,-0.0,380,0,,,,,,,,,,,,,,,,,,,
10793,1480783413470,,,,,,,,0.02,0.1,1.0,-3.1,-0.1,-0.0,380,0,,,,,,,,,,,,,,,,,,,
10813,1480783413490,,,,,,,,0.02,0.09,1.01,-3.1,-0.2,-0.1,380,0,,,,,,,,,,,,,,,,,,,
10833,1480783413510,,,,,,,,0.02,0.1,1.0,-3.1,-0.2,-0.1,400,0,,,,,,,,,,,,,,,,,,,
10853,1480783413530,0,133.8,,173.8,10,153.2,,0.02,0.1,1.01,-3.1,-0.1,-0.0,400,0,0,0,0.0,0,38.159176,-122.454437,0.0,0.001,46.1,8,2,2.4,0,0.0,-1,0.0,0.0,0.0,0
10873,1480783413550,,,,,,,,0.02,0.1,1.01,-3.1,-0.1,-0.0,400,0,,,,,,,,,,,,,,,,,,,
10893,1480783413570,,,,,,,,0.02,0.1,1.01,-3.1,-0.1,-0.0,400,0,,,,,,,,,,,,,,,,,,,
10913,1480783413590,,,,,,,,0.02,0.09,1.01,-3.1,-0.1,-0.0,400,0,,,,,,,,,,,,,,,,,,,
10933,1480783413709,,,,,,,,0.02,0.1,1.01,-3.1,-0.1,-0.0,400,0,,,,,,,,,,,,,,,,,,,
10953,1480783413729,,,,,10,,,0.02,0.1,1.01,-3.1,-0.1,-0.0,400,0,0,0,0.0,0,38.159176,-122.454437,0.0,0.001,46.1,8,2,2.4,0,0.0,-1,0.0,,0.0,0
10973,1480783413749,,,,,,,,0.02,0.1,1.01,-3.1,-0.1,-0.0,400,0,,,,,,,,,,,,,,,,,,,
10993,1480783413769,,,,,,,,0.02,0.1,1.01,-3.1,-0.1,-0.0,400,0,,,,,,,,,,,,,,,,,,,
11013,1480783413789,,,,,,,,0.02,0.09,1.01,-3.1,-0.0,-0.0,400,0,,,,,,,,,,,,,,,,,,,
11033,1480783413809,,,,,,,,0.02,0.1,1.01,-3.1,-0.0,-0.0,400,0,,,,,,,,,,,,,,,,,,,
11053,1480783413829,0,132.1,6.6,172.8,10,153.5,12.34,0.02,0.1,1.01,-3.1,-0.1,-0.0,400,0,0,0,0.0,0,38.159176,-122.454437,0.0,0.001,46.1,8,2,2.4,0,0.0,-1,0.0,0.0,0.0,0
11073,1480783413849,,,,,,,,0.02,0.1,1.01,-3.1,-0.1,-0.0,400,0,,,,,,,,,,,,,,,,,,,
11093,1480783413869,,,,,,,,0.02,0.1,1.01,-3.1,-0.0,-0.0,400,0,,,,,,,,,,,,,,,,,,,
11113,1480783413889,,,,,,,,0.02,0.1,1.01,-3.1,-0.0,-0.1,400,0,,,,,,,,,,,,,,,,,,,
11133,1480783413810,,,,,,,,0.02,0.1,1.01,-3.1,-0.0,-0.1,400,0,,,,,,,,,,,,,,,,,,,
11153,1480783413830,,,,,11,,,0.02,0.1,1.01,-3.1,-0.1,-0.1,400,0,0,0,0.0,0,38.159176,-122.454437,0.0,0.001,46.1,8,2,2.4,0,0.0,-1,0.0,,0.0,0
11173,1480783413850,,,,,,,,0.02,0.1,1.01,-3.1,-0.1,-0.0,400,0,,,,,,,,,,,,,,,,,,,
11193,1480783413870,,,,,,,,0.02,0.1,1.01,-3.1,-0.1,-0.0,400,0,,,,,,,,,,,,,,,,,,,
11213,1480783413890,,,,,,,,0.02,0.1,1.01,-3.1,-0.1,-0.0,400,0,,,,,,,,,,,,,,,,,,,
11233,1480783413902,,,,,,,,0.02,0.1,1.01,-3.1,-0.1,-0.0,400,0,,,,,,,,,,,,,,,,,,,
11253,1480783413922,0,132.4,,172.1,11,152.3,,0.02,0.09,1.01,-3.1,-0.1,-0.0,400,0,0,0,0.0,0,38.159176,-122.454437,0.0,0.001,46.1,8,2,2.4,0,0.0,-1,0.0,0.0,0.0,0
11273,1480783413942,,,,,,,,0.02,0.1,1.0,-3.1,-0.1,-0.0,420,0,,,,,,,,,,,,,,,,,,,
11293,1480783413962,,,,,,,,0.02,0.09,1.01,-3.1,-0.2,-0.1,420,0,,,,,,,,,,,,,,,,,,,
11313,1480783413982,,,,,,,,0.02,0.1,1.01,-3.1,-0.2,-0.1,400,0,,,,,,,,,,,,,,,,,,,
11333,1480783414010,,,,,,,,0.02,0.09,1.01,-3.1,-0.2,-0.1,400,0,,,,,,,,,,,,,,,,,,,
11353,1480783414030,,,,,12,,,0.02,0.09,1.01,-3.1,-0.2,-0.1,400,0,0,0,0.0,0,38.159176,-122.454437,0.0,0.001,46.1,8,2,2.4,0,0.0,-1,0.0,,0.0,0
11373,1480783414050,,,,,,,,0.02,0.1,1.01,-3.1,-0.1,-0.1,400,0,,,,,,,,,,,,,,,,,,,
11393,1480783414070,,,,,,,,0.02,0.09,1.01,-3.1,-0.1,-0.1,400,0,,,,,,,,,,,,,,,,,,,
11413,1480783414090,,,,,,,,0.02,0.1,1.01,-3.1,-0.1,-0.1,420,0,,,,,,,,,,,,,,,,,,,
11433,1480783414109,,,,,,,,0.02,0.09,1.01,-3.1,-0.1,-0.1,420,0,,,,,,,,,,,,,,,,,,,
11453,1480783414129,0,133.7,,173.7,12,153.4,,0.02,0.09,1.01,-3.1,-0.1,-0.1,420,0,0,0,0.0,0,38.159176,-122.454437,0.0,0.001,46.1,8,2,2.4,0,0.0,-1,0.0,0.0,0.0,0
11473,1480783414149,,,,,,,,0.02,0.09,1.01,-3.2,-0.1,-0.1,420,0,,,,,,,,,,,,,,,,,,,
11493,1480783414169,,,,,,,,0.01,0.09,1.01,-3.1,-0.1,-0.1,420,0,,,,,,,,,,,,,,,,,,,
11513,1480783414189,,,,,,,,0.01,0.09,1.01,-3.1,-0.1,-0.1,420,0,,,,,,,,,,,,,,,,,,,
11533,1480783414209,,,,,,,,0.01,0.09,1.01,-3.1,-0.0,-0.1,420,0,,,,,,,,,,,,,,,,,,,
11553,1480783414229,,,,,13,,,0.02,0.09,1.01,-3.1,-0.0,-0.0,420,0,0,0,0.0,0,38.159176,-122.454437,0.0,0.001,46.1,8,2,2.4,0,0.0,-1,0.0,,0.0,0
11573,1480783414249,,,,,,,,0.02,0.09,1.01,-3.1,-0.0,-0.0,420,0,,,,,,,,,,,,,,,,,,,
11593,1480783414269,,,,,,,,0.02,0.09,1.01,-3.1,-0.1,-0.1,420,0,,,,,,,,,,,,,,,,,,,
11613,1480783414289,,,,,,,,0.01,0.09,1.01,-3.1,-0.1,-0.0,420,0,,,,,,,,,,,,,,,,,,,
11633,1480783414309,,,,,,,,0.01,0.09,1.01,-3.1,-0.1,-0.1,420,0,,,,,,,,,,,,,,,,,,,
11653,1480783414329,0,133.1,,172.7,13,151.9,,0.02,0.09,1.01,-3.1,-0.1,-0.0,400,0,0,0,0.0,0,38.159176,-122.454437,0.0,0.001,46.1,8,2,2.4,0,0.0,-1,0.0,0.0,0.0,0
11673,1480783414349,,,,,,,,0.02,0.09,1.01,-3.1,-0.1,-0.0,400,0,,,,,,,,,,,,,,,,,,,
11693,1480783414369,,,,,,,,0.02,0.1,1.01,-3.2,-0.1,-0.0,400,0,,,,,,,,,,,,,,,,,,,
11713,1480783414389,,,,,,,,0.02,0.09,1.0,-3.2,-0.1,-0.0,400,0,,,,,,,,,,,,,,,,,,,
11733,1480783414508,,,,,,,,0.02,0.09,1.0,-3.1,-0.1,-0.0,400,0,,,,,,,,,,,,,,,,,,,
11753,1480783414528,,,,,14,,,0.02,0.1,1.0,-3.2,-0.1,-0.0,420,0,0,0,0.0,0,38.159176,-122.454437,0.0,0.001,46.1,8,2,2.4,0,0.0,-1,0.0,,0.0,0
11773,1480783414548,,,,,,,,0.02,0.09,1.0,-3.2,-0.1,-0.0,420,0,,,,,,,,,,,,,,,,,,,
11793,1480783414568,,,,,,,,0.02,0.1,1.0,-3.2,-0.1,-0.0,420,44,,,,,,,,,,,,,,,,,,,
11813,1480783414588,,,,,,,,0.02,0.09,1.0,-3.2,-0.1,-0.0,420,44,,,,,,,,,,,,,,,,,,,
11833,1480783414608,,,,,,,,0.02,0.1,1.01,-3.1,-0.1,-0.1,420,44,,,,,,,,,,,,,,,,,,,
11853,1480783414628,0,133.8,,173.6,14,152.9,,0.02,0.1,1.01,-3.1,-0.0,-0.1,420,12,0,0,0.0,0,38.159176,-122.454437,0.0,0.001,46.1,8,2,2.4,0,0.0,-1,0.0,0.0,0.0,0
11873,1480783414648,,,,,,,,0.02,0.09,1.01,-3.1,-0.1,-0.1,420,12,,,,,,,,,,,,,,,,,,,
11893,1480783414668,,,,,,,,0.02,0.1,1.01,-3.1,-0.0,-0.0,420,12,,,,,,,,,,,,,,,,,,,
11913,1480783414688,,,,,,,,0.02,0.09,1.01,-3.1,-0.1,-0.1,420,12,,,,,,,,,,,,,,,,,,,
11933,1480783414609,,,,,,,,0.02,0.1,1.01,-3.1,-0.1,-0.0,400,12,,,,,,,,,,,,,,,,,,,
11953,1480783414629,,,,,14,,,0.02,0.1,1.01,-3.1,-0.0,0.0,400,12,0,0,35.0,0,38.159176,-122.454437,0.0,0.001,46.1,8,2,2.4,0,0.0,-1,0.0,,0.0,0
11973,1480783414649,,,,,,,,0.02,0.1,1.01,-3.1,-0.0,-0.0,400,0,,,,,,,,,,,,,,,,,,,
11993,1480783414669,,,,,,,,0.02,0.1,1.01,-3.1,-0.1,-0.0,420,0,,,,,,,,,,,,,,,,,,,
12013,1480783414689,,,,,,,,0.02,0.1,1.01,-3.1,-0.1,-0.0,420,0,,,,,,,,,,,,,,,,,,,
12033,1480783414708,,,,,,,,0.02,0.1,1.01,-3.1,-0.1,-0.0,420,0,,,,,,,,,,,,,,,,,,,
12053,1480783414728,0,133.6,7.1,173.7,15,153.4,12.4,0.02,0.1,1.01,-3.1,-0.1,-0.0,420,0,0,0,0.001,0,38.159176,-122.454437,0.0,0.001,46.1,8,2,2.4,0,0.0,-1,0.0,0.0,0.0,0
12073,1480783414748,,,,,,,,0.02,0.1,1.01,-3.1,-0.0,-0.0,420,0,,,,,,,,,,,,,,,,,,,
12093,1480783414768,,,,,,,,0.02,0.1,1.01,-3.1,-0.0,-0.0,420,0,,,,,,,,,,,,,,,,,,,
12113,1480783414788,,,,,,,,0.02,0.1,1.01,-3.1,-0.1,-0.0,420,0,,,,,,,,,,,,,,,,,,,
12133,1480783414808,,,,,,,,0.02,0.1,1.01,-3.2,-0.1,-0.0,420,0,,,,,,,,,,,,,,,,,,,
12153,1480783414828,,,,,14,,,0.02,0.1,1.01,-3.1,-0.1,-0.1,420,0,0,0,0.0,0,38.159176,-122.454437,0.0,0.001,46.1,8,2,2.4,0,0.0,-1,0.0,,0.0,0
12173,1480783414848,,,,,,,,0.02,0.1,1.01,-3.2,-0.1,-0.1,420,0,,,,,,,,,,,,,,,,,,,
12193,1480783414868,,,,,,,,0.02,0.1,1.01,-3.2,-0.1,-0.1,420,0,,,,,,,,,,,,,,,,,,,
12213,1480783414888,,,,,,,,0.02,0.1,1.01,-3.2,-0.1,-0.1,400,0,,,,,,,,,,,,,,,,,,,
12233,1480783414900,,,,,,,,0.02,0.1,1.01,-3.2,-0.1,-0.1,400,0,,,,,,,,,,,,,,,,,,,
12253,1480783414920,0,133.5,,173.3,15,152.0,,0.02,0.1,1.01,-3.2,-0.1,-0.1,400,0,0,0,0.0,0,38.159176,-122.454437,0.0,0.001,46.1,8,2,2.4,0,0.0,-1,0.0,0.0,0.0,0
12273,1480783414940,,,,,,,,0.02,0.1,1.01,-3.2,-0.1,-0.1,420,0,,,,,,,,,,,,,,,,,,,
12293,1480783414960,,,,,,,,0.02,0.1,1.02,-3.2,-0.1,-0.1,420,0,,,,,,,,,,,,,,,,,,,
12313,1480783414980,,,,,,,,0.02,0.1,1.02,-3.2,-0.1,-0.1,400,0,,,,,,,,,,,,,,,,,,,
12333,1480783415007,,,,,,,,0.01,0.1,1.02,-3.2,-0.1,-0.1,400,0,,,,,,,,,,,,,,,,,,,
12353,1480783415027,,,,,15,,,0.01,0.1,1.02,-3.2,-0.1,-0.1,420,0,0,0,0.0,0,38.159176,-122.454437,0.0,0.001,46.1,8,2,2.4,0,0.0,-1,0.0,,0.0,0
12373,1480783415047,,,,,,,,0.01,0.1,1.02,-3.2,-0.2,-0.1,420,0,,,,,,,,,,,,,,,,,,,
12393,1480783415067,,,,,,,,0.01,0.1,1.02,-3.1,-0.1,-0.1,420,0,,,,,,,,,,,,,,,,,,,
12413,1480783415087,,,,,,,,0.01,0.1,1.01,-3.2,-0.1,-0.1,420,0,,,,,,,,,,,,,,,,,,,
12433,1480783415107,,,,,,,,0.01,0.1,1.01,-3.2,-0.1,-0.1,420,0,,,,,,,,,,,,,,,,,,,
12453,1480783415127,0,132.2,,173.4,15,153.3,,0.01,0.1,1.01,-3.2,-0.1,-0.1,420,0,0,0,0.0,0,38.159176,-122.454437,0.0,0.001,46.1,8,2,2.4,0,0.0,-1,0.0,0.0,0.0,0
12473,1480783415147,,,,,,,,0.02,0.1,1.01,-3.1,-0.1,-0.1,420,0,,,,,,,,,,,,,,,,,,,
12493,1480783415167,,,,,,,,0.02,0.1,1.01,-3.1,-0.1,-0.1,420,0,,,,,,,,,,,,,,,,,,,
12513,1480783415187,,,,,,,,0.02,0.1,1.01,-3.1,-0.1,-0.0,400,0,,,,,,,,,,,,,,,,,,,
12533,1480783415306,,,,,,,,0.01,0.09,1.01,-3.1,-0.1,-0.1,400,0,,,,,,,,,,,,,,,,,,,
12553,1480783415326,,,,,15,,,0.01,0.1,1.01,-3.1,-0.1,-0.1,400,0,0,0,0.0,0,38.159176,-122.454437,0.0,0.001,46.1,8,2,2.4,0,0.0,-1,0.0,,0.0,0
12573,1480783415346,,,,,,,,0.01,0.09,1.01,-3.1,-0.1,-0.1,400,0,,,,,,,,,,,,,,,,,,,
12593,1480783415366,,,,,,,,0.01,0.1,1.01,-3.1,-0.1,-0.1,420,0,,,,,,,,,,,,,,,,,,,
12613,1480783415386,,,,,,,,0.01,0.1,1.01,-3.1,-0.1,-0.1,420,0,,,,,,,,,,,,,,,,,,,
12633,1480783415406,,,,,,,,0.01,0.1,1.01,-3.1,-0.1,-0.1,420,0,,,,,,,,,,,,,,,,,,,
12653,1480783415426,0,133.5,,173.4,16,152.7,,0.01,0.1,1.01,-3.1,-0.1,-0.0,420,0,0,0,0.0,0,38.159176,-122.454437,0.0,0.001,46.1,8,2,2.4,0,0.0,-1,0.0,0.0,0.0,0
12673,1480783415446,,,,,,,,0.01,0.09,1.01,-3.1,-0.1,-0.1,420,0,,,,,,,,,,,,,,,,,,,
12693,1480783415466,,,,,,,,0.02,0.1,1.01,-3.2,-0.1,-0.0,420,0,,,,,,,,,,,,,,,,,,,
12713,1480783415486,,,,,,,,0.01,0.1,1.01,-3.2,-0.1,-0.0,420,0,,,,,,,,,,,,,,,,,,,
12733,1480783415406,,,,,,,,0.02,0.1,1.02,-3.1,-0.1,-0.0,420,0,,,,,,,,,,,,,,,,,,,
12753,1480783415426,,,,,16,,,0.02,0.1,1.02,-3.1,-0.1,-0.0,420,0,0,0,0.0,0,38.159176,-122.454437,0.0,0.001,46.1,8,2,2.4,0,0.0,-1,0.0,,0.0,0
12773,1480783415446,,,,,,,,0.01,0.09,1.01,-3.1,-0.1,-0.1,420,0,,,,,,,,,,,,,,,,,,,
12793,1480783415466,,,,,,,,0.02,0.1,1.01,-3.1,-0.1,-0.0,420,0,,,,,,,,,,,,,,,,,,,
12813,1480783415486,,,,,,,,0.02,0.09,1.01,-3.1,-0.1,-0.0,420,0,,,,,,,,,,,,,,,,,,,
12833,1480783415506,,,,,,,,0.02,0.1,1.01,-3.1,-0.1,-0.0,420,0,,,,,,,,,,,,,,,,,,,
12853,1480783415526,0,133.4,,173.3,15,152.3,,0.02,0.1,1.01,-3.1,-0.1,-0.0,420,0,0,0,0.0,0,38.159176,-122.454437,0.0,0.001,46.1,8,2,2.4,0,0.0,-1,0.0,0.0,0.0,0
12873,1480783415546,,,,,,,,0.02,0.1,1.01,-3.1,-0.1,-0.0,420,0,,,,,,,,,,,,,,,,,,,
12893,1480783415566,,,,,,,,0.02,0.1,1.01,-3.2,-0.1,-0.0,420,0,,,,,,,,,,,,,,,,,,,
12913,1480783415586,,,,,,,,0.02,0.1,1.01,-3.1,-0.1,-0.1,420,0,,,,,,,,,,,,,,,,,,,
12933,1480783415606,,,,,,,,0.02,0.1,1.01,-3.2,-0.1,-0.1,420,0,,,,,,,,,,,,,,,,,,,
12953,1480783415626,,,,,17,,,0.02,0.09,1.01,-3.2,-0.1,-0.1,420,0,0,0,0.0,0,38.159176,-122.454437,0.0,0.001,46.1,8,2,2.4,0,0.0,-1,0.0,,0.0,0
12973,1480783415646,,,,,,,,0.02,0.1,1.01,-3.2,-0.1,-0.1,420,0,,,,,,,,,,,,,,,,,,,
12993,1480783415666,,,,,,,,0.02,0.1,1.01,-3.2,-0.1,-0.1,420,0,,,,,,,,,,,,,,,,,,,
13013,1480783415686,,,,,,,,0.02,0.1,1.01,-3.1,-0.1,-0.1,420,0,,,,,,,,,,,,,,,,,,,
13033,1480783415707,,,,,,,,0.02,0.1,1.01,-3.2,-0.1,-0.0,420,0,,,,,,,,,,,,,,,,,,,
13053,1480783415727,0,132.9,6.2,172.4,16,152.1,12.43,0.02,0.1,1.01,-3.1,-0.1,-0.1,420,0,0,0,0.0,0,38.159176,-122.454437,0.0,0.001,46.1,8,2,2.4,0,0.0,-1,0.0,0.0,0.0,0
13073,1480783415747,,,,,,,,0.02,0.1,1.01,-3.2,-0.1,-0.0,420,0,,,,,,,,,,,,,,,,,,,
13093,1480783415767,,,,,,,,0.02,0.1,1.01,-3.2,-0.1,-0.1,420,0,,,,,,,,,,,,,,,,,,,
13113,1480783415787,,,,,,,,0.02,0.1,1.01,-3.2,-0.1,-0.1,420,0,,,,,,,,,,,,,,,,,,,
13133,1480783415806,,,,,,,,0.02,0.1,1.01,-3.2,-0.1,-0.0,420,0,,,,,,,,,,,,,,,,,,,
13153,1480783415826,,,,,16,,,0.02,0.1,1.01,-3.2,-0.1,-0.0,420,0,0,0,0.0,0,38.159176,-122.454437,0.0,0.001,46.1,8,2,2.4,0,0.0,-1,0.0,,0.0,0
13173,1480783415846,,,,,,,,0.02,0.1,1.01,-3.2,-0.0,-0.0,420,0,,,,,,,,,,,,,,,,,,,
13193,1480783415866,,,,,,,,0.02,0.09,1.01,-3.2,-0.0,-0.1,420,0,,,,,,,,,,,,,,,,,,,
13213,1480783415886,,,,,,,,0.02,0.1,1.01,-3.2,-0.0,-0.0,420,0,,,,,,,,,,,,,,,,,,,
13233,1480783415898,,,,,,,,0.02,0.1,1.01,-3.2,-0.0,-0.0,420,0,,,,,,,,,,,,,,,,,,,
13253,1480783415918,0,133.5,,173.5,17,153.1,,0.02,0.1,1.01,-3.2,-0.1,-0.0,420,0,0,0,0.0,0,38.159176,-122.454437,0.0,0.001,46.1,8,2,2.4,0,0.0,-1,0.0,0.0,0.0,0
13273,1480783415938,,,,,,,,0.02,0.1,1.01,-3.2,-0.1,-0.0,420,0,,,,,,,,,,,,,,,,,,,
13293,1480783415958,,,,,,,,0.02,0.1,1.01,-3.2,-0.1,-0.0,420,0,,,,,,,,,,,,,,,,,,,
13313,1480783415978,,,,,,,,0.02,0.1,1.01,-3.2,-0.1,-0.0,420,0,,,,,,,,,,,,,,,,,,,
13333,1480783416106,,,,,,,,0.02,0.1,1.01,-3.2,-0.1,-0.1,420,0,,,,,,,,,,,,,,,,,,,
13353,1480783416126,,,,,16,,,0.02,0.1,1.01,-3.2,-0.1,-0.0,420,0,0,0,0.0,0,38.159176,-122.454437,0.0,0.001,46.1,8,2,2.4,0,0.0,-1,0.0,,0.0,0
13373,1480783416146,,,,,,,,0.02,0.1,1.01,-3.2,-0.1,-0.0,420,0,,,,,,,,,,,,,,,,,,,
13393,1480783416166,,,,,,,,0.02,0.1,1.01,-3.2,-0.1,-0.0,420,0,,,,,,,,,,,,,,,,,,,
13413,1480783416186,,,,,,,,0.02,0.1,1.01,-3.2,-0.1,-0.0,420,0,,,,,,,,,,,,,,,,,,,
13433,1480783416206,,,,,,,,0.02,0.1,1.01,-3.2,-0.1,-0.1,420,0,,,,,,,,,,,,,,,,,,,
13453,1480783416226,0,133.1,,172.8,17,152.0,,0.02,0.1,1.01,-3.2,-0.1,-0.0,420,0,0,0,0.0,0,38.159176,-122.454437,0.0,0.001,46.1,8,2,2.4,0,0.0,-1,0.0,0.0,0.0,0
13473,1480783416246,,,,,,,,0.02,0.1,1.01,-3.1,-0.1,-0.1,420,0,,,,,,,,,,,,,,,,,,,
13493,1480783416266,,,,,,,,0.02,0.1,1.01,-3.2,-0.1,-0.1,420,0,,,,,,,,,,,,,,,,,,,
13513,1480783416286,,,,,,,,0.02,0.09,1.0,-3.1,-0.1,-0.1,420,0,,,,,,,,,,,,,,,,,,,
13533,1480783416206,,,,,,,,0.02,0.09,1.01,-3.1,-0.1,-0.1,420,0,,,,,,,,,,,,,,,,,,,
13553,1480783416226,,,,,15,,,0.02,0.09,1.01,-3.1,-0.0,-0.1,420,0,0,0,0.0,0,38.159176,-122.454437,0.0,0.001,46.1,8,2,2.4,0,0.0,-1,0.0,,0.0,0
13573,1480783416246,,,,,,,,0.02,0.09,1.01,-3.1,-0.0,-0.1,420,0,,,,,,,,,,,,,,,,,,,
13593,1480783416266,,,,,,,,0.02,0.1,1.01,-3.1,-0.1,-0.0,420,0,,,,,,,,,,,,,,,,,,,
13613,1480783416286,,,,,,,,0.02,0.09,1.01,-3.1,-0.1,-0.1,420,0,,,,,,,,,,,,,,,,,,,
13633,1480783416307,,,,,,,,0.02,0.1,1.01,-3.1,-0.1,-0.0,420,0,,,,,,,,,,,,,,,,,,,
13653,1480783416327,0,132.5,,172.2,16,152.4,,0.02,0.09,1.01,-3.1,-0.1,-0.1,420,0,0,0,0.0,0,38.159176,-122.454437,0.0,0.001,46.1,8,2,2.4,0,0.0,-1,0.0,0.0,0.0,0
13673,1480783416347,,,,,,,,0.02,0.1,1.01,-3.1,-0.1,-0.1,420,0,,,,,,,,,,,,,,,,,,,
13693,1480783416367,,,,,,,,0.02,0.1,1.01,-3.1,-0.0,-0.0,420,0,,,,,,,,,,,,,,,,,,,
13713,1480783416387,,,,,,,,0.02,0.1,1.01,-3.1,-0.0,-0.1,420,0,,,,,,,,,,,,,,,,,,,
13733,1480783416402,,,,,,,,0.02,0.1,1.01,-3.1,-0.1,-0.0,420,0,,,,,,,,,,,,,,,,,,,
13753,1480783416422,,,,,17,,,0.02,0.1,1.01,-3.1,-0.0,-0.1,420,0,0,0,0.0,0,38.159176,-122.454437,0.0,0.001,46.1,8,2,2.4,0,0.0,-1,0.0,,0.0,0
13773,1480783416442,,,,,,,,0.02,0.11,1.01,-3.2,0.0,0.0,440,0,,,,,,,,,,,,,,,,,,,
13793,1480783416462,,,,,,,,0.02,0.1,1.01,-3.1,-0.0,-0.0,440,0,,,,,,,,,,,,,,,,,,,
13813,1480783416482,,,,,,,,0.02,0.1,1.01,-3.1,-0.1,0.0,520,0,,,,,,,,,,,,,,,,,,,
13833,1480783416507,,,,,,,,0.02,0.1,1.01,-3.1,-0.1,-0.0,620,0,,,,,,,,,,,,,,,,,,,
13853,1480783416527,0,133.3,,173.3,17,152.2,,0.01,0.08,1.02,-3.1,-0.2,-0.2,620,0,0,0,0.0,0,38.159176,-122.454437,0.0,0.001,46.1,8,2,2.4,0,0.0,-1,0.0,0.0,0.0,0
13873,1480783416547,,,,,,,,0.01,0.09,1.02,-3.1,-0.1,-0.2,720,0,,,,,,,,,,,,,,,,,,,
13893,1480783416567,,,,,,,,0.01,0.1,1.01,-3.2,-0.1,0.0,860,0,,,,,,,,,,,,,,,,,,,
13913,1480783416587,,,,,,,,0.02,0.11,1.02,-3.2,0.2,0.1,920,0,,,,,,,,,,,,,,,,,,,
13933,1480783416607,,,,,,,,0.03,0.11,1.01,-3.2,0.1,0.1,1000,0,,,,,,,,,,,,,,,,,,,
13953,1480783416627,,,,,24,,,0.03,0.12,1.01,-3.2,-0.1,0.1,1040,0,0,0,0.0,0,38.159176,-122.454437,0.0,0.001,46.1,8,2,2.4,0,0.0,-1,0.0,,0.0,0
13973,1480783416647,,,,,,,,0.03,0.12,1.01,-3.2,0.1,0.0,1080,0,,,,,,,,,,,,,,,,,,,
13993,1480783416667,,,,,,,,0.03,0.12,1.01,-3.2,0.1,-0.0,1100,0,,,,,,,,,,,,,,,,,,,
14013,1480783416687,,,,,,,,0.03,0.12,1.01,-3.2,0.1,0.0,1140,0,,,,,,,,,,,,,,,,,,,
14033,1480783416706,,,,,,,,0.03,0.12,1.01,-3.2,0.0,0.0,1160,0,,,,,,,,,,,,,,,,,,,
14053,1480783416726,0,133.6,6.6,173.4,30,151.9,14.41,0.02,0.12,1.01,-3.2,-0.1,-0.0,1160,0,0,0,0.0,0,38.159176,-122.454437,0.0,0.001,46.1,8,2,2.4,0,0.0,-1,0.0,0.0,0.0,0
14073,1480783416746,,,,,,,,0.02,0.11,1.01,-3.1,-0.1,-0.1,1200,0,,,,,,,,,,,,,,,,,,,
14093,1480783416766,,,,,,,,0.02,0.11,1.0,-3.1,-0.1,-0.2,1180,0,,,,,,,,,,,,,,,,,,,
14113,1480783416786,,,,,,,,0.02,0.11,1.01,-3.1,-0.1,-0.1,1200,0,,,,,,,,,,,,,,,,,,,
14133,1480783416907,,,,,,,,0.02,0.1,1.01,-3.1,-0.2,-0.1,1220,0,,,,,,,,,,,,,,,,,,,
14153,1480783416927,,,,,30,,,0.01,0.1,1.01,-3.1,-0.3,-0.0,1200,0,0,0,0.0,0,38.159176,-122.454437,0.0,0.001,46.1,8,2,2.4,0,0.0,-1,0.0,,0.0,0
14173,1480783416947,,,,,,,,0.02,0.1,1.01,-3.1,-0.2,-0.0,1200,0,,,,,,,,,,,,,,,,,,,
14193,1480783416967,,,,,,,,0.02,0.1,1.01,-3.1,-0.3,-0.0,1180,0,,,,,,,,,,,,,,,,,,,
14213,1480783416987,,,,,,,,0.01,0.1,1.01,-3.1,-0.2,-0.1,1180,0,,,,,,,,,,,,,,,,,,,
14233,1480783417007,,,,,,,,0.01,0.1,1.01,-3.1,-0.3,-0.1,1140,0,,,,,,,,,,,,,,,,,,,
14253,1480783417027,0,133.3,,173.6,37,153.1,,0.01,0.1,1.01,-3.1,-0.3,-0.1,1140,0,0,0,0.0,0,38.159176,-122.454437,0.0,0.001,46.1,8,2,2.4,0,0.0,-1,0.0,0.0,0.0,0
14273,1480783417047,,,,,,,,0.01,0.1,1.01,-3.1,-0.2,-0.1,1100,0,,,,,,,,,,,,,,,,,,,
14293,1480783417067,,,,,,,,0.01,0.1,1.02,-3.2,-0.1,-0.1,1060,0,,,,,,,,,,,,,,,,,,,
14313,1480783417087,,,,,,,,0.01,0.1,1.01,-3.1,-0.1,-0.0,1060,0,,,,,,,,,,,,,,,,,,,
14333,1480783417007,,,,,,,,0.01,0.1,1.01,-3.1,-0.1,-0.1,1020,0,,,,,,,,,,,,,,,,,,,
14353,1480783417027,,,,,39,,,0.01,0.1,1.01,-3.2,-0.1,-0.1,1020,0,0,0,0.0,0,38.159176,-122.454437,0.0,0.001,46.1,8,2,2.4,0,0.0,-1,0.0,,0.0,0
14373,1480783417047,,,,,,,,0.01,0.1,1.01,-3.2,-0.1,-0.1,1000,0,,,,,,,,,,,,,,,,,,,
14393,1480783417067,,,,,,,,0.01,0.1,1.01,-3.1,-0.2,-0.1,840,0,,,,,,,,,,,,,,,,,,,
14413,1480783417087,,,,,,,,0.01,0.1,1.01,-3.2,-0.2,-0.0,920,0,,,,,,,,,,,,,,,,,,,
14433,1480783417107,,,,,,,,0.01,0.1,1.01,-3.2,-0.2,-0.0,900,0,,,,,,,,,,,,,,,,,,,
14453,1480783417127,0,131.6,,172.7,41,151.9,,0.01,0.1,1.01,-3.2,-0.2,-0.0,840,0,0,0,0.0,0,38.159176,-122.454437,0.0,0.001,46.1,8,2,2.4,0,0.0,-1,0.0,0.0,0.0,0
14473,1480783417147,,,,,,,,0.02,0.1,1.01,-3.2,-0.2,-0.1,800,0,,,,,,,,,,,,,,,,,,,
14493,1480783417167,,,,,,,,0.02,0.1,1.01,-3.2,-0.2,-0.1,800,0,,,,,,,,,,,,,,,,,,,
14513,1480783417187,,,,,,,,0.02,0.1,1.01,-3.2,-0.2,-0.1,760,0,,,,,,,,,,,,,,,,,,,
14533,1480783417207,,,,,,,,0.02,0.1,1.01,-3.2,-0.2,-0.1,720,0,,,,,,,,,,,,,,,,,,,
14553,1480783417227,,,,,41,,,0.02,0.1,1.01,-3.2,-0.1,-0.1,720,0,0,0,0.0,0,38.159176,-122.454437,0.0,0.001,46.1,8,2,2.4,0,0.0,-1,0.0,,0.0,0
14573,1480783417247,,,,,,,,0.02,0.1,1.01,-3.1,-0.2,-0.1,680,0,,,,,,,,,,,,,,,,,,,
14593,1480783417267,,,,,,,,0.02,0.1,1.01,-3.2,-0.2,-0.0,620,0,,,,,,,,,,,,,,,,,,,
14613,1480783417287,,,,,,,,0.02,0.1,1.01,-3.2,-0.2,-0.0,620,0,,,,,,,,,,,,,,,,,,,
14633,1480783417306,,,,,,,,0.02,0.1,1.01,-3.2,-0.2,-0.0,620,0,,,,,,,,,,,,,,,,,,,
14653,1480783417326,0,131.8,,173.0,34,151.8,,0.02,0.1,1.01,-3.2,-0.2,-0.0,560,0,0,0,0.0,0,38.159176,-122.454437,0.0,0.001,46.1,8,2,2.4,0,0.0,-1,0.0,0.0,0.0,0
14673,1480783417346,,,,,,,,0.02,0.1,1.01,-3.2,-0.2,-0.0,560,0,,,,,,,,,,,,,,,,,,,
14693,1480783417366,,,,,,,,0.02,0.1,1.01,-3.2,-0.2,-0.0,560,0,,,,,,,,,,,,,,,,,,,
14713,1480783417386,,,,,,,,0.02,0.1,1.01,-3.1,-0.1,-0.1,560,0,,,,,,,,,,,,,,,,,,,
14733,1480783417406,,,,,,,,0.02,0.1,1.01,-3.1,-0.1,-0.1,520,0,,,,,,,,,,,,,,,,,,,
14753,1480783417426,,,,,32,,,0.02,0.1,1.01,-3.1,-0.2,-0.1,520,0,0,0,0.0,0,38.159176,-122.454437,0.0,0.001,50.7,9,2,2.1,0,0.0,-1,0.0,,0.0,0
14773,1480783417446,,,,,,,,0.02,0.1,1.01,-3.1,-0.2,-0.1,480,0,,,,,,,,,,,,,,,,,,,
14793,1480783417466,,,,,,,,0.02,0.1,1.01,-3.1,-0.2,-0.1,480,0,,,,,,,,,,,,,,,,,,,
14813,1480783417486,,,,,,,,0.02,0.1,1.01,-3.1,-0.1,-0.1,480,0,,,,,,,,,,,,,,,,,,,
14833,1480783417506,,,,,,,,0.02,0.1,1.02,-3.1,-0.1,-0.1,480,0,,,,,,,,,,,,,,,,,,,
14853,1480783417526,0,133.9,,173.3,28,153.6,,0.02,0.1,1.02,-3.1,-0.2,-0.1,460,0,0,0,0.0,0,38.159176,-122.454437,0.0,0.001,50.7,9,2,2.1,0,0.0,-1,0.0,0.0,0.0,0
14873,1480783417546,,,,,,,,0.02,0.1,1.02,-3.1,-0.2,-0.1,460,0,,,,,,,,,,,,,,,,,,,
14893,1480783417566,,,,,,,,0.02,0.1,1.01,-3.1,-0.2,-0.1,460,0,,,,,,,,,,,,,,,,,,,
14913,1480783417586,,,,,,,,0.02,0.1,1.01,-3.1,-0.2,-0.1,440,0,,,,,,,,,,,,,,,,,,,
14933,1480783417705,,,,,,,,0.01,0.1,1.01,-3.1,-0.2,-0.1,440,0,,,,,,,,,,,,,,,,,,,
14953,1480783417725,,,,,26,,,0.01,0.1,1.01,-3.1,-0.2,-0.1,420,0,0,0,0.0,0,38.159176,-122.454437,0.0,0.001,50.7,9,2,2.1,0,0.0,-1,0.0,,0.0,0
14973,1480783417745,,,,,,,,0.01,0.1,1.01,-3.1,-0.1,-0.1,420,0,,,,,,,,,,,,,,,,,,,
14993,1480783417765,,,,,,,,0.01,0.1,1.01,-3.1,-0.1,-0.1,440,0,,,,,,,,,,,,,,,,,,,
15013,1480783417785,,,,,,,,0.02,0.1,1.01,-3.1,-0.1,-0.1,440,0,,,,,,,,,,,,,,,,,,,
15033,1480783417805,,,,,,,,0.02,0.1,1.01,-3.1,-0.1,-0.1,420,0,,,,,,,,,,,,,,,,,,,
15053,1480783417825,0,132.9,6.1,172.4,26,153.2,12.57,0.02,0.1,1.01,-3.1,-0.1,-0.1,420,0,0,0,0.0,0,38.159176,-122.454437,0.0,0.001,50.7,9,2,2.1,0,0.0,-1,0.0,0.0,0.0,0
15073,1480783417845,,,,,,,,0.02,0.1,1.01,-3.1,-0.1,-0.1,420,0,,,,,,,,,,,,,,,,,,,
15093,1480783417865,,,,,,,,0.02,0.1,1.01,-3.1,-0.1,-0.1,400,0,,,,,,,,,,,,,,,,,,,
15113,1480783417885,,,,,,,,0.02,0.09,1.01,-3.1,-0.1,-0.1,400,0,,,,,,,,,,,,,,,,,,,
15133,1480783417806,,,,,,,,0.02,0.1,1.01,-3.1,-0.1,-0.0,400,0,,,,,,,,,,,,,,,,,,,
15153,1480783417826,,,,,21,,,0.02,0.1,1.01,-3.1,-0.1,-0.0,400,0,0,0,0.0,0,38.159176,-122.454437,0.0,0.001,50.7,9,2,2.1,0,0.0,-1,0.0,,0.0,0
15173,1480783417846,,,,,,,,0.02,0.1,1.01,-3.1,-0.1,-0.0,440,0,,,,,,,,,,,,,,,,,,,
15193,1480783417866,,,,,,,,0.02,0.1,1.01,-3.1,-0.0,-0.0,440,0,,,,,,,,,,,,,,,,,,,
15213,1480783417886,,,,,,,,0.02,0.1,1.01,-3.1,-0.0,-0.1,500,0,,,,,,,,,,,,,,,,,,,
15233,1480783417897,,,,,,,,0.02,0.1,1.01,-3.1,-0.1,-0.1,500,0,,,,,,,,,,,,,,,,,,,
15253,1480783417917,0,133.4,,173.6,23,153.0,,0.02,0.1,1.01,-3.1,-0.0,-0.1,560,0,0,0,0.0,0,38.159176,-122.454437,0.0,0.001,50.7,9,2,2.1,0,0.0,-1,0.0,0.0,0.0,0
15273,1480783417937,,,,,,,,0.02,0.09,1.01,-3.1,0.0,-0.2,560,0,,,,,,,,,,,,,,,,,,,
15293,1480783417957,,,,,,,,0.02,0.09,1.02,-3.1,0.2,-0.1,660,0,,,,,,,,,,,,,,,,,,,
15313,1480783417977,,,,,,,,0.02,0.11,1.01,-3.1,-0.0,0.1,760,0,,,,,,,,,,,,,,,,,,,
15333,1480783418006,,,,,,,,0.01,0.09,1.02,-3.1,-0.1,-0.1,840,0,,,,,,,,,,,,,,,,,,,
15353,1480783418026,,,,,24,,,0.01,0.08,1.02,-3.1,-0.2,-0.3,880,0,0,0,0.0,0,38.159176,-122.454437,0.0,0.001,50.7,9,2,2.1,0,0.0,-1,0.0,,0.0,0
15373,1480783418046,,,,,,,,0.01,0.07,1.02,-3.1,-0.2,-0.4,940,0,,,,,,,,,,,,,,,,,,,
15393,1480783418066,,,,,,,,0.01,0.07,1.02,-3.1,-0.1,-0.3,980,0,,,,,,,,,,,,,,,,,,,
15413,1480783418086,,,,,,,,0.01,0.06,1.02,-3.1,0.0,-0.3,1040,0,,,,,,,,,,,,,,,,,,,
15433,1480783418106,,,,,,,,0.01,0.05,1.03,-3.1,-0.0,-0.2,1100,0,,,,,,,,,,,,,,,,,,,
15453,1480783418126,0,133.9,,173.3,28,153.4,,0.01,0.05,1.02,-3.1,-0.0,-0.2,1160,0,0,0,0.0,0,38.159176,-122.454437,0.0,0.001,50.7,9,2,2.1,0,0.0,-1,0.0,0.0,0.0,0
15473,1480783418146,,,,,,,,0.01,0.05,1.02,-3.1,0.2,-0.2,1220,0,,,,,,,,,,,,,,,,,,,
15493,1480783418166,,,,,,,,0.02,0.06,1.02,-3.1,0.1,-0.1,1320,0,,,,,,,,,,,,,,,,,,,
15513,1480783418186,,,,,,,,0.01,0.05,1.01,-3.1,0.2,-0.1,1400,0,,,,,,,,,,,,,,,,,,,
15533,1480783418206,,,,,,,,0.02,0.06,1.02,-3.1,0.5,0.0,1520,0,,,,,,,,,,,,,,,,,,,
15553,1480783418226,,,,,38,,,0.03,0.06,1.01,-3.1,0.3,-0.0,1560,0,0,0,0.0,0,38.159176,-122.454437,0.0,0.001,50.7,9,2,2.1,0,0.0,-1,0.0,,0.0,0
15573,1480783418246,,,,,,,,0.02,0.07,1.02,-3.1,0.2,-0.0,1640,0,,,,,,,,,,,,,,,,,,,
15593,1480783418266,,,,,,,,0.03,0.07,1.02,-3.1,0.4,-0.2,1760,0,,,,,,,,,,,,,,,,,,,
15613,1480783418286,,,,,,,,0.03,0.07,1.02,-3.1,0.2,-0.2,1820,0,,,,,,,,,,,,,,,,,,,
15633,1480783418306,,,,,,,,0.02,0.06,1.02,-3.1,0.2,-0.2,1880,0,,,,,,,,,,,,,,,,,,,
15653,1480783418326,0,133.7,,173.6,62,153.3,,0.01,0.06,1.04,-3.1,0.2,-0.0,1980,0,0,0,0.0,0,38.159176,-122.454437,0.0,0.001,50.7,9,2,2.1,0,0.0,-1,0.0,0.0,0.0,0
15673,1480783418346,,,,,,,,0.01,0.06,1.05,-3.1,0.1,-0.0,2100,0,,,,,,,,,,,,,,,,,,,
15693,1480783418366,,,,,,,,0.0,0.05,1.05,-3.1,0.3,-0.0,2200,0,,,,,,,,,,,,,,,,,,,
15713,1480783418386,,,,,,,,-0.02,0.05,1.05,-3.1,0.2,-0.0,2280,0,,,,,,,,,,,,,,,,,,,
15733,1480783418505,,,,,,,,-0.02,0.06,1.05,-3.1,-0.3,-0.1,2360,0,,,,,,,,,,,,,,,,,,,
15753,1480783418525,,,,,61,,,-0.01,0.07,1.03,-3.1,-0.1,-0.0,2520,0,0,0,0.0,0,38.159176,-122.454437,0.0,0.001,50.7,9,2,2.1,0,0.0,-1,0.0,,0.0,0
15773,1480783418545,,,,,,,,-0.01,0.08,1.02,-3.1,-0.2,-0.0,2620,0,,,,,,,,,,,,,,,,,,,
15793,1480783418565,,,,,,,,-0.0,0.09,1.02,-3.1,0.1,0.1,2660,0,,,,,,,,,,,,,,,,,,,
15813,1480783418585,,,,,,,,-0.01,0.1,1.02,-3.1,-0.6,-0.0,2680,0,,,,,,,,,,,,,,,,,,,
15833,1480783418605,,,,,,,,-0.01,0.09,1.03,-3.1,-0.1,-0.1,2720,0,,,,,,,,,,,,,,,,,,,
15853,1480783418625,0,133.5,,173.7,71,153.2,,-0.01,0.07,1.03,-3.1,0.3,-0.2,2820,0,0,0,0.0,0,38.159176,-122.454437,0.0,0.001,50.7,9,2,2.1,0,0.0,-1,0.0,0.0,0.0,0
15873,1480783418645,,,,,,,,0.01,0.07,1.02,-3.1,-0.1,-0.3,2860,0,,,,,,,,,,,,,,,,,,,
15893,1480783418665,,,,,,,,0.0,0.08,1.0,-3.1,-0.6,-0.3,2980,0,,,,,,,,,,,,,,,,,,,
15913,1480783418685,,,,,,,,-0.01,0.09,0.99,-3.2,-0.7,-0.3,2900,0,,,,,,,,,,,,,,,,,,,
15933,1480783418606,,,,,,,,-0.01,0.06,0.98,-3.2,-0.9,-0.3,3000,0,,,,,,,,,,,,,,,,,,,
15953,1480783418626,,,,,72,,,-0.02,0.06,0.99,-3.2,-0.9,-0.3,2980,0,0,0,0.0,0,38.159176,-122.454437,0.0,0.001,50.7,9,2,2.1,0,0.0,-1,0.0,,0.0,0
15973,1480783418646,,,,,,,,-0.02,0.05,0.99,-3.2,-1.0,-0.2,3040,0,,,,,,,,,,,,,,,,,,,
15993,1480783418666,,,,,,,,-0.03,0.05,0.98,-3.2,-1.0,-0.1,3060,0,,,,,,,,,,,,,,,,,,,
16013,1480783418686,,,,,,,,-0.02,0.05,0.97,-3.2,-1.4,-0.0,3080,0,,,,,,,,,,,,,,,,,,,
16033,1480783418705,,,,,,,,-0.02,0.06,0.96,-3.2,-1.6,0.0,3100,0,,,,,,,,,,,,,,,,,,,
16053,1480783418725,1,132.0,7.3,172.1,65,152.2,14.37,-0.02,0.07,0.95,-3.2,-1.6,-0.0,3120,0,0,0,0.0,0,38.159176,-122.454437,0.0,0.001,50.7,9,2,2.1,0,0.0,-1,0.0,0.0,0.0,0
16073,1480783418745,,,,,,,,-0.02,0.08,0.97,-3.3,-1.6,-0.1,3140,0,,,,,,,,,,,,,,,,,,,
16093,1480783418765,,,,,,,,-0.01,0.07,0.99,-3.3,-1.2,-0.2,3160,0,,,,,,,,,,,,,,,,,,,
16113,1480783418785,,,,,,,,-0.0,0.06,1.0,-3.2,-0.6,-0.3,3160,0,,,,,,,,,,,,,,,,,,,
16133,1480783418806,,,,,,,,-0.0,0.05,1.0,-3.2,-0.3,-0.3,3160,0,,,,,,,,,,,,,,,,,,,
16153,1480783418826,,,,,74,,,-0.0,0.07,1.0,-3.2,-0.4,-0.2,3180,0,0,0,0.0,0,38.159176,-122.454437,0.0,0.001,50.7,9,2,2.1,0,0.0,-1,0.0,,0.0,0
16173,1480783418846,,,,,,,,-0.0,0.09,0.98,-3.2,-0.7,-0.2,3160,0,,,,,,,,,,,,,,,,,,,
16193,1480783418866,,,,,,,,-0.01,0.1,0.97,-3.1,-0.7,-0.3,3240,0,,,,,,,,,,,,,,,,,,,
16213,1480783418886,,,,,,,,-0.01,0.1,0.99,-3.1,-0.3,-0.3,3180,0,,,,,,,,,,,,,,,,,,,
16233,1480783418897,,,,,,,,0.0,0.09,1.0,-3.1,0.1,-0.3,3220,0,,,,,,,,,,,,,,,,,,,
16253,1480783418917,0,132.6,,172.2,72,153.0,,0.01,0.07,1.0,-3.1,0.1,-0.1,3200,0,0,0,0.0,0,38.159176,-122.454437,0.0,0.001,50.7,9,2,2.1,0,0.0,-1,0.0,0.0,0.0,0
16273,1480783418937,,,,,,,,0.0,0.08,1.0,-3.2,-0.0,-0.0,3180,0,,,,,,,,,,,,,,,,,,,
16293,1480783418957,,,,,,,,-0.0,0.09,0.98,-3.2,0.0,-0.0,3220,0,,,,,,,,,,,,,,,,,,,
16313,1480783418977,,,,,,,,-0.01,0.08,0.98,-3.2,0.1,-0.0,3200,0,,,,,,,,,,,,,,,,,,,
16333,1480783419006,,,,,,,,-0.0,0.07,0.99,-3.1,0.0,-0.0,3180,0,,,,,,,,,,,,,,,,,,,
16353,1480783419026,,,,,65,,,0.01,0.08,0.98,-3.1,-0.4,0.0,3220,0,0,0,0.0,0,38.159176,-122.454437,0.0,0.001,50.7,9,2,2.1,0,0.0,-1,0.0,,0.0,0
16373,1480783419046,,,,,,,,0.01,0.1,0.98,-3.1,-0.8,-0.0,3200,0,,,,,,,,,,,,,,,,,,,
16393,1480783419066,,,,,,,,0.01,0.11,0.99,-3.1,-0.5,-0.2,3120,0,,,,,,,,,,,,,,,,,,,
16413,1480783419086,,,,,,,,0.01,0.11,1.01,-3.1,-0.1,-0.3,3200,0,,,,,,,,,,,,,,,,,,,
16433,1480783419106,,,,,,,,0.01,0.1,1.01,-3.1,0.1,-0.3,3140,0,,,,,,,,,,,,,,,,,,,
16453,1480783419126,0,132.0,,173.0,77,151.7,,0.01,0.1,1.01,-3.1,0.0,-0.2,3120,0,0,0,0.0,0,38.159176,-122.454437,0.0,0.001,50.7,9,2,2.1,0,0.0,-1,0.0,0.0,0.0,0
16473,1480783419146,,,,,,,,0.02,0.11,1.01,-3.1,-0.2,-0.2,3100,0,,,,,,,,,,,,,,,,,,,
16493,1480783419166,,,,,,,,0.01,0.11,1.01,-3.1,-0.3,-0.3,3120,0,,,,,,,,,,,,,,,,,,,
16513,1480783419186,,,,,,,,0.01,0.11,1.01,-3.1,-0.2,-0.3,3100,0,,,,,,,,,,,,,,,,,,,
16533,1480783419305,,,,,,,,0.01,0.1,1.01,-3.1,0.0,-0.3,3020,0,,,,,,,,,,,,,,,,,,,
16553,1480783419325,,,,,58,,,0.01,0.1,1.01,-3.1,0.3,-0.3,3040,0,0,0,0.0,0,38.159176,-122.454437,0.0,0.001,50.7,9,2,2.1,0,0.0,-1,0.0,,0.0,0
16573,1480783419345,,,,,,,,0.01,0.11,1.01,-3.2,0.4,-0.2,3040,0,,,,,,,,,,,,,,,,,,,
16593,1480783419365,,,,,,,,0.0,0.11,1.02,-3.2,0.6,-0.2,2960,0,,,,,,,,,,,,,,,,,,,
16613,1480783419385,,,,,,,,0.01,0.12,1.02,-3.2,0.8,-0.2,2900,0,,,,,,,,,,,,,,,,,,,
16633,1480783419405,,,,,,,,0.01,0.13,1.02,-3.2,0.4,-0.2,2840,0,,,,,,,,,,,,,,,,,,,
16653,1480783419425,0,133.9,,173.5,63,153.5,,0.01,0.13,1.01,-3.2,-0.1,-0.3,2780,0,0,0,0.0,0,38.159176,-122.454437,0.0,0.001,50.7,9,2,2.1,0,0.0,-1,0.0,0.0,0.0,0
16673,1480783419445,,,,,,,,-0.0,0.11,1.02,-3.3,-0.4,-0.3,2760,0,,,,,,,,,,,,,,,,,,,
16693,1480783419465,,,,,,,,-0.0,0.12,1.03,-3.2,-0.1,-0.4,2720,0,,,,,,,,,,,,,,,,,,,
16713,1480783419485,,,,,,,,0.01,0.13,1.02,-3.1,0.3,-0.4,2660,0,,,,,,,,,,,,,,,,,,,
16733,1480783419406,,,,,,,,0.0,0.12,1.02,-3.1,-0.2,-0.5,2580,0,,,,,,,,,,,,,,,,,,,
16753,1480783419426,,,,,78,,,-0.01,0.1,1.02,-3.1,-0.2,-0.5,2520,0,0,0,0.0,0,38.159176,-122.454437,0.0,0.001,50.7,9,2,2.1,0,0.0,-1,0.0,,0.0,0
16773,1480783419446,,,,,,,,0.0,0.1,1.0,-3.1,0.1,-0.4,2560,0,,,,,,,,,,,,,,,,,,,
16793,1480783419466,,,,,,,,-0.0,0.1,1.01,-3.2,-0.4,-0.3,2440,0,,,,,,,,,,,,,,,,,,,
16813,1480783419486,,,,,,,,0.01,0.1,1.01,-3.1,-0.1,-0.3,2420,0,,,,,,,,,,,,,,,,,,,
16833,1480783419507,,,,,,,,0.0,0.11,1.02,-3.2,-0.3,-0.3,2380,0,,,,,,,,,,,,,,,,,,,
16853,1480783419527,0,132.3,,173.0,62,152.5,,0.0,0.11,1.02,-3.2,-0.1,-0.3,2340,0,0,0,0.0,0,38.159176,-122.454437,0.0,0.001,50.7,9,2,2.1,0,0.0,-1,0.0,0.0,0.0,0
16873,1480783419547,,,,,,,,0.0,0.11,1.02,-3.1,-0.0,-0.3,2340,0,,,,,,,,,,,,,,,,,,,
16893,1480783419567,,,,,,,,0.01,0.11,1.02,-3.1,-0.1,-0.2,2240,0,,,,,,,,,,,,,,,,,,,
16913,1480783419587,,,,,,,,0.01,0.1,1.02,-3.1,-0.0,-0.2,2200,0,,,,,,,,,,,,,,,,,,,
16933,1480783419606,,,,,,,,0.01,0.1,1.02,-3.1,0.1,-0.2,2200,0,,,,,,,,,,,,,,,,,,,
16953,1480783419626,,,,,71,,,0.0,0.1,1.02,-3.1,0.1,-0.2,2160,0,0,0,0.0,0,38.159176,-122.454437,0.0,0.001,50.7,9,2,2.1,0,0.0,-1,0.0,,0.0,0
16973,1480783419646,,,,,,,,0.0,0.09,1.03,-3.2,-0.0,-0.2,2080,0,,,,,,,,,,,,,,,,,,,
16993,1480783419666,,,,,,,,0.01,0.09,1.02,-3.1,-0.1,-0.2,1740,0,,,,,,,,,,,,,,,,,,,
17013,1480783419686,,,,,,,,0.01,0.09,1.01,-3.1,-0.2,-0.2,2000,0,,,,,,,,,,,,,,,,,,,
17033,1480783419706,,,,,,,,0.02,0.1,1.0,-3.1,-0.1,-0.2,1960,0,,,,,,,,,,,,,,,,,,,
17053,1480783419726,0,133.2,7.9,173.3,53,153.2,14.45,0.02,0.09,1.0,-3.1,0.1,-0.3,1940,0,0,0,0.0,0,38.159176,-122.454437,0.0,0.001,50.7,9,2,2.1,0,0.0,-1,0.0,0.0,0.0,0
17073,1480783419746,,,,,,,,0.03,0.1,0.99,-3.1,0.2,-0.3,1860,0,,,,,,,,,,,,,,,,,,,
17093,1480783419766,,,,,,,,0.03,0.09,0.99,-3.1,0.3,-0.3,1860,0,,,,,,,,,,,,,,,,,,,
17113,1480783419786,,,,,,,,0.03,0.08,1.0,-3.1,0.3,-0.3,1820,0,,,,,,,,,,,,,,,,,,,
17133,1480783419807,,,,,,,,0.04,0.08,1.0,-3.1,0.3,-0.2,1740,0,,,,,,,,,,,,,,,,,,,
17153,1480783419827,,,,,64,,,0.03,0.11,1.01,-3.1,0.0,-0.2,1700,0,0,0,0.0,0,38.159176,-122.454437,0.0,0.001,50.7,9,2,2.1,0,0.0,-1,0.0,,0.0,0
17173,1480783419847,,,,,,,,0.02,0.11,1.0,-3.1,0.2,-0.2,1680,0,,,,,,,,,,,,,,,,,,,
17193,1480783419867,,,,,,,,0.02,0.11,1.0,-3.1,0.5,-0.2,1660,0,,,,,,,,,,,,,,,,,,,
17213,1480783419887,,,,,,,,0.03,0.11,1.01,-3.1,0.3,-0.1,1620,0,,,,,,,,,,,,,,,,,,,
17233,1480783419898,,,,,,,,0.03,0.1,1.01,-3.1,0.3,-0.1,1580,0,,,,,,,,,,,,,,,,,,,
17253,1480783419918,0,133.5,,172.9,63,153.0,,0.03,0.11,1.01,-3.1,0.1,-0.1,1560,0,0,0,0.0,0,38.159176,-122.454437,0.0,0.001,50.7,9,2,2.1,0,0.0,-1,0.0,0.0,0.0,0
17273,1480783419938,,,,,,,,0.02,0.1,1.01,-3.1,-0.0,-0.1,1480,0,,,,,,,,,,,,,,,,,,,
17293,1480783419958,,,,,,,,0.02,0.1,1.01,-3.1,0.1,-0.1,1480,0,,,,,,,,,,,,,,,,,,,
17313,1480783419978,,,,,,,,0.02,0.1,1.01,-3.1,-0.0,-0.1,1420,0,,,,,,,,,,,,,,,,,,,
17333,1480783420106,,,,,,,,0.02,0.1,1.0,-3.1,-0.1,-0.0,1400,0,,,,,,,,,,,,,,,,,,,
17353,1480783420126,,,,,60,,,0.02,0.1,1.0,-3.1,-0.2,-0.1,1360,0,0,0,0.0,0,38.159176,-122.454437,0.0,0.001,50.7,9,2,2.1,0,0.0,-1,0.0,,0.0,0
17373,1480783420146,,,,,,,,0.02,0.1,1.01,-3.1,-0.1,-0.0,1320,0,,,,,,,,,,,,,,,,,,,
17393,1480783420166,,,,,,,,0.02,0.11,1.0,-3.1,-0.1,0.0,1280,0,,,,,,,,,,,,,,,,,,,
17413,1480783420186,,,,,,,,0.02,0.11,1.0,-3.1,-0.2,0.0,1240,0,,,,,,,,,,,,,,,,,,,
17433,1480783420206,,,,,,,,0.02,0.1,1.0,-3.1,-0.1,-0.0,1260,0,,,,,,,,,,,,,,,,,,,
17453,1480783420226,0,133.9,,173.2,56,153.2,,0.02,0.11,1.0,-3.1,-0.0,-0.0,1180,0,0,0,0.0,0,38.159176,-122.454437,0.0,0.001,50.7,9,2,2.1,0,0.0,-1,0.0,0.0,0.0,0
17473,1480783420246,,,,,,,,0.02,0.11,1.01,-3.1,-0.0,-0.0,1140,0,,,,,,,,,,,,,,,,,,,
17493,1480783420266,,,,,,,,0.02,0.1,1.01,-3.2,0.0,-0.0,1120,0,,,,,,,,,,,,,,,,,,,
17513,1480783420286,,,,,,,,0.02,0.1,1.01,-3.1,0.0,0.0,1060,0,,,,,,,,,,,,,,,,,,,
17533,1480783420207,,,,,,,,0.02,0.1,1.01,-3.2,-0.0,0.0,1060,0,,,,,,,,,,,,,,,,,,,
17553,1480783420227,,,,,55,,,0.02,0.1,1.0,-3.2,-0.0,-0.0,1000,0,0,0,0.0,0,38.159176,-122.454437,0.0,0.001,50.7,9,2,2.1,0,0.0,-1,0.0,,0.0,0
17573,1480783420247,,,,,,,,0.02,0.1,1.0,-3.2,0.1,-0.0,980,0,,,,,,,,,,,,,,,,,,,
17593,1480783420267,,,,,,,,0.02,0.1,1.0,-3.2,0.0,-0.0,960,0,,,,,,,,,,,,,,,,,,,
17613,1480783420287,,,,,,,,0.02,0.1,1.01,-3.2,0.1,-0.0,900,0,,,,,,,,,,,,,,,,,,,
17633,1480783420307,,,,,,,,0.02,0.1,1.01,-3.2,0.1,-0.0,860,0,,,,,,,,,,,,,,,,,,,
17653,1480783420327,0,132.3,,172.7,50,152.5,,0.02,0.1,1.01,-3.2,0.0,-0.0,860,0,0,0,0.0,0,38.159176,-122.454437,0.0,0.001,50.7,9,2,2.1,0,0.0,-1,0.0,0.0,0.0,0
17673,1480783420347,,,,,,,,0.02,0.1,1.01,-3.2,-0.0,-0.0,840,0,,,,,,,,,,,,,,,,,,,
17693,1480783420367,,,,,,,,0.02,0.1,1.01,-3.2,0.0,-0.0,780,0,,,,,,,,,,,,,,,,,,,
17713,1480783420387,,,,,,,,0.02,0.1,1.01,-3.2,-0.1,-0.0,740,0,,,,,,,,,,,,,,,,,,,
17733,1480783420407,,,,,,,,0.02,0.1,1.01,-3.2,-0.1,-0.0,720,0,,,,,,,,,,,,,,,,,,,
17753,1480783420427,,,,,46,,,0.02,0.1,1.01,-3.2,-0.1,-0.0,720,0,0,0,0.0,0,38.159176,-122.454437,0.0,0.001,50.7,9,2,2.1,0,0.0,-1,0.0,,0.0,0
17773,1480783420447,,,,,,,,0.02,0.1,1.01,-3.2,-0.1,0.0,680,0,,,,,,,,,,,,,,,,,,,
17793,1480783420467,,,,,,,,0.02,0.1,1.01,-3.2,-0.1,0.0,680,0,,,,,,,,,,,,,,,,,,,
17813,1480783420487,,,,,,,,0.02,0.1,1.01,-3.2,-0.1,-0.0,680,0,,,,,,,,,,,,,,,,,,,
17833,1480783420507,,,,,,,,0.02,0.1,1.01,-3.2,-0.2,0.0,660,0,,,,,,,,,,,,,,,,,,,
17853,1480783420527,0,132.4,,172.3,39,152.5,,0.02,0.1,1.01,-3.2,-0.2,-0.0,620,0,0,0,0.0,0,38.159176,-122.454437,0.0,0.001,50.7,9,2,2.1,0,0.0,-1,0.0,0.0,0.0,0
17873,1480783420547,,,,,,,,0.01,0.1,1.01,-3.2,-0.1,-0.1,620,0,,,,,,,,,,,,,,,,,,,
17893,1480783420567,,,,,,,,0.01,0.1,1.01,-3.2,-0.1,-0.0,600,0,,,,,,,,,,,,,,,,,,,
17913,1480783420587,,,,,,,,0.01,0.1,1.01,-3.2,-0.1,-0.0,600,0,,,,,,,,,,,,,,,,,,,
17933,1480783420607,,,,,,,,0.02,0.1,1.01,-3.2,-0.1,-0.0,580,0,,,,,,,,,,,,,,,,,,,
17953,1480783420627,,,,,35,,,0.01,0.1,1.01,-3.2,-0.1,-0.0,580,0,0,0,0.0,0,38.159176,-122.454437,0.0,0.001,50.7,9,2,2.1,0,0.0,-1,0.0,,0.0,0
17973,1480783420647,,,,,,,,0.01,0.1,1.01,-3.2,-0.1,-0.0,560,0,,,,,,,,,,,,,,,,,,,
17993,1480783420667,,,,,,,,0.01,0.1,1.01,-3.2,-0.1,-0.0,540,0,,,,,,,,,,,,,,,,,,,
18013,1480783420687,,,,,,,,0.01,0.1,1.01,-3.2,-0.1,-0.0,540,0,,,,,,,,,,,,,,,,,,,
18033,1480783420707,,,,,,,,0.01,0.1,1.01,-3.2,-0.1,-0.0,520,0,,,,,,,,,,,,,,,,,,,
18053,1480783420727,0,132.5,6.7,172.7,33,152.4,13.93,0.01,0.1,1.01,-3.2,-0.1,-0.0,520,0,0,0,0.0,0,38.159176,-122.454437,0.0,0.001,50.7,9,2,2.1,0,0.0,-1,0.0,0.0,0.0,0
18073,1480783420747,,,,,,,,0.01,0.1,1.02,-3.2,-0.1,-0.0,500,0,,,,,,,,,,,,,,,,,,,
18093,1480783420767,,,,,,,,0.01,0.1,1.02,-3.1,-0.1,-0.0,500,0,,,,,,,,,,,,,,,,,,,
18113,1480783420787,,,,,,,,0.01,0.1,1.01,-3.1,-0.1,-0.0,480,0,,,,,,,,,,,,,,,,,,,
18133,1480783420906,,,,,,,,0.01,0.1,1.01,-3.1,-0.1,-0.0,480,0,,,,,,,,,,,,,,,,,,,
18153,1480783420926,,,,,30,,,0.01,0.1,1.01,-3.1,-0.1,-0.1,480,0,0,0,0.0,0,38.159176,-122.454437,0.0,0.001,50.7,9,2,2.1,0,0.0,-1,0.0,,0.0,0
18173,1480783420946,,,,,,,,0.01,0.1,1.01,-3.1,-0.1,-0.0,460,0,,,,,,,,,,,,,,,,,,,
18193,1480783420966,,,,,,,,0.01,0.1,1.01,-3.1,-0.1,-0.0,460,0,,,,,,,,,,,,,,,,,,,
18213,1480783420986,,,,,,,,0.01,0.1,1.01,-3.1,-0.1,-0.0,440,0,,,,,,,,,,,,,,,,,,,
18233,1480783421006,,,,,,,,0.01,0.1,1.01,-3.1,-0.1,-0.1,440,0,,,,,,,,,,,,,,,,,,,
18253,1480783421026,0,133.8,,172.6,27,153.0,,0.01,0.1,1.01,-3.1,-0.1,-0.1,440,0,0,0,0.0,0,38.159176,-122.454437,0.0,0.001,50.7,9,2,2.1,0,0.0,-1,0.0,0.0,0.0,0
18273,1480783421046,,,,,,,,0.01,0.09,1.01,-3.1,-0.0,-0.1,440,0,,,,,,,,,,,,,,,,,,,
18293,1480783421066,,,,,,,,0.01,0.1,1.01,-3.1,-0.0,-0.1,440,0,,,,,,,,,,,,,,,,,,,
18313,1480783421086,,,,,,,,0.01,0.1,1.01,-3.1,-0.0,-0.1,440,0,,,,,,,,,,,,,,,,,,,
18333,1480783421007,,,,,,,,0.01,0.1,1.01,-3.1,-0.0,-0.1,440,0,,,,,,,,,,,,,,,,,,,
18353,1480783421027,,,,,26,,,0.01,0.1,1.01,-3.2,-0.0,-0.0,420,0,0,0,0.0,0,38.159176,-122.454437,0.0,0.001,50.7,9,2,2.1,0,0.0,-1,0.0,,0.0,0
18373,1480783421047,,,,,,,,0.01,0.1,1.01,-3.1,-0.0,-0.0,420,0,,,,,,,,,,,,,,,,,,,
18393,1480783421067,,,,,,,,0.01,0.1,1.01,-3.1,-0.0,-0.0,420,0,,,,,,,,,,,,,,,,,,,
18413,1480783421087,,,,,,,,0.01,0.09,1.01,-3.1,-0.1,-0.0,420,0,,,,,,,,,,,,,,,,,,,
18433,1480783421107,,,,,,,,0.02,0.1,1.01,-3.1,-0.1,-0.0,400,0,,,,,,,,,,,,,,,,,,,
18453,1480783421127,0,132.1,,171.5,23,151.7,,0.02,0.1,1.01,-3.1,-0.1,-0.0,400,0,0,0,0.0,0,38.159176,-122.454437,0.0,0.001,50.7,9,2,2.1,0,0.0,-1,0.0,0.0,0.0,0
18473,1480783421147,,,,,,,,0.02,0.1,1.01,-3.1,-0.0,-0.1,400,0,,,,,,,,,,,,,,,,,,,
18493,1480783421167,,,,,,,,0.02,0.1,1.01,-3.1,-0.0,-0.0,400,0,,,,,,,,,,,,,,,,,,,
18513,1480783421187,,,,,,,,0.02,0.09,1.01,-3.1,-0.1,-0.1,400,0,,,,,,,,,,,,,,,,,,,
18533,1480783421203,,,,,,,,0.02,0.1,1.0,-3.1,-0.1,-0.0,420,0,,,,,,,,,,,,,,,,,,,
18553,1480783421223,,,,,21,,,0.02,0.1,1.0,-3.1,-0.0,-0.0,420,0,0,0,0.0,0,38.159176,-122.454437,0.0,0.001,50.7,9,2,2.1,0,0.0,-1,0.0,,0.0,0
18573,1480783421243,,,,,,,,0.01,0.09,1.0,-3.1,-0.1,-0.1,420,0,,,,,,,,,,,,,,,,,,,
18593,1480783421263,,,,,,,,0.02,0.1,1.0,-3.1,-0.0,-0.1,400,0,,,,,,,,,,,,,,,,,,,
18613,1480783421283,,,,,,,,0.02,0.1,1.0,-3.1,-0.1,-0.1,400,0,,,,,,,,,,,,,,,,,,,
18633,1480783421307,,,,,,,,0.01,0.1,1.0,-3.1,-0.0,-0.1,420,0,,,,,,,,,,,,,,,,,,,
18653,1480783421327,0,134.0,,172.8,22,153.4,,0.01,0.1,1.0,-3.1,0.0,-0.1,420,0,0,0,0.0,0,38.159176,-122.454437,0.0,0.001,50.7,9,2,2.1,0,0.0,-1,0.0,0.0,0.0,0
18673,1480783421347,,,,,,,,0.01,0.1,1.01,-3.1,0.0,-0.1,400,0,,,,,,,,,,,,,,,,,,,
18693,1480783421367,,,,,,,,0.01,0.1,1.01,-3.1,0.0,-0.1,400,0,,,,,,,,,,,,,,,,,,,
18713,1480783421387,,,,,,,,0.01,0.1,1.01,-3.1,0.0,-0.1,400,0,,,,,,,,,,,,,,,,,,,
18733,1480783421407,,,,,,,,0.01,0.1,1.01,-3.1,0.0,-0.1,400,0,,,,,,,,,,,,,,,,,,,
18753,1480783421427,,,,,22,,,0.01,0.09,1.01,-3.1,-0.0,-0.1,400,0,0,0,0.0,0,38.159176,-122.454437,0.0,0.001,50.7,9,2,2.1,0,0.0,-1,0.0,,0.0,0
18773,1480783421447,,,,,,,,0.01,0.1,1.01,-3.1,-0.0,-0.1,420,0,,,,,,,,,,,,,,,,,,,
18793,1480783421467,,,,,,,,0.01,0.09,1.01,-3.1,0.0,-0.1,420,0,,,,,,,,,,,,,,,,,,,
18813,1480783421487,,,,,,,,0.01,0.1,1.01,-3.1,0.0,-0.1,420,0,,,,,,,,,,,,,,,,,,,
18833,1480783421507,,,,,,,,0.01,0.1,1.01,-3.1,0.0,-0.1,420,0,,,,,,,,,,,,,,,,,,,
18853,1480783421527,0,133.1,,172.5,22,153.3,,0.01,0.1,1.01,-3.1,0.0,-0.1,420,0,0,0,0.0,0,38.159176,-122.454437,0.0,0.001,50.7,9,2,2.1,0,0.0,-1,0.0,0.0,0.0,0
18873,1480783421547,,,,,,,,0.01,0.1,1.01,-3.1,0.0,-0.0,420,0,,,,,,,,,,,,,,,,,,,
18893,1480783421567,,,,,,,,0.01,0.09,1.01,-3.1,0.0,-0.1,420,0,,,,,,,,,,,,,,,,,,,
18913,1480783421587,,,,,,,,0.01,0.1,1.01,-3.1,0.0,-0.1,420,0,,,,,,,,,,,,,,,,,,,
18933,1480783421706,,,,,,,,0.01,0.09,1.01,-3.1,0.0,-0.0,420,0,,,,,,,,,,,,,,,,,,,
18953,1480783421726,,,,,21,,,0.01,0.1,1.01,-3.1,0.0,-0.0,420,0,0,0,0.0,0,38.159176,-122.454437,0.0,0.001,50.7,9,2,2.1,0,0.0,-1,0.0,,0.0,0
18973,1480783421746,,,,,,,,0.01,0.1,1.01,-3.2,-0.0,-0.0,420,0,,,,,,,,,,,,,,,,,,,
18993,1480783421766,,,,,,,,0.01,0.1,1.01,-3.1,-0.0,-0.1,420,0,,,,,,,,,,,,,,,,,,,
19013,1480783421786,,,,,,,,0.01,0.1,1.01,-3.2,-0.0,-0.0,420,0,,,,,,,,,,,,,,,,,,,
19033,1480783421806,,,,,,,,0.01,0.09,1.01,-3.1,-0.1,-0.1,420,0,,,,,,,,,,,,,,,,,,,
19053,1480783421826,0,132.1,6.4,171.4,20,152.8,12.59,0.01,0.1,1.01,-3.1,-0.1,-0.1,440,0,0,0,0.0,0,38.159176,-122.454437,0.0,0.001,50.7,9,2,2.1,0,0.0,-1,0.0,0.0,0.0,0
19073,1480783421846,,,,,,,,0.01,0.09,1.01,-3.1,-0.1,-0.1,440,0,,,,,,,,,,,,,,,,,,,
19093,1480783421866,,,,,,,,0.01,0.1,1.01,-3.1,-0.1,-0.1,440,0,,,,,,,,,,,,,,,,,,,
19113,1480783421886,,,,,,,,0.01,0.1,1.01,-3.1,-0.1,-0.1,440,0,,,,,,,,,,,,,,,,,,,
19133,1480783421807,,,,,,,,0.01,0.1,1.01,-3.1,-0.1,-0.0,440,0,,,,,,,,,,,,,,,,,,,
19153,1480783421827,,,,,20,,,0.01,0.1,1.02,-3.2,-0.1,-0.0,440,0,0,0,0.0,0,38.159176,-122.454437,0.0,0.001,50.7,9,2,2.1,0,0.0,-1,0.0,,0.0,0
19173,1480783421847,,,,,,,,0.01,0.1,1.02,-3.2,-0.1,-0.1,440,0,,,,,,,,,,,,,,,,,,,
19193,1480783421867,,,,,,,,0.01,0.1,1.02,-3.2,-0.2,-0.0,440,0,,,,,,,,,,,,,,,,,,,
19213,1480783421887,,,,,,,,0.01,0.1,1.02,-3.1,-0.2,-0.1,440,0,,,,,,,,,,,,,,,,,,,
19233,1480783421900,,,,,,,,0.01,0.1,1.01,-3.1,-0.1,-0.1,440,0,,,,,,,,,,,,,,,,,,,
19253,1480783421920,0,132.5,,172.1,20,153.0,,0.01,0.1,1.01,-3.1,-0.2,-0.1,440,0,0,0,0.0,0,38.159176,-122.454437,0.0,0.001,50.7,9,2,2.1,0,0.0,-1,0.0,0.0,0.0,0
19273,1480783421940,,,,,,,,0.01,0.1,1.01,-3.2,-0.2,-0.1,440,0,,,,,,,,,,,,,,,,,,,
19293,1480783421960,,,,,,,,0.02,0.1,1.01,-3.2,-0.2,-0.1,440,0,,,,,,,,,,,,,,,,,,,
19313,1480783421980,,,,,,,,0.02,0.1,1.01,-3.2,-0.1,-0.1,440,0,,,,,,,,,,,,,,,,,,,
19333,1480783422008,,,,,,,,0.02,0.1,1.01,-3.2,-0.1,-0.0,440,0,,,,,,,,,,,,,,,,,,,
19353,1480783422028,,,,,20,,,0.02,0.1,1.01,-3.2,-0.1,-0.0,440,0,0,0,0.0,0,38.159176,-122.454437,0.0,0.001,50.7,9,2,2.1,0,0.0,-1,0.0,,0.0,0
19373,1480783422048,,,,,,,,0.02,0.1,1.01,-3.2,-0.1,0.0,440,0,,,,,,,,,,,,,,,,,,,
19393,1480783422068,,,,,,,,0.02,0.1,1.01,-3.2,-0.1,-0.0,440,0,,,,,,,,,,,,,,,,,,,
19413,1480783422088,,,,,,,,0.02,0.1,1.01,-3.2,-0.1,-0.0,460,0,,,,,,,,,,,,,,,,,,,
19433,1480783422107,,,,,,,,0.02,0.1,1.01,-3.2,-0.1,-0.1,460,0,,,,,,,,,,,,,,,,,,,
19453,1480783422127,0,132.5,,171.9,20,153.1,,0.02,0.1,1.01,-3.2,-0.1,-0.1,440,0,0,0,0.0,0,38.159176,-122.454437,0.0,0.001,50.7,9,2,2.1,0,0.0,-1,0.0,0.0,0.0,0
19473,1480783422147,,,,,,,,0.02,0.1,1.01,-3.1,-0.2,-0.1,440,0,,,,,,,,,,,,,,,,,,,
19493,1480783422167,,,,,,,,0.02,0.1,1.01,-3.2,-0.1,-0.1,440,0,,,,,,,,,,,,,,,,,,,
19513,1480783422187,,,,,,,,0.02,0.1,1.01,-3.2,-0.1,-0.1,440,0,,,,,,,,,,,,,,,,,,,
19533,1480783422208,,,,,,,,0.02,0.1,1.01,-3.2,-0.2,-0.1,440,0,,,,,,,,,,,,,,,,,,,
19553,1480783422228,,,,,19,,,0.02,0.1,1.01,-3.2,-0.1,-0.0,440,0,0,0,0.0,0,38.159176,-122.454437,0.0,0.001,50.7,9,2,2.1,0,0.0,-1,0.0,,0.0,0
19573,1480783422248,,,,,,,,0.02,0.1,1.01,-3.2,-0.1,-0.1,440,0,,,,,,,,,,,,,,,,,,,
19593,1480783422268,,,,,,,,0.02,0.1,1.01,-3.2,-0.1,-0.1,420,0,,,,,,,,,,,,,,,,,,,
19613,1480783422288,,,,,,,,0.02,0.09,1.01,-3.2,-0.1,-0.1,420,0,,,,,,,,,,,,,,,,,,,
19633,1480783422307,,,,,,,,0.02,0.1,1.01,-3.2,-0.1,-0.1,440,0,,,,,,,,,,,,,,,,,,,
19653,1480783422327,0,132.5,,171.6,19,153.1,,0.02,0.09,1.01,-3.2,-0.1,-0.1,440,0,0,0,0.0,0,38.159176,-122.454437,0.0,0.001,50.7,9,2,2.1,0,0.0,-1,0.0,0.0,0.0,0
19673,1480783422347,,,,,,,,0.02,0.1,1.01,-3.2,-0.0,-0.1,440,0,,,,,,,,,,,,,,,,,,,
19693,1480783422367,,,,,,,,0.01,0.1,1.02,-3.2,-0.0,-0.1,440,0,,,,,,,,,,,,,,,,,,,
19713,1480783422387,,,,,,,,0.02,0.1,1.02,-3.1,-0.0,-0.1,440,0,,,,,,,,,,,,,,,,,,,
19733,1480783422507,,,,,,,,0.02,0.1,1.02,-3.1,0.0,-0.1,440,0,,,,,,,,,,,,,,,,,,,
19753,1480783422527,,,,,19,,,0.02,0.1,1.01,-3.1,-0.0,-0.1,440,0,0,0,0.0,0,38.159176,-122.454437,0.0,0.001,50.7,9,2,2.1,0,0.0,-1,0.0,,0.0,0
19773,1480783422547,,,,,,,,0.02,0.1,1.01,-3.1,0.0,-0.1,420,0,,,,,,,,,,,,,,,,,,,
19793,1480783422567,,,,,,,,0.02,0.1,1.01,-3.2,-0.0,-0.1,420,0,,,,,,,,,,,,,,,,,,,
19813,1480783422587,,,,,,,,0.02,0.1,1.01,-3.2,-0.0,-0.0,420,0,,,,,,,,,,,,,,,,,,,
19833,1480783422607,,,,,,,,0.02,0.1,1.01,-3.1,-0.0,-0.0,420,0,,,,,,,,,,,,,,,,,,,
19853,1480783422627,0,133.8,,171.9,19,152.7,,0.02,0.1,1.01,-3.1,-0.0,-0.0,420,0,0,0,0.0,0,38.159176,-122.454437,0.0,0.001,50.7,9,2,2.1,0,0.0,-1,0.0,0.0,0.0,0
19873,1480783422647,,,,,,,,0.02,0.1,1.01,-3.1,-0.0,-0.0,420,0,,,,,,,,,,,,,,,,,,,
19893,1480783422667,,,,,,,,0.02,0.1,1.01,-3.1,-0.0,-0.0,420,0,,,,,,,,,,,,,,,,,,,
19913,1480783422687,,,,,,,,0.02,0.1,1.0,-3.2,-0.0,-0.0,420,0,,,,,,,,,,,,,,,,,,,
19933,1480783422607,,,,,,,,0.02,0.1,1.01,-3.1,-0.1,-0.1,420,0,,,,,,,,,,,,,,,,,,,
19953,1480783422627,,,,,20,,,0.02,0.1,1.0,-3.2,-0.1,-0.1,440,0,0,0,0.0,0,38.159176,-122.454437,0.0,0.001,50.7,9,2,2.1,0,0.0,-1,0.0,,0.0,0
19973,1480783422647,,,,,,,,0.02,0.09,1.01,-3.1,-0.1,-0.1,440,0,,,,,,,,,,,,,,,,,,,
19993,1480783422667,,,,,,,,0.02,0.1,1.01,-3.1,-0.1,-0.1,420,0,,,,,,,,,,,,,,,,,,,
20013,1480783422687,,,,,,,,0.02,0.09,1.01,-3.1,-0.0,-0.1,420,0,,,,,,,,,,,,,,,,,,,
20033,1480783422707,,,,,,,,0.02,0.1,1.01,-3.1,-0.0,-0.1,420,0,,,,,,,,,,,,,,,,,,,
20053,1480783422727,0,133.3,5.9,171.3,19,151.8,12.57,0.02,0.1,1.01,-3.2,-0.0,-0.0,420,0,0,0,0.0,0,38.159176,-122.454437,0.0,0.001,50.7,9,2,2.1,0,0.0,-1,0.0,0.0,0.0,0
20073,1480783422747,,,,,,,,0.02,0.1,1.01,-3.1,-0.1,-0.1,420,0,,,,,,,,,,,,,,,,,,,
20093,1480783422767,,,,,,,,0.02,0.1,1.01,-3.1,-0.1,-0.0,420,0,,,,,,,,,,,,,,,,,,,
20113,1480783422787,,,,,,,,0.02,0.09,1.01,-3.1,-0.1,-0.1,420,0,,,,,,,,,,,,,,,,,,,
20133,1480783422808,,,,,,,,0.02,0.1,1.01,-3.1,-0.1,-0.0,440,0,,,,,,,,,,,,,,,,,,,
20153,1480783422828,,,,,20,,,0.02,0.09,1.01,-3.2,-0.1,-0.0,440,0,0,0,0.0,0,38.159176,-122.454437,0.0,0.001,50.7,9,2,2.1,0,0.0,-1,0.0,,0.0,0
20173,1480783422848,,,,,,,,0.02,0.1,1.01,-3.1,-0.1,-0.0,420,0,,,,,,,,,,,,,,,,,,,
20193,1480783422868,,,,,,,,0.02,0.09,1.01,-3.1,-0.0,-0.0,420,0,,,,,,,,,,,,,,,,,,,
20213,1480783422888,,,,,,,,0.02,0.1,1.01,-3.1,-0.0,-0.0,440,0,,,,,,,,,,,,,,,,,,,
20233,1480783422899,,,,,,,,0.02,0.1,1.01,-3.1,-0.1,-0.0,440,0,,,,,,,,,,,,,,,,,,,
20253,1480783422919,0,132.1,,170.5,18,152.8,,0.02,0.09,1.01,-3.1,-0.1,-0.0,440,0,0,0,0.0,0,38.159176,-122.454437,0.0,0.001,50.7,9,2,2.1,0,0.0,-1,0.0,0.0,0.0,0
20273,1480783422939,,,,,,,,0.01,0.1,1.01,-3.1,-0.0,-0.0,440,0,,,,,,,,,,,,,,,,,,,
20293,1480783422959,,,,,,,,0.01,0.09,1.01,-3.1,-0.0,-0.0,440,0,,,,,,,,,,,,,,,,,,,
20313,1480783422979,,,,,,,,0.01,0.1,1.01,-3.1,-0.0,-0.0,440,0,,,,,,,,,,,,,,,,,,,
20333,1480783423008,,,,,,,,0.01,0.09,1.01,-3.1,0.0,-0.0,440,0,,,,,,,,,,,,,,,,,,,
20353,1480783423028,,,,,18,,,0.01,0.1,1.01,-3.1,0.0,-0.0,420,0,0,0,0.0,0,38.159176,-122.454437,0.0,0.001,50.7,9,2,2.1,0,0.0,-1,0.0,,0.0,0
20373,1480783423048,,,,,,,,0.02,0.1,1.01,-3.2,-0.0,0.0,420,0,,,,,,,,,,,,,,,,,,,
20393,1480783423068,,,,,,,,0.02,0.1,1.01,-3.1,-0.0,0.0,440,0,,,,,,,,,,,,,,,,,,,
20413,1480783423088,,,,,,,,0.02,0.1,1.01,-3.1,-0.1,0.0,440,0,,,,,,,,,,,,,,,,,,,
20433,1480783423107,,,,,,,,0.01,0.1,1.01,-3.1,-0.1,-0.0,440,0,,,,,,,,,,,,,,,,,,,
20453,1480783423127,0,132.7,,171.3,19,153.2,,0.01,0.1,1.01,-3.1,-0.0,-0.0,440,0,0,0,0.0,0,38.159176,-122.454437,0.0,0.001,50.7,9,3,2.1,0,0.0,-1,0.0,0.0,0.0,0
20473,1480783423147,,,,,,,,0.01,0.1,1.01,-3.1,-0.1,-0.0,440,0,,,,,,,,,,,,,,,,,,,
20493,1480783423167,,,,,,,,0.01,0.1,1.01,-3.1,-0.1,-0.1,440,0,,,,,,,,,,,,,,,,,,,
20513,1480783423187,,,,,,,,0.01,0.1,1.02,-3.1,-0.1,-0.1,440,0,,,,,,,,,,,,,,,,,,,
20533,1480783423307,,,,,,,,0.01,0.1,1.01,-3.1,-0.1,-0.1,440,0,,,,,,,,,,,,,,,,,,,
20553,1480783423327,,,,,18,,,0.01,0.1,1.02,-3.1,-0.1,-0.0,440,0,0,0,0.0,0,38.159176,-122.454437,0.0,0.001,50.7,9,3,2.1,0,0.0,-1,0.0,,0.0,0
20573,1480783423347,,,,,,,,0.01,0.1,1.02,-3.2,-0.1,-0.0,420,0,,,,,,,,,,,,,,,,,,,
20593,1480783423367,,,,,,,,0.02,0.1,1.01,-3.2,-0.1,-0.0,420,0,,,,,,,,,,,,,,,,,,,
20613,1480783423387,,,,,,,,0.01,0.1,1.01,-3.1,-0.1,-0.1,420,0,,,,,,,,,,,,,,,,,,,
20633,1480783423407,,,,,,,,0.02,0.1,1.01,-3.2,-0.0,-0.1,420,0,,,,,,,,,,,,,,,,,,,
20653,1480783423427,0,133.7,,171.3,19,151.9,,0.01,0.1,1.01,-3.2,-0.1,-0.1,420,0,0,0,0.0,0,38.159176,-122.454437,0.0,0.001,50.7,9,3,2.1,0,0.0,-1,0.0,0.0,0.0,0
20673,1480783423447,,,,,,,,0.02,0.1,1.01,-3.2,-0.1,-0.1,420,0,,,,,,,,,,,,,,,,,,,
20693,1480783423467,,,,,,,,0.02,0.1,1.01,-3.2,-0.1,-0.1,420,0,,,,,,,,,,,,,,,,,,,
20713,1480783423487,,,,,,,,0.02,0.1,1.01,-3.1,-0.0,-0.0,420,0,,,,,,,,,,,,,,,,,,,
20733,1480783423407,,,,,,,,0.02,0.1,1.01,-3.2,0.0,-0.0,420,0,,,,,,,,,,,,,,,,,,,
20753,1480783423427,,,,,19,,,0.02,0.1,1.01,-3.1,-0.0,-0.0,440,0,0,0,0.0,0,38.159176,-122.454437,0.0,0.001,50.7,9,3,2.1,0,0.0,-1,0.0,,0.0,0
20773,1480783423447,,,,,,,,0.02,0.1,1.01,-3.1,-0.0,-0.0,440,0,,,,,,,,,,,,,,,,,,,
20793,1480783423467,,,,,,,,0.02,0.1,1.01,-3.1,-0.1,-0.1,440,0,,,,,,,,,,,,,,,,,,,
20813,1480783423487,,,,,,,,0.02,0.1,1.01,-3.1,-0.1,-0.0,440,0,,,,,,,,,,,,,,,,,,,
20833,1480783423507,,,,,,,,0.02,0.09,1.01,-3.1,-0.1,-0.0,440,0,,,,,,,,,,,,,,,,,,,
20853,1480783423527,0,133.9,,171.4,19,152.7,,0.02,0.1,1.01,-3.1,-0.1,0.0,420,0,0,0,0.0,0,38.159176,-122.454437,0.0,0.001,50.7,9,3,2.1,0,0.0,-1,0.0,0.0,0.0,0
20873,1480783423547,,,,,,,,0.02,0.1,1.01,-3.1,-0.1,-0.0,420,0,,,,,,,,,,,,,,,,,,,
20893,1480783423567,,,,,,,,0.02,0.1,1.01,-3.1,-0.1,-0.0,420,0,,,,,,,,,,,,,,,,,,,
20913,1480783423587,,,,,,,,0.02,0.1,1.01,-3.2,-0.1,-0.0,420,0,,,,,,,,,,,,,,,,,,,
20933,1480783423607,,,,,,,,0.02,0.1,1.01,-3.2,-0.1,-0.1,420,0,,,,,,,,,,,,,,,,,,,
20953,1480783423627,,,,,19,,,0.02,0.1,1.01,-3.2,-0.1,-0.0,440,0,0,0,0.0,0,38.159176,-122.454437,0.0,0.001,50.7,9,3,2.1,0,0.0,-1,0.0,,0.0,0
20973,1480783423647,,,,,,,,0.02,0.09,1.01,-3.2,-0.1,-0.1,440,0,,,,,,,,,,,,,,,,,,,
20993,1480783423667,,,,,,,,0.02,0.1,1.01,-3.2,-0.1,-0.1,440,0,,,,,,,,,,,,,,,,,,,
21013,1480783423687,,,,,,,,0.02,0.09,1.01,-3.2,-0.0,-0.1,440,0,,,,,,,,,,,,,,,,,,,
21033,1480783423707,,,,,,,,0.02,0.1,1.01,-3.2,-0.0,-0.0,440,0,,,,,,,,,,,,,,,,,,,
21053,1480783423727,0,133.6,7.0,171.2,19,152.8,12.59,0.01,0.1,1.02,-3.2,-0.1,-0.0,440,0,0,0,0.0,0,38.159176,-122.454437,0.0,0.001,50.7,9,3,2.1,0,0.0,-1,0.0,0.0,0.0,0
21073,1480783423747,,,,,,,,0.02,0.1,1.02,-3.1,-0.1,-0.0,440,0,,,,,,,,,,,,,,,,,,,
21093,1480783423767,,,,,,,,0.01,0.1,1.01,-3.2,-0.0,-0.0,440,0,,,,,,,,,,,,,,,,,,,
21113,1480783423787,,,,,,,,0.01,0.1,1.01,-3.1,-0.1,-0.1,440,0,,,,,,,,,,,,,,,,,,,
21133,1480783423808,,,,,,,,0.01,0.1,1.01,-3.1,-0.0,-0.1,420,0,,,,,,,,,,,,,,,,,,,
21153,1480783423828,,,,,18,,,0.01,0.1,1.01,-3.1,-0.0,-0.1,420,0,0,0,0.0,0,38.159176,-122.454437,0.0,0.001,50.7,9,3,2.1,0,0.0,-1,0.0,,0.0,0
21173,1480783423848,,,,,,,,0.01,0.1,1.01,-3.1,-0.0,-0.1,420,0,,,,,,,,,,,,,,,,,,,
21193,1480783423868,,,,,,,,0.02,0.1,1.01,-3.2,-0.0,-0.0,420,0,,,,,,,,,,,,,,,,,,,
21213,1480783423888,,,,,,,,0.02,0.1,1.01,-3.1,0.0,-0.0,420,0,,,,,,,,,,,,,,,,,,,
21233,1480783423899,,,,,,,,0.02,0.1,1.01,-3.2,0.0,-0.0,420,0,,,,,,,,,,,,,,,,,,,
21253,1480783423919,1,132.3,,171.0,18,153.1,,0.02,0.1,1.01,-3.2,-0.0,-0.1,420,0,0,0,0.0,0,38.159176,-122.454437,0.0,0.001,50.7,9,3,2.1,0,0.0,-1,0.0,0.0,0.0,0
21273,1480783423939,,,,,,,,0.02,0.1,1.01,-3.2,-0.0,-0.0,420,0,,,,,,,,,,,,,,,,,,,
21293,1480783423959,,,,,,,,0.02,0.1,1.01,-3.1,-0.0,-0.1,420,0,,,,,,,,,,,,,,,,,,,
21313,1480783423979,,,,,,,,0.02,0.1,1.01,-3.1,-0.0,-0.1,440,0,,,,,,,,,,,,,,,,,,,
