"Interval"|"ms"|0|0|1,"Utc"|"ms"|0|0|1,"FuelLevel"|"F"|0|100|5,"OilTemp"|"F"|0.0|300.0|5,"CoolantPressPSI"|"PSI"|0.0|20.0|1,"Coolant"|"F"|0.0|300.0|5,"OilPress"|"PSI"|0|150|10,"EngineTemp"|"F"|0.0|300.0|5,"Battery"|"Volts"|0.0|20.0|1,"AccelX"|"G"|-3.0|3.0|50,"AccelY"|"G"|-3.0|3.0|50,"AccelZ"|"G"|-3.0|3.0|50,"Yaw"|"Deg/Sec"|-300.0|300.0|50,"Pitch"|"Deg/Sec"|-300.0|300.0|50,"Roll"|"Deg/Sec"|-300.0|300.0|50,"RPM"|""|0|10000|50,"Driveshaft"|"RPM"|0|5000|50,"GPIO1"|""|0|1|10,"GPIO2"|""|0|1|10,"GearRatio"|""|-5.0|5.0|10,"Gear"|""|-1|5|10,"Latitude"|"Degrees"|-180.0|180.0|10,"Longitude"|"Degrees"|-180.0|180.0|10,"Speed"|"MPH"|0.0|150.0|10,"Distance"|"Miles"|0.0|0.0|10,"Altitude"|"Feet"|0.0|4000.0|10,"GPSSats"|""|0|20|10,"GPSQual"|""|0|5|10,"GPSDOP"|""|0.0|20.0|10,"LapCount"|""|0|0|10,"LapTime"|"Min"|0.0|0.0|10,"Sector"|""|0|0|10,"SectorTime"|"Min"|0.0|0.0|10,"PredTime"|"Min"|0.0|0.0|5,"ElapsedTime"|"Min"|0.0|0.0|10,"CurrentLap"|""|0|0|10
8169,1480729832205,,,,,,,,0.0,0.08,1.0,-3.1,0.1,-0.2,460,0,,,,,,,,,,,,,,,,,,,
,,,,,,,,,,,,,,,,,,,,,,,,,,,,,,,,,,,
,,,,,,,,,,,,,,,,,,,,,,,,,,,,,,,,,,,
8029,1480729832066,,,,,,,,-0.0,0.07,0.99,-3.1,-0.1,-0.3,200,0,,,,,,,,,,,,,,,,,,,
8049,1480729832086,0,90.1,0.1,112.2,4,100.0,10.79,-0.01,0.07,0.99,-3.1,-0.1,-0.3,200,0,1,0,0.0,0,38.159138,-122.454452,0.0,0.0,44.2,6,2,0.2,0,0.0,-1,0.0,0.0,0.0,0
8069,1480729832090,,,,,,,,-0.0,0.07,0.99,-3.1,-0.0,-0.3,200,0,,,,,,,,,,,,,,,,,,,
8089,1480729832110,,,,,,,,-0.0,0.07,0.99,-3.1,0.0,-0.3,260,0,,,,,,,,,,,,,,,,,,,
8109,1480729832130,,,,,,,,-0.0,0.07,0.99,-3.1,-0.0,-0.2,260,0,,,,,,,,,,,,,,,,,,,
8129,1480729832150,,,,,,,,0.0,0.08,0.99,-3.1,-0.1,-0.1,360,0,,,,,,,,,,,,,,,,,,,
8149,1480729832185,,,,,6,,,-0.0,0.08,0.99,-3.1,-0.0,-0.1,360,0,1,0,0.0,0,38.159138,-122.454452,0.0,0.0,36.9,6,2,0.2,0,0.0,-1,0.0,,0.0,0
8169,1480729832205,,,,,,,,0.0,0.08,1.0,-3.1,0.1,-0.2,460,0,,,,,,,,,,,,,,,,,,,
8189,1480729832225,,,,,,,,0.0,0.08,1.0,-3.1,0.0,-0.2,460,0,,,,,,,,,,,,,,,,,,,
8209,1480729832245,,,,,,,,0.01,0.09,1.0,-3.1,0.1,-0.2,520,0,,,,,,,,,,,,,,,,,,,
8229,1480729832265,,,,,,,,0.01,0.09,1.0,-3.1,0.1,-0.1,520,0,,,,,,,,,,,,,,,,,,,
8249,1480729832285,0,87.8,,110.3,7,100.7,,0.01,0.1,1.0,-3.1,0.1,-0.0,600,0,1,0,0.0,0,38.159138,-122.454452,0.0,0.0,34.1,6,2,0.2,0,0.0,-1,0.0,0.0,0.0,0
8269,1480729832305,,,,,,,,0.0,0.09,1.01,-3.1,0.0,-0.2,700,0,,,,,,,,,,,,,,,,,,,
8289,1480729832325,,,,,,,,0.0,0.08,1.0,-3.1,-0.0,-0.3,700,0,,,,,,,,,,,,,,,,,,,
8309,1480729832345,,,,,,,,0.01,0.08,1.0,-3.1,0.1,-0.2,780,0,,,,,,,,,,,,,,,,,,,
8329,1480729832365,,,,,,,,0.01,0.08,1.0,-3.1,0.3,-0.1,820,0,,,,,,,,,,,,,,,,,,,
8349,1480729832385,,,,,11,,,0.0,0.09,1.01,-3.1,0.1,-0.1,860,0,1,0,0.0,0,38.159138,-122.454452,0.0,0.0,33.3,6,2,0.2,0,0.0,-1,0.0,,0.0,0
8369,1480729832405,,,,,,,,-0.0,0.09,1.01,-3.1,0.0,-0.1,900,0,,,,,,,,,,,,,,,,,,,
8389,1480729832425,,,,,,,,0.0,0.09,0.99,-3.0,0.0,-0.2,920,0,,,,,,,,,,,,,,,,,,,
8409,1480729832445,,,,,,,,0.0,0.08,1.0,-3.0,-0.1,-0.3,940,0,,,,,,,,,,,,,,,,,,,
8429,1480729832465,,,,,,,,0.0,0.07,1.0,-3.0,-0.1,-0.3,960,10,,,,,,,,,,,,,,,,,,,
8449,1480729832483,0,89.1,,109.4,17,98.6,,0.01,0.07,1.01,-3.1,-0.1,-0.3,1000,10,1,0,0.0,0,38.159138,-122.454452,0.0,0.0,32.4,6,2,0.2,0,0.0,-1,0.0,0.0,0.0,0
8469,1480729832503,,,,,,,,0.0,0.07,1.01,-3.1,0.0,-0.2,940,769230,,,,,,,,,,,,,,,,,,,
8489,1480729832523,,,,,,,,0.01,0.07,1.0,-3.1,0.1,-0.1,940,0,,,,,,,,,,,,,,,,,,,
8509,1480729832543,,,,,,,,0.01,0.07,1.0,-3.1,0.1,-0.0,940,0,,,,,,,,,,,,,,,,,,,
8529,1480729832563,,,,,,,,0.0,0.07,1.0,-3.1,0.0,0.0,940,0,,,,,,,,,,,,,,,,,,,
8549,1480729832682,,,,,21,,,0.01,0.07,1.0,-3.1,-0.1,0.1,960,0,1,0,0.0,0,38.159138,-122.454452,0.0,0.0,30.8,6,2,0.2,0,0.0,-1,0.0,,0.0,0
8569,1480729832702,,,,,,,,0.01,0.07,1.01,-3.2,-0.1,0.1,960,0,,,,,,,,,,,,,,,,,,,
8589,1480729832722,,,,,,,,0.01,0.09,1.01,-3.2,-0.2,0.2,940,0,,,,,,,,,,,,,,,,,,,
8609,1480729832742,,,,,,,,0.01,0.09,1.01,-3.2,-0.1,0.2,940,0,,,,,,,,,,,,,,,,,,,
8629,1480729832762,,,,,,,,0.01,0.1,1.01,-3.2,0.1,0.2,940,0,,,,,,,,,,,,,,,,,,,
8649,1480729832782,0,90.0,,112.4,27,100.8,,0.02,0.1,1.01,-3.2,0.2,0.2,900,0,1,0,0.0,0,38.159138,-122.454452,0.0,0.0,30.8,6,2,0.2,0,0.0,-1,0.0,0.0,0.0,0
8669,1480729832802,,,,,,,,0.02,0.11,1.01,-3.2,0.0,0.2,880,0,,,,,,,,,,,,,,,,,,,
8689,1480729832822,,,,,,,,0.02,0.11,1.01,-3.2,-0.1,0.1,860,0,,,,,,,,,,,,,,,,,,,
8709,1480729832842,,,,,,,,0.01,0.1,1.01,-3.2,-0.1,0.1,820,0,,,,,,,,,,,,,,,,,,,
8729,1480729832862,,,,,,,,0.01,0.11,1.01,-3.2,-0.0,0.1,820,0,,,,,,,,,,,,,,,,,,,
8749,1480729832782,,,,,36,,,0.02,0.11,1.01,-3.2,-0.0,0.1,820,0,1,0,0.0,0,38.159138,-122.454452,0.0,0.0,30.8,6,2,0.2,0,0.0,-1,0.0,,0.0,0
8769,1480729832802,,,,,,,,0.01,0.11,1.01,-3.2,-0.1,0.0,780,0,,,,,,,,,,,,,,,,,,,
8789,1480729832822,,,,,,,,0.02,0.11,1.01,-3.2,-0.0,0.0,740,0,,,,,,,,,,,,,,,,,,,
8809,1480729832842,,,,,,,,0.02,0.1,1.01,-3.1,0.0,0.0,700,0,,,,,,,,,,,,,,,,,,,
8829,1480729832862,,,,,,,,0.02,0.1,1.01,-3.1,-0.0,-0.0,700,0,,,,,,,,,,,,,,,,,,,
8849,1480729832882,0,87.8,,109.7,41,99.7,,0.02,0.11,1.02,-3.2,0.0,0.0,660,0,1,0,0.0,0,38.159138,-122.454452,0.0,0.0,30.8,6,2,0.2,0,0.0,-1,0.0,0.0,0.0,0
8869,1480729832902,,,,,,,,0.02,0.11,1.02,-3.1,0.0,0.0,660,0,,,,,,,,,,,,,,,,,,,
8889,1480729832922,,,,,,,,0.02,0.1,1.02,-3.1,0.1,0.0,600,0,,,,,,,,,,,,,,,,,,,
8909,1480729832942,,,,,,,,0.02,0.1,1.02,-3.2,0.0,0.0,540,0,,,,,,,,,,,,,,,,,,,
8929,1480729832962,,,,,,,,0.02,0.11,1.02,-3.2,-0.0,0.0,540,0,,,,,,,,,,,,,,,,,,,
8949,1480729832982,,,,,45,,,0.02,0.11,1.01,-3.1,-0.0,-0.0,480,0,1,0,0.0,0,38.159138,-122.454452,0.0,0.0,30.8,6,2,0.2,0,0.0,-1,0.0,,0.0,0
8969,1480729833002,,,,,,,,0.02,0.11,1.02,-3.2,-0.0,-0.0,480,0,,,,,,,,,,,,,,,,,,,
8989,1480729833022,,,,,,,,0.02,0.11,1.02,-3.2,-0.1,-0.0,480,0,,,,,,,,,,,,,,,,,,,
9009,1480729833042,,,,,,,,0.02,0.11,1.02,-3.2,-0.0,-0.0,400,0,,,,,,,,,,,,,,,,,,,
9029,1480729833062,,,,,,,,0.02,0.1,1.02,-3.2,-0.0,-0.0,400,0,,,,,,,,,,,,,,,,,,,
9049,1480729833075,0,89.7,0.0,109.9,44,98.0,13.24,0.02,0.1,1.02,-3.2,-0.0,-0.0,400,0,1,0,0.0,0,38.159138,-122.454452,0.0,0.0,30.8,6,2,0.2,0,0.0,-1,0.0,0.0,0.0,0
9069,1480729833095,,,,,,,,0.02,0.1,1.02,-3.2,-0.0,-0.0,340,0,,,,,,,,,,,,,,,,,,,
9089,1480729833115,,,,,,,,0.02,0.1,1.02,-3.2,0.0,-0.0,340,0,,,,,,,,,,,,,,,,,,,
9109,1480729833135,,,,,,,,0.02,0.1,1.02,-3.1,-0.1,-0.0,340,0,,,,,,,,,,,,,,,,,,,
9129,1480729833155,,,,,,,,0.02,0.1,1.03,-3.2,-0.0,-0.0,300,0,,,,,,,,,,,,,,,,,,,
9149,1480729833181,,,,,40,,,0.02,0.11,1.03,-3.2,0.0,-0.0,300,0,1,0,0.0,0,38.159138,-122.454452,0.0,0.0,30.8,6,2,0.2,0,0.0,-1,0.0,,0.0,0
9169,1480729833201,,,,,,,,0.02,0.11,1.02,-3.1,-0.0,-0.0,300,0,,,,,,,,,,,,,,,,,,,
9189,1480729833221,,,,,,,,0.02,0.11,1.02,-3.1,-0.0,-0.0,300,0,,,,,,,,,,,,,,,,,,,
9209,1480729833241,,,,,,,,0.02,0.11,1.02,-3.1,-0.1,-0.0,220,0,,,,,,,,,,,,,,,,,,,
9229,1480729833261,,,,,,,,0.02,0.1,1.02,-3.1,-0.0,-0.0,220,0,,,,,,,,,,,,,,,,,,,
9249,1480729833282,0,90.4,,112.2,39,100.0,,0.02,0.11,1.01,-3.1,-0.0,-0.1,220,0,1,0,0.0,0,38.159138,-122.454452,0.0,0.0,30.8,6,2,0.2,0,0.0,-1,0.0,0.0,0.0,0
9269,1480729833302,,,,,,,,0.02,0.11,1.01,-3.1,-0.1,-0.0,220,0,,,,,,,,,,,,,,,,,,,
9289,1480729833322,,,,,,,,0.02,0.11,1.01,-3.1,-0.0,-0.0,220,0,,,,,,,,,,,,,,,,,,,
9309,1480729833342,,,,,,,,0.02,0.11,1.01,-3.1,-0.0,-0.0,180,0,,,,,,,,,,,,,,,,,,,
9329,1480729833362,,,,,,,,0.02,0.11,1.01,-3.1,-0.0,-0.1,180,0,,,,,,,,,,,,,,,,,,,
9349,1480729833481,,,,,36,,,0.02,0.11,1.01,-3.1,-0.1,-0.1,180,0,1,0,0.0,0,38.159138,-122.454452,0.0,0.0,30.8,6,2,0.2,0,0.0,-1,0.0,,0.0,0
9369,1480729833501,,,,,,,,0.02,0.11,1.01,-3.1,-0.0,-0.0,180,0,,,,,,,,,,,,,,,,,,,
9389,1480729833521,,,,,,,,0.02,0.11,1.01,-3.1,-0.0,-0.0,180,0,,,,,,,,,,,,,,,,,,,
9409,1480729833541,,,,,,,,0.02,0.11,1.01,-3.1,0.0,-0.0,180,0,,,,,,,,,,,,,,,,,,,
9429,1480729833561,,,,,,,,0.02,0.11,1.01,-3.1,0.1,-0.1,180,0,,,,,,,,,,,,,,,,,,,
9449,1480729833581,0,87.5,,110.5,32,100.9,,0.02,0.11,1.01,-3.1,0.0,-0.1,10000000,0,1,0,0.0,0,38.159138,-122.454452,0.0,0.0,30.8,6,2,0.2,0,0.0,-1,0.0,0.0,0.0,0
9469,1480729833601,,,,,,,,0.02,0.1,1.01,-3.1,0.0,-0.0,0,0,,,,,,,,,,,,,,,,,,,
9489,1480729833621,,,,,,,,0.02,0.1,1.0,-3.1,0.1,0.0,640,0,,,,,,,,,,,,,,,,,,,
9509,1480729833641,,,,,,,,0.01,0.1,1.01,-3.1,0.0,0.0,640,0,,,,,,,,,,,,,,,,,,,
9529,1480729833661,,,,,,,,0.01,0.1,1.01,-3.1,0.0,0.0,640,0,,,,,,,,,,,,,,,,,,,
9549,1480729833579,,,,,28,,,0.01,0.1,1.01,-3.1,0.0,-0.0,640,0,1,0,0.0,0,38.159138,-122.454452,0.0,0.0,27.4,7,2,2.4,0,0.0,-1,0.0,,0.0,0
9569,1480729833599,,,,,,,,0.01,0.1,1.01,-3.1,0.0,-0.0,640,0,,,,,,,,,,,,,,,,,,,
9589,1480729833619,,,,,,,,0.01,0.1,1.01,-3.1,0.0,-0.0,640,0,,,,,,,,,,,,,,,,,,,
9609,1480729833639,,,,,,,,0.01,0.1,1.01,-3.1,0.0,-0.0,0,0,,,,,,,,,,,,,,,,,,,
9629,1480729833659,,,,,,,,0.01,0.1,1.01,-3.1,0.0,-0.0,0,0,,,,,,,,,,,,,,,,,,,
9649,1480729833679,0,90.1,,111.3,26,97.7,,0.02,0.1,1.01,-3.1,0.0,-0.0,0,0,1,0,0.0,0,38.159138,-122.454452,0.0,0.0,27.4,7,2,2.4,0,0.0,-1,0.0,0.0,0.0,0
9669,1480729833672,,,,,,,,0.02,0.1,1.01,-3.1,0.0,-0.1,0,0,,,,,,,,,,,,,,,,,,,
9689,1480729833692,,,,,,,,0.01,0.1,1.01,-3.1,0.0,-0.1,0,0,,,,,,,,,,,,,,,,,,,
9709,1480729833712,,,,,,,,0.01,0.1,1.01,-3.1,0.0,-0.1,0,0,,,,,,,,,,,,,,,,,,,
9729,1480729833732,,,,,,,,0.01,0.1,1.01,-3.1,0.0,-0.0,0,0,,,,,,,,,,,,,,,,,,,
9749,1480729833752,,,,,23,,,0.02,0.1,1.01,-3.1,0.0,-0.0,0,0,1,0,0.0,0,38.159138,-122.454452,0.0,0.0,27.4,7,2,2.4,0,0.0,-1,0.0,,0.0,0
9769,1480729833791,,,,,,,,0.02,0.1,1.01,-3.1,0.0,0.0,0,0,,,,,,,,,,,,,,,,,,,
9789,1480729833811,,,,,,,,0.01,0.1,1.01,-3.1,0.0,0.0,500,0,,,,,,,,,,,,,,,,,,,
9809,1480729833831,,,,,,,,0.01,0.1,1.01,-3.1,0.1,-0.0,500,0,,,,,,,,,,,,,,,,,,,
9829,1480729833851,,,,,,,,0.01,0.1,1.01,-3.1,0.1,-0.0,500,0,,,,,,,,,,,,,,,,,,,
9849,1480729833871,0,87.8,,110.5,19,101.2,,0.01,0.1,1.01,-3.1,0.0,-0.0,500,0,1,0,0.0,0,38.159138,-122.454452,0.0,0.0,27.4,7,2,2.4,0,0.0,-1,0.0,0.0,0.0,0
9869,1480729833891,,,,,,,,0.01,0.1,1.01,-3.1,0.0,-0.0,500,0,,,,,,,,,,,,,,,,,,,
9889,1480729833905,,,,,,,,0.01,0.1,1.01,-3.1,0.0,-0.0,500,0,,,,,,,,,,,,,,,,,,,
9909,1480729833925,,,,,,,,0.01,0.1,1.01,-3.1,-0.0,-0.0,20000000,0,,,,,,,,,,,,,,,,,,,
9929,1480729833945,,,,,,,,0.01,0.1,1.0,-3.1,-0.0,-0.1,0,0,,,,,,,,,,,,,,,,,,,
9949,1480729833965,,,,,18,,,0.01,0.1,1.0,-3.1,0.1,-0.0,0,0,1,0,0.0,0,38.159138,-122.454452,0.0,0.0,27.4,7,2,2.4,0,0.0,-1,0.0,,0.0,0
9969,1480729833991,,,,,,,,0.01,0.1,1.0,-3.1,0.2,-0.0,0,0,,,,,,,,,,,,,,,,,,,
9989,1480729834011,,,,,,,,0.01,0.1,1.0,-3.1,0.1,0.0,0,0,,,,,,,,,,,,,,,,,,,
10009,1480729834031,,,,,,,,0.01,0.1,1.01,-3.1,0.1,-0.0,0,0,,,,,,,,,,,,,,,,,,,
10029,1480729834051,,,,,,,,0.02,0.1,1.01,-3.1,0.1,-0.1,0,0,,,,,,,,,,,,,,,,,,,
10049,1480729834071,0,88.4,0.0,111.6,17,101.4,12.37,0.02,0.1,1.01,-3.2,0.1,-0.1,0,0,1,0,0.0,0,38.159138,-122.454452,0.0,0.0,27.4,7,2,2.4,0,0.0,-1,0.0,0.0,0.0,0
10069,1480729834091,,,,,,,,0.02,0.1,1.01,-3.1,0.1,-0.0,0,0,,,,,,,,,,,,,,,,,,,
10089,1480729834111,,,,,,,,0.02,0.1,1.01,-3.1,0.1,-0.0,0,0,,,,,,,,,,,,,,,,,,,
10109,1480729834131,,,,,,,,0.02,0.1,1.01,-3.1,0.1,-0.0,0,0,,,,,,,,,,,,,,,,,,,
10129,1480729834151,,,,,,,,0.01,0.1,1.01,-3.1,0.1,-0.0,0,0,,,,,,,,,,,,,,,,,,,
10149,1480729834171,,,,,16,,,0.01,0.1,1.01,-3.1,0.1,-0.0,0,0,1,0,0.0,0,38.159138,-122.454452,0.0,0.0,27.4,7,2,2.4,0,0.0,-1,0.0,,0.0,0
10169,1480729834291,,,,,,,,0.01,0.1,1.01,-3.1,0.1,-0.0,0,0,,,,,,,,,,,,,,,,,,,
10189,1480729834311,,,,,,,,0.01,0.1,1.01,-3.1,0.1,-0.0,0,0,,,,,,,,,,,,,,,,,,,
10209,1480729834331,,,,,,,,0.01,0.1,1.01,-3.1,0.1,-0.0,0,0,,,,,,,,,,,,,,,,,,,
10229,1480729834351,,,,,,,,0.02,0.1,1.01,-3.1,0.0,-0.0,0,0,,,,,,,,,,,,,,,,,,,
10249,1480729834371,0,89.7,,109.6,16,98.6,,0.02,0.1,1.01,-3.1,0.0,-0.0,0,0,1,0,0.0,0,38.159138,-122.454452,0.0,0.0,27.4,7,2,2.4,0,0.0,-1,0.0,0.0,0.0,0
10269,1480729834391,,,,,,,,0.02,0.1,1.01,-3.1,0.0,-0.0,0,0,,,,,,,,,,,,,,,,,,,
10289,1480729834411,,,,,,,,0.02,0.1,1.01,-3.1,0.0,-0.0,0,0,,,,,,,,,,,,,,,,,,,
10309,1480729834431,,,,,,,,0.02,0.1,1.01,-3.1,0.0,-0.1,0,0,,,,,,,,,,,,,,,,,,,
10329,1480729834451,,,,,,,,0.02,0.1,1.01,-3.1,0.0,-0.0,0,0,,,,,,,,,,,,,,,,,,,
10349,1480729834471,,,,,15,,,0.02,0.1,1.01,-3.1,0.0,-0.0,0,0,1,0,0.0,0,38.159138,-122.454452,0.0,0.0,27.4,7,2,2.4,0,0.0,-1,0.0,,0.0,0
10369,1480729834392,,,,,,,,0.02,0.1,1.01,-3.1,-0.0,-0.0,0,0,,,,,,,,,,,,,,,,,,,
10389,1480729834412,,,,,,,,0.02,0.1,1.01,-3.1,-0.0,-0.0,0,0,,,,,,,,,,,,,,,,,,,
10409,1480729834432,,,,,,,,0.02,0.1,1.01,-3.1,-0.0,-0.0,0,0,,,,,,,,,,,,,,,,,,,
10429,1480729834452,,,,,,,,0.02,0.1,1.01,-3.1,-0.0,-0.0,0,0,,,,,,,,,,,,,,,,,,,
10449,1480729834472,0,90.1,,111.4,15,98.0,,0.02,0.1,1.01,-3.1,-0.0,-0.0,0,0,1,0,0.0,0,38.159138,-122.454452,0.0,0.0,27.4,7,2,2.4,0,0.0,-1,0.0,0.0,0.0,0
10469,1480729834492,,,,,,,,0.02,0.1,1.01,-3.1,-0.0,-0.0,0,0,,,,,,,,,,,,,,,,,,,
10489,1480729834512,,,,,,,,0.02,0.1,1.01,-3.1,0.0,-0.0,0,0,,,,,,,,,,,,,,,,,,,
10509,1480729834532,,,,,,,,0.02,0.1,1.01,-3.1,0.0,-0.1,0,0,,,,,,,,,,,,,,,,,,,
10529,1480729834552,,,,,,,,0.01,0.1,1.01,-3.1,0.0,-0.1,0,0,,,,,,,,,,,,,,,,,,,
10549,1480729834572,,,,,13,,,0.02,0.1,1.01,-3.1,-0.0,-0.0,0,0,1,0,0.0,0,38.159138,-122.454452,0.0,0.0,27.4,7,2,2.4,0,0.0,-1,0.0,,0.0,0
10569,1480729834592,,,,,,,,0.02,0.1,1.01,-3.1,-0.0,-0.0,0,0,,,,,,,,,,,,,,,,,,,
10589,1480729834612,,,,,,,,0.02,0.1,1.01,-3.1,0.0,-0.0,0,0,,,,,,,,,,,,,,,,,,,
10609,1480729834632,,,,,,,,0.02,0.1,1.01,-3.1,0.0,-0.0,0,0,,,,,,,,,,,,,,,,,,,
10629,1480729834652,,,,,,,,0.02,0.1,1.01,-3.1,0.0,-0.0,0,0,,,,,,,,,,,,,,,,,,,
10649,1480729834672,0,89.8,,112.8,13,101.5,,0.02,0.1,1.01,-3.1,0.0,-0.0,0,0,1,0,0.0,0,38.159138,-122.454452,0.0,0.0,27.4,7,2,2.4,0,0.0,-1,0.0,0.0,0.0,0
10669,1480729834692,,,,,,,,0.02,0.1,1.01,-3.1,0.1,-0.0,0,0,,,,,,,,,,,,,,,,,,,
10689,1480729834712,,,,,,,,0.02,0.1,1.01,-3.2,0.0,-0.0,0,0,,,,,,,,,,,,,,,,,,,
10709,1480729834732,,,,,,,,0.01,0.11,1.01,-3.2,0.0,0.0,0,0,,,,,,,,,,,,,,,,,,,
10729,1480729834752,,,,,,,,0.02,0.12,1.02,-3.0,0.5,0.0,0,0,,,,,,,,,,,,,,,,,,,
10749,1480729834772,,,,,13,,,0.02,0.13,1.02,-3.0,0.2,-0.2,0,0,1,0,0.0,0,38.159138,-122.454452,0.0,0.0,27.4,7,2,2.4,0,0.0,-1,0.0,,0.0,0
10769,1480729834792,,,,,,,,0.02,0.1,1.01,-2.9,0.3,-0.5,0,0,,,,,,,,,,,,,,,,,,,
10789,1480729834812,,,,,,,,0.02,0.08,1.0,-2.9,0.4,-0.5,0,0,,,,,,,,,,,,,,,,,,,
10809,1480729834832,,,,,,,,0.03,0.09,1.0,-3.0,0.3,-0.2,0,0,,,,,,,,,,,,,,,,,,,
10829,1480729834852,,,,,,,,0.02,0.1,1.01,-3.1,0.2,0.0,0,0,,,,,,,,,,,,,,,,,,,
10849,1480729834872,0,87.9,,111.5,13,101.5,,0.02,0.11,1.0,-3.1,0.2,0.1,0,0,1,0,0.0,0,38.159138,-122.454452,0.0,0.0,27.4,7,2,2.4,0,0.0,-1,0.0,0.0,0.0,0
10869,1480729834892,,,,,,,,0.03,0.11,1.01,-3.1,0.3,0.1,0,0,,,,,,,,,,,,,,,,,,,
10889,1480729834906,,,,,,,,0.03,0.12,1.01,-3.2,0.1,0.1,0,0,,,,,,,,,,,,,,,,,,,
10909,1480729834926,,,,,,,,0.03,0.13,1.01,-3.2,0.2,0.1,0,0,,,,,,,,,,,,,,,,,,,
10929,1480729834946,,,,,,,,0.03,0.13,1.02,-3.2,0.2,0.2,0,0,,,,,,,,,,,,,,,,,,,
10949,1480729834966,,,,,14,,,0.03,0.13,1.02,-3.2,0.2,0.2,0,0,1,0,0.0,0,38.159138,-122.454452,0.0,0.0,27.4,7,2,2.4,0,0.0,-1,0.0,,0.0,0
10969,1480729834991,,,,,,,,0.03,0.13,1.02,-3.2,0.1,0.2,0,0,,,,,,,,,,,,,,,,,,,
10989,1480729835110,,,,,,,,0.03,0.13,1.02,-3.2,0.1,0.2,0,0,,,,,,,,,,,,,,,,,,,
11009,1480729835130,,,,,,,,0.03,0.13,1.02,-3.2,0.1,0.2,0,0,,,,,,,,,,,,,,,,,,,
11029,1480729835150,,,,,,,,0.03,0.13,1.02,-3.2,0.0,0.1,0,0,,,,,,,,,,,,,,,,,,,
11049,1480729835170,0,90.0,0.0,112.9,14,101.3,10.23,0.02,0.12,1.02,-3.1,-0.1,-0.0,0,0,1,0,0.0,0,38.159138,-122.454452,0.0,0.0,27.4,7,2,2.4,0,0.0,-1,0.0,0.0,0.0,0
11069,1480729835190,,,,,,,,0.01,0.11,1.01,-3.1,-0.1,-0.2,0,0,,,,,,,,,,,,,,,,,,,
11089,1480729835210,,,,,,,,0.01,0.1,1.01,-3.1,0.1,-0.2,0,0,,,,,,,,,,,,,,,,,,,
11109,1480729835230,,,,,,,,0.01,0.09,1.01,-3.1,0.1,-0.1,0,0,,,,,,,,,,,,,,,,,,,
11129,1480729835250,,,,,,,,0.01,0.08,1.01,-3.1,0.1,-0.0,0,0,,,,,,,,,,,,,,,,,,,
11149,1480729835270,,,,,15,,,0.01,0.09,1.01,-3.1,0.1,-0.1,0,0,1,0,0.0,0,38.159138,-122.454452,0.0,0.0,27.4,7,2,2.4,0,0.0,-1,0.0,,0.0,0
11169,1480729835191,,,,,,,,0.01,0.09,1.01,-3.1,0.1,-0.1,0,0,,,,,,,,,,,,,,,,,,,
11189,1480729835211,,,,,,,,0.01,0.09,1.01,-3.1,-0.0,-0.1,200,0,,,,,,,,,,,,,,,,,,,
11209,1480729835231,,,,,,,,0.01,0.08,1.0,-3.1,-0.1,-0.0,200,0,,,,,,,,,,,,,,,,,,,
11229,1480729835251,,,,,,,,0.01,0.07,1.0,-3.1,-0.1,0.0,200,0,,,,,,,,,,,,,,,,,,,
11249,1480729835271,0,88.9,,112.1,16,101.5,,0.01,0.09,1.0,-3.1,-0.1,-0.0,320,0,1,0,0.0,0,38.159138,-122.454452,0.0,0.0,27.4,7,2,2.4,0,0.0,-1,0.0,0.0,0.0,0
11269,1480729835291,,,,,,,,0.01,0.08,1.0,-3.1,-0.1,-0.1,320,0,,,,,,,,,,,,,,,,,,,
11289,1480729835310,,,,,,,,0.01,0.09,0.99,-3.2,-0.2,-0.1,480,0,,,,,,,,,,,,,,,,,,,
11309,1480729835330,,,,,,,,0.01,0.09,1.0,-3.1,-0.1,-0.0,480,0,,,,,,,,,,,,,,,,,,,
11329,1480729835350,,,,,,,,0.01,0.09,1.0,-3.2,-0.1,0.0,560,0,,,,,,,,,,,,,,,,,,,
,,,,,,,,,,,,,,,,,,,,,,,,,,,,,,,,,,,
11449,1480729835470,0,89.5,,112.9,32,102.1,,0.0,0.09,1.02,-3.1,0.1,-0.2,900,0,1,0,0.0,0,38.159138,-122.454452,0.0,0.0,27.4,7,2,2.4,0,0.0,-1,0.0,0.0,0.0,0
11469,1480729835490,,,,,,,,0.0,0.1,1.0,-3.1,0.1,-0.2,920,0,,,,,,,,,,,,,,,,,,,
11489,1480729835510,,,,,,,,0.01,0.09,1.0,-3.1,0.1,-0.2,940,0,,,,,,,,,,,,,,,,,,,
11509,1480729835530,,,,,,,,0.0,0.07,0.99,-3.1,0.1,-0.3,980,0,,,,,,,,,,,,,,,,,,,
11529,1480729835550,,,,,,,,0.0,0.07,1.0,-3.1,0.0,-0.3,1020,46,,,,,,,,,,,,,,,,,,,
11629,1480729835650,,,,,,,,0.01,0.08,1.0,-3.1,-0.1,-0.1,940,46,,,,,,,,,,,,,,,,,,,
11649,1480729835670,0,90.6,,113.1,54,100.9,,0.01,0.08,1.0,-3.1,-0.1,-0.0,940,1538461,1,0,0.0,0,38.159138,-122.454452,0.0,0.0,27.4,7,2,2.4,0,0.0,-1,0.0,0.0,0.0,0
11669,1480729835690,,,,,,,,0.01,0.09,1.01,-3.2,-0.0,-0.0,920,0,,,,,,,,,,,,,,,,,,,
11689,1480729835710,,,,,,,,0.01,0.09,1.01,-3.2,0.1,0.0,920,0,,,,,,,,,,,,,,,,,,,
11709,1480729835730,,,,,,,,0.01,0.1,1.01,-3.2,0.2,0.1,900,0,,,,,,,,,,,,,,,,,,,
11729,1480729835750,,,,,,,,0.02,0.11,1.01,-3.2,-0.0,0.1,900,0,,,,,,,,,,,,,,,,,,,
11749,1480729835770,,,,,60,,,0.01,0.11,1.01,-3.2,-0.2,0.1,900,0,1,0,0.0,0,38.159138,-122.454452,0.0,0.0,27.4,7,2,2.4,0,0.0,-1,0.0,,0.0,0
11769,1480729835791,,,,,,,,0.01,0.11,1.01,-3.2,-0.1,0.0,900,0,,,,,,,,,,,,,,,,,,,
11789,1480729835910,,,,,,,,0.01,0.1,1.02,-3.2,-0.0,-0.1,940,0,,,,,,,,,,,,,,,,,,,
11809,1480729835930,,,,,,,,0.01,0.11,1.01,-3.1,0.0,-0.1,940,0,,,,,,,,,,,,,,,,,,,
11829,1480729835950,,,,,,,,0.01,0.1,1.0,-3.1,-0.1,-0.1,940,0,,,,,,,,,,,,,,,,,,,
11849,1480729835970,0,88.1,,111.6,63,101.6,,0.01,0.09,1.0,-3.1,-0.1,-0.2,900,0,1,0,0.0,0,38.159138,-122.454452,0.0,0.0,27.4,7,2,2.4,0,0.0,-1,0.0,0.0,0.0,0
11869,1480729835990,,,,,,,,0.01,0.08,1.01,-3.1,-0.0,-0.2,940,0,,,,,,,,,,,,,,,,,,,
11889,1480729836010,,,,,,,,0.01,0.08,1.01,-3.1,0.0,-0.2,960,0,,,,,,,,,,,,,,,,,,,
11909,1480729836030,,,,,,,,0.01,0.08,1.01,-3.1,0.0,-0.2,980,0,,,,,,,,,,,,,,,,,,,
11929,1480729836050,,,,,,,,0.01,0.08,1.01,-3.1,0.2,-0.3,980,0,,,,,,,,,,,,,,,,,,,
11949,1480729836070,,,,,61,,,0.01,0.07,1.01,-3.1,0.2,-0.2,940,0,1,0,0.0,0,38.159138,-122.454452,0.0,0.0,27.4,7,2,2.4,0,0.0,-1,0.0,,0.0,0
11969,1480729836090,,,,,,,,-0.0,0.07,1.01,-3.0,0.2,-0.2,960,0,,,,,,,,,,,,,,,,,,,
11989,1480729836010,,,,,,,,-0.0,0.06,1.01,-3.0,0.2,-0.2,980,0,,,,,,,,,,,,,,,,,,,
12009,1480729836030,,,,,,,,-0.01,0.06,1.0,-3.0,0.0,-0.3,1000,0,,,,,,,,,,,,,,,,,,,
12029,1480729836050,,,,,,,,-0.01,0.06,0.99,-3.0,-0.1,-0.3,980,0,,,,,,,,,,,,,,,,,,,
12049,1480729836070,0,87.9,0.0,111.0,63,101.2,14.8,-0.02,0.05,0.98,-3.0,-0.2,-0.3,1000,0,1,0,0.0,0,38.159138,-122.454452,0.0,0.0,27.4,7,2,2.4,0,0.0,-1,0.0,0.0,0.0,0
12069,1480729836090,,,,,,,,-0.02,0.05,0.98,-3.0,-0.1,-0.2,1000,0,,,,,,,,,,,,,,,,,,,
12089,1480729836110,,,,,,,,-0.02,0.05,0.98,-3.0,-0.1,-0.2,1060,0,,,,,,,,,,,,,,,,,,,
12109,1480729836130,,,,,,,,-0.02,0.04,0.99,-3.1,-0.1,-0.1,1100,0,,,,,,,,,,,,,,,,,,,
12129,1480729836150,,,,,,,,-0.01,0.06,0.98,-3.1,-0.2,-0.1,1160,0,,,,,,,,,,,,,,,,,,,
12149,1480729836170,,,,,72,,,-0.0,0.06,0.99,-3.1,-0.1,-0.1,1200,0,1,0,0.0,0,38.159138,-122.454452,0.0,0.0,27.4,7,2,2.4,0,0.0,-1,0.0,,0.0,0
12169,1480729836191,,,,,,,,0.0,0.07,0.98,-3.1,-0.2,-0.0,1240,0,,,,,,,,,,,,,,,,,,,
12189,1480729836211,,,,,,,,0.01,0.07,0.98,-3.2,0.0,0.1,1300,0,,,,,,,,,,,,,,,,,,,
12209,1480729836231,,,,,,,,0.01,0.08,0.99,-3.2,-0.1,0.2,1340,0,,,,,,,,,,,,,,,,,,,
12229,1480729836251,,,,,,,,0.01,0.07,1.0,-3.2,-0.4,0.3,1400,0,,,,,,,,,,,,,,,,,,,
12249,1480729836271,0,87.3,,110.0,58,100.6,,0.03,0.06,1.01,-3.2,0.2,0.3,1440,0,1,0,0.0,0,38.159138,-122.454452,0.0,0.0,27.4,7,2,2.4,0,0.0,-1,0.0,0.0,0.0,0
12269,1480729836291,,,,,,,,0.03,0.08,1.01,-3.2,0.3,0.3,1520,0,,,,,,,,,,,,,,,,,,,
12289,1480729836310,,,,,,,,0.04,0.1,1.01,-3.2,0.3,0.2,1580,0,,,,,,,,,,,,,,,,,,,
12309,1480729836330,,,,,,,,0.04,0.08,1.03,-3.2,0.1,0.2,1660,0,,,,,,,,,,,,,,,,,,,
12329,1480729836350,,,,,,,,0.04,0.09,1.04,-3.2,0.2,0.1,1740,0,,,,,,,,,,,,,,,,,,,
12349,1480729836370,,,,,64,,,0.04,0.1,1.03,-3.1,0.0,0.0,1760,0,1,0,0.0,0,38.159138,-122.454452,0.0,0.0,27.4,7,2,2.4,0,0.0,-1,0.0,,0.0,0
12369,1480729836390,,,,,,,,0.04,0.08,1.04,-3.1,0.1,0.1,1800,0,,,,,,,,,,,,,,,,,,,
12389,1480729836410,,,,,,,,0.03,0.1,1.03,-3.1,0.2,0.1,1840,0,,,,,,,,,,,,,,,,,,,
12409,1480729836430,,,,,,,,0.03,0.1,1.03,-3.1,0.0,0.0,1860,0,,,,,,,,,,,,,,,,,,,
12429,1480729836450,,,,,,,,0.03,0.09,1.03,-3.1,0.3,-0.1,1860,0,,,,,,,,,,,,,,,,,,,
12449,1480729836470,0,90.1,,110.0,74,97.4,,0.03,0.08,1.03,-3.1,0.5,-0.2,1880,0,1,0,0.0,0,38.159138,-122.454452,0.0,0.0,27.4,7,2,2.4,0,0.0,-1,0.0,0.0,0.0,0
12469,1480729836490,,,,,,,,0.04,0.09,1.01,-3.1,0.3,-0.1,1840,0,,,,,,,,,,,,,,,,,,,
12489,1480729836510,,,,,,,,0.03,0.08,1.02,-3.1,-0.0,-0.1,1820,0,,,,,,,,,,,,,,,,,,,
12509,1480729836530,,,,,,,,0.03,0.09,1.02,-3.1,-0.2,-0.0,1780,0,,,,,,,,,,,,,,,,,,,
12529,1480729836550,,,,,,,,0.02,0.09,1.02,-3.1,-0.0,-0.0,1700,0,,,,,,,,,,,,,,,,,,,
12549,1480729836570,,,,,77,,,0.02,0.1,1.01,-3.1,0.1,-0.0,1640,0,1,0,0.0,0,38.159138,-122.454452,0.0,0.0,27.4,7,2,2.4,0,0.0,-1,0.0,,0.0,0
12569,1480729836590,,,,,,,,0.02,0.1,1.01,-3.1,0.2,0.0,1620,0,,,,,,,,,,,,,,,,,,,
12589,1480729836709,,,,,,,,0.02,0.1,1.01,-3.2,0.1,0.0,1560,0,,,,,,,,,,,,,,,,,,,
,,,,,,,,,,,,,,,,,,,,,,,,,,,,,,,,,,,
12669,1480729836789,,,,,,,,0.02,0.1,1.0,-3.1,-0.0,-0.0,1400,0,,,,,,,,,,,,,,,,,,,
12689,1480729836809,,,,,,,,0.02,0.1,1.0,-3.1,-0.1,-0.0,1380,0,,,,,,,,,,,,,,,,,,,
12709,1480729836829,,,,,,,,0.02,0.09,1.0,-3.1,-0.1,-0.0,1340,0,,,,,,,,,,,,,,,,,,,
12729,1480729836849,,,,,,,,0.02,0.1,1.0,-3.1,0.0,0.0,1280,0,,,,,,,,,,,,,,,,,,,
12749,1480729836869,,,,,54,,,0.02,0.1,1.0,-3.1,0.0,0.0,1240,0,1,0,0.0,0,38.159138,-122.454452,0.0,0.0,27.4,7,2,2.4,0,0.0,-1,0.0,,0.0,0
12769,1480729836889,,,,,,,,0.01,0.09,1.0,-3.2,-0.0,0.0,1200,0,,,,,,,,,,,,,,,,,,,
12789,1480729836810,,,,,,,,0.02,0.09,1.0,-3.2,0.0,0.0,1180,0,,,,,,,,,,,,,,,,,,,
12849,1480729836870,0,91.0,,112.5,56,99.1,,0.02,0.09,1.0,-3.1,0.0,0.0,1020,0,1,0,0.0,0,38.159138,-122.454452,0.0,0.0,27.4,7,2,2.4,0,0.0,-1,0.0,0.0,0.0,0
12869,1480729836890,,,,,,,,0.02,0.1,1.0,-3.2,0.0,0.0,1060,0,,,,,,,,,,,,,,,,,,,
12889,1480729836903,,,,,,,,0.02,0.1,1.0,-3.2,-0.1,0.0,1020,0,,,,,,,,,,,,,,,,,,,
12909,1480729836923,,,,,,,,0.02,0.1,1.0,-3.2,-0.1,0.0,980,0,,,,,,,,,,,,,,,,,,,
12929,1480729836943,,,,,,,,0.02,0.1,1.0,-3.2,0.0,-0.0,960,0,,,,,,,,,,,,,,,,,,,
12949,1480729836963,,,,,54,,,0.02,0.1,1.0,-3.2,0.1,-0.0,920,0,1,0,0.0,0,38.159138,-122.454452,0.0,0.0,27.4,7,2,2.4,0,0.0,-1,0.0,,0.0,0
12969,1480729836983,,,,,,,,0.02,0.1,1.0,-3.2,0.1,0.0,900,0,,,,,,,,,,,,,,,,,,,
12989,1480729837010,,,,,,,,0.02,0.1,1.0,-3.2,-0.1,0.0,880,0,,,,,,,,,,,,,,,,,,,
13009,1480729837030,,,,,,,,0.02,0.1,1.01,-3.2,0.0,-0.0,880,0,,,,,,,,,,,,,,,,,,,
13029,1480729837050,,,,,,,,0.02,0.11,1.01,-3.2,0.0,-0.0,840,0,,,,,,,,,,,,,,,,,,,
13049,1480729837070,0,88.4,0.0,109.9,54,99.2,14.87,0.02,0.1,1.01,-3.2,-0.0,-0.0,820,0,1,0,0.0,0,38.159138,-122.454452,0.0,0.0,27.4,7,2,2.4,0,0.0,-1,0.0,0.0,0.0,0
13069,1480729837090,,,,,,,,0.02,0.11,1.01,-3.2,-0.0,-0.0,820,0,,,,,,,,,,,,,,,,,,,
13089,1480729837110,,,,,,,,0.01,0.11,1.01,-3.2,-0.1,-0.0,820,0,,,,,,,,,,,,,,,,,,,
13109,1480729837130,,,,,,,,0.02,0.1,1.01,-3.2,0.1,-0.0,800,0,,,,,,,,,,,,,,,,,,,
13129,1480729837150,,,,,,,,0.02,0.1,1.01,-3.2,0.0,-0.0,780,0,,,,,,,,,,,,,,,,,,,
13149,1480729837170,,,,,56,,,0.01,0.1,1.01,-3.1,-0.1,-0.1,780,0,1,0,0.0,0,38.159138,-122.454452,0.0,0.0,27.4,7,2,2.4,0,0.0,-1,0.0,,0.0,0
13169,1480729837190,,,,,,,,0.01,0.1,1.01,-3.2,0.0,-0.0,780,0,,,,,,,,,,,,,,,,,,,
13189,1480729837207,,,,,,,,0.01,0.1,1.01,-3.2,0.0,-0.0,780,0,,,,,,,,,,,,,,,,,,,
13209,1480729837227,,,,,,,,0.02,0.1,1.01,-3.1,0.0,-0.0,760,0,,,,,,,,,,,,,,,,,,,
13229,1480729837247,,,,,,,,0.01,0.1,1.01,-3.1,-0.0,-0.0,740,0,,,,,,,,,,,,,,,,,,,
13249,1480729837267,0,90.1,,110.5,55,98.8,,0.01,0.1,1.01,-3.1,-0.0,-0.1,740,0,1,0,0.0,0,38.159138,-122.454452,0.0,0.0,27.4,7,2,2.4,0,0.0,-1,0.0,0.0,0.0,0
13269,1480729837287,,,,,,,,0.02,0.1,1.01,-3.2,0.1,-0.0,760,0,,,,,,,,,,,,,,,,,,,
13289,1480729837310,,,,,,,,0.02,0.1,1.01,-3.2,0.1,0.0,780,0,,,,,,,,,,,,,,,,,,,
13309,1480729837330,,,,,,,,0.02,0.1,1.01,-3.2,-0.0,0.0,800,0,,,,,,,,,,,,,,,,,,,
13329,1480729837350,,,,,,,,0.02,0.1,1.02,-3.1,0.0,-0.1,800,0,,,,,,,,,,,,,,,,,,,
13349,1480729837370,,,,,54,,,0.02,0.1,1.01,-3.1,0.1,-0.1,800,0,1,0,0.0,0,38.159138,-122.454452,0.0,0.0,27.4,7,2,2.4,0,0.0,-1,0.0,,0.0,0
13369,1480729837390,,,,,,,,0.02,0.1,1.01,-3.2,0.1,0.0,800,0,,,,,,,,,,,,,,,,,,,
13389,1480729837509,,,,,,,,0.02,0.1,1.01,-3.2,0.1,0.1,820,0,,,,,,,,,,,,,,,,,,,
13409,1480729837529,,,,,,,,0.02,0.11,1.01,-3.2,0.1,0.1,840,0,,,,,,,,,,,,,,,,,,,
13429,1480729837549,,,,,,,,0.02,0.1,1.02,-3.2,0.0,0.0,860,0,,,,,,,,,,,,,,,,,,,
13449,1480729837569,0,90.1,,110.7,56,98.4,,0.02,0.1,1.01,-3.1,0.0,-0.0,880,0,1,0,0.0,0,38.159138,-122.454452,0.0,0.0,27.4,7,2,2.4,0,0.0,-1,0.0,0.0,0.0,0
13469,1480729837589,,,,,,,,0.01,0.1,1.01,-3.1,0.0,-0.1,880,0,,,,,,,,,,,,,,,,,,,
13489,1480729837609,,,,,,,,0.02,0.09,1.01,-3.1,0.1,-0.1,880,0,,,,,,,,,,,,,,,,,,,
13509,1480729837629,,,,,,,,0.02,0.1,1.01,-3.1,-0.0,-0.1,880,0,,,,,,,,,,,,,,,,,,,
13529,1480729837649,,,,,,,,0.01,0.1,1.01,-3.1,-0.1,-0.0,900,0,,,,,,,,,,,,,,,,,,,
13549,1480729837669,,,,,67,,,0.02,0.1,1.01,-3.2,0.2,0.1,920,0,1,0,0.0,0,38.159138,-122.454452,0.0,0.0,27.4,7,2,2.4,0,0.0,-1,0.0,,0.0,0
13569,1480729837689,,,,,,,,0.03,0.11,1.01,-3.2,0.2,0.1,920,0,,,,,,,,,,,,,,,,,,,
13589,1480729837610,,,,,,,,0.03,0.11,1.01,-3.2,0.1,0.1,940,0,,,,,,,,,,,,,,,,,,,
13609,1480729837630,,,,,,,,0.02,0.12,1.01,-3.2,-0.1,0.1,940,0,,,,,,,,,,,,,,,,,,,
13629,1480729837650,,,,,,,,0.02,0.13,1.01,-3.2,-0.2,0.1,960,0,,,,,,,,,,,,,,,,,,,
13649,1480729837670,0,89.5,,111.0,60,100.7,,0.01,0.12,1.01,-3.2,-0.3,0.1,960,0,1,0,0.0,0,38.159138,-122.454452,0.0,0.0,27.4,7,2,2.4,0,0.0,-1,0.0,0.0,0.0,0
13669,1480729837690,,,,,,,,0.01,0.12,1.01,-3.1,-0.3,0.0,980,0,,,,,,,,,,,,,,,,,,,
13689,1480729837710,,,,,,,,0.01,0.11,1.01,-3.2,-0.3,-0.1,1000,0,,,,,,,,,,,,,,,,,,,
13709,1480729837730,,,,,,,,0.01,0.11,1.01,-3.1,-0.3,-0.1,1000,0,,,,,,,,,,,,,,,,,,,
13729,1480729837750,,,,,,,,0.01,0.1,1.01,-3.1,-0.3,-0.2,1000,0,,,,,,,,,,,,,,,,,,,
13749,1480729837770,,,,,58,,,0.01,0.1,1.01,-3.1,-0.3,-0.2,1000,0,1,0,0.0,0,38.159138,-122.454452,0.0,0.0,27.4,7,2,2.4,0,0.0,-1,0.0,,0.0,0
13769,1480729837790,,,,,,,,0.0,0.1,1.0,-3.1,-0.4,-0.2,1000,0,,,,,,,,,,,,,,,,,,,
13789,1480729837810,,,,,,,,0.01,0.1,1.0,-3.1,-0.4,-0.3,1020,0,,,,,,,,,,,,,,,,,,,
13809,1480729837830,,,,,,,,0.0,0.1,0.99,-3.1,-0.4,-0.3,1020,0,,,,,,,,,,,,,,,,,,,
13829,1480729837850,,,,,,,,0.0,0.1,0.99,-3.1,-0.4,-0.3,1020,0,,,,,,,,,,,,,,,,,,,
13849,1480729837870,0,90.3,,112.1,59,101.0,,0.0,0.11,0.99,-3.0,-0.4,-0.3,1020,0,1,0,0.0,0,38.159138,-122.454452,0.0,0.0,27.4,7,2,2.4,0,0.0,-1,0.0,0.0,0.0,0
13869,1480729837890,,,,,,,,0.01,0.1,0.99,-3.0,-0.4,-0.3,1020,0,,,,,,,,,,,,,,,,,,,
13889,1480729837904,,,,,,,,0.01,0.11,1.0,-3.0,-0.3,-0.3,1020,0,,,,,,,,,,,,,,,,,,,
13909,1480729837924,,,,,,,,0.02,0.11,1.0,-3.0,-0.2,-0.3,1020,0,,,,,,,,,,,,,,,,,,,
13929,1480729837944,,,,,,,,0.02,0.11,1.0,-3.0,-0.1,-0.3,1020,0,,,,,,,,,,,,,,,,,,,
13949,1480729837964,,,,,56,,,0.02,0.11,1.01,-3.0,-0.1,-0.3,1020,0,1,0,0.0,0,38.159138,-122.454452,0.0,0.0,27.4,7,2,2.4,0,0.0,-1,0.0,,0.0,0
13969,1480729837984,,,,,,,,0.02,0.11,1.01,-3.0,0.0,-0.2,1000,0,,,,,,,,,,,,,,,,,,,
13989,1480729838006,,,,,,,,0.02,0.12,1.01,-3.0,0.0,-0.2,1000,0,,,,,,,,,,,,,,,,,,,
14009,1480729838026,,,,,,,,0.02,0.12,1.01,-3.0,0.1,-0.2,1000,0,,,,,,,,,,,,,,,,,,,
14029,1480729838046,,,,,,,,0.02,0.12,1.01,-3.0,0.0,-0.1,1000,0,,,,,,,,,,,,,,,,,,,
14049,1480729838066,0,91.0,0.0,112.7,59,101.2,14.81,0.02,0.12,1.01,-3.0,-0.0,-0.1,1000,0,1,0,0.0,0,38.159138,-122.454452,0.0,0.0,27.4,7,2,2.4,0,0.0,-1,0.0,0.0,0.0,0
14069,1480729838091,,,,,,,,0.02,0.13,1.01,-3.0,-0.0,-0.1,1000,0,,,,,,,,,,,,,,,,,,,
14089,1480729838111,,,,,,,,0.02,0.13,1.01,-3.0,-0.0,-0.1,1000,0,,,,,,,,,,,,,,,,,,,
14109,1480729838131,,,,,,,,0.02,0.13,1.01,-3.0,-0.1,-0.0,980,0,,,,,,,,,,,,,,,,,,,
14129,1480729838151,,,,,,,,0.02,0.13,1.01,-3.0,-0.2,-0.0,1000,0,,,,,,,,,,,,,,,,,,,
14149,1480729838171,,,,,57,,,0.02,0.14,1.01,-3.0,-0.2,0.0,1000,0,1,0,0.0,0,38.159138,-122.454452,0.0,0.0,27.4,7,2,2.4,0,0.0,-1,0.0,,0.0,0
14169,1480729838191,,,,,,,,0.02,0.14,1.01,-3.0,-0.2,0.0,1000,0,,,,,,,,,,,,,,,,,,,
14189,1480729838310,,,,,,,,0.02,0.14,1.02,-3.0,-0.2,0.0,1000,0,,,,,,,,,,,,,,,,,,,
14209,1480729838330,,,,,,,,0.02,0.14,1.02,-3.1,-0.2,0.0,1000,0,,,,,,,,,,,,,,,,,,,
14229,1480729838350,,,,,,,,0.02,0.14,1.02,-3.1,-0.3,0.1,980,0,,,,,,,,,,,,,,,,,,,
14249,1480729838370,1,90.2,,112.7,57,100.2,,0.02,0.14,1.02,-3.1,-0.3,0.1,980,0,1,0,0.0,0,38.159138,-122.454452,0.0,0.0,27.4,7,2,2.4,0,0.0,-1,0.0,0.0,0.0,0
14269,1480729838390,,,,,,,,0.02,0.14,1.02,-3.1,-0.3,0.1,980,0,,,,,,,,,,,,,,,,,,,
14289,1480729838410,,,,,,,,0.02,0.14,1.02,-3.1,-0.4,0.1,980,0,,,,,,,,,,,,,,,,,,,
14309,1480729838430,,,,,,,,0.02,0.14,1.02,-3.1,-0.4,0.1,980,0,,,,,,,,,,,,,,,,,,,
14329,1480729838450,,,,,,,,0.02,0.15,1.02,-3.1,-0.4,0.1,980,0,,,,,,,,,,,,,,,,,,,
14349,1480729838470,,,,,59,,,0.02,0.15,1.02,-3.1,-0.4,0.1,980,0,1,0,0.0,0,38.159138,-122.454452,0.0,0.0,27.4,7,2,2.4,0,0.0,-1,0.0,,0.0,0
14369,1480729838490,,,,,,,,0.02,0.15,1.02,-3.1,-0.4,0.1,980,0,,,,,,,,,,,,,,,,,,,
14389,1480729838410,,,,,,,,0.02,0.15,1.02,-3.1,-0.3,0.1,980,0,,,,,,,,,,,,,,,,,,,
14409,1480729838430,,,,,,,,0.02,0.15,1.02,-3.1,-0.3,0.1,980,0,,,,,,,,,,,,,,,,,,,
14429,1480729838450,,,,,,,,0.02,0.15,1.02,-3.1,-0.3,0.2,980,0,,,,,,,,,,,,,,,,,,,
14449,1480729838470,0,91.1,,113.1,58,101.3,,0.02,0.16,1.02,-3.1,-0.2,0.2,980,0,1,0,0.0,0,38.159138,-122.454452,0.0,0.0,27.4,7,2,2.4,0,0.0,-1,0.0,0.0,0.0,0
14469,1480729838491,,,,,,,,0.02,0.16,1.02,-3.1,-0.2,0.2,960,0,,,,,,,,,,,,,,,,,,,
14489,1480729838511,,,,,,,,0.03,0.16,1.02,-3.1,-0.1,0.2,960,0,,,,,,,,,,,,,,,,,,,
14509,1480729838531,,,,,,,,0.03,0.16,1.02,-3.1,-0.0,0.2,980,0,,,,,,,,,,,,,,,,,,,
14529,1480729838551,,,,,,,,0.03,0.16,1.02,-3.1,0.1,0.2,980,0,,,,,,,,,,,,,,,,,,,
14549,1480729838571,,,,,54,,,0.03,0.16,1.02,-3.1,0.1,0.2,980,0,1,0,0.0,0,38.159138,-122.454452,0.0,0.0,27.4,7,2,2.4,0,0.0,-1,0.0,,0.0,0
14569,1480729838591,,,,,,,,0.03,0.16,1.02,-3.1,0.1,0.2,960,0,,,,,,,,,,,,,,,,,,,
14589,1480729838610,,,,,,,,0.03,0.16,1.02,-3.1,0.0,0.2,960,0,,,,,,,,,,,,,,,,,,,
14609,1480729838630,,,,,,,,0.03,0.16,1.02,-3.1,-0.0,0.2,960,0,,,,,,,,,,,,,,,,,,,
14629,1480729838650,,,,,,,,0.03,0.16,1.02,-3.1,-0.1,0.1,960,0,,,,,,,,,,,,,,,,,,,
14649,1480729838670,0,89.1,,112.5,57,98.3,,0.02,0.15,1.01,-3.1,-0.3,0.1,960,0,1,0,0.0,0,38.159138,-122.454452,0.0,0.0,27.4,7,2,2.4,0,0.0,-1,0.0,0.0,0.0,0
14669,1480729838691,,,,,,,,0.02,0.15,1.01,-3.1,-0.4,0.1,980,0,,,,,,,,,,,,,,,,,,,
14689,1480729838711,,,,,,,,0.01,0.14,1.01,-3.1,-0.5,0.1,960,0,,,,,,,,,,,,,,,,,,,
14709,1480729838731,,,,,,,,0.01,0.14,1.01,-3.1,-0.5,0.0,960,0,,,,,,,,,,,,,,,,,,,
14729,1480729838751,,,,,,,,0.01,0.14,1.01,-3.1,-0.5,-0.0,960,0,,,,,,,,,,,,,,,,,,,
14749,1480729838771,,,,,51,,,0.0,0.13,1.01,-3.1,-0.5,-0.1,980,0,1,0,0.0,0,38.159138,-122.454452,0.0,0.0,27.4,7,2,2.4,0,0.0,-1,0.0,,0.0,0
14769,1480729838791,,,,,,,,0.0,0.12,1.02,-3.1,-0.4,-0.1,980,0,,,,,,,,,,,,,,,,,,,
14789,1480729838811,,,,,,,,0.0,0.12,1.02,-3.1,-0.3,-0.2,980,0,,,,,,,,,,,,,,,,,,,
14809,1480729838831,,,,,,,,-0.0,0.11,1.02,-3.1,-0.2,-0.2,960,0,,,,,,,,,,,,,,,,,,,
14829,1480729838851,,,,,,,,-0.0,0.11,1.02,-3.0,-0.1,-0.3,960,0,,,,,,,,,,,,,,,,,,,
14849,1480729838871,0,90.3,,113.1,57,100.3,,-0.0,0.1,1.01,-3.0,-0.0,-0.3,960,0,1,0,0.0,0,38.159138,-122.454452,0.0,0.0,27.4,7,2,2.4,0,0.0,-1,0.0,0.0,0.0,0
14869,1480729838891,,,,,,,,-0.01,0.1,1.01,-3.0,0.0,-0.4,980,0,,,,,,,,,,,,,,,,,,,
14889,1480729838904,,,,,,,,-0.01,0.1,1.01,-3.0,0.1,-0.5,980,0,,,,,,,,,,,,,,,,,,,
14909,1480729838924,,,,,,,,-0.01,0.09,1.0,-3.0,0.1,-0.5,980,0,,,,,,,,,,,,,,,,,,,
14929,1480729838944,,,,,,,,-0.01,0.08,1.0,-3.0,0.2,-0.5,980,0,,,,,,,,,,,,,,,,,,,
14949,1480729838964,,,,,56,,,-0.01,0.08,0.99,-3.0,0.2,-0.6,980,0,1,0,0.0,0,38.159138,-122.454452,0.0,0.0,27.4,7,2,2.4,0,0.0,-1,0.0,,0.0,0
14969,1480729838991,,,,,,,,-0.0,0.08,0.99,-3.0,0.2,-0.6,960,0,,,,,,,,,,,,,,,,,,,
14989,1480729839110,,,,,,,,-0.0,0.08,0.98,-3.0,0.2,-0.6,980,0,,,,,,,,,,,,,,,,,,,
15009,1480729839130,,,,,,,,-0.0,0.07,0.98,-3.0,0.1,-0.5,980,0,,,,,,,,,,,,,,,,,,,
15029,1480729839150,,,,,,,,-0.0,0.07,0.98,-3.0,0.1,-0.5,960,0,,,,,,,,,,,,,,,,,,,
15049,1480729839170,0,88.9,0.0,110.3,55,100.6,14.83,0.0,0.06,0.98,-3.0,0.0,-0.5,960,0,1,0,0.0,0,38.159138,-122.454452,0.0,0.0,27.4,7,2,2.4,0,0.0,-1,0.0,0.0,0.0,0
15069,1480729839190,,,,,,,,0.0,0.06,0.98,-3.0,0.1,-0.5,980,0,,,,,,,,,,,,,,,,,,,
15089,1480729839210,,,,,,,,0.0,0.06,0.98,-3.0,0.0,-0.4,960,0,,,,,,,,,,,,,,,,,,,
15109,1480729839230,,,,,,,,0.01,0.06,0.98,-3.0,0.1,-0.4,980,0,,,,,,,,,,,,,,,,,,,
15129,1480729839250,,,,,,,,0.01,0.06,0.99,-3.0,0.1,-0.4,980,0,,,,,,,,,,,,,,,,,,,
15149,1480729839270,,,,,55,,,0.01,0.06,0.99,-3.0,0.1,-0.3,980,0,1,0,0.0,0,38.159138,-122.454452,0.0,0.0,27.4,7,2,2.4,0,0.0,-1,0.0,,0.0,0
15169,1480729839191,,,,,,,,0.01,0.06,0.99,-3.1,0.1,-0.3,960,0,,,,,,,,,,,,,,,,,,,
15189,1480729839211,,,,,,,,0.01,0.06,0.99,-3.1,0.2,-0.2,980,0,,,,,,,,,,,,,,,,,,,
15209,1480729839231,,,,,,,,0.01,0.06,0.99,-3.1,0.2,-0.1,980,0,,,,,,,,,,,,,,,,,,,
15229,1480729839251,,,,,,,,0.01,0.07,1.0,-3.1,0.2,-0.1,980,0,,,,,,,,,,,,,,,,,,,
15249,1480729839271,0,88.3,,112.4,57,98.0,,0.01,0.07,1.0,-3.1,0.2,0.0,980,0,1,0,0.0,0,38.159138,-122.454452,0.0,0.0,27.4,7,2,2.4,0,0.0,-1,0.0,0.0,0.0,0
15269,1480729839291,,,,,,,,0.01,0.07,1.0,-3.1,0.2,0.1,980,0,,,,,,,,,,,,,,,,,,,
15289,1480729839311,,,,,,,,0.02,0.07,1.01,-3.1,0.2,0.1,980,0,,,,,,,,,,,,,,,,,,,
15309,1480729839331,,,,,,,,0.02,0.08,1.01,-3.1,0.2,0.2,980,13,,,,,,,,,,,,,,,,,,,
15329,1480729839351,,,,,,,,0.02,0.08,1.01,-3.1,0.2,0.3,980,13,,,,,,,,,,,,,,,,,,,
15349,1480729839371,,,,,52,,,0.02,0.08,1.01,-3.1,0.2,0.3,980,13,1,0,75.385,0,38.159138,-122.454452,0.0,0.0,27.4,7,2,2.4,0,0.0,-1,0.0,,0.0,0
15369,1480729839391,,,,,,,,0.03,0.08,1.01,-3.2,0.2,0.3,980,13,,,,,,,,,,,,,,,,,,,
15389,1480729839410,,,,,,,,0.03,0.09,1.01,-3.2,0.2,0.4,980,13,,,,,,,,,,,,,,,,,,,
15409,1480729839430,,,,,,,,0.03,0.09,1.02,-3.2,0.2,0.4,980,769230,,,,,,,,,,,,,,,,,,,
15429,1480729839450,,,,,,,,0.03,0.09,1.02,-3.2,0.2,0.4,980,0,,,,,,,,,,,,,,,,,,,
15449,1480729839470,0,87.1,,110.6,58,98.0,,0.04,0.1,1.02,-3.2,0.2,0.4,980,0,1,0,0.0,0,38.159138,-122.454452,0.0,0.0,27.4,7,2,2.4,0,0.0,-1,0.0,0.0,0.0,0
15469,1480729839491,,,,,,,,0.04,0.1,1.02,-3.2,0.1,0.4,980,0,,,,,,,,,,,,,,,,,,,
15489,1480729839511,,,,,,,,0.04,0.11,1.02,-3.2,0.1,0.4,980,0,,,,,,,,,,,,,,,,,,,
15509,1480729839531,,,,,,,,0.04,0.11,1.02,-3.2,0.0,0.4,980,0,,,,,,,,,,,,,,,,,,,
15529,1480729839551,,,,,,,,0.04,0.11,1.02,-3.2,0.0,0.4,980,0,,,,,,,,,,,,,,,,,,,
15549,1480729839571,,,,,55,,,0.04,0.12,1.02,-3.2,0.0,0.4,980,0,1,0,0.0,0,38.159138,-122.454452,0.0,0.0,27.4,7,2,2.4,0,0.0,-1,0.0,,0.0,0
15569,1480729839591,,,,,,,,0.04,0.12,1.02,-3.3,0.0,0.4,980,0,,,,,,,,,,,,,,,,,,,
15589,1480729839610,,,,,,,,0.04,0.13,1.02,-3.3,0.0,0.4,980,0,,,,,,,,,,,,,,,,,,,
15609,1480729839630,,,,,,,,0.04,0.13,1.02,-3.3,0.0,0.4,980,0,,,,,,,,,,,,,,,,,,,
15629,1480729839650,,,,,,,,0.04,0.14,1.02,-3.3,0.1,0.4,980,0,,,,,,,,,,,,,,,,,,,
15649,1480729839670,0,89.7,,110.8,54,100.9,,0.04,0.14,1.02,-3.2,0.1,0.4,980,0,1,0,0.0,0,38.159138,-122.454452,0.0,0.0,27.4,7,2,2.4,0,0.0,-1,0.0,0.0,0.0,0
15669,1480729839691,,,,,,,,0.04,0.14,1.02,-3.2,0.1,0.4,960,0,,,,,,,,,,,,,,,,,,,
15689,1480729839711,,,,,,,,0.04,0.14,1.03,-3.2,0.2,0.4,960,0,,,,,,,,,,,,,,,,,,,
15709,1480729839731,,,,,,,,0.05,0.14,1.03,-3.2,0.2,0.4,960,0,,,,,,,,,,,,,,,,,,,
15729,1480729839751,,,,,,,,0.05,0.14,1.03,-3.2,0.2,0.4,960,0,,,,,,,,,,,,,,,,,,,
15749,1480729839771,,,,,56,,,0.05,0.14,1.03,-3.2,0.0,0.4,960,0,1,0,0.0,0,38.159138,-122.454452,0.0,0.0,27.4,7,2,2.4,0,0.0,-1,0.0,,0.0,0
15769,1480729839891,,,,,,,,0.04,0.14,1.03,-3.2,-0.1,0.3,960,0,,,,,,,,,,,,,,,,,,,
15789,1480729839911,,,,,,,,0.04,0.14,1.03,-3.2,-0.3,0.3,960,0,,,,,,,,,,,,,,,,,,,
15809,1480729839931,,,,,,,,0.03,0.14,1.03,-3.2,-0.4,0.3,960,0,,,,,,,,,,,,,,,,,,,
15829,1480729839951,,,,,,,,0.03,0.14,1.03,-3.2,-0.5,0.2,960,0,,,,,,,,,,,,,,,,,,,
15849,1480729839971,0,87.1,,109.9,54,98.0,,0.02,0.13,1.03,-3.2,-0.5,0.2,960,0,1,0,0.0,0,38.159138,-122.454452,0.0,0.0,27.4,7,2,2.4,0,0.0,-1,0.0,0.0,0.0,0
15869,1480729839991,,,,,,,,0.02,0.13,1.03,-3.2,-0.4,0.1,960,0,,,,,,,,,,,,,,,,,,,
15889,1480729840011,,,,,,,,0.02,0.12,1.03,-3.2,-0.3,0.0,940,0,,,,,,,,,,,,,,,,,,,
15909,1480729840031,,,,,,,,0.01,0.12,1.03,-3.2,-0.2,-0.1,940,0,,,,,,,,,,,,,,,,,,,
15929,1480729840051,,,,,,,,0.01,0.11,1.02,-3.1,-0.1,-0.2,940,0,,,,,,,,,,,,,,,,,,,
15949,1480729840071,,,,,57,,,0.01,0.11,1.01,-3.1,-0.2,-0.2,940,0,1,0,0.0,0,38.159138,-122.454452,0.0,0.0,27.4,7,2,2.4,0,0.0,-1,0.0,,0.0,0
15969,1480729839991,,,,,,,,0.01,0.1,1.0,-3.1,-0.1,-0.3,940,0,,,,,,,,,,,,,,,,,,,
15989,1480729840011,,,,,,,,0.02,0.09,1.01,-3.1,0.0,-0.4,940,0,,,,,,,,,,,,,,,,,,,
16009,1480729840031,,,,,,,,0.02,0.09,1.0,-3.1,0.1,-0.3,920,0,,,,,,,,,,,,,,,,,,,
16029,1480729840051,,,,,,,,0.02,0.09,1.0,-3.1,0.1,-0.3,920,0,,,,,,,,,,,,,,,,,,,
16049,1480729840071,1,90.9,0.0,112.5,51,101.0,14.75,0.02,0.09,1.0,-3.1,0.0,-0.2,920,0,1,0,0.0,0,38.159138,-122.454452,0.0,0.0,27.4,7,2,2.4,0,0.0,-1,0.0,0.0,0.0,0
16069,1480729840093,,,,,,,,0.02,0.09,1.0,-3.2,-0.1,-0.1,920,0,,,,,,,,,,,,,,,,,,,
16089,1480729840113,,,,,,,,0.03,0.1,1.01,-3.2,0.0,-0.0,920,0,,,,,,,,,,,,,,,,,,,
16109,1480729840133,,,,,,,,0.03,0.11,1.01,-3.2,0.2,0.0,920,0,,,,,,,,,,,,,,,,,,,
16129,1480729840153,,,,,,,,0.04,0.11,1.01,-3.2,0.2,0.0,920,0,,,,,,,,,,,,,,,,,,,
16149,1480729840173,,,,,51,,,0.03,0.11,1.01,-3.2,0.0,0.0,920,0,1,0,0.0,0,38.159138,-122.454452,0.0,0.0,27.4,7,2,2.4,0,0.0,-1,0.0,,0.0,0
16169,1480729840193,,,,,,,,0.03,0.11,1.02,-3.2,-0.1,0.0,900,0,,,,,,,,,,,,,,,,,,,
16189,1480729840213,,,,,,,,0.02,0.1,1.03,-3.2,0.0,0.0,900,0,,,,,,,,,,,,,,,,,,,
16209,1480729840233,,,,,,,,0.02,0.11,1.02,-3.2,0.0,-0.0,900,0,,,,,,,,,,,,,,,,,,,
16229,1480729840253,,,,,,,,0.02,0.1,1.01,-3.2,-0.1,-0.1,900,0,,,,,,,,,,,,,,,,,,,
16249,1480729840273,0,90.1,,113.4,51,101.3,,0.02,0.09,1.02,-3.2,0.0,-0.2,900,0,1,0,0.0,0,38.159138,-122.454452,0.0,0.0,27.4,7,2,2.4,0,0.0,-1,0.0,0.0,0.0,0
16269,1480729840293,,,,,,,,0.03,0.09,1.01,-3.2,0.1,-0.2,900,0,,,,,,,,,,,,,,,,,,,
16289,1480729840313,,,,,,,,0.03,0.09,1.0,-3.2,0.1,-0.2,900,0,,,,,,,,,,,,,,,,,,,
16309,1480729840333,,,,,,,,0.03,0.1,1.0,-3.2,-0.0,-0.1,900,0,,,,,,,,,,,,,,,,,,,
16329,1480729840353,,,,,,,,0.03,0.1,1.0,-3.2,0.0,0.0,900,0,,,,,,,,,,,,,,,,,,,
16349,1480729840373,,,,,52,,,0.04,0.11,1.01,-3.3,0.2,0.1,900,0,1,0,0.0,0,38.159138,-122.454452,0.0,0.0,27.4,7,2,2.4,0,0.0,-1,0.0,,0.0,0
16369,1480729840393,,,,,,,,0.04,0.12,1.01,-3.2,0.1,0.1,900,12,,,,,,,,,,,,,,,,,,,
16389,1480729840413,,,,,,,,0.03,0.12,1.01,-3.3,-0.1,0.1,900,12,,,,,,,,,,,,,,,,,,,
16409,1480729840433,,,,,,,,0.02,0.11,1.02,-3.3,0.1,0.0,900,12,,,,,,,,,,,,,,,,,,,
16429,1480729840453,,,,,,,,0.02,0.11,1.02,-3.2,0.1,-0.0,900,12,,,,,,,,,,,,,,,,,,,
16449,1480729840473,0,91.0,,112.9,50,101.5,,0.02,0.11,1.02,-3.2,-0.1,-0.1,900,12,1,0,75.0,0,38.159138,-122.454452,0.0,0.0,27.4,7,2,2.4,0,0.0,-1,0.0,0.0,0.0,0
16469,1480729840493,,,,,,,,0.02,0.1,1.01,-3.2,-0.1,-0.1,880,12,,,,,,,,,,,,,,,,,,,
16489,1480729840513,,,,,,,,0.03,0.1,1.01,-3.2,0.1,-0.1,900,12,,,,,,,,,,,,,,,,,,,
16509,1480729840533,,,,,,,,0.03,0.1,1.01,-3.2,0.0,-0.1,900,12,,,,,,,,,,,,,,,,,,,
16529,1480729840553,,,,,,,,0.03,0.1,1.0,-3.3,-0.1,-0.0,900,12,,,,,,,,,,,,,,,,,,,
16549,1480729840573,,,,,48,,,0.03,0.11,1.0,-3.3,0.1,0.0,900,12,1,0,75.0,0,38.159138,-122.454452,0.0,0.0,27.4,7,2,2.4,0,0.0,-1,0.0,,0.0,0
16569,1480729840692,,,,,,,,0.04,0.11,1.01,-3.3,0.2,0.1,880,12,,,,,,,,,,,,,,,,,,,
16589,1480729840712,,,,,,,,0.03,0.11,1.01,-3.3,-0.0,0.1,900,13,,,,,,,,,,,,,,,,,,,
16609,1480729840732,,,,,,,,0.02,0.11,1.02,-3.3,-0.1,0.1,900,13,,,,,,,,,,,,,,,,,,,
16629,1480729840752,,,,,,,,0.02,0.11,1.03,-3.3,0.1,0.0,900,13,,,,,,,,,,,,,,,,,,,
16649,1480729840772,0,90.9,,112.8,49,101.5,,0.02,0.11,1.02,-3.3,-0.0,-0.0,920,13,1,0,70.769,0,38.159138,-122.454452,0.0,0.0,27.4,7,2,2.4,0,0.0,-1,0.0,0.0,0.0,0
16669,1480729840792,,,,,,,,0.02,0.1,1.02,-3.3,-0.2,-0.1,920,13,,,,,,,,,,,,,,,,,,,
16689,1480729840812,,,,,,,,0.02,0.08,1.02,-3.3,-0.1,-0.2,900,15,,,,,,,,,,,,,,,,,,,
16709,1480729840832,,,,,,,,0.02,0.08,1.01,-3.3,0.1,-0.2,920,15,,,,,,,,,,,,,,,,,,,
16729,1480729840852,,,,,,,,0.03,0.08,1.01,-3.3,0.0,-0.2,920,15,,,,,,,,,,,,,,,,,,,
16749,1480729840872,,,,,48,,,0.03,0.08,1.0,-3.3,-0.1,-0.1,920,15,1,0,61.333,0,38.159138,-122.454452,0.0,0.0,27.4,7,2,2.4,0,0.0,-1,0.0,,0.0,0
16769,1480729840793,,,,,,,,0.03,0.08,1.0,-3.4,-0.0,-0.0,920,16,,,,,,,,,,,,,,,,,,,
16789,1480729840813,,,,,,,,0.03,0.09,1.0,-3.4,0.1,0.0,920,16,,,,,,,,,,,,,,,,,,,
16809,1480729840833,,,,,,,,0.04,0.1,1.01,-3.4,0.2,0.1,920,16,,,,,,,,,,,,,,,,,,,
16829,1480729840853,,,,,,,,0.04,0.1,1.01,-3.4,0.1,0.1,920,16,,,,,,,,,,,,,,,,,,,
16849,1480729840873,0,89.1,,112.8,47,100.6,,0.03,0.11,1.02,-3.4,-0.0,0.1,920,18,1,0,51.111,0,38.159138,-122.454452,0.0,0.0,27.4,7,2,2.4,0,0.0,-1,0.0,0.0,0.0,0
16869,1480729840893,,,,,,,,0.03,0.1,1.02,-3.4,-0.1,0.1,920,18,,,,,,,,,,,,,,,,,,,
16889,1480729840907,,,,,,,,0.02,0.1,1.03,-3.4,-0.0,0.0,920,18,,,,,,,,,,,,,,,,,,,
16909,1480729840927,,,,,,,,0.02,0.1,1.03,-3.4,0.0,-0.0,940,18,,,,,,,,,,,,,,,,,,,
16929,1480729840947,,,,,,,,0.02,0.1,1.02,-3.4,-0.0,-0.1,940,18,,,,,,,,,,,,,,,,,,,
16949,1480729840967,,,,,52,,,0.02,0.1,1.01,-3.4,-0.1,-0.2,920,18,1,0,51.111,0,38.159138,-122.454452,0.0,0.0,27.4,7,2,2.4,0,0.0,-1,0.0,,0.0,0
16969,1480729840993,,,,,,,,0.02,0.09,1.01,-3.4,-0.1,-0.2,940,18,,,,,,,,,,,,,,,,,,,
16989,1480729841013,,,,,,,,0.02,0.08,1.01,-3.4,0.0,-0.3,940,18,,,,,,,,,,,,,,,,,,,
17009,1480729841033,,,,,,,,0.02,0.08,1.0,-3.4,0.1,-0.2,940,18,,,,,,,,,,,,,,,,,,,
17029,1480729841053,,,,,,,,0.02,0.07,0.99,-3.4,0.1,-0.2,940,18,,,,,,,,,,,,,,,,,,,
17049,1480729841073,0,87.1,0.0,110.5,50,98.6,14.82,0.03,0.07,0.99,-3.4,0.1,-0.1,940,18,1,0,52.222,0,38.159138,-122.454452,0.0,0.0,27.4,7,2,2.4,0,0.0,-1,0.0,0.0,0.0,0
17069,1480729841093,,,,,,,,0.03,0.07,0.99,-3.4,-0.0,-0.1,940,18,,,,,,,,,,,,,,,,,,,
17089,1480729841113,,,,,,,,0.02,0.08,1.0,-3.4,-0.1,0.0,940,20,,,,,,,,,,,,,,,,,,,
17109,1480729841133,,,,,,,,0.02,0.08,1.0,-3.5,-0.0,0.1,940,20,,,,,,,,,,,,,,,,,,,
17129,1480729841153,,,,,,,,0.03,0.09,1.0,-3.5,0.2,0.1,940,20,,,,,,,,,,,,,,,,,,,
17149,1480729841173,,,,,54,,,0.03,0.11,1.01,-3.5,0.3,0.2,960,20,1,0,48.0,0,38.159138,-122.454452,0.0,0.0,27.4,7,2,2.4,0,0.0,-1,0.0,,0.0,0
17169,1480729841194,,,,,,,,0.04,0.11,1.01,-3.5,0.4,0.2,960,20,,,,,,,,,,,,,,,,,,,
17189,1480729841214,,,,,,,,0.04,0.12,1.02,-3.5,0.4,0.2,960,20,,,,,,,,,,,,,,,,,,,
17209,1480729841234,,,,,,,,0.04,0.12,1.02,-3.5,0.2,0.2,960,20,,,,,,,,,,,,,,,,,,,
17229,1480729841254,,,,,,,,0.04,0.12,1.02,-3.5,0.1,0.2,960,21,,,,,,,,,,,,,,,,,,,
17249,1480729841274,0,86.9,,110.5,54,98.6,,0.04,0.12,1.02,-3.5,-0.2,0.2,960,21,1,0,45.714,0,38.159138,-122.454452,0.0,0.0,27.4,7,2,2.4,0,0.0,-1,0.0,0.0,0.0,0
17269,1480729841294,,,,,,,,0.03,0.12,1.02,-3.5,-0.3,0.1,960,21,,,,,,,,,,,,,,,,,,,
17289,1480729841314,,,,,,,,0.03,0.12,1.02,-3.5,-0.3,0.1,960,23,,,,,,,,,,,,,,,,,,,
17309,1480729841334,,,,,,,,0.02,0.11,1.02,-3.5,-0.3,0.1,960,23,,,,,,,,,,,,,,,,,,,
17329,1480729841354,,,,,,,,0.02,0.11,1.02,-3.5,-0.3,0.0,960,23,,,,,,,,,,,,,,,,,,,
17349,1480729841374,,,,,55,,,0.02,0.11,1.02,-3.5,-0.2,-0.0,960,23,1,0,41.739,0,38.159138,-122.454452,0.0,0.0,27.4,7,2,2.4,0,0.0,-1,0.0,,0.0,0
17369,1480729841493,,,,,,,,0.01,0.11,1.02,-3.5,-0.1,-0.1,960,23,,,,,,,,,,,,,,,,,,,
17389,1480729841513,,,,,,,,0.01,0.11,1.01,-3.5,0.0,-0.2,960,23,,,,,,,,,,,,,,,,,,,
17409,1480729841533,,,,,,,,0.01,0.1,1.0,-3.4,0.0,-0.2,960,24,,,,,,,,,,,,,,,,,,,
17429,1480729841553,,,,,,,,0.01,0.09,0.99,-3.4,-0.0,-0.3,960,24,,,,,,,,,,,,,,,,,,,
17449,1480729841573,0,88.1,,112.2,55,99.8,,0.01,0.08,0.99,-3.4,-0.0,-0.4,960,24,1,0,40.0,0,38.159138,-122.454452,0.0,0.0,27.4,7,2,2.4,0,0.0,-1,0.0,0.0,0.0,0
17469,1480729841593,,,,,,,,0.01,0.08,0.99,-3.5,-0.0,-0.4,960,24,,,,,,,,,,,,,,,,,,,
17489,1480729841613,,,,,,,,0.02,0.07,0.99,-3.5,-0.0,-0.4,960,24,,,,,,,,,,,,,,,,,,,
17509,1480729841633,,,,,,,,0.02,0.07,0.99,-3.5,0.0,-0.4,960,24,,,,,,,,,,,,,,,,,,,
17529,1480729841653,,,,,,,,0.02,0.07,0.99,-3.5,0.1,-0.4,960,26,,,,,,,,,,,,,,,,,,,
17549,1480729841673,,,,,54,,,0.02,0.07,0.99,-3.5,0.1,-0.4,960,26,1,0,36.923,0,38.159138,-122.454452,0.0,0.0,27.4,7,2,2.4,0,0.0,-1,0.0,,0.0,0
17569,1480729841593,,,,,,,,0.03,0.07,0.99,-3.5,0.2,-0.3,960,26,,,,,,,,,,,,,,,,,,,
17589,1480729841613,,,,,,,,0.03,0.07,0.99,-3.5,0.2,-0.2,960,26,,,,,,,,,,,,,,,,,,,
17609,1480729841633,,,,,,,,0.03,0.08,1.0,-3.5,0.2,-0.1,960,26,,,,,,,,,,,,,,,,,,,
17629,1480729841653,,,,,,,,0.03,0.08,1.0,-3.5,0.1,-0.1,960,26,,,,,,,,,,,,,,,,,,,
17649,1480729841673,1,90.4,,113.1,55,101.5,,0.03,0.08,1.0,-3.5,0.1,0.0,960,26,1,0,36.923,0,38.159138,-122.454452,0.0,0.0,27.4,7,2,2.4,0,0.0,-1,0.0,0.0,0.0,0
17669,1480729841693,,,,,,,,0.03,0.09,1.0,-3.5,-0.0,0.1,960,26,,,,,,,,,,,,,,,,,,,
17689,1480729841713,,,,,,,,0.03,0.09,1.01,-3.6,-0.1,0.1,960,27,,,,,,,,,,,,,,,,,,,
17709,1480729841733,,,,,,,,0.03,0.1,1.01,-3.6,-0.0,0.2,960,27,,,,,,,,,,,,,,,,,,,
17729,1480729841753,,,,,,,,0.03,0.11,1.01,-3.6,0.1,0.2,960,27,,,,,,,,,,,,,,,,,,,
17749,1480729841773,,,,,51,,,0.04,0.12,1.01,-3.7,0.2,0.3,960,27,1,0,35.556,0,38.159138,-122.454452,0.0,0.0,27.4,7,2,2.4,0,0.0,-1,0.0,,0.0,0
17769,1480729841793,,,,,,,,0.04,0.12,1.02,-3.7,0.3,0.3,960,27,,,,,,,,,,,,,,,,,,,
17789,1480729841813,,,,,,,,0.04,0.12,1.02,-3.7,0.4,0.3,960,29,,,,,,,,,,,,,,,,,,,
17809,1480729841833,,,,,,,,0.05,0.12,1.03,-3.7,0.3,0.3,960,29,,,,,,,,,,,,,,,,,,,
17829,1480729841853,,,,,,,,0.05,0.12,1.03,-3.7,0.2,0.3,960,29,,,,,,,,,,,,,,,,,,,
17849,1480729841873,0,86.9,,109.9,55,98.0,,0.04,0.12,1.03,-3.6,0.0,0.3,960,29,1,0,33.103,0,38.159138,-122.454452,0.0,0.0,27.4,7,2,2.4,0,0.0,-1,0.0,0.0,0.0,0
17869,1480729841893,,,,,,,,0.04,0.12,1.02,-3.6,-0.2,0.3,940,29,,,,,,,,,,,,,,,,,,,
17889,1480729841908,,,,,,,,0.03,0.12,1.02,-3.6,-0.3,0.2,960,30,,,,,,,,,,,,,,,,,,,
17909,1480729841928,,,,,,,,0.03,0.12,1.02,-3.6,-0.4,0.2,960,30,,,,,,,,,,,,,,,,,,,
17929,1480729841948,,,,,,,,0.02,0.12,1.03,-3.6,-0.4,0.1,960,30,,,,,,,,,,,,,,,,,,,
17949,1480729841968,,,,,55,,,0.02,0.11,1.03,-3.6,-0.3,0.0,940,30,1,0,31.333,0,38.159138,-122.454452,0.0,0.0,27.4,7,2,2.4,0,0.0,-1,0.0,,0.0,0
17969,1480729841988,,,,,,,,0.02,0.11,1.03,-3.6,-0.1,-0.0,960,30,,,,,,,,,,,,,,,,,,,
17989,1480729842010,,,,,,,,0.01,0.11,1.02,-3.6,-0.1,-0.1,940,30,,,,,,,,,,,,,,,,,,,
18009,1480729842030,,,,,,,,0.01,0.1,1.01,-3.6,-0.0,-0.2,960,30,,,,,,,,,,,,,,,,,,,
18029,1480729842050,,,,,,,,0.01,0.1,1.0,-3.6,-0.0,-0.2,960,30,,,,,,,,,,,,,,,,,,,
18049,1480729842070,0,88.9,0.0,112.6,56,100.6,14.8,0.01,0.09,1.0,-3.6,-0.0,-0.3,960,32,1,0,30.0,0,38.159138,-122.454452,0.0,0.0,27.4,7,2,2.4,0,0.0,-1,0.0,0.0,0.0,0
18069,1480729842093,,,,,,,,0.01,0.08,1.0,-3.6,0.1,-0.4,940,32,,,,,,,,,,,,,,,,,,,
18089,1480729842113,,,,,,,,0.02,0.08,1.0,-3.6,0.1,-0.4,940,32,,,,,,,,,,,,,,,,,,,
18109,1480729842133,,,,,,,,0.02,0.08,1.0,-3.6,0.2,-0.4,940,32,,,,,,,,,,,,,,,,,,,
18129,1480729842153,,,,,,,,0.02,0.08,0.99,-3.6,0.2,-0.3,940,32,,,,,,,,,,,,,,,,,,,
18149,1480729842173,,,,,54,,,0.03,0.08,0.99,-3.6,0.2,-0.3,960,32,1,0,30.0,0,38.159138,-122.454452,0.0,0.0,27.4,7,3,2.4,0,0.0,-1,0.0,,0.0,0
18169,1480729842292,,,,,,,,0.03,0.08,0.99,-3.6,0.1,-0.2,960,32,,,,,,,,,,,,,,,,,,,
18189,1480729842312,,,,,,,,0.03,0.08,1.0,-3.6,-0.0,-0.1,940,33,,,,,,,,,,,,,,,,,,,
18209,1480729842332,,,,,,,,0.02,0.08,1.0,-3.7,-0.0,-0.0,940,33,,,,,,,,,,,,,,,,,,,
18229,1480729842352,,,,,,,,0.03,0.09,1.0,-3.7,-0.0,0.0,940,33,,,,,,,,,,,,,,,,,,,
18249,1480729842372,0,90.4,,110.9,55,97.2,,0.03,0.1,1.0,-3.7,0.1,0.1,940,33,1,0,28.485,0,38.159138,-122.454452,0.0,0.0,27.4,7,3,2.4,0,0.0,-1,0.0,0.0,0.0,0
18269,1480729842392,,,,,,,,0.03,0.1,1.01,-3.7,0.3,0.1,940,33,,,,,,,,,,,,,,,,,,,
18289,1480729842412,,,,,,,,0.03,0.11,1.01,-3.8,0.4,0.1,940,33,,,,,,,,,,,,,,,,,,,
18309,1480729842432,,,,,,,,0.04,0.11,1.02,-3.8,0.4,0.1,960,35,,,,,,,,,,,,,,,,,,,
18329,1480729842452,,,,,,,,0.04,0.12,1.02,-3.8,0.2,0.1,940,35,,,,,,,,,,,,,,,,,,,
18349,1480729842472,,,,,54,,,0.04,0.12,1.02,-3.8,0.0,0.1,940,35,1,0,26.857,0,38.159138,-122.454452,0.0,0.0,27.4,7,3,2.4,0,0.0,-1,0.0,,0.0,0
18369,1480729842393,,,,,,,,0.03,0.12,1.01,-3.7,-0.2,0.1,940,35,,,,,,,,,,,,,,,,,,,
18389,1480729842413,,,,,,,,0.03,0.12,1.01,-3.7,-0.3,0.1,940,35,,,,,,,,,,,,,,,,,,,
18409,1480729842433,,,,,,,,0.02,0.12,1.02,-3.7,-0.3,0.1,960,35,,,,,,,,,,,,,,,,,,,
18429,1480729842453,,,,,,,,0.02,0.12,1.03,-3.7,-0.2,0.0,960,35,,,,,,,,,,,,,,,,,,,
18449,1480729842473,0,88.3,,109.5,54,98.9,,0.01,0.11,1.03,-3.7,-0.1,-0.0,940,35,1,0,26.857,0,38.159138,-122.454452,0.0,0.0,27.4,7,3,2.4,0,0.0,-1,0.0,0.0,0.0,0
18469,1480729842493,,,,,,,,0.01,0.11,1.02,-3.7,-0.1,-0.1,940,35,,,,,,,,,,,,,,,,,,,
18489,1480729842513,,,,,,,,0.01,0.1,1.01,-3.7,-0.1,-0.2,940,36,,,,,,,,,,,,,,,,,,,
18509,1480729842533,,,,,,,,0.01,0.1,1.01,-3.7,-0.1,-0.3,960,36,,,,,,,,,,,,,,,,,,,
18529,1480729842553,,,,,,,,0.0,0.09,1.0,-3.7,-0.0,-0.3,960,35,,,,,,,,,,,,,,,,,,,
18549,1480729842573,,,,,50,,,0.0,0.08,1.0,-3.7,0.0,-0.4,960,35,1,0,27.429,0,38.159138,-122.454452,0.0,0.0,27.4,7,3,2.4,0,0.0,-1,0.0,,0.0,0
18569,1480729842593,,,,,,,,0.01,0.07,1.0,-3.7,0.1,-0.4,940,35,,,,,,,,,,,,,,,,,,,
18589,1480729842613,,,,,,,,0.01,0.07,1.0,-3.7,0.2,-0.4,940,35,,,,,,,,,,,,,,,,,,,
18609,1480729842633,,,,,,,,0.01,0.08,1.0,-3.7,0.2,-0.3,940,36,,,,,,,,,,,,,,,,,,,
18629,1480729842653,,,,,,,,0.02,0.08,0.99,-3.7,0.1,-0.2,940,36,,,,,,,,,,,,,,,,,,,
18649,1480729842673,1,90.9,,112.6,52,99.0,,0.02,0.08,0.99,-3.7,-0.0,-0.1,940,35,1,0,26.857,0,38.159138,-122.454452,0.0,0.0,27.4,7,3,2.4,0,0.0,-1,0.0,0.0,0.0,0
18669,1480729842693,,,,,,,,0.02,0.08,1.0,-3.7,-0.2,-0.0,960,35,,,,,,,,,,,,,,,,,,,
18689,1480729842713,,,,,,,,0.02,0.08,1.0,-3.8,-0.2,0.1,960,36,,,,,,,,,,,,,,,,,,,
18709,1480729842733,,,,,,,,0.02,0.09,1.0,-3.8,-0.1,0.1,940,36,,,,,,,,,,,,,,,,,,,
18729,1480729842753,,,,,,,,0.03,0.1,1.01,-3.8,0.1,0.2,940,36,,,,,,,,,,,,,,,,,,,
18749,1480729842773,,,,,52,,,0.03,0.11,1.01,-3.8,0.3,0.2,940,36,1,0,26.111,0,38.159138,-122.454452,0.0,0.0,27.4,7,3,2.4,0,0.0,-1,0.0,,0.0,0
18769,1480729842793,,,,,,,,0.04,0.11,1.02,-3.8,0.3,0.2,940,36,,,,,,,,,,,,,,,,,,,
18789,1480729842810,,,,,,,,0.04,0.11,1.02,-3.8,0.1,0.2,960,36,,,,,,,,,,,,,,,,,,,
18809,1480729842830,,,,,,,,0.03,0.11,1.01,-3.8,-0.0,0.2,960,36,,,,,,,,,,,,,,,,,,,
18829,1480729842850,,,,,,,,0.03,0.11,1.01,-3.8,-0.3,0.2,940,36,,,,,,,,,,,,,,,,,,,
18849,1480729842870,0,91.0,,112.6,52,98.7,,0.02,0.12,1.01,-3.8,-0.4,0.1,960,38,1,0,25.263,0,38.159138,-122.454452,0.0,0.0,27.4,7,3,2.4,0,0.0,-1,0.0,0.0,0.0,0
18869,1480729842890,,,,,,,,0.02,0.11,1.01,-3.8,-0.4,0.1,940,38,,,,,,,,,,,,,,,,,,,
18889,1480729842909,,,,,,,,0.02,0.11,1.02,-3.8,-0.3,0.0,960,38,,,,,,,,,,,,,,,,,,,
18909,1480729842929,,,,,,,,0.01,0.1,1.02,-3.8,-0.2,0.0,960,38,,,,,,,,,,,,,,,,,,,
18929,1480729842949,,,,,,,,0.01,0.1,1.02,-3.8,-0.1,-0.1,960,40,,,,,,,,,,,,,,,,,,,
18949,1480729842969,,,,,56,,,0.01,0.1,1.01,-3.7,-0.1,-0.1,940,40,1,0,23.5,0,38.159138,-122.454452,0.0,0.0,27.4,7,3,2.4,0,0.0,-1,0.0,,0.0,0
18969,1480729843094,,,,,,,,0.01,0.1,1.0,-3.7,-0.1,-0.2,960,38,,,,,,,,,,,,,,,,,,,
18989,1480729843114,,,,,,,,0.01,0.09,0.99,-3.7,-0.1,-0.3,960,41,,,,,,,,,,,,,,,,,,,
19009,1480729843134,,,,,,,,0.01,0.08,0.99,-3.7,-0.1,-0.3,960,41,,,,,,,,,,,,,,,,,,,
19029,1480729843154,,,,,,,,0.01,0.07,1.0,-3.8,-0.0,-0.4,960,40,,,,,,,,,,,,,,,,,,,
19049,1480729843174,0,90.8,0.0,112.5,57,98.8,14.83,0.01,0.07,1.0,-3.8,-0.0,-0.4,960,40,1,0,24.0,0,38.159142,-122.454452,0.0,0.001,22.2,7,3,2.4,0,0.0,-1,0.0,0.0,0.0,0
19069,1480729843194,,,,,,,,0.02,0.07,1.0,-3.8,0.0,-0.4,960,41,,,,,,,,,,,,,,,,,,,
19089,1480729843214,,,,,,,,0.02,0.07,1.0,-3.8,0.1,-0.3,960,41,,,,,,,,,,,,,,,,,,,
19109,1480729843234,,,,,,,,0.02,0.07,0.99,-3.8,0.1,-0.3,940,41,,,,,,,,,,,,,,,,,,,
19129,1480729843254,,,,,,,,0.02,0.07,1.0,-3.8,0.0,-0.2,940,41,,,,,,,,,,,,,,,,,,,
19149,1480729843274,,,,,54,,,0.02,0.07,1.0,-3.7,-0.1,-0.1,960,40,1,0,24.0,0,38.159142,-122.454452,0.0,0.001,22.2,7,3,2.4,0,0.0,-1,0.0,,0.0,0
19169,1480729843194,,,,,,,,0.02,0.08,1.0,-3.8,-0.1,-0.0,960,40,,,,,,,,,,,,,,,,,,,
19189,1480729843214,,,,,,,,0.02,0.08,1.0,-3.8,-0.2,0.0,960,41,,,,,,,,,,,,,,,,,,,
19209,1480729843234,,,,,,,,0.02,0.09,1.0,-3.8,-0.1,0.1,940,43,,,,,,,,,,,,,,,,,,,
19229,1480729843254,,,,,,,,0.03,0.1,1.01,-3.9,-0.0,0.1,940,43,,,,,,,,,,,,,,,,,,,
19249,1480729843274,0,90.9,,112.6,56,99.6,,0.03,0.11,1.01,-3.9,0.2,0.2,960,41,1,0,23.415,0,38.159142,-122.454452,0.0,0.001,22.2,7,3,2.4,0,0.0,-1,0.0,0.0,0.0,0
19269,1480729843295,,,,,,,,0.04,0.12,1.01,-3.9,0.3,0.2,960,41,,,,,,,,,,,,,,,,,,,
19289,1480729843315,,,,,,,,0.04,0.12,1.02,-3.9,0.3,0.2,960,44,,,,,,,,,,,,,,,,,,,
19309,1480729843335,,,,,,,,0.04,0.12,1.02,-3.9,0.2,0.3,960,44,,,,,,,,,,,,,,,,,,,
19329,1480729843355,,,,,,,,0.04,0.12,1.02,-3.9,-0.0,0.3,940,41,,,,,,,,,,,,,,,,,,,
19349,1480729843375,,,,,57,,,0.04,0.12,1.02,-3.9,-0.2,0.2,960,44,1,0,21.818,0,38.159142,-122.454452,0.0,0.001,22.2,7,3,2.4,0,0.0,-1,0.0,,0.0,0
19369,1480729843394,,,,,,,,0.03,0.12,1.01,-3.9,-0.4,0.2,940,44,,,,,,,,,,,,,,,,,,,
19389,1480729843414,,,,,,,,0.02,0.12,1.01,-3.9,-0.4,0.1,960,43,,,,,,,,,,,,,,,,,,,
19409,1480729843434,,,,,,,,0.02,0.11,1.02,-3.9,-0.3,0.1,960,43,,,,,,,,,,,,,,,,,,,
19429,1480729843454,,,,,,,,0.02,0.11,1.03,-3.9,-0.2,0.0,960,44,,,,,,,,,,,,,,,,,,,
19449,1480729843474,0,87.8,,111.1,56,100.7,,0.01,0.1,1.03,-3.9,-0.1,-0.0,960,44,1,0,21.818,0,38.159142,-122.454452,0.0,0.001,22.2,7,3,2.4,0,0.0,-1,0.0,0.0,0.0,0
19469,1480729843494,,,,,,,,0.01,0.1,1.02,-3.8,-0.0,-0.1,940,44,,,,,,,,,,,,,,,,,,,
19489,1480729843514,,,,,,,,0.01,0.1,1.01,-3.8,0.0,-0.2,940,46,,,,,,,,,,,,,,,,,,,
19509,1480729843534,,,,,,,,0.01,0.09,1.0,-3.8,0.0,-0.3,960,46,,,,,,,,,,,,,,,,,,,
19529,1480729843554,,,,,,,,0.01,0.09,1.0,-3.8,-0.0,-0.3,960,44,,,,,,,,,,,,,,,,,,,
19549,1480729843574,,,,,53,,,0.01,0.08,1.0,-3.9,0.0,-0.3,960,46,1,0,20.87,0,38.159142,-122.454452,0.0,0.001,22.2,7,3,2.4,0,0.0,-1,0.0,,0.0,0
19569,1480729843594,,,,,,,,0.02,0.07,1.0,-3.9,0.1,-0.3,940,46,,,,,,,,,,,,,,,,,,,
19589,1480729843614,,,,,,,,0.02,0.07,1.0,-3.9,0.2,-0.3,940,47,,,,,,,,,,,,,,,,,,,
19609,1480729843634,,,,,,,,0.02,0.07,1.0,-3.9,0.2,-0.2,940,47,,,,,,,,,,,,,,,,,,,
19629,1480729843654,,,,,,,,0.02,0.08,1.0,-3.9,0.1,-0.2,940,46,,,,,,,,,,,,,,,,,,,
19649,1480729843674,1,89.2,,112.1,53,100.8,,0.02,0.08,1.0,-3.9,0.0,-0.2,940,49,1,0,19.184,0,38.159142,-122.454452,0.0,0.001,22.2,7,3,2.4,0,0.0,-1,0.0,0.0,0.0,0
19669,1480729843695,,,,,,,,0.02,0.08,1.0,-3.9,-0.0,-0.1,940,49,,,,,,,,,,,,,,,,,,,
19689,1480729843715,,,,,,,,0.02,0.08,1.01,-3.9,0.0,-0.0,940,46,,,,,,,,,,,,,,,,,,,
19709,1480729843735,,,,,,,,0.02,0.09,1.01,-4.0,0.1,0.0,940,47,,,,,,,,,,,,,,,,,,,
19729,1480729843755,,,,,,,,0.03,0.1,1.01,-4.0,0.2,0.1,940,47,,,,,,,,,,,,,,,,,,,
19749,1480729843775,,,,,52,,,0.03,0.1,1.02,-4.0,0.5,0.1,940,49,1,0,19.184,0,38.159142,-122.454452,0.0,0.001,22.2,7,3,2.4,0,0.0,-1,0.0,,0.0,0
19769,1480729843894,,,,,,,,0.04,0.11,1.02,-4.0,0.5,0.1,940,49,,,,,,,,,,,,,,,,,,,
19789,1480729843914,,,,,,,,0.04,0.11,1.02,-4.0,0.3,0.1,940,49,,,,,,,,,,,,,,,,,,,
19809,1480729843934,,,,,,,,0.04,0.11,1.02,-4.0,0.1,0.1,940,49,,,,,,,,,,,,,,,,,,,
19829,1480729843954,,,,,,,,0.04,0.12,1.02,-4.0,-0.1,0.1,940,49,,,,,,,,,,,,,,,,,,,
19849,1480729843974,0,87.9,,110.0,51,99.7,,0.03,0.12,1.01,-4.0,-0.3,0.1,940,50,1,0,18.8,0,38.159142,-122.454452,0.0,0.001,22.2,7,3,2.4,0,0.0,-1,0.0,0.0,0.0,0
19869,1480729843994,,,,,,,,0.02,0.11,1.02,-4.0,-0.2,0.0,940,50,,,,,,,,,,,,,,,,,,,
19889,1480729844014,,,,,,,,0.02,0.11,1.02,-4.0,-0.2,0.0,940,50,,,,,,,,,,,,,,,,,,,
19909,1480729844034,,,,,,,,0.02,0.1,1.03,-4.0,-0.1,-0.0,960,50,,,,,,,,,,,,,,,,,,,
19929,1480729844054,,,,,,,,0.02,0.1,1.03,-4.0,-0.1,-0.1,960,49,,,,,,,,,,,,,,,,,,,
19949,1480729844074,,,,,55,,,0.01,0.1,1.02,-3.9,-0.1,-0.2,940,52,1,0,18.077,0,38.159142,-122.454452,0.0,0.001,22.2,7,3,2.4,0,0.0,-1,0.0,,0.0,0
19969,1480729844094,,,,,,,,0.01,0.1,1.01,-3.9,-0.0,-0.2,940,52,,,,,,,,,,,,,,,,,,,
19989,1480729844010,,,,,,,,0.01,0.09,1.0,-3.9,-0.0,-0.3,940,50,,,,,,,,,,,,,,,,,,,
20009,1480729844030,,,,,,,,0.01,0.08,1.0,-4.0,-0.0,-0.3,940,50,,,,,,,,,,,,,,,,,,,
20029,1480729844050,,,,,,,,0.02,0.08,1.0,-3.9,0.1,-0.3,940,50,,,,,,,,,,,,,,,,,,,
20049,1480729844070,0,89.8,0.0,110.2,55,98.6,14.87,0.02,0.07,1.0,-4.0,0.2,-0.3,960,53,1,0,18.113,0,38.159142,-122.454452,0.0,0.001,22.2,7,3,2.4,0,0.0,-1,0.0,0.0,0.0,0
20069,1480729844094,,,,,,,,0.02,0.08,1.0,-4.0,0.2,-0.3,940,52,,,,,,,,,,,,,,,,,,,
20089,1480729844114,,,,,,,,0.02,0.08,1.0,-4.0,0.1,-0.2,940,52,,,,,,,,,,,,,,,,,,,
20109,1480729844134,,,,,,,,0.02,0.08,1.0,-4.0,0.0,-0.1,940,52,,,,,,,,,,,,,,,,,,,
20129,1480729844154,,,,,,,,0.02,0.09,1.0,-4.0,-0.1,-0.1,940,53,,,,,,,,,,,,,,,,,,,
20149,1480729844174,,,,,52,,,0.02,0.09,1.0,-4.0,-0.0,-0.0,940,53,1,0,17.736,0,38.159142,-122.454452,0.0,0.001,22.2,7,3,2.4,0,0.0,-1,0.0,,0.0,0
20169,1480729844195,,,,,,,,0.03,0.1,1.01,-4.1,0.1,0.1,940,53,,,,,,,,,,,,,,,,,,,
20189,1480729844215,,,,,,,,0.03,0.11,1.01,-4.1,0.3,0.1,940,53,,,,,,,,,,,,,,,,,,,
20209,1480729844235,,,,,,,,0.04,0.11,1.01,-4.1,0.4,0.1,940,55,,,,,,,,,,,,,,,,,,,
20229,1480729844255,,,,,,,,0.04,0.11,1.02,-4.1,0.4,0.1,940,55,,,,,,,,,,,,,,,,,,,
20249,1480729844275,0,89.8,,110.2,56,98.2,,0.04,0.11,1.02,-4.1,0.3,0.2,940,53,1,0,17.736,0,38.159142,-122.454452,0.0,0.001,22.2,7,3,2.4,0,0.0,-1,0.0,0.0,0.0,0
20269,1480729844295,,,,,,,,0.04,0.11,1.02,-4.1,0.1,0.2,940,56,,,,,,,,,,,,,,,,,,,
20289,1480729844315,,,,,,,,0.03,0.12,1.01,-4.1,-0.2,0.2,960,56,,,,,,,,,,,,,,,,,,,
20309,1480729844335,,,,,,,,0.03,0.12,1.01,-4.1,-0.3,0.2,960,56,,,,,,,,,,,,,,,,,,,
20329,1480729844355,,,,,,,,0.02,0.11,1.02,-4.1,-0.3,0.2,940,55,,,,,,,,,,,,,,,,,,,
20349,1480729844375,,,,,56,,,0.02,0.11,1.02,-4.1,-0.3,0.1,940,56,1,0,16.786,0,38.159138,-122.454452,0.94,0.001,23.0,7,3,2.4,0,0.0,-1,0.0,,0.0,0
20369,1480729844395,,,,,,,,0.02,0.11,1.02,-4.1,-0.1,0.1,940,56,,,,,,,,,,,,,,,,,,,
20389,1480729844415,,,,,,,,0.02,0.11,1.02,-4.0,0.0,-0.0,940,56,,,,,,,,,,,,,,,,,,,
20409,1480729844435,,,,,,,,0.01,0.11,1.01,-4.0,0.0,-0.1,960,56,,,,,,,,,,,,,,,,,,,
20429,1480729844455,,,,,,,,0.01,0.1,1.0,-4.0,-0.1,-0.2,960,56,,,,,,,,,,,,,,,,,,,
20449,1480729844475,0,90.1,,111.4,51,98.0,,0.01,0.09,0.99,-4.0,-0.1,-0.3,940,58,1,0,16.207,0,38.159138,-122.454452,0.0,0.001,23.0,7,3,2.4,0,0.0,-1,0.0,0.0,0.0,0
20469,1480729844495,,,,,,,,0.02,0.09,0.99,-4.0,-0.1,-0.3,940,58,,,,,,,,,,,,,,,,,,,
20489,1480729844515,,,,,,,,0.02,0.08,0.99,-4.0,-0.1,-0.4,940,56,,,,,,,,,,,,,,,,,,,
20509,1480729844535,,,,,,,,0.02,0.08,0.99,-4.0,0.0,-0.4,940,58,,,,,,,,,,,,,,,,,,,
20529,1480729844555,,,,,,,,0.03,0.08,0.99,-4.0,0.1,-0.3,960,60,,,,,,,,,,,,,,,,,,,
20549,1480729844575,,,,,56,,,0.03,0.08,0.99,-4.1,0.2,-0.3,960,60,1,0,16.0,0,38.159138,-122.454452,0.0,0.001,23.0,7,3,2.4,0,0.0,-1,0.0,,0.0,0
20569,1480729844694,,,,,,,,0.03,0.08,0.99,-4.1,0.1,-0.2,940,56,,,,,,,,,,,,,,,,,,,
20589,1480729844714,,,,,,,,0.03,0.08,0.99,-4.1,-0.0,-0.1,940,60,,,,,,,,,,,,,,,,,,,
20609,1480729844734,,,,,,,,0.03,0.08,1.0,-4.1,-0.1,-0.0,940,61,,,,,,,,,,,,,,,,,,,
20629,1480729844754,,,,,,,,0.03,0.09,1.0,-4.1,-0.1,0.1,940,58,,,,,,,,,,,,,,,,,,,
20649,1480729844774,0,88.6,,112.2,53,101.6,,0.03,0.1,1.0,-4.2,0.0,0.1,940,58,1,0,16.207,0,38.159134,-122.454452,1.0,0.001,23.1,7,3,2.4,0,0.0,-1,0.0,0.0,0.0,0
20669,1480729844794,,,,,,,,0.04,0.1,1.01,-4.2,0.3,0.1,960,60,,,,,,,,,,,,,,,,,,,
20689,1480729844814,,,,,,,,0.04,0.11,1.01,-4.2,0.4,0.1,960,61,,,,,,,,,,,,,,,,,,,
20709,1480729844834,,,,,,,,0.05,0.11,1.02,-4.2,0.3,0.1,940,63,,,,,,,,,,,,,,,,,,,
20729,1480729844854,,,,,,,,0.05,0.11,1.02,-4.2,0.2,0.1,940,61,,,,,,,,,,,,,,,,,,,
20749,1480729844874,,,,,52,,,0.04,0.11,1.02,-4.2,-0.1,0.2,940,61,1,0,15.41,0,38.159134,-122.454452,1.0,0.001,23.1,7,3,2.4,0,0.0,-1,0.0,,0.0,0
20769,1480729844795,,,,,,,,0.04,0.12,1.02,-4.2,-0.3,0.2,940,61,,,,,,,,,,,,,,,,,,,
20789,1480729844815,,,,,,,,0.03,0.12,1.02,-4.2,-0.4,0.2,940,64,,,,,,,,,,,,,,,,,,,
