"Interval"|"ms"|0|0|1,"Utc"|"ms"|0|0|1,"FuelLevel"|"F"|0|100|5,"OilTemp"|"F"|0.0|300.0|5,"CoolantPressPSI"|"PSI"|0.0|20.0|1,"Coolant"|"F"|0.0|300.0|5,"OilPress"|"PSI"|0|150|10,"EngineTemp"|"F"|0.0|300.0|5,"Battery"|"Volts"|0.0|20.0|1,"AccelX"|"G"|-3.0|3.0|50,"AccelY"|"G"|-3.0|3.0|50,"AccelZ"|"G"|-3.0|3.0|50,"Yaw"|"Deg/Sec"|-300.0|300.0|50,"Pitch"|"Deg/Sec"|-300.0|300.0|50,"Roll"|"Deg/Sec"|-300.0|300.0|50,"RPM"|""|0|10000|50,"Driveshaft"|"RPM"|0|5000|50,"GPIO1"|""|0|1|10,"GPIO2"|""|0|1|10,"GearRatio"|""|-5.0|5.0|10,"Gear"|""|-1|5|10,"Latitude"|"Degrees"|-180.0|180.0|10,"Longitude"|"Degrees"|-180.0|180.0|10,"Speed"|"MPH"|0.0|150.0|10,"Distance"|"Miles"|0.0|0.0|10,"Altitude"|"Feet"|0.0|4000.0|10,"GPSSats"|""|0|20|10,"GPSQual"|""|0|5|10,"GPSDOP"|""|0.0|20.0|10,"LapCount"|""|0|0|10,"LapTime"|"Min"|0.0|0.0|10,"Sector"|""|0|0|10,"SectorTime"|"Min"|0.0|0.0|10,"PredTime"|"Min"|0.0|0.0|5,"ElapsedTime"|"Min"|0.0|0.0|10,"CurrentLap"|""|0|0|10
9189,1480726075776,,,,,,,,0.01,0.09,1.01,-3.2,-0.0,0.2,920,0,,,,,,,,,,,,,,,,,,,
9209,1480726075796,,,,,,,,0.02,0.1,1.01,-3.2,0.1,0.2,940,0,,,,,,,,,,,,,,,,,,,
9229,1480726075816,,,,,,,,0.02,0.11,1.01,-3.3,0.4,0.2,940,0,,,,,,,,,,,,,,,,,,,
9249,1480726075935,0,65.6,,82.0,62,80.3,,0.03,0.11,1.01,-3.2,0.4,0.2,940,0,1,0,0.0,0,38.159115,-122.45443,0.0,0.0,60.1,9,2,1.5,0,0.0,-1,0.0,0.0,0.0,0
9269,1480726075955,,,,,,,,0.02,0.11,1.01,-3.2,0.4,0.2,940,0,,,,,,,,,,,,,,,,,,,
9289,1480726075975,,,,,,,,0.02,0.11,1.01,-3.2,0.2,0.2,960,0,,,,,,,,,,,,,,,,,,,
9309,1480726075995,,,,,,,,0.02,0.11,1.01,-3.2,-0.0,0.2,920,0,,,,,,,,,,,,,,,,,,,
9329,1480726076015,,,,,,,,0.01,0.11,1.01,-3.2,-0.1,0.1,940,0,,,,,,,,,,,,,,,,,,,
9349,1480726076035,,,,,61,,,0.01,0.11,1.02,-3.2,0.0,0.0,940,0,1,0,0.0,0,38.159115,-122.45443,0.0,0.0,60.1,9,2,1.5,0,0.0,-1,0.0,,0.0,0
9369,1480726076055,,,,,,,,0.01,0.11,1.02,-3.1,0.0,-0.1,940,0,,,,,,,,,,,,,,,,,,,
9389,1480726076075,,,,,,,,0.01,0.1,1.01,-3.0,-0.1,-0.2,940,0,,,,,,,,,,,,,,,,,,,
9409,1480726076095,,,,,,,,0.01,0.09,1.0,-3.0,-0.2,-0.3,960,0,,,,,,,,,,,,,,,,,,,
9429,1480726076115,,,,,,,,0.01,0.08,1.0,-3.1,-0.1,-0.4,920,0,,,,,,,,,,,,,,,,,,,
9449,1480726076034,0,67.3,,83.2,60,78.9,,0.01,0.07,1.0,-3.1,0.0,-0.4,940,0,1,0,0.0,0,38.159115,-122.45443,0.0,0.0,56.7,9,2,1.5,0,0.0,-1,0.0,0.0,0.0,0
9469,1480726076054,,,,,,,,0.02,0.07,1.0,-3.1,0.2,-0.4,940,0,,,,,,,,,,,,,,,,,,,
9489,1480726076074,,,,,,,,0.02,0.07,0.99,-3.1,0.2,-0.3,940,0,,,,,,,,,,,,,,,,,,,
9509,1480726076094,,,,,,,,0.02,0.07,0.99,-3.1,0.2,-0.2,940,0,,,,,,,,,,,,,,,,,,,
9529,1480726076114,,,,,,,,0.01,0.07,1.0,-3.1,0.0,-0.0,960,0,,,,,,,,,,,,,,,,,,,
9549,1480726076134,,,,,60,,,0.01,0.08,1.0,-3.1,-0.1,0.1,960,0,1,0,0.0,0,38.159115,-122.45443,0.0,0.0,54.8,9,2,1.5,0,0.0,-1,0.0,,0.0,0
9569,1480726076154,,,,,,,,0.01,0.08,1.01,-3.2,-0.0,0.2,920,0,,,,,,,,,,,,,,,,,,,
9589,1480726076174,,,,,,,,0.01,0.1,1.01,-3.2,0.1,0.3,940,0,,,,,,,,,,,,,,,,,,,
9609,1480726076194,,,,,,,,0.02,0.11,1.02,-3.2,0.2,0.3,940,0,,,,,,,,,,,,,,,,,,,
9629,1480726076214,,,,,,,,0.02,0.11,1.02,-3.1,0.2,0.3,940,0,,,,,,,,,,,,,,,,,,,
9649,1480726076233,0,66.8,,81.9,58,79.1,,0.03,0.12,1.02,-3.1,0.0,0.3,940,0,1,0,0.0,0,38.159119,-122.45443,0.0,0.0,52.8,9,2,1.5,0,0.0,-1,0.0,0.0,0.0,0
9669,1480726076253,,,,,,,,0.02,0.12,1.01,-3.1,-0.2,0.3,960,0,,,,,,,,,,,,,,,,,,,
9689,1480726076273,,,,,,,,0.02,0.12,1.01,-3.1,-0.2,0.2,920,0,,,,,,,,,,,,,,,,,,,
9709,1480726076293,,,,,,,,0.02,0.12,1.01,-3.1,-0.1,0.1,920,0,,,,,,,,,,,,,,,,,,,
9729,1480726076313,,,,,,,,0.02,0.11,1.02,-3.1,0.1,0.0,920,0,,,,,,,,,,,,,,,,,,,
9749,1480726076334,,,,,58,,,0.02,0.11,1.01,-3.1,0.1,-0.1,940,0,1,0,0.0,0,38.159119,-122.45443,0.0,0.0,51.3,9,2,1.5,0,0.0,-1,0.0,,0.0,0
9769,1480726076354,,,,,,,,0.01,0.1,1.01,-3.0,0.0,-0.2,940,0,,,,,,,,,,,,,,,,,,,
9789,1480726076374,,,,,,,,0.01,0.09,1.0,-3.0,-0.1,-0.3,960,0,,,,,,,,,,,,,,,,,,,
9809,1480726076394,,,,,,,,0.01,0.07,1.0,-3.0,-0.0,-0.3,920,0,,,,,,,,,,,,,,,,,,,
9829,1480726076414,,,,,,,,0.01,0.07,1.0,-3.0,0.0,-0.3,940,0,,,,,,,,,,,,,,,,,,,
9849,1480726076434,0,67.3,,82.9,62,78.9,,0.01,0.06,1.0,-3.0,0.1,-0.3,940,0,1,0,0.0,0,38.159119,-122.45443,0.0,0.0,50.2,9,2,1.5,0,0.0,-1,0.0,0.0,0.0,0
9869,1480726076454,,,,,,,,0.01,0.06,1.0,-3.0,0.1,-0.2,940,0,,,,,,,,,,,,,,,,,,,
9889,1480726076474,,,,,,,,0.01,0.07,1.0,-3.1,-0.0,-0.1,940,0,,,,,,,,,,,,,,,,,,,
9909,1480726076494,,,,,,,,0.01,0.07,1.0,-3.1,-0.1,0.1,960,0,,,,,,,,,,,,,,,,,,,
9929,1480726076514,,,,,,,,0.01,0.08,1.0,-3.1,-0.2,0.1,960,0,,,,,,,,,,,,,,,,,,,
9949,1480726076532,,,,,59,,,0.01,0.08,1.01,-3.2,-0.1,0.2,920,0,1,0,0.0,0,38.159119,-122.45443,0.0,0.0,50.0,9,2,1.5,0,0.0,-1,0.0,,0.0,0
9969,1480726076552,,,,,,,,0.02,0.1,1.01,-3.2,0.1,0.2,940,0,,,,,,,,,,,,,,,,,,,
9989,1480726076572,,,,,,,,0.02,0.11,1.01,-3.2,0.3,0.2,940,0,,,,,,,,,,,,,,,,,,,
10009,1480726076592,,,,,,,,0.03,0.12,1.01,-3.2,0.4,0.3,940,0,,,,,,,,,,,,,,,,,,,
10029,1480726076612,,,,,,,,0.03,0.11,1.01,-3.2,0.3,0.2,940,0,,,,,,,,,,,,,,,,,,,
10049,1480726076724,0,68.3,0.0,84.9,59,79.7,14.91,0.03,0.11,1.02,-3.2,0.1,0.2,960,0,1,0,0.0,0,38.159119,-122.45443,0.0,0.0,50.0,9,2,1.5,0,0.0,-1,0.0,0.0,0.0,0
10069,1480726076744,,,,,,,,0.02,0.11,1.02,-3.2,-0.0,0.2,940,0,,,,,,,,,,,,,,,,,,,
10089,1480726076764,,,,,,,,0.02,0.12,1.01,-3.2,-0.2,0.2,960,0,,,,,,,,,,,,,,,,,,,
10109,1480726076784,,,,,,,,0.02,0.12,1.01,-3.2,-0.2,0.1,940,0,,,,,,,,,,,,,,,,,,,
10129,1480726076804,,,,,,,,0.01,0.12,1.02,-3.2,-0.2,0.1,960,0,,,,,,,,,,,,,,,,,,,
10149,1480726076824,,,,,60,,,0.01,0.11,1.02,-3.2,-0.1,-0.0,960,0,1,0,0.0,0,38.159119,-122.45443,0.0,0.0,50.0,9,2,1.5,0,0.0,-1,0.0,,0.0,0
10169,1480726076844,,,,,,,,0.01,0.11,1.02,-3.1,-0.0,-0.1,960,0,,,,,,,,,,,,,,,,,,,
10189,1480726076864,,,,,,,,0.01,0.11,1.02,-3.1,-0.1,-0.2,940,0,,,,,,,,,,,,,,,,,,,
10209,1480726076884,,,,,,,,0.01,0.1,1.01,-3.1,-0.1,-0.3,940,0,,,,,,,,,,,,,,,,,,,
10229,1480726076904,,,,,,,,0.01,0.09,1.01,-3.1,-0.1,-0.3,940,0,,,,,,,,,,,,,,,,,,,
10249,1480726076832,0,64.4,,83.2,58,82.3,,0.01,0.09,1.01,-3.1,-0.1,-0.4,940,0,1,0,0.0,0,38.159119,-122.45443,0.0,0.0,50.0,9,2,1.5,0,0.0,-1,0.0,0.0,0.0,0
10269,1480726076852,,,,,,,,0.01,0.08,1.01,-3.1,0.0,-0.4,940,0,,,,,,,,,,,,,,,,,,,
10289,1480726076872,,,,,,,,0.01,0.07,1.0,-3.1,0.2,-0.4,940,0,,,,,,,,,,,,,,,,,,,
10309,1480726076892,,,,,,,,0.02,0.07,1.0,-3.1,0.1,-0.3,920,0,,,,,,,,,,,,,,,,,,,
10329,1480726076912,,,,,,,,0.01,0.08,1.01,-3.1,0.0,-0.2,920,0,,,,,,,,,,,,,,,,,,,
10349,1480726076933,,,,,60,,,0.01,0.08,1.01,-3.1,-0.1,-0.0,920,0,1,0,0.0,0,38.159119,-122.45443,0.0,0.0,50.0,9,2,1.5,0,0.0,-1,0.0,,0.0,0
10369,1480726076953,,,,,,,,0.02,0.09,1.02,-3.1,0.0,0.1,920,0,,,,,,,,,,,,,,,,,,,
10389,1480726076973,,,,,,,,0.02,0.1,1.02,-3.1,0.2,0.2,920,0,,,,,,,,,,,,,,,,,,,
10409,1480726076993,,,,,,,,0.03,0.11,1.02,-3.2,0.3,0.2,920,0,,,,,,,,,,,,,,,,,,,
10429,1480726077013,,,,,,,,0.02,0.11,1.02,-3.1,0.1,0.2,940,0,,,,,,,,,,,,,,,,,,,
10449,1480726077032,0,67.3,,83.2,56,78.7,,0.02,0.11,1.02,-3.1,0.0,0.2,900,0,1,0,0.0,0,38.159119,-122.45443,0.0,0.0,50.0,9,2,1.5,0,0.0,-1,0.0,0.0,0.0,0
10469,1480726077052,,,,,,,,0.02,0.11,1.02,-3.1,0.0,0.2,920,0,,,,,,,,,,,,,,,,,,,
10489,1480726077072,,,,,,,,0.02,0.11,1.02,-3.1,0.1,0.1,900,0,,,,,,,,,,,,,,,,,,,
10509,1480726077092,,,,,,,,0.02,0.11,1.02,-3.1,0.0,-0.1,920,0,,,,,,,,,,,,,,,,,,,
10529,1480726077112,,,,,,,,0.01,0.1,1.01,-3.1,-0.1,-0.2,920,0,,,,,,,,,,,,,,,,,,,
10549,1480726077132,,,,,61,,,0.01,0.09,1.01,-3.1,0.0,-0.2,920,0,1,0,0.0,0,38.159119,-122.45443,0.0,0.0,50.0,9,2,1.5,0,0.0,-1,0.0,,0.0,0
10569,1480726077152,,,,,,,,0.02,0.09,1.01,-3.1,0.2,-0.2,880,0,,,,,,,,,,,,,,,,,,,
10589,1480726077172,,,,,,,,0.02,0.1,1.0,-3.1,0.1,-0.2,900,0,,,,,,,,,,,,,,,,,,,
10609,1480726077192,,,,,,,,0.01,0.09,1.0,-3.1,0.0,-0.1,900,0,,,,,,,,,,,,,,,,,,,
10629,1480726077212,,,,,,,,0.02,0.09,1.01,-3.1,0.1,-0.0,880,0,,,,,,,,,,,,,,,,,,,
10649,1480726077232,0,67.2,,82.6,58,78.7,,0.02,0.1,1.01,-3.1,0.2,0.0,900,0,1,0,0.0,0,38.159119,-122.45443,0.0,0.0,50.0,9,2,1.5,0,0.0,-1,0.0,0.0,0.0,0
10669,1480726077252,,,,,,,,0.02,0.11,1.02,-3.1,0.2,0.1,900,0,,,,,,,,,,,,,,,,,,,
10689,1480726077272,,,,,,,,0.02,0.11,1.02,-3.1,0.0,0.1,920,0,,,,,,,,,,,,,,,,,,,
10709,1480726077292,,,,,,,,0.02,0.11,1.02,-3.1,0.1,0.0,880,0,,,,,,,,,,,,,,,,,,,
10729,1480726077312,,,,,,,,0.01,0.11,1.02,-3.1,0.1,-0.1,900,0,,,,,,,,,,,,,,,,,,,
10749,1480726077332,,,,,59,,,0.01,0.11,1.01,-3.1,0.0,-0.2,880,38,1,0,0.0,0,38.159119,-122.45443,0.0,0.0,50.0,9,2,1.5,0,0.0,-1,0.0,,0.0,0
10769,1480726077352,,,,,,,,0.01,0.09,1.01,-3.1,0.1,-0.2,900,38,,,,,,,,,,,,,,,,,,,
10789,1480726077372,,,,,,,,0.02,0.09,1.0,-3.1,0.2,-0.2,900,1538461,,,,,,,,,,,,,,,,,,,
10809,1480726077392,,,,,,,,0.03,0.09,1.0,-3.1,0.1,-0.2,920,0,,,,,,,,,,,,,,,,,,,
10829,1480726077412,,,,,,,,0.02,0.09,1.0,-3.1,0.0,-0.1,920,0,,,,,,,,,,,,,,,,,,,
10849,1480726077530,0,66.4,,81.7,58,79.2,,0.02,0.09,1.0,-3.2,0.1,-0.0,880,0,1,0,23.684,0,38.159119,-122.45443,0.0,0.0,49.5,10,2,1.5,0,0.0,-1,0.0,0.0,0.0,0
10869,1480726077550,,,,,,,,0.03,0.1,1.01,-3.2,0.2,0.0,900,0,,,,,,,,,,,,,,,,,,,
10889,1480726077570,,,,,,,,0.03,0.1,1.01,-3.1,0.1,0.0,880,0,,,,,,,,,,,,,,,,,,,
10909,1480726077590,,,,,,,,0.02,0.09,1.01,-3.1,-0.0,0.0,900,0,,,,,,,,,,,,,,,,,,,
10929,1480726077610,,,,,,,,0.02,0.1,1.02,-3.1,0.1,0.0,880,0,,,,,,,,,,,,,,,,,,,
10949,1480726077630,,,,,55,,,0.02,0.1,1.02,-3.1,0.0,-0.1,900,0,1,0,0.0,0,38.159119,-122.45443,0.0,0.0,49.5,10,2,1.5,0,0.0,-1,0.0,,0.0,0
10969,1480726077650,,,,,,,,0.01,0.09,1.02,-3.1,-0.0,-0.1,880,0,,,,,,,,,,,,,,,,,,,
10989,1480726077670,,,,,,,,0.02,0.09,1.01,-3.1,0.0,-0.1,880,0,,,,,,,,,,,,,,,,,,,
11009,1480726077690,,,,,,,,0.02,0.09,1.0,-3.1,-0.0,-0.1,880,0,,,,,,,,,,,,,,,,,,,
11029,1480726077710,,,,,,,,0.02,0.09,1.0,-3.1,-0.1,-0.0,860,0,,,,,,,,,,,,,,,,,,,
11049,1480726077624,0,63.9,0.0,82.0,53,81.1,14.9,0.02,0.09,1.0,-3.2,0.1,0.0,880,0,1,0,0.0,0,38.159119,-122.45443,0.0,0.0,49.5,10,2,1.5,0,0.0,-1,0.0,0.0,0.0,0
11069,1480726077644,,,,,,,,0.03,0.1,1.0,-3.2,0.1,0.1,880,0,,,,,,,,,,,,,,,,,,,
11089,1480726077664,,,,,,,,0.02,0.1,1.01,-3.1,-0.1,0.1,900,0,,,,,,,,,,,,,,,,,,,
11109,1480726077684,,,,,,,,0.02,0.1,1.02,-3.1,0.0,0.0,860,0,,,,,,,,,,,,,,,,,,,
11129,1480726077704,,,,,,,,0.01,0.1,1.02,-3.1,0.0,-0.1,900,0,,,,,,,,,,,,,,,,,,,
11149,1480726077731,,,,,55,,,0.01,0.1,1.01,-3.1,-0.1,-0.2,880,0,1,0,0.0,0,38.159119,-122.45443,0.0,0.0,49.5,10,2,1.5,0,0.0,-1,0.0,,0.0,0
11169,1480726077751,,,,,,,,0.01,0.09,1.01,-3.1,0.0,-0.2,900,0,,,,,,,,,,,,,,,,,,,
11189,1480726077771,,,,,,,,0.02,0.08,1.0,-3.1,0.1,-0.2,900,0,,,,,,,,,,,,,,,,,,,
11209,1480726077791,,,,,,,,0.02,0.08,1.0,-3.1,-0.1,-0.1,900,0,,,,,,,,,,,,,,,,,,,
11229,1480726077811,,,,,,,,0.02,0.08,1.0,-3.2,-0.1,-0.0,920,0,,,,,,,,,,,,,,,,,,,
11249,1480726077831,0,66.8,,82.1,58,79.1,,0.02,0.08,1.0,-3.2,0.1,0.0,880,0,1,0,0.0,0,38.159119,-122.45443,0.0,0.0,49.5,10,2,1.5,0,0.0,-1,0.0,0.0,0.0,0
11269,1480726077851,,,,,,,,0.03,0.09,1.01,-3.2,0.2,0.1,900,0,,,,,,,,,,,,,,,,,,,
11289,1480726077871,,,,,,,,0.02,0.1,1.01,-3.2,-0.0,0.1,880,0,,,,,,,,,,,,,,,,,,,
11309,1480726077891,,,,,,,,0.02,0.1,1.02,-3.1,0.0,0.0,880,0,,,,,,,,,,,,,,,,,,,
11329,1480726077911,,,,,,,,0.02,0.1,1.02,-3.1,0.0,-0.0,900,0,,,,,,,,,,,,,,,,,,,
11349,1480726077931,,,,,57,,,0.01,0.1,1.02,-3.1,-0.1,-0.1,900,0,1,0,0.0,0,38.159119,-122.45443,0.0,0.0,49.5,10,2,1.5,0,0.0,-1,0.0,,0.0,0
11369,1480726077951,,,,,,,,0.02,0.09,1.02,-3.1,-0.0,-0.1,860,0,,,,,,,,,,,,,,,,,,,
11389,1480726077971,,,,,,,,0.02,0.09,1.01,-3.1,0.0,-0.1,860,0,,,,,,,,,,,,,,,,,,,
11409,1480726077991,,,,,,,,0.02,0.09,1.01,-3.1,-0.0,-0.0,860,0,,,,,,,,,,,,,,,,,,,
11429,1480726078011,,,,,,,,0.03,0.09,1.01,-3.1,0.1,0.1,860,0,,,,,,,,,,,,,,,,,,,
11449,1480726078030,0,67.6,,83.6,58,78.5,,0.03,0.09,1.01,-3.2,0.1,0.1,880,0,1,0,0.0,0,38.159119,-122.45443,0.0,0.0,49.5,10,2,1.5,0,0.0,-1,0.0,0.0,0.0,0
11469,1480726078050,,,,,,,,0.03,0.1,1.01,-3.2,-0.1,0.1,880,0,,,,,,,,,,,,,,,,,,,
11489,1480726078070,,,,,,,,0.03,0.1,1.02,-3.2,0.1,0.1,880,0,,,,,,,,,,,,,,,,,,,
11509,1480726078090,,,,,,,,0.02,0.1,1.02,-3.1,0.1,0.0,860,0,,,,,,,,,,,,,,,,,,,
11529,1480726078110,,,,,,,,0.02,0.09,1.02,-3.1,-0.1,-0.1,880,0,,,,,,,,,,,,,,,,,,,
11549,1480726078130,,,,,57,,,0.02,0.08,1.02,-3.1,0.1,-0.1,860,0,1,0,0.0,0,38.159119,-122.45443,0.0,0.0,49.5,10,2,1.5,0,0.0,-1,0.0,,0.0,0
11569,1480726078150,,,,,,,,0.03,0.09,1.01,-3.1,0.1,-0.0,860,0,,,,,,,,,,,,,,,,,,,
11589,1480726078170,,,,,,,,0.03,0.09,1.0,-3.2,-0.1,0.0,880,0,,,,,,,,,,,,,,,,,,,
11609,1480726078291,,,,,,,,0.03,0.09,1.0,-3.2,0.1,0.1,880,0,,,,,,,,,,,,,,,,,,,
11629,1480726078311,,,,,,,,0.03,0.1,1.01,-3.2,0.1,0.0,900,0,,,,,,,,,,,,,,,,,,,
11649,1480726078331,0,67.9,,84.7,55,78.6,,0.03,0.09,1.01,-3.2,0.0,0.1,860,0,1,0,0.0,0,38.159119,-122.45443,0.0,0.0,49.5,10,2,1.5,0,0.0,-1,0.0,0.0,0.0,0
11669,1480726078351,,,,,,,,0.03,0.1,1.02,-3.1,0.1,0.0,860,0,,,,,,,,,,,,,,,,,,,
11689,1480726078371,,,,,,,,0.02,0.09,1.02,-3.1,-0.0,-0.0,860,0,,,,,,,,,,,,,,,,,,,
11709,1480726078391,,,,,,,,0.03,0.09,1.01,-3.1,0.1,-0.0,860,0,,,,,,,,,,,,,,,,,,,
11729,1480726078411,,,,,,,,0.03,0.09,1.01,-3.1,0.1,-0.0,860,0,,,,,,,,,,,,,,,,,,,
11749,1480726078431,,,,,56,,,0.03,0.09,1.0,-3.1,-0.0,0.1,860,0,1,0,0.0,0,38.159119,-122.45443,0.0,0.0,49.5,10,2,1.5,0,0.0,-1,0.0,,0.0,0
11769,1480726078451,,,,,,,,0.04,0.1,1.01,-3.2,0.1,0.1,880,0,,,,,,,,,,,,,,,,,,,
11789,1480726078471,,,,,,,,0.04,0.1,1.01,-3.2,0.0,0.1,840,0,,,,,,,,,,,,,,,,,,,
11809,1480726078392,,,,,,,,0.03,0.1,1.02,-3.1,0.1,0.1,840,0,,,,,,,,,,,,,,,,,,,
11829,1480726078412,,,,,,,,0.03,0.1,1.02,-3.1,0.1,0.1,840,20,,,,,,,,,,,,,,,,,,,
11849,1480726078432,0,67.2,,86.2,54,82.1,,0.03,0.09,1.02,-3.1,0.1,0.0,840,20,1,0,0.0,0,38.159119,-122.45443,0.0,0.0,49.5,10,2,1.5,0,0.0,-1,0.0,0.0,0.0,0
11869,1480726078452,,,,,,,,0.03,0.09,1.01,-3.1,0.1,0.0,840,20,,,,,,,,,,,,,,,,,,,
11889,1480726078472,,,,,,,,0.03,0.09,1.01,-3.1,0.1,0.1,840,20,,,,,,,,,,,,,,,,,,,
11909,1480726078492,,,,,,,,0.04,0.1,1.01,-3.1,0.2,0.1,860,20,,,,,,,,,,,,,,,,,,,
11929,1480726078512,,,,,,,,0.04,0.1,1.01,-3.1,0.0,0.1,820,20,,,,,,,,,,,,,,,,,,,
11949,1480726078532,,,,,51,,,0.03,0.1,1.02,-3.1,0.1,0.1,820,12,1,0,42.0,0,38.159119,-122.45443,0.0,0.0,49.5,10,2,1.5,0,0.0,-1,0.0,,0.0,0
11969,1480726078552,,,,,,,,0.03,0.09,1.02,-3.1,0.1,-0.0,820,12,,,,,,,,,,,,,,,,,,,
11989,1480726078572,,,,,,,,0.03,0.09,1.02,-3.1,0.1,0.0,820,12,,,,,,,,,,,,,,,,,,,
12009,1480726078592,,,,,,,,0.04,0.09,1.01,-3.1,0.1,0.1,840,12,,,,,,,,,,,,,,,,,,,
12029,1480726078612,,,,,,,,0.04,0.09,1.01,-3.1,0.2,0.1,840,12,,,,,,,,,,,,,,,,,,,
12049,1480726078632,0,66.4,0.0,82.6,52,79.7,14.89,0.04,0.1,1.0,-3.1,0.1,0.1,840,13,1,0,68.333,0,38.159119,-122.45443,0.0,0.0,49.5,10,2,1.5,0,0.0,-1,0.0,0.0,0.0,0
12069,1480726078652,,,,,,,,0.03,0.1,1.01,-3.1,0.1,0.0,820,13,,,,,,,,,,,,,,,,,,,
12089,1480726078672,,,,,,,,0.03,0.1,1.01,-3.1,0.1,0.0,820,13,,,,,,,,,,,,,,,,,,,
12109,1480726078692,,,,,,,,0.03,0.09,1.01,-3.1,0.1,-0.0,820,13,,,,,,,,,,,,,,,,,,,
12129,1480726078712,,,,,,,,0.04,0.09,1.01,-3.1,0.0,0.1,820,16,,,,,,,,,,,,,,,,,,,
12149,1480726078732,,,,,53,,,0.04,0.1,1.0,-3.1,0.1,0.2,820,16,1,0,63.077,0,38.159119,-122.45443,0.0,0.0,49.5,10,2,1.5,0,0.0,-1,0.0,,0.0,0
12169,1480726078752,,,,,,,,0.04,0.1,1.0,-3.1,0.0,0.2,820,16,,,,,,,,,,,,,,,,,,,
12189,1480726078772,,,,,,,,0.04,0.1,1.01,-3.1,0.0,0.1,840,16,,,,,,,,,,,,,,,,,,,
12209,1480726078792,,,,,,,,0.03,0.1,1.01,-3.1,0.1,0.0,820,18,,,,,,,,,,,,,,,,,,,
12229,1480726078812,,,,,,,,0.04,0.09,1.01,-3.1,0.1,0.1,820,18,,,,,,,,,,,,,,,,,,,
12249,1480726078832,0,64.9,,82.5,50,80.5,,0.04,0.1,1.01,-3.1,0.0,0.2,800,18,1,0,51.25,0,38.159119,-122.45443,0.0,0.0,49.5,10,2,1.5,0,0.0,-1,0.0,0.0,0.0,0
12269,1480726078852,,,,,,,,0.04,0.1,1.0,-3.1,0.2,0.2,800,20,,,,,,,,,,,,,,,,,,,
12289,1480726078872,,,,,,,,0.05,0.11,1.0,-3.1,0.1,0.2,820,20,,,,,,,,,,,,,,,,,,,
12309,1480726078892,,,,,,,,0.04,0.11,1.01,-3.1,0.0,0.1,820,20,,,,,,,,,,,,,,,,,,,
12329,1480726078904,,,,,,,,0.03,0.1,1.01,-3.1,0.0,0.0,820,20,,,,,,,,,,,,,,,,,,,
12349,1480726078924,,,,,50,,,0.04,0.1,1.01,-3.1,0.1,0.0,820,21,1,0,41.0,0,38.159119,-122.45443,0.0,0.0,49.5,10,2,1.5,0,0.0,-1,0.0,,0.0,0
12369,1480726078944,,,,,,,,0.04,0.1,1.0,-3.1,0.0,0.1,800,21,,,,,,,,,,,,,,,,,,,
12389,1480726078964,,,,,,,,0.04,0.1,1.0,-3.1,0.1,0.1,800,21,,,,,,,,,,,,,,,,,,,
12409,1480726079091,,,,,,,,0.04,0.11,1.01,-3.1,0.0,0.1,820,26,,,,,,,,,,,,,,,,,,,
12429,1480726079111,,,,,,,,0.04,0.1,1.01,-3.0,0.1,0.0,820,26,,,,,,,,,,,,,,,,,,,
12449,1480726079131,0,65.2,,82.5,50,80.3,,0.03,0.1,1.01,-3.0,0.0,-0.1,840,24,1,0,38.095,0,38.159119,-122.45443,0.0,0.0,49.5,10,2,1.5,0,0.0,-1,0.0,0.0,0.0,0
12469,1480726079151,,,,,,,,0.04,0.09,1.0,-3.0,0.2,0.0,840,24,,,,,,,,,,,,,,,,,,,
12489,1480726079171,,,,,,,,0.04,0.09,1.0,-3.0,0.1,0.1,840,24,,,,,,,,,,,,,,,,,,,
12509,1480726079191,,,,,,,,0.05,0.09,1.0,-3.0,0.2,0.1,820,26,,,,,,,,,,,,,,,,,,,
12529,1480726079211,,,,,,,,0.04,0.1,1.0,-3.0,0.0,0.1,820,26,,,,,,,,,,,,,,,,,,,
12549,1480726079231,,,,,51,,,0.04,0.09,1.0,-3.0,0.1,0.0,820,26,1,0,35.0,0,38.159119,-122.45443,0.0,0.0,49.5,10,2,1.5,0,0.0,-1,0.0,,0.0,0
12569,1480726079251,,,,,,,,0.04,0.1,1.0,-2.9,0.1,-0.0,840,29,,,,,,,,,,,,,,,,,,,
12589,1480726079271,,,,,,,,0.04,0.09,1.0,-3.0,0.2,0.0,840,29,,,,,,,,,,,,,,,,,,,
12609,1480726079192,,,,,,,,0.04,0.09,1.0,-3.0,0.1,0.1,840,29,,,,,,,,,,,,,,,,,,,
12629,1480726079212,,,,,,,,0.04,0.1,0.99,-3.0,0.2,0.1,840,29,,,,,,,,,,,,,,,,,,,
12649,1480726079232,0,67.6,,85.9,51,82.0,,0.04,0.1,1.0,-3.0,0.1,0.2,820,29,1,0,28.966,0,38.159119,-122.45443,0.0,0.0,49.5,10,2,1.5,0,0.0,-1,0.0,0.0,0.0,0
12669,1480726079252,,,,,,,,0.04,0.1,1.01,-3.0,0.1,0.1,820,32,,,,,,,,,,,,,,,,,,,
12689,1480726079272,,,,,,,,0.03,0.1,1.01,-2.9,0.0,0.0,820,32,,,,,,,,,,,,,,,,,,,
12709,1480726079292,,,,,,,,0.03,0.09,1.01,-2.9,0.1,0.0,840,32,,,,,,,,,,,,,,,,,,,
12729,1480726079312,,,,,,,,0.04,0.08,1.0,-2.9,0.1,0.1,840,32,,,,,,,,,,,,,,,,,,,
12749,1480726079332,,,,,48,,,0.04,0.09,1.0,-3.0,0.1,0.2,840,35,1,0,25.625,0,38.159119,-122.45443,0.0,0.0,49.5,10,2,1.5,0,0.0,-1,0.0,,0.0,0
12769,1480726079352,,,,,,,,0.05,0.1,1.0,-2.9,0.2,0.2,840,35,,,,,,,,,,,,,,,,,,,
12789,1480726079372,,,,,,,,0.04,0.09,1.0,-2.9,0.0,0.1,820,33,,,,,,,,,,,,,,,,,,,
12809,1480726079391,,,,,,,,0.04,0.1,1.0,-2.9,0.1,0.1,820,33,,,,,,,,,,,,,,,,,,,
12829,1480726079411,,,,,,,,0.04,0.09,1.0,-2.8,0.2,0.0,820,38,,,,,,,,,,,,,,,,,,,
12849,1480726079431,0,67.7,,85.3,51,79.9,,0.04,0.09,1.0,-2.8,0.1,0.1,820,38,1,0,24.848,0,38.159119,-122.45443,0.0,0.0,49.5,10,2,1.5,0,0.0,-1,0.0,0.0,0.0,0
12869,1480726079451,,,,,,,,0.04,0.1,1.0,-2.8,0.1,0.1,840,35,,,,,,,,,,,,,,,,,,,
12889,1480726079471,,,,,,,,0.05,0.1,1.0,-2.8,0.3,0.2,840,35,,,,,,,,,,,,,,,,,,,
12909,1480726079492,,,,,,,,0.05,0.11,1.0,-2.8,0.1,0.1,860,40,,,,,,,,,,,,,,,,,,,
12929,1480726079512,,,,,,,,0.04,0.11,1.01,-2.8,0.1,0.1,820,40,,,,,,,,,,,,,,,,,,,
12949,1480726079532,,,,,50,,,0.04,0.1,1.01,-2.8,0.1,-0.0,840,40,1,0,24.0,0,38.159119,-122.45443,0.0,0.0,49.5,10,2,1.5,0,0.0,-1,0.0,,0.0,0
12969,1480726079552,,,,,,,,0.04,0.1,1.0,-2.8,0.1,-0.0,840,40,,,,,,,,,,,,,,,,,,,
12989,1480726079572,,,,,,,,0.04,0.1,1.0,-2.8,0.1,0.0,840,41,,,,,,,,,,,,,,,,,,,
13009,1480726079592,,,,,,,,0.05,0.1,1.0,-2.8,0.2,0.1,840,41,,,,,,,,,,,,,,,,,,,
13029,1480726079612,,,,,,,,0.05,0.11,1.0,-2.8,0.2,0.1,860,41,,,,,,,,,,,,,,,,,,,
13049,1480726079632,0,64.7,0.0,83.1,50,81.1,14.89,0.04,0.1,1.01,-2.7,0.1,0.1,860,44,1,0,20.488,0,38.159119,-122.45443,0.0,0.0,49.5,10,2,1.5,0,0.0,-1,0.0,0.0,0.0,0
13069,1480726079652,,,,,,,,0.04,0.11,1.01,-2.7,0.1,0.0,840,44,,,,,,,,,,,,,,,,,,,
13089,1480726079672,,,,,,,,0.04,0.1,1.02,-2.7,0.1,-0.0,840,44,,,,,,,,,,,,,,,,,,,
13109,1480726079692,,,,,,,,0.04,0.09,1.01,-2.7,0.1,-0.0,840,44,,,,,,,,,,,,,,,,,,,
13129,1480726079712,,,,,,,,0.04,0.09,1.01,-2.7,0.1,0.0,840,44,,,,,,,,,,,,,,,,,,,
13149,1480726079732,,,,,50,,,0.04,0.1,1.0,-2.7,0.2,0.1,840,47,1,0,19.091,0,38.159119,-122.45443,0.0,0.0,49.5,10,2,1.5,0,0.0,-1,0.0,,0.0,0
13169,1480726079752,,,,,,,,0.04,0.1,1.0,-2.7,0.1,0.1,840,47,,,,,,,,,,,,,,,,,,,
13189,1480726079772,,,,,,,,0.04,0.09,1.01,-2.7,0.0,0.1,860,46,,,,,,,,,,,,,,,,,,,
13209,1480726079891,,,,,,,,0.04,0.1,1.01,-2.6,0.1,0.0,820,47,,,,,,,,,,,,,,,,,,,
13229,1480726079911,,,,,,,,0.04,0.09,1.01,-2.6,0.1,-0.0,840,47,,,,,,,,,,,,,,,,,,,
13249,1480726079931,0,64.3,,83.3,50,81.7,,0.04,0.09,1.01,-2.6,0.1,0.0,840,52,1,0,18.696,0,38.159119,-122.45443,0.0,0.0,49.5,10,2,1.5,0,0.0,-1,0.0,0.0,0.0,0
13269,1480726079951,,,,,,,,0.04,0.09,1.0,-2.6,0.1,0.1,820,47,,,,,,,,,,,,,,,,,,,
13289,1480726079971,,,,,,,,0.05,0.1,1.01,-2.6,0.3,0.1,840,47,,,,,,,,,,,,,,,,,,,
13309,1480726079991,,,,,,,,0.05,0.1,1.01,-2.6,0.1,0.1,840,52,,,,,,,,,,,,,,,,,,,
13329,1480726080011,,,,,,,,0.04,0.1,1.02,-2.6,0.1,0.1,840,52,,,,,,,,,,,,,,,,,,,
13349,1480726080031,,,,,50,,,0.04,0.09,1.01,-2.6,0.2,0.0,800,52,1,0,17.872,0,38.159119,-122.45443,0.0,0.0,49.5,10,2,1.5,0,0.0,-1,0.0,,0.0,0
13369,1480726080051,,,,,,,,0.04,0.09,1.01,-2.5,0.1,0.1,800,50,,,,,,,,,,,,,,,,,,,
13389,1480726080071,,,,,,,,0.05,0.09,1.01,-2.6,0.1,0.2,820,53,,,,,,,,,,,,,,,,,,,
13409,1480726079991,,,,,,,,0.05,0.1,1.01,-2.6,0.1,0.2,820,55,,,,,,,,,,,,,,,,,,,
13429,1480726080011,,,,,,,,0.05,0.1,1.0,-2.6,0.0,0.2,820,55,,,,,,,,,,,,,,,,,,,
13449,1480726080031,0,67.8,,85.8,52,80.5,,0.04,0.1,1.01,-2.6,-0.0,0.2,840,55,1,0,16.4,0,38.159119,-122.45443,0.0,0.0,49.5,10,2,1.5,0,0.0,-1,0.0,0.0,0.0,0
13469,1480726080051,,,,,,,,0.04,0.1,1.01,-2.5,-0.0,0.1,840,53,,,,,,,,,,,,,,,,,,,
13489,1480726080071,,,,,,,,0.04,0.09,1.01,-2.5,0.0,0.1,840,58,,,,,,,,,,,,,,,,,,,
13509,1480726080091,,,,,,,,0.04,0.1,1.01,-2.5,-0.1,0.2,800,58,,,,,,,,,,,,,,,,,,,
13529,1480726080111,,,,,,,,0.04,0.09,1.01,-2.5,0.1,0.2,820,60,,,,,,,,,,,,,,,,,,,
13549,1480726080131,,,,,49,,,0.04,0.1,1.02,-2.5,0.0,0.2,800,55,1,0,15.849,0,38.159119,-122.45443,0.0,0.0,49.5,10,2,1.5,0,0.0,-1,0.0,,0.0,0
13569,1480726080151,,,,,,,,0.04,0.09,1.01,-2.4,-0.0,0.1,800,58,,,,,,,,,,,,,,,,,,,
13589,1480726080171,,,,,,,,0.04,0.09,1.01,-2.4,0.0,-0.0,820,58,,,,,,,,,,,,,,,,,,,
13609,1480726080191,,,,,,,,0.04,0.09,1.01,-2.4,0.0,0.0,820,64,,,,,,,,,,,,,,,,,,,
13629,1480726080211,,,,,,,,0.04,0.1,1.0,-2.4,0.0,0.1,820,61,,,,,,,,,,,,,,,,,,,
13649,1480726080231,0,67.4,,85.8,49,81.9,,0.04,0.1,1.01,-2.4,-0.0,0.1,800,58,1,0,13.793,0,38.159119,-122.45443,0.0,0.0,49.5,10,2,1.5,0,0.0,-1,0.0,0.0,0.0,0
13669,1480726080251,,,,,,,,0.04,0.09,1.01,-2.3,-0.0,0.0,800,61,,,,,,,,,,,,,,,,,,,
13689,1480726080271,,,,,,,,0.03,0.09,1.01,-2.3,0.0,-0.0,820,64,,,,,,,,,,,,,,,,,,,
13709,1480726080291,,,,,,,,0.03,0.08,1.01,-2.2,0.1,-0.0,820,64,,,,,,,,,,,,,,,,,,,
13729,1480726080311,,,,,,,,0.04,0.08,1.01,-2.2,0.1,0.1,820,63,,,,,,,,,,,,,,,,,,,
13749,1480726080331,,,,,49,,,0.04,0.09,1.01,-2.2,0.1,0.1,820,55,1,0,13.115,0,38.159119,-122.45443,0.0,0.0,49.5,10,2,1.5,0,0.0,-1,0.0,,0.0,0
13769,1480726080351,,,,,,,,0.04,0.1,1.0,-2.2,0.0,0.1,840,55,,,,,,,,,,,,,,,,,,,
13789,1480726080371,,,,,,,,0.03,0.09,1.01,-2.1,0.1,0.0,820,53,,,,,,,,,,,,,,,,,,,
13809,1480726080391,,,,,,,,0.02,0.09,1.01,-2.1,0.1,-0.0,840,60,,,,,,,,,,,,,,,,,,,
13829,1480726080410,,,,,,,,0.02,0.09,1.01,-2.1,0.1,0.0,840,61,,,,,,,,,,,,,,,,,,,
13849,1480726080430,0,67.8,,86.5,51,82.0,,0.02,0.09,1.01,-2.1,0.2,0.1,840,60,1,0,15.849,0,38.159119,-122.45443,0.0,0.0,49.5,10,2,1.5,0,0.0,-1,0.0,0.0,0.0,0
13869,1480726080450,,,,,,,,0.02,0.09,1.0,-2.1,0.0,0.2,860,61,,,,,,,,,,,,,,,,,,,
13889,1480726080470,,,,,,,,0.02,0.09,1.0,-2.1,0.2,0.2,880,61,,,,,,,,,,,,,,,,,,,
13909,1480726080490,,,,,,,,0.02,0.1,1.0,-2.1,0.1,0.2,900,63,,,,,,,,,,,,,,,,,,,
13929,1480726080510,,,,,,,,0.01,0.1,1.01,-2.1,-0.0,0.2,860,63,,,,,,,,,,,,,,,,,,,
13949,1480726080530,,,,,51,,,0.01,0.11,1.01,-2.1,0.1,0.2,880,61,1,0,14.426,0,38.159119,-122.45443,0.0,0.0,49.5,10,2,1.5,0,0.0,-1,0.0,,0.0,0
13969,1480726080550,,,,,,,,0.01,0.11,1.01,-2.1,0.0,0.1,880,61,,,,,,,,,,,,,,,,,,,
13989,1480726080570,,,,,,,,0.01,0.09,1.01,-2.1,-0.0,0.0,900,61,,,,,,,,,,,,,,,,,,,
14009,1480726080591,,,,,,,,0.01,0.09,1.0,-2.0,0.2,-0.0,900,64,,,,,,,,,,,,,,,,,,,
14029,1480726080710,,,,,,,,0.02,0.09,1.0,-2.0,0.1,-0.0,920,63,,,,,,,,,,,,,,,,,,,
14049,1480726080730,0,66.8,0.0,84.0,51,82.7,14.8,0.01,0.09,1.0,-2.0,-0.1,-0.0,920,60,1,0,14.426,0,38.159115,-122.454437,1.0,0.001,43.7,10,2,1.5,0,0.0,-1,0.0,0.0,0.0,0
14069,1480726080750,,,,,,,,0.01,0.09,1.0,-2.0,0.1,-0.0,880,60,,,,,,,,,,,,,,,,,,,
14089,1480726080770,,,,,,,,0.02,0.1,1.0,-2.1,0.3,-0.0,900,60,,,,,,,,,,,,,,,,,,,
14109,1480726080790,,,,,,,,0.02,0.11,1.01,-2.0,0.2,0.0,900,61,,,,,,,,,,,,,,,,,,,
14129,1480726080810,,,,,,,,0.02,0.11,1.01,-2.0,-0.1,0.0,920,60,,,,,,,,,,,,,,,,,,,
14149,1480726080830,,,,,51,,,0.01,0.11,1.02,-2.1,-0.1,0.0,920,60,1,0,15.0,0,38.159115,-122.454437,1.0,0.001,43.7,10,2,1.5,0,0.0,-1,0.0,,0.0,0
14169,1480726080850,,,,,,,,0.01,0.11,1.02,-2.1,0.1,-0.0,920,58,,,,,,,,,,,,,,,,,,,
14189,1480726080870,,,,,,,,0.01,0.11,1.02,-2.0,0.1,-0.1,900,58,,,,,,,,,,,,,,,,,,,
14209,1480726080791,,,,,,,,0.01,0.1,1.01,-2.0,-0.0,-0.1,900,60,,,,,,,,,,,,,,,,,,,
14229,1480726080811,,,,,,,,0.0,0.09,1.01,-2.0,0.1,-0.2,900,58,,,,,,,,,,,,,,,,,,,
14249,1480726080831,0,64.9,,85.1,54,78.8,,0.01,0.09,1.01,-2.0,0.2,-0.2,900,60,1,0,15.862,0,38.159115,-122.454437,1.02,0.001,43.3,10,2,1.5,0,0.0,-1,0.0,0.0,0.0,0
14269,1480726080851,,,,,,,,0.01,0.09,1.01,-2.0,0.1,-0.2,900,60,,,,,,,,,,,,,,,,,,,
14289,1480726080871,,,,,,,,0.01,0.1,1.0,-2.0,-0.0,-0.1,900,58,,,,,,,,,,,,,,,,,,,
14309,1480726080891,,,,,,,,0.01,0.1,1.0,-2.1,0.1,0.0,920,55,,,,,,,,,,,,,,,,,,,
14329,1480726080905,,,,,,,,0.01,0.11,1.01,-2.0,0.2,0.0,880,56,,,,,,,,,,,,,,,,,,,
14349,1480726080925,,,,,54,,,0.01,0.11,1.01,-2.0,0.2,0.0,900,56,1,0,15.517,0,38.159115,-122.454437,1.04,0.001,42.8,10,2,1.5,0,0.0,-1,0.0,,0.0,0
14369,1480726080945,,,,,,,,0.01,0.11,1.02,-2.1,0.0,0.0,900,58,,,,,,,,,,,,,,,,,,,
14389,1480726080965,,,,,,,,0.0,0.11,1.02,-2.1,0.1,0.0,900,55,,,,,,,,,,,,,,,,,,,
14409,1480726080992,,,,,,,,0.0,0.11,1.02,-2.0,0.1,-0.0,900,56,,,,,,,,,,,,,,,,,,,
14429,1480726081012,,,,,,,,-0.0,0.1,1.02,-2.0,0.0,-0.1,920,56,,,,,,,,,,,,,,,,,,,
14449,1480726081032,0,66.8,,84.3,53,82.6,,0.0,0.1,1.01,-2.0,0.1,-0.1,880,55,1,0,16.364,0,38.159115,-122.454437,0.97,0.001,42.4,10,2,1.5,0,0.0,-1,0.0,0.0,0.0,0
14469,1480726081052,,,,,,,,0.01,0.1,1.01,-2.0,0.2,-0.1,880,55,,,,,,,,,,,,,,,,,,,
14489,1480726081072,,,,,,,,0.01,0.1,1.0,-2.0,0.1,-0.1,880,55,,,,,,,,,,,,,,,,,,,
14509,1480726081092,,,,,,,,0.01,0.1,1.0,-2.0,0.0,0.0,880,55,,,,,,,,,,,,,,,,,,,
14529,1480726081112,,,,,,,,0.01,0.1,1.01,-2.1,0.2,0.1,880,55,,,,,,,,,,,,,,,,,,,
14549,1480726081132,,,,,53,,,0.01,0.11,1.01,-2.1,0.2,0.0,880,53,1,0,16.0,0,38.159115,-122.454437,0.99,0.001,42.0,10,2,1.5,0,0.0,-1,0.0,,0.0,0
14569,1480726081152,,,,,,,,0.01,0.1,1.01,-2.1,0.0,0.0,900,53,,,,,,,,,,,,,,,,,,,
14589,1480726081172,,,,,,,,0.0,0.1,1.02,-2.1,0.1,0.0,860,52,,,,,,,,,,,,,,,,,,,
14609,1480726081191,,,,,,,,0.0,0.11,1.01,-2.1,0.1,-0.0,860,53,,,,,,,,,,,,,,,,,,,
14629,1480726081211,,,,,,,,-0.0,0.1,1.01,-2.1,0.1,-0.0,860,52,,,,,,,,,,,,,,,,,,,
14649,1480726081231,0,64.5,,82.7,54,80.3,,0.0,0.1,1.01,-2.1,0.2,-0.0,880,52,1,0,16.538,0,38.159115,-122.454437,0.0,0.001,42.0,10,2,1.5,0,0.0,-1,0.0,0.0,0.0,0
14669,1480726081251,,,,,,,,0.01,0.1,1.01,-2.1,0.1,-0.0,880,52,,,,,,,,,,,,,,,,,,,
14689,1480726081271,,,,,,,,0.0,0.1,1.0,-2.1,0.0,-0.0,880,53,,,,,,,,,,,,,,,,,,,
14709,1480726081291,,,,,,,,0.01,0.1,1.0,-2.1,0.2,0.0,900,53,,,,,,,,,,,,,,,,,,,
14729,1480726081311,,,,,,,,0.01,0.11,1.0,-2.2,0.1,0.0,860,50,,,,,,,,,,,,,,,,,,,
14749,1480726081331,,,,,55,,,0.0,0.11,1.01,-2.2,0.0,0.0,860,50,1,0,16.923,0,38.159115,-122.454437,0.0,0.001,42.0,10,2,1.5,0,0.0,-1,0.0,,0.0,0
14769,1480726081351,,,,,,,,0.0,0.11,1.01,-2.1,0.1,0.0,860,50,,,,,,,,,,,,,,,,,,,
14789,1480726081371,,,,,,,,-0.0,0.11,1.01,-2.1,-0.0,-0.0,880,50,,,,,,,,,,,,,,,,,,,
14809,1480726081391,,,,,,,,-0.0,0.09,1.01,-2.1,0.1,-0.1,880,50,,,,,,,,,,,,,,,,,,,
14829,1480726081510,,,,,,,,0.0,0.09,1.01,-2.0,0.2,-0.1,900,50,,,,,,,,,,,,,,,,,,,
14849,1480726081530,0,64.2,,82.6,55,80.2,,0.01,0.09,1.0,-2.0,0.1,-0.0,900,47,1,0,17.2,0,38.159115,-122.454437,0.0,0.001,42.0,10,2,1.5,0,0.0,-1,0.0,0.0,0.0,0
14869,1480726081550,,,,,,,,0.01,0.09,1.0,-2.0,0.1,0.0,860,50,,,,,,,,,,,,,,,,,,,
14889,1480726081570,,,,,,,,0.01,0.1,1.01,-2.0,0.1,0.0,860,50,,,,,,,,,,,,,,,,,,,
14909,1480726081590,,,,,,,,0.01,0.1,1.01,-2.0,0.0,0.0,860,49,,,,,,,,,,,,,,,,,,,
14929,1480726081610,,,,,,,,0.0,0.1,1.01,-2.0,0.1,0.0,860,49,,,,,,,,,,,,,,,,,,,
14949,1480726081630,,,,,55,,,0.0,0.1,1.01,-1.9,0.1,-0.0,860,47,1,0,17.2,0,38.159115,-122.454437,0.0,0.001,42.0,10,2,1.5,0,0.0,-1,0.0,,0.0,0
14969,1480726081650,,,,,,,,-0.0,0.09,1.01,-1.9,0.1,-0.0,880,49,,,,,,,,,,,,,,,,,,,
14989,1480726081670,,,,,,,,0.01,0.09,1.01,-1.9,0.2,-0.0,880,49,,,,,,,,,,,,,,,,,,,
15009,1480726081591,,,,,,,,0.01,0.09,1.0,-1.9,0.1,0.0,840,47,,,,,,,,,,,,,,,,,,,
15029,1480726081611,,,,,,,,0.01,0.1,1.0,-1.9,0.2,0.0,860,50,,,,,,,,,,,,,,,,,,,
15049,1480726081631,0,66.0,0.0,85.9,56,79.2,14.91,0.02,0.1,1.0,-1.9,0.2,0.1,860,50,1,0,17.959,0,38.159115,-122.454437,0.0,0.001,42.0,10,2,1.5,0,0.0,-1,0.0,0.0,0.0,0
15069,1480726081651,,,,,,,,0.01,0.1,1.0,-1.9,-0.0,0.1,860,49,,,,,,,,,,,,,,,,,,,
15089,1480726081671,,,,,,,,0.01,0.1,1.01,-1.8,0.1,0.0,860,47,,,,,,,,,,,,,,,,,,,
15109,1480726081691,,,,,,,,0.01,0.1,1.01,-1.8,0.0,-0.0,880,47,,,,,,,,,,,,,,,,,,,
15129,1480726081711,,,,,,,,0.0,0.09,1.01,-1.8,-0.0,-0.1,840,47,,,,,,,,,,,,,,,,,,,
15149,1480726081731,,,,,52,,,0.01,0.09,1.01,-1.7,0.1,-0.0,840,50,1,0,17.551,0,38.159115,-122.454437,0.0,0.001,42.0,10,2,1.5,0,0.0,-1,0.0,,0.0,0
15169,1480726081751,,,,,,,,0.01,0.09,1.0,-1.7,0.0,0.0,860,50,,,,,,,,,,,,,,,,,,,
15189,1480726081771,,,,,,,,0.02,0.09,1.0,-1.7,0.1,0.1,860,46,,,,,,,,,,,,,,,,,,,
15209,1480726081791,,,,,,,,0.02,0.1,1.01,-1.7,0.1,0.1,860,46,,,,,,,,,,,,,,,,,,,
15229,1480726081811,,,,,,,,0.02,0.09,1.01,-1.7,-0.0,0.1,880,49,,,,,,,,,,,,,,,,,,,
15249,1480726081831,0,67.4,,84.7,53,83.0,,0.01,0.1,1.02,-1.7,0.1,0.0,880,49,1,0,17.2,0,38.159115,-122.454437,0.0,0.001,42.0,10,2,1.5,0,0.0,-1,0.0,0.0,0.0,0
15269,1480726081851,,,,,,,,0.01,0.1,1.01,-1.6,0.1,-0.0,840,49,,,,,,,,,,,,,,,,,,,
15289,1480726081871,,,,,,,,0.01,0.09,1.01,-1.6,0.1,0.0,860,46,,,,,,,,,,,,,,,,,,,
15309,1480726081891,,,,,,,,0.02,0.09,1.01,-1.6,0.2,0.0,860,49,,,,,,,,,,,,,,,,,,,
15329,1480726081904,,,,,,,,0.02,0.1,1.0,-1.6,0.0,0.1,860,49,,,,,,,,,,,,,,,,,,,
15349,1480726081924,,,,,51,,,0.02,0.1,1.0,-1.6,0.2,0.1,860,47,1,0,18.261,0,38.159115,-122.454437,0.0,0.001,42.0,10,2,1.5,0,0.0,-1,0.0,,0.0,0
15369,1480726081944,,,,,,,,0.02,0.1,1.0,-1.6,0.2,0.1,860,49,,,,,,,,,,,,,,,,,,,
15389,1480726081964,,,,,,,,0.02,0.1,1.01,-1.6,-0.0,0.1,880,49,,,,,,,,,,,,,,,,,,,
15409,1480726081991,,,,,,,,0.01,0.1,1.01,-1.5,0.1,0.0,840,49,,,,,,,,,,,,,,,,,,,
15429,1480726082011,,,,,,,,0.01,0.1,1.01,-1.5,0.1,0.0,860,49,,,,,,,,,,,,,,,,,,,
15449,1480726082031,1,67.4,,86.8,54,81.7,,0.01,0.09,1.01,-1.4,0.1,-0.0,860,49,1,0,17.959,0,38.159115,-122.454437,0.0,0.001,42.0,10,2,1.5,0,0.0,-1,0.0,0.0,0.0,0
15469,1480726082051,,,,,,,,0.02,0.09,1.01,-1.4,0.1,-0.0,860,47,,,,,,,,,,,,,,,,,,,
15489,1480726082071,,,,,,,,0.02,0.09,1.01,-1.4,-0.0,-0.0,860,47,,,,,,,,,,,,,,,,,,,
15509,1480726082091,,,,,,,,0.02,0.1,1.01,-1.5,0.1,0.0,860,50,,,,,,,,,,,,,,,,,,,
15529,1480726082111,,,,,,,,0.03,0.1,1.01,-1.5,0.1,0.1,880,47,,,,,,,,,,,,,,,,,,,
15549,1480726082131,,,,,53,,,0.02,0.1,1.01,-1.5,0.0,0.0,840,47,1,0,18.298,0,38.159115,-122.454437,0.0,0.001,42.0,10,2,1.5,0,0.0,-1,0.0,,0.0,0
15569,1480726082151,,,,,,,,0.02,0.1,1.01,-1.5,0.1,0.0,840,50,,,,,,,,,,,,,,,,,,,
15589,1480726082171,,,,,,,,0.02,0.1,1.01,-1.4,0.1,-0.0,840,50,,,,,,,,,,,,,,,,,,,
15609,1480726082291,,,,,,,,0.02,0.1,1.0,-1.4,0.1,0.0,840,50,,,,,,,,,,,,,,,,,,,
15629,1480726082311,,,,,,,,0.02,0.1,1.0,-1.5,-0.0,0.1,840,47,,,,,,,,,,,,,,,,,,,
15649,1480726082331,0,64.3,,82.6,50,78.8,,0.03,0.1,1.0,-1.5,0.1,0.1,840,50,1,0,16.8,0,38.159115,-122.454437,0.0,0.001,42.0,10,2,1.5,0,0.0,-1,0.0,0.0,0.0,0
15669,1480726082351,,,,,,,,0.03,0.1,1.0,-1.4,-0.1,0.1,860,50,,,,,,,,,,,,,,,,,,,
15689,1480726082371,,,,,,,,0.02,0.1,1.01,-1.4,-0.1,0.0,820,52,,,,,,,,,,,,,,,,,,,
15709,1480726082391,,,,,,,,0.02,0.1,1.0,-1.4,-0.1,-0.0,840,50,,,,,,,,,,,,,,,,,,,
15729,1480726082411,,,,,,,,0.02,0.09,1.0,-1.4,-0.1,-0.0,840,50,,,,,,,,,,,,,,,,,,,
15749,1480726082431,,,,,51,,,0.02,0.1,1.0,-1.4,-0.1,0.0,840,52,1,0,16.538,0,38.159115,-122.454437,0.0,0.001,42.0,10,2,1.5,0,0.0,-1,0.0,,0.0,0
15769,1480726082451,,,,,,,,0.03,0.1,1.0,-1.4,-0.1,0.1,840,55,,,,,,,,,,,,,,,,,,,
15789,1480726082471,,,,,,,,0.03,0.1,1.01,-1.4,0.1,0.1,840,52,,,,,,,,,,,,,,,,,,,
15809,1480726082391,,,,,,,,0.03,0.1,1.01,-1.4,-0.1,0.1,860,52,,,,,,,,,,,,,,,,,,,
15829,1480726082411,,,,,,,,0.03,0.1,1.01,-1.4,-0.1,0.1,820,53,,,,,,,,,,,,,,,,,,,
15849,1480726082431,0,67.9,,87.0,52,82.0,,0.03,0.1,1.01,-1.3,-0.1,0.1,820,58,1,0,15.273,0,38.159115,-122.454437,0.0,0.001,42.0,10,2,1.5,0,0.0,-1,0.0,0.0,0.0,0
15869,1480726082451,,,,,,,,0.03,0.1,1.01,-1.3,-0.1,0.1,820,53,,,,,,,,,,,,,,,,,,,
15889,1480726082471,,,,,,,,0.04,0.1,1.01,-1.3,-0.1,0.2,820,53,,,,,,,,,,,,,,,,,,,
15909,1480726082491,,,,,,,,0.04,0.1,1.01,-1.3,-0.0,0.2,820,53,,,,,,,,,,,,,,,,,,,
15929,1480726082511,,,,,,,,0.04,0.11,1.01,-1.3,-0.1,0.2,820,60,,,,,,,,,,,,,,,,,,,
15949,1480726082531,,,,,50,,,0.04,0.11,1.01,-1.2,-0.1,0.1,840,58,1,0,15.472,0,38.159115,-122.454437,0.0,0.001,42.0,10,2,1.5,0,0.0,-1,0.0,,0.0,0
15969,1480726082551,,,,,,,,0.03,0.1,1.01,-1.2,-0.1,0.0,800,58,,,,,,,,,,,,,,,,,,,
15989,1480726082571,,,,,,,,0.04,0.1,1.0,-1.1,-0.1,0.0,800,55,,,,,,,,,,,,,,,,,,,
16009,1480726082591,,,,,,,,0.04,0.1,1.0,-1.1,-0.1,0.1,800,58,,,,,,,,,,,,,,,,,,,
16029,1480726082611,,,,,,,,0.04,0.09,1.0,-1.1,-0.0,0.1,800,61,,,,,,,,,,,,,,,,,,,
16049,1480726082631,0,66.8,0.0,87.1,48,83.1,14.89,0.04,0.09,1.01,-1.0,-0.1,0.1,820,61,1,0,14.545,0,38.159115,-122.454437,0.0,0.001,42.0,10,2,1.5,0,0.0,-1,0.0,0.0,0.0,0
16069,1480726082651,,,,,,,,0.03,0.09,1.01,-1.0,-0.2,0.0,800,61,,,,,,,,,,,,,,,,,,,
16089,1480726082671,,,,,,,,0.03,0.08,1.01,-0.9,-0.0,-0.0,820,58,,,,,,,,,,,,,,,,,,,
16109,1480726082692,,,,,,,,0.04,0.08,1.01,-0.8,0.0,0.1,820,60,,,,,,,,,,,,,,,,,,,
16129,1480726082712,,,,,,,,0.04,0.09,1.0,-0.8,0.1,0.1,800,66,,,,,,,,,,,,,,,,,,,
16149,1480726082732,,,,,50,,,0.04,0.09,1.01,-0.7,-0.0,0.1,800,66,1,0,13.793,0,38.159115,-122.454437,0.92,0.001,39.8,10,2,1.5,0,0.0,-1,0.0,,0.0,0
16169,1480726082752,,,,,,,,0.04,0.08,1.01,-0.6,-0.1,0.0,800,66,,,,,,,,,,,,,,,,,,,
16189,1480726082772,,,,,,,,0.04,0.08,1.01,-0.5,-0.0,-0.0,800,60,,,,,,,,,,,,,,,,,,,
16209,1480726082792,,,,,,,,0.04,0.08,1.0,-0.4,0.1,0.0,800,64,,,,,,,,,,,,,,,,,,,
16229,1480726082807,,,,,,,,0.04,0.09,1.0,-0.3,0.1,0.2,800,70,,,,,,,,,,,,,,,,,,,
16249,1480726082827,0,67.0,,83.1,49,80.2,,0.05,0.09,1.0,-0.3,0.2,0.2,820,69,1,0,13.333,0,38.159115,-122.454437,0.97,0.001,39.8,10,2,1.5,0,0.0,-1,0.0,0.0,0.0,0
16269,1480726082847,,,,,,,,0.04,0.09,1.01,-0.2,0.0,0.1,800,64,,,,,,,,,,,,,,,,,,,
16289,1480726082867,,,,,,,,0.04,0.09,1.01,-0.1,0.1,0.0,800,66,,,,,,,,,,,,,,,,,,,
16309,1480726082887,,,,,,,,0.04,0.08,1.01,0.0,0.1,0.0,800,69,,,,,,,,,,,,,,,,,,,
16329,1480726082904,,,,,,,,0.05,0.08,1.0,0.1,0.1,0.1,800,73,,,,,,,,,,,,,,,,,,,
16349,1480726082924,,,,,48,,,0.05,0.09,1.01,0.2,0.2,0.1,800,72,1,0,12.5,0,38.159115,-122.454437,0.98,0.001,39.8,10,2,1.5,0,0.0,-1,0.0,,0.0,0
16369,1480726082944,,,,,,,,0.04,0.08,1.01,0.3,0.2,0.0,800,72,,,,,,,,,,,,,,,,,,,
16389,1480726082964,,,,,,,,0.03,0.08,1.01,0.5,0.2,-0.1,820,64,,,,,,,,,,,,,,,,,,,
16409,1480726082984,,,,,,,,0.03,0.07,1.01,0.6,0.2,-0.1,820,61,,,,,,,,,,,,,,,,,,,
16429,1480726083108,,,,,,,,0.04,0.07,1.01,0.8,0.1,0.0,800,70,,,,,,,,,,,,,,,,,,,
16449,1480726083128,0,66.5,,83.2,47,80.0,,0.04,0.08,1.01,0.9,0.3,0.1,800,76,1,0,12.5,0,38.159115,-122.454437,1.17,0.001,39.8,10,2,1.5,0,0.0,-1,0.0,0.0,0.0,0
16469,1480726083148,,,,,,,,0.04,0.09,1.01,1.0,0.2,0.1,800,75,,,,,,,,,,,,,,,,,,,
16489,1480726083168,,,,,,,,0.03,0.08,1.01,1.2,0.2,0.0,800,69,,,,,,,,,,,,,,,,,,,
16509,1480726083188,,,,,,,,0.03,0.08,1.01,1.3,0.2,0.0,820,67,,,,,,,,,,,,,,,,,,,
16529,1480726083208,,,,,,,,0.03,0.08,1.0,1.4,0.2,0.1,820,70,,,,,,,,,,,,,,,,,,,
16549,1480726083228,,,,,49,,,0.03,0.09,1.0,1.5,0.1,0.2,840,75,1,0,11.594,0,38.159115,-122.454437,1.17,0.001,39.8,10,2,1.5,0,0.0,-1,0.0,,0.0,0
16569,1480726083248,,,,,,,,0.03,0.1,1.0,1.6,0.2,0.2,820,76,,,,,,,,,,,,,,,,,,,
16589,1480726083268,,,,,,,,0.03,0.1,1.01,1.7,0.1,0.1,820,73,,,,,,,,,,,,,,,,,,,
16609,1480726083192,,,,,,,,0.02,0.1,1.01,1.8,0.1,-0.1,820,67,,,,,,,,,,,,,,,,,,,
16629,1480726083212,,,,,,,,0.02,0.09,1.01,1.9,0.3,-0.1,840,67,,,,,,,,,,,,,,,,,,,
16649,1480726083232,0,64.6,,83.1,48,79.1,,0.03,0.09,1.01,2.0,0.3,-0.1,840,67,1,0,10.789,0,38.159115,-122.454437,1.23,0.001,39.9,10,2,1.5,0,0.0,-1,0.0,0.0,0.0,0
16669,1480726083252,,,,,,,,0.02,0.1,1.01,2.0,0.3,-0.0,840,70,,,,,,,,,,,,,,,,,,,
16689,1480726083272,,,,,,,,0.02,0.1,1.01,2.1,0.4,-0.0,860,69,,,,,,,,,,,,,,,,,,,
16709,1480726083292,,,,,,,,0.02,0.1,1.02,2.2,0.2,-0.1,840,63,,,,,,,,,,,,,,,,,,,
16729,1480726083312,,,,,,,,0.01,0.1,1.02,2.3,0.3,-0.1,840,58,,,,,,,,,,,,,,,,,,,
16749,1480726083332,,,,,48,,,0.01,0.09,1.01,2.4,0.4,-0.2,860,58,1,0,12.464,0,38.159115,-122.454437,1.24,0.001,40.1,10,2,1.5,0,0.0,-1,0.0,,0.0,0
16769,1480726083352,,,,,,,,0.01,0.09,1.01,2.5,0.4,-0.1,860,55,,,,,,,,,,,,,,,,,,,
16789,1480726083372,,,,,,,,0.01,0.09,1.01,2.5,0.3,-0.1,860,53,,,,,,,,,,,,,,,,,,,
16809,1480726083392,,,,,,,,0.01,0.1,1.01,2.5,0.3,0.0,880,56,,,,,,,,,,,,,,,,,,,
16829,1480726083412,,,,,,,,0.01,0.1,1.01,2.5,0.5,0.1,900,56,,,,,,,,,,,,,,,,,,,
16849,1480726083432,0,68.5,,87.2,47,83.3,,0.02,0.11,1.01,2.5,0.4,0.2,880,55,1,0,16.226,0,38.159115,-122.454437,1.25,0.001,40.3,10,2,1.5,0,0.0,-1,0.0,0.0,0.0,0
16869,1480726083452,,,,,,,,0.01,0.11,1.01,2.5,0.2,0.2,900,55,,,,,,,,,,,,,,,,,,,
16889,1480726083472,,,,,,,,0.0,0.11,1.02,2.5,0.3,0.2,900,55,,,,,,,,,,,,,,,,,,,
16909,1480726083492,,,,,,,,0.0,0.12,1.02,2.6,0.4,0.1,920,55,,,,,,,,,,,,,,,,,,,
16929,1480726083512,,,,,,,,-0.0,0.11,1.01,2.6,0.3,0.0,920,56,,,,,,,,,,,,,,,,,,,
16949,1480726083532,,,,,52,,,-0.0,0.1,1.01,2.6,0.3,-0.1,940,58,1,0,16.364,0,38.159115,-122.454437,1.53,0.001,40.5,10,2,1.5,0,0.0,-1,0.0,,0.0,0
16969,1480726083552,,,,,,,,0.0,0.1,1.0,2.6,0.5,-0.1,920,61,,,,,,,,,,,,,,,,,,,
16989,1480726083572,,,,,,,,0.01,0.1,1.0,2.6,0.5,-0.2,920,64,,,,,,,,,,,,,,,,,,,
17009,1480726083592,,,,,,,,0.01,0.1,0.99,2.6,0.3,-0.2,920,64,,,,,,,,,,,,,,,,,,,
17029,1480726083612,,,,,,,,0.0,0.1,1.0,2.5,0.2,-0.1,920,69,,,,,,,,,,,,,,,,,,,
17049,1480726083632,0,68.0,0.0,87.4,55,83.4,14.82,0.0,0.1,1.0,2.5,0.2,-0.0,940,67,1,0,15.082,0,38.159115,-122.454437,1.15,0.001,40.7,10,2,1.5,0,0.0,-1,0.0,0.0,0.0,0
17069,1480726083652,,,,,,,,0.0,0.11,1.01,2.4,0.3,0.0,940,64,,,,,,,,,,,,,,,,,,,
17089,1480726083672,,,,,,,,0.01,0.12,1.01,2.4,0.4,0.1,940,69,,,,,,,,,,,,,,,,,,,
17109,1480726083693,,,,,,,,0.01,0.12,1.01,2.4,0.5,0.1,920,69,,,,,,,,,,,,,,,,,,,
17129,1480726083713,,,,,,,,0.01,0.12,1.01,2.4,0.4,0.2,940,69,,,,,,,,,,,,,,,,,,,
17149,1480726083733,,,,,55,,,0.0,0.12,1.01,2.4,0.2,0.2,920,67,1,0,13.623,0,38.159115,-122.454437,1.29,0.001,40.7,10,2,1.5,0,0.0,-1,0.0,,0.0,0
17169,1480726083753,,,,,,,,-0.0,0.12,1.01,2.4,0.1,0.2,940,66,,,,,,,,,,,,,,,,,,,
17189,1480726083773,,,,,,,,-0.0,0.12,1.01,2.4,0.1,0.2,940,66,,,,,,,,,,,,,,,,,,,
17209,1480726083892,,,,,,,,-0.0,0.12,1.02,2.4,0.2,0.2,940,64,,,,,,,,,,,,,,,,,,,
17229,1480726083912,,,,,,,,-0.0,0.12,1.01,2.4,0.2,0.2,920,64,,,,,,,,,,,,,,,,,,,
17249,1480726083932,0,68.1,,86.4,54,82.7,,-0.0,0.11,1.0,2.4,0.1,0.1,920,64,1,0,14.242,0,38.159111,-122.454437,1.1,0.001,40.7,10,2,1.5,0,0.0,-1,0.0,0.0,0.0,0
17269,1480726083952,,,,,,,,-0.0,0.1,1.0,2.4,0.0,0.0,920,67,,,,,,,,,,,,,,,,,,,
17289,1480726083972,,,,,,,,0.0,0.1,1.0,2.3,0.2,-0.0,920,72,,,,,,,,,,,,,,,,,,,
17309,1480726083992,,,,,,,,0.01,0.1,1.0,2.3,0.3,-0.1,920,78,,,,,,,,,,,,,,,,,,,
17329,1480726084012,,,,,,,,0.01,0.09,1.0,2.2,0.2,-0.0,920,84,,,,,,,,,,,,,,,,,,,
17349,1480726084032,,,,,54,,,0.01,0.1,1.0,2.2,0.1,0.0,900,98,1,0,12.778,0,38.159111,-122.454437,1.1,0.001,40.7,10,2,1.5,0,0.0,-1,0.0,,0.0,0
17369,1480726084052,,,,,,,,0.01,0.1,1.01,2.1,0.2,0.1,880,104,,,,,,,,,,,,,,,,,,,
17389,1480726084072,,,,,,,,0.02,0.1,1.01,2.1,0.3,0.1,880,98,,,,,,,,,,,,,,,,,,,
17409,1480726083992,,,,,,,,0.02,0.11,1.02,2.0,0.1,0.1,880,98,,,,,,,,,,,,,,,,,,,
17429,1480726084012,,,,,,,,0.01,0.1,1.02,2.1,0.1,0.1,860,53,,,,,,,,,,,,,,,,,,,
17449,1480726084032,0,64.2,,83.3,55,79.0,,0.01,0.1,1.03,2.1,0.2,-0.0,860,53,1,0,8.98,0,38.159111,-122.454437,0.99,0.001,40.9,10,2,1.5,0,0.0,-1,0.0,0.0,0.0,0
17469,1480726084052,,,,,,,,0.0,0.09,1.02,2.1,0.2,-0.1,860,33,,,,,,,,,,,,,,,,,,,
17489,1480726084072,,,,,,,,0.01,0.09,1.01,2.2,0.2,-0.1,860,64,,,,,,,,,,,,,,,,,,,
17509,1480726084092,,,,,,,,0.01,0.09,1.01,2.2,0.1,-0.0,840,81,,,,,,,,,,,,,,,,,,,
17529,1480726084112,,,,,,,,0.02,0.09,1.01,2.2,0.3,0.1,820,83,,,,,,,,,,,,,,,,,,,
17549,1480726084132,,,,,55,,,0.02,0.09,1.0,2.2,0.3,0.1,820,55,1,0,13.438,0,38.159111,-122.454437,1.29,0.001,40.8,10,2,1.5,0,0.0,-1,0.0,,0.0,0
17569,1480726084152,,,,,,,,0.01,0.09,1.01,2.3,0.2,-0.0,820,55,,,,,,,,,,,,,,,,,,,
17589,1480726084172,,,,,,,,0.01,0.08,1.01,2.3,0.2,-0.2,820,41,,,,,,,,,,,,,,,,,,,
17609,1480726084193,,,,,,,,0.01,0.08,1.01,2.4,0.2,-0.2,820,63,,,,,,,,,,,,,,,,,,,
17629,1480726084213,,,,,,,,0.02,0.09,1.01,2.5,0.1,-0.1,800,72,,,,,,,,,,,,,,,,,,,
17649,1480726084233,0,64.0,,84.2,51,79.9,,0.02,0.09,1.01,2.6,0.1,-0.0,780,72,1,0,20.0,0,38.159111,-122.454437,1.02,0.001,40.8,10,2,1.5,0,0.0,-1,0.0,0.0,0.0,0
17669,1480726084253,,,,,,,,0.02,0.09,1.01,2.6,0.1,-0.0,780,61,,,,,,,,,,,,,,,,,,,
17689,1480726084273,,,,,,,,0.01,0.09,1.02,2.7,0.0,-0.1,780,46,,,,,,,,,,,,,,,,,,,
17709,1480726084293,,,,,,,,0.02,0.09,1.01,2.8,0.1,-0.1,780,55,,,,,,,,,,,,,,,,,,,
17729,1480726084313,,,,,,,,0.03,0.09,1.01,2.8,0.1,0.0,780,55,,,,,,,,,,,,,,,,,,,
17749,1480726084333,,,,,50,,,0.03,0.1,1.01,2.7,0.1,0.0,780,64,1,0,12.787,0,38.159111,-122.45443,0.97,0.002,40.8,10,2,1.5,0,0.0,-1,0.0,,0.0,0
17769,1480726084353,,,,,,,,0.03,0.1,1.02,2.7,0.1,-0.0,780,60,,,,,,,,,,,,,,,,,,,
17789,1480726084373,,,,,,,,0.02,0.1,1.02,2.8,0.2,-0.1,760,52,,,,,,,,,,,,,,,,,,,
17809,1480726084394,,,,,,,,0.02,0.1,1.02,2.7,0.2,-0.0,760,52,,,,,,,,,,,,,,,,,,,
17829,1480726084414,,,,,,,,0.03,0.11,1.01,2.7,0.2,0.0,760,56,,,,,,,,,,,,,,,,,,,
17849,1480726084434,0,64.2,,83.6,48,79.3,,0.03,0.11,1.02,2.7,0.2,0.0,760,60,1,0,13.0,0,38.159111,-122.45443,1.07,0.002,40.7,10,2,1.5,0,0.0,-1,0.0,0.0,0.0,0
17869,1480726084454,,,,,,,,0.02,0.1,1.02,2.8,0.2,-0.1,780,58,,,,,,,,,,,,,,,,,,,
17889,1480726084474,,,,,,,,0.02,0.1,1.01,2.8,0.3,-0.1,780,58,,,,,,,,,,,,,,,,,,,
17909,1480726084493,,,,,,,,0.02,0.1,1.01,2.8,0.2,-0.0,780,56,,,,,,,,,,,,,,,,,,,
17929,1480726084513,,,,,,,,0.02,0.1,1.01,2.8,0.2,0.0,800,55,,,,,,,,,,,,,,,,,,,
17949,1480726084533,,,,,49,,,0.02,0.1,1.02,2.8,0.1,-0.0,780,56,1,0,13.448,0,38.159111,-122.45443,1.02,0.002,40.8,10,2,1.5,0,0.0,-1,0.0,,0.0,0
17969,1480726084553,,,,,,,,0.01,0.1,1.01,2.8,0.1,-0.1,800,56,,,,,,,,,,,,,,,,,,,
17989,1480726084573,,,,,,,,0.01,0.09,1.01,2.9,0.2,-0.1,800,56,,,,,,,,,,,,,,,,,,,
18009,1480726084693,,,,,,,,0.02,0.09,1.01,2.9,0.1,0.0,800,55,,,,,,,,,,,,,,,,,,,
18029,1480726084713,,,,,,,,0.02,0.1,1.01,2.8,0.2,0.1,820,55,,,,,,,,,,,,,,,,,,,
18049,1480726084733,0,65.4,0.0,86.2,49,81.7,14.89,0.02,0.11,1.01,2.8,0.1,0.1,840,55,1,0,14.286,0,38.159107,-122.45443,0.99,0.002,40.7,10,2,1.5,0,0.0,-1,0.0,0.0,0.0,0
18069,1480726084753,,,,,,,,0.02,0.11,1.02,2.9,0.1,0.0,840,55,,,,,,,,,,,,,,,,,,,
18089,1480726084773,,,,,,,,0.01,0.11,1.02,2.9,0.1,-0.0,840,55,,,,,,,,,,,,,,,,,,,
18109,1480726084793,,,,,,,,0.02,0.1,1.01,2.9,0.3,-0.0,840,55,,,,,,,,,,,,,,,,,,,
18129,1480726084813,,,,,,,,0.03,0.1,1.01,2.9,0.1,0.0,840,58,,,,,,,,,,,,,,,,,,,
18149,1480726084833,,,,,50,,,0.03,0.11,1.0,2.9,0.2,0.0,840,55,1,0,15.273,0,38.159107,-122.45443,0.99,0.002,40.7,10,2,1.5,0,0.0,-1,0.0,,0.0,0
18169,1480726084853,,,,,,,,0.03,0.11,1.01,2.9,0.4,0.1,840,55,,,,,,,,,,,,,,,,,,,
18189,1480726084873,,,,,,,,0.03,0.11,1.01,2.9,0.2,-0.0,860,55,,,,,,,,,,,,,,,,,,,
18209,1480726084793,,,,,,,,0.02,0.11,1.01,3.0,0.2,-0.1,860,56,,,,,,,,,,,,,,,,,,,
18229,1480726084813,,,,,,,,0.02,0.11,1.01,3.0,0.3,-0.2,840,55,,,,,,,,,,,,,,,,,,,
18249,1480726084833,1,68.0,,86.3,50,79.1,,0.02,0.1,1.01,3.0,0.3,-0.2,840,53,1,0,15.636,0,38.159107,-122.45443,1.08,0.002,40.7,10,2,1.5,0,0.0,-1,0.0,0.0,0.0,0
18269,1480726084853,,,,,,,,0.02,0.1,1.01,3.0,0.3,-0.1,840,53,,,,,,,,,,,,,,,,,,,
18289,1480726084873,,,,,,,,0.02,0.1,1.0,3.0,0.3,0.0,840,55,,,,,,,,,,,,,,,,,,,
18309,1480726084893,,,,,,,,0.03,0.11,1.01,3.0,0.3,0.1,840,56,,,,,,,,,,,,,,,,,,,
18329,1480726084907,,,,,,,,0.02,0.11,1.01,3.0,0.1,0.1,840,56,,,,,,,,,,,,,,,,,,,
18349,1480726084927,,,,,50,,,0.02,0.11,1.01,3.0,0.2,0.0,840,53,1,0,15.273,0,38.159107,-122.45443,1.01,0.002,40.7,10,2,1.5,0,0.0,-1,0.0,,0.0,0
18369,1480726084947,,,,,,,,0.02,0.1,1.01,3.0,0.2,-0.1,820,52,,,,,,,,,,,,,,,,,,,
18389,1480726084967,,,,,,,,0.02,0.11,1.01,3.0,0.2,-0.0,820,58,,,,,,,,,,,,,,,,,,,
18409,1480726084994,,,,,,,,0.02,0.11,1.01,3.0,0.1,-0.0,820,58,,,,,,,,,,,,,,,,,,,
18429,1480726085014,,,,,,,,0.02,0.12,1.01,3.0,0.1,0.0,800,56,,,,,,,,,,,,,,,,,,,
18449,1480726085034,0,67.2,,87.5,49,82.6,,0.02,0.11,1.01,3.0,0.1,-0.0,800,50,1,0,15.769,0,38.159107,-122.45443,1.08,0.002,40.7,10,2,1.5,0,0.0,-1,0.0,0.0,0.0,0
18469,1480726085054,,,,,,,,0.02,0.11,1.01,3.0,0.0,-0.1,800,55,,,,,,,,,,,,,,,,,,,
18489,1480726085074,,,,,,,,0.02,0.11,1.01,3.0,0.2,-0.1,800,55,,,,,,,,,,,,,,,,,,,
18509,1480726085095,,,,,,,,0.02,0.1,1.01,3.0,0.2,-0.1,820,56,,,,,,,,,,,,,,,,,,,
18529,1480726085115,,,,,,,,0.03,0.11,1.01,2.9,0.2,-0.0,800,53,,,,,,,,,,,,,,,,,,,
18549,1480726085135,,,,,49,,,0.03,0.11,1.01,2.9,0.1,-0.1,800,53,1,0,14.545,0,38.159107,-122.45443,1.0,0.002,40.8,10,2,1.5,0,0.0,-1,0.0,,0.0,0
18569,1480726085155,,,,,,,,0.02,0.11,1.01,2.9,0.0,-0.1,800,52,,,,,,,,,,,,,,,,,,,
18589,1480726085175,,,,,,,,0.02,0.1,1.0,2.9,0.1,-0.1,800,56,,,,,,,,,,,,,,,,,,,
18609,1480726085194,,,,,,,,0.03,0.1,1.0,2.9,0.2,-0.0,800,56,,,,,,,,,,,,,,,,,,,
18629,1480726085214,,,,,,,,0.03,0.11,1.0,2.9,0.2,0.1,800,56,,,,,,,,,,,,,,,,,,,
18649,1480726085234,0,64.5,,83.5,47,81.1,,0.03,0.11,1.0,2.9,0.2,0.1,800,50,1,0,14.286,0,38.159107,-122.45443,0.99,0.002,40.9,10,2,1.5,0,0.0,-1,0.0,0.0,0.0,0
18669,1480726085254,,,,,,,,0.02,0.11,1.01,3.0,0.1,-0.0,800,53,,,,,,,,,,,,,,,,,,,
18689,1480726085274,,,,,,,,0.02,0.11,1.01,3.0,0.1,-0.1,800,58,,,,,,,,,,,,,,,,,,,
18709,1480726085293,,,,,,,,0.02,0.11,1.0,3.0,0.2,-0.0,800,58,,,,,,,,,,,,,,,,,,,
18729,1480726085313,,,,,,,,0.03,0.11,1.0,2.9,0.2,0.1,800,53,,,,,,,,,,,,,,,,,,,
18749,1480726085333,,,,,48,,,0.03,0.12,1.01,2.9,0.3,0.1,800,50,1,0,15.094,0,38.159107,-122.45443,1.09,0.002,41.1,10,2,1.5,0,0.0,-1,0.0,,0.0,0
18769,1480726085353,,,,,,,,0.02,0.12,1.02,2.9,0.2,0.0,800,50,,,,,,,,,,,,,,,,,,,
18789,1480726085373,,,,,,,,0.02,0.11,1.02,2.9,0.2,-0.1,820,56,,,,,,,,,,,,,,,,,,,
18809,1480726085493,,,,,,,,0.02,0.11,1.01,2.9,0.2,-0.1,820,56,,,,,,,,,,,,,,,,,,,
18829,1480726085513,,,,,,,,0.02,0.1,1.01,2.8,0.1,-0.0,800,56,,,,,,,,,,,,,,,,,,,
18849,1480726085533,0,67.4,,85.6,47,79.7,,0.02,0.11,1.0,2.8,0.3,-0.0,800,52,1,0,14.286,0,38.159103,-122.45443,1.08,0.002,41.4,10,2,1.5,0,0.0,-1,0.0,0.0,0.0,0
18869,1480726085553,,,,,,,,0.03,0.11,1.01,2.8,0.2,-0.1,800,52,,,,,,,,,,,,,,,,,,,
18889,1480726085573,,,,,,,,0.02,0.11,1.01,2.8,0.2,-0.1,800,58,,,,,,,,,,,,,,,,,,,
18909,1480726085593,,,,,,,,0.02,0.11,1.0,2.8,0.2,-0.2,800,58,,,,,,,,,,,,,,,,,,,
18929,1480726085613,,,,,,,,0.02,0.11,1.0,2.8,0.2,-0.1,800,56,,,,,,,,,,,,,,,,,,,
18949,1480726085633,,,,,46,,,0.03,0.12,1.0,2.8,0.2,0.0,800,50,1,0,15.385,0,38.159103,-122.45443,1.08,0.002,41.4,10,2,1.5,0,0.0,-1,0.0,,0.0,0
18969,1480726085653,,,,,,,,0.03,0.12,1.0,2.8,0.2,-0.0,800,56,,,,,,,,,,,,,,,,,,,
18989,1480726085673,,,,,,,,0.02,0.12,1.01,2.8,0.1,-0.1,800,56,,,,,,,,,,,,,,,,,,,
19009,1480726085594,,,,,,,,0.02,0.11,1.01,2.8,0.1,-0.2,800,60,,,,,,,,,,,,,,,,,,,
19029,1480726085614,,,,,,,,0.02,0.11,1.01,2.8,0.1,-0.1,800,53,,,,,,,,,,,,,,,,,,,
19049,1480726085634,0,66.7,0.0,84.4,45,80.5,14.93,0.03,0.11,1.0,2.8,0.1,-0.0,800,53,1,0,14.286,0,38.159103,-122.45443,1.09,0.002,41.5,10,2,1.5,0,0.0,-1,0.0,0.0,0.0,0
19069,1480726085654,,,,,,,,0.03,0.12,1.0,2.8,0.1,0.0,800,52,,,,,,,,,,,,,,,,,,,
19089,1480726085674,,,,,,,,0.03,0.12,1.01,2.8,0.1,-0.1,800,55,,,,,,,,,,,,,,,,,,,
19109,1480726085693,,,,,,,,0.02,0.11,1.01,2.9,0.1,-0.1,780,56,,,,,,,,,,,,,,,,,,,
19129,1480726085713,,,,,,,,0.03,0.11,1.01,2.8,0.1,-0.1,780,56,,,,,,,,,,,,,,,,,,,
19149,1480726085733,,,,,49,,,0.03,0.12,1.0,2.8,0.1,0.0,760,53,1,0,14.545,0,38.159103,-122.45443,1.0,0.002,41.6,10,2,1.5,0,0.0,-1,0.0,,0.0,0
19169,1480726085753,,,,,,,,0.03,0.13,1.0,2.8,0.1,0.0,760,53,,,,,,,,,,,,,,,,,,,
19189,1480726085773,,,,,,,,0.03,0.12,1.01,2.9,-0.0,-0.0,780,60,,,,,,,,,,,,,,,,,,,
19209,1480726085794,,,,,,,,0.02,0.11,1.0,2.9,0.1,-0.1,780,60,,,,,,,,,,,,,,,,,,,
19229,1480726085814,,,,,,,,0.03,0.11,1.0,2.9,0.1,-0.0,780,56,,,,,,,,,,,,,,,,,,,
19249,1480726085834,0,67.6,,86.6,47,80.2,,0.03,0.12,1.0,2.8,0.1,0.1,780,52,1,0,14.34,0,38.159103,-122.45443,1.19,0.002,42.0,10,2,1.5,0,0.0,-1,0.0,0.0,0.0,0
19269,1480726085854,,,,,,,,0.03,0.11,1.01,2.9,0.2,-0.0,760,58,,,,,,,,,,,,,,,,,,,
19289,1480726085874,,,,,,,,0.03,0.11,1.01,2.9,0.1,-0.1,740,58,,,,,,,,,,,,,,,,,,,
19309,1480726085894,,,,,,,,0.03,0.1,1.01,3.0,0.2,-0.1,740,63,,,,,,,,,,,,,,,,,,,
19329,1480726085906,,,,,,,,0.04,0.1,1.01,3.0,0.3,0.1,760,55,,,,,,,,,,,,,,,,,,,
19349,1480726085926,,,,,49,,,0.04,0.1,1.0,3.0,0.3,0.1,760,55,1,0,13.103,0,38.159103,-122.45443,1.11,0.002,42.2,10,2,1.5,0,0.0,-1,0.0,,0.0,0
19369,1480726085946,,,,,,,,0.04,0.1,1.01,3.1,0.1,0.0,760,55,,,,,,,,,,,,,,,,,,,
19389,1480726085966,,,,,,,,0.03,0.1,1.0,3.1,0.2,-0.0,760,61,,,,,,,,,,,,,,,,,,,
19409,1480726085994,,,,,,,,0.04,0.1,1.0,3.1,0.2,0.0,760,61,,,,,,,,,,,,,,,,,,,
19429,1480726086014,,,,,,,,0.04,0.11,1.0,3.1,0.0,0.1,740,56,,,,,,,,,,,,,,,,,,,
19449,1480726086034,0,67.7,,87.3,58,82.4,,0.04,0.1,1.0,3.2,-0.0,-0.1,740,56,1,0,12.459,0,38.159103,-122.45443,1.32,0.002,42.4,10,2,1.5,0,0.0,-1,0.0,0.0,0.0,0
19469,1480726086054,,,,,,,,0.03,0.09,1.0,3.2,-0.0,-0.1,740,56,,,,,,,,,,,,,,,,,,,
19489,1480726086074,,,,,,,,0.03,0.1,1.0,3.2,-0.0,-0.0,740,60,,,,,,,,,,,,,,,,,,,
19509,1480726086093,,,,,,,,0.04,0.1,1.0,3.2,0.1,0.0,760,63,,,,,,,,,,,,,,,,,,,
19529,1480726086113,,,,,,,,0.04,0.1,1.01,3.2,0.1,-0.0,760,60,,,,,,,,,,,,,,,,,,,
19549,1480726086133,,,,,64,,,0.03,0.09,1.01,3.3,0.1,-0.1,760,60,1,0,12.333,0,38.159103,-122.45443,1.1,0.002,42.4,10,2,1.5,0,0.0,-1,0.0,,0.0,0
19569,1480726086153,,,,,,,,0.03,0.09,1.01,3.3,0.2,-0.1,760,55,,,,,,,,,,,,,,,,,,,
19589,1480726086173,,,,,,,,0.04,0.1,1.0,3.3,0.3,-0.0,760,61,,,,,,,,,,,,,,,,,,,
19609,1480726086293,,,,,,,,0.04,0.1,1.01,3.3,0.3,-0.1,740,66,,,,,,,,,,,,,,,,,,,
19629,1480726086313,,,,,,,,0.03,0.09,1.02,3.4,0.1,-0.2,740,61,,,,,,,,,,,,,,,,,,,
19649,1480726086333,0,67.7,,86.4,65,79.7,,0.03,0.09,1.01,3.5,0.2,-0.1,740,58,1,0,12.459,0,38.1591,-122.45443,1.15,0.002,42.3,10,2,1.5,0,0.0,-1,0.0,0.0,0.0,0
19669,1480726086353,,,,,,,,0.04,0.1,1.01,3.5,0.2,0.0,780,58,,,,,,,,,,,,,,,,,,,
19689,1480726086373,,,,,,,,0.04,0.11,1.01,3.5,0.0,0.0,760,63,,,,,,,,,,,,,,,,,,,
19709,1480726086393,,,,,,,,0.03,0.1,1.02,3.5,-0.0,-0.1,780,64,,,,,,,,,,,,,,,,,,,
19729,1480726086413,,,,,,,,0.03,0.1,1.02,3.6,0.0,-0.1,780,64,,,,,,,,,,,,,,,,,,,
19749,1480726086433,,,,,62,,,0.03,0.1,1.02,3.5,0.1,0.0,760,63,1,0,12.063,0,38.1591,-122.45443,1.15,0.002,42.3,10,2,1.5,0,0.0,-1,0.0,,0.0,0
19769,1480726086453,,,,,,,,0.04,0.11,1.01,3.5,0.1,0.0,760,60,,,,,,,,,,,,,,,,,,,
19789,1480726086473,,,,,,,,0.03,0.11,1.02,3.6,0.2,-0.1,760,60,,,,,,,,,,,,,,,,,,,
19809,1480726086394,,,,,,,,0.03,0.11,1.02,3.6,0.1,-0.2,780,61,,,,,,,,,,,,,,,,,,,
19829,1480726086414,,,,,,,,0.03,0.11,1.02,3.6,0.2,-0.1,780,67,,,,,,,,,,,,,,,,,,,
19849,1480726086434,0,66.5,,87.5,63,83.1,,0.04,0.11,1.01,3.6,0.3,-0.0,760,66,1,0,12.667,0,38.1591,-122.45443,1.02,0.002,42.3,10,2,1.5,0,0.0,-1,0.0,0.0,0.0,0
19869,1480726086454,,,,,,,,0.04,0.11,1.02,3.7,0.2,-0.1,780,61,,,,,,,,,,,,,,,,,,,
19889,1480726086474,,,,,,,,0.03,0.1,1.02,3.8,0.1,-0.2,760,63,,,,,,,,,,,,,,,,,,,
19909,1480726086493,,,,,,,,0.03,0.1,1.01,3.8,0.2,-0.2,760,63,,,,,,,,,,,,,,,,,,,
19929,1480726086513,,,,,,,,0.04,0.1,1.01,3.8,0.2,-0.2,760,66,,,,,,,,,,,,,,,,,,,
19949,1480726086533,,,,,69,,,0.04,0.1,1.01,3.8,0.1,-0.1,760,66,1,0,12.787,0,38.1591,-122.45443,1.23,0.002,42.3,10,2,1.5,0,0.0,-1,0.0,,0.0,0
19969,1480726086553,,,,,,,,0.03,0.1,1.02,3.9,0.2,-0.2,780,64,,,,,,,,,,,,,,,,,,,
19989,1480726086573,,,,,,,,0.03,0.1,1.01,3.9,0.2,-0.3,780,64,,,,,,,,,,,,,,,,,,,
20009,1480726086594,,,,,,,,0.03,0.11,1.01,3.9,0.2,-0.2,780,64,,,,,,,,,,,,,,,,,,,
20029,1480726086614,,,,,,,,0.04,0.11,1.0,3.9,0.1,-0.1,780,66,,,,,,,,,,,,,,,,,,,
20049,1480726086634,0,67.0,0.0,87.5,67,82.9,14.92,0.04,0.11,1.01,3.9,0.1,-0.1,760,69,1,0,12.188,0,38.1591,-122.45443,1.35,0.002,42.5,10,2,1.5,0,0.0,-1,0.0,0.0,0.0,0
20069,1480726086654,,,,,,,,0.03,0.11,1.01,4.0,0.0,-0.2,760,69,,,,,,,,,,,,,,,,,,,
20089,1480726086674,,,,,,,,0.03,0.1,1.01,4.0,0.1,-0.2,760,67,,,,,,,,,,,,,,,,,,,
20109,1480726086694,,,,,,,,0.04,0.1,1.01,4.0,0.1,-0.1,760,64,,,,,,,,,,,,,,,,,,,
20129,1480726086714,,,,,,,,0.04,0.11,1.01,4.1,0.2,-0.0,760,66,,,,,,,,,,,,,,,,,,,
20149,1480726086734,,,,,66,,,0.04,0.11,1.02,4.1,0.1,-0.1,780,69,1,0,11.343,0,38.1591,-122.45443,1.33,0.002,42.7,10,2,1.5,0,0.0,-1,0.0,,0.0,0
20169,1480726086754,,,,,,,,0.03,0.1,1.02,4.2,0.1,-0.2,780,69,,,,,,,,,,,,,,,,,,,
20189,1480726086774,,,,,,,,0.04,0.1,1.02,4.2,0.2,-0.2,780,69,,,,,,,,,,,,,,,,,,,
20209,1480726086795,,,,,,,,0.04,0.11,1.01,4.2,0.3,-0.2,760,69,,,,,,,,,,,,,,,,,,,
20229,1480726086815,,,,,,,,0.04,0.11,1.01,4.3,0.2,-0.2,740,67,,,,,,,,,,,,,,,,,,,
20249,1480726086835,0,64.5,,84.7,66,82.0,,0.04,0.1,1.02,4.3,0.1,-0.3,760,67,1,0,11.304,0,38.1591,-122.45443,1.24,0.002,42.8,10,2,1.5,0,0.0,-1,0.0,0.0,0.0,0
20269,1480726086855,,,,,,,,0.04,0.1,1.01,4.3,0.2,-0.2,760,67,,,,,,,,,,,,,,,,,,,
20289,1480726086875,,,,,,,,0.04,0.1,1.01,4.3,0.2,-0.1,760,72,,,,,,,,,,,,,,,,,,,
20309,1480726086895,,,,,,,,0.04,0.1,1.0,4.4,0.1,-0.1,760,73,,,,,,,,,,,,,,,,,,,
20329,1480726086908,,,,,,,,0.04,0.1,1.01,4.4,-0.0,-0.1,760,69,,,,,,,,,,,,,,,,,,,
20349,1480726086928,,,,,65,,,0.03,0.09,1.01,4.4,-0.0,-0.2,760,67,1,0,10.556,0,38.1591,-122.45443,1.45,0.002,43.0,10,2,1.5,0,0.0,-1,0.0,,0.0,0
20369,1480726086948,,,,,,,,0.04,0.1,1.01,4.4,0.0,-0.1,740,70,,,,,,,,,,,,,,,,,,,
20389,1480726086968,,,,,,,,0.04,0.1,1.0,4.5,0.2,0.0,760,72,,,,,,,,,,,,,,,,,,,
20409,1480726087094,,,,,,,,0.04,0.1,1.01,4.5,0.2,-0.2,760,70,,,,,,,,,,,,,,,,,,,
20429,1480726087114,,,,,,,,0.03,0.1,1.01,4.6,0.2,-0.3,760,70,,,,,,,,,,,,,,,,,,,
20449,1480726087134,0,67.4,,87.5,67,82.7,,0.04,0.1,1.01,4.6,0.3,-0.2,760,72,1,0,10.556,0,38.1591,-122.45443,1.43,0.002,43.2,10,3,1.5,0,0.0,-1,0.0,0.0,0.0,0
20469,1480726087154,,,,,,,,0.04,0.1,1.0,4.6,0.4,-0.1,780,70,,,,,,,,,,,,,,,,,,,
20489,1480726087174,,,,,,,,0.04,0.11,1.01,4.6,0.3,-0.1,780,70,,,,,,,,,,,,,,,,,,,
20509,1480726087194,,,,,,,,0.03,0.1,1.01,4.7,0.1,-0.2,760,73,,,,,,,,,,,,,,,,,,,
20529,1480726087214,,,,,,,,0.03,0.1,1.01,4.7,0.2,-0.1,760,75,,,,,,,,,,,,,,,,,,,
20549,1480726087234,,,,,65,,,0.04,0.1,1.0,4.7,0.2,-0.0,760,72,1,0,11.143,0,38.1591,-122.45443,1.43,0.002,43.2,10,3,1.5,0,0.0,-1,0.0,,0.0,0
20569,1480726087254,,,,,,,,0.04,0.11,1.0,4.7,0.1,0.0,760,72,,,,,,,,,,,,,,,,,,,
20589,1480726087274,,,,,,,,0.03,0.1,1.01,4.8,0.1,-0.1,760,73,,,,,,,,,,,,,,,,,,,
20609,1480726087195,,,,,,,,0.03,0.1,1.01,4.8,0.1,-0.2,760,75,,,,,,,,,,,,,,,,,,,
20629,1480726087215,,,,,,,,0.03,0.1,1.01,4.8,0.2,-0.0,760,73,,,,,,,,,,,,,,,,,,,
20649,1480726087235,0,65.1,,86.1,66,83.1,,0.04,0.11,1.0,4.8,0.2,0.0,780,75,1,0,10.556,0,38.1591,-122.45443,1.33,0.002,43.4,10,3,1.5,0,0.0,-1,0.0,0.0,0.0,0
20669,1480726087255,,,,,,,,0.04,0.11,1.01,4.8,0.3,0.0,740,75,,,,,,,,,,,,,,,,,,,
20689,1480726087275,,,,,,,,0.03,0.1,1.01,4.9,0.2,-0.1,760,75,,,,,,,,,,,,,,,,,,,
20709,1480726087295,,,,,,,,0.03,0.1,1.01,4.9,0.3,-0.1,760,73,,,,,,,,,,,,,,,,,,,
20729,1480726087315,,,,,,,,0.04,0.11,1.0,4.9,0.3,0.0,760,70,,,,,,,,,,,,,,,,,,,
20749,1480726087335,,,,,66,,,0.04,0.11,1.0,4.9,0.3,0.1,760,73,1,0,9.867,0,38.1591,-122.45443,1.37,0.002,43.7,10,3,1.5,0,0.0,-1,0.0,,0.0,0
20769,1480726087355,,,,,,,,0.03,0.11,1.01,4.9,0.1,-0.0,780,76,,,,,,,,,,,,,,,,,,,
20789,1480726087375,,,,,,,,0.03,0.11,1.01,5.0,0.1,-0.0,780,75,,,,,,,,,,,,,,,,,,,
20809,1480726087395,,,,,,,,0.04,0.12,1.0,4.9,0.2,0.1,780,72,,,,,,,,,,,,,,,,,,,
20829,1480726087415,,,,,,,,0.04,0.12,1.0,4.9,0.2,0.1,740,73,,,,,,,,,,,,,,,,,,,
20849,1480726087435,0,64.2,,84.9,67,82.3,,0.04,0.12,1.01,5.0,0.2,0.0,760,75,1,0,10.4,0,38.1591,-122.45443,1.41,0.002,44.0,10,3,1.5,0,0.0,-1,0.0,0.0,0.0,0
20869,1480726087455,,,,,,,,0.03,0.11,1.01,5.0,0.2,-0.1,760,75,,,,,,,,,,,,,,,,,,,
20889,1480726087475,,,,,,,,0.04,0.1,1.01,5.0,0.3,-0.1,760,75,,,,,,,,,,,,,,,,,,,
20909,1480726087495,,,,,,,,0.04,0.11,1.0,5.0,0.2,0.1,760,76,,,,,,,,,,,,,,,,,,,
20929,1480726087515,,,,,,,,0.04,0.11,1.0,5.0,0.2,0.1,760,76,,,,,,,,,,,,,,,,,,,
20949,1480726087535,,,,,66,,,0.03,0.1,1.01,5.0,0.0,0.0,780,75,1,0,10.133,0,38.159096,-122.45443,1.44,0.003,44.2,10,3,1.5,0,0.0,-1,0.0,,0.0,0
20969,1480726087555,,,,,,,,0.03,0.1,1.01,5.1,0.2,-0.0,780,75,,,,,,,,,,,,,,,,,,,
20989,1480726087575,,,,,,,,0.03,0.1,1.01,5.1,0.1,0.1,740,76,,,,,,,,,,,,,,,,,,,
21009,1480726087595,,,,,,,,0.03,0.1,1.01,5.1,0.2,0.1,760,78,,,,,,,,,,,,,,,,,,,
21029,1480726087615,,,,,,,,0.03,0.1,1.01,5.1,0.2,0.0,760,75,,,,,,,,,,,,,,,,,,,
21049,1480726087635,0,65.8,0.0,86.8,66,83.1,14.77,0.03,0.1,1.01,5.2,0.2,-0.1,760,75,1,0,9.737,0,38.159096,-122.45443,1.37,0.003,44.4,10,3,1.5,0,0.0,-1,0.0,0.0,0.0,0
21069,1480726087655,,,,,,,,0.03,0.1,1.01,5.2,0.3,0.0,760,76,,,,,,,,,,,,,,,,,,,
21089,1480726087675,,,,,,,,0.04,0.11,1.0,5.2,0.3,0.1,760,76,,,,,,,,,,,,,,,,,,,
21109,1480726087695,,,,,,,,0.04,0.11,1.01,5.2,0.3,0.1,780,75,,,,,,,,,,,,,,,,,,,
21129,1480726087715,,,,,,,,0.03,0.1,1.01,5.2,0.2,-0.0,740,76,,,,,,,,,,,,,,,,,,,
21149,1480726087735,,,,,66,,,0.03,0.1,1.0,5.2,0.3,0.0,740,80,1,0,10.0,0,38.159096,-122.45443,1.6,0.003,44.6,10,3,1.5,0,0.0,-1,0.0,,0.0,0
21169,1480726087755,,,,,,,,0.03,0.1,1.0,5.2,0.2,0.1,760,80,,,,,,,,,,,,,,,,,,,
21189,1480726087775,,,,,,,,0.04,0.1,1.0,5.3,0.1,0.2,760,75,,,,,,,,,,,,,,,,,,,
21209,1480726087892,,,,,,,,0.03,0.1,1.0,5.3,0.0,0.0,760,75,,,,,,,,,,,,,,,,,,,
21229,1480726087912,,,,,,,,0.03,0.1,1.0,5.4,-0.1,-0.1,760,78,,,,,,,,,,,,,,,,,,,
21249,1480726087932,0,65.1,,86.3,67,83.2,,0.04,0.11,1.0,5.4,0.0,0.0,780,80,1,0,10.133,0,38.159096,-122.45443,1.59,0.003,44.6,10,3,1.5,0,0.0,-1,0.0,0.0,0.0,0
21269,1480726087952,,,,,,,,0.04,0.12,1.0,5.3,0.1,0.1,780,78,,,,,,,,,,,,,,,,,,,
21289,1480726087972,,,,,,,,0.04,0.11,1.0,5.4,0.1,0.1,760,80,,,,,,,,,,,,,,,,,,,
21309,1480726087992,,,,,,,,0.04,0.11,1.01,5.4,0.1,0.0,760,78,,,,,,,,,,,,,,,,,,,
21329,1480726088012,,,,,,,,0.04,0.1,1.01,5.4,0.3,0.0,760,76,,,,,,,,,,,,,,,,,,,
21349,1480726088032,,,,,65,,,0.04,0.1,1.0,5.4,0.3,0.1,760,78,1,0,10.0,0,38.159096,-122.45443,1.59,0.003,44.6,10,3,1.5,0,0.0,-1,0.0,,0.0,0
21369,1480726088052,,,,,,,,0.04,0.11,1.0,5.4,0.4,0.1,760,83,,,,,,,,,,,,,,,,,,,
21389,1480726088072,,,,,,,,0.04,0.11,1.01,5.4,0.2,-0.0,760,81,,,,,,,,,,,,,,,,,,,
21409,1480726088092,,,,,,,,0.03,0.11,1.0,5.5,0.2,-0.1,760,80,,,,,,,,,,,,,,,,,,,
21429,1480726088007,,,,,,,,0.04,0.11,1.0,5.5,0.3,0.0,780,76,,,,,,,,,,,,,,,,,,,
21449,1480726088027,0,67.4,,87.8,65,82.7,,0.04,0.12,1.0,5.5,0.2,0.1,740,75,1,0,9.157,0,38.159092,-122.45443,1.72,0.003,44.6,10,3,1.5,0,0.0,-1,0.0,0.0,0.0,0
21469,1480726088047,,,,,,,,0.04,0.11,1.01,5.5,0.2,0.0,760,72,,,,,,,,,,,,,,,,,,,
21489,1480726088067,,,,,,,,0.03,0.11,1.01,5.6,0.2,-0.1,760,66,,,,,,,,,,,,,,,,,,,
21509,1480726088094,,,,,,,,0.03,0.11,1.01,5.6,0.4,-0.1,760,66,,,,,,,,,,,,,,,,,,,
21529,1480726088114,,,,,,,,0.03,0.11,1.0,5.6,0.3,-0.0,780,66,,,,,,,,,,,,,,,,,,,
21549,1480726088134,,,,,67,,,0.03,0.11,1.01,5.6,0.3,-0.0,780,66,1,0,10.556,0,38.159092,-122.45443,1.64,0.003,44.6,10,3,1.5,0,0.0,-1,0.0,,0.0,0
21569,1480726088154,,,,,,,,0.02,0.11,1.01,5.6,0.2,-0.2,820,60,,,,,,,,,,,,,,,,,,,
21589,1480726088174,,,,,,,,0.02,0.11,1.0,5.6,0.2,-0.2,780,60,,,,,,,,,,,,,,,,,,,
21609,1480726088195,,,,,,,,0.02,0.11,1.0,5.5,0.1,-0.1,780,55,,,,,,,,,,,,,,,,,,,
21629,1480726088215,,,,,,,,0.01,0.12,1.0,5.5,0.2,-0.0,800,52,,,,,,,,,,,,,,,,,,,
21649,1480726088235,0,65.1,,86.2,69,83.3,,0.02,0.12,1.0,5.4,0.1,-0.0,800,52,1,0,13.667,0,38.159092,-122.45443,1.5,0.003,44.5,10,3,1.5,0,0.0,-1,0.0,0.0,0.0,0
21669,1480726088255,,,,,,,,0.01,0.12,1.01,5.4,0.1,-0.1,820,49,,,,,,,,,,,,,,,,,,,
21689,1480726088275,,,,,,,,0.0,0.12,1.01,5.3,0.1,-0.2,820,44,,,,,,,,,,,,,,,,,,,
21709,1480726088295,,,,,,,,0.0,0.12,1.0,5.3,0.3,-0.2,860,44,,,,,,,,,,,,,,,,,,,
21729,1480726088315,,,,,,,,0.01,0.12,1.0,5.2,0.2,-0.1,860,46,,,,,,,,,,,,,,,,,,,
21749,1480726088335,,,,,64,,,0.01,0.13,0.99,5.2,0.3,-0.0,820,60,1,0,16.735,0,38.159092,-122.45443,1.52,0.003,44.5,10,3,1.5,0,0.0,-1,0.0,,0.0,0
