"Interval"|"ms"|0|0|1,"Utc"|"ms"|0|0|1,"FuelLevel"|"F"|0|100|5,"OilTemp"|"F"|0.0|300.0|5,"CoolantPressPSI"|"PSI"|0.0|20.0|1,"Coolant"|"F"|0.0|300.0|5,"OilPress"|"PSI"|0|150|10,"EngineTemp"|"F"|0.0|300.0|5,"Battery"|"Volts"|0.0|20.0|1,"AccelX"|"G"|-3.0|3.0|50,"AccelY"|"G"|-3.0|3.0|50,"AccelZ"|"G"|-3.0|3.0|50,"Yaw"|"Deg/Sec"|-300.0|300.0|50,"Pitch"|"Deg/Sec"|-300.0|300.0|50,"Roll"|"Deg/Sec"|-300.0|300.0|50,"RPM"|""|0|10000|50,"Driveshaft"|"RPM"|0|5000|50,"GPIO1"|""|0|1|10,"GPIO2"|""|0|1|10,"GearRatio"|""|-5.0|5.0|10,"Gear"|""|-1|5|10,"Latitude"|"Degrees"|-180.0|180.0|10,"Longitude"|"Degrees"|-180.0|180.0|10,"Speed"|"MPH"|0.0|150.0|10,"Distance"|"Miles"|0.0|0.0|10,"Altitude"|"Feet"|0.0|4000.0|10,"GPSSats"|""|0|20|10,"GPSQual"|""|0|5|10,"GPSDOP"|""|0.0|20.0|10,"LapCount"|""|0|0|10,"LapTime"|"Min"|0.0|0.0|10,"Sector"|""|0|0|10,"SectorTime"|"Min"|0.0|0.0|10,"PredTime"|"Min"|0.0|0.0|5,"ElapsedTime"|"Min"|0.0|0.0|10,"CurrentLap"|""|0|0|10
24669,1480725378328,,,,,,,,-0.04,0.1,1.0,-3.1,0.1,-0.1,360,0,,,,,,,,,,,,,,,,,,,
24689,1480725378348,,,,,,,,-0.03,0.1,1.01,-3.2,0.2,0.0,300,0,,,,,,,,,,,,,,,,,,,
24709,1480725378368,,,,,,,,-0.03,0.11,1.01,-3.1,-0.0,0.2,300,0,,,,,,,,,,,,,,,,,,,
24729,1480725378388,,,,,,,,-0.03,0.11,1.0,-3.1,0.1,0.1,300,0,,,,,,,,,,,,,,,,,,,
24749,1480725378408,,,,,1,,,-0.02,0.13,1.02,-3.2,0.2,0.3,300,0,1,0,0.0,0,38.159103,-122.454414,0.0,0.0,66.2,5,2,0.1,0,0.0,-1,0.0,,0.0,0
24769,1480725378396,,,,,,,,-0.03,0.13,1.01,-3.2,0.2,0.3,260,0,,,,,,,,,,,,,,,,,,,
24789,1480725378416,,,,,,,,-0.02,0.13,1.01,-3.2,0.2,0.3,260,0,,,,,,,,,,,,,,,,,,,
24809,1480725378436,,,,,,,,-0.02,0.13,1.02,-3.1,0.2,0.2,260,0,,,,,,,,,,,,,,,,,,,
24829,1480725378456,,,,,,,,-0.02,0.13,1.01,-3.1,0.1,0.2,320,0,,,,,,,,,,,,,,,,,,,
24849,1480725378476,0,60.6,,57.5,0,63.3,,-0.02,0.12,1.01,-3.1,0.1,0.2,320,0,1,0,0.0,0,38.1591,-122.454414,0.0,0.0,72.5,5,2,0.1,0,0.0,-1,0.0,0.0,0.0,0
24869,1480725378487,,,,,,,,-0.02,0.13,1.02,-3.1,0.1,0.1,320,0,,,,,,,,,,,,,,,,,,,
24889,1480725378507,,,,,,,,-0.02,0.11,1.01,-3.2,0.1,0.0,360,0,,,,,,,,,,,,,,,,,,,
24909,1480725378527,,,,,,,,-0.02,0.12,1.01,-3.1,0.1,0.0,360,0,,,,,,,,,,,,,,,,,,,
24929,1480725378547,,,,,,,,-0.02,0.13,1.01,-3.2,0.1,0.1,360,0,,,,,,,,,,,,,,,,,,,
24949,1480725378567,,,,,2,,,-0.03,0.12,1.01,-3.1,0.1,0.1,360,0,1,0,0.0,0,38.1591,-122.454414,0.0,0.0,36.1,6,2,2.1,0,0.0,-1,0.0,,0.0,0
24969,1480725378587,,,,,,,,-0.02,0.12,1.01,-3.1,0.1,-0.0,360,0,,,,,,,,,,,,,,,,,,,
24989,1480725378597,,,,,,,,-0.02,0.12,1.02,-3.1,0.2,-0.0,360,0,,,,,,,,,,,,,,,,,,,
25009,1480725378617,,,,,,,,-0.03,0.12,1.01,-3.1,0.1,0.0,360,0,,,,,,,,,,,,,,,,,,,
25029,1480725378637,,,,,,,,-0.03,0.12,1.01,-3.1,0.2,-0.0,360,0,,,,,,,,,,,,,,,,,,,
25049,1480725378657,0,60.6,0.5,57.4,2,59.9,10.87,-0.04,0.11,1.01,-3.1,0.0,-0.1,300,0,1,0,0.0,0,38.1591,-122.454414,0.0,0.0,26.6,6,2,2.1,0,0.0,-1,0.0,0.0,0.0,0
25069,1480725378677,,,,,,,,-0.05,0.1,1.0,-3.1,-0.1,-0.2,300,0,,,,,,,,,,,,,,,,,,,
25089,1480725378697,,,,,,,,-0.04,0.1,1.0,-3.1,0.0,-0.2,300,0,,,,,,,,,,,,,,,,,,,
25109,1480725378688,,,,,,,,-0.03,0.08,1.0,-3.1,0.2,-0.2,300,0,,,,,,,,,,,,,,,,,,,
25129,1480725378708,,,,,,,,-0.03,0.07,1.0,-3.1,0.2,-0.1,260,0,,,,,,,,,,,,,,,,,,,
25149,1480725378791,,,,,2,,,-0.03,0.08,1.0,-3.1,0.2,0.0,260,0,1,0,0.0,0,38.159107,-122.454414,0.0,0.001,25.2,7,2,2.0,0,0.0,-1,0.0,,0.0,0
25169,1480725378811,,,,,,,,-0.03,0.08,1.0,-3.1,0.2,-0.0,260,0,,,,,,,,,,,,,,,,,,,
25189,1480725378831,,,,,,,,-0.03,0.09,1.0,-3.1,0.3,0.1,260,0,,,,,,,,,,,,,,,,,,,
25209,1480725378851,,,,,,,,-0.03,0.09,1.0,-3.1,0.3,0.1,260,0,,,,,,,,,,,,,,,,,,,
25229,1480725378871,,,,,,,,-0.02,0.09,1.0,-3.1,0.3,0.1,260,0,,,,,,,,,,,,,,,,,,,
25249,1480725378891,0,57.3,,53.7,2,59.6,,-0.02,0.1,1.0,-3.1,0.3,0.1,320,0,1,0,0.0,0,38.159107,-122.454414,0.0,0.001,25.1,7,2,2.0,0,0.0,-1,0.0,0.0,0.0,0
25269,1480725378911,,,,,,,,-0.03,0.09,1.01,-3.1,0.3,0.0,320,0,,,,,,,,,,,,,,,,,,,
25289,1480725378931,,,,,,,,-0.02,0.09,1.0,-3.1,0.3,0.0,320,0,,,,,,,,,,,,,,,,,,,
25309,1480725378951,,,,,,,,-0.02,0.1,1.0,-3.1,0.3,0.0,360,0,,,,,,,,,,,,,,,,,,,
25329,1480725378971,,,,,,,,-0.02,0.09,1.0,-3.1,0.3,0.0,360,0,,,,,,,,,,,,,,,,,,,
25349,1480725379090,,,,,3,,,-0.02,0.1,1.0,-3.1,0.3,-0.0,360,0,1,0,0.0,0,38.159111,-122.454414,0.0,0.001,25.0,7,2,2.0,0,0.0,-1,0.0,,0.0,0
25369,1480725379110,,,,,,,,-0.02,0.1,1.01,-3.1,0.3,-0.0,320,0,,,,,,,,,,,,,,,,,,,
25389,1480725379130,,,,,,,,-0.02,0.09,1.01,-3.1,0.2,-0.0,320,0,,,,,,,,,,,,,,,,,,,
25409,1480725379150,,,,,,,,-0.02,0.09,1.0,-3.1,0.2,0.0,320,0,,,,,,,,,,,,,,,,,,,
25429,1480725379170,,,,,,,,-0.02,0.1,1.01,-3.1,0.2,0.0,320,0,,,,,,,,,,,,,,,,,,,
25449,1480725379190,0,60.8,,57.9,3,60.5,,-0.02,0.1,1.0,-3.1,0.2,0.0,320,0,1,0,0.0,0,38.159111,-122.454414,0.0,0.001,25.0,7,2,2.0,0,0.0,-1,0.0,0.0,0.0,0
25469,1480725379210,,,,,,,,-0.02,0.1,1.0,-3.1,0.2,-0.0,320,0,,,,,,,,,,,,,,,,,,,
25489,1480725379230,,,,,,,,-0.02,0.1,1.01,-3.1,0.2,0.0,160,0,,,,,,,,,,,,,,,,,,,
25509,1480725379250,,,,,,,,-0.02,0.1,1.0,-3.1,0.2,0.0,160,0,,,,,,,,,,,,,,,,,,,
25529,1480725379270,,,,,,,,-0.02,0.1,1.0,-3.1,0.2,0.1,160,0,,,,,,,,,,,,,,,,,,,
25549,1480725379187,,,,,3,,,-0.03,0.1,1.0,-3.1,0.2,0.1,160,0,1,0,0.0,0,38.159111,-122.454414,0.0,0.001,24.7,7,2,2.0,0,0.0,-1,0.0,,0.0,0
25569,1480725379207,,,,,,,,-0.02,0.1,1.0,-3.1,0.1,0.1,160,0,,,,,,,,,,,,,,,,,,,
25589,1480725379227,,,,,,,,-0.02,0.1,1.0,-3.1,0.2,0.0,160,0,,,,,,,,,,,,,,,,,,,
25609,1480725379247,,,,,,,,-0.02,0.1,1.0,-3.1,0.2,-0.0,180,0,,,,,,,,,,,,,,,,,,,
25629,1480725379267,,,,,,,,-0.02,0.1,1.0,-3.1,0.2,-0.1,180,0,,,,,,,,,,,,,,,,,,,
25649,1480725379286,0,60.0,,57.5,3,60.2,,-0.02,0.1,1.01,-3.1,0.2,-0.1,180,0,1,0,0.0,0,38.159111,-122.454414,0.0,0.001,24.7,7,2,2.0,0,0.0,-1,0.0,0.0,0.0,0
25669,1480725379306,,,,,,,,-0.03,0.09,1.0,-3.1,0.2,-0.1,320,0,,,,,,,,,,,,,,,,,,,
25689,1480725379326,,,,,,,,-0.03,0.09,1.0,-3.1,0.2,-0.0,320,0,,,,,,,,,,,,,,,,,,,
25709,1480725379346,,,,,,,,-0.02,0.1,1.01,-3.1,0.2,0.1,400,0,,,,,,,,,,,,,,,,,,,
25729,1480725379366,,,,,,,,-0.02,0.1,1.01,-3.1,0.1,0.1,400,0,,,,,,,,,,,,,,,,,,,
25749,1480725379386,,,,,3,,,-0.02,0.1,1.01,-3.1,0.1,0.0,440,0,1,0,0.0,0,38.159111,-122.454414,0.0,0.001,24.7,7,2,2.0,0,0.0,-1,0.0,,0.0,0
25769,1480725379406,,,,,,,,-0.03,0.1,1.01,-3.1,0.1,0.0,440,0,,,,,,,,,,,,,,,,,,,
25789,1480725379426,,,,,,,,-0.03,0.1,1.01,-3.1,0.2,0.0,480,0,,,,,,,,,,,,,,,,,,,
25809,1480725379446,,,,,,,,-0.03,0.1,1.01,-3.1,0.2,-0.2,480,0,,,,,,,,,,,,,,,,,,,
25829,1480725379466,,,,,,,,-0.03,0.1,1.01,-3.1,0.2,-0.2,560,0,,,,,,,,,,,,,,,,,,,
25849,1480725379486,0,58.2,,54.4,4,60.7,,-0.03,0.09,1.01,-3.1,0.2,-0.2,560,0,1,0,0.0,0,38.159111,-122.454414,0.0,0.001,24.7,7,2,2.0,0,0.0,-1,0.0,0.0,0.0,0
25869,1480725379506,,,,,,,,-0.03,0.09,1.01,-3.1,0.2,-0.2,480,0,,,,,,,,,,,,,,,,,,,
25889,1480725379526,,,,,,,,-0.03,0.09,1.01,-3.1,0.1,-0.2,480,0,,,,,,,,,,,,,,,,,,,
25909,1480725379546,,,,,,,,-0.03,0.09,1.01,-3.1,0.1,-0.1,500,0,,,,,,,,,,,,,,,,,,,
25929,1480725379566,,,,,,,,-0.03,0.09,1.0,-3.1,0.0,-0.1,500,0,,,,,,,,,,,,,,,,,,,
25949,1480725379590,,,,,6,,,-0.03,0.09,1.0,-3.1,-0.0,-0.1,500,0,1,0,0.0,0,38.159111,-122.454414,0.0,0.001,24.7,7,2,2.0,0,0.0,-1,0.0,,0.0,0
25969,1480725379610,,,,,,,,-0.03,0.09,1.0,-3.1,-0.0,-0.1,500,0,,,,,,,,,,,,,,,,,,,
25989,1480725379630,,,,,,,,-0.04,0.1,1.0,-3.1,0.0,-0.1,480,0,,,,,,,,,,,,,,,,,,,
26009,1480725379650,,,,,,,,-0.03,0.09,1.0,-3.1,-0.0,-0.2,480,0,,,,,,,,,,,,,,,,,,,
26029,1480725379670,,,,,,,,-0.04,0.1,1.0,-3.1,0.0,-0.2,500,0,,,,,,,,,,,,,,,,,,,
26049,1480725379690,0,58.4,0.0,56.9,6,58.4,13.66,-0.03,0.09,1.0,-3.1,-0.0,-0.1,500,0,1,0,0.0,0,38.159111,-122.454414,0.0,0.001,24.7,7,2,2.0,0,0.0,-1,0.0,0.0,0.0,0
26069,1480725379700,,,,,,,,-0.04,0.1,1.0,-3.1,-0.0,-0.1,480,0,,,,,,,,,,,,,,,,,,,
26089,1480725379720,,,,,,,,-0.03,0.1,1.0,-3.1,-0.1,-0.0,480,0,,,,,,,,,,,,,,,,,,,
26109,1480725379740,,,,,,,,-0.03,0.1,1.0,-3.1,-0.1,-0.0,540,0,,,,,,,,,,,,,,,,,,,
26129,1480725379760,,,,,,,,-0.03,0.1,1.0,-3.1,-0.1,-0.0,540,0,,,,,,,,,,,,,,,,,,,
26149,1480725379889,,,,,6,,,-0.03,0.1,1.0,-3.1,0.0,-0.0,520,0,1,0,0.0,0,38.159111,-122.454414,0.0,0.001,24.7,7,3,2.0,0,0.0,-1,0.0,,0.0,0
26169,1480725379909,,,,,,,,-0.03,0.1,1.0,-3.1,-0.0,-0.0,600,0,,,,,,,,,,,,,,,,,,,
26189,1480725379929,,,,,,,,-0.03,0.1,1.0,-3.1,-0.0,-0.1,600,0,,,,,,,,,,,,,,,,,,,
26209,1480725379949,,,,,,,,-0.03,0.11,1.0,-3.1,0.0,0.0,620,0,,,,,,,,,,,,,,,,,,,
26229,1480725379969,,,,,,,,-0.03,0.11,1.01,-3.1,0.0,-0.0,640,0,,,,,,,,,,,,,,,,,,,
26249,1480725379989,0,57.2,,53.7,8,59.1,,-0.03,0.1,1.0,-3.1,0.0,-0.1,640,0,1,0,0.0,0,38.159111,-122.454414,0.0,0.001,24.7,7,3,2.0,0,0.0,-1,0.0,0.0,0.0,0
26269,1480725380009,,,,,,,,-0.02,0.11,1.01,-3.1,0.2,-0.0,660,0,,,,,,,,,,,,,,,,,,,
26289,1480725380029,,,,,,,,-0.02,0.11,1.01,-3.1,0.1,0.0,660,0,,,,,,,,,,,,,,,,,,,
26309,1480725380049,,,,,,,,-0.02,0.1,1.01,-3.0,0.0,-0.0,620,0,,,,,,,,,,,,,,,,,,,
26329,1480725380069,,,,,,,,-0.02,0.11,1.01,-3.1,0.2,0.1,680,0,,,,,,,,,,,,,,,,,,,
26349,1480725379990,,,,,9,,,-0.02,0.1,1.01,-3.1,0.1,0.0,660,0,1,0,0.0,0,38.159111,-122.454414,0.0,0.001,24.7,7,3,2.0,0,0.0,-1,0.0,,0.0,0
26369,1480725380010,,,,,,,,-0.02,0.1,1.0,-3.1,0.1,-0.0,660,0,,,,,,,,,,,,,,,,,,,
26389,1480725380030,,,,,,,,-0.01,0.1,1.01,-3.1,0.3,0.0,700,0,,,,,,,,,,,,,,,,,,,
26409,1480725380050,,,,,,,,-0.02,0.11,1.01,-3.1,0.3,0.0,720,0,,,,,,,,,,,,,,,,,,,
26429,1480725380070,,,,,,,,-0.02,0.1,1.01,-3.1,0.3,0.0,720,0,,,,,,,,,,,,,,,,,,,
26449,1480725380090,0,59.5,,53.6,11,58.7,,-0.02,0.1,1.01,-3.1,0.2,0.0,720,0,1,0,0.0,0,38.159111,-122.454414,0.0,0.001,24.7,7,3,2.0,0,0.0,-1,0.0,0.0,0.0,0
26469,1480725380110,,,,,,,,-0.02,0.11,1.01,-3.1,0.3,0.1,740,0,,,,,,,,,,,,,,,,,,,
26489,1480725380130,,,,,,,,-0.02,0.1,1.01,-3.1,0.3,0.0,740,0,,,,,,,,,,,,,,,,,,,
26509,1480725380150,,,,,,,,-0.02,0.1,1.01,-3.1,0.3,0.1,740,0,,,,,,,,,,,,,,,,,,,
26529,1480725380170,,,,,,,,-0.02,0.1,1.01,-3.1,0.3,0.0,780,0,,,,,,,,,,,,,,,,,,,
26549,1480725380187,,,,,13,,,-0.02,0.1,1.01,-3.1,0.3,0.0,780,0,1,0,0.0,0,38.159111,-122.454414,0.0,0.001,24.7,7,3,2.0,0,0.0,-1,0.0,,0.0,0
26569,1480725380207,,,,,,,,-0.02,0.1,1.01,-3.1,0.3,0.1,800,0,,,,,,,,,,,,,,,,,,,
26589,1480725380227,,,,,,,,-0.02,0.1,1.01,-3.1,0.3,0.0,820,0,,,,,,,,,,,,,,,,,,,
26609,1480725380247,,,,,,,,-0.02,0.09,1.01,-3.1,0.3,-0.0,820,0,,,,,,,,,,,,,,,,,,,
26629,1480725380267,,,,,,,,-0.02,0.1,1.01,-3.1,0.2,0.1,820,0,,,,,,,,,,,,,,,,,,,
26649,1480725380287,0,57.5,,55.6,14,60.1,,-0.02,0.1,1.0,-3.2,0.2,0.1,860,0,1,0,0.0,0,38.159111,-122.454414,0.0,0.001,24.7,7,3,2.0,0,0.0,-1,0.0,0.0,0.0,0
26669,1480725380300,,,,,,,,-0.02,0.11,1.0,-3.2,0.2,0.1,880,0,,,,,,,,,,,,,,,,,,,
26689,1480725380320,,,,,,,,-0.01,0.11,1.0,-3.2,0.3,0.1,900,0,,,,,,,,,,,,,,,,,,,
26709,1480725380340,,,,,,,,-0.02,0.1,1.01,-3.2,0.1,0.1,940,0,,,,,,,,,,,,,,,,,,,
26729,1480725380360,,,,,,,,-0.02,0.11,1.01,-3.2,-0.1,0.1,940,0,,,,,,,,,,,,,,,,,,,
26749,1480725380380,,,,,17,,,-0.03,0.11,1.01,-3.1,-0.1,0.1,960,0,1,0,0.0,0,38.159111,-122.454414,0.0,0.001,24.7,7,3,2.0,0,0.0,-1,0.0,,0.0,0
26769,1480725380406,,,,,,,,-0.03,0.11,1.01,-3.1,-0.0,-0.0,980,0,,,,,,,,,,,,,,,,,,,
26789,1480725380426,,,,,,,,-0.03,0.11,1.01,-3.1,0.1,-0.1,1000,0,,,,,,,,,,,,,,,,,,,
26809,1480725380446,,,,,,,,-0.03,0.1,1.0,-3.1,0.2,-0.2,1020,0,,,,,,,,,,,,,,,,,,,
26829,1480725380466,,,,,,,,-0.04,0.1,1.0,-3.1,0.3,-0.2,1040,0,,,,,,,,,,,,,,,,,,,
26849,1480725380486,0,58.5,,53.7,20,58.1,,-0.04,0.1,1.0,-3.1,0.3,-0.3,1040,0,1,0,0.0,0,38.159111,-122.454414,0.0,0.001,24.7,7,3,2.0,0,0.0,-1,0.0,0.0,0.0,0
26869,1480725380506,,,,,,,,-0.04,0.09,1.0,-3.1,0.3,-0.3,1060,0,,,,,,,,,,,,,,,,,,,
26889,1480725380526,,,,,,,,-0.04,0.09,0.99,-3.1,0.2,-0.3,1060,0,,,,,,,,,,,,,,,,,,,
26909,1480725380546,,,,,,,,-0.04,0.09,0.99,-3.1,0.1,-0.3,1080,0,,,,,,,,,,,,,,,,,,,
26929,1480725380566,,,,,,,,-0.04,0.1,0.99,-3.1,-0.0,-0.3,1080,0,,,,,,,,,,,,,,,,,,,
26949,1480725380586,,,,,24,,,-0.04,0.1,0.99,-3.1,0.0,-0.2,1080,0,1,0,0.0,0,38.159111,-122.454414,0.0,0.001,24.7,7,3,2.0,0,0.0,-1,0.0,,0.0,0
26969,1480725380699,,,,,,,,-0.03,0.1,1.0,-3.2,0.1,-0.2,1080,0,,,,,,,,,,,,,,,,,,,
26989,1480725380719,,,,,,,,-0.03,0.1,1.0,-3.1,0.1,-0.2,1080,0,,,,,,,,,,,,,,,,,,,
27009,1480725380739,,,,,,,,-0.03,0.1,1.0,-3.1,0.0,-0.3,1080,0,,,,,,,,,,,,,,,,,,,
27029,1480725380759,,,,,,,,-0.03,0.1,1.0,-3.1,-0.0,-0.3,1080,0,,,,,,,,,,,,,,,,,,,
27049,1480725380779,0,59.0,0.0,56.9,31,61.4,14.89,-0.03,0.1,1.0,-3.1,-0.0,-0.3,1060,0,1,0,0.0,0,38.159111,-122.454414,0.0,0.001,24.7,7,3,2.0,0,0.0,-1,0.0,0.0,0.0,0
27069,1480725380799,,,,,,,,-0.02,0.1,1.0,-3.1,-0.0,-0.2,1040,0,,,,,,,,,,,,,,,,,,,
27089,1480725380819,,,,,,,,-0.03,0.1,1.0,-3.1,0.1,-0.3,1040,0,,,,,,,,,,,,,,,,,,,
27109,1480725380839,,,,,,,,-0.03,0.1,1.0,-3.1,0.1,-0.3,1020,0,,,,,,,,,,,,,,,,,,,
27129,1480725380859,,,,,,,,-0.03,0.09,1.01,-3.1,0.2,-0.3,1020,0,,,,,,,,,,,,,,,,,,,
27149,1480725380879,,,,,43,,,-0.03,0.09,1.01,-3.0,0.3,-0.3,1020,0,1,0,0.0,0,38.159111,-122.454414,0.0,0.001,24.7,7,3,2.0,0,0.0,-1,0.0,,0.0,0
27169,1480725380810,,,,,,,,-0.04,0.09,1.01,-3.0,0.3,-0.3,1020,0,,,,,,,,,,,,,,,,,,,
27189,1480725380830,,,,,,,,-0.04,0.09,1.0,-3.0,0.2,-0.2,980,0,,,,,,,,,,,,,,,,,,,
27209,1480725380850,,,,,,,,-0.05,0.09,1.0,-3.0,0.2,-0.2,980,0,,,,,,,,,,,,,,,,,,,
27229,1480725380870,,,,,,,,-0.05,0.09,1.01,-3.1,0.2,-0.2,960,0,,,,,,,,,,,,,,,,,,,
27249,1480725380890,0,58.6,,56.9,50,61.0,,-0.05,0.1,1.0,-3.1,0.1,-0.2,960,0,1,0,0.0,0,38.159111,-122.454414,0.0,0.001,24.7,7,3,2.0,0,0.0,-1,0.0,0.0,0.0,0
27269,1480725380901,,,,,,,,-0.05,0.1,1.01,-3.1,0.2,-0.2,940,0,,,,,,,,,,,,,,,,,,,
27289,1480725380921,,,,,,,,-0.05,0.09,1.0,-3.0,0.2,-0.2,940,0,,,,,,,,,,,,,,,,,,,
27309,1480725380941,,,,,,,,-0.05,0.09,1.0,-3.0,0.2,-0.3,940,0,,,,,,,,,,,,,,,,,,,
27329,1480725380961,,,,,,,,-0.05,0.09,1.0,-3.0,0.2,-0.3,920,0,,,,,,,,,,,,,,,,,,,
27349,1480725380981,,,,,55,,,-0.05,0.08,1.0,-3.0,0.2,-0.3,920,0,1,0,0.0,0,38.159111,-122.454414,0.0,0.001,24.7,7,3,2.0,0,0.0,-1,0.0,,0.0,0
27369,1480725381010,,,,,,,,-0.05,0.07,0.99,-3.0,0.2,-0.4,920,0,,,,,,,,,,,,,,,,,,,
27389,1480725381030,,,,,,,,-0.05,0.06,0.99,-3.0,0.2,-0.4,920,0,,,,,,,,,,,,,,,,,,,
27409,1480725381050,,,,,,,,-0.05,0.05,1.0,-3.0,0.2,-0.3,920,0,,,,,,,,,,,,,,,,,,,
27429,1480725381070,,,,,,,,-0.04,0.05,1.0,-3.0,0.2,-0.2,900,0,,,,,,,,,,,,,,,,,,,
27449,1480725381090,0,57.2,,54.8,58,58.7,,-0.04,0.06,1.0,-3.0,0.3,-0.1,900,0,1,0,0.0,0,38.159111,-122.454414,0.0,0.001,24.7,7,3,2.0,0,0.0,-1,0.0,0.0,0.0,0
27469,1480725381110,,,,,,,,-0.03,0.07,1.0,-3.1,0.4,0.0,900,0,,,,,,,,,,,,,,,,,,,
27489,1480725381130,,,,,,,,-0.03,0.07,1.01,-3.1,0.3,0.1,900,0,,,,,,,,,,,,,,,,,,,
27509,1480725381150,,,,,,,,-0.03,0.08,1.01,-3.1,0.2,0.2,900,0,,,,,,,,,,,,,,,,,,,
27529,1480725381170,,,,,,,,-0.03,0.1,1.01,-3.1,0.2,0.2,900,0,,,,,,,,,,,,,,,,,,,
27549,1480725381190,,,,,60,,,-0.03,0.1,1.01,-3.1,0.2,0.1,900,0,1,0,0.0,0,38.159111,-122.454414,0.0,0.001,24.7,7,3,2.0,0,0.0,-1,0.0,,0.0,0
27569,1480725381210,,,,,,,,-0.03,0.1,1.01,-3.0,0.2,0.0,900,0,,,,,,,,,,,,,,,,,,,
27589,1480725381230,,,,,,,,-0.03,0.09,1.0,-3.0,0.1,-0.1,900,0,,,,,,,,,,,,,,,,,,,
27609,1480725381250,,,,,,,,-0.03,0.09,1.0,-3.0,0.2,-0.2,900,0,,,,,,,,,,,,,,,,,,,
27629,1480725381270,,,,,,,,-0.04,0.08,1.0,-3.0,0.2,-0.2,900,0,,,,,,,,,,,,,,,,,,,
27649,1480725381290,0,60.4,,58.4,62,62.3,,-0.03,0.08,1.0,-3.0,0.2,-0.1,920,0,1,0,0.0,0,38.159111,-122.454414,0.0,0.001,24.7,7,3,2.0,0,0.0,-1,0.0,0.0,0.0,0
27669,1480725381310,,,,,,,,-0.03,0.08,1.0,-3.1,0.2,-0.0,920,0,,,,,,,,,,,,,,,,,,,
27689,1480725381330,,,,,,,,-0.02,0.09,1.01,-3.1,0.3,0.1,920,0,,,,,,,,,,,,,,,,,,,
27709,1480725381350,,,,,,,,-0.02,0.1,1.01,-3.1,0.3,0.2,920,0,,,,,,,,,,,,,,,,,,,
27729,1480725381370,,,,,,,,-0.01,0.11,1.01,-3.1,0.2,0.4,940,0,,,,,,,,,,,,,,,,,,,
27749,1480725381390,,,,,64,,,-0.01,0.11,1.01,-3.1,0.1,0.4,940,0,1,0,0.0,0,38.159111,-122.454414,0.0,0.001,24.7,7,3,2.0,0,0.0,-1,0.0,,0.0,0
27769,1480725381506,,,,,,,,-0.01,0.12,1.02,-3.2,0.0,0.4,940,0,,,,,,,,,,,,,,,,,,,
27789,1480725381526,,,,,,,,-0.02,0.12,1.02,-3.1,0.1,0.4,960,0,,,,,,,,,,,,,,,,,,,
27809,1480725381546,,,,,,,,-0.02,0.13,1.02,-3.1,0.1,0.3,960,0,,,,,,,,,,,,,,,,,,,
27829,1480725381566,,,,,,,,-0.02,0.14,1.02,-3.1,0.1,0.3,960,0,,,,,,,,,,,,,,,,,,,
27849,1480725381586,0,60.6,,55.4,66,60.4,,-0.03,0.13,1.02,-3.1,0.1,0.1,980,0,1,0,0.0,0,38.159111,-122.454414,0.0,0.001,24.7,7,3,2.0,0,0.0,-1,0.0,0.0,0.0,0
27869,1480725381606,,,,,,,,-0.03,0.13,1.01,-3.1,0.2,0.0,980,0,,,,,,,,,,,,,,,,,,,
27889,1480725381626,,,,,,,,-0.03,0.12,1.01,-3.1,0.3,-0.1,980,0,,,,,,,,,,,,,,,,,,,
27909,1480725381646,,,,,,,,-0.03,0.12,1.0,-3.1,0.4,-0.2,1000,0,,,,,,,,,,,,,,,,,,,
27929,1480725381666,,,,,,,,-0.03,0.11,1.0,-3.1,0.4,-0.3,1000,0,,,,,,,,,,,,,,,,,,,
27949,1480725381686,,,,,64,,,-0.04,0.1,0.99,-3.0,0.4,-0.3,1000,0,1,0,0.0,0,38.159111,-122.454414,0.0,0.001,24.7,7,3,2.0,0,0.0,-1,0.0,,0.0,0
27969,1480725381606,,,,,,,,-0.04,0.09,0.99,-3.0,0.4,-0.4,1000,0,,,,,,,,,,,,,,,,,,,
27989,1480725381626,,,,,,,,-0.04,0.09,0.99,-3.0,0.4,-0.4,980,0,,,,,,,,,,,,,,,,,,,
28009,1480725381646,,,,,,,,-0.05,0.09,0.99,-3.0,0.4,-0.5,1000,0,,,,,,,,,,,,,,,,,,,
28029,1480725381666,,,,,,,,-0.05,0.08,0.99,-3.0,0.5,-0.5,1000,0,,,,,,,,,,,,,,,,,,,
28049,1480725381686,0,58.1,0.0,55.9,64,60.3,14.9,-0.05,0.08,0.99,-3.0,0.5,-0.5,1000,0,1,0,0.0,0,38.159111,-122.454414,0.0,0.001,24.7,7,3,2.0,0,0.0,-1,0.0,0.0,0.0,0
28069,1480725381706,,,,,,,,-0.05,0.08,0.99,-3.0,0.5,-0.5,1000,0,,,,,,,,,,,,,,,,,,,
28089,1480725381726,,,,,,,,-0.05,0.09,0.99,-3.0,0.5,-0.6,1020,0,,,,,,,,,,,,,,,,,,,
28109,1480725381746,,,,,,,,-0.05,0.09,0.98,-3.0,0.4,-0.5,1020,0,,,,,,,,,,,,,,,,,,,
28129,1480725381766,,,,,,,,-0.05,0.1,0.98,-3.0,0.5,-0.5,1020,0,,,,,,,,,,,,,,,,,,,
28149,1480725381786,,,,,62,,,-0.05,0.11,0.98,-3.0,0.3,-0.5,1020,0,1,0,0.0,0,38.159111,-122.454414,0.0,0.001,24.7,7,3,2.0,0,0.0,-1,0.0,,0.0,0
28169,1480725381810,,,,,,,,-0.05,0.12,0.98,-3.0,0.2,-0.5,1020,0,,,,,,,,,,,,,,,,,,,
28189,1480725381830,,,,,,,,-0.05,0.12,0.98,-3.1,0.1,-0.4,1020,0,,,,,,,,,,,,,,,,,,,
28209,1480725381850,,,,,,,,-0.05,0.13,0.98,-3.1,-0.0,-0.4,1000,0,,,,,,,,,,,,,,,,,,,
28229,1480725381870,,,,,,,,-0.04,0.13,0.98,-3.1,-0.1,-0.3,1000,0,,,,,,,,,,,,,,,,,,,
28249,1480725381890,0,59.6,,53.7,62,58.4,,-0.04,0.13,0.99,-3.1,-0.1,-0.2,1000,0,1,0,0.0,0,38.159111,-122.454414,0.0,0.001,24.7,7,3,2.0,0,0.0,-1,0.0,0.0,0.0,0
28269,1480725381899,,,,,,,,-0.03,0.13,0.99,-3.1,-0.2,-0.1,1020,0,,,,,,,,,,,,,,,,,,,
28289,1480725381919,,,,,,,,-0.03,0.13,1.0,-3.1,-0.2,-0.1,1000,0,,,,,,,,,,,,,,,,,,,
28309,1480725381939,,,,,,,,-0.02,0.14,1.0,-3.1,-0.2,-0.0,1000,0,,,,,,,,,,,,,,,,,,,
28329,1480725381959,,,,,,,,-0.02,0.14,1.0,-3.1,-0.2,0.0,1000,0,,,,,,,,,,,,,,,,,,,
28349,1480725381979,,,,,62,,,-0.01,0.14,1.0,-3.1,-0.2,0.1,1000,0,1,0,0.0,0,38.159111,-122.454414,0.0,0.001,24.7,7,3,2.0,0,0.0,-1,0.0,,0.0,0
28369,1480725382008,,,,,,,,-0.0,0.15,1.0,-3.1,-0.2,0.1,1000,0,,,,,,,,,,,,,,,,,,,
28389,1480725382028,,,,,,,,-0.0,0.15,1.01,-3.1,-0.1,0.2,1000,0,,,,,,,,,,,,,,,,,,,
28409,1480725382048,,,,,,,,0.0,0.16,1.01,-3.2,-0.1,0.2,1000,0,,,,,,,,,,,,,,,,,,,
28429,1480725382068,,,,,,,,0.0,0.16,1.01,-3.2,-0.0,0.2,1000,0,,,,,,,,,,,,,,,,,,,
28449,1480725382088,1,59.0,,53.7,61,58.5,,0.01,0.17,1.01,-3.2,-0.0,0.3,980,0,1,0,0.0,0,38.159111,-122.454414,0.0,0.001,24.7,7,3,2.0,0,0.0,-1,0.0,0.0,0.0,0
28469,1480725382108,,,,,,,,0.01,0.17,1.01,-3.2,0.0,0.4,1000,0,,,,,,,,,,,,,,,,,,,
28489,1480725382128,,,,,,,,0.01,0.17,1.02,-3.2,0.1,0.4,1000,0,,,,,,,,,,,,,,,,,,,
28509,1480725382148,,,,,,,,0.01,0.17,1.02,-3.2,0.1,0.4,1000,0,,,,,,,,,,,,,,,,,,,
28529,1480725382168,,,,,,,,0.01,0.17,1.02,-3.2,0.1,0.4,980,0,,,,,,,,,,,,,,,,,,,
28549,1480725382188,,,,,61,,,0.01,0.18,1.02,-3.2,0.2,0.5,980,0,1,0,0.0,0,38.159111,-122.454414,0.0,0.001,24.7,7,3,2.0,0,0.0,-1,0.0,,0.0,0
28569,1480725382308,,,,,,,,0.01,0.18,1.02,-3.2,0.2,0.5,980,0,,,,,,,,,,,,,,,,,,,
28589,1480725382328,,,,,,,,0.02,0.18,1.02,-3.2,0.2,0.5,980,0,,,,,,,,,,,,,,,,,,,
28609,1480725382348,,,,,,,,0.02,0.18,1.02,-3.2,0.2,0.6,980,0,,,,,,,,,,,,,,,,,,,
28629,1480725382368,,,,,,,,0.02,0.18,1.02,-3.2,0.3,0.6,980,0,,,,,,,,,,,,,,,,,,,
28649,1480725382388,0,60.4,,55.7,59,60.7,,0.02,0.19,1.02,-3.2,0.3,0.6,980,0,1,0,0.0,0,38.159111,-122.454414,0.0,0.001,24.7,7,3,2.0,0,0.0,-1,0.0,0.0,0.0,0
28669,1480725382408,,,,,,,,0.02,0.18,1.02,-3.2,0.3,0.6,980,0,,,,,,,,,,,,,,,,,,,
28689,1480725382428,,,,,,,,0.02,0.18,1.02,-3.2,0.3,0.6,980,0,,,,,,,,,,,,,,,,,,,
28709,1480725382448,,,,,,,,0.02,0.18,1.02,-3.2,0.3,0.6,980,0,,,,,,,,,,,,,,,,,,,
28729,1480725382468,,,,,,,,0.02,0.19,1.02,-3.2,0.2,0.6,980,0,,,,,,,,,,,,,,,,,,,
28749,1480725382488,,,,,60,,,0.02,0.19,1.02,-3.2,0.2,0.6,980,0,1,0,0.0,0,38.159111,-122.454414,0.0,0.001,24.7,7,3,2.0,0,0.0,-1,0.0,,0.0,0
28769,1480725382405,,,,,,,,0.02,0.19,1.02,-3.2,0.1,0.6,980,0,,,,,,,,,,,,,,,,,,,
28789,1480725382425,,,,,,,,0.02,0.19,1.02,-3.2,-0.1,0.6,980,0,,,,,,,,,,,,,,,,,,,
28809,1480725382445,,,,,,,,0.02,0.19,1.02,-3.2,-0.1,0.6,980,0,,,,,,,,,,,,,,,,,,,
28829,1480725382465,,,,,,,,0.02,0.18,1.02,-3.2,-0.2,0.6,960,0,,,,,,,,,,,,,,,,,,,
28849,1480725382485,0,60.6,,56.9,60,58.5,,0.01,0.19,1.02,-3.2,-0.3,0.6,980,0,1,0,0.0,0,38.159111,-122.454414,0.0,0.001,24.7,7,3,2.0,0,0.0,-1,0.0,0.0,0.0,0
28869,1480725382505,,,,,,,,0.01,0.18,1.02,-3.2,-0.3,0.5,980,0,,,,,,,,,,,,,,,,,,,
28889,1480725382525,,,,,,,,0.01,0.18,1.03,-3.2,-0.4,0.5,980,0,,,,,,,,,,,,,,,,,,,
28909,1480725382545,,,,,,,,0.01,0.17,1.03,-3.2,-0.4,0.5,980,0,,,,,,,,,,,,,,,,,,,
28929,1480725382565,,,,,,,,0.0,0.17,1.03,-3.2,-0.4,0.4,980,0,,,,,,,,,,,,,,,,,,,
28949,1480725382585,,,,,60,,,0.0,0.17,1.03,-3.2,-0.5,0.4,1000,0,1,0,0.0,0,38.159111,-122.454414,0.0,0.001,24.7,7,3,2.0,0,0.0,-1,0.0,,0.0,0
28969,1480725382605,,,,,,,,-0.0,0.17,1.02,-3.2,-0.5,0.4,1000,0,,,,,,,,,,,,,,,,,,,
28989,1480725382625,,,,,,,,-0.0,0.17,1.02,-3.2,-0.5,0.3,1000,0,,,,,,,,,,,,,,,,,,,
29009,1480725382645,,,,,,,,-0.01,0.16,1.01,-3.2,-0.5,0.3,1000,0,,,,,,,,,,,,,,,,,,,
29029,1480725382665,,,,,,,,-0.01,0.16,1.01,-3.2,-0.5,0.3,1000,0,,,,,,,,,,,,,,,,,,,
29049,1480725382685,0,61.2,0.3,57.5,58,60.8,14.92,-0.01,0.16,1.01,-3.2,-0.5,0.3,1000,0,1,0,0.0,0,38.159111,-122.454414,0.0,0.001,24.7,7,3,2.0,0,0.0,-1,0.0,0.0,0.0,0
29069,1480725382705,,,,,,,,-0.01,0.16,1.01,-3.2,-0.6,0.3,1000,0,,,,,,,,,,,,,,,,,,,
29089,1480725382725,,,,,,,,-0.01,0.16,1.01,-3.2,-0.6,0.3,1000,0,,,,,,,,,,,,,,,,,,,
29109,1480725382745,,,,,,,,-0.01,0.16,1.01,-3.2,-0.7,0.3,1000,0,,,,,,,,,,,,,,,,,,,
29129,1480725382765,,,,,,,,-0.01,0.16,1.01,-3.2,-0.7,0.4,1000,0,,,,,,,,,,,,,,,,,,,
29149,1480725382785,,,,,61,,,-0.01,0.16,1.01,-3.2,-0.7,0.4,1000,0,1,0,0.0,0,38.159111,-122.454414,0.0,0.001,24.7,7,3,2.0,0,0.0,-1,0.0,,0.0,0
29169,1480725382809,,,,,,,,-0.01,0.15,1.01,-3.2,-0.7,0.4,1000,0,,,,,,,,,,,,,,,,,,,
29189,1480725382829,,,,,,,,-0.0,0.15,1.02,-3.2,-0.8,0.4,1000,0,,,,,,,,,,,,,,,,,,,
29209,1480725382849,,,,,,,,-0.0,0.15,1.02,-3.2,-0.8,0.4,1000,0,,,,,,,,,,,,,,,,,,,
29229,1480725382869,,,,,,,,0.0,0.15,1.02,-3.2,-0.8,0.5,1000,0,,,,,,,,,,,,,,,,,,,
29249,1480725382889,0,60.3,,57.7,60,61.2,,0.0,0.15,1.02,-3.3,-0.8,0.5,1000,0,1,0,0.0,0,38.159111,-122.454414,0.0,0.001,24.7,7,3,2.0,0,0.0,-1,0.0,0.0,0.0,0
29269,1480725382899,,,,,,,,0.01,0.15,1.03,-3.3,-0.8,0.5,1000,0,,,,,,,,,,,,,,,,,,,
29289,1480725382919,,,,,,,,0.01,0.15,1.02,-3.3,-0.7,0.6,1000,0,,,,,,,,,,,,,,,,,,,
29309,1480725382939,,,,,,,,0.01,0.15,1.03,-3.3,-0.7,0.6,1000,0,,,,,,,,,,,,,,,,,,,
29329,1480725382959,,,,,,,,0.02,0.15,1.03,-3.3,-0.7,0.6,1000,0,,,,,,,,,,,,,,,,,,,
29349,1480725382979,,,,,58,,,0.02,0.15,1.03,-3.3,-0.6,0.6,1000,0,1,0,0.0,0,38.159111,-122.454414,0.0,0.001,24.7,7,3,2.0,0,0.0,-1,0.0,,0.0,0
29369,1480725383108,,,,,,,,0.02,0.15,1.02,-3.3,-0.5,0.6,1000,0,,,,,,,,,,,,,,,,,,,
29389,1480725383128,,,,,,,,0.02,0.15,1.02,-3.3,-0.4,0.6,1000,0,,,,,,,,,,,,,,,,,,,
29409,1480725383148,,,,,,,,0.02,0.15,1.03,-3.3,-0.4,0.6,1000,0,,,,,,,,,,,,,,,,,,,
29429,1480725383168,,,,,,,,0.02,0.15,1.03,-3.3,-0.4,0.6,1000,0,,,,,,,,,,,,,,,,,,,
29449,1480725383188,0,58.4,,56.1,60,61.6,,0.02,0.15,1.03,-3.3,-0.3,0.6,1020,0,1,0,0.0,0,38.159111,-122.454414,0.0,0.001,24.7,7,3,2.0,0,0.0,-1,0.0,0.0,0.0,0
29469,1480725383208,,,,,,,,0.03,0.15,1.03,-3.3,-0.2,0.6,1020,0,,,,,,,,,,,,,,,,,,,
29489,1480725383228,,,,,,,,0.03,0.15,1.04,-3.3,-0.1,0.6,1000,0,,,,,,,,,,,,,,,,,,,
29509,1480725383248,,,,,,,,0.02,0.15,1.04,-3.3,-0.0,0.6,1000,0,,,,,,,,,,,,,,,,,,,
29529,1480725383268,,,,,,,,0.02,0.15,1.04,-3.3,0.0,0.6,1000,0,,,,,,,,,,,,,,,,,,,
29549,1480725383288,,,,,62,,,0.02,0.15,1.04,-3.3,0.1,0.6,1000,0,1,0,0.0,0,38.159111,-122.454414,0.0,0.001,24.7,7,3,2.0,0,0.0,-1,0.0,,0.0,0
29569,1480725383207,,,,,,,,0.01,0.15,1.04,-3.3,0.1,0.6,1000,0,,,,,,,,,,,,,,,,,,,
29589,1480725383227,,,,,,,,0.01,0.15,1.04,-3.3,0.2,0.6,1000,0,,,,,,,,,,,,,,,,,,,
29609,1480725383247,,,,,,,,0.0,0.16,1.04,-3.3,0.3,0.6,980,0,,,,,,,,,,,,,,,,,,,
29629,1480725383267,,,,,,,,-0.0,0.15,1.03,-3.3,0.2,0.5,980,0,,,,,,,,,,,,,,,,,,,
29649,1480725383287,0,57.8,,55.1,59,60.7,,-0.01,0.15,1.04,-3.3,0.3,0.5,980,0,1,0,0.0,0,38.159111,-122.454414,0.0,0.001,24.7,7,3,2.0,0,0.0,-1,0.0,0.0,0.0,0
29669,1480725383308,,,,,,,,-0.01,0.14,1.04,-3.3,0.4,0.5,980,0,,,,,,,,,,,,,,,,,,,
29689,1480725383328,,,,,,,,-0.01,0.14,1.04,-3.3,0.4,0.5,1000,0,,,,,,,,,,,,,,,,,,,
29709,1480725383348,,,,,,,,-0.02,0.14,1.04,-3.3,0.4,0.5,1000,0,,,,,,,,,,,,,,,,,,,
29729,1480725383368,,,,,,,,-0.02,0.13,1.03,-3.3,0.4,0.5,1000,0,,,,,,,,,,,,,,,,,,,
29749,1480725383388,,,,,58,,,-0.02,0.12,1.03,-3.3,0.4,0.5,1000,0,1,0,0.0,0,38.159111,-122.454414,0.0,0.001,24.7,7,3,2.0,0,0.0,-1,0.0,,0.0,0
29769,1480725383406,,,,,,,,-0.02,0.12,1.03,-3.3,0.5,0.4,1000,0,,,,,,,,,,,,,,,,,,,
29789,1480725383426,,,,,,,,-0.02,0.11,1.03,-3.3,0.5,0.5,1000,0,,,,,,,,,,,,,,,,,,,
29809,1480725383446,,,,,,,,-0.02,0.11,1.03,-3.2,0.4,0.5,1000,0,,,,,,,,,,,,,,,,,,,
29829,1480725383466,,,,,,,,-0.02,0.11,1.03,-3.2,0.4,0.5,1000,0,,,,,,,,,,,,,,,,,,,
29849,1480725383486,0,57.9,,56.1,58,61.9,,-0.02,0.11,1.03,-3.2,0.4,0.5,1000,0,1,0,0.0,0,38.159111,-122.454414,0.0,0.001,24.7,7,3,2.0,0,0.0,-1,0.0,0.0,0.0,0
29869,1480725383505,,,,,,,,-0.02,0.11,1.03,-3.2,0.4,0.5,1000,0,,,,,,,,,,,,,,,,,,,
29889,1480725383525,,,,,,,,-0.02,0.1,1.03,-3.2,0.4,0.5,1000,0,,,,,,,,,,,,,,,,,,,
29909,1480725383545,,,,,,,,-0.03,0.09,1.03,-3.2,0.4,0.4,1000,0,,,,,,,,,,,,,,,,,,,
29929,1480725383565,,,,,,,,-0.02,0.09,1.03,-3.2,0.5,0.4,1000,0,,,,,,,,,,,,,,,,,,,
29949,1480725383585,,,,,57,,,-0.02,0.09,1.03,-3.1,0.4,0.4,1000,0,1,0,0.0,0,38.159111,-122.454414,0.0,0.001,24.7,7,3,2.0,0,0.0,-1,0.0,,0.0,0
29969,1480725383605,,,,,,,,-0.02,0.08,1.03,-3.1,0.4,0.4,1000,0,,,,,,,,,,,,,,,,,,,
29989,1480725383625,,,,,,,,-0.02,0.08,1.03,-3.2,0.4,0.4,1000,0,,,,,,,,,,,,,,,,,,,
30009,1480725383645,,,,,,,,-0.03,0.08,1.03,-3.2,0.4,0.4,1000,0,,,,,,,,,,,,,,,,,,,
30029,1480725383665,,,,,,,,-0.03,0.07,1.03,-3.1,0.4,0.4,1000,0,,,,,,,,,,,,,,,,,,,
30049,1480725383685,0,59.2,0.0,56.9,58,61.5,14.91,-0.03,0.07,1.03,-3.1,0.4,0.4,1000,0,1,0,0.0,0,38.159111,-122.454414,0.0,0.001,24.7,7,3,2.0,0,0.0,-1,0.0,0.0,0.0,0
30069,1480725383705,,,,,,,,-0.03,0.06,1.03,-3.1,0.4,0.4,1000,0,,,,,,,,,,,,,,,,,,,
30089,1480725383725,,,,,,,,-0.03,0.06,1.02,-3.1,0.3,0.4,1000,0,,,,,,,,,,,,,,,,,,,
30109,1480725383745,,,,,,,,-0.03,0.06,1.03,-3.1,0.2,0.4,980,0,,,,,,,,,,,,,,,,,,,
30129,1480725383765,,,,,,,,-0.03,0.05,1.02,-3.1,0.2,0.3,980,0,,,,,,,,,,,,,,,,,,,
30149,1480725383785,,,,,58,,,-0.03,0.05,1.02,-3.1,0.2,0.3,980,0,1,0,0.0,0,38.159111,-122.454414,0.0,0.001,24.7,7,3,2.0,0,0.0,-1,0.0,,0.0,0
30169,1480725383908,,,,,,,,-0.03,0.05,1.01,-3.1,0.1,0.2,1000,0,,,,,,,,,,,,,,,,,,,
30189,1480725383928,,,,,,,,-0.03,0.05,1.01,-3.1,0.2,0.2,1000,0,,,,,,,,,,,,,,,,,,,
30209,1480725383948,,,,,,,,-0.03,0.04,1.01,-3.1,0.1,0.2,980,0,,,,,,,,,,,,,,,,,,,
30229,1480725383968,,,,,,,,-0.03,0.04,1.01,-3.1,0.0,0.2,980,0,,,,,,,,,,,,,,,,,,,
30249,1480725383988,0,59.6,,54.6,59,59.1,,-0.04,0.04,1.01,-3.1,-0.0,0.2,980,0,1,0,0.0,0,38.159111,-122.454414,0.0,0.001,24.7,7,3,2.0,0,0.0,-1,0.0,0.0,0.0,0
30269,1480725384008,,,,,,,,-0.04,0.03,1.01,-3.1,0.0,0.1,980,0,,,,,,,,,,,,,,,,,,,
30289,1480725384028,,,,,,,,-0.04,0.03,1.01,-3.1,0.0,0.1,1000,0,,,,,,,,,,,,,,,,,,,
30309,1480725384048,,,,,,,,-0.03,0.03,1.02,-3.1,0.0,0.1,1000,0,,,,,,,,,,,,,,,,,,,
30329,1480725384068,,,,,,,,-0.03,0.03,1.02,-3.1,0.0,0.1,980,0,,,,,,,,,,,,,,,,,,,
30349,1480725384088,,,,,59,,,-0.03,0.03,1.02,-3.1,0.0,0.1,980,0,1,0,0.0,0,38.159111,-122.454414,0.0,0.001,24.7,7,3,2.0,0,0.0,-1,0.0,,0.0,0
30369,1480725384009,,,,,,,,-0.03,0.03,1.02,-3.1,0.0,0.1,980,0,,,,,,,,,,,,,,,,,,,
30389,1480725384029,,,,,,,,-0.03,0.03,1.02,-3.1,0.1,0.1,980,0,,,,,,,,,,,,,,,,,,,
30409,1480725384049,,,,,,,,-0.03,0.03,1.02,-3.1,0.0,0.1,980,0,,,,,,,,,,,,,,,,,,,
30429,1480725384069,,,,,,,,-0.03,0.03,1.02,-3.1,0.1,0.1,980,0,,,,,,,,,,,,,,,,,,,
30449,1480725384089,0,58.5,,54.5,61,59.7,,-0.03,0.03,1.02,-3.1,0.1,0.1,980,0,1,0,0.0,0,38.159111,-122.454414,0.0,0.001,24.7,7,3,2.0,0,0.0,-1,0.0,0.0,0.0,0
30469,1480725384109,,,,,,,,-0.03,0.03,1.02,-3.1,0.1,0.1,980,0,,,,,,,,,,,,,,,,,,,
30489,1480725384129,,,,,,,,-0.03,0.03,1.02,-3.1,0.1,0.1,980,0,,,,,,,,,,,,,,,,,,,
30509,1480725384149,,,,,,,,-0.03,0.04,1.02,-3.1,0.2,0.2,980,0,,,,,,,,,,,,,,,,,,,
30529,1480725384169,,,,,,,,-0.03,0.04,1.02,-3.1,0.2,0.2,980,0,,,,,,,,,,,,,,,,,,,
30549,1480725384189,,,,,57,,,-0.03,0.04,1.02,-3.1,0.2,0.2,1000,0,1,0,0.0,0,38.159111,-122.454414,0.0,0.001,24.7,7,3,2.0,0,0.0,-1,0.0,,0.0,0
30569,1480725384209,,,,,,,,-0.03,0.04,1.02,-3.1,0.2,0.2,980,0,,,,,,,,,,,,,,,,,,,
30589,1480725384229,,,,,,,,-0.03,0.04,1.02,-3.1,0.2,0.3,1000,0,,,,,,,,,,,,,,,,,,,
30609,1480725384249,,,,,,,,-0.03,0.05,1.02,-3.1,0.2,0.3,980,0,,,,,,,,,,,,,,,,,,,
30629,1480725384269,,,,,,,,-0.03,0.05,1.02,-3.1,0.2,0.3,1000,0,,,,,,,,,,,,,,,,,,,
30649,1480725384289,0,60.5,,56.2,60,58.6,,-0.03,0.05,1.02,-3.1,0.3,0.3,1000,0,1,0,0.0,0,38.159111,-122.454414,0.0,0.001,24.7,7,3,2.0,0,0.0,-1,0.0,0.0,0.0,0
30669,1480725384308,,,,,,,,-0.02,0.05,1.02,-3.1,0.2,0.3,1000,0,,,,,,,,,,,,,,,,,,,
30689,1480725384328,,,,,,,,-0.02,0.05,1.02,-3.1,0.2,0.3,1000,0,,,,,,,,,,,,,,,,,,,
30709,1480725384348,,,,,,,,-0.02,0.05,1.03,-3.2,0.2,0.3,1000,0,,,,,,,,,,,,,,,,,,,
30729,1480725384368,,,,,,,,-0.02,0.05,1.03,-3.1,0.2,0.3,1000,0,,,,,,,,,,,,,,,,,,,
30749,1480725384388,,,,,59,,,-0.02,0.06,1.03,-3.1,0.2,0.2,1000,0,1,0,0.0,0,38.159111,-122.454414,0.0,0.001,24.7,7,3,2.0,0,0.0,-1,0.0,,0.0,0
30769,1480725384406,,,,,,,,-0.02,0.05,1.03,-3.1,0.3,0.2,1000,0,,,,,,,,,,,,,,,,,,,
30789,1480725384426,,,,,,,,-0.02,0.05,1.03,-3.1,0.3,0.1,1000,0,,,,,,,,,,,,,,,,,,,
30809,1480725384446,,,,,,,,-0.02,0.05,1.03,-3.1,0.1,0.1,980,0,,,,,,,,,,,,,,,,,,,
30829,1480725384466,,,,,,,,-0.02,0.05,1.03,-3.1,0.1,0.1,980,0,,,,,,,,,,,,,,,,,,,
30849,1480725384486,0,61.0,,56.8,58,58.8,,-0.02,0.05,1.02,-3.1,0.1,-0.0,980,0,1,0,0.0,0,38.159111,-122.454414,0.0,0.001,24.7,7,3,2.0,0,0.0,-1,0.0,0.0,0.0,0
30869,1480725384505,,,,,,,,-0.02,0.05,1.02,-3.1,0.1,-0.1,1000,0,,,,,,,,,,,,,,,,,,,
30889,1480725384525,,,,,,,,-0.03,0.05,1.02,-3.1,0.2,-0.1,1000,12,,,,,,,,,,,,,,,,,,,
30909,1480725384545,,,,,,,,-0.03,0.04,1.02,-3.1,0.2,-0.1,1000,12,,,,,,,,,,,,,,,,,,,
30929,1480725384565,,,,,,,,-0.03,0.04,1.02,-3.1,0.2,-0.2,1000,12,,,,,,,,,,,,,,,,,,,
30949,1480725384585,,,,,58,,,-0.03,0.04,1.02,-3.1,0.2,-0.2,1000,769230,1,0,0.0,0,38.159111,-122.454414,0.0,0.001,24.7,7,3,2.0,0,0.0,-1,0.0,,0.0,0
30969,1480725384704,,,,,,,,-0.03,0.03,1.02,-3.1,0.1,-0.2,1000,0,,,,,,,,,,,,,,,,,,,
30989,1480725384724,,,,,,,,-0.03,0.03,1.01,-3.0,0.1,-0.3,1000,0,,,,,,,,,,,,,,,,,,,
31009,1480725384744,,,,,,,,-0.04,0.03,1.01,-3.0,0.1,-0.3,1000,0,,,,,,,,,,,,,,,,,,,
31029,1480725384764,,,,,,,,-0.04,0.04,1.01,-3.0,0.1,-0.3,1000,0,,,,,,,,,,,,,,,,,,,
31049,1480725384784,0,60.5,0.0,56.1,59,58.7,14.89,-0.04,0.04,1.0,-3.1,0.1,-0.3,1000,0,1,0,0.0,0,38.159111,-122.454414,0.0,0.001,24.7,7,3,2.0,0,0.0,-1,0.0,0.0,0.0,0
31069,1480725384804,,,,,,,,-0.04,0.04,1.0,-3.1,0.1,-0.3,1000,0,,,,,,,,,,,,,,,,,,,
31089,1480725384824,,,,,,,,-0.04,0.04,0.99,-3.1,0.1,-0.3,1000,0,,,,,,,,,,,,,,,,,,,
31109,1480725384844,,,,,,,,-0.04,0.04,0.99,-3.1,0.2,-0.4,1000,0,,,,,,,,,,,,,,,,,,,
31129,1480725384864,,,,,,,,-0.04,0.05,0.99,-3.1,0.2,-0.4,1000,0,,,,,,,,,,,,,,,,,,,
31149,1480725384884,,,,,58,,,-0.04,0.05,0.98,-3.1,0.2,-0.4,1000,0,1,0,0.0,0,38.159111,-122.454414,0.0,0.001,24.7,7,3,2.0,0,0.0,-1,0.0,,0.0,0
31169,1480725384809,,,,,,,,-0.04,0.05,0.98,-3.1,0.2,-0.4,1000,0,,,,,,,,,,,,,,,,,,,
31189,1480725384829,,,,,,,,-0.04,0.06,0.98,-3.1,0.2,-0.4,1000,0,,,,,,,,,,,,,,,,,,,
31209,1480725384849,,,,,,,,-0.04,0.05,0.97,-3.1,0.2,-0.4,980,0,,,,,,,,,,,,,,,,,,,
31229,1480725384869,,,,,,,,-0.04,0.05,0.97,-3.1,0.3,-0.5,1000,0,,,,,,,,,,,,,,,,,,,
31249,1480725384889,0,60.9,,56.9,59,58.8,,-0.04,0.05,0.97,-3.1,0.3,-0.5,1000,0,1,0,0.0,0,38.159111,-122.454414,0.0,0.001,24.7,7,3,2.0,0,0.0,-1,0.0,0.0,0.0,0
31269,1480725384899,,,,,,,,-0.04,0.06,0.97,-3.1,0.3,-0.6,1000,0,,,,,,,,,,,,,,,,,,,
31289,1480725384919,,,,,,,,-0.04,0.06,0.96,-3.1,0.3,-0.6,980,0,,,,,,,,,,,,,,,,,,,
31309,1480725384939,,,,,,,,-0.04,0.06,0.96,-3.1,0.4,-0.6,980,0,,,,,,,,,,,,,,,,,,,
31329,1480725384959,,,,,,,,-0.04,0.06,0.96,-3.1,0.4,-0.6,980,0,,,,,,,,,,,,,,,,,,,
31349,1480725384979,,,,,57,,,-0.04,0.06,0.96,-3.1,0.4,-0.7,1000,0,1,0,0.0,0,38.159111,-122.454414,0.0,0.001,24.7,7,3,2.0,0,0.0,-1,0.0,,0.0,0
31369,1480725385009,,,,,,,,-0.04,0.06,0.96,-3.1,0.4,-0.7,1000,0,,,,,,,,,,,,,,,,,,,
31389,1480725385029,,,,,,,,-0.04,0.06,0.96,-3.1,0.4,-0.7,1000,0,,,,,,,,,,,,,,,,,,,
31409,1480725385049,,,,,,,,-0.04,0.06,0.96,-3.1,0.4,-0.7,1000,0,,,,,,,,,,,,,,,,,,,
31429,1480725385069,,,,,,,,-0.04,0.06,0.96,-3.1,0.4,-0.7,1000,0,,,,,,,,,,,,,,,,,,,
31449,1480725385089,0,57.5,,55.1,59,60.9,,-0.04,0.06,0.96,-3.1,0.4,-0.7,1000,0,1,0,0.0,0,38.159111,-122.454414,0.0,0.001,24.7,7,3,2.0,0,0.0,-1,0.0,0.0,0.0,0
31469,1480725385109,,,,,,,,-0.04,0.06,0.96,-3.1,0.4,-0.8,1000,0,,,,,,,,,,,,,,,,,,,
31489,1480725385129,,,,,,,,-0.04,0.05,0.96,-3.1,0.4,-0.8,1000,0,,,,,,,,,,,,,,,,,,,
31509,1480725385149,,,,,,,,-0.04,0.05,0.96,-3.1,0.4,-0.8,1000,0,,,,,,,,,,,,,,,,,,,
31529,1480725385169,,,,,,,,-0.04,0.05,0.96,-3.1,0.4,-0.8,1000,0,,,,,,,,,,,,,,,,,,,
31549,1480725385189,,,,,58,,,-0.03,0.05,0.96,-3.1,0.5,-0.8,1000,0,1,0,0.0,0,38.159111,-122.454414,0.0,0.001,24.7,7,3,2.0,0,0.0,-1,0.0,,0.0,0
31569,1480725385209,,,,,,,,-0.03,0.05,0.96,-3.1,0.4,-0.8,980,0,,,,,,,,,,,,,,,,,,,
31589,1480725385229,,,,,,,,-0.03,0.05,0.96,-3.1,0.5,-0.7,1000,0,,,,,,,,,,,,,,,,,,,
31609,1480725385249,,,,,,,,-0.03,0.05,0.96,-3.1,0.4,-0.7,1000,0,,,,,,,,,,,,,,,,,,,
31629,1480725385269,,,,,,,,-0.03,0.05,0.96,-3.1,0.4,-0.7,1000,0,,,,,,,,,,,,,,,,,,,
31649,1480725385289,0,59.8,,57.5,58,61.8,,-0.03,0.05,0.96,-3.1,0.4,-0.7,1000,0,1,0,0.0,0,38.159111,-122.454414,0.0,0.001,24.7,7,3,2.0,0,0.0,-1,0.0,0.0,0.0,0
31669,1480725385309,,,,,,,,-0.03,0.04,0.96,-3.1,0.4,-0.7,1000,0,,,,,,,,,,,,,,,,,,,
31689,1480725385329,,,,,,,,-0.03,0.05,0.96,-3.1,0.5,-0.7,1000,0,,,,,,,,,,,,,,,,,,,
31709,1480725385349,,,,,,,,-0.03,0.04,0.96,-3.1,0.5,-0.7,1000,0,,,,,,,,,,,,,,,,,,,
31729,1480725385369,,,,,,,,-0.03,0.04,0.96,-3.1,0.5,-0.7,1000,0,,,,,,,,,,,,,,,,,,,
31749,1480725385389,,,,,58,,,-0.03,0.04,0.96,-3.1,0.5,-0.7,1000,0,1,0,0.0,0,38.159111,-122.454414,0.0,0.001,24.7,7,3,2.0,0,0.0,-1,0.0,,0.0,0
31769,1480725385501,,,,,,,,-0.03,0.03,0.96,-3.1,0.5,-0.8,1000,0,,,,,,,,,,,,,,,,,,,
31789,1480725385521,,,,,,,,-0.04,0.03,0.96,-3.1,0.5,-0.7,1000,0,,,,,,,,,,,,,,,,,,,
31809,1480725385541,,,,,,,,-0.04,0.04,0.96,-3.1,0.5,-0.7,1000,0,,,,,,,,,,,,,,,,,,,
31829,1480725385561,,,,,,,,-0.04,0.04,0.97,-3.1,0.5,-0.7,1000,0,,,,,,,,,,,,,,,,,,,
31849,1480725385581,0,60.8,,57.4,58,59.0,,-0.04,0.03,0.97,-3.0,0.5,-0.7,1000,0,1,0,0.0,0,38.159111,-122.454414,0.0,0.001,24.7,7,3,2.0,0,0.0,-1,0.0,0.0,0.0,0
31869,1480725385601,,,,,,,,-0.04,0.04,0.97,-3.1,0.5,-0.7,1000,0,,,,,,,,,,,,,,,,,,,
31889,1480725385621,,,,,,,,-0.04,0.03,0.97,-3.1,0.6,-0.6,980,0,,,,,,,,,,,,,,,,,,,
31909,1480725385641,,,,,,,,-0.05,0.03,0.97,-3.1,0.6,-0.7,980,0,,,,,,,,,,,,,,,,,,,
31929,1480725385661,,,,,,,,-0.05,0.03,0.97,-3.1,0.6,-0.6,980,0,,,,,,,,,,,,,,,,,,,
31949,1480725385681,,,,,59,,,-0.05,0.04,0.97,-3.1,0.6,-0.6,980,0,1,0,0.0,0,38.159111,-122.454414,0.0,0.001,24.7,7,3,2.0,0,0.0,-1,0.0,,0.0,0
31969,1480725385606,,,,,,,,-0.05,0.04,0.97,-3.1,0.6,-0.6,980,0,,,,,,,,,,,,,,,,,,,
31989,1480725385626,,,,,,,,-0.05,0.04,0.98,-3.0,0.6,-0.6,1000,0,,,,,,,,,,,,,,,,,,,
32009,1480725385646,,,,,,,,-0.05,0.04,0.98,-3.0,0.6,-0.6,980,0,,,,,,,,,,,,,,,,,,,
32029,1480725385666,,,,,,,,-0.05,0.03,0.98,-3.1,0.6,-0.6,980,0,,,,,,,,,,,,,,,,,,,
32049,1480725385686,0,61.3,0.4,57.8,58,61.2,14.88,-0.05,0.04,0.98,-3.1,0.6,-0.6,980,0,1,0,0.0,0,38.159111,-122.454414,0.0,0.001,24.7,7,3,2.0,0,0.0,-1,0.0,0.0,0.0,0
32069,1480725385705,,,,,,,,-0.05,0.04,0.98,-3.1,0.6,-0.6,980,30,,,,,,,,,,,,,,,,,,,
32089,1480725385725,,,,,,,,-0.05,0.04,0.98,-3.1,0.6,-0.6,980,30,,,,,,,,,,,,,,,,,,,
32109,1480725385745,,,,,,,,-0.05,0.04,0.98,-3.1,0.6,-0.6,980,30,,,,,,,,,,,,,,,,,,,
32129,1480725385765,,,,,,,,-0.05,0.03,0.98,-3.1,0.5,-0.6,980,30,,,,,,,,,,,,,,,,,,,
32149,1480725385785,,,,,58,,,-0.05,0.03,0.97,-3.1,0.5,-0.7,980,20,1,0,0.0,0,38.159111,-122.454414,0.0,0.001,24.7,7,3,2.0,0,0.0,-1,0.0,,0.0,0
32169,1480725385809,,,,,,,,-0.05,0.04,0.97,-3.1,0.5,-0.7,960,20,,,,,,,,,,,,,,,,,,,
32189,1480725385829,,,,,,,,-0.04,0.04,0.97,-3.1,0.5,-0.7,980,20,,,,,,,,,,,,,,,,,,,
32209,1480725385849,,,,,,,,-0.04,0.04,0.97,-3.0,0.4,-0.7,980,20,,,,,,,,,,,,,,,,,,,
32229,1480725385869,,,,,,,,-0.04,0.04,0.96,-3.0,0.3,-0.7,980,20,,,,,,,,,,,,,,,,,,,
32249,1480725385889,0,57.9,,55.9,59,61.5,,-0.04,0.04,0.96,-3.0,0.3,-0.7,960,20,1,0,48.0,0,38.159111,-122.454414,0.0,0.001,24.7,7,3,2.0,0,0.0,-1,0.0,0.0,0.0,0
32269,1480725385899,,,,,,,,-0.04,0.04,0.96,-3.0,0.3,-0.8,980,20,,,,,,,,,,,,,,,,,,,
32289,1480725385919,,,,,,,,-0.04,0.04,0.96,-3.0,0.2,-0.8,960,20,,,,,,,,,,,,,,,,,,,
32309,1480725385939,,,,,,,,-0.04,0.04,0.96,-3.0,0.2,-0.8,980,20,,,,,,,,,,,,,,,,,,,
32329,1480725385959,,,,,,,,-0.04,0.04,0.96,-3.0,0.2,-0.8,980,1538461,,,,,,,,,,,,,,,,,,,
32349,1480725385979,,,,,56,,,-0.04,0.04,0.97,-3.1,0.3,-0.8,980,0,1,0,48.0,0,38.159111,-122.454414,0.0,0.001,24.7,7,3,2.0,0,0.0,-1,0.0,,0.0,0
32369,1480725386009,,,,,,,,-0.04,0.04,0.97,-3.0,0.3,-0.7,960,0,,,,,,,,,,,,,,,,,,,
32389,1480725386029,,,,,,,,-0.04,0.04,0.97,-3.1,0.2,-0.7,960,0,,,,,,,,,,,,,,,,,,,
32409,1480725386049,,,,,,,,-0.05,0.04,0.97,-3.1,0.3,-0.7,960,0,,,,,,,,,,,,,,,,,,,
32429,1480725386069,,,,,,,,-0.05,0.04,0.97,-3.1,0.3,-0.7,980,0,,,,,,,,,,,,,,,,,,,
32449,1480725386089,0,60.5,,56.8,59,58.5,,-0.05,0.03,0.97,-3.1,0.4,-0.6,980,0,1,0,0.0,0,38.159111,-122.454414,0.0,0.001,24.7,7,3,2.0,0,0.0,-1,0.0,0.0,0.0,0
32469,1480725386109,,,,,,,,-0.05,0.03,0.98,-3.1,0.4,-0.6,980,0,,,,,,,,,,,,,,,,,,,
32489,1480725386129,,,,,,,,-0.05,0.02,0.98,-3.1,0.4,-0.5,980,0,,,,,,,,,,,,,,,,,,,
32509,1480725386149,,,,,,,,-0.04,0.02,0.98,-3.1,0.4,-0.4,980,0,,,,,,,,,,,,,,,,,,,
32529,1480725386169,,,,,,,,-0.04,0.02,0.98,-3.1,0.4,-0.3,980,0,,,,,,,,,,,,,,,,,,,
32549,1480725386189,,,,,56,,,-0.04,0.03,0.98,-3.1,0.5,-0.2,980,0,1,0,0.0,0,38.159111,-122.454414,0.0,0.001,24.7,7,3,2.0,0,0.0,-1,0.0,,0.0,0
32569,1480725386308,,,,,,,,-0.04,0.03,0.98,-3.1,0.5,-0.2,980,0,,,,,,,,,,,,,,,,,,,
32589,1480725386328,,,,,,,,-0.03,0.03,0.99,-3.1,0.5,-0.1,980,0,,,,,,,,,,,,,,,,,,,
32609,1480725386348,,,,,,,,-0.03,0.03,0.99,-3.2,0.5,0.0,980,0,,,,,,,,,,,,,,,,,,,
32629,1480725386368,,,,,,,,-0.02,0.04,0.99,-3.2,0.5,0.1,980,0,,,,,,,,,,,,,,,,,,,
32649,1480725386388,0,59.9,,54.8,57,58.8,,-0.02,0.05,0.99,-3.2,0.6,0.1,980,0,1,0,0.0,0,38.159111,-122.454414,0.0,0.001,24.7,7,3,2.0,0,0.0,-1,0.0,0.0,0.0,0
32669,1480725386408,,,,,,,,-0.01,0.06,1.0,-3.2,0.7,0.2,980,0,,,,,,,,,,,,,,,,,,,
32689,1480725386428,,,,,,,,-0.01,0.06,1.0,-3.3,0.7,0.3,980,0,,,,,,,,,,,,,,,,,,,
32709,1480725386448,,,,,,,,-0.01,0.07,1.0,-3.3,0.7,0.3,980,0,,,,,,,,,,,,,,,,,,,
32729,1480725386468,,,,,,,,-0.0,0.08,1.0,-3.3,0.7,0.4,980,0,,,,,,,,,,,,,,,,,,,
32749,1480725386488,,,,,58,,,-0.0,0.09,1.0,-3.3,0.8,0.4,980,0,1,0,0.0,0,38.159111,-122.454414,0.0,0.001,24.7,7,3,2.0,0,0.0,-1,0.0,,0.0,0
32769,1480725386409,,,,,,,,-0.0,0.1,1.0,-3.3,0.8,0.4,960,0,,,,,,,,,,,,,,,,,,,
32789,1480725386429,,,,,,,,0.0,0.11,1.0,-3.3,0.8,0.4,960,95,,,,,,,,,,,,,,,,,,,
32809,1480725386449,,,,,,,,0.01,0.12,1.01,-3.4,0.8,0.5,980,95,,,,,,,,,,,,,,,,,,,
32829,1480725386469,,,,,,,,0.01,0.12,1.01,-3.4,0.8,0.6,980,95,,,,,,,,,,,,,,,,,,,
32849,1480725386489,0,57.8,,54.8,57,60.3,,0.01,0.13,1.02,-3.4,0.8,0.6,980,95,1,0,0.0,0,38.159111,-122.454414,0.0,0.001,24.7,7,3,2.0,0,0.0,-1,0.0,0.0,0.0,0
32869,1480725386509,,,,,,,,0.01,0.14,1.02,-3.4,0.8,0.6,960,95,,,,,,,,,,,,,,,,,,,
32889,1480725386529,,,,,,,,0.02,0.14,1.02,-3.4,0.8,0.6,940,12,,,,,,,,,,,,,,,,,,,
32909,1480725386549,,,,,,,,0.01,0.14,1.02,-3.4,0.7,0.6,940,12,,,,,,,,,,,,,,,,,,,
32929,1480725386569,,,,,,,,0.01,0.14,1.02,-3.4,0.6,0.6,940,12,,,,,,,,,,,,,,,,,,,
32949,1480725386589,,,,,55,,,0.0,0.14,1.03,-3.4,0.5,0.5,960,12,1,0,10.105,0,38.159111,-122.454414,0.0,0.001,24.7,7,3,2.0,0,0.0,-1,0.0,,0.0,0
32969,1480725386609,,,,,,,,-0.01,0.15,1.03,-3.4,0.4,0.5,960,769230,,,,,,,,,,,,,,,,,,,
32989,1480725386629,,,,,,,,-0.02,0.15,1.03,-3.4,0.4,0.5,940,0,,,,,,,,,,,,,,,,,,,
33009,1480725386649,,,,,,,,-0.03,0.15,1.02,-3.4,0.4,0.4,940,0,,,,,,,,,,,,,,,,,,,
33029,1480725386669,,,,,,,,-0.03,0.14,1.02,-3.4,0.4,0.3,940,0,,,,,,,,,,,,,,,,,,,
33049,1480725386689,0,60.3,0.4,58.0,57,61.3,14.93,-0.04,0.13,1.02,-3.3,0.5,0.1,940,0,1,0,0.0,0,38.159111,-122.454414,0.0,0.001,24.7,7,3,2.0,0,0.0,-1,0.0,0.0,0.0,0
33069,1480725386709,,,,,,,,-0.04,0.13,1.01,-3.3,0.5,0.0,940,0,,,,,,,,,,,,,,,,,,,
33089,1480725386729,,,,,,,,-0.05,0.12,1.0,-3.3,0.5,-0.1,940,0,,,,,,,,,,,,,,,,,,,
33109,1480725386749,,,,,,,,-0.05,0.1,1.0,-3.2,0.5,-0.2,940,0,,,,,,,,,,,,,,,,,,,
33129,1480725386769,,,,,,,,-0.06,0.09,1.0,-3.2,0.5,-0.3,940,0,,,,,,,,,,,,,,,,,,,
33149,1480725386789,,,,,56,,,-0.06,0.08,0.99,-3.2,0.5,-0.3,940,0,1,0,0.0,0,38.159111,-122.454414,0.0,0.001,24.7,7,3,2.0,0,0.0,-1,0.0,,0.0,0
33169,1480725386810,,,,,,,,-0.06,0.07,0.99,-3.2,0.5,-0.3,940,0,,,,,,,,,,,,,,,,,,,
33189,1480725386830,,,,,,,,-0.06,0.06,0.99,-3.1,0.4,-0.3,940,0,,,,,,,,,,,,,,,,,,,
33209,1480725386850,,,,,,,,-0.06,0.06,0.99,-3.1,0.5,-0.2,940,0,,,,,,,,,,,,,,,,,,,
33229,1480725386870,,,,,,,,-0.06,0.05,0.99,-3.1,0.5,-0.1,940,0,,,,,,,,,,,,,,,,,,,
33249,1480725386890,1,59.4,,54.6,53,59.4,,-0.05,0.07,0.99,-3.1,0.5,0.0,940,0,1,0,0.0,0,38.159111,-122.454414,0.0,0.001,24.7,7,3,2.0,0,0.0,-1,0.0,0.0,0.0,0
33269,1480725386901,,,,,,,,-0.04,0.08,0.99,-3.1,0.6,0.1,940,0,,,,,,,,,,,,,,,,,,,
33289,1480725386921,,,,,,,,-0.03,0.1,1.0,-3.2,0.5,0.2,940,0,,,,,,,,,,,,,,,,,,,
33309,1480725386941,,,,,,,,-0.02,0.12,1.0,-3.2,0.5,0.3,940,0,,,,,,,,,,,,,,,,,,,
33329,1480725386961,,,,,,,,-0.02,0.13,1.01,-3.2,0.4,0.4,940,0,,,,,,,,,,,,,,,,,,,
33349,1480725386981,,,,,54,,,-0.01,0.13,1.01,-3.2,0.2,0.4,960,0,1,0,0.0,0,38.159111,-122.454414,0.0,0.001,24.7,7,3,2.0,0,0.0,-1,0.0,,0.0,0
33369,1480725387109,,,,,,,,-0.02,0.13,1.02,-3.2,0.1,0.4,940,0,,,,,,,,,,,,,,,,,,,
33389,1480725387129,,,,,,,,-0.02,0.14,1.02,-3.2,-0.0,0.3,920,0,,,,,,,,,,,,,,,,,,,
33409,1480725387149,,,,,,,,-0.02,0.14,1.02,-3.2,-0.1,0.3,920,0,,,,,,,,,,,,,,,,,,,
33429,1480725387169,,,,,,,,-0.03,0.13,1.02,-3.2,-0.2,0.2,920,0,,,,,,,,,,,,,,,,,,,
33449,1480725387189,0,59.0,,54.6,54,59.6,,-0.03,0.12,1.02,-3.2,-0.1,0.1,940,0,1,0,0.0,0,38.159111,-122.454414,0.0,0.001,24.7,7,3,2.0,0,0.0,-1,0.0,0.0,0.0,0
33469,1480725387209,,,,,,,,-0.03,0.11,1.02,-3.1,-0.1,-0.0,940,0,,,,,,,,,,,,,,,,,,,
33489,1480725387229,,,,,,,,-0.04,0.1,1.01,-3.1,-0.1,-0.1,920,0,,,,,,,,,,,,,,,,,,,
33509,1480725387249,,,,,,,,-0.04,0.09,1.01,-3.0,-0.1,-0.2,920,0,,,,,,,,,,,,,,,,,,,
33529,1480725387269,,,,,,,,-0.04,0.08,1.0,-3.0,-0.1,-0.3,920,0,,,,,,,,,,,,,,,,,,,
33549,1480725387289,,,,,54,,,-0.04,0.07,1.0,-3.0,0.0,-0.2,920,0,1,0,0.0,0,38.159111,-122.454414,0.0,0.001,24.7,7,3,2.0,0,0.0,-1,0.0,,0.0,0
33569,1480725387210,,,,,,,,-0.04,0.06,1.0,-3.0,0.0,-0.2,920,0,,,,,,,,,,,,,,,,,,,
33589,1480725387230,,,,,,,,-0.04,0.06,1.0,-3.1,0.0,-0.0,940,0,,,,,,,,,,,,,,,,,,,
33609,1480725387250,,,,,,,,-0.03,0.06,1.0,-3.1,0.1,0.0,940,0,,,,,,,,,,,,,,,,,,,
33629,1480725387270,,,,,,,,-0.03,0.08,1.0,-3.1,0.2,0.1,900,0,,,,,,,,,,,,,,,,,,,
33649,1480725387290,0,58.4,,56.6,54,61.9,,-0.02,0.09,1.0,-3.1,0.4,0.2,900,0,1,0,0.0,0,38.159111,-122.454414,0.0,0.001,24.7,7,3,2.0,0,0.0,-1,0.0,0.0,0.0,0
33669,1480725387310,,,,,,,,-0.02,0.09,1.0,-3.2,0.3,0.2,900,0,,,,,,,,,,,,,,,,,,,
33689,1480725387330,,,,,,,,-0.01,0.1,1.0,-3.1,0.1,0.2,900,0,,,,,,,,,,,,,,,,,,,
33709,1480725387350,,,,,,,,-0.01,0.1,1.01,-3.1,0.2,0.1,880,0,,,,,,,,,,,,,,,,,,,
33729,1480725387370,,,,,,,,-0.02,0.1,1.01,-3.1,0.1,0.0,880,0,,,,,,,,,,,,,,,,,,,
33749,1480725387390,,,,,52,,,-0.02,0.1,1.01,-3.1,0.1,-0.1,860,29,1,0,0.0,0,38.159111,-122.454414,0.0,0.001,24.7,7,3,2.0,0,0.0,-1,0.0,,0.0,0
33769,1480725387410,,,,,,,,-0.02,0.09,1.0,-3.1,0.2,-0.1,860,29,,,,,,,,,,,,,,,,,,,
33789,1480725387430,,,,,,,,-0.01,0.09,1.0,-3.1,0.1,-0.1,860,29,,,,,,,,,,,,,,,,,,,
33809,1480725387450,,,,,,,,-0.01,0.09,1.0,-3.1,0.1,0.0,840,1538461,,,,,,,,,,,,,,,,,,,
33829,1480725387470,,,,,,,,-0.0,0.1,1.0,-3.2,0.2,0.1,840,0,,,,,,,,,,,,,,,,,,,
33849,1480725387490,0,57.9,,55.9,55,61.6,,-0.0,0.1,1.0,-3.2,0.1,0.1,840,0,1,0,29.655,0,38.159111,-122.454414,0.0,0.001,24.7,7,3,2.0,0,0.0,-1,0.0,0.0,0.0,0
33869,1480725387510,,,,,,,,-0.01,0.1,1.01,-3.2,0.2,0.0,860,0,,,,,,,,,,,,,,,,,,,
33889,1480725387530,,,,,,,,-0.02,0.1,1.01,-3.2,0.1,-0.1,840,0,,,,,,,,,,,,,,,,,,,
33909,1480725387550,,,,,,,,-0.02,0.09,1.01,-3.2,0.2,-0.1,840,0,,,,,,,,,,,,,,,,,,,
33929,1480725387570,,,,,,,,-0.02,0.09,1.01,-3.2,0.2,-0.0,840,0,,,,,,,,,,,,,,,,,,,
33949,1480725387590,,,,,59,,,-0.02,0.09,1.0,-3.2,0.3,0.1,840,0,1,0,0.0,0,38.159111,-122.454414,0.0,0.001,24.7,7,3,2.0,0,0.0,-1,0.0,,0.0,0
33969,1480725387610,,,,,,,,-0.01,0.1,1.0,-3.2,0.3,0.1,840,0,,,,,,,,,,,,,,,,,,,
33989,1480725387630,,,,,,,,-0.02,0.1,1.0,-3.2,0.2,0.1,840,0,,,,,,,,,,,,,,,,,,,
34009,1480725387650,,,,,,,,-0.02,0.1,1.01,-3.2,0.3,-0.0,860,0,,,,,,,,,,,,,,,,,,,
34029,1480725387670,,,,,,,,-0.03,0.09,1.0,-3.2,0.2,-0.2,840,0,,,,,,,,,,,,,,,,,,,
34049,1480725387690,1,60.7,0.1,56.9,63,58.5,14.89,-0.04,0.08,1.0,-3.2,0.4,-0.2,860,0,1,0,0.0,0,38.159111,-122.454414,0.0,0.001,24.7,7,3,2.0,0,0.0,-1,0.0,0.0,0.0,0
34069,1480725387710,,,,,,,,-0.04,0.09,1.0,-3.2,0.4,-0.1,860,0,,,,,,,,,,,,,,,,,,,
34089,1480725387730,,,,,,,,-0.03,0.09,0.99,-3.3,0.5,0.0,840,0,,,,,,,,,,,,,,,,,,,
34109,1480725387750,,,,,,,,-0.03,0.1,1.0,-3.3,0.4,0.0,860,0,,,,,,,,,,,,,,,,,,,
34129,1480725387770,,,,,,,,-0.03,0.1,1.0,-3.3,0.4,-0.0,860,0,,,,,,,,,,,,,,,,,,,
34149,1480725387790,,,,,66,,,-0.03,0.1,1.0,-3.3,0.4,-0.1,860,0,1,0,0.0,0,38.159111,-122.454414,0.0,0.001,24.7,7,3,2.0,0,0.0,-1,0.0,,0.0,0
34169,1480725387909,,,,,,,,-0.04,0.1,1.0,-3.2,0.4,-0.2,840,0,,,,,,,,,,,,,,,,,,,
34189,1480725387929,,,,,,,,-0.05,0.09,1.01,-3.2,0.4,-0.2,840,0,,,,,,,,,,,,,,,,,,,
34209,1480725387949,,,,,,,,-0.04,0.09,1.0,-3.2,0.5,-0.1,840,0,,,,,,,,,,,,,,,,,,,
34229,1480725387969,,,,,,,,-0.04,0.09,1.0,-3.2,0.4,0.0,840,0,,,,,,,,,,,,,,,,,,,
34249,1480725387989,0,57.7,,55.7,67,61.5,,-0.04,0.09,1.0,-3.3,0.4,0.1,860,0,1,0,0.0,0,38.159111,-122.454414,0.0,0.001,24.7,7,3,2.0,0,0.0,-1,0.0,0.0,0.0,0
34269,1480725388009,,,,,,,,-0.04,0.09,1.01,-3.2,0.4,0.0,840,0,,,,,,,,,,,,,,,,,,,
34289,1480725388029,,,,,,,,-0.05,0.09,1.01,-3.2,0.4,-0.0,860,0,,,,,,,,,,,,,,,,,,,
34309,1480725388049,,,,,,,,-0.05,0.08,1.0,-3.2,0.2,-0.2,840,0,,,,,,,,,,,,,,,,,,,
34329,1480725388069,,,,,,,,-0.06,0.08,1.0,-3.2,0.4,-0.2,840,0,,,,,,,,,,,,,,,,,,,
34349,1480725388089,,,,,68,,,-0.05,0.08,1.0,-3.2,0.4,-0.0,840,0,1,0,0.0,0,38.159111,-122.454414,0.0,0.001,24.7,7,3,2.0,0,0.0,-1,0.0,,0.0,0
34369,1480725388009,,,,,,,,-0.04,0.08,1.0,-3.2,0.4,0.0,840,0,,,,,,,,,,,,,,,,,,,
34389,1480725388029,,,,,,,,-0.04,0.09,1.0,-3.2,0.4,0.1,860,0,,,,,,,,,,,,,,,,,,,
34409,1480725388049,,,,,,,,-0.04,0.09,1.0,-3.2,0.3,0.1,840,0,,,,,,,,,,,,,,,,,,,
34429,1480725388069,,,,,,,,-0.04,0.09,1.0,-3.2,0.2,-0.0,840,0,,,,,,,,,,,,,,,,,,,
34449,1480725388091,0,60.3,,55.2,68,58.4,,-0.05,0.09,1.0,-3.1,0.1,-0.2,840,0,1,0,0.0,0,38.159111,-122.454414,0.0,0.001,24.7,7,3,2.0,0,0.0,-1,0.0,0.0,0.0,0
34469,1480725388111,,,,,,,,-0.05,0.08,1.0,-3.1,0.2,-0.2,840,0,,,,,,,,,,,,,,,,,,,
34489,1480725388131,,,,,,,,-0.04,0.09,1.0,-3.1,0.3,-0.1,840,0,,,,,,,,,,,,,,,,,,,
34509,1480725388151,,,,,,,,-0.04,0.09,1.0,-3.1,0.3,0.0,840,0,,,,,,,,,,,,,,,,,,,
34529,1480725388171,,,,,,,,-0.03,0.09,1.01,-3.1,0.2,0.1,840,0,,,,,,,,,,,,,,,,,,,
34549,1480725388191,,,,,67,,,-0.04,0.1,1.01,-3.1,0.3,0.0,840,0,1,0,0.0,0,38.159111,-122.454414,0.0,0.001,24.7,7,3,2.0,0,0.0,-1,0.0,,0.0,0
34569,1480725388211,,,,,,,,-0.04,0.1,1.01,-3.1,0.2,-0.1,840,0,,,,,,,,,,,,,,,,,,,
34589,1480725388231,,,,,,,,-0.04,0.08,1.01,-3.1,0.2,-0.2,820,0,,,,,,,,,,,,,,,,,,,
34609,1480725388251,,,,,,,,-0.04,0.09,1.0,-3.1,0.2,-0.1,820,0,,,,,,,,,,,,,,,,,,,
34629,1480725388271,,,,,,,,-0.03,0.1,1.0,-3.1,0.3,-0.0,820,0,,,,,,,,,,,,,,,,,,,
34649,1480725388291,0,60.7,,57.9,64,61.8,,-0.02,0.1,1.0,-3.1,0.2,0.0,800,0,1,0,0.0,0,38.159111,-122.454414,0.0,0.001,24.7,7,3,2.0,0,0.0,-1,0.0,0.0,0.0,0
34669,1480725388311,,,,,,,,-0.03,0.1,1.01,-3.1,-0.0,-0.0,820,0,,,,,,,,,,,,,,,,,,,
34689,1480725388331,,,,,,,,-0.03,0.1,1.0,-3.1,0.0,-0.1,800,0,,,,,,,,,,,,,,,,,,,
34709,1480725388351,,,,,,,,-0.03,0.09,1.0,-3.1,0.1,-0.1,800,0,,,,,,,,,,,,,,,,,,,
34729,1480725388371,,,,,,,,-0.03,0.1,1.0,-3.1,0.1,0.0,800,0,,,,,,,,,,,,,,,,,,,
34749,1480725388391,,,,,63,,,-0.02,0.1,1.0,-3.2,0.2,0.1,780,0,1,0,0.0,0,38.159111,-122.454414,0.0,0.001,24.7,7,3,2.0,0,0.0,-1,0.0,,0.0,0
34769,1480725388411,,,,,,,,-0.02,0.11,1.01,-3.2,0.0,0.1,800,0,,,,,,,,,,,,,,,,,,,
34789,1480725388431,,,,,,,,-0.03,0.1,1.01,-3.1,-0.0,-0.0,800,0,,,,,,,,,,,,,,,,,,,
34809,1480725388451,,,,,,,,-0.03,0.1,1.0,-3.1,-0.0,-0.1,820,0,,,,,,,,,,,,,,,,,,,
34829,1480725388471,,,,,,,,-0.02,0.09,1.01,-3.2,0.0,-0.0,820,0,,,,,,,,,,,,,,,,,,,
34849,1480725388492,0,57.2,,54.9,64,58.8,,-0.02,0.1,1.0,-3.2,0.1,0.2,800,0,1,0,0.0,0,38.159111,-122.454414,0.0,0.001,24.7,7,3,2.0,0,0.0,-1,0.0,0.0,0.0,0
34869,1480725388512,,,,,,,,-0.01,0.1,1.01,-3.2,0.1,0.2,820,0,,,,,,,,,,,,,,,,,,,
34889,1480725388532,,,,,,,,-0.02,0.1,1.01,-3.2,0.0,0.1,800,0,,,,,,,,,,,,,,,,,,,
34909,1480725388552,,,,,,,,-0.02,0.1,1.01,-3.2,0.0,-0.0,800,0,,,,,,,,,,,,,,,,,,,
34929,1480725388572,,,,,,,,-0.02,0.09,1.01,-3.2,0.2,-0.0,800,0,,,,,,,,,,,,,,,,,,,
34949,1480725388691,,,,,63,,,-0.02,0.09,1.0,-3.2,0.1,0.1,800,0,1,0,0.0,0,38.159111,-122.454414,0.0,0.001,24.7,7,3,2.0,0,0.0,-1,0.0,,0.0,0
34969,1480725388711,,,,,,,,-0.01,0.1,1.01,-3.2,0.4,0.2,820,0,,,,,,,,,,,,,,,,,,,
34989,1480725388731,,,,,,,,-0.02,0.1,1.01,-3.2,0.2,0.2,800,0,,,,,,,,,,,,,,,,,,,
35009,1480725388751,,,,,,,,-0.02,0.1,1.01,-3.2,0.2,-0.0,820,0,,,,,,,,,,,,,,,,,,,
35029,1480725388771,,,,,,,,-0.03,0.09,1.01,-3.2,0.3,-0.1,820,0,,,,,,,,,,,,,,,,,,,
35049,1480725388791,0,58.0,0.0,55.9,61,58.4,14.89,-0.02,0.1,1.01,-3.2,0.3,0.0,780,0,1,0,0.0,0,38.159111,-122.454414,0.0,0.001,24.7,7,3,2.0,0,0.0,-1,0.0,0.0,0.0,0
35069,1480725388811,,,,,,,,-0.02,0.1,1.0,-3.2,0.4,0.1,780,0,,,,,,,,,,,,,,,,,,,
35089,1480725388831,,,,,,,,-0.02,0.1,1.01,-3.2,0.3,0.1,780,0,,,,,,,,,,,,,,,,,,,
35109,1480725388851,,,,,,,,-0.03,0.1,1.01,-3.2,0.2,-0.0,800,0,,,,,,,,,,,,,,,,,,,
35129,1480725388871,,,,,,,,-0.03,0.1,1.01,-3.2,0.3,-0.1,800,0,,,,,,,,,,,,,,,,,,,
35149,1480725388791,,,,,62,,,-0.02,0.11,1.01,-3.2,0.3,0.1,780,0,1,0,0.0,0,38.159111,-122.454414,0.0,0.001,24.7,7,3,2.0,0,0.0,-1,0.0,,0.0,0
35169,1480725388811,,,,,,,,-0.02,0.12,1.01,-3.3,0.4,0.2,800,0,,,,,,,,,,,,,,,,,,,
35189,1480725388831,,,,,,,,-0.02,0.12,1.02,-3.2,0.2,0.2,780,0,,,,,,,,,,,,,,,,,,,
35209,1480725388851,,,,,,,,-0.02,0.11,1.01,-3.2,0.3,-0.0,800,0,,,,,,,,,,,,,,,,,,,
35229,1480725388871,,,,,,,,-0.02,0.11,1.0,-3.2,0.3,-0.1,800,0,,,,,,,,,,,,,,,,,,,
35249,1480725388891,0,59.9,,56.1,60,61.9,,-0.02,0.11,1.01,-3.2,0.3,0.0,780,0,1,0,0.0,0,38.159111,-122.454414,0.0,0.001,24.7,7,3,2.0,0,0.0,-1,0.0,0.0,0.0,0
35269,1480725388903,,,,,,,,-0.02,0.12,1.0,-3.2,0.5,0.1,800,0,,,,,,,,,,,,,,,,,,,
35289,1480725388923,,,,,,,,-0.01,0.12,1.01,-3.2,0.3,0.1,800,0,,,,,,,,,,,,,,,,,,,
35309,1480725388943,,,,,,,,-0.02,0.12,1.01,-3.2,0.3,-0.1,800,0,,,,,,,,,,,,,,,,,,,
35329,1480725388963,,,,,,,,-0.03,0.11,1.0,-3.2,0.3,-0.1,800,0,,,,,,,,,,,,,,,,,,,
35349,1480725388991,,,,,58,,,-0.02,0.11,1.0,-3.2,0.3,-0.0,780,0,1,0,0.0,0,38.159111,-122.454414,0.0,0.001,24.7,7,3,2.0,0,0.0,-1,0.0,,0.0,0
35369,1480725389011,,,,,,,,-0.02,0.11,1.0,-3.2,0.4,0.1,780,0,,,,,,,,,,,,,,,,,,,
35389,1480725389031,,,,,,,,-0.02,0.11,1.01,-3.2,0.3,0.1,780,0,,,,,,,,,,,,,,,,,,,
35409,1480725389051,,,,,,,,-0.02,0.11,1.01,-3.2,0.3,-0.1,800,0,,,,,,,,,,,,,,,,,,,
35429,1480725389071,,,,,,,,-0.03,0.09,1.0,-3.2,0.3,-0.1,800,0,,,,,,,,,,,,,,,,,,,
35449,1480725389092,0,59.2,,55.7,58,61.2,,-0.02,0.1,1.0,-3.2,0.3,0.0,780,0,1,0,0.0,0,38.159111,-122.454414,0.0,0.001,24.7,7,3,2.0,0,0.0,-1,0.0,0.0,0.0,0
35469,1480725389112,,,,,,,,-0.02,0.11,1.0,-3.3,0.4,0.1,800,0,,,,,,,,,,,,,,,,,,,
35489,1480725389132,,,,,,,,-0.01,0.11,1.01,-3.2,0.3,0.1,780,0,,,,,,,,,,,,,,,,,,,
35509,1480725389152,,,,,,,,-0.02,0.11,1.01,-3.2,0.3,-0.1,780,0,,,,,,,,,,,,,,,,,,,
35529,1480725389172,,,,,,,,-0.02,0.09,1.0,-3.2,0.4,-0.2,780,0,,,,,,,,,,,,,,,,,,,
35549,1480725389192,,,,,59,,,-0.01,0.1,1.0,-3.2,0.3,-0.0,760,0,1,0,0.0,0,38.159111,-122.454414,0.0,0.001,24.7,7,3,2.0,0,0.0,-1,0.0,,0.0,0
35569,1480725389212,,,,,,,,-0.01,0.1,1.0,-3.3,0.5,0.1,780,0,,,,,,,,,,,,,,,,,,,
35589,1480725389232,,,,,,,,-0.01,0.1,1.01,-3.2,0.3,0.1,760,0,,,,,,,,,,,,,,,,,,,
35609,1480725389252,,,,,,,,-0.02,0.1,1.01,-3.2,0.3,-0.1,780,0,,,,,,,,,,,,,,,,,,,
35629,1480725389272,,,,,,,,-0.01,0.1,1.01,-3.2,0.4,-0.1,780,0,,,,,,,,,,,,,,,,,,,
35649,1480725389292,0,60.5,,57.2,57,61.8,,-0.0,0.11,1.0,-3.3,0.4,0.1,740,0,1,0,0.0,0,38.159111,-122.454414,0.0,0.001,24.7,7,3,2.0,0,0.0,-1,0.0,0.0,0.0,0
35669,1480725389312,,,,,,,,-0.0,0.11,1.0,-3.3,0.4,0.1,760,15,,,,,,,,,,,,,,,,,,,
35689,1480725389332,,,,,,,,-0.01,0.1,1.01,-3.2,0.3,-0.1,740,15,,,,,,,,,,,,,,,,,,,
35709,1480725389352,,,,,,,,-0.01,0.1,1.0,-3.2,0.3,-0.1,740,15,,,,,,,,,,,,,,,,,,,
35729,1480725389372,,,,,,,,0.01,0.11,0.99,-3.3,0.4,0.0,760,15,,,,,,,,,,,,,,,,,,,
35749,1480725389491,,,,,58,,,0.0,0.11,1.0,-3.3,0.4,0.1,740,15,1,0,50.667,0,38.159111,-122.454414,0.0,0.001,24.7,7,3,2.0,0,0.0,-1,0.0,,0.0,0
35769,1480725389511,,,,,,,,0.0,0.1,1.01,-3.3,0.4,0.0,760,15,,,,,,,,,,,,,,,,,,,
35789,1480725389531,,,,,,,,0.0,0.09,1.0,-3.3,0.4,-0.1,760,15,,,,,,,,,,,,,,,,,,,
35809,1480725389551,,,,,,,,0.02,0.1,0.99,-3.3,0.6,0.1,720,15,,,,,,,,,,,,,,,,,,,
35829,1480725389571,,,,,,,,0.02,0.11,1.0,-3.3,0.6,0.3,740,15,,,,,,,,,,,,,,,,,,,
35849,1480725389591,0,60.4,,56.9,57,61.8,,0.01,0.09,1.0,-3.3,0.6,0.1,740,18,1,0,50.667,0,38.159111,-122.454414,0.0,0.001,24.7,7,3,2.0,0,0.0,-1,0.0,0.0,0.0,0
35869,1480725389611,,,,,,,,0.01,0.09,1.0,-3.4,0.6,0.0,740,18,,,,,,,,,,,,,,,,,,,
35889,1480725389631,,,,,,,,0.03,0.11,1.0,-3.4,0.9,0.3,760,20,,,,,,,,,,,,,,,,,,,
35909,1480725389651,,,,,,,,0.04,0.12,1.0,-3.5,0.8,0.4,740,20,,,,,,,,,,,,,,,,,,,
35929,1480725389671,,,,,,,,0.04,0.12,1.0,-3.5,0.7,0.3,760,20,,,,,,,,,,,,,,,,,,,
35949,1480725389592,,,,,55,,,0.04,0.11,1.0,-3.5,0.8,0.1,760,24,1,0,38.0,0,38.159111,-122.454414,0.0,0.001,24.7,7,3,2.0,0,0.0,-1,0.0,,0.0,0
35969,1480725389612,,,,,,,,0.06,0.13,0.99,-3.6,1.0,0.4,740,49,,,,,,,,,,,,,,,,,,,
35989,1480725389632,,,,,,,,0.06,0.13,0.99,-3.7,0.9,0.5,760,49,,,,,,,,,,,,,,,,,,,
36009,1480725389652,,,,,,,,0.05,0.13,0.99,-3.7,0.9,0.4,760,49,,,,,,,,,,,,,,,,,,,
36029,1480725389672,,,,,,,,0.05,0.12,0.99,-3.7,0.9,0.3,800,49,,,,,,,,,,,,,,,,,,,
36049,1480725389691,0,59.5,0.0,57.5,55,59.0,14.88,0.04,0.12,0.99,-3.8,1.2,0.4,800,20,1,0,15.51,0,38.159111,-122.454414,0.0,0.001,24.7,7,3,2.0,0,0.0,-1,0.0,0.0,0.0,0
36069,1480725389711,,,,,,,,0.05,0.12,0.98,-3.9,1.2,0.4,800,20,,,,,,,,,,,,,,,,,,,
36089,1480725389731,,,,,,,,0.05,0.12,0.98,-4.0,1.3,0.5,860,20,,,,,,,,,,,,,,,,,,,
36109,1480725389751,,,,,,,,0.05,0.12,0.98,-4.1,1.1,0.4,860,20,,,,,,,,,,,,,,,,,,,
36129,1480725389771,,,,,,,,0.04,0.11,0.97,-4.2,1.2,0.3,920,20,,,,,,,,,,,,,,,,,,,
36149,1480725389791,,,,,59,,,0.04,0.1,0.97,-4.2,1.1,0.1,920,20,1,0,43.0,0,38.159111,-122.454414,0.0,0.001,24.7,7,3,2.0,0,0.0,-1,0.0,,0.0,0
36169,1480725389811,,,,,,,,0.04,0.09,0.96,-4.2,1.0,-0.0,980,16,,,,,,,,,,,,,,,,,,,
36189,1480725389831,,,,,,,,0.04,0.09,0.95,-4.2,1.0,-0.1,980,16,,,,,,,,,,,,,,,,,,,
36209,1480725389851,,,,,,,,0.04,0.09,0.94,-4.2,0.7,-0.2,1020,18,,,,,,,,,,,,,,,,,,,
36229,1480725389871,,,,,,,,0.04,0.09,0.93,-4.2,0.5,-0.2,1020,66,,,,,,,,,,,,,,,,,,,
36249,1480725389891,0,60.2,,56.7,64,61.8,,0.04,0.07,0.92,-4.2,0.1,-0.1,1040,93,1,0,61.25,0,38.159111,-122.454414,0.0,0.001,24.7,7,3,2.0,0,0.0,-1,0.0,0.0,0.0,0
36269,1480725389904,,,,,,,,0.04,0.07,0.93,-4.2,-0.1,-0.1,1060,96,,,,,,,,,,,,,,,,,,,
36289,1480725389924,,,,,,,,0.04,0.07,0.93,-4.2,-0.2,-0.2,1080,83,,,,,,,,,,,,,,,,,,,
36309,1480725389944,,,,,,,,0.04,0.07,0.94,-4.2,-0.3,-0.2,1100,81,,,,,,,,,,,,,,,,,,,
36329,1480725389964,,,,,,,,0.03,0.08,0.95,-4.2,-0.6,-0.1,1100,76,,,,,,,,,,,,,,,,,,,
36349,1480725389992,,,,,67,,,0.03,0.08,0.96,-4.2,-0.7,-0.1,1100,70,1,0,13.012,0,38.159111,-122.454414,0.0,0.001,24.7,7,3,2.0,0,0.0,-1,0.0,,0.0,0
36369,1480725390012,,,,,,,,0.02,0.08,0.97,-4.2,-0.9,-0.0,1100,72,,,,,,,,,,,,,,,,,,,
36389,1480725390032,,,,,,,,0.02,0.08,0.99,-4.2,-0.8,-0.0,1100,80,,,,,,,,,,,,,,,,,,,
36409,1480725390052,,,,,,,,0.01,0.08,1.0,-4.2,-0.8,-0.1,1100,84,,,,,,,,,,,,,,,,,,,
36429,1480725390072,,,,,,,,0.01,0.08,1.01,-4.2,-0.7,-0.1,1100,81,,,,,,,,,,,,,,,,,,,
36449,1480725390092,0,60.5,,58.1,67,61.1,,0.01,0.09,1.02,-4.2,-0.5,-0.1,1080,75,1,0,13.75,0,38.159111,-122.454414,0.0,0.001,24.7,7,3,2.0,0,0.0,-1,0.0,0.0,0.0,0
36469,1480725390112,,,,,,,,0.0,0.09,1.03,-4.2,-0.2,-0.1,1080,69,,,,,,,,,,,,,,,,,,,
36489,1480725390132,,,,,,,,-0.0,0.09,1.03,-4.2,0.0,-0.0,1060,69,,,,,,,,,,,,,,,,,,,
36509,1480725390152,,,,,,,,-0.01,0.09,1.03,-4.2,0.3,0.1,1060,72,,,,,,,,,,,,,,,,,,,
36529,1480725390172,,,,,,,,-0.02,0.09,1.04,-4.2,0.4,0.1,1060,75,,,,,,,,,,,,,,,,,,,
36549,1480725390192,,,,,64,,,-0.03,0.09,1.03,-4.2,0.5,0.2,1060,73,1,0,15.362,0,38.159111,-122.454414,0.0,0.001,24.7,7,3,2.0,0,0.0,-1,0.0,,0.0,0
36569,1480725390307,,,,,,,,-0.03,0.09,1.03,-4.2,0.6,0.2,1040,69,,,,,,,,,,,,,,,,,,,
36589,1480725390327,,,,,,,,-0.03,0.09,1.02,-4.3,0.7,0.2,1020,64,,,,,,,,,,,,,,,,,,,
36609,1480725390347,,,,,,,,-0.03,0.09,1.02,-4.3,0.8,0.2,1000,64,,,,,,,,,,,,,,,,,,,
36629,1480725390367,,,,,,,,-0.03,0.1,1.01,-4.3,0.9,0.2,1000,61,,,,,,,,,,,,,,,,,,,
36649,1480725390387,0,60.1,,57.8,63,59.7,,-0.03,0.1,1.0,-4.3,1.0,0.2,1000,63,1,0,14.783,0,38.159122,-122.454414,0.99,0.002,32.3,7,3,2.0,0,0.0,-1,0.0,0.0,0.0,0
36669,1480725390407,,,,,,,,-0.03,0.11,1.0,-4.4,1.1,0.1,980,67,,,,,,,,,,,,,,,,,,,
36689,1480725390427,,,,,,,,-0.03,0.11,0.99,-4.4,1.1,0.0,960,69,,,,,,,,,,,,,,,,,,,
36709,1480725390447,,,,,,,,-0.03,0.11,0.99,-4.4,1.1,0.0,960,66,,,,,,,,,,,,,,,,,,,
36729,1480725390467,,,,,,,,-0.03,0.12,0.99,-4.4,1.1,-0.0,940,64,,,,,,,,,,,,,,,,,,,
36749,1480725390392,,,,,59,,,-0.03,0.12,0.98,-4.5,1.0,-0.0,940,64,1,0,13.913,0,38.159122,-122.454414,1.1,0.002,32.3,7,3,2.0,0,0.0,-1,0.0,,0.0,0
36769,1480725390412,,,,,,,,-0.03,0.12,0.99,-4.4,0.8,-0.0,940,64,,,,,,,,,,,,,,,,,,,
36789,1480725390432,,,,,,,,-0.04,0.12,0.99,-4.4,0.6,-0.1,940,66,,,,,,,,,,,,,,,,,,,
36809,1480725390452,,,,,,,,-0.04,0.12,0.99,-4.4,0.6,-0.1,920,67,,,,,,,,,,,,,,,,,,,
36829,1480725390472,,,,,,,,-0.05,0.12,1.0,-4.3,0.6,-0.1,920,67,,,,,,,,,,,,,,,,,,,
36849,1480725390492,0,60.5,,58.1,59,61.0,,-0.05,0.11,1.0,-4.3,0.6,-0.2,920,66,1,0,14.242,0,38.159122,-122.454414,1.19,0.002,32.3,7,3,2.0,0,0.0,-1,0.0,0.0,0.0,0
36869,1480725390512,,,,,,,,-0.06,0.11,1.0,-4.2,0.6,-0.2,920,66,,,,,,,,,,,,,,,,,,,
36889,1480725390532,,,,,,,,-0.06,0.11,1.0,-4.2,0.6,-0.3,920,66,,,,,,,,,,,,,,,,,,,
36909,1480725390552,,,,,,,,-0.06,0.1,1.0,-4.1,0.6,-0.3,900,64,,,,,,,,,,,,,,,,,,,
36929,1480725390572,,,,,,,,-0.06,0.1,1.0,-4.1,0.5,-0.4,900,66,,,,,,,,,,,,,,,,,,,
36949,1480725390592,,,,,57,,,-0.06,0.1,1.0,-4.1,0.4,-0.4,900,64,1,0,13.939,0,38.159122,-122.454414,1.18,0.002,32.3,7,3,2.0,0,0.0,-1,0.0,,0.0,0
36969,1480725390612,,,,,,,,-0.06,0.1,1.01,-4.1,0.4,-0.4,900,64,,,,,,,,,,,,,,,,,,,
36989,1480725390632,,,,,,,,-0.05,0.1,1.01,-4.1,0.5,-0.4,880,63,,,,,,,,,,,,,,,,,,,
37009,1480725390652,,,,,,,,-0.05,0.1,1.01,-4.1,0.6,-0.3,880,61,,,,,,,,,,,,,,,,,,,
37029,1480725390672,,,,,,,,-0.05,0.1,1.01,-4.1,0.5,-0.3,880,61,,,,,,,,,,,,,,,,,,,
37049,1480725390692,0,58.1,0.0,56.4,58,60.4,14.88,-0.06,0.1,1.02,-4.0,0.5,-0.3,880,63,1,0,13.968,0,38.159122,-122.454414,1.18,0.002,32.2,7,3,2.0,0,0.0,-1,0.0,0.0,0.0,0
37069,1480725390712,,,,,,,,-0.06,0.1,1.02,-4.0,0.6,-0.4,880,64,,,,,,,,,,,,,,,,,,,
37089,1480725390732,,,,,,,,-0.06,0.09,1.01,-3.9,0.6,-0.5,880,64,,,,,,,,,,,,,,,,,,,
37109,1480725390752,,,,,,,,-0.06,0.09,1.01,-3.9,0.7,-0.5,860,63,,,,,,,,,,,,,,,,,,,
