"Interval"|"ms"|0|0|1,"Utc"|"ms"|0|0|1,"FuelLevel"|"F"|0|100|5,"OilTemp"|"F"|0.0|300.0|5,"CoolantPressPSI"|"PSI"|0.0|20.0|1,"Coolant"|"F"|0.0|300.0|5,"OilPress"|"PSI"|0|150|10,"EngineTemp"|"F"|0.0|300.0|5,"Battery"|"Volts"|0.0|20.0|1,"AccelX"|"G"|-3.0|3.0|50,"AccelY"|"G"|-3.0|3.0|50,"AccelZ"|"G"|-3.0|3.0|50,"Yaw"|"Deg/Sec"|-300.0|300.0|50,"Pitch"|"Deg/Sec"|-300.0|300.0|50,"Roll"|"Deg/Sec"|-300.0|300.0|50,"RPM"|""|0|10000|50,"Driveshaft"|"RPM"|0|5000|50,"GPIO1"|""|0|1|10,"GPIO2"|""|0|1|10,"GearRatio"|""|-5.0|5.0|10,"Gear"|""|-1|5|10,"Latitude"|"Degrees"|-180.0|180.0|10,"Longitude"|"Degrees"|-180.0|180.0|10,"Speed"|"MPH"|0.0|150.0|10,"Distance"|"Miles"|0.0|0.0|10,"Altitude"|"Feet"|0.0|4000.0|10,"GPSSats"|""|0|20|10,"GPSQual"|""|0|5|10,"GPSDOP"|""|0.0|20.0|10,"LapCount"|""|0|0|10,"LapTime"|"Min"|0.0|0.0|10,"Sector"|""|0|0|10,"SectorTime"|"Min"|0.0|0.0|10,"PredTime"|"Min"|0.0|0.0|5,"ElapsedTime"|"Min"|0.0|0.0|10,"CurrentLap"|""|0|0|10
337509,1480726734479,,,,,,,,-0.0,0.04,0.98,-3.1,0.4,-0.1,780,0,,,,,,,,,,,,,,,,,,,
,,,,,,,,,,,,,,,,,,,,,,,,,,,,,,,,,,,
337349,1480726734417,,,,,1,,,-0.01,0.04,0.98,-3.1,0.4,-0.0,300,0,1,0,0.0,0,38.160191,-122.45356,0.0,0.013,140910960.0,10,2,1.7,0,0.0,-1,0.0,,0.0,0
337369,1480726734437,,,,,,,,-0.0,0.04,0.98,-3.1,0.4,-0.0,300,0,,,,,,,,,,,,,,,,,,,
337389,1480726734457,,,,,,,,-0.01,0.04,0.99,-3.1,0.3,-0.1,300,0,,,,,,,,,,,,,,,,,,,
337409,1480726734477,,,,,,,,-0.0,0.05,0.99,-3.1,0.4,-0.0,360,0,,,,,,,,,,,,,,,,,,,
337429,1480726734399,,,,,,,,-0.0,0.04,0.98,-3.0,0.3,0.0,360,0,,,,,,,,,,,,,,,,,,,
337449,1480726734419,0,76.7,,116.0,1,106.2,,-0.0,0.06,0.98,-3.1,0.4,0.1,500,0,1,0,0.0,0,38.160191,-122.45356,0.0,0.013,140910960.0,10,2,1.7,0,0.0,-1,0.0,0.0,0.0,0
337469,1480726734439,,,,,,,,-0.0,0.06,0.99,-3.1,0.4,0.1,680,0,,,,,,,,,,,,,,,,,,,
337489,1480726734459,,,,,,,,-0.01,0.05,0.98,-3.1,0.3,-0.1,780,0,,,,,,,,,,,,,,,,,,,
337509,1480726734479,,,,,,,,-0.0,0.04,0.98,-3.1,0.4,-0.1,780,0,,,,,,,,,,,,,,,,,,,
337529,1480726734498,,,,,,,,-0.0,0.04,0.97,-3.1,0.2,-0.0,860,0,,,,,,,,,,,,,,,,,,,
337549,1480726734518,,,,,4,,,0.0,0.04,0.97,-3.2,0.6,0.1,880,0,1,0,0.0,0,38.160191,-122.45356,0.0,0.013,140910960.0,10,2,1.7,0,0.0,-1,0.0,,0.0,0
337569,1480726734538,,,,,,,,0.01,0.06,0.98,-3.2,0.7,0.3,820,0,,,,,,,,,,,,,,,,,,,
337589,1480726734558,,,,,,,,0.0,0.07,0.98,-3.2,0.5,0.4,780,0,,,,,,,,,,,,,,,,,,,
337609,1480726734578,,,,,,,,0.01,0.07,0.97,-3.2,0.5,0.3,780,0,,,,,,,,,,,,,,,,,,,
337629,1480726734598,,,,,,,,0.01,0.07,0.99,-3.2,0.5,0.3,780,0,,,,,,,,,,,,,,,,,,,
337649,1480726734618,0,79.5,,116.6,5,104.8,,0.01,0.07,0.98,-3.2,0.6,0.3,800,0,1,0,0.0,0,38.160191,-122.45356,0.0,0.013,140910960.0,10,2,1.7,0,0.0,-1,0.0,0.0,0.0,0
337669,1480726734638,,,,,,,,0.02,0.07,0.98,-3.2,0.7,0.2,820,0,,,,,,,,,,,,,,,,,,,
337689,1480726734658,,,,,,,,0.02,0.08,0.99,-3.2,0.5,0.2,800,0,,,,,,,,,,,,,,,,,,,
337709,1480726734678,,,,,,,,0.01,0.08,0.99,-3.2,0.6,0.2,780,0,,,,,,,,,,,,,,,,,,,
337729,1480726734699,,,,,,,,0.02,0.07,0.98,-3.2,0.6,0.2,780,0,,,,,,,,,,,,,,,,,,,
337749,1480726734719,,,,,7,,,0.01,0.08,0.99,-3.2,0.5,0.3,740,0,1,0,0.0,0,38.160191,-122.45356,0.0,0.013,140910960.0,10,2,1.7,0,0.0,-1,0.0,,0.0,0
337769,1480726734739,,,,,,,,0.01,0.09,0.98,-3.2,0.4,0.3,780,0,,,,,,,,,,,,,,,,,,,
337789,1480726734759,,,,,,,,0.01,0.09,0.99,-3.1,0.4,0.1,780,0,,,,,,,,,,,,,,,,,,,
337809,1480726734779,,,,,,,,0.01,0.08,0.99,-3.1,0.4,0.1,800,0,,,,,,,,,,,,,,,,,,,
337829,1480726734798,,,,,,,,0.01,0.08,0.99,-3.1,0.5,0.1,800,0,,,,,,,,,,,,,,,,,,,
337849,1480726734818,0,77.0,,115.1,8,106.0,,0.01,0.09,0.99,-3.1,0.5,0.2,800,0,1,0,0.0,0,38.160191,-122.45356,0.0,0.013,140910960.0,10,2,1.7,0,0.0,-1,0.0,0.0,0.0,0
337869,1480726734838,,,,,,,,0.02,0.09,1.0,-3.1,0.5,0.2,800,0,,,,,,,,,,,,,,,,,,,
337889,1480726734858,,,,,,,,0.01,0.08,1.0,-3.1,0.4,0.2,820,0,,,,,,,,,,,,,,,,,,,
337909,1480726734878,,,,,,,,0.01,0.08,1.0,-3.1,0.5,0.1,820,0,,,,,,,,,,,,,,,,,,,
337929,1480726734893,,,,,,,,0.01,0.08,1.0,-3.1,0.6,0.1,820,0,,,,,,,,,,,,,,,,,,,
337949,1480726734913,,,,,11,,,0.01,0.08,1.0,-3.1,0.5,0.1,800,0,1,0,0.0,0,38.160191,-122.45356,0.0,0.013,140910960.0,10,2,1.7,0,0.0,-1,0.0,,0.0,0
337969,1480726734933,,,,,,,,0.01,0.08,1.0,-3.2,0.5,0.1,800,0,,,,,,,,,,,,,,,,,,,
337989,1480726734953,,,,,,,,0.01,0.08,1.01,-3.2,0.4,0.2,780,0,,,,,,,,,,,,,,,,,,,
338009,1480726734973,,,,,,,,0.01,0.08,1.01,-3.1,0.5,0.2,780,0,,,,,,,,,,,,,,,,,,,
338029,1480726735097,,,,,,,,0.01,0.08,1.0,-3.1,0.5,0.2,780,0,,,,,,,,,,,,,,,,,,,
338049,1480726735117,0,77.3,0.0,115.8,13,106.7,14.85,0.01,0.08,1.0,-3.1,0.3,0.2,760,0,1,0,0.0,0,38.160191,-122.45356,0.0,0.013,140910960.0,10,2,1.4,0,0.0,-1,0.0,0.0,0.0,0
338069,1480726735137,,,,,,,,0.01,0.08,1.0,-3.1,0.4,0.2,740,0,,,,,,,,,,,,,,,,,,,
338089,1480726735157,,,,,,,,0.01,0.08,1.01,-3.1,0.4,0.1,720,0,,,,,,,,,,,,,,,,,,,
338109,1480726735177,,,,,,,,0.01,0.08,1.01,-3.1,0.3,0.2,720,0,,,,,,,,,,,,,,,,,,,
338129,1480726735197,,,,,,,,0.01,0.08,1.01,-3.1,0.3,0.2,680,0,,,,,,,,,,,,,,,,,,,
338149,1480726735217,,,,,16,,,0.01,0.07,1.01,-3.1,0.3,0.2,660,0,1,0,0.0,0,38.160191,-122.45356,0.0,0.013,140910960.0,10,2,1.4,0,0.0,-1,0.0,,0.0,0
338169,1480726735237,,,,,,,,0.01,0.07,1.01,-3.1,0.4,0.2,660,0,,,,,,,,,,,,,,,,,,,
338189,1480726735257,,,,,,,,0.01,0.07,1.01,-3.1,0.4,0.2,620,0,,,,,,,,,,,,,,,,,,,
338209,1480726735277,,,,,,,,0.01,0.07,1.01,-3.1,0.4,0.2,620,0,,,,,,,,,,,,,,,,,,,
338229,1480726735198,,,,,,,,0.01,0.07,1.0,-3.1,0.4,0.2,580,0,,,,,,,,,,,,,,,,,,,
338249,1480726735218,0,79.8,,117.3,19,106.5,,0.01,0.07,1.0,-3.1,0.4,0.2,540,0,1,0,0.0,0,38.160191,-122.45356,0.0,0.013,140910960.0,10,2,1.4,0,0.0,-1,0.0,0.0,0.0,0
338269,1480726735238,,,,,,,,0.01,0.07,1.0,-3.1,0.4,0.2,540,0,,,,,,,,,,,,,,,,,,,
338289,1480726735258,,,,,,,,0.02,0.06,1.0,-3.1,0.5,0.2,480,0,,,,,,,,,,,,,,,,,,,
338309,1480726735278,,,,,,,,0.02,0.06,1.01,-3.1,0.5,0.1,480,0,,,,,,,,,,,,,,,,,,,
338329,1480726735298,,,,,,,,0.02,0.07,1.01,-3.1,0.5,0.1,480,0,,,,,,,,,,,,,,,,,,,
338349,1480726735318,,,,,20,,,0.02,0.07,1.01,-3.1,0.5,0.2,440,0,1,0,0.0,0,38.160191,-122.45356,0.0,0.013,140910960.0,10,2,1.4,0,0.0,-1,0.0,,0.0,0
338369,1480726735338,,,,,,,,0.02,0.07,1.01,-3.1,0.5,0.2,440,0,,,,,,,,,,,,,,,,,,,
338389,1480726735358,,,,,,,,0.02,0.06,1.01,-3.1,0.5,0.2,400,0,,,,,,,,,,,,,,,,,,,
338409,1480726735378,,,,,,,,0.01,0.06,1.01,-3.1,0.5,0.2,400,0,,,,,,,,,,,,,,,,,,,
338429,1480726735398,,,,,,,,0.01,0.07,1.01,-3.1,0.5,0.2,400,0,,,,,,,,,,,,,,,,,,,
338449,1480726735418,0,76.7,,115.0,19,106.3,,0.01,0.07,1.01,-3.1,0.5,0.2,360,0,1,0,0.0,0,38.160191,-122.45356,0.0,0.013,140910960.0,10,2,1.4,0,0.0,-1,0.0,0.0,0.0,0
338469,1480726735438,,,,,,,,0.01,0.07,1.01,-3.1,0.5,0.2,360,0,,,,,,,,,,,,,,,,,,,
338489,1480726735458,,,,,,,,0.01,0.07,1.01,-3.1,0.5,0.2,360,0,,,,,,,,,,,,,,,,,,,
338509,1480726735478,,,,,,,,0.01,0.07,1.01,-3.1,0.5,0.2,280,0,,,,,,,,,,,,,,,,,,,
338529,1480726735498,,,,,,,,0.01,0.07,1.01,-3.1,0.5,0.2,280,0,,,,,,,,,,,,,,,,,,,
338549,1480726735518,,,,,20,,,0.01,0.07,1.0,-3.1,0.5,0.2,280,0,1,0,0.0,0,38.160191,-122.45356,0.0,0.013,140910960.0,10,2,1.4,0,0.0,-1,0.0,,0.0,0
338569,1480726735538,,,,,,,,0.01,0.07,1.01,-3.1,0.5,0.2,280,0,,,,,,,,,,,,,,,,,,,
338589,1480726735558,,,,,,,,0.01,0.07,1.01,-3.1,0.5,0.2,260,0,,,,,,,,,,,,,,,,,,,
338609,1480726735578,,,,,,,,0.01,0.07,1.01,-3.1,0.5,0.2,260,0,,,,,,,,,,,,,,,,,,,
338629,1480726735599,,,,,,,,0.02,0.08,1.01,-3.1,0.4,0.2,260,0,,,,,,,,,,,,,,,,,,,
338649,1480726735619,0,77.0,,115.3,19,106.4,,0.01,0.07,1.01,-3.1,0.4,0.2,260,0,1,0,0.0,0,38.160191,-122.45356,0.0,0.013,140910960.0,10,2,1.4,0,0.0,-1,0.0,0.0,0.0,0
338669,1480726735639,,,,,,,,0.01,0.08,1.01,-3.1,0.4,0.2,220,0,,,,,,,,,,,,,,,,,,,
338689,1480726735659,,,,,,,,0.01,0.07,1.01,-3.1,0.4,0.2,220,0,,,,,,,,,,,,,,,,,,,
338709,1480726735679,,,,,,,,0.01,0.08,1.01,-3.1,0.4,0.2,220,0,,,,,,,,,,,,,,,,,,,
338729,1480726735699,,,,,,,,0.02,0.08,1.01,-3.1,0.4,0.2,220,0,,,,,,,,,,,,,,,,,,,
338749,1480726735719,,,,,20,,,0.01,0.08,1.01,-3.1,0.4,0.2,220,0,1,0,0.0,0,38.160191,-122.45356,0.0,0.013,140910960.0,10,2,1.4,0,0.0,-1,0.0,,0.0,0
338769,1480726735739,,,,,,,,0.01,0.08,1.01,-3.1,0.4,0.2,180,0,,,,,,,,,,,,,,,,,,,
338789,1480726735759,,,,,,,,0.02,0.08,1.01,-3.1,0.5,0.2,180,0,,,,,,,,,,,,,,,,,,,
338809,1480726735779,,,,,,,,0.01,0.08,1.01,-3.1,0.5,0.2,180,0,,,,,,,,,,,,,,,,,,,
338829,1480726735897,,,,,,,,0.01,0.08,1.01,-3.1,0.5,0.2,180,0,,,,,,,,,,,,,,,,,,,
338849,1480726735917,0,78.5,,114.7,21,104.5,,0.01,0.08,1.01,-3.1,0.5,0.2,180,0,1,0,0.0,0,38.160191,-122.45356,0.0,0.013,140910960.0,10,2,1.4,0,0.0,-1,0.0,0.0,0.0,0
338869,1480726735937,,,,,,,,0.01,0.08,1.01,-3.1,0.5,0.2,180,0,,,,,,,,,,,,,,,,,,,
338889,1480726735957,,,,,,,,0.01,0.08,1.01,-3.1,0.5,0.2,180,0,,,,,,,,,,,,,,,,,,,
338909,1480726735977,,,,,,,,0.02,0.08,1.01,-3.1,0.5,0.2,5360,0,,,,,,,,,,,,,,,,,,,
338929,1480726735997,,,,,,,,0.02,0.07,1.01,-3.1,0.5,0.2,5360,0,,,,,,,,,,,,,,,,,,,
338949,1480726736017,,,,,20,,,0.01,0.07,1.01,-3.1,0.5,0.3,5360,0,1,0,0.0,0,38.160191,-122.45356,0.0,0.013,140910960.0,10,2,1.4,0,0.0,-1,0.0,,0.0,0
338969,1480726736037,,,,,,,,0.01,0.07,1.01,-3.1,0.5,0.2,5360,0,,,,,,,,,,,,,,,,,,,
338989,1480726736057,,,,,,,,0.01,0.07,1.0,-3.1,0.5,0.2,5360,0,,,,,,,,,,,,,,,,,,,
339009,1480726736077,,,,,,,,0.01,0.07,1.0,-3.1,0.5,0.2,5360,0,,,,,,,,,,,,,,,,,,,
339029,1480726735998,,,,,,,,0.01,0.08,1.0,-3.1,0.5,0.1,5360,0,,,,,,,,,,,,,,,,,,,
339049,1480726736018,0,79.1,0.0,115.7,19,104.2,12.14,0.01,0.08,1.0,-3.1,0.5,0.2,0,0,1,0,0.0,0,38.160191,-122.45356,0.0,0.013,140910960.0,10,2,1.4,0,0.0,-1,0.0,0.0,0.0,0
339069,1480726736038,,,,,,,,0.01,0.08,1.0,-3.1,0.5,0.2,0,0,,,,,,,,,,,,,,,,,,,
339089,1480726736058,,,,,,,,0.01,0.08,1.0,-3.1,0.5,0.2,0,0,,,,,,,,,,,,,,,,,,,
339109,1480726736078,,,,,,,,0.01,0.08,1.0,-3.1,0.5,0.2,260,0,,,,,,,,,,,,,,,,,,,
339129,1480726736097,,,,,,,,0.01,0.07,1.0,-3.1,0.5,0.2,260,0,,,,,,,,,,,,,,,,,,,
339149,1480726736117,,,,,18,,,0.01,0.07,1.0,-3.1,0.5,0.2,260,0,1,0,0.0,0,38.160191,-122.45356,0.0,0.013,140910960.0,10,2,1.4,0,0.0,-1,0.0,,0.0,0
339169,1480726736137,,,,,,,,0.01,0.07,1.0,-3.1,0.4,0.2,260,0,,,,,,,,,,,,,,,,,,,
339189,1480726736157,,,,,,,,0.01,0.08,1.0,-3.1,0.4,0.2,260,0,,,,,,,,,,,,,,,,,,,
339209,1480726736177,,,,,,,,0.01,0.08,1.0,-3.1,0.4,0.2,260,0,,,,,,,,,,,,,,,,,,,
339229,1480726736198,,,,,,,,0.01,0.08,1.0,-3.1,0.5,0.2,260,0,,,,,,,,,,,,,,,,,,,
339249,1480726736218,0,78.1,,116.7,17,107.0,,0.02,0.07,1.0,-3.1,0.5,0.2,20000000,0,1,0,0.0,0,38.160191,-122.45356,0.0,0.013,140910960.0,10,2,1.4,0,0.0,-1,0.0,0.0,0.0,0
339269,1480726736238,,,,,,,,0.02,0.07,1.0,-3.1,0.4,0.2,0,0,,,,,,,,,,,,,,,,,,,
339289,1480726736258,,,,,,,,0.02,0.07,1.0,-3.1,0.4,0.2,0,0,,,,,,,,,,,,,,,,,,,
339309,1480726736278,,,,,,,,0.02,0.08,1.0,-3.1,0.4,0.2,0,0,,,,,,,,,,,,,,,,,,,
339329,1480726736297,,,,,,,,0.02,0.08,1.0,-3.1,0.4,0.2,0,0,,,,,,,,,,,,,,,,,,,
339349,1480726736317,,,,,17,,,0.02,0.08,1.0,-3.1,0.5,0.2,0,0,1,0,0.0,0,38.160191,-122.45356,0.0,0.013,140910960.0,10,2,1.4,0,0.0,-1,0.0,,0.0,0
339369,1480726736337,,,,,,,,0.02,0.08,1.0,-3.1,0.5,0.2,0,0,,,,,,,,,,,,,,,,,,,
339389,1480726736357,,,,,,,,0.02,0.08,1.0,-3.1,0.5,0.2,0,0,,,,,,,,,,,,,,,,,,,
339409,1480726736377,,,,,,,,0.02,0.08,1.0,-3.1,0.5,0.2,0,0,,,,,,,,,,,,,,,,,,,
339429,1480726736398,,,,,,,,0.02,0.07,1.0,-3.1,0.5,0.2,0,0,,,,,,,,,,,,,,,,,,,
339449,1480726736418,0,78.0,,116.5,16,106.9,,0.02,0.07,1.0,-3.1,0.5,0.2,0,0,1,0,0.0,0,38.160191,-122.45356,0.0,0.013,140910960.0,10,2,1.4,0,0.0,-1,0.0,0.0,0.0,0
339469,1480726736438,,,,,,,,0.02,0.07,1.0,-3.1,0.5,0.2,0,0,,,,,,,,,,,,,,,,,,,
339489,1480726736458,,,,,,,,0.02,0.07,1.0,-3.1,0.5,0.2,0,0,,,,,,,,,,,,,,,,,,,
339509,1480726736478,,,,,,,,0.02,0.08,1.01,-3.1,0.5,0.2,0,0,,,,,,,,,,,,,,,,,,,
339529,1480726736498,,,,,,,,0.02,0.08,1.01,-3.1,0.5,0.2,0,0,,,,,,,,,,,,,,,,,,,
339549,1480726736518,,,,,16,,,0.02,0.08,1.01,-3.1,0.5,0.2,0,0,1,0,0.0,0,38.160191,-122.45356,0.0,0.013,140910960.0,10,2,1.4,0,0.0,-1,0.0,,0.0,0
339569,1480726736538,,,,,,,,0.01,0.08,1.0,-3.1,0.5,0.2,0,0,,,,,,,,,,,,,,,,,,,
339589,1480726736558,,,,,,,,0.01,0.08,1.01,-3.1,0.5,0.2,0,0,,,,,,,,,,,,,,,,,,,
339609,1480726736578,,,,,,,,0.02,0.08,1.01,-3.1,0.6,0.2,0,0,,,,,,,,,,,,,,,,,,,
339629,1480726736697,,,,,,,,0.02,0.08,1.01,-3.1,0.6,0.2,0,0,,,,,,,,,,,,,,,,,,,
339649,1480726736717,0,79.7,,116.6,15,104.5,,0.02,0.08,1.01,-3.1,0.6,0.2,0,0,1,0,0.0,0,38.160191,-122.45356,0.0,0.013,140910960.0,10,2,1.4,0,0.0,-1,0.0,0.0,0.0,0
339669,1480726736737,,,,,,,,0.02,0.08,1.01,-3.1,0.6,0.2,0,0,,,,,,,,,,,,,,,,,,,
339689,1480726736757,,,,,,,,0.02,0.07,1.01,-3.1,0.6,0.2,0,0,,,,,,,,,,,,,,,,,,,
339709,1480726736777,,,,,,,,0.02,0.07,1.01,-3.1,0.5,0.2,0,0,,,,,,,,,,,,,,,,,,,
339729,1480726736797,,,,,,,,0.02,0.08,1.01,-3.1,0.5,0.2,0,0,,,,,,,,,,,,,,,,,,,
339749,1480726736817,,,,,14,,,0.02,0.08,1.01,-3.1,0.5,0.2,0,0,1,0,0.0,0,38.160191,-122.45356,0.0,0.013,140910960.0,10,2,1.4,0,0.0,-1,0.0,,0.0,0
339769,1480726736837,,,,,,,,0.02,0.08,1.01,-3.1,0.5,0.2,0,0,,,,,,,,,,,,,,,,,,,
339789,1480726736857,,,,,,,,0.02,0.08,1.01,-3.2,0.5,0.2,0,0,,,,,,,,,,,,,,,,,,,
339809,1480726736877,,,,,,,,0.02,0.08,1.01,-3.2,0.5,0.2,0,0,,,,,,,,,,,,,,,,,,,
339829,1480726736798,,,,,,,,0.02,0.08,1.01,-3.2,0.5,0.2,0,0,,,,,,,,,,,,,,,,,,,
339849,1480726736818,0,78.2,,116.9,13,107.0,,0.02,0.08,1.01,-3.2,0.5,0.2,0,0,1,0,0.0,0,38.160191,-122.45356,0.0,0.013,140910960.0,10,2,1.4,0,0.0,-1,0.0,0.0,0.0,0
339869,1480726736838,,,,,,,,0.02,0.08,1.01,-3.2,0.5,0.2,0,0,,,,,,,,,,,,,,,,,,,
339889,1480726736858,,,,,,,,0.02,0.08,1.01,-3.2,0.5,0.2,0,0,,,,,,,,,,,,,,,,,,,
339909,1480726736878,,,,,,,,0.02,0.08,1.0,-3.1,0.5,0.2,0,0,,,,,,,,,,,,,,,,,,,
339929,1480726736893,,,,,,,,0.02,0.08,1.0,-3.1,0.5,0.2,0,0,,,,,,,,,,,,,,,,,,,
339949,1480726736913,,,,,13,,,0.02,0.08,1.0,-3.1,0.5,0.2,0,0,1,0,0.0,0,38.160191,-122.45356,0.0,0.013,140910960.0,10,2,1.4,0,0.0,-1,0.0,,0.0,0
339969,1480726736933,,,,,,,,0.02,0.07,1.0,-3.2,0.5,0.2,0,0,,,,,,,,,,,,,,,,,,,
339989,1480726736953,,,,,,,,0.02,0.08,1.0,-3.1,0.5,0.2,0,0,,,,,,,,,,,,,,,,,,,
340009,1480726736973,,,,,,,,0.02,0.08,1.01,-3.1,0.5,0.2,0,0,,,,,,,,,,,,,,,,,,,
340029,1480726736998,,,,,,,,0.02,0.08,1.01,-3.1,0.5,0.2,0,0,,,,,,,,,,,,,,,,,,,
340049,1480726737018,0,78.1,0.0,116.9,13,107.0,12.32,0.02,0.08,1.01,-3.1,0.5,0.2,0,0,1,0,0.0,0,38.160191,-122.45356,0.0,0.013,140910960.0,10,2,1.4,0,0.0,-1,0.0,0.0,0.0,0
340069,1480726737038,,,,,,,,0.02,0.08,1.0,-3.1,0.4,0.2,0,0,,,,,,,,,,,,,,,,,,,
340089,1480726737058,,,,,,,,0.02,0.08,1.0,-3.1,0.4,0.2,0,0,,,,,,,,,,,,,,,,,,,
340109,1480726737078,,,,,,,,0.02,0.08,1.0,-3.1,0.4,0.2,0,0,,,,,,,,,,,,,,,,,,,
340129,1480726737098,,,,,,,,0.02,0.08,1.01,-3.1,0.4,0.2,0,0,,,,,,,,,,,,,,,,,,,
340149,1480726737118,,,,,12,,,0.02,0.08,1.01,-3.1,0.4,0.2,0,0,1,0,0.0,0,38.160191,-122.45356,0.0,0.013,140910960.0,10,2,1.4,0,0.0,-1,0.0,,0.0,0
340169,1480726737138,,,,,,,,0.02,0.08,1.01,-3.2,0.5,0.2,0,0,,,,,,,,,,,,,,,,,,,
340189,1480726737158,,,,,,,,0.02,0.07,1.01,-3.2,0.5,0.2,0,0,,,,,,,,,,,,,,,,,,,
340209,1480726737178,,,,,,,,0.02,0.07,1.0,-3.2,0.4,0.2,0,0,,,,,,,,,,,,,,,,,,,
340229,1480726737198,,,,,,,,0.02,0.08,1.0,-3.1,0.4,0.2,0,0,,,,,,,,,,,,,,,,,,,
340249,1480726737218,0,76.8,,115.2,12,106.0,,0.02,0.08,1.01,-3.1,0.4,0.2,0,0,1,0,0.0,0,38.160191,-122.45356,0.0,0.013,140910960.0,10,2,1.4,0,0.0,-1,0.0,0.0,0.0,0
340269,1480726737238,,,,,,,,0.02,0.08,1.01,-3.1,0.4,0.2,0,0,,,,,,,,,,,,,,,,,,,
340289,1480726737258,,,,,,,,0.02,0.08,1.01,-3.1,0.4,0.2,0,0,,,,,,,,,,,,,,,,,,,
340309,1480726737278,,,,,,,,0.02,0.07,1.01,-3.1,0.4,0.2,0,0,,,,,,,,,,,,,,,,,,,
340329,1480726737298,,,,,,,,0.02,0.07,1.01,-3.1,0.4,0.2,0,0,,,,,,,,,,,,,,,,,,,
340349,1480726737318,,,,,12,,,0.02,0.07,1.01,-3.1,0.4,0.2,0,0,1,0,0.0,0,38.160191,-122.45356,0.0,0.013,140910960.0,10,2,1.4,0,0.0,-1,0.0,,0.0,0
340369,1480726737338,,,,,,,,0.02,0.07,1.01,-3.1,0.4,0.2,0,0,,,,,,,,,,,,,,,,,,,
340389,1480726737358,,,,,,,,0.01,0.07,1.01,-3.1,0.4,0.2,0,0,,,,,,,,,,,,,,,,,,,
340409,1480726737378,,,,,,,,0.02,0.07,1.01,-3.1,0.4,0.2,0,0,,,,,,,,,,,,,,,,,,,
340429,1480726737498,,,,,,,,0.02,0.07,1.01,-3.1,0.4,0.2,0,0,,,,,,,,,,,,,,,,,,,
340449,1480726737518,0,77.4,,115.0,11,105.4,,0.02,0.07,1.01,-3.1,0.4,0.2,0,0,1,0,0.0,0,38.160191,-122.45356,0.0,0.013,140910960.0,10,2,1.4,0,0.0,-1,0.0,0.0,0.0,0
340469,1480726737538,,,,,,,,0.02,0.07,1.01,-3.1,0.4,0.2,0,0,,,,,,,,,,,,,,,,,,,
340489,1480726737558,,,,,,,,0.02,0.08,1.01,-3.1,0.4,0.2,0,0,,,,,,,,,,,,,,,,,,,
340509,1480726737578,,,,,,,,0.01,0.08,1.01,-3.1,0.4,0.2,0,0,,,,,,,,,,,,,,,,,,,
340529,1480726737598,,,,,,,,0.01,0.08,1.01,-3.1,0.4,0.2,0,0,,,,,,,,,,,,,,,,,,,
340549,1480726737618,,,,,11,,,0.01,0.07,1.01,-3.1,0.4,0.2,0,0,1,0,0.0,0,38.160191,-122.45356,0.0,0.013,140910960.0,10,2,1.4,0,0.0,-1,0.0,,0.0,0
340569,1480726737638,,,,,,,,0.02,0.07,1.01,-3.1,0.4,0.2,0,0,,,,,,,,,,,,,,,,,,,
340589,1480726737658,,,,,,,,0.01,0.07,1.01,-3.1,0.4,0.2,0,0,,,,,,,,,,,,,,,,,,,
340609,1480726737678,,,,,,,,0.01,0.07,1.01,-3.1,0.4,0.2,0,0,,,,,,,,,,,,,,,,,,,
340629,1480726737597,,,,,,,,0.01,0.08,1.01,-3.1,0.4,0.2,0,0,,,,,,,,,,,,,,,,,,,
340649,1480726737617,0,77.7,,115.1,11,105.7,,0.01,0.08,1.01,-3.1,0.4,0.2,0,0,1,0,0.0,0,38.160191,-122.45356,0.0,0.013,140910960.0,10,2,1.4,0,0.0,-1,0.0,0.0,0.0,0
340669,1480726737637,,,,,,,,0.01,0.08,1.01,-3.1,0.4,0.2,0,0,,,,,,,,,,,,,,,,,,,
340689,1480726737657,,,,,,,,0.01,0.08,1.01,-3.1,0.4,0.2,0,0,,,,,,,,,,,,,,,,,,,
340709,1480726737677,,,,,,,,0.01,0.08,1.01,-3.1,0.4,0.2,0,0,,,,,,,,,,,,,,,,,,,
340729,1480726737698,,,,,,,,0.02,0.08,1.01,-3.1,0.4,0.2,0,0,,,,,,,,,,,,,,,,,,,
340749,1480726737718,,,,,10,,,0.02,0.08,1.01,-3.1,0.4,0.2,0,0,1,0,0.0,0,38.160191,-122.45356,0.0,0.013,140910960.0,10,2,1.4,0,0.0,-1,0.0,,0.0,0
340769,1480726737738,,,,,,,,0.02,0.08,1.01,-3.1,0.4,0.2,0,0,,,,,,,,,,,,,,,,,,,
340789,1480726737758,,,,,,,,0.01,0.08,1.01,-3.1,0.4,0.2,0,0,,,,,,,,,,,,,,,,,,,
340809,1480726737778,,,,,,,,0.01,0.08,1.0,-3.1,0.4,0.2,0,0,,,,,,,,,,,,,,,,,,,
340829,1480726737797,,,,,,,,0.01,0.08,1.0,-3.1,0.4,0.2,0,0,,,,,,,,,,,,,,,,,,,
340849,1480726737817,0,78.4,,116.6,10,104.2,,0.01,0.08,1.0,-3.1,0.4,0.2,0,0,1,0,0.0,0,38.160191,-122.45356,0.0,0.013,140910960.0,10,2,1.4,0,0.0,-1,0.0,0.0,0.0,0
340869,1480726737837,,,,,,,,0.02,0.08,1.0,-3.1,0.4,0.2,0,0,,,,,,,,,,,,,,,,,,,
340889,1480726737857,,,,,,,,0.01,0.08,1.0,-3.1,0.4,0.2,0,0,,,,,,,,,,,,,,,,,,,
340909,1480726737877,,,,,,,,0.02,0.08,1.0,-3.1,0.4,0.2,0,0,,,,,,,,,,,,,,,,,,,
340929,1480726737892,,,,,,,,0.02,0.08,1.0,-3.1,0.4,0.2,0,0,,,,,,,,,,,,,,,,,,,
340949,1480726737912,,,,,10,,,0.02,0.08,1.0,-3.1,0.4,0.2,0,0,1,0,0.0,0,38.160191,-122.45356,0.0,0.013,140910960.0,10,2,1.4,0,0.0,-1,0.0,,0.0,0
340969,1480726737932,,,,,,,,0.02,0.08,1.0,-3.1,0.4,0.2,0,0,,,,,,,,,,,,,,,,,,,
340989,1480726737952,,,,,,,,0.02,0.08,1.0,-3.1,0.4,0.2,0,0,,,,,,,,,,,,,,,,,,,
341009,1480726737972,,,,,,,,0.02,0.08,1.0,-3.1,0.4,0.2,0,0,,,,,,,,,,,,,,,,,,,
341029,1480726737998,,,,,,,,0.02,0.08,1.0,-3.1,0.4,0.2,0,0,,,,,,,,,,,,,,,,,,,
341049,1480726738018,0,77.8,0.0,115.4,9,106.1,12.33,0.02,0.08,1.0,-3.1,0.4,0.2,0,0,1,0,0.0,0,38.160191,-122.45356,0.0,0.013,140910960.0,10,2,1.4,0,0.0,-1,0.0,0.0,0.0,0
341069,1480726738038,,,,,,,,0.02,0.08,1.0,-3.1,0.4,0.2,0,0,,,,,,,,,,,,,,,,,,,
341089,1480726738058,,,,,,,,0.02,0.08,1.0,-3.1,0.4,0.2,0,0,,,,,,,,,,,,,,,,,,,
341109,1480726738078,,,,,,,,0.02,0.08,1.0,-3.1,0.4,0.2,0,0,,,,,,,,,,,,,,,,,,,
341129,1480726738098,,,,,,,,0.02,0.08,1.0,-3.1,0.4,0.2,0,0,,,,,,,,,,,,,,,,,,,
341149,1480726738118,,,,,10,,,0.01,0.08,1.0,-3.1,0.4,0.2,0,0,1,0,0.0,0,38.160191,-122.45356,0.0,0.013,140910960.0,10,2,1.4,0,0.0,-1,0.0,,0.0,0
341169,1480726738138,,,,,,,,0.01,0.08,1.0,-3.1,0.4,0.2,0,0,,,,,,,,,,,,,,,,,,,
341189,1480726738158,,,,,,,,0.01,0.08,1.0,-3.1,0.4,0.2,0,0,,,,,,,,,,,,,,,,,,,
341209,1480726738178,,,,,,,,0.01,0.08,1.0,-3.1,0.4,0.2,0,0,,,,,,,,,,,,,,,,,,,
341229,1480726738298,,,,,,,,0.01,0.08,1.0,-3.1,0.4,0.2,0,0,,,,,,,,,,,,,,,,,,,
341249,1480726738318,0,79.2,,116.6,9,106.8,,0.01,0.08,1.01,-3.1,0.4,0.2,0,0,1,0,0.0,0,38.160191,-122.45356,0.0,0.013,140910960.0,10,2,1.4,0,0.0,-1,0.0,0.0,0.0,0
341269,1480726738338,,,,,,,,0.01,0.08,1.01,-3.1,0.4,0.2,0,0,,,,,,,,,,,,,,,,,,,
341289,1480726738358,,,,,,,,0.01,0.08,1.01,-3.1,0.4,0.2,0,0,,,,,,,,,,,,,,,,,,,
341309,1480726738378,,,,,,,,0.01,0.08,1.01,-3.1,0.5,0.2,0,0,,,,,,,,,,,,,,,,,,,
341329,1480726738398,,,,,,,,0.01,0.08,1.0,-3.1,0.5,0.2,0,0,,,,,,,,,,,,,,,,,,,
341349,1480726738418,,,,,9,,,0.01,0.08,1.0,-3.1,0.5,0.2,0,0,1,0,0.0,0,38.160191,-122.45356,0.0,0.013,140910960.0,10,2,1.4,0,0.0,-1,0.0,,0.0,0
341369,1480726738438,,,,,,,,0.02,0.08,1.0,-3.1,0.4,0.2,0,0,,,,,,,,,,,,,,,,,,,
341389,1480726738458,,,,,,,,0.01,0.08,1.0,-3.1,0.5,0.2,0,0,,,,,,,,,,,,,,,,,,,
341409,1480726738478,,,,,,,,0.01,0.08,1.01,-3.1,0.5,0.2,0,0,,,,,,,,,,,,,,,,,,,
341429,1480726738398,,,,,,,,0.01,0.08,1.01,-3.1,0.5,0.2,0,0,,,,,,,,,,,,,,,,,,,
341449,1480726738418,0,78.2,,116.3,9,104.4,,0.01,0.08,1.0,-3.1,0.4,0.2,0,0,1,0,0.0,0,38.160191,-122.45356,0.0,0.013,140910960.0,10,2,1.4,0,0.0,-1,0.0,0.0,0.0,0
341469,1480726738438,,,,,,,,0.01,0.08,1.0,-3.1,0.4,0.2,0,0,,,,,,,,,,,,,,,,,,,
341489,1480726738458,,,,,,,,0.01,0.08,1.0,-3.1,0.4,0.2,0,0,,,,,,,,,,,,,,,,,,,
341509,1480726738478,,,,,,,,0.01,0.08,1.0,-3.1,0.4,0.2,0,0,,,,,,,,,,,,,,,,,,,
341529,1480726738498,,,,,,,,0.01,0.08,1.0,-3.1,0.5,0.2,0,0,,,,,,,,,,,,,,,,,,,
341549,1480726738518,,,,,8,,,0.01,0.08,1.0,-3.1,0.4,0.2,0,0,1,0,0.0,0,38.160191,-122.45356,0.0,0.013,140910960.0,10,2,1.4,0,0.0,-1,0.0,,0.0,0
341569,1480726738538,,,,,,,,0.01,0.08,1.0,-3.1,0.4,0.2,0,0,,,,,,,,,,,,,,,,,,,
341589,1480726738558,,,,,,,,0.01,0.08,1.0,-3.1,0.4,0.2,0,0,,,,,,,,,,,,,,,,,,,
341609,1480726738578,,,,,,,,0.01,0.08,1.0,-3.1,0.4,0.2,0,0,,,,,,,,,,,,,,,,,,,
341629,1480726738598,,,,,,,,0.01,0.08,1.0,-3.1,0.4,0.2,0,0,,,,,,,,,,,,,,,,,,,
341649,1480726738618,0,79.0,,116.9,9,104.7,,0.01,0.08,1.0,-3.1,0.4,0.2,0,0,1,0,0.0,0,38.160191,-122.45356,0.0,0.013,140910960.0,10,2,1.4,0,0.0,-1,0.0,0.0,0.0,0
341669,1480726738638,,,,,,,,0.01,0.08,1.0,-3.1,0.5,0.2,0,0,,,,,,,,,,,,,,,,,,,
341689,1480726738658,,,,,,,,0.01,0.08,1.0,-3.1,0.5,0.2,0,0,,,,,,,,,,,,,,,,,,,
341709,1480726738678,,,,,,,,0.01,0.08,1.0,-3.1,0.5,0.2,0,0,,,,,,,,,,,,,,,,,,,
341729,1480726738698,,,,,,,,0.01,0.08,1.0,-3.1,0.4,0.2,0,0,,,,,,,,,,,,,,,,,,,
341749,1480726738718,,,,,8,,,0.01,0.08,1.0,-3.1,0.5,0.2,0,0,1,0,0.0,0,38.160191,-122.45356,0.0,0.013,140910960.0,10,2,1.4,0,0.0,-1,0.0,,0.0,0
341769,1480726738738,,,,,,,,0.01,0.08,1.0,-3.1,0.4,0.2,0,0,,,,,,,,,,,,,,,,,,,
341789,1480726738758,,,,,,,,0.01,0.07,1.0,-3.1,0.4,0.2,0,0,,,,,,,,,,,,,,,,,,,
341809,1480726738778,,,,,,,,0.01,0.07,1.0,-3.1,0.4,0.2,0,0,,,,,,,,,,,,,,,,,,,
341829,1480726738798,,,,,,,,0.01,0.07,1.0,-3.1,0.5,0.2,0,0,,,,,,,,,,,,,,,,,,,
341849,1480726738818,0,78.7,,116.8,8,106.7,,0.01,0.07,1.0,-3.1,0.4,0.2,0,0,1,0,0.0,0,38.160191,-122.45356,0.0,0.013,140910960.0,10,2,1.4,0,0.0,-1,0.0,0.0,0.0,0
341869,1480726738838,,,,,,,,0.01,0.07,1.0,-3.1,0.4,0.2,0,0,,,,,,,,,,,,,,,,,,,
341889,1480726738858,,,,,,,,0.01,0.07,1.01,-3.1,0.4,0.2,0,0,,,,,,,,,,,,,,,,,,,
341909,1480726738878,,,,,,,,0.02,0.08,1.0,-3.1,0.5,0.2,0,0,,,,,,,,,,,,,,,,,,,
341929,1480726738893,,,,,,,,0.02,0.08,1.01,-3.1,0.5,0.2,0,0,,,,,,,,,,,,,,,,,,,
341949,1480726738913,,,,,8,,,0.02,0.05,0.99,-3.1,0.4,0.1,0,0,1,0,0.0,0,38.160191,-122.45356,0.0,0.013,140910960.0,10,2,1.4,0,0.0,-1,0.0,,0.0,0
341969,1480726738933,,,,,,,,0.03,0.05,1.0,-3.1,0.7,0.2,0,0,,,,,,,,,,,,,,,,,,,
341989,1480726738953,,,,,,,,0.02,0.06,1.0,-3.1,0.5,0.3,0,0,,,,,,,,,,,,,,,,,,,
342009,1480726738973,,,,,,,,0.02,0.06,0.99,-3.1,0.3,0.2,0,0,,,,,,,,,,,,,,,,,,,
342029,1480726739098,,,,,,,,0.02,0.06,1.0,-3.1,0.6,0.2,0,0,,,,,,,,,,,,,,,,,,,
342049,1480726739118,0,77.8,0.0,115.2,8,105.7,9.81,0.03,0.07,1.0,-3.1,0.6,0.3,0,0,1,0,0.0,0,38.160191,-122.45356,0.0,0.013,140910960.0,10,2,1.5,0,0.0,-1,0.0,0.0,0.0,0
342069,1480726739138,,,,,,,,0.03,0.07,1.01,-3.2,0.6,0.5,0,0,,,,,,,,,,,,,,,,,,,
342089,1480726739158,,,,,,,,0.03,0.07,1.01,-3.2,0.6,0.5,0,0,,,,,,,,,,,,,,,,,,,
342109,1480726739178,,,,,,,,0.03,0.07,1.02,-3.2,0.6,0.5,0,0,,,,,,,,,,,,,,,,,,,
342129,1480726739198,,,,,,,,0.03,0.07,1.02,-3.2,0.7,0.5,0,0,,,,,,,,,,,,,,,,,,,
342149,1480726739218,,,,,9,,,0.03,0.07,1.02,-3.2,0.6,0.5,0,0,1,0,0.0,0,38.160191,-122.45356,0.0,0.013,140910960.0,10,2,1.5,0,0.0,-1,0.0,,0.0,0
342169,1480726739238,,,,,,,,0.03,0.08,1.02,-3.2,0.6,0.4,0,0,,,,,,,,,,,,,,,,,,,
342189,1480726739258,,,,,,,,0.03,0.08,1.02,-3.1,0.6,0.4,0,0,,,,,,,,,,,,,,,,,,,
342209,1480726739278,,,,,,,,0.03,0.07,1.01,-3.1,0.6,0.3,0,0,,,,,,,,,,,,,,,,,,,
342229,1480726739199,,,,,,,,0.04,0.07,1.01,-3.1,0.7,0.4,0,0,,,,,,,,,,,,,,,,,,,
342249,1480726739219,0,78.3,,116.2,9,104.5,,0.03,0.08,1.01,-3.2,0.6,0.5,0,0,1,0,0.0,0,38.160191,-122.45356,0.0,0.013,140910960.0,10,2,1.5,0,0.0,-1,0.0,0.0,0.0,0
342269,1480726739239,,,,,,,,0.03,0.09,1.01,-3.2,0.6,0.6,0,0,,,,,,,,,,,,,,,,,,,
342289,1480726739259,,,,,,,,0.04,0.09,1.02,-3.2,0.6,0.7,0,0,,,,,,,,,,,,,,,,,,,
342309,1480726739279,,,,,,,,0.04,0.1,1.02,-3.2,0.6,0.7,0,0,,,,,,,,,,,,,,,,,,,
342329,1480726739297,,,,,,,,0.04,0.1,1.02,-3.2,0.6,0.6,0,0,,,,,,,,,,,,,,,,,,,
342349,1480726739317,,,,,10,,,0.04,0.09,1.02,-3.2,0.6,0.4,0,0,1,0,0.0,0,38.160191,-122.45356,0.0,0.013,140910960.0,10,2,1.5,0,0.0,-1,0.0,,0.0,0
342369,1480726739337,,,,,,,,0.04,0.07,1.02,-3.2,0.7,0.5,0,0,,,,,,,,,,,,,,,,,,,
342389,1480726739357,,,,,,,,0.05,0.09,1.02,-3.3,0.7,0.8,160,0,,,,,,,,,,,,,,,,,,,
342409,1480726739377,,,,,,,,0.05,0.1,1.02,-3.3,0.7,0.9,160,0,,,,,,,,,,,,,,,,,,,
342429,1480726739398,,,,,,,,0.04,0.11,1.02,-3.3,0.5,0.8,160,0,,,,,,,,,,,,,,,,,,,
342449,1480726739418,0,77.8,,115.5,9,105.9,,0.04,0.11,1.02,-3.3,0.6,0.7,160,0,1,0,0.0,0,38.160191,-122.45356,0.0,0.013,140910960.0,10,2,1.5,0,0.0,-1,0.0,0.0,0.0,0
342469,1480726739438,,,,,,,,0.04,0.11,1.02,-3.2,0.5,0.6,160,0,,,,,,,,,,,,,,,,,,,
342489,1480726739458,,,,,,,,0.03,0.1,1.01,-3.1,0.3,0.4,180,0,,,,,,,,,,,,,,,,,,,
342509,1480726739478,,,,,,,,0.02,0.1,1.01,-3.1,0.4,0.4,180,0,,,,,,,,,,,,,,,,,,,
342529,1480726739498,,,,,,,,0.02,0.09,1.01,-3.1,0.5,0.5,180,0,,,,,,,,,,,,,,,,,,,
342549,1480726739518,,,,,12,,,0.02,0.09,1.01,-3.2,0.6,0.5,300,0,1,0,0.0,0,38.160191,-122.45356,0.0,0.013,140910960.0,10,2,1.5,0,0.0,-1,0.0,,0.0,0
342569,1480726739538,,,,,,,,0.01,0.07,1.0,-3.1,0.5,0.3,300,0,,,,,,,,,,,,,,,,,,,
342589,1480726739558,,,,,,,,0.01,0.07,1.0,-3.1,0.6,0.2,300,0,,,,,,,,,,,,,,,,,,,
342609,1480726739578,,,,,,,,0.01,0.07,1.0,-3.2,0.7,0.2,400,0,,,,,,,,,,,,,,,,,,,
342629,1480726739598,,,,,,,,0.01,0.06,1.0,-3.2,0.7,0.4,400,0,,,,,,,,,,,,,,,,,,,
342649,1480726739618,0,80.4,,118.1,13,106.6,,0.02,0.08,1.0,-3.2,0.6,0.6,420,0,1,0,0.0,0,38.160191,-122.45356,0.0,0.013,140910960.0,10,2,1.5,0,0.0,-1,0.0,0.0,0.0,0
342669,1480726739638,,,,,,,,0.02,0.08,1.01,-3.1,0.5,0.5,420,0,,,,,,,,,,,,,,,,,,,
342689,1480726739658,,,,,,,,0.02,0.08,1.01,-3.2,0.6,0.4,500,0,,,,,,,,,,,,,,,,,,,
342709,1480726739678,,,,,,,,0.02,0.07,1.0,-3.1,0.4,0.2,500,0,,,,,,,,,,,,,,,,,,,
342729,1480726739698,,,,,,,,0.02,0.07,1.0,-3.1,0.4,0.2,580,0,,,,,,,,,,,,,,,,,,,
342749,1480726739718,,,,,17,,,0.02,0.07,1.0,-3.2,0.3,0.3,640,0,1,0,0.0,0,38.160191,-122.45356,0.0,0.013,140910960.0,10,2,1.5,0,0.0,-1,0.0,,0.0,0
342769,1480726739738,,,,,,,,0.02,0.06,1.0,-3.1,0.3,0.3,640,0,,,,,,,,,,,,,,,,,,,
342789,1480726739758,,,,,,,,0.03,0.07,1.0,-3.2,0.2,0.5,640,0,,,,,,,,,,,,,,,,,,,
342809,1480726739778,,,,,,,,0.03,0.07,1.0,-3.2,0.2,0.5,680,0,,,,,,,,,,,,,,,,,,,
342829,1480726739897,,,,,,,,0.02,0.07,1.01,-3.2,0.3,0.5,680,0,,,,,,,,,,,,,,,,,,,
342849,1480726739917,0,80.0,,117.6,20,106.9,,0.03,0.09,1.01,-3.1,0.4,0.5,680,0,1,0,0.0,0,38.160191,-122.45356,0.0,0.013,140910960.0,10,2,1.5,0,0.0,-1,0.0,0.0,0.0,0
342869,1480726739937,,,,,,,,0.02,0.1,1.01,-3.1,0.4,0.6,740,0,,,,,,,,,,,,,,,,,,,
342889,1480726739957,,,,,,,,0.02,0.09,1.0,-3.1,0.2,0.4,780,0,,,,,,,,,,,,,,,,,,,
342909,1480726739977,,,,,,,,0.02,0.1,1.0,-3.1,0.3,0.2,780,0,,,,,,,,,,,,,,,,,,,
342929,1480726739997,,,,,,,,0.02,0.1,1.01,-3.1,0.2,0.3,800,0,,,,,,,,,,,,,,,,,,,
342949,1480726740017,,,,,23,,,0.03,0.1,1.01,-3.1,0.4,0.3,800,0,1,0,0.0,0,38.160191,-122.45356,0.0,0.013,140910960.0,10,2,1.5,0,0.0,-1,0.0,,0.0,0
342969,1480726740037,,,,,,,,0.02,0.1,1.01,-3.1,0.2,0.3,840,0,,,,,,,,,,,,,,,,,,,
342989,1480726740057,,,,,,,,0.02,0.09,1.02,-3.1,0.4,0.2,840,0,,,,,,,,,,,,,,,,,,,
343009,1480726740077,,,,,,,,0.02,0.09,1.01,-3.1,0.4,0.2,860,0,,,,,,,,,,,,,,,,,,,
343029,1480726739998,,,,,,,,0.02,0.08,1.0,-3.1,0.4,0.2,880,0,,,,,,,,,,,,,,,,,,,
343049,1480726740018,0,80.0,0.0,117.2,33,106.3,14.43,0.02,0.09,1.01,-3.1,0.3,0.3,880,0,1,0,0.0,0,38.160191,-122.45356,0.0,0.013,140910960.0,10,2,1.4,0,0.0,-1,0.0,0.0,0.0,0
343069,1480726740038,,,,,,,,0.02,0.08,1.0,-3.1,0.3,0.3,880,0,,,,,,,,,,,,,,,,,,,
343089,1480726740058,,,,,,,,0.03,0.09,1.01,-3.1,0.6,0.3,880,0,,,,,,,,,,,,,,,,,,,
343109,1480726740078,,,,,,,,0.03,0.1,1.0,-3.1,0.6,0.3,880,0,,,,,,,,,,,,,,,,,,,
343129,1480726740097,,,,,,,,0.02,0.1,1.0,-3.1,0.4,0.3,880,0,,,,,,,,,,,,,,,,,,,
343149,1480726740117,,,,,41,,,0.02,0.1,1.01,-3.1,0.5,0.3,900,0,1,0,0.0,0,38.160191,-122.45356,0.0,0.013,140910960.0,10,2,1.4,0,0.0,-1,0.0,,0.0,0
343169,1480726740137,,,,,,,,0.02,0.1,1.01,-3.0,0.5,0.2,900,0,,,,,,,,,,,,,,,,,,,
343189,1480726740157,,,,,,,,0.01,0.09,1.0,-3.1,0.4,0.1,900,0,,,,,,,,,,,,,,,,,,,
343209,1480726740177,,,,,,,,0.02,0.08,1.01,-3.1,0.5,0.1,880,0,,,,,,,,,,,,,,,,,,,
343229,1480726740197,,,,,,,,0.02,0.08,1.0,-3.0,0.5,0.1,880,0,,,,,,,,,,,,,,,,,,,
343249,1480726740217,0,77.5,,116.3,44,105.3,,0.02,0.08,1.0,-3.1,0.4,0.1,880,0,1,0,0.0,0,38.160191,-122.45356,0.0,0.013,140910960.0,10,2,1.4,0,0.0,-1,0.0,0.0,0.0,0
343269,1480726740237,,,,,,,,0.01,0.07,1.01,-3.1,0.4,0.1,860,0,,,,,,,,,,,,,,,,,,,
343289,1480726740257,,,,,,,,0.02,0.08,1.01,-3.1,0.5,0.2,840,0,,,,,,,,,,,,,,,,,,,
343309,1480726740277,,,,,,,,0.01,0.08,1.01,-3.1,0.5,0.2,820,0,,,,,,,,,,,,,,,,,,,
343329,1480726740298,,,,,,,,0.01,0.08,1.01,-3.1,0.5,0.2,800,0,,,,,,,,,,,,,,,,,,,
343349,1480726740318,,,,,54,,,0.01,0.07,1.01,-3.1,0.6,0.2,800,0,1,0,0.0,0,38.160191,-122.45356,0.0,0.013,140910960.0,10,2,1.4,0,0.0,-1,0.0,,0.0,0
343369,1480726740338,,,,,,,,0.01,0.07,1.01,-3.1,0.5,0.2,780,0,,,,,,,,,,,,,,,,,,,
343389,1480726740358,,,,,,,,0.01,0.07,1.0,-3.1,0.5,0.2,740,0,,,,,,,,,,,,,,,,,,,
343409,1480726740378,,,,,,,,0.01,0.08,1.0,-3.1,0.5,0.2,700,0,,,,,,,,,,,,,,,,,,,
343429,1480726740397,,,,,,,,0.01,0.08,1.01,-3.1,0.5,0.2,700,0,,,,,,,,,,,,,,,,,,,
343449,1480726740417,0,79.6,,117.8,57,106.7,,0.02,0.08,1.01,-3.1,0.5,0.2,660,0,1,0,0.0,0,38.160191,-122.45356,0.0,0.013,140910960.0,10,2,1.4,0,0.0,-1,0.0,0.0,0.0,0
343469,1480726740437,,,,,,,,0.02,0.08,1.02,-3.1,0.5,0.2,620,0,,,,,,,,,,,,,,,,,,,
343489,1480726740457,,,,,,,,0.02,0.08,1.01,-3.1,0.5,0.2,620,0,,,,,,,,,,,,,,,,,,,
343509,1480726740477,,,,,,,,0.01,0.08,1.02,-3.1,0.5,0.2,580,0,,,,,,,,,,,,,,,,,,,
343529,1480726740498,,,,,,,,0.01,0.08,1.02,-3.1,0.5,0.2,580,0,,,,,,,,,,,,,,,,,,,
343549,1480726740518,,,,,54,,,0.02,0.08,1.02,-3.1,0.5,0.2,520,0,1,0,0.0,0,38.160191,-122.45356,0.0,0.013,140910960.0,10,2,1.4,0,0.0,-1,0.0,,0.0,0
343569,1480726740538,,,,,,,,0.01,0.08,1.02,-3.1,0.5,0.2,520,0,,,,,,,,,,,,,,,,,,,
343589,1480726740558,,,,,,,,0.01,0.08,1.02,-3.1,0.5,0.2,460,0,,,,,,,,,,,,,,,,,,,
343609,1480726740578,,,,,,,,0.01,0.08,1.02,-3.1,0.4,0.2,460,0,,,,,,,,,,,,,,,,,,,
343629,1480726740698,,,,,,,,0.01,0.08,1.02,-3.1,0.4,0.2,460,0,,,,,,,,,,,,,,,,,,,
343649,1480726740718,0,78.4,,117.1,54,106.1,,0.01,0.09,1.01,-3.1,0.4,0.2,380,0,1,0,0.0,0,38.160191,-122.45356,0.0,0.013,140910960.0,10,2,1.4,0,0.0,-1,0.0,0.0,0.0,0
343669,1480726740738,,,,,,,,0.01,0.08,1.01,-3.1,0.4,0.2,380,0,,,,,,,,,,,,,,,,,,,
343689,1480726740758,,,,,,,,0.01,0.08,1.01,-3.1,0.4,0.2,340,0,,,,,,,,,,,,,,,,,,,
343709,1480726740778,,,,,,,,0.01,0.08,1.01,-3.1,0.4,0.1,340,0,,,,,,,,,,,,,,,,,,,
343729,1480726740798,,,,,,,,0.01,0.08,1.01,-3.1,0.4,0.1,340,0,,,,,,,,,,,,,,,,,,,
343749,1480726740818,,,,,50,,,0.01,0.08,1.01,-3.1,0.4,0.1,340,0,1,0,0.0,0,38.160191,-122.45356,0.0,0.013,140910960.0,10,2,1.4,0,0.0,-1,0.0,,0.0,0
343769,1480726740838,,,,,,,,0.01,0.07,1.01,-3.1,0.4,0.2,320,0,,,,,,,,,,,,,,,,,,,
343789,1480726740858,,,,,,,,0.02,0.08,1.01,-3.1,0.4,0.2,320,0,,,,,,,,,,,,,,,,,,,
343809,1480726740878,,,,,,,,0.01,0.08,1.01,-3.1,0.4,0.2,320,0,,,,,,,,,,,,,,,,,,,
343829,1480726740798,,,,,,,,0.02,0.07,1.01,-3.1,0.5,0.2,280,0,,,,,,,,,,,,,,,,,,,
343849,1480726740818,1,79.3,,117.9,50,106.9,,0.02,0.07,1.01,-3.1,0.4,0.2,280,0,1,0,0.0,0,38.160191,-122.45356,0.0,0.013,140910960.0,10,2,1.4,0,0.0,-1,0.0,0.0,0.0,0
343869,1480726740838,,,,,,,,0.01,0.07,1.01,-3.1,0.4,0.2,280,0,,,,,,,,,,,,,,,,,,,
343889,1480726740858,,,,,,,,0.01,0.08,1.01,-3.1,0.4,0.2,280,0,,,,,,,,,,,,,,,,,,,
343909,1480726740878,,,,,,,,0.01,0.07,1.01,-3.1,0.5,0.2,220,0,,,,,,,,,,,,,,,,,,,
343929,1480726740894,,,,,,,,0.01,0.07,1.0,-3.1,0.4,0.2,220,0,,,,,,,,,,,,,,,,,,,
343949,1480726740914,,,,,44,,,0.01,0.07,1.0,-3.1,0.4,0.2,220,0,1,0,0.0,0,38.160191,-122.45356,0.0,0.013,140910960.0,10,2,1.4,0,0.0,-1,0.0,,0.0,0
343969,1480726740934,,,,,,,,0.01,0.08,1.0,-3.1,0.4,0.2,220,0,,,,,,,,,,,,,,,,,,,
343989,1480726740954,,,,,,,,0.01,0.07,1.01,-3.1,0.5,0.2,220,0,,,,,,,,,,,,,,,,,,,
344009,1480726740974,,,,,,,,0.01,0.08,1.01,-3.1,0.5,0.2,200,0,,,,,,,,,,,,,,,,,,,
344029,1480726740997,,,,,,,,0.01,0.08,1.01,-3.1,0.5,0.2,200,0,,,,,,,,,,,,,,,,,,,
344049,1480726741017,0,79.0,0.0,117.9,44,106.7,12.24,0.01,0.08,1.01,-3.1,0.5,0.2,200,0,1,0,0.0,0,38.160191,-122.45356,0.0,0.013,140910960.0,10,2,1.5,0,0.0,-1,0.0,0.0,0.0,0
344069,1480726741037,,,,,,,,0.01,0.08,1.01,-3.1,0.4,0.2,200,0,,,,,,,,,,,,,,,,,,,
344089,1480726741057,,,,,,,,0.01,0.08,1.01,-3.1,0.4,0.2,200,0,,,,,,,,,,,,,,,,,,,
344109,1480726741077,,,,,,,,0.01,0.08,1.01,-3.1,0.5,0.2,200,0,,,,,,,,,,,,,,,,,,,
344129,1480726741099,,,,,,,,0.01,0.08,1.01,-3.1,0.5,0.2,160,0,,,,,,,,,,,,,,,,,,,
344149,1480726741119,,,,,41,,,0.01,0.08,1.0,-3.1,0.5,0.2,160,0,1,0,0.0,0,38.160191,-122.45356,0.0,0.013,140910960.0,10,2,1.5,0,0.0,-1,0.0,,0.0,0
344169,1480726741139,,,,,,,,0.01,0.08,1.0,-3.1,0.5,0.2,160,0,,,,,,,,,,,,,,,,,,,
344189,1480726741159,,,,,,,,0.01,0.08,1.01,-3.1,0.5,0.2,160,0,,,,,,,,,,,,,,,,,,,
344209,1480726741179,,,,,,,,0.01,0.08,1.01,-3.1,0.5,0.2,160,0,,,,,,,,,,,,,,,,,,,
344229,1480726741199,,,,,,,,0.01,0.08,1.01,-3.1,0.5,0.2,160,0,,,,,,,,,,,,,,,,,,,
344249,1480726741219,0,77.8,,115.4,39,104.2,,0.01,0.08,1.01,-3.1,0.5,0.1,160,0,1,0,0.0,0,38.160191,-122.45356,0.0,0.013,140910960.0,10,2,1.5,0,0.0,-1,0.0,0.0,0.0,0
344269,1480726741239,,,,,,,,0.01,0.08,1.0,-3.1,0.5,0.2,2140,0,,,,,,,,,,,,,,,,,,,
344289,1480726741259,,,,,,,,0.01,0.07,1.0,-3.1,0.5,0.2,2140,0,,,,,,,,,,,,,,,,,,,
344309,1480726741279,,,,,,,,0.01,0.08,1.0,-3.1,0.4,0.2,2140,0,,,,,,,,,,,,,,,,,,,
344329,1480726741299,,,,,,,,0.01,0.07,1.0,-3.1,0.4,0.2,2140,0,,,,,,,,,,,,,,,,,,,
344349,1480726741319,,,,,34,,,0.01,0.07,1.0,-3.1,0.4,0.2,2140,0,1,0,0.0,0,38.160191,-122.45356,0.0,0.013,140910960.0,10,2,1.5,0,0.0,-1,0.0,,0.0,0
344369,1480726741339,,,,,,,,0.01,0.08,1.0,-3.1,0.4,0.1,2140,0,,,,,,,,,,,,,,,,,,,
344389,1480726741359,,,,,,,,0.01,0.08,1.0,-3.1,0.3,0.1,2140,0,,,,,,,,,,,,,,,,,,,
344409,1480726741379,,,,,,,,0.01,0.08,1.0,-3.1,0.4,0.1,0,0,,,,,,,,,,,,,,,,,,,
344429,1480726741498,,,,,,,,0.01,0.08,1.0,-3.1,0.4,0.2,0,0,,,,,,,,,,,,,,,,,,,
344449,1480726741518,0,79.9,,118.0,30,107.0,,0.01,0.08,1.0,-3.1,0.4,0.2,0,0,1,0,0.0,0,38.160191,-122.45356,0.0,0.013,140910960.0,10,2,1.5,0,0.0,-1,0.0,0.0,0.0,0
344469,1480726741538,,,,,,,,0.01,0.08,1.0,-3.1,0.4,0.2,0,0,,,,,,,,,,,,,,,,,,,
344489,1480726741558,,,,,,,,0.01,0.08,1.01,-3.1,0.5,0.2,0,0,,,,,,,,,,,,,,,,,,,
344509,1480726741578,,,,,,,,0.01,0.08,1.01,-3.1,0.4,0.2,0,0,,,,,,,,,,,,,,,,,,,
344529,1480726741598,,,,,,,,0.01,0.08,1.01,-3.1,0.4,0.2,0,0,,,,,,,,,,,,,,,,,,,
344549,1480726741618,,,,,26,,,0.01,0.08,1.0,-3.1,0.4,0.2,0,0,1,0,0.0,0,38.160191,-122.45356,0.0,0.013,140910960.0,10,2,1.5,0,0.0,-1,0.0,,0.0,0
344569,1480726741638,,,,,,,,0.01,0.08,1.0,-3.1,0.4,0.2,580,0,,,,,,,,,,,,,,,,,,,
344589,1480726741658,,,,,,,,0.01,0.08,1.01,-3.1,0.4,0.2,580,0,,,,,,,,,,,,,,,,,,,
344609,1480726741678,,,,,,,,0.02,0.08,1.01,-3.1,0.4,0.2,580,0,,,,,,,,,,,,,,,,,,,
344629,1480726741598,,,,,,,,0.02,0.08,1.01,-3.1,0.4,0.2,580,0,,,,,,,,,,,,,,,,,,,
344649,1480726741618,0,80.4,,117.6,26,106.4,,0.01,0.08,1.01,-3.1,0.4,0.2,580,0,1,0,0.0,0,38.160191,-122.45356,0.0,0.013,140910960.0,10,2,1.5,0,0.0,-1,0.0,0.0,0.0,0
344669,1480726741638,,,,,,,,0.01,0.08,1.01,-3.1,0.4,0.2,580,0,,,,,,,,,,,,,,,,,,,
344689,1480726741658,,,,,,,,0.02,0.08,1.01,-3.1,0.4,0.3,580,0,,,,,,,,,,,,,,,,,,,
344709,1480726741678,,,,,,,,0.02,0.08,1.01,-3.1,0.4,0.3,20000000,0,,,,,,,,,,,,,,,,,,,
344729,1480726741698,,,,,,,,0.02,0.08,1.01,-3.1,0.4,0.2,0,0,,,,,,,,,,,,,,,,,,,
344749,1480726741718,,,,,24,,,0.02,0.08,1.01,-3.1,0.4,0.2,0,0,1,0,0.0,0,38.160191,-122.45356,0.0,0.013,140910960.0,10,2,1.5,0,0.0,-1,0.0,,0.0,0
344769,1480726741738,,,,,,,,0.02,0.08,1.01,-3.1,0.4,0.2,0,0,,,,,,,,,,,,,,,,,,,
344789,1480726741758,,,,,,,,0.02,0.08,1.01,-3.1,0.4,0.2,0,0,,,,,,,,,,,,,,,,,,,
344809,1480726741778,,,,,,,,0.02,0.08,1.01,-3.1,0.4,0.2,0,0,,,,,,,,,,,,,,,,,,,
344829,1480726741799,,,,,,,,0.02,0.07,1.01,-3.1,0.4,0.2,0,0,,,,,,,,,,,,,,,,,,,
344849,1480726741819,0,78.7,,115.5,23,104.2,,0.02,0.07,1.01,-3.1,0.4,0.2,0,0,1,0,0.0,0,38.160191,-122.45356,0.0,0.013,140910960.0,10,2,1.5,0,0.0,-1,0.0,0.0,0.0,0
344869,1480726741839,,,,,,,,0.02,0.07,1.0,-3.1,0.4,0.2,0,0,,,,,,,,,,,,,,,,,,,
344889,1480726741859,,,,,,,,0.02,0.07,1.0,-3.1,0.4,0.2,0,0,,,,,,,,,,,,,,,,,,,
344909,1480726741879,,,,,,,,0.02,0.08,1.0,-3.1,0.4,0.2,0,0,,,,,,,,,,,,,,,,,,,
344929,1480726741893,,,,,,,,0.02,0.08,1.01,-3.1,0.4,0.2,0,0,,,,,,,,,,,,,,,,,,,
344949,1480726741913,,,,,21,,,0.02,0.08,1.01,-3.1,0.4,0.2,0,0,1,0,0.0,0,38.160191,-122.45356,0.0,0.013,140910960.0,10,2,1.5,0,0.0,-1,0.0,,0.0,0
344969,1480726741933,,,,,,,,0.02,0.07,1.01,-3.1,0.4,0.2,0,0,,,,,,,,,,,,,,,,,,,
344989,1480726741953,,,,,,,,0.02,0.07,1.01,-3.1,0.4,0.2,0,0,,,,,,,,,,,,,,,,,,,
345009,1480726741973,,,,,,,,0.02,0.07,1.01,-3.1,0.4,0.2,0,0,,,,,,,,,,,,,,,,,,,
345029,1480726741992,,,,,,,,0.02,0.07,1.01,-3.1,0.4,0.2,0,0,,,,,,,,,,,,,,,,,,,
345049,1480726742012,0,78.7,0.0,115.7,21,104.7,12.32,0.02,0.07,1.01,-3.1,0.4,0.2,0,0,1,0,0.0,0,38.160191,-122.45356,0.0,0.013,140910960.0,10,2,1.5,0,0.0,-1,0.0,0.0,0.0,0
345069,1480726742032,,,,,,,,0.02,0.08,1.01,-3.1,0.4,0.2,0,0,,,,,,,,,,,,,,,,,,,
345089,1480726742052,,,,,,,,0.02,0.08,1.01,-3.1,0.4,0.2,0,0,,,,,,,,,,,,,,,,,,,
345109,1480726742072,,,,,,,,0.02,0.07,1.01,-3.1,0.4,0.2,0,0,,,,,,,,,,,,,,,,,,,
345129,1480726742098,,,,,,,,0.02,0.07,1.0,-3.1,0.4,0.2,0,0,,,,,,,,,,,,,,,,,,,
345149,1480726742118,,,,,19,,,0.02,0.07,1.0,-3.1,0.4,0.2,0,0,1,0,0.0,0,38.160191,-122.45356,0.0,0.013,140910960.0,10,2,1.5,0,0.0,-1,0.0,,0.0,0
345169,1480726742138,,,,,,,,0.02,0.08,1.0,-3.1,0.4,0.2,0,0,,,,,,,,,,,,,,,,,,,
345189,1480726742158,,,,,,,,0.02,0.08,1.0,-3.1,0.4,0.2,0,0,,,,,,,,,,,,,,,,,,,
345209,1480726742178,,,,,,,,0.02,0.08,1.0,-3.1,0.4,0.2,0,0,,,,,,,,,,,,,,,,,,,
345229,1480726742297,,,,,,,,0.02,0.08,1.0,-3.1,0.4,0.2,0,0,,,,,,,,,,,,,,,,,,,
345249,1480726742317,0,80.0,,118.3,19,106.4,,0.02,0.08,1.01,-3.1,0.5,0.2,0,0,1,0,0.0,0,38.160191,-122.45356,0.0,0.013,140910960.0,10,2,1.5,0,0.0,-1,0.0,0.0,0.0,0
345269,1480726742337,,,,,,,,0.02,0.07,1.0,-3.1,0.4,0.2,0,0,,,,,,,,,,,,,,,,,,,
345289,1480726742357,,,,,,,,0.02,0.07,1.0,-3.1,0.4,0.2,0,0,,,,,,,,,,,,,,,,,,,
345309,1480726742377,,,,,,,,0.02,0.08,1.0,-3.1,0.4,0.2,0,0,,,,,,,,,,,,,,,,,,,
345329,1480726742397,,,,,,,,0.02,0.08,1.0,-3.1,0.4,0.2,0,0,,,,,,,,,,,,,,,,,,,
345349,1480726742417,,,,,18,,,0.01,0.08,1.0,-3.1,0.4,0.2,0,0,1,0,0.0,0,38.160191,-122.45356,0.0,0.013,140910960.0,10,2,1.5,0,0.0,-1,0.0,,0.0,0
345369,1480726742437,,,,,,,,0.01,0.08,1.0,-3.1,0.4,0.2,0,0,,,,,,,,,,,,,,,,,,,
345389,1480726742457,,,,,,,,0.01,0.08,1.0,-3.1,0.4,0.2,0,0,,,,,,,,,,,,,,,,,,,
345409,1480726742477,,,,,,,,0.01,0.08,1.0,-3.1,0.4,0.2,0,0,,,,,,,,,,,,,,,,,,,
345429,1480726742398,,,,,,,,0.01,0.08,1.0,-3.1,0.4,0.2,0,0,,,,,,,,,,,,,,,,,,,
345449,1480726742418,0,80.2,,118.2,17,106.3,,0.01,0.08,1.0,-3.1,0.4,0.2,0,0,1,0,0.0,0,38.160191,-122.45356,0.0,0.013,140910960.0,10,2,1.5,0,0.0,-1,0.0,0.0,0.0,0
345469,1480726742438,,,,,,,,0.01,0.07,1.0,-3.1,0.4,0.2,0,0,,,,,,,,,,,,,,,,,,,
345489,1480726742458,,,,,,,,0.01,0.07,1.0,-3.1,0.4,0.2,0,0,,,,,,,,,,,,,,,,,,,
345509,1480726742478,,,,,,,,0.01,0.08,1.0,-3.1,0.4,0.2,0,0,,,,,,,,,,,,,,,,,,,
345529,1480726742498,,,,,,,,0.01,0.07,1.01,-3.1,0.4,0.2,0,0,,,,,,,,,,,,,,,,,,,
345549,1480726742518,,,,,16,,,0.01,0.08,1.02,-3.1,0.5,0.2,0,0,1,0,0.0,0,38.160191,-122.45356,0.0,0.013,140910960.0,10,2,1.5,0,0.0,-1,0.0,,0.0,0
345569,1480726742538,,,,,,,,0.01,0.1,1.02,-3.1,0.9,0.2,0,0,,,,,,,,,,,,,,,,,,,
345589,1480726742558,,,,,,,,0.01,0.1,1.02,-3.0,0.9,0.0,0,0,,,,,,,,,,,,,,,,,,,
345609,1480726742578,,,,,,,,0.0,0.09,1.01,-3.0,0.5,-0.2,0,0,,,,,,,,,,,,,,,,,,,
345629,1480726742598,,,,,,,,0.0,0.07,1.0,-3.0,0.3,-0.3,0,0,,,,,,,,,,,,,,,,,,,
345649,1480726742618,0,77.7,,116.3,17,106.1,,0.01,0.06,1.0,-3.0,0.5,-0.1,0,0,1,0,0.0,0,38.160191,-122.45356,0.0,0.013,140910960.0,10,2,1.5,0,0.0,-1,0.0,0.0,0.0,0
345669,1480726742638,,,,,,,,0.01,0.06,1.0,-3.1,0.5,0.1,0,0,,,,,,,,,,,,,,,,,,,
345689,1480726742658,,,,,,,,0.02,0.07,1.0,-3.1,0.4,0.3,0,0,,,,,,,,,,,,,,,,,,,
345709,1480726742678,,,,,,,,0.02,0.07,1.01,-3.1,0.4,0.3,0,0,,,,,,,,,,,,,,,,,,,
345729,1480726742698,,,,,,,,0.02,0.07,1.01,-3.1,0.4,0.2,0,0,,,,,,,,,,,,,,,,,,,
345749,1480726742718,,,,,17,,,0.02,0.08,1.01,-3.1,0.5,0.2,0,0,1,0,0.0,0,38.160191,-122.45356,0.0,0.013,140910960.0,10,2,1.5,0,0.0,-1,0.0,,0.0,0
345769,1480726742738,,,,,,,,0.01,0.08,1.02,-3.1,0.4,0.1,0,0,,,,,,,,,,,,,,,,,,,
345789,1480726742758,,,,,,,,0.01,0.08,1.01,-3.1,0.5,0.1,0,0,,,,,,,,,,,,,,,,,,,
345809,1480726742778,,,,,,,,0.01,0.08,1.01,-3.1,0.5,0.1,0,0,,,,,,,,,,,,,,,,,,,
345829,1480726742798,,,,,,,,0.01,0.08,1.02,-3.1,0.5,0.1,0,0,,,,,,,,,,,,,,,,,,,
345849,1480726742818,0,77.8,,117.2,17,106.7,,0.01,0.07,1.01,-3.1,0.4,0.1,0,0,1,0,0.0,0,38.160191,-122.45356,0.0,0.013,140910960.0,10,2,1.5,0,0.0,-1,0.0,0.0,0.0,0
345869,1480726742838,,,,,,,,0.01,0.07,1.01,-3.1,0.4,0.0,0,0,,,,,,,,,,,,,,,,,,,
345889,1480726742858,,,,,,,,0.02,0.08,1.01,-3.1,0.5,0.1,0,0,,,,,,,,,,,,,,,,,,,
345909,1480726742878,,,,,,,,0.02,0.09,1.01,-3.2,0.5,0.2,0,0,,,,,,,,,,,,,,,,,,,
345929,1480726742892,,,,,,,,0.02,0.1,1.01,-3.2,0.4,0.3,0,0,,,,,,,,,,,,,,,,,,,
345949,1480726742912,,,,,18,,,0.02,0.11,1.01,-3.2,0.6,0.3,0,0,1,0,0.0,0,38.160191,-122.45356,0.0,0.013,140910960.0,10,2,1.5,0,0.0,-1,0.0,,0.0,0
345969,1480726742932,,,,,,,,0.02,0.11,1.01,-3.1,0.5,0.2,0,0,,,,,,,,,,,,,,,,,,,
345989,1480726742952,,,,,,,,0.01,0.11,1.01,-3.1,0.4,0.2,0,0,,,,,,,,,,,,,,,,,,,
346009,1480726742972,,,,,,,,0.02,0.1,1.01,-3.2,0.5,0.2,0,0,,,,,,,,,,,,,,,,,,,
346029,1480726743097,,,,,,,,0.02,0.11,1.0,-3.2,0.3,0.3,0,0,,,,,,,,,,,,,,,,,,,
346049,1480726743117,0,79.5,0.0,118.0,19,106.6,10.34,0.02,0.12,1.01,-3.2,0.3,0.5,580,0,1,0,0.0,0,38.160191,-122.45356,0.0,0.013,140910960.0,10,2,1.4,0,0.0,-1,0.0,0.0,0.0,0
346069,1480726743137,,,,,,,,0.01,0.1,1.02,-3.2,0.2,0.5,580,0,,,,,,,,,,,,,,,,,,,
346089,1480726743157,,,,,,,,0.02,0.11,1.01,-3.2,0.3,0.5,580,0,,,,,,,,,,,,,,,,,,,
346109,1480726743177,,,,,,,,0.02,0.12,1.01,-3.2,0.3,0.5,320,0,,,,,,,,,,,,,,,,,,,
346129,1480726743197,,,,,,,,0.02,0.11,1.02,-3.2,0.2,0.3,320,0,,,,,,,,,,,,,,,,,,,
346149,1480726743217,,,,,22,,,0.02,0.12,1.01,-3.2,0.2,0.3,520,0,1,0,0.0,0,38.160191,-122.45356,0.0,0.013,140910960.0,10,2,1.4,0,0.0,-1,0.0,,0.0,0
346169,1480726743237,,,,,,,,0.03,0.13,1.01,-3.2,0.2,0.4,660,0,,,,,,,,,,,,,,,,,,,
346189,1480726743257,,,,,,,,0.02,0.11,1.01,-3.1,0.0,0.2,760,0,,,,,,,,,,,,,,,,,,,
346209,1480726743277,,,,,,,,0.02,0.09,1.0,-3.1,0.0,0.2,760,0,,,,,,,,,,,,,,,,,,,
346229,1480726743198,,,,,,,,0.02,0.1,1.01,-3.1,0.0,0.4,860,0,,,,,,,,,,,,,,,,,,,
346249,1480726743218,0,77.4,,115.8,33,106.1,,0.02,0.11,1.0,-3.2,0.1,0.5,960,0,1,0,0.0,0,38.160191,-122.45356,0.0,0.013,140910960.0,10,2,1.4,0,0.0,-1,0.0,0.0,0.0,0
346269,1480726743238,,,,,,,,0.02,0.12,1.01,-3.2,0.1,0.5,1000,0,,,,,,,,,,,,,,,,,,,
346289,1480726743258,,,,,,,,0.01,0.12,1.02,-3.2,0.1,0.4,1020,0,,,,,,,,,,,,,,,,,,,
346309,1480726743278,,,,,,,,0.01,0.12,1.01,-3.2,0.4,0.4,1020,0,,,,,,,,,,,,,,,,,,,
346329,1480726743298,,,,,,,,0.02,0.11,1.01,-3.2,0.5,0.5,980,0,,,,,,,,,,,,,,,,,,,
346349,1480726743318,,,,,38,,,0.02,0.11,1.02,-3.2,0.4,0.6,960,0,1,0,0.0,0,38.160191,-122.45356,0.0,0.013,140910960.0,10,2,1.4,0,0.0,-1,0.0,,0.0,0
346369,1480726743338,,,,,,,,0.02,0.1,1.02,-3.2,0.4,0.5,980,0,,,,,,,,,,,,,,,,,,,
346389,1480726743358,,,,,,,,0.01,0.1,1.02,-3.2,0.5,0.5,980,23,,,,,,,,,,,,,,,,,,,
346409,1480726743378,,,,,,,,0.02,0.09,1.02,-3.2,0.7,0.4,960,23,,,,,,,,,,,,,,,,,,,
346429,1480726743398,,,,,,,,0.02,0.1,1.02,-3.2,0.9,0.4,1000,23,,,,,,,,,,,,,,,,,,,
346449,1480726743418,0,79.6,,116.5,55,104.3,,0.03,0.09,1.03,-3.2,1.2,0.4,940,23,1,0,43.478,0,38.160191,-122.45356,0.0,0.013,140910960.0,10,2,1.4,0,0.0,-1,0.0,0.0,0.0,0
346469,1480726743438,,,,,,,,0.03,0.1,1.03,-3.2,1.2,0.5,960,23,,,,,,,,,,,,,,,,,,,
346489,1480726743458,,,,,,,,0.03,0.11,1.03,-3.2,1.0,0.5,1000,23,,,,,,,,,,,,,,,,,,,
346509,1480726743478,,,,,,,,0.04,0.11,1.03,-3.2,1.1,0.5,1000,1538461,,,,,,,,,,,,,,,,,,,
346529,1480726743498,,,,,,,,0.03,0.11,1.03,-3.2,1.1,0.4,1020,0,,,,,,,,,,,,,,,,,,,
346549,1480726743518,,,,,57,,,0.04,0.11,1.03,-3.2,1.1,0.4,1040,0,1,0,0.0,0,38.160191,-122.45356,0.0,0.013,140910960.0,10,2,1.4,0,0.0,-1,0.0,,0.0,0
346569,1480726743538,,,,,,,,0.04,0.11,1.02,-3.2,1.1,0.4,1020,0,,,,,,,,,,,,,,,,,,,
346589,1480726743558,,,,,,,,0.04,0.11,1.02,-3.2,1.1,0.5,1060,0,,,,,,,,,,,,,,,,,,,
346609,1480726743578,,,,,,,,0.03,0.1,1.01,-3.2,1.0,0.4,1080,0,,,,,,,,,,,,,,,,,,,
346629,1480726743598,,,,,,,,0.03,0.1,1.02,-3.1,0.9,0.4,1080,0,,,,,,,,,,,,,,,,,,,
346649,1480726743618,0,80.1,,118.2,58,106.4,,0.03,0.11,1.02,-3.2,0.8,0.3,1100,0,1,0,0.0,0,38.160191,-122.45356,0.0,0.013,140910960.0,10,2,1.4,0,0.0,-1,0.0,0.0,0.0,0
346669,1480726743638,,,,,,,,0.03,0.12,1.02,-3.2,0.7,0.3,1080,0,,,,,,,,,,,,,,,,,,,
346689,1480726743658,,,,,,,,0.02,0.11,1.01,-3.2,0.6,0.2,1020,0,,,,,,,,,,,,,,,,,,,
346709,1480726743678,,,,,,,,0.02,0.1,1.02,-3.2,0.6,0.3,1040,0,,,,,,,,,,,,,,,,,,,
346729,1480726743698,,,,,,,,0.02,0.11,1.02,-3.2,0.8,0.3,1000,0,,,,,,,,,,,,,,,,,,,
346749,1480726743718,,,,,56,,,0.02,0.1,1.03,-3.2,0.7,0.3,1000,0,1,0,0.0,0,38.160191,-122.45356,0.0,0.013,140910960.0,10,2,1.4,0,0.0,-1,0.0,,0.0,0
346769,1480726743738,,,,,,,,0.02,0.1,1.03,-3.2,0.9,0.4,980,0,,,,,,,,,,,,,,,,,,,
346789,1480726743758,,,,,,,,0.01,0.11,1.03,-3.2,0.9,0.4,1000,0,,,,,,,,,,,,,,,,,,,
346809,1480726743778,,,,,,,,0.01,0.11,1.03,-3.2,1.0,0.4,980,0,,,,,,,,,,,,,,,,,,,
346829,1480726743897,,,,,,,,0.01,0.12,1.03,-3.1,0.7,0.4,1000,0,,,,,,,,,,,,,,,,,,,
346849,1480726743917,0,77.5,,116.6,59,106.5,,0.0,0.12,1.03,-3.1,0.6,0.4,1020,0,1,0,0.0,0,38.160191,-122.45356,0.0,0.013,140910960.0,10,2,1.4,0,0.0,-1,0.0,0.0,0.0,0
346869,1480726743937,,,,,,,,0.01,0.12,1.02,-3.1,0.4,0.5,1060,0,,,,,,,,,,,,,,,,,,,
346889,1480726743957,,,,,,,,0.0,0.13,1.0,-3.1,-0.0,0.4,1060,0,,,,,,,,,,,,,,,,,,,
346909,1480726743977,,,,,,,,0.01,0.12,0.99,-3.1,-0.1,0.4,1060,0,,,,,,,,,,,,,,,,,,,
346929,1480726743997,,,,,,,,0.01,0.11,0.99,-3.2,-0.2,0.4,1000,0,,,,,,,,,,,,,,,,,,,
346949,1480726744017,,,,,58,,,0.02,0.11,1.0,-3.2,0.1,0.4,1060,0,1,0,0.0,0,38.160191,-122.45356,0.0,0.013,140910960.0,10,2,1.4,0,0.0,-1,0.0,,0.0,0
346969,1480726744037,,,,,,,,0.02,0.1,1.0,-3.1,0.0,0.4,1100,0,,,,,,,,,,,,,,,,,,,
346989,1480726744057,,,,,,,,0.02,0.1,1.0,-3.1,0.2,0.2,1100,0,,,,,,,,,,,,,,,,,,,
347009,1480726744077,,,,,,,,0.01,0.1,1.0,-3.0,0.3,0.1,1060,0,,,,,,,,,,,,,,,,,,,
347029,1480726743998,,,,,,,,0.01,0.09,1.0,-3.1,0.3,0.0,1020,0,,,,,,,,,,,,,,,,,,,
347049,1480726744018,0,77.6,0.0,116.9,58,106.6,14.86,0.01,0.08,1.0,-3.1,0.5,0.2,1100,0,1,0,0.0,0,38.160191,-122.45356,0.0,0.013,140910960.0,10,2,1.4,0,0.0,-1,0.0,0.0,0.0,0
347069,1480726744038,,,,,,,,0.01,0.08,1.0,-3.1,0.6,0.3,1140,0,,,,,,,,,,,,,,,,,,,
347089,1480726744058,,,,,,,,0.01,0.07,1.01,-3.1,0.6,0.3,1180,0,,,,,,,,,,,,,,,,,,,
347109,1480726744078,,,,,,,,0.01,0.08,1.01,-3.1,0.5,0.4,1280,0,,,,,,,,,,,,,,,,,,,
347129,1480726744098,,,,,,,,0.0,0.07,1.01,-3.1,0.7,0.3,1320,0,,,,,,,,,,,,,,,,,,,
347149,1480726744118,,,,,61,,,0.0,0.07,1.0,-3.1,0.6,0.3,1340,0,1,0,0.0,0,38.160191,-122.45356,0.0,0.013,140910960.0,10,2,1.4,0,0.0,-1,0.0,,0.0,0
347169,1480726744138,,,,,,,,-0.0,0.07,0.99,-3.1,0.4,0.3,1420,0,,,,,,,,,,,,,,,,,,,
347189,1480726744158,,,,,,,,0.0,0.07,1.0,-3.1,0.7,0.2,1440,0,,,,,,,,,,,,,,,,,,,
347209,1480726744178,,,,,,,,0.0,0.08,1.01,-3.1,0.9,0.3,1480,0,,,,,,,,,,,,,,,,,,,
347229,1480726744198,,,,,,,,0.01,0.08,1.01,-3.1,1.0,0.2,1480,0,,,,,,,,,,,,,,,,,,,
347249,1480726744218,0,78.4,,117.6,69,107.0,,0.02,0.08,1.02,-3.1,0.8,0.2,1540,0,1,0,0.0,0,38.160191,-122.45356,0.0,0.013,140910960.0,10,2,1.4,0,0.0,-1,0.0,0.0,0.0,0
347269,1480726744238,,,,,,,,0.02,0.08,1.01,-3.1,0.9,0.1,1560,0,,,,,,,,,,,,,,,,,,,
347289,1480726744258,,,,,,,,0.02,0.08,1.02,-3.1,0.8,0.1,1580,0,,,,,,,,,,,,,,,,,,,
347309,1480726744278,,,,,,,,0.03,0.08,1.02,-3.1,0.9,0.1,1580,0,,,,,,,,,,,,,,,,,,,
347329,1480726744298,,,,,,,,0.02,0.07,1.03,-3.1,0.8,0.2,1580,0,,,,,,,,,,,,,,,,,,,
347349,1480726744318,,,,,65,,,0.02,0.08,1.02,-3.1,0.7,0.3,1580,0,1,0,0.0,0,38.160191,-122.45356,0.0,0.013,140910960.0,10,2,1.4,0,0.0,-1,0.0,,0.0,0
347369,1480726744338,,,,,,,,0.02,0.08,1.02,-3.1,0.6,0.3,1580,0,,,,,,,,,,,,,,,,,,,
347389,1480726744358,,,,,,,,0.02,0.07,1.02,-3.1,0.5,0.2,1560,0,,,,,,,,,,,,,,,,,,,
347409,1480726744378,,,,,,,,0.02,0.07,1.02,-3.1,0.7,0.2,1560,0,,,,,,,,,,,,,,,,,,,
347429,1480726744397,,,,,,,,0.02,0.06,1.02,-3.1,0.6,0.2,1560,0,,,,,,,,,,,,,,,,,,,
347449,1480726744417,1,79.8,,116.7,59,104.4,,0.02,0.07,1.02,-3.1,0.7,0.2,1540,0,1,0,0.0,0,38.160191,-122.45356,0.0,0.013,140910960.0,10,2,1.4,0,0.0,-1,0.0,0.0,0.0,0
347469,1480726744437,,,,,,,,0.02,0.07,1.01,-3.1,0.6,0.2,1520,0,,,,,,,,,,,,,,,,,,,
347489,1480726744457,,,,,,,,0.01,0.08,1.01,-3.1,0.4,0.2,1520,0,,,,,,,,,,,,,,,,,,,
347509,1480726744477,,,,,,,,0.01,0.08,1.0,-3.1,0.4,0.2,1520,0,,,,,,,,,,,,,,,,,,,
347529,1480726744498,,,,,,,,0.01,0.08,1.0,-3.1,0.3,0.2,1480,0,,,,,,,,,,,,,,,,,,,
347549,1480726744518,,,,,60,,,0.02,0.09,1.0,-3.1,0.2,0.3,1340,0,1,0,0.0,0,38.160191,-122.45356,0.0,0.013,140910960.0,10,2,1.4,0,0.0,-1,0.0,,0.0,0
347569,1480726744538,,,,,,,,0.01,0.09,0.99,-3.1,-0.0,0.2,1460,0,,,,,,,,,,,,,,,,,,,
347589,1480726744558,,,,,,,,0.01,0.1,0.99,-3.1,-0.1,0.3,1400,0,,,,,,,,,,,,,,,,,,,
347609,1480726744578,,,,,,,,0.01,0.09,1.0,-3.1,-0.0,0.3,1380,0,,,,,,,,,,,,,,,,,,,
347629,1480726744697,,,,,,,,0.01,0.08,1.0,-3.2,0.2,0.3,1340,0,,,,,,,,,,,,,,,,,,,
347649,1480726744717,0,80.2,,118.6,63,106.4,,0.02,0.08,1.0,-3.1,0.4,0.3,1320,0,1,0,0.0,0,38.160191,-122.45356,0.0,0.013,140910960.0,10,2,1.4,0,0.0,-1,0.0,0.0,0.0,0
347669,1480726744737,,,,,,,,0.02,0.08,1.0,-3.1,0.4,0.2,1280,0,,,,,,,,,,,,,,,,,,,
347689,1480726744757,,,,,,,,0.02,0.08,1.01,-3.1,0.5,0.2,1280,0,,,,,,,,,,,,,,,,,,,
347709,1480726744777,,,,,,,,0.02,0.08,1.01,-3.1,0.5,0.2,1220,0,,,,,,,,,,,,,,,,,,,
347729,1480726744797,,,,,,,,0.01,0.08,1.01,-3.1,0.4,0.2,1200,0,,,,,,,,,,,,,,,,,,,
347749,1480726744817,,,,,54,,,0.02,0.08,1.01,-3.1,0.5,0.2,1200,0,1,0,0.0,0,38.160191,-122.45356,0.0,0.013,140910960.0,10,2,1.4,0,0.0,-1,0.0,,0.0,0
347769,1480726744837,,,,,,,,0.02,0.08,1.01,-3.1,0.6,0.1,1180,0,,,,,,,,,,,,,,,,,,,
347789,1480726744857,,,,,,,,0.02,0.08,1.0,-3.1,0.5,0.1,1160,0,,,,,,,,,,,,,,,,,,,
347809,1480726744877,,,,,,,,0.01,0.08,1.0,-3.1,0.4,0.1,1120,0,,,,,,,,,,,,,,,,,,,
347829,1480726744798,,,,,,,,0.01,0.08,1.0,-3.1,0.4,0.1,1120,0,,,,,,,,,,,,,,,,,,,
347849,1480726744818,0,77.6,,116.0,57,105.3,,0.01,0.08,1.0,-3.1,0.4,0.2,1120,0,1,0,0.0,0,38.160191,-122.45356,0.0,0.013,140910960.0,10,2,1.4,0,0.0,-1,0.0,0.0,0.0,0
347869,1480726744838,,,,,,,,0.01,0.08,1.01,-3.1,0.5,0.1,1120,0,,,,,,,,,,,,,,,,,,,
347889,1480726744858,,,,,,,,0.01,0.08,1.0,-3.1,0.4,0.2,1100,0,,,,,,,,,,,,,,,,,,,
347909,1480726744878,,,,,,,,0.01,0.08,1.0,-3.1,0.5,0.1,1080,0,,,,,,,,,,,,,,,,,,,
347929,1480726744892,,,,,,,,0.01,0.07,1.0,-3.1,0.5,0.1,1080,0,,,,,,,,,,,,,,,,,,,
347949,1480726744912,,,,,62,,,0.01,0.07,1.01,-3.1,0.5,0.2,1080,0,1,0,0.0,0,38.160191,-122.45356,0.0,0.013,140910960.0,10,2,1.4,0,0.0,-1,0.0,,0.0,0
347969,1480726744932,,,,,,,,0.01,0.08,1.0,-3.1,0.4,0.2,1060,0,,,,,,,,,,,,,,,,,,,
347989,1480726744952,,,,,,,,0.01,0.08,1.0,-3.1,0.4,0.2,1060,0,,,,,,,,,,,,,,,,,,,
348009,1480726744972,,,,,,,,0.01,0.07,1.01,-3.1,0.4,0.2,1060,0,,,,,,,,,,,,,,,,,,,
348029,1480726744998,,,,,,,,0.02,0.08,1.0,-3.1,0.5,0.1,1040,0,,,,,,,,,,,,,,,,,,,
348049,1480726745018,0,79.4,0.0,118.6,55,106.8,14.87,0.01,0.08,1.0,-3.1,0.5,0.1,1020,0,1,0,0.0,0,38.160191,-122.45356,0.0,0.013,140910960.0,10,2,1.4,0,0.0,-1,0.0,0.0,0.0,0
348069,1480726745038,,,,,,,,0.01,0.08,1.0,-3.1,0.5,0.2,1040,0,,,,,,,,,,,,,,,,,,,
348089,1480726745058,,,,,,,,0.01,0.08,1.0,-3.1,0.5,0.2,1060,0,,,,,,,,,,,,,,,,,,,
348109,1480726745078,,,,,,,,0.01,0.08,1.0,-3.1,0.5,0.2,1060,0,,,,,,,,,,,,,,,,,,,
348129,1480726745098,,,,,,,,0.01,0.08,1.0,-3.1,0.4,0.2,1060,0,,,,,,,,,,,,,,,,,,,
348149,1480726745118,,,,,58,,,0.01,0.07,1.0,-3.1,0.4,0.1,1080,0,1,0,0.0,0,38.160191,-122.45356,0.0,0.013,140910960.0,10,2,1.4,0,0.0,-1,0.0,,0.0,0
348169,1480726745138,,,,,,,,0.01,0.07,1.0,-3.1,0.3,0.1,1080,0,,,,,,,,,,,,,,,,,,,
348189,1480726745158,,,,,,,,0.01,0.07,1.0,-3.1,0.4,0.1,1100,0,,,,,,,,,,,,,,,,,,,
348209,1480726745178,,,,,,,,0.01,0.08,1.0,-3.1,0.5,0.1,1120,0,,,,,,,,,,,,,,,,,,,
348229,1480726745199,,,,,,,,0.02,0.08,1.0,-3.1,0.4,0.1,1140,0,,,,,,,,,,,,,,,,,,,
348249,1480726745219,0,79.8,,117.0,52,104.7,,0.02,0.07,1.0,-3.1,0.4,0.1,1180,0,1,0,0.0,0,38.160191,-122.45356,0.0,0.013,140910960.0,10,2,1.4,0,0.0,-1,0.0,0.0,0.0,0
348269,1480726745239,,,,,,,,0.01,0.07,1.0,-3.1,0.5,0.1,1200,0,,,,,,,,,,,,,,,,,,,
348289,1480726745259,,,,,,,,0.01,0.06,1.0,-3.1,0.5,0.1,1220,0,,,,,,,,,,,,,,,,,,,
348309,1480726745279,,,,,,,,0.01,0.08,0.99,-3.1,0.4,0.1,1240,0,,,,,,,,,,,,,,,,,,,
348329,1480726745298,,,,,,,,0.01,0.08,0.98,-3.1,0.3,0.1,1280,0,,,,,,,,,,,,,,,,,,,
348349,1480726745318,,,,,58,,,0.01,0.07,0.99,-3.1,0.3,0.1,1300,0,1,0,0.0,0,38.160191,-122.45356,0.0,0.013,140910960.0,10,2,1.4,0,0.0,-1,0.0,,0.0,0
348369,1480726745338,,,,,,,,0.01,0.07,0.99,-3.1,0.3,0.1,1320,0,,,,,,,,,,,,,,,,,,,
348389,1480726745358,,,,,,,,0.01,0.07,1.0,-3.1,0.4,0.1,1360,0,,,,,,,,,,,,,,,,,,,
348409,1480726745378,,,,,,,,0.02,0.07,1.0,-3.1,0.5,0.1,1380,0,,,,,,,,,,,,,,,,,,,
348429,1480726745497,,,,,,,,0.02,0.07,1.0,-3.1,0.3,0.2,1400,0,,,,,,,,,,,,,,,,,,,
348449,1480726745517,0,79.9,,117.8,65,104.7,,0.01,0.07,1.0,-3.1,0.1,0.2,1420,0,1,0,0.0,0,38.160191,-122.45356,0.0,0.013,140910960.0,10,2,1.4,0,0.0,-1,0.0,0.0,0.0,0
348469,1480726745537,,,,,,,,0.01,0.06,1.01,-3.1,0.2,0.1,1460,0,,,,,,,,,,,,,,,,,,,
348489,1480726745557,,,,,,,,0.02,0.06,1.02,-3.1,0.5,0.2,1480,0,,,,,,,,,,,,,,,,,,,
348509,1480726745577,,,,,,,,0.02,0.06,1.02,-3.1,0.8,0.1,1500,0,,,,,,,,,,,,,,,,,,,
348529,1480726745597,,,,,,,,0.02,0.06,1.03,-3.1,0.9,0.2,1520,0,,,,,,,,,,,,,,,,,,,
348549,1480726745617,,,,,68,,,0.02,0.06,1.04,-3.1,1.0,0.2,1560,0,1,0,0.0,0,38.160191,-122.45356,0.0,0.013,140910960.0,10,2,1.4,0,0.0,-1,0.0,,0.0,0
348569,1480726745637,,,,,,,,0.02,0.06,1.03,-3.1,0.9,0.2,1560,0,,,,,,,,,,,,,,,,,,,
348589,1480726745657,,,,,,,,0.02,0.06,1.02,-3.1,0.9,0.2,1580,0,,,,,,,,,,,,,,,,,,,
348609,1480726745677,,,,,,,,0.02,0.06,1.02,-3.1,0.8,0.2,1580,0,,,,,,,,,,,,,,,,,,,
348629,1480726745598,,,,,,,,0.01,0.06,1.02,-3.1,0.7,0.2,1620,0,,,,,,,,,,,,,,,,,,,
348649,1480726745618,0,79.2,,118.1,62,106.4,,0.01,0.06,1.02,-3.1,0.9,0.2,1640,0,1,0,0.0,0,38.160191,-122.45356,0.0,0.013,140910960.0,10,2,1.4,0,0.0,-1,0.0,0.0,0.0,0
348669,1480726745638,,,,,,,,0.01,0.06,1.02,-3.1,0.7,0.2,1640,0,,,,,,,,,,,,,,,,,,,
348689,1480726745658,,,,,,,,0.01,0.07,1.01,-3.1,0.5,0.2,1660,0,,,,,,,,,,,,,,,,,,,
348709,1480726745678,,,,,,,,0.01,0.06,1.01,-3.1,0.7,0.3,1680,0,,,,,,,,,,,,,,,,,,,
348729,1480726745698,,,,,,,,0.02,0.06,1.0,-3.1,0.4,0.2,1680,0,,,,,,,,,,,,,,,,,,,
348749,1480726745718,,,,,66,,,0.01,0.07,1.0,-3.1,0.5,0.3,1680,0,1,0,0.0,0,38.160191,-122.45356,0.0,0.013,140910960.0,10,2,1.4,0,0.0,-1,0.0,,0.0,0
348769,1480726745738,,,,,,,,0.02,0.07,1.0,-3.1,0.6,0.3,1700,0,,,,,,,,,,,,,,,,,,,
348789,1480726745758,,,,,,,,0.02,0.07,1.0,-3.1,0.4,0.2,1700,0,,,,,,,,,,,,,,,,,,,
348809,1480726745778,,,,,,,,0.01,0.07,1.01,-3.1,0.5,0.3,1700,0,,,,,,,,,,,,,,,,,,,
348829,1480726745798,,,,,,,,0.01,0.07,1.01,-3.1,0.5,0.3,1700,0,,,,,,,,,,,,,,,,,,,
348849,1480726745818,1,80.2,,118.4,64,105.0,,0.02,0.07,1.01,-3.1,0.5,0.2,1720,0,1,0,0.0,0,38.160191,-122.45356,0.0,0.013,140910960.0,10,2,1.4,0,0.0,-1,0.0,0.0,0.0,0
348869,1480726745838,,,,,,,,0.01,0.06,1.02,-3.1,0.5,0.2,1720,0,,,,,,,,,,,,,,,,,,,
348889,1480726745858,,,,,,,,0.01,0.07,1.01,-3.1,0.6,0.3,1720,0,,,,,,,,,,,,,,,,,,,
348909,1480726745878,,,,,,,,0.02,0.07,1.02,-3.1,0.5,0.2,1720,0,,,,,,,,,,,,,,,,,,,
348929,1480726745894,,,,,,,,0.01,0.07,1.01,-3.1,0.4,0.2,1740,0,,,,,,,,,,,,,,,,,,,
348949,1480726745914,,,,,65,,,0.01,0.06,1.01,-3.1,0.5,0.2,1720,0,1,0,0.0,0,38.160191,-122.45356,0.0,0.013,140910960.0,10,2,1.4,0,0.0,-1,0.0,,0.0,0
348969,1480726745934,,,,,,,,0.02,0.07,1.01,-3.1,0.5,0.3,1720,0,,,,,,,,,,,,,,,,,,,
348989,1480726745954,,,,,,,,0.02,0.07,1.01,-3.1,0.4,0.2,1740,0,,,,,,,,,,,,,,,,,,,
349009,1480726745974,,,,,,,,0.02,0.07,1.0,-3.1,0.4,0.2,1720,0,,,,,,,,,,,,,,,,,,,
349029,1480726745998,,,,,,,,0.02,0.07,1.01,-3.1,0.5,0.3,1720,0,,,,,,,,,,,,,,,,,,,
349049,1480726746018,0,79.0,0.0,118.3,62,106.7,14.9,0.02,0.07,1.01,-3.1,0.5,0.3,1740,0,1,0,0.0,0,38.160191,-122.45356,0.0,0.013,140910960.0,10,2,1.6,0,0.0,-1,0.0,0.0,0.0,0
349069,1480726746038,,,,,,,,0.02,0.08,1.0,-3.1,0.4,0.2,1720,0,,,,,,,,,,,,,,,,,,,
349089,1480726746058,,,,,,,,0.02,0.07,1.01,-3.1,0.4,0.2,1720,0,,,,,,,,,,,,,,,,,,,
349109,1480726746078,,,,,,,,0.02,0.08,1.01,-3.1,0.5,0.3,1720,0,,,,,,,,,,,,,,,,,,,
349129,1480726746098,,,,,,,,0.02,0.08,1.01,-3.1,0.4,0.3,1720,0,,,,,,,,,,,,,,,,,,,
349149,1480726746118,,,,,67,,,0.02,0.08,1.01,-3.1,0.4,0.2,1720,0,1,0,0.0,0,38.160191,-122.45356,0.0,0.013,140910960.0,10,2,1.6,0,0.0,-1,0.0,,0.0,0
349169,1480726746138,,,,,,,,0.02,0.07,1.01,-3.1,0.5,0.2,1720,0,,,,,,,,,,,,,,,,,,,
349189,1480726746158,,,,,,,,0.02,0.08,1.01,-3.1,0.5,0.3,1720,0,,,,,,,,,,,,,,,,,,,
349209,1480726746178,,,,,,,,0.02,0.09,1.01,-3.1,0.4,0.2,1720,0,,,,,,,,,,,,,,,,,,,
349229,1480726746298,,,,,,,,0.02,0.08,1.01,-3.1,0.3,0.2,1720,0,,,,,,,,,,,,,,,,,,,
349249,1480726746318,0,80.2,,118.6,65,105.5,,0.02,0.07,1.01,-3.1,0.5,0.2,1720,0,1,0,0.0,0,38.160191,-122.45356,0.0,0.013,140910960.0,10,2,1.6,0,0.0,-1,0.0,0.0,0.0,0
349269,1480726746338,,,,,,,,0.02,0.08,1.0,-3.1,0.4,0.2,1720,0,,,,,,,,,,,,,,,,,,,
349289,1480726746358,,,,,,,,0.02,0.07,1.01,-3.1,0.4,0.1,1720,0,,,,,,,,,,,,,,,,,,,
349309,1480726746378,,,,,,,,0.02,0.07,1.01,-3.1,0.5,0.1,1720,0,,,,,,,,,,,,,,,,,,,
349329,1480726746398,,,,,,,,0.02,0.07,1.01,-3.1,0.5,0.2,1720,0,,,,,,,,,,,,,,,,,,,
349349,1480726746418,,,,,66,,,0.02,0.08,1.01,-3.1,0.5,0.2,1720,0,1,0,0.0,0,38.160191,-122.45356,0.0,0.013,140910960.0,10,2,1.6,0,0.0,-1,0.0,,0.0,0
349369,1480726746438,,,,,,,,0.02,0.08,1.01,-3.1,0.4,0.1,1720,0,,,,,,,,,,,,,,,,,,,
349389,1480726746458,,,,,,,,0.02,0.07,1.01,-3.2,0.5,0.1,1720,0,,,,,,,,,,,,,,,,,,,
349409,1480726746478,,,,,,,,0.02,0.08,1.01,-3.1,0.5,0.2,1720,0,,,,,,,,,,,,,,,,,,,
349429,1480726746398,,,,,,,,0.02,0.08,1.0,-3.1,0.5,0.2,1700,0,,,,,,,,,,,,,,,,,,,
349449,1480726746418,0,78.0,,116.9,63,105.4,,0.02,0.08,1.0,-3.1,0.5,0.1,1720,0,1,0,0.0,0,38.160191,-122.45356,0.0,0.013,140910960.0,10,2,1.6,0,0.0,-1,0.0,0.0,0.0,0
349469,1480726746438,,,,,,,,0.02,0.07,1.01,-3.1,0.6,0.2,1720,0,,,,,,,,,,,,,,,,,,,
349489,1480726746458,,,,,,,,0.02,0.08,1.0,-3.1,0.5,0.2,1700,0,,,,,,,,,,,,,,,,,,,
349509,1480726746478,,,,,,,,0.02,0.08,1.01,-3.1,0.5,0.1,1700,0,,,,,,,,,,,,,,,,,,,
349529,1480726746499,,,,,,,,0.02,0.08,1.0,-3.1,0.4,0.1,1700,0,,,,,,,,,,,,,,,,,,,
349549,1480726746519,,,,,62,,,0.01,0.08,1.01,-3.1,0.5,0.1,1700,0,1,0,0.0,0,38.160191,-122.45356,0.0,0.013,140910960.0,10,2,1.6,0,0.0,-1,0.0,,0.0,0
349569,1480726746539,,,,,,,,0.02,0.09,1.0,-3.1,0.5,0.2,1680,0,,,,,,,,,,,,,,,,,,,
349589,1480726746559,,,,,,,,0.02,0.09,1.01,-3.1,0.4,0.1,1700,0,,,,,,,,,,,,,,,,,,,
349609,1480726746579,,,,,,,,0.01,0.07,1.01,-3.1,0.4,0.1,1700,0,,,,,,,,,,,,,,,,,,,
349629,1480726746598,,,,,,,,0.01,0.08,1.0,-3.1,0.5,0.2,1700,0,,,,,,,,,,,,,,,,,,,
349649,1480726746618,0,80.2,,118.6,67,104.9,,0.02,0.08,1.01,-3.1,0.5,0.1,1700,0,1,0,0.0,0,38.160191,-122.45356,0.0,0.013,140910960.0,10,2,1.6,0,0.0,-1,0.0,0.0,0.0,0
349669,1480726746638,,,,,,,,0.01,0.08,1.01,-3.1,0.4,0.1,1700,0,,,,,,,,,,,,,,,,,,,
349689,1480726746658,,,,,,,,0.01,0.08,1.0,-3.1,0.5,0.2,1700,0,,,,,,,,,,,,,,,,,,,
349709,1480726746678,,,,,,,,0.01,0.08,1.0,-3.1,0.6,0.1,1680,0,,,,,,,,,,,,,,,,,,,
