"Interval"|"ms"|0|0|1,"Utc"|"ms"|0|0|1,"FuelLevel"|"F"|0|100|5,"OilTemp"|"F"|0.0|300.0|5,"CoolantPressPSI"|"PSI"|0.0|20.0|1,"Coolant"|"F"|0.0|300.0|5,"OilPress"|"PSI"|0|150|10,"EngineTemp"|"F"|0.0|300.0|5,"Battery"|"Volts"|0.0|20.0|1,"AccelX"|"G"|-3.0|3.0|50,"AccelY"|"G"|-3.0|3.0|50,"AccelZ"|"G"|-3.0|3.0|50,"Yaw"|"Deg/Sec"|-300.0|300.0|50,"Pitch"|"Deg/Sec"|-300.0|300.0|50,"Roll"|"Deg/Sec"|-300.0|300.0|50,"RPM"|""|0|10000|50,"Driveshaft"|"RPM"|0|5000|50,"GPIO1"|""|0|1|10,"GPIO2"|""|0|1|10,"GearRatio"|""|-5.0|5.0|10,"Gear"|""|-1|5|10,"Latitude"|"Degrees"|-180.0|180.0|10,"Longitude"|"Degrees"|-180.0|180.0|10,"Speed"|"MPH"|0.0|150.0|10,"Distance"|"Miles"|0.0|0.0|10,"Altitude"|"Feet"|0.0|4000.0|10,"GPSSats"|""|0|20|10,"GPSQual"|""|0|5|10,"GPSDOP"|""|0.0|20.0|10,"LapCount"|""|0|0|10,"LapTime"|"Min"|0.0|0.0|10,"Sector"|""|0|0|10,"SectorTime"|"Min"|0.0|0.0|10,"PredTime"|"Min"|0.0|0.0|5,"ElapsedTime"|"Min"|0.0|0.0|10,"CurrentLap"|""|0|0|10
6869,1480715209486,,,,,,,,0.01,0.06,1.0,-3.1,-0.0,-0.2,880,0,,,,,,,,,,,,,,,,,,,
6889,1480715209506,,,,,,,,0.0,0.07,1.0,-3.2,-0.1,-0.1,860,0,,,,,,,,,,,,,,,,,,,
6909,1480715209526,,,,,,,,0.01,0.07,1.01,-3.2,0.2,-0.0,880,0,,,,,,,,,,,,,,,,,,,
6929,1480715209546,,,,,,,,0.01,0.07,1.01,-3.2,0.1,-0.0,880,0,,,,,,,,,,,,,,,,,,,
6949,1480715209566,,,,,63,,,0.01,0.08,1.01,-3.2,-0.1,-0.0,880,0,1,0,0.0,0,37.478394,-122.203751,0.0,0.0,24.3,4,2,1.2,0,0.0,-1,0.0,,0.0,0
6969,1480715209586,,,,,,,,0.0,0.08,1.01,-3.1,0.0,-0.1,880,0,,,,,,,,,,,,,,,,,,,
6989,1480715209606,,,,,,,,0.01,0.08,1.0,-3.1,0.0,-0.2,880,0,,,,,,,,,,,,,,,,,,,
7009,1480715209626,,,,,,,,0.0,0.06,1.0,-3.1,-0.0,-0.2,860,0,,,,,,,,,,,,,,,,,,,
7029,1480715209646,,,,,,,,0.01,0.06,1.0,-3.1,0.0,-0.2,880,0,,,,,,,,,,,,,,,,,,,
7049,1480715209666,0,71.0,0.5,107.9,63,97.2,14.79,0.01,0.06,1.0,-3.1,-0.0,-0.1,880,0,1,0,0.0,0,37.478394,-122.203751,0.0,0.0,24.3,4,2,1.2,0,0.0,-1,0.0,0.0,0.0,0
7069,1480715209566,,,,,,,,0.01,0.07,1.01,-3.1,-0.0,-0.1,880,0,,,,,,,,,,,,,,,,,,,
7089,1480715209586,,,,,,,,0.02,0.07,1.01,-3.1,0.2,-0.0,880,0,,,,,,,,,,,,,,,,,,,
7109,1480715209606,,,,,,,,0.02,0.08,1.01,-3.1,-0.0,-0.0,880,0,,,,,,,,,,,,,,,,,,,
7129,1480715209626,,,,,,,,0.01,0.08,1.01,-3.1,-0.1,-0.0,880,0,,,,,,,,,,,,,,,,,,,
7149,1480715209665,,,,,59,,,0.01,0.08,1.01,-3.1,-0.0,-0.1,860,0,1,0,0.0,0,37.47839,-122.203766,0.0,0.0,6.7,7,2,2.4,0,0.0,-1,0.0,,0.0,0
7169,1480715209685,,,,,,,,0.01,0.07,1.0,-3.1,-0.0,-0.2,880,0,,,,,,,,,,,,,,,,,,,
7189,1480715209705,,,,,,,,0.01,0.06,1.0,-3.1,0.1,-0.2,880,0,,,,,,,,,,,,,,,,,,,
7209,1480715209725,,,,,,,,0.01,0.06,1.0,-3.1,0.0,-0.2,880,0,,,,,,,,,,,,,,,,,,,
7229,1480715209745,,,,,,,,0.01,0.07,1.0,-3.1,-0.0,-0.2,880,0,,,,,,,,,,,,,,,,,,,
7249,1480715209765,0,71.8,,109.3,57,97.7,,0.01,0.07,1.0,-3.1,0.1,-0.1,880,0,1,0,0.0,0,37.47839,-122.203766,0.0,0.0,7.5,7,2,2.4,0,0.0,-1,0.0,0.0,0.0,0
7269,1480715209785,,,,,,,,0.01,0.07,1.01,-3.1,0.1,-0.1,860,0,,,,,,,,,,,,,,,,,,,
7289,1480715209805,,,,,,,,0.01,0.07,1.01,-3.1,-0.0,-0.1,860,0,,,,,,,,,,,,,,,,,,,
7309,1480715209825,,,,,,,,0.01,0.07,1.01,-3.1,0.0,-0.1,860,0,,,,,,,,,,,,,,,,,,,
7329,1480715209845,,,,,,,,0.01,0.07,1.01,-3.1,0.1,-0.2,860,0,,,,,,,,,,,,,,,,,,,
7349,1480715209864,,,,,62,,,0.01,0.06,1.01,-3.1,0.1,-0.2,860,0,1,0,0.0,0,37.47839,-122.203766,0.0,0.0,8.6,7,2,2.4,0,0.0,-1,0.0,,0.0,0
7369,1480715209884,,,,,,,,0.01,0.06,1.0,-3.1,0.1,-0.1,860,0,,,,,,,,,,,,,,,,,,,
7389,1480715209904,,,,,,,,0.01,0.06,1.0,-3.1,-0.0,-0.1,860,0,,,,,,,,,,,,,,,,,,,
7409,1480715209924,,,,,,,,0.01,0.06,1.01,-3.1,0.2,-0.1,860,0,,,,,,,,,,,,,,,,,,,
7429,1480715209944,,,,,,,,0.01,0.07,1.01,-3.1,0.1,-0.0,840,0,,,,,,,,,,,,,,,,,,,
7449,1480715209964,0,73.5,,110.0,60,98.4,,0.01,0.06,1.01,-3.1,0.0,-0.1,860,0,1,0,0.0,0,37.47839,-122.203766,0.0,0.0,8.6,7,2,2.4,0,0.0,-1,0.0,0.0,0.0,0
7469,1480715209984,,,,,,,,0.0,0.06,1.01,-3.1,0.0,-0.1,860,0,,,,,,,,,,,,,,,,,,,
7489,1480715210004,,,,,,,,0.01,0.06,1.0,-3.1,0.1,-0.2,840,0,,,,,,,,,,,,,,,,,,,
7509,1480715210024,,,,,,,,0.01,0.06,1.0,-3.1,0.1,-0.1,840,0,,,,,,,,,,,,,,,,,,,
7529,1480715210044,,,,,,,,0.01,0.06,1.0,-3.1,-0.0,-0.1,840,0,,,,,,,,,,,,,,,,,,,
7549,1480715210064,,,,,61,,,0.01,0.06,1.0,-3.1,0.2,-0.1,840,0,1,0,0.0,0,37.47839,-122.203766,0.0,0.0,9.0,7,2,2.4,0,0.0,-1,0.0,,0.0,0
7569,1480715210084,,,,,,,,0.01,0.07,1.01,-3.1,0.1,-0.1,840,0,,,,,,,,,,,,,,,,,,,
7589,1480715210104,,,,,,,,0.01,0.07,1.01,-3.1,-0.0,-0.1,840,0,,,,,,,,,,,,,,,,,,,
7609,1480715210124,,,,,,,,0.0,0.07,1.01,-3.1,-0.0,-0.2,860,0,,,,,,,,,,,,,,,,,,,
7629,1480715210144,,,,,,,,0.0,0.06,1.01,-3.1,0.0,-0.2,860,0,,,,,,,,,,,,,,,,,,,
7649,1480715210263,0,73.8,,109.4,60,98.1,,0.01,0.06,1.0,-3.1,0.1,-0.2,860,0,1,0,0.0,0,37.47839,-122.203766,0.0,0.0,9.2,7,2,2.4,0,0.0,-1,0.0,0.0,0.0,0
7669,1480715210283,,,,,,,,0.01,0.06,1.0,-3.1,-0.0,-0.1,860,0,,,,,,,,,,,,,,,,,,,
7689,1480715210303,,,,,,,,0.0,0.06,1.0,-3.1,0.0,-0.1,860,0,,,,,,,,,,,,,,,,,,,
7709,1480715210323,,,,,,,,0.01,0.06,1.01,-3.1,0.1,-0.1,840,0,,,,,,,,,,,,,,,,,,,
7729,1480715210343,,,,,,,,0.0,0.06,1.01,-3.1,-0.1,-0.0,840,0,,,,,,,,,,,,,,,,,,,
7749,1480715210363,,,,,59,,,0.0,0.06,1.01,-3.1,-0.1,-0.1,860,0,1,0,0.0,0,37.47839,-122.203766,0.0,0.0,9.2,7,2,2.4,0,0.0,-1,0.0,,0.0,0
7769,1480715210383,,,,,,,,0.0,0.06,1.0,-3.1,-0.0,-0.2,860,0,,,,,,,,,,,,,,,,,,,
7789,1480715210403,,,,,,,,0.0,0.06,1.0,-3.0,-0.0,-0.2,840,0,,,,,,,,,,,,,,,,,,,
7809,1480715210423,,,,,,,,0.0,0.06,1.0,-3.1,-0.1,-0.1,840,0,,,,,,,,,,,,,,,,,,,
7829,1480715210443,,,,,,,,0.0,0.06,1.0,-3.1,-0.1,-0.1,840,0,,,,,,,,,,,,,,,,,,,
7849,1480715210363,0,71.3,,107.0,58,96.6,,0.01,0.07,1.0,-3.1,0.0,-0.1,840,0,1,0,0.0,0,37.47839,-122.203766,0.0,0.0,9.0,7,2,2.4,0,0.0,-1,0.0,0.0,0.0,0
7869,1480715210383,,,,,,,,0.0,0.07,1.01,-3.1,-0.2,-0.1,840,0,,,,,,,,,,,,,,,,,,,
7889,1480715210403,,,,,,,,0.0,0.07,1.01,-3.1,-0.2,-0.2,840,0,,,,,,,,,,,,,,,,,,,
7909,1480715210423,,,,,,,,0.0,0.06,1.0,-3.1,-0.1,-0.2,840,0,,,,,,,,,,,,,,,,,,,
7929,1480715210443,,,,,,,,0.01,0.06,1.0,-3.1,-0.0,-0.2,840,0,,,,,,,,,,,,,,,,,,,
7949,1480715210462,,,,,62,,,0.01,0.07,1.0,-3.1,-0.1,-0.2,840,0,1,0,0.0,0,37.47839,-122.203766,0.0,0.0,9.0,7,2,2.4,0,0.0,-1,0.0,,0.0,0
7969,1480715210482,,,,,,,,0.01,0.07,1.0,-3.1,-0.1,-0.1,840,0,,,,,,,,,,,,,,,,,,,
7989,1480715210502,,,,,,,,0.01,0.07,1.0,-3.1,-0.0,-0.1,840,0,,,,,,,,,,,,,,,,,,,
8009,1480715210522,,,,,,,,0.01,0.07,1.01,-3.1,-0.1,-0.1,840,0,,,,,,,,,,,,,,,,,,,
8029,1480715210542,,,,,,,,0.0,0.07,1.01,-3.1,-0.1,-0.1,860,0,,,,,,,,,,,,,,,,,,,
8049,1480715210556,0,71.5,0.6,109.1,60,98.4,14.92,0.0,0.06,1.0,-3.1,-0.1,-0.2,860,0,1,0,0.0,0,37.47839,-122.203766,0.0,0.0,9.0,7,2,2.4,0,0.0,-1,0.0,0.0,0.0,0
8069,1480715210576,,,,,,,,0.01,0.06,1.0,-3.1,0.0,-0.1,860,0,,,,,,,,,,,,,,,,,,,
8089,1480715210596,,,,,,,,0.01,0.06,1.0,-3.1,-0.1,-0.1,840,0,,,,,,,,,,,,,,,,,,,
8109,1480715210616,,,,,,,,0.01,0.06,1.0,-3.2,-0.0,-0.0,860,0,,,,,,,,,,,,,,,,,,,
8129,1480715210636,,,,,,,,0.01,0.07,1.01,-3.2,0.0,-0.0,840,0,,,,,,,,,,,,,,,,,,,
8149,1480715210662,,,,,60,,,0.01,0.07,1.01,-3.1,-0.2,-0.0,860,0,1,0,0.0,0,37.47839,-122.203766,0.0,0.0,9.0,7,2,2.4,0,0.0,-1,0.0,,0.0,0
8169,1480715210682,,,,,,,,0.0,0.07,1.01,-3.1,-0.1,-0.1,860,0,,,,,,,,,,,,,,,,,,,
8189,1480715210702,,,,,,,,0.0,0.06,1.0,-3.1,-0.1,-0.2,860,0,,,,,,,,,,,,,,,,,,,
8209,1480715210722,,,,,,,,0.0,0.05,1.0,-3.1,-0.0,-0.2,860,0,,,,,,,,,,,,,,,,,,,
8229,1480715210742,,,,,,,,0.01,0.06,1.0,-3.1,0.0,-0.2,860,0,,,,,,,,,,,,,,,,,,,
8249,1480715210762,0,71.0,,107.9,58,97.7,,0.0,0.06,1.0,-3.2,-0.1,-0.1,880,0,1,0,0.0,0,37.47839,-122.203766,0.0,0.0,9.0,7,2,2.4,0,0.0,-1,0.0,0.0,0.0,0
8269,1480715210782,,,,,,,,0.01,0.06,1.0,-3.2,0.1,-0.0,860,0,,,,,,,,,,,,,,,,,,,
8289,1480715210802,,,,,,,,0.01,0.07,1.01,-3.2,0.1,0.0,880,0,,,,,,,,,,,,,,,,,,,
8309,1480715210822,,,,,,,,0.01,0.07,1.01,-3.2,-0.1,-0.0,880,0,,,,,,,,,,,,,,,,,,,
8329,1480715210842,,,,,,,,0.01,0.06,1.01,-3.1,-0.0,-0.1,880,0,,,,,,,,,,,,,,,,,,,
8349,1480715210862,,,,,59,,,0.0,0.06,1.0,-3.1,0.0,-0.1,880,0,1,0,0.0,0,37.47839,-122.203766,0.0,0.0,9.0,7,2,2.4,0,0.0,-1,0.0,,0.0,0
8369,1480715210882,,,,,,,,0.0,0.06,1.0,-3.1,0.0,-0.2,880,0,,,,,,,,,,,,,,,,,,,
8389,1480715210902,,,,,,,,0.01,0.06,1.0,-3.1,0.1,-0.1,860,0,,,,,,,,,,,,,,,,,,,
8409,1480715210922,,,,,,,,0.01,0.06,1.01,-3.1,-0.0,-0.1,860,0,,,,,,,,,,,,,,,,,,,
8429,1480715210942,,,,,,,,0.01,0.07,1.01,-3.1,-0.1,-0.0,880,0,,,,,,,,,,,,,,,,,,,
8449,1480715211060,0,72.4,,109.9,58,98.5,,0.01,0.07,1.01,-3.2,0.2,0.0,880,0,1,0,0.0,0,37.47839,-122.203766,0.0,0.0,10.1,9,2,2.2,0,0.0,-1,0.0,0.0,0.0,0
8469,1480715211080,,,,,,,,0.01,0.07,1.01,-3.2,0.1,0.0,880,0,,,,,,,,,,,,,,,,,,,
8489,1480715211100,,,,,,,,0.01,0.07,1.01,-3.2,-0.1,-0.0,880,0,,,,,,,,,,,,,,,,,,,
8509,1480715211120,,,,,,,,0.01,0.07,1.01,-3.2,0.0,-0.1,880,0,,,,,,,,,,,,,,,,,,,
8529,1480715211140,,,,,,,,0.01,0.07,1.0,-3.1,0.1,-0.1,880,0,,,,,,,,,,,,,,,,,,,
8549,1480715211160,,,,,63,,,0.0,0.06,1.0,-3.1,0.0,-0.1,880,0,1,0,0.0,0,37.47839,-122.203766,0.0,0.0,10.1,9,2,2.2,0,0.0,-1,0.0,,0.0,0
8569,1480715211180,,,,,,,,0.01,0.06,1.0,-3.1,0.1,-0.1,880,0,,,,,,,,,,,,,,,,,,,
8589,1480715211200,,,,,,,,0.01,0.06,1.0,-3.1,-0.0,-0.1,880,0,,,,,,,,,,,,,,,,,,,
8609,1480715211220,,,,,,,,0.01,0.06,1.01,-3.2,-0.0,-0.0,880,0,,,,,,,,,,,,,,,,,,,
8629,1480715211240,,,,,,,,0.01,0.06,1.01,-3.2,0.1,0.0,880,0,,,,,,,,,,,,,,,,,,,
8649,1480715211160,0,71.4,,109.1,60,98.5,,0.01,0.07,1.02,-3.2,0.1,0.1,880,0,1,0,0.0,0,37.47839,-122.203766,0.0,0.0,10.1,9,2,2.2,0,0.0,-1,0.0,0.0,0.0,0
8669,1480715211180,,,,,,,,0.01,0.07,1.01,-3.2,-0.1,0.1,880,0,,,,,,,,,,,,,,,,,,,
8689,1480715211200,,,,,,,,0.01,0.07,1.02,-3.1,0.0,-0.0,880,0,,,,,,,,,,,,,,,,,,,
8709,1480715211220,,,,,,,,0.01,0.07,1.01,-3.1,0.1,-0.1,900,80,,,,,,,,,,,,,,,,,,,
8729,1480715211240,,,,,,,,0.0,0.06,1.01,-3.1,0.0,-0.1,900,80,,,,,,,,,,,,,,,,,,,
8749,1480715211260,,,,,63,,,0.0,0.05,1.01,-3.1,0.1,-0.2,880,80,1,0,0.0,0,37.47839,-122.203766,0.0,0.0,10.1,9,2,2.2,0,0.0,-1,0.0,,0.0,0
8769,1480715211280,,,,,,,,0.01,0.05,1.01,-3.1,0.1,-0.1,880,23,,,,,,,,,,,,,,,,,,,
8789,1480715211300,,,,,,,,0.01,0.05,1.01,-3.1,-0.0,-0.1,880,23,,,,,,,,,,,,,,,,,,,
8809,1480715211320,,,,,,,,0.0,0.05,1.01,-3.1,0.1,-0.0,880,23,,,,,,,,,,,,,,,,,,,
8829,1480715211340,,,,,,,,0.01,0.06,1.01,-3.1,0.3,0.0,880,23,,,,,,,,,,,,,,,,,,,
8849,1480715211360,0,73.9,,110.3,63,97.8,,0.01,0.07,1.01,-3.1,0.1,0.0,880,23,1,0,11.0,0,37.47839,-122.203766,0.0,0.0,10.1,9,2,2.2,0,0.0,-1,0.0,0.0,0.0,0
8869,1480715211380,,,,,,,,0.0,0.07,1.02,-3.1,-0.0,-0.0,880,23,,,,,,,,,,,,,,,,,,,
8889,1480715211400,,,,,,,,-0.0,0.07,1.02,-3.1,0.1,-0.1,880,23,,,,,,,,,,,,,,,,,,,
8909,1480715211420,,,,,,,,-0.0,0.06,1.01,-3.1,0.1,-0.2,880,23,,,,,,,,,,,,,,,,,,,
8929,1480715211440,,,,,,,,-0.0,0.06,1.01,-3.1,0.1,-0.2,880,23,,,,,,,,,,,,,,,,,,,
8949,1480715211459,,,,,61,,,0.0,0.05,1.01,-3.1,0.1,-0.1,880,1538461,1,0,38.261,0,37.47839,-122.203766,0.0,0.0,10.1,9,2,2.2,0,0.0,-1,0.0,,0.0,0
8969,1480715211479,,,,,,,,0.0,0.06,1.01,-3.1,-0.0,-0.1,880,0,,,,,,,,,,,,,,,,,,,
8989,1480715211499,,,,,,,,0.0,0.06,1.01,-3.2,0.1,-0.0,880,0,,,,,,,,,,,,,,,,,,,
9009,1480715211519,,,,,,,,0.01,0.07,1.01,-3.2,0.2,-0.0,880,0,,,,,,,,,,,,,,,,,,,
9029,1480715211539,,,,,,,,0.01,0.07,1.01,-3.2,-0.0,-0.0,880,0,,,,,,,,,,,,,,,,,,,
9049,1480715211551,0,71.0,0.5,108.9,62,98.5,14.88,0.01,0.07,1.02,-3.2,-0.1,-0.0,860,0,1,0,0.0,0,37.47839,-122.203766,0.0,0.0,10.1,9,2,2.2,0,0.0,-1,0.0,0.0,0.0,0
9069,1480715211571,,,,,,,,0.01,0.07,1.01,-3.1,0.0,-0.1,860,0,,,,,,,,,,,,,,,,,,,
9089,1480715211591,,,,,,,,0.0,0.06,1.01,-3.1,0.0,-0.1,860,23,,,,,,,,,,,,,,,,,,,
9109,1480715211611,,,,,,,,0.01,0.06,1.01,-3.1,0.1,-0.1,860,23,,,,,,,,,,,,,,,,,,,
9129,1480715211631,,,,,,,,0.01,0.06,1.0,-3.1,-0.1,-0.0,860,23,,,,,,,,,,,,,,,,,,,
9149,1480715211659,,,,,62,,,0.01,0.07,1.01,-3.1,-0.0,-0.0,880,23,1,0,0.0,0,37.47839,-122.203766,0.0,0.0,10.1,9,2,2.2,0,0.0,-1,0.0,,0.0,0
9169,1480715211679,,,,,,,,0.02,0.07,1.01,-3.1,0.2,0.0,860,23,,,,,,,,,,,,,,,,,,,
9189,1480715211699,,,,,,,,0.01,0.08,1.01,-3.1,-0.0,-0.0,860,23,,,,,,,,,,,,,,,,,,,
9209,1480715211719,,,,,,,,0.01,0.08,1.01,-3.1,-0.0,-0.0,860,1538461,,,,,,,,,,,,,,,,,,,
9229,1480715211739,,,,,,,,0.0,0.08,1.01,-3.1,0.0,-0.1,880,0,,,,,,,,,,,,,,,,,,,
9249,1480715211858,0,72.9,,107.7,60,95.8,,0.0,0.07,1.01,-3.1,0.0,-0.2,880,0,1,0,37.391,0,37.47839,-122.203766,0.0,0.0,10.1,9,2,2.2,0,0.0,-1,0.0,0.0,0.0,0
9269,1480715211878,,,,,,,,0.0,0.07,1.01,-3.1,0.1,-0.2,880,0,,,,,,,,,,,,,,,,,,,
9289,1480715211898,,,,,,,,0.01,0.06,1.0,-3.1,0.0,-0.1,880,0,,,,,,,,,,,,,,,,,,,
9309,1480715211918,,,,,,,,0.01,0.07,1.0,-3.1,-0.0,-0.1,880,0,,,,,,,,,,,,,,,,,,,
9329,1480715211938,,,,,,,,0.01,0.07,1.0,-3.2,0.2,-0.1,860,0,,,,,,,,,,,,,,,,,,,
9349,1480715211958,,,,,60,,,0.01,0.08,1.0,-3.2,0.1,-0.0,860,0,1,0,0.0,0,37.47839,-122.203766,0.0,0.0,10.1,9,2,2.2,0,0.0,-1,0.0,,0.0,0
9369,1480715211978,,,,,,,,0.0,0.07,1.01,-3.2,-0.1,-0.0,860,0,,,,,,,,,,,,,,,,,,,
9389,1480715211998,,,,,,,,-0.0,0.07,1.01,-3.1,-0.0,-0.1,880,0,,,,,,,,,,,,,,,,,,,
9409,1480715212018,,,,,,,,-0.0,0.06,1.01,-3.1,0.0,-0.2,880,0,,,,,,,,,,,,,,,,,,,
9429,1480715212038,,,,,,,,-0.0,0.06,1.01,-3.1,0.1,-0.2,860,0,,,,,,,,,,,,,,,,,,,
9449,1480715211958,0,70.7,,108.4,60,98.0,,0.0,0.06,1.0,-3.1,0.0,-0.2,860,0,1,0,0.0,0,37.47839,-122.203766,0.0,0.0,10.1,9,2,2.2,0,0.0,-1,0.0,0.0,0.0,0
9469,1480715211978,,,,,,,,0.0,0.06,1.0,-3.1,-0.1,-0.1,860,0,,,,,,,,,,,,,,,,,,,
9489,1480715211998,,,,,,,,0.0,0.06,1.0,-3.1,0.1,-0.1,860,0,,,,,,,,,,,,,,,,,,,
9509,1480715212018,,,,,,,,0.01,0.07,1.01,-3.1,0.2,-0.0,860,0,,,,,,,,,,,,,,,,,,,
9529,1480715212038,,,,,,,,0.01,0.07,1.01,-3.1,0.0,-0.0,880,0,,,,,,,,,,,,,,,,,,,
9549,1480715212058,,,,,61,,,0.0,0.07,1.01,-3.1,0.0,-0.1,880,0,1,0,0.0,0,37.47839,-122.203766,0.0,0.0,10.1,9,2,2.2,0,0.0,-1,0.0,,0.0,0
9569,1480715212078,,,,,,,,-0.0,0.07,1.01,-3.1,0.0,-0.2,880,0,,,,,,,,,,,,,,,,,,,
9589,1480715212098,,,,,,,,-0.0,0.06,1.01,-3.1,0.1,-0.2,860,0,,,,,,,,,,,,,,,,,,,
9609,1480715212118,,,,,,,,0.0,0.06,1.0,-3.1,0.1,-0.2,860,0,,,,,,,,,,,,,,,,,,,
9629,1480715212138,,,,,,,,0.0,0.06,1.0,-3.1,-0.0,-0.1,860,0,,,,,,,,,,,,,,,,,,,
9649,1480715212158,0,73.3,,109.0,60,95.8,,0.0,0.07,1.0,-3.1,0.1,-0.0,880,0,1,0,0.0,0,37.47839,-122.203766,0.0,0.0,10.1,9,2,2.2,0,0.0,-1,0.0,0.0,0.0,0
9669,1480715212178,,,,,,,,0.01,0.07,1.01,-3.1,0.3,0.0,880,0,,,,,,,,,,,,,,,,,,,
9689,1480715212151,,,,,,,,0.01,0.08,1.01,-3.1,0.1,0.0,880,0,,,,,,,,,,,,,,,,,,,
9709,1480715212171,,,,,,,,0.0,0.08,1.01,-3.1,-0.0,-0.0,880,0,,,,,,,,,,,,,,,,,,,
9729,1480715212191,,,,,,,,0.0,0.08,1.01,-3.1,0.1,-0.1,880,0,,,,,,,,,,,,,,,,,,,
9749,1480715212211,,,,,60,,,-0.0,0.07,1.0,-3.1,0.0,-0.2,880,0,1,0,0.0,0,37.47839,-122.203766,0.0,0.0,10.1,9,2,2.2,0,0.0,-1,0.0,,0.0,0
9769,1480715212231,,,,,,,,-0.0,0.06,1.0,-3.1,0.1,-0.3,880,0,,,,,,,,,,,,,,,,,,,
9789,1480715212294,,,,,,,,0.0,0.06,1.0,-3.1,0.1,-0.2,880,0,,,,,,,,,,,,,,,,,,,
9809,1480715212314,,,,,,,,0.01,0.06,1.0,-3.1,0.0,-0.2,880,0,,,,,,,,,,,,,,,,,,,
9829,1480715212334,,,,,,,,0.0,0.07,1.0,-3.1,0.1,-0.1,880,0,,,,,,,,,,,,,,,,,,,
9849,1480715212354,0,71.8,,110.1,59,98.8,,0.01,0.07,1.01,-3.1,0.3,0.0,880,0,1,0,0.0,0,37.47839,-122.203766,0.0,0.0,10.1,9,2,2.2,0,0.0,-1,0.0,0.0,0.0,0
9869,1480715212374,,,,,,,,0.01,0.08,1.0,-3.1,0.2,-0.0,880,0,,,,,,,,,,,,,,,,,,,
9889,1480715212394,,,,,,,,0.01,0.08,1.01,-3.1,-0.1,-0.0,880,0,,,,,,,,,,,,,,,,,,,
9909,1480715212414,,,,,,,,0.0,0.08,1.01,-3.1,0.1,-0.1,860,0,,,,,,,,,,,,,,,,,,,
9929,1480715212434,,,,,,,,0.0,0.07,1.0,-3.1,0.1,-0.2,880,0,,,,,,,,,,,,,,,,,,,
9949,1480715212454,,,,,64,,,-0.0,0.06,1.0,-3.0,0.2,-0.2,880,0,1,0,0.0,0,37.47839,-122.203766,0.0,0.0,10.1,9,2,2.2,0,0.0,-1,0.0,,0.0,0
9969,1480715212474,,,,,,,,0.0,0.06,1.0,-3.1,0.2,-0.2,880,0,,,,,,,,,,,,,,,,,,,
9989,1480715212494,,,,,,,,0.0,0.07,1.0,-3.1,0.1,-0.1,880,0,,,,,,,,,,,,,,,,,,,
10009,1480715212514,,,,,,,,0.0,0.07,1.0,-3.1,0.2,-0.1,860,0,,,,,,,,,,,,,,,,,,,
10029,1480715212534,,,,,,,,0.01,0.08,1.0,-3.1,0.3,-0.0,860,0,,,,,,,,,,,,,,,,,,,
10049,1480715212554,0,72.2,0.6,107.9,63,96.4,14.86,0.0,0.08,1.01,-3.1,0.0,-0.0,860,0,1,0,0.0,0,37.47839,-122.203766,0.0,0.0,10.1,9,2,2.2,0,0.0,-1,0.0,0.0,0.0,0
10069,1480715212574,,,,,,,,-0.0,0.08,1.01,-3.1,-0.0,-0.1,860,0,,,,,,,,,,,,,,,,,,,
10089,1480715212693,,,,,,,,-0.01,0.08,1.01,-3.1,0.0,-0.1,860,0,,,,,,,,,,,,,,,,,,,
10109,1480715212713,,,,,,,,-0.01,0.07,1.0,-3.1,0.1,-0.2,860,0,,,,,,,,,,,,,,,,,,,
10129,1480715212733,,,,,,,,-0.0,0.07,1.0,-3.1,0.1,-0.2,860,0,,,,,,,,,,,,,,,,,,,
10149,1480715212753,,,,,60,,,-0.0,0.07,1.0,-3.1,0.0,-0.1,840,0,1,0,0.0,0,37.47839,-122.203766,0.0,0.0,10.1,9,2,2.2,0,0.0,-1,0.0,,0.0,0
10169,1480715212773,,,,,,,,0.0,0.07,1.01,-3.1,0.2,-0.0,840,0,,,,,,,,,,,,,,,,,,,
10189,1480715212793,,,,,,,,0.0,0.08,1.01,-3.1,-0.0,-0.0,840,0,,,,,,,,,,,,,,,,,,,
10209,1480715212813,,,,,,,,-0.0,0.07,1.01,-3.1,-0.0,-0.1,860,0,,,,,,,,,,,,,,,,,,,
10229,1480715212833,,,,,,,,-0.01,0.07,1.01,-3.1,-0.1,-0.2,860,0,,,,,,,,,,,,,,,,,,,
10249,1480715212853,0,71.5,,107.9,61,96.5,,-0.01,0.06,1.0,-3.1,0.0,-0.3,860,13,1,0,0.0,0,37.47839,-122.203766,0.0,0.0,10.1,9,2,2.2,0,0.0,-1,0.0,0.0,0.0,0
10269,1480715212873,,,,,,,,-0.01,0.07,1.0,-3.1,0.1,-0.2,860,13,,,,,,,,,,,,,,,,,,,
10289,1480715212795,,,,,,,,-0.01,0.07,1.0,-3.1,-0.1,-0.1,840,13,,,,,,,,,,,,,,,,,,,
10309,1480715212815,,,,,,,,-0.0,0.07,1.0,-3.1,0.1,-0.1,840,13,,,,,,,,,,,,,,,,,,,
10329,1480715212835,,,,,,,,0.0,0.08,1.0,-3.1,-0.0,-0.1,860,13,,,,,,,,,,,,,,,,,,,
10349,1480715212855,,,,,59,,,-0.0,0.08,1.01,-3.1,-0.1,-0.1,860,13,1,0,66.154,0,37.47839,-122.203766,0.0,0.0,10.1,9,2,2.2,0,0.0,-1,0.0,,0.0,0
10369,1480715212875,,,,,,,,-0.01,0.07,1.0,-3.0,-0.1,-0.2,860,13,,,,,,,,,,,,,,,,,,,
10389,1480715212895,,,,,,,,-0.01,0.06,1.0,-3.0,0.0,-0.2,860,12,,,,,,,,,,,,,,,,,,,
10409,1480715212907,,,,,,,,-0.01,0.07,1.0,-3.0,0.0,-0.2,860,12,,,,,,,,,,,,,,,,,,,
10429,1480715212927,,,,,,,,-0.01,0.07,1.0,-3.0,-0.1,-0.2,840,12,,,,,,,,,,,,,,,,,,,
10449,1480715212947,0,73.6,,110.6,61,95.9,,-0.0,0.07,1.0,-3.1,0.1,-0.1,840,12,1,0,66.154,0,37.47839,-122.203766,0.0,0.0,10.1,9,2,2.2,0,0.0,-1,0.0,0.0,0.0,0
10469,1480715212967,,,,,,,,0.0,0.08,1.0,-3.0,-0.1,-0.1,840,12,,,,,,,,,,,,,,,,,,,
10489,1480715212994,,,,,,,,-0.01,0.08,1.01,-3.0,-0.1,-0.1,860,12,,,,,,,,,,,,,,,,,,,
10509,1480715213014,,,,,,,,-0.01,0.08,1.0,-3.0,-0.1,-0.2,860,12,,,,,,,,,,,,,,,,,,,
10529,1480715213034,,,,,,,,-0.01,0.07,1.0,-3.0,0.0,-0.3,840,12,,,,,,,,,,,,,,,,,,,
10549,1480715213054,,,,,60,,,-0.01,0.07,1.0,-3.0,0.0,-0.2,840,12,1,0,70.0,0,37.47839,-122.203766,0.0,0.0,10.1,9,2,2.2,0,0.0,-1,0.0,,0.0,0
10569,1480715213074,,,,,,,,-0.01,0.08,1.0,-3.0,-0.1,-0.2,840,12,,,,,,,,,,,,,,,,,,,
10589,1480715213094,,,,,,,,0.0,0.08,1.0,-3.0,0.1,-0.1,840,13,,,,,,,,,,,,,,,,,,,
10609,1480715213114,,,,,,,,0.0,0.08,1.01,-3.0,-0.1,-0.1,840,13,,,,,,,,,,,,,,,,,,,
10629,1480715213134,,,,,,,,-0.01,0.08,1.01,-3.0,-0.2,-0.1,860,13,,,,,,,,,,,,,,,,,,,
10649,1480715213154,0,74.6,,111.5,60,98.0,,-0.01,0.07,1.0,-2.9,-0.1,-0.2,860,13,1,0,70.0,0,37.47839,-122.203766,0.0,0.0,10.1,9,2,2.2,0,0.0,-1,0.0,0.0,0.0,0
10669,1480715213174,,,,,,,,-0.01,0.06,1.0,-2.9,-0.0,-0.3,840,13,,,,,,,,,,,,,,,,,,,
10689,1480715213194,,,,,,,,-0.01,0.07,1.0,-2.9,-0.0,-0.2,840,15,,,,,,,,,,,,,,,,,,,
10709,1480715213214,,,,,,,,-0.01,0.07,1.0,-2.9,-0.1,-0.2,840,15,,,,,,,,,,,,,,,,,,,
10729,1480715213234,,,,,,,,0.0,0.07,1.0,-3.0,0.1,-0.1,840,15,,,,,,,,,,,,,,,,,,,
10749,1480715213254,,,,,61,,,-0.0,0.08,1.0,-2.9,-0.1,-0.1,840,15,1,0,66.154,0,37.47839,-122.203766,0.0,0.0,10.1,9,2,2.2,0,0.0,-1,0.0,,0.0,0
10769,1480715213274,,,,,,,,-0.01,0.07,1.01,-2.9,-0.2,-0.1,840,16,,,,,,,,,,,,,,,,,,,
10789,1480715213294,,,,,,,,-0.01,0.07,1.0,-2.9,-0.1,-0.2,860,16,,,,,,,,,,,,,,,,,,,
10809,1480715213314,,,,,,,,-0.01,0.07,1.0,-2.9,-0.0,-0.2,840,16,,,,,,,,,,,,,,,,,,,
10829,1480715213334,,,,,,,,-0.01,0.07,1.0,-2.9,-0.1,-0.2,840,16,,,,,,,,,,,,,,,,,,,
10849,1480715213354,0,74.6,,111.4,60,97.9,,-0.01,0.07,0.99,-3.0,-0.1,-0.1,820,18,1,0,56.0,0,37.47839,-122.203766,0.0,0.0,10.1,9,2,2.2,0,0.0,-1,0.0,0.0,0.0,0
10869,1480715213374,,,,,,,,0.0,0.07,1.0,-3.0,0.0,-0.1,840,18,,,,,,,,,,,,,,,,,,,
10889,1480715213493,,,,,,,,-0.0,0.08,1.01,-2.9,-0.2,-0.1,840,18,,,,,,,,,,,,,,,,,,,
10909,1480715213513,,,,,,,,-0.01,0.08,1.01,-2.9,-0.2,-0.1,860,18,,,,,,,,,,,,,,,,,,,
10929,1480715213533,,,,,,,,-0.01,0.07,1.0,-2.9,-0.2,-0.2,860,20,,,,,,,,,,,,,,,,,,,
10949,1480715213553,,,,,61,,,-0.01,0.06,1.0,-2.9,-0.1,-0.2,840,20,1,0,45.556,0,37.47839,-122.203766,0.0,0.0,10.1,9,2,2.2,0,0.0,-1,0.0,,0.0,0
10969,1480715213573,,,,,,,,-0.01,0.07,1.0,-2.9,-0.1,-0.2,840,20,,,,,,,,,,,,,,,,,,,
10989,1480715213593,,,,,,,,-0.0,0.07,1.0,-3.0,-0.2,-0.1,840,21,,,,,,,,,,,,,,,,,,,
11009,1480715213613,,,,,,,,0.0,0.07,1.0,-3.0,0.0,-0.1,840,21,,,,,,,,,,,,,,,,,,,
11029,1480715213633,,,,,,,,-0.0,0.08,1.0,-2.9,-0.2,-0.1,840,21,,,,,,,,,,,,,,,,,,,
11049,1480715213653,0,71.7,0.4,107.6,57,96.3,14.88,-0.01,0.08,1.0,-2.9,-0.2,-0.1,860,23,1,0,42.0,0,37.47839,-122.203766,0.0,0.0,10.1,9,2,2.2,0,0.0,-1,0.0,0.0,0.0,0
11069,1480715213673,,,,,,,,-0.01,0.07,1.0,-2.9,-0.1,-0.2,860,23,,,,,,,,,,,,,,,,,,,
11089,1480715213594,,,,,,,,-0.01,0.06,1.0,-2.9,-0.0,-0.3,840,23,,,,,,,,,,,,,,,,,,,
11109,1480715213614,,,,,,,,-0.01,0.06,0.99,-2.9,-0.0,-0.2,840,23,,,,,,,,,,,,,,,,,,,
11129,1480715213634,,,,,,,,-0.01,0.07,0.99,-2.9,-0.1,-0.1,840,23,,,,,,,,,,,,,,,,,,,
11149,1480715213654,,,,,61,,,-0.0,0.07,1.0,-2.9,0.1,-0.1,860,23,1,0,37.391,0,37.47839,-122.203766,0.0,0.0,10.1,9,2,2.2,0,0.0,-1,0.0,,0.0,0
11169,1480715213674,,,,,,,,0.0,0.08,1.0,-2.9,-0.1,-0.1,860,24,,,,,,,,,,,,,,,,,,,
11189,1480715213694,,,,,,,,-0.01,0.07,1.01,-2.9,-0.2,-0.1,860,24,,,,,,,,,,,,,,,,,,,
11209,1480715213714,,,,,,,,-0.01,0.07,1.0,-2.9,-0.2,-0.2,860,24,,,,,,,,,,,,,,,,,,,
11229,1480715213734,,,,,,,,-0.01,0.07,1.0,-2.9,-0.1,-0.2,860,27,,,,,,,,,,,,,,,,,,,
11249,1480715213754,0,74.4,,111.9,59,98.2,,-0.01,0.07,1.0,-2.9,-0.0,-0.2,860,27,1,0,37.391,0,37.47839,-122.203766,0.0,0.0,10.1,9,2,2.2,0,0.0,-1,0.0,0.0,0.0,0
11269,1480715213774,,,,,,,,-0.01,0.07,1.0,-2.9,-0.1,-0.2,860,27,,,,,,,,,,,,,,,,,,,
11289,1480715213794,,,,,,,,-0.0,0.07,1.0,-2.9,0.0,-0.1,840,27,,,,,,,,,,,,,,,,,,,
11309,1480715213814,,,,,,,,0.0,0.07,1.01,-2.8,0.0,-0.1,840,27,,,,,,,,,,,,,,,,,,,
11329,1480715213834,,,,,,,,-0.01,0.07,1.01,-2.8,-0.0,-0.1,860,29,,,,,,,,,,,,,,,,,,,
11349,1480715213854,,,,,61,,,-0.01,0.07,1.01,-2.8,-0.0,-0.2,860,29,1,0,31.852,0,37.47839,-122.203766,0.0,0.0,10.1,9,2,2.2,0,0.0,-1,0.0,,0.0,0
11369,1480715213874,,,,,,,,-0.01,0.06,1.01,-2.8,0.0,-0.3,840,29,,,,,,,,,,,,,,,,,,,
11389,1480715213894,,,,,,,,-0.01,0.06,1.0,-2.8,0.1,-0.2,840,29,,,,,,,,,,,,,,,,,,,
11409,1480715213906,,,,,,,,-0.01,0.06,1.0,-2.8,-0.0,-0.2,840,29,,,,,,,,,,,,,,,,,,,
11429,1480715213926,,,,,,,,-0.01,0.07,1.0,-2.9,0.1,-0.1,840,30,,,,,,,,,,,,,,,,,,,
11449,1480715213946,0,73.5,,109.6,59,95.1,,0.0,0.07,1.01,-2.9,0.1,-0.1,840,30,1,0,29.655,0,37.47839,-122.203766,0.0,0.0,10.1,9,2,2.2,0,0.0,-1,0.0,0.0,0.0,0
11469,1480715213966,,,,,,,,-0.01,0.06,1.01,-2.9,0.0,-0.1,840,32,,,,,,,,,,,,,,,,,,,
11489,1480715213991,,,,,,,,-0.01,0.07,1.01,-2.8,0.0,-0.2,860,32,,,,,,,,,,,,,,,,,,,
11509,1480715214011,,,,,,,,-0.01,0.06,1.01,-2.8,0.1,-0.2,840,30,,,,,,,,,,,,,,,,,,,
11529,1480715214031,,,,,,,,-0.0,0.06,1.0,-2.8,0.1,-0.2,840,30,,,,,,,,,,,,,,,,,,,
11549,1480715214051,,,,,61,,,-0.0,0.06,1.0,-2.8,-0.0,-0.1,840,30,1,0,28.0,0,37.47839,-122.203766,0.0,0.0,16.0,10,2,1.7,0,0.0,-1,0.0,,0.0,0
11569,1480715214071,,,,,,,,0.0,0.06,1.0,-2.8,0.2,-0.1,840,33,,,,,,,,,,,,,,,,,,,
11589,1480715214092,,,,,,,,0.0,0.07,1.0,-2.8,0.1,-0.1,840,33,,,,,,,,,,,,,,,,,,,
11609,1480715214112,,,,,,,,-0.0,0.07,1.01,-2.7,0.1,-0.1,840,33,,,,,,,,,,,,,,,,,,,
11629,1480715214132,,,,,,,,-0.01,0.07,1.01,-2.7,-0.0,-0.2,860,33,,,,,,,,,,,,,,,,,,,
11649,1480715214152,0,72.7,,111.4,61,99.0,,-0.01,0.06,1.01,-2.7,0.1,-0.3,840,33,1,0,25.455,0,37.47839,-122.203766,0.0,0.0,16.0,10,2,1.7,0,0.0,-1,0.0,0.0,0.0,0
11669,1480715214172,,,,,,,,-0.0,0.06,1.0,-2.7,0.1,-0.2,840,33,,,,,,,,,,,,,,,,,,,
11689,1480715214292,,,,,,,,-0.0,0.06,1.0,-2.7,-0.0,-0.2,840,35,,,,,,,,,,,,,,,,,,,
11709,1480715214312,,,,,,,,-0.0,0.07,1.0,-2.8,0.1,-0.1,840,35,,,,,,,,,,,,,,,,,,,
11729,1480715214332,,,,,,,,0.0,0.07,1.01,-2.8,0.1,-0.1,840,35,,,,,,,,,,,,,,,,,,,
11749,1480715214352,,,,,59,,,-0.0,0.07,1.01,-2.8,0.0,-0.1,840,35,1,0,25.455,0,37.47839,-122.203766,0.0,0.0,16.0,10,2,1.7,0,0.0,-1,0.0,,0.0,0
11769,1480715214372,,,,,,,,-0.01,0.07,1.01,-2.7,0.0,-0.1,860,36,,,,,,,,,,,,,,,,,,,
11789,1480715214392,,,,,,,,-0.01,0.06,1.01,-2.7,0.1,-0.2,820,36,,,,,,,,,,,,,,,,,,,
11809,1480715214412,,,,,,,,-0.0,0.06,1.0,-2.7,0.1,-0.1,820,38,,,,,,,,,,,,,,,,,,,
11829,1480715214432,,,,,,,,-0.0,0.07,1.0,-2.7,-0.0,-0.1,840,38,,,,,,,,,,,,,,,,,,,
11849,1480715214452,0,73.3,,109.0,60,95.2,,0.0,0.07,1.0,-2.7,0.1,-0.0,840,36,1,0,24.0,0,37.47839,-122.203766,0.0,0.0,16.0,10,2,1.7,0,0.0,-1,0.0,0.0,0.0,0
11869,1480715214472,,,,,,,,-0.0,0.07,1.0,-2.7,-0.1,-0.0,840,36,,,,,,,,,,,,,,,,,,,
11889,1480715214392,,,,,,,,-0.01,0.07,1.01,-2.7,-0.1,-0.1,840,40,,,,,,,,,,,,,,,,,,,
11909,1480715214412,,,,,,,,-0.01,0.06,1.01,-2.7,-0.1,-0.1,840,40,,,,,,,,,,,,,,,,,,,
11929,1480715214432,,,,,,,,-0.01,0.06,1.0,-2.7,0.1,-0.2,840,38,,,,,,,,,,,,,,,,,,,
11949,1480715214452,,,,,63,,,-0.01,0.07,1.0,-2.7,-0.1,-0.1,820,38,1,0,23.333,0,37.47839,-122.203766,0.0,0.0,16.0,10,2,1.7,0,0.0,-1,0.0,,0.0,0
11969,1480715214472,,,,,,,,-0.01,0.07,1.0,-2.8,0.0,-0.1,820,43,,,,,,,,,,,,,,,,,,,
11989,1480715214491,,,,,,,,-0.01,0.07,1.0,-2.8,-0.1,-0.0,820,43,,,,,,,,,,,,,,,,,,,
12009,1480715214511,,,,,,,,-0.01,0.07,1.01,-2.7,-0.0,-0.1,820,40,,,,,,,,,,,,,,,,,,,
12029,1480715214531,,,,,,,,-0.02,0.06,1.01,-2.7,-0.0,-0.2,820,44,,,,,,,,,,,,,,,,,,,
12049,1480715214551,1,72.3,0.9,111.4,57,99.1,14.81,-0.01,0.06,1.0,-2.7,0.1,-0.2,840,44,1,0,21.579,0,37.47839,-122.203766,0.0,0.0,16.0,10,2,1.7,0,0.0,-1,0.0,0.0,0.0,0
12069,1480715214571,,,,,,,,-0.01,0.06,1.0,-2.7,0.1,-0.1,840,41,,,,,,,,,,,,,,,,,,,
12089,1480715214591,,,,,,,,-0.01,0.06,1.0,-2.7,0.1,-0.1,820,41,,,,,,,,,,,,,,,,,,,
12109,1480715214611,,,,,,,,-0.01,0.07,1.0,-2.7,0.1,-0.0,820,46,,,,,,,,,,,,,,,,,,,
12129,1480715214631,,,,,,,,-0.01,0.06,1.0,-2.7,0.2,-0.1,820,46,,,,,,,,,,,,,,,,,,,
12149,1480715214651,,,,,59,,,-0.01,0.06,1.0,-2.7,0.1,-0.1,820,46,1,0,19.091,0,37.47839,-122.203766,0.0,0.0,16.0,10,2,1.7,0,0.0,-1,0.0,,0.0,0
12169,1480715214671,,,,,,,,-0.01,0.05,1.0,-2.7,0.2,-0.2,820,46,,,,,,,,,,,,,,,,,,,
12189,1480715214692,,,,,,,,-0.01,0.06,1.0,-2.7,0.2,-0.1,820,46,,,,,,,,,,,,,,,,,,,
12209,1480715214712,,,,,,,,-0.01,0.06,1.0,-2.7,0.2,-0.1,840,47,,,,,,,,,,,,,,,,,,,
12229,1480715214732,,,,,,,,-0.01,0.07,1.0,-2.7,0.1,-0.1,800,47,,,,,,,,,,,,,,,,,,,
12249,1480715214752,0,70.7,,109.8,57,98.9,,-0.01,0.06,1.01,-2.6,0.2,-0.1,800,47,1,0,17.826,0,37.47839,-122.203766,0.0,0.0,16.0,10,2,1.7,0,0.0,-1,0.0,0.0,0.0,0
12269,1480715214772,,,,,,,,-0.01,0.06,1.0,-2.6,0.1,-0.1,820,46,,,,,,,,,,,,,,,,,,,
12289,1480715214792,,,,,,,,-0.01,0.06,1.0,-2.6,0.2,-0.1,820,44,,,,,,,,,,,,,,,,,,,
12309,1480715214812,,,,,,,,-0.0,0.07,1.0,-2.6,0.0,-0.0,820,44,,,,,,,,,,,,,,,,,,,
12329,1480715214832,,,,,,,,0.0,0.07,1.0,-2.6,0.1,0.0,820,46,,,,,,,,,,,,,,,,,,,
12349,1480715214852,,,,,62,,,-0.0,0.07,1.01,-2.6,-0.0,-0.0,860,46,1,0,17.021,0,37.47839,-122.203766,0.0,0.0,16.0,10,2,1.7,0,0.0,-1,0.0,,0.0,0
12369,1480715214872,,,,,,,,-0.0,0.07,1.01,-2.6,-0.0,-0.1,820,46,,,,,,,,,,,,,,,,,,,
12389,1480715214892,,,,,,,,-0.01,0.07,1.01,-2.6,-0.1,-0.2,820,46,,,,,,,,,,,,,,,,,,,
12409,1480715214904,,,,,,,,0.0,0.06,1.0,-2.6,0.1,-0.1,820,46,,,,,,,,,,,,,,,,,,,
12429,1480715214924,,,,,,,,0.0,0.07,1.0,-2.6,-0.1,-0.0,840,43,,,,,,,,,,,,,,,,,,,
12449,1480715214944,0,74.1,,111.2,57,95.4,,0.0,0.07,1.0,-2.6,-0.0,0.0,840,43,1,0,18.696,0,37.47839,-122.203766,0.0,0.0,16.0,10,2,1.7,0,0.0,-1,0.0,0.0,0.0,0
12469,1480715214964,,,,,,,,0.0,0.08,1.01,-2.6,0.1,0.0,860,41,,,,,,,,,,,,,,,,,,,
12489,1480715215092,,,,,,,,0.0,0.07,1.01,-2.6,-0.1,0.0,880,41,,,,,,,,,,,,,,,,,,,
12509,1480715215112,,,,,,,,-0.0,0.07,1.0,-2.5,-0.1,-0.0,860,38,,,,,,,,,,,,,,,,,,,
12529,1480715215132,,,,,,,,-0.0,0.07,1.0,-2.5,-0.1,-0.1,860,38,,,,,,,,,,,,,,,,,,,
12549,1480715215152,,,,,62,,,0.0,0.07,1.0,-2.6,0.0,-0.1,880,36,1,0,19.535,0,37.47839,-122.203766,0.0,0.0,16.0,10,2,1.7,0,0.0,-1,0.0,,0.0,0
12569,1480715215172,,,,,,,,0.01,0.07,1.0,-2.6,-0.0,-0.1,880,36,,,,,,,,,,,,,,,,,,,
12589,1480715215192,,,,,,,,0.01,0.07,1.0,-2.6,-0.1,-0.0,880,35,,,,,,,,,,,,,,,,,,,
12609,1480715215212,,,,,,,,0.01,0.07,1.01,-2.6,-0.1,-0.0,880,35,,,,,,,,,,,,,,,,,,,
12629,1480715215232,,,,,,,,0.02,0.07,1.01,-2.6,0.1,0.0,900,36,,,,,,,,,,,,,,,,,,,
12649,1480715215252,0,70.4,,109.7,60,98.5,,0.02,0.07,1.01,-2.6,0.0,0.0,900,36,1,0,24.444,0,37.47839,-122.203766,0.0,0.0,16.0,10,2,1.7,0,0.0,-1,0.0,0.0,0.0,0
12669,1480715215272,,,,,,,,0.02,0.07,1.01,-2.6,-0.2,0.0,900,43,,,,,,,,,,,,,,,,,,,
12689,1480715215192,,,,,,,,0.01,0.07,1.02,-2.6,-0.1,-0.0,900,47,,,,,,,,,,,,,,,,,,,
12709,1480715215212,,,,,,,,0.01,0.07,1.01,-2.6,0.1,-0.1,900,47,,,,,,,,,,,,,,,,,,,
12729,1480715215232,,,,,,,,0.01,0.07,1.0,-2.6,0.0,-0.1,900,47,,,,,,,,,,,,,,,,,,,
12749,1480715215252,,,,,64,,,0.01,0.06,1.0,-2.6,-0.0,-0.2,920,47,1,0,25.0,0,37.47839,-122.203766,0.0,0.0,16.0,10,2,1.7,0,0.0,-1,0.0,,0.0,0
12769,1480715215272,,,,,,,,0.02,0.07,1.01,-2.6,0.0,-0.2,900,46,,,,,,,,,,,,,,,,,,,
12789,1480715215292,,,,,,,,0.02,0.07,1.0,-2.6,0.0,-0.1,920,46,,,,,,,,,,,,,,,,,,,
12809,1480715215312,,,,,,,,0.03,0.07,1.0,-2.6,-0.2,-0.1,920,46,,,,,,,,,,,,,,,,,,,
12829,1480715215332,,,,,,,,0.02,0.08,1.0,-2.6,-0.2,-0.0,900,44,,,,,,,,,,,,,,,,,,,
12849,1480715215352,0,73.0,,108.8,66,95.7,,0.02,0.08,1.01,-2.7,-0.0,0.0,900,44,1,0,20.0,0,37.47839,-122.203766,0.0,0.0,16.0,10,2,1.7,0,0.0,-1,0.0,0.0,0.0,0
12869,1480715215372,,,,,,,,0.03,0.08,1.01,-2.7,0.1,0.0,920,44,,,,,,,,,,,,,,,,,,,
12889,1480715215392,,,,,,,,0.03,0.09,1.01,-2.7,-0.1,0.0,920,44,,,,,,,,,,,,,,,,,,,
12909,1480715215412,,,,,,,,0.02,0.09,1.01,-2.7,-0.3,0.0,900,43,,,,,,,,,,,,,,,,,,,
12929,1480715215432,,,,,,,,0.02,0.08,1.01,-2.7,-0.2,-0.0,900,43,,,,,,,,,,,,,,,,,,,
12949,1480715215452,,,,,62,,,0.02,0.08,1.01,-2.6,-0.1,-0.1,900,43,1,0,20.909,0,37.47839,-122.203766,0.0,0.0,16.0,10,2,1.7,0,0.0,-1,0.0,,0.0,0
12969,1480715215472,,,,,,,,0.02,0.08,1.0,-2.6,-0.0,-0.1,900,41,,,,,,,,,,,,,,,,,,,
12989,1480715215493,,,,,,,,0.02,0.07,1.0,-2.6,-0.1,-0.2,900,41,,,,,,,,,,,,,,,,,,,
13009,1480715215513,,,,,,,,0.02,0.07,1.0,-2.6,-0.1,-0.2,900,41,,,,,,,,,,,,,,,,,,,
13029,1480715215533,,,,,,,,0.03,0.06,1.0,-2.6,-0.1,-0.1,880,41,,,,,,,,,,,,,,,,,,,
13049,1480715215553,0,73.9,1.5,111.6,64,97.4,14.8,0.03,0.07,1.01,-2.6,-0.2,-0.1,880,40,1,0,20.93,0,37.47839,-122.203766,0.0,0.0,16.0,10,2,1.7,0,0.0,-1,0.0,0.0,0.0,0
13069,1480715215573,,,,,,,,0.03,0.07,1.01,-2.6,-0.2,-0.1,900,40,,,,,,,,,,,,,,,,,,,
13089,1480715215592,,,,,,,,0.03,0.07,1.01,-2.7,0.0,-0.0,880,40,,,,,,,,,,,,,,,,,,,
13109,1480715215612,,,,,,,,0.03,0.07,1.01,-2.7,-0.0,-0.0,880,40,,,,,,,,,,,,,,,,,,,
13129,1480715215632,,,,,,,,0.03,0.08,1.01,-2.7,-0.2,-0.0,880,38,,,,,,,,,,,,,,,,,,,
13149,1480715215652,,,,,65,,,0.02,0.08,1.02,-2.7,-0.2,-0.1,900,38,1,0,22.5,0,37.47839,-122.203766,0.0,0.0,16.0,10,2,1.7,0,0.0,-1,0.0,,0.0,0
13169,1480715215672,,,,,,,,0.02,0.08,1.01,-2.7,-0.1,-0.1,880,38,,,,,,,,,,,,,,,,,,,
13189,1480715215692,,,,,,,,0.02,0.07,1.01,-2.7,-0.1,-0.1,880,38,,,,,,,,,,,,,,,,,,,
13209,1480715215712,,,,,,,,0.02,0.07,1.01,-2.7,-0.0,-0.1,860,38,,,,,,,,,,,,,,,,,,,
13229,1480715215732,,,,,,,,0.02,0.07,1.01,-2.7,-0.1,-0.0,860,38,,,,,,,,,,,,,,,,,,,
13249,1480715215752,0,71.1,,110.2,61,98.4,,0.02,0.07,1.01,-2.7,-0.1,0.0,880,36,1,0,23.684,0,37.47839,-122.203766,0.0,0.0,16.0,10,2,1.7,0,0.0,-1,0.0,0.0,0.0,0
13269,1480715215772,,,,,,,,0.02,0.07,1.01,-2.8,0.0,0.1,880,36,,,,,,,,,,,,,,,,,,,
13289,1480715215891,,,,,,,,0.03,0.08,1.01,-2.8,0.0,0.1,900,36,,,,,,,,,,,,,,,,,,,
13309,1480715215911,,,,,,,,0.02,0.07,1.01,-2.8,-0.2,0.1,880,36,,,,,,,,,,,,,,,,,,,
13329,1480715215931,,,,,,,,0.02,0.07,1.02,-2.7,-0.2,0.0,880,36,,,,,,,,,,,,,,,,,,,
13349,1480715215951,,,,,63,,,0.02,0.07,1.01,-2.7,-0.1,0.0,860,36,1,0,24.444,0,37.47839,-122.203766,0.0,0.0,16.0,10,2,1.7,0,0.0,-1,0.0,,0.0,0
13369,1480715215971,,,,,,,,0.02,0.07,1.01,-2.7,-0.0,-0.0,880,35,,,,,,,,,,,,,,,,,,,
13389,1480715215991,,,,,,,,0.02,0.07,1.01,-2.7,-0.0,0.0,860,35,,,,,,,,,,,,,,,,,,,
13409,1480715216011,,,,,,,,0.03,0.07,1.01,-2.8,-0.1,0.1,860,35,,,,,,,,,,,,,,,,,,,
13429,1480715216031,,,,,,,,0.02,0.07,1.01,-2.8,-0.1,0.1,880,35,,,,,,,,,,,,,,,,,,,
13449,1480715216051,0,72.7,,109.3,62,96.4,,0.03,0.07,1.01,-2.8,0.1,0.1,860,33,1,0,23.889,0,37.47839,-122.203766,0.0,0.0,16.0,10,2,1.7,0,0.0,-1,0.0,0.0,0.0,0
13469,1480715216071,,,,,,,,0.03,0.08,1.01,-2.8,-0.0,0.1,860,33,,,,,,,,,,,,,,,,,,,
13489,1480715215993,,,,,,,,0.02,0.08,1.01,-2.8,-0.1,0.1,860,33,,,,,,,,,,,,,,,,,,,
13509,1480715216013,,,,,,,,0.02,0.08,1.0,-2.8,-0.0,0.0,880,33,,,,,,,,,,,,,,,,,,,
13529,1480715216033,,,,,,,,0.02,0.07,1.0,-2.8,-0.0,0.0,860,33,,,,,,,,,,,,,,,,,,,
13549,1480715216053,,,,,66,,,0.03,0.07,1.0,-2.9,0.0,0.0,860,32,1,0,26.061,0,37.47839,-122.203766,0.0,0.0,16.0,10,2,1.7,0,0.0,-1,0.0,,0.0,0
13569,1480715216073,,,,,,,,0.03,0.07,1.0,-2.9,0.0,0.0,860,32,,,,,,,,,,,,,,,,,,,
13589,1480715216093,,,,,,,,0.03,0.07,1.01,-2.9,0.0,0.1,860,32,,,,,,,,,,,,,,,,,,,
13609,1480715216113,,,,,,,,0.03,0.08,1.01,-2.9,0.2,0.1,860,30,,,,,,,,,,,,,,,,,,,
13629,1480715216133,,,,,,,,0.03,0.08,1.01,-2.9,0.0,0.1,840,30,,,,,,,,,,,,,,,,,,,
13649,1480715216153,0,74.4,,111.9,63,98.6,,0.03,0.07,1.02,-2.9,0.0,0.0,860,30,1,0,26.875,0,37.47839,-122.203766,0.0,0.0,16.0,10,2,1.7,0,0.0,-1,0.0,0.0,0.0,0
13669,1480715216173,,,,,,,,0.02,0.07,1.01,-2.9,0.1,-0.1,860,30,,,,,,,,,,,,,,,,,,,
13689,1480715216192,,,,,,,,0.03,0.07,1.01,-2.9,0.1,-0.2,880,30,,,,,,,,,,,,,,,,,,,
13709,1480715216212,,,,,,,,0.03,0.07,1.01,-2.9,0.1,-0.1,860,30,,,,,,,,,,,,,,,,,,,
13729,1480715216232,,,,,,,,0.03,0.07,1.01,-2.9,0.0,-0.1,860,35,,,,,,,,,,,,,,,,,,,
13749,1480715216252,,,,,64,,,0.03,0.07,1.01,-2.9,0.1,-0.1,860,35,1,0,28.667,0,37.47839,-122.203766,0.0,0.0,16.0,10,2,1.7,0,0.0,-1,0.0,,0.0,0
13769,1480715216272,,,,,,,,0.03,0.07,1.01,-2.9,0.2,-0.1,860,36,,,,,,,,,,,,,,,,,,,
13789,1480715216293,,,,,,,,0.03,0.08,1.01,-2.9,-0.1,-0.1,880,36,,,,,,,,,,,,,,,,,,,
13809,1480715216313,,,,,,,,0.02,0.07,1.01,-2.9,-0.1,-0.1,880,36,,,,,,,,,,,,,,,,,,,
13829,1480715216333,,,,,,,,0.02,0.07,1.01,-2.9,0.0,-0.2,880,35,,,,,,,,,,,,,,,,,,,
13849,1480715216353,0,73.8,,112.0,65,98.3,,0.02,0.07,1.0,-2.9,0.1,-0.2,860,35,1,0,24.571,0,37.47839,-122.203766,0.0,0.0,16.0,10,2,1.7,0,0.0,-1,0.0,0.0,0.0,0
13869,1480715216373,,,,,,,,0.02,0.06,1.0,-2.9,0.1,-0.2,860,33,,,,,,,,,,,,,,,,,,,
13889,1480715216392,,,,,,,,0.02,0.06,1.0,-3.0,0.1,-0.2,860,33,,,,,,,,,,,,,,,,,,,
13909,1480715216412,,,,,,,,0.02,0.07,1.0,-3.0,0.1,-0.2,860,33,,,,,,,,,,,,,,,,,,,
13929,1480715216432,,,,,,,,0.02,0.07,1.0,-3.0,0.2,-0.1,880,32,,,,,,,,,,,,,,,,,,,
13949,1480715216452,,,,,65,,,0.03,0.08,1.01,-3.0,0.3,-0.1,880,32,1,0,24.571,0,37.47839,-122.203766,0.0,0.0,16.0,10,2,1.7,0,0.0,-1,0.0,,0.0,0
13969,1480715216472,,,,,,,,0.02,0.08,1.01,-3.0,0.0,-0.1,900,32,,,,,,,,,,,,,,,,,,,
13989,1480715216492,,,,,,,,0.01,0.08,1.01,-3.0,0.0,-0.1,860,23,,,,,,,,,,,,,,,,,,,
14009,1480715216512,,,,,,,,0.01,0.08,1.01,-3.0,0.1,-0.2,860,23,,,,,,,,,,,,,,,,,,,
14029,1480715216532,,,,,,,,0.01,0.07,1.01,-3.0,0.1,-0.2,860,23,,,,,,,,,,,,,,,,,,,
14049,1480715216552,0,72.7,1.2,111.6,64,96.3,14.78,0.01,0.07,1.01,-3.0,0.1,-0.2,860,27,1,0,27.5,0,37.47839,-122.203766,0.0,0.0,16.0,10,2,1.7,0,0.0,-1,0.0,0.0,0.0,0
14069,1480715216572,,,,,,,,0.02,0.07,1.0,-3.0,0.0,-0.2,860,27,,,,,,,,,,,,,,,,,,,
14089,1480715216591,,,,,,,,0.01,0.08,1.0,-3.0,0.1,-0.1,860,24,,,,,,,,,,,,,,,,,,,
14109,1480715216710,,,,,,,,0.02,0.08,1.01,-3.0,0.2,-0.1,880,24,,,,,,,,,,,,,,,,,,,
14129,1480715216730,,,,,,,,0.02,0.08,1.01,-3.0,0.0,-0.1,860,24,,,,,,,,,,,,,,,,,,,
14149,1480715216750,,,,,61,,,0.01,0.07,1.01,-3.0,0.1,-0.1,860,24,1,0,31.852,0,37.47839,-122.203766,0.0,0.0,16.0,10,2,1.7,0,0.0,-1,0.0,,0.0,0
14169,1480715216770,,,,,,,,0.01,0.07,1.01,-3.0,0.0,-0.2,860,23,,,,,,,,,,,,,,,,,,,
14189,1480715216790,,,,,,,,0.01,0.06,1.01,-3.0,0.1,-0.2,860,23,,,,,,,,,,,,,,,,,,,
14209,1480715216810,,,,,,,,0.01,0.06,1.0,-3.0,0.2,-0.2,860,23,,,,,,,,,,,,,,,,,,,
14229,1480715216830,,,,,,,,0.01,0.06,1.0,-3.0,0.0,-0.1,860,24,,,,,,,,,,,,,,,,,,,
14249,1480715216850,0,73.8,,111.9,63,97.7,,0.02,0.07,1.01,-3.0,0.2,-0.1,880,24,1,0,37.391,0,37.47839,-122.203766,0.0,0.0,16.0,10,2,1.7,0,0.0,-1,0.0,0.0,0.0,0
14269,1480715216870,,,,,,,,0.02,0.07,1.01,-3.0,0.2,-0.1,840,24,,,,,,,,,,,,,,,,,,,
14289,1480715216890,,,,,,,,0.01,0.07,1.01,-3.0,0.1,-0.1,840,24,,,,,,,,,,,,,,,,,,,
14309,1480715216807,,,,,,,,0.01,0.07,1.01,-3.0,0.1,-0.2,840,24,,,,,,,,,,,,,,,,,,,
14329,1480715216827,,,,,,,,0.01,0.06,1.01,-3.0,0.1,-0.2,840,24,,,,,,,,,,,,,,,,,,,
14349,1480715216847,,,,,61,,,0.01,0.07,1.0,-3.0,0.2,-0.2,840,24,1,0,35.0,0,37.47839,-122.203766,0.0,0.0,16.0,10,2,1.7,0,0.0,-1,0.0,,0.0,0
14369,1480715216867,,,,,,,,0.01,0.07,1.0,-3.0,0.1,-0.2,860,24,,,,,,,,,,,,,,,,,,,
14389,1480715216887,,,,,,,,0.01,0.07,1.0,-3.1,0.2,-0.1,880,24,,,,,,,,,,,,,,,,,,,
14409,1480715216905,,,,,,,,0.02,0.08,1.0,-3.0,0.2,-0.1,840,24,,,,,,,,,,,,,,,,,,,
14429,1480715216925,,,,,,,,0.01,0.08,1.01,-3.1,0.0,-0.1,840,24,,,,,,,,,,,,,,,,,,,
14449,1480715216945,0,70.9,,110.0,62,96.0,,0.01,0.08,1.01,-3.0,0.1,-0.2,840,24,1,0,35.833,0,37.47839,-122.203766,0.0,0.0,16.0,10,2,1.7,0,0.0,-1,0.0,0.0,0.0,0
14469,1480715216965,,,,,,,,0.01,0.07,1.0,-3.0,0.1,-0.3,860,26,,,,,,,,,,,,,,,,,,,
14489,1480715216985,,,,,,,,0.01,0.07,1.0,-3.0,0.2,-0.2,860,26,,,,,,,,,,,,,,,,,,,
14509,1480715217009,,,,,,,,0.01,0.07,1.0,-3.0,0.1,-0.2,860,26,,,,,,,,,,,,,,,,,,,
14529,1480715217029,,,,,,,,0.01,0.08,1.0,-3.0,0.1,-0.2,880,26,,,,,,,,,,,,,,,,,,,
14549,1480715217049,,,,,60,,,0.01,0.08,1.01,-3.0,0.3,-0.1,840,26,1,0,32.308,0,37.47839,-122.203766,0.0,0.0,16.0,10,2,1.9,0,0.0,-1,0.0,,0.0,0
14569,1480715217069,,,,,,,,0.01,0.08,1.01,-3.0,0.1,-0.1,840,26,,,,,,,,,,,,,,,,,,,
14589,1480715217093,,,,,,,,0.0,0.08,1.01,-3.0,0.1,-0.2,840,26,,,,,,,,,,,,,,,,,,,
14609,1480715217113,,,,,,,,-0.0,0.07,1.0,-3.0,0.2,-0.2,840,26,,,,,,,,,,,,,,,,,,,
14629,1480715217133,,,,,,,,-0.0,0.07,1.0,-3.0,0.3,-0.2,840,26,,,,,,,,,,,,,,,,,,,
14649,1480715217153,0,71.7,,109.5,62,97.4,,0.0,0.07,1.0,-3.0,0.1,-0.2,840,26,1,0,32.308,0,37.47839,-122.203766,0.0,0.0,16.0,10,2,1.9,0,0.0,-1,0.0,0.0,0.0,0
14669,1480715217173,,,,,,,,0.0,0.07,0.99,-3.0,0.2,-0.1,860,26,,,,,,,,,,,,,,,,,,,
14689,1480715217193,,,,,,,,0.0,0.08,1.0,-3.0,0.3,-0.1,840,27,,,,,,,,,,,,,,,,,,,
14709,1480715217213,,,,,,,,-0.0,0.07,1.0,-3.0,0.1,-0.1,840,27,,,,,,,,,,,,,,,,,,,
14729,1480715217233,,,,,,,,-0.01,0.07,1.0,-3.0,0.1,-0.2,840,27,,,,,,,,,,,,,,,,,,,
14749,1480715217253,,,,,62,,,-0.01,0.06,1.0,-3.0,0.1,-0.2,860,27,1,0,33.077,0,37.47839,-122.203766,0.0,0.0,16.0,10,2,1.9,0,0.0,-1,0.0,,0.0,0
14769,1480715217273,,,,,,,,-0.01,0.06,0.99,-3.0,0.2,-0.2,860,27,,,,,,,,,,,,,,,,,,,
14789,1480715217293,,,,,,,,-0.0,0.07,0.99,-3.0,0.1,-0.2,860,29,,,,,,,,,,,,,,,,,,,
14809,1480715217313,,,,,,,,-0.0,0.07,0.99,-3.0,0.1,-0.1,880,29,,,,,,,,,,,,,,,,,,,
14829,1480715217333,,,,,,,,0.0,0.07,1.0,-3.0,0.3,-0.1,840,29,,,,,,,,,,,,,,,,,,,
14849,1480715217353,0,71.5,,109.4,60,97.4,,-0.0,0.07,1.0,-3.0,0.1,-0.1,840,29,1,0,31.852,0,37.47839,-122.203766,0.0,0.0,16.0,10,2,1.9,0,0.0,-1,0.0,0.0,0.0,0
14869,1480715217373,,,,,,,,-0.01,0.07,1.0,-3.0,0.1,-0.2,840,29,,,,,,,,,,,,,,,,,,,
14889,1480715217492,,,,,,,,-0.01,0.07,1.0,-3.0,0.1,-0.2,860,29,,,,,,,,,,,,,,,,,,,
14909,1480715217512,,,,,,,,-0.01,0.06,1.0,-3.0,0.2,-0.3,860,29,,,,,,,,,,,,,,,,,,,
14929,1480715217532,,,,,,,,-0.0,0.06,0.99,-3.0,0.1,-0.2,860,29,,,,,,,,,,,,,,,,,,,
14949,1480715217552,,,,,60,,,-0.0,0.07,0.99,-3.0,0.0,-0.2,880,30,1,0,28.966,0,37.47839,-122.203766,0.0,0.0,16.0,10,2,1.9,0,0.0,-1,0.0,,0.0,0
14969,1480715217572,,,,,,,,0.0,0.07,1.0,-3.0,0.3,-0.1,840,30,,,,,,,,,,,,,,,,,,,
14989,1480715217592,,,,,,,,0.0,0.07,1.0,-3.0,0.2,-0.1,860,30,,,,,,,,,,,,,,,,,,,
15009,1480715217612,,,,,,,,-0.01,0.07,1.01,-3.0,0.0,-0.2,860,30,,,,,,,,,,,,,,,,,,,
15029,1480715217632,,,,,,,,-0.01,0.07,1.0,-2.9,0.1,-0.2,860,30,,,,,,,,,,,,,,,,,,,
15049,1480715217652,0,72.1,0.4,112.0,63,95.4,14.88,-0.01,0.06,1.0,-2.9,0.1,-0.3,860,30,1,0,28.0,0,37.47839,-122.203766,0.0,0.0,16.0,10,2,1.9,0,0.0,-1,0.0,0.0,0.0,0
15069,1480715217672,,,,,,,,-0.01,0.06,1.0,-2.9,0.2,-0.3,880,30,,,,,,,,,,,,,,,,,,,
15089,1480715217593,,,,,,,,-0.0,0.06,1.0,-2.9,0.1,-0.3,880,32,,,,,,,,,,,,,,,,,,,
15109,1480715217613,,,,,,,,-0.0,0.07,1.0,-2.9,0.1,-0.2,860,32,,,,,,,,,,,,,,,,,,,
15129,1480715217633,,,,,,,,-0.0,0.06,1.0,-3.0,0.3,-0.2,860,33,,,,,,,,,,,,,,,,,,,
15149,1480715217653,,,,,62,,,0.0,0.07,1.0,-3.0,0.1,-0.2,860,33,1,0,28.667,0,37.47839,-122.203766,0.0,0.0,16.0,10,2,1.9,0,0.0,-1,0.0,,0.0,0
15169,1480715217673,,,,,,,,-0.01,0.07,1.01,-3.0,-0.0,-0.2,860,32,,,,,,,,,,,,,,,,,,,
15189,1480715217693,,,,,,,,-0.01,0.07,1.01,-3.0,-0.0,-0.2,880,32,,,,,,,,,,,,,,,,,,,
15209,1480715217713,,,,,,,,-0.01,0.06,1.01,-3.0,0.1,-0.3,880,35,,,,,,,,,,,,,,,,,,,
15229,1480715217733,,,,,,,,-0.01,0.05,1.0,-3.0,0.1,-0.3,860,35,,,,,,,,,,,,,,,,,,,
15249,1480715217753,0,72.4,,109.9,59,98.5,,-0.01,0.06,1.0,-3.0,0.1,-0.3,860,35,1,0,26.061,0,37.47839,-122.203766,0.0,0.0,16.0,10,2,1.9,0,0.0,-1,0.0,0.0,0.0,0
15269,1480715217773,,,,,,,,-0.01,0.06,1.0,-3.0,0.0,-0.2,860,35,,,,,,,,,,,,,,,,,,,
15289,1480715217793,,,,,,,,-0.0,0.06,1.0,-3.0,0.2,-0.2,860,35,,,,,,,,,,,,,,,,,,,
15309,1480715217813,,,,,,,,-0.0,0.07,1.0,-3.0,0.1,-0.2,860,35,,,,,,,,,,,,,,,,,,,
15329,1480715217833,,,,,,,,-0.01,0.06,1.01,-3.0,-0.1,-0.2,860,35,,,,,,,,,,,,,,,,,,,
15349,1480715217853,,,,,60,,,-0.01,0.06,1.01,-2.9,-0.1,-0.3,880,36,1,0,24.571,0,37.47839,-122.203766,0.0,0.0,16.0,10,2,1.9,0,0.0,-1,0.0,,0.0,0
15369,1480715217873,,,,,,,,-0.01,0.06,1.0,-2.9,0.0,-0.3,860,36,,,,,,,,,,,,,,,,,,,
15389,1480715217893,,,,,,,,-0.01,0.06,1.0,-2.9,0.1,-0.3,860,35,,,,,,,,,,,,,,,,,,,
15409,1480715217904,,,,,,,,-0.01,0.06,1.0,-3.0,0.0,-0.3,860,35,,,,,,,,,,,,,,,,,,,
15429,1480715217924,,,,,,,,-0.0,0.06,1.0,-3.0,-0.0,-0.2,860,36,,,,,,,,,,,,,,,,,,,
15449,1480715217944,0,73.2,,110.6,59,99.1,,0.0,0.06,1.0,-3.0,0.2,-0.2,880,36,1,0,24.444,0,37.47839,-122.203766,0.0,0.0,16.0,10,2,1.9,0,0.0,-1,0.0,0.0,0.0,0
15469,1480715217964,,,,,,,,0.0,0.07,1.01,-3.0,0.1,-0.2,880,38,,,,,,,,,,,,,,,,,,,
15489,1480715217992,,,,,,,,-0.0,0.07,1.01,-3.0,-0.1,-0.2,880,38,,,,,,,,,,,,,,,,,,,
15509,1480715218012,,,,,,,,-0.01,0.07,1.01,-3.0,-0.0,-0.2,880,38,,,,,,,,,,,,,,,,,,,
15529,1480715218032,,,,,,,,-0.01,0.07,1.01,-3.0,-0.0,-0.3,880,38,,,,,,,,,,,,,,,,,,,
15549,1480715218052,,,,,63,,,-0.01,0.06,1.0,-3.0,-0.0,-0.3,880,38,1,0,23.158,0,37.47839,-122.203766,0.0,0.0,16.0,10,2,1.7,0,0.0,-1,0.0,,0.0,0
15569,1480715218072,,,,,,,,-0.01,0.05,1.0,-3.0,0.0,-0.3,880,38,,,,,,,,,,,,,,,,,,,
15589,1480715218092,,,,,,,,-0.0,0.06,1.0,-2.9,-0.1,-0.3,880,38,,,,,,,,,,,,,,,,,,,
15609,1480715218112,,,,,,,,-0.0,0.06,1.0,-2.9,-0.1,-0.2,880,38,,,,,,,,,,,,,,,,,,,
15629,1480715218132,,,,,,,,-0.0,0.06,1.0,-3.0,0.2,-0.1,880,40,,,,,,,,,,,,,,,,,,,
15649,1480715218152,0,72.5,,110.2,59,98.6,,0.0,0.07,1.0,-2.9,0.0,-0.1,860,40,1,0,23.158,0,37.47839,-122.203766,0.0,0.0,16.0,10,2,1.7,0,0.0,-1,0.0,0.0,0.0,0
15669,1480715218172,,,,,,,,-0.0,0.07,1.0,-2.9,-0.2,-0.2,880,38,,,,,,,,,,,,,,,,,,,
15689,1480715218291,,,,,,,,-0.0,0.07,1.01,-2.9,-0.1,-0.2,860,38,,,,,,,,,,,,,,,,,,,
15709,1480715218311,,,,,,,,-0.0,0.06,1.0,-2.9,-0.1,-0.3,860,38,,,,,,,,,,,,,,,,,,,
15729,1480715218331,,,,,,,,-0.0,0.06,1.0,-2.9,-0.0,-0.3,860,40,,,,,,,,,,,,,,,,,,,
15749,1480715218351,,,,,60,,,0.0,0.06,1.0,-2.9,-0.1,-0.2,860,40,1,0,23.158,0,37.47839,-122.203766,0.0,0.0,16.0,10,2,1.7,0,0.0,-1,0.0,,0.0,0
15769,1480715218371,,,,,,,,0.0,0.07,1.0,-2.9,-0.2,-0.2,880,40,,,,,,,,,,,,,,,,,,,
15789,1480715218391,,,,,,,,0.0,0.06,1.0,-2.9,-0.0,-0.1,860,40,,,,,,,,,,,,,,,,,,,
15809,1480715218411,,,,,,,,0.01,0.07,1.01,-2.9,0.0,-0.1,860,41,,,,,,,,,,,,,,,,,,,
15829,1480715218431,,,,,,,,0.0,0.06,1.02,-2.9,-0.1,-0.2,860,41,,,,,,,,,,,,,,,,,,,
15849,1480715218451,0,70.7,,109.7,61,96.4,,-0.0,0.07,1.02,-2.9,-0.1,-0.2,860,40,1,0,22.0,0,37.47839,-122.203766,0.0,0.0,16.0,10,2,1.7,0,0.0,-1,0.0,0.0,0.0,0
15869,1480715218471,,,,,,,,-0.01,0.06,1.01,-2.9,-0.1,-0.3,860,40,,,,,,,,,,,,,,,,,,,
15889,1480715218391,,,,,,,,-0.0,0.06,1.01,-2.9,0.0,-0.3,880,43,,,,,,,,,,,,,,,,,,,
15909,1480715218411,,,,,,,,0.0,0.06,1.0,-2.9,-0.0,-0.3,880,43,,,,,,,,,,,,,,,,,,,
15929,1480715218431,,,,,,,,0.0,0.06,1.0,-2.9,-0.1,-0.2,860,41,,,,,,,,,,,,,,,,,,,
15949,1480715218451,,,,,62,,,0.0,0.06,1.01,-2.9,0.1,-0.2,860,43,1,0,21.5,0,37.47839,-122.203766,0.0,0.0,16.0,10,2,1.7,0,0.0,-1,0.0,,0.0,0
15969,1480715218471,,,,,,,,0.01,0.07,1.01,-2.9,-0.0,-0.2,860,43,,,,,,,,,,,,,,,,,,,
15989,1480715218492,,,,,,,,-0.0,0.06,1.01,-2.9,-0.1,-0.2,860,41,,,,,,,,,,,,,,,,,,,
16009,1480715218512,,,,,,,,-0.0,0.06,1.01,-2.9,-0.1,-0.3,860,41,,,,,,,,,,,,,,,,,,,
16029,1480715218532,,,,,,,,-0.0,0.06,1.01,-2.9,-0.0,-0.3,860,43,,,,,,,,,,,,,,,,,,,
16049,1480715218552,0,71.0,0.6,110.9,59,97.3,14.75,0.0,0.06,1.0,-2.9,-0.0,-0.3,860,43,1,0,20.0,0,37.47839,-122.203766,0.0,0.0,16.0,10,2,1.7,0,0.0,-1,0.0,0.0,0.0,0
16069,1480715218572,,,,,,,,0.0,0.06,1.0,-2.9,-0.1,-0.3,840,43,,,,,,,,,,,,,,,,,,,
16089,1480715218592,,,,,,,,0.0,0.06,1.0,-2.9,-0.1,-0.3,840,44,,,,,,,,,,,,,,,,,,,
16109,1480715218612,,,,,,,,0.0,0.07,1.0,-2.9,-0.1,-0.3,840,44,,,,,,,,,,,,,,,,,,,
16129,1480715218632,,,,,,,,-0.0,0.07,1.01,-2.9,-0.2,-0.3,840,41,,,,,,,,,,,,,,,,,,,
16149,1480715218652,,,,,59,,,-0.0,0.06,1.0,-2.9,-0.1,-0.3,840,41,1,0,19.535,0,37.47839,-122.203766,0.0,0.0,16.0,10,2,1.7,0,0.0,-1,0.0,,0.0,0
16169,1480715218672,,,,,,,,-0.0,0.06,1.0,-2.9,0.0,-0.4,840,43,,,,,,,,,,,,,,,,,,,
16189,1480715218693,,,,,,,,0.01,0.06,1.0,-2.9,0.0,-0.4,840,43,,,,,,,,,,,,,,,,,,,
16209,1480715218713,,,,,,,,0.01,0.06,1.0,-2.9,-0.1,-0.3,840,40,,,,,,,,,,,,,,,,,,,
16229,1480715218733,,,,,,,,0.01,0.06,1.01,-2.9,0.1,-0.3,840,40,,,,,,,,,,,,,,,,,,,
16249,1480715218753,0,70.9,,109.5,63,96.0,,0.01,0.06,1.01,-2.9,-0.0,-0.3,820,35,1,0,19.535,0,37.47839,-122.203766,0.0,0.0,16.0,10,2,1.7,0,0.0,-1,0.0,0.0,0.0,0
16269,1480715218773,,,,,,,,0.01,0.06,1.01,-2.8,-0.0,-0.3,840,35,,,,,,,,,,,,,,,,,,,
16289,1480715218792,,,,,,,,0.01,0.05,1.0,-2.8,-0.0,-0.4,840,35,,,,,,,,,,,,,,,,,,,
16309,1480715218812,,,,,,,,0.01,0.06,1.0,-2.8,0.1,-0.3,860,29,,,,,,,,,,,,,,,,,,,
16329,1480715218832,,,,,,,,0.02,0.06,1.0,-2.8,0.0,-0.2,860,29,,,,,,,,,,,,,,,,,,,
16349,1480715218852,,,,,59,,,0.02,0.06,1.0,-2.9,-0.0,-0.2,840,27,1,0,23.429,0,37.47839,-122.203766,0.0,0.0,16.0,10,2,1.7,0,0.0,-1,0.0,,0.0,0
16369,1480715218872,,,,,,,,0.02,0.06,1.01,-2.9,0.2,-0.2,860,27,,,,,,,,,,,,,,,,,,,
16389,1480715218892,,,,,,,,0.02,0.06,1.01,-2.9,0.1,-0.1,860,27,,,,,,,,,,,,,,,,,,,
16409,1480715218904,,,,,,,,0.01,0.06,1.02,-2.9,0.1,-0.2,860,33,,,,,,,,,,,,,,,,,,,
16429,1480715218924,,,,,,,,0.01,0.06,1.01,-2.9,0.1,-0.2,880,33,,,,,,,,,,,,,,,,,,,
16449,1480715218944,0,71.0,,110.9,64,97.2,,0.01,0.05,1.01,-2.9,0.2,-0.2,880,36,1,0,31.852,0,37.47839,-122.203766,0.0,0.0,16.0,10,2,1.7,0,0.0,-1,0.0,0.0,0.0,0
16469,1480715218964,,,,,,,,0.02,0.06,1.01,-2.9,0.2,-0.2,860,36,,,,,,,,,,,,,,,,,,,
16489,1480715219092,,,,,,,,0.02,0.06,1.01,-2.9,0.1,-0.1,860,38,,,,,,,,,,,,,,,,,,,
16509,1480715219112,,,,,,,,0.02,0.06,1.01,-2.9,0.1,-0.1,860,38,,,,,,,,,,,,,,,,,,,
16529,1480715219132,,,,,,,,0.02,0.06,1.01,-2.9,0.3,-0.1,860,36,,,,,,,,,,,,,,,,,,,
16549,1480715219152,,,,,63,,,0.02,0.07,1.01,-2.9,0.1,-0.1,880,36,1,0,24.444,0,37.47839,-122.203766,0.0,0.0,16.0,10,2,1.7,0,0.0,-1,0.0,,0.0,0
16569,1480715219172,,,,,,,,0.02,0.07,1.01,-2.9,0.0,-0.1,880,36,,,,,,,,,,,,,,,,,,,
16589,1480715219192,,,,,,,,0.02,0.07,1.01,-2.9,0.1,-0.1,900,36,,,,,,,,,,,,,,,,,,,
16609,1480715219212,,,,,,,,0.02,0.07,1.0,-2.8,0.1,-0.2,880,35,,,,,,,,,,,,,,,,,,,
16629,1480715219232,,,,,,,,0.02,0.06,1.0,-2.9,0.0,-0.2,880,35,,,,,,,,,,,,,,,,,,,
16649,1480715219252,1,72.9,,112.9,62,99.1,,0.02,0.06,1.0,-2.9,0.1,-0.1,880,35,1,0,24.444,0,37.47839,-122.203766,0.0,0.0,16.0,10,2,1.7,0,0.0,-1,0.0,0.0,0.0,0
16669,1480715219272,,,,,,,,0.02,0.06,1.0,-2.9,-0.0,-0.0,880,35,,,,,,,,,,,,,,,,,,,
16689,1480715219193,,,,,,,,0.02,0.06,1.0,-2.9,-0.0,0.0,880,33,,,,,,,,,,,,,,,,,,,
16709,1480715219213,,,,,,,,0.02,0.06,1.01,-2.9,0.1,0.1,880,33,,,,,,,,,,,,,,,,,,,
16729,1480715219233,,,,,,,,0.03,0.07,1.01,-2.9,0.1,0.1,900,33,,,,,,,,,,,,,,,,,,,
16749,1480715219253,,,,,63,,,0.02,0.07,1.01,-2.9,-0.1,0.1,880,33,1,0,25.143,0,37.47839,-122.203766,0.0,0.0,16.0,10,2,1.7,0,0.0,-1,0.0,,0.0,0
16769,1480715219273,,,,,,,,0.02,0.07,1.01,-2.9,0.0,0.0,880,33,,,,,,,,,,,,,,,,,,,
16789,1480715219293,,,,,,,,0.02,0.06,1.01,-2.9,0.0,-0.0,880,32,,,,,,,,,,,,,,,,,,,
16809,1480715219313,,,,,,,,0.02,0.05,1.0,-2.9,-0.0,-0.1,880,32,,,,,,,,,,,,,,,,,,,
16829,1480715219333,,,,,,,,0.02,0.05,1.0,-2.9,0.1,-0.0,900,30,,,,,,,,,,,,,,,,,,,
16849,1480715219353,0,74.7,,112.7,63,99.3,,0.03,0.05,1.0,-2.9,0.1,-0.0,900,30,1,0,26.667,0,37.47839,-122.203766,0.0,0.0,16.0,10,2,1.7,0,0.0,-1,0.0,0.0,0.0,0
16869,1480715219373,,,,,,,,0.02,0.05,1.0,-2.9,-0.0,0.0,900,30,,,,,,,,,,,,,,,,,,,
16889,1480715219393,,,,,,,,0.03,0.05,1.01,-2.9,0.0,0.1,880,30,,,,,,,,,,,,,,,,,,,
16909,1480715219413,,,,,,,,0.03,0.06,1.01,-2.9,0.2,0.1,900,30,,,,,,,,,,,,,,,,,,,
16929,1480715219433,,,,,,,,0.03,0.07,1.01,-2.9,0.0,0.1,880,29,,,,,,,,,,,,,,,,,,,
16949,1480715219453,,,,,64,,,0.02,0.07,1.01,-3.0,-0.2,0.0,880,29,1,0,30.0,0,37.47839,-122.203766,0.0,0.0,16.0,10,2,1.7,0,0.0,-1,0.0,,0.0,0
16969,1480715219473,,,,,,,,0.02,0.06,1.01,-2.9,0.0,0.0,900,29,,,,,,,,,,,,,,,,,,,
16989,1480715219493,,,,,,,,0.02,0.06,1.01,-2.9,0.0,-0.0,900,27,,,,,,,,,,,,,,,,,,,
17009,1480715219513,,,,,,,,0.02,0.05,1.0,-2.9,-0.0,-0.1,880,27,,,,,,,,,,,,,,,,,,,
17029,1480715219533,,,,,,,,0.02,0.05,1.01,-3.0,0.1,-0.0,880,27,,,,,,,,,,,,,,,,,,,
17049,1480715219553,0,74.4,1.7,113.4,64,99.9,14.78,0.03,0.05,1.0,-3.0,0.1,0.0,880,26,1,0,30.345,0,37.47839,-122.203766,0.0,0.0,16.0,10,2,1.7,0,0.0,-1,0.0,0.0,0.0,0
17069,1480715219573,,,,,,,,0.03,0.05,1.0,-3.0,0.0,0.1,880,26,,,,,,,,,,,,,,,,,,,
17089,1480715219593,,,,,,,,0.03,0.06,1.0,-3.0,0.1,0.1,880,26,,,,,,,,,,,,,,,,,,,
17109,1480715219613,,,,,,,,0.03,0.06,1.01,-3.0,0.2,0.1,900,24,,,,,,,,,,,,,,,,,,,
17129,1480715219633,,,,,,,,0.03,0.07,1.0,-3.0,-0.0,0.1,900,24,,,,,,,,,,,,,,,,,,,
17149,1480715219653,,,,,64,,,0.03,0.07,1.01,-3.0,-0.1,0.1,880,24,1,0,33.846,0,37.47839,-122.203766,0.0,0.0,16.0,10,2,1.7,0,0.0,-1,0.0,,0.0,0
17169,1480715219673,,,,,,,,0.03,0.06,1.01,-3.0,0.0,0.0,880,24,,,,,,,,,,,,,,,,,,,
17189,1480715219693,,,,,,,,0.03,0.06,1.0,-3.0,-0.0,-0.0,880,23,,,,,,,,,,,,,,,,,,,
17209,1480715219713,,,,,,,,0.03,0.05,1.0,-3.0,-0.0,-0.0,880,23,,,,,,,,,,,,,,,,,,,
17229,1480715219733,,,,,,,,0.03,0.05,1.0,-3.0,0.1,0.0,880,23,,,,,,,,,,,,,,,,,,,
17249,1480715219753,0,70.9,,110.9,63,97.1,,0.04,0.05,1.0,-3.0,0.0,0.0,880,23,1,0,36.667,0,37.47839,-122.203766,0.0,0.0,16.0,10,2,1.7,0,0.0,-1,0.0,0.0,0.0,0
17269,1480715219773,,,,,,,,0.03,0.06,1.01,-3.0,0.1,0.1,900,20,,,,,,,,,,,,,,,,,,,
17289,1480715219892,,,,,,,,0.04,0.06,1.01,-3.0,0.2,0.1,880,20,,,,,,,,,,,,,,,,,,,
17309,1480715219912,,,,,,,,0.04,0.06,1.01,-3.0,0.2,0.0,880,20,,,,,,,,,,,,,,,,,,,
17329,1480715219932,,,,,,,,0.04,0.06,1.01,-3.0,-0.0,0.0,860,20,,,,,,,,,,,,,,,,,,,
17349,1480715219952,,,,,62,,,0.03,0.06,1.02,-3.0,0.1,-0.0,880,18,1,0,45.0,0,37.47839,-122.203766,0.0,0.0,16.0,10,2,1.7,0,0.0,-1,0.0,,0.0,0
17369,1480715219972,,,,,,,,0.03,0.06,1.01,-3.0,0.1,-0.1,880,18,,,,,,,,,,,,,,,,,,,
17389,1480715219992,,,,,,,,0.03,0.05,1.01,-3.0,0.1,-0.1,900,18,,,,,,,,,,,,,,,,,,,
17409,1480715220012,,,,,,,,0.03,0.05,1.01,-3.0,0.2,-0.1,880,18,,,,,,,,,,,,,,,,,,,
17429,1480715220032,,,,,,,,0.04,0.06,1.01,-3.0,0.1,-0.0,880,18,,,,,,,,,,,,,,,,,,,
17449,1480715220052,0,72.6,,112.5,65,98.7,,0.03,0.06,1.01,-3.0,0.0,-0.0,880,15,1,0,48.889,0,37.47839,-122.203766,0.0,0.0,16.0,10,2,1.7,0,0.0,-1,0.0,0.0,0.0,0
17469,1480715220072,,,,,,,,0.04,0.06,1.01,-3.0,0.3,0.0,880,15,,,,,,,,,,,,,,,,,,,
17489,1480715219994,,,,,,,,0.04,0.07,1.01,-3.0,0.2,0.0,880,15,,,,,,,,,,,,,,,,,,,
17509,1480715220014,,,,,,,,0.03,0.06,1.01,-3.0,0.0,0.0,880,15,,,,,,,,,,,,,,,,,,,
17529,1480715220034,,,,,,,,0.03,0.06,1.01,-3.0,0.1,-0.0,880,15,,,,,,,,,,,,,,,,,,,
17549,1480715220054,,,,,64,,,0.03,0.06,1.0,-3.0,0.1,-0.1,880,15,1,0,58.667,0,37.47839,-122.203766,0.0,0.0,16.0,10,2,1.7,0,0.0,-1,0.0,,0.0,0
17569,1480715220074,,,,,,,,0.03,0.06,1.0,-3.0,0.1,-0.1,880,12,,,,,,,,,,,,,,,,,,,
17589,1480715220094,,,,,,,,0.03,0.06,1.0,-3.0,0.1,-0.1,860,12,,,,,,,,,,,,,,,,,,,
17609,1480715220114,,,,,,,,0.03,0.06,1.0,-3.0,0.0,-0.0,860,12,,,,,,,,,,,,,,,,,,,
17629,1480715220134,,,,,,,,0.03,0.07,1.01,-3.1,-0.0,0.0,880,12,,,,,,,,,,,,,,,,,,,
17649,1480715220154,0,74.9,,113.0,64,99.9,,0.04,0.07,1.01,-3.1,0.1,0.1,880,15,1,0,73.333,0,37.47839,-122.203766,0.0,0.0,16.0,10,2,1.7,0,0.0,-1,0.0,0.0,0.0,0
17669,1480715220174,,,,,,,,0.04,0.07,1.0,-3.1,0.0,0.1,880,15,,,,,,,,,,,,,,,,,,,
17689,1480715220195,,,,,,,,0.02,0.07,1.01,-3.1,-0.1,0.0,880,32,,,,,,,,,,,,,,,,,,,
17709,1480715220215,,,,,,,,0.02,0.07,1.01,-3.1,0.0,-0.0,860,32,,,,,,,,,,,,,,,,,,,
17729,1480715220235,,,,,,,,0.02,0.06,1.0,-3.1,0.0,-0.1,860,32,,,,,,,,,,,,,,,,,,,
17749,1480715220255,,,,,62,,,0.02,0.06,1.0,-3.1,0.1,-0.1,880,32,1,0,58.667,0,37.47839,-122.203766,0.0,0.0,16.0,10,2,1.7,0,0.0,-1,0.0,,0.0,0
17769,1480715220275,,,,,,,,0.03,0.06,1.0,-3.1,0.1,-0.0,880,32,,,,,,,,,,,,,,,,,,,
17789,1480715220295,,,,,,,,0.03,0.06,1.0,-3.1,0.0,0.0,880,1538461,,,,,,,,,,,,,,,,,,,
17809,1480715220315,,,,,,,,0.03,0.07,1.0,-3.1,0.1,0.1,880,0,,,,,,,,,,,,,,,,,,,
17829,1480715220335,,,,,,,,0.03,0.07,1.01,-3.1,0.2,0.1,860,0,,,,,,,,,,,,,,,,,,,
17849,1480715220355,0,71.5,,111.6,64,98.1,,0.03,0.07,1.0,-3.1,-0.1,0.1,860,0,1,0,27.5,0,37.47839,-122.203766,0.0,0.0,16.0,10,2,1.7,0,0.0,-1,0.0,0.0,0.0,0
17869,1480715220375,,,,,,,,0.02,0.07,1.01,-3.1,-0.0,0.0,860,0,,,,,,,,,,,,,,,,,,,
17889,1480715220394,,,,,,,,0.02,0.07,1.01,-3.0,0.0,-0.1,860,0,,,,,,,,,,,,,,,,,,,
17909,1480715220414,,,,,,,,0.02,0.06,1.0,-3.0,0.0,-0.1,880,0,,,,,,,,,,,,,,,,,,,
17929,1480715220434,,,,,,,,0.02,0.06,1.0,-3.0,0.1,-0.1,900,0,,,,,,,,,,,,,,,,,,,
17949,1480715220454,,,,,65,,,0.02,0.06,1.0,-3.0,-0.0,-0.0,900,0,1,0,0.0,0,37.47839,-122.203766,0.0,0.0,16.0,10,2,1.7,0,0.0,-1,0.0,,0.0,0
17969,1480715220474,,,,,,,,0.02,0.07,1.0,-3.1,0.0,0.0,880,0,,,,,,,,,,,,,,,,,,,
17989,1480715220494,,,,,,,,0.02,0.06,1.0,-3.1,0.2,0.1,880,0,,,,,,,,,,,,,,,,,,,
18009,1480715220514,,,,,,,,0.03,0.07,1.0,-3.1,0.1,0.1,880,0,,,,,,,,,,,,,,,,,,,
18029,1480715220534,,,,,,,,0.02,0.07,1.01,-3.1,-0.2,0.1,880,0,,,,,,,,,,,,,,,,,,,
18049,1480715220554,0,74.7,1.7,112.9,64,100.0,14.87,0.01,0.06,1.01,-3.1,-0.0,-0.0,880,0,1,0,0.0,0,37.47839,-122.203766,0.0,0.0,16.0,10,2,1.7,0,0.0,-1,0.0,0.0,0.0,0
18069,1480715220574,,,,,,,,0.01,0.07,1.0,-3.1,-0.0,-0.1,900,0,,,,,,,,,,,,,,,,,,,
18089,1480715220693,,,,,,,,0.01,0.06,1.0,-3.1,-0.1,-0.2,880,0,,,,,,,,,,,,,,,,,,,
18109,1480715220713,,,,,,,,0.01,0.06,1.0,-3.1,0.0,-0.1,880,0,,,,,,,,,,,,,,,,,,,
18129,1480715220733,,,,,,,,0.02,0.06,1.0,-3.1,0.0,-0.1,880,0,,,,,,,,,,,,,,,,,,,
18149,1480715220753,,,,,66,,,0.02,0.06,1.0,-3.1,-0.1,-0.0,880,0,1,0,0.0,0,37.47839,-122.203766,0.0,0.0,16.0,10,2,1.7,0,0.0,-1,0.0,,0.0,0
18169,1480715220773,,,,,,,,0.02,0.06,1.0,-3.1,0.1,0.1,900,0,,,,,,,,,,,,,,,,,,,
18189,1480715220793,,,,,,,,0.02,0.07,1.0,-3.1,0.3,0.1,900,0,,,,,,,,,,,,,,,,,,,
18209,1480715220813,,,,,,,,0.03,0.07,1.01,-3.1,0.0,0.1,920,0,,,,,,,,,,,,,,,,,,,
18229,1480715220833,,,,,,,,0.02,0.07,1.0,-3.1,-0.2,0.1,900,0,,,,,,,,,,,,,,,,,,,
18249,1480715220853,0,71.8,,109.7,64,97.3,,0.01,0.06,1.01,-3.1,-0.2,0.0,920,0,1,0,0.0,0,37.47839,-122.203766,0.0,0.0,16.0,10,2,1.7,0,0.0,-1,0.0,0.0,0.0,0
18269,1480715220873,,,,,,,,0.01,0.06,1.01,-3.1,0.0,-0.1,920,0,,,,,,,,,,,,,,,,,,,
18289,1480715220795,,,,,,,,0.01,0.06,1.01,-3.1,0.1,-0.1,920,0,,,,,,,,,,,,,,,,,,,
18309,1480715220815,,,,,,,,0.01,0.06,1.0,-3.1,0.0,-0.2,920,0,,,,,,,,,,,,,,,,,,,
18329,1480715220835,,,,,,,,0.0,0.05,1.0,-3.1,-0.0,-0.2,940,0,,,,,,,,,,,,,,,,,,,
18349,1480715220855,,,,,65,,,0.01,0.04,1.01,-3.1,0.1,-0.2,920,0,1,0,0.0,0,37.47839,-122.203766,0.0,0.0,16.0,10,2,1.7,0,0.0,-1,0.0,,0.0,0
18369,1480715220875,,,,,,,,0.01,0.04,1.01,-3.1,0.2,-0.2,920,0,,,,,,,,,,,,,,,,,,,
18389,1480715220895,,,,,,,,0.02,0.04,1.0,-3.1,0.2,-0.1,920,0,,,,,,,,,,,,,,,,,,,
18409,1480715220907,,,,,,,,0.02,0.05,1.0,-3.1,0.1,-0.0,920,0,,,,,,,,,,,,,,,,,,,
18429,1480715220927,,,,,,,,0.02,0.05,1.0,-3.1,0.0,0.0,920,0,,,,,,,,,,,,,,,,,,,
18449,1480715220947,0,74.3,,112.4,65,96.3,,0.01,0.05,1.0,-3.2,0.1,0.1,940,0,1,0,0.0,0,37.47839,-122.203766,0.0,0.0,16.0,10,2,1.7,0,0.0,-1,0.0,0.0,0.0,0
18469,1480715220967,,,,,,,,0.02,0.06,1.01,-3.2,0.3,0.1,940,0,,,,,,,,,,,,,,,,,,,
18489,1480715220994,,,,,,,,0.03,0.06,1.01,-3.2,0.3,0.1,940,0,,,,,,,,,,,,,,,,,,,
18509,1480715221014,,,,,,,,0.03,0.06,1.01,-3.2,0.2,0.0,940,0,,,,,,,,,,,,,,,,,,,
18529,1480715221034,,,,,,,,0.03,0.07,1.01,-3.1,-0.0,-0.0,920,0,,,,,,,,,,,,,,,,,,,
18549,1480715221054,,,,,66,,,0.02,0.06,1.01,-3.1,-0.2,-0.0,940,0,1,0,0.0,0,37.47839,-122.203766,0.0,0.0,16.0,10,2,1.9,0,0.0,-1,0.0,,0.0,0
18569,1480715221074,,,,,,,,0.01,0.06,1.01,-3.1,-0.2,-0.1,940,0,,,,,,,,,,,,,,,,,,,
18589,1480715221095,,,,,,,,0.01,0.06,1.01,-3.1,0.1,-0.1,940,0,,,,,,,,,,,,,,,,,,,
18609,1480715221115,,,,,,,,0.0,0.06,1.01,-3.1,0.2,-0.2,940,0,,,,,,,,,,,,,,,,,,,
18629,1480715221135,,,,,,,,0.0,0.05,1.01,-3.1,0.2,-0.2,940,0,,,,,,,,,,,,,,,,,,,
18649,1480715221155,0,74.5,,113.3,65,98.6,,-0.0,0.05,1.0,-3.1,0.0,-0.3,940,0,1,0,0.0,0,37.47839,-122.203766,0.0,0.0,16.0,10,3,1.9,0,0.0,-1,0.0,0.0,0.0,0
18669,1480715221175,,,,,,,,-0.0,0.05,0.99,-3.1,-0.1,-0.3,940,0,,,,,,,,,,,,,,,,,,,
18689,1480715221195,,,,,,,,-0.0,0.05,1.0,-3.1,-0.1,-0.3,960,0,,,,,,,,,,,,,,,,,,,
18709,1480715221215,,,,,,,,-0.0,0.04,1.01,-3.1,0.0,-0.3,940,0,,,,,,,,,,,,,,,,,,,
18729,1480715221235,,,,,,,,0.0,0.04,1.01,-3.1,0.2,-0.2,940,0,,,,,,,,,,,,,,,,,,,
18749,1480715221255,,,,,71,,,0.01,0.04,1.01,-3.1,0.3,-0.1,940,0,1,0,0.0,0,37.47839,-122.203766,0.0,0.0,16.0,10,3,1.9,0,0.0,-1,0.0,,0.0,0
18769,1480715221275,,,,,,,,0.01,0.04,1.0,-3.1,0.3,-0.0,920,0,,,,,,,,,,,,,,,,,,,
18789,1480715221295,,,,,,,,0.01,0.05,1.0,-3.1,0.1,0.0,920,0,,,,,,,,,,,,,,,,,,,
18809,1480715221315,,,,,,,,0.01,0.05,1.0,-3.2,0.0,0.1,940,0,,,,,,,,,,,,,,,,,,,
18829,1480715221335,,,,,,,,0.01,0.06,1.0,-3.2,0.1,0.2,940,0,,,,,,,,,,,,,,,,,,,
18849,1480715221355,0,74.9,,113.1,69,98.3,,0.01,0.06,1.0,-3.2,0.3,0.2,940,0,1,0,0.0,0,37.47839,-122.203766,0.0,0.0,16.0,10,3,1.9,0,0.0,-1,0.0,0.0,0.0,0
18869,1480715221375,,,,,,,,0.02,0.06,1.01,-3.2,0.4,0.1,940,0,,,,,,,,,,,,,,,,,,,
18889,1480715221494,,,,,,,,0.02,0.06,1.01,-3.2,0.3,0.1,940,0,,,,,,,,,,,,,,,,,,,
18909,1480715221514,,,,,,,,0.02,0.07,1.01,-3.2,0.1,0.0,920,0,,,,,,,,,,,,,,,,,,,
18929,1480715221534,,,,,,,,0.01,0.07,1.0,-3.2,-0.2,0.0,920,0,,,,,,,,,,,,,,,,,,,
18949,1480715221554,,,,,63,,,0.01,0.06,1.01,-3.2,-0.2,-0.0,940,0,1,0,0.0,0,37.47839,-122.203766,0.0,0.0,16.0,10,3,1.9,0,0.0,-1,0.0,,0.0,0
18969,1480715221574,,,,,,,,0.0,0.06,1.01,-3.2,0.0,-0.1,940,0,,,,,,,,,,,,,,,,,,,
18989,1480715221594,,,,,,,,-0.0,0.06,1.01,-3.2,0.2,-0.1,940,0,,,,,,,,,,,,,,,,,,,
19009,1480715221614,,,,,,,,-0.0,0.05,1.01,-3.2,0.3,-0.2,940,0,,,,,,,,,,,,,,,,,,,
19029,1480715221634,,,,,,,,-0.0,0.05,1.0,-3.1,0.1,-0.3,940,0,,,,,,,,,,,,,,,,,,,
19049,1480715221654,0,70.9,0.6,110.1,66,98.3,14.92,-0.0,0.04,1.0,-3.1,-0.0,-0.3,940,0,1,0,0.0,0,37.47839,-122.203766,0.0,0.0,16.0,10,3,1.9,0,0.0,-1,0.0,0.0,0.0,0
19069,1480715221674,,,,,,,,-0.0,0.04,1.01,-3.1,-0.0,-0.3,940,0,,,,,,,,,,,,,,,,,,,
19089,1480715221591,,,,,,,,0.0,0.04,1.01,-3.2,0.1,-0.3,940,0,,,,,,,,,,,,,,,,,,,
19109,1480715221611,,,,,,,,0.01,0.04,1.01,-3.1,0.2,-0.2,940,0,,,,,,,,,,,,,,,,,,,
19129,1480715221631,,,,,,,,0.01,0.05,1.0,-3.1,0.2,-0.1,940,0,,,,,,,,,,,,,,,,,,,
19149,1480715221651,,,,,70,,,0.01,0.06,1.0,-3.1,0.1,-0.1,920,0,1,0,0.0,0,37.47839,-122.203766,0.0,0.0,16.0,10,3,1.9,0,0.0,-1,0.0,,0.0,0
19169,1480715221671,,,,,,,,0.01,0.06,1.0,-3.1,0.0,-0.0,920,0,,,,,,,,,,,,,,,,,,,
19189,1480715221695,,,,,,,,0.01,0.07,1.0,-3.2,0.0,0.1,920,0,,,,,,,,,,,,,,,,,,,
19209,1480715221715,,,,,,,,0.01,0.07,1.0,-3.2,0.2,0.1,940,0,,,,,,,,,,,,,,,,,,,
19229,1480715221735,,,,,,,,0.02,0.07,1.01,-3.2,0.4,0.1,940,0,,,,,,,,,,,,,,,,,,,
19249,1480715221755,0,70.5,,110.5,65,99.2,,0.02,0.08,1.01,-3.2,0.3,0.1,940,0,1,0,0.0,0,37.47839,-122.203766,0.0,0.0,16.0,10,3,1.9,0,0.0,-1,0.0,0.0,0.0,0
19269,1480715221775,,,,,,,,0.02,0.08,1.01,-3.1,0.1,0.0,920,0,,,,,,,,,,,,,,,,,,,
19289,1480715221792,,,,,,,,0.02,0.08,1.0,-3.1,-0.1,0.0,920,0,,,,,,,,,,,,,,,,,,,
19309,1480715221812,,,,,,,,0.01,0.07,1.0,-3.1,-0.2,-0.0,920,0,,,,,,,,,,,,,,,,,,,
19329,1480715221832,,,,,,,,0.01,0.07,1.01,-3.1,0.0,-0.1,940,0,,,,,,,,,,,,,,,,,,,
19349,1480715221852,,,,,68,,,0.0,0.07,1.01,-3.1,0.3,-0.2,940,0,1,0,0.0,0,37.47839,-122.203766,0.0,0.0,16.0,10,3,1.9,0,0.0,-1,0.0,,0.0,0
