"Interval"|"ms"|0|0|1,"Utc"|"ms"|0|0|1,"FuelLevel"|"F"|0|100|5,"OilTemp"|"F"|0.0|300.0|5,"CoolantPressPSI"|"PSI"|0.0|20.0|1,"Coolant"|"F"|0.0|300.0|5,"OilPress"|"PSI"|0|150|10,"EngineTemp"|"F"|0.0|300.0|5,"Battery"|"Volts"|0.0|20.0|1,"AccelX"|"G"|-3.0|3.0|50,"AccelY"|"G"|-3.0|3.0|50,"AccelZ"|"G"|-3.0|3.0|50,"Yaw"|"Deg/Sec"|-300.0|300.0|50,"Pitch"|"Deg/Sec"|-300.0|300.0|50,"Roll"|"Deg/Sec"|-300.0|300.0|50,"RPM"|""|0|10000|50,"Driveshaft"|"RPM"|0|5000|50,"GPIO1"|""|0|1|10,"GPIO2"|""|0|1|10,"GearRatio"|""|-5.0|5.0|10,"Gear"|""|-1|5|10,"Latitude"|"Degrees"|-180.0|180.0|10,"Longitude"|"Degrees"|-180.0|180.0|10,"Speed"|"MPH"|0.0|150.0|10,"Distance"|"Miles"|0.0|0.0|10,"Altitude"|"Feet"|0.0|4000.0|10,"GPSSats"|""|0|20|10,"GPSQual"|""|0|5|10,"GPSDOP"|""|0.0|20.0|10,"LapCount"|""|0|0|10,"LapTime"|"Min"|0.0|0.0|10,"Sector"|""|0|0|10,"SectorTime"|"Min"|0.0|0.0|10,"PredTime"|"Min"|0.0|0.0|5,"ElapsedTime"|"Min"|0.0|0.0|10,"CurrentLap"|""|0|0|10
739433,1480784142119,,,,,,,,0.02,0.09,1.0,-3.1,0.4,0.1,260,0,,,,,,,,,,,,,,,,,,,
739453,1480784142139,0,119.2,,158.5,0,175.6,,0.01,0.07,1.0,-3.1,0.3,-0.0,260,0,0,0,0.0,0,38.158566,-122.452927,0.0,0.201,10.6,10,3,1.9,0,0.0,-1,0.0,0.0,0.0,0
739473,1480784142159,,,,,,,,0.02,0.08,1.0,-3.1,0.1,0.2,500,0,,,,,,,,,,,,,,,,,,,
739493,1480784142179,,,,,,,,0.01,0.07,1.0,-3.1,0.3,0.2,680,0,,,,,,,,,,,,,,,,,,,
739513,1480784142199,,,,,,,,0.01,0.08,1.0,-3.0,0.2,0.1,680,0,,,,,,,,,,,,,,,,,,,
739533,1480784142219,,,,,,,,0.01,0.08,1.0,-3.1,0.2,0.2,820,0,,,,,,,,,,,,,,,,,,,
739553,1480784142239,,,,,1,,,0.01,0.07,1.0,-3.1,0.1,0.3,920,0,0,0,0.0,0,38.158566,-122.452927,0.0,0.201,10.6,10,3,1.9,0,0.0,-1,0.0,,0.0,0
739573,1480784142259,,,,,,,,0.02,0.07,1.01,-3.1,0.5,0.3,960,0,,,,,,,,,,,,,,,,,,,
739593,1480784142279,,,,,,,,0.02,0.07,1.02,-3.2,0.6,0.4,920,0,,,,,,,,,,,,,,,,,,,
739613,1480784142299,,,,,,,,0.02,0.07,1.03,-3.2,0.7,0.6,900,27,,,,,,,,,,,,,,,,,,,
739633,1480784142319,,,,,,,,0.02,0.07,1.02,-3.2,0.5,0.7,900,27,,,,,,,,,,,,,,,,,,,
739653,1480784142339,0,118.3,,158.5,2,176.7,,0.01,0.07,1.02,-3.2,0.3,0.7,960,27,0,0,33.333,0,38.158566,-122.452927,0.0,0.201,10.6,10,3,1.9,0,0.0,-1,0.0,0.0,0.0,0
739673,1480784142359,,,,,,,,-0.0,0.07,1.04,-3.2,0.4,0.6,1000,1538461,,,,,,,,,,,,,,,,,,,
739693,1480784142379,,,,,,,,0.0,0.06,1.05,-3.2,0.6,0.4,1040,0,,,,,,,,,,,,,,,,,,,
739713,1480784142498,,,,,,,,0.0,0.07,1.06,-3.2,0.6,0.4,980,0,,,,,,,,,,,,,,,,,,,
739733,1480784142518,,,,,,,,-0.0,0.06,1.05,-3.2,0.5,0.3,960,0,,,,,,,,,,,,,,,,,,,
739753,1480784142538,,,,,6,,,-0.0,0.07,1.05,-3.1,0.5,0.3,980,0,0,0,0.0,0,38.158566,-122.452927,0.0,0.201,10.6,10,3,1.9,0,0.0,-1,0.0,,0.0,0
739773,1480784142558,,,,,,,,-0.01,0.06,1.05,-3.1,0.7,0.3,1040,0,,,,,,,,,,,,,,,,,,,
739793,1480784142578,,,,,,,,-0.01,0.05,1.05,-3.1,0.7,0.3,1060,0,,,,,,,,,,,,,,,,,,,
739813,1480784142598,,,,,,,,-0.01,0.05,1.05,-3.1,0.7,0.2,1060,0,,,,,,,,,,,,,,,,,,,
739833,1480784142618,,,,,,,,-0.01,0.06,1.03,-3.1,0.4,0.1,1040,0,,,,,,,,,,,,,,,,,,,
739853,1480784142638,0,119.9,,159.1,8,176.4,,0.0,0.07,1.03,-3.1,0.3,0.1,1060,0,0,0,0.0,0,38.158566,-122.452927,0.0,0.201,10.6,10,3,1.9,0,0.0,-1,0.0,0.0,0.0,0
739873,1480784142658,,,,,,,,0.01,0.07,1.04,-3.1,0.4,0.1,1080,0,,,,,,,,,,,,,,,,,,,
739893,1480784142678,,,,,,,,0.02,0.07,1.04,-3.1,0.6,0.2,1120,0,,,,,,,,,,,,,,,,,,,
739913,1480784142599,,,,,,,,0.01,0.08,1.03,-3.1,0.6,0.2,1120,0,,,,,,,,,,,,,,,,,,,
739933,1480784142619,,,,,,,,0.01,0.08,1.04,-3.1,0.6,0.3,1100,0,,,,,,,,,,,,,,,,,,,
739953,1480784142639,,,,,10,,,0.01,0.08,1.03,-3.1,0.4,0.2,1100,0,0,0,0.0,0,38.158566,-122.452927,0.0,0.201,10.6,10,3,1.9,0,0.0,-1,0.0,,0.0,0
739973,1480784142659,,,,,,,,0.01,0.07,1.02,-3.1,0.5,0.1,1100,0,,,,,,,,,,,,,,,,,,,
739993,1480784142679,,,,,,,,0.01,0.07,1.03,-3.1,0.6,0.0,1120,0,,,,,,,,,,,,,,,,,,,
740013,1480784142699,,,,,,,,0.01,0.07,1.03,-3.0,0.6,0.0,1120,0,,,,,,,,,,,,,,,,,,,
740033,1480784142719,,,,,,,,0.01,0.06,1.02,-3.0,0.5,0.1,1100,0,,,,,,,,,,,,,,,,,,,
740053,1480784142739,1,119.2,9.8,158.2,14,175.8,14.42,0.02,0.06,1.02,-3.0,0.5,0.1,1080,0,0,0,0.0,0,38.158566,-122.452927,0.0,0.201,10.6,10,3,1.9,0,0.0,-1,0.0,0.0,0.0,0
740073,1480784142759,,,,,,,,0.02,0.06,1.02,-3.1,0.5,0.1,1080,0,,,,,,,,,,,,,,,,,,,
740093,1480784142779,,,,,,,,0.02,0.07,1.02,-3.1,0.6,0.2,1060,0,,,,,,,,,,,,,,,,,,,
740113,1480784142798,,,,,,,,0.01,0.06,1.02,-3.1,0.5,0.2,1060,0,,,,,,,,,,,,,,,,,,,
740133,1480784142818,,,,,,,,0.01,0.06,1.02,-3.1,0.5,0.2,1040,0,,,,,,,,,,,,,,,,,,,
740153,1480784142838,,,,,18,,,0.02,0.07,1.02,-3.1,0.5,0.2,1020,0,0,0,0.0,0,38.158566,-122.452927,0.0,0.201,10.6,10,3,1.9,0,0.0,-1,0.0,,0.0,0
740173,1480784142858,,,,,,,,0.02,0.07,1.02,-3.1,0.4,0.2,1000,0,,,,,,,,,,,,,,,,,,,
740193,1480784142878,,,,,,,,0.03,0.07,1.01,-3.1,0.4,0.2,980,0,,,,,,,,,,,,,,,,,,,
740213,1480784142893,,,,,,,,0.03,0.06,1.01,-3.1,0.4,0.2,980,0,,,,,,,,,,,,,,,,,,,
740233,1480784142913,,,,,,,,0.03,0.06,1.01,-3.1,0.4,0.2,960,0,,,,,,,,,,,,,,,,,,,
740253,1480784142933,0,119.9,,159.3,20,177.2,,0.03,0.06,1.01,-3.1,0.5,0.2,920,0,0,0,0.0,0,38.158566,-122.452927,0.0,0.201,10.6,10,3,1.9,0,0.0,-1,0.0,0.0,0.0,0
740273,1480784142953,,,,,,,,0.02,0.06,1.01,-3.1,0.5,0.1,900,0,,,,,,,,,,,,,,,,,,,
740293,1480784142973,,,,,,,,0.02,0.06,1.01,-3.1,0.5,0.1,900,0,,,,,,,,,,,,,,,,,,,
740313,1480784142999,,,,,,,,0.02,0.06,1.01,-3.1,0.4,0.1,860,0,,,,,,,,,,,,,,,,,,,
740333,1480784143019,,,,,,,,0.02,0.06,1.01,-3.1,0.3,0.2,860,0,,,,,,,,,,,,,,,,,,,
740353,1480784143039,,,,,23,,,0.02,0.06,1.01,-3.1,0.3,0.2,840,0,0,0,0.0,0,38.158566,-122.452927,0.0,0.201,10.6,10,3,1.9,0,0.0,-1,0.0,,0.0,0
740373,1480784143059,,,,,,,,0.02,0.06,1.01,-3.1,0.2,0.2,820,0,,,,,,,,,,,,,,,,,,,
740393,1480784143079,,,,,,,,0.02,0.06,1.01,-3.1,0.2,0.1,800,0,,,,,,,,,,,,,,,,,,,
740413,1480784143099,,,,,,,,0.02,0.05,1.0,-3.1,0.3,0.1,800,0,,,,,,,,,,,,,,,,,,,
740433,1480784143119,,,,,,,,0.02,0.05,1.0,-3.1,0.3,0.1,780,0,,,,,,,,,,,,,,,,,,,
740453,1480784143139,0,119.0,,158.2,23,175.8,,0.02,0.05,1.01,-3.1,0.4,0.1,760,0,0,0,0.0,0,38.158566,-122.452927,0.0,0.201,10.6,10,3,1.9,0,0.0,-1,0.0,0.0,0.0,0
740473,1480784143159,,,,,,,,0.02,0.05,1.01,-3.1,0.5,0.1,740,0,,,,,,,,,,,,,,,,,,,
740493,1480784143179,,,,,,,,0.02,0.05,1.01,-3.1,0.5,0.2,740,0,,,,,,,,,,,,,,,,,,,
740513,1480784143298,,,,,,,,0.02,0.05,1.01,-3.1,0.6,0.2,720,0,,,,,,,,,,,,,,,,,,,
740533,1480784143318,,,,,,,,0.02,0.06,1.01,-3.1,0.6,0.2,700,0,,,,,,,,,,,,,,,,,,,
740553,1480784143338,,,,,21,,,0.02,0.06,1.01,-3.1,0.6,0.1,680,0,0,0,0.0,0,38.158566,-122.452927,0.0,0.201,10.6,10,3,1.9,0,0.0,-1,0.0,,0.0,0
740573,1480784143358,,,,,,,,0.02,0.06,1.01,-3.1,0.7,0.1,680,0,,,,,,,,,,,,,,,,,,,
740593,1480784143378,,,,,,,,0.02,0.06,1.01,-3.1,0.6,0.1,680,0,,,,,,,,,,,,,,,,,,,
740613,1480784143398,,,,,,,,0.02,0.06,1.01,-3.1,0.5,0.1,640,0,,,,,,,,,,,,,,,,,,,
740633,1480784143418,,,,,,,,0.02,0.06,1.01,-3.1,0.5,0.2,640,0,,,,,,,,,,,,,,,,,,,
740653,1480784143438,0,118.9,,158.1,21,175.8,,0.02,0.06,1.01,-3.1,0.5,0.2,640,0,0,0,0.0,0,38.158566,-122.452927,0.0,0.201,10.6,10,3,1.9,0,0.0,-1,0.0,0.0,0.0,0
740673,1480784143458,,,,,,,,0.02,0.06,1.01,-3.1,0.4,0.2,640,0,,,,,,,,,,,,,,,,,,,
740693,1480784143478,,,,,,,,0.02,0.06,1.01,-3.1,0.4,0.2,620,0,,,,,,,,,,,,,,,,,,,
740713,1480784143398,,,,,,,,0.02,0.07,1.01,-3.1,0.5,0.2,600,0,,,,,,,,,,,,,,,,,,,
740733,1480784143418,,,,,,,,0.02,0.07,1.01,-3.1,0.5,0.2,600,0,,,,,,,,,,,,,,,,,,,
740753,1480784143438,,,,,19,,,0.02,0.07,1.01,-3.1,0.5,0.2,580,0,0,0,0.0,0,38.158566,-122.452927,0.0,0.201,10.6,10,3,1.9,0,0.0,-1,0.0,,0.0,0
740773,1480784143458,,,,,,,,0.02,0.07,1.01,-3.1,0.4,0.2,580,0,,,,,,,,,,,,,,,,,,,
740793,1480784143478,,,,,,,,0.02,0.07,1.0,-3.1,0.4,0.2,560,0,,,,,,,,,,,,,,,,,,,
740813,1480784143498,,,,,,,,0.02,0.07,1.0,-3.1,0.4,0.2,560,0,,,,,,,,,,,,,,,,,,,
740833,1480784143518,,,,,,,,0.02,0.07,1.0,-3.1,0.3,0.2,560,0,,,,,,,,,,,,,,,,,,,
740853,1480784143538,0,120.1,,159.4,21,176.2,,0.02,0.07,1.0,-3.1,0.3,0.2,540,0,0,0,0.0,0,38.158566,-122.452927,0.0,0.201,10.6,10,3,1.9,0,0.0,-1,0.0,0.0,0.0,0
740873,1480784143558,,,,,,,,0.02,0.07,1.0,-3.1,0.4,0.2,540,0,,,,,,,,,,,,,,,,,,,
740893,1480784143578,,,,,,,,0.02,0.07,1.0,-3.1,0.4,0.2,540,0,,,,,,,,,,,,,,,,,,,
740913,1480784143599,,,,,,,,0.02,0.07,1.0,-3.1,0.4,0.2,540,0,,,,,,,,,,,,,,,,,,,
740933,1480784143619,,,,,,,,0.02,0.07,1.0,-3.1,0.4,0.3,540,0,,,,,,,,,,,,,,,,,,,
740953,1480784143639,,,,,19,,,0.02,0.07,1.0,-3.1,0.4,0.2,540,0,0,0,0.0,0,38.158566,-122.452927,0.0,0.201,10.6,10,3,1.9,0,0.0,-1,0.0,,0.0,0
740973,1480784143659,,,,,,,,0.02,0.07,1.0,-3.1,0.4,0.2,540,0,,,,,,,,,,,,,,,,,,,
740993,1480784143679,,,,,,,,0.02,0.07,1.0,-3.1,0.4,0.2,540,0,,,,,,,,,,,,,,,,,,,
741013,1480784143698,,,,,,,,0.02,0.07,1.0,-3.1,0.3,0.3,520,0,,,,,,,,,,,,,,,,,,,
741033,1480784143718,,,,,,,,0.02,0.07,1.01,-3.1,0.3,0.3,520,0,,,,,,,,,,,,,,,,,,,
741053,1480784143738,0,119.9,10.1,159.6,20,176.9,13.48,0.02,0.07,1.0,-3.1,0.3,0.2,500,0,0,0,0.0,0,38.158566,-122.452927,0.0,0.201,10.6,10,3,1.9,0,0.0,-1,0.0,0.0,0.0,0
741073,1480784143758,,,,,,,,0.02,0.07,1.0,-3.1,0.3,0.2,520,0,,,,,,,,,,,,,,,,,,,
741093,1480784143778,,,,,,,,0.02,0.07,1.0,-3.1,0.4,0.2,520,0,,,,,,,,,,,,,,,,,,,
741113,1480784143799,,,,,,,,0.02,0.07,1.01,-3.1,0.4,0.2,520,0,,,,,,,,,,,,,,,,,,,
741133,1480784143819,,,,,,,,0.02,0.07,1.01,-3.1,0.4,0.2,520,0,,,,,,,,,,,,,,,,,,,
741153,1480784143839,,,,,19,,,0.02,0.07,1.01,-3.1,0.4,0.3,520,0,0,0,0.0,0,38.158566,-122.452927,0.0,0.201,10.6,10,3,1.9,0,0.0,-1,0.0,,0.0,0
741173,1480784143859,,,,,,,,0.02,0.07,1.0,-3.1,0.4,0.3,520,0,,,,,,,,,,,,,,,,,,,
741193,1480784143879,,,,,,,,0.02,0.07,1.01,-3.1,0.3,0.3,520,0,,,,,,,,,,,,,,,,,,,
741213,1480784143893,,,,,,,,0.02,0.07,1.01,-3.1,0.3,0.3,520,0,,,,,,,,,,,,,,,,,,,
741233,1480784143913,,,,,,,,0.02,0.07,1.0,-3.1,0.3,0.3,520,0,,,,,,,,,,,,,,,,,,,
741253,1480784143933,0,119.8,,159.4,19,175.8,,0.02,0.07,1.01,-3.1,0.4,0.3,520,0,0,0,0.0,0,38.158566,-122.452927,0.0,0.201,10.6,10,3,1.9,0,0.0,-1,0.0,0.0,0.0,0
741273,1480784143953,,,,,,,,0.02,0.07,1.0,-3.1,0.4,0.3,520,0,,,,,,,,,,,,,,,,,,,
741293,1480784143973,,,,,,,,0.02,0.06,1.0,-3.1,0.4,0.2,520,0,,,,,,,,,,,,,,,,,,,
741313,1480784144097,,,,,,,,0.02,0.07,1.0,-3.1,0.4,0.3,520,0,,,,,,,,,,,,,,,,,,,
741333,1480784144117,,,,,,,,0.02,0.07,1.0,-3.1,0.4,0.2,520,0,,,,,,,,,,,,,,,,,,,
741353,1480784144137,,,,,17,,,0.02,0.07,1.0,-3.1,0.3,0.2,540,0,0,0,0.0,0,38.158566,-122.452927,0.0,0.201,10.6,10,3,1.9,0,0.0,-1,0.0,,0.0,0
741373,1480784144157,,,,,,,,0.02,0.07,1.0,-3.1,0.4,0.2,540,0,,,,,,,,,,,,,,,,,,,
741393,1480784144177,,,,,,,,0.02,0.07,1.0,-3.1,0.5,0.2,540,0,,,,,,,,,,,,,,,,,,,
741413,1480784144197,,,,,,,,0.02,0.07,1.0,-3.1,0.4,0.2,540,0,,,,,,,,,,,,,,,,,,,
741433,1480784144217,,,,,,,,0.02,0.07,1.0,-3.1,0.5,0.2,540,0,,,,,,,,,,,,,,,,,,,
741453,1480784144237,0,119.2,,159.6,19,176.9,,0.02,0.07,1.01,-3.1,0.5,0.2,540,0,0,0,0.0,0,38.158566,-122.452927,0.0,0.201,10.6,10,3,1.9,0,0.0,-1,0.0,0.0,0.0,0
741473,1480784144257,,,,,,,,0.02,0.07,1.01,-3.1,0.5,0.2,540,0,,,,,,,,,,,,,,,,,,,
741493,1480784144277,,,,,,,,0.02,0.07,1.01,-3.1,0.5,0.2,540,0,,,,,,,,,,,,,,,,,,,
741513,1480784144199,,,,,,,,0.02,0.07,1.01,-3.1,0.5,0.2,540,0,,,,,,,,,,,,,,,,,,,
741533,1480784144219,,,,,,,,0.02,0.07,1.01,-3.1,0.5,0.2,540,0,,,,,,,,,,,,,,,,,,,
741553,1480784144239,,,,,17,,,0.02,0.07,1.01,-3.1,0.5,0.2,540,0,0,0,0.0,0,38.158566,-122.452927,0.0,0.201,10.6,10,3,1.9,0,0.0,-1,0.0,,0.0,0
741573,1480784144259,,,,,,,,0.02,0.07,1.01,-3.1,0.5,0.2,540,0,,,,,,,,,,,,,,,,,,,
741593,1480784144279,,,,,,,,0.02,0.07,1.01,-3.1,0.4,0.2,560,0,,,,,,,,,,,,,,,,,,,
741613,1480784144299,,,,,,,,0.02,0.07,1.01,-3.1,0.4,0.2,560,0,,,,,,,,,,,,,,,,,,,
741633,1480784144319,,,,,,,,0.02,0.08,1.01,-3.1,0.5,0.2,560,0,,,,,,,,,,,,,,,,,,,
741653,1480784144339,0,118.0,,159.0,19,175.7,,0.02,0.07,1.0,-3.1,0.5,0.3,560,0,0,0,0.0,0,38.158566,-122.452927,0.0,0.201,10.6,10,3,1.9,0,0.0,-1,0.0,0.0,0.0,0
741673,1480784144359,,,,,,,,0.02,0.08,1.0,-3.1,0.5,0.3,560,0,,,,,,,,,,,,,,,,,,,
741693,1480784144379,,,,,,,,0.02,0.07,1.0,-3.1,0.4,0.3,560,0,,,,,,,,,,,,,,,,,,,
741713,1480784144399,,,,,,,,0.02,0.08,1.0,-3.1,0.4,0.3,560,0,,,,,,,,,,,,,,,,,,,
741733,1480784144419,,,,,,,,0.02,0.08,1.01,-3.1,0.5,0.3,560,0,,,,,,,,,,,,,,,,,,,
741753,1480784144439,,,,,18,,,0.02,0.08,1.0,-3.1,0.5,0.3,560,0,0,0,0.0,0,38.158566,-122.452927,0.0,0.201,10.6,10,3,1.9,0,0.0,-1,0.0,,0.0,0
741773,1480784144459,,,,,,,,0.02,0.08,1.01,-3.1,0.4,0.3,560,0,,,,,,,,,,,,,,,,,,,
741793,1480784144479,,,,,,,,0.02,0.07,1.01,-3.1,0.4,0.3,560,0,,,,,,,,,,,,,,,,,,,
741813,1480784144499,,,,,,,,0.02,0.08,1.01,-3.2,0.4,0.3,560,0,,,,,,,,,,,,,,,,,,,
741833,1480784144519,,,,,,,,0.02,0.07,1.01,-3.1,0.4,0.3,560,0,,,,,,,,,,,,,,,,,,,
741853,1480784144539,0,119.8,,159.7,17,176.8,,0.02,0.07,1.01,-3.2,0.4,0.3,560,0,0,0,0.0,0,38.158566,-122.452927,0.0,0.201,10.6,10,3,1.9,0,0.0,-1,0.0,0.0,0.0,0
741873,1480784144559,,,,,,,,0.02,0.07,1.01,-3.2,0.5,0.3,560,0,,,,,,,,,,,,,,,,,,,
741893,1480784144579,,,,,,,,0.02,0.07,1.01,-3.1,0.5,0.4,560,0,,,,,,,,,,,,,,,,,,,
741913,1480784144599,,,,,,,,0.02,0.07,1.01,-3.1,0.4,0.4,540,0,,,,,,,,,,,,,,,,,,,
741933,1480784144619,,,,,,,,0.02,0.07,1.01,-3.1,0.3,0.4,540,0,,,,,,,,,,,,,,,,,,,
741953,1480784144639,,,,,19,,,0.02,0.07,1.01,-3.1,0.4,0.4,560,0,0,0,0.0,0,38.158566,-122.452927,0.0,0.201,10.6,10,3,1.9,0,0.0,-1,0.0,,0.0,0
741973,1480784144659,,,,,,,,0.02,0.07,1.01,-3.1,0.5,0.4,560,0,,,,,,,,,,,,,,,,,,,
741993,1480784144679,,,,,,,,0.02,0.08,1.01,-3.1,0.4,0.4,560,0,,,,,,,,,,,,,,,,,,,
742013,1480784144699,,,,,,,,0.02,0.07,1.01,-3.1,0.4,0.4,560,0,,,,,,,,,,,,,,,,,,,
742033,1480784144719,,,,,,,,0.02,0.07,1.0,-3.1,0.3,0.4,560,0,,,,,,,,,,,,,,,,,,,
742053,1480784144739,0,120.1,9.7,159.8,18,176.8,13.38,0.02,0.07,1.01,-3.1,0.3,0.3,560,0,0,0,0.0,0,38.158566,-122.452927,0.0,0.201,10.6,10,3,1.9,0,0.0,-1,0.0,0.0,0.0,0
742073,1480784144759,,,,,,,,0.02,0.07,1.01,-3.1,0.4,0.3,560,0,,,,,,,,,,,,,,,,,,,
742093,1480784144779,,,,,,,,0.03,0.07,1.01,-3.1,0.5,0.3,560,0,,,,,,,,,,,,,,,,,,,
742113,1480784144898,,,,,,,,0.02,0.06,1.01,-3.1,0.4,0.3,560,0,,,,,,,,,,,,,,,,,,,
742133,1480784144918,,,,,,,,0.02,0.07,1.01,-3.1,0.4,0.3,540,0,,,,,,,,,,,,,,,,,,,
742153,1480784144938,,,,,20,,,0.02,0.06,1.0,-3.1,0.4,0.3,540,0,0,0,0.0,0,38.158566,-122.452927,0.0,0.201,10.6,10,3,1.9,0,0.0,-1,0.0,,0.0,0
742173,1480784144958,,,,,,,,0.02,0.06,1.01,-3.1,0.4,0.3,560,0,,,,,,,,,,,,,,,,,,,
742193,1480784144978,,,,,,,,0.02,0.07,1.01,-3.1,0.4,0.3,560,0,,,,,,,,,,,,,,,,,,,
742213,1480784144998,,,,,,,,0.02,0.06,1.01,-3.1,0.4,0.3,560,0,,,,,,,,,,,,,,,,,,,
742233,1480784145018,,,,,,,,0.02,0.07,1.01,-3.1,0.4,0.3,560,0,,,,,,,,,,,,,,,,,,,
742253,1480784145038,0,118.2,,159.4,19,175.6,,0.02,0.06,1.0,-3.1,0.3,0.3,560,0,0,0,0.0,0,38.158566,-122.452927,0.0,0.201,10.6,10,3,1.9,0,0.0,-1,0.0,0.0,0.0,0
742273,1480784145058,,,,,,,,0.02,0.07,1.01,-3.2,0.4,0.3,560,0,,,,,,,,,,,,,,,,,,,
742293,1480784145078,,,,,,,,0.02,0.07,1.0,-3.2,0.4,0.3,560,0,,,,,,,,,,,,,,,,,,,
742313,1480784144997,,,,,,,,0.02,0.07,1.01,-3.2,0.4,0.3,560,0,,,,,,,,,,,,,,,,,,,
742333,1480784145017,,,,,,,,0.02,0.07,1.01,-3.1,0.5,0.3,560,0,,,,,,,,,,,,,,,,,,,
742353,1480784145037,,,,,20,,,0.02,0.07,1.01,-3.1,0.5,0.2,560,0,0,0,0.0,0,38.158566,-122.452927,0.0,0.201,10.6,10,3,1.9,0,0.0,-1,0.0,,0.0,0
742373,1480784145057,,,,,,,,0.02,0.07,1.01,-3.2,0.5,0.3,580,0,,,,,,,,,,,,,,,,,,,
742393,1480784145077,,,,,,,,0.02,0.07,1.01,-3.2,0.5,0.2,580,0,,,,,,,,,,,,,,,,,,,
742413,1480784145098,,,,,,,,0.02,0.07,1.01,-3.2,0.4,0.2,580,0,,,,,,,,,,,,,,,,,,,
742433,1480784145118,,,,,,,,0.02,0.06,1.01,-3.1,0.3,0.2,580,0,,,,,,,,,,,,,,,,,,,
742453,1480784145138,0,119.5,,159.5,19,176.5,,0.02,0.07,1.01,-3.2,0.3,0.2,580,0,0,0,0.0,0,38.158566,-122.452927,0.0,0.201,10.6,10,3,1.9,0,0.0,-1,0.0,0.0,0.0,0
742473,1480784145158,,,,,,,,0.02,0.07,1.01,-3.2,0.2,0.2,580,0,,,,,,,,,,,,,,,,,,,
742493,1480784145178,,,,,,,,0.02,0.07,1.01,-3.2,0.2,0.2,580,0,,,,,,,,,,,,,,,,,,,
742513,1480784145199,,,,,,,,0.02,0.07,1.01,-3.2,0.2,0.2,580,0,,,,,,,,,,,,,,,,,,,
742533,1480784145219,,,,,,,,0.02,0.06,1.0,-3.2,0.2,0.2,580,0,,,,,,,,,,,,,,,,,,,
742553,1480784145239,,,,,20,,,0.02,0.06,1.01,-3.2,0.2,0.2,580,0,0,0,0.0,0,38.158566,-122.452927,0.0,0.201,10.6,10,3,1.9,0,0.0,-1,0.0,,0.0,0
742573,1480784145259,,,,,,,,0.02,0.07,1.01,-3.2,0.2,0.2,600,0,,,,,,,,,,,,,,,,,,,
742593,1480784145279,,,,,,,,0.02,0.06,1.01,-3.1,0.2,0.2,600,0,,,,,,,,,,,,,,,,,,,
742613,1480784145298,,,,,,,,0.02,0.06,1.01,-3.1,0.2,0.2,600,0,,,,,,,,,,,,,,,,,,,
742633,1480784145318,,,,,,,,0.02,0.06,1.0,-3.1,0.2,0.2,600,0,,,,,,,,,,,,,,,,,,,
742653,1480784145338,0,119.0,,159.5,20,176.3,,0.02,0.07,1.0,-3.1,0.2,0.2,600,0,0,0,0.0,0,38.158566,-122.452927,0.0,0.201,10.6,10,3,1.9,0,0.0,-1,0.0,0.0,0.0,0
742673,1480784145358,,,,,,,,0.02,0.07,1.0,-3.1,0.2,0.2,600,0,,,,,,,,,,,,,,,,,,,
742693,1480784145378,,,,,,,,0.02,0.07,1.0,-3.1,0.2,0.2,600,0,,,,,,,,,,,,,,,,,,,
742713,1480784145398,,,,,,,,0.02,0.07,1.0,-3.1,0.2,0.2,600,0,,,,,,,,,,,,,,,,,,,
742733,1480784145418,,,,,,,,0.02,0.07,1.0,-3.1,0.2,0.2,600,0,,,,,,,,,,,,,,,,,,,
742753,1480784145438,,,,,20,,,0.02,0.07,1.0,-3.1,0.2,0.2,600,0,0,0,0.0,0,38.158566,-122.452927,0.0,0.201,10.6,10,3,1.9,0,0.0,-1,0.0,,0.0,0
742773,1480784145458,,,,,,,,0.02,0.07,1.0,-3.2,0.2,0.2,600,0,,,,,,,,,,,,,,,,,,,
742793,1480784145478,,,,,,,,0.02,0.07,1.0,-3.1,0.2,0.2,600,0,,,,,,,,,,,,,,,,,,,
742813,1480784145498,,,,,,,,0.02,0.07,1.0,-3.1,0.2,0.2,600,0,,,,,,,,,,,,,,,,,,,
742833,1480784145518,,,,,,,,0.02,0.07,1.0,-3.1,0.2,0.2,600,0,,,,,,,,,,,,,,,,,,,
742853,1480784145538,0,120.2,,160.3,21,176.6,,0.02,0.07,1.0,-3.1,0.2,0.2,600,0,0,0,0.0,0,38.158566,-122.452927,0.0,0.201,10.6,10,3,1.9,0,0.0,-1,0.0,0.0,0.0,0
742873,1480784145558,,,,,,,,0.02,0.07,1.0,-3.1,0.3,0.2,600,0,,,,,,,,,,,,,,,,,,,
742893,1480784145578,,,,,,,,0.02,0.07,1.0,-3.1,0.3,0.2,600,0,,,,,,,,,,,,,,,,,,,
742913,1480784145698,,,,,,,,0.02,0.07,1.0,-3.1,0.4,0.2,600,0,,,,,,,,,,,,,,,,,,,
742933,1480784145718,,,,,,,,0.02,0.07,1.0,-3.1,0.4,0.3,600,0,,,,,,,,,,,,,,,,,,,
742953,1480784145738,,,,,21,,,0.02,0.07,1.0,-3.1,0.4,0.3,600,0,0,0,0.0,0,38.158566,-122.452927,0.0,0.201,10.6,10,3,1.9,0,0.0,-1,0.0,,0.0,0
742973,1480784145758,,,,,,,,0.03,0.07,1.01,-3.1,0.4,0.3,600,0,,,,,,,,,,,,,,,,,,,
742993,1480784145778,,,,,,,,0.02,0.07,1.01,-3.1,0.4,0.2,600,0,,,,,,,,,,,,,,,,,,,
743013,1480784145798,,,,,,,,0.02,0.07,1.0,-3.1,0.4,0.2,600,0,,,,,,,,,,,,,,,,,,,
743033,1480784145818,,,,,,,,0.02,0.07,1.01,-3.1,0.4,0.3,600,0,,,,,,,,,,,,,,,,,,,
743053,1480784145838,0,119.6,9.3,160.6,21,175.8,14.02,0.02,0.07,1.01,-3.1,0.5,0.2,600,0,0,0,0.0,0,38.158566,-122.452927,0.0,0.201,10.6,10,3,1.9,0,0.0,-1,0.0,0.0,0.0,0
743073,1480784145858,,,,,,,,0.02,0.07,1.01,-3.1,0.5,0.3,600,0,,,,,,,,,,,,,,,,,,,
743093,1480784145878,,,,,,,,0.02,0.07,1.01,-3.1,0.5,0.2,600,0,,,,,,,,,,,,,,,,,,,
743113,1480784145798,,,,,,,,0.02,0.07,1.01,-3.1,0.5,0.2,580,0,,,,,,,,,,,,,,,,,,,
743133,1480784145818,,,,,,,,0.02,0.07,1.01,-3.1,0.5,0.3,580,0,,,,,,,,,,,,,,,,,,,
743153,1480784145838,,,,,21,,,0.02,0.07,1.01,-3.1,0.5,0.3,580,0,0,0,0.0,0,38.158566,-122.452927,0.0,0.201,10.6,10,3,1.9,0,0.0,-1,0.0,,0.0,0
743173,1480784145858,,,,,,,,0.03,0.07,1.01,-3.1,0.5,0.3,580,0,,,,,,,,,,,,,,,,,,,
743193,1480784145878,,,,,,,,0.02,0.07,1.01,-3.1,0.5,0.3,580,0,,,,,,,,,,,,,,,,,,,
743213,1480784145892,,,,,,,,0.02,0.07,1.01,-3.1,0.5,0.2,580,0,,,,,,,,,,,,,,,,,,,
743233,1480784145912,,,,,,,,0.02,0.07,1.01,-3.1,0.5,0.3,580,0,,,,,,,,,,,,,,,,,,,
743253,1480784145932,0,120.6,,160.7,21,176.8,,0.02,0.07,1.01,-3.1,0.5,0.2,580,0,0,0,0.0,0,38.158566,-122.452927,0.0,0.201,10.6,10,3,1.9,0,0.0,-1,0.0,0.0,0.0,0
743273,1480784145952,,,,,,,,0.02,0.07,1.01,-3.1,0.4,0.3,580,0,,,,,,,,,,,,,,,,,,,
743293,1480784145972,,,,,,,,0.02,0.07,1.01,-3.1,0.4,0.2,580,0,,,,,,,,,,,,,,,,,,,
743313,1480784145998,,,,,,,,0.02,0.07,1.01,-3.1,0.4,0.3,580,0,,,,,,,,,,,,,,,,,,,
743333,1480784146018,,,,,,,,0.02,0.07,1.0,-3.1,0.4,0.3,580,0,,,,,,,,,,,,,,,,,,,
743353,1480784146038,,,,,22,,,0.02,0.07,1.0,-3.1,0.4,0.2,580,0,0,0,0.0,0,38.158566,-122.452927,0.0,0.201,10.6,10,3,1.9,0,0.0,-1,0.0,,0.0,0
743373,1480784146058,,,,,,,,0.02,0.08,1.01,-3.1,0.4,0.3,580,0,,,,,,,,,,,,,,,,,,,
743393,1480784146078,,,,,,,,0.02,0.07,1.0,-3.1,0.3,0.3,580,0,,,,,,,,,,,,,,,,,,,
743413,1480784146098,,,,,,,,0.02,0.07,1.0,-3.1,0.4,0.3,580,0,,,,,,,,,,,,,,,,,,,
743433,1480784146118,,,,,,,,0.02,0.07,1.0,-3.1,0.3,0.2,580,0,,,,,,,,,,,,,,,,,,,
743453,1480784146138,0,120.2,,160.9,20,176.4,,0.02,0.07,1.0,-3.1,0.3,0.2,580,0,0,0,0.0,0,38.158566,-122.452927,0.0,0.201,10.6,10,2,1.9,0,0.0,-1,0.0,0.0,0.0,0
743473,1480784146158,,,,,,,,0.02,0.07,1.0,-3.1,0.3,0.3,580,0,,,,,,,,,,,,,,,,,,,
743493,1480784146178,,,,,,,,0.02,0.07,1.0,-3.1,0.3,0.3,580,0,,,,,,,,,,,,,,,,,,,
743513,1480784146199,,,,,,,,0.02,0.07,1.01,-3.1,0.4,0.3,580,0,,,,,,,,,,,,,,,,,,,
743533,1480784146219,,,,,,,,0.02,0.07,1.01,-3.1,0.4,0.3,580,0,,,,,,,,,,,,,,,,,,,
743553,1480784146239,,,,,20,,,0.02,0.07,1.01,-3.1,0.4,0.3,580,0,0,0,0.0,0,38.158566,-122.452927,0.0,0.201,10.6,10,2,1.9,0,0.0,-1,0.0,,0.0,0
743573,1480784146259,,,,,,,,0.02,0.07,1.01,-3.1,0.4,0.3,580,0,,,,,,,,,,,,,,,,,,,
743593,1480784146279,,,,,,,,0.02,0.07,1.0,-3.1,0.4,0.3,580,0,,,,,,,,,,,,,,,,,,,
743613,1480784146298,,,,,,,,0.02,0.07,1.01,-3.1,0.4,0.3,580,0,,,,,,,,,,,,,,,,,,,
743633,1480784146318,,,,,,,,0.02,0.07,1.0,-3.1,0.4,0.2,600,0,,,,,,,,,,,,,,,,,,,
743653,1480784146338,0,120.5,,161.0,20,176.6,,0.02,0.07,1.0,-3.1,0.4,0.3,600,0,0,0,0.0,0,38.158566,-122.452927,0.0,0.201,10.6,10,2,1.9,0,0.0,-1,0.0,0.0,0.0,0
743673,1480784146358,,,,,,,,0.02,0.07,1.01,-3.1,0.5,0.3,580,0,,,,,,,,,,,,,,,,,,,
743693,1480784146378,,,,,,,,0.02,0.07,1.01,-3.1,0.5,0.3,580,0,,,,,,,,,,,,,,,,,,,
743713,1480784146493,,,,,,,,0.02,0.07,1.01,-3.1,0.5,0.3,580,0,,,,,,,,,,,,,,,,,,,
743733,1480784146513,,,,,,,,0.02,0.06,1.01,-3.1,0.5,0.3,580,0,,,,,,,,,,,,,,,,,,,
743753,1480784146533,,,,,20,,,0.02,0.07,1.01,-3.1,0.5,0.3,580,0,0,0,0.0,0,38.158566,-122.452927,0.0,0.201,10.6,10,2,1.9,0,0.0,-1,0.0,,0.0,0
743773,1480784146553,,,,,,,,0.02,0.07,1.01,-3.1,0.5,0.3,580,0,,,,,,,,,,,,,,,,,,,
743793,1480784146573,,,,,,,,0.02,0.07,1.01,-3.1,0.5,0.3,580,0,,,,,,,,,,,,,,,,,,,
743813,1480784146593,,,,,,,,0.02,0.07,1.01,-3.1,0.5,0.3,580,0,,,,,,,,,,,,,,,,,,,
743833,1480784146613,,,,,,,,0.02,0.06,1.01,-3.1,0.5,0.3,580,0,,,,,,,,,,,,,,,,,,,
743853,1480784146633,0,118.4,,160.0,22,175.6,,0.02,0.07,1.01,-3.1,0.5,0.3,580,0,0,0,0.0,0,38.158566,-122.452927,0.0,0.201,10.6,10,2,1.9,0,0.0,-1,0.0,0.0,0.0,0
743873,1480784146653,,,,,,,,0.02,0.06,1.0,-3.1,0.4,0.3,560,0,,,,,,,,,,,,,,,,,,,
743893,1480784146673,,,,,,,,0.02,0.06,1.01,-3.1,0.4,0.3,560,0,,,,,,,,,,,,,,,,,,,
743913,1480784146598,,,,,,,,0.02,0.07,1.01,-3.1,0.4,0.3,580,0,,,,,,,,,,,,,,,,,,,
743933,1480784146618,,,,,,,,0.02,0.06,1.01,-3.1,0.4,0.2,580,0,,,,,,,,,,,,,,,,,,,
743953,1480784146638,,,,,21,,,0.02,0.07,1.01,-3.1,0.5,0.2,560,0,0,0,0.0,0,38.158566,-122.452927,0.0,0.201,10.6,10,2,1.9,0,0.0,-1,0.0,,0.0,0
743973,1480784146658,,,,,,,,0.02,0.07,1.01,-3.1,0.5,0.2,560,0,,,,,,,,,,,,,,,,,,,
743993,1480784146678,,,,,,,,0.02,0.07,1.01,-3.1,0.5,0.2,560,0,,,,,,,,,,,,,,,,,,,
744013,1480784146698,,,,,,,,0.02,0.07,1.01,-3.1,0.5,0.2,560,0,,,,,,,,,,,,,,,,,,,
744033,1480784146718,,,,,,,,0.02,0.07,1.01,-3.1,0.5,0.2,560,0,,,,,,,,,,,,,,,,,,,
744053,1480784146738,0,119.6,9.5,161.1,20,176.2,13.82,0.02,0.07,1.01,-3.1,0.4,0.2,580,0,0,0,0.0,0,38.158566,-122.452927,0.0,0.201,10.6,10,2,1.9,0,0.0,-1,0.0,0.0,0.0,0
744073,1480784146758,,,,,,,,0.02,0.07,1.01,-3.1,0.3,0.2,580,0,,,,,,,,,,,,,,,,,,,
744093,1480784146778,,,,,,,,0.02,0.07,1.01,-3.1,0.4,0.2,560,0,,,,,,,,,,,,,,,,,,,
744113,1480784146798,,,,,,,,0.02,0.07,1.01,-3.1,0.4,0.2,560,0,,,,,,,,,,,,,,,,,,,
744133,1480784146818,,,,,,,,0.02,0.07,1.01,-3.1,0.4,0.2,560,0,,,,,,,,,,,,,,,,,,,
744153,1480784146838,,,,,20,,,0.02,0.07,1.01,-3.1,0.5,0.2,580,0,0,0,0.0,0,38.158566,-122.452927,0.0,0.201,10.6,10,2,1.9,0,0.0,-1,0.0,,0.0,0
744173,1480784146858,,,,,,,,0.02,0.06,1.01,-3.1,0.5,0.2,580,0,,,,,,,,,,,,,,,,,,,
744193,1480784146878,,,,,,,,0.02,0.07,1.01,-3.1,0.5,0.2,580,0,,,,,,,,,,,,,,,,,,,
744213,1480784146892,,,,,,,,0.02,0.07,1.01,-3.1,0.5,0.2,580,0,,,,,,,,,,,,,,,,,,,
744233,1480784146912,,,,,,,,0.02,0.07,1.01,-3.1,0.5,0.3,580,0,,,,,,,,,,,,,,,,,,,
744253,1480784146932,0,120.5,,161.5,19,176.4,,0.02,0.07,1.01,-3.1,0.5,0.3,580,0,0,0,0.0,0,38.158566,-122.452927,0.0,0.201,10.6,10,2,1.9,0,0.0,-1,0.0,0.0,0.0,0
744273,1480784146952,,,,,,,,0.02,0.07,1.01,-3.1,0.5,0.3,580,0,,,,,,,,,,,,,,,,,,,
744293,1480784146972,,,,,,,,0.02,0.07,1.01,-3.1,0.4,0.3,580,0,,,,,,,,,,,,,,,,,,,
744313,1480784146998,,,,,,,,0.02,0.07,1.01,-3.1,0.4,0.3,580,0,,,,,,,,,,,,,,,,,,,
744333,1480784147018,,,,,,,,0.02,0.07,1.01,-3.1,0.4,0.3,580,0,,,,,,,,,,,,,,,,,,,
744353,1480784147038,,,,,19,,,0.02,0.07,1.0,-3.1,0.3,0.3,580,0,0,0,0.0,0,38.158566,-122.452927,0.0,0.201,10.6,10,2,1.9,0,0.0,-1,0.0,,0.0,0
744373,1480784147058,,,,,,,,0.02,0.07,1.0,-3.2,0.3,0.3,580,0,,,,,,,,,,,,,,,,,,,
744393,1480784147078,,,,,,,,0.02,0.07,1.0,-3.2,0.3,0.3,580,0,,,,,,,,,,,,,,,,,,,
744413,1480784147099,,,,,,,,0.02,0.07,1.01,-3.2,0.3,0.2,580,0,,,,,,,,,,,,,,,,,,,
744433,1480784147119,,,,,,,,0.02,0.07,1.0,-3.1,0.3,0.3,580,0,,,,,,,,,,,,,,,,,,,
744453,1480784147139,0,118.6,,160.8,20,175.7,,0.02,0.06,1.0,-3.2,0.2,0.2,600,0,0,0,0.0,0,38.158566,-122.452927,0.0,0.201,10.6,10,2,1.9,0,0.0,-1,0.0,0.0,0.0,0
744473,1480784147159,,,,,,,,0.02,0.06,1.0,-3.2,0.3,0.2,600,0,,,,,,,,,,,,,,,,,,,
744493,1480784147179,,,,,,,,0.02,0.07,1.01,-3.2,0.4,0.3,580,0,,,,,,,,,,,,,,,,,,,
744513,1480784147298,,,,,,,,0.02,0.07,1.01,-3.1,0.4,0.3,580,0,,,,,,,,,,,,,,,,,,,
744533,1480784147318,,,,,,,,0.02,0.07,1.01,-3.2,0.4,0.3,600,0,,,,,,,,,,,,,,,,,,,
744553,1480784147338,,,,,20,,,0.02,0.07,1.01,-3.2,0.4,0.3,600,0,0,0,0.0,0,38.158566,-122.452927,0.0,0.201,10.6,10,2,1.9,0,0.0,-1,0.0,,0.0,0
744573,1480784147358,,,,,,,,0.02,0.07,1.01,-3.1,0.4,0.3,600,0,,,,,,,,,,,,,,,,,,,
744593,1480784147378,,,,,,,,0.02,0.07,1.01,-3.2,0.3,0.3,600,0,,,,,,,,,,,,,,,,,,,
744613,1480784147398,,,,,,,,0.02,0.06,1.01,-3.1,0.3,0.3,600,0,,,,,,,,,,,,,,,,,,,
744633,1480784147418,,,,,,,,0.02,0.07,1.01,-3.1,0.4,0.2,600,0,,,,,,,,,,,,,,,,,,,
744653,1480784147438,0,120.0,,160.8,22,175.7,,0.03,0.07,1.01,-3.1,0.2,0.2,600,0,0,0,0.0,0,38.158566,-122.452927,0.0,0.201,10.6,10,2,1.9,0,0.0,-1,0.0,0.0,0.0,0
744673,1480784147458,,,,,,,,0.02,0.07,1.0,-3.1,0.2,0.2,600,0,,,,,,,,,,,,,,,,,,,
744693,1480784147478,,,,,,,,0.02,0.07,1.01,-3.1,0.2,0.2,600,0,,,,,,,,,,,,,,,,,,,
744713,1480784147399,,,,,,,,0.02,0.07,1.01,-3.1,0.2,0.2,600,0,,,,,,,,,,,,,,,,,,,
744733,1480784147419,,,,,,,,0.02,0.07,1.01,-3.1,0.2,0.2,600,0,,,,,,,,,,,,,,,,,,,
744753,1480784147439,,,,,21,,,0.02,0.07,1.01,-3.2,0.2,0.2,600,0,0,0,0.0,0,38.158566,-122.452927,0.0,0.201,10.6,10,2,1.9,0,0.0,-1,0.0,,0.0,0
744773,1480784147459,,,,,,,,0.02,0.07,1.01,-3.1,0.2,0.2,600,0,,,,,,,,,,,,,,,,,,,
744793,1480784147479,,,,,,,,0.02,0.07,1.01,-3.1,0.3,0.3,600,0,,,,,,,,,,,,,,,,,,,
744813,1480784147499,,,,,,,,0.02,0.06,1.01,-3.1,0.3,0.2,620,0,,,,,,,,,,,,,,,,,,,
744833,1480784147519,,,,,,,,0.02,0.07,1.01,-3.1,0.4,0.2,620,0,,,,,,,,,,,,,,,,,,,
744853,1480784147539,0,119.5,,161.6,22,176.0,,0.02,0.07,1.01,-3.1,0.5,0.3,620,0,0,0,0.0,0,38.158566,-122.452927,0.0,0.201,10.6,10,2,1.9,0,0.0,-1,0.0,0.0,0.0,0
744873,1480784147559,,,,,,,,0.02,0.06,1.01,-3.1,0.4,0.2,620,0,,,,,,,,,,,,,,,,,,,
744893,1480784147579,,,,,,,,0.02,0.07,1.01,-3.1,0.4,0.2,620,0,,,,,,,,,,,,,,,,,,,
744913,1480784147599,,,,,,,,0.02,0.06,1.01,-3.1,0.4,0.2,620,0,,,,,,,,,,,,,,,,,,,
744933,1480784147619,,,,,,,,0.02,0.06,1.01,-3.1,0.4,0.2,620,0,,,,,,,,,,,,,,,,,,,
744953,1480784147639,,,,,23,,,0.02,0.07,1.01,-3.1,0.4,0.3,620,0,0,0,0.0,0,38.158566,-122.452927,0.0,0.201,10.6,10,2,1.9,0,0.0,-1,0.0,,0.0,0
744973,1480784147659,,,,,,,,0.01,0.06,1.01,-3.1,0.3,0.2,620,0,,,,,,,,,,,,,,,,,,,
744993,1480784147679,,,,,,,,0.01,0.07,1.01,-3.1,0.3,0.3,620,0,,,,,,,,,,,,,,,,,,,
745013,1480784147699,,,,,,,,0.02,0.07,1.01,-3.1,0.4,0.3,620,0,,,,,,,,,,,,,,,,,,,
745033,1480784147719,,,,,,,,0.01,0.07,1.02,-3.1,0.4,0.3,620,0,,,,,,,,,,,,,,,,,,,
745053,1480784147739,0,119.9,9.2,160.9,21,175.6,14.44,0.02,0.07,1.01,-3.2,0.4,0.2,640,0,0,0,0.0,0,38.158566,-122.452927,0.0,0.201,10.6,10,2,1.9,0,0.0,-1,0.0,0.0,0.0,0
745073,1480784147759,,,,,,,,0.02,0.07,1.01,-3.1,0.5,0.3,640,0,,,,,,,,,,,,,,,,,,,
745093,1480784147779,,,,,,,,0.02,0.06,1.01,-3.1,0.4,0.3,640,0,,,,,,,,,,,,,,,,,,,
745113,1480784147799,,,,,,,,0.02,0.07,1.01,-3.2,0.5,0.3,640,0,,,,,,,,,,,,,,,,,,,
745133,1480784147819,,,,,,,,0.02,0.06,1.01,-3.2,0.5,0.3,640,0,,,,,,,,,,,,,,,,,,,
745153,1480784147839,,,,,22,,,0.02,0.07,1.01,-3.1,0.5,0.2,640,0,0,0,0.0,0,38.158566,-122.452927,0.0,0.201,10.6,10,2,1.9,0,0.0,-1,0.0,,0.0,0
745173,1480784147859,,,,,,,,0.02,0.07,1.01,-3.2,0.5,0.3,640,0,,,,,,,,,,,,,,,,,,,
745193,1480784147879,,,,,,,,0.02,0.07,1.01,-3.2,0.4,0.2,640,0,,,,,,,,,,,,,,,,,,,
745213,1480784147893,,,,,,,,0.02,0.07,1.01,-3.1,0.4,0.2,640,0,,,,,,,,,,,,,,,,,,,
745233,1480784147913,,,,,,,,0.02,0.08,1.0,-3.1,0.4,0.2,640,0,,,,,,,,,,,,,,,,,,,
745253,1480784147933,0,118.7,,161.4,22,175.7,,0.02,0.07,1.0,-3.1,0.3,0.2,620,0,0,0,0.0,0,38.158566,-122.452927,0.0,0.201,10.6,10,2,1.9,0,0.0,-1,0.0,0.0,0.0,0
745273,1480784147953,,,,,,,,0.02,0.07,1.0,-3.1,0.3,0.2,620,0,,,,,,,,,,,,,,,,,,,
745293,1480784147973,,,,,,,,0.02,0.07,1.01,-3.2,0.3,0.3,640,20,,,,,,,,,,,,,,,,,,,
745313,1480784148098,,,,,,,,0.01,0.07,1.01,-3.1,0.3,0.2,640,20,,,,,,,,,,,,,,,,,,,
745333,1480784148118,,,,,,,,0.01,0.07,1.01,-3.1,0.3,0.2,640,20,,,,,,,,,,,,,,,,,,,
745353,1480784148138,,,,,24,,,0.01,0.08,1.0,-3.1,0.3,0.2,640,20,0,0,32.0,0,38.158566,-122.452927,0.0,0.201,10.6,10,2,1.9,0,0.0,-1,0.0,,0.0,0
745373,1480784148158,,,,,,,,0.01,0.07,1.0,-3.1,0.3,0.2,640,20,,,,,,,,,,,,,,,,,,,
745393,1480784148178,,,,,,,,0.01,0.07,1.0,-3.1,0.3,0.1,660,1538461,,,,,,,,,,,,,,,,,,,
745413,1480784148198,,,,,,,,0.02,0.07,1.01,-3.1,0.4,0.1,660,0,,,,,,,,,,,,,,,,,,,
745433,1480784148218,,,,,,,,0.02,0.06,1.0,-3.1,0.4,0.1,660,0,,,,,,,,,,,,,,,,,,,
745453,1480784148238,0,120.3,,161.3,21,175.7,,0.02,0.06,1.01,-3.1,0.4,0.1,660,0,0,0,0.0,0,38.158566,-122.452927,0.0,0.201,10.6,10,2,1.9,0,0.0,-1,0.0,0.0,0.0,0
745473,1480784148258,,,,,,,,0.03,0.06,1.01,-3.1,0.5,0.1,660,0,,,,,,,,,,,,,,,,,,,
745493,1480784148278,,,,,,,,0.03,0.06,1.01,-3.1,0.4,0.1,660,0,,,,,,,,,,,,,,,,,,,
745513,1480784148198,,,,,,,,0.03,0.06,1.01,-3.1,0.5,0.1,660,0,,,,,,,,,,,,,,,,,,,
745533,1480784148218,,,,,,,,0.02,0.06,1.02,-3.1,0.5,0.2,660,0,,,,,,,,,,,,,,,,,,,
745553,1480784148238,,,,,24,,,0.02,0.07,1.01,-3.1,0.5,0.1,680,0,0,0,0.0,0,38.158566,-122.452927,0.0,0.201,10.6,10,2,1.9,0,0.0,-1,0.0,,0.0,0
745573,1480784148258,,,,,,,,0.02,0.06,1.01,-3.1,0.6,0.1,680,0,,,,,,,,,,,,,,,,,,,
745593,1480784148278,,,,,,,,0.02,0.06,1.01,-3.1,0.5,0.2,680,0,,,,,,,,,,,,,,,,,,,
745613,1480784148298,,,,,,,,0.02,0.06,1.02,-3.1,0.5,0.2,680,0,,,,,,,,,,,,,,,,,,,
745633,1480784148318,,,,,,,,0.02,0.07,1.02,-3.1,0.5,0.2,680,0,,,,,,,,,,,,,,,,,,,
745653,1480784148338,0,121.2,,162.4,25,176.5,,0.02,0.07,1.02,-3.1,0.5,0.2,680,0,0,0,0.0,0,38.158566,-122.452927,0.0,0.201,10.6,10,2,1.9,0,0.0,-1,0.0,0.0,0.0,0
745673,1480784148358,,,,,,,,0.01,0.07,1.02,-3.1,0.3,0.2,680,0,,,,,,,,,,,,,,,,,,,
745693,1480784148378,,,,,,,,0.01,0.06,1.02,-3.1,0.4,0.1,680,0,,,,,,,,,,,,,,,,,,,
745713,1480784148398,,,,,,,,0.01,0.06,1.02,-3.1,0.4,0.1,680,0,,,,,,,,,,,,,,,,,,,
745733,1480784148418,,,,,,,,0.02,0.07,1.02,-3.1,0.3,0.1,700,23,,,,,,,,,,,,,,,,,,,
745753,1480784148438,,,,,25,,,0.03,0.07,1.03,-3.1,0.2,0.0,700,44,0,0,30.435,0,38.158566,-122.452927,0.0,0.201,10.6,10,2,1.9,0,0.0,-1,0.0,,0.0,0
745773,1480784148458,,,,,,,,0.02,0.09,1.03,-3.1,0.1,0.0,700,44,,,,,,,,,,,,,,,,,,,
745793,1480784148478,,,,,,,,0.03,0.08,1.03,-3.1,0.2,0.1,700,60,,,,,,,,,,,,,,,,,,,
745813,1480784148498,,,,,,,,0.03,0.09,1.04,-3.1,0.5,0.0,700,60,,,,,,,,,,,,,,,,,,,
745833,1480784148518,,,,,,,,0.02,0.08,1.04,-3.1,0.4,0.0,700,60,,,,,,,,,,,,,,,,,,,
745853,1480784148538,0,120.0,,161.5,25,175.5,,0.02,0.09,1.03,-3.1,0.4,0.1,700,30,0,0,11.667,0,38.158566,-122.452927,0.0,0.201,10.6,10,2,1.9,0,0.0,-1,0.0,0.0,0.0,0
745873,1480784148558,,,,,,,,0.02,0.09,1.03,-3.1,0.3,0.1,680,30,,,,,,,,,,,,,,,,,,,
745893,1480784148578,,,,,,,,0.02,0.08,1.03,-3.1,0.3,0.1,680,30,,,,,,,,,,,,,,,,,,,
745913,1480784148598,,,,,,,,0.02,0.08,1.03,-3.1,0.3,0.2,680,29,,,,,,,,,,,,,,,,,,,
745933,1480784148618,,,,,,,,0.02,0.09,1.02,-3.1,0.4,0.2,680,29,,,,,,,,,,,,,,,,,,,
745953,1480784148638,,,,,24,,,0.02,0.08,1.02,-3.1,0.3,0.2,680,29,0,0,23.448,0,38.158566,-122.452927,0.0,0.201,10.6,10,2,1.9,0,0.0,-1,0.0,,0.0,0
745973,1480784148658,,,,,,,,0.02,0.08,1.02,-3.1,0.3,0.2,680,29,,,,,,,,,,,,,,,,,,,
745993,1480784148678,,,,,,,,0.02,0.08,1.01,-3.1,0.4,0.2,680,29,,,,,,,,,,,,,,,,,,,
746013,1480784148698,,,,,,,,0.02,0.07,1.01,-3.1,0.5,0.2,680,1538461,,,,,,,,,,,,,,,,,,,
746033,1480784148710,,,,,,,,0.02,0.07,1.01,-3.1,0.6,0.1,680,0,,,,,,,,,,,,,,,,,,,
746053,1480784148730,0,118.9,9.3,161.9,25,175.4,14.6,0.02,0.07,1.02,-3.1,0.6,0.2,680,0,0,0,0.0,0,38.158566,-122.452927,0.0,0.201,10.6,10,2,1.9,0,0.0,-1,0.0,0.0,0.0,0
746073,1480784148750,,,,,,,,0.02,0.07,1.02,-3.1,0.6,0.2,680,0,,,,,,,,,,,,,,,,,,,
746093,1480784148770,,,,,,,,0.02,0.07,1.02,-3.1,0.6,0.2,680,0,,,,,,,,,,,,,,,,,,,
746113,1480784148897,,,,,,,,0.01,0.08,1.02,-3.2,0.7,0.3,680,0,,,,,,,,,,,,,,,,,,,
746133,1480784148917,,,,,,,,0.01,0.12,1.03,-3.4,0.7,0.4,680,0,,,,,,,,,,,,,,,,,,,
746153,1480784148937,,,,,25,,,0.01,0.12,1.03,-3.4,0.7,0.4,680,0,0,0,0.0,0,38.158566,-122.452927,0.0,0.201,10.6,10,2,1.9,0,0.0,-1,0.0,,0.0,0
746173,1480784148957,,,,,,,,0.01,0.12,1.02,-3.4,0.7,0.5,660,0,,,,,,,,,,,,,,,,,,,
746193,1480784148977,,,,,,,,0.01,0.11,1.02,-3.4,0.5,0.4,660,0,,,,,,,,,,,,,,,,,,,
746213,1480784148997,,,,,,,,0.01,0.1,1.02,-3.4,0.5,0.4,660,0,,,,,,,,,,,,,,,,,,,
746233,1480784149017,,,,,,,,0.01,0.12,1.02,-3.4,0.7,0.6,680,0,,,,,,,,,,,,,,,,,,,
746253,1480784149037,0,118.9,,161.9,24,175.4,,0.01,0.11,1.02,-3.4,0.6,0.7,660,0,0,0,0.0,0,38.158566,-122.452927,0.0,0.201,10.6,10,2,1.9,0,0.0,-1,0.0,0.0,0.0,0
746273,1480784149057,,,,,,,,0.01,0.1,1.02,-3.4,0.5,0.5,780,0,,,,,,,,,,,,,,,,,,,
746293,1480784149077,,,,,,,,0.01,0.09,1.02,-3.3,0.5,0.3,780,0,,,,,,,,,,,,,,,,,,,
746313,1480784148998,,,,,,,,0.01,0.08,1.02,-3.3,0.4,0.3,840,0,,,,,,,,,,,,,,,,,,,
746333,1480784149018,,,,,,,,0.02,0.09,1.01,-3.3,0.6,0.5,840,0,,,,,,,,,,,,,,,,,,,
746353,1480784149038,,,,,28,,,0.03,0.1,1.02,-3.3,0.5,0.6,900,0,0,0,0.0,0,38.158566,-122.452927,0.0,0.201,10.6,10,2,1.9,0,0.0,-1,0.0,,0.0,0
746373,1480784149058,,,,,,,,0.01,0.11,1.01,-3.3,0.2,0.6,1000,0,,,,,,,,,,,,,,,,,,,
746393,1480784149078,,,,,,,,0.02,0.12,1.02,-3.3,-0.0,0.6,1060,0,,,,,,,,,,,,,,,,,,,
746413,1480784149098,,,,,,,,0.01,0.11,1.0,-3.3,-0.4,0.6,1020,0,,,,,,,,,,,,,,,,,,,
746433,1480784149118,,,,,,,,0.01,0.12,1.0,-3.3,-0.4,0.6,1060,0,,,,,,,,,,,,,,,,,,,
746453,1480784149138,0,121.0,,162.9,35,175.9,,0.02,0.12,1.0,-3.4,-0.3,0.6,1000,0,0,0,0.0,0,38.158566,-122.452927,0.0,0.201,10.6,10,2,1.9,0,0.0,-1,0.0,0.0,0.0,0
746473,1480784149158,,,,,,,,0.02,0.11,0.99,-3.4,-0.3,0.6,980,27,,,,,,,,,,,,,,,,,,,
746493,1480784149178,,,,,,,,0.02,0.11,0.99,-3.3,-0.1,0.7,1000,47,,,,,,,,,,,,,,,,,,,
746513,1480784149198,,,,,,,,0.04,0.1,1.01,-3.3,-0.3,0.6,1020,87,,,,,,,,,,,,,,,,,,,
746533,1480784149218,,,,,,,,0.06,0.09,1.01,-3.3,-0.4,0.7,980,72,,,,,,,,,,,,,,,,,,,
746553,1480784149238,,,,,30,,,0.06,0.09,1.0,-3.3,-0.5,0.7,940,69,0,0,13.611,0,38.158566,-122.452927,0.0,0.201,10.6,10,2,1.9,0,0.0,-1,0.0,,0.0,0
746573,1480784149258,,,,,,,,0.06,0.1,1.0,-3.4,-0.5,0.7,860,69,,,,,,,,,,,,,,,,,,,
746593,1480784149278,,,,,,,,0.06,0.1,1.01,-3.3,-0.4,0.7,820,69,,,,,,,,,,,,,,,,,,,
746613,1480784149298,,,,,,,,0.06,0.09,1.01,-3.3,-0.3,0.6,800,32,,,,,,,,,,,,,,,,,,,
746633,1480784149318,,,,,,,,0.06,0.09,1.0,-3.4,-0.3,0.6,800,32,,,,,,,,,,,,,,,,,,,
746653,1480784149338,0,119.1,,162.4,33,175.9,,0.06,0.09,1.0,-3.4,-0.3,0.6,780,32,0,0,25.0,0,38.158566,-122.452927,0.0,0.201,10.6,10,2,1.9,0,0.0,-1,0.0,0.0,0.0,0
746673,1480784149358,,,,,,,,0.06,0.09,0.99,-3.5,-0.3,0.6,760,32,,,,,,,,,,,,,,,,,,,
746693,1480784149378,,,,,,,,0.06,0.08,0.99,-3.5,-0.2,0.5,700,32,,,,,,,,,,,,,,,,,,,
746713,1480784149398,,,,,,,,0.06,0.08,1.0,-3.5,-0.1,0.5,700,13,,,,,,,,,,,,,,,,,,,
746733,1480784149418,,,,,,,,0.06,0.09,1.0,-3.5,-0.1,0.6,700,13,,,,,,,,,,,,,,,,,,,
746753,1480784149438,,,,,29,,,0.07,0.08,1.0,-3.5,-0.1,0.6,680,13,0,0,53.846,0,38.158566,-122.452927,0.0,0.201,10.6,10,2,1.9,0,0.0,-1,0.0,,0.0,0
746773,1480784149458,,,,,,,,0.07,0.08,1.0,-3.5,-0.0,0.6,680,13,,,,,,,,,,,,,,,,,,,
746793,1480784149478,,,,,,,,0.07,0.08,1.0,-3.5,-0.0,0.6,680,13,,,,,,,,,,,,,,,,,,,
746813,1480784149498,,,,,,,,0.08,0.08,1.0,-3.5,-0.1,0.6,680,16,,,,,,,,,,,,,,,,,,,
746833,1480784149518,,,,,,,,0.07,0.08,0.99,-3.5,-0.1,0.5,680,16,,,,,,,,,,,,,,,,,,,
746853,1480784149538,0,120.6,,162.5,28,175.1,,0.08,0.08,1.0,-3.5,0.1,0.5,640,16,0,0,42.5,0,38.158566,-122.452927,0.0,0.201,10.6,10,2,1.9,0,0.0,-1,0.0,0.0,0.0,0
746873,1480784149558,,,,,,,,0.08,0.08,1.0,-3.5,0.2,0.5,660,26,,,,,,,,,,,,,,,,,,,
746893,1480784149578,,,,,,,,0.08,0.08,1.0,-3.5,0.1,0.5,660,26,,,,,,,,,,,,,,,,,,,
746913,1480784149697,,,,,,,,0.08,0.08,1.0,-3.5,0.2,0.5,640,26,,,,,,,,,,,,,,,,,,,
746933,1480784149717,,,,,,,,0.08,0.08,1.0,-3.5,0.2,0.5,620,21,,,,,,,,,,,,,,,,,,,
746953,1480784149737,,,,,27,,,0.08,0.08,1.0,-3.5,0.2,0.5,620,21,0,0,29.524,0,38.158566,-122.452927,0.0,0.201,10.6,10,2,1.9,0,0.0,-1,0.0,,0.0,0
746973,1480784149757,,,,,,,,0.08,0.08,1.0,-3.5,0.3,0.5,620,21,,,,,,,,,,,,,,,,,,,
746993,1480784149777,,,,,,,,0.07,0.07,1.0,-3.5,0.3,0.4,600,27,,,,,,,,,,,,,,,,,,,
747013,1480784149797,,,,,,,,0.07,0.08,1.0,-3.5,0.3,0.4,600,27,,,,,,,,,,,,,,,,,,,
747033,1480784149817,,,,,,,,0.07,0.08,1.0,-3.5,0.4,0.4,600,27,,,,,,,,,,,,,,,,,,,
747053,1480784149837,0,120.8,10.0,163.3,26,176.1,14.53,0.07,0.07,1.0,-3.4,0.3,0.3,600,26,0,0,22.222,0,38.158566,-122.452927,0.0,0.201,10.6,10,2,1.9,0,0.0,-1,0.0,0.0,0.0,0
747073,1480784149857,,,,,,,,0.07,0.08,1.0,-3.4,0.4,0.4,600,26,,,,,,,,,,,,,,,,,,,
747093,1480784149877,,,,,,,,0.06,0.07,1.0,-3.4,0.4,0.3,620,29,,,,,,,,,,,,,,,,,,,
747113,1480784149799,,,,,,,,0.06,0.07,1.0,-3.4,0.3,0.3,620,29,,,,,,,,,,,,,,,,,,,
747133,1480784149819,,,,,,,,0.06,0.07,1.01,-3.4,0.3,0.4,620,30,,,,,,,,,,,,,,,,,,,
747153,1480784149839,,,,,24,,,0.05,0.07,1.01,-3.4,0.3,0.4,620,30,0,0,21.379,0,38.158566,-122.452927,0.0,0.201,10.6,10,2,1.9,0,0.0,-1,0.0,,0.0,0
747173,1480784149859,,,,,,,,0.05,0.07,1.01,-3.4,0.4,0.5,620,30,,,,,,,,,,,,,,,,,,,
747193,1480784149879,,,,,,,,0.05,0.08,1.01,-3.4,0.5,0.5,640,33,,,,,,,,,,,,,,,,,,,
747213,1480784149893,,,,,,,,0.05,0.07,1.0,-3.4,0.4,0.4,640,33,,,,,,,,,,,,,,,,,,,
747233,1480784149913,,,,,,,,0.05,0.07,1.01,-3.4,0.4,0.4,640,32,,,,,,,,,,,,,,,,,,,
747253,1480784149933,0,120.4,,163.3,24,175.9,,0.05,0.07,1.0,-3.3,0.3,0.4,660,32,0,0,20.0,0,38.158566,-122.452927,0.0,0.201,10.6,10,2,1.9,0,0.0,-1,0.0,0.0,0.0,0
747273,1480784149953,,,,,,,,0.05,0.07,1.0,-3.3,0.3,0.3,660,38,,,,,,,,,,,,,,,,,,,
747293,1480784149973,,,,,,,,0.05,0.07,1.0,-3.3,0.5,0.3,660,38,,,,,,,,,,,,,,,,,,,
747313,1480784149999,,,,,,,,0.05,0.07,1.01,-3.3,0.5,0.4,660,32,,,,,,,,,,,,,,,,,,,
747333,1480784150019,,,,,,,,0.04,0.07,1.0,-3.3,0.4,0.4,660,32,,,,,,,,,,,,,,,,,,,
747353,1480784150039,,,,,25,,,0.04,0.07,1.01,-3.3,0.5,0.4,680,38,0,0,20.625,0,38.158566,-122.452927,0.0,0.201,10.6,10,2,1.9,0,0.0,-1,0.0,,0.0,0
747373,1480784150059,,,,,,,,0.05,0.06,1.01,-3.3,0.6,0.5,680,38,,,,,,,,,,,,,,,,,,,
747393,1480784150079,,,,,,,,0.04,0.06,1.01,-3.3,0.6,0.5,700,38,,,,,,,,,,,,,,,,,,,
747413,1480784150099,,,,,,,,0.04,0.06,1.01,-3.3,0.5,0.5,700,30,,,,,,,,,,,,,,,,,,,
747433,1480784150119,,,,,,,,0.04,0.06,1.01,-3.2,0.6,0.5,700,30,,,,,,,,,,,,,,,,,,,
747453,1480784150139,0,120.1,,162.6,25,175.3,,0.03,0.06,1.01,-3.2,0.5,0.5,720,33,0,0,23.333,0,38.158566,-122.452927,0.0,0.201,10.6,10,2,1.9,0,0.0,-1,0.0,0.0,0.0,0
747473,1480784150159,,,,,,,,0.03,0.05,1.02,-3.2,0.6,0.5,720,33,,,,,,,,,,,,,,,,,,,
747493,1480784150179,,,,,,,,0.03,0.06,1.01,-3.1,0.7,0.5,700,38,,,,,,,,,,,,,,,,,,,
747513,1480784150199,,,,,,,,0.03,0.06,1.02,-3.1,0.7,0.6,720,38,,,,,,,,,,,,,,,,,,,
747533,1480784150219,,,,,,,,0.03,0.06,1.02,-3.0,0.6,0.5,740,33,,,,,,,,,,,,,,,,,,,
747553,1480784150239,,,,,25,,,0.03,0.06,1.02,-3.0,0.6,0.5,740,33,0,0,21.818,0,38.158566,-122.452927,0.0,0.201,10.6,10,2,1.9,0,0.0,-1,0.0,,0.0,0
747573,1480784150259,,,,,,,,0.03,0.06,1.02,-3.0,0.6,0.5,760,38,,,,,,,,,,,,,,,,,,,
747593,1480784150279,,,,,,,,0.03,0.07,1.01,-3.0,0.6,0.6,760,38,,,,,,,,,,,,,,,,,,,
747613,1480784150300,,,,,,,,0.03,0.07,1.02,-2.9,0.6,0.5,760,38,,,,,,,,,,,,,,,,,,,
747633,1480784150320,,,,,,,,0.03,0.07,1.02,-2.9,0.6,0.4,760,38,,,,,,,,,,,,,,,,,,,
747653,1480784150340,0,120.7,,162.9,30,175.2,,0.03,0.07,1.01,-2.9,0.6,0.4,760,41,0,0,20.0,0,38.158566,-122.452927,0.0,0.201,10.6,10,2,1.9,0,0.0,-1,0.0,0.0,0.0,0
747673,1480784150360,,,,,,,,0.03,0.08,1.01,-2.8,0.5,0.5,780,46,,,,,,,,,,,,,,,,,,,
747693,1480784150380,,,,,,,,0.03,0.08,1.01,-2.8,0.4,0.4,780,46,,,,,,,,,,,,,,,,,,,
747713,1480784150498,,,,,,,,0.03,0.07,1.01,-2.7,0.4,0.4,780,36,,,,,,,,,,,,,,,,,,,
747733,1480784150518,,,,,,,,0.03,0.07,1.01,-2.7,0.4,0.3,780,36,,,,,,,,,,,,,,,,,,,
747753,1480784150538,,,,,29,,,0.03,0.07,1.01,-2.6,0.4,0.4,760,43,0,0,21.667,0,38.158566,-122.452927,0.0,0.201,10.6,10,2,1.9,0,0.0,-1,0.0,,0.0,0
747773,1480784150558,,,,,,,,0.04,0.07,1.01,-2.6,0.4,0.5,760,43,,,,,,,,,,,,,,,,,,,
747793,1480784150578,,,,,,,,0.04,0.06,1.01,-2.5,0.5,0.3,760,43,,,,,,,,,,,,,,,,,,,
747813,1480784150598,,,,,,,,0.03,0.06,1.01,-2.5,0.5,0.3,760,43,,,,,,,,,,,,,,,,,,,
747833,1480784150618,,,,,,,,0.04,0.06,1.01,-2.4,0.5,0.3,760,40,,,,,,,,,,,,,,,,,,,
747853,1480784150638,0,119.9,,163.6,27,175.9,,0.04,0.06,1.01,-2.4,0.5,0.3,760,49,0,0,19.0,0,38.158566,-122.452927,0.0,0.201,10.6,10,2,1.9,0,0.0,-1,0.0,0.0,0.0,0
747873,1480784150658,,,,,,,,0.04,0.06,1.01,-2.3,0.4,0.3,760,49,,,,,,,,,,,,,,,,,,,
747893,1480784150678,,,,,,,,0.04,0.06,1.02,-2.3,0.4,0.2,740,44,,,,,,,,,,,,,,,,,,,
747913,1480784150599,,,,,,,,0.05,0.06,1.01,-2.2,0.5,0.2,740,44,,,,,,,,,,,,,,,,,,,
747933,1480784150619,,,,,,,,0.05,0.06,1.01,-2.2,0.5,0.3,740,46,,,,,,,,,,,,,,,,,,,
747953,1480784150639,,,,,27,,,0.05,0.06,1.01,-2.1,0.5,0.3,740,53,0,0,16.087,0,38.158566,-122.452927,0.0,0.201,10.6,10,2,1.9,0,0.0,-1,0.0,,0.0,0
747973,1480784150659,,,,,,,,0.05,0.06,1.01,-2.0,0.4,0.2,740,52,,,,,,,,,,,,,,,,,,,
747993,1480784150679,,,,,,,,0.05,0.06,1.01,-2.0,0.5,0.2,740,52,,,,,,,,,,,,,,,,,,,
748013,1480784150699,,,,,,,,0.06,0.07,1.01,-2.0,0.6,0.3,740,49,,,,,,,,,,,,,,,,,,,
748033,1480784150719,,,,,,,,0.05,0.07,1.01,-1.9,0.5,0.3,720,56,,,,,,,,,,,,,,,,,,,
748053,1480784150739,0,119.8,9.5,163.6,26,175.8,14.42,0.05,0.07,1.01,-1.9,0.5,0.2,720,64,0,0,12.857,0,38.158566,-122.452927,0.0,0.201,10.6,10,2,1.9,0,0.0,-1,0.0,0.0,0.0,0
748073,1480784150759,,,,,,,,0.06,0.07,1.01,-1.8,0.6,0.2,720,64,,,,,,,,,,,,,,,,,,,
748093,1480784150779,,,,,,,,0.07,0.07,1.01,-1.8,0.6,0.2,740,61,,,,,,,,,,,,,,,,,,,
748113,1480784150799,,,,,,,,0.07,0.07,1.02,-1.8,0.5,0.2,720,53,,,,,,,,,,,,,,,,,,,
748133,1480784150819,,,,,,,,0.06,0.06,1.02,-1.7,0.6,0.1,720,63,,,,,,,,,,,,,,,,,,,
748153,1480784150839,,,,,26,,,0.07,0.07,1.02,-1.6,0.6,0.1,740,70,0,0,11.429,0,38.158566,-122.452927,0.0,0.201,10.6,10,2,1.9,0,0.0,-1,0.0,,0.0,0
748173,1480784150859,,,,,,,,0.08,0.08,1.01,-1.6,0.6,0.2,740,67,,,,,,,,,,,,,,,,,,,
748193,1480784150879,,,,,,,,0.08,0.07,1.02,-1.5,0.6,0.2,760,67,,,,,,,,,,,,,,,,,,,
748213,1480784150893,,,,,,,,0.08,0.07,1.02,-1.4,0.6,0.0,760,63,,,,,,,,,,,,,,,,,,,
748233,1480784150913,,,,,,,,0.08,0.08,1.02,-1.4,0.6,0.1,760,69,,,,,,,,,,,,,,,,,,,
748253,1480784150933,0,121.2,,164.1,29,175.9,,0.09,0.08,1.02,-1.3,0.6,0.1,760,75,0,0,11.014,0,38.158566,-122.452927,0.0,0.201,10.6,10,2,1.9,0,0.0,-1,0.0,0.0,0.0,0
748273,1480784150953,,,,,,,,0.09,0.08,1.02,-1.3,0.5,0.2,760,72,,,,,,,,,,,,,,,,,,,
748293,1480784150973,,,,,,,,0.08,0.08,1.02,-1.2,0.5,0.1,780,70,,,,,,,,,,,,,,,,,,,
748313,1480784150999,,,,,,,,0.08,0.07,1.01,-1.2,0.5,0.1,780,76,,,,,,,,,,,,,,,,,,,
748333,1480784151019,,,,,,,,0.08,0.08,1.01,-1.1,0.5,0.2,780,81,,,,,,,,,,,,,,,,,,,
748353,1480784151039,,,,,30,,,0.09,0.08,1.02,-1.1,0.5,0.3,780,78,0,0,9.63,0,38.158566,-122.452927,0.0,0.201,10.6,10,2,1.9,0,0.0,-1,0.0,,0.0,0
748373,1480784151059,,,,,,,,0.08,0.08,1.02,-1.1,0.5,0.3,800,78,,,,,,,,,,,,,,,,,,,
748393,1480784151079,,,,,,,,0.08,0.08,1.03,-1.0,0.4,0.2,800,81,,,,,,,,,,,,,,,,,,,
748413,1480784151099,,,,,,,,0.08,0.07,1.03,-0.9,0.4,0.1,800,84,,,,,,,,,,,,,,,,,,,
748433,1480784151119,,,,,,,,0.08,0.08,1.01,-0.9,0.5,0.2,800,87,,,,,,,,,,,,,,,,,,,
748453,1480784151139,0,120.7,,163.4,27,175.2,,0.09,0.07,1.01,-0.9,0.5,0.4,800,86,0,0,9.195,0,38.158566,-122.452927,0.0,0.201,10.6,10,2,1.9,0,0.0,-1,0.0,0.0,0.0,0
748473,1480784151159,,,,,,,,0.09,0.08,1.01,-0.8,0.4,0.3,820,84,,,,,,,,,,,,,,,,,,,
748493,1480784151179,,,,,,,,0.08,0.08,1.02,-0.7,0.5,0.2,820,84,,,,,,,,,,,,,,,,,,,
748513,1480784151294,,,,,,,,0.08,0.07,1.02,-0.6,0.4,0.1,820,95,,,,,,,,,,,,,,,,,,,
748533,1480784151314,,,,,,,,0.09,0.07,1.01,-0.6,0.5,0.2,820,96,,,,,,,,,,,,,,,,,,,
748553,1480784151334,,,,,32,,,0.09,0.08,1.0,-0.6,0.5,0.3,840,96,0,0,8.632,0,38.158562,-122.452919,1.12,0.201,140911008.0,10,2,1.9,0,0.0,-1,0.0,,0.0,0
748573,1480784151354,,,,,,,,0.1,0.08,1.0,-0.6,0.6,0.3,840,93,,,,,,,,,,,,,,,,,,,
748593,1480784151374,,,,,,,,0.09,0.08,1.0,-0.5,0.6,0.4,840,98,,,,,,,,,,,,,,,,,,,
748613,1480784151394,,,,,,,,0.09,0.08,1.01,-0.5,0.6,0.4,840,101,,,,,,,,,,,,,,,,,,,
748633,1480784151414,,,,,,,,0.09,0.09,1.01,-0.4,0.5,0.3,860,101,,,,,,,,,,,,,,,,,,,
748653,1480784151434,0,121.1,,164.1,31,175.1,,0.08,0.08,1.01,-0.3,0.5,0.2,840,104,0,0,8.515,0,38.158562,-122.452919,1.12,0.201,140911008.0,10,2,1.9,0,0.0,-1,0.0,0.0,0.0,0
748673,1480784151454,,,,,,,,0.09,0.07,1.0,-0.3,0.5,0.2,840,106,,,,,,,,,,,,,,,,,,,
748693,1480784151474,,,,,,,,0.09,0.07,1.0,-0.3,0.5,0.2,860,106,,,,,,,,,,,,,,,,,,,
748713,1480784151399,,,,,,,,0.09,0.08,1.0,-0.2,0.7,0.3,880,107,,,,,,,,,,,,,,,,,,,
748733,1480784151419,,,,,,,,0.1,0.09,1.01,-0.2,0.8,0.4,840,110,,,,,,,,,,,,,,,,,,,
748753,1480784151439,,,,,33,,,0.09,0.09,1.02,-0.1,0.5,0.4,860,107,0,0,7.636,0,38.158562,-122.452919,1.29,0.201,140911008.0,10,2,1.9,0,0.0,-1,0.0,,0.0,0
748773,1480784151459,,,,,,,,0.08,0.08,1.02,-0.1,0.5,0.3,860,106,,,,,,,,,,,,,,,,,,,
748793,1480784151479,,,,,,,,0.08,0.07,1.0,-0.0,0.5,0.2,860,115,,,,,,,,,,,,,,,,,,,
748813,1480784151498,,,,,,,,0.08,0.07,1.0,0.0,0.5,0.1,860,118,,,,,,,,,,,,,,,,,,,
748833,1480784151518,,,,,,,,0.08,0.07,0.99,0.1,0.5,0.1,860,113,,,,,,,,,,,,,,,,,,,
748853,1480784151538,0,121.3,,164.4,32,175.8,,0.09,0.07,1.0,0.1,0.5,0.2,860,113,0,0,7.414,0,38.158562,-122.452919,1.65,0.201,140911008.0,10,2,1.9,0,0.0,-1,0.0,0.0,0.0,0
748873,1480784151558,,,,,,,,0.09,0.07,1.01,0.1,0.6,0.2,860,120,,,,,,,,,,,,,,,,,,,
748893,1480784151578,,,,,,,,0.09,0.08,1.02,0.1,0.5,0.2,840,121,,,,,,,,,,,,,,,,,,,
748913,1480784151599,,,,,,,,0.08,0.08,1.02,0.2,0.5,0.2,860,123,,,,,,,,,,,,,,,,,,,
748933,1480784151619,,,,,,,,0.08,0.08,1.02,0.3,0.3,0.1,840,124,,,,,,,,,,,,,,,,,,,
748953,1480784151639,,,,,34,,,0.08,0.07,1.02,0.4,0.4,0.1,840,124,0,0,6.992,0,38.158562,-122.452919,1.7,0.201,140911008.0,10,2,1.9,0,0.0,-1,0.0,,0.0,0
748973,1480784151659,,,,,,,,0.08,0.07,1.0,0.4,0.4,0.1,840,123,,,,,,,,,,,,,,,,,,,
748993,1480784151679,,,,,,,,0.09,0.07,1.0,0.4,0.4,0.1,840,127,,,,,,,,,,,,,,,,,,,
749013,1480784151699,,,,,,,,0.09,0.07,1.01,0.5,0.5,0.2,840,130,,,,,,,,,,,,,,,,,,,
749033,1480784151719,,,,,,,,0.08,0.08,1.02,0.5,0.5,0.2,840,127,,,,,,,,,,,,,,,,,,,
749053,1480784151739,0,119.5,9.4,163.7,32,175.6,14.55,0.08,0.08,1.03,0.6,0.5,0.2,840,129,0,0,6.614,0,38.158562,-122.452919,1.95,0.201,140911008.0,10,2,1.9,0,0.0,-1,0.0,0.0,0.0,0
749073,1480784151759,,,,,,,,0.08,0.08,1.03,0.6,0.4,0.2,840,133,,,,,,,,,,,,,,,,,,,
749093,1480784151779,,,,,,,,0.08,0.07,1.02,0.7,0.6,0.1,840,138,,,,,,,,,,,,,,,,,,,
749113,1480784151799,,,,,,,,0.09,0.07,1.01,0.8,0.6,0.1,840,138,,,,,,,,,,,,,,,,,,,
749133,1480784151819,,,,,,,,0.09,0.07,1.0,0.8,0.5,0.2,840,138,,,,,,,,,,,,,,,,,,,
749153,1480784151839,,,,,30,,,0.09,0.07,1.01,0.8,0.7,0.2,840,138,0,0,6.087,0,38.158566,-122.452919,2.2,0.202,140911008.0,10,2,1.9,0,0.0,-1,0.0,,0.0,0
749173,1480784151859,,,,,,,,0.09,0.08,1.01,0.9,0.7,0.3,860,141,,,,,,,,,,,,,,,,,,,
749193,1480784151879,,,,,,,,0.09,0.08,1.03,0.9,0.6,0.2,860,143,,,,,,,,,,,,,,,,,,,
749213,1480784151893,,,,,,,,0.08,0.08,1.02,1.0,0.5,0.1,840,146,,,,,,,,,,,,,,,,,,,
749233,1480784151913,,,,,,,,0.09,0.07,1.02,1.1,0.6,0.1,860,144,,,,,,,,,,,,,,,,,,,
749253,1480784151933,0,121.3,,164.0,35,175.1,,0.09,0.07,1.01,1.1,0.6,0.1,860,141,0,0,5.833,0,38.158566,-122.452919,2.28,0.202,140911008.0,10,2,1.9,0,0.0,-1,0.0,0.0,0.0,0
749273,1480784151953,,,,,,,,0.09,0.07,1.0,1.1,0.5,0.1,840,149,,,,,,,,,,,,,,,,,,,
749293,1480784151973,,,,,,,,0.09,0.08,1.01,1.1,0.5,0.1,840,156,,,,,,,,,,,,,,,,,,,
749313,1480784152092,,,,,,,,0.1,0.09,1.02,1.1,0.4,0.2,840,153,,,,,,,,,,,,,,,,,,,
749333,1480784152112,,,,,,,,0.1,0.08,1.03,1.2,0.2,0.2,860,149,,,,,,,,,,,,,,,,,,,
749353,1480784152132,,,,,32,,,0.09,0.09,1.03,1.3,0.0,0.1,840,147,0,0,5.772,0,38.158566,-122.452927,2.48,0.202,140911008.0,10,2,1.9,0,0.0,-1,0.0,,0.0,0
749373,1480784152152,,,,,,,,0.09,0.07,1.02,1.3,0.0,-0.0,840,150,,,,,,,,,,,,,,,,,,,
749393,1480784152172,,,,,,,,0.09,0.07,1.01,1.4,-0.0,-0.0,840,153,,,,,,,,,,,,,,,,,,,
749413,1480784152192,,,,,,,,0.09,0.07,1.01,1.4,-0.1,0.0,860,153,,,,,,,,,,,,,,,,,,,
749433,1480784152212,,,,,,,,0.09,0.08,1.02,1.4,0.0,0.1,840,153,,,,,,,,,,,,,,,,,,,
749453,1480784152232,0,121.4,,164.7,34,175.3,,0.08,0.08,1.02,1.4,-0.1,0.1,860,152,0,0,5.49,0,38.158566,-122.452927,2.48,0.202,140911008.0,10,2,1.9,0,0.0,-1,0.0,0.0,0.0,0
749473,1480784152252,,,,,,,,0.07,0.07,1.03,1.5,-0.3,0.1,860,153,,,,,,,,,,,,,,,,,,,
749493,1480784152272,,,,,,,,0.07,0.08,1.02,1.6,-0.3,0.1,860,158,,,,,,,,,,,,,,,,,,,
749513,1480784152200,,,,,,,,0.07,0.07,1.02,1.6,-0.3,0.1,880,161,,,,,,,,,,,,,,,,,,,
749533,1480784152220,,,,,,,,0.06,0.07,1.0,1.6,-0.3,0.0,880,158,,,,,,,,,,,,,,,,,,,
749553,1480784152240,,,,,32,,,0.06,0.07,0.99,1.7,-0.2,0.0,880,153,0,0,5.57,0,38.158566,-122.452927,2.56,0.202,140911008.0,10,2,1.9,0,0.0,-1,0.0,,0.0,0
749573,1480784152260,,,,,,,,0.06,0.07,1.0,1.6,-0.2,0.1,900,150,,,,,,,,,,,,,,,,,,,
749593,1480784152280,,,,,,,,0.06,0.07,1.01,1.7,0.0,0.1,900,152,,,,,,,,,,,,,,,,,,,
749613,1480784152300,,,,,,,,0.06,0.08,1.02,1.7,0.2,0.2,920,156,,,,,,,,,,,,,,,,,,,
749633,1480784152320,,,,,,,,0.06,0.08,1.03,1.7,0.2,0.2,920,161,,,,,,,,,,,,,,,,,,,
749653,1480784152340,0,120.2,,164.2,33,175.5,,0.05,0.08,1.02,1.8,0.2,0.2,940,161,0,0,5.714,0,38.158566,-122.452927,2.75,0.202,140911008.0,10,2,1.9,0,0.0,-1,0.0,0.0,0.0,0
749673,1480784152360,,,,,,,,0.05,0.08,1.01,1.8,0.0,0.2,940,158,,,,,,,,,,,,,,,,,,,
749693,1480784152380,,,,,,,,0.03,0.08,1.01,1.8,0.0,0.1,940,155,,,,,,,,,,,,,,,,,,,
749713,1480784152400,,,,,,,,0.02,0.08,1.01,1.9,0.2,0.0,960,155,,,,,,,,,,,,,,,,,,,
749733,1480784152420,,,,,,,,0.02,0.07,1.02,1.9,0.5,-0.1,960,156,,,,,,,,,,,,,,,,,,,
749753,1480784152440,,,,,36,,,0.01,0.07,1.02,2.0,0.8,-0.1,960,158,0,0,6.194,0,38.158566,-122.452927,2.71,0.202,140911008.0,10,2,1.9,0,0.0,-1,0.0,,0.0,0
749773,1480784152460,,,,,,,,0.01,0.07,1.01,2.2,0.9,-0.2,960,158,,,,,,,,,,,,,,,,,,,
749793,1480784152480,,,,,,,,0.0,0.07,1.01,2.3,1.0,-0.2,960,158,,,,,,,,,,,,,,,,,,,
749813,1480784152500,,,,,,,,0.0,0.06,1.0,2.4,1.0,-0.2,960,160,,,,,,,,,,,,,,,,,,,
749833,1480784152520,,,,,,,,0.0,0.05,1.0,2.5,0.8,-0.2,960,161,,,,,,,,,,,,,,,,,,,
749853,1480784152540,0,120.0,,163.9,37,175.2,,0.01,0.04,1.0,2.7,0.6,-0.2,980,158,0,0,5.963,0,38.158569,-122.452927,2.96,0.202,140911008.0,10,2,1.9,0,0.0,-1,0.0,0.0,0.0,0
749873,1480784152560,,,,,,,,0.01,0.04,1.0,2.8,0.5,-0.2,960,153,,,,,,,,,,,,,,,,,,,
749893,1480784152580,,,,,,,,0.01,0.04,1.0,3.0,0.5,-0.2,980,146,,,,,,,,,,,,,,,,,,,
749913,1480784152599,,,,,,,,0.01,0.04,1.0,3.1,0.6,-0.1,980,138,,,,,,,,,,,,,,,,,,,
749933,1480784152619,,,,,,,,0.01,0.04,1.01,3.3,0.6,-0.0,960,133,,,,,,,,,,,,,,,,,,,
749953,1480784152639,,,,,39,,,0.01,0.04,1.01,3.4,0.7,0.0,980,124,0,0,7.368,0,38.158569,-122.452927,2.7,0.202,140911008.0,10,2,1.9,0,0.0,-1,0.0,,0.0,0
749973,1480784152659,,,,,,,,0.01,0.04,1.01,3.6,0.8,0.1,980,118,,,,,,,,,,,,,,,,,,,
749993,1480784152679,,,,,,,,0.01,0.04,1.01,3.7,0.8,0.2,980,115,,,,,,,,,,,,,,,,,,,
750013,1480784152700,,,,,,,,0.01,0.05,1.0,3.8,0.8,0.3,980,113,,,,,,,,,,,,,,,,,,,
750033,1480784152720,,,,,,,,0.01,0.05,1.0,4.0,0.9,0.4,980,106,,,,,,,,,,,,,,,,,,,
750053,1480784152740,0,121.0,9.8,164.8,40,175.6,14.59,0.0,0.05,1.01,4.1,1.0,0.4,980,107,0,0,9.245,0,38.158569,-122.452927,2.65,0.202,140911008.0,10,2,1.9,0,0.0,-1,0.0,0.0,0.0,0
750073,1480784152760,,,,,,,,0.0,0.05,1.0,4.3,1.1,0.5,960,132,,,,,,,,,,,,,,,,,,,
750093,1480784152780,,,,,,,,-0.0,0.05,1.0,4.5,1.1,0.5,960,173,,,,,,,,,,,,,,,,,,,
750113,1480784152899,,,,,,,,-0.01,0.05,0.99,4.7,1.0,0.5,960,170,,,,,,,,,,,,,,,,,,,
750133,1480784152919,,,,,,,,-0.0,0.06,0.99,4.9,1.0,0.5,920,166,,,,,,,,,,,,,,,,,,,
750153,1480784152939,,,,,37,,,-0.0,0.05,0.99,5.1,0.9,0.5,880,155,0,0,5.542,0,38.158573,-122.452927,2.5,0.203,140911008.0,10,2,1.9,0,0.0,-1,0.0,,0.0,0
750173,1480784152959,,,,,,,,0.0,0.06,1.0,5.2,1.0,0.5,880,144,,,,,,,,,,,,,,,,,,,
750193,1480784152979,,,,,,,,0.0,0.05,1.0,5.4,1.0,0.6,840,135,,,,,,,,,,,,,,,,,,,
750213,1480784152999,,,,,,,,-0.0,0.05,1.01,5.7,1.0,0.6,820,130,,,,,,,,,,,,,,,,,,,
750233,1480784153019,,,,,,,,-0.0,0.05,1.01,5.9,1.1,0.6,800,132,,,,,,,,,,,,,,,,,,,
750253,1480784153039,0,121.5,,165.0,34,175.8,,-0.0,0.05,1.0,6.1,1.0,0.6,800,118,0,0,6.212,0,38.158573,-122.452927,2.5,0.203,140911008.0,10,2,1.9,0,0.0,-1,0.0,0.0,0.0,0
750273,1480784153059,,,,,,,,-0.01,0.06,1.0,6.3,1.0,0.6,800,120,,,,,,,,,,,,,,,,,,,
750293,1480784153079,,,,,,,,-0.01,0.06,1.01,6.5,1.0,0.6,780,132,,,,,,,,,,,,,,,,,,,
750313,1480784152999,,,,,,,,-0.01,0.07,1.01,6.7,1.0,0.6,780,147,,,,,,,,,,,,,,,,,,,
750333,1480784153019,,,,,,,,-0.01,0.07,1.02,6.9,0.9,0.6,780,146,,,,,,,,,,,,,,,,,,,
750353,1480784153039,,,,,35,,,-0.01,0.08,1.01,7.0,0.9,0.7,780,140,0,0,5.235,0,38.158573,-122.452927,2.36,0.203,140911008.0,10,2,1.9,0,0.0,-1,0.0,,0.0,0
750373,1480784153059,,,,,,,,-0.01,0.08,1.01,7.1,0.8,0.7,760,140,,,,,,,,,,,,,,,,,,,
750393,1480784153079,,,,,,,,-0.01,0.08,1.01,7.2,0.8,0.6,760,132,,,,,,,,,,,,,,,,,,,
750413,1480784153099,,,,,,,,-0.01,0.09,1.01,7.2,0.7,0.5,740,127,,,,,,,,,,,,,,,,,,,
750433,1480784153119,,,,,,,,-0.01,0.09,1.01,7.3,0.7,0.4,740,124,,,,,,,,,,,,,,,,,,,
750453,1480784153139,0,119.8,,164.2,29,175.2,,-0.01,0.09,1.01,7.4,0.8,0.4,740,123,0,0,5.968,0,38.158573,-122.452927,2.29,0.203,140911008.0,10,2,1.9,0,0.0,-1,0.0,0.0,0.0,0
750473,1480784153159,,,,,,,,-0.01,0.09,1.01,7.5,0.9,0.4,740,124,,,,,,,,,,,,,,,,,,,
750493,1480784153179,,,,,,,,-0.01,0.09,1.01,7.6,0.9,0.3,720,127,,,,,,,,,,,,,,,,,,,
750513,1480784153200,,,,,,,,-0.01,0.09,1.01,7.7,1.0,0.3,720,132,,,,,,,,,,,,,,,,,,,
750533,1480784153220,,,,,,,,-0.01,0.08,1.01,7.8,1.0,0.3,720,129,,,,,,,,,,,,,,,,,,,
750553,1480784153240,,,,,31,,,-0.01,0.09,1.0,7.9,0.9,0.2,720,129,0,0,5.538,0,38.158577,-122.452927,2.46,0.203,140911008.0,10,2,1.9,0,0.0,-1,0.0,,0.0,0
750573,1480784153260,,,,,,,,-0.01,0.09,1.0,8.0,0.9,0.2,720,123,,,,,,,,,,,,,,,,,,,
750593,1480784153280,,,,,,,,-0.01,0.09,1.0,8.0,0.9,0.2,720,120,,,,,,,,,,,,,,,,,,,
750613,1480784153300,,,,,,,,-0.01,0.09,1.01,8.1,0.8,0.3,720,121,,,,,,,,,,,,,,,,,,,
750633,1480784153320,,,,,,,,-0.01,0.09,1.01,8.2,0.8,0.3,720,123,,,,,,,,,,,,,,,,,,,
750653,1480784153340,0,119.8,,164.3,27,175.4,,-0.01,0.09,1.01,8.2,0.9,0.3,720,123,0,0,5.854,0,38.158577,-122.452927,2.65,0.203,140911008.0,10,2,1.9,0,0.0,-1,0.0,0.0,0.0,0
750673,1480784153360,,,,,,,,-0.0,0.09,1.0,8.3,0.8,0.4,720,123,,,,,,,,,,,,,,,,,,,
750693,1480784153380,,,,,,,,0.0,0.1,1.0,8.2,0.8,0.5,720,120,,,,,,,,,,,,,,,,,,,
750713,1480784153400,,,,,,,,0.0,0.1,1.01,8.2,0.6,0.4,720,118,,,,,,,,,,,,,,,,,,,
750733,1480784153420,,,,,,,,0.0,0.1,1.01,8.2,0.5,0.4,720,116,,,,,,,,,,,,,,,,,,,
750753,1480784153440,,,,,28,,,0.0,0.1,1.0,8.2,0.5,0.4,720,118,0,0,6.207,0,38.158577,-122.452927,2.36,0.203,140911008.0,10,2,1.9,0,0.0,-1,0.0,,0.0,0
750773,1480784153460,,,,,,,,0.0,0.1,1.0,8.1,0.5,0.4,720,120,,,,,,,,,,,,,,,,,,,
750793,1480784153480,,,,,,,,0.0,0.11,1.0,8.1,0.4,0.3,720,121,,,,,,,,,,,,,,,,,,,
750813,1480784153492,,,,,,,,0.0,0.11,0.99,8.1,0.4,0.3,720,120,,,,,,,,,,,,,,,,,,,
750833,1480784153512,,,,,,,,0.01,0.11,0.99,8.0,0.3,0.3,740,120,,,,,,,,,,,,,,,,,,,
750853,1480784153532,0,121.8,,165.2,29,175.5,,0.0,0.11,0.99,8.0,0.2,0.2,740,116,0,0,6.167,0,38.158577,-122.452927,2.54,0.203,140911008.0,10,2,1.9,0,0.0,-1,0.0,0.0,0.0,0
750873,1480784153552,,,,,,,,0.0,0.11,1.0,8.0,0.1,0.2,740,115,,,,,,,,,,,,,,,,,,,
750893,1480784153572,,,,,,,,-0.0,0.11,0.99,7.9,0.1,0.2,740,113,,,,,,,,,,,,,,,,,,,
750913,1480784153699,,,,,,,,-0.0,0.11,0.99,7.9,0.2,0.2,740,113,,,,,,,,,,,,,,,,,,,
750933,1480784153719,,,,,,,,-0.01,0.11,1.0,7.8,0.2,0.2,740,112,,,,,,,,,,,,,,,,,,,
750953,1480784153739,,,,,29,,,-0.01,0.11,1.0,7.7,0.2,0.2,720,112,0,0,6.607,0,38.158581,-122.452927,2.29,0.203,140911008.0,10,2,1.9,0,0.0,-1,0.0,,0.0,0
750973,1480784153759,,,,,,,,-0.02,0.11,1.0,7.7,0.3,0.2,720,109,,,,,,,,,,,,,,,,,,,
750993,1480784153779,,,,,,,,-0.02,0.11,1.0,7.6,0.4,0.2,740,107,,,,,,,,,,,,,,,,,,,
751013,1480784153799,,,,,,,,-0.03,0.11,1.0,7.5,0.3,0.2,740,104,,,,,,,,,,,,,,,,,,,
751033,1480784153819,,,,,,,,-0.03,0.11,1.0,7.4,0.3,0.2,740,103,,,,,,,,,,,,,,,,,,,
751053,1480784153839,0,121.6,9.4,164.5,30,174.8,14.54,-0.03,0.11,1.0,7.3,0.3,0.2,740,103,0,0,7.184,0,38.158581,-122.452927,2.29,0.203,140911008.0,10,2,1.9,0,0.0,-1,0.0,0.0,0.0,0
751073,1480784153859,,,,,,,,-0.04,0.11,1.0,7.2,0.3,0.2,740,100,,,,,,,,,,,,,,,,,,,
751093,1480784153879,,,,,,,,-0.04,0.11,1.01,7.0,0.3,0.1,740,101,,,,,,,,,,,,,,,,,,,
751113,1480784153801,,,,,,,,-0.04,0.11,1.01,6.9,0.2,0.1,740,113,,,,,,,,,,,,,,,,,,,
751133,1480784153821,,,,,,,,-0.04,0.11,1.01,6.8,0.3,0.1,740,101,,,,,,,,,,,,,,,,,,,
751153,1480784153841,,,,,28,,,-0.04,0.11,1.01,6.6,0.3,0.1,740,98,0,0,6.789,0,38.158581,-122.452927,2.28,0.203,140911008.0,10,2,1.9,0,0.0,-1,0.0,,0.0,0
751173,1480784153861,,,,,,,,-0.05,0.11,1.01,6.5,0.3,0.0,740,95,,,,,,,,,,,,,,,,,,,
751193,1480784153881,,,,,,,,-0.05,0.11,1.01,6.3,0.3,-0.0,740,93,,,,,,,,,,,,,,,,,,,
751213,1480784153894,,,,,,,,-0.05,0.11,1.01,6.2,0.4,-0.0,740,87,,,,,,,,,,,,,,,,,,,
751233,1480784153914,,,,,,,,-0.06,0.11,1.01,6.0,0.5,-0.0,740,86,,,,,,,,,,,,,,,,,,,
751253,1480784153934,0,121.6,,164.7,29,174.7,,-0.06,0.11,1.01,5.8,0.5,-0.1,740,83,0,0,8.81,0,38.158581,-122.452942,1.82,0.204,140911008.0,10,2,1.9,0,0.0,-1,0.0,0.0,0.0,0
751273,1480784153954,,,,,,,,-0.06,0.11,1.01,5.7,0.4,-0.1,740,80,,,,,,,,,,,,,,,,,,,
751293,1480784153974,,,,,,,,-0.06,0.1,1.01,5.5,0.5,-0.0,720,78,,,,,,,,,,,,,,,,,,,
751313,1480784154000,,,,,,,,-0.06,0.11,1.01,5.3,0.6,0.0,720,78,,,,,,,,,,,,,,,,,,,
751333,1480784154020,,,,,,,,-0.06,0.11,1.01,5.1,0.6,0.0,720,70,,,,,,,,,,,,,,,,,,,
751353,1480784154040,,,,,30,,,-0.07,0.11,1.01,5.0,0.6,-0.0,720,49,0,0,10.286,0,38.158585,-122.452942,1.81,0.204,140911008.0,10,2,1.9,0,0.0,-1,0.0,,0.0,0
751373,1480784154060,,,,,,,,-0.07,0.12,1.01,4.8,0.6,0.0,720,67,,,,,,,,,,,,,,,,,,,
751393,1480784154080,,,,,,,,-0.07,0.12,1.01,4.6,0.6,0.0,720,72,,,,,,,,,,,,,,,,,,,
751413,1480784154101,,,,,,,,-0.07,0.12,1.01,4.4,0.5,-0.0,700,70,,,,,,,,,,,,,,,,,,,
751433,1480784154121,,,,,,,,-0.07,0.12,1.0,4.2,0.5,0.0,700,78,,,,,,,,,,,,,,,,,,,
751453,1480784154141,0,121.0,,164.5,27,174.9,,-0.07,0.12,1.01,3.9,0.4,0.1,700,86,0,0,8.974,0,38.158585,-122.452942,1.67,0.204,140911008.0,10,2,1.9,0,0.0,-1,0.0,0.0,0.0,0
751473,1480784154161,,,,,,,,-0.07,0.12,1.01,3.7,0.3,0.1,700,72,,,,,,,,,,,,,,,,,,,
751493,1480784154181,,,,,,,,-0.08,0.12,1.01,3.5,0.3,0.0,700,72,,,,,,,,,,,,,,,,,,,
751513,1480784154200,,,,,,,,-0.07,0.12,1.0,3.3,0.4,0.0,700,56,,,,,,,,,,,,,,,,,,,
751533,1480784154220,,,,,,,,-0.07,0.12,1.0,3.1,0.4,0.0,700,46,,,,,,,,,,,,,,,,,,,
751553,1480784154240,,,,,26,,,-0.07,0.12,1.0,2.9,0.5,-0.0,700,46,0,0,12.5,0,38.158585,-122.452942,1.42,0.204,140911008.0,10,2,1.9,0,0.0,-1,0.0,,0.0,0
751573,1480784154260,,,,,,,,-0.07,0.12,1.01,2.6,0.5,-0.1,700,40,,,,,,,,,,,,,,,,,,,
751593,1480784154280,,,,,,,,-0.07,0.11,1.01,2.4,0.5,-0.0,700,40,,,,,,,,,,,,,,,,,,,
751613,1480784154300,,,,,,,,-0.07,0.11,1.01,2.2,0.4,-0.1,700,40,,,,,,,,,,,,,,,,,,,
751633,1480784154320,,,,,,,,-0.08,0.11,1.01,2.0,0.4,-0.1,700,40,,,,,,,,,,,,,,,,,,,
751653,1480784154340,0,120.1,,164.7,25,175.4,,-0.07,0.11,1.01,1.8,0.4,-0.0,700,41,0,0,17.5,0,38.158585,-122.452942,1.25,0.204,140911008.0,10,2,1.9,0,0.0,-1,0.0,0.0,0.0,0
751673,1480784154360,,,,,,,,-0.07,0.11,1.0,1.6,0.3,-0.0,700,41,,,,,,,,,,,,,,,,,,,
751693,1480784154380,,,,,,,,-0.06,0.11,1.0,1.4,0.3,-0.1,700,35,,,,,,,,,,,,,,,,,,,
751713,1480784154499,,,,,,,,-0.06,0.11,1.0,1.2,0.2,-0.1,680,35,,,,,,,,,,,,,,,,,,,
751733,1480784154519,,,,,,,,-0.05,0.11,1.0,1.0,0.3,-0.1,680,35,,,,,,,,,,,,,,,,,,,
