"Interval"|"ms"|0|0|1,"Utc"|"ms"|0|0|1,"FuelLevel"|"F"|0|100|5,"OilTemp"|"F"|0.0|300.0|5,"CoolantPressPSI"|"PSI"|0.0|20.0|1,"Coolant"|"F"|0.0|300.0|5,"OilPress"|"PSI"|0|150|10,"EngineTemp"|"F"|0.0|300.0|5,"Battery"|"Volts"|0.0|20.0|1,"AccelX"|"G"|-3.0|3.0|50,"AccelY"|"G"|-3.0|3.0|50,"AccelZ"|"G"|-3.0|3.0|50,"Yaw"|"Deg/Sec"|-300.0|300.0|50,"Pitch"|"Deg/Sec"|-300.0|300.0|50,"Roll"|"Deg/Sec"|-300.0|300.0|50,"RPM"|""|0|10000|50,"Driveshaft"|"RPM"|0|5000|50,"GPIO1"|""|0|1|10,"GPIO2"|""|0|1|10,"GearRatio"|""|-5.0|5.0|10,"Gear"|""|-1|5|10,"Latitude"|"Degrees"|-180.0|180.0|10,"Longitude"|"Degrees"|-180.0|180.0|10,"Speed"|"MPH"|0.0|150.0|10,"Distance"|"Miles"|0.0|0.0|10,"Altitude"|"Feet"|0.0|4000.0|10,"GPSSats"|""|0|20|10,"GPSQual"|""|0|5|10,"GPSDOP"|""|0.0|20.0|10,"LapCount"|""|0|0|10,"LapTime"|"Min"|0.0|0.0|10,"Sector"|""|0|0|10,"SectorTime"|"Min"|0.0|0.0|10,"PredTime"|"Min"|0.0|0.0|5,"ElapsedTime"|"Min"|0.0|0.0|10,"CurrentLap"|""|0|0|10
15269,1480714385280,,,,,,,,0.02,0.1,1.02,-3.1,-0.1,0.0,160,0,,,,,,,,,,,,,,,,,,,
15289,1480714385299,,,,,,,,0.02,0.1,1.02,-3.2,-0.1,-0.0,240,0,,,,,,,,,,,,,,,,,,,
15309,1480714385319,,,,,,,,0.02,0.09,1.02,-3.1,-0.0,-0.1,240,0,,,,,,,,,,,,,,,,,,,
15329,1480714385339,,,,,,,,0.02,0.1,1.02,-3.1,-0.1,-0.2,240,0,,,,,,,,,,,,,,,,,,,
15349,1480714385359,,,,,0,,,0.02,0.09,1.02,-3.1,-0.1,-0.1,340,0,1,0,0.0,0,37.478439,-122.203735,0.0,0.0,24.6,10,2,1.7,0,0.0,-1,0.0,,0.0,0
15369,1480714385379,,,,,,,,0.02,0.09,1.02,-3.1,-0.1,-0.1,340,0,,,,,,,,,,,,,,,,,,,
15389,1480714385399,,,,,,,,0.02,0.09,1.01,-3.1,-0.1,-0.1,340,0,,,,,,,,,,,,,,,,,,,
15409,1480714385419,,,,,,,,0.02,0.08,1.02,-3.1,-0.1,-0.1,320,0,,,,,,,,,,,,,,,,,,,
15429,1480714385439,,,,,,,,0.02,0.06,1.02,-3.1,-0.1,-0.2,320,0,,,,,,,,,,,,,,,,,,,
15449,1480714385459,0,47.1,,71.5,1,65.1,,0.02,0.06,1.02,-3.1,-0.1,-0.1,420,0,1,0,0.0,0,37.478439,-122.203735,0.0,0.0,24.6,10,2,1.7,0,0.0,-1,0.0,0.0,0.0,0
15469,1480714385479,,,,,,,,0.02,0.05,1.03,-3.1,-0.1,-0.1,420,0,,,,,,,,,,,,,,,,,,,
15489,1480714385499,,,,,,,,0.03,0.05,1.02,-3.1,-0.1,-0.1,620,0,,,,,,,,,,,,,,,,,,,
15509,1480714385519,,,,,,,,0.02,0.07,1.02,-3.1,-0.3,0.0,720,0,,,,,,,,,,,,,,,,,,,
15529,1480714385539,,,,,,,,0.02,0.07,1.03,-3.1,-0.3,-0.2,760,0,,,,,,,,,,,,,,,,,,,
15549,1480714385559,,,,,2,,,0.02,0.06,1.02,-3.1,-0.4,-0.3,760,0,1,0,0.0,0,37.478439,-122.203735,0.0,0.0,24.6,10,2,1.7,0,0.0,-1,0.0,,0.0,0
15569,1480714385579,,,,,,,,0.02,0.06,1.01,-3.1,-0.3,-0.2,700,0,,,,,,,,,,,,,,,,,,,
15589,1480714385599,,,,,,,,0.02,0.06,1.01,-3.1,-0.4,-0.1,620,0,,,,,,,,,,,,,,,,,,,
15609,1480714385619,,,,,,,,0.02,0.06,1.01,-3.1,-0.3,-0.2,620,0,,,,,,,,,,,,,,,,,,,
15629,1480714385639,,,,,,,,0.02,0.06,1.01,-3.1,-0.2,-0.2,560,0,,,,,,,,,,,,,,,,,,,
15649,1480714385659,0,50.3,,72.2,4,65.7,,0.02,0.06,1.01,-3.1,-0.2,-0.1,560,0,1,0,0.0,0,37.478439,-122.203735,0.0,0.0,24.6,10,2,1.7,0,0.0,-1,0.0,0.0,0.0,0
15669,1480714385679,,,,,,,,0.02,0.07,1.0,-3.1,-0.1,-0.1,600,790,,,,,,,,,,,,,,,,,,,
15689,1480714385798,,,,,,,,0.02,0.07,1.01,-3.1,-0.3,-0.1,680,790,,,,,,,,,,,,,,,,,,,
15709,1480714385818,,,,,,,,0.01,0.07,1.01,-3.1,-0.3,-0.2,680,790,,,,,,,,,,,,,,,,,,,
15729,1480714385838,,,,,,,,0.01,0.06,1.01,-3.1,-0.2,-0.3,720,790,,,,,,,,,,,,,,,,,,,
15749,1480714385858,,,,,6,,,0.02,0.07,1.0,-3.1,-0.1,-0.2,600,0,1,0,0.0,0,37.478439,-122.203735,0.0,0.0,24.6,10,2,1.7,0,0.0,-1,0.0,,0.0,0
15769,1480714385878,,,,,,,,0.02,0.06,1.0,-3.1,-0.0,-0.2,600,0,,,,,,,,,,,,,,,,,,,
15789,1480714385898,,,,,,,,0.01,0.06,1.0,-3.1,-0.0,-0.2,520,0,,,,,,,,,,,,,,,,,,,
15809,1480714385918,,,,,,,,0.01,0.05,1.01,-3.1,0.0,-0.2,520,0,,,,,,,,,,,,,,,,,,,
15829,1480714385938,,,,,,,,0.01,0.06,1.0,-3.1,0.0,-0.2,460,0,,,,,,,,,,,,,,,,,,,
15849,1480714385958,0,51.4,,75.9,6,67.7,,0.01,0.05,1.01,-3.2,0.0,-0.1,460,0,1,0,0.0,0,37.478439,-122.203735,0.0,0.0,24.6,10,2,1.7,0,0.0,-1,0.0,0.0,0.0,0
15869,1480714385978,,,,,,,,0.01,0.06,1.01,-3.2,-0.1,-0.1,500,0,,,,,,,,,,,,,,,,,,,
15889,1480714385892,,,,,,,,0.01,0.06,1.01,-3.1,-0.1,-0.1,500,0,,,,,,,,,,,,,,,,,,,
15909,1480714385912,,,,,,,,0.01,0.07,1.01,-3.2,-0.2,-0.1,580,0,,,,,,,,,,,,,,,,,,,
15929,1480714385932,,,,,,,,0.01,0.07,1.01,-3.2,-0.1,-0.1,580,0,,,,,,,,,,,,,,,,,,,
15949,1480714385952,,,,,6,,,0.01,0.06,1.01,-3.1,-0.0,-0.2,580,0,1,0,0.0,0,37.478439,-122.203735,0.0,0.0,24.6,10,2,1.7,0,0.0,-1,0.0,,0.0,0
15969,1480714385972,,,,,,,,0.02,0.07,1.0,-3.1,-0.0,-0.2,560,0,,,,,,,,,,,,,,,,,,,
15989,1480714386000,,,,,,,,0.02,0.06,1.0,-3.2,-0.1,-0.1,560,0,,,,,,,,,,,,,,,,,,,
16009,1480714386020,,,,,,,,0.02,0.07,1.0,-3.1,-0.1,0.0,540,0,,,,,,,,,,,,,,,,,,,
16029,1480714386040,,,,,,,,0.03,0.08,1.0,-3.1,-0.1,0.0,540,0,,,,,,,,,,,,,,,,,,,
16049,1480714386060,0,52.0,1.0,75.9,8,69.5,14.99,0.03,0.08,1.01,-3.1,-0.1,0.0,660,0,1,0,0.0,0,37.478439,-122.203735,0.0,0.0,24.6,10,2,1.7,0,0.0,-1,0.0,0.0,0.0,0
16069,1480714386080,,,,,,,,0.03,0.09,1.01,-3.1,-0.2,-0.0,680,0,,,,,,,,,,,,,,,,,,,
16089,1480714386099,,,,,,,,0.03,0.08,1.0,-3.1,-0.2,-0.1,760,0,,,,,,,,,,,,,,,,,,,
16109,1480714386119,,,,,,,,0.03,0.08,1.0,-3.1,-0.2,-0.1,760,0,,,,,,,,,,,,,,,,,,,
16129,1480714386139,,,,,,,,0.02,0.08,1.0,-3.1,-0.2,0.0,780,0,,,,,,,,,,,,,,,,,,,
16149,1480714386159,,,,,10,,,0.02,0.08,0.99,-3.1,-0.3,0.1,800,0,1,0,0.0,0,37.478439,-122.203735,0.0,0.0,24.6,10,2,1.7,0,0.0,-1,0.0,,0.0,0
16169,1480714386179,,,,,,,,0.01,0.08,1.0,-3.1,-0.3,-0.1,860,0,,,,,,,,,,,,,,,,,,,
16189,1480714386199,,,,,,,,0.01,0.08,1.0,-3.1,-0.4,-0.3,900,0,,,,,,,,,,,,,,,,,,,
16209,1480714386219,,,,,,,,0.01,0.06,0.99,-3.1,-0.5,-0.4,940,0,,,,,,,,,,,,,,,,,,,
16229,1480714386239,,,,,,,,0.01,0.04,1.0,-3.1,-0.4,-0.5,980,0,,,,,,,,,,,,,,,,,,,
16249,1480714386259,0,51.1,,75.9,12,69.2,,0.02,0.04,1.0,-3.1,-0.5,-0.4,1000,0,1,0,0.0,0,37.478439,-122.203735,0.0,0.0,24.6,10,2,1.7,0,0.0,-1,0.0,0.0,0.0,0
16269,1480714386279,,,,,,,,0.02,0.03,1.0,-3.1,-0.5,-0.4,1020,0,,,,,,,,,,,,,,,,,,,
16289,1480714386300,,,,,,,,0.02,0.03,0.99,-3.0,-0.5,-0.4,1040,0,,,,,,,,,,,,,,,,,,,
16309,1480714386320,,,,,,,,0.02,0.03,0.98,-3.1,-0.5,-0.4,1060,0,,,,,,,,,,,,,,,,,,,
16329,1480714386340,,,,,,,,0.02,0.03,0.97,-3.0,-0.5,-0.3,1080,0,,,,,,,,,,,,,,,,,,,
16349,1480714386360,,,,,17,,,0.01,0.03,0.97,-3.1,-0.3,-0.3,1080,0,1,0,0.0,0,37.478439,-122.203735,0.0,0.0,24.6,10,2,1.7,0,0.0,-1,0.0,,0.0,0
16369,1480714386380,,,,,,,,0.01,0.02,0.98,-3.1,-0.2,-0.2,1100,0,,,,,,,,,,,,,,,,,,,
16389,1480714386399,,,,,,,,0.0,0.03,0.98,-3.1,-0.3,-0.2,1100,0,,,,,,,,,,,,,,,,,,,
16409,1480714386419,,,,,,,,0.01,0.03,0.99,-3.1,-0.3,-0.2,1100,0,,,,,,,,,,,,,,,,,,,
16429,1480714386439,,,,,,,,0.01,0.04,0.99,-3.1,-0.1,-0.1,1100,0,,,,,,,,,,,,,,,,,,,
16449,1480714386459,1,47.6,,72.6,20,65.4,,0.01,0.04,0.99,-3.1,-0.2,-0.2,1100,0,1,0,0.0,0,37.478439,-122.203735,0.0,0.0,24.6,10,2,1.7,0,0.0,-1,0.0,0.0,0.0,0
16469,1480714386479,,,,,,,,0.01,0.04,0.99,-3.1,-0.1,-0.1,1100,0,,,,,,,,,,,,,,,,,,,
16489,1480714386598,,,,,,,,0.01,0.04,1.0,-3.1,-0.1,-0.2,1100,0,,,,,,,,,,,,,,,,,,,
16509,1480714386618,,,,,,,,0.01,0.05,0.99,-3.1,-0.3,-0.1,1100,0,,,,,,,,,,,,,,,,,,,
16529,1480714386638,,,,,,,,0.01,0.06,0.99,-3.1,-0.2,-0.1,1080,0,,,,,,,,,,,,,,,,,,,
16549,1480714386658,,,,,27,,,0.01,0.06,0.99,-3.1,-0.0,-0.2,1100,0,1,0,0.0,0,37.478439,-122.203735,0.0,0.0,24.6,10,2,1.7,0,0.0,-1,0.0,,0.0,0
16569,1480714386678,,,,,,,,0.01,0.06,0.99,-3.1,-0.1,-0.1,1080,0,,,,,,,,,,,,,,,,,,,
16589,1480714386698,,,,,,,,0.01,0.06,0.99,-3.1,-0.2,-0.2,1080,0,,,,,,,,,,,,,,,,,,,
16609,1480714386718,,,,,,,,0.01,0.06,0.99,-3.1,-0.2,-0.1,1060,0,,,,,,,,,,,,,,,,,,,
16629,1480714386738,,,,,,,,0.01,0.06,0.99,-3.1,-0.1,-0.1,1040,0,,,,,,,,,,,,,,,,,,,
16649,1480714386758,1,52.5,,75.9,36,69.2,,0.02,0.06,0.99,-3.1,0.0,-0.1,1040,0,1,0,0.0,0,37.478439,-122.203735,0.0,0.0,24.6,10,2,1.7,0,0.0,-1,0.0,0.0,0.0,0
16669,1480714386778,,,,,,,,0.01,0.06,1.0,-3.1,-0.0,-0.0,1040,0,,,,,,,,,,,,,,,,,,,
16689,1480714386699,,,,,,,,0.01,0.07,0.99,-3.1,-0.1,-0.0,1020,0,,,,,,,,,,,,,,,,,,,
16709,1480714386719,,,,,,,,0.01,0.07,1.0,-3.1,-0.2,-0.0,1000,0,,,,,,,,,,,,,,,,,,,
16729,1480714386739,,,,,,,,0.01,0.07,1.0,-3.2,-0.3,-0.0,980,0,,,,,,,,,,,,,,,,,,,
16749,1480714386759,,,,,46,,,0.01,0.07,1.0,-3.2,-0.3,-0.0,960,0,1,0,0.0,0,37.478439,-122.203735,0.0,0.0,24.6,10,2,1.7,0,0.0,-1,0.0,,0.0,0
16769,1480714386779,,,,,,,,0.01,0.08,1.0,-3.2,-0.3,0.0,960,0,,,,,,,,,,,,,,,,,,,
16789,1480714386800,,,,,,,,0.01,0.08,1.01,-3.2,-0.3,0.1,940,0,,,,,,,,,,,,,,,,,,,
16809,1480714386820,,,,,,,,0.0,0.08,1.0,-3.2,-0.4,0.1,940,0,,,,,,,,,,,,,,,,,,,
16829,1480714386840,,,,,,,,0.0,0.08,1.0,-3.2,-0.3,0.1,940,0,,,,,,,,,,,,,,,,,,,
16849,1480714386860,0,52.1,,75.0,52,68.8,,0.01,0.08,1.0,-3.2,-0.2,0.2,900,0,1,0,0.0,0,37.478439,-122.203735,0.0,0.0,24.6,10,2,1.7,0,0.0,-1,0.0,0.0,0.0,0
16869,1480714386880,,,,,,,,0.01,0.08,1.01,-3.2,0.0,0.2,900,0,,,,,,,,,,,,,,,,,,,
16889,1480714386891,,,,,,,,0.01,0.08,1.0,-3.2,-0.1,0.2,900,0,,,,,,,,,,,,,,,,,,,
16909,1480714386911,,,,,,,,0.01,0.09,1.01,-3.3,-0.3,0.2,880,0,,,,,,,,,,,,,,,,,,,
16929,1480714386931,,,,,,,,0.01,0.09,1.01,-3.3,-0.2,0.1,860,0,,,,,,,,,,,,,,,,,,,
16949,1480714386951,,,,,54,,,0.0,0.08,1.0,-3.3,-0.1,0.1,860,0,1,0,0.0,0,37.478439,-122.203735,0.0,0.0,24.6,10,2,1.7,0,0.0,-1,0.0,,0.0,0
16969,1480714386971,,,,,,,,0.01,0.08,1.0,-3.3,0.0,0.1,840,0,,,,,,,,,,,,,,,,,,,
16989,1480714386999,,,,,,,,0.01,0.08,1.0,-3.3,-0.0,0.1,840,0,,,,,,,,,,,,,,,,,,,
17009,1480714387019,,,,,,,,0.01,0.07,1.01,-3.3,-0.1,0.1,820,0,,,,,,,,,,,,,,,,,,,
17029,1480714387039,,,,,,,,0.01,0.07,1.01,-3.3,0.0,0.2,800,0,,,,,,,,,,,,,,,,,,,
17049,1480714387059,0,48.7,0.0,72.4,57,65.2,14.85,0.01,0.07,1.01,-3.3,-0.1,0.1,800,0,1,0,0.0,0,37.478439,-122.203735,0.0,0.0,24.6,10,2,1.7,0,0.0,-1,0.0,0.0,0.0,0
17069,1480714387079,,,,,,,,0.0,0.07,1.01,-3.3,-0.1,0.1,800,0,,,,,,,,,,,,,,,,,,,
17089,1480714387100,,,,,,,,0.01,0.06,1.0,-3.3,-0.0,0.0,800,0,,,,,,,,,,,,,,,,,,,
17109,1480714387120,,,,,,,,0.01,0.07,1.0,-3.3,0.0,0.1,800,0,,,,,,,,,,,,,,,,,,,
17129,1480714387140,,,,,,,,0.01,0.07,1.01,-3.3,0.1,0.1,780,0,,,,,,,,,,,,,,,,,,,
17149,1480714387160,,,,,58,,,0.01,0.07,1.01,-3.3,0.0,0.1,780,0,1,0,0.0,0,37.478439,-122.203735,0.0,0.0,24.6,10,3,1.7,0,0.0,-1,0.0,,0.0,0
17169,1480714387180,,,,,,,,0.01,0.06,1.0,-3.3,-0.0,0.0,780,0,,,,,,,,,,,,,,,,,,,
17189,1480714387200,,,,,,,,0.01,0.06,1.0,-3.3,0.0,0.0,780,0,,,,,,,,,,,,,,,,,,,
17209,1480714387220,,,,,,,,0.01,0.06,1.0,-3.4,0.0,0.1,780,0,,,,,,,,,,,,,,,,,,,
17229,1480714387240,,,,,,,,0.02,0.07,1.0,-3.5,0.1,0.2,780,0,,,,,,,,,,,,,,,,,,,
17249,1480714387260,0,49.3,,72.4,59,65.4,,0.02,0.07,1.01,-3.5,0.0,0.2,800,0,1,0,0.0,0,37.478439,-122.203735,0.0,0.0,24.6,10,3,1.7,0,0.0,-1,0.0,0.0,0.0,0
17269,1480714387280,,,,,,,,0.01,0.06,1.0,-3.5,0.0,0.1,800,0,,,,,,,,,,,,,,,,,,,
17289,1480714387400,,,,,,,,0.02,0.06,1.0,-3.5,0.1,0.1,800,0,,,,,,,,,,,,,,,,,,,
17309,1480714387420,,,,,,,,0.02,0.06,1.0,-3.5,0.1,0.2,800,0,,,,,,,,,,,,,,,,,,,
17329,1480714387440,,,,,,,,0.02,0.07,1.0,-3.5,0.2,0.3,820,0,,,,,,,,,,,,,,,,,,,
17349,1480714387460,,,,,58,,,0.02,0.07,1.01,-3.5,0.1,0.3,820,0,1,0,0.0,0,37.478439,-122.203735,0.0,0.0,24.6,10,3,1.7,0,0.0,-1,0.0,,0.0,0
17369,1480714387480,,,,,,,,0.01,0.07,1.01,-3.5,0.1,0.2,840,0,,,,,,,,,,,,,,,,,,,
17389,1480714387500,,,,,,,,0.01,0.07,1.0,-3.4,0.1,0.1,840,0,,,,,,,,,,,,,,,,,,,
17409,1480714387520,,,,,,,,0.01,0.06,1.0,-3.4,0.2,0.0,840,0,,,,,,,,,,,,,,,,,,,
17429,1480714387540,,,,,,,,0.01,0.07,1.0,-3.4,0.1,0.1,840,0,,,,,,,,,,,,,,,,,,,
17449,1480714387560,0,52.3,,75.6,61,69.3,,0.01,0.07,1.01,-3.4,0.1,0.2,840,0,1,0,0.0,0,37.478439,-122.203735,0.0,0.0,24.6,10,3,1.7,0,0.0,-1,0.0,0.0,0.0,0
17469,1480714387580,,,,,,,,0.02,0.08,1.01,-3.4,0.1,0.3,840,0,,,,,,,,,,,,,,,,,,,
17489,1480714387498,,,,,,,,0.02,0.08,1.01,-3.4,-0.1,0.2,860,0,,,,,,,,,,,,,,,,,,,
17509,1480714387518,,,,,,,,0.02,0.07,1.01,-3.4,-0.1,0.2,860,0,,,,,,,,,,,,,,,,,,,
17529,1480714387538,,,,,,,,0.01,0.07,1.01,-3.3,-0.1,0.0,880,0,,,,,,,,,,,,,,,,,,,
17549,1480714387558,,,,,60,,,0.01,0.06,1.01,-3.4,-0.0,-0.0,860,0,1,0,0.0,0,37.478439,-122.203735,0.0,0.0,24.6,10,3,1.7,0,0.0,-1,0.0,,0.0,0
17569,1480714387578,,,,,,,,0.02,0.06,1.01,-3.4,-0.0,0.1,860,0,,,,,,,,,,,,,,,,,,,
17589,1480714387600,,,,,,,,0.02,0.06,1.01,-3.4,-0.1,0.2,880,0,,,,,,,,,,,,,,,,,,,
17609,1480714387620,,,,,,,,0.02,0.07,1.01,-3.4,0.0,0.2,880,0,,,,,,,,,,,,,,,,,,,
17629,1480714387640,,,,,,,,0.03,0.08,1.01,-3.4,0.2,0.3,880,0,,,,,,,,,,,,,,,,,,,
17649,1480714387660,0,51.1,,72.8,61,67.2,,0.02,0.08,1.01,-3.5,-0.0,0.2,880,0,1,0,0.0,0,37.478439,-122.203735,0.0,0.0,24.6,10,3,1.7,0,0.0,-1,0.0,0.0,0.0,0
17669,1480714387680,,,,,,,,0.01,0.08,1.02,-3.5,-0.0,0.1,900,0,,,,,,,,,,,,,,,,,,,
17689,1480714387701,,,,,,,,0.01,0.08,1.02,-3.4,0.0,0.0,900,0,,,,,,,,,,,,,,,,,,,
17709,1480714387721,,,,,,,,0.01,0.08,1.01,-3.4,0.0,-0.1,900,0,,,,,,,,,,,,,,,,,,,
17729,1480714387741,,,,,,,,0.01,0.06,1.0,-3.4,0.1,-0.2,900,0,,,,,,,,,,,,,,,,,,,
17749,1480714387761,,,,,59,,,0.01,0.06,1.0,-3.4,0.1,-0.2,900,0,1,0,0.0,0,37.478439,-122.203735,0.0,0.0,24.6,10,3,1.7,0,0.0,-1,0.0,,0.0,0
17769,1480714387781,,,,,,,,0.02,0.05,1.0,-3.4,0.0,-0.1,920,0,,,,,,,,,,,,,,,,,,,
17789,1480714387800,,,,,,,,0.02,0.05,1.0,-3.4,-0.1,-0.0,920,0,,,,,,,,,,,,,,,,,,,
17809,1480714387820,,,,,,,,0.02,0.05,1.0,-3.4,-0.1,0.1,920,0,,,,,,,,,,,,,,,,,,,
17829,1480714387840,,,,,,,,0.02,0.06,1.01,-3.4,0.1,0.2,920,0,,,,,,,,,,,,,,,,,,,
17849,1480714387860,0,48.0,,72.9,59,65.5,,0.02,0.06,1.0,-3.5,0.2,0.2,920,0,1,0,0.0,0,37.478439,-122.203735,0.0,0.0,24.6,10,3,1.7,0,0.0,-1,0.0,0.0,0.0,0
17869,1480714387880,,,,,,,,0.03,0.06,1.01,-3.5,0.2,0.2,920,0,,,,,,,,,,,,,,,,,,,
17889,1480714387894,,,,,,,,0.03,0.07,1.0,-3.4,-0.0,0.2,920,0,,,,,,,,,,,,,,,,,,,
17909,1480714387914,,,,,,,,0.02,0.08,1.0,-3.4,-0.2,0.1,920,0,,,,,,,,,,,,,,,,,,,
17929,1480714387934,,,,,,,,0.01,0.07,1.01,-3.4,-0.0,0.0,920,0,,,,,,,,,,,,,,,,,,,
17949,1480714387954,,,,,61,,,0.01,0.08,1.0,-3.4,0.0,-0.1,920,0,1,0,0.0,0,37.478439,-122.203735,0.0,0.0,24.6,10,3,1.7,0,0.0,-1,0.0,,0.0,0
17969,1480714387974,,,,,,,,0.01,0.07,1.0,-3.4,0.0,-0.2,920,0,,,,,,,,,,,,,,,,,,,
17989,1480714387996,,,,,,,,0.01,0.06,1.01,-3.4,0.0,-0.3,900,0,,,,,,,,,,,,,,,,,,,
18009,1480714388016,,,,,,,,0.01,0.06,1.0,-3.3,-0.1,-0.2,920,0,,,,,,,,,,,,,,,,,,,
18029,1480714388036,,,,,,,,0.02,0.06,1.0,-3.4,-0.1,-0.2,900,0,,,,,,,,,,,,,,,,,,,
18049,1480714388056,0,50.1,0.0,72.5,58,65.8,14.76,0.01,0.07,1.01,-3.4,-0.2,-0.1,900,0,1,0,0.0,0,37.478439,-122.203735,0.0,0.0,24.6,10,3,1.7,0,0.0,-1,0.0,0.0,0.0,0
18069,1480714388076,,,,,,,,0.01,0.07,1.01,-3.4,-0.2,0.0,900,0,,,,,,,,,,,,,,,,,,,
18089,1480714388200,,,,,,,,0.01,0.08,1.01,-3.5,-0.1,0.0,900,0,,,,,,,,,,,,,,,,,,,
18109,1480714388220,,,,,,,,0.02,0.08,1.01,-3.5,0.1,0.1,880,12,,,,,,,,,,,,,,,,,,,
18129,1480714388240,,,,,,,,0.01,0.09,1.01,-3.5,-0.1,0.0,880,49,,,,,,,,,,,,,,,,,,,
18149,1480714388260,,,,,59,,,0.01,0.1,1.02,-3.5,-0.2,-0.1,880,135,1,0,0.0,0,37.478439,-122.203735,0.0,0.0,24.6,10,3,1.7,0,0.0,-1,0.0,,0.0,0
18169,1480714388280,,,,,,,,-0.02,0.09,1.01,-3.5,-0.3,-0.2,860,152,,,,,,,,,,,,,,,,,,,
18189,1480714388300,,,,,,,,-0.03,0.08,1.02,-3.5,-0.1,-0.2,840,60,,,,,,,,,,,,,,,,,,,
18209,1480714388320,,,,,,,,-0.02,0.08,1.02,-3.5,0.1,-0.1,840,60,,,,,,,,,,,,,,,,,,,
18229,1480714388340,,,,,,,,-0.02,0.09,1.01,-3.6,-0.0,0.1,820,80,,,,,,,,,,,,,,,,,,,
18249,1480714388360,0,51.1,,73.1,57,65.7,,-0.02,0.09,1.01,-3.7,0.2,0.3,800,43,1,0,5.789,0,37.478439,-122.203735,0.0,0.0,24.6,10,3,1.7,0,0.0,-1,0.0,0.0,0.0,0
18269,1480714388380,,,,,,,,-0.03,0.09,1.02,-3.8,0.2,0.3,780,90,,,,,,,,,,,,,,,,,,,
18289,1480714388301,,,,,,,,-0.04,0.09,1.02,-3.8,0.2,0.2,760,90,,,,,,,,,,,,,,,,,,,
18309,1480714388321,,,,,,,,-0.04,0.09,1.01,-3.9,0.1,0.2,760,36,,,,,,,,,,,,,,,,,,,
18329,1480714388341,,,,,,,,-0.04,0.09,1.01,-4.0,0.1,0.3,740,36,,,,,,,,,,,,,,,,,,,
18349,1480714388361,,,,,54,,,-0.04,0.1,1.01,-4.1,-0.0,0.3,720,50,1,0,18.605,0,37.478439,-122.203735,0.0,0.0,24.6,10,3,1.7,0,0.0,-1,0.0,,0.0,0
18369,1480714388381,,,,,,,,-0.05,0.09,1.01,-4.2,-0.2,0.1,700,50,,,,,,,,,,,,,,,,,,,
18389,1480714388401,,,,,,,,-0.04,0.09,1.01,-4.3,-0.0,0.1,700,50,,,,,,,,,,,,,,,,,,,
18409,1480714388421,,,,,,,,-0.04,0.09,1.01,-4.4,0.0,0.2,680,50,,,,,,,,,,,,,,,,,,,
18429,1480714388441,,,,,,,,-0.04,0.08,1.02,-4.4,0.1,0.1,680,18,,,,,,,,,,,,,,,,,,,
18449,1480714388461,0,49.1,,72.5,53,66.9,,-0.04,0.08,1.02,-4.5,0.0,-0.0,680,18,1,0,14.4,0,37.478439,-122.203735,0.0,0.0,24.6,10,3,1.7,0,0.0,-1,0.0,0.0,0.0,0
18469,1480714388481,,,,,,,,-0.04,0.08,1.03,-4.6,-0.2,-0.0,680,18,,,,,,,,,,,,,,,,,,,
18489,1480714388501,,,,,,,,-0.03,0.08,1.01,-4.7,-0.3,0.0,660,18,,,,,,,,,,,,,,,,,,,
18509,1480714388521,,,,,,,,-0.03,0.08,1.01,-4.7,-0.3,0.0,660,20,,,,,,,,,,,,,,,,,,,
18529,1480714388541,,,,,,,,-0.03,0.09,1.02,-4.8,-0.3,0.0,660,20,,,,,,,,,,,,,,,,,,,
18549,1480714388561,,,,,53,,,-0.03,0.08,1.01,-4.9,-0.4,-0.0,640,33,1,0,37.778,0,37.478439,-122.203735,0.0,0.0,24.6,10,3,1.7,0,0.0,-1,0.0,,0.0,0
18569,1480714388581,,,,,,,,-0.03,0.09,1.01,-5.0,-0.3,0.0,640,33,,,,,,,,,,,,,,,,,,,
18589,1480714388601,,,,,,,,-0.02,0.09,1.01,-5.1,-0.3,0.0,640,33,,,,,,,,,,,,,,,,,,,
18609,1480714388621,,,,,,,,-0.03,0.08,1.01,-5.1,-0.4,-0.0,640,21,,,,,,,,,,,,,,,,,,,
18629,1480714388641,,,,,,,,-0.03,0.08,1.01,-5.2,-0.3,-0.0,640,21,,,,,,,,,,,,,,,,,,,
18649,1480714388661,0,52.0,,76.7,53,68.5,,-0.03,0.08,1.0,-5.3,-0.4,0.0,640,21,1,0,19.394,0,37.478439,-122.203735,0.0,0.0,24.6,10,3,1.7,0,0.0,-1,0.0,0.0,0.0,0
18669,1480714388681,,,,,,,,-0.03,0.08,1.0,-5.3,-0.4,-0.0,640,38,,,,,,,,,,,,,,,,,,,
18689,1480714388701,,,,,,,,-0.03,0.08,1.0,-5.4,-0.3,-0.1,640,38,,,,,,,,,,,,,,,,,,,
18709,1480714388721,,,,,,,,-0.03,0.08,1.0,-5.5,-0.4,-0.0,640,26,,,,,,,,,,,,,,,,,,,
18729,1480714388741,,,,,,,,-0.03,0.08,1.01,-5.5,-0.3,-0.1,660,26,,,,,,,,,,,,,,,,,,,
18749,1480714388761,,,,,52,,,-0.03,0.08,1.01,-5.5,-0.3,-0.1,660,38,1,0,16.842,0,37.478439,-122.203735,0.0,0.0,24.6,10,3,1.7,0,0.0,-1,0.0,,0.0,0
18769,1480714388781,,,,,,,,-0.03,0.08,1.01,-5.6,-0.4,-0.1,660,38,,,,,,,,,,,,,,,,,,,
18789,1480714388801,,,,,,,,-0.03,0.07,1.02,-5.6,-0.4,-0.2,660,29,,,,,,,,,,,,,,,,,,,
18809,1480714388821,,,,,,,,-0.03,0.07,1.02,-5.6,-0.3,-0.1,660,29,,,,,,,,,,,,,,,,,,,
18829,1480714388841,,,,,,,,-0.03,0.07,1.02,-5.6,-0.3,-0.1,680,40,,,,,,,,,,,,,,,,,,,
18849,1480714388861,0,48.2,,73.2,54,68.3,,-0.04,0.06,1.02,-5.7,-0.4,-0.1,680,40,1,0,17.368,0,37.478439,-122.203735,0.0,0.0,24.6,10,3,1.7,0,0.0,-1,0.0,0.0,0.0,0
18869,1480714388881,,,,,,,,-0.04,0.06,1.02,-5.7,-0.3,-0.1,680,32,,,,,,,,,,,,,,,,,,,
18889,1480714388993,,,,,,,,-0.03,0.06,1.02,-5.8,-0.3,-0.1,700,32,,,,,,,,,,,,,,,,,,,
18909,1480714389013,,,,,,,,-0.02,0.07,1.01,-5.8,-0.5,-0.1,700,43,,,,,,,,,,,,,,,,,,,
18929,1480714389033,,,,,,,,-0.02,0.06,1.01,-5.8,-0.6,-0.1,720,43,,,,,,,,,,,,,,,,,,,
18949,1480714389053,,,,,55,,,-0.02,0.06,1.01,-5.8,-0.4,-0.1,720,35,1,0,17.0,0,37.478439,-122.203735,0.0,0.0,24.6,10,3,1.7,0,0.0,-1,0.0,,0.0,0
18969,1480714389073,,,,,,,,-0.02,0.07,1.0,-5.8,-0.3,0.1,740,35,,,,,,,,,,,,,,,,,,,
18989,1480714389093,,,,,,,,-0.02,0.07,1.0,-5.8,-0.5,0.1,760,44,,,,,,,,,,,,,,,,,,,
19009,1480714389113,,,,,,,,-0.02,0.07,1.0,-5.8,-0.5,-0.1,780,44,,,,,,,,,,,,,,,,,,,
19029,1480714389133,,,,,,,,-0.02,0.06,0.99,-5.8,-0.4,-0.2,780,38,,,,,,,,,,,,,,,,,,,
19049,1480714389153,0,51.1,0.6,76.4,59,69.1,14.93,-0.02,0.06,0.99,-5.9,-0.3,-0.1,800,38,1,0,21.143,0,37.478439,-122.203735,0.0,0.0,24.6,10,3,1.7,0,0.0,-1,0.0,0.0,0.0,0
19069,1480714389173,,,,,,,,-0.01,0.07,0.99,-5.9,-0.1,0.0,800,44,,,,,,,,,,,,,,,,,,,
19089,1480714389101,,,,,,,,-0.01,0.07,1.0,-5.9,-0.3,-0.1,820,44,,,,,,,,,,,,,,,,,,,
19109,1480714389121,,,,,,,,-0.02,0.07,1.0,-5.9,-0.2,-0.2,840,43,,,,,,,,,,,,,,,,,,,
19129,1480714389141,,,,,,,,-0.02,0.06,0.99,-5.8,-0.2,-0.3,860,41,,,,,,,,,,,,,,,,,,,
19149,1480714389161,,,,,59,,,-0.02,0.05,0.98,-5.8,-0.1,-0.3,860,41,1,0,18.182,0,37.478439,-122.203735,0.0,0.0,24.6,10,3,1.7,0,0.0,-1,0.0,,0.0,0
19169,1480714389181,,,,,,,,-0.01,0.06,0.98,-5.8,-0.3,-0.2,860,49,,,,,,,,,,,,,,,,,,,
19189,1480714389201,,,,,,,,-0.01,0.06,0.98,-5.9,-0.1,-0.1,880,49,,,,,,,,,,,,,,,,,,,
19209,1480714389221,,,,,,,,-0.0,0.07,0.99,-5.9,-0.0,-0.0,880,41,,,,,,,,,,,,,,,,,,,
19229,1480714389241,,,,,,,,-0.0,0.08,1.0,-5.9,-0.2,-0.0,880,49,,,,,,,,,,,,,,,,,,,
19249,1480714389261,0,51.2,,73.1,59,66.0,,-0.01,0.08,1.01,-5.9,-0.3,-0.0,880,49,1,0,17.551,0,37.478439,-122.203735,0.0,0.0,24.6,10,3,1.7,0,0.0,-1,0.0,0.0,0.0,0
19269,1480714389281,,,,,,,,-0.02,0.08,1.01,-5.8,-0.1,-0.1,900,49,,,,,,,,,,,,,,,,,,,
19289,1480714389302,,,,,,,,-0.02,0.08,1.0,-5.7,-0.1,-0.1,900,46,,,,,,,,,,,,,,,,,,,
19309,1480714389322,,,,,,,,-0.02,0.07,0.99,-5.7,-0.1,-0.2,900,46,,,,,,,,,,,,,,,,,,,
19329,1480714389342,,,,,,,,-0.02,0.06,0.99,-5.6,-0.0,-0.2,900,52,,,,,,,,,,,,,,,,,,,
19349,1480714389362,,,,,57,,,-0.02,0.06,0.99,-5.6,-0.1,-0.2,880,50,1,0,17.959,0,37.478439,-122.203735,0.0,0.0,24.6,10,3,1.7,0,0.0,-1,0.0,,0.0,0
19369,1480714389382,,,,,,,,-0.02,0.06,0.98,-5.6,-0.2,-0.1,880,50,,,,,,,,,,,,,,,,,,,
19389,1480714389401,,,,,,,,-0.01,0.06,0.99,-5.6,0.0,0.0,880,49,,,,,,,,,,,,,,,,,,,
19409,1480714389421,,,,,,,,0.0,0.07,0.99,-5.6,0.1,0.1,900,53,,,,,,,,,,,,,,,,,,,
19429,1480714389441,,,,,,,,0.0,0.08,0.99,-5.5,-0.1,0.1,900,53,,,,,,,,,,,,,,,,,,,
19449,1480714389461,0,52.1,,75.8,59,65.8,,-0.0,0.07,1.0,-5.5,-0.3,0.1,880,50,1,0,17.6,0,37.478439,-122.203735,0.0,0.0,24.6,10,3,1.7,0,0.0,-1,0.0,0.0,0.0,0
19469,1480714389481,,,,,,,,-0.01,0.08,1.0,-5.4,-0.3,-0.0,880,52,,,,,,,,,,,,,,,,,,,
19489,1480714389501,,,,,,,,-0.01,0.08,0.99,-5.4,-0.2,-0.2,860,52,,,,,,,,,,,,,,,,,,,
19509,1480714389521,,,,,,,,-0.01,0.06,0.98,-5.4,-0.2,-0.2,860,53,,,,,,,,,,,,,,,,,,,
19529,1480714389541,,,,,,,,-0.0,0.06,0.98,-5.3,-0.2,-0.2,860,50,,,,,,,,,,,,,,,,,,,
19549,1480714389561,,,,,58,,,-0.01,0.06,0.98,-5.3,-0.4,-0.1,860,55,1,0,17.6,0,37.478439,-122.203735,0.0,0.0,24.6,10,3,1.7,0,0.0,-1,0.0,,0.0,0
19569,1480714389581,,,,,,,,0.0,0.07,0.99,-5.3,-0.0,-0.1,860,55,,,,,,,,,,,,,,,,,,,
19589,1480714389601,,,,,,,,0.0,0.07,0.99,-5.2,-0.1,-0.1,840,53,,,,,,,,,,,,,,,,,,,
19609,1480714389621,,,,,,,,-0.0,0.07,1.0,-5.2,-0.2,-0.1,820,53,,,,,,,,,,,,,,,,,,,
19629,1480714389641,,,,,,,,-0.0,0.07,1.0,-5.1,-0.2,-0.2,820,56,,,,,,,,,,,,,,,,,,,
19649,1480714389661,1,49.9,,75.5,56,69.5,,-0.0,0.07,0.99,-5.1,-0.0,-0.2,800,56,1,0,15.636,0,37.478439,-122.203735,0.0,0.0,24.6,10,3,1.7,0,0.0,-1,0.0,0.0,0.0,0
19669,1480714389681,,,,,,,,-0.0,0.07,0.99,-5.1,-0.1,-0.1,800,56,,,,,,,,,,,,,,,,,,,
19689,1480714389800,,,,,,,,-0.0,0.07,0.99,-5.1,-0.1,-0.0,800,55,,,,,,,,,,,,,,,,,,,
19709,1480714389820,,,,,,,,0.0,0.08,0.99,-5.1,-0.2,-0.0,800,56,,,,,,,,,,,,,,,,,,,
19729,1480714389840,,,,,,,,-0.0,0.07,1.0,-5.0,-0.2,-0.1,800,56,,,,,,,,,,,,,,,,,,,
19749,1480714389860,,,,,54,,,-0.01,0.07,1.0,-5.0,-0.2,-0.3,800,58,1,0,14.286,0,37.478439,-122.203735,0.0,0.0,24.6,10,3,1.7,0,0.0,-1,0.0,,0.0,0
19769,1480714389880,,,,,,,,-0.0,0.07,0.99,-4.9,-0.0,-0.2,800,58,,,,,,,,,,,,,,,,,,,
19789,1480714389900,,,,,,,,0.0,0.08,0.99,-4.9,-0.1,-0.1,800,56,,,,,,,,,,,,,,,,,,,
19809,1480714389920,,,,,,,,0.0,0.08,1.0,-4.9,-0.1,-0.1,780,56,,,,,,,,,,,,,,,,,,,
19829,1480714389940,,,,,,,,-0.0,0.08,1.01,-4.8,-0.1,-0.1,800,61,,,,,,,,,,,,,,,,,,,
19849,1480714389960,0,51.1,,73.2,53,66.3,,-0.01,0.07,1.01,-4.7,-0.1,-0.2,800,63,1,0,13.793,0,37.478439,-122.203735,0.0,0.0,24.6,10,3,1.7,0,0.0,-1,0.0,0.0,0.0,0
19869,1480714389980,,,,,,,,-0.0,0.07,1.01,-4.7,-0.0,-0.2,800,56,,,,,,,,,,,,,,,,,,,
19889,1480714389894,,,,,,,,0.0,0.07,1.01,-4.7,-0.1,-0.2,800,58,,,,,,,,,,,,,,,,,,,
19909,1480714389914,,,,,,,,0.01,0.08,1.01,-4.7,-0.0,-0.1,780,58,,,,,,,,,,,,,,,,,,,
19929,1480714389934,,,,,,,,-0.0,0.07,1.02,-4.7,-0.2,-0.2,780,63,,,,,,,,,,,,,,,,,,,
19949,1480714389954,,,,,52,,,-0.0,0.07,1.02,-4.6,-0.1,-0.3,780,60,1,0,12.698,0,37.478439,-122.203735,0.0,0.0,24.6,10,3,1.7,0,0.0,-1,0.0,,0.0,0
19969,1480714389974,,,,,,,,0.0,0.07,1.0,-4.6,-0.1,-0.3,780,60,,,,,,,,,,,,,,,,,,,
19989,1480714390000,,,,,,,,0.01,0.07,1.0,-4.6,-0.1,-0.2,800,63,,,,,,,,,,,,,,,,,,,
20009,1480714390020,,,,,,,,0.02,0.07,1.0,-4.5,-0.1,-0.2,800,63,,,,,,,,,,,,,,,,,,,
20029,1480714390040,,,,,,,,0.01,0.07,1.01,-4.5,-0.2,-0.3,800,63,,,,,,,,,,,,,,,,,,,
20049,1480714390060,0,52.5,0.8,76.2,55,66.7,14.88,0.01,0.07,1.01,-4.4,-0.2,-0.5,800,63,1,0,13.0,0,37.478439,-122.203735,0.93,0.0,30.1,10,3,1.7,0,0.0,-1,0.0,0.0,0.0,0
20069,1480714390080,,,,,,,,0.01,0.07,1.0,-4.3,-0.2,-0.6,800,63,,,,,,,,,,,,,,,,,,,
20089,1480714390101,,,,,,,,0.02,0.06,1.0,-4.3,-0.2,-0.5,800,61,,,,,,,,,,,,,,,,,,,
20109,1480714390121,,,,,,,,0.02,0.07,1.0,-4.2,0.0,-0.4,800,63,,,,,,,,,,,,,,,,,,,
20129,1480714390141,,,,,,,,0.02,0.07,1.0,-4.1,-0.2,-0.4,820,63,,,,,,,,,,,,,,,,,,,
20149,1480714390161,,,,,57,,,0.01,0.06,1.01,-4.0,-0.1,-0.6,820,64,1,0,12.698,0,37.478439,-122.203735,1.05,0.0,30.0,10,3,1.7,0,0.0,-1,0.0,,0.0,0
20169,1480714390181,,,,,,,,0.01,0.06,1.0,-3.9,-0.2,-0.8,820,61,,,,,,,,,,,,,,,,,,,
20189,1480714390201,,,,,,,,0.01,0.06,1.0,-3.8,-0.1,-0.7,820,63,,,,,,,,,,,,,,,,,,,
20209,1480714390221,,,,,,,,0.01,0.06,1.0,-3.7,-0.1,-0.6,820,67,,,,,,,,,,,,,,,,,,,
20229,1480714390241,,,,,,,,0.01,0.06,1.01,-3.6,-0.0,-0.5,820,66,,,,,,,,,,,,,,,,,,,
20249,1480714390261,0,52.4,,76.7,55,68.4,,0.01,0.06,1.02,-3.5,-0.1,-0.5,820,63,1,0,13.443,0,37.478439,-122.203735,1.13,0.0,30.0,10,3,1.7,0,0.0,-1,0.0,0.0,0.0,0
20269,1480714390281,,,,,,,,0.0,0.06,1.02,-3.4,-0.1,-0.5,820,63,,,,,,,,,,,,,,,,,,,
20289,1480714390302,,,,,,,,-0.0,0.06,1.01,-3.4,-0.1,-0.6,840,66,,,,,,,,,,,,,,,,,,,
20309,1480714390322,,,,,,,,0.01,0.06,1.0,-3.4,0.0,-0.6,840,67,,,,,,,,,,,,,,,,,,,
20329,1480714390342,,,,,,,,0.01,0.06,1.0,-3.4,-0.1,-0.5,840,67,,,,,,,,,,,,,,,,,,,
20349,1480714390362,,,,,58,,,0.02,0.06,1.0,-3.3,0.1,-0.5,840,66,1,0,13.016,0,37.478439,-122.203735,1.07,0.0,29.9,10,3,1.7,0,0.0,-1,0.0,,0.0,0
20369,1480714390382,,,,,,,,0.02,0.07,1.0,-3.3,-0.0,-0.5,840,64,,,,,,,,,,,,,,,,,,,
20389,1480714390401,,,,,,,,0.01,0.06,1.01,-3.2,-0.1,-0.5,840,64,,,,,,,,,,,,,,,,,,,
20409,1480714390421,,,,,,,,0.0,0.06,1.0,-3.1,-0.1,-0.6,840,69,,,,,,,,,,,,,,,,,,,
20429,1480714390441,,,,,,,,0.0,0.06,0.99,-3.0,0.0,-0.6,840,69,,,,,,,,,,,,,,,,,,,
20449,1480714390461,0,49.4,,75.3,57,69.5,,0.01,0.06,0.99,-3.0,-0.0,-0.5,840,67,1,0,12.727,0,37.478439,-122.203735,1.12,0.0,29.8,10,3,1.7,0,0.0,-1,0.0,0.0,0.0,0
20469,1480714390481,,,,,,,,0.01,0.06,1.0,-2.9,-0.0,-0.4,840,63,,,,,,,,,,,,,,,,,,,
20489,1480714390601,,,,,,,,0.02,0.07,1.0,-2.9,0.1,-0.3,840,64,,,,,,,,,,,,,,,,,,,
20509,1480714390621,,,,,,,,0.01,0.06,1.0,-2.8,-0.1,-0.3,840,69,,,,,,,,,,,,,,,,,,,
20529,1480714390641,,,,,,,,0.01,0.06,1.01,-2.7,-0.1,-0.3,840,67,,,,,,,,,,,,,,,,,,,
20549,1480714390661,,,,,57,,,0.01,0.06,1.0,-2.7,-0.0,-0.4,840,64,1,0,13.333,0,37.478439,-122.203735,1.05,0.0,29.7,10,3,1.7,0,0.0,-1,0.0,,0.0,0
20569,1480714390681,,,,,,,,0.01,0.05,0.99,-2.6,0.2,-0.5,860,64,,,,,,,,,,,,,,,,,,,
20589,1480714390701,,,,,,,,0.01,0.05,0.99,-2.6,0.2,-0.4,860,63,,,,,,,,,,,,,,,,,,,
20609,1480714390721,,,,,,,,0.01,0.05,0.99,-2.7,0.1,-0.3,860,67,,,,,,,,,,,,,,,,,,,
20629,1480714390741,,,,,,,,0.01,0.06,1.0,-2.6,0.2,-0.2,860,69,,,,,,,,,,,,,,,,,,,
20649,1480714390761,0,52.4,,77.0,58,68.3,,0.01,0.07,1.0,-2.6,0.1,-0.2,840,66,1,0,13.125,0,37.478439,-122.203735,1.05,0.0,29.7,10,3,1.7,0,0.0,-1,0.0,0.0,0.0,0
20669,1480714390781,,,,,,,,0.01,0.06,1.01,-2.6,0.1,-0.2,860,63,,,,,,,,,,,,,,,,,,,
20689,1480714390701,,,,,,,,0.0,0.06,1.0,-2.5,0.1,-0.3,860,69,,,,,,,,,,,,,,,,,,,
20709,1480714390721,,,,,,,,-0.0,0.06,1.0,-2.4,0.1,-0.4,860,72,,,,,,,,,,,,,,,,,,,
20729,1480714390741,,,,,,,,0.0,0.06,1.0,-2.4,0.3,-0.4,880,67,,,,,,,,,,,,,,,,,,,
20749,1480714390761,,,,,59,,,0.01,0.07,1.0,-2.4,0.2,-0.3,880,67,1,0,12.727,0,37.478439,-122.203735,1.06,0.0,29.6,10,3,1.7,0,0.0,-1,0.0,,0.0,0
20769,1480714390781,,,,,,,,0.01,0.07,1.01,-2.4,0.1,-0.2,880,61,,,,,,,,,,,,,,,,,,,
20789,1480714390801,,,,,,,,0.01,0.07,1.02,-2.4,0.2,-0.2,880,61,,,,,,,,,,,,,,,,,,,
20809,1480714390821,,,,,,,,0.01,0.08,1.02,-2.4,0.1,-0.2,880,61,,,,,,,,,,,,,,,,,,,
20829,1480714390841,,,,,,,,0.01,0.07,1.02,-2.4,-0.0,-0.2,880,60,,,,,,,,,,,,,,,,,,,
20849,1480714390861,0,50.8,,73.2,59,66.6,,0.0,0.07,1.01,-2.3,-0.1,-0.2,900,60,1,0,14.426,0,37.478439,-122.203735,1.08,0.0,29.6,10,3,1.7,0,0.0,-1,0.0,0.0,0.0,0
20869,1480714390881,,,,,,,,0.0,0.07,1.01,-2.3,0.0,-0.3,900,55,,,,,,,,,,,,,,,,,,,
20889,1480714390894,,,,,,,,0.01,0.06,1.01,-2.4,0.0,-0.4,920,55,,,,,,,,,,,,,,,,,,,
20909,1480714390914,,,,,,,,0.02,0.07,1.01,-2.4,-0.1,-0.3,900,49,,,,,,,,,,,,,,,,,,,
20929,1480714390934,,,,,,,,0.02,0.07,1.01,-2.5,-0.1,-0.3,900,46,,,,,,,,,,,,,,,,,,,
20949,1480714390954,,,,,61,,,0.02,0.07,1.0,-2.5,-0.1,-0.2,900,46,1,0,15.0,0,37.478439,-122.203735,1.07,0.0,29.5,10,3,1.7,0,0.0,-1,0.0,,0.0,0
20969,1480714390974,,,,,,,,0.02,0.07,1.0,-2.6,-0.1,-0.1,920,43,,,,,,,,,,,,,,,,,,,
20989,1480714391000,,,,,,,,0.02,0.07,1.01,-2.6,-0.0,0.0,920,46,,,,,,,,,,,,,,,,,,,
21009,1480714391020,,,,,,,,0.03,0.08,1.01,-2.6,0.2,0.1,920,46,,,,,,,,,,,,,,,,,,,
21029,1480714391040,,,,,,,,0.03,0.08,1.01,-2.6,0.2,0.1,920,49,,,,,,,,,,,,,,,,,,,
21049,1480714391060,0,52.4,0.9,76.8,62,68.6,14.93,0.03,0.09,1.0,-2.7,-0.1,0.1,920,53,1,0,20.0,0,37.478439,-122.203735,1.13,0.0,29.5,10,3,1.7,0,0.0,-1,0.0,0.0,0.0,0
21069,1480714391080,,,,,,,,0.02,0.09,1.01,-2.7,-0.2,0.0,920,53,,,,,,,,,,,,,,,,,,,
21089,1480714391101,,,,,,,,0.02,0.09,1.01,-2.7,-0.1,-0.0,920,56,,,,,,,,,,,,,,,,,,,
21109,1480714391121,,,,,,,,0.01,0.08,1.01,-2.7,0.2,-0.1,940,58,,,,,,,,,,,,,,,,,,,
21129,1480714391141,,,,,,,,0.01,0.08,1.0,-2.7,0.3,-0.2,940,60,,,,,,,,,,,,,,,,,,,
21149,1480714391161,,,,,62,,,0.02,0.08,1.0,-2.7,0.2,-0.3,940,61,1,0,17.358,0,37.478439,-122.203735,1.16,0.0,29.5,10,3,1.7,0,0.0,-1,0.0,,0.0,0
21169,1480714391181,,,,,,,,0.02,0.07,0.99,-2.8,0.1,-0.2,940,61,,,,,,,,,,,,,,,,,,,
21189,1480714391202,,,,,,,,0.02,0.06,1.0,-2.9,0.1,-0.3,920,60,,,,,,,,,,,,,,,,,,,
21209,1480714391222,,,,,,,,0.02,0.06,1.0,-2.9,0.2,-0.2,940,60,,,,,,,,,,,,,,,,,,,
21229,1480714391242,,,,,,,,0.03,0.07,1.0,-3.0,0.2,-0.2,940,60,,,,,,,,,,,,,,,,,,,
21249,1480714391262,1,52.1,,77.4,60,68.9,,0.03,0.07,1.0,-3.0,0.1,-0.1,940,58,1,0,15.41,0,37.478439,-122.203735,1.15,0.0,29.5,10,3,1.7,0,0.0,-1,0.0,0.0,0.0,0
21269,1480714391282,,,,,,,,0.03,0.07,1.0,-3.1,0.0,-0.0,940,58,,,,,,,,,,,,,,,,,,,
21289,1480714391401,,,,,,,,0.03,0.07,1.0,-3.1,-0.0,-0.0,920,58,,,,,,,,,,,,,,,,,,,
21309,1480714391421,,,,,,,,0.03,0.08,1.0,-3.1,0.1,-0.0,920,56,,,,,,,,,,,,,,,,,,,
21329,1480714391441,,,,,,,,0.03,0.09,1.01,-3.2,0.4,-0.1,920,56,,,,,,,,,,,,,,,,,,,
21349,1480714391461,,,,,59,,,0.04,0.09,1.01,-3.2,0.3,-0.1,940,56,1,0,16.207,0,37.478439,-122.203735,1.03,0.0,29.4,10,3,1.7,0,0.0,-1,0.0,,0.0,0
21369,1480714391481,,,,,,,,0.04,0.09,1.01,-3.2,0.1,-0.1,940,56,,,,,,,,,,,,,,,,,,,
21389,1480714391501,,,,,,,,0.03,0.09,1.0,-3.2,-0.1,-0.1,940,55,,,,,,,,,,,,,,,,,,,
21409,1480714391521,,,,,,,,0.02,0.09,1.0,-3.2,-0.1,-0.1,940,55,,,,,,,,,,,,,,,,,,,
21429,1480714391541,,,,,,,,0.02,0.08,1.0,-3.2,0.2,-0.2,940,55,,,,,,,,,,,,,,,,,,,
21449,1480714391561,0,51.1,,77.3,60,69.6,,0.02,0.08,1.0,-3.2,0.5,-0.2,920,53,1,0,16.786,0,37.478439,-122.203735,1.03,0.0,29.4,10,3,1.7,0,0.0,-1,0.0,0.0,0.0,0
21469,1480714391581,,,,,,,,0.02,0.08,1.0,-3.2,0.5,-0.3,940,53,,,,,,,,,,,,,,,,,,,
21489,1480714391503,,,,,,,,0.02,0.08,1.0,-3.2,0.3,-0.3,940,53,,,,,,,,,,,,,,,,,,,
21509,1480714391523,,,,,,,,0.02,0.07,1.0,-3.2,0.2,-0.4,940,52,,,,,,,,,,,,,,,,,,,
21529,1480714391543,,,,,,,,0.03,0.06,1.01,-3.2,0.2,-0.3,940,52,,,,,,,,,,,,,,,,,,,
21549,1480714391563,,,,,60,,,0.03,0.06,1.01,-3.2,0.4,-0.3,920,52,1,0,17.358,0,37.478439,-122.203735,1.05,0.0,29.4,10,3,1.7,0,0.0,-1,0.0,,0.0,0
21569,1480714391583,,,,,,,,0.04,0.06,1.01,-3.2,0.4,-0.3,920,52,,,,,,,,,,,,,,,,,,,
21589,1480714391602,,,,,,,,0.04,0.06,1.01,-3.2,0.4,-0.2,920,50,,,,,,,,,,,,,,,,,,,
21609,1480714391622,,,,,,,,0.03,0.06,1.01,-3.3,0.2,-0.2,920,50,,,,,,,,,,,,,,,,,,,
21629,1480714391642,,,,,,,,0.03,0.06,1.01,-3.3,0.3,-0.1,920,49,,,,,,,,,,,,,,,,,,,
21649,1480714391662,0,50.5,,73.5,57,66.9,,0.04,0.06,1.01,-3.3,0.5,-0.1,940,49,1,0,17.692,0,37.478439,-122.203735,0.99,0.0,29.3,10,3,1.7,0,0.0,-1,0.0,0.0,0.0,0
21669,1480714391682,,,,,,,,0.04,0.07,1.01,-3.3,0.6,-0.1,920,49,,,,,,,,,,,,,,,,,,,
21689,1480714391702,,,,,,,,0.04,0.07,1.01,-3.3,0.4,-0.1,920,49,,,,,,,,,,,,,,,,,,,
21709,1480714391722,,,,,,,,0.04,0.07,1.01,-3.3,0.1,-0.1,900,47,,,,,,,,,,,,,,,,,,,
21729,1480714391742,,,,,,,,0.03,0.06,1.01,-3.3,0.1,-0.1,920,47,,,,,,,,,,,,,,,,,,,
21749,1480714391762,,,,,57,,,0.03,0.06,1.01,-3.4,0.3,-0.1,920,46,1,0,18.776,0,37.478439,-122.203735,0.0,0.0,29.3,10,3,1.7,0,0.0,-1,0.0,,0.0,0
21769,1480714391782,,,,,,,,0.03,0.06,1.0,-3.4,0.4,-0.2,920,46,,,,,,,,,,,,,,,,,,,
21789,1480714391802,,,,,,,,0.03,0.05,1.0,-3.4,0.3,-0.2,900,46,,,,,,,,,,,,,,,,,,,
21809,1480714391822,,,,,,,,0.03,0.05,1.0,-3.4,0.2,-0.1,900,46,,,,,,,,,,,,,,,,,,,
21829,1480714391842,,,,,,,,0.04,0.05,1.01,-3.4,0.3,-0.1,900,46,,,,,,,,,,,,,,,,,,,
21849,1480714391862,5,48.8,,76.8,57,66.6,,0.04,0.05,1.0,-3.4,0.2,0.0,900,44,1,0,20.0,0,37.478439,-122.203735,0.0,0.0,29.3,10,3,1.7,0,0.0,-1,0.0,0.0,0.0,0
21869,1480714391882,,,,,,,,0.04,0.06,1.0,-3.4,0.1,0.1,900,44,,,,,,,,,,,,,,,,,,,
21889,1480714391895,,,,,,,,0.03,0.06,1.01,-3.4,0.1,0.1,920,44,,,,,,,,,,,,,,,,,,,
21909,1480714391915,,,,,,,,0.04,0.07,1.01,-3.4,0.3,0.2,920,44,,,,,,,,,,,,,,,,,,,
21929,1480714391935,,,,,,,,0.04,0.08,1.01,-3.4,0.4,0.1,920,43,,,,,,,,,,,,,,,,,,,
21949,1480714391955,,,,,56,,,0.04,0.08,1.01,-3.4,0.1,0.1,900,41,1,0,20.455,0,37.478439,-122.203735,0.92,0.0,29.4,10,3,1.7,0,0.0,-1,0.0,,0.0,0
21969,1480714391975,,,,,,,,0.03,0.09,1.01,-3.4,-0.0,0.1,900,41,,,,,,,,,,,,,,,,,,,
21989,1480714392002,,,,,,,,0.02,0.08,1.02,-3.4,0.1,0.0,900,41,,,,,,,,,,,,,,,,,,,
22009,1480714392022,,,,,,,,0.02,0.08,1.01,-3.4,0.4,-0.1,920,41,,,,,,,,,,,,,,,,,,,
22029,1480714392042,,,,,,,,0.01,0.08,1.01,-3.3,0.4,-0.2,920,40,,,,,,,,,,,,,,,,,,,
22049,1480714392062,0,52.0,0.7,77.0,57,68.6,14.95,0.01,0.07,1.01,-3.4,0.3,-0.3,920,40,1,0,21.951,0,37.478439,-122.203735,0.95,0.0,29.4,10,3,1.7,0,0.0,-1,0.0,0.0,0.0,0
22069,1480714392082,,,,,,,,0.02,0.07,1.02,-3.4,0.3,-0.3,900,40,,,,,,,,,,,,,,,,,,,
22089,1480714392202,,,,,,,,0.02,0.07,1.01,-3.4,0.3,-0.2,900,40,,,,,,,,,,,,,,,,,,,
22109,1480714392222,,,,,,,,0.02,0.07,1.02,-3.4,0.2,-0.2,900,38,,,,,,,,,,,,,,,,,,,
22129,1480714392242,,,,,,,,0.02,0.07,1.01,-3.4,0.1,-0.1,900,38,,,,,,,,,,,,,,,,,,,
22149,1480714392262,,,,,56,,,0.02,0.07,1.02,-3.4,0.3,0.0,900,38,1,0,23.0,0,37.478439,-122.203735,0.0,0.0,29.4,10,3,1.7,0,0.0,-1,0.0,,0.0,0
22169,1480714392282,,,,,,,,0.03,0.07,1.01,-3.3,0.4,0.0,920,38,,,,,,,,,,,,,,,,,,,
22189,1480714392302,,,,,,,,0.04,0.07,1.02,-3.2,0.1,0.0,880,36,,,,,,,,,,,,,,,,,,,
22209,1480714392322,,,,,,,,0.03,0.06,1.02,-3.2,-0.0,-0.1,880,36,,,,,,,,,,,,,,,,,,,
22229,1480714392342,,,,,,,,0.03,0.06,1.02,-3.1,0.1,-0.1,880,35,,,,,,,,,,,,,,,,,,,
22249,1480714392362,0,51.9,,76.8,57,67.7,,0.03,0.06,1.0,-3.0,0.1,-0.2,880,35,1,0,24.211,0,37.478439,-122.203735,0.0,0.0,29.4,10,3,1.7,0,0.0,-1,0.0,0.0,0.0,0
22269,1480714392382,,,,,,,,0.03,0.06,1.0,-3.0,0.0,-0.3,880,33,,,,,,,,,,,,,,,,,,,
22289,1480714392301,,,,,,,,0.04,0.06,1.0,-3.0,0.1,-0.2,900,33,,,,,,,,,,,,,,,,,,,
22309,1480714392321,,,,,,,,0.04,0.06,1.0,-2.9,0.0,-0.2,900,33,,,,,,,,,,,,,,,,,,,
22329,1480714392341,,,,,,,,0.03,0.06,1.0,-2.9,-0.1,-0.1,880,33,,,,,,,,,,,,,,,,,,,
22349,1480714392361,,,,,55,,,0.04,0.06,1.01,-2.9,0.1,-0.1,880,33,1,0,25.143,0,37.478439,-122.203735,0.0,0.0,29.4,10,3,1.7,0,0.0,-1,0.0,,0.0,0
22369,1480714392381,,,,,,,,0.04,0.06,1.01,-2.9,0.1,-0.1,880,32,,,,,,,,,,,,,,,,,,,
22389,1480714392402,,,,,,,,0.04,0.06,1.0,-2.9,-0.2,-0.1,880,32,,,,,,,,,,,,,,,,,,,
22409,1480714392422,,,,,,,,0.03,0.06,1.01,-2.8,-0.1,-0.1,880,32,,,,,,,,,,,,,,,,,,,
22429,1480714392442,,,,,,,,0.03,0.06,0.99,-2.8,0.0,-0.2,900,30,,,,,,,,,,,,,,,,,,,
22449,1480714392462,0,49.3,,74.6,56,67.8,,0.03,0.06,1.0,-2.7,-0.0,-0.3,880,30,1,0,26.667,0,37.478439,-122.203735,0.0,0.0,29.4,10,3,1.7,0,0.0,-1,0.0,0.0,0.0,0
22469,1480714392482,,,,,,,,0.03,0.05,1.0,-2.7,0.1,-0.3,860,29,,,,,,,,,,,,,,,,,,,
22489,1480714392502,,,,,,,,0.04,0.06,1.0,-2.7,0.0,-0.2,860,29,,,,,,,,,,,,,,,,,,,
22509,1480714392522,,,,,,,,0.04,0.06,1.0,-2.7,0.0,-0.1,860,29,,,,,,,,,,,,,,,,,,,
22529,1480714392542,,,,,,,,0.04,0.07,1.0,-2.7,0.3,-0.1,880,27,,,,,,,,,,,,,,,,,,,
22549,1480714392562,,,,,56,,,0.04,0.07,1.01,-2.7,0.2,-0.0,880,27,1,0,29.333,0,37.478439,-122.203735,0.0,0.0,29.4,10,3,1.7,0,0.0,-1,0.0,,0.0,0
22569,1480714392582,,,,,,,,0.03,0.07,1.01,-2.6,-0.0,-0.1,900,27,,,,,,,,,,,,,,,,,,,
22589,1480714392602,,,,,,,,0.03,0.07,1.01,-2.6,0.0,-0.1,880,26,,,,,,,,,,,,,,,,,,,
22609,1480714392622,,,,,,,,0.03,0.07,1.0,-2.6,0.1,-0.2,860,26,,,,,,,,,,,,,,,,,,,
22629,1480714392642,,,,,,,,0.03,0.06,1.0,-2.6,0.2,-0.2,860,26,,,,,,,,,,,,,,,,,,,
22649,1480714392662,1,51.1,,74.4,55,66.7,,0.03,0.07,1.0,-2.6,0.2,-0.2,880,24,1,0,32.593,0,37.478439,-122.203735,0.0,0.0,29.4,10,3,1.7,0,0.0,-1,0.0,0.0,0.0,0
22669,1480714392682,,,,,,,,0.04,0.07,1.0,-2.6,0.1,-0.1,880,24,,,,,,,,,,,,,,,,,,,
22689,1480714392702,,,,,,,,0.03,0.08,1.0,-2.6,0.1,-0.1,880,24,,,,,,,,,,,,,,,,,,,
22709,1480714392722,,,,,,,,0.04,0.08,1.01,-2.6,0.3,-0.0,900,23,,,,,,,,,,,,,,,,,,,
22729,1480714392742,,,,,,,,0.04,0.08,1.01,-2.6,0.1,-0.1,860,23,,,,,,,,,,,,,,,,,,,
22749,1480714392762,,,,,57,,,0.03,0.08,1.01,-2.6,-0.1,-0.1,860,23,1,0,36.667,0,37.478439,-122.203735,0.0,0.0,29.4,10,3,1.7,0,0.0,-1,0.0,,0.0,0
22769,1480714392782,,,,,,,,0.03,0.07,1.01,-2.5,0.1,-0.2,860,23,,,,,,,,,,,,,,,,,,,
22789,1480714392803,,,,,,,,0.03,0.07,1.0,-2.5,0.1,-0.3,880,21,,,,,,,,,,,,,,,,,,,
22809,1480714392823,,,,,,,,0.03,0.06,1.0,-2.5,0.1,-0.3,880,21,,,,,,,,,,,,,,,,,,,
22829,1480714392843,,,,,,,,0.03,0.06,1.0,-2.5,0.1,-0.2,900,21,,,,,,,,,,,,,,,,,,,
22849,1480714392863,0,51.8,,76.4,57,66.2,,0.03,0.07,1.0,-2.6,-0.0,-0.1,900,21,1,0,37.391,0,37.478439,-122.203735,0.0,0.0,29.4,10,3,1.7,0,0.0,-1,0.0,0.0,0.0,0
22869,1480714392883,,,,,,,,0.03,0.07,1.01,-2.6,0.1,-0.0,880,20,,,,,,,,,,,,,,,,,,,
22889,1480714392995,,,,,,,,0.04,0.07,1.02,-2.6,0.3,0.1,880,20,,,,,,,,,,,,,,,,,,,
22909,1480714393015,,,,,,,,0.04,0.07,1.02,-2.6,0.1,0.1,880,20,,,,,,,,,,,,,,,,,,,
22929,1480714393035,,,,,,,,0.03,0.08,1.01,-2.6,-0.2,0.0,900,20,,,,,,,,,,,,,,,,,,,
22949,1480714393055,,,,,56,,,0.02,0.08,1.01,-2.6,-0.1,-0.0,900,16,1,0,44.0,0,37.478439,-122.203735,0.0,0.0,29.4,10,3,1.7,0,0.0,-1,0.0,,0.0,0
22969,1480714393075,,,,,,,,0.02,0.08,1.0,-2.5,0.1,-0.1,920,16,,,,,,,,,,,,,,,,,,,
22989,1480714393095,,,,,,,,0.02,0.08,1.0,-2.5,0.1,-0.2,900,16,,,,,,,,,,,,,,,,,,,
23009,1480714393115,,,,,,,,0.02,0.07,1.0,-2.6,0.1,-0.3,920,16,,,,,,,,,,,,,,,,,,,
23029,1480714393135,,,,,,,,0.02,0.07,1.0,-2.6,0.1,-0.3,920,16,,,,,,,,,,,,,,,,,,,
23049,1480714393155,1,48.8,0.0,75.3,56,69.1,14.91,0.02,0.07,1.0,-2.6,0.1,-0.2,920,15,1,0,56.25,0,37.478439,-122.203735,0.0,0.0,29.4,10,3,1.7,0,0.0,-1,0.0,0.0,0.0,0
23069,1480714393175,,,,,,,,0.02,0.07,1.0,-2.6,0.1,-0.1,920,15,,,,,,,,,,,,,,,,,,,
23089,1480714393102,,,,,,,,0.02,0.07,1.0,-2.6,0.0,-0.1,920,15,,,,,,,,,,,,,,,,,,,
23109,1480714393122,,,,,,,,0.02,0.07,1.01,-2.7,0.1,-0.0,940,15,,,,,,,,,,,,,,,,,,,
23129,1480714393142,,,,,,,,0.02,0.08,1.01,-2.7,0.3,-0.0,920,15,,,,,,,,,,,,,,,,,,,
23149,1480714393162,,,,,58,,,0.03,0.08,1.01,-2.7,0.3,-0.0,920,13,1,0,61.333,0,37.478439,-122.203735,0.0,0.0,29.4,10,3,1.7,0,0.0,-1,0.0,,0.0,0
23169,1480714393182,,,,,,,,0.03,0.08,1.0,-2.7,0.0,-0.0,900,13,,,,,,,,,,,,,,,,,,,
23189,1480714393202,,,,,,,,0.02,0.09,1.0,-2.7,-0.2,-0.0,920,13,,,,,,,,,,,,,,,,,,,
23209,1480714393222,,,,,,,,0.02,0.08,1.01,-2.7,-0.1,-0.1,920,21,,,,,,,,,,,,,,,,,,,
23229,1480714393242,,,,,,,,0.01,0.08,1.01,-2.7,0.1,-0.1,940,21,,,,,,,,,,,,,,,,,,,
23249,1480714393262,0,48.3,,75.2,59,68.9,,0.01,0.08,1.0,-2.7,0.3,-0.2,900,30,1,0,69.231,0,37.478439,-122.203735,0.0,0.0,29.4,10,3,1.7,0,0.0,-1,0.0,0.0,0.0,0
23269,1480714393282,,,,,,,,0.01,0.08,0.99,-2.7,0.2,-0.2,900,30,,,,,,,,,,,,,,,,,,,
23289,1480714393302,,,,,,,,0.01,0.07,1.0,-2.7,0.2,-0.3,900,40,,,,,,,,,,,,,,,,,,,
23309,1480714393322,,,,,,,,0.01,0.07,1.0,-2.7,0.2,-0.2,900,40,,,,,,,,,,,,,,,,,,,
23329,1480714393342,,,,,,,,0.01,0.07,1.01,-2.7,0.2,-0.2,900,41,,,,,,,,,,,,,,,,,,,
23349,1480714393362,,,,,60,,,0.01,0.07,1.0,-2.7,0.1,-0.2,900,41,1,0,30.0,0,37.478439,-122.203735,0.0,0.0,29.4,10,3,1.7,0,0.0,-1,0.0,,0.0,0
23369,1480714393382,,,,,,,,0.01,0.07,1.01,-2.8,0.2,-0.1,920,41,,,,,,,,,,,,,,,,,,,
23389,1480714393403,,,,,,,,0.02,0.07,1.01,-2.8,0.4,-0.0,880,41,,,,,,,,,,,,,,,,,,,
23409,1480714393423,,,,,,,,0.02,0.07,1.01,-2.8,0.3,-0.1,880,41,,,,,,,,,,,,,,,,,,,
23429,1480714393443,,,,,,,,0.01,0.08,1.01,-2.8,0.0,-0.1,880,41,,,,,,,,,,,,,,,,,,,
23449,1480714393463,0,49.6,,76.4,58,69.5,,0.0,0.07,1.02,-2.8,0.1,-0.2,880,41,1,0,22.439,0,37.478439,-122.203735,0.0,0.0,29.4,10,3,1.7,0,0.0,-1,0.0,0.0,0.0,0
23469,1480714393483,,,,,,,,-0.0,0.07,1.02,-2.7,0.2,-0.2,880,13,,,,,,,,,,,,,,,,,,,
23489,1480714393502,,,,,,,,-0.01,0.06,1.01,-2.7,0.1,-0.3,900,13,,,,,,,,,,,,,,,,,,,
23509,1480714393522,,,,,,,,-0.01,0.05,1.01,-2.7,0.2,-0.3,860,13,,,,,,,,,,,,,,,,,,,
23529,1480714393542,,,,,,,,0.0,0.06,1.01,-2.7,0.2,-0.2,860,13,,,,,,,,,,,,,,,,,,,
23549,1480714393562,,,,,58,,,-0.0,0.06,1.01,-2.7,0.1,-0.1,860,15,1,0,21.463,0,37.478439,-122.203735,0.0,0.0,29.4,10,3,1.7,0,0.0,-1,0.0,,0.0,0
23569,1480714393582,,,,,,,,0.0,0.07,1.01,-2.8,0.3,-0.0,860,15,,,,,,,,,,,,,,,,,,,
23589,1480714393603,,,,,,,,-0.0,0.08,1.01,-2.8,0.2,-0.0,860,15,,,,,,,,,,,,,,,,,,,
23609,1480714393623,,,,,,,,-0.01,0.07,1.01,-2.7,0.1,-0.1,860,15,,,,,,,,,,,,,,,,,,,
23629,1480714393643,,,,,,,,-0.02,0.07,1.01,-2.7,0.1,-0.2,860,16,,,,,,,,,,,,,,,,,,,
23649,1480714393663,0,51.4,,75.5,59,66.4,,-0.02,0.06,1.0,-2.6,0.2,-0.2,840,16,1,0,57.333,0,37.478439,-122.203735,0.0,0.0,29.4,10,3,1.7,0,0.0,-1,0.0,0.0,0.0,0
23669,1480714393683,,,,,,,,-0.02,0.07,1.01,-2.6,0.2,-0.2,840,16,,,,,,,,,,,,,,,,,,,
23689,1480714393802,,,,,,,,-0.02,0.07,1.01,-2.6,0.1,-0.1,840,18,,,,,,,,,,,,,,,,,,,
23709,1480714393822,,,,,,,,-0.01,0.08,1.01,-2.6,0.2,-0.1,820,18,,,,,,,,,,,,,,,,,,,
23729,1480714393842,,,,,,,,-0.01,0.08,1.02,-2.6,0.0,-0.1,840,18,,,,,,,,,,,,,,,,,,,
23749,1480714393862,,,,,55,,,-0.02,0.07,1.02,-2.6,0.1,-0.2,840,18,1,0,52.5,0,37.478439,-122.203735,0.0,0.0,29.4,10,3,1.7,0,0.0,-1,0.0,,0.0,0
23769,1480714393882,,,,,,,,-0.02,0.06,1.01,-2.6,0.0,-0.3,860,21,,,,,,,,,,,,,,,,,,,
23789,1480714393902,,,,,,,,-0.02,0.05,1.01,-2.5,0.1,-0.4,840,21,,,,,,,,,,,,,,,,,,,
23809,1480714393922,,,,,,,,-0.02,0.06,1.0,-2.5,0.1,-0.3,840,21,,,,,,,,,,,,,,,,,,,
23829,1480714393942,,,,,,,,-0.02,0.07,1.0,-2.5,0.1,-0.1,840,24,,,,,,,,,,,,,,,,,,,
23849,1480714393962,0,48.3,,75.0,54,68.6,,-0.01,0.07,1.01,-2.5,0.1,-0.1,840,24,1,0,40.952,0,37.478439,-122.203735,0.0,0.0,29.4,10,3,1.7,0,0.0,-1,0.0,0.0,0.0,0
23869,1480714393982,,,,,,,,-0.02,0.07,1.01,-2.5,-0.0,-0.1,840,24,,,,,,,,,,,,,,,,,,,
23889,1480714393896,,,,,,,,-0.03,0.07,1.01,-2.5,-0.0,-0.2,840,26,,,,,,,,,,,,,,,,,,,
23909,1480714393916,,,,,,,,-0.03,0.06,1.01,-2.5,0.1,-0.2,860,26,,,,,,,,,,,,,,,,,,,
23929,1480714393936,,,,,,,,-0.02,0.06,1.0,-2.5,0.1,-0.2,860,26,,,,,,,,,,,,,,,,,,,
23949,1480714393956,,,,,56,,,-0.02,0.07,1.0,-2.5,0.0,-0.2,840,26,1,0,32.308,0,37.478439,-122.203735,0.0,0.0,29.4,10,3,1.7,0,0.0,-1,0.0,,0.0,0
23969,1480714393976,,,,,,,,-0.02,0.07,1.0,-2.5,0.2,-0.1,840,26,,,,,,,,,,,,,,,,,,,
23989,1480714394003,,,,,,,,-0.01,0.07,1.0,-2.5,0.1,-0.0,840,30,,,,,,,,,,,,,,,,,,,
24009,1480714394023,,,,,,,,-0.03,0.07,1.01,-2.5,0.0,-0.1,840,30,,,,,,,,,,,,,,,,,,,
24029,1480714394043,,,,,,,,-0.03,0.07,1.0,-2.4,0.0,-0.2,840,30,,,,,,,,,,,,,,,,,,,
24049,1480714394063,0,51.5,0.1,75.7,54,66.4,14.89,-0.03,0.06,1.0,-2.4,0.2,-0.2,860,30,1,0,28.0,0,37.478439,-122.203735,0.0,0.0,29.4,10,3,1.7,0,0.0,-1,0.0,0.0,0.0,0
24069,1480714394083,,,,,,,,-0.02,0.06,1.0,-2.5,0.2,-0.1,860,32,,,,,,,,,,,,,,,,,,,
24089,1480714394103,,,,,,,,-0.02,0.07,1.0,-2.5,0.1,0.0,840,32,,,,,,,,,,,,,,,,,,,
24109,1480714394123,,,,,,,,-0.01,0.07,1.0,-2.6,0.4,0.2,840,32,,,,,,,,,,,,,,,,,,,
24129,1480714394143,,,,,,,,-0.02,0.07,1.01,-2.6,0.2,0.2,840,33,,,,,,,,,,,,,,,,,,,
24149,1480714394163,,,,,55,,,-0.02,0.06,1.02,-2.6,0.1,0.1,860,33,1,0,26.25,0,37.478439,-122.203735,0.0,0.0,29.4,10,3,1.7,0,0.0,-1,0.0,,0.0,0
24169,1480714394183,,,,,,,,-0.03,0.06,1.01,-2.6,0.2,-0.0,860,36,,,,,,,,,,,,,,,,,,,
24189,1480714394203,,,,,,,,-0.02,0.05,1.01,-2.6,0.2,-0.1,880,36,,,,,,,,,,,,,,,,,,,
24209,1480714394223,,,,,,,,-0.02,0.05,1.01,-2.6,0.2,-0.0,880,35,,,,,,,,,,,,,,,,,,,
24229,1480714394243,,,,,,,,-0.02,0.05,1.0,-2.7,0.2,0.1,860,35,,,,,,,,,,,,,,,,,,,
24249,1480714394263,0,52.0,,77.6,55,69.7,,-0.01,0.06,1.01,-2.7,0.4,0.2,860,38,1,0,23.889,0,37.478439,-122.203735,0.0,0.0,29.4,10,3,1.7,0,0.0,-1,0.0,0.0,0.0,0
24269,1480714394283,,,,,,,,-0.01,0.07,1.0,-2.7,0.1,0.2,860,38,,,,,,,,,,,,,,,,,,,
24289,1480714394303,,,,,,,,-0.01,0.07,1.01,-2.8,-0.0,0.2,880,38,,,,,,,,,,,,,,,,,,,
24309,1480714394323,,,,,,,,-0.02,0.07,1.02,-2.7,-0.0,0.0,880,38,,,,,,,,,,,,,,,,,,,
24329,1480714394343,,,,,,,,-0.02,0.06,1.01,-2.7,-0.0,-0.1,900,40,,,,,,,,,,,,,,,,,,,
24349,1480714394363,,,,,54,,,-0.03,0.05,1.0,-2.7,0.1,-0.2,860,41,1,0,23.158,0,37.478439,-122.203735,0.0,0.0,29.4,10,3,1.7,0,0.0,-1,0.0,,0.0,0
24369,1480714394383,,,,,,,,-0.02,0.06,1.0,-2.7,0.2,-0.1,860,41,,,,,,,,,,,,,,,,,,,
24389,1480714394403,,,,,,,,-0.01,0.06,1.0,-2.8,0.0,-0.1,860,41,,,,,,,,,,,,,,,,,,,
24409,1480714394423,,,,,,,,-0.01,0.07,1.0,-2.8,0.2,0.0,860,41,,,,,,,,,,,,,,,,,,,
24429,1480714394443,,,,,,,,-0.01,0.07,1.0,-2.8,0.3,0.0,880,44,,,,,,,,,,,,,,,,,,,
24449,1480714394463,0,51.2,,77.0,55,69.7,,-0.01,0.06,1.01,-2.8,0.1,-0.0,880,44,1,0,20.976,0,37.478439,-122.203735,0.0,0.0,29.4,10,3,1.7,0,0.0,-1,0.0,0.0,0.0,0
24469,1480714394483,,,,,,,,-0.02,0.06,1.01,-2.8,0.1,-0.1,880,43,,,,,,,,,,,,,,,,,,,
24489,1480714394602,,,,,,,,-0.02,0.05,1.0,-2.8,0.1,-0.2,840,46,,,,,,,,,,,,,,,,,,,
24509,1480714394622,,,,,,,,-0.02,0.05,1.0,-2.7,0.2,-0.2,860,46,,,,,,,,,,,,,,,,,,,
24529,1480714394642,,,,,,,,-0.02,0.05,1.0,-2.8,0.3,-0.2,860,46,,,,,,,,,,,,,,,,,,,
24549,1480714394662,,,,,57,,,-0.01,0.06,1.0,-2.8,0.1,-0.1,860,46,1,0,20.465,0,37.478439,-122.203735,0.0,0.0,29.4,10,3,1.7,0,0.0,-1,0.0,,0.0,0
24569,1480714394682,,,,,,,,-0.02,0.06,1.0,-2.8,0.2,0.1,860,46,,,,,,,,,,,,,,,,,,,
24589,1480714394702,,,,,,,,-0.01,0.07,1.01,-2.8,0.3,0.1,880,50,,,,,,,,,,,,,,,,,,,
24609,1480714394722,,,,,,,,-0.01,0.07,1.0,-2.8,0.0,0.1,900,50,,,,,,,,,,,,,,,,,,,
24629,1480714394742,,,,,,,,-0.02,0.07,1.01,-2.8,-0.0,0.1,840,47,,,,,,,,,,,,,,,,,,,
24649,1480714394762,0,49.0,,74.8,56,67.4,,-0.03,0.07,1.0,-2.8,0.1,-0.1,860,52,1,0,17.6,0,37.478439,-122.203735,0.0,0.0,29.4,10,3,1.7,0,0.0,-1,0.0,0.0,0.0,0
24669,1480714394782,,,,,,,,-0.03,0.06,1.0,-2.8,0.2,-0.1,840,52,,,,,,,,,,,,,,,,,,,
24689,1480714394702,,,,,,,,-0.02,0.07,1.0,-2.8,0.2,-0.0,840,52,,,,,,,,,,,,,,,,,,,
24709,1480714394722,,,,,,,,-0.02,0.07,1.01,-2.8,0.1,0.0,860,52,,,,,,,,,,,,,,,,,,,
24729,1480714394742,,,,,,,,-0.02,0.07,1.01,-2.9,0.2,0.1,860,53,,,,,,,,,,,,,,,,,,,
24749,1480714394762,,,,,55,,,-0.02,0.07,1.01,-2.8,0.2,0.2,880,53,1,0,16.154,0,37.478439,-122.203735,0.0,0.0,29.4,10,3,1.7,0,0.0,-1,0.0,,0.0,0
24769,1480714394782,,,,,,,,-0.02,0.07,1.02,-2.9,0.1,0.1,840,53,,,,,,,,,,,,,,,,,,,
24789,1480714394803,,,,,,,,-0.02,0.07,1.01,-2.8,0.1,0.1,840,53,,,,,,,,,,,,,,,,,,,
24809,1480714394823,,,,,,,,-0.03,0.07,1.01,-2.8,0.0,-0.0,840,53,,,,,,,,,,,,,,,,,,,
24829,1480714394843,,,,,,,,-0.02,0.07,1.0,-2.8,0.2,0.0,840,53,,,,,,,,,,,,,,,,,,,
24849,1480714394863,0,49.6,,77.6,57,66.1,,-0.01,0.07,1.0,-2.9,0.1,0.2,840,56,1,0,15.849,0,37.478439,-122.203735,0.0,0.0,29.4,10,3,1.7,0,0.0,-1,0.0,0.0,0.0,0
24869,1480714394883,,,,,,,,-0.01,0.07,1.0,-2.9,0.1,0.2,840,52,,,,,,,,,,,,,,,,,,,
24889,1480714394896,,,,,,,,-0.01,0.08,1.0,-2.9,-0.1,0.2,860,52,,,,,,,,,,,,,,,,,,,
24909,1480714394916,,,,,,,,-0.01,0.08,1.01,-2.9,-0.1,0.1,840,49,,,,,,,,,,,,,,,,,,,
24929,1480714394936,,,,,,,,-0.01,0.08,1.0,-2.9,-0.0,0.1,840,55,,,,,,,,,,,,,,,,,,,
24949,1480714394956,,,,,56,,,-0.01,0.07,1.0,-2.9,-0.1,-0.0,840,55,1,0,16.538,0,37.478439,-122.203735,0.0,0.0,29.4,10,3,1.7,0,0.0,-1,0.0,,0.0,0
24969,1480714394976,,,,,,,,-0.0,0.07,1.0,-2.9,-0.1,-0.0,840,53,,,,,,,,,,,,,,,,,,,
24989,1480714395002,,,,,,,,0.0,0.07,1.0,-3.0,-0.1,0.1,860,52,,,,,,,,,,,,,,,,,,,
25009,1480714395022,,,,,,,,0.01,0.08,1.01,-3.0,-0.1,0.2,880,56,,,,,,,,,,,,,,,,,,,
25029,1480714395042,,,,,,,,0.01,0.08,1.02,-3.0,0.0,0.2,900,56,,,,,,,,,,,,,,,,,,,
25049,1480714395062,0,52.6,0.5,78.3,56,69.5,14.91,0.01,0.08,1.02,-3.0,-0.2,0.1,880,56,1,0,16.538,0,37.478439,-122.203735,0.0,0.0,29.4,10,3,1.7,0,0.0,-1,0.0,0.0,0.0,0
25069,1480714395082,,,,,,,,0.01,0.08,1.02,-3.0,-0.3,0.0,880,55,,,,,,,,,,,,,,,,,,,
25089,1480714395101,,,,,,,,0.0,0.08,1.01,-3.0,-0.1,-0.1,880,53,,,,,,,,,,,,,,,,,,,
25109,1480714395121,,,,,,,,0.0,0.07,1.0,-3.0,-0.1,-0.2,900,53,,,,,,,,,,,,,,,,,,,
25129,1480714395141,,,,,,,,0.01,0.07,1.01,-3.0,-0.1,-0.2,900,55,,,,,,,,,,,,,,,,,,,
25149,1480714395161,,,,,56,,,0.01,0.07,1.01,-3.1,-0.1,-0.2,920,53,1,0,16.0,0,37.478439,-122.203735,0.0,0.0,29.4,10,3,1.7,0,0.0,-1,0.0,,0.0,0
25169,1480714395181,,,,,,,,0.02,0.07,1.01,-3.1,-0.2,-0.1,900,53,,,,,,,,,,,,,,,,,,,
25189,1480714395202,,,,,,,,0.01,0.07,1.0,-3.1,-0.2,-0.0,900,55,,,,,,,,,,,,,,,,,,,
25209,1480714395222,,,,,,,,0.02,0.07,1.01,-3.2,-0.1,0.0,900,53,,,,,,,,,,,,,,,,,,,
25229,1480714395242,,,,,,,,0.02,0.07,1.01,-3.2,0.0,0.1,900,52,,,,,,,,,,,,,,,,,,,
25249,1480714395262,0,49.1,,77.0,58,66.5,,0.03,0.07,1.02,-3.2,0.1,0.2,920,52,1,0,16.364,0,37.478439,-122.203735,0.0,0.0,29.4,10,3,1.7,0,0.0,-1,0.0,0.0,0.0,0
25269,1480714395282,,,,,,,,0.03,0.08,1.02,-3.2,-0.1,0.1,920,55,,,,,,,,,,,,,,,,,,,
25289,1480714395401,,,,,,,,0.02,0.08,1.02,-3.2,-0.3,0.1,940,52,,,,,,,,,,,,,,,,,,,
25309,1480714395421,,,,,,,,0.01,0.07,1.02,-3.2,-0.4,0.1,900,52,,,,,,,,,,,,,,,,,,,
25329,1480714395441,,,,,,,,0.01,0.07,1.01,-3.2,-0.1,0.0,920,50,,,,,,,,,,,,,,,,,,,
25349,1480714395461,,,,,61,,,0.01,0.06,1.0,-3.2,-0.0,-0.1,900,53,1,0,17.091,0,37.478439,-122.203735,0.0,0.0,29.4,10,3,1.7,0,0.0,-1,0.0,,0.0,0
25369,1480714395481,,,,,,,,0.01,0.06,1.0,-3.2,-0.1,-0.2,900,53,,,,,,,,,,,,,,,,,,,
25389,1480714395501,,,,,,,,0.01,0.05,1.0,-3.3,-0.1,-0.2,900,50,,,,,,,,,,,,,,,,,,,
25409,1480714395521,,,,,,,,0.01,0.05,1.0,-3.3,-0.1,-0.2,920,52,,,,,,,,,,,,,,,,,,,
25429,1480714395541,,,,,,,,0.02,0.05,1.01,-3.4,-0.1,-0.1,920,52,,,,,,,,,,,,,,,,,,,
25449,1480714395561,0,51.5,,78.5,61,68.6,,0.01,0.06,1.01,-3.4,-0.0,-0.1,900,53,1,0,18.0,0,37.478439,-122.203735,0.0,0.0,29.4,10,3,1.7,0,0.0,-1,0.0,0.0,0.0,0
25469,1480714395581,,,,,,,,0.01,0.07,1.01,-3.4,-0.0,-0.0,900,52,,,,,,,,,,,,,,,,,,,
25489,1480714395502,,,,,,,,0.02,0.07,1.02,-3.5,0.2,-0.0,880,52,,,,,,,,,,,,,,,,,,,
25509,1480714395522,,,,,,,,0.02,0.08,1.02,-3.5,0.1,-0.1,900,52,,,,,,,,,,,,,,,,,,,
25529,1480714395542,,,,,,,,0.01,0.08,1.02,-3.5,-0.2,-0.1,900,55,,,,,,,,,,,,,,,,,,,
25549,1480714395562,,,,,60,,,0.01,0.08,1.03,-3.4,-0.2,-0.2,900,50,1,0,16.923,0,37.478439,-122.203735,0.0,0.0,29.4,10,3,1.7,0,0.0,-1,0.0,,0.0,0
25569,1480714395582,,,,,,,,0.01,0.08,1.03,-3.4,-0.0,-0.3,860,50,,,,,,,,,,,,,,,,,,,
25589,1480714395601,,,,,,,,0.01,0.07,1.02,-3.4,0.1,-0.4,880,53,,,,,,,,,,,,,,,,,,,
25609,1480714395621,,,,,,,,0.01,0.07,1.02,-3.4,0.1,-0.4,860,52,,,,,,,,,,,,,,,,,,,
25629,1480714395641,,,,,,,,0.01,0.07,1.02,-3.4,-0.0,-0.3,860,52,,,,,,,,,,,,,,,,,,,
25649,1480714395661,0,52.6,,78.5,59,69.7,,0.01,0.07,1.01,-3.4,-0.1,-0.3,880,49,1,0,16.226,0,37.478439,-122.203735,0.0,0.0,29.4,10,3,1.7,0,0.0,-1,0.0,0.0,0.0,0
25669,1480714395681,,,,,,,,0.01,0.07,1.02,-3.4,0.1,-0.2,880,53,,,,,,,,,,,,,,,,,,,
25689,1480714395701,,,,,,,,0.01,0.08,1.02,-3.5,0.0,-0.2,880,53,,,,,,,,,,,,,,,,,,,
25709,1480714395721,,,,,,,,0.01,0.07,1.02,-3.5,-0.2,-0.3,860,50,,,,,,,,,,,,,,,,,,,
25729,1480714395741,,,,,,,,0.01,0.07,1.02,-3.5,-0.0,-0.3,860,49,,,,,,,,,,,,,,,,,,,
25749,1480714395761,,,,,60,,,0.01,0.07,1.01,-3.5,0.0,-0.4,840,49,1,0,16.604,0,37.478439,-122.203735,0.0,0.0,29.4,10,3,1.7,0,0.0,-1,0.0,,0.0,0
25769,1480714395781,,,,,,,,0.01,0.06,1.01,-3.5,0.2,-0.4,880,53,,,,,,,,,,,,,,,,,,,
25789,1480714395801,,,,,,,,0.01,0.07,1.0,-3.5,0.2,-0.3,880,52,,,,,,,,,,,,,,,,,,,
25809,1480714395821,,,,,,,,0.02,0.07,1.0,-3.5,0.1,-0.3,860,52,,,,,,,,,,,,,,,,,,,
25829,1480714395841,,,,,,,,0.02,0.07,1.01,-3.5,0.3,-0.2,880,49,,,,,,,,,,,,,,,,,,,
25849,1480714395861,0,51.4,,78.5,58,68.6,,0.02,0.07,1.01,-3.5,0.2,-0.2,860,55,1,0,16.923,0,37.478439,-122.203735,0.0,0.0,29.4,10,3,1.7,0,0.0,-1,0.0,0.0,0.0,0
25869,1480714395881,,,,,,,,0.01,0.08,1.01,-3.5,0.1,-0.3,860,52,,,,,,,,,,,,,,,,,,,
25889,1480714395895,,,,,,,,0.01,0.08,1.0,-3.4,0.1,-0.3,860,52,,,,,,,,,,,,,,,,,,,
25909,1480714395915,,,,,,,,0.01,0.07,0.99,-3.4,0.0,-0.4,860,49,,,,,,,,,,,,,,,,,,,
25929,1480714395935,,,,,,,,0.01,0.07,0.99,-3.4,0.1,-0.4,860,56,,,,,,,,,,,,,,,,,,,
25949,1480714395955,,,,,59,,,0.01,0.07,0.99,-3.4,0.1,-0.3,860,56,1,0,16.538,0,37.478439,-122.203735,0.0,0.0,29.4,10,3,1.7,0,0.0,-1,0.0,,0.0,0
25969,1480714395975,,,,,,,,0.02,0.08,0.99,-3.5,0.0,-0.3,880,50,,,,,,,,,,,,,,,,,,,
25989,1480714396001,,,,,,,,0.02,0.08,0.99,-3.5,0.2,-0.2,860,49,,,,,,,,,,,,,,,,,,,
26009,1480714396021,,,,,,,,0.02,0.08,1.0,-3.5,0.3,-0.2,860,49,,,,,,,,,,,,,,,,,,,
26029,1480714396041,,,,,,,,0.01,0.08,1.0,-3.4,0.2,-0.2,840,53,,,,,,,,,,,,,,,,,,,
26049,1480714396061,0,48.7,0.0,75.8,58,67.2,14.94,0.01,0.08,1.0,-3.4,0.2,-0.3,860,49,1,0,17.2,0,37.478439,-122.203735,0.0,0.0,29.4,10,3,1.7,0,0.0,-1,0.0,0.0,0.0,0
26069,1480714396081,,,,,,,,0.0,0.07,0.99,-3.4,0.3,-0.4,860,49,,,,,,,,,,,,,,,,,,,
26089,1480714396200,,,,,,,,0.01,0.07,0.99,-3.4,0.4,-0.4,880,50,,,,,,,,,,,,,,,,,,,
26109,1480714396220,,,,,,,,0.01,0.07,0.99,-3.4,0.3,-0.4,880,52,,,,,,,,,,,,,,,,,,,
26129,1480714396240,,,,,,,,0.01,0.07,0.99,-3.4,0.2,-0.4,860,52,,,,,,,,,,,,,,,,,,,
26149,1480714396260,,,,,58,,,0.01,0.07,0.99,-3.4,0.3,-0.3,860,49,1,0,17.2,0,37.478439,-122.203735,0.0,0.0,29.4,10,3,1.7,0,0.0,-1,0.0,,0.0,0
26169,1480714396280,,,,,,,,0.01,0.07,1.0,-3.4,0.2,-0.3,860,50,,,,,,,,,,,,,,,,,,,
26189,1480714396300,,,,,,,,0.01,0.07,1.0,-3.3,0.0,-0.3,860,50,,,,,,,,,,,,,,,,,,,
26209,1480714396320,,,,,,,,0.0,0.07,1.0,-3.3,-0.0,-0.3,860,53,,,,,,,,,,,,,,,,,,,
26229,1480714396340,,,,,,,,0.0,0.06,0.99,-3.3,0.0,-0.4,900,47,,,,,,,,,,,,,,,,,,,
26249,1480714396360,1,52.3,,78.2,57,70.1,,0.01,0.06,0.99,-3.3,0.1,-0.4,840,47,1,0,17.2,0,37.478439,-122.203735,0.0,0.0,29.4,10,3,1.7,0,0.0,-1,0.0,0.0,0.0,0
26269,1480714396380,,,,,,,,0.01,0.06,0.99,-3.3,0.0,-0.4,840,52,,,,,,,,,,,,,,,,,,,
26289,1480714396301,,,,,,,,0.01,0.07,0.99,-3.3,-0.1,-0.3,840,53,,,,,,,,,,,,,,,,,,,
26309,1480714396321,,,,,,,,0.01,0.07,0.99,-3.3,0.1,-0.3,840,53,,,,,,,,,,,,,,,,,,,
26329,1480714396341,,,,,,,,0.01,0.07,1.0,-3.3,-0.0,-0.3,860,47,,,,,,,,,,,,,,,,,,,
26349,1480714396361,,,,,56,,,0.01,0.07,1.0,-3.3,-0.1,-0.4,860,55,1,0,16.154,0,37.478439,-122.203735,0.0,0.0,29.4,10,3,1.7,0,0.0,-1,0.0,,0.0,0
26369,1480714396381,,,,,,,,0.0,0.07,1.0,-3.3,-0.1,-0.5,880,55,,,,,,,,,,,,,,,,,,,
26389,1480714396401,,,,,,,,0.0,0.06,0.99,-3.2,0.0,-0.5,840,55,,,,,,,,,,,,,,,,,,,
26409,1480714396421,,,,,,,,0.0,0.06,1.0,-3.2,0.1,-0.5,840,52,,,,,,,,,,,,,,,,,,,
26429,1480714396441,,,,,,,,0.01,0.06,1.0,-3.3,-0.0,-0.4,840,56,,,,,,,,,,,,,,,,,,,
26449,1480714396461,0,48.8,,75.8,57,66.7,,0.0,0.06,1.0,-3.3,0.2,-0.3,840,56,1,0,16.0,0,37.478439,-122.203735,0.0,0.0,29.4,10,3,1.7,0,0.0,-1,0.0,0.0,0.0,0
26469,1480714396481,,,,,,,,0.0,0.07,1.0,-3.3,0.3,-0.3,860,56,,,,,,,,,,,,,,,,,,,
26489,1480714396501,,,,,,,,-0.0,0.06,1.01,-3.3,0.2,-0.3,840,53,,,,,,,,,,,,,,,,,,,
26509,1480714396521,,,,,,,,-0.01,0.06,1.0,-3.3,0.2,-0.4,860,55,,,,,,,,,,,,,,,,,,,
26529,1480714396541,,,,,,,,-0.01,0.06,1.0,-3.3,0.2,-0.5,820,55,,,,,,,,,,,,,,,,,,,
26549,1480714396561,,,,,55,,,-0.01,0.07,1.0,-3.3,0.3,-0.4,820,58,1,0,15.0,0,37.478439,-122.203735,0.0,0.0,29.4,10,3,1.7,0,0.0,-1,0.0,,0.0,0
26569,1480714396581,,,,,,,,-0.0,0.07,1.0,-3.3,0.2,-0.3,820,53,,,,,,,,,,,,,,,,,,,
26589,1480714396602,,,,,,,,0.0,0.07,1.01,-3.3,0.3,-0.3,820,55,,,,,,,,,,,,,,,,,,,
26609,1480714396622,,,,,,,,-0.0,0.07,1.01,-3.3,0.0,-0.3,840,55,,,,,,,,,,,,,,,,,,,
26629,1480714396642,,,,,,,,-0.01,0.07,1.01,-3.3,0.0,-0.4,840,58,,,,,,,,,,,,,,,,,,,
26649,1480714396662,0,52.0,,78.3,59,69.2,,-0.01,0.06,1.01,-3.2,-0.0,-0.5,860,55,1,0,15.472,0,37.478439,-122.203735,0.0,0.0,29.4,10,3,1.7,0,0.0,-1,0.0,0.0,0.0,0
26669,1480714396682,,,,,,,,-0.01,0.05,1.0,-3.2,-0.0,-0.5,860,56,,,,,,,,,,,,,,,,,,,
26689,1480714396701,,,,,,,,-0.0,0.06,1.0,-3.2,-0.0,-0.4,820,56,,,,,,,,,,,,,,,,,,,
26709,1480714396721,,,,,,,,-0.0,0.06,1.0,-3.2,0.0,-0.3,820,61,,,,,,,,,,,,,,,,,,,
26729,1480714396741,,,,,,,,-0.0,0.06,1.0,-3.2,-0.1,-0.3,820,56,,,,,,,,,,,,,,,,,,,
26749,1480714396761,,,,,56,,,-0.01,0.06,1.01,-3.2,-0.1,-0.4,820,58,1,0,14.643,0,37.478439,-122.203735,0.0,0.0,29.4,10,3,1.7,0,0.0,-1,0.0,,0.0,0
26769,1480714396781,,,,,,,,-0.01,0.06,1.01,-3.1,-0.1,-0.4,820,58,,,,,,,,,,,,,,,,,,,
26789,1480714396801,,,,,,,,-0.01,0.05,1.0,-3.2,0.0,-0.4,840,61,,,,,,,,,,,,,,,,,,,
26809,1480714396821,,,,,,,,0.0,0.05,1.0,-3.2,-0.0,-0.3,840,60,,,,,,,,,,,,,,,,,,,
26829,1480714396841,,,,,,,,0.0,0.06,1.0,-3.2,0.1,-0.2,800,60,,,,,,,,,,,,,,,,,,,
26849,1480714396861,0,49.3,,75.6,55,66.5,,0.0,0.07,1.01,-3.1,0.1,-0.1,820,61,1,0,13.443,0,37.478439,-122.203735,0.0,0.0,29.4,10,3,1.7,0,0.0,-1,0.0,0.0,0.0,0
26869,1480714396881,,,,,,,,-0.0,0.06,1.01,-3.1,-0.0,-0.2,800,63,,,,,,,,,,,,,,,,,,,
26889,1480714396994,,,,,,,,-0.01,0.05,1.01,-3.0,-0.1,-0.2,820,63,,,,,,,,,,,,,,,,,,,
26909,1480714397014,,,,,,,,-0.01,0.05,1.0,-3.0,-0.0,-0.2,820,63,,,,,,,,,,,,,,,,,,,
26929,1480714397034,,,,,,,,-0.0,0.06,0.99,-3.0,-0.1,-0.2,820,61,,,,,,,,,,,,,,,,,,,
26949,1480714397054,,,,,55,,,-0.0,0.06,1.0,-3.0,-0.0,-0.1,840,63,1,0,12.698,0,37.478439,-122.203735,0.94,0.0,29.2,10,3,1.7,0,0.0,-1,0.0,,0.0,0
26969,1480714397074,,,,,,,,-0.01,0.07,1.0,-3.0,-0.1,-0.1,800,67,,,,,,,,,,,,,,,,,,,
26989,1480714397094,,,,,,,,-0.01,0.06,1.0,-3.0,-0.1,-0.2,800,64,,,,,,,,,,,,,,,,,,,
27009,1480714397114,,,,,,,,-0.01,0.06,1.0,-3.0,-0.1,-0.3,800,64,,,,,,,,,,,,,,,,,,,
27029,1480714397134,,,,,,,,-0.01,0.06,0.99,-3.0,-0.1,-0.2,800,63,,,,,,,,,,,,,,,,,,,
27049,1480714397154,0,49.7,0.0,77.8,56,68.8,14.96,-0.0,0.07,0.99,-3.1,-0.2,-0.2,820,67,1,0,11.94,0,37.478439,-122.203735,0.94,0.0,29.2,10,3,1.7,0,0.0,-1,0.0,0.0,0.0,0
27069,1480714397174,,,,,,,,-0.0,0.07,0.99,-3.1,-0.1,-0.2,820,69,,,,,,,,,,,,,,,,,,,
27089,1480714397100,,,,,,,,-0.01,0.07,1.0,-3.1,-0.2,-0.3,840,66,,,,,,,,,,,,,,,,,,,
27109,1480714397120,,,,,,,,-0.02,0.06,1.0,-3.0,-0.2,-0.5,800,66,,,,,,,,,,,,,,,,,,,
27129,1480714397140,,,,,,,,-0.02,0.06,0.99,-3.1,-0.2,-0.6,820,70,,,,,,,,,,,,,,,,,,,
27149,1480714397160,,,,,55,,,-0.01,0.06,0.99,-3.1,0.0,-0.5,820,69,1,0,12.727,0,37.478439,-122.203735,0.99,0.0,29.1,10,3,1.7,0,0.0,-1,0.0,,0.0,0
27169,1480714397180,,,,,,,,-0.01,0.06,0.99,-3.1,0.1,-0.4,820,69,,,,,,,,,,,,,,,,,,,
27189,1480714397202,,,,,,,,-0.01,0.06,0.99,-3.1,0.1,-0.4,820,69,,,,,,,,,,,,,,,,,,,
27209,1480714397222,,,,,,,,-0.01,0.06,1.0,-3.1,0.1,-0.4,820,69,,,,,,,,,,,,,,,,,,,
27229,1480714397242,,,,,,,,-0.01,0.05,1.0,-3.1,0.0,-0.5,860,69,,,,,,,,,,,,,,,,,,,
27249,1480714397262,1,51.4,,76.7,54,68.6,,-0.02,0.04,1.0,-3.0,0.1,-0.5,820,69,1,0,11.884,0,37.478439,-122.203735,1.0,0.0,29.0,10,3,1.7,0,0.0,-1,0.0,0.0,0.0,0
27269,1480714397282,,,,,,,,-0.01,0.05,1.0,-3.0,0.2,-0.4,820,70,,,,,,,,,,,,,,,,,,,
27289,1480714397302,,,,,,,,-0.01,0.05,1.0,-3.0,0.0,-0.3,820,72,,,,,,,,,,,,,,,,,,,
27309,1480714397322,,,,,,,,-0.0,0.06,1.0,-3.0,0.2,-0.1,840,70,,,,,,,,,,,,,,,,,,,
27329,1480714397342,,,,,,,,-0.0,0.06,1.01,-3.0,-0.0,-0.1,840,69,,,,,,,,,,,,,,,,,,,
27349,1480714397362,,,,,56,,,-0.01,0.05,1.01,-3.0,-0.0,-0.2,860,69,1,0,11.389,0,37.478439,-122.203735,1.0,0.0,29.0,10,3,1.7,0,0.0,-1,0.0,,0.0,0
27369,1480714397382,,,,,,,,-0.01,0.05,1.0,-3.0,0.0,-0.3,880,72,,,,,,,,,,,,,,,,,,,
27389,1480714397402,,,,,,,,-0.0,0.05,1.0,-3.0,0.1,-0.3,840,73,,,,,,,,,,,,,,,,,,,
27409,1480714397422,,,,,,,,0.0,0.05,1.0,-3.0,0.1,-0.2,840,72,,,,,,,,,,,,,,,,,,,
27429,1480714397442,,,,,,,,0.0,0.05,1.0,-3.0,-0.0,-0.1,860,66,,,,,,,,,,,,,,,,,,,
27449,1480714397462,0,52.1,,78.2,54,69.2,,0.01,0.05,1.0,-3.0,0.2,-0.0,860,66,1,0,12.222,0,37.478439,-122.203735,1.11,0.0,28.9,10,3,1.7,0,0.0,-1,0.0,0.0,0.0,0
27469,1480714397482,,,,,,,,0.02,0.06,1.01,-3.0,-0.0,-0.0,860,66,,,,,,,,,,,,,,,,,,,
27489,1480714397502,,,,,,,,0.01,0.06,1.01,-3.0,-0.2,-0.1,880,73,,,,,,,,,,,,,,,,,,,
27509,1480714397522,,,,,,,,0.01,0.06,1.0,-3.0,-0.0,-0.1,900,73,,,,,,,,,,,,,,,,,,,
27529,1480714397542,,,,,,,,0.01,0.04,1.0,-3.0,-0.2,-0.2,860,66,,,,,,,,,,,,,,,,,,,
27549,1480714397562,,,,,56,,,0.01,0.04,1.0,-3.0,-0.1,-0.1,880,63,1,0,12.055,0,37.478439,-122.203735,1.11,0.0,28.8,10,3,1.7,0,0.0,-1,0.0,,0.0,0
27569,1480714397582,,,,,,,,0.02,0.04,1.0,-3.0,-0.1,-0.1,880,67,,,,,,,,,,,,,,,,,,,
27589,1480714397602,,,,,,,,0.03,0.04,1.0,-3.0,-0.2,-0.0,880,69,,,,,,,,,,,,,,,,,,,
27609,1480714397622,,,,,,,,0.02,0.05,1.0,-3.0,0.0,0.1,900,66,,,,,,,,,,,,,,,,,,,
27629,1480714397642,,,,,,,,0.03,0.05,1.0,-3.0,0.2,0.2,900,66,,,,,,,,,,,,,,,,,,,
