"Interval"|"ms"|0|0|1,"Utc"|"ms"|0|0|1,"FuelLevel"|"F"|0|100|5,"OilTemp"|"F"|0.0|300.0|5,"CoolantPressPSI"|"PSI"|0.0|20.0|1,"Coolant"|"F"|0.0|300.0|5,"OilPress"|"PSI"|0|150|10,"EngineTemp"|"F"|0.0|300.0|5,"Battery"|"Volts"|0.0|20.0|1,"AccelX"|"G"|-3.0|3.0|50,"AccelY"|"G"|-3.0|3.0|50,"AccelZ"|"G"|-3.0|3.0|50,"Yaw"|"Deg/Sec"|-300.0|300.0|50,"Pitch"|"Deg/Sec"|-300.0|300.0|50,"Roll"|"Deg/Sec"|-300.0|300.0|50,"RPM"|""|0|10000|50,"Driveshaft"|"RPM"|0|5000|50,"GPIO1"|""|0|1|10,"GPIO2"|""|0|1|10,"GearRatio"|""|-5.0|5.0|10,"Gear"|""|-1|5|10,"Latitude"|"Degrees"|-180.0|180.0|10,"Longitude"|"Degrees"|-180.0|180.0|10,"Speed"|"MPH"|0.0|150.0|10,"Distance"|"Miles"|0.0|0.0|10,"Altitude"|"Feet"|0.0|4000.0|10,"GPSSats"|""|0|20|10,"GPSQual"|""|0|5|10,"GPSDOP"|""|0.0|20.0|10,"LapCount"|""|0|0|10,"LapTime"|"Min"|0.0|0.0|10,"Sector"|""|0|0|10,"SectorTime"|"Min"|0.0|0.0|10,"PredTime"|"Min"|0.0|0.0|5,"ElapsedTime"|"Min"|0.0|0.0|10,"CurrentLap"|""|0|0|10
1171813,1480803358217,,,,,,,,-0.0,0.04,0.98,-3.1,0.3,-0.3,160,0,,,,,,,,,,,,,,,,,,,
1171833,1480803358237,,,,,,,,-0.0,0.04,0.97,-3.2,0.4,-0.3,260,0,,,,,,,,,,,,,,,,,,,
1171853,1480803358257,0,146.5,,161.9,0,178.3,,0.0,0.04,0.97,-3.2,0.4,-0.4,260,0,0,1,0.0,0,38.159237,-122.454475,0.0,3.046,10.8,10,3,2.0,0,0.0,-1,0.0,0.0,0.0,0
1171873,1480803358277,,,,,,,,0.0,0.05,0.97,-3.2,0.4,-0.3,360,0,,,,,,,,,,,,,,,,,,,
1171893,1480803358297,,,,,,,,0.0,0.04,0.98,-3.1,0.4,-0.3,360,0,,,,,,,,,,,,,,,,,,,
1171913,1480803358317,,,,,,,,0.01,0.04,0.97,-3.1,0.4,-0.3,360,0,,,,,,,,,,,,,,,,,,,
1171933,1480803358337,,,,,,,,0.01,0.04,0.97,-3.2,0.4,-0.2,420,0,,,,,,,,,,,,,,,,,,,
1171953,1480803358357,,,,,0,,,0.01,0.04,0.97,-3.1,0.4,-0.2,420,0,0,0,0.0,0,38.159237,-122.454475,0.0,3.046,10.8,10,3,2.0,0,0.0,-1,0.0,,0.0,0
1171973,1480803358377,,,,,,,,0.01,0.05,0.97,-3.2,0.4,-0.2,440,0,,,,,,,,,,,,,,,,,,,
1171993,1480803358298,,,,,,,,0.0,0.03,0.96,-3.0,0.2,-0.5,440,0,,,,,,,,,,,,,,,,,,,
1172013,1480803358318,,,,,,,,0.01,0.04,0.96,-3.1,0.4,-0.3,520,0,,,,,,,,,,,,,,,,,,,
1172033,1480803358338,,,,,,,,0.01,0.04,0.96,-3.1,0.4,-0.3,700,0,,,,,,,,,,,,,,,,,,,
1172053,1480803358358,0,147.3,2.2,162.9,0,179.7,11.43,0.01,0.04,0.97,-3.0,0.2,-0.4,700,0,0,0,0.0,0,38.159237,-122.454475,0.0,3.046,10.8,10,3,2.0,0,0.0,-1,0.0,0.0,0.0,0
1172073,1480803358378,,,,,,,,0.01,0.05,0.97,-3.0,0.1,-0.3,800,0,,,,,,,,,,,,,,,,,,,
1172093,1480803358398,,,,,,,,0.01,0.05,0.97,-3.1,0.2,-0.3,860,0,,,,,,,,,,,,,,,,,,,
1172113,1480803358418,,,,,,,,0.02,0.06,0.97,-3.1,0.3,-0.2,900,0,,,,,,,,,,,,,,,,,,,
1172133,1480803358438,,,,,,,,0.03,0.07,0.97,-3.2,0.1,-0.0,900,0,,,,,,,,,,,,,,,,,,,
1172153,1480803358458,,,,,3,,,0.02,0.09,0.97,-3.3,0.1,0.1,940,0,0,0,0.0,0,38.159237,-122.454475,0.0,3.046,10.8,10,3,2.0,0,0.0,-1,0.0,,0.0,0
1172173,1480803358478,,,,,,,,0.02,0.09,0.99,-3.3,0.2,0.0,920,0,,,,,,,,,,,,,,,,,,,
1172193,1480803358498,,,,,,,,0.02,0.09,0.99,-3.2,0.2,-0.0,920,0,,,,,,,,,,,,,,,,,,,
1172213,1480803358518,,,,,,,,0.02,0.09,0.99,-3.2,0.2,-0.2,920,0,,,,,,,,,,,,,,,,,,,
1172233,1480803358538,,,,,,,,0.02,0.08,0.98,-3.1,0.2,-0.3,920,0,,,,,,,,,,,,,,,,,,,
1172253,1480803358558,0,146.6,,161.8,6,178.3,,0.02,0.06,0.98,-3.2,0.2,-0.4,960,13,0,1,0.0,0,38.159237,-122.454475,0.0,3.046,10.8,10,3,2.0,0,0.0,-1,0.0,0.0,0.0,0
1172273,1480803358578,,,,,,,,0.02,0.05,0.98,-3.1,0.2,-0.3,980,13,,,,,,,,,,,,,,,,,,,
1172293,1480803358598,,,,,,,,0.02,0.04,0.98,-3.1,0.3,-0.4,1080,13,,,,,,,,,,,,,,,,,,,
1172313,1480803358618,,,,,,,,0.02,0.03,0.98,-3.0,0.2,-0.5,1040,13,,,,,,,,,,,,,,,,,,,
1172333,1480803358638,,,,,,,,0.03,0.02,0.97,-2.9,0.3,-0.6,1080,13,,,,,,,,,,,,,,,,,,,
1172353,1480803358658,,,,,9,,,0.03,0.04,0.96,-2.9,0.3,-0.6,1120,13,0,1,80.0,0,38.159237,-122.454475,0.0,3.046,10.8,10,3,2.0,0,0.0,-1,0.0,,0.0,0
1172373,1480803358678,,,,,,,,0.04,0.06,0.97,-3.0,0.6,-0.5,1180,769230,,,,,,,,,,,,,,,,,,,
1172393,1480803358696,,,,,,,,0.04,0.05,0.97,-3.0,0.8,-0.4,1260,0,,,,,,,,,,,,,,,,,,,
1172413,1480803358716,,,,,,,,0.03,0.04,0.96,-3.0,1.0,-0.3,1280,0,,,,,,,,,,,,,,,,,,,
1172433,1480803358736,,,,,,,,0.02,0.04,0.95,-3.0,0.6,-0.4,1320,0,,,,,,,,,,,,,,,,,,,
1172453,1480803358756,0,146.5,,162.5,18,179.0,,0.03,0.05,0.96,-3.0,0.5,-0.3,1380,0,0,1,0.0,0,38.159237,-122.454475,0.0,3.046,10.8,10,3,2.0,0,0.0,-1,0.0,0.0,0.0,0
1172473,1480803358776,,,,,,,,0.03,0.04,0.97,-3.0,0.7,-0.4,1400,0,,,,,,,,,,,,,,,,,,,
1172493,1480803358796,,,,,,,,0.01,0.05,0.96,-3.0,0.5,-0.4,1440,0,,,,,,,,,,,,,,,,,,,
1172513,1480803358816,,,,,,,,0.02,0.05,0.95,-3.1,0.4,-0.3,1440,0,,,,,,,,,,,,,,,,,,,
1172533,1480803358836,,,,,,,,0.01,0.04,0.95,-3.1,0.3,-0.4,1460,0,,,,,,,,,,,,,,,,,,,
1172553,1480803358856,,,,,28,,,0.01,0.04,0.95,-3.1,0.3,-0.3,1480,0,0,1,0.0,0,38.159237,-122.454475,0.0,3.046,10.8,10,3,2.0,0,0.0,-1,0.0,,0.0,0
1172573,1480803358876,,,,,,,,0.01,0.03,0.96,-3.0,0.5,-0.4,1480,0,,,,,,,,,,,,,,,,,,,
1172593,1480803358896,,,,,,,,0.01,0.03,0.96,-2.9,0.4,-0.3,1460,0,,,,,,,,,,,,,,,,,,,
1172613,1480803359007,,,,,,,,0.02,0.03,0.97,-2.8,0.4,-0.3,1480,0,,,,,,,,,,,,,,,,,,,
1172633,1480803359027,,,,,,,,0.02,0.04,0.97,-2.8,0.5,-0.3,1500,0,,,,,,,,,,,,,,,,,,,
1172653,1480803359047,0,146.1,,161.7,35,178.3,,0.02,0.04,0.97,-2.7,0.6,-0.3,1460,0,0,1,0.0,0,38.159237,-122.454475,0.0,3.046,10.8,10,3,2.0,0,0.0,-1,0.0,0.0,0.0,0
1172673,1480803359067,,,,,,,,0.02,0.04,0.97,-2.7,0.5,-0.3,1480,0,,,,,,,,,,,,,,,,,,,
1172693,1480803359087,,,,,,,,0.02,0.04,0.97,-2.7,0.6,-0.3,1460,0,,,,,,,,,,,,,,,,,,,
1172713,1480803359107,,,,,,,,0.02,0.05,0.97,-2.7,0.5,-0.3,1460,0,,,,,,,,,,,,,,,,,,,
1172733,1480803359127,,,,,,,,0.02,0.05,0.97,-2.7,0.6,-0.3,1460,0,,,,,,,,,,,,,,,,,,,
1172753,1480803359147,,,,,38,,,0.03,0.05,0.98,-2.7,0.6,-0.3,1460,0,0,1,0.0,0,38.159237,-122.454475,0.0,3.046,10.8,10,3,2.0,0,0.0,-1,0.0,,0.0,0
1172773,1480803359167,,,,,,,,0.03,0.05,0.98,-2.7,0.6,-0.3,1440,0,,,,,,,,,,,,,,,,,,,
1172793,1480803359096,,,,,,,,0.03,0.05,0.98,-2.7,0.7,-0.3,1440,0,,,,,,,,,,,,,,,,,,,
1172813,1480803359116,,,,,,,,0.03,0.06,0.98,-2.8,0.7,-0.2,1400,0,,,,,,,,,,,,,,,,,,,
1172833,1480803359136,,,,,,,,0.03,0.06,0.98,-2.8,0.7,-0.3,1420,0,,,,,,,,,,,,,,,,,,,
1172853,1480803359156,0,147.5,,162.9,42,179.6,,0.03,0.06,0.98,-2.8,0.6,-0.2,1400,0,0,1,0.0,0,38.159237,-122.454475,0.0,3.046,10.8,10,3,2.0,0,0.0,-1,0.0,0.0,0.0,0
1172873,1480803359176,,,,,,,,0.03,0.06,0.98,-2.8,0.5,-0.2,1400,0,,,,,,,,,,,,,,,,,,,
1172893,1480803359196,,,,,,,,0.03,0.06,0.97,-2.9,0.5,-0.2,1380,0,,,,,,,,,,,,,,,,,,,
1172913,1480803359216,,,,,,,,0.03,0.05,0.97,-2.9,0.5,-0.2,1360,0,,,,,,,,,,,,,,,,,,,
1172933,1480803359236,,,,,,,,0.02,0.05,0.98,-2.9,0.6,-0.3,1360,0,,,,,,,,,,,,,,,,,,,
1172953,1480803359256,,,,,39,,,0.02,0.06,0.98,-2.9,0.5,-0.3,1340,0,0,1,0.0,0,38.159237,-122.454475,0.0,3.046,10.8,10,3,2.0,0,0.0,-1,0.0,,0.0,0
1172973,1480803359276,,,,,,,,0.02,0.05,0.98,-2.9,0.5,-0.3,1320,0,,,,,,,,,,,,,,,,,,,
1172993,1480803359296,,,,,,,,0.02,0.05,0.98,-2.9,0.6,-0.3,1300,0,,,,,,,,,,,,,,,,,,,
1173013,1480803359316,,,,,,,,0.02,0.06,0.97,-2.9,0.4,-0.2,1280,0,,,,,,,,,,,,,,,,,,,
1173033,1480803359336,,,,,,,,0.02,0.05,0.97,-2.9,0.4,-0.2,1280,0,,,,,,,,,,,,,,,,,,,
1173053,1480803359356,0,146.0,1.7,161.7,42,178.2,13.7,0.02,0.05,0.97,-2.9,0.4,-0.2,1280,0,0,1,0.0,0,38.159237,-122.454475,0.0,3.046,10.8,10,3,2.0,0,0.0,-1,0.0,0.0,0.0,0
1173073,1480803359376,,,,,,,,0.02,0.05,0.97,-3.0,0.4,-0.2,1260,0,,,,,,,,,,,,,,,,,,,
1173093,1480803359396,,,,,,,,0.02,0.05,0.97,-3.0,0.4,-0.2,1240,0,,,,,,,,,,,,,,,,,,,
1173113,1480803359416,,,,,,,,0.02,0.05,0.97,-3.0,0.4,-0.2,1240,0,,,,,,,,,,,,,,,,,,,
1173133,1480803359436,,,,,,,,0.02,0.05,0.97,-3.0,0.4,-0.2,1220,0,,,,,,,,,,,,,,,,,,,
1173153,1480803359456,,,,,37,,,0.02,0.05,0.97,-3.0,0.4,-0.2,1220,0,0,1,0.0,0,38.159237,-122.454475,0.0,3.046,10.8,10,3,2.0,0,0.0,-1,0.0,,0.0,0
1173173,1480803359476,,,,,,,,0.02,0.05,0.97,-3.0,0.5,-0.2,1200,0,,,,,,,,,,,,,,,,,,,
1173193,1480803359496,,,,,,,,0.02,0.04,0.97,-3.0,0.5,-0.2,1180,0,,,,,,,,,,,,,,,,,,,
1173213,1480803359516,,,,,,,,0.02,0.04,0.97,-3.0,0.4,-0.2,1160,0,,,,,,,,,,,,,,,,,,,
1173233,1480803359536,,,,,,,,0.02,0.04,0.97,-3.0,0.3,-0.2,1160,0,,,,,,,,,,,,,,,,,,,
1173253,1480803359556,0,147.2,,163.0,31,179.6,,0.02,0.05,0.97,-3.0,0.3,-0.2,1160,0,0,1,0.0,0,38.159237,-122.454475,0.0,3.046,10.8,10,3,2.0,0,0.0,-1,0.0,0.0,0.0,0
1173273,1480803359576,,,,,,,,0.02,0.05,0.97,-3.1,0.4,-0.2,1140,0,,,,,,,,,,,,,,,,,,,
1173293,1480803359597,,,,,,,,0.02,0.05,0.97,-3.1,0.4,-0.2,1120,0,,,,,,,,,,,,,,,,,,,
1173313,1480803359617,,,,,,,,0.02,0.05,0.97,-3.1,0.3,-0.2,1100,0,,,,,,,,,,,,,,,,,,,
1173333,1480803359637,,,,,,,,0.02,0.05,0.97,-3.1,0.3,-0.2,1120,0,,,,,,,,,,,,,,,,,,,
1173353,1480803359657,,,,,30,,,0.02,0.05,0.97,-3.1,0.4,-0.2,1100,0,0,1,0.0,0,38.159237,-122.454475,0.0,3.046,10.8,10,3,2.0,0,0.0,-1,0.0,,0.0,0
1173373,1480803359677,,,,,,,,0.02,0.05,0.97,-3.0,0.3,-0.2,1080,0,,,,,,,,,,,,,,,,,,,
1173393,1480803359796,,,,,,,,0.02,0.05,0.97,-3.0,0.4,-0.3,1080,0,,,,,,,,,,,,,,,,,,,
1173413,1480803359816,,,,,,,,0.02,0.05,0.97,-3.0,0.4,-0.2,1080,0,,,,,,,,,,,,,,,,,,,
1173433,1480803359836,,,,,,,,0.01,0.05,0.97,-3.0,0.4,-0.2,1060,0,,,,,,,,,,,,,,,,,,,
1173453,1480803359856,0,147.4,,163.2,28,179.8,,0.01,0.05,0.97,-3.1,0.4,-0.2,1060,0,0,1,0.0,0,38.159237,-122.454475,0.0,3.046,10.8,10,3,2.4,0,0.0,-1,0.0,0.0,0.0,0
1173473,1480803359876,,,,,,,,0.01,0.05,0.97,-3.1,0.5,-0.2,1040,0,,,,,,,,,,,,,,,,,,,
1173493,1480803359896,,,,,,,,0.01,0.05,0.96,-3.1,0.5,-0.2,1040,0,,,,,,,,,,,,,,,,,,,
1173513,1480803359916,,,,,,,,0.01,0.05,0.96,-3.1,0.5,-0.2,1020,0,,,,,,,,,,,,,,,,,,,
1173533,1480803359936,,,,,,,,0.01,0.06,0.96,-3.1,0.5,-0.2,1020,0,,,,,,,,,,,,,,,,,,,
1173553,1480803359956,,,,,33,,,0.01,0.06,0.96,-3.1,0.5,-0.1,1000,0,0,1,0.0,0,38.159237,-122.454475,0.0,3.046,10.8,10,3,2.4,0,0.0,-1,0.0,,0.0,0
1173573,1480803359976,,,,,,,,0.01,0.06,0.97,-3.1,0.5,-0.1,1000,0,,,,,,,,,,,,,,,,,,,
1173593,1480803359996,,,,,,,,0.01,0.06,0.97,-3.1,0.5,-0.1,980,0,,,,,,,,,,,,,,,,,,,
1173613,1480803359909,,,,,,,,0.01,0.06,0.97,-3.1,0.5,-0.1,980,0,,,,,,,,,,,,,,,,,,,
1173633,1480803359929,,,,,,,,0.02,0.06,0.97,-3.1,0.4,-0.0,980,0,,,,,,,,,,,,,,,,,,,
1173653,1480803359949,1,147.3,,163.0,30,179.2,,0.02,0.06,0.97,-3.1,0.3,-0.0,980,0,0,1,0.0,0,38.159237,-122.454475,0.0,3.046,10.8,10,3,2.4,0,0.0,-1,0.0,0.0,0.0,0
1173673,1480803359969,,,,,,,,0.02,0.06,0.96,-3.1,0.3,0.0,980,0,,,,,,,,,,,,,,,,,,,
1173693,1480803359997,,,,,,,,0.02,0.07,0.97,-3.1,0.3,0.0,980,0,,,,,,,,,,,,,,,,,,,
1173713,1480803360017,,,,,,,,0.02,0.07,0.97,-3.1,0.3,0.1,960,0,,,,,,,,,,,,,,,,,,,
1173733,1480803360037,,,,,,,,0.02,0.08,0.97,-3.1,0.3,0.1,960,0,,,,,,,,,,,,,,,,,,,
1173753,1480803360057,,,,,25,,,0.02,0.08,0.97,-3.1,0.4,0.1,960,0,0,1,0.0,0,38.159237,-122.454475,0.0,3.046,10.8,10,3,2.4,0,0.0,-1,0.0,,0.0,0
1173773,1480803360077,,,,,,,,0.02,0.08,0.97,-3.1,0.4,0.0,940,0,,,,,,,,,,,,,,,,,,,
1173793,1480803360097,,,,,,,,0.02,0.08,0.97,-3.1,0.5,0.0,940,0,,,,,,,,,,,,,,,,,,,
1173813,1480803360117,,,,,,,,0.02,0.08,0.97,-3.1,0.5,0.0,940,0,,,,,,,,,,,,,,,,,,,
1173833,1480803360137,,,,,,,,0.02,0.08,0.97,-3.1,0.5,-0.0,940,0,,,,,,,,,,,,,,,,,,,
1173853,1480803360157,0,147.5,,163.3,26,179.4,,0.02,0.07,0.97,-3.0,0.5,-0.1,920,0,0,1,0.0,0,38.159237,-122.454475,0.0,3.046,10.8,10,3,2.4,0,0.0,-1,0.0,0.0,0.0,0
1173873,1480803360177,,,,,,,,0.01,0.06,0.98,-3.0,0.6,-0.2,920,0,,,,,,,,,,,,,,,,,,,
1173893,1480803360197,,,,,,,,0.01,0.05,0.98,-3.0,0.5,-0.3,920,0,,,,,,,,,,,,,,,,,,,
1173913,1480803360217,,,,,,,,0.01,0.05,0.98,-2.9,0.5,-0.4,920,0,,,,,,,,,,,,,,,,,,,
1173933,1480803360237,,,,,,,,0.01,0.04,0.97,-2.9,0.5,-0.4,920,0,,,,,,,,,,,,,,,,,,,
1173953,1480803360257,,,,,25,,,0.01,0.03,0.97,-2.9,0.5,-0.4,900,0,0,1,0.0,0,38.159237,-122.454475,0.0,3.046,10.8,10,3,2.4,0,0.0,-1,0.0,,0.0,0
1173973,1480803360277,,,,,,,,0.01,0.03,0.97,-2.9,0.4,-0.4,900,0,,,,,,,,,,,,,,,,,,,
1173993,1480803360297,,,,,,,,0.01,0.04,0.97,-3.0,0.4,-0.3,900,0,,,,,,,,,,,,,,,,,,,
1174013,1480803360317,,,,,,,,0.01,0.04,0.96,-3.0,0.4,-0.1,900,0,,,,,,,,,,,,,,,,,,,
1174033,1480803360337,,,,,,,,0.02,0.05,0.97,-3.1,0.4,-0.0,900,0,,,,,,,,,,,,,,,,,,,
1174053,1480803360357,0,147.3,1.6,162.6,23,178.1,13.67,0.02,0.06,0.97,-3.1,0.5,0.1,900,0,0,1,0.0,0,38.159237,-122.454475,0.0,3.046,10.8,10,3,2.4,0,0.0,-1,0.0,0.0,0.0,0
1174073,1480803360377,,,,,,,,0.02,0.08,0.97,-3.1,0.5,0.0,900,0,,,,,,,,,,,,,,,,,,,
1174093,1480803360397,,,,,,,,0.02,0.08,0.97,-3.1,0.6,-0.0,900,0,,,,,,,,,,,,,,,,,,,
1174113,1480803360417,,,,,,,,0.02,0.08,0.97,-3.1,0.5,-0.1,900,0,,,,,,,,,,,,,,,,,,,
1174133,1480803360437,,,,,,,,0.01,0.07,0.97,-3.0,0.5,-0.3,900,0,,,,,,,,,,,,,,,,,,,
1174153,1480803360457,,,,,26,,,0.01,0.06,0.97,-3.0,0.5,-0.4,900,0,0,1,0.0,0,38.159237,-122.454475,0.0,3.046,10.8,10,3,2.4,0,0.0,-1,0.0,,0.0,0
1174173,1480803360477,,,,,,,,0.01,0.05,0.98,-3.0,0.5,-0.4,900,0,,,,,,,,,,,,,,,,,,,
1174193,1480803360596,,,,,,,,0.01,0.04,0.98,-3.0,0.5,-0.4,900,0,,,,,,,,,,,,,,,,,,,
1174213,1480803360616,,,,,,,,0.02,0.04,0.97,-3.0,0.5,-0.3,900,0,,,,,,,,,,,,,,,,,,,
1174233,1480803360636,,,,,,,,0.02,0.05,0.97,-3.0,0.4,-0.1,900,0,,,,,,,,,,,,,,,,,,,
1174253,1480803360656,0,147.2,,162.4,22,177.8,,0.02,0.06,0.97,-3.1,0.5,-0.0,900,0,0,1,0.0,0,38.159237,-122.454475,0.0,3.046,10.8,10,3,2.4,0,0.0,-1,0.0,0.0,0.0,0
1174273,1480803360676,,,,,,,,0.02,0.07,0.97,-3.1,0.5,-0.0,880,0,,,,,,,,,,,,,,,,,,,
1174293,1480803360696,,,,,,,,0.02,0.07,0.97,-3.1,0.6,-0.1,880,0,,,,,,,,,,,,,,,,,,,
1174313,1480803360716,,,,,,,,0.02,0.07,0.97,-3.1,0.6,-0.2,880,0,,,,,,,,,,,,,,,,,,,
1174333,1480803360736,,,,,,,,0.02,0.07,0.97,-3.0,0.5,-0.3,880,0,,,,,,,,,,,,,,,,,,,
1174353,1480803360756,,,,,26,,,0.02,0.06,0.97,-3.0,0.5,-0.4,880,0,0,1,0.0,0,38.159237,-122.454475,0.0,3.046,10.8,10,3,2.4,0,0.0,-1,0.0,,0.0,0
1174373,1480803360776,,,,,,,,0.01,0.04,0.97,-3.0,0.5,-0.4,880,0,,,,,,,,,,,,,,,,,,,
1174393,1480803360696,,,,,,,,0.02,0.04,0.98,-3.0,0.5,-0.4,880,0,,,,,,,,,,,,,,,,,,,
1174413,1480803360716,,,,,,,,0.02,0.04,0.98,-3.0,0.4,-0.3,880,0,,,,,,,,,,,,,,,,,,,
1174433,1480803360736,,,,,,,,0.02,0.05,0.98,-3.1,0.4,-0.1,880,0,,,,,,,,,,,,,,,,,,,
1174453,1480803360756,0,146.7,,163.8,26,179.3,,0.02,0.06,0.97,-3.1,0.4,-0.0,860,0,0,1,0.0,0,38.159237,-122.454475,0.0,3.046,10.8,10,3,2.0,0,0.0,-1,0.0,0.0,0.0,0
1174473,1480803360776,,,,,,,,0.02,0.07,0.97,-3.1,0.5,-0.0,860,0,,,,,,,,,,,,,,,,,,,
1174493,1480803360796,,,,,,,,0.02,0.07,0.97,-3.1,0.4,-0.2,860,0,,,,,,,,,,,,,,,,,,,
1174513,1480803360816,,,,,,,,0.02,0.06,0.97,-3.0,0.4,-0.3,860,0,,,,,,,,,,,,,,,,,,,
1174533,1480803360836,,,,,,,,0.02,0.06,0.97,-3.0,0.4,-0.4,860,0,,,,,,,,,,,,,,,,,,,
1174553,1480803360856,,,,,26,,,0.02,0.05,0.97,-3.0,0.5,-0.4,860,0,0,1,0.0,0,38.159237,-122.454475,0.0,3.046,10.8,10,3,2.0,0,0.0,-1,0.0,,0.0,0
1174573,1480803360876,,,,,,,,0.02,0.05,0.97,-3.0,0.5,-0.2,860,0,,,,,,,,,,,,,,,,,,,
1174593,1480803360896,,,,,,,,0.02,0.06,0.97,-3.1,0.4,-0.1,860,0,,,,,,,,,,,,,,,,,,,
1174613,1480803360909,,,,,,,,0.02,0.06,0.97,-3.1,0.4,-0.0,860,0,,,,,,,,,,,,,,,,,,,
1174633,1480803360929,,,,,,,,0.02,0.07,0.97,-3.1,0.4,-0.1,860,0,,,,,,,,,,,,,,,,,,,
1174653,1480803360949,0,146.5,,163.7,25,179.2,,0.02,0.07,0.96,-3.1,0.3,-0.2,860,0,0,1,0.0,0,38.159237,-122.454475,0.0,3.046,10.8,10,3,2.0,0,0.0,-1,0.0,0.0,0.0,0
1174673,1480803360969,,,,,,,,0.02,0.06,0.96,-3.0,0.3,-0.3,860,0,,,,,,,,,,,,,,,,,,,
1174693,1480803360992,,,,,,,,0.02,0.05,0.96,-3.0,0.3,-0.4,860,0,,,,,,,,,,,,,,,,,,,
1174713,1480803361012,,,,,,,,0.02,0.05,0.97,-3.0,0.3,-0.3,860,0,,,,,,,,,,,,,,,,,,,
1174733,1480803361032,,,,,,,,0.02,0.05,0.97,-3.1,0.3,-0.1,860,0,,,,,,,,,,,,,,,,,,,
1174753,1480803361052,,,,,23,,,0.02,0.07,0.96,-3.2,0.3,-0.1,860,0,0,1,0.0,0,38.159237,-122.454475,0.0,3.046,10.8,10,3,2.0,0,0.0,-1,0.0,,0.0,0
1174773,1480803361072,,,,,,,,0.02,0.08,0.96,-3.1,0.2,0.0,880,0,,,,,,,,,,,,,,,,,,,
1174793,1480803361098,,,,,,,,0.02,0.07,0.96,-3.1,0.2,-0.1,880,0,,,,,,,,,,,,,,,,,,,
1174813,1480803361118,,,,,,,,0.02,0.07,0.96,-3.1,0.3,-0.2,880,0,,,,,,,,,,,,,,,,,,,
1174833,1480803361138,,,,,,,,0.02,0.06,0.96,-3.1,0.3,-0.3,880,0,,,,,,,,,,,,,,,,,,,
1174853,1480803361158,0,147.8,,163.0,23,177.6,,0.02,0.05,0.96,-3.0,0.3,-0.4,880,0,0,1,0.0,0,38.159237,-122.454475,0.0,3.046,10.8,10,3,2.0,0,0.0,-1,0.0,0.0,0.0,0
1174873,1480803361178,,,,,,,,0.02,0.04,0.96,-3.0,0.4,-0.4,880,0,,,,,,,,,,,,,,,,,,,
1174893,1480803361198,,,,,,,,0.02,0.05,0.97,-3.0,0.4,-0.3,880,0,,,,,,,,,,,,,,,,,,,
1174913,1480803361218,,,,,,,,0.02,0.05,0.96,-3.1,0.3,-0.1,880,0,,,,,,,,,,,,,,,,,,,
1174933,1480803361238,,,,,,,,0.02,0.06,0.96,-3.1,0.3,-0.0,880,0,,,,,,,,,,,,,,,,,,,
1174953,1480803361258,,,,,27,,,0.02,0.07,0.96,-3.1,0.4,-0.0,880,0,0,1,0.0,0,38.159237,-122.454475,0.0,3.046,10.8,10,3,2.0,0,0.0,-1,0.0,,0.0,0
1174973,1480803361278,,,,,,,,0.02,0.07,0.96,-3.1,0.4,-0.1,880,0,,,,,,,,,,,,,,,,,,,
1174993,1480803361397,,,,,,,,0.02,0.07,0.97,-3.1,0.5,-0.2,880,0,,,,,,,,,,,,,,,,,,,
1175013,1480803361417,,,,,,,,0.02,0.07,0.97,-3.0,0.5,-0.4,880,0,,,,,,,,,,,,,,,,,,,
1175033,1480803361437,,,,,,,,0.01,0.05,0.97,-3.0,0.4,-0.5,900,0,,,,,,,,,,,,,,,,,,,
1175053,1480803361457,0,146.5,1.6,163.2,23,178.3,13.72,0.01,0.05,0.97,-3.0,0.5,-0.5,880,0,0,1,0.0,0,38.159237,-122.454475,0.0,3.046,10.8,10,3,2.0,0,0.0,-1,0.0,0.0,0.0,0
1175073,1480803361477,,,,,,,,0.02,0.05,0.97,-3.0,0.5,-0.4,880,0,,,,,,,,,,,,,,,,,,,
1175093,1480803361497,,,,,,,,0.02,0.05,0.97,-3.1,0.4,-0.3,880,0,,,,,,,,,,,,,,,,,,,
1175113,1480803361517,,,,,,,,0.02,0.05,0.97,-3.1,0.4,-0.1,880,0,,,,,,,,,,,,,,,,,,,
1175133,1480803361537,,,,,,,,0.02,0.07,0.97,-3.1,0.5,-0.0,880,0,,,,,,,,,,,,,,,,,,,
1175153,1480803361557,,,,,26,,,0.02,0.07,0.97,-3.1,0.5,-0.0,900,0,0,1,0.0,0,38.159237,-122.454475,0.0,3.046,10.8,10,3,2.0,0,0.0,-1,0.0,,0.0,0
1175173,1480803361577,,,,,,,,0.02,0.07,0.97,-3.1,0.6,-0.1,900,0,,,,,,,,,,,,,,,,,,,
1175193,1480803361497,,,,,,,,0.02,0.07,0.97,-3.0,0.5,-0.3,900,0,,,,,,,,,,,,,,,,,,,
1175213,1480803361517,,,,,,,,0.02,0.07,0.97,-3.0,0.5,-0.4,880,0,,,,,,,,,,,,,,,,,,,
1175233,1480803361537,,,,,,,,0.01,0.06,0.97,-3.0,0.5,-0.5,880,0,,,,,,,,,,,,,,,,,,,
1175253,1480803361557,0,147.1,,163.0,23,177.5,,0.01,0.05,0.97,-3.0,0.5,-0.5,900,0,0,1,0.0,0,38.159237,-122.454475,0.0,3.046,10.8,10,3,2.0,0,0.0,-1,0.0,0.0,0.0,0
1175273,1480803361577,,,,,,,,0.02,0.04,0.97,-3.0,0.5,-0.4,900,0,,,,,,,,,,,,,,,,,,,
1175293,1480803361597,,,,,,,,0.01,0.05,0.97,-3.1,0.4,-0.2,900,0,,,,,,,,,,,,,,,,,,,
1175313,1480803361617,,,,,,,,0.02,0.05,0.97,-3.1,0.4,-0.0,900,0,,,,,,,,,,,,,,,,,,,
1175333,1480803361637,,,,,,,,0.02,0.06,0.97,-3.1,0.5,-0.0,900,0,,,,,,,,,,,,,,,,,,,
1175353,1480803361657,,,,,25,,,0.02,0.07,0.97,-3.1,0.5,-0.1,880,0,0,1,0.0,0,38.159237,-122.454475,0.0,3.046,10.8,10,3,2.0,0,0.0,-1,0.0,,0.0,0
1175373,1480803361677,,,,,,,,0.02,0.07,0.97,-3.1,0.5,-0.1,880,0,,,,,,,,,,,,,,,,,,,
1175393,1480803361698,,,,,,,,0.02,0.07,0.97,-3.1,0.5,-0.3,880,0,,,,,,,,,,,,,,,,,,,
1175413,1480803361718,,,,,,,,0.01,0.08,0.97,-3.0,0.4,-0.4,900,0,,,,,,,,,,,,,,,,,,,
1175433,1480803361738,,,,,,,,0.01,0.06,0.97,-3.0,0.4,-0.4,900,0,,,,,,,,,,,,,,,,,,,
1175453,1480803361758,0,147.6,,163.2,23,177.3,,0.01,0.06,0.97,-3.0,0.4,-0.4,880,0,0,1,0.0,0,38.159237,-122.454475,0.0,3.046,10.8,10,3,2.0,0,0.0,-1,0.0,0.0,0.0,0
1175473,1480803361778,,,,,,,,0.01,0.06,0.97,-3.1,0.4,-0.3,900,0,,,,,,,,,,,,,,,,,,,
1175493,1480803361798,,,,,,,,0.01,0.06,0.97,-3.1,0.3,-0.2,900,0,,,,,,,,,,,,,,,,,,,
1175513,1480803361818,,,,,,,,0.02,0.06,0.97,-3.1,0.3,-0.1,880,0,,,,,,,,,,,,,,,,,,,
1175533,1480803361838,,,,,,,,0.02,0.08,0.97,-3.2,0.4,-0.0,880,0,,,,,,,,,,,,,,,,,,,
1175553,1480803361858,,,,,24,,,0.02,0.08,0.97,-3.1,0.4,-0.1,880,0,0,1,0.0,0,38.159237,-122.454475,0.0,3.046,10.8,10,3,2.0,0,0.0,-1,0.0,,0.0,0
1175573,1480803361878,,,,,,,,0.02,0.08,0.97,-3.1,0.4,-0.1,880,0,,,,,,,,,,,,,,,,,,,
1175593,1480803361898,,,,,,,,0.02,0.08,0.97,-3.1,0.4,-0.3,880,0,,,,,,,,,,,,,,,,,,,
1175613,1480803361910,,,,,,,,0.01,0.07,0.97,-3.0,0.3,-0.4,880,0,,,,,,,,,,,,,,,,,,,
1175633,1480803361930,,,,,,,,0.01,0.06,0.97,-3.1,0.3,-0.5,880,0,,,,,,,,,,,,,,,,,,,
1175653,1480803361950,0,147.8,,163.6,24,177.2,,0.01,0.05,0.97,-3.1,0.4,-0.4,880,0,0,1,0.0,0,38.159237,-122.454475,0.0,3.046,10.8,10,3,2.0,0,0.0,-1,0.0,0.0,0.0,0
1175673,1480803361970,,,,,,,,0.02,0.05,0.97,-3.1,0.4,-0.3,880,0,,,,,,,,,,,,,,,,,,,
1175693,1480803361991,,,,,,,,0.02,0.05,0.97,-3.1,0.3,-0.2,900,0,,,,,,,,,,,,,,,,,,,
1175713,1480803362011,,,,,,,,0.02,0.06,0.97,-3.2,0.3,-0.0,900,0,,,,,,,,,,,,,,,,,,,
1175733,1480803362031,,,,,,,,0.02,0.07,0.96,-3.2,0.4,0.0,900,0,,,,,,,,,,,,,,,,,,,
1175753,1480803362051,,,,,25,,,0.02,0.07,0.96,-3.2,0.4,-0.0,900,0,0,1,0.0,0,38.159237,-122.454475,0.0,3.046,10.8,10,3,2.0,0,0.0,-1,0.0,,0.0,0
1175773,1480803362071,,,,,,,,0.02,0.07,0.96,-3.1,0.4,-0.1,880,0,,,,,,,,,,,,,,,,,,,
1175793,1480803362197,,,,,,,,0.02,0.07,0.97,-3.1,0.4,-0.2,880,0,,,,,,,,,,,,,,,,,,,
1175813,1480803362217,,,,,,,,0.01,0.06,0.97,-3.1,0.4,-0.4,880,0,,,,,,,,,,,,,,,,,,,
1175833,1480803362237,,,,,,,,0.01,0.05,0.97,-3.0,0.4,-0.4,880,0,,,,,,,,,,,,,,,,,,,
1175853,1480803362257,1,147.4,,163.4,25,177.0,,0.01,0.04,0.97,-3.0,0.5,-0.4,880,0,0,1,0.0,0,38.159237,-122.454475,0.0,3.046,10.8,10,3,2.0,0,0.0,-1,0.0,0.0,0.0,0
1175873,1480803362277,,,,,,,,0.01,0.04,0.96,-3.1,0.4,-0.3,880,0,,,,,,,,,,,,,,,,,,,
1175893,1480803362297,,,,,,,,0.01,0.05,0.96,-3.1,0.3,-0.2,880,0,,,,,,,,,,,,,,,,,,,
1175913,1480803362317,,,,,,,,0.02,0.06,0.97,-3.1,0.4,-0.1,880,0,,,,,,,,,,,,,,,,,,,
1175933,1480803362337,,,,,,,,0.02,0.07,0.97,-3.1,0.5,-0.0,880,0,,,,,,,,,,,,,,,,,,,
1175953,1480803362357,,,,,24,,,0.02,0.07,0.97,-3.1,0.5,-0.1,880,0,0,1,0.0,0,38.159237,-122.454475,0.0,3.046,10.8,10,3,2.0,0,0.0,-1,0.0,,0.0,0
1175973,1480803362377,,,,,,,,0.02,0.07,0.97,-3.1,0.5,-0.2,880,0,,,,,,,,,,,,,,,,,,,
1175993,1480803362297,,,,,,,,0.01,0.07,0.97,-3.0,0.4,-0.3,880,0,,,,,,,,,,,,,,,,,,,
1176013,1480803362317,,,,,,,,0.01,0.06,0.97,-3.0,0.3,-0.4,880,0,,,,,,,,,,,,,,,,,,,
1176033,1480803362337,,,,,,,,0.01,0.05,0.97,-3.0,0.4,-0.4,880,0,,,,,,,,,,,,,,,,,,,
1176053,1480803362357,1,147.0,1.8,164.8,25,178.6,13.77,0.01,0.04,0.97,-3.0,0.4,-0.3,880,0,0,1,0.0,0,38.159237,-122.454475,0.0,3.046,10.8,10,3,2.0,0,0.0,-1,0.0,0.0,0.0,0
1176073,1480803362377,,,,,,,,0.01,0.04,0.97,-3.1,0.4,-0.2,880,0,,,,,,,,,,,,,,,,,,,
1176093,1480803362396,,,,,,,,0.02,0.05,0.97,-3.1,0.3,-0.1,880,0,,,,,,,,,,,,,,,,,,,
1176113,1480803362416,,,,,,,,0.02,0.06,0.97,-3.1,0.4,-0.0,880,0,,,,,,,,,,,,,,,,,,,
1176133,1480803362436,,,,,,,,0.02,0.07,0.97,-3.1,0.4,-0.0,880,0,,,,,,,,,,,,,,,,,,,
1176153,1480803362456,,,,,23,,,0.02,0.07,0.97,-3.1,0.4,-0.1,880,0,0,1,0.0,0,38.159237,-122.454475,0.0,3.046,10.8,10,3,2.0,0,0.0,-1,0.0,,0.0,0
1176173,1480803362476,,,,,,,,0.02,0.07,0.96,-3.1,0.4,-0.2,880,0,,,,,,,,,,,,,,,,,,,
1176193,1480803362497,,,,,,,,0.02,0.06,0.97,-3.1,0.4,-0.4,880,0,,,,,,,,,,,,,,,,,,,
1176213,1480803362517,,,,,,,,0.01,0.04,0.97,-3.0,0.4,-0.5,880,0,,,,,,,,,,,,,,,,,,,
1176233,1480803362537,,,,,,,,0.01,0.04,0.97,-3.0,0.5,-0.4,880,0,,,,,,,,,,,,,,,,,,,
1176253,1480803362557,0,147.4,,164.5,27,176.8,,0.02,0.04,0.97,-3.1,0.4,-0.3,880,0,0,1,0.0,0,38.159237,-122.454475,0.0,3.046,10.8,10,3,2.0,0,0.0,-1,0.0,0.0,0.0,0
1176273,1480803362577,,,,,,,,0.02,0.04,0.97,-3.1,0.4,-0.2,880,0,,,,,,,,,,,,,,,,,,,
1176293,1480803362597,,,,,,,,0.02,0.05,0.97,-3.1,0.4,-0.0,880,0,,,,,,,,,,,,,,,,,,,
1176313,1480803362617,,,,,,,,0.02,0.06,0.97,-3.2,0.5,-0.0,880,0,,,,,,,,,,,,,,,,,,,
1176333,1480803362637,,,,,,,,0.02,0.06,0.97,-3.2,0.5,-0.1,880,0,,,,,,,,,,,,,,,,,,,
1176353,1480803362657,,,,,23,,,0.02,0.06,0.97,-3.2,0.4,-0.2,880,0,0,1,0.0,0,38.159237,-122.454475,0.0,3.046,10.8,10,3,2.0,0,0.0,-1,0.0,,0.0,0
1176373,1480803362677,,,,,,,,0.02,0.05,0.97,-3.1,0.4,-0.3,880,0,,,,,,,,,,,,,,,,,,,
1176393,1480803362697,,,,,,,,0.01,0.04,0.97,-3.1,0.4,-0.4,880,0,,,,,,,,,,,,,,,,,,,
1176413,1480803362717,,,,,,,,0.01,0.03,0.97,-3.0,0.5,-0.5,880,0,,,,,,,,,,,,,,,,,,,
1176433,1480803362737,,,,,,,,0.02,0.04,0.97,-3.0,0.5,-0.4,880,0,,,,,,,,,,,,,,,,,,,
1176453,1480803362757,0,147.9,,165.0,27,178.6,,0.02,0.04,0.97,-3.0,0.4,-0.3,880,0,0,1,0.0,0,38.159237,-122.454475,0.0,3.046,10.8,10,3,2.0,0,0.0,-1,0.0,0.0,0.0,0
1176473,1480803362777,,,,,,,,0.02,0.05,0.97,-3.1,0.4,-0.1,880,0,,,,,,,,,,,,,,,,,,,
1176493,1480803362797,,,,,,,,0.02,0.06,0.97,-3.1,0.4,-0.0,880,0,,,,,,,,,,,,,,,,,,,
1176513,1480803362817,,,,,,,,0.02,0.06,0.96,-3.1,0.5,-0.1,880,0,,,,,,,,,,,,,,,,,,,
1176533,1480803362837,,,,,,,,0.02,0.06,0.97,-3.1,0.5,-0.1,880,0,,,,,,,,,,,,,,,,,,,
1176553,1480803362857,,,,,26,,,0.02,0.06,0.97,-3.1,0.5,-0.3,880,0,0,1,0.0,0,38.159237,-122.454475,0.0,3.046,10.8,10,3,2.0,0,0.0,-1,0.0,,0.0,0
1176573,1480803362877,,,,,,,,0.02,0.06,0.97,-3.0,0.5,-0.4,880,0,,,,,,,,,,,,,,,,,,,
1176593,1480803362897,,,,,,,,0.02,0.05,0.97,-3.0,0.5,-0.4,880,0,,,,,,,,,,,,,,,,,,,
1176613,1480803363006,,,,,,,,0.02,0.05,0.97,-3.0,0.5,-0.4,880,0,,,,,,,,,,,,,,,,,,,
1176633,1480803363026,,,,,,,,0.02,0.05,0.97,-3.0,0.5,-0.3,880,0,,,,,,,,,,,,,,,,,,,
1176653,1480803363046,0,147.8,,165.1,23,177.9,,0.02,0.05,0.96,-3.1,0.4,-0.1,880,0,0,1,0.0,0,38.159237,-122.454475,0.0,3.046,10.8,10,3,2.0,0,0.0,-1,0.0,0.0,0.0,0
1176673,1480803363066,,,,,,,,0.02,0.06,0.97,-3.1,0.4,0.0,880,0,,,,,,,,,,,,,,,,,,,
1176693,1480803363086,,,,,,,,0.02,0.07,0.97,-3.1,0.4,-0.0,880,0,,,,,,,,,,,,,,,,,,,
1176713,1480803363106,,,,,,,,0.02,0.07,0.97,-3.1,0.5,-0.1,880,0,,,,,,,,,,,,,,,,,,,
1176733,1480803363126,,,,,,,,0.02,0.07,0.97,-3.1,0.5,-0.2,880,0,,,,,,,,,,,,,,,,,,,
1176753,1480803363146,,,,,25,,,0.01,0.07,0.97,-3.0,0.5,-0.3,880,0,0,1,0.0,0,38.159237,-122.454475,0.0,3.046,10.8,10,3,2.0,0,0.0,-1,0.0,,0.0,0
1176773,1480803363166,,,,,,,,0.01,0.06,0.97,-3.0,0.4,-0.4,880,0,,,,,,,,,,,,,,,,,,,
1176793,1480803363097,,,,,,,,0.01,0.05,0.97,-3.0,0.5,-0.4,880,0,,,,,,,,,,,,,,,,,,,
1176813,1480803363117,,,,,,,,0.02,0.06,0.97,-3.1,0.5,-0.3,880,0,,,,,,,,,,,,,,,,,,,
1176833,1480803363137,,,,,,,,0.01,0.05,0.97,-3.1,0.4,-0.2,880,0,,,,,,,,,,,,,,,,,,,
1176853,1480803363157,0,147.9,,165.3,23,177.9,,0.02,0.06,0.97,-3.1,0.4,-0.0,880,0,0,1,0.0,0,38.159237,-122.454475,0.0,3.046,10.8,10,3,2.0,0,0.0,-1,0.0,0.0,0.0,0
1176873,1480803363177,,,,,,,,0.02,0.07,0.97,-3.1,0.5,0.0,880,0,,,,,,,,,,,,,,,,,,,
1176893,1480803363197,,,,,,,,0.02,0.08,0.97,-3.1,0.6,-0.0,880,0,,,,,,,,,,,,,,,,,,,
1176913,1480803363217,,,,,,,,0.02,0.08,0.97,-3.1,0.5,-0.1,880,0,,,,,,,,,,,,,,,,,,,
1176933,1480803363237,,,,,,,,0.02,0.08,0.97,-3.1,0.5,-0.2,880,0,,,,,,,,,,,,,,,,,,,
1176953,1480803363257,,,,,24,,,0.01,0.07,0.97,-3.1,0.4,-0.3,880,0,0,1,0.0,0,38.159237,-122.454475,0.0,3.046,10.8,10,3,2.0,0,0.0,-1,0.0,,0.0,0
1176973,1480803363277,,,,,,,,0.01,0.06,0.97,-3.1,0.4,-0.4,880,0,,,,,,,,,,,,,,,,,,,
1176993,1480803363297,,,,,,,,0.01,0.05,0.97,-3.1,0.4,-0.3,880,0,,,,,,,,,,,,,,,,,,,
1177013,1480803363317,,,,,,,,0.02,0.05,0.97,-3.1,0.4,-0.2,880,0,,,,,,,,,,,,,,,,,,,
1177033,1480803363337,,,,,,,,0.02,0.05,0.97,-3.2,0.3,-0.0,880,0,,,,,,,,,,,,,,,,,,,
1177053,1480803363357,0,147.7,1.9,165.3,27,176.4,13.95,0.02,0.07,0.97,-3.2,0.4,0.0,880,0,0,1,0.0,0,38.159237,-122.454475,0.0,3.046,10.8,10,3,2.0,0,0.0,-1,0.0,0.0,0.0,0
1177073,1480803363377,,,,,,,,0.02,0.07,0.97,-3.2,0.4,-0.0,880,0,,,,,,,,,,,,,,,,,,,
1177093,1480803363397,,,,,,,,0.02,0.06,0.97,-3.1,0.5,-0.1,880,0,,,,,,,,,,,,,,,,,,,
1177113,1480803363417,,,,,,,,0.02,0.06,0.97,-3.1,0.5,-0.2,880,0,,,,,,,,,,,,,,,,,,,
1177133,1480803363437,,,,,,,,0.01,0.05,0.97,-3.1,0.4,-0.4,880,0,,,,,,,,,,,,,,,,,,,
1177153,1480803363457,,,,,25,,,0.01,0.04,0.97,-3.1,0.4,-0.4,880,0,0,1,0.0,0,38.159237,-122.454475,0.0,3.046,10.8,10,3,2.0,0,0.0,-1,0.0,,0.0,0
1177173,1480803363477,,,,,,,,0.02,0.04,0.97,-3.1,0.5,-0.4,880,0,,,,,,,,,,,,,,,,,,,
1177193,1480803363497,,,,,,,,0.02,0.04,0.98,-3.1,0.5,-0.3,880,0,,,,,,,,,,,,,,,,,,,
1177213,1480803363517,,,,,,,,0.02,0.05,0.98,-3.1,0.5,-0.2,880,0,,,,,,,,,,,,,,,,,,,
1177233,1480803363537,,,,,,,,0.02,0.06,0.98,-3.1,0.5,-0.1,880,0,,,,,,,,,,,,,,,,,,,
1177253,1480803363557,0,147.8,,165.4,27,176.4,,0.02,0.06,0.98,-3.2,0.5,-0.1,880,0,0,1,0.0,0,38.159237,-122.454475,0.0,3.046,10.8,10,3,2.0,0,0.0,-1,0.0,0.0,0.0,0
1177273,1480803363577,,,,,,,,0.02,0.06,0.97,-3.1,0.5,-0.2,880,0,,,,,,,,,,,,,,,,,,,
1177293,1480803363597,,,,,,,,0.01,0.06,0.97,-3.1,0.5,-0.3,880,0,,,,,,,,,,,,,,,,,,,
1177313,1480803363617,,,,,,,,0.01,0.06,0.97,-3.0,0.4,-0.4,880,0,,,,,,,,,,,,,,,,,,,
1177333,1480803363637,,,,,,,,0.01,0.04,0.97,-3.0,0.4,-0.5,880,0,,,,,,,,,,,,,,,,,,,
1177353,1480803363657,,,,,23,,,0.01,0.04,0.97,-3.0,0.4,-0.5,880,0,0,1,0.0,0,38.159237,-122.454475,0.0,3.046,10.8,10,3,2.0,0,0.0,-1,0.0,,0.0,0
1177373,1480803363677,,,,,,,,0.02,0.04,0.98,-3.0,0.4,-0.3,880,0,,,,,,,,,,,,,,,,,,,
1177393,1480803363796,,,,,,,,0.02,0.05,0.98,-3.1,0.4,-0.2,880,0,,,,,,,,,,,,,,,,,,,
1177413,1480803363816,,,,,,,,0.02,0.06,0.98,-3.1,0.4,-0.1,880,0,,,,,,,,,,,,,,,,,,,
1177433,1480803363836,,,,,,,,0.02,0.07,0.98,-3.1,0.4,-0.0,880,0,,,,,,,,,,,,,,,,,,,
1177453,1480803363856,0,147.8,,165.8,25,177.7,,0.02,0.06,0.98,-3.1,0.5,-0.2,880,0,0,1,0.0,0,38.159237,-122.454475,0.0,3.046,10.8,10,3,2.0,0,0.0,-1,0.0,0.0,0.0,0
1177473,1480803363876,,,,,,,,0.02,0.06,0.97,-3.0,0.4,-0.3,880,0,,,,,,,,,,,,,,,,,,,
1177493,1480803363896,,,,,,,,0.01,0.06,0.97,-3.0,0.4,-0.4,880,0,,,,,,,,,,,,,,,,,,,
1177513,1480803363916,,,,,,,,0.01,0.05,0.97,-3.0,0.4,-0.5,880,0,,,,,,,,,,,,,,,,,,,
1177533,1480803363936,,,,,,,,0.01,0.05,0.97,-3.0,0.5,-0.5,880,0,,,,,,,,,,,,,,,,,,,
1177553,1480803363956,,,,,27,,,0.02,0.05,0.97,-3.1,0.5,-0.4,880,0,0,1,0.0,0,38.159237,-122.454475,0.0,3.046,10.8,10,3,2.0,0,0.0,-1,0.0,,0.0,0
1177573,1480803363976,,,,,,,,0.02,0.05,0.97,-3.1,0.5,-0.3,880,0,,,,,,,,,,,,,,,,,,,
1177593,1480803363996,,,,,,,,0.02,0.05,0.97,-3.1,0.5,-0.1,880,0,,,,,,,,,,,,,,,,,,,
1177613,1480803363909,,,,,,,,0.02,0.06,0.97,-3.1,0.5,-0.1,880,0,,,,,,,,,,,,,,,,,,,
1177633,1480803363929,,,,,,,,0.02,0.06,0.97,-3.1,0.5,-0.2,880,0,,,,,,,,,,,,,,,,,,,
1177653,1480803363949,0,147.8,,165.8,24,176.1,,0.02,0.06,0.97,-3.1,0.5,-0.3,880,0,0,1,0.0,0,38.159237,-122.454475,0.0,3.046,10.8,10,3,2.0,0,0.0,-1,0.0,0.0,0.0,0
1177673,1480803363969,,,,,,,,0.01,0.06,0.97,-3.1,0.5,-0.4,880,0,,,,,,,,,,,,,,,,,,,
1177693,1480803363998,,,,,,,,0.01,0.05,0.97,-3.0,0.5,-0.5,880,0,,,,,,,,,,,,,,,,,,,
1177713,1480803364018,,,,,,,,0.01,0.04,0.97,-3.0,0.5,-0.5,880,0,,,,,,,,,,,,,,,,,,,
1177733,1480803364038,,,,,,,,0.02,0.03,0.97,-3.0,0.5,-0.4,880,0,,,,,,,,,,,,,,,,,,,
1177753,1480803364058,,,,,24,,,0.02,0.04,0.97,-3.1,0.4,-0.2,880,0,0,1,0.0,0,38.159237,-122.454475,0.0,3.046,10.8,10,3,2.4,0,0.0,-1,0.0,,0.0,0
1177773,1480803364078,,,,,,,,0.02,0.04,0.97,-3.1,0.4,-0.1,880,0,,,,,,,,,,,,,,,,,,,
1177793,1480803364098,,,,,,,,0.02,0.06,0.96,-3.1,0.4,-0.1,880,0,,,,,,,,,,,,,,,,,,,
1177813,1480803364118,,,,,,,,0.02,0.06,0.96,-3.1,0.4,-0.1,860,0,,,,,,,,,,,,,,,,,,,
1177833,1480803364138,,,,,,,,0.02,0.06,0.96,-3.1,0.4,-0.3,880,0,,,,,,,,,,,,,,,,,,,
1177853,1480803364158,0,147.0,,165.2,26,177.5,,0.01,0.06,0.96,-3.0,0.3,-0.4,880,0,0,1,0.0,0,38.159237,-122.454475,0.0,3.046,10.8,10,3,2.4,0,0.0,-1,0.0,0.0,0.0,0
1177873,1480803364178,,,,,,,,0.01,0.04,0.96,-3.0,0.4,-0.5,880,0,,,,,,,,,,,,,,,,,,,
1177893,1480803364198,,,,,,,,0.01,0.04,0.96,-3.0,0.4,-0.4,880,0,,,,,,,,,,,,,,,,,,,
1177913,1480803364218,,,,,,,,0.01,0.05,0.97,-3.0,0.4,-0.3,880,0,,,,,,,,,,,,,,,,,,,
1177933,1480803364238,,,,,,,,0.02,0.05,0.97,-3.1,0.4,-0.2,860,0,,,,,,,,,,,,,,,,,,,
1177953,1480803364258,,,,,26,,,0.02,0.07,0.97,-3.1,0.5,-0.1,860,0,0,1,0.0,0,38.159237,-122.454475,0.0,3.046,10.8,10,3,2.4,0,0.0,-1,0.0,,0.0,0
1177973,1480803364278,,,,,,,,0.02,0.07,0.97,-3.1,0.5,-0.1,880,0,,,,,,,,,,,,,,,,,,,
1177993,1480803364298,,,,,,,,0.02,0.06,0.97,-3.0,0.4,-0.2,880,0,,,,,,,,,,,,,,,,,,,
1178013,1480803364318,,,,,,,,0.01,0.06,0.97,-3.0,0.4,-0.3,860,0,,,,,,,,,,,,,,,,,,,
1178033,1480803364338,,,,,,,,0.01,0.06,0.97,-3.0,0.4,-0.4,860,0,,,,,,,,,,,,,,,,,,,
1178053,1480803364358,1,147.8,2.1,166.1,25,176.1,14.01,0.01,0.05,0.97,-3.0,0.5,-0.4,860,0,0,1,0.0,0,38.159237,-122.454475,0.0,3.046,10.8,10,3,2.4,0,0.0,-1,0.0,0.0,0.0,0
1178073,1480803364378,,,,,,,,0.01,0.05,0.97,-3.0,0.5,-0.3,860,0,,,,,,,,,,,,,,,,,,,
1178093,1480803364398,,,,,,,,0.02,0.05,0.96,-3.1,0.4,-0.2,860,0,,,,,,,,,,,,,,,,,,,
1178113,1480803364418,,,,,,,,0.02,0.06,0.96,-3.1,0.4,-0.1,860,0,,,,,,,,,,,,,,,,,,,
1178133,1480803364438,,,,,,,,0.02,0.07,0.96,-3.1,0.5,-0.1,860,0,,,,,,,,,,,,,,,,,,,
1178153,1480803364458,,,,,22,,,0.01,0.07,0.96,-3.1,0.5,-0.2,860,0,0,1,0.0,0,38.159237,-122.454475,0.0,3.046,10.8,10,3,2.4,0,0.0,-1,0.0,,0.0,0
1178173,1480803364478,,,,,,,,0.01,0.06,0.96,-3.0,0.4,-0.3,860,0,,,,,,,,,,,,,,,,,,,
1178193,1480803364597,,,,,,,,0.01,0.05,0.96,-3.0,0.4,-0.4,860,0,,,,,,,,,,,,,,,,,,,
1178213,1480803364617,,,,,,,,0.01,0.04,0.96,-3.0,0.5,-0.4,860,0,,,,,,,,,,,,,,,,,,,
1178233,1480803364637,,,,,,,,0.02,0.04,0.97,-3.1,0.5,-0.3,860,0,,,,,,,,,,,,,,,,,,,
1178253,1480803364657,0,147.8,,166.2,22,175.9,,0.02,0.05,0.97,-3.1,0.5,-0.1,860,0,0,1,0.0,0,38.159237,-122.454475,0.0,3.046,10.8,10,3,2.4,0,0.0,-1,0.0,0.0,0.0,0
1178273,1480803364677,,,,,,,,0.02,0.06,0.97,-3.1,0.5,-0.0,860,0,,,,,,,,,,,,,,,,,,,
1178293,1480803364697,,,,,,,,0.02,0.07,0.97,-3.1,0.5,-0.0,860,0,,,,,,,,,,,,,,,,,,,
1178313,1480803364717,,,,,,,,0.02,0.06,0.97,-3.1,0.5,-0.1,860,0,,,,,,,,,,,,,,,,,,,
1178333,1480803364737,,,,,,,,0.01,0.06,0.97,-3.0,0.5,-0.2,860,0,,,,,,,,,,,,,,,,,,,
1178353,1480803364757,,,,,25,,,0.01,0.05,0.97,-3.0,0.5,-0.3,860,0,0,1,0.0,0,38.159237,-122.454475,0.0,3.046,10.8,10,3,2.4,0,0.0,-1,0.0,,0.0,0
1178373,1480803364777,,,,,,,,0.01,0.05,0.97,-3.0,0.5,-0.4,860,0,,,,,,,,,,,,,,,,,,,
1178393,1480803364698,,,,,,,,0.01,0.05,0.97,-3.0,0.5,-0.2,860,0,,,,,,,,,,,,,,,,,,,
1178413,1480803364718,,,,,,,,0.02,0.06,0.97,-3.1,0.4,-0.1,860,0,,,,,,,,,,,,,,,,,,,
1178433,1480803364738,,,,,,,,0.02,0.06,0.97,-3.1,0.4,0.0,860,0,,,,,,,,,,,,,,,,,,,
1178453,1480803364758,0,147.1,,165.7,24,177.5,,0.02,0.07,0.97,-3.1,0.5,-0.0,860,0,0,1,0.0,0,38.159237,-122.454475,0.0,3.046,10.8,10,3,2.4,0,0.0,-1,0.0,0.0,0.0,0
1178473,1480803364778,,,,,,,,0.02,0.07,0.97,-3.1,0.5,-0.1,860,0,,,,,,,,,,,,,,,,,,,
1178493,1480803364798,,,,,,,,0.01,0.07,0.97,-3.1,0.5,-0.2,860,0,,,,,,,,,,,,,,,,,,,
1178513,1480803364818,,,,,,,,0.01,0.06,0.97,-3.0,0.5,-0.4,880,0,,,,,,,,,,,,,,,,,,,
1178533,1480803364838,,,,,,,,0.01,0.05,0.97,-3.0,0.5,-0.4,880,0,,,,,,,,,,,,,,,,,,,
1178553,1480803364858,,,,,27,,,0.01,0.04,0.97,-3.1,0.5,-0.2,880,0,0,1,0.0,0,38.159237,-122.454475,0.0,3.046,10.8,10,3,2.4,0,0.0,-1,0.0,,0.0,0
1178573,1480803364878,,,,,,,,0.02,0.05,0.97,-3.1,0.5,-0.1,860,0,,,,,,,,,,,,,,,,,,,
1178593,1480803364898,,,,,,,,0.02,0.05,0.97,-3.1,0.5,-0.0,860,0,,,,,,,,,,,,,,,,,,,
1178613,1480803364909,,,,,,,,0.02,0.07,0.97,-3.1,0.5,-0.0,860,0,,,,,,,,,,,,,,,,,,,
1178633,1480803364929,,,,,,,,0.02,0.06,0.97,-3.1,0.5,-0.1,860,0,,,,,,,,,,,,,,,,,,,
1178653,1480803364949,0,146.8,,165.6,26,176.4,,0.02,0.06,0.97,-3.0,0.5,-0.2,860,0,0,1,0.0,0,38.159237,-122.454475,0.0,3.046,10.8,10,3,2.4,0,0.0,-1,0.0,0.0,0.0,0
1178673,1480803364969,,,,,,,,0.01,0.06,0.97,-3.0,0.5,-0.4,860,0,,,,,,,,,,,,,,,,,,,
1178693,1480803364998,,,,,,,,0.01,0.05,0.97,-3.0,0.5,-0.4,860,0,,,,,,,,,,,,,,,,,,,
1178713,1480803365018,,,,,,,,0.02,0.05,0.97,-3.0,0.5,-0.3,860,0,,,,,,,,,,,,,,,,,,,
1178733,1480803365038,,,,,,,,0.02,0.06,0.97,-3.1,0.4,-0.2,860,0,,,,,,,,,,,,,,,,,,,
1178753,1480803365058,,,,,24,,,0.02,0.06,0.97,-3.1,0.4,-0.0,860,0,0,1,0.0,0,38.159237,-122.454475,0.0,3.046,10.8,10,3,2.4,0,0.0,-1,0.0,,0.0,0
1178773,1480803365078,,,,,,,,0.02,0.07,0.97,-3.1,0.5,-0.0,860,0,,,,,,,,,,,,,,,,,,,
1178793,1480803365098,,,,,,,,0.02,0.07,0.97,-3.1,0.4,-0.1,860,0,,,,,,,,,,,,,,,,,,,
1178813,1480803365118,,,,,,,,0.01,0.07,0.96,-3.1,0.4,-0.2,860,0,,,,,,,,,,,,,,,,,,,
1178833,1480803365138,,,,,,,,0.01,0.05,0.97,-3.1,0.5,-0.4,860,0,,,,,,,,,,,,,,,,,,,
1178853,1480803365158,1,147.9,,166.6,22,177.4,,0.01,0.04,0.97,-3.0,0.5,-0.4,860,0,0,1,0.0,0,38.159237,-122.454475,0.0,3.046,10.8,10,3,2.4,0,0.0,-1,0.0,0.0,0.0,0
1178873,1480803365178,,,,,,,,0.02,0.04,0.97,-3.0,0.5,-0.3,860,0,,,,,,,,,,,,,,,,,,,
1178893,1480803365198,,,,,,,,0.02,0.05,0.97,-3.1,0.5,-0.2,860,0,,,,,,,,,,,,,,,,,,,
1178913,1480803365218,,,,,,,,0.02,0.06,0.97,-3.1,0.4,-0.1,860,0,,,,,,,,,,,,,,,,,,,
1178933,1480803365238,,,,,,,,0.02,0.06,0.97,-3.1,0.4,-0.0,860,0,,,,,,,,,,,,,,,,,,,
1178953,1480803365258,,,,,23,,,0.02,0.06,0.97,-3.1,0.4,-0.1,860,0,0,1,0.0,0,38.159237,-122.454475,0.0,3.046,10.8,10,3,2.4,0,0.0,-1,0.0,,0.0,0
1178973,1480803365278,,,,,,,,0.01,0.06,0.97,-3.0,0.3,-0.2,860,0,,,,,,,,,,,,,,,,,,,
1178993,1480803365397,,,,,,,,0.02,0.05,0.97,-3.0,0.4,-0.4,860,0,,,,,,,,,,,,,,,,,,,
1179013,1480803365417,,,,,,,,0.02,0.05,0.97,-3.0,0.4,-0.4,860,0,,,,,,,,,,,,,,,,,,,
1179033,1480803365437,,,,,,,,0.02,0.05,0.97,-3.0,0.4,-0.2,860,0,,,,,,,,,,,,,,,,,,,
1179053,1480803365457,0,148.0,2.5,166.8,22,177.2,14.13,0.02,0.05,0.97,-3.1,0.3,-0.1,860,0,0,1,0.0,0,38.159237,-122.454475,0.0,3.046,10.8,10,3,2.4,0,0.0,-1,0.0,0.0,0.0,0
1179073,1480803365477,,,,,,,,0.02,0.06,0.97,-3.1,0.3,-0.0,860,0,,,,,,,,,,,,,,,,,,,
1179093,1480803365497,,,,,,,,0.02,0.06,0.97,-3.1,0.3,-0.1,860,0,,,,,,,,,,,,,,,,,,,
1179113,1480803365517,,,,,,,,0.02,0.07,0.96,-3.1,0.3,-0.2,860,0,,,,,,,,,,,,,,,,,,,
1179133,1480803365537,,,,,,,,0.01,0.06,0.96,-3.1,0.3,-0.3,860,0,,,,,,,,,,,,,,,,,,,
1179153,1480803365557,,,,,24,,,0.01,0.05,0.96,-3.1,0.4,-0.4,860,0,0,1,0.0,0,38.159237,-122.454475,0.0,3.046,10.8,10,3,2.4,0,0.0,-1,0.0,,0.0,0
1179173,1480803365577,,,,,,,,0.02,0.04,0.97,-3.1,0.4,-0.4,860,0,,,,,,,,,,,,,,,,,,,
1179193,1480803365498,,,,,,,,0.02,0.04,0.97,-3.1,0.4,-0.2,860,0,,,,,,,,,,,,,,,,,,,
1179213,1480803365518,,,,,,,,0.02,0.05,0.97,-3.2,0.4,-0.1,860,0,,,,,,,,,,,,,,,,,,,
1179233,1480803365538,,,,,,,,0.02,0.07,0.97,-3.2,0.4,0.0,860,0,,,,,,,,,,,,,,,,,,,
1179253,1480803365558,0,147.7,,166.7,24,177.1,,0.02,0.07,0.97,-3.2,0.5,-0.0,860,0,0,1,0.0,0,38.159237,-122.454475,0.0,3.046,10.8,10,3,2.4,0,0.0,-1,0.0,0.0,0.0,0
1179273,1480803365578,,,,,,,,0.02,0.06,0.97,-3.1,0.5,-0.2,860,0,,,,,,,,,,,,,,,,,,,
1179293,1480803365598,,,,,,,,0.01,0.06,0.97,-3.1,0.5,-0.3,860,0,,,,,,,,,,,,,,,,,,,
1179313,1480803365618,,,,,,,,0.01,0.05,0.97,-3.0,0.5,-0.4,860,0,,,,,,,,,,,,,,,,,,,
1179333,1480803365638,,,,,,,,0.01,0.05,0.97,-3.0,0.5,-0.4,880,0,,,,,,,,,,,,,,,,,,,
1179353,1480803365658,,,,,26,,,0.02,0.05,0.97,-3.0,0.5,-0.2,880,0,0,1,0.0,0,38.159237,-122.454475,0.0,3.046,10.8,10,3,2.4,0,0.0,-1,0.0,,0.0,0
1179373,1480803365678,,,,,,,,0.02,0.06,0.97,-3.1,0.4,-0.1,880,0,,,,,,,,,,,,,,,,,,,
1179393,1480803365698,,,,,,,,0.02,0.06,0.97,-3.1,0.5,0.0,860,0,,,,,,,,,,,,,,,,,,,
1179413,1480803365718,,,,,,,,0.02,0.07,0.96,-3.1,0.5,-0.0,860,0,,,,,,,,,,,,,,,,,,,
1179433,1480803365738,,,,,,,,0.02,0.07,0.96,-3.1,0.5,-0.1,860,0,,,,,,,,,,,,,,,,,,,
1179453,1480803365758,0,148.0,,167.0,26,177.3,,0.01,0.06,0.96,-3.0,0.5,-0.3,860,0,0,1,0.0,0,38.159237,-122.454475,0.0,3.046,10.8,10,3,2.4,0,0.0,-1,0.0,0.0,0.0,0
1179473,1480803365778,,,,,,,,0.01,0.05,0.96,-3.0,0.5,-0.4,880,0,,,,,,,,,,,,,,,,,,,
1179493,1480803365798,,,,,,,,0.01,0.04,0.97,-3.1,0.5,-0.4,860,0,,,,,,,,,,,,,,,,,,,
1179513,1480803365818,,,,,,,,0.02,0.04,0.97,-3.1,0.5,-0.3,860,0,,,,,,,,,,,,,,,,,,,
1179533,1480803365838,,,,,,,,0.02,0.05,0.97,-3.1,0.5,-0.1,860,0,,,,,,,,,,,,,,,,,,,
1179553,1480803365858,,,,,23,,,0.02,0.06,0.97,-3.1,0.5,-0.0,860,0,0,1,0.0,0,38.159237,-122.454475,0.0,3.046,10.8,10,3,2.4,0,0.0,-1,0.0,,0.0,0
1179573,1480803365878,,,,,,,,0.02,0.06,0.98,-3.1,0.5,-0.0,860,0,,,,,,,,,,,,,,,,,,,
1179593,1480803365898,,,,,,,,0.02,0.06,0.98,-3.1,0.5,-0.1,860,0,,,,,,,,,,,,,,,,,,,
1179613,1480803365909,,,,,,,,0.01,0.06,0.97,-3.0,0.5,-0.2,860,0,,,,,,,,,,,,,,,,,,,
1179633,1480803365929,,,,,,,,0.01,0.05,0.97,-3.0,0.5,-0.4,860,0,,,,,,,,,,,,,,,,,,,
1179653,1480803365949,0,148.0,,167.1,24,177.4,,0.01,0.05,0.97,-3.0,0.5,-0.4,860,0,0,1,0.0,0,38.159237,-122.454475,0.0,3.046,10.8,10,3,2.4,0,0.0,-1,0.0,0.0,0.0,0
1179673,1480803365969,,,,,,,,0.01,0.05,0.97,-3.0,0.5,-0.3,860,0,,,,,,,,,,,,,,,,,,,
1179693,1480803365998,,,,,,,,0.01,0.05,0.97,-3.1,0.4,-0.2,860,0,,,,,,,,,,,,,,,,,,,
1179713,1480803366018,,,,,,,,0.02,0.06,0.97,-3.1,0.4,-0.0,860,0,,,,,,,,,,,,,,,,,,,
1179733,1480803366038,,,,,,,,0.02,0.07,0.97,-3.1,0.4,-0.0,860,0,,,,,,,,,,,,,,,,,,,
1179753,1480803366058,,,,,22,,,0.01,0.06,0.97,-3.1,0.4,-0.1,860,0,0,1,0.0,0,38.159237,-122.454475,0.0,3.046,10.8,10,3,2.4,0,0.0,-1,0.0,,0.0,0
1179773,1480803366078,,,,,,,,0.01,0.06,0.97,-3.1,0.3,-0.2,860,0,,,,,,,,,,,,,,,,,,,
1179793,1480803366197,,,,,,,,0.01,0.05,0.97,-3.1,0.4,-0.3,860,0,,,,,,,,,,,,,,,,,,,
1179813,1480803366217,,,,,,,,0.01,0.05,0.97,-3.1,0.4,-0.3,860,0,,,,,,,,,,,,,,,,,,,
1179833,1480803366237,,,,,,,,0.01,0.05,0.97,-3.1,0.4,-0.2,860,0,,,,,,,,,,,,,,,,,,,
1179853,1480803366257,0,148.0,,167.2,22,177.4,,0.02,0.05,0.97,-3.2,0.4,-0.1,860,0,0,1,0.0,0,38.159237,-122.454475,0.0,3.046,10.8,10,3,2.4,0,0.0,-1,0.0,0.0,0.0,0
1179873,1480803366277,,,,,,,,0.02,0.06,0.97,-3.2,0.5,-0.0,860,0,,,,,,,,,,,,,,,,,,,
1179893,1480803366297,,,,,,,,0.02,0.06,0.97,-3.1,0.5,-0.1,860,0,,,,,,,,,,,,,,,,,,,
1179913,1480803366317,,,,,,,,0.01,0.06,0.98,-3.1,0.4,-0.2,860,0,,,,,,,,,,,,,,,,,,,
1179933,1480803366337,,,,,,,,0.01,0.06,0.97,-3.1,0.4,-0.3,860,0,,,,,,,,,,,,,,,,,,,
1179953,1480803366357,,,,,24,,,0.01,0.05,0.98,-3.0,0.5,-0.4,860,0,0,1,0.0,0,38.159237,-122.454475,0.0,3.046,10.8,10,3,2.4,0,0.0,-1,0.0,,0.0,0
1179973,1480803366377,,,,,,,,0.02,0.05,0.98,-3.0,0.5,-0.3,860,0,,,,,,,,,,,,,,,,,,,
1179993,1480803366298,,,,,,,,0.02,0.05,0.98,-3.1,0.6,-0.2,860,0,,,,,,,,,,,,,,,,,,,
1180013,1480803366318,,,,,,,,0.02,0.05,0.98,-3.1,0.5,-0.1,860,0,,,,,,,,,,,,,,,,,,,
1180033,1480803366338,,,,,,,,0.02,0.06,0.98,-3.1,0.5,-0.0,860,0,,,,,,,,,,,,,,,,,,,
1180053,1480803366358,0,146.9,1.9,166.5,23,176.5,14.16,0.02,0.06,0.98,-3.1,0.5,-0.1,860,0,0,1,0.0,0,38.159237,-122.454475,0.0,3.046,10.8,10,3,2.4,0,0.0,-1,0.0,0.0,0.0,0
1180073,1480803366378,,,,,,,,0.02,0.06,0.97,-3.0,0.4,-0.3,860,0,,,,,,,,,,,,,,,,,,,
1180093,1480803366398,,,,,,,,0.02,0.06,0.98,-3.0,0.5,-0.4,860,0,,,,,,,,,,,,,,,,,,,
1180113,1480803366418,,,,,,,,0.02,0.05,0.97,-3.0,0.5,-0.4,860,0,,,,,,,,,,,,,,,,,,,
1180133,1480803366438,,,,,,,,0.02,0.04,0.97,-3.0,0.5,-0.3,860,0,,,,,,,,,,,,,,,,,,,
1180153,1480803366458,,,,,23,,,0.02,0.05,0.97,-3.1,0.5,-0.2,860,0,0,1,0.0,0,38.159237,-122.454475,0.0,3.046,10.8,10,3,2.4,0,0.0,-1,0.0,,0.0,0
1180173,1480803366478,,,,,,,,0.02,0.06,0.97,-3.1,0.4,-0.1,860,0,,,,,,,,,,,,,,,,,,,
1180193,1480803366498,,,,,,,,0.02,0.07,0.97,-3.1,0.5,-0.1,860,0,,,,,,,,,,,,,,,,,,,
1180213,1480803366518,,,,,,,,0.02,0.06,0.97,-3.1,0.5,-0.2,860,0,,,,,,,,,,,,,,,,,,,
1180233,1480803366538,,,,,,,,0.02,0.06,0.97,-3.1,0.4,-0.2,860,0,,,,,,,,,,,,,,,,,,,
1180253,1480803366558,0,148.0,,167.3,26,177.2,,0.02,0.05,0.97,-3.0,0.5,-0.4,860,0,0,1,0.0,0,38.159237,-122.454475,0.0,3.046,10.8,10,3,2.4,0,0.0,-1,0.0,0.0,0.0,0
1180273,1480803366578,,,,,,,,0.02,0.05,0.97,-3.0,0.5,-0.4,860,0,,,,,,,,,,,,,,,,,,,
1180293,1480803366598,,,,,,,,0.02,0.04,0.97,-3.1,0.6,-0.3,860,0,,,,,,,,,,,,,,,,,,,
1180313,1480803366618,,,,,,,,0.02,0.05,0.97,-3.1,0.5,-0.1,860,0,,,,,,,,,,,,,,,,,,,
1180333,1480803366638,,,,,,,,0.02,0.06,0.97,-3.1,0.5,-0.0,860,0,,,,,,,,,,,,,,,,,,,
1180353,1480803366658,,,,,25,,,0.02,0.07,0.97,-3.1,0.5,-0.0,860,0,0,1,0.0,0,38.159237,-122.454475,0.0,3.046,10.8,10,3,2.4,0,0.0,-1,0.0,,0.0,0
1180373,1480803366678,,,,,,,,0.02,0.06,0.97,-3.1,0.5,-0.1,860,0,,,,,,,,,,,,,,,,,,,
1180393,1480803366698,,,,,,,,0.02,0.06,0.97,-3.1,0.4,-0.2,860,0,,,,,,,,,,,,,,,,,,,
1180413,1480803366718,,,,,,,,0.02,0.06,0.97,-3.1,0.4,-0.3,860,0,,,,,,,,,,,,,,,,,,,
1180433,1480803366738,,,,,,,,0.02,0.05,0.96,-3.0,0.4,-0.4,860,0,,,,,,,,,,,,,,,,,,,
1180453,1480803366758,0,147.8,,167.3,27,177.2,,0.02,0.05,0.96,-3.1,0.5,-0.3,860,0,0,1,0.0,0,38.159237,-122.454475,0.0,3.046,10.8,10,3,2.4,0,0.0,-1,0.0,0.0,0.0,0
1180473,1480803366778,,,,,,,,0.02,0.05,0.96,-3.1,0.4,-0.2,860,0,,,,,,,,,,,,,,,,,,,
1180493,1480803366794,,,,,,,,0.02,0.06,0.96,-3.1,0.4,-0.1,860,0,,,,,,,,,,,,,,,,,,,
1180513,1480803366814,,,,,,,,0.02,0.07,0.96,-3.1,0.5,-0.0,860,0,,,,,,,,,,,,,,,,,,,
1180533,1480803366834,,,,,,,,0.02,0.06,0.96,-3.1,0.4,-0.1,860,0,,,,,,,,,,,,,,,,,,,
1180553,1480803366854,,,,,25,,,0.01,0.06,0.96,-3.1,0.4,-0.2,860,0,0,1,0.0,0,38.159237,-122.454475,0.0,3.046,10.8,10,3,2.4,0,0.0,-1,0.0,,0.0,0
1180573,1480803366874,,,,,,,,0.01,0.05,0.96,-3.0,0.4,-0.3,860,0,,,,,,,,,,,,,,,,,,,
1180593,1480803366894,,,,,,,,0.02,0.05,0.96,-3.0,0.4,-0.4,860,0,,,,,,,,,,,,,,,,,,,
1180613,1480803367007,,,,,,,,0.02,0.04,0.97,-3.1,0.5,-0.2,860,0,,,,,,,,,,,,,,,,,,,
1180633,1480803367027,,,,,,,,0.02,0.05,0.97,-3.1,0.5,-0.1,860,0,,,,,,,,,,,,,,,,,,,
1180653,1480803367047,0,146.9,,166.5,26,175.8,,0.02,0.06,0.97,-3.1,0.4,-0.0,860,0,0,1,0.0,0,38.159237,-122.454475,0.0,3.046,10.8,10,3,2.0,0,0.0,-1,0.0,0.0,0.0,0
1180673,1480803367067,,,,,,,,0.02,0.06,0.97,-3.1,0.5,-0.1,860,0,,,,,,,,,,,,,,,,,,,
1180693,1480803367087,,,,,,,,0.02,0.06,0.97,-3.0,0.4,-0.2,860,0,,,,,,,,,,,,,,,,,,,
1180713,1480803367107,,,,,,,,0.01,0.06,0.97,-3.0,0.5,-0.3,860,0,,,,,,,,,,,,,,,,,,,
1180733,1480803367127,,,,,,,,0.01,0.05,0.97,-3.0,0.5,-0.4,860,0,,,,,,,,,,,,,,,,,,,
1180753,1480803367147,,,,,25,,,0.02,0.05,0.97,-3.0,0.5,-0.3,860,0,0,1,0.0,0,38.159237,-122.454475,0.0,3.046,10.8,10,3,2.0,0,0.0,-1,0.0,,0.0,0
1180773,1480803367167,,,,,,,,0.02,0.05,0.97,-3.0,0.5,-0.2,860,0,,,,,,,,,,,,,,,,,,,
1180793,1480803367097,,,,,,,,0.02,0.06,0.97,-3.0,0.5,-0.1,860,0,,,,,,,,,,,,,,,,,,,
1180813,1480803367117,,,,,,,,0.02,0.06,0.97,-3.1,0.5,-0.1,840,0,,,,,,,,,,,,,,,,,,,
1180833,1480803367137,,,,,,,,0.02,0.06,0.97,-3.0,0.4,-0.1,860,0,,,,,,,,,,,,,,,,,,,
1180853,1480803367157,0,147.6,,167.3,27,177.0,,0.01,0.06,0.97,-3.0,0.3,-0.3,860,0,0,1,0.0,0,38.159237,-122.454475,0.0,3.046,10.8,10,3,2.0,0,0.0,-1,0.0,0.0,0.0,0
1180873,1480803367177,,,,,,,,0.01,0.05,0.97,-3.0,0.4,-0.4,860,0,,,,,,,,,,,,,,,,,,,
1180893,1480803367196,,,,,,,,0.01,0.05,0.97,-3.0,0.4,-0.4,860,0,,,,,,,,,,,,,,,,,,,
1180913,1480803367216,,,,,,,,0.01,0.05,0.97,-3.0,0.4,-0.3,860,0,,,,,,,,,,,,,,,,,,,
1180933,1480803367236,,,,,,,,0.02,0.05,0.97,-3.1,0.4,-0.2,860,0,,,,,,,,,,,,,,,,,,,
1180953,1480803367256,,,,,25,,,0.02,0.06,0.96,-3.1,0.3,-0.1,860,0,0,1,0.0,0,38.159237,-122.454475,0.0,3.046,10.8,10,3,2.0,0,0.0,-1,0.0,,0.0,0
1180973,1480803367276,,,,,,,,0.02,0.06,0.96,-3.1,0.4,-0.1,860,0,,,,,,,,,,,,,,,,,,,
1180993,1480803367297,,,,,,,,0.01,0.06,0.96,-3.1,0.3,-0.2,860,0,,,,,,,,,,,,,,,,,,,
1181013,1480803367317,,,,,,,,0.01,0.06,0.96,-3.1,0.3,-0.3,860,0,,,,,,,,,,,,,,,,,,,
1181033,1480803367337,,,,,,,,0.01,0.05,0.96,-3.0,0.4,-0.4,860,0,,,,,,,,,,,,,,,,,,,
1181053,1480803367357,0,147.9,2.4,167.6,28,177.1,14.23,0.01,0.05,0.96,-3.1,0.3,-0.3,860,0,0,1,0.0,0,38.159237,-122.454475,0.0,3.046,10.8,10,3,2.0,0,0.0,-1,0.0,0.0,0.0,0
1181073,1480803367377,,,,,,,,0.01,0.05,0.97,-3.1,0.3,-0.1,860,0,,,,,,,,,,,,,,,,,,,
1181093,1480803367397,,,,,,,,0.01,0.06,0.96,-3.2,0.3,-0.0,860,0,,,,,,,,,,,,,,,,,,,
1181113,1480803367417,,,,,,,,0.02,0.06,0.96,-3.2,0.3,-0.0,860,0,,,,,,,,,,,,,,,,,,,
1181133,1480803367437,,,,,,,,0.01,0.06,0.96,-3.2,0.3,-0.1,860,0,,,,,,,,,,,,,,,,,,,
1181153,1480803367457,,,,,25,,,0.01,0.06,0.96,-3.2,0.3,-0.2,860,0,0,1,0.0,0,38.159237,-122.454475,0.0,3.046,10.8,10,3,2.0,0,0.0,-1,0.0,,0.0,0
1181173,1480803367477,,,,,,,,0.01,0.05,0.96,-3.1,0.3,-0.4,860,0,,,,,,,,,,,,,,,,,,,
1181193,1480803367496,,,,,,,,0.01,0.05,0.96,-3.2,0.3,-0.3,860,0,,,,,,,,,,,,,,,,,,,
1181213,1480803367516,,,,,,,,0.01,0.05,0.96,-3.2,0.4,-0.2,860,0,,,,,,,,,,,,,,,,,,,
1181233,1480803367536,,,,,,,,0.01,0.06,0.96,-3.2,0.4,-0.1,840,0,,,,,,,,,,,,,,,,,,,
1181253,1480803367556,0,147.7,,167.6,25,176.8,,0.02,0.06,0.96,-3.2,0.4,-0.1,840,0,0,1,0.0,0,38.159237,-122.454475,0.0,3.046,10.8,10,3,2.0,0,0.0,-1,0.0,0.0,0.0,0
1181273,1480803367576,,,,,,,,0.01,0.06,0.97,-3.2,0.4,-0.2,860,0,,,,,,,,,,,,,,,,,,,
1181293,1480803367597,,,,,,,,0.01,0.06,0.96,-3.1,0.3,-0.3,860,0,,,,,,,,,,,,,,,,,,,
1181313,1480803367617,,,,,,,,0.01,0.05,0.96,-3.1,0.4,-0.4,860,0,,,,,,,,,,,,,,,,,,,
1181333,1480803367637,,,,,,,,0.01,0.05,0.96,-3.1,0.3,-0.4,860,0,,,,,,,,,,,,,,,,,,,
1181353,1480803367657,,,,,26,,,0.01,0.05,0.97,-3.1,0.4,-0.3,840,0,0,1,0.0,0,38.159237,-122.454475,0.0,3.046,10.8,10,3,2.0,0,0.0,-1,0.0,,0.0,0
1181373,1480803367677,,,,,,,,0.02,0.06,0.97,-3.2,0.4,-0.2,840,0,,,,,,,,,,,,,,,,,,,
1181393,1480803367796,,,,,,,,0.02,0.06,0.97,-3.2,0.4,-0.1,840,0,,,,,,,,,,,,,,,,,,,
1181413,1480803367816,,,,,,,,0.01,0.06,0.97,-3.2,0.4,-0.2,860,0,,,,,,,,,,,,,,,,,,,
1181433,1480803367836,,,,,,,,0.01,0.06,0.97,-3.1,0.3,-0.3,840,0,,,,,,,,,,,,,,,,,,,
1181453,1480803367856,0,147.5,,167.2,23,176.1,,0.01,0.05,0.97,-3.1,0.4,-0.4,840,0,0,1,0.0,0,38.159237,-122.454475,0.0,3.046,10.8,10,3,2.0,0,0.0,-1,0.0,0.0,0.0,0
1181473,1480803367876,,,,,,,,0.01,0.05,0.97,-3.1,0.4,-0.4,840,0,,,,,,,,,,,,,,,,,,,
1181493,1480803367896,,,,,,,,0.01,0.05,0.97,-3.1,0.4,-0.2,840,0,,,,,,,,,,,,,,,,,,,
1181513,1480803367916,,,,,,,,0.02,0.06,0.97,-3.2,0.4,-0.1,840,0,,,,,,,,,,,,,,,,,,,
1181533,1480803367936,,,,,,,,0.02,0.06,0.97,-3.2,0.4,-0.1,840,0,,,,,,,,,,,,,,,,,,,
1181553,1480803367956,,,,,21,,,0.01,0.06,0.97,-3.2,0.4,-0.1,840,0,0,1,0.0,0,38.159237,-122.454475,0.0,3.046,10.8,10,3,2.0,0,0.0,-1,0.0,,0.0,0
1181573,1480803367976,,,,,,,,0.01,0.06,0.97,-3.1,0.4,-0.2,840,0,,,,,,,,,,,,,,,,,,,
1181593,1480803367996,,,,,,,,0.01,0.06,0.97,-3.1,0.4,-0.3,840,0,,,,,,,,,,,,,,,,,,,
1181613,1480803367908,,,,,,,,0.01,0.05,0.97,-3.1,0.4,-0.3,840,0,,,,,,,,,,,,,,,,,,,
1181633,1480803367928,,,,,,,,0.01,0.05,0.97,-3.1,0.4,-0.2,840,0,,,,,,,,,,,,,,,,,,,
1181653,1480803367948,0,147.4,,167.2,24,176.0,,0.02,0.07,0.98,-3.2,0.5,-0.1,840,0,0,1,0.0,0,38.159237,-122.454475,0.0,3.046,10.8,10,3,2.0,0,0.0,-1,0.0,0.0,0.0,0
1181673,1480803367968,,,,,,,,0.02,0.07,0.97,-3.2,0.4,-0.0,840,0,,,,,,,,,,,,,,,,,,,
1181693,1480803367996,,,,,,,,0.02,0.06,0.97,-3.1,0.4,-0.1,840,0,,,,,,,,,,,,,,,,,,,
1181713,1480803368016,,,,,,,,0.01,0.06,0.97,-3.1,0.4,-0.2,840,0,,,,,,,,,,,,,,,,,,,
1181733,1480803368036,,,,,,,,0.01,0.06,0.97,-3.1,0.4,-0.3,840,0,,,,,,,,,,,,,,,,,,,
1181753,1480803368056,,,,,27,,,0.01,0.05,0.97,-3.1,0.3,-0.3,840,0,0,1,0.0,0,38.159237,-122.454475,0.0,3.046,10.8,10,3,2.0,0,0.0,-1,0.0,,0.0,0
1181773,1480803368076,,,,,,,,0.02,0.06,0.97,-3.2,0.4,-0.1,840,0,,,,,,,,,,,,,,,,,,,
1181793,1480803368096,,,,,,,,0.02,0.07,0.97,-3.2,0.4,-0.1,840,0,,,,,,,,,,,,,,,,,,,
1181813,1480803368116,,,,,,,,0.02,0.06,0.97,-3.2,0.4,-0.1,840,0,,,,,,,,,,,,,,,,,,,
1181833,1480803368136,,,,,,,,0.02,0.06,0.97,-3.1,0.3,-0.2,840,0,,,,,,,,,,,,,,,,,,,
1181853,1480803368156,0,146.9,,167.0,24,176.5,,0.02,0.06,0.97,-3.1,0.3,-0.3,840,0,0,1,0.0,0,38.159237,-122.454475,0.0,3.046,10.8,10,3,2.0,0,0.0,-1,0.0,0.0,0.0,0
1181873,1480803368176,,,,,,,,0.02,0.06,0.97,-3.1,0.4,-0.3,840,0,,,,,,,,,,,,,,,,,,,
1181893,1480803368198,,,,,,,,0.01,0.06,0.97,-3.1,0.4,-0.2,840,0,,,,,,,,,,,,,,,,,,,
1181913,1480803368218,,,,,,,,0.02,0.06,0.97,-3.1,0.4,-0.1,840,0,,,,,,,,,,,,,,,,,,,
1181933,1480803368238,,,,,,,,0.02,0.06,0.97,-3.1,0.3,-0.1,840,0,,,,,,,,,,,,,,,,,,,
1181953,1480803368258,,,,,23,,,0.01,0.06,0.97,-3.1,0.3,-0.2,840,0,0,1,0.0,0,38.159237,-122.454475,0.0,3.046,10.8,10,3,2.0,0,0.0,-1,0.0,,0.0,0
1181973,1480803368278,,,,,,,,0.01,0.06,0.97,-3.1,0.3,-0.3,840,0,,,,,,,,,,,,,,,,,,,
1181993,1480803368298,,,,,,,,0.01,0.05,0.97,-3.1,0.3,-0.3,840,0,,,,,,,,,,,,,,,,,,,
1182013,1480803368318,,,,,,,,0.01,0.05,0.97,-3.0,0.4,-0.3,840,0,,,,,,,,,,,,,,,,,,,
1182033,1480803368338,,,,,,,,0.02,0.05,0.97,-3.1,0.4,-0.2,840,0,,,,,,,,,,,,,,,,,,,
1182053,1480803368358,0,148.0,2.5,168.0,22,177.2,14.3,0.02,0.06,0.97,-3.1,0.4,-0.1,840,0,0,1,0.0,0,38.159237,-122.454475,0.0,3.046,10.8,10,3,2.0,0,0.0,-1,0.0,0.0,0.0,0
1182073,1480803368378,,,,,,,,0.02,0.06,0.97,-3.1,0.4,-0.1,840,0,,,,,,,,,,,,,,,,,,,
1182093,1480803368398,,,,,,,,0.01,0.06,0.97,-3.1,0.4,-0.1,840,0,,,,,,,,,,,,,,,,,,,
1182113,1480803368418,,,,,,,,0.01,0.06,0.97,-3.0,0.4,-0.2,840,0,,,,,,,,,,,,,,,,,,,
1182133,1480803368438,,,,,,,,0.01,0.05,0.97,-3.0,0.4,-0.4,860,0,,,,,,,,,,,,,,,,,,,
1182153,1480803368458,,,,,24,,,0.02,0.05,0.97,-3.0,0.5,-0.4,860,0,0,1,0.0,0,38.159237,-122.454475,0.0,3.046,10.8,10,3,2.0,0,0.0,-1,0.0,,0.0,0
1182173,1480803368478,,,,,,,,0.02,0.05,0.97,-3.0,0.5,-0.3,840,0,,,,,,,,,,,,,,,,,,,
1182193,1480803368597,,,,,,,,0.02,0.06,0.97,-3.0,0.5,-0.2,840,0,,,,,,,,,,,,,,,,,,,
1182213,1480803368617,,,,,,,,0.02,0.06,0.97,-3.0,0.4,-0.1,840,0,,,,,,,,,,,,,,,,,,,
1182233,1480803368637,,,,,,,,0.02,0.06,0.97,-3.0,0.5,-0.2,840,0,,,,,,,,,,,,,,,,,,,
1182253,1480803368657,0,147.9,,168.0,25,177.2,,0.01,0.06,0.97,-3.0,0.4,-0.3,860,0,0,1,0.0,0,38.159237,-122.454475,0.0,3.046,10.8,10,3,2.0,0,0.0,-1,0.0,0.0,0.0,0
1182273,1480803368677,,,,,,,,0.01,0.05,0.97,-3.0,0.5,-0.4,860,0,,,,,,,,,,,,,,,,,,,
1182293,1480803368697,,,,,,,,0.01,0.05,0.97,-3.0,0.5,-0.4,860,0,,,,,,,,,,,,,,,,,,,
1182313,1480803368717,,,,,,,,0.01,0.05,0.97,-3.0,0.6,-0.3,840,0,,,,,,,,,,,,,,,,,,,
1182333,1480803368737,,,,,,,,0.02,0.05,0.97,-3.1,0.5,-0.2,840,0,,,,,,,,,,,,,,,,,,,
1182353,1480803368757,,,,,25,,,0.02,0.06,0.97,-3.1,0.5,-0.1,840,0,0,1,0.0,0,38.159237,-122.454475,0.0,3.046,10.8,10,3,2.0,0,0.0,-1,0.0,,0.0,0
1182373,1480803368777,,,,,,,,0.01,0.06,0.97,-3.0,0.5,-0.2,840,0,,,,,,,,,,,,,,,,,,,
1182393,1480803368697,,,,,,,,0.01,0.06,0.97,-3.0,0.4,-0.3,840,0,,,,,,,,,,,,,,,,,,,
1182413,1480803368717,,,,,,,,0.01,0.05,0.97,-3.0,0.5,-0.4,840,0,,,,,,,,,,,,,,,,,,,
1182433,1480803368737,,,,,,,,0.01,0.05,0.97,-3.0,0.5,-0.4,840,0,,,,,,,,,,,,,,,,,,,
1182453,1480803368757,0,147.6,,167.6,24,176.0,,0.01,0.05,0.97,-3.0,0.6,-0.3,840,0,0,1,0.0,0,38.159237,-122.454475,0.0,3.046,10.8,10,3,2.0,0,0.0,-1,0.0,0.0,0.0,0
1182473,1480803368777,,,,,,,,0.02,0.05,0.97,-3.0,0.5,-0.2,840,0,,,,,,,,,,,,,,,,,,,
1182493,1480803368797,,,,,,,,0.02,0.06,0.97,-3.0,0.4,-0.1,840,0,,,,,,,,,,,,,,,,,,,
1182513,1480803368817,,,,,,,,0.02,0.06,0.97,-3.0,0.5,-0.2,840,0,,,,,,,,,,,,,,,,,,,
1182533,1480803368837,,,,,,,,0.01,0.06,0.97,-3.0,0.5,-0.3,840,0,,,,,,,,,,,,,,,,,,,
1182553,1480803368857,,,,,22,,,0.01,0.05,0.96,-2.9,0.5,-0.4,840,0,0,1,0.0,0,38.159237,-122.454475,0.0,3.046,10.8,10,3,2.0,0,0.0,-1,0.0,,0.0,0
1182573,1480803368877,,,,,,,,0.01,0.04,0.96,-2.9,0.5,-0.4,840,0,,,,,,,,,,,,,,,,,,,
1182593,1480803368897,,,,,,,,0.01,0.05,0.96,-3.0,0.6,-0.3,840,0,,,,,,,,,,,,,,,,,,,
1182613,1480803368909,,,,,,,,0.02,0.06,0.97,-3.0,0.5,-0.2,840,0,,,,,,,,,,,,,,,,,,,
1182633,1480803368929,,,,,,,,0.02,0.06,0.97,-3.0,0.4,-0.1,840,0,,,,,,,,,,,,,,,,,,,
1182653,1480803368949,0,147.6,,168.0,23,176.8,,0.01,0.05,0.97,-3.0,0.5,-0.2,840,0,0,1,0.0,0,38.159237,-122.454475,0.0,3.046,10.8,10,3,2.0,0,0.0,-1,0.0,0.0,0.0,0
1182673,1480803368969,,,,,,,,0.01,0.06,0.97,-2.9,0.4,-0.4,840,0,,,,,,,,,,,,,,,,,,,
1182693,1480803368998,,,,,,,,0.01,0.05,0.97,-2.9,0.5,-0.4,840,0,,,,,,,,,,,,,,,,,,,
1182713,1480803369018,,,,,,,,0.02,0.04,0.97,-3.0,0.5,-0.4,840,0,,,,,,,,,,,,,,,,,,,
1182733,1480803369038,,,,,,,,0.02,0.04,0.97,-3.0,0.5,-0.3,840,0,,,,,,,,,,,,,,,,,,,
1182753,1480803369058,,,,,23,,,0.02,0.06,0.97,-3.0,0.5,-0.2,840,0,0,1,0.0,0,38.159237,-122.454475,0.0,3.046,10.8,10,3,2.0,0,0.0,-1,0.0,,0.0,0
1182773,1480803369078,,,,,,,,0.02,0.06,0.98,-3.0,0.5,-0.2,840,0,,,,,,,,,,,,,,,,,,,
1182793,1480803369097,,,,,,,,0.01,0.05,0.98,-2.9,0.5,-0.3,840,0,,,,,,,,,,,,,,,,,,,
1182813,1480803369117,,,,,,,,0.01,0.05,0.97,-2.9,0.5,-0.3,840,0,,,,,,,,,,,,,,,,,,,
1182833,1480803369137,,,,,,,,0.01,0.05,0.98,-2.9,0.5,-0.4,840,0,,,,,,,,,,,,,,,,,,,
1182853,1480803369157,0,147.6,,168.1,26,176.5,,0.02,0.05,0.97,-2.9,0.5,-0.4,840,0,0,1,0.0,0,38.159237,-122.454475,0.0,3.046,10.8,10,3,2.0,0,0.0,-1,0.0,0.0,0.0,0
1182873,1480803369177,,,,,,,,0.01,0.05,0.97,-3.0,0.6,-0.2,840,0,,,,,,,,,,,,,,,,,,,
1182893,1480803369198,,,,,,,,0.01,0.06,0.97,-3.0,0.5,-0.2,840,0,,,,,,,,,,,,,,,,,,,
1182913,1480803369218,,,,,,,,0.02,0.06,0.98,-3.0,0.5,-0.1,840,0,,,,,,,,,,,,,,,,,,,
1182933,1480803369238,,,,,,,,0.01,0.06,0.98,-3.0,0.5,-0.2,840,0,,,,,,,,,,,,,,,,,,,
1182953,1480803369258,,,,,23,,,0.01,0.06,0.98,-2.9,0.5,-0.3,860,0,0,1,0.0,0,38.159237,-122.454475,0.0,3.046,10.8,10,3,2.0,0,0.0,-1,0.0,,0.0,0
1182973,1480803369278,,,,,,,,0.01,0.05,0.97,-2.9,0.5,-0.4,860,0,,,,,,,,,,,,,,,,,,,
1182993,1480803369397,,,,,,,,0.02,0.05,0.97,-2.9,0.5,-0.4,860,0,,,,,,,,,,,,,,,,,,,
1183013,1480803369417,,,,,,,,0.02,0.05,0.97,-3.0,0.6,-0.2,840,0,,,,,,,,,,,,,,,,,,,
1183033,1480803369437,,,,,,,,0.02,0.06,0.97,-3.0,0.5,-0.1,860,0,,,,,,,,,,,,,,,,,,,
1183053,1480803369457,0,147.7,2.1,168.1,26,177.1,14.35,0.02,0.06,0.98,-3.0,0.5,-0.1,840,0,0,1,0.0,0,38.159237,-122.454475,0.0,3.046,10.8,10,3,2.0,0,0.0,-1,0.0,0.0,0.0,0
1183073,1480803369477,,,,,,,,0.01,0.06,0.97,-3.0,0.5,-0.2,840,0,,,,,,,,,,,,,,,,,,,
1183093,1480803369497,,,,,,,,0.01,0.06,0.97,-3.0,0.5,-0.3,840,0,,,,,,,,,,,,,,,,,,,
1183113,1480803369517,,,,,,,,0.01,0.05,0.97,-3.0,0.6,-0.3,840,0,,,,,,,,,,,,,,,,,,,
1183133,1480803369537,,,,,,,,0.01,0.05,0.97,-3.0,0.5,-0.3,840,0,,,,,,,,,,,,,,,,,,,
1183153,1480803369557,,,,,22,,,0.02,0.05,0.97,-3.0,0.6,-0.2,840,0,0,1,0.0,0,38.159237,-122.454475,0.0,3.046,10.8,10,3,2.0,0,0.0,-1,0.0,,0.0,0
1183173,1480803369577,,,,,,,,0.02,0.06,0.97,-3.0,0.5,-0.1,840,0,,,,,,,,,,,,,,,,,,,
1183193,1480803369498,,,,,,,,0.02,0.06,0.98,-3.0,0.5,-0.1,840,0,,,,,,,,,,,,,,,,,,,
1183213,1480803369518,,,,,,,,0.02,0.06,0.98,-3.0,0.5,-0.2,840,0,,,,,,,,,,,,,,,,,,,
1183233,1480803369538,,,,,,,,0.01,0.05,0.98,-3.0,0.5,-0.3,840,0,,,,,,,,,,,,,,,,,,,
1183253,1480803369558,1,147.7,,168.2,22,177.2,,0.02,0.05,0.97,-2.9,0.5,-0.4,840,0,0,1,0.0,0,38.159237,-122.454475,0.0,3.046,10.8,10,3,2.0,0,0.0,-1,0.0,0.0,0.0,0
1183273,1480803369578,,,,,,,,0.02,0.05,0.97,-3.0,0.5,-0.3,840,0,,,,,,,,,,,,,,,,,,,
1183293,1480803369597,,,,,,,,0.02,0.05,0.97,-3.0,0.6,-0.2,840,0,,,,,,,,,,,,,,,,,,,
1183313,1480803369617,,,,,,,,0.02,0.06,0.97,-3.0,0.5,-0.1,840,0,,,,,,,,,,,,,,,,,,,
1183333,1480803369637,,,,,,,,0.02,0.06,0.98,-3.0,0.5,-0.1,840,0,,,,,,,,,,,,,,,,,,,
1183353,1480803369657,,,,,24,,,0.02,0.05,0.97,-3.0,0.5,-0.2,840,0,0,1,0.0,0,38.159237,-122.454475,0.0,3.046,10.8,10,3,2.0,0,0.0,-1,0.0,,0.0,0
1183373,1480803369677,,,,,,,,0.02,0.05,0.97,-3.0,0.5,-0.3,840,0,,,,,,,,,,,,,,,,,,,
1183393,1480803369698,,,,,,,,0.02,0.05,0.97,-3.0,0.5,-0.3,840,0,,,,,,,,,,,,,,,,,,,
1183413,1480803369718,,,,,,,,0.02,0.05,0.98,-3.0,0.5,-0.2,840,0,,,,,,,,,,,,,,,,,,,
1183433,1480803369738,,,,,,,,0.02,0.05,0.98,-3.1,0.6,-0.2,840,0,,,,,,,,,,,,,,,,,,,
1183453,1480803369758,0,147.6,,168.2,24,176.4,,0.02,0.06,0.97,-3.1,0.5,-0.1,840,0,0,1,0.0,0,38.159237,-122.454475,0.0,3.046,10.8,10,3,2.0,0,0.0,-1,0.0,0.0,0.0,0
1183473,1480803369778,,,,,,,,0.02,0.06,0.97,-3.1,0.5,-0.2,840,0,,,,,,,,,,,,,,,,,,,
1183493,1480803369797,,,,,,,,0.02,0.05,0.97,-3.0,0.5,-0.2,840,0,,,,,,,,,,,,,,,,,,,
1183513,1480803369817,,,,,,,,0.01,0.05,0.97,-3.0,0.5,-0.3,840,0,,,,,,,,,,,,,,,,,,,
1183533,1480803369837,,,,,,,,0.02,0.05,0.97,-3.0,0.5,-0.3,840,0,,,,,,,,,,,,,,,,,,,
1183553,1480803369857,,,,,21,,,0.02,0.05,0.97,-3.1,0.5,-0.1,840,0,0,1,0.0,0,38.159237,-122.454475,0.0,3.046,10.8,10,3,2.0,0,0.0,-1,0.0,,0.0,0
1183573,1480803369877,,,,,,,,0.02,0.06,0.97,-3.1,0.5,-0.0,840,0,,,,,,,,,,,,,,,,,,,
1183593,1480803369897,,,,,,,,0.02,0.06,0.97,-3.1,0.4,-0.0,840,0,,,,,,,,,,,,,,,,,,,
1183613,1480803369909,,,,,,,,0.02,0.06,0.97,-3.1,0.4,-0.2,840,0,,,,,,,,,,,,,,,,,,,
1183633,1480803369929,,,,,,,,0.01,0.05,0.96,-3.1,0.5,-0.2,840,0,,,,,,,,,,,,,,,,,,,
1183653,1480803369949,1,146.7,,167.5,20,176.5,,0.01,0.05,0.96,-3.1,0.5,-0.3,840,0,0,1,0.0,0,38.159237,-122.454475,0.0,3.046,10.8,10,3,2.0,0,0.0,-1,0.0,0.0,0.0,0
1183673,1480803369969,,,,,,,,0.01,0.05,0.97,-3.1,0.4,-0.2,840,0,,,,,,,,,,,,,,,,,,,
1183693,1480803369997,,,,,,,,0.02,0.06,0.97,-3.1,0.4,-0.1,840,0,,,,,,,,,,,,,,,,,,,
1183713,1480803370017,,,,,,,,0.02,0.06,0.97,-3.1,0.4,-0.1,840,0,,,,,,,,,,,,,,,,,,,
1183733,1480803370037,,,,,,,,0.01,0.06,0.97,-3.1,0.4,-0.1,840,0,,,,,,,,,,,,,,,,,,,
1183753,1480803370057,,,,,25,,,0.01,0.06,0.96,-3.1,0.3,-0.2,840,0,0,1,0.0,0,38.159237,-122.454475,0.0,3.046,10.8,10,3,2.0,0,0.0,-1,0.0,,0.0,0
1183773,1480803370077,,,,,,,,0.01,0.05,0.96,-3.1,0.4,-0.3,840,0,,,,,,,,,,,,,,,,,,,
1183793,1480803370196,,,,,,,,0.01,0.05,0.96,-3.1,0.4,-0.3,840,0,,,,,,,,,,,,,,,,,,,
1183813,1480803370216,,,,,,,,0.01,0.05,0.97,-3.1,0.4,-0.2,840,0,,,,,,,,,,,,,,,,,,,
1183833,1480803370236,,,,,,,,0.02,0.06,0.97,-3.1,0.4,-0.1,840,0,,,,,,,,,,,,,,,,,,,
1183853,1480803370256,0,146.6,,167.3,24,175.9,,0.02,0.06,0.97,-3.1,0.3,-0.1,840,0,0,1,0.0,0,38.159237,-122.454475,0.0,3.046,10.8,10,3,2.0,0,0.0,-1,0.0,0.0,0.0,0
1183873,1480803370276,,,,,,,,0.01,0.06,0.97,-3.1,0.4,-0.1,840,0,,,,,,,,,,,,,,,,,,,
1183893,1480803370296,,,,,,,,0.01,0.06,0.96,-3.1,0.3,-0.2,840,0,,,,,,,,,,,,,,,,,,,
1183913,1480803370316,,,,,,,,0.01,0.05,0.96,-3.0,0.4,-0.3,840,0,,,,,,,,,,,,,,,,,,,
1183933,1480803370336,,,,,,,,0.02,0.05,0.96,-3.0,0.3,-0.3,840,0,,,,,,,,,,,,,,,,,,,
1183953,1480803370356,,,,,23,,,0.02,0.05,0.97,-3.1,0.4,-0.2,840,0,0,1,0.0,0,38.159237,-122.454475,0.0,3.046,10.8,10,3,2.0,0,0.0,-1,0.0,,0.0,0
1183973,1480803370376,,,,,,,,0.02,0.06,0.97,-3.1,0.4,-0.1,840,0,,,,,,,,,,,,,,,,,,,
