"Interval"|"ms"|0|0|1,"Utc"|"ms"|0|0|1,"FuelLevel"|"F"|0|100|5,"OilTemp"|"F"|0.0|300.0|5,"CoolantPressPSI"|"PSI"|0.0|20.0|1,"Coolant"|"F"|0.0|300.0|5,"OilPress"|"PSI"|0|150|10,"EngineTemp"|"F"|0.0|300.0|5,"Battery"|"Volts"|0.0|20.0|1,"AccelX"|"G"|-3.0|3.0|50,"AccelY"|"G"|-3.0|3.0|50,"AccelZ"|"G"|-3.0|3.0|50,"Yaw"|"Deg/Sec"|-300.0|300.0|50,"Pitch"|"Deg/Sec"|-300.0|300.0|50,"Roll"|"Deg/Sec"|-300.0|300.0|50,"RPM"|""|0|10000|50,"Driveshaft"|"RPM"|0|5000|50,"GPIO1"|""|0|1|10,"GPIO2"|""|0|1|10,"GearRatio"|""|-5.0|5.0|10,"Gear"|""|-1|5|10,"Latitude"|"Degrees"|-180.0|180.0|10,"Longitude"|"Degrees"|-180.0|180.0|10,"Speed"|"MPH"|0.0|150.0|10,"Distance"|"Miles"|0.0|0.0|10,"Altitude"|"Feet"|0.0|4000.0|10,"GPSSats"|""|0|20|10,"GPSQual"|""|0|5|10,"GPSDOP"|""|0.0|20.0|10,"LapCount"|""|0|0|10,"LapTime"|"Min"|0.0|0.0|10,"Sector"|""|0|0|10,"SectorTime"|"Min"|0.0|0.0|10,"PredTime"|"Min"|0.0|0.0|5,"ElapsedTime"|"Min"|0.0|0.0|10,"CurrentLap"|""|0|0|10
1395413,1480803581722,,,,,,,,0.02,0.04,0.96,-3.1,0.8,-0.3,2800,0,,,,,,,,,,,,,,,,,,,
1395433,1480803581742,,,,,,,,0.02,0.04,0.97,-3.1,0.8,-0.3,280,0,,,,,,,,,,,,,,,,,,,
1395453,1480803581762,0,130.7,,152.2,0,171.7,,0.02,0.04,0.96,-3.1,0.8,-0.4,280,0,0,0,0.0,0,38.159237,-122.454475,0.0,3.046,10.8,9,3,2.0,0,0.0,-1,0.0,0.0,0.0,0
1395473,1480803581782,,,,,,,,0.02,0.05,0.97,-3.1,0.7,-0.3,400,0,,,,,,,,,,,,,,,,,,,
1395493,1480803581801,,,,,,,,0.02,0.06,0.97,-3.1,0.7,-0.3,400,0,,,,,,,,,,,,,,,,,,,
1395513,1480803581821,,,,,,,,0.02,0.05,0.97,-3.1,0.8,-0.3,460,0,,,,,,,,,,,,,,,,,,,
1395533,1480803581841,,,,,,,,0.02,0.05,0.97,-3.0,0.7,-0.3,460,0,,,,,,,,,,,,,,,,,,,
1395553,1480803581861,,,,,1,,,0.02,0.05,0.97,-3.0,0.8,-0.4,500,0,0,0,0.0,0,38.159237,-122.454475,0.0,3.046,10.8,9,3,2.0,0,0.0,-1,0.0,,0.0,0
1395573,1480803581881,,,,,,,,0.02,0.04,0.97,-3.1,0.9,-0.3,500,0,,,,,,,,,,,,,,,,,,,
1395593,1480803581893,,,,,,,,0.03,0.04,0.97,-3.1,0.8,-0.1,580,0,,,,,,,,,,,,,,,,,,,
1395613,1480803581913,,,,,,,,0.02,0.03,0.97,-3.0,0.6,-0.3,720,0,,,,,,,,,,,,,,,,,,,
1395633,1480803581933,,,,,,,,0.02,0.03,0.97,-3.0,0.6,-0.4,720,0,,,,,,,,,,,,,,,,,,,
1395653,1480803581953,0,130.5,,152.6,3,172.1,,0.02,0.04,0.97,-3.0,0.6,-0.3,800,0,0,0,0.0,0,38.159237,-122.454475,0.0,3.046,10.8,9,3,2.0,0,0.0,-1,0.0,0.0,0.0,0
1395673,1480803581973,,,,,,,,0.03,0.05,0.98,-3.1,0.8,-0.2,840,0,,,,,,,,,,,,,,,,,,,
1395693,1480803581997,,,,,,,,0.03,0.07,0.98,-3.2,0.5,-0.0,840,0,,,,,,,,,,,,,,,,,,,
1395713,1480803582017,,,,,,,,0.03,0.07,0.98,-3.2,0.7,-0.1,820,0,,,,,,,,,,,,,,,,,,,
1395733,1480803582037,,,,,,,,0.03,0.06,0.97,-3.1,0.5,-0.1,840,0,,,,,,,,,,,,,,,,,,,
1395753,1480803582057,,,,,7,,,0.03,0.06,0.97,-3.1,0.6,-0.2,840,0,0,1,0.0,0,38.159237,-122.454475,0.0,3.046,10.8,9,3,2.0,0,0.0,-1,0.0,,0.0,0
1395773,1480803582077,,,,,,,,0.02,0.06,0.97,-3.1,0.4,-0.3,860,0,,,,,,,,,,,,,,,,,,,
1395793,1480803582201,,,,,,,,0.02,0.06,0.98,-3.1,0.5,-0.3,900,0,,,,,,,,,,,,,,,,,,,
1395813,1480803582221,,,,,,,,0.03,0.06,0.98,-3.1,0.5,-0.2,880,0,,,,,,,,,,,,,,,,,,,
1395833,1480803582241,,,,,,,,0.04,0.07,0.98,-3.2,0.5,-0.0,960,0,,,,,,,,,,,,,,,,,,,
1395853,1480803582261,0,130.0,,151.5,12,171.6,,0.04,0.09,0.97,-3.2,0.4,0.1,960,0,0,1,0.0,0,38.159237,-122.454475,0.0,3.046,10.8,9,3,2.0,0,0.0,-1,0.0,0.0,0.0,0
1395873,1480803582281,,,,,,,,0.04,0.1,0.97,-3.2,0.3,0.1,1020,0,,,,,,,,,,,,,,,,,,,
1395893,1480803582301,,,,,,,,0.04,0.1,0.96,-3.2,0.3,0.2,1080,0,,,,,,,,,,,,,,,,,,,
1395913,1480803582321,,,,,,,,0.04,0.09,0.96,-3.3,0.5,0.1,1180,0,,,,,,,,,,,,,,,,,,,
1395933,1480803582341,,,,,,,,0.04,0.06,0.95,-3.2,0.5,-0.1,1220,0,,,,,,,,,,,,,,,,,,,
1395953,1480803582361,,,,,19,,,0.02,0.05,0.95,-3.2,0.4,-0.3,1280,0,0,1,0.0,0,38.159237,-122.454475,0.0,3.046,10.8,9,3,2.0,0,0.0,-1,0.0,,0.0,0
1395973,1480803582381,,,,,,,,0.02,0.06,0.96,-3.2,0.3,-0.2,1340,0,,,,,,,,,,,,,,,,,,,
1395993,1480803582301,,,,,,,,0.03,0.06,0.96,-3.2,0.3,-0.1,1380,0,,,,,,,,,,,,,,,,,,,
1396013,1480803582321,,,,,,,,0.01,0.05,0.97,-3.2,0.3,-0.2,1400,0,,,,,,,,,,,,,,,,,,,
1396033,1480803582341,,,,,,,,0.02,0.06,0.98,-3.1,0.4,-0.2,1460,0,,,,,,,,,,,,,,,,,,,
1396053,1480803582361,0,131.5,2.4,152.5,34,171.9,12.7,0.02,0.05,0.98,-3.1,0.5,-0.3,1480,0,0,1,0.0,0,38.159237,-122.454475,0.0,3.046,10.8,9,3,2.0,0,0.0,-1,0.0,0.0,0.0,0
1396073,1480803582381,,,,,,,,0.02,0.05,0.99,-3.1,0.5,-0.3,1500,0,,,,,,,,,,,,,,,,,,,
1396093,1480803582401,,,,,,,,0.02,0.05,0.99,-3.1,0.5,-0.3,1500,0,,,,,,,,,,,,,,,,,,,
1396113,1480803582421,,,,,,,,0.02,0.05,0.98,-3.2,0.5,-0.3,1540,0,,,,,,,,,,,,,,,,,,,
1396133,1480803582441,,,,,,,,0.02,0.04,0.98,-3.3,0.6,-0.3,1520,0,,,,,,,,,,,,,,,,,,,
1396153,1480803582461,,,,,45,,,0.01,0.04,0.98,-3.3,0.6,-0.2,1520,0,0,1,0.0,0,38.159237,-122.454475,0.0,3.046,10.8,9,3,2.0,0,0.0,-1,0.0,,0.0,0
1396173,1480803582481,,,,,,,,0.02,0.04,0.98,-3.2,0.7,-0.3,1540,0,,,,,,,,,,,,,,,,,,,
1396193,1480803582502,,,,,,,,0.01,0.03,0.98,-3.2,0.8,-0.3,1540,0,,,,,,,,,,,,,,,,,,,
1396213,1480803582522,,,,,,,,0.01,0.03,0.97,-3.1,0.8,-0.3,1520,0,,,,,,,,,,,,,,,,,,,
1396233,1480803582542,,,,,,,,0.01,0.04,0.97,-3.1,0.7,-0.3,1520,0,,,,,,,,,,,,,,,,,,,
1396253,1480803582562,1,131.3,,152.5,39,171.8,,0.01,0.04,0.97,-3.1,0.7,-0.3,1500,0,0,1,0.0,0,38.159237,-122.454475,0.0,3.046,10.8,9,3,2.0,0,0.0,-1,0.0,0.0,0.0,0
1396273,1480803582582,,,,,,,,0.01,0.05,0.97,-3.1,0.6,-0.3,1520,0,,,,,,,,,,,,,,,,,,,
1396293,1480803582601,,,,,,,,0.02,0.05,0.96,-3.1,0.5,-0.3,1480,0,,,,,,,,,,,,,,,,,,,
1396313,1480803582621,,,,,,,,0.02,0.06,0.96,-3.1,0.4,-0.3,1460,0,,,,,,,,,,,,,,,,,,,
1396333,1480803582641,,,,,,,,0.02,0.05,0.96,-3.2,0.3,-0.3,1420,0,,,,,,,,,,,,,,,,,,,
1396353,1480803582661,,,,,45,,,0.01,0.05,0.96,-3.2,0.3,-0.3,1420,0,0,1,0.0,0,38.159237,-122.454475,0.0,3.046,10.8,9,3,2.0,0,0.0,-1,0.0,,0.0,0
1396373,1480803582681,,,,,,,,0.01,0.04,0.96,-3.2,0.3,-0.3,1400,0,,,,,,,,,,,,,,,,,,,
1396393,1480803582701,,,,,,,,0.01,0.04,0.96,-3.2,0.3,-0.3,1400,0,,,,,,,,,,,,,,,,,,,
1396413,1480803582721,,,,,,,,0.02,0.04,0.96,-3.1,0.4,-0.3,1380,0,,,,,,,,,,,,,,,,,,,
1396433,1480803582741,,,,,,,,0.01,0.04,0.96,-3.1,0.5,-0.3,1360,0,,,,,,,,,,,,,,,,,,,
1396453,1480803582761,0,131.6,,151.2,45,170.8,,0.02,0.05,0.96,-3.1,0.4,-0.3,1340,0,0,1,0.0,0,38.159237,-122.454475,0.0,3.046,10.8,9,3,2.0,0,0.0,-1,0.0,0.0,0.0,0
1396473,1480803582781,,,,,,,,0.02,0.04,0.97,-3.1,0.3,-0.3,1340,0,,,,,,,,,,,,,,,,,,,
1396493,1480803582797,,,,,,,,0.01,0.05,0.96,-3.1,0.3,-0.3,1320,0,,,,,,,,,,,,,,,,,,,
1396513,1480803582817,,,,,,,,0.01,0.05,0.96,-3.1,0.3,-0.2,1300,0,,,,,,,,,,,,,,,,,,,
1396533,1480803582837,,,,,,,,0.02,0.05,0.97,-3.1,0.3,-0.3,1300,0,,,,,,,,,,,,,,,,,,,
1396553,1480803582857,,,,,38,,,0.01,0.05,0.97,-3.1,0.4,-0.3,1280,0,0,1,0.0,0,38.159237,-122.454475,0.0,3.046,10.8,9,3,2.0,0,0.0,-1,0.0,,0.0,0
1396573,1480803582877,,,,,,,,0.02,0.06,0.97,-3.1,0.3,-0.2,1260,0,,,,,,,,,,,,,,,,,,,
1396593,1480803582992,,,,,,,,0.02,0.05,0.97,-3.1,0.4,-0.2,1260,0,,,,,,,,,,,,,,,,,,,
1396613,1480803583012,,,,,,,,0.02,0.06,0.97,-3.1,0.4,-0.2,1240,0,,,,,,,,,,,,,,,,,,,
1396633,1480803583032,,,,,,,,0.02,0.06,0.97,-3.1,0.3,-0.2,1240,0,,,,,,,,,,,,,,,,,,,
1396653,1480803583052,0,131.7,,151.4,39,170.8,,0.02,0.06,0.97,-3.1,0.3,-0.2,1200,0,0,1,0.0,0,38.159237,-122.454475,0.0,3.046,10.8,9,3,2.0,0,0.0,-1,0.0,0.0,0.0,0
1396673,1480803583072,,,,,,,,0.02,0.06,0.96,-3.1,0.3,-0.2,1200,0,,,,,,,,,,,,,,,,,,,
1396693,1480803583092,,,,,,,,0.02,0.05,0.97,-3.1,0.3,-0.3,1180,0,,,,,,,,,,,,,,,,,,,
1396713,1480803583112,,,,,,,,0.02,0.05,0.96,-3.1,0.3,-0.2,1180,0,,,,,,,,,,,,,,,,,,,
1396733,1480803583132,,,,,,,,0.02,0.06,0.96,-3.1,0.3,-0.2,1180,0,,,,,,,,,,,,,,,,,,,
1396753,1480803583152,,,,,37,,,0.02,0.06,0.96,-3.1,0.3,-0.2,1140,0,0,1,0.0,0,38.159237,-122.454475,0.0,3.046,10.8,9,3,2.0,0,0.0,-1,0.0,,0.0,0
1396773,1480803583172,,,,,,,,0.02,0.05,0.96,-3.1,0.4,-0.2,1140,0,,,,,,,,,,,,,,,,,,,
1396793,1480803583101,,,,,,,,0.01,0.05,0.97,-3.1,0.4,-0.2,1140,0,,,,,,,,,,,,,,,,,,,
1396813,1480803583121,,,,,,,,0.01,0.05,0.97,-3.1,0.4,-0.2,1120,0,,,,,,,,,,,,,,,,,,,
1396833,1480803583141,,,,,,,,0.02,0.05,0.97,-3.0,0.4,-0.2,1120,0,,,,,,,,,,,,,,,,,,,
1396853,1480803583161,0,132.0,,152.4,36,171.6,,0.02,0.05,0.96,-3.0,0.4,-0.2,1100,0,0,1,0.0,0,38.159237,-122.454475,0.0,3.046,10.8,9,3,2.0,0,0.0,-1,0.0,0.0,0.0,0
1396873,1480803583181,,,,,,,,0.02,0.05,0.96,-3.0,0.4,-0.2,1080,0,,,,,,,,,,,,,,,,,,,
1396893,1480803583201,,,,,,,,0.01,0.05,0.96,-3.0,0.4,-0.2,1080,0,,,,,,,,,,,,,,,,,,,
1396913,1480803583221,,,,,,,,0.02,0.05,0.96,-3.1,0.4,-0.2,1060,0,,,,,,,,,,,,,,,,,,,
1396933,1480803583241,,,,,,,,0.02,0.05,0.96,-3.1,0.4,-0.2,1060,0,,,,,,,,,,,,,,,,,,,
1396953,1480803583261,,,,,39,,,0.02,0.05,0.96,-3.1,0.4,-0.2,1040,0,0,1,0.0,0,38.159237,-122.454475,0.0,3.046,10.8,9,3,2.0,0,0.0,-1,0.0,,0.0,0
1396973,1480803583281,,,,,,,,0.02,0.05,0.96,-3.1,0.4,-0.1,1040,0,,,,,,,,,,,,,,,,,,,
1396993,1480803583301,,,,,,,,0.02,0.05,0.96,-3.2,0.4,-0.1,1020,0,,,,,,,,,,,,,,,,,,,
1397013,1480803583321,,,,,,,,0.02,0.05,0.96,-3.2,0.4,-0.1,1020,0,,,,,,,,,,,,,,,,,,,
1397033,1480803583341,,,,,,,,0.02,0.05,0.96,-3.1,0.3,-0.1,1020,0,,,,,,,,,,,,,,,,,,,
1397053,1480803583361,0,132.5,2.3,152.5,32,171.4,13.52,0.02,0.05,0.96,-3.1,0.3,-0.1,1000,0,0,1,0.0,0,38.159237,-122.454475,0.0,3.046,10.8,9,3,2.0,0,0.0,-1,0.0,0.0,0.0,0
1397073,1480803583381,,,,,,,,0.02,0.06,0.96,-3.1,0.3,-0.1,1000,0,,,,,,,,,,,,,,,,,,,
1397093,1480803583401,,,,,,,,0.02,0.06,0.96,-3.1,0.2,-0.1,1000,0,,,,,,,,,,,,,,,,,,,
1397113,1480803583421,,,,,,,,0.02,0.05,0.96,-3.1,0.3,-0.1,980,0,,,,,,,,,,,,,,,,,,,
1397133,1480803583441,,,,,,,,0.02,0.06,0.96,-3.1,0.3,-0.1,980,0,,,,,,,,,,,,,,,,,,,
1397153,1480803583461,,,,,31,,,0.02,0.06,0.95,-3.1,0.3,-0.1,980,0,0,1,0.0,0,38.159237,-122.454475,0.0,3.046,10.8,9,3,2.0,0,0.0,-1,0.0,,0.0,0
1397173,1480803583481,,,,,,,,0.03,0.06,0.95,-3.2,0.3,-0.0,980,0,,,,,,,,,,,,,,,,,,,
1397193,1480803583502,,,,,,,,0.03,0.06,0.95,-3.2,0.3,-0.0,960,0,,,,,,,,,,,,,,,,,,,
1397213,1480803583522,,,,,,,,0.03,0.07,0.95,-3.2,0.3,0.0,960,0,,,,,,,,,,,,,,,,,,,
1397233,1480803583542,,,,,,,,0.03,0.07,0.95,-3.2,0.3,0.1,960,0,,,,,,,,,,,,,,,,,,,
1397253,1480803583562,1,130.5,,152.8,33,172.0,,0.03,0.07,0.95,-3.2,0.3,0.1,940,0,0,1,0.0,0,38.159237,-122.454475,0.0,3.046,10.8,9,3,2.0,0,0.0,-1,0.0,0.0,0.0,0
1397273,1480803583582,,,,,,,,0.03,0.07,0.95,-3.2,0.3,0.2,940,0,,,,,,,,,,,,,,,,,,,
1397293,1480803583602,,,,,,,,0.03,0.08,0.95,-3.2,0.3,0.2,940,0,,,,,,,,,,,,,,,,,,,
1397313,1480803583622,,,,,,,,0.03,0.08,0.96,-3.2,0.3,0.2,940,0,,,,,,,,,,,,,,,,,,,
1397333,1480803583642,,,,,,,,0.03,0.09,0.96,-3.2,0.3,0.2,940,0,,,,,,,,,,,,,,,,,,,
1397353,1480803583662,,,,,27,,,0.03,0.1,0.96,-3.2,0.4,0.1,920,0,0,1,0.0,0,38.159237,-122.454475,0.0,3.046,10.8,9,3,2.0,0,0.0,-1,0.0,,0.0,0
1397373,1480803583682,,,,,,,,0.03,0.1,0.97,-3.2,0.4,0.1,920,0,,,,,,,,,,,,,,,,,,,
1397393,1480803583801,,,,,,,,0.03,0.09,0.97,-3.2,0.4,-0.0,920,0,,,,,,,,,,,,,,,,,,,
1397413,1480803583821,,,,,,,,0.03,0.08,0.97,-3.2,0.4,-0.1,920,0,,,,,,,,,,,,,,,,,,,
1397433,1480803583841,,,,,,,,0.02,0.08,0.97,-3.1,0.3,-0.2,920,0,,,,,,,,,,,,,,,,,,,
1397453,1480803583861,0,132.3,,152.6,30,171.3,,0.02,0.07,0.97,-3.1,0.2,-0.4,920,0,0,1,0.0,0,38.159237,-122.454475,0.0,3.046,10.8,9,3,2.0,0,0.0,-1,0.0,0.0,0.0,0
1397473,1480803583881,,,,,,,,0.01,0.06,0.97,-3.1,0.2,-0.4,900,0,,,,,,,,,,,,,,,,,,,
1397493,1480803583901,,,,,,,,0.01,0.05,0.97,-3.1,0.2,-0.5,900,0,,,,,,,,,,,,,,,,,,,
1397513,1480803583921,,,,,,,,0.01,0.05,0.97,-3.1,0.3,-0.4,900,0,,,,,,,,,,,,,,,,,,,
1397533,1480803583941,,,,,,,,0.01,0.04,0.96,-3.1,0.2,-0.3,900,0,,,,,,,,,,,,,,,,,,,
1397553,1480803583961,,,,,29,,,0.02,0.05,0.96,-3.2,0.2,-0.2,900,0,0,1,0.0,0,38.159237,-122.454475,0.0,3.046,10.8,9,3,2.0,0,0.0,-1,0.0,,0.0,0
1397573,1480803583981,,,,,,,,0.02,0.05,0.96,-3.2,0.2,-0.0,900,0,,,,,,,,,,,,,,,,,,,
1397593,1480803583892,,,,,,,,0.02,0.06,0.96,-3.2,0.3,0.1,900,0,,,,,,,,,,,,,,,,,,,
1397613,1480803583912,,,,,,,,0.02,0.07,0.96,-3.2,0.4,0.1,900,0,,,,,,,,,,,,,,,,,,,
1397633,1480803583932,,,,,,,,0.02,0.08,0.96,-3.2,0.4,0.0,900,0,,,,,,,,,,,,,,,,,,,
1397653,1480803583952,0,130.6,,151.6,29,171.0,,0.02,0.07,0.96,-3.1,0.4,-0.1,900,0,0,1,0.0,0,38.159237,-122.454475,0.0,3.046,10.8,9,3,2.0,0,0.0,-1,0.0,0.0,0.0,0
1397673,1480803583972,,,,,,,,0.02,0.07,0.97,-3.1,0.4,-0.2,900,0,,,,,,,,,,,,,,,,,,,
1397693,1480803584001,,,,,,,,0.02,0.07,0.97,-3.0,0.4,-0.4,900,0,,,,,,,,,,,,,,,,,,,
1397713,1480803584021,,,,,,,,0.01,0.06,0.97,-3.0,0.4,-0.5,900,0,,,,,,,,,,,,,,,,,,,
1397733,1480803584041,,,,,,,,0.02,0.05,0.97,-3.0,0.4,-0.5,900,0,,,,,,,,,,,,,,,,,,,
1397753,1480803584061,,,,,32,,,0.02,0.04,0.96,-3.0,0.4,-0.4,900,0,0,1,0.0,0,38.159237,-122.454475,0.0,3.046,10.8,9,3,2.0,0,0.0,-1,0.0,,0.0,0
1397773,1480803584081,,,,,,,,0.02,0.05,0.96,-3.1,0.3,-0.3,900,0,,,,,,,,,,,,,,,,,,,
1397793,1480803584101,,,,,,,,0.02,0.05,0.96,-3.1,0.3,-0.1,900,0,,,,,,,,,,,,,,,,,,,
1397813,1480803584121,,,,,,,,0.02,0.06,0.97,-3.2,0.4,-0.0,900,0,,,,,,,,,,,,,,,,,,,
1397833,1480803584141,,,,,,,,0.02,0.07,0.96,-3.2,0.4,0.0,900,0,,,,,,,,,,,,,,,,,,,
1397853,1480803584161,0,132.1,,153.2,27,170.8,,0.02,0.07,0.97,-3.1,0.4,-0.0,900,0,0,1,0.0,0,38.159237,-122.454475,0.0,3.046,10.8,9,3,2.0,0,0.0,-1,0.0,0.0,0.0,0
1397873,1480803584181,,,,,,,,0.02,0.07,0.97,-3.1,0.5,-0.2,900,0,,,,,,,,,,,,,,,,,,,
1397893,1480803584201,,,,,,,,0.02,0.07,0.97,-3.0,0.4,-0.3,900,0,,,,,,,,,,,,,,,,,,,
1397913,1480803584221,,,,,,,,0.01,0.06,0.97,-3.0,0.3,-0.4,900,0,,,,,,,,,,,,,,,,,,,
1397933,1480803584241,,,,,,,,0.01,0.05,0.97,-3.0,0.3,-0.5,900,0,,,,,,,,,,,,,,,,,,,
1397953,1480803584261,,,,,27,,,0.01,0.04,0.97,-3.0,0.4,-0.5,900,0,0,1,0.0,0,38.159237,-122.454475,0.0,3.046,10.8,9,3,2.0,0,0.0,-1,0.0,,0.0,0
1397973,1480803584281,,,,,,,,0.02,0.04,0.97,-3.0,0.4,-0.4,900,0,,,,,,,,,,,,,,,,,,,
1397993,1480803584301,,,,,,,,0.02,0.05,0.96,-3.1,0.3,-0.3,900,0,,,,,,,,,,,,,,,,,,,
1398013,1480803584321,,,,,,,,0.02,0.06,0.96,-3.2,0.3,-0.1,900,0,,,,,,,,,,,,,,,,,,,
1398033,1480803584341,,,,,,,,0.02,0.06,0.96,-3.2,0.4,-0.0,900,0,,,,,,,,,,,,,,,,,,,
1398053,1480803584361,0,131.9,2.0,153.1,31,171.7,13.54,0.02,0.07,0.96,-3.2,0.4,-0.0,900,0,0,1,0.0,0,38.159237,-122.454475,0.0,3.046,10.8,9,3,2.0,0,0.0,-1,0.0,0.0,0.0,0
1398073,1480803584381,,,,,,,,0.02,0.07,0.96,-3.2,0.4,-0.1,900,0,,,,,,,,,,,,,,,,,,,
1398093,1480803584402,,,,,,,,0.02,0.07,0.97,-3.1,0.4,-0.2,900,0,,,,,,,,,,,,,,,,,,,
1398113,1480803584422,,,,,,,,0.02,0.06,0.97,-3.1,0.4,-0.3,900,0,,,,,,,,,,,,,,,,,,,
1398133,1480803584442,,,,,,,,0.01,0.05,0.96,-3.0,0.3,-0.5,900,0,,,,,,,,,,,,,,,,,,,
1398153,1480803584462,,,,,29,,,0.01,0.04,0.97,-3.0,0.3,-0.5,900,0,0,1,0.0,0,38.159237,-122.454475,0.0,3.046,10.8,9,3,2.0,0,0.0,-1,0.0,,0.0,0
1398173,1480803584482,,,,,,,,0.01,0.03,0.97,-3.0,0.4,-0.5,900,0,,,,,,,,,,,,,,,,,,,
1398193,1480803584601,,,,,,,,0.01,0.03,0.96,-3.0,0.4,-0.4,900,0,,,,,,,,,,,,,,,,,,,
1398213,1480803584621,,,,,,,,0.01,0.04,0.96,-3.1,0.3,-0.3,900,0,,,,,,,,,,,,,,,,,,,
1398233,1480803584641,,,,,,,,0.02,0.05,0.96,-3.1,0.3,-0.1,900,0,,,,,,,,,,,,,,,,,,,
1398253,1480803584661,0,130.8,,152.1,27,171.3,,0.02,0.06,0.96,-3.2,0.4,0.0,900,0,0,1,0.0,0,38.159237,-122.454475,0.0,3.046,10.8,9,3,2.0,0,0.0,-1,0.0,0.0,0.0,0
1398273,1480803584681,,,,,,,,0.02,0.07,0.97,-3.2,0.4,0.0,900,0,,,,,,,,,,,,,,,,,,,
1398293,1480803584701,,,,,,,,0.02,0.08,0.96,-3.2,0.5,0.0,900,0,,,,,,,,,,,,,,,,,,,
1398313,1480803584721,,,,,,,,0.02,0.08,0.97,-3.2,0.5,-0.1,900,0,,,,,,,,,,,,,,,,,,,
1398333,1480803584741,,,,,,,,0.02,0.08,0.97,-3.1,0.5,-0.2,920,0,,,,,,,,,,,,,,,,,,,
1398353,1480803584761,,,,,29,,,0.02,0.07,0.97,-3.0,0.4,-0.3,920,0,0,1,0.0,0,38.159237,-122.454475,0.0,3.046,10.8,9,3,2.0,0,0.0,-1,0.0,,0.0,0
1398373,1480803584781,,,,,,,,0.01,0.06,0.97,-3.0,0.4,-0.5,900,0,,,,,,,,,,,,,,,,,,,
1398393,1480803584702,,,,,,,,0.01,0.05,0.97,-3.0,0.4,-0.5,900,0,,,,,,,,,,,,,,,,,,,
1398413,1480803584722,,,,,,,,0.01,0.04,0.97,-3.0,0.4,-0.5,900,0,,,,,,,,,,,,,,,,,,,
1398433,1480803584742,,,,,,,,0.01,0.04,0.97,-3.0,0.4,-0.4,900,0,,,,,,,,,,,,,,,,,,,
1398453,1480803584762,0,131.4,,153.1,32,171.7,,0.01,0.04,0.97,-3.1,0.3,-0.3,900,0,0,1,0.0,0,38.159237,-122.454475,0.0,3.046,10.8,9,3,2.0,0,0.0,-1,0.0,0.0,0.0,0
1398473,1480803584782,,,,,,,,0.01,0.04,0.97,-3.2,0.3,-0.1,920,0,,,,,,,,,,,,,,,,,,,
1398493,1480803584802,,,,,,,,0.02,0.05,0.97,-3.2,0.4,0.0,920,0,,,,,,,,,,,,,,,,,,,
1398513,1480803584822,,,,,,,,0.02,0.06,0.97,-3.2,0.4,0.1,900,0,,,,,,,,,,,,,,,,,,,
1398533,1480803584842,,,,,,,,0.02,0.07,0.96,-3.2,0.4,0.1,920,0,,,,,,,,,,,,,,,,,,,
1398553,1480803584862,,,,,31,,,0.02,0.07,0.97,-3.2,0.5,0.0,900,0,0,1,0.0,0,38.159237,-122.454475,0.0,3.046,10.8,9,3,2.0,0,0.0,-1,0.0,,0.0,0
1398573,1480803584882,,,,,,,,0.02,0.07,0.97,-3.1,0.5,-0.1,920,0,,,,,,,,,,,,,,,,,,,
1398593,1480803584893,,,,,,,,0.02,0.06,0.97,-3.1,0.5,-0.3,920,0,,,,,,,,,,,,,,,,,,,
1398613,1480803584913,,,,,,,,0.01,0.05,0.97,-3.0,0.4,-0.4,920,0,,,,,,,,,,,,,,,,,,,
1398633,1480803584933,,,,,,,,0.01,0.04,0.97,-3.0,0.4,-0.5,920,0,,,,,,,,,,,,,,,,,,,
1398653,1480803584953,0,130.6,,152.4,27,171.5,,0.01,0.03,0.97,-3.0,0.4,-0.5,920,0,0,1,0.0,0,38.159237,-122.454475,0.0,3.046,10.8,9,3,2.0,0,0.0,-1,0.0,0.0,0.0,0
1398673,1480803584973,,,,,,,,0.01,0.03,0.97,-3.0,0.5,-0.5,920,0,,,,,,,,,,,,,,,,,,,
1398693,1480803585002,,,,,,,,0.01,0.03,0.97,-3.0,0.4,-0.4,920,0,,,,,,,,,,,,,,,,,,,
1398713,1480803585022,,,,,,,,0.01,0.04,0.96,-3.1,0.4,-0.3,920,0,,,,,,,,,,,,,,,,,,,
1398733,1480803585042,,,,,,,,0.02,0.05,0.96,-3.1,0.3,-0.1,920,0,,,,,,,,,,,,,,,,,,,
1398753,1480803585062,,,,,26,,,0.02,0.06,0.97,-3.1,0.4,0.0,920,0,0,1,0.0,0,38.159237,-122.454475,0.0,3.046,10.8,9,3,2.0,0,0.0,-1,0.0,,0.0,0
1398773,1480803585082,,,,,,,,0.02,0.07,0.97,-3.1,0.5,0.0,920,0,,,,,,,,,,,,,,,,,,,
1398793,1480803585102,,,,,,,,0.02,0.08,0.96,-3.1,0.4,0.0,900,0,,,,,,,,,,,,,,,,,,,
1398813,1480803585122,,,,,,,,0.02,0.08,0.97,-3.1,0.5,-0.1,900,0,,,,,,,,,,,,,,,,,,,
1398833,1480803585142,,,,,,,,0.02,0.07,0.97,-3.1,0.6,-0.2,900,0,,,,,,,,,,,,,,,,,,,
1398853,1480803585162,0,132.2,,153.8,27,171.6,,0.02,0.07,0.97,-3.0,0.5,-0.3,900,0,0,1,0.0,0,38.159237,-122.454475,0.0,3.046,10.8,9,3,2.0,0,0.0,-1,0.0,0.0,0.0,0
1398873,1480803585182,,,,,,,,0.01,0.06,0.97,-3.0,0.4,-0.4,900,0,,,,,,,,,,,,,,,,,,,
1398893,1480803585202,,,,,,,,0.01,0.04,0.97,-3.0,0.4,-0.5,900,0,,,,,,,,,,,,,,,,,,,
1398913,1480803585222,,,,,,,,0.01,0.04,0.97,-3.0,0.4,-0.5,900,0,,,,,,,,,,,,,,,,,,,
1398933,1480803585242,,,,,,,,0.01,0.03,0.97,-3.0,0.4,-0.4,900,0,,,,,,,,,,,,,,,,,,,
1398953,1480803585262,,,,,30,,,0.01,0.04,0.97,-3.1,0.4,-0.3,900,0,0,1,0.0,0,38.159237,-122.454475,0.0,3.046,10.8,9,3,2.0,0,0.0,-1,0.0,,0.0,0
1398973,1480803585282,,,,,,,,0.02,0.04,0.97,-3.1,0.3,-0.1,900,0,,,,,,,,,,,,,,,,,,,
1398993,1480803585401,,,,,,,,0.02,0.05,0.97,-3.2,0.4,0.0,900,0,,,,,,,,,,,,,,,,,,,
1399013,1480803585421,,,,,,,,0.02,0.06,0.97,-3.2,0.5,0.0,900,0,,,,,,,,,,,,,,,,,,,
1399033,1480803585441,,,,,,,,0.02,0.07,0.97,-3.1,0.5,-0.0,900,0,,,,,,,,,,,,,,,,,,,
1399053,1480803585461,0,132.0,1.8,153.8,31,170.4,13.64,0.02,0.07,0.97,-3.1,0.6,-0.1,900,0,0,1,0.0,0,38.159237,-122.454475,0.0,3.046,10.8,9,3,2.0,0,0.0,-1,0.0,0.0,0.0,0
1399073,1480803585481,,,,,,,,0.02,0.06,0.97,-3.1,0.5,-0.2,900,0,,,,,,,,,,,,,,,,,,,
1399093,1480803585501,,,,,,,,0.01,0.06,0.97,-3.0,0.5,-0.4,900,0,,,,,,,,,,,,,,,,,,,
1399113,1480803585521,,,,,,,,0.01,0.05,0.97,-3.0,0.4,-0.5,900,0,,,,,,,,,,,,,,,,,,,
1399133,1480803585541,,,,,,,,0.01,0.04,0.97,-3.0,0.5,-0.5,900,0,,,,,,,,,,,,,,,,,,,
1399153,1480803585561,,,,,33,,,0.01,0.04,0.97,-3.0,0.5,-0.5,900,0,0,1,0.0,0,38.159237,-122.454475,0.0,3.046,10.8,9,3,2.0,0,0.0,-1,0.0,,0.0,0
1399173,1480803585581,,,,,,,,0.01,0.04,0.97,-3.1,0.4,-0.3,900,0,,,,,,,,,,,,,,,,,,,
1399193,1480803585501,,,,,,,,0.01,0.05,0.96,-3.1,0.3,-0.1,900,0,,,,,,,,,,,,,,,,,,,
1399213,1480803585521,,,,,,,,0.02,0.06,0.96,-3.2,0.3,-0.0,900,0,,,,,,,,,,,,,,,,,,,
1399233,1480803585541,,,,,,,,0.02,0.06,0.96,-3.2,0.4,0.0,900,0,,,,,,,,,,,,,,,,,,,
1399253,1480803585561,0,131.1,,153.1,27,171.6,,0.02,0.07,0.96,-3.2,0.4,-0.0,900,0,0,1,0.0,0,38.159237,-122.454475,0.0,3.046,10.8,9,3,2.0,0,0.0,-1,0.0,0.0,0.0,0
1399273,1480803585581,,,,,,,,0.02,0.07,0.96,-3.2,0.4,-0.1,880,0,,,,,,,,,,,,,,,,,,,
1399293,1480803585601,,,,,,,,0.02,0.06,0.96,-3.1,0.4,-0.3,900,0,,,,,,,,,,,,,,,,,,,
1399313,1480803585621,,,,,,,,0.01,0.06,0.96,-3.1,0.4,-0.4,900,0,,,,,,,,,,,,,,,,,,,
1399333,1480803585641,,,,,,,,0.01,0.05,0.97,-3.1,0.3,-0.5,900,0,,,,,,,,,,,,,,,,,,,
1399353,1480803585661,,,,,27,,,0.01,0.04,0.97,-3.1,0.4,-0.5,880,0,0,1,0.0,0,38.159237,-122.454475,0.0,3.046,10.8,9,3,2.0,0,0.0,-1,0.0,,0.0,0
1399373,1480803585681,,,,,,,,0.02,0.04,0.96,-3.1,0.4,-0.4,880,0,,,,,,,,,,,,,,,,,,,
1399393,1480803585701,,,,,,,,0.02,0.04,0.96,-3.1,0.3,-0.2,900,0,,,,,,,,,,,,,,,,,,,
1399413,1480803585721,,,,,,,,0.02,0.05,0.97,-3.2,0.3,-0.1,900,0,,,,,,,,,,,,,,,,,,,
1399433,1480803585741,,,,,,,,0.02,0.06,0.96,-3.2,0.3,0.0,880,0,,,,,,,,,,,,,,,,,,,
1399453,1480803585761,0,132.1,,153.9,30,171.5,,0.02,0.06,0.96,-3.2,0.3,0.0,900,0,0,1,0.0,0,38.159237,-122.454475,0.0,3.046,10.8,9,3,2.0,0,0.0,-1,0.0,0.0,0.0,0
1399473,1480803585781,,,,,,,,0.02,0.06,0.97,-3.1,0.4,-0.1,880,0,,,,,,,,,,,,,,,,,,,
1399493,1480803585802,,,,,,,,0.02,0.06,0.97,-3.1,0.4,-0.2,880,0,,,,,,,,,,,,,,,,,,,
1399513,1480803585822,,,,,,,,0.01,0.06,0.97,-3.0,0.4,-0.4,880,0,,,,,,,,,,,,,,,,,,,
1399533,1480803585842,,,,,,,,0.01,0.05,0.97,-3.0,0.4,-0.4,900,0,,,,,,,,,,,,,,,,,,,
1399553,1480803585862,,,,,28,,,0.01,0.05,0.97,-3.0,0.5,-0.4,880,0,0,1,0.0,0,38.159237,-122.454475,0.0,3.046,10.8,9,3,2.0,0,0.0,-1,0.0,,0.0,0
1399573,1480803585882,,,,,,,,0.01,0.05,0.97,-3.1,0.4,-0.3,880,0,,,,,,,,,,,,,,,,,,,
1399593,1480803585894,,,,,,,,0.01,0.05,0.97,-3.2,0.4,-0.2,880,0,,,,,,,,,,,,,,,,,,,
1399613,1480803585914,,,,,,,,0.02,0.06,0.97,-3.2,0.3,-0.0,880,0,,,,,,,,,,,,,,,,,,,
1399633,1480803585934,,,,,,,,0.02,0.07,0.97,-3.2,0.4,0.1,880,0,,,,,,,,,,,,,,,,,,,
1399653,1480803585954,0,131.8,,153.6,32,170.4,,0.02,0.07,0.97,-3.2,0.5,0.0,880,0,0,1,0.0,0,38.159237,-122.454475,0.0,3.046,10.8,9,3,2.0,0,0.0,-1,0.0,0.0,0.0,0
1399673,1480803585974,,,,,,,,0.02,0.07,0.97,-3.2,0.5,-0.1,900,0,,,,,,,,,,,,,,,,,,,
1399693,1480803586002,,,,,,,,0.02,0.07,0.97,-3.1,0.5,-0.2,900,0,,,,,,,,,,,,,,,,,,,
1399713,1480803586022,,,,,,,,0.02,0.06,0.97,-3.1,0.4,-0.3,900,0,,,,,,,,,,,,,,,,,,,
1399733,1480803586042,,,,,,,,0.01,0.05,0.97,-3.1,0.4,-0.5,880,0,,,,,,,,,,,,,,,,,,,
1399753,1480803586062,,,,,29,,,0.01,0.05,0.97,-3.1,0.4,-0.4,880,0,0,1,0.0,0,38.159237,-122.454475,0.0,3.046,10.8,9,3,2.0,0,0.0,-1,0.0,,0.0,0
1399773,1480803586082,,,,,,,,0.02,0.04,0.97,-3.1,0.4,-0.3,880,0,,,,,,,,,,,,,,,,,,,
1399793,1480803586201,,,,,,,,0.02,0.05,0.97,-3.1,0.3,-0.1,880,0,,,,,,,,,,,,,,,,,,,
1399813,1480803586221,,,,,,,,0.02,0.05,0.97,-3.2,0.3,-0.0,900,0,,,,,,,,,,,,,,,,,,,
1399833,1480803586241,,,,,,,,0.02,0.06,0.97,-3.2,0.4,0.0,880,0,,,,,,,,,,,,,,,,,,,
1399853,1480803586261,0,132.2,,154.2,30,171.2,,0.02,0.07,0.96,-3.2,0.4,-0.0,880,0,0,1,0.0,0,38.159237,-122.454475,0.0,3.046,10.8,9,3,2.0,0,0.0,-1,0.0,0.0,0.0,0
1399873,1480803586281,,,,,,,,0.02,0.07,0.97,-3.1,0.4,-0.1,880,0,,,,,,,,,,,,,,,,,,,
1399893,1480803586301,,,,,,,,0.02,0.07,0.97,-3.1,0.4,-0.2,880,0,,,,,,,,,,,,,,,,,,,
1399913,1480803586321,,,,,,,,0.01,0.06,0.97,-3.0,0.3,-0.4,880,0,,,,,,,,,,,,,,,,,,,
1399933,1480803586341,,,,,,,,0.01,0.05,0.97,-3.0,0.4,-0.5,880,0,,,,,,,,,,,,,,,,,,,
1399953,1480803586361,,,,,30,,,0.01,0.05,0.97,-3.0,0.4,-0.4,900,0,0,1,0.0,0,38.159237,-122.454475,0.0,3.046,10.8,9,3,2.0,0,0.0,-1,0.0,,0.0,0
1399973,1480803586381,,,,,,,,0.01,0.05,0.97,-3.1,0.3,-0.3,900,0,,,,,,,,,,,,,,,,,,,
1399993,1480803586302,,,,,,,,0.01,0.05,0.97,-3.1,0.3,-0.1,880,0,,,,,,,,,,,,,,,,,,,
1400013,1480803586322,,,,,,,,0.02,0.06,0.97,-3.2,0.3,-0.0,880,0,,,,,,,,,,,,,,,,,,,
1400033,1480803586342,,,,,,,,0.02,0.07,0.97,-3.2,0.4,0.0,880,0,,,,,,,,,,,,,,,,,,,
1400053,1480803586362,0,132.2,2.1,154.5,27,171.2,13.77,0.02,0.07,0.97,-3.2,0.4,0.0,900,0,0,1,0.0,0,38.159237,-122.454475,0.0,3.046,10.8,9,3,2.0,0,0.0,-1,0.0,0.0,0.0,0
1400073,1480803586382,,,,,,,,0.02,0.07,0.97,-3.1,0.4,-0.1,900,0,,,,,,,,,,,,,,,,,,,
1400093,1480803586402,,,,,,,,0.02,0.07,0.97,-3.1,0.4,-0.2,900,0,,,,,,,,,,,,,,,,,,,
1400113,1480803586422,,,,,,,,0.01,0.07,0.97,-3.1,0.3,-0.4,900,0,,,,,,,,,,,,,,,,,,,
1400133,1480803586442,,,,,,,,0.01,0.05,0.97,-3.1,0.4,-0.5,900,0,,,,,,,,,,,,,,,,,,,
1400153,1480803586462,,,,,28,,,0.02,0.05,0.97,-3.1,0.4,-0.4,880,0,0,1,0.0,0,38.159237,-122.454475,0.0,3.046,10.8,9,3,2.0,0,0.0,-1,0.0,,0.0,0
1400173,1480803586482,,,,,,,,0.02,0.04,0.97,-3.1,0.4,-0.3,880,0,,,,,,,,,,,,,,,,,,,
1400193,1480803586502,,,,,,,,0.02,0.05,0.97,-3.2,0.3,-0.1,900,0,,,,,,,,,,,,,,,,,,,
1400213,1480803586522,,,,,,,,0.02,0.06,0.97,-3.2,0.3,0.0,900,0,,,,,,,,,,,,,,,,,,,
1400233,1480803586542,,,,,,,,0.02,0.07,0.97,-3.2,0.4,0.1,900,0,,,,,,,,,,,,,,,,,,,
1400253,1480803586562,0,132.2,,154.5,31,170.6,,0.02,0.07,0.97,-3.2,0.4,0.0,900,0,0,1,0.0,0,38.159237,-122.454475,0.0,3.046,10.8,9,3,2.0,0,0.0,-1,0.0,0.0,0.0,0
1400273,1480803586582,,,,,,,,0.02,0.07,0.97,-3.2,0.4,-0.1,900,0,,,,,,,,,,,,,,,,,,,
1400293,1480803586602,,,,,,,,0.02,0.07,0.97,-3.1,0.4,-0.2,900,0,,,,,,,,,,,,,,,,,,,
1400313,1480803586622,,,,,,,,0.02,0.07,0.97,-3.1,0.4,-0.3,900,0,,,,,,,,,,,,,,,,,,,
1400333,1480803586642,,,,,,,,0.01,0.05,0.97,-3.1,0.4,-0.5,900,0,,,,,,,,,,,,,,,,,,,
1400353,1480803586662,,,,,27,,,0.01,0.05,0.97,-3.1,0.4,-0.5,900,0,0,1,0.0,0,38.159237,-122.454475,0.0,3.046,10.8,9,3,2.0,0,0.0,-1,0.0,,0.0,0
1400373,1480803586682,,,,,,,,0.01,0.04,0.97,-3.1,0.5,-0.4,900,0,,,,,,,,,,,,,,,,,,,
1400393,1480803586702,,,,,,,,0.01,0.04,0.97,-3.1,0.4,-0.3,900,0,,,,,,,,,,,,,,,,,,,
1400413,1480803586722,,,,,,,,0.02,0.05,0.97,-3.2,0.4,-0.1,900,0,,,,,,,,,,,,,,,,,,,
1400433,1480803586742,,,,,,,,0.02,0.06,0.97,-3.2,0.4,0.0,900,0,,,,,,,,,,,,,,,,,,,
1400453,1480803586762,0,132.5,,155.1,26,171.2,,0.02,0.07,0.97,-3.2,0.5,0.1,900,0,0,1,0.0,0,38.159237,-122.454475,0.0,3.046,10.8,9,3,2.0,0,0.0,-1,0.0,0.0,0.0,0
1400473,1480803586782,,,,,,,,0.02,0.07,0.97,-3.2,0.5,-0.0,900,0,,,,,,,,,,,,,,,,,,,
1400493,1480803586801,,,,,,,,0.02,0.07,0.97,-3.1,0.5,-0.1,900,0,,,,,,,,,,,,,,,,,,,
1400513,1480803586821,,,,,,,,0.02,0.07,0.97,-3.1,0.5,-0.2,900,0,,,,,,,,,,,,,,,,,,,
1400533,1480803586841,,,,,,,,0.01,0.06,0.97,-3.1,0.5,-0.4,900,0,,,,,,,,,,,,,,,,,,,
1400553,1480803586861,,,,,31,,,0.01,0.05,0.97,-3.0,0.5,-0.5,900,0,0,1,0.0,0,38.159237,-122.454475,0.0,3.046,10.8,9,3,2.0,0,0.0,-1,0.0,,0.0,0
1400573,1480803586881,,,,,,,,0.01,0.04,0.97,-3.0,0.5,-0.5,900,0,,,,,,,,,,,,,,,,,,,
1400593,1480803586993,,,,,,,,0.01,0.04,0.97,-3.0,0.5,-0.3,900,0,,,,,,,,,,,,,,,,,,,
1400613,1480803587013,,,,,,,,0.01,0.04,0.97,-3.1,0.4,-0.2,900,0,,,,,,,,,,,,,,,,,,,
1400633,1480803587033,,,,,,,,0.02,0.05,0.97,-3.2,0.4,-0.0,900,0,,,,,,,,,,,,,,,,,,,
1400653,1480803587053,0,130.8,,153.7,31,170.3,,0.02,0.05,0.97,-3.2,0.5,0.1,900,0,0,1,0.0,0,38.159237,-122.454475,0.0,3.046,10.8,9,3,2.4,0,0.0,-1,0.0,0.0,0.0,0
1400673,1480803587073,,,,,,,,0.02,0.06,0.97,-3.2,0.5,0.0,900,0,,,,,,,,,,,,,,,,,,,
1400693,1480803587093,,,,,,,,0.02,0.06,0.97,-3.2,0.5,-0.0,900,0,,,,,,,,,,,,,,,,,,,
1400713,1480803587113,,,,,,,,0.02,0.06,0.97,-3.1,0.5,-0.1,900,0,,,,,,,,,,,,,,,,,,,
1400733,1480803587133,,,,,,,,0.02,0.06,0.97,-3.1,0.5,-0.3,900,0,,,,,,,,,,,,,,,,,,,
1400753,1480803587153,,,,,30,,,0.01,0.05,0.97,-3.0,0.4,-0.4,900,0,0,1,0.0,0,38.159237,-122.454475,0.0,3.046,10.8,9,3,2.4,0,0.0,-1,0.0,,0.0,0
1400773,1480803587173,,,,,,,,0.01,0.04,0.97,-3.0,0.4,-0.5,900,0,,,,,,,,,,,,,,,,,,,
1400793,1480803587101,,,,,,,,0.02,0.04,0.97,-3.0,0.4,-0.5,900,0,,,,,,,,,,,,,,,,,,,
1400813,1480803587121,,,,,,,,0.02,0.04,0.97,-3.0,0.4,-0.4,900,0,,,,,,,,,,,,,,,,,,,
1400833,1480803587141,,,,,,,,0.02,0.04,0.97,-3.1,0.4,-0.2,900,0,,,,,,,,,,,,,,,,,,,
1400853,1480803587161,0,131.6,,154.6,24,170.6,,0.02,0.05,0.97,-3.2,0.3,-0.1,900,0,0,1,0.0,0,38.159237,-122.454475,0.0,3.046,10.8,9,3,2.4,0,0.0,-1,0.0,0.0,0.0,0
1400873,1480803587181,,,,,,,,0.02,0.06,0.97,-3.2,0.4,0.0,900,0,,,,,,,,,,,,,,,,,,,
1400893,1480803587201,,,,,,,,0.02,0.07,0.97,-3.2,0.4,-0.0,900,0,,,,,,,,,,,,,,,,,,,
1400913,1480803587221,,,,,,,,0.02,0.06,0.97,-3.1,0.4,-0.1,900,0,,,,,,,,,,,,,,,,,,,
1400933,1480803587241,,,,,,,,0.02,0.06,0.97,-3.1,0.3,-0.2,900,0,,,,,,,,,,,,,,,,,,,
1400953,1480803587261,,,,,31,,,0.02,0.05,0.97,-3.0,0.3,-0.4,900,0,0,1,0.0,0,38.159237,-122.454475,0.0,3.046,10.8,9,3,2.4,0,0.0,-1,0.0,,0.0,0
1400973,1480803587281,,,,,,,,0.01,0.04,0.97,-3.0,0.3,-0.5,900,0,,,,,,,,,,,,,,,,,,,
1400993,1480803587301,,,,,,,,0.01,0.03,0.97,-3.0,0.4,-0.5,900,0,,,,,,,,,,,,,,,,,,,
1401013,1480803587321,,,,,,,,0.02,0.03,0.97,-3.0,0.3,-0.4,900,0,,,,,,,,,,,,,,,,,,,
1401033,1480803587341,,,,,,,,0.02,0.04,0.97,-3.1,0.3,-0.3,900,0,,,,,,,,,,,,,,,,,,,
1401053,1480803587361,0,132.2,2.0,155.1,29,170.7,13.84,0.02,0.05,0.97,-3.1,0.3,-0.1,880,0,0,1,0.0,0,38.159237,-122.454475,0.0,3.046,10.8,9,3,2.4,0,0.0,-1,0.0,0.0,0.0,0
1401073,1480803587381,,,,,,,,0.02,0.05,0.97,-3.2,0.4,-0.0,880,0,,,,,,,,,,,,,,,,,,,
1401093,1480803587401,,,,,,,,0.02,0.06,0.97,-3.2,0.4,-0.0,880,0,,,,,,,,,,,,,,,,,,,
1401113,1480803587421,,,,,,,,0.02,0.06,0.97,-3.2,0.4,-0.1,880,0,,,,,,,,,,,,,,,,,,,
1401133,1480803587441,,,,,,,,0.02,0.06,0.97,-3.1,0.4,-0.2,880,0,,,,,,,,,,,,,,,,,,,
1401153,1480803587461,,,,,31,,,0.01,0.05,0.97,-3.1,0.4,-0.3,880,0,0,1,0.0,0,38.159237,-122.454475,0.0,3.046,10.8,9,3,2.4,0,0.0,-1,0.0,,0.0,0
1401173,1480803587481,,,,,,,,0.01,0.04,0.97,-3.0,0.3,-0.5,880,0,,,,,,,,,,,,,,,,,,,
1401193,1480803587501,,,,,,,,0.01,0.04,0.97,-3.0,0.4,-0.5,880,0,,,,,,,,,,,,,,,,,,,
1401213,1480803587521,,,,,,,,0.01,0.04,0.97,-3.0,0.5,-0.4,880,0,,,,,,,,,,,,,,,,,,,
1401233,1480803587541,,,,,,,,0.02,0.04,0.97,-3.1,0.4,-0.3,880,0,,,,,,,,,,,,,,,,,,,
1401253,1480803587561,0,131.9,,155.0,32,170.7,,0.02,0.05,0.98,-3.2,0.4,-0.1,880,0,0,1,0.0,0,38.159237,-122.454475,0.0,3.046,10.8,9,3,2.4,0,0.0,-1,0.0,0.0,0.0,0
1401273,1480803587581,,,,,,,,0.02,0.06,0.98,-3.2,0.4,-0.0,900,0,,,,,,,,,,,,,,,,,,,
1401293,1480803587597,,,,,,,,0.02,0.06,0.97,-3.1,0.5,-0.0,880,0,,,,,,,,,,,,,,,,,,,
1401313,1480803587617,,,,,,,,0.02,0.06,0.98,-3.1,0.5,-0.1,880,0,,,,,,,,,,,,,,,,,,,
1401333,1480803587637,,,,,,,,0.02,0.06,0.98,-3.1,0.5,-0.3,880,0,,,,,,,,,,,,,,,,,,,
1401353,1480803587657,,,,,30,,,0.02,0.06,0.98,-3.0,0.4,-0.4,880,0,0,1,0.0,0,38.159237,-122.454475,0.0,3.046,10.8,9,3,2.4,0,0.0,-1,0.0,,0.0,0
1401373,1480803587677,,,,,,,,0.01,0.04,0.98,-3.0,0.4,-0.5,900,0,,,,,,,,,,,,,,,,,,,
1401393,1480803587801,,,,,,,,0.01,0.04,0.97,-3.0,0.5,-0.5,880,0,,,,,,,,,,,,,,,,,,,
1401413,1480803587821,,,,,,,,0.02,0.04,0.97,-3.0,0.4,-0.4,880,0,,,,,,,,,,,,,,,,,,,
1401433,1480803587841,,,,,,,,0.02,0.04,0.97,-3.1,0.4,-0.2,880,0,,,,,,,,,,,,,,,,,,,
1401453,1480803587861,0,131.7,,155.1,26,170.6,,0.02,0.05,0.97,-3.1,0.3,-0.0,880,0,0,1,0.0,0,38.159237,-122.454475,0.0,3.046,10.8,9,3,2.4,0,0.0,-1,0.0,0.0,0.0,0
1401473,1480803587881,,,,,,,,0.02,0.06,0.97,-3.2,0.4,0.0,900,0,,,,,,,,,,,,,,,,,,,
1401493,1480803587901,,,,,,,,0.02,0.07,0.97,-3.2,0.4,-0.0,900,0,,,,,,,,,,,,,,,,,,,
1401513,1480803587921,,,,,,,,0.02,0.07,0.98,-3.2,0.5,-0.1,900,0,,,,,,,,,,,,,,,,,,,
1401533,1480803587941,,,,,,,,0.02,0.07,0.98,-3.1,0.4,-0.2,920,0,,,,,,,,,,,,,,,,,,,
1401553,1480803587961,,,,,32,,,0.02,0.06,0.98,-3.0,0.3,-0.4,920,0,0,1,0.0,0,38.159237,-122.454475,0.0,3.046,10.8,9,3,2.4,0,0.0,-1,0.0,,0.0,0
1401573,1480803587981,,,,,,,,0.01,0.05,0.98,-3.0,0.3,-0.5,920,0,,,,,,,,,,,,,,,,,,,
1401593,1480803587893,,,,,,,,0.01,0.04,0.98,-3.0,0.3,-0.6,940,0,,,,,,,,,,,,,,,,,,,
1401613,1480803587913,,,,,,,,0.01,0.03,0.98,-2.9,0.3,-0.6,960,0,,,,,,,,,,,,,,,,,,,
1401633,1480803587933,,,,,,,,0.01,0.01,0.97,-2.9,0.3,-0.6,980,0,,,,,,,,,,,,,,,,,,,
1401653,1480803587953,0,132.1,,155.5,33,170.7,,0.01,0.01,0.97,-2.9,0.3,-0.6,980,0,0,1,0.0,0,38.159237,-122.454475,0.0,3.046,10.8,9,3,2.4,0,0.0,-1,0.0,0.0,0.0,0
1401673,1480803587973,,,,,,,,0.01,0.01,0.96,-3.0,0.2,-0.5,1000,0,,,,,,,,,,,,,,,,,,,
1401693,1480803588001,,,,,,,,0.01,0.02,0.96,-3.0,0.2,-0.5,1020,0,,,,,,,,,,,,,,,,,,,
1401713,1480803588021,,,,,,,,0.01,0.01,0.95,-3.0,0.2,-0.4,1040,0,,,,,,,,,,,,,,,,,,,
1401733,1480803588041,,,,,,,,0.01,0.02,0.95,-3.0,0.2,-0.4,1040,0,,,,,,,,,,,,,,,,,,,
1401753,1480803588061,,,,,30,,,0.01,0.02,0.95,-3.0,0.1,-0.5,1080,0,0,1,0.0,0,38.159237,-122.454475,0.0,3.046,10.8,9,3,2.0,0,0.0,-1,0.0,,0.0,0
1401773,1480803588081,,,,,,,,0.01,0.02,0.96,-3.0,0.1,-0.5,1080,0,,,,,,,,,,,,,,,,,,,
1401793,1480803588101,,,,,,,,0.01,0.04,0.96,-3.0,0.2,-0.5,1100,0,,,,,,,,,,,,,,,,,,,
1401813,1480803588121,,,,,,,,0.01,0.05,0.97,-3.0,0.3,-0.5,1120,0,,,,,,,,,,,,,,,,,,,
1401833,1480803588141,,,,,,,,0.02,0.04,0.98,-3.0,0.4,-0.4,1160,0,,,,,,,,,,,,,,,,,,,
1401853,1480803588161,0,131.0,,154.7,35,169.9,,0.01,0.03,0.98,-3.0,0.6,-0.3,1180,0,0,1,0.0,0,38.159237,-122.454475,0.0,3.046,10.8,9,3,2.0,0,0.0,-1,0.0,0.0,0.0,0
1401873,1480803588181,,,,,,,,0.01,0.03,0.97,-3.0,0.5,-0.4,1200,0,,,,,,,,,,,,,,,,,,,
1401893,1480803588201,,,,,,,,0.01,0.03,0.97,-3.0,0.4,-0.4,1220,0,,,,,,,,,,,,,,,,,,,
1401913,1480803588221,,,,,,,,0.01,0.05,0.98,-3.0,0.4,-0.3,1240,0,,,,,,,,,,,,,,,,,,,
1401933,1480803588241,,,,,,,,0.02,0.04,0.98,-3.0,0.6,-0.3,1280,0,,,,,,,,,,,,,,,,,,,
1401953,1480803588261,,,,,39,,,0.01,0.03,0.97,-3.0,0.7,-0.4,1300,0,0,1,0.0,0,38.159237,-122.454475,0.0,3.046,10.8,9,3,2.0,0,0.0,-1,0.0,,0.0,0
1401973,1480803588281,,,,,,,,0.01,0.04,0.96,-3.0,0.4,-0.3,1320,0,,,,,,,,,,,,,,,,,,,
1401993,1480803588301,,,,,,,,0.02,0.04,0.98,-3.1,0.5,-0.3,1340,0,,,,,,,,,,,,,,,,,,,
1402013,1480803588321,,,,,,,,0.02,0.03,0.98,-3.0,0.6,-0.4,1360,0,,,,,,,,,,,,,,,,,,,
1402033,1480803588341,,,,,,,,0.01,0.05,0.97,-3.1,0.4,-0.3,1400,0,,,,,,,,,,,,,,,,,,,
1402053,1480803588361,0,132.4,1.9,156.0,45,170.7,14.35,0.02,0.04,0.97,-3.1,0.4,-0.2,1420,0,0,1,0.0,0,38.159237,-122.454475,0.0,3.046,10.8,9,3,2.0,0,0.0,-1,0.0,0.0,0.0,0
1402073,1480803588381,,,,,,,,0.01,0.03,0.97,-3.1,0.4,-0.3,1420,0,,,,,,,,,,,,,,,,,,,
1402093,1480803588401,,,,,,,,0.01,0.04,0.97,-3.1,0.5,-0.2,1460,0,,,,,,,,,,,,,,,,,,,
1402113,1480803588421,,,,,,,,0.02,0.03,0.98,-2.9,0.6,-0.3,1460,0,,,,,,,,,,,,,,,,,,,
1402133,1480803588441,,,,,,,,0.02,0.04,0.99,-2.9,0.8,-0.3,1500,0,,,,,,,,,,,,,,,,,,,
1402153,1480803588461,,,,,51,,,0.02,0.05,0.99,-2.8,0.8,-0.3,1520,0,0,1,0.0,0,38.159237,-122.454475,0.0,3.046,10.8,9,3,2.0,0,0.0,-1,0.0,,0.0,0
1402173,1480803588481,,,,,,,,0.02,0.05,0.99,-2.8,0.8,-0.3,1560,0,,,,,,,,,,,,,,,,,,,
1402193,1480803588600,,,,,,,,0.02,0.05,0.99,-2.8,0.9,-0.3,1520,0,,,,,,,,,,,,,,,,,,,
1402213,1480803588620,,,,,,,,0.02,0.04,0.99,-2.8,0.8,-0.3,1580,0,,,,,,,,,,,,,,,,,,,
1402233,1480803588640,,,,,,,,0.02,0.04,1.0,-2.7,0.9,-0.4,1580,0,,,,,,,,,,,,,,,,,,,
1402253,1480803588660,0,131.0,,154.9,45,169.8,,0.02,0.04,0.99,-2.7,0.8,-0.4,1600,0,0,1,0.0,0,38.159237,-122.454475,0.0,3.046,10.8,9,3,2.0,0,0.0,-1,0.0,0.0,0.0,0
1402273,1480803588680,,,,,,,,0.02,0.05,0.99,-2.7,0.7,-0.3,1620,0,,,,,,,,,,,,,,,,,,,
1402293,1480803588700,,,,,,,,0.02,0.05,1.0,-2.8,0.7,-0.3,1620,0,,,,,,,,,,,,,,,,,,,
1402313,1480803588720,,,,,,,,0.02,0.04,0.99,-2.8,0.6,-0.3,1620,0,,,,,,,,,,,,,,,,,,,
1402333,1480803588740,,,,,,,,0.01,0.05,0.99,-2.8,0.7,-0.3,1660,0,,,,,,,,,,,,,,,,,,,
1402353,1480803588760,,,,,48,,,0.02,0.05,1.0,-2.8,0.6,-0.3,1640,0,0,1,0.0,0,38.159237,-122.454475,0.0,3.046,10.8,9,3,2.0,0,0.0,-1,0.0,,0.0,0
1402373,1480803588780,,,,,,,,0.02,0.05,1.0,-2.9,0.6,-0.3,1660,0,,,,,,,,,,,,,,,,,,,
1402393,1480803588701,,,,,,,,0.02,0.05,0.99,-2.9,0.6,-0.2,1680,0,,,,,,,,,,,,,,,,,,,
1402413,1480803588721,,,,,,,,0.01,0.06,0.99,-2.9,0.6,-0.3,1680,0,,,,,,,,,,,,,,,,,,,
1402433,1480803588741,,,,,,,,0.02,0.05,1.0,-2.9,0.5,-0.3,1720,0,,,,,,,,,,,,,,,,,,,
1402453,1480803588761,0,132.4,,156.2,50,170.5,,0.01,0.06,1.0,-2.9,0.5,-0.3,1720,0,0,1,0.0,0,38.159237,-122.454475,0.0,3.046,10.8,9,3,2.0,0,0.0,-1,0.0,0.0,0.0,0
1402473,1480803588781,,,,,,,,0.01,0.06,1.0,-2.9,0.6,-0.3,1740,0,,,,,,,,,,,,,,,,,,,
1402493,1480803588802,,,,,,,,0.02,0.05,0.99,-2.9,0.6,-0.3,1760,0,,,,,,,,,,,,,,,,,,,
1402513,1480803588822,,,,,,,,0.01,0.05,0.99,-3.0,0.6,-0.3,1740,0,,,,,,,,,,,,,,,,,,,
1402533,1480803588842,,,,,,,,0.02,0.06,0.99,-3.0,0.5,-0.3,1780,0,,,,,,,,,,,,,,,,,,,
1402553,1480803588862,,,,,44,,,0.02,0.06,0.99,-3.0,0.5,-0.3,1760,0,0,1,0.0,0,38.159237,-122.454475,0.0,3.046,10.8,9,3,2.0,0,0.0,-1,0.0,,0.0,0
1402573,1480803588882,,,,,,,,0.02,0.06,0.99,-3.0,0.5,-0.3,1800,0,,,,,,,,,,,,,,,,,,,
1402593,1480803588893,,,,,,,,0.02,0.06,0.99,-3.1,0.4,-0.3,1740,0,,,,,,,,,,,,,,,,,,,
1402613,1480803588913,,,,,,,,0.02,0.07,0.99,-3.1,0.4,-0.2,1780,0,,,,,,,,,,,,,,,,,,,
1402633,1480803588933,,,,,,,,0.01,0.06,0.98,-3.1,0.4,-0.3,1800,0,,,,,,,,,,,,,,,,,,,
1402653,1480803588953,0,131.4,,155.5,49,170.1,,0.01,0.06,0.98,-3.1,0.5,-0.3,1800,0,0,1,0.0,0,38.159237,-122.454475,0.0,3.046,10.8,9,3,2.0,0,0.0,-1,0.0,0.0,0.0,0
1402673,1480803588973,,,,,,,,0.01,0.05,0.98,-3.1,0.6,-0.3,1800,0,,,,,,,,,,,,,,,,,,,
1402693,1480803589001,,,,,,,,0.02,0.05,0.98,-3.1,0.4,-0.3,1840,0,,,,,,,,,,,,,,,,,,,
1402713,1480803589021,,,,,,,,0.01,0.05,0.98,-3.2,0.4,-0.2,1820,0,,,,,,,,,,,,,,,,,,,
1402733,1480803589041,,,,,,,,0.01,0.05,0.98,-3.2,0.4,-0.2,1820,0,,,,,,,,,,,,,,,,,,,
1402753,1480803589061,,,,,59,,,0.01,0.04,0.99,-3.1,0.4,-0.2,1840,0,0,1,0.0,0,38.159237,-122.454475,0.0,3.046,10.8,9,3,2.0,0,0.0,-1,0.0,,0.0,0
1402773,1480803589081,,,,,,,,0.01,0.05,0.99,-3.2,0.4,-0.2,1860,0,,,,,,,,,,,,,,,,,,,
1402793,1480803589101,,,,,,,,0.02,0.05,0.99,-3.2,0.4,-0.3,1840,0,,,,,,,,,,,,,,,,,,,
1402813,1480803589121,,,,,,,,0.02,0.05,0.99,-3.2,0.3,-0.2,1860,0,,,,,,,,,,,,,,,,,,,
1402833,1480803589141,,,,,,,,0.02,0.05,0.99,-3.2,0.1,-0.2,1860,0,,,,,,,,,,,,,,,,,,,
1402853,1480803589161,0,132.1,,156.2,53,170.2,,0.02,0.06,0.98,-3.2,0.1,-0.2,1860,0,0,1,0.0,0,38.159237,-122.454475,0.0,3.046,10.8,9,3,2.0,0,0.0,-1,0.0,0.0,0.0,0
1402873,1480803589181,,,,,,,,0.02,0.07,0.99,-3.1,0.1,-0.3,1860,0,,,,,,,,,,,,,,,,,,,
1402893,1480803589201,,,,,,,,0.01,0.06,0.98,-3.1,0.2,-0.3,1880,0,,,,,,,,,,,,,,,,,,,
1402913,1480803589221,,,,,,,,0.01,0.05,0.98,-3.1,0.4,-0.3,1880,0,,,,,,,,,,,,,,,,,,,
1402933,1480803589241,,,,,,,,0.02,0.05,0.99,-3.1,0.6,-0.3,1860,0,,,,,,,,,,,,,,,,,,,
1402953,1480803589261,,,,,54,,,0.02,0.05,0.99,-3.1,0.6,-0.3,1900,0,0,1,0.0,0,38.159237,-122.454475,0.0,3.046,10.8,9,3,2.0,0,0.0,-1,0.0,,0.0,0
1402973,1480803589281,,,,,,,,0.03,0.06,0.99,-3.1,0.4,-0.3,1900,0,,,,,,,,,,,,,,,,,,,
1402993,1480803589400,,,,,,,,0.03,0.07,0.99,-3.1,0.2,-0.3,1920,0,,,,,,,,,,,,,,,,,,,
1403013,1480803589420,,,,,,,,0.03,0.07,0.99,-3.1,0.1,-0.3,1920,0,,,,,,,,,,,,,,,,,,,
1403033,1480803589440,,,,,,,,0.03,0.05,0.99,-3.1,0.1,-0.3,1900,0,,,,,,,,,,,,,,,,,,,
1403053,1480803589460,0,132.3,1.7,156.6,54,170.2,14.39,0.02,0.04,0.98,-3.1,0.2,-0.2,1920,0,0,1,0.0,0,38.159237,-122.454475,0.0,3.046,10.8,9,3,2.0,0,0.0,-1,0.0,0.0,0.0,0
1403073,1480803589480,,,,,,,,0.01,0.05,0.97,-3.1,0.2,-0.2,1940,0,,,,,,,,,,,,,,,,,,,
1403093,1480803589500,,,,,,,,0.0,0.06,0.98,-3.1,0.2,-0.2,1940,0,,,,,,,,,,,,,,,,,,,
1403113,1480803589520,,,,,,,,0.0,0.06,0.99,-3.1,0.3,-0.2,1920,0,,,,,,,,,,,,,,,,,,,
1403133,1480803589540,,,,,,,,0.0,0.05,0.99,-3.1,0.5,-0.2,1920,0,,,,,,,,,,,,,,,,,,,
1403153,1480803589560,,,,,59,,,0.01,0.05,0.99,-3.0,0.6,-0.2,1940,0,0,1,0.0,0,38.159237,-122.454475,0.0,3.046,10.8,9,3,2.0,0,0.0,-1,0.0,,0.0,0
1403173,1480803589580,,,,,,,,0.01,0.06,0.98,-3.0,0.7,-0.2,1940,0,,,,,,,,,,,,,,,,,,,
1403193,1480803589501,,,,,,,,0.02,0.07,0.98,-3.1,0.6,-0.2,1960,0,,,,,,,,,,,,,,,,,,,
1403213,1480803589521,,,,,,,,0.02,0.06,0.98,-3.2,0.6,-0.2,1940,0,,,,,,,,,,,,,,,,,,,
1403233,1480803589541,,,,,,,,0.02,0.06,0.99,-3.1,0.7,-0.2,1920,0,,,,,,,,,,,,,,,,,,,
1403253,1480803589561,0,130.7,,155.4,46,169.5,,0.02,0.06,0.98,-3.1,0.6,-0.2,1940,0,0,1,0.0,0,38.159237,-122.454475,0.0,3.046,10.8,9,3,2.0,0,0.0,-1,0.0,0.0,0.0,0
1403273,1480803589581,,,,,,,,0.03,0.06,0.97,-3.2,0.5,-0.3,1960,0,,,,,,,,,,,,,,,,,,,
1403293,1480803589602,,,,,,,,0.03,0.05,0.97,-3.2,0.4,-0.3,1980,0,,,,,,,,,,,,,,,,,,,
1403313,1480803589622,,,,,,,,0.03,0.05,0.96,-3.1,0.3,-0.2,1980,0,,,,,,,,,,,,,,,,,,,
1403333,1480803589642,,,,,,,,0.03,0.05,0.95,-3.1,0.2,-0.2,1960,0,,,,,,,,,,,,,,,,,,,
1403353,1480803589662,,,,,53,,,0.03,0.04,0.95,-3.1,0.2,-0.2,1960,0,0,1,0.0,0,38.159237,-122.454475,0.0,3.046,10.8,9,3,2.0,0,0.0,-1,0.0,,0.0,0
1403373,1480803589682,,,,,,,,0.03,0.04,0.95,-3.1,0.1,-0.3,1960,0,,,,,,,,,,,,,,,,,,,
1403393,1480803589701,,,,,,,,0.03,0.03,0.96,-3.0,0.1,-0.2,1980,0,,,,,,,,,,,,,,,,,,,
1403413,1480803589721,,,,,,,,0.03,0.03,0.96,-3.1,0.0,-0.2,2000,0,,,,,,,,,,,,,,,,,,,
1403433,1480803589741,,,,,,,,0.03,0.04,0.96,-3.0,-0.1,-0.2,2000,0,,,,,,,,,,,,,,,,,,,
1403453,1480803589761,0,132.5,,156.9,46,170.4,,0.03,0.03,0.96,-3.0,-0.1,-0.2,2000,0,0,1,0.0,0,38.159237,-122.454475,0.0,3.046,10.8,9,3,2.0,0,0.0,-1,0.0,0.0,0.0,0
1403473,1480803589781,,,,,,,,0.03,0.04,0.96,-3.0,-0.1,-0.2,1960,0,,,,,,,,,,,,,,,,,,,
1403493,1480803589801,,,,,,,,0.03,0.04,0.96,-3.0,-0.1,-0.2,2000,0,,,,,,,,,,,,,,,,,,,
1403513,1480803589821,,,,,,,,0.03,0.04,0.96,-2.9,-0.1,-0.2,2000,0,,,,,,,,,,,,,,,,,,,
1403533,1480803589841,,,,,,,,0.03,0.04,0.96,-3.0,-0.1,-0.2,1980,0,,,,,,,,,,,,,,,,,,,
1403553,1480803589861,,,,,48,,,0.03,0.04,0.95,-3.0,-0.2,-0.2,2000,0,0,1,0.0,0,38.159237,-122.454475,0.0,3.046,10.8,9,3,2.0,0,0.0,-1,0.0,,0.0,0
1403573,1480803589881,,,,,,,,0.03,0.03,0.95,-2.9,-0.1,-0.2,2000,0,,,,,,,,,,,,,,,,,,,
1403593,1480803589894,,,,,,,,0.03,0.03,0.94,-2.9,-0.1,-0.2,2020,0,,,,,,,,,,,,,,,,,,,
1403613,1480803589914,,,,,,,,0.02,0.04,0.93,-2.9,-0.0,-0.2,2040,0,,,,,,,,,,,,,,,,,,,
1403633,1480803589934,,,,,,,,0.02,0.03,0.92,-2.9,0.1,-0.2,2040,0,,,,,,,,,,,,,,,,,,,
1403653,1480803589954,0,132.4,,157.1,57,170.3,,0.03,0.04,0.92,-3.0,0.1,-0.2,2000,0,0,1,0.0,0,38.159237,-122.454475,0.0,3.046,10.8,9,3,2.0,0,0.0,-1,0.0,0.0,0.0,0
1403673,1480803589974,,,,,,,,0.03,0.04,0.92,-3.0,0.1,-0.2,2020,0,,,,,,,,,,,,,,,,,,,
1403693,1480803590002,,,,,,,,0.03,0.05,0.93,-3.0,0.2,-0.2,2060,0,,,,,,,,,,,,,,,,,,,
1403713,1480803590022,,,,,,,,0.02,0.05,0.94,-3.1,0.3,-0.3,2060,0,,,,,,,,,,,,,,,,,,,
1403733,1480803590042,,,,,,,,0.03,0.04,0.95,-3.1,0.4,-0.2,2020,0,,,,,,,,,,,,,,,,,,,
1403753,1480803590062,,,,,56,,,0.02,0.06,0.95,-3.1,0.5,-0.2,2040,0,0,1,0.0,0,38.159237,-122.454475,0.0,3.046,10.8,9,3,2.0,0,0.0,-1,0.0,,0.0,0
1403773,1480803590082,,,,,,,,0.02,0.05,0.95,-3.1,0.6,-0.3,2040,0,,,,,,,,,,,,,,,,,,,
1403793,1480803590201,,,,,,,,0.02,0.05,0.95,-3.0,0.7,-0.3,2040,0,,,,,,,,,,,,,,,,,,,
1403813,1480803590221,,,,,,,,0.02,0.06,0.96,-3.0,0.6,-0.3,2060,0,,,,,,,,,,,,,,,,,,,
1403833,1480803590241,,,,,,,,0.01,0.06,0.96,-3.0,0.6,-0.3,2040,0,,,,,,,,,,,,,,,,,,,
1403853,1480803590261,0,131.1,,156.2,47,169.7,,0.01,0.06,0.97,-3.0,0.5,-0.2,2060,0,0,1,0.0,0,38.159237,-122.454475,0.0,3.046,10.8,9,3,2.0,0,0.0,-1,0.0,0.0,0.0,0
1403873,1480803590281,,,,,,,,0.01,0.06,0.96,-3.0,0.5,-0.2,2060,0,,,,,,,,,,,,,,,,,,,
1403893,1480803590301,,,,,,,,0.01,0.06,0.96,-3.0,0.3,-0.2,2100,0,,,,,,,,,,,,,,,,,,,
1403913,1480803590321,,,,,,,,0.01,0.05,0.96,-3.1,0.3,-0.2,2120,0,,,,,,,,,,,,,,,,,,,
1403933,1480803590341,,,,,,,,0.01,0.06,0.96,-3.1,0.4,-0.2,2060,0,,,,,,,,,,,,,,,,,,,
1403953,1480803590361,,,,,52,,,0.02,0.05,0.97,-3.1,0.6,-0.3,2060,0,0,1,0.0,0,38.159237,-122.454475,0.0,3.046,10.8,9,3,2.0,0,0.0,-1,0.0,,0.0,0
1403973,1480803590381,,,,,,,,0.02,0.06,0.96,-3.1,0.6,-0.3,2080,0,,,,,,,,,,,,,,,,,,,
1403993,1480803590302,,,,,,,,0.02,0.06,0.96,-3.0,0.8,-0.2,2100,0,,,,,,,,,,,,,,,,,,,
1404013,1480803590322,,,,,,,,0.01,0.06,0.96,-3.0,0.7,-0.3,2080,0,,,,,,,,,,,,,,,,,,,
1404033,1480803590342,,,,,,,,0.01,0.05,0.97,-3.0,0.7,-0.3,2140,0,,,,,,,,,,,,,,,,,,,
1404053,1480803590362,1,131.1,1.1,156.4,51,169.7,14.45,0.01,0.06,0.97,-3.0,0.6,-0.2,2080,0,0,1,0.0,0,38.159237,-122.454475,0.0,3.046,10.8,9,3,2.0,0,0.0,-1,0.0,0.0,0.0,0
1404073,1480803590382,,,,,,,,0.01,0.05,0.98,-3.1,0.5,-0.2,2080,0,,,,,,,,,,,,,,,,,,,
1404093,1480803590402,,,,,,,,0.01,0.06,0.98,-3.1,0.4,-0.3,2100,0,,,,,,,,,,,,,,,,,,,
1404113,1480803590422,,,,,,,,0.01,0.05,0.98,-3.0,0.3,-0.3,2120,0,,,,,,,,,,,,,,,,,,,
1404133,1480803590442,,,,,,,,0.02,0.06,0.98,-3.0,0.3,-0.2,2100,0,,,,,,,,,,,,,,,,,,,
1404153,1480803590462,,,,,46,,,0.02,0.06,0.99,-3.0,0.4,-0.2,2140,0,0,1,0.0,0,38.159237,-122.454475,0.0,3.046,10.8,9,3,2.0,0,0.0,-1,0.0,,0.0,0
1404173,1480803590482,,,,,,,,0.02,0.05,0.99,-3.1,0.6,-0.2,2100,0,,,,,,,,,,,,,,,,,,,
1404193,1480803590502,,,,,,,,0.02,0.05,0.98,-3.1,0.7,-0.2,2180,0,,,,,,,,,,,,,,,,,,,
1404213,1480803590522,,,,,,,,0.02,0.06,0.97,-3.0,0.7,-0.2,2160,0,,,,,,,,,,,,,,,,,,,
1404233,1480803590542,,,,,,,,0.01,0.06,0.97,-3.0,0.5,-0.2,2180,0,,,,,,,,,,,,,,,,,,,
1404253,1480803590562,0,132.6,,157.6,51,170.5,,0.01,0.05,0.96,-3.1,0.4,-0.2,2180,0,0,1,0.0,0,38.159237,-122.454475,0.0,3.046,10.8,9,3,2.0,0,0.0,-1,0.0,0.0,0.0,0
1404273,1480803590582,,,,,,,,0.02,0.06,0.96,-3.1,0.5,-0.1,2200,0,,,,,,,,,,,,,,,,,,,
1404293,1480803590602,,,,,,,,0.02,0.06,0.96,-3.1,0.5,-0.2,2180,0,,,,,,,,,,,,,,,,,,,
1404313,1480803590622,,,,,,,,0.02,0.06,0.97,-3.1,0.6,-0.2,2180,0,,,,,,,,,,,,,,,,,,,
1404333,1480803590642,,,,,,,,0.02,0.06,0.96,-3.1,0.6,-0.2,2180,0,,,,,,,,,,,,,,,,,,,
1404353,1480803590662,,,,,52,,,0.01,0.05,0.98,-3.1,0.6,-0.2,2140,0,0,1,0.0,0,38.159237,-122.454475,0.0,3.046,10.8,9,3,2.0,0,0.0,-1,0.0,,0.0,0
1404373,1480803590682,,,,,,,,0.01,0.05,0.98,-3.1,0.4,-0.2,2180,0,,,,,,,,,,,,,,,,,,,
1404393,1480803590702,,,,,,,,0.02,0.06,0.98,-3.0,0.3,-0.2,2180,0,,,,,,,,,,,,,,,,,,,
1404413,1480803590722,,,,,,,,0.02,0.05,0.97,-3.0,0.4,-0.2,2160,0,,,,,,,,,,,,,,,,,,,
1404433,1480803590742,,,,,,,,0.02,0.06,0.97,-3.0,0.4,-0.2,2180,0,,,,,,,,,,,,,,,,,,,
1404453,1480803590762,0,132.4,,157.6,52,170.2,,0.02,0.06,0.96,-3.0,0.3,-0.2,2180,0,0,1,0.0,0,38.159237,-122.454475,0.0,3.046,10.8,9,3,2.0,0,0.0,-1,0.0,0.0,0.0,0
1404473,1480803590782,,,,,,,,0.01,0.06,0.95,-3.1,0.2,-0.2,2220,0,,,,,,,,,,,,,,,,,,,
1404493,1480803590802,,,,,,,,0.02,0.06,0.95,-3.1,0.2,-0.2,2200,0,,,,,,,,,,,,,,,,,,,
1404513,1480803590822,,,,,,,,0.02,0.06,0.96,-3.1,0.1,-0.2,2180,0,,,,,,,,,,,,,,,,,,,
1404533,1480803590842,,,,,,,,0.02,0.06,0.96,-3.1,0.2,-0.2,2180,0,,,,,,,,,,,,,,,,,,,
1404553,1480803590862,,,,,58,,,0.02,0.05,0.98,-3.1,0.3,-0.2,2180,0,0,1,0.0,0,38.159237,-122.454475,0.0,3.046,10.8,9,3,2.0,0,0.0,-1,0.0,,0.0,0
1404573,1480803590882,,,,,,,,0.02,0.06,0.97,-3.1,0.2,-0.2,2200,0,,,,,,,,,,,,,,,,,,,
1404593,1480803590993,,,,,,,,0.02,0.06,0.97,-3.1,0.2,-0.2,2240,0,,,,,,,,,,,,,,,,,,,
1404613,1480803591013,,,,,,,,0.02,0.05,0.97,-3.1,0.2,-0.2,2280,0,,,,,,,,,,,,,,,,,,,
1404633,1480803591033,,,,,,,,0.02,0.05,0.97,-3.1,0.4,-0.2,2200,0,,,,,,,,,,,,,,,,,,,
1404653,1480803591053,0,131.1,,156.7,50,169.5,,0.01,0.05,0.96,-3.1,0.4,-0.2,2220,0,0,1,0.0,0,38.159237,-122.454475,0.0,3.046,10.8,9,3,2.0,0,0.0,-1,0.0,0.0,0.0,0
1404673,1480803591073,,,,,,,,0.01,0.04,0.95,-3.1,0.3,-0.2,2240,0,,,,,,,,,,,,,,,,,,,
1404693,1480803591093,,,,,,,,0.01,0.04,0.95,-3.0,0.3,-0.2,2260,0,,,,,,,,,,,,,,,,,,,
1404713,1480803591113,,,,,,,,0.01,0.04,0.96,-3.1,0.5,-0.2,2220,0,,,,,,,,,,,,,,,,,,,
1404733,1480803591133,,,,,,,,0.02,0.04,0.96,-3.1,0.5,-0.2,2240,0,,,,,,,,,,,,,,,,,,,
1404753,1480803591153,,,,,49,,,0.01,0.04,0.96,-3.1,0.4,-0.2,2240,0,0,1,0.0,0,38.159237,-122.454475,0.0,3.046,10.8,9,3,2.0,0,0.0,-1,0.0,,0.0,0
1404773,1480803591173,,,,,,,,0.02,0.03,0.96,-3.1,0.4,-0.2,2300,0,,,,,,,,,,,,,,,,,,,
1404793,1480803591101,,,,,,,,0.02,0.03,0.95,-3.1,0.6,-0.2,2280,0,,,,,,,,,,,,,,,,,,,
1404813,1480803591121,,,,,,,,0.02,0.04,0.95,-3.1,0.6,-0.2,2260,0,,,,,,,,,,,,,,,,,,,
1404833,1480803591141,,,,,,,,0.02,0.04,0.94,-3.1,0.5,-0.1,2240,0,,,,,,,,,,,,,,,,,,,
1404853,1480803591161,0,132.5,,157.9,49,170.3,,0.02,0.05,0.94,-3.1,0.5,-0.1,2300,0,0,1,0.0,0,38.159237,-122.454475,0.0,3.046,10.8,9,3,2.0,0,0.0,-1,0.0,0.0,0.0,0
1404873,1480803591181,,,,,,,,0.01,0.03,0.94,-3.1,0.7,-0.1,2240,0,,,,,,,,,,,,,,,,,,,
1404893,1480803591202,,,,,,,,0.01,0.05,0.94,-3.1,0.7,-0.1,2260,0,,,,,,,,,,,,,,,,,,,
1404913,1480803591222,,,,,,,,0.01,0.05,0.96,-3.1,0.6,-0.1,2280,0,,,,,,,,,,,,,,,,,,,
1404933,1480803591242,,,,,,,,0.01,0.05,0.96,-3.0,0.5,-0.1,2300,0,,,,,,,,,,,,,,,,,,,
1404953,1480803591262,,,,,50,,,0.01,0.06,0.95,-3.1,0.5,-0.1,2300,0,0,1,0.0,0,38.159237,-122.454475,0.0,3.046,10.8,9,3,2.0,0,0.0,-1,0.0,,0.0,0
1404973,1480803591282,,,,,,,,0.01,0.06,0.96,-3.1,0.6,-0.1,2260,0,,,,,,,,,,,,,,,,,,,
1404993,1480803591301,,,,,,,,0.02,0.07,0.97,-3.1,0.5,-0.1,2280,0,,,,,,,,,,,,,,,,,,,
1405013,1480803591321,,,,,,,,0.01,0.06,0.98,-3.1,0.5,-0.1,2340,0,,,,,,,,,,,,,,,,,,,
1405033,1480803591341,,,,,,,,0.02,0.07,0.97,-3.1,0.4,-0.1,2320,0,,,,,,,,,,,,,,,,,,,
1405053,1480803591361,0,132.4,1.8,158.0,51,170.3,14.43,0.02,0.07,0.97,-3.1,0.4,-0.1,2300,0,0,1,0.0,0,38.159237,-122.454475,0.0,3.046,10.8,9,3,2.0,0,0.0,-1,0.0,0.0,0.0,0
1405073,1480803591381,,,,,,,,0.02,0.06,0.98,-3.0,0.4,-0.1,2300,0,,,,,,,,,,,,,,,,,,,
1405093,1480803591401,,,,,,,,0.02,0.06,0.99,-3.0,0.5,-0.1,2320,0,,,,,,,,,,,,,,,,,,,
1405113,1480803591421,,,,,,,,0.01,0.06,0.99,-3.0,0.5,-0.1,2300,0,,,,,,,,,,,,,,,,,,,
1405133,1480803591441,,,,,,,,0.01,0.05,1.01,-3.1,0.6,-0.1,2300,0,,,,,,,,,,,,,,,,,,,
1405153,1480803591461,,,,,52,,,0.02,0.06,1.0,-3.1,0.5,-0.1,2320,0,0,1,0.0,0,38.159237,-122.454475,0.0,3.046,10.8,9,3,2.0,0,0.0,-1,0.0,,0.0,0
1405173,1480803591481,,,,,,,,0.01,0.07,1.01,-3.1,0.5,-0.1,2320,0,,,,,,,,,,,,,,,,,,,
1405193,1480803591501,,,,,,,,0.02,0.07,1.0,-3.1,0.4,-0.1,2380,0,,,,,,,,,,,,,,,,,,,
1405213,1480803591521,,,,,,,,0.02,0.08,0.99,-3.1,0.4,-0.2,2300,0,,,,,,,,,,,,,,,,,,,
1405233,1480803591541,,,,,,,,0.02,0.07,0.97,-3.0,0.4,-0.1,2320,0,,,,,,,,,,,,,,,,,,,
1405253,1480803591561,0,132.3,,157.8,57,169.7,,0.01,0.05,0.98,-3.1,0.6,-0.1,2320,0,0,1,0.0,0,38.159237,-122.454475,0.0,3.046,10.8,9,3,2.0,0,0.0,-1,0.0,0.0,0.0,0
1405273,1480803591581,,,,,,,,0.01,0.06,0.98,-3.1,0.5,-0.2,2320,0,,,,,,,,,,,,,,,,,,,
1405293,1480803591601,,,,,,,,0.01,0.05,0.97,-3.1,0.5,-0.2,2420,0,,,,,,,,,,,,,,,,,,,
1405313,1480803591621,,,,,,,,0.01,0.05,0.97,-3.1,0.5,-0.2,2320,0,,,,,,,,,,,,,,,,,,,
1405333,1480803591641,,,,,,,,0.02,0.07,0.98,-3.1,0.5,-0.2,2360,0,,,,,,,,,,,,,,,,,,,
1405353,1480803591661,,,,,58,,,0.02,0.07,0.98,-3.1,0.4,-0.2,2400,0,0,1,0.0,0,38.159237,-122.454475,0.0,3.046,10.8,9,3,2.0,0,0.0,-1,0.0,,0.0,0
1405373,1480803591681,,,,,,,,0.02,0.07,0.97,-3.1,0.5,-0.2,2400,0,,,,,,,,,,,,,,,,,,,
1405393,1480803591801,,,,,,,,0.02,0.06,0.97,-3.1,0.5,-0.2,2360,0,,,,,,,,,,,,,,,,,,,
1405413,1480803591821,,,,,,,,0.02,0.05,0.96,-3.1,0.5,-0.1,2400,0,,,,,,,,,,,,,,,,,,,
1405433,1480803591841,,,,,,,,0.02,0.07,0.96,-3.1,0.6,-0.1,2360,0,,,,,,,,,,,,,,,,,,,
1405453,1480803591861,0,131.3,,157.2,57,169.4,,0.02,0.07,0.97,-3.1,0.4,-0.1,2360,0,0,1,0.0,0,38.159237,-122.454475,0.0,3.046,10.8,9,3,2.0,0,0.0,-1,0.0,0.0,0.0,0
1405473,1480803591881,,,,,,,,0.02,0.08,0.97,-3.1,0.4,-0.2,2380,0,,,,,,,,,,,,,,,,,,,
1405493,1480803591901,,,,,,,,0.02,0.07,0.97,-3.1,0.4,-0.2,2360,0,,,,,,,,,,,,,,,,,,,
1405513,1480803591921,,,,,,,,0.02,0.05,0.96,-3.0,0.4,-0.1,2360,0,,,,,,,,,,,,,,,,,,,
1405533,1480803591941,,,,,,,,0.02,0.07,0.96,-3.1,0.5,-0.2,2380,0,,,,,,,,,,,,,,,,,,,
1405553,1480803591961,,,,,57,,,0.02,0.08,0.97,-3.1,0.4,-0.1,2380,0,0,1,0.0,0,38.159237,-122.454475,0.0,3.046,10.8,9,3,2.0,0,0.0,-1,0.0,,0.0,0
1405573,1480803591981,,,,,,,,0.02,0.08,0.96,-3.1,0.3,-0.2,2380,0,,,,,,,,,,,,,,,,,,,
1405593,1480803591893,,,,,,,,0.02,0.07,0.96,-3.1,0.3,-0.2,2400,0,,,,,,,,,,,,,,,,,,,
1405613,1480803591913,,,,,,,,0.02,0.05,0.95,-3.1,0.3,-0.2,2460,0,,,,,,,,,,,,,,,,,,,
1405633,1480803591933,,,,,,,,0.02,0.07,0.96,-3.1,0.4,-0.2,2380,0,,,,,,,,,,,,,,,,,,,
1405653,1480803591953,0,132.7,,158.5,53,170.3,,0.02,0.07,0.96,-3.1,0.4,-0.2,2400,0,0,1,0.0,0,38.159237,-122.454475,0.0,3.046,10.8,9,3,2.0,0,0.0,-1,0.0,0.0,0.0,0
1405673,1480803591973,,,,,,,,0.02,0.07,0.95,-3.0,0.4,-0.2,2400,0,,,,,,,,,,,,,,,,,,,
1405693,1480803592002,,,,,,,,0.02,0.06,0.95,-3.0,0.4,-0.2,2480,0,,,,,,,,,,,,,,,,,,,
1405713,1480803592022,,,,,,,,0.02,0.06,0.95,-3.0,0.5,-0.2,2440,0,,,,,,,,,,,,,,,,,,,
1405733,1480803592042,,,,,,,,0.02,0.07,0.95,-3.1,0.5,-0.1,2400,0,,,,,,,,,,,,,,,,,,,
1405753,1480803592062,,,,,56,,,0.02,0.06,0.96,-3.1,0.5,-0.1,2480,0,0,1,0.0,0,38.159237,-122.454475,0.0,3.046,10.8,9,3,2.0,0,0.0,-1,0.0,,0.0,0
1405773,1480803592082,,,,,,,,0.02,0.06,0.96,-3.1,0.5,-0.2,2460,0,,,,,,,,,,,,,,,,,,,
1405793,1480803592102,,,,,,,,0.01,0.05,0.96,-3.0,0.6,-0.2,2380,0,,,,,,,,,,,,,,,,,,,
1405813,1480803592122,,,,,,,,0.01,0.05,0.95,-3.1,0.6,-0.2,2440,0,,,,,,,,,,,,,,,,,,,
1405833,1480803592142,,,,,,,,0.02,0.06,0.95,-3.1,0.6,-0.1,2460,0,,,,,,,,,,,,,,,,,,,
1405853,1480803592162,0,131.7,,157.5,52,169.6,,0.02,0.05,0.96,-3.0,0.6,-0.1,2440,0,0,1,0.0,0,38.159237,-122.454475,0.0,3.046,10.8,9,3,2.0,0,0.0,-1,0.0,0.0,0.0,0
1405873,1480803592182,,,,,,,,0.02,0.06,0.97,-3.0,0.6,-0.1,2460,0,,,,,,,,,,,,,,,,,,,
1405893,1480803592202,,,,,,,,0.02,0.06,0.97,-3.0,0.5,-0.2,2460,0,,,,,,,,,,,,,,,,,,,
1405913,1480803592222,,,,,,,,0.02,0.06,0.97,-3.0,0.4,-0.2,2440,0,,,,,,,,,,,,,,,,,,,
1405933,1480803592242,,,,,,,,0.02,0.04,0.98,-3.0,0.5,-0.2,2480,0,,,,,,,,,,,,,,,,,,,
1405953,1480803592262,,,,,52,,,0.02,0.06,0.97,-3.1,0.5,-0.2,2480,0,0,1,0.0,0,38.159237,-122.454475,0.0,3.046,10.8,9,3,2.0,0,0.0,-1,0.0,,0.0,0
1405973,1480803592282,,,,,,,,0.02,0.06,0.97,-3.0,0.4,-0.2,2500,0,,,,,,,,,,,,,,,,,,,
1405993,1480803592302,,,,,,,,0.02,0.06,0.98,-3.0,0.4,-0.2,2500,0,,,,,,,,,,,,,,,,,,,
1406013,1480803592322,,,,,,,,0.02,0.05,0.97,-3.0,0.5,-0.2,2460,0,,,,,,,,,,,,,,,,,,,
1406033,1480803592342,,,,,,,,0.01,0.06,0.97,-3.0,0.4,-0.2,2520,0,,,,,,,,,,,,,,,,,,,
1406053,1480803592362,0,132.4,1.2,157.6,59,169.4,14.56,0.01,0.05,0.97,-3.0,0.4,-0.2,2440,0,0,1,0.0,0,38.159237,-122.454475,0.0,3.046,10.8,9,3,2.0,0,0.0,-1,0.0,0.0,0.0,0
1406073,1480803592382,,,,,,,,0.02,0.06,0.98,-3.1,0.5,-0.2,2500,0,,,,,,,,,,,,,,,,,,,
1406093,1480803592398,,,,,,,,0.02,0.07,0.98,-3.1,0.4,-0.1,2500,0,,,,,,,,,,,,,,,,,,,
1406113,1480803592418,,,,,,,,0.01,0.07,0.98,-3.1,0.5,-0.2,2500,0,,,,,,,,,,,,,,,,,,,
1406133,1480803592438,,,,,,,,0.0,0.05,0.97,-3.1,0.5,-0.2,2460,0,,,,,,,,,,,,,,,,,,,
1406153,1480803592458,,,,,50,,,0.0,0.06,0.96,-3.1,0.5,-0.2,2500,0,0,1,0.0,0,38.159237,-122.454475,0.0,3.046,10.8,9,3,2.0,0,0.0,-1,0.0,,0.0,0
1406173,1480803592478,,,,,,,,0.01,0.06,0.96,-3.1,0.6,-0.1,2520,0,,,,,,,,,,,,,,,,,,,
1406193,1480803592601,,,,,,,,0.01,0.06,0.96,-3.1,0.6,-0.1,2500,0,,,,,,,,,,,,,,,,,,,
1406213,1480803592621,,,,,,,,0.01,0.07,0.95,-3.1,0.5,-0.1,2520,0,,,,,,,,,,,,,,,,,,,
1406233,1480803592641,,,,,,,,0.01,0.07,0.96,-3.1,0.5,-0.2,2540,0,,,,,,,,,,,,,,,,,,,
1406253,1480803592661,0,132.5,,158.1,55,169.5,,0.01,0.07,0.95,-3.0,0.4,-0.1,2460,0,0,1,0.0,0,38.159237,-122.454475,0.0,3.046,10.8,9,3,2.0,0,0.0,-1,0.0,0.0,0.0,0
1406273,1480803592681,,,,,,,,0.0,0.06,0.94,-3.1,0.4,-0.1,2480,0,,,,,,,,,,,,,,,,,,,
1406293,1480803592701,,,,,,,,0.0,0.06,0.94,-3.0,0.5,-0.1,2500,0,,,,,,,,,,,,,,,,,,,
1406313,1480803592721,,,,,,,,0.01,0.07,0.95,-3.1,0.5,-0.1,2480,0,,,,,,,,,,,,,,,,,,,
1406333,1480803592741,,,,,,,,0.01,0.07,0.95,-3.1,0.4,-0.1,2460,0,,,,,,,,,,,,,,,,,,,
1406353,1480803592761,,,,,53,,,0.01,0.07,0.95,-3.1,0.4,-0.1,2500,0,0,1,0.0,0,38.159237,-122.454475,0.0,3.046,10.8,9,3,2.0,0,0.0,-1,0.0,,0.0,0
1406373,1480803592781,,,,,,,,0.0,0.06,0.94,-3.0,0.4,-0.1,2560,0,,,,,,,,,,,,,,,,,,,
1406393,1480803592702,,,,,,,,0.0,0.07,0.94,-3.1,0.3,-0.2,2540,0,,,,,,,,,,,,,,,,,,,
1406413,1480803592722,,,,,,,,0.01,0.05,0.95,-3.1,0.5,-0.1,2480,0,,,,,,,,,,,,,,,,,,,
1406433,1480803592742,,,,,,,,0.01,0.07,0.95,-3.1,0.4,-0.1,2500,0,,,,,,,,,,,,,,,,,,,
1406453,1480803592762,0,131.8,,158.7,56,170.3,,0.01,0.07,0.97,-3.0,0.4,-0.1,2500,0,0,1,0.0,0,38.159237,-122.454475,0.0,3.046,10.8,9,3,2.0,0,0.0,-1,0.0,0.0,0.0,0
1406473,1480803592782,,,,,,,,0.01,0.07,0.98,-3.0,0.5,-0.1,2520,0,,,,,,,,,,,,,,,,,,,
1406493,1480803592802,,,,,,,,0.01,0.06,0.99,-3.0,0.6,-0.2,2560,0,,,,,,,,,,,,,,,,,,,
1406513,1480803592822,,,,,,,,0.01,0.06,0.99,-3.0,0.5,-0.2,2580,0,,,,,,,,,,,,,,,,,,,
1406533,1480803592842,,,,,,,,0.01,0.06,0.98,-3.0,0.6,-0.2,2600,0,,,,,,,,,,,,,,,,,,,
1406553,1480803592862,,,,,55,,,0.02,0.06,0.97,-3.0,0.5,-0.2,2540,0,0,1,0.0,0,38.159237,-122.454475,0.0,3.046,10.8,9,3,2.0,0,0.0,-1,0.0,,0.0,0
1406573,1480803592882,,,,,,,,0.02,0.06,0.99,-3.0,0.6,-0.2,2560,0,,,,,,,,,,,,,,,,,,,
1406593,1480803592893,,,,,,,,0.01,0.06,0.99,-3.0,0.5,-0.2,2540,0,,,,,,,,,,,,,,,,,,,
1406613,1480803592913,,,,,,,,0.01,0.05,0.99,-3.0,0.5,-0.2,2520,0,,,,,,,,,,,,,,,,,,,
1406633,1480803592933,,,,,,,,0.01,0.05,0.97,-3.0,0.4,-0.2,2560,0,,,,,,,,,,,,,,,,,,,
1406653,1480803592953,0,131.6,,158.9,50,170.3,,0.01,0.06,0.97,-3.1,0.3,-0.3,2580,0,0,1,0.0,0,38.159237,-122.454475,0.0,3.046,10.8,9,3,2.0,0,0.0,-1,0.0,0.0,0.0,0
1406673,1480803592973,,,,,,,,0.01,0.04,0.97,-3.1,0.5,-0.2,2520,0,,,,,,,,,,,,,,,,,,,
1406693,1480803593002,,,,,,,,0.01,0.05,0.97,-3.1,0.4,-0.2,2580,0,,,,,,,,,,,,,,,,,,,
1406713,1480803593022,,,,,,,,0.02,0.05,0.98,-3.1,0.5,-0.2,2560,0,,,,,,,,,,,,,,,,,,,
1406733,1480803593042,,,,,,,,0.01,0.05,0.99,-3.1,0.4,-0.1,2580,0,,,,,,,,,,,,,,,,,,,
1406753,1480803593062,,,,,56,,,0.01,0.06,0.99,-3.1,0.3,-0.2,2620,0,0,1,0.0,0,38.159237,-122.454475,0.0,3.046,10.8,9,3,2.0,0,0.0,-1,0.0,,0.0,0
1406773,1480803593082,,,,,,,,0.01,0.05,0.97,-3.1,0.3,-0.2,2520,0,,,,,,,,,,,,,,,,,,,
1406793,1480803593102,,,,,,,,0.01,0.05,0.97,-3.1,0.3,-0.3,2540,0,,,,,,,,,,,,,,,,,,,
1406813,1480803593122,,,,,,,,0.01,0.03,0.97,-3.1,0.5,-0.2,2560,0,,,,,,,,,,,,,,,,,,,
1406833,1480803593142,,,,,,,,0.01,0.04,0.97,-3.1,0.4,-0.2,2620,0,,,,,,,,,,,,,,,,,,,
1406853,1480803593162,0,131.6,,158.2,59,169.7,,0.02,0.04,0.98,-3.1,0.5,-0.2,2540,0,0,1,0.0,0,38.159237,-122.454475,0.0,3.046,10.8,9,3,2.0,0,0.0,-1,0.0,0.0,0.0,0
1406873,1480803593182,,,,,,,,0.01,0.05,0.97,-3.1,0.4,-0.1,2620,0,,,,,,,,,,,,,,,,,,,
1406893,1480803593202,,,,,,,,0.01,0.05,0.96,-3.1,0.3,-0.2,2560,0,,,,,,,,,,,,,,,,,,,
1406913,1480803593222,,,,,,,,0.01,0.04,0.96,-3.1,0.3,-0.2,2540,0,,,,,,,,,,,,,,,,,,,
1406933,1480803593242,,,,,,,,0.01,0.04,0.96,-3.1,0.2,-0.3,2640,0,,,,,,,,,,,,,,,,,,,
1406953,1480803593262,,,,,50,,,0.02,0.04,0.96,-3.1,0.4,-0.3,2580,0,0,1,0.0,0,38.159237,-122.454475,0.0,3.046,10.8,9,3,2.0,0,0.0,-1,0.0,,0.0,0
1406973,1480803593282,,,,,,,,0.02,0.03,0.96,-3.1,0.4,-0.2,2620,0,,,,,,,,,,,,,,,,,,,
1406993,1480803593401,,,,,,,,0.02,0.05,0.97,-3.1,0.4,-0.2,2640,0,,,,,,,,,,,,,,,,,,,
1407013,1480803593421,,,,,,,,0.02,0.05,0.98,-3.1,0.4,-0.1,2660,0,,,,,,,,,,,,,,,,,,,
1407033,1480803593441,,,,,,,,0.02,0.06,0.98,-3.1,0.4,-0.1,2660,0,,,,,,,,,,,,,,,,,,,
1407053,1480803593461,0,132.9,2.8,158.8,54,169.7,14.51,0.02,0.06,0.97,-3.1,0.4,-0.2,2660,0,0,1,0.0,0,38.159237,-122.454475,0.0,3.046,10.8,9,3,2.0,0,0.0,-1,0.0,0.0,0.0,0
1407073,1480803593481,,,,,,,,0.01,0.05,0.97,-3.0,0.4,-0.2,2600,0,,,,,,,,,,,,,,,,,,,
1407093,1480803593501,,,,,,,,0.01,0.06,0.98,-3.0,0.4,-0.3,2620,0,,,,,,,,,,,,,,,,,,,
1407113,1480803593521,,,,,,,,0.01,0.05,0.96,-3.0,0.5,-0.3,2680,0,,,,,,,,,,,,,,,,,,,
1407133,1480803593541,,,,,,,,0.01,0.05,0.96,-3.0,0.5,-0.2,2660,0,,,,,,,,,,,,,,,,,,,
1407153,1480803593561,,,,,60,,,0.02,0.06,0.96,-3.1,0.4,-0.2,2700,0,0,1,0.0,0,38.159237,-122.454475,0.0,3.046,10.8,9,3,2.0,0,0.0,-1,0.0,,0.0,0
1407173,1480803593581,,,,,,,,0.02,0.06,0.97,-3.1,0.5,-0.1,2620,0,,,,,,,,,,,,,,,,,,,
1407193,1480803593502,,,,,,,,0.01,0.06,0.97,-3.0,0.5,-0.1,2680,0,,,,,,,,,,,,,,,,,,,
1407213,1480803593522,,,,,,,,0.01,0.07,0.99,-3.1,0.4,-0.2,2700,0,,,,,,,,,,,,,,,,,,,
1407233,1480803593542,,,,,,,,0.01,0.08,0.98,-3.0,0.5,-0.3,2660,0,,,,,,,,,,,,,,,,,,,
1407253,1480803593562,0,132.1,,159.5,52,170.5,,0.0,0.06,0.98,-2.9,0.6,-0.3,2660,0,0,1,0.0,0,38.159237,-122.454475,0.0,3.046,10.8,9,3,2.0,0,0.0,-1,0.0,0.0,0.0,0
1407273,1480803593582,,,,,,,,0.01,0.07,0.98,-2.9,0.5,-0.4,2640,0,,,,,,,,,,,,,,,,,,,
1407293,1480803593602,,,,,,,,0.01,0.06,0.98,-3.0,0.5,-0.4,2680,0,,,,,,,,,,,,,,,,,,,
1407313,1480803593622,,,,,,,,0.01,0.05,0.98,-3.0,0.6,-0.3,2680,0,,,,,,,,,,,,,,,,,,,
1407333,1480803593642,,,,,,,,0.01,0.05,0.98,-3.0,0.5,-0.2,2660,0,,,,,,,,,,,,,,,,,,,
1407353,1480803593662,,,,,50,,,0.01,0.06,0.98,-3.1,0.5,-0.1,2740,0,0,1,0.0,0,38.159237,-122.454475,0.0,3.046,10.8,9,3,2.0,0,0.0,-1,0.0,,0.0,0
1407373,1480803593682,,,,,,,,0.01,0.07,0.99,-3.1,0.6,-0.1,2760,0,,,,,,,,,,,,,,,,,,,
1407393,1480803593702,,,,,,,,0.01,0.07,0.97,-3.0,0.5,-0.2,2680,0,,,,,,,,,,,,,,,,,,,
1407413,1480803593722,,,,,,,,0.01,0.08,0.98,-3.0,0.3,-0.2,2680,0,,,,,,,,,,,,,,,,,,,
1407433,1480803593742,,,,,,,,0.02,0.08,0.97,-3.0,0.2,-0.3,2800,0,,,,,,,,,,,,,,,,,,,
1407453,1480803593762,0,132.2,,159.3,58,170.3,,0.01,0.06,0.98,-3.0,0.5,-0.4,2740,0,0,1,0.0,0,38.159237,-122.454475,0.0,3.046,10.8,9,3,2.0,0,0.0,-1,0.0,0.0,0.0,0
1407473,1480803593782,,,,,,,,0.01,0.05,0.96,-2.9,0.5,-0.4,2720,0,,,,,,,,,,,,,,,,,,,
1407493,1480803593802,,,,,,,,0.01,0.05,0.96,-3.0,0.3,-0.5,2720,0,,,,,,,,,,,,,,,,,,,
1407513,1480803593822,,,,,,,,0.01,0.05,0.95,-3.0,0.2,-0.5,2760,0,,,,,,,,,,,,,,,,,,,
1407533,1480803593842,,,,,,,,0.01,0.04,0.96,-3.0,0.3,-0.4,2780,0,,,,,,,,,,,,,,,,,,,
