"Interval"|"ms"|0|0|1,"Utc"|"ms"|0|0|1,"FuelLevel"|"F"|0|100|5,"OilTemp"|"F"|0.0|300.0|5,"CoolantPressPSI"|"PSI"|0.0|20.0|1,"Coolant"|"F"|0.0|300.0|5,"OilPress"|"PSI"|0|150|10,"EngineTemp"|"F"|0.0|300.0|5,"Battery"|"Volts"|0.0|20.0|1,"AccelX"|"G"|-3.0|3.0|50,"AccelY"|"G"|-3.0|3.0|50,"AccelZ"|"G"|-3.0|3.0|50,"Yaw"|"Deg/Sec"|-300.0|300.0|50,"Pitch"|"Deg/Sec"|-300.0|300.0|50,"Roll"|"Deg/Sec"|-300.0|300.0|50,"RPM"|""|0|10000|50,"Driveshaft"|"RPM"|0|5000|50,"GPIO1"|""|0|1|10,"GPIO2"|""|0|1|10,"GearRatio"|""|-5.0|5.0|10,"Gear"|""|-1|5|10,"Latitude"|"Degrees"|-180.0|180.0|10,"Longitude"|"Degrees"|-180.0|180.0|10,"Speed"|"MPH"|0.0|150.0|10,"Distance"|"Miles"|0.0|0.0|10,"Altitude"|"Feet"|0.0|4000.0|10,"GPSSats"|""|0|20|10,"GPSQual"|""|0|5|10,"GPSDOP"|""|0.0|20.0|10,"LapCount"|""|0|0|10,"LapTime"|"Min"|0.0|0.0|10,"Sector"|""|0|0|10,"SectorTime"|"Min"|0.0|0.0|10,"PredTime"|"Min"|0.0|0.0|5,"ElapsedTime"|"Min"|0.0|0.0|10,"CurrentLap"|""|0|0|10
250053,1480802436340,0,184.2,6.1,171.3,0,199.2,10.76,-0.02,0.09,0.98,-3.1,0.1,-0.3,380,0,0,0,0.0,0,38.159115,-122.454277,0.0,0.123,46.5,8,3,2.5,0,0.0,-1,0.0,0.0,0.0,0
250073,1480802436360,,,,,,,,-0.02,0.08,0.98,-3.2,0.2,-0.3,380,0,,,,,,,,,,,,,,,,,,,
250093,1480802436380,,,,,,,,-0.02,0.09,0.98,-3.2,0.3,-0.2,440,0,,,,,,,,,,,,,,,,,,,
250113,1480802436409,,,,,,,,-0.02,0.08,0.99,-3.2,0.2,-0.1,440,0,,,,,,,,,,,,,,,,,,,
250133,1480802436429,,,,,,,,-0.01,0.09,0.98,-3.2,0.4,0.0,540,0,,,,,,,,,,,,,,,,,,,
250153,1480802436449,,,,,2,,,-0.01,0.08,0.98,-3.3,0.3,0.1,560,0,0,0,0.0,0,38.159115,-122.454277,0.0,0.123,46.5,8,3,2.5,0,0.0,-1,0.0,,0.0,0
250173,1480802436469,,,,,,,,-0.02,0.08,0.99,-3.2,0.3,-0.0,560,0,,,,,,,,,,,,,,,,,,,
250193,1480802436489,,,,,,,,-0.02,0.08,0.98,-3.2,0.3,-0.1,540,0,,,,,,,,,,,,,,,,,,,
250213,1480802436604,,,,,,,,-0.02,0.05,0.98,-3.1,0.3,-0.3,540,0,,,,,,,,,,,,,,,,,,,
250233,1480802436624,,,,,,,,-0.01,0.06,0.99,-3.2,0.2,0.0,600,0,,,,,,,,,,,,,,,,,,,
250253,1480802436644,0,183.9,,171.2,3,199.5,,-0.01,0.08,0.99,-3.2,0.0,0.0,740,0,0,0,0.0,0,38.159115,-122.454277,0.0,0.123,46.5,8,3,2.5,0,0.0,-1,0.0,0.0,0.0,0
250273,1480802436664,,,,,,,,-0.01,0.07,0.99,-3.1,-0.0,-0.2,800,0,,,,,,,,,,,,,,,,,,,
250293,1480802436684,,,,,,,,-0.01,0.06,0.99,-3.0,-0.1,-0.3,800,0,,,,,,,,,,,,,,,,,,,
250313,1480802436704,,,,,,,,-0.01,0.06,0.99,-3.1,0.0,-0.2,760,0,,,,,,,,,,,,,,,,,,,
250333,1480802436724,,,,,,,,-0.0,0.08,0.99,-3.0,-0.3,-0.1,760,0,,,,,,,,,,,,,,,,,,,
250353,1480802436744,,,,,6,,,-0.01,0.07,1.0,-3.0,-0.1,-0.1,840,0,0,1,0.0,0,38.159115,-122.454277,0.0,0.123,46.5,8,3,2.5,0,0.0,-1,0.0,,0.0,0
250373,1480802436764,,,,,,,,-0.0,0.06,0.99,-3.0,-0.1,-0.1,860,24,,,,,,,,,,,,,,,,,,,
250393,1480802436784,,,,,,,,-0.0,0.06,0.99,-3.0,-0.1,-0.2,940,24,,,,,,,,,,,,,,,,,,,
250413,1480802436709,,,,,,,,-0.01,0.06,0.99,-3.0,0.1,-0.2,940,24,,,,,,,,,,,,,,,,,,,
250433,1480802436729,,,,,,,,-0.01,0.06,0.98,-3.1,0.1,-0.1,920,24,,,,,,,,,,,,,,,,,,,
250453,1480802436749,0,184.2,,170.7,11,197.9,,-0.01,0.06,0.98,-3.1,0.2,-0.0,960,24,0,1,40.0,0,38.159115,-122.454277,0.0,0.123,46.5,8,3,2.5,0,0.0,-1,0.0,0.0,0.0,0
250473,1480802436769,,,,,,,,-0.02,0.06,0.99,-3.1,0.5,0.1,1040,24,,,,,,,,,,,,,,,,,,,
250493,1480802436789,,,,,,,,-0.02,0.06,0.99,-3.1,0.5,0.2,1060,1538461,,,,,,,,,,,,,,,,,,,
250513,1480802436799,,,,,,,,-0.02,0.06,0.99,-3.1,0.7,0.2,1080,0,,,,,,,,,,,,,,,,,,,
250533,1480802436819,,,,,,,,-0.03,0.08,0.98,-3.1,0.4,0.2,1120,0,,,,,,,,,,,,,,,,,,,
250553,1480802436839,,,,,15,,,-0.04,0.07,0.98,-3.1,0.3,0.0,1140,0,0,1,0.0,0,38.159115,-122.454277,0.0,0.123,46.5,8,3,2.5,0,0.0,-1,0.0,,0.0,0
250573,1480802436859,,,,,,,,-0.04,0.07,0.97,-3.0,0.1,-0.0,1160,0,,,,,,,,,,,,,,,,,,,
250593,1480802436879,,,,,,,,-0.03,0.07,0.98,-3.1,0.0,-0.0,1200,0,,,,,,,,,,,,,,,,,,,
250613,1480802436899,,,,,,,,-0.02,0.08,0.97,-3.1,0.1,0.0,1240,0,,,,,,,,,,,,,,,,,,,
250633,1480802436908,,,,,,,,-0.01,0.08,0.96,-3.1,0.2,-0.0,1260,0,,,,,,,,,,,,,,,,,,,
250653,1480802436928,0,183.0,,170.3,18,198.8,,-0.02,0.08,0.96,-3.1,0.1,-0.0,1280,0,0,1,0.0,0,38.159115,-122.454277,0.0,0.123,46.5,8,3,2.5,0,0.0,-1,0.0,0.0,0.0,0
250673,1480802436948,,,,,,,,-0.02,0.08,0.97,-3.1,0.1,-0.0,1320,0,,,,,,,,,,,,,,,,,,,
250693,1480802436968,,,,,,,,-0.01,0.08,0.97,-3.1,0.3,-0.0,1340,0,,,,,,,,,,,,,,,,,,,
250713,1480802437000,,,,,,,,-0.02,0.06,0.97,-3.1,0.2,-0.1,1340,0,,,,,,,,,,,,,,,,,,,
250733,1480802437020,,,,,,,,-0.02,0.07,0.97,-3.1,0.3,-0.0,1340,0,,,,,,,,,,,,,,,,,,,
250753,1480802437040,,,,,22,,,-0.02,0.07,0.96,-3.1,0.5,-0.0,1360,0,0,1,0.0,0,38.159115,-122.454277,0.0,0.123,46.5,8,3,2.5,0,0.0,-1,0.0,,0.0,0
250773,1480802437060,,,,,,,,-0.02,0.06,0.97,-3.1,0.4,-0.1,1360,0,,,,,,,,,,,,,,,,,,,
250793,1480802437080,,,,,,,,-0.02,0.07,0.97,-3.2,0.3,-0.0,1340,0,,,,,,,,,,,,,,,,,,,
250813,1480802437092,,,,,,,,-0.02,0.08,0.97,-3.1,0.2,-0.0,1340,0,,,,,,,,,,,,,,,,,,,
250833,1480802437112,,,,,,,,-0.02,0.08,0.97,-3.1,0.1,-0.1,1320,0,,,,,,,,,,,,,,,,,,,
250853,1480802437132,0,184.2,,171.2,29,199.2,,-0.02,0.08,0.97,-3.2,0.2,-0.1,1320,0,0,1,0.0,0,38.159115,-122.454277,0.0,0.123,46.5,8,3,2.5,0,0.0,-1,0.0,0.0,0.0,0
250873,1480802437152,,,,,,,,-0.01,0.07,0.97,-3.1,0.2,-0.1,1320,0,,,,,,,,,,,,,,,,,,,
250893,1480802437172,,,,,,,,-0.01,0.08,0.97,-3.1,0.1,-0.2,1320,0,,,,,,,,,,,,,,,,,,,
250913,1480802437203,,,,,,,,-0.01,0.08,0.97,-3.2,0.1,-0.1,1320,0,,,,,,,,,,,,,,,,,,,
250933,1480802437223,,,,,,,,-0.01,0.08,0.97,-3.2,0.1,-0.2,1320,0,,,,,,,,,,,,,,,,,,,
250953,1480802437243,,,,,22,,,-0.01,0.07,0.97,-3.1,0.1,-0.2,1320,0,0,1,0.0,0,38.159115,-122.454277,0.0,0.123,46.5,8,3,2.5,0,0.0,-1,0.0,,0.0,0
250973,1480802437263,,,,,,,,-0.01,0.08,0.97,-3.1,0.2,-0.1,1300,0,,,,,,,,,,,,,,,,,,,
250993,1480802437283,,,,,,,,-0.01,0.07,0.97,-3.1,0.1,-0.1,1300,0,,,,,,,,,,,,,,,,,,,
251013,1480802437394,,,,,,,,-0.01,0.07,0.97,-3.1,0.2,-0.1,1300,0,,,,,,,,,,,,,,,,,,,
251033,1480802437414,,,,,,,,-0.01,0.08,0.97,-3.1,0.2,-0.1,1300,0,,,,,,,,,,,,,,,,,,,
251053,1480802437434,0,183.8,5.4,170.9,26,199.1,13.98,-0.01,0.08,0.97,-3.1,0.2,-0.1,1280,0,0,1,0.0,0,38.159115,-122.454277,0.0,0.123,46.5,8,3,2.5,0,0.0,-1,0.0,0.0,0.0,0
251073,1480802437454,,,,,,,,-0.01,0.07,0.97,-3.1,0.2,-0.1,1280,0,,,,,,,,,,,,,,,,,,,
251093,1480802437474,,,,,,,,-0.01,0.08,0.97,-3.1,0.2,-0.1,1280,0,,,,,,,,,,,,,,,,,,,
251113,1480802437494,,,,,,,,-0.01,0.08,0.97,-3.2,0.2,-0.1,1260,0,,,,,,,,,,,,,,,,,,,
251133,1480802437514,,,,,,,,-0.01,0.07,0.97,-3.1,0.2,-0.0,1260,0,,,,,,,,,,,,,,,,,,,
251153,1480802437534,,,,,25,,,-0.01,0.08,0.97,-3.1,0.2,-0.1,1260,0,0,1,0.0,0,38.159115,-122.454277,0.0,0.123,46.5,8,3,2.5,0,0.0,-1,0.0,,0.0,0
251173,1480802437554,,,,,,,,-0.01,0.08,0.97,-3.1,0.2,-0.1,1240,0,,,,,,,,,,,,,,,,,,,
251193,1480802437574,,,,,,,,-0.01,0.07,0.97,-3.1,0.3,-0.1,1240,0,,,,,,,,,,,,,,,,,,,
251213,1480802437498,,,,,,,,-0.01,0.08,0.97,-3.1,0.2,-0.1,1240,0,,,,,,,,,,,,,,,,,,,
251233,1480802437518,,,,,,,,-0.01,0.08,0.97,-3.1,0.3,-0.2,1240,0,,,,,,,,,,,,,,,,,,,
251253,1480802437538,0,183.7,,171.0,24,198.7,,-0.01,0.07,0.97,-3.1,0.2,-0.1,1220,0,0,1,0.0,0,38.159115,-122.454277,0.0,0.123,46.5,8,3,2.5,0,0.0,-1,0.0,0.0,0.0,0
251273,1480802437558,,,,,,,,-0.01,0.08,0.97,-3.1,0.3,-0.1,1220,0,,,,,,,,,,,,,,,,,,,
251293,1480802437578,,,,,,,,-0.01,0.07,0.98,-3.1,0.3,-0.1,1200,0,,,,,,,,,,,,,,,,,,,
251313,1480802437610,,,,,,,,-0.01,0.07,0.98,-3.1,0.3,-0.2,1200,0,,,,,,,,,,,,,,,,,,,
251333,1480802437630,,,,,,,,-0.01,0.06,0.98,-3.1,0.4,-0.2,1200,0,,,,,,,,,,,,,,,,,,,
251353,1480802437650,,,,,25,,,-0.01,0.07,0.98,-3.0,0.4,-0.2,1180,0,0,1,0.0,0,38.159115,-122.454277,0.0,0.123,46.5,8,3,2.5,0,0.0,-1,0.0,,0.0,0
251373,1480802437670,,,,,,,,-0.01,0.07,0.98,-3.0,0.5,-0.2,1180,0,,,,,,,,,,,,,,,,,,,
251393,1480802437690,,,,,,,,-0.01,0.07,0.98,-3.0,0.5,-0.2,1160,0,,,,,,,,,,,,,,,,,,,
251413,1480802437702,,,,,,,,-0.01,0.07,0.97,-3.0,0.5,-0.2,1160,0,,,,,,,,,,,,,,,,,,,
251433,1480802437722,,,,,,,,-0.01,0.07,0.98,-3.0,0.5,-0.2,1160,0,,,,,,,,,,,,,,,,,,,
251453,1480802437742,0,184.1,,170.7,23,198.4,,-0.01,0.07,0.98,-3.0,0.4,-0.2,1140,0,0,1,0.0,0,38.159115,-122.454277,0.0,0.123,46.5,8,3,2.5,0,0.0,-1,0.0,0.0,0.0,0
251473,1480802437762,,,,,,,,-0.0,0.08,0.97,-3.0,0.4,-0.1,1140,0,,,,,,,,,,,,,,,,,,,
251493,1480802437782,,,,,,,,-0.01,0.08,0.97,-3.1,0.4,-0.2,1120,0,,,,,,,,,,,,,,,,,,,
251513,1480802437795,,,,,,,,-0.01,0.08,0.97,-3.1,0.4,-0.1,1120,0,,,,,,,,,,,,,,,,,,,
251533,1480802437815,,,,,,,,-0.0,0.07,0.97,-3.1,0.4,-0.1,1120,0,,,,,,,,,,,,,,,,,,,
251553,1480802437835,,,,,24,,,-0.01,0.08,0.98,-3.1,0.4,-0.1,1120,0,0,1,0.0,0,38.159115,-122.454277,0.0,0.123,46.5,8,3,2.5,0,0.0,-1,0.0,,0.0,0
251573,1480802437855,,,,,,,,-0.01,0.07,0.98,-3.0,0.3,-0.1,1100,0,,,,,,,,,,,,,,,,,,,
251593,1480802437875,,,,,,,,-0.01,0.07,0.98,-3.0,0.4,-0.1,1100,0,,,,,,,,,,,,,,,,,,,
251613,1480802437905,,,,,,,,-0.01,0.08,0.98,-3.0,0.3,-0.1,1080,0,,,,,,,,,,,,,,,,,,,
251633,1480802437925,,,,,,,,-0.01,0.08,0.97,-3.0,0.3,-0.1,1080,0,,,,,,,,,,,,,,,,,,,
251653,1480802437945,0,184.2,,171.3,22,199.4,,-0.01,0.08,0.97,-3.1,0.3,-0.1,1080,0,0,1,0.0,0,38.159115,-122.454277,0.0,0.123,46.5,8,3,2.5,0,0.0,-1,0.0,0.0,0.0,0
251673,1480802437965,,,,,,,,-0.01,0.08,0.97,-3.1,0.4,-0.1,1060,0,,,,,,,,,,,,,,,,,,,
251693,1480802437985,,,,,,,,-0.01,0.08,0.97,-3.1,0.4,-0.1,1060,0,,,,,,,,,,,,,,,,,,,
251713,1480802437996,,,,,,,,-0.01,0.08,0.97,-3.1,0.3,-0.1,1040,0,,,,,,,,,,,,,,,,,,,
251733,1480802438016,,,,,,,,-0.01,0.07,0.97,-3.1,0.3,-0.1,1060,0,,,,,,,,,,,,,,,,,,,
251753,1480802438036,,,,,20,,,-0.01,0.08,0.97,-3.1,0.3,-0.0,1040,0,0,1,0.0,0,38.159115,-122.454277,0.0,0.123,46.5,8,3,2.5,0,0.0,-1,0.0,,0.0,0
251773,1480802438056,,,,,,,,-0.0,0.07,0.97,-3.1,0.4,-0.1,1040,0,,,,,,,,,,,,,,,,,,,
251793,1480802438076,,,,,,,,-0.0,0.07,0.97,-3.0,0.4,-0.1,1020,0,,,,,,,,,,,,,,,,,,,
251813,1480802438208,,,,,,,,-0.0,0.07,0.97,-3.0,0.3,-0.0,1020,0,,,,,,,,,,,,,,,,,,,
251833,1480802438228,,,,,,,,-0.0,0.07,0.97,-3.0,0.3,-0.1,1020,0,,,,,,,,,,,,,,,,,,,
251853,1480802438248,0,182.9,,170.4,21,198.2,,-0.0,0.07,0.97,-3.0,0.3,-0.1,1020,0,0,1,0.0,0,38.159115,-122.454277,0.0,0.123,46.5,8,3,2.5,0,0.0,-1,0.0,0.0,0.0,0
251873,1480802438268,,,,,,,,-0.0,0.07,0.97,-3.0,0.2,-0.1,1020,0,,,,,,,,,,,,,,,,,,,
251893,1480802438288,,,,,,,,-0.0,0.07,0.97,-3.0,0.2,-0.1,1000,0,,,,,,,,,,,,,,,,,,,
251913,1480802438308,,,,,,,,-0.01,0.06,0.97,-3.0,0.2,-0.2,1000,0,,,,,,,,,,,,,,,,,,,
251933,1480802438328,,,,,,,,-0.01,0.07,0.98,-3.0,0.2,-0.2,1000,0,,,,,,,,,,,,,,,,,,,
251953,1480802438348,,,,,17,,,-0.01,0.07,0.98,-3.1,0.1,-0.2,1000,0,0,1,0.0,0,38.159115,-122.454277,0.0,0.123,46.5,8,3,2.5,0,0.0,-1,0.0,,0.0,0
251973,1480802438368,,,,,,,,-0.01,0.07,0.98,-3.0,0.1,-0.2,1000,0,,,,,,,,,,,,,,,,,,,
251993,1480802438388,,,,,,,,-0.01,0.07,0.98,-3.0,0.2,-0.2,1000,0,,,,,,,,,,,,,,,,,,,
252013,1480802438294,,,,,,,,-0.01,0.07,0.98,-3.0,0.2,-0.2,980,0,,,,,,,,,,,,,,,,,,,
252033,1480802438314,,,,,,,,-0.01,0.07,0.98,-3.0,0.2,-0.3,980,0,,,,,,,,,,,,,,,,,,,
252053,1480802438334,0,183.2,5.1,171.0,18,199.0,14.11,-0.01,0.07,0.98,-3.0,0.1,-0.3,980,0,0,1,0.0,0,38.159115,-122.454277,0.0,0.123,46.5,8,3,2.5,0,0.0,-1,0.0,0.0,0.0,0
252073,1480802438354,,,,,,,,-0.02,0.07,0.98,-3.0,0.1,-0.3,980,0,,,,,,,,,,,,,,,,,,,
252093,1480802438374,,,,,,,,-0.02,0.07,0.98,-3.0,0.1,-0.4,980,0,,,,,,,,,,,,,,,,,,,
252113,1480802438409,,,,,,,,-0.02,0.06,0.98,-3.0,0.0,-0.4,980,0,,,,,,,,,,,,,,,,,,,
252133,1480802438429,,,,,,,,-0.02,0.06,0.98,-3.0,0.0,-0.4,960,0,,,,,,,,,,,,,,,,,,,
252153,1480802438449,,,,,19,,,-0.02,0.06,0.98,-3.0,0.0,-0.4,960,0,0,1,0.0,0,38.159115,-122.454277,0.0,0.123,46.5,8,3,2.5,0,0.0,-1,0.0,,0.0,0
252173,1480802438469,,,,,,,,-0.02,0.05,0.98,-3.1,0.0,-0.4,960,0,,,,,,,,,,,,,,,,,,,
252193,1480802438489,,,,,,,,-0.02,0.04,0.98,-3.1,0.0,-0.4,960,0,,,,,,,,,,,,,,,,,,,
252213,1480802438500,,,,,,,,-0.02,0.04,0.98,-3.1,0.0,-0.4,960,0,,,,,,,,,,,,,,,,,,,
252233,1480802438520,,,,,,,,-0.02,0.04,0.97,-3.1,0.1,-0.3,960,0,,,,,,,,,,,,,,,,,,,
252253,1480802438540,0,184.3,,171.5,20,199.4,,-0.02,0.03,0.97,-3.1,0.1,-0.3,960,0,0,1,0.0,0,38.159115,-122.454277,0.0,0.123,46.5,8,3,2.5,0,0.0,-1,0.0,0.0,0.0,0
252273,1480802438560,,,,,,,,-0.02,0.03,0.98,-3.1,0.2,-0.3,960,0,,,,,,,,,,,,,,,,,,,
252293,1480802438580,,,,,,,,-0.02,0.03,0.98,-3.1,0.3,-0.2,960,0,,,,,,,,,,,,,,,,,,,
252313,1480802438597,,,,,,,,-0.02,0.03,0.98,-3.1,0.3,-0.2,960,0,,,,,,,,,,,,,,,,,,,
252333,1480802438617,,,,,,,,-0.01,0.04,0.97,-3.1,0.4,-0.1,960,0,,,,,,,,,,,,,,,,,,,
252353,1480802438637,,,,,19,,,-0.01,0.05,0.98,-3.1,0.3,0.0,960,0,0,1,0.0,0,38.159115,-122.454277,0.0,0.123,46.5,8,3,2.5,0,0.0,-1,0.0,,0.0,0
252373,1480802438657,,,,,,,,-0.0,0.06,0.98,-3.1,0.3,0.0,960,0,,,,,,,,,,,,,,,,,,,
252393,1480802438677,,,,,,,,-0.0,0.06,0.98,-3.2,0.3,0.1,960,0,,,,,,,,,,,,,,,,,,,
252413,1480802438706,,,,,,,,-0.0,0.07,0.98,-3.2,0.3,0.2,960,0,,,,,,,,,,,,,,,,,,,
252433,1480802438726,,,,,,,,-0.0,0.08,0.98,-3.2,0.3,0.2,960,0,,,,,,,,,,,,,,,,,,,
252453,1480802438746,0,183.7,,171.6,16,199.3,,-0.0,0.08,0.97,-3.3,0.3,0.3,960,0,0,1,0.0,0,38.159115,-122.454277,0.0,0.123,46.5,8,3,2.5,0,0.0,-1,0.0,0.0,0.0,0
252473,1480802438766,,,,,,,,-0.0,0.09,0.97,-3.3,0.4,0.3,960,0,,,,,,,,,,,,,,,,,,,
252493,1480802438786,,,,,,,,-0.0,0.09,0.98,-3.2,0.4,0.3,960,0,,,,,,,,,,,,,,,,,,,
252513,1480802438802,,,,,,,,-0.0,0.1,0.98,-3.2,0.5,0.3,960,0,,,,,,,,,,,,,,,,,,,
252533,1480802438822,,,,,,,,-0.0,0.11,0.98,-3.2,0.6,0.3,960,0,,,,,,,,,,,,,,,,,,,
252553,1480802438842,,,,,19,,,-0.0,0.11,0.98,-3.2,0.6,0.2,960,0,0,1,0.0,0,38.159115,-122.454277,0.0,0.123,46.5,8,3,2.5,0,0.0,-1,0.0,,0.0,0
252573,1480802438862,,,,,,,,-0.0,0.12,0.98,-3.2,0.6,0.1,960,0,,,,,,,,,,,,,,,,,,,
252593,1480802438882,,,,,,,,0.0,0.11,0.98,-3.2,0.6,0.0,960,0,,,,,,,,,,,,,,,,,,,
252613,1480802438902,,,,,,,,0.0,0.11,0.98,-3.2,0.6,-0.1,960,0,,,,,,,,,,,,,,,,,,,
252633,1480802439010,,,,,,,,0.0,0.11,0.97,-3.1,0.5,-0.2,960,0,,,,,,,,,,,,,,,,,,,
252653,1480802439030,0,183.1,,171.2,18,198.9,,-0.0,0.1,0.97,-3.1,0.5,-0.3,960,0,0,1,0.0,0,38.159115,-122.454277,0.0,0.123,46.5,8,3,2.5,0,0.0,-1,0.0,0.0,0.0,0
252673,1480802439050,,,,,,,,-0.0,0.1,0.97,-3.0,0.4,-0.4,960,0,,,,,,,,,,,,,,,,,,,
252693,1480802439070,,,,,,,,-0.01,0.09,0.98,-3.0,0.4,-0.5,940,0,,,,,,,,,,,,,,,,,,,
252713,1480802439090,,,,,,,,-0.01,0.09,0.97,-3.0,0.3,-0.5,960,0,,,,,,,,,,,,,,,,,,,
252733,1480802439110,,,,,,,,-0.02,0.08,0.97,-3.0,0.3,-0.5,960,0,,,,,,,,,,,,,,,,,,,
252753,1480802439130,,,,,17,,,-0.02,0.08,0.97,-3.0,0.2,-0.6,960,0,0,1,0.0,0,38.159115,-122.454277,0.0,0.123,46.5,8,3,2.5,0,0.0,-1,0.0,,0.0,0
252773,1480802439150,,,,,,,,-0.02,0.07,0.97,-3.0,0.2,-0.6,960,0,,,,,,,,,,,,,,,,,,,
252793,1480802439170,,,,,,,,-0.02,0.06,0.97,-3.0,0.1,-0.6,940,0,,,,,,,,,,,,,,,,,,,
252813,1480802439096,,,,,,,,-0.02,0.05,0.97,-3.0,0.2,-0.6,960,0,,,,,,,,,,,,,,,,,,,
252833,1480802439116,,,,,,,,-0.02,0.05,0.97,-3.0,0.3,-0.6,960,0,,,,,,,,,,,,,,,,,,,
252853,1480802439136,0,183.3,,170.9,20,198.2,,-0.02,0.05,0.97,-3.0,0.3,-0.5,960,0,0,1,0.0,0,38.159115,-122.454277,0.0,0.123,46.5,8,3,2.5,0,0.0,-1,0.0,0.0,0.0,0
252873,1480802439156,,,,,,,,-0.02,0.04,0.97,-3.0,0.4,-0.4,940,0,,,,,,,,,,,,,,,,,,,
252893,1480802439176,,,,,,,,-0.01,0.05,0.97,-3.1,0.4,-0.3,940,0,,,,,,,,,,,,,,,,,,,
252913,1480802439196,,,,,,,,-0.01,0.05,0.97,-3.1,0.4,-0.2,960,0,,,,,,,,,,,,,,,,,,,
252933,1480802439209,,,,,,,,-0.01,0.05,0.97,-3.2,0.3,-0.1,940,0,,,,,,,,,,,,,,,,,,,
252953,1480802439229,,,,,20,,,-0.01,0.06,0.97,-3.2,0.3,-0.0,940,0,0,1,0.0,0,38.159115,-122.454277,0.0,0.123,46.5,8,3,2.5,0,0.0,-1,0.0,,0.0,0
252973,1480802439249,,,,,,,,-0.01,0.07,0.97,-3.2,0.3,0.1,960,0,,,,,,,,,,,,,,,,,,,
252993,1480802439269,,,,,,,,-0.01,0.08,0.97,-3.2,0.3,0.1,960,0,,,,,,,,,,,,,,,,,,,
253013,1480802439302,,,,,,,,-0.01,0.08,0.97,-3.2,0.3,0.2,960,0,,,,,,,,,,,,,,,,,,,
253033,1480802439322,,,,,,,,-0.01,0.09,0.97,-3.2,0.4,0.2,960,0,,,,,,,,,,,,,,,,,,,
253053,1480802439342,0,184.1,5.4,171.7,19,198.6,14.12,-0.01,0.1,0.98,-3.2,0.5,0.2,960,0,0,1,0.0,0,38.159115,-122.454277,0.0,0.123,46.5,8,3,2.5,0,0.0,-1,0.0,0.0,0.0,0
253073,1480802439362,,,,,,,,-0.01,0.11,0.98,-3.2,0.6,0.1,960,0,,,,,,,,,,,,,,,,,,,
253093,1480802439382,,,,,,,,-0.0,0.12,0.97,-3.2,0.6,0.1,960,0,,,,,,,,,,,,,,,,,,,
253113,1480802439396,,,,,,,,-0.0,0.12,0.97,-3.2,0.6,0.0,960,0,,,,,,,,,,,,,,,,,,,
253133,1480802439416,,,,,,,,-0.0,0.11,0.97,-3.2,0.6,-0.0,960,0,,,,,,,,,,,,,,,,,,,
253153,1480802439436,,,,,17,,,0.0,0.11,0.97,-3.2,0.6,-0.1,960,0,0,1,0.0,0,38.159115,-122.454277,0.0,0.123,46.5,8,3,2.5,0,0.0,-1,0.0,,0.0,0
253173,1480802439456,,,,,,,,-0.0,0.11,0.97,-3.1,0.5,-0.2,960,0,,,,,,,,,,,,,,,,,,,
253193,1480802439476,,,,,,,,-0.0,0.1,0.97,-3.1,0.5,-0.3,960,0,,,,,,,,,,,,,,,,,,,
253213,1480802439508,,,,,,,,-0.0,0.09,0.97,-3.0,0.4,-0.4,960,0,,,,,,,,,,,,,,,,,,,
253233,1480802439528,,,,,,,,-0.01,0.09,0.97,-3.0,0.4,-0.5,960,0,,,,,,,,,,,,,,,,,,,
253253,1480802439548,0,184.1,,171.8,17,199.4,,-0.01,0.08,0.97,-3.0,0.3,-0.5,960,0,0,1,0.0,0,38.159115,-122.454277,0.0,0.123,46.5,8,3,2.5,0,0.0,-1,0.0,0.0,0.0,0
253273,1480802439568,,,,,,,,-0.01,0.08,0.97,-2.9,0.2,-0.5,960,0,,,,,,,,,,,,,,,,,,,
253293,1480802439588,,,,,,,,-0.02,0.07,0.97,-2.9,0.2,-0.6,960,0,,,,,,,,,,,,,,,,,,,
253313,1480802439602,,,,,,,,-0.02,0.07,0.97,-2.9,0.2,-0.6,960,0,,,,,,,,,,,,,,,,,,,
253333,1480802439622,,,,,,,,-0.02,0.06,0.97,-2.9,0.2,-0.6,960,0,,,,,,,,,,,,,,,,,,,
253353,1480802439642,,,,,19,,,-0.02,0.06,0.97,-3.0,0.2,-0.6,960,0,0,1,0.0,0,38.159115,-122.454277,0.0,0.123,46.5,8,3,2.5,0,0.0,-1,0.0,,0.0,0
253373,1480802439662,,,,,,,,-0.02,0.05,0.97,-3.0,0.2,-0.6,960,0,,,,,,,,,,,,,,,,,,,
253393,1480802439682,,,,,,,,-0.02,0.04,0.97,-3.0,0.2,-0.6,960,0,,,,,,,,,,,,,,,,,,,
253413,1480802439795,,,,,,,,-0.02,0.04,0.97,-3.0,0.2,-0.5,960,0,,,,,,,,,,,,,,,,,,,
253433,1480802439815,,,,,,,,-0.02,0.03,0.97,-3.0,0.2,-0.5,960,0,,,,,,,,,,,,,,,,,,,
253453,1480802439835,0,184.1,,171.6,18,198.2,,-0.02,0.03,0.97,-3.0,0.3,-0.4,960,0,0,1,0.0,0,38.159115,-122.454277,0.0,0.123,46.5,8,3,2.5,0,0.0,-1,0.0,0.0,0.0,0
253473,1480802439855,,,,,,,,-0.02,0.03,0.97,-3.0,0.4,-0.3,960,0,,,,,,,,,,,,,,,,,,,
253493,1480802439875,,,,,,,,-0.01,0.03,0.97,-3.0,0.5,-0.2,960,0,,,,,,,,,,,,,,,,,,,
253513,1480802439895,,,,,,,,-0.01,0.03,0.97,-3.0,0.5,-0.2,960,0,,,,,,,,,,,,,,,,,,,
253533,1480802439915,,,,,,,,-0.01,0.04,0.97,-3.1,0.5,-0.1,960,0,,,,,,,,,,,,,,,,,,,
253553,1480802439935,,,,,19,,,-0.01,0.05,0.97,-3.1,0.4,0.0,940,0,0,1,0.0,0,38.159115,-122.454277,0.0,0.123,46.5,8,3,2.5,0,0.0,-1,0.0,,0.0,0
253573,1480802439955,,,,,,,,-0.0,0.05,0.97,-3.1,0.4,0.1,960,0,,,,,,,,,,,,,,,,,,,
253593,1480802439975,,,,,,,,-0.01,0.06,0.97,-3.2,0.3,0.1,960,0,,,,,,,,,,,,,,,,,,,
253613,1480802439896,,,,,,,,-0.01,0.07,0.97,-3.2,0.3,0.2,960,0,,,,,,,,,,,,,,,,,,,
253633,1480802439916,,,,,,,,-0.0,0.08,0.97,-3.2,0.4,0.3,940,0,,,,,,,,,,,,,,,,,,,
253653,1480802439936,0,182.7,,171.2,16,198.0,,-0.0,0.09,0.97,-3.3,0.4,0.3,960,0,0,1,0.0,0,38.159115,-122.454277,0.0,0.123,46.5,8,3,2.5,0,0.0,-1,0.0,0.0,0.0,0
253673,1480802439956,,,,,,,,-0.0,0.1,0.97,-3.3,0.5,0.3,940,0,,,,,,,,,,,,,,,,,,,
253693,1480802439976,,,,,,,,-0.0,0.1,0.98,-3.2,0.5,0.2,940,0,,,,,,,,,,,,,,,,,,,
253713,1480802440008,,,,,,,,0.0,0.11,0.98,-3.2,0.6,0.2,940,0,,,,,,,,,,,,,,,,,,,
253733,1480802440028,,,,,,,,0.0,0.11,0.98,-3.2,0.6,0.1,940,0,,,,,,,,,,,,,,,,,,,
253753,1480802440048,,,,,17,,,0.0,0.11,0.97,-3.1,0.5,-0.0,940,0,0,1,0.0,0,38.159111,-122.454277,0.0,0.124,49.1,9,3,2.0,0,0.0,-1,0.0,,0.0,0
253773,1480802440068,,,,,,,,0.0,0.11,0.97,-3.1,0.5,-0.1,940,0,,,,,,,,,,,,,,,,,,,
253793,1480802440088,,,,,,,,0.0,0.11,0.97,-3.1,0.4,-0.2,940,0,,,,,,,,,,,,,,,,,,,
253813,1480802440102,,,,,,,,-0.0,0.1,0.98,-3.0,0.4,-0.3,940,0,,,,,,,,,,,,,,,,,,,
253833,1480802440122,,,,,,,,-0.0,0.09,0.98,-3.0,0.3,-0.4,940,0,,,,,,,,,,,,,,,,,,,
253853,1480802440142,0,182.9,,171.5,17,198.1,,-0.01,0.09,0.98,-3.0,0.2,-0.5,940,0,0,1,0.0,0,38.159111,-122.454277,0.0,0.124,49.1,9,3,2.0,0,0.0,-1,0.0,0.0,0.0,0
253873,1480802440162,,,,,,,,-0.01,0.08,0.97,-3.0,0.2,-0.5,940,0,,,,,,,,,,,,,,,,,,,
253893,1480802440182,,,,,,,,-0.02,0.07,0.97,-3.0,0.2,-0.5,940,0,,,,,,,,,,,,,,,,,,,
253913,1480802440196,,,,,,,,-0.02,0.06,0.97,-3.0,0.2,-0.5,940,0,,,,,,,,,,,,,,,,,,,
253933,1480802440216,,,,,,,,-0.01,0.06,0.97,-3.0,0.3,-0.5,940,0,,,,,,,,,,,,,,,,,,,
253953,1480802440236,,,,,18,,,-0.01,0.05,0.97,-3.0,0.3,-0.4,940,0,0,1,0.0,0,38.159111,-122.454277,0.0,0.124,49.1,9,3,2.0,0,0.0,-1,0.0,,0.0,0
253973,1480802440256,,,,,,,,-0.01,0.05,0.97,-3.1,0.4,-0.3,940,0,,,,,,,,,,,,,,,,,,,
253993,1480802440276,,,,,,,,-0.01,0.06,0.97,-3.1,0.4,-0.2,940,0,,,,,,,,,,,,,,,,,,,
254013,1480802440309,,,,,,,,-0.0,0.06,0.97,-3.1,0.3,-0.1,940,0,,,,,,,,,,,,,,,,,,,
254033,1480802440329,,,,,,,,-0.0,0.07,0.97,-3.2,0.3,0.0,940,0,,,,,,,,,,,,,,,,,,,
254053,1480802440349,0,183.2,5.4,171.6,17,198.0,14.04,-0.0,0.08,0.97,-3.2,0.3,0.1,940,0,0,1,0.0,0,38.159111,-122.454277,0.0,0.124,49.1,9,3,2.0,0,0.0,-1,0.0,0.0,0.0,0
254073,1480802440369,,,,,,,,-0.0,0.09,0.97,-3.2,0.3,0.2,940,0,,,,,,,,,,,,,,,,,,,
254093,1480802440389,,,,,,,,-0.0,0.09,0.98,-3.2,0.4,0.2,960,0,,,,,,,,,,,,,,,,,,,
254113,1480802440402,,,,,,,,-0.0,0.1,0.98,-3.1,0.5,0.2,960,0,,,,,,,,,,,,,,,,,,,
254133,1480802440422,,,,,,,,-0.0,0.1,0.98,-3.2,0.6,0.2,960,0,,,,,,,,,,,,,,,,,,,
254153,1480802440442,,,,,18,,,-0.0,0.11,0.98,-3.2,0.7,0.1,960,0,0,1,0.0,0,38.159111,-122.454277,0.0,0.124,49.1,9,3,2.0,0,0.0,-1,0.0,,0.0,0
254173,1480802440462,,,,,,,,-0.0,0.12,0.98,-3.2,0.6,0.0,960,0,,,,,,,,,,,,,,,,,,,
254193,1480802440482,,,,,,,,-0.0,0.11,0.98,-3.2,0.6,-0.0,960,0,,,,,,,,,,,,,,,,,,,
254213,1480802440593,,,,,,,,0.0,0.11,0.97,-3.1,0.6,-0.1,960,0,,,,,,,,,,,,,,,,,,,
254233,1480802440613,,,,,,,,-0.0,0.1,0.97,-3.1,0.5,-0.2,960,0,,,,,,,,,,,,,,,,,,,
254253,1480802440633,0,183.0,,172.0,16,198.6,,-0.0,0.1,0.98,-3.1,0.4,-0.3,960,0,0,1,0.0,0,38.159111,-122.454277,0.0,0.124,49.1,9,3,2.0,0,0.0,-1,0.0,0.0,0.0,0
254273,1480802440653,,,,,,,,-0.0,0.1,0.98,-3.0,0.3,-0.4,940,0,,,,,,,,,,,,,,,,,,,
254293,1480802440673,,,,,,,,-0.01,0.09,0.97,-2.9,0.3,-0.4,960,0,,,,,,,,,,,,,,,,,,,
254313,1480802440693,,,,,,,,-0.01,0.08,0.97,-2.9,0.2,-0.5,960,0,,,,,,,,,,,,,,,,,,,
254333,1480802440713,,,,,,,,-0.02,0.08,0.97,-2.9,0.2,-0.5,960,0,,,,,,,,,,,,,,,,,,,
254353,1480802440733,,,,,19,,,-0.02,0.07,0.97,-2.9,0.1,-0.6,960,0,0,1,0.0,0,38.159111,-122.454277,0.0,0.124,49.1,9,3,2.0,0,0.0,-1,0.0,,0.0,0
254373,1480802440753,,,,,,,,-0.02,0.07,0.97,-3.0,0.1,-0.6,940,0,,,,,,,,,,,,,,,,,,,
254393,1480802440773,,,,,,,,-0.02,0.06,0.97,-3.0,0.1,-0.5,960,0,,,,,,,,,,,,,,,,,,,
254413,1480802440702,,,,,,,,-0.02,0.05,0.97,-3.0,0.2,-0.5,940,0,,,,,,,,,,,,,,,,,,,
254433,1480802440722,,,,,,,,-0.02,0.05,0.97,-3.0,0.3,-0.4,940,0,,,,,,,,,,,,,,,,,,,
254453,1480802440742,0,183.0,,171.8,19,198.0,,-0.02,0.04,0.97,-3.0,0.3,-0.4,960,0,0,1,0.0,0,38.159111,-122.454277,0.0,0.124,49.1,9,3,2.0,0,0.0,-1,0.0,0.0,0.0,0
254473,1480802440762,,,,,,,,-0.01,0.04,0.97,-3.0,0.4,-0.3,940,0,,,,,,,,,,,,,,,,,,,
254493,1480802440782,,,,,,,,-0.01,0.04,0.97,-3.0,0.4,-0.2,940,0,,,,,,,,,,,,,,,,,,,
254513,1480802440791,,,,,,,,-0.01,0.05,0.97,-3.0,0.4,-0.1,940,0,,,,,,,,,,,,,,,,,,,
254533,1480802440811,,,,,,,,-0.0,0.05,0.97,-3.1,0.3,-0.0,940,0,,,,,,,,,,,,,,,,,,,
254553,1480802440831,,,,,19,,,-0.0,0.06,0.97,-3.1,0.3,0.1,940,0,0,1,0.0,0,38.159111,-122.454277,0.0,0.124,49.1,9,3,2.0,0,0.0,-1,0.0,,0.0,0
254573,1480802440851,,,,,,,,-0.0,0.07,0.97,-3.2,0.3,0.1,940,0,,,,,,,,,,,,,,,,,,,
254593,1480802440871,,,,,,,,-0.0,0.08,0.97,-3.2,0.3,0.2,940,0,,,,,,,,,,,,,,,,,,,
254613,1480802440904,,,,,,,,-0.0,0.09,0.97,-3.2,0.4,0.2,960,0,,,,,,,,,,,,,,,,,,,
254633,1480802440924,,,,,,,,-0.0,0.09,0.97,-3.2,0.5,0.2,960,0,,,,,,,,,,,,,,,,,,,
254653,1480802440944,0,183.0,,172.3,17,198.7,,-0.0,0.1,0.97,-3.2,0.6,0.2,960,0,0,1,0.0,0,38.159111,-122.454277,0.0,0.124,49.1,9,3,2.0,0,0.0,-1,0.0,0.0,0.0,0
254673,1480802440964,,,,,,,,-0.0,0.11,0.97,-3.2,0.7,0.1,960,0,,,,,,,,,,,,,,,,,,,
254693,1480802440984,,,,,,,,-0.0,0.11,0.97,-3.2,0.7,0.0,960,0,,,,,,,,,,,,,,,,,,,
254713,1480802440994,,,,,,,,0.0,0.12,0.97,-3.2,0.7,-0.1,960,0,,,,,,,,,,,,,,,,,,,
254733,1480802441014,,,,,,,,0.0,0.11,0.97,-3.2,0.6,-0.1,960,0,,,,,,,,,,,,,,,,,,,
254753,1480802441034,,,,,17,,,0.0,0.11,0.97,-3.1,0.6,-0.2,960,0,0,1,0.0,0,38.159111,-122.454277,0.0,0.124,49.1,9,3,2.0,0,0.0,-1,0.0,,0.0,0
254773,1480802441054,,,,,,,,-0.0,0.1,0.97,-3.1,0.5,-0.3,960,0,,,,,,,,,,,,,,,,,,,
254793,1480802441074,,,,,,,,-0.0,0.1,0.97,-3.1,0.4,-0.4,960,0,,,,,,,,,,,,,,,,,,,
254813,1480802441109,,,,,,,,-0.0,0.1,0.98,-3.0,0.3,-0.4,960,0,,,,,,,,,,,,,,,,,,,
254833,1480802441129,,,,,,,,-0.01,0.09,0.98,-2.9,0.2,-0.5,960,0,,,,,,,,,,,,,,,,,,,
254853,1480802441149,0,184.0,,173.0,18,199.3,,-0.01,0.08,0.98,-2.9,0.2,-0.5,960,0,0,1,0.0,0,38.159111,-122.454277,0.0,0.124,49.1,9,3,2.0,0,0.0,-1,0.0,0.0,0.0,0
254873,1480802441169,,,,,,,,-0.02,0.07,0.98,-2.9,0.1,-0.5,960,0,,,,,,,,,,,,,,,,,,,
254893,1480802441189,,,,,,,,-0.02,0.07,0.98,-2.9,0.1,-0.6,960,0,,,,,,,,,,,,,,,,,,,
254913,1480802441200,,,,,,,,-0.02,0.06,0.98,-2.9,0.0,-0.6,960,0,,,,,,,,,,,,,,,,,,,
254933,1480802441220,,,,,,,,-0.02,0.06,0.98,-2.9,0.0,-0.5,980,0,,,,,,,,,,,,,,,,,,,
254953,1480802441240,,,,,19,,,-0.02,0.05,0.98,-3.0,-0.0,-0.5,980,0,0,1,0.0,0,38.159111,-122.454277,0.0,0.124,49.1,9,3,2.0,0,0.0,-1,0.0,,0.0,0
254973,1480802441260,,,,,,,,-0.02,0.05,0.97,-3.0,0.0,-0.5,980,0,,,,,,,,,,,,,,,,,,,
254993,1480802441280,,,,,,,,-0.02,0.04,0.97,-3.0,0.0,-0.5,960,0,,,,,,,,,,,,,,,,,,,
255013,1480802441397,,,,,,,,-0.02,0.04,0.97,-3.0,0.1,-0.4,980,0,,,,,,,,,,,,,,,,,,,
255033,1480802441417,,,,,,,,-0.02,0.04,0.97,-3.0,0.1,-0.3,960,0,,,,,,,,,,,,,,,,,,,
255053,1480802441437,0,184.1,5.7,173.1,19,198.6,14.09,-0.02,0.03,0.97,-3.0,0.2,-0.3,960,0,0,1,0.0,0,38.159111,-122.454277,0.0,0.124,49.1,9,3,2.0,0,0.0,-1,0.0,0.0,0.0,0
255073,1480802441457,,,,,,,,-0.02,0.03,0.97,-3.0,0.3,-0.3,980,0,,,,,,,,,,,,,,,,,,,
255093,1480802441477,,,,,,,,-0.02,0.03,0.97,-3.0,0.4,-0.3,980,0,,,,,,,,,,,,,,,,,,,
255113,1480802441497,,,,,,,,-0.02,0.03,0.97,-3.0,0.4,-0.2,980,0,,,,,,,,,,,,,,,,,,,
255133,1480802441517,,,,,,,,-0.01,0.03,0.97,-3.0,0.5,-0.2,960,0,,,,,,,,,,,,,,,,,,,
255153,1480802441537,,,,,18,,,-0.01,0.03,0.97,-3.0,0.5,-0.1,980,0,0,1,0.0,0,38.159111,-122.454277,0.0,0.124,49.1,9,3,2.0,0,0.0,-1,0.0,,0.0,0
255173,1480802441557,,,,,,,,-0.0,0.04,0.97,-3.0,0.5,-0.1,980,0,,,,,,,,,,,,,,,,,,,
255193,1480802441577,,,,,,,,-0.0,0.04,0.97,-3.0,0.5,-0.0,980,0,,,,,,,,,,,,,,,,,,,
255213,1480802441506,,,,,,,,0.0,0.05,0.97,-3.1,0.5,0.0,960,0,,,,,,,,,,,,,,,,,,,
255233,1480802441526,,,,,,,,0.0,0.05,0.97,-3.1,0.6,0.1,980,0,,,,,,,,,,,,,,,,,,,
255253,1480802441546,0,182.8,,172.6,19,198.5,,0.01,0.06,0.97,-3.1,0.5,0.1,960,0,0,1,0.0,0,38.159111,-122.454277,0.0,0.124,49.1,9,3,2.0,0,0.0,-1,0.0,0.0,0.0,0
255273,1480802441566,,,,,,,,0.01,0.06,0.97,-3.1,0.5,0.1,980,0,,,,,,,,,,,,,,,,,,,
255293,1480802441586,,,,,,,,0.01,0.07,0.97,-3.2,0.4,0.2,960,0,,,,,,,,,,,,,,,,,,,
255313,1480802441598,,,,,,,,0.01,0.08,0.97,-3.2,0.4,0.2,980,0,,,,,,,,,,,,,,,,,,,
255333,1480802441618,,,,,,,,0.01,0.08,0.97,-3.2,0.4,0.3,980,0,,,,,,,,,,,,,,,,,,,
255353,1480802441638,,,,,18,,,0.01,0.09,0.97,-3.3,0.3,0.3,960,0,0,1,0.0,0,38.159111,-122.454277,0.0,0.124,49.1,9,3,2.0,0,0.0,-1,0.0,,0.0,0
255373,1480802441658,,,,,,,,0.01,0.09,0.97,-3.3,0.3,0.3,960,0,,,,,,,,,,,,,,,,,,,
255393,1480802441678,,,,,,,,0.0,0.1,0.97,-3.3,0.4,0.3,980,0,,,,,,,,,,,,,,,,,,,
255413,1480802441693,,,,,,,,0.0,0.1,0.97,-3.3,0.3,0.3,960,0,,,,,,,,,,,,,,,,,,,
255433,1480802441713,,,,,,,,0.0,0.11,0.97,-3.3,0.3,0.3,980,0,,,,,,,,,,,,,,,,,,,
255453,1480802441733,0,183.2,,172.6,21,197.9,,0.0,0.11,0.97,-3.3,0.3,0.3,980,0,0,1,0.0,0,38.159111,-122.454277,0.0,0.124,49.1,9,3,2.0,0,0.0,-1,0.0,0.0,0.0,0
255473,1480802441753,,,,,,,,0.0,0.11,0.97,-3.2,0.2,0.3,980,0,,,,,,,,,,,,,,,,,,,
255493,1480802441773,,,,,,,,0.0,0.11,0.97,-3.2,0.3,0.3,980,0,,,,,,,,,,,,,,,,,,,
255513,1480802441806,,,,,,,,0.0,0.12,0.97,-3.2,0.4,0.3,980,0,,,,,,,,,,,,,,,,,,,
255533,1480802441826,,,,,,,,0.0,0.12,0.97,-3.2,0.4,0.2,980,0,,,,,,,,,,,,,,,,,,,
255553,1480802441846,,,,,16,,,0.0,0.12,0.97,-3.2,0.5,0.2,980,0,0,1,0.0,0,38.159111,-122.454277,0.0,0.124,49.1,9,3,2.0,0,0.0,-1,0.0,,0.0,0
255573,1480802441866,,,,,,,,0.0,0.12,0.97,-3.1,0.5,0.2,980,0,,,,,,,,,,,,,,,,,,,
255593,1480802441886,,,,,,,,0.0,0.13,0.97,-3.1,0.5,0.1,980,0,,,,,,,,,,,,,,,,,,,
255613,1480802441898,,,,,,,,0.0,0.13,0.97,-3.1,0.6,0.1,980,0,,,,,,,,,,,,,,,,,,,
255633,1480802441918,,,,,,,,-0.0,0.12,0.98,-3.1,0.6,0.0,980,0,,,,,,,,,,,,,,,,,,,
255653,1480802441938,0,183.5,,173.3,21,198.9,,-0.0,0.13,0.97,-3.1,0.6,-0.0,980,0,0,1,0.0,0,38.159111,-122.454277,0.0,0.124,49.1,9,3,2.0,0,0.0,-1,0.0,0.0,0.0,0
255673,1480802441958,,,,,,,,-0.0,0.13,0.97,-3.1,0.6,-0.1,980,0,,,,,,,,,,,,,,,,,,,
255693,1480802441978,,,,,,,,-0.0,0.13,0.97,-3.1,0.6,-0.1,980,0,,,,,,,,,,,,,,,,,,,
255713,1480802442010,,,,,,,,-0.0,0.12,0.97,-3.1,0.7,-0.1,980,0,,,,,,,,,,,,,,,,,,,
255733,1480802442030,,,,,,,,-0.0,0.12,0.97,-3.1,0.6,-0.1,980,0,,,,,,,,,,,,,,,,,,,
255753,1480802442050,,,,,18,,,-0.01,0.12,0.97,-3.1,0.7,-0.2,980,0,0,1,0.0,0,38.159111,-122.454277,0.0,0.124,49.1,9,3,2.0,0,0.0,-1,0.0,,0.0,0
255773,1480802442070,,,,,,,,-0.01,0.11,0.97,-3.1,0.6,-0.2,980,0,,,,,,,,,,,,,,,,,,,
255793,1480802442090,,,,,,,,-0.01,0.11,0.97,-3.1,0.6,-0.2,980,0,,,,,,,,,,,,,,,,,,,
255813,1480802442203,,,,,,,,-0.01,0.11,0.97,-3.1,0.6,-0.3,980,0,,,,,,,,,,,,,,,,,,,
255833,1480802442223,,,,,,,,-0.01,0.1,0.97,-3.1,0.6,-0.3,980,0,,,,,,,,,,,,,,,,,,,
255853,1480802442243,0,183.9,,173.6,22,198.4,,-0.01,0.1,0.96,-3.1,0.6,-0.4,980,0,0,1,0.0,0,38.159111,-122.454277,0.0,0.124,49.1,9,3,2.0,0,0.0,-1,0.0,0.0,0.0,0
255873,1480802442263,,,,,,,,-0.01,0.09,0.96,-3.1,0.5,-0.4,980,0,,,,,,,,,,,,,,,,,,,
255893,1480802442283,,,,,,,,-0.01,0.09,0.96,-3.1,0.5,-0.4,980,0,,,,,,,,,,,,,,,,,,,
255913,1480802442303,,,,,,,,-0.01,0.08,0.96,-3.1,0.4,-0.5,980,0,,,,,,,,,,,,,,,,,,,
255933,1480802442323,,,,,,,,-0.01,0.08,0.96,-3.0,0.4,-0.5,980,0,,,,,,,,,,,,,,,,,,,
255953,1480802442343,,,,,17,,,-0.01,0.07,0.96,-3.0,0.4,-0.5,980,0,0,1,0.0,0,38.159111,-122.454277,0.0,0.124,49.1,9,3,2.0,0,0.0,-1,0.0,,0.0,0
255973,1480802442363,,,,,,,,-0.01,0.07,0.96,-3.0,0.3,-0.5,980,0,,,,,,,,,,,,,,,,,,,
255993,1480802442383,,,,,,,,-0.01,0.07,0.97,-2.9,0.3,-0.5,980,0,,,,,,,,,,,,,,,,,,,
256013,1480802442403,,,,,,,,-0.01,0.06,0.97,-2.9,0.3,-0.5,960,0,,,,,,,,,,,,,,,,,,,
256033,1480802442423,,,,,,,,-0.01,0.06,0.97,-2.9,0.2,-0.5,980,0,,,,,,,,,,,,,,,,,,,
256053,1480802442306,0,183.7,5.8,173.8,20,199.1,14.12,-0.01,0.06,0.97,-2.9,0.2,-0.5,980,0,0,1,0.0,0,38.159111,-122.454277,0.0,0.124,49.1,9,3,2.0,0,0.0,-1,0.0,0.0,0.0,0
256073,1480802442326,,,,,,,,-0.02,0.06,0.97,-2.8,0.2,-0.6,980,0,,,,,,,,,,,,,,,,,,,
256093,1480802442346,,,,,,,,-0.02,0.06,0.97,-2.8,0.2,-0.6,980,0,,,,,,,,,,,,,,,,,,,
256113,1480802442366,,,,,,,,-0.02,0.06,0.97,-2.8,0.2,-0.6,960,0,,,,,,,,,,,,,,,,,,,
256133,1480802442386,,,,,,,,-0.02,0.06,0.98,-2.9,0.2,-0.6,960,0,,,,,,,,,,,,,,,,,,,
256153,1480802442406,,,,,19,,,-0.02,0.05,0.98,-2.9,0.1,-0.6,960,0,0,1,0.0,0,38.159111,-122.454277,0.0,0.124,49.1,9,3,2.0,0,0.0,-1,0.0,,0.0,0
256173,1480802442408,,,,,,,,-0.03,0.05,0.98,-2.9,0.1,-0.6,980,0,,,,,,,,,,,,,,,,,,,
256193,1480802442428,,,,,,,,-0.03,0.05,0.98,-2.9,0.1,-0.5,980,0,,,,,,,,,,,,,,,,,,,
256213,1480802442496,,,,,,,,-0.03,0.05,0.97,-2.9,0.1,-0.5,980,0,,,,,,,,,,,,,,,,,,,
256233,1480802442516,,,,,,,,-0.03,0.04,0.97,-2.9,0.1,-0.5,960,0,,,,,,,,,,,,,,,,,,,
256253,1480802442536,0,182.4,,172.9,19,197.9,,-0.03,0.04,0.97,-3.0,0.1,-0.5,960,0,0,1,0.0,0,38.159111,-122.454277,0.0,0.124,49.1,9,3,2.0,0,0.0,-1,0.0,0.0,0.0,0
256273,1480802442556,,,,,,,,-0.03,0.03,0.97,-3.0,0.1,-0.5,960,0,,,,,,,,,,,,,,,,,,,
256293,1480802442576,,,,,,,,-0.03,0.03,0.97,-3.0,0.2,-0.5,980,0,,,,,,,,,,,,,,,,,,,
256313,1480802442596,,,,,,,,-0.02,0.02,0.97,-2.9,0.3,-0.4,980,0,,,,,,,,,,,,,,,,,,,
256333,1480802442616,,,,,,,,-0.02,0.02,0.97,-3.0,0.3,-0.3,980,0,,,,,,,,,,,,,,,,,,,
256353,1480802442602,,,,,18,,,-0.02,0.02,0.97,-3.0,0.4,-0.3,980,0,0,1,0.0,0,38.159111,-122.454277,0.0,0.124,49.1,9,3,2.0,0,0.0,-1,0.0,,0.0,0
256373,1480802442622,,,,,,,,-0.02,0.02,0.97,-3.0,0.5,-0.3,980,0,,,,,,,,,,,,,,,,,,,
256393,1480802442642,,,,,,,,-0.02,0.02,0.97,-2.9,0.5,-0.2,960,0,,,,,,,,,,,,,,,,,,,
256413,1480802442662,,,,,,,,-0.01,0.03,0.97,-2.9,0.6,-0.2,980,0,,,,,,,,,,,,,,,,,,,
256433,1480802442682,,,,,,,,-0.01,0.03,0.97,-3.0,0.6,-0.2,980,0,,,,,,,,,,,,,,,,,,,
256453,1480802442702,0,183.5,,174.0,19,199.0,,-0.01,0.04,0.97,-3.0,0.6,-0.1,980,0,0,1,0.0,0,38.159111,-122.454277,0.0,0.124,49.1,9,3,2.0,0,0.0,-1,0.0,0.0,0.0,0
256473,1480802442709,,,,,,,,-0.0,0.04,0.98,-3.0,0.6,-0.0,980,0,,,,,,,,,,,,,,,,,,,
256493,1480802442729,,,,,,,,0.0,0.05,0.98,-3.0,0.5,0.0,980,0,,,,,,,,,,,,,,,,,,,
256513,1480802442796,,,,,,,,0.0,0.06,0.97,-3.1,0.5,0.0,980,0,,,,,,,,,,,,,,,,,,,
256533,1480802442816,,,,,,,,0.01,0.07,0.97,-3.1,0.5,0.1,980,0,,,,,,,,,,,,,,,,,,,
256553,1480802442836,,,,,21,,,0.01,0.07,0.97,-3.1,0.4,0.1,980,0,0,1,0.0,0,38.159111,-122.454277,0.0,0.124,49.1,9,3,2.0,0,0.0,-1,0.0,,0.0,0
256573,1480802442856,,,,,,,,0.01,0.08,0.97,-3.2,0.4,0.2,980,0,,,,,,,,,,,,,,,,,,,
256593,1480802442876,,,,,,,,0.01,0.08,0.97,-3.2,0.3,0.2,980,0,,,,,,,,,,,,,,,,,,,
256613,1480802443005,,,,,,,,0.01,0.09,0.97,-3.2,0.3,0.2,980,0,,,,,,,,,,,,,,,,,,,
256633,1480802443025,,,,,,,,0.01,0.09,0.97,-3.2,0.3,0.2,980,0,,,,,,,,,,,,,,,,,,,
256653,1480802443045,1,183.8,,174.0,19,198.4,,0.0,0.1,0.97,-3.3,0.3,0.3,980,0,0,1,0.0,0,38.159111,-122.454277,0.0,0.124,49.1,9,3,2.0,0,0.0,-1,0.0,0.0,0.0,0
256673,1480802443065,,,,,,,,0.0,0.11,0.97,-3.3,0.2,0.3,980,0,,,,,,,,,,,,,,,,,,,
256693,1480802443085,,,,,,,,0.0,0.11,0.97,-3.3,0.2,0.3,980,0,,,,,,,,,,,,,,,,,,,
256713,1480802443105,,,,,,,,0.0,0.11,0.97,-3.3,0.2,0.3,980,0,,,,,,,,,,,,,,,,,,,
256733,1480802443125,,,,,,,,-0.0,0.11,0.97,-3.3,0.2,0.3,960,0,,,,,,,,,,,,,,,,,,,
256753,1480802443145,,,,,19,,,0.0,0.12,0.97,-3.3,0.2,0.3,960,0,0,1,0.0,0,38.159111,-122.454277,0.0,0.124,49.1,9,3,2.0,0,0.0,-1,0.0,,0.0,0
256773,1480802443165,,,,,,,,0.0,0.12,0.97,-3.3,0.2,0.3,960,0,,,,,,,,,,,,,,,,,,,
256793,1480802443185,,,,,,,,0.0,0.12,0.97,-3.2,0.3,0.2,980,0,,,,,,,,,,,,,,,,,,,
256813,1480802443205,,,,,,,,0.0,0.12,0.97,-3.2,0.3,0.2,980,0,,,,,,,,,,,,,,,,,,,
256833,1480802443109,,,,,,,,-0.0,0.12,0.98,-3.2,0.4,0.1,960,0,,,,,,,,,,,,,,,,,,,
256853,1480802443129,0,183.2,,174.3,18,198.9,,-0.0,0.12,0.98,-3.1,0.4,0.1,960,0,0,1,0.0,0,38.159111,-122.454277,0.0,0.124,49.1,9,3,2.0,0,0.0,-1,0.0,0.0,0.0,0
256873,1480802443149,,,,,,,,-0.0,0.12,0.98,-3.1,0.4,0.0,960,0,,,,,,,,,,,,,,,,,,,
256893,1480802443169,,,,,,,,-0.0,0.13,0.98,-3.1,0.5,-0.0,960,0,,,,,,,,,,,,,,,,,,,
256913,1480802443203,,,,,,,,-0.0,0.13,0.98,-3.1,0.5,-0.1,980,0,,,,,,,,,,,,,,,,,,,
256933,1480802443223,,,,,,,,-0.0,0.12,0.97,-3.1,0.5,-0.1,960,0,,,,,,,,,,,,,,,,,,,
256953,1480802443243,,,,,20,,,-0.0,0.12,0.97,-3.1,0.6,-0.2,980,0,0,1,0.0,0,38.159111,-122.454277,0.0,0.124,49.1,9,3,2.0,0,0.0,-1,0.0,,0.0,0
256973,1480802443263,,,,,,,,-0.0,0.12,0.97,-3.1,0.5,-0.2,980,0,,,,,,,,,,,,,,,,,,,
256993,1480802443283,,,,,,,,-0.0,0.11,0.97,-3.1,0.5,-0.3,960,0,,,,,,,,,,,,,,,,,,,
257013,1480802443293,,,,,,,,-0.01,0.11,0.97,-3.1,0.4,-0.4,960,0,,,,,,,,,,,,,,,,,,,
257033,1480802443313,,,,,,,,-0.01,0.11,0.97,-3.1,0.3,-0.4,980,0,,,,,,,,,,,,,,,,,,,
257053,1480802443333,0,182.0,5.1,173.6,18,197.9,14.15,-0.01,0.1,0.96,-3.0,0.3,-0.4,980,0,0,1,0.0,0,38.159111,-122.454277,0.0,0.124,49.1,9,3,2.0,0,0.0,-1,0.0,0.0,0.0,0
257073,1480802443353,,,,,,,,-0.01,0.1,0.96,-3.0,0.2,-0.5,980,0,,,,,,,,,,,,,,,,,,,
257093,1480802443373,,,,,,,,-0.01,0.09,0.97,-3.0,0.2,-0.5,980,0,,,,,,,,,,,,,,,,,,,
257113,1480802443406,,,,,,,,-0.01,0.08,0.97,-3.0,0.2,-0.5,960,0,,,,,,,,,,,,,,,,,,,
257133,1480802443426,,,,,,,,-0.01,0.07,0.97,-2.9,0.2,-0.5,980,0,,,,,,,,,,,,,,,,,,,
257153,1480802443446,,,,,19,,,-0.01,0.07,0.97,-2.9,0.1,-0.5,980,0,0,1,0.0,0,38.159111,-122.454277,0.0,0.124,49.1,9,3,2.0,0,0.0,-1,0.0,,0.0,0
257173,1480802443466,,,,,,,,-0.01,0.07,0.97,-2.9,0.1,-0.6,980,0,,,,,,,,,,,,,,,,,,,
257193,1480802443486,,,,,,,,-0.01,0.06,0.97,-2.9,0.1,-0.6,980,0,,,,,,,,,,,,,,,,,,,
257213,1480802443493,,,,,,,,-0.01,0.06,0.98,-2.9,0.1,-0.6,980,0,,,,,,,,,,,,,,,,,,,
257233,1480802443513,,,,,,,,-0.02,0.06,0.98,-2.9,0.1,-0.5,980,0,,,,,,,,,,,,,,,,,,,
257253,1480802443533,0,183.1,,173.5,21,197.6,,-0.02,0.06,0.98,-2.9,0.1,-0.5,960,0,0,1,0.0,0,38.159111,-122.454277,0.0,0.124,49.1,9,3,2.0,0,0.0,-1,0.0,0.0,0.0,0
257273,1480802443553,,,,,,,,-0.02,0.06,0.98,-2.9,0.1,-0.5,980,0,,,,,,,,,,,,,,,,,,,
257293,1480802443573,,,,,,,,-0.02,0.06,0.98,-2.9,0.1,-0.5,980,0,,,,,,,,,,,,,,,,,,,
257313,1480802443593,,,,,,,,-0.02,0.06,0.98,-3.0,0.1,-0.5,980,0,,,,,,,,,,,,,,,,,,,
257333,1480802443608,,,,,,,,-0.02,0.05,0.97,-3.0,0.1,-0.5,960,0,,,,,,,,,,,,,,,,,,,
257353,1480802443628,,,,,20,,,-0.02,0.04,0.97,-3.0,0.1,-0.4,960,0,0,1,0.0,0,38.159111,-122.454277,0.0,0.124,49.1,9,3,2.0,0,0.0,-1,0.0,,0.0,0
257373,1480802443648,,,,,,,,-0.02,0.04,0.97,-3.0,0.1,-0.4,960,0,,,,,,,,,,,,,,,,,,,
257393,1480802443668,,,,,,,,-0.02,0.04,0.97,-3.0,0.1,-0.4,980,0,,,,,,,,,,,,,,,,,,,
257413,1480802443797,,,,,,,,-0.02,0.04,0.97,-3.0,0.2,-0.4,960,0,,,,,,,,,,,,,,,,,,,
257433,1480802443817,,,,,,,,-0.02,0.03,0.97,-3.1,0.3,-0.3,980,0,,,,,,,,,,,,,,,,,,,
257453,1480802443837,0,182.6,,174.4,20,198.9,,-0.02,0.03,0.97,-3.1,0.3,-0.3,980,0,0,1,0.0,0,38.159111,-122.454277,0.0,0.124,49.1,9,3,2.0,0,0.0,-1,0.0,0.0,0.0,0
257473,1480802443857,,,,,,,,-0.02,0.03,0.97,-3.1,0.4,-0.3,980,0,,,,,,,,,,,,,,,,,,,
257493,1480802443877,,,,,,,,-0.01,0.03,0.97,-3.1,0.5,-0.2,980,0,,,,,,,,,,,,,,,,,,,
257513,1480802443897,,,,,,,,-0.01,0.03,0.97,-3.1,0.5,-0.2,980,0,,,,,,,,,,,,,,,,,,,
257533,1480802443917,,,,,,,,-0.01,0.03,0.97,-3.1,0.5,-0.1,980,0,,,,,,,,,,,,,,,,,,,
257553,1480802443937,,,,,21,,,-0.0,0.04,0.97,-3.1,0.5,-0.1,980,0,0,1,0.0,0,38.159111,-122.454277,0.0,0.124,49.1,9,3,2.0,0,0.0,-1,0.0,,0.0,0
257573,1480802443957,,,,,,,,0.0,0.04,0.96,-3.1,0.5,-0.0,980,0,,,,,,,,,,,,,,,,,,,
257593,1480802443977,,,,,,,,0.0,0.04,0.96,-3.1,0.5,0.0,980,0,,,,,,,,,,,,,,,,,,,
257613,1480802443897,,,,,,,,0.01,0.05,0.96,-3.1,0.5,0.0,960,0,,,,,,,,,,,,,,,,,,,
257633,1480802443917,,,,,,,,0.0,0.06,0.96,-3.1,0.5,0.0,980,0,,,,,,,,,,,,,,,,,,,
257653,1480802443937,0,183.0,,174.6,23,198.9,,0.01,0.06,0.97,-3.2,0.4,0.1,980,0,0,1,0.0,0,38.159111,-122.454277,0.0,0.124,49.1,9,3,2.2,0,0.0,-1,0.0,0.0,0.0,0
257673,1480802443957,,,,,,,,0.01,0.07,0.97,-3.2,0.4,0.1,980,0,,,,,,,,,,,,,,,,,,,
257693,1480802443977,,,,,,,,0.01,0.08,0.97,-3.2,0.4,0.1,980,0,,,,,,,,,,,,,,,,,,,
257713,1480802443991,,,,,,,,0.01,0.08,0.97,-3.3,0.4,0.2,980,0,,,,,,,,,,,,,,,,,,,
257733,1480802444011,,,,,,,,0.01,0.09,0.97,-3.3,0.3,0.2,980,0,,,,,,,,,,,,,,,,,,,
257753,1480802444031,,,,,20,,,0.01,0.1,0.96,-3.3,0.3,0.2,980,0,0,1,0.0,0,38.159111,-122.454277,0.0,0.124,49.1,9,3,2.2,0,0.0,-1,0.0,,0.0,0
257773,1480802444051,,,,,,,,0.01,0.1,0.96,-3.3,0.2,0.2,980,0,,,,,,,,,,,,,,,,,,,
257793,1480802444071,,,,,,,,0.0,0.11,0.96,-3.3,0.2,0.3,980,0,,,,,,,,,,,,,,,,,,,
257813,1480802444103,,,,,,,,0.0,0.11,0.96,-3.3,0.3,0.3,980,0,,,,,,,,,,,,,,,,,,,
257833,1480802444123,,,,,,,,0.0,0.11,0.96,-3.3,0.3,0.3,980,0,,,,,,,,,,,,,,,,,,,
257853,1480802444143,0,182.2,,173.8,19,197.9,,0.0,0.12,0.96,-3.3,0.3,0.3,980,0,0,1,0.0,0,38.159111,-122.454277,0.0,0.124,49.1,9,3,2.2,0,0.0,-1,0.0,0.0,0.0,0
257873,1480802444163,,,,,,,,0.0,0.12,0.96,-3.2,0.3,0.3,980,0,,,,,,,,,,,,,,,,,,,
257893,1480802444183,,,,,,,,0.0,0.12,0.96,-3.2,0.3,0.3,980,0,,,,,,,,,,,,,,,,,,,
257913,1480802444196,,,,,,,,0.0,0.12,0.96,-3.2,0.3,0.2,980,0,,,,,,,,,,,,,,,,,,,
257933,1480802444216,,,,,,,,0.0,0.12,0.96,-3.2,0.4,0.2,980,0,,,,,,,,,,,,,,,,,,,
257953,1480802444236,,,,,19,,,0.0,0.12,0.97,-3.1,0.4,0.1,980,0,0,1,0.0,0,38.159111,-122.454277,0.0,0.124,49.1,9,3,2.2,0,0.0,-1,0.0,,0.0,0
257973,1480802444256,,,,,,,,0.0,0.12,0.97,-3.1,0.5,0.1,980,0,,,,,,,,,,,,,,,,,,,
257993,1480802444276,,,,,,,,-0.0,0.12,0.97,-3.1,0.5,0.0,980,0,,,,,,,,,,,,,,,,,,,
258013,1480802444308,,,,,,,,-0.0,0.12,0.97,-3.1,0.6,-0.0,980,0,,,,,,,,,,,,,,,,,,,
258033,1480802444328,,,,,,,,-0.0,0.12,0.97,-3.1,0.7,-0.0,980,0,,,,,,,,,,,,,,,,,,,
258053,1480802444348,0,182.5,5.2,173.8,21,197.6,14.18,-0.0,0.12,0.97,-3.1,0.7,-0.1,980,0,0,1,0.0,0,38.159111,-122.454277,0.0,0.124,49.1,9,3,2.2,0,0.0,-1,0.0,0.0,0.0,0
258073,1480802444368,,,,,,,,-0.0,0.12,0.98,-3.1,0.7,-0.1,980,0,,,,,,,,,,,,,,,,,,,
258093,1480802444388,,,,,,,,-0.0,0.13,0.97,-3.1,0.7,-0.2,980,0,,,,,,,,,,,,,,,,,,,
258113,1480802444398,,,,,,,,-0.01,0.12,0.97,-3.1,0.7,-0.2,980,0,,,,,,,,,,,,,,,,,,,
258133,1480802444418,,,,,,,,-0.01,0.12,0.97,-3.1,0.7,-0.2,980,0,,,,,,,,,,,,,,,,,,,
258153,1480802444438,,,,,22,,,-0.01,0.11,0.97,-3.2,0.7,-0.3,980,0,0,1,0.0,0,38.159111,-122.454277,0.0,0.124,49.1,9,3,2.2,0,0.0,-1,0.0,,0.0,0
258173,1480802444458,,,,,,,,-0.01,0.1,0.97,-3.2,0.7,-0.3,980,0,,,,,,,,,,,,,,,,,,,
258193,1480802444478,,,,,,,,-0.01,0.09,0.97,-3.2,0.6,-0.3,980,0,,,,,,,,,,,,,,,,,,,
258213,1480802444491,,,,,,,,-0.01,0.09,0.97,-3.2,0.6,-0.4,980,0,,,,,,,,,,,,,,,,,,,
258233,1480802444610,,,,,,,,-0.01,0.09,0.97,-3.2,0.5,-0.4,980,0,,,,,,,,,,,,,,,,,,,
258253,1480802444630,0,183.1,,174.7,20,198.2,,-0.0,0.08,0.97,-3.1,0.5,-0.4,980,0,0,1,0.0,0,38.159111,-122.454277,0.0,0.124,49.1,9,3,2.2,0,0.0,-1,0.0,0.0,0.0,0
258273,1480802444650,,,,,,,,-0.01,0.08,0.97,-3.1,0.4,-0.4,980,0,,,,,,,,,,,,,,,,,,,
258293,1480802444670,,,,,,,,-0.01,0.07,0.97,-3.0,0.4,-0.5,960,0,,,,,,,,,,,,,,,,,,,
258313,1480802444690,,,,,,,,-0.01,0.07,0.97,-3.0,0.3,-0.5,960,0,,,,,,,,,,,,,,,,,,,
258333,1480802444710,,,,,,,,-0.01,0.06,0.97,-3.0,0.3,-0.5,960,0,,,,,,,,,,,,,,,,,,,
258353,1480802444730,,,,,21,,,-0.01,0.06,0.97,-3.0,0.3,-0.6,960,0,0,1,0.0,0,38.159111,-122.454277,0.0,0.124,49.1,9,3,2.2,0,0.0,-1,0.0,,0.0,0
258373,1480802444750,,,,,,,,-0.01,0.06,0.97,-2.9,0.2,-0.6,980,0,,,,,,,,,,,,,,,,,,,
258393,1480802444770,,,,,,,,-0.01,0.06,0.98,-2.9,0.2,-0.6,960,0,,,,,,,,,,,,,,,,,,,
258413,1480802444697,,,,,,,,-0.01,0.06,0.98,-2.9,0.2,-0.6,960,0,,,,,,,,,,,,,,,,,,,
258433,1480802444717,,,,,,,,-0.01,0.05,0.98,-2.9,0.1,-0.6,960,0,,,,,,,,,,,,,,,,,,,
258453,1480802444737,0,182.9,,174.9,20,198.6,,-0.02,0.05,0.98,-2.9,0.1,-0.6,960,0,0,1,0.0,0,38.159111,-122.454277,0.0,0.124,49.1,9,3,2.2,0,0.0,-1,0.0,0.0,0.0,0
258473,1480802444757,,,,,,,,-0.02,0.05,0.97,-2.9,0.1,-0.6,960,0,,,,,,,,,,,,,,,,,,,
258493,1480802444777,,,,,,,,-0.02,0.05,0.97,-2.9,0.0,-0.6,960,0,,,,,,,,,,,,,,,,,,,
258513,1480802444809,,,,,,,,-0.02,0.04,0.97,-2.9,0.1,-0.6,960,0,,,,,,,,,,,,,,,,,,,
258533,1480802444829,,,,,,,,-0.02,0.04,0.97,-3.0,0.1,-0.6,960,0,,,,,,,,,,,,,,,,,,,
258553,1480802444849,,,,,20,,,-0.02,0.04,0.97,-3.0,0.1,-0.5,960,0,0,1,0.0,0,38.159111,-122.454277,0.0,0.124,49.1,9,3,2.2,0,0.0,-1,0.0,,0.0,0
258573,1480802444869,,,,,,,,-0.02,0.03,0.97,-3.0,0.2,-0.5,960,0,,,,,,,,,,,,,,,,,,,
258593,1480802444889,,,,,,,,-0.02,0.03,0.97,-3.0,0.3,-0.4,960,0,,,,,,,,,,,,,,,,,,,
258613,1480802444900,,,,,,,,-0.02,0.02,0.97,-3.0,0.4,-0.4,960,0,,,,,,,,,,,,,,,,,,,
258633,1480802444920,,,,,,,,-0.02,0.03,0.97,-3.0,0.4,-0.3,960,0,,,,,,,,,,,,,,,,,,,
258653,1480802444940,0,182.5,,175.0,22,198.8,,-0.01,0.03,0.97,-3.1,0.5,-0.2,960,0,0,1,0.0,0,38.159111,-122.454277,0.0,0.124,49.1,9,3,2.2,0,0.0,-1,0.0,0.0,0.0,0
258673,1480802444960,,,,,,,,-0.01,0.04,0.97,-3.1,0.5,-0.1,960,0,,,,,,,,,,,,,,,,,,,
258693,1480802444980,,,,,,,,-0.0,0.04,0.97,-3.1,0.4,-0.0,960,0,,,,,,,,,,,,,,,,,,,
258713,1480802444993,,,,,,,,0.0,0.05,0.97,-3.1,0.4,0.0,960,0,,,,,,,,,,,,,,,,,,,
258733,1480802445013,,,,,,,,0.0,0.06,0.97,-3.2,0.4,0.1,960,0,,,,,,,,,,,,,,,,,,,
258753,1480802445033,,,,,23,,,0.0,0.07,0.97,-3.2,0.4,0.1,960,0,0,1,0.0,0,38.159111,-122.454277,0.0,0.124,49.1,9,3,2.2,0,0.0,-1,0.0,,0.0,0
258773,1480802445053,,,,,,,,0.0,0.07,0.97,-3.2,0.4,0.1,960,0,,,,,,,,,,,,,,,,,,,
258793,1480802445073,,,,,,,,0.0,0.08,0.97,-3.2,0.3,0.2,960,0,,,,,,,,,,,,,,,,,,,
258813,1480802445105,,,,,,,,-0.0,0.09,0.97,-3.3,0.3,0.2,960,0,,,,,,,,,,,,,,,,,,,
258833,1480802445125,,,,,,,,0.0,0.1,0.97,-3.3,0.3,0.2,960,0,,,,,,,,,,,,,,,,,,,
258853,1480802445145,0,181.7,,174.1,16,197.6,,0.0,0.1,0.97,-3.3,0.4,0.2,960,0,0,1,0.0,0,38.159111,-122.454277,0.0,0.124,49.1,9,3,2.2,0,0.0,-1,0.0,0.0,0.0,0
258873,1480802445165,,,,,,,,-0.0,0.1,0.97,-3.2,0.5,0.1,960,0,,,,,,,,,,,,,,,,,,,
258893,1480802445185,,,,,,,,-0.0,0.1,0.98,-3.2,0.5,0.1,960,0,,,,,,,,,,,,,,,,,,,
258913,1480802445199,,,,,,,,-0.0,0.11,0.98,-3.1,0.6,0.0,960,0,,,,,,,,,,,,,,,,,,,
258933,1480802445219,,,,,,,,-0.0,0.11,0.98,-3.1,0.6,-0.0,960,0,,,,,,,,,,,,,,,,,,,
258953,1480802445239,,,,,21,,,-0.0,0.11,0.98,-3.1,0.6,-0.1,960,0,0,1,0.0,0,38.159111,-122.454277,0.0,0.124,49.1,9,3,2.2,0,0.0,-1,0.0,,0.0,0
258973,1480802445259,,,,,,,,-0.0,0.11,0.98,-3.1,0.7,-0.1,960,0,,,,,,,,,,,,,,,,,,,
258993,1480802445279,,,,,,,,-0.0,0.11,0.98,-3.1,0.6,-0.2,960,0,,,,,,,,,,,,,,,,,,,
259013,1480802445409,,,,,,,,-0.0,0.1,0.98,-3.1,0.6,-0.3,960,0,,,,,,,,,,,,,,,,,,,
259033,1480802445429,,,,,,,,-0.0,0.1,0.98,-3.1,0.5,-0.3,960,0,,,,,,,,,,,,,,,,,,,
259053,1480802445449,0,181.5,5.1,174.0,19,197.6,14.12,-0.0,0.09,0.98,-3.0,0.4,-0.4,960,0,0,1,0.0,0,38.159111,-122.454277,0.0,0.124,49.1,9,3,2.2,0,0.0,-1,0.0,0.0,0.0,0
259073,1480802445469,,,,,,,,-0.01,0.08,0.98,-3.0,0.4,-0.4,960,0,,,,,,,,,,,,,,,,,,,
259093,1480802445489,,,,,,,,-0.01,0.08,0.98,-2.9,0.3,-0.5,960,0,,,,,,,,,,,,,,,,,,,
259113,1480802445509,,,,,,,,-0.01,0.07,0.98,-2.9,0.3,-0.5,960,0,,,,,,,,,,,,,,,,,,,
259133,1480802445529,,,,,,,,-0.02,0.07,0.98,-2.9,0.2,-0.5,960,0,,,,,,,,,,,,,,,,,,,
259153,1480802445549,,,,,21,,,-0.02,0.06,0.98,-2.9,0.1,-0.6,960,0,0,1,0.0,0,38.159111,-122.454277,0.0,0.124,49.1,9,3,2.2,0,0.0,-1,0.0,,0.0,0
259173,1480802445569,,,,,,,,-0.02,0.06,0.98,-2.9,0.1,-0.6,960,0,,,,,,,,,,,,,,,,,,,
259193,1480802445589,,,,,,,,-0.02,0.05,0.98,-2.9,0.2,-0.5,960,0,,,,,,,,,,,,,,,,,,,
259213,1480802445492,,,,,,,,-0.02,0.05,0.98,-3.0,0.2,-0.5,960,0,,,,,,,,,,,,,,,,,,,
259233,1480802445512,,,,,,,,-0.02,0.05,0.98,-3.0,0.1,-0.5,960,0,,,,,,,,,,,,,,,,,,,
259253,1480802445532,0,182.7,,174.9,19,197.6,,-0.02,0.04,0.98,-3.0,0.2,-0.4,960,0,0,1,0.0,0,38.159111,-122.454277,0.0,0.124,49.1,9,3,2.2,0,0.0,-1,0.0,0.0,0.0,0
259273,1480802445552,,,,,,,,-0.02,0.04,0.98,-3.0,0.3,-0.4,960,0,,,,,,,,,,,,,,,,,,,
259293,1480802445572,,,,,,,,-0.02,0.04,0.98,-3.0,0.4,-0.3,960,0,,,,,,,,,,,,,,,,,,,
259313,1480802445605,,,,,,,,-0.01,0.04,0.97,-3.0,0.5,-0.2,960,0,,,,,,,,,,,,,,,,,,,
259333,1480802445625,,,,,,,,-0.01,0.04,0.97,-3.0,0.5,-0.2,960,0,,,,,,,,,,,,,,,,,,,
259353,1480802445645,,,,,19,,,-0.01,0.04,0.97,-3.0,0.5,-0.1,960,0,0,1,0.0,0,38.159111,-122.454277,0.0,0.124,49.1,9,3,2.2,0,0.0,-1,0.0,,0.0,0
259373,1480802445665,,,,,,,,-0.0,0.05,0.97,-3.0,0.5,-0.0,960,0,,,,,,,,,,,,,,,,,,,
259393,1480802445685,,,,,,,,-0.0,0.06,0.97,-3.1,0.5,0.1,960,0,,,,,,,,,,,,,,,,,,,
259413,1480802445695,,,,,,,,-0.0,0.07,0.97,-3.1,0.4,0.1,960,0,,,,,,,,,,,,,,,,,,,
259433,1480802445715,,,,,,,,-0.0,0.08,0.97,-3.2,0.4,0.2,960,0,,,,,,,,,,,,,,,,,,,
259453,1480802445735,0,181.5,,174.9,21,198.5,,-0.0,0.08,0.97,-3.2,0.4,0.2,960,0,0,1,0.0,0,38.159111,-122.454277,0.0,0.124,49.1,9,3,2.2,0,0.0,-1,0.0,0.0,0.0,0
259473,1480802445755,,,,,,,,-0.0,0.09,0.97,-3.2,0.3,0.3,960,0,,,,,,,,,,,,,,,,,,,
259493,1480802445775,,,,,,,,-0.0,0.1,0.97,-3.2,0.3,0.3,960,0,,,,,,,,,,,,,,,,,,,
259513,1480802445801,,,,,,,,-0.0,0.1,0.97,-3.2,0.3,0.3,960,0,,,,,,,,,,,,,,,,,,,
259533,1480802445821,,,,,,,,-0.0,0.1,0.97,-3.2,0.5,0.3,960,0,,,,,,,,,,,,,,,,,,,
259553,1480802445841,,,,,19,,,-0.0,0.1,0.98,-3.2,0.5,0.2,960,0,0,1,0.0,0,38.159111,-122.454277,0.0,0.124,49.1,9,3,2.2,0,0.0,-1,0.0,,0.0,0
259573,1480802445861,,,,,,,,-0.0,0.11,0.98,-3.2,0.6,0.2,960,0,,,,,,,,,,,,,,,,,,,
259593,1480802445881,,,,,,,,0.0,0.11,0.98,-3.1,0.6,0.1,960,0,,,,,,,,,,,,,,,,,,,
259613,1480802445893,,,,,,,,0.0,0.11,0.98,-3.1,0.6,0.0,960,0,,,,,,,,,,,,,,,,,,,
259633,1480802445913,,,,,,,,0.0,0.11,0.98,-3.1,0.6,-0.0,960,0,,,,,,,,,,,,,,,,,,,
259653,1480802445933,0,182.5,,175.0,18,197.3,,0.0,0.11,0.98,-3.1,0.6,-0.1,960,0,0,1,0.0,0,38.159111,-122.454277,0.0,0.124,49.1,9,3,2.2,0,0.0,-1,0.0,0.0,0.0,0
259673,1480802445953,,,,,,,,-0.0,0.11,0.97,-3.1,0.6,-0.2,960,0,,,,,,,,,,,,,,,,,,,
259693,1480802445973,,,,,,,,-0.0,0.11,0.97,-3.1,0.5,-0.3,960,0,,,,,,,,,,,,,,,,,,,
259713,1480802445999,,,,,,,,-0.0,0.11,0.97,-3.1,0.5,-0.3,960,0,,,,,,,,,,,,,,,,,,,
259733,1480802446019,,,,,,,,-0.0,0.1,0.97,-3.1,0.4,-0.4,960,0,,,,,,,,,,,,,,,,,,,
259753,1480802446039,,,,,20,,,-0.01,0.09,0.96,-3.0,0.4,-0.4,960,0,0,1,0.0,0,38.159111,-122.454277,0.0,0.124,49.1,9,3,2.2,0,0.0,-1,0.0,,0.0,0
259773,1480802446059,,,,,,,,-0.01,0.09,0.97,-3.0,0.3,-0.5,960,0,,,,,,,,,,,,,,,,,,,
259793,1480802446079,,,,,,,,-0.01,0.08,0.97,-2.9,0.3,-0.5,960,0,,,,,,,,,,,,,,,,,,,
259813,1480802446194,,,,,,,,-0.01,0.07,0.97,-2.9,0.2,-0.5,960,0,,,,,,,,,,,,,,,,,,,
259833,1480802446214,,,,,,,,-0.02,0.06,0.97,-2.9,0.1,-0.5,960,0,,,,,,,,,,,,,,,,,,,
259853,1480802446234,0,182.3,,175.2,22,197.9,,-0.02,0.06,0.97,-2.9,0.1,-0.5,960,0,0,1,0.0,0,38.159111,-122.454277,0.0,0.124,49.1,9,3,2.2,0,0.0,-1,0.0,0.0,0.0,0
259873,1480802446254,,,,,,,,-0.02,0.06,0.97,-2.9,0.1,-0.5,960,0,,,,,,,,,,,,,,,,,,,
259893,1480802446274,,,,,,,,-0.02,0.05,0.97,-3.0,0.1,-0.5,960,0,,,,,,,,,,,,,,,,,,,
259913,1480802446294,,,,,,,,-0.02,0.05,0.97,-3.0,0.1,-0.5,960,0,,,,,,,,,,,,,,,,,,,
259933,1480802446314,,,,,,,,-0.02,0.05,0.97,-3.0,0.2,-0.4,960,0,,,,,,,,,,,,,,,,,,,
259953,1480802446334,,,,,21,,,-0.02,0.04,0.97,-3.0,0.3,-0.3,960,0,0,1,0.0,0,38.159111,-122.454277,0.0,0.124,49.1,9,3,2.2,0,0.0,-1,0.0,,0.0,0
259973,1480802446354,,,,,,,,-0.02,0.04,0.97,-3.0,0.4,-0.3,960,0,,,,,,,,,,,,,,,,,,,
259993,1480802446374,,,,,,,,-0.02,0.04,0.97,-3.0,0.4,-0.2,960,0,,,,,,,,,,,,,,,,,,,
260013,1480802446292,,,,,,,,-0.01,0.04,0.97,-3.0,0.5,-0.2,960,0,,,,,,,,,,,,,,,,,,,
260033,1480802446312,,,,,,,,-0.01,0.05,0.96,-3.0,0.4,-0.1,960,0,,,,,,,,,,,,,,,,,,,
260053,1480802446332,0,181.2,5.1,174.5,20,198.2,14.08,-0.0,0.06,0.96,-3.1,0.4,-0.0,960,0,0,1,0.0,0,38.159111,-122.454277,0.0,0.124,49.1,9,3,2.2,0,0.0,-1,0.0,0.0,0.0,0
260073,1480802446352,,,,,,,,-0.01,0.07,0.96,-3.1,0.4,0.0,960,0,,,,,,,,,,,,,,,,,,,
260093,1480802446372,,,,,,,,-0.01,0.07,0.97,-3.2,0.4,0.1,960,0,,,,,,,,,,,,,,,,,,,
260113,1480802446400,,,,,,,,-0.01,0.08,0.97,-3.2,0.4,0.1,960,0,,,,,,,,,,,,,,,,,,,
260133,1480802446420,,,,,,,,-0.01,0.09,0.97,-3.2,0.4,0.2,960,0,,,,,,,,,,,,,,,,,,,
260153,1480802446440,,,,,18,,,-0.0,0.1,0.97,-3.2,0.4,0.2,960,0,0,1,0.0,0,38.159111,-122.454277,0.0,0.124,49.1,9,3,2.2,0,0.0,-1,0.0,,0.0,0
260173,1480802446460,,,,,,,,-0.0,0.1,0.97,-3.2,0.4,0.2,960,0,,,,,,,,,,,,,,,,,,,
260193,1480802446480,,,,,,,,-0.0,0.1,0.97,-3.2,0.5,0.2,960,0,,,,,,,,,,,,,,,,,,,
260213,1480802446500,,,,,,,,-0.0,0.11,0.97,-3.2,0.6,0.2,960,0,,,,,,,,,,,,,,,,,,,
260233,1480802446509,,,,,,,,0.0,0.11,0.97,-3.2,0.7,0.1,960,0,,,,,,,,,,,,,,,,,,,
260253,1480802446529,0,182.1,,174.8,21,197.1,,0.0,0.11,0.97,-3.2,0.7,0.1,960,0,0,1,0.0,0,38.159111,-122.454277,0.0,0.124,49.1,9,3,2.2,0,0.0,-1,0.0,0.0,0.0,0
260273,1480802446549,,,,,,,,0.0,0.12,0.97,-3.1,0.6,0.0,960,0,,,,,,,,,,,,,,,,,,,
260293,1480802446569,,,,,,,,0.0,0.11,0.97,-3.1,0.7,-0.1,960,0,,,,,,,,,,,,,,,,,,,
260313,1480802446604,,,,,,,,0.0,0.11,0.97,-3.1,0.6,-0.2,960,0,,,,,,,,,,,,,,,,,,,
260333,1480802446624,,,,,,,,0.0,0.11,0.97,-3.1,0.5,-0.2,960,0,,,,,,,,,,,,,,,,,,,
260353,1480802446644,,,,,21,,,0.0,0.11,0.97,-3.0,0.4,-0.3,960,0,0,1,0.0,0,38.159111,-122.454277,0.0,0.124,49.1,9,3,2.2,0,0.0,-1,0.0,,0.0,0
260373,1480802446664,,,,,,,,-0.0,0.1,0.97,-3.0,0.4,-0.4,960,0,,,,,,,,,,,,,,,,,,,
260393,1480802446684,,,,,,,,-0.0,0.09,0.97,-2.9,0.3,-0.4,960,0,,,,,,,,,,,,,,,,,,,
260413,1480802446696,,,,,,,,-0.01,0.08,0.97,-2.9,0.3,-0.4,960,0,,,,,,,,,,,,,,,,,,,
260433,1480802446716,,,,,,,,-0.01,0.08,0.97,-2.9,0.2,-0.5,960,0,,,,,,,,,,,,,,,,,,,
260453,1480802446736,0,182.0,,174.9,20,197.0,,-0.01,0.07,0.97,-2.9,0.1,-0.5,960,0,0,1,0.0,0,38.159111,-122.454277,0.0,0.124,49.1,9,3,2.2,0,0.0,-1,0.0,0.0,0.0,0
260473,1480802446756,,,,,,,,-0.01,0.07,0.98,-2.9,0.1,-0.6,960,0,,,,,,,,,,,,,,,,,,,
260493,1480802446776,,,,,,,,-0.02,0.06,0.97,-2.9,0.1,-0.6,960,0,,,,,,,,,,,,,,,,,,,
260513,1480802446808,,,,,,,,-0.02,0.06,0.97,-2.9,0.1,-0.5,960,0,,,,,,,,,,,,,,,,,,,
260533,1480802446828,,,,,,,,-0.02,0.05,0.97,-2.9,0.1,-0.5,960,0,,,,,,,,,,,,,,,,,,,
260553,1480802446848,,,,,20,,,-0.02,0.05,0.97,-2.9,0.1,-0.5,960,0,0,1,0.0,0,38.159111,-122.454277,0.0,0.124,49.1,9,3,2.2,0,0.0,-1,0.0,,0.0,0
260573,1480802446868,,,,,,,,-0.03,0.04,0.97,-2.9,0.1,-0.5,960,0,,,,,,,,,,,,,,,,,,,
260593,1480802446888,,,,,,,,-0.02,0.04,0.97,-3.0,0.2,-0.4,960,0,,,,,,,,,,,,,,,,,,,
260613,1480802446998,,,,,,,,-0.02,0.04,0.97,-3.0,0.2,-0.4,960,0,,,,,,,,,,,,,,,,,,,
260633,1480802447018,,,,,,,,-0.02,0.04,0.97,-3.0,0.3,-0.4,960,0,,,,,,,,,,,,,,,,,,,
260653,1480802447038,0,180.9,,175.0,20,198.4,,-0.02,0.04,0.97,-3.0,0.4,-0.3,960,0,0,1,0.0,0,38.159111,-122.454277,0.0,0.124,49.1,9,3,2.2,0,0.0,-1,0.0,0.0,0.0,0
260673,1480802447058,,,,,,,,-0.01,0.04,0.97,-3.0,0.5,-0.2,960,0,,,,,,,,,,,,,,,,,,,
260693,1480802447078,,,,,,,,-0.01,0.05,0.97,-3.0,0.5,-0.2,960,0,,,,,,,,,,,,,,,,,,,
260713,1480802447098,,,,,,,,-0.0,0.05,0.97,-3.0,0.5,-0.1,960,0,,,,,,,,,,,,,,,,,,,
260733,1480802447118,,,,,,,,-0.0,0.06,0.98,-3.0,0.5,-0.0,960,0,,,,,,,,,,,,,,,,,,,
260753,1480802447138,,,,,21,,,-0.0,0.07,0.98,-3.1,0.6,0.0,960,0,0,1,0.0,0,38.159111,-122.454277,0.0,0.124,49.1,9,3,2.2,0,0.0,-1,0.0,,0.0,0
260773,1480802447158,,,,,,,,-0.0,0.07,0.98,-3.2,0.5,0.1,960,0,,,,,,,,,,,,,,,,,,,
260793,1480802447178,,,,,,,,-0.0,0.08,0.97,-3.2,0.5,0.1,960,0,,,,,,,,,,,,,,,,,,,
260813,1480802447103,,,,,,,,-0.0,0.09,0.97,-3.2,0.4,0.1,960,0,,,,,,,,,,,,,,,,,,,
260833,1480802447123,,,,,,,,-0.0,0.1,0.97,-3.2,0.4,0.2,960,0,,,,,,,,,,,,,,,,,,,
260853,1480802447143,0,180.6,,174.5,19,197.5,,-0.0,0.1,0.98,-3.2,0.5,0.2,960,0,0,1,0.0,0,38.159111,-122.454277,0.0,0.124,49.1,9,3,2.2,0,0.0,-1,0.0,0.0,0.0,0
260873,1480802447163,,,,,,,,-0.0,0.1,0.98,-3.2,0.5,0.2,960,0,,,,,,,,,,,,,,,,,,,
260893,1480802447183,,,,,,,,-0.0,0.11,0.98,-3.2,0.6,0.1,960,0,,,,,,,,,,,,,,,,,,,
260913,1480802447196,,,,,,,,0.0,0.11,0.98,-3.2,0.6,0.0,960,0,,,,,,,,,,,,,,,,,,,
260933,1480802447216,,,,,,,,0.0,0.12,0.98,-3.1,0.6,-0.0,960,0,,,,,,,,,,,,,,,,,,,
260953,1480802447236,,,,,17,,,0.0,0.11,0.98,-3.1,0.7,-0.1,960,0,0,1,0.0,0,38.159111,-122.454277,0.0,0.124,49.1,9,3,2.2,0,0.0,-1,0.0,,0.0,0
260973,1480802447256,,,,,,,,0.0,0.11,0.98,-3.1,0.6,-0.2,960,0,,,,,,,,,,,,,,,,,,,
260993,1480802447276,,,,,,,,0.0,0.11,0.98,-3.1,0.5,-0.3,960,0,,,,,,,,,,,,,,,,,,,
261013,1480802447307,,,,,,,,0.0,0.1,0.98,-3.1,0.5,-0.3,960,0,,,,,,,,,,,,,,,,,,,
261033,1480802447327,,,,,,,,0.0,0.09,0.98,-3.0,0.4,-0.4,960,0,,,,,,,,,,,,,,,,,,,
261053,1480802447347,0,181.5,5.2,174.8,19,196.9,14.15,-0.0,0.09,0.98,-3.0,0.3,-0.4,960,0,0,1,0.0,0,38.159111,-122.454277,0.0,0.124,49.1,9,3,2.2,0,0.0,-1,0.0,0.0,0.0,0
261073,1480802447367,,,,,,,,-0.0,0.08,0.98,-2.9,0.2,-0.5,960,0,,,,,,,,,,,,,,,,,,,
261093,1480802447387,,,,,,,,-0.01,0.08,0.98,-2.9,0.2,-0.5,960,0,,,,,,,,,,,,,,,,,,,
261113,1480802447400,,,,,,,,-0.01,0.07,0.98,-2.9,0.1,-0.5,960,0,,,,,,,,,,,,,,,,,,,
261133,1480802447420,,,,,,,,-0.02,0.06,0.98,-2.9,0.1,-0.5,960,0,,,,,,,,,,,,,,,,,,,
261153,1480802447440,,,,,20,,,-0.02,0.06,0.98,-3.0,0.1,-0.5,960,0,0,1,0.0,0,38.159111,-122.454277,0.0,0.124,49.1,9,3,2.2,0,0.0,-1,0.0,,0.0,0
261173,1480802447460,,,,,,,,-0.02,0.05,0.98,-3.0,0.1,-0.5,940,0,,,,,,,,,,,,,,,,,,,
261193,1480802447480,,,,,,,,-0.02,0.05,0.98,-3.0,0.2,-0.4,940,0,,,,,,,,,,,,,,,,,,,
261213,1480802447493,,,,,,,,-0.02,0.05,0.97,-3.1,0.3,-0.4,960,0,,,,,,,,,,,,,,,,,,,
261233,1480802447513,,,,,,,,-0.02,0.04,0.97,-3.1,0.4,-0.3,960,0,,,,,,,,,,,,,,,,,,,
261253,1480802447533,0,181.2,,175.3,20,198.2,,-0.01,0.04,0.97,-3.1,0.4,-0.3,940,0,0,1,0.0,0,38.159111,-122.454277,0.0,0.124,49.1,9,3,2.2,0,0.0,-1,0.0,0.0,0.0,0
261273,1480802447553,,,,,,,,-0.01,0.04,0.97,-3.1,0.4,-0.2,960,0,,,,,,,,,,,,,,,,,,,
261293,1480802447573,,,,,,,,-0.01,0.05,0.97,-3.1,0.4,-0.1,940,0,,,,,,,,,,,,,,,,,,,
261313,1480802447605,,,,,,,,-0.0,0.06,0.97,-3.2,0.3,0.0,940,0,,,,,,,,,,,,,,,,,,,
261333,1480802447625,,,,,,,,-0.0,0.07,0.97,-3.2,0.3,0.1,960,0,,,,,,,,,,,,,,,,,,,
261353,1480802447645,,,,,23,,,-0.0,0.08,0.97,-3.2,0.3,0.1,960,0,0,1,0.0,0,38.159111,-122.454277,0.0,0.124,49.1,9,3,2.2,0,0.0,-1,0.0,,0.0,0
261373,1480802447665,,,,,,,,-0.0,0.08,0.97,-3.2,0.3,0.2,960,0,,,,,,,,,,,,,,,,,,,
261393,1480802447685,,,,,,,,-0.0,0.09,0.97,-3.2,0.4,0.2,960,0,,,,,,,,,,,,,,,,,,,
261413,1480802447796,,,,,,,,-0.0,0.09,0.97,-3.2,0.4,0.2,940,0,,,,,,,,,,,,,,,,,,,
261433,1480802447816,,,,,,,,-0.0,0.1,0.97,-3.2,0.4,0.1,940,0,,,,,,,,,,,,,,,,,,,
261453,1480802447836,0,180.4,,174.8,21,197.0,,-0.0,0.11,0.97,-3.2,0.5,0.1,940,0,0,1,0.0,0,38.159111,-122.454277,0.0,0.124,49.1,9,3,2.0,0,0.0,-1,0.0,0.0,0.0,0
261473,1480802447856,,,,,,,,-0.0,0.1,0.97,-3.2,0.5,-0.0,940,0,,,,,,,,,,,,,,,,,,,
261493,1480802447876,,,,,,,,0.0,0.1,0.97,-3.2,0.6,-0.1,940,0,,,,,,,,,,,,,,,,,,,
261513,1480802447896,,,,,,,,-0.0,0.09,0.97,-3.1,0.5,-0.2,940,0,,,,,,,,,,,,,,,,,,,
261533,1480802447916,,,,,,,,-0.0,0.09,0.97,-3.1,0.4,-0.3,940,0,,,,,,,,,,,,,,,,,,,
261553,1480802447936,,,,,20,,,-0.01,0.09,0.97,-3.1,0.4,-0.3,940,0,0,1,0.0,0,38.159111,-122.454277,0.0,0.124,49.1,9,3,2.0,0,0.0,-1,0.0,,0.0,0
261573,1480802447956,,,,,,,,-0.01,0.08,0.97,-3.0,0.1,-0.4,940,0,,,,,,,,,,,,,,,,,,,
261593,1480802447976,,,,,,,,-0.01,0.08,0.97,-3.0,0.1,-0.5,940,0,,,,,,,,,,,,,,,,,,,
261613,1480802447896,,,,,,,,-0.01,0.07,0.97,-3.0,0.0,-0.5,940,0,,,,,,,,,,,,,,,,,,,
261633,1480802447916,,,,,,,,-0.02,0.06,0.97,-3.0,0.1,-0.5,940,0,,,,,,,,,,,,,,,,,,,
261653,1480802447936,0,181.2,,175.5,20,197.9,,-0.02,0.05,0.97,-3.0,0.1,-0.5,940,0,0,1,0.0,0,38.159111,-122.454277,0.0,0.124,49.1,9,3,2.0,0,0.0,-1,0.0,0.0,0.0,0
261673,1480802447956,,,,,,,,-0.02,0.05,0.97,-3.0,0.1,-0.4,940,0,,,,,,,,,,,,,,,,,,,
261693,1480802447976,,,,,,,,-0.01,0.06,0.97,-3.0,0.2,-0.3,940,0,,,,,,,,,,,,,,,,,,,
261713,1480802448010,,,,,,,,-0.01,0.05,0.97,-3.1,0.3,-0.2,940,0,,,,,,,,,,,,,,,,,,,
261733,1480802448030,,,,,,,,-0.01,0.06,0.97,-3.1,0.3,-0.1,940,0,,,,,,,,,,,,,,,,,,,
261753,1480802448050,,,,,19,,,-0.0,0.07,0.97,-3.2,0.3,-0.0,940,0,0,1,0.0,0,38.159111,-122.454277,0.0,0.124,49.1,9,3,2.0,0,0.0,-1,0.0,,0.0,0
261773,1480802448070,,,,,,,,-0.0,0.08,0.97,-3.2,0.3,0.1,940,0,,,,,,,,,,,,,,,,,,,
261793,1480802448090,,,,,,,,-0.01,0.09,0.97,-3.2,0.3,0.1,940,0,,,,,,,,,,,,,,,,,,,
261813,1480802448098,,,,,,,,-0.0,0.09,0.97,-3.2,0.3,0.1,940,0,,,,,,,,,,,,,,,,,,,
261833,1480802448118,,,,,,,,-0.01,0.1,0.97,-3.2,0.4,0.2,940,0,,,,,,,,,,,,,,,,,,,
261853,1480802448138,0,180.4,,175.3,19,197.5,,-0.01,0.1,0.97,-3.2,0.5,0.1,940,0,0,1,0.0,0,38.159111,-122.454277,0.0,0.124,49.1,9,3,2.0,0,0.0,-1,0.0,0.0,0.0,0
261873,1480802448158,,,,,,,,-0.0,0.1,0.97,-3.2,0.5,0.0,940,0,,,,,,,,,,,,,,,,,,,
261893,1480802448178,,,,,,,,-0.0,0.1,0.97,-3.1,0.6,-0.0,940,0,,,,,,,,,,,,,,,,,,,
261913,1480802448192,,,,,,,,-0.0,0.1,0.97,-3.1,0.6,-0.1,940,0,,,,,,,,,,,,,,,,,,,
261933,1480802448212,,,,,,,,-0.0,0.1,0.97,-3.1,0.5,-0.2,940,0,,,,,,,,,,,,,,,,,,,
261953,1480802448232,,,,,20,,,-0.0,0.1,0.97,-3.0,0.5,-0.3,940,0,0,1,0.0,0,38.159111,-122.454277,0.0,0.124,49.1,9,3,2.0,0,0.0,-1,0.0,,0.0,0
261973,1480802448252,,,,,,,,-0.0,0.1,0.97,-3.0,0.4,-0.4,960,0,,,,,,,,,,,,,,,,,,,
261993,1480802448272,,,,,,,,-0.01,0.09,0.97,-3.0,0.3,-0.4,960,0,,,,,,,,,,,,,,,,,,,
262013,1480802448299,,,,,,,,-0.01,0.08,0.98,-3.0,0.2,-0.5,940,0,,,,,,,,,,,,,,,,,,,
262033,1480802448319,,,,,,,,-0.01,0.07,0.98,-3.0,0.2,-0.5,960,0,,,,,,,,,,,,,,,,,,,
262053,1480802448339,0,181.2,5.1,175.0,20,196.7,14.12,-0.01,0.07,0.98,-3.0,0.1,-0.5,940,0,0,1,0.0,0,38.159111,-122.454277,0.0,0.124,49.1,9,3,2.0,0,0.0,-1,0.0,0.0,0.0,0
262073,1480802448359,,,,,,,,-0.02,0.06,0.98,-3.0,0.1,-0.5,940,0,,,,,,,,,,,,,,,,,,,
262093,1480802448379,,,,,,,,-0.02,0.05,0.97,-3.0,0.2,-0.5,960,0,,,,,,,,,,,,,,,,,,,
262113,1480802448393,,,,,,,,-0.02,0.05,0.98,-3.0,0.3,-0.4,960,0,,,,,,,,,,,,,,,,,,,
262133,1480802448413,,,,,,,,-0.02,0.04,0.97,-3.0,0.4,-0.4,960,0,,,,,,,,,,,,,,,,,,,
262153,1480802448433,,,,,21,,,-0.02,0.04,0.97,-3.0,0.4,-0.3,940,0,0,1,0.0,0,38.159111,-122.454277,0.0,0.124,49.1,9,3,2.0,0,0.0,-1,0.0,,0.0,0
262173,1480802448453,,,,,,,,-0.01,0.04,0.97,-3.0,0.5,-0.2,940,0,,,,,,,,,,,,,,,,,,,
262193,1480802448473,,,,,,,,-0.01,0.05,0.97,-3.1,0.4,-0.1,960,0,,,,,,,,,,,,,,,,,,,
262213,1480802448599,,,,,,,,-0.01,0.06,0.97,-3.1,0.5,-0.0,960,0,,,,,,,,,,,,,,,,,,,
262233,1480802448619,,,,,,,,-0.01,0.07,0.97,-3.1,0.4,0.1,960,0,,,,,,,,,,,,,,,,,,,
262253,1480802448639,0,179.9,,174.8,19,196.4,,-0.0,0.08,0.97,-3.2,0.4,0.1,960,0,0,1,0.0,0,38.159111,-122.454277,0.0,0.124,49.1,9,3,2.0,0,0.0,-1,0.0,0.0,0.0,0
262273,1480802448659,,,,,,,,-0.01,0.09,0.97,-3.2,0.4,0.2,960,0,,,,,,,,,,,,,,,,,,,
262293,1480802448679,,,,,,,,-0.01,0.1,0.97,-3.2,0.4,0.1,960,0,,,,,,,,,,,,,,,,,,,
262313,1480802448699,,,,,,,,-0.01,0.1,0.97,-3.2,0.5,0.1,940,0,,,,,,,,,,,,,,,,,,,
262333,1480802448719,,,,,,,,-0.01,0.1,0.97,-3.2,0.6,0.1,940,0,,,,,,,,,,,,,,,,,,,
