"Interval"|"ms"|0|0|1,"Utc"|"ms"|0|0|1,"FuelLevel"|"F"|0|100|5,"OilTemp"|"F"|0.0|300.0|5,"CoolantPressPSI"|"PSI"|0.0|20.0|1,"Coolant"|"F"|0.0|300.0|5,"OilPress"|"PSI"|0|150|10,"EngineTemp"|"F"|0.0|300.0|5,"Battery"|"Volts"|0.0|20.0|1,"AccelX"|"G"|-3.0|3.0|50,"AccelY"|"G"|-3.0|3.0|50,"AccelZ"|"G"|-3.0|3.0|50,"Yaw"|"Deg/Sec"|-300.0|300.0|50,"Pitch"|"Deg/Sec"|-300.0|300.0|50,"Roll"|"Deg/Sec"|-300.0|300.0|50,"RPM"|""|0|10000|50,"Driveshaft"|"RPM"|0|5000|50,"GPIO1"|""|0|1|10,"GPIO2"|""|0|1|10,"GearRatio"|""|-5.0|5.0|10,"Gear"|""|-1|5|10,"Latitude"|"Degrees"|-180.0|180.0|10,"Longitude"|"Degrees"|-180.0|180.0|10,"Speed"|"MPH"|0.0|150.0|10,"Distance"|"Miles"|0.0|0.0|10,"Altitude"|"Feet"|0.0|4000.0|10,"GPSSats"|""|0|20|10,"GPSQual"|""|0|5|10,"GPSDOP"|""|0.0|20.0|10,"LapCount"|""|0|0|10,"LapTime"|"Min"|0.0|0.0|10,"Sector"|""|0|0|10,"SectorTime"|"Min"|0.0|0.0|10,"PredTime"|"Min"|0.0|0.0|5,"ElapsedTime"|"Min"|0.0|0.0|10,"CurrentLap"|""|0|0|10
10234556,1480795229111,,,,,,,,0.01,0.09,1.01,-3.1,1.0,0.2,420,0,,,,,,,,,,,,,,,,,,,
10234576,1480795229131,,,,,,,,0.01,0.08,1.01,-3.1,1.0,0.0,420,0,,,,,,,,,,,,,,,,,,,
10234596,1480795229151,,,,,,,,0.0,0.08,1.0,-3.1,1.0,0.1,580,0,,,,,,,,,,,,,,,,,,,
10234616,1480795229171,,,,,,,,0.01,0.09,1.02,-3.2,1.1,0.2,720,0,,,,,,,,,,,,,,,,,,,
10234638,1480795229293,0,196.5,,184.2,0,210.6,,-0.0,0.09,1.02,-3.1,0.8,0.1,820,0,0,0,0.0,0,38.15863,-122.453033,0.0,2.368,39.2,9,3,1.8,36,2.3567,2,0.1433,2.5964,5.0133,37
10234657,1480795229312,,,,,,,,0.0,0.09,1.02,-3.1,0.8,-0.1,920,0,,,,,,,,,,,,,,,,,,,
10234677,1480795229332,,,,,,,,-0.0,0.09,1.01,-3.0,0.8,-0.3,1000,0,,,,,,,,,,,,,,,,,,,
10234697,1480795229352,,,,,,,,-0.0,0.09,1.01,-3.0,1.0,-0.3,1060,0,,,,,,,,,,,,,,,,,,,
10234717,1480795229372,,,,,,,,-0.01,0.08,1.02,-3.1,1.1,-0.2,1080,0,,,,,,,,,,,,,,,,,,,
10234737,1480795229392,,,,,2,,,-0.01,0.08,1.02,-3.1,0.9,-0.2,1080,0,0,0,0.0,0,38.15863,-122.453033,0.0,2.368,39.2,9,3,1.8,36,2.3567,2,0.1433,,5.0133,37
10234757,1480795229412,,,,,,,,-0.01,0.1,1.0,-3.1,0.5,-0.0,1120,0,,,,,,,,,,,,,,,,,,,
10234777,1480795229432,,,,,,,,0.01,0.1,1.0,-3.1,0.8,0.0,1200,0,,,,,,,,,,,,,,,,,,,
10234797,1480795229452,,,,,,,,0.01,0.09,1.0,-3.1,0.9,-0.0,1240,0,,,,,,,,,,,,,,,,,,,
10234817,1480795229472,,,,,,,,0.01,0.1,0.99,-3.0,0.6,-0.0,1240,0,,,,,,,,,,,,,,,,,,,
10234839,1480795229394,0,196.4,,184.6,6,210.8,,0.01,0.09,1.0,-3.1,0.7,-0.1,1260,32,0,0,0.0,0,38.15863,-122.453033,0.0,2.368,39.2,9,3,1.8,36,2.3567,2,0.1433,2.5964,5.015,37
10234858,1480795229413,,,,,,,,0.02,0.09,0.99,-3.0,0.8,-0.1,1300,1538461,,,,,,,,,,,,,,,,,,,
10234878,1480795229433,,,,,,,,0.01,0.08,1.0,-3.1,0.7,-0.1,1500,0,,,,,,,,,,,,,,,,,,,
10234898,1480795229453,,,,,,,,0.02,0.09,1.02,-3.1,0.7,0.1,1380,0,,,,,,,,,,,,,,,,,,,
10234918,1480795229473,,,,,,,,0.02,0.09,1.01,-3.1,0.9,0.0,1420,0,,,,,,,,,,,,,,,,,,,
10234938,1480795229493,,,,,10,,,0.01,0.11,1.0,-3.1,0.7,-0.0,1480,0,0,1,40.0,0,38.15863,-122.453033,0.0,2.368,39.2,9,3,1.8,36,2.3567,2,0.1433,,5.0167,37
10234958,1480795229513,,,,,,,,0.02,0.1,0.99,-3.1,0.8,-0.0,1540,0,,,,,,,,,,,,,,,,,,,
10234978,1480795229533,,,,,,,,0.0,0.09,0.98,-3.2,0.6,-0.0,1580,0,,,,,,,,,,,,,,,,,,,
10234998,1480795229553,,,,,,,,0.01,0.09,0.99,-3.2,0.7,-0.1,1600,0,,,,,,,,,,,,,,,,,,,
10235018,1480795229573,,,,,,,,0.0,0.08,1.0,-3.3,0.8,-0.0,1640,0,,,,,,,,,,,,,,,,,,,
10235040,1480795229595,0,196.4,,184.7,20,210.8,,0.02,0.07,1.01,-3.3,0.8,0.1,1680,0,0,1,0.0,0,38.15863,-122.453033,0.0,2.368,39.2,9,3,1.8,36,2.3567,2,0.1433,2.5964,5.0183,37
10235059,1480795229614,,,,,,,,0.01,0.1,0.99,-3.2,0.7,0.1,1680,0,,,,,,,,,,,,,,,,,,,
10235079,1480795229634,,,,,,,,0.01,0.08,1.0,-3.3,0.6,0.0,1720,0,,,,,,,,,,,,,,,,,,,
10235099,1480795229654,,,,,,,,0.01,0.08,0.99,-3.3,0.8,0.1,1740,0,,,,,,,,,,,,,,,,,,,
10235119,1480795229674,,,,,,,,0.02,0.09,1.0,-3.3,0.6,0.0,1760,0,,,,,,,,,,,,,,,,,,,
10235139,1480795229694,,,,,23,,,0.01,0.08,1.0,-3.2,0.6,0.1,1720,0,0,1,0.0,0,38.15863,-122.453033,0.0,2.368,39.2,9,3,1.8,36,2.3567,2,0.1433,,5.02,37
10235159,1480795229714,,,,,,,,0.01,0.09,1.0,-3.2,0.7,0.1,1780,0,,,,,,,,,,,,,,,,,,,
10235179,1480795229734,,,,,,,,0.01,0.08,1.0,-3.1,0.7,0.0,1780,0,,,,,,,,,,,,,,,,,,,
10235199,1480795229754,,,,,,,,0.02,0.08,1.0,-3.1,0.6,0.0,1720,0,,,,,,,,,,,,,,,,,,,
10235219,1480795229774,,,,,,,,0.02,0.08,1.0,-3.1,0.7,0.0,1780,0,,,,,,,,,,,,,,,,,,,
10235241,1480795229796,0,196.4,,183.9,26,209.5,,0.02,0.1,1.0,-3.1,0.7,0.0,1740,0,0,1,0.0,0,38.15863,-122.453033,0.0,2.368,39.2,9,3,1.8,36,2.3567,2,0.1433,2.5964,5.0217,37
10235260,1480795229815,,,,,,,,0.02,0.1,1.0,-3.2,0.6,-0.0,1720,0,,,,,,,,,,,,,,,,,,,
10235280,1480795229835,,,,,,,,0.02,0.08,1.0,-3.1,0.6,-0.1,1740,0,,,,,,,,,,,,,,,,,,,
10235300,1480795229855,,,,,,,,0.02,0.08,1.0,-3.1,0.7,-0.0,1720,0,,,,,,,,,,,,,,,,,,,
10235320,1480795229875,,,,,,,,0.02,0.09,1.0,-3.1,0.7,-0.0,1720,0,,,,,,,,,,,,,,,,,,,
10235340,1480795229895,,,,,27,,,0.02,0.09,1.0,-3.1,0.6,-0.0,1680,0,0,1,0.0,0,38.15863,-122.453033,0.0,2.368,39.2,9,3,1.8,36,2.3567,2,0.1433,,5.0217,37
10235360,1480795229907,,,,,,,,0.02,0.07,1.01,-3.1,0.7,-0.0,1640,0,,,,,,,,,,,,,,,,,,,
10235380,1480795229927,,,,,,,,0.02,0.08,1.0,-3.1,0.7,0.0,1620,0,,,,,,,,,,,,,,,,,,,
10235400,1480795229947,,,,,,,,0.02,0.08,1.0,-3.1,0.7,-0.0,1620,0,,,,,,,,,,,,,,,,,,,
10235420,1480795229967,,,,,,,,0.02,0.09,1.01,-3.1,0.6,0.0,1580,0,,,,,,,,,,,,,,,,,,,
10235442,1480795230096,0,196.0,11.5,184.6,28,210.7,14.28,0.02,0.07,1.01,-3.1,0.9,0.0,1580,0,0,1,0.0,0,38.15863,-122.453033,0.0,2.368,39.2,9,3,1.8,36,2.3567,2,0.1433,2.5964,5.0267,37
10235461,1480795230115,,,,,,,,0.03,0.08,1.0,-3.1,0.9,0.0,1560,0,,,,,,,,,,,,,,,,,,,
10235481,1480795230135,,,,,,,,0.02,0.08,1.0,-3.1,0.6,0.1,1520,0,,,,,,,,,,,,,,,,,,,
10235501,1480795230155,,,,,,,,0.02,0.08,0.99,-3.1,0.8,0.0,1500,0,,,,,,,,,,,,,,,,,,,
10235521,1480795230175,,,,,,,,0.02,0.08,1.0,-3.2,0.7,0.1,1500,0,,,,,,,,,,,,,,,,,,,
10235541,1480795230195,,,,,25,,,0.02,0.08,0.99,-3.2,0.7,0.1,1480,0,0,1,0.0,0,38.15863,-122.453033,0.0,2.368,39.2,9,3,1.8,36,2.3567,2,0.1433,,5.0267,37
10235561,1480795230215,,,,,,,,0.02,0.09,0.99,-3.2,0.7,0.0,1440,0,,,,,,,,,,,,,,,,,,,
10235581,1480795230235,,,,,,,,0.02,0.08,0.99,-3.3,0.8,0.1,1440,0,,,,,,,,,,,,,,,,,,,
10235601,1480795230255,,,,,,,,0.01,0.09,0.99,-3.3,0.8,0.1,1420,0,,,,,,,,,,,,,,,,,,,
10235621,1480795230275,,,,,,,,0.02,0.08,0.99,-3.3,0.7,0.1,1380,0,,,,,,,,,,,,,,,,,,,
10235643,1480795230198,0,195.3,,183.8,23,210.0,,0.02,0.08,0.99,-3.3,0.8,0.1,1340,0,0,1,0.0,0,38.15863,-122.453033,0.0,2.368,39.2,9,3,1.8,36,2.3567,2,0.1433,2.5964,5.0283,37
10235662,1480795230217,,,,,,,,0.02,0.08,0.99,-3.3,0.7,0.1,1360,0,,,,,,,,,,,,,,,,,,,
10235682,1480795230237,,,,,,,,0.02,0.08,0.99,-3.3,0.8,0.0,1320,0,,,,,,,,,,,,,,,,,,,
10235702,1480795230257,,,,,,,,0.02,0.08,0.99,-3.2,0.7,0.0,1300,0,,,,,,,,,,,,,,,,,,,
10235722,1480795230277,,,,,,,,0.02,0.08,0.99,-3.2,0.8,0.0,1300,0,,,,,,,,,,,,,,,,,,,
10235742,1480795230297,,,,,19,,,0.03,0.08,1.0,-3.2,0.8,0.0,1280,0,0,1,0.0,0,38.15863,-122.453033,0.0,2.368,39.2,9,3,1.8,36,2.3567,2,0.1433,,5.03,37
10235762,1480795230317,,,,,,,,0.02,0.08,0.99,-3.2,0.9,0.0,1260,0,,,,,,,,,,,,,,,,,,,
10235782,1480795230337,,,,,,,,0.02,0.08,1.0,-3.2,0.8,0.1,1240,0,,,,,,,,,,,,,,,,,,,
10235802,1480795230357,,,,,,,,0.02,0.08,1.0,-3.2,0.8,0.0,1220,0,,,,,,,,,,,,,,,,,,,
10235822,1480795230377,,,,,,,,0.02,0.08,1.0,-3.1,0.9,0.0,1220,0,,,,,,,,,,,,,,,,,,,
10235844,1480795230399,0,195.7,,184.4,19,210.2,,0.02,0.08,0.99,-3.1,0.8,0.0,1200,0,0,1,0.0,0,38.15863,-122.453033,0.0,2.368,39.2,9,3,1.8,36,2.3567,2,0.1433,2.5964,5.0317,37
10235863,1480795230418,,,,,,,,0.02,0.08,1.0,-3.1,0.8,0.0,1180,0,,,,,,,,,,,,,,,,,,,
10235883,1480795230438,,,,,,,,0.02,0.07,1.0,-3.1,0.8,0.0,1180,0,,,,,,,,,,,,,,,,,,,
10235903,1480795230458,,,,,,,,0.02,0.08,0.99,-3.1,0.7,0.0,1160,0,,,,,,,,,,,,,,,,,,,
10235923,1480795230478,,,,,,,,0.02,0.07,0.99,-3.1,0.7,-0.0,1160,0,,,,,,,,,,,,,,,,,,,
10235943,1480795230495,,,,,18,,,0.02,0.07,1.0,-3.1,0.7,0.0,1140,0,0,1,0.0,0,38.15863,-122.453033,0.0,2.368,39.2,9,3,1.8,36,2.3567,2,0.1433,,5.0333,37
10235963,1480795230515,,,,,,,,0.02,0.08,1.0,-3.1,0.7,0.0,1120,0,,,,,,,,,,,,,,,,,,,
10235983,1480795230535,,,,,,,,0.02,0.07,1.0,-3.1,0.8,0.0,1100,0,,,,,,,,,,,,,,,,,,,
10236003,1480795230555,,,,,,,,0.02,0.08,0.99,-3.1,0.7,0.0,1100,0,,,,,,,,,,,,,,,,,,,
10236023,1480795230575,,,,,,,,0.02,0.08,0.99,-3.1,0.7,0.0,1100,0,,,,,,,,,,,,,,,,,,,
10236045,1480795230600,0,195.1,,183.7,16,209.6,,0.02,0.08,0.99,-3.1,0.8,0.0,1080,0,0,1,0.0,0,38.15863,-122.453033,0.0,2.368,39.2,9,3,1.8,36,2.3567,2,0.1433,2.5964,5.035,37
10236064,1480795230619,,,,,,,,0.02,0.08,1.0,-3.1,0.8,0.0,1060,0,,,,,,,,,,,,,,,,,,,
10236084,1480795230639,,,,,,,,0.02,0.08,1.0,-3.1,0.7,-0.0,1060,0,,,,,,,,,,,,,,,,,,,
10236104,1480795230659,,,,,,,,0.02,0.08,1.0,-3.1,0.7,-0.0,1040,0,,,,,,,,,,,,,,,,,,,
10236124,1480795230679,,,,,,,,0.02,0.08,1.0,-3.1,0.7,-0.1,1040,0,,,,,,,,,,,,,,,,,,,
10236144,1480795230699,,,,,16,,,0.02,0.08,1.0,-3.1,0.7,-0.0,1040,0,0,1,0.0,0,38.15863,-122.453033,0.0,2.368,39.2,9,3,1.8,36,2.3567,2,0.1433,,5.0367,37
10236164,1480795230719,,,,,,,,0.02,0.08,1.0,-3.1,0.7,-0.1,1020,0,,,,,,,,,,,,,,,,,,,
10236184,1480795230739,,,,,,,,0.02,0.08,1.0,-3.1,0.7,-0.1,1000,0,,,,,,,,,,,,,,,,,,,
10236204,1480795230759,,,,,,,,0.02,0.08,0.99,-3.1,0.7,-0.0,1000,0,,,,,,,,,,,,,,,,,,,
10236224,1480795230779,,,,,,,,0.02,0.08,0.99,-3.1,0.7,-0.0,980,0,,,,,,,,,,,,,,,,,,,
10236246,1480795230900,0,196.0,,184.4,14,209.3,,0.02,0.08,0.99,-3.1,0.7,-0.1,980,0,0,1,0.0,0,38.15863,-122.453033,0.0,2.368,39.2,9,3,1.8,36,2.3567,2,0.1433,2.5964,5.04,37
10236265,1480795230919,,,,,,,,0.02,0.08,0.99,-3.1,0.8,-0.0,960,0,,,,,,,,,,,,,,,,,,,
10236285,1480795230939,,,,,,,,0.02,0.08,0.99,-3.1,0.8,-0.1,960,0,,,,,,,,,,,,,,,,,,,
10236305,1480795230959,,,,,,,,0.02,0.08,0.99,-3.1,0.8,-0.1,940,0,,,,,,,,,,,,,,,,,,,
10236325,1480795230979,,,,,,,,0.02,0.07,0.99,-3.1,0.8,-0.1,920,0,,,,,,,,,,,,,,,,,,,
10236345,1480795230999,,,,,14,,,0.02,0.07,0.99,-3.1,0.8,-0.1,920,0,0,1,0.0,0,38.15863,-122.453033,0.0,2.368,39.2,9,3,1.8,36,2.3567,2,0.1433,,5.04,37
10236365,1480795231019,,,,,,,,0.02,0.07,0.99,-3.1,0.8,-0.1,920,0,,,,,,,,,,,,,,,,,,,
10236385,1480795231039,,,,,,,,0.02,0.07,0.98,-3.1,0.8,-0.1,900,0,,,,,,,,,,,,,,,,,,,
10236405,1480795231059,,,,,,,,0.01,0.07,0.98,-3.1,0.7,-0.1,900,0,,,,,,,,,,,,,,,,,,,
10236425,1480795231079,,,,,,,,0.02,0.06,0.99,-3.1,0.8,-0.1,880,0,,,,,,,,,,,,,,,,,,,
10236447,1480795231001,0,195.6,10.0,184.3,13,209.2,14.29,0.02,0.07,0.99,-3.1,0.8,-0.0,880,0,0,1,0.0,0,38.15863,-122.453033,0.0,2.368,39.2,9,3,1.8,36,2.3567,2,0.1433,2.5964,5.0417,37
10236466,1480795231020,,,,,,,,0.02,0.07,0.99,-3.1,0.8,0.0,860,0,,,,,,,,,,,,,,,,,,,
10236486,1480795231040,,,,,,,,0.02,0.08,0.99,-3.1,0.8,0.1,860,0,,,,,,,,,,,,,,,,,,,
10236506,1480795231060,,,,,,,,0.02,0.08,0.99,-3.1,0.8,0.1,860,0,,,,,,,,,,,,,,,,,,,
10236526,1480795231080,,,,,,,,0.02,0.08,1.0,-3.1,0.8,0.1,840,0,,,,,,,,,,,,,,,,,,,
10236546,1480795231101,,,,,12,,,0.02,0.08,1.0,-3.1,0.8,0.0,840,0,0,1,0.0,0,38.15863,-122.453033,0.0,2.368,39.2,9,3,1.8,36,2.3567,2,0.1433,,5.0433,37
10236566,1480795231121,,,,,,,,0.02,0.08,0.99,-3.1,0.7,0.0,840,0,,,,,,,,,,,,,,,,,,,
10236586,1480795231141,,,,,,,,0.02,0.08,0.99,-3.1,0.8,0.0,840,0,,,,,,,,,,,,,,,,,,,
10236606,1480795231161,,,,,,,,0.02,0.08,0.99,-3.2,0.8,0.1,820,0,,,,,,,,,,,,,,,,,,,
10236626,1480795231181,,,,,,,,0.02,0.08,0.99,-3.2,0.8,0.1,820,0,,,,,,,,,,,,,,,,,,,
10236648,1480795231203,0,195.9,,185.5,12,210.4,,0.02,0.09,0.99,-3.2,0.8,0.2,820,0,0,1,0.0,0,38.15863,-122.453033,0.0,2.368,39.2,9,3,1.8,36,2.3567,2,0.1433,2.5964,5.045,37
10236667,1480795231222,,,,,,,,0.02,0.08,0.99,-3.2,0.7,0.1,800,0,,,,,,,,,,,,,,,,,,,
10236687,1480795231242,,,,,,,,0.02,0.08,0.99,-3.1,0.7,0.0,800,0,,,,,,,,,,,,,,,,,,,
10236707,1480795231262,,,,,,,,0.02,0.08,0.99,-3.1,0.8,0.0,800,0,,,,,,,,,,,,,,,,,,,
10236727,1480795231282,,,,,,,,0.02,0.08,0.99,-3.2,0.7,0.1,800,0,,,,,,,,,,,,,,,,,,,
10236747,1480795231302,,,,,11,,,0.02,0.08,1.0,-3.2,0.7,0.1,800,0,0,1,0.0,0,38.15863,-122.453033,0.0,2.368,39.2,9,3,1.8,36,2.3567,2,0.1433,,5.0467,37
10236767,1480795231322,,,,,,,,0.02,0.08,1.0,-3.1,0.7,0.1,800,0,,,,,,,,,,,,,,,,,,,
10236787,1480795231342,,,,,,,,0.02,0.08,0.99,-3.1,0.7,-0.0,800,0,,,,,,,,,,,,,,,,,,,
10236807,1480795231362,,,,,,,,0.02,0.08,0.99,-3.1,0.8,-0.0,800,0,,,,,,,,,,,,,,,,,,,
10236827,1480795231382,,,,,,,,0.02,0.08,1.0,-3.1,0.8,0.0,780,0,,,,,,,,,,,,,,,,,,,
10236849,1480795231404,0,195.1,,185.0,10,209.4,,0.02,0.08,1.0,-3.2,0.8,0.1,780,0,0,1,0.0,0,38.15863,-122.453033,0.0,2.368,39.2,9,3,1.8,36,2.3567,2,0.1433,2.5964,5.0483,37
10236868,1480795231423,,,,,,,,0.02,0.08,1.0,-3.1,0.7,0.0,780,0,,,,,,,,,,,,,,,,,,,
10236888,1480795231443,,,,,,,,0.02,0.08,0.99,-3.1,0.7,-0.0,780,0,,,,,,,,,,,,,,,,,,,
10236908,1480795231463,,,,,,,,0.02,0.08,0.99,-3.1,0.7,-0.0,780,0,,,,,,,,,,,,,,,,,,,
10236928,1480795231483,,,,,,,,0.02,0.08,0.99,-3.2,0.7,0.1,760,0,,,,,,,,,,,,,,,,,,,
10236948,1480795231503,,,,,10,,,0.02,0.08,1.0,-3.2,0.8,0.1,780,0,0,1,0.0,0,38.15863,-122.453033,0.0,2.368,39.2,9,3,1.8,36,2.3567,2,0.1433,,5.05,37
10236968,1480795231523,,,,,,,,0.02,0.08,1.0,-3.1,0.7,-0.0,780,0,,,,,,,,,,,,,,,,,,,
10236988,1480795231543,,,,,,,,0.02,0.07,1.0,-3.1,0.7,-0.1,760,0,,,,,,,,,,,,,,,,,,,
10237008,1480795231563,,,,,,,,0.02,0.08,0.99,-3.1,0.8,-0.1,760,0,,,,,,,,,,,,,,,,,,,
10237028,1480795231583,,,,,,,,0.02,0.09,1.0,-3.1,0.7,0.0,760,0,,,,,,,,,,,,,,,,,,,
10237050,1480795231704,0,195.2,,185.5,12,209.7,,0.02,0.08,1.0,-3.1,0.7,0.0,760,0,0,1,0.0,0,38.15863,-122.453033,0.0,2.368,39.2,9,3,1.8,36,2.3567,2,0.1433,2.5964,5.0533,37
10237069,1480795231723,,,,,,,,0.02,0.08,0.99,-3.1,0.7,-0.1,760,0,,,,,,,,,,,,,,,,,,,
10237089,1480795231743,,,,,,,,0.02,0.08,0.99,-3.1,0.7,-0.1,760,0,,,,,,,,,,,,,,,,,,,
10237109,1480795231763,,,,,,,,0.02,0.08,0.99,-3.1,0.8,-0.0,760,0,,,,,,,,,,,,,,,,,,,
10237129,1480795231783,,,,,,,,0.02,0.08,1.0,-3.1,0.8,0.0,760,0,,,,,,,,,,,,,,,,,,,
10237149,1480795231803,,,,,10,,,0.02,0.08,1.0,-3.1,0.7,-0.0,760,0,0,1,0.0,0,38.15863,-122.453033,0.0,2.368,39.2,9,3,1.8,36,2.3567,2,0.1433,,5.0533,37
10237169,1480795231823,,,,,,,,0.02,0.07,0.99,-3.0,0.7,-0.1,760,0,,,,,,,,,,,,,,,,,,,
10237189,1480795231843,,,,,,,,0.02,0.08,0.99,-3.1,0.8,0.0,760,0,,,,,,,,,,,,,,,,,,,
10237209,1480795231863,,,,,,,,0.02,0.08,0.99,-3.1,0.7,0.1,760,0,,,,,,,,,,,,,,,,,,,
10237229,1480795231883,,,,,,,,0.02,0.08,1.0,-3.1,0.7,0.1,760,0,,,,,,,,,,,,,,,,,,,
10237251,1480795231806,0,195.4,,186.1,10,209.6,,0.02,0.08,0.99,-3.1,0.7,-0.0,760,0,0,1,0.0,0,38.15863,-122.453033,0.0,2.368,39.2,9,3,1.8,36,2.3567,2,0.1433,2.5964,5.055,37
10237270,1480795231825,,,,,,,,0.02,0.08,0.99,-3.1,0.7,-0.0,760,0,,,,,,,,,,,,,,,,,,,
10237290,1480795231845,,,,,,,,0.02,0.08,0.99,-3.1,0.8,0.0,760,0,,,,,,,,,,,,,,,,,,,
10237310,1480795231865,,,,,,,,0.02,0.08,0.99,-3.1,0.9,0.0,760,0,,,,,,,,,,,,,,,,,,,
10237330,1480795231885,,,,,,,,0.02,0.08,1.0,-3.1,0.8,-0.0,760,0,,,,,,,,,,,,,,,,,,,
10237350,1480795231897,,,,,10,,,0.02,0.08,0.99,-3.0,0.9,-0.1,760,0,0,1,0.0,0,38.15863,-122.453033,0.0,2.368,39.2,9,3,1.8,36,2.3567,2,0.1433,,5.0567,37
10237370,1480795231917,,,,,,,,0.02,0.08,0.99,-3.1,0.9,-0.0,760,0,,,,,,,,,,,,,,,,,,,
10237390,1480795231937,,,,,,,,0.02,0.08,1.0,-3.1,0.9,0.0,760,0,,,,,,,,,,,,,,,,,,,
10237410,1480795231957,,,,,,,,0.02,0.08,1.0,-3.1,0.8,0.0,760,0,,,,,,,,,,,,,,,,,,,
10237430,1480795231977,,,,,,,,0.02,0.07,0.99,-3.0,0.9,-0.1,760,0,,,,,,,,,,,,,,,,,,,
10237452,1480795232004,0,195.4,10.2,186.2,11,209.7,14.41,0.02,0.08,0.99,-3.1,0.8,-0.0,760,0,0,1,0.0,0,38.15863,-122.453033,0.0,2.368,39.2,9,3,1.8,36,2.3567,2,0.1433,2.5964,5.0583,37
10237471,1480795232023,,,,,,,,0.02,0.08,0.99,-3.1,0.8,0.0,760,0,,,,,,,,,,,,,,,,,,,
10237491,1480795232043,,,,,,,,0.02,0.08,1.0,-3.1,0.9,-0.0,760,0,,,,,,,,,,,,,,,,,,,
10237511,1480795232063,,,,,,,,0.02,0.08,1.0,-3.1,0.8,-0.1,760,0,,,,,,,,,,,,,,,,,,,
10237531,1480795232083,,,,,,,,0.02,0.07,0.99,-3.1,0.8,-0.1,760,0,,,,,,,,,,,,,,,,,,,
10237551,1480795232106,,,,,10,,,0.02,0.08,0.99,-3.1,0.9,-0.0,760,0,0,1,0.0,0,38.15863,-122.453033,0.0,2.368,39.2,9,3,1.8,36,2.3567,2,0.1433,,5.06,37
10237571,1480795232126,,,,,,,,0.02,0.08,1.0,-3.1,0.9,0.0,760,0,,,,,,,,,,,,,,,,,,,
10237591,1480795232146,,,,,,,,0.02,0.08,1.0,-3.1,0.8,0.0,760,0,,,,,,,,,,,,,,,,,,,
10237611,1480795232166,,,,,,,,0.02,0.07,1.0,-3.1,0.8,-0.1,760,0,,,,,,,,,,,,,,,,,,,
10237631,1480795232186,,,,,,,,0.02,0.08,0.99,-3.1,0.8,-0.0,760,0,,,,,,,,,,,,,,,,,,,
10237653,1480795232208,0,196.1,,186.5,11,208.7,,0.02,0.08,0.99,-3.1,0.7,0.0,760,0,0,1,0.0,0,38.15863,-122.453033,0.0,2.368,39.2,9,3,1.8,36,2.3567,2,0.1433,2.5964,5.0617,37
10237672,1480795232227,,,,,,,,0.02,0.09,1.0,-3.1,0.7,0.0,760,0,,,,,,,,,,,,,,,,,,,
10237692,1480795232247,,,,,,,,0.02,0.08,1.0,-3.1,0.6,-0.0,760,0,,,,,,,,,,,,,,,,,,,
10237712,1480795232267,,,,,,,,0.02,0.08,0.99,-3.1,0.7,-0.0,760,0,,,,,,,,,,,,,,,,,,,
10237732,1480795232287,,,,,,,,0.02,0.08,0.99,-3.1,0.8,0.0,760,0,,,,,,,,,,,,,,,,,,,
10237752,1480795232307,,,,,11,,,0.02,0.08,1.0,-3.1,0.8,0.1,760,0,0,1,0.0,0,38.15863,-122.453033,0.0,2.368,39.2,9,3,1.8,36,2.3567,2,0.1433,,5.0633,37
10237772,1480795232327,,,,,,,,0.02,0.08,1.0,-3.1,0.7,0.0,760,0,,,,,,,,,,,,,,,,,,,
10237792,1480795232347,,,,,,,,0.02,0.08,1.0,-3.0,0.7,-0.0,760,0,,,,,,,,,,,,,,,,,,,
10237812,1480795232367,,,,,,,,0.02,0.08,0.99,-3.1,0.8,-0.0,760,0,,,,,,,,,,,,,,,,,,,
10237832,1480795232387,,,,,,,,0.02,0.08,0.99,-3.1,0.7,0.0,760,0,,,,,,,,,,,,,,,,,,,
10237854,1480795232508,0,195.9,,187.0,11,209.5,,0.02,0.08,1.0,-3.1,0.7,0.0,760,0,0,1,0.0,0,38.15863,-122.453033,0.0,2.368,39.2,9,3,1.8,36,2.3567,2,0.1433,2.5964,5.0667,37
10237873,1480795232527,,,,,,,,0.02,0.08,1.0,-3.1,0.7,-0.1,760,0,,,,,,,,,,,,,,,,,,,
10237893,1480795232547,,,,,,,,0.02,0.08,0.99,-3.1,0.7,-0.1,760,0,,,,,,,,,,,,,,,,,,,
10237913,1480795232567,,,,,,,,0.02,0.08,0.99,-3.1,0.8,-0.0,760,0,,,,,,,,,,,,,,,,,,,
10237933,1480795232587,,,,,,,,0.02,0.08,1.0,-3.1,0.9,0.0,760,0,,,,,,,,,,,,,,,,,,,
10237953,1480795232607,,,,,10,,,0.02,0.08,1.0,-3.1,0.8,-0.0,760,0,0,1,0.0,0,38.15863,-122.453033,0.0,2.368,39.2,9,3,1.8,36,2.3567,2,0.1433,,5.0667,37
10237973,1480795232627,,,,,,,,0.02,0.08,1.0,-3.1,0.8,-0.0,760,0,,,,,,,,,,,,,,,,,,,
10237993,1480795232647,,,,,,,,0.02,0.08,0.99,-3.1,0.8,0.0,760,0,,,,,,,,,,,,,,,,,,,
10238013,1480795232667,,,,,,,,0.02,0.08,1.0,-3.1,0.7,0.1,760,0,,,,,,,,,,,,,,,,,,,
10238033,1480795232687,,,,,,,,0.02,0.08,1.0,-3.1,0.7,0.0,760,0,,,,,,,,,,,,,,,,,,,
10238055,1480795232610,0,194.9,,186.0,10,208.7,,0.02,0.08,0.99,-3.1,0.7,-0.0,760,0,0,1,0.0,0,38.15863,-122.453033,0.0,2.368,39.2,9,3,1.8,36,2.3567,2,0.1433,2.5964,5.0683,37
10238074,1480795232629,,,,,,,,0.02,0.08,0.99,-3.1,0.7,-0.1,760,0,,,,,,,,,,,,,,,,,,,
10238094,1480795232649,,,,,,,,0.02,0.08,0.99,-3.1,0.8,0.0,760,0,,,,,,,,,,,,,,,,,,,
10238114,1480795232669,,,,,,,,0.02,0.08,1.0,-3.1,0.8,0.1,760,0,,,,,,,,,,,,,,,,,,,
10238134,1480795232689,,,,,,,,0.02,0.08,1.0,-3.1,0.7,0.0,760,0,,,,,,,,,,,,,,,,,,,
10238154,1480795232709,,,,,10,,,0.02,0.08,0.99,-3.0,0.8,-0.0,760,0,0,1,0.0,0,38.15863,-122.453033,0.0,2.368,39.2,9,3,1.8,36,2.3567,2,0.1433,,5.07,37
10238174,1480795232729,,,,,,,,0.02,0.08,0.99,-3.0,0.9,0.0,760,0,,,,,,,,,,,,,,,,,,,
10238194,1480795232749,,,,,,,,0.02,0.08,1.0,-3.1,0.8,0.1,760,0,,,,,,,,,,,,,,,,,,,
10238214,1480795232769,,,,,,,,0.02,0.09,1.0,-3.1,0.8,0.1,760,0,,,,,,,,,,,,,,,,,,,
10238234,1480795232789,,,,,,,,0.02,0.09,1.0,-3.1,0.8,0.0,760,0,,,,,,,,,,,,,,,,,,,
10238256,1480795232811,0,195.9,,187.2,10,209.0,,0.02,0.09,0.99,-3.1,0.8,0.1,760,0,0,1,0.0,0,38.15863,-122.453033,0.0,2.368,39.2,9,3,1.8,36,2.3567,2,0.1433,2.5964,5.0717,37
10238275,1480795232830,,,,,,,,0.02,0.08,1.0,-3.1,0.9,0.1,760,0,,,,,,,,,,,,,,,,,,,
10238295,1480795232850,,,,,,,,0.02,0.08,1.0,-3.1,0.8,0.2,760,0,,,,,,,,,,,,,,,,,,,
10238315,1480795232870,,,,,,,,0.02,0.09,1.01,-3.1,0.7,0.1,760,0,,,,,,,,,,,,,,,,,,,
10238335,1480795232890,,,,,,,,0.02,0.08,1.0,-3.1,0.7,0.0,760,0,,,,,,,,,,,,,,,,,,,
10238355,1480795232901,,,,,9,,,0.02,0.08,0.99,-3.1,0.7,0.0,760,0,0,1,0.0,0,38.15863,-122.453033,0.0,2.368,39.2,9,3,1.8,36,2.3567,2,0.1433,,5.0733,37
10238375,1480795232921,,,,,,,,0.02,0.08,1.0,-3.1,0.7,0.1,760,0,,,,,,,,,,,,,,,,,,,
10238395,1480795232941,,,,,,,,0.02,0.08,1.0,-3.1,0.7,0.2,760,0,,,,,,,,,,,,,,,,,,,
10238415,1480795232961,,,,,,,,0.02,0.08,1.0,-3.1,0.7,0.1,760,0,,,,,,,,,,,,,,,,,,,
10238435,1480795232981,,,,,,,,0.02,0.08,0.99,-3.1,0.6,0.0,760,0,,,,,,,,,,,,,,,,,,,
10238457,1480795233012,0,196.0,9.8,186.2,10,207.9,14.46,0.02,0.08,0.99,-3.1,0.7,0.1,760,0,0,1,0.0,0,38.15863,-122.453033,0.0,2.368,39.2,9,3,1.8,36,2.3567,2,0.1433,2.5964,5.075,37
10238476,1480795233031,,,,,,,,0.02,0.08,1.0,-3.1,0.7,0.1,760,0,,,,,,,,,,,,,,,,,,,
10238496,1480795233051,,,,,,,,0.02,0.08,1.0,-3.1,0.6,0.1,760,0,,,,,,,,,,,,,,,,,,,
10238516,1480795233071,,,,,,,,0.02,0.07,1.0,-3.1,0.7,0.0,760,0,,,,,,,,,,,,,,,,,,,
10238536,1480795233091,,,,,,,,0.02,0.08,0.99,-3.1,0.7,0.0,760,0,,,,,,,,,,,,,,,,,,,
10238556,1480795233111,,,,,10,,,0.02,0.08,1.0,-3.1,0.6,0.1,760,0,0,1,0.0,0,38.15863,-122.453033,0.0,2.368,39.2,9,3,1.8,36,2.3567,2,0.1433,,5.0767,37
10238576,1480795233131,,,,,,,,0.02,0.08,1.0,-3.1,0.7,0.1,760,0,,,,,,,,,,,,,,,,,,,
10238596,1480795233151,,,,,,,,0.02,0.08,1.0,-3.1,0.6,-0.0,760,0,,,,,,,,,,,,,,,,,,,
10238616,1480795233171,,,,,,,,0.02,0.08,0.99,-3.1,0.6,-0.0,760,0,,,,,,,,,,,,,,,,,,,
10238636,1480795233291,,,,,,,,0.02,0.07,1.05,-3.2,-0.2,0.2,760,0,,,,,,,,,,,,,,,,,,,
10238658,1480795233313,0,194.8,,186.0,10,208.0,,-0.04,0.13,0.99,-3.1,0.7,0.5,760,0,0,1,0.0,0,38.15863,-122.453033,0.0,2.368,39.2,9,3,1.8,36,2.3567,2,0.1433,2.5964,5.08,37
10238677,1480795233332,,,,,,,,0.02,0.12,1.08,-3.1,-0.5,0.2,760,0,,,,,,,,,,,,,,,,,,,
10238697,1480795233352,,,,,,,,0.05,0.16,1.1,-3.0,0.1,0.3,760,0,,,,,,,,,,,,,,,,,,,
10238717,1480795233372,,,,,,,,0.02,0.22,1.09,-3.1,1.6,0.3,760,0,,,,,,,,,,,,,,,,,,,
10238737,1480795233392,,,,,,,,-0.0,0.2,1.07,-3.1,0.8,0.3,760,0,,,,,,,,,,,,,,,,,,,
10238757,1480795233412,,,,,11,,,0.02,0.21,1.08,-3.0,-0.1,0.2,760,0,0,1,0.0,0,38.15863,-122.453033,0.0,2.368,39.2,9,3,1.8,36,2.3567,2,0.1433,,5.08,37
10238777,1480795233432,,,,,,,,0.05,0.17,1.08,-3.1,0.0,0.1,760,0,,,,,,,,,,,,,,,,,,,
10238797,1480795233452,,,,,,,,0.04,0.17,1.07,-3.0,1.0,-0.0,760,0,,,,,,,,,,,,,,,,,,,
10238817,1480795233472,,,,,,,,0.03,0.18,1.07,-3.0,1.1,-0.0,760,0,,,,,,,,,,,,,,,,,,,
10238837,1480795233492,,,,,,,,0.03,0.17,1.07,-3.0,0.9,-0.0,760,0,,,,,,,,,,,,,,,,,,,
10238859,1480795233412,0,195.9,,187.3,11,208.6,,0.03,0.17,1.08,-3.0,0.6,-0.0,760,0,0,1,0.0,0,38.15863,-122.453033,0.0,2.368,39.2,9,3,1.8,36,2.3567,2,0.1433,2.5964,5.0817,37
10238878,1480795233431,,,,,,,,0.03,0.15,1.06,-3.0,0.6,-0.1,760,0,,,,,,,,,,,,,,,,,,,
10238898,1480795233451,,,,,,,,0.03,0.14,1.05,-3.0,0.8,0.0,760,0,,,,,,,,,,,,,,,,,,,
10238918,1480795233471,,,,,,,,0.03,0.14,1.05,-3.0,0.7,0.1,760,0,,,,,,,,,,,,,,,,,,,
10238938,1480795233493,,,,,,,,0.03,0.13,1.05,-3.0,0.6,0.1,760,0,,,,,,,,,,,,,,,,,,,
10238958,1480795233513,,,,,10,,,0.03,0.13,1.04,-3.0,0.7,0.1,780,0,0,1,0.0,0,38.15863,-122.453033,0.0,2.368,39.2,9,3,1.8,36,2.3567,2,0.1433,,5.0833,37
10238978,1480795233533,,,,,,,,0.03,0.12,1.03,-3.0,0.7,0.0,780,0,,,,,,,,,,,,,,,,,,,
10238998,1480795233553,,,,,,,,0.03,0.11,1.03,-3.0,0.8,0.1,780,0,,,,,,,,,,,,,,,,,,,
10239018,1480795233573,,,,,,,,0.02,0.11,1.03,-3.0,0.7,0.1,760,0,,,,,,,,,,,,,,,,,,,
10239038,1480795233593,,,,,,,,0.02,0.12,1.03,-3.0,0.6,0.1,780,0,,,,,,,,,,,,,,,,,,,
10239060,1480795233615,0,195.0,,186.2,10,207.8,,0.02,0.12,1.02,-3.0,0.6,0.0,780,0,0,1,0.0,0,38.15863,-122.453033,0.0,2.368,39.2,9,3,1.8,36,2.3567,2,0.1433,2.5964,5.085,37
10239079,1480795233634,,,,,,,,0.02,0.11,1.01,-3.1,0.6,0.0,780,0,,,,,,,,,,,,,,,,,,,
10239099,1480795233654,,,,,,,,0.02,0.11,1.02,-3.1,0.7,0.1,760,0,,,,,,,,,,,,,,,,,,,
10239119,1480795233674,,,,,,,,0.02,0.1,1.01,-3.1,0.8,0.1,780,0,,,,,,,,,,,,,,,,,,,
10239139,1480795233694,,,,,,,,0.02,0.09,1.01,-3.1,0.6,0.1,780,0,,,,,,,,,,,,,,,,,,,
10239159,1480795233714,,,,,10,,,0.02,0.09,1.01,-3.1,0.8,0.0,780,0,0,1,0.0,0,38.15863,-122.453033,0.0,2.368,39.2,9,3,1.8,36,2.3567,2,0.1433,,5.0867,37
10239179,1480795233734,,,,,,,,0.03,0.08,1.0,-3.1,0.8,0.0,780,0,,,,,,,,,,,,,,,,,,,
10239199,1480795233754,,,,,,,,0.02,0.09,1.01,-3.1,0.8,0.1,780,0,,,,,,,,,,,,,,,,,,,
10239219,1480795233774,,,,,,,,0.02,0.09,1.01,-3.1,0.7,0.1,780,0,,,,,,,,,,,,,,,,,,,
10239239,1480795233794,,,,,,,,0.02,0.09,1.0,-3.1,0.7,0.1,780,0,,,,,,,,,,,,,,,,,,,
10239261,1480795233816,0,195.9,,187.2,11,208.4,,0.02,0.08,1.0,-3.1,0.7,0.0,780,0,0,1,0.0,0,38.15863,-122.453033,0.0,2.368,39.2,9,3,1.8,36,2.3567,2,0.1433,2.5964,5.0883,37
10239280,1480795233835,,,,,,,,0.03,0.08,1.0,-3.1,0.7,0.1,780,0,,,,,,,,,,,,,,,,,,,
10239300,1480795233855,,,,,,,,0.02,0.09,1.0,-3.1,0.8,0.1,780,0,,,,,,,,,,,,,,,,,,,
10239320,1480795233875,,,,,,,,0.02,0.09,1.0,-3.1,0.6,0.1,780,0,,,,,,,,,,,,,,,,,,,
10239340,1480795233895,,,,,,,,0.02,0.09,1.0,-3.0,0.7,0.0,780,0,,,,,,,,,,,,,,,,,,,
10239360,1480795233907,,,,,11,,,0.02,0.09,0.99,-3.0,0.7,-0.0,780,0,0,1,0.0,0,38.15863,-122.453033,0.0,2.368,39.2,9,3,1.8,36,2.3567,2,0.1433,,5.09,37
10239380,1480795233927,,,,,,,,0.02,0.09,0.99,-3.1,0.8,0.0,780,0,,,,,,,,,,,,,,,,,,,
10239400,1480795233947,,,,,,,,0.02,0.09,1.0,-3.1,0.9,0.1,780,0,,,,,,,,,,,,,,,,,,,
10239420,1480795233967,,,,,,,,0.02,0.09,1.0,-3.1,0.7,0.0,780,0,,,,,,,,,,,,,,,,,,,
10239440,1480795234094,,,,,,,,0.02,0.09,1.0,-3.0,0.8,-0.0,780,0,,,,,,,,,,,,,,,,,,,
10239462,1480795234116,0,194.7,9.7,186.3,11,207.8,14.33,0.02,0.08,0.99,-3.1,0.8,-0.0,780,0,0,1,0.0,0,38.15863,-122.453033,0.0,2.368,39.2,9,3,1.8,36,2.3567,2,0.1433,2.5964,5.0933,37
10239481,1480795234135,,,,,,,,0.02,0.08,1.0,-3.1,0.8,0.0,780,0,,,,,,,,,,,,,,,,,,,
10239501,1480795234155,,,,,,,,0.02,0.08,1.0,-3.1,0.9,0.1,780,0,,,,,,,,,,,,,,,,,,,
10239521,1480795234175,,,,,,,,0.02,0.08,1.0,-3.1,0.7,0.1,780,0,,,,,,,,,,,,,,,,,,,
10239541,1480795234195,,,,,,,,0.02,0.08,1.0,-3.1,0.7,0.0,780,0,,,,,,,,,,,,,,,,,,,
10239561,1480795234215,,,,,11,,,0.02,0.08,0.99,-3.0,0.7,-0.0,780,0,0,1,0.0,0,38.15863,-122.453033,0.0,2.368,39.2,9,3,1.8,36,2.3567,2,0.1433,,5.0933,37
10239581,1480795234235,,,,,,,,0.02,0.08,0.99,-3.1,0.7,0.1,780,0,,,,,,,,,,,,,,,,,,,
10239601,1480795234255,,,,,,,,0.02,0.09,1.0,-3.1,0.8,0.1,780,0,,,,,,,,,,,,,,,,,,,
10239621,1480795234275,,,,,,,,0.02,0.08,1.0,-3.1,0.8,-0.0,780,0,,,,,,,,,,,,,,,,,,,
10239641,1480795234197,,,,,,,,0.02,0.08,0.99,-3.1,0.8,-0.1,780,0,,,,,,,,,,,,,,,,,,,
10239663,1480795234219,0,194.8,,186.0,10,207.3,,0.02,0.08,0.99,-3.1,0.8,-0.0,780,0,0,1,0.0,0,38.15863,-122.453033,0.0,2.368,39.2,9,3,1.8,36,2.3567,2,0.1433,2.5964,5.095,37
10239682,1480795234238,,,,,,,,0.02,0.08,1.0,-3.1,0.7,0.1,780,0,,,,,,,,,,,,,,,,,,,
10239702,1480795234258,,,,,,,,0.02,0.08,1.0,-3.2,0.8,0.1,780,0,,,,,,,,,,,,,,,,,,,
10239722,1480795234278,,,,,,,,0.02,0.08,1.0,-3.1,0.7,-0.0,780,0,,,,,,,,,,,,,,,,,,,
10239742,1480795234297,,,,,,,,0.02,0.07,1.0,-3.1,0.7,-0.1,780,0,,,,,,,,,,,,,,,,,,,
10239762,1480795234317,,,,,11,,,0.02,0.07,0.99,-3.1,0.7,-0.0,780,0,0,1,0.0,0,38.15863,-122.453033,0.0,2.368,39.2,9,3,1.8,36,2.3567,2,0.1433,,5.0967,37
10239782,1480795234337,,,,,,,,0.02,0.08,1.0,-3.1,0.7,0.0,780,0,,,,,,,,,,,,,,,,,,,
10239802,1480795234357,,,,,,,,0.02,0.08,1.0,-3.1,0.7,0.0,780,0,,,,,,,,,,,,,,,,,,,
10239822,1480795234377,,,,,,,,0.02,0.08,1.0,-3.1,0.7,-0.0,780,0,,,,,,,,,,,,,,,,,,,
10239842,1480795234397,,,,,,,,0.02,0.08,0.99,-3.1,0.7,-0.0,780,0,,,,,,,,,,,,,,,,,,,
10239864,1480795234419,0,195.5,,187.3,11,208.5,,0.02,0.08,0.99,-3.1,0.8,0.1,780,0,0,1,0.0,0,38.15863,-122.453033,0.0,2.368,39.2,9,3,1.8,36,2.3567,2,0.1433,2.5964,5.0983,37
10239883,1480795234438,,,,,,,,0.02,0.08,1.0,-3.1,0.8,0.1,780,0,,,,,,,,,,,,,,,,,,,
10239903,1480795234458,,,,,,,,0.02,0.09,1.0,-3.1,0.6,0.1,780,0,,,,,,,,,,,,,,,,,,,
10239923,1480795234478,,,,,,,,0.02,0.08,0.99,-3.1,0.6,-0.0,780,0,,,,,,,,,,,,,,,,,,,
10239943,1480795234498,,,,,,,,0.02,0.08,0.99,-3.1,0.7,-0.0,780,0,,,,,,,,,,,,,,,,,,,
10239963,1480795234518,,,,,10,,,0.02,0.08,0.99,-3.1,0.7,0.0,780,0,0,1,0.0,0,38.15863,-122.453033,0.0,2.368,39.2,9,3,1.8,36,2.3567,2,0.1433,,5.1,37
10239983,1480795234538,,,,,,,,0.02,0.08,1.0,-3.1,0.8,0.1,760,0,,,,,,,,,,,,,,,,,,,
10240003,1480795234558,,,,,,,,0.02,0.08,1.0,-3.1,0.7,0.0,780,0,,,,,,,,,,,,,,,,,,,
10240023,1480795234578,,,,,,,,0.02,0.08,0.99,-3.1,0.7,-0.0,780,0,,,,,,,,,,,,,,,,,,,
10240043,1480795234598,,,,,,,,0.02,0.08,0.99,-3.1,0.8,-0.0,780,0,,,,,,,,,,,,,,,,,,,
10240065,1480795234620,0,195.6,,187.3,11,208.3,,0.02,0.08,0.99,-3.1,0.7,0.0,780,0,0,1,0.0,0,38.15863,-122.453033,0.0,2.368,39.2,9,3,1.8,36,2.3567,2,0.1433,2.5964,5.1017,37
10240084,1480795234639,,,,,,,,0.02,0.09,1.0,-3.1,0.8,0.1,780,0,,,,,,,,,,,,,,,,,,,
10240104,1480795234659,,,,,,,,0.02,0.08,1.0,-3.1,0.7,0.0,760,0,,,,,,,,,,,,,,,,,,,
10240124,1480795234679,,,,,,,,0.02,0.08,1.0,-3.1,0.8,-0.0,760,0,,,,,,,,,,,,,,,,,,,
10240144,1480795234699,,,,,,,,0.02,0.08,1.0,-3.1,0.8,0.0,760,0,,,,,,,,,,,,,,,,,,,
10240164,1480795234719,,,,,11,,,0.02,0.09,1.0,-3.1,0.8,0.1,760,0,0,1,0.0,0,38.15863,-122.453033,0.0,2.368,39.2,9,3,1.8,36,2.3567,2,0.1433,,5.1033,37
10240184,1480795234739,,,,,,,,0.02,0.09,1.0,-3.1,0.7,0.0,760,0,,,,,,,,,,,,,,,,,,,
10240204,1480795234759,,,,,,,,0.02,0.09,1.0,-3.1,0.7,-0.0,760,0,,,,,,,,,,,,,,,,,,,
10240224,1480795234779,,,,,,,,0.02,0.08,0.99,-3.1,0.8,-0.0,760,0,,,,,,,,,,,,,,,,,,,
10240244,1480795234898,,,,,,,,0.02,0.08,0.99,-3.1,0.7,0.0,780,0,,,,,,,,,,,,,,,,,,,
10240266,1480795234920,0,195.8,,187.3,10,207.6,,0.02,0.08,1.0,-3.1,0.8,0.1,760,0,0,1,0.0,0,38.15863,-122.453033,0.0,2.368,39.2,9,3,1.8,36,2.3567,2,0.1433,2.5964,5.1067,37
10240285,1480795234939,,,,,,,,0.02,0.08,1.0,-3.1,0.7,0.0,760,0,,,,,,,,,,,,,,,,,,,
10240305,1480795234959,,,,,,,,0.02,0.08,0.99,-3.1,0.7,-0.0,760,0,,,,,,,,,,,,,,,,,,,
10240325,1480795234979,,,,,,,,0.02,0.08,0.99,-3.1,0.8,0.0,760,0,,,,,,,,,,,,,,,,,,,
10240345,1480795234999,,,,,,,,0.02,0.08,1.0,-3.1,0.7,0.1,760,0,,,,,,,,,,,,,,,,,,,
10240365,1480795235019,,,,,11,,,0.02,0.09,1.0,-3.1,0.7,0.1,760,0,0,1,0.0,0,38.15863,-122.453033,0.0,2.368,39.2,9,3,1.8,36,2.3567,2,0.1433,,5.1067,37
10240385,1480795235039,,,,,,,,0.02,0.08,1.0,-3.1,0.7,0.0,760,0,,,,,,,,,,,,,,,,,,,
10240405,1480795235059,,,,,,,,0.02,0.08,0.99,-3.1,0.7,0.0,760,0,,,,,,,,,,,,,,,,,,,
10240425,1480795235079,,,,,,,,0.02,0.08,0.99,-3.1,0.7,0.1,780,0,,,,,,,,,,,,,,,,,,,
10240445,1480795235000,,,,,,,,0.02,0.08,1.0,-3.1,0.8,0.1,760,0,,,,,,,,,,,,,,,,,,,
10240467,1480795235022,0,195.7,10.1,187.3,10,207.7,14.35,0.02,0.08,1.0,-3.1,0.7,-0.0,760,0,0,1,0.0,0,38.15863,-122.453033,0.0,2.368,39.2,9,3,1.8,36,2.3567,2,0.1433,2.5964,5.1083,37
10240486,1480795235041,,,,,,,,0.02,0.08,1.0,-3.1,0.8,-0.1,780,0,,,,,,,,,,,,,,,,,,,
10240506,1480795235061,,,,,,,,0.02,0.08,0.99,-3.1,0.8,-0.0,780,0,,,,,,,,,,,,,,,,,,,
10240526,1480795235081,,,,,,,,0.02,0.08,0.99,-3.1,0.7,0.0,760,0,,,,,,,,,,,,,,,,,,,
10240546,1480795235101,,,,,,,,0.02,0.08,1.0,-3.1,0.8,0.0,760,0,,,,,,,,,,,,,,,,,,,
10240566,1480795235121,,,,,11,,,0.02,0.08,1.0,-3.1,0.8,-0.0,760,0,0,1,0.0,0,38.15863,-122.453033,0.0,2.368,39.2,9,3,1.8,36,2.3567,2,0.1433,,5.11,37
10240586,1480795235141,,,,,,,,0.02,0.07,0.99,-3.1,0.8,-0.0,760,0,,,,,,,,,,,,,,,,,,,
10240606,1480795235161,,,,,,,,0.02,0.07,1.0,-3.1,0.8,0.0,760,0,,,,,,,,,,,,,,,,,,,
10240626,1480795235181,,,,,,,,0.02,0.08,1.0,-3.1,0.9,0.1,760,0,,,,,,,,,,,,,,,,,,,
10240646,1480795235201,,,,,,,,0.02,0.08,1.0,-3.1,0.7,0.1,780,0,,,,,,,,,,,,,,,,,,,
10240668,1480795235223,0,195.4,,187.1,11,207.7,,0.02,0.08,1.0,-3.1,0.7,-0.0,780,0,0,1,0.0,0,38.15863,-122.453033,0.0,2.368,39.2,9,3,1.8,36,2.3567,2,0.1433,2.5964,5.1117,37
10240687,1480795235242,,,,,,,,0.02,0.08,0.99,-3.1,0.7,-0.0,780,0,,,,,,,,,,,,,,,,,,,
10240707,1480795235262,,,,,,,,0.02,0.08,0.99,-3.1,0.7,0.0,780,0,,,,,,,,,,,,,,,,,,,
10240727,1480795235282,,,,,,,,0.02,0.08,1.0,-3.1,0.8,0.0,780,0,,,,,,,,,,,,,,,,,,,
10240747,1480795235299,,,,,,,,0.02,0.08,1.0,-3.1,0.7,0.0,780,0,,,,,,,,,,,,,,,,,,,
10240767,1480795235319,,,,,10,,,0.02,0.07,0.99,-3.1,0.7,-0.0,780,0,0,1,0.0,0,38.15863,-122.453033,0.0,2.368,39.2,9,3,1.8,36,2.3567,2,0.1433,,5.1133,37
10240787,1480795235339,,,,,,,,0.02,0.07,0.99,-3.1,0.8,-0.0,780,0,,,,,,,,,,,,,,,,,,,
10240807,1480795235359,,,,,,,,0.0,0.07,0.98,-3.1,1.0,0.1,780,0,,,,,,,,,,,,,,,,,,,
10240827,1480795235379,,,,,,,,0.01,0.09,0.99,-3.1,0.7,0.1,780,0,,,,,,,,,,,,,,,,,,,
10240847,1480795235402,,,,,,,,0.0,0.08,0.99,-3.1,0.8,0.1,780,0,,,,,,,,,,,,,,,,,,,
10240869,1480795235424,0,195.6,,187.2,11,207.1,,0.0,0.08,0.99,-3.2,0.9,0.1,780,0,0,1,0.0,0,38.15863,-122.453033,0.0,2.368,39.2,9,3,1.8,36,2.3567,2,0.1433,2.5964,5.115,37
10240888,1480795235443,,,,,,,,0.0,0.08,0.99,-3.2,1.0,0.1,780,0,,,,,,,,,,,,,,,,,,,
10240908,1480795235463,,,,,,,,0.0,0.08,0.99,-3.2,1.0,0.2,760,0,,,,,,,,,,,,,,,,,,,
10240928,1480795235483,,,,,,,,-0.0,0.09,0.99,-3.2,0.9,0.2,760,0,,,,,,,,,,,,,,,,,,,
10240948,1480795235503,,,,,,,,-0.01,0.08,0.99,-3.1,0.9,0.1,760,0,,,,,,,,,,,,,,,,,,,
10240968,1480795235523,,,,,11,,,-0.0,0.07,0.98,-3.1,1.2,0.0,760,0,0,1,0.0,0,38.15863,-122.453033,0.0,2.368,39.2,9,3,1.8,36,2.3567,2,0.1433,,5.1167,37
10240988,1480795235543,,,,,,,,-0.0,0.09,0.98,-3.1,1.1,0.1,760,0,,,,,,,,,,,,,,,,,,,
10241008,1480795235563,,,,,,,,0.0,0.09,0.99,-3.1,1.1,0.1,760,0,,,,,,,,,,,,,,,,,,,
10241028,1480795235583,,,,,,,,0.0,0.09,0.99,-3.1,0.9,0.0,760,0,,,,,,,,,,,,,,,,,,,
10241048,1480795235702,,,,,,,,0.0,0.08,0.98,-3.1,1.0,-0.0,760,0,,,,,,,,,,,,,,,,,,,
10241070,1480795235724,0,195.8,,186.7,12,206.8,,0.01,0.08,0.99,-3.1,1.0,0.0,760,0,0,1,0.0,0,38.15863,-122.453033,0.0,2.368,39.2,9,3,1.8,36,2.3567,2,0.1433,2.5964,5.12,37
10241089,1480795235743,,,,,,,,0.01,0.09,0.99,-3.2,1.0,0.1,760,0,,,,,,,,,,,,,,,,,,,
10241109,1480795235763,,,,,,,,0.01,0.09,0.99,-3.1,0.9,0.1,760,0,,,,,,,,,,,,,,,,,,,
10241129,1480795235783,,,,,,,,0.01,0.09,0.99,-3.1,0.8,0.0,760,0,,,,,,,,,,,,,,,,,,,
10241149,1480795235803,,,,,,,,0.01,0.08,0.98,-3.1,0.9,0.0,760,0,,,,,,,,,,,,,,,,,,,
10241169,1480795235823,,,,,10,,,0.01,0.08,0.99,-3.2,0.8,0.1,760,0,0,1,0.0,0,38.15863,-122.453033,0.0,2.368,39.2,9,3,1.8,36,2.3567,2,0.1433,,5.12,37
10241189,1480795235843,,,,,,,,0.01,0.08,1.0,-3.1,1.0,0.1,760,0,,,,,,,,,,,,,,,,,,,
10241209,1480795235863,,,,,,,,0.01,0.08,1.0,-3.1,0.8,0.1,760,0,,,,,,,,,,,,,,,,,,,
10241229,1480795235883,,,,,,,,0.01,0.08,0.99,-3.1,0.9,0.0,760,0,,,,,,,,,,,,,,,,,,,
10241249,1480795235804,,,,,,,,0.02,0.08,0.99,-3.1,1.0,0.0,760,0,,,,,,,,,,,,,,,,,,,
10241271,1480795235826,0,194.5,,186.0,10,206.9,,0.01,0.08,1.0,-3.1,0.9,0.1,760,0,0,1,0.0,0,38.15863,-122.453033,0.0,2.368,39.2,9,3,1.8,36,2.3567,2,0.1433,2.5964,5.1217,37
10241290,1480795235845,,,,,,,,0.02,0.09,1.0,-3.1,0.9,0.1,760,0,,,,,,,,,,,,,,,,,,,
10241310,1480795235865,,,,,,,,0.01,0.08,0.99,-3.1,0.9,-0.0,760,0,,,,,,,,,,,,,,,,,,,
10241330,1480795235885,,,,,,,,0.01,0.08,0.99,-3.1,0.8,0.0,760,0,,,,,,,,,,,,,,,,,,,
10241350,1480795235897,,,,,,,,0.02,0.08,0.99,-3.2,0.8,0.1,760,0,,,,,,,,,,,,,,,,,,,
10241370,1480795235917,,,,,10,,,0.02,0.09,1.0,-3.2,0.9,0.1,760,0,0,1,0.0,0,38.15863,-122.453033,0.0,2.368,39.2,9,3,1.8,36,2.3567,2,0.1433,,5.1233,37
10241390,1480795235937,,,,,,,,0.01,0.08,1.0,-3.1,0.8,0.0,760,0,,,,,,,,,,,,,,,,,,,
10241410,1480795235957,,,,,,,,0.01,0.08,0.99,-3.1,0.8,0.0,760,0,,,,,,,,,,,,,,,,,,,
10241430,1480795235977,,,,,,,,0.02,0.08,0.99,-3.1,0.8,0.1,760,0,,,,,,,,,,,,,,,,,,,
10241450,1480795236005,,,,,,,,0.02,0.08,1.0,-3.1,0.8,0.1,760,0,,,,,,,,,,,,,,,,,,,
10241472,1480795236027,0,195.7,10.0,187.1,11,206.9,14.37,0.02,0.09,1.0,-3.1,0.7,0.1,760,0,0,1,0.0,0,38.15863,-122.453033,0.0,2.368,39.2,9,3,1.8,36,2.3567,2,0.1433,2.5964,5.125,37
10241491,1480795236046,,,,,,,,0.02,0.09,1.0,-3.1,0.7,0.1,760,0,,,,,,,,,,,,,,,,,,,
10241511,1480795236066,,,,,,,,0.02,0.08,0.99,-3.2,0.7,0.1,760,0,,,,,,,,,,,,,,,,,,,
10241531,1480795236086,,,,,,,,0.02,0.08,0.99,-3.2,0.7,0.1,760,0,,,,,,,,,,,,,,,,,,,
10241551,1480795236106,,,,,,,,0.02,0.08,0.99,-3.2,0.8,0.1,760,0,,,,,,,,,,,,,,,,,,,
10241571,1480795236126,,,,,10,,,0.02,0.08,1.0,-3.2,0.6,0.1,760,0,0,1,0.0,0,38.15863,-122.453033,0.0,2.368,39.2,9,3,1.8,36,2.3567,2,0.1433,,5.1267,37
10241591,1480795236146,,,,,,,,0.03,0.07,0.99,-3.2,0.9,0.0,760,0,,,,,,,,,,,,,,,,,,,
10241611,1480795236166,,,,,,,,0.03,0.07,0.99,-3.2,0.9,0.1,760,0,,,,,,,,,,,,,,,,,,,
10241631,1480795236186,,,,,,,,0.03,0.07,1.0,-3.2,1.0,0.1,760,0,,,,,,,,,,,,,,,,,,,
10241651,1480795236206,,,,,,,,0.03,0.08,1.0,-3.2,0.8,0.1,760,0,,,,,,,,,,,,,,,,,,,
10241673,1480795236228,0,195.2,,187.0,11,207.7,,0.03,0.07,1.0,-3.1,0.8,0.0,760,0,0,1,0.0,0,38.15863,-122.453033,0.0,2.368,39.2,9,3,1.8,36,2.3567,2,0.1433,2.5964,5.1283,37
10241692,1480795236247,,,,,,,,0.03,0.07,0.99,-3.1,0.8,0.0,760,0,,,,,,,,,,,,,,,,,,,
10241712,1480795236267,,,,,,,,0.03,0.08,0.99,-3.1,0.8,0.1,760,0,,,,,,,,,,,,,,,,,,,
10241732,1480795236287,,,,,,,,0.03,0.08,1.0,-3.1,0.8,0.1,760,0,,,,,,,,,,,,,,,,,,,
10241752,1480795236307,,,,,,,,0.02,0.07,1.0,-3.1,0.7,0.0,760,0,,,,,,,,,,,,,,,,,,,
10241772,1480795236327,,,,,12,,,0.03,0.08,0.99,-3.1,1.0,-0.0,760,0,0,1,0.0,0,38.15863,-122.453033,0.0,2.368,39.2,9,3,1.8,36,2.3567,2,0.1433,,5.13,37
10241792,1480795236347,,,,,,,,0.03,0.08,1.0,-3.1,1.0,-0.0,760,0,,,,,,,,,,,,,,,,,,,
10241812,1480795236367,,,,,,,,0.03,0.09,1.0,-3.2,0.9,0.0,760,0,,,,,,,,,,,,,,,,,,,
10241832,1480795236387,,,,,,,,0.03,0.08,1.0,-3.1,1.0,-0.1,760,0,,,,,,,,,,,,,,,,,,,
10241852,1480795236507,,,,,,,,0.03,0.08,1.0,-3.2,1.1,-0.1,760,0,,,,,,,,,,,,,,,,,,,
10241874,1480795236529,0,194.5,,185.8,10,206.3,,0.03,0.08,1.0,-3.2,1.2,-0.0,760,0,0,1,0.0,0,38.15863,-122.453033,0.0,2.368,39.2,9,3,1.8,36,2.3567,2,0.1433,2.5964,5.1333,37
10241893,1480795236548,,,,,,,,0.03,0.08,1.0,-3.2,1.1,0.0,760,0,,,,,,,,,,,,,,,,,,,
10241913,1480795236568,,,,,,,,0.03,0.08,1.0,-3.1,0.9,-0.0,760,0,,,,,,,,,,,,,,,,,,,
10241933,1480795236588,,,,,,,,0.03,0.08,1.0,-3.1,1.0,-0.0,760,0,,,,,,,,,,,,,,,,,,,
10241953,1480795236608,,,,,,,,0.03,0.08,0.99,-3.1,0.9,-0.0,760,0,,,,,,,,,,,,,,,,,,,
10241973,1480795236628,,,,,10,,,0.03,0.08,0.99,-3.2,0.9,0.0,760,0,0,1,0.0,0,38.15863,-122.453033,0.0,2.368,39.2,9,3,1.8,36,2.3567,2,0.1433,,5.1333,37
10241993,1480795236648,,,,,,,,0.03,0.08,1.0,-3.2,0.8,0.0,740,0,,,,,,,,,,,,,,,,,,,
10242013,1480795236668,,,,,,,,0.02,0.08,0.99,-3.1,0.8,-0.0,760,0,,,,,,,,,,,,,,,,,,,
10242033,1480795236688,,,,,,,,0.03,0.08,0.99,-3.1,0.8,-0.0,760,0,,,,,,,,,,,,,,,,,,,
10242053,1480795236608,,,,,,,,0.03,0.08,0.99,-3.2,0.7,0.1,760,0,,,,,,,,,,,,,,,,,,,
10242075,1480795236630,0,195.3,,186.8,10,207.1,,0.02,0.09,1.0,-3.2,0.8,0.1,760,0,0,1,0.0,0,38.15863,-122.453033,0.0,2.368,39.2,9,3,1.8,36,2.3567,2,0.1433,2.5964,5.135,37
10242094,1480795236649,,,,,,,,0.02,0.09,1.0,-3.1,0.7,0.0,760,0,,,,,,,,,,,,,,,,,,,
10242114,1480795236669,,,,,,,,0.02,0.08,0.99,-3.1,0.7,0.0,760,0,,,,,,,,,,,,,,,,,,,
10242134,1480795236689,,,,,,,,0.02,0.08,0.99,-3.1,0.8,0.1,740,0,,,,,,,,,,,,,,,,,,,
10242154,1480795236709,,,,,,,,0.02,0.09,1.0,-3.1,0.8,0.1,760,0,,,,,,,,,,,,,,,,,,,
10242174,1480795236729,,,,,11,,,0.02,0.08,1.0,-3.1,0.7,0.1,740,0,0,1,0.0,0,38.15863,-122.453033,0.0,2.368,39.2,9,3,1.8,36,2.3567,2,0.1433,,5.1367,37
10242194,1480795236749,,,,,,,,0.02,0.08,1.0,-3.1,0.7,0.0,740,0,,,,,,,,,,,,,,,,,,,
10242214,1480795236769,,,,,,,,0.02,0.08,0.99,-3.1,0.7,0.1,760,0,,,,,,,,,,,,,,,,,,,
10242234,1480795236789,,,,,,,,0.02,0.08,1.0,-3.2,0.8,0.1,760,0,,,,,,,,,,,,,,,,,,,
10242254,1480795236809,,,,,,,,0.02,0.08,1.0,-3.1,0.7,0.1,760,0,,,,,,,,,,,,,,,,,,,
10242276,1480795236831,0,195.3,,186.8,10,207.3,,0.02,0.08,1.0,-3.1,0.7,0.1,760,0,0,1,0.0,0,38.15863,-122.453033,0.0,2.368,39.2,9,3,1.8,36,2.3567,2,0.1433,2.5964,5.1383,37
10242295,1480795236850,,,,,,,,0.03,0.08,0.99,-3.1,0.7,0.0,760,0,,,,,,,,,,,,,,,,,,,
10242315,1480795236870,,,,,,,,0.03,0.08,0.99,-3.2,0.6,0.1,760,0,,,,,,,,,,,,,,,,,,,
10242335,1480795236890,,,,,,,,0.03,0.08,1.0,-3.1,0.7,0.1,760,0,,,,,,,,,,,,,,,,,,,
10242355,1480795236902,,,,,,,,0.02,0.08,0.99,-3.1,0.6,0.0,760,0,,,,,,,,,,,,,,,,,,,
10242375,1480795236922,,,,,12,,,0.02,0.08,0.99,-3.1,0.7,0.0,760,0,0,1,0.0,0,38.15863,-122.453033,0.0,2.368,39.2,9,3,1.8,36,2.3567,2,0.1433,,5.14,37
10242395,1480795236942,,,,,,,,0.03,0.08,0.99,-3.1,0.8,0.1,760,0,,,,,,,,,,,,,,,,,,,
10242415,1480795236962,,,,,,,,0.02,0.08,0.99,-3.1,0.8,0.1,760,0,,,,,,,,,,,,,,,,,,,
10242435,1480795236982,,,,,,,,0.02,0.08,1.0,-3.1,0.7,0.1,760,0,,,,,,,,,,,,,,,,,,,
10242455,1480795237010,,,,,,,,0.02,0.08,0.99,-3.1,0.7,0.0,760,0,,,,,,,,,,,,,,,,,,,
10242477,1480795237032,0,195.1,10.2,186.7,11,207.3,14.43,0.02,0.08,0.99,-3.1,0.7,0.0,760,0,0,1,0.0,0,38.15863,-122.453033,0.0,2.368,39.2,9,3,1.8,36,2.3567,2,0.1433,2.5964,5.1417,37
10242496,1480795237051,,,,,,,,0.03,0.08,0.99,-3.1,0.6,0.1,760,0,,,,,,,,,,,,,,,,,,,
10242516,1480795237071,,,,,,,,0.03,0.08,1.0,-3.2,0.7,0.1,780,0,,,,,,,,,,,,,,,,,,,
10242536,1480795237091,,,,,,,,0.02,0.08,1.0,-3.1,0.6,0.0,780,0,,,,,,,,,,,,,,,,,,,
10242556,1480795237111,,,,,,,,0.02,0.08,0.99,-3.1,0.6,0.0,780,0,,,,,,,,,,,,,,,,,,,
10242576,1480795237131,,,,,11,,,0.02,0.08,0.99,-3.1,0.7,0.1,780,0,0,1,0.0,0,38.15863,-122.453033,0.0,2.368,39.2,9,3,1.8,36,2.3567,2,0.1433,,5.1433,37
10242596,1480795237151,,,,,,,,0.02,0.08,0.99,-3.1,0.8,0.1,760,0,,,,,,,,,,,,,,,,,,,
10242616,1480795237171,,,,,,,,0.02,0.02,0.99,-3.2,0.3,0.3,760,0,,,,,,,,,,,,,,,,,,,
10242636,1480795237291,,,,,,,,0.03,0.03,0.99,-3.0,1.1,0.1,760,0,,,,,,,,,,,,,,,,,,,
10242656,1480795237311,,,,,,,,0.02,0.03,0.99,-3.1,0.8,0.1,760,0,,,,,,,,,,,,,,,,,,,
10242678,1480795237333,0,194.3,,186.1,10,206.4,,0.02,0.05,0.99,-3.1,0.7,0.2,760,0,0,1,0.0,0,38.15863,-122.453033,0.0,2.368,39.2,9,3,1.8,36,2.3567,2,0.1433,2.5964,5.1467,37
10242697,1480795237352,,,,,,,,0.02,0.05,0.99,-3.1,0.8,0.2,760,0,,,,,,,,,,,,,,,,,,,
10242717,1480795237372,,,,,,,,0.02,0.05,1.0,-3.1,0.8,0.1,760,0,,,,,,,,,,,,,,,,,,,
10242737,1480795237392,,,,,,,,0.02,0.06,0.99,-3.1,0.9,0.1,760,0,,,,,,,,,,,,,,,,,,,
10242757,1480795237412,,,,,,,,0.03,0.06,0.99,-3.1,0.8,0.1,760,0,,,,,,,,,,,,,,,,,,,
10242777,1480795237432,,,,,12,,,0.02,0.06,1.0,-3.1,0.7,0.1,760,0,0,1,0.0,0,38.15863,-122.453033,0.0,2.368,39.2,9,3,1.8,36,2.3567,2,0.1433,,5.1467,37
10242797,1480795237452,,,,,,,,0.02,0.07,1.0,-3.1,0.6,0.1,760,0,,,,,,,,,,,,,,,,,,,
10242817,1480795237472,,,,,,,,0.02,0.07,1.0,-3.1,0.6,0.0,760,0,,,,,,,,,,,,,,,,,,,
10242837,1480795237592,,,,,,,,0.02,0.07,0.99,-3.1,0.6,0.0,760,0,,,,,,,,,,,,,,,,,,,
10242857,1480795237410,,,,,,,,0.02,0.07,0.99,-3.1,0.6,0.1,760,0,,,,,,,,,,,,,,,,,,,
10242879,1480795237432,0,194.2,,185.5,10,205.9,,0.02,0.07,0.99,-3.1,0.6,0.1,760,0,0,1,0.0,0,38.15863,-122.453033,0.0,2.368,39.2,9,3,1.8,36,2.3567,2,0.1433,2.5964,5.1483,37
10242898,1480795237451,,,,,,,,0.01,0.07,1.0,-3.1,0.6,0.0,760,0,,,,,,,,,,,,,,,,,,,
10242918,1480795237471,,,,,,,,0.01,0.06,0.99,-3.1,0.6,0.0,760,0,,,,,,,,,,,,,,,,,,,
10242938,1480795237491,,,,,,,,0.02,0.07,0.99,-3.1,0.7,0.0,760,0,,,,,,,,,,,,,,,,,,,
10242958,1480795237511,,,,,,,,0.02,0.07,1.0,-3.1,0.7,0.1,760,0,,,,,,,,,,,,,,,,,,,
10242978,1480795237531,,,,,11,,,0.01,0.07,1.0,-3.1,0.6,0.0,760,0,0,1,0.0,0,38.15863,-122.453033,0.0,2.368,39.2,9,3,1.8,36,2.3567,2,0.1433,,5.15,37
10242998,1480795237551,,,,,,,,0.01,0.07,1.0,-3.1,0.7,0.0,760,0,,,,,,,,,,,,,,,,,,,
10243018,1480795237571,,,,,,,,0.02,0.07,1.0,-3.1,0.7,0.1,760,0,,,,,,,,,,,,,,,,,,,
10243038,1480795237591,,,,,,,,0.02,0.08,1.0,-3.1,0.6,0.1,760,0,,,,,,,,,,,,,,,,,,,
10243058,1480795237611,,,,,,,,0.02,0.08,1.0,-3.1,0.6,0.1,760,0,,,,,,,,,,,,,,,,,,,
10243080,1480795237633,0,194.2,,185.5,10,206.0,,0.01,0.08,1.0,-3.1,0.6,0.0,760,0,0,1,0.0,0,38.15863,-122.453033,0.0,2.368,39.2,9,3,1.8,36,2.3567,2,0.1433,2.5964,5.1517,37
10243099,1480795237652,,,,,,,,0.01,0.08,0.99,-3.1,0.6,0.0,760,0,,,,,,,,,,,,,,,,,,,
10243119,1480795237672,,,,,,,,0.02,0.08,1.0,-3.1,0.6,0.1,760,0,,,,,,,,,,,,,,,,,,,
10243139,1480795237692,,,,,,,,0.02,0.08,1.0,-3.1,0.7,0.1,760,0,,,,,,,,,,,,,,,,,,,
10243159,1480795237712,,,,,,,,0.01,0.09,1.01,-3.1,0.6,0.0,760,0,,,,,,,,,,,,,,,,,,,
10243179,1480795237732,,,,,11,,,0.02,0.08,1.0,-3.1,0.7,0.0,760,0,0,1,0.0,0,38.15863,-122.453033,0.0,2.368,39.2,9,3,1.8,36,2.3567,2,0.1433,,5.1533,37
10243199,1480795237752,,,,,,,,0.02,0.08,1.0,-3.1,0.7,0.0,760,0,,,,,,,,,,,,,,,,,,,
10243219,1480795237772,,,,,,,,0.02,0.08,1.0,-3.1,0.7,0.1,780,0,,,,,,,,,,,,,,,,,,,
10243239,1480795237795,,,,,,,,0.02,0.08,1.0,-3.1,0.6,0.1,760,0,,,,,,,,,,,,,,,,,,,
10243259,1480795237815,,,,,,,,0.02,0.08,0.99,-3.1,0.6,-0.0,780,0,,,,,,,,,,,,,,,,,,,
10243281,1480795237837,0,195.2,,186.2,11,205.9,,0.02,0.08,0.98,-3.1,0.7,-0.0,780,63,0,1,0.0,0,38.15863,-122.453033,0.0,2.368,39.2,9,3,1.8,36,2.3567,2,0.1433,2.5964,5.155,37
10243300,1480795237856,,,,,,,,0.02,0.07,0.98,-3.1,0.6,0.1,780,63,,,,,,,,,,,,,,,,,,,
10243320,1480795237876,,,,,,,,0.02,0.07,0.99,-3.1,0.7,0.1,780,63,,,,,,,,,,,,,,,,,,,
10243340,1480795237896,,,,,,,,0.02,0.08,0.99,-3.1,0.5,0.1,780,63,,,,,,,,,,,,,,,,,,,
10243360,1480795237907,,,,,,,,0.02,0.08,0.99,-3.1,0.6,-0.0,780,63,,,,,,,,,,,,,,,,,,,
10243380,1480795237927,,,,,11,,,0.02,0.07,0.98,-3.1,0.6,-0.0,780,63,0,1,12.381,0,38.15863,-122.453033,0.0,2.368,39.2,9,3,1.8,36,2.3567,2,0.1433,,5.1567,37
10243400,1480795237947,,,,,,,,0.03,0.07,0.99,-3.1,0.6,0.0,780,0,,,,,,,,,,,,,,,,,,,
10243420,1480795237967,,,,,,,,0.03,0.08,0.99,-3.1,0.6,0.1,780,0,,,,,,,,,,,,,,,,,,,
10243440,1480795238095,,,,,,,,0.02,0.07,1.0,-3.1,0.5,-0.0,780,0,,,,,,,,,,,,,,,,,,,
10243460,1480795238115,,,,,,,,0.02,0.07,0.99,-3.1,0.6,-0.1,780,0,,,,,,,,,,,,,,,,,,,
10243482,1480795238137,0,195.0,10.3,186.3,13,206.6,14.37,0.02,0.07,0.99,-3.1,0.6,-0.1,780,0,0,1,12.381,0,38.15863,-122.453033,0.0,2.368,39.2,9,3,1.8,36,2.3567,2,0.1433,2.5964,5.16,37
10243501,1480795238156,,,,,,,,0.02,0.08,1.0,-3.1,0.6,0.0,780,0,,,,,,,,,,,,,,,,,,,
10243521,1480795238176,,,,,,,,0.02,0.07,1.01,-3.1,0.7,0.1,780,0,,,,,,,,,,,,,,,,,,,
10243541,1480795238196,,,,,,,,0.02,0.07,1.01,-3.0,0.7,0.0,780,0,,,,,,,,,,,,,,,,,,,
10243561,1480795238216,,,,,,,,0.02,0.07,1.0,-3.0,0.8,-0.0,780,0,,,,,,,,,,,,,,,,,,,
10243581,1480795238236,,,,,10,,,0.02,0.07,1.0,-3.0,0.9,-0.0,780,0,0,1,0.0,0,38.15863,-122.453033,0.0,2.368,39.2,9,3,1.8,36,2.3567,2,0.1433,,5.16,37
10243601,1480795238256,,,,,,,,0.02,0.08,1.0,-3.1,0.9,0.0,780,0,,,,,,,,,,,,,,,,,,,
10243621,1480795238276,,,,,,,,0.02,0.08,1.0,-3.1,0.8,0.1,780,0,,,,,,,,,,,,,,,,,,,
10243641,1480795238193,,,,,,,,0.02,0.08,1.0,-3.1,0.8,-0.0,780,0,,,,,,,,,,,,,,,,,,,
10243661,1480795238213,,,,,,,,0.02,0.08,0.99,-3.0,0.8,-0.0,780,0,,,,,,,,,,,,,,,,,,,
10243683,1480795238235,0,194.5,,185.2,12,205.4,,0.02,0.07,0.99,-3.1,0.9,0.0,780,0,0,1,0.0,0,38.15863,-122.453033,0.0,2.368,39.2,9,3,1.8,36,2.3567,2,0.1433,2.5964,5.1617,37
10243702,1480795238254,,,,,,,,0.02,0.08,1.0,-3.1,0.9,0.1,780,0,,,,,,,,,,,,,,,,,,,
10243722,1480795238274,,,,,,,,0.02,0.08,1.0,-3.1,0.9,0.1,780,0,,,,,,,,,,,,,,,,,,,
10243742,1480795238298,,,,,,,,0.02,0.08,1.0,-3.1,0.8,-0.0,780,0,,,,,,,,,,,,,,,,,,,
10243762,1480795238318,,,,,,,,0.02,0.08,1.0,-3.0,0.9,-0.1,780,0,,,,,,,,,,,,,,,,,,,
10243782,1480795238338,,,,,11,,,0.03,0.07,1.0,-3.1,0.9,-0.0,780,0,0,1,0.0,0,38.15863,-122.453033,0.0,2.368,39.2,9,3,1.8,36,2.3567,2,0.1433,,5.1633,37
10243802,1480795238358,,,,,,,,0.03,0.08,1.0,-3.1,0.9,0.1,780,0,,,,,,,,,,,,,,,,,,,
10243822,1480795238378,,,,,,,,0.02,0.09,1.0,-3.1,0.8,0.0,780,0,,,,,,,,,,,,,,,,,,,
10243842,1480795238397,,,,,,,,0.02,0.08,1.0,-3.1,0.8,-0.1,780,0,,,,,,,,,,,,,,,,,,,
10243862,1480795238417,,,,,,,,0.02,0.08,0.99,-3.0,0.8,-0.1,780,0,,,,,,,,,,,,,,,,,,,
10243884,1480795238439,0,195.0,,185.4,10,205.3,,0.03,0.08,0.99,-3.0,0.8,0.0,780,0,0,1,0.0,0,38.15863,-122.453033,0.0,2.368,39.2,9,3,1.8,36,2.3567,2,0.1433,2.5964,5.165,37
10243903,1480795238458,,,,,,,,0.02,0.08,1.0,-3.1,0.9,0.1,780,0,,,,,,,,,,,,,,,,,,,
10243923,1480795238478,,,,,,,,0.02,0.09,1.0,-3.0,0.7,0.1,780,0,,,,,,,,,,,,,,,,,,,
10243943,1480795238498,,,,,,,,0.02,0.08,0.99,-3.0,0.8,-0.0,780,0,,,,,,,,,,,,,,,,,,,
10243963,1480795238518,,,,,,,,0.02,0.08,0.99,-3.1,0.8,-0.0,780,0,,,,,,,,,,,,,,,,,,,
10243983,1480795238538,,,,,11,,,0.02,0.08,0.99,-3.1,0.8,0.0,780,0,0,1,0.0,0,38.15863,-122.453033,0.0,2.368,39.2,9,3,1.8,36,2.3567,2,0.1433,,5.1667,37
10244003,1480795238558,,,,,,,,0.02,0.09,1.0,-3.1,0.9,0.1,760,0,,,,,,,,,,,,,,,,,,,
10244023,1480795238578,,,,,,,,0.02,0.08,1.0,-3.1,0.8,0.0,780,0,,,,,,,,,,,,,,,,,,,
10244043,1480795238598,,,,,,,,0.02,0.08,1.0,-3.1,0.8,-0.0,780,0,,,,,,,,,,,,,,,,,,,
10244063,1480795238618,,,,,,,,0.02,0.08,1.0,-3.1,0.8,-0.0,780,0,,,,,,,,,,,,,,,,,,,
10244085,1480795238640,0,194.4,,185.9,11,206.2,,0.02,0.08,1.0,-3.1,0.8,0.0,780,0,0,1,0.0,0,38.15863,-122.453033,0.0,2.368,39.2,9,3,1.8,36,2.3567,2,0.1433,2.5964,5.1683,37
10244104,1480795238659,,,,,,,,0.02,0.08,1.0,-3.1,0.8,0.1,780,0,,,,,,,,,,,,,,,,,,,
10244124,1480795238679,,,,,,,,0.02,0.08,1.0,-3.1,0.8,0.0,760,0,,,,,,,,,,,,,,,,,,,
10244144,1480795238699,,,,,,,,0.02,0.08,1.0,-3.0,0.8,0.0,780,0,,,,,,,,,,,,,,,,,,,
10244164,1480795238719,,,,,,,,0.02,0.07,1.0,-3.1,0.9,0.1,780,0,,,,,,,,,,,,,,,,,,,
10244184,1480795238739,,,,,10,,,0.02,0.08,1.0,-3.1,0.8,0.1,760,0,0,1,0.0,0,38.15863,-122.453033,0.0,2.368,39.2,9,3,1.8,36,2.3567,2,0.1433,,5.17,37
10244204,1480795238759,,,,,,,,0.02,0.09,1.0,-3.1,0.7,0.1,780,0,,,,,,,,,,,,,,,,,,,
10244224,1480795238779,,,,,,,,0.02,0.09,0.99,-3.0,0.7,0.0,760,0,,,,,,,,,,,,,,,,,,,
10244244,1480795238899,,,,,,,,0.02,0.08,0.99,-3.1,0.7,0.0,760,0,,,,,,,,,,,,,,,,,,,
10244264,1480795238919,,,,,,,,0.02,0.08,0.99,-3.1,0.7,0.1,760,0,,,,,,,,,,,,,,,,,,,
10244286,1480795238941,0,194.8,,185.4,11,205.1,,0.02,0.08,1.0,-3.1,0.8,0.1,760,0,0,1,0.0,0,38.15863,-122.453033,0.0,2.368,39.2,9,3,1.8,36,2.3567,2,0.1433,2.5964,5.1733,37
10244305,1480795238960,,,,,,,,0.02,0.08,1.0,-3.1,0.7,0.1,760,0,,,,,,,,,,,,,,,,,,,
10244325,1480795238980,,,,,,,,0.02,0.08,0.99,-3.0,0.7,0.0,760,0,,,,,,,,,,,,,,,,,,,
10244345,1480795239000,,,,,,,,0.02,0.08,0.99,-3.1,0.8,0.1,760,0,,,,,,,,,,,,,,,,,,,
10244365,1480795239020,,,,,,,,0.02,0.08,0.99,-3.1,0.7,0.1,760,0,,,,,,,,,,,,,,,,,,,
10244385,1480795239040,,,,,12,,,0.02,0.09,1.0,-3.1,0.7,0.1,760,0,0,1,0.0,0,38.15863,-122.453033,0.0,2.368,39.2,9,3,1.8,36,2.3567,2,0.1433,,5.1733,37
10244405,1480795239060,,,,,,,,0.02,0.08,0.99,-3.1,0.7,0.1,760,0,,,,,,,,,,,,,,,,,,,
10244425,1480795239080,,,,,,,,0.02,0.08,0.99,-3.1,0.7,0.1,760,0,,,,,,,,,,,,,,,,,,,
10244445,1480795238999,,,,,,,,0.02,0.08,0.99,-3.1,0.7,0.1,760,0,,,,,,,,,,,,,,,,,,,
10244465,1480795239019,,,,,,,,0.02,0.08,1.0,-3.1,0.8,0.1,760,0,,,,,,,,,,,,,,,,,,,
10244487,1480795239041,0,194.4,10.7,185.8,11,206.2,14.38,0.01,0.08,1.0,-3.1,0.7,0.1,760,0,0,1,0.0,0,38.15863,-122.453033,0.0,2.368,39.2,9,3,1.8,36,2.3567,2,0.1433,2.5964,5.175,37
10244506,1480795239060,,,,,,,,0.02,0.08,0.99,-3.1,0.7,-0.0,760,0,,,,,,,,,,,,,,,,,,,
10244526,1480795239080,,,,,,,,0.02,0.08,0.99,-3.1,0.7,-0.0,760,0,,,,,,,,,,,,,,,,,,,
10244546,1480795239101,,,,,,,,0.02,0.08,0.99,-3.1,0.6,0.0,760,0,,,,,,,,,,,,,,,,,,,
10244566,1480795239121,,,,,,,,0.02,0.08,1.0,-3.1,0.6,0.0,760,0,,,,,,,,,,,,,,,,,,,
10244586,1480795239141,,,,,10,,,0.02,0.08,0.99,-3.1,0.6,-0.0,760,0,0,1,0.0,0,38.15863,-122.453033,0.0,2.368,39.2,9,3,1.8,36,2.3567,2,0.1433,,5.1767,37
10244606,1480795239161,,,,,,,,0.02,0.08,0.99,-3.1,0.6,-0.0,760,0,,,,,,,,,,,,,,,,,,,
10244626,1480795239181,,,,,,,,0.02,0.08,0.99,-3.1,0.6,0.1,740,0,,,,,,,,,,,,,,,,,,,
10244646,1480795239201,,,,,,,,0.02,0.08,1.0,-3.1,0.7,0.1,760,0,,,,,,,,,,,,,,,,,,,
10244666,1480795239221,,,,,,,,0.01,0.08,1.0,-3.1,0.6,0.0,780,0,,,,,,,,,,,,,,,,,,,
10244688,1480795239243,0,193.4,,184.7,11,205.2,,0.02,0.08,0.99,-3.1,0.7,-0.0,780,0,0,1,0.0,0,38.15863,-122.453033,0.0,2.368,39.2,9,3,1.8,36,2.3567,2,0.1433,2.5964,5.1783,37
10244707,1480795239262,,,,,,,,0.02,0.08,0.99,-3.1,0.7,0.0,780,0,,,,,,,,,,,,,,,,,,,
10244727,1480795239282,,,,,,,,0.02,0.08,1.0,-3.1,0.8,0.1,800,0,,,,,,,,,,,,,,,,,,,
10244747,1480795239303,,,,,,,,0.02,0.09,0.99,-3.1,0.6,0.1,800,0,,,,,,,,,,,,,,,,,,,
10244767,1480795239323,,,,,,,,0.02,0.09,0.99,-3.1,0.7,0.0,800,0,,,,,,,,,,,,,,,,,,,
10244787,1480795239343,,,,,11,,,0.02,0.08,0.98,-3.0,0.7,-0.1,820,0,0,1,0.0,0,38.15863,-122.453033,0.0,2.368,39.2,9,3,1.8,36,2.3567,2,0.1433,,5.18,37
10244807,1480795239363,,,,,,,,0.02,0.07,0.99,-3.1,0.7,-0.0,820,0,,,,,,,,,,,,,,,,,,,
10244827,1480795239383,,,,,,,,0.02,0.07,0.99,-3.1,0.7,0.1,840,0,,,,,,,,,,,,,,,,,,,
10244847,1480795239403,,,,,,,,0.02,0.08,1.0,-3.1,0.7,0.1,820,0,,,,,,,,,,,,,,,,,,,
10244867,1480795239423,,,,,,,,0.02,0.08,0.99,-3.1,0.6,0.1,820,0,,,,,,,,,,,,,,,,,,,
10244889,1480795239445,0,193.3,,185.0,11,205.4,,0.02,0.08,0.99,-3.1,0.6,0.0,840,0,0,1,0.0,0,38.15863,-122.453033,0.0,2.368,39.2,9,3,1.8,36,2.3567,2,0.1433,2.5964,5.1817,37
10244908,1480795239464,,,,,,,,0.01,0.07,0.99,-3.0,0.6,-0.0,840,0,,,,,,,,,,,,,,,,,,,
10244928,1480795239484,,,,,,,,0.02,0.07,0.99,-3.0,0.7,-0.1,840,0,,,,,,,,,,,,,,,,,,,
10244948,1480795239503,,,,,,,,0.02,0.07,0.99,-3.1,0.7,0.0,840,0,,,,,,,,,,,,,,,,,,,
10244968,1480795239523,,,,,,,,0.02,0.07,0.99,-3.1,0.7,0.1,840,0,,,,,,,,,,,,,,,,,,,
10244988,1480795239543,,,,,13,,,0.02,0.08,0.99,-3.1,0.7,0.2,860,0,0,1,0.0,0,38.15863,-122.453033,0.0,2.368,39.2,9,3,1.8,36,2.3567,2,0.1433,,5.1833,37
10245008,1480795239563,,,,,,,,0.02,0.08,0.99,-3.1,0.7,0.1,840,0,,,,,,,,,,,,,,,,,,,
10245028,1480795239583,,,,,,,,0.02,0.08,1.0,-3.0,0.7,0.0,860,0,,,,,,,,,,,,,,,,,,,
10245048,1480795239702,,,,,,,,0.02,0.08,0.99,-3.0,0.7,0.0,840,0,,,,,,,,,,,,,,,,,,,
10245068,1480795239722,,,,,,,,0.02,0.07,0.99,-3.0,0.7,-0.0,840,0,,,,,,,,,,,,,,,,,,,
10245090,1480795239744,0,193.1,,184.6,12,205.2,,0.02,0.07,1.0,-3.0,0.7,0.1,840,0,0,1,0.0,0,38.15863,-122.453033,0.0,2.368,39.2,9,3,1.8,36,2.3567,2,0.1433,2.5964,5.1867,37
10245109,1480795239763,,,,,,,,0.02,0.08,1.0,-3.1,0.7,0.1,840,0,,,,,,,,,,,,,,,,,,,
10245129,1480795239783,,,,,,,,0.02,0.08,1.0,-3.1,0.7,0.2,840,0,,,,,,,,,,,,,,,,,,,
10245149,1480795239803,,,,,,,,0.02,0.08,0.99,-3.1,0.7,0.2,820,0,,,,,,,,,,,,,,,,,,,
10245169,1480795239823,,,,,,,,0.02,0.08,0.99,-3.1,0.7,0.1,820,0,,,,,,,,,,,,,,,,,,,
10245189,1480795239843,,,,,12,,,0.02,0.08,1.0,-3.1,0.7,0.1,820,0,0,1,0.0,0,38.15863,-122.453033,0.0,2.368,39.2,9,3,1.8,36,2.3567,2,0.1433,,5.1867,37
10245209,1480795239863,,,,,,,,0.02,0.07,1.0,-3.1,0.8,0.1,820,0,,,,,,,,,,,,,,,,,,,
10245229,1480795239883,,,,,,,,0.02,0.08,1.0,-3.1,0.7,0.2,800,0,,,,,,,,,,,,,,,,,,,
10245249,1480795239804,,,,,,,,0.02,0.09,1.0,-3.1,0.8,0.3,820,0,,,,,,,,,,,,,,,,,,,
10245269,1480795239824,,,,,,,,0.02,0.08,1.0,-3.1,0.7,0.2,800,0,,,,,,,,,,,,,,,,,,,
10245291,1480795239846,0,193.5,,184.1,12,204.5,,0.02,0.08,0.99,-3.1,0.7,0.1,800,0,0,1,0.0,0,38.15863,-122.453033,0.0,2.368,39.2,9,3,1.8,36,2.3567,2,0.1433,2.5964,5.1883,37
10245310,1480795239865,,,,,,,,0.02,0.08,0.99,-3.1,0.8,0.1,800,0,,,,,,,,,,,,,,,,,,,
10245330,1480795239885,,,,,,,,0.02,0.07,0.99,-3.1,0.8,0.1,800,0,,,,,,,,,,,,,,,,,,,
10245350,1480795239896,,,,,,,,0.02,0.08,1.0,-3.2,0.8,0.2,800,0,,,,,,,,,,,,,,,,,,,
10245370,1480795239916,,,,,,,,0.02,0.09,1.0,-3.2,0.8,0.2,820,0,,,,,,,,,,,,,,,,,,,
10245390,1480795239936,,,,,13,,,0.02,0.08,1.01,-3.2,0.7,0.2,820,0,0,1,0.0,0,38.15863,-122.453033,0.0,2.368,39.2,9,3,1.8,36,2.3567,2,0.1433,,5.19,37
10245410,1480795239956,,,,,,,,0.01,0.08,1.0,-3.1,0.7,0.1,820,0,,,,,,,,,,,,,,,,,,,
10245430,1480795239976,,,,,,,,0.01,0.07,1.0,-3.2,0.7,0.0,820,0,,,,,,,,,,,,,,,,,,,
10245450,1480795240004,,,,,,,,0.01,0.08,1.0,-3.2,0.7,0.2,820,0,,,,,,,,,,,,,,,,,,,
10245470,1480795240024,,,,,,,,0.02,0.08,0.99,-3.2,0.7,0.3,840,0,,,,,,,,,,,,,,,,,,,
10245492,1480795240046,0,193.5,10.2,184.1,13,204.4,14.45,0.02,0.09,0.99,-3.3,0.7,0.3,840,0,0,1,0.0,0,38.15863,-122.453033,0.0,2.368,39.2,9,3,1.8,36,2.3567,2,0.1433,2.5964,5.1917,37
10245511,1480795240065,,,,,,,,0.02,0.09,1.0,-3.2,0.6,0.2,860,0,,,,,,,,,,,,,,,,,,,
10245531,1480795240085,,,,,,,,0.01,0.09,1.0,-3.2,0.6,0.1,880,0,,,,,,,,,,,,,,,,,,,
10245551,1480795240104,,,,,,,,0.0,0.08,1.0,-3.2,0.5,-0.0,880,0,,,,,,,,,,,,,,,,,,,
10245571,1480795240124,,,,,,,,0.0,0.07,1.0,-3.2,0.6,-0.1,900,0,,,,,,,,,,,,,,,,,,,
10245591,1480795240144,,,,,13,,,0.01,0.06,0.99,-3.1,0.7,-0.1,920,0,0,1,0.0,0,38.15863,-122.453033,0.0,2.368,39.2,9,3,1.8,36,2.3567,2,0.1433,,5.1933,37
10245611,1480795240164,,,,,,,,0.02,0.06,0.99,-3.1,0.8,-0.0,940,0,,,,,,,,,,,,,,,,,,,
10245631,1480795240184,,,,,,,,0.02,0.06,0.98,-3.2,0.7,0.1,960,0,,,,,,,,,,,,,,,,,,,
10245651,1480795240206,,,,,,,,0.03,0.07,0.98,-3.3,0.7,0.2,980,0,,,,,,,,,,,,,,,,,,,
10245671,1480795240226,,,,,,,,0.03,0.07,0.99,-3.3,0.6,0.3,1000,12,,,,,,,,,,,,,,,,,,,
10245693,1480795240248,1,193.8,,185.2,16,205.5,,0.03,0.08,0.99,-3.3,0.5,0.4,1020,12,0,1,0.0,0,38.15863,-122.453033,0.0,2.368,39.2,9,3,1.8,36,2.3567,2,0.1433,2.5964,5.195,37
10245712,1480795240267,,,,,,,,0.03,0.08,0.98,-3.3,0.3,0.4,1040,12,,,,,,,,,,,,,,,,,,,
10245732,1480795240287,,,,,,,,0.03,0.08,0.98,-3.2,0.1,0.4,1060,12,,,,,,,,,,,,,,,,,,,
10245752,1480795240307,,,,,,,,0.02,0.08,0.98,-3.2,-0.1,0.4,1060,769230,,,,,,,,,,,,,,,,,,,
10245772,1480795240327,,,,,,,,0.02,0.08,0.98,-3.2,-0.1,0.3,1080,0,,,,,,,,,,,,,,,,,,,
10245792,1480795240347,,,,,16,,,0.03,0.08,0.98,-3.2,-0.0,0.3,1100,0,0,1,85.0,0,38.15863,-122.453033,0.0,2.368,39.2,9,3,1.8,36,2.3567,2,0.1433,,5.1967,37
10245812,1480795240367,,,,,,,,0.03,0.09,0.98,-3.2,0.0,0.3,1100,0,,,,,,,,,,,,,,,,,,,
10245832,1480795240387,,,,,,,,0.03,0.1,0.99,-3.2,0.2,0.2,1120,0,,,,,,,,,,,,,,,,,,,
10245852,1480795240506,,,,,,,,0.02,0.1,1.0,-3.2,0.3,0.3,1140,0,,,,,,,,,,,,,,,,,,,
10245872,1480795240526,,,,,,,,0.02,0.11,1.0,-3.2,0.5,0.3,1140,0,,,,,,,,,,,,,,,,,,,
10245894,1480795240548,0,193.3,,184.8,19,205.2,,0.01,0.1,1.0,-3.2,0.7,0.3,1160,0,0,1,0.0,0,38.15863,-122.453033,0.0,2.368,39.2,9,3,1.8,36,2.3567,2,0.1433,2.5964,5.2,37
10245913,1480795240567,,,,,,,,0.0,0.1,1.0,-3.2,0.6,0.3,1140,0,,,,,,,,,,,,,,,,,,,
10245933,1480795240587,,,,,,,,-0.0,0.09,1.0,-3.2,0.7,0.2,1140,40,,,,,,,,,,,,,,,,,,,
10245953,1480795240607,,,,,,,,-0.01,0.11,1.0,-3.2,0.7,0.2,1120,40,,,,,,,,,,,,,,,,,,,
10245973,1480795240627,,,,,,,,-0.01,0.11,1.0,-3.2,0.7,0.3,1140,40,,,,,,,,,,,,,,,,,,,
10245993,1480795240647,,,,,19,,,-0.02,0.1,0.99,-3.2,0.8,0.3,1120,40,0,1,0.0,0,38.15863,-122.453033,0.0,2.368,39.2,9,3,1.8,36,2.3567,2,0.1433,,5.2,37
10246013,1480795240667,,,,,,,,-0.03,0.1,1.0,-3.3,0.9,0.3,1100,20,,,,,,,,,,,,,,,,,,,
10246033,1480795240687,,,,,,,,-0.03,0.09,1.0,-3.3,1.1,0.3,1080,20,,,,,,,,,,,,,,,,,,,
10246053,1480795240608,,,,,,,,-0.04,0.1,1.0,-3.3,0.9,0.3,1080,20,,,,,,,,,,,,,,,,,,,
10246073,1480795240628,,,,,,,,-0.04,0.1,1.0,-3.3,0.8,0.2,1060,21,,,,,,,,,,,,,,,,,,,
10246095,1480795240650,0,192.8,,184.4,19,204.8,,-0.04,0.09,1.0,-3.3,0.8,0.2,1060,21,0,1,27.5,0,38.15863,-122.453033,0.0,2.368,39.2,9,3,1.8,36,2.3567,2,0.1433,2.5964,5.2017,37
10246114,1480795240669,,,,,,,,-0.04,0.09,0.99,-3.4,0.9,0.1,1060,21,,,,,,,,,,,,,,,,,,,
10246134,1480795240689,,,,,,,,-0.05,0.1,0.99,-3.4,0.9,0.1,1040,30,,,,,,,,,,,,,,,,,,,
10246154,1480795240709,,,,,,,,-0.05,0.11,0.99,-3.4,0.8,0.1,1040,30,,,,,,,,,,,,,,,,,,,
10246174,1480795240729,,,,,,,,-0.06,0.11,1.0,-3.5,0.9,0.0,1020,30,,,,,,,,,,,,,,,,,,,
10246194,1480795240749,,,,,17,,,-0.06,0.11,1.01,-3.6,0.8,0.1,1020,30,0,1,50.476,0,38.15863,-122.453033,0.0,2.368,39.2,9,3,1.8,36,2.3567,2,0.1433,,5.2033,37
10246214,1480795240769,,,,,,,,-0.06,0.11,1.01,-3.6,0.9,0.1,1020,38,,,,,,,,,,,,,,,,,,,
10246234,1480795240789,,,,,,,,-0.06,0.11,1.01,-3.7,0.8,0.1,1000,40,,,,,,,,,,,,,,,,,,,
10246254,1480795240809,,,,,,,,-0.06,0.12,1.01,-3.7,0.7,0.1,1000,40,,,,,,,,,,,,,,,,,,,
10246274,1480795240829,,,,,,,,-0.07,0.12,1.0,-3.7,0.7,0.1,1000,46,,,,,,,,,,,,,,,,,,,
10246296,1480795240851,0,192.5,,183.8,17,204.4,,-0.07,0.13,1.0,-3.8,0.6,0.2,1000,46,0,1,34.0,0,38.15863,-122.453033,0.0,2.368,39.2,9,3,1.8,36,2.3567,2,0.1433,2.5964,5.205,37
10246315,1480795240870,,,,,,,,-0.07,0.12,1.0,-3.9,0.6,0.2,980,44,,,,,,,,,,,,,,,,,,,
10246335,1480795240890,,,,,,,,-0.07,0.12,1.0,-4.0,0.7,0.3,1000,55,,,,,,,,,,,,,,,,,,,
10246355,1480795240901,,,,,,,,-0.07,0.12,1.0,-4.1,0.7,0.2,980,50,,,,,,,,,,,,,,,,,,,
10246375,1480795240921,,,,,,,,-0.07,0.12,1.0,-4.3,0.7,0.2,980,50,,,,,,,,,,,,,,,,,,,
10246395,1480795240941,,,,,16,,,-0.07,0.12,1.01,-4.4,0.7,0.2,980,60,0,1,22.727,0,38.15863,-122.453033,0.0,2.368,39.2,9,3,1.8,36,2.3567,2,0.1433,,5.2067,37
10246415,1480795240961,,,,,,,,-0.07,0.12,1.01,-4.5,0.6,0.2,960,58,,,,,,,,,,,,,,,,,,,
10246435,1480795240981,,,,,,,,-0.07,0.13,1.01,-4.6,0.7,0.3,960,60,,,,,,,,,,,,,,,,,,,
10246455,1480795241010,,,,,,,,-0.07,0.12,1.0,-4.6,0.7,0.2,960,67,,,,,,,,,,,,,,,,,,,
10246475,1480795241030,,,,,,,,-0.08,0.12,1.01,-4.6,0.7,0.2,960,67,,,,,,,,,,,,,,,,,,,
10246497,1480795241052,0,193.1,11.0,184.5,16,205.1,14.41,-0.08,0.12,1.01,-4.7,0.7,0.1,960,66,0,1,16.333,0,38.15863,-122.453033,0.0,2.368,39.2,9,3,1.8,36,2.3567,2,0.1433,2.5964,5.2083,37
10246516,1480795241071,,,,,,,,-0.08,0.11,1.01,-4.7,0.6,0.0,960,66,,,,,,,,,,,,,,,,,,,
10246536,1480795241091,,,,,,,,-0.09,0.11,1.01,-4.7,0.7,-0.1,940,73,,,,,,,,,,,,,,,,,,,
10246556,1480795241111,,,,,,,,-0.09,0.12,1.01,-4.8,0.6,-0.2,940,78,,,,,,,,,,,,,,,,,,,
