"Interval"|"ms"|0|0|1,"Utc"|"ms"|0|0|1,"FuelLevel"|"F"|0|100|5,"OilTemp"|"F"|0.0|300.0|5,"CoolantPressPSI"|"PSI"|0.0|20.0|1,"Coolant"|"F"|0.0|300.0|5,"OilPress"|"PSI"|0|150|10,"EngineTemp"|"F"|0.0|300.0|5,"Battery"|"Volts"|0.0|20.0|1,"AccelX"|"G"|-3.0|3.0|50,"AccelY"|"G"|-3.0|3.0|50,"AccelZ"|"G"|-3.0|3.0|50,"Yaw"|"Deg/Sec"|-300.0|300.0|50,"Pitch"|"Deg/Sec"|-300.0|300.0|50,"Roll"|"Deg/Sec"|-300.0|300.0|50,"RPM"|""|0|10000|50,"Driveshaft"|"RPM"|0|5000|50,"GPIO1"|""|0|1|10,"GPIO2"|""|0|1|10,"GearRatio"|""|-5.0|5.0|10,"Gear"|""|-1|5|10,"Latitude"|"Degrees"|-180.0|180.0|10,"Longitude"|"Degrees"|-180.0|180.0|10,"Speed"|"MPH"|0.0|150.0|10,"Distance"|"Miles"|0.0|0.0|10,"Altitude"|"Feet"|0.0|4000.0|10,"GPSSats"|""|0|20|10,"GPSQual"|""|0|5|10,"GPSDOP"|""|0.0|20.0|10,"LapCount"|""|0|0|10,"LapTime"|"Min"|0.0|0.0|10,"Sector"|""|0|0|10,"SectorTime"|"Min"|0.0|0.0|10,"PredTime"|"Min"|0.0|0.0|5,"ElapsedTime"|"Min"|0.0|0.0|10,"CurrentLap"|""|0|0|10
102973,1480802289261,,,,,,,,0.03,0.07,0.97,-3.0,0.2,-0.4,280,0,,,,,,,,,,,,,,,,,,,
102993,1480802289281,,,,,,,,0.02,0.07,0.96,-3.0,0.2,-0.4,440,0,,,,,,,,,,,,,,,,,,,
103013,1480802289399,,,,,,,,0.03,0.07,0.97,-3.0,0.3,-0.3,520,0,,,,,,,,,,,,,,,,,,,
103033,1480802289419,,,,,,,,0.02,0.05,0.96,-3.0,0.4,-0.2,520,0,,,,,,,,,,,,,,,,,,,
103053,1480802289439,0,195.3,9.0,189.9,0,206.4,11.34,0.03,0.07,0.97,-3.1,0.4,0.0,640,0,0,0,0.0,0,38.158741,-122.452942,0.0,0.008,140910992.0,8,3,2.5,0,0.0,-1,0.0,0.0,0.0,0
103073,1480802289459,,,,,,,,0.02,0.08,0.98,-3.0,0.2,-0.1,780,0,,,,,,,,,,,,,,,,,,,
103093,1480802289479,,,,,,,,0.02,0.07,0.98,-2.9,0.1,-0.5,900,0,,,,,,,,,,,,,,,,,,,
103113,1480802289499,,,,,,,,0.02,0.06,0.98,-2.9,0.2,-0.7,980,0,,,,,,,,,,,,,,,,,,,
103133,1480802289519,,,,,,,,0.02,0.05,1.0,-2.9,-0.1,-0.8,940,0,,,,,,,,,,,,,,,,,,,
103153,1480802289539,,,,,0,,,0.02,0.05,0.99,-2.8,0.0,-0.8,920,0,0,0,0.0,0,38.158741,-122.452942,0.0,0.008,140910992.0,8,3,2.5,0,0.0,-1,0.0,,0.0,0
103173,1480802289559,,,,,,,,0.02,0.06,0.98,-2.8,0.0,-0.6,940,0,,,,,,,,,,,,,,,,,,,
103193,1480802289579,,,,,,,,0.0,0.06,0.98,-2.9,-0.1,-0.5,940,0,,,,,,,,,,,,,,,,,,,
103213,1480802289500,,,,,,,,0.01,0.06,0.98,-2.9,0.1,-0.4,940,0,,,,,,,,,,,,,,,,,,,
103233,1480802289520,,,,,,,,-0.0,0.06,0.98,-3.0,0.1,-0.3,980,0,,,,,,,,,,,,,,,,,,,
103253,1480802289540,1,195.7,,189.8,1,206.2,,-0.01,0.07,0.99,-3.1,-0.0,-0.3,1020,0,0,0,0.0,0,38.158741,-122.452942,0.0,0.008,140910992.0,8,3,2.5,0,0.0,-1,0.0,0.0,0.0,0
103273,1480802289560,,,,,,,,-0.01,0.08,0.99,-3.1,-0.1,-0.2,1040,0,,,,,,,,,,,,,,,,,,,
103293,1480802289580,,,,,,,,-0.02,0.08,0.98,-3.1,-0.5,-0.2,1060,0,,,,,,,,,,,,,,,,,,,
103313,1480802289601,,,,,,,,-0.02,0.09,0.98,-3.2,-0.6,-0.2,1080,0,,,,,,,,,,,,,,,,,,,
103333,1480802289621,,,,,,,,-0.02,0.09,0.99,-3.1,-0.9,-0.1,1240,26,,,,,,,,,,,,,,,,,,,
103353,1480802289641,,,,,5,,,-0.01,0.08,0.97,-3.0,-1.0,-0.2,1140,0,0,1,0.001,0,38.158741,-122.452942,0.0,0.008,140910992.0,8,3,2.5,0,0.0,-1,0.0,,0.0,0
103373,1480802289661,,,,,,,,0.0,0.1,0.97,-3.1,-0.8,-0.2,1180,0,,,,,,,,,,,,,,,,,,,
103393,1480802289681,,,,,,,,0.01,0.1,0.96,-3.1,-0.7,-0.2,1260,0,,,,,,,,,,,,,,,,,,,
103413,1480802289701,,,,,,,,0.02,0.09,0.96,-3.1,-0.2,-0.3,1300,0,,,,,,,,,,,,,,,,,,,
103433,1480802289721,,,,,,,,0.01,0.08,0.98,-3.1,-0.4,-0.3,1340,0,,,,,,,,,,,,,,,,,,,
103453,1480802289741,0,195.9,,189.6,9,206.4,,0.02,0.08,0.99,-3.1,-0.3,-0.2,1400,0,0,1,0.0,0,38.158741,-122.452942,0.0,0.008,140910992.0,8,3,2.5,0,0.0,-1,0.0,0.0,0.0,0
103473,1480802289761,,,,,,,,0.02,0.08,0.98,-3.1,-0.0,-0.2,1420,0,,,,,,,,,,,,,,,,,,,
103493,1480802289781,,,,,,,,0.02,0.1,0.97,-3.2,-0.2,-0.2,1460,0,,,,,,,,,,,,,,,,,,,
103513,1480802289801,,,,,,,,0.02,0.09,0.96,-3.2,0.2,-0.2,1480,0,,,,,,,,,,,,,,,,,,,
103533,1480802289821,,,,,,,,0.01,0.09,0.96,-3.3,0.0,-0.2,1480,0,,,,,,,,,,,,,,,,,,,
103553,1480802289841,,,,,15,,,0.02,0.08,0.96,-3.3,0.1,-0.2,1520,0,0,1,0.0,0,38.158741,-122.452942,0.0,0.008,140910992.0,8,3,2.5,0,0.0,-1,0.0,,0.0,0
103573,1480802289861,,,,,,,,0.0,0.09,0.95,-3.3,-0.0,-0.1,1520,0,,,,,,,,,,,,,,,,,,,
103593,1480802289881,,,,,,,,0.01,0.08,0.95,-3.4,-0.0,-0.1,1560,0,,,,,,,,,,,,,,,,,,,
103613,1480802289893,,,,,,,,0.0,0.08,0.95,-3.4,-0.0,-0.1,1540,0,,,,,,,,,,,,,,,,,,,
103633,1480802289913,,,,,,,,0.01,0.08,0.96,-3.5,0.1,-0.1,1540,0,,,,,,,,,,,,,,,,,,,
103653,1480802289933,0,195.6,,189.1,16,205.8,,0.01,0.08,0.97,-3.4,0.1,-0.1,1520,0,0,1,0.0,0,38.158741,-122.452942,0.0,0.008,140910992.0,8,3,2.5,0,0.0,-1,0.0,0.0,0.0,0
103673,1480802289953,,,,,,,,0.02,0.08,0.97,-3.4,0.2,-0.1,1560,0,,,,,,,,,,,,,,,,,,,
103693,1480802289973,,,,,,,,0.02,0.09,0.97,-3.3,0.2,-0.1,1520,0,,,,,,,,,,,,,,,,,,,
103713,1480802290000,,,,,,,,0.02,0.09,0.96,-3.3,0.1,-0.1,1520,0,,,,,,,,,,,,,,,,,,,
103733,1480802290020,,,,,,,,0.02,0.1,0.96,-3.2,0.0,-0.1,1540,0,,,,,,,,,,,,,,,,,,,
103753,1480802290040,,,,,23,,,0.02,0.1,0.96,-3.2,0.0,-0.2,1540,0,0,1,0.0,0,38.158741,-122.452942,0.0,0.008,140910992.0,8,3,2.5,0,0.0,-1,0.0,,0.0,0
103773,1480802290060,,,,,,,,0.02,0.09,0.95,-3.2,0.1,-0.2,1500,0,,,,,,,,,,,,,,,,,,,
103793,1480802290080,,,,,,,,0.02,0.08,0.95,-3.2,0.1,-0.2,1500,0,,,,,,,,,,,,,,,,,,,
103813,1480802290199,,,,,,,,0.01,0.08,0.96,-3.2,0.2,-0.2,1480,0,,,,,,,,,,,,,,,,,,,
103833,1480802290219,,,,,,,,0.01,0.08,0.96,-3.2,0.2,-0.2,1480,0,,,,,,,,,,,,,,,,,,,
103853,1480802290239,0,196.0,,189.0,26,205.5,,0.02,0.09,0.97,-3.2,0.2,-0.1,1480,0,0,1,0.0,0,38.158741,-122.452942,0.0,0.008,140910992.0,8,3,2.5,0,0.0,-1,0.0,0.0,0.0,0
103873,1480802290259,,,,,,,,0.02,0.09,0.96,-3.2,0.3,-0.2,1440,0,,,,,,,,,,,,,,,,,,,
103893,1480802290279,,,,,,,,0.02,0.09,0.97,-3.2,0.3,-0.1,1460,0,,,,,,,,,,,,,,,,,,,
103913,1480802290299,,,,,,,,0.02,0.09,0.97,-3.2,0.3,-0.2,1440,0,,,,,,,,,,,,,,,,,,,
103933,1480802290319,,,,,,,,0.02,0.1,0.97,-3.2,0.2,-0.1,1440,0,,,,,,,,,,,,,,,,,,,
103953,1480802290339,,,,,24,,,0.02,0.08,0.97,-3.2,0.2,-0.1,1400,0,0,1,0.0,0,38.158741,-122.452942,0.0,0.008,140910992.0,8,3,2.5,0,0.0,-1,0.0,,0.0,0
103973,1480802290359,,,,,,,,0.02,0.09,0.97,-3.2,0.2,-0.1,1400,0,,,,,,,,,,,,,,,,,,,
103993,1480802290379,,,,,,,,0.02,0.08,0.97,-3.2,0.2,-0.1,1380,0,,,,,,,,,,,,,,,,,,,
104013,1480802290300,,,,,,,,0.02,0.09,0.97,-3.2,0.2,-0.2,1380,0,,,,,,,,,,,,,,,,,,,
104033,1480802290320,,,,,,,,0.02,0.09,0.97,-3.2,0.1,-0.1,1360,0,,,,,,,,,,,,,,,,,,,
104053,1480802290340,0,196.4,9.1,190.3,23,206.9,14.08,0.02,0.09,0.97,-3.2,0.2,-0.2,1360,0,0,1,0.0,0,38.158741,-122.452942,0.0,0.008,140910992.0,8,3,2.5,0,0.0,-1,0.0,0.0,0.0,0
104073,1480802290360,,,,,,,,0.02,0.08,0.97,-3.2,0.2,-0.2,1320,0,,,,,,,,,,,,,,,,,,,
104093,1480802290380,,,,,,,,0.02,0.09,0.97,-3.2,0.2,-0.1,1320,0,,,,,,,,,,,,,,,,,,,
104113,1480802290400,,,,,,,,0.03,0.08,0.97,-3.2,0.1,-0.2,1300,0,,,,,,,,,,,,,,,,,,,
104133,1480802290420,,,,,,,,0.02,0.08,0.97,-3.1,0.2,-0.1,1280,0,,,,,,,,,,,,,,,,,,,
104153,1480802290440,,,,,22,,,0.02,0.08,0.97,-3.2,0.2,-0.1,1280,0,0,1,0.0,0,38.158741,-122.452942,0.0,0.008,140910992.0,8,3,2.5,0,0.0,-1,0.0,,0.0,0
104173,1480802290460,,,,,,,,0.02,0.08,0.97,-3.2,0.3,-0.1,1280,0,,,,,,,,,,,,,,,,,,,
104193,1480802290480,,,,,,,,0.02,0.07,0.97,-3.1,0.3,-0.1,1260,0,,,,,,,,,,,,,,,,,,,
104213,1480802290500,,,,,,,,0.02,0.08,0.97,-3.2,0.3,-0.1,1260,0,,,,,,,,,,,,,,,,,,,
104233,1480802290520,,,,,,,,0.02,0.08,0.97,-3.1,0.3,-0.1,1240,0,,,,,,,,,,,,,,,,,,,
104253,1480802290540,0,196.2,,190.1,19,206.6,,0.02,0.08,0.97,-3.1,0.2,-0.1,1240,0,0,1,0.0,0,38.158741,-122.452942,0.0,0.008,140910992.0,8,3,2.5,0,0.0,-1,0.0,0.0,0.0,0
104273,1480802290560,,,,,,,,0.02,0.08,0.98,-3.1,0.3,-0.1,1220,0,,,,,,,,,,,,,,,,,,,
104293,1480802290580,,,,,,,,0.02,0.08,0.97,-3.1,0.2,-0.1,1200,0,,,,,,,,,,,,,,,,,,,
104313,1480802290600,,,,,,,,0.02,0.08,0.98,-3.1,0.3,-0.1,1200,0,,,,,,,,,,,,,,,,,,,
104333,1480802290620,,,,,,,,0.02,0.08,0.98,-3.1,0.3,-0.1,1200,0,,,,,,,,,,,,,,,,,,,
104353,1480802290640,,,,,17,,,0.02,0.08,0.98,-3.1,0.4,-0.1,1200,0,0,1,0.0,0,38.158741,-122.452942,0.0,0.008,140910992.0,8,3,2.5,0,0.0,-1,0.0,,0.0,0
104373,1480802290660,,,,,,,,0.02,0.08,0.98,-3.1,0.3,-0.1,1180,0,,,,,,,,,,,,,,,,,,,
104393,1480802290680,,,,,,,,0.02,0.08,0.98,-3.0,0.4,-0.1,1160,0,,,,,,,,,,,,,,,,,,,
104413,1480802290701,,,,,,,,0.02,0.07,0.98,-3.0,0.4,-0.1,1160,0,,,,,,,,,,,,,,,,,,,
104433,1480802290721,,,,,,,,0.02,0.07,0.98,-3.0,0.4,-0.1,1140,0,,,,,,,,,,,,,,,,,,,
104453,1480802290741,0,196.1,,190.3,17,206.6,,0.02,0.07,0.98,-3.0,0.3,-0.1,1140,0,0,1,0.0,0,38.158741,-122.452942,0.0,0.008,140910992.0,8,3,2.5,0,0.0,-1,0.0,0.0,0.0,0
104473,1480802290761,,,,,,,,0.02,0.07,0.98,-3.0,0.3,-0.2,1140,0,,,,,,,,,,,,,,,,,,,
104493,1480802290781,,,,,,,,0.02,0.07,0.98,-3.0,0.2,-0.2,1140,0,,,,,,,,,,,,,,,,,,,
104513,1480802290801,,,,,,,,0.02,0.08,0.98,-3.0,0.3,-0.2,1120,0,,,,,,,,,,,,,,,,,,,
104533,1480802290821,,,,,,,,0.02,0.08,0.98,-3.0,0.3,-0.2,1120,0,,,,,,,,,,,,,,,,,,,
104553,1480802290841,,,,,18,,,0.02,0.07,0.98,-3.0,0.3,-0.2,1100,0,0,1,0.0,0,38.158741,-122.452942,0.0,0.008,140910992.0,8,3,2.5,0,0.0,-1,0.0,,0.0,0
104573,1480802290861,,,,,,,,0.02,0.07,0.98,-3.0,0.3,-0.1,1100,0,,,,,,,,,,,,,,,,,,,
104593,1480802290881,,,,,,,,0.02,0.07,0.98,-3.0,0.2,-0.1,1100,0,,,,,,,,,,,,,,,,,,,
104613,1480802290994,,,,,,,,0.02,0.07,0.98,-3.0,0.3,-0.1,1100,0,,,,,,,,,,,,,,,,,,,
104633,1480802291014,,,,,,,,0.02,0.07,0.98,-3.0,0.2,-0.2,1080,0,,,,,,,,,,,,,,,,,,,
104653,1480802291034,0,195.3,,189.6,16,205.9,,0.01,0.07,0.99,-3.0,0.2,-0.2,1080,0,0,1,0.0,0,38.158741,-122.452942,0.0,0.008,140910992.0,8,3,2.5,0,0.0,-1,0.0,0.0,0.0,0
104673,1480802291054,,,,,,,,0.01,0.08,0.98,-3.0,0.2,-0.2,1080,0,,,,,,,,,,,,,,,,,,,
104693,1480802291074,,,,,,,,0.02,0.08,0.98,-3.1,0.2,-0.2,1060,0,,,,,,,,,,,,,,,,,,,
104713,1480802291094,,,,,,,,0.02,0.08,0.98,-3.1,0.1,-0.2,1060,0,,,,,,,,,,,,,,,,,,,
104733,1480802291114,,,,,,,,0.02,0.08,0.98,-3.1,0.2,-0.2,1040,0,,,,,,,,,,,,,,,,,,,
104753,1480802291134,,,,,17,,,0.02,0.08,0.98,-3.1,0.3,-0.2,1040,0,0,1,0.0,0,38.158741,-122.452942,0.0,0.008,140910992.0,8,3,2.5,0,0.0,-1,0.0,,0.0,0
104773,1480802291154,,,,,,,,0.02,0.08,0.98,-3.1,0.3,-0.1,1040,0,,,,,,,,,,,,,,,,,,,
104793,1480802291174,,,,,,,,0.01,0.08,0.98,-3.1,0.3,-0.1,1040,0,,,,,,,,,,,,,,,,,,,
104813,1480802291100,,,,,,,,0.01,0.08,0.98,-3.1,0.2,-0.1,1020,0,,,,,,,,,,,,,,,,,,,
104833,1480802291120,,,,,,,,0.02,0.09,0.98,-3.1,0.2,-0.0,1020,0,,,,,,,,,,,,,,,,,,,
104853,1480802291140,0,196.1,,190.8,17,206.6,,0.02,0.09,0.97,-3.2,0.2,-0.0,1020,0,0,1,0.0,0,38.158741,-122.452942,0.0,0.008,140910992.0,8,3,2.5,0,0.0,-1,0.0,0.0,0.0,0
104873,1480802291160,,,,,,,,0.02,0.09,0.97,-3.2,0.2,-0.0,1000,0,,,,,,,,,,,,,,,,,,,
104893,1480802291180,,,,,,,,0.02,0.09,0.97,-3.2,0.2,-0.0,1000,0,,,,,,,,,,,,,,,,,,,
104913,1480802291200,,,,,,,,0.03,0.09,0.97,-3.2,0.2,-0.0,1000,0,,,,,,,,,,,,,,,,,,,
104933,1480802291220,,,,,,,,0.03,0.09,0.97,-3.2,0.3,-0.0,1000,0,,,,,,,,,,,,,,,,,,,
104953,1480802291240,,,,,16,,,0.03,0.09,0.97,-3.2,0.3,-0.0,980,0,0,1,0.0,0,38.158741,-122.452942,0.0,0.008,140910992.0,8,3,2.5,0,0.0,-1,0.0,,0.0,0
104973,1480802291260,,,,,,,,0.03,0.09,0.97,-3.1,0.4,-0.0,980,0,,,,,,,,,,,,,,,,,,,
104993,1480802291280,,,,,,,,0.04,0.09,0.97,-3.1,0.4,-0.0,980,0,,,,,,,,,,,,,,,,,,,
105013,1480802291300,,,,,,,,0.04,0.09,0.97,-3.1,0.5,-0.0,980,0,,,,,,,,,,,,,,,,,,,
105033,1480802291320,,,,,,,,0.04,0.09,0.97,-3.1,0.5,-0.0,980,0,,,,,,,,,,,,,,,,,,,
105053,1480802291340,0,195.3,8.4,190.1,15,205.8,14.19,0.04,0.1,0.97,-3.1,0.5,0.0,980,0,0,1,0.0,0,38.158741,-122.452942,0.0,0.008,140910992.0,8,3,2.5,0,0.0,-1,0.0,0.0,0.0,0
105073,1480802291360,,,,,,,,0.04,0.1,0.97,-3.1,0.5,0.0,980,0,,,,,,,,,,,,,,,,,,,
105093,1480802291380,,,,,,,,0.04,0.1,0.97,-3.1,0.5,0.0,960,0,,,,,,,,,,,,,,,,,,,
105113,1480802291401,,,,,,,,0.04,0.1,0.97,-3.1,0.5,0.0,960,0,,,,,,,,,,,,,,,,,,,
105133,1480802291421,,,,,,,,0.05,0.1,0.97,-3.2,0.5,0.1,960,0,,,,,,,,,,,,,,,,,,,
105153,1480802291441,,,,,15,,,0.05,0.11,0.97,-3.2,0.5,0.1,960,0,0,1,0.0,0,38.158741,-122.452942,0.0,0.008,140910992.0,8,3,2.5,0,0.0,-1,0.0,,0.0,0
105173,1480802291461,,,,,,,,0.05,0.11,0.97,-3.2,0.4,0.1,960,0,,,,,,,,,,,,,,,,,,,
105193,1480802291481,,,,,,,,0.05,0.11,0.97,-3.2,0.4,0.1,960,0,,,,,,,,,,,,,,,,,,,
105213,1480802291500,,,,,,,,0.05,0.12,0.97,-3.2,0.4,0.1,960,0,,,,,,,,,,,,,,,,,,,
105233,1480802291520,,,,,,,,0.05,0.12,0.97,-3.2,0.3,0.1,960,0,,,,,,,,,,,,,,,,,,,
105253,1480802291540,0,195.4,,190.1,15,205.3,,0.04,0.12,0.97,-3.2,0.3,0.1,960,0,0,1,0.0,0,38.158741,-122.452942,0.0,0.008,140910992.0,8,3,2.5,0,0.0,-1,0.0,0.0,0.0,0
105273,1480802291560,,,,,,,,0.04,0.12,0.98,-3.2,0.3,0.1,940,0,,,,,,,,,,,,,,,,,,,
105293,1480802291580,,,,,,,,0.04,0.13,0.98,-3.2,0.3,0.0,940,0,,,,,,,,,,,,,,,,,,,
105313,1480802291596,,,,,,,,0.04,0.13,0.98,-3.1,0.3,-0.0,960,0,,,,,,,,,,,,,,,,,,,
105333,1480802291616,,,,,,,,0.04,0.12,0.98,-3.1,0.2,-0.1,940,0,,,,,,,,,,,,,,,,,,,
105353,1480802291636,,,,,14,,,0.03,0.12,0.98,-3.1,0.2,-0.2,940,0,0,1,0.0,0,38.158741,-122.452942,0.0,0.008,140910992.0,8,3,2.5,0,0.0,-1,0.0,,0.0,0
105373,1480802291656,,,,,,,,0.03,0.11,0.98,-3.0,0.3,-0.2,940,0,,,,,,,,,,,,,,,,,,,
105393,1480802291676,,,,,,,,0.03,0.11,0.98,-3.0,0.3,-0.3,920,0,,,,,,,,,,,,,,,,,,,
105413,1480802291800,,,,,,,,0.03,0.1,0.98,-3.0,0.2,-0.3,940,0,,,,,,,,,,,,,,,,,,,
105433,1480802291820,,,,,,,,0.02,0.1,0.98,-3.0,0.2,-0.4,920,0,,,,,,,,,,,,,,,,,,,
105453,1480802291840,0,195.3,,190.4,14,205.2,,0.02,0.09,0.97,-2.9,0.1,-0.4,940,0,0,1,0.0,0,38.158741,-122.452942,0.0,0.008,140910992.0,8,3,2.5,0,0.0,-1,0.0,0.0,0.0,0
105473,1480802291860,,,,,,,,0.02,0.08,0.97,-2.9,0.1,-0.4,920,0,,,,,,,,,,,,,,,,,,,
105493,1480802291880,,,,,,,,0.02,0.08,0.97,-2.9,0.1,-0.3,940,0,,,,,,,,,,,,,,,,,,,
105513,1480802291900,,,,,,,,0.02,0.07,0.97,-3.0,0.2,-0.3,920,0,,,,,,,,,,,,,,,,,,,
105533,1480802291920,,,,,,,,0.02,0.07,0.97,-3.0,0.2,-0.2,920,0,,,,,,,,,,,,,,,,,,,
105553,1480802291940,,,,,14,,,0.02,0.07,0.97,-3.0,0.3,-0.1,940,0,0,1,0.0,0,38.158741,-122.452942,0.0,0.008,140910992.0,8,3,2.5,0,0.0,-1,0.0,,0.0,0
105573,1480802291960,,,,,,,,0.02,0.07,0.97,-3.0,0.3,-0.0,940,0,,,,,,,,,,,,,,,,,,,
105593,1480802291980,,,,,,,,0.02,0.08,0.97,-3.1,0.3,0.0,920,0,,,,,,,,,,,,,,,,,,,
105613,1480802291895,,,,,,,,0.03,0.08,0.97,-3.1,0.3,0.1,920,0,,,,,,,,,,,,,,,,,,,
105633,1480802291915,,,,,,,,0.03,0.09,0.97,-3.1,0.4,0.0,920,0,,,,,,,,,,,,,,,,,,,
105653,1480802291935,0,195.5,,190.5,13,205.1,,0.03,0.1,0.98,-3.1,0.4,-0.0,920,0,0,1,0.0,0,38.158741,-122.452942,0.0,0.008,140910992.0,8,3,2.5,0,0.0,-1,0.0,0.0,0.0,0
105673,1480802291955,,,,,,,,0.03,0.1,0.97,-3.1,0.4,-0.1,920,0,,,,,,,,,,,,,,,,,,,
105693,1480802291975,,,,,,,,0.03,0.1,0.97,-3.1,0.3,-0.2,920,0,,,,,,,,,,,,,,,,,,,
105713,1480802292002,,,,,,,,0.02,0.1,0.97,-3.1,0.3,-0.3,920,0,,,,,,,,,,,,,,,,,,,
105733,1480802292022,,,,,,,,0.02,0.09,0.98,-3.1,0.2,-0.4,920,0,,,,,,,,,,,,,,,,,,,
105753,1480802292042,,,,,13,,,0.02,0.08,0.97,-3.1,0.2,-0.4,920,0,0,1,0.0,0,38.158741,-122.452942,0.0,0.008,140910992.0,8,3,0.4,0,0.0,-1,0.0,,0.0,0
105773,1480802292062,,,,,,,,0.02,0.07,0.97,-3.1,0.2,-0.4,920,0,,,,,,,,,,,,,,,,,,,
105793,1480802292082,,,,,,,,0.02,0.06,0.97,-3.1,0.2,-0.4,920,0,,,,,,,,,,,,,,,,,,,
105813,1480802292102,,,,,,,,0.02,0.06,0.97,-3.1,0.2,-0.3,920,0,,,,,,,,,,,,,,,,,,,
105833,1480802292122,,,,,,,,0.02,0.06,0.97,-3.1,0.3,-0.2,920,0,,,,,,,,,,,,,,,,,,,
105853,1480802292142,0,196.4,,192.0,13,206.2,,0.02,0.06,0.97,-3.1,0.2,-0.2,920,0,0,1,0.0,0,38.158741,-122.452942,0.0,0.008,140910992.0,8,3,0.4,0,0.0,-1,0.0,0.0,0.0,0
105873,1480802292162,,,,,,,,0.02,0.07,0.97,-3.2,0.2,-0.1,920,0,,,,,,,,,,,,,,,,,,,
105893,1480802292182,,,,,,,,0.03,0.07,0.97,-3.2,0.3,-0.0,920,0,,,,,,,,,,,,,,,,,,,
105913,1480802292202,,,,,,,,0.03,0.08,0.97,-3.2,0.3,-0.0,920,0,,,,,,,,,,,,,,,,,,,
105933,1480802292222,,,,,,,,0.03,0.09,0.97,-3.2,0.3,-0.0,920,0,,,,,,,,,,,,,,,,,,,
105953,1480802292242,,,,,14,,,0.03,0.09,0.98,-3.2,0.3,-0.1,920,0,0,1,0.0,0,38.158741,-122.452942,0.0,0.008,140910992.0,8,3,0.4,0,0.0,-1,0.0,,0.0,0
105973,1480802292262,,,,,,,,0.03,0.09,0.98,-3.1,0.2,-0.2,920,0,,,,,,,,,,,,,,,,,,,
105993,1480802292282,,,,,,,,0.02,0.08,0.98,-3.1,0.2,-0.3,920,0,,,,,,,,,,,,,,,,,,,
106013,1480802292302,,,,,,,,0.02,0.08,0.98,-3.1,0.1,-0.4,920,0,,,,,,,,,,,,,,,,,,,
106033,1480802292322,,,,,,,,0.02,0.07,0.98,-3.0,0.1,-0.4,920,0,,,,,,,,,,,,,,,,,,,
106053,1480802292342,0,196.4,7.2,191.3,13,204.8,14.21,0.01,0.06,0.97,-3.0,0.1,-0.4,920,0,0,1,0.0,0,38.158741,-122.452942,0.0,0.008,140910992.0,8,3,0.4,0,0.0,-1,0.0,0.0,0.0,0
106073,1480802292362,,,,,,,,0.01,0.06,0.97,-3.0,0.1,-0.4,920,0,,,,,,,,,,,,,,,,,,,
106093,1480802292382,,,,,,,,0.01,0.06,0.97,-3.0,0.1,-0.3,920,0,,,,,,,,,,,,,,,,,,,
106113,1480802292402,,,,,,,,0.02,0.06,0.97,-3.1,0.2,-0.2,920,0,,,,,,,,,,,,,,,,,,,
106133,1480802292422,,,,,,,,0.02,0.05,0.97,-3.1,0.2,-0.1,940,0,,,,,,,,,,,,,,,,,,,
106153,1480802292442,,,,,13,,,0.02,0.06,0.97,-3.1,0.1,-0.0,940,0,0,1,0.0,0,38.158741,-122.452942,0.0,0.008,140910992.0,8,3,0.4,0,0.0,-1,0.0,,0.0,0
106173,1480802292462,,,,,,,,0.02,0.07,0.97,-3.2,0.1,0.0,900,0,,,,,,,,,,,,,,,,,,,
106193,1480802292482,,,,,,,,0.02,0.07,0.97,-3.2,0.2,0.1,920,0,,,,,,,,,,,,,,,,,,,
106213,1480802292601,,,,,,,,0.02,0.08,0.97,-3.1,0.3,0.0,920,0,,,,,,,,,,,,,,,,,,,
106233,1480802292621,,,,,,,,0.02,0.09,0.97,-3.2,0.3,0.0,920,0,,,,,,,,,,,,,,,,,,,
106253,1480802292641,0,196.4,,192.3,14,205.5,,0.02,0.09,0.98,-3.2,0.2,-0.1,920,0,0,1,0.0,0,38.158741,-122.452942,0.0,0.008,140910992.0,8,3,0.4,0,0.0,-1,0.0,0.0,0.0,0
106273,1480802292661,,,,,,,,0.02,0.09,0.98,-3.1,0.2,-0.1,920,0,,,,,,,,,,,,,,,,,,,
106293,1480802292681,,,,,,,,0.02,0.08,0.98,-3.1,0.2,-0.2,920,0,,,,,,,,,,,,,,,,,,,
106313,1480802292701,,,,,,,,0.02,0.08,0.98,-3.1,0.2,-0.3,920,0,,,,,,,,,,,,,,,,,,,
106333,1480802292721,,,,,,,,0.01,0.08,0.98,-3.1,0.1,-0.4,920,0,,,,,,,,,,,,,,,,,,,
106353,1480802292741,,,,,14,,,0.01,0.07,0.98,-3.1,0.1,-0.4,920,0,0,1,0.0,0,38.158741,-122.452942,0.0,0.008,140910992.0,8,3,0.4,0,0.0,-1,0.0,,0.0,0
106373,1480802292761,,,,,,,,0.01,0.06,0.98,-3.1,0.1,-0.3,920,0,,,,,,,,,,,,,,,,,,,
106393,1480802292781,,,,,,,,0.01,0.06,0.98,-3.1,0.2,-0.3,920,0,,,,,,,,,,,,,,,,,,,
106413,1480802292700,,,,,,,,0.01,0.05,0.97,-3.1,0.2,-0.2,920,0,,,,,,,,,,,,,,,,,,,
106433,1480802292720,,,,,,,,0.02,0.05,0.97,-3.1,0.3,-0.1,920,0,,,,,,,,,,,,,,,,,,,
106453,1480802292740,0,196.2,,192.2,14,205.7,,0.02,0.06,0.97,-3.1,0.2,-0.0,920,0,0,1,0.0,0,38.158741,-122.452942,0.0,0.008,140910992.0,8,3,0.4,0,0.0,-1,0.0,0.0,0.0,0
106473,1480802292760,,,,,,,,0.02,0.06,0.98,-3.2,0.2,0.0,920,0,,,,,,,,,,,,,,,,,,,
106493,1480802292780,,,,,,,,0.02,0.07,0.97,-3.2,0.3,0.1,920,0,,,,,,,,,,,,,,,,,,,
106513,1480802292799,,,,,,,,0.02,0.08,0.98,-3.1,0.3,0.1,920,0,,,,,,,,,,,,,,,,,,,
106533,1480802292819,,,,,,,,0.02,0.09,0.98,-3.1,0.4,0.0,920,0,,,,,,,,,,,,,,,,,,,
106553,1480802292839,,,,,13,,,0.02,0.09,0.98,-3.1,0.3,-0.1,920,0,0,1,0.0,0,38.158741,-122.452942,0.0,0.008,140910992.0,8,3,0.4,0,0.0,-1,0.0,,0.0,0
106573,1480802292859,,,,,,,,0.02,0.09,0.98,-3.1,0.3,-0.2,920,0,,,,,,,,,,,,,,,,,,,
106593,1480802292879,,,,,,,,0.02,0.08,0.98,-3.1,0.4,-0.3,920,0,,,,,,,,,,,,,,,,,,,
106613,1480802292898,,,,,,,,0.02,0.08,0.98,-3.0,0.3,-0.3,920,0,,,,,,,,,,,,,,,,,,,
106633,1480802292918,,,,,,,,0.01,0.08,0.98,-3.0,0.2,-0.4,920,0,,,,,,,,,,,,,,,,,,,
106653,1480802292938,0,195.5,,191.0,14,204.3,,0.01,0.07,0.98,-3.1,0.2,-0.4,920,0,0,1,0.0,0,38.158741,-122.452942,0.0,0.008,140910992.0,8,2,0.4,0,0.0,-1,0.0,0.0,0.0,0
106673,1480802292958,,,,,,,,0.01,0.06,0.98,-3.1,0.2,-0.4,920,0,,,,,,,,,,,,,,,,,,,
106693,1480802292978,,,,,,,,0.01,0.06,0.98,-3.1,0.2,-0.3,920,0,,,,,,,,,,,,,,,,,,,
106713,1480802293000,,,,,,,,0.01,0.05,0.97,-3.1,0.3,-0.2,920,0,,,,,,,,,,,,,,,,,,,
106733,1480802293020,,,,,,,,0.02,0.06,0.97,-3.1,0.3,-0.1,920,0,,,,,,,,,,,,,,,,,,,
106753,1480802293040,,,,,13,,,0.02,0.06,0.97,-3.1,0.2,-0.1,920,0,0,1,0.0,0,38.158741,-122.452942,0.0,0.008,140910992.0,8,2,0.4,0,0.0,-1,0.0,,0.0,0
106773,1480802293060,,,,,,,,0.02,0.07,0.97,-3.2,0.2,0.0,920,0,,,,,,,,,,,,,,,,,,,
106793,1480802293080,,,,,,,,0.02,0.08,0.97,-3.2,0.2,0.0,920,0,,,,,,,,,,,,,,,,,,,
106813,1480802293100,,,,,,,,0.02,0.09,0.97,-3.2,0.2,0.1,920,0,,,,,,,,,,,,,,,,,,,
106833,1480802293120,,,,,,,,0.02,0.09,0.97,-3.2,0.3,0.0,920,0,,,,,,,,,,,,,,,,,,,
106853,1480802293140,0,195.4,,191.9,14,205.1,,0.02,0.09,0.98,-3.2,0.3,-0.0,920,0,0,1,0.0,0,38.158741,-122.452942,0.0,0.008,140910992.0,8,3,0.4,0,0.0,-1,0.0,0.0,0.0,0
106873,1480802293160,,,,,,,,0.02,0.09,0.98,-3.2,0.2,-0.1,920,0,,,,,,,,,,,,,,,,,,,
106893,1480802293180,,,,,,,,0.02,0.09,0.98,-3.1,0.2,-0.2,920,0,,,,,,,,,,,,,,,,,,,
106913,1480802293199,,,,,,,,0.02,0.09,0.98,-3.1,0.1,-0.3,920,0,,,,,,,,,,,,,,,,,,,
106933,1480802293219,,,,,,,,0.01,0.08,0.98,-3.1,0.1,-0.3,940,0,,,,,,,,,,,,,,,,,,,
106953,1480802293239,,,,,14,,,0.01,0.08,0.97,-3.1,0.1,-0.3,920,0,0,1,0.0,0,38.158741,-122.452942,0.0,0.008,140910992.0,8,3,0.4,0,0.0,-1,0.0,,0.0,0
106973,1480802293259,,,,,,,,0.01,0.07,0.97,-3.1,0.1,-0.3,940,0,,,,,,,,,,,,,,,,,,,
106993,1480802293279,,,,,,,,0.01,0.07,0.97,-3.1,0.1,-0.3,920,0,,,,,,,,,,,,,,,,,,,
107013,1480802293398,,,,,,,,0.01,0.07,0.97,-3.1,0.2,-0.2,920,0,,,,,,,,,,,,,,,,,,,
107033,1480802293418,,,,,,,,0.02,0.07,0.97,-3.1,0.2,-0.1,920,0,,,,,,,,,,,,,,,,,,,
107053,1480802293438,1,196.4,7.2,192.4,14,204.6,14.16,0.02,0.07,0.97,-3.2,0.3,-0.0,920,0,0,1,0.0,0,38.158741,-122.452942,0.0,0.008,140910992.0,8,2,0.4,0,0.0,-1,0.0,0.0,0.0,0
107073,1480802293458,,,,,,,,0.02,0.07,0.97,-3.2,0.3,0.0,920,0,,,,,,,,,,,,,,,,,,,
107093,1480802293478,,,,,,,,0.02,0.08,0.97,-3.2,0.4,0.1,920,0,,,,,,,,,,,,,,,,,,,
107113,1480802293498,,,,,,,,0.02,0.09,0.97,-3.2,0.4,0.1,920,0,,,,,,,,,,,,,,,,,,,
107133,1480802293518,,,,,,,,0.02,0.09,0.97,-3.2,0.4,0.1,920,0,,,,,,,,,,,,,,,,,,,
107153,1480802293538,,,,,13,,,0.02,0.1,0.98,-3.2,0.4,0.0,920,0,0,1,0.0,0,38.158741,-122.452942,0.0,0.008,140910992.0,8,2,0.4,0,0.0,-1,0.0,,0.0,0
107173,1480802293558,,,,,,,,0.02,0.1,0.98,-3.2,0.4,-0.1,920,0,,,,,,,,,,,,,,,,,,,
107193,1480802293578,,,,,,,,0.02,0.1,0.97,-3.2,0.4,-0.2,920,0,,,,,,,,,,,,,,,,,,,
107213,1480802293499,,,,,,,,0.02,0.09,0.98,-3.1,0.3,-0.2,920,0,,,,,,,,,,,,,,,,,,,
107233,1480802293519,,,,,,,,0.02,0.09,0.98,-3.1,0.3,-0.3,920,0,,,,,,,,,,,,,,,,,,,
107253,1480802293539,0,196.3,,192.4,14,204.8,,0.01,0.08,0.98,-3.1,0.3,-0.3,920,0,0,1,0.0,0,38.158741,-122.452942,0.0,0.008,140910992.0,8,2,0.4,0,0.0,-1,0.0,0.0,0.0,0
107273,1480802293559,,,,,,,,0.01,0.08,0.98,-3.1,0.2,-0.3,920,0,,,,,,,,,,,,,,,,,,,
107293,1480802293579,,,,,,,,0.01,0.07,0.97,-3.1,0.2,-0.3,920,0,,,,,,,,,,,,,,,,,,,
107313,1480802293600,,,,,,,,0.01,0.06,0.97,-3.1,0.3,-0.3,920,0,,,,,,,,,,,,,,,,,,,
107333,1480802293620,,,,,,,,0.01,0.07,0.97,-3.1,0.3,-0.2,940,0,,,,,,,,,,,,,,,,,,,
107353,1480802293640,,,,,15,,,0.01,0.07,0.96,-3.1,0.4,-0.2,940,0,0,1,0.0,0,38.158741,-122.452942,0.0,0.008,140910992.0,8,2,0.4,0,0.0,-1,0.0,,0.0,0
107373,1480802293660,,,,,,,,0.01,0.07,0.96,-3.2,0.4,-0.1,940,0,,,,,,,,,,,,,,,,,,,
107393,1480802293680,,,,,,,,0.01,0.08,0.96,-3.2,0.3,0.0,940,0,,,,,,,,,,,,,,,,,,,
107413,1480802293702,,,,,,,,0.02,0.09,0.96,-3.2,0.3,0.0,940,0,,,,,,,,,,,,,,,,,,,
107433,1480802293722,,,,,,,,0.02,0.09,0.97,-3.2,0.4,0.0,940,0,,,,,,,,,,,,,,,,,,,
107453,1480802293742,0,195.7,,192.4,15,204.9,,0.02,0.1,0.97,-3.2,0.4,0.0,920,0,0,1,0.0,0,38.158741,-122.452942,0.0,0.008,140910992.0,8,3,0.4,0,0.0,-1,0.0,0.0,0.0,0
107473,1480802293762,,,,,,,,0.02,0.1,0.97,-3.2,0.4,-0.0,940,0,,,,,,,,,,,,,,,,,,,
107493,1480802293782,,,,,,,,0.02,0.1,0.97,-3.2,0.3,-0.1,940,0,,,,,,,,,,,,,,,,,,,
107513,1480802293802,,,,,,,,0.02,0.1,0.97,-3.1,0.3,-0.2,940,0,,,,,,,,,,,,,,,,,,,
107533,1480802293822,,,,,,,,0.02,0.1,0.97,-3.1,0.3,-0.3,920,0,,,,,,,,,,,,,,,,,,,
107553,1480802293842,,,,,15,,,0.02,0.1,0.98,-3.1,0.2,-0.4,920,0,0,1,0.0,0,38.158741,-122.452942,0.0,0.008,140910992.0,8,3,0.4,0,0.0,-1,0.0,,0.0,0
107573,1480802293862,,,,,,,,0.01,0.09,0.97,-3.1,0.1,-0.4,920,0,,,,,,,,,,,,,,,,,,,
107593,1480802293882,,,,,,,,0.01,0.08,0.97,-3.0,0.1,-0.4,920,0,,,,,,,,,,,,,,,,,,,
107613,1480802293895,,,,,,,,0.01,0.08,0.97,-3.0,0.1,-0.4,920,0,,,,,,,,,,,,,,,,,,,
107633,1480802293915,,,,,,,,0.01,0.07,0.97,-3.0,0.1,-0.4,920,0,,,,,,,,,,,,,,,,,,,
107653,1480802293935,0,196.2,,191.6,14,203.7,,0.01,0.07,0.97,-3.0,0.2,-0.3,920,0,0,1,0.0,0,38.158741,-122.452942,0.0,0.008,140910992.0,8,3,0.4,0,0.0,-1,0.0,0.0,0.0,0
107673,1480802293955,,,,,,,,0.02,0.07,0.97,-3.0,0.2,-0.2,920,0,,,,,,,,,,,,,,,,,,,
107693,1480802293975,,,,,,,,0.02,0.07,0.97,-3.0,0.3,-0.2,920,0,,,,,,,,,,,,,,,,,,,
107713,1480802294001,,,,,,,,0.02,0.07,0.97,-3.1,0.3,-0.0,920,0,,,,,,,,,,,,,,,,,,,
107733,1480802294021,,,,,,,,0.02,0.08,0.97,-3.1,0.3,0.0,940,0,,,,,,,,,,,,,,,,,,,
107753,1480802294041,,,,,16,,,0.02,0.09,0.97,-3.0,0.3,0.0,920,0,0,1,0.0,0,38.158741,-122.452942,0.0,0.008,140910992.0,8,3,2.5,0,0.0,-1,0.0,,0.0,0
107773,1480802294061,,,,,,,,0.02,0.09,0.98,-3.1,0.4,0.0,920,0,,,,,,,,,,,,,,,,,,,
107793,1480802294081,,,,,,,,0.02,0.09,0.98,-3.1,0.4,-0.0,940,0,,,,,,,,,,,,,,,,,,,
107813,1480802294200,,,,,,,,0.02,0.09,0.98,-3.0,0.4,-0.1,920,0,,,,,,,,,,,,,,,,,,,
107833,1480802294220,,,,,,,,0.02,0.09,0.98,-3.0,0.4,-0.2,920,0,,,,,,,,,,,,,,,,,,,
107853,1480802294240,0,196.4,,192.1,14,203.7,,0.02,0.08,0.99,-2.9,0.4,-0.3,940,0,0,1,0.0,0,38.158741,-122.452942,0.0,0.008,140910992.0,8,3,2.5,0,0.0,-1,0.0,0.0,0.0,0
107873,1480802294260,,,,,,,,0.02,0.07,0.99,-2.9,0.3,-0.4,940,0,,,,,,,,,,,,,,,,,,,
107893,1480802294280,,,,,,,,0.01,0.07,0.98,-2.9,0.3,-0.4,940,0,,,,,,,,,,,,,,,,,,,
107913,1480802294300,,,,,,,,0.01,0.06,0.98,-2.9,0.2,-0.4,940,0,,,,,,,,,,,,,,,,,,,
107933,1480802294320,,,,,,,,0.01,0.06,0.98,-2.9,0.2,-0.4,940,0,,,,,,,,,,,,,,,,,,,
107953,1480802294340,,,,,14,,,0.0,0.06,0.98,-2.9,0.2,-0.4,940,0,0,1,0.0,0,38.158741,-122.452942,0.0,0.008,140910992.0,8,3,2.5,0,0.0,-1,0.0,,0.0,0
107973,1480802294360,,,,,,,,0.0,0.05,0.97,-2.9,0.2,-0.4,940,0,,,,,,,,,,,,,,,,,,,
107993,1480802294380,,,,,,,,0.01,0.05,0.97,-3.0,0.3,-0.3,940,0,,,,,,,,,,,,,,,,,,,
108013,1480802294301,,,,,,,,0.01,0.05,0.97,-3.0,0.3,-0.2,940,0,,,,,,,,,,,,,,,,,,,
108033,1480802294321,,,,,,,,0.01,0.05,0.97,-3.0,0.3,-0.1,940,0,,,,,,,,,,,,,,,,,,,
108053,1480802294341,1,196.2,7.4,192.5,16,204.6,14.21,0.02,0.06,0.97,-3.0,0.3,-0.0,940,0,0,1,0.0,0,38.158741,-122.452942,0.0,0.008,140910992.0,8,3,2.5,0,0.0,-1,0.0,0.0,0.0,0
108073,1480802294361,,,,,,,,0.02,0.06,0.97,-3.1,0.3,0.0,940,0,,,,,,,,,,,,,,,,,,,
108093,1480802294381,,,,,,,,0.02,0.07,0.97,-3.1,0.3,0.1,940,0,,,,,,,,,,,,,,,,,,,
108113,1480802294401,,,,,,,,0.02,0.08,0.97,-3.1,0.3,0.1,960,0,,,,,,,,,,,,,,,,,,,
108133,1480802294421,,,,,,,,0.03,0.09,0.97,-3.1,0.3,0.1,960,0,,,,,,,,,,,,,,,,,,,
108153,1480802294441,,,,,14,,,0.03,0.09,0.98,-3.1,0.3,0.1,940,0,0,1,0.0,0,38.158741,-122.452942,0.0,0.008,140910992.0,8,3,2.5,0,0.0,-1,0.0,,0.0,0
108173,1480802294461,,,,,,,,0.03,0.1,0.98,-3.1,0.4,0.1,940,0,,,,,,,,,,,,,,,,,,,
108193,1480802294481,,,,,,,,0.03,0.1,0.98,-3.1,0.3,-0.0,960,0,,,,,,,,,,,,,,,,,,,
108213,1480802294501,,,,,,,,0.03,0.1,0.98,-3.1,0.3,-0.1,940,0,,,,,,,,,,,,,,,,,,,
108233,1480802294521,,,,,,,,0.02,0.1,0.98,-3.1,0.3,-0.1,940,0,,,,,,,,,,,,,,,,,,,
108253,1480802294541,0,195.7,,192.3,14,204.4,,0.02,0.1,0.98,-3.1,0.3,-0.2,940,0,0,1,0.0,0,38.158741,-122.452942,0.0,0.008,140910992.0,8,3,2.5,0,0.0,-1,0.0,0.0,0.0,0
108273,1480802294561,,,,,,,,0.02,0.1,0.98,-3.1,0.3,-0.3,940,0,,,,,,,,,,,,,,,,,,,
108293,1480802294581,,,,,,,,0.02,0.1,0.97,-3.1,0.3,-0.3,940,0,,,,,,,,,,,,,,,,,,,
108313,1480802294601,,,,,,,,0.02,0.09,0.98,-3.1,0.2,-0.3,940,0,,,,,,,,,,,,,,,,,,,
108333,1480802294621,,,,,,,,0.02,0.09,0.97,-3.1,0.2,-0.3,940,0,,,,,,,,,,,,,,,,,,,
108353,1480802294641,,,,,16,,,0.02,0.08,0.97,-3.0,0.1,-0.4,940,0,0,1,0.0,0,38.158741,-122.452942,0.0,0.008,140910992.0,8,3,2.5,0,0.0,-1,0.0,,0.0,0
108373,1480802294661,,,,,,,,0.01,0.07,0.97,-3.0,0.1,-0.3,940,0,,,,,,,,,,,,,,,,,,,
108393,1480802294681,,,,,,,,0.01,0.07,0.97,-3.0,0.1,-0.3,940,0,,,,,,,,,,,,,,,,,,,
108413,1480802294700,,,,,,,,0.01,0.06,0.97,-3.0,0.1,-0.3,940,0,,,,,,,,,,,,,,,,,,,
108433,1480802294720,,,,,,,,0.01,0.06,0.97,-3.0,0.1,-0.3,940,0,,,,,,,,,,,,,,,,,,,
108453,1480802294740,0,195.1,,191.8,14,203.8,,0.01,0.06,0.97,-3.0,0.2,-0.3,940,0,0,1,0.0,0,38.158741,-122.452942,0.0,0.008,140910992.0,8,3,2.5,0,0.0,-1,0.0,0.0,0.0,0
108473,1480802294760,,,,,,,,0.02,0.06,0.97,-3.0,0.2,-0.3,940,0,,,,,,,,,,,,,,,,,,,
108493,1480802294780,,,,,,,,0.02,0.06,0.97,-3.0,0.2,-0.2,940,0,,,,,,,,,,,,,,,,,,,
108513,1480802294802,,,,,,,,0.02,0.06,0.97,-3.1,0.3,-0.1,940,0,,,,,,,,,,,,,,,,,,,
108533,1480802294822,,,,,,,,0.02,0.06,0.97,-3.1,0.2,-0.0,940,0,,,,,,,,,,,,,,,,,,,
108553,1480802294842,,,,,16,,,0.03,0.07,0.97,-3.1,0.2,0.0,940,0,0,1,0.0,0,38.158741,-122.452942,0.0,0.008,140910992.0,8,3,2.5,0,0.0,-1,0.0,,0.0,0
108573,1480802294862,,,,,,,,0.03,0.08,0.97,-3.1,0.2,0.1,940,0,,,,,,,,,,,,,,,,,,,
108593,1480802294882,,,,,,,,0.03,0.09,0.97,-3.1,0.2,0.1,940,0,,,,,,,,,,,,,,,,,,,
108613,1480802294994,,,,,,,,0.03,0.1,0.97,-3.1,0.2,0.1,960,0,,,,,,,,,,,,,,,,,,,
108633,1480802295014,,,,,,,,0.03,0.1,0.98,-3.1,0.3,0.1,960,0,,,,,,,,,,,,,,,,,,,
108653,1480802295034,0,196.1,,192.4,16,203.9,,0.03,0.1,0.97,-3.1,0.3,0.0,960,0,0,1,0.0,0,38.158741,-122.452942,0.0,0.008,140910992.0,8,3,2.5,0,0.0,-1,0.0,0.0,0.0,0
108673,1480802295054,,,,,,,,0.03,0.1,0.98,-3.1,0.3,-0.0,960,0,,,,,,,,,,,,,,,,,,,
108693,1480802295074,,,,,,,,0.03,0.1,0.98,-3.1,0.3,-0.1,960,0,,,,,,,,,,,,,,,,,,,
108713,1480802295094,,,,,,,,0.03,0.1,0.97,-3.1,0.3,-0.2,960,0,,,,,,,,,,,,,,,,,,,
108733,1480802295114,,,,,,,,0.02,0.09,0.97,-3.1,0.3,-0.2,960,0,,,,,,,,,,,,,,,,,,,
108753,1480802295134,,,,,14,,,0.02,0.09,0.97,-3.0,0.3,-0.3,960,0,0,1,0.0,0,38.158741,-122.452942,0.0,0.008,140910992.0,8,3,2.5,0,0.0,-1,0.0,,0.0,0
108773,1480802295154,,,,,,,,0.02,0.09,0.97,-3.0,0.2,-0.3,960,0,,,,,,,,,,,,,,,,,,,
108793,1480802295174,,,,,,,,0.02,0.09,0.98,-3.0,0.2,-0.3,960,0,,,,,,,,,,,,,,,,,,,
108813,1480802295100,,,,,,,,0.02,0.08,0.98,-3.0,0.2,-0.3,960,0,,,,,,,,,,,,,,,,,,,
108833,1480802295120,,,,,,,,0.01,0.08,0.97,-3.0,0.1,-0.4,940,0,,,,,,,,,,,,,,,,,,,
108853,1480802295140,0,195.3,,191.7,15,203.7,,0.01,0.07,0.97,-3.0,0.2,-0.3,960,0,0,1,0.0,0,38.158741,-122.452942,0.0,0.008,140910992.0,8,3,2.5,0,0.0,-1,0.0,0.0,0.0,0
108873,1480802295160,,,,,,,,0.01,0.06,0.97,-3.0,0.1,-0.3,960,0,,,,,,,,,,,,,,,,,,,
108893,1480802295180,,,,,,,,0.01,0.06,0.97,-3.0,0.1,-0.3,940,0,,,,,,,,,,,,,,,,,,,
108913,1480802295200,,,,,,,,0.01,0.06,0.97,-3.0,0.2,-0.3,960,0,,,,,,,,,,,,,,,,,,,
108933,1480802295220,,,,,,,,0.01,0.06,0.97,-3.0,0.2,-0.3,940,0,,,,,,,,,,,,,,,,,,,
108953,1480802295240,,,,,15,,,0.01,0.05,0.97,-3.0,0.3,-0.2,940,0,0,1,0.0,0,38.158741,-122.452942,0.0,0.008,140910992.0,8,3,2.5,0,0.0,-1,0.0,,0.0,0
108973,1480802295260,,,,,,,,0.01,0.06,0.97,-3.0,0.3,-0.2,940,0,,,,,,,,,,,,,,,,,,,
108993,1480802295280,,,,,,,,0.02,0.06,0.97,-3.1,0.3,-0.1,940,0,,,,,,,,,,,,,,,,,,,
109013,1480802295301,,,,,,,,0.02,0.06,0.97,-3.1,0.3,-0.0,940,0,,,,,,,,,,,,,,,,,,,
109033,1480802295321,,,,,,,,0.02,0.07,0.97,-3.1,0.3,0.0,940,0,,,,,,,,,,,,,,,,,,,
109053,1480802295341,0,194.7,7.3,191.3,15,203.1,14.13,0.02,0.07,0.97,-3.1,0.3,0.0,940,0,0,1,0.0,0,38.158741,-122.452942,0.0,0.008,140910992.0,8,3,2.5,0,0.0,-1,0.0,0.0,0.0,0
109073,1480802295361,,,,,,,,0.03,0.08,0.97,-3.1,0.3,0.0,940,0,,,,,,,,,,,,,,,,,,,
109093,1480802295381,,,,,,,,0.03,0.08,0.97,-3.2,0.3,0.1,940,0,,,,,,,,,,,,,,,,,,,
109113,1480802295401,,,,,,,,0.03,0.09,0.97,-3.1,0.4,0.1,940,0,,,,,,,,,,,,,,,,,,,
109133,1480802295421,,,,,,,,0.03,0.09,0.97,-3.1,0.4,0.0,940,0,,,,,,,,,,,,,,,,,,,
109153,1480802295441,,,,,15,,,0.03,0.09,0.97,-3.1,0.3,-0.1,940,0,0,1,0.0,0,38.158741,-122.452942,0.0,0.008,140910992.0,8,3,2.5,0,0.0,-1,0.0,,0.0,0
109173,1480802295461,,,,,,,,0.03,0.09,0.97,-3.1,0.3,-0.1,940,0,,,,,,,,,,,,,,,,,,,
109193,1480802295481,,,,,,,,0.03,0.09,0.97,-3.0,0.3,-0.2,940,0,,,,,,,,,,,,,,,,,,,
109213,1480802295501,,,,,,,,0.02,0.08,0.97,-3.0,0.3,-0.2,940,0,,,,,,,,,,,,,,,,,,,
109233,1480802295521,,,,,,,,0.02,0.08,0.97,-3.0,0.2,-0.3,940,0,,,,,,,,,,,,,,,,,,,
109253,1480802295541,0,196.0,,191.2,13,202.6,,0.02,0.08,0.97,-3.0,0.2,-0.3,940,0,0,1,0.0,0,38.158741,-122.452942,0.0,0.008,140910992.0,8,3,2.5,0,0.0,-1,0.0,0.0,0.0,0
109273,1480802295561,,,,,,,,0.01,0.07,0.97,-3.0,0.1,-0.3,940,0,,,,,,,,,,,,,,,,,,,
109293,1480802295581,,,,,,,,0.01,0.07,0.97,-3.1,0.0,-0.3,940,0,,,,,,,,,,,,,,,,,,,
109313,1480802295601,,,,,,,,0.01,0.06,0.97,-3.1,0.0,-0.3,940,0,,,,,,,,,,,,,,,,,,,
109333,1480802295621,,,,,,,,0.01,0.06,0.97,-3.0,0.1,-0.3,940,0,,,,,,,,,,,,,,,,,,,
109353,1480802295641,,,,,14,,,0.01,0.06,0.97,-3.0,0.2,-0.3,940,0,0,1,0.0,0,38.158741,-122.452942,0.0,0.008,140910992.0,8,3,2.5,0,0.0,-1,0.0,,0.0,0
109373,1480802295661,,,,,,,,0.02,0.06,0.97,-3.1,0.2,-0.2,940,0,,,,,,,,,,,,,,,,,,,
109393,1480802295681,,,,,,,,0.02,0.06,0.97,-3.1,0.2,-0.1,940,0,,,,,,,,,,,,,,,,,,,
109413,1480802295800,,,,,,,,0.02,0.07,0.97,-3.1,0.2,-0.0,940,0,,,,,,,,,,,,,,,,,,,
109433,1480802295820,,,,,,,,0.02,0.07,0.96,-3.1,0.2,0.0,940,0,,,,,,,,,,,,,,,,,,,
109453,1480802295840,0,195.3,,192.0,16,203.5,,0.02,0.08,0.96,-3.1,0.2,0.0,940,0,0,1,0.0,0,38.158741,-122.452942,0.0,0.008,140910992.0,8,3,2.5,0,0.0,-1,0.0,0.0,0.0,0
109473,1480802295860,,,,,,,,0.03,0.09,0.96,-3.1,0.3,0.0,940,0,,,,,,,,,,,,,,,,,,,
109493,1480802295880,,,,,,,,0.03,0.09,0.97,-3.1,0.3,0.0,940,0,,,,,,,,,,,,,,,,,,,
109513,1480802295900,,,,,,,,0.03,0.1,0.97,-3.1,0.3,0.0,940,0,,,,,,,,,,,,,,,,,,,
109533,1480802295920,,,,,,,,0.03,0.1,0.97,-3.1,0.4,0.0,940,0,,,,,,,,,,,,,,,,,,,
109553,1480802295940,,,,,15,,,0.03,0.1,0.97,-3.1,0.4,-0.1,940,0,0,1,0.0,0,38.158741,-122.452942,0.0,0.008,140910992.0,8,3,2.5,0,0.0,-1,0.0,,0.0,0
109573,1480802295960,,,,,,,,0.03,0.1,0.97,-3.1,0.3,-0.1,940,0,,,,,,,,,,,,,,,,,,,
109593,1480802295980,,,,,,,,0.02,0.1,0.97,-3.1,0.3,-0.2,940,0,,,,,,,,,,,,,,,,,,,
109613,1480802295894,,,,,,,,0.02,0.09,0.97,-3.0,0.3,-0.2,940,0,,,,,,,,,,,,,,,,,,,
109633,1480802295914,,,,,,,,0.02,0.09,0.97,-3.0,0.3,-0.3,940,0,,,,,,,,,,,,,,,,,,,
109653,1480802295934,0,196.0,,191.8,15,202.6,,0.02,0.09,0.98,-3.0,0.3,-0.3,940,0,0,1,0.0,0,38.158741,-122.452942,0.0,0.008,140910992.0,8,3,2.5,0,0.0,-1,0.0,0.0,0.0,0
109673,1480802295954,,,,,,,,0.02,0.09,0.98,-3.1,0.2,-0.4,940,0,,,,,,,,,,,,,,,,,,,
109693,1480802295974,,,,,,,,0.01,0.08,0.98,-3.0,0.2,-0.4,940,0,,,,,,,,,,,,,,,,,,,
109713,1480802295998,,,,,,,,0.01,0.08,0.98,-3.0,0.2,-0.3,940,0,,,,,,,,,,,,,,,,,,,
109733,1480802296018,,,,,,,,0.01,0.07,0.97,-3.0,0.1,-0.3,940,0,,,,,,,,,,,,,,,,,,,
109753,1480802296038,,,,,15,,,0.01,0.07,0.97,-3.0,0.1,-0.3,940,0,0,1,0.0,0,38.158741,-122.452942,0.0,0.008,140910992.0,8,3,2.5,0,0.0,-1,0.0,,0.0,0
109773,1480802296058,,,,,,,,0.01,0.07,0.97,-3.0,0.1,-0.2,940,0,,,,,,,,,,,,,,,,,,,
109793,1480802296078,,,,,,,,0.01,0.07,0.97,-3.0,0.2,-0.2,940,0,,,,,,,,,,,,,,,,,,,
109813,1480802296100,,,,,,,,0.02,0.06,0.97,-3.0,0.3,-0.1,940,0,,,,,,,,,,,,,,,,,,,
109833,1480802296120,,,,,,,,0.02,0.06,0.97,-3.1,0.3,-0.0,940,0,,,,,,,,,,,,,,,,,,,
109853,1480802296140,0,195.5,,191.7,14,202.9,,0.02,0.06,0.97,-3.1,0.4,0.0,940,0,0,1,0.0,0,38.158741,-122.452942,0.0,0.008,140910992.0,8,3,2.5,0,0.0,-1,0.0,0.0,0.0,0
109873,1480802296160,,,,,,,,0.02,0.06,0.97,-3.1,0.4,0.0,940,0,,,,,,,,,,,,,,,,,,,
109893,1480802296180,,,,,,,,0.02,0.07,0.97,-3.1,0.3,0.0,940,0,,,,,,,,,,,,,,,,,,,
109913,1480802296199,,,,,,,,0.02,0.08,0.97,-3.1,0.4,0.0,940,0,,,,,,,,,,,,,,,,,,,
109933,1480802296219,,,,,,,,0.03,0.09,0.98,-3.1,0.4,0.0,940,0,,,,,,,,,,,,,,,,,,,
109953,1480802296239,,,,,16,,,0.03,0.09,0.98,-3.1,0.4,-0.1,920,0,0,1,0.0,0,38.158741,-122.452942,0.0,0.008,140910992.0,8,3,2.5,0,0.0,-1,0.0,,0.0,0
109973,1480802296259,,,,,,,,0.02,0.09,0.98,-3.1,0.4,-0.1,940,0,,,,,,,,,,,,,,,,,,,
109993,1480802296279,,,,,,,,0.02,0.09,0.98,-3.1,0.4,-0.2,940,0,,,,,,,,,,,,,,,,,,,
110013,1480802296300,,,,,,,,0.02,0.09,0.97,-3.1,0.3,-0.3,940,0,,,,,,,,,,,,,,,,,,,
110033,1480802296320,,,,,,,,0.02,0.09,0.98,-3.1,0.3,-0.4,940,0,,,,,,,,,,,,,,,,,,,
110053,1480802296340,0,195.4,7.6,191.7,15,202.9,14.17,0.02,0.08,0.98,-3.1,0.3,-0.4,940,0,0,1,0.0,0,38.158741,-122.452942,0.0,0.008,140910992.0,8,3,2.5,0,0.0,-1,0.0,0.0,0.0,0
110073,1480802296360,,,,,,,,0.01,0.07,0.97,-3.0,0.2,-0.4,920,0,,,,,,,,,,,,,,,,,,,
110093,1480802296380,,,,,,,,0.01,0.07,0.97,-3.1,0.2,-0.4,920,0,,,,,,,,,,,,,,,,,,,
110113,1480802296394,,,,,,,,0.01,0.07,0.97,-3.1,0.2,-0.4,940,0,,,,,,,,,,,,,,,,,,,
110133,1480802296414,,,,,,,,0.01,0.07,0.97,-3.1,0.2,-0.3,920,0,,,,,,,,,,,,,,,,,,,
110153,1480802296434,,,,,14,,,0.02,0.07,0.97,-3.1,0.3,-0.3,920,0,0,1,0.0,0,38.158726,-122.452957,1.35,0.009,140910992.0,8,3,2.5,0,0.0,-1,0.0,,0.0,0
110173,1480802296454,,,,,,,,0.02,0.07,0.97,-3.1,0.3,-0.2,920,0,,,,,,,,,,,,,,,,,,,
110193,1480802296474,,,,,,,,0.02,0.07,0.97,-3.1,0.4,-0.1,920,0,,,,,,,,,,,,,,,,,,,
110213,1480802296597,,,,,,,,0.02,0.08,0.97,-3.1,0.3,0.0,920,0,,,,,,,,,,,,,,,,,,,
110233,1480802296617,,,,,,,,0.03,0.09,0.97,-3.1,0.3,0.1,920,0,,,,,,,,,,,,,,,,,,,
110253,1480802296637,0,196.5,,191.5,14,202.0,,0.03,0.1,0.97,-3.1,0.4,0.1,920,0,0,1,0.0,0,38.158722,-122.452957,3.71,0.01,140910992.0,8,2,2.5,0,0.0,-1,0.0,0.0,0.0,0
110273,1480802296657,,,,,,,,0.03,0.11,0.98,-3.1,0.4,0.0,940,0,,,,,,,,,,,,,,,,,,,
110293,1480802296677,,,,,,,,0.03,0.11,0.98,-3.1,0.4,-0.1,920,0,,,,,,,,,,,,,,,,,,,
110313,1480802296697,,,,,,,,0.03,0.11,0.98,-3.0,0.4,-0.2,920,0,,,,,,,,,,,,,,,,,,,
110333,1480802296717,,,,,,,,0.02,0.1,0.98,-3.0,0.4,-0.3,920,0,,,,,,,,,,,,,,,,,,,
110353,1480802296737,,,,,15,,,0.02,0.1,0.98,-3.0,0.3,-0.4,940,0,0,1,0.0,0,38.158722,-122.452957,3.71,0.01,140910992.0,8,2,2.5,0,0.0,-1,0.0,,0.0,0
110373,1480802296757,,,,,,,,0.02,0.09,0.98,-2.9,0.3,-0.4,920,0,,,,,,,,,,,,,,,,,,,
110393,1480802296777,,,,,,,,0.02,0.08,0.98,-2.9,0.3,-0.4,920,0,,,,,,,,,,,,,,,,,,,
110413,1480802296697,,,,,,,,0.02,0.07,0.97,-2.9,0.2,-0.4,920,0,,,,,,,,,,,,,,,,,,,
110433,1480802296717,,,,,,,,0.02,0.07,0.97,-2.9,0.2,-0.4,920,0,,,,,,,,,,,,,,,,,,,
110453,1480802296737,0,196.4,,191.1,15,201.7,,0.01,0.07,0.97,-2.9,0.3,-0.3,920,0,0,1,0.0,0,38.158722,-122.452957,5.56,0.01,140910992.0,8,3,2.5,0,0.0,-1,0.0,0.0,0.0,0
110473,1480802296757,,,,,,,,0.02,0.07,0.97,-2.9,0.4,-0.2,920,0,,,,,,,,,,,,,,,,,,,
110493,1480802296777,,,,,,,,0.02,0.07,0.97,-3.0,0.4,-0.1,920,0,,,,,,,,,,,,,,,,,,,
110513,1480802296800,,,,,,,,0.02,0.07,0.97,-3.0,0.4,-0.0,920,0,,,,,,,,,,,,,,,,,,,
110533,1480802296820,,,,,,,,0.02,0.08,0.97,-3.0,0.4,0.0,920,0,,,,,,,,,,,,,,,,,,,
110553,1480802296840,,,,,14,,,0.02,0.09,0.97,-3.0,0.4,0.0,920,0,0,1,0.0,0,38.158722,-122.452957,5.55,0.01,140910992.0,8,3,2.5,0,0.0,-1,0.0,,0.0,0
110573,1480802296860,,,,,,,,0.03,0.1,0.98,-3.0,0.5,-0.0,920,0,,,,,,,,,,,,,,,,,,,
110593,1480802296880,,,,,,,,0.03,0.1,0.98,-3.0,0.4,-0.1,920,0,,,,,,,,,,,,,,,,,,,
110613,1480802296896,,,,,,,,0.03,0.1,0.98,-3.0,0.4,-0.2,900,0,,,,,,,,,,,,,,,,,,,
110633,1480802296916,,,,,,,,0.02,0.09,0.98,-2.9,0.4,-0.3,920,0,,,,,,,,,,,,,,,,,,,
110653,1480802296936,0,195.0,,190.9,14,202.0,,0.02,0.08,0.98,-2.9,0.3,-0.4,920,0,0,1,0.0,0,38.158722,-122.452957,5.24,0.01,140910992.0,8,3,2.5,0,0.0,-1,0.0,0.0,0.0,0
110673,1480802296956,,,,,,,,0.02,0.08,0.98,-2.9,0.3,-0.4,900,0,,,,,,,,,,,,,,,,,,,
110693,1480802296976,,,,,,,,0.01,0.07,0.97,-2.9,0.2,-0.4,900,0,,,,,,,,,,,,,,,,,,,
110713,1480802297003,,,,,,,,0.01,0.06,0.97,-2.9,0.2,-0.4,900,0,,,,,,,,,,,,,,,,,,,
110733,1480802297023,,,,,,,,0.01,0.06,0.97,-2.9,0.2,-0.3,900,0,,,,,,,,,,,,,,,,,,,
110753,1480802297043,,,,,14,,,0.02,0.07,0.97,-3.0,0.3,-0.1,900,0,0,1,0.0,0,38.158722,-122.452957,5.43,0.01,140910992.0,8,3,1.9,0,0.0,-1,0.0,,0.0,0
110773,1480802297063,,,,,,,,0.02,0.07,0.97,-3.1,0.3,-0.0,920,0,,,,,,,,,,,,,,,,,,,
110793,1480802297083,,,,,,,,0.02,0.08,0.97,-3.1,0.3,0.1,920,0,,,,,,,,,,,,,,,,,,,
110813,1480802297103,,,,,,,,0.02,0.09,0.97,-3.1,0.4,0.1,900,0,,,,,,,,,,,,,,,,,,,
110833,1480802297123,,,,,,,,0.02,0.1,0.97,-3.2,0.4,0.1,920,0,,,,,,,,,,,,,,,,,,,
110853,1480802297143,0,195.4,,191.5,13,202.3,,0.02,0.11,0.97,-3.2,0.4,-0.0,900,0,0,1,0.0,0,38.158718,-122.452965,5.61,0.01,140910992.0,8,3,1.9,0,0.0,-1,0.0,0.0,0.0,0
110873,1480802297163,,,,,,,,0.02,0.11,0.98,-3.1,0.3,-0.2,900,0,,,,,,,,,,,,,,,,,,,
110893,1480802297183,,,,,,,,0.02,0.11,0.97,-3.1,0.2,-0.3,920,0,,,,,,,,,,,,,,,,,,,
110913,1480802297202,,,,,,,,0.02,0.09,0.97,-3.1,0.2,-0.4,900,0,,,,,,,,,,,,,,,,,,,
110933,1480802297222,,,,,,,,0.02,0.08,0.97,-3.1,0.1,-0.4,900,0,,,,,,,,,,,,,,,,,,,
110953,1480802297242,,,,,13,,,0.02,0.07,0.97,-3.1,0.1,-0.4,900,0,0,1,0.0,0,38.158718,-122.452965,5.21,0.01,140910992.0,8,3,1.9,0,0.0,-1,0.0,,0.0,0
110973,1480802297262,,,,,,,,0.02,0.07,0.97,-3.0,0.1,-0.3,900,0,,,,,,,,,,,,,,,,,,,
110993,1480802297282,,,,,,,,0.02,0.07,0.97,-3.1,0.2,-0.2,900,0,,,,,,,,,,,,,,,,,,,
111013,1480802297403,,,,,,,,0.02,0.08,0.96,-3.1,0.3,-0.1,900,0,,,,,,,,,,,,,,,,,,,
111033,1480802297423,,,,,,,,0.02,0.08,0.97,-3.1,0.3,-0.0,900,0,,,,,,,,,,,,,,,,,,,
111053,1480802297443,0,195.3,7.7,190.2,15,201.1,14.18,0.02,0.09,0.97,-3.1,0.3,0.0,900,0,0,1,0.0,0,38.158714,-122.452965,4.52,0.01,140910992.0,8,3,1.9,0,0.0,-1,0.0,0.0,0.0,0
111073,1480802297463,,,,,,,,0.02,0.1,0.97,-3.1,0.3,0.0,900,0,,,,,,,,,,,,,,,,,,,
111093,1480802297483,,,,,,,,0.02,0.1,0.97,-3.1,0.3,-0.1,900,0,,,,,,,,,,,,,,,,,,,
111113,1480802297503,,,,,,,,0.02,0.1,0.97,-3.0,0.3,-0.2,900,0,,,,,,,,,,,,,,,,,,,
111133,1480802297523,,,,,,,,0.02,0.09,0.97,-3.0,0.2,-0.3,900,0,,,,,,,,,,,,,,,,,,,
111153,1480802297543,,,,,13,,,0.01,0.08,0.97,-3.0,0.2,-0.4,900,0,0,1,0.0,0,38.158714,-122.452965,4.52,0.01,140910992.0,8,3,1.9,0,0.0,-1,0.0,,0.0,0
111173,1480802297563,,,,,,,,0.01,0.07,0.97,-3.0,0.2,-0.4,900,0,,,,,,,,,,,,,,,,,,,
111193,1480802297583,,,,,,,,0.01,0.07,0.97,-3.0,0.2,-0.3,900,0,,,,,,,,,,,,,,,,,,,
111213,1480802297502,,,,,,,,0.01,0.07,0.97,-3.0,0.3,-0.2,900,0,,,,,,,,,,,,,,,,,,,
111233,1480802297522,,,,,,,,0.02,0.07,0.97,-3.1,0.3,-0.1,900,0,,,,,,,,,,,,,,,,,,,
111253,1480802297542,0,195.3,,191.0,14,201.5,,0.02,0.07,0.97,-3.1,0.3,-0.0,900,0,0,1,0.0,0,38.158714,-122.452965,4.31,0.01,140910992.0,8,3,1.9,0,0.0,-1,0.0,0.0,0.0,0
111273,1480802297562,,,,,,,,0.02,0.08,0.97,-3.1,0.3,0.0,900,0,,,,,,,,,,,,,,,,,,,
111293,1480802297582,,,,,,,,0.02,0.09,0.97,-3.1,0.4,0.0,900,0,,,,,,,,,,,,,,,,,,,
111313,1480802297603,,,,,,,,0.02,0.09,0.97,-3.1,0.4,-0.0,900,0,,,,,,,,,,,,,,,,,,,
111333,1480802297623,,,,,,,,0.02,0.08,0.98,-3.1,0.4,-0.2,900,0,,,,,,,,,,,,,,,,,,,
111353,1480802297643,,,,,14,,,0.02,0.08,0.98,-3.0,0.3,-0.3,900,0,0,1,0.0,0,38.158714,-122.452965,5.17,0.01,140910992.0,8,3,1.9,0,0.0,-1,0.0,,0.0,0
111373,1480802297663,,,,,,,,0.02,0.07,0.98,-3.0,0.3,-0.4,900,0,,,,,,,,,,,,,,,,,,,
111393,1480802297683,,,,,,,,0.01,0.07,0.98,-2.9,0.3,-0.4,900,0,,,,,,,,,,,,,,,,,,,
111413,1480802297703,,,,,,,,0.01,0.06,0.98,-2.9,0.1,-0.4,920,0,,,,,,,,,,,,,,,,,,,
111433,1480802297723,,,,,,,,0.01,0.06,0.98,-3.0,0.2,-0.3,920,0,,,,,,,,,,,,,,,,,,,
111453,1480802297743,0,194.6,,190.4,15,201.9,,0.02,0.07,0.98,-3.0,0.2,-0.2,920,0,0,1,0.0,0,38.15871,-122.45298,5.02,0.011,140910992.0,8,3,1.9,0,0.0,-1,0.0,0.0,0.0,0
111473,1480802297763,,,,,,,,0.02,0.07,0.97,-3.1,0.2,-0.1,920,0,,,,,,,,,,,,,,,,,,,
111493,1480802297783,,,,,,,,0.02,0.07,0.97,-3.1,0.3,0.0,920,0,,,,,,,,,,,,,,,,,,,
111513,1480802297803,,,,,,,,0.02,0.09,0.97,-3.2,0.3,0.1,920,0,,,,,,,,,,,,,,,,,,,
111533,1480802297823,,,,,,,,0.02,0.1,0.97,-3.2,0.2,0.1,900,0,,,,,,,,,,,,,,,,,,,
111553,1480802297843,,,,,14,,,0.03,0.11,0.97,-3.2,0.3,0.0,920,0,0,1,0.0,0,38.15871,-122.45298,4.8,0.011,140910992.0,8,2,1.9,0,0.0,-1,0.0,,0.0,0
111573,1480802297863,,,,,,,,0.03,0.11,0.97,-3.2,0.3,-0.1,920,0,,,,,,,,,,,,,,,,,,,
111593,1480802297883,,,,,,,,0.02,0.1,0.98,-3.1,0.3,-0.2,920,0,,,,,,,,,,,,,,,,,,,
111613,1480802297896,,,,,,,,0.02,0.09,0.98,-3.1,0.2,-0.4,920,0,,,,,,,,,,,,,,,,,,,
111633,1480802297916,,,,,,,,0.02,0.09,0.98,-3.0,0.2,-0.4,920,0,,,,,,,,,,,,,,,,,,,
111653,1480802297936,0,193.8,,189.3,15,200.9,,0.02,0.08,0.97,-3.0,0.1,-0.4,920,0,0,1,0.0,0,38.15871,-122.45298,3.59,0.011,140910992.0,8,3,1.9,0,0.0,-1,0.0,0.0,0.0,0
111673,1480802297956,,,,,,,,0.02,0.07,0.97,-3.0,0.1,-0.4,920,0,,,,,,,,,,,,,,,,,,,
111693,1480802297976,,,,,,,,0.02,0.07,0.98,-3.1,0.2,-0.3,920,0,,,,,,,,,,,,,,,,,,,
111713,1480802298003,,,,,,,,0.02,0.07,0.97,-3.1,0.3,-0.2,920,0,,,,,,,,,,,,,,,,,,,
111733,1480802298023,,,,,,,,0.02,0.07,0.97,-3.1,0.3,-0.1,920,0,,,,,,,,,,,,,,,,,,,
111753,1480802298043,,,,,15,,,0.02,0.08,0.97,-3.2,0.3,-0.0,920,0,0,1,0.0,0,38.158707,-122.45298,2.88,0.011,140910992.0,8,3,2.5,0,0.0,-1,0.0,,0.0,0
111773,1480802298063,,,,,,,,0.02,0.08,0.97,-3.2,0.3,0.0,920,0,,,,,,,,,,,,,,,,,,,
111793,1480802298083,,,,,,,,0.02,0.09,0.97,-3.2,0.3,0.1,920,0,,,,,,,,,,,,,,,,,,,
111813,1480802298202,,,,,,,,0.02,0.1,0.97,-3.2,0.4,0.0,920,0,,,,,,,,,,,,,,,,,,,
111833,1480802298222,,,,,,,,0.02,0.1,0.98,-3.2,0.4,-0.1,920,0,,,,,,,,,,,,,,,,,,,
111853,1480802298242,0,193.7,,189.3,13,200.9,,0.02,0.09,0.98,-3.2,0.4,-0.2,920,0,0,1,0.0,0,38.158707,-122.45298,0.0,0.011,140910992.0,8,3,2.5,0,0.0,-1,0.0,0.0,0.0,0
111873,1480802298262,,,,,,,,0.02,0.08,0.98,-3.1,0.3,-0.3,920,0,,,,,,,,,,,,,,,,,,,
111893,1480802298282,,,,,,,,0.02,0.08,0.98,-3.1,0.3,-0.4,920,0,,,,,,,,,,,,,,,,,,,
111913,1480802298302,,,,,,,,0.02,0.07,0.98,-3.0,0.2,-0.4,920,0,,,,,,,,,,,,,,,,,,,
111933,1480802298322,,,,,,,,0.01,0.06,0.98,-3.0,0.2,-0.4,920,0,,,,,,,,,,,,,,,,,,,
111953,1480802298342,,,,,15,,,0.01,0.06,0.98,-3.1,0.2,-0.4,920,0,0,1,0.0,0,38.158707,-122.45298,0.0,0.011,140910992.0,8,3,2.5,0,0.0,-1,0.0,,0.0,0
111973,1480802298362,,,,,,,,0.01,0.05,0.98,-3.1,0.2,-0.3,920,0,,,,,,,,,,,,,,,,,,,
111993,1480802298382,,,,,,,,0.01,0.05,0.98,-3.1,0.2,-0.3,940,0,,,,,,,,,,,,,,,,,,,
112013,1480802298303,,,,,,,,0.01,0.05,0.97,-3.1,0.3,-0.2,920,0,,,,,,,,,,,,,,,,,,,
112033,1480802298323,,,,,,,,0.02,0.06,0.97,-3.2,0.3,-0.1,920,0,,,,,,,,,,,,,,,,,,,
112053,1480802298343,0,193.8,8.0,189.8,14,201.1,14.12,0.02,0.06,0.97,-3.2,0.3,-0.0,920,0,0,1,0.0,0,38.158707,-122.45298,0.0,0.011,140910992.0,8,3,2.5,0,0.0,-1,0.0,0.0,0.0,0
112073,1480802298363,,,,,,,,0.02,0.07,0.97,-3.2,0.3,0.0,920,0,,,,,,,,,,,,,,,,,,,
112093,1480802298383,,,,,,,,0.02,0.08,0.97,-3.2,0.3,0.0,920,0,,,,,,,,,,,,,,,,,,,
112113,1480802298402,,,,,,,,0.02,0.09,0.98,-3.2,0.4,0.0,920,0,,,,,,,,,,,,,,,,,,,
112133,1480802298422,,,,,,,,0.02,0.09,0.98,-3.2,0.4,-0.0,920,0,,,,,,,,,,,,,,,,,,,
112153,1480802298442,,,,,14,,,0.02,0.09,0.99,-3.2,0.3,-0.1,920,0,0,1,0.0,0,38.158707,-122.45298,0.0,0.011,140910992.0,8,3,2.5,0,0.0,-1,0.0,,0.0,0
112173,1480802298462,,,,,,,,0.02,0.09,0.99,-3.2,0.3,-0.2,920,0,,,,,,,,,,,,,,,,,,,
112193,1480802298482,,,,,,,,0.02,0.09,0.99,-3.2,0.2,-0.3,920,0,,,,,,,,,,,,,,,,,,,
112213,1480802298503,,,,,,,,0.02,0.08,0.99,-3.2,0.1,-0.3,920,0,,,,,,,,,,,,,,,,,,,
112233,1480802298523,,,,,,,,0.01,0.07,0.98,-3.2,0.1,-0.4,920,0,,,,,,,,,,,,,,,,,,,
112253,1480802298543,0,194.1,,189.0,14,199.9,,0.01,0.07,0.98,-3.2,0.1,-0.3,920,0,0,1,0.0,0,38.158707,-122.45298,0.0,0.011,140910992.0,8,3,2.5,0,0.0,-1,0.0,0.0,0.0,0
112273,1480802298563,,,,,,,,0.01,0.07,0.98,-3.2,0.0,-0.3,920,0,,,,,,,,,,,,,,,,,,,
112293,1480802298583,,,,,,,,0.01,0.06,0.98,-3.2,0.2,-0.3,920,0,,,,,,,,,,,,,,,,,,,
112313,1480802298603,,,,,,,,0.01,0.06,0.98,-3.2,0.2,-0.2,920,0,,,,,,,,,,,,,,,,,,,
112333,1480802298623,,,,,,,,0.02,0.06,0.97,-3.2,0.2,-0.1,920,0,,,,,,,,,,,,,,,,,,,
112353,1480802298643,,,,,15,,,0.02,0.07,0.97,-3.3,0.3,-0.0,920,0,0,1,0.0,0,38.158707,-122.45298,0.0,0.011,140910992.0,8,3,2.5,0,0.0,-1,0.0,,0.0,0
112373,1480802298663,,,,,,,,0.02,0.08,0.97,-3.3,0.3,0.0,920,0,,,,,,,,,,,,,,,,,,,
112393,1480802298683,,,,,,,,0.02,0.09,0.97,-3.3,0.3,0.0,920,0,,,,,,,,,,,,,,,,,,,
112413,1480802298703,,,,,,,,0.02,0.1,0.98,-3.3,0.4,0.0,920,0,,,,,,,,,,,,,,,,,,,
112433,1480802298723,,,,,,,,0.02,0.1,0.98,-3.3,0.3,0.0,920,0,,,,,,,,,,,,,,,,,,,
112453,1480802298743,0,194.1,,189.9,16,200.9,,0.02,0.11,0.98,-3.3,0.3,-0.1,940,0,0,1,0.0,0,38.158707,-122.45298,0.0,0.011,140910992.0,8,3,2.5,0,0.0,-1,0.0,0.0,0.0,0
112473,1480802298763,,,,,,,,0.02,0.1,0.98,-3.2,0.3,-0.2,920,0,,,,,,,,,,,,,,,,,,,
112493,1480802298783,,,,,,,,0.02,0.1,0.98,-3.2,0.2,-0.3,940,0,,,,,,,,,,,,,,,,,,,
112513,1480802298803,,,,,,,,0.02,0.09,0.98,-3.1,0.2,-0.3,940,0,,,,,,,,,,,,,,,,,,,
112533,1480802298823,,,,,,,,0.02,0.09,0.98,-3.1,0.1,-0.4,940,0,,,,,,,,,,,,,,,,,,,
112553,1480802298843,,,,,15,,,0.01,0.08,0.98,-3.1,0.1,-0.4,920,0,0,1,0.0,0,38.158707,-122.45298,0.0,0.011,140910992.0,8,3,2.5,0,0.0,-1,0.0,,0.0,0
112573,1480802298863,,,,,,,,0.01,0.08,0.98,-3.1,0.1,-0.4,940,0,,,,,,,,,,,,,,,,,,,
112593,1480802298883,,,,,,,,0.01,0.08,0.97,-3.1,0.1,-0.3,940,0,,,,,,,,,,,,,,,,,,,
112613,1480802298996,,,,,,,,0.01,0.07,0.97,-3.2,0.0,-0.2,920,0,,,,,,,,,,,,,,,,,,,
112633,1480802299016,,,,,,,,0.01,0.08,0.96,-3.2,0.1,-0.2,920,0,,,,,,,,,,,,,,,,,,,
112653,1480802299036,0,193.6,,188.5,16,199.7,,0.02,0.08,0.97,-3.2,0.2,-0.1,920,0,0,1,0.0,0,38.158707,-122.45298,0.0,0.011,140910992.0,8,3,2.5,0,0.0,-1,0.0,0.0,0.0,0
112673,1480802299056,,,,,,,,0.02,0.08,0.97,-3.2,0.2,-0.0,920,0,,,,,,,,,,,,,,,,,,,
112693,1480802299076,,,,,,,,0.02,0.08,0.96,-3.2,0.3,0.0,920,0,,,,,,,,,,,,,,,,,,,
112713,1480802299096,,,,,,,,0.02,0.09,0.97,-3.2,0.4,0.1,920,0,,,,,,,,,,,,,,,,,,,
112733,1480802299116,,,,,,,,0.02,0.1,0.97,-3.2,0.3,0.1,920,0,,,,,,,,,,,,,,,,,,,
112753,1480802299136,,,,,15,,,0.02,0.1,0.97,-3.2,0.4,0.1,920,0,0,1,0.0,0,38.158707,-122.45298,0.0,0.011,140910992.0,8,3,2.5,0,0.0,-1,0.0,,0.0,0
112773,1480802299156,,,,,,,,0.02,0.11,0.98,-3.2,0.4,-0.0,920,0,,,,,,,,,,,,,,,,,,,
112793,1480802299176,,,,,,,,0.02,0.11,0.98,-3.2,0.3,-0.1,920,0,,,,,,,,,,,,,,,,,,,
112813,1480802299102,,,,,,,,0.02,0.1,0.98,-3.2,0.3,-0.2,920,0,,,,,,,,,,,,,,,,,,,
112833,1480802299122,,,,,,,,0.02,0.1,0.98,-3.2,0.3,-0.3,920,0,,,,,,,,,,,,,,,,,,,
112853,1480802299142,0,194.2,,189.8,16,199.8,,0.01,0.09,0.99,-3.1,0.3,-0.4,920,0,0,1,0.0,0,38.158707,-122.45298,0.0,0.011,140910992.0,8,3,2.5,0,0.0,-1,0.0,0.0,0.0,0
112873,1480802299162,,,,,,,,0.01,0.08,0.98,-3.1,0.3,-0.5,940,0,,,,,,,,,,,,,,,,,,,
112893,1480802299182,,,,,,,,0.01,0.07,0.98,-3.0,0.3,-0.5,920,0,,,,,,,,,,,,,,,,,,,
112913,1480802299202,,,,,,,,0.01,0.07,0.98,-3.0,0.2,-0.4,940,0,,,,,,,,,,,,,,,,,,,
112933,1480802299222,,,,,,,,0.01,0.06,0.98,-3.0,0.3,-0.4,920,0,,,,,,,,,,,,,,,,,,,
112953,1480802299242,,,,,16,,,0.01,0.07,0.97,-3.1,0.3,-0.3,940,0,0,1,0.0,0,38.158707,-122.45298,0.0,0.011,140910992.0,8,3,2.5,0,0.0,-1,0.0,,0.0,0
112973,1480802299262,,,,,,,,0.02,0.07,0.97,-3.1,0.3,-0.2,940,0,,,,,,,,,,,,,,,,,,,
112993,1480802299282,,,,,,,,0.02,0.07,0.97,-3.1,0.3,-0.1,940,0,,,,,,,,,,,,,,,,,,,
113013,1480802299301,,,,,,,,0.02,0.07,0.97,-3.2,0.3,-0.0,940,0,,,,,,,,,,,,,,,,,,,
113033,1480802299321,,,,,,,,0.02,0.08,0.96,-3.2,0.3,0.0,940,0,,,,,,,,,,,,,,,,,,,
113053,1480802299341,0,194.2,7.7,189.2,16,199.2,14.18,0.02,0.09,0.97,-3.2,0.3,-0.0,940,0,0,1,0.0,0,38.158707,-122.45298,0.0,0.011,140910992.0,8,3,2.5,0,0.0,-1,0.0,0.0,0.0,0
113073,1480802299361,,,,,,,,0.02,0.09,0.97,-3.2,0.3,-0.0,940,0,,,,,,,,,,,,,,,,,,,
113093,1480802299381,,,,,,,,0.02,0.1,0.98,-3.2,0.4,-0.1,940,0,,,,,,,,,,,,,,,,,,,
113113,1480802299402,,,,,,,,0.02,0.1,0.98,-3.2,0.4,-0.1,940,0,,,,,,,,,,,,,,,,,,,
113133,1480802299422,,,,,,,,0.02,0.1,0.98,-3.2,0.3,-0.1,940,0,,,,,,,,,,,,,,,,,,,
113153,1480802299442,,,,,16,,,0.02,0.1,0.97,-3.1,0.2,-0.2,940,0,0,1,0.0,0,38.158707,-122.45298,0.0,0.011,140910992.0,8,3,2.5,0,0.0,-1,0.0,,0.0,0
113173,1480802299462,,,,,,,,0.02,0.1,0.97,-3.1,0.2,-0.3,940,0,,,,,,,,,,,,,,,,,,,
113193,1480802299482,,,,,,,,0.02,0.09,0.98,-3.1,0.1,-0.3,940,0,,,,,,,,,,,,,,,,,,,
113213,1480802299500,,,,,,,,0.02,0.09,0.98,-3.1,0.1,-0.3,940,0,,,,,,,,,,,,,,,,,,,
113233,1480802299520,,,,,,,,0.02,0.08,0.98,-3.1,0.1,-0.4,940,0,,,,,,,,,,,,,,,,,,,
113253,1480802299540,0,193.7,,188.4,17,199.0,,0.02,0.08,0.97,-3.1,0.0,-0.3,940,0,0,1,0.0,0,38.158707,-122.45298,0.0,0.011,140910992.0,8,3,2.5,0,0.0,-1,0.0,0.0,0.0,0
113273,1480802299560,,,,,,,,0.02,0.07,0.97,-3.0,0.0,-0.3,940,0,,,,,,,,,,,,,,,,,,,
113293,1480802299580,,,,,,,,0.01,0.07,0.97,-3.0,0.1,-0.3,940,0,,,,,,,,,,,,,,,,,,,
113313,1480802299602,,,,,,,,0.01,0.06,0.97,-3.0,0.1,-0.3,940,0,,,,,,,,,,,,,,,,,,,
113333,1480802299622,,,,,,,,0.01,0.06,0.97,-3.0,0.2,-0.2,960,0,,,,,,,,,,,,,,,,,,,
113353,1480802299642,,,,,16,,,0.02,0.05,0.97,-3.0,0.2,-0.2,940,0,0,1,0.0,0,38.158707,-122.45298,0.0,0.011,140910992.0,8,3,2.5,0,0.0,-1,0.0,,0.0,0
113373,1480802299662,,,,,,,,0.02,0.06,0.97,-3.0,0.3,-0.1,940,0,,,,,,,,,,,,,,,,,,,
113393,1480802299682,,,,,,,,0.02,0.06,0.97,-3.1,0.3,-0.0,940,0,,,,,,,,,,,,,,,,,,,
113413,1480802299801,,,,,,,,0.02,0.06,0.97,-3.1,0.3,-0.0,940,0,,,,,,,,,,,,,,,,,,,
113433,1480802299821,,,,,,,,0.02,0.07,0.96,-3.1,0.3,0.0,940,0,,,,,,,,,,,,,,,,,,,
113453,1480802299841,0,192.4,,187.9,16,199.5,,0.03,0.07,0.96,-3.1,0.2,0.0,940,0,0,1,0.0,0,38.158707,-122.45298,0.0,0.011,140910992.0,8,3,2.5,0,0.0,-1,0.0,0.0,0.0,0
113473,1480802299861,,,,,,,,0.03,0.08,0.97,-3.2,0.3,0.0,940,0,,,,,,,,,,,,,,,,,,,
113493,1480802299881,,,,,,,,0.03,0.09,0.97,-3.1,0.3,0.0,940,0,,,,,,,,,,,,,,,,,,,
113513,1480802299901,,,,,,,,0.03,0.09,0.97,-3.2,0.3,0.0,940,0,,,,,,,,,,,,,,,,,,,
113533,1480802299921,,,,,,,,0.03,0.1,0.97,-3.2,0.3,-0.1,940,0,,,,,,,,,,,,,,,,,,,
113553,1480802299941,,,,,15,,,0.03,0.1,0.97,-3.2,0.3,-0.1,940,0,0,1,0.0,0,38.158707,-122.45298,0.0,0.011,140910992.0,8,3,2.5,0,0.0,-1,0.0,,0.0,0
113573,1480802299961,,,,,,,,0.02,0.09,0.97,-3.2,0.3,-0.2,940,0,,,,,,,,,,,,,,,,,,,
113593,1480802299981,,,,,,,,0.02,0.09,0.97,-3.1,0.2,-0.3,940,0,,,,,,,,,,,,,,,,,,,
113613,1480802299896,,,,,,,,0.02,0.08,0.97,-3.1,0.2,-0.3,940,0,,,,,,,,,,,,,,,,,,,
113633,1480802299916,,,,,,,,0.01,0.08,0.97,-3.0,0.2,-0.4,940,0,,,,,,,,,,,,,,,,,,,
113653,1480802299936,0,192.7,,188.5,16,199.9,,0.01,0.07,0.97,-3.0,0.1,-0.4,940,0,0,1,0.0,0,38.158707,-122.45298,0.0,0.011,140910992.0,8,3,2.5,0,0.0,-1,0.0,0.0,0.0,0
113673,1480802299956,,,,,,,,0.01,0.07,0.97,-3.0,0.0,-0.4,940,0,,,,,,,,,,,,,,,,,,,
113693,1480802299976,,,,,,,,0.01,0.06,0.97,-3.0,0.0,-0.4,940,0,,,,,,,,,,,,,,,,,,,
113713,1480802300002,,,,,,,,0.01,0.06,0.97,-3.0,0.1,-0.4,940,0,,,,,,,,,,,,,,,,,,,
113733,1480802300022,,,,,,,,0.01,0.05,0.97,-2.9,0.1,-0.3,940,0,,,,,,,,,,,,,,,,,,,
113753,1480802300042,,,,,16,,,0.02,0.05,0.97,-2.9,0.2,-0.2,940,0,0,1,0.0,0,38.158707,-122.45298,0.0,0.011,140910992.0,8,3,2.5,0,0.0,-1,0.0,,0.0,0
113773,1480802300062,,,,,,,,0.02,0.06,0.97,-3.0,0.2,-0.1,940,0,,,,,,,,,,,,,,,,,,,
113793,1480802300082,,,,,,,,0.02,0.06,0.96,-3.0,0.1,-0.0,940,0,,,,,,,,,,,,,,,,,,,
113813,1480802300102,,,,,,,,0.02,0.07,0.96,-3.1,0.2,0.0,940,0,,,,,,,,,,,,,,,,,,,
113833,1480802300122,,,,,,,,0.02,0.07,0.97,-3.1,0.2,0.0,940,0,,,,,,,,,,,,,,,,,,,
113853,1480802300142,0,192.5,,187.6,17,198.5,,0.02,0.08,0.97,-3.1,0.2,0.0,940,0,0,1,0.0,0,38.158707,-122.45298,0.0,0.011,140910992.0,8,3,2.5,0,0.0,-1,0.0,0.0,0.0,0
113873,1480802300162,,,,,,,,0.02,0.09,0.97,-3.1,0.2,-0.0,940,0,,,,,,,,,,,,,,,,,,,
113893,1480802300182,,,,,,,,0.02,0.09,0.97,-3.1,0.2,-0.1,940,0,,,,,,,,,,,,,,,,,,,
113913,1480802300202,,,,,,,,0.02,0.09,0.97,-3.1,0.1,-0.2,940,0,,,,,,,,,,,,,,,,,,,
113933,1480802300222,,,,,,,,0.02,0.09,0.97,-3.1,0.1,-0.2,940,0,,,,,,,,,,,,,,,,,,,
113953,1480802300242,,,,,16,,,0.02,0.08,0.97,-3.1,0.1,-0.3,940,0,0,1,0.0,0,38.158707,-122.45298,0.0,0.011,140910992.0,8,3,2.5,0,0.0,-1,0.0,,0.0,0
113973,1480802300262,,,,,,,,0.02,0.09,0.97,-3.1,0.1,-0.3,920,0,,,,,,,,,,,,,,,,,,,
113993,1480802300282,,,,,,,,0.02,0.08,0.97,-3.1,0.1,-0.4,940,0,,,,,,,,,,,,,,,,,,,
114013,1480802300302,,,,,,,,0.02,0.07,0.97,-3.1,0.0,-0.4,940,0,,,,,,,,,,,,,,,,,,,
114033,1480802300322,,,,,,,,0.01,0.07,0.97,-3.1,-0.0,-0.3,940,0,,,,,,,,,,,,,,,,,,,
114053,1480802300342,0,193.3,7.7,188.4,17,198.7,14.23,0.01,0.07,0.97,-3.1,0.0,-0.3,940,0,0,1,0.0,0,38.158707,-122.45298,0.0,0.011,140910992.0,8,3,2.5,0,0.0,-1,0.0,0.0,0.0,0
114073,1480802300362,,,,,,,,0.01,0.06,0.97,-3.1,0.1,-0.2,920,0,,,,,,,,,,,,,,,,,,,
114093,1480802300382,,,,,,,,0.02,0.06,0.97,-3.0,0.2,-0.2,940,0,,,,,,,,,,,,,,,,,,,
114113,1480802300402,,,,,,,,0.02,0.06,0.97,-3.1,0.2,-0.1,940,0,,,,,,,,,,,,,,,,,,,
114133,1480802300422,,,,,,,,0.02,0.06,0.97,-3.1,0.2,-0.0,940,0,,,,,,,,,,,,,,,,,,,
114153,1480802300442,,,,,17,,,0.02,0.07,0.97,-3.1,0.2,0.0,940,0,0,1,0.0,0,38.158707,-122.45298,0.0,0.011,140910992.0,8,3,2.5,0,0.0,-1,0.0,,0.0,0
114173,1480802300462,,,,,,,,0.02,0.08,0.97,-3.1,0.2,0.0,940,0,,,,,,,,,,,,,,,,,,,
114193,1480802300482,,,,,,,,0.03,0.09,0.97,-3.1,0.3,0.0,940,0,,,,,,,,,,,,,,,,,,,
114213,1480802300601,,,,,,,,0.03,0.09,0.97,-3.1,0.3,-0.0,940,0,,,,,,,,,,,,,,,,,,,
114233,1480802300621,,,,,,,,0.03,0.09,0.98,-3.1,0.3,-0.1,940,0,,,,,,,,,,,,,,,,,,,
114253,1480802300641,0,192.9,,188.5,17,199.5,,0.03,0.1,0.98,-3.1,0.3,-0.1,940,0,0,1,0.0,0,38.158707,-122.45298,0.0,0.011,140910992.0,8,3,2.5,0,0.0,-1,0.0,0.0,0.0,0
114273,1480802300661,,,,,,,,0.03,0.09,0.98,-3.1,0.2,-0.2,920,0,,,,,,,,,,,,,,,,,,,
114293,1480802300681,,,,,,,,0.02,0.09,0.98,-3.1,0.2,-0.3,920,0,,,,,,,,,,,,,,,,,,,
114313,1480802300701,,,,,,,,0.02,0.09,0.98,-3.0,0.2,-0.3,920,0,,,,,,,,,,,,,,,,,,,
114333,1480802300721,,,,,,,,0.02,0.08,0.98,-3.0,0.2,-0.4,920,0,,,,,,,,,,,,,,,,,,,
114353,1480802300741,,,,,16,,,0.02,0.07,0.98,-3.0,0.2,-0.4,920,0,0,1,0.0,0,38.158707,-122.45298,0.0,0.011,140910992.0,8,3,2.5,0,0.0,-1,0.0,,0.0,0
114373,1480802300761,,,,,,,,0.02,0.07,0.98,-3.0,0.1,-0.4,920,0,,,,,,,,,,,,,,,,,,,
114393,1480802300781,,,,,,,,0.02,0.07,0.98,-3.0,0.2,-0.4,920,0,,,,,,,,,,,,,,,,,,,
114413,1480802300702,,,,,,,,0.02,0.07,0.98,-3.0,0.3,-0.3,920,0,,,,,,,,,,,,,,,,,,,
114433,1480802300722,,,,,,,,0.02,0.06,0.98,-3.0,0.3,-0.2,920,0,,,,,,,,,,,,,,,,,,,
114453,1480802300742,0,191.7,,187.9,16,198.9,,0.02,0.07,0.97,-3.0,0.2,-0.1,920,0,0,1,0.0,0,38.158707,-122.45298,0.0,0.011,140910992.0,8,3,2.5,0,0.0,-1,0.0,0.0,0.0,0
114473,1480802300762,,,,,,,,0.02,0.07,0.97,-3.1,0.3,-0.1,920,0,,,,,,,,,,,,,,,,,,,
114493,1480802300782,,,,,,,,0.02,0.08,0.97,-3.1,0.3,-0.0,920,0,,,,,,,,,,,,,,,,,,,
114513,1480802300802,,,,,,,,0.02,0.09,0.97,-3.1,0.3,-0.0,920,0,,,,,,,,,,,,,,,,,,,
114533,1480802300822,,,,,,,,0.02,0.09,0.97,-3.1,0.3,-0.0,920,0,,,,,,,,,,,,,,,,,,,
114553,1480802300842,,,,,16,,,0.03,0.09,0.97,-3.1,0.3,-0.1,920,0,0,1,0.0,0,38.158707,-122.45298,0.0,0.011,140910992.0,8,3,2.5,0,0.0,-1,0.0,,0.0,0
114573,1480802300862,,,,,,,,0.02,0.09,0.98,-3.1,0.3,-0.2,920,0,,,,,,,,,,,,,,,,,,,
114593,1480802300882,,,,,,,,0.02,0.09,0.98,-3.1,0.3,-0.3,920,0,,,,,,,,,,,,,,,,,,,
114613,1480802300896,,,,,,,,0.02,0.08,0.98,-3.0,0.2,-0.4,920,0,,,,,,,,,,,,,,,,,,,
114633,1480802300916,,,,,,,,0.02,0.07,0.98,-3.0,0.2,-0.4,920,0,,,,,,,,,,,,,,,,,,,
114653,1480802300936,0,192.0,,187.1,17,198.0,,0.01,0.06,0.98,-3.0,0.2,-0.4,920,0,0,1,0.0,0,38.158707,-122.45298,0.0,0.011,140910992.0,8,3,2.5,0,0.0,-1,0.0,0.0,0.0,0
114673,1480802300956,,,,,,,,0.01,0.06,0.97,-3.0,0.1,-0.4,920,0,,,,,,,,,,,,,,,,,,,
114693,1480802300976,,,,,,,,0.01,0.06,0.97,-3.0,0.2,-0.3,920,0,,,,,,,,,,,,,,,,,,,
114713,1480802301002,,,,,,,,0.02,0.06,0.98,-3.0,0.2,-0.2,920,0,,,,,,,,,,,,,,,,,,,
114733,1480802301022,,,,,,,,0.02,0.06,0.97,-3.0,0.2,-0.1,920,0,,,,,,,,,,,,,,,,,,,
114753,1480802301042,,,,,17,,,0.02,0.06,0.97,-3.1,0.2,-0.0,920,0,0,1,0.0,0,38.158707,-122.45298,0.0,0.011,140910992.0,8,3,2.5,0,0.0,-1,0.0,,0.0,0
114773,1480802301062,,,,,,,,0.02,0.06,0.97,-3.1,0.2,0.0,920,0,,,,,,,,,,,,,,,,,,,
114793,1480802301082,,,,,,,,0.02,0.07,0.97,-3.1,0.2,0.0,920,0,,,,,,,,,,,,,,,,,,,
114813,1480802301101,,,,,,,,0.02,0.08,0.97,-3.1,0.2,0.0,940,0,,,,,,,,,,,,,,,,,,,
114833,1480802301121,,,,,,,,0.02,0.09,0.97,-3.1,0.3,0.0,920,0,,,,,,,,,,,,,,,,,,,
114853,1480802301141,0,192.1,,187.9,16,199.3,,0.02,0.1,0.98,-3.1,0.3,-0.0,940,0,0,1,0.0,0,38.158707,-122.45298,0.0,0.011,140910992.0,8,3,2.5,0,0.0,-1,0.0,0.0,0.0,0
114873,1480802301161,,,,,,,,0.03,0.1,0.98,-3.1,0.3,-0.1,940,0,,,,,,,,,,,,,,,,,,,
114893,1480802301181,,,,,,,,0.02,0.1,0.98,-3.1,0.3,-0.2,940,0,,,,,,,,,,,,,,,,,,,
114913,1480802301197,,,,,,,,0.02,0.09,0.98,-3.1,0.2,-0.2,940,0,,,,,,,,,,,,,,,,,,,
114933,1480802301217,,,,,,,,0.02,0.09,0.98,-3.1,0.2,-0.3,940,0,,,,,,,,,,,,,,,,,,,
114953,1480802301237,,,,,17,,,0.02,0.09,0.98,-3.1,0.2,-0.4,920,0,0,1,0.0,0,38.158707,-122.45298,0.0,0.011,140910992.0,8,3,2.5,0,0.0,-1,0.0,,0.0,0
114973,1480802301257,,,,,,,,0.01,0.08,0.98,-3.1,0.2,-0.4,920,0,,,,,,,,,,,,,,,,,,,
114993,1480802301277,,,,,,,,0.01,0.08,0.97,-3.1,0.1,-0.4,940,0,,,,,,,,,,,,,,,,,,,
115013,1480802301400,,,,,,,,0.01,0.07,0.97,-3.1,0.1,-0.3,940,0,,,,,,,,,,,,,,,,,,,
115033,1480802301420,,,,,,,,0.01,0.07,0.97,-3.1,0.2,-0.3,920,0,,,,,,,,,,,,,,,,,,,
115053,1480802301440,0,192.0,8.3,187.7,18,199.0,14.2,0.01,0.07,0.97,-3.1,0.2,-0.2,940,0,0,1,0.0,0,38.158707,-122.45298,0.0,0.011,140910992.0,8,3,2.5,0,0.0,-1,0.0,0.0,0.0,0
115073,1480802301460,,,,,,,,0.02,0.07,0.97,-3.1,0.3,-0.2,920,0,,,,,,,,,,,,,,,,,,,
115093,1480802301480,,,,,,,,0.02,0.07,0.97,-3.2,0.2,-0.1,920,0,,,,,,,,,,,,,,,,,,,
115113,1480802301500,,,,,,,,0.02,0.08,0.97,-3.2,0.2,-0.0,920,0,,,,,,,,,,,,,,,,,,,
115133,1480802301520,,,,,,,,0.02,0.08,0.97,-3.2,0.3,0.0,920,0,,,,,,,,,,,,,,,,,,,
