"Interval"|"ms"|0|0|1,"Utc"|"ms"|0|0|1,"FuelLevel"|"F"|0|100|5,"OilTemp"|"F"|0.0|300.0|5,"CoolantPressPSI"|"PSI"|0.0|20.0|1,"Coolant"|"F"|0.0|300.0|5,"OilPress"|"PSI"|0|150|10,"EngineTemp"|"F"|0.0|300.0|5,"Battery"|"Volts"|0.0|20.0|1,"AccelX"|"G"|-3.0|3.0|50,"AccelY"|"G"|-3.0|3.0|50,"AccelZ"|"G"|-3.0|3.0|50,"Yaw"|"Deg/Sec"|-300.0|300.0|50,"Pitch"|"Deg/Sec"|-300.0|300.0|50,"Roll"|"Deg/Sec"|-300.0|300.0|50,"RPM"|""|0|10000|50,"Driveshaft"|"RPM"|0|5000|50,"GPIO1"|""|0|1|10,"GPIO2"|""|0|1|10,"GearRatio"|""|-5.0|5.0|10,"Gear"|""|-1|5|10,"Latitude"|"Degrees"|-180.0|180.0|10,"Longitude"|"Degrees"|-180.0|180.0|10,"Speed"|"MPH"|0.0|150.0|10,"Distance"|"Miles"|0.0|0.0|10,"Altitude"|"Feet"|0.0|4000.0|10,"GPSSats"|""|0|20|10,"GPSQual"|""|0|5|10,"GPSDOP"|""|0.0|20.0|10,"LapCount"|""|0|0|10,"LapTime"|"Min"|0.0|0.0|10,"Sector"|""|0|0|10,"SectorTime"|"Min"|0.0|0.0|10,"PredTime"|"Min"|0.0|0.0|5,"ElapsedTime"|"Min"|0.0|0.0|10,"CurrentLap"|""|0|0|10
68793,1480785062371,,,,,,,,0.01,0.11,1.02,-3.1,0.4,0.4,580,0,,,,,,,,,,,,,,,,,,,
68813,1480785062391,,,,,,,,0.02,0.1,1.01,-3.1,0.8,0.4,200,0,,,,,,,,,,,,,,,,,,,
68833,1480785062411,,,,,,,,0.02,0.1,1.01,-3.1,0.7,0.3,200,0,,,,,,,,,,,,,,,,,,,
68853,1480785062431,0,125.3,,154.5,0,151.4,,0.01,0.1,1.01,-3.1,0.5,0.2,200,0,1,0,0.0,0,38.159229,-122.454353,0.0,0.0,38.7,10,3,1.9,0,0.0,-1,0.0,0.0,0.0,0
68873,1480785062451,,,,,,,,0.01,0.11,1.01,-3.1,0.6,0.2,320,0,,,,,,,,,,,,,,,,,,,
68893,1480785062471,,,,,,,,0.02,0.09,1.01,-3.1,0.6,0.2,320,0,,,,,,,,,,,,,,,,,,,
68913,1480785062491,,,,,,,,0.02,0.1,1.01,-3.1,0.6,0.1,400,0,,,,,,,,,,,,,,,,,,,
68933,1480785062511,,,,,,,,0.01,0.09,1.01,-3.1,0.7,0.2,400,0,,,,,,,,,,,,,,,,,,,
68953,1480785062531,,,,,0,,,0.02,0.1,1.0,-3.1,0.6,0.2,480,0,1,0,0.0,0,38.159229,-122.454353,0.0,0.0,38.7,10,3,1.9,0,0.0,-1,0.0,,0.0,0
68973,1480785062551,,,,,,,,0.02,0.1,1.0,-3.1,0.6,0.3,480,0,,,,,,,,,,,,,,,,,,,
68993,1480785062571,,,,,,,,0.02,0.1,1.01,-3.1,0.5,0.4,640,0,,,,,,,,,,,,,,,,,,,
69013,1480785062591,,,,,,,,0.01,0.1,1.0,-3.1,0.3,0.3,740,0,,,,,,,,,,,,,,,,,,,
69033,1480785062611,,,,,,,,0.01,0.09,1.01,-3.0,0.4,0.1,820,0,,,,,,,,,,,,,,,,,,,
69053,1480785062631,0,124.4,6.2,154.1,1,151.6,11.49,0.01,0.09,1.0,-3.0,0.3,0.0,820,0,1,0,0.0,0,38.159229,-122.454353,0.0,0.0,38.7,10,3,1.9,0,0.0,-1,0.0,0.0,0.0,0
69073,1480785062651,,,,,,,,0.01,0.1,0.98,-3.0,0.2,0.0,860,0,,,,,,,,,,,,,,,,,,,
69093,1480785062671,,,,,,,,0.02,0.1,0.99,-3.1,0.2,0.2,820,0,,,,,,,,,,,,,,,,,,,
69113,1480785062691,,,,,,,,0.03,0.11,1.0,-3.1,0.1,0.3,780,0,,,,,,,,,,,,,,,,,,,
69133,1480785062711,,,,,,,,0.02,0.11,1.0,-3.1,0.2,0.2,760,0,,,,,,,,,,,,,,,,,,,
69153,1480785062731,,,,,3,,,0.01,0.11,1.0,-3.0,0.3,0.2,760,0,1,0,0.0,0,38.159229,-122.454353,0.0,0.0,38.7,10,3,1.9,0,0.0,-1,0.0,,0.0,0
69173,1480785062751,,,,,,,,0.01,0.1,1.0,-3.1,0.3,0.2,780,0,,,,,,,,,,,,,,,,,,,
69193,1480785062771,,,,,,,,0.02,0.1,1.0,-3.0,0.5,0.2,800,0,,,,,,,,,,,,,,,,,,,
69213,1480785062791,,,,,,,,0.02,0.1,1.01,-3.1,0.4,0.3,760,0,,,,,,,,,,,,,,,,,,,
69233,1480785062910,,,,,,,,0.02,0.1,1.01,-3.1,0.4,0.3,760,0,,,,,,,,,,,,,,,,,,,
69253,1480785062930,0,125.4,,154.3,3,151.6,,0.02,0.1,1.01,-3.0,0.5,0.2,720,0,1,0,0.0,0,38.159229,-122.454353,0.0,0.0,38.7,10,3,1.9,0,0.0,-1,0.0,0.0,0.0,0
69273,1480785062950,,,,,,,,0.02,0.1,1.01,-3.0,0.6,0.3,720,0,,,,,,,,,,,,,,,,,,,
69293,1480785062970,,,,,,,,0.02,0.1,1.01,-3.0,0.6,0.3,680,0,,,,,,,,,,,,,,,,,,,
69313,1480785062990,,,,,,,,0.02,0.1,1.01,-3.1,0.6,0.3,680,0,,,,,,,,,,,,,,,,,,,
69333,1480785063010,,,,,,,,0.02,0.1,1.02,-3.1,0.6,0.3,680,0,,,,,,,,,,,,,,,,,,,
69353,1480785063030,,,,,4,,,0.02,0.11,1.02,-3.1,0.5,0.2,680,0,1,0,0.0,0,38.159229,-122.454353,0.0,0.0,38.7,10,3,1.9,0,0.0,-1,0.0,,0.0,0
69373,1480785063050,,,,,,,,0.02,0.1,1.02,-3.1,0.5,0.2,680,0,,,,,,,,,,,,,,,,,,,
69393,1480785063070,,,,,,,,0.02,0.11,1.02,-3.1,0.5,0.3,680,0,,,,,,,,,,,,,,,,,,,
69413,1480785062991,,,,,,,,0.02,0.11,1.01,-3.1,0.4,0.3,680,0,,,,,,,,,,,,,,,,,,,
69433,1480785063011,,,,,,,,0.02,0.11,1.02,-3.1,0.4,0.3,680,0,,,,,,,,,,,,,,,,,,,
69453,1480785063031,0,124.8,,153.2,5,150.4,,0.02,0.11,1.02,-3.1,0.4,0.3,640,0,1,0,0.0,0,38.159229,-122.454353,0.0,0.0,38.7,10,3,1.9,0,0.0,-1,0.0,0.0,0.0,0
69473,1480785063051,,,,,,,,0.01,0.11,1.01,-3.1,0.4,0.3,620,0,,,,,,,,,,,,,,,,,,,
69493,1480785063071,,,,,,,,0.01,0.11,1.0,-3.1,0.3,0.2,620,0,,,,,,,,,,,,,,,,,,,
69513,1480785063091,,,,,,,,0.01,0.12,1.01,-3.1,0.4,0.3,620,0,,,,,,,,,,,,,,,,,,,
69533,1480785063110,,,,,,,,0.01,0.11,1.01,-3.1,0.4,0.3,620,0,,,,,,,,,,,,,,,,,,,
69553,1480785063130,,,,,6,,,0.01,0.11,1.01,-3.1,0.4,0.3,620,0,1,0,0.0,0,38.159229,-122.454353,0.0,0.0,38.7,10,3,1.9,0,0.0,-1,0.0,,0.0,0
69573,1480785063150,,,,,,,,0.01,0.11,1.01,-3.1,0.4,0.3,600,0,,,,,,,,,,,,,,,,,,,
69593,1480785063170,,,,,,,,0.01,0.11,1.01,-3.1,0.4,0.2,600,0,,,,,,,,,,,,,,,,,,,
69613,1480785063190,,,,,,,,0.01,0.11,1.0,-3.1,0.4,0.2,580,0,,,,,,,,,,,,,,,,,,,
69633,1480785063210,,,,,,,,0.01,0.11,1.01,-3.1,0.4,0.3,580,0,,,,,,,,,,,,,,,,,,,
69653,1480785063230,0,125.3,,154.0,8,150.5,,0.01,0.11,1.01,-3.1,0.4,0.3,580,0,1,0,0.0,0,38.159229,-122.454353,0.0,0.0,38.7,10,3,1.9,0,0.0,-1,0.0,0.0,0.0,0
69673,1480785063250,,,,,,,,0.01,0.11,1.01,-3.1,0.5,0.2,580,0,,,,,,,,,,,,,,,,,,,
69693,1480785063270,,,,,,,,0.01,0.11,1.01,-3.1,0.5,0.2,580,0,,,,,,,,,,,,,,,,,,,
69713,1480785063290,,,,,,,,0.02,0.11,1.01,-3.1,0.5,0.2,560,0,,,,,,,,,,,,,,,,,,,
69733,1480785063310,,,,,,,,0.01,0.1,1.01,-3.1,0.5,0.2,560,0,,,,,,,,,,,,,,,,,,,
69753,1480785063330,,,,,9,,,0.01,0.11,1.01,-3.1,0.5,0.2,560,0,1,0,0.0,0,38.159229,-122.454353,0.0,0.0,38.7,10,3,1.9,0,0.0,-1,0.0,,0.0,0
69773,1480785063350,,,,,,,,0.01,0.11,1.01,-3.1,0.5,0.2,540,0,,,,,,,,,,,,,,,,,,,
69793,1480785063370,,,,,,,,0.01,0.11,1.0,-3.1,0.5,0.2,540,0,,,,,,,,,,,,,,,,,,,
69813,1480785063390,,,,,,,,0.01,0.11,1.0,-3.1,0.5,0.2,520,0,,,,,,,,,,,,,,,,,,,
69833,1480785063410,,,,,,,,0.01,0.11,1.0,-3.1,0.5,0.2,520,0,,,,,,,,,,,,,,,,,,,
69853,1480785063430,0,125.2,,154.4,10,151.6,,0.01,0.1,1.01,-3.1,0.5,0.2,500,0,1,0,0.0,0,38.159229,-122.454353,0.0,0.0,38.7,10,3,1.9,0,0.0,-1,0.0,0.0,0.0,0
69873,1480785063450,,,,,,,,0.01,0.11,1.01,-3.1,0.5,0.2,500,0,,,,,,,,,,,,,,,,,,,
69893,1480785063470,,,,,,,,0.01,0.1,1.0,-3.1,0.5,0.2,480,0,,,,,,,,,,,,,,,,,,,
69913,1480785063490,,,,,,,,0.01,0.11,1.0,-3.1,0.5,0.2,480,0,,,,,,,,,,,,,,,,,,,
69933,1480785063510,,,,,,,,0.01,0.11,1.01,-3.1,0.5,0.2,480,0,,,,,,,,,,,,,,,,,,,
69953,1480785063530,,,,,10,,,0.01,0.11,1.01,-3.1,0.5,0.2,480,0,1,0,0.0,0,38.159229,-122.454353,0.0,0.0,38.7,10,3,1.9,0,0.0,-1,0.0,,0.0,0
69973,1480785063550,,,,,,,,0.01,0.11,1.01,-3.1,0.5,0.2,480,0,,,,,,,,,,,,,,,,,,,
69993,1480785063570,,,,,,,,0.01,0.1,1.01,-3.1,0.5,0.2,460,0,,,,,,,,,,,,,,,,,,,
70013,1480785063590,,,,,,,,0.01,0.1,1.01,-3.1,0.5,0.2,460,0,,,,,,,,,,,,,,,,,,,
70033,1480785063709,,,,,,,,0.01,0.1,1.01,-3.1,0.5,0.2,440,0,,,,,,,,,,,,,,,,,,,
70053,1480785063729,0,124.7,6.4,153.5,11,150.6,13.81,0.01,0.09,1.01,-3.1,0.5,0.2,440,0,1,0,0.0,0,38.159229,-122.454353,0.0,0.0,38.7,10,3,1.9,0,0.0,-1,0.0,0.0,0.0,0
70073,1480785063749,,,,,,,,0.01,0.1,1.01,-3.1,0.5,0.2,420,0,,,,,,,,,,,,,,,,,,,
70093,1480785063769,,,,,,,,0.01,0.09,1.01,-3.1,0.6,0.3,420,0,,,,,,,,,,,,,,,,,,,
70113,1480785063789,,,,,,,,0.01,0.09,1.0,-3.1,0.5,0.3,380,0,,,,,,,,,,,,,,,,,,,
70133,1480785063809,,,,,,,,0.01,0.09,1.01,-3.1,0.5,0.3,380,0,,,,,,,,,,,,,,,,,,,
70153,1480785063829,,,,,10,,,0.01,0.09,1.01,-3.1,0.6,0.2,380,0,1,0,0.0,0,38.159229,-122.454353,0.0,0.0,38.7,10,3,1.9,0,0.0,-1,0.0,,0.0,0
70173,1480785063849,,,,,,,,0.01,0.1,1.01,-3.1,0.6,0.2,400,0,,,,,,,,,,,,,,,,,,,
70193,1480785063869,,,,,,,,0.01,0.1,1.01,-3.1,0.6,0.2,400,0,,,,,,,,,,,,,,,,,,,
70213,1480785063889,,,,,,,,0.01,0.1,1.01,-3.1,0.6,0.2,400,0,,,,,,,,,,,,,,,,,,,
70233,1480785063810,,,,,,,,0.01,0.1,1.01,-3.1,0.6,0.2,400,0,,,,,,,,,,,,,,,,,,,
70253,1480785063830,0,124.2,,153.6,10,151.0,,0.01,0.1,1.01,-3.1,0.6,0.2,400,0,1,0,0.0,0,38.159229,-122.454353,0.0,0.0,38.7,10,3,1.9,0,0.0,-1,0.0,0.0,0.0,0
70273,1480785063850,,,,,,,,0.01,0.1,1.01,-3.2,0.6,0.2,400,0,,,,,,,,,,,,,,,,,,,
70293,1480785063870,,,,,,,,0.01,0.1,1.01,-3.2,0.6,0.2,400,0,,,,,,,,,,,,,,,,,,,
70313,1480785063890,,,,,,,,0.01,0.1,1.0,-3.1,0.6,0.2,380,0,,,,,,,,,,,,,,,,,,,
70333,1480785063904,,,,,,,,0.01,0.1,1.01,-3.1,0.6,0.2,380,0,,,,,,,,,,,,,,,,,,,
70353,1480785063924,,,,,12,,,0.01,0.11,1.01,-3.2,0.5,0.2,380,0,1,0,0.0,0,38.159229,-122.454353,0.0,0.0,38.7,10,3,1.9,0,0.0,-1,0.0,,0.0,0
70373,1480785063944,,,,,,,,0.01,0.11,1.01,-3.1,0.6,0.2,380,0,,,,,,,,,,,,,,,,,,,
70393,1480785063964,,,,,,,,0.01,0.1,1.01,-3.2,0.6,0.2,380,0,,,,,,,,,,,,,,,,,,,
70413,1480785063984,,,,,,,,0.01,0.11,1.01,-3.2,0.5,0.2,380,0,,,,,,,,,,,,,,,,,,,
70433,1480785064010,,,,,,,,0.01,0.1,1.01,-3.2,0.6,0.2,380,0,,,,,,,,,,,,,,,,,,,
70453,1480785064030,0,124.8,,153.6,12,150.6,,0.01,0.11,1.01,-3.2,0.5,0.2,380,0,1,0,0.0,0,38.159229,-122.454353,0.0,0.0,38.7,10,3,1.9,0,0.0,-1,0.0,0.0,0.0,0
70473,1480785064050,,,,,,,,0.01,0.11,1.01,-3.2,0.5,0.2,380,0,,,,,,,,,,,,,,,,,,,
70493,1480785064070,,,,,,,,0.01,0.11,1.01,-3.2,0.5,0.2,380,0,,,,,,,,,,,,,,,,,,,
70513,1480785064090,,,,,,,,0.01,0.11,1.01,-3.2,0.5,0.2,380,0,,,,,,,,,,,,,,,,,,,
70533,1480785064110,,,,,,,,0.01,0.11,1.01,-3.2,0.5,0.2,380,0,,,,,,,,,,,,,,,,,,,
70553,1480785064130,,,,,12,,,0.01,0.1,1.01,-3.2,0.5,0.2,380,0,1,0,0.0,0,38.159229,-122.454353,0.0,0.0,38.7,10,3,1.9,0,0.0,-1,0.0,,0.0,0
70573,1480785064150,,,,,,,,0.01,0.1,1.01,-3.2,0.5,0.2,380,0,,,,,,,,,,,,,,,,,,,
70593,1480785064170,,,,,,,,0.01,0.11,1.01,-3.2,0.5,0.2,380,0,,,,,,,,,,,,,,,,,,,
70613,1480785064190,,,,,,,,0.01,0.1,1.01,-3.2,0.5,0.2,380,0,,,,,,,,,,,,,,,,,,,
70633,1480785064210,,,,,,,,0.01,0.11,1.01,-3.2,0.5,0.2,380,0,,,,,,,,,,,,,,,,,,,
70653,1480785064230,0,124.1,,153.7,11,151.2,,0.01,0.1,1.0,-3.2,0.4,0.3,380,0,1,0,0.0,0,38.159229,-122.454353,0.0,0.0,38.7,10,3,1.9,0,0.0,-1,0.0,0.0,0.0,0
70673,1480785064250,,,,,,,,0.01,0.1,1.01,-3.2,0.4,0.2,380,0,,,,,,,,,,,,,,,,,,,
70693,1480785064270,,,,,,,,0.01,0.11,1.01,-3.2,0.5,0.2,360,0,,,,,,,,,,,,,,,,,,,
70713,1480785064291,,,,,,,,0.01,0.1,1.01,-3.1,0.5,0.2,360,0,,,,,,,,,,,,,,,,,,,
70733,1480785064311,,,,,,,,0.01,0.1,1.01,-3.2,0.5,0.2,380,0,,,,,,,,,,,,,,,,,,,
70753,1480785064331,,,,,12,,,0.01,0.1,1.0,-3.2,0.5,0.2,380,0,1,0,0.0,0,38.159229,-122.454353,0.0,0.0,38.7,10,3,1.9,0,0.0,-1,0.0,,0.0,0
70773,1480785064351,,,,,,,,0.01,0.11,1.01,-3.2,0.4,0.2,380,0,,,,,,,,,,,,,,,,,,,
70793,1480785064371,,,,,,,,0.01,0.11,1.01,-3.2,0.5,0.2,380,0,,,,,,,,,,,,,,,,,,,
70813,1480785064391,,,,,,,,0.01,0.11,1.01,-3.2,0.5,0.2,380,0,,,,,,,,,,,,,,,,,,,
70833,1480785064509,,,,,,,,0.01,0.11,1.01,-3.2,0.5,0.2,400,0,,,,,,,,,,,,,,,,,,,
70853,1480785064529,0,125.4,,154.7,13,151.4,,0.01,0.11,1.01,-3.2,0.5,0.2,400,0,1,0,0.0,0,38.159229,-122.454353,0.0,0.0,38.7,10,3,1.9,0,0.0,-1,0.0,0.0,0.0,0
70873,1480785064549,,,,,,,,0.01,0.1,1.01,-3.1,0.5,0.2,400,0,,,,,,,,,,,,,,,,,,,
70893,1480785064569,,,,,,,,0.01,0.1,1.01,-3.2,0.5,0.2,380,0,,,,,,,,,,,,,,,,,,,
70913,1480785064589,,,,,,,,0.01,0.1,1.01,-3.1,0.5,0.2,380,0,,,,,,,,,,,,,,,,,,,
70933,1480785064609,,,,,,,,0.01,0.1,1.01,-3.1,0.5,0.2,400,0,,,,,,,,,,,,,,,,,,,
70953,1480785064629,,,,,13,,,0.02,0.1,1.01,-3.1,0.5,0.2,400,0,1,0,0.0,0,38.159229,-122.454353,0.0,0.0,38.7,10,3,1.9,0,0.0,-1,0.0,,0.0,0
70973,1480785064649,,,,,,,,0.01,0.1,1.01,-3.1,0.5,0.2,400,0,,,,,,,,,,,,,,,,,,,
70993,1480785064669,,,,,,,,0.01,0.1,1.01,-3.1,0.5,0.2,400,0,,,,,,,,,,,,,,,,,,,
71013,1480785064689,,,,,,,,0.01,0.1,1.01,-3.1,0.5,0.2,400,0,,,,,,,,,,,,,,,,,,,
71033,1480785064610,,,,,,,,0.01,0.1,1.01,-3.1,0.5,0.3,400,0,,,,,,,,,,,,,,,,,,,
71053,1480785064630,0,124.5,6.5,154.5,12,151.5,12.62,0.02,0.1,1.01,-3.1,0.5,0.3,400,0,1,0,0.0,0,38.159229,-122.454353,0.0,0.0,38.7,10,3,1.9,0,0.0,-1,0.0,0.0,0.0,0
71073,1480785064650,,,,,,,,0.01,0.1,1.01,-3.1,0.5,0.2,400,0,,,,,,,,,,,,,,,,,,,
71093,1480785064670,,,,,,,,0.01,0.11,1.01,-3.1,0.5,0.2,400,0,,,,,,,,,,,,,,,,,,,
71113,1480785064690,,,,,,,,0.01,0.1,1.01,-3.1,0.5,0.2,400,0,,,,,,,,,,,,,,,,,,,
71133,1480785064710,,,,,,,,0.01,0.1,1.01,-3.1,0.5,0.2,400,0,,,,,,,,,,,,,,,,,,,
71153,1480785064730,,,,,14,,,0.01,0.1,1.01,-3.1,0.5,0.2,400,0,1,0,0.0,0,38.159229,-122.454353,0.0,0.0,38.7,10,3,1.9,0,0.0,-1,0.0,,0.0,0
71173,1480785064750,,,,,,,,0.01,0.1,1.01,-3.1,0.5,0.2,400,0,,,,,,,,,,,,,,,,,,,
71193,1480785064770,,,,,,,,0.01,0.1,1.01,-3.1,0.5,0.2,400,0,,,,,,,,,,,,,,,,,,,
71213,1480785064790,,,,,,,,0.01,0.1,1.01,-3.1,0.5,0.2,400,0,,,,,,,,,,,,,,,,,,,
71233,1480785064810,,,,,,,,0.01,0.1,1.01,-3.1,0.5,0.2,420,0,,,,,,,,,,,,,,,,,,,
71253,1480785064830,0,124.3,,154.2,14,151.4,,0.01,0.1,1.01,-3.1,0.5,0.2,420,0,1,0,0.0,0,38.159229,-122.454353,0.0,0.0,38.7,10,3,1.9,0,0.0,-1,0.0,0.0,0.0,0
71273,1480785064850,,,,,,,,0.01,0.1,1.01,-3.1,0.5,0.3,400,0,,,,,,,,,,,,,,,,,,,
71293,1480785064870,,,,,,,,0.01,0.1,1.01,-3.1,0.5,0.3,400,0,,,,,,,,,,,,,,,,,,,
71313,1480785064890,,,,,,,,0.01,0.1,1.01,-3.1,0.4,0.2,400,0,,,,,,,,,,,,,,,,,,,
71333,1480785064905,,,,,,,,0.01,0.11,1.01,-3.1,0.4,0.3,400,0,,,,,,,,,,,,,,,,,,,
71353,1480785064925,,,,,14,,,0.01,0.1,1.01,-3.1,0.4,0.2,400,0,1,0,0.0,0,38.159229,-122.454353,0.0,0.0,38.7,10,3,1.9,0,0.0,-1,0.0,,0.0,0
71373,1480785064945,,,,,,,,0.01,0.11,1.0,-3.1,0.4,0.3,400,0,,,,,,,,,,,,,,,,,,,
71393,1480785064965,,,,,,,,0.01,0.11,1.0,-3.1,0.4,0.2,400,0,,,,,,,,,,,,,,,,,,,
71413,1480785064985,,,,,,,,0.01,0.11,1.01,-3.1,0.4,0.2,400,0,,,,,,,,,,,,,,,,,,,
71433,1480785065006,,,,,,,,0.01,0.11,1.01,-3.1,0.4,0.2,400,0,,,,,,,,,,,,,,,,,,,
71453,1480785065026,0,125.4,,155.1,15,151.5,,0.01,0.11,1.01,-3.1,0.4,0.2,400,0,1,0,0.0,0,38.159229,-122.454353,0.0,0.0,38.7,10,3,1.9,0,0.0,-1,0.0,0.0,0.0,0
71473,1480785065046,,,,,,,,0.02,0.11,1.01,-3.2,0.4,0.2,380,0,,,,,,,,,,,,,,,,,,,
71493,1480785065066,,,,,,,,0.02,0.1,1.01,-3.2,0.4,0.2,380,0,,,,,,,,,,,,,,,,,,,
71513,1480785065091,,,,,,,,0.02,0.11,1.01,-3.2,0.4,0.4,440,0,,,,,,,,,,,,,,,,,,,
71533,1480785065111,,,,,,,,0.02,0.11,1.0,-3.2,0.4,0.3,440,0,,,,,,,,,,,,,,,,,,,
71553,1480785065131,,,,,15,,,0.02,0.11,1.01,-3.2,0.6,0.3,560,0,1,0,0.0,0,38.159229,-122.454353,0.0,0.0,38.7,10,3,1.9,0,0.0,-1,0.0,,0.0,0
71573,1480785065151,,,,,,,,0.01,0.09,1.0,-3.1,0.5,0.1,560,0,,,,,,,,,,,,,,,,,,,
71593,1480785065171,,,,,,,,0.02,0.1,1.01,-3.2,0.5,0.2,680,0,,,,,,,,,,,,,,,,,,,
71613,1480785065191,,,,,,,,0.03,0.1,1.0,-3.2,0.7,0.5,780,0,,,,,,,,,,,,,,,,,,,
71633,1480785065307,,,,,,,,0.02,0.1,1.0,-3.2,0.5,0.5,900,0,,,,,,,,,,,,,,,,,,,
71653,1480785065327,0,124.5,,154.6,20,151.5,,0.01,0.1,1.02,-3.2,0.3,0.4,980,0,1,0,0.0,0,38.159229,-122.454353,0.0,0.0,38.7,10,3,1.9,0,0.0,-1,0.0,0.0,0.0,0
71673,1480785065347,,,,,,,,0.0,0.11,1.02,-3.2,0.3,0.3,1040,0,,,,,,,,,,,,,,,,,,,
71693,1480785065367,,,,,,,,0.0,0.1,1.02,-3.2,0.5,0.3,1000,0,,,,,,,,,,,,,,,,,,,
71713,1480785065387,,,,,,,,0.0,0.1,1.01,-3.2,0.2,0.4,1040,0,,,,,,,,,,,,,,,,,,,
71733,1480785065407,,,,,,,,-0.0,0.11,1.01,-3.3,-0.1,0.4,1080,0,,,,,,,,,,,,,,,,,,,
71753,1480785065427,,,,,31,,,0.0,0.11,1.0,-3.3,-0.1,0.4,1140,0,1,0,0.0,0,38.159229,-122.454353,0.0,0.0,38.7,10,3,1.9,0,0.0,-1,0.0,,0.0,0
71773,1480785065447,,,,,,,,0.0,0.1,1.01,-3.3,-0.1,0.3,1160,0,,,,,,,,,,,,,,,,,,,
71793,1480785065467,,,,,,,,0.0,0.11,1.01,-3.3,-0.1,0.3,1180,0,,,,,,,,,,,,,,,,,,,
71813,1480785065487,,,,,,,,-0.0,0.11,1.01,-3.2,-0.0,0.2,1180,0,,,,,,,,,,,,,,,,,,,
71833,1480785065410,,,,,,,,0.0,0.1,1.02,-3.2,0.0,0.2,1200,0,,,,,,,,,,,,,,,,,,,
71853,1480785065430,1,125.5,,155.3,36,151.5,,-0.0,0.1,1.02,-3.1,0.1,0.2,1220,0,1,0,0.0,0,38.159229,-122.454353,0.0,0.0,38.7,10,3,1.9,0,0.0,-1,0.0,0.0,0.0,0
71873,1480785065450,,,,,,,,0.0,0.1,1.02,-3.1,0.3,0.2,1180,0,,,,,,,,,,,,,,,,,,,
71893,1480785065470,,,,,,,,0.0,0.1,1.02,-3.1,0.3,0.2,1180,0,,,,,,,,,,,,,,,,,,,
71913,1480785065490,,,,,,,,0.0,0.1,1.02,-3.1,0.3,0.2,1140,0,,,,,,,,,,,,,,,,,,,
71933,1480785065510,,,,,,,,0.01,0.1,1.02,-3.1,0.4,0.2,1160,0,,,,,,,,,,,,,,,,,,,
71953,1480785065530,,,,,52,,,0.0,0.1,1.02,-3.1,0.4,0.2,1160,0,1,0,0.0,0,38.159229,-122.454353,0.0,0.0,38.7,10,3,1.9,0,0.0,-1,0.0,,0.0,0
71973,1480785065550,,,,,,,,0.01,0.11,1.01,-3.1,0.4,0.2,1140,0,,,,,,,,,,,,,,,,,,,
71993,1480785065570,,,,,,,,0.01,0.11,1.0,-3.1,0.4,0.2,1100,0,,,,,,,,,,,,,,,,,,,
72013,1480785065590,,,,,,,,0.01,0.1,1.0,-3.1,0.4,0.2,1100,0,,,,,,,,,,,,,,,,,,,
72033,1480785065610,,,,,,,,0.01,0.1,1.0,-3.1,0.3,0.2,1080,0,,,,,,,,,,,,,,,,,,,
72053,1480785065630,0,125.1,6.9,155.2,47,151.6,14.74,0.01,0.1,1.01,-3.1,0.3,0.2,1100,0,1,0,0.0,0,38.159229,-122.454353,0.0,0.0,38.7,10,3,1.9,0,0.0,-1,0.0,0.0,0.0,0
72073,1480785065650,,,,,,,,0.01,0.1,1.0,-3.1,0.3,0.2,1080,0,,,,,,,,,,,,,,,,,,,
72093,1480785065670,,,,,,,,0.01,0.1,1.01,-3.1,0.4,0.2,1060,0,,,,,,,,,,,,,,,,,,,
72113,1480785065690,,,,,,,,0.01,0.1,1.01,-3.1,0.4,0.2,1040,0,,,,,,,,,,,,,,,,,,,
72133,1480785065710,,,,,,,,0.01,0.1,1.01,-3.1,0.4,0.2,1020,0,,,,,,,,,,,,,,,,,,,
72153,1480785065730,,,,,49,,,0.01,0.1,1.01,-3.1,0.4,0.2,1000,0,1,0,0.0,0,38.159229,-122.454353,0.0,0.0,38.7,10,3,1.9,0,0.0,-1,0.0,,0.0,0
72173,1480785065750,,,,,,,,0.01,0.1,1.01,-3.1,0.4,0.2,880,0,,,,,,,,,,,,,,,,,,,
72193,1480785065770,,,,,,,,0.01,0.1,1.01,-3.1,0.4,0.2,980,0,,,,,,,,,,,,,,,,,,,
72213,1480785065790,,,,,,,,0.01,0.1,1.01,-3.1,0.5,0.2,940,0,,,,,,,,,,,,,,,,,,,
72233,1480785065810,,,,,,,,0.02,0.11,1.01,-3.1,0.4,0.2,920,0,,,,,,,,,,,,,,,,,,,
72253,1480785065830,0,123.9,,154.3,48,151.2,,0.02,0.11,1.01,-3.1,0.4,0.2,880,0,1,0,0.0,0,38.159229,-122.454353,0.0,0.0,38.7,10,3,1.9,0,0.0,-1,0.0,0.0,0.0,0
72273,1480785065850,,,,,,,,0.02,0.1,1.01,-3.1,0.4,0.2,840,0,,,,,,,,,,,,,,,,,,,
72293,1480785065870,,,,,,,,0.02,0.11,1.01,-3.1,0.4,0.2,840,0,,,,,,,,,,,,,,,,,,,
72313,1480785065890,,,,,,,,0.01,0.1,1.01,-3.1,0.4,0.2,820,0,,,,,,,,,,,,,,,,,,,
72333,1480785065904,,,,,,,,0.02,0.1,1.01,-3.1,0.4,0.2,780,0,,,,,,,,,,,,,,,,,,,
72353,1480785065924,,,,,41,,,0.02,0.1,1.0,-3.2,0.4,0.2,720,0,1,0,0.0,0,38.159229,-122.454353,0.0,0.0,38.7,10,3,1.9,0,0.0,-1,0.0,,0.0,0
72373,1480785065944,,,,,,,,0.01,0.11,1.01,-3.2,0.4,0.2,720,0,,,,,,,,,,,,,,,,,,,
72393,1480785065964,,,,,,,,0.01,0.11,1.01,-3.2,0.4,0.2,700,0,,,,,,,,,,,,,,,,,,,
72413,1480785065984,,,,,,,,0.01,0.1,1.01,-3.1,0.4,0.2,660,0,,,,,,,,,,,,,,,,,,,
72433,1480785066101,,,,,,,,0.01,0.11,1.01,-3.1,0.4,0.2,660,0,,,,,,,,,,,,,,,,,,,
72453,1480785066121,0,124.1,,154.2,35,150.8,,0.01,0.1,1.01,-3.2,0.4,0.2,620,0,1,0,0.0,0,38.159229,-122.454353,0.0,0.0,38.7,10,3,1.9,0,0.0,-1,0.0,0.0,0.0,0
72473,1480785066141,,,,,,,,0.01,0.1,1.01,-3.2,0.4,0.2,580,0,,,,,,,,,,,,,,,,,,,
72493,1480785066161,,,,,,,,0.01,0.1,1.01,-3.1,0.4,0.2,580,0,,,,,,,,,,,,,,,,,,,
72513,1480785066181,,,,,,,,0.01,0.1,1.01,-3.2,0.4,0.2,540,0,,,,,,,,,,,,,,,,,,,
72533,1480785066201,,,,,,,,0.01,0.1,1.01,-3.2,0.4,0.2,540,0,,,,,,,,,,,,,,,,,,,
72553,1480785066221,,,,,33,,,0.01,0.1,1.01,-3.2,0.5,0.2,500,0,1,0,0.0,0,38.159229,-122.454353,0.0,0.0,38.7,10,3,1.9,0,0.0,-1,0.0,,0.0,0
72573,1480785066241,,,,,,,,0.01,0.1,1.01,-3.2,0.5,0.2,500,0,,,,,,,,,,,,,,,,,,,
72593,1480785066261,,,,,,,,0.01,0.1,1.01,-3.1,0.5,0.2,480,0,,,,,,,,,,,,,,,,,,,
72613,1480785066281,,,,,,,,0.01,0.1,1.01,-3.1,0.5,0.2,480,0,,,,,,,,,,,,,,,,,,,
72633,1480785066210,,,,,,,,0.01,0.1,1.01,-3.1,0.5,0.2,460,0,,,,,,,,,,,,,,,,,,,
72653,1480785066230,0,125.5,,155.6,27,151.4,,0.01,0.1,1.01,-3.1,0.5,0.2,460,0,1,0,0.0,0,38.159229,-122.454353,0.0,0.0,38.7,10,3,1.9,0,0.0,-1,0.0,0.0,0.0,0
72673,1480785066250,,,,,,,,0.01,0.1,1.01,-3.1,0.5,0.2,460,0,,,,,,,,,,,,,,,,,,,
72693,1480785066270,,,,,,,,0.01,0.1,1.01,-3.1,0.5,0.2,420,0,,,,,,,,,,,,,,,,,,,
72713,1480785066290,,,,,,,,0.01,0.1,1.01,-3.1,0.5,0.2,420,0,,,,,,,,,,,,,,,,,,,
72733,1480785066310,,,,,,,,0.01,0.11,1.01,-3.2,0.5,0.2,400,0,,,,,,,,,,,,,,,,,,,
72753,1480785066330,,,,,24,,,0.01,0.11,1.01,-3.2,0.5,0.2,400,0,1,0,0.0,0,38.159229,-122.454353,0.0,0.0,38.7,10,3,1.9,0,0.0,-1,0.0,,0.0,0
72773,1480785066350,,,,,,,,0.01,0.1,1.0,-3.1,0.5,0.2,400,0,,,,,,,,,,,,,,,,,,,
72793,1480785066370,,,,,,,,0.01,0.11,1.0,-3.1,0.5,0.2,380,0,,,,,,,,,,,,,,,,,,,
72813,1480785066390,,,,,,,,0.01,0.1,1.0,-3.1,0.5,0.3,380,0,,,,,,,,,,,,,,,,,,,
72833,1480785066410,,,,,,,,0.01,0.1,1.0,-3.2,0.5,0.3,360,0,,,,,,,,,,,,,,,,,,,
72853,1480785066430,0,125.2,,155.0,22,150.4,,0.01,0.11,1.0,-3.2,0.5,0.3,360,0,1,0,0.0,0,38.159229,-122.454353,0.0,0.0,38.7,10,3,1.9,0,0.0,-1,0.0,0.0,0.0,0
72873,1480785066450,,,,,,,,0.01,0.1,1.0,-3.2,0.5,0.2,360,0,,,,,,,,,,,,,,,,,,,
72893,1480785066470,,,,,,,,0.01,0.11,1.01,-3.2,0.5,0.2,360,0,,,,,,,,,,,,,,,,,,,
72913,1480785066490,,,,,,,,0.01,0.11,1.01,-3.2,0.5,0.3,360,0,,,,,,,,,,,,,,,,,,,
72933,1480785066510,,,,,,,,0.01,0.1,1.0,-3.1,0.5,0.3,360,0,,,,,,,,,,,,,,,,,,,
72953,1480785066530,,,,,22,,,0.01,0.11,1.01,-3.2,0.5,0.3,340,0,1,0,0.0,0,38.159229,-122.454353,0.0,0.0,38.7,10,3,1.9,0,0.0,-1,0.0,,0.0,0
72973,1480785066550,,,,,,,,0.01,0.11,1.01,-3.2,0.5,0.3,340,0,,,,,,,,,,,,,,,,,,,
72993,1480785066570,,,,,,,,0.01,0.11,1.0,-3.2,0.5,0.3,340,0,,,,,,,,,,,,,,,,,,,
73013,1480785066590,,,,,,,,0.01,0.11,1.01,-3.2,0.5,0.3,340,0,,,,,,,,,,,,,,,,,,,
73033,1480785066610,,,,,,,,0.01,0.11,1.0,-3.2,0.5,0.3,340,0,,,,,,,,,,,,,,,,,,,
73053,1480785066630,0,125.4,6.9,155.6,19,151.2,12.29,0.01,0.11,1.01,-3.1,0.5,0.3,340,0,1,0,0.0,0,38.159229,-122.454353,0.0,0.0,38.7,10,3,1.9,0,0.0,-1,0.0,0.0,0.0,0
73073,1480785066650,,,,,,,,0.01,0.11,1.01,-3.1,0.5,0.3,320,0,,,,,,,,,,,,,,,,,,,
73093,1480785066670,,,,,,,,0.01,0.1,1.01,-3.1,0.5,0.3,320,0,,,,,,,,,,,,,,,,,,,
73113,1480785066690,,,,,,,,0.01,0.1,1.0,-3.1,0.5,0.3,320,0,,,,,,,,,,,,,,,,,,,
73133,1480785066710,,,,,,,,0.01,0.11,1.01,-3.1,0.5,0.3,320,0,,,,,,,,,,,,,,,,,,,
73153,1480785066730,,,,,18,,,0.01,0.1,1.0,-3.1,0.5,0.3,320,0,1,0,0.0,0,38.159229,-122.454353,0.0,0.0,38.7,10,3,1.9,0,0.0,-1,0.0,,0.0,0
73173,1480785066750,,,,,,,,0.01,0.1,1.01,-3.1,0.5,0.3,320,0,,,,,,,,,,,,,,,,,,,
73193,1480785066770,,,,,,,,0.01,0.1,1.01,-3.1,0.5,0.3,320,0,,,,,,,,,,,,,,,,,,,
73213,1480785066791,,,,,,,,0.01,0.1,1.01,-3.1,0.5,0.3,320,0,,,,,,,,,,,,,,,,,,,
73233,1480785066910,,,,,,,,0.01,0.11,1.01,-3.1,0.5,0.3,320,0,,,,,,,,,,,,,,,,,,,
73253,1480785066930,0,125.2,,155.7,17,151.5,,0.01,0.11,1.01,-3.1,0.5,0.3,320,0,1,0,0.0,0,38.159229,-122.454353,0.0,0.0,38.7,10,3,1.9,0,0.0,-1,0.0,0.0,0.0,0
73273,1480785066950,,,,,,,,0.01,0.1,1.01,-3.1,0.5,0.3,320,0,,,,,,,,,,,,,,,,,,,
73293,1480785066970,,,,,,,,0.01,0.11,1.01,-3.1,0.5,0.3,320,0,,,,,,,,,,,,,,,,,,,
73313,1480785066990,,,,,,,,0.01,0.11,1.01,-3.1,0.5,0.3,320,0,,,,,,,,,,,,,,,,,,,
73333,1480785067010,,,,,,,,0.01,0.1,1.01,-3.1,0.5,0.2,320,0,,,,,,,,,,,,,,,,,,,
73353,1480785067030,,,,,17,,,0.01,0.11,1.01,-3.1,0.4,0.3,340,0,1,0,0.0,0,38.159229,-122.454353,0.0,0.0,38.7,10,3,1.9,0,0.0,-1,0.0,,0.0,0
73373,1480785067050,,,,,,,,0.02,0.11,1.01,-3.1,0.5,0.3,340,0,,,,,,,,,,,,,,,,,,,
73393,1480785067070,,,,,,,,0.01,0.1,1.01,-3.1,0.4,0.2,340,0,,,,,,,,,,,,,,,,,,,
73413,1480785066991,,,,,,,,0.02,0.11,1.01,-3.1,0.4,0.3,340,0,,,,,,,,,,,,,,,,,,,
73433,1480785067011,,,,,,,,0.02,0.11,1.01,-3.1,0.5,0.3,340,0,,,,,,,,,,,,,,,,,,,
73453,1480785067031,0,125.1,,155.7,16,151.6,,0.01,0.1,1.01,-3.1,0.5,0.2,340,0,1,0,0.0,0,38.159229,-122.454353,0.0,0.0,38.7,10,3,1.9,0,0.0,-1,0.0,0.0,0.0,0
73473,1480785067051,,,,,,,,0.01,0.11,1.01,-3.1,0.5,0.2,360,0,,,,,,,,,,,,,,,,,,,
73493,1480785067071,,,,,,,,0.01,0.11,1.01,-3.1,0.5,0.2,360,0,,,,,,,,,,,,,,,,,,,
73513,1480785067091,,,,,,,,0.01,0.11,1.0,-3.1,0.5,0.2,360,0,,,,,,,,,,,,,,,,,,,
73533,1480785067110,,,,,,,,0.01,0.11,1.01,-3.1,0.5,0.2,360,0,,,,,,,,,,,,,,,,,,,
73553,1480785067130,,,,,17,,,0.01,0.1,1.01,-3.1,0.5,0.2,360,0,1,0,0.0,0,38.159229,-122.454353,0.0,0.0,38.7,10,3,1.9,0,0.0,-1,0.0,,0.0,0
73573,1480785067150,,,,,,,,0.01,0.1,1.0,-3.1,0.5,0.2,360,0,,,,,,,,,,,,,,,,,,,
73593,1480785067170,,,,,,,,0.01,0.11,1.01,-3.1,0.5,0.2,360,0,,,,,,,,,,,,,,,,,,,
73613,1480785067191,,,,,,,,0.01,0.1,1.01,-3.1,0.5,0.2,360,0,,,,,,,,,,,,,,,,,,,
73633,1480785067211,,,,,,,,0.01,0.11,1.01,-3.1,0.5,0.2,380,0,,,,,,,,,,,,,,,,,,,
73653,1480785067231,0,124.3,,155.2,16,151.5,,0.01,0.1,1.01,-3.1,0.5,0.2,380,0,1,0,0.0,0,38.159229,-122.454353,0.0,0.0,38.7,10,3,1.9,0,0.0,-1,0.0,0.0,0.0,0
73673,1480785067251,,,,,,,,0.01,0.1,1.01,-3.1,0.5,0.2,380,0,,,,,,,,,,,,,,,,,,,
73693,1480785067271,,,,,,,,0.01,0.11,1.01,-3.1,0.5,0.2,380,0,,,,,,,,,,,,,,,,,,,
73713,1480785067291,,,,,,,,0.01,0.1,1.01,-3.1,0.5,0.2,380,0,,,,,,,,,,,,,,,,,,,
73733,1480785067311,,,,,,,,0.01,0.11,1.01,-3.1,0.5,0.2,400,0,,,,,,,,,,,,,,,,,,,
73753,1480785067331,,,,,18,,,0.01,0.1,1.01,-3.1,0.5,0.2,400,0,1,0,0.0,0,38.159229,-122.454353,0.0,0.0,38.7,10,3,1.9,0,0.0,-1,0.0,,0.0,0
73773,1480785067351,,,,,,,,0.01,0.11,1.01,-3.1,0.4,0.2,400,0,,,,,,,,,,,,,,,,,,,
73793,1480785067371,,,,,,,,0.01,0.11,1.01,-3.1,0.4,0.2,400,0,,,,,,,,,,,,,,,,,,,
73813,1480785067391,,,,,,,,0.01,0.11,1.01,-3.1,0.4,0.2,400,0,,,,,,,,,,,,,,,,,,,
73833,1480785067411,,,,,,,,0.01,0.11,1.01,-3.1,0.5,0.2,420,0,,,,,,,,,,,,,,,,,,,
73853,1480785067431,0,124.3,,155.0,17,151.2,,0.01,0.1,1.01,-3.1,0.4,0.2,420,0,1,0,0.0,0,38.159229,-122.454353,0.0,0.0,38.7,10,3,1.9,0,0.0,-1,0.0,0.0,0.0,0
73873,1480785067451,,,,,,,,0.01,0.11,1.01,-3.2,0.4,0.2,420,0,,,,,,,,,,,,,,,,,,,
73893,1480785067471,,,,,,,,0.01,0.11,1.01,-3.2,0.5,0.2,420,0,,,,,,,,,,,,,,,,,,,
73913,1480785067491,,,,,,,,0.01,0.11,1.01,-3.2,0.4,0.2,420,0,,,,,,,,,,,,,,,,,,,
73933,1480785067510,,,,,,,,0.01,0.11,1.01,-3.2,0.5,0.2,420,0,,,,,,,,,,,,,,,,,,,
73953,1480785067530,,,,,17,,,0.01,0.11,1.01,-3.2,0.5,0.2,420,0,1,0,0.0,0,38.159229,-122.454353,0.0,0.0,38.7,10,3,1.9,0,0.0,-1,0.0,,0.0,0
73973,1480785067550,,,,,,,,0.01,0.11,1.01,-3.2,0.5,0.2,420,0,,,,,,,,,,,,,,,,,,,
73993,1480785067570,,,,,,,,0.01,0.1,1.01,-3.2,0.5,0.2,420,0,,,,,,,,,,,,,,,,,,,
74013,1480785067590,,,,,,,,0.01,0.11,1.01,-3.2,0.5,0.2,420,0,,,,,,,,,,,,,,,,,,,
74033,1480785067709,,,,,,,,0.01,0.11,1.01,-3.2,0.5,0.2,420,0,,,,,,,,,,,,,,,,,,,
74053,1480785067729,0,125.2,6.7,155.2,18,150.6,12.93,0.01,0.11,1.01,-3.2,0.5,0.2,440,0,1,0,0.0,0,38.159229,-122.454353,0.0,0.0,38.7,10,3,1.9,0,0.0,-1,0.0,0.0,0.0,0
74073,1480785067749,,,,,,,,0.01,0.11,1.01,-3.2,0.5,0.2,440,0,,,,,,,,,,,,,,,,,,,
74093,1480785067769,,,,,,,,0.01,0.11,1.01,-3.2,0.5,0.2,440,0,,,,,,,,,,,,,,,,,,,
74113,1480785067789,,,,,,,,0.01,0.11,1.01,-3.2,0.5,0.2,440,0,,,,,,,,,,,,,,,,,,,
74133,1480785067809,,,,,,,,0.01,0.1,1.01,-3.2,0.5,0.2,440,0,,,,,,,,,,,,,,,,,,,
74153,1480785067829,,,,,18,,,0.01,0.11,1.01,-3.2,0.5,0.2,440,0,1,0,0.0,0,38.159229,-122.454353,0.0,0.0,38.7,10,3,1.9,0,0.0,-1,0.0,,0.0,0
74173,1480785067849,,,,,,,,0.01,0.11,1.01,-3.2,0.5,0.3,440,0,,,,,,,,,,,,,,,,,,,
74193,1480785067869,,,,,,,,0.01,0.11,1.01,-3.2,0.5,0.3,420,0,,,,,,,,,,,,,,,,,,,
74213,1480785067889,,,,,,,,0.01,0.11,1.01,-3.2,0.5,0.3,420,0,,,,,,,,,,,,,,,,,,,
74233,1480785067810,,,,,,,,0.01,0.11,1.01,-3.2,0.5,0.2,420,0,,,,,,,,,,,,,,,,,,,
74253,1480785067830,0,125.6,,156.0,18,151.5,,0.01,0.11,1.01,-3.2,0.5,0.2,420,0,1,0,0.0,0,38.159229,-122.454353,0.0,0.0,38.7,10,3,1.9,0,0.0,-1,0.0,0.0,0.0,0
74273,1480785067850,,,,,,,,0.01,0.1,1.01,-3.2,0.5,0.2,420,0,,,,,,,,,,,,,,,,,,,
74293,1480785067870,,,,,,,,0.01,0.11,1.01,-3.2,0.5,0.2,420,0,,,,,,,,,,,,,,,,,,,
74313,1480785067890,,,,,,,,0.01,0.1,1.01,-3.2,0.5,0.2,420,0,,,,,,,,,,,,,,,,,,,
74333,1480785067905,,,,,,,,0.01,0.11,1.01,-3.2,0.5,0.2,420,0,,,,,,,,,,,,,,,,,,,
74353,1480785067925,,,,,17,,,0.01,0.11,1.01,-3.2,0.5,0.2,420,0,1,0,0.0,0,38.159229,-122.454353,0.0,0.0,38.7,10,3,1.9,0,0.0,-1,0.0,,0.0,0
74373,1480785067945,,,,,,,,0.01,0.1,1.01,-3.1,0.5,0.2,420,0,,,,,,,,,,,,,,,,,,,
74393,1480785067965,,,,,,,,0.01,0.11,1.01,-3.2,0.5,0.3,420,0,,,,,,,,,,,,,,,,,,,
74413,1480785067991,,,,,,,,0.01,0.1,1.01,-3.2,0.5,0.2,420,0,,,,,,,,,,,,,,,,,,,
74433,1480785068011,,,,,,,,0.01,0.11,1.01,-3.2,0.5,0.2,420,0,,,,,,,,,,,,,,,,,,,
74453,1480785068031,0,125.3,,156.1,19,151.4,,0.01,0.1,1.01,-3.2,0.5,0.2,420,0,1,0,0.0,0,38.159229,-122.454353,0.0,0.0,38.7,10,3,1.9,0,0.0,-1,0.0,0.0,0.0,0
74473,1480785068051,,,,,,,,0.01,0.11,1.01,-3.2,0.5,0.2,420,0,,,,,,,,,,,,,,,,,,,
74493,1480785068071,,,,,,,,0.01,0.1,1.01,-3.2,0.5,0.3,420,0,,,,,,,,,,,,,,,,,,,
74513,1480785068091,,,,,,,,0.01,0.1,1.01,-3.2,0.5,0.3,400,0,,,,,,,,,,,,,,,,,,,
74533,1480785068111,,,,,,,,0.01,0.11,1.01,-3.2,0.4,0.3,400,0,,,,,,,,,,,,,,,,,,,
74553,1480785068131,,,,,18,,,0.01,0.1,1.01,-3.1,0.4,0.2,400,0,1,0,0.0,0,38.159229,-122.454353,0.0,0.0,38.7,10,3,1.9,0,0.0,-1,0.0,,0.0,0
74573,1480785068151,,,,,,,,0.01,0.11,1.01,-3.1,0.5,0.2,420,0,,,,,,,,,,,,,,,,,,,
74593,1480785068171,,,,,,,,0.01,0.1,1.01,-3.1,0.5,0.2,420,0,,,,,,,,,,,,,,,,,,,
74613,1480785068191,,,,,,,,0.01,0.11,1.01,-3.1,0.5,0.3,420,0,,,,,,,,,,,,,,,,,,,
74633,1480785068211,,,,,,,,0.01,0.1,1.01,-3.1,0.5,0.2,420,0,,,,,,,,,,,,,,,,,,,
74653,1480785068231,0,125.0,,155.6,18,151.4,,0.01,0.1,1.01,-3.1,0.4,0.3,420,0,1,0,0.0,0,38.159229,-122.454353,0.0,0.0,38.7,10,3,1.9,0,0.0,-1,0.0,0.0,0.0,0
74673,1480785068251,,,,,,,,0.01,0.1,1.01,-3.1,0.4,0.3,400,0,,,,,,,,,,,,,,,,,,,
74693,1480785068271,,,,,,,,0.01,0.1,1.01,-3.1,0.5,0.3,400,0,,,,,,,,,,,,,,,,,,,
74713,1480785068291,,,,,,,,0.01,0.11,1.01,-3.1,0.5,0.3,400,0,,,,,,,,,,,,,,,,,,,
74733,1480785068311,,,,,,,,0.01,0.1,1.01,-3.2,0.5,0.3,400,0,,,,,,,,,,,,,,,,,,,
74753,1480785068331,,,,,18,,,0.01,0.11,1.01,-3.2,0.5,0.3,400,0,1,0,0.0,0,38.159229,-122.454353,0.0,0.0,38.7,10,3,1.9,0,0.0,-1,0.0,,0.0,0
74773,1480785068351,,,,,,,,0.01,0.11,1.01,-3.2,0.5,0.3,400,0,,,,,,,,,,,,,,,,,,,
74793,1480785068371,,,,,,,,0.01,0.1,1.01,-3.1,0.5,0.3,400,0,,,,,,,,,,,,,,,,,,,
74813,1480785068391,,,,,,,,0.01,0.11,1.01,-3.2,0.5,0.3,400,0,,,,,,,,,,,,,,,,,,,
74833,1480785068510,,,,,,,,0.01,0.1,1.01,-3.2,0.5,0.2,400,0,,,,,,,,,,,,,,,,,,,
74853,1480785068530,0,124.9,,155.6,17,151.2,,0.01,0.11,1.01,-3.2,0.5,0.3,400,0,1,0,0.0,0,38.159229,-122.454353,0.0,0.0,38.7,10,3,1.9,0,0.0,-1,0.0,0.0,0.0,0
74873,1480785068550,,,,,,,,0.01,0.1,1.01,-3.2,0.5,0.3,400,0,,,,,,,,,,,,,,,,,,,
74893,1480785068570,,,,,,,,0.01,0.1,1.01,-3.2,0.5,0.2,400,0,,,,,,,,,,,,,,,,,,,
74913,1480785068590,,,,,,,,0.01,0.1,1.01,-3.2,0.5,0.2,400,0,,,,,,,,,,,,,,,,,,,
74933,1480785068610,,,,,,,,0.01,0.1,1.01,-3.1,0.5,0.3,400,0,,,,,,,,,,,,,,,,,,,
74953,1480785068630,,,,,18,,,0.01,0.11,1.01,-3.1,0.5,0.3,400,0,1,0,0.0,0,38.159229,-122.454353,0.0,0.0,38.7,10,3,1.9,0,0.0,-1,0.0,,0.0,0
74973,1480785068650,,,,,,,,0.01,0.1,1.01,-3.1,0.5,0.3,400,0,,,,,,,,,,,,,,,,,,,
74993,1480785068670,,,,,,,,0.01,0.11,1.01,-3.1,0.5,0.3,400,0,,,,,,,,,,,,,,,,,,,
75013,1480785068690,,,,,,,,0.01,0.11,1.01,-3.1,0.5,0.3,400,0,,,,,,,,,,,,,,,,,,,
75033,1480785068610,,,,,,,,0.01,0.1,1.01,-3.1,0.5,0.3,400,0,,,,,,,,,,,,,,,,,,,
75053,1480785068630,0,125.0,6.7,155.6,17,151.3,12.74,0.01,0.1,1.01,-3.1,0.5,0.3,400,0,1,0,0.0,0,38.159229,-122.454353,0.0,0.0,38.7,10,3,1.9,0,0.0,-1,0.0,0.0,0.0,0
75073,1480785068650,,,,,,,,0.01,0.1,1.01,-3.1,0.5,0.3,400,0,,,,,,,,,,,,,,,,,,,
75093,1480785068670,,,,,,,,0.01,0.1,1.01,-3.1,0.5,0.3,400,0,,,,,,,,,,,,,,,,,,,
75113,1480785068690,,,,,,,,0.01,0.1,1.01,-3.2,0.5,0.3,400,0,,,,,,,,,,,,,,,,,,,
75133,1480785068710,,,,,,,,0.01,0.1,1.01,-3.1,0.5,0.3,400,0,,,,,,,,,,,,,,,,,,,
75153,1480785068730,,,,,18,,,0.01,0.11,1.01,-3.2,0.5,0.3,400,0,1,0,0.0,0,38.159229,-122.454353,0.0,0.0,38.7,10,3,1.9,0,0.0,-1,0.0,,0.0,0
75173,1480785068750,,,,,,,,0.01,0.11,1.01,-3.1,0.5,0.3,400,0,,,,,,,,,,,,,,,,,,,
75193,1480785068770,,,,,,,,0.01,0.11,1.01,-3.1,0.5,0.3,400,0,,,,,,,,,,,,,,,,,,,
75213,1480785068791,,,,,,,,0.01,0.11,1.01,-3.1,0.5,0.3,400,0,,,,,,,,,,,,,,,,,,,
75233,1480785068811,,,,,,,,0.01,0.11,1.01,-3.1,0.5,0.3,400,0,,,,,,,,,,,,,,,,,,,
75253,1480785068831,0,124.7,,155.9,18,150.5,,0.01,0.11,1.01,-3.1,0.5,0.2,400,0,1,0,0.0,0,38.159229,-122.454353,0.0,0.0,38.7,10,3,1.9,0,0.0,-1,0.0,0.0,0.0,0
75273,1480785068851,,,,,,,,0.01,0.1,1.01,-3.1,0.5,0.2,400,0,,,,,,,,,,,,,,,,,,,
75293,1480785068871,,,,,,,,0.01,0.11,1.01,-3.1,0.5,0.3,400,0,,,,,,,,,,,,,,,,,,,
75313,1480785068891,,,,,,,,0.01,0.11,1.01,-3.1,0.5,0.3,400,0,,,,,,,,,,,,,,,,,,,
75333,1480785068905,,,,,,,,0.01,0.11,1.01,-3.1,0.5,0.2,400,0,,,,,,,,,,,,,,,,,,,
75353,1480785068925,,,,,17,,,0.01,0.11,1.01,-3.1,0.5,0.2,400,0,1,0,0.0,0,38.159229,-122.454353,0.0,0.0,38.7,10,3,1.9,0,0.0,-1,0.0,,0.0,0
75373,1480785068945,,,,,,,,0.01,0.11,1.01,-3.1,0.5,0.2,400,0,,,,,,,,,,,,,,,,,,,
75393,1480785068965,,,,,,,,0.01,0.11,1.01,-3.2,0.5,0.3,400,0,,,,,,,,,,,,,,,,,,,
75413,1480785068991,,,,,,,,0.01,0.11,1.01,-3.2,0.5,0.3,400,0,,,,,,,,,,,,,,,,,,,
75433,1480785069011,,,,,,,,0.01,0.11,1.01,-3.2,0.5,0.2,400,0,,,,,,,,,,,,,,,,,,,
75453,1480785069031,0,125.5,,156.5,18,151.3,,0.01,0.11,1.01,-3.1,0.5,0.2,400,0,1,0,0.0,0,38.159229,-122.454353,0.0,0.0,38.7,10,3,1.9,0,0.0,-1,0.0,0.0,0.0,0
75473,1480785069051,,,,,,,,0.01,0.1,1.01,-3.1,0.5,0.2,400,0,,,,,,,,,,,,,,,,,,,
75493,1480785069071,,,,,,,,0.01,0.11,1.0,-3.1,0.5,0.2,400,0,,,,,,,,,,,,,,,,,,,
75513,1480785069091,,,,,,,,0.01,0.11,1.0,-3.1,0.5,0.2,400,0,,,,,,,,,,,,,,,,,,,
75533,1480785069111,,,,,,,,0.01,0.11,1.0,-3.1,0.5,0.2,400,0,,,,,,,,,,,,,,,,,,,
75553,1480785069131,,,,,17,,,0.01,0.11,1.01,-3.2,0.5,0.2,400,0,1,0,0.0,0,38.159229,-122.454353,0.0,0.0,38.7,10,3,1.9,0,0.0,-1,0.0,,0.0,0
75573,1480785069151,,,,,,,,0.01,0.11,1.01,-3.1,0.4,0.2,400,0,,,,,,,,,,,,,,,,,,,
75593,1480785069171,,,,,,,,0.01,0.1,1.01,-3.1,0.4,0.2,400,0,,,,,,,,,,,,,,,,,,,
75613,1480785069191,,,,,,,,0.01,0.1,1.01,-3.1,0.5,0.2,400,0,,,,,,,,,,,,,,,,,,,
75633,1480785069310,,,,,,,,0.01,0.11,1.01,-3.2,0.5,0.2,400,0,,,,,,,,,,,,,,,,,,,
75653,1480785069330,0,124.6,,155.6,16,150.8,,0.01,0.11,1.01,-3.1,0.5,0.2,400,0,1,0,0.0,0,38.159229,-122.454353,0.0,0.0,38.7,10,3,1.9,0,0.0,-1,0.0,0.0,0.0,0
75673,1480785069350,,,,,,,,0.01,0.11,1.01,-3.1,0.5,0.2,400,0,,,,,,,,,,,,,,,,,,,
75693,1480785069370,,,,,,,,0.01,0.11,1.01,-3.1,0.5,0.2,400,0,,,,,,,,,,,,,,,,,,,
75713,1480785069390,,,,,,,,0.01,0.11,1.01,-3.1,0.5,0.2,400,0,,,,,,,,,,,,,,,,,,,
75733,1480785069410,,,,,,,,0.01,0.11,1.01,-3.1,0.5,0.2,400,0,,,,,,,,,,,,,,,,,,,
75753,1480785069430,,,,,18,,,0.01,0.1,1.0,-3.1,0.5,0.2,400,0,1,0,0.0,0,38.159229,-122.454353,0.0,0.0,38.7,10,3,1.9,0,0.0,-1,0.0,,0.0,0
75773,1480785069450,,,,,,,,0.01,0.11,1.01,-3.1,0.5,0.3,440,0,,,,,,,,,,,,,,,,,,,
75793,1480785069470,,,,,,,,0.01,0.09,1.01,-3.1,0.4,0.2,440,0,,,,,,,,,,,,,,,,,,,
75813,1480785069391,,,,,,,,0.02,0.11,1.01,-3.1,0.5,0.3,560,0,,,,,,,,,,,,,,,,,,,
75833,1480785069411,,,,,,,,0.01,0.09,1.01,-3.1,0.4,0.2,680,0,,,,,,,,,,,,,,,,,,,
75853,1480785069431,0,124.9,,156.2,23,150.4,,0.01,0.1,1.01,-3.1,0.5,0.2,680,0,1,0,0.0,0,38.159229,-122.454353,0.0,0.0,38.7,10,3,1.9,0,0.0,-1,0.0,0.0,0.0,0
75873,1480785069451,,,,,,,,0.02,0.12,1.01,-3.2,0.5,0.5,780,0,,,,,,,,,,,,,,,,,,,
75893,1480785069471,,,,,,,,0.03,0.12,1.01,-3.2,0.3,0.6,880,0,,,,,,,,,,,,,,,,,,,
75913,1480785069491,,,,,,,,0.02,0.13,1.02,-3.2,0.3,0.5,960,0,,,,,,,,,,,,,,,,,,,
75933,1480785069511,,,,,,,,0.01,0.12,1.01,-3.2,0.1,0.4,1060,0,,,,,,,,,,,,,,,,,,,
75953,1480785069531,,,,,32,,,0.01,0.13,0.99,-3.3,-0.2,0.3,1080,0,1,0,0.0,0,38.159229,-122.454353,0.0,0.0,38.7,10,3,1.9,0,0.0,-1,0.0,,0.0,0
75973,1480785069551,,,,,,,,0.02,0.13,0.99,-3.3,-0.2,0.3,1080,0,,,,,,,,,,,,,,,,,,,
75993,1480785069571,,,,,,,,0.02,0.12,1.0,-3.2,-0.1,0.3,1160,0,,,,,,,,,,,,,,,,,,,
76013,1480785069591,,,,,,,,0.01,0.13,1.0,-3.3,-0.0,0.4,1220,0,,,,,,,,,,,,,,,,,,,
76033,1480785069611,,,,,,,,0.02,0.14,0.99,-3.3,-0.2,0.5,1260,0,,,,,,,,,,,,,,,,,,,
76053,1480785069631,0,125.6,6.6,156.8,31,151.2,14.64,0.01,0.13,1.01,-3.3,-0.1,0.4,1260,0,1,0,0.0,0,38.159229,-122.454353,0.0,0.0,38.7,10,3,1.9,0,0.0,-1,0.0,0.0,0.0,0
76073,1480785069651,,,,,,,,0.02,0.13,1.01,-3.3,0.1,0.4,1360,0,,,,,,,,,,,,,,,,,,,
76093,1480785069671,,,,,,,,0.01,0.12,0.99,-3.3,-0.2,0.3,1400,0,,,,,,,,,,,,,,,,,,,
76113,1480785069691,,,,,,,,0.01,0.11,1.0,-3.3,-0.1,0.3,1480,0,,,,,,,,,,,,,,,,,,,
76133,1480785069711,,,,,,,,0.01,0.1,1.02,-3.2,0.2,0.3,1560,0,,,,,,,,,,,,,,,,,,,
76153,1480785069731,,,,,56,,,0.01,0.09,1.0,-3.2,0.0,0.4,1660,0,1,0,0.0,0,38.159229,-122.454353,0.0,0.0,38.7,10,3,1.9,0,0.0,-1,0.0,,0.0,0
76173,1480785069751,,,,,,,,-0.01,0.13,0.97,-3.2,-0.1,0.5,1760,0,,,,,,,,,,,,,,,,,,,
76193,1480785069771,,,,,,,,0.0,0.12,0.98,-3.3,0.0,0.3,1840,0,,,,,,,,,,,,,,,,,,,
76213,1480785069791,,,,,,,,0.01,0.12,0.96,-3.2,0.0,0.3,1960,0,,,,,,,,,,,,,,,,,,,
76233,1480785069811,,,,,,,,-0.0,0.12,0.94,-3.2,-0.1,0.3,2080,0,,,,,,,,,,,,,,,,,,,
76253,1480785069831,0,125.6,,156.9,59,151.2,,-0.01,0.11,0.95,-3.2,-0.2,0.3,2180,0,1,0,0.0,0,38.159229,-122.454353,0.0,0.0,38.7,10,3,1.9,0,0.0,-1,0.0,0.0,0.0,0
76273,1480785069851,,,,,,,,-0.0,0.12,0.95,-3.3,-0.8,0.4,2280,0,,,,,,,,,,,,,,,,,,,
76293,1480785069871,,,,,,,,0.01,0.13,0.93,-3.2,-0.8,0.5,2380,0,,,,,,,,,,,,,,,,,,,
76313,1480785069891,,,,,,,,0.01,0.12,0.95,-3.3,-0.2,0.4,2520,0,,,,,,,,,,,,,,,,,,,
76333,1480785069904,,,,,,,,0.02,0.14,0.96,-3.3,-0.9,0.4,2700,0,,,,,,,,,,,,,,,,,,,
76353,1480785069924,,,,,73,,,0.02,0.11,1.01,-3.2,-0.2,0.2,2760,0,1,0,0.0,0,38.159229,-122.454353,0.0,0.0,38.7,10,3,1.9,0,0.0,-1,0.0,,0.0,0
76373,1480785069944,,,,,,,,0.02,0.11,1.04,-3.1,0.3,0.1,2900,0,,,,,,,,,,,,,,,,,,,
76393,1480785069964,,,,,,,,0.02,0.13,1.04,-3.1,0.1,0.1,3020,0,,,,,,,,,,,,,,,,,,,
76413,1480785069984,,,,,,,,0.02,0.14,1.04,-3.1,0.3,0.1,3100,0,,,,,,,,,,,,,,,,,,,
76433,1480785070109,,,,,,,,0.03,0.13,1.08,-3.1,0.4,-0.0,3300,0,,,,,,,,,,,,,,,,,,,
76453,1480785070129,0,125.6,,156.5,57,151.4,,0.04,0.06,1.11,-3.1,0.5,-0.1,3380,0,1,0,0.0,0,38.159229,-122.454353,0.0,0.0,38.7,10,3,1.9,0,0.0,-1,0.0,0.0,0.0,0
76473,1480785070149,,,,,,,,0.03,0.08,1.05,-3.0,0.5,0.1,3540,0,,,,,,,,,,,,,,,,,,,
76493,1480785070169,,,,,,,,0.03,0.1,1.05,-3.2,1.0,0.2,3660,0,,,,,,,,,,,,,,,,,,,
76513,1480785070189,,,,,,,,0.02,0.1,0.98,-3.2,1.1,0.3,3800,0,,,,,,,,,,,,,,,,,,,
76533,1480785070209,,,,,,,,0.01,0.12,0.97,-3.0,0.8,-0.0,3900,0,,,,,,,,,,,,,,,,,,,
76553,1480785070229,,,,,77,,,0.02,0.11,1.01,-3.1,0.2,0.0,4020,0,1,0,0.0,0,38.159229,-122.454353,0.0,0.0,38.7,10,3,1.9,0,0.0,-1,0.0,,0.0,0
76573,1480785070249,,,,,,,,0.04,0.06,0.98,-3.2,0.5,0.2,4040,0,,,,,,,,,,,,,,,,,,,
76593,1480785070269,,,,,,,,0.02,-0.0,1.03,-3.1,-0.2,-0.1,4120,0,,,,,,,,,,,,,,,,,,,
76613,1480785070289,,,,,,,,0.03,-0.02,1.06,-3.1,-0.7,0.0,4320,0,,,,,,,,,,,,,,,,,,,
76633,1480785070210,,,,,,,,0.03,0.01,0.99,-3.0,-0.7,-0.0,4300,12,,,,,,,,,,,,,,,,,,,
76653,1480785070230,0,125.6,,157.1,55,151.4,,0.02,0.07,0.98,-3.0,-0.7,-0.0,4160,769230,1,0,0.0,0,38.159229,-122.454353,0.0,0.0,38.7,10,3,1.9,0,0.0,-1,0.0,0.0,0.0,0
76673,1480785070250,,,,,,,,0.05,0.11,1.0,-3.1,-0.3,0.2,4180,0,,,,,,,,,,,,,,,,,,,
76693,1480785070270,,,,,,,,0.05,0.07,1.01,-3.0,-0.4,-0.1,4120,0,,,,,,,,,,,,,,,,,,,
76713,1480785070291,,,,,,,,0.04,0.08,1.02,-3.1,-0.1,0.2,4020,0,,,,,,,,,,,,,,,,,,,
76733,1480785070311,,,,,,,,0.04,0.07,1.07,-3.1,0.9,0.3,3900,0,,,,,,,,,,,,,,,,,,,
76753,1480785070331,,,,,72,,,0.03,0.06,1.05,-2.9,0.8,0.1,3900,0,1,0,0.0,0,38.159229,-122.454353,0.0,0.0,38.7,10,3,1.9,0,0.0,-1,0.0,,0.0,0
76773,1480785070351,,,,,,,,0.03,0.1,1.04,-3.0,1.0,0.2,3880,0,,,,,,,,,,,,,,,,,,,
76793,1480785070371,,,,,,,,0.05,0.11,1.03,-3.0,1.2,0.3,3740,0,,,,,,,,,,,,,,,,,,,
76813,1480785070391,,,,,,,,0.04,0.1,1.03,-3.0,1.1,0.2,3720,0,,,,,,,,,,,,,,,,,,,
76833,1480785070411,,,,,,,,0.04,0.11,1.07,-3.0,1.0,0.0,3720,0,,,,,,,,,,,,,,,,,,,
76853,1480785070431,0,125.6,,156.7,68,151.0,,0.04,0.13,1.05,-3.0,0.8,0.1,3640,0,1,0,0.0,0,38.159229,-122.454353,0.0,0.0,38.7,10,3,1.9,0,0.0,-1,0.0,0.0,0.0,0
76873,1480785070451,,,,,,,,0.04,0.16,1.02,-3.1,0.8,0.3,3640,0,,,,,,,,,,,,,,,,,,,
76893,1480785070471,,,,,,,,0.02,0.13,1.01,-3.0,1.1,0.2,3500,0,,,,,,,,,,,,,,,,,,,
76913,1480785070491,,,,,,,,0.01,0.12,1.03,-3.0,0.9,0.1,3460,0,,,,,,,,,,,,,,,,,,,
76933,1480785070510,,,,,,,,0.02,0.12,1.06,-3.0,0.8,0.0,3480,0,,,,,,,,,,,,,,,,,,,
76953,1480785070530,,,,,63,,,0.02,0.13,1.02,-3.0,0.5,0.1,3400,0,1,0,0.0,0,38.159229,-122.454353,0.0,0.0,38.7,10,3,1.9,0,0.0,-1,0.0,,0.0,0
76973,1480785070550,,,,,,,,0.02,0.13,1.05,-3.0,0.8,0.1,3340,0,,,,,,,,,,,,,,,,,,,
76993,1480785070570,,,,,,,,0.02,0.12,1.01,-3.1,0.8,0.2,3300,0,,,,,,,,,,,,,,,,,,,
77013,1480785070590,,,,,,,,0.02,0.11,1.02,-3.1,0.8,0.2,3240,0,,,,,,,,,,,,,,,,,,,
77033,1480785070610,,,,,,,,0.02,0.1,1.01,-3.0,0.9,0.2,3220,0,,,,,,,,,,,,,,,,,,,
77053,1480785070630,0,126.0,7.3,157.3,79,151.4,14.71,0.01,0.09,1.0,-3.0,0.8,0.2,3140,0,1,0,0.0,0,38.159229,-122.454353,0.0,0.0,38.7,10,3,1.9,0,0.0,-1,0.0,0.0,0.0,0
77073,1480785070650,,,,,,,,0.01,0.11,0.98,-3.1,0.5,0.3,3140,0,,,,,,,,,,,,,,,,,,,
77093,1480785070670,,,,,,,,0.01,0.11,0.99,-3.1,0.4,0.3,3040,0,,,,,,,,,,,,,,,,,,,
77113,1480785070691,,,,,,,,0.01,0.11,1.02,-3.1,0.5,0.3,2520,0,,,,,,,,,,,,,,,,,,,
77133,1480785070711,,,,,,,,0.01,0.11,1.03,-3.1,0.6,0.4,2980,0,,,,,,,,,,,,,,,,,,,
77153,1480785070731,,,,,65,,,0.02,0.1,1.05,-3.1,0.7,0.4,2940,0,1,0,0.0,0,38.159229,-122.454353,0.0,0.0,38.7,10,3,1.9,0,0.0,-1,0.0,,0.0,0
77173,1480785070751,,,,,,,,0.02,0.1,1.07,-3.1,0.7,0.4,2880,0,,,,,,,,,,,,,,,,,,,
77193,1480785070771,,,,,,,,0.02,0.08,1.08,-3.1,0.9,0.4,2880,0,,,,,,,,,,,,,,,,,,,
77213,1480785070791,,,,,,,,0.02,0.08,1.07,-3.0,1.1,0.4,2880,0,,,,,,,,,,,,,,,,,,,
77233,1480785070910,,,,,,,,0.02,0.09,1.06,-3.0,1.3,0.4,2800,0,,,,,,,,,,,,,,,,,,,
77253,1480785070930,0,124.9,,157.0,77,151.0,,0.02,0.1,1.05,-3.0,1.3,0.5,2780,0,1,0,0.0,0,38.159229,-122.454353,0.0,0.0,38.7,10,3,1.9,0,0.0,-1,0.0,0.0,0.0,0
77273,1480785070950,,,,,,,,0.02,0.09,1.04,-3.1,0.9,0.5,2660,0,,,,,,,,,,,,,,,,,,,
77293,1480785070970,,,,,,,,0.02,0.08,1.05,-3.1,0.8,0.5,2660,0,,,,,,,,,,,,,,,,,,,
77313,1480785070990,,,,,,,,0.03,0.09,1.05,-3.1,1.2,0.5,2660,0,,,,,,,,,,,,,,,,,,,
77333,1480785071010,,,,,,,,0.03,0.11,1.03,-3.0,0.7,0.5,2580,0,,,,,,,,,,,,,,,,,,,
77353,1480785071030,,,,,77,,,0.02,0.09,1.05,-3.1,0.9,0.4,2540,0,1,0,0.0,0,38.159229,-122.454353,0.0,0.0,38.7,10,3,1.9,0,0.0,-1,0.0,,0.0,0
77373,1480785071050,,,,,,,,0.02,0.11,1.04,-3.0,0.9,0.4,2460,0,,,,,,,,,,,,,,,,,,,
77393,1480785071070,,,,,,,,0.01,0.09,1.04,-3.1,0.7,0.3,2440,0,,,,,,,,,,,,,,,,,,,
77413,1480785070991,,,,,,,,0.03,0.09,1.03,-3.0,0.8,0.4,2360,0,,,,,,,,,,,,,,,,,,,
77433,1480785071011,,,,,,,,0.02,0.1,1.03,-3.1,0.8,0.4,2340,0,,,,,,,,,,,,,,,,,,,
77453,1480785071031,1,125.4,,156.1,75,150.4,,0.02,0.11,1.03,-3.1,0.6,0.4,2320,0,1,0,0.0,0,38.159229,-122.454353,0.0,0.0,38.7,10,3,1.9,0,0.0,-1,0.0,0.0,0.0,0
77473,1480785071051,,,,,,,,0.02,0.1,1.02,-3.1,0.8,0.3,2240,0,,,,,,,,,,,,,,,,,,,
77493,1480785071071,,,,,,,,0.02,0.11,1.02,-3.1,0.8,0.2,2240,0,,,,,,,,,,,,,,,,,,,
77513,1480785071091,,,,,,,,0.02,0.11,1.01,-3.1,0.5,0.3,2180,0,,,,,,,,,,,,,,,,,,,
77533,1480785071111,,,,,,,,0.02,0.11,1.01,-3.1,0.6,0.3,2160,0,,,,,,,,,,,,,,,,,,,
77553,1480785071131,,,,,53,,,0.02,0.11,1.01,-3.1,0.7,0.3,2140,0,1,0,0.0,0,38.159229,-122.454353,0.0,0.0,38.7,10,3,1.9,0,0.0,-1,0.0,,0.0,0
77573,1480785071151,,,,,,,,0.02,0.1,1.02,-3.1,0.8,0.3,2040,0,,,,,,,,,,,,,,,,,,,
77593,1480785071171,,,,,,,,0.02,0.11,1.02,-3.1,0.7,0.3,2000,0,,,,,,,,,,,,,,,,,,,
77613,1480785071191,,,,,,,,0.01,0.1,1.02,-3.1,0.6,0.3,1960,0,,,,,,,,,,,,,,,,,,,
77633,1480785071211,,,,,,,,0.01,0.1,1.01,-3.1,0.4,0.3,1980,0,,,,,,,,,,,,,,,,,,,
77653,1480785071231,1,124.7,,156.8,71,150.8,,0.01,0.1,1.01,-3.2,0.2,0.3,1900,0,1,0,0.0,0,38.159229,-122.454353,0.0,0.0,38.7,10,3,1.9,0,0.0,-1,0.0,0.0,0.0,0
77673,1480785071251,,,,,,,,0.01,0.1,1.01,-3.2,0.1,0.3,1860,0,,,,,,,,,,,,,,,,,,,
77693,1480785071271,,,,,,,,0.0,0.1,1.01,-3.2,-0.0,0.4,1840,0,,,,,,,,,,,,,,,,,,,
77713,1480785071291,,,,,,,,0.0,0.1,1.01,-3.2,0.0,0.4,1820,0,,,,,,,,,,,,,,,,,,,
77733,1480785071311,,,,,,,,0.0,0.11,1.02,-3.2,0.1,0.4,1760,0,,,,,,,,,,,,,,,,,,,
77753,1480785071331,,,,,64,,,0.01,0.1,1.01,-3.2,0.2,0.3,1740,0,1,0,0.0,0,38.159229,-122.454353,0.0,0.0,38.7,10,3,1.9,0,0.0,-1,0.0,,0.0,0
77773,1480785071351,,,,,,,,0.02,0.1,1.02,-3.2,0.1,0.3,1740,0,,,,,,,,,,,,,,,,,,,
77793,1480785071371,,,,,,,,0.02,0.11,1.01,-3.2,0.0,0.3,1660,0,,,,,,,,,,,,,,,,,,,
77813,1480785071391,,,,,,,,0.01,0.1,1.01,-3.1,0.0,0.3,1620,0,,,,,,,,,,,,,,,,,,,
77833,1480785071411,,,,,,,,0.01,0.1,1.01,-3.1,0.1,0.3,1620,0,,,,,,,,,,,,,,,,,,,
77853,1480785071431,0,125.9,,157.6,54,151.4,,0.01,0.1,1.01,-3.1,0.2,0.3,1580,0,1,0,0.0,0,38.159229,-122.454353,0.0,0.0,38.7,10,3,1.9,0,0.0,-1,0.0,0.0,0.0,0
77873,1480785071451,,,,,,,,0.01,0.11,1.01,-3.1,0.4,0.3,1560,0,,,,,,,,,,,,,,,,,,,
77893,1480785071471,,,,,,,,0.01,0.1,1.01,-3.1,0.2,0.3,1560,0,,,,,,,,,,,,,,,,,,,
77913,1480785071491,,,,,,,,0.01,0.1,1.01,-3.1,0.2,0.3,1540,0,,,,,,,,,,,,,,,,,,,
77933,1480785071511,,,,,,,,0.01,0.11,1.0,-3.1,0.2,0.3,1580,0,,,,,,,,,,,,,,,,,,,
77953,1480785071531,,,,,64,,,0.0,0.11,1.01,-3.2,0.2,0.3,1660,0,1,0,0.0,0,38.159229,-122.454353,0.0,0.0,38.7,10,3,1.9,0,0.0,-1,0.0,,0.0,0
77973,1480785071551,,,,,,,,0.01,0.11,1.01,-3.2,0.4,0.3,1740,0,,,,,,,,,,,,,,,,,,,
77993,1480785071571,,,,,,,,0.01,0.11,1.01,-3.2,0.4,0.2,1780,0,,,,,,,,,,,,,,,,,,,
78013,1480785071591,,,,,,,,0.01,0.09,1.01,-3.2,0.3,0.2,1860,0,,,,,,,,,,,,,,,,,,,
78033,1480785071710,,,,,,,,-0.0,0.09,1.02,-3.2,0.4,0.2,1960,0,,,,,,,,,,,,,,,,,,,
78053,1480785071730,0,125.1,6.6,157.3,68,150.8,14.7,0.0,0.1,1.03,-3.2,0.5,0.3,2020,0,1,0,0.0,0,38.159229,-122.454353,0.0,0.0,38.7,10,3,1.9,0,0.0,-1,0.0,0.0,0.0,0
78073,1480785071750,,,,,,,,0.0,0.11,1.01,-3.2,0.5,0.3,2060,0,,,,,,,,,,,,,,,,,,,
78093,1480785071770,,,,,,,,0.0,0.11,1.01,-3.2,0.6,0.2,2200,0,,,,,,,,,,,,,,,,,,,
78113,1480785071790,,,,,,,,-0.0,0.11,1.03,-3.3,0.8,0.1,2240,0,,,,,,,,,,,,,,,,,,,
78133,1480785071810,,,,,,,,-0.0,0.11,1.03,-3.3,0.4,0.1,2340,0,,,,,,,,,,,,,,,,,,,
78153,1480785071830,,,,,77,,,0.01,0.11,1.02,-3.2,0.1,0.3,2400,0,1,0,0.0,0,38.159229,-122.454353,0.0,0.0,38.7,10,3,1.9,0,0.0,-1,0.0,,0.0,0
78173,1480785071850,,,,,,,,0.01,0.09,1.05,-3.2,0.4,0.2,2440,0,,,,,,,,,,,,,,,,,,,
78193,1480785071870,,,,,,,,0.0,0.1,1.05,-3.2,-0.2,0.2,2600,0,,,,,,,,,,,,,,,,,,,
78213,1480785071791,,,,,,,,0.0,0.11,1.05,-3.1,0.2,0.1,2640,0,,,,,,,,,,,,,,,,,,,
78233,1480785071811,,,,,,,,0.0,0.13,1.04,-3.1,-0.1,0.0,2740,0,,,,,,,,,,,,,,,,,,,
78253,1480785071831,0,125.7,,157.7,64,151.4,,-0.01,0.12,1.05,-3.1,-0.1,0.0,2760,0,1,0,0.0,0,38.159229,-122.454353,0.0,0.0,38.7,10,3,1.9,0,0.0,-1,0.0,0.0,0.0,0
78273,1480785071851,,,,,,,,-0.01,0.1,1.05,-3.1,0.2,0.1,2900,0,,,,,,,,,,,,,,,,,,,
78293,1480785071871,,,,,,,,0.01,0.11,1.03,-3.1,0.6,0.2,2880,0,,,,,,,,,,,,,,,,,,,
78313,1480785071891,,,,,,,,0.01,0.12,1.03,-3.1,0.7,0.2,2940,0,,,,,,,,,,,,,,,,,,,
78333,1480785071905,,,,,,,,0.0,0.14,1.02,-3.1,0.7,0.3,3020,0,,,,,,,,,,,,,,,,,,,
78353,1480785071925,,,,,65,,,0.0,0.14,1.03,-3.2,0.6,0.3,3120,0,1,0,0.0,0,38.159229,-122.454353,0.0,0.0,38.7,10,3,1.9,0,0.0,-1,0.0,,0.0,0
78373,1480785071945,,,,,,,,-0.0,0.15,1.0,-3.3,0.6,0.3,3140,0,,,,,,,,,,,,,,,,,,,
78393,1480785071965,,,,,,,,-0.01,0.14,1.01,-3.3,0.8,0.3,3200,0,,,,,,,,,,,,,,,,,,,
78413,1480785071991,,,,,,,,0.01,0.1,1.06,-3.3,1.0,0.3,3200,0,,,,,,,,,,,,,,,,,,,
78433,1480785072011,,,,,,,,0.02,0.09,1.06,-3.2,0.8,0.5,3300,0,,,,,,,,,,,,,,,,,,,
78453,1480785072031,0,125.2,,157.3,71,150.9,,0.02,0.13,1.03,-3.2,0.2,0.5,3320,0,1,0,0.0,0,38.159229,-122.454353,0.0,0.0,38.7,10,3,1.9,0,0.0,-1,0.0,0.0,0.0,0
78473,1480785072051,,,,,,,,0.02,0.11,1.05,-3.2,0.2,0.3,3380,0,,,,,,,,,,,,,,,,,,,
78493,1480785072071,,,,,,,,0.03,0.09,1.1,-3.2,0.4,0.3,3500,0,,,,,,,,,,,,,,,,,,,
78513,1480785072091,,,,,,,,0.03,0.14,1.07,-3.2,0.5,0.4,3440,0,,,,,,,,,,,,,,,,,,,
78533,1480785072111,,,,,,,,0.03,0.1,1.08,-3.2,0.7,0.3,3520,0,,,,,,,,,,,,,,,,,,,
78553,1480785072131,,,,,71,,,0.01,0.11,1.02,-3.3,0.5,0.4,3540,0,1,0,0.0,0,38.159229,-122.454353,0.0,0.0,38.7,10,3,1.9,0,0.0,-1,0.0,,0.0,0
78573,1480785072151,,,,,,,,0.02,0.09,1.04,-3.2,0.6,0.3,3560,0,,,,,,,,,,,,,,,,,,,
78593,1480785072171,,,,,,,,0.01,0.13,1.01,-3.3,0.3,0.3,3620,0,,,,,,,,,,,,,,,,,,,
78613,1480785072191,,,,,,,,0.01,0.12,1.0,-3.2,0.2,0.3,3660,0,,,,,,,,,,,,,,,,,,,
78633,1480785072210,,,,,,,,0.02,0.12,1.03,-3.3,0.4,0.4,3700,0,,,,,,,,,,,,,,,,,,,
78653,1480785072230,0,124.8,,157.0,69,150.5,,0.0,0.11,0.98,-3.3,0.3,0.4,3680,0,1,0,0.0,0,38.159229,-122.454353,0.0,0.0,38.7,10,3,1.9,0,0.0,-1,0.0,0.0,0.0,0
78673,1480785072250,,,,,,,,0.01,0.12,0.99,-3.2,0.1,0.2,3720,0,,,,,,,,,,,,,,,,,,,
78693,1480785072270,,,,,,,,0.02,0.13,1.04,-3.2,0.2,0.2,3820,0,,,,,,,,,,,,,,,,,,,
78713,1480785072290,,,,,,,,0.04,0.15,1.04,-3.4,0.5,0.4,3780,0,,,,,,,,,,,,,,,,,,,
78733,1480785072304,,,,,,,,0.02,0.14,1.01,-3.3,0.6,0.3,3900,0,,,,,,,,,,,,,,,,,,,
78753,1480785072324,,,,,73,,,0.02,0.13,1.01,-3.2,0.2,0.1,3800,0,1,0,0.0,0,38.159229,-122.454353,0.0,0.0,38.7,10,3,1.9,0,0.0,-1,0.0,,0.0,0
78773,1480785072344,,,,,,,,0.02,0.13,1.05,-3.3,0.1,0.3,3900,0,,,,,,,,,,,,,,,,,,,
78793,1480785072364,,,,,,,,0.03,0.09,1.03,-3.3,0.3,0.4,3820,0,,,,,,,,,,,,,,,,,,,
78813,1480785072384,,,,,,,,0.01,0.07,1.07,-3.2,0.1,0.3,3860,0,,,,,,,,,,,,,,,,,,,
78833,1480785072510,,,,,,,,0.02,0.09,1.07,-3.3,-0.3,0.3,3960,0,,,,,,,,,,,,,,,,,,,
78853,1480785072530,0,125.0,,156.9,50,150.9,,0.03,0.12,1.08,-3.3,-0.1,0.5,3900,0,1,0,0.0,0,38.159229,-122.454353,0.0,0.0,38.7,10,3,1.9,0,0.0,-1,0.0,0.0,0.0,0
78873,1480785072550,,,,,,,,0.02,0.12,1.11,-3.4,-0.6,0.2,3920,0,,,,,,,,,,,,,,,,,,,
78893,1480785072570,,,,,,,,0.02,0.16,1.1,-3.5,-0.9,0.2,4020,0,,,,,,,,,,,,,,,,,,,
78913,1480785072590,,,,,,,,0.04,0.14,1.11,-3.6,-0.5,0.5,4080,0,,,,,,,,,,,,,,,,,,,
78933,1480785072610,,,,,,,,0.03,0.11,1.15,-3.6,-1.0,0.2,4100,0,,,,,,,,,,,,,,,,,,,
78953,1480785072630,,,,,82,,,0.04,0.12,1.14,-3.7,-1.3,0.4,4060,0,1,0,0.0,0,38.159229,-122.454353,0.0,0.0,38.7,10,3,1.9,0,0.0,-1,0.0,,0.0,0
78973,1480785072650,,,,,,,,0.05,0.1,1.16,-3.8,-0.9,0.6,4000,0,,,,,,,,,,,,,,,,,,,
78993,1480785072670,,,,,,,,0.03,0.06,1.19,-3.7,-1.2,0.2,4100,0,,,,,,,,,,,,,,,,,,,
79013,1480785072591,,,,,,,,0.03,0.06,1.22,-3.7,-1.3,0.3,4100,0,,,,,,,,,,,,,,,,,,,
79033,1480785072611,,,,,,,,0.04,0.02,1.18,-3.5,-0.9,0.4,4060,0,,,,,,,,,,,,,,,,,,,
79053,1480785072631,0,126.4,6.9,157.9,56,150.6,14.67,0.0,0.07,1.12,-3.3,-0.9,0.2,4140,0,1,0,0.0,0,38.159229,-122.454353,0.0,0.0,38.7,10,3,1.9,0,0.0,-1,0.0,0.0,0.0,0
79073,1480785072651,,,,,,,,0.01,0.12,1.05,-3.2,-0.8,0.4,4060,0,,,,,,,,,,,,,,,,,,,
79093,1480785072671,,,,,,,,-0.0,0.13,1.03,-3.2,-0.8,0.2,4140,0,,,,,,,,,,,,,,,,,,,
79113,1480785072691,,,,,,,,0.02,0.17,1.04,-3.2,-1.0,0.2,4080,0,,,,,,,,,,,,,,,,,,,
79133,1480785072710,,,,,,,,0.06,0.15,1.08,-3.4,-0.5,0.5,4160,0,,,,,,,,,,,,,,,,,,,
79153,1480785072730,,,,,65,,,0.06,0.1,1.09,-3.3,-0.7,0.2,4120,0,1,0,0.0,0,38.159229,-122.454353,0.0,0.0,38.7,10,3,1.9,0,0.0,-1,0.0,,0.0,0
79173,1480785072750,,,,,,,,0.05,0.09,1.07,-3.4,-0.4,0.4,4120,0,,,,,,,,,,,,,,,,,,,
79193,1480785072770,,,,,,,,0.03,0.08,1.02,-3.2,0.3,0.4,4100,0,,,,,,,,,,,,,,,,,,,
79213,1480785072790,,,,,,,,-0.0,0.14,1.0,-3.1,0.4,0.1,4240,0,,,,,,,,,,,,,,,,,,,
79233,1480785072810,,,,,,,,0.01,0.17,1.02,-3.2,0.6,0.4,4160,0,,,,,,,,,,,,,,,,,,,
79253,1480785072830,0,125.6,,156.9,76,150.4,,0.01,0.08,1.07,-3.2,0.2,0.1,4120,0,1,0,0.0,0,38.159229,-122.454353,0.0,0.0,38.7,10,3,1.9,0,0.0,-1,0.0,0.0,0.0,0
79273,1480785072850,,,,,,,,0.02,0.07,1.12,-3.4,-0.2,0.3,4180,0,,,,,,,,,,,,,,,,,,,
79293,1480785072870,,,,,,,,0.03,0.04,1.09,-3.4,-0.1,0.3,4140,0,,,,,,,,,,,,,,,,,,,
79313,1480785072890,,,,,,,,-0.0,0.12,1.03,-3.1,-0.1,0.1,4200,0,,,,,,,,,,,,,,,,,,,
79333,1480785072904,,,,,,,,0.02,0.17,0.95,-3.2,0.2,0.5,4140,0,,,,,,,,,,,,,,,,,,,
79353,1480785072924,,,,,84,,,0.03,0.13,0.97,-3.1,-0.0,0.2,4160,0,1,0,0.0,0,38.159229,-122.454353,0.0,0.0,38.7,10,3,1.9,0,0.0,-1,0.0,,0.0,0
79373,1480785072944,,,,,,,,0.03,0.1,1.03,-3.3,-0.1,0.3,4180,0,,,,,,,,,,,,,,,,,,,
79393,1480785072964,,,,,,,,0.03,0.06,1.04,-3.2,0.6,0.4,4160,0,,,,,,,,,,,,,,,,,,,
79413,1480785072991,,,,,,,,-0.01,0.1,1.02,-3.0,0.8,0.1,4140,0,,,,,,,,,,,,,,,,,,,
79433,1480785073011,,,,,,,,-0.0,0.16,0.99,-3.0,1.1,0.4,4160,0,,,,,,,,,,,,,,,,,,,
79453,1480785073031,0,126.5,,157.9,67,150.7,,0.01,0.11,1.03,-3.0,0.6,0.1,4160,0,1,0,0.0,0,38.159229,-122.454353,0.0,0.0,38.7,10,3,1.9,0,0.0,-1,0.0,0.0,0.0,0
79473,1480785073051,,,,,,,,0.02,0.09,1.08,-3.2,0.1,0.3,4220,0,,,,,,,,,,,,,,,,,,,
79493,1480785073071,,,,,,,,0.03,0.03,1.07,-3.3,0.3,0.4,4140,0,,,,,,,,,,,,,,,,,,,
79513,1480785073091,,,,,,,,-0.0,0.1,1.02,-3.1,0.2,0.1,4220,0,,,,,,,,,,,,,,,,,,,
79533,1480785073111,,,,,,,,0.01,0.16,0.93,-3.1,0.5,0.5,4160,0,,,,,,,,,,,,,,,,,,,
79553,1480785073131,,,,,70,,,0.02,0.14,0.95,-3.1,0.3,0.2,4220,0,1,0,0.0,0,38.159229,-122.454353,0.0,0.0,38.7,10,3,1.9,0,0.0,-1,0.0,,0.0,0
79573,1480785073151,,,,,,,,0.03,0.11,1.02,-3.2,0.1,0.3,4240,0,,,,,,,,,,,,,,,,,,,
79593,1480785073171,,,,,,,,0.03,0.05,1.04,-3.2,0.6,0.3,4160,0,,,,,,,,,,,,,,,,,,,
79613,1480785073191,,,,,,,,-0.01,0.09,1.03,-3.0,0.8,-0.0,4220,0,,,,,,,,,,,,,,,,,,,
79633,1480785073310,,,,,,,,-0.0,0.16,0.99,-3.0,1.1,0.3,4260,0,,,,,,,,,,,,,,,,,,,
79653,1480785073330,0,126.5,,158.0,68,151.3,,0.01,0.12,1.03,-3.0,0.7,0.1,4220,0,1,0,0.0,0,38.159229,-122.454353,0.0,0.0,38.7,10,3,1.9,0,0.0,-1,0.0,0.0,0.0,0
79673,1480785073350,,,,,,,,0.02,0.09,1.09,-3.2,0.0,0.2,4220,0,,,,,,,,,,,,,,,,,,,
79693,1480785073370,,,,,,,,0.03,0.04,1.07,-3.3,0.2,0.4,4100,0,,,,,,,,,,,,,,,,,,,
79713,1480785073390,,,,,,,,-0.0,0.09,1.02,-3.1,0.1,0.1,4200,0,,,,,,,,,,,,,,,,,,,
79733,1480785073410,,,,,,,,0.01,0.17,0.93,-3.1,0.4,0.5,4220,0,,,,,,,,,,,,,,,,,,,
79753,1480785073430,,,,,78,,,0.01,0.14,0.94,-3.1,0.2,0.2,4200,0,1,0,0.0,0,38.159229,-122.454353,0.0,0.0,38.7,10,3,1.9,0,0.0,-1,0.0,,0.0,0
79773,1480785073450,,,,,,,,0.03,0.12,1.0,-3.2,-0.0,0.3,4140,0,,,,,,,,,,,,,,,,,,,
79793,1480785073470,,,,,,,,0.03,0.05,1.03,-3.2,0.5,0.4,4220,0,,,,,,,,,,,,,,,,,,,
79813,1480785073391,,,,,,,,-0.01,0.1,1.03,-3.0,0.6,0.1,4260,0,,,,,,,,,,,,,,,,,,,
79833,1480785073411,,,,,,,,-0.0,0.15,0.97,-3.0,1.0,0.4,4120,0,,,,,,,,,,,,,,,,,,,
79853,1480785073431,0,126.3,,157.9,83,151.4,,-0.0,0.13,0.99,-2.9,0.9,0.2,4200,0,1,0,0.0,0,38.159229,-122.454353,0.0,0.0,38.7,10,3,1.9,0,0.0,-1,0.0,0.0,0.0,0
79873,1480785073451,,,,,,,,0.02,0.11,1.04,-3.1,0.4,0.2,4220,0,,,,,,,,,,,,,,,,,,,
79893,1480785073471,,,,,,,,0.03,0.05,1.06,-3.2,0.6,0.4,4100,0,,,,,,,,,,,,,,,,,,,
79913,1480785073491,,,,,,,,-0.01,0.06,1.03,-3.1,0.2,0.1,4120,0,,,,,,,,,,,,,,,,,,,
79933,1480785073511,,,,,,,,-0.01,0.07,1.05,-3.2,0.3,0.3,4160,0,,,,,,,,,,,,,,,,,,,
79953,1480785073531,,,,,71,,,-0.02,0.08,1.0,-3.0,0.3,0.2,4100,0,1,0,0.0,0,38.159229,-122.454353,0.0,0.0,38.7,10,3,1.9,0,0.0,-1,0.0,,0.0,0
79973,1480785073551,,,,,,,,-0.01,0.15,0.98,-3.0,-0.1,0.1,4160,0,,,,,,,,,,,,,,,,,,,
79993,1480785073571,,,,,,,,0.03,0.17,0.97,-3.1,0.2,0.4,4180,0,,,,,,,,,,,,,,,,,,,
80013,1480785073591,,,,,,,,0.04,0.11,1.0,-3.1,-0.0,0.1,4160,0,,,,,,,,,,,,,,,,,,,
80033,1480785073611,,,,,,,,0.03,0.1,1.03,-3.2,0.2,0.3,4160,0,,,,,,,,,,,,,,,,,,,
80053,1480785073631,0,125.1,7.5,156.9,65,150.9,14.65,0.02,0.06,1.02,-3.1,0.8,0.3,4140,0,1,0,0.0,0,38.159229,-122.454353,0.0,0.0,38.7,10,3,1.9,0,0.0,-1,0.0,0.0,0.0,0
80073,1480785073651,,,,,,,,-0.02,0.1,1.0,-2.8,0.9,-0.0,4140,0,,,,,,,,,,,,,,,,,,,
80093,1480785073671,,,,,,,,-0.0,0.13,0.96,-2.8,1.0,0.2,4100,0,,,,,,,,,,,,,,,,,,,
80113,1480785073691,,,,,,,,0.0,0.11,0.98,-2.9,0.6,0.0,4160,0,,,,,,,,,,,,,,,,,,,
80133,1480785073711,,,,,,,,0.02,0.11,1.0,-3.1,-0.0,0.2,4180,0,,,,,,,,,,,,,,,,,,,
80153,1480785073731,,,,,72,,,0.03,0.07,1.05,-3.2,0.4,0.3,4100,0,1,0,0.0,0,38.159229,-122.454353,0.0,0.0,38.7,10,3,1.9,0,0.0,-1,0.0,,0.0,0
80173,1480785073751,,,,,,,,0.01,0.05,1.06,-3.0,0.3,0.0,4040,0,,,,,,,,,,,,,,,,,,,
80193,1480785073771,,,,,,,,-0.01,0.07,1.07,-3.0,0.3,0.2,3960,0,,,,,,,,,,,,,,,,,,,
80213,1480785073791,,,,,,,,-0.01,0.06,1.07,-3.0,0.9,0.3,3960,0,,,,,,,,,,,,,,,,,,,
80233,1480785073811,,,,,,,,-0.03,0.07,1.02,-2.9,0.7,0.2,3820,0,,,,,,,,,,,,,,,,,,,
80253,1480785073831,0,126.3,,157.0,74,150.3,,-0.03,0.09,1.0,-2.9,0.3,0.3,3780,0,1,0,0.0,0,38.159229,-122.454353,0.0,0.0,38.7,10,3,1.9,0,0.0,-1,0.0,0.0,0.0,0
80273,1480785073851,,,,,,,,-0.02,0.11,1.0,-3.0,0.4,0.5,3800,0,,,,,,,,,,,,,,,,,,,
80293,1480785073871,,,,,,,,-0.02,0.1,1.03,-3.1,0.1,0.4,3700,0,,,,,,,,,,,,,,,,,,,
80313,1480785073891,,,,,,,,-0.03,0.11,1.04,-3.1,0.2,0.2,3780,0,,,,,,,,,,,,,,,,,,,
80333,1480785073905,,,,,,,,-0.02,0.12,1.05,-3.1,0.3,0.4,3640,0,,,,,,,,,,,,,,,,,,,
80353,1480785073925,,,,,76,,,-0.01,0.14,0.99,-3.2,0.5,0.5,3540,0,1,0,0.0,0,38.159229,-122.454353,0.0,0.0,38.7,10,3,1.9,0,0.0,-1,0.0,,0.0,0
80373,1480785073945,,,,,,,,-0.02,0.11,1.01,-3.1,0.8,0.5,3500,0,,,,,,,,,,,,,,,,,,,
80393,1480785073965,,,,,,,,-0.01,0.1,1.01,-3.1,0.3,0.5,3540,0,,,,,,,,,,,,,,,,,,,
80413,1480785073991,,,,,,,,-0.01,0.11,1.01,-3.0,0.3,0.4,3500,0,,,,,,,,,,,,,,,,,,,
80433,1480785074110,,,,,,,,-0.01,0.12,0.98,-3.0,0.3,0.4,3360,0,,,,,,,,,,,,,,,,,,,
80453,1480785074130,1,126.6,,157.8,65,150.8,,-0.0,0.13,1.01,-3.1,0.4,0.4,3340,0,1,0,0.0,0,38.159229,-122.454353,0.0,0.0,38.7,10,3,1.9,0,0.0,-1,0.0,0.0,0.0,0
80473,1480785074150,,,,,,,,0.0,0.13,0.99,-3.1,0.4,0.4,3320,0,,,,,,,,,,,,,,,,,,,
80493,1480785074170,,,,,,,,0.0,0.13,0.99,-3.1,0.5,0.4,3240,0,,,,,,,,,,,,,,,,,,,
80513,1480785074190,,,,,,,,0.01,0.11,1.02,-3.1,0.6,0.4,3200,0,,,,,,,,,,,,,,,,,,,
80533,1480785074210,,,,,,,,0.01,0.1,1.01,-3.1,0.9,0.4,3140,0,,,,,,,,,,,,,,,,,,,
80553,1480785074230,,,,,80,,,0.0,0.11,0.98,-3.1,0.7,0.5,3120,0,1,0,0.0,0,38.159229,-122.454353,0.0,0.0,38.7,10,3,1.9,0,0.0,-1,0.0,,0.0,0
80573,1480785074250,,,,,,,,0.0,0.12,0.96,-3.2,0.3,0.5,3060,0,,,,,,,,,,,,,,,,,,,
80593,1480785074270,,,,,,,,0.0,0.11,0.96,-3.2,0.2,0.5,3060,0,,,,,,,,,,,,,,,,,,,
80613,1480785074191,,,,,,,,0.01,0.12,0.97,-3.2,0.2,0.5,2980,0,,,,,,,,,,,,,,,,,,,
80633,1480785074211,,,,,,,,0.0,0.12,0.97,-3.1,0.2,0.5,3020,0,,,,,,,,,,,,,,,,,,,
80653,1480785074231,0,125.4,,156.9,64,151.1,,0.01,0.13,0.97,-3.1,0.3,0.5,2880,0,1,0,0.0,0,38.159229,-122.454353,0.0,0.0,38.7,10,3,1.9,0,0.0,-1,0.0,0.0,0.0,0
80673,1480785074251,,,,,,,,0.01,0.13,0.97,-3.1,0.2,0.5,2860,0,,,,,,,,,,,,,,,,,,,
80693,1480785074271,,,,,,,,0.01,0.15,0.95,-3.2,-0.1,0.6,2760,0,,,,,,,,,,,,,,,,,,,
80713,1480785074291,,,,,,,,0.01,0.14,0.95,-3.2,-0.4,0.6,2740,0,,,,,,,,,,,,,,,,,,,
80733,1480785074311,,,,,,,,0.01,0.12,0.97,-3.3,-0.3,0.5,2680,0,,,,,,,,,,,,,,,,,,,
80753,1480785074331,,,,,81,,,0.02,0.13,0.97,-3.2,0.1,0.6,2720,0,1,0,0.0,0,38.159229,-122.454353,0.0,0.0,38.7,10,3,1.9,0,0.0,-1,0.0,,0.0,0
80773,1480785074351,,,,,,,,0.03,0.14,0.97,-3.2,0.1,0.6,2620,0,,,,,,,,,,,,,,,,,,,
80793,1480785074371,,,,,,,,0.02,0.14,0.96,-3.2,-0.4,0.5,2560,0,,,,,,,,,,,,,,,,,,,
80813,1480785074391,,,,,,,,0.02,0.12,0.98,-3.2,0.1,0.4,2540,0,,,,,,,,,,,,,,,,,,,
80833,1480785074411,,,,,,,,0.01,0.13,0.98,-3.2,-0.0,0.4,2460,0,,,,,,,,,,,,,,,,,,,
80853,1480785074431,0,126.0,,157.5,63,151.4,,0.01,0.11,0.99,-3.2,0.0,0.3,2480,0,1,0,0.0,0,38.159229,-122.454353,0.0,0.0,38.7,10,3,1.9,0,0.0,-1,0.0,0.0,0.0,0
80873,1480785074451,,,,,,,,0.02,0.11,0.98,-3.1,0.1,0.4,2480,0,,,,,,,,,,,,,,,,,,,
80893,1480785074471,,,,,,,,0.01,0.12,0.99,-3.2,0.3,0.4,2380,0,,,,,,,,,,,,,,,,,,,
80913,1480785074491,,,,,,,,0.02,0.12,0.99,-3.2,0.1,0.4,2320,0,,,,,,,,,,,,,,,,,,,
80933,1480785074511,,,,,,,,0.02,0.11,0.99,-3.2,0.3,0.3,2340,0,,,,,,,,,,,,,,,,,,,
80953,1480785074531,,,,,64,,,0.01,0.12,1.0,-3.1,0.2,0.3,2320,0,1,0,0.0,0,38.159229,-122.454353,0.0,0.0,38.7,10,3,1.9,0,0.0,-1,0.0,,0.0,0
80973,1480785074551,,,,,,,,0.01,0.12,0.99,-3.1,0.1,0.3,2240,0,,,,,,,,,,,,,,,,,,,
80993,1480785074571,,,,,,,,0.02,0.11,0.99,-3.1,0.2,0.4,2160,0,,,,,,,,,,,,,,,,,,,
81013,1480785074591,,,,,,,,0.01,0.11,1.0,-3.1,0.4,0.3,2140,0,,,,,,,,,,,,,,,,,,,
81033,1480785074606,,,,,,,,0.0,0.11,1.0,-3.1,0.4,0.2,2100,0,,,,,,,,,,,,,,,,,,,
81053,1480785074626,0,126.8,8.4,157.7,70,151.0,14.77,0.01,0.11,1.0,-3.1,0.3,0.2,2060,0,1,0,0.0,0,38.159229,-122.454353,0.0,0.0,38.7,10,3,1.9,0,0.0,-1,0.0,0.0,0.0,0
81073,1480785074646,,,,,,,,0.01,0.11,1.0,-3.2,0.3,0.2,2020,0,,,,,,,,,,,,,,,,,,,
81093,1480785074666,,,,,,,,0.01,0.1,0.99,-3.2,0.4,0.2,2000,0,,,,,,,,,,,,,,,,,,,
81113,1480785074691,,,,,,,,0.01,0.11,0.99,-3.1,0.4,0.2,1960,0,,,,,,,,,,,,,,,,,,,
81133,1480785074711,,,,,,,,0.02,0.11,0.98,-3.1,0.5,0.1,1940,0,,,,,,,,,,,,,,,,,,,
81153,1480785074731,,,,,69,,,0.02,0.11,0.98,-3.1,0.6,0.1,1880,0,1,0,0.0,0,38.159229,-122.454353,0.0,0.0,38.7,10,3,1.9,0,0.0,-1,0.0,,0.0,0
81173,1480785074751,,,,,,,,0.02,0.11,0.97,-3.1,0.6,0.1,1840,0,,,,,,,,,,,,,,,,,,,
81193,1480785074771,,,,,,,,0.02,0.1,0.98,-3.1,0.5,0.2,1820,0,,,,,,,,,,,,,,,,,,,
81213,1480785074791,,,,,,,,0.02,0.1,0.98,-3.1,0.3,0.2,1780,0,,,,,,,,,,,,,,,,,,,
81233,1480785074909,,,,,,,,0.01,0.1,0.99,-3.1,0.4,0.2,1760,0,,,,,,,,,,,,,,,,,,,
81253,1480785074929,0,126.9,,157.7,64,151.0,,0.01,0.1,0.99,-3.1,0.5,0.2,1680,0,1,0,0.0,0,38.159229,-122.454353,0.0,0.0,38.7,10,3,1.9,0,0.0,-1,0.0,0.0,0.0,0
81273,1480785074949,,,,,,,,0.02,0.1,0.99,-3.1,0.6,0.2,1700,0,,,,,,,,,,,,,,,,,,,
81293,1480785074969,,,,,,,,0.02,0.1,0.99,-3.1,0.5,0.3,1620,0,,,,,,,,,,,,,,,,,,,
81313,1480785074989,,,,,,,,0.02,0.1,0.99,-3.1,0.4,0.2,1600,0,,,,,,,,,,,,,,,,,,,
81333,1480785075009,,,,,,,,0.02,0.1,0.99,-3.1,0.3,0.3,1560,0,,,,,,,,,,,,,,,,,,,
81353,1480785075029,,,,,58,,,0.01,0.1,0.99,-3.1,0.3,0.3,1540,0,1,0,0.0,0,38.159229,-122.454353,0.0,0.0,38.7,10,3,1.9,0,0.0,-1,0.0,,0.0,0
81373,1480785075049,,,,,,,,0.02,0.11,1.0,-3.1,0.5,0.3,1500,0,,,,,,,,,,,,,,,,,,,
81393,1480785075069,,,,,,,,0.01,0.11,1.0,-3.1,0.4,0.3,1460,0,,,,,,,,,,,,,,,,,,,
