"Interval"|"ms"|0|0|1,"Utc"|"ms"|0|0|1,"FuelLevel"|"F"|0|100|5,"OilTemp"|"F"|0.0|300.0|5,"CoolantPressPSI"|"PSI"|0.0|20.0|1,"Coolant"|"F"|0.0|300.0|5,"OilPress"|"PSI"|0|150|10,"EngineTemp"|"F"|0.0|300.0|5,"Battery"|"Volts"|0.0|20.0|1,"AccelX"|"G"|-3.0|3.0|50,"AccelY"|"G"|-3.0|3.0|50,"AccelZ"|"G"|-3.0|3.0|50,"Yaw"|"Deg/Sec"|-300.0|300.0|50,"Pitch"|"Deg/Sec"|-300.0|300.0|50,"Roll"|"Deg/Sec"|-300.0|300.0|50,"RPM"|""|0|10000|50,"Driveshaft"|"RPM"|0|5000|50,"GPIO1"|""|0|1|10,"GPIO2"|""|0|1|10,"GearRatio"|""|-5.0|5.0|10,"Gear"|""|-1|5|10,"Latitude"|"Degrees"|-180.0|180.0|10,"Longitude"|"Degrees"|-180.0|180.0|10,"Speed"|"MPH"|0.0|150.0|10,"Distance"|"Miles"|0.0|0.0|10,"Altitude"|"Feet"|0.0|4000.0|10,"GPSSats"|""|0|20|10,"GPSQual"|""|0|5|10,"GPSDOP"|""|0.0|20.0|10,"LapCount"|""|0|0|10,"LapTime"|"Min"|0.0|0.0|10,"Sector"|""|0|0|10,"SectorTime"|"Min"|0.0|0.0|10,"PredTime"|"Min"|0.0|0.0|5,"ElapsedTime"|"Min"|0.0|0.0|10,"CurrentLap"|""|0|0|10
1605287,1480652860131,,,,,,,,-0.04,0.06,0.99,-3.2,0.3,0.1,1440,0,,,,,,,,,,,,,,,,,,,
,,,,,,,,,,,,,,,,,,,,,,,,,,,,,,,,,,,
1605147,1480652859985,,,,,,,,-0.05,0.1,1.01,-3.2,0.2,0.3,3160,0,,,,,,,,,,,,,,,,,,,
1605167,1480652860007,,,,,,,,-0.05,0.1,1.01,-3.2,0.1,0.3,3160,0,,,,,,,,,,,,,,,,,,,
1605187,1480652860027,,,,,,,,-0.05,0.09,1.0,-3.2,0.1,0.3,3160,0,,,,,,,,,,,,,,,,,,,
1605207,1480652860047,,,,,,,,-0.04,0.08,1.0,-3.2,0.1,0.2,3160,0,,,,,,,,,,,,,,,,,,,
1605227,1480652860067,0,44.8,0.0,44.8,0,46.3,9.32,-0.04,0.07,1.0,-3.2,0.2,0.2,3160,0,1,0,0.0,0,37.478367,-122.203728,0.0,0.0,13.5,9,3,1.7,0,0.0,-1,0.0,0.0,0.0,0
1605247,1480652860091,,,,,,,,-0.04,0.07,1.0,-3.2,0.2,0.1,0,0,,,,,,,,,,,,,,,,,,,
1605267,1480652860111,,,,,,,,-0.04,0.06,0.99,-3.2,0.2,0.1,1440,0,,,,,,,,,,,,,,,,,,,
1605287,1480652860131,,,,,,,,-0.04,0.06,0.99,-3.2,0.3,0.1,1440,0,,,,,,,,,,,,,,,,,,,
1605327,1480652860171,,,,,1,,,-0.04,0.06,0.99,-3.2,0.3,0.1,1440,0,1,0,0.0,0,37.478367,-122.203728,0.0,0.0,13.5,9,3,1.7,0,0.0,-1,0.0,,0.0,0
1605347,1480652860291,,,,,,,,-0.04,0.08,0.99,-3.2,0.2,0.2,1440,0,,,,,,,,,,,,,,,,,,,
1605367,1480652860311,,,,,,,,-0.04,0.09,1.0,-3.2,0.1,0.3,1440,0,,,,,,,,,,,,,,,,,,,
1605387,1480652860331,,,,,,,,-0.05,0.09,1.0,-3.2,0.2,0.3,0,0,,,,,,,,,,,,,,,,,,,
1605407,1480652860351,,,,,,,,-0.05,0.09,1.0,-3.2,0.3,0.3,2000,0,,,,,,,,,,,,,,,,,,,
1605427,1480652860371,0,46.0,,44.8,0,47.5,,-0.04,0.09,1.0,-3.1,0.2,0.2,2000,0,1,0,0.0,0,37.478367,-122.203728,0.0,0.0,13.5,9,3,1.7,0,0.0,-1,0.0,0.0,0.0,0
1605447,1480652860391,,,,,,,,-0.04,0.09,1.0,-3.1,0.2,0.2,2000,0,,,,,,,,,,,,,,,,,,,
1605467,1480652860411,,,,,,,,-0.04,0.09,1.0,-3.2,0.2,0.2,2000,0,,,,,,,,,,,,,,,,,,,
1605487,1480652860431,,,,,,,,-0.04,0.1,1.0,-3.2,0.2,0.3,2000,0,,,,,,,,,,,,,,,,,,,
1605507,1480652860451,,,,,,,,-0.05,0.1,1.01,-3.2,0.1,0.3,2000,0,,,,,,,,,,,,,,,,,,,
1605527,1480652860471,,,,,0,,,-0.04,0.1,1.01,-3.2,0.2,0.3,0,0,1,0,0.0,0,37.478367,-122.203728,0.0,0.0,13.5,9,3,1.7,0,0.0,-1,0.0,,0.0,0
1605547,1480652860391,,,,,,,,-0.04,0.1,1.01,-3.2,0.2,0.3,4240,0,,,,,,,,,,,,,,,,,,,
1605567,1480652860411,,,,,,,,-0.04,0.11,1.01,-3.1,0.1,0.3,4240,0,,,,,,,,,,,,,,,,,,,
1605587,1480652860431,,,,,,,,-0.04,0.11,1.01,-3.2,0.1,0.3,4240,0,,,,,,,,,,,,,,,,,,,
1605607,1480652860451,,,,,,,,-0.04,0.11,1.01,-3.2,0.1,0.3,4240,0,,,,,,,,,,,,,,,,,,,
1605627,1480652860471,0,46.8,,44.1,0,46.5,,-0.04,0.11,1.01,-3.2,0.1,0.4,4240,0,1,0,0.0,0,37.478367,-122.203728,0.0,0.0,13.5,9,3,1.7,0,0.0,-1,0.0,0.0,0.0,0
1605647,1480652860492,,,,,,,,-0.04,0.1,1.02,-3.2,0.1,0.4,4240,0,,,,,,,,,,,,,,,,,,,
1605667,1480652860512,,,,,,,,-0.04,0.1,1.02,-3.2,0.1,0.4,3900,0,,,,,,,,,,,,,,,,,,,
1605687,1480652860532,,,,,,,,-0.04,0.1,1.02,-3.1,0.1,0.4,3900,0,,,,,,,,,,,,,,,,,,,
1605707,1480652860552,,,,,,,,-0.04,0.1,1.02,-3.1,0.1,0.3,3900,0,,,,,,,,,,,,,,,,,,,
1605727,1480652860572,,,,,0,,,-0.04,0.1,1.01,-3.2,0.2,0.3,3900,0,1,0,0.0,0,37.478367,-122.203728,0.0,0.0,13.5,9,3,1.7,0,0.0,-1,0.0,,0.0,0
1605747,1480652860592,,,,,,,,-0.04,0.09,1.01,-3.2,0.1,0.3,3900,0,,,,,,,,,,,,,,,,,,,
1605767,1480652860612,,,,,,,,-0.03,0.08,1.0,-3.2,0.2,0.2,3900,0,,,,,,,,,,,,,,,,,,,
1605787,1480652860632,,,,,,,,-0.04,0.06,1.0,-3.2,0.2,0.2,3900,0,,,,,,,,,,,,,,,,,,,
1605807,1480652860652,,,,,,,,-0.04,0.06,1.0,-3.2,0.2,0.2,6780,0,,,,,,,,,,,,,,,,,,,
1605827,1480652860672,0,47.1,,44.4,0,46.7,,-0.04,0.06,1.0,-3.1,0.2,0.2,6780,0,1,0,0.0,0,37.478367,-122.203728,0.0,0.0,13.5,9,3,1.7,0,0.0,-1,0.0,0.0,0.0,0
1605847,1480652860691,,,,,,,,-0.04,0.06,1.0,-3.1,0.2,0.2,6780,0,,,,,,,,,,,,,,,,,,,
1605867,1480652860711,,,,,,,,-0.04,0.06,1.0,-3.2,0.2,0.2,6780,0,,,,,,,,,,,,,,,,,,,
1605887,1480652860731,,,,,,,,-0.04,0.05,1.0,-3.1,0.3,0.1,6780,0,,,,,,,,,,,,,,,,,,,
1605907,1480652860751,,,,,,,,-0.04,0.04,0.99,-3.1,0.2,0.0,6780,0,,,,,,,,,,,,,,,,,,,
1605927,1480652860771,,,,,1,,,-0.04,0.04,0.99,-3.1,0.2,-0.0,6780,0,1,0,0.0,0,37.478367,-122.203728,0.0,0.0,13.5,9,3,1.7,0,0.0,-1,0.0,,0.0,0
1605947,1480652860791,,,,,,,,-0.04,0.04,0.99,-3.1,0.3,-0.1,6160,0,,,,,,,,,,,,,,,,,,,
1605967,1480652860811,,,,,,,,-0.04,0.04,0.99,-3.1,0.3,-0.1,6160,0,,,,,,,,,,,,,,,,,,,
1605987,1480652860831,,,,,,,,-0.05,0.04,0.99,-3.1,0.2,-0.1,6160,0,,,,,,,,,,,,,,,,,,,
1606007,1480652860851,,,,,,,,-0.05,0.05,0.99,-3.1,0.3,-0.0,6160,0,,,,,,,,,,,,,,,,,,,
1606027,1480652860871,0,44.1,,41.0,0,43.9,,-0.05,0.06,0.99,-3.1,0.2,0.0,6160,0,1,0,0.0,0,37.478367,-122.203728,0.0,0.0,13.5,9,3,1.7,0,0.0,-1,0.0,0.0,0.0,0
1606047,1480652860891,,,,,,,,-0.06,0.07,1.0,-3.1,0.2,0.1,6160,0,,,,,,,,,,,,,,,,,,,
1606067,1480652860906,,,,,,,,-0.05,0.08,1.0,-3.1,0.3,0.1,0,0,,,,,,,,,,,,,,,,,,,
1606087,1480652860926,,,,,,,,-0.05,0.08,1.01,-3.1,0.3,0.1,5140,0,,,,,,,,,,,,,,,,,,,
1606107,1480652860946,,,,,,,,-0.05,0.08,1.01,-3.1,0.2,0.1,5140,0,,,,,,,,,,,,,,,,,,,
1606127,1480652860966,,,,,0,,,-0.05,0.08,1.01,-3.1,0.2,0.1,5140,0,1,0,0.0,0,37.478367,-122.203728,0.0,0.0,13.5,9,3,1.7,0,0.0,-1,0.0,,0.0,0
1606147,1480652860986,,,,,,,,-0.05,0.07,1.0,-3.1,0.2,0.1,5140,0,,,,,,,,,,,,,,,,,,,
1606167,1480652861109,,,,,,,,-0.04,0.07,0.99,-3.1,0.1,0.1,5140,0,,,,,,,,,,,,,,,,,,,
1606187,1480652861129,,,,,,,,-0.04,0.06,1.0,-3.1,0.2,0.0,5140,0,,,,,,,,,,,,,,,,,,,
1606207,1480652861149,,,,,,,,-0.05,0.06,1.0,-3.1,0.2,0.0,3540,0,,,,,,,,,,,,,,,,,,,
1606227,1480652861169,0,46.8,0.0,44.5,1,45.2,9.69,-0.05,0.06,1.0,-3.1,0.2,0.1,3540,0,1,0,0.0,0,37.478367,-122.203728,0.0,0.0,13.5,9,3,1.7,0,0.0,-1,0.0,0.0,0.0,0
1606247,1480652861189,,,,,,,,-0.04,0.06,1.0,-3.1,0.2,0.1,3540,0,,,,,,,,,,,,,,,,,,,
1606267,1480652861209,,,,,,,,-0.04,0.06,1.0,-3.1,0.1,0.1,3540,0,,,,,,,,,,,,,,,,,,,
1606287,1480652861229,,,,,,,,-0.04,0.05,1.0,-3.1,0.1,0.1,3540,0,,,,,,,,,,,,,,,,,,,
1606307,1480652861249,,,,,,,,-0.04,0.05,1.0,-3.1,0.2,0.0,3540,0,,,,,,,,,,,,,,,,,,,
1606327,1480652861269,,,,,0,,,-0.04,0.04,1.0,-3.1,0.2,0.0,3540,0,1,0,0.0,0,37.478367,-122.203728,0.0,0.0,13.5,9,3,1.7,0,0.0,-1,0.0,,0.0,0
1606347,1480652861192,,,,,,,,-0.04,0.04,1.0,-3.1,0.3,0.0,9680,0,,,,,,,,,,,,,,,,,,,
1606367,1480652861212,,,,,,,,-0.05,0.04,1.0,-3.1,0.2,0.0,9680,0,,,,,,,,,,,,,,,,,,,
1606387,1480652861232,,,,,,,,-0.04,0.04,1.0,-3.1,0.2,0.0,9680,0,,,,,,,,,,,,,,,,,,,
1606407,1480652861252,,,,,,,,-0.04,0.04,1.0,-3.1,0.2,0.0,9680,0,,,,,,,,,,,,,,,,,,,
1606427,1480652861272,0,44.8,,44.3,0,46.9,,-0.04,0.03,1.0,-3.1,0.3,0.0,9680,0,1,0,0.0,0,37.478367,-122.203728,0.0,0.0,13.5,9,3,1.7,0,0.0,-1,0.0,0.0,0.0,0
1606447,1480652861292,,,,,,,,-0.04,0.03,0.99,-3.1,0.2,-0.1,9680,0,,,,,,,,,,,,,,,,,,,
1606467,1480652861312,,,,,,,,-0.05,0.02,0.99,-3.1,0.1,-0.1,9680,0,,,,,,,,,,,,,,,,,,,
1606487,1480652861332,,,,,,,,-0.05,0.02,0.99,-3.0,0.1,-0.1,5200,0,,,,,,,,,,,,,,,,,,,
1606507,1480652861352,,,,,,,,-0.05,0.03,0.99,-3.0,0.1,-0.1,5200,0,,,,,,,,,,,,,,,,,,,
1606527,1480652861372,,,,,1,,,-0.05,0.03,0.99,-3.0,0.1,-0.1,5200,0,1,0,0.0,0,37.478367,-122.203728,0.0,0.0,13.5,9,3,1.7,0,0.0,-1,0.0,,0.0,0
1606547,1480652861392,,,,,,,,-0.05,0.04,0.99,-3.1,0.1,-0.1,5200,0,,,,,,,,,,,,,,,,,,,
1606567,1480652861412,,,,,,,,-0.05,0.05,0.99,-3.1,0.1,0.0,5200,0,,,,,,,,,,,,,,,,,,,
1606587,1480652861432,,,,,,,,-0.06,0.06,0.99,-3.1,0.0,0.1,5200,0,,,,,,,,,,,,,,,,,,,
1606607,1480652861452,,,,,,,,-0.05,0.07,1.0,-3.0,0.2,0.1,10700,0,,,,,,,,,,,,,,,,,,,
1606627,1480652861472,0,43.3,,41.7,0,46.7,,-0.05,0.07,1.0,-3.0,0.2,0.0,10700,0,1,0,0.0,0,37.478367,-122.203728,0.0,0.0,13.5,9,3,1.7,0,0.0,-1,0.0,0.0,0.0,0
1606647,1480652861491,,,,,,,,-0.05,0.07,1.0,-3.0,0.1,0.1,10700,0,,,,,,,,,,,,,,,,,,,
1606667,1480652861511,,,,,,,,-0.05,0.07,1.0,-3.0,0.1,0.1,10700,101,,,,,,,,,,,,,,,,,,,
1606687,1480652861531,,,,,,,,-0.05,0.08,1.0,-3.1,0.0,0.1,10700,0,,,,,,,,,,,,,,,,,,,
1606707,1480652861551,,,,,,,,-0.05,0.06,1.0,-3.1,0.1,0.0,10700,0,,,,,,,,,,,,,,,,,,,
1606727,1480652861571,,,,,0,,,-0.05,0.06,1.0,-3.1,0.1,0.0,10700,0,1,0,0.0,0,37.478367,-122.203728,0.0,0.0,13.5,9,3,1.7,0,0.0,-1,0.0,,0.0,0
1606747,1480652861591,,,,,,,,-0.06,0.06,1.0,-3.0,-0.0,-0.0,0,0,,,,,,,,,,,,,,,,,,,
1606767,1480652861611,,,,,,,,-0.06,0.06,0.99,-3.0,0.0,-0.1,680,0,,,,,,,,,,,,,,,,,,,
1606787,1480652861631,,,,,,,,-0.05,0.06,0.99,-3.0,0.1,-0.1,680,0,,,,,,,,,,,,,,,,,,,
1606807,1480652861651,,,,,,,,-0.05,0.06,0.99,-3.1,0.0,-0.1,680,0,,,,,,,,,,,,,,,,,,,
1606827,1480652861671,0,47.2,,44.1,1,44.4,,-0.05,0.06,0.99,-3.1,0.1,-0.1,680,0,1,0,0.0,0,37.478367,-122.203728,0.0,0.0,13.5,9,3,1.7,0,0.0,-1,0.0,0.0,0.0,0
1606847,1480652861692,,,,,,,,-0.05,0.07,0.99,-3.1,0.1,-0.0,680,0,,,,,,,,,,,,,,,,,,,
1606867,1480652861712,,,,,,,,-0.05,0.07,0.99,-3.1,0.1,-0.0,680,0,,,,,,,,,,,,,,,,,,,
1606887,1480652861732,,,,,,,,-0.05,0.07,0.99,-3.1,0.1,-0.0,680,0,,,,,,,,,,,,,,,,,,,
1606907,1480652861752,,,,,,,,-0.05,0.07,0.99,-3.1,0.1,-0.0,0,0,,,,,,,,,,,,,,,,,,,
1606927,1480652861772,,,,,0,,,-0.05,0.07,0.99,-3.1,0.2,-0.0,0,0,1,0,0.0,0,37.478367,-122.203728,0.0,0.0,13.5,9,3,1.7,0,0.0,-1,0.0,,0.0,0
1606947,1480652861891,,,,,,,,-0.05,0.07,1.0,-3.1,0.2,-0.0,0,0,,,,,,,,,,,,,,,,,,,
1606967,1480652861911,,,,,,,,-0.05,0.07,1.0,-3.1,0.2,-0.0,0,0,,,,,,,,,,,,,,,,,,,
1606987,1480652861931,,,,,,,,-0.05,0.07,1.0,-3.1,0.2,-0.0,0,0,,,,,,,,,,,,,,,,,,,
1607007,1480652861951,,,,,,,,-0.05,0.07,1.0,-3.1,0.2,-0.0,0,0,,,,,,,,,,,,,,,,,,,
1607027,1480652861971,0,43.2,,42.1,0,46.2,,-0.05,0.07,1.0,-3.1,0.2,-0.0,0,0,1,0,0.0,0,37.478367,-122.203728,0.0,0.0,13.5,9,3,1.7,0,0.0,-1,0.0,0.0,0.0,0
1607047,1480652861991,,,,,,,,-0.05,0.07,1.0,-3.1,0.2,-0.0,0,0,,,,,,,,,,,,,,,,,,,
1607067,1480652862011,,,,,,,,-0.05,0.06,1.0,-3.1,0.2,-0.0,540,0,,,,,,,,,,,,,,,,,,,
1607087,1480652862031,,,,,,,,-0.05,0.06,1.0,-3.1,0.2,-0.0,540,0,,,,,,,,,,,,,,,,,,,
1607107,1480652862051,,,,,,,,-0.05,0.06,1.0,-3.1,0.2,0.0,540,0,,,,,,,,,,,,,,,,,,,
1607127,1480652862071,,,,,1,,,-0.05,0.07,1.0,-3.1,0.2,0.0,540,0,1,0,0.0,0,37.478367,-122.203728,0.0,0.0,13.5,9,3,1.7,0,0.0,-1,0.0,,0.0,0
1607147,1480652861992,,,,,,,,-0.05,0.07,1.0,-3.1,0.2,0.0,540,0,,,,,,,,,,,,,,,,,,,
1607167,1480652862012,,,,,,,,-0.05,0.06,1.0,-3.1,0.2,0.0,540,0,,,,,,,,,,,,,,,,,,,
1607187,1480652862032,,,,,,,,-0.05,0.07,1.0,-3.1,0.2,-0.0,540,0,,,,,,,,,,,,,,,,,,,
1607207,1480652862052,,,,,,,,-0.05,0.07,1.0,-3.1,0.2,-0.0,20000000,0,,,,,,,,,,,,,,,,,,,
1607227,1480652862072,0,46.6,0.1,44.4,1,45.4,12.1,-0.05,0.07,1.0,-3.1,0.2,-0.0,0,0,1,0,0.0,0,37.478367,-122.203728,0.0,0.0,13.5,9,3,1.7,0,0.0,-1,0.0,0.0,0.0,0
1607247,1480652862092,,,,,,,,-0.05,0.07,1.0,-3.1,0.2,-0.0,0,0,,,,,,,,,,,,,,,,,,,
1607267,1480652862112,,,,,,,,-0.05,0.07,1.0,-3.1,0.2,-0.0,0,0,,,,,,,,,,,,,,,,,,,
1607287,1480652862132,,,,,,,,-0.05,0.07,1.0,-3.1,0.2,0.0,0,0,,,,,,,,,,,,,,,,,,,
1607307,1480652862152,,,,,,,,-0.05,0.07,1.0,-3.1,0.2,0.0,0,0,,,,,,,,,,,,,,,,,,,
1607327,1480652862172,,,,,1,,,-0.05,0.07,1.0,-3.1,0.2,0.0,0,0,1,0,0.0,0,37.478367,-122.203728,0.0,0.0,13.5,9,3,1.7,0,0.0,-1,0.0,,0.0,0
1607347,1480652862191,,,,,,,,-0.05,0.06,1.0,-3.1,0.2,0.0,0,0,,,,,,,,,,,,,,,,,,,
1607367,1480652862211,,,,,,,,-0.05,0.06,1.0,-3.1,0.2,0.0,0,0,,,,,,,,,,,,,,,,,,,
1607387,1480652862231,,,,,,,,-0.05,0.06,1.0,-3.1,0.2,0.0,0,0,,,,,,,,,,,,,,,,,,,
1607407,1480652862251,,,,,,,,-0.05,0.06,1.0,-3.1,0.2,0.0,0,0,,,,,,,,,,,,,,,,,,,
1607427,1480652862271,0,45.0,,44.1,0,46.7,,-0.05,0.07,1.0,-3.1,0.2,0.0,0,0,1,0,0.0,0,37.478367,-122.203728,0.0,0.0,13.5,9,3,1.7,0,0.0,-1,0.0,0.0,0.0,0
1607447,1480652862292,,,,,,,,-0.05,0.07,1.0,-3.1,0.2,0.0,0,0,,,,,,,,,,,,,,,,,,,
1607467,1480652862312,,,,,,,,-0.05,0.07,1.0,-3.1,0.2,0.0,0,0,,,,,,,,,,,,,,,,,,,
1607487,1480652862332,,,,,,,,-0.05,0.07,1.0,-3.1,0.2,0.0,0,0,,,,,,,,,,,,,,,,,,,
1607507,1480652862352,,,,,,,,-0.05,0.07,1.0,-3.1,0.2,0.0,0,0,,,,,,,,,,,,,,,,,,,
1607527,1480652862372,,,,,1,,,-0.05,0.07,1.0,-3.1,0.2,0.0,0,0,1,0,0.0,0,37.478367,-122.203728,0.0,0.0,13.5,9,3,1.7,0,0.0,-1,0.0,,0.0,0
1607547,1480652862392,,,,,,,,-0.05,0.07,1.0,-3.1,0.2,0.0,0,0,,,,,,,,,,,,,,,,,,,
1607567,1480652862412,,,,,,,,-0.05,0.07,1.0,-3.1,0.2,0.0,0,0,,,,,,,,,,,,,,,,,,,
1607587,1480652862432,,,,,,,,-0.05,0.07,1.0,-3.1,0.2,0.0,0,0,,,,,,,,,,,,,,,,,,,
1607607,1480652862452,,,,,,,,-0.05,0.07,1.0,-3.1,0.2,0.1,0,0,,,,,,,,,,,,,,,,,,,
1607627,1480652862472,0,45.7,,44.5,1,46.3,,-0.05,0.07,1.0,-3.1,0.2,0.1,0,0,1,0,0.0,0,37.478367,-122.203728,0.0,0.0,13.5,9,3,1.7,0,0.0,-1,0.0,0.0,0.0,0
1607647,1480652862491,,,,,,,,-0.05,0.07,1.0,-3.1,0.2,0.1,0,0,,,,,,,,,,,,,,,,,,,
1607667,1480652862511,,,,,,,,-0.05,0.07,1.0,-3.1,0.2,0.0,0,0,,,,,,,,,,,,,,,,,,,
1607687,1480652862531,,,,,,,,-0.05,0.07,1.0,-3.2,0.2,0.0,0,0,,,,,,,,,,,,,,,,,,,
1607707,1480652862551,,,,,,,,-0.05,0.07,1.0,-3.1,0.2,0.0,0,0,,,,,,,,,,,,,,,,,,,
1607727,1480652862571,,,,,0,,,-0.05,0.07,1.0,-3.1,0.2,0.1,0,0,1,0,0.0,0,37.478367,-122.203728,0.0,0.0,13.5,9,3,1.7,0,0.0,-1,0.0,,0.0,0
1607747,1480652862591,,,,,,,,-0.05,0.07,1.0,-3.1,0.2,0.1,0,0,,,,,,,,,,,,,,,,,,,
1607767,1480652862710,,,,,,,,-0.05,0.07,1.0,-3.1,0.2,0.1,0,0,,,,,,,,,,,,,,,,,,,
1607787,1480652862730,,,,,,,,-0.05,0.07,1.0,-3.1,0.2,0.0,0,0,,,,,,,,,,,,,,,,,,,
1607807,1480652862750,,,,,,,,-0.05,0.07,1.0,-3.1,0.2,0.1,0,0,,,,,,,,,,,,,,,,,,,
1607827,1480652862770,0,46.3,,44.4,1,45.5,,-0.05,0.07,1.0,-3.2,0.2,0.0,0,0,1,0,0.0,0,37.478367,-122.203728,0.0,0.0,13.5,9,3,1.7,0,0.0,-1,0.0,0.0,0.0,0
1607847,1480652862790,,,,,,,,-0.05,0.07,1.0,-3.1,0.2,0.0,0,0,,,,,,,,,,,,,,,,,,,
1607867,1480652862810,,,,,,,,-0.05,0.07,1.0,-3.1,0.2,0.0,0,0,,,,,,,,,,,,,,,,,,,
1607887,1480652862830,,,,,,,,-0.05,0.07,1.0,-3.1,0.2,0.0,0,0,,,,,,,,,,,,,,,,,,,
1607907,1480652862850,,,,,,,,-0.05,0.07,1.0,-3.1,0.2,0.0,0,0,,,,,,,,,,,,,,,,,,,
1607927,1480652862870,,,,,0,,,-0.05,0.07,1.0,-3.1,0.2,-0.0,0,0,1,0,0.0,0,37.478367,-122.203728,0.0,0.0,13.5,9,3,1.7,0,0.0,-1,0.0,,0.0,0
1607947,1480652862792,,,,,,,,-0.05,0.07,1.0,-3.1,0.2,-0.0,0,0,,,,,,,,,,,,,,,,,,,
1607967,1480652862812,,,,,,,,-0.05,0.07,1.0,-3.1,0.2,-0.0,0,0,,,,,,,,,,,,,,,,,,,
1607987,1480652862832,,,,,,,,-0.05,0.07,1.0,-3.1,0.2,-0.0,0,0,,,,,,,,,,,,,,,,,,,
1608007,1480652862852,,,,,,,,-0.05,0.07,1.0,-3.1,0.2,-0.0,0,0,,,,,,,,,,,,,,,,,,,
1608027,1480652862872,0,43.2,,41.7,0,45.8,,-0.05,0.07,1.0,-3.1,0.2,-0.0,0,0,1,0,0.0,0,37.478367,-122.203728,0.0,0.0,13.5,9,3,1.7,0,0.0,-1,0.0,0.0,0.0,0
1608047,1480652862892,,,,,,,,-0.05,0.07,1.0,-3.1,0.2,-0.0,0,0,,,,,,,,,,,,,,,,,,,
1608067,1480652862907,,,,,,,,-0.05,0.07,1.0,-3.1,0.2,0.0,0,0,,,,,,,,,,,,,,,,,,,
1608087,1480652862927,,,,,,,,-0.05,0.07,1.0,-3.1,0.2,0.0,0,0,,,,,,,,,,,,,,,,,,,
1608107,1480652862947,,,,,,,,-0.05,0.07,1.0,-3.1,0.2,0.0,0,0,,,,,,,,,,,,,,,,,,,
1608127,1480652862967,,,,,1,,,-0.05,0.07,1.0,-3.1,0.2,0.0,0,0,1,0,0.0,0,37.478367,-122.203728,0.0,0.0,13.5,9,3,1.7,0,0.0,-1,0.0,,0.0,0
1608147,1480652862992,,,,,,,,-0.05,0.07,1.0,-3.1,0.3,0.0,0,0,,,,,,,,,,,,,,,,,,,
1608167,1480652863012,,,,,,,,-0.05,0.07,1.0,-3.1,0.3,0.0,0,0,,,,,,,,,,,,,,,,,,,
1608187,1480652863032,,,,,,,,-0.05,0.07,1.0,-3.1,0.2,0.0,0,0,,,,,,,,,,,,,,,,,,,
1608207,1480652863052,,,,,,,,-0.05,0.07,1.0,-3.1,0.2,0.0,0,0,,,,,,,,,,,,,,,,,,,
1608227,1480652863072,0,46.3,0.0,43.5,1,44.3,12.16,-0.05,0.07,1.0,-3.1,0.2,0.0,0,0,1,0,0.0,0,37.478367,-122.203728,0.0,0.0,13.5,9,3,1.7,0,0.0,-1,0.0,0.0,0.0,0
1608247,1480652863092,,,,,,,,-0.05,0.07,1.0,-3.1,0.2,0.0,0,0,,,,,,,,,,,,,,,,,,,
1608267,1480652863112,,,,,,,,-0.05,0.07,1.0,-3.1,0.2,0.0,0,0,,,,,,,,,,,,,,,,,,,
1608287,1480652863132,,,,,,,,-0.05,0.07,1.0,-3.1,0.2,0.0,0,0,,,,,,,,,,,,,,,,,,,
1608307,1480652863152,,,,,,,,-0.05,0.07,1.0,-3.1,0.2,0.0,0,0,,,,,,,,,,,,,,,,,,,
1608327,1480652863172,,,,,1,,,-0.05,0.07,1.0,-3.1,0.2,0.0,0,0,1,0,0.0,0,37.478367,-122.203728,0.0,0.0,13.5,9,3,1.7,0,0.0,-1,0.0,,0.0,0
1608347,1480652863192,,,,,,,,-0.05,0.07,1.0,-3.1,0.2,0.0,0,0,,,,,,,,,,,,,,,,,,,
1608367,1480652863212,,,,,,,,-0.05,0.07,1.0,-3.1,0.2,0.1,0,0,,,,,,,,,,,,,,,,,,,
1608387,1480652863232,,,,,,,,-0.05,0.07,1.0,-3.1,0.2,0.0,0,0,,,,,,,,,,,,,,,,,,,
1608407,1480652863252,,,,,,,,-0.05,0.07,1.0,-3.1,0.2,0.0,0,0,,,,,,,,,,,,,,,,,,,
1608427,1480652863272,0,46.6,,43.9,1,44.9,,-0.05,0.07,1.0,-3.1,0.2,0.1,0,0,1,0,0.0,0,37.478367,-122.203728,0.0,0.0,13.5,9,3,1.7,0,0.0,-1,0.0,0.0,0.0,0
1608447,1480652863292,,,,,,,,-0.05,0.07,1.0,-3.1,0.2,0.0,0,0,,,,,,,,,,,,,,,,,,,
1608467,1480652863312,,,,,,,,-0.05,0.07,1.0,-3.1,0.2,0.0,0,0,,,,,,,,,,,,,,,,,,,
1608487,1480652863332,,,,,,,,-0.05,0.07,1.0,-3.1,0.2,0.0,0,0,,,,,,,,,,,,,,,,,,,
1608507,1480652863352,,,,,,,,-0.05,0.07,1.0,-3.1,0.2,0.1,0,0,,,,,,,,,,,,,,,,,,,
1608527,1480652863372,,,,,0,,,-0.05,0.07,1.0,-3.1,0.2,0.1,0,0,1,0,0.0,0,37.478367,-122.203728,0.0,0.0,13.5,9,3,1.7,0,0.0,-1,0.0,,0.0,0
1608547,1480652863491,,,,,,,,-0.05,0.07,1.0,-3.1,0.2,0.0,0,0,,,,,,,,,,,,,,,,,,,
1608567,1480652863511,,,,,,,,-0.05,0.07,1.0,-3.1,0.2,0.0,0,0,,,,,,,,,,,,,,,,,,,
1608587,1480652863531,,,,,,,,-0.05,0.07,1.0,-3.1,0.2,0.0,0,0,,,,,,,,,,,,,,,,,,,
1608607,1480652863551,,,,,,,,-0.05,0.07,1.0,-3.1,0.2,0.0,0,0,,,,,,,,,,,,,,,,,,,
1608627,1480652863571,0,45.4,,44.5,1,46.4,,-0.05,0.07,1.0,-3.1,0.2,0.0,0,0,1,0,0.0,0,37.478367,-122.203728,0.0,0.0,13.5,9,3,1.7,0,0.0,-1,0.0,0.0,0.0,0
1608647,1480652863591,,,,,,,,-0.05,0.07,1.0,-3.1,0.2,-0.0,0,0,,,,,,,,,,,,,,,,,,,
1608667,1480652863611,,,,,,,,-0.04,0.07,1.0,-3.1,0.1,0.0,0,0,,,,,,,,,,,,,,,,,,,
1608687,1480652863631,,,,,,,,-0.05,0.05,1.0,-3.0,0.3,-0.0,0,0,,,,,,,,,,,,,,,,,,,
1608707,1480652863651,,,,,,,,-0.05,0.07,1.0,-3.1,0.3,0.0,0,0,,,,,,,,,,,,,,,,,,,
1608727,1480652863671,,,,,1,,,-0.05,0.08,1.0,-3.1,0.1,0.1,0,0,1,0,0.0,0,37.478367,-122.203728,0.0,0.0,13.5,9,3,1.7,0,0.0,-1,0.0,,0.0,0
1608747,1480652863592,,,,,,,,-0.04,0.08,1.0,-3.1,0.2,0.1,0,0,,,,,,,,,,,,,,,,,,,
1608767,1480652863612,,,,,,,,-0.05,0.09,1.01,-3.1,0.1,0.1,0,0,,,,,,,,,,,,,,,,,,,
1608787,1480652863632,,,,,,,,-0.05,0.1,1.01,-3.1,0.1,0.2,0,0,,,,,,,,,,,,,,,,,,,
1608807,1480652863652,,,,,,,,-0.04,0.1,1.01,-3.1,0.1,0.2,0,0,,,,,,,,,,,,,,,,,,,
1608827,1480652863672,0,46.3,,44.4,1,45.6,,-0.04,0.11,1.01,-3.1,0.1,0.2,0,0,1,0,0.0,0,37.478367,-122.203728,0.0,0.0,13.5,9,3,1.7,0,0.0,-1,0.0,0.0,0.0,0
1608847,1480652863692,,,,,,,,-0.04,0.11,1.01,-3.1,0.1,0.3,0,0,,,,,,,,,,,,,,,,,,,
1608867,1480652863712,,,,,,,,-0.04,0.11,1.01,-3.2,0.2,0.3,0,0,,,,,,,,,,,,,,,,,,,
1608887,1480652863732,,,,,,,,-0.04,0.11,1.02,-3.2,0.2,0.3,0,0,,,,,,,,,,,,,,,,,,,
1608907,1480652863752,,,,,,,,-0.04,0.11,1.02,-3.2,0.2,0.3,0,0,,,,,,,,,,,,,,,,,,,
1608927,1480652863772,,,,,0,,,-0.04,0.1,1.01,-3.2,0.2,0.3,0,0,1,0,0.0,0,37.478367,-122.203728,0.0,0.0,13.5,9,3,1.7,0,0.0,-1,0.0,,0.0,0
1608947,1480652863792,,,,,,,,-0.04,0.09,1.01,-3.2,0.2,0.2,0,0,,,,,,,,,,,,,,,,,,,
1608967,1480652863812,,,,,,,,-0.04,0.08,1.02,-3.1,0.2,0.2,0,0,,,,,,,,,,,,,,,,,,,
1608987,1480652863832,,,,,,,,-0.04,0.08,1.01,-3.1,0.2,0.2,0,0,,,,,,,,,,,,,,,,,,,
1609007,1480652863852,,,,,,,,-0.05,0.08,1.01,-3.1,0.2,0.2,0,0,,,,,,,,,,,,,,,,,,,
1609027,1480652863872,0,44.8,,42.4,1,43.6,,-0.05,0.08,1.01,-3.1,0.2,0.2,0,0,1,0,0.0,0,37.478367,-122.203728,0.0,0.0,13.5,9,3,1.7,0,0.0,-1,0.0,0.0,0.0,0
1609047,1480652863892,,,,,,,,-0.04,0.08,1.01,-3.1,0.3,0.2,0,0,,,,,,,,,,,,,,,,,,,
1609067,1480652863906,,,,,,,,-0.04,0.08,1.01,-3.1,0.3,0.3,0,0,,,,,,,,,,,,,,,,,,,
1609087,1480652863926,,,,,,,,-0.04,0.08,1.01,-3.1,0.2,0.3,0,0,,,,,,,,,,,,,,,,,,,
1609107,1480652863946,,,,,,,,-0.04,0.09,1.02,-3.1,0.2,0.3,0,0,,,,,,,,,,,,,,,,,,,
1609127,1480652863966,,,,,1,,,-0.04,0.09,1.02,-3.1,0.2,0.3,0,0,1,0,0.0,0,37.478367,-122.203728,0.0,0.0,13.5,9,3,1.7,0,0.0,-1,0.0,,0.0,0
1609147,1480652863986,,,,,,,,-0.04,0.09,1.01,-3.2,0.3,0.3,0,0,,,,,,,,,,,,,,,,,,,
1609167,1480652864010,,,,,,,,-0.04,0.08,1.01,-3.2,0.3,0.3,0,0,,,,,,,,,,,,,,,,,,,
1609187,1480652864030,,,,,,,,-0.04,0.08,1.02,-3.2,0.4,0.3,0,0,,,,,,,,,,,,,,,,,,,
1609207,1480652864050,,,,,,,,-0.03,0.08,1.02,-3.2,0.4,0.3,0,0,,,,,,,,,,,,,,,,,,,
1609227,1480652864070,0,43.8,0.0,43.3,0,46.8,9.3,-0.03,0.08,1.02,-3.2,0.3,0.3,0,0,1,0,0.0,0,37.478367,-122.203728,0.0,0.0,13.5,9,3,1.7,0,0.0,-1,0.0,0.0,0.0,0
1609247,1480652864092,,,,,,,,-0.04,0.08,1.02,-3.2,0.3,0.3,0,0,,,,,,,,,,,,,,,,,,,
1609267,1480652864112,,,,,,,,-0.04,0.07,1.02,-3.2,0.4,0.3,0,0,,,,,,,,,,,,,,,,,,,
1609287,1480652864132,,,,,,,,-0.04,0.07,1.02,-3.2,0.4,0.3,0,0,,,,,,,,,,,,,,,,,,,
1609307,1480652864152,,,,,,,,-0.04,0.07,1.01,-3.2,0.4,0.3,0,0,,,,,,,,,,,,,,,,,,,
1609327,1480652864172,,,,,1,,,-0.04,0.05,1.01,-3.2,0.4,0.2,0,0,1,0,0.0,0,37.478367,-122.203728,0.0,0.0,13.5,9,3,1.7,0,0.0,-1,0.0,,0.0,0
1609347,1480652864291,,,,,,,,-0.03,0.05,1.02,-3.2,0.5,0.1,0,0,,,,,,,,,,,,,,,,,,,
1609367,1480652864311,,,,,,,,-0.03,0.05,1.01,-3.2,0.5,0.1,0,0,,,,,,,,,,,,,,,,,,,
1609387,1480652864331,,,,,,,,-0.04,0.04,1.01,-3.2,0.5,0.1,220,0,,,,,,,,,,,,,,,,,,,
1609407,1480652864351,,,,,,,,-0.04,0.04,1.01,-3.1,0.4,0.0,220,0,,,,,,,,,,,,,,,,,,,
1609427,1480652864371,0,46.2,,44.5,1,45.8,,-0.04,0.04,1.01,-3.1,0.4,0.0,220,0,1,0,0.0,0,37.478367,-122.203728,0.0,0.0,13.5,9,3,1.7,0,0.0,-1,0.0,0.0,0.0,0
1609447,1480652864391,,,,,,,,-0.04,0.04,1.01,-3.1,0.4,0.1,220,0,,,,,,,,,,,,,,,,,,,
1609467,1480652864411,,,,,,,,-0.04,0.05,1.01,-3.1,0.4,0.1,220,0,,,,,,,,,,,,,,,,,,,
1609487,1480652864431,,,,,,,,-0.04,0.03,0.99,-3.1,0.4,0.0,220,0,,,,,,,,,,,,,,,,,,,
1609507,1480652864451,,,,,,,,-0.04,0.04,0.99,-3.1,0.4,-0.0,180,0,,,,,,,,,,,,,,,,,,,
1609527,1480652864471,,,,,1,,,-0.04,0.04,0.99,-3.1,0.5,-0.0,180,0,1,0,0.0,0,37.478367,-122.203728,0.0,0.0,13.5,9,3,1.7,0,0.0,-1,0.0,,0.0,0
1609547,1480652864391,,,,,,,,-0.04,0.04,0.99,-3.1,0.4,-0.0,180,0,,,,,,,,,,,,,,,,,,,
1609567,1480652864411,,,,,,,,-0.04,0.04,0.99,-3.1,0.4,0.0,180,0,,,,,,,,,,,,,,,,,,,
1609587,1480652864431,,,,,,,,-0.04,0.04,0.99,-3.1,0.4,0.0,240,0,,,,,,,,,,,,,,,,,,,
1609607,1480652864451,,,,,,,,-0.04,0.04,1.0,-3.1,0.4,0.0,240,0,,,,,,,,,,,,,,,,,,,
1609627,1480652864471,0,43.3,,41.9,0,46.4,,-0.04,0.05,1.0,-3.1,0.3,0.0,240,0,1,0,0.0,0,37.478367,-122.203728,0.0,0.0,13.5,9,3,1.7,0,0.0,-1,0.0,0.0,0.0,0
1609647,1480652864492,,,,,,,,-0.05,0.06,0.99,-3.1,0.3,0.1,240,0,,,,,,,,,,,,,,,,,,,
1609667,1480652864512,,,,,,,,-0.04,0.06,1.0,-3.1,0.3,0.1,240,0,,,,,,,,,,,,,,,,,,,
1609687,1480652864532,,,,,,,,-0.05,0.06,1.0,-3.1,0.3,0.1,240,0,,,,,,,,,,,,,,,,,,,
1609707,1480652864552,,,,,,,,-0.05,0.07,1.0,-3.1,0.4,0.2,340,0,,,,,,,,,,,,,,,,,,,
1609727,1480652864572,,,,,1,,,-0.05,0.06,1.0,-3.1,0.3,0.2,340,0,1,0,0.0,0,37.478367,-122.203728,0.0,0.0,13.5,9,3,1.7,0,0.0,-1,0.0,,0.0,0
1609747,1480652864592,,,,,,,,-0.04,0.06,1.0,-3.1,0.3,0.2,340,0,,,,,,,,,,,,,,,,,,,
1609767,1480652864612,,,,,,,,-0.04,0.06,1.0,-3.1,0.3,0.2,380,0,,,,,,,,,,,,,,,,,,,
1609787,1480652864632,,,,,,,,-0.05,0.06,1.0,-3.1,0.3,0.1,380,0,,,,,,,,,,,,,,,,,,,
1609807,1480652864652,,,,,,,,-0.05,0.06,1.0,-3.1,0.2,0.1,380,0,,,,,,,,,,,,,,,,,,,
1609827,1480652864672,0,44.0,,41.2,0,44.9,,-0.05,0.04,1.0,-3.1,0.2,0.0,280,0,1,0,0.0,0,37.478367,-122.203728,0.0,0.0,13.5,9,3,1.7,0,0.0,-1,0.0,0.0,0.0,0
1609847,1480652864692,,,,,,,,-0.05,0.05,1.0,-3.1,0.3,-0.0,280,0,,,,,,,,,,,,,,,,,,,
1609867,1480652864712,,,,,,,,-0.05,0.04,0.99,-3.1,0.4,-0.0,280,0,,,,,,,,,,,,,,,,,,,
1609887,1480652864732,,,,,,,,-0.04,0.05,0.99,-3.2,0.4,0.1,280,0,,,,,,,,,,,,,,,,,,,
1609907,1480652864752,,,,,,,,-0.04,0.07,0.99,-3.2,0.4,0.1,240,0,,,,,,,,,,,,,,,,,,,
1609927,1480652864772,,,,,1,,,-0.05,0.07,1.0,-3.2,0.3,0.2,240,0,1,0,0.0,0,37.478367,-122.203728,0.0,0.0,13.5,9,3,1.7,0,0.0,-1,0.0,,0.0,0
1609947,1480652864792,,,,,,,,-0.05,0.09,1.0,-3.1,0.3,0.1,240,0,,,,,,,,,,,,,,,,,,,
1609967,1480652864812,,,,,,,,-0.04,0.09,1.0,-3.2,0.4,0.1,240,0,,,,,,,,,,,,,,,,,,,
1609987,1480652864832,,,,,,,,-0.04,0.1,1.0,-3.2,0.3,0.2,240,0,,,,,,,,,,,,,,,,,,,
1610007,1480652864852,,,,,,,,-0.04,0.09,1.0,-3.2,0.2,0.2,220,0,,,,,,,,,,,,,,,,,,,
1610027,1480652864872,0,45.4,,42.7,1,43.7,,-0.05,0.09,1.01,-3.1,0.2,0.2,220,0,1,0,0.0,0,37.478367,-122.203728,0.0,0.0,13.5,9,3,1.7,0,0.0,-1,0.0,0.0,0.0,0
1610047,1480652864892,,,,,,,,-0.04,0.1,1.01,-3.1,0.3,0.2,220,10,,,,,,,,,,,,,,,,,,,
1610067,1480652864906,,,,,,,,-0.04,0.08,1.01,-3.1,0.2,0.1,220,10,,,,,,,,,,,,,,,,,,,
1610087,1480652864926,,,,,,,,-0.04,0.08,1.01,-3.1,0.2,0.0,220,10,,,,,,,,,,,,,,,,,,,
1610107,1480652864946,,,,,,,,-0.04,0.07,1.01,-3.1,0.3,0.0,220,769230,,,,,,,,,,,,,,,,,,,
1610127,1480652864966,,,,,0,,,-0.04,0.07,1.01,-3.1,0.2,0.0,220,0,1,0,0.0,0,37.478367,-122.203728,0.0,0.0,13.5,9,3,1.7,0,0.0,-1,0.0,,0.0,0
1610147,1480652865091,,,,,,,,-0.04,0.07,1.01,-3.1,0.2,0.0,220,0,,,,,,,,,,,,,,,,,,,
1610167,1480652865111,,,,,,,,-0.04,0.07,1.01,-3.1,0.2,0.1,220,0,,,,,,,,,,,,,,,,,,,
1610187,1480652865131,,,,,,,,-0.04,0.06,1.01,-3.1,0.3,0.1,180,0,,,,,,,,,,,,,,,,,,,
1610207,1480652865151,,,,,,,,-0.04,0.06,1.0,-3.1,0.2,0.0,180,0,,,,,,,,,,,,,,,,,,,
1610227,1480652865171,0,43.6,0.0,42.4,0,47.2,12.01,-0.04,0.06,1.0,-3.1,0.2,0.0,180,0,1,0,0.0,0,37.478367,-122.203728,0.0,0.0,13.5,9,3,1.7,0,0.0,-1,0.0,0.0,0.0,0
1610247,1480652865191,,,,,,,,-0.04,0.07,1.0,-3.1,0.2,0.0,180,0,,,,,,,,,,,,,,,,,,,
1610267,1480652865211,,,,,,,,-0.04,0.07,1.0,-3.1,0.2,0.0,180,0,,,,,,,,,,,,,,,,,,,
1610287,1480652865231,,,,,,,,-0.04,0.07,1.0,-3.1,0.2,0.0,180,0,,,,,,,,,,,,,,,,,,,
1610307,1480652865251,,,,,,,,-0.04,0.06,1.0,-3.1,0.2,0.0,180,0,,,,,,,,,,,,,,,,,,,
1610327,1480652865271,,,,,0,,,-0.05,0.06,1.0,-3.1,0.2,0.0,0,0,1,0,0.0,0,37.478367,-122.203728,0.0,0.0,13.5,9,3,1.7,0,0.0,-1,0.0,,0.0,0
1610347,1480652865192,,,,,,,,-0.05,0.06,1.0,-3.1,0.2,0.0,0,0,,,,,,,,,,,,,,,,,,,
1610367,1480652865212,,,,,,,,-0.05,0.07,1.0,-3.1,0.2,0.0,0,0,,,,,,,,,,,,,,,,,,,
1610387,1480652865232,,,,,,,,-0.05,0.07,1.0,-3.1,0.2,0.0,0,0,,,,,,,,,,,,,,,,,,,
1610407,1480652865252,,,,,,,,-0.05,0.07,1.0,-3.1,0.2,0.1,0,0,,,,,,,,,,,,,,,,,,,
1610427,1480652865272,0,46.8,,44.4,1,45.5,,-0.04,0.06,1.0,-3.1,0.2,0.0,0,0,1,0,0.0,0,37.478367,-122.203728,0.0,0.0,13.5,9,3,1.7,0,0.0,-1,0.0,0.0,0.0,0
1610447,1480652865292,,,,,,,,-0.05,0.06,1.0,-3.1,0.2,0.0,0,0,,,,,,,,,,,,,,,,,,,
1610467,1480652865312,,,,,,,,-0.05,0.06,1.0,-3.1,0.2,0.0,0,0,,,,,,,,,,,,,,,,,,,
1610487,1480652865332,,,,,,,,-0.05,0.07,1.0,-3.1,0.2,0.0,500,0,,,,,,,,,,,,,,,,,,,
1610507,1480652865352,,,,,,,,-0.05,0.07,1.0,-3.1,0.2,0.0,500,0,,,,,,,,,,,,,,,,,,,
1610527,1480652865372,,,,,1,,,-0.04,0.07,1.0,-3.1,0.2,0.1,500,0,1,0,0.0,0,37.478367,-122.203728,0.0,0.0,13.5,9,3,1.7,0,0.0,-1,0.0,,0.0,0
1610547,1480652865392,,,,,,,,-0.04,0.07,1.0,-3.1,0.2,0.1,500,0,,,,,,,,,,,,,,,,,,,
1610567,1480652865412,,,,,,,,-0.04,0.07,1.0,-3.1,0.2,0.0,500,0,,,,,,,,,,,,,,,,,,,
1610587,1480652865432,,,,,,,,-0.05,0.07,1.0,-3.1,0.2,0.0,500,0,,,,,,,,,,,,,,,,,,,
1610607,1480652865452,,,,,,,,-0.05,0.07,1.0,-3.1,0.2,0.0,500,0,,,,,,,,,,,,,,,,,,,
1610627,1480652865472,0,44.8,,41.1,1,44.0,,-0.05,0.07,1.0,-3.1,0.2,0.0,20000000,0,1,0,0.0,0,37.478367,-122.203728,0.0,0.0,13.5,9,3,1.7,0,0.0,-1,0.0,0.0,0.0,0
1610647,1480652865492,,,,,,,,-0.05,0.07,1.0,-3.1,0.2,0.0,0,0,,,,,,,,,,,,,,,,,,,
1610667,1480652865512,,,,,,,,-0.05,0.07,1.0,-3.1,0.2,0.0,0,0,,,,,,,,,,,,,,,,,,,
1610687,1480652865532,,,,,,,,-0.05,0.07,1.0,-3.1,0.2,0.0,0,0,,,,,,,,,,,,,,,,,,,
1610707,1480652865552,,,,,,,,-0.05,0.07,1.0,-3.1,0.2,0.0,0,0,,,,,,,,,,,,,,,,,,,
1610727,1480652865572,,,,,0,,,-0.05,0.07,1.0,-3.1,0.2,0.0,0,0,1,0,0.0,0,37.478367,-122.203728,0.0,0.0,13.5,9,3,1.7,0,0.0,-1,0.0,,0.0,0
1610747,1480652865592,,,,,,,,-0.05,0.07,1.0,-3.1,0.2,0.0,0,0,,,,,,,,,,,,,,,,,,,
1610767,1480652865612,,,,,,,,-0.05,0.07,1.0,-3.1,0.2,0.0,0,0,,,,,,,,,,,,,,,,,,,
1610787,1480652865632,,,,,,,,-0.05,0.07,1.0,-3.1,0.2,0.0,0,0,,,,,,,,,,,,,,,,,,,
1610807,1480652865652,,,,,,,,-0.05,0.07,1.0,-3.1,0.2,0.0,0,0,,,,,,,,,,,,,,,,,,,
1610827,1480652865672,0,45.3,,44.5,0,46.6,,-0.05,0.07,1.0,-3.1,0.2,0.0,0,0,1,0,0.0,0,37.478367,-122.203728,0.0,0.0,13.5,9,3,1.7,0,0.0,-1,0.0,0.0,0.0,0
1610847,1480652865692,,,,,,,,-0.05,0.07,1.0,-3.1,0.2,0.0,0,0,,,,,,,,,,,,,,,,,,,
1610867,1480652865712,,,,,,,,-0.05,0.07,1.0,-3.1,0.2,0.0,0,0,,,,,,,,,,,,,,,,,,,
1610887,1480652865732,,,,,,,,-0.05,0.07,1.0,-3.1,0.2,0.0,0,0,,,,,,,,,,,,,,,,,,,
1610907,1480652865752,,,,,,,,-0.05,0.07,1.0,-3.1,0.2,0.0,0,0,,,,,,,,,,,,,,,,,,,
1610927,1480652865772,,,,,0,,,-0.05,0.07,1.0,-3.1,0.2,0.0,0,0,1,0,0.0,0,37.478367,-122.203728,0.0,0.0,13.5,9,3,1.7,0,0.0,-1,0.0,,0.0,0
1610947,1480652865891,,,,,,,,-0.05,0.07,1.0,-3.1,0.2,0.0,0,0,,,,,,,,,,,,,,,,,,,
1610967,1480652865911,,,,,,,,-0.05,0.07,1.0,-3.1,0.2,0.0,0,0,,,,,,,,,,,,,,,,,,,
1610987,1480652865931,,,,,,,,-0.05,0.07,1.0,-3.1,0.2,0.0,0,0,,,,,,,,,,,,,,,,,,,
1611007,1480652865951,,,,,,,,-0.05,0.06,1.0,-3.1,0.2,0.0,0,0,,,,,,,,,,,,,,,,,,,
1611027,1480652865971,0,46.6,,43.9,1,44.9,,-0.05,0.07,1.0,-3.1,0.2,0.0,0,0,1,0,0.0,0,37.478367,-122.203728,0.0,0.0,13.5,9,3,1.7,0,0.0,-1,0.0,0.0,0.0,0
1611047,1480652865991,,,,,,,,-0.05,0.07,1.0,-3.1,0.2,0.0,0,0,,,,,,,,,,,,,,,,,,,
1611067,1480652866011,,,,,,,,-0.05,0.07,1.0,-3.1,0.2,0.0,0,0,,,,,,,,,,,,,,,,,,,
1611087,1480652866031,,,,,,,,-0.05,0.07,1.0,-3.1,0.2,0.0,0,0,,,,,,,,,,,,,,,,,,,
1611107,1480652866051,,,,,,,,-0.05,0.07,1.0,-3.1,0.2,-0.0,0,0,,,,,,,,,,,,,,,,,,,
1611127,1480652866071,,,,,1,,,-0.05,0.07,1.0,-3.1,0.2,-0.0,0,0,1,0,0.0,0,37.478367,-122.203728,0.0,0.0,13.5,9,3,1.7,0,0.0,-1,0.0,,0.0,0
1611147,1480652865992,,,,,,,,-0.05,0.07,1.0,-3.1,0.2,-0.0,0,0,,,,,,,,,,,,,,,,,,,
1611167,1480652866012,,,,,,,,-0.05,0.07,1.0,-3.1,0.2,-0.0,0,0,,,,,,,,,,,,,,,,,,,
1611187,1480652866032,,,,,,,,-0.05,0.07,1.0,-3.1,0.2,-0.0,0,0,,,,,,,,,,,,,,,,,,,
1611207,1480652866052,,,,,,,,-0.05,0.07,1.0,-3.1,0.2,-0.0,0,0,,,,,,,,,,,,,,,,,,,
1611227,1480652866072,0,44.0,0.0,41.0,0,44.8,12.16,-0.05,0.07,1.0,-3.1,0.2,-0.0,0,0,1,0,0.0,0,37.478367,-122.203728,0.0,0.0,13.5,9,3,1.7,0,0.0,-1,0.0,0.0,0.0,0
1611247,1480652866092,,,,,,,,-0.05,0.07,1.0,-3.1,0.3,-0.0,0,0,,,,,,,,,,,,,,,,,,,
1611267,1480652866112,,,,,,,,-0.05,0.07,1.0,-3.1,0.3,-0.0,0,0,,,,,,,,,,,,,,,,,,,
1611287,1480652866132,,,,,,,,-0.05,0.07,1.0,-3.1,0.2,-0.0,0,0,,,,,,,,,,,,,,,,,,,
1611307,1480652866152,,,,,,,,-0.05,0.07,1.0,-3.1,0.2,-0.0,0,0,,,,,,,,,,,,,,,,,,,
1611327,1480652866172,,,,,1,,,-0.05,0.07,1.0,-3.1,0.2,-0.0,0,0,1,0,0.0,0,37.478367,-122.203728,0.0,0.0,13.5,9,3,1.7,0,0.0,-1,0.0,,0.0,0
1611347,1480652866192,,,,,,,,-0.05,0.07,1.0,-3.1,0.2,-0.0,0,0,,,,,,,,,,,,,,,,,,,
1611367,1480652866212,,,,,,,,-0.05,0.07,1.0,-3.1,0.2,-0.0,0,0,,,,,,,,,,,,,,,,,,,
1611387,1480652866232,,,,,,,,-0.05,0.07,1.0,-3.1,0.2,-0.0,0,0,,,,,,,,,,,,,,,,,,,
1611407,1480652866252,,,,,,,,-0.05,0.07,1.0,-3.1,0.2,-0.0,0,0,,,,,,,,,,,,,,,,,,,
1611427,1480652866272,0,45.1,,41.5,0,43.6,,-0.05,0.07,1.0,-3.1,0.2,-0.0,0,0,1,0,0.0,0,37.478367,-122.203728,0.0,0.0,13.5,9,3,1.7,0,0.0,-1,0.0,0.0,0.0,0
1611447,1480652866292,,,,,,,,-0.05,0.07,1.0,-3.1,0.2,-0.0,0,0,,,,,,,,,,,,,,,,,,,
1611467,1480652866312,,,,,,,,-0.05,0.07,1.0,-3.1,0.2,-0.0,0,0,,,,,,,,,,,,,,,,,,,
1611487,1480652866332,,,,,,,,-0.05,0.07,1.0,-3.1,0.2,-0.0,0,0,,,,,,,,,,,,,,,,,,,
1611507,1480652866352,,,,,,,,-0.05,0.07,1.0,-3.1,0.2,-0.0,0,0,,,,,,,,,,,,,,,,,,,
1611527,1480652866372,,,,,0,,,-0.05,0.07,1.0,-3.1,0.2,0.0,0,0,1,0,0.0,0,37.478367,-122.203728,0.0,0.0,13.5,9,3,1.7,0,0.0,-1,0.0,,0.0,0
1611547,1480652866392,,,,,,,,-0.05,0.07,1.0,-3.1,0.2,0.0,0,0,,,,,,,,,,,,,,,,,,,
1611567,1480652866412,,,,,,,,-0.05,0.07,1.0,-3.1,0.2,0.0,0,0,,,,,,,,,,,,,,,,,,,
1611587,1480652866432,,,,,,,,-0.05,0.07,1.0,-3.1,0.2,-0.0,0,0,,,,,,,,,,,,,,,,,,,
1611607,1480652866452,,,,,,,,-0.05,0.07,1.0,-3.1,0.2,-0.0,0,0,,,,,,,,,,,,,,,,,,,
1611627,1480652866472,0,43.5,,41.1,0,45.3,,-0.05,0.07,1.0,-3.1,0.2,-0.0,0,0,1,0,0.0,0,37.478367,-122.203728,0.0,0.0,13.5,9,3,1.7,0,0.0,-1,0.0,0.0,0.0,0
1611647,1480652866492,,,,,,,,-0.05,0.07,1.0,-3.1,0.2,-0.0,0,0,,,,,,,,,,,,,,,,,,,
1611667,1480652866512,,,,,,,,-0.05,0.07,1.0,-3.1,0.2,-0.0,0,0,,,,,,,,,,,,,,,,,,,
1611687,1480652866532,,,,,,,,-0.05,0.07,1.0,-3.1,0.2,-0.0,0,0,,,,,,,,,,,,,,,,,,,
1611707,1480652866552,,,,,,,,-0.05,0.07,1.0,-3.1,0.2,-0.0,0,0,,,,,,,,,,,,,,,,,,,
1611727,1480652866572,,,,,0,,,-0.05,0.07,1.0,-3.1,0.2,0.0,0,0,1,0,0.0,0,37.478367,-122.203728,0.0,0.0,13.5,9,3,1.7,0,0.0,-1,0.0,,0.0,0
1611747,1480652866691,,,,,,,,-0.05,0.07,1.0,-3.1,0.2,0.0,0,0,,,,,,,,,,,,,,,,,,,
1611767,1480652866711,,,,,,,,-0.05,0.07,1.0,-3.1,0.2,0.0,0,0,,,,,,,,,,,,,,,,,,,
1611787,1480652866731,,,,,,,,-0.05,0.07,1.0,-3.1,0.2,0.0,0,0,,,,,,,,,,,,,,,,,,,
1611807,1480652866751,,,,,,,,-0.05,0.07,1.0,-3.1,0.2,0.0,0,0,,,,,,,,,,,,,,,,,,,
1611827,1480652866771,0,43.6,,42.6,1,43.3,,-0.05,0.07,1.0,-3.1,0.2,0.0,0,0,1,0,0.0,0,37.478367,-122.203728,0.0,0.0,13.5,9,3,1.7,0,0.0,-1,0.0,0.0,0.0,0
1611847,1480652866791,,,,,,,,-0.05,0.07,1.0,-3.1,0.2,0.1,0,0,,,,,,,,,,,,,,,,,,,
1611867,1480652866811,,,,,,,,-0.05,0.07,1.0,-3.1,0.2,0.0,0,0,,,,,,,,,,,,,,,,,,,
1611887,1480652866831,,,,,,,,-0.05,0.06,1.0,-3.1,0.2,0.0,0,0,,,,,,,,,,,,,,,,,,,
1611907,1480652866851,,,,,,,,-0.05,0.05,1.0,-3.1,0.2,0.0,0,0,,,,,,,,,,,,,,,,,,,
1611927,1480652866871,,,,,0,,,-0.05,0.04,0.99,-3.1,0.2,-0.1,0,0,1,0,0.0,0,37.478367,-122.203728,0.0,0.0,13.5,9,3,1.7,0,0.0,-1,0.0,,0.0,0
1611947,1480652866792,,,,,,,,-0.05,0.03,0.99,-3.1,0.2,-0.2,0,0,,,,,,,,,,,,,,,,,,,
1611967,1480652866812,,,,,,,,-0.05,0.02,0.98,-3.1,0.4,-0.2,0,0,,,,,,,,,,,,,,,,,,,
1611987,1480652866832,,,,,,,,-0.05,0.02,0.98,-3.1,0.4,-0.2,0,0,,,,,,,,,,,,,,,,,,,
1612007,1480652866852,,,,,,,,-0.05,0.01,0.98,-3.1,0.4,-0.2,0,0,,,,,,,,,,,,,,,,,,,
1612027,1480652866872,0,43.9,,41.7,0,45.6,,-0.06,0.01,0.98,-3.1,0.5,-0.2,0,0,1,0,0.0,0,37.478367,-122.203728,0.0,0.0,13.5,9,3,1.7,0,0.0,-1,0.0,0.0,0.0,0
1612047,1480652866892,,,,,,,,-0.06,0.02,0.98,-3.0,0.4,-0.2,0,0,,,,,,,,,,,,,,,,,,,
1612067,1480652866907,,,,,,,,-0.06,0.02,0.98,-3.1,0.4,-0.2,0,0,,,,,,,,,,,,,,,,,,,
1612087,1480652866927,,,,,,,,-0.06,0.03,0.98,-3.1,0.4,-0.1,0,0,,,,,,,,,,,,,,,,,,,
1612107,1480652866947,,,,,,,,-0.06,0.04,0.98,-3.1,0.3,-0.1,0,0,,,,,,,,,,,,,,,,,,,
1612127,1480652866967,,,,,0,,,-0.06,0.04,0.98,-3.1,0.3,-0.1,0,0,1,0,0.0,0,37.478367,-122.203728,0.0,0.0,13.5,9,3,1.7,0,0.0,-1,0.0,,0.0,0
1612147,1480652866993,,,,,,,,-0.05,0.04,0.98,-3.1,0.3,-0.0,0,0,,,,,,,,,,,,,,,,,,,
1612167,1480652867013,,,,,,,,-0.05,0.04,0.98,-3.1,0.3,-0.0,0,0,,,,,,,,,,,,,,,,,,,
1612187,1480652867033,,,,,,,,-0.05,0.04,0.98,-3.1,0.3,-0.1,0,0,,,,,,,,,,,,,,,,,,,
1612207,1480652867053,,,,,,,,-0.05,0.04,0.98,-3.1,0.3,-0.0,0,0,,,,,,,,,,,,,,,,,,,
1612227,1480652867073,0,45.8,0.0,44.1,0,46.1,9.01,-0.05,0.04,0.98,-3.1,0.3,-0.0,0,0,1,0,0.0,0,37.478367,-122.203728,0.0,0.0,13.5,9,3,1.7,0,0.0,-1,0.0,0.0,0.0,0
1612247,1480652867092,,,,,,,,-0.05,0.04,0.99,-3.1,0.3,-0.0,0,0,,,,,,,,,,,,,,,,,,,
1612267,1480652867112,,,,,,,,-0.05,0.05,0.99,-3.1,0.3,-0.0,320,0,,,,,,,,,,,,,,,,,,,
1612287,1480652867132,,,,,,,,-0.05,0.05,0.99,-3.1,0.3,-0.1,320,0,,,,,,,,,,,,,,,,,,,
1612307,1480652867152,,,,,,,,-0.05,0.06,0.99,-3.1,0.2,-0.0,320,0,,,,,,,,,,,,,,,,,,,
1612327,1480652867172,,,,,1,,,-0.05,0.06,0.99,-3.2,0.2,0.0,280,0,1,0,0.0,0,37.478367,-122.203728,0.0,0.0,13.5,9,3,1.7,0,0.0,-1,0.0,,0.0,0
1612347,1480652867192,,,,,,,,-0.05,0.04,1.0,-3.2,0.4,-0.0,280,0,,,,,,,,,,,,,,,,,,,
1612367,1480652867212,,,,,,,,-0.05,0.05,1.0,-3.2,0.3,0.1,480,0,,,,,,,,,,,,,,,,,,,
1612387,1480652867232,,,,,,,,-0.05,0.05,1.0,-3.2,0.2,0.1,480,0,,,,,,,,,,,,,,,,,,,
1612407,1480652867252,,,,,,,,-0.05,0.06,1.0,-3.2,0.3,0.0,560,0,,,,,,,,,,,,,,,,,,,
1612427,1480652867272,0,43.7,,41.1,0,45.2,,-0.05,0.06,0.99,-3.2,0.4,0.1,560,0,1,0,0.0,0,37.478367,-122.203728,0.0,0.0,13.5,9,3,1.7,0,0.0,-1,0.0,0.0,0.0,0
1612447,1480652867292,,,,,,,,-0.05,0.06,0.99,-3.2,0.3,0.1,520,0,,,,,,,,,,,,,,,,,,,
1612467,1480652867312,,,,,,,,-0.05,0.06,1.0,-3.2,0.3,0.1,520,0,,,,,,,,,,,,,,,,,,,
1612487,1480652867332,,,,,,,,-0.04,0.06,1.0,-3.2,0.2,0.0,480,0,,,,,,,,,,,,,,,,,,,
1612507,1480652867352,,,,,,,,-0.04,0.06,1.0,-3.2,0.3,0.0,480,0,,,,,,,,,,,,,,,,,,,
1612527,1480652867372,,,,,0,,,-0.04,0.06,1.0,-3.1,0.3,0.0,500,0,1,0,0.0,0,37.478367,-122.203728,0.0,0.0,13.5,9,3,1.7,0,0.0,-1,0.0,,0.0,0
1612547,1480652867492,,,,,,,,-0.04,0.05,1.0,-3.1,0.3,-0.0,500,0,,,,,,,,,,,,,,,,,,,
1612567,1480652867512,,,,,,,,-0.04,0.05,1.0,-3.1,0.3,-0.0,540,0,,,,,,,,,,,,,,,,,,,
1612587,1480652867532,,,,,,,,-0.04,0.06,0.99,-3.1,0.3,-0.0,560,0,,,,,,,,,,,,,,,,,,,
1612607,1480652867552,,,,,,,,-0.04,0.05,0.99,-3.1,0.3,-0.1,560,0,,,,,,,,,,,,,,,,,,,
1612627,1480652867572,0,43.1,,40.5,1,44.3,,-0.04,0.06,0.99,-3.1,0.3,-0.1,500,0,1,0,0.0,0,37.478367,-122.203728,0.0,0.0,13.5,9,3,1.7,0,0.0,-1,0.0,0.0,0.0,0
1612647,1480652867592,,,,,,,,-0.05,0.06,1.0,-3.1,0.3,-0.1,500,0,,,,,,,,,,,,,,,,,,,
1612667,1480652867612,,,,,,,,-0.05,0.07,1.0,-3.1,0.3,-0.0,480,0,,,,,,,,,,,,,,,,,,,
1612687,1480652867632,,,,,,,,-0.05,0.07,1.0,-3.1,0.3,-0.0,480,0,,,,,,,,,,,,,,,,,,,
1612707,1480652867652,,,,,,,,-0.05,0.08,1.0,-3.2,0.3,0.0,480,0,,,,,,,,,,,,,,,,,,,
1612727,1480652867672,,,,,0,,,-0.05,0.07,1.0,-3.1,0.3,-0.0,440,0,1,0,0.0,0,37.478367,-122.203728,0.0,0.0,13.5,9,3,1.7,0,0.0,-1,0.0,,0.0,0
1612747,1480652867592,,,,,,,,-0.05,0.06,1.0,-3.1,0.3,-0.1,440,0,,,,,,,,,,,,,,,,,,,
1612767,1480652867612,,,,,,,,-0.05,0.06,1.0,-3.1,0.3,-0.1,440,0,,,,,,,,,,,,,,,,,,,
1612787,1480652867632,,,,,,,,-0.05,0.06,1.0,-3.1,0.4,-0.0,440,0,,,,,,,,,,,,,,,,,,,
1612807,1480652867652,,,,,,,,-0.05,0.05,1.0,-3.1,0.3,-0.0,460,0,,,,,,,,,,,,,,,,,,,
1612827,1480652867672,0,45.9,,44.2,1,45.4,,-0.05,0.04,1.0,-3.1,0.3,-0.0,460,0,1,0,0.0,0,37.478367,-122.203728,0.0,0.0,13.5,9,3,1.7,0,0.0,-1,0.0,0.0,0.0,0
1612847,1480652867692,,,,,,,,-0.05,0.05,1.0,-3.2,0.4,-0.0,500,0,,,,,,,,,,,,,,,,,,,
1612867,1480652867712,,,,,,,,-0.04,0.04,1.01,-3.1,0.5,-0.1,500,0,,,,,,,,,,,,,,,,,,,
1612887,1480652867732,,,,,,,,-0.04,0.05,1.01,-3.1,0.4,-0.1,580,0,,,,,,,,,,,,,,,,,,,
1612907,1480652867752,,,,,,,,-0.04,0.06,1.0,-3.1,0.3,-0.0,600,0,,,,,,,,,,,,,,,,,,,
1612927,1480652867772,,,,,1,,,-0.04,0.06,1.0,-3.1,0.3,-0.0,600,0,1,0,0.0,0,37.478367,-122.203728,0.0,0.0,13.5,9,3,1.7,0,0.0,-1,0.0,,0.0,0
1612947,1480652867792,,,,,,,,-0.04,0.07,1.0,-3.1,0.3,0.0,660,0,,,,,,,,,,,,,,,,,,,
1612967,1480652867812,,,,,,,,-0.05,0.07,1.01,-3.1,0.3,0.1,680,0,,,,,,,,,,,,,,,,,,,
1612987,1480652867832,,,,,,,,-0.05,0.07,1.01,-3.1,0.2,0.0,680,0,,,,,,,,,,,,,,,,,,,
1613007,1480652867852,,,,,,,,-0.05,0.07,1.0,-3.1,0.3,-0.0,680,0,,,,,,,,,,,,,,,,,,,
1613027,1480652867872,0,43.5,,41.0,1,44.6,,-0.05,0.07,1.0,-3.1,0.3,0.0,720,0,1,0,0.0,0,37.478367,-122.203728,0.0,0.0,13.5,9,3,1.7,0,0.0,-1,0.0,0.0,0.0,0
1613047,1480652867892,,,,,,,,-0.05,0.06,1.01,-3.1,0.4,-0.0,740,0,,,,,,,,,,,,,,,,,,,
1613067,1480652867906,,,,,,,,-0.05,0.06,1.01,-3.1,0.3,-0.1,780,0,,,,,,,,,,,,,,,,,,,
1613087,1480652867926,,,,,,,,-0.05,0.06,1.01,-3.1,0.4,-0.0,780,0,,,,,,,,,,,,,,,,,,,
1613107,1480652867946,,,,,,,,-0.04,0.06,1.01,-3.1,0.5,-0.0,800,0,,,,,,,,,,,,,,,,,,,
1613127,1480652867966,,,,,2,,,-0.04,0.06,1.0,-3.1,0.4,0.0,820,0,1,0,0.0,0,37.478367,-122.203728,0.0,0.0,13.5,9,3,1.7,0,0.0,-1,0.0,,0.0,0
1613147,1480652867993,,,,,,,,-0.05,0.06,1.01,-3.1,0.5,-0.0,820,0,,,,,,,,,,,,,,,,,,,
1613167,1480652868013,,,,,,,,-0.05,0.07,1.0,-3.1,0.4,-0.0,840,0,,,,,,,,,,,,,,,,,,,
1613187,1480652868033,,,,,,,,-0.05,0.06,1.01,-3.1,0.3,-0.1,880,0,,,,,,,,,,,,,,,,,,,
1613207,1480652868053,,,,,,,,-0.05,0.06,1.0,-3.1,0.4,-0.1,880,0,,,,,,,,,,,,,,,,,,,
1613227,1480652868073,0,45.3,0.0,41.7,1,46.4,14.86,-0.05,0.06,1.0,-3.1,0.3,-0.1,880,0,1,0,0.0,0,37.478367,-122.203728,0.0,0.0,13.5,9,3,1.7,0,0.0,-1,0.0,0.0,0.0,0
1613247,1480652868092,,,,,,,,-0.05,0.06,1.0,-3.1,0.2,-0.0,900,0,,,,,,,,,,,,,,,,,,,
1613267,1480652868112,,,,,,,,-0.04,0.07,1.0,-3.1,0.4,-0.0,920,0,,,,,,,,,,,,,,,,,,,
1613287,1480652868132,,,,,,,,-0.04,0.07,1.0,-3.1,0.6,0.1,940,0,,,,,,,,,,,,,,,,,,,
1613307,1480652868152,,,,,,,,-0.04,0.08,1.0,-3.1,0.2,0.1,940,0,,,,,,,,,,,,,,,,,,,
1613327,1480652868172,,,,,1,,,-0.04,0.09,1.0,-3.1,-0.1,0.2,960,0,1,0,0.0,0,37.478367,-122.203728,0.0,0.0,13.5,9,3,1.7,0,0.0,-1,0.0,,0.0,0
1613347,1480652868292,,,,,,,,-0.05,0.1,1.01,-3.2,-0.3,0.2,960,0,,,,,,,,,,,,,,,,,,,
1613367,1480652868312,,,,,,,,-0.05,0.1,1.01,-3.2,-0.3,0.2,980,0,,,,,,,,,,,,,,,,,,,
1613387,1480652868332,,,,,,,,-0.06,0.1,1.01,-3.2,-0.3,0.2,1000,0,,,,,,,,,,,,,,,,,,,
1613407,1480652868352,,,,,,,,-0.06,0.11,1.01,-3.2,-0.4,0.3,1000,0,,,,,,,,,,,,,,,,,,,
1613427,1480652868372,0,43.0,,41.3,1,43.7,,-0.06,0.11,1.02,-3.2,-0.3,0.3,1000,0,1,0,0.0,0,37.478367,-122.203728,0.0,0.0,13.5,9,3,1.7,0,0.0,-1,0.0,0.0,0.0,0
1613447,1480652868392,,,,,,,,-0.06,0.12,1.02,-3.2,-0.4,0.3,1020,0,,,,,,,,,,,,,,,,,,,
1613467,1480652868412,,,,,,,,-0.06,0.12,1.02,-3.2,-0.5,0.4,1020,0,,,,,,,,,,,,,,,,,,,
1613487,1480652868432,,,,,,,,-0.06,0.13,1.01,-3.2,-0.6,0.4,1020,0,,,,,,,,,,,,,,,,,,,
1613507,1480652868452,,,,,,,,-0.06,0.14,1.01,-3.2,-0.7,0.4,1040,0,,,,,,,,,,,,,,,,,,,
1613527,1480652868472,,,,,2,,,-0.05,0.14,1.01,-3.2,-0.7,0.4,1060,0,1,0,0.0,0,37.478367,-122.203728,0.0,0.0,13.5,9,3,1.7,0,0.0,-1,0.0,,0.0,0
1613547,1480652868392,,,,,,,,-0.04,0.14,1.01,-3.2,-0.6,0.5,1060,0,,,,,,,,,,,,,,,,,,,
1613567,1480652868412,,,,,,,,-0.04,0.12,1.02,-3.2,-0.5,0.4,1060,0,,,,,,,,,,,,,,,,,,,
1613587,1480652868432,,,,,,,,-0.03,0.11,1.02,-3.2,-0.3,0.3,1080,0,,,,,,,,,,,,,,,,,,,
1613607,1480652868452,,,,,,,,-0.03,0.09,1.0,-3.2,-0.2,0.2,1080,0,,,,,,,,,,,,,,,,,,,
1613627,1480652868472,0,46.5,,43.3,1,47.0,,-0.04,0.09,0.99,-3.2,-0.1,0.2,1080,0,1,0,0.0,0,37.478367,-122.203728,0.0,0.0,13.5,9,3,1.7,0,0.0,-1,0.0,0.0,0.0,0
1613647,1480652868492,,,,,,,,-0.04,0.08,1.0,-3.2,-0.0,0.1,1080,0,,,,,,,,,,,,,,,,,,,
1613667,1480652868512,,,,,,,,-0.04,0.08,0.99,-3.2,-0.1,0.1,1080,0,,,,,,,,,,,,,,,,,,,
1613687,1480652868532,,,,,,,,-0.04,0.08,0.99,-3.2,-0.2,0.0,1080,0,,,,,,,,,,,,,,,,,,,
1613707,1480652868552,,,,,,,,-0.05,0.07,0.99,-3.2,-0.1,0.0,1080,0,,,,,,,,,,,,,,,,,,,
1613727,1480652868572,,,,,2,,,-0.05,0.08,0.99,-3.1,-0.0,0.1,1080,0,1,0,0.0,0,37.478367,-122.203728,0.0,0.0,13.5,9,3,1.7,0,0.0,-1,0.0,,0.0,0
1613747,1480652868592,,,,,,,,-0.05,0.08,1.0,-3.1,-0.1,0.1,1080,0,,,,,,,,,,,,,,,,,,,
1613767,1480652868612,,,,,,,,-0.05,0.09,1.01,-3.1,-0.2,0.1,1080,0,,,,,,,,,,,,,,,,,,,
1613787,1480652868632,,,,,,,,-0.05,0.09,1.01,-3.1,-0.1,0.2,1060,0,,,,,,,,,,,,,,,,,,,
1613807,1480652868652,,,,,,,,-0.04,0.09,1.0,-3.1,0.0,0.2,1060,0,,,,,,,,,,,,,,,,,,,
1613827,1480652868672,0,45.6,,43.9,2,44.4,,-0.04,0.08,1.0,-3.1,0.0,0.2,1060,0,1,0,0.0,0,37.478367,-122.203728,0.0,0.0,13.5,9,3,1.7,0,0.0,-1,0.0,0.0,0.0,0
1613847,1480652868692,,,,,,,,-0.04,0.07,1.0,-3.1,0.1,0.1,1060,0,,,,,,,,,,,,,,,,,,,
1613867,1480652868712,,,,,,,,-0.04,0.05,0.99,-3.1,0.1,0.1,1060,0,,,,,,,,,,,,,,,,,,,
1613887,1480652868732,,,,,,,,-0.05,0.05,0.99,-3.1,0.1,0.0,1060,0,,,,,,,,,,,,,,,,,,,
1613907,1480652868752,,,,,,,,-0.05,0.04,0.99,-3.1,0.1,-0.0,1060,0,,,,,,,,,,,,,,,,,,,
1613927,1480652868772,,,,,2,,,-0.05,0.04,0.99,-3.1,0.1,-0.0,1060,0,1,0,0.0,0,37.478367,-122.203728,0.0,0.0,13.5,9,3,1.7,0,0.0,-1,0.0,,0.0,0
1613947,1480652868792,,,,,,,,-0.05,0.05,0.99,-3.1,0.1,-0.0,1080,0,,,,,,,,,,,,,,,,,,,
1613967,1480652868809,,,,,,,,-0.06,0.06,0.99,-3.1,0.1,0.0,1080,0,,,,,,,,,,,,,,,,,,,
1613987,1480652868829,,,,,,,,-0.05,0.07,1.0,-3.1,0.2,0.0,1060,0,,,,,,,,,,,,,,,,,,,
1614007,1480652868849,,,,,,,,-0.05,0.07,1.01,-3.1,0.1,0.1,1060,0,,,,,,,,,,,,,,,,,,,
1614027,1480652868869,0,43.8,,42.8,3,43.4,,-0.05,0.08,1.01,-3.1,0.0,0.1,1060,0,1,0,0.0,0,37.478367,-122.203728,0.0,0.0,13.5,9,3,1.7,0,0.0,-1,0.0,0.0,0.0,0
1614047,1480652868889,,,,,,,,-0.05,0.08,1.01,-3.2,0.1,0.1,1060,0,,,,,,,,,,,,,,,,,,,
1614067,1480652868906,,,,,,,,-0.05,0.09,1.01,-3.2,0.2,0.1,1060,0,,,,,,,,,,,,,,,,,,,
1614087,1480652868926,,,,,,,,-0.04,0.07,1.01,-3.2,0.3,0.1,1060,0,,,,,,,,,,,,,,,,,,,
1614107,1480652868946,,,,,,,,-0.04,0.07,1.01,-3.2,0.4,0.0,1060,0,,,,,,,,,,,,,,,,,,,
1614127,1480652868966,,,,,3,,,-0.04,0.06,1.0,-3.2,0.4,-0.0,1060,0,1,0,0.0,0,37.478367,-122.203728,0.0,0.0,13.5,9,3,1.7,0,0.0,-1,0.0,,0.0,0
1614147,1480652869092,,,,,,,,-0.04,0.05,0.99,-3.2,0.3,-0.1,1060,0,,,,,,,,,,,,,,,,,,,
1614167,1480652869112,,,,,,,,-0.05,0.04,0.99,-3.2,0.4,-0.1,1060,0,,,,,,,,,,,,,,,,,,,
1614187,1480652869132,,,,,,,,-0.05,0.04,0.99,-3.2,0.4,-0.1,1060,0,,,,,,,,,,,,,,,,,,,
1614207,1480652869152,,,,,,,,-0.05,0.04,0.98,-3.1,0.2,-0.1,1060,0,,,,,,,,,,,,,,,,,,,
1614227,1480652869172,0,43.1,0.0,42.2,3,44.0,15.0,-0.05,0.04,0.98,-3.1,0.2,-0.0,1060,0,1,0,0.0,0,37.478367,-122.203728,0.0,0.0,13.5,9,3,1.7,0,0.0,-1,0.0,0.0,0.0,0
1614247,1480652869192,,,,,,,,-0.05,0.06,0.98,-3.1,0.2,0.0,1060,0,,,,,,,,,,,,,,,,,,,
1614267,1480652869212,,,,,,,,-0.05,0.06,0.99,-3.1,0.2,0.0,1060,0,,,,,,,,,,,,,,,,,,,
1614287,1480652869232,,,,,,,,-0.05,0.07,1.0,-3.1,0.1,0.1,1060,0,,,,,,,,,,,,,,,,,,,
1614307,1480652869252,,,,,,,,-0.05,0.08,1.01,-3.1,0.0,0.1,1060,0,,,,,,,,,,,,,,,,,,,
1614327,1480652869272,,,,,4,,,-0.05,0.09,1.0,-3.1,-0.1,0.2,1060,0,1,0,0.0,0,37.478367,-122.203728,0.0,0.0,13.5,9,3,1.7,0,0.0,-1,0.0,,0.0,0
1614347,1480652869192,,,,,,,,-0.05,0.08,1.01,-3.1,0.1,0.2,1060,0,,,,,,,,,,,,,,,,,,,
1614367,1480652869212,,,,,,,,-0.04,0.07,1.0,-3.1,0.2,0.1,1060,0,,,,,,,,,,,,,,,,,,,
1614387,1480652869232,,,,,,,,-0.04,0.06,1.0,-3.1,0.2,0.1,1060,0,,,,,,,,,,,,,,,,,,,
1614407,1480652869252,,,,,,,,-0.04,0.05,1.0,-3.2,0.3,0.0,1060,0,,,,,,,,,,,,,,,,,,,
1614427,1480652869272,0,45.6,,41.3,5,44.3,,-0.04,0.05,0.99,-3.2,0.3,-0.0,1060,0,1,0,0.0,0,37.478367,-122.203728,0.0,0.0,13.5,9,3,1.7,0,0.0,-1,0.0,0.0,0.0,0
1614447,1480652869293,,,,,,,,-0.05,0.04,0.98,-3.2,0.3,-0.0,1060,0,,,,,,,,,,,,,,,,,,,
1614467,1480652869313,,,,,,,,-0.05,0.04,0.99,-3.1,0.3,-0.1,1060,0,,,,,,,,,,,,,,,,,,,
1614487,1480652869333,,,,,,,,-0.05,0.03,0.98,-3.1,0.3,-0.1,1060,0,,,,,,,,,,,,,,,,,,,
1614507,1480652869353,,,,,,,,-0.05,0.04,0.98,-3.1,0.2,-0.1,1060,0,,,,,,,,,,,,,,,,,,,
1614527,1480652869373,,,,,6,,,-0.06,0.06,0.98,-3.1,0.2,-0.1,1060,0,1,0,0.0,0,37.478367,-122.203728,0.0,0.0,13.5,9,3,1.7,0,0.0,-1,0.0,,0.0,0
1614547,1480652869393,,,,,,,,-0.06,0.07,0.98,-3.1,0.2,-0.0,1040,0,,,,,,,,,,,,,,,,,,,
1614567,1480652869413,,,,,,,,-0.06,0.07,0.99,-3.1,0.2,0.0,1040,0,,,,,,,,,,,,,,,,,,,
1614587,1480652869433,,,,,,,,-0.06,0.08,1.0,-3.1,0.2,0.1,1040,0,,,,,,,,,,,,,,,,,,,
1614607,1480652869453,,,,,,,,-0.06,0.09,1.0,-3.1,0.1,0.1,1040,0,,,,,,,,,,,,,,,,,,,
1614627,1480652869473,0,43.9,,43.0,11,45.2,,-0.06,0.1,1.0,-3.1,-0.1,0.2,1040,0,1,0,0.0,0,37.478367,-122.203728,0.0,0.0,13.5,9,3,1.7,0,0.0,-1,0.0,0.0,0.0,0
1614647,1480652869492,,,,,,,,-0.05,0.09,1.0,-3.2,-0.1,0.2,1040,0,,,,,,,,,,,,,,,,,,,
1614667,1480652869512,,,,,,,,-0.04,0.09,1.0,-3.2,-0.1,0.2,1040,0,,,,,,,,,,,,,,,,,,,
1614687,1480652869532,,,,,,,,-0.04,0.07,1.0,-3.2,0.1,0.2,1040,0,,,,,,,,,,,,,,,,,,,
1614707,1480652869552,,,,,,,,-0.03,0.07,1.0,-3.2,0.3,0.1,1060,0,,,,,,,,,,,,,,,,,,,
1614727,1480652869572,,,,,13,,,-0.03,0.06,0.99,-3.2,0.3,0.0,1060,0,1,0,0.0,0,37.478367,-122.203728,0.0,0.0,13.5,9,3,1.7,0,0.0,-1,0.0,,0.0,0
1614747,1480652869591,,,,,,,,-0.04,0.05,0.98,-3.2,0.3,0.0,1060,0,,,,,,,,,,,,,,,,,,,
1614767,1480652869611,,,,,,,,-0.04,0.05,0.98,-3.1,0.4,-0.0,1060,0,,,,,,,,,,,,,,,,,,,
1614787,1480652869631,,,,,,,,-0.04,0.04,0.99,-3.1,0.3,-0.1,1040,0,,,,,,,,,,,,,,,,,,,
1614807,1480652869651,,,,,,,,-0.05,0.04,0.99,-3.1,0.3,-0.1,1060,0,,,,,,,,,,,,,,,,,,,
1614827,1480652869671,0,42.9,,41.6,19,43.7,,-0.05,0.03,0.98,-3.1,0.2,-0.1,1060,0,1,0,0.0,0,37.478367,-122.203728,0.0,0.0,13.5,9,3,1.7,0,0.0,-1,0.0,0.0,0.0,0
1614847,1480652869693,,,,,,,,-0.05,0.05,0.98,-3.1,0.1,-0.0,1060,0,,,,,,,,,,,,,,,,,,,
1614867,1480652869713,,,,,,,,-0.05,0.06,0.98,-3.1,0.1,0.0,1060,0,,,,,,,,,,,,,,,,,,,
1614887,1480652869733,,,,,,,,-0.05,0.07,0.99,-3.1,0.2,0.1,1040,0,,,,,,,,,,,,,,,,,,,
1614907,1480652869753,,,,,,,,-0.05,0.08,1.0,-3.1,0.2,0.1,1060,0,,,,,,,,,,,,,,,,,,,
1614927,1480652869773,,,,,28,,,-0.05,0.08,1.01,-3.1,0.1,0.1,1060,0,1,0,0.0,0,37.478367,-122.203728,0.0,0.0,13.5,9,3,1.7,0,0.0,-1,0.0,,0.0,0
1614947,1480652869892,,,,,,,,-0.05,0.1,1.01,-3.1,-0.0,0.2,1060,0,,,,,,,,,,,,,,,,,,,
1614967,1480652869912,,,,,,,,-0.05,0.11,1.01,-3.1,-0.1,0.2,1060,0,,,,,,,,,,,,,,,,,,,
1614987,1480652869932,,,,,,,,-0.05,0.1,1.01,-3.1,-0.0,0.2,1060,0,,,,,,,,,,,,,,,,,,,
1615007,1480652869952,,,,,,,,-0.04,0.1,1.01,-3.1,0.1,0.2,1060,0,,,,,,,,,,,,,,,,,,,
1615027,1480652869972,0,46.5,,43.6,34,46.0,,-0.04,0.08,1.01,-3.1,0.1,0.1,1060,0,1,0,0.0,0,37.478367,-122.203728,0.0,0.0,13.5,9,3,1.7,0,0.0,-1,0.0,0.0,0.0,0
1615047,1480652869992,,,,,,,,-0.04,0.07,1.0,-3.1,0.2,0.1,1060,0,,,,,,,,,,,,,,,,,,,
1615067,1480652870012,,,,,,,,-0.04,0.06,0.99,-3.1,0.2,0.0,1080,0,,,,,,,,,,,,,,,,,,,
1615087,1480652870032,,,,,,,,-0.04,0.05,0.99,-3.1,0.2,-0.0,1080,0,,,,,,,,,,,,,,,,,,,
1615107,1480652870052,,,,,,,,-0.05,0.05,0.99,-3.1,0.1,-0.0,1060,0,,,,,,,,,,,,,,,,,,,
1615127,1480652870072,,,,,44,,,-0.05,0.05,0.98,-3.1,0.1,-0.0,1060,0,1,0,0.0,0,37.478367,-122.203728,0.0,0.0,13.5,9,3,1.7,0,0.0,-1,0.0,,0.0,0
1615147,1480652869992,,,,,,,,-0.05,0.06,0.99,-3.1,0.2,-0.0,1060,0,,,,,,,,,,,,,,,,,,,
1615167,1480652870012,,,,,,,,-0.05,0.07,0.99,-3.1,0.1,0.0,1060,0,,,,,,,,,,,,,,,,,,,
1615187,1480652870032,,,,,,,,-0.05,0.07,1.0,-3.1,0.1,0.1,1060,0,,,,,,,,,,,,,,,,,,,
1615207,1480652870052,,,,,,,,-0.05,0.08,1.0,-3.1,-0.0,0.2,1060,0,,,,,,,,,,,,,,,,,,,
1615227,1480652870072,0,46.9,0.1,44.2,49,46.6,14.86,-0.05,0.09,1.01,-3.1,-0.2,0.2,1060,0,1,0,0.0,0,37.478367,-122.203728,0.0,0.0,13.5,9,3,1.7,0,0.0,-1,0.0,0.0,0.0,0
1615247,1480652870093,,,,,,,,-0.05,0.08,1.01,-3.1,0.0,0.2,1060,0,,,,,,,,,,,,,,,,,,,
1615267,1480652870113,,,,,,,,-0.04,0.08,1.01,-3.1,0.2,0.1,1060,0,,,,,,,,,,,,,,,,,,,
1615287,1480652870133,,,,,,,,-0.04,0.07,1.0,-3.1,0.2,0.1,1060,0,,,,,,,,,,,,,,,,,,,
1615307,1480652870153,,,,,,,,-0.04,0.06,1.0,-3.1,0.3,0.0,1060,0,,,,,,,,,,,,,,,,,,,
1615327,1480652870173,,,,,53,,,-0.04,0.05,0.99,-3.1,0.3,0.0,1060,0,1,0,0.0,0,37.478367,-122.203728,0.0,0.0,13.5,9,3,1.7,0,0.0,-1,0.0,,0.0,0
1615347,1480652870192,,,,,,,,-0.05,0.05,0.99,-3.1,0.2,-0.0,1060,0,,,,,,,,,,,,,,,,,,,
1615367,1480652870212,,,,,,,,-0.05,0.04,0.99,-3.1,0.2,-0.1,1060,0,,,,,,,,,,,,,,,,,,,
1615387,1480652870232,,,,,,,,-0.05,0.04,0.98,-3.1,0.2,-0.0,1060,0,,,,,,,,,,,,,,,,,,,
1615407,1480652870252,,,,,,,,-0.05,0.05,0.98,-3.1,0.2,0.0,1080,0,,,,,,,,,,,,,,,,,,,
1615427,1480652870272,0,46.6,,43.9,56,46.1,,-0.05,0.07,0.99,-3.1,0.2,0.1,1080,0,1,0,0.0,0,37.478367,-122.203728,0.0,0.0,13.5,9,3,1.7,0,0.0,-1,0.0,0.0,0.0,0
1615447,1480652870293,,,,,,,,-0.05,0.07,1.01,-3.1,0.2,0.1,1060,0,,,,,,,,,,,,,,,,,,,
1615467,1480652870313,,,,,,,,-0.05,0.08,1.01,-3.1,0.0,0.1,1060,0,,,,,,,,,,,,,,,,,,,
1615487,1480652870333,,,,,,,,-0.05,0.09,1.01,-3.1,-0.0,0.2,1060,0,,,,,,,,,,,,,,,,,,,
1615507,1480652870353,,,,,,,,-0.04,0.09,1.01,-3.1,0.1,0.2,1060,0,,,,,,,,,,,,,,,,,,,
1615527,1480652870373,,,,,55,,,-0.04,0.08,1.01,-3.1,0.2,0.2,1060,0,1,0,0.0,0,37.478367,-122.203728,0.0,0.0,13.5,9,3,1.7,0,0.0,-1,0.0,,0.0,0
1615547,1480652870391,,,,,,,,-0.04,0.07,1.01,-3.1,0.2,0.1,1060,0,,,,,,,,,,,,,,,,,,,
1615567,1480652870411,,,,,,,,-0.04,0.06,1.01,-3.1,0.2,0.0,1060,0,,,,,,,,,,,,,,,,,,,
1615587,1480652870431,,,,,,,,-0.04,0.05,1.0,-3.1,0.3,-0.0,1060,0,,,,,,,,,,,,,,,,,,,
1615607,1480652870451,,,,,,,,-0.04,0.05,1.0,-3.1,0.2,-0.1,1060,0,,,,,,,,,,,,,,,,,,,
1615627,1480652870471,0,45.9,,44.9,57,46.8,,-0.04,0.04,1.0,-3.0,0.1,-0.1,1080,0,1,0,0.0,0,37.478367,-122.203728,0.0,0.0,13.5,9,3,1.7,0,0.0,-1,0.0,0.0,0.0,0
1615647,1480652870492,,,,,,,,-0.05,0.04,0.99,-3.0,0.1,-0.1,1060,0,,,,,,,,,,,,,,,,,,,
1615667,1480652870512,,,,,,,,-0.05,0.06,0.99,-3.0,0.0,-0.0,1060,0,,,,,,,,,,,,,,,,,,,
1615687,1480652870532,,,,,,,,-0.05,0.07,1.0,-3.0,0.0,0.0,1060,0,,,,,,,,,,,,,,,,,,,
1615707,1480652870552,,,,,,,,-0.05,0.07,1.01,-3.1,0.1,0.0,1060,0,,,,,,,,,,,,,,,,,,,
1615727,1480652870572,,,,,58,,,-0.05,0.08,1.01,-3.1,-0.0,0.1,1060,0,1,0,0.0,0,37.478367,-122.203728,0.0,0.0,13.5,9,3,1.7,0,0.0,-1,0.0,,0.0,0
1615747,1480652870691,,,,,,,,-0.05,0.09,1.01,-3.1,-0.1,0.1,1060,0,,,,,,,,,,,,,,,,,,,
1615767,1480652870711,,,,,,,,-0.05,0.09,1.01,-3.1,-0.0,0.2,1060,0,,,,,,,,,,,,,,,,,,,
1615787,1480652870731,,,,,,,,-0.04,0.09,1.01,-3.1,0.1,0.2,1060,0,,,,,,,,,,,,,,,,,,,
1615807,1480652870751,,,,,,,,-0.04,0.07,1.01,-3.1,0.1,0.1,1060,0,,,,,,,,,,,,,,,,,,,
1615827,1480652870771,0,43.3,,42.5,58,44.4,,-0.04,0.06,1.01,-3.1,0.2,0.1,1060,0,1,0,0.0,0,37.478367,-122.203728,0.0,0.0,13.5,9,3,1.7,0,0.0,-1,0.0,0.0,0.0,0
1615847,1480652870791,,,,,,,,-0.04,0.05,1.0,-3.1,0.3,0.0,1060,0,,,,,,,,,,,,,,,,,,,
1615867,1480652870811,,,,,,,,-0.04,0.05,1.0,-3.1,0.3,-0.0,1060,0,,,,,,,,,,,,,,,,,,,
1615887,1480652870831,,,,,,,,-0.05,0.04,1.0,-3.1,0.3,-0.1,1060,0,,,,,,,,,,,,,,,,,,,
1615907,1480652870851,,,,,,,,-0.05,0.04,1.0,-3.1,0.3,-0.1,1060,0,,,,,,,,,,,,,,,,,,,
1615927,1480652870871,,,,,61,,,-0.05,0.05,0.99,-3.0,0.2,-0.1,1040,0,1,0,0.0,0,37.478367,-122.203728,0.0,0.0,13.5,9,3,1.7,0,0.0,-1,0.0,,0.0,0
1615947,1480652870792,,,,,,,,-0.05,0.05,0.99,-3.0,0.2,-0.1,1060,0,,,,,,,,,,,,,,,,,,,
1615967,1480652870812,,,,,,,,-0.05,0.07,0.99,-3.1,0.2,-0.0,1060,0,,,,,,,,,,,,,,,,,,,
1615987,1480652870832,,,,,,,,-0.05,0.07,1.0,-3.1,0.2,0.0,1060,0,,,,,,,,,,,,,,,,,,,
1616007,1480652870852,,,,,,,,-0.05,0.08,1.01,-3.1,0.3,0.1,1040,0,,,,,,,,,,,,,,,,,,,
1616027,1480652870872,0,46.8,,44.9,64,47.2,,-0.05,0.09,1.01,-3.1,0.2,0.1,1040,0,1,0,0.0,0,37.478367,-122.203728,0.0,0.0,13.5,9,3,1.7,0,0.0,-1,0.0,0.0,0.0,0
1616047,1480652870892,,,,,,,,-0.05,0.1,1.01,-3.1,0.0,0.2,1040,0,,,,,,,,,,,,,,,,,,,
1616067,1480652870907,,,,,,,,-0.05,0.1,1.01,-3.1,-0.0,0.2,1060,0,,,,,,,,,,,,,,,,,,,
1616087,1480652870927,,,,,,,,-0.04,0.1,1.01,-3.1,0.0,0.2,1060,0,,,,,,,,,,,,,,,,,,,
1616107,1480652870947,,,,,,,,-0.04,0.09,1.02,-3.1,0.1,0.2,1040,0,,,,,,,,,,,,,,,,,,,
1616127,1480652870967,,,,,64,,,-0.03,0.08,1.02,-3.1,0.2,0.1,1040,0,1,0,0.0,0,37.478367,-122.203728,0.0,0.0,13.5,9,3,1.7,0,0.0,-1,0.0,,0.0,0
1616147,1480652870992,,,,,,,,-0.03,0.07,1.01,-3.1,0.3,0.1,1040,0,,,,,,,,,,,,,,,,,,,
1616167,1480652871012,,,,,,,,-0.04,0.06,0.99,-3.1,0.3,0.0,1040,0,,,,,,,,,,,,,,,,,,,
1616187,1480652871032,,,,,,,,-0.04,0.05,0.99,-3.1,0.4,-0.0,1060,0,,,,,,,,,,,,,,,,,,,
1616207,1480652871052,,,,,,,,-0.04,0.05,0.99,-3.1,0.4,-0.1,1060,0,,,,,,,,,,,,,,,,,,,
1616227,1480652871072,0,43.0,0.0,41.9,62,43.9,14.95,-0.04,0.04,1.0,-3.1,0.4,-0.1,1040,0,1,0,0.0,0,37.478367,-122.203728,0.0,0.0,13.5,9,3,1.7,0,0.0,-1,0.0,0.0,0.0,0
1616247,1480652871093,,,,,,,,-0.04,0.03,1.0,-3.1,0.4,-0.1,1040,0,,,,,,,,,,,,,,,,,,,
1616267,1480652871113,,,,,,,,-0.05,0.04,0.99,-3.1,0.2,-0.1,1040,0,,,,,,,,,,,,,,,,,,,
1616287,1480652871133,,,,,,,,-0.05,0.04,0.99,-3.1,0.1,-0.1,1040,0,,,,,,,,,,,,,,,,,,,
1616307,1480652871153,,,,,,,,-0.05,0.05,0.99,-3.1,0.1,-0.0,1040,0,,,,,,,,,,,,,,,,,,,
1616327,1480652871173,,,,,63,,,-0.05,0.07,0.99,-3.1,0.1,-0.0,1040,0,1,0,0.0,0,37.478367,-122.203728,0.0,0.0,13.5,9,3,1.7,0,0.0,-1,0.0,,0.0,0
1616347,1480652871192,,,,,,,,-0.05,0.08,1.0,-3.1,0.2,0.0,1040,0,,,,,,,,,,,,,,,,,,,
1616367,1480652871212,,,,,,,,-0.05,0.09,1.01,-3.1,0.2,0.1,1040,0,,,,,,,,,,,,,,,,,,,
1616387,1480652871232,,,,,,,,-0.05,0.09,1.02,-3.1,0.1,0.1,1040,0,,,,,,,,,,,,,,,,,,,
1616407,1480652871252,,,,,,,,-0.05,0.1,1.02,-3.1,0.0,0.2,1040,0,,,,,,,,,,,,,,,,,,,
1616427,1480652871272,0,43.4,,41.3,64,43.4,,-0.05,0.11,1.02,-3.1,-0.1,0.2,1060,0,1,0,0.0,0,37.478367,-122.203728,0.0,0.0,13.5,9,3,1.7,0,0.0,-1,0.0,0.0,0.0,0
1616447,1480652871292,,,,,,,,-0.05,0.11,1.02,-3.2,-0.0,0.2,1060,0,,,,,,,,,,,,,,,,,,,
1616467,1480652871312,,,,,,,,-0.04,0.1,1.01,-3.2,0.1,0.2,1060,0,,,,,,,,,,,,,,,,,,,
1616487,1480652871332,,,,,,,,-0.03,0.09,1.01,-3.2,0.2,0.1,1060,0,,,,,,,,,,,,,,,,,,,
1616507,1480652871352,,,,,,,,-0.03,0.07,1.01,-3.2,0.3,0.0,1060,0,,,,,,,,,,,,,,,,,,,
1616527,1480652871372,,,,,64,,,-0.03,0.07,1.0,-3.2,0.4,-0.0,1060,0,1,0,0.0,0,37.478367,-122.203728,0.0,0.0,13.5,9,3,1.7,0,0.0,-1,0.0,,0.0,0
1616547,1480652871491,,,,,,,,-0.04,0.06,0.99,-3.2,0.4,-0.0,1060,0,,,,,,,,,,,,,,,,,,,
1616567,1480652871511,,,,,,,,-0.04,0.05,0.99,-3.2,0.4,-0.1,1060,0,,,,,,,,,,,,,,,,,,,
1616587,1480652871531,,,,,,,,-0.04,0.04,0.99,-3.1,0.4,-0.1,1060,0,,,,,,,,,,,,,,,,,,,
1616607,1480652871551,,,,,,,,-0.04,0.05,0.99,-3.1,0.2,-0.1,1040,0,,,,,,,,,,,,,,,,,,,
1616627,1480652871571,0,43.0,,41.8,63,46.3,,-0.05,0.05,0.99,-3.1,0.1,-0.1,1060,0,1,0,0.0,0,37.478367,-122.203728,0.0,0.0,13.5,9,3,1.7,0,0.0,-1,0.0,0.0,0.0,0
1616647,1480652871591,,,,,,,,-0.05,0.07,0.99,-3.1,0.1,-0.0,1060,0,,,,,,,,,,,,,,,,,,,
1616667,1480652871611,,,,,,,,-0.05,0.08,1.0,-3.1,0.1,0.0,1060,0,,,,,,,,,,,,,,,,,,,
1616687,1480652871631,,,,,,,,-0.05,0.08,1.01,-3.1,0.2,0.0,1040,0,,,,,,,,,,,,,,,,,,,
1616707,1480652871651,,,,,,,,-0.05,0.09,1.01,-3.1,0.2,0.1,1040,0,,,,,,,,,,,,,,,,,,,
1616727,1480652871671,,,,,62,,,-0.05,0.1,1.01,-3.2,-0.0,0.1,1040,0,1,0,0.0,0,37.478367,-122.203728,0.0,0.0,13.5,9,3,1.7,0,0.0,-1,0.0,,0.0,0
1616747,1480652871592,,,,,,,,-0.05,0.11,1.01,-3.2,-0.1,0.2,1040,0,,,,,,,,,,,,,,,,,,,
1616767,1480652871612,,,,,,,,-0.05,0.11,1.01,-3.2,-0.1,0.2,1040,0,,,,,,,,,,,,,,,,,,,
1616787,1480652871632,,,,,,,,-0.04,0.1,1.01,-3.2,-0.0,0.2,1040,0,,,,,,,,,,,,,,,,,,,
1616807,1480652871652,,,,,,,,-0.03,0.09,1.01,-3.2,0.1,0.2,1040,0,,,,,,,,,,,,,,,,,,,
1616827,1480652871672,0,47.1,,44.1,62,44.1,,-0.03,0.08,1.01,-3.2,0.1,0.1,1040,0,1,0,0.0,0,37.478367,-122.203728,0.0,0.0,13.5,9,3,1.7,0,0.0,-1,0.0,0.0,0.0,0
1616847,1480652871692,,,,,,,,-0.03,0.07,1.01,-3.2,0.3,0.0,1040,0,,,,,,,,,,,,,,,,,,,
1616867,1480652871712,,,,,,,,-0.03,0.06,1.0,-3.2,0.3,-0.0,1040,0,,,,,,,,,,,,,,,,,,,
1616887,1480652871732,,,,,,,,-0.04,0.05,0.98,-3.2,0.3,-0.1,1040,0,,,,,,,,,,,,,,,,,,,
1616907,1480652871752,,,,,,,,-0.04,0.04,0.98,-3.2,0.4,-0.1,1040,0,,,,,,,,,,,,,,,,,,,
1616927,1480652871772,,,,,63,,,-0.04,0.04,0.98,-3.2,0.3,-0.1,1040,0,1,0,0.0,0,37.478367,-122.203728,0.0,0.0,13.5,9,3,1.7,0,0.0,-1,0.0,,0.0,0
1616947,1480652871792,,,,,,,,-0.05,0.03,0.98,-3.1,0.3,-0.2,1040,0,,,,,,,,,,,,,,,,,,,
1616967,1480652871812,,,,,,,,-0.05,0.03,0.98,-3.1,0.3,-0.2,1060,0,,,,,,,,,,,,,,,,,,,
1616987,1480652871832,,,,,,,,-0.05,0.03,0.98,-3.1,0.1,-0.1,1060,0,,,,,,,,,,,,,,,,,,,
1617007,1480652871852,,,,,,,,-0.06,0.05,0.98,-3.1,0.0,-0.1,1040,0,,,,,,,,,,,,,,,,,,,
1617027,1480652871872,0,47.0,,44.3,63,45.3,,-0.06,0.07,0.98,-3.1,0.1,-0.0,1040,0,1,0,0.0,0,37.478367,-122.203728,0.0,0.0,13.5,9,3,1.7,0,0.0,-1,0.0,0.0,0.0,0
1617047,1480652871892,,,,,,,,-0.05,0.07,0.99,-3.1,0.1,0.0,1040,0,,,,,,,,,,,,,,,,,,,
1617067,1480652871907,,,,,,,,-0.05,0.08,1.0,-3.1,0.2,0.1,1040,0,,,,,,,,,,,,,,,,,,,
1617087,1480652871927,,,,,,,,-0.05,0.09,1.01,-3.1,0.1,0.1,1040,0,,,,,,,,,,,,,,,,,,,
1617107,1480652871947,,,,,,,,-0.05,0.1,1.01,-3.1,-0.0,0.2,1060,0,,,,,,,,,,,,,,,,,,,
1617127,1480652871967,,,,,63,,,-0.06,0.11,1.01,-3.1,-0.1,0.2,1060,0,1,0,0.0,0,37.478367,-122.203728,0.0,0.0,13.5,9,3,1.7,0,0.0,-1,0.0,,0.0,0
1617147,1480652871993,,,,,,,,-0.05,0.1,1.01,-3.2,-0.1,0.3,1040,0,,,,,,,,,,,,,,,,,,,
1617167,1480652872013,,,,,,,,-0.04,0.09,1.01,-3.2,0.0,0.2,1040,0,,,,,,,,,,,,,,,,,,,
1617187,1480652872033,,,,,,,,-0.03,0.08,1.01,-3.2,0.2,0.2,1040,0,,,,,,,,,,,,,,,,,,,
1617207,1480652872053,,,,,,,,-0.04,0.07,1.0,-3.2,0.3,0.1,1060,0,,,,,,,,,,,,,,,,,,,
1617227,1480652872073,0,45.6,0.0,41.5,63,44.1,14.92,-0.04,0.06,0.99,-3.2,0.3,0.0,1040,0,1,0,0.0,0,37.478367,-122.203728,0.0,0.0,13.5,9,3,2.1,0,0.0,-1,0.0,0.0,0.0,0
1617247,1480652872092,,,,,,,,-0.04,0.05,0.99,-3.2,0.4,-0.0,1040,0,,,,,,,,,,,,,,,,,,,
1617267,1480652872112,,,,,,,,-0.04,0.05,0.99,-3.2,0.3,-0.0,1040,0,,,,,,,,,,,,,,,,,,,
1617287,1480652872132,,,,,,,,-0.05,0.04,0.99,-3.1,0.4,-0.1,1040,0,,,,,,,,,,,,,,,,,,,
1617307,1480652872152,,,,,,,,-0.05,0.03,0.99,-3.1,0.3,-0.1,1040,0,,,,,,,,,,,,,,,,,,,
1617327,1480652872172,,,,,61,,,-0.05,0.04,0.98,-3.1,0.2,-0.1,1040,0,1,0,0.0,0,37.478367,-122.203728,0.0,0.0,13.5,9,3,2.1,0,0.0,-1,0.0,,0.0,0
1617347,1480652872292,,,,,,,,-0.05,0.04,0.98,-3.1,0.1,-0.1,1040,0,,,,,,,,,,,,,,,,,,,
1617367,1480652872312,,,,,,,,-0.05,0.06,0.98,-3.1,0.1,-0.1,1040,0,,,,,,,,,,,,,,,,,,,
1617387,1480652872332,,,,,,,,-0.05,0.07,0.99,-3.1,0.1,-0.0,1040,0,,,,,,,,,,,,,,,,,,,
1617407,1480652872352,,,,,,,,-0.05,0.08,1.01,-3.1,0.3,0.0,1040,0,,,,,,,,,,,,,,,,,,,
1617427,1480652872372,0,45.9,,42.1,62,44.1,,-0.05,0.09,1.01,-3.1,0.2,0.1,1040,0,1,0,0.0,0,37.478367,-122.203728,0.0,0.0,13.5,9,3,2.1,0,0.0,-1,0.0,0.0,0.0,0
1617447,1480652872392,,,,,,,,-0.06,0.09,1.01,-3.1,0.1,0.1,1060,0,,,,,,,,,,,,,,,,,,,
1617467,1480652872412,,,,,,,,-0.06,0.1,1.01,-3.1,-0.0,0.2,1040,0,,,,,,,,,,,,,,,,,,,
1617487,1480652872432,,,,,,,,-0.05,0.11,1.01,-3.1,-0.1,0.2,1040,0,,,,,,,,,,,,,,,,,,,
