"Interval"|"ms"|0|0|1,"Utc"|"ms"|0|0|1,"FuelLevel"|"F"|0|100|5,"OilTemp"|"F"|0.0|300.0|5,"CoolantPressPSI"|"PSI"|0.0|20.0|1,"Coolant"|"F"|0.0|300.0|5,"OilPress"|"PSI"|0|150|10,"EngineTemp"|"F"|0.0|300.0|5,"Battery"|"Volts"|0.0|20.0|1,"AccelX"|"G"|-3.0|3.0|50,"AccelY"|"G"|-3.0|3.0|50,"AccelZ"|"G"|-3.0|3.0|50,"Yaw"|"Deg/Sec"|-300.0|300.0|50,"Pitch"|"Deg/Sec"|-300.0|300.0|50,"Roll"|"Deg/Sec"|-300.0|300.0|50,"RPM"|""|0|10000|50,"Driveshaft"|"RPM"|0|5000|50,"GPIO1"|""|0|1|10,"GPIO2"|""|0|1|10,"GearRatio"|""|-5.0|5.0|10,"Gear"|""|-1|5|10,"Latitude"|"Degrees"|-180.0|180.0|10,"Longitude"|"Degrees"|-180.0|180.0|10,"Speed"|"MPH"|0.0|150.0|10,"Distance"|"Miles"|0.0|0.0|10,"Altitude"|"Feet"|0.0|4000.0|10,"GPSSats"|""|0|20|10,"GPSQual"|""|0|5|10,"GPSDOP"|""|0.0|20.0|10,"LapCount"|""|0|0|10,"LapTime"|"Min"|0.0|0.0|10,"Sector"|""|0|0|10,"SectorTime"|"Min"|0.0|0.0|10,"PredTime"|"Min"|0.0|0.0|5,"ElapsedTime"|"Min"|0.0|0.0|10,"CurrentLap"|""|0|0|10
914233,1480784317019,,,,,,,,0.02,0.08,1.0,-3.1,0.6,0.2,380,0,,,,,,,,,,,,,,,,,,,
914253,1480784317039,1,112.0,,145.2,0,169.7,,0.01,0.05,1.01,-3.1,0.5,0.1,580,0,0,0,0.0,0,38.158546,-122.452927,0.0,0.208,140910992.0,10,3,1.9,0,0.0,-1,0.0,0.0,0.0,0
914273,1480784317059,,,,,,,,0.02,0.06,1.0,-3.1,0.4,0.1,580,0,,,,,,,,,,,,,,,,,,,
914293,1480784317079,,,,,,,,0.02,0.07,1.0,-3.2,0.6,0.3,720,0,,,,,,,,,,,,,,,,,,,
914313,1480784317000,,,,,,,,0.02,0.08,1.01,-3.2,0.6,0.4,840,0,,,,,,,,,,,,,,,,,,,
914333,1480784317020,,,,,,,,0.02,0.08,1.03,-3.3,0.5,0.3,900,0,,,,,,,,,,,,,,,,,,,
914353,1480784317040,,,,,3,,,0.03,0.08,1.03,-3.2,0.6,0.1,860,0,0,0,0.0,0,38.158546,-122.452927,0.0,0.208,140910992.0,10,3,1.9,0,0.0,-1,0.0,,0.0,0
914373,1480784317060,,,,,,,,0.02,0.07,1.02,-3.2,0.4,-0.0,840,0,,,,,,,,,,,,,,,,,,,
914393,1480784317080,,,,,,,,0.02,0.06,1.02,-3.1,0.5,-0.0,840,0,,,,,,,,,,,,,,,,,,,
914413,1480784317100,,,,,,,,0.02,0.05,1.01,-3.1,0.4,0.0,840,0,,,,,,,,,,,,,,,,,,,
914433,1480784317120,,,,,,,,0.02,0.05,1.01,-3.2,0.6,0.1,880,0,,,,,,,,,,,,,,,,,,,
914453,1480784317140,0,112.3,,145.6,5,169.7,,0.04,0.05,1.01,-3.2,0.7,0.1,920,0,0,0,0.0,0,38.158546,-122.452927,0.0,0.208,140910992.0,10,3,1.9,0,0.0,-1,0.0,0.0,0.0,0
914473,1480784317160,,,,,,,,0.04,0.07,1.01,-3.2,0.3,0.2,940,0,,,,,,,,,,,,,,,,,,,
914493,1480784317180,,,,,,,,0.03,0.07,1.02,-3.3,0.3,0.3,900,0,,,,,,,,,,,,,,,,,,,
914513,1480784317200,,,,,,,,0.03,0.08,1.02,-3.3,0.3,0.4,880,0,,,,,,,,,,,,,,,,,,,
914533,1480784317220,,,,,,,,0.02,0.08,1.02,-3.2,0.5,0.4,880,0,,,,,,,,,,,,,,,,,,,
914553,1480784317240,,,,,8,,,0.03,0.08,1.01,-3.2,0.5,0.4,920,0,0,0,0.0,0,38.158546,-122.452927,0.0,0.208,140910992.0,10,3,1.9,0,0.0,-1,0.0,,0.0,0
914573,1480784317260,,,,,,,,0.02,0.08,1.01,-3.2,0.3,0.3,920,0,,,,,,,,,,,,,,,,,,,
914593,1480784317280,,,,,,,,0.03,0.08,1.02,-3.2,0.3,0.2,960,0,,,,,,,,,,,,,,,,,,,
914613,1480784317300,,,,,,,,0.02,0.07,1.01,-3.2,0.3,0.1,940,0,,,,,,,,,,,,,,,,,,,
914633,1480784317320,,,,,,,,0.02,0.07,1.01,-3.1,0.3,0.1,980,0,,,,,,,,,,,,,,,,,,,
914653,1480784317340,0,113.7,,146.8,12,170.4,,0.01,0.07,1.0,-3.2,0.2,0.3,1000,0,0,0,0.0,0,38.158546,-122.452927,0.0,0.208,140910992.0,10,3,1.9,0,0.0,-1,0.0,0.0,0.0,0
914673,1480784317360,,,,,,,,0.01,0.08,1.0,-3.2,0.1,0.4,1040,0,,,,,,,,,,,,,,,,,,,
914693,1480784317380,,,,,,,,0.0,0.08,0.99,-3.2,0.1,0.5,1060,0,,,,,,,,,,,,,,,,,,,
914713,1480784317400,,,,,,,,0.01,0.08,1.01,-3.2,0.1,0.5,1080,0,,,,,,,,,,,,,,,,,,,
914733,1480784317420,,,,,,,,0.01,0.08,1.01,-3.2,0.0,0.4,1080,0,,,,,,,,,,,,,,,,,,,
914753,1480784317440,,,,,14,,,0.01,0.08,1.0,-3.2,-0.0,0.3,1100,0,0,0,0.0,0,38.158546,-122.452927,0.0,0.208,140910992.0,10,3,1.9,0,0.0,-1,0.0,,0.0,0
914773,1480784317460,,,,,,,,0.01,0.08,1.0,-3.2,0.1,0.3,1120,0,,,,,,,,,,,,,,,,,,,
914793,1480784317480,,,,,,,,0.01,0.09,1.0,-3.2,0.1,0.3,1140,0,,,,,,,,,,,,,,,,,,,
914813,1480784317500,,,,,,,,0.01,0.09,1.01,-3.2,0.1,0.3,1140,0,,,,,,,,,,,,,,,,,,,
914833,1480784317520,,,,,,,,0.02,0.07,1.01,-3.2,0.2,0.3,1140,0,,,,,,,,,,,,,,,,,,,
914853,1480784317540,0,114.0,,147.1,20,170.5,,0.01,0.06,1.0,-3.2,0.1,0.3,1160,0,0,0,0.0,0,38.158546,-122.452927,0.0,0.208,140910992.0,10,3,1.9,0,0.0,-1,0.0,0.0,0.0,0
914873,1480784317560,,,,,,,,0.01,0.06,0.99,-3.2,0.1,0.3,1160,0,,,,,,,,,,,,,,,,,,,
914893,1480784317580,,,,,,,,0.01,0.07,0.99,-3.2,0.1,0.3,1180,0,,,,,,,,,,,,,,,,,,,
914913,1480784317700,,,,,,,,0.01,0.07,0.99,-3.2,0.1,0.4,1200,0,,,,,,,,,,,,,,,,,,,
914933,1480784317720,,,,,,,,0.02,0.08,0.98,-3.2,0.1,0.5,1260,0,,,,,,,,,,,,,,,,,,,
914953,1480784317740,,,,,24,,,0.01,0.07,0.98,-3.2,0.2,0.4,1280,0,0,0,0.0,0,38.158546,-122.452927,0.0,0.208,140910992.0,10,3,1.9,0,0.0,-1,0.0,,0.0,0
914973,1480784317760,,,,,,,,0.01,0.08,0.99,-3.2,0.2,0.3,1340,0,,,,,,,,,,,,,,,,,,,
914993,1480784317780,,,,,,,,0.02,0.08,0.98,-3.2,-0.0,0.3,1420,0,,,,,,,,,,,,,,,,,,,
915013,1480784317800,,,,,,,,0.01,0.07,0.99,-3.2,0.1,0.3,1460,0,,,,,,,,,,,,,,,,,,,
915033,1480784317820,,,,,,,,0.01,0.05,1.0,-3.2,0.3,0.4,1520,0,,,,,,,,,,,,,,,,,,,
915053,1480784317840,0,111.0,7.7,145.6,36,169.9,14.46,0.01,0.05,1.02,-3.1,0.6,0.3,1540,0,0,0,0.0,0,38.158546,-122.452927,0.0,0.208,140910992.0,10,3,1.9,0,0.0,-1,0.0,0.0,0.0,0
915073,1480784317860,,,,,,,,0.01,0.04,1.03,-3.1,0.7,0.3,1600,0,,,,,,,,,,,,,,,,,,,
915093,1480784317880,,,,,,,,0.01,0.06,1.02,-3.0,0.6,0.3,1640,0,,,,,,,,,,,,,,,,,,,
915113,1480784317800,,,,,,,,0.01,0.06,1.01,-3.0,0.5,0.2,1640,0,,,,,,,,,,,,,,,,,,,
915133,1480784317820,,,,,,,,0.01,0.05,1.02,-3.0,0.5,0.2,1680,0,,,,,,,,,,,,,,,,,,,
915153,1480784317840,,,,,41,,,0.01,0.05,1.03,-3.1,0.6,0.3,1680,0,0,0,0.0,0,38.158546,-122.452927,0.0,0.208,140910992.0,10,3,1.9,0,0.0,-1,0.0,,0.0,0
915173,1480784317860,,,,,,,,0.01,0.06,1.02,-3.0,0.5,0.2,1700,0,,,,,,,,,,,,,,,,,,,
915193,1480784317880,,,,,,,,0.01,0.06,1.03,-3.1,0.5,0.2,1720,0,,,,,,,,,,,,,,,,,,,
915213,1480784317894,,,,,,,,0.01,0.06,1.03,-3.1,0.7,0.2,1720,0,,,,,,,,,,,,,,,,,,,
915233,1480784317914,,,,,,,,0.01,0.07,1.03,-3.1,0.7,0.2,1680,0,,,,,,,,,,,,,,,,,,,
915253,1480784317934,0,112.9,,147.1,55,170.5,,0.02,0.07,1.03,-3.1,0.5,0.2,1720,0,0,0,0.0,0,38.158546,-122.452927,0.0,0.208,140910992.0,10,3,1.9,0,0.0,-1,0.0,0.0,0.0,0
915273,1480784317954,,,,,,,,0.01,0.07,1.03,-3.1,0.4,0.2,1720,0,,,,,,,,,,,,,,,,,,,
915293,1480784317974,,,,,,,,0.02,0.07,1.03,-3.1,0.7,0.3,1680,0,,,,,,,,,,,,,,,,,,,
915313,1480784318000,,,,,,,,0.02,0.07,1.03,-3.1,0.5,0.3,1660,12,,,,,,,,,,,,,,,,,,,
915333,1480784318020,,,,,,,,0.02,0.07,1.02,-3.1,0.4,0.3,1680,12,,,,,,,,,,,,,,,,,,,
915353,1480784318040,,,,,69,,,0.02,0.07,1.02,-3.1,0.6,0.2,1680,12,0,0,140.0,0,38.158546,-122.452927,0.0,0.208,140910992.0,10,3,1.9,0,0.0,-1,0.0,,0.0,0
915373,1480784318060,,,,,,,,0.02,0.07,1.02,-3.1,0.5,0.2,1660,12,,,,,,,,,,,,,,,,,,,
915393,1480784318080,,,,,,,,0.02,0.07,1.02,-3.1,0.4,0.3,1620,10,,,,,,,,,,,,,,,,,,,
915413,1480784318099,,,,,,,,0.02,0.07,1.02,-3.1,0.5,0.2,1620,10,,,,,,,,,,,,,,,,,,,
915433,1480784318119,,,,,,,,0.01,0.08,1.03,-3.1,0.5,0.3,1640,40,,,,,,,,,,,,,,,,,,,
915453,1480784318139,0,111.9,,147.0,57,170.4,,-0.0,0.08,1.02,-3.2,0.5,0.3,1620,60,0,0,41.0,0,38.158546,-122.452927,0.0,0.208,140910992.0,10,3,1.9,0,0.0,-1,0.0,0.0,0.0,0
915473,1480784318159,,,,,,,,-0.0,0.07,1.02,-3.1,0.5,0.3,1580,60,,,,,,,,,,,,,,,,,,,
915493,1480784318179,,,,,,,,-0.0,0.08,1.02,-3.1,0.5,0.3,1560,41,,,,,,,,,,,,,,,,,,,
915513,1480784318200,,,,,,,,-0.01,0.07,1.01,-3.2,0.4,0.3,1600,41,,,,,,,,,,,,,,,,,,,
915533,1480784318220,,,,,,,,-0.01,0.07,1.01,-3.1,0.5,0.3,1520,41,,,,,,,,,,,,,,,,,,,
915553,1480784318240,,,,,41,,,-0.01,0.07,1.01,-3.2,0.4,0.3,1460,41,0,0,37.073,0,38.158546,-122.452927,0.0,0.208,140910992.0,10,3,1.9,0,0.0,-1,0.0,,0.0,0
915573,1480784318260,,,,,,,,-0.02,0.07,1.0,-3.2,0.2,0.3,1420,41,,,,,,,,,,,,,,,,,,,
915593,1480784318280,,,,,,,,-0.02,0.07,1.0,-3.2,0.2,0.3,1420,35,,,,,,,,,,,,,,,,,,,
915613,1480784318299,,,,,,,,-0.02,0.06,1.0,-3.2,0.2,0.3,1380,35,,,,,,,,,,,,,,,,,,,
915633,1480784318319,,,,,,,,-0.02,0.06,1.01,-3.2,0.3,0.3,1360,35,,,,,,,,,,,,,,,,,,,
915653,1480784318339,0,112.8,,147.2,46,170.4,,-0.02,0.06,1.01,-3.2,0.4,0.3,1320,1538461,0,0,38.857,0,38.158546,-122.452927,0.0,0.208,140910992.0,10,3,1.9,0,0.0,-1,0.0,0.0,0.0,0
915673,1480784318359,,,,,,,,-0.02,0.07,1.01,-3.2,0.4,0.3,1300,0,,,,,,,,,,,,,,,,,,,
915693,1480784318379,,,,,,,,-0.02,0.07,1.0,-3.2,0.3,0.3,1300,0,,,,,,,,,,,,,,,,,,,
915713,1480784318499,,,,,,,,-0.02,0.08,1.0,-3.2,0.4,0.3,1260,47,,,,,,,,,,,,,,,,,,,
915733,1480784318519,,,,,,,,-0.02,0.07,1.0,-3.2,0.4,0.3,1240,47,,,,,,,,,,,,,,,,,,,
915753,1480784318539,,,,,51,,,-0.02,0.08,1.01,-3.2,0.4,0.3,1180,47,0,0,26.383,0,38.158546,-122.452927,0.0,0.208,140910992.0,10,3,1.9,0,0.0,-1,0.0,,0.0,0
915773,1480784318559,,,,,,,,-0.02,0.07,1.01,-3.2,0.5,0.3,1180,47,,,,,,,,,,,,,,,,,,,
915793,1480784318579,,,,,,,,-0.02,0.07,1.01,-3.2,0.4,0.3,1160,47,,,,,,,,,,,,,,,,,,,
915813,1480784318599,,,,,,,,-0.02,0.07,1.01,-3.2,0.5,0.3,1140,15,,,,,,,,,,,,,,,,,,,
915833,1480784318619,,,,,,,,-0.02,0.07,1.01,-3.2,0.5,0.3,1140,15,,,,,,,,,,,,,,,,,,,
915853,1480784318639,0,112.9,,147.4,44,170.4,,-0.02,0.08,1.01,-3.2,0.5,0.3,1120,15,0,0,76.0,0,38.158546,-122.452927,0.0,0.208,140910992.0,10,3,1.9,0,0.0,-1,0.0,0.0,0.0,0
915873,1480784318659,,,,,,,,-0.02,0.07,1.02,-3.2,0.6,0.3,1080,15,,,,,,,,,,,,,,,,,,,
915893,1480784318679,,,,,,,,-0.02,0.07,1.01,-3.2,0.6,0.3,1060,18,,,,,,,,,,,,,,,,,,,
915913,1480784318599,,,,,,,,-0.02,0.08,1.01,-3.3,0.5,0.3,1060,18,,,,,,,,,,,,,,,,,,,
915933,1480784318619,,,,,,,,-0.02,0.08,1.01,-3.3,0.5,0.3,1040,18,,,,,,,,,,,,,,,,,,,
915953,1480784318639,,,,,41,,,-0.02,0.08,1.01,-3.3,0.5,0.4,1020,20,0,0,58.889,0,38.158546,-122.452927,0.0,0.208,140910992.0,10,3,1.9,0,0.0,-1,0.0,,0.0,0
915973,1480784318659,,,,,,,,-0.02,0.07,1.01,-3.3,0.4,0.4,1020,20,,,,,,,,,,,,,,,,,,,
915993,1480784318679,,,,,,,,-0.01,0.07,1.02,-3.4,0.4,0.4,1000,20,,,,,,,,,,,,,,,,,,,
916013,1480784318700,,,,,,,,-0.01,0.07,1.02,-3.4,0.4,0.4,980,26,,,,,,,,,,,,,,,,,,,
916033,1480784318720,,,,,,,,-0.01,0.06,1.02,-3.4,0.5,0.4,980,26,,,,,,,,,,,,,,,,,,,
916053,1480784318740,0,113.5,8.1,147.7,42,170.5,14.55,-0.0,0.06,1.02,-3.4,0.5,0.4,960,26,0,0,37.692,0,38.158546,-122.452927,0.0,0.208,140910992.0,10,3,1.9,0,0.0,-1,0.0,0.0,0.0,0
916073,1480784318760,,,,,,,,-0.0,0.06,1.02,-3.4,0.6,0.4,960,24,,,,,,,,,,,,,,,,,,,
916093,1480784318780,,,,,,,,0.0,0.06,1.02,-3.4,0.6,0.4,940,24,,,,,,,,,,,,,,,,,,,
916113,1480784318801,,,,,,,,0.0,0.06,1.02,-3.4,0.6,0.5,940,27,,,,,,,,,,,,,,,,,,,
916133,1480784318821,,,,,,,,0.01,0.06,1.02,-3.4,0.5,0.6,940,27,,,,,,,,,,,,,,,,,,,
916153,1480784318841,,,,,37,,,0.0,0.07,1.01,-3.5,0.4,0.6,920,27,0,0,34.815,0,38.158546,-122.452927,0.0,0.208,140910992.0,10,3,1.9,0,0.0,-1,0.0,,0.0,0
916173,1480784318861,,,,,,,,-0.0,0.07,1.01,-3.6,0.3,0.7,920,32,,,,,,,,,,,,,,,,,,,
916193,1480784318881,,,,,,,,-0.0,0.07,1.02,-3.7,0.5,0.8,900,32,,,,,,,,,,,,,,,,,,,
916213,1480784318894,,,,,,,,0.0,0.09,1.02,-3.7,0.6,0.8,900,30,,,,,,,,,,,,,,,,,,,
916233,1480784318914,,,,,,,,0.0,0.09,1.02,-3.7,0.5,0.8,900,30,,,,,,,,,,,,,,,,,,,
916253,1480784318934,0,111.4,,146.9,40,170.2,,-0.0,0.09,1.02,-3.7,0.4,0.7,880,36,0,0,30.0,0,38.158546,-122.452927,0.0,0.208,140910992.0,10,3,1.9,0,0.0,-1,0.0,0.0,0.0,0
916273,1480784318954,,,,,,,,-0.01,0.09,1.02,-3.8,0.4,0.6,880,36,,,,,,,,,,,,,,,,,,,
916293,1480784318974,,,,,,,,-0.02,0.09,1.02,-3.8,0.4,0.5,860,38,,,,,,,,,,,,,,,,,,,
916313,1480784319001,,,,,,,,-0.02,0.07,1.02,-3.8,0.5,0.4,860,38,,,,,,,,,,,,,,,,,,,
916333,1480784319021,,,,,,,,-0.02,0.08,1.01,-3.9,0.6,0.4,860,41,,,,,,,,,,,,,,,,,,,
916353,1480784319041,,,,,35,,,-0.02,0.08,1.01,-4.0,0.5,0.5,860,47,0,0,20.976,0,38.158546,-122.452927,0.0,0.208,140910992.0,10,3,1.9,0,0.0,-1,0.0,,0.0,0
916373,1480784319061,,,,,,,,-0.02,0.09,1.01,-4.1,0.7,0.7,840,47,,,,,,,,,,,,,,,,,,,
916393,1480784319081,,,,,,,,-0.02,0.1,1.01,-4.1,0.5,0.7,840,44,,,,,,,,,,,,,,,,,,,
916413,1480784319101,,,,,,,,-0.03,0.1,1.01,-4.2,0.6,0.6,820,52,,,,,,,,,,,,,,,,,,,
916433,1480784319121,,,,,,,,-0.04,0.1,1.01,-4.3,0.5,0.5,820,52,,,,,,,,,,,,,,,,,,,
916453,1480784319141,0,111.3,,146.7,35,170.0,,-0.04,0.09,1.02,-4.3,0.6,0.5,820,56,0,0,15.769,0,38.158546,-122.452927,0.0,0.208,140910992.0,10,3,1.9,0,0.0,-1,0.0,0.0,0.0,0
916473,1480784319161,,,,,,,,-0.04,0.09,1.01,-4.5,0.6,0.6,800,47,,,,,,,,,,,,,,,,,,,
916493,1480784319181,,,,,,,,-0.04,0.09,1.01,-4.6,0.6,0.7,800,58,,,,,,,,,,,,,,,,,,,
916513,1480784319295,,,,,,,,-0.05,0.09,1.02,-4.7,0.6,0.7,780,58,,,,,,,,,,,,,,,,,,,
916533,1480784319315,,,,,,,,-0.06,0.09,1.02,-4.7,0.5,0.6,780,63,,,,,,,,,,,,,,,,,,,
916553,1480784319335,,,,,34,,,-0.06,0.08,1.02,-4.8,0.5,0.5,780,56,0,0,12.381,0,38.158546,-122.452927,0.0,0.208,140910992.0,10,3,1.9,0,0.0,-1,0.0,,0.0,0
916573,1480784319355,,,,,,,,-0.06,0.09,1.01,-4.9,0.5,0.6,760,63,,,,,,,,,,,,,,,,,,,
916593,1480784319375,,,,,,,,-0.06,0.09,1.01,-5.0,0.5,0.6,760,69,,,,,,,,,,,,,,,,,,,
916613,1480784319395,,,,,,,,-0.07,0.09,1.02,-5.1,0.4,0.5,740,69,,,,,,,,,,,,,,,,,,,
916633,1480784319415,,,,,,,,-0.07,0.09,1.02,-5.1,0.5,0.4,740,73,,,,,,,,,,,,,,,,,,,
916653,1480784319435,0,111.8,,147.4,29,170.4,,-0.08,0.1,1.01,-5.3,0.5,0.5,740,73,0,0,10.725,0,38.158546,-122.452927,0.0,0.208,140910992.0,10,3,1.9,0,0.0,-1,0.0,0.0,0.0,0
916673,1480784319455,,,,,,,,-0.07,0.1,1.0,-5.4,0.5,0.6,740,73,,,,,,,,,,,,,,,,,,,
916693,1480784319475,,,,,,,,-0.07,0.09,1.0,-5.5,0.4,0.5,740,80,,,,,,,,,,,,,,,,,,,
916713,1480784319400,,,,,,,,-0.08,0.09,1.0,-5.6,0.3,0.3,740,86,,,,,,,,,,,,,,,,,,,
916733,1480784319420,,,,,,,,-0.08,0.1,1.0,-5.7,0.3,0.4,740,86,,,,,,,,,,,,,,,,,,,
916753,1480784319440,,,,,33,,,-0.08,0.1,0.99,-5.8,0.2,0.4,720,83,0,0,8.605,0,38.158546,-122.452927,0.0,0.208,140910992.0,10,3,1.9,0,0.0,-1,0.0,,0.0,0
916773,1480784319460,,,,,,,,-0.09,0.09,1.0,-5.9,0.1,0.3,720,83,,,,,,,,,,,,,,,,,,,
916793,1480784319480,,,,,,,,-0.09,0.09,1.0,-6.1,0.1,0.2,720,96,,,,,,,,,,,,,,,,,,,
916813,1480784319501,,,,,,,,-0.09,0.1,0.99,-6.2,0.1,0.3,740,95,,,,,,,,,,,,,,,,,,,
916833,1480784319521,,,,,,,,-0.09,0.1,0.98,-6.3,0.1,0.4,740,90,,,,,,,,,,,,,,,,,,,
916853,1480784319541,0,112.3,,146.8,33,169.5,,-0.09,0.09,0.99,-6.4,-0.1,0.3,740,93,0,0,8.222,0,38.158546,-122.452927,0.0,0.208,140910992.0,10,3,1.9,0,0.0,-1,0.0,0.0,0.0,0
916873,1480784319561,,,,,,,,-0.1,0.08,0.99,-6.6,-0.0,0.2,740,113,,,,,,,,,,,,,,,,,,,
916893,1480784319581,,,,,,,,-0.1,0.09,0.99,-6.7,0.0,0.3,740,109,,,,,,,,,,,,,,,,,,,
916913,1480784319600,,,,,,,,-0.09,0.09,0.98,-6.8,-0.0,0.4,740,100,,,,,,,,,,,,,,,,,,,
916933,1480784319620,,,,,,,,-0.1,0.08,0.99,-6.9,-0.1,0.2,740,109,,,,,,,,,,,,,,,,,,,
916953,1480784319640,,,,,31,,,-0.1,0.08,1.0,-7.0,-0.0,0.2,740,129,0,0,6.789,0,38.158546,-122.452927,0.0,0.208,140910992.0,10,3,1.9,0,0.0,-1,0.0,,0.0,0
916973,1480784319660,,,,,,,,-0.09,0.08,0.99,-7.2,-0.0,0.4,760,124,,,,,,,,,,,,,,,,,,,
916993,1480784319680,,,,,,,,-0.08,0.08,1.0,-7.3,-0.1,0.5,760,103,,,,,,,,,,,,,,,,,,,
917013,1480784319700,,,,,,,,-0.09,0.09,1.0,-7.4,-0.2,0.3,760,112,,,,,,,,,,,,,,,,,,,
917033,1480784319720,,,,,,,,-0.1,0.08,1.01,-7.5,-0.1,0.2,760,143,,,,,,,,,,,,,,,,,,,
917053,1480784319740,0,111.5,7.4,147.4,31,170.2,14.58,-0.1,0.08,1.0,-7.6,-0.1,0.3,760,130,0,0,5.315,0,38.158546,-122.452927,0.0,0.208,140910992.0,10,3,1.9,0,0.0,-1,0.0,0.0,0.0,0
917073,1480784319760,,,,,,,,-0.09,0.08,1.0,-7.7,0.0,0.4,780,116,,,,,,,,,,,,,,,,,,,
917093,1480784319780,,,,,,,,-0.09,0.09,1.01,-7.8,0.0,0.3,780,124,,,,,,,,,,,,,,,,,,,
917113,1480784319801,,,,,,,,-0.1,0.08,1.02,-7.9,-0.0,0.1,780,155,,,,,,,,,,,,,,,,,,,
917133,1480784319821,,,,,,,,-0.1,0.08,1.01,-8.0,0.0,0.1,780,149,,,,,,,,,,,,,,,,,,,
917153,1480784319841,,,,,31,,,-0.09,0.09,1.01,-8.2,0.2,0.2,780,130,0,0,5.0,0,38.158562,-122.452919,1.01,0.209,140910992.0,10,3,1.9,0,0.0,-1,0.0,,0.0,0
917173,1480784319861,,,,,,,,-0.09,0.09,1.01,-8.3,0.2,0.3,780,127,,,,,,,,,,,,,,,,,,,
917193,1480784319881,,,,,,,,-0.1,0.08,1.02,-8.5,0.2,0.1,800,173,,,,,,,,,,,,,,,,,,,
917213,1480784319895,,,,,,,,-0.11,0.08,1.02,-8.5,0.2,0.0,800,156,,,,,,,,,,,,,,,,,,,
917233,1480784319915,,,,,,,,-0.1,0.07,1.02,-8.6,0.2,0.1,800,140,,,,,,,,,,,,,,,,,,,
917253,1480784319935,0,113.7,,147.4,34,169.1,,-0.1,0.08,1.01,-8.8,0.2,0.3,800,133,0,0,5.714,0,38.158562,-122.452919,1.13,0.209,140910992.0,10,3,1.9,0,0.0,-1,0.0,0.0,0.0,0
917273,1480784319955,,,,,,,,-0.09,0.08,1.02,-8.9,0.4,0.3,800,164,,,,,,,,,,,,,,,,,,,
917293,1480784319975,,,,,,,,-0.09,0.08,1.02,-9.0,0.3,0.3,820,164,,,,,,,,,,,,,,,,,,,
917313,1480784320100,,,,,,,,-0.09,0.08,1.02,-9.0,0.2,0.1,820,147,,,,,,,,,,,,,,,,,,,
917333,1480784320120,,,,,,,,-0.09,0.08,1.02,-9.0,0.2,0.0,840,132,,,,,,,,,,,,,,,,,,,
917353,1480784320140,,,,,35,,,-0.08,0.08,1.01,-9.1,0.2,0.1,840,156,0,0,6.212,0,38.158562,-122.452919,1.14,0.209,140910992.0,10,3,1.9,0,0.0,-1,0.0,,0.0,0
917373,1480784320160,,,,,,,,-0.07,0.08,1.01,-9.2,0.1,0.2,860,173,,,,,,,,,,,,,,,,,,,
917393,1480784320180,,,,,,,,-0.06,0.08,1.01,-9.2,0.1,0.2,860,156,,,,,,,,,,,,,,,,,,,
917413,1480784320200,,,,,,,,-0.05,0.1,1.01,-9.3,-0.0,0.2,880,129,,,,,,,,,,,,,,,,,,,
917433,1480784320220,,,,,,,,-0.04,0.09,1.02,-9.3,-0.3,0.1,920,126,,,,,,,,,,,,,,,,,,,
917453,1480784320240,0,113.1,,148.7,35,170.4,,-0.05,0.08,1.02,-9.3,-0.1,0.0,940,124,0,0,7.302,0,38.158562,-122.452919,1.14,0.209,140910992.0,10,3,1.9,0,0.0,-1,0.0,0.0,0.0,0
917473,1480784320260,,,,,,,,-0.04,0.08,1.02,-9.3,-0.0,-0.1,960,124,,,,,,,,,,,,,,,,,,,
917493,1480784320280,,,,,,,,-0.03,0.07,1.02,-9.2,-0.1,-0.2,980,120,,,,,,,,,,,,,,,,,,,
917513,1480784320200,,,,,,,,-0.03,0.07,1.02,-9.1,0.1,-0.3,1000,120,,,,,,,,,,,,,,,,,,,
917533,1480784320220,,,,,,,,-0.02,0.07,1.02,-9.0,0.2,-0.3,1020,124,,,,,,,,,,,,,,,,,,,
917553,1480784320240,,,,,40,,,-0.0,0.07,1.02,-8.9,0.3,-0.3,1040,152,0,0,8.5,0,38.158558,-122.452919,1.59,0.209,140910992.0,10,3,1.9,0,0.0,-1,0.0,,0.0,0
917573,1480784320260,,,,,,,,-0.0,0.06,1.03,-8.8,0.5,-0.3,1060,184,,,,,,,,,,,,,,,,,,,
917593,1480784320280,,,,,,,,0.0,0.06,1.03,-8.7,0.5,-0.2,1060,187,,,,,,,,,,,,,,,,,,,
917613,1480784320303,,,,,,,,0.0,0.07,1.03,-8.6,0.4,-0.1,1080,176,,,,,,,,,,,,,,,,,,,
917633,1480784320323,,,,,,,,0.01,0.07,1.03,-8.5,0.3,-0.1,1100,176,,,,,,,,,,,,,,,,,,,
917653,1480784320343,1,112.1,,147.4,46,169.5,,0.01,0.07,1.02,-8.5,0.3,-0.1,1100,169,0,0,6.25,0,38.158558,-122.452919,2.99,0.209,140910992.0,10,3,1.9,0,0.0,-1,0.0,0.0,0.0,0
917673,1480784320363,,,,,,,,0.01,0.07,1.02,-8.4,0.3,-0.1,1100,160,,,,,,,,,,,,,,,,,,,
917693,1480784320383,,,,,,,,0.01,0.07,1.02,-8.4,0.3,-0.1,1080,153,,,,,,,,,,,,,,,,,,,
917713,1480784320402,,,,,,,,0.01,0.07,1.01,-8.3,0.3,-0.1,1060,152,,,,,,,,,,,,,,,,,,,
917733,1480784320422,,,,,,,,0.02,0.07,1.02,-8.2,0.3,0.0,1060,146,,,,,,,,,,,,,,,,,,,
917753,1480784320442,,,,,48,,,0.02,0.07,1.02,-8.2,0.2,0.0,1040,141,0,0,7.26,0,38.158558,-122.452919,2.65,0.209,140910992.0,10,3,1.9,0,0.0,-1,0.0,,0.0,0
917773,1480784320462,,,,,,,,0.02,0.07,1.01,-8.1,0.2,0.1,1040,138,,,,,,,,,,,,,,,,,,,
917793,1480784320482,,,,,,,,0.03,0.06,1.01,-8.0,0.2,0.1,1040,147,,,,,,,,,,,,,,,,,,,
917813,1480784320502,,,,,,,,0.04,0.06,1.01,-7.9,0.4,0.1,1020,164,,,,,,,,,,,,,,,,,,,
917833,1480784320522,,,,,,,,0.03,0.06,1.01,-7.8,0.4,0.1,1000,172,,,,,,,,,,,,,,,,,,,
917853,1480784320542,0,113.6,,149.1,47,170.4,,0.03,0.07,1.02,-7.6,0.5,0.1,980,166,0,0,5.814,0,38.158558,-122.452919,2.63,0.209,140910992.0,10,3,1.9,0,0.0,-1,0.0,0.0,0.0,0
917873,1480784320562,,,,,,,,0.03,0.07,1.02,-7.5,0.6,0.2,980,160,,,,,,,,,,,,,,,,,,,
917893,1480784320582,,,,,,,,0.03,0.07,1.02,-7.4,0.6,0.2,960,153,,,,,,,,,,,,,,,,,,,
917913,1480784320602,,,,,,,,0.03,0.07,1.02,-7.3,0.6,0.3,960,150,,,,,,,,,,,,,,,,,,,
917933,1480784320622,,,,,,,,0.03,0.07,1.02,-7.2,0.6,0.3,940,147,,,,,,,,,,,,,,,,,,,
917953,1480784320642,,,,,39,,,0.03,0.07,1.02,-7.1,0.6,0.3,920,146,0,0,6.309,0,38.158554,-122.452919,2.61,0.209,140910992.0,10,3,1.9,0,0.0,-1,0.0,,0.0,0
917973,1480784320662,,,,,,,,0.03,0.06,1.02,-7.0,0.5,0.3,920,144,,,,,,,,,,,,,,,,,,,
917993,1480784320682,,,,,,,,0.03,0.06,1.02,-6.9,0.5,0.3,900,146,,,,,,,,,,,,,,,,,,,
918013,1480784320701,,,,,,,,0.04,0.06,1.02,-6.7,0.5,0.3,900,152,,,,,,,,,,,,,,,,,,,
918033,1480784320721,,,,,,,,0.04,0.06,1.02,-6.6,0.5,0.3,900,156,,,,,,,,,,,,,,,,,,,
918053,1480784320741,0,114.5,8.2,149.6,42,170.4,14.57,0.04,0.06,1.02,-6.5,0.4,0.3,880,155,0,0,5.769,0,38.158554,-122.452919,2.4,0.209,140910992.0,10,3,1.9,0,0.0,-1,0.0,0.0,0.0,0
918073,1480784320761,,,,,,,,0.04,0.06,1.02,-6.4,0.4,0.3,880,152,,,,,,,,,,,,,,,,,,,
918093,1480784320781,,,,,,,,0.04,0.06,1.02,-6.3,0.5,0.3,860,147,,,,,,,,,,,,,,,,,,,
918113,1480784320901,,,,,,,,0.04,0.07,1.02,-6.1,0.3,0.2,840,146,,,,,,,,,,,,,,,,,,,
918133,1480784320921,,,,,,,,0.04,0.06,1.02,-6.0,0.3,0.1,840,143,,,,,,,,,,,,,,,,,,,
918153,1480784320941,,,,,41,,,0.04,0.06,1.02,-5.9,0.4,0.1,840,144,0,0,5.874,0,38.158554,-122.452919,2.25,0.209,140910992.0,10,3,1.9,0,0.0,-1,0.0,,0.0,0
918173,1480784320961,,,,,,,,0.04,0.06,1.01,-5.8,0.4,0.1,840,147,,,,,,,,,,,,,,,,,,,
918193,1480784320981,,,,,,,,0.05,0.06,1.01,-5.7,0.3,0.1,820,149,,,,,,,,,,,,,,,,,,,
918213,1480784321001,,,,,,,,0.05,0.06,1.01,-5.6,0.4,0.2,800,147,,,,,,,,,,,,,,,,,,,
918233,1480784321021,,,,,,,,0.05,0.07,1.01,-5.5,0.4,0.2,800,146,,,,,,,,,,,,,,,,,,,
918253,1480784321041,0,114.3,,149.4,34,170.2,,0.05,0.07,1.01,-5.4,0.4,0.1,800,143,0,0,5.479,0,38.158554,-122.452919,2.25,0.209,140910992.0,10,3,1.9,0,0.0,-1,0.0,0.0,0.0,0
918273,1480784321061,,,,,,,,0.05,0.07,1.01,-5.3,0.4,0.2,800,141,,,,,,,,,,,,,,,,,,,
918293,1480784321081,,,,,,,,0.05,0.07,1.01,-5.3,0.4,0.2,780,141,,,,,,,,,,,,,,,,,,,
918313,1480784320994,,,,,,,,0.05,0.07,1.01,-5.2,0.5,0.3,780,141,,,,,,,,,,,,,,,,,,,
918333,1480784321014,,,,,,,,0.05,0.07,1.01,-5.1,0.5,0.3,780,143,,,,,,,,,,,,,,,,,,,
918353,1480784321034,,,,,33,,,0.05,0.07,1.01,-5.0,0.5,0.2,780,143,0,0,5.532,0,38.15855,-122.452919,2.22,0.21,140910992.0,10,3,1.9,0,0.0,-1,0.0,,0.0,0
918373,1480784321054,,,,,,,,0.05,0.07,1.01,-4.9,0.5,0.2,780,141,,,,,,,,,,,,,,,,,,,
918393,1480784321074,,,,,,,,0.05,0.07,1.01,-4.9,0.5,0.3,780,140,,,,,,,,,,,,,,,,,,,
918413,1480784321101,,,,,,,,0.05,0.07,1.01,-4.8,0.6,0.3,780,140,,,,,,,,,,,,,,,,,,,
918433,1480784321121,,,,,,,,0.05,0.07,1.01,-4.7,0.5,0.3,780,138,,,,,,,,,,,,,,,,,,,
918453,1480784321141,0,112.8,,148.3,33,169.5,,0.04,0.07,1.01,-4.6,0.4,0.3,780,136,0,0,5.652,0,38.15855,-122.452919,2.41,0.21,140910992.0,10,3,1.9,0,0.0,-1,0.0,0.0,0.0,0
918473,1480784321161,,,,,,,,0.05,0.07,1.0,-4.5,0.5,0.3,780,135,,,,,,,,,,,,,,,,,,,
918493,1480784321181,,,,,,,,0.05,0.07,1.0,-4.5,0.5,0.3,780,135,,,,,,,,,,,,,,,,,,,
918513,1480784321202,,,,,,,,0.05,0.07,1.01,-4.4,0.5,0.3,800,133,,,,,,,,,,,,,,,,,,,
918533,1480784321222,,,,,,,,0.05,0.07,1.01,-4.3,0.5,0.3,800,133,,,,,,,,,,,,,,,,,,,
918553,1480784321242,,,,,37,,,0.05,0.07,1.01,-4.2,0.4,0.3,800,133,0,0,6.015,0,38.15855,-122.452919,2.39,0.21,140910992.0,10,3,1.9,0,0.0,-1,0.0,,0.0,0
918573,1480784321262,,,,,,,,0.05,0.06,1.01,-4.1,0.5,0.3,800,133,,,,,,,,,,,,,,,,,,,
918593,1480784321282,,,,,,,,0.05,0.07,1.01,-4.1,0.5,0.4,820,133,,,,,,,,,,,,,,,,,,,
918613,1480784321302,,,,,,,,0.05,0.07,1.01,-4.0,0.5,0.4,820,133,,,,,,,,,,,,,,,,,,,
918633,1480784321322,,,,,,,,0.05,0.08,1.01,-4.0,0.5,0.3,840,132,,,,,,,,,,,,,,,,,,,
918653,1480784321342,0,114.2,,149.4,38,169.3,,0.05,0.07,1.02,-3.9,0.5,0.3,840,132,0,0,6.364,0,38.158546,-122.452919,2.27,0.21,140910992.0,10,3,1.9,0,0.0,-1,0.0,0.0,0.0,0
918673,1480784321362,,,,,,,,0.05,0.08,1.01,-3.8,0.4,0.3,860,130,,,,,,,,,,,,,,,,,,,
918693,1480784321382,,,,,,,,0.05,0.07,1.01,-3.7,0.5,0.3,860,129,,,,,,,,,,,,,,,,,,,
918713,1480784321403,,,,,,,,0.05,0.06,1.01,-3.7,0.5,0.3,860,129,,,,,,,,,,,,,,,,,,,
918733,1480784321423,,,,,,,,0.05,0.06,1.01,-3.7,0.4,0.3,880,127,,,,,,,,,,,,,,,,,,,
918753,1480784321443,,,,,33,,,0.05,0.07,1.01,-3.7,0.5,0.3,880,127,0,0,6.929,0,38.158546,-122.452919,2.62,0.21,140910992.0,10,3,1.9,0,0.0,-1,0.0,,0.0,0
918773,1480784321463,,,,,,,,0.06,0.07,1.01,-3.6,0.6,0.3,880,127,,,,,,,,,,,,,,,,,,,
918793,1480784321483,,,,,,,,0.05,0.08,1.01,-3.5,0.4,0.3,900,129,,,,,,,,,,,,,,,,,,,
918813,1480784321493,,,,,,,,0.05,0.08,1.02,-3.5,0.3,0.3,900,129,,,,,,,,,,,,,,,,,,,
918833,1480784321513,,,,,,,,0.04,0.08,1.02,-3.4,0.3,0.3,900,129,,,,,,,,,,,,,,,,,,,
918853,1480784321533,0,112.6,,149.1,35,169.9,,0.04,0.08,1.01,-3.3,0.4,0.3,920,132,0,0,6.977,0,38.158546,-122.452919,2.28,0.21,140910992.0,10,3,1.9,0,0.0,-1,0.0,0.0,0.0,0
918873,1480784321553,,,,,,,,0.04,0.07,1.01,-3.3,0.3,0.2,920,138,,,,,,,,,,,,,,,,,,,
918893,1480784321573,,,,,,,,0.05,0.07,1.01,-3.2,0.3,0.2,920,140,,,,,,,,,,,,,,,,,,,
918913,1480784321700,,,,,,,,0.05,0.06,1.01,-3.2,0.5,0.2,920,143,,,,,,,,,,,,,,,,,,,
918933,1480784321720,,,,,,,,0.05,0.07,1.01,-3.2,0.4,0.3,920,143,,,,,,,,,,,,,,,,,,,
918953,1480784321740,,,,,40,,,0.05,0.07,1.01,-3.1,0.4,0.4,920,141,0,0,6.434,0,38.158543,-122.452919,2.1,0.21,140910992.0,10,3,1.9,0,0.0,-1,0.0,,0.0,0
918973,1480784321760,,,,,,,,0.04,0.07,1.01,-3.1,0.3,0.4,920,140,,,,,,,,,,,,,,,,,,,
918993,1480784321780,,,,,,,,0.04,0.07,1.01,-3.1,0.4,0.5,920,141,,,,,,,,,,,,,,,,,,,
919013,1480784321800,,,,,,,,0.04,0.07,1.01,-3.0,0.5,0.5,920,140,,,,,,,,,,,,,,,,,,,
919033,1480784321820,,,,,,,,0.05,0.08,1.01,-3.0,0.6,0.5,920,140,,,,,,,,,,,,,,,,,,,
919053,1480784321840,0,112.8,7.6,149.5,38,170.0,14.62,0.05,0.08,1.01,-2.9,0.5,0.5,920,135,0,0,6.571,0,38.158543,-122.452919,2.1,0.21,140910992.0,10,3,1.9,0,0.0,-1,0.0,0.0,0.0,0
919073,1480784321860,,,,,,,,0.05,0.08,1.0,-2.9,0.4,0.4,920,132,,,,,,,,,,,,,,,,,,,
919093,1480784321880,,,,,,,,0.04,0.07,1.01,-2.9,0.3,0.4,920,124,,,,,,,,,,,,,,,,,,,
919113,1480784321802,,,,,,,,0.04,0.07,1.01,-2.9,0.4,0.4,920,121,,,,,,,,,,,,,,,,,,,
919133,1480784321822,,,,,,,,0.03,0.07,1.01,-2.8,0.4,0.3,920,118,,,,,,,,,,,,,,,,,,,
919153,1480784321842,,,,,43,,,0.03,0.07,1.0,-2.8,0.4,0.2,940,115,0,0,7.797,0,38.158543,-122.452919,1.73,0.21,140910992.0,10,3,1.9,0,0.0,-1,0.0,,0.0,0
919173,1480784321862,,,,,,,,0.03,0.06,1.0,-2.7,0.4,0.2,940,116,,,,,,,,,,,,,,,,,,,
919193,1480784321882,,,,,,,,0.03,0.06,1.0,-2.7,0.4,0.2,920,120,,,,,,,,,,,,,,,,,,,
919213,1480784321896,,,,,,,,0.04,0.06,1.0,-2.7,0.6,0.2,940,121,,,,,,,,,,,,,,,,,,,
919233,1480784321916,,,,,,,,0.04,0.06,1.0,-2.7,0.6,0.2,920,124,,,,,,,,,,,,,,,,,,,
919253,1480784321936,1,113.6,,149.1,39,169.4,,0.04,0.07,1.0,-2.7,0.6,0.3,920,124,0,0,7.642,0,38.158543,-122.452919,1.82,0.21,140910992.0,10,3,1.9,0,0.0,-1,0.0,0.0,0.0,0
919273,1480784321956,,,,,,,,0.03,0.07,1.0,-2.7,0.5,0.3,920,123,,,,,,,,,,,,,,,,,,,
919293,1480784321976,,,,,,,,0.03,0.08,1.0,-2.6,0.5,0.4,920,116,,,,,,,,,,,,,,,,,,,
919313,1480784322002,,,,,,,,0.03,0.08,1.0,-2.6,0.6,0.4,920,115,,,,,,,,,,,,,,,,,,,
919333,1480784322022,,,,,,,,0.03,0.08,1.01,-2.6,0.7,0.4,920,120,,,,,,,,,,,,,,,,,,,
919353,1480784322042,,,,,35,,,0.03,0.09,1.01,-2.6,0.7,0.4,900,123,0,0,7.931,0,38.158543,-122.452919,2.18,0.21,140910992.0,10,3,1.9,0,0.0,-1,0.0,,0.0,0
919373,1480784322062,,,,,,,,0.03,0.09,1.0,-2.6,0.5,0.3,900,123,,,,,,,,,,,,,,,,,,,
919393,1480784322082,,,,,,,,0.02,0.08,1.01,-2.6,0.5,0.2,900,116,,,,,,,,,,,,,,,,,,,
919413,1480784322102,,,,,,,,0.02,0.08,1.01,-2.5,0.6,0.1,900,112,,,,,,,,,,,,,,,,,,,
919433,1480784322122,,,,,,,,0.01,0.08,1.0,-2.5,0.7,0.0,900,116,,,,,,,,,,,,,,,,,,,
919453,1480784322142,0,114.7,,150.4,43,169.9,,0.01,0.07,1.0,-2.5,0.7,0.0,900,124,0,0,7.759,0,38.158543,-122.452919,2.12,0.21,140910992.0,10,3,1.9,0,0.0,-1,0.0,0.0,0.0,0
919473,1480784322162,,,,,,,,0.01,0.06,1.0,-2.5,0.7,0.1,880,120,,,,,,,,,,,,,,,,,,,
919493,1480784322182,,,,,,,,0.01,0.06,1.0,-2.5,0.7,0.1,880,118,,,,,,,,,,,,,,,,,,,
919513,1480784322202,,,,,,,,0.01,0.07,1.0,-2.6,0.7,0.2,880,116,,,,,,,,,,,,,,,,,,,
919533,1480784322222,,,,,,,,0.01,0.07,1.0,-2.6,0.7,0.2,880,118,,,,,,,,,,,,,,,,,,,
919553,1480784322242,,,,,43,,,0.01,0.08,1.0,-2.6,0.7,0.3,880,126,0,0,7.458,0,38.158543,-122.452919,1.79,0.21,140910992.0,10,3,1.9,0,0.0,-1,0.0,,0.0,0
919573,1480784322262,,,,,,,,0.01,0.09,1.0,-2.6,0.6,0.3,880,121,,,,,,,,,,,,,,,,,,,
919593,1480784322282,,,,,,,,0.01,0.08,1.01,-2.6,0.5,0.2,880,118,,,,,,,,,,,,,,,,,,,
919613,1480784322302,,,,,,,,-0.0,0.08,1.01,-2.5,0.6,0.2,880,123,,,,,,,,,,,,,,,,,,,
919633,1480784322322,,,,,,,,-0.0,0.07,1.01,-2.5,0.6,0.1,860,124,,,,,,,,,,,,,,,,,,,
919653,1480784322342,1,112.6,,149.8,40,169.9,,-0.0,0.06,1.01,-2.5,0.6,0.0,860,120,0,0,7.097,0,38.158543,-122.452919,1.6,0.21,140910992.0,10,3,1.9,0,0.0,-1,0.0,0.0,0.0,0
919673,1480784322362,,,,,,,,0.0,0.06,1.0,-2.5,0.6,0.0,860,116,,,,,,,,,,,,,,,,,,,
919693,1480784322382,,,,,,,,-0.0,0.07,1.0,-2.5,0.6,0.1,860,124,,,,,,,,,,,,,,,,,,,
919713,1480784322501,,,,,,,,-0.0,0.07,1.0,-2.5,0.7,0.1,860,127,,,,,,,,,,,,,,,,,,,
919733,1480784322521,,,,,,,,0.0,0.07,1.01,-2.5,0.7,0.1,860,126,,,,,,,,,,,,,,,,,,,
919753,1480784322541,,,,,38,,,-0.0,0.07,1.01,-2.5,0.6,0.1,860,123,0,0,6.825,0,38.158543,-122.452919,2.15,0.21,140910992.0,10,3,1.9,0,0.0,-1,0.0,,0.0,0
919773,1480784322561,,,,,,,,-0.01,0.08,1.01,-2.4,0.6,0.0,840,127,,,,,,,,,,,,,,,,,,,
919793,1480784322581,,,,,,,,-0.01,0.07,1.01,-2.4,0.6,-0.1,860,129,,,,,,,,,,,,,,,,,,,
919813,1480784322601,,,,,,,,-0.01,0.07,1.01,-2.3,0.7,-0.1,860,129,,,,,,,,,,,,,,,,,,,
919833,1480784322621,,,,,,,,-0.01,0.07,1.01,-2.3,0.5,-0.0,860,129,,,,,,,,,,,,,,,,,,,
919853,1480784322641,0,114.6,,150.6,42,169.1,,-0.0,0.08,1.01,-2.3,0.7,0.1,860,129,0,0,6.667,0,38.158543,-122.452919,2.15,0.21,140910992.0,10,3,1.9,0,0.0,-1,0.0,0.0,0.0,0
919873,1480784322661,,,,,,,,0.0,0.08,1.01,-2.3,0.8,0.1,860,127,,,,,,,,,,,,,,,,,,,
919893,1480784322681,,,,,,,,-0.01,0.08,1.02,-2.3,0.6,0.2,860,130,,,,,,,,,,,,,,,,,,,
919913,1480784322603,,,,,,,,-0.01,0.08,1.03,-2.3,0.6,0.1,860,130,,,,,,,,,,,,,,,,,,,
919933,1480784322623,,,,,,,,-0.02,0.08,1.02,-2.2,0.6,-0.0,880,129,,,,,,,,,,,,,,,,,,,
919953,1480784322643,,,,,39,,,-0.01,0.07,1.02,-2.1,0.8,-0.1,880,132,0,0,6.822,0,38.158539,-122.452919,2.12,0.21,140910992.0,10,3,1.9,0,0.0,-1,0.0,,0.0,0
919973,1480784322663,,,,,,,,-0.01,0.07,1.01,-2.1,0.8,-0.2,880,135,,,,,,,,,,,,,,,,,,,
919993,1480784322683,,,,,,,,-0.0,0.07,1.01,-2.1,0.7,-0.1,880,135,,,,,,,,,,,,,,,,,,,
920013,1480784322702,,,,,,,,-0.01,0.07,1.01,-2.1,0.7,-0.1,880,132,,,,,,,,,,,,,,,,,,,
920033,1480784322722,,,,,,,,-0.0,0.08,1.01,-2.0,0.9,0.0,880,133,,,,,,,,,,,,,,,,,,,
920053,1480784322742,0,112.8,8.0,149.9,42,169.5,14.65,0.0,0.08,1.01,-2.0,0.9,0.0,900,136,0,0,6.617,0,38.158539,-122.452919,2.04,0.21,140910992.0,10,3,1.9,0,0.0,-1,0.0,0.0,0.0,0
920073,1480784322762,,,,,,,,-0.0,0.08,1.01,-2.0,0.6,-0.0,900,135,,,,,,,,,,,,,,,,,,,
920093,1480784322782,,,,,,,,-0.01,0.07,1.02,-1.9,0.6,-0.1,900,135,,,,,,,,,,,,,,,,,,,
920113,1480784322802,,,,,,,,-0.01,0.07,1.01,-1.9,0.6,-0.2,900,136,,,,,,,,,,,,,,,,,,,
920133,1480784322822,,,,,,,,-0.02,0.07,1.01,-1.8,0.5,-0.2,900,138,,,,,,,,,,,,,,,,,,,
920153,1480784322842,,,,,36,,,-0.02,0.06,1.01,-1.8,0.6,-0.2,900,140,0,0,6.618,0,38.158539,-122.452919,1.96,0.21,140910992.0,10,3,1.9,0,0.0,-1,0.0,,0.0,0
920173,1480784322862,,,,,,,,-0.01,0.06,1.01,-1.8,0.7,-0.2,900,141,,,,,,,,,,,,,,,,,,,
920193,1480784322882,,,,,,,,-0.01,0.06,1.0,-1.7,0.7,-0.1,900,141,,,,,,,,,,,,,,,,,,,
920213,1480784322896,,,,,,,,-0.01,0.07,1.0,-1.7,0.6,0.1,900,141,,,,,,,,,,,,,,,,,,,
920233,1480784322916,,,,,,,,-0.02,0.07,1.01,-1.7,0.6,0.2,900,146,,,,,,,,,,,,,,,,,,,
920253,1480784322936,0,112.8,,149.9,37,169.5,,-0.01,0.08,1.01,-1.7,0.7,0.2,900,147,0,0,6.164,0,38.158539,-122.452904,1.88,0.211,140910992.0,10,3,1.9,0,0.0,-1,0.0,0.0,0.0,0
920273,1480784322956,,,,,,,,-0.01,0.08,1.01,-1.7,0.8,0.3,880,146,,,,,,,,,,,,,,,,,,,
920293,1480784322976,,,,,,,,-0.02,0.08,1.02,-1.7,0.5,0.3,880,147,,,,,,,,,,,,,,,,,,,
920313,1480784323001,,,,,,,,-0.03,0.07,1.02,-1.6,0.5,0.3,880,146,,,,,,,,,,,,,,,,,,,
920333,1480784323021,,,,,,,,-0.03,0.07,1.02,-1.6,0.5,0.2,880,144,,,,,,,,,,,,,,,,,,,
920353,1480784323041,,,,,39,,,-0.03,0.06,1.01,-1.5,0.5,0.2,880,152,0,0,6.111,0,38.158535,-122.452904,2.39,0.211,140910992.0,10,3,1.9,0,0.0,-1,0.0,,0.0,0
920373,1480784323061,,,,,,,,-0.03,0.06,1.01,-1.5,0.6,0.2,860,156,,,,,,,,,,,,,,,,,,,
920393,1480784323081,,,,,,,,-0.03,0.06,1.0,-1.5,0.5,0.2,860,152,,,,,,,,,,,,,,,,,,,
920413,1480784323101,,,,,,,,-0.03,0.07,1.0,-1.5,0.5,0.3,860,150,,,,,,,,,,,,,,,,,,,
920433,1480784323121,,,,,,,,-0.02,0.07,1.0,-1.5,0.6,0.4,860,158,,,,,,,,,,,,,,,,,,,
920453,1480784323141,0,114.8,,151.4,35,169.3,,-0.03,0.07,1.0,-1.5,0.4,0.4,860,163,0,0,5.621,0,38.158535,-122.452904,2.23,0.211,140910992.0,10,3,1.9,0,0.0,-1,0.0,0.0,0.0,0
920473,1480784323161,,,,,,,,-0.03,0.07,1.01,-1.4,0.4,0.4,860,155,,,,,,,,,,,,,,,,,,,
920493,1480784323181,,,,,,,,-0.04,0.07,1.0,-1.3,0.4,0.2,860,155,,,,,,,,,,,,,,,,,,,
920513,1480784323301,,,,,,,,-0.04,0.06,1.01,-1.2,0.5,0.1,840,164,,,,,,,,,,,,,,,,,,,
920533,1480784323321,,,,,,,,-0.04,0.06,1.0,-1.2,0.5,0.1,840,166,,,,,,,,,,,,,,,,,,,
920553,1480784323341,,,,,36,,,-0.03,0.06,1.0,-1.2,0.4,0.1,840,158,0,0,5.06,0,38.158531,-122.452904,2.32,0.212,140910992.0,10,3,1.9,0,0.0,-1,0.0,,0.0,0
920573,1480784323361,,,,,,,,-0.03,0.06,1.0,-1.1,0.5,0.2,840,166,,,,,,,,,,,,,,,,,,,
920593,1480784323381,,,,,,,,-0.03,0.07,1.0,-1.1,0.3,0.3,840,175,,,,,,,,,,,,,,,,,,,
920613,1480784323401,,,,,,,,-0.04,0.07,1.0,-1.0,0.3,0.2,840,172,,,,,,,,,,,,,,,,,,,
920633,1480784323421,,,,,,,,-0.05,0.07,1.0,-1.0,0.2,0.1,840,167,,,,,,,,,,,,,,,,,,,
920653,1480784323441,1,113.1,,150.7,38,169.0,,-0.05,0.06,1.0,-0.9,0.2,-0.0,820,167,0,0,5.03,0,38.158531,-122.452904,2.32,0.212,140910992.0,10,3,1.9,0,0.0,-1,0.0,0.0,0.0,0
920673,1480784323461,,,,,,,,-0.04,0.05,1.0,-0.8,0.3,-0.0,820,175,,,,,,,,,,,,,,,,,,,
920693,1480784323481,,,,,,,,-0.04,0.06,1.0,-0.8,0.1,0.1,840,176,,,,,,,,,,,,,,,,,,,
920713,1480784323402,,,,,,,,-0.04,0.06,1.0,-0.7,0.2,0.2,840,178,,,,,,,,,,,,,,,,,,,
920733,1480784323422,,,,,,,,-0.04,0.06,1.01,-0.6,0.1,0.1,840,180,,,,,,,,,,,,,,,,,,,
920753,1480784323442,,,,,38,,,-0.05,0.06,1.01,-0.5,0.0,0.1,840,178,0,0,4.667,0,38.158531,-122.452904,2.67,0.212,140910992.0,10,3,1.9,0,0.0,-1,0.0,,0.0,0
920773,1480784323462,,,,,,,,-0.05,0.05,1.0,-0.3,-0.0,-0.0,840,183,,,,,,,,,,,,,,,,,,,
920793,1480784323482,,,,,,,,-0.05,0.05,1.0,-0.2,0.2,-0.0,840,190,,,,,,,,,,,,,,,,,,,
920813,1480784323502,,,,,,,,-0.05,0.05,1.0,-0.1,0.2,0.0,820,189,,,,,,,,,,,,,,,,,,,
920833,1480784323522,,,,,,,,-0.04,0.06,1.01,-0.0,0.3,0.1,820,183,,,,,,,,,,,,,,,,,,,
920853,1480784323542,0,113.0,,151.0,36,169.9,,-0.05,0.06,1.0,0.1,0.2,0.1,820,184,0,0,4.457,0,38.158531,-122.452904,2.86,0.212,140910992.0,10,3,1.9,0,0.0,-1,0.0,0.0,0.0,0
920873,1480784323562,,,,,,,,-0.05,0.06,1.01,0.2,0.3,0.1,820,195,,,,,,,,,,,,,,,,,,,
920893,1480784323582,,,,,,,,-0.06,0.05,1.01,0.4,0.3,-0.0,820,196,,,,,,,,,,,,,,,,,,,
920913,1480784323602,,,,,,,,-0.06,0.05,1.01,0.4,0.3,-0.0,820,195,,,,,,,,,,,,,,,,,,,
920933,1480784323622,,,,,,,,-0.05,0.05,1.01,0.5,0.3,0.1,820,200,,,,,,,,,,,,,,,,,,,
920953,1480784323642,,,,,29,,,-0.05,0.06,1.01,0.7,0.3,0.2,800,201,0,0,4.141,0,38.158527,-122.452904,3.1,0.212,140910992.0,10,3,1.9,0,0.0,-1,0.0,,0.0,0
920973,1480784323662,,,,,,,,-0.05,0.05,1.02,0.8,0.3,0.2,820,196,,,,,,,,,,,,,,,,,,,
920993,1480784323682,,,,,,,,-0.06,0.05,1.02,0.9,0.2,0.1,800,200,,,,,,,,,,,,,,,,,,,
921013,1480784323702,,,,,,,,-0.06,0.04,1.02,1.1,0.3,-0.0,800,209,,,,,,,,,,,,,,,,,,,
921033,1480784323722,,,,,,,,-0.05,0.03,1.01,1.2,0.4,0.0,800,206,,,,,,,,,,,,,,,,,,,
921053,1480784323742,0,114.8,8.7,151.9,33,169.7,14.64,-0.05,0.04,1.01,1.4,0.4,0.1,800,200,0,0,-3.828,-1,38.158527,-122.452904,3.23,0.212,140910992.0,10,3,1.9,0,0.0,-1,0.0,0.0,0.0,0
921073,1480784323762,,,,,,,,-0.05,0.04,1.01,1.6,0.3,0.1,800,210,,,,,,,,,,,,,,,,,,,
921093,1480784323782,,,,,,,,-0.05,0.04,1.01,1.7,0.3,0.0,800,224,,,,,,,,,,,,,,,,,,,
921113,1480784323801,,,,,,,,-0.07,0.03,1.01,1.9,0.3,-0.1,800,220,,,,,,,,,,,,,,,,,,,
921133,1480784323821,,,,,,,,-0.07,0.03,1.0,2.1,0.5,-0.1,800,206,,,,,,,,,,,,,,,,,,,
921153,1480784323841,,,,,30,,,-0.06,0.04,1.0,2.3,0.5,0.0,780,207,0,0,-3.828,-1,38.158527,-122.452904,3.17,0.212,140910992.0,10,3,1.9,0,0.0,-1,0.0,,0.0,0
921173,1480784323861,,,,,,,,-0.05,0.05,1.0,2.4,0.3,0.1,800,224,,,,,,,,,,,,,,,,,,,
921193,1480784323881,,,,,,,,-0.07,0.04,1.0,2.6,0.2,-0.0,780,227,,,,,,,,,,,,,,,,,,,
921213,1480784323897,,,,,,,,-0.07,0.03,1.0,2.8,0.2,-0.1,780,224,,,,,,,,,,,,,,,,,,,
921233,1480784323917,,,,,,,,-0.06,0.03,1.0,3.0,0.3,-0.1,780,224,,,,,,,,,,,,,,,,,,,
921253,1480784323937,0,113.7,,150.9,29,169.4,,-0.05,0.05,1.0,3.1,0.4,-0.0,780,227,0,0,3.482,0,38.158524,-122.452904,3.42,0.212,140910992.0,10,3,1.9,0,0.0,-1,0.0,0.0,0.0,0
921273,1480784323957,,,,,,,,-0.05,0.05,1.01,3.3,0.3,-0.0,780,227,,,,,,,,,,,,,,,,,,,
921293,1480784323977,,,,,,,,-0.06,0.04,1.01,3.5,0.1,-0.2,780,230,,,,,,,,,,,,,,,,,,,
921313,1480784324097,,,,,,,,-0.06,0.02,1.0,3.8,0.4,-0.2,780,232,,,,,,,,,,,,,,,,,,,
921333,1480784324117,,,,,,,,-0.06,0.02,0.99,4.0,0.3,-0.1,780,232,,,,,,,,,,,,,,,,,,,
921353,1480784324137,,,,,31,,,-0.05,0.02,0.99,4.1,0.5,-0.0,780,235,0,0,3.348,1,38.158524,-122.452904,3.88,0.212,140910992.0,10,3,1.9,0,0.0,-1,0.0,,0.0,0
921373,1480784324157,,,,,,,,-0.05,0.02,1.01,4.3,0.5,-0.1,780,238,,,,,,,,,,,,,,,,,,,
921393,1480784324177,,,,,,,,-0.06,0.01,1.01,4.6,0.4,-0.3,780,243,,,,,,,,,,,,,,,,,,,
921413,1480784324197,,,,,,,,-0.06,0.01,1.01,4.8,0.5,-0.4,780,244,,,,,,,,,,,,,,,,,,,
921433,1480784324217,,,,,,,,-0.05,0.01,1.01,5.0,0.6,-0.2,780,241,,,,,,,,,,,,,,,,,,,
921453,1480784324237,0,115.3,,152.3,29,169.9,,-0.04,0.01,1.01,5.2,0.4,-0.2,800,243,0,0,3.237,1,38.158524,-122.452904,3.88,0.212,140910992.0,10,3,1.9,0,0.0,-1,0.0,0.0,0.0,0
921473,1480784324257,,,,,,,,-0.04,0.01,1.02,5.4,0.4,-0.3,820,246,,,,,,,,,,,,,,,,,,,
921493,1480784324277,,,,,,,,-0.04,0.0,1.03,5.6,0.4,-0.4,800,249,,,,,,,,,,,,,,,,,,,
921513,1480784324202,,,,,,,,-0.04,-0.0,1.03,5.9,0.4,-0.5,800,250,,,,,,,,,,,,,,,,,,,
921533,1480784324222,,,,,,,,-0.03,-0.0,1.03,6.1,0.5,-0.4,820,247,,,,,,,,,,,,,,,,,,,
921553,1480784324242,,,,,33,,,-0.03,-0.0,1.02,6.4,0.6,-0.4,800,247,0,0,3.333,1,38.158524,-122.452904,3.88,0.212,140910992.0,10,3,1.9,0,0.0,-1,0.0,,0.0,0
921573,1480784324262,,,,,,,,-0.03,-0.01,1.02,6.6,0.4,-0.4,820,249,,,,,,,,,,,,,,,,,,,
921593,1480784324282,,,,,,,,-0.03,-0.01,1.02,7.0,0.5,-0.6,820,250,,,,,,,,,,,,,,,,,,,
921613,1480784324302,,,,,,,,-0.03,-0.03,1.02,7.3,0.3,-0.7,820,252,,,,,,,,,,,,,,,,,,,
921633,1480784324322,,,,,,,,-0.03,-0.04,1.01,7.6,0.4,-0.7,820,253,,,,,,,,,,,,,,,,,,,
921653,1480784324342,0,115.1,,152.2,38,169.9,,-0.02,-0.03,1.01,7.9,0.2,-0.6,820,253,0,0,3.293,1,38.15852,-122.452904,4.17,0.213,140910992.0,10,3,1.9,0,0.0,-1,0.0,0.0,0.0,0
921673,1480784324362,,,,,,,,-0.01,-0.03,1.02,8.2,0.2,-0.5,820,250,,,,,,,,,,,,,,,,,,,
921693,1480784324382,,,,,,,,-0.01,-0.03,1.03,8.5,0.0,-0.5,820,253,,,,,,,,,,,,,,,,,,,
921713,1480784324402,,,,,,,,-0.02,-0.04,1.04,8.9,0.0,-0.6,820,255,,,,,,,,,,,,,,,,,,,
921733,1480784324422,,,,,,,,-0.02,-0.05,1.04,9.3,-0.0,-0.8,840,258,,,,,,,,,,,,,,,,,,,
921753,1480784324442,,,,,36,,,-0.01,-0.05,1.03,9.6,0.2,-0.9,840,260,0,0,3.178,1,38.15852,-122.452904,4.39,0.213,140910992.0,10,3,1.9,0,0.0,-1,0.0,,0.0,0
921773,1480784324462,,,,,,,,-0.0,-0.05,1.02,9.9,0.1,-0.8,840,258,,,,,,,,,,,,,,,,,,,
921793,1480784324482,,,,,,,,-0.0,-0.04,1.02,10.3,0.2,-0.7,840,256,,,,,,,,,,,,,,,,,,,
921813,1480784324502,,,,,,,,0.0,-0.04,1.02,10.7,0.1,-0.8,840,256,,,,,,,,,,,,,,,,,,,
921833,1480784324522,,,,,,,,-0.01,-0.05,1.03,11.1,0.1,-0.9,840,258,,,,,,,,,,,,,,,,,,,
921853,1480784324542,0,115.3,,152.0,30,169.9,,-0.01,-0.06,1.02,11.5,0.2,-0.9,840,261,0,0,3.231,1,38.158516,-122.452904,4.49,0.213,140910992.0,10,3,1.9,0,0.0,-1,0.0,0.0,0.0,0
921873,1480784324562,,,,,,,,-0.01,-0.06,1.01,11.9,0.2,-0.9,840,261,,,,,,,,,,,,,,,,,,,
921893,1480784324582,,,,,,,,0.0,-0.06,1.0,12.3,0.1,-0.9,840,261,,,,,,,,,,,,,,,,,,,
921913,1480784324602,,,,,,,,0.0,-0.05,1.01,12.6,0.1,-0.7,860,258,,,,,,,,,,,,,,,,,,,
921933,1480784324622,,,,,,,,0.02,-0.05,1.01,12.9,0.3,-0.6,840,260,,,,,,,,,,,,,,,,,,,
921953,1480784324642,,,,,37,,,0.02,-0.05,1.02,13.3,0.0,-0.5,840,256,0,0,3.256,1,38.158516,-122.452904,4.74,0.213,140910992.0,10,3,1.9,0,0.0,-1,0.0,,0.0,0
921973,1480784324662,,,,,,,,0.01,-0.05,1.02,13.6,0.2,-0.4,840,261,,,,,,,,,,,,,,,,,,,
921993,1480784324682,,,,,,,,0.02,-0.06,1.02,14.1,0.4,-0.5,840,261,,,,,,,,,,,,,,,,,,,
922013,1480784324700,,,,,,,,0.01,-0.06,0.99,14.5,0.5,-0.7,840,261,,,,,,,,,,,,,,,,,,,
922033,1480784324720,,,,,,,,0.02,-0.06,0.98,14.9,0.5,-0.9,840,263,,,,,,,,,,,,,,,,,,,
922053,1480784324740,0,114.1,9.5,151.7,37,169.4,14.65,0.02,-0.06,0.97,15.3,0.4,-1.0,860,261,0,0,3.218,1,38.158512,-122.452904,4.62,0.213,140910992.0,10,3,1.9,0,0.0,-1,0.0,0.0,0.0,0
922073,1480784324760,,,,,,,,0.02,-0.05,0.97,15.7,0.4,-1.2,860,263,,,,,,,,,,,,,,,,,,,
922093,1480784324780,,,,,,,,0.03,-0.05,0.98,16.1,0.2,-1.4,860,263,,,,,,,,,,,,,,,,,,,
922113,1480784324901,,,,,,,,0.02,-0.06,0.99,16.4,0.1,-1.6,860,266,,,,,,,,,,,,,,,,,,,
922133,1480784324921,,,,,,,,0.02,-0.05,0.99,16.8,0.1,-1.9,860,264,,,,,,,,,,,,,,,,,,,
922153,1480784324941,,,,,38,,,0.02,-0.05,1.0,17.0,0.1,-2.2,860,267,0,0,3.221,1,38.158508,-122.452904,4.98,0.213,140910992.0,10,3,1.9,0,0.0,-1,0.0,,0.0,0
922173,1480784324961,,,,,,,,0.02,-0.05,1.01,17.3,0.4,-2.6,860,269,,,,,,,,,,,,,,,,,,,
922193,1480784324981,,,,,,,,0.03,-0.05,1.02,17.4,0.7,-2.9,860,266,,,,,,,,,,,,,,,,,,,
922213,1480784325001,,,,,,,,0.03,-0.05,1.01,17.6,0.5,-3.0,860,266,,,,,,,,,,,,,,,,,,,
922233,1480784325021,,,,,,,,0.04,-0.05,1.02,17.8,0.7,-2.9,880,264,,,,,,,,,,,,,,,,,,,
922253,1480784325041,0,115.7,,152.8,30,170.0,,0.04,-0.04,1.01,18.1,0.8,-2.7,860,264,0,0,3.333,1,38.158508,-122.452904,4.98,0.213,140910992.0,10,3,1.9,0,0.0,-1,0.0,0.0,0.0,0
922273,1480784325061,,,,,,,,0.03,-0.06,1.0,18.3,0.6,-2.4,860,264,,,,,,,,,,,,,,,,,,,
922293,1480784325081,,,,,,,,0.03,-0.07,0.99,18.6,0.5,-2.2,860,263,,,,,,,,,,,,,,,,,,,
922313,1480784325001,,,,,,,,0.03,-0.08,0.98,19.0,0.3,-2.0,860,260,,,,,,,,,,,,,,,,,,,
922333,1480784325021,,,,,,,,0.03,-0.09,0.97,19.3,0.2,-1.8,860,255,,,,,,,,,,,,,,,,,,,
922353,1480784325041,,,,,40,,,0.04,-0.1,0.96,19.7,-0.0,-1.4,860,253,0,0,3.359,1,38.158508,-122.452904,2.99,0.213,140910992.0,10,3,1.9,0,0.0,-1,0.0,,0.0,0
922373,1480784325061,,,,,,,,0.04,-0.1,0.97,20.0,-0.2,-1.0,860,255,,,,,,,,,,,,,,,,,,,
922393,1480784325081,,,,,,,,0.04,-0.09,0.97,20.3,-0.3,-0.7,860,261,,,,,,,,,,,,,,,,,,,
922413,1480784325102,,,,,,,,0.04,-0.09,0.98,20.6,-0.5,-0.4,860,261,,,,,,,,,,,,,,,,,,,
922433,1480784325122,,,,,,,,0.04,-0.08,0.99,20.8,-0.7,-0.1,860,255,,,,,,,,,,,,,,,,,,,
922453,1480784325142,0,115.3,,152.4,38,169.8,,0.04,-0.07,0.99,21.1,-0.8,0.1,840,255,0,0,3.333,1,38.158504,-122.452904,3.38,0.214,140910992.0,10,3,1.9,0,0.0,-1,0.0,0.0,0.0,0
922473,1480784325162,,,,,,,,0.04,-0.07,1.0,21.3,-0.8,0.2,840,252,,,,,,,,,,,,,,,,,,,
922493,1480784325182,,,,,,,,0.05,-0.06,1.0,21.5,-0.9,0.3,840,249,,,,,,,,,,,,,,,,,,,
922513,1480784325202,,,,,,,,0.04,-0.06,1.01,21.7,-0.9,0.3,820,243,,,,,,,,,,,,,,,,,,,
922533,1480784325222,,,,,,,,0.05,-0.05,1.01,21.9,-0.8,0.3,800,240,,,,,,,,,,,,,,,,,,,
922553,1480784325242,,,,,32,,,0.05,-0.05,1.01,22.0,-1.0,0.2,780,236,0,0,3.32,1,38.158504,-122.452904,4.77,0.214,140910992.0,10,3,1.9,0,0.0,-1,0.0,,0.0,0
922573,1480784325262,,,,,,,,0.06,-0.05,1.01,22.2,-1.1,0.1,780,233,,,,,,,,,,,,,,,,,,,
922593,1480784325282,,,,,,,,0.06,-0.06,1.0,22.4,-1.0,-0.0,780,229,,,,,,,,,,,,,,,,,,,
922613,1480784325302,,,,,,,,0.07,-0.05,1.0,22.6,-1.0,-0.1,760,223,,,,,,,,,,,,,,,,,,,
922633,1480784325322,,,,,,,,0.07,-0.06,1.0,22.8,-1.1,-0.1,740,216,,,,,,,,,,,,,,,,,,,
922653,1480784325342,0,113.5,,152.6,34,168.8,,0.07,-0.06,0.99,23.0,-1.2,-0.0,740,218,0,0,3.394,1,38.158504,-122.452904,5.41,0.214,140910992.0,10,3,1.9,0,0.0,-1,0.0,0.0,0.0,0
922673,1480784325362,,,,,,,,0.07,-0.06,0.98,23.2,-1.3,0.0,740,230,,,,,,,,,,,,,,,,,,,
922693,1480784325382,,,,,,,,0.07,-0.05,0.98,23.3,-1.4,0.2,720,261,,,,,,,,,,,,,,,,,,,
922713,1480784325402,,,,,,,,0.07,-0.05,0.98,23.4,-1.5,0.3,700,278,,,,,,,,,,,,,,,,,,,
922733,1480784325422,,,,,,,,0.07,-0.05,0.99,23.5,-1.6,0.2,700,270,,,,,,,,,,,,,,,,,,,
922753,1480784325442,,,,,34,,,0.07,-0.05,1.0,23.5,-1.5,0.1,680,263,0,0,2.574,0,38.158504,-122.452904,4.75,0.214,140910992.0,10,3,1.9,0,0.0,-1,0.0,,0.0,0
922773,1480784325462,,,,,,,,0.07,-0.04,1.0,23.6,-1.4,0.1,680,252,,,,,,,,,,,,,,,,,,,
922793,1480784325482,,,,,,,,0.07,-0.05,1.0,23.6,-1.4,0.0,680,250,,,,,,,,,,,,,,,,,,,
922813,1480784325502,,,,,,,,0.07,-0.04,1.0,23.6,-1.3,0.1,680,240,,,,,,,,,,,,,,,,,,,
922833,1480784325522,,,,,,,,0.07,-0.04,1.0,23.6,-1.2,0.1,680,235,,,,,,,,,,,,,,,,,,,
922853,1480784325542,1,115.7,,153.3,31,169.8,,0.07,-0.04,1.0,23.7,-1.2,0.1,660,235,0,0,2.881,0,38.158504,-122.452904,4.75,0.214,140910992.0,10,3,1.9,0,0.0,-1,0.0,0.0,0.0,0
922873,1480784325562,,,,,,,,0.08,-0.03,1.0,23.7,-1.3,0.1,660,244,,,,,,,,,,,,,,,,,,,
922893,1480784325582,,,,,,,,0.08,-0.04,1.0,23.8,-1.3,0.1,660,260,,,,,,,,,,,,,,,,,,,
922913,1480784325701,,,,,,,,0.08,-0.05,1.0,23.8,-1.3,-0.0,660,263,,,,,,,,,,,,,,,,,,,
922933,1480784325721,,,,,,,,0.08,-0.04,1.01,23.8,-1.3,-0.1,660,260,,,,,,,,,,,,,,,,,,,
922953,1480784325741,,,,,26,,,0.08,-0.04,1.01,23.8,-1.3,-0.1,640,253,0,0,2.529,0,38.158501,-122.452919,4.42,0.214,140910992.0,10,3,1.9,0,0.0,-1,0.0,,0.0,0
922973,1480784325761,,,,,,,,0.07,-0.05,1.01,23.8,-1.1,-0.2,640,247,,,,,,,,,,,,,,,,,,,
922993,1480784325781,,,,,,,,0.08,-0.05,1.02,23.7,-1.0,-0.3,640,244,,,,,,,,,,,,,,,,,,,
923013,1480784325801,,,,,,,,0.08,-0.05,1.02,23.7,-1.0,-0.2,640,241,,,,,,,,,,,,,,,,,,,
923033,1480784325821,,,,,,,,0.08,-0.05,1.02,23.6,-0.9,-0.2,640,240,,,,,,,,,,,,,,,,,,,
923053,1480784325841,0,114.3,9.9,153.4,25,168.9,14.61,0.08,-0.05,1.02,23.5,-0.9,-0.1,640,243,0,0,2.667,0,38.158501,-122.452919,4.42,0.214,140910992.0,10,3,1.9,0,0.0,-1,0.0,0.0,0.0,0
923073,1480784325861,,,,,,,,0.08,-0.05,1.02,23.5,-0.8,-0.1,620,247,,,,,,,,,,,,,,,,,,,
923093,1480784325881,,,,,,,,0.09,-0.05,1.02,23.5,-0.8,-0.2,620,249,,,,,,,,,,,,,,,,,,,
923113,1480784325802,,,,,,,,0.09,-0.04,1.03,23.4,-0.6,-0.1,620,246,,,,,,,,,,,,,,,,,,,
923133,1480784325822,,,,,,,,0.09,-0.05,1.03,23.4,-0.8,-0.0,620,243,,,,,,,,,,,,,,,,,,,
923153,1480784325842,,,,,27,,,0.1,-0.04,1.03,23.3,-0.8,0.2,620,238,0,0,2.541,0,38.158497,-122.452919,4.64,0.215,140910992.0,10,3,1.9,0,0.0,-1,0.0,,0.0,0
923173,1480784325862,,,,,,,,0.1,-0.04,1.04,23.2,-0.9,0.6,620,235,,,,,,,,,,,,,,,,,,,
923193,1480784325882,,,,,,,,0.1,-0.05,1.04,23.1,-1.2,1.0,620,233,,,,,,,,,,,,,,,,,,,
923213,1480784325894,,,,,,,,0.1,-0.04,1.04,23.0,-1.3,1.4,620,233,,,,,,,,,,,,,,,,,,,
923233,1480784325914,,,,,,,,0.1,-0.04,1.03,22.9,-1.3,1.5,620,233,,,,,,,,,,,,,,,,,,,
923253,1480784325934,0,115.3,,153.7,26,169.7,,0.1,-0.05,1.02,22.9,-1.4,1.2,620,232,0,0,2.661,0,38.158497,-122.452919,5.07,0.215,140910992.0,10,3,1.9,0,0.0,-1,0.0,0.0,0.0,0
923273,1480784325954,,,,,,,,0.1,-0.03,1.02,22.9,-1.1,1.0,620,232,,,,,,,,,,,,,,,,,,,
923293,1480784325974,,,,,,,,0.1,-0.03,1.01,22.9,-0.9,0.6,620,233,,,,,,,,,,,,,,,,,,,
923313,1480784326001,,,,,,,,0.09,-0.02,1.0,22.9,-0.7,0.3,620,233,,,,,,,,,,,,,,,,,,,
923333,1480784326021,,,,,,,,0.09,-0.02,1.0,22.8,-0.5,0.1,620,233,,,,,,,,,,,,,,,,,,,
923353,1480784326041,,,,,28,,,0.09,-0.02,1.0,22.8,-0.3,-0.1,620,233,0,0,2.638,0,38.158497,-122.452919,4.63,0.215,140910992.0,10,3,1.9,0,0.0,-1,0.0,,0.0,0
923373,1480784326061,,,,,,,,0.09,-0.02,1.01,22.7,-0.1,-0.2,620,235,,,,,,,,,,,,,,,,,,,
923393,1480784326081,,,,,,,,0.09,-0.02,1.01,22.6,0.1,-0.4,640,235,,,,,,,,,,,,,,,,,,,
923413,1480784326102,,,,,,,,0.09,-0.03,1.01,22.5,0.2,-0.6,640,235,,,,,,,,,,,,,,,,,,,
923433,1480784326122,,,,,,,,0.09,-0.02,1.01,22.4,0.2,-0.6,640,232,,,,,,,,,,,,,,,,,,,
923453,1480784326142,0,114.3,,152.8,28,168.8,,0.09,-0.02,1.01,22.3,0.2,-0.7,620,227,0,0,2.747,0,38.158493,-122.452919,4.47,0.215,140910992.0,10,3,1.9,0,0.0,-1,0.0,0.0,0.0,0
923473,1480784326162,,,,,,,,0.09,-0.03,1.01,22.2,0.2,-0.8,620,224,,,,,,,,,,,,,,,,,,,
923493,1480784326182,,,,,,,,0.09,-0.03,1.01,22.1,0.2,-0.7,620,226,,,,,,,,,,,,,,,,,,,
923513,1480784326202,,,,,,,,0.09,-0.04,1.01,22.0,0.2,-0.7,640,227,,,,,,,,,,,,,,,,,,,
923533,1480784326222,,,,,,,,0.09,-0.04,1.01,22.0,0.2,-0.8,640,229,,,,,,,,,,,,,,,,,,,
923553,1480784326242,,,,,27,,,0.08,-0.03,1.01,21.9,0.2,-0.7,640,229,0,0,2.783,0,38.158493,-122.452919,4.59,0.215,140910992.0,10,3,1.9,0,0.0,-1,0.0,,0.0,0
923573,1480784326262,,,,,,,,0.08,-0.04,1.0,21.8,0.2,-0.8,660,224,,,,,,,,,,,,,,,,,,,
923593,1480784326282,,,,,,,,0.08,-0.04,1.0,21.8,0.4,-0.9,660,221,,,,,,,,,,,,,,,,,,,
923613,1480784326293,,,,,,,,0.08,-0.03,1.01,21.7,0.3,-0.8,680,220,,,,,,,,,,,,,,,,,,,
923633,1480784326313,,,,,,,,0.07,-0.04,1.0,21.7,0.3,-0.8,680,221,,,,,,,,,,,,,,,,,,,
923653,1480784326333,0,113.4,,152.7,28,168.7,,0.07,-0.05,1.01,21.6,0.4,-0.8,680,226,0,0,3.077,0,38.158493,-122.452919,3.98,0.215,140910992.0,10,3,1.9,0,0.0,-1,0.0,0.0,0.0,0
923673,1480784326353,,,,,,,,0.07,-0.04,1.02,21.5,0.4,-0.7,680,223,,,,,,,,,,,,,,,,,,,
923693,1480784326373,,,,,,,,0.07,-0.04,1.01,21.4,0.3,-0.6,700,220,,,,,,,,,,,,,,,,,,,
923713,1480784326501,,,,,,,,0.07,-0.05,1.01,21.3,0.2,-0.8,720,224,,,,,,,,,,,,,,,,,,,
923733,1480784326521,,,,,,,,0.07,-0.04,1.01,21.2,0.2,-0.7,720,223,,,,,,,,,,,,,,,,,,,
923753,1480784326541,,,,,30,,,0.08,-0.04,1.0,21.1,0.2,-0.6,740,226,0,0,3.258,1,38.158489,-122.452927,3.96,0.215,140910992.0,10,3,1.9,0,0.0,-1,0.0,,0.0,0
923773,1480784326561,,,,,,,,0.08,-0.03,1.0,21.0,0.2,-0.5,760,233,,,,,,,,,,,,,,,,,,,
923793,1480784326581,,,,,,,,0.08,-0.04,1.01,21.0,0.2,-0.5,760,236,,,,,,,,,,,,,,,,,,,
923813,1480784326601,,,,,,,,0.08,-0.04,1.0,20.9,0.4,-0.5,760,233,,,,,,,,,,,,,,,,,,,
923833,1480784326621,,,,,,,,0.08,-0.04,1.0,20.8,0.4,-0.4,780,240,,,,,,,,,,,,,,,,,,,
923853,1480784326641,0,115.7,,154.3,32,169.8,,0.08,-0.04,1.0,20.8,0.5,-0.3,800,244,0,0,3.25,1,38.158489,-122.452927,3.96,0.215,140910992.0,10,3,1.9,0,0.0,-1,0.0,0.0,0.0,0
923873,1480784326661,,,,,,,,0.08,-0.05,1.0,20.7,0.4,-0.4,800,247,,,,,,,,,,,,,,,,,,,
923893,1480784326681,,,,,,,,0.07,-0.04,1.0,20.7,0.4,-0.5,820,255,,,,,,,,,,,,,,,,,,,
923913,1480784326601,,,,,,,,0.07,-0.04,1.0,20.6,0.5,-0.4,820,258,,,,,,,,,,,,,,,,,,,
923933,1480784326621,,,,,,,,0.07,-0.04,1.0,20.6,0.4,-0.3,840,258,,,,,,,,,,,,,,,,,,,
923953,1480784326641,,,,,33,,,0.07,-0.03,1.0,20.5,0.4,-0.2,840,253,0,0,3.281,1,38.158489,-122.452927,4.42,0.215,140910992.0,10,3,1.9,0,0.0,-1,0.0,,0.0,0
923973,1480784326661,,,,,,,,0.05,-0.02,1.0,20.5,0.4,-0.2,840,250,,,,,,,,,,,,,,,,,,,
923993,1480784326681,,,,,,,,0.04,-0.03,1.0,20.4,0.5,-0.2,840,240,,,,,,,,,,,,,,,,,,,
924013,1480784326702,,,,,,,,0.03,-0.03,1.01,20.4,0.4,-0.4,800,227,,,,,,,,,,,,,,,,,,,
924033,1480784326722,,,,,,,,0.02,-0.04,1.01,20.4,0.6,-0.5,800,232,,,,,,,,,,,,,,,,,,,
924053,1480784326742,0,114.1,10.0,154.0,32,169.1,14.6,0.02,-0.05,1.02,20.3,0.7,-0.5,800,232,0,0,3.448,0,38.158489,-122.452927,3.84,0.215,140910992.0,10,3,1.9,0,0.0,-1,0.0,0.0,0.0,0
924073,1480784326762,,,,,,,,0.02,-0.04,1.01,20.3,0.8,-0.5,760,227,,,,,,,,,,,,,,,,,,,
924093,1480784326782,,,,,,,,0.02,-0.04,1.02,20.5,0.7,-0.6,740,227,,,,,,,,,,,,,,,,,,,
924113,1480784326800,,,,,,,,0.02,-0.06,1.04,20.6,0.6,-0.8,740,223,,,,,,,,,,,,,,,,,,,
924133,1480784326820,,,,,,,,0.02,-0.05,1.03,20.7,0.6,-0.7,720,215,,,,,,,,,,,,,,,,,,,
924153,1480784326840,,,,,33,,,0.02,-0.06,1.03,20.9,0.6,-0.7,720,212,0,0,3.349,1,38.158489,-122.452927,3.69,0.215,140911008.0,10,3,1.9,0,0.0,-1,0.0,,0.0,0
924173,1480784326860,,,,,,,,0.02,-0.06,1.03,21.0,0.4,-0.8,680,218,,,,,,,,,,,,,,,,,,,
924193,1480784326880,,,,,,,,0.02,-0.06,1.03,21.2,0.2,-0.8,680,218,,,,,,,,,,,,,,,,,,,
924213,1480784326897,,,,,,,,0.03,-0.05,1.03,21.3,0.1,-0.6,700,213,,,,,,,,,,,,,,,,,,,
924233,1480784326917,,,,,,,,0.02,-0.05,1.02,21.3,-0.2,-0.4,720,221,,,,,,,,,,,,,,,,,,,
924253,1480784326937,1,114.2,,154.1,32,169.1,,0.02,-0.05,1.03,21.4,-0.5,-0.4,720,226,0,0,3.258,1,38.158485,-122.452927,3.96,0.216,140911008.0,10,3,1.9,0,0.0,-1,0.0,0.0,0.0,0
924273,1480784326957,,,,,,,,0.02,-0.05,1.03,21.4,-0.3,-0.2,720,226,,,,,,,,,,,,,,,,,,,
924293,1480784326977,,,,,,,,0.03,-0.05,1.01,21.3,-0.4,-0.0,740,227,,,,,,,,,,,,,,,,,,,
924313,1480784327001,,,,,,,,0.03,-0.05,1.01,21.3,-0.5,0.0,760,232,,,,,,,,,,,,,,,,,,,
924333,1480784327021,,,,,,,,0.03,-0.06,1.01,21.3,-0.5,-0.0,760,240,,,,,,,,,,,,,,,,,,,
924353,1480784327041,,,,,30,,,0.03,-0.06,1.01,21.3,-0.4,0.1,760,236,0,0,3.167,1,38.158485,-122.452927,4.49,0.216,140911008.0,10,3,1.9,0,0.0,-1,0.0,,0.0,0
924373,1480784327061,,,,,,,,0.04,-0.05,1.0,21.2,-0.4,0.3,780,240,,,,,,,,,,,,,,,,,,,
924393,1480784327081,,,,,,,,0.04,-0.06,1.0,21.2,-0.3,0.4,780,240,,,,,,,,,,,,,,,,,,,
924413,1480784327102,,,,,,,,0.02,-0.06,1.0,21.2,-0.3,0.4,780,243,,,,,,,,,,,,,,,,,,,
924433,1480784327122,,,,,,,,0.02,-0.06,1.0,21.3,-0.2,0.2,780,244,,,,,,,,,,,,,,,,,,,
924453,1480784327142,0,113.7,,153.9,29,168.9,,0.02,-0.07,1.0,21.3,0.0,0.2,780,240,0,0,3.237,1,38.158485,-122.452942,4.3,0.217,140911008.0,10,3,1.9,0,0.0,-1,0.0,0.0,0.0,0
924473,1480784327162,,,,,,,,0.03,-0.06,0.99,21.4,-0.0,0.2,780,236,,,,,,,,,,,,,,,,,,,
924493,1480784327182,,,,,,,,0.02,-0.06,0.98,21.5,-0.1,0.1,780,236,,,,,,,,,,,,,,,,,,,
924513,1480784327301,,,,,,,,0.01,-0.07,0.98,21.7,-0.2,0.0,780,238,,,,,,,,,,,,,,,,,,,
924533,1480784327321,,,,,,,,0.0,-0.07,0.98,21.8,-0.3,-0.0,780,236,,,,,,,,,,,,,,,,,,,
924553,1480784327341,,,,,32,,,0.01,-0.07,0.97,21.9,-0.3,0.1,760,236,0,0,3.305,1,38.158485,-122.452942,4.18,0.217,140911008.0,10,3,1.9,0,0.0,-1,0.0,,0.0,0
924573,1480784327361,,,,,,,,0.01,-0.07,0.98,22.0,-0.4,0.3,760,233,,,,,,,,,,,,,,,,,,,
924593,1480784327381,,,,,,,,0.01,-0.07,0.98,22.1,-0.6,0.4,760,235,,,,,,,,,,,,,,,,,,,
924613,1480784327401,,,,,,,,0.0,-0.07,0.99,22.2,-0.8,0.2,760,236,,,,,,,,,,,,,,,,,,,
924633,1480784327421,,,,,,,,0.0,-0.06,0.98,22.3,-0.9,0.2,760,240,,,,,,,,,,,,,,,,,,,
924653,1480784327441,0,115.3,,154.6,29,169.5,,0.01,-0.06,0.98,22.3,-1.2,0.2,780,236,0,0,3.234,1,38.158485,-122.452942,4.18,0.217,140911008.0,10,3,1.9,0,0.0,-1,0.0,0.0,0.0,0
924673,1480784327461,,,,,,,,0.02,-0.06,0.97,22.3,-1.4,0.3,780,241,,,,,,,,,,,,,,,,,,,
924693,1480784327481,,,,,,,,0.01,-0.06,0.97,22.4,-1.4,0.4,800,246,,,,,,,,,,,,,,,,,,,
924713,1480784327402,,,,,,,,0.01,-0.07,0.98,22.5,-1.6,0.4,800,250,,,,,,,,,,,,,,,,,,,
924733,1480784327422,,,,,,,,0.02,-0.07,0.99,22.5,-1.4,0.6,800,252,,,,,,,,,,,,,,,,,,,
924753,1480784327442,,,,,35,,,0.02,-0.06,0.99,22.5,-1.4,0.8,820,250,0,0,3.213,1,38.158485,-122.452942,4.18,0.217,140911008.0,10,3,1.9,0,0.0,-1,0.0,,0.0,0
924773,1480784327462,,,,,,,,0.03,-0.06,1.01,22.5,-1.1,1.0,820,253,,,,,,,,,,,,,,,,,,,
924793,1480784327482,,,,,,,,0.03,-0.06,1.03,22.6,-1.1,1.0,820,255,,,,,,,,,,,,,,,,,,,
924813,1480784327502,,,,,,,,0.03,-0.06,1.03,22.7,-0.8,0.9,840,258,,,,,,,,,,,,,,,,,,,
924833,1480784327522,,,,,,,,0.01,-0.06,1.04,22.8,-0.8,1.0,840,258,,,,,,,,,,,,,,,,,,,
924853,1480784327542,0,114.7,,154.6,36,169.3,,0.02,-0.06,1.04,22.8,-0.4,1.1,840,260,0,0,3.231,1,38.158485,-122.452942,4.36,0.217,140911008.0,10,3,1.9,0,0.0,-1,0.0,0.0,0.0,0
924873,1480784327562,,,,,,,,0.02,-0.05,1.03,22.9,-0.7,1.3,840,258,,,,,,,,,,,,,,,,,,,
924893,1480784327582,,,,,,,,0.03,-0.03,1.03,22.8,-0.5,1.5,840,258,,,,,,,,,,,,,,,,,,,
924913,1480784327602,,,,,,,,0.02,-0.0,1.03,22.8,-0.7,1.6,840,256,,,,,,,,,,,,,,,,,,,
924933,1480784327622,,,,,,,,0.02,-0.03,1.03,22.8,-0.3,1.4,840,260,,,,,,,,,,,,,,,,,,,
924953,1480784327642,,,,,31,,,0.03,-0.01,1.04,22.7,-0.8,1.4,840,258,0,0,3.231,1,38.158485,-122.452957,4.7,0.217,140911008.0,10,3,1.9,0,0.0,-1,0.0,,0.0,0
924973,1480784327662,,,,,,,,0.02,-0.01,1.03,22.6,-0.9,1.3,840,261,,,,,,,,,,,,,,,,,,,
924993,1480784327682,,,,,,,,0.03,-0.0,1.02,22.4,-0.6,1.4,840,261,,,,,,,,,,,,,,,,,,,
925013,1480784327702,,,,,,,,0.03,0.01,1.03,22.2,-0.8,1.6,840,261,,,,,,,,,,,,,,,,,,,
925033,1480784327722,,,,,,,,0.02,0.01,1.03,21.9,-0.4,1.7,840,261,,,,,,,,,,,,,,,,,,,
925053,1480784327742,0,113.5,10.1,154.0,37,168.6,14.62,0.03,0.02,1.03,21.7,-0.4,1.8,860,263,0,0,3.218,1,38.158485,-122.452957,4.73,0.217,140911008.0,10,3,1.9,0,0.0,-1,0.0,0.0,0.0,0
925073,1480784327762,,,,,,,,0.02,0.01,1.04,21.4,-0.6,1.8,860,264,,,,,,,,,,,,,,,,,,,
925093,1480784327782,,,,,,,,0.02,0.01,1.03,21.2,-0.7,1.7,860,266,,,,,,,,,,,,,,,,,,,
925113,1480784327802,,,,,,,,0.02,0.0,1.02,20.9,-0.6,1.6,880,272,,,,,,,,,,,,,,,,,,,
925133,1480784327822,,,,,,,,0.02,-0.01,1.01,20.6,-0.5,1.5,880,275,,,,,,,,,,,,,,,,,,,
925153,1480784327842,,,,,32,,,0.03,-0.0,1.02,20.3,-0.6,1.5,880,275,0,0,3.235,1,38.158485,-122.452957,4.64,0.217,140911008.0,10,3,1.9,0,0.0,-1,0.0,,0.0,0
925173,1480784327862,,,,,,,,0.02,0.0,1.02,20.0,-0.8,1.6,900,276,,,,,,,,,,,,,,,,,,,
925193,1480784327882,,,,,,,,0.02,0.01,1.02,19.7,-0.6,1.6,900,278,,,,,,,,,,,,,,,,,,,
925213,1480784327895,,,,,,,,0.02,0.01,1.02,19.4,-0.4,1.6,920,278,,,,,,,,,,,,,,,,,,,
925233,1480784327915,,,,,,,,0.02,0.02,1.02,19.1,-0.4,1.6,920,278,,,,,,,,,,,,,,,,,,,
925253,1480784327935,0,115.6,,155.1,33,169.5,,0.02,0.02,1.02,18.8,-0.6,1.5,900,278,0,0,3.309,1,38.158485,-122.452957,4.67,0.217,140911008.0,10,3,1.9,0,0.0,-1,0.0,0.0,0.0,0
925273,1480784327955,,,,,,,,0.0,0.02,1.01,18.5,-0.6,1.4,920,280,,,,,,,,,,,,,,,,,,,
925293,1480784327975,,,,,,,,0.0,0.01,1.02,18.3,-0.4,1.3,920,280,,,,,,,,,,,,,,,,,,,
925313,1480784328101,,,,,,,,-0.01,0.02,1.02,18.0,-0.2,1.2,920,278,,,,,,,,,,,,,,,,,,,
925333,1480784328121,,,,,,,,-0.0,0.02,1.01,17.7,-0.2,1.1,900,278,,,,,,,,,,,,,,,,,,,
925353,1480784328141,,,,,40,,,-0.0,0.01,1.01,17.5,-0.1,1.0,920,278,0,0,3.214,1,38.158485,-122.452965,4.97,0.218,140911008.0,10,3,1.9,0,0.0,-1,0.0,,0.0,0
925373,1480784328161,,,,,,,,0.01,0.0,1.01,17.2,0.0,1.0,900,280,,,,,,,,,,,,,,,,,,,
925393,1480784328181,,,,,,,,0.01,-0.0,1.01,17.0,-0.1,1.0,900,281,,,,,,,,,,,,,,,,,,,
925413,1480784328201,,,,,,,,0.02,0.0,1.0,16.8,-0.2,1.1,920,283,,,,,,,,,,,,,,,,,,,
925433,1480784328221,,,,,,,,0.01,-0.0,1.0,16.5,-0.1,1.1,920,280,,,,,,,,,,,,,,,,,,,
925453,1480784328241,0,113.3,,154.0,33,168.6,,0.01,-0.01,1.0,16.4,-0.1,1.1,920,281,0,0,3.286,1,38.158485,-122.452965,4.97,0.218,140911008.0,10,3,1.9,0,0.0,-1,0.0,0.0,0.0,0
925473,1480784328261,,,,,,,,0.02,-0.0,1.0,16.3,-0.1,1.1,920,283,,,,,,,,,,,,,,,,,,,
925493,1480784328281,,,,,,,,0.03,-0.0,0.99,16.3,-0.3,1.0,920,283,,,,,,,,,,,,,,,,,,,
925513,1480784328202,,,,,,,,0.03,-0.01,0.99,16.2,-0.5,0.9,920,283,,,,,,,,,,,,,,,,,,,
925533,1480784328222,,,,,,,,0.02,-0.01,0.99,16.1,-0.6,0.8,920,283,,,,,,,,,,,,,,,,,,,
925553,1480784328242,,,,,40,,,0.01,-0.02,1.0,16.0,-0.5,0.6,920,283,0,0,3.239,1,38.158485,-122.452965,4.7,0.218,140911008.0,10,3,1.9,0,0.0,-1,0.0,,0.0,0
925573,1480784328262,,,,,,,,0.01,-0.02,0.99,15.9,-0.4,0.5,920,284,,,,,,,,,,,,,,,,,,,
925593,1480784328282,,,,,,,,0.01,-0.03,0.98,15.9,-0.5,0.4,920,283,,,,,,,,,,,,,,,,,,,
925613,1480784328302,,,,,,,,0.01,-0.04,0.98,15.8,-0.6,0.3,920,283,,,,,,,,,,,,,,,,,,,
925633,1480784328322,,,,,,,,0.02,-0.04,0.98,15.8,-0.7,0.2,920,283,,,,,,,,,,,,,,,,,,,
925653,1480784328342,0,115.9,,155.3,36,169.3,,0.02,-0.05,0.99,15.7,-0.5,0.2,920,284,0,0,3.251,1,38.158485,-122.452965,4.54,0.218,140911008.0,10,3,1.9,0,0.0,-1,0.0,0.0,0.0,0
925673,1480784328362,,,,,,,,0.02,-0.04,0.99,15.7,-0.6,0.2,920,284,,,,,,,,,,,,,,,,,,,
925693,1480784328382,,,,,,,,0.03,-0.03,1.0,15.7,-0.8,0.2,920,281,,,,,,,,,,,,,,,,,,,
925713,1480784328401,,,,,,,,0.02,-0.03,1.0,15.6,-0.9,0.2,920,281,,,,,,,,,,,,,,,,,,,
925733,1480784328421,,,,,,,,0.03,-0.03,1.0,15.6,-0.8,0.1,920,283,,,,,,,,,,,,,,,,,,,
925753,1480784328441,,,,,38,,,0.03,-0.02,1.0,15.6,-0.6,0.0,920,284,0,0,3.251,1,38.158485,-122.452965,4.68,0.218,140911008.0,10,3,1.9,0,0.0,-1,0.0,,0.0,0
925773,1480784328461,,,,,,,,0.04,-0.02,1.0,15.6,-0.4,0.1,920,286,,,,,,,,,,,,,,,,,,,
925793,1480784328481,,,,,,,,0.03,-0.03,1.0,15.6,-0.4,0.1,940,286,,,,,,,,,,,,,,,,,,,
925813,1480784328502,,,,,,,,0.02,-0.04,1.0,15.6,-0.4,0.1,940,287,,,,,,,,,,,,,,,,,,,
925833,1480784328522,,,,,,,,0.02,-0.03,0.99,15.6,-0.4,0.0,940,287,,,,,,,,,,,,,,,,,,,
925853,1480784328542,0,115.3,,155.3,35,169.3,,0.02,-0.03,1.0,15.6,-0.2,-0.0,940,289,0,0,3.275,1,38.158485,-122.452965,5.03,0.218,140911008.0,10,3,1.9,0,0.0,-1,0.0,0.0,0.0,0
925873,1480784328562,,,,,,,,0.01,-0.04,1.0,15.6,0.1,0.1,960,290,,,,,,,,,,,,,,,,,,,
925893,1480784328582,,,,,,,,0.02,-0.04,1.01,15.6,0.4,0.3,940,292,,,,,,,,,,,,,,,,,,,
925913,1480784328602,,,,,,,,0.01,-0.04,1.0,15.6,0.5,0.6,960,292,,,,,,,,,,,,,,,,,,,
925933,1480784328622,,,,,,,,0.02,-0.04,1.0,15.6,0.4,0.9,960,292,,,,,,,,,,,,,,,,,,,
925953,1480784328642,,,,,43,,,0.02,-0.04,1.0,15.6,0.3,1.1,960,292,0,0,3.288,1,38.158485,-122.45298,4.76,0.219,140911008.0,10,3,1.9,0,0.0,-1,0.0,,0.0,0
925973,1480784328662,,,,,,,,0.02,-0.04,1.01,15.6,0.2,1.1,960,290,,,,,,,,,,,,,,,,,,,
925993,1480784328682,,,,,,,,0.03,-0.04,1.02,15.5,0.2,1.1,940,289,,,,,,,,,,,,,,,,,,,
926013,1480784328702,,,,,,,,0.03,-0.05,1.03,15.5,0.0,1.0,940,289,,,,,,,,,,,,,,,,,,,
926033,1480784328722,,,,,,,,0.04,-0.04,1.04,15.6,0.1,1.1,940,290,,,,,,,,,,,,,,,,,,,
926053,1480784328742,0,114.7,9.8,154.2,40,168.5,14.58,0.04,-0.03,1.04,15.6,0.2,1.1,940,287,0,0,3.241,1,38.158485,-122.45298,5.05,0.219,140911008.0,10,3,1.9,0,0.0,-1,0.0,0.0,0.0,0
926073,1480784328762,,,,,,,,0.04,-0.03,1.04,15.7,0.2,1.0,940,289,,,,,,,,,,,,,,,,,,,
926093,1480784328782,,,,,,,,0.04,-0.02,1.03,15.7,0.1,1.0,940,290,,,,,,,,,,,,,,,,,,,
