"Interval"|"ms"|0|0|1,"Utc"|"ms"|0|0|1,"FuelLevel"|"F"|0|100|5,"OilTemp"|"F"|0.0|300.0|5,"CoolantPressPSI"|"PSI"|0.0|20.0|1,"Coolant"|"F"|0.0|300.0|5,"OilPress"|"PSI"|0|150|10,"EngineTemp"|"F"|0.0|300.0|5,"Battery"|"Volts"|0.0|20.0|1,"AccelX"|"G"|-3.0|3.0|50,"AccelY"|"G"|-3.0|3.0|50,"AccelZ"|"G"|-3.0|3.0|50,"Yaw"|"Deg/Sec"|-300.0|300.0|50,"Pitch"|"Deg/Sec"|-300.0|300.0|50,"Roll"|"Deg/Sec"|-300.0|300.0|50,"RPM"|""|0|10000|50,"Driveshaft"|"RPM"|0|5000|50,"GPIO1"|""|0|1|10,"GPIO2"|""|0|1|10,"GearRatio"|""|-5.0|5.0|10,"Gear"|""|-1|5|10,"Latitude"|"Degrees"|-180.0|180.0|10,"Longitude"|"Degrees"|-180.0|180.0|10,"Speed"|"MPH"|0.0|150.0|10,"Distance"|"Miles"|0.0|0.0|10,"Altitude"|"Feet"|0.0|4000.0|10,"GPSSats"|""|0|20|10,"GPSQual"|""|0|5|10,"GPSDOP"|""|0.0|20.0|10,"LapCount"|""|0|0|10,"LapTime"|"Min"|0.0|0.0|10,"Sector"|""|0|0|10,"SectorTime"|"Min"|0.0|0.0|10,"PredTime"|"Min"|0.0|0.0|5,"ElapsedTime"|"Min"|0.0|0.0|10,"CurrentLap"|""|0|0|10
38775,1480869443112,,,,,,,,-0.02,0.06,0.99,-3.0,-2.0,-0.6,260,769230,,,,,,,,,,,,,,,,,,,
38795,1480869443132,,,,,,,,-0.02,0.07,1.0,-3.1,-1.9,-0.5,300,0,,,,,,,,,,,,,,,,,,,
38815,1480869443152,,,,,,,,-0.02,0.06,0.99,-3.0,-1.9,-0.6,300,0,,,,,,,,,,,,,,,,,,,
38835,1480869443172,,,,,,,,-0.02,0.06,0.99,-3.0,-1.9,-0.5,300,0,,,,,,,,,,,,,,,,,,,
38855,1480869443292,0,39.5,,38.3,0,37.9,,-0.02,0.06,0.99,-3.0,-1.9,-0.6,380,0,1,0,0.0,0,38.159103,-122.454414,0.0,0.0,72.2,6,2,2.4,0,0.0,-1,0.0,0.0,0.0,0
38875,1480869443312,,,,,,,,-0.02,0.06,0.99,-3.0,-1.9,-0.6,380,0,,,,,,,,,,,,,,,,,,,
38895,1480869443332,,,,,,,,-0.02,0.06,0.98,-3.0,-2.0,-0.6,380,0,,,,,,,,,,,,,,,,,,,
38915,1480869443352,,,,,,,,-0.02,0.07,0.99,-3.0,-2.0,-0.6,380,0,,,,,,,,,,,,,,,,,,,
38935,1480869443372,,,,,,,,-0.02,0.07,0.99,-3.0,-2.1,-0.6,380,0,,,,,,,,,,,,,,,,,,,
38955,1480869443392,,,,,0,,,-0.03,0.06,0.99,-3.0,-2.0,-0.5,360,0,1,0,0.0,0,38.159103,-122.454414,0.0,0.0,72.2,6,2,2.4,0,0.0,-1,0.0,,0.0,0
38975,1480869443412,,,,,,,,-0.02,0.06,0.99,-3.0,-1.9,-0.5,360,0,,,,,,,,,,,,,,,,,,,
38995,1480869443432,,,,,,,,-0.02,0.06,0.99,-3.0,-2.0,-0.6,360,0,,,,,,,,,,,,,,,,,,,
39015,1480869443452,,,,,,,,-0.02,0.06,0.99,-3.0,-2.0,-0.6,320,0,,,,,,,,,,,,,,,,,,,
39035,1480869443472,,,,,,,,-0.02,0.05,1.0,-3.0,-2.0,-0.6,320,0,,,,,,,,,,,,,,,,,,,
39055,1480869443492,0,40.8,2.4,41.1,0,42.1,11.2,-0.02,0.06,1.0,-3.0,-2.0,-0.5,440,0,1,0,0.0,0,38.159103,-122.454414,0.0,0.0,72.2,6,2,2.4,0,0.0,-1,0.0,0.0,0.0,0
39075,1480869443410,,,,,,,,-0.02,0.05,1.0,-3.0,-1.9,-0.5,440,0,,,,,,,,,,,,,,,,,,,
39095,1480869443430,,,,,,,,-0.02,0.05,1.0,-3.0,-1.8,-0.5,440,0,,,,,,,,,,,,,,,,,,,
39115,1480869443450,,,,,,,,-0.02,0.04,1.0,-3.0,-1.8,-0.5,440,0,,,,,,,,,,,,,,,,,,,
39135,1480869443470,,,,,,,,-0.02,0.04,1.0,-3.0,-1.8,-0.5,440,0,,,,,,,,,,,,,,,,,,,
39155,1480869443490,,,,,0,,,-0.02,0.05,1.0,-3.0,-1.8,-0.5,360,0,1,0,0.0,0,38.159103,-122.454414,0.0,0.0,72.2,6,2,2.4,0,0.0,-1,0.0,,0.0,0
39175,1480869443510,,,,,,,,-0.02,0.05,1.0,-3.0,-1.9,-0.6,360,0,,,,,,,,,,,,,,,,,,,
39195,1480869443530,,,,,,,,-0.02,0.06,1.0,-3.0,-1.8,-0.6,360,0,,,,,,,,,,,,,,,,,,,
39215,1480869443550,,,,,,,,-0.02,0.06,1.01,-3.0,-1.8,-0.6,360,0,,,,,,,,,,,,,,,,,,,
39235,1480869443570,,,,,,,,-0.02,0.06,1.0,-3.0,-1.8,-0.6,360,0,,,,,,,,,,,,,,,,,,,
39255,1480869443590,0,41.8,,42.3,1,43.7,,-0.02,0.06,1.0,-3.0,-1.9,-0.6,360,0,1,0,0.0,0,38.159103,-122.454414,0.0,0.0,72.2,6,2,2.4,0,0.0,-1,0.0,0.0,0.0,0
39275,1480869443606,,,,,,,,-0.02,0.07,1.01,-3.0,-1.9,-0.6,360,0,,,,,,,,,,,,,,,,,,,
39295,1480869443626,,,,,,,,-0.02,0.07,1.0,-3.0,-1.9,-0.6,360,0,,,,,,,,,,,,,,,,,,,
39315,1480869443646,,,,,,,,-0.02,0.07,1.0,-3.0,-1.9,-0.6,360,0,,,,,,,,,,,,,,,,,,,
39335,1480869443666,,,,,,,,-0.02,0.07,1.0,-3.0,-1.9,-0.6,160,0,,,,,,,,,,,,,,,,,,,
39355,1480869443686,,,,,0,,,-0.02,0.07,0.99,-3.0,-1.9,-0.6,160,0,1,0,0.0,0,38.159103,-122.454414,0.0,0.0,72.2,6,2,2.4,0,0.0,-1,0.0,,0.0,0
39375,1480869443709,,,,,,,,-0.02,0.06,1.0,-3.0,-1.9,-0.6,160,0,,,,,,,,,,,,,,,,,,,
39395,1480869443729,,,,,,,,-0.02,0.06,1.0,-3.0,-1.9,-0.6,160,0,,,,,,,,,,,,,,,,,,,
39415,1480869443749,,,,,,,,-0.02,0.07,1.01,-3.0,-1.9,-0.6,160,0,,,,,,,,,,,,,,,,,,,
39435,1480869443769,,,,,,,,-0.02,0.07,1.0,-3.0,-1.9,-0.6,180,0,,,,,,,,,,,,,,,,,,,
39455,1480869443791,0,43.5,,40.4,1,42.5,,-0.02,0.07,1.0,-3.0,-1.9,-0.6,180,0,1,1,0.0,0,38.159103,-122.454414,0.0,0.0,72.2,6,2,2.4,0,0.0,-1,0.0,0.0,0.0,0
39475,1480869443811,,,,,,,,-0.02,0.06,1.0,-3.0,-1.9,-0.6,180,0,,,,,,,,,,,,,,,,,,,
39495,1480869443831,,,,,,,,-0.02,0.06,1.0,-3.0,-1.9,-0.6,180,0,,,,,,,,,,,,,,,,,,,
39515,1480869443851,,,,,,,,-0.02,0.06,1.0,-3.0,-2.0,-0.5,180,0,,,,,,,,,,,,,,,,,,,
39535,1480869443871,,,,,,,,-0.02,0.06,1.0,-3.0,-1.9,-0.5,180,0,,,,,,,,,,,,,,,,,,,
39555,1480869443891,,,,,1,,,-0.02,0.06,1.0,-3.0,-2.0,-0.5,180,0,1,1,0.0,0,38.159103,-122.454414,0.0,0.0,72.2,6,2,2.4,0,0.0,-1,0.0,,0.0,0
39575,1480869443902,,,,,,,,-0.02,0.06,1.0,-3.0,-2.0,-0.5,0,0,,,,,,,,,,,,,,,,,,,
39595,1480869443922,,,,,,,,-0.02,0.06,1.0,-3.0,-2.0,-0.5,620,0,,,,,,,,,,,,,,,,,,,
39615,1480869443942,,,,,,,,-0.02,0.06,1.0,-3.0,-2.0,-0.5,620,0,,,,,,,,,,,,,,,,,,,
39635,1480869443962,,,,,,,,-0.02,0.06,1.0,-3.0,-1.9,-0.5,620,0,,,,,,,,,,,,,,,,,,,
39655,1480869443991,0,38.9,,39.2,0,40.0,,-0.02,0.06,1.0,-3.0,-2.0,-0.5,620,0,1,0,0.0,0,38.159103,-122.454414,0.0,0.0,72.2,6,2,2.4,0,0.0,-1,0.0,0.0,0.0,0
39675,1480869444110,,,,,,,,-0.02,0.06,1.0,-3.0,-1.9,-0.5,620,0,,,,,,,,,,,,,,,,,,,
39695,1480869444130,,,,,,,,-0.02,0.06,1.0,-3.0,-2.0,-0.6,620,0,,,,,,,,,,,,,,,,,,,
39715,1480869444150,,,,,,,,-0.02,0.06,1.0,-3.0,-1.9,-0.6,620,0,,,,,,,,,,,,,,,,,,,
39735,1480869444170,,,,,,,,-0.02,0.06,1.0,-3.0,-1.9,-0.6,0,0,,,,,,,,,,,,,,,,,,,
39755,1480869444190,,,,,0,,,-0.02,0.06,1.0,-3.0,-2.0,-0.6,0,0,1,0,0.0,0,38.159103,-122.454414,0.0,0.0,72.2,6,3,2.4,0,0.0,-1,0.0,,0.0,0
39775,1480869444210,,,,,,,,-0.02,0.06,1.0,-3.0,-1.9,-0.6,0,0,,,,,,,,,,,,,,,,,,,
39795,1480869444230,,,,,,,,-0.02,0.06,1.0,-3.0,-1.9,-0.6,0,0,,,,,,,,,,,,,,,,,,,
39815,1480869444250,,,,,,,,-0.02,0.06,1.0,-3.0,-1.9,-0.6,0,0,,,,,,,,,,,,,,,,,,,
39835,1480869444270,,,,,,,,-0.02,0.06,1.0,-3.0,-1.9,-0.6,0,0,,,,,,,,,,,,,,,,,,,
39855,1480869444191,0,43.0,,41.9,1,41.4,,-0.02,0.06,1.0,-3.0,-1.9,-0.6,0,0,1,1,0.0,0,38.159103,-122.454414,0.0,0.0,72.2,6,3,2.4,0,0.0,-1,0.0,0.0,0.0,0
39875,1480869444211,,,,,,,,-0.02,0.05,0.99,-3.0,-1.9,-0.6,0,0,,,,,,,,,,,,,,,,,,,
39895,1480869444231,,,,,,,,-0.02,0.06,1.0,-3.0,-1.9,-0.6,0,0,,,,,,,,,,,,,,,,,,,
39915,1480869444251,,,,,,,,-0.02,0.06,1.0,-3.0,-1.9,-0.6,0,0,,,,,,,,,,,,,,,,,,,
39935,1480869444271,,,,,,,,-0.02,0.06,1.0,-3.0,-1.8,-0.6,0,0,,,,,,,,,,,,,,,,,,,
39955,1480869444292,,,,,0,,,-0.02,0.05,1.0,-3.0,-1.9,-0.6,0,0,1,1,0.0,0,38.159103,-122.454414,0.0,0.0,72.2,6,3,2.4,0,0.0,-1,0.0,,0.0,0
39975,1480869444312,,,,,,,,-0.02,0.05,0.99,-3.0,-1.9,-0.6,0,0,,,,,,,,,,,,,,,,,,,
39995,1480869444332,,,,,,,,-0.02,0.05,0.99,-3.0,-1.9,-0.6,0,0,,,,,,,,,,,,,,,,,,,
40015,1480869444352,,,,,,,,-0.02,0.06,1.0,-3.0,-2.0,-0.6,0,0,,,,,,,,,,,,,,,,,,,
40035,1480869444372,,,,,,,,-0.02,0.06,1.0,-3.0,-2.0,-0.5,0,0,,,,,,,,,,,,,,,,,,,
40055,1480869444392,0,38.9,2.0,38.8,0,40.1,12.14,-0.02,0.06,1.0,-3.0,-2.0,-0.5,0,0,1,1,0.0,0,38.159103,-122.454414,0.0,0.0,72.2,6,3,2.4,0,0.0,-1,0.0,0.0,0.0,0
40075,1480869444409,,,,,,,,-0.02,0.06,1.0,-3.1,-2.0,-0.5,0,0,,,,,,,,,,,,,,,,,,,
40095,1480869444429,,,,,,,,-0.02,0.06,1.0,-3.1,-2.0,-0.5,0,0,,,,,,,,,,,,,,,,,,,
40115,1480869444449,,,,,,,,-0.02,0.06,1.0,-3.1,-2.0,-0.5,0,0,,,,,,,,,,,,,,,,,,,
40135,1480869444469,,,,,,,,-0.01,0.06,1.0,-3.0,-2.1,-0.5,0,0,,,,,,,,,,,,,,,,,,,
40155,1480869444489,,,,,0,,,-0.02,0.06,1.0,-3.0,-2.1,-0.5,0,0,1,1,0.0,0,38.159103,-122.454414,0.0,0.0,72.2,6,3,2.4,0,0.0,-1,0.0,,0.0,0
40175,1480869444509,,,,,,,,-0.02,0.06,1.0,-3.0,-2.1,-0.5,0,0,,,,,,,,,,,,,,,,,,,
40195,1480869444529,,,,,,,,-0.02,0.06,1.0,-3.0,-2.1,-0.5,0,0,,,,,,,,,,,,,,,,,,,
40215,1480869444549,,,,,,,,-0.02,0.06,1.0,-3.0,-2.0,-0.5,0,0,,,,,,,,,,,,,,,,,,,
40235,1480869444569,,,,,,,,-0.02,0.06,1.0,-3.0,-2.0,-0.5,0,0,,,,,,,,,,,,,,,,,,,
40255,1480869444589,0,40.5,,37.2,0,38.3,,-0.02,0.06,1.0,-3.0,-2.0,-0.6,0,0,1,1,0.0,0,38.159103,-122.454414,0.0,0.0,72.2,6,3,2.4,0,0.0,-1,0.0,0.0,0.0,0
40275,1480869444610,,,,,,,,-0.02,0.06,1.0,-3.0,-2.0,-0.6,0,0,,,,,,,,,,,,,,,,,,,
40295,1480869444630,,,,,,,,-0.02,0.06,1.0,-3.0,-2.0,-0.6,0,0,,,,,,,,,,,,,,,,,,,
40315,1480869444650,,,,,,,,-0.02,0.06,1.0,-3.0,-2.0,-0.6,0,0,,,,,,,,,,,,,,,,,,,
40335,1480869444670,,,,,,,,-0.02,0.06,1.0,-3.0,-1.9,-0.6,0,0,,,,,,,,,,,,,,,,,,,
40355,1480869444690,,,,,0,,,-0.02,0.06,1.0,-3.0,-1.9,-0.6,0,0,1,1,0.0,0,38.159103,-122.454414,0.0,0.0,72.2,6,3,2.4,0,0.0,-1,0.0,,0.0,0
40375,1480869444710,,,,,,,,-0.02,0.06,1.0,-3.0,-1.9,-0.6,0,0,,,,,,,,,,,,,,,,,,,
40395,1480869444730,,,,,,,,-0.02,0.06,1.0,-3.0,-1.9,-0.5,0,0,,,,,,,,,,,,,,,,,,,
40415,1480869444750,,,,,,,,-0.02,0.06,1.0,-3.0,-1.9,-0.6,0,0,,,,,,,,,,,,,,,,,,,
40435,1480869444770,,,,,,,,-0.02,0.06,1.0,-3.0,-1.9,-0.6,0,0,,,,,,,,,,,,,,,,,,,
40455,1480869444892,0,39.2,,39.3,0,43.5,,-0.02,0.06,1.0,-3.0,-1.9,-0.6,0,0,1,1,0.0,0,38.159103,-122.454414,0.0,0.0,72.2,6,3,2.4,0,0.0,-1,0.0,0.0,0.0,0
40475,1480869444912,,,,,,,,-0.02,0.06,1.0,-3.0,-1.9,-0.6,0,0,,,,,,,,,,,,,,,,,,,
40495,1480869444932,,,,,,,,-0.02,0.06,1.0,-3.0,-1.9,-0.6,0,0,,,,,,,,,,,,,,,,,,,
40515,1480869444952,,,,,,,,-0.02,0.06,1.0,-3.0,-1.9,-0.6,0,0,,,,,,,,,,,,,,,,,,,
40535,1480869444972,,,,,,,,-0.02,0.06,1.0,-3.0,-1.9,-0.6,0,0,,,,,,,,,,,,,,,,,,,
40555,1480869444992,,,,,1,,,-0.02,0.06,1.0,-3.0,-1.9,-0.6,0,0,1,1,0.0,0,38.159103,-122.454414,0.0,0.0,72.2,6,3,2.4,0,0.0,-1,0.0,,0.0,0
40575,1480869445012,,,,,,,,-0.02,0.06,1.0,-3.0,-1.9,-0.6,0,0,,,,,,,,,,,,,,,,,,,
40595,1480869445032,,,,,,,,-0.02,0.06,1.0,-3.0,-1.9,-0.6,0,0,,,,,,,,,,,,,,,,,,,
40615,1480869445052,,,,,,,,-0.02,0.06,1.0,-3.0,-1.9,-0.6,0,0,,,,,,,,,,,,,,,,,,,
40635,1480869445072,,,,,,,,-0.02,0.06,1.0,-3.0,-1.9,-0.6,0,0,,,,,,,,,,,,,,,,,,,
40655,1480869444993,0,38.3,,37.8,0,42.1,,-0.02,0.06,1.0,-3.0,-1.9,-0.6,0,0,1,1,0.0,0,38.159103,-122.454414,0.0,0.0,72.2,6,3,2.4,0,0.0,-1,0.0,0.0,0.0,0
40675,1480869445013,,,,,,,,-0.02,0.06,1.0,-3.0,-1.9,-0.5,0,0,,,,,,,,,,,,,,,,,,,
40695,1480869445033,,,,,,,,-0.02,0.06,1.0,-3.0,-1.9,-0.5,0,0,,,,,,,,,,,,,,,,,,,
40715,1480869445053,,,,,,,,-0.02,0.06,1.0,-3.0,-1.9,-0.5,0,0,,,,,,,,,,,,,,,,,,,
40735,1480869445073,,,,,,,,-0.02,0.06,1.0,-3.0,-1.9,-0.5,0,0,,,,,,,,,,,,,,,,,,,
40755,1480869445093,,,,,0,,,-0.02,0.06,1.0,-3.0,-1.9,-0.5,0,0,1,1,0.0,0,38.159103,-122.454414,0.0,0.0,72.2,6,3,2.4,0,0.0,-1,0.0,,0.0,0
40775,1480869445113,,,,,,,,-0.02,0.06,1.0,-3.0,-1.9,-0.5,0,0,,,,,,,,,,,,,,,,,,,
40795,1480869445133,,,,,,,,-0.02,0.06,1.0,-3.0,-1.9,-0.5,0,0,,,,,,,,,,,,,,,,,,,
40815,1480869445153,,,,,,,,-0.02,0.06,1.0,-3.0,-1.9,-0.5,0,0,,,,,,,,,,,,,,,,,,,
40835,1480869445173,,,,,,,,-0.02,0.05,1.0,-3.0,-1.9,-0.5,0,0,,,,,,,,,,,,,,,,,,,
40855,1480869445193,0,43.6,,40.9,1,40.5,,-0.02,0.05,1.0,-3.0,-1.9,-0.5,0,0,1,1,0.0,0,38.159103,-122.454414,0.0,0.0,72.2,6,3,2.4,0,0.0,-1,0.0,0.0,0.0,0
40875,1480869445213,,,,,,,,-0.02,0.05,1.0,-3.0,-1.9,-0.5,0,0,,,,,,,,,,,,,,,,,,,
40895,1480869445233,,,,,,,,-0.02,0.06,1.0,-3.0,-1.9,-0.5,0,0,,,,,,,,,,,,,,,,,,,
40915,1480869445253,,,,,,,,-0.02,0.06,1.0,-3.0,-1.9,-0.5,0,0,,,,,,,,,,,,,,,,,,,
40935,1480869445273,,,,,,,,-0.02,0.06,1.0,-3.0,-1.9,-0.5,0,0,,,,,,,,,,,,,,,,,,,
40955,1480869445293,,,,,0,,,-0.02,0.06,1.0,-3.0,-1.9,-0.5,0,0,1,1,0.0,0,38.159103,-122.454414,0.0,0.0,72.2,6,3,2.4,0,0.0,-1,0.0,,0.0,0
40975,1480869445313,,,,,,,,-0.02,0.05,1.0,-3.0,-1.9,-0.5,0,0,,,,,,,,,,,,,,,,,,,
40995,1480869445333,,,,,,,,-0.02,0.05,1.0,-3.0,-1.9,-0.5,0,0,,,,,,,,,,,,,,,,,,,
41015,1480869445353,,,,,,,,-0.02,0.05,1.0,-3.0,-1.9,-0.5,0,0,,,,,,,,,,,,,,,,,,,
41035,1480869445373,,,,,,,,-0.02,0.05,1.0,-3.0,-1.9,-0.5,0,0,,,,,,,,,,,,,,,,,,,
41055,1480869445392,0,40.7,2.3,41.0,0,43.3,11.69,-0.02,0.06,1.0,-3.0,-1.9,-0.5,0,0,1,1,0.0,0,38.159103,-122.454414,0.0,0.0,72.2,6,3,2.4,0,0.0,-1,0.0,0.0,0.0,0
41075,1480869445412,,,,,,,,-0.02,0.1,0.99,-3.1,-2.0,-0.5,0,0,,,,,,,,,,,,,,,,,,,
41095,1480869445432,,,,,,,,-0.03,0.1,0.98,-2.9,-2.1,-0.4,0,0,,,,,,,,,,,,,,,,,,,
41115,1480869445452,,,,,,,,-0.04,0.09,0.98,-2.9,-2.2,-0.4,0,0,,,,,,,,,,,,,,,,,,,
41135,1480869445472,,,,,,,,-0.04,0.09,0.99,-2.9,-2.2,-0.4,0,0,,,,,,,,,,,,,,,,,,,
41155,1480869445493,,,,,0,,,-0.04,0.1,0.99,-3.0,-2.2,-0.3,0,0,1,1,0.0,0,38.159103,-122.454414,0.0,0.0,72.2,6,3,2.4,0,0.0,-1,0.0,,0.0,0
41175,1480869445513,,,,,,,,-0.04,0.09,0.99,-3.0,-2.1,-0.4,0,0,,,,,,,,,,,,,,,,,,,
41195,1480869445533,,,,,,,,-0.04,0.07,0.99,-3.0,-1.9,-0.5,0,0,,,,,,,,,,,,,,,,,,,
41215,1480869445553,,,,,,,,-0.04,0.07,0.99,-3.0,-1.9,-0.5,0,0,,,,,,,,,,,,,,,,,,,
41235,1480869445573,,,,,,,,-0.03,0.07,0.99,-3.0,-1.9,-0.5,0,0,,,,,,,,,,,,,,,,,,,
41255,1480869445692,0,42.6,,39.4,1,40.1,,-0.03,0.07,1.0,-3.0,-1.9,-0.5,0,0,1,1,0.0,0,38.159103,-122.454414,0.0,0.0,72.2,6,3,2.4,0,0.0,-1,0.0,0.0,0.0,0
41275,1480869445712,,,,,,,,-0.03,0.07,1.0,-3.0,-1.9,-0.5,0,0,,,,,,,,,,,,,,,,,,,
41295,1480869445732,,,,,,,,-0.03,0.06,1.0,-3.0,-1.9,-0.5,0,0,,,,,,,,,,,,,,,,,,,
41315,1480869445752,,,,,,,,-0.03,0.06,1.0,-3.0,-1.9,-0.5,0,0,,,,,,,,,,,,,,,,,,,
41335,1480869445772,,,,,,,,-0.03,0.06,1.0,-3.0,-1.9,-0.5,0,0,,,,,,,,,,,,,,,,,,,
41355,1480869445792,,,,,0,,,-0.03,0.06,1.0,-3.0,-1.9,-0.5,0,0,1,1,0.0,0,38.159103,-122.454414,0.0,0.0,72.2,6,3,2.4,0,0.0,-1,0.0,,0.0,0
41375,1480869445812,,,,,,,,-0.03,0.06,1.0,-3.0,-1.9,-0.6,0,0,,,,,,,,,,,,,,,,,,,
41395,1480869445832,,,,,,,,-0.03,0.06,1.0,-3.0,-1.9,-0.6,0,0,,,,,,,,,,,,,,,,,,,
41415,1480869445852,,,,,,,,-0.03,0.06,1.0,-3.0,-1.9,-0.5,0,0,,,,,,,,,,,,,,,,,,,
41435,1480869445872,,,,,,,,-0.03,0.06,1.0,-3.0,-1.9,-0.6,0,0,,,,,,,,,,,,,,,,,,,
41455,1480869445792,0,42.4,,41.2,1,41.8,,-0.02,0.05,1.0,-3.0,-1.9,-0.6,0,0,1,1,0.0,0,38.159103,-122.454414,0.0,0.0,72.2,6,3,2.4,0,0.0,-1,0.0,0.0,0.0,0
41475,1480869445812,,,,,,,,-0.02,0.05,1.0,-3.0,-1.9,-0.7,0,0,,,,,,,,,,,,,,,,,,,
41495,1480869445832,,,,,,,,-0.02,0.05,1.0,-2.9,-1.9,-0.6,0,0,,,,,,,,,,,,,,,,,,,
41515,1480869445852,,,,,,,,-0.02,0.05,0.99,-3.0,-1.8,-0.6,0,0,,,,,,,,,,,,,,,,,,,
41535,1480869445872,,,,,,,,-0.02,0.05,1.0,-3.0,-1.8,-0.6,180,0,,,,,,,,,,,,,,,,,,,
41555,1480869445892,,,,,0,,,-0.02,0.05,1.0,-3.0,-1.8,-0.6,180,0,1,1,0.0,0,38.159103,-122.454414,0.0,0.0,72.2,6,3,2.4,0,0.0,-1,0.0,,0.0,0
41575,1480869445901,,,,,,,,-0.02,0.04,1.0,-3.0,-1.9,-0.6,180,21,,,,,,,,,,,,,,,,,,,
41595,1480869445921,,,,,,,,-0.02,0.06,1.0,-3.0,-1.8,-0.6,180,1538461,,,,,,,,,,,,,,,,,,,
41615,1480869445941,,,,,,,,-0.02,0.05,1.0,-3.0,-1.7,-0.6,300,0,,,,,,,,,,,,,,,,,,,
41635,1480869445961,,,,,,,,-0.03,0.06,0.99,-3.0,-1.8,-0.5,300,0,,,,,,,,,,,,,,,,,,,
41655,1480869445993,0,43.5,,40.5,1,40.1,,-0.02,0.06,1.0,-3.0,-1.7,-0.5,480,0,1,1,8.571,0,38.159103,-122.454414,0.0,0.0,72.2,6,3,2.4,0,0.0,-1,0.0,0.0,0.0,0
41675,1480869446013,,,,,,,,-0.03,0.05,1.0,-3.0,-1.7,-0.5,580,0,,,,,,,,,,,,,,,,,,,
41695,1480869446033,,,,,,,,-0.03,0.05,1.0,-3.0,-1.7,-0.6,580,0,,,,,,,,,,,,,,,,,,,
41715,1480869446053,,,,,,,,-0.03,0.05,1.0,-3.0,-1.9,-0.5,600,0,,,,,,,,,,,,,,,,,,,
41735,1480869446073,,,,,,,,-0.03,0.06,1.0,-3.0,-1.9,-0.5,600,0,,,,,,,,,,,,,,,,,,,
41755,1480869446093,,,,,0,,,-0.02,0.06,1.0,-3.1,-1.8,-0.5,500,0,1,0,0.0,0,38.159103,-122.454414,0.0,0.0,72.2,6,2,2.4,0,0.0,-1,0.0,,0.0,0
41775,1480869446113,,,,,,,,-0.03,0.04,1.0,-3.0,-1.8,-0.7,500,0,,,,,,,,,,,,,,,,,,,
41795,1480869446133,,,,,,,,-0.02,0.05,1.0,-3.0,-1.8,-0.6,500,0,,,,,,,,,,,,,,,,,,,
41815,1480869446153,,,,,,,,-0.02,0.04,1.0,-3.0,-1.7,-0.7,500,0,,,,,,,,,,,,,,,,,,,
41835,1480869446173,,,,,,,,-0.02,0.05,1.0,-3.0,-1.8,-0.7,580,0,,,,,,,,,,,,,,,,,,,
41855,1480869446193,0,40.9,,41.2,0,42.9,,-0.02,0.06,0.99,-3.0,-1.8,-0.6,640,0,1,0,0.0,0,38.159103,-122.454414,0.0,0.0,72.2,6,2,2.4,0,0.0,-1,0.0,0.0,0.0,0
41875,1480869446213,,,,,,,,-0.02,0.05,1.0,-3.0,-1.8,-0.6,640,0,,,,,,,,,,,,,,,,,,,
41895,1480869446233,,,,,,,,-0.02,0.04,1.0,-3.0,-1.7,-0.6,700,0,,,,,,,,,,,,,,,,,,,
41915,1480869446253,,,,,,,,-0.01,0.06,1.0,-3.0,-1.9,-0.5,700,0,,,,,,,,,,,,,,,,,,,
41935,1480869446273,,,,,,,,-0.02,0.05,1.0,-2.9,-1.9,-0.6,720,0,,,,,,,,,,,,,,,,,,,
41955,1480869446293,,,,,1,,,-0.02,0.06,1.0,-2.9,-1.7,-0.7,720,0,1,0,0.0,0,38.159103,-122.454414,0.0,0.0,72.2,6,2,2.4,0,0.0,-1,0.0,,0.0,0
41975,1480869446313,,,,,,,,-0.02,0.05,1.02,-2.9,-1.7,-0.6,780,0,,,,,,,,,,,,,,,,,,,
41995,1480869446333,,,,,,,,-0.02,0.06,1.0,-2.9,-1.8,-0.6,780,0,,,,,,,,,,,,,,,,,,,
42015,1480869446353,,,,,,,,-0.02,0.06,1.01,-3.0,-1.7,-0.6,760,0,,,,,,,,,,,,,,,,,,,
42035,1480869446373,,,,,,,,-0.02,0.06,1.01,-2.9,-1.9,-0.7,780,0,,,,,,,,,,,,,,,,,,,
42055,1480869446492,0,41.8,2.2,38.4,1,38.1,14.33,-0.02,0.06,1.01,-2.9,-1.9,-0.7,780,0,1,0,0.0,0,38.159103,-122.454414,0.0,0.0,72.2,6,2,2.4,0,0.0,-1,0.0,0.0,0.0,0
42075,1480869446512,,,,,,,,-0.01,0.07,1.0,-3.0,-1.9,-0.6,780,0,,,,,,,,,,,,,,,,,,,
42095,1480869446532,,,,,,,,-0.01,0.07,1.0,-3.0,-2.0,-0.5,780,0,,,,,,,,,,,,,,,,,,,
42115,1480869446552,,,,,,,,-0.02,0.06,1.01,-3.0,-1.9,-0.5,800,0,,,,,,,,,,,,,,,,,,,
42135,1480869446572,,,,,,,,-0.02,0.06,1.02,-3.0,-1.9,-0.5,780,0,,,,,,,,,,,,,,,,,,,
42155,1480869446592,,,,,1,,,-0.01,0.05,1.01,-3.0,-1.9,-0.5,780,0,1,0,0.0,0,38.159103,-122.454414,0.0,0.0,72.2,6,2,2.4,0,0.0,-1,0.0,,0.0,0
42175,1480869446612,,,,,,,,-0.01,0.06,1.0,-3.0,-2.0,-0.5,780,0,,,,,,,,,,,,,,,,,,,
42195,1480869446632,,,,,,,,-0.01,0.06,1.0,-3.0,-2.0,-0.5,800,0,,,,,,,,,,,,,,,,,,,
42215,1480869446652,,,,,,,,-0.02,0.06,1.01,-3.0,-1.9,-0.5,780,0,,,,,,,,,,,,,,,,,,,
42235,1480869446672,,,,,,,,-0.02,0.06,1.02,-3.0,-2.0,-0.6,800,0,,,,,,,,,,,,,,,,,,,
42255,1480869446593,0,43.0,,41.8,2,41.4,,-0.02,0.05,1.01,-3.0,-1.9,-0.6,800,0,1,0,0.0,0,38.159103,-122.454414,0.0,0.0,72.2,6,2,2.4,0,0.0,-1,0.0,0.0,0.0,0
42275,1480869446613,,,,,,,,-0.01,0.05,1.0,-3.0,-1.8,-0.5,820,0,,,,,,,,,,,,,,,,,,,
42295,1480869446633,,,,,,,,-0.0,0.06,0.99,-3.0,-1.9,-0.5,820,0,,,,,,,,,,,,,,,,,,,
42315,1480869446653,,,,,,,,-0.02,0.06,1.0,-3.0,-2.0,-0.5,820,0,,,,,,,,,,,,,,,,,,,
42335,1480869446673,,,,,,,,-0.02,0.06,1.0,-3.0,-1.9,-0.5,820,0,,,,,,,,,,,,,,,,,,,
42355,1480869446693,,,,,2,,,-0.02,0.05,1.0,-3.0,-1.8,-0.6,820,0,1,0,0.0,0,38.159103,-122.454414,0.0,0.0,72.2,6,2,2.4,0,0.0,-1,0.0,,0.0,0
42375,1480869446713,,,,,,,,-0.01,0.05,1.0,-3.0,-1.8,-0.5,820,0,,,,,,,,,,,,,,,,,,,
42395,1480869446733,,,,,,,,-0.01,0.06,0.99,-3.0,-1.8,-0.5,820,0,,,,,,,,,,,,,,,,,,,
42415,1480869446753,,,,,,,,-0.01,0.06,0.99,-3.0,-1.8,-0.5,820,0,,,,,,,,,,,,,,,,,,,
42435,1480869446773,,,,,,,,-0.02,0.06,1.0,-3.0,-1.9,-0.5,820,0,,,,,,,,,,,,,,,,,,,
42455,1480869446793,0,39.8,,36.4,2,40.5,,-0.02,0.06,1.0,-3.0,-1.9,-0.5,820,0,1,0,0.0,0,38.159103,-122.454414,0.0,0.0,72.2,6,2,2.4,0,0.0,-1,0.0,0.0,0.0,0
42475,1480869446813,,,,,,,,-0.03,0.06,1.0,-3.0,-1.8,-0.5,820,0,,,,,,,,,,,,,,,,,,,
42495,1480869446833,,,,,,,,-0.02,0.05,1.0,-3.0,-1.9,-0.5,820,0,,,,,,,,,,,,,,,,,,,
42515,1480869446853,,,,,,,,-0.02,0.06,0.99,-3.0,-1.9,-0.5,800,0,,,,,,,,,,,,,,,,,,,
42535,1480869446873,,,,,,,,-0.02,0.06,0.99,-3.0,-2.0,-0.5,820,0,,,,,,,,,,,,,,,,,,,
42555,1480869446893,,,,,3,,,-0.03,0.06,0.99,-3.0,-2.0,-0.5,820,0,1,0,0.0,0,38.159103,-122.454414,0.0,0.0,72.2,6,2,2.4,0,0.0,-1,0.0,,0.0,0
42575,1480869446905,,,,,,,,-0.03,0.05,0.99,-3.0,-1.9,-0.5,820,0,,,,,,,,,,,,,,,,,,,
42595,1480869446925,,,,,,,,-0.02,0.05,1.0,-3.0,-1.8,-0.5,820,0,,,,,,,,,,,,,,,,,,,
42615,1480869446945,,,,,,,,-0.02,0.05,1.0,-3.0,-1.8,-0.5,800,0,,,,,,,,,,,,,,,,,,,
42635,1480869446965,,,,,,,,-0.02,0.06,0.99,-3.0,-1.8,-0.5,800,0,,,,,,,,,,,,,,,,,,,
42655,1480869446993,0,41.4,,37.0,3,38.9,,-0.02,0.06,0.99,-3.0,-1.9,-0.5,800,0,1,0,0.0,0,38.159103,-122.454414,0.0,0.0,72.2,6,2,2.4,0,0.0,-1,0.0,0.0,0.0,0
42675,1480869447013,,,,,,,,-0.02,0.06,1.0,-3.0,-1.9,-0.6,800,0,,,,,,,,,,,,,,,,,,,
42695,1480869447033,,,,,,,,-0.03,0.06,1.01,-3.0,-1.8,-0.6,800,0,,,,,,,,,,,,,,,,,,,
42715,1480869447053,,,,,,,,-0.02,0.05,1.01,-3.0,-1.7,-0.6,800,0,,,,,,,,,,,,,,,,,,,
42735,1480869447073,,,,,,,,-0.01,0.06,0.99,-3.0,-1.7,-0.5,820,0,,,,,,,,,,,,,,,,,,,
42755,1480869447093,,,,,3,,,-0.01,0.06,0.99,-3.1,-1.8,-0.5,820,0,1,0,0.0,0,38.159103,-122.454414,0.0,0.0,72.2,6,2,2.4,0,0.0,-1,0.0,,0.0,0
42775,1480869447113,,,,,,,,-0.02,0.06,1.0,-3.0,-1.9,-0.6,820,0,,,,,,,,,,,,,,,,,,,
42795,1480869447133,,,,,,,,-0.03,0.04,1.01,-3.0,-1.9,-0.6,820,0,,,,,,,,,,,,,,,,,,,
42815,1480869447153,,,,,,,,-0.03,0.04,1.0,-3.0,-1.9,-0.6,820,0,,,,,,,,,,,,,,,,,,,
42835,1480869447173,,,,,,,,-0.02,0.04,1.0,-3.0,-1.9,-0.6,820,0,,,,,,,,,,,,,,,,,,,
42855,1480869447292,0,41.4,,37.4,4,38.9,,-0.02,0.05,0.99,-3.0,-1.8,-0.6,820,0,1,1,0.0,0,38.159103,-122.454414,0.0,0.0,72.2,6,2,2.4,0,0.0,-1,0.0,0.0,0.0,0
42875,1480869447312,,,,,,,,-0.02,0.05,0.99,-3.1,-2.0,-0.5,840,0,,,,,,,,,,,,,,,,,,,
42895,1480869447332,,,,,,,,-0.03,0.06,1.0,-3.0,-2.0,-0.5,840,0,,,,,,,,,,,,,,,,,,,
42915,1480869447352,,,,,,,,-0.03,0.06,1.01,-3.0,-1.9,-0.5,860,0,,,,,,,,,,,,,,,,,,,
42935,1480869447372,,,,,,,,-0.03,0.05,1.01,-3.0,-1.8,-0.6,860,0,,,,,,,,,,,,,,,,,,,
42955,1480869447392,,,,,3,,,-0.03,0.04,1.01,-3.0,-1.9,-0.7,860,0,1,1,0.0,0,38.159103,-122.454414,0.0,0.0,72.2,6,2,2.4,0,0.0,-1,0.0,,0.0,0
42975,1480869447412,,,,,,,,-0.02,0.04,1.0,-3.0,-1.9,-0.6,860,0,,,,,,,,,,,,,,,,,,,
42995,1480869447432,,,,,,,,-0.01,0.05,1.0,-3.0,-1.8,-0.6,880,0,,,,,,,,,,,,,,,,,,,
43015,1480869447452,,,,,,,,-0.01,0.06,1.0,-3.0,-2.1,-0.5,880,0,,,,,,,,,,,,,,,,,,,
43035,1480869447472,,,,,,,,-0.02,0.07,1.0,-3.1,-2.1,-0.5,900,0,,,,,,,,,,,,,,,,,,,
43055,1480869447393,0,40.4,1.8,36.6,4,40.4,14.93,-0.03,0.07,1.0,-3.1,-2.0,-0.4,900,0,1,1,0.0,0,38.159103,-122.454414,0.0,0.0,72.2,6,2,2.4,0,0.0,-1,0.0,0.0,0.0,0
43075,1480869447413,,,,,,,,-0.03,0.06,1.0,-3.0,-2.1,-0.4,900,0,,,,,,,,,,,,,,,,,,,
43095,1480869447433,,,,,,,,-0.04,0.06,0.99,-3.0,-2.1,-0.4,920,0,,,,,,,,,,,,,,,,,,,
43115,1480869447453,,,,,,,,-0.04,0.06,0.99,-3.0,-1.9,-0.5,920,0,,,,,,,,,,,,,,,,,,,
43135,1480869447473,,,,,,,,-0.03,0.05,1.0,-3.0,-1.8,-0.6,940,0,,,,,,,,,,,,,,,,,,,
43155,1480869447493,,,,,5,,,-0.03,0.04,1.0,-3.0,-1.9,-0.7,940,0,1,1,0.0,0,38.159103,-122.454414,0.0,0.0,72.2,6,2,2.4,0,0.0,-1,0.0,,0.0,0
43175,1480869447513,,,,,,,,-0.02,0.03,1.0,-3.0,-1.9,-0.8,960,0,,,,,,,,,,,,,,,,,,,
43195,1480869447533,,,,,,,,-0.02,0.02,1.01,-3.0,-1.8,-0.9,960,0,,,,,,,,,,,,,,,,,,,
43215,1480869447553,,,,,,,,-0.01,0.03,1.01,-3.0,-1.8,-0.9,980,0,,,,,,,,,,,,,,,,,,,
43235,1480869447573,,,,,,,,-0.01,0.03,1.01,-3.0,-1.8,-0.9,980,0,,,,,,,,,,,,,,,,,,,
43255,1480869447593,0,41.7,,41.4,6,42.6,,-0.01,0.04,1.0,-3.0,-1.9,-0.9,980,0,1,1,0.0,0,38.159103,-122.454414,0.0,0.0,72.2,6,2,2.4,0,0.0,-1,0.0,0.0,0.0,0
43275,1480869447613,,,,,,,,-0.01,0.03,1.0,-3.0,-1.9,-0.9,980,0,,,,,,,,,,,,,,,,,,,
43295,1480869447633,,,,,,,,-0.01,0.03,1.0,-3.1,-2.0,-0.9,1000,0,,,,,,,,,,,,,,,,,,,
43315,1480869447653,,,,,,,,-0.01,0.03,0.99,-3.1,-2.0,-0.9,1000,0,,,,,,,,,,,,,,,,,,,
43335,1480869447673,,,,,,,,-0.01,0.03,0.99,-3.1,-2.0,-0.9,1020,0,,,,,,,,,,,,,,,,,,,
43355,1480869447693,,,,,7,,,-0.01,0.03,0.98,-3.1,-2.0,-0.9,1020,0,1,1,0.0,0,38.159103,-122.454414,0.0,0.0,72.2,6,2,2.4,0,0.0,-1,0.0,,0.0,0
43375,1480869447713,,,,,,,,-0.01,0.03,0.98,-3.1,-2.0,-0.9,1020,0,,,,,,,,,,,,,,,,,,,
43395,1480869447733,,,,,,,,-0.01,0.02,0.98,-3.1,-1.9,-0.9,1040,0,,,,,,,,,,,,,,,,,,,
43415,1480869447753,,,,,,,,-0.01,0.02,0.98,-3.1,-1.9,-0.9,1040,0,,,,,,,,,,,,,,,,,,,
43435,1480869447773,,,,,,,,-0.01,0.02,0.99,-3.1,-1.9,-0.9,1040,0,,,,,,,,,,,,,,,,,,,
43455,1480869447793,0,42.1,,41.7,8,42.4,,-0.01,0.02,0.99,-3.0,-1.8,-1.0,1040,0,1,1,0.0,0,38.159103,-122.454414,0.0,0.0,72.2,6,2,2.4,0,0.0,-1,0.0,0.0,0.0,0
43475,1480869447813,,,,,,,,-0.01,0.01,0.99,-3.0,-1.8,-1.0,1060,0,,,,,,,,,,,,,,,,,,,
43495,1480869447833,,,,,,,,-0.01,0.02,0.98,-3.0,-1.8,-1.0,1060,0,,,,,,,,,,,,,,,,,,,
43515,1480869447853,,,,,,,,-0.02,0.02,0.98,-3.0,-1.7,-1.0,1060,0,,,,,,,,,,,,,,,,,,,
43535,1480869447873,,,,,,,,-0.01,0.03,0.98,-3.0,-1.5,-1.0,1060,0,,,,,,,,,,,,,,,,,,,
43555,1480869447893,,,,,12,,,-0.02,0.04,0.98,-3.0,-1.4,-0.9,1060,0,1,1,0.0,0,38.159103,-122.454414,0.0,0.0,72.2,6,2,2.4,0,0.0,-1,0.0,,0.0,0
43575,1480869447905,,,,,,,,-0.02,0.05,0.98,-3.0,-1.3,-0.7,1080,0,,,,,,,,,,,,,,,,,,,
43595,1480869447925,,,,,,,,-0.02,0.05,0.98,-3.0,-1.4,-0.6,1080,0,,,,,,,,,,,,,,,,,,,
43615,1480869447945,,,,,,,,-0.02,0.04,0.99,-3.0,-1.5,-0.6,1100,0,,,,,,,,,,,,,,,,,,,
43635,1480869447965,,,,,,,,-0.02,0.04,1.0,-3.0,-1.6,-0.6,1100,0,,,,,,,,,,,,,,,,,,,
43655,1480869448092,0,42.4,,39.4,22,38.3,,-0.02,0.03,1.0,-3.0,-1.8,-0.7,1100,0,1,1,0.0,0,38.159103,-122.454414,0.0,0.0,72.2,6,2,2.4,0,0.0,-1,0.0,0.0,0.0,0
43675,1480869448112,,,,,,,,-0.02,0.03,1.0,-3.0,-1.8,-0.7,1100,0,,,,,,,,,,,,,,,,,,,
43695,1480869448132,,,,,,,,-0.02,0.03,1.0,-3.0,-1.6,-0.7,1100,0,,,,,,,,,,,,,,,,,,,
43715,1480869448152,,,,,,,,-0.02,0.04,0.99,-3.0,-1.6,-0.7,1120,0,,,,,,,,,,,,,,,,,,,
43735,1480869448172,,,,,,,,-0.02,0.05,0.99,-3.0,-1.7,-0.7,1120,0,,,,,,,,,,,,,,,,,,,
43755,1480869448192,,,,,30,,,-0.02,0.06,0.99,-3.1,-1.6,-0.5,1120,0,1,1,0.0,0,38.159103,-122.454414,0.0,0.0,72.2,6,2,2.4,0,0.0,-1,0.0,,0.0,0
43775,1480869448212,,,,,,,,-0.02,0.06,0.99,-3.0,-1.6,-0.5,1120,0,,,,,,,,,,,,,,,,,,,
43795,1480869448232,,,,,,,,-0.02,0.06,1.0,-3.1,-1.7,-0.5,1120,0,,,,,,,,,,,,,,,,,,,
43815,1480869448252,,,,,,,,-0.02,0.04,1.0,-3.0,-1.8,-0.6,1140,0,,,,,,,,,,,,,,,,,,,
43835,1480869448272,,,,,,,,-0.02,0.04,1.01,-3.1,-1.8,-0.6,1140,0,,,,,,,,,,,,,,,,,,,
43855,1480869448192,0,42.3,,39.4,40,38.3,,-0.03,0.03,1.01,-3.1,-1.8,-0.7,1140,0,1,1,0.0,0,38.159103,-122.454414,0.0,0.0,72.2,6,2,2.4,0,0.0,-1,0.0,0.0,0.0,0
43875,1480869448212,,,,,,,,-0.03,0.04,0.99,-3.0,-2.0,-0.6,1140,0,,,,,,,,,,,,,,,,,,,
43895,1480869448232,,,,,,,,-0.03,0.05,0.99,-3.1,-1.8,-0.5,1140,0,,,,,,,,,,,,,,,,,,,
43915,1480869448252,,,,,,,,-0.02,0.06,0.99,-3.1,-1.8,-0.4,1160,0,,,,,,,,,,,,,,,,,,,
43935,1480869448272,,,,,,,,-0.03,0.05,1.0,-3.0,-1.9,-0.5,1140,0,,,,,,,,,,,,,,,,,,,
43955,1480869448292,,,,,46,,,-0.02,0.05,1.0,-3.0,-1.9,-0.5,1140,0,1,1,0.0,0,38.159103,-122.454414,0.0,0.0,72.2,6,2,2.4,0,0.0,-1,0.0,,0.0,0
43975,1480869448312,,,,,,,,-0.02,0.04,1.0,-3.0,-1.8,-0.6,1140,0,,,,,,,,,,,,,,,,,,,
43995,1480869448332,,,,,,,,-0.02,0.04,1.0,-3.0,-1.9,-0.6,1140,0,,,,,,,,,,,,,,,,,,,
44015,1480869448352,,,,,,,,-0.02,0.06,0.99,-3.0,-1.9,-0.5,1160,0,,,,,,,,,,,,,,,,,,,
44035,1480869448372,,,,,,,,-0.02,0.07,0.99,-3.0,-1.9,-0.4,1160,0,,,,,,,,,,,,,,,,,,,
44055,1480869448392,0,41.8,2.0,38.3,50,38.3,14.92,-0.02,0.07,0.99,-3.0,-2.0,-0.4,1160,0,1,1,0.0,0,38.159103,-122.454414,0.0,0.0,72.2,6,2,2.4,0,0.0,-1,0.0,0.0,0.0,0
44075,1480869448412,,,,,,,,-0.02,0.05,1.0,-3.0,-2.1,-0.5,1140,0,,,,,,,,,,,,,,,,,,,
44095,1480869448432,,,,,,,,-0.02,0.05,1.0,-3.0,-2.0,-0.6,1140,0,,,,,,,,,,,,,,,,,,,
44115,1480869448452,,,,,,,,-0.03,0.04,0.99,-3.0,-1.9,-0.6,1160,0,,,,,,,,,,,,,,,,,,,
44135,1480869448472,,,,,,,,-0.03,0.05,0.99,-3.0,-1.9,-0.5,1160,0,,,,,,,,,,,,,,,,,,,
44155,1480869448492,,,,,51,,,-0.02,0.06,0.99,-3.0,-1.8,-0.4,1160,0,1,1,0.0,0,38.159103,-122.454414,0.0,0.0,72.2,6,2,2.4,0,0.0,-1,0.0,,0.0,0
44175,1480869448512,,,,,,,,-0.02,0.06,1.0,-3.0,-1.8,-0.4,1140,0,,,,,,,,,,,,,,,,,,,
44195,1480869448532,,,,,,,,-0.02,0.05,1.0,-3.0,-1.8,-0.5,1140,0,,,,,,,,,,,,,,,,,,,
44215,1480869448552,,,,,,,,-0.01,0.05,1.0,-3.0,-1.8,-0.6,1140,0,,,,,,,,,,,,,,,,,,,
44235,1480869448572,,,,,,,,-0.02,0.04,1.0,-3.0,-1.8,-0.7,1160,0,,,,,,,,,,,,,,,,,,,
44255,1480869448592,0,41.2,,41.1,53,43.0,,-0.02,0.05,0.99,-3.0,-1.9,-0.6,1140,0,1,1,0.0,0,38.159103,-122.454414,0.0,0.0,72.2,6,2,2.4,0,0.0,-1,0.0,0.0,0.0,0
44275,1480869448612,,,,,,,,-0.02,0.05,0.99,-3.0,-1.7,-0.5,1140,0,,,,,,,,,,,,,,,,,,,
44295,1480869448632,,,,,,,,-0.02,0.06,0.99,-3.0,-1.8,-0.5,1140,0,,,,,,,,,,,,,,,,,,,
44315,1480869448652,,,,,,,,-0.02,0.05,1.0,-3.0,-1.9,-0.5,1140,0,,,,,,,,,,,,,,,,,,,
44335,1480869448672,,,,,,,,-0.01,0.04,1.01,-3.0,-1.9,-0.6,1140,0,,,,,,,,,,,,,,,,,,,
44355,1480869448692,,,,,55,,,-0.01,0.04,1.01,-3.0,-1.8,-0.6,1140,0,1,1,0.0,0,38.159103,-122.454414,0.0,0.0,72.2,6,2,2.4,0,0.0,-1,0.0,,0.0,0
44375,1480869448712,,,,,,,,-0.02,0.04,1.0,-3.0,-1.9,-0.6,1140,0,,,,,,,,,,,,,,,,,,,
44395,1480869448732,,,,,,,,-0.02,0.05,0.99,-3.0,-2.0,-0.6,1120,0,,,,,,,,,,,,,,,,,,,
44415,1480869448752,,,,,,,,-0.02,0.06,0.99,-3.1,-1.9,-0.5,1120,0,,,,,,,,,,,,,,,,,,,
44435,1480869448772,,,,,,,,-0.02,0.06,0.99,-3.1,-2.0,-0.4,1140,0,,,,,,,,,,,,,,,,,,,
44455,1480869448891,0,40.4,,35.7,54,39.8,,-0.01,0.05,1.0,-3.0,-2.0,-0.5,1140,0,1,1,0.0,0,38.159103,-122.454414,0.0,0.0,72.2,6,2,2.4,0,0.0,-1,0.0,0.0,0.0,0
44475,1480869448911,,,,,,,,-0.01,0.05,1.0,-3.0,-2.1,-0.5,1120,0,,,,,,,,,,,,,,,,,,,
44495,1480869448931,,,,,,,,-0.01,0.04,1.0,-3.0,-1.9,-0.6,1120,0,,,,,,,,,,,,,,,,,,,
44515,1480869448951,,,,,,,,-0.02,0.04,1.0,-3.0,-2.0,-0.6,1120,0,,,,,,,,,,,,,,,,,,,
44535,1480869448971,,,,,,,,-0.02,0.06,0.99,-3.0,-2.0,-0.6,1120,0,,,,,,,,,,,,,,,,,,,
44555,1480869448991,,,,,54,,,-0.02,0.07,1.0,-3.1,-1.8,-0.5,1140,0,1,1,0.0,0,38.159103,-122.454414,0.0,0.0,72.2,6,2,2.4,0,0.0,-1,0.0,,0.0,0
44575,1480869449011,,,,,,,,-0.02,0.07,1.0,-3.1,-1.9,-0.4,1120,0,,,,,,,,,,,,,,,,,,,
44595,1480869449031,,,,,,,,-0.02,0.06,1.01,-3.1,-1.9,-0.5,1120,0,,,,,,,,,,,,,,,,,,,
44615,1480869449051,,,,,,,,-0.02,0.05,1.01,-3.0,-1.9,-0.6,1120,0,,,,,,,,,,,,,,,,,,,
44635,1480869449071,,,,,,,,-0.01,0.05,1.01,-3.1,-1.9,-0.6,1120,0,,,,,,,,,,,,,,,,,,,
44655,1480869448992,0,40.4,,40.1,54,43.2,,-0.02,0.04,1.01,-3.0,-1.9,-0.6,1140,0,1,1,0.0,0,38.159103,-122.454414,0.0,0.0,72.2,6,2,2.4,0,0.0,-1,0.0,0.0,0.0,0
44675,1480869449012,,,,,,,,-0.02,0.05,1.0,-3.0,-2.0,-0.6,1120,0,,,,,,,,,,,,,,,,,,,
44695,1480869449032,,,,,,,,-0.02,0.06,0.99,-3.1,-1.8,-0.5,1120,0,,,,,,,,,,,,,,,,,,,
44715,1480869449052,,,,,,,,-0.02,0.07,1.0,-3.1,-1.7,-0.5,1120,0,,,,,,,,,,,,,,,,,,,
44735,1480869449072,,,,,,,,-0.02,0.06,1.0,-3.0,-1.8,-0.4,1140,0,,,,,,,,,,,,,,,,,,,
44755,1480869449092,,,,,55,,,-0.02,0.05,1.01,-3.0,-1.8,-0.5,1140,0,1,1,0.0,0,38.159103,-122.454414,0.0,0.0,72.2,6,2,2.4,0,0.0,-1,0.0,,0.0,0
44775,1480869449112,,,,,,,,-0.02,0.05,1.01,-3.0,-1.8,-0.6,1140,0,,,,,,,,,,,,,,,,,,,
44795,1480869449132,,,,,,,,-0.02,0.04,1.01,-3.0,-1.8,-0.6,1120,0,,,,,,,,,,,,,,,,,,,
44815,1480869449152,,,,,,,,-0.02,0.05,1.0,-3.0,-1.9,-0.6,1120,0,,,,,,,,,,,,,,,,,,,
44835,1480869449172,,,,,,,,-0.02,0.06,0.99,-3.0,-1.7,-0.6,1140,0,,,,,,,,,,,,,,,,,,,
44855,1480869449192,0,43.3,,41.2,58,40.9,,-0.02,0.07,0.99,-3.0,-1.7,-0.5,1140,0,1,1,0.0,0,38.159103,-122.454414,0.0,0.0,72.2,6,2,2.4,0,0.0,-1,0.0,0.0,0.0,0
44875,1480869449212,,,,,,,,-0.02,0.06,1.0,-3.0,-1.8,-0.5,1140,0,,,,,,,,,,,,,,,,,,,
44895,1480869449232,,,,,,,,-0.02,0.06,1.0,-3.0,-1.8,-0.5,1140,0,,,,,,,,,,,,,,,,,,,
44915,1480869449252,,,,,,,,-0.02,0.05,1.0,-3.0,-1.8,-0.6,1140,0,,,,,,,,,,,,,,,,,,,
44935,1480869449272,,,,,,,,-0.02,0.04,1.0,-3.0,-1.9,-0.6,1140,0,,,,,,,,,,,,,,,,,,,
44955,1480869449292,,,,,58,,,-0.02,0.05,0.99,-3.0,-2.0,-0.6,1140,0,1,1,0.0,0,38.159103,-122.454414,0.0,0.0,72.2,6,2,2.4,0,0.0,-1,0.0,,0.0,0
44975,1480869449312,,,,,,,,-0.02,0.06,0.99,-3.0,-1.8,-0.5,1160,0,,,,,,,,,,,,,,,,,,,
44995,1480869449332,,,,,,,,-0.02,0.07,0.99,-3.0,-1.8,-0.5,1160,0,,,,,,,,,,,,,,,,,,,
45015,1480869449352,,,,,,,,-0.02,0.05,1.0,-3.0,-1.8,-0.5,1160,0,,,,,,,,,,,,,,,,,,,
45035,1480869449372,,,,,,,,-0.02,0.05,1.01,-3.0,-1.8,-0.6,1160,0,,,,,,,,,,,,,,,,,,,
45055,1480869449392,0,42.9,2.4,39.6,60,38.6,14.9,-0.02,0.04,1.0,-3.0,-1.6,-0.6,1180,0,1,1,0.0,0,38.159103,-122.454414,0.0,0.0,72.2,6,2,2.4,0,0.0,-1,0.0,0.0,0.0,0
45075,1480869449412,,,,,,,,-0.02,0.05,0.99,-3.0,-1.7,-0.6,1180,0,,,,,,,,,,,,,,,,,,,
45095,1480869449432,,,,,,,,-0.02,0.06,0.99,-3.0,-1.6,-0.6,1180,0,,,,,,,,,,,,,,,,,,,
45115,1480869449452,,,,,,,,-0.01,0.06,1.0,-3.0,-1.6,-0.5,1200,0,,,,,,,,,,,,,,,,,,,
45135,1480869449472,,,,,,,,-0.01,0.05,1.0,-3.0,-1.7,-0.6,1200,0,,,,,,,,,,,,,,,,,,,
45155,1480869449492,,,,,61,,,-0.02,0.04,1.0,-3.0,-1.6,-0.7,1220,0,1,1,0.0,0,38.159103,-122.454414,0.0,0.0,72.2,6,2,2.4,0,0.0,-1,0.0,,0.0,0
45175,1480869449512,,,,,,,,-0.02,0.05,0.99,-3.0,-1.7,-0.6,1220,0,,,,,,,,,,,,,,,,,,,
45195,1480869449532,,,,,,,,-0.01,0.07,0.99,-3.0,-1.7,-0.5,1240,0,,,,,,,,,,,,,,,,,,,
45215,1480869449552,,,,,,,,-0.01,0.05,1.0,-3.0,-1.7,-0.5,1240,0,,,,,,,,,,,,,,,,,,,
45235,1480869449572,,,,,,,,-0.02,0.05,1.0,-3.0,-1.7,-0.6,1260,0,,,,,,,,,,,,,,,,,,,
45255,1480869449691,0,38.8,,38.6,61,42.7,,-0.02,0.06,0.99,-3.1,-1.7,-0.5,1280,0,1,1,0.0,0,38.159103,-122.454414,0.0,0.0,72.2,6,2,2.4,0,0.0,-1,0.0,0.0,0.0,0
45275,1480869449711,,,,,,,,-0.01,0.06,0.99,-3.1,-1.7,-0.5,1300,0,,,,,,,,,,,,,,,,,,,
45295,1480869449731,,,,,,,,-0.02,0.06,1.0,-3.1,-1.7,-0.5,1300,0,,,,,,,,,,,,,,,,,,,
45315,1480869449751,,,,,,,,-0.02,0.06,1.0,-3.0,-1.8,-0.6,1320,0,,,,,,,,,,,,,,,,,,,
45335,1480869449771,,,,,,,,-0.02,0.06,1.0,-3.1,-1.8,-0.5,1340,0,,,,,,,,,,,,,,,,,,,
45355,1480869449791,,,,,63,,,-0.02,0.06,1.0,-3.1,-1.6,-0.6,1360,0,1,1,0.0,0,38.159103,-122.454414,0.0,0.0,72.2,6,2,2.4,0,0.0,-1,0.0,,0.0,0
45375,1480869449811,,,,,,,,-0.02,0.06,1.0,-3.0,-1.7,-0.5,1360,0,,,,,,,,,,,,,,,,,,,
45395,1480869449831,,,,,,,,-0.03,0.05,1.0,-3.0,-1.9,-0.5,1400,0,,,,,,,,,,,,,,,,,,,
45415,1480869449851,,,,,,,,-0.03,0.06,0.99,-3.0,-1.6,-0.5,1420,0,,,,,,,,,,,,,,,,,,,
45435,1480869449871,,,,,,,,-0.02,0.06,1.0,-3.0,-1.5,-0.5,1440,0,,,,,,,,,,,,,,,,,,,
45455,1480869449792,0,41.5,,41.2,63,42.7,,-0.02,0.07,1.0,-3.0,-1.8,-0.6,1440,0,1,1,0.0,0,38.159103,-122.454414,0.0,0.0,72.2,6,2,2.4,0,0.0,-1,0.0,0.0,0.0,0
45475,1480869449812,,,,,,,,-0.01,0.07,0.99,-3.0,-2.0,-0.5,1440,0,,,,,,,,,,,,,,,,,,,
45495,1480869449832,,,,,,,,-0.01,0.06,0.99,-3.0,-2.0,-0.6,1460,0,,,,,,,,,,,,,,,,,,,
45515,1480869449852,,,,,,,,-0.02,0.06,0.99,-3.0,-2.1,-0.5,1480,0,,,,,,,,,,,,,,,,,,,
45535,1480869449872,,,,,,,,-0.02,0.05,1.0,-3.0,-2.1,-0.6,1480,0,,,,,,,,,,,,,,,,,,,
45555,1480869449892,,,,,63,,,-0.02,0.06,1.0,-3.0,-2.0,-0.5,1480,0,1,1,0.0,0,38.159103,-122.454414,0.0,0.0,72.2,6,2,2.4,0,0.0,-1,0.0,,0.0,0
45575,1480869449904,,,,,,,,-0.02,0.04,1.01,-3.0,-1.8,-0.6,1500,0,,,,,,,,,,,,,,,,,,,
45595,1480869449924,,,,,,,,-0.02,0.04,1.01,-3.0,-1.8,-0.6,1500,0,,,,,,,,,,,,,,,,,,,
45615,1480869449944,,,,,,,,-0.02,0.04,1.01,-3.0,-1.8,-0.6,1520,0,,,,,,,,,,,,,,,,,,,
45635,1480869449964,,,,,,,,-0.02,0.05,1.01,-3.0,-1.9,-0.6,1520,0,,,,,,,,,,,,,,,,,,,
45655,1480869449984,0,41.8,,38.0,64,38.0,,-0.02,0.04,1.01,-3.0,-2.0,-0.6,1520,0,1,1,0.0,0,38.159103,-122.454414,0.0,0.0,72.2,6,2,2.4,0,0.0,-1,0.0,0.0,0.0,0
45675,1480869450010,,,,,,,,-0.02,0.05,1.01,-3.0,-2.0,-0.6,1540,0,,,,,,,,,,,,,,,,,,,
45695,1480869450030,,,,,,,,-0.02,0.05,1.01,-3.0,-2.2,-0.6,1540,0,,,,,,,,,,,,,,,,,,,
45715,1480869450050,,,,,,,,-0.02,0.06,1.01,-3.0,-2.1,-0.6,1540,0,,,,,,,,,,,,,,,,,,,
45735,1480869450070,,,,,,,,-0.02,0.06,1.01,-3.0,-1.9,-0.6,1560,0,,,,,,,,,,,,,,,,,,,
45755,1480869450093,,,,,65,,,-0.02,0.06,1.0,-3.0,-1.9,-0.6,1560,0,1,1,0.0,0,38.159103,-122.454414,0.0,0.0,72.2,6,2,2.4,0,0.0,-1,0.0,,0.0,0
45775,1480869450113,,,,,,,,-0.02,0.06,1.01,-3.0,-1.8,-0.5,1560,0,,,,,,,,,,,,,,,,,,,
45795,1480869450133,,,,,,,,-0.02,0.05,1.02,-3.0,-1.8,-0.6,1560,0,,,,,,,,,,,,,,,,,,,
45815,1480869450153,,,,,,,,-0.02,0.06,1.01,-3.0,-2.0,-0.5,1580,0,,,,,,,,,,,,,,,,,,,
45835,1480869450173,,,,,,,,-0.02,0.07,1.01,-3.0,-1.9,-0.6,1580,0,,,,,,,,,,,,,,,,,,,
45855,1480869450193,0,42.0,,42.1,64,43.0,,-0.02,0.06,1.02,-3.0,-2.0,-0.6,1580,0,1,1,0.0,0,38.159103,-122.454414,0.0,0.0,72.2,6,2,2.4,0,0.0,-1,0.0,0.0,0.0,0
45875,1480869450213,,,,,,,,-0.02,0.06,1.02,-3.0,-1.9,-0.6,1600,0,,,,,,,,,,,,,,,,,,,
45895,1480869450233,,,,,,,,-0.02,0.05,1.02,-3.0,-1.8,-0.6,1600,0,,,,,,,,,,,,,,,,,,,
45915,1480869450253,,,,,,,,-0.02,0.05,1.01,-3.0,-2.0,-0.5,1600,0,,,,,,,,,,,,,,,,,,,
45935,1480869450273,,,,,,,,-0.02,0.06,1.0,-3.0,-2.0,-0.6,1600,0,,,,,,,,,,,,,,,,,,,
45955,1480869450292,,,,,63,,,-0.01,0.07,1.0,-3.0,-2.0,-0.6,1600,0,1,1,0.0,0,38.159103,-122.454414,0.0,0.0,72.2,6,2,2.4,0,0.0,-1,0.0,,0.0,0
45975,1480869450312,,,,,,,,-0.02,0.06,1.0,-3.0,-2.1,-0.6,1620,0,,,,,,,,,,,,,,,,,,,
45995,1480869450332,,,,,,,,-0.02,0.05,1.01,-3.0,-1.9,-0.6,1620,0,,,,,,,,,,,,,,,,,,,
46015,1480869450352,,,,,,,,-0.02,0.06,1.0,-3.0,-2.1,-0.5,1600,0,,,,,,,,,,,,,,,,,,,
46035,1480869450372,,,,,,,,-0.02,0.06,1.01,-3.0,-2.0,-0.6,1620,0,,,,,,,,,,,,,,,,,,,
46055,1480869450492,0,37.1,1.3,36.3,63,42.1,14.91,-0.02,0.05,1.01,-3.0,-1.9,-0.6,1640,0,1,1,0.0,0,38.159103,-122.454414,0.0,0.0,72.2,6,2,2.4,0,0.0,-1,0.0,0.0,0.0,0
46075,1480869450512,,,,,,,,-0.02,0.05,1.0,-3.0,-2.1,-0.5,1640,0,,,,,,,,,,,,,,,,,,,
46095,1480869450532,,,,,,,,-0.02,0.06,0.99,-3.0,-1.9,-0.6,1620,0,,,,,,,,,,,,,,,,,,,
46115,1480869450552,,,,,,,,-0.01,0.06,0.99,-3.0,-2.0,-0.5,1640,0,,,,,,,,,,,,,,,,,,,
46135,1480869450572,,,,,,,,-0.02,0.07,0.99,-3.0,-2.1,-0.5,1640,0,,,,,,,,,,,,,,,,,,,
46155,1480869450592,,,,,63,,,-0.01,0.07,0.98,-3.0,-1.9,-0.6,1640,0,1,1,0.0,0,38.159103,-122.454414,0.0,0.0,72.2,6,2,2.4,0,0.0,-1,0.0,,0.0,0
46175,1480869450612,,,,,,,,-0.01,0.07,0.99,-3.0,-2.0,-0.6,1660,0,,,,,,,,,,,,,,,,,,,
46195,1480869450632,,,,,,,,-0.01,0.06,0.98,-3.0,-2.1,-0.5,1660,0,,,,,,,,,,,,,,,,,,,
46215,1480869450652,,,,,,,,-0.01,0.06,0.98,-3.0,-2.0,-0.6,1660,0,,,,,,,,,,,,,,,,,,,
46235,1480869450672,,,,,,,,-0.0,0.06,0.98,-3.0,-2.2,-0.5,1660,0,,,,,,,,,,,,,,,,,,,
46255,1480869450593,0,42.4,,38.2,62,43.6,,-0.01,0.06,0.98,-3.0,-2.2,-0.5,1680,0,1,1,0.0,0,38.159103,-122.454414,0.0,0.0,72.2,6,2,2.4,0,0.0,-1,0.0,0.0,0.0,0
46275,1480869450613,,,,,,,,-0.0,0.07,0.98,-3.0,-2.0,-0.5,1680,0,,,,,,,,,,,,,,,,,,,
46295,1480869450633,,,,,,,,-0.0,0.06,0.98,-3.0,-2.1,-0.5,1680,0,,,,,,,,,,,,,,,,,,,
46315,1480869450653,,,,,,,,-0.01,0.06,0.97,-3.0,-2.3,-0.5,1680,0,,,,,,,,,,,,,,,,,,,
46335,1480869450673,,,,,,,,-0.01,0.06,0.98,-3.0,-1.9,-0.5,1700,0,,,,,,,,,,,,,,,,,,,
46355,1480869450693,,,,,65,,,0.0,0.06,0.99,-3.0,-1.9,-0.6,1700,0,1,1,0.0,0,38.159103,-122.454414,0.0,0.0,72.2,6,2,2.4,0,0.0,-1,0.0,,0.0,0
46375,1480869450709,,,,,,,,-0.0,0.06,0.98,-3.0,-2.2,-0.5,1700,0,,,,,,,,,,,,,,,,,,,
46395,1480869450729,,,,,,,,-0.0,0.06,0.96,-3.0,-1.9,-0.5,1720,0,,,,,,,,,,,,,,,,,,,
46415,1480869450749,,,,,,,,0.0,0.07,0.96,-3.0,-2.0,-0.5,1720,0,,,,,,,,,,,,,,,,,,,
46435,1480869450769,,,,,,,,-0.0,0.06,0.97,-3.0,-2.2,-0.5,1720,0,,,,,,,,,,,,,,,,,,,
46455,1480869450793,0,39.4,,36.3,63,41.1,,-0.0,0.06,0.96,-3.0,-2.2,-0.5,1720,0,1,1,0.0,0,38.159103,-122.454414,0.0,0.0,72.2,6,2,2.4,0,0.0,-1,0.0,0.0,0.0,0
46475,1480869450813,,,,,,,,-0.0,0.06,0.96,-3.0,-1.8,-0.5,1720,0,,,,,,,,,,,,,,,,,,,
46495,1480869450833,,,,,,,,-0.0,0.06,0.98,-3.0,-2.0,-0.6,1720,0,,,,,,,,,,,,,,,,,,,
46515,1480869450853,,,,,,,,-0.01,0.05,0.98,-3.0,-2.1,-0.5,1720,0,,,,,,,,,,,,,,,,,,,
46535,1480869450873,,,,,,,,-0.01,0.06,0.98,-3.0,-1.9,-0.5,1740,0,,,,,,,,,,,,,,,,,,,
46555,1480869450893,,,,,62,,,-0.0,0.06,0.98,-3.0,-1.8,-0.5,1740,0,1,1,0.0,0,38.159103,-122.454414,0.0,0.0,72.2,6,2,2.4,0,0.0,-1,0.0,,0.0,0
46575,1480869450905,,,,,,,,-0.0,0.05,0.98,-3.0,-2.0,-0.5,1740,0,,,,,,,,,,,,,,,,,,,
46595,1480869450925,,,,,,,,-0.01,0.06,0.98,-3.0,-2.2,-0.6,1740,0,,,,,,,,,,,,,,,,,,,
46615,1480869450945,,,,,,,,-0.01,0.06,0.97,-3.0,-2.1,-0.5,1760,0,,,,,,,,,,,,,,,,,,,
46635,1480869450965,,,,,,,,-0.01,0.06,0.98,-3.0,-1.8,-0.6,1760,0,,,,,,,,,,,,,,,,,,,
46655,1480869450991,0,38.4,,38.2,63,38.9,,-0.01,0.07,0.99,-3.0,-2.0,-0.6,1760,0,1,1,0.0,0,38.159103,-122.454414,0.0,0.0,72.2,6,2,2.4,0,0.0,-1,0.0,0.0,0.0,0
46675,1480869451011,,,,,,,,-0.02,0.07,0.99,-3.0,-2.4,-0.6,1760,0,,,,,,,,,,,,,,,,,,,
46695,1480869451031,,,,,,,,-0.02,0.06,0.99,-3.0,-2.1,-0.6,1760,0,,,,,,,,,,,,,,,,,,,
46715,1480869451051,,,,,,,,-0.01,0.05,0.98,-3.0,-1.9,-0.6,1760,0,,,,,,,,,,,,,,,,,,,
46735,1480869451071,,,,,,,,-0.01,0.06,0.98,-3.0,-2.0,-0.6,1780,0,,,,,,,,,,,,,,,,,,,
46755,1480869451093,,,,,65,,,-0.01,0.05,0.99,-3.0,-2.2,-0.6,1780,0,1,1,0.0,0,38.159103,-122.454414,0.0,0.0,72.2,6,2,2.4,0,0.0,-1,0.0,,0.0,0
46775,1480869451113,,,,,,,,-0.01,0.05,0.98,-3.0,-2.3,-0.6,1780,0,,,,,,,,,,,,,,,,,,,
46795,1480869451133,,,,,,,,-0.01,0.04,0.97,-3.0,-2.1,-0.6,1780,0,,,,,,,,,,,,,,,,,,,
46815,1480869451153,,,,,,,,-0.01,0.04,0.96,-3.0,-1.7,-0.6,1800,0,,,,,,,,,,,,,,,,,,,
46835,1480869451173,,,,,,,,-0.0,0.04,0.96,-3.0,-1.9,-0.6,1800,0,,,,,,,,,,,,,,,,,,,
46855,1480869451292,0,42.6,,39.3,63,43.3,,-0.01,0.04,0.98,-3.0,-2.2,-0.7,1780,0,1,1,0.0,0,38.159103,-122.454414,0.0,0.0,72.2,6,2,2.4,0,0.0,-1,0.0,0.0,0.0,0
46875,1480869451312,,,,,,,,-0.02,0.04,0.97,-3.0,-2.1,-0.6,1800,0,,,,,,,,,,,,,,,,,,,
46895,1480869451332,,,,,,,,-0.02,0.04,0.97,-3.0,-1.7,-0.6,1800,0,,,,,,,,,,,,,,,,,,,
46915,1480869451352,,,,,,,,-0.01,0.04,0.95,-3.0,-1.6,-0.6,1800,0,,,,,,,,,,,,,,,,,,,
46935,1480869451372,,,,,,,,-0.01,0.04,0.96,-3.0,-1.7,-0.7,1820,0,,,,,,,,,,,,,,,,,,,
46955,1480869451392,,,,,63,,,-0.01,0.04,0.98,-3.0,-2.0,-0.7,1820,0,1,1,0.0,0,38.159103,-122.454414,0.0,0.0,72.2,6,2,2.4,0,0.0,-1,0.0,,0.0,0
46975,1480869451412,,,,,,,,-0.01,0.04,0.97,-3.0,-2.2,-0.7,1820,0,,,,,,,,,,,,,,,,,,,
46995,1480869451432,,,,,,,,-0.01,0.05,0.97,-3.0,-2.2,-0.7,1820,0,,,,,,,,,,,,,,,,,,,
47015,1480869451452,,,,,,,,-0.01,0.04,0.96,-3.0,-1.9,-0.6,1840,0,,,,,,,,,,,,,,,,,,,
47035,1480869451472,,,,,,,,-0.01,0.04,0.95,-3.0,-1.8,-0.6,1840,0,,,,,,,,,,,,,,,,,,,
47055,1480869451393,1,40.9,2.7,40.1,65,39.3,14.88,-0.0,0.05,0.95,-3.0,-2.1,-0.6,1840,0,1,1,0.0,0,38.159103,-122.454414,0.0,0.0,72.2,6,2,2.4,0,0.0,-1,0.0,0.0,0.0,0
47075,1480869451413,,,,,,,,-0.01,0.05,0.96,-3.0,-2.5,-0.6,1840,0,,,,,,,,,,,,,,,,,,,
47095,1480869451433,,,,,,,,-0.02,0.05,0.97,-3.0,-2.4,-0.6,1840,0,,,,,,,,,,,,,,,,,,,
47115,1480869451453,,,,,,,,-0.02,0.04,0.96,-3.0,-2.0,-0.6,1820,0,,,,,,,,,,,,,,,,,,,
47135,1480869451473,,,,,,,,-0.02,0.04,0.97,-3.0,-1.6,-0.6,1860,0,,,,,,,,,,,,,,,,,,,
47155,1480869451493,,,,,65,,,-0.01,0.05,0.98,-3.0,-1.6,-0.6,1860,0,1,1,0.0,0,38.159103,-122.454414,0.0,0.0,72.2,6,2,2.4,0,0.0,-1,0.0,,0.0,0
47175,1480869451513,,,,,,,,-0.01,0.05,0.97,-3.0,-1.8,-0.6,1860,0,,,,,,,,,,,,,,,,,,,
47195,1480869451533,,,,,,,,-0.02,0.04,0.98,-3.0,-1.9,-0.6,1860,0,,,,,,,,,,,,,,,,,,,
47215,1480869451553,,,,,,,,-0.02,0.04,0.99,-3.0,-2.1,-0.6,1860,0,,,,,,,,,,,,,,,,,,,
47235,1480869451573,,,,,,,,-0.02,0.04,0.99,-3.0,-2.2,-0.6,1880,0,,,,,,,,,,,,,,,,,,,
47255,1480869451593,0,38.9,,39.1,63,38.3,,-0.02,0.05,0.99,-3.0,-2.2,-0.7,1880,0,1,1,0.0,0,38.159103,-122.454414,0.0,0.0,72.2,6,2,2.4,0,0.0,-1,0.0,0.0,0.0,0
47275,1480869451613,,,,,,,,-0.02,0.05,1.0,-3.0,-2.0,-0.6,1880,0,,,,,,,,,,,,,,,,,,,
47295,1480869451633,,,,,,,,-0.01,0.05,0.99,-3.0,-1.7,-0.6,1880,0,,,,,,,,,,,,,,,,,,,
47315,1480869451653,,,,,,,,-0.01,0.06,1.0,-3.0,-1.6,-0.6,1880,0,,,,,,,,,,,,,,,,,,,
47335,1480869451673,,,,,,,,-0.0,0.05,0.99,-3.0,-1.6,-0.6,1900,0,,,,,,,,,,,,,,,,,,,
47355,1480869451693,,,,,64,,,-0.0,0.06,0.99,-3.0,-1.9,-0.6,1880,0,1,1,0.0,0,38.159103,-122.454414,0.0,0.0,72.2,6,2,2.4,0,0.0,-1,0.0,,0.0,0
47375,1480869451713,,,,,,,,-0.01,0.06,1.0,-3.0,-2.2,-0.6,1900,0,,,,,,,,,,,,,,,,,,,
47395,1480869451733,,,,,,,,-0.02,0.06,1.0,-3.0,-2.4,-0.6,1900,0,,,,,,,,,,,,,,,,,,,
47415,1480869451753,,,,,,,,-0.03,0.05,1.01,-3.0,-2.4,-0.6,1900,0,,,,,,,,,,,,,,,,,,,
47435,1480869451773,,,,,,,,-0.03,0.04,1.01,-3.0,-2.2,-0.6,1880,0,,,,,,,,,,,,,,,,,,,
47455,1480869451793,0,41.3,,40.4,66,40.1,,-0.03,0.05,0.99,-3.0,-2.1,-0.6,1900,0,1,1,0.0,0,38.159103,-122.454414,0.0,0.0,72.2,6,2,2.4,0,0.0,-1,0.0,0.0,0.0,0
47475,1480869451813,,,,,,,,-0.02,0.05,0.98,-3.0,-1.8,-0.6,1900,0,,,,,,,,,,,,,,,,,,,
47495,1480869451833,,,,,,,,-0.02,0.05,0.99,-3.0,-1.6,-0.6,1900,0,,,,,,,,,,,,,,,,,,,
47515,1480869451853,,,,,,,,-0.01,0.05,1.01,-3.0,-1.5,-0.6,1920,0,,,,,,,,,,,,,,,,,,,
47535,1480869451873,,,,,,,,-0.0,0.06,1.0,-3.0,-1.6,-0.6,1920,0,,,,,,,,,,,,,,,,,,,
47555,1480869451893,,,,,63,,,-0.0,0.06,0.98,-3.0,-1.9,-0.6,1900,0,1,1,0.0,0,38.159103,-122.454414,0.0,0.0,72.2,6,2,2.4,0,0.0,-1,0.0,,0.0,0
47575,1480869451904,,,,,,,,-0.01,0.05,0.97,-3.0,-2.1,-0.5,1920,0,,,,,,,,,,,,,,,,,,,
47595,1480869451924,,,,,,,,-0.01,0.05,0.98,-3.0,-2.2,-0.5,1920,0,,,,,,,,,,,,,,,,,,,
47615,1480869451944,,,,,,,,-0.02,0.04,1.01,-3.0,-2.1,-0.5,1920,0,,,,,,,,,,,,,,,,,,,
47635,1480869451964,,,,,,,,-0.02,0.05,1.02,-3.0,-2.1,-0.5,1940,0,,,,,,,,,,,,,,,,,,,
47655,1480869452093,1,43.0,,41.5,65,41.8,,-0.03,0.05,1.02,-3.0,-2.1,-0.5,1940,0,1,1,0.0,0,38.159103,-122.454414,0.0,0.0,72.2,6,2,2.4,0,0.0,-1,0.0,0.0,0.0,0
47675,1480869452113,,,,,,,,-0.03,0.05,1.02,-3.0,-2.1,-0.5,1940,0,,,,,,,,,,,,,,,,,,,
47695,1480869452133,,,,,,,,-0.03,0.05,1.02,-3.0,-2.0,-0.5,1960,0,,,,,,,,,,,,,,,,,,,
47715,1480869452153,,,,,,,,-0.03,0.05,1.02,-3.0,-2.0,-0.5,1960,0,,,,,,,,,,,,,,,,,,,
47735,1480869452173,,,,,,,,-0.04,0.06,1.02,-3.0,-2.0,-0.5,1960,0,,,,,,,,,,,,,,,,,,,
47755,1480869452193,,,,,62,,,-0.03,0.06,1.02,-3.1,-1.9,-0.5,1980,0,1,1,0.0,0,38.159103,-122.454414,0.0,0.0,72.2,6,2,2.4,0,0.0,-1,0.0,,0.0,0
47775,1480869452213,,,,,,,,-0.04,0.06,1.03,-3.1,-1.9,-0.5,1980,0,,,,,,,,,,,,,,,,,,,
47795,1480869452233,,,,,,,,-0.04,0.08,1.03,-3.1,-1.9,-0.5,1980,0,,,,,,,,,,,,,,,,,,,
47815,1480869452253,,,,,,,,-0.04,0.08,1.02,-3.0,-1.8,-0.5,2000,0,,,,,,,,,,,,,,,,,,,
47835,1480869452273,,,,,,,,-0.04,0.09,1.02,-3.1,-1.7,-0.5,2000,0,,,,,,,,,,,,,,,,,,,
47855,1480869452193,1,39.8,,36.6,63,40.8,,-0.03,0.1,1.02,-3.1,-1.7,-0.5,2000,0,1,1,0.0,0,38.159103,-122.454414,0.0,0.0,72.2,6,2,2.4,0,0.0,-1,0.0,0.0,0.0,0
47875,1480869452213,,,,,,,,-0.04,0.1,1.02,-3.1,-1.6,-0.5,2020,0,,,,,,,,,,,,,,,,,,,
47895,1480869452233,,,,,,,,-0.04,0.1,1.01,-3.1,-1.6,-0.5,2020,0,,,,,,,,,,,,,,,,,,,
47915,1480869452253,,,,,,,,-0.04,0.11,1.02,-3.1,-1.6,-0.5,2020,0,,,,,,,,,,,,,,,,,,,
47935,1480869452273,,,,,,,,-0.04,0.1,1.04,-3.1,-1.5,-0.5,2040,0,,,,,,,,,,,,,,,,,,,
47955,1480869452292,,,,,66,,,-0.05,0.08,1.04,-3.1,-1.5,-0.5,2040,0,1,1,0.0,0,38.159103,-122.454414,0.0,0.0,72.2,6,2,2.4,0,0.0,-1,0.0,,0.0,0
47975,1480869452312,,,,,,,,-0.05,0.06,1.05,-3.1,-1.5,-0.5,2040,0,,,,,,,,,,,,,,,,,,,
47995,1480869452332,,,,,,,,-0.05,0.06,1.04,-3.1,-1.6,-0.5,2060,0,,,,,,,,,,,,,,,,,,,
48015,1480869452352,,,,,,,,-0.05,0.06,1.04,-3.1,-1.8,-0.4,2060,0,,,,,,,,,,,,,,,,,,,
48035,1480869452372,,,,,,,,-0.05,0.07,1.03,-3.1,-2.0,-0.4,2060,0,,,,,,,,,,,,,,,,,,,
48055,1480869452392,0,41.5,2.3,37.7,64,42.3,14.94,-0.05,0.07,1.04,-3.1,-2.2,-0.5,2080,0,1,1,0.0,0,38.159103,-122.454414,0.0,0.0,72.2,6,2,2.4,0,0.0,-1,0.0,0.0,0.0,0
48075,1480869452412,,,,,,,,-0.05,0.07,1.04,-3.1,-2.3,-0.5,2080,0,,,,,,,,,,,,,,,,,,,
48095,1480869452432,,,,,,,,-0.05,0.06,1.04,-3.1,-2.3,-0.5,2080,0,,,,,,,,,,,,,,,,,,,
48115,1480869452452,,,,,,,,-0.04,0.07,1.03,-3.1,-2.2,-0.5,2100,0,,,,,,,,,,,,,,,,,,,
48135,1480869452472,,,,,,,,-0.03,0.06,1.02,-3.1,-2.1,-0.5,2100,0,,,,,,,,,,,,,,,,,,,
48155,1480869452492,,,,,66,,,-0.03,0.06,1.02,-3.1,-1.9,-0.5,2100,0,1,1,0.0,0,38.159103,-122.454414,0.0,0.0,72.2,6,2,2.4,0,0.0,-1,0.0,,0.0,0
48175,1480869452512,,,,,,,,-0.03,0.06,1.02,-3.1,-1.6,-0.5,2120,0,,,,,,,,,,,,,,,,,,,
48195,1480869452532,,,,,,,,-0.03,0.07,1.03,-3.1,-1.5,-0.5,2120,0,,,,,,,,,,,,,,,,,,,
48215,1480869452552,,,,,,,,-0.04,0.07,1.03,-3.1,-1.5,-0.5,2120,0,,,,,,,,,,,,,,,,,,,
48235,1480869452572,,,,,,,,-0.04,0.07,1.03,-3.0,-1.6,-0.5,2140,0,,,,,,,,,,,,,,,,,,,
48255,1480869452592,0,42.7,,39.2,64,43.5,,-0.05,0.05,1.05,-3.0,-1.7,-0.5,2140,0,1,1,0.0,0,38.159103,-122.454414,0.0,0.0,72.2,6,2,2.4,0,0.0,-1,0.0,0.0,0.0,0
48275,1480869452612,,,,,,,,-0.05,0.04,1.04,-3.0,-1.9,-0.6,2140,0,,,,,,,,,,,,,,,,,,,
48295,1480869452632,,,,,,,,-0.04,0.05,1.03,-3.0,-1.9,-0.6,2140,0,,,,,,,,,,,,,,,,,,,
48315,1480869452652,,,,,,,,-0.03,0.05,1.03,-3.0,-1.7,-0.6,2140,0,,,,,,,,,,,,,,,,,,,
48335,1480869452672,,,,,,,,-0.03,0.05,1.02,-3.0,-1.6,-0.5,2160,0,,,,,,,,,,,,,,,,,,,
48355,1480869452692,,,,,66,,,-0.04,0.05,1.01,-3.0,-1.7,-0.5,2160,0,1,1,0.0,0,38.159103,-122.454414,0.0,0.0,72.2,6,2,2.4,0,0.0,-1,0.0,,0.0,0
48375,1480869452712,,,,,,,,-0.04,0.04,1.01,-3.0,-1.9,-0.5,2160,0,,,,,,,,,,,,,,,,,,,
48395,1480869452732,,,,,,,,-0.04,0.05,1.01,-3.0,-2.0,-0.5,2160,0,,,,,,,,,,,,,,,,,,,
48415,1480869452752,,,,,,,,-0.03,0.05,1.0,-3.0,-2.1,-0.5,2180,0,,,,,,,,,,,,,,,,,,,
48435,1480869452772,,,,,,,,-0.03,0.05,1.0,-3.0,-2.0,-0.5,2180,0,,,,,,,,,,,,,,,,,,,
48455,1480869452891,0,42.4,,41.5,64,43.0,,-0.03,0.05,1.0,-3.1,-1.8,-0.5,2180,0,1,1,0.0,0,38.159103,-122.454414,0.0,0.0,72.2,6,2,2.4,0,0.0,-1,0.0,0.0,0.0,0
48475,1480869452911,,,,,,,,-0.03,0.07,1.0,-3.1,-1.8,-0.5,2180,0,,,,,,,,,,,,,,,,,,,
48495,1480869452931,,,,,,,,-0.03,0.06,1.01,-3.1,-2.0,-0.5,2180,0,,,,,,,,,,,,,,,,,,,
48515,1480869452951,,,,,,,,-0.02,0.06,1.0,-3.1,-2.2,-0.5,2180,0,,,,,,,,,,,,,,,,,,,
48535,1480869452971,,,,,,,,-0.02,0.06,1.01,-3.1,-2.1,-0.5,2180,0,,,,,,,,,,,,,,,,,,,
48555,1480869452991,,,,,66,,,-0.02,0.06,0.99,-3.0,-2.0,-0.4,2200,0,1,1,0.0,0,38.159103,-122.454414,0.0,0.0,72.2,6,2,2.4,0,0.0,-1,0.0,,0.0,0
48575,1480869453011,,,,,,,,-0.02,0.06,0.99,-3.0,-2.0,-0.4,2180,0,,,,,,,,,,,,,,,,,,,
48595,1480869453031,,,,,,,,-0.03,0.05,1.0,-3.1,-2.1,-0.4,2180,0,,,,,,,,,,,,,,,,,,,
48615,1480869453051,,,,,,,,-0.03,0.05,1.0,-3.1,-2.2,-0.4,2200,0,,,,,,,,,,,,,,,,,,,
48635,1480869453071,,,,,,,,-0.02,0.05,1.01,-3.1,-2.2,-0.4,2200,0,,,,,,,,,,,,,,,,,,,
48655,1480869452992,0,43.4,,40.2,65,42.7,,-0.02,0.05,1.01,-3.1,-2.1,-0.4,2200,0,1,1,0.0,0,38.159103,-122.454414,0.0,0.0,72.2,6,2,2.4,0,0.0,-1,0.0,0.0,0.0,0
48675,1480869453012,,,,,,,,-0.02,0.06,1.01,-3.1,-2.0,-0.5,2200,0,,,,,,,,,,,,,,,,,,,
48695,1480869453032,,,,,,,,-0.03,0.04,1.01,-3.1,-2.1,-0.5,2200,0,,,,,,,,,,,,,,,,,,,
48715,1480869453052,,,,,,,,-0.02,0.05,1.0,-3.0,-2.0,-0.5,2200,0,,,,,,,,,,,,,,,,,,,
48735,1480869453072,,,,,,,,-0.02,0.06,1.01,-3.1,-1.9,-0.5,2200,0,,,,,,,,,,,,,,,,,,,
48755,1480869453092,,,,,66,,,-0.02,0.07,1.02,-3.0,-1.7,-0.5,2200,0,1,1,0.0,0,38.159103,-122.454414,0.0,0.0,72.2,6,2,2.4,0,0.0,-1,0.0,,0.0,0
48775,1480869453112,,,,,,,,-0.02,0.06,1.03,-3.0,-1.8,-0.5,2220,0,,,,,,,,,,,,,,,,,,,
48795,1480869453132,,,,,,,,-0.02,0.06,1.02,-3.0,-1.9,-0.5,2200,0,,,,,,,,,,,,,,,,,,,
48815,1480869453152,,,,,,,,-0.02,0.06,1.01,-3.0,-1.9,-0.6,2220,0,,,,,,,,,,,,,,,,,,,
48835,1480869453172,,,,,,,,-0.02,0.06,1.01,-3.0,-1.8,-0.5,2220,0,,,,,,,,,,,,,,,,,,,
48855,1480869453192,0,38.2,,37.1,67,38.1,,-0.02,0.07,1.01,-3.0,-1.7,-0.5,2220,0,1,1,0.0,0,38.159103,-122.454414,0.0,0.0,72.2,6,2,2.4,0,0.0,-1,0.0,0.0,0.0,0
48875,1480869453212,,,,,,,,-0.02,0.06,1.01,-3.0,-1.8,-0.5,2220,0,,,,,,,,,,,,,,,,,,,
48895,1480869453232,,,,,,,,-0.02,0.05,1.01,-3.0,-1.9,-0.6,2220,0,,,,,,,,,,,,,,,,,,,
48915,1480869453252,,,,,,,,-0.01,0.05,1.01,-3.0,-1.9,-0.5,2220,0,,,,,,,,,,,,,,,,,,,
48935,1480869453272,,,,,,,,-0.01,0.05,0.98,-3.0,-1.8,-0.5,2220,0,,,,,,,,,,,,,,,,,,,
48955,1480869453292,,,,,64,,,-0.02,0.05,0.99,-3.0,-1.8,-0.5,2220,0,1,1,0.0,0,38.159103,-122.454414,0.0,0.0,72.2,6,2,2.4,0,0.0,-1,0.0,,0.0,0
48975,1480869453312,,,,,,,,-0.03,0.04,1.0,-3.0,-2.0,-0.5,2220,0,,,,,,,,,,,,,,,,,,,
48995,1480869453332,,,,,,,,-0.02,0.05,0.99,-3.0,-1.9,-0.5,2220,0,,,,,,,,,,,,,,,,,,,
49015,1480869453352,,,,,,,,-0.01,0.05,0.99,-3.0,-1.8,-0.5,2220,0,,,,,,,,,,,,,,,,,,,
49035,1480869453372,,,,,,,,-0.02,0.05,0.99,-3.0,-1.7,-0.5,2220,0,,,,,,,,,,,,,,,,,,,
49055,1480869453392,0,38.6,1.7,38.0,66,39.2,14.86,-0.02,0.05,1.01,-3.0,-1.7,-0.5,2220,0,1,1,0.0,0,38.159103,-122.454414,0.0,0.0,72.2,6,2,2.4,0,0.0,-1,0.0,0.0,0.0,0
49075,1480869453412,,,,,,,,-0.02,0.06,1.0,-3.0,-1.8,-0.6,2200,0,,,,,,,,,,,,,,,,,,,
49095,1480869453432,,,,,,,,-0.02,0.06,1.01,-3.0,-1.7,-0.5,2220,0,,,,,,,,,,,,,,,,,,,
49115,1480869453452,,,,,,,,-0.02,0.06,1.0,-3.0,-1.6,-0.5,2220,0,,,,,,,,,,,,,,,,,,,
49135,1480869453472,,,,,,,,-0.02,0.05,1.0,-3.0,-1.8,-0.5,2220,0,,,,,,,,,,,,,,,,,,,
49155,1480869453491,,,,,65,,,-0.02,0.05,1.0,-3.0,-1.8,-0.6,2220,0,1,1,0.0,0,38.159103,-122.454414,0.0,0.0,72.2,6,2,2.4,0,0.0,-1,0.0,,0.0,0
49175,1480869453511,,,,,,,,-0.02,0.05,0.99,-3.0,-1.8,-0.5,2220,0,,,,,,,,,,,,,,,,,,,
49195,1480869453531,,,,,,,,-0.01,0.05,0.99,-3.0,-1.7,-0.5,2220,0,,,,,,,,,,,,,,,,,,,
49215,1480869453551,,,,,,,,-0.02,0.05,0.99,-3.0,-1.8,-0.5,2220,0,,,,,,,,,,,,,,,,,,,
49235,1480869453571,,,,,,,,-0.02,0.04,0.99,-3.0,-2.0,-0.5,2220,0,,,,,,,,,,,,,,,,,,,
49255,1480869453591,0,43.8,,40.7,68,40.1,,-0.01,0.06,0.98,-3.0,-2.0,-0.5,2220,0,1,1,0.0,0,38.159103,-122.454414,0.0,0.0,72.2,6,2,2.4,0,0.0,-1,0.0,0.0,0.0,0
49275,1480869453710,,,,,,,,-0.01,0.07,0.99,-3.0,-1.9,-0.5,2220,0,,,,,,,,,,,,,,,,,,,
49295,1480869453730,,,,,,,,-0.01,0.07,1.0,-3.0,-1.9,-0.5,2220,0,,,,,,,,,,,,,,,,,,,
49315,1480869453750,,,,,,,,-0.01,0.07,1.01,-3.0,-2.0,-0.5,2220,0,,,,,,,,,,,,,,,,,,,
49335,1480869453770,,,,,,,,-0.01,0.06,0.99,-3.0,-2.1,-0.5,2240,0,,,,,,,,,,,,,,,,,,,
49355,1480869453790,,,,,65,,,-0.01,0.06,0.99,-3.0,-2.1,-0.5,2240,0,1,1,0.0,0,38.159103,-122.454414,0.0,0.0,72.2,6,2,2.4,0,0.0,-1,0.0,,0.0,0
49375,1480869453810,,,,,,,,-0.02,0.06,0.99,-3.1,-2.0,-0.5,2240,0,,,,,,,,,,,,,,,,,,,
49395,1480869453830,,,,,,,,-0.02,0.05,1.0,-3.0,-2.0,-0.5,2240,0,,,,,,,,,,,,,,,,,,,
49415,1480869453850,,,,,,,,-0.02,0.05,0.99,-3.0,-2.1,-0.5,2240,0,,,,,,,,,,,,,,,,,,,
49435,1480869453870,,,,,,,,-0.01,0.06,0.99,-3.1,-2.0,-0.6,2220,0,,,,,,,,,,,,,,,,,,,
49455,1480869453792,0,41.2,,36.4,67,39.8,,-0.02,0.06,1.0,-3.1,-1.8,-0.6,2220,0,1,1,0.0,0,38.159103,-122.454414,0.0,0.0,72.2,6,2,2.4,0,0.0,-1,0.0,0.0,0.0,0
49475,1480869453812,,,,,,,,-0.01,0.06,1.01,-3.1,-2.0,-0.5,2240,0,,,,,,,,,,,,,,,,,,,
49495,1480869453832,,,,,,,,-0.01,0.06,0.99,-3.1,-2.2,-0.6,2240,0,,,,,,,,,,,,,,,,,,,
49515,1480869453852,,,,,,,,-0.01,0.07,0.99,-3.1,-2.2,-0.6,2240,0,,,,,,,,,,,,,,,,,,,
49535,1480869453872,,,,,,,,-0.01,0.07,0.99,-3.1,-2.1,-0.6,2240,0,,,,,,,,,,,,,,,,,,,
49555,1480869453892,,,,,63,,,-0.01,0.06,1.01,-3.1,-2.0,-0.5,2240,0,1,1,0.0,0,38.159103,-122.454414,0.0,0.0,72.2,6,2,2.4,0,0.0,-1,0.0,,0.0,0
49575,1480869453903,,,,,,,,-0.02,0.06,0.99,-3.1,-2.1,-0.6,2240,0,,,,,,,,,,,,,,,,,,,
49595,1480869453923,,,,,,,,-0.01,0.07,0.99,-3.1,-2.0,-0.6,2240,0,,,,,,,,,,,,,,,,,,,
49615,1480869453943,,,,,,,,-0.02,0.07,1.0,-3.0,-1.8,-0.6,2220,0,,,,,,,,,,,,,,,,,,,
49635,1480869453963,,,,,,,,-0.02,0.07,1.01,-3.1,-1.9,-0.5,2240,0,,,,,,,,,,,,,,,,,,,
49655,1480869453992,1,43.1,,39.8,66,42.1,,-0.02,0.06,0.99,-3.1,-2.1,-0.6,2240,0,1,1,0.0,0,38.159103,-122.454414,0.0,0.0,72.2,6,2,2.4,0,0.0,-1,0.0,0.0,0.0,0
49675,1480869454012,,,,,,,,-0.02,0.07,1.0,-3.1,-2.1,-0.6,2240,0,,,,,,,,,,,,,,,,,,,
49695,1480869454032,,,,,,,,-0.02,0.07,0.99,-3.1,-2.0,-0.6,2260,0,,,,,,,,,,,,,,,,,,,
49715,1480869454052,,,,,,,,-0.02,0.06,1.01,-3.1,-1.9,-0.5,2240,0,,,,,,,,,,,,,,,,,,,
49735,1480869454072,,,,,,,,-0.02,0.06,0.99,-3.0,-2.0,-0.6,2240,0,,,,,,,,,,,,,,,,,,,
49755,1480869454092,,,,,67,,,-0.02,0.07,1.0,-3.1,-1.9,-0.7,2240,0,1,1,0.0,0,38.159103,-122.454414,0.0,0.0,72.2,6,2,2.4,0,0.0,-1,0.0,,0.0,0
49775,1480869454112,,,,,,,,-0.02,0.08,1.01,-3.0,-1.7,-0.7,2240,0,,,,,,,,,,,,,,,,,,,
49795,1480869454132,,,,,,,,-0.02,0.07,1.01,-3.1,-1.9,-0.6,2240,0,,,,,,,,,,,,,,,,,,,
49815,1480869454152,,,,,,,,-0.02,0.06,0.99,-3.1,-2.0,-0.6,2240,0,,,,,,,,,,,,,,,,,,,
49835,1480869454172,,,,,,,,-0.01,0.07,1.0,-3.1,-2.0,-0.6,2260,0,,,,,,,,,,,,,,,,,,,
49855,1480869454192,0,43.4,,40.4,66,42.4,,-0.02,0.07,0.99,-3.1,-2.0,-0.6,2260,0,1,1,0.0,0,38.159103,-122.454414,0.0,0.0,72.2,6,2,2.4,0,0.0,-1,0.0,0.0,0.0,0
49875,1480869454212,,,,,,,,-0.02,0.06,0.99,-3.1,-2.0,-0.5,2260,0,,,,,,,,,,,,,,,,,,,
49895,1480869454232,,,,,,,,-0.01,0.06,0.98,-3.0,-2.0,-0.6,2260,0,,,,,,,,,,,,,,,,,,,
49915,1480869454252,,,,,,,,-0.01,0.08,0.99,-3.1,-1.9,-0.6,2260,0,,,,,,,,,,,,,,,,,,,
49935,1480869454272,,,,,,,,-0.01,0.07,1.0,-3.1,-1.8,-0.6,2240,0,,,,,,,,,,,,,,,,,,,
49955,1480869454292,,,,,64,,,-0.01,0.08,1.01,-3.1,-2.0,-0.6,2260,0,1,1,0.0,0,38.159103,-122.454414,0.0,0.0,72.2,6,2,2.4,0,0.0,-1,0.0,,0.0,0
49975,1480869454312,,,,,,,,-0.02,0.07,1.0,-3.1,-2.0,-0.6,2260,0,,,,,,,,,,,,,,,,,,,
49995,1480869454332,,,,,,,,-0.01,0.07,1.0,-3.1,-1.9,-0.6,2260,0,,,,,,,,,,,,,,,,,,,
50015,1480869454352,,,,,,,,-0.02,0.07,1.0,-3.1,-1.9,-0.5,2260,0,,,,,,,,,,,,,,,,,,,
50035,1480869454372,,,,,,,,-0.01,0.07,0.99,-3.0,-2.1,-0.5,2240,0,,,,,,,,,,,,,,,,,,,
50055,1480869454491,0,38.6,1.7,38.0,62,39.2,14.94,-0.01,0.08,0.99,-3.0,-2.0,-0.5,2260,0,1,1,0.0,0,38.159103,-122.454414,0.0,0.0,72.2,6,2,2.4,0,0.0,-1,0.0,0.0,0.0,0
50075,1480869454511,,,,,,,,-0.01,0.07,0.99,-3.0,-1.9,-0.5,2260,0,,,,,,,,,,,,,,,,,,,
50095,1480869454531,,,,,,,,-0.01,0.06,1.0,-3.1,-1.9,-0.5,2260,0,,,,,,,,,,,,,,,,,,,
50115,1480869454551,,,,,,,,-0.02,0.06,0.99,-3.0,-2.0,-0.5,2260,0,,,,,,,,,,,,,,,,,,,
50135,1480869454571,,,,,,,,-0.01,0.05,0.99,-3.0,-1.9,-0.5,2260,0,,,,,,,,,,,,,,,,,,,
50155,1480869454591,,,,,64,,,-0.02,0.05,0.99,-3.0,-1.8,-0.5,2280,0,1,1,0.0,0,38.159103,-122.454414,0.0,0.0,72.2,6,2,2.4,0,0.0,-1,0.0,,0.0,0
50175,1480869454611,,,,,,,,-0.02,0.04,1.0,-3.0,-1.8,-0.6,2280,0,,,,,,,,,,,,,,,,,,,
50195,1480869454631,,,,,,,,-0.02,0.04,1.01,-3.0,-1.9,-0.6,2260,0,,,,,,,,,,,,,,,,,,,
50215,1480869454651,,,,,,,,-0.01,0.05,0.99,-3.0,-1.8,-0.6,2280,0,,,,,,,,,,,,,,,,,,,
50235,1480869454671,,,,,,,,-0.02,0.05,0.99,-3.0,-1.8,-0.6,2260,0,,,,,,,,,,,,,,,,,,,
50255,1480869454592,1,41.7,,37.7,64,40.9,,-0.02,0.04,1.0,-3.0,-1.8,-0.6,2280,0,1,1,0.0,0,38.159103,-122.454414,0.0,0.0,72.2,6,2,2.4,0,0.0,-1,0.0,0.0,0.0,0
50275,1480869454612,,,,,,,,-0.02,0.04,1.01,-3.0,-1.8,-0.6,2280,0,,,,,,,,,,,,,,,,,,,
50295,1480869454632,,,,,,,,-0.02,0.06,1.0,-3.0,-1.7,-0.5,2280,0,,,,,,,,,,,,,,,,,,,
50315,1480869454652,,,,,,,,-0.01,0.05,1.01,-3.0,-1.8,-0.5,2280,0,,,,,,,,,,,,,,,,,,,
50335,1480869454672,,,,,,,,-0.02,0.05,1.0,-3.0,-1.8,-0.6,2280,0,,,,,,,,,,,,,,,,,,,
50355,1480869454692,,,,,64,,,-0.02,0.06,1.01,-3.0,-1.7,-0.5,2280,0,1,1,0.0,0,38.159103,-122.454414,0.0,0.0,72.2,6,2,2.4,0,0.0,-1,0.0,,0.0,0
50375,1480869454712,,,,,,,,-0.02,0.06,1.01,-3.0,-1.7,-0.5,2280,0,,,,,,,,,,,,,,,,,,,
50395,1480869454732,,,,,,,,-0.02,0.05,0.99,-3.0,-1.9,-0.5,2280,0,,,,,,,,,,,,,,,,,,,
50415,1480869454752,,,,,,,,-0.02,0.06,0.99,-3.0,-1.9,-0.6,2300,0,,,,,,,,,,,,,,,,,,,
50435,1480869454772,,,,,,,,-0.02,0.06,0.99,-3.0,-1.9,-0.5,2300,0,,,,,,,,,,,,,,,,,,,
50455,1480869454792,1,41.1,,36.6,64,39.5,,-0.02,0.06,0.97,-3.0,-2.0,-0.5,2280,0,1,1,0.0,0,38.159103,-122.454414,0.0,0.0,72.2,6,2,2.4,0,0.0,-1,0.0,0.0,0.0,0
50475,1480869454812,,,,,,,,-0.01,0.06,0.98,-3.0,-1.9,-0.6,2300,0,,,,,,,,,,,,,,,,,,,
50495,1480869454832,,,,,,,,-0.02,0.05,0.98,-3.0,-1.8,-0.6,2300,0,,,,,,,,,,,,,,,,,,,
50515,1480869454852,,,,,,,,-0.02,0.05,1.0,-3.0,-1.8,-0.5,2280,0,,,,,,,,,,,,,,,,,,,
50535,1480869454872,,,,,,,,-0.02,0.04,0.99,-3.0,-1.9,-0.6,2300,0,,,,,,,,,,,,,,,,,,,
50555,1480869454892,,,,,66,,,-0.01,0.05,0.97,-3.0,-1.9,-0.5,2300,0,1,1,0.0,0,38.159103,-122.454414,0.0,0.0,72.2,6,2,2.4,0,0.0,-1,0.0,,0.0,0
50575,1480869454904,,,,,,,,-0.01,0.06,0.97,-3.0,-2.0,-0.5,2320,0,,,,,,,,,,,,,,,,,,,
50595,1480869454924,,,,,,,,-0.01,0.05,0.97,-3.0,-2.0,-0.6,2300,0,,,,,,,,,,,,,,,,,,,
50615,1480869454944,,,,,,,,-0.01,0.07,0.99,-3.0,-1.9,-0.5,2300,0,,,,,,,,,,,,,,,,,,,
50635,1480869454964,,,,,,,,-0.01,0.06,0.98,-3.0,-1.9,-0.5,2320,0,,,,,,,,,,,,,,,,,,,
50655,1480869454992,0,42.8,,39.5,66,41.8,,-0.01,0.06,0.97,-3.0,-2.1,-0.5,2320,0,1,1,0.0,0,38.159103,-122.454414,0.0,0.0,72.2,6,2,2.4,0,0.0,-1,0.0,0.0,0.0,0
50675,1480869455012,,,,,,,,-0.01,0.06,0.97,-3.0,-2.1,-0.5,2320,0,,,,,,,,,,,,,,,,,,,
50695,1480869455032,,,,,,,,-0.02,0.07,0.98,-3.0,-2.1,-0.5,2340,0,,,,,,,,,,,,,,,,,,,
50715,1480869455052,,,,,,,,-0.02,0.07,0.96,-3.0,-2.1,-0.5,2320,0,,,,,,,,,,,,,,,,,,,
50735,1480869455072,,,,,,,,-0.01,0.07,0.96,-3.0,-2.1,-0.5,2320,0,,,,,,,,,,,,,,,,,,,
50755,1480869455092,,,,,63,,,-0.02,0.06,0.96,-3.0,-2.0,-0.5,2320,0,1,1,0.0,0,38.159103,-122.454414,0.0,0.0,72.2,6,2,2.4,0,0.0,-1,0.0,,0.0,0
50775,1480869455112,,,,,,,,-0.03,0.06,0.97,-3.0,-2.1,-0.5,2340,0,,,,,,,,,,,,,,,,,,,
50795,1480869455132,,,,,,,,-0.02,0.05,0.98,-3.0,-1.9,-0.5,2340,0,,,,,,,,,,,,,,,,,,,
50815,1480869455152,,,,,,,,-0.02,0.06,0.99,-3.0,-1.8,-0.5,2340,0,,,,,,,,,,,,,,,,,,,
50835,1480869455172,,,,,,,,-0.02,0.06,0.98,-3.0,-1.8,-0.5,2340,0,,,,,,,,,,,,,,,,,,,
50855,1480869455291,0,42.2,,38.7,66,38.0,,-0.02,0.08,0.98,-3.0,-1.8,-0.5,2320,0,1,1,0.0,0,38.159103,-122.454414,0.0,0.0,72.2,6,2,2.4,0,0.0,-1,0.0,0.0,0.0,0
50875,1480869455311,,,,,,,,-0.02,0.07,0.98,-3.1,-1.8,-0.5,2320,0,,,,,,,,,,,,,,,,,,,
50895,1480869455331,,,,,,,,-0.02,0.07,0.98,-3.1,-1.8,-0.5,2340,0,,,,,,,,,,,,,,,,,,,
50915,1480869455351,,,,,,,,-0.01,0.07,0.97,-3.1,-1.8,-0.5,2340,0,,,,,,,,,,,,,,,,,,,
50935,1480869455371,,,,,,,,-0.02,0.07,0.97,-3.1,-1.9,-0.5,2340,0,,,,,,,,,,,,,,,,,,,
50955,1480869455391,,,,,67,,,-0.02,0.05,0.97,-3.1,-1.9,-0.6,2340,0,1,1,0.0,0,38.159103,-122.454414,0.0,0.0,72.2,6,2,2.4,0,0.0,-1,0.0,,0.0,0
50975,1480869455411,,,,,,,,-0.03,0.06,0.98,-3.0,-1.8,-0.6,2340,0,,,,,,,,,,,,,,,,,,,
50995,1480869455431,,,,,,,,-0.02,0.06,0.97,-3.1,-1.9,-0.5,2360,0,,,,,,,,,,,,,,,,,,,
51015,1480869455451,,,,,,,,-0.02,0.05,0.98,-3.1,-1.8,-0.6,2340,0,,,,,,,,,,,,,,,,,,,
51035,1480869455471,,,,,,,,-0.02,0.06,0.99,-3.1,-1.8,-0.5,2360,0,,,,,,,,,,,,,,,,,,,
51055,1480869455392,1,42.3,2.4,41.5,66,42.1,14.92,-0.02,0.05,1.0,-3.0,-1.9,-0.5,2340,0,1,1,0.0,0,38.159103,-122.454414,0.0,0.0,72.2,6,2,2.4,0,0.0,-1,0.0,0.0,0.0,0
51075,1480869455412,,,,,,,,-0.02,0.04,0.99,-3.1,-1.9,-0.5,2360,0,,,,,,,,,,,,,,,,,,,
