"Interval"|"ms"|0|0|1,"Utc"|"ms"|0|0|1,"FuelLevel"|"F"|0|100|5,"OilTemp"|"F"|0.0|300.0|5,"CoolantPressPSI"|"PSI"|0.0|20.0|1,"Coolant"|"F"|0.0|300.0|5,"OilPress"|"PSI"|0|150|10,"EngineTemp"|"F"|0.0|300.0|5,"Battery"|"Volts"|0.0|20.0|1,"AccelX"|"G"|-3.0|3.0|50,"AccelY"|"G"|-3.0|3.0|50,"AccelZ"|"G"|-3.0|3.0|50,"Yaw"|"Deg/Sec"|-300.0|300.0|50,"Pitch"|"Deg/Sec"|-300.0|300.0|50,"Roll"|"Deg/Sec"|-300.0|300.0|50,"RPM"|""|0|10000|50,"Driveshaft"|"RPM"|0|5000|50,"GPIO1"|""|0|1|10,"GPIO2"|""|0|1|10,"GearRatio"|""|-5.0|5.0|10,"Gear"|""|-1|5|10,"Latitude"|"Degrees"|-180.0|180.0|10,"Longitude"|"Degrees"|-180.0|180.0|10,"Speed"|"MPH"|0.0|150.0|10,"Distance"|"Miles"|0.0|0.0|10,"Altitude"|"Feet"|0.0|4000.0|10,"GPSSats"|""|0|20|10,"GPSQual"|""|0|5|10,"GPSDOP"|""|0.0|20.0|10,"LapCount"|""|0|0|10,"LapTime"|"Min"|0.0|0.0|10,"Sector"|""|0|0|10,"SectorTime"|"Min"|0.0|0.0|10,"PredTime"|"Min"|0.0|0.0|5,"ElapsedTime"|"Min"|0.0|0.0|10,"CurrentLap"|""|0|0|10
,,,,,,,,,,,,,,,,,,,,,,,,,,,,,,,,,,,
613293,1480811436867,,,,,,,,0.01,0.06,1.0,-3.0,-0.0,-0.2,660,0,,,,,,,,,,,,,,,,,,,
613313,1480811436887,,,,,,,,0.01,0.07,1.0,-3.1,0.2,0.0,680,0,,,,,,,,,,,,,,,,,,,
613333,1480811436808,,,,,,,,0.02,0.07,0.99,-3.1,-0.0,-0.0,740,0,,,,,,,,,,,,,,,,,,,
613353,1480811436828,,,,,0,,,0.02,0.05,0.99,-3.0,-0.1,-0.3,840,0,1,0,0.0,0,38.159229,-122.454391,0.0,0.002,42.4,10,3,1.5,0,0.0,-1,0.0,,0.0,0
613373,1480811436848,,,,,,,,0.02,0.03,0.99,-2.9,0.1,-0.5,840,0,,,,,,,,,,,,,,,,,,,
613393,1480811436868,,,,,,,,0.01,0.03,0.99,-3.0,0.0,-0.5,880,0,,,,,,,,,,,,,,,,,,,
613413,1480811436888,,,,,,,,0.01,0.03,1.01,-3.0,0.2,-0.5,900,0,,,,,,,,,,,,,,,,,,,
613433,1480811436900,,,,,,,,0.02,0.04,1.0,-3.0,0.3,-0.4,900,0,,,,,,,,,,,,,,,,,,,
613453,1480811436920,0,127.7,,150.7,1,139.3,,0.02,0.06,1.0,-3.0,0.0,-0.1,860,0,1,0,0.0,0,38.159229,-122.454391,0.0,0.002,42.4,10,3,1.5,0,0.0,-1,0.0,0.0,0.0,0
613473,1480811436940,,,,,,,,0.02,0.06,1.01,-3.1,-0.0,-0.0,840,0,,,,,,,,,,,,,,,,,,,
613493,1480811436960,,,,,,,,0.02,0.06,1.0,-3.0,-0.1,-0.1,880,0,,,,,,,,,,,,,,,,,,,
613513,1480811436980,,,,,,,,0.02,0.06,1.0,-3.0,0.0,-0.2,880,0,,,,,,,,,,,,,,,,,,,
613533,1480811437006,,,,,,,,0.02,0.06,0.99,-3.0,0.0,-0.3,880,0,,,,,,,,,,,,,,,,,,,
613553,1480811437026,,,,,2,,,0.02,0.06,0.99,-3.0,-0.0,-0.3,820,0,1,0,0.0,0,38.159229,-122.454391,0.0,0.002,42.4,10,3,1.5,0,0.0,-1,0.0,,0.0,0
613573,1480811437046,,,,,,,,0.02,0.06,0.99,-3.0,-0.0,-0.2,800,0,,,,,,,,,,,,,,,,,,,
613593,1480811437066,,,,,,,,0.02,0.06,0.99,-3.0,-0.0,-0.1,760,0,,,,,,,,,,,,,,,,,,,
613613,1480811437086,,,,,,,,0.02,0.05,1.0,-3.0,-0.1,-0.1,720,0,,,,,,,,,,,,,,,,,,,
613633,1480811437108,,,,,,,,0.02,0.05,0.99,-3.0,0.0,-0.1,720,0,,,,,,,,,,,,,,,,,,,
613653,1480811437128,0,128.5,,152.0,3,140.0,,0.02,0.06,0.99,-3.1,0.0,-0.0,740,0,1,0,0.0,0,38.159229,-122.454391,0.0,0.002,42.4,10,3,1.5,0,0.0,-1,0.0,0.0,0.0,0
613673,1480811437148,,,,,,,,0.02,0.06,1.0,-3.1,-0.0,-0.1,740,0,,,,,,,,,,,,,,,,,,,
613693,1480811437168,,,,,,,,0.02,0.06,1.0,-3.1,-0.0,-0.2,740,0,,,,,,,,,,,,,,,,,,,
613713,1480811437188,,,,,,,,0.02,0.06,1.0,-3.1,-0.0,-0.1,700,0,,,,,,,,,,,,,,,,,,,
613733,1480811437207,,,,,,,,0.03,0.06,1.0,-3.1,0.0,-0.0,700,0,,,,,,,,,,,,,,,,,,,
613753,1480811437227,,,,,4,,,0.02,0.06,0.99,-3.1,-0.1,-0.0,660,0,1,1,0.0,0,38.159229,-122.454391,0.0,0.002,42.4,10,3,1.5,0,0.0,-1,0.0,,0.0,0
613773,1480811437247,,,,,,,,0.02,0.06,0.99,-3.1,-0.1,-0.1,660,0,,,,,,,,,,,,,,,,,,,
613793,1480811437267,,,,,,,,0.02,0.06,0.99,-3.1,0.0,-0.0,660,0,,,,,,,,,,,,,,,,,,,
613813,1480811437287,,,,,,,,0.02,0.06,0.99,-3.1,-0.1,-0.1,640,0,,,,,,,,,,,,,,,,,,,
613833,1480811437307,,,,,,,,0.02,0.05,0.99,-3.1,-0.1,-0.1,640,0,,,,,,,,,,,,,,,,,,,
613853,1480811437327,0,128.3,,151.8,5,139.5,,0.02,0.06,0.99,-3.1,-0.0,-0.0,620,0,1,1,0.0,0,38.159229,-122.454391,0.0,0.002,42.4,10,3,1.5,0,0.0,-1,0.0,0.0,0.0,0
613873,1480811437347,,,,,,,,0.02,0.06,0.99,-3.1,-0.1,-0.1,620,0,,,,,,,,,,,,,,,,,,,
613893,1480811437367,,,,,,,,0.02,0.05,0.99,-3.1,-0.0,-0.1,600,0,,,,,,,,,,,,,,,,,,,
613913,1480811437387,,,,,,,,0.02,0.05,0.99,-3.1,-0.1,-0.1,600,0,,,,,,,,,,,,,,,,,,,
613933,1480811437506,,,,,,,,0.02,0.05,0.99,-3.1,-0.1,-0.2,600,0,,,,,,,,,,,,,,,,,,,
613953,1480811437526,,,,,5,,,0.01,0.06,0.99,-3.1,-0.1,-0.2,560,0,1,0,0.0,0,38.159229,-122.454391,0.0,0.002,42.4,10,3,1.5,0,0.0,-1,0.0,,0.0,0
613973,1480811437546,,,,,,,,0.02,0.06,0.99,-3.1,-0.2,-0.1,560,0,,,,,,,,,,,,,,,,,,,
613993,1480811437566,,,,,,,,0.02,0.06,0.99,-3.1,-0.2,-0.1,540,0,,,,,,,,,,,,,,,,,,,
614013,1480811437586,,,,,,,,0.02,0.05,0.99,-3.1,-0.1,-0.1,540,0,,,,,,,,,,,,,,,,,,,
614033,1480811437606,,,,,,,,0.02,0.05,0.99,-3.1,-0.1,-0.1,520,0,,,,,,,,,,,,,,,,,,,
614053,1480811437626,0,128.3,0.0,152.0,4,140.9,12.78,0.02,0.06,0.99,-3.1,-0.1,-0.2,520,0,1,0,0.0,0,38.159229,-122.454391,0.0,0.002,42.4,10,3,1.5,0,0.0,-1,0.0,0.0,0.0,0
614073,1480811437646,,,,,,,,0.02,0.06,0.99,-3.1,-0.1,-0.1,500,0,,,,,,,,,,,,,,,,,,,
614093,1480811437666,,,,,,,,0.02,0.05,1.0,-3.1,-0.1,-0.1,500,0,,,,,,,,,,,,,,,,,,,
614113,1480811437686,,,,,,,,0.02,0.06,1.0,-3.1,-0.1,-0.1,480,0,,,,,,,,,,,,,,,,,,,
614133,1480811437607,,,,,,,,0.02,0.06,0.99,-3.1,-0.1,-0.1,480,0,,,,,,,,,,,,,,,,,,,
614153,1480811437627,,,,,4,,,0.02,0.05,1.0,-3.1,-0.1,-0.1,480,0,1,0,0.0,0,38.159229,-122.454391,0.0,0.002,42.4,10,3,1.5,0,0.0,-1,0.0,,0.0,0
614173,1480811437647,,,,,,,,0.02,0.06,0.99,-3.1,-0.1,-0.2,480,0,,,,,,,,,,,,,,,,,,,
614193,1480811437667,,,,,,,,0.02,0.06,0.99,-3.1,-0.1,-0.1,460,0,,,,,,,,,,,,,,,,,,,
614213,1480811437687,,,,,,,,0.02,0.06,1.0,-3.1,-0.1,-0.1,460,0,,,,,,,,,,,,,,,,,,,
614233,1480811437707,,,,,,,,0.02,0.06,1.0,-3.1,-0.1,-0.1,440,0,,,,,,,,,,,,,,,,,,,
614253,1480811437727,0,127.2,,151.6,5,140.6,,0.02,0.06,1.0,-3.1,-0.1,-0.1,440,0,1,1,0.0,0,38.159229,-122.454391,0.0,0.002,42.4,10,3,1.5,0,0.0,-1,0.0,0.0,0.0,0
614273,1480811437747,,,,,,,,0.02,0.06,1.0,-3.1,-0.1,-0.1,400,0,,,,,,,,,,,,,,,,,,,
614293,1480811437767,,,,,,,,0.02,0.06,1.0,-3.1,-0.1,-0.1,400,0,,,,,,,,,,,,,,,,,,,
614313,1480811437787,,,,,,,,0.02,0.05,0.99,-3.1,-0.1,-0.1,400,0,,,,,,,,,,,,,,,,,,,
614333,1480811437807,,,,,,,,0.02,0.06,0.99,-3.1,-0.2,-0.2,380,0,,,,,,,,,,,,,,,,,,,
614353,1480811437827,,,,,5,,,0.02,0.05,0.99,-3.0,-0.1,-0.2,380,0,1,0,0.0,0,38.159229,-122.454391,0.0,0.002,42.4,10,3,1.5,0,0.0,-1,0.0,,0.0,0
614373,1480811437847,,,,,,,,0.02,0.06,0.99,-3.1,-0.1,-0.2,380,0,,,,,,,,,,,,,,,,,,,
614393,1480811437867,,,,,,,,0.02,0.05,1.0,-3.1,-0.1,-0.2,380,0,,,,,,,,,,,,,,,,,,,
614413,1480811437887,,,,,,,,0.02,0.05,0.99,-3.1,-0.1,-0.2,380,0,,,,,,,,,,,,,,,,,,,
614433,1480811437899,,,,,,,,0.02,0.05,0.99,-3.1,-0.2,-0.2,380,0,,,,,,,,,,,,,,,,,,,
614453,1480811437919,0,127.0,,150.7,5,140.0,,0.02,0.05,0.99,-3.1,-0.2,-0.2,380,0,1,0,0.0,0,38.159229,-122.454391,0.0,0.002,42.4,10,3,1.5,0,0.0,-1,0.0,0.0,0.0,0
614473,1480811437939,,,,,,,,0.02,0.05,0.99,-3.1,-0.1,-0.2,380,0,,,,,,,,,,,,,,,,,,,
614493,1480811437959,,,,,,,,0.02,0.05,0.99,-3.1,-0.1,-0.2,380,0,,,,,,,,,,,,,,,,,,,
614513,1480811437979,,,,,,,,0.02,0.05,0.99,-3.0,-0.1,-0.2,380,0,,,,,,,,,,,,,,,,,,,
614533,1480811438007,,,,,,,,0.02,0.05,0.99,-3.0,-0.1,-0.3,360,0,,,,,,,,,,,,,,,,,,,
614553,1480811438027,,,,,6,,,0.02,0.04,0.99,-3.1,-0.1,-0.3,360,0,1,0,0.0,0,38.159229,-122.454391,0.0,0.002,42.4,10,3,1.5,0,0.0,-1,0.0,,0.0,0
614573,1480811438047,,,,,,,,0.02,0.05,0.99,-3.1,-0.1,-0.2,360,0,,,,,,,,,,,,,,,,,,,
614593,1480811438067,,,,,,,,0.02,0.05,1.0,-3.1,-0.0,-0.2,340,0,,,,,,,,,,,,,,,,,,,
614613,1480811438087,,,,,,,,0.02,0.05,1.0,-3.1,-0.0,-0.2,340,0,,,,,,,,,,,,,,,,,,,
614633,1480811438107,,,,,,,,0.02,0.05,1.0,-3.0,-0.1,-0.2,340,0,,,,,,,,,,,,,,,,,,,
614653,1480811438127,0,128.2,,152.0,6,140.8,,0.02,0.05,0.99,-3.0,-0.1,-0.2,340,0,1,1,0.0,0,38.159229,-122.454391,0.0,0.002,42.4,10,3,1.5,0,0.0,-1,0.0,0.0,0.0,0
614673,1480811438147,,,,,,,,0.02,0.05,0.99,-3.0,-0.1,-0.2,340,0,,,,,,,,,,,,,,,,,,,
614693,1480811438167,,,,,,,,0.01,0.04,0.99,-3.0,-0.1,-0.2,340,0,,,,,,,,,,,,,,,,,,,
614713,1480811438187,,,,,,,,0.01,0.05,0.99,-3.0,-0.1,-0.2,340,0,,,,,,,,,,,,,,,,,,,
614733,1480811438306,,,,,,,,0.01,0.04,0.99,-3.0,-0.1,-0.2,340,0,,,,,,,,,,,,,,,,,,,
614753,1480811438326,,,,,7,,,0.01,0.04,0.99,-3.0,-0.1,-0.2,340,0,1,0,0.0,0,38.159229,-122.454391,0.0,0.002,42.4,10,3,1.5,0,0.0,-1,0.0,,0.0,0
614773,1480811438346,,,,,,,,0.01,0.04,0.99,-3.0,-0.1,-0.2,340,0,,,,,,,,,,,,,,,,,,,
614793,1480811438366,,,,,,,,0.01,0.04,0.99,-3.0,-0.0,-0.2,340,0,,,,,,,,,,,,,,,,,,,
614813,1480811438386,,,,,,,,0.01,0.04,0.99,-3.0,-0.1,-0.2,340,0,,,,,,,,,,,,,,,,,,,
614833,1480811438406,,,,,,,,0.02,0.05,0.99,-3.0,-0.1,-0.2,340,0,,,,,,,,,,,,,,,,,,,
614853,1480811438426,0,127.3,,151.7,7,140.7,,0.02,0.05,0.99,-3.0,-0.1,-0.2,340,0,1,0,0.0,0,38.159229,-122.454391,0.0,0.002,42.4,10,3,1.5,0,0.0,-1,0.0,0.0,0.0,0
614873,1480811438446,,,,,,,,0.02,0.05,0.99,-3.0,-0.1,-0.2,340,0,,,,,,,,,,,,,,,,,,,
614893,1480811438466,,,,,,,,0.02,0.05,0.99,-3.0,-0.1,-0.2,340,0,,,,,,,,,,,,,,,,,,,
614913,1480811438486,,,,,,,,0.02,0.05,0.99,-3.0,-0.1,-0.2,340,0,,,,,,,,,,,,,,,,,,,
614933,1480811438406,,,,,,,,0.02,0.05,0.99,-3.0,-0.1,-0.3,340,0,,,,,,,,,,,,,,,,,,,
614953,1480811438426,,,,,8,,,0.01,0.05,0.99,-3.0,-0.1,-0.3,340,0,1,0,0.0,0,38.159229,-122.454391,0.0,0.002,42.4,10,3,1.5,0,0.0,-1,0.0,,0.0,0
614973,1480811438446,,,,,,,,0.01,0.05,0.99,-3.0,-0.1,-0.2,340,0,,,,,,,,,,,,,,,,,,,
614993,1480811438466,,,,,,,,0.01,0.05,0.99,-3.0,-0.2,-0.2,320,0,,,,,,,,,,,,,,,,,,,
615013,1480811438486,,,,,,,,0.01,0.05,0.99,-3.0,-0.1,-0.2,320,0,,,,,,,,,,,,,,,,,,,
615033,1480811438507,,,,,,,,0.02,0.05,0.98,-3.0,-0.1,-0.3,320,0,,,,,,,,,,,,,,,,,,,
615053,1480811438527,0,127.0,0.0,151.8,8,140.8,12.4,0.02,0.05,0.98,-3.0,-0.2,-0.3,340,0,1,0,0.0,0,38.159229,-122.454391,0.0,0.002,42.4,10,3,1.5,0,0.0,-1,0.0,0.0,0.0,0
615073,1480811438547,,,,,,,,0.01,0.05,0.99,-3.0,-0.1,-0.2,340,0,,,,,,,,,,,,,,,,,,,
615093,1480811438567,,,,,,,,0.01,0.05,0.98,-3.0,-0.1,-0.2,340,0,,,,,,,,,,,,,,,,,,,
615113,1480811438587,,,,,,,,0.01,0.05,0.98,-3.0,-0.1,-0.2,340,0,,,,,,,,,,,,,,,,,,,
615133,1480811438606,,,,,,,,0.02,0.05,0.99,-3.1,-0.1,-0.2,340,0,,,,,,,,,,,,,,,,,,,
615153,1480811438626,,,,,9,,,0.01,0.05,0.98,-3.1,-0.1,-0.2,340,0,1,0,0.0,0,38.159229,-122.454391,0.0,0.002,42.4,10,3,1.5,0,0.0,-1,0.0,,0.0,0
615173,1480811438646,,,,,,,,0.01,0.05,0.99,-3.0,-0.1,-0.2,360,0,,,,,,,,,,,,,,,,,,,
615193,1480811438666,,,,,,,,0.01,0.06,0.99,-3.0,-0.1,-0.2,360,0,,,,,,,,,,,,,,,,,,,
615213,1480811438686,,,,,,,,0.01,0.05,0.98,-3.0,-0.2,-0.2,360,0,,,,,,,,,,,,,,,,,,,
615233,1480811438707,,,,,,,,0.02,0.06,0.99,-3.1,-0.2,-0.2,360,0,,,,,,,,,,,,,,,,,,,
615253,1480811438727,0,127.5,,150.9,10,139.4,,0.02,0.06,0.98,-3.1,-0.1,-0.2,360,0,1,0,0.0,0,38.159229,-122.454391,0.0,0.002,42.4,10,3,1.5,0,0.0,-1,0.0,0.0,0.0,0
615273,1480811438747,,,,,,,,0.02,0.06,0.98,-3.1,-0.2,-0.2,340,0,,,,,,,,,,,,,,,,,,,
615293,1480811438767,,,,,,,,0.02,0.05,0.98,-3.1,-0.2,-0.2,340,0,,,,,,,,,,,,,,,,,,,
615313,1480811438787,,,,,,,,0.02,0.05,0.98,-3.0,-0.2,-0.2,340,0,,,,,,,,,,,,,,,,,,,
615333,1480811438807,,,,,,,,0.02,0.05,0.98,-3.1,-0.2,-0.2,340,0,,,,,,,,,,,,,,,,,,,
615353,1480811438827,,,,,10,,,0.02,0.05,0.98,-3.1,-0.2,-0.2,340,0,1,1,0.0,0,38.159229,-122.454391,0.0,0.002,42.4,10,3,1.5,0,0.0,-1,0.0,,0.0,0
615373,1480811438847,,,,,,,,0.02,0.05,0.98,-3.0,-0.2,-0.2,340,0,,,,,,,,,,,,,,,,,,,
615393,1480811438867,,,,,,,,0.02,0.05,0.98,-3.0,-0.2,-0.2,360,0,,,,,,,,,,,,,,,,,,,
615413,1480811438887,,,,,,,,0.02,0.05,0.98,-3.0,-0.1,-0.2,360,0,,,,,,,,,,,,,,,,,,,
615433,1480811438899,,,,,,,,0.02,0.05,0.98,-3.0,-0.1,-0.2,360,0,,,,,,,,,,,,,,,,,,,
615453,1480811438919,0,128.2,,152.2,11,141.0,,0.02,0.05,0.99,-3.1,-0.1,-0.2,380,0,1,1,0.0,0,38.159229,-122.454391,0.0,0.002,42.4,10,3,1.5,0,0.0,-1,0.0,0.0,0.0,0
615473,1480811438939,,,,,,,,0.02,0.05,0.99,-3.1,-0.1,-0.2,380,0,,,,,,,,,,,,,,,,,,,
615493,1480811438959,,,,,,,,0.02,0.05,0.98,-3.1,-0.1,-0.1,380,0,,,,,,,,,,,,,,,,,,,
615513,1480811438979,,,,,,,,0.02,0.06,0.99,-3.1,-0.1,-0.1,380,0,,,,,,,,,,,,,,,,,,,
615533,1480811439104,,,,,,,,0.02,0.06,0.98,-3.1,-0.1,-0.1,380,0,,,,,,,,,,,,,,,,,,,
615553,1480811439124,,,,,12,,,0.02,0.05,0.98,-3.0,-0.1,-0.1,400,0,1,1,0.0,0,38.159229,-122.454391,0.0,0.002,42.4,10,3,1.5,0,0.0,-1,0.0,,0.0,0
615573,1480811439144,,,,,,,,0.02,0.05,0.98,-3.0,-0.1,-0.1,400,0,,,,,,,,,,,,,,,,,,,
615593,1480811439164,,,,,,,,0.02,0.06,0.98,-3.0,-0.1,-0.1,400,0,,,,,,,,,,,,,,,,,,,
615613,1480811439184,,,,,,,,0.02,0.05,0.99,-3.0,-0.1,-0.1,400,0,,,,,,,,,,,,,,,,,,,
615633,1480811439204,,,,,,,,0.02,0.06,0.99,-3.0,-0.1,-0.1,400,0,,,,,,,,,,,,,,,,,,,
615653,1480811439224,0,128.4,,152.2,13,140.8,,0.02,0.06,0.99,-3.0,-0.1,-0.1,380,0,1,0,0.0,0,38.159229,-122.454391,0.0,0.002,42.4,10,3,1.5,0,0.0,-1,0.0,0.0,0.0,0
615673,1480811439244,,,,,,,,0.02,0.05,0.99,-3.0,-0.1,-0.2,380,0,,,,,,,,,,,,,,,,,,,
615693,1480811439264,,,,,,,,0.02,0.06,0.99,-3.1,-0.2,-0.2,400,0,,,,,,,,,,,,,,,,,,,
615713,1480811439284,,,,,,,,0.02,0.06,0.99,-3.1,-0.2,-0.2,400,0,,,,,,,,,,,,,,,,,,,
615733,1480811439206,,,,,,,,0.02,0.06,0.99,-3.0,-0.2,-0.2,400,0,,,,,,,,,,,,,,,,,,,
615753,1480811439226,,,,,14,,,0.02,0.06,0.99,-3.0,-0.2,-0.2,400,0,1,0,0.0,0,38.159229,-122.454391,0.0,0.002,42.4,10,3,1.5,0,0.0,-1,0.0,,0.0,0
615773,1480811439246,,,,,,,,0.02,0.06,0.99,-3.0,-0.2,-0.2,400,0,,,,,,,,,,,,,,,,,,,
615793,1480811439266,,,,,,,,0.02,0.06,0.99,-3.1,-0.2,-0.2,420,0,,,,,,,,,,,,,,,,,,,
615813,1480811439286,,,,,,,,0.02,0.06,0.99,-3.0,-0.2,-0.2,420,0,,,,,,,,,,,,,,,,,,,
615833,1480811439305,,,,,,,,0.02,0.06,0.99,-3.0,-0.2,-0.2,420,0,,,,,,,,,,,,,,,,,,,
615853,1480811439325,0,128.5,,152.2,13,140.5,,0.02,0.06,0.99,-3.0,-0.2,-0.2,420,0,1,1,0.0,0,38.159229,-122.454391,0.0,0.002,42.4,10,3,1.5,0,0.0,-1,0.0,0.0,0.0,0
615873,1480811439345,,,,,,,,0.02,0.06,0.99,-3.0,-0.2,-0.2,420,0,,,,,,,,,,,,,,,,,,,
615893,1480811439365,,,,,,,,0.02,0.06,0.99,-3.0,-0.2,-0.2,420,0,,,,,,,,,,,,,,,,,,,
615913,1480811439385,,,,,,,,0.02,0.05,0.99,-3.0,-0.2,-0.2,420,0,,,,,,,,,,,,,,,,,,,
615933,1480811439405,,,,,,,,0.02,0.06,0.99,-3.0,-0.2,-0.2,400,0,,,,,,,,,,,,,,,,,,,
615953,1480811439425,,,,,13,,,0.02,0.05,0.99,-3.0,-0.3,-0.2,400,0,1,0,0.0,0,38.159229,-122.454391,0.0,0.002,42.4,10,3,1.5,0,0.0,-1,0.0,,0.0,0
615973,1480811439445,,,,,,,,0.02,0.06,0.99,-3.0,-0.3,-0.2,420,0,,,,,,,,,,,,,,,,,,,
615993,1480811439465,,,,,,,,0.02,0.06,0.99,-3.1,-0.3,-0.2,420,0,,,,,,,,,,,,,,,,,,,
616013,1480811439485,,,,,,,,0.02,0.06,0.99,-3.0,-0.2,-0.2,420,0,,,,,,,,,,,,,,,,,,,
616033,1480811439505,,,,,,,,0.02,0.06,0.99,-3.0,-0.2,-0.2,420,0,,,,,,,,,,,,,,,,,,,
616053,1480811439525,0,127.0,0.0,150.7,15,139.4,12.74,0.02,0.06,0.99,-3.1,-0.2,-0.2,420,0,1,0,0.0,0,38.159229,-122.454391,0.0,0.002,42.4,10,3,1.5,0,0.0,-1,0.0,0.0,0.0,0
616073,1480811439545,,,,,,,,0.02,0.06,0.99,-3.1,-0.2,-0.2,420,0,,,,,,,,,,,,,,,,,,,
616093,1480811439565,,,,,,,,0.02,0.06,0.99,-3.1,-0.2,-0.2,420,0,,,,,,,,,,,,,,,,,,,
616113,1480811439585,,,,,,,,0.02,0.06,0.99,-3.1,-0.2,-0.2,420,0,,,,,,,,,,,,,,,,,,,
616133,1480811439605,,,,,,,,0.02,0.06,0.99,-3.1,-0.2,-0.2,420,0,,,,,,,,,,,,,,,,,,,
616153,1480811439625,,,,,15,,,0.02,0.06,0.99,-3.1,-0.2,-0.2,420,0,1,0,0.0,0,38.159229,-122.454391,0.0,0.002,42.4,10,3,1.5,0,0.0,-1,0.0,,0.0,0
616173,1480811439645,,,,,,,,0.02,0.06,0.99,-3.1,-0.2,-0.2,420,0,,,,,,,,,,,,,,,,,,,
616193,1480811439665,,,,,,,,0.02,0.06,0.99,-3.1,-0.2,-0.2,420,0,,,,,,,,,,,,,,,,,,,
616213,1480811439685,,,,,,,,0.02,0.06,0.99,-3.1,-0.2,-0.2,400,0,,,,,,,,,,,,,,,,,,,
616233,1480811439706,,,,,,,,0.02,0.06,0.99,-3.1,-0.1,-0.2,400,0,,,,,,,,,,,,,,,,,,,
616253,1480811439726,1,128.6,,152.2,16,140.2,,0.02,0.06,0.99,-3.1,-0.1,-0.2,400,0,1,1,0.0,0,38.159229,-122.454391,0.0,0.002,42.4,10,3,1.5,0,0.0,-1,0.0,0.0,0.0,0
616273,1480811439746,,,,,,,,0.02,0.06,1.0,-3.1,-0.1,-0.2,400,0,,,,,,,,,,,,,,,,,,,
616293,1480811439766,,,,,,,,0.02,0.05,1.0,-3.1,-0.1,-0.2,400,0,,,,,,,,,,,,,,,,,,,
616313,1480811439786,,,,,,,,0.02,0.06,0.99,-3.1,-0.2,-0.2,420,0,,,,,,,,,,,,,,,,,,,
616333,1480811439905,,,,,,,,0.02,0.06,0.99,-3.1,-0.2,-0.2,420,0,,,,,,,,,,,,,,,,,,,
616353,1480811439925,,,,,16,,,0.02,0.06,0.99,-3.1,-0.2,-0.2,400,0,1,1,0.0,0,38.159229,-122.454391,0.0,0.002,42.4,10,3,1.5,0,0.0,-1,0.0,,0.0,0
616373,1480811439945,,,,,,,,0.02,0.06,0.99,-3.1,-0.2,-0.2,400,0,,,,,,,,,,,,,,,,,,,
616393,1480811439965,,,,,,,,0.02,0.06,0.99,-3.1,-0.2,-0.1,400,0,,,,,,,,,,,,,,,,,,,
616413,1480811439985,,,,,,,,0.02,0.06,0.99,-3.1,-0.2,-0.2,420,0,,,,,,,,,,,,,,,,,,,
616433,1480811440005,,,,,,,,0.02,0.06,0.99,-3.1,-0.2,-0.2,420,0,,,,,,,,,,,,,,,,,,,
616453,1480811440025,0,128.5,,152.2,17,140.2,,0.02,0.06,0.99,-3.1,-0.2,-0.2,400,0,1,1,0.0,0,38.159229,-122.454391,0.0,0.002,42.4,10,3,1.5,0,0.0,-1,0.0,0.0,0.0,0
616473,1480811440045,,,,,,,,0.02,0.06,0.99,-3.1,-0.2,-0.2,400,0,,,,,,,,,,,,,,,,,,,
616493,1480811440065,,,,,,,,0.02,0.06,0.99,-3.1,-0.2,-0.2,400,0,,,,,,,,,,,,,,,,,,,
616513,1480811440085,,,,,,,,0.02,0.06,0.99,-3.1,-0.2,-0.2,400,0,,,,,,,,,,,,,,,,,,,
616533,1480811440006,,,,,,,,0.02,0.06,0.99,-3.0,-0.2,-0.2,400,0,,,,,,,,,,,,,,,,,,,
616553,1480811440026,,,,,16,,,0.02,0.06,0.99,-3.1,-0.2,-0.2,400,0,1,0,0.0,0,38.159229,-122.454391,0.0,0.002,42.4,10,3,1.5,0,0.0,-1,0.0,,0.0,0
616573,1480811440046,,,,,,,,0.02,0.06,0.99,-3.1,-0.2,-0.2,400,0,,,,,,,,,,,,,,,,,,,
616593,1480811440066,,,,,,,,0.02,0.06,0.99,-3.1,-0.2,-0.2,400,0,,,,,,,,,,,,,,,,,,,
616613,1480811440086,,,,,,,,0.02,0.05,0.99,-3.1,-0.2,-0.2,400,0,,,,,,,,,,,,,,,,,,,
616633,1480811440106,,,,,,,,0.02,0.05,0.99,-3.1,-0.2,-0.2,400,0,,,,,,,,,,,,,,,,,,,
616653,1480811440126,0,127.4,,151.8,16,140.6,,0.02,0.05,0.99,-3.1,-0.2,-0.2,400,0,1,1,0.0,0,38.159229,-122.454391,0.0,0.002,42.4,10,3,1.5,0,0.0,-1,0.0,0.0,0.0,0
616673,1480811440146,,,,,,,,0.02,0.05,0.99,-3.1,-0.2,-0.2,400,0,,,,,,,,,,,,,,,,,,,
616693,1480811440166,,,,,,,,0.02,0.05,0.99,-3.1,-0.1,-0.2,400,0,,,,,,,,,,,,,,,,,,,
616713,1480811440186,,,,,,,,0.02,0.05,1.0,-3.1,-0.2,-0.2,400,0,,,,,,,,,,,,,,,,,,,
616733,1480811440206,,,,,,,,0.02,0.05,1.0,-3.1,-0.2,-0.2,400,0,,,,,,,,,,,,,,,,,,,
616753,1480811440226,,,,,16,,,0.02,0.06,1.0,-3.1,-0.2,-0.2,380,0,1,0,0.0,0,38.159229,-122.454391,0.0,0.002,42.4,10,3,1.5,0,0.0,-1,0.0,,0.0,0
616773,1480811440246,,,,,,,,0.02,0.05,1.0,-3.1,-0.2,-0.2,380,0,,,,,,,,,,,,,,,,,,,
616793,1480811440266,,,,,,,,0.02,0.06,0.99,-3.1,-0.2,-0.2,380,0,,,,,,,,,,,,,,,,,,,
616813,1480811440286,,,,,,,,0.02,0.06,1.0,-3.1,-0.1,-0.2,380,0,,,,,,,,,,,,,,,,,,,
616833,1480811440306,,,,,,,,0.02,0.06,0.99,-3.0,-0.1,-0.2,380,0,,,,,,,,,,,,,,,,,,,
616853,1480811440326,0,128.4,,152.4,17,140.6,,0.02,0.06,1.0,-3.0,-0.2,-0.2,380,0,1,0,0.0,0,38.159229,-122.454391,0.0,0.002,42.4,10,3,1.5,0,0.0,-1,0.0,0.0,0.0,0
616873,1480811440346,,,,,,,,0.02,0.06,1.0,-3.1,-0.1,-0.1,380,0,,,,,,,,,,,,,,,,,,,
616893,1480811440366,,,,,,,,0.02,0.06,0.99,-3.0,-0.1,-0.1,380,0,,,,,,,,,,,,,,,,,,,
616913,1480811440386,,,,,,,,0.02,0.06,0.99,-3.0,-0.1,-0.1,380,0,,,,,,,,,,,,,,,,,,,
616933,1480811440406,,,,,,,,0.02,0.06,0.99,-3.0,-0.1,-0.1,380,0,,,,,,,,,,,,,,,,,,,
616953,1480811440426,,,,,16,,,0.02,0.06,0.99,-3.1,-0.1,-0.1,380,0,1,1,0.0,0,38.159229,-122.454391,0.0,0.002,42.4,10,3,1.5,0,0.0,-1,0.0,,0.0,0
616973,1480811440446,,,,,,,,0.02,0.06,0.99,-3.1,-0.1,-0.1,380,0,,,,,,,,,,,,,,,,,,,
616993,1480811440466,,,,,,,,0.02,0.06,0.99,-3.1,-0.1,-0.1,380,0,,,,,,,,,,,,,,,,,,,
617013,1480811440486,,,,,,,,0.02,0.06,0.99,-3.1,-0.1,-0.2,380,0,,,,,,,,,,,,,,,,,,,
617033,1480811440506,,,,,,,,0.02,0.06,0.99,-3.0,-0.1,-0.2,380,0,,,,,,,,,,,,,,,,,,,
617053,1480811440526,0,128.5,0.1,152.1,16,140.0,12.58,0.02,0.06,0.99,-3.1,-0.1,-0.2,380,0,1,1,0.0,0,38.159229,-122.454391,0.0,0.002,42.4,10,3,1.5,0,0.0,-1,0.0,0.0,0.0,0
617073,1480811440546,,,,,,,,0.02,0.06,0.99,-3.1,-0.1,-0.2,380,0,,,,,,,,,,,,,,,,,,,
617093,1480811440566,,,,,,,,0.02,0.06,0.99,-3.1,-0.1,-0.2,380,0,,,,,,,,,,,,,,,,,,,
617113,1480811440586,,,,,,,,0.02,0.06,0.99,-3.1,-0.1,-0.2,360,0,,,,,,,,,,,,,,,,,,,
617133,1480811440702,,,,,,,,0.02,0.05,0.99,-3.1,-0.1,-0.2,360,0,,,,,,,,,,,,,,,,,,,
617153,1480811440722,,,,,17,,,0.02,0.06,0.99,-3.1,-0.2,-0.2,380,0,1,0,0.0,0,38.159229,-122.454391,0.0,0.002,42.4,10,3,1.5,0,0.0,-1,0.0,,0.0,0
617173,1480811440742,,,,,,,,0.02,0.06,0.99,-3.1,-0.2,-0.2,380,0,,,,,,,,,,,,,,,,,,,
617193,1480811440762,,,,,,,,0.02,0.06,0.99,-3.0,-0.2,-0.2,380,0,,,,,,,,,,,,,,,,,,,
617213,1480811440782,,,,,,,,0.02,0.06,0.99,-3.1,-0.1,-0.2,380,0,,,,,,,,,,,,,,,,,,,
617233,1480811440802,,,,,,,,0.02,0.06,0.99,-3.1,-0.1,-0.2,380,0,,,,,,,,,,,,,,,,,,,
617253,1480811440822,1,128.3,,152.0,18,139.8,,0.02,0.05,0.99,-3.1,-0.1,-0.2,400,0,1,0,0.0,0,38.159229,-122.454391,0.0,0.002,42.4,10,3,1.5,0,0.0,-1,0.0,0.0,0.0,0
617273,1480811440842,,,,,,,,0.02,0.05,0.99,-3.1,-0.1,-0.2,400,0,,,,,,,,,,,,,,,,,,,
617293,1480811440862,,,,,,,,0.02,0.05,0.99,-3.1,-0.1,-0.3,400,0,,,,,,,,,,,,,,,,,,,
617313,1480811440882,,,,,,,,0.02,0.05,0.99,-3.1,-0.1,-0.2,400,0,,,,,,,,,,,,,,,,,,,
617333,1480811440806,,,,,,,,0.02,0.05,0.99,-3.1,-0.1,-0.2,400,0,,,,,,,,,,,,,,,,,,,
617353,1480811440826,,,,,16,,,0.02,0.05,0.99,-3.1,-0.1,-0.2,400,0,1,0,0.0,0,38.159229,-122.454391,0.0,0.002,42.4,10,3,1.5,0,0.0,-1,0.0,,0.0,0
617373,1480811440846,,,,,,,,0.02,0.05,0.99,-3.1,-0.1,-0.2,380,0,,,,,,,,,,,,,,,,,,,
617393,1480811440866,,,,,,,,0.02,0.05,0.99,-3.1,-0.1,-0.2,380,0,,,,,,,,,,,,,,,,,,,
617413,1480811440886,,,,,,,,0.02,0.05,0.99,-3.1,-0.1,-0.2,380,0,,,,,,,,,,,,,,,,,,,
617433,1480811440898,,,,,,,,0.02,0.05,0.99,-3.1,-0.1,-0.2,380,0,,,,,,,,,,,,,,,,,,,
617453,1480811440918,0,128.6,,152.5,17,140.5,,0.02,0.05,0.99,-3.1,-0.1,-0.2,380,0,1,0,0.0,0,38.159229,-122.454391,0.0,0.002,42.4,10,3,1.5,0,0.0,-1,0.0,0.0,0.0,0
617473,1480811440938,,,,,,,,0.02,0.05,0.99,-3.1,-0.1,-0.2,380,0,,,,,,,,,,,,,,,,,,,
617493,1480811440958,,,,,,,,0.02,0.05,0.99,-3.1,-0.1,-0.2,380,0,,,,,,,,,,,,,,,,,,,
617513,1480811440978,,,,,,,,0.02,0.05,0.99,-3.1,-0.1,-0.2,380,0,,,,,,,,,,,,,,,,,,,
617533,1480811441006,,,,,,,,0.02,0.05,0.99,-3.1,-0.1,-0.2,380,0,,,,,,,,,,,,,,,,,,,
617553,1480811441026,,,,,17,,,0.02,0.05,0.99,-3.1,-0.1,-0.2,380,0,1,1,0.0,0,38.159229,-122.454391,0.0,0.002,42.4,10,3,1.5,0,0.0,-1,0.0,,0.0,0
617573,1480811441046,,,,,,,,0.02,0.05,0.99,-3.1,-0.1,-0.2,400,0,,,,,,,,,,,,,,,,,,,
617593,1480811441066,,,,,,,,0.02,0.05,0.99,-3.1,-0.1,-0.2,400,0,,,,,,,,,,,,,,,,,,,
617613,1480811441086,,,,,,,,0.02,0.05,0.99,-3.1,-0.1,-0.2,400,0,,,,,,,,,,,,,,,,,,,
617633,1480811441106,,,,,,,,0.02,0.05,0.99,-3.1,-0.1,-0.2,400,0,,,,,,,,,,,,,,,,,,,
617653,1480811441126,0,127.3,,151.9,17,140.6,,0.02,0.05,0.99,-3.0,-0.1,-0.2,400,0,1,1,0.0,0,38.159229,-122.454391,0.0,0.002,42.4,10,3,1.5,0,0.0,-1,0.0,0.0,0.0,0
617673,1480811441146,,,,,,,,0.02,0.05,0.99,-3.1,-0.1,-0.2,380,0,,,,,,,,,,,,,,,,,,,
617693,1480811441166,,,,,,,,0.02,0.05,0.99,-3.0,-0.1,-0.1,380,0,,,,,,,,,,,,,,,,,,,
617713,1480811441186,,,,,,,,0.02,0.06,0.99,-3.0,-0.1,-0.1,360,0,,,,,,,,,,,,,,,,,,,
617733,1480811441207,,,,,,,,0.02,0.05,0.99,-3.0,-0.1,-0.2,360,0,,,,,,,,,,,,,,,,,,,
617753,1480811441227,,,,,17,,,0.02,0.05,0.99,-3.0,-0.1,-0.2,360,0,1,0,0.0,0,38.159229,-122.454391,0.0,0.002,42.4,10,3,1.5,0,0.0,-1,0.0,,0.0,0
617773,1480811441247,,,,,,,,0.02,0.06,0.99,-3.0,-0.1,-0.2,380,0,,,,,,,,,,,,,,,,,,,
617793,1480811441267,,,,,,,,0.02,0.06,0.99,-3.0,-0.1,-0.2,380,0,,,,,,,,,,,,,,,,,,,
617813,1480811441287,,,,,,,,0.02,0.05,0.99,-3.0,-0.1,-0.2,380,0,,,,,,,,,,,,,,,,,,,
617833,1480811441307,,,,,,,,0.02,0.06,0.99,-3.0,-0.1,-0.1,380,0,,,,,,,,,,,,,,,,,,,
617853,1480811441327,0,128.2,,152.0,17,139.4,,0.02,0.05,0.99,-3.0,-0.1,-0.1,380,0,1,0,0.0,0,38.159229,-122.454391,0.0,0.002,42.4,10,3,1.5,0,0.0,-1,0.0,0.0,0.0,0
617873,1480811441347,,,,,,,,0.02,0.05,0.99,-3.0,-0.1,-0.1,400,0,,,,,,,,,,,,,,,,,,,
617893,1480811441367,,,,,,,,0.02,0.05,0.99,-3.0,-0.1,-0.2,400,0,,,,,,,,,,,,,,,,,,,
617913,1480811441387,,,,,,,,0.02,0.06,0.99,-3.1,-0.2,-0.1,400,0,,,,,,,,,,,,,,,,,,,
617933,1480811441506,,,,,,,,0.02,0.05,0.99,-3.1,-0.2,-0.2,400,0,,,,,,,,,,,,,,,,,,,
617953,1480811441526,,,,,16,,,0.02,0.05,1.0,-3.1,-0.1,-0.2,400,0,1,1,0.0,0,38.159229,-122.454391,0.0,0.002,42.4,10,3,1.5,0,0.0,-1,0.0,,0.0,0
617973,1480811441546,,,,,,,,0.02,0.05,0.99,-3.1,-0.1,-0.2,400,0,,,,,,,,,,,,,,,,,,,
617993,1480811441566,,,,,,,,0.02,0.05,0.99,-3.1,-0.1,-0.2,400,0,,,,,,,,,,,,,,,,,,,
618013,1480811441586,,,,,,,,0.02,0.06,0.99,-3.1,-0.1,-0.2,400,0,,,,,,,,,,,,,,,,,,,
618033,1480811441606,,,,,,,,0.02,0.06,0.99,-3.1,-0.1,-0.2,400,0,,,,,,,,,,,,,,,,,,,
618053,1480811441626,0,128.0,0.0,151.7,17,139.2,12.64,0.02,0.05,0.99,-3.1,-0.1,-0.2,400,0,1,1,0.0,0,38.159229,-122.454391,0.0,0.002,42.4,10,3,1.5,0,0.0,-1,0.0,0.0,0.0,0
618073,1480811441646,,,,,,,,0.02,0.05,0.99,-3.0,-0.1,-0.2,400,0,,,,,,,,,,,,,,,,,,,
618093,1480811441666,,,,,,,,0.02,0.05,0.99,-3.0,-0.1,-0.2,400,0,,,,,,,,,,,,,,,,,,,
618113,1480811441686,,,,,,,,0.02,0.05,0.99,-3.1,-0.1,-0.2,420,0,,,,,,,,,,,,,,,,,,,
618133,1480811441607,,,,,,,,0.02,0.05,0.99,-3.1,-0.0,-0.2,420,0,,,,,,,,,,,,,,,,,,,
618153,1480811441627,,,,,18,,,0.02,0.06,0.99,-3.1,-0.1,-0.2,420,0,1,1,0.0,0,38.159229,-122.454391,0.0,0.002,42.4,10,3,1.5,0,0.0,-1,0.0,,0.0,0
618173,1480811441647,,,,,,,,0.02,0.06,0.99,-3.0,-0.1,-0.2,420,0,,,,,,,,,,,,,,,,,,,
618193,1480811441667,,,,,,,,0.02,0.05,0.99,-3.0,-0.1,-0.2,420,0,,,,,,,,,,,,,,,,,,,
618213,1480811441687,,,,,,,,0.02,0.06,0.99,-3.1,-0.1,-0.2,420,0,,,,,,,,,,,,,,,,,,,
618233,1480811441707,,,,,,,,0.02,0.05,0.99,-3.0,-0.1,-0.2,420,0,,,,,,,,,,,,,,,,,,,
618253,1480811441727,0,126.9,,151.4,18,140.2,,0.02,0.06,0.99,-3.1,-0.1,-0.2,420,0,1,0,0.0,0,38.159229,-122.454391,0.0,0.002,42.4,10,3,1.5,0,0.0,-1,0.0,0.0,0.0,0
618273,1480811441747,,,,,,,,0.02,0.06,0.99,-3.0,-0.1,-0.2,420,0,,,,,,,,,,,,,,,,,,,
618293,1480811441767,,,,,,,,0.02,0.06,0.99,-3.0,-0.1,-0.2,400,0,,,,,,,,,,,,,,,,,,,
618313,1480811441787,,,,,,,,0.02,0.06,0.99,-3.0,-0.1,-0.2,400,0,,,,,,,,,,,,,,,,,,,
618333,1480811441807,,,,,,,,0.02,0.05,0.99,-3.0,-0.1,-0.2,400,0,,,,,,,,,,,,,,,,,,,
618353,1480811441827,,,,,17,,,0.02,0.05,0.99,-3.0,-0.1,-0.2,420,0,1,1,0.0,0,38.159229,-122.454391,0.0,0.002,42.4,10,3,1.5,0,0.0,-1,0.0,,0.0,0
618373,1480811441847,,,,,,,,0.02,0.05,0.99,-3.0,-0.1,-0.2,420,0,,,,,,,,,,,,,,,,,,,
618393,1480811441867,,,,,,,,0.02,0.05,0.99,-3.0,-0.1,-0.2,420,0,,,,,,,,,,,,,,,,,,,
618413,1480811441887,,,,,,,,0.02,0.05,1.0,-3.0,-0.1,-0.2,420,0,,,,,,,,,,,,,,,,,,,
618433,1480811441899,,,,,,,,0.02,0.05,1.0,-3.0,-0.2,-0.2,420,0,,,,,,,,,,,,,,,,,,,
618453,1480811441919,0,127.3,,152.1,18,140.5,,0.02,0.05,1.0,-3.0,-0.1,-0.2,420,0,1,0,0.0,0,38.159229,-122.454391,0.0,0.002,42.4,10,3,1.5,0,0.0,-1,0.0,0.0,0.0,0
618473,1480811441939,,,,,,,,0.02,0.05,0.99,-3.0,-0.1,-0.2,420,0,,,,,,,,,,,,,,,,,,,
618493,1480811441959,,,,,,,,0.02,0.05,0.99,-3.0,-0.1,-0.2,420,0,,,,,,,,,,,,,,,,,,,
618513,1480811441979,,,,,,,,0.02,0.05,0.99,-3.0,-0.1,-0.2,420,0,,,,,,,,,,,,,,,,,,,
618533,1480811442002,,,,,,,,0.02,0.06,0.99,-3.0,-0.1,-0.2,420,0,,,,,,,,,,,,,,,,,,,
618553,1480811442022,,,,,18,,,0.02,0.05,0.99,-3.0,-0.1,-0.2,420,0,1,0,0.0,0,38.159229,-122.454391,0.0,0.002,42.4,10,3,1.5,0,0.0,-1,0.0,,0.0,0
618573,1480811442042,,,,,,,,0.01,0.05,0.99,-3.0,-0.1,-0.2,420,0,,,,,,,,,,,,,,,,,,,
618593,1480811442062,,,,,,,,0.01,0.05,0.99,-3.1,-0.2,-0.2,420,0,,,,,,,,,,,,,,,,,,,
618613,1480811442082,,,,,,,,0.02,0.05,0.99,-3.0,-0.1,-0.2,420,0,,,,,,,,,,,,,,,,,,,
618633,1480811442106,,,,,,,,0.02,0.05,0.99,-3.1,-0.1,-0.2,420,0,,,,,,,,,,,,,,,,,,,
618653,1480811442126,0,128.4,,152.4,19,140.0,,0.02,0.05,0.99,-3.1,-0.2,-0.2,420,0,1,0,0.0,0,38.159229,-122.454391,0.0,0.002,42.4,10,3,1.5,0,0.0,-1,0.0,0.0,0.0,0
618673,1480811442146,,,,,,,,0.02,0.05,0.99,-3.0,-0.2,-0.2,420,0,,,,,,,,,,,,,,,,,,,
618693,1480811442166,,,,,,,,0.02,0.05,0.99,-3.1,-0.2,-0.2,420,0,,,,,,,,,,,,,,,,,,,
618713,1480811442186,,,,,,,,0.02,0.05,0.98,-3.0,-0.2,-0.2,420,0,,,,,,,,,,,,,,,,,,,
618733,1480811442306,,,,,,,,0.02,0.05,0.98,-3.1,-0.1,-0.2,420,0,,,,,,,,,,,,,,,,,,,
618753,1480811442326,,,,,18,,,0.02,0.05,0.98,-3.0,-0.1,-0.2,420,0,1,1,0.0,0,38.159229,-122.454391,0.0,0.002,42.4,10,3,1.5,0,0.0,-1,0.0,,0.0,0
618773,1480811442346,,,,,,,,0.02,0.06,0.98,-3.1,-0.1,-0.2,400,0,,,,,,,,,,,,,,,,,,,
618793,1480811442366,,,,,,,,0.02,0.05,0.98,-3.0,-0.1,-0.2,400,0,,,,,,,,,,,,,,,,,,,
618813,1480811442386,,,,,,,,0.02,0.05,0.98,-3.1,-0.1,-0.2,400,0,,,,,,,,,,,,,,,,,,,
618833,1480811442406,,,,,,,,0.02,0.05,0.98,-3.1,-0.2,-0.2,400,0,,,,,,,,,,,,,,,,,,,
618853,1480811442426,0,128.2,,152.3,18,140.7,,0.02,0.05,0.98,-3.0,-0.1,-0.2,400,0,1,1,0.0,0,38.159229,-122.454391,0.0,0.002,42.4,10,3,1.5,0,0.0,-1,0.0,0.0,0.0,0
618873,1480811442446,,,,,,,,0.02,0.05,0.98,-3.1,-0.2,-0.2,400,0,,,,,,,,,,,,,,,,,,,
618893,1480811442466,,,,,,,,0.02,0.05,0.98,-3.1,-0.2,-0.2,400,0,,,,,,,,,,,,,,,,,,,
618913,1480811442486,,,,,,,,0.02,0.05,0.98,-3.1,-0.1,-0.2,400,0,,,,,,,,,,,,,,,,,,,
618933,1480811442407,,,,,,,,0.02,0.05,0.98,-3.1,-0.1,-0.2,400,0,,,,,,,,,,,,,,,,,,,
618953,1480811442427,,,,,17,,,0.02,0.05,0.98,-3.1,-0.1,-0.2,400,0,1,1,0.0,0,38.159229,-122.454391,0.0,0.002,42.4,10,3,1.5,0,0.0,-1,0.0,,0.0,0
618973,1480811442447,,,,,,,,0.02,0.05,0.99,-3.1,-0.1,-0.1,400,0,,,,,,,,,,,,,,,,,,,
618993,1480811442467,,,,,,,,0.02,0.05,0.99,-3.1,-0.1,-0.2,400,0,,,,,,,,,,,,,,,,,,,
619013,1480811442487,,,,,,,,0.02,0.05,0.99,-3.1,-0.1,-0.1,420,0,,,,,,,,,,,,,,,,,,,
619033,1480811442507,,,,,,,,0.02,0.05,0.99,-3.1,-0.1,-0.1,420,0,,,,,,,,,,,,,,,,,,,
619053,1480811442527,0,127.9,0.0,152.3,18,140.8,12.75,0.02,0.06,0.99,-3.1,-0.1,-0.2,420,0,1,1,0.0,0,38.159229,-122.454391,0.0,0.002,42.4,10,3,1.5,0,0.0,-1,0.0,0.0,0.0,0
619073,1480811442547,,,,,,,,0.02,0.05,0.99,-3.1,-0.2,-0.2,420,0,,,,,,,,,,,,,,,,,,,
619093,1480811442567,,,,,,,,0.02,0.05,0.99,-3.1,-0.2,-0.2,420,0,,,,,,,,,,,,,,,,,,,
619113,1480811442587,,,,,,,,0.02,0.05,0.99,-3.1,-0.1,-0.2,400,0,,,,,,,,,,,,,,,,,,,
619133,1480811442607,,,,,,,,0.02,0.05,0.99,-3.1,-0.2,-0.2,400,0,,,,,,,,,,,,,,,,,,,
619153,1480811442627,,,,,19,,,0.02,0.05,0.99,-3.1,-0.2,-0.2,400,0,1,0,0.0,0,38.159229,-122.454391,0.0,0.002,42.4,10,3,1.5,0,0.0,-1,0.0,,0.0,0
619173,1480811442647,,,,,,,,0.02,0.05,0.99,-3.1,-0.2,-0.2,400,0,,,,,,,,,,,,,,,,,,,
619193,1480811442667,,,,,,,,0.02,0.06,0.99,-3.1,-0.2,-0.1,400,0,,,,,,,,,,,,,,,,,,,
619213,1480811442687,,,,,,,,0.02,0.06,0.99,-3.1,-0.2,-0.2,400,0,,,,,,,,,,,,,,,,,,,
619233,1480811442706,,,,,,,,0.02,0.05,0.99,-3.1,-0.2,-0.2,400,0,,,,,,,,,,,,,,,,,,,
619253,1480811442726,0,128.7,,152.5,18,140.2,,0.02,0.05,0.99,-3.1,-0.2,-0.2,400,0,1,1,0.0,0,38.159229,-122.454391,0.0,0.002,42.4,10,3,1.5,0,0.0,-1,0.0,0.0,0.0,0
619273,1480811442746,,,,,,,,0.02,0.05,0.99,-3.1,-0.1,-0.2,400,0,,,,,,,,,,,,,,,,,,,
619293,1480811442766,,,,,,,,0.02,0.06,0.99,-3.1,-0.1,-0.2,420,0,,,,,,,,,,,,,,,,,,,
619313,1480811442786,,,,,,,,0.02,0.05,0.99,-3.1,-0.2,-0.2,420,0,,,,,,,,,,,,,,,,,,,
619333,1480811442807,,,,,,,,0.02,0.05,0.99,-3.1,-0.2,-0.2,420,0,,,,,,,,,,,,,,,,,,,
619353,1480811442827,,,,,18,,,0.02,0.05,0.99,-3.1,-0.2,-0.2,420,0,1,0,0.0,0,38.159229,-122.454391,0.0,0.002,42.4,10,3,1.5,0,0.0,-1,0.0,,0.0,0
619373,1480811442847,,,,,,,,0.02,0.05,0.99,-3.1,-0.2,-0.2,420,0,,,,,,,,,,,,,,,,,,,
619393,1480811442867,,,,,,,,0.02,0.06,0.99,-3.1,-0.2,-0.2,400,0,,,,,,,,,,,,,,,,,,,
619413,1480811442887,,,,,,,,0.02,0.05,0.99,-3.1,-0.2,-0.2,400,0,,,,,,,,,,,,,,,,,,,
619433,1480811442900,,,,,,,,0.02,0.05,0.99,-3.1,-0.2,-0.2,400,0,,,,,,,,,,,,,,,,,,,
619453,1480811442920,0,128.1,,152.0,19,139.3,,0.02,0.05,0.99,-3.1,-0.1,-0.2,400,0,1,0,0.0,0,38.159229,-122.454391,0.0,0.002,42.4,10,3,1.5,0,0.0,-1,0.0,0.0,0.0,0
619473,1480811442940,,,,,,,,0.02,0.05,0.99,-3.1,-0.1,-0.2,400,0,,,,,,,,,,,,,,,,,,,
619493,1480811442960,,,,,,,,0.02,0.05,0.99,-3.0,-0.1,-0.2,400,0,,,,,,,,,,,,,,,,,,,
619513,1480811442980,,,,,,,,0.02,0.05,0.99,-3.0,-0.2,-0.2,400,0,,,,,,,,,,,,,,,,,,,
619533,1480811443105,,,,,,,,0.02,0.05,0.99,-3.0,-0.1,-0.2,420,0,,,,,,,,,,,,,,,,,,,
619553,1480811443125,,,,,18,,,0.02,0.05,0.99,-3.0,-0.2,-0.2,420,0,1,0,0.0,0,38.159229,-122.454391,0.0,0.002,42.4,10,3,1.5,0,0.0,-1,0.0,,0.0,0
619573,1480811443145,,,,,,,,0.02,0.05,0.99,-3.0,-0.2,-0.2,420,0,,,,,,,,,,,,,,,,,,,
619593,1480811443165,,,,,,,,0.02,0.05,0.99,-3.0,-0.2,-0.2,420,0,,,,,,,,,,,,,,,,,,,
619613,1480811443185,,,,,,,,0.02,0.05,0.99,-3.0,-0.2,-0.2,420,0,,,,,,,,,,,,,,,,,,,
619633,1480811443205,,,,,,,,0.02,0.05,0.98,-3.0,-0.1,-0.2,420,0,,,,,,,,,,,,,,,,,,,
619653,1480811443225,0,127.8,,151.4,17,139.2,,0.02,0.05,0.98,-3.0,-0.1,-0.2,420,0,1,0,0.0,0,38.159229,-122.454391,0.0,0.002,42.4,10,3,1.5,0,0.0,-1,0.0,0.0,0.0,0
619673,1480811443245,,,,,,,,0.02,0.05,0.99,-3.0,-0.2,-0.2,420,0,,,,,,,,,,,,,,,,,,,
619693,1480811443265,,,,,,,,0.02,0.05,0.99,-3.0,-0.1,-0.2,420,0,,,,,,,,,,,,,,,,,,,
619713,1480811443285,,,,,,,,0.02,0.05,0.99,-3.0,-0.2,-0.2,420,0,,,,,,,,,,,,,,,,,,,
619733,1480811443208,,,,,,,,0.02,0.05,0.99,-3.0,-0.1,-0.2,400,0,,,,,,,,,,,,,,,,,,,
619753,1480811443228,,,,,20,,,0.02,0.05,0.99,-3.0,-0.2,-0.2,400,0,1,0,0.0,0,38.159229,-122.454391,0.0,0.002,42.4,10,3,1.5,0,0.0,-1,0.0,,0.0,0
619773,1480811443248,,,,,,,,0.02,0.05,0.98,-3.0,-0.1,-0.2,400,0,,,,,,,,,,,,,,,,,,,
619793,1480811443268,,,,,,,,0.02,0.05,0.99,-3.1,-0.1,-0.2,400,0,,,,,,,,,,,,,,,,,,,
619813,1480811443288,,,,,,,,0.02,0.05,0.98,-3.0,-0.2,-0.2,400,0,,,,,,,,,,,,,,,,,,,
619833,1480811443307,,,,,,,,0.02,0.05,0.99,-3.0,-0.1,-0.2,420,0,,,,,,,,,,,,,,,,,,,
619853,1480811443327,0,127.1,,151.7,18,140.5,,0.02,0.05,0.99,-3.0,-0.2,-0.2,420,0,1,0,0.0,0,38.159229,-122.454391,0.0,0.002,42.4,10,3,1.5,0,0.0,-1,0.0,0.0,0.0,0
619873,1480811443347,,,,,,,,0.02,0.05,0.99,-3.0,-0.1,-0.2,420,0,,,,,,,,,,,,,,,,,,,
619893,1480811443367,,,,,,,,0.02,0.05,0.99,-3.0,-0.1,-0.2,420,0,,,,,,,,,,,,,,,,,,,
619913,1480811443387,,,,,,,,0.02,0.06,0.99,-3.1,-0.1,-0.2,420,0,,,,,,,,,,,,,,,,,,,
619933,1480811443407,,,,,,,,0.02,0.06,0.99,-3.1,-0.2,-0.2,420,0,,,,,,,,,,,,,,,,,,,
619953,1480811443427,,,,,18,,,0.02,0.06,0.99,-3.1,-0.2,-0.2,420,0,1,0,0.0,0,38.159229,-122.454391,0.0,0.002,42.4,10,3,1.5,0,0.0,-1,0.0,,0.0,0
619973,1480811443447,,,,,,,,0.02,0.06,0.99,-3.1,-0.2,-0.2,420,0,,,,,,,,,,,,,,,,,,,
619993,1480811443467,,,,,,,,0.02,0.05,0.99,-3.1,-0.2,-0.2,420,0,,,,,,,,,,,,,,,,,,,
620013,1480811443487,,,,,,,,0.02,0.06,0.99,-3.1,-0.2,-0.2,420,0,,,,,,,,,,,,,,,,,,,
620033,1480811443507,,,,,,,,0.02,0.05,0.99,-3.1,-0.2,-0.2,420,0,,,,,,,,,,,,,,,,,,,
620053,1480811443527,0,126.9,0.0,151.3,18,139.9,12.75,0.02,0.06,0.99,-3.1,-0.2,-0.2,400,0,1,0,0.0,0,38.159229,-122.454391,0.0,0.002,42.4,10,3,1.5,0,0.0,-1,0.0,0.0,0.0,0
620073,1480811443547,,,,,,,,0.02,0.06,0.99,-3.1,-0.2,-0.2,400,0,,,,,,,,,,,,,,,,,,,
620093,1480811443567,,,,,,,,0.02,0.06,0.99,-3.1,-0.1,-0.2,400,0,,,,,,,,,,,,,,,,,,,
620113,1480811443587,,,,,,,,0.02,0.06,0.99,-3.1,-0.1,-0.2,420,0,,,,,,,,,,,,,,,,,,,
620133,1480811443608,,,,,,,,0.02,0.05,0.99,-3.1,-0.1,-0.2,420,0,,,,,,,,,,,,,,,,,,,
620153,1480811443628,,,,,18,,,0.02,0.06,0.99,-3.1,-0.1,-0.2,420,0,1,0,0.0,0,38.159229,-122.454391,0.0,0.002,42.4,10,3,1.5,0,0.0,-1,0.0,,0.0,0
620173,1480811443648,,,,,,,,0.02,0.06,0.99,-3.1,-0.1,-0.2,420,0,,,,,,,,,,,,,,,,,,,
620193,1480811443668,,,,,,,,0.02,0.06,0.99,-3.1,-0.1,-0.2,420,0,,,,,,,,,,,,,,,,,,,
620213,1480811443688,,,,,,,,0.02,0.06,0.99,-3.1,-0.2,-0.2,420,0,,,,,,,,,,,,,,,,,,,
620233,1480811443707,,,,,,,,0.02,0.06,0.99,-3.1,-0.1,-0.3,420,0,,,,,,,,,,,,,,,,,,,
620253,1480811443727,0,128.7,,152.9,19,140.3,,0.02,0.06,0.99,-3.1,-0.1,-0.2,420,0,1,0,0.0,0,38.159229,-122.454391,0.0,0.002,42.4,10,3,1.5,0,0.0,-1,0.0,0.0,0.0,0
620273,1480811443747,,,,,,,,0.02,0.06,0.99,-3.1,-0.1,-0.2,420,0,,,,,,,,,,,,,,,,,,,
620293,1480811443767,,,,,,,,0.02,0.06,0.99,-3.1,-0.1,-0.2,400,0,,,,,,,,,,,,,,,,,,,
620313,1480811443787,,,,,,,,0.02,0.06,0.99,-3.1,-0.1,-0.2,400,0,,,,,,,,,,,,,,,,,,,
620333,1480811443906,,,,,,,,0.02,0.06,0.99,-3.1,-0.1,-0.2,400,0,,,,,,,,,,,,,,,,,,,
620353,1480811443926,,,,,18,,,0.02,0.06,0.99,-3.1,-0.1,-0.2,400,0,1,0,0.0,0,38.159229,-122.454391,0.0,0.002,42.4,10,3,1.5,0,0.0,-1,0.0,,0.0,0
620373,1480811443946,,,,,,,,0.02,0.06,0.99,-3.1,-0.1,-0.2,400,0,,,,,,,,,,,,,,,,,,,
620393,1480811443966,,,,,,,,0.02,0.06,0.99,-3.1,-0.1,-0.2,420,0,,,,,,,,,,,,,,,,,,,
620413,1480811443986,,,,,,,,0.02,0.06,0.99,-3.1,-0.1,-0.2,420,0,,,,,,,,,,,,,,,,,,,
620433,1480811444006,,,,,,,,0.02,0.06,0.99,-3.1,-0.1,-0.2,420,0,,,,,,,,,,,,,,,,,,,
620453,1480811444026,0,128.6,,152.7,18,140.2,,0.02,0.06,0.99,-3.1,-0.2,-0.2,420,0,1,1,0.0,0,38.159229,-122.454391,0.0,0.002,42.4,10,3,1.5,0,0.0,-1,0.0,0.0,0.0,0
620473,1480811444046,,,,,,,,0.02,0.06,0.99,-3.1,-0.2,-0.2,420,0,,,,,,,,,,,,,,,,,,,
620493,1480811444066,,,,,,,,0.02,0.06,0.99,-3.0,-0.2,-0.2,420,0,,,,,,,,,,,,,,,,,,,
620513,1480811444086,,,,,,,,0.02,0.06,0.99,-3.0,-0.2,-0.2,420,0,,,,,,,,,,,,,,,,,,,
620533,1480811444008,,,,,,,,0.02,0.06,0.99,-3.1,-0.2,-0.2,420,0,,,,,,,,,,,,,,,,,,,
620553,1480811444028,,,,,19,,,0.02,0.06,0.99,-3.1,-0.2,-0.2,420,0,1,1,0.0,0,38.159229,-122.454391,0.0,0.002,42.4,10,3,1.5,0,0.0,-1,0.0,,0.0,0
620573,1480811444048,,,,,,,,0.02,0.06,0.99,-3.1,-0.2,-0.2,400,0,,,,,,,,,,,,,,,,,,,
620593,1480811444068,,,,,,,,0.02,0.06,0.99,-3.0,-0.2,-0.2,400,0,,,,,,,,,,,,,,,,,,,
620613,1480811444088,,,,,,,,0.02,0.06,0.99,-3.0,-0.2,-0.2,400,0,,,,,,,,,,,,,,,,,,,
620633,1480811444107,,,,,,,,0.02,0.06,0.99,-3.0,-0.2,-0.2,400,0,,,,,,,,,,,,,,,,,,,
620653,1480811444127,0,128.4,,152.8,19,140.4,,0.02,0.05,0.99,-3.0,-0.2,-0.2,400,0,1,0,0.0,0,38.159229,-122.454391,0.0,0.002,42.4,10,3,1.5,0,0.0,-1,0.0,0.0,0.0,0
620673,1480811444147,,,,,,,,0.02,0.06,0.99,-3.0,-0.2,-0.2,400,0,,,,,,,,,,,,,,,,,,,
620693,1480811444167,,,,,,,,0.02,0.05,0.99,-3.0,-0.1,-0.2,400,0,,,,,,,,,,,,,,,,,,,
620713,1480811444187,,,,,,,,0.02,0.06,0.99,-3.0,-0.1,-0.2,400,0,,,,,,,,,,,,,,,,,,,
620733,1480811444208,,,,,,,,0.02,0.06,0.99,-3.1,-0.1,-0.2,420,0,,,,,,,,,,,,,,,,,,,
620753,1480811444228,,,,,18,,,0.02,0.05,0.99,-3.0,-0.1,-0.2,420,0,1,0,0.0,0,38.159229,-122.454391,0.0,0.002,42.4,10,3,1.5,0,0.0,-1,0.0,,0.0,0
620773,1480811444248,,,,,,,,0.02,0.05,0.99,-3.1,-0.1,-0.1,420,0,,,,,,,,,,,,,,,,,,,
620793,1480811444268,,,,,,,,0.02,0.05,0.99,-3.1,-0.1,-0.1,420,0,,,,,,,,,,,,,,,,,,,
620813,1480811444288,,,,,,,,0.02,0.06,0.99,-3.1,-0.1,-0.1,400,0,,,,,,,,,,,,,,,,,,,
620833,1480811444308,,,,,,,,0.02,0.05,0.99,-3.1,-0.1,-0.1,400,0,,,,,,,,,,,,,,,,,,,
620853,1480811444328,0,127.2,,151.3,18,139.4,,0.02,0.05,0.99,-3.1,-0.1,-0.1,400,0,1,1,0.0,0,38.159229,-122.454391,0.0,0.002,42.4,10,3,1.5,0,0.0,-1,0.0,0.0,0.0,0
620873,1480811444348,,,,,,,,0.02,0.05,0.99,-3.1,-0.1,-0.1,400,0,,,,,,,,,,,,,,,,,,,
620893,1480811444368,,,,,,,,0.02,0.05,0.99,-3.1,-0.1,-0.1,400,0,,,,,,,,,,,,,,,,,,,
620913,1480811444388,,,,,,,,0.02,0.05,0.99,-3.1,-0.1,-0.1,400,0,,,,,,,,,,,,,,,,,,,
620933,1480811444408,,,,,,,,0.02,0.06,0.99,-3.1,-0.1,-0.1,400,0,,,,,,,,,,,,,,,,,,,
620953,1480811444428,,,,,18,,,0.02,0.06,0.99,-3.1,-0.1,-0.2,400,0,1,0,0.0,0,38.159229,-122.454391,0.0,0.002,42.4,10,3,1.5,0,0.0,-1,0.0,,0.0,0
620973,1480811444448,,,,,,,,0.02,0.06,0.99,-3.1,-0.1,-0.2,420,0,,,,,,,,,,,,,,,,,,,
620993,1480811444468,,,,,,,,0.02,0.05,0.99,-3.1,-0.1,-0.2,420,0,,,,,,,,,,,,,,,,,,,
621013,1480811444488,,,,,,,,0.02,0.05,0.99,-3.1,-0.1,-0.2,420,0,,,,,,,,,,,,,,,,,,,
621033,1480811444508,,,,,,,,0.02,0.05,0.99,-3.1,-0.1,-0.2,420,0,,,,,,,,,,,,,,,,,,,
621053,1480811444528,0,128.0,0.0,152.1,19,139.1,12.82,0.02,0.06,0.99,-3.1,-0.1,-0.2,420,0,1,1,0.0,0,38.159229,-122.454391,0.0,0.002,42.4,10,3,1.5,0,0.0,-1,0.0,0.0,0.0,0
621073,1480811444548,,,,,,,,0.02,0.05,0.99,-3.1,-0.1,-0.2,420,0,,,,,,,,,,,,,,,,,,,
621093,1480811444568,,,,,,,,0.02,0.05,0.99,-3.1,-0.1,-0.2,420,0,,,,,,,,,,,,,,,,,,,
621113,1480811444588,,,,,,,,0.02,0.05,0.99,-3.1,-0.1,-0.2,420,0,,,,,,,,,,,,,,,,,,,
621133,1480811444707,,,,,,,,0.02,0.05,0.99,-3.1,-0.1,-0.2,420,0,,,,,,,,,,,,,,,,,,,
621153,1480811444727,,,,,19,,,0.02,0.06,0.99,-3.1,-0.1,-0.1,400,0,1,0,0.0,0,38.159229,-122.454391,0.0,0.002,42.4,10,3,1.5,0,0.0,-1,0.0,,0.0,0
621173,1480811444747,,,,,,,,0.02,0.05,0.99,-3.1,-0.1,-0.1,400,0,,,,,,,,,,,,,,,,,,,
621193,1480811444767,,,,,,,,0.02,0.06,0.99,-3.1,-0.1,-0.1,400,0,,,,,,,,,,,,,,,,,,,
621213,1480811444787,,,,,,,,0.02,0.06,0.99,-3.1,-0.1,-0.1,400,0,,,,,,,,,,,,,,,,,,,
621233,1480811444807,,,,,,,,0.02,0.06,0.99,-3.1,-0.1,-0.2,400,0,,,,,,,,,,,,,,,,,,,
621253,1480811444827,0,128.5,,152.6,19,139.8,,0.02,0.06,0.99,-3.1,-0.1,-0.1,420,0,1,0,0.0,0,38.159229,-122.454391,0.0,0.002,42.4,10,3,1.5,0,0.0,-1,0.0,0.0,0.0,0
621273,1480811444847,,,,,,,,0.02,0.05,0.99,-3.1,-0.1,-0.2,420,0,,,,,,,,,,,,,,,,,,,
621293,1480811444867,,,,,,,,0.02,0.06,0.99,-3.1,-0.1,-0.1,420,0,,,,,,,,,,,,,,,,,,,
621313,1480811444887,,,,,,,,0.02,0.06,0.99,-3.1,-0.1,-0.1,420,0,,,,,,,,,,,,,,,,,,,
621333,1480811444808,,,,,,,,0.02,0.06,0.99,-3.1,-0.2,-0.2,420,0,,,,,,,,,,,,,,,,,,,
621353,1480811444828,,,,,19,,,0.02,0.06,0.99,-3.1,-0.2,-0.2,420,0,1,0,0.0,0,38.159229,-122.454391,0.0,0.002,42.4,10,3,1.5,0,0.0,-1,0.0,,0.0,0
621373,1480811444848,,,,,,,,0.02,0.06,0.99,-3.0,-0.1,-0.2,420,0,,,,,,,,,,,,,,,,,,,
621393,1480811444868,,,,,,,,0.02,0.06,0.99,-3.1,-0.1,-0.2,400,0,,,,,,,,,,,,,,,,,,,
621413,1480811444888,,,,,,,,0.02,0.05,0.99,-3.0,-0.1,-0.2,400,0,,,,,,,,,,,,,,,,,,,
621433,1480811444901,,,,,,,,0.02,0.06,0.99,-3.1,-0.1,-0.1,420,0,,,,,,,,,,,,,,,,,,,
621453,1480811444921,0,127.2,,151.8,17,140.2,,0.02,0.06,0.99,-3.1,-0.1,-0.1,420,0,1,0,0.0,0,38.159229,-122.454391,0.0,0.002,42.4,10,3,1.5,0,0.0,-1,0.0,0.0,0.0,0
621473,1480811444941,,,,,,,,0.02,0.06,0.99,-3.0,-0.1,-0.1,420,0,,,,,,,,,,,,,,,,,,,
621493,1480811444961,,,,,,,,0.02,0.06,0.99,-3.1,-0.1,-0.2,400,0,,,,,,,,,,,,,,,,,,,
621513,1480811444981,,,,,,,,0.02,0.06,0.99,-3.1,-0.1,-0.2,400,0,,,,,,,,,,,,,,,,,,,
621533,1480811445008,,,,,,,,0.02,0.06,0.99,-3.1,-0.1,-0.2,420,0,,,,,,,,,,,,,,,,,,,
621553,1480811445028,,,,,20,,,0.02,0.06,0.99,-3.1,-0.1,-0.2,420,0,1,0,0.0,0,38.159229,-122.454391,0.0,0.002,42.4,10,3,1.5,0,0.0,-1,0.0,,0.0,0
621573,1480811445048,,,,,,,,0.02,0.06,0.99,-3.1,-0.1,-0.2,420,0,,,,,,,,,,,,,,,,,,,
621593,1480811445068,,,,,,,,0.02,0.06,0.99,-3.1,-0.1,-0.2,420,0,,,,,,,,,,,,,,,,,,,
621613,1480811445088,,,,,,,,0.02,0.06,0.99,-3.1,-0.2,-0.2,420,0,,,,,,,,,,,,,,,,,,,
621633,1480811445108,,,,,,,,0.02,0.05,0.99,-3.1,-0.2,-0.2,420,0,,,,,,,,,,,,,,,,,,,
621653,1480811445128,0,128.1,,152.1,19,139.0,,0.02,0.05,0.99,-3.1,-0.2,-0.2,420,0,1,0,0.0,0,38.159229,-122.454391,0.0,0.002,42.4,10,3,1.5,0,0.0,-1,0.0,0.0,0.0,0
621673,1480811445148,,,,,,,,0.02,0.05,0.99,-3.1,-0.2,-0.2,400,0,,,,,,,,,,,,,,,,,,,
621693,1480811445168,,,,,,,,0.02,0.05,0.99,-3.1,-0.2,-0.2,400,0,,,,,,,,,,,,,,,,,,,
621713,1480811445188,,,,,,,,0.02,0.06,0.99,-3.1,-0.2,-0.2,420,0,,,,,,,,,,,,,,,,,,,
621733,1480811445208,,,,,,,,0.02,0.05,0.99,-3.1,-0.2,-0.2,420,0,,,,,,,,,,,,,,,,,,,
621753,1480811445228,,,,,18,,,0.02,0.05,0.99,-3.1,-0.2,-0.2,420,0,1,0,0.0,0,38.159229,-122.454391,0.0,0.002,42.4,10,3,1.5,0,0.0,-1,0.0,,0.0,0
621773,1480811445248,,,,,,,,0.02,0.05,0.99,-3.1,-0.2,-0.2,400,0,,,,,,,,,,,,,,,,,,,
621793,1480811445268,,,,,,,,0.02,0.05,0.99,-3.1,-0.2,-0.2,400,0,,,,,,,,,,,,,,,,,,,
621813,1480811445288,,,,,,,,0.02,0.05,0.99,-3.1,-0.2,-0.2,420,0,,,,,,,,,,,,,,,,,,,
621833,1480811445308,,,,,,,,0.02,0.05,0.99,-3.1,-0.1,-0.2,420,0,,,,,,,,,,,,,,,,,,,
621853,1480811445328,1,127.8,,151.5,19,139.0,,0.02,0.05,0.99,-3.1,-0.1,-0.2,420,0,1,1,0.0,0,38.159229,-122.454391,0.0,0.002,42.4,10,3,1.5,0,0.0,-1,0.0,0.0,0.0,0
621873,1480811445348,,,,,,,,0.02,0.05,0.99,-3.1,-0.2,-0.2,420,0,,,,,,,,,,,,,,,,,,,
621893,1480811445368,,,,,,,,0.02,0.05,0.99,-3.1,-0.2,-0.2,420,0,,,,,,,,,,,,,,,,,,,
621913,1480811445388,,,,,,,,0.02,0.05,0.99,-3.1,-0.2,-0.2,420,0,,,,,,,,,,,,,,,,,,,
621933,1480811445504,,,,,,,,0.02,0.05,0.99,-3.1,-0.2,-0.2,420,0,,,,,,,,,,,,,,,,,,,
621953,1480811445524,,,,,19,,,0.02,0.05,0.99,-3.1,-0.1,-0.1,400,0,1,0,0.0,0,38.159229,-122.454391,0.0,0.002,42.4,10,3,1.5,0,0.0,-1,0.0,,0.0,0
621973,1480811445544,,,,,,,,0.02,0.05,0.99,-3.1,-0.1,-0.1,400,0,,,,,,,,,,,,,,,,,,,
621993,1480811445564,,,,,,,,0.02,0.05,0.99,-3.1,-0.2,-0.2,400,0,,,,,,,,,,,,,,,,,,,
622013,1480811445584,,,,,,,,0.02,0.06,0.99,-3.1,-0.1,-0.2,420,0,,,,,,,,,,,,,,,,,,,
622033,1480811445604,,,,,,,,0.02,0.05,0.99,-3.1,-0.1,-0.2,420,0,,,,,,,,,,,,,,,,,,,
622053,1480811445624,0,126.9,0.0,151.4,18,139.5,12.82,0.02,0.05,0.99,-3.1,-0.1,-0.2,420,0,1,1,0.0,0,38.159229,-122.454391,0.0,0.002,42.4,10,3,1.5,0,0.0,-1,0.0,0.0,0.0,0
622073,1480811445644,,,,,,,,0.02,0.05,1.0,-3.1,-0.1,-0.2,420,0,,,,,,,,,,,,,,,,,,,
622093,1480811445664,,,,,,,,0.02,0.05,1.0,-3.1,-0.1,-0.2,420,0,,,,,,,,,,,,,,,,,,,
622113,1480811445684,,,,,,,,0.02,0.05,1.0,-3.1,-0.2,-0.2,420,0,,,,,,,,,,,,,,,,,,,
622133,1480811445608,,,,,,,,0.02,0.05,1.0,-3.1,-0.1,-0.2,420,0,,,,,,,,,,,,,,,,,,,
622153,1480811445628,,,,,19,,,0.02,0.05,1.0,-3.1,-0.1,-0.2,420,0,1,0,0.0,0,38.159229,-122.454391,0.0,0.002,42.4,10,3,1.5,0,0.0,-1,0.0,,0.0,0
622173,1480811445648,,,,,,,,0.02,0.05,1.0,-3.0,-0.2,-0.2,420,0,,,,,,,,,,,,,,,,,,,
622193,1480811445668,,,,,,,,0.02,0.05,1.0,-3.1,-0.2,-0.1,420,0,,,,,,,,,,,,,,,,,,,
622213,1480811445688,,,,,,,,0.02,0.05,1.0,-3.1,-0.2,-0.2,420,0,,,,,,,,,,,,,,,,,,,
622233,1480811445707,,,,,,,,0.02,0.05,0.99,-3.1,-0.2,-0.2,420,0,,,,,,,,,,,,,,,,,,,
622253,1480811445727,0,128.3,,152.4,18,139.3,,0.02,0.05,1.0,-3.1,-0.2,-0.1,420,0,1,0,0.0,0,38.159229,-122.454391,0.0,0.002,42.4,10,3,1.5,0,0.0,-1,0.0,0.0,0.0,0
622273,1480811445747,,,,,,,,0.02,0.05,0.99,-3.1,-0.1,-0.2,420,0,,,,,,,,,,,,,,,,,,,
622293,1480811445767,,,,,,,,0.02,0.05,0.99,-3.1,-0.1,-0.2,420,0,,,,,,,,,,,,,,,,,,,
622313,1480811445787,,,,,,,,0.02,0.05,0.99,-3.1,-0.2,-0.2,420,0,,,,,,,,,,,,,,,,,,,
622333,1480811445807,,,,,,,,0.02,0.05,0.99,-3.1,-0.1,-0.2,420,0,,,,,,,,,,,,,,,,,,,
622353,1480811445827,,,,,19,,,0.02,0.05,0.99,-3.1,-0.1,-0.2,420,0,1,0,0.0,0,38.159229,-122.454391,0.0,0.002,42.4,10,3,1.5,0,0.0,-1,0.0,,0.0,0
622373,1480811445847,,,,,,,,0.02,0.05,0.99,-3.1,-0.1,-0.2,420,0,,,,,,,,,,,,,,,,,,,
622393,1480811445867,,,,,,,,0.02,0.05,0.99,-3.1,-0.1,-0.2,420,0,,,,,,,,,,,,,,,,,,,
622413,1480811445887,,,,,,,,0.02,0.05,0.99,-3.1,-0.1,-0.2,420,0,,,,,,,,,,,,,,,,,,,
622433,1480811445900,,,,,,,,0.02,0.05,0.99,-3.1,-0.2,-0.2,420,0,,,,,,,,,,,,,,,,,,,
622453,1480811445920,0,127.7,,152.6,19,140.5,,0.02,0.05,0.99,-3.1,-0.2,-0.3,420,0,1,0,0.0,0,38.159229,-122.454391,0.0,0.002,42.4,10,3,1.5,0,0.0,-1,0.0,0.0,0.0,0
622473,1480811445940,,,,,,,,0.02,0.05,0.99,-3.1,-0.2,-0.2,420,0,,,,,,,,,,,,,,,,,,,
622493,1480811445960,,,,,,,,0.02,0.05,0.99,-3.1,-0.2,-0.2,420,0,,,,,,,,,,,,,,,,,,,
622513,1480811445980,,,,,,,,0.02,0.05,0.99,-3.1,-0.2,-0.2,420,0,,,,,,,,,,,,,,,,,,,
622533,1480811446008,,,,,,,,0.02,0.06,0.99,-3.1,-0.2,-0.2,420,0,,,,,,,,,,,,,,,,,,,
622553,1480811446028,,,,,19,,,0.02,0.05,0.99,-3.1,-0.1,-0.3,420,0,1,0,0.0,0,38.159229,-122.454391,0.0,0.002,42.4,10,3,1.5,0,0.0,-1,0.0,,0.0,0
622573,1480811446048,,,,,,,,0.02,0.05,0.99,-3.1,-0.1,-0.2,420,0,,,,,,,,,,,,,,,,,,,
622593,1480811446068,,,,,,,,0.02,0.05,0.99,-3.1,-0.2,-0.2,420,0,,,,,,,,,,,,,,,,,,,
622613,1480811446088,,,,,,,,0.02,0.06,0.99,-3.1,-0.1,-0.2,420,0,,,,,,,,,,,,,,,,,,,
622633,1480811446108,,,,,,,,0.02,0.05,0.99,-3.1,-0.1,-0.2,420,0,,,,,,,,,,,,,,,,,,,
622653,1480811446128,0,128.4,,152.8,19,140.4,,0.02,0.06,0.99,-3.1,-0.1,-0.2,420,0,1,0,0.0,0,38.159229,-122.454391,0.0,0.002,42.4,10,3,1.5,0,0.0,-1,0.0,0.0,0.0,0
622673,1480811446148,,,,,,,,0.02,0.06,0.99,-3.1,-0.1,-0.2,420,0,,,,,,,,,,,,,,,,,,,
622693,1480811446168,,,,,,,,0.02,0.05,0.99,-3.1,-0.1,-0.2,420,0,,,,,,,,,,,,,,,,,,,
622713,1480811446188,,,,,,,,0.02,0.05,0.99,-3.1,-0.1,-0.2,420,0,,,,,,,,,,,,,,,,,,,
622733,1480811446307,,,,,,,,0.02,0.05,0.99,-3.1,-0.1,-0.2,420,0,,,,,,,,,,,,,,,,,,,
622753,1480811446327,,,,,19,,,0.02,0.06,0.99,-3.1,-0.1,-0.2,420,0,1,0,0.0,0,38.159229,-122.454391,0.0,0.002,42.4,10,3,1.5,0,0.0,-1,0.0,,0.0,0
622773,1480811446347,,,,,,,,0.02,0.06,0.99,-3.1,-0.1,-0.2,420,0,,,,,,,,,,,,,,,,,,,
622793,1480811446367,,,,,,,,0.02,0.06,0.99,-3.1,-0.1,-0.2,420,0,,,,,,,,,,,,,,,,,,,
622813,1480811446387,,,,,,,,0.02,0.06,0.99,-3.1,-0.1,-0.2,420,0,,,,,,,,,,,,,,,,,,,
622833,1480811446407,,,,,,,,0.02,0.06,0.99,-3.1,-0.1,-0.2,420,0,,,,,,,,,,,,,,,,,,,
622853,1480811446427,0,128.3,,152.7,19,140.6,,0.02,0.06,0.99,-3.1,-0.2,-0.2,420,0,1,0,0.0,0,38.159229,-122.454391,0.0,0.002,42.4,10,3,1.5,0,0.0,-1,0.0,0.0,0.0,0
622873,1480811446447,,,,,,,,0.02,0.06,0.99,-3.1,-0.2,-0.2,420,0,,,,,,,,,,,,,,,,,,,
622893,1480811446467,,,,,,,,0.02,0.06,0.99,-3.1,-0.1,-0.2,420,0,,,,,,,,,,,,,,,,,,,
622913,1480811446487,,,,,,,,0.02,0.06,0.99,-3.1,-0.1,-0.2,420,0,,,,,,,,,,,,,,,,,,,
622933,1480811446407,,,,,,,,0.02,0.06,0.99,-3.1,-0.2,-0.2,420,0,,,,,,,,,,,,,,,,,,,
622953,1480811446427,,,,,19,,,0.02,0.06,0.99,-3.1,-0.2,-0.2,420,0,1,1,0.0,0,38.159229,-122.454391,0.0,0.002,42.4,10,3,1.5,0,0.0,-1,0.0,,0.0,0
622973,1480811446447,,,,,,,,0.02,0.06,0.99,-3.1,-0.2,-0.2,420,0,,,,,,,,,,,,,,,,,,,
622993,1480811446467,,,,,,,,0.02,0.06,0.98,-3.1,-0.1,-0.2,420,0,,,,,,,,,,,,,,,,,,,
623013,1480811446487,,,,,,,,0.02,0.05,0.98,-3.0,-0.1,-0.2,420,0,,,,,,,,,,,,,,,,,,,
623033,1480811446508,,,,,,,,0.02,0.06,0.98,-3.1,-0.1,-0.2,420,0,,,,,,,,,,,,,,,,,,,
623053,1480811446528,0,126.9,0.0,151.7,19,139.9,12.88,0.02,0.06,0.99,-3.0,-0.1,-0.2,420,0,1,1,0.0,0,38.159229,-122.454391,0.0,0.002,42.4,10,3,1.5,0,0.0,-1,0.0,0.0,0.0,0
623073,1480811446548,,,,,,,,0.02,0.06,0.99,-3.0,-0.1,-0.2,420,0,,,,,,,,,,,,,,,,,,,
623093,1480811446568,,,,,,,,0.02,0.06,0.99,-3.0,-0.2,-0.2,420,0,,,,,,,,,,,,,,,,,,,
623113,1480811446588,,,,,,,,0.02,0.06,0.99,-3.0,-0.1,-0.2,420,0,,,,,,,,,,,,,,,,,,,
623133,1480811446608,,,,,,,,0.02,0.06,0.99,-3.0,-0.1,-0.2,420,0,,,,,,,,,,,,,,,,,,,
623153,1480811446628,,,,,20,,,0.02,0.05,0.99,-3.0,-0.2,-0.2,420,0,1,0,0.0,0,38.159229,-122.454391,0.0,0.002,42.4,10,3,1.5,0,0.0,-1,0.0,,0.0,0
623173,1480811446648,,,,,,,,0.02,0.06,0.99,-3.0,-0.1,-0.2,420,0,,,,,,,,,,,,,,,,,,,
623193,1480811446668,,,,,,,,0.02,0.05,0.99,-3.0,-0.1,-0.2,420,0,,,,,,,,,,,,,,,,,,,
623213,1480811446688,,,,,,,,0.02,0.06,0.99,-3.0,-0.2,-0.2,440,0,,,,,,,,,,,,,,,,,,,
623233,1480811446708,,,,,,,,0.02,0.05,0.99,-3.0,-0.2,-0.2,440,0,,,,,,,,,,,,,,,,,,,
623253,1480811446728,0,128.0,,151.8,20,138.8,,0.02,0.06,0.99,-3.1,-0.2,-0.2,440,0,1,0,0.0,0,38.159229,-122.454391,0.0,0.002,42.4,10,3,1.5,0,0.0,-1,0.0,0.0,0.0,0
623273,1480811446748,,,,,,,,0.02,0.06,0.99,-3.1,-0.2,-0.2,440,0,,,,,,,,,,,,,,,,,,,
623293,1480811446768,,,,,,,,0.02,0.06,0.99,-3.0,-0.2,-0.2,440,0,,,,,,,,,,,,,,,,,,,
623313,1480811446788,,,,,,,,0.01,0.06,0.99,-3.1,-0.2,-0.2,460,0,,,,,,,,,,,,,,,,,,,
623333,1480811446808,,,,,,,,0.01,0.05,0.99,-3.0,-0.3,-0.3,460,0,,,,,,,,,,,,,,,,,,,
623353,1480811446828,,,,,20,,,0.01,0.05,0.99,-3.0,-0.3,-0.3,500,0,1,0,0.0,0,38.159229,-122.454391,0.0,0.002,42.4,10,3,1.5,0,0.0,-1,0.0,,0.0,0
623373,1480811446848,,,,,,,,0.01,0.05,0.99,-3.0,-0.3,-0.4,540,0,,,,,,,,,,,,,,,,,,,
623393,1480811446868,,,,,,,,0.01,0.04,0.98,-3.0,-0.2,-0.4,540,0,,,,,,,,,,,,,,,,,,,
623413,1480811446888,,,,,,,,0.01,0.05,0.99,-3.1,-0.2,-0.4,560,0,,,,,,,,,,,,,,,,,,,
623433,1480811446901,,,,,,,,0.01,0.03,0.98,-3.0,-0.2,-0.5,560,0,,,,,,,,,,,,,,,,,,,
623453,1480811446921,0,128.4,,152.8,22,140.4,,0.01,0.03,0.98,-3.0,-0.1,-0.4,620,0,1,0,0.0,0,38.159229,-122.454391,0.0,0.002,42.4,10,3,1.5,0,0.0,-1,0.0,0.0,0.0,0
623473,1480811446941,,,,,,,,0.01,0.04,0.98,-3.1,-0.2,-0.2,700,0,,,,,,,,,,,,,,,,,,,
623493,1480811446961,,,,,,,,0.01,0.04,0.98,-3.1,-0.2,-0.3,760,0,,,,,,,,,,,,,,,,,,,
623513,1480811446981,,,,,,,,0.01,0.03,0.99,-3.1,-0.1,-0.3,760,0,,,,,,,,,,,,,,,,,,,
623533,1480811447107,,,,,,,,0.01,0.04,0.98,-3.1,-0.2,-0.2,820,0,,,,,,,,,,,,,,,,,,,
623553,1480811447127,,,,,27,,,0.01,0.06,0.98,-3.1,0.0,-0.0,880,0,1,0,0.0,0,38.159229,-122.454391,0.0,0.002,42.4,10,3,1.5,0,0.0,-1,0.0,,0.0,0
623573,1480811447147,,,,,,,,0.02,0.06,0.99,-3.1,0.0,0.0,920,0,,,,,,,,,,,,,,,,,,,
623593,1480811447167,,,,,,,,0.02,0.07,0.99,-3.2,-0.2,-0.0,980,0,,,,,,,,,,,,,,,,,,,
623613,1480811447187,,,,,,,,0.02,0.08,0.99,-3.2,-0.3,0.0,920,0,,,,,,,,,,,,,,,,,,,
623633,1480811447207,,,,,,,,0.02,0.09,1.0,-3.2,-0.2,0.0,880,0,,,,,,,,,,,,,,,,,,,
623653,1480811447227,0,127.8,,152.6,33,140.5,,0.02,0.09,1.0,-3.2,-0.3,-0.1,860,0,1,0,0.0,0,38.159229,-122.454391,0.0,0.002,42.4,10,3,1.5,0,0.0,-1,0.0,0.0,0.0,0
623673,1480811447247,,,,,,,,0.02,0.08,0.99,-3.1,-0.3,-0.2,900,0,,,,,,,,,,,,,,,,,,,
623693,1480811447267,,,,,,,,0.02,0.06,1.0,-3.1,-0.2,-0.3,920,0,,,,,,,,,,,,,,,,,,,
623713,1480811447287,,,,,,,,0.02,0.06,0.99,-3.0,-0.2,-0.3,940,0,,,,,,,,,,,,,,,,,,,
623733,1480811447208,,,,,,,,0.02,0.06,1.0,-3.0,-0.2,-0.4,900,0,,,,,,,,,,,,,,,,,,,
623753,1480811447228,,,,,39,,,0.02,0.05,0.99,-3.0,-0.2,-0.4,900,0,1,0,0.0,0,38.159229,-122.454391,0.0,0.002,42.4,10,3,1.5,0,0.0,-1,0.0,,0.0,0
623773,1480811447248,,,,,,,,0.01,0.05,0.99,-3.0,-0.2,-0.3,860,0,,,,,,,,,,,,,,,,,,,
623793,1480811447268,,,,,,,,0.02,0.06,0.99,-3.0,-0.1,-0.1,840,0,,,,,,,,,,,,,,,,,,,
623813,1480811447288,,,,,,,,0.02,0.05,1.0,-3.1,-0.2,-0.1,840,0,,,,,,,,,,,,,,,,,,,
623833,1480811447308,,,,,,,,0.01,0.05,0.99,-3.0,-0.3,-0.1,800,0,,,,,,,,,,,,,,,,,,,
623853,1480811447328,0,128.3,,152.8,39,140.4,,0.02,0.05,0.99,-3.0,-0.2,-0.2,800,0,1,0,0.0,0,38.159229,-122.454391,0.0,0.002,42.4,10,3,1.5,0,0.0,-1,0.0,0.0,0.0,0
623873,1480811447348,,,,,,,,0.02,0.05,1.0,-3.1,-0.3,-0.2,800,0,,,,,,,,,,,,,,,,,,,
623893,1480811447368,,,,,,,,0.02,0.05,1.0,-3.1,-0.1,-0.2,780,0,,,,,,,,,,,,,,,,,,,
623913,1480811447388,,,,,,,,0.02,0.05,1.0,-3.1,-0.2,-0.1,780,0,,,,,,,,,,,,,,,,,,,
623933,1480811447408,,,,,,,,0.02,0.05,1.0,-3.1,-0.3,-0.1,760,0,,,,,,,,,,,,,,,,,,,
623953,1480811447428,,,,,42,,,0.02,0.05,0.99,-3.0,-0.2,-0.2,760,0,1,1,0.0,0,38.159229,-122.454391,0.0,0.002,42.4,10,3,1.5,0,0.0,-1,0.0,,0.0,0
623973,1480811447448,,,,,,,,0.02,0.05,0.99,-3.1,-0.2,-0.2,740,0,,,,,,,,,,,,,,,,,,,
623993,1480811447468,,,,,,,,0.02,0.05,0.99,-3.1,-0.2,-0.2,660,0,,,,,,,,,,,,,,,,,,,
624013,1480811447488,,,,,,,,0.02,0.05,0.99,-3.1,-0.1,-0.2,660,0,,,,,,,,,,,,,,,,,,,
624033,1480811447508,,,,,,,,0.02,0.05,0.99,-3.0,-0.2,-0.2,680,0,,,,,,,,,,,,,,,,,,,
624053,1480811447528,0,128.2,0.1,152.7,34,140.3,13.68,0.02,0.05,0.99,-3.0,-0.1,-0.1,640,0,1,1,0.0,0,38.159229,-122.454391,0.0,0.002,42.4,10,3,1.5,0,0.0,-1,0.0,0.0,0.0,0
624073,1480811447548,,,,,,,,0.02,0.05,0.99,-3.1,-0.1,-0.2,640,0,,,,,,,,,,,,,,,,,,,
624093,1480811447568,,,,,,,,0.02,0.05,0.99,-3.0,-0.2,-0.2,580,0,,,,,,,,,,,,,,,,,,,
624113,1480811447588,,,,,,,,0.02,0.05,0.99,-3.1,-0.1,-0.2,560,0,,,,,,,,,,,,,,,,,,,
624133,1480811447608,,,,,,,,0.02,0.05,0.99,-3.1,-0.1,-0.2,560,0,,,,,,,,,,,,,,,,,,,
624153,1480811447628,,,,,32,,,0.02,0.05,0.99,-3.1,-0.1,-0.1,540,0,1,0,0.0,0,38.159229,-122.454391,0.0,0.002,42.4,10,3,1.5,0,0.0,-1,0.0,,0.0,0
624173,1480811447648,,,,,,,,0.02,0.05,0.99,-3.1,-0.1,-0.2,540,0,,,,,,,,,,,,,,,,,,,
624193,1480811447668,,,,,,,,0.02,0.05,0.99,-3.1,-0.2,-0.2,520,0,,,,,,,,,,,,,,,,,,,
624213,1480811447688,,,,,,,,0.02,0.05,0.99,-3.1,-0.1,-0.2,520,0,,,,,,,,,,,,,,,,,,,
624233,1480811447708,,,,,,,,0.02,0.06,0.99,-3.1,-0.1,-0.2,500,0,,,,,,,,,,,,,,,,,,,
624253,1480811447728,0,127.0,,151.8,27,139.8,,0.02,0.05,0.99,-3.1,-0.1,-0.2,500,0,1,0,0.0,0,38.159229,-122.454391,0.0,0.002,42.4,10,3,1.5,0,0.0,-1,0.0,0.0,0.0,0
624273,1480811447748,,,,,,,,0.02,0.06,0.99,-3.1,-0.1,-0.2,500,0,,,,,,,,,,,,,,,,,,,
624293,1480811447768,,,,,,,,0.02,0.05,0.99,-3.1,-0.1,-0.2,500,0,,,,,,,,,,,,,,,,,,,
624313,1480811447788,,,,,,,,0.02,0.06,0.99,-3.1,-0.1,-0.2,500,0,,,,,,,,,,,,,,,,,,,
624333,1480811447908,,,,,,,,0.02,0.06,0.99,-3.1,-0.1,-0.2,500,0,,,,,,,,,,,,,,,,,,,
624353,1480811447928,,,,,26,,,0.02,0.06,0.99,-3.1,-0.2,-0.2,480,0,1,1,0.0,0,38.159229,-122.454391,0.0,0.002,42.4,10,3,1.7,0,0.0,-1,0.0,,0.0,0
624373,1480811447948,,,,,,,,0.02,0.06,0.99,-3.1,-0.2,-0.2,480,0,,,,,,,,,,,,,,,,,,,
624393,1480811447968,,,,,,,,0.02,0.06,0.99,-3.1,-0.2,-0.2,480,0,,,,,,,,,,,,,,,,,,,
624413,1480811447988,,,,,,,,0.02,0.06,0.99,-3.1,-0.2,-0.1,480,0,,,,,,,,,,,,,,,,,,,
624433,1480811448008,,,,,,,,0.02,0.06,0.99,-3.1,-0.2,-0.2,480,0,,,,,,,,,,,,,,,,,,,
624453,1480811448028,0,128.3,,152.6,24,139.0,,0.02,0.06,0.99,-3.1,-0.2,-0.1,480,0,1,1,0.0,0,38.159229,-122.454391,0.0,0.002,42.4,10,3,1.7,0,0.0,-1,0.0,0.0,0.0,0
624473,1480811448048,,,,,,,,0.02,0.06,0.99,-3.1,-0.2,-0.2,480,0,,,,,,,,,,,,,,,,,,,
624493,1480811448068,,,,,,,,0.02,0.06,0.99,-3.1,-0.2,-0.2,480,0,,,,,,,,,,,,,,,,,,,
624513,1480811448088,,,,,,,,0.02,0.06,0.99,-3.1,-0.2,-0.2,480,0,,,,,,,,,,,,,,,,,,,
624533,1480811448008,,,,,,,,0.02,0.06,0.99,-3.1,-0.2,-0.2,480,0,,,,,,,,,,,,,,,,,,,
624553,1480811448028,,,,,25,,,0.02,0.06,0.99,-3.1,-0.2,-0.3,480,0,1,0,0.0,0,38.159229,-122.454391,0.0,0.002,42.4,10,3,1.7,0,0.0,-1,0.0,,0.0,0
624573,1480811448048,,,,,,,,0.02,0.06,0.99,-3.1,-0.2,-0.3,480,0,,,,,,,,,,,,,,,,,,,
624593,1480811448068,,,,,,,,0.02,0.06,0.99,-3.0,-0.2,-0.3,480,0,,,,,,,,,,,,,,,,,,,
624613,1480811448088,,,,,,,,0.02,0.06,0.99,-3.1,-0.2,-0.3,460,0,,,,,,,,,,,,,,,,,,,
624633,1480811448108,,,,,,,,0.02,0.06,0.99,-3.1,-0.2,-0.3,500,0,,,,,,,,,,,,,,,,,,,
624653,1480811448128,0,127.8,,152.6,23,140.4,,0.02,0.06,0.99,-3.0,-0.2,-0.3,500,0,1,0,0.0,0,38.159229,-122.454391,0.0,0.002,42.4,10,3,1.7,0,0.0,-1,0.0,0.0,0.0,0
624673,1480811448148,,,,,,,,0.02,0.06,0.99,-3.0,-0.2,-0.3,540,0,,,,,,,,,,,,,,,,,,,
624693,1480811448168,,,,,,,,0.02,0.06,0.99,-3.0,-0.2,-0.4,540,0,,,,,,,,,,,,,,,,,,,
624713,1480811448188,,,,,,,,0.02,0.06,0.99,-3.0,-0.2,-0.4,560,0,,,,,,,,,,,,,,,,,,,
624733,1480811448208,,,,,,,,0.02,0.05,0.99,-3.0,-0.2,-0.4,560,0,,,,,,,,,,,,,,,,,,,
624753,1480811448228,,,,,28,,,0.02,0.05,0.99,-3.0,-0.1,-0.4,580,0,1,0,0.0,0,38.159229,-122.454391,0.0,0.002,42.4,10,3,1.7,0,0.0,-1,0.0,,0.0,0
624773,1480811448248,,,,,,,,0.01,0.05,0.99,-3.0,-0.2,-0.4,620,0,,,,,,,,,,,,,,,,,,,
624793,1480811448268,,,,,,,,0.01,0.05,0.99,-3.0,-0.1,-0.4,620,0,,,,,,,,,,,,,,,,,,,
624813,1480811448288,,,,,,,,0.01,0.05,0.99,-3.1,-0.1,-0.3,660,0,,,,,,,,,,,,,,,,,,,
624833,1480811448308,,,,,,,,0.01,0.05,0.99,-3.1,-0.2,-0.3,720,0,,,,,,,,,,,,,,,,,,,
624853,1480811448328,1,128.3,,153.0,27,140.2,,0.01,0.05,0.99,-3.0,-0.2,-0.4,780,0,1,1,0.0,0,38.159229,-122.454391,0.0,0.002,42.4,10,3,1.7,0,0.0,-1,0.0,0.0,0.0,0
624873,1480811448348,,,,,,,,0.01,0.04,0.99,-3.0,-0.1,-0.4,780,0,,,,,,,,,,,,,,,,,,,
624893,1480811448368,,,,,,,,0.01,0.06,0.98,-3.1,-0.1,-0.2,820,0,,,,,,,,,,,,,,,,,,,
624913,1480811448388,,,,,,,,0.02,0.07,0.99,-3.2,-0.0,0.0,900,0,,,,,,,,,,,,,,,,,,,
624933,1480811448408,,,,,,,,0.02,0.09,0.99,-3.2,-0.2,0.1,940,0,,,,,,,,,,,,,,,,,,,
624953,1480811448428,,,,,34,,,0.02,0.09,0.99,-3.2,-0.3,0.1,1000,0,1,0,0.0,0,38.159229,-122.454391,0.0,0.002,42.4,10,3,1.5,0,0.0,-1,0.0,,0.0,0
624973,1480811448448,,,,,,,,0.02,0.09,0.98,-3.2,-0.3,0.1,1040,0,,,,,,,,,,,,,,,,,,,
624993,1480811448468,,,,,,,,0.02,0.1,0.98,-3.2,-0.2,0.1,1080,0,,,,,,,,,,,,,,,,,,,
625013,1480811448488,,,,,,,,0.02,0.09,0.98,-3.2,-0.2,0.0,1180,0,,,,,,,,,,,,,,,,,,,
625033,1480811448507,,,,,,,,0.02,0.09,0.98,-3.1,-0.1,-0.1,1200,0,,,,,,,,,,,,,,,,,,,
625053,1480811448527,0,127.0,0.0,151.4,49,139.2,14.66,0.02,0.08,0.99,-3.1,-0.2,-0.2,1240,0,1,1,0.0,0,38.159229,-122.454391,0.0,0.002,42.4,10,3,1.5,0,0.0,-1,0.0,0.0,0.0,0
625073,1480811448547,,,,,,,,0.02,0.09,0.99,-3.1,-0.3,-0.2,1260,0,,,,,,,,,,,,,,,,,,,
625093,1480811448567,,,,,,,,0.03,0.1,0.98,-3.1,-0.2,-0.2,1320,0,,,,,,,,,,,,,,,,,,,
625113,1480811448587,,,,,,,,0.03,0.08,0.98,-3.1,-0.2,-0.2,1360,0,,,,,,,,,,,,,,,,,,,
625133,1480811448707,,,,,,,,0.02,0.08,0.97,-3.0,-0.3,-0.2,1360,0,,,,,,,,,,,,,,,,,,,
625153,1480811448727,,,,,51,,,0.03,0.07,0.98,-3.1,-0.4,-0.1,1420,0,1,1,0.0,0,38.159229,-122.454391,0.0,0.002,42.4,10,3,1.5,0,0.0,-1,0.0,,0.0,0
625173,1480811448747,,,,,,,,0.02,0.06,0.99,-3.0,-0.3,-0.2,1440,0,,,,,,,,,,,,,,,,,,,
625193,1480811448767,,,,,,,,0.02,0.07,1.0,-3.0,0.0,-0.2,1480,0,,,,,,,,,,,,,,,,,,,
625213,1480811448787,,,,,,,,0.03,0.07,1.0,-2.9,0.1,-0.2,1500,0,,,,,,,,,,,,,,,,,,,
625233,1480811448807,,,,,,,,0.03,0.08,1.0,-2.9,0.1,-0.2,1520,0,,,,,,,,,,,,,,,,,,,
625253,1480811448827,0,127.8,,151.7,52,138.8,,0.03,0.08,1.0,-2.9,0.3,-0.2,1540,0,1,0,0.0,0,38.159229,-122.454391,0.0,0.002,42.4,10,3,1.5,0,0.0,-1,0.0,0.0,0.0,0
625273,1480811448847,,,,,,,,0.03,0.08,1.01,-2.9,0.3,-0.2,1560,0,,,,,,,,,,,,,,,,,,,
625293,1480811448867,,,,,,,,0.02,0.08,1.01,-2.9,0.4,-0.3,1580,0,,,,,,,,,,,,,,,,,,,
625313,1480811448887,,,,,,,,0.03,0.07,1.01,-2.9,0.3,-0.2,1580,0,,,,,,,,,,,,,,,,,,,
625333,1480811448808,,,,,,,,0.03,0.07,1.0,-2.9,0.3,-0.2,1600,0,,,,,,,,,,,,,,,,,,,
625353,1480811448828,,,,,58,,,0.02,0.08,1.0,-2.9,0.1,-0.2,1620,0,1,0,0.0,0,38.159229,-122.454391,0.0,0.002,42.4,10,3,1.5,0,0.0,-1,0.0,,0.0,0
625373,1480811448848,,,,,,,,0.02,0.07,1.0,-2.9,0.1,-0.2,1640,0,,,,,,,,,,,,,,,,,,,
625393,1480811448868,,,,,,,,0.02,0.07,1.0,-2.9,0.3,-0.2,1680,0,,,,,,,,,,,,,,,,,,,
625413,1480811448888,,,,,,,,0.02,0.07,0.99,-2.9,0.1,-0.2,1660,0,,,,,,,,,,,,,,,,,,,
625433,1480811448900,,,,,,,,0.02,0.07,1.0,-2.9,0.1,-0.2,1660,0,,,,,,,,,,,,,,,,,,,
625453,1480811448920,0,127.9,,151.8,60,138.9,,0.02,0.07,0.99,-2.9,0.2,-0.2,1680,0,1,0,0.0,0,38.159229,-122.454391,0.0,0.002,42.4,10,3,1.5,0,0.0,-1,0.0,0.0,0.0,0
625473,1480811448940,,,,,,,,0.02,0.07,0.99,-3.0,-0.0,-0.2,1660,0,,,,,,,,,,,,,,,,,,,
