"Interval"|"ms"|0|0|1,"Utc"|"ms"|0|0|1,"FuelLevel"|"F"|0|100|5,"OilTemp"|"F"|0.0|300.0|5,"CoolantPressPSI"|"PSI"|0.0|20.0|1,"Coolant"|"F"|0.0|300.0|5,"OilPress"|"PSI"|0|150|10,"EngineTemp"|"F"|0.0|300.0|5,"Battery"|"Volts"|0.0|20.0|1,"AccelX"|"G"|-3.0|3.0|50,"AccelY"|"G"|-3.0|3.0|50,"AccelZ"|"G"|-3.0|3.0|50,"Yaw"|"Deg/Sec"|-300.0|300.0|50,"Pitch"|"Deg/Sec"|-300.0|300.0|50,"Roll"|"Deg/Sec"|-300.0|300.0|50,"RPM"|""|0|10000|50,"Driveshaft"|"RPM"|0|5000|50,"GPIO1"|""|0|1|10,"GPIO2"|""|0|1|10,"GearRatio"|""|-5.0|5.0|10,"Gear"|""|-1|5|10,"Latitude"|"Degrees"|-180.0|180.0|10,"Longitude"|"Degrees"|-180.0|180.0|10,"Speed"|"MPH"|0.0|150.0|10,"Distance"|"Miles"|0.0|0.0|10,"Altitude"|"Feet"|0.0|4000.0|10,"GPSSats"|""|0|20|10,"GPSQual"|""|0|5|10,"GPSDOP"|""|0.0|20.0|10,"LapCount"|""|0|0|10,"LapTime"|"Min"|0.0|0.0|10,"Sector"|""|0|0|10,"SectorTime"|"Min"|0.0|0.0|10,"PredTime"|"Min"|0.0|0.0|5,"ElapsedTime"|"Min"|0.0|0.0|10,"CurrentLap"|""|0|0|10
1769547,1480653024394,,,,,,,,-0.05,0.11,1.0,-3.1,0.1,0.4,160,0,,,,,,,,,,,,,,,,,,,
1769567,1480653024414,,,,,,,,-0.05,0.11,1.01,-3.1,0.1,0.4,160,0,,,,,,,,,,,,,,,,,,,
1769587,1480653024434,,,,,,,,-0.05,0.1,1.0,-3.1,-0.0,0.3,160,0,,,,,,,,,,,,,,,,,,,
1769607,1480653024454,,,,,,,,-0.05,0.11,1.0,-3.1,0.0,0.3,260,0,,,,,,,,,,,,,,,,,,,
1769627,1480653024474,0,45.3,,47.4,1,50.3,,-0.05,0.1,1.01,-3.1,0.2,0.3,260,0,1,0,0.0,0,37.478367,-122.203728,0.0,0.0,13.5,9,3,1.7,0,0.0,-1,0.0,0.0,0.0,0
1769647,1480653024494,,,,,,,,-0.04,0.09,1.01,-3.1,0.1,0.2,260,0,,,,,,,,,,,,,,,,,,,
1769667,1480653024514,,,,,,,,-0.05,0.08,1.0,-3.1,0.2,0.2,420,0,,,,,,,,,,,,,,,,,,,
1769687,1480653024534,,,,,,,,-0.05,0.09,1.0,-3.1,0.2,0.1,420,0,,,,,,,,,,,,,,,,,,,
1769707,1480653024554,,,,,,,,-0.05,0.08,1.0,-3.1,0.2,0.1,520,0,,,,,,,,,,,,,,,,,,,
1769727,1480653024574,,,,,1,,,-0.04,0.09,0.99,-3.1,0.2,0.1,620,0,1,0,0.0,0,37.478367,-122.203728,0.0,0.0,13.5,9,3,1.7,0,0.0,-1,0.0,,0.0,0
1769747,1480653024593,,,,,,,,-0.04,0.09,1.0,-3.1,0.2,0.1,620,0,,,,,,,,,,,,,,,,,,,
1769767,1480653024613,,,,,,,,-0.04,0.08,1.0,-3.1,0.2,0.1,620,0,,,,,,,,,,,,,,,,,,,
1769787,1480653024633,,,,,,,,-0.04,0.09,1.01,-3.1,0.2,0.1,620,0,,,,,,,,,,,,,,,,,,,
1769807,1480653024653,,,,,,,,-0.05,0.07,1.0,-3.1,0.2,0.0,540,0,,,,,,,,,,,,,,,,,,,
1769827,1480653024673,0,44.8,,46.2,3,50.3,,-0.04,0.08,1.0,-3.1,0.2,0.0,540,0,1,0,0.0,0,37.478367,-122.203728,0.0,0.0,13.5,9,3,1.7,0,0.0,-1,0.0,0.0,0.0,0
1769847,1480653024694,,,,,,,,-0.05,0.07,0.99,-3.1,0.2,0.0,440,0,,,,,,,,,,,,,,,,,,,
1769867,1480653024714,,,,,,,,-0.04,0.07,0.99,-3.1,0.3,-0.0,440,0,,,,,,,,,,,,,,,,,,,
1769887,1480653024734,,,,,,,,-0.04,0.07,0.99,-3.1,0.3,0.0,420,0,,,,,,,,,,,,,,,,,,,
1769907,1480653024754,,,,,,,,-0.04,0.07,1.0,-3.1,0.3,0.0,420,0,,,,,,,,,,,,,,,,,,,
1769927,1480653024774,,,,,4,,,-0.04,0.08,1.0,-3.1,0.3,0.0,460,0,1,0,0.0,0,37.478367,-122.203728,0.0,0.0,13.5,9,3,1.7,0,0.0,-1,0.0,,0.0,0
1769947,1480653024794,,,,,,,,-0.05,0.07,1.0,-3.1,0.3,0.0,460,0,,,,,,,,,,,,,,,,,,,
1769967,1480653024814,,,,,,,,-0.05,0.08,1.0,-3.1,0.4,-0.0,460,0,,,,,,,,,,,,,,,,,,,
1769987,1480653024834,,,,,,,,-0.04,0.07,1.0,-3.0,0.4,-0.0,360,0,,,,,,,,,,,,,,,,,,,
1770007,1480653024854,,,,,,,,-0.04,0.08,1.0,-3.0,0.4,-0.0,360,0,,,,,,,,,,,,,,,,,,,
1770027,1480653024874,0,43.4,,44.3,4,47.9,,-0.04,0.08,1.0,-3.1,0.3,0.0,400,0,1,0,0.0,0,37.478367,-122.203728,0.0,0.0,13.5,9,3,1.7,0,0.0,-1,0.0,0.0,0.0,0
1770047,1480653024894,,,,,,,,-0.04,0.07,1.0,-3.1,0.3,0.0,400,0,,,,,,,,,,,,,,,,,,,
1770067,1480653024907,,,,,,,,-0.04,0.08,1.0,-3.1,0.2,0.0,400,0,,,,,,,,,,,,,,,,,,,
1770087,1480653024927,,,,,,,,-0.04,0.08,1.0,-3.1,0.2,-0.0,340,0,,,,,,,,,,,,,,,,,,,
1770107,1480653024947,,,,,,,,-0.05,0.08,1.0,-3.1,0.3,-0.0,340,0,,,,,,,,,,,,,,,,,,,
1770127,1480653024967,,,,,4,,,-0.04,0.09,1.01,-3.1,0.2,-0.1,340,0,1,0,0.0,0,37.478367,-122.203728,0.0,0.0,13.5,9,3,1.7,0,0.0,-1,0.0,,0.0,0
1770147,1480653025093,,,,,,,,-0.04,0.09,1.01,-3.1,0.1,-0.0,340,0,,,,,,,,,,,,,,,,,,,
1770167,1480653025113,,,,,,,,-0.04,0.09,1.01,-3.1,0.2,0.0,240,0,,,,,,,,,,,,,,,,,,,
1770187,1480653025133,,,,,,,,-0.04,0.09,1.0,-3.2,0.2,0.0,240,0,,,,,,,,,,,,,,,,,,,
1770207,1480653025153,,,,,,,,-0.04,0.09,1.0,-3.1,0.1,0.0,240,0,,,,,,,,,,,,,,,,,,,
1770227,1480653025173,0,46.7,0.0,47.8,6,49.7,12.75,-0.05,0.09,1.0,-3.1,0.0,0.1,300,0,1,0,0.0,0,37.478367,-122.203728,0.0,0.0,13.5,9,3,1.7,0,0.0,-1,0.0,0.0,0.0,0
1770247,1480653025193,,,,,,,,-0.04,0.1,1.0,-3.1,0.0,0.1,300,0,,,,,,,,,,,,,,,,,,,
1770267,1480653025213,,,,,,,,-0.04,0.1,1.0,-3.1,0.1,0.1,460,0,,,,,,,,,,,,,,,,,,,
1770287,1480653025233,,,,,,,,-0.04,0.1,1.01,-3.1,0.1,0.0,460,0,,,,,,,,,,,,,,,,,,,
1770307,1480653025253,,,,,,,,-0.04,0.11,1.0,-3.1,0.1,0.0,500,0,,,,,,,,,,,,,,,,,,,
1770327,1480653025273,,,,,7,,,-0.04,0.1,1.0,-3.1,0.1,0.0,500,0,1,0,0.0,0,37.478367,-122.203728,0.0,0.0,13.5,9,3,1.7,0,0.0,-1,0.0,,0.0,0
1770347,1480653025192,,,,,,,,-0.04,0.11,1.01,-3.1,0.1,0.0,560,0,,,,,,,,,,,,,,,,,,,
1770367,1480653025212,,,,,,,,-0.04,0.1,1.01,-3.1,0.0,0.0,560,0,,,,,,,,,,,,,,,,,,,
1770387,1480653025232,,,,,,,,-0.04,0.1,1.01,-3.2,0.1,0.1,540,0,,,,,,,,,,,,,,,,,,,
1770407,1480653025252,,,,,,,,-0.04,0.1,1.01,-3.1,0.1,0.0,540,0,,,,,,,,,,,,,,,,,,,
1770427,1480653025272,0,43.7,,45.5,8,47.4,,-0.04,0.1,1.01,-3.2,0.1,0.1,440,0,1,0,0.0,0,37.478367,-122.203728,0.0,0.0,13.5,9,3,1.7,0,0.0,-1,0.0,0.0,0.0,0
1770447,1480653025293,,,,,,,,-0.04,0.09,1.0,-3.2,0.2,-0.0,440,0,,,,,,,,,,,,,,,,,,,
1770467,1480653025313,,,,,,,,-0.04,0.09,1.01,-3.1,0.2,0.0,440,0,,,,,,,,,,,,,,,,,,,
1770487,1480653025333,,,,,,,,-0.05,0.08,1.0,-3.2,0.2,0.0,400,0,,,,,,,,,,,,,,,,,,,
1770507,1480653025353,,,,,,,,-0.05,0.09,1.0,-3.2,0.1,0.1,580,0,,,,,,,,,,,,,,,,,,,
1770527,1480653025373,,,,,9,,,-0.04,0.07,1.0,-3.2,0.2,0.1,580,0,1,0,0.0,0,37.478367,-122.203728,0.0,0.0,13.5,9,3,1.7,0,0.0,-1,0.0,,0.0,0
1770547,1480653025393,,,,,,,,-0.04,0.07,1.0,-3.2,0.2,0.0,520,0,,,,,,,,,,,,,,,,,,,
1770567,1480653025413,,,,,,,,-0.05,0.06,1.0,-3.1,0.2,-0.0,520,0,,,,,,,,,,,,,,,,,,,
1770587,1480653025433,,,,,,,,-0.05,0.07,1.0,-3.1,0.3,-0.0,560,0,,,,,,,,,,,,,,,,,,,
1770607,1480653025453,,,,,,,,-0.05,0.08,1.0,-3.1,0.2,0.0,560,0,,,,,,,,,,,,,,,,,,,
1770627,1480653025473,0,46.3,,47.5,11,49.3,,-0.05,0.08,1.01,-3.2,0.3,0.1,560,0,1,0,0.0,0,37.478367,-122.203728,0.0,0.0,13.5,9,3,1.7,0,0.0,-1,0.0,0.0,0.0,0
1770647,1480653025493,,,,,,,,-0.05,0.07,1.0,-3.1,0.1,0.1,560,0,,,,,,,,,,,,,,,,,,,
1770667,1480653025513,,,,,,,,-0.05,0.07,1.0,-3.2,0.1,0.1,540,0,,,,,,,,,,,,,,,,,,,
1770687,1480653025533,,,,,,,,-0.05,0.08,1.0,-3.1,0.1,0.1,620,0,,,,,,,,,,,,,,,,,,,
1770707,1480653025553,,,,,,,,-0.05,0.07,1.0,-3.1,0.1,0.0,620,0,,,,,,,,,,,,,,,,,,,
1770727,1480653025573,,,,,12,,,-0.05,0.08,1.0,-3.1,0.1,0.0,700,0,1,0,0.0,0,37.478367,-122.203728,0.0,0.0,13.5,9,3,1.7,0,0.0,-1,0.0,,0.0,0
1770747,1480653025594,,,,,,,,-0.05,0.09,1.0,-3.2,-0.1,0.1,720,0,,,,,,,,,,,,,,,,,,,
1770767,1480653025614,,,,,,,,-0.04,0.07,0.99,-3.2,0.0,0.0,680,0,,,,,,,,,,,,,,,,,,,
1770787,1480653025634,,,,,,,,-0.05,0.07,1.0,-3.1,0.0,0.0,680,0,,,,,,,,,,,,,,,,,,,
1770807,1480653025654,,,,,,,,-0.05,0.07,0.99,-3.2,0.1,0.1,780,0,,,,,,,,,,,,,,,,,,,
1770827,1480653025674,0,46.4,,47.7,15,49.7,,-0.05,0.09,0.99,-3.1,0.1,0.1,700,0,1,0,0.0,0,37.478367,-122.203728,0.0,0.0,13.5,9,3,1.7,0,0.0,-1,0.0,0.0,0.0,0
1770847,1480653025693,,,,,,,,-0.05,0.09,0.99,-3.2,-0.0,0.1,760,0,,,,,,,,,,,,,,,,,,,
1770867,1480653025713,,,,,,,,-0.05,0.09,1.0,-3.2,-0.1,0.1,760,0,,,,,,,,,,,,,,,,,,,
1770887,1480653025733,,,,,,,,-0.06,0.09,1.0,-3.2,-0.2,0.1,740,0,,,,,,,,,,,,,,,,,,,
1770907,1480653025753,,,,,,,,-0.05,0.1,1.0,-3.2,-0.3,0.2,740,0,,,,,,,,,,,,,,,,,,,
1770927,1480653025773,,,,,15,,,-0.05,0.09,0.99,-3.2,-0.2,0.1,740,0,1,0,0.0,0,37.478367,-122.203728,0.0,0.0,13.5,9,3,1.7,0,0.0,-1,0.0,,0.0,0
1770947,1480653025893,,,,,,,,-0.05,0.09,0.99,-3.2,-0.2,0.1,740,0,,,,,,,,,,,,,,,,,,,
1770967,1480653025913,,,,,,,,-0.06,0.1,0.99,-3.2,-0.1,0.1,740,0,,,,,,,,,,,,,,,,,,,
1770987,1480653025933,,,,,,,,-0.06,0.1,1.0,-3.2,-0.2,0.2,720,0,,,,,,,,,,,,,,,,,,,
1771007,1480653025953,,,,,,,,-0.06,0.09,1.0,-3.2,-0.2,0.1,800,0,,,,,,,,,,,,,,,,,,,
1771027,1480653025973,0,44.4,,46.4,21,46.9,,-0.06,0.09,1.0,-3.1,-0.1,0.1,800,0,1,0,0.0,0,37.478367,-122.203728,0.0,0.0,13.5,9,3,1.7,0,0.0,-1,0.0,0.0,0.0,0
1771047,1480653025993,,,,,,,,-0.06,0.09,0.99,-3.1,-0.0,0.1,840,0,,,,,,,,,,,,,,,,,,,
1771067,1480653026013,,,,,,,,-0.05,0.08,1.0,-3.1,-0.1,0.1,860,0,,,,,,,,,,,,,,,,,,,
1771087,1480653026033,,,,,,,,-0.04,0.08,0.99,-3.1,0.1,0.1,900,0,,,,,,,,,,,,,,,,,,,
1771107,1480653026053,,,,,,,,-0.05,0.08,0.99,-3.2,-0.0,0.2,920,0,,,,,,,,,,,,,,,,,,,
1771127,1480653026073,,,,,26,,,-0.05,0.09,1.0,-3.2,-0.2,0.2,960,0,1,0,0.0,0,37.478367,-122.203728,0.0,0.0,13.5,9,3,1.7,0,0.0,-1,0.0,,0.0,0
1771147,1480653025994,,,,,,,,-0.06,0.09,1.0,-3.1,-0.3,0.2,980,0,,,,,,,,,,,,,,,,,,,
1771167,1480653026014,,,,,,,,-0.06,0.09,1.01,-3.1,-0.2,0.2,1000,0,,,,,,,,,,,,,,,,,,,
1771187,1480653026034,,,,,,,,-0.06,0.09,1.02,-3.1,-0.2,0.1,1020,0,,,,,,,,,,,,,,,,,,,
1771207,1480653026054,,,,,,,,-0.06,0.1,1.02,-3.1,-0.2,0.1,1040,0,,,,,,,,,,,,,,,,,,,
1771227,1480653026074,0,45.6,0.0,45.5,36,50.0,14.98,-0.06,0.11,1.01,-3.2,-0.3,0.1,1060,0,1,0,0.0,0,37.478367,-122.203728,0.0,0.0,13.5,9,3,1.7,0,0.0,-1,0.0,0.0,0.0,0
1771247,1480653026095,,,,,,,,-0.05,0.11,1.01,-3.2,-0.3,0.1,1080,0,,,,,,,,,,,,,,,,,,,
1771267,1480653026115,,,,,,,,-0.05,0.12,1.01,-3.2,-0.2,0.2,1120,0,,,,,,,,,,,,,,,,,,,
1771287,1480653026135,,,,,,,,-0.05,0.1,1.01,-3.2,-0.1,0.1,1120,0,,,,,,,,,,,,,,,,,,,
1771307,1480653026155,,,,,,,,-0.05,0.1,1.0,-3.2,-0.1,0.1,1140,0,,,,,,,,,,,,,,,,,,,
1771327,1480653026175,,,,,44,,,-0.05,0.09,1.0,-3.2,-0.1,0.1,1160,0,1,0,0.0,0,37.478367,-122.203728,0.0,0.0,13.5,9,3,1.7,0,0.0,-1,0.0,,0.0,0
1771347,1480653026194,,,,,,,,-0.05,0.09,0.99,-3.2,0.0,0.1,1160,0,,,,,,,,,,,,,,,,,,,
1771367,1480653026214,,,,,,,,-0.05,0.09,1.0,-3.1,0.1,0.1,1180,0,,,,,,,,,,,,,,,,,,,
1771387,1480653026234,,,,,,,,-0.05,0.09,1.0,-3.1,-0.1,0.1,1200,0,,,,,,,,,,,,,,,,,,,
1771407,1480653026254,,,,,,,,-0.04,0.09,1.0,-3.1,0.1,0.1,1220,0,,,,,,,,,,,,,,,,,,,
1771427,1480653026274,0,44.9,,44.9,50,49.3,,-0.04,0.08,1.01,-3.1,0.2,0.1,1220,0,1,0,0.0,0,37.478367,-122.203728,0.0,0.0,13.5,9,3,1.7,0,0.0,-1,0.0,0.0,0.0,0
1771447,1480653026294,,,,,,,,-0.05,0.08,1.0,-3.1,0.1,0.1,1220,0,,,,,,,,,,,,,,,,,,,
1771467,1480653026314,,,,,,,,-0.05,0.08,1.0,-3.1,0.0,0.1,1220,0,,,,,,,,,,,,,,,,,,,
1771487,1480653026334,,,,,,,,-0.04,0.08,1.0,-3.1,0.1,0.1,1200,0,,,,,,,,,,,,,,,,,,,
1771507,1480653026354,,,,,,,,-0.04,0.08,1.0,-3.1,0.2,0.1,1220,0,,,,,,,,,,,,,,,,,,,
1771527,1480653026374,,,,,57,,,-0.04,0.08,1.0,-3.1,0.3,0.1,1200,0,1,0,0.0,0,37.478367,-122.203728,0.0,0.0,13.5,9,3,1.7,0,0.0,-1,0.0,,0.0,0
1771547,1480653026394,,,,,,,,-0.04,0.08,1.0,-3.1,0.2,0.1,1200,0,,,,,,,,,,,,,,,,,,,
1771567,1480653026414,,,,,,,,-0.04,0.08,1.0,-3.1,0.1,0.1,1200,0,,,,,,,,,,,,,,,,,,,
1771587,1480653026434,,,,,,,,-0.04,0.07,1.0,-3.1,0.2,0.0,1180,0,,,,,,,,,,,,,,,,,,,
1771607,1480653026454,,,,,,,,-0.04,0.07,1.01,-3.1,0.3,0.0,1180,0,,,,,,,,,,,,,,,,,,,
1771627,1480653026474,0,44.0,,44.4,59,48.5,,-0.05,0.07,1.0,-3.1,0.3,0.0,1160,0,1,0,0.0,0,37.478367,-122.203728,0.0,0.0,13.5,9,3,1.7,0,0.0,-1,0.0,0.0,0.0,0
1771647,1480653026494,,,,,,,,-0.05,0.07,1.0,-3.1,0.3,0.0,1160,0,,,,,,,,,,,,,,,,,,,
1771667,1480653026514,,,,,,,,-0.05,0.07,1.01,-3.1,0.3,0.0,1140,0,,,,,,,,,,,,,,,,,,,
1771687,1480653026534,,,,,,,,-0.04,0.07,1.0,-3.1,0.2,0.0,1120,0,,,,,,,,,,,,,,,,,,,
1771707,1480653026554,,,,,,,,-0.04,0.07,1.0,-3.1,0.2,0.1,1060,0,,,,,,,,,,,,,,,,,,,
1771727,1480653026574,,,,,60,,,-0.04,0.07,1.0,-3.1,0.2,0.1,1040,0,1,0,0.0,0,37.478367,-122.203728,0.0,0.0,13.5,9,3,1.7,0,0.0,-1,0.0,,0.0,0
1771747,1480653026693,,,,,,,,-0.04,0.07,1.0,-3.1,0.4,0.1,1020,0,,,,,,,,,,,,,,,,,,,
1771767,1480653026713,,,,,,,,-0.04,0.07,1.0,-3.1,0.4,0.0,1000,0,,,,,,,,,,,,,,,,,,,
1771787,1480653026733,,,,,,,,-0.04,0.07,1.0,-3.1,0.3,0.1,980,0,,,,,,,,,,,,,,,,,,,
1771807,1480653026753,,,,,,,,-0.04,0.07,0.99,-3.1,0.2,0.0,980,0,,,,,,,,,,,,,,,,,,,
1771827,1480653026773,1,46.4,,46.6,60,50.2,,-0.04,0.07,0.99,-3.1,0.1,0.0,960,0,1,0,0.0,0,37.478367,-122.203728,0.0,0.0,13.5,9,3,1.7,0,0.0,-1,0.0,0.0,0.0,0
1771847,1480653026793,,,,,,,,-0.04,0.07,0.99,-3.1,0.1,0.0,960,0,,,,,,,,,,,,,,,,,,,
1771867,1480653026813,,,,,,,,-0.04,0.06,0.99,-3.1,0.1,-0.0,960,0,,,,,,,,,,,,,,,,,,,
1771887,1480653026833,,,,,,,,-0.04,0.06,0.99,-3.1,0.2,-0.0,960,0,,,,,,,,,,,,,,,,,,,
1771907,1480653026853,,,,,,,,-0.03,0.06,0.99,-3.1,0.4,-0.0,940,0,,,,,,,,,,,,,,,,,,,
1771927,1480653026873,,,,,60,,,-0.03,0.05,0.99,-3.1,0.5,-0.0,940,0,1,0,0.0,0,37.478367,-122.203728,0.0,0.0,13.5,9,3,1.7,0,0.0,-1,0.0,,0.0,0
1771947,1480653026794,,,,,,,,-0.03,0.05,0.99,-3.1,0.5,0.0,900,0,,,,,,,,,,,,,,,,,,,
1771967,1480653026814,,,,,,,,-0.03,0.06,0.99,-3.1,0.3,0.0,900,0,,,,,,,,,,,,,,,,,,,
1771987,1480653026834,,,,,,,,-0.04,0.06,1.0,-3.1,0.1,0.0,900,0,,,,,,,,,,,,,,,,,,,
1772007,1480653026854,,,,,,,,-0.04,0.06,1.0,-3.1,0.2,0.0,900,0,,,,,,,,,,,,,,,,,,,
1772027,1480653026874,0,46.6,,47.6,58,49.7,,-0.04,0.06,1.0,-3.1,0.2,0.1,880,0,1,0,0.0,0,37.478367,-122.203728,0.0,0.0,13.5,9,3,1.7,0,0.0,-1,0.0,0.0,0.0,0
1772047,1480653026894,,,,,,,,-0.04,0.06,1.0,-3.1,0.2,0.1,900,0,,,,,,,,,,,,,,,,,,,
1772067,1480653026908,,,,,,,,-0.04,0.06,1.0,-3.1,0.2,0.0,880,0,,,,,,,,,,,,,,,,,,,
1772087,1480653026928,,,,,,,,-0.04,0.06,1.0,-3.1,0.2,0.0,880,0,,,,,,,,,,,,,,,,,,,
1772107,1480653026948,,,,,,,,-0.04,0.06,0.99,-3.1,0.2,0.0,880,0,,,,,,,,,,,,,,,,,,,
1772127,1480653026968,,,,,59,,,-0.04,0.06,1.0,-3.1,0.1,0.0,860,0,1,0,0.0,0,37.478367,-122.203728,0.0,0.0,13.5,9,3,1.7,0,0.0,-1,0.0,,0.0,0
1772147,1480653026995,,,,,,,,-0.04,0.06,1.0,-3.1,0.3,0.1,880,0,,,,,,,,,,,,,,,,,,,
1772167,1480653027015,,,,,,,,-0.04,0.07,1.0,-3.1,0.3,0.1,860,0,,,,,,,,,,,,,,,,,,,
1772187,1480653027035,,,,,,,,-0.04,0.07,1.01,-3.1,0.2,0.1,880,0,,,,,,,,,,,,,,,,,,,
1772207,1480653027055,,,,,,,,-0.05,0.07,1.0,-3.1,0.2,0.1,880,0,,,,,,,,,,,,,,,,,,,
1772227,1480653027075,0,45.4,0.0,45.4,59,49.7,14.95,-0.05,0.07,1.0,-3.1,0.2,0.0,880,0,1,0,0.0,0,37.478367,-122.203728,0.0,0.0,13.5,9,3,1.7,0,0.0,-1,0.0,0.0,0.0,0
1772247,1480653027094,,,,,,,,-0.05,0.06,1.0,-3.1,0.2,-0.0,880,0,,,,,,,,,,,,,,,,,,,
1772267,1480653027114,,,,,,,,-0.04,0.06,1.0,-3.1,0.3,-0.0,880,0,,,,,,,,,,,,,,,,,,,
1772287,1480653027134,,,,,,,,-0.04,0.06,0.99,-3.1,0.2,-0.0,900,0,,,,,,,,,,,,,,,,,,,
1772307,1480653027154,,,,,,,,-0.04,0.06,0.99,-3.1,0.2,-0.0,900,0,,,,,,,,,,,,,,,,,,,
1772327,1480653027174,,,,,59,,,-0.04,0.06,0.99,-3.1,0.5,0.0,900,0,1,0,0.0,0,37.478367,-122.203728,0.0,0.0,13.5,9,3,1.7,0,0.0,-1,0.0,,0.0,0
1772347,1480653027191,,,,,,,,-0.04,0.07,0.99,-3.1,0.4,0.1,900,0,,,,,,,,,,,,,,,,,,,
1772367,1480653027211,,,,,,,,-0.04,0.07,1.0,-3.1,0.1,0.1,920,0,,,,,,,,,,,,,,,,,,,
1772387,1480653027231,,,,,,,,-0.05,0.09,1.01,-3.1,-0.0,0.2,940,0,,,,,,,,,,,,,,,,,,,
1772407,1480653027251,,,,,,,,-0.05,0.08,1.02,-3.2,0.2,0.2,960,0,,,,,,,,,,,,,,,,,,,
1772427,1480653027271,0,46.7,,47.1,60,49.9,,-0.05,0.08,1.02,-3.1,0.5,0.2,960,0,1,0,0.0,0,37.478367,-122.203728,0.0,0.0,13.5,9,3,1.7,0,0.0,-1,0.0,0.0,0.0,0
1772447,1480653027294,,,,,,,,-0.05,0.08,1.02,-3.1,0.6,0.2,980,0,,,,,,,,,,,,,,,,,,,
1772467,1480653027314,,,,,,,,-0.05,0.09,1.02,-3.1,0.5,0.2,1000,0,,,,,,,,,,,,,,,,,,,
1772487,1480653027334,,,,,,,,-0.05,0.11,1.02,-3.1,0.4,0.2,1000,0,,,,,,,,,,,,,,,,,,,
1772507,1480653027354,,,,,,,,-0.05,0.11,1.02,-3.1,0.2,0.2,1020,0,,,,,,,,,,,,,,,,,,,
1772527,1480653027374,,,,,61,,,-0.05,0.12,1.03,-3.1,0.3,0.2,1020,0,1,0,0.0,0,37.478367,-122.203728,0.0,0.0,13.5,9,3,1.7,0,0.0,-1,0.0,,0.0,0
1772547,1480653027493,,,,,,,,-0.05,0.13,1.03,-3.1,0.4,0.2,1040,0,,,,,,,,,,,,,,,,,,,
1772567,1480653027513,,,,,,,,-0.06,0.12,1.04,-3.1,0.4,0.2,1040,0,,,,,,,,,,,,,,,,,,,
1772587,1480653027533,,,,,,,,-0.06,0.12,1.05,-3.2,0.4,0.3,1040,0,,,,,,,,,,,,,,,,,,,
1772607,1480653027553,,,,,,,,-0.06,0.13,1.05,-3.2,0.3,0.3,1060,0,,,,,,,,,,,,,,,,,,,
1772627,1480653027573,0,46.6,,47.1,63,50.0,,-0.06,0.13,1.04,-3.2,0.1,0.3,1060,0,1,0,0.0,0,37.478367,-122.203728,0.0,0.0,13.5,9,3,1.7,0,0.0,-1,0.0,0.0,0.0,0
1772647,1480653027593,,,,,,,,-0.06,0.13,1.04,-3.2,0.1,0.3,1060,0,,,,,,,,,,,,,,,,,,,
1772667,1480653027613,,,,,,,,-0.05,0.13,1.04,-3.2,0.2,0.3,1060,0,,,,,,,,,,,,,,,,,,,
1772687,1480653027633,,,,,,,,-0.05,0.11,1.04,-3.2,0.2,0.3,1080,0,,,,,,,,,,,,,,,,,,,
1772707,1480653027653,,,,,,,,-0.05,0.1,1.03,-3.2,0.3,0.2,1080,0,,,,,,,,,,,,,,,,,,,
1772727,1480653027673,,,,,63,,,-0.05,0.09,1.02,-3.2,0.4,0.1,1080,0,1,0,0.0,0,37.478367,-122.203728,0.0,0.0,13.5,9,3,1.7,0,0.0,-1,0.0,,0.0,0
1772747,1480653027594,,,,,,,,-0.05,0.08,1.02,-3.2,0.4,0.1,1080,0,,,,,,,,,,,,,,,,,,,
1772767,1480653027614,,,,,,,,-0.05,0.08,1.01,-3.2,0.3,0.0,1080,0,,,,,,,,,,,,,,,,,,,
1772787,1480653027634,,,,,,,,-0.05,0.07,1.01,-3.1,0.3,0.0,1080,0,,,,,,,,,,,,,,,,,,,
1772807,1480653027654,,,,,,,,-0.05,0.08,1.01,-3.1,0.3,0.0,1080,0,,,,,,,,,,,,,,,,,,,
1772827,1480653027674,0,44.1,,45.6,64,48.4,,-0.06,0.09,1.01,-3.1,0.3,0.1,1080,0,1,0,0.0,0,37.478367,-122.203728,0.0,0.0,13.5,9,3,1.7,0,0.0,-1,0.0,0.0,0.0,0
1772847,1480653027693,,,,,,,,-0.06,0.1,1.01,-3.2,0.1,0.1,1080,0,,,,,,,,,,,,,,,,,,,
1772867,1480653027713,,,,,,,,-0.05,0.1,1.02,-3.2,0.1,0.1,1080,0,,,,,,,,,,,,,,,,,,,
1772887,1480653027733,,,,,,,,-0.05,0.1,1.01,-3.2,0.1,0.2,1060,0,,,,,,,,,,,,,,,,,,,
1772907,1480653027753,,,,,,,,-0.05,0.09,1.01,-3.2,0.2,0.1,1060,0,,,,,,,,,,,,,,,,,,,
1772927,1480653027773,,,,,64,,,-0.05,0.08,1.01,-3.2,0.2,0.1,1060,0,1,0,0.0,0,37.478367,-122.203728,0.0,0.0,13.5,9,3,1.7,0,0.0,-1,0.0,,0.0,0
1772947,1480653027794,,,,,,,,-0.05,0.07,1.01,-3.2,0.2,0.1,1060,0,,,,,,,,,,,,,,,,,,,
1772967,1480653027814,,,,,,,,-0.05,0.07,1.0,-3.2,0.3,0.1,1060,0,,,,,,,,,,,,,,,,,,,
1772987,1480653027834,,,,,,,,-0.05,0.06,1.0,-3.2,0.3,0.0,1040,0,,,,,,,,,,,,,,,,,,,
1773007,1480653027854,,,,,,,,-0.05,0.05,1.0,-3.1,0.3,0.0,1040,0,,,,,,,,,,,,,,,,,,,
1773027,1480653027874,0,46.4,,47.5,64,50.2,,-0.05,0.05,1.0,-3.1,0.3,-0.0,1040,0,1,0,0.0,0,37.478367,-122.203728,0.0,0.0,13.5,9,3,1.7,0,0.0,-1,0.0,0.0,0.0,0
1773047,1480653027894,,,,,,,,-0.05,0.04,1.0,-3.1,0.3,-0.0,1040,0,,,,,,,,,,,,,,,,,,,
1773067,1480653027908,,,,,,,,-0.05,0.04,0.99,-3.1,0.2,-0.0,1040,0,,,,,,,,,,,,,,,,,,,
1773087,1480653027928,,,,,,,,-0.05,0.05,0.98,-3.1,0.1,-0.0,1040,0,,,,,,,,,,,,,,,,,,,
1773107,1480653027948,,,,,,,,-0.06,0.06,0.99,-3.1,0.2,-0.0,1040,0,,,,,,,,,,,,,,,,,,,
1773127,1480653027968,,,,,63,,,-0.06,0.07,0.99,-3.1,0.2,0.0,1040,0,1,0,0.0,0,37.478367,-122.203728,0.0,0.0,13.5,9,3,1.7,0,0.0,-1,0.0,,0.0,0
1773147,1480653027993,,,,,,,,-0.06,0.07,1.0,-3.1,0.3,0.0,1040,0,,,,,,,,,,,,,,,,,,,
1773167,1480653028013,,,,,,,,-0.06,0.07,1.01,-3.1,0.2,0.1,1040,0,,,,,,,,,,,,,,,,,,,
1773187,1480653028033,,,,,,,,-0.06,0.07,1.02,-3.1,0.1,0.1,1040,0,,,,,,,,,,,,,,,,,,,
1773207,1480653028053,,,,,,,,-0.06,0.08,1.01,-3.1,0.0,0.2,1020,0,,,,,,,,,,,,,,,,,,,
1773227,1480653028073,0,44.9,0.0,46.5,62,49.1,14.95,-0.06,0.09,1.01,-3.1,-0.2,0.2,1020,0,1,0,0.0,0,37.478367,-122.203728,0.0,0.0,13.5,9,3,1.7,0,0.0,-1,0.0,0.0,0.0,0
1773247,1480653028093,,,,,,,,-0.06,0.1,1.01,-3.1,-0.2,0.2,1020,0,,,,,,,,,,,,,,,,,,,
1773267,1480653028113,,,,,,,,-0.06,0.11,1.0,-3.1,-0.3,0.2,1020,0,,,,,,,,,,,,,,,,,,,
1773287,1480653028133,,,,,,,,-0.05,0.1,1.0,-3.2,-0.2,0.3,1020,0,,,,,,,,,,,,,,,,,,,
1773307,1480653028153,,,,,,,,-0.05,0.1,1.01,-3.1,-0.0,0.3,1020,0,,,,,,,,,,,,,,,,,,,
1773327,1480653028173,,,,,62,,,-0.04,0.09,1.01,-3.1,0.1,0.2,1020,0,1,0,0.0,0,37.478367,-122.203728,0.0,0.0,13.5,9,3,1.7,0,0.0,-1,0.0,,0.0,0
1773347,1480653028294,,,,,,,,-0.03,0.09,1.01,-3.1,0.4,0.2,980,0,,,,,,,,,,,,,,,,,,,
1773367,1480653028314,,,,,,,,-0.03,0.08,1.01,-3.1,0.5,0.2,980,0,,,,,,,,,,,,,,,,,,,
1773387,1480653028334,,,,,,,,-0.02,0.07,1.02,-3.1,0.7,0.1,980,0,,,,,,,,,,,,,,,,,,,
1773407,1480653028354,,,,,,,,-0.02,0.07,1.02,-3.1,0.8,0.1,980,0,,,,,,,,,,,,,,,,,,,
1773427,1480653028374,0,46.4,,47.6,60,50.0,,-0.01,0.06,1.02,-3.1,0.9,0.1,1000,0,1,0,0.0,0,37.478367,-122.203728,0.0,0.0,13.5,9,3,1.7,0,0.0,-1,0.0,0.0,0.0,0
1773447,1480653028394,,,,,,,,-0.01,0.05,1.03,-3.1,0.9,0.1,1000,0,,,,,,,,,,,,,,,,,,,
1773467,1480653028414,,,,,,,,-0.01,0.04,1.03,-3.1,1.0,0.1,1000,0,,,,,,,,,,,,,,,,,,,
1773487,1480653028434,,,,,,,,-0.0,0.03,1.03,-3.1,1.1,0.1,1000,0,,,,,,,,,,,,,,,,,,,
1773507,1480653028454,,,,,,,,-0.0,0.03,1.03,-3.1,1.2,0.1,1000,0,,,,,,,,,,,,,,,,,,,
1773527,1480653028474,,,,,60,,,0.0,0.02,1.03,-3.1,1.2,0.0,1020,0,1,0,0.0,0,37.478367,-122.203728,0.0,0.0,13.5,9,3,1.7,0,0.0,-1,0.0,,0.0,0
1773547,1480653028394,,,,,,,,0.0,0.02,1.03,-3.1,1.3,0.0,1000,0,,,,,,,,,,,,,,,,,,,
1773567,1480653028414,,,,,,,,-0.0,0.01,1.02,-3.1,1.2,0.0,1000,0,,,,,,,,,,,,,,,,,,,
1773587,1480653028434,,,,,,,,-0.01,0.01,1.02,-3.1,1.1,-0.0,1000,0,,,,,,,,,,,,,,,,,,,
1773607,1480653028454,,,,,,,,-0.01,0.01,1.01,-3.1,1.1,-0.1,1000,0,,,,,,,,,,,,,,,,,,,
1773627,1480653028474,0,46.5,,47.5,60,50.2,,-0.01,0.01,1.0,-3.1,1.1,-0.1,1020,0,1,0,0.0,0,37.478367,-122.203728,0.0,0.0,13.5,9,3,1.7,0,0.0,-1,0.0,0.0,0.0,0
1773647,1480653028493,,,,,,,,-0.02,0.01,0.99,-3.1,1.0,-0.1,1020,0,,,,,,,,,,,,,,,,,,,
1773667,1480653028513,,,,,,,,-0.02,0.01,0.98,-3.1,0.9,-0.1,1020,0,,,,,,,,,,,,,,,,,,,
1773687,1480653028533,,,,,,,,-0.02,0.01,0.98,-3.1,0.9,-0.1,1020,0,,,,,,,,,,,,,,,,,,,
1773707,1480653028553,,,,,,,,-0.03,0.01,0.97,-3.1,0.8,-0.1,1020,0,,,,,,,,,,,,,,,,,,,
1773727,1480653028573,,,,,61,,,-0.03,0.01,0.97,-3.1,0.8,-0.1,1020,0,1,0,0.0,0,37.478367,-122.203728,0.0,0.0,13.5,9,3,1.7,0,0.0,-1,0.0,,0.0,0
1773747,1480653028594,,,,,,,,-0.03,0.01,0.97,-3.1,0.8,-0.1,1040,0,,,,,,,,,,,,,,,,,,,
1773767,1480653028614,,,,,,,,-0.04,0.01,0.98,-3.1,0.8,-0.2,1040,0,,,,,,,,,,,,,,,,,,,
1773787,1480653028634,,,,,,,,-0.04,0.01,0.98,-3.1,0.7,-0.1,1040,0,,,,,,,,,,,,,,,,,,,
1773807,1480653028654,,,,,,,,-0.04,0.0,0.98,-3.1,0.6,-0.1,1020,0,,,,,,,,,,,,,,,,,,,
1773827,1480653028674,0,43.7,,45.6,59,47.9,,-0.04,0.01,0.98,-3.1,0.5,-0.1,1040,0,1,0,0.0,0,37.478367,-122.203728,0.0,0.0,13.5,9,3,1.7,0,0.0,-1,0.0,0.0,0.0,0
1773847,1480653028694,,,,,,,,-0.05,0.02,0.97,-3.1,0.4,-0.1,1040,0,,,,,,,,,,,,,,,,,,,
1773867,1480653028714,,,,,,,,-0.05,0.04,0.98,-3.1,0.3,-0.1,1040,0,,,,,,,,,,,,,,,,,,,
1773887,1480653028734,,,,,,,,-0.05,0.05,0.98,-3.1,0.3,-0.0,1040,0,,,,,,,,,,,,,,,,,,,
1773907,1480653028754,,,,,,,,-0.05,0.05,1.0,-3.1,0.4,-0.0,1040,0,,,,,,,,,,,,,,,,,,,
1773927,1480653028774,,,,,61,,,-0.05,0.06,1.01,-3.1,0.4,0.0,1020,0,1,0,0.0,0,37.478367,-122.203728,0.0,0.0,13.5,9,3,1.7,0,0.0,-1,0.0,,0.0,0
1773947,1480653028793,,,,,,,,-0.05,0.07,1.01,-3.1,0.3,0.1,1020,0,,,,,,,,,,,,,,,,,,,
1773967,1480653028813,,,,,,,,-0.05,0.08,1.01,-3.1,0.2,0.1,1040,0,,,,,,,,,,,,,,,,,,,
1773987,1480653028833,,,,,,,,-0.05,0.09,1.01,-3.1,0.1,0.2,1040,0,,,,,,,,,,,,,,,,,,,
1774007,1480653028853,,,,,,,,-0.05,0.1,1.01,-3.1,0.0,0.2,1040,0,,,,,,,,,,,,,,,,,,,
1774027,1480653028873,0,44.8,,44.8,62,47.5,,-0.05,0.09,1.01,-3.2,0.1,0.2,1040,0,1,0,0.0,0,37.478367,-122.203728,0.0,0.0,13.5,9,3,1.7,0,0.0,-1,0.0,0.0,0.0,0
1774047,1480653028893,,,,,,,,-0.04,0.1,1.01,-3.2,0.2,0.2,1040,0,,,,,,,,,,,,,,,,,,,
1774067,1480653028909,,,,,,,,-0.04,0.08,1.01,-3.2,0.3,0.2,1040,0,,,,,,,,,,,,,,,,,,,
1774087,1480653028929,,,,,,,,-0.03,0.07,1.01,-3.2,0.4,0.1,1040,0,,,,,,,,,,,,,,,,,,,
1774107,1480653028949,,,,,,,,-0.04,0.06,1.0,-3.1,0.5,0.1,1040,0,,,,,,,,,,,,,,,,,,,
1774127,1480653028969,,,,,62,,,-0.04,0.06,1.0,-3.1,0.5,0.1,1040,0,1,0,0.0,0,37.478367,-122.203728,0.0,0.0,13.5,9,3,1.7,0,0.0,-1,0.0,,0.0,0
1774147,1480653028989,,,,,,,,-0.04,0.06,0.99,-3.2,0.5,0.0,1020,0,,,,,,,,,,,,,,,,,,,
1774167,1480653029108,,,,,,,,-0.05,0.05,0.99,-3.1,0.5,-0.0,1020,0,,,,,,,,,,,,,,,,,,,
1774187,1480653029128,,,,,,,,-0.04,0.05,0.99,-3.1,0.5,-0.0,1020,0,,,,,,,,,,,,,,,,,,,
1774207,1480653029148,,,,,,,,-0.05,0.04,0.99,-3.1,0.6,-0.1,1020,0,,,,,,,,,,,,,,,,,,,
1774227,1480653029168,0,46.6,0.0,46.8,63,49.5,14.96,-0.05,0.03,0.99,-3.1,0.5,-0.1,1040,0,1,0,0.0,0,37.478367,-122.203728,0.0,0.0,13.5,9,3,1.7,0,0.0,-1,0.0,0.0,0.0,0
1774247,1480653029188,,,,,,,,-0.05,0.02,0.99,-3.1,0.5,-0.1,1040,0,,,,,,,,,,,,,,,,,,,
1774267,1480653029208,,,,,,,,-0.05,0.03,0.99,-3.1,0.4,-0.1,1000,0,,,,,,,,,,,,,,,,,,,
1774287,1480653029228,,,,,,,,-0.05,0.03,0.98,-3.1,0.3,-0.1,1000,0,,,,,,,,,,,,,,,,,,,
1774307,1480653029248,,,,,,,,-0.05,0.03,0.98,-3.0,0.2,-0.1,1000,0,,,,,,,,,,,,,,,,,,,
1774327,1480653029268,,,,,59,,,-0.06,0.04,0.98,-3.0,0.0,-0.1,1020,0,1,0,0.0,0,37.478367,-122.203728,0.0,0.0,13.5,9,3,1.7,0,0.0,-1,0.0,,0.0,0
1774347,1480653029194,,,,,,,,-0.06,0.05,0.98,-3.1,-0.0,-0.1,1020,0,,,,,,,,,,,,,,,,,,,
1774367,1480653029214,,,,,,,,-0.06,0.06,0.97,-3.1,-0.1,-0.0,1020,0,,,,,,,,,,,,,,,,,,,
1774387,1480653029234,,,,,,,,-0.06,0.07,0.97,-3.1,-0.1,-0.0,1000,0,,,,,,,,,,,,,,,,,,,
1774407,1480653029254,,,,,,,,-0.06,0.08,0.98,-3.1,-0.1,-0.0,1020,0,,,,,,,,,,,,,,,,,,,
1774427,1480653029274,0,44.6,,46.8,60,49.3,,-0.06,0.09,0.98,-3.1,-0.0,0.0,1020,0,1,0,0.0,0,37.478367,-122.203728,0.0,0.0,13.5,9,3,1.7,0,0.0,-1,0.0,0.0,0.0,0
1774447,1480653029294,,,,,,,,-0.06,0.1,0.99,-3.1,0.1,0.1,1020,0,,,,,,,,,,,,,,,,,,,
1774467,1480653029314,,,,,,,,-0.06,0.1,1.0,-3.1,0.2,0.1,1040,0,,,,,,,,,,,,,,,,,,,
1774487,1480653029334,,,,,,,,-0.06,0.1,1.01,-3.1,0.3,0.1,1040,0,,,,,,,,,,,,,,,,,,,
1774507,1480653029354,,,,,,,,-0.06,0.09,1.02,-3.1,0.3,0.1,1020,0,,,,,,,,,,,,,,,,,,,
1774527,1480653029374,,,,,60,,,-0.06,0.1,1.02,-3.1,0.2,0.2,1020,0,1,0,0.0,0,37.478367,-122.203728,0.0,0.0,13.5,9,3,1.7,0,0.0,-1,0.0,,0.0,0
1774547,1480653029394,,,,,,,,-0.06,0.11,1.02,-3.1,-0.0,0.2,1020,0,,,,,,,,,,,,,,,,,,,
1774567,1480653029414,,,,,,,,-0.06,0.12,1.02,-3.1,-0.1,0.3,1040,0,,,,,,,,,,,,,,,,,,,
1774587,1480653029434,,,,,,,,-0.06,0.12,1.02,-3.2,-0.2,0.3,1040,0,,,,,,,,,,,,,,,,,,,
1774607,1480653029454,,,,,,,,-0.06,0.12,1.02,-3.2,-0.1,0.3,1040,0,,,,,,,,,,,,,,,,,,,
1774627,1480653029474,0,44.3,,46.5,60,48.8,,-0.05,0.12,1.02,-3.2,0.0,0.2,1020,0,1,0,0.0,0,37.478367,-122.203728,0.0,0.0,13.5,9,3,1.7,0,0.0,-1,0.0,0.0,0.0,0
1774647,1480653029494,,,,,,,,-0.04,0.11,1.02,-3.2,0.2,0.2,1020,0,,,,,,,,,,,,,,,,,,,
1774667,1480653029514,,,,,,,,-0.04,0.1,1.03,-3.2,0.4,0.2,1040,0,,,,,,,,,,,,,,,,,,,
1774687,1480653029534,,,,,,,,-0.03,0.08,1.02,-3.2,0.4,0.1,1040,0,,,,,,,,,,,,,,,,,,,
1774707,1480653029554,,,,,,,,-0.03,0.07,1.02,-3.2,0.4,0.1,1040,0,,,,,,,,,,,,,,,,,,,
1774727,1480653029574,,,,,59,,,-0.04,0.07,1.01,-3.2,0.4,0.1,1020,0,1,0,0.0,0,37.478367,-122.203728,0.0,0.0,13.5,9,3,1.7,0,0.0,-1,0.0,,0.0,0
1774747,1480653029593,,,,,,,,-0.04,0.06,1.0,-3.2,0.4,0.0,1040,0,,,,,,,,,,,,,,,,,,,
1774767,1480653029613,,,,,,,,-0.04,0.06,0.99,-3.2,0.4,-0.0,1040,0,,,,,,,,,,,,,,,,,,,
1774787,1480653029633,,,,,,,,-0.05,0.05,0.99,-3.2,0.5,-0.1,1040,0,,,,,,,,,,,,,,,,,,,
1774807,1480653029653,,,,,,,,-0.05,0.04,0.99,-3.2,0.5,-0.1,1040,0,,,,,,,,,,,,,,,,,,,
1774827,1480653029673,0,45.4,,45.0,61,47.4,,-0.04,0.04,0.99,-3.2,0.5,-0.2,1040,0,1,0,0.0,0,37.478367,-122.203728,0.0,0.0,13.5,9,3,1.7,0,0.0,-1,0.0,0.0,0.0,0
1774847,1480653029693,,,,,,,,-0.04,0.04,0.99,-3.1,0.3,-0.2,1040,0,,,,,,,,,,,,,,,,,,,
1774867,1480653029713,,,,,,,,-0.05,0.04,0.98,-3.1,0.3,-0.1,1040,0,,,,,,,,,,,,,,,,,,,
1774887,1480653029733,,,,,,,,-0.05,0.05,0.98,-3.1,0.2,-0.1,1040,0,,,,,,,,,,,,,,,,,,,
1774907,1480653029753,,,,,,,,-0.05,0.06,0.99,-3.1,0.2,-0.1,1040,0,,,,,,,,,,,,,,,,,,,
1774927,1480653029773,,,,,60,,,-0.05,0.07,1.0,-3.1,0.3,-0.0,1040,0,1,0,0.0,0,37.478367,-122.203728,0.0,0.0,13.5,9,3,1.7,0,0.0,-1,0.0,,0.0,0
1774947,1480653029893,,,,,,,,-0.05,0.07,1.01,-3.1,0.3,-0.0,1040,0,,,,,,,,,,,,,,,,,,,
1774967,1480653029913,,,,,,,,-0.05,0.08,1.02,-3.1,0.3,0.0,1020,0,,,,,,,,,,,,,,,,,,,
1774987,1480653029933,,,,,,,,-0.05,0.09,1.01,-3.1,0.1,0.1,1040,0,,,,,,,,,,,,,,,,,,,
1775007,1480653029953,,,,,,,,-0.05,0.1,1.01,-3.1,0.0,0.1,1020,0,,,,,,,,,,,,,,,,,,,
1775027,1480653029973,0,46.8,,47.9,62,49.1,,-0.05,0.11,1.01,-3.1,-0.0,0.2,1040,0,1,0,0.0,0,37.478367,-122.203728,0.0,0.0,13.5,9,3,1.7,0,0.0,-1,0.0,0.0,0.0,0
1775047,1480653029993,,,,,,,,-0.05,0.11,1.01,-3.1,-0.0,0.2,1040,0,,,,,,,,,,,,,,,,,,,
1775067,1480653030013,,,,,,,,-0.04,0.11,1.01,-3.2,0.0,0.2,1040,0,,,,,,,,,,,,,,,,,,,
1775087,1480653030033,,,,,,,,-0.04,0.1,1.01,-3.2,0.2,0.2,1040,0,,,,,,,,,,,,,,,,,,,
1775107,1480653030053,,,,,,,,-0.03,0.09,1.01,-3.1,0.3,0.2,1040,0,,,,,,,,,,,,,,,,,,,
1775127,1480653030073,,,,,58,,,-0.03,0.08,1.02,-3.1,0.4,0.1,1040,0,1,0,0.0,0,37.478367,-122.203728,0.0,0.0,13.5,9,3,1.7,0,0.0,-1,0.0,,0.0,0
1775147,1480653029991,,,,,,,,-0.03,0.07,1.01,-3.1,0.4,0.1,1040,0,,,,,,,,,,,,,,,,,,,
1775167,1480653030011,,,,,,,,-0.04,0.07,1.0,-3.1,0.3,0.1,1040,0,,,,,,,,,,,,,,,,,,,
1775187,1480653030031,,,,,,,,-0.04,0.06,1.0,-3.1,0.4,0.0,1020,0,,,,,,,,,,,,,,,,,,,
1775207,1480653030051,,,,,,,,-0.04,0.06,0.99,-3.1,0.3,-0.0,1020,0,,,,,,,,,,,,,,,,,,,
1775227,1480653030071,0,44.8,0.0,46.9,61,50.3,14.98,-0.04,0.05,0.99,-3.1,0.4,-0.1,1020,0,1,0,0.0,0,37.478367,-122.203728,0.0,0.0,13.5,9,3,1.7,0,0.0,-1,0.0,0.0,0.0,0
1775247,1480653030094,,,,,,,,-0.04,0.04,0.99,-3.1,0.5,-0.1,1020,0,,,,,,,,,,,,,,,,,,,
1775267,1480653030114,,,,,,,,-0.04,0.03,0.99,-3.1,0.5,-0.1,1020,0,,,,,,,,,,,,,,,,,,,
1775287,1480653030134,,,,,,,,-0.04,0.03,0.99,-3.1,0.4,-0.2,1020,0,,,,,,,,,,,,,,,,,,,
1775307,1480653030154,,,,,,,,-0.04,0.03,0.99,-3.1,0.3,-0.2,1020,0,,,,,,,,,,,,,,,,,,,
1775327,1480653030174,,,,,61,,,-0.05,0.04,0.99,-3.1,0.3,-0.2,1020,0,1,0,0.0,0,37.478367,-122.203728,0.0,0.0,13.5,9,3,1.7,0,0.0,-1,0.0,,0.0,0
1775347,1480653030193,,,,,,,,-0.05,0.05,0.98,-3.1,0.1,-0.1,1020,0,,,,,,,,,,,,,,,,,,,
1775367,1480653030213,,,,,,,,-0.06,0.06,0.99,-3.1,0.0,-0.1,1020,0,,,,,,,,,,,,,,,,,,,
1775387,1480653030233,,,,,,,,-0.06,0.07,0.99,-3.1,0.0,-0.1,1020,0,,,,,,,,,,,,,,,,,,,
1775407,1480653030253,,,,,,,,-0.05,0.08,1.0,-3.1,0.1,-0.1,1020,0,,,,,,,,,,,,,,,,,,,
1775427,1480653030273,0,45.0,,47.2,61,50.3,,-0.05,0.08,1.0,-3.1,0.1,-0.0,1020,0,1,0,0.0,0,37.478367,-122.203728,0.0,0.0,13.5,9,3,1.7,0,0.0,-1,0.0,0.0,0.0,0
1775447,1480653030293,,,,,,,,-0.05,0.08,1.01,-3.1,0.2,0.0,1020,0,,,,,,,,,,,,,,,,,,,
1775467,1480653030313,,,,,,,,-0.06,0.08,1.02,-3.1,0.3,0.1,1020,0,,,,,,,,,,,,,,,,,,,
1775487,1480653030333,,,,,,,,-0.06,0.09,1.02,-3.1,0.3,0.1,1020,0,,,,,,,,,,,,,,,,,,,
1775507,1480653030353,,,,,,,,-0.06,0.09,1.02,-3.1,0.2,0.2,1040,0,,,,,,,,,,,,,,,,,,,
1775527,1480653030373,,,,,61,,,-0.06,0.1,1.02,-3.1,0.1,0.2,1040,0,1,0,0.0,0,37.478367,-122.203728,0.0,0.0,13.5,9,3,1.7,0,0.0,-1,0.0,,0.0,0
1775547,1480653030393,,,,,,,,-0.06,0.11,1.01,-3.2,-0.0,0.3,1020,0,,,,,,,,,,,,,,,,,,,
1775567,1480653030413,,,,,,,,-0.05,0.11,1.01,-3.2,-0.1,0.3,1020,0,,,,,,,,,,,,,,,,,,,
1775587,1480653030433,,,,,,,,-0.05,0.11,1.0,-3.2,-0.2,0.3,1020,0,,,,,,,,,,,,,,,,,,,
1775607,1480653030453,,,,,,,,-0.05,0.11,1.0,-3.2,-0.1,0.3,1020,0,,,,,,,,,,,,,,,,,,,
1775627,1480653030473,0,46.7,,47.4,61,47.3,,-0.04,0.1,1.01,-3.2,0.1,0.3,1020,0,1,0,0.0,0,37.478367,-122.203728,0.0,0.0,13.5,9,3,1.7,0,0.0,-1,0.0,0.0,0.0,0
1775647,1480653030493,,,,,,,,-0.04,0.1,1.01,-3.1,0.2,0.3,1020,0,,,,,,,,,,,,,,,,,,,
1775667,1480653030513,,,,,,,,-0.03,0.09,1.01,-3.1,0.4,0.2,1020,0,,,,,,,,,,,,,,,,,,,
1775687,1480653030533,,,,,,,,-0.03,0.08,1.01,-3.1,0.4,0.2,1020,0,,,,,,,,,,,,,,,,,,,
1775707,1480653030553,,,,,,,,-0.03,0.07,1.01,-3.1,0.4,0.1,1040,0,,,,,,,,,,,,,,,,,,,
1775727,1480653030573,,,,,63,,,-0.03,0.06,1.0,-3.1,0.4,0.0,1040,0,1,0,0.0,0,37.478367,-122.203728,0.0,0.0,13.5,9,3,1.7,0,0.0,-1,0.0,,0.0,0
1775747,1480653030693,,,,,,,,-0.04,0.06,0.99,-3.1,0.4,0.0,1040,0,,,,,,,,,,,,,,,,,,,
1775767,1480653030713,,,,,,,,-0.04,0.06,0.99,-3.1,0.4,-0.0,1020,0,,,,,,,,,,,,,,,,,,,
1775787,1480653030733,,,,,,,,-0.04,0.06,0.99,-3.1,0.4,-0.1,1020,0,,,,,,,,,,,,,,,,,,,
1775807,1480653030753,,,,,,,,-0.04,0.05,0.99,-3.1,0.5,-0.1,1040,0,,,,,,,,,,,,,,,,,,,
1775827,1480653030773,0,44.3,,46.8,59,50.2,,-0.04,0.04,0.99,-3.1,0.5,-0.2,1040,0,1,0,0.0,0,37.478367,-122.203728,0.0,0.0,13.5,9,3,1.7,0,0.0,-1,0.0,0.0,0.0,0
1775847,1480653030793,,,,,,,,-0.04,0.04,0.99,-3.1,0.4,-0.2,1040,0,,,,,,,,,,,,,,,,,,,
1775867,1480653030813,,,,,,,,-0.04,0.04,0.99,-3.1,0.3,-0.1,1040,0,,,,,,,,,,,,,,,,,,,
1775887,1480653030833,,,,,,,,-0.05,0.05,0.98,-3.1,0.2,-0.1,1040,0,,,,,,,,,,,,,,,,,,,
1775907,1480653030853,,,,,,,,-0.05,0.06,0.99,-3.1,0.2,-0.1,1040,0,,,,,,,,,,,,,,,,,,,
1775927,1480653030873,,,,,61,,,-0.05,0.07,0.99,-3.1,0.3,-0.0,1040,0,1,0,0.0,0,37.478367,-122.203728,0.0,0.0,13.5,9,3,1.7,0,0.0,-1,0.0,,0.0,0
1775947,1480653030794,,,,,,,,-0.05,0.08,1.0,-3.1,0.3,0.0,1040,0,,,,,,,,,,,,,,,,,,,
1775967,1480653030814,,,,,,,,-0.05,0.08,1.01,-3.1,0.3,0.1,1060,0,,,,,,,,,,,,,,,,,,,
1775987,1480653030834,,,,,,,,-0.05,0.09,1.01,-3.1,0.2,0.1,1060,0,,,,,,,,,,,,,,,,,,,
1776007,1480653030854,,,,,,,,-0.06,0.09,1.01,-3.1,0.1,0.2,1040,0,,,,,,,,,,,,,,,,,,,
1776027,1480653030874,0,43.4,,45.4,60,49.5,,-0.05,0.1,1.01,-3.1,0.2,0.2,1040,0,1,0,0.0,0,37.478367,-122.203728,0.0,0.0,13.5,9,3,1.7,0,0.0,-1,0.0,0.0,0.0,0
1776047,1480653030894,,,,,,,,-0.05,0.09,1.01,-3.1,0.3,0.2,1040,0,,,,,,,,,,,,,,,,,,,
1776067,1480653030907,,,,,,,,-0.04,0.08,1.01,-3.1,0.3,0.2,1040,0,,,,,,,,,,,,,,,,,,,
1776087,1480653030927,,,,,,,,-0.04,0.07,1.01,-3.1,0.4,0.2,1040,0,,,,,,,,,,,,,,,,,,,
1776107,1480653030947,,,,,,,,-0.04,0.06,1.01,-3.1,0.4,0.2,1040,0,,,,,,,,,,,,,,,,,,,
1776127,1480653030967,,,,,62,,,-0.05,0.06,1.0,-3.1,0.3,0.1,1040,0,1,0,0.0,0,37.478367,-122.203728,0.0,0.0,13.5,9,3,1.7,0,0.0,-1,0.0,,0.0,0
1776147,1480653030993,,,,,,,,-0.05,0.05,0.99,-3.1,0.4,0.0,1040,0,,,,,,,,,,,,,,,,,,,
1776167,1480653031013,,,,,,,,-0.05,0.05,0.99,-3.1,0.4,0.0,1040,0,,,,,,,,,,,,,,,,,,,
1776187,1480653031033,,,,,,,,-0.05,0.04,0.99,-3.1,0.4,-0.1,1040,0,,,,,,,,,,,,,,,,,,,
1776207,1480653031053,,,,,,,,-0.05,0.03,0.99,-3.1,0.4,-0.1,1040,0,,,,,,,,,,,,,,,,,,,
1776227,1480653031073,0,46.2,0.0,46.6,61,47.4,14.97,-0.05,0.03,0.99,-3.1,0.3,-0.1,1020,0,1,0,0.0,0,37.478367,-122.203728,0.0,0.0,13.5,9,3,1.7,0,0.0,-1,0.0,0.0,0.0,0
1776247,1480653031093,,,,,,,,-0.05,0.03,0.98,-3.0,0.3,-0.1,1020,0,,,,,,,,,,,,,,,,,,,
1776267,1480653031113,,,,,,,,-0.05,0.04,0.98,-3.0,0.2,-0.1,1020,0,,,,,,,,,,,,,,,,,,,
1776287,1480653031133,,,,,,,,-0.06,0.05,0.98,-3.0,0.2,-0.1,1020,0,,,,,,,,,,,,,,,,,,,
1776307,1480653031153,,,,,,,,-0.06,0.06,0.98,-3.0,0.2,-0.1,1020,0,,,,,,,,,,,,,,,,,,,
1776327,1480653031173,,,,,59,,,-0.05,0.06,0.99,-3.0,0.3,-0.0,1020,0,1,0,0.0,0,37.478367,-122.203728,0.0,0.0,13.5,9,3,1.7,0,0.0,-1,0.0,,0.0,0
1776347,1480653031193,,,,,,,,-0.05,0.06,1.0,-3.0,0.4,0.0,1000,0,,,,,,,,,,,,,,,,,,,
1776367,1480653031213,,,,,,,,-0.05,0.06,1.01,-3.0,0.5,0.0,1000,0,,,,,,,,,,,,,,,,,,,
1776387,1480653031233,,,,,,,,-0.05,0.06,1.02,-3.0,0.5,0.0,1000,0,,,,,,,,,,,,,,,,,,,
1776407,1480653031253,,,,,,,,-0.05,0.06,1.02,-3.1,0.6,0.1,1000,0,,,,,,,,,,,,,,,,,,,
1776427,1480653031273,0,46.1,,48.1,60,50.0,,-0.06,0.06,1.03,-3.1,0.7,0.1,1000,0,1,0,0.0,0,37.478367,-122.203728,0.0,0.0,13.5,9,3,1.7,0,0.0,-1,0.0,0.0,0.0,0
1776447,1480653031293,,,,,,,,-0.06,0.07,1.03,-3.1,0.7,0.1,1000,0,,,,,,,,,,,,,,,,,,,
1776467,1480653031313,,,,,,,,-0.06,0.07,1.04,-3.1,0.8,0.1,1000,0,,,,,,,,,,,,,,,,,,,
1776487,1480653031333,,,,,,,,-0.06,0.07,1.04,-3.1,0.8,0.2,1000,0,,,,,,,,,,,,,,,,,,,
1776507,1480653031353,,,,,,,,-0.06,0.07,1.04,-3.1,0.8,0.2,1020,0,,,,,,,,,,,,,,,,,,,
1776527,1480653031373,,,,,58,,,-0.07,0.08,1.04,-3.1,0.7,0.3,1020,0,1,0,0.0,0,37.478367,-122.203728,0.0,0.0,13.5,9,3,1.7,0,0.0,-1,0.0,,0.0,0
1776547,1480653031493,,,,,,,,-0.07,0.08,1.04,-3.1,0.5,0.3,1020,0,,,,,,,,,,,,,,,,,,,
1776567,1480653031513,,,,,,,,-0.06,0.09,1.04,-3.1,0.3,0.3,1020,0,,,,,,,,,,,,,,,,,,,
1776587,1480653031533,,,,,,,,-0.07,0.1,1.03,-3.1,0.2,0.3,1020,0,,,,,,,,,,,,,,,,,,,
1776607,1480653031553,,,,,,,,-0.06,0.1,1.03,-3.1,0.1,0.3,1020,0,,,,,,,,,,,,,,,,,,,
1776627,1480653031573,0,46.2,,48.4,61,49.8,,-0.06,0.11,1.02,-3.1,0.0,0.4,1020,0,1,0,0.0,0,37.478367,-122.203728,0.0,0.0,13.5,9,3,1.7,0,0.0,-1,0.0,0.0,0.0,0
1776647,1480653031593,,,,,,,,-0.05,0.1,1.02,-3.1,0.1,0.4,1040,0,,,,,,,,,,,,,,,,,,,
1776667,1480653031613,,,,,,,,-0.04,0.09,1.03,-3.1,0.2,0.3,1040,0,,,,,,,,,,,,,,,,,,,
1776687,1480653031633,,,,,,,,-0.03,0.08,1.03,-3.1,0.3,0.3,1040,0,,,,,,,,,,,,,,,,,,,
1776707,1480653031653,,,,,,,,-0.03,0.07,1.02,-3.1,0.4,0.2,1040,0,,,,,,,,,,,,,,,,,,,
1776727,1480653031673,,,,,60,,,-0.04,0.06,1.01,-3.1,0.4,0.1,1040,0,1,0,0.0,0,37.478367,-122.203728,0.0,0.0,13.5,9,3,1.7,0,0.0,-1,0.0,,0.0,0
1776747,1480653031593,,,,,,,,-0.04,0.06,1.0,-3.1,0.4,0.1,1040,0,,,,,,,,,,,,,,,,,,,
1776767,1480653031613,,,,,,,,-0.04,0.05,1.0,-3.2,0.4,0.0,1040,0,,,,,,,,,,,,,,,,,,,
1776787,1480653031633,,,,,,,,-0.04,0.05,1.0,-3.1,0.5,-0.0,1040,0,,,,,,,,,,,,,,,,,,,
1776807,1480653031653,,,,,,,,-0.04,0.04,1.0,-3.1,0.5,-0.1,1040,0,,,,,,,,,,,,,,,,,,,
1776827,1480653031673,0,43.6,,45.1,60,48.9,,-0.04,0.04,1.0,-3.1,0.5,-0.1,1040,0,1,0,0.0,0,37.478367,-122.203728,0.0,0.0,13.5,9,3,1.7,0,0.0,-1,0.0,0.0,0.0,0
1776847,1480653031693,,,,,,,,-0.04,0.04,0.99,-3.1,0.3,-0.1,1040,0,,,,,,,,,,,,,,,,,,,
1776867,1480653031713,,,,,,,,-0.05,0.04,0.99,-3.1,0.3,-0.1,1040,0,,,,,,,,,,,,,,,,,,,
1776887,1480653031733,,,,,,,,-0.05,0.05,0.99,-3.1,0.3,-0.1,1040,0,,,,,,,,,,,,,,,,,,,
1776907,1480653031753,,,,,,,,-0.05,0.06,0.99,-3.1,0.3,-0.1,1040,0,,,,,,,,,,,,,,,,,,,
1776927,1480653031773,,,,,61,,,-0.05,0.06,1.0,-3.1,0.4,-0.0,1020,0,1,0,0.0,0,37.478367,-122.203728,0.0,0.0,13.5,9,3,1.7,0,0.0,-1,0.0,,0.0,0
1776947,1480653031793,,,,,,,,-0.05,0.06,1.01,-3.1,0.4,0.0,1040,0,,,,,,,,,,,,,,,,,,,
1776967,1480653031813,,,,,,,,-0.05,0.07,1.02,-3.1,0.4,0.1,1020,0,,,,,,,,,,,,,,,,,,,
1776987,1480653031833,,,,,,,,-0.05,0.08,1.02,-3.1,0.3,0.1,1040,0,,,,,,,,,,,,,,,,,,,
1777007,1480653031853,,,,,,,,-0.06,0.08,1.02,-3.1,0.1,0.1,1020,0,,,,,,,,,,,,,,,,,,,
1777027,1480653031873,0,47.1,,47.9,62,47.4,,-0.06,0.09,1.01,-3.1,0.0,0.2,1020,0,1,0,0.0,0,37.478367,-122.203728,0.0,0.0,13.5,9,3,1.7,0,0.0,-1,0.0,0.0,0.0,0
1777047,1480653031893,,,,,,,,-0.05,0.1,1.01,-3.1,-0.1,0.2,1020,0,,,,,,,,,,,,,,,,,,,
1777067,1480653031907,,,,,,,,-0.05,0.1,1.01,-3.1,-0.0,0.2,1020,0,,,,,,,,,,,,,,,,,,,
1777087,1480653031927,,,,,,,,-0.04,0.1,1.01,-3.2,0.1,0.3,1020,0,,,,,,,,,,,,,,,,,,,
1777107,1480653031947,,,,,,,,-0.04,0.09,1.01,-3.1,0.2,0.2,1040,0,,,,,,,,,,,,,,,,,,,
1777127,1480653031967,,,,,60,,,-0.03,0.08,1.02,-3.1,0.3,0.2,1040,0,1,0,0.0,0,37.478367,-122.203728,0.0,0.0,13.5,9,3,1.7,0,0.0,-1,0.0,,0.0,0
1777147,1480653031991,,,,,,,,-0.02,0.08,1.02,-3.1,0.3,0.2,1040,0,,,,,,,,,,,,,,,,,,,
1777167,1480653032011,,,,,,,,-0.03,0.06,1.01,-3.1,0.4,0.1,1040,0,,,,,,,,,,,,,,,,,,,
1777187,1480653032031,,,,,,,,-0.03,0.06,1.0,-3.1,0.4,0.0,1040,0,,,,,,,,,,,,,,,,,,,
1777207,1480653032051,,,,,,,,-0.04,0.06,1.0,-3.1,0.3,0.0,1040,0,,,,,,,,,,,,,,,,,,,
1777227,1480653032071,0,45.1,0.0,47.9,62,50.3,14.98,-0.04,0.05,0.99,-3.2,0.4,-0.0,1040,0,1,0,0.0,0,37.478367,-122.203728,0.0,0.0,13.5,9,3,1.7,0,0.0,-1,0.0,0.0,0.0,0
1777247,1480653032093,,,,,,,,-0.04,0.05,0.99,-3.1,0.4,-0.0,1040,0,,,,,,,,,,,,,,,,,,,
1777267,1480653032113,,,,,,,,-0.04,0.04,0.99,-3.1,0.4,-0.1,1020,0,,,,,,,,,,,,,,,,,,,
1777287,1480653032133,,,,,,,,-0.04,0.04,0.99,-3.1,0.4,-0.1,1020,0,,,,,,,,,,,,,,,,,,,
1777307,1480653032153,,,,,,,,-0.04,0.03,0.99,-3.1,0.3,-0.1,1020,0,,,,,,,,,,,,,,,,,,,
1777327,1480653032173,,,,,60,,,-0.04,0.03,0.99,-3.1,0.2,-0.1,1020,0,1,0,0.0,0,37.478367,-122.203728,0.0,0.0,13.5,9,3,1.7,0,0.0,-1,0.0,,0.0,0
1777347,1480653032293,,,,,,,,-0.04,0.04,0.99,-3.1,0.1,-0.1,1020,0,,,,,,,,,,,,,,,,,,,
1777367,1480653032313,,,,,,,,-0.05,0.05,0.98,-3.1,0.0,-0.1,1020,0,,,,,,,,,,,,,,,,,,,
1777387,1480653032333,,,,,,,,-0.05,0.06,0.98,-3.1,-0.0,-0.1,1000,0,,,,,,,,,,,,,,,,,,,
1777407,1480653032353,,,,,,,,-0.05,0.07,0.98,-3.1,-0.0,-0.1,1000,0,,,,,,,,,,,,,,,,,,,
1777427,1480653032373,0,46.8,,48.7,60,49.6,,-0.05,0.08,0.98,-3.1,-0.0,-0.0,1000,0,1,0,0.0,0,37.478367,-122.203728,0.0,0.0,13.5,9,3,1.7,0,0.0,-1,0.0,0.0,0.0,0
1777447,1480653032393,,,,,,,,-0.05,0.09,0.98,-3.1,-0.0,-0.0,1000,0,,,,,,,,,,,,,,,,,,,
1777467,1480653032413,,,,,,,,-0.05,0.09,0.99,-3.1,0.1,-0.0,1000,0,,,,,,,,,,,,,,,,,,,
1777487,1480653032433,,,,,,,,-0.05,0.08,1.0,-3.1,0.2,0.0,1000,0,,,,,,,,,,,,,,,,,,,
1777507,1480653032453,,,,,,,,-0.05,0.08,1.01,-3.1,0.3,0.0,1000,0,,,,,,,,,,,,,,,,,,,
1777527,1480653032473,,,,,59,,,-0.05,0.08,1.02,-3.1,0.4,0.0,1000,0,1,0,0.0,0,37.478367,-122.203728,0.0,0.0,13.5,9,3,1.7,0,0.0,-1,0.0,,0.0,0
1777547,1480653032394,,,,,,,,-0.05,0.08,1.03,-3.1,0.5,0.1,1000,0,,,,,,,,,,,,,,,,,,,
1777567,1480653032414,,,,,,,,-0.05,0.08,1.03,-3.1,0.6,0.1,1000,0,,,,,,,,,,,,,,,,,,,
1777587,1480653032434,,,,,,,,-0.06,0.07,1.03,-3.1,0.6,0.1,1000,0,,,,,,,,,,,,,,,,,,,
1777607,1480653032454,,,,,,,,-0.06,0.08,1.04,-3.1,0.7,0.1,1000,0,,,,,,,,,,,,,,,,,,,
1777627,1480653032474,0,46.8,,48.3,59,48.6,,-0.06,0.08,1.04,-3.1,0.7,0.1,980,0,1,0,0.0,0,37.478367,-122.203728,0.0,0.0,13.5,9,3,1.7,0,0.0,-1,0.0,0.0,0.0,0
1777647,1480653032493,,,,,,,,-0.06,0.08,1.05,-3.1,0.8,0.1,1000,0,,,,,,,,,,,,,,,,,,,
1777667,1480653032513,,,,,,,,-0.07,0.07,1.05,-3.1,0.8,0.1,1000,0,,,,,,,,,,,,,,,,,,,
1777687,1480653032533,,,,,,,,-0.07,0.08,1.05,-3.1,0.8,0.1,1000,0,,,,,,,,,,,,,,,,,,,
1777707,1480653032553,,,,,,,,-0.07,0.08,1.05,-3.1,0.8,0.1,1000,0,,,,,,,,,,,,,,,,,,,
1777727,1480653032573,,,,,57,,,-0.07,0.08,1.05,-3.1,0.8,0.1,1000,0,1,0,0.0,0,37.478367,-122.203728,0.0,0.0,13.5,9,3,1.7,0,0.0,-1,0.0,,0.0,0
1777747,1480653032593,,,,,,,,-0.07,0.08,1.05,-3.1,0.7,0.1,1000,0,,,,,,,,,,,,,,,,,,,
1777767,1480653032613,,,,,,,,-0.07,0.09,1.05,-3.1,0.6,0.1,1000,0,,,,,,,,,,,,,,,,,,,
1777787,1480653032633,,,,,,,,-0.07,0.09,1.05,-3.1,0.6,0.1,980,0,,,,,,,,,,,,,,,,,,,
1777807,1480653032653,,,,,,,,-0.07,0.1,1.05,-3.1,0.5,0.1,1000,0,,,,,,,,,,,,,,,,,,,
1777827,1480653032673,0,46.7,,48.8,59,49.7,,-0.07,0.11,1.05,-3.1,0.4,0.2,1020,0,1,0,0.0,0,37.478367,-122.203728,0.0,0.0,13.5,9,3,1.7,0,0.0,-1,0.0,0.0,0.0,0
1777847,1480653032693,,,,,,,,-0.07,0.11,1.05,-3.2,0.3,0.2,1020,0,,,,,,,,,,,,,,,,,,,
1777867,1480653032713,,,,,,,,-0.07,0.12,1.05,-3.1,0.2,0.2,1000,0,,,,,,,,,,,,,,,,,,,
1777887,1480653032733,,,,,,,,-0.07,0.13,1.04,-3.1,-0.0,0.3,1000,0,,,,,,,,,,,,,,,,,,,
1777907,1480653032753,,,,,,,,-0.07,0.14,1.04,-3.1,-0.2,0.3,1000,0,,,,,,,,,,,,,,,,,,,
1777927,1480653032773,,,,,59,,,-0.06,0.14,1.03,-3.2,-0.3,0.3,1020,0,1,0,0.0,0,37.478367,-122.203728,0.0,0.0,13.5,9,3,1.7,0,0.0,-1,0.0,,0.0,0
1777947,1480653032794,,,,,,,,-0.06,0.15,1.03,-3.2,-0.4,0.4,1020,0,,,,,,,,,,,,,,,,,,,
1777967,1480653032814,,,,,,,,-0.06,0.14,1.03,-3.2,-0.4,0.4,1020,0,,,,,,,,,,,,,,,,,,,
1777987,1480653032834,,,,,,,,-0.05,0.14,1.02,-3.2,-0.4,0.4,1000,0,,,,,,,,,,,,,,,,,,,
1778007,1480653032854,,,,,,,,-0.05,0.13,1.02,-3.2,-0.3,0.4,1020,0,,,,,,,,,,,,,,,,,,,
1778027,1480653032874,0,46.7,,48.8,60,49.7,,-0.04,0.12,1.03,-3.2,-0.1,0.4,1000,0,1,0,0.0,0,37.478367,-122.203728,0.0,0.0,13.5,9,3,1.7,0,0.0,-1,0.0,0.0,0.0,0
1778047,1480653032894,,,,,,,,-0.03,0.12,1.03,-3.2,0.0,0.4,1000,0,,,,,,,,,,,,,,,,,,,
1778067,1480653032907,,,,,,,,-0.03,0.11,1.03,-3.2,0.2,0.4,1000,0,,,,,,,,,,,,,,,,,,,
1778087,1480653032927,,,,,,,,-0.02,0.1,1.03,-3.2,0.3,0.4,1000,0,,,,,,,,,,,,,,,,,,,
1778107,1480653032947,,,,,,,,-0.02,0.09,1.03,-3.2,0.4,0.3,1020,0,,,,,,,,,,,,,,,,,,,
1778127,1480653032967,,,,,59,,,-0.02,0.08,1.03,-3.2,0.5,0.3,1020,0,1,0,0.0,0,37.478367,-122.203728,0.0,0.0,13.5,9,3,1.7,0,0.0,-1,0.0,,0.0,0
1778147,1480653033093,,,,,,,,-0.01,0.07,1.03,-3.2,0.6,0.2,1020,0,,,,,,,,,,,,,,,,,,,
1778167,1480653033113,,,,,,,,-0.02,0.06,1.03,-3.2,0.5,0.2,1020,0,,,,,,,,,,,,,,,,,,,
1778187,1480653033133,,,,,,,,-0.02,0.06,1.02,-3.2,0.6,0.2,1020,0,,,,,,,,,,,,,,,,,,,
1778207,1480653033153,,,,,,,,-0.02,0.05,1.01,-3.2,0.5,0.1,1020,0,,,,,,,,,,,,,,,,,,,
1778227,1480653033173,0,44.1,0.0,45.7,60,48.6,14.98,-0.03,0.05,1.0,-3.2,0.4,0.1,1020,0,1,0,0.0,0,37.478367,-122.203728,0.0,0.0,13.5,9,3,1.7,0,0.0,-1,0.0,0.0,0.0,0
1778247,1480653033193,,,,,,,,-0.03,0.05,1.0,-3.2,0.5,0.1,1020,0,,,,,,,,,,,,,,,,,,,
1778267,1480653033213,,,,,,,,-0.04,0.05,0.99,-3.2,0.5,0.1,1020,0,,,,,,,,,,,,,,,,,,,
1778287,1480653033233,,,,,,,,-0.04,0.05,0.98,-3.1,0.5,0.0,1020,0,,,,,,,,,,,,,,,,,,,
1778307,1480653033253,,,,,,,,-0.04,0.04,0.98,-3.1,0.6,-0.0,1020,0,,,,,,,,,,,,,,,,,,,
1778327,1480653033273,,,,,61,,,-0.04,0.03,0.98,-3.1,0.6,-0.1,1020,0,1,0,0.0,0,37.478367,-122.203728,0.0,0.0,13.5,9,3,1.7,0,0.0,-1,0.0,,0.0,0
1778347,1480653033193,,,,,,,,-0.04,0.03,0.99,-3.1,0.6,-0.1,1020,0,,,,,,,,,,,,,,,,,,,
1778367,1480653033213,,,,,,,,-0.04,0.02,0.99,-3.1,0.6,-0.1,1020,0,,,,,,,,,,,,,,,,,,,
1778387,1480653033233,,,,,,,,-0.04,0.01,0.99,-3.1,0.6,-0.1,1020,0,,,,,,,,,,,,,,,,,,,
1778407,1480653033253,,,,,,,,-0.04,0.01,0.99,-3.1,0.5,-0.1,1020,0,,,,,,,,,,,,,,,,,,,
1778427,1480653033273,0,44.2,,47.1,60,50.0,,-0.05,0.02,0.98,-3.1,0.4,-0.1,1020,0,1,0,0.0,0,37.478367,-122.203728,0.0,0.0,13.5,9,3,1.7,0,0.0,-1,0.0,0.0,0.0,0
1778447,1480653033293,,,,,,,,-0.05,0.03,0.98,-3.1,0.2,-0.1,1020,0,,,,,,,,,,,,,,,,,,,
1778467,1480653033313,,,,,,,,-0.05,0.04,0.98,-3.1,0.2,-0.1,1020,0,,,,,,,,,,,,,,,,,,,
1778487,1480653033333,,,,,,,,-0.05,0.05,0.98,-3.1,0.2,-0.0,1020,0,,,,,,,,,,,,,,,,,,,
1778507,1480653033353,,,,,,,,-0.05,0.06,0.99,-3.1,0.3,-0.0,1020,0,,,,,,,,,,,,,,,,,,,
1778527,1480653033373,,,,,59,,,-0.05,0.06,1.0,-3.1,0.3,0.0,1020,0,1,0,0.0,0,37.478367,-122.203728,0.0,0.0,13.5,9,3,1.7,0,0.0,-1,0.0,,0.0,0
1778547,1480653033393,,,,,,,,-0.05,0.06,1.01,-3.1,0.4,0.0,1020,0,,,,,,,,,,,,,,,,,,,
1778567,1480653033413,,,,,,,,-0.05,0.06,1.01,-3.1,0.4,0.1,1000,0,,,,,,,,,,,,,,,,,,,
1778587,1480653033433,,,,,,,,-0.05,0.06,1.02,-3.1,0.4,0.1,1000,0,,,,,,,,,,,,,,,,,,,
1778607,1480653033453,,,,,,,,-0.06,0.07,1.02,-3.0,0.4,0.1,1000,0,,,,,,,,,,,,,,,,,,,
1778627,1480653033473,0,46.4,,47.6,60,47.4,,-0.06,0.07,1.02,-3.1,0.3,0.1,1000,0,1,0,0.0,0,37.478367,-122.203728,0.0,0.0,13.5,9,3,1.7,0,0.0,-1,0.0,0.0,0.0,0
1778647,1480653033493,,,,,,,,-0.06,0.08,1.03,-3.1,0.3,0.1,1000,0,,,,,,,,,,,,,,,,,,,
1778667,1480653033513,,,,,,,,-0.07,0.08,1.03,-3.1,0.2,0.2,1000,0,,,,,,,,,,,,,,,,,,,
1778687,1480653033533,,,,,,,,-0.06,0.09,1.03,-3.1,0.0,0.2,1000,0,,,,,,,,,,,,,,,,,,,
1778707,1480653033553,,,,,,,,-0.06,0.1,1.03,-3.1,-0.1,0.2,1000,0,,,,,,,,,,,,,,,,,,,
1778727,1480653033573,,,,,62,,,-0.07,0.11,1.03,-3.1,-0.2,0.3,1000,0,1,0,0.0,0,37.478367,-122.203728,0.0,0.0,13.5,9,3,1.7,0,0.0,-1,0.0,,0.0,0
1778747,1480653033593,,,,,,,,-0.06,0.11,1.02,-3.1,-0.4,0.3,1000,0,,,,,,,,,,,,,,,,,,,
1778767,1480653033613,,,,,,,,-0.06,0.12,1.02,-3.1,-0.5,0.4,1000,0,,,,,,,,,,,,,,,,,,,
1778787,1480653033633,,,,,,,,-0.06,0.12,1.01,-3.1,-0.6,0.4,1000,0,,,,,,,,,,,,,,,,,,,
1778807,1480653033653,,,,,,,,-0.06,0.13,1.01,-3.1,-0.7,0.4,980,0,,,,,,,,,,,,,,,,,,,
1778827,1480653033673,0,45.5,,48.5,60,50.3,,-0.06,0.13,1.0,-3.2,-0.8,0.4,980,0,1,0,0.0,0,37.478367,-122.203728,0.0,0.0,13.5,9,3,1.7,0,0.0,-1,0.0,0.0,0.0,0
1778847,1480653033693,,,,,,,,-0.06,0.14,1.0,-3.1,-0.9,0.4,980,0,,,,,,,,,,,,,,,,,,,
1778867,1480653033713,,,,,,,,-0.06,0.14,0.99,-3.1,-1.0,0.5,980,0,,,,,,,,,,,,,,,,,,,
1778887,1480653033733,,,,,,,,-0.06,0.15,1.0,-3.2,-1.0,0.5,980,0,,,,,,,,,,,,,,,,,,,
1778907,1480653033753,,,,,,,,-0.06,0.15,1.0,-3.2,-1.1,0.5,980,0,,,,,,,,,,,,,,,,,,,
1778927,1480653033773,,,,,60,,,-0.06,0.16,1.0,-3.2,-1.1,0.5,980,0,1,0,0.0,0,37.478367,-122.203728,0.0,0.0,13.5,9,3,1.7,0,0.0,-1,0.0,,0.0,0
1778947,1480653033893,,,,,,,,-0.06,0.16,1.01,-3.2,-1.1,0.5,980,0,,,,,,,,,,,,,,,,,,,
1778967,1480653033913,,,,,,,,-0.06,0.17,1.01,-3.2,-1.1,0.5,980,0,,,,,,,,,,,,,,,,,,,
1778987,1480653033933,,,,,,,,-0.06,0.17,1.01,-3.2,-1.0,0.5,1000,0,,,,,,,,,,,,,,,,,,,
1779007,1480653033953,,,,,,,,-0.06,0.17,1.01,-3.2,-1.0,0.5,1000,0,,,,,,,,,,,,,,,,,,,
1779027,1480653033973,0,44.8,,48.1,60,50.7,,-0.07,0.18,1.01,-3.2,-1.0,0.5,1000,0,1,0,0.0,0,37.478367,-122.203728,0.0,0.0,13.5,9,3,1.7,0,0.0,-1,0.0,0.0,0.0,0
1779047,1480653033993,,,,,,,,-0.06,0.18,1.01,-3.2,-1.1,0.5,1000,0,,,,,,,,,,,,,,,,,,,
1779067,1480653034013,,,,,,,,-0.06,0.18,1.01,-3.2,-1.1,0.5,1000,0,,,,,,,,,,,,,,,,,,,
1779087,1480653034033,,,,,,,,-0.06,0.18,1.01,-3.2,-1.1,0.5,980,0,,,,,,,,,,,,,,,,,,,
1779107,1480653034053,,,,,,,,-0.06,0.18,1.0,-3.2,-1.2,0.5,1000,0,,,,,,,,,,,,,,,,,,,
1779127,1480653034073,,,,,59,,,-0.06,0.18,1.0,-3.2,-1.2,0.5,1000,0,1,0,0.0,0,37.478367,-122.203728,0.0,0.0,13.5,9,3,1.7,0,0.0,-1,0.0,,0.0,0
1779147,1480653033993,,,,,,,,-0.06,0.18,1.0,-3.2,-1.3,0.5,1000,0,,,,,,,,,,,,,,,,,,,
1779167,1480653034013,,,,,,,,-0.06,0.18,0.99,-3.2,-1.3,0.5,980,0,,,,,,,,,,,,,,,,,,,
1779187,1480653034033,,,,,,,,-0.06,0.18,0.99,-3.2,-1.3,0.5,1000,0,,,,,,,,,,,,,,,,,,,
1779207,1480653034053,,,,,,,,-0.06,0.18,0.98,-3.2,-1.3,0.5,1000,0,,,,,,,,,,,,,,,,,,,
1779227,1480653034073,0,46.5,0.0,49.2,60,50.0,15.01,-0.06,0.18,0.98,-3.2,-1.3,0.6,1000,0,1,0,0.0,0,37.478367,-122.203728,0.0,0.0,13.5,9,3,1.7,0,0.0,-1,0.0,0.0,0.0,0
1779247,1480653034093,,,,,,,,-0.05,0.18,0.99,-3.2,-1.3,0.6,1000,0,,,,,,,,,,,,,,,,,,,
1779267,1480653034113,,,,,,,,-0.05,0.18,0.98,-3.2,-1.3,0.6,1000,0,,,,,,,,,,,,,,,,,,,
1779287,1480653034133,,,,,,,,-0.05,0.17,0.98,-3.2,-1.3,0.6,1000,0,,,,,,,,,,,,,,,,,,,
1779307,1480653034153,,,,,,,,-0.05,0.17,0.99,-3.2,-1.2,0.6,1000,0,,,,,,,,,,,,,,,,,,,
1779327,1480653034173,,,,,59,,,-0.04,0.16,0.99,-3.2,-1.0,0.6,1000,0,1,0,0.0,0,37.478367,-122.203728,0.0,0.0,13.5,9,3,1.7,0,0.0,-1,0.0,,0.0,0
1779347,1480653034193,,,,,,,,-0.04,0.16,0.99,-3.3,-0.9,0.6,1000,0,,,,,,,,,,,,,,,,,,,
1779367,1480653034213,,,,,,,,-0.04,0.17,0.99,-3.3,-0.8,0.6,1000,0,,,,,,,,,,,,,,,,,,,
1779387,1480653034233,,,,,,,,-0.04,0.17,0.99,-3.3,-0.7,0.7,1000,0,,,,,,,,,,,,,,,,,,,
1779407,1480653034253,,,,,,,,-0.04,0.17,0.99,-3.3,-0.6,0.7,1000,0,,,,,,,,,,,,,,,,,,,
1779427,1480653034273,0,46.9,,49.0,60,49.4,,-0.04,0.16,0.99,-3.3,-0.5,0.7,1000,0,1,0,0.0,0,37.478367,-122.203728,0.0,0.0,13.5,9,3,1.7,0,0.0,-1,0.0,0.0,0.0,0
1779447,1480653034293,,,,,,,,-0.03,0.16,0.99,-3.3,-0.3,0.7,1000,0,,,,,,,,,,,,,,,,,,,
1779467,1480653034313,,,,,,,,-0.03,0.15,0.99,-3.3,-0.2,0.6,1000,0,,,,,,,,,,,,,,,,,,,
1779487,1480653034333,,,,,,,,-0.03,0.14,1.0,-3.3,0.0,0.6,1000,0,,,,,,,,,,,,,,,,,,,
1779507,1480653034353,,,,,,,,-0.02,0.13,1.0,-3.2,0.2,0.6,1000,0,,,,,,,,,,,,,,,,,,,
1779527,1480653034373,,,,,59,,,-0.02,0.13,1.01,-3.2,0.3,0.5,980,0,1,0,0.0,0,37.478367,-122.203728,0.0,0.0,13.5,9,3,1.7,0,0.0,-1,0.0,,0.0,0
1779547,1480653034393,,,,,,,,-0.02,0.12,1.01,-3.2,0.4,0.5,1000,0,,,,,,,,,,,,,,,,,,,
1779567,1480653034413,,,,,,,,-0.01,0.12,1.01,-3.2,0.5,0.5,1000,0,,,,,,,,,,,,,,,,,,,
1779587,1480653034433,,,,,,,,-0.01,0.11,1.02,-3.2,0.6,0.5,980,0,,,,,,,,,,,,,,,,,,,
1779607,1480653034453,,,,,,,,-0.01,0.1,1.02,-3.2,0.7,0.4,980,0,,,,,,,,,,,,,,,,,,,
1779627,1480653034473,0,43.7,,46.5,58,49.6,,-0.01,0.1,1.02,-3.2,0.8,0.4,980,0,1,0,0.0,0,37.478367,-122.203728,0.0,0.0,13.5,9,3,1.7,0,0.0,-1,0.0,0.0,0.0,0
1779647,1480653034493,,,,,,,,-0.0,0.1,1.02,-3.2,0.8,0.4,980,0,,,,,,,,,,,,,,,,,,,
1779667,1480653034513,,,,,,,,-0.0,0.09,1.02,-3.2,0.8,0.4,980,0,,,,,,,,,,,,,,,,,,,
1779687,1480653034533,,,,,,,,0.0,0.09,1.02,-3.2,0.9,0.4,980,0,,,,,,,,,,,,,,,,,,,
1779707,1480653034553,,,,,,,,0.0,0.08,1.02,-3.2,0.9,0.4,1000,0,,,,,,,,,,,,,,,,,,,
1779727,1480653034573,,,,,59,,,0.01,0.08,1.02,-3.2,0.9,0.3,1000,0,1,0,0.0,0,37.478367,-122.203728,0.0,0.0,13.5,9,3,1.7,0,0.0,-1,0.0,,0.0,0
1779747,1480653034693,,,,,,,,0.01,0.08,1.02,-3.2,1.0,0.3,1000,0,,,,,,,,,,,,,,,,,,,
1779767,1480653034713,,,,,,,,0.01,0.07,1.02,-3.2,0.9,0.3,1000,0,,,,,,,,,,,,,,,,,,,
1779787,1480653034733,,,,,,,,0.01,0.07,1.03,-3.2,1.0,0.3,1000,0,,,,,,,,,,,,,,,,,,,
1779807,1480653034753,,,,,,,,0.01,0.07,1.03,-3.2,1.1,0.3,1000,0,,,,,,,,,,,,,,,,,,,
1779827,1480653034773,0,46.8,,48.5,59,47.7,,0.01,0.07,1.03,-3.1,1.1,0.3,1000,0,1,0,0.0,0,37.478367,-122.203728,0.0,0.0,13.5,9,3,1.7,0,0.0,-1,0.0,0.0,0.0,0
1779847,1480653034793,,,,,,,,0.01,0.06,1.03,-3.1,1.1,0.3,1000,0,,,,,,,,,,,,,,,,,,,
1779867,1480653034813,,,,,,,,0.02,0.06,1.04,-3.1,1.2,0.3,1000,0,,,,,,,,,,,,,,,,,,,
1779887,1480653034833,,,,,,,,0.02,0.05,1.04,-3.1,1.2,0.3,1000,0,,,,,,,,,,,,,,,,,,,
1779907,1480653034853,,,,,,,,0.02,0.05,1.04,-3.1,1.2,0.2,1000,0,,,,,,,,,,,,,,,,,,,
1779927,1480653034873,,,,,59,,,0.02,0.04,1.04,-3.1,1.2,0.2,1000,0,1,0,0.0,0,37.478367,-122.203728,0.0,0.0,13.5,9,3,1.7,0,0.0,-1,0.0,,0.0,0
1779947,1480653034793,,,,,,,,0.01,0.04,1.04,-3.1,1.2,0.2,1020,0,,,,,,,,,,,,,,,,,,,
1779967,1480653034813,,,,,,,,0.01,0.04,1.03,-3.1,1.2,0.2,1020,0,,,,,,,,,,,,,,,,,,,
1779987,1480653034833,,,,,,,,0.0,0.03,1.03,-3.1,1.1,0.1,1000,0,,,,,,,,,,,,,,,,,,,
1780007,1480653034853,,,,,,,,-0.0,0.03,1.02,-3.1,1.0,0.1,1000,0,,,,,,,,,,,,,,,,,,,
1780027,1480653034873,0,45.2,,48.8,60,50.4,,-0.01,0.03,1.01,-3.1,0.9,0.1,1000,0,1,0,0.0,0,37.478367,-122.203728,0.0,0.0,13.5,9,3,1.7,0,0.0,-1,0.0,0.0,0.0,0
1780047,1480653034893,,,,,,,,-0.01,0.03,1.0,-3.1,0.7,0.1,1000,0,,,,,,,,,,,,,,,,,,,
1780067,1480653034908,,,,,,,,-0.02,0.03,1.0,-3.1,0.6,0.1,1000,0,,,,,,,,,,,,,,,,,,,
1780087,1480653034928,,,,,,,,-0.02,0.03,0.99,-3.2,0.6,0.0,1000,0,,,,,,,,,,,,,,,,,,,
1780107,1480653034948,,,,,,,,-0.03,0.03,0.98,-3.2,0.5,0.0,1000,0,,,,,,,,,,,,,,,,,,,
1780127,1480653034968,,,,,60,,,-0.03,0.03,0.98,-3.2,0.5,0.0,1000,0,1,0,0.0,0,37.478367,-122.203728,0.0,0.0,13.5,9,3,1.7,0,0.0,-1,0.0,,0.0,0
1780147,1480653034994,,,,,,,,-0.03,0.03,0.98,-3.2,0.5,-0.0,1000,0,,,,,,,,,,,,,,,,,,,
1780167,1480653035014,,,,,,,,-0.03,0.03,0.98,-3.1,0.5,-0.0,1000,0,,,,,,,,,,,,,,,,,,,
1780187,1480653035034,,,,,,,,-0.04,0.03,0.98,-3.1,0.5,-0.1,1000,0,,,,,,,,,,,,,,,,,,,
1780207,1480653035054,,,,,,,,-0.04,0.04,0.97,-3.1,0.5,-0.0,1000,0,,,,,,,,,,,,,,,,,,,
1780227,1480653035074,0,45.6,0.0,48.8,61,50.3,15.0,-0.04,0.03,0.97,-3.1,0.5,-0.0,980,0,1,0,0.0,0,37.478367,-122.203728,0.0,0.0,13.5,9,3,1.7,0,0.0,-1,0.0,0.0,0.0,0
1780247,1480653035093,,,,,,,,-0.04,0.03,0.98,-3.1,0.5,-0.1,980,0,,,,,,,,,,,,,,,,,,,
1780267,1480653035113,,,,,,,,-0.04,0.02,0.98,-3.1,0.5,-0.1,1000,0,,,,,,,,,,,,,,,,,,,
1780287,1480653035133,,,,,,,,-0.04,0.02,0.98,-3.1,0.6,-0.1,1000,0,,,,,,,,,,,,,,,,,,,
1780307,1480653035153,,,,,,,,-0.04,0.01,0.98,-3.1,0.6,-0.1,1000,0,,,,,,,,,,,,,,,,,,,
1780327,1480653035173,,,,,59,,,-0.04,0.01,0.98,-3.1,0.6,-0.1,1000,0,1,0,0.0,0,37.478367,-122.203728,0.0,0.0,13.5,9,3,1.7,0,0.0,-1,0.0,,0.0,0
1780347,1480653035194,,,,,,,,-0.04,0.0,0.97,-3.1,0.6,-0.1,980,0,,,,,,,,,,,,,,,,,,,
1780367,1480653035214,,,,,,,,-0.04,0.0,0.98,-3.1,0.7,-0.1,1000,0,,,,,,,,,,,,,,,,,,,
1780387,1480653035234,,,,,,,,-0.04,-0.0,0.98,-3.0,0.7,-0.1,980,0,,,,,,,,,,,,,,,,,,,
1780407,1480653035254,,,,,,,,-0.04,-0.01,0.98,-3.1,0.7,-0.2,980,0,,,,,,,,,,,,,,,,,,,
1780427,1480653035274,0,45.4,,48.7,58,50.4,,-0.04,-0.01,0.98,-3.0,0.8,-0.2,1000,0,1,0,0.0,0,37.478367,-122.203728,0.0,0.0,13.5,9,3,1.7,0,0.0,-1,0.0,0.0,0.0,0
1780447,1480653035294,,,,,,,,-0.04,-0.01,0.98,-3.0,0.8,-0.1,980,0,,,,,,,,,,,,,,,,,,,
1780467,1480653035314,,,,,,,,-0.04,-0.01,0.98,-3.0,0.8,-0.2,980,0,,,,,,,,,,,,,,,,,,,
1780487,1480653035334,,,,,,,,-0.05,-0.02,0.98,-3.0,0.9,-0.2,980,0,,,,,,,,,,,,,,,,,,,
1780507,1480653035354,,,,,,,,-0.04,-0.02,0.98,-3.0,0.9,-0.2,980,0,,,,,,,,,,,,,,,,,,,
1780527,1480653035374,,,,,59,,,-0.05,-0.02,0.98,-3.0,0.9,-0.2,980,0,1,0,0.0,0,37.478367,-122.203728,0.0,0.0,13.5,9,3,1.7,0,0.0,-1,0.0,,0.0,0
1780547,1480653035493,,,,,,,,-0.04,-0.02,0.98,-3.0,0.8,-0.2,980,0,,,,,,,,,,,,,,,,,,,
1780567,1480653035513,,,,,,,,-0.04,-0.02,0.97,-3.0,0.8,-0.2,980,0,,,,,,,,,,,,,,,,,,,
1780587,1480653035533,,,,,,,,-0.04,-0.02,0.97,-3.0,0.8,-0.2,980,0,,,,,,,,,,,,,,,,,,,
1780607,1480653035553,,,,,,,,-0.05,-0.01,0.97,-3.1,0.7,-0.2,980,0,,,,,,,,,,,,,,,,,,,
1780627,1480653035573,0,46.9,,49.6,59,49.8,,-0.05,-0.01,0.97,-3.1,0.7,-0.2,1000,0,1,0,0.0,0,37.478367,-122.203728,0.0,0.0,13.5,9,3,1.7,0,0.0,-1,0.0,0.0,0.0,0
1780647,1480653035593,,,,,,,,-0.05,-0.01,0.96,-3.1,0.6,-0.2,1000,0,,,,,,,,,,,,,,,,,,,
1780667,1480653035613,,,,,,,,-0.05,-0.0,0.96,-3.1,0.6,-0.2,1000,0,,,,,,,,,,,,,,,,,,,
1780687,1480653035633,,,,,,,,-0.05,0.0,0.96,-3.1,0.6,-0.2,1000,0,,,,,,,,,,,,,,,,,,,
1780707,1480653035653,,,,,,,,-0.05,0.0,0.96,-3.1,0.6,-0.2,1000,0,,,,,,,,,,,,,,,,,,,
1780727,1480653035673,,,,,57,,,-0.05,0.01,0.96,-3.1,0.6,-0.2,1000,0,1,0,0.0,0,37.478367,-122.203728,0.0,0.0,13.5,9,3,1.7,0,0.0,-1,0.0,,0.0,0
1780747,1480653035594,,,,,,,,-0.05,0.01,0.96,-3.1,0.5,-0.2,1000,0,,,,,,,,,,,,,,,,,,,
1780767,1480653035614,,,,,,,,-0.05,0.01,0.96,-3.1,0.6,-0.2,1000,0,,,,,,,,,,,,,,,,,,,
1780787,1480653035634,,,,,,,,-0.04,0.02,0.97,-3.1,0.7,-0.2,1000,0,,,,,,,,,,,,,,,,,,,
1780807,1480653035654,,,,,,,,-0.05,0.02,0.97,-3.1,0.8,-0.2,1000,0,,,,,,,,,,,,,,,,,,,
1780827,1480653035674,0,44.1,,46.5,57,49.1,,-0.05,0.02,0.96,-3.1,0.8,-0.2,1000,0,1,0,0.0,0,37.478367,-122.203728,0.0,0.0,13.5,9,3,1.7,0,0.0,-1,0.0,0.0,0.0,0
1780847,1480653035694,,,,,,,,-0.05,0.02,0.97,-3.1,0.8,-0.2,1000,0,,,,,,,,,,,,,,,,,,,
1780867,1480653035714,,,,,,,,-0.05,0.01,0.97,-3.1,0.8,-0.2,1000,0,,,,,,,,,,,,,,,,,,,
1780887,1480653035734,,,,,,,,-0.05,0.01,0.97,-3.1,0.9,-0.2,1000,0,,,,,,,,,,,,,,,,,,,
1780907,1480653035754,,,,,,,,-0.05,0.0,0.97,-3.1,0.9,-0.2,1000,0,,,,,,,,,,,,,,,,,,,
1780927,1480653035774,,,,,59,,,-0.05,0.0,0.97,-3.1,0.9,-0.2,980,0,1,0,0.0,0,37.478367,-122.203728,0.0,0.0,13.5,9,3,1.7,0,0.0,-1,0.0,,0.0,0
1780947,1480653035793,,,,,,,,-0.05,0.0,0.97,-3.0,0.9,-0.3,980,0,,,,,,,,,,,,,,,,,,,
1780967,1480653035813,,,,,,,,-0.05,0.0,0.97,-3.0,1.0,-0.2,980,0,,,,,,,,,,,,,,,,,,,
1780987,1480653035833,,,,,,,,-0.04,-0.0,0.97,-3.0,1.0,-0.2,980,0,,,,,,,,,,,,,,,,,,,
1781007,1480653035853,,,,,,,,-0.04,0.0,0.97,-3.0,1.0,-0.2,980,0,,,,,,,,,,,,,,,,,,,
1781027,1480653035873,0,43.9,,46.8,58,48.3,,-0.04,-0.0,0.97,-3.0,0.9,-0.2,980,0,1,0,0.0,0,37.478367,-122.203728,0.0,0.0,13.5,9,3,1.7,0,0.0,-1,0.0,0.0,0.0,0
1781047,1480653035893,,,,,,,,-0.04,0.0,0.97,-3.0,0.9,-0.2,980,0,,,,,,,,,,,,,,,,,,,
1781067,1480653035908,,,,,,,,-0.04,0.01,0.97,-3.0,0.8,-0.2,960,0,,,,,,,,,,,,,,,,,,,
1781087,1480653035928,,,,,,,,-0.04,0.01,0.97,-3.0,0.7,-0.2,960,0,,,,,,,,,,,,,,,,,,,
1781107,1480653035948,,,,,,,,-0.04,0.01,0.97,-3.1,0.6,-0.2,980,0,,,,,,,,,,,,,,,,,,,
1781127,1480653035968,,,,,58,,,-0.04,0.01,0.97,-3.1,0.5,-0.2,980,0,1,0,0.0,0,37.478367,-122.203728,0.0,0.0,13.5,9,3,1.7,0,0.0,-1,0.0,,0.0,0
1781147,1480653035994,,,,,,,,-0.05,0.01,0.96,-3.1,0.4,-0.2,980,0,,,,,,,,,,,,,,,,,,,
1781167,1480653036014,,,,,,,,-0.05,0.02,0.96,-3.1,0.4,-0.1,980,0,,,,,,,,,,,,,,,,,,,
1781187,1480653036034,,,,,,,,-0.05,0.02,0.96,-3.1,0.4,-0.1,980,0,,,,,,,,,,,,,,,,,,,
1781207,1480653036054,,,,,,,,-0.05,0.03,0.96,-3.1,0.5,-0.1,960,0,,,,,,,,,,,,,,,,,,,
1781227,1480653036074,0,44.8,0.0,46.7,57,49.2,14.88,-0.05,0.03,0.97,-3.1,0.5,-0.1,980,0,1,0,0.0,0,37.478367,-122.203728,0.0,0.0,13.5,9,3,1.7,0,0.0,-1,0.0,0.0,0.0,0
1781247,1480653036093,,,,,,,,-0.04,0.03,0.97,-3.1,0.6,-0.1,960,0,,,,,,,,,,,,,,,,,,,
1781267,1480653036113,,,,,,,,-0.04,0.03,0.98,-3.1,0.7,-0.1,960,0,,,,,,,,,,,,,,,,,,,
1781287,1480653036133,,,,,,,,-0.03,0.03,0.98,-3.1,0.8,-0.1,980,0,,,,,,,,,,,,,,,,,,,
1781307,1480653036153,,,,,,,,-0.03,0.02,0.99,-3.1,0.9,-0.0,980,0,,,,,,,,,,,,,,,,,,,
1781327,1480653036173,,,,,58,,,-0.02,0.03,0.99,-3.1,0.9,-0.0,960,0,1,0,0.0,0,37.478367,-122.203728,0.0,0.0,13.5,9,3,1.7,0,0.0,-1,0.0,,0.0,0
1781347,1480653036293,,,,,,,,-0.02,0.02,1.0,-3.1,0.9,0.0,980,0,,,,,,,,,,,,,,,,,,,
1781367,1480653036313,,,,,,,,-0.02,0.03,1.0,-3.1,0.9,0.1,960,0,,,,,,,,,,,,,,,,,,,
1781387,1480653036333,,,,,,,,-0.01,0.03,1.0,-3.1,0.9,0.1,980,0,,,,,,,,,,,,,,,,,,,
1781407,1480653036353,,,,,,,,-0.01,0.04,1.0,-3.1,0.7,0.1,980,0,,,,,,,,,,,,,,,,,,,
1781427,1480653036373,0,44.2,,47.4,59,47.6,,-0.01,0.05,1.0,-3.2,0.5,0.2,980,0,1,0,0.0,0,37.478367,-122.203728,0.0,0.0,13.5,9,3,1.7,0,0.0,-1,0.0,0.0,0.0,0
1781447,1480653036393,,,,,,,,-0.02,0.06,0.99,-3.2,0.4,0.3,960,0,,,,,,,,,,,,,,,,,,,
1781467,1480653036413,,,,,,,,-0.02,0.07,0.99,-3.2,0.2,0.3,960,0,,,,,,,,,,,,,,,,,,,
1781487,1480653036433,,,,,,,,-0.03,0.08,1.0,-3.2,-0.0,0.3,960,0,,,,,,,,,,,,,,,,,,,
1781507,1480653036453,,,,,,,,-0.03,0.09,1.0,-3.2,-0.1,0.4,980,0,,,,,,,,,,,,,,,,,,,
1781527,1480653036473,,,,,56,,,-0.04,0.1,1.0,-3.2,-0.2,0.4,980,0,1,0,0.0,0,37.478367,-122.203728,0.0,0.0,13.5,9,3,1.7,0,0.0,-1,0.0,,0.0,0
1781547,1480653036393,,,,,,,,-0.04,0.11,1.0,-3.2,-0.3,0.4,980,0,,,,,,,,,,,,,,,,,,,
1781567,1480653036413,,,,,,,,-0.04,0.12,1.01,-3.2,-0.3,0.4,960,0,,,,,,,,,,,,,,,,,,,
1781587,1480653036433,,,,,,,,-0.04,0.12,1.01,-3.2,-0.3,0.4,980,0,,,,,,,,,,,,,,,,,,,
1781607,1480653036453,,,,,,,,-0.05,0.12,1.02,-3.2,-0.2,0.4,980,0,,,,,,,,,,,,,,,,,,,
1781627,1480653036473,0,46.9,,48.5,57,50.7,,-0.05,0.11,1.02,-3.2,-0.0,0.4,980,0,1,0,0.0,0,37.478367,-122.203728,0.0,0.0,13.5,9,3,1.7,0,0.0,-1,0.0,0.0,0.0,0
1781647,1480653036493,,,,,,,,-0.05,0.11,1.03,-3.2,0.1,0.4,980,0,,,,,,,,,,,,,,,,,,,
1781667,1480653036513,,,,,,,,-0.05,0.11,1.03,-3.2,0.2,0.4,980,0,,,,,,,,,,,,,,,,,,,
1781687,1480653036533,,,,,,,,-0.06,0.1,1.04,-3.1,0.3,0.4,980,0,,,,,,,,,,,,,,,,,,,
1781707,1480653036553,,,,,,,,-0.06,0.09,1.04,-3.1,0.4,0.3,980,0,,,,,,,,,,,,,,,,,,,
1781727,1480653036573,,,,,58,,,-0.06,0.09,1.04,-3.1,0.5,0.3,980,0,1,0,0.0,0,37.478367,-122.203728,0.0,0.0,13.5,9,3,1.7,0,0.0,-1,0.0,,0.0,0
