"Interval"|"ms"|0|0|1,"Utc"|"ms"|0|0|1,"FuelLevel"|"F"|0|100|5,"OilTemp"|"F"|0.0|300.0|5,"CoolantPressPSI"|"PSI"|0.0|20.0|1,"Coolant"|"F"|0.0|300.0|5,"OilPress"|"PSI"|0|150|10,"EngineTemp"|"F"|0.0|300.0|5,"Battery"|"Volts"|0.0|20.0|1,"AccelX"|"G"|-3.0|3.0|50,"AccelY"|"G"|-3.0|3.0|50,"AccelZ"|"G"|-3.0|3.0|50,"Yaw"|"Deg/Sec"|-300.0|300.0|50,"Pitch"|"Deg/Sec"|-300.0|300.0|50,"Roll"|"Deg/Sec"|-300.0|300.0|50,"RPM"|""|0|10000|50,"Driveshaft"|"RPM"|0|5000|50,"GPIO1"|""|0|1|10,"GPIO2"|""|0|1|10,"GearRatio"|""|-5.0|5.0|10,"Gear"|""|-1|5|10,"Latitude"|"Degrees"|-180.0|180.0|10,"Longitude"|"Degrees"|-180.0|180.0|10,"Speed"|"MPH"|0.0|150.0|10,"Distance"|"Miles"|0.0|0.0|10,"Altitude"|"Feet"|0.0|4000.0|10,"GPSSats"|""|0|20|10,"GPSQual"|""|0|5|10,"GPSDOP"|""|0.0|20.0|10,"LapCount"|""|0|0|10,"LapTime"|"Min"|0.0|0.0|10,"Sector"|""|0|0|10,"SectorTime"|"Min"|0.0|0.0|10,"PredTime"|"Min"|0.0|0.0|5,"ElapsedTime"|"Min"|0.0|0.0|10,"CurrentLap"|""|0|0|10
999675,1480871122315,,,,,,,,0.09,0.04,1.01,-3.1,-0.8,-0.2,740,0,,,,,,,,,,,,,,,,,,,
,,,,,,,,,,,,,,,,,,,,,,,,,,,,,,,,,,,
999515,1480871122154,,,,,,,,0.1,0.04,0.98,-3.1,-0.7,-0.3,680,15,,,,,,,,,,,,,,,,,,,
999535,1480871122174,,,,,,,,0.1,0.03,0.99,-3.0,-0.8,-0.3,680,1538461,,,,,,,,,,,,,,,,,,,
999555,1480871122194,,,,,1,,,0.11,0.05,1.0,-3.1,-0.8,-0.3,760,0,1,0,22.667,0,38.159119,-122.454391,0.0,0.004,46.6,10,3,1.9,0,0.0,-1,0.0,,0.0,0
999575,1480871122214,,,,,,,,0.11,0.04,0.98,-3.1,-0.8,-0.2,860,0,,,,,,,,,,,,,,,,,,,
999595,1480871122234,,,,,,,,0.11,0.05,0.98,-3.1,-0.8,-0.2,880,0,,,,,,,,,,,,,,,,,,,
999615,1480871122254,,,,,,,,0.11,0.05,0.99,-3.1,-1.0,-0.2,820,0,,,,,,,,,,,,,,,,,,,
999635,1480871122274,,,,,,,,0.1,0.05,0.99,-3.1,-0.9,-0.2,780,0,,,,,,,,,,,,,,,,,,,
999655,1480871122295,0,90.8,,129.6,1,114.8,,0.09,0.04,0.99,-3.1,-0.9,-0.2,780,0,1,0,22.667,0,38.159119,-122.454391,0.0,0.004,46.6,10,3,1.9,0,0.0,-1,0.0,0.0,0.0,0
999675,1480871122315,,,,,,,,0.09,0.04,1.01,-3.1,-0.8,-0.2,740,0,,,,,,,,,,,,,,,,,,,
999695,1480871122335,,,,,,,,0.09,0.04,1.0,-3.1,-0.8,-0.2,700,0,,,,,,,,,,,,,,,,,,,
999715,1480871122355,,,,,,,,0.09,0.03,1.0,-3.1,-0.8,-0.3,720,0,,,,,,,,,,,,,,,,,,,
999735,1480871122375,,,,,,,,0.09,0.03,0.99,-3.1,-0.7,-0.3,720,0,,,,,,,,,,,,,,,,,,,
999755,1480871122494,,,,,2,,,0.1,0.03,0.99,-3.1,-0.7,-0.3,700,0,1,0,0.0,0,38.159119,-122.454391,0.0,0.004,46.6,10,3,1.9,0,0.0,-1,0.0,,0.0,0
999775,1480871122514,,,,,,,,0.1,0.03,0.98,-3.0,-0.7,-0.3,640,0,,,,,,,,,,,,,,,,,,,
999795,1480871122534,,,,,,,,0.1,0.04,0.98,-3.0,-0.7,-0.3,640,0,,,,,,,,,,,,,,,,,,,
999815,1480871122554,,,,,,,,0.1,0.04,0.98,-3.1,-0.7,-0.3,620,0,,,,,,,,,,,,,,,,,,,
999835,1480871122574,,,,,,,,0.1,0.04,0.98,-3.1,-0.7,-0.3,620,0,,,,,,,,,,,,,,,,,,,
999855,1480871122594,0,93.7,,130.1,3,113.3,,0.1,0.04,0.99,-3.1,-0.7,-0.3,580,0,1,0,0.0,0,38.159119,-122.454391,0.0,0.004,46.6,10,3,1.9,0,0.0,-1,0.0,0.0,0.0,0
999875,1480871122614,,,,,,,,0.09,0.04,0.99,-3.0,-0.7,-0.3,560,0,,,,,,,,,,,,,,,,,,,
999895,1480871122634,,,,,,,,0.1,0.04,0.99,-3.0,-0.7,-0.3,560,0,,,,,,,,,,,,,,,,,,,
999915,1480871122654,,,,,,,,0.1,0.05,0.99,-3.0,-0.7,-0.3,580,0,,,,,,,,,,,,,,,,,,,
999935,1480871122674,,,,,,,,0.09,0.04,0.99,-3.0,-0.7,-0.3,580,0,,,,,,,,,,,,,,,,,,,
999955,1480871122595,,,,,3,,,0.09,0.04,0.99,-3.1,-0.7,-0.3,580,0,1,0,0.0,0,38.159119,-122.454391,0.0,0.004,46.6,10,3,1.9,0,0.0,-1,0.0,,0.0,0
999975,1480871122615,,,,,,,,0.09,0.04,1.0,-3.0,-0.7,-0.3,580,0,,,,,,,,,,,,,,,,,,,
999995,1480871122635,,,,,,,,0.09,0.05,1.0,-3.0,-0.7,-0.3,580,0,,,,,,,,,,,,,,,,,,,
1000015,1480871122655,,,,,,,,0.09,0.05,0.99,-3.0,-0.8,-0.3,580,0,,,,,,,,,,,,,,,,,,,
1000035,1480871122675,,,,,,,,0.09,0.05,1.0,-3.0,-0.7,-0.3,580,0,,,,,,,,,,,,,,,,,,,
1000055,1480871122694,0,90.4,0.0,128.8,4,114.5,14.91,0.09,0.06,1.0,-3.0,-0.8,-0.2,600,0,1,1,0.0,0,38.159119,-122.454391,0.0,0.004,46.6,10,3,1.9,0,0.0,-1,0.0,0.0,0.0,0
1000075,1480871122714,,,,,,,,0.09,0.05,1.0,-3.0,-0.9,-0.2,600,0,,,,,,,,,,,,,,,,,,,
1000095,1480871122734,,,,,,,,0.09,0.05,1.0,-3.1,-0.8,-0.2,580,0,,,,,,,,,,,,,,,,,,,
1000115,1480871122754,,,,,,,,0.09,0.06,1.0,-3.0,-0.9,-0.2,560,0,,,,,,,,,,,,,,,,,,,
1000135,1480871122774,,,,,,,,0.09,0.06,1.0,-3.1,-0.8,-0.2,560,0,,,,,,,,,,,,,,,,,,,
1000155,1480871122794,,,,,5,,,0.1,0.06,1.0,-3.1,-0.8,-0.2,540,0,1,1,0.0,0,38.159119,-122.454391,0.0,0.004,46.6,10,3,1.9,0,0.0,-1,0.0,,0.0,0
1000175,1480871122814,,,,,,,,0.09,0.06,1.0,-3.1,-0.8,-0.2,540,0,,,,,,,,,,,,,,,,,,,
1000195,1480871122834,,,,,,,,0.09,0.06,1.0,-3.1,-0.8,-0.2,520,0,,,,,,,,,,,,,,,,,,,
1000215,1480871122854,,,,,,,,0.09,0.06,1.0,-3.0,-0.8,-0.2,520,0,,,,,,,,,,,,,,,,,,,
1000235,1480871122874,,,,,,,,0.09,0.06,0.99,-3.1,-0.9,-0.2,500,0,,,,,,,,,,,,,,,,,,,
1000255,1480871122894,0,93.0,,130.4,6,114.8,,0.09,0.06,1.0,-3.1,-0.8,-0.2,500,0,1,1,0.0,0,38.159119,-122.454391,0.0,0.004,46.6,10,3,1.9,0,0.0,-1,0.0,0.0,0.0,0
1000275,1480871122909,,,,,,,,0.09,0.06,0.99,-3.1,-0.9,-0.2,500,0,,,,,,,,,,,,,,,,,,,
1000295,1480871122929,,,,,,,,0.09,0.06,1.0,-3.1,-0.9,-0.2,500,0,,,,,,,,,,,,,,,,,,,
1000315,1480871122949,,,,,,,,0.09,0.07,1.0,-3.1,-0.8,-0.2,480,0,,,,,,,,,,,,,,,,,,,
1000335,1480871122969,,,,,,,,0.09,0.06,0.99,-3.1,-0.9,-0.2,480,0,,,,,,,,,,,,,,,,,,,
1000355,1480871122995,,,,,7,,,0.09,0.07,1.0,-3.1,-0.8,-0.2,440,0,1,1,0.0,0,38.159119,-122.454391,0.0,0.004,46.6,10,3,1.9,0,0.0,-1,0.0,,0.0,0
1000375,1480871123015,,,,,,,,0.09,0.07,1.0,-3.1,-0.8,-0.2,440,0,,,,,,,,,,,,,,,,,,,
1000395,1480871123035,,,,,,,,0.09,0.06,0.99,-3.1,-0.8,-0.2,440,0,,,,,,,,,,,,,,,,,,,
1000415,1480871123055,,,,,,,,0.09,0.06,0.99,-3.1,-0.9,-0.2,420,0,,,,,,,,,,,,,,,,,,,
1000435,1480871123075,,,,,,,,0.09,0.06,1.0,-3.0,-0.8,-0.2,420,0,,,,,,,,,,,,,,,,,,,
1000455,1480871123095,0,92.6,,129.1,7,112.3,,0.09,0.07,1.0,-3.0,-0.8,-0.2,400,0,1,1,0.0,0,38.159119,-122.454391,0.0,0.004,46.6,10,3,1.9,0,0.0,-1,0.0,0.0,0.0,0
1000475,1480871123115,,,,,,,,0.09,0.07,1.0,-3.0,-0.8,-0.2,400,0,,,,,,,,,,,,,,,,,,,
1000495,1480871123135,,,,,,,,0.09,0.06,1.0,-3.0,-0.8,-0.2,400,0,,,,,,,,,,,,,,,,,,,
1000515,1480871123155,,,,,,,,0.09,0.06,0.99,-3.0,-0.8,-0.2,380,0,,,,,,,,,,,,,,,,,,,
1000535,1480871123175,,,,,,,,0.09,0.06,0.99,-3.0,-0.9,-0.3,380,0,,,,,,,,,,,,,,,,,,,
1000555,1480871123294,,,,,6,,,0.09,0.06,0.99,-3.0,-0.9,-0.3,380,0,1,1,0.0,0,38.159119,-122.454391,0.0,0.004,46.6,10,3,1.9,0,0.0,-1,0.0,,0.0,0
1000575,1480871123314,,,,,,,,0.09,0.06,0.99,-3.1,-0.9,-0.3,380,0,,,,,,,,,,,,,,,,,,,
1000595,1480871123334,,,,,,,,0.09,0.06,0.99,-3.1,-0.9,-0.3,380,0,,,,,,,,,,,,,,,,,,,
1000615,1480871123354,,,,,,,,0.09,0.06,0.98,-3.0,-1.0,-0.3,360,0,,,,,,,,,,,,,,,,,,,
1000635,1480871123374,,,,,,,,0.09,0.06,0.98,-3.0,-1.0,-0.3,360,0,,,,,,,,,,,,,,,,,,,
1000655,1480871123394,0,90.7,,129.1,5,114.9,,0.09,0.06,0.98,-3.0,-1.0,-0.3,360,0,1,1,0.0,0,38.159119,-122.454391,0.0,0.004,46.6,10,3,1.9,0,0.0,-1,0.0,0.0,0.0,0
1000675,1480871123414,,,,,,,,0.09,0.06,0.98,-3.0,-1.0,-0.3,320,0,,,,,,,,,,,,,,,,,,,
1000695,1480871123434,,,,,,,,0.09,0.06,0.98,-3.0,-0.9,-0.3,320,0,,,,,,,,,,,,,,,,,,,
1000715,1480871123454,,,,,,,,0.09,0.06,0.99,-3.0,-0.9,-0.3,320,0,,,,,,,,,,,,,,,,,,,
1000735,1480871123474,,,,,,,,0.09,0.06,0.99,-3.0,-0.9,-0.3,320,0,,,,,,,,,,,,,,,,,,,
1000755,1480871123494,,,,,5,,,0.09,0.06,0.99,-3.0,-0.9,-0.3,320,0,1,1,0.0,0,38.159119,-122.454391,0.0,0.004,46.6,10,3,1.9,0,0.0,-1,0.0,,0.0,0
1000775,1480871123410,,,,,,,,0.09,0.06,0.99,-3.0,-0.9,-0.3,320,0,,,,,,,,,,,,,,,,,,,
1000795,1480871123430,,,,,,,,0.09,0.06,0.99,-3.0,-0.9,-0.3,300,0,,,,,,,,,,,,,,,,,,,
1000815,1480871123450,,,,,,,,0.09,0.06,0.99,-3.0,-0.8,-0.3,300,0,,,,,,,,,,,,,,,,,,,
1000835,1480871123470,,,,,,,,0.09,0.06,0.99,-3.0,-0.9,-0.3,300,0,,,,,,,,,,,,,,,,,,,
1000855,1480871123494,2,92.4,,129.0,6,112.3,,0.09,0.06,0.99,-3.0,-0.8,-0.3,300,0,1,1,0.0,0,38.159119,-122.454391,0.0,0.004,46.6,10,3,1.9,0,0.0,-1,0.0,0.0,0.0,0
1000875,1480871123514,,,,,,,,0.09,0.06,0.99,-3.0,-0.8,-0.3,280,0,,,,,,,,,,,,,,,,,,,
1000895,1480871123534,,,,,,,,0.09,0.06,0.99,-3.0,-0.8,-0.3,280,0,,,,,,,,,,,,,,,,,,,
1000915,1480871123554,,,,,,,,0.09,0.06,0.99,-3.0,-0.8,-0.3,280,0,,,,,,,,,,,,,,,,,,,
1000935,1480871123574,,,,,,,,0.09,0.06,0.99,-3.0,-0.8,-0.3,280,0,,,,,,,,,,,,,,,,,,,
1000955,1480871123594,,,,,6,,,0.09,0.06,0.99,-3.0,-0.8,-0.3,280,0,1,1,0.0,0,38.159119,-122.454391,0.0,0.004,46.6,10,3,1.9,0,0.0,-1,0.0,,0.0,0
1000975,1480871123614,,,,,,,,0.09,0.06,0.99,-3.0,-0.9,-0.3,280,0,,,,,,,,,,,,,,,,,,,
1000995,1480871123634,,,,,,,,0.09,0.06,0.99,-3.0,-0.8,-0.3,280,0,,,,,,,,,,,,,,,,,,,
1001015,1480871123654,,,,,,,,0.09,0.06,0.99,-3.0,-0.8,-0.3,280,0,,,,,,,,,,,,,,,,,,,
1001035,1480871123674,,,,,,,,0.09,0.06,0.99,-3.1,-0.8,-0.3,280,0,,,,,,,,,,,,,,,,,,,
1001055,1480871123694,0,93.8,0.0,130.3,7,114.1,12.08,0.09,0.06,0.99,-3.1,-0.8,-0.3,280,0,1,1,0.0,0,38.159119,-122.454391,0.0,0.004,46.6,10,3,1.9,0,0.0,-1,0.0,0.0,0.0,0
1001075,1480871123714,,,,,,,,0.09,0.06,0.99,-3.1,-0.8,-0.3,260,0,,,,,,,,,,,,,,,,,,,
1001095,1480871123734,,,,,,,,0.09,0.06,0.99,-3.1,-0.8,-0.2,260,0,,,,,,,,,,,,,,,,,,,
1001115,1480871123754,,,,,,,,0.09,0.06,0.99,-3.0,-0.8,-0.3,260,0,,,,,,,,,,,,,,,,,,,
1001135,1480871123774,,,,,,,,0.09,0.06,0.99,-3.1,-0.8,-0.2,260,0,,,,,,,,,,,,,,,,,,,
1001155,1480871123794,,,,,7,,,0.09,0.07,0.99,-3.1,-0.8,-0.3,240,0,1,1,0.0,0,38.159119,-122.454391,0.0,0.004,46.6,10,3,1.9,0,0.0,-1,0.0,,0.0,0
1001175,1480871123814,,,,,,,,0.09,0.06,0.99,-3.1,-0.8,-0.3,240,0,,,,,,,,,,,,,,,,,,,
1001195,1480871123834,,,,,,,,0.09,0.06,0.99,-3.1,-0.8,-0.3,240,0,,,,,,,,,,,,,,,,,,,
1001215,1480871123854,,,,,,,,0.09,0.06,0.99,-3.1,-0.8,-0.3,240,0,,,,,,,,,,,,,,,,,,,
1001235,1480871123874,,,,,,,,0.09,0.07,0.99,-3.1,-0.8,-0.3,240,0,,,,,,,,,,,,,,,,,,,
1001255,1480871123894,0,93.2,,129.8,7,112.7,,0.09,0.06,0.99,-3.1,-0.8,-0.3,240,0,1,1,0.0,0,38.159119,-122.454391,0.0,0.004,46.6,10,3,1.9,0,0.0,-1,0.0,0.0,0.0,0
1001275,1480871123908,,,,,,,,0.09,0.07,0.99,-3.1,-0.8,-0.3,240,0,,,,,,,,,,,,,,,,,,,
1001295,1480871123928,,,,,,,,0.09,0.07,0.99,-3.0,-0.8,-0.2,240,0,,,,,,,,,,,,,,,,,,,
1001315,1480871123948,,,,,,,,0.09,0.07,0.99,-3.0,-0.9,-0.3,240,0,,,,,,,,,,,,,,,,,,,
1001335,1480871123968,,,,,,,,0.09,0.07,0.99,-3.0,-0.9,-0.3,240,0,,,,,,,,,,,,,,,,,,,
1001355,1480871124094,,,,,8,,,0.09,0.07,0.99,-3.0,-0.9,-0.3,180,0,1,1,0.0,0,38.159119,-122.454391,0.0,0.004,46.6,10,3,1.9,0,0.0,-1,0.0,,0.0,0
1001375,1480871124114,,,,,,,,0.09,0.06,0.99,-3.0,-0.9,-0.2,180,0,,,,,,,,,,,,,,,,,,,
1001395,1480871124134,,,,,,,,0.09,0.07,0.99,-3.0,-0.9,-0.2,180,0,,,,,,,,,,,,,,,,,,,
1001415,1480871124154,,,,,,,,0.09,0.07,0.99,-3.0,-0.9,-0.3,180,0,,,,,,,,,,,,,,,,,,,
1001435,1480871124174,,,,,,,,0.09,0.07,0.99,-3.0,-0.9,-0.3,180,0,,,,,,,,,,,,,,,,,,,
1001455,1480871124194,0,92.4,,129.2,8,112.3,,0.09,0.07,0.99,-3.0,-0.9,-0.3,180,0,1,1,0.0,0,38.159119,-122.454391,0.0,0.004,46.6,10,3,1.9,0,0.0,-1,0.0,0.0,0.0,0
1001475,1480871124214,,,,,,,,0.09,0.07,0.99,-3.0,-0.9,-0.3,10000000,0,,,,,,,,,,,,,,,,,,,
1001495,1480871124234,,,,,,,,0.09,0.07,0.99,-3.0,-0.9,-0.3,0,0,,,,,,,,,,,,,,,,,,,
1001515,1480871124254,,,,,,,,0.09,0.07,0.99,-3.1,-0.9,-0.3,0,0,,,,,,,,,,,,,,,,,,,
1001535,1480871124274,,,,,,,,0.09,0.07,0.99,-3.1,-0.9,-0.2,0,0,,,,,,,,,,,,,,,,,,,
1001555,1480871124194,,,,,7,,,0.09,0.07,0.99,-3.0,-0.9,-0.3,0,0,1,1,0.0,0,38.159119,-122.454391,0.0,0.004,46.6,10,3,1.9,0,0.0,-1,0.0,,0.0,0
1001575,1480871124214,,,,,,,,0.09,0.07,0.99,-3.0,-0.9,-0.2,0,0,,,,,,,,,,,,,,,,,,,
1001595,1480871124234,,,,,,,,0.09,0.07,0.99,-3.0,-0.9,-0.2,0,0,,,,,,,,,,,,,,,,,,,
1001615,1480871124254,,,,,,,,0.09,0.07,0.99,-3.0,-0.9,-0.3,0,0,,,,,,,,,,,,,,,,,,,
1001635,1480871124274,,,,,,,,0.09,0.07,0.99,-3.0,-0.9,-0.3,0,0,,,,,,,,,,,,,,,,,,,
1001655,1480871124294,0,90.7,,128.6,7,113.5,,0.09,0.07,0.99,-3.0,-0.9,-0.3,380,0,1,1,0.0,0,38.159119,-122.454391,0.0,0.004,46.6,10,3,1.9,0,0.0,-1,0.0,0.0,0.0,0
1001675,1480871124314,,,,,,,,0.09,0.07,0.99,-3.0,-0.9,-0.3,380,0,,,,,,,,,,,,,,,,,,,
1001695,1480871124334,,,,,,,,0.09,0.07,0.99,-3.0,-0.9,-0.3,380,0,,,,,,,,,,,,,,,,,,,
1001715,1480871124354,,,,,,,,0.09,0.07,0.99,-3.0,-0.9,-0.2,380,0,,,,,,,,,,,,,,,,,,,
1001735,1480871124374,,,,,,,,0.09,0.07,0.99,-3.0,-0.9,-0.3,380,0,,,,,,,,,,,,,,,,,,,
1001755,1480871124394,,,,,7,,,0.09,0.07,0.99,-3.0,-0.9,-0.3,380,0,1,1,0.0,0,38.159119,-122.454391,0.0,0.004,46.6,10,3,1.9,0,0.0,-1,0.0,,0.0,0
1001775,1480871124414,,,,,,,,0.09,0.07,0.99,-3.0,-0.9,-0.3,380,0,,,,,,,,,,,,,,,,,,,
1001795,1480871124434,,,,,,,,0.09,0.06,0.99,-3.0,-0.9,-0.3,20000000,0,,,,,,,,,,,,,,,,,,,
1001815,1480871124454,,,,,,,,0.09,0.07,0.99,-3.1,-0.9,-0.3,0,0,,,,,,,,,,,,,,,,,,,
1001835,1480871124474,,,,,,,,0.09,0.07,0.99,-3.1,-0.9,-0.3,0,0,,,,,,,,,,,,,,,,,,,
1001855,1480871124494,0,92.1,,128.7,7,112.7,,0.09,0.07,0.99,-3.1,-0.9,-0.3,0,0,1,1,0.0,0,38.159119,-122.454391,0.0,0.004,46.6,10,3,1.9,0,0.0,-1,0.0,0.0,0.0,0
1001875,1480871124514,,,,,,,,0.09,0.07,0.99,-3.0,-0.9,-0.3,0,0,,,,,,,,,,,,,,,,,,,
1001895,1480871124534,,,,,,,,0.09,0.07,0.99,-3.0,-0.9,-0.3,0,0,,,,,,,,,,,,,,,,,,,
1001915,1480871124554,,,,,,,,0.09,0.06,0.99,-3.0,-0.9,-0.3,0,0,,,,,,,,,,,,,,,,,,,
1001935,1480871124574,,,,,,,,0.09,0.06,0.99,-3.0,-0.9,-0.2,0,0,,,,,,,,,,,,,,,,,,,
1001955,1480871124594,,,,,7,,,0.09,0.07,0.99,-3.1,-0.9,-0.3,0,0,1,1,0.0,0,38.159119,-122.454391,0.0,0.004,46.6,10,3,1.9,0,0.0,-1,0.0,,0.0,0
1001975,1480871124614,,,,,,,,0.09,0.06,0.99,-3.0,-0.9,-0.3,0,0,,,,,,,,,,,,,,,,,,,
1001995,1480871124634,,,,,,,,0.09,0.06,0.99,-3.0,-0.9,-0.3,0,0,,,,,,,,,,,,,,,,,,,
1002015,1480871124654,,,,,,,,0.09,0.06,0.99,-3.0,-0.8,-0.3,0,0,,,,,,,,,,,,,,,,,,,
1002035,1480871124674,,,,,,,,0.09,0.06,0.99,-3.0,-0.8,-0.3,0,0,,,,,,,,,,,,,,,,,,,
1002055,1480871124694,0,92.4,0.0,130.3,7,115.2,12.22,0.09,0.06,0.99,-3.0,-0.8,-0.3,0,0,1,1,0.0,0,38.159119,-122.454391,0.0,0.004,46.6,10,3,1.9,0,0.0,-1,0.0,0.0,0.0,0
1002075,1480871124714,,,,,,,,0.09,0.06,0.99,-3.0,-0.8,-0.3,0,0,,,,,,,,,,,,,,,,,,,
1002095,1480871124734,,,,,,,,0.09,0.06,0.99,-3.0,-0.8,-0.3,0,0,,,,,,,,,,,,,,,,,,,
1002115,1480871124754,,,,,,,,0.09,0.06,0.99,-3.0,-0.8,-0.3,0,0,,,,,,,,,,,,,,,,,,,
1002135,1480871124774,,,,,,,,0.09,0.06,0.99,-3.0,-0.8,-0.3,0,0,,,,,,,,,,,,,,,,,,,
1002155,1480871124894,,,,,7,,,0.09,0.06,0.99,-3.0,-0.8,-0.3,0,0,1,1,0.0,0,38.159119,-122.454391,0.0,0.004,46.6,10,3,1.9,0,0.0,-1,0.0,,0.0,0
1002175,1480871124914,,,,,,,,0.09,0.06,0.99,-3.1,-0.9,-0.3,0,0,,,,,,,,,,,,,,,,,,,
1002195,1480871124934,,,,,,,,0.09,0.06,0.99,-3.1,-0.9,-0.3,0,0,,,,,,,,,,,,,,,,,,,
1002215,1480871124954,,,,,,,,0.09,0.07,0.99,-3.1,-0.9,-0.3,0,0,,,,,,,,,,,,,,,,,,,
1002235,1480871124974,,,,,,,,0.09,0.06,0.99,-3.1,-0.9,-0.3,0,0,,,,,,,,,,,,,,,,,,,
1002255,1480871124994,0,93.5,,130.6,7,114.6,,0.09,0.06,0.99,-3.1,-0.9,-0.3,0,0,1,1,0.0,0,38.159119,-122.454391,0.0,0.004,46.6,10,3,1.9,0,0.0,-1,0.0,0.0,0.0,0
1002275,1480871125014,,,,,,,,0.09,0.06,0.99,-3.1,-0.9,-0.3,0,0,,,,,,,,,,,,,,,,,,,
1002295,1480871125034,,,,,,,,0.09,0.06,0.99,-3.1,-0.9,-0.3,0,0,,,,,,,,,,,,,,,,,,,
1002315,1480871125054,,,,,,,,0.09,0.06,0.99,-3.1,-0.9,-0.3,0,0,,,,,,,,,,,,,,,,,,,
1002335,1480871125074,,,,,,,,0.09,0.06,0.99,-3.1,-0.9,-0.3,0,0,,,,,,,,,,,,,,,,,,,
1002355,1480871124995,,,,,7,,,0.09,0.06,0.99,-3.1,-0.9,-0.3,0,0,1,1,0.0,0,38.159119,-122.454391,0.0,0.004,46.6,10,3,1.9,0,0.0,-1,0.0,,0.0,0
1002375,1480871125015,,,,,,,,0.09,0.06,0.99,-3.0,-0.9,-0.3,0,0,,,,,,,,,,,,,,,,,,,
1002395,1480871125035,,,,,,,,0.09,0.06,0.99,-3.0,-0.9,-0.3,0,0,,,,,,,,,,,,,,,,,,,
1002415,1480871125055,,,,,,,,0.09,0.06,0.99,-3.0,-0.9,-0.3,0,0,,,,,,,,,,,,,,,,,,,
1002435,1480871125075,,,,,,,,0.09,0.06,0.99,-3.0,-0.9,-0.3,0,0,,,,,,,,,,,,,,,,,,,
1002455,1480871125095,0,93.3,,129.9,7,112.7,,0.09,0.06,0.99,-3.1,-0.9,-0.3,0,0,1,1,0.0,0,38.159119,-122.454391,0.0,0.004,46.6,10,3,1.9,0,0.0,-1,0.0,0.0,0.0,0
1002475,1480871125115,,,,,,,,0.09,0.06,0.99,-3.0,-0.9,-0.3,0,0,,,,,,,,,,,,,,,,,,,
1002495,1480871125135,,,,,,,,0.09,0.06,0.99,-3.0,-0.9,-0.3,0,0,,,,,,,,,,,,,,,,,,,
1002515,1480871125155,,,,,,,,0.09,0.06,0.99,-3.0,-0.9,-0.3,0,0,,,,,,,,,,,,,,,,,,,
1002535,1480871125175,,,,,,,,0.09,0.06,0.99,-3.0,-0.9,-0.3,0,0,,,,,,,,,,,,,,,,,,,
1002555,1480871125195,,,,,7,,,0.09,0.06,0.99,-3.0,-0.9,-0.2,0,0,1,1,0.0,0,38.159119,-122.454391,0.0,0.004,46.6,10,3,1.9,0,0.0,-1,0.0,,0.0,0
1002575,1480871125215,,,,,,,,0.09,0.06,0.99,-3.0,-0.9,-0.3,0,0,,,,,,,,,,,,,,,,,,,
1002595,1480871125235,,,,,,,,0.09,0.06,0.99,-3.0,-0.9,-0.3,0,0,,,,,,,,,,,,,,,,,,,
1002615,1480871125255,,,,,,,,0.09,0.06,0.99,-3.0,-0.9,-0.2,0,0,,,,,,,,,,,,,,,,,,,
1002635,1480871125275,,,,,,,,0.09,0.06,0.99,-3.1,-0.9,-0.3,0,0,,,,,,,,,,,,,,,,,,,
1002655,1480871125295,0,92.2,,128.9,6,112.7,,0.09,0.06,0.99,-3.1,-0.9,-0.3,0,0,1,1,0.0,0,38.159119,-122.454391,0.0,0.004,46.6,10,3,1.9,0,0.0,-1,0.0,0.0,0.0,0
1002675,1480871125315,,,,,,,,0.09,0.07,0.99,-3.0,-0.9,-0.3,0,0,,,,,,,,,,,,,,,,,,,
1002695,1480871125335,,,,,,,,0.09,0.06,0.99,-3.0,-0.9,-0.3,0,0,,,,,,,,,,,,,,,,,,,
1002715,1480871125355,,,,,,,,0.09,0.06,0.99,-3.0,-0.9,-0.3,0,0,,,,,,,,,,,,,,,,,,,
1002735,1480871125375,,,,,,,,0.09,0.06,0.99,-3.0,-0.9,-0.3,0,0,,,,,,,,,,,,,,,,,,,
1002755,1480871125395,,,,,6,,,0.09,0.06,0.99,-3.0,-0.9,-0.3,0,0,1,1,0.0,0,38.159119,-122.454391,0.0,0.004,46.6,10,3,1.9,0,0.0,-1,0.0,,0.0,0
1002775,1480871125415,,,,,,,,0.09,0.06,0.99,-3.0,-0.9,-0.3,0,0,,,,,,,,,,,,,,,,,,,
1002795,1480871125435,,,,,,,,0.09,0.06,0.99,-3.0,-0.9,-0.3,0,0,,,,,,,,,,,,,,,,,,,
1002815,1480871125455,,,,,,,,0.09,0.06,0.99,-3.0,-0.9,-0.3,0,0,,,,,,,,,,,,,,,,,,,
1002835,1480871125475,,,,,,,,0.09,0.06,0.99,-3.1,-0.9,-0.3,0,0,,,,,,,,,,,,,,,,,,,
1002855,1480871125495,0,90.5,,129.2,5,114.9,,0.09,0.06,0.99,-3.0,-0.9,-0.3,0,0,1,1,0.0,0,38.159119,-122.454391,0.0,0.004,46.6,10,3,1.9,0,0.0,-1,0.0,0.0,0.0,0
1002875,1480871125515,,,,,,,,0.09,0.06,0.99,-3.0,-0.9,-0.3,0,0,,,,,,,,,,,,,,,,,,,
1002895,1480871125535,,,,,,,,0.09,0.06,0.99,-3.0,-0.9,-0.3,0,0,,,,,,,,,,,,,,,,,,,
1002915,1480871125555,,,,,,,,0.09,0.06,0.99,-3.0,-0.9,-0.3,0,0,,,,,,,,,,,,,,,,,,,
1002935,1480871125575,,,,,,,,0.09,0.06,0.99,-3.0,-0.9,-0.2,0,0,,,,,,,,,,,,,,,,,,,
1002955,1480871125694,,,,,6,,,0.09,0.06,0.99,-3.0,-0.9,-0.2,0,0,1,1,0.0,0,38.159119,-122.454391,0.0,0.004,46.6,10,3,1.9,0,0.0,-1,0.0,,0.0,0
1002975,1480871125714,,,,,,,,0.09,0.06,0.99,-3.0,-0.9,-0.3,0,0,,,,,,,,,,,,,,,,,,,
1002995,1480871125734,,,,,,,,0.09,0.06,0.99,-3.0,-0.9,-0.3,0,0,,,,,,,,,,,,,,,,,,,
1003015,1480871125754,,,,,,,,0.09,0.06,0.99,-3.0,-0.9,-0.3,0,0,,,,,,,,,,,,,,,,,,,
1003035,1480871125774,,,,,,,,0.09,0.06,0.99,-3.0,-0.9,-0.3,0,0,,,,,,,,,,,,,,,,,,,
1003055,1480871125794,0,93.4,0.0,130.6,6,114.6,12.22,0.09,0.06,0.99,-3.0,-0.9,-0.2,0,0,1,1,0.0,0,38.159119,-122.454391,0.0,0.004,46.6,10,3,1.9,0,0.0,-1,0.0,0.0,0.0,0
1003075,1480871125814,,,,,,,,0.1,0.07,0.99,-3.0,-0.9,-0.2,0,0,,,,,,,,,,,,,,,,,,,
1003095,1480871125834,,,,,,,,0.1,0.07,0.99,-3.0,-0.9,-0.2,0,0,,,,,,,,,,,,,,,,,,,
1003115,1480871125854,,,,,,,,0.1,0.07,0.99,-3.0,-0.9,-0.2,0,0,,,,,,,,,,,,,,,,,,,
1003135,1480871125874,,,,,,,,0.09,0.06,0.99,-3.0,-0.9,-0.3,0,0,,,,,,,,,,,,,,,,,,,
1003155,1480871125791,,,,,5,,,0.09,0.07,0.99,-3.1,-0.9,-0.2,0,0,1,1,0.0,0,38.159119,-122.454391,0.0,0.004,46.6,10,3,1.9,0,0.0,-1,0.0,,0.0,0
1003175,1480871125811,,,,,,,,0.09,0.07,0.99,-3.1,-0.9,-0.2,0,0,,,,,,,,,,,,,,,,,,,
1003195,1480871125831,,,,,,,,0.09,0.07,0.99,-3.1,-0.9,-0.2,0,0,,,,,,,,,,,,,,,,,,,
1003215,1480871125851,,,,,,,,0.09,0.06,0.99,-3.0,-0.9,-0.2,0,0,,,,,,,,,,,,,,,,,,,
1003235,1480871125871,,,,,,,,0.09,0.06,0.99,-3.0,-0.9,-0.2,0,0,,,,,,,,,,,,,,,,,,,
1003255,1480871125891,0,92.4,,129.1,6,112.3,,0.09,0.07,0.99,-3.0,-0.8,-0.3,0,0,1,1,0.0,0,38.159119,-122.454391,0.0,0.004,46.6,10,3,1.9,0,0.0,-1,0.0,0.0,0.0,0
1003275,1480871125909,,,,,,,,0.09,0.07,0.99,-3.1,-0.8,-0.2,0,0,,,,,,,,,,,,,,,,,,,
1003295,1480871125929,,,,,,,,0.09,0.06,0.99,-3.1,-0.9,-0.2,0,0,,,,,,,,,,,,,,,,,,,
1003315,1480871125949,,,,,,,,0.09,0.06,0.99,-3.1,-0.8,-0.2,0,0,,,,,,,,,,,,,,,,,,,
1003335,1480871125969,,,,,,,,0.09,0.06,0.99,-3.1,-0.8,-0.2,0,0,,,,,,,,,,,,,,,,,,,
1003355,1480871125995,,,,,6,,,0.09,0.06,0.99,-3.1,-0.8,-0.2,0,0,1,1,0.0,0,38.159119,-122.454391,0.0,0.004,46.6,10,3,1.9,0,0.0,-1,0.0,,0.0,0
1003375,1480871126015,,,,,,,,0.09,0.06,0.99,-3.0,-0.8,-0.2,0,0,,,,,,,,,,,,,,,,,,,
1003395,1480871126035,,,,,,,,0.09,0.06,0.99,-3.0,-0.8,-0.2,0,0,,,,,,,,,,,,,,,,,,,
1003415,1480871126055,,,,,,,,0.09,0.06,0.99,-3.0,-0.8,-0.2,0,0,,,,,,,,,,,,,,,,,,,
1003435,1480871126075,,,,,,,,0.09,0.06,0.99,-3.0,-0.9,-0.2,0,0,,,,,,,,,,,,,,,,,,,
1003455,1480871126095,0,93.6,,130.3,5,113.8,,0.09,0.06,0.99,-3.0,-0.8,-0.2,0,0,1,1,0.0,0,38.159119,-122.454391,0.0,0.004,46.6,10,3,1.9,0,0.0,-1,0.0,0.0,0.0,0
1003475,1480871126115,,,,,,,,0.09,0.06,0.99,-3.0,-0.8,-0.2,0,0,,,,,,,,,,,,,,,,,,,
1003495,1480871126135,,,,,,,,0.09,0.06,0.99,-3.0,-0.8,-0.2,0,0,,,,,,,,,,,,,,,,,,,
1003515,1480871126155,,,,,,,,0.09,0.06,0.99,-3.0,-0.8,-0.2,0,0,,,,,,,,,,,,,,,,,,,
1003535,1480871126175,,,,,,,,0.09,0.06,0.99,-3.0,-0.8,-0.2,0,0,,,,,,,,,,,,,,,,,,,
1003555,1480871126195,,,,,5,,,0.09,0.06,0.99,-3.0,-0.9,-0.2,0,0,1,1,0.0,0,38.159119,-122.454391,0.0,0.004,46.6,10,3,1.9,0,0.0,-1,0.0,,0.0,0
1003575,1480871126215,,,,,,,,0.09,0.06,0.99,-3.0,-0.9,-0.2,0,0,,,,,,,,,,,,,,,,,,,
1003595,1480871126235,,,,,,,,0.09,0.06,0.99,-3.0,-0.9,-0.2,0,0,,,,,,,,,,,,,,,,,,,
1003615,1480871126255,,,,,,,,0.09,0.06,0.99,-3.0,-0.8,-0.3,0,0,,,,,,,,,,,,,,,,,,,
1003635,1480871126275,,,,,,,,0.09,0.06,0.99,-3.0,-0.8,-0.3,0,0,,,,,,,,,,,,,,,,,,,
1003655,1480871126295,0,91.9,,130.4,5,115.3,,0.09,0.07,0.99,-3.0,-0.8,-0.3,0,0,1,1,0.0,0,38.159119,-122.454391,0.0,0.004,46.6,10,3,1.9,0,0.0,-1,0.0,0.0,0.0,0
1003675,1480871126315,,,,,,,,0.09,0.07,0.99,-3.0,-0.8,-0.3,0,0,,,,,,,,,,,,,,,,,,,
1003695,1480871126335,,,,,,,,0.09,0.06,0.99,-3.0,-0.8,-0.3,0,0,,,,,,,,,,,,,,,,,,,
1003715,1480871126355,,,,,,,,0.09,0.06,0.99,-3.0,-0.8,-0.3,0,0,,,,,,,,,,,,,,,,,,,
1003735,1480871126375,,,,,,,,0.09,0.06,0.99,-3.0,-0.8,-0.3,0,0,,,,,,,,,,,,,,,,,,,
1003755,1480871126494,,,,,5,,,0.09,0.06,0.99,-3.0,-0.8,-0.3,0,0,1,1,0.0,0,38.159119,-122.454391,0.0,0.004,46.6,10,3,1.9,0,0.0,-1,0.0,,0.0,0
1003775,1480871126514,,,,,,,,0.09,0.06,0.99,-3.0,-0.8,-0.3,0,0,,,,,,,,,,,,,,,,,,,
1003795,1480871126534,,,,,,,,0.09,0.06,0.99,-3.0,-0.8,-0.3,0,0,,,,,,,,,,,,,,,,,,,
1003815,1480871126554,,,,,,,,0.09,0.06,0.99,-3.0,-0.8,-0.3,0,0,,,,,,,,,,,,,,,,,,,
1003835,1480871126574,,,,,,,,0.09,0.06,0.99,-3.0,-0.8,-0.3,0,0,,,,,,,,,,,,,,,,,,,
1003855,1480871126594,0,91.0,,130.0,4,115.3,,0.09,0.06,0.99,-3.0,-0.8,-0.3,0,0,1,1,0.0,0,38.159119,-122.454391,0.0,0.004,46.6,10,3,1.9,0,0.0,-1,0.0,0.0,0.0,0
1003875,1480871126614,,,,,,,,0.09,0.06,0.99,-3.1,-0.8,-0.3,0,0,,,,,,,,,,,,,,,,,,,
1003895,1480871126634,,,,,,,,0.09,0.06,0.99,-3.0,-0.8,-0.3,0,0,,,,,,,,,,,,,,,,,,,
1003915,1480871126654,,,,,,,,0.09,0.06,0.99,-3.0,-0.8,-0.3,0,0,,,,,,,,,,,,,,,,,,,
1003935,1480871126674,,,,,,,,0.09,0.06,0.99,-3.0,-0.8,-0.3,0,0,,,,,,,,,,,,,,,,,,,
1003955,1480871126594,,,,,5,,,0.09,0.06,0.99,-3.0,-0.8,-0.3,0,0,1,1,0.0,0,38.159119,-122.454391,0.0,0.004,46.6,10,3,1.9,0,0.0,-1,0.0,,0.0,0
1003975,1480871126614,,,,,,,,0.09,0.06,0.99,-3.0,-0.8,-0.3,0,0,,,,,,,,,,,,,,,,,,,
1003995,1480871126634,,,,,,,,0.09,0.06,0.99,-3.0,-0.8,-0.3,0,0,,,,,,,,,,,,,,,,,,,
1004015,1480871126654,,,,,,,,0.09,0.07,0.99,-3.0,-0.8,-0.3,0,0,,,,,,,,,,,,,,,,,,,
1004035,1480871126674,,,,,,,,0.1,0.07,0.99,-3.0,-0.8,-0.3,0,0,,,,,,,,,,,,,,,,,,,
1004055,1480871126694,0,93.1,0.0,130.7,5,114.6,12.24,0.09,0.07,0.99,-3.0,-0.8,-0.3,0,0,1,1,0.0,0,38.159119,-122.454391,0.0,0.004,46.6,10,3,1.9,0,0.0,-1,0.0,0.0,0.0,0
1004075,1480871126714,,,,,,,,0.09,0.07,0.99,-3.0,-0.8,-0.3,0,0,,,,,,,,,,,,,,,,,,,
1004095,1480871126734,,,,,,,,0.09,0.06,0.99,-3.0,-0.8,-0.3,0,0,,,,,,,,,,,,,,,,,,,
1004115,1480871126754,,,,,,,,0.09,0.06,0.99,-3.0,-0.8,-0.3,0,0,,,,,,,,,,,,,,,,,,,
1004135,1480871126774,,,,,,,,0.09,0.06,0.99,-3.0,-0.8,-0.2,0,0,,,,,,,,,,,,,,,,,,,
1004155,1480871126795,,,,,4,,,0.09,0.06,0.99,-3.0,-0.8,-0.3,0,0,1,1,0.0,0,38.159119,-122.454391,0.0,0.004,46.6,10,3,1.9,0,0.0,-1,0.0,,0.0,0
1004175,1480871126815,,,,,,,,0.09,0.06,0.99,-3.0,-0.8,-0.2,0,0,,,,,,,,,,,,,,,,,,,
1004195,1480871126835,,,,,,,,0.09,0.06,0.99,-3.1,-0.8,-0.2,0,0,,,,,,,,,,,,,,,,,,,
1004215,1480871126855,,,,,,,,0.09,0.06,0.99,-3.1,-0.8,-0.3,0,0,,,,,,,,,,,,,,,,,,,
1004235,1480871126875,,,,,,,,0.09,0.06,0.99,-3.0,-0.8,-0.3,0,0,,,,,,,,,,,,,,,,,,,
1004255,1480871126895,0,93.5,,130.6,5,114.1,,0.09,0.06,0.99,-3.1,-0.8,-0.3,0,0,1,1,0.0,0,38.159119,-122.454391,0.0,0.004,46.6,10,3,1.9,0,0.0,-1,0.0,0.0,0.0,0
1004275,1480871126909,,,,,,,,0.09,0.06,0.99,-3.0,-0.8,-0.3,0,0,,,,,,,,,,,,,,,,,,,
1004295,1480871126929,,,,,,,,0.09,0.06,0.99,-3.0,-0.8,-0.3,0,0,,,,,,,,,,,,,,,,,,,
1004315,1480871126949,,,,,,,,0.09,0.06,0.99,-3.1,-0.8,-0.3,0,0,,,,,,,,,,,,,,,,,,,
1004335,1480871126969,,,,,,,,0.09,0.06,0.99,-3.0,-0.8,-0.3,0,0,,,,,,,,,,,,,,,,,,,
1004355,1480871126995,,,,,4,,,0.09,0.06,0.99,-3.1,-0.8,-0.3,0,0,1,1,0.0,0,38.159119,-122.454391,0.0,0.004,46.6,10,3,1.9,0,0.0,-1,0.0,,0.0,0
1004375,1480871127015,,,,,,,,0.09,0.06,0.99,-3.0,-0.8,-0.3,0,0,,,,,,,,,,,,,,,,,,,
1004395,1480871127035,,,,,,,,0.09,0.06,0.99,-3.1,-0.8,-0.3,0,0,,,,,,,,,,,,,,,,,,,
1004415,1480871127055,,,,,,,,0.09,0.07,0.99,-3.1,-0.8,-0.3,0,0,,,,,,,,,,,,,,,,,,,
1004435,1480871127075,,,,,,,,0.09,0.06,0.99,-3.0,-0.8,-0.3,0,0,,,,,,,,,,,,,,,,,,,
1004455,1480871127095,0,94.0,,130.7,5,114.3,,0.09,0.07,0.99,-3.0,-0.8,-0.3,0,0,1,1,0.0,0,38.159119,-122.454391,0.0,0.004,46.6,10,3,1.9,0,0.0,-1,0.0,0.0,0.0,0
1004475,1480871127115,,,,,,,,0.09,0.07,0.99,-3.1,-0.9,-0.3,0,0,,,,,,,,,,,,,,,,,,,
1004495,1480871127135,,,,,,,,0.09,0.06,0.99,-3.0,-0.9,-0.2,0,0,,,,,,,,,,,,,,,,,,,
1004515,1480871127155,,,,,,,,0.09,0.06,0.99,-3.0,-0.9,-0.2,0,0,,,,,,,,,,,,,,,,,,,
1004535,1480871127175,,,,,,,,0.09,0.06,0.99,-3.1,-0.9,-0.2,0,0,,,,,,,,,,,,,,,,,,,
1004555,1480871127294,,,,,4,,,0.09,0.06,0.99,-3.1,-0.9,-0.2,0,0,1,1,0.0,0,38.159119,-122.454391,0.0,0.004,46.6,10,3,1.9,0,0.0,-1,0.0,,0.0,0
1004575,1480871127314,,,,,,,,0.09,0.06,0.99,-3.0,-0.9,-0.2,0,0,,,,,,,,,,,,,,,,,,,
1004595,1480871127334,,,,,,,,0.09,0.06,0.99,-3.0,-0.9,-0.2,0,0,,,,,,,,,,,,,,,,,,,
1004615,1480871127354,,,,,,,,0.09,0.06,0.99,-3.0,-0.9,-0.2,0,0,,,,,,,,,,,,,,,,,,,
1004635,1480871127374,,,,,,,,0.09,0.06,0.99,-3.0,-0.9,-0.2,0,0,,,,,,,,,,,,,,,,,,,
1004655,1480871127394,0,93.0,,130.0,4,112.5,,0.09,0.06,0.99,-3.1,-0.8,-0.2,0,0,1,1,0.0,0,38.159119,-122.454391,0.0,0.004,46.6,10,3,1.9,0,0.0,-1,0.0,0.0,0.0,0
1004675,1480871127414,,,,,,,,0.09,0.06,0.99,-3.1,-0.8,-0.2,0,0,,,,,,,,,,,,,,,,,,,
1004695,1480871127434,,,,,,,,0.09,0.06,0.99,-3.0,-0.8,-0.2,0,0,,,,,,,,,,,,,,,,,,,
1004715,1480871127454,,,,,,,,0.09,0.06,0.99,-3.0,-0.8,-0.2,0,0,,,,,,,,,,,,,,,,,,,
1004735,1480871127474,,,,,,,,0.09,0.06,0.99,-3.1,-0.8,-0.2,0,0,,,,,,,,,,,,,,,,,,,
1004755,1480871127394,,,,,4,,,0.09,0.06,0.99,-3.0,-0.8,-0.2,0,0,1,1,0.0,0,38.159119,-122.454391,0.0,0.004,46.6,10,3,1.9,0,0.0,-1,0.0,,0.0,0
1004775,1480871127414,,,,,,,,0.09,0.06,0.99,-3.1,-0.8,-0.2,0,0,,,,,,,,,,,,,,,,,,,
1004795,1480871127434,,,,,,,,0.09,0.06,0.99,-3.1,-0.8,-0.2,0,0,,,,,,,,,,,,,,,,,,,
1004815,1480871127454,,,,,,,,0.09,0.07,0.99,-3.0,-0.8,-0.3,0,0,,,,,,,,,,,,,,,,,,,
1004835,1480871127474,,,,,,,,0.09,0.07,0.99,-3.0,-0.8,-0.3,0,0,,,,,,,,,,,,,,,,,,,
1004855,1480871127495,0,93.3,,130.8,4,114.7,,0.09,0.07,0.99,-3.0,-0.9,-0.3,0,0,1,1,0.0,0,38.159119,-122.454391,0.0,0.004,46.6,10,3,1.9,0,0.0,-1,0.0,0.0,0.0,0
1004875,1480871127515,,,,,,,,0.09,0.07,0.99,-3.0,-0.9,-0.3,0,0,,,,,,,,,,,,,,,,,,,
1004895,1480871127535,,,,,,,,0.09,0.07,0.99,-3.1,-0.9,-0.3,0,0,,,,,,,,,,,,,,,,,,,
1004915,1480871127555,,,,,,,,0.09,0.07,0.99,-3.1,-0.9,-0.3,0,0,,,,,,,,,,,,,,,,,,,
1004935,1480871127575,,,,,,,,0.09,0.07,0.99,-3.0,-0.9,-0.3,0,0,,,,,,,,,,,,,,,,,,,
1004955,1480871127594,,,,,4,,,0.09,0.07,0.99,-3.0,-0.9,-0.3,0,0,1,1,0.0,0,38.159119,-122.454391,0.0,0.004,46.6,10,3,1.9,0,0.0,-1,0.0,,0.0,0
1004975,1480871127614,,,,,,,,0.09,0.07,0.99,-3.0,-0.9,-0.3,0,0,,,,,,,,,,,,,,,,,,,
1004995,1480871127634,,,,,,,,0.09,0.07,0.99,-3.0,-0.9,-0.3,0,0,,,,,,,,,,,,,,,,,,,
1005015,1480871127654,,,,,,,,0.09,0.07,0.99,-3.0,-0.9,-0.3,0,0,,,,,,,,,,,,,,,,,,,
1005035,1480871127674,,,,,,,,0.09,0.07,0.99,-3.0,-0.9,-0.3,0,0,,,,,,,,,,,,,,,,,,,
1005055,1480871127694,0,91.1,0.0,128.7,4,113.1,12.24,0.09,0.07,0.99,-3.0,-0.9,-0.3,0,0,1,1,0.0,0,38.159119,-122.454391,0.0,0.004,46.6,10,3,1.9,0,0.0,-1,0.0,0.0,0.0,0
1005075,1480871127714,,,,,,,,0.09,0.07,0.99,-3.0,-0.9,-0.3,0,0,,,,,,,,,,,,,,,,,,,
1005095,1480871127734,,,,,,,,0.09,0.07,0.99,-3.0,-0.9,-0.3,0,0,,,,,,,,,,,,,,,,,,,
1005115,1480871127754,,,,,,,,0.09,0.07,0.99,-3.0,-0.9,-0.3,0,0,,,,,,,,,,,,,,,,,,,
1005135,1480871127774,,,,,,,,0.09,0.07,0.99,-3.0,-0.9,-0.3,0,0,,,,,,,,,,,,,,,,,,,
1005155,1480871127795,,,,,3,,,0.09,0.07,0.99,-3.0,-0.9,-0.3,0,0,1,1,0.0,0,38.159119,-122.454391,0.0,0.004,46.6,10,3,1.9,0,0.0,-1,0.0,,0.0,0
1005175,1480871127815,,,,,,,,0.09,0.07,0.99,-3.0,-0.9,-0.3,0,0,,,,,,,,,,,,,,,,,,,
1005195,1480871127835,,,,,,,,0.09,0.07,0.99,-3.0,-0.9,-0.3,0,0,,,,,,,,,,,,,,,,,,,
1005215,1480871127855,,,,,,,,0.09,0.07,0.99,-3.0,-1.0,-0.3,0,0,,,,,,,,,,,,,,,,,,,
1005235,1480871127875,,,,,,,,0.09,0.07,0.99,-3.0,-0.9,-0.3,0,0,,,,,,,,,,,,,,,,,,,
1005255,1480871127895,0,93.6,,130.3,4,113.5,,0.09,0.07,0.99,-3.0,-0.9,-0.3,0,0,1,1,0.0,0,38.159119,-122.454391,0.0,0.004,46.6,10,3,1.9,0,0.0,-1,0.0,0.0,0.0,0
1005275,1480871127909,,,,,,,,0.09,0.07,0.99,-3.1,-0.9,-0.3,0,0,,,,,,,,,,,,,,,,,,,
1005295,1480871127929,,,,,,,,0.09,0.07,0.99,-3.1,-0.9,-0.3,0,0,,,,,,,,,,,,,,,,,,,
1005315,1480871127949,,,,,,,,0.09,0.07,0.99,-3.1,-0.9,-0.3,0,0,,,,,,,,,,,,,,,,,,,
1005335,1480871127969,,,,,,,,0.09,0.07,0.99,-3.1,-0.9,-0.3,0,0,,,,,,,,,,,,,,,,,,,
1005355,1480871128094,,,,,4,,,0.09,0.07,0.99,-3.1,-0.9,-0.3,0,0,1,1,0.0,0,38.159119,-122.454391,0.0,0.004,46.6,10,3,1.9,0,0.0,-1,0.0,,0.0,0
1005375,1480871128114,,,,,,,,0.09,0.07,0.99,-3.1,-0.9,-0.3,0,0,,,,,,,,,,,,,,,,,,,
1005395,1480871128134,,,,,,,,0.09,0.07,0.99,-3.1,-0.9,-0.3,0,0,,,,,,,,,,,,,,,,,,,
1005415,1480871128154,,,,,,,,0.09,0.07,0.99,-3.1,-0.9,-0.3,0,0,,,,,,,,,,,,,,,,,,,
1005435,1480871128174,,,,,,,,0.09,0.07,0.99,-3.1,-0.8,-0.3,0,0,,,,,,,,,,,,,,,,,,,
1005455,1480871128194,0,93.4,,130.7,4,114.6,,0.09,0.07,0.99,-3.1,-0.8,-0.3,0,0,1,1,0.0,0,38.159119,-122.454391,0.0,0.004,46.6,10,3,1.9,0,0.0,-1,0.0,0.0,0.0,0
1005475,1480871128214,,,,,,,,0.09,0.07,0.99,-3.1,-0.8,-0.3,0,0,,,,,,,,,,,,,,,,,,,
1005495,1480871128234,,,,,,,,0.09,0.07,0.99,-3.1,-0.8,-0.3,0,0,,,,,,,,,,,,,,,,,,,
1005515,1480871128254,,,,,,,,0.09,0.06,0.99,-3.1,-0.8,-0.3,0,0,,,,,,,,,,,,,,,,,,,
1005535,1480871128274,,,,,,,,0.09,0.06,0.99,-3.1,-0.7,-0.3,0,0,,,,,,,,,,,,,,,,,,,
1005555,1480871128191,,,,,4,,,0.09,0.07,0.99,-3.1,-0.8,-0.2,0,0,1,1,0.0,0,38.159119,-122.454391,0.0,0.004,46.6,10,3,1.9,0,0.0,-1,0.0,,0.0,0
1005575,1480871128211,,,,,,,,0.09,0.07,0.98,-3.1,-1.0,-0.2,0,0,,,,,,,,,,,,,,,,,,,
1005595,1480871128231,,,,,,,,0.08,0.07,0.99,-3.1,-0.8,-0.2,0,0,,,,,,,,,,,,,,,,,,,
1005615,1480871128251,,,,,,,,0.08,0.08,0.99,-3.0,-0.7,-0.3,0,0,,,,,,,,,,,,,,,,,,,
1005635,1480871128271,,,,,,,,0.08,0.08,0.99,-3.0,-0.8,-0.3,0,0,,,,,,,,,,,,,,,,,,,
1005655,1480871128295,0,91.6,,129.8,3,113.3,,0.09,0.08,0.99,-3.1,-0.8,-0.3,0,0,1,1,0.0,0,38.159119,-122.454391,0.0,0.004,46.6,10,3,1.9,0,0.0,-1,0.0,0.0,0.0,0
1005675,1480871128315,,,,,,,,0.08,0.08,1.0,-3.1,-0.8,-0.3,0,0,,,,,,,,,,,,,,,,,,,
1005695,1480871128335,,,,,,,,0.09,0.08,0.99,-3.1,-0.8,-0.3,0,0,,,,,,,,,,,,,,,,,,,
1005715,1480871128355,,,,,,,,0.09,0.08,0.99,-3.1,-0.8,-0.3,0,0,,,,,,,,,,,,,,,,,,,
1005735,1480871128375,,,,,,,,0.09,0.08,0.99,-3.1,-0.8,-0.4,0,0,,,,,,,,,,,,,,,,,,,
1005755,1480871128395,,,,,4,,,0.1,0.08,0.99,-3.1,-0.9,-0.3,0,0,1,1,0.0,0,38.159119,-122.454391,0.0,0.004,46.6,10,3,1.9,0,0.0,-1,0.0,,0.0,0
1005775,1480871128415,,,,,,,,0.1,0.08,0.99,-3.1,-0.8,-0.3,0,0,,,,,,,,,,,,,,,,,,,
1005795,1480871128435,,,,,,,,0.1,0.08,0.99,-3.1,-0.8,-0.3,0,0,,,,,,,,,,,,,,,,,,,
1005815,1480871128455,,,,,,,,0.1,0.08,0.99,-3.1,-0.8,-0.3,0,0,,,,,,,,,,,,,,,,,,,
1005835,1480871128475,,,,,,,,0.1,0.08,0.99,-3.1,-0.8,-0.3,0,0,,,,,,,,,,,,,,,,,,,
1005855,1480871128495,0,91.3,,129.5,4,112.5,,0.09,0.08,0.99,-3.1,-0.8,-0.3,0,0,1,1,0.0,0,38.159119,-122.454391,0.0,0.004,46.6,10,3,1.9,0,0.0,-1,0.0,0.0,0.0,0
1005875,1480871128515,,,,,,,,0.09,0.07,0.99,-3.1,-0.8,-0.2,0,0,,,,,,,,,,,,,,,,,,,
1005895,1480871128535,,,,,,,,0.1,0.08,0.99,-3.1,-0.7,-0.2,0,0,,,,,,,,,,,,,,,,,,,
1005915,1480871128555,,,,,,,,0.1,0.09,0.99,-3.1,-0.8,-0.1,0,0,,,,,,,,,,,,,,,,,,,
1005935,1480871128575,,,,,,,,0.1,0.08,0.98,-3.1,-0.9,-0.1,0,0,,,,,,,,,,,,,,,,,,,
1005955,1480871128595,,,,,4,,,0.09,0.08,0.99,-3.1,-1.0,-0.1,200,0,1,1,0.0,0,38.159119,-122.454391,0.0,0.004,46.6,10,3,1.9,0,0.0,-1,0.0,,0.0,0
1005975,1480871128615,,,,,,,,0.08,0.08,1.0,-3.1,-1.1,-0.1,200,0,,,,,,,,,,,,,,,,,,,
1005995,1480871128635,,,,,,,,0.08,0.08,1.0,-3.1,-1.1,-0.1,200,0,,,,,,,,,,,,,,,,,,,
1006015,1480871128655,,,,,,,,0.09,0.08,1.0,-3.1,-1.0,-0.1,240,0,,,,,,,,,,,,,,,,,,,
1006035,1480871128675,,,,,,,,0.09,0.07,1.0,-3.1,-1.0,-0.1,240,0,,,,,,,,,,,,,,,,,,,
1006055,1480871128695,0,93.4,0.0,130.5,4,115.1,10.86,0.09,0.07,1.0,-3.1,-1.0,-0.2,240,0,1,1,0.0,0,38.159119,-122.454391,0.0,0.004,46.6,10,3,1.9,0,0.0,-1,0.0,0.0,0.0,0
1006075,1480871128715,,,,,,,,0.09,0.07,1.0,-3.1,-0.9,-0.2,420,0,,,,,,,,,,,,,,,,,,,
1006095,1480871128735,,,,,,,,0.09,0.07,0.99,-3.1,-0.9,-0.2,420,0,,,,,,,,,,,,,,,,,,,
1006115,1480871128755,,,,,,,,0.09,0.07,0.99,-3.1,-0.9,-0.2,500,0,,,,,,,,,,,,,,,,,,,
1006135,1480871128775,,,,,,,,0.09,0.07,1.0,-3.1,-0.9,-0.2,500,0,,,,,,,,,,,,,,,,,,,
1006155,1480871128894,,,,,4,,,0.09,0.06,0.99,-3.1,-0.9,-0.3,520,0,1,1,0.0,0,38.159119,-122.454391,0.0,0.004,46.6,10,3,1.9,0,0.0,-1,0.0,,0.0,0
1006175,1480871128914,,,,,,,,0.09,0.06,0.99,-3.1,-1.0,-0.2,580,0,,,,,,,,,,,,,,,,,,,
1006195,1480871128934,,,,,,,,0.09,0.07,1.0,-3.1,-0.9,-0.2,580,0,,,,,,,,,,,,,,,,,,,
1006215,1480871128954,,,,,,,,0.09,0.07,0.99,-3.1,-0.8,-0.2,660,0,,,,,,,,,,,,,,,,,,,
1006235,1480871128974,,,,,,,,0.09,0.08,1.0,-3.1,-0.9,-0.2,700,0,,,,,,,,,,,,,,,,,,,
1006255,1480871128994,0,92.5,,130.4,6,113.7,,0.09,0.08,1.0,-3.1,-1.0,-0.2,700,0,1,1,0.0,0,38.159119,-122.454391,0.0,0.004,46.6,10,3,1.9,0,0.0,-1,0.0,0.0,0.0,0
1006275,1480871129014,,,,,,,,0.09,0.08,1.01,-3.1,-0.9,-0.2,700,0,,,,,,,,,,,,,,,,,,,
1006295,1480871129034,,,,,,,,0.09,0.09,1.0,-3.1,-1.1,-0.2,760,0,,,,,,,,,,,,,,,,,,,
1006315,1480871129054,,,,,,,,0.08,0.08,1.0,-3.0,-1.0,-0.2,800,0,,,,,,,,,,,,,,,,,,,
1006335,1480871129074,,,,,,,,0.08,0.08,1.01,-3.0,-1.1,-0.3,860,0,,,,,,,,,,,,,,,,,,,
1006355,1480871128994,,,,,8,,,0.08,0.07,1.01,-3.0,-0.9,-0.3,900,0,1,1,0.0,0,38.159119,-122.454391,0.0,0.004,46.6,10,3,1.9,0,0.0,-1,0.0,,0.0,0
1006375,1480871129014,,,,,,,,0.08,0.06,1.01,-3.0,-0.8,-0.4,900,0,,,,,,,,,,,,,,,,,,,
1006395,1480871129034,,,,,,,,0.08,0.06,1.01,-3.0,-0.8,-0.4,900,0,,,,,,,,,,,,,,,,,,,
1006415,1480871129054,,,,,,,,0.09,0.06,1.01,-3.0,-0.8,-0.4,860,0,,,,,,,,,,,,,,,,,,,
1006435,1480871129074,,,,,,,,0.1,0.05,1.0,-3.0,-0.9,-0.4,780,0,,,,,,,,,,,,,,,,,,,
1006455,1480871129095,0,93.3,,130.1,9,115.4,,0.1,0.07,0.99,-3.1,-0.8,-0.3,840,0,1,1,0.0,0,38.159119,-122.454391,0.0,0.004,46.6,10,3,1.9,0,0.0,-1,0.0,0.0,0.0,0
1006475,1480871129115,,,,,,,,0.1,0.06,0.99,-3.0,-0.9,-0.3,780,0,,,,,,,,,,,,,,,,,,,
1006495,1480871129135,,,,,,,,0.09,0.06,1.0,-3.0,-0.8,-0.3,780,0,,,,,,,,,,,,,,,,,,,
1006515,1480871129155,,,,,,,,0.09,0.06,1.0,-3.0,-0.8,-0.3,760,0,,,,,,,,,,,,,,,,,,,
1006535,1480871129175,,,,,,,,0.09,0.07,1.0,-3.0,-0.9,-0.3,740,0,,,,,,,,,,,,,,,,,,,
1006555,1480871129195,,,,,12,,,0.1,0.07,0.99,-3.0,-0.9,-0.3,780,0,1,1,0.0,0,38.159119,-122.454391,0.0,0.004,46.6,10,3,1.9,0,0.0,-1,0.0,,0.0,0
1006575,1480871129215,,,,,,,,0.09,0.06,1.0,-3.0,-1.0,-0.3,800,0,,,,,,,,,,,,,,,,,,,
1006595,1480871129235,,,,,,,,0.1,0.06,0.99,-3.1,-0.9,-0.3,800,0,,,,,,,,,,,,,,,,,,,
1006615,1480871129255,,,,,,,,0.1,0.06,0.99,-3.1,-1.0,-0.2,900,0,,,,,,,,,,,,,,,,,,,
1006635,1480871129275,,,,,,,,0.11,0.06,0.98,-3.1,-1.0,-0.2,960,0,,,,,,,,,,,,,,,,,,,
1006655,1480871129295,0,90.4,,129.1,17,112.5,,0.11,0.06,0.98,-3.1,-0.9,-0.2,1020,0,1,1,0.0,0,38.159119,-122.454391,0.0,0.004,46.6,10,3,1.9,0,0.0,-1,0.0,0.0,0.0,0
1006675,1480871129315,,,,,,,,0.11,0.06,0.99,-3.1,-0.7,-0.2,1020,0,,,,,,,,,,,,,,,,,,,
1006695,1480871129335,,,,,,,,0.11,0.07,0.99,-3.1,-0.7,-0.1,1060,0,,,,,,,,,,,,,,,,,,,
1006715,1480871129355,,,,,,,,0.11,0.06,0.99,-3.0,-0.7,-0.2,1080,0,,,,,,,,,,,,,,,,,,,
1006735,1480871129375,,,,,,,,0.11,0.06,0.99,-3.0,-0.6,-0.2,1100,0,,,,,,,,,,,,,,,,,,,
1006755,1480871129395,,,,,25,,,0.11,0.05,0.99,-3.1,-0.6,-0.2,1120,0,1,1,0.0,0,38.159119,-122.454391,0.0,0.004,46.6,10,3,1.9,0,0.0,-1,0.0,,0.0,0
1006775,1480871129415,,,,,,,,0.1,0.05,0.99,-3.0,-0.6,-0.2,1140,0,,,,,,,,,,,,,,,,,,,
1006795,1480871129435,,,,,,,,0.1,0.05,0.99,-3.1,-0.5,-0.3,1140,0,,,,,,,,,,,,,,,,,,,
1006815,1480871129455,,,,,,,,0.1,0.06,0.98,-3.1,-0.5,-0.2,1180,0,,,,,,,,,,,,,,,,,,,
1006835,1480871129475,,,,,,,,0.1,0.06,0.99,-3.1,-0.5,-0.2,1200,0,,,,,,,,,,,,,,,,,,,
1006855,1480871129495,0,91.2,,129.0,37,113.9,,0.1,0.05,1.0,-3.1,-0.5,-0.3,1240,0,1,1,0.0,0,38.159119,-122.454391,0.0,0.004,46.6,10,3,1.9,0,0.0,-1,0.0,0.0,0.0,0
1006875,1480871129515,,,,,,,,0.1,0.05,1.0,-3.1,-0.6,-0.3,1240,0,,,,,,,,,,,,,,,,,,,
1006895,1480871129535,,,,,,,,0.1,0.05,0.99,-3.1,-0.5,-0.3,1140,0,,,,,,,,,,,,,,,,,,,
1006915,1480871129555,,,,,,,,0.09,0.06,0.99,-3.1,-0.6,-0.3,1260,0,,,,,,,,,,,,,,,,,,,
1006935,1480871129575,,,,,,,,0.1,0.05,0.99,-3.1,-0.6,-0.3,1260,0,,,,,,,,,,,,,,,,,,,
1006955,1480871129694,,,,,48,,,0.09,0.06,0.99,-3.1,-0.6,-0.3,1280,0,1,1,0.0,0,38.159119,-122.454391,0.0,0.004,46.6,10,3,1.9,0,0.0,-1,0.0,,0.0,0
1006975,1480871129714,,,,,,,,0.09,0.05,0.99,-3.0,-0.5,-0.2,1240,0,,,,,,,,,,,,,,,,,,,
1006995,1480871129734,,,,,,,,0.09,0.05,0.99,-3.0,-0.6,-0.2,1280,0,,,,,,,,,,,,,,,,,,,
1007015,1480871129754,,,,,,,,0.1,0.05,1.0,-3.0,-0.5,-0.3,1320,0,,,,,,,,,,,,,,,,,,,
1007035,1480871129774,,,,,,,,0.1,0.05,1.0,-3.1,-0.5,-0.2,1360,0,,,,,,,,,,,,,,,,,,,
1007055,1480871129794,0,92.2,0.0,130.5,58,112.7,14.92,0.1,0.05,0.99,-3.1,-0.7,-0.2,1400,0,1,1,0.0,0,38.159119,-122.454391,0.0,0.004,46.6,10,3,1.9,0,0.0,-1,0.0,0.0,0.0,0
1007075,1480871129814,,,,,,,,0.1,0.06,1.0,-3.0,-0.8,-0.2,1460,0,,,,,,,,,,,,,,,,,,,
1007095,1480871129834,,,,,,,,0.1,0.05,1.0,-3.0,-0.8,-0.2,1520,0,,,,,,,,,,,,,,,,,,,
1007115,1480871129854,,,,,,,,0.1,0.06,1.0,-3.0,-0.7,-0.3,1560,0,,,,,,,,,,,,,,,,,,,
1007135,1480871129874,,,,,,,,0.1,0.06,1.01,-3.0,-0.7,-0.3,1600,0,,,,,,,,,,,,,,,,,,,
1007155,1480871129795,,,,,61,,,0.1,0.08,1.0,-3.1,-0.6,-0.2,1640,0,1,1,0.0,0,38.159119,-122.454391,0.0,0.004,46.6,10,3,1.9,0,0.0,-1,0.0,,0.0,0
1007175,1480871129815,,,,,,,,0.09,0.08,0.99,-3.1,-0.7,-0.2,1640,0,,,,,,,,,,,,,,,,,,,
1007195,1480871129835,,,,,,,,0.09,0.08,0.99,-3.0,-0.7,-0.3,1660,0,,,,,,,,,,,,,,,,,,,
1007215,1480871129855,,,,,,,,0.09,0.07,0.99,-3.0,-0.8,-0.3,1660,0,,,,,,,,,,,,,,,,,,,
1007235,1480871129875,,,,,,,,0.09,0.07,1.0,-3.1,-0.8,-0.3,1660,0,,,,,,,,,,,,,,,,,,,
1007255,1480871129895,0,90.1,,128.9,61,113.0,,0.1,0.07,1.0,-3.1,-0.8,-0.2,1620,0,1,1,0.0,0,38.159119,-122.454391,0.0,0.004,46.6,10,3,1.9,0,0.0,-1,0.0,0.0,0.0,0
1007275,1480871129908,,,,,,,,0.1,0.07,1.0,-3.1,-0.8,-0.2,1600,0,,,,,,,,,,,,,,,,,,,
1007295,1480871129928,,,,,,,,0.1,0.07,1.0,-3.0,-0.7,-0.3,1560,0,,,,,,,,,,,,,,,,,,,
1007315,1480871129948,,,,,,,,0.1,0.07,1.0,-3.0,-0.7,-0.3,1520,0,,,,,,,,,,,,,,,,,,,
1007335,1480871129968,,,,,,,,0.1,0.07,1.0,-3.0,-0.7,-0.3,1480,0,,,,,,,,,,,,,,,,,,,
1007355,1480871129988,,,,,59,,,0.1,0.06,1.0,-3.1,-0.7,-0.3,1440,0,1,1,0.0,0,38.159119,-122.454391,0.0,0.004,46.6,10,3,1.9,0,0.0,-1,0.0,,0.0,0
1007375,1480871130009,,,,,,,,0.1,0.07,1.0,-3.1,-0.8,-0.3,1400,0,,,,,,,,,,,,,,,,,,,
1007395,1480871130029,,,,,,,,0.1,0.06,1.0,-3.1,-0.7,-0.3,1360,0,,,,,,,,,,,,,,,,,,,
1007415,1480871130049,,,,,,,,0.09,0.06,1.0,-3.0,-0.7,-0.3,1300,0,,,,,,,,,,,,,,,,,,,
1007435,1480871130069,,,,,,,,0.09,0.07,1.0,-3.1,-0.8,-0.3,1260,0,,,,,,,,,,,,,,,,,,,
1007455,1480871130095,0,93.6,,130.5,53,115.2,,0.1,0.07,1.0,-3.0,-0.8,-0.3,1240,0,1,1,0.0,0,38.159119,-122.454391,0.0,0.004,46.6,10,3,1.9,0,0.0,-1,0.0,0.0,0.0,0
1007475,1480871130115,,,,,,,,0.09,0.07,1.0,-3.0,-0.8,-0.3,1200,0,,,,,,,,,,,,,,,,,,,
1007495,1480871130135,,,,,,,,0.09,0.07,0.99,-3.0,-0.8,-0.3,1160,0,,,,,,,,,,,,,,,,,,,
1007515,1480871130155,,,,,,,,0.1,0.06,1.0,-3.0,-0.8,-0.3,1100,0,,,,,,,,,,,,,,,,,,,
1007535,1480871130175,,,,,,,,0.09,0.07,1.0,-3.0,-0.8,-0.3,1060,0,,,,,,,,,,,,,,,,,,,
1007555,1480871130195,,,,,53,,,0.09,0.07,0.99,-3.0,-0.7,-0.3,1020,0,1,1,0.0,0,38.159119,-122.454391,0.0,0.004,46.6,10,3,1.9,0,0.0,-1,0.0,,0.0,0
1007575,1480871130215,,,,,,,,0.09,0.06,0.99,-3.0,-0.8,-0.3,980,0,,,,,,,,,,,,,,,,,,,
1007595,1480871130235,,,,,,,,0.09,0.06,0.99,-3.0,-0.8,-0.2,980,0,,,,,,,,,,,,,,,,,,,
1007615,1480871130255,,,,,,,,0.1,0.07,0.99,-3.0,-0.7,-0.2,860,0,,,,,,,,,,,,,,,,,,,
1007635,1480871130275,,,,,,,,0.1,0.06,0.99,-3.0,-0.7,-0.2,920,0,,,,,,,,,,,,,,,,,,,
1007655,1480871130295,0,91.8,,129.2,48,114.4,,0.1,0.06,0.99,-3.0,-0.7,-0.2,880,0,1,1,0.0,0,38.159119,-122.454391,0.0,0.004,46.6,10,3,1.9,0,0.0,-1,0.0,0.0,0.0,0
1007675,1480871130315,,,,,,,,0.09,0.06,0.99,-3.0,-0.7,-0.2,840,0,,,,,,,,,,,,,,,,,,,
1007695,1480871130335,,,,,,,,0.1,0.06,0.98,-3.0,-0.8,-0.2,800,0,,,,,,,,,,,,,,,,,,,
1007715,1480871130355,,,,,,,,0.1,0.06,0.98,-3.0,-0.9,-0.2,740,0,,,,,,,,,,,,,,,,,,,
1007735,1480871130375,,,,,,,,0.1,0.06,0.98,-3.0,-0.8,-0.3,740,0,,,,,,,,,,,,,,,,,,,
1007755,1480871130494,,,,,50,,,0.1,0.07,0.98,-3.1,-0.9,-0.2,700,0,1,1,0.0,0,38.159119,-122.454391,0.0,0.004,46.6,10,3,1.9,0,0.0,-1,0.0,,0.0,0
1007775,1480871130514,,,,,,,,0.1,0.07,0.98,-3.0,-0.9,-0.2,660,0,,,,,,,,,,,,,,,,,,,
1007795,1480871130534,,,,,,,,0.1,0.07,0.98,-3.1,-0.9,-0.3,660,0,,,,,,,,,,,,,,,,,,,
1007815,1480871130554,,,,,,,,0.1,0.07,0.98,-3.0,-0.9,-0.3,600,0,,,,,,,,,,,,,,,,,,,
1007835,1480871130574,,,,,,,,0.1,0.07,0.98,-3.0,-0.8,-0.3,600,0,,,,,,,,,,,,,,,,,,,
1007855,1480871130594,0,90.6,,129.3,48,112.9,,0.1,0.07,0.98,-3.0,-0.9,-0.2,540,0,1,1,0.0,0,38.159119,-122.454391,0.0,0.004,46.6,10,3,1.9,0,0.0,-1,0.0,0.0,0.0,0
1007875,1480871130614,,,,,,,,0.1,0.07,0.99,-3.1,-0.9,-0.3,540,0,,,,,,,,,,,,,,,,,,,
1007895,1480871130634,,,,,,,,0.1,0.07,0.99,-3.1,-1.0,-0.2,480,0,,,,,,,,,,,,,,,,,,,
1007915,1480871130654,,,,,,,,0.1,0.07,0.99,-3.1,-1.0,-0.3,480,0,,,,,,,,,,,,,,,,,,,
1007935,1480871130674,,,,,,,,0.1,0.07,0.99,-3.0,-1.0,-0.2,420,0,,,,,,,,,,,,,,,,,,,
1007955,1480871130591,,,,,46,,,0.09,0.07,0.99,-3.0,-0.9,-0.3,420,0,1,1,0.0,0,38.159119,-122.454391,0.0,0.004,46.6,10,3,1.9,0,0.0,-1,0.0,,0.0,0
1007975,1480871130611,,,,,,,,0.09,0.07,0.99,-3.0,-1.0,-0.3,420,0,,,,,,,,,,,,,,,,,,,
1007995,1480871130631,,,,,,,,0.09,0.07,0.99,-3.0,-1.0,-0.3,380,0,,,,,,,,,,,,,,,,,,,
1008015,1480871130651,,,,,,,,0.09,0.07,0.99,-3.0,-1.0,-0.3,380,0,,,,,,,,,,,,,,,,,,,
1008035,1480871130671,,,,,,,,0.09,0.07,0.99,-3.0,-1.0,-0.3,380,0,,,,,,,,,,,,,,,,,,,
1008055,1480871130695,0,93.9,0.0,130.7,46,115.3,13.19,0.09,0.07,0.99,-3.0,-0.9,-0.3,320,0,1,1,0.0,0,38.159119,-122.454391,0.0,0.004,46.6,10,3,1.9,0,0.0,-1,0.0,0.0,0.0,0
1008075,1480871130715,,,,,,,,0.09,0.07,0.99,-3.0,-0.9,-0.3,320,0,,,,,,,,,,,,,,,,,,,
1008095,1480871130735,,,,,,,,0.09,0.07,0.99,-3.0,-0.9,-0.3,320,0,,,,,,,,,,,,,,,,,,,
1008115,1480871130755,,,,,,,,0.09,0.07,0.99,-3.0,-0.9,-0.3,320,0,,,,,,,,,,,,,,,,,,,
1008135,1480871130775,,,,,,,,0.09,0.07,0.99,-3.0,-0.9,-0.3,320,0,,,,,,,,,,,,,,,,,,,
1008155,1480871130795,,,,,42,,,0.09,0.07,0.99,-3.0,-0.9,-0.3,320,0,1,1,0.0,0,38.159119,-122.454391,0.0,0.004,46.6,10,3,1.9,0,0.0,-1,0.0,,0.0,0
1008175,1480871130815,,,,,,,,0.09,0.07,0.99,-3.0,-0.9,-0.3,300,0,,,,,,,,,,,,,,,,,,,
1008195,1480871130835,,,,,,,,0.09,0.07,0.99,-3.0,-0.8,-0.3,300,0,,,,,,,,,,,,,,,,,,,
1008215,1480871130855,,,,,,,,0.09,0.06,0.99,-3.0,-0.9,-0.2,300,0,,,,,,,,,,,,,,,,,,,
1008235,1480871130875,,,,,,,,0.09,0.07,0.99,-3.0,-0.9,-0.3,300,0,,,,,,,,,,,,,,,,,,,
1008255,1480871130895,1,92.8,,129.7,41,113.7,,0.09,0.07,0.99,-3.0,-0.9,-0.3,260,0,1,1,0.0,0,38.159119,-122.454391,0.0,0.004,46.6,10,3,1.9,0,0.0,-1,0.0,0.0,0.0,0
1008275,1480871130909,,,,,,,,0.09,0.07,0.99,-3.0,-0.9,-0.2,260,0,,,,,,,,,,,,,,,,,,,
1008295,1480871130929,,,,,,,,0.09,0.07,0.99,-3.0,-0.9,-0.3,260,0,,,,,,,,,,,,,,,,,,,
1008315,1480871130949,,,,,,,,0.09,0.07,0.99,-3.0,-0.9,-0.3,260,0,,,,,,,,,,,,,,,,,,,
1008335,1480871130969,,,,,,,,0.09,0.07,0.99,-3.1,-0.9,-0.3,240,0,,,,,,,,,,,,,,,,,,,
1008355,1480871130995,,,,,37,,,0.09,0.07,0.99,-3.0,-0.9,-0.3,240,0,1,1,0.0,0,38.159119,-122.454391,0.0,0.004,46.6,10,3,1.9,0,0.0,-1,0.0,,0.0,0
1008375,1480871131015,,,,,,,,0.09,0.07,0.99,-3.0,-0.9,-0.3,240,0,,,,,,,,,,,,,,,,,,,
1008395,1480871131035,,,,,,,,0.09,0.07,0.99,-3.0,-0.9,-0.3,240,0,,,,,,,,,,,,,,,,,,,
1008415,1480871131055,,,,,,,,0.09,0.07,0.99,-3.0,-0.9,-0.3,200,0,,,,,,,,,,,,,,,,,,,
1008435,1480871131075,,,,,,,,0.09,0.06,0.99,-3.0,-0.9,-0.3,200,0,,,,,,,,,,,,,,,,,,,
1008455,1480871131095,0,93.1,,130.1,35,113.9,,0.09,0.07,0.99,-3.0,-0.9,-0.3,200,0,1,1,0.0,0,38.159119,-122.454391,0.0,0.004,46.6,10,3,1.9,0,0.0,-1,0.0,0.0,0.0,0
1008475,1480871131115,,,,,,,,0.09,0.07,0.99,-3.0,-0.9,-0.3,200,0,,,,,,,,,,,,,,,,,,,
1008495,1480871131135,,,,,,,,0.09,0.07,0.99,-3.1,-0.9,-0.3,200,0,,,,,,,,,,,,,,,,,,,
1008515,1480871131155,,,,,,,,0.09,0.07,0.99,-3.1,-0.9,-0.3,200,0,,,,,,,,,,,,,,,,,,,
1008535,1480871131175,,,,,,,,0.09,0.07,0.99,-3.1,-0.9,-0.3,180,0,,,,,,,,,,,,,,,,,,,
1008555,1480871131294,,,,,34,,,0.09,0.06,0.99,-3.0,-0.9,-0.3,180,0,1,1,0.0,0,38.159119,-122.454391,0.0,0.004,46.6,10,3,1.9,0,0.0,-1,0.0,,0.0,0
1008575,1480871131314,,,,,,,,0.09,0.07,0.99,-3.0,-0.8,-0.3,180,0,,,,,,,,,,,,,,,,,,,
1008595,1480871131334,,,,,,,,0.09,0.07,0.99,-3.0,-0.8,-0.3,180,0,,,,,,,,,,,,,,,,,,,
1008615,1480871131354,,,,,,,,0.09,0.07,0.99,-3.0,-0.8,-0.3,180,0,,,,,,,,,,,,,,,,,,,
1008635,1480871131374,,,,,,,,0.09,0.06,0.99,-3.0,-0.8,-0.3,180,0,,,,,,,,,,,,,,,,,,,
1008655,1480871131394,0,93.6,,130.4,31,114.2,,0.09,0.06,0.99,-3.0,-0.9,-0.3,10000000,0,1,1,0.0,0,38.159119,-122.454391,0.0,0.004,46.6,10,3,1.9,0,0.0,-1,0.0,0.0,0.0,0
1008675,1480871131414,,,,,,,,0.09,0.06,0.99,-3.0,-0.9,-0.3,0,0,,,,,,,,,,,,,,,,,,,
1008695,1480871131434,,,,,,,,0.09,0.06,0.99,-3.0,-0.9,-0.3,0,0,,,,,,,,,,,,,,,,,,,
1008715,1480871131454,,,,,,,,0.09,0.06,0.99,-3.0,-0.9,-0.3,400,0,,,,,,,,,,,,,,,,,,,
1008735,1480871131474,,,,,,,,0.09,0.07,0.99,-3.0,-0.9,-0.3,400,0,,,,,,,,,,,,,,,,,,,
1008755,1480871131395,,,,,27,,,0.09,0.06,0.99,-3.0,-0.9,-0.3,400,0,1,1,0.0,0,38.159119,-122.454391,0.0,0.004,46.6,10,3,1.9,0,0.0,-1,0.0,,0.0,0
1008775,1480871131415,,,,,,,,0.09,0.06,0.99,-3.0,-0.9,-0.3,400,0,,,,,,,,,,,,,,,,,,,
1008795,1480871131435,,,,,,,,0.09,0.07,0.99,-3.0,-1.0,-0.3,400,0,,,,,,,,,,,,,,,,,,,
1008815,1480871131455,,,,,,,,0.09,0.07,0.99,-3.0,-1.0,-0.3,400,0,,,,,,,,,,,,,,,,,,,
1008835,1480871131475,,,,,,,,0.09,0.07,0.99,-3.0,-1.0,-0.2,20000000,0,,,,,,,,,,,,,,,,,,,
1008855,1480871131495,0,90.6,,129.2,23,112.5,,0.09,0.07,0.99,-3.0,-0.9,-0.2,0,0,1,1,0.0,0,38.159119,-122.454391,0.0,0.004,46.6,10,3,1.9,0,0.0,-1,0.0,0.0,0.0,0
1008875,1480871131515,,,,,,,,0.09,0.07,0.99,-3.0,-1.0,-0.2,0,0,,,,,,,,,,,,,,,,,,,
1008895,1480871131535,,,,,,,,0.09,0.07,0.99,-3.0,-0.9,-0.3,0,0,,,,,,,,,,,,,,,,,,,
1008915,1480871131555,,,,,,,,0.09,0.07,0.99,-3.0,-0.9,-0.2,0,0,,,,,,,,,,,,,,,,,,,
1008935,1480871131575,,,,,,,,0.09,0.07,0.99,-3.0,-0.9,-0.2,0,0,,,,,,,,,,,,,,,,,,,
1008955,1480871131595,,,,,21,,,0.09,0.07,0.99,-3.0,-0.9,-0.2,0,0,1,1,0.0,0,38.159119,-122.454391,0.0,0.004,46.6,10,3,1.9,0,0.0,-1,0.0,,0.0,0
1008975,1480871131615,,,,,,,,0.09,0.07,0.99,-3.0,-0.9,-0.2,0,0,,,,,,,,,,,,,,,,,,,
1008995,1480871131635,,,,,,,,0.09,0.07,0.99,-3.0,-0.9,-0.2,0,0,,,,,,,,,,,,,,,,,,,
1009015,1480871131655,,,,,,,,0.09,0.07,0.99,-3.0,-0.9,-0.2,0,0,,,,,,,,,,,,,,,,,,,
1009035,1480871131675,,,,,,,,0.09,0.07,0.99,-3.0,-0.9,-0.2,0,0,,,,,,,,,,,,,,,,,,,
1009055,1480871131695,0,93.1,0.0,130.1,19,114.0,12.26,0.09,0.07,0.99,-3.0,-0.9,-0.2,0,0,1,1,0.0,0,38.159119,-122.454391,0.0,0.004,46.6,10,3,1.9,0,0.0,-1,0.0,0.0,0.0,0
1009075,1480871131715,,,,,,,,0.09,0.07,0.99,-3.0,-0.9,-0.2,0,0,,,,,,,,,,,,,,,,,,,
1009095,1480871131735,,,,,,,,0.09,0.07,0.99,-3.0,-0.9,-0.2,0,0,,,,,,,,,,,,,,,,,,,
1009115,1480871131755,,,,,,,,0.09,0.07,0.99,-3.0,-0.9,-0.2,0,0,,,,,,,,,,,,,,,,,,,
1009135,1480871131775,,,,,,,,0.09,0.07,0.99,-3.0,-0.9,-0.2,0,0,,,,,,,,,,,,,,,,,,,
1009155,1480871131795,,,,,18,,,0.09,0.07,0.99,-3.0,-0.9,-0.2,0,0,1,1,0.0,0,38.159119,-122.454391,0.0,0.004,46.6,10,3,1.9,0,0.0,-1,0.0,,0.0,0
1009175,1480871131815,,,,,,,,0.09,0.07,0.99,-3.0,-0.9,-0.2,0,0,,,,,,,,,,,,,,,,,,,
1009195,1480871131835,,,,,,,,0.09,0.07,0.99,-3.0,-0.9,-0.2,0,0,,,,,,,,,,,,,,,,,,,
1009215,1480871131855,,,,,,,,0.09,0.07,0.99,-3.0,-0.9,-0.2,0,0,,,,,,,,,,,,,,,,,,,
1009235,1480871131875,,,,,,,,0.09,0.07,0.99,-3.0,-0.9,-0.2,0,0,,,,,,,,,,,,,,,,,,,
1009255,1480871131895,0,90.6,,129.3,16,113.1,,0.09,0.07,0.99,-3.0,-0.9,-0.2,0,0,1,1,0.0,0,38.159119,-122.454391,0.0,0.004,46.6,10,3,1.9,0,0.0,-1,0.0,0.0,0.0,0
1009275,1480871131909,,,,,,,,0.09,0.07,0.99,-3.0,-0.9,-0.3,0,0,,,,,,,,,,,,,,,,,,,
1009295,1480871131929,,,,,,,,0.09,0.07,0.99,-3.0,-0.9,-0.2,0,0,,,,,,,,,,,,,,,,,,,
1009315,1480871131949,,,,,,,,0.09,0.07,0.99,-3.0,-0.9,-0.2,0,0,,,,,,,,,,,,,,,,,,,
1009335,1480871131969,,,,,,,,0.09,0.07,0.99,-3.0,-0.9,-0.2,0,0,,,,,,,,,,,,,,,,,,,
1009355,1480871132094,,,,,15,,,0.09,0.06,0.99,-3.0,-0.9,-0.2,0,0,1,1,0.0,0,38.159119,-122.454391,0.0,0.004,46.6,10,3,1.9,0,0.0,-1,0.0,,0.0,0
1009375,1480871132114,,,,,,,,0.1,0.06,0.99,-3.0,-0.9,-0.3,0,0,,,,,,,,,,,,,,,,,,,
1009395,1480871132134,,,,,,,,0.09,0.06,0.99,-3.1,-0.9,-0.3,0,0,,,,,,,,,,,,,,,,,,,
1009415,1480871132154,,,,,,,,0.09,0.07,0.99,-3.1,-0.9,-0.3,0,0,,,,,,,,,,,,,,,,,,,
1009435,1480871132174,,,,,,,,0.09,0.06,0.99,-3.1,-0.9,-0.3,0,0,,,,,,,,,,,,,,,,,,,
1009455,1480871132194,0,90.7,,129.5,14,113.3,,0.09,0.07,0.99,-3.1,-0.9,-0.3,0,0,1,1,0.0,0,38.159119,-122.454391,0.0,0.004,46.6,10,3,1.9,0,0.0,-1,0.0,0.0,0.0,0
1009475,1480871132214,,,,,,,,0.09,0.06,0.99,-3.1,-0.9,-0.3,0,0,,,,,,,,,,,,,,,,,,,
1009495,1480871132234,,,,,,,,0.09,0.06,0.99,-3.1,-0.8,-0.3,0,0,,,,,,,,,,,,,,,,,,,
1009515,1480871132254,,,,,,,,0.09,0.06,0.99,-3.0,-0.8,-0.3,0,0,,,,,,,,,,,,,,,,,,,
1009535,1480871132274,,,,,,,,0.09,0.06,0.99,-3.0,-0.9,-0.3,0,0,,,,,,,,,,,,,,,,,,,
1009555,1480871132195,,,,,14,,,0.09,0.06,0.99,-3.0,-0.9,-0.3,0,0,1,1,0.0,0,38.159119,-122.454391,0.0,0.004,46.6,10,3,1.9,0,0.0,-1,0.0,,0.0,0
1009575,1480871132215,,,,,,,,0.09,0.06,0.99,-3.0,-0.9,-0.3,0,0,,,,,,,,,,,,,,,,,,,
1009595,1480871132235,,,,,,,,0.09,0.06,0.99,-3.0,-0.9,-0.3,0,0,,,,,,,,,,,,,,,,,,,
1009615,1480871132255,,,,,,,,0.09,0.06,0.99,-3.0,-0.9,-0.3,0,0,,,,,,,,,,,,,,,,,,,
1009635,1480871132275,,,,,,,,0.09,0.06,0.99,-3.0,-0.8,-0.3,0,0,,,,,,,,,,,,,,,,,,,
1009655,1480871132295,0,92.4,,129.2,13,112.7,,0.09,0.06,0.99,-3.0,-0.8,-0.3,0,0,1,1,0.0,0,38.159119,-122.454391,0.0,0.004,46.6,10,3,1.9,0,0.0,-1,0.0,0.0,0.0,0
1009675,1480871132315,,,,,,,,0.09,0.06,0.99,-3.0,-0.9,-0.2,0,0,,,,,,,,,,,,,,,,,,,
1009695,1480871132335,,,,,,,,0.09,0.06,0.99,-3.0,-0.8,-0.2,0,0,,,,,,,,,,,,,,,,,,,
1009715,1480871132355,,,,,,,,0.09,0.06,0.99,-3.1,-0.8,-0.2,0,0,,,,,,,,,,,,,,,,,,,
1009735,1480871132375,,,,,,,,0.09,0.06,0.99,-3.1,-0.8,-0.2,0,0,,,,,,,,,,,,,,,,,,,
1009755,1480871132395,,,,,12,,,0.09,0.06,0.99,-3.0,-0.8,-0.2,0,0,1,1,0.0,0,38.159119,-122.454391,0.0,0.004,46.6,10,3,1.9,0,0.0,-1,0.0,,0.0,0
1009775,1480871132415,,,,,,,,0.09,0.06,0.99,-3.1,-0.8,-0.2,0,0,,,,,,,,,,,,,,,,,,,
1009795,1480871132435,,,,,,,,0.09,0.06,0.99,-3.1,-0.8,-0.2,0,0,,,,,,,,,,,,,,,,,,,
1009815,1480871132455,,,,,,,,0.09,0.06,0.99,-3.0,-0.8,-0.2,0,0,,,,,,,,,,,,,,,,,,,
1009835,1480871132475,,,,,,,,0.09,0.06,0.99,-3.0,-0.8,-0.2,0,0,,,,,,,,,,,,,,,,,,,
1009855,1480871132495,0,94.0,,130.8,12,115.3,,0.09,0.06,0.99,-3.0,-0.8,-0.2,0,0,1,1,0.0,0,38.159119,-122.454391,0.0,0.004,46.6,10,3,1.9,0,0.0,-1,0.0,0.0,0.0,0
1009875,1480871132515,,,,,,,,0.09,0.06,0.99,-3.1,-0.8,-0.2,0,0,,,,,,,,,,,,,,,,,,,
1009895,1480871132535,,,,,,,,0.09,0.07,0.99,-3.1,-0.8,-0.2,0,0,,,,,,,,,,,,,,,,,,,
1009915,1480871132555,,,,,,,,0.09,0.06,0.99,-3.1,-0.8,-0.2,0,0,,,,,,,,,,,,,,,,,,,
1009935,1480871132575,,,,,,,,0.09,0.07,0.99,-3.1,-0.8,-0.2,0,0,,,,,,,,,,,,,,,,,,,
1009955,1480871132595,,,,,11,,,0.09,0.07,0.99,-3.1,-0.8,-0.2,0,0,1,1,0.0,0,38.159119,-122.454391,0.0,0.004,46.6,10,3,1.9,0,0.0,-1,0.0,,0.0,0
1009975,1480871132615,,,,,,,,0.09,0.07,0.99,-3.1,-0.8,-0.2,0,0,,,,,,,,,,,,,,,,,,,
1009995,1480871132635,,,,,,,,0.09,0.07,0.99,-3.1,-0.8,-0.2,0,0,,,,,,,,,,,,,,,,,,,
1010015,1480871132655,,,,,,,,0.09,0.07,0.99,-3.1,-0.8,-0.2,0,0,,,,,,,,,,,,,,,,,,,
1010035,1480871132675,,,,,,,,0.09,0.07,0.99,-3.1,-0.8,-0.2,0,0,,,,,,,,,,,,,,,,,,,
1010055,1480871132695,0,93.4,0.0,130.3,11,114.1,12.24,0.09,0.07,0.99,-3.1,-0.8,-0.2,0,0,1,1,0.0,0,38.159119,-122.454391,0.0,0.004,46.6,10,3,1.9,0,0.0,-1,0.0,0.0,0.0,0
1010075,1480871132715,,,,,,,,0.09,0.06,0.99,-3.0,-0.8,-0.2,0,0,,,,,,,,,,,,,,,,,,,
1010095,1480871132735,,,,,,,,0.09,0.06,0.99,-3.0,-0.8,-0.2,0,0,,,,,,,,,,,,,,,,,,,
1010115,1480871132755,,,,,,,,0.09,0.06,0.99,-3.0,-0.8,-0.2,0,0,,,,,,,,,,,,,,,,,,,
1010135,1480871132775,,,,,,,,0.09,0.06,0.99,-3.0,-0.8,-0.2,0,0,,,,,,,,,,,,,,,,,,,
1010155,1480871132894,,,,,10,,,0.09,0.06,0.99,-3.0,-0.8,-0.2,0,0,1,1,0.0,0,38.159119,-122.454391,0.0,0.004,46.6,10,3,1.9,0,0.0,-1,0.0,,0.0,0
1010175,1480871132914,,,,,,,,0.09,0.06,0.99,-3.0,-0.8,-0.2,0,0,,,,,,,,,,,,,,,,,,,
1010195,1480871132934,,,,,,,,0.09,0.06,0.99,-3.0,-0.8,-0.3,0,0,,,,,,,,,,,,,,,,,,,
1010215,1480871132954,,,,,,,,0.09,0.06,0.99,-3.0,-0.8,-0.2,0,0,,,,,,,,,,,,,,,,,,,
1010235,1480871132974,,,,,,,,0.09,0.06,0.99,-3.0,-0.8,-0.3,0,0,,,,,,,,,,,,,,,,,,,
1010255,1480871132994,0,92.8,,129.9,10,112.2,,0.09,0.06,0.99,-3.0,-0.8,-0.3,0,0,1,1,0.0,0,38.159119,-122.454391,0.0,0.004,46.6,10,3,1.9,0,0.0,-1,0.0,0.0,0.0,0
1010275,1480871133014,,,,,,,,0.09,0.06,0.99,-3.0,-0.8,-0.3,0,0,,,,,,,,,,,,,,,,,,,
1010295,1480871133034,,,,,,,,0.09,0.06,0.99,-3.0,-0.8,-0.3,0,0,,,,,,,,,,,,,,,,,,,
1010315,1480871133054,,,,,,,,0.09,0.06,0.99,-3.0,-0.9,-0.3,0,0,,,,,,,,,,,,,,,,,,,
1010335,1480871133074,,,,,,,,0.09,0.06,0.99,-3.0,-0.9,-0.3,0,0,,,,,,,,,,,,,,,,,,,
1010355,1480871132991,,,,,10,,,0.09,0.06,0.99,-3.0,-0.8,-0.3,0,0,1,1,0.0,0,38.159119,-122.454391,0.0,0.004,46.6,10,3,1.9,0,0.0,-1,0.0,,0.0,0
1010375,1480871133011,,,,,,,,0.09,0.06,0.99,-3.0,-0.8,-0.3,0,0,,,,,,,,,,,,,,,,,,,
1010395,1480871133031,,,,,,,,0.09,0.06,0.99,-3.0,-0.8,-0.3,0,0,,,,,,,,,,,,,,,,,,,
1010415,1480871133051,,,,,,,,0.09,0.06,0.99,-3.1,-0.8,-0.3,0,0,,,,,,,,,,,,,,,,,,,
1010435,1480871133071,,,,,,,,0.09,0.06,0.99,-3.1,-0.8,-0.3,0,0,,,,,,,,,,,,,,,,,,,
1010455,1480871133094,0,91.9,,130.5,9,115.2,,0.09,0.06,0.99,-3.1,-0.8,-0.3,0,0,1,1,0.0,0,38.159119,-122.454391,0.0,0.004,46.6,10,3,1.9,0,0.0,-1,0.0,0.0,0.0,0
1010475,1480871133114,,,,,,,,0.09,0.06,0.99,-3.1,-0.8,-0.3,0,0,,,,,,,,,,,,,,,,,,,
1010495,1480871133134,,,,,,,,0.09,0.06,0.99,-3.1,-0.8,-0.3,0,0,,,,,,,,,,,,,,,,,,,
1010515,1480871133154,,,,,,,,0.09,0.06,0.99,-3.1,-0.8,-0.3,0,0,,,,,,,,,,,,,,,,,,,
1010535,1480871133174,,,,,,,,0.09,0.06,0.99,-3.1,-0.8,-0.3,0,0,,,,,,,,,,,,,,,,,,,
1010555,1480871133194,,,,,9,,,0.09,0.06,0.99,-3.1,-0.8,-0.3,0,0,1,1,0.0,0,38.159119,-122.454391,0.0,0.004,46.6,10,3,1.9,0,0.0,-1,0.0,,0.0,0
1010575,1480871133214,,,,,,,,0.09,0.06,0.99,-3.1,-0.8,-0.3,0,0,,,,,,,,,,,,,,,,,,,
1010595,1480871133234,,,,,,,,0.09,0.06,0.99,-3.0,-0.8,-0.3,0,0,,,,,,,,,,,,,,,,,,,
1010615,1480871133254,,,,,,,,0.09,0.07,0.99,-3.0,-0.8,-0.3,0,0,,,,,,,,,,,,,,,,,,,
1010635,1480871133274,,,,,,,,0.09,0.06,0.99,-3.0,-0.8,-0.3,0,0,,,,,,,,,,,,,,,,,,,
1010655,1480871133295,0,90.7,,129.3,8,114.4,,0.09,0.06,0.99,-3.0,-0.8,-0.3,0,0,1,1,0.0,0,38.159119,-122.454391,0.0,0.004,46.6,10,3,1.9,0,0.0,-1,0.0,0.0,0.0,0
1010675,1480871133315,,,,,,,,0.09,0.07,0.99,-3.0,-0.8,-0.3,0,0,,,,,,,,,,,,,,,,,,,
1010695,1480871133335,,,,,,,,0.09,0.07,0.99,-3.1,-0.8,-0.3,0,0,,,,,,,,,,,,,,,,,,,
1010715,1480871133355,,,,,,,,0.09,0.06,0.99,-3.1,-0.9,-0.3,0,0,,,,,,,,,,,,,,,,,,,
1010735,1480871133375,,,,,,,,0.09,0.06,0.99,-3.0,-0.9,-0.3,0,0,,,,,,,,,,,,,,,,,,,
1010755,1480871133395,,,,,8,,,0.09,0.06,0.99,-3.0,-0.9,-0.3,0,0,1,1,0.0,0,38.159119,-122.454391,0.0,0.004,46.6,10,3,1.9,0,0.0,-1,0.0,,0.0,0
1010775,1480871133415,,,,,,,,0.09,0.06,0.99,-3.0,-0.9,-0.3,0,0,,,,,,,,,,,,,,,,,,,
1010795,1480871133435,,,,,,,,0.09,0.06,0.99,-3.1,-0.9,-0.3,0,0,,,,,,,,,,,,,,,,,,,
1010815,1480871133455,,,,,,,,0.09,0.06,0.99,-3.1,-0.9,-0.3,0,0,,,,,,,,,,,,,,,,,,,
1010835,1480871133475,,,,,,,,0.09,0.06,0.99,-3.1,-0.9,-0.3,0,0,,,,,,,,,,,,,,,,,,,
1010855,1480871133494,0,93.4,,130.8,8,114.6,,0.09,0.06,0.99,-3.1,-0.9,-0.3,0,0,1,1,0.0,0,38.159119,-122.454391,0.0,0.004,46.6,10,3,1.9,0,0.0,-1,0.0,0.0,0.0,0
1010875,1480871133514,,,,,,,,0.09,0.06,0.99,-3.1,-0.9,-0.3,0,0,,,,,,,,,,,,,,,,,,,
1010895,1480871133534,,,,,,,,0.09,0.06,0.99,-3.1,-0.9,-0.3,0,0,,,,,,,,,,,,,,,,,,,
1010915,1480871133554,,,,,,,,0.09,0.06,0.99,-3.1,-0.9,-0.3,0,0,,,,,,,,,,,,,,,,,,,
1010935,1480871133574,,,,,,,,0.09,0.06,0.99,-3.1,-0.9,-0.3,0,0,,,,,,,,,,,,,,,,,,,
1010955,1480871133694,,,,,7,,,0.09,0.06,0.99,-3.1,-0.9,-0.3,0,0,1,1,0.0,0,38.159119,-122.454391,0.0,0.004,46.6,10,3,1.9,0,0.0,-1,0.0,,0.0,0
1010975,1480871133714,,,,,,,,0.09,0.06,0.99,-3.0,-0.9,-0.3,0,0,,,,,,,,,,,,,,,,,,,
1010995,1480871133734,,,,,,,,0.09,0.06,0.99,-3.0,-0.9,-0.3,0,0,,,,,,,,,,,,,,,,,,,
1011015,1480871133754,,,,,,,,0.09,0.06,0.99,-3.0,-0.9,-0.3,0,0,,,,,,,,,,,,,,,,,,,
1011035,1480871133774,,,,,,,,0.09,0.07,0.99,-3.0,-0.9,-0.3,0,0,,,,,,,,,,,,,,,,,,,
1011055,1480871133794,0,92.1,0.0,129.1,8,112.5,12.25,0.09,0.06,0.99,-3.0,-0.9,-0.3,0,0,1,1,0.0,0,38.159119,-122.454391,0.0,0.004,46.6,10,3,1.9,0,0.0,-1,0.0,0.0,0.0,0
1011075,1480871133814,,,,,,,,0.09,0.06,0.99,-3.1,-0.9,-0.3,0,0,,,,,,,,,,,,,,,,,,,
1011095,1480871133834,,,,,,,,0.09,0.07,0.99,-3.1,-0.8,-0.2,0,0,,,,,,,,,,,,,,,,,,,
1011115,1480871133854,,,,,,,,0.09,0.06,0.99,-3.0,-0.8,-0.3,0,0,,,,,,,,,,,,,,,,,,,
1011135,1480871133874,,,,,,,,0.09,0.06,0.99,-3.0,-0.8,-0.2,0,0,,,,,,,,,,,,,,,,,,,
1011155,1480871133794,,,,,7,,,0.09,0.06,0.99,-3.0,-0.8,-0.2,0,0,1,1,0.0,0,38.159119,-122.454391,0.0,0.004,46.6,10,3,1.9,0,0.0,-1,0.0,,0.0,0
1011175,1480871133814,,,,,,,,0.09,0.06,0.99,-3.0,-0.8,-0.2,0,0,,,,,,,,,,,,,,,,,,,
1011195,1480871133834,,,,,,,,0.09,0.06,0.99,-3.0,-0.8,-0.2,0,0,,,,,,,,,,,,,,,,,,,
1011215,1480871133854,,,,,,,,0.09,0.06,0.99,-3.0,-0.9,-0.2,0,0,,,,,,,,,,,,,,,,,,,
1011235,1480871133874,,,,,,,,0.09,0.06,0.99,-3.0,-0.9,-0.2,0,0,,,,,,,,,,,,,,,,,,,
1011255,1480871133894,0,93.9,,130.8,7,114.3,,0.09,0.06,0.99,-3.0,-0.9,-0.2,0,0,1,1,0.0,0,38.159119,-122.454391,0.0,0.004,46.6,10,3,1.9,0,0.0,-1,0.0,0.0,0.0,0
1011275,1480871133909,,,,,,,,0.09,0.06,0.99,-3.0,-0.9,-0.2,0,0,,,,,,,,,,,,,,,,,,,
1011295,1480871133929,,,,,,,,0.09,0.06,0.99,-3.0,-0.9,-0.2,0,0,,,,,,,,,,,,,,,,,,,
1011315,1480871133949,,,,,,,,0.09,0.06,0.99,-3.0,-0.9,-0.3,0,0,,,,,,,,,,,,,,,,,,,
1011335,1480871133969,,,,,,,,0.09,0.06,0.99,-3.0,-0.9,-0.3,0,0,,,,,,,,,,,,,,,,,,,
1011355,1480871133995,,,,,6,,,0.09,0.06,0.99,-3.0,-0.9,-0.3,0,0,1,1,0.0,0,38.159119,-122.454391,0.0,0.004,46.6,10,3,1.9,0,0.0,-1,0.0,,0.0,0
1011375,1480871134015,,,,,,,,0.09,0.06,0.99,-3.0,-0.9,-0.3,0,0,,,,,,,,,,,,,,,,,,,
1011395,1480871134035,,,,,,,,0.09,0.06,0.99,-3.0,-0.9,-0.3,0,0,,,,,,,,,,,,,,,,,,,
1011415,1480871134055,,,,,,,,0.09,0.06,0.99,-3.0,-0.9,-0.2,0,0,,,,,,,,,,,,,,,,,,,
1011435,1480871134075,,,,,,,,0.09,0.06,0.99,-3.0,-0.9,-0.2,0,0,,,,,,,,,,,,,,,,,,,
1011455,1480871134095,0,91.8,,130.4,6,115.2,,0.09,0.06,0.99,-3.0,-0.9,-0.2,0,0,1,1,0.0,0,38.159119,-122.454391,0.0,0.004,46.6,10,3,1.9,0,0.0,-1,0.0,0.0,0.0,0
1011475,1480871134115,,,,,,,,0.09,0.06,0.99,-3.0,-0.9,-0.2,0,0,,,,,,,,,,,,,,,,,,,
1011495,1480871134135,,,,,,,,0.09,0.06,0.99,-3.0,-0.9,-0.3,0,0,,,,,,,,,,,,,,,,,,,
1011515,1480871134155,,,,,,,,0.09,0.06,0.99,-3.0,-0.9,-0.3,0,0,,,,,,,,,,,,,,,,,,,
1011535,1480871134175,,,,,,,,0.09,0.06,0.99,-3.0,-0.9,-0.3,0,0,,,,,,,,,,,,,,,,,,,
1011555,1480871134195,,,,,6,,,0.09,0.06,0.99,-3.0,-0.9,-0.3,0,0,1,1,0.0,0,38.159119,-122.454391,0.0,0.004,46.6,10,3,1.9,0,0.0,-1,0.0,,0.0,0
1011575,1480871134215,,,,,,,,0.09,0.06,0.99,-3.0,-0.9,-0.3,0,0,,,,,,,,,,,,,,,,,,,
1011595,1480871134235,,,,,,,,0.09,0.06,0.99,-3.0,-0.9,-0.3,0,0,,,,,,,,,,,,,,,,,,,
1011615,1480871134255,,,,,,,,0.09,0.06,0.99,-3.0,-0.9,-0.3,0,0,,,,,,,,,,,,,,,,,,,
1011635,1480871134275,,,,,,,,0.09,0.06,0.99,-3.0,-0.9,-0.3,0,0,,,,,,,,,,,,,,,,,,,
1011655,1480871134295,0,90.6,,129.5,6,114.7,,0.09,0.06,0.99,-3.0,-0.9,-0.3,0,0,1,1,0.0,0,38.159119,-122.454391,0.0,0.004,46.6,10,3,1.9,0,0.0,-1,0.0,0.0,0.0,0
1011675,1480871134315,,,,,,,,0.09,0.06,0.99,-3.0,-0.9,-0.3,0,0,,,,,,,,,,,,,,,,,,,
1011695,1480871134335,,,,,,,,0.09,0.06,0.99,-3.0,-0.8,-0.3,0,0,,,,,,,,,,,,,,,,,,,
1011715,1480871134355,,,,,,,,0.09,0.06,0.99,-3.0,-0.8,-0.3,0,0,,,,,,,,,,,,,,,,,,,
1011735,1480871134375,,,,,,,,0.09,0.06,0.99,-3.0,-0.8,-0.2,0,0,,,,,,,,,,,,,,,,,,,
