"Interval"|"ms"|0|0|1,"Utc"|"ms"|0|0|1,"FuelLevel"|"F"|0|100|5,"OilTemp"|"F"|0.0|300.0|5,"CoolantPressPSI"|"PSI"|0.0|20.0|1,"Coolant"|"F"|0.0|300.0|5,"OilPress"|"PSI"|0|150|10,"EngineTemp"|"F"|0.0|300.0|5,"Battery"|"Volts"|0.0|20.0|1,"AccelX"|"G"|-3.0|3.0|50,"AccelY"|"G"|-3.0|3.0|50,"AccelZ"|"G"|-3.0|3.0|50,"Yaw"|"Deg/Sec"|-300.0|300.0|50,"Pitch"|"Deg/Sec"|-300.0|300.0|50,"Roll"|"Deg/Sec"|-300.0|300.0|50,"RPM"|""|0|10000|50,"Driveshaft"|"RPM"|0|5000|50,"GPIO1"|""|0|1|10,"GPIO2"|""|0|1|10,"GearRatio"|""|-5.0|5.0|10,"Gear"|""|-1|5|10,"Latitude"|"Degrees"|-180.0|180.0|10,"Longitude"|"Degrees"|-180.0|180.0|10,"Speed"|"MPH"|0.0|150.0|10,"Distance"|"Miles"|0.0|0.0|10,"Altitude"|"Feet"|0.0|4000.0|10,"GPSSats"|""|0|20|10,"GPSQual"|""|0|5|10,"GPSDOP"|""|0.0|20.0|10,"LapCount"|""|0|0|10,"LapTime"|"Min"|0.0|0.0|10,"Sector"|""|0|0|10,"SectorTime"|"Min"|0.0|0.0|10,"PredTime"|"Min"|0.0|0.0|5,"ElapsedTime"|"Min"|0.0|0.0|10,"CurrentLap"|""|0|0|10
521973,1480810198684,,,,,,,,0.02,0.05,0.98,-3.0,0.2,-0.2,6360,0,,,,,,,,,,,,,,,,,,,
521993,1480810198704,,,,,,,,0.02,0.05,0.98,-3.1,0.1,-0.2,6360,0,,,,,,,,,,,,,,,,,,,
522013,1480810198724,,,,,,,,0.02,0.05,0.97,-3.1,0.1,-0.2,6360,0,,,,,,,,,,,,,,,,,,,
522033,1480810198744,,,,,,,,0.01,0.05,0.97,-3.0,-0.1,-0.4,6360,0,,,,,,,,,,,,,,,,,,,
522053,1480810198764,0,131.5,0.0,157.7,0,150.7,10.19,0.01,0.05,0.97,-3.0,-0.3,-0.5,160,0,1,0,0.0,0,38.159184,-122.454391,0.0,0.013,48.6,9,3,1.7,0,0.0,-1,0.0,0.0,0.0,0
522073,1480810198784,,,,,,,,0.01,0.04,0.97,-3.0,-0.1,-0.5,160,0,,,,,,,,,,,,,,,,,,,
522093,1480810198804,,,,,,,,0.01,0.04,0.97,-3.0,-0.1,-0.4,160,0,,,,,,,,,,,,,,,,,,,
522113,1480810198824,,,,,,,,0.0,0.04,0.98,-3.0,-0.2,-0.3,160,0,,,,,,,,,,,,,,,,,,,
522133,1480810198844,,,,,,,,0.01,0.04,0.98,-3.0,-0.1,-0.3,160,0,,,,,,,,,,,,,,,,,,,
522153,1480810198864,,,,,0,,,0.01,0.05,0.98,-3.0,-0.0,-0.3,220,0,1,0,0.0,0,38.159184,-122.454391,0.0,0.013,48.6,9,3,1.7,0,0.0,-1,0.0,,0.0,0
522173,1480810198884,,,,,,,,0.01,0.05,0.98,-3.0,0.0,-0.2,220,0,,,,,,,,,,,,,,,,,,,
522193,1480810198996,,,,,,,,0.01,0.05,0.97,-3.0,0.1,-0.2,220,0,,,,,,,,,,,,,,,,,,,
522213,1480810199016,,,,,,,,0.01,0.05,0.98,-3.0,0.1,-0.1,320,0,,,,,,,,,,,,,,,,,,,
522233,1480810199036,,,,,,,,0.01,0.05,0.97,-3.0,0.2,-0.2,320,0,,,,,,,,,,,,,,,,,,,
522253,1480810199056,0,131.6,,157.3,0,150.8,,0.01,0.05,0.97,-3.1,0.3,-0.1,500,0,1,0,0.0,0,38.159184,-122.454391,0.0,0.013,48.6,9,3,1.7,0,0.0,-1,0.0,0.0,0.0,0
522273,1480810199076,,,,,,,,0.01,0.05,0.97,-3.1,0.2,-0.2,640,0,,,,,,,,,,,,,,,,,,,
522293,1480810199096,,,,,,,,0.01,0.04,0.98,-3.0,0.2,-0.4,640,29,,,,,,,,,,,,,,,,,,,
522313,1480810199116,,,,,,,,0.01,0.05,0.99,-3.1,0.3,-0.2,740,29,,,,,,,,,,,,,,,,,,,
522333,1480810199136,,,,,,,,0.02,0.06,0.98,-3.1,0.3,-0.1,860,29,,,,,,,,,,,,,,,,,,,
522353,1480810199156,,,,,1,,,0.02,0.06,0.99,-3.1,0.3,-0.0,900,29,1,0,0.0,0,38.159184,-122.454391,0.0,0.013,48.6,9,3,1.7,0,0.0,-1,0.0,,0.0,0
522373,1480810199176,,,,,,,,0.02,0.06,0.99,-3.2,0.1,0.1,840,29,,,,,,,,,,,,,,,,,,,
522393,1480810199104,,,,,,,,0.02,0.06,0.99,-3.2,0.2,-0.1,800,1538461,,,,,,,,,,,,,,,,,,,
522413,1480810199124,,,,,,,,0.02,0.05,0.99,-3.1,0.1,-0.3,840,0,,,,,,,,,,,,,,,,,,,
522433,1480810199144,,,,,,,,0.02,0.06,0.98,-3.1,0.0,-0.2,840,0,,,,,,,,,,,,,,,,,,,
522453,1480810199164,0,131.6,,157.0,0,150.6,,0.02,0.05,0.98,-3.1,0.1,-0.1,880,0,1,0,31.034,0,38.159184,-122.454391,0.0,0.013,48.6,9,3,1.7,0,0.0,-1,0.0,0.0,0.0,0
522473,1480810199184,,,,,,,,0.02,0.05,0.99,-3.2,0.1,-0.2,920,0,,,,,,,,,,,,,,,,,,,
522493,1480810199205,,,,,,,,0.02,0.06,1.0,-3.2,0.2,-0.1,920,0,,,,,,,,,,,,,,,,,,,
522513,1480810199225,,,,,,,,0.03,0.06,0.99,-3.2,0.1,-0.0,860,0,,,,,,,,,,,,,,,,,,,
522533,1480810199245,,,,,,,,0.02,0.07,0.99,-3.2,0.1,-0.0,820,0,,,,,,,,,,,,,,,,,,,
522553,1480810199265,,,,,1,,,0.02,0.07,0.99,-3.2,0.1,-0.0,800,0,1,0,0.0,0,38.159184,-122.454391,0.0,0.013,48.6,9,3,1.7,0,0.0,-1,0.0,,0.0,0
522573,1480810199285,,,,,,,,0.02,0.07,0.99,-3.1,0.1,-0.0,800,0,,,,,,,,,,,,,,,,,,,
522593,1480810199305,,,,,,,,0.02,0.06,0.99,-3.1,-0.0,-0.1,780,0,,,,,,,,,,,,,,,,,,,
522613,1480810199325,,,,,,,,0.02,0.06,0.99,-3.1,-0.0,-0.1,800,0,,,,,,,,,,,,,,,,,,,
522633,1480810199345,,,,,,,,0.03,0.06,1.0,-3.1,0.0,-0.2,760,0,,,,,,,,,,,,,,,,,,,
522653,1480810199365,1,132.9,,157.8,1,150.7,,0.02,0.06,1.0,-3.1,0.0,-0.2,720,0,1,0,0.0,0,38.159184,-122.454391,0.0,0.013,48.6,9,3,1.7,0,0.0,-1,0.0,0.0,0.0,0
522673,1480810199385,,,,,,,,0.02,0.06,0.99,-3.1,0.1,-0.2,720,0,,,,,,,,,,,,,,,,,,,
522693,1480810199404,,,,,,,,0.02,0.06,1.0,-3.1,0.1,-0.1,680,0,,,,,,,,,,,,,,,,,,,
522713,1480810199424,,,,,,,,0.02,0.06,1.0,-3.1,0.1,-0.2,660,0,,,,,,,,,,,,,,,,,,,
522733,1480810199444,,,,,,,,0.02,0.06,0.99,-3.0,0.1,-0.2,660,0,,,,,,,,,,,,,,,,,,,
522753,1480810199464,,,,,0,,,0.02,0.06,0.99,-3.1,0.0,-0.2,660,0,1,0,0.0,0,38.159184,-122.454391,0.0,0.013,48.6,9,3,1.7,0,0.0,-1,0.0,,0.0,0
522773,1480810199484,,,,,,,,0.02,0.06,0.99,-3.0,0.2,-0.2,640,0,,,,,,,,,,,,,,,,,,,
522793,1480810199504,,,,,,,,0.02,0.06,0.99,-3.0,0.1,-0.2,640,0,,,,,,,,,,,,,,,,,,,
522813,1480810199524,,,,,,,,0.02,0.06,0.99,-3.0,0.1,-0.2,620,0,,,,,,,,,,,,,,,,,,,
522833,1480810199544,,,,,,,,0.02,0.06,0.99,-3.0,0.1,-0.2,620,0,,,,,,,,,,,,,,,,,,,
522853,1480810199564,0,132.6,,157.5,0,149.2,,0.02,0.06,0.99,-3.1,0.1,-0.2,620,0,1,0,0.0,0,38.159184,-122.454391,0.0,0.013,48.6,9,3,1.7,0,0.0,-1,0.0,0.0,0.0,0
522873,1480810199584,,,,,,,,0.02,0.06,0.98,-3.1,0.0,-0.2,580,0,,,,,,,,,,,,,,,,,,,
522893,1480810199604,,,,,,,,0.02,0.05,0.99,-3.1,0.1,-0.2,580,0,,,,,,,,,,,,,,,,,,,
522913,1480810199624,,,,,,,,0.02,0.06,0.99,-3.1,0.0,-0.2,560,0,,,,,,,,,,,,,,,,,,,
522933,1480810199644,,,,,,,,0.02,0.06,0.98,-3.1,0.1,-0.2,560,0,,,,,,,,,,,,,,,,,,,
522953,1480810199664,,,,,0,,,0.02,0.06,0.98,-3.1,0.0,-0.2,540,0,1,0,0.0,0,38.159184,-122.454391,0.0,0.013,48.6,9,3,1.7,0,0.0,-1,0.0,,0.0,0
522973,1480810199684,,,,,,,,0.02,0.05,0.99,-3.1,0.0,-0.2,540,0,,,,,,,,,,,,,,,,,,,
522993,1480810199803,,,,,,,,0.02,0.05,0.99,-3.1,0.1,-0.2,520,0,,,,,,,,,,,,,,,,,,,
523013,1480810199823,,,,,,,,0.02,0.06,0.99,-3.1,0.0,-0.2,520,0,,,,,,,,,,,,,,,,,,,
523033,1480810199843,,,,,,,,0.02,0.06,0.99,-3.1,0.0,-0.2,520,0,,,,,,,,,,,,,,,,,,,
523053,1480810199863,0,131.7,0.0,157.0,0,150.6,12.75,0.02,0.06,0.99,-3.0,0.1,-0.2,520,0,1,0,0.0,0,38.159184,-122.454391,0.0,0.013,48.6,9,3,1.7,0,0.0,-1,0.0,0.0,0.0,0
523073,1480810199883,,,,,,,,0.02,0.05,0.99,-3.0,0.1,-0.2,500,0,,,,,,,,,,,,,,,,,,,
523093,1480810199903,,,,,,,,0.02,0.05,0.99,-3.0,0.1,-0.2,500,0,,,,,,,,,,,,,,,,,,,
523113,1480810199923,,,,,,,,0.02,0.05,0.98,-3.0,0.1,-0.2,480,0,,,,,,,,,,,,,,,,,,,
523133,1480810199943,,,,,,,,0.02,0.05,0.98,-3.0,0.1,-0.2,480,0,,,,,,,,,,,,,,,,,,,
523153,1480810199963,,,,,0,,,0.02,0.05,0.98,-3.0,0.1,-0.2,460,0,1,0,0.0,0,38.159184,-122.454391,0.0,0.013,48.6,9,3,1.7,0,0.0,-1,0.0,,0.0,0
523173,1480810199983,,,,,,,,0.02,0.05,0.98,-3.0,0.2,-0.2,460,0,,,,,,,,,,,,,,,,,,,
523193,1480810199897,,,,,,,,0.02,0.05,0.98,-2.9,0.2,-0.2,440,0,,,,,,,,,,,,,,,,,,,
523213,1480810199917,,,,,,,,0.02,0.05,0.98,-2.9,0.2,-0.2,440,0,,,,,,,,,,,,,,,,,,,
523233,1480810199937,,,,,,,,0.02,0.05,0.99,-2.9,0.2,-0.2,440,0,,,,,,,,,,,,,,,,,,,
523253,1480810199957,0,132.9,,157.6,0,149.9,,0.02,0.06,0.99,-3.0,0.2,-0.1,440,0,1,0,0.0,0,38.159184,-122.454391,0.0,0.013,48.6,9,3,1.7,0,0.0,-1,0.0,0.0,0.0,0
523273,1480810199977,,,,,,,,0.02,0.06,0.98,-3.0,0.1,-0.2,440,0,,,,,,,,,,,,,,,,,,,
523293,1480810200005,,,,,,,,0.02,0.06,0.98,-3.0,0.1,-0.2,420,0,,,,,,,,,,,,,,,,,,,
523313,1480810200025,,,,,,,,0.02,0.05,0.99,-3.0,0.1,-0.2,420,0,,,,,,,,,,,,,,,,,,,
523333,1480810200045,,,,,,,,0.02,0.05,0.99,-3.0,0.1,-0.2,400,0,,,,,,,,,,,,,,,,,,,
523353,1480810200065,,,,,0,,,0.02,0.05,0.99,-3.0,0.1,-0.2,400,0,1,0,0.0,0,38.159184,-122.454391,0.0,0.013,48.6,9,3,1.7,0,0.0,-1,0.0,,0.0,0
523373,1480810200085,,,,,,,,0.02,0.05,0.98,-3.0,0.1,-0.2,400,0,,,,,,,,,,,,,,,,,,,
523393,1480810200104,,,,,,,,0.02,0.05,0.98,-3.0,0.1,-0.2,400,0,,,,,,,,,,,,,,,,,,,
523413,1480810200124,,,,,,,,0.02,0.05,0.98,-3.0,0.1,-0.2,400,0,,,,,,,,,,,,,,,,,,,
523433,1480810200144,,,,,,,,0.02,0.06,0.98,-3.0,0.1,-0.2,400,0,,,,,,,,,,,,,,,,,,,
523453,1480810200164,0,132.7,,157.6,0,149.6,,0.02,0.05,0.98,-3.0,0.1,-0.2,400,0,1,0,0.0,0,38.159184,-122.454391,0.0,0.013,48.6,9,3,1.7,0,0.0,-1,0.0,0.0,0.0,0
523473,1480810200184,,,,,,,,0.02,0.05,0.98,-3.0,0.1,-0.2,380,0,,,,,,,,,,,,,,,,,,,
523493,1480810200204,,,,,,,,0.02,0.05,0.98,-3.0,0.1,-0.2,380,0,,,,,,,,,,,,,,,,,,,
523513,1480810200224,,,,,,,,0.02,0.05,0.98,-3.0,0.1,-0.2,380,0,,,,,,,,,,,,,,,,,,,
523533,1480810200244,,,,,,,,0.02,0.06,0.98,-3.0,0.1,-0.2,380,0,,,,,,,,,,,,,,,,,,,
523553,1480810200264,,,,,0,,,0.02,0.05,0.98,-3.0,0.1,-0.2,380,0,1,0,0.0,0,38.159184,-122.454391,0.0,0.013,48.6,9,3,1.7,0,0.0,-1,0.0,,0.0,0
523573,1480810200284,,,,,,,,0.02,0.05,0.98,-3.0,0.1,-0.2,380,0,,,,,,,,,,,,,,,,,,,
523593,1480810200304,,,,,,,,0.02,0.05,0.98,-3.0,0.0,-0.2,380,0,,,,,,,,,,,,,,,,,,,
523613,1480810200324,,,,,,,,0.02,0.06,0.98,-3.0,0.1,-0.1,380,0,,,,,,,,,,,,,,,,,,,
523633,1480810200344,,,,,,,,0.02,0.06,0.98,-3.0,0.1,-0.1,360,0,,,,,,,,,,,,,,,,,,,
523653,1480810200364,0,133.1,,157.9,0,150.5,,0.02,0.06,0.98,-3.1,0.1,-0.1,360,0,1,0,0.0,0,38.159184,-122.454391,0.0,0.013,48.6,9,3,1.7,0,0.0,-1,0.0,0.0,0.0,0
523673,1480810200384,,,,,,,,0.02,0.06,0.98,-3.0,0.1,-0.2,360,0,,,,,,,,,,,,,,,,,,,
523693,1480810200404,,,,,,,,0.02,0.06,0.98,-3.0,0.1,-0.2,340,0,,,,,,,,,,,,,,,,,,,
523713,1480810200424,,,,,,,,0.02,0.06,0.98,-3.0,0.1,-0.2,340,0,,,,,,,,,,,,,,,,,,,
523733,1480810200444,,,,,,,,0.02,0.06,0.98,-3.0,0.1,-0.2,340,0,,,,,,,,,,,,,,,,,,,
523753,1480810200464,,,,,0,,,0.02,0.05,0.98,-3.0,0.1,-0.2,360,0,1,0,0.0,0,38.159184,-122.454391,0.0,0.013,48.6,9,3,1.7,0,0.0,-1,0.0,,0.0,0
523773,1480810200484,,,,,,,,0.02,0.05,0.98,-3.0,0.1,-0.2,360,0,,,,,,,,,,,,,,,,,,,
523793,1480810200603,,,,,,,,0.02,0.05,0.98,-3.0,0.1,-0.2,360,0,,,,,,,,,,,,,,,,,,,
523813,1480810200623,,,,,,,,0.02,0.05,0.99,-3.0,0.1,-0.2,360,0,,,,,,,,,,,,,,,,,,,
523833,1480810200643,,,,,,,,0.02,0.05,0.99,-3.0,0.1,-0.2,360,0,,,,,,,,,,,,,,,,,,,
523853,1480810200663,0,133.0,,157.7,0,150.4,,0.02,0.05,0.98,-3.0,0.1,-0.2,360,0,1,0,0.0,0,38.159184,-122.454391,0.0,0.013,48.6,9,3,1.7,0,0.0,-1,0.0,0.0,0.0,0
523873,1480810200683,,,,,,,,0.02,0.05,0.98,-3.0,0.1,-0.2,360,0,,,,,,,,,,,,,,,,,,,
523893,1480810200703,,,,,,,,0.02,0.05,0.98,-3.0,0.1,-0.2,360,0,,,,,,,,,,,,,,,,,,,
523913,1480810200723,,,,,,,,0.02,0.05,0.98,-3.0,0.1,-0.2,360,0,,,,,,,,,,,,,,,,,,,
523933,1480810200743,,,,,,,,0.02,0.05,0.98,-3.0,0.1,-0.2,360,0,,,,,,,,,,,,,,,,,,,
523953,1480810200763,,,,,0,,,0.02,0.05,0.98,-3.0,0.1,-0.2,360,0,1,0,0.0,0,38.159184,-122.454391,0.0,0.013,48.6,9,3,1.7,0,0.0,-1,0.0,,0.0,0
523973,1480810200783,,,,,,,,0.02,0.05,0.98,-3.0,0.1,-0.2,360,0,,,,,,,,,,,,,,,,,,,
523993,1480810200704,,,,,,,,0.02,0.05,0.98,-3.0,0.1,-0.2,360,0,,,,,,,,,,,,,,,,,,,
524013,1480810200724,,,,,,,,0.02,0.06,0.98,-3.0,0.1,-0.2,360,0,,,,,,,,,,,,,,,,,,,
524033,1480810200744,,,,,,,,0.02,0.05,0.98,-3.0,0.1,-0.2,360,0,,,,,,,,,,,,,,,,,,,
524053,1480810200764,0,133.1,0.0,157.8,0,150.5,12.57,0.02,0.05,0.98,-3.0,0.2,-0.2,360,0,1,0,0.0,0,38.159184,-122.454391,0.0,0.013,48.6,9,3,1.7,0,0.0,-1,0.0,0.0,0.0,0
524073,1480810200784,,,,,,,,0.02,0.05,0.98,-3.0,0.2,-0.2,380,0,,,,,,,,,,,,,,,,,,,
524093,1480810200804,,,,,,,,0.02,0.05,0.98,-3.0,0.2,-0.2,380,0,,,,,,,,,,,,,,,,,,,
524113,1480810200824,,,,,,,,0.02,0.05,0.98,-3.0,0.1,-0.2,380,0,,,,,,,,,,,,,,,,,,,
524133,1480810200844,,,,,,,,0.02,0.05,0.98,-3.0,0.1,-0.2,380,0,,,,,,,,,,,,,,,,,,,
524153,1480810200864,,,,,0,,,0.02,0.05,0.98,-3.0,0.1,-0.2,380,0,1,0,0.0,0,38.159184,-122.454391,0.0,0.013,48.6,9,3,1.7,0,0.0,-1,0.0,,0.0,0
524173,1480810200884,,,,,,,,0.02,0.05,0.98,-3.0,0.2,-0.2,380,0,,,,,,,,,,,,,,,,,,,
524193,1480810200897,,,,,,,,0.02,0.05,0.98,-3.0,0.2,-0.2,380,0,,,,,,,,,,,,,,,,,,,
524213,1480810200917,,,,,,,,0.02,0.05,0.98,-3.0,0.2,-0.2,380,0,,,,,,,,,,,,,,,,,,,
524233,1480810200937,,,,,,,,0.02,0.05,0.98,-3.1,0.2,-0.2,380,0,,,,,,,,,,,,,,,,,,,
524253,1480810200957,0,131.4,,156.6,1,150.2,,0.02,0.05,0.98,-3.1,0.2,-0.2,380,0,1,0,0.0,0,38.159184,-122.454391,0.0,0.013,48.6,9,3,1.7,0,0.0,-1,0.0,0.0,0.0,0
524273,1480810200977,,,,,,,,0.02,0.06,0.98,-3.1,0.2,-0.2,380,0,,,,,,,,,,,,,,,,,,,
524293,1480810201004,,,,,,,,0.02,0.06,0.98,-3.1,0.2,-0.1,380,0,,,,,,,,,,,,,,,,,,,
524313,1480810201024,,,,,,,,0.02,0.06,0.98,-3.1,0.2,-0.2,380,0,,,,,,,,,,,,,,,,,,,
524333,1480810201044,,,,,,,,0.02,0.06,0.98,-3.1,0.2,-0.2,380,0,,,,,,,,,,,,,,,,,,,
524353,1480810201064,,,,,1,,,0.02,0.05,0.98,-3.1,0.2,-0.2,380,0,1,0,0.0,0,38.159184,-122.454391,0.0,0.013,48.6,9,3,1.7,0,0.0,-1,0.0,,0.0,0
524373,1480810201084,,,,,,,,0.02,0.06,0.98,-3.1,0.2,-0.2,400,0,,,,,,,,,,,,,,,,,,,
524393,1480810201104,,,,,,,,0.02,0.05,0.98,-3.1,0.2,-0.2,400,0,,,,,,,,,,,,,,,,,,,
524413,1480810201124,,,,,,,,0.02,0.05,0.99,-3.1,0.1,-0.2,400,0,,,,,,,,,,,,,,,,,,,
524433,1480810201144,,,,,,,,0.02,0.05,0.99,-3.1,0.1,-0.2,400,0,,,,,,,,,,,,,,,,,,,
524453,1480810201164,0,132.6,,157.8,2,150.7,,0.02,0.05,0.99,-3.1,0.1,-0.2,400,0,1,0,0.0,0,38.159184,-122.454391,0.0,0.013,48.6,9,3,1.7,0,0.0,-1,0.0,0.0,0.0,0
524473,1480810201184,,,,,,,,0.02,0.05,0.99,-3.1,0.2,-0.1,400,0,,,,,,,,,,,,,,,,,,,
524493,1480810201204,,,,,,,,0.02,0.05,0.99,-3.1,0.2,-0.1,400,0,,,,,,,,,,,,,,,,,,,
524513,1480810201224,,,,,,,,0.02,0.05,0.99,-3.1,0.1,-0.1,420,0,,,,,,,,,,,,,,,,,,,
524533,1480810201244,,,,,,,,0.02,0.05,0.99,-3.1,0.1,-0.1,420,0,,,,,,,,,,,,,,,,,,,
524553,1480810201264,,,,,3,,,0.02,0.05,0.99,-3.1,0.1,-0.2,420,0,1,0,0.0,0,38.159184,-122.454391,0.0,0.013,48.6,9,3,1.7,0,0.0,-1,0.0,,0.0,0
524573,1480810201284,,,,,,,,0.02,0.05,0.99,-3.1,0.1,-0.2,420,0,,,,,,,,,,,,,,,,,,,
524593,1480810201399,,,,,,,,0.02,0.05,0.99,-3.1,0.1,-0.2,420,0,,,,,,,,,,,,,,,,,,,
524613,1480810201419,,,,,,,,0.02,0.05,0.98,-3.1,0.1,-0.2,400,0,,,,,,,,,,,,,,,,,,,
524633,1480810201439,,,,,,,,0.02,0.05,0.98,-3.1,0.2,-0.2,400,0,,,,,,,,,,,,,,,,,,,
524653,1480810201459,0,132.6,,157.6,3,149.6,,0.02,0.05,0.98,-3.1,0.1,-0.1,420,0,1,0,0.0,0,38.159184,-122.454391,0.0,0.013,48.6,9,3,1.7,0,0.0,-1,0.0,0.0,0.0,0
524673,1480810201479,,,,,,,,0.02,0.05,0.98,-3.1,0.1,-0.1,420,0,,,,,,,,,,,,,,,,,,,
524693,1480810201499,,,,,,,,0.02,0.05,0.98,-3.1,0.1,-0.2,420,0,,,,,,,,,,,,,,,,,,,
524713,1480810201519,,,,,,,,0.02,0.05,0.98,-3.1,0.1,-0.2,420,0,,,,,,,,,,,,,,,,,,,
524733,1480810201539,,,,,,,,0.02,0.05,0.98,-3.1,0.1,-0.2,420,0,,,,,,,,,,,,,,,,,,,
524753,1480810201559,,,,,3,,,0.02,0.06,0.98,-3.1,0.1,-0.2,420,0,1,0,0.0,0,38.159184,-122.454391,0.0,0.013,48.6,9,3,1.7,0,0.0,-1,0.0,,0.0,0
524773,1480810201579,,,,,,,,0.02,0.05,0.98,-3.1,0.2,-0.2,420,0,,,,,,,,,,,,,,,,,,,
524793,1480810201504,,,,,,,,0.02,0.05,0.98,-3.1,0.2,-0.2,420,0,,,,,,,,,,,,,,,,,,,
524813,1480810201524,,,,,,,,0.02,0.06,0.98,-3.1,0.2,-0.2,420,0,,,,,,,,,,,,,,,,,,,
524833,1480810201544,,,,,,,,0.02,0.05,0.98,-3.1,0.2,-0.2,420,0,,,,,,,,,,,,,,,,,,,
524853,1480810201564,0,133.2,,158.0,4,150.4,,0.02,0.05,0.98,-3.1,0.2,-0.2,420,0,1,0,0.0,0,38.159184,-122.454391,0.0,0.013,48.6,9,3,1.7,0,0.0,-1,0.0,0.0,0.0,0
524873,1480810201584,,,,,,,,0.02,0.05,0.98,-3.1,0.2,-0.2,420,0,,,,,,,,,,,,,,,,,,,
524893,1480810201604,,,,,,,,0.02,0.06,0.98,-3.1,0.1,-0.1,420,0,,,,,,,,,,,,,,,,,,,
524913,1480810201624,,,,,,,,0.02,0.05,0.98,-3.1,0.1,-0.1,420,0,,,,,,,,,,,,,,,,,,,
524933,1480810201644,,,,,,,,0.02,0.05,0.98,-3.1,0.1,-0.1,420,0,,,,,,,,,,,,,,,,,,,
524953,1480810201664,,,,,4,,,0.02,0.06,0.98,-3.1,0.1,-0.1,420,0,1,0,0.0,0,38.159184,-122.454391,0.0,0.013,48.6,9,3,1.7,0,0.0,-1,0.0,,0.0,0
524973,1480810201684,,,,,,,,0.02,0.06,0.98,-3.1,0.1,-0.2,420,0,,,,,,,,,,,,,,,,,,,
524993,1480810201704,,,,,,,,0.02,0.06,0.99,-3.1,0.2,-0.2,420,0,,,,,,,,,,,,,,,,,,,
525013,1480810201724,,,,,,,,0.02,0.05,0.98,-3.1,0.1,-0.2,420,0,,,,,,,,,,,,,,,,,,,
525033,1480810201744,,,,,,,,0.02,0.05,0.98,-3.1,0.1,-0.2,420,0,,,,,,,,,,,,,,,,,,,
525053,1480810201764,0,132.8,0.0,157.9,4,150.2,12.73,0.02,0.05,0.98,-3.1,0.1,-0.2,420,0,1,0,0.0,0,38.159184,-122.454391,0.0,0.013,48.6,9,3,1.7,0,0.0,-1,0.0,0.0,0.0,0
525073,1480810201784,,,,,,,,0.02,0.05,0.98,-3.1,0.1,-0.2,420,0,,,,,,,,,,,,,,,,,,,
525093,1480810201804,,,,,,,,0.02,0.05,0.98,-3.1,0.1,-0.2,420,0,,,,,,,,,,,,,,,,,,,
525113,1480810201824,,,,,,,,0.02,0.05,0.98,-3.1,0.1,-0.2,420,0,,,,,,,,,,,,,,,,,,,
525133,1480810201844,,,,,,,,0.02,0.06,0.98,-3.1,0.1,-0.2,420,0,,,,,,,,,,,,,,,,,,,
525153,1480810201864,,,,,4,,,0.02,0.05,0.98,-3.1,0.1,-0.2,420,0,1,0,0.0,0,38.159184,-122.454391,0.0,0.013,48.6,9,3,1.7,0,0.0,-1,0.0,,0.0,0
525173,1480810201884,,,,,,,,0.02,0.06,0.98,-3.1,0.1,-0.2,400,0,,,,,,,,,,,,,,,,,,,
525193,1480810201896,,,,,,,,0.02,0.05,0.99,-3.1,0.1,-0.2,400,0,,,,,,,,,,,,,,,,,,,
525213,1480810201916,,,,,,,,0.02,0.05,0.99,-3.1,0.1,-0.2,400,0,,,,,,,,,,,,,,,,,,,
525233,1480810201936,,,,,,,,0.02,0.05,0.99,-3.1,0.1,-0.2,400,0,,,,,,,,,,,,,,,,,,,
525253,1480810201956,0,131.5,,156.7,4,149.7,,0.02,0.05,0.98,-3.1,0.1,-0.2,400,0,1,0,0.0,0,38.159184,-122.454391,0.0,0.013,48.6,9,3,1.7,0,0.0,-1,0.0,0.0,0.0,0
525273,1480810201976,,,,,,,,0.02,0.06,0.98,-3.1,0.1,-0.2,400,0,,,,,,,,,,,,,,,,,,,
525293,1480810202005,,,,,,,,0.02,0.05,0.98,-3.1,0.1,-0.2,400,0,,,,,,,,,,,,,,,,,,,
525313,1480810202025,,,,,,,,0.02,0.06,0.98,-3.1,0.1,-0.2,400,0,,,,,,,,,,,,,,,,,,,
525333,1480810202045,,,,,,,,0.02,0.05,0.98,-3.1,0.1,-0.2,400,0,,,,,,,,,,,,,,,,,,,
525353,1480810202065,,,,,5,,,0.02,0.05,0.99,-3.1,0.0,-0.2,400,0,1,0,0.0,0,38.159184,-122.454391,0.0,0.013,48.6,9,3,1.7,0,0.0,-1,0.0,,0.0,0
525373,1480810202085,,,,,,,,0.02,0.05,0.98,-3.1,0.0,-0.2,400,0,,,,,,,,,,,,,,,,,,,
525393,1480810202204,,,,,,,,0.02,0.05,0.98,-3.1,0.1,-0.2,400,0,,,,,,,,,,,,,,,,,,,
525413,1480810202224,,,,,,,,0.02,0.05,0.99,-3.1,0.1,-0.2,400,0,,,,,,,,,,,,,,,,,,,
525433,1480810202244,,,,,,,,0.02,0.05,0.99,-3.1,0.1,-0.1,400,0,,,,,,,,,,,,,,,,,,,
525453,1480810202264,0,131.3,,156.7,4,149.7,,0.02,0.05,0.99,-3.1,0.1,-0.2,400,0,1,0,0.0,0,38.159184,-122.454391,0.0,0.013,48.6,9,3,1.7,0,0.0,-1,0.0,0.0,0.0,0
525473,1480810202284,,,,,,,,0.02,0.05,0.99,-3.1,0.1,-0.2,400,0,,,,,,,,,,,,,,,,,,,
525493,1480810202304,,,,,,,,0.02,0.05,0.99,-3.1,0.0,-0.2,400,0,,,,,,,,,,,,,,,,,,,
525513,1480810202324,,,,,,,,0.02,0.05,0.98,-3.1,0.0,-0.2,400,0,,,,,,,,,,,,,,,,,,,
525533,1480810202344,,,,,,,,0.02,0.05,0.98,-3.1,0.0,-0.2,400,0,,,,,,,,,,,,,,,,,,,
525553,1480810202364,,,,,5,,,0.02,0.05,0.99,-3.1,0.0,-0.2,400,0,1,0,0.0,0,38.159184,-122.454391,0.0,0.013,48.6,9,3,1.7,0,0.0,-1,0.0,,0.0,0
525573,1480810202384,,,,,,,,0.02,0.05,0.99,-3.1,0.0,-0.2,400,0,,,,,,,,,,,,,,,,,,,
525593,1480810202304,,,,,,,,0.02,0.05,0.98,-3.1,0.0,-0.2,400,0,,,,,,,,,,,,,,,,,,,
525613,1480810202324,,,,,,,,0.02,0.05,0.99,-3.1,0.0,-0.2,400,0,,,,,,,,,,,,,,,,,,,
525633,1480810202344,,,,,,,,0.02,0.05,0.99,-3.1,0.0,-0.2,400,0,,,,,,,,,,,,,,,,,,,
525653,1480810202364,0,131.6,,157.0,5,150.2,,0.02,0.05,0.99,-3.1,0.1,-0.2,400,0,1,0,0.0,0,38.159184,-122.454391,0.0,0.013,48.6,9,3,1.7,0,0.0,-1,0.0,0.0,0.0,0
525673,1480810202384,,,,,,,,0.02,0.05,0.99,-3.1,0.0,-0.2,400,0,,,,,,,,,,,,,,,,,,,
525693,1480810202405,,,,,,,,0.02,0.05,0.99,-3.1,0.1,-0.2,400,0,,,,,,,,,,,,,,,,,,,
525713,1480810202425,,,,,,,,0.02,0.05,0.99,-3.1,0.1,-0.2,400,0,,,,,,,,,,,,,,,,,,,
525733,1480810202445,,,,,,,,0.02,0.05,0.99,-3.1,0.1,-0.2,400,0,,,,,,,,,,,,,,,,,,,
525753,1480810202465,,,,,7,,,0.02,0.05,0.99,-3.1,0.0,-0.1,380,0,1,0,0.0,0,38.159184,-122.454391,0.0,0.013,48.6,9,3,1.7,0,0.0,-1,0.0,,0.0,0
525773,1480810202485,,,,,,,,0.02,0.05,0.99,-3.1,0.0,-0.1,380,0,,,,,,,,,,,,,,,,,,,
525793,1480810202505,,,,,,,,0.02,0.05,0.99,-3.1,0.0,-0.2,380,0,,,,,,,,,,,,,,,,,,,
525813,1480810202525,,,,,,,,0.02,0.05,0.99,-3.1,0.0,-0.2,380,0,,,,,,,,,,,,,,,,,,,
525833,1480810202545,,,,,,,,0.02,0.05,0.98,-3.1,0.1,-0.2,380,0,,,,,,,,,,,,,,,,,,,
525853,1480810202565,0,132.8,,158.1,7,150.6,,0.02,0.05,0.99,-3.1,0.0,-0.2,400,0,1,0,0.0,0,38.159184,-122.454391,0.0,0.013,48.6,9,3,1.7,0,0.0,-1,0.0,0.0,0.0,0
525873,1480810202585,,,,,,,,0.02,0.05,0.99,-3.1,0.1,-0.2,400,0,,,,,,,,,,,,,,,,,,,
525893,1480810202604,,,,,,,,0.02,0.05,0.99,-3.1,0.1,-0.2,400,0,,,,,,,,,,,,,,,,,,,
525913,1480810202624,,,,,,,,0.02,0.05,0.99,-3.1,0.1,-0.2,400,0,,,,,,,,,,,,,,,,,,,
525933,1480810202644,,,,,,,,0.02,0.05,0.99,-3.1,0.1,-0.2,400,0,,,,,,,,,,,,,,,,,,,
525953,1480810202664,,,,,7,,,0.02,0.06,0.99,-3.1,0.1,-0.2,400,0,1,0,0.0,0,38.159184,-122.454391,0.0,0.013,48.6,9,3,1.7,0,0.0,-1,0.0,,0.0,0
525973,1480810202684,,,,,,,,0.02,0.05,0.99,-3.1,0.1,-0.2,400,0,,,,,,,,,,,,,,,,,,,
525993,1480810202704,,,,,,,,0.02,0.05,0.99,-3.1,0.1,-0.2,400,0,,,,,,,,,,,,,,,,,,,
526013,1480810202724,,,,,,,,0.02,0.06,0.99,-3.1,0.1,-0.2,400,0,,,,,,,,,,,,,,,,,,,
526033,1480810202744,,,,,,,,0.02,0.05,0.99,-3.1,0.1,-0.2,400,0,,,,,,,,,,,,,,,,,,,
526053,1480810202764,0,132.6,0.0,157.8,8,150.7,12.68,0.02,0.05,0.99,-3.1,0.1,-0.2,400,0,1,0,0.0,0,38.159184,-122.454391,0.0,0.013,48.6,9,3,1.7,0,0.0,-1,0.0,0.0,0.0,0
526073,1480810202784,,,,,,,,0.02,0.05,0.99,-3.1,0.1,-0.2,400,0,,,,,,,,,,,,,,,,,,,
526093,1480810202804,,,,,,,,0.02,0.05,0.99,-3.1,0.1,-0.2,400,0,,,,,,,,,,,,,,,,,,,
526113,1480810202824,,,,,,,,0.02,0.05,0.99,-3.1,0.1,-0.2,400,0,,,,,,,,,,,,,,,,,,,
526133,1480810202844,,,,,,,,0.02,0.05,0.98,-3.1,0.1,-0.2,400,0,,,,,,,,,,,,,,,,,,,
526153,1480810202864,,,,,8,,,0.02,0.06,0.98,-3.1,0.0,-0.2,400,0,1,0,0.0,0,38.159184,-122.454391,0.0,0.013,48.6,9,3,1.7,0,0.0,-1,0.0,,0.0,0
526173,1480810202884,,,,,,,,0.02,0.05,0.99,-3.1,0.1,-0.2,400,0,,,,,,,,,,,,,,,,,,,
526193,1480810202996,,,,,,,,0.02,0.05,0.99,-3.1,0.1,-0.2,420,0,,,,,,,,,,,,,,,,,,,
526213,1480810203016,,,,,,,,0.02,0.05,0.99,-3.1,0.1,-0.2,420,0,,,,,,,,,,,,,,,,,,,
526233,1480810203036,,,,,,,,0.02,0.05,0.98,-3.1,0.1,-0.2,420,0,,,,,,,,,,,,,,,,,,,
526253,1480810203056,0,132.6,,158.0,9,150.7,,0.02,0.06,0.98,-3.1,0.1,-0.2,420,0,1,0,0.0,0,38.159184,-122.454391,0.0,0.013,48.6,9,3,1.7,0,0.0,-1,0.0,0.0,0.0,0
526273,1480810203076,,,,,,,,0.02,0.05,0.98,-3.1,0.0,-0.2,420,0,,,,,,,,,,,,,,,,,,,
526293,1480810203096,,,,,,,,0.02,0.05,0.98,-3.1,0.1,-0.2,420,0,,,,,,,,,,,,,,,,,,,
526313,1480810203116,,,,,,,,0.02,0.05,0.98,-3.1,0.1,-0.2,420,0,,,,,,,,,,,,,,,,,,,
526333,1480810203136,,,,,,,,0.02,0.05,0.98,-3.1,0.1,-0.2,440,0,,,,,,,,,,,,,,,,,,,
526353,1480810203156,,,,,9,,,0.02,0.05,0.98,-3.1,0.0,-0.2,440,0,1,0,0.0,0,38.159184,-122.454391,0.0,0.013,48.6,9,3,1.7,0,0.0,-1,0.0,,0.0,0
526373,1480810203176,,,,,,,,0.02,0.05,0.98,-3.0,0.1,-0.2,440,0,,,,,,,,,,,,,,,,,,,
526393,1480810203104,,,,,,,,0.02,0.05,0.98,-3.1,0.1,-0.2,400,0,,,,,,,,,,,,,,,,,,,
526413,1480810203124,,,,,,,,0.01,0.04,0.98,-3.0,0.0,-0.3,400,0,,,,,,,,,,,,,,,,,,,
526433,1480810203144,,,,,,,,0.02,0.05,0.98,-3.0,0.0,-0.1,460,0,,,,,,,,,,,,,,,,,,,
526453,1480810203164,0,132.6,,158.0,10,150.6,,0.01,0.03,0.98,-2.9,0.2,-0.3,460,0,1,0,0.0,0,38.159184,-122.454391,0.0,0.013,48.6,9,3,1.7,0,0.0,-1,0.0,0.0,0.0,0
526473,1480810203184,,,,,,,,0.01,0.03,0.97,-3.0,0.2,-0.3,600,0,,,,,,,,,,,,,,,,,,,
526493,1480810203204,,,,,,,,0.02,0.04,0.97,-3.0,0.0,-0.2,680,0,,,,,,,,,,,,,,,,,,,
526513,1480810203224,,,,,,,,0.02,0.05,0.98,-3.0,0.0,-0.1,760,0,,,,,,,,,,,,,,,,,,,
526533,1480810203244,,,,,,,,0.02,0.04,0.98,-3.0,0.0,-0.2,760,0,,,,,,,,,,,,,,,,,,,
526553,1480810203264,,,,,13,,,0.02,0.05,0.97,-3.1,-0.0,0.0,740,0,1,0,0.0,0,38.159184,-122.454391,0.0,0.013,48.6,9,3,1.7,0,0.0,-1,0.0,,0.0,0
526573,1480810203284,,,,,,,,0.02,0.06,0.97,-3.1,0.0,0.0,820,0,,,,,,,,,,,,,,,,,,,
526593,1480810203305,,,,,,,,0.02,0.06,0.98,-3.1,-0.1,-0.1,880,0,,,,,,,,,,,,,,,,,,,
526613,1480810203325,,,,,,,,0.01,0.06,0.98,-3.0,0.1,-0.2,820,0,,,,,,,,,,,,,,,,,,,
526633,1480810203345,,,,,,,,0.01,0.04,0.97,-3.0,0.0,-0.4,780,0,,,,,,,,,,,,,,,,,,,
526653,1480810203365,0,131.5,,157.0,14,149.9,,0.01,0.04,0.98,-3.0,0.0,-0.5,780,0,1,0,0.0,0,38.159184,-122.454391,0.0,0.013,48.6,9,3,1.7,0,0.0,-1,0.0,0.0,0.0,0
526673,1480810203385,,,,,,,,0.01,0.04,0.98,-3.0,0.2,-0.4,740,0,,,,,,,,,,,,,,,,,,,
526693,1480810203404,,,,,,,,0.01,0.04,0.98,-3.0,0.2,-0.3,700,0,,,,,,,,,,,,,,,,,,,
526713,1480810203424,,,,,,,,0.01,0.03,0.98,-3.0,0.1,-0.3,700,0,,,,,,,,,,,,,,,,,,,
526733,1480810203444,,,,,,,,0.02,0.03,0.98,-3.0,0.1,-0.2,720,0,,,,,,,,,,,,,,,,,,,
526753,1480810203464,,,,,17,,,0.02,0.06,0.98,-3.1,0.1,-0.1,740,0,1,0,0.0,0,38.159184,-122.454391,0.0,0.013,48.6,9,3,1.7,0,0.0,-1,0.0,,0.0,0
526773,1480810203484,,,,,,,,0.02,0.06,0.98,-3.1,0.1,-0.2,660,0,,,,,,,,,,,,,,,,,,,
526793,1480810203504,,,,,,,,0.02,0.07,0.97,-3.0,0.1,-0.3,660,0,,,,,,,,,,,,,,,,,,,
526813,1480810203524,,,,,,,,0.02,0.08,0.97,-3.0,0.2,-0.1,640,0,,,,,,,,,,,,,,,,,,,
526833,1480810203544,,,,,,,,0.02,0.08,0.98,-3.0,0.1,-0.1,640,0,,,,,,,,,,,,,,,,,,,
526853,1480810203564,0,132.9,,158.3,17,150.6,,0.03,0.07,0.99,-3.1,0.3,-0.0,600,0,1,0,0.0,0,38.159184,-122.454391,0.0,0.013,48.6,9,3,1.7,0,0.0,-1,0.0,0.0,0.0,0
526873,1480810203584,,,,,,,,0.02,0.08,0.98,-3.1,0.1,0.1,620,0,,,,,,,,,,,,,,,,,,,
526893,1480810203604,,,,,,,,0.03,0.06,0.99,-3.0,0.0,-0.2,620,0,,,,,,,,,,,,,,,,,,,
526913,1480810203624,,,,,,,,0.02,0.05,0.99,-3.0,-0.0,-0.3,720,0,,,,,,,,,,,,,,,,,,,
526933,1480810203644,,,,,,,,0.03,0.05,0.97,-3.0,0.2,-0.3,780,0,,,,,,,,,,,,,,,,,,,
526953,1480810203664,,,,,19,,,0.03,0.06,0.98,-3.0,0.1,-0.1,820,0,1,1,0.0,0,38.159184,-122.454391,0.0,0.013,48.6,9,3,1.7,0,0.0,-1,0.0,,0.0,0
526973,1480810203684,,,,,,,,0.02,0.06,0.99,-3.0,0.1,-0.2,840,0,,,,,,,,,,,,,,,,,,,
526993,1480810203803,,,,,,,,0.02,0.06,0.98,-3.0,0.2,-0.2,900,0,,,,,,,,,,,,,,,,,,,
527013,1480810203823,,,,,,,,0.03,0.04,0.98,-3.0,0.0,-0.2,940,0,,,,,,,,,,,,,,,,,,,
527033,1480810203843,,,,,,,,0.02,0.04,0.99,-3.0,0.0,-0.3,960,0,,,,,,,,,,,,,,,,,,,
527053,1480810203863,0,131.8,0.0,157.0,23,149.4,13.81,0.02,0.04,0.99,-2.9,0.2,-0.4,980,0,1,0,0.0,0,38.159184,-122.454391,0.0,0.013,48.6,9,3,1.7,0,0.0,-1,0.0,0.0,0.0,0
527073,1480810203883,,,,,,,,0.01,0.04,0.98,-2.9,0.1,-0.3,1040,0,,,,,,,,,,,,,,,,,,,
527093,1480810203903,,,,,,,,0.01,0.04,0.98,-3.0,-0.0,-0.2,1080,0,,,,,,,,,,,,,,,,,,,
527113,1480810203923,,,,,,,,0.01,0.04,0.98,-3.0,-0.1,-0.2,1120,0,,,,,,,,,,,,,,,,,,,
527133,1480810203943,,,,,,,,0.01,0.05,0.98,-3.0,-0.1,-0.1,1160,0,,,,,,,,,,,,,,,,,,,
527153,1480810203963,,,,,28,,,0.02,0.05,0.98,-3.0,-0.1,-0.0,1180,0,1,0,0.0,0,38.159184,-122.454391,0.0,0.013,48.6,9,3,1.7,0,0.0,-1,0.0,,0.0,0
527173,1480810203983,,,,,,,,0.02,0.07,0.98,-3.1,-0.0,-0.0,1280,0,,,,,,,,,,,,,,,,,,,
527193,1480810203896,,,,,,,,0.02,0.04,0.99,-3.0,0.2,-0.1,1320,0,,,,,,,,,,,,,,,,,,,
527213,1480810203916,,,,,,,,0.01,0.05,0.96,-3.0,-0.0,-0.2,1380,0,,,,,,,,,,,,,,,,,,,
527233,1480810203936,,,,,,,,0.02,0.03,0.98,-3.0,-0.2,-0.1,1480,0,,,,,,,,,,,,,,,,,,,
527253,1480810203956,1,132.1,,157.7,37,150.4,,0.01,0.02,0.99,-3.0,-0.0,-0.1,1600,0,1,0,0.0,0,38.159184,-122.454391,0.0,0.013,48.6,9,3,1.7,0,0.0,-1,0.0,0.0,0.0,0
527273,1480810203976,,,,,,,,0.02,0.02,0.99,-3.0,-0.1,-0.1,1640,0,,,,,,,,,,,,,,,,,,,
527293,1480810204004,,,,,,,,0.01,0.04,0.98,-3.0,-0.0,0.0,1740,0,,,,,,,,,,,,,,,,,,,
527313,1480810204024,,,,,,,,0.02,0.06,0.98,-3.1,-0.1,0.0,1820,0,,,,,,,,,,,,,,,,,,,
527333,1480810204044,,,,,,,,0.01,0.06,0.98,-3.0,-0.2,-0.1,1880,0,,,,,,,,,,,,,,,,,,,
527353,1480810204064,,,,,54,,,0.01,0.05,0.99,-3.1,-0.0,-0.1,1960,0,1,0,0.0,0,38.159184,-122.454391,0.0,0.013,48.6,9,3,1.7,0,0.0,-1,0.0,,0.0,0
527373,1480810204084,,,,,,,,0.01,0.05,0.99,-3.0,-0.0,-0.1,2060,0,,,,,,,,,,,,,,,,,,,
527393,1480810204104,,,,,,,,0.02,0.05,1.01,-3.0,0.0,-0.2,2100,0,,,,,,,,,,,,,,,,,,,
527413,1480810204124,,,,,,,,0.01,0.05,1.0,-3.0,0.0,-0.2,2160,0,,,,,,,,,,,,,,,,,,,
527433,1480810204144,,,,,,,,0.01,0.04,0.98,-2.9,-0.2,-0.2,2220,0,,,,,,,,,,,,,,,,,,,
527453,1480810204164,1,131.6,,156.8,53,149.5,,0.02,0.05,1.0,-2.9,-0.2,-0.2,2380,0,1,0,0.0,0,38.159184,-122.454391,0.0,0.013,48.6,9,3,1.7,0,0.0,-1,0.0,0.0,0.0,0
527473,1480810204184,,,,,,,,0.02,0.04,1.0,-2.9,-0.0,-0.2,2420,0,,,,,,,,,,,,,,,,,,,
527493,1480810204204,,,,,,,,0.02,0.05,0.98,-3.0,-0.1,-0.2,2440,0,,,,,,,,,,,,,,,,,,,
527513,1480810204224,,,,,,,,0.02,0.06,0.96,-2.9,0.2,-0.1,2480,0,,,,,,,,,,,,,,,,,,,
527533,1480810204244,,,,,,,,0.02,0.06,0.98,-2.9,0.0,-0.2,2620,0,,,,,,,,,,,,,,,,,,,
527553,1480810204264,,,,,58,,,0.01,0.08,0.98,-2.9,0.0,-0.2,2600,0,1,0,0.0,0,38.159184,-122.454391,0.0,0.013,48.6,9,3,1.7,0,0.0,-1,0.0,,0.0,0
527573,1480810204284,,,,,,,,0.02,0.1,0.99,-3.0,-0.3,-0.2,2700,0,,,,,,,,,,,,,,,,,,,
527593,1480810204305,,,,,,,,0.02,0.09,0.98,-2.9,-0.1,-0.3,2700,0,,,,,,,,,,,,,,,,,,,
527613,1480810204325,,,,,,,,0.02,0.11,0.98,-2.9,0.2,-0.5,2680,0,,,,,,,,,,,,,,,,,,,
527633,1480810204345,,,,,,,,0.01,0.1,0.97,-2.9,-0.1,-0.5,2740,0,,,,,,,,,,,,,,,,,,,
527653,1480810204365,0,132.9,,158.2,57,150.3,,0.01,0.07,0.99,-3.0,-0.2,-0.5,2740,0,1,0,0.0,0,38.159184,-122.454391,0.0,0.013,48.6,9,3,1.7,0,0.0,-1,0.0,0.0,0.0,0
527673,1480810204385,,,,,,,,0.01,0.06,0.99,-2.9,0.0,-0.5,2720,0,,,,,,,,,,,,,,,,,,,
527693,1480810204404,,,,,,,,0.02,0.06,0.99,-3.0,0.1,-0.4,2740,0,,,,,,,,,,,,,,,,,,,
527713,1480810204424,,,,,,,,0.02,0.06,0.99,-3.1,0.1,-0.2,2720,0,,,,,,,,,,,,,,,,,,,
527733,1480810204444,,,,,,,,0.02,0.08,0.99,-3.1,-0.0,-0.1,2680,0,,,,,,,,,,,,,,,,,,,
527753,1480810204464,,,,,58,,,0.02,0.08,1.0,-3.1,0.1,-0.1,2600,0,1,0,0.0,0,38.159184,-122.454391,0.0,0.013,48.6,9,3,1.7,0,0.0,-1,0.0,,0.0,0
527773,1480810204484,,,,,,,,0.02,0.09,0.98,-3.1,-0.1,-0.0,2600,0,,,,,,,,,,,,,,,,,,,
527793,1480810204603,,,,,,,,0.02,0.08,0.98,-3.0,0.1,-0.1,2540,0,,,,,,,,,,,,,,,,,,,
527813,1480810204623,,,,,,,,0.01,0.07,0.99,-3.0,-0.1,-0.2,2480,0,,,,,,,,,,,,,,,,,,,
527833,1480810204643,,,,,,,,0.01,0.06,0.99,-3.1,0.2,-0.3,2440,0,,,,,,,,,,,,,,,,,,,
527853,1480810204663,0,131.5,,157.0,59,149.6,,0.01,0.06,0.97,-3.0,-0.0,-0.2,2380,0,1,0,0.0,0,38.159184,-122.454391,0.0,0.013,48.6,9,3,1.7,0,0.0,-1,0.0,0.0,0.0,0
527873,1480810204683,,,,,,,,0.01,0.06,0.98,-3.1,0.2,-0.3,2380,0,,,,,,,,,,,,,,,,,,,
527893,1480810204703,,,,,,,,0.01,0.07,1.0,-3.1,-0.1,-0.3,2320,0,,,,,,,,,,,,,,,,,,,
527913,1480810204723,,,,,,,,0.02,0.07,1.0,-3.1,0.1,-0.3,2280,0,,,,,,,,,,,,,,,,,,,
527933,1480810204743,,,,,,,,0.02,0.08,1.0,-3.1,0.1,-0.3,2260,0,,,,,,,,,,,,,,,,,,,
527953,1480810204763,,,,,51,,,0.02,0.06,1.0,-3.1,0.1,-0.3,2220,0,1,0,0.0,0,38.159184,-122.454391,0.0,0.013,48.6,9,3,1.7,0,0.0,-1,0.0,,0.0,0
527973,1480810204783,,,,,,,,0.02,0.08,1.0,-3.0,0.0,-0.3,2120,0,,,,,,,,,,,,,,,,,,,
527993,1480810204704,,,,,,,,0.02,0.08,1.0,-3.0,0.1,-0.3,2100,0,,,,,,,,,,,,,,,,,,,
528013,1480810204724,,,,,,,,0.02,0.07,1.0,-3.1,0.3,-0.2,2060,0,,,,,,,,,,,,,,,,,,,
528033,1480810204744,,,,,,,,0.02,0.07,1.0,-3.1,0.2,-0.2,2000,0,,,,,,,,,,,,,,,,,,,
528053,1480810204764,0,131.7,0.0,157.0,53,149.5,14.6,0.01,0.07,1.01,-3.1,0.1,-0.1,2000,0,1,0,0.0,0,38.159184,-122.454391,0.0,0.013,48.6,9,3,1.7,0,0.0,-1,0.0,0.0,0.0,0
528073,1480810204784,,,,,,,,0.01,0.08,1.01,-3.1,0.1,-0.1,1920,0,,,,,,,,,,,,,,,,,,,
528093,1480810204804,,,,,,,,0.01,0.08,1.01,-3.0,0.0,-0.0,1880,0,,,,,,,,,,,,,,,,,,,
528113,1480810204824,,,,,,,,0.0,0.07,1.01,-3.0,0.1,-0.0,1540,0,,,,,,,,,,,,,,,,,,,
528133,1480810204844,,,,,,,,0.0,0.08,1.01,-3.0,0.2,-0.0,1820,0,,,,,,,,,,,,,,,,,,,
528153,1480810204864,,,,,52,,,0.01,0.07,1.0,-3.0,0.3,-0.1,1760,0,1,0,0.0,0,38.159184,-122.454391,0.0,0.013,48.6,9,3,1.7,0,0.0,-1,0.0,,0.0,0
528173,1480810204884,,,,,,,,0.01,0.06,1.01,-3.0,0.3,-0.1,1720,0,,,,,,,,,,,,,,,,,,,
528193,1480810204897,,,,,,,,0.02,0.06,1.01,-3.0,0.1,-0.1,1680,0,,,,,,,,,,,,,,,,,,,
528213,1480810204917,,,,,,,,0.01,0.06,1.0,-3.0,-0.0,-0.1,1640,0,,,,,,,,,,,,,,,,,,,
528233,1480810204937,,,,,,,,0.01,0.05,1.0,-3.0,0.3,-0.2,1600,0,,,,,,,,,,,,,,,,,,,
528253,1480810204957,0,131.5,,156.9,49,149.3,,0.01,0.06,1.0,-3.0,0.2,-0.1,1560,0,1,0,0.0,0,38.159184,-122.454391,0.0,0.013,48.6,9,3,1.7,0,0.0,-1,0.0,0.0,0.0,0
528273,1480810204977,,,,,,,,0.01,0.06,1.0,-3.0,0.3,-0.1,1500,0,,,,,,,,,,,,,,,,,,,
528293,1480810204997,,,,,,,,0.02,0.06,1.01,-3.0,0.4,-0.1,1500,0,,,,,,,,,,,,,,,,,,,
528313,1480810205017,,,,,,,,0.02,0.06,1.01,-3.1,0.2,-0.1,1440,0,,,,,,,,,,,,,,,,,,,
528333,1480810205037,,,,,,,,0.01,0.06,1.0,-3.1,0.1,-0.2,1380,0,,,,,,,,,,,,,,,,,,,
528353,1480810205057,,,,,47,,,0.02,0.06,1.01,-3.0,0.4,-0.2,1360,0,1,0,0.0,0,38.159184,-122.454391,0.0,0.013,48.6,9,3,1.7,0,0.0,-1,0.0,,0.0,0
528373,1480810205077,,,,,,,,0.02,0.06,1.01,-3.0,0.2,-0.2,1300,0,,,,,,,,,,,,,,,,,,,
528393,1480810205104,,,,,,,,0.02,0.06,0.99,-3.0,0.1,-0.2,1280,0,,,,,,,,,,,,,,,,,,,
528413,1480810205124,,,,,,,,0.02,0.05,1.0,-3.0,0.3,-0.1,1240,0,,,,,,,,,,,,,,,,,,,
528433,1480810205144,,,,,,,,0.02,0.06,0.99,-3.0,0.2,-0.1,1200,0,,,,,,,,,,,,,,,,,,,
528453,1480810205164,0,131.9,,157.0,48,149.3,,0.02,0.06,0.99,-3.1,0.3,-0.2,1180,0,1,1,0.0,0,38.159184,-122.454391,0.0,0.013,48.6,9,3,1.7,0,0.0,-1,0.0,0.0,0.0,0
528473,1480810205184,,,,,,,,0.02,0.06,0.99,-3.0,0.2,-0.2,1140,0,,,,,,,,,,,,,,,,,,,
528493,1480810205205,,,,,,,,0.02,0.06,0.99,-3.0,0.2,-0.2,1060,0,,,,,,,,,,,,,,,,,,,
528513,1480810205225,,,,,,,,0.02,0.05,0.99,-3.0,0.2,-0.2,1020,0,,,,,,,,,,,,,,,,,,,
528533,1480810205245,,,,,,,,0.02,0.05,0.99,-3.0,0.2,-0.2,980,0,,,,,,,,,,,,,,,,,,,
528553,1480810205265,,,,,43,,,0.02,0.05,0.99,-3.0,0.2,-0.2,940,0,1,0,0.0,0,38.159184,-122.454391,0.0,0.013,48.6,9,3,1.7,0,0.0,-1,0.0,,0.0,0
528573,1480810205285,,,,,,,,0.02,0.05,0.99,-3.0,0.3,-0.2,940,0,,,,,,,,,,,,,,,,,,,
528593,1480810205403,,,,,,,,0.01,0.04,0.99,-3.0,0.3,-0.3,900,0,,,,,,,,,,,,,,,,,,,
528613,1480810205423,,,,,,,,0.02,0.05,0.99,-3.0,0.3,-0.3,860,0,,,,,,,,,,,,,,,,,,,
528633,1480810205443,,,,,,,,0.02,0.05,0.99,-3.0,0.3,-0.3,820,0,,,,,,,,,,,,,,,,,,,
528653,1480810205463,0,133.3,,158.4,36,150.3,,0.02,0.05,0.99,-3.0,0.3,-0.3,760,0,1,1,0.0,0,38.159184,-122.454391,0.0,0.013,48.6,9,3,1.7,0,0.0,-1,0.0,0.0,0.0,0
528673,1480810205483,,,,,,,,0.01,0.05,0.99,-3.0,0.3,-0.3,760,0,,,,,,,,,,,,,,,,,,,
528693,1480810205503,,,,,,,,0.01,0.05,0.99,-3.0,0.3,-0.2,720,0,,,,,,,,,,,,,,,,,,,
528713,1480810205523,,,,,,,,0.01,0.05,0.99,-3.0,0.2,-0.2,660,0,,,,,,,,,,,,,,,,,,,
528733,1480810205543,,,,,,,,0.01,0.05,0.99,-3.0,0.3,-0.3,660,0,,,,,,,,,,,,,,,,,,,
528753,1480810205563,,,,,30,,,0.01,0.05,0.99,-3.0,0.2,-0.2,640,0,1,1,0.0,0,38.159184,-122.454391,0.0,0.013,48.6,9,3,1.7,0,0.0,-1,0.0,,0.0,0
528773,1480810205583,,,,,,,,0.01,0.05,0.99,-3.0,0.2,-0.2,620,0,,,,,,,,,,,,,,,,,,,
528793,1480810205505,,,,,,,,0.01,0.04,0.99,-3.0,0.2,-0.2,620,0,,,,,,,,,,,,,,,,,,,
528813,1480810205525,,,,,,,,0.01,0.05,0.99,-3.0,0.2,-0.2,580,0,,,,,,,,,,,,,,,,,,,
528833,1480810205545,,,,,,,,0.01,0.05,0.98,-3.0,0.2,-0.2,580,0,,,,,,,,,,,,,,,,,,,
528853,1480810205565,0,133.4,,158.5,26,150.2,,0.02,0.05,0.98,-3.0,0.2,-0.2,560,0,1,0,0.0,0,38.159184,-122.454391,0.0,0.013,48.6,9,3,1.7,0,0.0,-1,0.0,0.0,0.0,0
528873,1480810205585,,,,,,,,0.02,0.05,0.98,-3.0,0.2,-0.1,540,0,,,,,,,,,,,,,,,,,,,
528893,1480810205605,,,,,,,,0.02,0.05,0.98,-3.0,0.2,-0.2,540,0,,,,,,,,,,,,,,,,,,,
528913,1480810205625,,,,,,,,0.02,0.05,0.98,-3.1,0.2,-0.2,520,0,,,,,,,,,,,,,,,,,,,
528933,1480810205645,,,,,,,,0.02,0.05,0.98,-3.0,0.2,-0.1,520,0,,,,,,,,,,,,,,,,,,,
528953,1480810205665,,,,,22,,,0.02,0.05,0.98,-3.0,0.2,-0.1,500,0,1,1,0.0,0,38.159184,-122.454391,0.0,0.013,48.6,9,3,1.7,0,0.0,-1,0.0,,0.0,0
528973,1480810205685,,,,,,,,0.02,0.05,0.98,-3.1,0.2,-0.1,500,0,,,,,,,,,,,,,,,,,,,
528993,1480810205704,,,,,,,,0.02,0.05,0.98,-3.1,0.2,-0.1,500,0,,,,,,,,,,,,,,,,,,,
529013,1480810205724,,,,,,,,0.02,0.05,0.98,-3.1,0.2,-0.1,500,0,,,,,,,,,,,,,,,,,,,
529033,1480810205744,,,,,,,,0.02,0.05,0.98,-3.1,0.2,-0.1,480,0,,,,,,,,,,,,,,,,,,,
529053,1480810205764,0,132.5,0.0,158.1,19,150.3,13.35,0.02,0.06,0.98,-3.1,0.2,-0.1,480,0,1,0,0.0,0,38.159184,-122.454391,0.0,0.013,48.6,9,3,1.7,0,0.0,-1,0.0,0.0,0.0,0
529073,1480810205784,,,,,,,,0.02,0.05,0.98,-3.1,0.2,-0.1,460,0,,,,,,,,,,,,,,,,,,,
529093,1480810205805,,,,,,,,0.02,0.06,0.98,-3.1,0.2,-0.0,460,0,,,,,,,,,,,,,,,,,,,
529113,1480810205825,,,,,,,,0.02,0.06,0.98,-3.1,0.2,-0.0,460,0,,,,,,,,,,,,,,,,,,,
529133,1480810205845,,,,,,,,0.02,0.06,0.98,-3.1,0.1,-0.0,460,0,,,,,,,,,,,,,,,,,,,
529153,1480810205865,,,,,18,,,0.02,0.06,0.98,-3.1,0.2,-0.1,460,0,1,0,0.0,0,38.159184,-122.454391,0.0,0.013,48.6,9,3,1.7,0,0.0,-1,0.0,,0.0,0
529173,1480810205885,,,,,,,,0.02,0.06,0.98,-3.1,0.2,-0.1,440,0,,,,,,,,,,,,,,,,,,,
529193,1480810205895,,,,,,,,0.02,0.05,0.98,-3.1,0.1,-0.1,440,0,,,,,,,,,,,,,,,,,,,
529213,1480810205915,,,,,,,,0.02,0.05,0.99,-3.1,0.1,-0.2,440,0,,,,,,,,,,,,,,,,,,,
529233,1480810205935,,,,,,,,0.02,0.05,0.99,-3.1,0.1,-0.2,440,0,,,,,,,,,,,,,,,,,,,
529253,1480810205955,0,132.2,,157.2,18,149.1,,0.02,0.05,0.99,-3.1,0.1,-0.2,440,0,1,0,0.0,0,38.159184,-122.454391,0.0,0.013,48.6,9,3,1.7,0,0.0,-1,0.0,0.0,0.0,0
529273,1480810205975,,,,,,,,0.02,0.05,0.99,-3.1,0.1,-0.2,440,0,,,,,,,,,,,,,,,,,,,
529293,1480810206004,,,,,,,,0.02,0.05,0.99,-3.1,0.1,-0.1,440,0,,,,,,,,,,,,,,,,,,,
529313,1480810206024,,,,,,,,0.02,0.05,0.99,-3.1,0.1,-0.1,440,0,,,,,,,,,,,,,,,,,,,
529333,1480810206044,,,,,,,,0.02,0.05,0.99,-3.1,0.1,-0.1,440,0,,,,,,,,,,,,,,,,,,,
529353,1480810206064,,,,,17,,,0.02,0.05,0.99,-3.1,0.1,-0.1,420,0,1,0,0.0,0,38.159184,-122.454391,0.0,0.013,48.6,9,3,1.7,0,0.0,-1,0.0,,0.0,0
529373,1480810206084,,,,,,,,0.02,0.05,0.99,-3.1,0.1,-0.2,420,0,,,,,,,,,,,,,,,,,,,
529393,1480810206200,,,,,,,,0.02,0.05,0.99,-3.1,0.1,-0.2,460,0,,,,,,,,,,,,,,,,,,,
529413,1480810206220,,,,,,,,0.02,0.06,0.99,-3.1,0.1,-0.1,460,0,,,,,,,,,,,,,,,,,,,
529433,1480810206240,,,,,,,,0.02,0.06,0.99,-3.1,0.1,-0.1,460,0,,,,,,,,,,,,,,,,,,,
529453,1480810206260,0,133.1,,157.7,17,149.0,,0.02,0.06,0.99,-3.1,0.1,-0.1,460,0,1,1,0.0,0,38.159184,-122.454391,0.0,0.013,48.6,9,3,1.7,0,0.0,-1,0.0,0.0,0.0,0
529473,1480810206280,,,,,,,,0.02,0.06,0.99,-3.1,0.1,0.0,500,0,,,,,,,,,,,,,,,,,,,
529493,1480810206300,,,,,,,,0.01,0.05,0.99,-3.0,0.0,-0.2,500,0,,,,,,,,,,,,,,,,,,,
529513,1480810206320,,,,,,,,0.02,0.05,0.98,-3.0,0.1,-0.1,620,0,,,,,,,,,,,,,,,,,,,
529533,1480810206340,,,,,,,,0.02,0.07,0.98,-3.1,0.0,-0.1,720,0,,,,,,,,,,,,,,,,,,,
529553,1480810206360,,,,,19,,,0.01,0.05,0.99,-3.0,0.0,-0.2,780,0,1,0,0.0,0,38.159184,-122.454391,0.0,0.013,48.6,9,3,1.7,0,0.0,-1,0.0,,0.0,0
529573,1480810206380,,,,,,,,0.01,0.04,0.99,-3.0,0.1,-0.3,780,0,,,,,,,,,,,,,,,,,,,
529593,1480810206305,,,,,,,,0.01,0.03,0.98,-3.0,0.0,-0.4,820,0,,,,,,,,,,,,,,,,,,,
529613,1480810206325,,,,,,,,0.01,0.03,0.99,-3.0,0.2,-0.3,820,0,,,,,,,,,,,,,,,,,,,
529633,1480810206345,,,,,,,,0.01,0.05,0.99,-3.1,0.2,-0.1,860,0,,,,,,,,,,,,,,,,,,,
529653,1480810206365,0,133.6,,158.5,24,149.2,,0.01,0.05,1.0,-3.1,-0.1,0.0,920,0,1,0,0.0,0,38.159184,-122.454391,0.0,0.013,48.6,9,3,1.7,0,0.0,-1,0.0,0.0,0.0,0
529673,1480810206385,,,,,,,,0.01,0.05,1.0,-3.1,0.2,0.0,940,0,,,,,,,,,,,,,,,,,,,
529693,1480810206405,,,,,,,,0.01,0.06,1.0,-3.1,0.3,0.0,980,0,,,,,,,,,,,,,,,,,,,
529713,1480810206425,,,,,,,,0.0,0.06,1.01,-3.0,0.2,-0.2,1020,0,,,,,,,,,,,,,,,,,,,
529733,1480810206445,,,,,,,,0.01,0.06,1.01,-3.0,0.3,-0.3,1080,0,,,,,,,,,,,,,,,,,,,
529753,1480810206465,,,,,29,,,0.01,0.05,1.01,-3.0,0.2,-0.3,1140,0,1,0,0.0,0,38.159184,-122.454391,0.0,0.013,48.6,9,3,1.7,0,0.0,-1,0.0,,0.0,0
529773,1480810206485,,,,,,,,0.01,0.06,1.01,-3.0,0.2,-0.2,1220,0,,,,,,,,,,,,,,,,,,,
529793,1480810206504,,,,,,,,0.01,0.04,1.01,-3.0,0.3,-0.2,1300,0,,,,,,,,,,,,,,,,,,,
529813,1480810206524,,,,,,,,0.01,0.05,1.0,-3.0,0.0,-0.2,1340,0,,,,,,,,,,,,,,,,,,,
529833,1480810206544,,,,,,,,0.02,0.05,1.0,-3.1,-0.2,-0.1,1460,0,,,,,,,,,,,,,,,,,,,
529853,1480810206564,0,132.3,,157.7,40,149.8,,0.03,0.04,1.0,-3.0,0.4,-0.2,1500,0,1,1,0.0,0,38.159184,-122.454391,0.0,0.013,48.6,9,3,1.7,0,0.0,-1,0.0,0.0,0.0,0
529873,1480810206584,,,,,,,,0.01,0.05,1.01,-3.0,0.5,-0.1,1620,0,,,,,,,,,,,,,,,,,,,
529893,1480810206605,,,,,,,,0.02,0.06,1.01,-2.9,0.5,-0.1,1720,0,,,,,,,,,,,,,,,,,,,
529913,1480810206625,,,,,,,,0.03,0.05,1.0,-2.8,0.5,-0.3,1760,0,,,,,,,,,,,,,,,,,,,
529933,1480810206645,,,,,,,,0.02,0.03,1.01,-2.9,0.5,-0.3,1860,0,,,,,,,,,,,,,,,,,,,
529953,1480810206665,,,,,51,,,0.02,0.06,1.02,-3.0,0.4,-0.2,1960,0,1,0,0.0,0,38.159184,-122.454391,0.0,0.013,48.6,9,3,1.7,0,0.0,-1,0.0,,0.0,0
529973,1480810206685,,,,,,,,0.02,0.08,1.01,-3.0,0.3,-0.2,2060,0,,,,,,,,,,,,,,,,,,,
529993,1480810206705,,,,,,,,0.02,0.08,1.01,-3.0,0.5,-0.2,2160,0,,,,,,,,,,,,,,,,,,,
530013,1480810206725,,,,,,,,0.01,0.07,1.02,-3.0,0.5,-0.2,2340,0,,,,,,,,,,,,,,,,,,,
530033,1480810206745,,,,,,,,0.01,0.06,1.02,-3.0,0.2,-0.2,2340,0,,,,,,,,,,,,,,,,,,,
530053,1480810206765,0,132.3,0.0,157.2,52,148.9,14.61,0.02,0.07,1.04,-3.0,0.1,-0.1,2480,0,1,0,0.0,0,38.159184,-122.454391,0.0,0.013,48.6,9,3,1.7,0,0.0,-1,0.0,0.0,0.0,0
530073,1480810206785,,,,,,,,0.03,0.07,1.05,-3.1,0.2,-0.1,2620,0,,,,,,,,,,,,,,,,,,,
530093,1480810206805,,,,,,,,0.02,0.07,1.06,-3.1,-0.0,-0.1,2680,0,,,,,,,,,,,,,,,,,,,
530113,1480810206825,,,,,,,,0.01,0.03,1.05,-3.1,0.1,-0.1,2680,0,,,,,,,,,,,,,,,,,,,
530133,1480810206845,,,,,,,,0.01,0.04,1.04,-2.9,0.4,-0.2,2760,0,,,,,,,,,,,,,,,,,,,
530153,1480810206865,,,,,55,,,0.01,0.07,0.99,-3.0,0.3,-0.2,2920,0,1,0,0.0,0,38.159184,-122.454391,0.0,0.013,48.6,9,3,1.7,0,0.0,-1,0.0,,0.0,0
530173,1480810206885,,,,,,,,-0.01,0.07,0.98,-3.2,-0.2,-0.2,2980,0,,,,,,,,,,,,,,,,,,,
530193,1480810206996,,,,,,,,-0.01,0.07,0.95,-3.3,-0.8,-0.2,3100,0,,,,,,,,,,,,,,,,,,,
530213,1480810207016,,,,,,,,-0.02,0.05,0.91,-3.6,-1.1,-0.1,3200,0,,,,,,,,,,,,,,,,,,,
530233,1480810207036,,,,,,,,-0.03,0.07,0.91,-3.7,-1.3,-0.1,3140,0,,,,,,,,,,,,,,,,,,,
530253,1480810207056,0,132.4,,158.0,63,149.4,,-0.04,0.08,0.91,-3.8,-1.1,-0.1,3300,0,1,0,0.0,0,38.159184,-122.454391,0.0,0.013,48.6,9,3,1.7,0,0.0,-1,0.0,0.0,0.0,0
530273,1480810207076,,,,,,,,-0.02,0.04,0.95,-3.6,-1.0,-0.1,3380,0,,,,,,,,,,,,,,,,,,,
530293,1480810207096,,,,,,,,-0.01,0.04,0.96,-3.5,-0.7,-0.1,3360,0,,,,,,,,,,,,,,,,,,,
530313,1480810207116,,,,,,,,-0.0,0.11,0.95,-3.6,-0.5,0.0,3440,0,,,,,,,,,,,,,,,,,,,
530333,1480810207136,,,,,,,,0.01,0.08,0.99,-3.6,-0.4,0.0,3520,0,,,,,,,,,,,,,,,,,,,
530353,1480810207156,,,,,59,,,-0.01,0.07,0.93,-3.6,-0.3,0.1,3500,0,1,0,0.0,0,38.159184,-122.454391,0.0,0.013,48.6,9,3,1.7,0,0.0,-1,0.0,,0.0,0
530373,1480810207176,,,,,,,,-0.01,0.03,0.95,-3.6,-0.4,-0.1,3580,0,,,,,,,,,,,,,,,,,,,
530393,1480810207105,,,,,,,,-0.0,0.07,0.94,-3.5,-0.7,-0.1,3600,0,,,,,,,,,,,,,,,,,,,
530413,1480810207125,,,,,,,,0.01,0.04,0.95,-3.5,-0.7,-0.1,3720,0,,,,,,,,,,,,,,,,,,,
530433,1480810207145,,,,,,,,0.02,0.06,1.01,-3.6,-0.3,0.0,3640,0,,,,,,,,,,,,,,,,,,,
530453,1480810207165,0,133.6,,158.5,68,150.4,,0.0,0.06,0.97,-3.5,-0.2,0.0,3700,0,1,0,0.0,0,38.159184,-122.454391,0.0,0.013,48.6,9,3,1.7,0,0.0,-1,0.0,0.0,0.0,0
530473,1480810207185,,,,,,,,-0.01,0.02,0.98,-3.4,-0.1,-0.2,3780,0,,,,,,,,,,,,,,,,,,,
530493,1480810207204,,,,,,,,0.01,0.06,1.01,-3.5,-0.5,-0.2,3760,0,,,,,,,,,,,,,,,,,,,
530513,1480810207224,,,,,,,,0.04,0.12,1.0,-3.6,-0.4,0.1,3800,0,,,,,,,,,,,,,,,,,,,
530533,1480810207244,,,,,,,,0.03,0.11,1.0,-3.5,-0.1,-0.0,3740,0,,,,,,,,,,,,,,,,,,,
530553,1480810207264,,,,,60,,,-0.0,0.07,1.0,-3.3,0.1,-0.3,3800,0,1,0,0.0,0,38.159184,-122.454391,0.0,0.013,48.6,9,3,1.7,0,0.0,-1,0.0,,0.0,0
530573,1480810207284,,,,,,,,0.01,0.03,1.04,-3.2,-0.2,-0.2,3840,0,,,,,,,,,,,,,,,,,,,
530593,1480810207304,,,,,,,,0.02,0.01,1.07,-3.2,-0.1,-0.1,3860,0,,,,,,,,,,,,,,,,,,,
530613,1480810207324,,,,,,,,0.01,0.03,1.1,-3.3,-0.5,-0.3,3760,0,,,,,,,,,,,,,,,,,,,
530633,1480810207344,,,,,,,,0.01,0.11,1.05,-3.3,-0.8,-0.3,3840,0,,,,,,,,,,,,,,,,,,,
530653,1480810207364,0,134.0,,158.7,65,149.7,,0.02,0.1,0.97,-3.2,-0.4,-0.0,3820,0,1,0,0.0,0,38.159184,-122.454391,0.0,0.013,48.6,9,3,1.7,0,0.0,-1,0.0,0.0,0.0,0
530673,1480810207384,,,,,,,,0.0,0.02,0.94,-3.1,0.3,-0.1,3740,0,,,,,,,,,,,,,,,,,,,
530693,1480810207404,,,,,,,,-0.01,-0.01,0.96,-3.0,0.3,-0.3,3740,0,,,,,,,,,,,,,,,,,,,
530713,1480810207424,,,,,,,,0.0,0.07,0.94,-3.2,-0.2,-0.2,3720,0,,,,,,,,,,,,,,,,,,,
530733,1480810207444,,,,,,,,0.01,0.06,0.91,-3.2,-0.1,-0.0,3620,0,,,,,,,,,,,,,,,,,,,
530753,1480810207464,,,,,73,,,0.02,0.04,0.96,-3.3,0.2,-0.1,3580,0,1,0,0.0,0,38.159184,-122.454391,0.0,0.013,48.6,9,3,1.7,0,0.0,-1,0.0,,0.0,0
530773,1480810207484,,,,,,,,0.01,0.06,0.94,-3.4,-0.3,-0.2,3580,0,,,,,,,,,,,,,,,,,,,
530793,1480810207504,,,,,,,,0.01,0.04,0.97,-3.1,-0.4,-0.3,3520,0,,,,,,,,,,,,,,,,,,,
530813,1480810207524,,,,,,,,0.0,0.09,0.93,-3.2,-0.4,-0.3,3440,0,,,,,,,,,,,,,,,,,,,
530833,1480810207544,,,,,,,,0.01,0.06,0.96,-3.2,-0.2,-0.2,3460,0,,,,,,,,,,,,,,,,,,,
530853,1480810207564,0,133.6,,157.8,53,148.6,,0.03,0.11,0.94,-3.3,0.0,-0.1,3360,0,1,0,0.0,0,38.159184,-122.454391,0.0,0.013,48.6,9,3,1.7,0,0.0,-1,0.0,0.0,0.0,0
530873,1480810207584,,,,,,,,0.02,0.06,0.97,-3.2,0.3,-0.0,3380,0,,,,,,,,,,,,,,,,,,,
530893,1480810207604,,,,,,,,0.0,0.07,0.96,-3.3,-0.1,-0.1,3240,0,,,,,,,,,,,,,,,,,,,
530913,1480810207624,,,,,,,,0.01,0.08,0.95,-3.1,-0.3,-0.2,3260,0,,,,,,,,,,,,,,,,,,,
530933,1480810207644,,,,,,,,0.01,0.07,0.95,-3.1,-0.2,-0.1,3200,0,,,,,,,,,,,,,,,,,,,
530953,1480810207664,,,,,64,,,0.02,0.05,0.97,-3.1,-0.2,-0.1,3080,0,1,0,0.0,0,38.159184,-122.454391,0.0,0.013,48.6,9,3,1.7,0,0.0,-1,0.0,,0.0,0
530973,1480810207684,,,,,,,,0.02,0.05,0.97,-3.1,-0.2,-0.2,3160,0,,,,,,,,,,,,,,,,,,,
530993,1480810207804,,,,,,,,0.01,0.05,0.97,-3.1,-0.2,-0.3,2980,0,,,,,,,,,,,,,,,,,,,
531013,1480810207824,,,,,,,,0.0,0.08,0.95,-3.1,-0.3,-0.3,3040,0,,,,,,,,,,,,,,,,,,,
531033,1480810207844,,,,,,,,-0.01,0.1,0.95,-3.3,-0.3,-0.4,2920,0,,,,,,,,,,,,,,,,,,,
531053,1480810207864,0,133.8,0.0,158.1,60,148.9,14.69,-0.01,0.11,0.94,-3.2,-0.2,-0.5,2980,0,1,0,0.0,0,38.159184,-122.454391,0.0,0.013,48.6,9,3,1.7,0,0.0,-1,0.0,0.0,0.0,0
531073,1480810207884,,,,,,,,-0.02,0.1,0.93,-3.3,-0.2,-0.5,2860,0,,,,,,,,,,,,,,,,,,,
531093,1480810207904,,,,,,,,-0.01,0.09,0.93,-3.4,-0.4,-0.5,2800,0,,,,,,,,,,,,,,,,,,,
531113,1480810207924,,,,,,,,-0.02,0.07,0.93,-3.5,-0.7,-0.5,2760,0,,,,,,,,,,,,,,,,,,,
531133,1480810207944,,,,,,,,-0.01,0.05,0.93,-3.5,-0.6,-0.5,2800,0,,,,,,,,,,,,,,,,,,,
531153,1480810207964,,,,,62,,,-0.01,0.04,0.95,-3.4,-0.2,-0.5,2640,0,1,0,0.0,0,38.159184,-122.454391,0.0,0.013,48.6,9,3,1.7,0,0.0,-1,0.0,,0.0,0
531173,1480810207984,,,,,,,,-0.0,0.06,0.94,-3.3,-0.1,-0.4,2660,0,,,,,,,,,,,,,,,,,,,
531193,1480810207896,,,,,,,,0.0,0.06,0.94,-3.3,-0.6,-0.3,2660,0,,,,,,,,,,,,,,,,,,,
531213,1480810207916,,,,,,,,0.01,0.05,0.95,-3.3,-0.2,-0.3,2540,0,,,,,,,,,,,,,,,,,,,
531233,1480810207936,,,,,,,,0.01,0.06,0.95,-3.2,-0.1,-0.2,2560,0,,,,,,,,,,,,,,,,,,,
531253,1480810207956,1,132.6,,158.0,58,149.9,,0.01,0.06,0.96,-3.3,-0.2,-0.2,2500,0,1,0,0.0,0,38.159184,-122.454391,0.0,0.013,48.6,9,3,1.7,0,0.0,-1,0.0,0.0,0.0,0
531273,1480810207976,,,,,,,,0.01,0.06,0.96,-3.2,-0.0,-0.3,2400,0,,,,,,,,,,,,,,,,,,,
531293,1480810208004,,,,,,,,0.0,0.06,0.96,-3.1,-0.0,-0.3,2400,0,,,,,,,,,,,,,,,,,,,
531313,1480810208024,,,,,,,,0.01,0.04,0.96,-3.1,0.0,-0.3,2340,0,,,,,,,,,,,,,,,,,,,
531333,1480810208044,,,,,,,,0.02,0.05,0.97,-3.1,0.1,-0.3,2320,0,,,,,,,,,,,,,,,,,,,
531353,1480810208064,,,,,59,,,0.01,0.05,0.97,-3.1,-0.1,-0.3,2300,0,1,0,0.0,0,38.159184,-122.454391,0.0,0.013,48.6,9,3,1.7,0,0.0,-1,0.0,,0.0,0
531373,1480810208084,,,,,,,,0.01,0.06,0.97,-3.1,-0.1,-0.3,2220,0,,,,,,,,,,,,,,,,,,,
531393,1480810208104,,,,,,,,0.02,0.06,0.97,-3.2,0.1,-0.3,2180,0,,,,,,,,,,,,,,,,,,,
531413,1480810208124,,,,,,,,0.02,0.06,0.98,-3.2,0.0,-0.3,2140,0,,,,,,,,,,,,,,,,,,,
531433,1480810208144,,,,,,,,0.02,0.07,0.97,-3.2,-0.2,-0.3,2080,0,,,,,,,,,,,,,,,,,,,
531453,1480810208164,0,134.2,,159.2,60,150.2,,0.02,0.07,0.97,-3.2,-0.2,-0.3,2040,0,1,0,0.0,0,38.159184,-122.454391,0.0,0.013,48.6,9,3,1.7,0,0.0,-1,0.0,0.0,0.0,0
531473,1480810208184,,,,,,,,0.02,0.07,0.97,-3.1,0.0,-0.3,2020,0,,,,,,,,,,,,,,,,,,,
531493,1480810208205,,,,,,,,0.02,0.07,0.97,-3.1,0.2,-0.3,2000,0,,,,,,,,,,,,,,,,,,,
531513,1480810208225,,,,,,,,0.02,0.07,0.98,-3.1,0.4,-0.4,1920,0,,,,,,,,,,,,,,,,,,,
531533,1480810208245,,,,,,,,0.02,0.07,0.99,-3.1,0.6,-0.4,1880,0,,,,,,,,,,,,,,,,,,,
531553,1480810208265,,,,,55,,,0.02,0.07,0.98,-3.0,0.7,-0.5,1840,0,1,1,0.0,0,38.159184,-122.454391,0.0,0.013,48.6,9,3,1.7,0,0.0,-1,0.0,,0.0,0
531573,1480810208285,,,,,,,,0.03,0.07,0.97,-3.0,0.6,-0.5,1820,0,,,,,,,,,,,,,,,,,,,
531593,1480810208304,,,,,,,,0.03,0.06,0.97,-3.0,0.4,-0.5,1800,0,,,,,,,,,,,,,,,,,,,
531613,1480810208324,,,,,,,,0.03,0.06,0.97,-3.0,0.2,-0.4,1740,0,,,,,,,,,,,,,,,,,,,
531633,1480810208344,,,,,,,,0.02,0.06,0.98,-3.0,0.3,-0.4,1700,0,,,,,,,,,,,,,,,,,,,
531653,1480810208364,0,133.1,,158.7,55,150.2,,0.02,0.06,0.97,-3.0,0.5,-0.4,1660,0,1,0,0.0,0,38.159184,-122.454391,0.0,0.013,48.6,9,3,1.7,0,0.0,-1,0.0,0.0,0.0,0
531673,1480810208384,,,,,,,,0.03,0.06,0.98,-3.0,0.5,-0.3,1620,0,,,,,,,,,,,,,,,,,,,
531693,1480810208404,,,,,,,,0.02,0.07,0.98,-3.0,0.2,-0.3,1580,0,,,,,,,,,,,,,,,,,,,
531713,1480810208424,,,,,,,,0.03,0.06,0.98,-3.0,0.3,-0.3,1560,0,,,,,,,,,,,,,,,,,,,
531733,1480810208444,,,,,,,,0.02,0.06,0.98,-3.0,0.2,-0.3,1500,0,,,,,,,,,,,,,,,,,,,
531753,1480810208464,,,,,52,,,0.02,0.06,0.99,-3.0,0.2,-0.3,1480,0,1,0,0.0,0,38.159184,-122.454391,0.0,0.013,48.6,9,3,1.7,0,0.0,-1,0.0,,0.0,0
531773,1480810208484,,,,,,,,0.02,0.06,0.98,-3.0,0.4,-0.3,1440,0,,,,,,,,,,,,,,,,,,,
531793,1480810208604,,,,,,,,0.02,0.07,0.99,-3.0,0.3,-0.2,1420,0,,,,,,,,,,,,,,,,,,,
531813,1480810208624,,,,,,,,0.02,0.07,0.99,-3.0,0.3,-0.3,1340,0,,,,,,,,,,,,,,,,,,,
531833,1480810208644,,,,,,,,0.02,0.07,0.98,-3.0,0.3,-0.2,1320,0,,,,,,,,,,,,,,,,,,,
531853,1480810208664,0,134.6,,159.5,51,150.7,,0.02,0.06,0.99,-3.0,0.1,-0.2,1300,0,1,0,0.0,0,38.159184,-122.454391,0.0,0.013,48.6,9,3,1.7,0,0.0,-1,0.0,0.0,0.0,0
531873,1480810208684,,,,,,,,0.02,0.06,0.98,-3.0,0.2,-0.2,1260,0,,,,,,,,,,,,,,,,,,,
531893,1480810208704,,,,,,,,0.02,0.06,0.98,-3.0,0.1,-0.2,1200,0,,,,,,,,,,,,,,,,,,,
531913,1480810208724,,,,,,,,0.03,0.05,0.99,-3.0,0.1,-0.2,1160,0,,,,,,,,,,,,,,,,,,,
531933,1480810208744,,,,,,,,0.02,0.06,0.99,-3.0,0.2,-0.2,1140,0,,,,,,,,,,,,,,,,,,,
531953,1480810208764,,,,,46,,,0.02,0.05,0.99,-3.0,0.2,-0.2,1100,0,1,1,0.0,0,38.159184,-122.454391,0.0,0.013,48.6,9,3,1.7,0,0.0,-1,0.0,,0.0,0
531973,1480810208784,,,,,,,,0.03,0.06,0.99,-3.0,0.1,-0.2,1060,0,,,,,,,,,,,,,,,,,,,
531993,1480810208704,,,,,,,,0.03,0.06,0.98,-3.0,0.2,-0.2,1040,0,,,,,,,,,,,,,,,,,,,
532013,1480810208724,,,,,,,,0.02,0.05,0.98,-3.1,0.2,-0.2,1000,0,,,,,,,,,,,,,,,,,,,
532033,1480810208744,,,,,,,,0.02,0.05,0.98,-3.1,0.1,-0.2,960,0,,,,,,,,,,,,,,,,,,,
532053,1480810208764,0,133.1,0.0,157.5,41,149.3,14.59,0.02,0.06,0.98,-3.1,0.1,-0.1,920,0,1,0,0.0,0,38.159184,-122.454391,0.0,0.013,48.6,9,3,1.7,0,0.0,-1,0.0,0.0,0.0,0
532073,1480810208784,,,,,,,,0.02,0.05,0.98,-3.1,0.1,-0.1,860,0,,,,,,,,,,,,,,,,,,,
532093,1480810208804,,,,,,,,0.02,0.05,0.99,-3.1,0.2,-0.1,840,0,,,,,,,,,,,,,,,,,,,
532113,1480810208824,,,,,,,,0.02,0.06,0.98,-3.1,0.1,-0.1,840,0,,,,,,,,,,,,,,,,,,,
532133,1480810208844,,,,,,,,0.02,0.05,0.98,-3.1,0.1,-0.2,780,0,,,,,,,,,,,,,,,,,,,
532153,1480810208864,,,,,34,,,0.02,0.05,0.98,-3.1,0.1,-0.1,740,0,1,0,0.0,0,38.159184,-122.454391,0.0,0.013,48.6,9,3,1.7,0,0.0,-1,0.0,,0.0,0
532173,1480810208884,,,,,,,,0.02,0.05,0.98,-3.1,0.1,-0.2,680,0,,,,,,,,,,,,,,,,,,,
532193,1480810208896,,,,,,,,0.02,0.05,0.98,-3.1,0.1,-0.2,680,0,,,,,,,,,,,,,,,,,,,
532213,1480810208916,,,,,,,,0.02,0.05,0.98,-3.1,0.1,-0.1,640,0,,,,,,,,,,,,,,,,,,,
532233,1480810208936,,,,,,,,0.02,0.05,0.98,-3.1,0.1,-0.2,640,0,,,,,,,,,,,,,,,,,,,
532253,1480810208956,0,133.5,,157.5,29,149.1,,0.02,0.05,0.98,-3.1,0.1,-0.2,600,0,1,0,0.0,0,38.159184,-122.454391,0.0,0.013,48.6,9,3,1.7,0,0.0,-1,0.0,0.0,0.0,0
532273,1480810208976,,,,,,,,0.02,0.05,0.99,-3.1,0.1,-0.2,560,0,,,,,,,,,,,,,,,,,,,
532293,1480810209004,,,,,,,,0.02,0.05,0.98,-3.1,0.1,-0.2,560,0,,,,,,,,,,,,,,,,,,,
532313,1480810209024,,,,,,,,0.02,0.05,0.99,-3.1,0.2,-0.2,520,0,,,,,,,,,,,,,,,,,,,
532333,1480810209044,,,,,,,,0.02,0.05,0.98,-3.1,0.1,-0.2,520,0,,,,,,,,,,,,,,,,,,,
532353,1480810209064,,,,,24,,,0.02,0.05,0.99,-3.1,0.1,-0.2,520,0,1,0,0.0,0,38.159184,-122.454391,0.0,0.013,48.6,9,3,1.7,0,0.0,-1,0.0,,0.0,0
532373,1480810209084,,,,,,,,0.02,0.05,0.98,-3.1,0.1,-0.2,520,0,,,,,,,,,,,,,,,,,,,
532393,1480810209104,,,,,,,,0.02,0.05,0.98,-3.1,0.1,-0.2,500,0,,,,,,,,,,,,,,,,,,,
532413,1480810209124,,,,,,,,0.02,0.05,0.98,-3.1,0.0,-0.2,500,0,,,,,,,,,,,,,,,,,,,
532433,1480810209144,,,,,,,,0.02,0.05,0.98,-3.1,0.1,-0.2,480,0,,,,,,,,,,,,,,,,,,,
532453,1480810209164,0,134.5,,158.8,22,150.0,,0.02,0.05,0.98,-3.1,0.1,-0.2,480,0,1,0,0.0,0,38.159184,-122.454391,0.0,0.013,48.6,9,3,1.7,0,0.0,-1,0.0,0.0,0.0,0
532473,1480810209184,,,,,,,,0.02,0.05,0.98,-3.1,0.1,-0.2,460,0,,,,,,,,,,,,,,,,,,,
532493,1480810209204,,,,,,,,0.02,0.05,0.98,-3.1,0.1,-0.2,460,0,,,,,,,,,,,,,,,,,,,
532513,1480810209224,,,,,,,,0.02,0.05,0.98,-3.1,0.1,-0.2,460,0,,,,,,,,,,,,,,,,,,,
532533,1480810209244,,,,,,,,0.02,0.05,0.98,-3.1,0.0,-0.1,460,0,,,,,,,,,,,,,,,,,,,
532553,1480810209264,,,,,18,,,0.02,0.05,0.98,-3.1,0.1,-0.1,460,0,1,1,0.0,0,38.159184,-122.454391,0.0,0.013,48.6,9,3,1.7,0,0.0,-1,0.0,,0.0,0
532573,1480810209284,,,,,,,,0.02,0.06,0.98,-3.1,0.1,-0.0,440,0,,,,,,,,,,,,,,,,,,,
532593,1480810209404,,,,,,,,0.02,0.06,0.99,-3.1,0.1,-0.1,440,0,,,,,,,,,,,,,,,,,,,
532613,1480810209424,,,,,,,,0.02,0.06,0.99,-3.1,0.1,-0.1,440,0,,,,,,,,,,,,,,,,,,,
532633,1480810209444,,,,,,,,0.02,0.06,0.99,-3.0,0.0,-0.2,440,0,,,,,,,,,,,,,,,,,,,
532653,1480810209464,0,133.9,,157.6,18,149.1,,0.02,0.05,0.99,-3.0,0.1,-0.2,420,0,1,0,0.0,0,38.159184,-122.454391,0.0,0.013,48.6,9,3,1.7,0,0.0,-1,0.0,0.0,0.0,0
532673,1480810209484,,,,,,,,0.02,0.05,0.99,-3.0,0.2,-0.2,420,0,,,,,,,,,,,,,,,,,,,
532693,1480810209504,,,,,,,,0.02,0.05,0.99,-3.0,0.1,-0.2,420,0,,,,,,,,,,,,,,,,,,,
532713,1480810209524,,,,,,,,0.02,0.06,0.99,-3.1,0.1,-0.1,420,0,,,,,,,,,,,,,,,,,,,
532733,1480810209544,,,,,,,,0.02,0.06,0.99,-3.1,0.1,-0.1,420,0,,,,,,,,,,,,,,,,,,,
532753,1480810209564,,,,,17,,,0.02,0.06,0.99,-3.1,0.1,-0.2,420,0,1,0,0.0,0,38.159184,-122.454391,0.0,0.013,48.6,9,3,1.7,0,0.0,-1,0.0,,0.0,0
532773,1480810209584,,,,,,,,0.02,0.05,0.99,-3.0,0.1,-0.2,420,0,,,,,,,,,,,,,,,,,,,
532793,1480810209504,,,,,,,,0.02,0.06,0.99,-3.0,0.0,-0.2,420,0,,,,,,,,,,,,,,,,,,,
532813,1480810209524,,,,,,,,0.02,0.05,0.99,-3.0,0.1,-0.2,420,0,,,,,,,,,,,,,,,,,,,
532833,1480810209544,,,,,,,,0.02,0.05,0.99,-3.0,0.1,-0.2,440,0,,,,,,,,,,,,,,,,,,,
532853,1480810209564,0,134.5,,158.4,16,148.9,,0.02,0.05,0.99,-3.0,0.0,-0.2,440,0,1,0,0.0,0,38.159184,-122.454391,0.0,0.013,48.6,9,3,1.7,0,0.0,-1,0.0,0.0,0.0,0
532873,1480810209584,,,,,,,,0.02,0.05,0.99,-3.0,0.1,-0.2,440,0,,,,,,,,,,,,,,,,,,,
532893,1480810209604,,,,,,,,0.02,0.06,0.99,-3.1,0.1,-0.2,420,0,,,,,,,,,,,,,,,,,,,
532913,1480810209624,,,,,,,,0.02,0.05,0.99,-3.0,0.1,-0.2,420,0,,,,,,,,,,,,,,,,,,,
532933,1480810209644,,,,,,,,0.02,0.06,0.99,-3.0,0.1,-0.1,440,0,,,,,,,,,,,,,,,,,,,
532953,1480810209664,,,,,15,,,0.02,0.05,0.99,-3.1,0.1,-0.1,440,0,1,0,0.0,0,38.159184,-122.454391,0.0,0.013,48.6,9,3,1.7,0,0.0,-1,0.0,,0.0,0
532973,1480810209684,,,,,,,,0.02,0.06,0.98,-3.1,0.0,-0.1,420,0,,,,,,,,,,,,,,,,,,,
532993,1480810209704,,,,,,,,0.02,0.05,0.98,-3.1,0.1,-0.1,420,0,,,,,,,,,,,,,,,,,,,
533013,1480810209724,,,,,,,,0.02,0.05,0.98,-3.1,0.1,-0.1,420,0,,,,,,,,,,,,,,,,,,,
533033,1480810209744,,,,,,,,0.01,0.05,0.98,-3.1,0.1,-0.2,420,0,,,,,,,,,,,,,,,,,,,
533053,1480810209764,0,134.5,0.0,158.6,16,150.0,13.43,0.01,0.05,0.98,-3.0,0.1,-0.2,420,0,1,0,0.0,0,38.159184,-122.454391,0.0,0.013,48.6,9,3,1.7,0,0.0,-1,0.0,0.0,0.0,0
533073,1480810209784,,,,,,,,0.01,0.05,0.98,-3.1,0.1,-0.2,440,0,,,,,,,,,,,,,,,,,,,
533093,1480810209804,,,,,,,,0.01,0.05,0.98,-3.1,0.1,-0.2,440,0,,,,,,,,,,,,,,,,,,,
533113,1480810209824,,,,,,,,0.01,0.05,0.98,-3.1,0.1,-0.2,440,0,,,,,,,,,,,,,,,,,,,
533133,1480810209844,,,,,,,,0.01,0.05,0.99,-3.1,0.1,-0.2,440,0,,,,,,,,,,,,,,,,,,,
533153,1480810209864,,,,,15,,,0.01,0.05,0.99,-3.1,0.1,-0.2,440,0,1,1,0.0,0,38.159184,-122.454391,0.0,0.013,48.6,9,3,1.7,0,0.0,-1,0.0,,0.0,0
533173,1480810209884,,,,,,,,0.02,0.05,0.99,-3.1,0.0,-0.2,440,0,,,,,,,,,,,,,,,,,,,
533193,1480810209896,,,,,,,,0.01,0.05,0.99,-3.1,0.1,-0.2,440,0,,,,,,,,,,,,,,,,,,,
533213,1480810209916,,,,,,,,0.01,0.05,0.99,-3.1,0.1,-0.2,440,0,,,,,,,,,,,,,,,,,,,
533233,1480810209936,,,,,,,,0.01,0.05,0.98,-3.1,0.0,-0.2,440,0,,,,,,,,,,,,,,,,,,,
533253,1480810209956,0,134.1,,157.7,14,149.1,,0.02,0.06,0.98,-3.1,0.0,-0.1,420,0,1,0,0.0,0,38.159184,-122.454391,0.0,0.013,48.6,9,3,1.7,0,0.0,-1,0.0,0.0,0.0,0
533273,1480810209976,,,,,,,,0.02,0.05,0.98,-3.1,0.0,-0.2,420,0,,,,,,,,,,,,,,,,,,,
533293,1480810210004,,,,,,,,0.02,0.06,0.98,-3.1,0.0,-0.1,420,0,,,,,,,,,,,,,,,,,,,
533313,1480810210024,,,,,,,,0.02,0.05,0.98,-3.1,-0.0,-0.1,420,0,,,,,,,,,,,,,,,,,,,
533333,1480810210044,,,,,,,,0.02,0.05,0.98,-3.0,0.0,-0.1,420,0,,,,,,,,,,,,,,,,,,,
533353,1480810210064,,,,,14,,,0.02,0.06,0.98,-3.1,0.0,-0.1,420,0,1,0,0.0,0,38.159184,-122.454391,0.0,0.013,48.6,9,3,1.7,0,0.0,-1,0.0,,0.0,0
533373,1480810210084,,,,,,,,0.02,0.05,0.98,-3.1,0.0,-0.1,420,0,,,,,,,,,,,,,,,,,,,
533393,1480810210204,,,,,,,,0.02,0.06,0.98,-3.1,0.1,-0.1,420,0,,,,,,,,,,,,,,,,,,,
533413,1480810210224,,,,,,,,0.02,0.05,0.98,-3.0,0.0,-0.1,420,0,,,,,,,,,,,,,,,,,,,
533433,1480810210244,,,,,,,,0.02,0.06,0.98,-3.1,0.1,-0.1,440,0,,,,,,,,,,,,,,,,,,,
533453,1480810210264,0,134.6,,158.6,15,150.3,,0.02,0.05,0.99,-3.1,0.1,-0.2,440,0,1,0,0.0,0,38.159184,-122.454391,0.0,0.013,48.6,9,3,1.7,0,0.0,-1,0.0,0.0,0.0,0
533473,1480810210284,,,,,,,,0.02,0.06,0.99,-3.1,0.1,-0.2,420,0,,,,,,,,,,,,,,,,,,,
533493,1480810210304,,,,,,,,0.02,0.06,0.99,-3.1,0.1,-0.1,420,0,,,,,,,,,,,,,,,,,,,
533513,1480810210324,,,,,,,,0.02,0.05,0.98,-3.1,0.1,-0.1,420,0,,,,,,,,,,,,,,,,,,,
533533,1480810210344,,,,,,,,0.02,0.06,0.98,-3.1,0.1,-0.1,420,0,,,,,,,,,,,,,,,,,,,
533553,1480810210364,,,,,14,,,0.02,0.05,0.98,-3.1,0.1,-0.1,420,0,1,1,0.0,0,38.159184,-122.454391,0.0,0.013,48.6,9,3,1.7,0,0.0,-1,0.0,,0.0,0
533573,1480810210384,,,,,,,,0.02,0.06,0.98,-3.0,0.1,-0.1,420,0,,,,,,,,,,,,,,,,,,,
533593,1480810210304,,,,,,,,0.02,0.05,0.98,-3.0,0.1,-0.2,420,0,,,,,,,,,,,,,,,,,,,
533613,1480810210324,,,,,,,,0.02,0.05,0.98,-3.0,0.1,-0.1,420,0,,,,,,,,,,,,,,,,,,,
533633,1480810210344,,,,,,,,0.02,0.05,0.98,-3.1,0.1,-0.1,420,0,,,,,,,,,,,,,,,,,,,
533653,1480810210364,0,133.6,,157.4,14,149.4,,0.02,0.05,0.98,-3.0,0.1,-0.1,420,0,1,0,0.0,0,38.159184,-122.454391,0.0,0.013,48.6,9,3,1.7,0,0.0,-1,0.0,0.0,0.0,0
533673,1480810210384,,,,,,,,0.02,0.05,0.98,-3.1,0.1,-0.1,420,0,,,,,,,,,,,,,,,,,,,
533693,1480810210404,,,,,,,,0.02,0.05,0.98,-3.0,0.1,-0.2,420,0,,,,,,,,,,,,,,,,,,,
533713,1480810210424,,,,,,,,0.02,0.06,0.98,-3.1,0.1,-0.2,440,0,,,,,,,,,,,,,,,,,,,
533733,1480810210444,,,,,,,,0.02,0.05,0.98,-3.0,0.1,-0.2,440,0,,,,,,,,,,,,,,,,,,,
533753,1480810210464,,,,,14,,,0.02,0.05,0.98,-3.0,0.1,-0.2,420,0,1,0,0.0,0,38.159184,-122.454391,0.0,0.013,48.6,9,3,1.7,0,0.0,-1,0.0,,0.0,0
533773,1480810210484,,,,,,,,0.02,0.05,0.98,-3.1,0.1,-0.2,420,0,,,,,,,,,,,,,,,,,,,
533793,1480810210504,,,,,,,,0.02,0.05,0.98,-3.0,0.1,-0.2,420,0,,,,,,,,,,,,,,,,,,,
533813,1480810210524,,,,,,,,0.02,0.05,0.98,-3.1,0.1,-0.2,420,0,,,,,,,,,,,,,,,,,,,
533833,1480810210544,,,,,,,,0.02,0.05,0.98,-3.1,0.1,-0.2,420,0,,,,,,,,,,,,,,,,,,,
533853,1480810210564,0,134.5,,158.3,14,149.4,,0.02,0.05,0.98,-3.1,0.1,-0.2,420,0,1,0,0.0,0,38.159184,-122.454391,0.0,0.013,48.6,9,3,1.7,0,0.0,-1,0.0,0.0,0.0,0
533873,1480810210584,,,,,,,,0.02,0.05,0.98,-3.1,0.1,-0.2,420,0,,,,,,,,,,,,,,,,,,,
533893,1480810210604,,,,,,,,0.02,0.05,0.98,-3.1,0.1,-0.2,420,0,,,,,,,,,,,,,,,,,,,
533913,1480810210624,,,,,,,,0.02,0.05,0.98,-3.1,0.1,-0.2,420,0,,,,,,,,,,,,,,,,,,,
533933,1480810210644,,,,,,,,0.02,0.05,0.98,-3.1,0.1,-0.2,420,0,,,,,,,,,,,,,,,,,,,
533953,1480810210664,,,,,13,,,0.02,0.05,0.98,-3.1,0.1,-0.2,420,0,1,0,0.0,0,38.159184,-122.454391,0.0,0.013,48.6,9,3,1.7,0,0.0,-1,0.0,,0.0,0
533973,1480810210684,,,,,,,,0.02,0.05,0.99,-3.0,0.1,-0.2,420,0,,,,,,,,,,,,,,,,,,,
533993,1480810210704,,,,,,,,0.02,0.06,0.98,-3.1,0.1,-0.2,440,0,,,,,,,,,,,,,,,,,,,
534013,1480810210724,,,,,,,,0.02,0.05,0.98,-3.1,0.1,-0.2,440,0,,,,,,,,,,,,,,,,,,,
534033,1480810210744,,,,,,,,0.02,0.05,0.98,-3.1,0.1,-0.2,420,0,,,,,,,,,,,,,,,,,,,
534053,1480810210764,0,134.4,0.0,158.3,14,149.5,13.44,0.02,0.05,0.99,-3.1,0.1,-0.2,420,0,1,0,0.0,0,38.159184,-122.454391,0.0,0.013,48.6,9,3,1.7,0,0.0,-1,0.0,0.0,0.0,0
534073,1480810210784,,,,,,,,0.02,0.05,0.98,-3.1,0.1,-0.2,420,0,,,,,,,,,,,,,,,,,,,
534093,1480810210804,,,,,,,,0.02,0.05,0.99,-3.1,0.1,-0.2,420,0,,,,,,,,,,,,,,,,,,,
534113,1480810210824,,,,,,,,0.02,0.05,0.98,-3.1,0.1,-0.2,420,0,,,,,,,,,,,,,,,,,,,
534133,1480810210844,,,,,,,,0.02,0.05,0.98,-3.1,0.1,-0.2,420,0,,,,,,,,,,,,,,,,,,,
534153,1480810210864,,,,,14,,,0.02,0.05,0.98,-3.0,0.1,-0.2,420,0,1,0,0.0,0,38.159184,-122.454391,0.0,0.013,48.6,9,3,1.7,0,0.0,-1,0.0,,0.0,0
534173,1480810210884,,,,,,,,0.02,0.05,0.98,-3.1,0.1,-0.2,420,0,,,,,,,,,,,,,,,,,,,
534193,1480810210991,,,,,,,,0.02,0.05,0.98,-3.1,0.1,-0.2,420,0,,,,,,,,,,,,,,,,,,,
534213,1480810211011,,,,,,,,0.02,0.05,0.98,-3.1,0.1,-0.2,420,0,,,,,,,,,,,,,,,,,,,
534233,1480810211031,,,,,,,,0.02,0.05,0.98,-3.1,0.1,-0.2,420,0,,,,,,,,,,,,,,,,,,,
