"Interval"|"ms"|0|0|1,"Utc"|"ms"|0|0|1,"FuelLevel"|"F"|0|100|5,"OilTemp"|"F"|0.0|300.0|5,"CoolantPressPSI"|"PSI"|0.0|20.0|1,"Coolant"|"F"|0.0|300.0|5,"OilPress"|"PSI"|0|150|10,"EngineTemp"|"F"|0.0|300.0|5,"Battery"|"Volts"|0.0|20.0|1,"AccelX"|"G"|-3.0|3.0|50,"AccelY"|"G"|-3.0|3.0|50,"AccelZ"|"G"|-3.0|3.0|50,"Yaw"|"Deg/Sec"|-300.0|300.0|50,"Pitch"|"Deg/Sec"|-300.0|300.0|50,"Roll"|"Deg/Sec"|-300.0|300.0|50,"RPM"|""|0|10000|50,"Driveshaft"|"RPM"|0|5000|50,"GPIO1"|""|0|1|10,"GPIO2"|""|0|1|10,"GearRatio"|""|-5.0|5.0|10,"Gear"|""|-1|5|10,"Latitude"|"Degrees"|-180.0|180.0|10,"Longitude"|"Degrees"|-180.0|180.0|10,"Speed"|"MPH"|0.0|150.0|10,"Distance"|"Miles"|0.0|0.0|10,"Altitude"|"Feet"|0.0|4000.0|10,"GPSSats"|""|0|20|10,"GPSQual"|""|0|5|10,"GPSDOP"|""|0.0|20.0|10,"LapCount"|""|0|0|10,"LapTime"|"Min"|0.0|0.0|10,"Sector"|""|0|0|10,"SectorTime"|"Min"|0.0|0.0|10,"PredTime"|"Min"|0.0|0.0|5,"ElapsedTime"|"Min"|0.0|0.0|10,"CurrentLap"|""|0|0|10
240815,1480873264749,,,,,,,,0.07,0.06,0.99,-3.1,-0.7,-0.1,200,0,,,,,,,,,,,,,,,,,,,
240835,1480873264769,,,,,,,,0.08,0.07,0.99,-3.1,-0.8,-0.1,200,0,,,,,,,,,,,,,,,,,,,
240855,1480873264789,0,103.0,,151.2,2,145.8,,0.08,0.07,0.99,-3.0,-0.7,-0.1,200,0,1,1,0.0,0,38.159134,-122.454353,0.0,0.0,52.7,10,3,1.5,0,0.0,-1,0.0,0.0,0.0,0
240875,1480873264809,,,,,,,,0.09,0.07,0.99,-3.1,-0.6,-0.1,200,0,,,,,,,,,,,,,,,,,,,
240895,1480873264829,,,,,,,,0.09,0.08,0.99,-3.1,-0.7,-0.0,200,0,,,,,,,,,,,,,,,,,,,
240915,1480873264849,,,,,,,,0.09,0.07,0.99,-3.1,-0.7,-0.0,200,0,,,,,,,,,,,,,,,,,,,
240935,1480873264869,,,,,,,,0.08,0.07,0.99,-3.0,-0.7,-0.0,200,0,,,,,,,,,,,,,,,,,,,
240955,1480873264889,,,,,2,,,0.08,0.08,1.0,-3.1,-0.7,-0.0,340,0,1,1,0.0,0,38.159134,-122.454353,0.0,0.0,52.7,10,3,1.5,0,0.0,-1,0.0,,0.0,0
240975,1480873264903,,,,,,,,0.09,0.06,1.0,-3.1,-0.9,-0.1,340,0,,,,,,,,,,,,,,,,,,,
240995,1480873264923,,,,,,,,0.09,0.07,1.0,-3.1,-0.9,-0.0,520,0,,,,,,,,,,,,,,,,,,,
241015,1480873264943,,,,,,,,0.08,0.05,1.0,-3.0,-0.9,-0.2,520,0,,,,,,,,,,,,,,,,,,,
241035,1480873264963,,,,,,,,0.09,0.06,1.0,-3.1,-0.8,-0.2,660,0,,,,,,,,,,,,,,,,,,,
241055,1480873264983,0,103.0,0.6,151.5,4,146.5,12.93,0.1,0.07,0.99,-3.1,-1.0,-0.1,760,81,1,0,0.0,0,38.159134,-122.454353,0.0,0.0,52.7,10,3,1.5,0,0.0,-1,0.0,0.0,0.0,0
241075,1480873265009,,,,,,,,0.1,0.07,1.0,-3.1,-0.8,-0.1,780,81,,,,,,,,,,,,,,,,,,,
241095,1480873265029,,,,,,,,0.1,0.07,1.0,-3.0,-0.8,-0.2,800,81,,,,,,,,,,,,,,,,,,,
241115,1480873265049,,,,,,,,0.09,0.06,1.01,-3.0,-0.8,-0.2,800,0,,,,,,,,,,,,,,,,,,,
241135,1480873265069,,,,,,,,0.1,0.07,1.01,-3.0,-0.7,-0.3,820,0,,,,,,,,,,,,,,,,,,,
241155,1480873265089,,,,,5,,,0.1,0.07,1.0,-3.0,-0.7,-0.2,760,0,1,1,9.877,0,38.159134,-122.454353,0.0,0.0,52.7,10,3,1.5,0,0.0,-1,0.0,,0.0,0
241175,1480873265108,,,,,,,,0.1,0.07,1.0,-3.0,-0.7,-0.2,720,0,,,,,,,,,,,,,,,,,,,
241195,1480873265128,,,,,,,,0.09,0.07,1.0,-3.0,-0.8,-0.2,720,0,,,,,,,,,,,,,,,,,,,
241215,1480873265148,,,,,,,,0.09,0.07,1.0,-3.0,-0.7,-0.2,660,0,,,,,,,,,,,,,,,,,,,
241235,1480873265168,,,,,,,,0.09,0.07,0.99,-3.0,-0.8,-0.1,640,0,,,,,,,,,,,,,,,,,,,
241255,1480873265188,0,101.2,,150.8,7,146.5,,0.09,0.07,1.0,-3.0,-0.9,-0.1,640,0,1,1,0.0,0,38.159134,-122.454353,0.0,0.0,52.7,10,3,1.5,0,0.0,-1,0.0,0.0,0.0,0
241275,1480873265308,,,,,,,,0.09,0.07,1.0,-3.0,-0.9,-0.1,700,0,,,,,,,,,,,,,,,,,,,
241295,1480873265328,,,,,,,,0.09,0.08,0.99,-3.0,-1.0,-0.1,700,0,,,,,,,,,,,,,,,,,,,
241315,1480873265348,,,,,,,,0.09,0.08,1.0,-3.0,-1.0,-0.2,700,0,,,,,,,,,,,,,,,,,,,
241335,1480873265368,,,,,,,,0.09,0.08,1.0,-3.0,-1.0,-0.2,640,0,,,,,,,,,,,,,,,,,,,
241355,1480873265388,,,,,9,,,0.09,0.08,0.99,-3.1,-1.0,-0.2,600,0,1,1,0.0,0,38.159134,-122.454353,0.0,0.0,52.7,10,3,1.5,0,0.0,-1,0.0,,0.0,0
241375,1480873265408,,,,,,,,0.09,0.07,0.99,-3.0,-1.0,-0.2,600,0,,,,,,,,,,,,,,,,,,,
241395,1480873265428,,,,,,,,0.09,0.07,0.99,-3.0,-1.0,-0.2,560,0,,,,,,,,,,,,,,,,,,,
241415,1480873265448,,,,,,,,0.09,0.07,0.99,-3.0,-1.0,-0.2,560,0,,,,,,,,,,,,,,,,,,,
241435,1480873265468,,,,,,,,0.09,0.07,0.99,-3.0,-1.0,-0.2,560,0,,,,,,,,,,,,,,,,,,,
241455,1480873265488,0,100.1,,150.1,9,146.2,,0.09,0.07,0.99,-3.0,-1.0,-0.2,560,0,1,1,0.0,0,38.159134,-122.454353,0.0,0.0,52.7,10,3,1.5,0,0.0,-1,0.0,0.0,0.0,0
241475,1480873265408,,,,,,,,0.09,0.07,1.0,-3.0,-0.9,-0.2,540,0,,,,,,,,,,,,,,,,,,,
241495,1480873265428,,,,,,,,0.09,0.07,0.99,-3.0,-0.9,-0.2,540,0,,,,,,,,,,,,,,,,,,,
241515,1480873265448,,,,,,,,0.09,0.06,0.99,-3.0,-1.0,-0.2,540,0,,,,,,,,,,,,,,,,,,,
241535,1480873265468,,,,,,,,0.09,0.06,0.99,-3.0,-1.0,-0.2,520,0,,,,,,,,,,,,,,,,,,,
241555,1480873265488,,,,,9,,,0.09,0.06,0.99,-3.0,-1.0,-0.2,520,0,1,1,0.0,0,38.159134,-122.454353,0.0,0.0,52.7,10,3,1.5,0,0.0,-1,0.0,,0.0,0
241575,1480873265508,,,,,,,,0.09,0.06,0.99,-3.0,-1.0,-0.2,520,0,,,,,,,,,,,,,,,,,,,
241595,1480873265528,,,,,,,,0.09,0.06,0.99,-3.1,-0.9,-0.3,520,0,,,,,,,,,,,,,,,,,,,
241615,1480873265548,,,,,,,,0.09,0.07,0.99,-3.1,-1.0,-0.2,520,0,,,,,,,,,,,,,,,,,,,
241635,1480873265568,,,,,,,,0.09,0.07,0.99,-3.1,-1.0,-0.2,520,0,,,,,,,,,,,,,,,,,,,
241655,1480873265588,0,99.1,,149.3,10,145.6,,0.09,0.07,0.99,-3.1,-1.1,-0.2,500,0,1,1,0.0,0,38.159134,-122.454353,0.0,0.0,52.7,10,3,1.5,0,0.0,-1,0.0,0.0,0.0,0
241675,1480873265607,,,,,,,,0.09,0.07,0.99,-3.1,-1.1,-0.2,500,0,,,,,,,,,,,,,,,,,,,
241695,1480873265627,,,,,,,,0.09,0.07,0.98,-3.1,-1.1,-0.2,500,0,,,,,,,,,,,,,,,,,,,
241715,1480873265647,,,,,,,,0.09,0.07,0.98,-3.1,-1.1,-0.2,500,0,,,,,,,,,,,,,,,,,,,
241735,1480873265667,,,,,,,,0.09,0.07,0.98,-3.1,-1.0,-0.2,500,0,,,,,,,,,,,,,,,,,,,
241755,1480873265687,,,,,14,,,0.09,0.06,0.98,-3.1,-1.0,-0.2,500,0,1,1,0.0,0,38.159134,-122.454353,0.0,0.0,52.7,10,3,1.5,0,0.0,-1,0.0,,0.0,0
241775,1480873265709,,,,,,,,0.09,0.07,0.98,-3.1,-1.0,-0.2,480,0,,,,,,,,,,,,,,,,,,,
241795,1480873265729,,,,,,,,0.09,0.06,0.98,-3.1,-1.0,-0.2,480,0,,,,,,,,,,,,,,,,,,,
241815,1480873265749,,,,,,,,0.09,0.07,0.98,-3.1,-0.9,-0.2,500,0,,,,,,,,,,,,,,,,,,,
241835,1480873265769,,,,,,,,0.09,0.06,0.98,-3.1,-0.9,-0.2,500,0,,,,,,,,,,,,,,,,,,,
241855,1480873265789,0,103.0,,151.5,14,146.4,,0.09,0.06,0.98,-3.1,-0.9,-0.2,480,0,1,1,0.0,0,38.159134,-122.454353,0.0,0.0,52.7,10,3,1.5,0,0.0,-1,0.0,0.0,0.0,0
241875,1480873265809,,,,,,,,0.09,0.06,0.98,-3.0,-0.9,-0.2,480,0,,,,,,,,,,,,,,,,,,,
241895,1480873265829,,,,,,,,0.09,0.07,0.98,-3.0,-0.9,-0.2,480,0,,,,,,,,,,,,,,,,,,,
241915,1480873265849,,,,,,,,0.09,0.06,0.98,-3.1,-0.9,-0.2,480,0,,,,,,,,,,,,,,,,,,,
241935,1480873265869,,,,,,,,0.09,0.07,0.98,-3.1,-0.9,-0.2,460,0,,,,,,,,,,,,,,,,,,,
241955,1480873265889,,,,,17,,,0.09,0.07,0.98,-3.1,-0.9,-0.2,460,0,1,1,0.0,0,38.159134,-122.454353,0.0,0.0,52.7,10,3,1.5,0,0.0,-1,0.0,,0.0,0
241975,1480873265903,,,,,,,,0.09,0.07,0.98,-3.0,-0.9,-0.2,460,0,,,,,,,,,,,,,,,,,,,
241995,1480873265923,,,,,,,,0.09,0.07,0.98,-3.0,-0.9,-0.2,460,0,,,,,,,,,,,,,,,,,,,
242015,1480873265943,,,,,,,,0.09,0.07,0.98,-3.0,-0.9,-0.2,460,0,,,,,,,,,,,,,,,,,,,
242035,1480873265963,,,,,,,,0.09,0.07,0.98,-3.0,-0.9,-0.2,460,0,,,,,,,,,,,,,,,,,,,
242055,1480873265983,0,103.9,0.9,151.2,17,144.9,14.24,0.09,0.07,0.99,-3.0,-0.9,-0.2,460,0,1,1,0.0,0,38.159134,-122.454353,0.0,0.0,52.7,10,3,1.5,0,0.0,-1,0.0,0.0,0.0,0
242075,1480873266108,,,,,,,,0.09,0.07,0.99,-3.0,-0.9,-0.2,460,0,,,,,,,,,,,,,,,,,,,
242095,1480873266128,,,,,,,,0.09,0.07,0.99,-3.0,-0.9,-0.2,460,0,,,,,,,,,,,,,,,,,,,
242115,1480873266148,,,,,,,,0.09,0.07,0.99,-3.0,-0.9,-0.3,440,0,,,,,,,,,,,,,,,,,,,
242135,1480873266168,,,,,,,,0.09,0.07,0.99,-3.0,-0.9,-0.3,440,0,,,,,,,,,,,,,,,,,,,
242155,1480873266188,,,,,17,,,0.09,0.07,0.99,-3.1,-0.9,-0.3,440,0,1,1,0.0,0,38.159134,-122.454353,0.0,0.0,52.7,10,3,1.5,0,0.0,-1,0.0,,0.0,0
242175,1480873266208,,,,,,,,0.09,0.07,0.99,-3.1,-0.9,-0.2,440,0,,,,,,,,,,,,,,,,,,,
242195,1480873266228,,,,,,,,0.09,0.07,0.99,-3.1,-0.9,-0.2,420,0,,,,,,,,,,,,,,,,,,,
242215,1480873266248,,,,,,,,0.09,0.07,0.99,-3.0,-0.9,-0.3,420,0,,,,,,,,,,,,,,,,,,,
242235,1480873266268,,,,,,,,0.09,0.07,0.99,-3.0,-0.9,-0.3,420,0,,,,,,,,,,,,,,,,,,,
242255,1480873266288,0,100.7,,149.8,18,145.2,,0.09,0.07,0.99,-3.0,-0.9,-0.3,420,0,1,1,0.0,0,38.159134,-122.454353,0.0,0.0,52.7,10,3,1.5,0,0.0,-1,0.0,0.0,0.0,0
242275,1480873266208,,,,,,,,0.09,0.07,0.99,-3.0,-0.9,-0.3,420,0,,,,,,,,,,,,,,,,,,,
242295,1480873266228,,,,,,,,0.09,0.07,0.99,-3.0,-0.9,-0.2,420,0,,,,,,,,,,,,,,,,,,,
242315,1480873266248,,,,,,,,0.09,0.06,0.99,-3.0,-0.9,-0.3,420,0,,,,,,,,,,,,,,,,,,,
242335,1480873266268,,,,,,,,0.09,0.07,0.99,-3.1,-0.9,-0.2,400,0,,,,,,,,,,,,,,,,,,,
242355,1480873266288,,,,,17,,,0.09,0.07,0.99,-3.1,-0.9,-0.2,400,0,1,1,0.0,0,38.159134,-122.454353,0.0,0.0,52.7,10,3,1.5,0,0.0,-1,0.0,,0.0,0
242375,1480873266308,,,,,,,,0.09,0.07,0.99,-3.1,-0.9,-0.2,400,0,,,,,,,,,,,,,,,,,,,
242395,1480873266328,,,,,,,,0.09,0.07,0.99,-3.1,-0.9,-0.3,400,0,,,,,,,,,,,,,,,,,,,
242415,1480873266348,,,,,,,,0.09,0.07,0.99,-3.1,-0.9,-0.3,400,0,,,,,,,,,,,,,,,,,,,
242435,1480873266368,,,,,,,,0.09,0.07,0.99,-3.1,-0.9,-0.3,400,0,,,,,,,,,,,,,,,,,,,
242455,1480873266388,0,99.9,,149.7,18,145.8,,0.09,0.07,0.99,-3.0,-0.9,-0.3,400,0,1,1,0.0,0,38.159134,-122.454353,0.0,0.0,52.7,10,3,1.5,0,0.0,-1,0.0,0.0,0.0,0
242475,1480873266408,,,,,,,,0.09,0.07,0.99,-3.0,-0.9,-0.3,400,0,,,,,,,,,,,,,,,,,,,
242495,1480873266428,,,,,,,,0.09,0.07,0.99,-3.0,-0.9,-0.3,400,0,,,,,,,,,,,,,,,,,,,
242515,1480873266448,,,,,,,,0.09,0.07,0.99,-3.0,-0.9,-0.3,400,0,,,,,,,,,,,,,,,,,,,
242535,1480873266468,,,,,,,,0.1,0.07,0.99,-3.0,-0.9,-0.2,380,0,,,,,,,,,,,,,,,,,,,
242555,1480873266488,,,,,18,,,0.09,0.07,0.99,-3.0,-0.9,-0.2,380,0,1,1,0.0,0,38.159134,-122.454353,0.0,0.0,52.7,10,3,1.5,0,0.0,-1,0.0,,0.0,0
242575,1480873266508,,,,,,,,0.09,0.07,0.99,-3.1,-0.9,-0.2,380,0,,,,,,,,,,,,,,,,,,,
242595,1480873266528,,,,,,,,0.09,0.07,0.99,-3.1,-0.9,-0.2,400,0,,,,,,,,,,,,,,,,,,,
242615,1480873266548,,,,,,,,0.09,0.06,0.99,-3.0,-0.9,-0.2,400,0,,,,,,,,,,,,,,,,,,,
242635,1480873266568,,,,,,,,0.09,0.06,0.99,-3.1,-0.9,-0.2,400,0,,,,,,,,,,,,,,,,,,,
242655,1480873266588,0,103.4,,152.1,19,147.0,,0.09,0.06,0.99,-3.0,-0.9,-0.2,400,0,1,1,0.0,0,38.159134,-122.454353,0.0,0.0,52.7,10,3,1.5,0,0.0,-1,0.0,0.0,0.0,0
242675,1480873266608,,,,,,,,0.09,0.06,0.99,-3.0,-0.9,-0.2,400,0,,,,,,,,,,,,,,,,,,,
242695,1480873266628,,,,,,,,0.09,0.06,0.99,-3.0,-0.9,-0.2,400,0,,,,,,,,,,,,,,,,,,,
242715,1480873266648,,,,,,,,0.09,0.06,0.99,-3.1,-0.9,-0.3,400,0,,,,,,,,,,,,,,,,,,,
242735,1480873266668,,,,,,,,0.09,0.06,0.99,-3.1,-0.9,-0.3,380,0,,,,,,,,,,,,,,,,,,,
242755,1480873266688,,,,,19,,,0.09,0.06,0.99,-3.1,-0.9,-0.3,380,0,1,1,0.0,0,38.159134,-122.454353,0.0,0.0,52.7,10,3,1.5,0,0.0,-1,0.0,,0.0,0
242775,1480873266708,,,,,,,,0.09,0.06,0.99,-3.1,-0.9,-0.3,380,0,,,,,,,,,,,,,,,,,,,
242795,1480873266728,,,,,,,,0.09,0.06,0.99,-3.1,-0.9,-0.3,380,0,,,,,,,,,,,,,,,,,,,
242815,1480873266748,,,,,,,,0.09,0.06,0.99,-3.1,-0.9,-0.2,380,0,,,,,,,,,,,,,,,,,,,
242835,1480873266768,,,,,,,,0.1,0.06,0.99,-3.1,-0.9,-0.2,380,0,,,,,,,,,,,,,,,,,,,
242855,1480873266788,0,102.3,,149.9,19,144.7,,0.1,0.06,0.99,-3.1,-0.9,-0.2,380,0,1,1,0.0,0,38.159134,-122.454353,0.0,0.0,52.7,10,3,1.5,0,0.0,-1,0.0,0.0,0.0,0
242875,1480873266908,,,,,,,,0.09,0.06,0.99,-3.1,-0.9,-0.2,380,0,,,,,,,,,,,,,,,,,,,
242895,1480873266928,,,,,,,,0.09,0.06,0.99,-3.1,-0.9,-0.2,380,0,,,,,,,,,,,,,,,,,,,
242915,1480873266948,,,,,,,,0.09,0.06,0.99,-3.0,-0.9,-0.2,380,0,,,,,,,,,,,,,,,,,,,
242935,1480873266968,,,,,,,,0.1,0.06,0.99,-3.1,-0.9,-0.2,380,0,,,,,,,,,,,,,,,,,,,
242955,1480873266988,,,,,19,,,0.09,0.06,0.99,-3.1,-0.9,-0.2,380,0,1,1,0.0,0,38.159134,-122.454353,0.0,0.0,52.7,10,3,1.5,0,0.0,-1,0.0,,0.0,0
242975,1480873267008,,,,,,,,0.09,0.06,0.99,-3.0,-0.8,-0.2,380,0,,,,,,,,,,,,,,,,,,,
242995,1480873267028,,,,,,,,0.09,0.06,0.99,-3.1,-0.8,-0.2,380,0,,,,,,,,,,,,,,,,,,,
243015,1480873267048,,,,,,,,0.09,0.06,0.99,-3.0,-0.9,-0.2,380,0,,,,,,,,,,,,,,,,,,,
243035,1480873267068,,,,,,,,0.09,0.06,0.99,-3.0,-0.9,-0.2,380,0,,,,,,,,,,,,,,,,,,,
243055,1480873267088,0,104.0,1.0,151.7,20,146.0,12.68,0.09,0.06,0.99,-3.0,-0.9,-0.2,380,0,1,1,0.0,0,38.159134,-122.454353,0.0,0.0,52.7,10,3,1.5,0,0.0,-1,0.0,0.0,0.0,0
243075,1480873267002,,,,,,,,0.09,0.06,0.99,-3.0,-0.8,-0.2,380,0,,,,,,,,,,,,,,,,,,,
243095,1480873267022,,,,,,,,0.09,0.06,0.99,-3.0,-0.9,-0.2,380,0,,,,,,,,,,,,,,,,,,,
243115,1480873267042,,,,,,,,0.09,0.06,0.99,-3.1,-0.8,-0.2,380,0,,,,,,,,,,,,,,,,,,,
243135,1480873267062,,,,,,,,0.09,0.06,0.99,-3.0,-0.9,-0.2,380,0,,,,,,,,,,,,,,,,,,,
243155,1480873267082,,,,,20,,,0.09,0.06,0.99,-3.1,-0.9,-0.2,360,0,1,1,0.0,0,38.159134,-122.454353,0.0,0.0,52.7,10,3,1.5,0,0.0,-1,0.0,,0.0,0
243175,1480873267109,,,,,,,,0.09,0.06,0.99,-3.0,-0.9,-0.2,360,0,,,,,,,,,,,,,,,,,,,
243195,1480873267129,,,,,,,,0.09,0.06,0.99,-3.0,-0.9,-0.2,380,0,,,,,,,,,,,,,,,,,,,
243215,1480873267149,,,,,,,,0.09,0.06,0.99,-3.0,-0.9,-0.2,380,0,,,,,,,,,,,,,,,,,,,
243235,1480873267169,,,,,,,,0.09,0.06,0.99,-3.0,-0.9,-0.2,380,0,,,,,,,,,,,,,,,,,,,
243255,1480873267189,0,104.5,,151.6,21,145.8,,0.09,0.07,0.99,-3.0,-0.9,-0.2,380,0,1,1,0.0,0,38.159134,-122.454353,0.0,0.0,52.7,10,3,1.5,0,0.0,-1,0.0,0.0,0.0,0
243275,1480873267209,,,,,,,,0.09,0.06,0.99,-3.0,-0.9,-0.2,380,0,,,,,,,,,,,,,,,,,,,
243295,1480873267229,,,,,,,,0.09,0.07,0.99,-3.1,-0.9,-0.2,380,0,,,,,,,,,,,,,,,,,,,
243315,1480873267249,,,,,,,,0.09,0.07,0.99,-3.1,-0.9,-0.2,380,0,,,,,,,,,,,,,,,,,,,
243335,1480873267269,,,,,,,,0.09,0.06,0.99,-3.1,-0.9,-0.2,380,0,,,,,,,,,,,,,,,,,,,
243355,1480873267289,,,,,19,,,0.09,0.07,0.99,-3.1,-0.9,-0.2,380,0,1,1,0.0,0,38.159134,-122.454353,0.0,0.0,52.7,10,3,1.5,0,0.0,-1,0.0,,0.0,0
243375,1480873267309,,,,,,,,0.09,0.07,0.99,-3.1,-0.8,-0.2,380,0,,,,,,,,,,,,,,,,,,,
243395,1480873267329,,,,,,,,0.09,0.06,0.99,-3.1,-0.8,-0.2,380,0,,,,,,,,,,,,,,,,,,,
243415,1480873267349,,,,,,,,0.09,0.06,0.99,-3.1,-0.8,-0.2,380,0,,,,,,,,,,,,,,,,,,,
243435,1480873267369,,,,,,,,0.09,0.06,0.99,-3.1,-0.8,-0.2,380,0,,,,,,,,,,,,,,,,,,,
243455,1480873267389,0,104.7,,152.2,21,146.3,,0.09,0.07,0.99,-3.1,-0.8,-0.2,360,0,1,1,0.0,0,38.159134,-122.454353,0.0,0.0,52.7,10,3,1.5,0,0.0,-1,0.0,0.0,0.0,0
243475,1480873267409,,,,,,,,0.09,0.06,0.99,-3.1,-0.9,-0.3,360,0,,,,,,,,,,,,,,,,,,,
243495,1480873267429,,,,,,,,0.09,0.07,0.99,-3.0,-1.0,-0.2,360,0,,,,,,,,,,,,,,,,,,,
243515,1480873267449,,,,,,,,0.09,0.07,0.99,-3.1,-0.9,-0.3,440,0,,,,,,,,,,,,,,,,,,,
243535,1480873267469,,,,,,,,0.09,0.07,0.98,-3.1,-1.0,-0.2,540,0,,,,,,,,,,,,,,,,,,,
243555,1480873267489,,,,,21,,,0.09,0.06,0.98,-3.1,-1.0,-0.3,540,0,1,1,0.0,0,38.159134,-122.454353,0.0,0.0,52.7,10,3,1.5,0,0.0,-1,0.0,,0.0,0
243575,1480873267509,,,,,,,,0.09,0.08,0.98,-3.1,-0.9,-0.2,600,0,,,,,,,,,,,,,,,,,,,
243595,1480873267529,,,,,,,,0.09,0.05,0.98,-3.0,-0.9,-0.4,600,0,,,,,,,,,,,,,,,,,,,
243615,1480873267549,,,,,,,,0.09,0.06,0.99,-3.0,-1.0,-0.2,660,0,,,,,,,,,,,,,,,,,,,
243635,1480873267569,,,,,,,,0.11,0.07,0.98,-3.1,-0.9,-0.2,760,0,,,,,,,,,,,,,,,,,,,
243655,1480873267589,0,103.6,,151.3,27,144.5,,0.1,0.05,0.97,-3.1,-0.9,-0.2,880,0,1,1,0.0,0,38.159134,-122.454353,0.0,0.0,52.7,10,3,1.5,0,0.0,-1,0.0,0.0,0.0,0
243675,1480873267708,,,,,,,,0.09,0.06,0.98,-3.1,-0.8,-0.1,940,0,,,,,,,,,,,,,,,,,,,
243695,1480873267728,,,,,,,,0.08,0.07,0.99,-3.1,-0.8,-0.1,980,0,,,,,,,,,,,,,,,,,,,
243715,1480873267748,,,,,,,,0.08,0.07,0.98,-3.1,-0.9,-0.0,940,0,,,,,,,,,,,,,,,,,,,
243735,1480873267768,,,,,,,,0.07,0.07,0.99,-3.1,-0.9,-0.1,900,0,,,,,,,,,,,,,,,,,,,
243755,1480873267788,,,,,32,,,0.07,0.06,1.0,-3.0,-0.9,-0.2,920,0,1,1,0.0,0,38.159134,-122.454353,0.0,0.0,52.7,10,3,1.5,0,0.0,-1,0.0,,0.0,0
243775,1480873267808,,,,,,,,0.08,0.06,0.99,-3.1,-0.9,-0.2,960,0,,,,,,,,,,,,,,,,,,,
243795,1480873267828,,,,,,,,0.08,0.06,1.0,-3.1,-0.9,-0.2,960,0,,,,,,,,,,,,,,,,,,,
243815,1480873267848,,,,,,,,0.08,0.06,0.99,-3.1,-1.0,-0.2,960,0,,,,,,,,,,,,,,,,,,,
243835,1480873267868,,,,,,,,0.08,0.06,1.0,-3.1,-1.0,-0.2,940,0,,,,,,,,,,,,,,,,,,,
243855,1480873267888,1,103.6,,151.2,35,144.6,,0.08,0.06,0.99,-3.1,-1.1,-0.2,900,0,1,1,0.0,0,38.159134,-122.454353,0.0,0.0,52.7,10,3,1.5,0,0.0,-1,0.0,0.0,0.0,0
243875,1480873267808,,,,,,,,0.08,0.06,0.99,-3.1,-1.1,-0.2,900,0,,,,,,,,,,,,,,,,,,,
243895,1480873267828,,,,,,,,0.08,0.06,0.99,-3.1,-1.2,-0.2,880,0,,,,,,,,,,,,,,,,,,,
243915,1480873267848,,,,,,,,0.09,0.06,0.99,-3.1,-1.2,-0.2,880,0,,,,,,,,,,,,,,,,,,,
243935,1480873267868,,,,,,,,0.09,0.06,0.99,-3.1,-1.2,-0.2,840,0,,,,,,,,,,,,,,,,,,,
243955,1480873267888,,,,,39,,,0.08,0.06,0.99,-3.1,-1.3,-0.2,820,0,1,1,0.0,0,38.159134,-122.454353,0.0,0.0,52.7,10,3,1.5,0,0.0,-1,0.0,,0.0,0
243975,1480873267903,,,,,,,,0.08,0.06,0.99,-3.0,-1.3,-0.2,760,0,,,,,,,,,,,,,,,,,,,
243995,1480873267923,,,,,,,,0.09,0.06,0.99,-3.0,-1.2,-0.2,760,0,,,,,,,,,,,,,,,,,,,
244015,1480873267943,,,,,,,,0.09,0.07,0.99,-3.0,-1.2,-0.2,740,0,,,,,,,,,,,,,,,,,,,
244035,1480873267963,,,,,,,,0.09,0.07,0.99,-3.0,-1.2,-0.2,740,0,,,,,,,,,,,,,,,,,,,
244055,1480873267983,0,100.9,0.0,149.9,43,145.1,14.89,0.09,0.06,0.99,-3.0,-1.1,-0.3,740,0,1,1,0.0,0,38.159134,-122.454353,0.0,0.0,52.7,10,3,1.5,0,0.0,-1,0.0,0.0,0.0,0
244075,1480873268008,,,,,,,,0.09,0.06,0.99,-3.0,-1.1,-0.3,740,0,,,,,,,,,,,,,,,,,,,
244095,1480873268028,,,,,,,,0.09,0.07,0.99,-3.0,-1.1,-0.2,720,0,,,,,,,,,,,,,,,,,,,
244115,1480873268048,,,,,,,,0.09,0.06,0.99,-3.0,-1.0,-0.3,660,0,,,,,,,,,,,,,,,,,,,
244135,1480873268068,,,,,,,,0.09,0.07,0.99,-3.0,-1.0,-0.3,660,0,,,,,,,,,,,,,,,,,,,
244155,1480873268088,,,,,40,,,0.09,0.07,0.99,-3.0,-0.9,-0.2,680,0,1,1,0.0,0,38.159134,-122.454353,0.0,0.0,52.7,10,3,1.5,0,0.0,-1,0.0,,0.0,0
244175,1480873268109,,,,,,,,0.09,0.06,0.99,-3.0,-1.0,-0.2,660,0,,,,,,,,,,,,,,,,,,,
244195,1480873268129,,,,,,,,0.09,0.06,0.99,-3.0,-1.0,-0.2,660,0,,,,,,,,,,,,,,,,,,,
244215,1480873268149,,,,,,,,0.09,0.06,0.99,-3.0,-1.0,-0.3,620,0,,,,,,,,,,,,,,,,,,,
244235,1480873268169,,,,,,,,0.09,0.06,0.99,-3.0,-0.9,-0.3,620,0,,,,,,,,,,,,,,,,,,,
244255,1480873268189,0,103.8,,151.7,39,145.9,,0.09,0.06,0.99,-3.0,-0.9,-0.3,620,0,1,1,0.0,0,38.159134,-122.454353,0.0,0.0,52.7,10,3,1.5,0,0.0,-1,0.0,0.0,0.0,0
244275,1480873268209,,,,,,,,0.09,0.07,0.99,-3.1,-1.0,-0.2,540,0,,,,,,,,,,,,,,,,,,,
244295,1480873268229,,,,,,,,0.09,0.06,0.99,-3.1,-1.0,-0.2,540,0,,,,,,,,,,,,,,,,,,,
244315,1480873268249,,,,,,,,0.09,0.07,0.99,-3.1,-1.0,-0.2,540,0,,,,,,,,,,,,,,,,,,,
244335,1480873268269,,,,,,,,0.09,0.06,0.99,-3.0,-1.0,-0.3,540,0,,,,,,,,,,,,,,,,,,,
244355,1480873268289,,,,,36,,,0.1,0.07,0.99,-3.1,-1.0,-0.2,580,0,1,1,0.0,0,38.159134,-122.454353,0.0,0.0,52.7,10,3,1.5,0,0.0,-1,0.0,,0.0,0
244375,1480873268309,,,,,,,,0.09,0.08,0.98,-3.1,-1.1,-0.2,680,0,,,,,,,,,,,,,,,,,,,
244395,1480873268329,,,,,,,,0.09,0.06,0.99,-3.0,-1.1,-0.2,760,0,,,,,,,,,,,,,,,,,,,
244415,1480873268349,,,,,,,,0.09,0.05,0.99,-3.1,-1.1,-0.2,760,0,,,,,,,,,,,,,,,,,,,
244435,1480873268369,,,,,,,,0.1,0.06,0.99,-3.1,-1.1,-0.2,860,0,,,,,,,,,,,,,,,,,,,
244455,1480873268389,0,103.8,,151.2,40,144.5,,0.11,0.06,0.98,-3.1,-1.1,-0.1,960,0,1,1,0.0,0,38.159134,-122.454353,0.0,0.0,52.7,10,3,1.5,0,0.0,-1,0.0,0.0,0.0,0
244475,1480873268508,,,,,,,,0.11,0.07,0.98,-3.1,-1.0,-0.1,1100,0,,,,,,,,,,,,,,,,,,,
244495,1480873268528,,,,,,,,0.11,0.06,0.98,-3.1,-0.7,-0.2,1100,0,,,,,,,,,,,,,,,,,,,
244515,1480873268548,,,,,,,,0.11,0.06,0.98,-3.1,-0.6,-0.2,1120,0,,,,,,,,,,,,,,,,,,,
244535,1480873268568,,,,,,,,0.1,0.06,0.99,-3.1,-0.6,-0.2,1180,0,,,,,,,,,,,,,,,,,,,
244555,1480873268588,,,,,56,,,0.1,0.06,0.98,-3.1,-0.6,-0.2,1220,0,1,1,0.0,0,38.159134,-122.454353,0.0,0.0,52.7,10,3,1.5,0,0.0,-1,0.0,,0.0,0
244575,1480873268608,,,,,,,,0.1,0.06,0.99,-3.1,-0.7,-0.1,1360,0,,,,,,,,,,,,,,,,,,,
244595,1480873268628,,,,,,,,0.09,0.06,0.99,-3.1,-0.5,-0.2,1360,0,,,,,,,,,,,,,,,,,,,
244615,1480873268648,,,,,,,,0.09,0.06,0.99,-3.1,-0.4,-0.2,1420,0,,,,,,,,,,,,,,,,,,,
244635,1480873268668,,,,,,,,0.09,0.06,0.99,-3.1,-0.7,-0.2,1520,0,,,,,,,,,,,,,,,,,,,
244655,1480873268688,0,104.1,,151.8,64,145.8,,0.09,0.06,0.99,-3.0,-0.8,-0.3,1620,0,1,1,0.0,0,38.159134,-122.454353,0.0,0.0,52.7,10,3,1.5,0,0.0,-1,0.0,0.0,0.0,0
244675,1480873268608,,,,,,,,0.09,0.07,0.99,-3.1,-1.0,-0.4,1620,0,,,,,,,,,,,,,,,,,,,
244695,1480873268628,,,,,,,,0.09,0.06,0.98,-3.1,-1.0,-0.3,1720,0,,,,,,,,,,,,,,,,,,,
244715,1480873268648,,,,,,,,0.1,0.05,0.98,-3.1,-0.8,-0.2,1800,0,,,,,,,,,,,,,,,,,,,
244735,1480873268668,,,,,,,,0.1,0.06,0.98,-3.1,-0.8,-0.3,1880,0,,,,,,,,,,,,,,,,,,,
244755,1480873268688,,,,,62,,,0.09,0.05,0.97,-3.1,-1.0,-0.3,1980,0,1,1,0.0,0,38.159134,-122.454353,0.0,0.0,52.7,10,3,1.5,0,0.0,-1,0.0,,0.0,0
244775,1480873268708,,,,,,,,0.08,0.05,0.98,-3.0,-1.2,-0.2,2020,0,,,,,,,,,,,,,,,,,,,
244795,1480873268728,,,,,,,,0.07,0.06,1.0,-3.1,-1.3,-0.2,2100,0,,,,,,,,,,,,,,,,,,,
244815,1480873268748,,,,,,,,0.06,0.06,1.01,-3.1,-1.5,-0.2,2140,0,,,,,,,,,,,,,,,,,,,
244835,1480873268768,,,,,,,,0.06,0.07,1.02,-3.0,-1.9,-0.2,2180,0,,,,,,,,,,,,,,,,,,,
244855,1480873268788,0,100.5,,150.0,65,145.4,,0.05,0.07,1.02,-3.1,-2.2,-0.2,2180,0,1,1,0.0,0,38.159134,-122.454353,0.0,0.0,52.7,10,3,1.5,0,0.0,-1,0.0,0.0,0.0,0
244875,1480873268809,,,,,,,,0.06,0.06,1.01,-3.1,-2.2,-0.2,2240,0,,,,,,,,,,,,,,,,,,,
244895,1480873268829,,,,,,,,0.07,0.06,1.01,-3.0,-1.9,-0.2,2280,0,,,,,,,,,,,,,,,,,,,
244915,1480873268849,,,,,,,,0.08,0.07,1.01,-3.1,-1.5,-0.2,2260,0,,,,,,,,,,,,,,,,,,,
244935,1480873268869,,,,,,,,0.08,0.07,1.01,-3.0,-1.6,-0.3,2300,0,,,,,,,,,,,,,,,,,,,
244955,1480873268889,,,,,68,,,0.08,0.07,1.01,-3.1,-1.6,-0.3,2340,0,1,1,0.0,0,38.159134,-122.454353,0.0,0.0,52.7,10,3,1.5,0,0.0,-1,0.0,,0.0,0
244975,1480873268903,,,,,,,,0.08,0.07,1.01,-3.1,-1.6,-0.3,2340,0,,,,,,,,,,,,,,,,,,,
244995,1480873268923,,,,,,,,0.08,0.07,1.0,-3.1,-1.6,-0.2,2300,0,,,,,,,,,,,,,,,,,,,
245015,1480873268943,,,,,,,,0.09,0.07,1.0,-3.0,-1.5,-0.3,2260,0,,,,,,,,,,,,,,,,,,,
245035,1480873268963,,,,,,,,0.09,0.07,1.0,-3.0,-1.4,-0.3,2260,0,,,,,,,,,,,,,,,,,,,
245055,1480873268983,0,103.6,0.3,151.5,68,144.6,14.81,0.09,0.07,1.0,-3.0,-1.4,-0.2,2260,0,1,1,0.0,0,38.159134,-122.454353,0.0,0.0,52.7,10,3,1.5,0,0.0,-1,0.0,0.0,0.0,0
245075,1480873269008,,,,,,,,0.09,0.07,0.99,-3.1,-1.4,-0.2,2300,0,,,,,,,,,,,,,,,,,,,
245095,1480873269028,,,,,,,,0.1,0.07,0.99,-3.0,-1.2,-0.2,2240,0,,,,,,,,,,,,,,,,,,,
245115,1480873269048,,,,,,,,0.09,0.06,0.99,-3.0,-1.2,-0.2,2220,0,,,,,,,,,,,,,,,,,,,
245135,1480873269068,,,,,,,,0.09,0.06,0.99,-3.1,-1.2,-0.2,2180,0,,,,,,,,,,,,,,,,,,,
245155,1480873269088,,,,,62,,,0.1,0.06,0.99,-3.1,-1.2,-0.2,2200,0,1,1,0.0,0,38.159134,-122.454353,0.0,0.0,52.7,10,3,1.5,0,0.0,-1,0.0,,0.0,0
245175,1480873269108,,,,,,,,0.1,0.06,0.99,-3.0,-1.0,-0.2,2160,0,,,,,,,,,,,,,,,,,,,
245195,1480873269128,,,,,,,,0.09,0.05,1.0,-3.0,-1.1,-0.2,2160,0,,,,,,,,,,,,,,,,,,,
245215,1480873269148,,,,,,,,0.09,0.06,0.99,-3.0,-1.2,-0.2,2180,0,,,,,,,,,,,,,,,,,,,
245235,1480873269168,,,,,,,,0.09,0.06,0.99,-3.0,-1.2,-0.2,2140,0,,,,,,,,,,,,,,,,,,,
245255,1480873269188,0,100.6,,150.2,65,145.5,,0.09,0.06,0.99,-3.0,-1.1,-0.3,2140,0,1,1,0.0,0,38.159134,-122.454353,0.0,0.0,52.7,10,3,1.5,0,0.0,-1,0.0,0.0,0.0,0
245275,1480873269308,,,,,,,,0.09,0.06,0.99,-3.0,-0.9,-0.3,2140,0,,,,,,,,,,,,,,,,,,,
245295,1480873269328,,,,,,,,0.1,0.06,0.99,-3.0,-0.7,-0.3,2080,0,,,,,,,,,,,,,,,,,,,
245315,1480873269348,,,,,,,,0.09,0.06,0.99,-3.0,-0.7,-0.2,2060,0,,,,,,,,,,,,,,,,,,,
245335,1480873269368,,,,,,,,0.09,0.06,1.0,-3.0,-0.8,-0.2,2020,0,,,,,,,,,,,,,,,,,,,
245355,1480873269388,,,,,68,,,0.09,0.06,1.0,-3.0,-0.8,-0.2,1960,0,1,1,0.0,0,38.159134,-122.454353,0.0,0.0,52.7,10,3,1.5,0,0.0,-1,0.0,,0.0,0
245375,1480873269408,,,,,,,,0.09,0.05,1.0,-3.0,-0.8,-0.2,1940,0,,,,,,,,,,,,,,,,,,,
245395,1480873269428,,,,,,,,0.08,0.06,1.01,-3.0,-0.9,-0.2,1920,0,,,,,,,,,,,,,,,,,,,
245415,1480873269448,,,,,,,,0.08,0.07,1.0,-3.0,-1.0,-0.2,1860,0,,,,,,,,,,,,,,,,,,,
245435,1480873269468,,,,,,,,0.07,0.07,1.01,-3.0,-1.1,-0.2,1820,0,,,,,,,,,,,,,,,,,,,
245455,1480873269488,0,104.1,,152.1,64,146.1,,0.07,0.07,1.01,-3.0,-1.0,-0.2,1800,0,1,1,0.0,0,38.159134,-122.454353,0.0,0.0,52.7,10,3,1.5,0,0.0,-1,0.0,0.0,0.0,0
245475,1480873269406,,,,,,,,0.08,0.07,1.0,-3.0,-1.0,-0.3,1740,0,,,,,,,,,,,,,,,,,,,
245495,1480873269426,,,,,,,,0.08,0.07,1.0,-3.0,-0.9,-0.3,1720,0,,,,,,,,,,,,,,,,,,,
245515,1480873269446,,,,,,,,0.08,0.07,1.0,-3.0,-1.0,-0.3,1700,0,,,,,,,,,,,,,,,,,,,
245535,1480873269466,,,,,,,,0.08,0.07,1.0,-3.0,-0.9,-0.2,1640,0,,,,,,,,,,,,,,,,,,,
245555,1480873269486,,,,,66,,,0.08,0.07,1.0,-3.0,-0.9,-0.2,1620,0,1,1,0.0,0,38.159134,-122.454353,0.0,0.0,52.7,10,3,1.5,0,0.0,-1,0.0,,0.0,0
245575,1480873269508,,,,,,,,0.08,0.06,1.0,-3.0,-0.9,-0.3,1560,0,,,,,,,,,,,,,,,,,,,
245595,1480873269528,,,,,,,,0.08,0.06,1.0,-3.0,-0.9,-0.2,1560,0,,,,,,,,,,,,,,,,,,,
245615,1480873269548,,,,,,,,0.08,0.06,1.0,-3.0,-0.9,-0.3,1520,0,,,,,,,,,,,,,,,,,,,
245635,1480873269568,,,,,,,,0.09,0.06,1.0,-3.0,-0.8,-0.3,1500,0,,,,,,,,,,,,,,,,,,,
245655,1480873269588,0,100.5,,150.3,51,145.4,,0.09,0.06,0.99,-3.0,-0.8,-0.2,1440,0,1,1,0.0,0,38.159134,-122.454353,0.0,0.0,52.7,10,3,1.5,0,0.0,-1,0.0,0.0,0.0,0
245675,1480873269608,,,,,,,,0.08,0.06,1.0,-3.0,-0.7,-0.3,1440,0,,,,,,,,,,,,,,,,,,,
245695,1480873269628,,,,,,,,0.09,0.06,1.0,-3.0,-0.7,-0.3,1440,0,,,,,,,,,,,,,,,,,,,
245715,1480873269648,,,,,,,,0.09,0.05,1.0,-3.0,-0.6,-0.3,1440,0,,,,,,,,,,,,,,,,,,,
245735,1480873269668,,,,,,,,0.09,0.06,1.0,-3.0,-0.6,-0.3,1440,0,,,,,,,,,,,,,,,,,,,
245755,1480873269688,,,,,59,,,0.09,0.06,1.0,-3.0,-0.7,-0.3,1460,0,1,1,0.0,0,38.159134,-122.454353,0.0,0.0,52.7,10,3,1.5,0,0.0,-1,0.0,,0.0,0
245775,1480873269708,,,,,,,,0.1,0.06,0.99,-3.0,-0.7,-0.3,1500,0,,,,,,,,,,,,,,,,,,,
245795,1480873269728,,,,,,,,0.1,0.07,0.99,-3.0,-0.9,-0.3,1500,0,,,,,,,,,,,,,,,,,,,
245815,1480873269748,,,,,,,,0.09,0.07,0.99,-3.1,-1.0,-0.3,1520,0,,,,,,,,,,,,,,,,,,,
245835,1480873269768,,,,,,,,0.1,0.07,0.98,-3.1,-1.2,-0.3,1560,0,,,,,,,,,,,,,,,,,,,
245855,1480873269788,0,101.3,,151.4,51,146.4,,0.1,0.07,0.98,-3.1,-1.1,-0.3,1600,0,1,1,0.0,0,38.159134,-122.454353,0.0,0.0,52.7,10,3,1.5,0,0.0,-1,0.0,0.0,0.0,0
245875,1480873269809,,,,,,,,0.1,0.07,0.98,-3.1,-1.0,-0.3,1580,0,,,,,,,,,,,,,,,,,,,
245895,1480873269829,,,,,,,,0.1,0.07,0.98,-3.1,-1.0,-0.3,1640,0,,,,,,,,,,,,,,,,,,,
245915,1480873269849,,,,,,,,0.1,0.06,0.98,-3.1,-0.9,-0.3,1660,0,,,,,,,,,,,,,,,,,,,
245935,1480873269869,,,,,,,,0.1,0.07,0.98,-3.1,-1.0,-0.2,1680,0,,,,,,,,,,,,,,,,,,,
245955,1480873269889,,,,,61,,,0.1,0.05,0.99,-3.1,-0.9,-0.2,1700,0,1,1,0.0,0,38.159134,-122.454353,0.0,0.0,52.7,10,3,1.5,0,0.0,-1,0.0,,0.0,0
245975,1480873269903,,,,,,,,0.1,0.06,0.99,-3.1,-0.9,-0.2,1760,0,,,,,,,,,,,,,,,,,,,
245995,1480873269923,,,,,,,,0.1,0.06,0.99,-3.1,-0.7,-0.3,1800,0,,,,,,,,,,,,,,,,,,,
246015,1480873269943,,,,,,,,0.11,0.06,0.99,-3.1,-0.8,-0.3,1840,0,,,,,,,,,,,,,,,,,,,
246035,1480873269963,,,,,,,,0.1,0.06,1.0,-3.1,-0.9,-0.3,1880,0,,,,,,,,,,,,,,,,,,,
246055,1480873269983,0,103.7,0.9,152.3,54,146.2,14.78,0.1,0.06,0.99,-3.1,-0.9,-0.3,1920,0,1,1,0.0,0,38.159134,-122.454353,0.0,0.0,52.7,10,3,1.5,0,0.0,-1,0.0,0.0,0.0,0
246075,1480873270108,,,,,,,,0.09,0.06,0.99,-3.1,-1.0,-0.3,1940,0,,,,,,,,,,,,,,,,,,,
246095,1480873270128,,,,,,,,0.09,0.06,0.99,-3.0,-1.0,-0.3,1980,0,,,,,,,,,,,,,,,,,,,
246115,1480873270148,,,,,,,,0.09,0.07,0.99,-3.0,-0.9,-0.3,2040,0,,,,,,,,,,,,,,,,,,,
246135,1480873270168,,,,,,,,0.09,0.06,0.98,-3.0,-0.8,-0.3,2000,0,,,,,,,,,,,,,,,,,,,
246155,1480873270188,,,,,73,,,0.09,0.07,0.98,-3.0,-0.7,-0.4,2060,0,1,1,0.0,0,38.159134,-122.454353,0.0,0.0,52.7,10,3,1.5,0,0.0,-1,0.0,,0.0,0
246175,1480873270208,,,,,,,,0.09,0.07,0.98,-3.1,-0.6,-0.3,2100,0,,,,,,,,,,,,,,,,,,,
246195,1480873270228,,,,,,,,0.09,0.06,0.99,-3.1,-0.4,-0.3,2160,0,,,,,,,,,,,,,,,,,,,
246215,1480873270248,,,,,,,,0.08,0.07,0.99,-3.1,-0.4,-0.2,2180,0,,,,,,,,,,,,,,,,,,,
246235,1480873270268,,,,,,,,0.07,0.06,0.99,-3.0,-0.7,-0.2,2200,0,,,,,,,,,,,,,,,,,,,
246255,1480873270288,0,102.1,,151.8,71,146.5,,0.07,0.06,1.0,-3.0,-1.0,-0.3,2240,0,1,1,0.0,0,38.159134,-122.454353,0.0,0.0,52.7,10,3,1.5,0,0.0,-1,0.0,0.0,0.0,0
246275,1480873270209,,,,,,,,0.07,0.06,0.99,-3.1,-1.0,-0.3,2260,0,,,,,,,,,,,,,,,,,,,
246295,1480873270229,,,,,,,,0.09,0.06,0.98,-3.0,-0.9,-0.3,2280,0,,,,,,,,,,,,,,,,,,,
246315,1480873270249,,,,,,,,0.08,0.06,0.98,-3.1,-0.7,-0.2,2360,0,,,,,,,,,,,,,,,,,,,
246335,1480873270269,,,,,,,,0.08,0.05,0.98,-3.0,-0.8,-0.2,2280,0,,,,,,,,,,,,,,,,,,,
246355,1480873270289,,,,,62,,,0.09,0.04,0.98,-3.1,-0.8,-0.2,2300,0,1,1,0.0,0,38.159134,-122.454353,0.0,0.0,52.7,10,3,1.5,0,0.0,-1,0.0,,0.0,0
246375,1480873270309,,,,,,,,0.08,0.04,0.99,-3.1,-0.8,-0.2,2320,0,,,,,,,,,,,,,,,,,,,
246395,1480873270329,,,,,,,,0.08,0.05,0.98,-3.1,-0.8,-0.2,2340,0,,,,,,,,,,,,,,,,,,,
246415,1480873270349,,,,,,,,0.08,0.05,0.98,-3.1,-0.8,-0.2,2380,0,,,,,,,,,,,,,,,,,,,
246435,1480873270369,,,,,,,,0.08,0.06,0.98,-3.1,-0.9,-0.1,2400,0,,,,,,,,,,,,,,,,,,,
246455,1480873270389,0,100.3,,150.6,73,144.8,,0.08,0.05,0.99,-3.1,-0.9,-0.2,2420,0,1,1,0.0,0,38.159134,-122.454353,0.0,0.0,52.7,10,3,1.5,0,0.0,-1,0.0,0.0,0.0,0
246475,1480873270408,,,,,,,,0.08,0.06,0.99,-3.1,-0.9,-0.2,2400,0,,,,,,,,,,,,,,,,,,,
246495,1480873270428,,,,,,,,0.08,0.06,0.98,-3.1,-1.0,-0.2,2340,0,,,,,,,,,,,,,,,,,,,
246515,1480873270448,,,,,,,,0.08,0.06,0.98,-3.1,-0.8,-0.2,2360,0,,,,,,,,,,,,,,,,,,,
246535,1480873270468,,,,,,,,0.08,0.07,0.98,-3.1,-0.9,-0.1,2380,0,,,,,,,,,,,,,,,,,,,
246555,1480873270488,,,,,59,,,0.09,0.05,0.97,-3.1,-1.0,-0.2,2380,0,1,1,0.0,0,38.159134,-122.454353,0.0,0.0,52.7,10,3,1.5,0,0.0,-1,0.0,,0.0,0
246575,1480873270509,,,,,,,,0.09,0.06,0.97,-3.1,-0.9,-0.2,2320,0,,,,,,,,,,,,,,,,,,,
246595,1480873270529,,,,,,,,0.08,0.07,0.97,-3.1,-1.1,-0.1,2300,0,,,,,,,,,,,,,,,,,,,
246615,1480873270549,,,,,,,,0.09,0.06,0.98,-3.1,-0.9,-0.2,2300,0,,,,,,,,,,,,,,,,,,,
246635,1480873270569,,,,,,,,0.09,0.07,0.98,-3.1,-0.9,-0.2,2280,0,,,,,,,,,,,,,,,,,,,
246655,1480873270589,0,103.2,,151.3,56,146.4,,0.09,0.07,0.97,-3.1,-1.0,-0.1,2260,0,1,1,0.0,0,38.159134,-122.454353,0.0,0.0,52.7,10,3,1.5,0,0.0,-1,0.0,0.0,0.0,0
246675,1480873270608,,,,,,,,0.09,0.06,0.97,-3.0,-0.9,-0.2,2240,0,,,,,,,,,,,,,,,,,,,
246695,1480873270628,,,,,,,,0.09,0.07,0.98,-3.0,-0.9,-0.2,2240,0,,,,,,,,,,,,,,,,,,,
246715,1480873270648,,,,,,,,0.08,0.07,0.98,-3.0,-0.9,-0.2,2220,0,,,,,,,,,,,,,,,,,,,
246735,1480873270668,,,,,,,,0.08,0.07,0.98,-3.0,-0.9,-0.2,2220,0,,,,,,,,,,,,,,,,,,,
246755,1480873270688,,,,,69,,,0.09,0.07,0.98,-3.0,-0.9,-0.2,2200,0,1,1,0.0,0,38.159134,-122.454353,0.0,0.0,52.7,10,3,1.5,0,0.0,-1,0.0,,0.0,0
246775,1480873270708,,,,,,,,0.09,0.06,0.98,-3.0,-0.9,-0.2,2160,0,,,,,,,,,,,,,,,,,,,
246795,1480873270728,,,,,,,,0.08,0.06,0.98,-3.0,-1.0,-0.2,2160,0,,,,,,,,,,,,,,,,,,,
246815,1480873270748,,,,,,,,0.08,0.07,0.98,-3.0,-1.0,-0.2,2140,0,,,,,,,,,,,,,,,,,,,
246835,1480873270768,,,,,,,,0.09,0.07,0.98,-3.0,-1.0,-0.2,2120,0,,,,,,,,,,,,,,,,,,,
246855,1480873270788,0,100.5,,150.9,65,144.7,,0.09,0.07,0.98,-3.0,-0.9,-0.2,2120,0,1,1,0.0,0,38.159134,-122.454353,0.0,0.0,52.7,10,3,1.5,0,0.0,-1,0.0,0.0,0.0,0
246875,1480873270908,,,,,,,,0.09,0.07,0.98,-3.0,-0.8,-0.2,2100,0,,,,,,,,,,,,,,,,,,,
246895,1480873270928,,,,,,,,0.09,0.07,0.99,-3.0,-0.8,-0.2,2020,0,,,,,,,,,,,,,,,,,,,
246915,1480873270948,,,,,,,,0.08,0.07,0.99,-3.0,-0.9,-0.2,2000,0,,,,,,,,,,,,,,,,,,,
246935,1480873270968,,,,,,,,0.09,0.07,0.99,-3.0,-0.9,-0.2,1960,0,,,,,,,,,,,,,,,,,,,
246955,1480873270988,,,,,57,,,0.09,0.07,1.0,-3.0,-1.0,-0.2,2000,0,1,1,0.0,0,38.159134,-122.454353,0.0,0.0,52.7,10,3,1.5,0,0.0,-1,0.0,,0.0,0
246975,1480873271008,,,,,,,,0.09,0.07,1.0,-3.0,-1.1,-0.2,1960,0,,,,,,,,,,,,,,,,,,,
246995,1480873271028,,,,,,,,0.09,0.07,0.99,-3.0,-1.1,-0.2,1900,0,,,,,,,,,,,,,,,,,,,
247015,1480873271048,,,,,,,,0.09,0.07,0.99,-3.0,-1.2,-0.2,1860,0,,,,,,,,,,,,,,,,,,,
247035,1480873271068,,,,,,,,0.08,0.07,0.99,-3.0,-1.1,-0.2,1820,0,,,,,,,,,,,,,,,,,,,
247055,1480873271088,0,100.8,0.0,150.6,63,145.1,14.89,0.09,0.07,0.99,-3.0,-1.0,-0.2,1780,0,1,1,0.0,0,38.159134,-122.454353,0.0,0.0,52.7,10,3,1.5,0,0.0,-1,0.0,0.0,0.0,0
247075,1480873271008,,,,,,,,0.09,0.07,0.98,-3.0,-0.9,-0.3,1780,0,,,,,,,,,,,,,,,,,,,
247095,1480873271028,,,,,,,,0.09,0.07,0.99,-3.0,-0.9,-0.2,1740,0,,,,,,,,,,,,,,,,,,,
247115,1480873271048,,,,,,,,0.09,0.07,0.98,-3.0,-0.9,-0.2,1680,0,,,,,,,,,,,,,,,,,,,
247135,1480873271068,,,,,,,,0.09,0.07,0.98,-3.0,-0.9,-0.2,1640,0,,,,,,,,,,,,,,,,,,,
247155,1480873271088,,,,,60,,,0.09,0.07,0.99,-3.0,-0.9,-0.2,1620,0,1,1,0.0,0,38.159134,-122.454353,0.0,0.0,52.7,10,3,1.5,0,0.0,-1,0.0,,0.0,0
247175,1480873271108,,,,,,,,0.08,0.07,0.99,-3.0,-0.8,-0.2,1580,0,,,,,,,,,,,,,,,,,,,
247195,1480873271128,,,,,,,,0.09,0.07,0.99,-3.1,-0.8,-0.2,1560,0,,,,,,,,,,,,,,,,,,,
247215,1480873271148,,,,,,,,0.09,0.07,0.99,-3.1,-0.9,-0.2,1500,0,,,,,,,,,,,,,,,,,,,
247235,1480873271168,,,,,,,,0.09,0.06,0.99,-3.1,-0.8,-0.2,1480,0,,,,,,,,,,,,,,,,,,,
247255,1480873271188,0,100.3,,150.9,59,145.0,,0.09,0.06,0.99,-3.1,-0.8,-0.2,1440,0,1,1,0.0,0,38.159134,-122.454353,0.0,0.0,52.7,10,3,1.5,0,0.0,-1,0.0,0.0,0.0,0
247275,1480873271208,,,,,,,,0.09,0.06,0.99,-3.0,-0.7,-0.2,1420,0,,,,,,,,,,,,,,,,,,,
247295,1480873271228,,,,,,,,0.09,0.05,0.99,-3.0,-0.7,-0.2,1360,0,,,,,,,,,,,,,,,,,,,
247315,1480873271248,,,,,,,,0.09,0.06,0.99,-3.0,-0.8,-0.2,1340,0,,,,,,,,,,,,,,,,,,,
247335,1480873271268,,,,,,,,0.09,0.05,0.99,-3.0,-0.9,-0.2,1320,0,,,,,,,,,,,,,,,,,,,
247355,1480873271288,,,,,57,,,0.09,0.05,0.99,-3.0,-0.9,-0.2,1300,0,1,1,0.0,0,38.159134,-122.454353,0.0,0.0,52.7,10,3,1.5,0,0.0,-1,0.0,,0.0,0
247375,1480873271308,,,,,,,,0.09,0.06,0.98,-3.0,-0.8,-0.2,1240,0,,,,,,,,,,,,,,,,,,,
247395,1480873271328,,,,,,,,0.09,0.06,0.99,-3.0,-0.8,-0.2,1200,0,,,,,,,,,,,,,,,,,,,
247415,1480873271348,,,,,,,,0.09,0.06,0.99,-3.0,-0.9,-0.2,1180,0,,,,,,,,,,,,,,,,,,,
247435,1480873271368,,,,,,,,0.09,0.06,0.99,-3.0,-0.9,-0.2,1160,0,,,,,,,,,,,,,,,,,,,
247455,1480873271388,0,103.8,,152.6,54,146.1,,0.09,0.06,0.99,-3.0,-0.9,-0.2,1140,0,1,1,0.0,0,38.159134,-122.454353,0.0,0.0,52.7,10,3,1.5,0,0.0,-1,0.0,0.0,0.0,0
247475,1480873271409,,,,,,,,0.09,0.06,0.99,-3.1,-0.9,-0.2,1100,0,,,,,,,,,,,,,,,,,,,
247495,1480873271429,,,,,,,,0.09,0.06,0.99,-3.1,-0.9,-0.2,1040,0,,,,,,,,,,,,,,,,,,,
247515,1480873271449,,,,,,,,0.09,0.06,0.99,-3.0,-0.8,-0.2,1020,0,,,,,,,,,,,,,,,,,,,
247535,1480873271469,,,,,,,,0.09,0.06,0.99,-3.1,-0.8,-0.2,980,0,,,,,,,,,,,,,,,,,,,
247555,1480873271489,,,,,54,,,0.09,0.06,0.99,-3.1,-0.8,-0.2,980,0,1,1,0.0,0,38.159134,-122.454353,0.0,0.0,52.7,10,3,1.5,0,0.0,-1,0.0,,0.0,0
247575,1480873271508,,,,,,,,0.09,0.06,0.99,-3.1,-0.9,-0.2,960,0,,,,,,,,,,,,,,,,,,,
247595,1480873271528,,,,,,,,0.09,0.06,0.99,-3.1,-0.9,-0.2,960,0,,,,,,,,,,,,,,,,,,,
247615,1480873271548,,,,,,,,0.09,0.06,0.99,-3.1,-1.0,-0.2,940,0,,,,,,,,,,,,,,,,,,,
247635,1480873271568,,,,,,,,0.08,0.06,0.99,-3.0,-0.9,-0.2,940,0,,,,,,,,,,,,,,,,,,,
247655,1480873271588,0,102.7,,152.5,51,145.3,,0.09,0.06,0.99,-3.0,-0.9,-0.2,920,0,1,1,0.0,0,38.159134,-122.454353,0.0,0.0,52.7,10,3,1.5,0,0.0,-1,0.0,0.0,0.0,0
247675,1480873271708,,,,,,,,0.09,0.06,0.99,-3.0,-0.8,-0.2,940,0,,,,,,,,,,,,,,,,,,,
247695,1480873271728,,,,,,,,0.09,0.06,0.99,-3.0,-0.8,-0.2,940,0,,,,,,,,,,,,,,,,,,,
247715,1480873271748,,,,,,,,0.09,0.06,0.99,-3.0,-0.9,-0.2,940,0,,,,,,,,,,,,,,,,,,,
247735,1480873271768,,,,,,,,0.09,0.07,0.99,-3.0,-1.0,-0.2,940,0,,,,,,,,,,,,,,,,,,,
247755,1480873271788,,,,,50,,,0.08,0.06,0.99,-3.0,-0.9,-0.2,940,0,1,1,0.0,0,38.159134,-122.454353,0.0,0.0,52.7,10,3,1.5,0,0.0,-1,0.0,,0.0,0
247775,1480873271808,,,,,,,,0.08,0.06,0.99,-3.0,-0.9,-0.2,940,0,,,,,,,,,,,,,,,,,,,
247795,1480873271828,,,,,,,,0.08,0.07,1.0,-3.0,-0.8,-0.2,940,0,,,,,,,,,,,,,,,,,,,
247815,1480873271848,,,,,,,,0.08,0.07,0.99,-3.0,-0.8,-0.2,940,0,,,,,,,,,,,,,,,,,,,
247835,1480873271868,,,,,,,,0.08,0.07,0.99,-3.0,-0.8,-0.2,940,0,,,,,,,,,,,,,,,,,,,
247855,1480873271888,0,104.4,,152.7,53,146.6,,0.08,0.07,0.99,-3.0,-0.8,-0.3,940,0,1,1,0.0,0,38.159134,-122.454353,0.0,0.0,52.7,10,3,1.5,0,0.0,-1,0.0,0.0,0.0,0
247875,1480873271808,,,,,,,,0.08,0.07,0.99,-3.0,-0.8,-0.3,960,0,,,,,,,,,,,,,,,,,,,
247895,1480873271828,,,,,,,,0.09,0.06,0.99,-3.0,-0.8,-0.3,960,0,,,,,,,,,,,,,,,,,,,
247915,1480873271848,,,,,,,,0.09,0.06,0.99,-3.0,-0.7,-0.4,960,0,,,,,,,,,,,,,,,,,,,
247935,1480873271868,,,,,,,,0.09,0.06,0.99,-3.0,-0.6,-0.4,960,0,,,,,,,,,,,,,,,,,,,
247955,1480873271888,,,,,56,,,0.1,0.05,0.99,-3.0,-0.5,-0.4,960,0,1,1,0.0,0,38.159134,-122.454353,0.0,0.0,52.7,10,3,1.5,0,0.0,-1,0.0,,0.0,0
247975,1480873271903,,,,,,,,0.1,0.06,0.99,-3.0,-0.6,-0.3,960,0,,,,,,,,,,,,,,,,,,,
247995,1480873271923,,,,,,,,0.1,0.05,0.99,-3.0,-0.6,-0.3,960,0,,,,,,,,,,,,,,,,,,,
248015,1480873271943,,,,,,,,0.1,0.05,0.99,-3.0,-0.7,-0.3,980,0,,,,,,,,,,,,,,,,,,,
248035,1480873271963,,,,,,,,0.1,0.05,0.99,-3.0,-0.9,-0.3,1000,0,,,,,,,,,,,,,,,,,,,
248055,1480873271983,0,102.4,0.7,151.4,54,146.2,14.89,0.1,0.05,0.99,-3.0,-0.9,-0.2,1000,0,1,1,0.0,0,38.159134,-122.454353,0.0,0.0,52.7,10,3,1.5,0,0.0,-1,0.0,0.0,0.0,0
248075,1480873272009,,,,,,,,0.1,0.05,0.98,-3.0,-1.0,-0.2,1000,0,,,,,,,,,,,,,,,,,,,
248095,1480873272029,,,,,,,,0.1,0.04,0.98,-3.0,-1.1,-0.2,1000,0,,,,,,,,,,,,,,,,,,,
248115,1480873272049,,,,,,,,0.1,0.04,0.99,-3.1,-1.2,-0.2,1000,0,,,,,,,,,,,,,,,,,,,
248135,1480873272069,,,,,,,,0.09,0.04,0.99,-3.0,-1.2,-0.2,1020,0,,,,,,,,,,,,,,,,,,,
248155,1480873272089,,,,,56,,,0.09,0.04,0.99,-3.0,-1.3,-0.2,1040,0,1,1,0.0,0,38.159134,-122.454353,0.0,0.0,52.7,10,3,1.5,0,0.0,-1,0.0,,0.0,0
248175,1480873272109,,,,,,,,0.1,0.03,0.99,-3.0,-1.3,-0.2,1040,0,,,,,,,,,,,,,,,,,,,
248195,1480873272129,,,,,,,,0.1,0.03,0.99,-3.0,-1.4,-0.2,1040,0,,,,,,,,,,,,,,,,,,,
248215,1480873272149,,,,,,,,0.1,0.03,0.99,-3.0,-1.4,-0.2,1040,0,,,,,,,,,,,,,,,,,,,
248235,1480873272169,,,,,,,,0.11,0.03,0.98,-3.0,-1.4,-0.2,1060,0,,,,,,,,,,,,,,,,,,,
248255,1480873272189,0,104.0,,152.4,51,146.7,,0.11,0.03,0.98,-3.0,-1.2,-0.2,1060,0,1,1,0.0,0,38.159134,-122.454353,0.0,0.0,52.7,10,3,1.5,0,0.0,-1,0.0,0.0,0.0,0
248275,1480873272209,,,,,,,,0.11,0.04,0.98,-3.0,-1.0,-0.2,1080,0,,,,,,,,,,,,,,,,,,,
248295,1480873272229,,,,,,,,0.11,0.04,0.98,-3.0,-0.8,-0.2,1080,0,,,,,,,,,,,,,,,,,,,
248315,1480873272249,,,,,,,,0.1,0.04,0.98,-3.0,-0.8,-0.2,1080,0,,,,,,,,,,,,,,,,,,,
248335,1480873272269,,,,,,,,0.1,0.05,0.99,-3.0,-1.0,-0.2,1080,0,,,,,,,,,,,,,,,,,,,
248355,1480873272289,,,,,53,,,0.1,0.05,0.99,-3.0,-1.1,-0.2,1080,0,1,1,0.0,0,38.159134,-122.454353,0.0,0.0,52.7,10,3,1.5,0,0.0,-1,0.0,,0.0,0
248375,1480873272309,,,,,,,,0.1,0.05,0.99,-3.0,-1.0,-0.2,1100,0,,,,,,,,,,,,,,,,,,,
248395,1480873272329,,,,,,,,0.1,0.06,0.98,-3.1,-1.0,-0.2,1100,0,,,,,,,,,,,,,,,,,,,
248415,1480873272349,,,,,,,,0.1,0.05,0.99,-3.0,-0.9,-0.2,1100,0,,,,,,,,,,,,,,,,,,,
248435,1480873272369,,,,,,,,0.1,0.05,1.0,-3.0,-1.0,-0.3,1100,0,,,,,,,,,,,,,,,,,,,
248455,1480873272389,0,102.3,,152.7,58,145.0,,0.1,0.06,0.99,-3.0,-1.1,-0.3,1100,0,1,1,0.0,0,38.159134,-122.454353,0.0,0.0,52.7,10,3,1.5,0,0.0,-1,0.0,0.0,0.0,0
248475,1480873272508,,,,,,,,0.1,0.06,0.99,-3.0,-1.0,-0.3,1100,0,,,,,,,,,,,,,,,,,,,
248495,1480873272528,,,,,,,,0.1,0.05,0.99,-3.0,-0.8,-0.3,1120,0,,,,,,,,,,,,,,,,,,,
248515,1480873272548,,,,,,,,0.1,0.06,0.99,-3.1,-0.8,-0.3,1120,0,,,,,,,,,,,,,,,,,,,
248535,1480873272568,,,,,,,,0.09,0.06,0.99,-3.1,-0.8,-0.3,1120,0,,,,,,,,,,,,,,,,,,,
248555,1480873272588,,,,,58,,,0.1,0.06,0.99,-3.1,-0.9,-0.2,1120,0,1,1,0.0,0,38.159134,-122.454353,0.0,0.0,52.7,10,3,1.5,0,0.0,-1,0.0,,0.0,0
248575,1480873272608,,,,,,,,0.1,0.06,0.99,-3.1,-0.9,-0.2,1120,0,,,,,,,,,,,,,,,,,,,
248595,1480873272628,,,,,,,,0.09,0.06,1.0,-3.0,-0.8,-0.2,1120,0,,,,,,,,,,,,,,,,,,,
248615,1480873272648,,,,,,,,0.09,0.06,1.0,-3.1,-0.9,-0.2,1120,0,,,,,,,,,,,,,,,,,,,
248635,1480873272668,,,,,,,,0.09,0.06,0.99,-3.1,-0.9,-0.2,1120,0,,,,,,,,,,,,,,,,,,,
248655,1480873272688,0,100.6,,151.9,58,144.9,,0.1,0.06,0.99,-3.1,-0.8,-0.2,1140,0,1,1,0.0,0,38.159134,-122.454353,0.0,0.0,52.7,10,3,1.5,0,0.0,-1,0.0,0.0,0.0,0
248675,1480873272608,,,,,,,,0.1,0.07,0.99,-3.1,-0.9,-0.2,1120,0,,,,,,,,,,,,,,,,,,,
248695,1480873272628,,,,,,,,0.1,0.06,0.98,-3.0,-0.9,-0.2,1140,0,,,,,,,,,,,,,,,,,,,
248715,1480873272648,,,,,,,,0.1,0.07,0.98,-3.0,-0.9,-0.3,1140,0,,,,,,,,,,,,,,,,,,,
248735,1480873272668,,,,,,,,0.1,0.06,0.99,-3.1,-0.9,-0.2,1140,0,,,,,,,,,,,,,,,,,,,
248755,1480873272688,,,,,50,,,0.09,0.06,0.99,-3.0,-0.9,-0.3,1140,0,1,1,0.0,0,38.159134,-122.454353,0.0,0.0,52.7,10,3,1.5,0,0.0,-1,0.0,,0.0,0
248775,1480873272708,,,,,,,,0.1,0.06,0.99,-3.0,-0.9,-0.3,1140,0,,,,,,,,,,,,,,,,,,,
248795,1480873272728,,,,,,,,0.1,0.06,0.99,-3.0,-0.8,-0.2,1140,0,,,,,,,,,,,,,,,,,,,
248815,1480873272748,,,,,,,,0.09,0.07,0.99,-3.0,-0.9,-0.2,1140,0,,,,,,,,,,,,,,,,,,,
248835,1480873272768,,,,,,,,0.1,0.07,0.98,-3.0,-1.0,-0.2,1140,0,,,,,,,,,,,,,,,,,,,
248855,1480873272788,0,100.6,,151.8,51,145.4,,0.1,0.07,0.98,-3.0,-0.9,-0.2,1140,0,1,1,0.0,0,38.159134,-122.454353,0.0,0.0,52.7,10,3,1.5,0,0.0,-1,0.0,0.0,0.0,0
248875,1480873272809,,,,,,,,0.09,0.06,0.99,-3.0,-0.9,-0.2,1140,0,,,,,,,,,,,,,,,,,,,
248895,1480873272829,,,,,,,,0.09,0.06,0.99,-3.0,-1.0,-0.2,1140,0,,,,,,,,,,,,,,,,,,,
248915,1480873272849,,,,,,,,0.09,0.06,0.99,-3.0,-0.9,-0.2,1140,0,,,,,,,,,,,,,,,,,,,
248935,1480873272869,,,,,,,,0.09,0.06,0.99,-3.0,-0.8,-0.2,1140,0,,,,,,,,,,,,,,,,,,,
248955,1480873272889,,,,,56,,,0.09,0.06,0.98,-3.0,-0.8,-0.2,1140,0,1,1,0.0,0,38.159134,-122.454353,0.0,0.0,52.7,10,3,1.5,0,0.0,-1,0.0,,0.0,0
248975,1480873272903,,,,,,,,0.1,0.06,0.98,-3.0,-0.9,-0.2,1140,0,,,,,,,,,,,,,,,,,,,
248995,1480873272923,,,,,,,,0.09,0.06,0.99,-3.0,-0.9,-0.2,1140,0,,,,,,,,,,,,,,,,,,,
249015,1480873272943,,,,,,,,0.09,0.06,0.99,-3.0,-0.9,-0.2,1140,0,,,,,,,,,,,,,,,,,,,
249035,1480873272963,,,,,,,,0.09,0.06,0.99,-3.0,-0.9,-0.3,1140,0,,,,,,,,,,,,,,,,,,,
249055,1480873272983,0,104.4,1.0,153.2,55,146.6,14.86,0.09,0.06,0.99,-3.0,-0.8,-0.3,1140,0,1,1,0.0,0,38.159134,-122.454353,0.0,0.0,52.7,10,3,1.5,0,0.0,-1,0.0,0.0,0.0,0
249075,1480873273009,,,,,,,,0.09,0.07,0.99,-3.0,-0.8,-0.2,1140,0,,,,,,,,,,,,,,,,,,,
249095,1480873273029,,,,,,,,0.1,0.06,0.99,-3.0,-0.8,-0.2,1140,0,,,,,,,,,,,,,,,,,,,
249115,1480873273049,,,,,,,,0.1,0.06,0.98,-3.0,-0.8,-0.3,1140,0,,,,,,,,,,,,,,,,,,,
249135,1480873273069,,,,,,,,0.1,0.06,0.99,-3.0,-0.7,-0.3,1140,0,,,,,,,,,,,,,,,,,,,
249155,1480873273089,,,,,55,,,0.09,0.06,0.99,-3.0,-0.8,-0.3,1140,0,1,1,0.0,0,38.159134,-122.454353,0.0,0.0,52.7,10,3,1.5,0,0.0,-1,0.0,,0.0,0
249175,1480873273109,,,,,,,,0.09,0.06,0.99,-3.0,-0.8,-0.3,1140,0,,,,,,,,,,,,,,,,,,,
249195,1480873273129,,,,,,,,0.09,0.06,0.99,-3.1,-0.8,-0.3,1140,0,,,,,,,,,,,,,,,,,,,
249215,1480873273149,,,,,,,,0.09,0.07,0.99,-3.1,-0.8,-0.2,1160,0,,,,,,,,,,,,,,,,,,,
249235,1480873273169,,,,,,,,0.09,0.07,0.98,-3.1,-0.8,-0.2,1160,0,,,,,,,,,,,,,,,,,,,
249255,1480873273189,0,103.0,,151.6,51,145.9,,0.1,0.06,0.99,-3.1,-0.7,-0.2,1160,0,1,1,0.0,0,38.159134,-122.454353,0.0,0.0,52.7,10,3,1.5,0,0.0,-1,0.0,0.0,0.0,0
249275,1480873273308,,,,,,,,0.09,0.07,0.99,-3.1,-0.8,-0.2,1160,0,,,,,,,,,,,,,,,,,,,
249295,1480873273328,,,,,,,,0.09,0.07,0.99,-3.1,-0.9,-0.2,1140,0,,,,,,,,,,,,,,,,,,,
249315,1480873273348,,,,,,,,0.09,0.07,0.99,-3.1,-0.8,-0.2,1160,0,,,,,,,,,,,,,,,,,,,
249335,1480873273368,,,,,,,,0.09,0.07,0.98,-3.1,-0.9,-0.2,1140,0,,,,,,,,,,,,,,,,,,,
249355,1480873273388,,,,,57,,,0.09,0.07,0.98,-3.1,-0.9,-0.2,1140,0,1,1,0.0,0,38.159134,-122.454353,0.0,0.0,52.7,10,3,1.5,0,0.0,-1,0.0,,0.0,0
249375,1480873273408,,,,,,,,0.09,0.07,0.98,-3.1,-0.9,-0.2,1140,0,,,,,,,,,,,,,,,,,,,
249395,1480873273428,,,,,,,,0.09,0.06,0.99,-3.1,-0.9,-0.2,1140,0,,,,,,,,,,,,,,,,,,,
249415,1480873273448,,,,,,,,0.09,0.06,0.98,-3.1,-1.0,-0.3,1140,0,,,,,,,,,,,,,,,,,,,
249435,1480873273468,,,,,,,,0.09,0.06,0.99,-3.1,-1.0,-0.3,1160,0,,,,,,,,,,,,,,,,,,,
249455,1480873273488,0,103.8,,153.3,53,147.1,,0.09,0.07,0.99,-3.1,-0.9,-0.2,1160,0,1,1,0.0,0,38.159134,-122.454353,0.0,0.0,52.7,10,3,1.5,0,0.0,-1,0.0,0.0,0.0,0
249475,1480873273408,,,,,,,,0.09,0.07,0.99,-3.1,-0.9,-0.2,1160,0,,,,,,,,,,,,,,,,,,,
249495,1480873273428,,,,,,,,0.09,0.07,0.98,-3.1,-1.0,-0.2,1140,0,,,,,,,,,,,,,,,,,,,
249515,1480873273448,,,,,,,,0.09,0.06,0.99,-3.1,-1.0,-0.3,1140,0,,,,,,,,,,,,,,,,,,,
249535,1480873273468,,,,,,,,0.09,0.06,0.99,-3.1,-1.0,-0.3,1160,0,,,,,,,,,,,,,,,,,,,
249555,1480873273488,,,,,58,,,0.09,0.06,0.99,-3.1,-1.0,-0.3,1160,0,1,1,0.0,0,38.159134,-122.454353,0.0,0.0,52.7,10,3,1.5,0,0.0,-1,0.0,,0.0,0
249575,1480873273509,,,,,,,,0.09,0.06,0.99,-3.1,-1.0,-0.3,1140,0,,,,,,,,,,,,,,,,,,,
249595,1480873273529,,,,,,,,0.09,0.07,0.99,-3.0,-0.9,-0.3,1140,0,,,,,,,,,,,,,,,,,,,
249615,1480873273549,,,,,,,,0.09,0.06,0.98,-3.0,-0.9,-0.3,1140,0,,,,,,,,,,,,,,,,,,,
249635,1480873273569,,,,,,,,0.09,0.06,0.98,-3.0,-0.8,-0.3,1140,0,,,,,,,,,,,,,,,,,,,
249655,1480873273589,0,102.1,,152.8,53,146.6,,0.09,0.06,0.99,-3.0,-0.8,-0.2,1140,0,1,1,0.0,0,38.159134,-122.454353,0.0,0.0,52.7,10,3,1.5,0,0.0,-1,0.0,0.0,0.0,0
249675,1480873273609,,,,,,,,0.09,0.06,0.99,-3.0,-0.9,-0.3,1140,0,,,,,,,,,,,,,,,,,,,
249695,1480873273629,,,,,,,,0.09,0.06,0.99,-3.0,-0.8,-0.3,1140,0,,,,,,,,,,,,,,,,,,,
249715,1480873273649,,,,,,,,0.09,0.07,0.98,-3.0,-0.9,-0.3,1140,0,,,,,,,,,,,,,,,,,,,
249735,1480873273669,,,,,,,,0.09,0.06,0.99,-3.0,-0.9,-0.2,1140,0,,,,,,,,,,,,,,,,,,,
249755,1480873273689,,,,,59,,,0.09,0.07,0.98,-3.1,-0.9,-0.3,1140,0,1,1,0.0,0,38.159134,-122.454353,0.0,0.0,52.7,10,3,1.5,0,0.0,-1,0.0,,0.0,0
249775,1480873273708,,,,,,,,0.09,0.06,0.99,-3.1,-0.8,-0.2,1140,0,,,,,,,,,,,,,,,,,,,
249795,1480873273728,,,,,,,,0.09,0.06,0.99,-3.1,-0.9,-0.2,1140,0,,,,,,,,,,,,,,,,,,,
249815,1480873273748,,,,,,,,0.09,0.06,0.99,-3.1,-0.9,-0.2,1140,0,,,,,,,,,,,,,,,,,,,
249835,1480873273768,,,,,,,,0.09,0.06,0.98,-3.1,-0.9,-0.2,1140,0,,,,,,,,,,,,,,,,,,,
249855,1480873273788,0,104.7,,153.4,54,147.5,,0.09,0.07,0.98,-3.1,-0.9,-0.2,1140,0,1,1,0.0,0,38.159134,-122.454353,0.0,0.0,52.7,10,3,1.5,0,0.0,-1,0.0,0.0,0.0,0
249875,1480873273809,,,,,,,,0.09,0.07,0.98,-3.1,-0.9,-0.2,1140,0,,,,,,,,,,,,,,,,,,,
249895,1480873273829,,,,,,,,0.09,0.07,0.98,-3.1,-0.9,-0.2,1140,0,,,,,,,,,,,,,,,,,,,
249915,1480873273849,,,,,,,,0.09,0.07,0.99,-3.1,-0.9,-0.2,1140,0,,,,,,,,,,,,,,,,,,,
249935,1480873273869,,,,,,,,0.09,0.06,0.99,-3.1,-0.9,-0.3,1140,0,,,,,,,,,,,,,,,,,,,
249955,1480873273889,,,,,52,,,0.09,0.07,0.99,-3.1,-0.9,-0.3,1140,0,1,1,0.0,0,38.159134,-122.454353,0.0,0.0,52.7,10,3,1.5,0,0.0,-1,0.0,,0.0,0
249975,1480873273903,,,,,,,,0.09,0.07,0.99,-3.1,-0.9,-0.2,1140,0,,,,,,,,,,,,,,,,,,,
249995,1480873273923,,,,,,,,0.09,0.07,0.99,-3.1,-0.9,-0.2,1140,0,,,,,,,,,,,,,,,,,,,
250015,1480873273943,,,,,,,,0.09,0.07,0.98,-3.1,-0.9,-0.2,1140,0,,,,,,,,,,,,,,,,,,,
250035,1480873273963,,,,,,,,0.09,0.07,0.99,-3.1,-1.0,-0.2,1140,0,,,,,,,,,,,,,,,,,,,
250055,1480873273983,0,100.8,0.1,151.5,55,145.3,14.88,0.09,0.07,0.99,-3.1,-1.0,-0.2,1140,0,1,1,0.0,0,38.159134,-122.454353,0.0,0.0,52.7,10,3,1.5,0,0.0,-1,0.0,0.0,0.0,0
250075,1480873274107,,,,,,,,0.09,0.07,0.99,-3.1,-1.0,-0.3,1160,0,,,,,,,,,,,,,,,,,,,
250095,1480873274127,,,,,,,,0.09,0.06,0.99,-3.1,-0.9,-0.3,1140,0,,,,,,,,,,,,,,,,,,,
250115,1480873274147,,,,,,,,0.09,0.07,0.99,-3.1,-0.9,-0.2,1140,0,,,,,,,,,,,,,,,,,,,
250135,1480873274167,,,,,,,,0.09,0.07,0.99,-3.1,-0.8,-0.2,1160,0,,,,,,,,,,,,,,,,,,,
250155,1480873274187,,,,,52,,,0.09,0.07,0.99,-3.1,-0.8,-0.3,1160,0,1,1,0.0,0,38.159134,-122.454353,0.0,0.0,52.7,10,3,1.5,0,0.0,-1,0.0,,0.0,0
250175,1480873274207,,,,,,,,0.09,0.06,0.99,-3.1,-0.8,-0.3,1160,0,,,,,,,,,,,,,,,,,,,
250195,1480873274227,,,,,,,,0.09,0.06,0.99,-3.0,-0.9,-0.3,1160,0,,,,,,,,,,,,,,,,,,,
250215,1480873274247,,,,,,,,0.09,0.06,0.99,-3.0,-0.8,-0.3,1140,0,,,,,,,,,,,,,,,,,,,
250235,1480873274267,,,,,,,,0.09,0.06,0.99,-3.0,-0.9,-0.2,1140,0,,,,,,,,,,,,,,,,,,,
250255,1480873274287,0,102.9,,153.3,54,146.9,,0.1,0.06,0.98,-3.0,-0.9,-0.2,1140,0,1,1,0.0,0,38.159134,-122.454353,0.0,0.0,52.7,10,3,1.5,0,0.0,-1,0.0,0.0,0.0,0
250275,1480873274206,,,,,,,,0.09,0.07,0.98,-3.0,-0.9,-0.2,1140,0,,,,,,,,,,,,,,,,,,,
250295,1480873274226,,,,,,,,0.09,0.06,0.98,-3.0,-0.9,-0.2,1140,0,,,,,,,,,,,,,,,,,,,
250315,1480873274246,,,,,,,,0.09,0.06,0.98,-3.0,-1.0,-0.2,1140,0,,,,,,,,,,,,,,,,,,,
250335,1480873274266,,,,,,,,0.09,0.06,0.98,-3.0,-1.0,-0.2,1140,0,,,,,,,,,,,,,,,,,,,
250355,1480873274286,,,,,52,,,0.09,0.07,0.98,-3.0,-0.9,-0.2,1140,0,1,1,0.0,0,38.159134,-122.454353,0.0,0.0,52.7,10,3,1.5,0,0.0,-1,0.0,,0.0,0
250375,1480873274308,,,,,,,,0.09,0.07,0.98,-3.0,-0.9,-0.2,1140,0,,,,,,,,,,,,,,,,,,,
250395,1480873274328,,,,,,,,0.09,0.07,0.98,-3.0,-0.9,-0.3,1140,0,,,,,,,,,,,,,,,,,,,
250415,1480873274348,,,,,,,,0.09,0.06,0.98,-3.0,-0.9,-0.3,1140,0,,,,,,,,,,,,,,,,,,,
250435,1480873274368,,,,,,,,0.09,0.06,0.99,-3.0,-0.9,-0.3,1140,0,,,,,,,,,,,,,,,,,,,
250455,1480873274388,0,102.9,,153.4,52,147.1,,0.09,0.06,0.99,-3.0,-0.9,-0.3,1140,0,1,1,0.0,0,38.159134,-122.454353,0.0,0.0,52.7,10,3,1.5,0,0.0,-1,0.0,0.0,0.0,0
250475,1480873274408,,,,,,,,0.09,0.06,0.99,-3.0,-0.9,-0.3,1160,0,,,,,,,,,,,,,,,,,,,
250495,1480873274428,,,,,,,,0.09,0.07,0.98,-3.0,-0.8,-0.3,1140,0,,,,,,,,,,,,,,,,,,,
250515,1480873274448,,,,,,,,0.09,0.06,0.98,-3.0,-0.8,-0.3,1140,0,,,,,,,,,,,,,,,,,,,
250535,1480873274468,,,,,,,,0.09,0.07,0.98,-3.0,-0.8,-0.3,1140,0,,,,,,,,,,,,,,,,,,,
250555,1480873274488,,,,,56,,,0.09,0.06,0.99,-3.0,-0.8,-0.3,1140,0,1,1,0.0,0,38.159134,-122.454353,0.0,0.0,52.7,10,3,1.5,0,0.0,-1,0.0,,0.0,0
250575,1480873274508,,,,,,,,0.09,0.06,0.99,-3.0,-0.9,-0.3,1160,0,,,,,,,,,,,,,,,,,,,
250595,1480873274528,,,,,,,,0.09,0.06,0.99,-3.0,-0.9,-0.3,1160,0,,,,,,,,,,,,,,,,,,,
250615,1480873274548,,,,,,,,0.09,0.07,0.99,-3.1,-0.9,-0.3,1140,0,,,,,,,,,,,,,,,,,,,
250635,1480873274568,,,,,,,,0.09,0.06,0.99,-3.1,-0.8,-0.3,1140,0,,,,,,,,,,,,,,,,,,,
250655,1480873274588,0,100.6,,151.5,52,145.3,,0.09,0.06,0.99,-3.1,-0.8,-0.3,1140,0,1,1,0.0,0,38.159134,-122.454353,0.0,0.0,52.7,10,3,1.5,0,0.0,-1,0.0,0.0,0.0,0
250675,1480873274608,,,,,,,,0.1,0.06,0.99,-3.1,-0.7,-0.3,1140,0,,,,,,,,,,,,,,,,,,,
250695,1480873274628,,,,,,,,0.09,0.06,0.99,-3.1,-0.8,-0.2,1140,0,,,,,,,,,,,,,,,,,,,
250715,1480873274648,,,,,,,,0.09,0.06,0.99,-3.1,-0.9,-0.2,1140,0,,,,,,,,,,,,,,,,,,,
250735,1480873274668,,,,,,,,0.09,0.06,0.99,-3.1,-0.8,-0.2,1140,0,,,,,,,,,,,,,,,,,,,
250755,1480873274688,,,,,56,,,0.09,0.07,0.98,-3.1,-0.9,-0.2,1140,0,1,1,0.0,0,38.159134,-122.454353,0.0,0.0,52.7,10,3,1.5,0,0.0,-1,0.0,,0.0,0
250775,1480873274708,,,,,,,,0.1,0.07,0.98,-3.1,-0.9,-0.2,1160,0,,,,,,,,,,,,,,,,,,,
250795,1480873274728,,,,,,,,0.09,0.07,0.98,-3.1,-0.9,-0.2,1160,0,,,,,,,,,,,,,,,,,,,
250815,1480873274748,,,,,,,,0.09,0.07,0.98,-3.1,-0.9,-0.2,1160,0,,,,,,,,,,,,,,,,,,,
250835,1480873274768,,,,,,,,0.09,0.07,0.98,-3.0,-1.0,-0.2,1160,0,,,,,,,,,,,,,,,,,,,
250855,1480873274788,0,103.8,,153.1,53,147.0,,0.09,0.06,0.99,-3.0,-0.9,-0.2,1160,0,1,1,0.0,0,38.159134,-122.454353,0.0,0.0,52.7,10,3,1.5,0,0.0,-1,0.0,0.0,0.0,0
250875,1480873274907,,,,,,,,0.09,0.07,0.99,-3.0,-0.9,-0.2,1160,0,,,,,,,,,,,,,,,,,,,
250895,1480873274927,,,,,,,,0.09,0.07,0.99,-3.1,-0.9,-0.2,1160,0,,,,,,,,,,,,,,,,,,,
250915,1480873274947,,,,,,,,0.1,0.07,0.98,-3.0,-0.8,-0.2,1160,0,,,,,,,,,,,,,,,,,,,
250935,1480873274967,,,,,,,,0.09,0.07,0.98,-3.0,-0.9,-0.2,1160,0,,,,,,,,,,,,,,,,,,,
250955,1480873274987,,,,,52,,,0.09,0.06,0.98,-3.0,-1.0,-0.2,1160,0,1,1,0.0,0,38.159134,-122.454353,0.0,0.0,52.7,10,3,1.5,0,0.0,-1,0.0,,0.0,0
250975,1480873275007,,,,,,,,0.09,0.06,0.98,-3.1,-0.9,-0.2,1160,0,,,,,,,,,,,,,,,,,,,
250995,1480873275027,,,,,,,,0.09,0.08,0.98,-3.1,-1.0,-0.2,1160,0,,,,,,,,,,,,,,,,,,,
251015,1480873275047,,,,,,,,0.09,0.07,0.98,-3.1,-1.0,-0.2,1160,0,,,,,,,,,,,,,,,,,,,
251035,1480873275067,,,,,,,,0.09,0.07,0.98,-3.1,-1.0,-0.2,1160,0,,,,,,,,,,,,,,,,,,,
251055,1480873275087,0,101.4,0.2,151.7,58,145.6,14.88,0.09,0.07,0.99,-3.0,-0.9,-0.2,1160,0,1,1,0.0,0,38.159134,-122.454353,0.0,0.0,52.7,10,3,1.5,0,0.0,-1,0.0,0.0,0.0,0
251075,1480873275008,,,,,,,,0.09,0.07,0.99,-3.0,-1.0,-0.2,1160,0,,,,,,,,,,,,,,,,,,,
251095,1480873275028,,,,,,,,0.09,0.07,0.99,-3.0,-0.9,-0.2,1160,0,,,,,,,,,,,,,,,,,,,
251115,1480873275048,,,,,,,,0.09,0.07,0.99,-3.0,-0.9,-0.2,1160,0,,,,,,,,,,,,,,,,,,,
251135,1480873275068,,,,,,,,0.09,0.07,0.99,-3.0,-0.8,-0.2,1160,0,,,,,,,,,,,,,,,,,,,
251155,1480873275088,,,,,59,,,0.09,0.07,0.99,-3.0,-0.8,-0.2,1160,0,1,1,0.0,0,38.159134,-122.454353,0.0,0.0,52.7,10,3,1.5,0,0.0,-1,0.0,,0.0,0
251175,1480873275107,,,,,,,,0.09,0.07,0.99,-3.1,-0.8,-0.2,1160,0,,,,,,,,,,,,,,,,,,,
251195,1480873275127,,,,,,,,0.09,0.06,0.98,-3.1,-0.9,-0.2,1160,0,,,,,,,,,,,,,,,,,,,
251215,1480873275147,,,,,,,,0.09,0.06,0.99,-3.1,-0.8,-0.2,1160,0,,,,,,,,,,,,,,,,,,,
251235,1480873275167,,,,,,,,0.09,0.07,0.98,-3.1,-0.9,-0.2,1140,0,,,,,,,,,,,,,,,,,,,
251255,1480873275187,0,104.5,,153.5,52,146.9,,0.09,0.06,0.98,-3.1,-0.9,-0.2,1140,0,1,1,0.0,0,38.159134,-122.454353,0.0,0.0,52.7,10,3,1.5,0,0.0,-1,0.0,0.0,0.0,0
251275,1480873275206,,,,,,,,0.09,0.06,0.98,-3.1,-0.8,-0.2,1140,0,,,,,,,,,,,,,,,,,,,
251295,1480873275226,,,,,,,,0.09,0.06,0.98,-3.1,-0.8,-0.2,1160,0,,,,,,,,,,,,,,,,,,,
251315,1480873275246,,,,,,,,0.09,0.06,0.98,-3.1,-0.8,-0.3,1160,0,,,,,,,,,,,,,,,,,,,
251335,1480873275266,,,,,,,,0.09,0.06,0.99,-3.1,-0.8,-0.3,1140,0,,,,,,,,,,,,,,,,,,,
251355,1480873275286,,,,,59,,,0.09,0.07,0.99,-3.1,-0.8,-0.2,1160,0,1,1,0.0,0,38.159134,-122.454353,0.0,0.0,52.7,10,3,1.5,0,0.0,-1,0.0,,0.0,0
251375,1480873275308,,,,,,,,0.09,0.06,0.98,-3.1,-0.7,-0.3,1140,0,,,,,,,,,,,,,,,,,,,
251395,1480873275328,,,,,,,,0.09,0.06,0.98,-3.1,-0.7,-0.2,1160,0,,,,,,,,,,,,,,,,,,,
251415,1480873275348,,,,,,,,0.1,0.06,0.98,-3.1,-0.8,-0.2,1160,0,,,,,,,,,,,,,,,,,,,
251435,1480873275368,,,,,,,,0.09,0.06,0.98,-3.0,-0.8,-0.3,1160,0,,,,,,,,,,,,,,,,,,,
251455,1480873275388,0,100.5,,152.2,55,147.3,,0.09,0.06,0.98,-3.1,-0.8,-0.2,1160,0,1,1,0.0,0,38.159134,-122.454353,0.0,0.0,52.7,10,3,1.5,0,0.0,-1,0.0,0.0,0.0,0
251475,1480873275408,,,,,,,,0.09,0.07,0.98,-3.1,-0.9,-0.2,1160,0,,,,,,,,,,,,,,,,,,,
251495,1480873275428,,,,,,,,0.1,0.06,0.98,-3.1,-0.9,-0.2,1160,0,,,,,,,,,,,,,,,,,,,
251515,1480873275448,,,,,,,,0.1,0.07,0.98,-3.1,-0.9,-0.2,1160,0,,,,,,,,,,,,,,,,,,,
251535,1480873275468,,,,,,,,0.1,0.07,0.98,-3.1,-0.9,-0.2,1160,0,,,,,,,,,,,,,,,,,,,
251555,1480873275488,,,,,50,,,0.1,0.07,0.98,-3.1,-0.9,-0.3,1160,0,1,1,0.0,0,38.159134,-122.454353,0.0,0.0,52.7,10,3,1.5,0,0.0,-1,0.0,,0.0,0
251575,1480873275508,,,,,,,,0.09,0.06,0.99,-3.1,-0.9,-0.3,1160,0,,,,,,,,,,,,,,,,,,,
251595,1480873275528,,,,,,,,0.09,0.07,0.98,-3.1,-0.9,-0.2,1160,0,,,,,,,,,,,,,,,,,,,
251615,1480873275548,,,,,,,,0.09,0.06,0.99,-3.1,-0.9,-0.2,1160,0,,,,,,,,,,,,,,,,,,,
251635,1480873275568,,,,,,,,0.1,0.06,0.98,-3.1,-0.9,-0.2,1160,0,,,,,,,,,,,,,,,,,,,
251655,1480873275588,0,101.1,,152.6,51,147.5,,0.09,0.06,0.98,-3.1,-0.9,-0.2,1160,0,1,1,0.0,0,38.159134,-122.454353,0.0,0.0,52.7,10,3,1.5,0,0.0,-1,0.0,0.0,0.0,0
251675,1480873275707,,,,,,,,0.09,0.06,0.98,-3.1,-0.9,-0.2,1160,0,,,,,,,,,,,,,,,,,,,
251695,1480873275727,,,,,,,,0.09,0.06,0.98,-3.1,-0.9,-0.2,1160,0,,,,,,,,,,,,,,,,,,,
251715,1480873275747,,,,,,,,0.09,0.07,0.98,-3.1,-0.9,-0.2,1160,0,,,,,,,,,,,,,,,,,,,
251735,1480873275767,,,,,,,,0.09,0.07,0.98,-3.1,-0.9,-0.2,1160,0,,,,,,,,,,,,,,,,,,,
251755,1480873275787,,,,,56,,,0.09,0.07,0.98,-3.0,-0.9,-0.2,1160,0,1,1,0.0,0,38.159134,-122.454353,0.0,0.0,52.7,10,3,1.5,0,0.0,-1,0.0,,0.0,0
251775,1480873275807,,,,,,,,0.09,0.06,0.99,-3.0,-0.9,-0.2,1160,0,,,,,,,,,,,,,,,,,,,
251795,1480873275827,,,,,,,,0.09,0.06,0.99,-3.0,-0.9,-0.3,1180,0,,,,,,,,,,,,,,,,,,,
251815,1480873275847,,,,,,,,0.09,0.06,0.99,-3.0,-0.9,-0.2,1180,0,,,,,,,,,,,,,,,,,,,
251835,1480873275867,,,,,,,,0.09,0.07,0.99,-3.0,-0.8,-0.2,1160,0,,,,,,,,,,,,,,,,,,,
251855,1480873275887,0,100.6,,152.3,54,147.3,,0.09,0.07,0.99,-3.0,-0.7,-0.2,1160,0,1,1,0.0,0,38.159134,-122.454353,0.0,0.0,52.7,10,3,1.5,0,0.0,-1,0.0,0.0,0.0,0
251875,1480873275808,,,,,,,,0.09,0.07,0.99,-3.0,-0.7,-0.2,1160,0,,,,,,,,,,,,,,,,,,,
251895,1480873275828,,,,,,,,0.09,0.07,0.99,-3.0,-0.7,-0.2,1160,0,,,,,,,,,,,,,,,,,,,
251915,1480873275848,,,,,,,,0.09,0.07,0.98,-3.0,-0.8,-0.3,1160,0,,,,,,,,,,,,,,,,,,,
251935,1480873275868,,,,,,,,0.09,0.06,0.98,-3.0,-0.7,-0.2,1160,0,,,,,,,,,,,,,,,,,,,
251955,1480873275888,,,,,50,,,0.09,0.07,0.98,-3.0,-0.8,-0.2,1160,0,1,1,0.0,0,38.159134,-122.454353,0.0,0.0,52.7,10,3,1.5,0,0.0,-1,0.0,,0.0,0
251975,1480873275901,,,,,,,,0.09,0.07,0.98,-3.0,-0.8,-0.2,1160,0,,,,,,,,,,,,,,,,,,,
251995,1480873275921,,,,,,,,0.09,0.07,0.98,-3.0,-0.8,-0.2,1160,0,,,,,,,,,,,,,,,,,,,
252015,1480873275941,,,,,,,,0.09,0.07,0.99,-3.0,-0.8,-0.2,1160,0,,,,,,,,,,,,,,,,,,,
252035,1480873275961,,,,,,,,0.09,0.06,0.99,-3.0,-0.9,-0.3,1160,0,,,,,,,,,,,,,,,,,,,
252055,1480873275981,0,102.0,0.5,153.3,52,148.2,14.81,0.09,0.07,0.99,-3.1,-0.8,-0.3,1160,0,1,1,0.0,0,38.159134,-122.454353,0.0,0.0,52.7,10,3,1.5,0,0.0,-1,0.0,0.0,0.0,0
252075,1480873276007,,,,,,,,0.09,0.07,0.99,-3.1,-0.8,-0.2,1160,0,,,,,,,,,,,,,,,,,,,
252095,1480873276027,,,,,,,,0.09,0.06,0.98,-3.1,-0.7,-0.2,1160,0,,,,,,,,,,,,,,,,,,,
252115,1480873276047,,,,,,,,0.09,0.06,0.99,-3.1,-0.7,-0.2,1160,0,,,,,,,,,,,,,,,,,,,
252135,1480873276067,,,,,,,,0.09,0.07,0.99,-3.1,-0.7,-0.2,1160,0,,,,,,,,,,,,,,,,,,,
252155,1480873276087,,,,,53,,,0.09,0.06,0.98,-3.1,-0.8,-0.2,1160,0,1,1,0.0,0,38.159134,-122.454353,0.0,0.0,52.7,10,3,1.5,0,0.0,-1,0.0,,0.0,0
252175,1480873276107,,,,,,,,0.09,0.06,0.98,-3.1,-0.8,-0.2,1160,0,,,,,,,,,,,,,,,,,,,
252195,1480873276127,,,,,,,,0.09,0.07,0.98,-3.1,-0.8,-0.2,1160,0,,,,,,,,,,,,,,,,,,,
252215,1480873276147,,,,,,,,0.1,0.07,0.98,-3.1,-0.9,-0.2,1160,0,,,,,,,,,,,,,,,,,,,
252235,1480873276167,,,,,,,,0.1,0.07,0.98,-3.1,-0.9,-0.2,1160,0,,,,,,,,,,,,,,,,,,,
252255,1480873276187,0,104.4,,153.5,59,146.8,,0.09,0.07,0.98,-3.0,-0.9,-0.2,1160,0,1,1,0.0,0,38.159134,-122.454353,0.0,0.0,52.7,10,3,1.5,0,0.0,-1,0.0,0.0,0.0,0
252275,1480873276208,,,,,,,,0.1,0.06,0.99,-3.0,-0.9,-0.3,1160,0,,,,,,,,,,,,,,,,,,,
252295,1480873276228,,,,,,,,0.09,0.06,0.99,-3.0,-0.9,-0.2,1160,0,,,,,,,,,,,,,,,,,,,
252315,1480873276248,,,,,,,,0.09,0.07,0.99,-3.0,-0.9,-0.2,1160,0,,,,,,,,,,,,,,,,,,,
252335,1480873276268,,,,,,,,0.1,0.06,0.99,-3.0,-0.8,-0.2,1160,0,,,,,,,,,,,,,,,,,,,
252355,1480873276288,,,,,59,,,0.1,0.06,0.99,-3.0,-0.8,-0.2,1160,0,1,1,0.0,0,38.159134,-122.454353,0.0,0.0,52.7,10,3,1.5,0,0.0,-1,0.0,,0.0,0
252375,1480873276308,,,,,,,,0.09,0.06,0.99,-3.0,-0.9,-0.2,1160,0,,,,,,,,,,,,,,,,,,,
252395,1480873276328,,,,,,,,0.09,0.06,0.99,-3.0,-0.9,-0.2,1160,0,,,,,,,,,,,,,,,,,,,
252415,1480873276348,,,,,,,,0.1,0.07,0.98,-3.0,-0.8,-0.2,1180,0,,,,,,,,,,,,,,,,,,,
252435,1480873276368,,,,,,,,0.1,0.06,0.98,-3.0,-0.8,-0.2,1180,0,,,,,,,,,,,,,,,,,,,
252455,1480873276388,0,102.4,,153.4,56,147.9,,0.1,0.06,0.98,-3.0,-0.8,-0.2,1180,0,1,1,0.0,0,38.159134,-122.454353,0.0,0.0,52.7,10,3,1.5,0,0.0,-1,0.0,0.0,0.0,0
252475,1480873276507,,,,,,,,0.1,0.06,0.99,-3.0,-0.8,-0.2,1180,0,,,,,,,,,,,,,,,,,,,
252495,1480873276527,,,,,,,,0.09,0.06,0.98,-3.0,-0.9,-0.2,1160,0,,,,,,,,,,,,,,,,,,,
252515,1480873276547,,,,,,,,0.09,0.06,0.98,-3.0,-0.8,-0.2,1160,0,,,,,,,,,,,,,,,,,,,
252535,1480873276567,,,,,,,,0.09,0.07,0.98,-3.0,-0.9,-0.2,1180,0,,,,,,,,,,,,,,,,,,,
252555,1480873276587,,,,,59,,,0.09,0.06,0.98,-3.0,-0.9,-0.2,1180,0,1,1,0.0,0,38.159134,-122.454353,0.0,0.0,52.7,10,3,1.5,0,0.0,-1,0.0,,0.0,0
252575,1480873276607,,,,,,,,0.09,0.06,0.98,-3.0,-0.9,-0.2,1180,0,,,,,,,,,,,,,,,,,,,
252595,1480873276627,,,,,,,,0.09,0.07,0.98,-3.0,-0.9,-0.2,1180,0,,,,,,,,,,,,,,,,,,,
252615,1480873276647,,,,,,,,0.09,0.06,0.98,-3.0,-0.9,-0.2,1180,0,,,,,,,,,,,,,,,,,,,
252635,1480873276667,,,,,,,,0.09,0.07,0.98,-3.0,-0.9,-0.2,1180,0,,,,,,,,,,,,,,,,,,,
252655,1480873276687,0,100.8,,151.6,57,146.7,,0.09,0.07,0.99,-3.1,-0.8,-0.2,1180,0,1,1,0.0,0,38.159134,-122.454353,0.0,0.0,52.7,10,3,1.5,0,0.0,-1,0.0,0.0,0.0,0
252675,1480873276607,,,,,,,,0.09,0.07,0.98,-3.1,-0.8,-0.2,1180,0,,,,,,,,,,,,,,,,,,,
252695,1480873276627,,,,,,,,0.09,0.06,0.99,-3.0,-0.8,-0.2,1160,0,,,,,,,,,,,,,,,,,,,
252715,1480873276647,,,,,,,,0.09,0.06,0.99,-3.0,-0.8,-0.3,1180,0,,,,,,,,,,,,,,,,,,,
252735,1480873276667,,,,,,,,0.09,0.07,0.99,-3.1,-0.8,-0.2,1180,0,,,,,,,,,,,,,,,,,,,
252755,1480873276687,,,,,57,,,0.09,0.07,0.99,-3.1,-0.7,-0.2,1180,0,1,1,0.0,0,38.159134,-122.454353,0.0,0.0,52.7,10,3,1.5,0,0.0,-1,0.0,,0.0,0
252775,1480873276707,,,,,,,,0.09,0.07,0.99,-3.1,-0.7,-0.2,1180,0,,,,,,,,,,,,,,,,,,,
252795,1480873276727,,,,,,,,0.09,0.06,0.99,-3.1,-0.7,-0.2,1180,0,,,,,,,,,,,,,,,,,,,
252815,1480873276747,,,,,,,,0.09,0.06,0.99,-3.1,-0.7,-0.2,1160,0,,,,,,,,,,,,,,,,,,,
252835,1480873276767,,,,,,,,0.09,0.06,0.99,-3.1,-0.7,-0.2,1180,0,,,,,,,,,,,,,,,,,,,
252855,1480873276787,0,102.3,,153.4,54,148.1,,0.09,0.07,0.99,-3.1,-0.7,-0.2,1180,0,1,1,0.0,0,38.159134,-122.454353,0.0,0.0,52.7,10,3,1.5,0,0.0,-1,0.0,0.0,0.0,0
252875,1480873276807,,,,,,,,0.09,0.06,0.99,-3.1,-0.6,-0.2,1180,0,,,,,,,,,,,,,,,,,,,
252895,1480873276827,,,,,,,,0.09,0.06,0.99,-3.1,-0.7,-0.2,1180,0,,,,,,,,,,,,,,,,,,,
252915,1480873276847,,,,,,,,0.09,0.07,0.99,-3.1,-0.7,-0.2,1180,0,,,,,,,,,,,,,,,,,,,
252935,1480873276867,,,,,,,,0.09,0.06,0.99,-3.1,-0.8,-0.2,1180,0,,,,,,,,,,,,,,,,,,,
252955,1480873276887,,,,,53,,,0.09,0.07,0.99,-3.1,-0.8,-0.2,1180,0,1,1,0.0,0,38.159134,-122.454353,0.0,0.0,52.7,10,3,1.5,0,0.0,-1,0.0,,0.0,0
252975,1480873276902,,,,,,,,0.09,0.06,0.99,-3.1,-0.7,-0.2,1180,0,,,,,,,,,,,,,,,,,,,
