"Interval"|"ms"|0|0|1,"Utc"|"ms"|0|0|1,"FuelLevel"|"F"|0|100|5,"OilTemp"|"F"|0.0|300.0|5,"CoolantPressPSI"|"PSI"|0.0|20.0|1,"Coolant"|"F"|0.0|300.0|5,"OilPress"|"PSI"|0|150|10,"EngineTemp"|"F"|0.0|300.0|5,"Battery"|"Volts"|0.0|20.0|1,"AccelX"|"G"|-3.0|3.0|50,"AccelY"|"G"|-3.0|3.0|50,"AccelZ"|"G"|-3.0|3.0|50,"Yaw"|"Deg/Sec"|-300.0|300.0|50,"Pitch"|"Deg/Sec"|-300.0|300.0|50,"Roll"|"Deg/Sec"|-300.0|300.0|50,"RPM"|""|0|10000|50,"Driveshaft"|"RPM"|0|5000|50,"GPIO1"|""|0|1|10,"GPIO2"|""|0|1|10,"GearRatio"|""|-5.0|5.0|10,"Gear"|""|-1|5|10,"Latitude"|"Degrees"|-180.0|180.0|10,"Longitude"|"Degrees"|-180.0|180.0|10,"Speed"|"MPH"|0.0|150.0|10,"Distance"|"Miles"|0.0|0.0|10,"Altitude"|"Feet"|0.0|4000.0|10,"GPSSats"|""|0|20|10,"GPSQual"|""|0|5|10,"GPSDOP"|""|0.0|20.0|10,"LapCount"|""|0|0|10,"LapTime"|"Min"|0.0|0.0|10,"Sector"|""|0|0|10,"SectorTime"|"Min"|0.0|0.0|10,"PredTime"|"Min"|0.0|0.0|5,"ElapsedTime"|"Min"|0.0|0.0|10,"CurrentLap"|""|0|0|10
,,,,,,,,,,,,,,,,,,,,,,,,,,,,,,,,,,,
89595,1480873113528,,,,,,,,0.1,0.07,0.99,-3.0,-1.0,-0.4,1800,0,,,,,,,,,,,,,,,,,,,
89615,1480873113548,,,,,,,,0.1,0.07,0.99,-3.1,-1.0,-0.4,1800,0,,,,,,,,,,,,,,,,,,,
89635,1480873113568,,,,,,,,0.1,0.06,1.0,-3.0,-1.0,-0.5,180,0,,,,,,,,,,,,,,,,,,,
89655,1480873113588,0,102.4,,136.7,0,124.9,,0.1,0.07,0.99,-3.1,-1.0,-0.5,180,0,1,0,0.0,0,38.159134,-122.454353,0.0,0.0,52.7,10,3,1.6,0,0.0,-1,0.0,0.0,0.0,0
89675,1480873113608,,,,,,,,0.1,0.06,1.0,-3.0,-1.0,-0.5,180,0,,,,,,,,,,,,,,,,,,,
89695,1480873113628,,,,,,,,0.1,0.06,0.99,-3.1,-1.0,-0.4,180,0,,,,,,,,,,,,,,,,,,,
89715,1480873113648,,,,,,,,0.11,0.08,0.98,-3.1,-1.0,-0.3,180,0,,,,,,,,,,,,,,,,,,,
89735,1480873113668,,,,,,,,0.11,0.08,0.99,-3.1,-1.1,-0.2,200,0,,,,,,,,,,,,,,,,,,,
89755,1480873113688,,,,,0,,,0.1,0.07,0.99,-3.0,-1.0,-0.2,200,0,1,0,0.0,0,38.159134,-122.454353,0.0,0.0,52.7,10,3,1.6,0,0.0,-1,0.0,,0.0,0
89775,1480873113708,,,,,,,,0.09,0.07,1.0,-3.0,-0.8,-0.2,200,0,,,,,,,,,,,,,,,,,,,
89795,1480873113728,,,,,,,,0.09,0.07,1.0,-3.0,-0.9,-0.3,200,0,,,,,,,,,,,,,,,,,,,
89815,1480873113748,,,,,,,,0.09,0.08,1.0,-3.0,-1.0,-0.2,260,0,,,,,,,,,,,,,,,,,,,
89835,1480873113768,,,,,,,,0.09,0.06,1.0,-3.0,-1.1,-0.3,260,0,,,,,,,,,,,,,,,,,,,
89855,1480873113788,0,104.5,,138.2,0,124.5,,0.09,0.07,1.0,-3.0,-1.2,-0.2,460,0,1,1,0.0,0,38.159134,-122.454353,0.0,0.0,52.7,10,3,1.6,0,0.0,-1,0.0,0.0,0.0,0
89875,1480873113808,,,,,,,,0.1,0.05,1.0,-3.0,-1.2,-0.4,460,0,,,,,,,,,,,,,,,,,,,
89895,1480873113828,,,,,,,,0.1,0.07,0.99,-3.1,-1.0,-0.3,660,0,,,,,,,,,,,,,,,,,,,
89915,1480873113848,,,,,,,,0.09,0.06,0.99,-3.1,-1.2,-0.2,780,0,,,,,,,,,,,,,,,,,,,
89935,1480873113868,,,,,,,,0.09,0.06,1.0,-3.0,-1.2,-0.2,840,0,,,,,,,,,,,,,,,,,,,
89955,1480873113888,,,,,0,,,0.09,0.06,0.99,-3.0,-1.3,-0.3,860,0,1,0,0.0,0,38.159134,-122.454353,0.0,0.0,52.7,10,3,1.6,0,0.0,-1,0.0,,0.0,0
89975,1480873113902,,,,,,,,0.08,0.04,1.0,-3.0,-1.1,-0.3,860,0,,,,,,,,,,,,,,,,,,,
89995,1480873113922,,,,,,,,0.09,0.05,0.99,-3.0,-1.0,-0.3,820,0,,,,,,,,,,,,,,,,,,,
90015,1480873113942,,,,,,,,0.1,0.05,0.99,-3.1,-1.1,-0.4,780,0,,,,,,,,,,,,,,,,,,,
90035,1480873113962,,,,,,,,0.1,0.05,0.98,-3.1,-1.0,-0.2,720,0,,,,,,,,,,,,,,,,,,,
90055,1480873113982,0,104.0,0.0,138.2,1,124.3,11.43,0.1,0.05,0.98,-3.1,-1.1,-0.3,720,0,1,0,0.0,0,38.159134,-122.454353,0.0,0.0,52.7,10,3,1.6,0,0.0,-1,0.0,0.0,0.0,0
90075,1480873114107,,,,,,,,0.1,0.05,0.99,-3.1,-1.0,-0.3,680,0,,,,,,,,,,,,,,,,,,,
90095,1480873114127,,,,,,,,0.1,0.06,0.98,-3.1,-1.0,-0.3,640,0,,,,,,,,,,,,,,,,,,,
90115,1480873114147,,,,,,,,0.1,0.05,0.98,-3.1,-1.1,-0.3,640,10,,,,,,,,,,,,,,,,,,,
90135,1480873114167,,,,,,,,0.1,0.05,0.99,-3.1,-1.1,-0.3,600,10,,,,,,,,,,,,,,,,,,,
90155,1480873114187,,,,,1,,,0.09,0.05,0.99,-3.1,-1.0,-0.3,600,10,1,0,0.0,0,38.159134,-122.454353,0.0,0.0,52.7,10,3,1.6,0,0.0,-1,0.0,,0.0,0
90175,1480873114207,,,,,,,,0.1,0.04,0.99,-3.1,-1.1,-0.3,540,10,,,,,,,,,,,,,,,,,,,
90195,1480873114227,,,,,,,,0.1,0.05,0.99,-3.0,-1.1,-0.4,540,0,,,,,,,,,,,,,,,,,,,
90215,1480873114247,,,,,,,,0.1,0.05,0.99,-3.1,-1.0,-0.4,540,0,,,,,,,,,,,,,,,,,,,
90235,1480873114267,,,,,,,,0.1,0.06,0.98,-3.1,-1.0,-0.3,620,0,,,,,,,,,,,,,,,,,,,
90255,1480873114287,1,102.0,,136.3,2,123.8,,0.1,0.05,0.98,-3.0,-1.1,-0.4,680,0,1,0,0.001,0,38.159134,-122.454353,0.0,0.0,52.7,10,3,1.6,0,0.0,-1,0.0,0.0,0.0,0
90275,1480873114207,,,,,,,,0.1,0.06,0.99,-3.0,-1.1,-0.3,680,0,,,,,,,,,,,,,,,,,,,
90295,1480873114227,,,,,,,,0.1,0.06,0.98,-3.0,-1.0,-0.3,740,0,,,,,,,,,,,,,,,,,,,
90315,1480873114247,,,,,,,,0.1,0.06,0.98,-3.0,-1.0,-0.3,760,0,,,,,,,,,,,,,,,,,,,
90335,1480873114267,,,,,,,,0.1,0.06,0.98,-3.0,-1.0,-0.4,800,0,,,,,,,,,,,,,,,,,,,
90355,1480873114287,,,,,2,,,0.1,0.06,0.99,-3.0,-1.0,-0.4,800,0,1,0,0.0,0,38.159134,-122.454353,0.0,0.0,52.7,10,3,1.6,0,0.0,-1,0.0,,0.0,0
90375,1480873114307,,,,,,,,0.1,0.07,0.98,-3.0,-0.9,-0.4,800,0,,,,,,,,,,,,,,,,,,,
90395,1480873114327,,,,,,,,0.1,0.07,0.98,-3.0,-1.0,-0.4,800,0,,,,,,,,,,,,,,,,,,,
90415,1480873114347,,,,,,,,0.1,0.07,0.99,-3.0,-0.9,-0.4,820,0,,,,,,,,,,,,,,,,,,,
90435,1480873114367,,,,,,,,0.1,0.07,0.99,-3.0,-1.0,-0.4,840,0,,,,,,,,,,,,,,,,,,,
90455,1480873114387,0,105.1,,138.4,4,125.1,,0.09,0.07,0.99,-3.1,-1.0,-0.4,860,0,1,0,0.0,0,38.159134,-122.454353,0.0,0.0,52.7,10,3,1.6,0,0.0,-1,0.0,0.0,0.0,0
90475,1480873114408,,,,,,,,0.09,0.07,0.99,-3.0,-0.9,-0.4,860,0,,,,,,,,,,,,,,,,,,,
90495,1480873114428,,,,,,,,0.1,0.07,1.0,-3.1,-0.9,-0.4,820,0,,,,,,,,,,,,,,,,,,,
90515,1480873114448,,,,,,,,0.1,0.07,0.99,-3.1,-0.9,-0.4,840,0,,,,,,,,,,,,,,,,,,,
90535,1480873114468,,,,,,,,0.1,0.07,0.99,-3.1,-0.9,-0.4,820,0,,,,,,,,,,,,,,,,,,,
90555,1480873114488,,,,,5,,,0.1,0.07,1.0,-3.0,-0.9,-0.4,840,0,1,1,0.0,0,38.159134,-122.454353,0.0,0.0,52.7,10,3,1.6,0,0.0,-1,0.0,,0.0,0
90575,1480873114507,,,,,,,,0.09,0.07,1.0,-3.0,-1.0,-0.4,840,0,,,,,,,,,,,,,,,,,,,
90595,1480873114527,,,,,,,,0.1,0.07,1.0,-3.0,-1.0,-0.4,840,0,,,,,,,,,,,,,,,,,,,
90615,1480873114547,,,,,,,,0.09,0.07,0.99,-3.0,-1.0,-0.4,840,0,,,,,,,,,,,,,,,,,,,
90635,1480873114567,,,,,,,,0.09,0.07,1.0,-3.0,-1.0,-0.3,840,0,,,,,,,,,,,,,,,,,,,
90655,1480873114587,0,105.5,,138.6,6,125.5,,0.1,0.07,1.0,-3.0,-1.0,-0.3,820,0,1,1,0.0,0,38.159134,-122.454353,0.0,0.0,52.7,10,3,1.6,0,0.0,-1,0.0,0.0,0.0,0
90675,1480873114608,,,,,,,,0.09,0.07,1.0,-3.0,-1.0,-0.3,820,0,,,,,,,,,,,,,,,,,,,
90695,1480873114628,,,,,,,,0.09,0.07,0.99,-3.0,-1.0,-0.3,820,0,,,,,,,,,,,,,,,,,,,
90715,1480873114648,,,,,,,,0.09,0.06,1.0,-3.0,-0.9,-0.3,820,0,,,,,,,,,,,,,,,,,,,
90735,1480873114668,,,,,,,,0.09,0.07,1.0,-3.0,-0.9,-0.3,820,0,,,,,,,,,,,,,,,,,,,
90755,1480873114688,,,,,8,,,0.09,0.07,0.99,-3.0,-1.0,-0.3,820,0,1,1,0.0,0,38.159134,-122.454353,0.0,0.0,52.7,10,3,1.6,0,0.0,-1,0.0,,0.0,0
90775,1480873114707,,,,,,,,0.1,0.07,1.0,-3.0,-0.9,-0.3,800,0,,,,,,,,,,,,,,,,,,,
90795,1480873114727,,,,,,,,0.1,0.07,1.0,-3.0,-0.9,-0.3,800,0,,,,,,,,,,,,,,,,,,,
90815,1480873114747,,,,,,,,0.09,0.06,1.0,-3.0,-1.0,-0.3,800,0,,,,,,,,,,,,,,,,,,,
90835,1480873114767,,,,,,,,0.09,0.06,1.0,-3.0,-1.0,-0.3,800,0,,,,,,,,,,,,,,,,,,,
90855,1480873114787,0,104.7,,138.6,7,125.5,,0.1,0.06,0.99,-3.0,-1.0,-0.3,800,0,1,1,0.0,0,38.159134,-122.454353,0.0,0.0,52.7,10,3,1.6,0,0.0,-1,0.0,0.0,0.0,0
90875,1480873114907,,,,,,,,0.1,0.06,0.99,-3.1,-1.0,-0.3,780,0,,,,,,,,,,,,,,,,,,,
90895,1480873114927,,,,,,,,0.09,0.06,0.99,-3.0,-1.0,-0.3,780,0,,,,,,,,,,,,,,,,,,,
90915,1480873114947,,,,,,,,0.09,0.06,0.99,-3.1,-1.0,-0.3,760,0,,,,,,,,,,,,,,,,,,,
90935,1480873114967,,,,,,,,0.09,0.06,0.99,-3.1,-0.9,-0.3,760,0,,,,,,,,,,,,,,,,,,,
90955,1480873114987,,,,,9,,,0.09,0.06,0.99,-3.1,-1.0,-0.3,760,0,1,1,0.0,0,38.159134,-122.454353,0.0,0.0,52.7,10,3,1.6,0,0.0,-1,0.0,,0.0,0
90975,1480873115007,,,,,,,,0.09,0.06,0.99,-3.1,-1.0,-0.3,740,0,,,,,,,,,,,,,,,,,,,
90995,1480873115027,,,,,,,,0.09,0.06,0.99,-3.1,-1.1,-0.3,760,0,,,,,,,,,,,,,,,,,,,
91015,1480873115047,,,,,,,,0.09,0.07,0.99,-3.1,-1.1,-0.3,760,0,,,,,,,,,,,,,,,,,,,
91035,1480873115067,,,,,,,,0.1,0.06,0.99,-3.1,-1.0,-0.2,740,0,,,,,,,,,,,,,,,,,,,
91055,1480873115087,0,102.1,0.0,137.4,11,124.0,14.83,0.09,0.07,0.98,-3.1,-1.0,-0.2,720,0,1,1,0.0,0,38.159134,-122.454353,0.0,0.0,52.7,10,3,1.6,0,0.0,-1,0.0,0.0,0.0,0
91075,1480873115007,,,,,,,,0.09,0.06,0.98,-3.0,-1.1,-0.3,720,0,,,,,,,,,,,,,,,,,,,
91095,1480873115027,,,,,,,,0.09,0.07,0.99,-3.0,-1.1,-0.3,720,0,,,,,,,,,,,,,,,,,,,
91115,1480873115047,,,,,,,,0.1,0.07,0.99,-3.0,-1.0,-0.2,700,0,,,,,,,,,,,,,,,,,,,
91135,1480873115067,,,,,,,,0.09,0.06,0.99,-3.0,-1.0,-0.2,700,0,,,,,,,,,,,,,,,,,,,
91155,1480873115087,,,,,12,,,0.09,0.06,0.99,-3.0,-1.0,-0.3,700,0,1,1,0.0,0,38.159134,-122.454353,0.0,0.0,52.7,10,3,1.6,0,0.0,-1,0.0,,0.0,0
91175,1480873115108,,,,,,,,0.09,0.06,0.99,-3.0,-1.1,-0.3,680,0,,,,,,,,,,,,,,,,,,,
91195,1480873115128,,,,,,,,0.09,0.06,0.99,-3.0,-1.1,-0.3,680,0,,,,,,,,,,,,,,,,,,,
91215,1480873115148,,,,,,,,0.09,0.07,0.99,-3.0,-1.0,-0.3,680,0,,,,,,,,,,,,,,,,,,,
91235,1480873115168,,,,,,,,0.09,0.07,0.99,-3.0,-1.0,-0.3,660,0,,,,,,,,,,,,,,,,,,,
91255,1480873115188,0,104.0,,136.7,14,123.7,,0.09,0.07,0.99,-3.0,-1.0,-0.3,660,0,1,1,0.0,0,38.159134,-122.454353,0.0,0.0,52.7,10,3,1.6,0,0.0,-1,0.0,0.0,0.0,0
91275,1480873115208,,,,,,,,0.09,0.07,0.99,-3.0,-1.0,-0.3,660,0,,,,,,,,,,,,,,,,,,,
91295,1480873115228,,,,,,,,0.09,0.07,1.0,-3.0,-1.0,-0.3,640,0,,,,,,,,,,,,,,,,,,,
91315,1480873115248,,,,,,,,0.09,0.07,1.0,-3.0,-1.0,-0.3,640,0,,,,,,,,,,,,,,,,,,,
91335,1480873115268,,,,,,,,0.09,0.06,1.0,-3.0,-0.9,-0.2,640,0,,,,,,,,,,,,,,,,,,,
91355,1480873115288,,,,,15,,,0.09,0.07,1.0,-3.0,-0.9,-0.3,640,0,1,1,0.0,0,38.159134,-122.454353,0.0,0.0,52.7,10,3,1.6,0,0.0,-1,0.0,,0.0,0
91375,1480873115307,,,,,,,,0.09,0.07,1.0,-3.0,-1.0,-0.3,620,0,,,,,,,,,,,,,,,,,,,
91395,1480873115327,,,,,,,,0.09,0.07,1.0,-3.0,-1.0,-0.3,620,0,,,,,,,,,,,,,,,,,,,
91415,1480873115347,,,,,,,,0.1,0.07,0.99,-3.0,-1.0,-0.3,620,0,,,,,,,,,,,,,,,,,,,
91435,1480873115367,,,,,,,,0.09,0.06,1.0,-3.0,-1.0,-0.3,620,0,,,,,,,,,,,,,,,,,,,
91455,1480873115387,0,102.6,,137.9,13,124.3,,0.09,0.06,0.99,-3.0,-1.0,-0.3,620,0,1,1,0.0,0,38.159134,-122.454353,0.0,0.0,52.7,10,3,1.6,0,0.0,-1,0.0,0.0,0.0,0
91475,1480873115408,,,,,,,,0.09,0.07,0.99,-3.0,-1.0,-0.3,600,0,,,,,,,,,,,,,,,,,,,
91495,1480873115428,,,,,,,,0.09,0.06,0.99,-3.0,-1.0,-0.3,600,0,,,,,,,,,,,,,,,,,,,
91515,1480873115448,,,,,,,,0.09,0.07,0.99,-3.0,-1.0,-0.3,600,0,,,,,,,,,,,,,,,,,,,
91535,1480873115468,,,,,,,,0.09,0.06,0.99,-3.0,-1.0,-0.3,620,0,,,,,,,,,,,,,,,,,,,
91555,1480873115488,,,,,16,,,0.09,0.06,0.99,-3.0,-0.9,-0.3,620,0,1,1,0.0,0,38.159134,-122.454353,0.0,0.0,52.7,10,3,1.6,0,0.0,-1,0.0,,0.0,0
91575,1480873115508,,,,,,,,0.09,0.06,0.99,-3.0,-1.0,-0.3,600,0,,,,,,,,,,,,,,,,,,,
91595,1480873115528,,,,,,,,0.09,0.06,0.99,-3.0,-1.0,-0.3,600,0,,,,,,,,,,,,,,,,,,,
91615,1480873115548,,,,,,,,0.09,0.06,0.99,-3.0,-1.0,-0.3,600,0,,,,,,,,,,,,,,,,,,,
91635,1480873115568,,,,,,,,0.09,0.06,0.99,-3.0,-1.1,-0.3,600,0,,,,,,,,,,,,,,,,,,,
91655,1480873115588,0,105.0,,138.6,15,125.4,,0.09,0.06,0.99,-3.0,-1.0,-0.3,600,0,1,1,0.0,0,38.159134,-122.454353,0.0,0.0,52.7,10,3,1.6,0,0.0,-1,0.0,0.0,0.0,0
91675,1480873115707,,,,,,,,0.09,0.06,0.99,-3.0,-1.0,-0.3,580,0,,,,,,,,,,,,,,,,,,,
91695,1480873115727,,,,,,,,0.09,0.06,0.99,-3.0,-1.0,-0.3,580,0,,,,,,,,,,,,,,,,,,,
91715,1480873115747,,,,,,,,0.09,0.06,0.99,-3.0,-1.0,-0.3,600,0,,,,,,,,,,,,,,,,,,,
91735,1480873115767,,,,,,,,0.09,0.06,0.99,-3.0,-1.1,-0.3,600,0,,,,,,,,,,,,,,,,,,,
91755,1480873115787,,,,,18,,,0.09,0.06,0.99,-3.1,-1.0,-0.3,600,0,1,1,0.0,0,38.159134,-122.454353,0.0,0.0,52.7,10,3,1.6,0,0.0,-1,0.0,,0.0,0
91775,1480873115807,,,,,,,,0.1,0.07,0.99,-3.0,-1.1,-0.3,600,0,,,,,,,,,,,,,,,,,,,
91795,1480873115827,,,,,,,,0.09,0.06,0.99,-3.0,-1.1,-0.3,600,0,,,,,,,,,,,,,,,,,,,
91815,1480873115847,,,,,,,,0.09,0.06,0.99,-3.0,-1.1,-0.3,600,0,,,,,,,,,,,,,,,,,,,
91835,1480873115867,,,,,,,,0.09,0.06,0.99,-3.0,-1.1,-0.3,600,0,,,,,,,,,,,,,,,,,,,
91855,1480873115887,0,105.5,,138.8,20,125.6,,0.09,0.06,0.99,-3.0,-1.0,-0.3,600,0,1,1,0.0,0,38.159134,-122.454353,0.0,0.0,52.7,10,3,1.6,0,0.0,-1,0.0,0.0,0.0,0
91875,1480873115807,,,,,,,,0.09,0.06,0.99,-3.0,-1.0,-0.3,600,0,,,,,,,,,,,,,,,,,,,
91895,1480873115827,,,,,,,,0.09,0.06,0.99,-3.0,-1.0,-0.3,600,0,,,,,,,,,,,,,,,,,,,
91915,1480873115847,,,,,,,,0.09,0.06,0.99,-3.0,-1.0,-0.3,600,0,,,,,,,,,,,,,,,,,,,
91935,1480873115867,,,,,,,,0.09,0.06,0.99,-3.0,-1.0,-0.3,600,0,,,,,,,,,,,,,,,,,,,
91955,1480873115887,,,,,24,,,0.09,0.06,0.99,-3.1,-1.0,-0.3,600,0,1,1,0.0,0,38.159134,-122.454353,0.0,0.0,52.7,10,3,1.6,0,0.0,-1,0.0,,0.0,0
91975,1480873115902,,,,,,,,0.09,0.06,0.99,-3.0,-1.0,-0.3,600,0,,,,,,,,,,,,,,,,,,,
91995,1480873115922,,,,,,,,0.09,0.06,0.99,-3.0,-1.0,-0.3,600,0,,,,,,,,,,,,,,,,,,,
92015,1480873115942,,,,,,,,0.09,0.06,0.99,-3.0,-1.0,-0.3,600,0,,,,,,,,,,,,,,,,,,,
92035,1480873115962,,,,,,,,0.09,0.06,0.99,-3.0,-1.0,-0.3,600,0,,,,,,,,,,,,,,,,,,,
92055,1480873115982,0,102.2,0.0,137.5,26,123.9,14.81,0.09,0.06,0.99,-3.0,-0.9,-0.3,600,0,1,1,0.0,0,38.159134,-122.454353,0.0,0.0,52.7,10,3,1.6,0,0.0,-1,0.0,0.0,0.0,0
92075,1480873116008,,,,,,,,0.09,0.06,0.99,-3.1,-0.9,-0.3,600,0,,,,,,,,,,,,,,,,,,,
92095,1480873116028,,,,,,,,0.09,0.06,0.99,-3.1,-1.0,-0.3,600,0,,,,,,,,,,,,,,,,,,,
92115,1480873116048,,,,,,,,0.09,0.06,0.99,-3.1,-1.0,-0.3,600,0,,,,,,,,,,,,,,,,,,,
92135,1480873116068,,,,,,,,0.1,0.06,0.99,-3.1,-1.0,-0.3,620,0,,,,,,,,,,,,,,,,,,,
92155,1480873116088,,,,,29,,,0.09,0.06,0.99,-3.1,-1.0,-0.3,620,0,1,1,0.0,0,38.159134,-122.454353,0.0,0.0,52.7,10,3,1.6,0,0.0,-1,0.0,,0.0,0
92175,1480873116108,,,,,,,,0.09,0.06,0.99,-3.1,-1.0,-0.3,620,0,,,,,,,,,,,,,,,,,,,
92195,1480873116128,,,,,,,,0.1,0.06,0.99,-3.0,-1.0,-0.3,600,0,,,,,,,,,,,,,,,,,,,
92215,1480873116148,,,,,,,,0.1,0.06,0.99,-3.0,-1.0,-0.3,600,0,,,,,,,,,,,,,,,,,,,
92235,1480873116168,,,,,,,,0.1,0.06,0.99,-3.1,-1.0,-0.3,600,0,,,,,,,,,,,,,,,,,,,
92255,1480873116188,0,105.0,,138.6,32,125.5,,0.09,0.06,0.99,-3.0,-1.0,-0.3,600,0,1,1,0.0,0,38.159134,-122.454353,0.0,0.0,52.7,10,3,1.6,0,0.0,-1,0.0,0.0,0.0,0
92275,1480873116208,,,,,,,,0.09,0.06,0.99,-3.1,-1.0,-0.3,600,0,,,,,,,,,,,,,,,,,,,
92295,1480873116228,,,,,,,,0.1,0.06,0.99,-3.1,-1.0,-0.3,600,0,,,,,,,,,,,,,,,,,,,
92315,1480873116248,,,,,,,,0.09,0.05,0.99,-3.1,-1.0,-0.3,600,0,,,,,,,,,,,,,,,,,,,
92335,1480873116268,,,,,,,,0.09,0.06,0.99,-3.1,-1.0,-0.3,620,0,,,,,,,,,,,,,,,,,,,
92355,1480873116288,,,,,34,,,0.09,0.06,0.99,-3.0,-1.0,-0.3,620,0,1,1,0.0,0,38.159134,-122.454353,0.0,0.0,52.7,10,3,1.6,0,0.0,-1,0.0,,0.0,0
92375,1480873116308,,,,,,,,0.1,0.06,0.99,-3.1,-1.0,-0.3,620,0,,,,,,,,,,,,,,,,,,,
92395,1480873116328,,,,,,,,0.09,0.06,0.99,-3.1,-1.0,-0.3,600,0,,,,,,,,,,,,,,,,,,,
92415,1480873116348,,,,,,,,0.09,0.06,0.99,-3.0,-1.0,-0.3,600,0,,,,,,,,,,,,,,,,,,,
92435,1480873116368,,,,,,,,0.09,0.06,0.99,-3.1,-1.0,-0.3,600,0,,,,,,,,,,,,,,,,,,,
92455,1480873116388,0,105.2,,138.8,35,125.5,,0.1,0.06,0.99,-3.1,-1.0,-0.3,600,0,1,1,0.0,0,38.159134,-122.454353,0.0,0.0,52.7,10,3,1.6,0,0.0,-1,0.0,0.0,0.0,0
92475,1480873116507,,,,,,,,0.09,0.05,0.99,-3.0,-1.0,-0.3,600,0,,,,,,,,,,,,,,,,,,,
92495,1480873116527,,,,,,,,0.1,0.06,0.99,-3.0,-1.0,-0.3,600,0,,,,,,,,,,,,,,,,,,,
92515,1480873116547,,,,,,,,0.09,0.06,0.99,-3.0,-1.0,-0.3,600,0,,,,,,,,,,,,,,,,,,,
92535,1480873116567,,,,,,,,0.09,0.06,0.99,-3.0,-1.0,-0.3,600,0,,,,,,,,,,,,,,,,,,,
92555,1480873116587,,,,,35,,,0.09,0.06,0.99,-3.0,-1.0,-0.3,600,0,1,1,0.0,0,38.159134,-122.454353,0.0,0.0,52.7,10,3,1.6,0,0.0,-1,0.0,,0.0,0
92575,1480873116607,,,,,,,,0.09,0.06,0.99,-3.0,-1.0,-0.3,600,0,,,,,,,,,,,,,,,,,,,
92595,1480873116627,,,,,,,,0.09,0.06,0.99,-3.0,-1.0,-0.3,600,0,,,,,,,,,,,,,,,,,,,
92615,1480873116647,,,,,,,,0.09,0.06,0.99,-3.0,-1.1,-0.3,600,0,,,,,,,,,,,,,,,,,,,
92635,1480873116667,,,,,,,,0.09,0.06,0.99,-3.0,-1.1,-0.3,600,0,,,,,,,,,,,,,,,,,,,
92655,1480873116687,0,103.8,,136.7,39,123.5,,0.09,0.06,0.99,-3.0,-1.1,-0.3,600,0,1,1,0.0,0,38.159134,-122.454353,0.0,0.0,52.7,10,3,1.6,0,0.0,-1,0.0,0.0,0.0,0
92675,1480873116607,,,,,,,,0.09,0.06,0.99,-3.0,-1.1,-0.3,600,0,,,,,,,,,,,,,,,,,,,
92695,1480873116627,,,,,,,,0.09,0.06,0.99,-3.0,-1.0,-0.3,600,0,,,,,,,,,,,,,,,,,,,
92715,1480873116647,,,,,,,,0.09,0.06,0.99,-3.0,-1.1,-0.3,600,0,,,,,,,,,,,,,,,,,,,
92735,1480873116667,,,,,,,,0.09,0.06,0.99,-3.1,-1.0,-0.3,600,0,,,,,,,,,,,,,,,,,,,
92755,1480873116687,,,,,39,,,0.09,0.07,0.99,-3.1,-1.0,-0.3,600,0,1,1,0.0,0,38.159134,-122.454353,0.0,0.0,52.7,10,3,1.6,0,0.0,-1,0.0,,0.0,0
92775,1480873116708,,,,,,,,0.09,0.06,0.99,-3.1,-1.1,-0.3,600,0,,,,,,,,,,,,,,,,,,,
92795,1480873116728,,,,,,,,0.09,0.06,0.99,-3.1,-1.1,-0.3,600,0,,,,,,,,,,,,,,,,,,,
92815,1480873116748,,,,,,,,0.09,0.06,0.99,-3.1,-1.1,-0.3,600,0,,,,,,,,,,,,,,,,,,,
92835,1480873116768,,,,,,,,0.09,0.06,0.99,-3.1,-1.0,-0.3,600,0,,,,,,,,,,,,,,,,,,,
92855,1480873116788,0,102.1,,137.5,39,123.9,,0.09,0.06,0.99,-3.1,-1.0,-0.2,580,0,1,1,0.0,0,38.159134,-122.454353,0.0,0.0,52.7,10,3,1.6,0,0.0,-1,0.0,0.0,0.0,0
92875,1480873116806,,,,,,,,0.09,0.06,0.99,-3.1,-1.0,-0.3,580,0,,,,,,,,,,,,,,,,,,,
92895,1480873116826,,,,,,,,0.09,0.06,0.99,-3.1,-1.0,-0.2,600,0,,,,,,,,,,,,,,,,,,,
92915,1480873116846,,,,,,,,0.09,0.06,0.99,-3.1,-1.0,-0.2,600,0,,,,,,,,,,,,,,,,,,,
92935,1480873116866,,,,,,,,0.09,0.06,0.99,-3.1,-1.0,-0.2,600,0,,,,,,,,,,,,,,,,,,,
92955,1480873116886,,,,,42,,,0.09,0.06,0.99,-3.1,-1.0,-0.2,600,0,1,1,0.0,0,38.159134,-122.454353,0.0,0.0,52.7,10,3,1.6,0,0.0,-1,0.0,,0.0,0
92975,1480873116901,,,,,,,,0.09,0.06,0.99,-3.1,-1.1,-0.3,600,0,,,,,,,,,,,,,,,,,,,
92995,1480873116921,,,,,,,,0.09,0.06,0.99,-3.1,-1.1,-0.3,600,0,,,,,,,,,,,,,,,,,,,
93015,1480873116941,,,,,,,,0.09,0.06,0.99,-3.0,-1.0,-0.3,600,0,,,,,,,,,,,,,,,,,,,
93035,1480873116961,,,,,,,,0.09,0.06,0.99,-3.0,-1.0,-0.3,600,0,,,,,,,,,,,,,,,,,,,
93055,1480873116981,0,102.0,0.0,137.1,41,124.6,14.88,0.1,0.06,0.99,-3.0,-1.0,-0.3,580,0,1,1,0.0,0,38.159134,-122.454353,0.0,0.0,52.7,10,3,1.6,0,0.0,-1,0.0,0.0,0.0,0
93075,1480873117007,,,,,,,,0.09,0.06,0.99,-3.0,-1.0,-0.3,580,0,,,,,,,,,,,,,,,,,,,
93095,1480873117027,,,,,,,,0.09,0.06,0.99,-3.1,-1.0,-0.3,580,0,,,,,,,,,,,,,,,,,,,
93115,1480873117047,,,,,,,,0.09,0.06,0.99,-3.1,-1.0,-0.3,600,0,,,,,,,,,,,,,,,,,,,
93135,1480873117067,,,,,,,,0.09,0.06,0.99,-3.1,-1.0,-0.3,600,0,,,,,,,,,,,,,,,,,,,
93155,1480873117087,,,,,42,,,0.1,0.06,0.99,-3.1,-1.0,-0.3,600,0,1,1,0.0,0,38.159134,-122.454353,0.0,0.0,52.7,10,3,1.6,0,0.0,-1,0.0,,0.0,0
93175,1480873117107,,,,,,,,0.09,0.06,0.99,-3.1,-1.1,-0.3,600,0,,,,,,,,,,,,,,,,,,,
93195,1480873117127,,,,,,,,0.1,0.06,0.99,-3.1,-1.1,-0.3,600,0,,,,,,,,,,,,,,,,,,,
93215,1480873117147,,,,,,,,0.1,0.06,0.99,-3.0,-1.0,-0.3,580,0,,,,,,,,,,,,,,,,,,,
93235,1480873117167,,,,,,,,0.09,0.06,0.99,-3.1,-0.9,-0.3,580,0,,,,,,,,,,,,,,,,,,,
93255,1480873117187,0,105.0,,138.2,42,123.1,,0.09,0.06,0.99,-3.1,-1.0,-0.2,580,0,1,1,0.0,0,38.159134,-122.454353,0.0,0.0,52.7,10,3,1.6,0,0.0,-1,0.0,0.0,0.0,0
93275,1480873117307,,,,,,,,0.09,0.06,0.99,-3.1,-1.0,-0.3,580,0,,,,,,,,,,,,,,,,,,,
93295,1480873117327,,,,,,,,0.09,0.06,0.99,-3.1,-1.0,-0.3,580,0,,,,,,,,,,,,,,,,,,,
93315,1480873117347,,,,,,,,0.1,0.06,0.99,-3.1,-1.0,-0.3,600,0,,,,,,,,,,,,,,,,,,,
93335,1480873117367,,,,,,,,0.09,0.06,0.99,-3.1,-1.0,-0.3,600,0,,,,,,,,,,,,,,,,,,,
93355,1480873117387,,,,,44,,,0.1,0.07,0.99,-3.0,-1.0,-0.3,600,0,1,1,0.0,0,38.159134,-122.454353,0.0,0.0,52.7,10,3,1.6,0,0.0,-1,0.0,,0.0,0
93375,1480873117407,,,,,,,,0.09,0.06,0.99,-3.0,-1.0,-0.3,600,0,,,,,,,,,,,,,,,,,,,
93395,1480873117427,,,,,,,,0.09,0.06,0.99,-3.0,-1.0,-0.3,600,0,,,,,,,,,,,,,,,,,,,
93415,1480873117447,,,,,,,,0.09,0.06,0.99,-3.0,-0.9,-0.3,600,0,,,,,,,,,,,,,,,,,,,
93435,1480873117467,,,,,,,,0.09,0.06,0.99,-3.1,-0.9,-0.3,600,0,,,,,,,,,,,,,,,,,,,
93455,1480873117487,0,103.8,,138.6,43,125.2,,0.1,0.06,0.99,-3.1,-1.0,-0.3,600,0,1,1,0.0,0,38.159134,-122.454353,0.0,0.0,52.7,10,3,1.6,0,0.0,-1,0.0,0.0,0.0,0
93475,1480873117407,,,,,,,,0.09,0.06,0.99,-3.1,-1.0,-0.3,600,0,,,,,,,,,,,,,,,,,,,
93495,1480873117427,,,,,,,,0.09,0.06,0.99,-3.1,-1.0,-0.3,600,0,,,,,,,,,,,,,,,,,,,
93515,1480873117447,,,,,,,,0.09,0.06,0.99,-3.1,-1.0,-0.3,600,0,,,,,,,,,,,,,,,,,,,
93535,1480873117467,,,,,,,,0.09,0.06,0.99,-3.1,-1.0,-0.3,600,0,,,,,,,,,,,,,,,,,,,
93555,1480873117487,,,,,44,,,0.1,0.06,0.99,-3.1,-1.0,-0.3,600,0,1,1,0.0,0,38.159134,-122.454353,0.0,0.0,52.7,10,3,1.6,0,0.0,-1,0.0,,0.0,0
93575,1480873117508,,,,,,,,0.1,0.06,0.99,-3.1,-1.0,-0.3,600,0,,,,,,,,,,,,,,,,,,,
93595,1480873117528,,,,,,,,0.1,0.06,0.99,-3.1,-1.0,-0.3,600,0,,,,,,,,,,,,,,,,,,,
93615,1480873117548,,,,,,,,0.1,0.06,0.99,-3.1,-1.0,-0.3,580,0,,,,,,,,,,,,,,,,,,,
93635,1480873117568,,,,,,,,0.09,0.06,0.99,-3.1,-1.0,-0.3,580,0,,,,,,,,,,,,,,,,,,,
93655,1480873117588,0,102.1,,137.4,43,124.8,,0.1,0.06,0.99,-3.1,-1.0,-0.3,580,0,1,1,0.0,0,38.159134,-122.454353,0.0,0.0,52.7,10,3,1.6,0,0.0,-1,0.0,0.0,0.0,0
93675,1480873117607,,,,,,,,0.09,0.06,0.99,-3.1,-1.1,-0.3,600,0,,,,,,,,,,,,,,,,,,,
93695,1480873117627,,,,,,,,0.09,0.06,0.99,-3.1,-1.1,-0.3,600,0,,,,,,,,,,,,,,,,,,,
93715,1480873117647,,,,,,,,0.1,0.07,0.99,-3.1,-1.0,-0.3,600,0,,,,,,,,,,,,,,,,,,,
93735,1480873117667,,,,,,,,0.09,0.06,0.99,-3.1,-1.0,-0.3,600,0,,,,,,,,,,,,,,,,,,,
93755,1480873117687,,,,,44,,,0.09,0.06,0.99,-3.1,-0.9,-0.3,600,0,1,1,0.0,0,38.159134,-122.454353,0.0,0.0,52.7,10,3,1.6,0,0.0,-1,0.0,,0.0,0
93775,1480873117707,,,,,,,,0.09,0.06,0.99,-3.1,-1.0,-0.3,600,0,,,,,,,,,,,,,,,,,,,
93795,1480873117727,,,,,,,,0.09,0.06,0.99,-3.1,-1.0,-0.3,600,0,,,,,,,,,,,,,,,,,,,
93815,1480873117747,,,,,,,,0.09,0.07,0.99,-3.1,-1.0,-0.3,600,0,,,,,,,,,,,,,,,,,,,
93835,1480873117767,,,,,,,,0.09,0.06,0.99,-3.1,-1.0,-0.3,600,0,,,,,,,,,,,,,,,,,,,
93855,1480873117787,0,104.6,,137.5,46,123.0,,0.09,0.06,0.99,-3.1,-1.0,-0.3,600,0,1,1,0.0,0,38.159134,-122.454353,0.0,0.0,52.7,10,3,1.6,0,0.0,-1,0.0,0.0,0.0,0
93875,1480873117807,,,,,,,,0.09,0.06,0.99,-3.1,-1.1,-0.3,600,0,,,,,,,,,,,,,,,,,,,
93895,1480873117827,,,,,,,,0.09,0.06,0.99,-3.1,-1.1,-0.3,600,0,,,,,,,,,,,,,,,,,,,
93915,1480873117847,,,,,,,,0.1,0.06,0.99,-3.1,-1.0,-0.3,600,0,,,,,,,,,,,,,,,,,,,
93935,1480873117867,,,,,,,,0.09,0.06,0.99,-3.1,-1.0,-0.3,600,0,,,,,,,,,,,,,,,,,,,
93955,1480873117887,,,,,44,,,0.09,0.06,0.99,-3.1,-1.0,-0.3,600,0,1,1,0.0,0,38.159134,-122.454353,0.0,0.0,52.7,10,3,1.6,0,0.0,-1,0.0,,0.0,0
93975,1480873117901,,,,,,,,0.09,0.06,0.99,-3.0,-1.0,-0.3,600,0,,,,,,,,,,,,,,,,,,,
93995,1480873117921,,,,,,,,0.09,0.06,0.99,-3.1,-1.0,-0.3,600,0,,,,,,,,,,,,,,,,,,,
94015,1480873117941,,,,,,,,0.09,0.07,0.99,-3.0,-1.1,-0.3,600,0,,,,,,,,,,,,,,,,,,,
94035,1480873117961,,,,,,,,0.09,0.06,0.99,-3.1,-1.1,-0.3,600,0,,,,,,,,,,,,,,,,,,,
94055,1480873117981,0,102.3,0.2,137.6,44,124.9,14.88,0.09,0.06,0.99,-3.0,-1.1,-0.2,580,0,1,1,0.0,0,38.159134,-122.454353,0.0,0.0,52.7,10,3,1.6,0,0.0,-1,0.0,0.0,0.0,0
94075,1480873118106,,,,,,,,0.09,0.06,0.99,-3.0,-1.1,-0.3,580,0,,,,,,,,,,,,,,,,,,,
94095,1480873118126,,,,,,,,0.09,0.06,0.99,-3.0,-1.0,-0.3,580,0,,,,,,,,,,,,,,,,,,,
94115,1480873118146,,,,,,,,0.09,0.07,0.99,-3.0,-1.0,-0.2,600,0,,,,,,,,,,,,,,,,,,,
94135,1480873118166,,,,,,,,0.09,0.06,0.99,-3.0,-1.1,-0.3,600,0,,,,,,,,,,,,,,,,,,,
94155,1480873118186,,,,,44,,,0.09,0.06,0.99,-3.1,-1.0,-0.2,600,0,1,1,0.0,0,38.159134,-122.454353,0.0,0.0,52.7,10,3,1.6,0,0.0,-1,0.0,,0.0,0
94175,1480873118206,,,,,,,,0.09,0.06,0.99,-3.1,-1.1,-0.3,600,0,,,,,,,,,,,,,,,,,,,
94195,1480873118226,,,,,,,,0.09,0.06,0.99,-3.1,-1.1,-0.3,600,0,,,,,,,,,,,,,,,,,,,
94215,1480873118246,,,,,,,,0.09,0.07,0.99,-3.1,-1.1,-0.2,600,0,,,,,,,,,,,,,,,,,,,
94235,1480873118266,,,,,,,,0.09,0.06,0.99,-3.0,-1.1,-0.3,600,0,,,,,,,,,,,,,,,,,,,
94255,1480873118286,0,105.3,,138.8,45,124.7,,0.09,0.06,0.99,-3.1,-1.0,-0.3,600,0,1,1,0.0,0,38.159134,-122.454353,0.0,0.0,52.7,10,3,1.6,0,0.0,-1,0.0,0.0,0.0,0
94275,1480873118207,,,,,,,,0.09,0.06,0.99,-3.1,-1.0,-0.3,600,0,,,,,,,,,,,,,,,,,,,
94295,1480873118227,,,,,,,,0.09,0.06,0.99,-3.1,-1.0,-0.3,600,0,,,,,,,,,,,,,,,,,,,
94315,1480873118247,,,,,,,,0.09,0.06,0.99,-3.1,-1.0,-0.3,600,0,,,,,,,,,,,,,,,,,,,
94335,1480873118267,,,,,,,,0.09,0.06,0.99,-3.1,-1.1,-0.3,600,0,,,,,,,,,,,,,,,,,,,
94355,1480873118287,,,,,45,,,0.09,0.06,0.99,-3.1,-1.1,-0.3,600,0,1,1,0.0,0,38.159134,-122.454353,0.0,0.0,52.7,10,3,1.6,0,0.0,-1,0.0,,0.0,0
94375,1480873118307,,,,,,,,0.09,0.06,0.99,-3.0,-1.1,-0.2,600,0,,,,,,,,,,,,,,,,,,,
94395,1480873118327,,,,,,,,0.09,0.06,0.99,-3.0,-1.0,-0.2,600,0,,,,,,,,,,,,,,,,,,,
94415,1480873118347,,,,,,,,0.09,0.06,0.99,-3.0,-1.0,-0.2,600,0,,,,,,,,,,,,,,,,,,,
94435,1480873118367,,,,,,,,0.09,0.06,0.99,-3.0,-1.0,-0.3,600,0,,,,,,,,,,,,,,,,,,,
94455,1480873118387,0,104.8,,137.5,46,123.0,,0.09,0.06,0.99,-3.0,-1.0,-0.3,600,0,1,1,0.0,0,38.159134,-122.454353,0.0,0.0,52.7,10,3,1.6,0,0.0,-1,0.0,0.0,0.0,0
94475,1480873118407,,,,,,,,0.09,0.06,0.99,-3.0,-1.0,-0.2,600,0,,,,,,,,,,,,,,,,,,,
94495,1480873118427,,,,,,,,0.09,0.06,0.99,-3.0,-1.0,-0.3,600,0,,,,,,,,,,,,,,,,,,,
94515,1480873118447,,,,,,,,0.09,0.06,0.99,-3.0,-1.0,-0.3,600,0,,,,,,,,,,,,,,,,,,,
94535,1480873118467,,,,,,,,0.09,0.06,0.99,-3.0,-1.0,-0.3,620,0,,,,,,,,,,,,,,,,,,,
94555,1480873118487,,,,,45,,,0.09,0.06,0.99,-3.0,-1.0,-0.3,620,0,1,1,0.0,0,38.159134,-122.454353,0.0,0.0,52.7,10,3,1.6,0,0.0,-1,0.0,,0.0,0
94575,1480873118507,,,,,,,,0.09,0.06,0.99,-3.0,-1.0,-0.3,580,0,,,,,,,,,,,,,,,,,,,
94595,1480873118527,,,,,,,,0.09,0.06,0.99,-3.0,-1.0,-0.3,580,0,,,,,,,,,,,,,,,,,,,
94615,1480873118547,,,,,,,,0.09,0.06,0.99,-3.1,-1.0,-0.3,600,0,,,,,,,,,,,,,,,,,,,
94635,1480873118567,,,,,,,,0.09,0.06,0.99,-3.1,-1.0,-0.3,560,0,,,,,,,,,,,,,,,,,,,
94655,1480873118587,0,104.0,,136.9,44,123.4,,0.09,0.06,0.99,-3.1,-1.0,-0.3,560,0,1,1,0.0,0,38.159134,-122.454353,0.0,0.0,52.7,10,3,1.6,0,0.0,-1,0.0,0.0,0.0,0
94675,1480873118607,,,,,,,,0.09,0.06,0.99,-3.1,-0.9,-0.3,560,0,,,,,,,,,,,,,,,,,,,
94695,1480873118627,,,,,,,,0.09,0.04,0.99,-3.0,-0.9,-0.4,560,0,,,,,,,,,,,,,,,,,,,
94715,1480873118647,,,,,,,,0.1,0.06,0.99,-3.0,-0.9,-0.3,600,0,,,,,,,,,,,,,,,,,,,
94735,1480873118667,,,,,,,,0.1,0.06,0.98,-3.0,-0.9,-0.3,700,0,,,,,,,,,,,,,,,,,,,
94755,1480873118687,,,,,45,,,0.09,0.06,0.98,-3.0,-0.9,-0.3,740,0,1,1,0.0,0,38.159134,-122.454353,0.0,0.0,52.7,10,3,1.6,0,0.0,-1,0.0,,0.0,0
94775,1480873118707,,,,,,,,0.09,0.06,0.99,-3.0,-0.9,-0.3,740,0,,,,,,,,,,,,,,,,,,,
94795,1480873118727,,,,,,,,0.1,0.06,0.99,-3.0,-0.8,-0.3,740,0,,,,,,,,,,,,,,,,,,,
94815,1480873118747,,,,,,,,0.1,0.06,0.98,-3.1,-0.9,-0.2,800,0,,,,,,,,,,,,,,,,,,,
94835,1480873118767,,,,,,,,0.1,0.06,0.98,-3.0,-1.0,-0.2,800,0,,,,,,,,,,,,,,,,,,,
94855,1480873118787,0,105.8,,139.1,51,124.7,,0.09,0.05,1.0,-3.0,-1.0,-0.4,800,0,1,1,0.0,0,38.159134,-122.454353,0.0,0.0,52.7,10,3,1.6,0,0.0,-1,0.0,0.0,0.0,0
94875,1480873118906,,,,,,,,0.09,0.05,0.99,-3.0,-0.8,-0.3,800,0,,,,,,,,,,,,,,,,,,,
94895,1480873118926,,,,,,,,0.1,0.06,0.99,-3.0,-0.7,-0.4,920,0,,,,,,,,,,,,,,,,,,,
94915,1480873118946,,,,,,,,0.11,0.05,0.99,-3.0,-0.7,-0.3,940,0,,,,,,,,,,,,,,,,,,,
94935,1480873118966,,,,,,,,0.11,0.06,0.99,-3.0,-0.5,-0.4,1000,0,,,,,,,,,,,,,,,,,,,
94955,1480873118986,,,,,53,,,0.1,0.06,0.98,-3.0,-0.5,-0.3,1040,0,1,1,0.0,0,38.159134,-122.454353,0.0,0.0,52.7,10,3,1.6,0,0.0,-1,0.0,,0.0,0
94975,1480873119006,,,,,,,,0.1,0.06,0.98,-3.0,-0.4,-0.3,1120,0,,,,,,,,,,,,,,,,,,,
94995,1480873119026,,,,,,,,0.11,0.06,0.99,-3.0,-0.5,-0.3,1160,0,,,,,,,,,,,,,,,,,,,
95015,1480873119046,,,,,,,,0.09,0.06,0.99,-3.0,-0.5,-0.3,1180,0,,,,,,,,,,,,,,,,,,,
95035,1480873119066,,,,,,,,0.09,0.05,0.98,-3.0,-0.5,-0.3,1200,0,,,,,,,,,,,,,,,,,,,
95055,1480873119086,0,105.6,1.1,138.8,55,124.4,14.76,0.09,0.06,0.99,-3.0,-0.7,-0.3,1240,0,1,1,0.0,0,38.159134,-122.454353,0.0,0.0,52.7,10,3,1.6,0,0.0,-1,0.0,0.0,0.0,0
95075,1480873119008,,,,,,,,0.1,0.06,0.99,-3.0,-0.7,-0.3,1320,0,,,,,,,,,,,,,,,,,,,
95095,1480873119028,,,,,,,,0.09,0.06,0.98,-3.0,-0.7,-0.3,1360,0,,,,,,,,,,,,,,,,,,,
95115,1480873119048,,,,,,,,0.09,0.07,0.98,-3.0,-0.8,-0.2,1440,0,,,,,,,,,,,,,,,,,,,
95135,1480873119068,,,,,,,,0.09,0.06,0.99,-3.0,-0.7,-0.3,1460,0,,,,,,,,,,,,,,,,,,,
95155,1480873119088,,,,,58,,,0.08,0.07,0.99,-3.1,-0.7,-0.2,1520,0,1,1,0.0,0,38.159134,-122.454353,0.0,0.0,52.7,10,3,1.6,0,0.0,-1,0.0,,0.0,0
95175,1480873119108,,,,,,,,0.09,0.06,0.99,-3.0,-0.7,-0.2,1540,0,,,,,,,,,,,,,,,,,,,
95195,1480873119128,,,,,,,,0.09,0.06,0.99,-3.1,-0.8,-0.2,1560,0,,,,,,,,,,,,,,,,,,,
95215,1480873119148,,,,,,,,0.09,0.05,0.99,-3.1,-0.8,-0.2,1580,0,,,,,,,,,,,,,,,,,,,
95235,1480873119168,,,,,,,,0.09,0.05,0.99,-3.1,-0.8,-0.2,1600,0,,,,,,,,,,,,,,,,,,,
95255,1480873119188,0,105.7,,138.9,57,124.1,,0.09,0.06,0.98,-3.1,-0.8,-0.2,1640,0,1,1,0.0,0,38.159134,-122.454353,0.0,0.0,52.7,10,3,1.6,0,0.0,-1,0.0,0.0,0.0,0
95275,1480873119208,,,,,,,,0.09,0.06,0.98,-3.1,-0.9,-0.2,1660,0,,,,,,,,,,,,,,,,,,,
95295,1480873119228,,,,,,,,0.09,0.05,0.98,-3.1,-0.9,-0.2,1680,0,,,,,,,,,,,,,,,,,,,
95315,1480873119248,,,,,,,,0.09,0.05,0.98,-3.1,-0.8,-0.2,1700,0,,,,,,,,,,,,,,,,,,,
95335,1480873119268,,,,,,,,0.09,0.06,0.98,-3.0,-0.9,-0.2,1700,0,,,,,,,,,,,,,,,,,,,
95355,1480873119288,,,,,66,,,0.09,0.05,0.99,-3.0,-0.9,-0.2,1720,0,1,1,0.0,0,38.159134,-122.454353,0.0,0.0,52.7,10,3,1.6,0,0.0,-1,0.0,,0.0,0
95375,1480873119308,,,,,,,,0.09,0.05,0.99,-3.0,-0.8,-0.2,1740,0,,,,,,,,,,,,,,,,,,,
95395,1480873119328,,,,,,,,0.09,0.05,0.99,-3.0,-0.8,-0.2,1740,0,,,,,,,,,,,,,,,,,,,
95415,1480873119348,,,,,,,,0.09,0.05,0.98,-3.0,-0.8,-0.3,1760,0,,,,,,,,,,,,,,,,,,,
95435,1480873119368,,,,,,,,0.09,0.05,0.98,-3.0,-0.8,-0.3,1700,0,,,,,,,,,,,,,,,,,,,
95455,1480873119388,0,102.2,,137.5,60,124.8,,0.09,0.05,0.98,-3.0,-0.8,-0.3,1680,0,1,1,0.0,0,38.159134,-122.454353,0.0,0.0,52.7,10,3,1.6,0,0.0,-1,0.0,0.0,0.0,0
95475,1480873119408,,,,,,,,0.09,0.05,0.99,-3.0,-0.7,-0.3,1740,0,,,,,,,,,,,,,,,,,,,
95495,1480873119428,,,,,,,,0.09,0.06,0.99,-3.0,-0.8,-0.3,1760,0,,,,,,,,,,,,,,,,,,,
95515,1480873119448,,,,,,,,0.1,0.06,0.98,-3.0,-0.9,-0.3,1720,0,,,,,,,,,,,,,,,,,,,
95535,1480873119468,,,,,,,,0.09,0.06,0.98,-3.0,-0.9,-0.3,1720,0,,,,,,,,,,,,,,,,,,,
95555,1480873119488,,,,,59,,,0.1,0.06,0.99,-3.0,-1.0,-0.3,1760,0,1,1,0.0,0,38.159134,-122.454353,0.0,0.0,52.7,10,3,1.6,0,0.0,-1,0.0,,0.0,0
95575,1480873119508,,,,,,,,0.1,0.06,0.98,-3.0,-1.2,-0.3,1800,0,,,,,,,,,,,,,,,,,,,
95595,1480873119528,,,,,,,,0.09,0.05,0.98,-3.0,-1.2,-0.3,1880,0,,,,,,,,,,,,,,,,,,,
95615,1480873119548,,,,,,,,0.08,0.05,0.99,-3.0,-1.1,-0.3,1920,0,,,,,,,,,,,,,,,,,,,
95635,1480873119568,,,,,,,,0.08,0.05,0.99,-3.0,-1.1,-0.2,1960,0,,,,,,,,,,,,,,,,,,,
95655,1480873119588,0,102.8,,138.1,61,125.3,,0.08,0.04,0.99,-3.1,-1.1,-0.2,2060,0,1,1,0.0,0,38.159134,-122.454353,0.0,0.0,52.7,10,3,1.6,0,0.0,-1,0.0,0.0,0.0,0
95675,1480873119707,,,,,,,,0.08,0.03,1.0,-3.1,-0.9,-0.2,2120,0,,,,,,,,,,,,,,,,,,,
95695,1480873119727,,,,,,,,0.07,0.03,1.0,-3.1,-0.8,-0.2,2220,0,,,,,,,,,,,,,,,,,,,
95715,1480873119747,,,,,,,,0.07,0.04,0.99,-3.1,-0.9,-0.2,2260,0,,,,,,,,,,,,,,,,,,,
95735,1480873119767,,,,,,,,0.06,0.03,1.0,-3.1,-1.1,-0.2,2360,0,,,,,,,,,,,,,,,,,,,
95755,1480873119787,,,,,62,,,0.07,0.03,1.0,-3.1,-1.4,-0.2,2480,0,1,1,0.0,0,38.159134,-122.454353,0.0,0.0,52.7,10,3,1.6,0,0.0,-1,0.0,,0.0,0
95775,1480873119807,,,,,,,,0.08,0.06,0.97,-3.0,-1.4,-0.2,2520,0,,,,,,,,,,,,,,,,,,,
95795,1480873119827,,,,,,,,0.08,0.06,0.96,-3.0,-1.5,-0.3,2640,0,,,,,,,,,,,,,,,,,,,
95815,1480873119847,,,,,,,,0.08,0.05,0.98,-3.1,-1.2,-0.3,2720,0,,,,,,,,,,,,,,,,,,,
95835,1480873119867,,,,,,,,0.08,0.06,0.98,-3.0,-1.1,-0.3,2720,0,,,,,,,,,,,,,,,,,,,
95855,1480873119887,0,105.5,,139.2,62,124.7,,0.08,0.04,0.98,-3.1,-1.1,-0.3,2820,0,1,1,0.0,0,38.159134,-122.454353,0.0,0.0,52.7,10,3,1.6,0,0.0,-1,0.0,0.0,0.0,0
95875,1480873119808,,,,,,,,0.08,0.04,0.98,-3.1,-1.1,-0.2,2860,0,,,,,,,,,,,,,,,,,,,
95895,1480873119828,,,,,,,,0.09,0.04,1.0,-3.1,-1.1,-0.3,2880,0,,,,,,,,,,,,,,,,,,,
95915,1480873119848,,,,,,,,0.09,0.04,1.01,-3.0,-1.0,-0.4,2940,0,,,,,,,,,,,,,,,,,,,
95935,1480873119868,,,,,,,,0.1,0.02,0.99,-3.0,-0.9,-0.3,2980,0,,,,,,,,,,,,,,,,,,,
95955,1480873119888,,,,,73,,,0.1,0.01,0.97,-3.0,-0.8,-0.2,3000,0,1,1,0.0,0,38.159134,-122.454353,0.0,0.0,52.7,10,3,1.6,0,0.0,-1,0.0,,0.0,0
95975,1480873119902,,,,,,,,0.1,-0.01,0.96,-3.0,-0.7,-0.2,2980,0,,,,,,,,,,,,,,,,,,,
95995,1480873119922,,,,,,,,0.1,-0.03,0.95,-3.0,-0.8,-0.2,3060,0,,,,,,,,,,,,,,,,,,,
96015,1480873119942,,,,,,,,0.1,-0.04,0.94,-3.0,-0.9,-0.2,3020,0,,,,,,,,,,,,,,,,,,,
96035,1480873119962,,,,,,,,0.1,-0.07,0.94,-2.9,-0.8,-0.2,3060,0,,,,,,,,,,,,,,,,,,,
96055,1480873119982,0,105.2,0.0,138.3,70,123.0,14.85,0.11,-0.08,0.94,-2.9,-0.9,-0.2,3060,0,1,1,0.0,0,38.159134,-122.454353,0.0,0.0,52.7,10,3,1.6,0,0.0,-1,0.0,0.0,0.0,0
96075,1480873120008,,,,,,,,0.1,-0.09,0.94,-2.9,-0.9,-0.2,3080,0,,,,,,,,,,,,,,,,,,,
96095,1480873120028,,,,,,,,0.09,-0.08,0.95,-2.9,-1.0,-0.2,3120,0,,,,,,,,,,,,,,,,,,,
96115,1480873120048,,,,,,,,0.09,-0.07,0.96,-2.9,-1.1,-0.2,3120,0,,,,,,,,,,,,,,,,,,,
96135,1480873120068,,,,,,,,0.1,-0.06,0.96,-3.0,-1.2,-0.2,3120,0,,,,,,,,,,,,,,,,,,,
96155,1480873120088,,,,,67,,,0.1,-0.03,0.97,-3.0,-1.4,-0.2,3160,0,1,1,0.0,0,38.159134,-122.454353,0.0,0.0,52.7,10,3,1.6,0,0.0,-1,0.0,,0.0,0
96175,1480873120108,,,,,,,,0.1,-0.01,0.97,-3.0,-1.3,-0.3,3160,0,,,,,,,,,,,,,,,,,,,
96195,1480873120128,,,,,,,,0.11,-0.01,0.98,-3.0,-1.3,-0.3,3260,0,,,,,,,,,,,,,,,,,,,
96215,1480873120148,,,,,,,,0.1,-0.02,0.96,-2.9,-1.1,-0.3,3200,0,,,,,,,,,,,,,,,,,,,
96235,1480873120168,,,,,,,,0.1,-0.01,0.98,-2.9,-1.0,-0.3,3180,0,,,,,,,,,,,,,,,,,,,
96255,1480873120188,1,104.1,,137.1,76,123.4,,0.09,0.02,0.99,-3.0,-1.0,-0.3,3180,0,1,1,0.0,0,38.159134,-122.454353,0.0,0.0,52.7,10,3,1.6,0,0.0,-1,0.0,0.0,0.0,0
96275,1480873120208,,,,,,,,0.09,0.05,0.99,-3.0,-0.9,-0.3,3260,0,,,,,,,,,,,,,,,,,,,
96295,1480873120228,,,,,,,,0.09,0.05,0.99,-3.0,-1.0,-0.2,3300,0,,,,,,,,,,,,,,,,,,,
96315,1480873120248,,,,,,,,0.09,0.04,0.99,-3.0,-0.9,-0.2,3320,0,,,,,,,,,,,,,,,,,,,
96335,1480873120268,,,,,,,,0.08,0.05,0.99,-3.0,-0.8,-0.2,3340,0,,,,,,,,,,,,,,,,,,,
96355,1480873120288,,,,,64,,,0.09,0.03,0.98,-3.1,-1.1,-0.1,3320,0,1,1,0.0,0,38.159134,-122.454353,0.0,0.0,52.7,10,3,1.6,0,0.0,-1,0.0,,0.0,0
96375,1480873120308,,,,,,,,0.09,-0.02,0.94,-3.1,-0.8,-0.6,3380,0,,,,,,,,,,,,,,,,,,,
96395,1480873120328,,,,,,,,0.08,0.01,0.9,-3.2,-0.4,-0.4,3420,0,,,,,,,,,,,,,,,,,,,
96415,1480873120348,,,,,,,,0.08,0.02,0.93,-3.1,-0.6,-0.5,3420,0,,,,,,,,,,,,,,,,,,,
96435,1480873120368,,,,,,,,0.07,0.04,0.96,-3.2,-0.4,-0.5,3380,0,,,,,,,,,,,,,,,,,,,
96455,1480873120388,0,104.2,,139.0,57,125.0,,0.1,0.08,0.94,-3.1,-0.7,-0.4,3400,0,1,1,0.0,0,38.159134,-122.454353,0.0,0.0,52.7,10,3,1.6,0,0.0,-1,0.0,0.0,0.0,0
96475,1480873120507,,,,,,,,0.1,0.06,0.94,-3.0,-1.1,-0.4,3440,0,,,,,,,,,,,,,,,,,,,
96495,1480873120527,,,,,,,,0.08,0.07,0.93,-3.0,-0.5,-0.4,3420,0,,,,,,,,,,,,,,,,,,,
96515,1480873120547,,,,,,,,0.1,0.05,0.96,-2.9,-1.0,-0.4,3480,0,,,,,,,,,,,,,,,,,,,
96535,1480873120567,,,,,,,,0.09,0.07,0.97,-3.0,-1.4,-0.4,3460,0,,,,,,,,,,,,,,,,,,,
96555,1480873120587,,,,,74,,,0.1,0.04,0.98,-3.0,-1.3,-0.5,3460,0,1,1,0.0,0,38.159134,-122.454353,0.0,0.0,52.7,10,3,1.6,0,0.0,-1,0.0,,0.0,0
96575,1480873120607,,,,,,,,0.09,0.06,0.97,-3.1,-1.1,-0.4,3500,0,,,,,,,,,,,,,,,,,,,
96595,1480873120627,,,,,,,,0.1,0.07,0.95,-3.0,-1.1,-0.3,3500,0,,,,,,,,,,,,,,,,,,,
96615,1480873120647,,,,,,,,0.1,0.05,0.96,-3.1,-0.8,-0.2,3540,0,,,,,,,,,,,,,,,,,,,
96635,1480873120667,,,,,,,,0.1,0.05,0.98,-3.1,-1.3,-0.3,3540,0,,,,,,,,,,,,,,,,,,,
96655,1480873120687,0,105.1,,139.0,73,124.7,,0.09,0.06,0.97,-3.1,-1.1,-0.4,3540,0,1,1,0.0,0,38.159134,-122.454353,0.0,0.0,52.7,10,3,1.6,0,0.0,-1,0.0,0.0,0.0,0
96675,1480873120606,,,,,,,,0.1,0.08,0.99,-3.1,-1.1,-0.4,3580,0,,,,,,,,,,,,,,,,,,,
96695,1480873120626,,,,,,,,0.1,0.07,0.99,-3.1,-0.9,-0.3,3560,0,,,,,,,,,,,,,,,,,,,
96715,1480873120646,,,,,,,,0.11,0.06,0.99,-3.2,-0.8,-0.2,3600,0,,,,,,,,,,,,,,,,,,,
96735,1480873120666,,,,,,,,0.1,0.06,0.97,-3.1,-1.2,-0.3,3620,0,,,,,,,,,,,,,,,,,,,
96755,1480873120686,,,,,74,,,0.1,0.04,0.99,-3.1,-1.1,-0.3,3600,0,1,1,0.0,0,38.159134,-122.454353,0.0,0.0,52.7,10,3,1.6,0,0.0,-1,0.0,,0.0,0
96775,1480873120708,,,,,,,,0.11,0.08,0.97,-3.1,-1.1,-0.3,3660,0,,,,,,,,,,,,,,,,,,,
96795,1480873120728,,,,,,,,0.1,0.08,0.97,-3.2,-1.0,-0.3,3620,0,,,,,,,,,,,,,,,,,,,
96815,1480873120748,,,,,,,,0.1,0.05,0.98,-3.2,-0.9,-0.2,3660,0,,,,,,,,,,,,,,,,,,,
96835,1480873120768,,,,,,,,0.1,0.06,0.99,-3.1,-1.3,-0.3,3680,0,,,,,,,,,,,,,,,,,,,
96855,1480873120788,0,104.1,,138.9,68,125.1,,0.1,0.07,1.0,-3.1,-1.2,-0.3,3660,0,1,1,0.0,0,38.159134,-122.454353,0.0,0.0,52.7,10,3,1.6,0,0.0,-1,0.0,0.0,0.0,0
96875,1480873120808,,,,,,,,0.1,0.08,1.02,-3.1,-0.8,-0.3,3680,0,,,,,,,,,,,,,,,,,,,
96895,1480873120828,,,,,,,,0.11,0.11,0.97,-3.1,-0.7,-0.2,3700,0,,,,,,,,,,,,,,,,,,,
96915,1480873120848,,,,,,,,0.1,0.09,0.97,-3.0,-0.8,-0.2,3720,0,,,,,,,,,,,,,,,,,,,
96935,1480873120868,,,,,,,,0.1,0.06,0.99,-3.0,-0.8,-0.4,3740,0,,,,,,,,,,,,,,,,,,,
96955,1480873120888,,,,,64,,,0.1,0.07,1.0,-3.0,-1.2,-0.4,3760,0,1,1,0.0,0,38.159134,-122.454353,0.0,0.0,52.7,10,3,1.6,0,0.0,-1,0.0,,0.0,0
96975,1480873120903,,,,,,,,0.11,0.1,0.96,-3.1,-1.1,-0.2,3680,0,,,,,,,,,,,,,,,,,,,
96995,1480873120923,,,,,,,,0.09,0.06,0.96,-3.1,-1.0,-0.2,3680,0,,,,,,,,,,,,,,,,,,,
97015,1480873120943,,,,,,,,0.09,0.05,0.99,-3.1,-0.8,-0.3,3720,0,,,,,,,,,,,,,,,,,,,
97035,1480873120963,,,,,,,,0.1,0.08,0.98,-3.1,-1.0,-0.3,3740,0,,,,,,,,,,,,,,,,,,,
97055,1480873120983,0,106.1,1.1,139.2,67,124.5,14.75,0.11,0.1,0.92,-3.1,-0.9,-0.1,3820,0,1,1,0.0,0,38.159134,-122.454353,0.0,0.0,52.7,10,3,1.6,0,0.0,-1,0.0,0.0,0.0,0
97075,1480873121008,,,,,,,,0.1,0.07,0.95,-3.1,-0.9,-0.2,3740,0,,,,,,,,,,,,,,,,,,,
97095,1480873121028,,,,,,,,0.09,0.07,0.97,-3.1,-0.9,-0.4,3700,0,,,,,,,,,,,,,,,,,,,
97115,1480873121048,,,,,,,,0.09,0.07,0.98,-3.1,-1.2,-0.3,3820,0,,,,,,,,,,,,,,,,,,,
97135,1480873121068,,,,,,,,0.09,0.08,0.97,-3.1,-1.2,-0.1,3740,0,,,,,,,,,,,,,,,,,,,
97155,1480873121088,,,,,67,,,0.09,0.07,0.95,-3.1,-1.4,-0.2,3780,0,1,1,0.0,0,38.159134,-122.454353,0.0,0.0,52.7,10,3,1.6,0,0.0,-1,0.0,,0.0,0
97175,1480873121108,,,,,,,,0.08,0.08,0.97,-3.0,-1.2,-0.3,3800,0,,,,,,,,,,,,,,,,,,,
97195,1480873121128,,,,,,,,0.08,0.09,1.01,-3.1,-0.9,-0.3,3860,0,,,,,,,,,,,,,,,,,,,
97215,1480873121148,,,,,,,,0.09,0.08,1.02,-3.1,-0.4,-0.2,3820,0,,,,,,,,,,,,,,,,,,,
97235,1480873121168,,,,,,,,0.1,0.07,1.0,-3.1,-0.7,-0.3,3820,0,,,,,,,,,,,,,,,,,,,
97255,1480873121188,0,105.5,,138.5,59,123.0,,0.11,0.08,0.96,-3.0,-1.0,-0.3,3880,0,1,1,0.0,0,38.159134,-122.454353,0.0,0.0,52.7,10,3,1.6,0,0.0,-1,0.0,0.0,0.0,0
97275,1480873121307,,,,,,,,0.11,0.09,0.94,-3.0,-0.9,-0.2,3840,0,,,,,,,,,,,,,,,,,,,
97295,1480873121327,,,,,,,,0.1,0.08,0.96,-3.0,-0.9,-0.3,3860,0,,,,,,,,,,,,,,,,,,,
97315,1480873121347,,,,,,,,0.09,0.08,0.99,-3.1,-0.7,-0.5,3840,0,,,,,,,,,,,,,,,,,,,
97335,1480873121367,,,,,,,,0.09,0.09,1.01,-3.1,-1.0,-0.4,3940,0,,,,,,,,,,,,,,,,,,,
97355,1480873121387,,,,,64,,,0.09,0.06,0.99,-3.2,-0.9,-0.2,3900,0,1,1,0.0,0,38.159134,-122.454353,0.0,0.0,52.7,10,3,1.6,0,0.0,-1,0.0,,0.0,0
97375,1480873121407,,,,,,,,0.09,0.03,1.0,-3.1,-1.4,-0.3,3880,0,,,,,,,,,,,,,,,,,,,
97395,1480873121427,,,,,,,,0.09,0.04,0.99,-3.1,-1.9,-0.3,3820,0,,,,,,,,,,,,,,,,,,,
97415,1480873121447,,,,,,,,0.09,0.06,0.98,-3.1,-1.7,-0.2,3840,0,,,,,,,,,,,,,,,,,,,
97435,1480873121467,,,,,,,,0.1,0.08,0.98,-3.0,-2.0,-0.2,3880,0,,,,,,,,,,,,,,,,,,,
97455,1480873121487,0,102.9,,138.0,75,124.8,,0.08,0.1,0.98,-3.0,-1.4,-0.4,3920,0,1,1,0.0,0,38.159134,-122.454353,0.0,0.0,52.7,10,3,1.6,0,0.0,-1,0.0,0.0,0.0,0
97475,1480873121408,,,,,,,,0.09,0.13,0.94,-3.0,-1.3,-0.3,3920,0,,,,,,,,,,,,,,,,,,,
97495,1480873121428,,,,,,,,0.07,0.11,0.95,-3.1,-1.1,-0.4,3900,0,,,,,,,,,,,,,,,,,,,
97515,1480873121448,,,,,,,,0.07,0.09,1.01,-3.1,-0.3,-0.6,3940,0,,,,,,,,,,,,,,,,,,,
97535,1480873121468,,,,,,,,0.06,0.08,1.02,-3.2,-0.3,-0.4,3840,0,,,,,,,,,,,,,,,,,,,
97555,1480873121488,,,,,63,,,0.05,0.05,1.03,-3.2,0.1,-0.3,3900,0,1,1,0.0,0,38.159134,-122.454353,0.0,0.0,52.7,10,3,1.6,0,0.0,-1,0.0,,0.0,0
97575,1480873121508,,,,,,,,0.07,0.02,1.05,-3.1,0.1,-0.3,3860,0,,,,,,,,,,,,,,,,,,,
97595,1480873121528,,,,,,,,0.06,0.02,1.06,-3.1,-0.0,-0.2,3940,0,,,,,,,,,,,,,,,,,,,
97615,1480873121548,,,,,,,,0.08,0.01,1.04,-3.0,0.3,-0.0,3900,0,,,,,,,,,,,,,,,,,,,
97635,1480873121568,,,,,,,,0.1,0.01,1.0,-3.0,-0.3,-0.1,3940,0,,,,,,,,,,,,,,,,,,,
97655,1480873121588,1,105.7,,139.3,64,124.8,,0.1,0.03,0.99,-2.9,-0.5,-0.2,3960,0,1,1,0.0,0,38.159134,-122.454353,0.0,0.0,52.7,10,3,1.6,0,0.0,-1,0.0,0.0,0.0,0
97675,1480873121606,,,,,,,,0.12,0.04,0.95,-2.9,-0.2,0.0,4000,0,,,,,,,,,,,,,,,,,,,
97695,1480873121626,,,,,,,,0.14,0.07,0.92,-2.9,-1.0,-0.1,3900,0,,,,,,,,,,,,,,,,,,,
97715,1480873121646,,,,,,,,0.15,0.09,0.91,-2.9,-1.0,-0.3,3880,0,,,,,,,,,,,,,,,,,,,
97735,1480873121666,,,,,,,,0.17,0.11,0.88,-2.9,-0.8,-0.1,3940,0,,,,,,,,,,,,,,,,,,,
97755,1480873121686,,,,,67,,,0.18,0.14,0.87,-2.9,-1.5,-0.3,4000,0,1,1,0.0,0,38.159134,-122.454353,0.0,0.0,52.7,10,3,1.6,0,0.0,-1,0.0,,0.0,0
97775,1480873121708,,,,,,,,0.18,0.16,0.87,-2.9,-1.4,-0.5,4000,0,,,,,,,,,,,,,,,,,,,
97795,1480873121728,,,,,,,,0.2,0.17,0.84,-3.0,-1.4,-0.3,3960,0,,,,,,,,,,,,,,,,,,,
97815,1480873121748,,,,,,,,0.2,0.2,0.86,-3.0,-1.9,-0.5,4040,0,,,,,,,,,,,,,,,,,,,
97835,1480873121768,,,,,,,,0.21,0.21,0.85,-3.0,-1.7,-0.7,4020,0,,,,,,,,,,,,,,,,,,,
97855,1480873121788,1,105.7,,139.0,64,124.5,,0.22,0.22,0.83,-3.0,-1.7,-0.5,3980,0,1,1,0.0,0,38.159134,-122.454353,0.0,0.0,52.7,10,3,1.6,0,0.0,-1,0.0,0.0,0.0,0
97875,1480873121808,,,,,,,,0.23,0.23,0.84,-3.0,-2.3,-0.6,4020,0,,,,,,,,,,,,,,,,,,,
97895,1480873121828,,,,,,,,0.23,0.24,0.83,-3.0,-2.0,-0.7,4020,0,,,,,,,,,,,,,,,,,,,
97915,1480873121848,,,,,,,,0.25,0.24,0.82,-3.1,-1.9,-0.5,3980,0,,,,,,,,,,,,,,,,,,,
97935,1480873121868,,,,,,,,0.25,0.24,0.81,-3.0,-2.6,-0.7,3940,0,,,,,,,,,,,,,,,,,,,
97955,1480873121888,,,,,65,,,0.24,0.23,0.82,-3.0,-2.3,-0.7,4080,0,1,1,0.0,0,38.159134,-122.454353,0.0,0.0,52.7,10,3,1.7,0,0.0,-1,0.0,,0.0,0
97975,1480873121903,,,,,,,,0.25,0.25,0.8,-3.0,-2.1,-0.5,4000,0,,,,,,,,,,,,,,,,,,,
97995,1480873121923,,,,,,,,0.25,0.25,0.81,-3.0,-2.5,-0.6,4080,0,,,,,,,,,,,,,,,,,,,
98015,1480873121943,,,,,,,,0.25,0.24,0.82,-3.0,-2.2,-0.6,4000,0,,,,,,,,,,,,,,,,,,,
98035,1480873121963,,,,,,,,0.26,0.23,0.83,-2.9,-1.6,-0.4,4120,0,,,,,,,,,,,,,,,,,,,
98055,1480873121983,0,103.2,0.0,137.1,75,123.7,14.86,0.25,0.19,0.82,-2.9,-1.6,-0.5,4060,0,1,1,0.0,0,38.159134,-122.454353,0.0,0.0,52.7,10,3,1.7,0,0.0,-1,0.0,0.0,0.0,0
98075,1480873122107,,,,,,,,0.23,0.17,0.87,-2.9,-1.3,-0.5,4040,0,,,,,,,,,,,,,,,,,,,
98095,1480873122127,,,,,,,,0.22,0.1,0.9,-2.9,-0.6,-0.3,4060,0,,,,,,,,,,,,,,,,,,,
98115,1480873122147,,,,,,,,0.21,0.09,0.96,-2.9,-0.1,-0.5,4000,0,,,,,,,,,,,,,,,,,,,
98135,1480873122167,,,,,,,,0.19,0.09,0.92,-3.0,-0.2,-0.3,4020,0,,,,,,,,,,,,,,,,,,,
98155,1480873122187,,,,,86,,,0.17,0.07,0.91,-3.0,-0.2,-0.2,4080,0,1,1,0.0,0,38.159134,-122.454353,0.0,0.0,52.7,10,3,1.7,0,0.0,-1,0.0,,0.0,0
98175,1480873122207,,,,,,,,0.17,0.11,0.93,-2.9,0.1,-0.4,4040,0,,,,,,,,,,,,,,,,,,,
98195,1480873122227,,,,,,,,0.17,0.15,0.92,-3.0,-0.0,-0.3,4140,18,,,,,,,,,,,,,,,,,,,
98215,1480873122247,,,,,,,,0.16,0.15,0.95,-3.0,-0.8,-0.5,4120,18,,,,,,,,,,,,,,,,,,,
98235,1480873122267,,,,,,,,0.14,0.13,0.97,-3.0,-0.9,-0.5,4140,18,,,,,,,,,,,,,,,,,,,
98255,1480873122287,0,105.2,,137.7,85,122.8,,0.13,0.06,0.97,-3.0,-0.7,-0.3,4100,18,1,1,228.889,0,38.159134,-122.454353,0.0,0.0,52.7,10,3,1.7,0,0.0,-1,0.0,0.0,0.0,0
98275,1480873122208,,,,,,,,0.12,0.03,1.0,-3.0,-0.9,-0.5,4160,1538461,,,,,,,,,,,,,,,,,,,
98295,1480873122228,,,,,,,,0.1,0.03,0.98,-3.0,-1.2,-0.4,4180,0,,,,,,,,,,,,,,,,,,,
98315,1480873122248,,,,,,,,0.1,0.05,1.0,-3.1,-1.6,-0.4,4200,0,,,,,,,,,,,,,,,,,,,
98335,1480873122268,,,,,,,,0.11,0.11,0.99,-3.0,-1.5,-0.5,4100,0,,,,,,,,,,,,,,,,,,,
98355,1480873122288,,,,,65,,,0.13,0.14,0.97,-3.1,-1.3,-0.3,4080,0,1,1,0.0,0,38.159134,-122.454353,0.0,0.0,52.7,10,3,1.7,0,0.0,-1,0.0,,0.0,0
98375,1480873122308,,,,,,,,0.14,0.1,0.94,-3.0,-1.4,-0.5,4180,26,,,,,,,,,,,,,,,,,,,
98395,1480873122328,,,,,,,,0.12,0.07,0.97,-3.0,-1.2,-0.4,4140,26,,,,,,,,,,,,,,,,,,,
98415,1480873122348,,,,,,,,0.12,0.01,0.95,-3.0,-0.8,-0.2,4160,26,,,,,,,,,,,,,,,,,,,
98435,1480873122368,,,,,,,,0.11,0.07,0.95,-3.0,-0.3,-0.4,4100,26,,,,,,,,,,,,,,,,,,,
98455,1480873122388,0,105.5,,138.9,65,124.7,,0.12,0.14,0.95,-3.0,-0.3,-0.3,4180,1538461,1,1,161.538,0,38.159134,-122.454353,0.0,0.0,52.7,10,3,1.7,0,0.0,-1,0.0,0.0,0.0,0
98475,1480873122408,,,,,,,,0.12,0.12,0.99,-3.0,-0.9,-0.5,4120,0,,,,,,,,,,,,,,,,,,,
98495,1480873122428,,,,,,,,0.1,0.07,1.05,-3.0,-1.0,-0.5,4100,0,,,,,,,,,,,,,,,,,,,
98515,1480873122448,,,,,,,,0.1,-0.01,0.99,-3.0,-0.9,-0.3,4220,0,,,,,,,,,,,,,,,,,,,
98535,1480873122468,,,,,,,,0.09,0.04,0.99,-3.0,-0.9,-0.4,4200,53,,,,,,,,,,,,,,,,,,,
98555,1480873122488,,,,,89,,,0.09,0.11,0.93,-3.1,-1.2,-0.2,4180,53,1,1,0.0,0,38.159134,-122.454353,0.0,0.0,52.7,10,3,1.6,0,0.0,-1,0.0,,0.0,0
98575,1480873122507,,,,,,,,0.1,0.12,0.93,-3.1,-1.6,-0.4,4200,53,,,,,,,,,,,,,,,,,,,
98595,1480873122527,,,,,,,,0.09,0.09,0.98,-3.1,-1.2,-0.4,4180,53,,,,,,,,,,,,,,,,,,,
98615,1480873122547,,,,,,,,0.1,0.0,0.97,-3.0,-0.7,-0.2,4260,0,,,,,,,,,,,,,,,,,,,
98635,1480873122567,,,,,,,,0.11,0.04,1.02,-2.9,-0.2,-0.4,4140,0,,,,,,,,,,,,,,,,,,,
98655,1480873122587,1,102.7,,137.5,73,124.8,,0.11,0.12,0.97,-3.0,-0.5,-0.1,4220,0,1,1,77.736,0,38.159134,-122.454353,0.0,0.0,52.7,10,3,1.6,0,0.0,-1,0.0,0.0,0.0,0
98675,1480873122607,,,,,,,,0.11,0.13,1.0,-3.0,-1.0,-0.3,4120,0,,,,,,,,,,,,,,,,,,,
98695,1480873122627,,,,,,,,0.09,0.11,1.04,-3.0,-1.1,-0.4,4160,60,,,,,,,,,,,,,,,,,,,
98715,1480873122647,,,,,,,,0.09,0.01,1.0,-3.1,-0.9,-0.2,4200,60,,,,,,,,,,,,,,,,,,,
98735,1480873122667,,,,,,,,0.08,0.02,1.01,-3.0,-0.9,-0.3,4120,60,,,,,,,,,,,,,,,,,,,
98755,1480873122687,,,,,65,,,0.07,0.07,0.93,-3.1,-1.3,-0.2,4160,60,1,1,70.0,0,38.159134,-122.454353,0.0,0.0,52.7,10,3,1.6,0,0.0,-1,0.0,,0.0,0
98775,1480873122707,,,,,,,,0.08,0.11,0.95,-3.1,-1.9,-0.3,4200,0,,,,,,,,,,,,,,,,,,,
98795,1480873122727,,,,,,,,0.09,0.1,0.98,-3.1,-1.7,-0.4,4160,0,,,,,,,,,,,,,,,,,,,
98815,1480873122747,,,,,,,,0.1,0.02,0.98,-3.0,-1.0,-0.3,4240,0,,,,,,,,,,,,,,,,,,,
98835,1480873122767,,,,,,,,0.11,0.03,1.04,-2.9,-0.6,-0.4,4240,0,,,,,,,,,,,,,,,,,,,
98855,1480873122787,1,105.7,,138.7,76,124.7,,0.11,0.08,0.97,-3.0,-0.8,-0.2,4220,0,1,1,0.0,0,38.159134,-122.454353,0.0,0.0,52.7,10,3,1.6,0,0.0,-1,0.0,0.0,0.0,0
98875,1480873122907,,,,,,,,0.11,0.11,0.99,-3.0,-1.2,-0.2,4180,55,,,,,,,,,,,,,,,,,,,
98895,1480873122927,,,,,,,,0.09,0.09,1.01,-3.0,-1.1,-0.4,4220,55,,,,,,,,,,,,,,,,,,,
98915,1480873122947,,,,,,,,0.09,-0.01,0.99,-3.1,-0.7,-0.2,4200,55,,,,,,,,,,,,,,,,,,,
98935,1480873122967,,,,,,,,0.08,0.01,0.98,-3.0,-0.9,-0.4,4180,0,,,,,,,,,,,,,,,,,,,
98955,1480873122987,,,,,62,,,0.08,0.07,0.91,-3.1,-1.2,-0.2,4140,0,1,1,76.0,0,38.159134,-122.454353,0.0,0.0,52.7,10,3,1.6,0,0.0,-1,0.0,,0.0,0
98975,1480873123007,,,,,,,,0.09,0.08,0.91,-3.1,-1.7,-0.3,4240,0,,,,,,,,,,,,,,,,,,,
98995,1480873123027,,,,,,,,0.07,0.04,0.96,-3.0,-1.3,-0.3,4220,0,,,,,,,,,,,,,,,,,,,
99015,1480873123047,,,,,,,,0.09,-0.02,0.93,-3.0,-0.8,-0.3,4200,0,,,,,,,,,,,,,,,,,,,
99035,1480873123067,,,,,,,,0.09,0.04,0.95,-2.9,-0.3,-0.4,4180,0,,,,,,,,,,,,,,,,,,,
99055,1480873123087,0,103.3,0.6,137.8,75,123.0,14.87,0.09,0.12,0.97,-2.9,-0.5,-0.2,4280,21,1,1,0.0,0,38.159134,-122.454353,0.0,0.0,52.7,10,3,1.6,0,0.0,-1,0.0,0.0,0.0,0
99075,1480873123007,,,,,,,,0.09,0.06,1.01,-2.9,-0.9,-0.4,4240,21,,,,,,,,,,,,,,,,,,,
99095,1480873123027,,,,,,,,0.07,0.02,1.02,-3.0,-1.1,-0.4,4220,21,,,,,,,,,,,,,,,,,,,
99115,1480873123047,,,,,,,,0.09,0.04,1.01,-2.9,-1.6,-0.3,4240,21,,,,,,,,,,,,,,,,,,,
99135,1480873123067,,,,,,,,0.1,0.11,1.01,-3.0,-1.4,-0.4,4220,1538461,,,,,,,,,,,,,,,,,,,
99155,1480873123087,,,,,77,,,0.1,0.04,1.04,-3.0,-0.8,-0.3,4280,0,1,1,202.857,0,38.159134,-122.454353,0.0,0.0,52.7,10,3,1.6,0,0.0,-1,0.0,,0.0,0
99175,1480873123107,,,,,,,,0.11,0.05,1.08,-2.9,-0.5,-0.5,4200,0,,,,,,,,,,,,,,,,,,,
99195,1480873123127,,,,,,,,0.12,0.13,1.03,-3.0,-0.7,-0.2,4320,0,,,,,,,,,,,,,,,,,,,
99215,1480873123147,,,,,,,,0.11,0.1,1.07,-3.0,-1.3,-0.4,4280,0,,,,,,,,,,,,,,,,,,,
99235,1480873123167,,,,,,,,0.09,0.06,1.11,-3.1,-1.3,-0.4,4280,0,,,,,,,,,,,,,,,,,,,
99255,1480873123187,1,105.8,,137.7,87,125.1,,0.11,0.05,1.07,-3.1,-1.5,-0.3,4320,0,1,1,0.0,0,38.159134,-122.454353,0.0,0.0,52.7,10,3,1.6,0,0.0,-1,0.0,0.0,0.0,0
99275,1480873123207,,,,,,,,0.11,0.12,1.06,-3.1,-1.4,-0.4,4320,0,,,,,,,,,,,,,,,,,,,
99295,1480873123227,,,,,,,,0.11,0.14,1.06,-3.2,-0.8,-0.3,4280,15,,,,,,,,,,,,,,,,,,,
99315,1480873123247,,,,,,,,0.13,0.1,1.1,-3.0,-0.5,-0.5,4360,15,,,,,,,,,,,,,,,,,,,
99335,1480873123267,,,,,,,,0.13,0.13,1.01,-3.1,-0.7,-0.2,4320,15,,,,,,,,,,,,,,,,,,,
99355,1480873123287,,,,,78,,,0.12,0.12,1.04,-3.1,-1.3,-0.4,4280,1538461,1,1,0.0,0,38.159134,-122.454353,0.0,0.0,52.7,10,3,1.6,0,0.0,-1,0.0,,0.0,0
99375,1480873123307,,,,,,,,0.09,0.06,1.1,-3.1,-1.3,-0.4,4340,0,,,,,,,,,,,,,,,,,,,
99395,1480873123327,,,,,,,,0.11,0.04,1.05,-3.0,-2.0,-0.3,4300,0,,,,,,,,,,,,,,,,,,,
99415,1480873123347,,,,,,,,0.11,0.11,1.05,-3.1,-1.5,-0.4,4240,0,,,,,,,,,,,,,,,,,,,
99435,1480873123367,,,,,,,,0.12,0.04,1.07,-3.1,-0.9,-0.3,4280,0,,,,,,,,,,,,,,,,,,,
99455,1480873123387,1,103.0,,136.4,73,123.8,,0.13,0.09,1.09,-3.0,-0.5,-0.4,4280,0,1,1,0.0,0,38.159134,-122.454353,0.0,0.0,52.7,10,3,1.6,0,0.0,-1,0.0,0.0,0.0,0
99475,1480873123407,,,,,,,,0.12,0.15,1.1,-3.1,-0.5,-0.3,4380,0,,,,,,,,,,,,,,,,,,,
99495,1480873123427,,,,,,,,0.12,0.09,1.13,-3.0,-0.7,-0.6,4340,0,,,,,,,,,,,,,,,,,,,
99515,1480873123447,,,,,,,,0.11,0.13,1.01,-3.0,-1.2,-0.3,4360,0,,,,,,,,,,,,,,,,,,,
99535,1480873123467,,,,,,,,0.12,0.11,1.0,-3.0,-1.6,-0.4,4360,0,,,,,,,,,,,,,,,,,,,
99555,1480873123487,,,,,75,,,0.1,0.06,0.99,-3.1,-1.3,-0.3,4360,0,1,1,0.0,0,38.159134,-122.454353,0.0,0.0,52.7,10,3,1.6,0,0.0,-1,0.0,,0.0,0
99575,1480873123507,,,,,,,,0.1,0.07,0.96,-3.0,-1.8,-0.2,4340,0,,,,,,,,,,,,,,,,,,,
99595,1480873123527,,,,,,,,0.08,0.06,1.0,-3.1,-1.5,-0.3,4440,93,,,,,,,,,,,,,,,,,,,
99615,1480873123547,,,,,,,,0.09,0.02,0.97,-3.1,-1.7,-0.3,4320,93,,,,,,,,,,,,,,,,,,,
99635,1480873123567,,,,,,,,0.1,0.1,0.97,-3.0,-1.4,-0.4,4420,0,,,,,,,,,,,,,,,,,,,
99655,1480873123587,0,102.5,,136.2,74,123.7,,0.1,0.05,1.02,-3.1,-0.8,-0.2,4380,0,1,1,47.742,0,38.159134,-122.454353,0.0,0.0,52.7,10,3,1.6,0,0.0,-1,0.0,0.0,0.0,0
99675,1480873123706,,,,,,,,0.11,0.1,1.04,-3.0,-0.5,-0.4,4320,0,,,,,,,,,,,,,,,,,,,
99695,1480873123726,,,,,,,,0.1,0.13,1.06,-3.1,-0.4,-0.2,4420,0,,,,,,,,,,,,,,,,,,,
99715,1480873123746,,,,,,,,0.11,0.09,1.07,-3.1,-0.5,-0.5,4320,0,,,,,,,,,,,,,,,,,,,
99735,1480873123766,,,,,,,,0.11,0.16,0.97,-3.0,-0.8,-0.2,4380,0,,,,,,,,,,,,,,,,,,,
99755,1480873123786,,,,,77,,,0.12,0.1,0.99,-3.1,-0.8,-0.3,4360,0,1,1,0.0,0,38.159134,-122.454353,0.0,0.0,52.7,10,3,1.6,0,0.0,-1,0.0,,0.0,0
99775,1480873123806,,,,,,,,0.1,0.09,0.92,-3.1,-0.8,-0.1,4320,0,,,,,,,,,,,,,,,,,,,
99795,1480873123826,,,,,,,,0.1,0.07,0.97,-3.1,-1.4,-0.3,4440,0,,,,,,,,,,,,,,,,,,,
99815,1480873123846,,,,,,,,0.08,0.03,1.0,-3.2,-1.4,-0.3,4320,0,,,,,,,,,,,,,,,,,,,
99835,1480873123866,,,,,,,,0.09,0.05,0.98,-3.0,-2.1,-0.3,4400,0,,,,,,,,,,,,,,,,,,,
99855,1480873123886,0,103.7,,136.3,70,124.4,,0.08,0.03,1.02,-3.1,-1.6,-0.3,4420,0,1,1,0.0,0,38.159134,-122.454353,0.0,0.0,52.7,10,3,1.6,0,0.0,-1,0.0,0.0,0.0,0
99875,1480873123807,,,,,,,,0.09,0.04,0.94,-3.0,-1.9,-0.2,4380,0,,,,,,,,,,,,,,,,,,,
99895,1480873123827,,,,,,,,0.08,0.06,0.97,-3.0,-1.4,-0.3,4460,0,,,,,,,,,,,,,,,,,,,
99915,1480873123847,,,,,,,,0.08,0.01,0.95,-3.1,-1.5,-0.3,4420,0,,,,,,,,,,,,,,,,,,,
99935,1480873123867,,,,,,,,0.09,0.09,0.96,-3.0,-1.3,-0.4,4400,0,,,,,,,,,,,,,,,,,,,
99955,1480873123887,,,,,88,,,0.09,0.03,0.99,-3.1,-0.6,-0.2,4420,0,1,1,0.0,0,38.159134,-122.454353,0.0,0.0,52.7,10,3,1.6,0,0.0,-1,0.0,,0.0,0
99975,1480873123902,,,,,,,,0.1,0.1,0.99,-3.0,-0.4,-0.4,4380,0,,,,,,,,,,,,,,,,,,,
99995,1480873123922,,,,,,,,0.09,0.07,1.01,-3.1,-0.1,-0.2,4440,0,,,,,,,,,,,,,,,,,,,
100015,1480873123942,,,,,,,,0.1,0.09,1.02,-3.0,-0.3,-0.4,4380,0,,,,,,,,,,,,,,,,,,,
100035,1480873123962,,,,,,,,0.09,0.13,1.02,-3.1,-0.2,-0.2,4460,0,,,,,,,,,,,,,,,,,,,
100055,1480873123982,0,102.7,0.4,136.3,67,123.4,14.78,0.11,0.1,1.08,-3.1,-0.1,-0.4,4460,0,1,1,0.0,0,38.159134,-122.454353,0.0,0.0,52.7,10,3,1.6,0,0.0,-1,0.0,0.0,0.0,0
100075,1480873124001,,,,,,,,0.11,0.16,1.04,-3.1,-0.1,-0.1,4380,0,,,,,,,,,,,,,,,,,,,
100095,1480873124021,,,,,,,,0.11,0.08,1.08,-3.1,-0.4,-0.4,4400,0,,,,,,,,,,,,,,,,,,,
100115,1480873124041,,,,,,,,0.11,0.14,0.97,-3.0,-0.8,-0.2,4420,0,,,,,,,,,,,,,,,,,,,
100135,1480873124061,,,,,,,,0.12,0.07,0.97,-3.0,-1.2,-0.3,4480,0,,,,,,,,,,,,,,,,,,,
100155,1480873124081,,,,,76,,,0.11,0.06,0.91,-3.1,-1.0,-0.1,4360,0,1,1,0.0,0,38.159134,-122.454353,0.0,0.0,52.7,10,3,1.6,0,0.0,-1,0.0,,0.0,0
100175,1480873124107,,,,,,,,0.1,0.03,0.97,-3.0,-1.5,-0.3,4320,0,,,,,,,,,,,,,,,,,,,
100195,1480873124127,,,,,,,,0.08,-0.0,0.97,-3.1,-1.4,-0.3,4460,0,,,,,,,,,,,,,,,,,,,
100215,1480873124147,,,,,,,,0.08,0.02,0.94,-3.0,-2.2,-0.3,4480,0,,,,,,,,,,,,,,,,,,,
100235,1480873124167,,,,,,,,0.07,-0.02,0.95,-3.1,-1.6,-0.3,4400,0,,,,,,,,,,,,,,,,,,,
100255,1480873124187,0,104.5,,136.4,80,124.9,,0.08,0.02,0.91,-3.0,-2.2,-0.3,4420,0,1,1,0.0,0,38.159134,-122.454353,0.0,0.0,52.7,10,3,1.6,0,0.0,-1,0.0,0.0,0.0,0
100275,1480873124207,,,,,,,,0.06,-0.02,0.99,-3.1,-1.8,-0.4,4460,0,,,,,,,,,,,,,,,,,,,
100295,1480873124227,,,,,,,,0.08,0.01,0.97,-3.0,-2.3,-0.3,4380,0,,,,,,,,,,,,,,,,,,,
100315,1480873124247,,,,,,,,0.07,0.03,1.03,-3.0,-1.8,-0.4,4360,0,,,,,,,,,,,,,,,,,,,
100335,1480873124267,,,,,,,,0.09,0.02,0.95,-3.1,-1.6,-0.2,4420,0,,,,,,,,,,,,,,,,,,,
100355,1480873124287,,,,,78,,,0.08,0.07,0.95,-3.0,-1.2,-0.4,4400,0,1,1,0.0,0,38.159134,-122.454353,0.0,0.0,52.7,10,3,1.6,0,0.0,-1,0.0,,0.0,0
100375,1480873124307,,,,,,,,0.08,0.02,0.95,-3.2,-1.0,-0.3,4440,0,,,,,,,,,,,,,,,,,,,
100395,1480873124327,,,,,,,,0.1,0.11,0.95,-3.1,-1.0,-0.4,4440,0,,,,,,,,,,,,,,,,,,,
100415,1480873124347,,,,,,,,0.09,0.05,1.01,-3.2,-0.4,-0.2,4380,0,,,,,,,,,,,,,,,,,,,
100435,1480873124367,,,,,,,,0.11,0.11,1.03,-3.1,-0.1,-0.4,4500,0,,,,,,,,,,,,,,,,,,,
100455,1480873124387,0,105.5,,136.9,74,125.2,,0.09,0.1,1.06,-3.1,0.1,-0.2,4380,0,1,1,0.0,0,38.159134,-122.454353,0.0,0.0,52.7,10,3,1.6,0,0.0,-1,0.0,0.0,0.0,0
100475,1480873124507,,,,,,,,0.1,0.1,1.05,-3.1,-0.1,-0.4,4340,0,,,,,,,,,,,,,,,,,,,
100495,1480873124527,,,,,,,,0.1,0.15,1.02,-3.1,-0.4,-0.2,4420,0,,,,,,,,,,,,,,,,,,,
100515,1480873124547,,,,,,,,0.12,0.1,1.08,-3.1,-0.4,-0.4,4380,0,,,,,,,,,,,,,,,,,,,
100535,1480873124567,,,,,,,,0.12,0.15,1.02,-3.1,-0.5,-0.1,4320,0,,,,,,,,,,,,,,,,,,,
100555,1480873124587,,,,,74,,,0.11,0.13,1.05,-3.1,-1.0,-0.3,4360,0,1,1,0.0,0,38.159134,-122.454353,0.0,0.0,52.7,10,3,1.6,0,0.0,-1,0.0,,0.0,0
100575,1480873124607,,,,,,,,0.08,0.07,1.09,-3.1,-1.0,-0.3,4380,0,,,,,,,,,,,,,,,,,,,
100595,1480873124627,,,,,,,,0.1,0.1,1.04,-3.0,-1.7,-0.3,4440,0,,,,,,,,,,,,,,,,,,,
100615,1480873124647,,,,,,,,0.08,0.08,1.09,-3.1,-1.2,-0.3,4380,0,,,,,,,,,,,,,,,,,,,
100635,1480873124667,,,,,,,,0.1,0.07,1.01,-3.0,-1.5,-0.2,4380,0,,,,,,,,,,,,,,,,,,,
100655,1480873124687,0,105.5,,136.9,84,125.4,,0.08,0.11,1.01,-3.0,-1.3,-0.3,4460,0,1,1,0.0,0,38.159134,-122.454353,0.0,0.0,52.7,10,3,1.6,0,0.0,-1,0.0,0.0,0.0,0
100675,1480873124607,,,,,,,,0.08,0.04,0.99,-3.1,-1.4,-0.2,4340,0,,,,,,,,,,,,,,,,,,,
100695,1480873124627,,,,,,,,0.09,0.11,0.99,-3.0,-1.3,-0.3,4400,0,,,,,,,,,,,,,,,,,,,
100715,1480873124647,,,,,,,,0.09,0.1,1.04,-3.1,-0.7,-0.2,4420,0,,,,,,,,,,,,,,,,,,,
100735,1480873124667,,,,,,,,0.11,0.1,1.1,-3.0,-0.4,-0.4,4440,0,,,,,,,,,,,,,,,,,,,
100755,1480873124687,,,,,73,,,0.1,0.16,1.08,-3.1,-0.4,-0.2,4440,0,1,1,0.0,0,38.159134,-122.454353,0.0,0.0,52.7,10,3,1.6,0,0.0,-1,0.0,,0.0,0
100775,1480873124707,,,,,,,,0.1,0.09,1.12,-3.1,-0.6,-0.5,4340,0,,,,,,,,,,,,,,,,,,,
100795,1480873124727,,,,,,,,0.1,0.11,1.0,-3.1,-1.0,-0.2,4380,0,,,,,,,,,,,,,,,,,,,
100815,1480873124747,,,,,,,,0.1,0.09,0.98,-3.1,-1.2,-0.3,4300,0,,,,,,,,,,,,,,,,,,,
100835,1480873124767,,,,,,,,0.08,0.04,0.99,-3.1,-1.0,-0.2,4400,0,,,,,,,,,,,,,,,,,,,
100855,1480873124787,0,105.8,,137.7,77,124.9,,0.09,0.06,0.95,-3.1,-1.5,-0.2,4340,0,1,1,0.0,0,38.159134,-122.454353,0.0,0.0,52.7,10,3,1.6,0,0.0,-1,0.0,0.0,0.0,0
100875,1480873124807,,,,,,,,0.06,0.05,1.01,-3.2,-1.3,-0.3,4400,0,,,,,,,,,,,,,,,,,,,
100895,1480873124827,,,,,,,,0.08,0.01,0.96,-3.1,-1.6,-0.2,4280,0,,,,,,,,,,,,,,,,,,,
100915,1480873124847,,,,,,,,0.08,0.09,0.98,-3.1,-1.3,-0.3,4340,0,,,,,,,,,,,,,,,,,,,
100935,1480873124867,,,,,,,,0.09,0.04,1.03,-3.2,-0.7,-0.2,4340,32,,,,,,,,,,,,,,,,,,,
100955,1480873124887,,,,,72,,,0.1,0.08,1.08,-3.0,-0.5,-0.4,4380,32,1,1,0.0,0,38.159134,-122.454353,0.0,0.0,52.7,10,3,1.6,0,0.0,-1,0.0,,0.0,0
100975,1480873124902,,,,,,,,0.09,0.14,1.09,-3.1,-0.5,-0.2,4320,32,,,,,,,,,,,,,,,,,,,
100995,1480873124922,,,,,,,,0.1,0.08,1.11,-3.1,-0.7,-0.5,4340,0,,,,,,,,,,,,,,,,,,,
101015,1480873124942,,,,,,,,0.1,0.12,1.0,-3.0,-1.1,-0.3,4280,0,,,,,,,,,,,,,,,,,,,
101035,1480873124962,,,,,,,,0.1,0.09,0.98,-3.0,-1.4,-0.4,4360,0,,,,,,,,,,,,,,,,,,,
101055,1480873124982,0,104.2,0.5,137.1,76,123.3,14.81,0.08,0.04,0.98,-3.1,-1.2,-0.3,4420,0,1,1,0.003,0,38.159134,-122.454353,0.0,0.0,52.7,10,3,1.6,0,0.0,-1,0.0,0.0,0.0,0
101075,1480873125006,,,,,,,,0.09,0.06,0.95,-3.0,-1.6,-0.2,4400,0,,,,,,,,,,,,,,,,,,,
101095,1480873125026,,,,,,,,0.07,0.06,0.99,-3.1,-1.3,-0.3,4400,0,,,,,,,,,,,,,,,,,,,
101115,1480873125046,,,,,,,,0.08,0.0,0.94,-3.1,-1.2,-0.2,4340,0,,,,,,,,,,,,,,,,,,,
101135,1480873125066,,,,,,,,0.09,0.09,0.94,-3.0,-1.1,-0.3,4260,0,,,,,,,,,,,,,,,,,,,
101155,1480873125086,,,,,73,,,0.09,0.07,1.0,-3.1,-0.6,-0.2,4300,0,1,1,0.0,0,38.159134,-122.454353,0.0,0.0,52.7,10,3,1.6,0,0.0,-1,0.0,,0.0,0
101175,1480873125107,,,,,,,,0.11,0.08,1.05,-3.0,-0.4,-0.4,4320,0,,,,,,,,,,,,,,,,,,,
101195,1480873125127,,,,,,,,0.11,0.15,1.04,-3.1,-0.5,-0.1,4400,0,,,,,,,,,,,,,,,,,,,
101215,1480873125147,,,,,,,,0.11,0.09,1.07,-3.1,-0.9,-0.4,4360,0,,,,,,,,,,,,,,,,,,,
101235,1480873125167,,,,,,,,0.1,0.08,1.01,-3.1,-1.3,-0.2,4380,0,,,,,,,,,,,,,,,,,,,
101255,1480873125187,0,105.4,,135.6,73,124.4,,0.11,0.09,1.0,-3.0,-1.9,-0.3,4340,0,1,1,0.0,0,38.159134,-122.454353,0.0,0.0,52.7,10,3,1.6,0,0.0,-1,0.0,0.0,0.0,0
101275,1480873125306,,,,,,,,0.09,0.06,1.04,-3.1,-1.5,-0.3,4360,0,,,,,,,,,,,,,,,,,,,
101295,1480873125326,,,,,,,,0.1,0.03,0.98,-3.1,-1.3,-0.2,4380,0,,,,,,,,,,,,,,,,,,,
101315,1480873125346,,,,,,,,0.09,0.08,0.95,-3.0,-1.0,-0.3,4320,0,,,,,,,,,,,,,,,,,,,
101335,1480873125366,,,,,,,,0.08,0.03,0.96,-3.1,-0.7,-0.2,4340,0,,,,,,,,,,,,,,,,,,,
101355,1480873125386,,,,,65,,,0.09,0.06,0.96,-3.0,-0.8,-0.4,4300,0,1,1,0.0,0,38.159134,-122.454353,0.0,0.0,52.7,10,3,1.6,0,0.0,-1,0.0,,0.0,0
101375,1480873125406,,,,,,,,0.09,0.13,0.91,-3.0,-0.9,-0.1,4280,0,,,,,,,,,,,,,,,,,,,
101395,1480873125426,,,,,,,,0.11,0.08,0.94,-3.1,-1.0,-0.3,4320,0,,,,,,,,,,,,,,,,,,,
101415,1480873125446,,,,,,,,0.1,0.07,0.86,-3.1,-0.9,-0.0,4360,0,,,,,,,,,,,,,,,,,,,
101435,1480873125466,,,,,,,,0.1,0.07,0.9,-3.1,-1.4,-0.1,4300,0,,,,,,,,,,,,,,,,,,,
101455,1480873125486,0,106.3,,137.3,85,125.6,,0.07,0.02,0.99,-3.2,-1.3,-0.2,4340,0,1,1,0.0,0,38.159134,-122.454353,0.0,0.0,52.7,10,3,1.6,0,0.0,-1,0.0,0.0,0.0,0
101475,1480873125406,,,,,,,,0.09,0.01,0.97,-3.1,-1.5,-0.2,4260,0,,,,,,,,,,,,,,,,,,,
101495,1480873125426,,,,,,,,0.09,0.08,1.0,-3.1,-1.3,-0.3,4360,0,,,,,,,,,,,,,,,,,,,
101515,1480873125446,,,,,,,,0.1,0.01,1.02,-3.2,-0.7,-0.1,4380,0,,,,,,,,,,,,,,,,,,,
101535,1480873125466,,,,,,,,0.11,0.07,1.03,-3.0,-0.4,-0.4,4440,0,,,,,,,,,,,,,,,,,,,
101555,1480873125486,,,,,66,,,0.1,0.11,1.05,-3.1,-0.5,-0.2,4440,0,1,1,0.0,0,38.159134,-122.454353,0.0,0.0,52.7,10,3,1.6,0,0.0,-1,0.0,,0.0,0
101575,1480873125507,,,,,,,,0.1,0.06,1.07,-3.1,-0.7,-0.5,4380,0,,,,,,,,,,,,,,,,,,,
101595,1480873125527,,,,,,,,0.1,0.12,0.96,-3.0,-1.1,-0.3,4400,0,,,,,,,,,,,,,,,,,,,
101615,1480873125547,,,,,,,,0.11,0.08,0.95,-3.0,-1.4,-0.4,4340,0,,,,,,,,,,,,,,,,,,,
101635,1480873125567,,,,,,,,0.09,0.03,0.93,-3.1,-1.0,-0.3,4380,0,,,,,,,,,,,,,,,,,,,
101655,1480873125587,0,106.1,,136.5,73,125.0,,0.09,0.05,0.93,-3.0,-1.4,-0.2,4340,0,1,1,0.0,0,38.159134,-122.454353,0.0,0.0,52.7,10,3,1.6,0,0.0,-1,0.0,0.0,0.0,0
101675,1480873125607,,,,,,,,0.06,0.02,0.99,-3.1,-1.2,-0.4,4380,0,,,,,,,,,,,,,,,,,,,
101695,1480873125627,,,,,,,,0.08,0.0,0.96,-3.1,-1.3,-0.3,4280,0,,,,,,,,,,,,,,,,,,,
101715,1480873125647,,,,,,,,0.09,0.08,0.98,-3.0,-1.2,-0.4,4380,0,,,,,,,,,,,,,,,,,,,
101735,1480873125667,,,,,,,,0.09,0.02,1.0,-3.1,-0.5,-0.3,4300,0,,,,,,,,,,,,,,,,,,,
101755,1480873125687,,,,,61,,,0.1,0.08,1.02,-3.0,-0.3,-0.4,4360,0,1,1,0.0,0,38.159134,-122.454353,0.0,0.0,52.7,10,3,1.6,0,0.0,-1,0.0,,0.0,0
101775,1480873125708,,,,,,,,0.09,0.11,1.05,-3.1,-0.5,-0.3,4380,0,,,,,,,,,,,,,,,,,,,
101795,1480873125728,,,,,,,,0.1,0.08,1.06,-3.1,-0.7,-0.5,4380,0,,,,,,,,,,,,,,,,,,,
101815,1480873125748,,,,,,,,0.1,0.14,0.96,-3.0,-1.1,-0.3,4340,0,,,,,,,,,,,,,,,,,,,
101835,1480873125768,,,,,,,,0.11,0.09,0.97,-3.0,-1.4,-0.4,4380,0,,,,,,,,,,,,,,,,,,,
101855,1480873125788,0,106.0,,137.0,87,125.6,,0.08,0.04,0.99,-3.1,-1.1,-0.3,4300,0,1,1,0.0,0,38.159134,-122.454353,0.0,0.0,52.7,10,3,1.6,0,0.0,-1,0.0,0.0,0.0,0
101875,1480873125807,,,,,,,,0.09,0.05,0.93,-3.0,-1.5,-0.2,4360,0,,,,,,,,,,,,,,,,,,,
