"Interval"|"ms"|0|0|1,"Utc"|"ms"|0|0|1,"FuelLevel"|"F"|0|100|5,"OilTemp"|"F"|0.0|300.0|5,"CoolantPressPSI"|"PSI"|0.0|20.0|1,"Coolant"|"F"|0.0|300.0|5,"OilPress"|"PSI"|0|150|10,"EngineTemp"|"F"|0.0|300.0|5,"Battery"|"Volts"|0.0|20.0|1,"AccelX"|"G"|-3.0|3.0|50,"AccelY"|"G"|-3.0|3.0|50,"AccelZ"|"G"|-3.0|3.0|50,"Yaw"|"Deg/Sec"|-300.0|300.0|50,"Pitch"|"Deg/Sec"|-300.0|300.0|50,"Roll"|"Deg/Sec"|-300.0|300.0|50,"RPM"|""|0|10000|50,"Driveshaft"|"RPM"|0|5000|50,"GPIO1"|""|0|1|10,"GPIO2"|""|0|1|10,"GearRatio"|""|-5.0|5.0|10,"Gear"|""|-1|5|10,"Latitude"|"Degrees"|-180.0|180.0|10,"Longitude"|"Degrees"|-180.0|180.0|10,"Speed"|"MPH"|0.0|150.0|10,"Distance"|"Miles"|0.0|0.0|10,"Altitude"|"Feet"|0.0|4000.0|10,"GPSSats"|""|0|20|10,"GPSQual"|""|0|5|10,"GPSDOP"|""|0.0|20.0|10,"LapCount"|""|0|0|10,"LapTime"|"Min"|0.0|0.0|10,"Sector"|""|0|0|10,"SectorTime"|"Min"|0.0|0.0|10,"PredTime"|"Min"|0.0|0.0|5,"ElapsedTime"|"Min"|0.0|0.0|10,"CurrentLap"|""|0|0|10
10783751,1480896436865,,,,,,,,0.01,0.05,0.99,-3.0,-0.2,-0.2,520,0,,,,,,,,,,,,,,,,,,,
10783771,1480896436885,,,,,,,,0.01,0.04,0.99,-3.0,-0.4,-0.3,520,0,,,,,,,,,,,,,,,,,,,
10783791,1480896436897,,,,,,,,0.01,0.04,0.98,-3.0,-0.4,-0.2,620,0,,,,,,,,,,,,,,,,,,,
10783811,1480896436917,,,,,,,,0.02,0.05,0.98,-3.0,-0.5,-0.2,700,0,,,,,,,,,,,,,,,,,,,
10783833,1480896436939,1,196.2,,172.6,0,211.1,,0.03,0.03,0.98,-2.9,-0.8,-0.2,800,0,0,0,0.0,0,38.16,-122.45356,0.0,2.515,64.9,9,2,1.7,63,2.2583,2,0.1467,5.1538,5.0433,64
10783852,1480896436958,,,,,,,,0.03,0.03,0.96,-2.8,-0.5,-0.2,920,0,,,,,,,,,,,,,,,,,,,
10783872,1480896436978,,,,,,,,0.03,0.03,0.96,-2.9,-0.6,-0.1,960,0,,,,,,,,,,,,,,,,,,,
10783892,1480896437103,,,,,,,,0.03,0.03,0.96,-3.0,-0.9,-0.2,960,0,,,,,,,,,,,,,,,,,,,
10783912,1480896437123,,,,,,,,0.02,0.04,0.96,-3.0,-0.7,-0.2,940,0,,,,,,,,,,,,,,,,,,,
10783932,1480896437143,,,,,3,,,0.02,0.04,0.96,-3.1,-0.6,-0.1,940,0,0,0,0.0,0,38.16,-122.45356,0.0,2.515,64.9,9,2,1.7,63,2.2583,2,0.1467,,5.0467,64
10783952,1480896437163,,,,,,,,0.03,0.06,0.96,-3.1,-0.5,0.1,900,0,,,,,,,,,,,,,,,,,,,
10783972,1480896437183,,,,,,,,0.05,0.07,0.97,-3.1,-0.1,0.1,920,0,,,,,,,,,,,,,,,,,,,
10783992,1480896437203,,,,,,,,0.05,0.08,0.98,-3.2,0.2,0.1,940,0,,,,,,,,,,,,,,,,,,,
10784012,1480896437223,,,,,,,,0.05,0.1,0.97,-3.2,0.1,0.1,960,0,,,,,,,,,,,,,,,,,,,
10784034,1480896437245,0,197.6,,173.2,4,210.5,,0.07,0.11,0.97,-3.2,0.1,0.0,1000,0,0,1,0.0,0,38.16,-122.45356,0.0,2.515,64.9,9,2,1.7,63,2.2583,2,0.1467,5.1589,5.0467,64
10784053,1480896437264,,,,,,,,0.08,0.13,0.97,-3.3,0.2,0.1,1140,0,,,,,,,,,,,,,,,,,,,
10784073,1480896437284,,,,,,,,0.09,0.14,1.0,-3.3,0.5,0.2,1160,0,,,,,,,,,,,,,,,,,,,
10784093,1480896437207,,,,,,,,0.08,0.12,1.0,-3.2,0.7,0.2,1220,0,,,,,,,,,,,,,,,,,,,
10784113,1480896437227,,,,,,,,0.07,0.12,1.0,-3.3,0.1,0.0,1260,0,,,,,,,,,,,,,,,,,,,
10784133,1480896437247,,,,,11,,,0.08,0.12,1.01,-3.2,-0.1,-0.0,1300,0,0,1,0.0,0,38.16,-122.45356,0.0,2.515,64.9,9,2,1.7,63,2.2583,2,0.1467,,5.0483,64
10784153,1480896437267,,,,,,,,0.08,0.12,1.01,-3.2,-0.2,-0.1,1400,0,,,,,,,,,,,,,,,,,,,
10784173,1480896437287,,,,,,,,0.07,0.12,1.01,-3.2,-0.6,-0.1,1420,0,,,,,,,,,,,,,,,,,,,
10784193,1480896437307,,,,,,,,0.08,0.1,0.99,-3.1,-0.3,-0.1,1500,0,,,,,,,,,,,,,,,,,,,
10784213,1480896437327,,,,,,,,0.08,0.11,1.0,-3.0,-0.2,-0.2,1520,0,,,,,,,,,,,,,,,,,,,
10784235,1480896437349,0,196.9,0.0,173.4,14,211.7,13.48,0.08,0.1,1.01,-2.9,-0.1,-0.2,1560,0,0,1,0.0,0,38.16,-122.45356,0.0,2.515,64.9,9,2,1.7,63,2.2583,2,0.1467,5.1606,5.05,64
10784254,1480896437368,,,,,,,,0.07,0.1,1.01,-2.9,-0.4,-0.3,1580,0,,,,,,,,,,,,,,,,,,,
10784274,1480896437388,,,,,,,,0.07,0.09,0.99,-3.0,0.0,-0.3,1600,0,,,,,,,,,,,,,,,,,,,
10784294,1480896437407,,,,,,,,0.06,0.1,1.0,-3.1,-0.4,-0.3,1640,0,,,,,,,,,,,,,,,,,,,
10784314,1480896437427,,,,,,,,0.07,0.1,1.0,-3.0,-0.3,-0.2,1660,0,,,,,,,,,,,,,,,,,,,
10784334,1480896437447,,,,,19,,,0.06,0.09,1.0,-3.0,-0.3,-0.2,1680,0,0,1,0.0,0,38.16,-122.45356,0.0,2.515,64.9,9,2,1.7,63,2.2583,2,0.1467,,5.0517,64
10784354,1480896437467,,,,,,,,0.06,0.09,1.01,-3.0,-0.2,-0.3,1680,0,,,,,,,,,,,,,,,,,,,
10784374,1480896437487,,,,,,,,0.07,0.09,1.02,-2.9,-0.5,-0.3,1700,0,,,,,,,,,,,,,,,,,,,
10784394,1480896437507,,,,,,,,0.06,0.09,1.01,-3.0,-0.4,-0.3,1680,0,,,,,,,,,,,,,,,,,,,
10784414,1480896437527,,,,,,,,0.06,0.09,1.01,-3.0,-0.5,-0.3,1680,0,,,,,,,,,,,,,,,,,,,
10784436,1480896437549,0,197.3,,172.9,26,210.4,,0.04,0.09,1.0,-3.0,-0.3,-0.3,1680,0,0,1,0.0,0,38.16,-122.45356,0.0,2.515,64.9,9,2,1.7,63,2.2583,2,0.1467,5.164,5.0533,64
10784455,1480896437568,,,,,,,,0.05,0.08,1.0,-3.0,-0.2,-0.3,1680,0,,,,,,,,,,,,,,,,,,,
10784475,1480896437588,,,,,,,,0.05,0.07,1.0,-2.9,-0.4,-0.3,1640,0,,,,,,,,,,,,,,,,,,,
10784495,1480896437609,,,,,,,,0.05,0.08,1.0,-3.0,-0.3,-0.3,1640,0,,,,,,,,,,,,,,,,,,,
10784515,1480896437629,,,,,,,,0.05,0.09,1.0,-3.0,-0.3,-0.3,1660,0,,,,,,,,,,,,,,,,,,,
10784535,1480896437649,,,,,28,,,0.05,0.09,1.0,-3.0,-0.4,-0.3,1640,0,0,1,0.0,0,38.16,-122.45356,0.0,2.515,64.9,9,2,1.7,63,2.2583,2,0.1467,,5.055,64
10784555,1480896437669,,,,,,,,0.05,0.09,1.0,-3.0,-0.4,-0.3,1600,0,,,,,,,,,,,,,,,,,,,
10784575,1480896437689,,,,,,,,0.06,0.08,1.01,-3.0,-0.3,-0.3,1640,0,,,,,,,,,,,,,,,,,,,
10784595,1480896437709,,,,,,,,0.05,0.09,1.0,-3.0,-0.6,-0.3,1620,0,,,,,,,,,,,,,,,,,,,
10784615,1480896437729,,,,,,,,0.05,0.08,0.99,-3.0,-0.2,-0.3,1580,0,,,,,,,,,,,,,,,,,,,
10784637,1480896437751,0,197.1,,173.4,30,211.7,,0.04,0.08,0.99,-3.1,-0.5,-0.2,1560,0,0,1,0.0,0,38.16,-122.45356,0.0,2.515,64.9,9,2,1.7,63,2.2583,2,0.1467,5.1673,5.0567,64
10784656,1480896437770,,,,,,,,0.03,0.08,1.0,-3.1,-0.3,-0.2,1540,0,,,,,,,,,,,,,,,,,,,
10784676,1480896437790,,,,,,,,0.03,0.07,0.99,-3.0,-0.1,-0.3,1540,0,,,,,,,,,,,,,,,,,,,
10784696,1480896437909,,,,,,,,0.03,0.08,0.99,-3.0,-0.5,-0.2,1520,0,,,,,,,,,,,,,,,,,,,
10784716,1480896437929,,,,,,,,0.03,0.08,0.99,-3.0,-0.5,-0.2,1500,0,,,,,,,,,,,,,,,,,,,
10784736,1480896437949,,,,,26,,,0.03,0.09,0.98,-3.0,-0.3,-0.2,1480,0,0,1,0.0,0,38.16,-122.45356,0.0,2.515,64.9,9,2,1.7,63,2.2583,2,0.1467,,5.06,64
10784756,1480896437969,,,,,,,,0.02,0.08,0.99,-3.0,-0.4,-0.2,1480,0,,,,,,,,,,,,,,,,,,,
10784776,1480896437989,,,,,,,,0.02,0.08,0.97,-3.0,-0.6,-0.2,1460,0,,,,,,,,,,,,,,,,,,,
10784796,1480896438009,,,,,,,,0.03,0.08,0.98,-3.1,-0.5,-0.2,1420,0,,,,,,,,,,,,,,,,,,,
10784816,1480896438029,,,,,,,,0.02,0.07,0.98,-3.1,-0.4,-0.2,1420,0,,,,,,,,,,,,,,,,,,,
10784838,1480896438051,0,196.4,,172.8,27,210.9,,0.02,0.07,0.99,-3.1,-0.2,-0.2,1420,0,0,1,0.0,0,38.16,-122.45356,0.0,2.515,64.9,9,2,1.7,63,2.2583,2,0.1467,5.1723,5.06,64
10784857,1480896438070,,,,,,,,0.02,0.07,0.99,-3.1,-0.4,-0.2,1380,0,,,,,,,,,,,,,,,,,,,
10784877,1480896437991,,,,,,,,0.02,0.07,0.99,-3.1,-0.5,-0.1,1380,0,,,,,,,,,,,,,,,,,,,
10784897,1480896438011,,,,,,,,0.02,0.07,0.98,-3.1,-0.5,-0.1,1360,0,,,,,,,,,,,,,,,,,,,
10784917,1480896438031,,,,,,,,0.02,0.07,0.97,-3.0,-0.4,-0.1,1340,0,,,,,,,,,,,,,,,,,,,
10784937,1480896438051,,,,,23,,,0.02,0.07,0.98,-3.0,-0.4,-0.1,1340,0,0,1,0.0,0,38.16,-122.45356,0.0,2.515,64.9,9,2,1.7,63,2.2583,2,0.1467,,5.0617,64
10784957,1480896438071,,,,,,,,0.03,0.07,0.98,-3.1,-0.2,-0.1,1320,0,,,,,,,,,,,,,,,,,,,
10784977,1480896438092,,,,,,,,0.03,0.08,0.98,-3.0,-0.1,-0.1,1320,0,,,,,,,,,,,,,,,,,,,
10784997,1480896438112,,,,,,,,0.03,0.08,0.98,-3.0,-0.1,-0.1,1280,0,,,,,,,,,,,,,,,,,,,
10785017,1480896438132,,,,,,,,0.03,0.08,0.98,-3.0,0.0,-0.2,1280,0,,,,,,,,,,,,,,,,,,,
10785039,1480896438154,1,196.9,,172.8,23,210.2,,0.03,0.08,0.98,-3.0,-0.1,-0.2,1260,0,0,1,0.0,0,38.16,-122.45356,0.0,2.515,64.9,9,2,1.7,63,2.2583,2,0.1467,5.1741,5.0633,64
10785058,1480896438173,,,,,,,,0.03,0.07,0.98,-3.0,-0.0,-0.2,1240,0,,,,,,,,,,,,,,,,,,,
10785078,1480896438192,,,,,,,,0.03,0.06,0.97,-3.0,-0.0,-0.2,1240,0,,,,,,,,,,,,,,,,,,,
10785098,1480896438212,,,,,,,,0.03,0.06,0.97,-3.0,-0.1,-0.2,1240,0,,,,,,,,,,,,,,,,,,,
10785118,1480896438232,,,,,,,,0.02,0.06,0.97,-3.0,-0.2,-0.2,1220,0,,,,,,,,,,,,,,,,,,,
10785138,1480896438252,,,,,21,,,0.02,0.05,0.98,-3.0,-0.2,-0.1,1200,0,0,1,0.0,0,38.16,-122.45356,0.0,2.515,64.9,9,2,1.7,63,2.2583,2,0.1467,,5.065,64
10785158,1480896438272,,,,,,,,0.02,0.05,0.98,-3.0,-0.1,-0.1,1200,0,,,,,,,,,,,,,,,,,,,
10785178,1480896438292,,,,,,,,0.02,0.05,0.98,-3.0,-0.0,-0.2,1180,0,,,,,,,,,,,,,,,,,,,
10785198,1480896438312,,,,,,,,0.02,0.05,0.98,-3.0,-0.0,-0.2,1180,0,,,,,,,,,,,,,,,,,,,
10785218,1480896438332,,,,,,,,0.02,0.06,0.98,-3.0,-0.1,-0.2,1160,0,,,,,,,,,,,,,,,,,,,
10785240,1480896438354,0,196.8,0.0,173.8,18,211.7,13.96,0.02,0.06,0.98,-3.0,-0.1,-0.2,1160,0,0,1,0.0,0,38.16,-122.45356,0.0,2.515,64.9,9,2,1.7,63,2.2583,2,0.1467,5.1774,5.0667,64
10785259,1480896438373,,,,,,,,0.03,0.06,0.98,-3.1,-0.1,-0.2,1140,0,,,,,,,,,,,,,,,,,,,
10785279,1480896438393,,,,,,,,0.02,0.05,0.98,-3.0,-0.0,-0.2,1120,0,,,,,,,,,,,,,,,,,,,
10785299,1480896438413,,,,,,,,0.02,0.06,0.98,-3.0,-0.2,-0.3,1120,0,,,,,,,,,,,,,,,,,,,
10785319,1480896438433,,,,,,,,0.02,0.06,0.98,-3.0,-0.2,-0.2,1120,0,,,,,,,,,,,,,,,,,,,
10785339,1480896438453,,,,,18,,,0.03,0.06,0.98,-3.0,-0.2,-0.2,1120,0,0,1,0.0,0,38.16,-122.45356,0.0,2.515,64.9,9,2,1.7,63,2.2583,2,0.1467,,5.0683,64
10785359,1480896438473,,,,,,,,0.03,0.06,0.98,-3.0,-0.2,-0.2,1100,0,,,,,,,,,,,,,,,,,,,
10785379,1480896438493,,,,,,,,0.02,0.06,0.98,-3.0,-0.3,-0.2,1080,0,,,,,,,,,,,,,,,,,,,
10785399,1480896438513,,,,,,,,0.03,0.06,0.98,-3.0,-0.3,-0.2,1100,0,,,,,,,,,,,,,,,,,,,
10785419,1480896438533,,,,,,,,0.03,0.05,0.98,-3.0,-0.1,-0.2,1080,0,,,,,,,,,,,,,,,,,,,
10785441,1480896438555,0,196.8,,173.0,17,210.3,,0.03,0.05,0.99,-3.0,-0.1,-0.2,1080,0,0,1,0.0,0,38.16,-122.45356,0.0,2.515,64.9,9,2,1.7,63,2.2583,2,0.1467,5.1807,5.07,64
10785460,1480896438574,,,,,,,,0.02,0.05,0.99,-3.0,-0.1,-0.2,1060,0,,,,,,,,,,,,,,,,,,,
10785480,1480896438693,,,,,,,,0.02,0.05,0.99,-3.0,-0.2,-0.2,1060,0,,,,,,,,,,,,,,,,,,,
10785500,1480896438713,,,,,,,,0.02,0.06,0.99,-3.0,-0.2,-0.3,1060,0,,,,,,,,,,,,,,,,,,,
10785520,1480896438733,,,,,,,,0.03,0.06,0.99,-3.0,-0.1,-0.3,1060,0,,,,,,,,,,,,,,,,,,,
10785540,1480896438753,,,,,18,,,0.02,0.06,0.99,-3.0,0.0,-0.3,1060,0,0,1,0.0,0,38.16,-122.45356,0.0,2.515,64.9,9,2,1.7,63,2.2583,2,0.1467,,5.0733,64
10785560,1480896438773,,,,,,,,0.02,0.06,0.99,-3.0,0.1,-0.3,1040,0,,,,,,,,,,,,,,,,,,,
10785580,1480896438793,,,,,,,,0.02,0.06,0.99,-3.0,0.1,-0.2,1040,0,,,,,,,,,,,,,,,,,,,
10785600,1480896438813,,,,,,,,0.02,0.06,1.0,-3.0,0.2,-0.2,1020,0,,,,,,,,,,,,,,,,,,,
10785620,1480896438833,,,,,,,,0.01,0.06,0.99,-3.0,0.1,-0.2,1020,0,,,,,,,,,,,,,,,,,,,
10785642,1480896438855,0,196.8,,173.4,15,210.2,,0.01,0.06,0.99,-3.0,0.0,-0.2,1020,0,0,1,0.0,0,38.16,-122.45356,0.0,2.515,64.9,9,2,1.7,63,2.2583,2,0.1467,5.1858,5.0733,64
10785661,1480896438874,,,,,,,,0.02,0.06,0.99,-3.0,-0.1,-0.1,1020,0,,,,,,,,,,,,,,,,,,,
10785681,1480896438795,,,,,,,,0.02,0.07,0.99,-3.1,-0.1,-0.1,1000,0,,,,,,,,,,,,,,,,,,,
10785701,1480896438815,,,,,,,,0.03,0.08,0.99,-3.1,-0.2,-0.1,1020,0,,,,,,,,,,,,,,,,,,,
10785721,1480896438835,,,,,,,,0.03,0.08,0.99,-3.1,-0.2,-0.1,980,0,,,,,,,,,,,,,,,,,,,
10785741,1480896438855,,,,,15,,,0.03,0.08,0.99,-3.1,-0.1,-0.1,1000,0,0,1,0.0,0,38.16,-122.45356,0.0,2.515,64.9,9,2,1.7,63,2.2583,2,0.1467,,5.075,64
10785761,1480896438875,,,,,,,,0.03,0.09,0.99,-3.1,-0.2,-0.0,980,0,,,,,,,,,,,,,,,,,,,
10785781,1480896438895,,,,,,,,0.04,0.09,0.99,-3.1,-0.1,-0.0,980,0,,,,,,,,,,,,,,,,,,,
10785801,1480896438907,,,,,,,,0.04,0.1,0.99,-3.1,-0.1,-0.0,980,0,,,,,,,,,,,,,,,,,,,
10785821,1480896438927,,,,,,,,0.05,0.1,0.99,-3.2,-0.1,-0.0,980,0,,,,,,,,,,,,,,,,,,,
10785843,1480896438949,1,195.9,,173.6,15,210.6,,0.05,0.1,0.99,-3.2,-0.1,-0.0,980,0,0,1,0.0,0,38.16,-122.45356,0.0,2.515,64.9,9,2,1.7,63,2.2583,2,0.1467,5.1873,5.0767,64
10785862,1480896438968,,,,,,,,0.05,0.1,0.99,-3.2,0.1,-0.0,980,0,,,,,,,,,,,,,,,,,,,
10785882,1480896438997,,,,,,,,0.05,0.11,0.99,-3.2,0.1,0.0,980,0,,,,,,,,,,,,,,,,,,,
10785902,1480896439017,,,,,,,,0.05,0.12,0.99,-3.2,0.1,0.0,960,0,,,,,,,,,,,,,,,,,,,
10785922,1480896439037,,,,,,,,0.06,0.12,0.99,-3.2,0.1,0.0,960,0,,,,,,,,,,,,,,,,,,,
10785942,1480896439057,,,,,15,,,0.06,0.13,1.0,-3.2,0.1,0.0,960,0,0,1,0.0,0,38.16,-122.45356,0.0,2.515,64.9,9,2,1.9,63,2.2583,2,0.1467,,5.0783,64
10785962,1480896439077,,,,,,,,0.06,0.13,0.99,-3.2,0.1,0.0,960,0,,,,,,,,,,,,,,,,,,,
10785982,1480896439097,,,,,,,,0.06,0.14,1.0,-3.2,-0.0,0.1,960,0,,,,,,,,,,,,,,,,,,,
10786002,1480896439117,,,,,,,,0.06,0.15,1.0,-3.2,-0.2,0.1,960,0,,,,,,,,,,,,,,,,,,,
10786022,1480896439137,,,,,,,,0.06,0.15,1.0,-3.2,-0.2,0.1,960,0,,,,,,,,,,,,,,,,,,,
10786044,1480896439159,0,197.2,,174.8,15,211.4,,0.05,0.15,1.01,-3.2,-0.2,0.1,960,0,0,1,0.0,0,38.16,-122.45356,0.0,2.515,64.9,9,2,1.9,63,2.2583,2,0.1467,5.1908,5.08,64
10786063,1480896439178,,,,,,,,0.05,0.15,1.01,-3.2,-0.3,0.1,940,0,,,,,,,,,,,,,,,,,,,
10786083,1480896439198,,,,,,,,0.05,0.15,1.01,-3.2,-0.3,0.0,940,0,,,,,,,,,,,,,,,,,,,
10786103,1480896439218,,,,,,,,0.04,0.16,1.01,-3.2,-0.3,-0.0,940,0,,,,,,,,,,,,,,,,,,,
10786123,1480896439238,,,,,,,,0.04,0.15,1.01,-3.1,-0.4,-0.1,940,0,,,,,,,,,,,,,,,,,,,
10786143,1480896439258,,,,,15,,,0.04,0.15,1.01,-3.1,-0.3,-0.2,940,0,0,1,0.0,0,38.16,-122.45356,0.0,2.515,64.9,9,2,1.9,63,2.2583,2,0.1467,,5.0817,64
10786163,1480896439278,,,,,,,,0.03,0.14,1.01,-3.1,-0.4,-0.2,940,0,,,,,,,,,,,,,,,,,,,
10786183,1480896439298,,,,,,,,0.03,0.13,1.0,-3.0,-0.3,-0.3,940,0,,,,,,,,,,,,,,,,,,,
10786203,1480896439318,,,,,,,,0.02,0.11,1.0,-3.0,-0.4,-0.4,940,0,,,,,,,,,,,,,,,,,,,
10786223,1480896439338,,,,,,,,0.02,0.1,1.0,-3.0,-0.4,-0.4,940,0,,,,,,,,,,,,,,,,,,,
10786245,1480896439360,0,197.2,0.0,174.8,15,211.3,13.78,0.02,0.09,0.99,-3.0,-0.4,-0.5,940,0,0,1,0.0,0,38.16,-122.45356,0.0,2.515,64.9,9,2,1.9,63,2.2583,2,0.1467,5.1942,5.0833,64
10786264,1480896439379,,,,,,,,0.02,0.08,0.99,-3.0,-0.4,-0.5,940,0,,,,,,,,,,,,,,,,,,,
10786284,1480896439498,,,,,,,,0.01,0.06,0.99,-2.9,-0.3,-0.6,940,0,,,,,,,,,,,,,,,,,,,
10786304,1480896439518,,,,,,,,0.01,0.06,0.98,-2.9,-0.2,-0.6,940,0,,,,,,,,,,,,,,,,,,,
10786324,1480896439538,,,,,,,,0.01,0.05,0.98,-3.0,-0.2,-0.5,940,0,,,,,,,,,,,,,,,,,,,
10786344,1480896439558,,,,,15,,,0.01,0.03,0.97,-3.0,-0.0,-0.4,940,0,0,1,0.0,0,38.16,-122.45356,0.0,2.515,64.9,9,2,1.9,63,2.2583,2,0.1467,,5.0867,64
10786364,1480896439578,,,,,,,,0.01,0.03,0.97,-3.0,0.0,-0.3,940,0,,,,,,,,,,,,,,,,,,,
10786384,1480896439598,,,,,,,,0.02,0.04,0.97,-3.0,0.2,-0.3,940,0,,,,,,,,,,,,,,,,,,,
10786404,1480896439618,,,,,,,,0.02,0.04,0.97,-3.0,0.2,-0.2,940,0,,,,,,,,,,,,,,,,,,,
10786424,1480896439638,,,,,,,,0.02,0.05,0.97,-3.1,0.1,-0.1,940,0,,,,,,,,,,,,,,,,,,,
10786446,1480896439660,0,196.4,,174.2,13,209.9,,0.03,0.06,0.97,-3.1,0.1,-0.0,940,0,0,1,0.0,0,38.16,-122.45356,0.0,2.515,64.9,9,2,1.9,63,2.2583,2,0.1467,5.1992,5.0867,64
10786465,1480896439679,,,,,,,,0.03,0.08,0.98,-3.2,0.0,0.0,940,0,,,,,,,,,,,,,,,,,,,
10786485,1480896439600,,,,,,,,0.03,0.09,0.99,-3.2,-0.0,0.1,940,0,,,,,,,,,,,,,,,,,,,
10786505,1480896439620,,,,,,,,0.03,0.09,1.0,-3.2,0.0,0.1,940,0,,,,,,,,,,,,,,,,,,,
10786525,1480896439640,,,,,,,,0.03,0.1,1.0,-3.2,-0.1,0.0,940,0,,,,,,,,,,,,,,,,,,,
10786545,1480896439660,,,,,13,,,0.03,0.12,1.0,-3.1,-0.1,-0.0,940,0,0,1,0.0,0,38.16,-122.45356,0.0,2.515,64.9,9,2,1.9,63,2.2583,2,0.1467,,5.0883,64
10786565,1480896439680,,,,,,,,0.03,0.12,1.0,-3.2,-0.2,-0.1,940,0,,,,,,,,,,,,,,,,,,,
10786585,1480896439700,,,,,,,,0.03,0.11,1.0,-3.1,-0.2,-0.2,920,0,,,,,,,,,,,,,,,,,,,
10786605,1480896439720,,,,,,,,0.02,0.1,1.0,-3.0,-0.2,-0.3,920,0,,,,,,,,,,,,,,,,,,,
10786625,1480896439740,,,,,,,,0.02,0.09,1.0,-3.0,-0.3,-0.4,940,0,,,,,,,,,,,,,,,,,,,
10786647,1480896439762,0,196.9,,175.3,15,211.3,,0.02,0.07,1.0,-3.0,-0.3,-0.4,940,0,0,1,0.0,0,38.16,-122.45356,0.0,2.515,64.9,9,2,1.9,63,2.2583,2,0.1467,5.2009,5.09,64
10786666,1480896439781,,,,,,,,0.01,0.06,1.0,-2.9,-0.2,-0.5,920,0,,,,,,,,,,,,,,,,,,,
10786686,1480896439801,,,,,,,,0.01,0.05,0.99,-2.9,-0.2,-0.5,920,0,,,,,,,,,,,,,,,,,,,
10786706,1480896439821,,,,,,,,0.01,0.04,0.98,-3.0,-0.2,-0.5,920,0,,,,,,,,,,,,,,,,,,,
10786726,1480896439841,,,,,,,,0.01,0.04,0.98,-3.0,-0.1,-0.4,920,0,,,,,,,,,,,,,,,,,,,
10786746,1480896439861,,,,,13,,,0.01,0.03,0.98,-3.0,-0.0,-0.3,920,0,0,1,0.0,0,38.16,-122.45356,0.0,2.515,64.9,9,2,1.9,63,2.2583,2,0.1467,,5.0917,64
10786766,1480896439881,,,,,,,,0.02,0.04,0.98,-3.0,0.1,-0.2,920,0,,,,,,,,,,,,,,,,,,,
10786786,1480896439892,,,,,,,,0.02,0.06,0.98,-3.0,0.2,-0.1,920,0,,,,,,,,,,,,,,,,,,,
10786806,1480896439912,,,,,,,,0.03,0.07,0.98,-3.1,0.0,-0.1,920,0,,,,,,,,,,,,,,,,,,,
10786826,1480896439932,,,,,,,,0.03,0.08,0.99,-3.1,0.0,-0.0,920,0,,,,,,,,,,,,,,,,,,,
10786848,1480896439954,0,196.9,,175.5,14,210.9,,0.02,0.08,1.0,-3.1,-0.0,0.0,940,0,0,1,0.0,0,38.16,-122.45356,0.0,2.515,64.9,9,2,1.9,63,2.2583,2,0.1467,5.2041,5.0933,64
10786867,1480896439973,,,,,,,,0.02,0.09,1.0,-3.1,-0.0,0.0,920,0,,,,,,,,,,,,,,,,,,,
10786887,1480896440001,,,,,,,,0.02,0.11,1.01,-3.1,-0.0,0.0,940,0,,,,,,,,,,,,,,,,,,,
10786907,1480896440021,,,,,,,,0.02,0.11,1.01,-3.1,-0.1,-0.1,920,0,,,,,,,,,,,,,,,,,,,
10786927,1480896440041,,,,,,,,0.02,0.11,1.01,-3.0,-0.1,-0.1,920,0,,,,,,,,,,,,,,,,,,,
10786947,1480896440061,,,,,13,,,0.02,0.1,1.01,-3.0,-0.2,-0.2,920,0,0,1,0.0,0,38.16,-122.45356,0.0,2.515,64.9,9,2,1.8,63,2.2583,2,0.1467,,5.095,64
10786967,1480896440081,,,,,,,,0.01,0.09,1.0,-3.0,-0.3,-0.3,920,0,,,,,,,,,,,,,,,,,,,
10786987,1480896440102,,,,,,,,0.01,0.07,0.99,-2.9,-0.4,-0.4,920,0,,,,,,,,,,,,,,,,,,,
10787007,1480896440122,,,,,,,,0.0,0.06,0.99,-2.9,-0.3,-0.4,920,0,,,,,,,,,,,,,,,,,,,
10787027,1480896440142,,,,,,,,-0.0,0.06,0.98,-2.9,-0.3,-0.4,920,0,,,,,,,,,,,,,,,,,,,
10787049,1480896440164,0,196.2,,174.8,14,209.5,,0.0,0.05,0.98,-2.9,-0.2,-0.4,920,0,0,1,0.0,0,38.16,-122.45356,0.0,2.515,64.9,9,2,1.8,63,2.2583,2,0.1467,5.2076,5.0967,64
10787068,1480896440183,,,,,,,,0.0,0.04,0.97,-3.0,-0.1,-0.3,920,0,,,,,,,,,,,,,,,,,,,
10787088,1480896440301,,,,,,,,0.01,0.03,0.97,-3.0,0.1,-0.3,920,0,,,,,,,,,,,,,,,,,,,
10787108,1480896440321,,,,,,,,0.01,0.04,0.97,-3.0,0.2,-0.2,920,0,,,,,,,,,,,,,,,,,,,
10787128,1480896440341,,,,,,,,0.02,0.04,0.97,-3.0,0.3,-0.1,920,0,,,,,,,,,,,,,,,,,,,
10787148,1480896440361,,,,,14,,,0.02,0.06,0.97,-3.1,0.1,-0.0,920,0,0,1,0.0,0,38.16,-122.45356,0.0,2.515,64.9,9,2,1.8,63,2.2583,2,0.1467,,5.1,64
10787168,1480896440381,,,,,,,,0.02,0.07,0.98,-3.1,0.1,0.0,920,0,,,,,,,,,,,,,,,,,,,
10787188,1480896440401,,,,,,,,0.02,0.07,0.99,-3.2,0.2,0.0,920,0,,,,,,,,,,,,,,,,,,,
10787208,1480896440421,,,,,,,,0.02,0.09,0.99,-3.1,0.0,0.0,920,0,,,,,,,,,,,,,,,,,,,
10787228,1480896440441,,,,,,,,0.02,0.1,1.0,-3.1,-0.0,-0.1,920,0,,,,,,,,,,,,,,,,,,,
10787250,1480896440463,0,196.3,0.0,174.9,12,209.7,13.9,0.01,0.1,1.0,-3.1,0.1,-0.1,920,0,0,1,0.0,0,38.16,-122.45356,0.0,2.515,64.9,9,2,1.8,63,2.2583,2,0.1467,5.2126,5.1,64
10787269,1480896440482,,,,,,,,0.01,0.1,1.0,-3.1,0.0,-0.2,920,0,,,,,,,,,,,,,,,,,,,
10787289,1480896440403,,,,,,,,0.01,0.09,0.99,-3.1,-0.1,-0.3,920,0,,,,,,,,,,,,,,,,,,,
10787309,1480896440423,,,,,,,,0.01,0.08,0.99,-3.0,-0.2,-0.4,920,0,,,,,,,,,,,,,,,,,,,
10787329,1480896440443,,,,,,,,0.0,0.07,0.98,-3.0,-0.3,-0.4,920,0,,,,,,,,,,,,,,,,,,,
10787349,1480896440463,,,,,14,,,-0.0,0.06,0.98,-3.0,-0.3,-0.4,920,0,0,1,0.0,0,38.16,-122.45356,0.0,2.515,64.9,9,2,1.8,63,2.2583,2,0.1467,,5.1017,64
10787369,1480896440483,,,,,,,,-0.0,0.05,0.97,-3.0,-0.2,-0.3,920,0,,,,,,,,,,,,,,,,,,,
10787389,1480896440504,,,,,,,,0.0,0.05,0.97,-3.1,-0.1,-0.2,920,0,,,,,,,,,,,,,,,,,,,
10787409,1480896440524,,,,,,,,0.01,0.04,0.96,-3.1,0.0,-0.2,920,0,,,,,,,,,,,,,,,,,,,
10787429,1480896440544,,,,,,,,0.02,0.05,0.97,-3.1,0.1,-0.1,920,0,,,,,,,,,,,,,,,,,,,
10787451,1480896440566,0,197.4,,175.5,13,209.7,,0.02,0.07,0.97,-3.2,-0.0,-0.0,920,0,0,1,0.0,0,38.16,-122.45356,0.0,2.515,64.9,9,2,1.8,63,2.2583,2,0.1467,5.2143,5.1033,64
10787470,1480896440585,,,,,,,,0.03,0.07,0.98,-3.2,-0.1,0.1,920,0,,,,,,,,,,,,,,,,,,,
10787490,1480896440605,,,,,,,,0.02,0.08,0.99,-3.2,-0.0,0.1,900,0,,,,,,,,,,,,,,,,,,,
10787510,1480896440625,,,,,,,,0.02,0.09,0.99,-3.2,-0.1,0.1,920,0,,,,,,,,,,,,,,,,,,,
10787530,1480896440645,,,,,,,,0.02,0.11,0.99,-3.1,-0.2,-0.0,920,0,,,,,,,,,,,,,,,,,,,
10787550,1480896440665,,,,,13,,,0.02,0.1,0.99,-3.1,-0.1,-0.1,900,0,0,1,0.0,0,38.16,-122.45356,0.0,2.515,64.9,9,2,1.8,63,2.2583,2,0.1467,,5.105,64
10787570,1480896440685,,,,,,,,0.02,0.09,0.99,-3.1,-0.2,-0.2,920,0,,,,,,,,,,,,,,,,,,,
10787590,1480896440704,,,,,,,,0.02,0.08,0.99,-3.0,-0.4,-0.3,920,0,,,,,,,,,,,,,,,,,,,
10787610,1480896440724,,,,,,,,0.02,0.07,0.98,-3.0,-0.3,-0.4,900,0,,,,,,,,,,,,,,,,,,,
10787630,1480896440744,,,,,,,,0.02,0.06,0.98,-3.0,-0.3,-0.3,900,0,,,,,,,,,,,,,,,,,,,
10787652,1480896440766,0,196.0,,175.1,12,209.5,,0.02,0.05,0.98,-3.0,-0.2,-0.2,900,0,0,1,0.0,0,38.16,-122.45356,0.0,2.515,64.9,9,2,1.8,63,2.2583,2,0.1467,5.2176,5.1067,64
10787671,1480896440785,,,,,,,,0.02,0.04,0.97,-3.0,-0.1,-0.2,900,0,,,,,,,,,,,,,,,,,,,
10787691,1480896440805,,,,,,,,0.03,0.05,0.97,-3.1,0.1,-0.1,900,0,,,,,,,,,,,,,,,,,,,
10787711,1480896440825,,,,,,,,0.03,0.07,0.98,-3.1,-0.0,-0.0,900,0,,,,,,,,,,,,,,,,,,,
10787731,1480896440845,,,,,,,,0.04,0.07,0.98,-3.1,-0.1,0.0,920,0,,,,,,,,,,,,,,,,,,,
10787751,1480896440865,,,,,14,,,0.04,0.08,0.99,-3.1,-0.0,0.0,920,0,0,1,0.0,0,38.16,-122.45356,0.0,2.515,64.9,9,2,1.8,63,2.2583,2,0.1467,,5.1083,64
10787771,1480896440885,,,,,,,,0.04,0.1,0.99,-3.1,-0.1,0.0,900,0,,,,,,,,,,,,,,,,,,,
10787791,1480896440896,,,,,,,,0.03,0.1,1.0,-3.1,-0.1,-0.1,920,0,,,,,,,,,,,,,,,,,,,
10787811,1480896440916,,,,,,,,0.03,0.1,0.99,-3.1,-0.1,-0.2,920,0,,,,,,,,,,,,,,,,,,,
10787831,1480896440936,,,,,,,,0.03,0.09,0.99,-3.0,-0.2,-0.3,920,0,,,,,,,,,,,,,,,,,,,
10787853,1480896440958,0,196.0,,175.4,13,209.6,,0.02,0.08,0.98,-3.0,-0.4,-0.4,920,0,0,1,0.0,0,38.16,-122.45356,0.0,2.515,64.9,9,2,1.8,63,2.2583,2,0.1467,5.2208,5.11,64
10787872,1480896440977,,,,,,,,0.02,0.06,0.98,-2.9,-0.3,-0.5,920,0,,,,,,,,,,,,,,,,,,,
10787892,1480896441106,,,,,,,,0.01,0.05,0.98,-2.9,-0.3,-0.5,920,0,,,,,,,,,,,,,,,,,,,
10787912,1480896441126,,,,,,,,0.01,0.05,0.98,-2.9,-0.3,-0.5,920,0,,,,,,,,,,,,,,,,,,,
10787932,1480896441146,,,,,,,,0.01,0.04,0.98,-2.9,-0.1,-0.4,920,0,,,,,,,,,,,,,,,,,,,
10787952,1480896441166,,,,,13,,,0.02,0.03,0.97,-2.9,0.1,-0.3,920,0,0,1,0.0,0,38.16,-122.45356,0.0,2.515,64.9,9,2,1.8,63,2.2583,2,0.1467,,5.1133,64
10787972,1480896441186,,,,,,,,0.02,0.04,0.96,-3.0,0.1,-0.2,920,0,,,,,,,,,,,,,,,,,,,
10787992,1480896441206,,,,,,,,0.03,0.06,0.97,-3.1,0.2,-0.1,920,13,,,,,,,,,,,,,,,,,,,
10788012,1480896441226,,,,,,,,0.03,0.06,0.99,-3.1,0.1,-0.1,920,13,,,,,,,,,,,,,,,,,,,
10788032,1480896441246,,,,,,,,0.03,0.07,0.99,-3.1,-0.1,0.0,920,13,,,,,,,,,,,,,,,,,,,
10788054,1480896441268,0,197.3,,175.6,14,209.2,,0.02,0.08,1.0,-3.1,0.0,0.0,920,13,0,1,0.0,0,38.16,-122.45356,0.0,2.515,64.9,9,2,1.8,63,2.2583,2,0.1467,5.226,5.1133,64
10788073,1480896441287,,,,,,,,0.02,0.1,1.01,-3.1,-0.1,0.0,940,16,,,,,,,,,,,,,,,,,,,
10788093,1480896441208,,,,,,,,0.02,0.11,1.01,-3.1,-0.1,-0.0,920,16,,,,,,,,,,,,,,,,,,,
10788113,1480896441228,,,,,,,,0.02,0.11,1.01,-3.1,-0.0,-0.1,920,16,,,,,,,,,,,,,,,,,,,
10788133,1480896441248,,,,,,,,0.01,0.1,1.0,-3.1,-0.1,-0.2,920,16,,,,,,,,,,,,,,,,,,,
10788153,1480896441268,,,,,14,,,0.01,0.1,1.0,-3.0,-0.3,-0.2,920,21,0,1,70.769,0,38.16,-122.45356,0.0,2.515,64.9,9,2,1.8,63,2.2583,2,0.1467,,5.115,64
10788173,1480896441288,,,,,,,,0.01,0.09,1.0,-3.0,-0.4,-0.3,940,21,,,,,,,,,,,,,,,,,,,
10788193,1480896441307,,,,,,,,0.0,0.07,0.99,-3.0,-0.4,-0.4,940,21,,,,,,,,,,,,,,,,,,,
10788213,1480896441327,,,,,,,,-0.01,0.06,0.98,-2.9,-0.3,-0.4,920,21,,,,,,,,,,,,,,,,,,,
10788233,1480896441347,,,,,,,,-0.01,0.05,0.98,-2.9,-0.2,-0.4,940,21,,,,,,,,,,,,,,,,,,,
10788255,1480896441369,0,197.3,0.0,176.0,14,209.4,14.17,-0.01,0.05,0.97,-3.0,-0.0,-0.3,920,1538461,0,1,43.81,0,38.16,-122.45356,0.0,2.515,64.9,9,2,1.8,63,2.2583,2,0.1467,5.2277,5.1167,64
10788274,1480896441388,,,,,,,,-0.0,0.04,0.97,-3.0,0.2,-0.3,940,0,,,,,,,,,,,,,,,,,,,
10788294,1480896441409,,,,,,,,0.0,0.04,0.96,-3.0,0.4,-0.3,920,0,,,,,,,,,,,,,,,,,,,
10788314,1480896441429,,,,,,,,0.01,0.04,0.96,-3.0,0.6,-0.2,940,0,,,,,,,,,,,,,,,,,,,
10788334,1480896441449,,,,,,,,0.02,0.04,0.96,-3.0,0.6,-0.2,940,0,,,,,,,,,,,,,,,,,,,
10788354,1480896441469,,,,,14,,,0.03,0.07,0.96,-3.1,0.3,-0.1,920,0,0,1,0.0,0,38.16,-122.45356,0.0,2.515,64.9,9,2,1.8,63,2.2583,2,0.1467,,5.1183,64
10788374,1480896441489,,,,,,,,0.03,0.07,0.97,-3.2,0.2,-0.1,920,0,,,,,,,,,,,,,,,,,,,
10788394,1480896441508,,,,,,,,0.02,0.07,0.98,-3.2,0.2,-0.1,920,0,,,,,,,,,,,,,,,,,,,
10788414,1480896441528,,,,,,,,0.02,0.09,0.99,-3.1,0.1,-0.1,920,0,,,,,,,,,,,,,,,,,,,
10788434,1480896441548,,,,,,,,0.02,0.1,0.99,-3.1,0.1,-0.1,920,0,,,,,,,,,,,,,,,,,,,
10788456,1480896441570,0,196.4,,176.6,13,210.1,,0.02,0.1,1.0,-3.1,0.1,-0.2,920,0,0,1,0.0,0,38.16,-122.45356,0.0,2.515,64.9,9,2,1.8,63,2.2583,2,0.1467,5.231,5.12,64
10788475,1480896441589,,,,,,,,0.01,0.09,1.01,-3.1,-0.1,-0.2,900,0,,,,,,,,,,,,,,,,,,,
10788495,1480896441609,,,,,,,,0.01,0.08,1.01,-3.1,-0.5,-0.3,900,0,,,,,,,,,,,,,,,,,,,
10788515,1480896441629,,,,,,,,-0.0,0.06,1.01,-3.0,-0.4,-0.3,900,0,,,,,,,,,,,,,,,,,,,
10788535,1480896441649,,,,,,,,-0.01,0.06,1.0,-3.0,-0.3,-0.3,900,16,,,,,,,,,,,,,,,,,,,
10788555,1480896441669,,,,,13,,,-0.01,0.05,0.98,-3.0,-0.1,-0.3,880,16,0,1,0.0,0,38.16,-122.45356,0.0,2.515,64.9,9,2,1.8,63,2.2583,2,0.1467,,5.1217,64
10788575,1480896441689,,,,,,,,0.0,0.05,0.97,-3.0,0.2,-0.2,900,16,,,,,,,,,,,,,,,,,,,
10788595,1480896441709,,,,,,,,0.01,0.06,0.97,-3.1,0.4,-0.0,900,1538461,,,,,,,,,,,,,,,,,,,
10788615,1480896441729,,,,,,,,0.01,0.07,0.98,-3.2,0.2,-0.0,880,0,,,,,,,,,,,,,,,,,,,
10788635,1480896441749,,,,,,,,0.01,0.09,1.0,-3.2,0.1,-0.0,880,0,,,,,,,,,,,,,,,,,,,
10788657,1480896441771,0,195.8,,175.8,12,209.1,,0.01,0.1,1.0,-3.1,0.1,-0.1,880,69,0,1,55.0,0,38.16,-122.45356,0.0,2.515,64.9,9,2,1.8,63,2.2583,2,0.1467,5.2344,5.1233,64
10788676,1480896441790,,,,,,,,0.0,0.1,1.01,-3.1,0.2,-0.2,900,69,,,,,,,,,,,,,,,,,,,
10788696,1480896441910,,,,,,,,-0.01,0.09,1.0,-3.1,-0.1,-0.3,860,69,,,,,,,,,,,,,,,,,,,
10788716,1480896441930,,,,,,,,-0.02,0.08,1.01,-3.0,-0.2,-0.4,880,69,,,,,,,,,,,,,,,,,,,
10788736,1480896441950,,,,,,,,-0.02,0.07,1.0,-3.0,-0.2,-0.4,860,69,,,,,,,,,,,,,,,,,,,
10788756,1480896441970,,,,,12,,,-0.02,0.05,0.98,-3.0,0.0,-0.3,860,13,0,1,12.754,0,38.16,-122.45356,0.0,2.515,64.9,9,2,1.8,63,2.2583,2,0.1467,,5.1267,64
10788776,1480896441990,,,,,,,,-0.0,0.06,0.98,-3.1,0.3,-0.1,860,13,,,,,,,,,,,,,,,,,,,
10788796,1480896442010,,,,,,,,0.0,0.07,0.98,-3.2,0.3,0.0,860,13,,,,,,,,,,,,,,,,,,,
10788816,1480896442030,,,,,,,,0.0,0.08,0.99,-3.2,0.2,-0.0,860,13,,,,,,,,,,,,,,,,,,,
10788836,1480896442050,,,,,,,,0.01,0.08,0.99,-3.1,0.2,-0.1,860,13,,,,,,,,,,,,,,,,,,,
10788858,1480896442072,0,195.8,,176.8,13,209.8,,0.0,0.08,1.0,-3.1,-0.1,-0.3,860,16,0,1,66.154,0,38.16,-122.45356,0.0,2.515,64.9,9,2,1.8,63,2.2583,2,0.1467,5.2394,5.1267,64
10788877,1480896441991,,,,,,,,-0.01,0.07,1.0,-3.1,-0.2,-0.4,860,16,,,,,,,,,,,,,,,,,,,
10788897,1480896442011,,,,,,,,-0.02,0.05,1.0,-3.0,-0.2,-0.4,840,16,,,,,,,,,,,,,,,,,,,
10788917,1480896442031,,,,,,,,-0.03,0.04,0.98,-3.0,-0.0,-0.2,840,20,,,,,,,,,,,,,,,,,,,
10788937,1480896442051,,,,,,,,-0.01,0.04,0.98,-3.1,0.1,-0.1,840,20,,,,,,,,,,,,,,,,,,,
10788957,1480896442071,,,,,13,,,-0.01,0.06,0.98,-3.1,-0.1,0.0,840,20,0,1,53.75,0,38.16,-122.45356,0.0,2.515,64.9,9,2,1.8,63,2.2583,2,0.1467,,5.1283,64
10788977,1480896442092,,,,,,,,-0.01,0.08,0.98,-3.1,0.2,-0.1,840,21,,,,,,,,,,,,,,,,,,,
10788997,1480896442112,,,,,,,,-0.0,0.08,0.99,-3.1,0.0,-0.2,840,21,,,,,,,,,,,,,,,,,,,
10789017,1480896442132,,,,,,,,-0.01,0.07,0.99,-3.0,-0.1,-0.3,840,21,,,,,,,,,,,,,,,,,,,
10789037,1480896442152,,,,,,,,-0.01,0.05,0.99,-3.0,-0.1,-0.3,840,23,,,,,,,,,,,,,,,,,,,
10789059,1480896442174,0,195.7,,175.9,12,208.9,,-0.02,0.05,0.98,-3.1,0.0,-0.2,840,23,0,1,42.0,0,38.16,-122.45356,0.0,2.515,64.9,9,2,1.8,63,2.2583,2,0.1467,5.2411,5.13,64
10789078,1480896442193,,,,,,,,-0.01,0.06,0.98,-3.2,0.1,-0.0,820,23,,,,,,,,,,,,,,,,,,,
10789098,1480896442213,,,,,,,,-0.0,0.07,0.97,-3.2,-0.0,0.0,820,27,,,,,,,,,,,,,,,,,,,
10789118,1480896442233,,,,,,,,-0.0,0.08,0.98,-3.2,0.1,-0.1,820,27,,,,,,,,,,,,,,,,,,,
10789138,1480896442253,,,,,,,,-0.01,0.07,0.98,-3.2,-0.1,-0.2,820,27,,,,,,,,,,,,,,,,,,,
10789158,1480896442273,,,,,12,,,-0.02,0.07,0.98,-3.1,-0.1,-0.3,820,29,0,1,35.652,0,38.16,-122.45356,0.0,2.515,64.9,9,2,1.8,63,2.2583,2,0.1467,,5.1317,64
10789178,1480896442292,,,,,,,,-0.02,0.06,0.97,-3.1,-0.0,-0.2,820,29,,,,,,,,,,,,,,,,,,,
10789198,1480896442312,,,,,,,,-0.01,0.07,0.96,-3.2,0.1,-0.0,820,27,,,,,,,,,,,,,,,,,,,
10789218,1480896442332,,,,,,,,-0.01,0.08,0.96,-3.3,0.1,-0.0,800,27,,,,,,,,,,,,,,,,,,,
10789238,1480896442352,,,,,,,,-0.01,0.08,0.97,-3.2,0.1,-0.2,800,40,,,,,,,,,,,,,,,,,,,
10789260,1480896442374,0,197.1,0.0,177.4,11,209.6,13.96,-0.02,0.07,0.98,-3.2,-0.1,-0.3,800,40,0,1,28.276,0,38.16,-122.45356,0.0,2.515,64.9,9,2,1.8,63,2.2583,2,0.1467,5.2444,5.1333,64
10789279,1480896442394,,,,,,,,-0.03,0.07,0.98,-3.2,0.1,-0.4,800,30,,,,,,,,,,,,,,,,,,,
10789299,1480896442414,,,,,,,,-0.02,0.06,0.98,-3.3,0.1,-0.1,800,30,,,,,,,,,,,,,,,,,,,
10789319,1480896442434,,,,,,,,-0.02,0.07,0.98,-3.4,0.2,-0.0,800,47,,,,,,,,,,,,,,,,,,,
10789339,1480896442454,,,,,,,,-0.02,0.08,0.98,-3.4,0.3,-0.1,780,47,,,,,,,,,,,,,,,,,,,
10789359,1480896442474,,,,,12,,,-0.03,0.08,0.98,-3.3,0.1,-0.2,760,33,0,1,20.0,0,38.16,-122.45356,0.0,2.515,64.9,9,2,1.8,63,2.2583,2,0.1467,,5.135,64
10789379,1480896442493,,,,,,,,-0.05,0.06,0.98,-3.3,0.4,-0.3,760,33,,,,,,,,,,,,,,,,,,,
10789399,1480896442513,,,,,,,,-0.04,0.07,0.97,-3.4,0.4,-0.0,760,52,,,,,,,,,,,,,,,,,,,
10789419,1480896442533,,,,,,,,-0.04,0.08,0.97,-3.4,0.4,-0.0,760,52,,,,,,,,,,,,,,,,,,,
10789439,1480896442553,,,,,,,,-0.04,0.08,0.98,-3.5,0.3,-0.1,740,43,,,,,,,,,,,,,,,,,,,
10789461,1480896442575,0,196.8,,176.4,10,208.8,,-0.05,0.07,0.98,-3.5,0.1,-0.3,740,43,0,1,23.03,0,38.16,-122.45356,0.0,2.515,64.9,9,2,1.8,63,2.2583,2,0.1467,5.2477,5.1367,64
10789480,1480896442693,,,,,,,,-0.04,0.07,0.99,-3.5,0.2,-0.2,760,61,,,,,,,,,,,,,,,,,,,
10789500,1480896442713,,,,,,,,-0.04,0.07,0.99,-3.5,0.2,-0.1,740,61,,,,,,,,,,,,,,,,,,,
10789520,1480896442733,,,,,,,,-0.04,0.07,0.99,-3.5,0.1,-0.2,740,41,,,,,,,,,,,,,,,,,,,
10789540,1480896442753,,,,,,,,-0.04,0.07,0.99,-3.5,-0.0,-0.3,740,56,,,,,,,,,,,,,,,,,,,
10789560,1480896442773,,,,,9,,,-0.04,0.07,0.98,-3.6,0.1,-0.3,720,56,0,1,17.674,0,38.16,-122.45356,0.0,2.515,64.9,9,2,1.8,63,2.2583,2,0.1467,,5.14,64
10789580,1480896442793,,,,,,,,-0.04,0.07,0.99,-3.7,0.3,-0.2,720,64,,,,,,,,,,,,,,,,,,,
10789600,1480896442813,,,,,,,,-0.05,0.07,0.99,-3.7,0.1,-0.3,720,47,,,,,,,,,,,,,,,,,,,
10789620,1480896442833,,,,,,,,-0.05,0.06,0.99,-3.7,0.1,-0.4,720,63,,,,,,,,,,,,,,,,,,,
10789640,1480896442853,,,,,,,,-0.05,0.08,0.97,-3.8,0.0,-0.2,700,70,,,,,,,,,,,,,,,,,,,
10789662,1480896442875,0,195.7,,176.4,10,209.0,,-0.04,0.08,0.97,-3.8,0.2,-0.2,700,70,0,1,11.25,0,38.16,-122.45356,0.0,2.515,64.9,9,2,1.8,63,2.2583,2,0.1467,5.2527,5.14,64
10789681,1480896442796,,,,,,,,-0.05,0.08,0.98,-3.8,0.2,-0.4,700,55,,,,,,,,,,,,,,,,,,,
10789701,1480896442816,,,,,,,,-0.05,0.08,0.98,-3.8,0.1,-0.3,700,63,,,,,,,,,,,,,,,,,,,
10789721,1480896442836,,,,,,,,-0.05,0.08,0.98,-3.8,0.1,-0.2,700,78,,,,,,,,,,,,,,,,,,,
10789741,1480896442856,,,,,,,,-0.06,0.08,0.97,-3.8,-0.1,-0.2,680,72,,,,,,,,,,,,,,,,,,,
10789761,1480896442876,,,,,10,,,-0.06,0.08,0.98,-3.8,-0.1,-0.3,680,58,0,1,10.0,0,38.16,-122.45356,0.0,2.515,64.9,9,2,1.8,63,2.2583,2,0.1467,,5.1417,64
10789781,1480896442896,,,,,,,,-0.05,0.08,0.97,-3.9,-0.1,-0.1,680,73,,,,,,,,,,,,,,,,,,,
10789801,1480896442907,,,,,,,,-0.05,0.07,0.98,-3.9,-0.1,-0.1,680,90,,,,,,,,,,,,,,,,,,,
10789821,1480896442927,,,,,,,,-0.05,0.07,0.98,-3.9,-0.2,-0.2,680,81,,,,,,,,,,,,,,,,,,,
10789841,1480896442947,,,,,,,,-0.04,0.08,0.98,-4.0,-0.2,-0.1,680,64,,,,,,,,,,,,,,,,,,,
10789863,1480896442969,0,196.3,,177.5,9,209.4,,-0.03,0.08,0.98,-4.0,-0.1,-0.1,680,76,0,1,11.724,0,38.16,-122.45356,0.0,2.515,64.9,9,2,1.8,63,2.2583,2,0.1467,5.2543,5.1433,64
10789882,1480896442996,,,,,,,,-0.04,0.07,0.99,-4.0,0.0,-0.2,680,95,,,,,,,,,,,,,,,,,,,
10789902,1480896443016,,,,,,,,-0.04,0.08,0.99,-4.0,0.1,-0.1,660,93,,,,,,,,,,,,,,,,,,,
10789922,1480896443036,,,,,,,,-0.04,0.08,1.0,-4.1,0.2,-0.1,660,75,,,,,,,,,,,,,,,,,,,
10789942,1480896443056,,,,,,,,-0.05,0.07,1.0,-4.0,0.2,-0.2,660,93,,,,,,,,,,,,,,,,,,,
10789962,1480896443076,,,,,9,,,-0.06,0.07,1.01,-4.1,0.2,-0.2,660,104,0,1,8.947,0,38.16,-122.45356,0.0,2.515,64.9,9,2,1.7,63,2.2583,2,0.1467,,5.145,64
10789982,1480896443096,,,,,,,,-0.06,0.07,1.01,-4.1,0.3,-0.1,660,95,,,,,,,,,,,,,,,,,,,
10790002,1480896443116,,,,,,,,-0.07,0.06,1.01,-4.0,0.1,-0.2,660,78,,,,,,,,,,,,,,,,,,,
10790022,1480896443136,,,,,,,,-0.07,0.07,1.02,-4.1,0.1,-0.1,660,81,,,,,,,,,,,,,,,,,,,
10790042,1480896443156,,,,,,,,-0.07,0.07,1.02,-4.2,0.1,-0.1,660,110,,,,,,,,,,,,,,,,,,,
10790064,1480896443178,1,196.3,,177.7,10,209.7,,-0.08,0.07,1.01,-4.1,0.0,-0.1,660,104,0,1,6.346,0,38.16,-122.45356,0.0,2.515,64.9,9,2,1.7,63,2.2583,2,0.1467,5.2578,5.1467,64
10790083,1480896443197,,,,,,,,-0.08,0.07,1.01,-4.2,-0.0,-0.1,660,92,,,,,,,,,,,,,,,,,,,
10790103,1480896443217,,,,,,,,-0.08,0.08,1.0,-4.2,-0.2,-0.0,660,100,,,,,,,,,,,,,,,,,,,
10790123,1480896443237,,,,,,,,-0.08,0.07,0.99,-4.2,-0.4,-0.1,660,115,,,,,,,,,,,,,,,,,,,
10790143,1480896443257,,,,,,,,-0.08,0.07,0.99,-4.3,-0.4,-0.1,660,112,,,,,,,,,,,,,,,,,,,
10790163,1480896443277,,,,,8,,,-0.08,0.08,0.99,-4.3,-0.5,0.0,660,96,0,1,6.346,0,38.16,-122.45356,0.0,2.515,64.9,9,2,1.7,63,2.2583,2,0.1467,,5.1483,64
10790183,1480896443297,,,,,,,,-0.08,0.08,0.98,-4.3,-0.7,-0.0,660,92,,,,,,,,,,,,,,,,,,,
10790203,1480896443317,,,,,,,,-0.08,0.08,0.99,-4.3,-0.7,-0.0,660,120,,,,,,,,,,,,,,,,,,,
10790223,1480896443337,,,,,,,,-0.08,0.09,0.99,-4.3,-0.7,0.0,660,124,,,,,,,,,,,,,,,,,,,
10790243,1480896443357,,,,,,,,-0.08,0.08,0.98,-4.4,-1.1,-0.0,660,106,,,,,,,,,,,,,,,,,,,
10790265,1480896443379,0,195.9,0.0,176.4,8,208.3,13.52,-0.07,0.09,0.99,-4.4,-1.0,-0.1,660,101,0,1,6.875,0,38.16,-122.45356,0.0,2.515,64.9,9,2,1.7,63,2.2583,2,0.1467,5.2611,5.15,64
10790284,1480896443497,,,,,,,,-0.06,0.1,0.99,-4.5,-1.1,0.0,660,123,,,,,,,,,,,,,,,,,,,
10790304,1480896443517,,,,,,,,-0.07,0.09,0.97,-4.5,-1.3,-0.0,660,133,,,,,,,,,,,,,,,,,,,
10790324,1480896443537,,,,,,,,-0.07,0.09,0.97,-4.5,-1.3,-0.1,660,124,,,,,,,,,,,,,,,,,,,
10790344,1480896443557,,,,,,,,-0.07,0.1,0.97,-4.6,-1.3,-0.0,660,112,,,,,,,,,,,,,,,,,,,
10790364,1480896443577,,,,,9,,,-0.07,0.09,0.97,-4.6,-1.5,-0.1,660,118,0,1,6.535,0,38.16,-122.45356,0.0,2.515,64.9,9,2,1.7,63,2.2583,2,0.1467,,5.1533,64
10790384,1480896443597,,,,,,,,-0.07,0.09,0.97,-4.6,-1.4,-0.1,660,141,,,,,,,,,,,,,,,,,,,
10790404,1480896443617,,,,,,,,-0.07,0.1,0.98,-4.7,-1.5,-0.0,660,136,,,,,,,,,,,,,,,,,,,
10790424,1480896443637,,,,,,,,-0.07,0.09,0.97,-4.8,-1.7,-0.1,660,126,,,,,,,,,,,,,,,,,,,
10790444,1480896443657,,,,,,,,-0.07,0.09,0.97,-4.8,-1.6,-0.1,660,121,,,,,,,,,,,,,,,,,,,
10790466,1480896443679,0,196.1,,176.3,8,208.0,,-0.07,0.1,0.98,-4.9,-1.6,-0.0,640,140,0,1,5.593,0,38.16,-122.45356,0.0,2.515,64.9,9,2,1.7,63,2.2583,2,0.1467,5.2662,5.1533,64
10790485,1480896443595,,,,,,,,-0.07,0.09,0.97,-4.9,-1.7,-0.1,660,146,,,,,,,,,,,,,,,,,,,
10790505,1480896443615,,,,,,,,-0.07,0.09,0.97,-5.0,-1.6,-0.1,660,130,,,,,,,,,,,,,,,,,,,
10790525,1480896443635,,,,,,,,-0.07,0.1,0.97,-5.1,-1.7,0.0,660,129,,,,,,,,,,,,,,,,,,,
10790545,1480896443655,,,,,,,,-0.07,0.09,0.97,-5.1,-1.8,0.0,660,143,,,,,,,,,,,,,,,,,,,
10790565,1480896443675,,,,,9,,,-0.07,0.09,0.97,-5.2,-1.7,-0.1,660,155,0,1,4.571,0,38.16,-122.45356,0.0,2.515,64.9,9,2,1.7,63,2.2583,2,0.1467,,5.155,64
10790585,1480896443701,,,,,,,,-0.08,0.1,0.97,-5.3,-1.7,-0.0,660,149,,,,,,,,,,,,,,,,,,,
10790605,1480896443721,,,,,,,,-0.08,0.09,0.96,-5.3,-1.9,-0.1,660,138,,,,,,,,,,,,,,,,,,,
10790625,1480896443741,,,,,,,,-0.08,0.09,0.97,-5.4,-1.8,-0.1,660,146,,,,,,,,,,,,,,,,,,,
10790645,1480896443761,,,,,,,,-0.08,0.1,0.97,-5.5,-1.8,0.0,660,161,,,,,,,,,,,,,,,,,,,
10790667,1480896443783,1,195.4,,177.6,9,208.8,,-0.09,0.09,0.96,-5.5,-2.0,-0.1,660,161,0,1,4.258,0,38.16,-122.45356,0.0,2.515,64.9,9,2,1.7,63,2.2583,2,0.1467,5.2679,5.1567,64
10790686,1480896443800,,,,,,,,-0.09,0.09,0.96,-5.5,-1.8,-0.1,660,152,,,,,,,,,,,,,,,,,,,
10790706,1480896443820,,,,,,,,-0.09,0.1,0.97,-5.6,-1.8,-0.0,660,150,,,,,,,,,,,,,,,,,,,
10790726,1480896443840,,,,,,,,-0.09,0.09,0.96,-5.6,-1.9,-0.0,660,161,,,,,,,,,,,,,,,,,,,
10790746,1480896443860,,,,,,,,-0.09,0.08,0.97,-5.7,-1.8,-0.0,660,169,,,,,,,,,,,,,,,,,,,
10790766,1480896443880,,,,,9,,,-0.08,0.09,0.97,-5.8,-1.8,0.1,660,166,0,1,4.099,0,38.16,-122.45356,0.0,2.515,64.9,9,2,1.7,63,2.2583,2,0.1467,,5.1583,64
10790786,1480896443892,,,,,,,,-0.08,0.09,0.98,-5.8,-1.9,0.1,660,164,,,,,,,,,,,,,,,,,,,
10790806,1480896443912,,,,,,,,-0.08,0.08,0.97,-5.8,-1.8,0.1,660,170,,,,,,,,,,,,,,,,,,,
10790826,1480896443932,,,,,,,,-0.07,0.1,0.97,-5.9,-1.8,0.3,660,175,,,,,,,,,,,,,,,,,,,
10790846,1480896443952,,,,,,,,-0.07,0.09,0.97,-5.9,-1.9,0.3,660,175,,,,,,,,,,,,,,,,,,,
10790868,1480896443974,0,196.5,,177.3,9,208.0,,-0.07,0.09,0.97,-5.9,-1.7,0.3,660,173,0,1,3.976,0,38.16,-122.45356,0.0,2.515,64.9,9,2,1.7,63,2.2583,2,0.1467,5.2711,5.16,64
10790887,1480896443997,,,,,,,,-0.06,0.11,0.97,-6.0,-1.7,0.4,660,176,,,,,,,,,,,,,,,,,,,
10790907,1480896444017,,,,,,,,-0.06,0.1,0.97,-5.9,-1.6,0.4,660,181,,,,,,,,,,,,,,,,,,,
10790927,1480896444037,,,,,,,,-0.06,0.09,0.96,-5.9,-1.5,0.3,660,183,,,,,,,,,,,,,,,,,,,
10790947,1480896444057,,,,,,,,-0.05,0.11,0.96,-6.0,-1.5,0.4,660,184,,,,,,,,,,,,,,,,,,,
10790967,1480896444077,,,,,9,,,-0.04,0.1,0.96,-6.0,-1.4,0.3,660,187,0,1,-3.815,-1,38.16,-122.45356,0.0,2.515,64.9,9,2,1.7,63,2.2583,2,0.1467,,5.1617,64
10790987,1480896444101,,,,,,,,-0.05,0.09,0.95,-6.0,-1.3,0.2,660,190,,,,,,,,,,,,,,,,,,,
10791007,1480896444121,,,,,,,,-0.04,0.11,0.95,-6.2,-1.2,0.3,660,192,,,,,,,,,,,,,,,,,,,
10791027,1480896444141,,,,,,,,-0.04,0.1,0.96,-6.2,-1.2,0.2,640,192,,,,,,,,,,,,,,,,,,,
10791047,1480896444161,,,,,,,,-0.04,0.09,0.96,-6.2,-1.1,0.1,640,190,,,,,,,,,,,,,,,,,,,
10791069,1480896444183,0,196.4,,177.9,8,209.1,,-0.04,0.1,0.96,-6.3,-1.1,0.2,640,195,0,1,3.529,0,38.16,-122.45356,0.0,2.515,64.9,9,2,1.7,63,2.2583,2,0.1467,5.2745,5.1633,64
10791088,1480896444300,,,,,,,,-0.04,0.1,0.97,-6.3,-1.0,0.1,640,201,,,,,,,,,,,,,,,,,,,
10791108,1480896444320,,,,,,,,-0.03,0.09,0.97,-6.3,-0.9,-0.0,640,200,,,,,,,,,,,,,,,,,,,
10791128,1480896444340,,,,,,,,-0.03,0.1,0.97,-6.4,-0.8,-0.0,640,196,,,,,,,,,,,,,,,,,,,
10791148,1480896444360,,,,,,,,-0.03,0.1,0.96,-6.4,-0.9,-0.0,640,203,,,,,,,,,,,,,,,,,,,
10791168,1480896444380,,,,,9,,,-0.03,0.09,0.96,-6.4,-0.9,-0.0,640,203,0,1,3.282,1,38.16,-122.45356,0.0,2.515,64.9,9,2,1.7,63,2.2583,2,0.1467,,5.1667,64
10791188,1480896444400,,,,,,,,-0.02,0.1,0.96,-6.6,-1.0,0.1,660,201,,,,,,,,,,,,,,,,,,,
10791208,1480896444420,,,,,,,,-0.03,0.1,0.96,-6.6,-1.3,0.0,660,207,,,,,,,,,,,,,,,,,,,
10791228,1480896444440,,,,,,,,-0.03,0.1,0.96,-6.6,-1.3,-0.1,660,210,,,,,,,,,,,,,,,,,,,
10791248,1480896444460,,,,,,,,-0.03,0.11,0.96,-6.8,-1.4,0.0,680,207,,,,,,,,,,,,,,,,,,,
10791270,1480896444482,0,195.2,0.0,176.8,8,207.7,13.55,-0.02,0.1,0.96,-6.8,-1.4,-0.0,700,213,0,1,3.153,1,38.16,-122.45356,0.0,2.515,64.9,9,2,1.7,63,2.2583,2,0.1467,5.2795,5.1667,64
10791289,1480896444404,,,,,,,,-0.02,0.09,0.97,-6.9,-1.4,-0.1,700,216,,,,,,,,,,,,,,,,,,,
10791309,1480896444424,,,,,,,,-0.01,0.1,0.98,-6.9,-1.0,-0.0,700,215,,,,,,,,,,,,,,,,,,,
10791329,1480896444444,,,,,,,,-0.02,0.11,0.97,-7.0,-0.9,0.0,720,216,,,,,,,,,,,,,,,,,,,
10791349,1480896444464,,,,,,,,-0.03,0.1,0.99,-7.1,-0.9,-0.1,720,223,,,,,,,,,,,,,,,,,,,
10791369,1480896444484,,,,,11,,,-0.03,0.1,0.99,-7.1,-0.8,-0.2,720,226,0,1,3.302,1,38.16,-122.45356,0.0,2.515,64.9,9,2,1.7,63,2.2583,2,0.1467,,5.1683,64
10791389,1480896444503,,,,,,,,-0.03,0.1,0.99,-7.2,-0.7,-0.0,740,224,,,,,,,,,,,,,,,,,,,
10791409,1480896444523,,,,,,,,-0.03,0.09,0.98,-7.2,-0.4,0.0,740,224,,,,,,,,,,,,,,,,,,,
10791429,1480896444543,,,,,,,,-0.04,0.08,0.99,-7.1,-0.3,-0.1,740,227,,,,,,,,,,,,,,,,,,,
10791449,1480896444563,,,,,,,,-0.05,0.08,0.99,-7.1,-0.3,-0.2,740,229,,,,,,,,,,,,,,,,,,,
10791471,1480896444585,0,195.6,,177.9,10,208.6,,-0.04,0.1,0.98,-7.3,-0.5,0.0,740,223,0,1,3.304,1,38.160007,-122.45356,1.13,2.515,70.2,9,2,1.7,63,2.2583,2,0.1467,5.2807,5.17,64
10791490,1480896444603,,,,,,,,-0.04,0.1,0.98,-7.3,-0.2,0.1,740,224,,,,,,,,,,,,,,,,,,,
10791510,1480896444623,,,,,,,,-0.05,0.09,1.0,-7.3,-0.2,-0.1,740,229,,,,,,,,,,,,,,,,,,,
10791530,1480896444643,,,,,,,,-0.06,0.09,1.0,-7.3,-0.1,-0.2,740,230,,,,,,,,,,,,,,,,,,,
10791550,1480896444663,,,,,,,,-0.05,0.09,0.99,-7.5,-0.1,0.1,740,230,,,,,,,,,,,,,,,,,,,
10791570,1480896444683,,,,,10,,,-0.04,0.1,0.98,-7.5,0.1,0.2,760,227,0,1,3.274,1,38.160007,-122.45356,1.29,2.515,70.2,9,2,1.7,63,2.2583,2,0.1467,,5.1717,64
10791590,1480896444705,,,,,,,,-0.04,0.1,0.98,-7.5,0.1,-0.0,740,232,,,,,,,,,,,,,,,,,,,
10791610,1480896444725,,,,,,,,-0.04,0.09,0.98,-7.6,-0.1,-0.1,740,235,,,,,,,,,,,,,,,,,,,
10791630,1480896444745,,,,,,,,-0.03,0.09,0.97,-7.7,-0.1,0.0,760,235,,,,,,,,,,,,,,,,,,,
10791650,1480896444765,,,,,,,,-0.03,0.09,0.97,-7.8,-0.1,0.0,760,233,,,,,,,,,,,,,,,,,,,
10791672,1480896444787,0,194.7,,177.1,10,207.8,,-0.03,0.1,0.98,-7.8,-0.2,-0.1,780,235,0,1,3.348,1,38.160007,-122.45356,1.28,2.515,70.2,9,2,1.7,63,2.2583,2,0.1467,5.2841,5.1733,64
10791691,1480896444803,,,,,,,,-0.03,0.09,0.98,-7.7,-0.3,-0.3,780,241,,,,,,,,,,,,,,,,,,,
10791711,1480896444823,,,,,,,,-0.04,0.09,0.98,-7.8,-0.2,-0.3,780,243,,,,,,,,,,,,,,,,,,,
10791731,1480896444843,,,,,,,,-0.03,0.09,0.97,-7.9,-0.2,-0.1,800,241,,,,,,,,,,,,,,,,,,,
10791751,1480896444863,,,,,,,,-0.03,0.11,0.97,-8.1,-0.3,0.0,800,243,,,,,,,,,,,,,,,,,,,
10791771,1480896444883,,,,,12,,,-0.03,0.1,0.98,-8.1,-0.3,-0.1,800,243,0,1,3.319,1,38.160007,-122.45356,0.0,2.515,70.2,9,2,1.7,63,2.2583,2,0.1467,,5.175,64
10791791,1480896444897,,,,,,,,-0.04,0.1,0.99,-8.1,-0.5,-0.3,800,247,,,,,,,,,,,,,,,,,,,
10791811,1480896444917,,,,,,,,-0.04,0.08,0.98,-8.2,-0.3,-0.4,800,249,,,,,,,,,,,,,,,,,,,
10791831,1480896444937,,,,,,,,-0.03,0.08,0.97,-8.3,-0.1,-0.2,820,246,,,,,,,,,,,,,,,,,,,
10791851,1480896444957,,,,,,,,-0.03,0.1,0.97,-8.5,-0.2,-0.0,800,247,,,,,,,,,,,,,,,,,,,
10791873,1480896444979,0,196.1,,177.2,12,207.2,,-0.02,0.1,0.98,-8.5,-0.1,-0.0,820,247,0,1,3.292,1,38.160007,-122.45356,0.0,2.515,70.2,9,2,1.7,63,2.2583,2,0.1467,5.2873,5.1767,64
10791892,1480896445101,,,,,,,,-0.02,0.1,0.99,-8.5,-0.2,-0.2,820,250,,,,,,,,,,,,,,,,,,,
10791912,1480896445121,,,,,,,,-0.03,0.09,0.99,-8.5,-0.4,-0.2,820,250,,,,,,,,,,,,,,,,,,,
10791932,1480896445141,,,,,,,,-0.03,0.07,0.98,-8.6,-0.1,-0.1,820,253,,,,,,,,,,,,,,,,,,,
10791952,1480896445161,,,,,,,,-0.02,0.08,0.98,-8.8,0.1,0.2,820,250,,,,,,,,,,,,,,,,,,,
10791972,1480896445181,,,,,12,,,-0.01,0.09,0.97,-8.8,0.0,0.3,820,249,0,1,3.32,1,38.160007,-122.45356,0.0,2.515,70.2,9,2,1.7,63,2.2583,2,0.1467,,5.18,64
10791992,1480896445201,,,,,,,,-0.01,0.1,0.98,-8.8,0.2,0.2,820,250,,,,,,,,,,,,,,,,,,,
10792012,1480896445221,,,,,,,,-0.02,0.1,0.99,-8.8,-0.1,0.0,820,253,,,,,,,,,,,,,,,,,,,
10792032,1480896445241,,,,,,,,-0.03,0.1,0.99,-8.9,-0.1,-0.0,820,255,,,,,,,,,,,,,,,,,,,
10792052,1480896445261,,,,,,,,-0.03,0.09,0.97,-8.9,-0.1,0.1,820,255,,,,,,,,,,,,,,,,,,,
10792074,1480896445283,0,195.7,,178.3,13,208.2,,-0.02,0.09,0.97,-9.0,-0.1,0.3,820,255,0,1,3.293,1,38.160007,-122.45356,0.0,2.515,70.2,9,2,1.7,63,2.2583,2,0.1467,5.2924,5.18,64
10792093,1480896445204,,,,,,,,-0.01,0.1,0.97,-9.0,-0.3,0.4,840,256,,,,,,,,,,,,,,,,,,,
10792113,1480896445224,,,,,,,,-0.01,0.11,0.98,-9.0,-0.2,0.3,840,255,,,,,,,,,,,,,,,,,,,
10792133,1480896445244,,,,,,,,-0.02,0.11,0.99,-9.1,-0.4,0.1,840,258,,,,,,,,,,,,,,,,,,,
10792153,1480896445264,,,,,,,,-0.02,0.11,0.99,-9.0,-0.4,-0.1,840,260,,,,,,,,,,,,,,,,,,,
10792173,1480896445284,,,,,13,,,-0.03,0.09,0.98,-9.1,-0.2,-0.1,840,263,0,1,3.203,1,38.160007,-122.45356,0.0,2.515,70.2,9,2,1.7,63,2.2583,2,0.1467,,5.1817,64
10792193,1480896445304,,,,,,,,-0.02,0.1,0.98,-9.1,-0.0,-0.0,840,261,,,,,,,,,,,,,,,,,,,
10792213,1480896445324,,,,,,,,-0.01,0.09,0.99,-9.2,-0.0,0.1,840,263,,,,,,,,,,,,,,,,,,,
10792233,1480896445344,,,,,,,,-0.0,0.12,0.99,-9.2,-0.2,0.2,860,260,,,,,,,,,,,,,,,,,,,
10792253,1480896445364,,,,,,,,-0.0,0.12,1.0,-9.3,-0.1,0.2,860,261,,,,,,,,,,,,,,,,,,,
10792275,1480896445386,0,194.6,0.0,177.1,13,207.3,14.2,-0.01,0.12,1.0,-9.2,-0.3,-0.0,860,263,0,1,3.194,1,38.160007,-122.45356,0.0,2.515,70.2,9,2,1.7,63,2.2583,2,0.1467,5.2941,5.1833,64
10792294,1480896445408,,,,,,,,-0.01,0.12,1.0,-9.3,-0.6,-0.2,860,264,,,,,,,,,,,,,,,,,,,
10792314,1480896445428,,,,,,,,-0.02,0.1,1.0,-9.3,-0.6,-0.2,860,267,,,,,,,,,,,,,,,,,,,
10792334,1480896445448,,,,,,,,-0.02,0.1,0.98,-9.4,-0.5,-0.2,860,266,,,,,,,,,,,,,,,,,,,
10792354,1480896445468,,,,,,,,-0.01,0.11,0.97,-9.4,-0.3,-0.1,860,266,,,,,,,,,,,,,,,,,,,
10792374,1480896445488,,,,,13,,,-0.0,0.11,0.97,-9.6,-0.0,0.1,860,267,0,1,3.27,1,38.160007,-122.45356,0.0,2.515,70.2,9,2,1.7,63,2.2583,2,0.1467,,5.185,64
10792394,1480896445505,,,,,,,,0.0,0.12,0.98,-9.7,-0.2,0.2,860,264,,,,,,,,,,,,,,,,,,,
10792414,1480896445525,,,,,,,,-0.0,0.12,0.99,-9.8,0.1,0.1,860,264,,,,,,,,,,,,,,,,,,,
10792434,1480896445545,,,,,,,,-0.0,0.12,1.0,-9.8,-0.1,0.0,860,263,,,,,,,,,,,,,,,,,,,
10792454,1480896445565,,,,,,,,-0.01,0.12,1.0,-9.8,-0.3,-0.0,860,263,,,,,,,,,,,,,,,,,,,
10792476,1480896445587,0,194.6,,176.9,13,206.9,,-0.01,0.11,1.0,-9.8,-0.3,-0.1,860,266,0,1,3.221,1,38.160007,-122.45356,1.16,2.515,70.4,9,2,1.7,63,2.2583,2,0.1467,5.2974,5.1867,64
10792495,1480896445605,,,,,,,,-0.02,0.11,0.99,-9.9,-0.4,-0.1,860,266,,,,,,,,,,,,,,,,,,,
10792515,1480896445625,,,,,,,,-0.02,0.1,0.97,-10.0,-0.1,0.0,860,267,,,,,,,,,,,,,,,,,,,
10792535,1480896445645,,,,,,,,-0.01,0.11,0.97,-10.1,-0.1,0.2,860,269,,,,,,,,,,,,,,,,,,,
10792555,1480896445665,,,,,,,,-0.0,0.12,0.97,-10.3,-0.1,0.3,860,269,,,,,,,,,,,,,,,,,,,
10792575,1480896445685,,,,,14,,,-0.0,0.13,0.98,-10.4,0.0,0.3,880,269,0,1,3.27,1,38.160007,-122.45356,1.07,2.515,70.4,9,2,1.7,63,2.2583,2,0.1467,,5.1883,64
10792595,1480896445708,,,,,,,,-0.0,0.15,0.99,-10.6,0.0,0.1,880,267,,,,,,,,,,,,,,,,,,,
10792615,1480896445728,,,,,,,,-0.0,0.14,1.0,-10.7,-0.2,-0.0,880,269,,,,,,,,,,,,,,,,,,,
10792635,1480896445748,,,,,,,,-0.01,0.14,1.0,-10.8,-0.3,-0.1,880,270,,,,,,,,,,,,,,,,,,,
10792655,1480896445768,,,,,,,,-0.02,0.13,0.99,-10.8,-0.3,-0.2,880,270,,,,,,,,,,,,,,,,,,,
10792677,1480896445790,0,194.7,,178.0,14,207.5,,-0.02,0.12,0.98,-11.0,-0.2,-0.2,880,273,0,1,3.271,1,38.160007,-122.45356,0.0,2.515,70.4,9,2,1.7,63,2.2583,2,0.1467,5.3008,5.19,64
10792696,1480896445908,,,,,,,,-0.02,0.11,0.97,-11.0,0.1,-0.2,880,273,,,,,,,,,,,,,,,,,,,
10792716,1480896445928,,,,,,,,-0.01,0.11,0.97,-11.2,0.2,-0.2,880,273,,,,,,,,,,,,,,,,,,,
10792736,1480896445948,,,,,,,,0.0,0.11,0.97,-11.3,0.2,-0.1,880,272,,,,,,,,,,,,,,,,,,,
10792756,1480896445968,,,,,,,,-0.0,0.12,0.98,-11.5,0.1,-0.1,880,272,,,,,,,,,,,,,,,,,,,
10792776,1480896445988,,,,,13,,,0.0,0.14,0.99,-11.6,0.0,-0.2,880,270,0,1,3.259,1,38.160007,-122.45356,1.3,2.515,70.5,9,2,1.7,63,2.2583,2,0.1467,,5.1933,64
10792796,1480896446008,,,,,,,,0.0,0.14,0.99,-11.7,-0.0,-0.2,880,270,,,,,,,,,,,,,,,,,,,
10792816,1480896446028,,,,,,,,0.0,0.14,1.0,-11.7,-0.2,-0.3,900,270,,,,,,,,,,,,,,,,,,,
10792836,1480896446048,,,,,,,,-0.0,0.14,1.0,-11.8,-0.3,-0.3,880,270,,,,,,,,,,,,,,,,,,,
10792856,1480896446068,,,,,,,,-0.01,0.13,1.0,-11.8,-0.3,-0.3,880,272,,,,,,,,,,,,,,,,,,,
10792878,1480896446090,0,195.8,,177.4,14,206.4,,-0.0,0.11,0.99,-11.9,-0.2,-0.3,880,270,0,1,3.223,1,38.160007,-122.45356,1.3,2.515,70.5,9,2,1.7,63,2.2583,2,0.1467,5.3058,5.1933,64
10792897,1480896446009,,,,,,,,0.0,0.1,0.98,-12.0,-0.0,-0.2,880,270,,,,,,,,,,,,,,,,,,,
10792917,1480896446029,,,,,,,,0.01,0.1,0.97,-12.1,0.1,-0.0,880,273,,,,,,,,,,,,,,,,,,,
10792937,1480896446049,,,,,,,,0.03,0.11,0.97,-12.2,-0.1,0.1,880,272,,,,,,,,,,,,,,,,,,,
10792957,1480896446069,,,,,,,,0.03,0.12,0.97,-12.3,-0.2,0.1,880,270,,,,,,,,,,,,,,,,,,,
10792977,1480896446093,,,,,14,,,0.04,0.13,0.98,-12.4,-0.1,0.1,880,272,0,1,3.271,1,38.160007,-122.45356,0.0,2.515,70.5,9,2,1.7,63,2.2583,2,0.1467,,5.1967,64
10792997,1480896446113,,,,,,,,0.03,0.13,0.98,-12.5,-0.1,0.1,880,272,,,,,,,,,,,,,,,,,,,
10793017,1480896446133,,,,,,,,0.02,0.13,0.98,-12.6,-0.3,0.1,880,272,,,,,,,,,,,,,,,,,,,
10793037,1480896446153,,,,,,,,0.02,0.12,0.98,-12.6,-0.3,0.1,900,275,,,,,,,,,,,,,,,,,,,
10793057,1480896446173,,,,,,,,0.01,0.11,0.97,-12.7,-0.3,0.0,900,275,,,,,,,,,,,,,,,,,,,
10793079,1480896446195,0,194.0,,176.8,13,206.2,,0.01,0.1,0.96,-12.8,-0.1,-0.0,900,275,0,1,3.235,1,38.160007,-122.45356,0.0,2.515,70.5,9,2,1.7,63,2.2583,2,0.1467,5.3076,5.1967,64
10793098,1480896446209,,,,,,,,0.02,0.09,0.95,-12.9,-0.0,-0.0,900,275,,,,,,,,,,,,,,,,,,,
10793118,1480896446229,,,,,,,,0.02,0.1,0.95,-13.1,0.2,-0.0,900,275,,,,,,,,,,,,,,,,,,,
10793138,1480896446249,,,,,,,,0.03,0.11,0.95,-13.3,0.1,-0.0,900,275,,,,,,,,,,,,,,,,,,,
10793158,1480896446269,,,,,,,,0.03,0.11,0.96,-13.5,0.0,-0.0,900,273,,,,,,,,,,,,,,,,,,,
10793178,1480896446293,,,,,14,,,0.03,0.13,0.97,-13.6,0.0,0.0,900,273,0,1,3.273,1,38.160007,-122.45356,0.0,2.515,70.5,9,2,1.7,63,2.2583,2,0.1467,,5.2,64
10793198,1480896446313,,,,,,,,0.03,0.15,0.98,-13.7,0.1,-0.0,880,272,,,,,,,,,,,,,,,,,,,
10793218,1480896446333,,,,,,,,0.02,0.15,0.98,-13.7,0.0,-0.1,900,270,,,,,,,,,,,,,,,,,,,
10793238,1480896446353,,,,,,,,0.01,0.15,0.98,-13.8,-0.3,-0.1,880,252,,,,,,,,,,,,,,,,,,,
10793258,1480896446373,,,,,,,,0.01,0.14,0.98,-13.8,-0.3,-0.2,900,241,,,,,,,,,,,,,,,,,,,
10793280,1480896446393,0,194.5,0.0,176.7,14,206.0,14.17,0.01,0.13,0.97,-13.9,-0.3,-0.3,900,236,0,1,3.297,1,38.160007,-122.45356,0.0,2.515,70.5,9,2,1.7,63,2.2583,2,0.1467,5.3109,5.2017,64
10793299,1480896446412,,,,,,,,0.0,0.12,0.97,-13.9,-0.2,-0.4,920,238,,,,,,,,,,,,,,,,,,,
10793319,1480896446432,,,,,,,,0.01,0.11,0.96,-14.0,0.0,-0.4,920,236,,,,,,,,,,,,,,,,,,,
10793339,1480896446452,,,,,,,,0.02,0.11,0.96,-14.0,0.3,-0.3,920,236,,,,,,,,,,,,,,,,,,,
10793359,1480896446472,,,,,,,,0.03,0.12,0.96,-14.1,0.3,-0.3,920,238,,,,,,,,,,,,,,,,,,,
10793379,1480896446493,,,,,14,,,0.04,0.12,0.96,-14.2,-0.0,-0.2,920,241,0,1,-3.704,-1,38.160007,-122.45356,0.0,2.515,70.5,9,2,1.7,63,2.2583,2,0.1467,,5.2033,64
10793399,1480896446513,,,,,,,,0.04,0.13,0.97,-14.2,-0.2,-0.1,940,258,,,,,,,,,,,,,,,,,,,
10793419,1480896446533,,,,,,,,0.04,0.13,0.98,-14.3,-0.1,-0.0,940,284,,,,,,,,,,,,,,,,,,,
10793439,1480896446553,,,,,,,,0.03,0.14,0.98,-14.3,-0.2,0.1,940,293,,,,,,,,,,,,,,,,,,,
10793459,1480896446573,,,,,,,,0.03,0.15,0.99,-14.3,-0.1,0.1,960,293,,,,,,,,,,,,,,,,,,,
10793481,1480896446693,0,195.3,,178.3,16,206.6,,0.03,0.16,0.99,-14.3,-0.1,0.1,960,284,0,1,-3.9,-1,38.160007,-122.45356,0.0,2.515,70.5,9,2,1.7,63,2.2583,2,0.1467,5.3159,5.2067,64
10793500,1480896446712,,,,,,,,0.04,0.17,1.0,-14.3,0.0,0.1,960,289,,,,,,,,,,,,,,,,,,,
10793520,1480896446732,,,,,,,,0.04,0.17,1.0,-14.3,0.1,0.1,960,286,,,,,,,,,,,,,,,,,,,
10793540,1480896446752,,,,,,,,0.04,0.17,0.99,-14.3,0.0,0.1,960,281,,,,,,,,,,,,,,,,,,,
10793560,1480896446772,,,,,,,,0.04,0.17,0.99,-14.3,0.2,-0.0,960,280,,,,,,,,,,,,,,,,,,,
10793580,1480896446792,,,,,16,,,0.04,0.17,0.99,-14.3,0.1,-0.1,980,275,0,1,3.38,1,38.160007,-122.45356,0.0,2.515,70.5,9,2,1.7,63,2.2583,2,0.1467,,5.2067,64
10793600,1480896446812,,,,,,,,0.04,0.16,0.99,-14.2,0.1,-0.2,980,272,,,,,,,,,,,,,,,,,,,
10793620,1480896446832,,,,,,,,0.03,0.15,0.98,-14.2,0.1,-0.3,980,269,,,,,,,,,,,,,,,,,,,
10793640,1480896446852,,,,,,,,0.03,0.14,0.98,-14.1,0.1,-0.3,980,264,,,,,,,,,,,,,,,,,,,
10793660,1480896446872,,,,,,,,0.03,0.13,0.97,-14.2,0.0,-0.3,980,261,,,,,,,,,,,,,,,,,,,
10793682,1480896446795,0,195.0,,177.3,15,205.8,,0.03,0.12,0.97,-14.2,0.1,-0.3,980,258,0,1,3.564,0,38.160007,-122.45356,0.0,2.515,70.5,9,2,1.7,63,2.2583,2,0.1467,5.3176,5.2083,64
10793701,1480896446814,,,,,,,,0.03,0.12,0.97,-14.2,0.1,-0.4,980,255,,,,,,,,,,,,,,,,,,,
10793721,1480896446834,,,,,,,,0.03,0.12,0.97,-14.1,0.2,-0.5,980,253,,,,,,,,,,,,,,,,,,,
10793741,1480896446854,,,,,,,,0.03,0.11,0.96,-14.1,0.1,-0.5,980,249,,,,,,,,,,,,,,,,,,,
10793761,1480896446874,,,,,,,,0.03,0.11,0.96,-14.1,0.1,-0.4,980,247,,,,,,,,,,,,,,,,,,,
10793781,1480896446894,,,,,16,,,0.03,0.1,0.97,-14.0,0.1,-0.4,980,247,0,1,-3.798,-1,38.160007,-122.45356,0.0,2.515,70.5,9,2,1.7,63,2.2583,2,0.1467,,5.2083,64
10793801,1480896446904,,,,,,,,0.03,0.1,0.96,-14.0,0.1,-0.4,980,249,,,,,,,,,,,,,,,,,,,
10793821,1480896446924,,,,,,,,0.03,0.1,0.97,-14.0,0.0,-0.3,960,252,,,,,,,,,,,,,,,,,,,
10793841,1480896446944,,,,,,,,0.04,0.09,0.97,-14.1,-0.1,-0.3,960,258,,,,,,,,,,,,,,,,,,,
10793861,1480896446964,,,,,,,,0.04,0.09,0.98,-14.0,-0.1,-0.3,960,264,,,,,,,,,,,,,,,,,,,
10793883,1480896446994,0,193.9,,177.7,17,206.6,,0.04,0.08,0.98,-14.1,-0.1,-0.2,980,272,0,1,3.968,0,38.160007,-122.45356,0.0,2.515,70.5,9,2,1.7,63,2.2583,2,0.1467,5.3209,5.2117,64
10793902,1480896447013,,,,,,,,0.04,0.08,0.99,-14.1,-0.0,-0.2,960,280,,,,,,,,,,,,,,,,,,,
10793922,1480896447033,,,,,,,,0.04,0.08,0.99,-14.1,-0.0,-0.2,960,281,,,,,,,,,,,,,,,,,,,
10793942,1480896447053,,,,,,,,0.04,0.09,0.99,-14.1,0.0,-0.2,960,272,,,,,,,,,,,,,,,,,,,
10793962,1480896447073,,,,,,,,0.03,0.08,0.98,-14.3,0.0,-0.2,960,276,,,,,,,,,,,,,,,,,,,
10793982,1480896447096,,,,,17,,,0.03,0.09,0.97,-14.3,-0.0,-0.2,960,275,0,1,3.564,0,38.160007,-122.45356,0.0,2.515,70.5,9,2,1.7,63,2.2583,2,0.1467,,5.2133,64
10794002,1480896447116,,,,,,,,0.03,0.08,0.97,-14.4,-0.1,-0.2,960,270,,,,,,,,,,,,,,,,,,,
10794022,1480896447136,,,,,,,,0.03,0.09,0.97,-14.5,-0.2,-0.2,960,266,,,,,,,,,,,,,,,,,,,
10794042,1480896447156,,,,,,,,0.03,0.09,0.97,-14.6,-0.2,-0.2,940,264,,,,,,,,,,,,,,,,,,,
10794062,1480896447176,,,,,,,,0.04,0.09,0.96,-14.8,-0.3,-0.1,940,261,,,,,,,,,,,,,,,,,,,
10794084,1480896447197,0,194.0,,176.8,15,205.5,,0.04,0.1,0.96,-14.9,-0.2,-0.1,940,258,0,1,3.491,0,38.160007,-122.45356,1.04,2.515,70.5,9,2,1.7,63,2.2583,2,0.1467,5.3243,5.215,64
10794103,1480896447216,,,,,,,,0.04,0.1,0.96,-15.0,-0.2,-0.1,940,255,,,,,,,,,,,,,,,,,,,
10794123,1480896447236,,,,,,,,0.05,0.1,0.97,-15.2,-0.0,-0.1,940,253,,,,,,,,,,,,,,,,,,,
10794143,1480896447256,,,,,,,,0.05,0.11,0.97,-15.3,0.0,-0.1,940,252,,,,,,,,,,,,,,,,,,,
10794163,1480896447276,,,,,,,,0.05,0.11,0.97,-15.4,0.0,-0.0,940,249,,,,,,,,,,,,,,,,,,,
10794183,1480896447299,,,,,15,,,0.06,0.12,0.97,-15.6,0.0,0.0,940,246,0,1,-3.643,-1,38.160007,-122.45356,1.21,2.515,70.6,9,2,1.7,63,2.2583,2,0.1467,,5.2167,64
10794203,1480896447319,,,,,,,,0.06,0.14,0.98,-15.7,-0.2,0.1,940,241,,,,,,,,,,,,,,,,,,,
10794223,1480896447339,,,,,,,,0.06,0.14,0.98,-15.9,-0.3,0.2,940,238,,,,,,,,,,,,,,,,,,,
10794243,1480896447359,,,,,,,,0.06,0.15,0.99,-16.0,-0.3,0.2,940,243,,,,,,,,,,,,,,,,,,,
10794263,1480896447379,,,,,,,,0.06,0.16,0.99,-16.0,-0.4,0.2,920,241,,,,,,,,,,,,,,,,,,,
10794285,1480896447499,0,193.7,0.0,177.6,16,206.2,14.22,0.06,0.17,0.99,-16.1,-0.4,0.1,920,246,0,1,-3.821,-1,38.160007,-122.45356,0.99,2.515,70.5,9,2,1.7,63,2.2583,2,0.1467,5.3293,5.22,64
10794304,1480896447518,,,,,,,,0.05,0.18,0.99,-16.2,-0.5,0.1,920,252,,,,,,,,,,,,,,,,,,,
10794324,1480896447538,,,,,,,,0.06,0.17,1.0,-16.3,-0.4,-0.0,920,260,,,,,,,,,,,,,,,,,,,
10794344,1480896447558,,,,,,,,0.05,0.17,0.99,-16.3,-0.4,-0.1,920,264,,,,,,,,,,,,,,,,,,,
10794364,1480896447578,,,,,,,,0.05,0.16,0.99,-16.3,-0.3,-0.2,920,269,,,,,,,,,,,,,,,,,,,
10794384,1480896447598,,,,,16,,,0.05,0.15,0.98,-16.4,-0.4,-0.3,920,263,0,1,-3.74,-1,38.160007,-122.45356,0.99,2.515,70.5,9,2,1.7,63,2.2583,2,0.1467,,5.22,64
10794404,1480896447618,,,,,,,,0.05,0.14,0.97,-16.5,-0.2,-0.3,900,263,,,,,,,,,,,,,,,,,,,
10794424,1480896447638,,,,,,,,0.05,0.13,0.96,-16.6,-0.1,-0.3,900,261,,,,,,,,,,,,,,,,,,,
10794444,1480896447658,,,,,,,,0.05,0.13,0.96,-16.8,0.0,-0.2,900,260,,,,,,,,,,,,,,,,,,,
10794464,1480896447678,,,,,,,,0.06,0.13,0.96,-16.9,0.1,-0.1,900,256,,,,,,,,,,,,,,,,,,,
10794486,1480896447599,0,193.5,,176.8,16,205.1,,0.06,0.14,0.96,-17.1,0.0,0.0,900,253,0,1,3.498,0,38.160011,-122.45356,1.11,2.515,70.5,9,2,1.7,63,2.2583,2,0.1467,5.3307,5.2217,64
10794505,1480896447618,,,,,,,,0.06,0.14,0.97,-17.2,-0.2,0.1,900,250,,,,,,,,,,,,,,,,,,,
10794525,1480896447638,,,,,,,,0.06,0.15,0.98,-17.3,-0.3,0.1,900,249,,,,,,,,,,,,,,,,,,,
10794545,1480896447658,,,,,,,,0.06,0.16,0.98,-17.3,-0.3,0.0,880,246,,,,,,,,,,,,,,,,,,,
10794565,1480896447678,,,,,,,,0.06,0.16,0.99,-17.3,-0.1,-0.1,880,243,,,,,,,,,,,,,,,,,,,
10794585,1480896447698,,,,,14,,,0.05,0.16,0.99,-17.4,-0.2,-0.2,880,241,0,1,3.557,0,38.160011,-122.45356,1.48,2.515,70.6,9,2,1.7,63,2.2583,2,0.1467,,5.2233,64
10794605,1480896447718,,,,,,,,0.05,0.15,0.99,-17.4,-0.2,-0.2,880,240,,,,,,,,,,,,,,,,,,,
10794625,1480896447738,,,,,,,,0.05,0.14,0.99,-17.5,-0.2,-0.2,880,238,,,,,,,,,,,,,,,,,,,
10794645,1480896447758,,,,,,,,0.05,0.13,0.99,-17.5,-0.1,-0.2,880,233,,,,,,,,,,,,,,,,,,,
10794665,1480896447778,,,,,,,,0.05,0.12,0.98,-17.5,-0.0,-0.2,880,236,,,,,,,,,,,,,,,,,,,
10794687,1480896447800,0,193.9,,177.9,16,206.1,,0.06,0.13,0.97,-17.6,-0.1,-0.2,880,235,0,1,-3.651,-1,38.160011,-122.45356,2.63,2.515,70.6,9,2,1.7,63,2.2583,2,0.1467,5.3341,5.225,64
10794706,1480896447819,,,,,,,,0.06,0.14,0.97,-17.7,0.0,-0.2,860,243,,,,,,,,,,,,,,,,,,,
10794726,1480896447839,,,,,,,,0.06,0.14,0.98,-17.7,0.0,-0.2,880,246,,,,,,,,,,,,,,,,,,,
10794746,1480896447859,,,,,,,,0.05,0.14,0.98,-17.7,0.1,-0.3,880,253,,,,,,,,,,,,,,,,,,,
10794766,1480896447879,,,,,,,,0.05,0.14,0.99,-17.7,-0.0,-0.4,880,255,,,,,,,,,,,,,,,,,,,
10794786,1480896447893,,,,,15,,,0.05,0.13,0.99,-17.7,-0.1,-0.5,880,252,0,1,-3.729,-1,38.160011,-122.45356,2.29,2.515,70.6,9,2,1.7,63,2.2583,2,0.1467,,5.2267,64
10794806,1480896447913,,,,,,,,0.05,0.12,0.99,-17.7,-0.1,-0.5,860,249,,,,,,,,,,,,,,,,,,,
10794826,1480896447933,,,,,,,,0.05,0.11,0.99,-17.7,-0.0,-0.5,880,250,,,,,,,,,,,,,,,,,,,
10794846,1480896447953,,,,,,,,0.05,0.11,0.98,-17.7,0.1,-0.4,880,252,,,,,,,,,,,,,,,,,,,
10794866,1480896447973,,,,,,,,0.06,0.11,0.99,-17.7,0.0,-0.3,880,247,,,,,,,,,,,,,,,,,,,
10794888,1480896448001,0,194.4,,177.7,15,205.1,,0.06,0.12,0.99,-17.8,-0.0,-0.3,860,244,0,1,3.492,0,38.160011,-122.45356,1.79,2.515,70.3,9,2,1.7,63,2.2583,2,0.1467,5.3374,5.2283,64
10794907,1480896448020,,,,,,,,0.06,0.13,0.99,-17.8,0.0,-0.3,860,241,,,,,,,,,,,,,,,,,,,
10794927,1480896448040,,,,,,,,0.06,0.14,1.0,-17.8,-0.0,-0.4,880,238,,,,,,,,,,,,,,,,,,,
10794947,1480896448060,,,,,,,,0.06,0.14,1.0,-17.8,-0.2,-0.4,860,236,,,,,,,,,,,,,,,,,,,
10794967,1480896448080,,,,,,,,0.05,0.13,1.0,-17.7,-0.3,-0.5,860,236,,,,,,,,,,,,,,,,,,,
10794987,1480896448101,,,,,14,,,0.05,0.13,0.99,-17.7,-0.3,-0.6,860,235,0,1,3.539,0,38.160011,-122.453568,1.86,2.516,70.1,9,2,1.7,63,2.2583,2,0.1467,,5.23,64
10795007,1480896448121,,,,,,,,0.06,0.12,0.99,-17.7,-0.2,-0.5,860,230,,,,,,,,,,,,,,,,,,,
10795027,1480896448141,,,,,,,,0.06,0.12,0.98,-17.7,-0.1,-0.4,860,230,,,,,,,,,,,,,,,,,,,
10795047,1480896448161,,,,,,,,0.06,0.13,0.99,-17.7,-0.2,-0.4,860,229,,,,,,,,,,,,,,,,,,,
10795067,1480896448181,,,,,,,,0.06,0.13,0.99,-17.7,-0.2,-0.4,860,229,,,,,,,,,,,,,,,,,,,
10795089,1480896448301,0,192.8,,177.1,13,205.2,,0.06,0.14,0.99,-17.6,-0.2,-0.6,860,232,0,1,-3.66,-1,38.160011,-122.453568,1.32,2.516,70.0,9,2,1.7,63,2.2583,2,0.1467,5.3421,5.2333,64
10795108,1480896448320,,,,,,,,0.05,0.13,1.0,-17.6,-0.3,-0.7,860,236,,,,,,,,,,,,,,,,,,,
10795128,1480896448340,,,,,,,,0.05,0.12,1.0,-17.5,-0.3,-0.8,860,243,,,,,,,,,,,,,,,,,,,
10795148,1480896448360,,,,,,,,0.05,0.12,0.99,-17.5,-0.4,-0.7,860,243,,,,,,,,,,,,,,,,,,,
10795168,1480896448380,,,,,,,,0.04,0.1,0.98,-17.5,-0.3,-0.7,860,238,,,,,,,,,,,,,,,,,,,
10795188,1480896448400,,,,,13,,,0.05,0.11,0.98,-17.5,-0.2,-0.5,860,238,0,1,-3.707,-1,38.160011,-122.453568,1.32,2.516,70.0,9,2,1.7,63,2.2583,2,0.1467,,5.2333,64
10795208,1480896448420,,,,,,,,0.05,0.11,0.99,-17.5,-0.3,-0.4,860,236,,,,,,,,,,,,,,,,,,,
10795228,1480896448440,,,,,,,,0.05,0.12,0.99,-17.5,-0.2,-0.4,860,236,,,,,,,,,,,,,,,,,,,
10795248,1480896448460,,,,,,,,0.05,0.12,0.99,-17.5,-0.1,-0.4,860,233,,,,,,,,,,,,,,,,,,,
10795268,1480896448480,,,,,,,,0.04,0.11,0.99,-17.4,-0.2,-0.4,840,232,,,,,,,,,,,,,,,,,,,
10795290,1480896448405,0,194.1,0.0,178.0,14,205.1,14.19,0.04,0.11,0.99,-17.4,-0.1,-0.4,840,227,0,1,3.613,0,38.160011,-122.453568,2.43,2.516,69.8,9,2,1.7,63,2.2583,2,0.1467,5.3438,5.235,64
10795309,1480896448424,,,,,,,,0.04,0.11,0.99,-17.4,-0.2,-0.4,840,227,,,,,,,,,,,,,,,,,,,
10795329,1480896448444,,,,,,,,0.05,0.11,0.98,-17.4,-0.1,-0.2,840,226,,,,,,,,,,,,,,,,,,,
10795349,1480896448464,,,,,,,,0.05,0.11,0.98,-17.4,0.0,-0.0,860,226,,,,,,,,,,,,,,,,,,,
10795369,1480896448484,,,,,,,,0.05,0.12,0.98,-17.5,0.1,0.1,840,227,,,,,,,,,,,,,,,,,,,
10795389,1480896448504,,,,,14,,,0.05,0.12,0.99,-17.5,0.2,0.1,840,233,0,1,-3.7,-1,38.160011,-122.453568,2.96,2.516,69.7,9,2,1.7,63,2.2583,2,0.1467,,5.2367,64
10795409,1480896448524,,,,,,,,0.05,0.12,1.0,-17.5,0.0,0.1,840,236,,,,,,,,,,,,,,,,,,,
10795429,1480896448544,,,,,,,,0.05,0.12,1.0,-17.5,0.1,0.0,860,233,,,,,,,,,,,,,,,,,,,
