"Interval"|"ms"|0|0|1,"Utc"|"ms"|0|0|1,"FuelLevel"|"F"|0|100|5,"OilTemp"|"F"|0.0|300.0|5,"CoolantPressPSI"|"PSI"|0.0|20.0|1,"Coolant"|"F"|0.0|300.0|5,"OilPress"|"PSI"|0|150|10,"EngineTemp"|"F"|0.0|300.0|5,"Battery"|"Volts"|0.0|20.0|1,"AccelX"|"G"|-3.0|3.0|50,"AccelY"|"G"|-3.0|3.0|50,"AccelZ"|"G"|-3.0|3.0|50,"Yaw"|"Deg/Sec"|-300.0|300.0|50,"Pitch"|"Deg/Sec"|-300.0|300.0|50,"Roll"|"Deg/Sec"|-300.0|300.0|50,"RPM"|""|0|10000|50,"Driveshaft"|"RPM"|0|5000|50,"GPIO1"|""|0|1|10,"GPIO2"|""|0|1|10,"GearRatio"|""|-5.0|5.0|10,"Gear"|""|-1|5|10,"Latitude"|"Degrees"|-180.0|180.0|10,"Longitude"|"Degrees"|-180.0|180.0|10,"Speed"|"MPH"|0.0|150.0|10,"Distance"|"Miles"|0.0|0.0|10,"Altitude"|"Feet"|0.0|4000.0|10,"GPSSats"|""|0|20|10,"GPSQual"|""|0|5|10,"GPSDOP"|""|0.0|20.0|10,"LapCount"|""|0|0|10,"LapTime"|"Min"|0.0|0.0|10,"Sector"|""|0|0|10,"SectorTime"|"Min"|0.0|0.0|10,"PredTime"|"Min"|0.0|0.0|5,"ElapsedTime"|"Min"|0.0|0.0|10,"CurrentLap"|""|0|0|10
36254,1480885148650,0,183.7,,188.4,0,208.3,,0.03,0.02,0.94,-3.0,1.0,-0.1,580,0,0,0,0.0,0,38.158558,-122.452942,0.0,0.0,72.4,10,3,2.1,0,0.0,-1,0.0,0.0,0.0,0
36274,1480885148670,,,,,,,,0.03,0.01,0.94,-2.8,1.0,-0.4,720,0,,,,,,,,,,,,,,,,,,,
36294,1480885148591,,,,,,,,0.04,0.0,0.96,-2.8,1.1,-0.5,720,0,,,,,,,,,,,,,,,,,,,
36314,1480885148611,,,,,,,,0.03,0.01,0.96,-2.9,1.0,-0.3,800,0,,,,,,,,,,,,,,,,,,,
36334,1480885148631,,,,,,,,0.04,0.03,0.97,-3.0,0.9,-0.1,740,0,,,,,,,,,,,,,,,,,,,
36354,1480885148651,,,,,0,,,0.04,0.04,0.96,-3.0,0.8,-0.1,720,0,0,0,0.0,0,38.158558,-122.452942,0.0,0.0,72.4,10,3,2.1,0,0.0,-1,0.0,,0.0,0
36374,1480885148671,,,,,,,,0.04,0.04,0.96,-3.0,0.8,-0.3,720,0,,,,,,,,,,,,,,,,,,,
36394,1480885148691,,,,,,,,0.04,0.05,0.97,-3.0,1.0,-0.2,680,0,,,,,,,,,,,,,,,,,,,
36414,1480885148710,,,,,,,,0.04,0.04,0.96,-3.0,0.7,-0.3,680,0,,,,,,,,,,,,,,,,,,,
36434,1480885148730,,,,,,,,0.04,0.04,0.97,-2.9,0.6,-0.4,680,0,,,,,,,,,,,,,,,,,,,
36454,1480885148750,0,183.7,,187.4,0,208.3,,0.04,0.04,0.97,-2.9,0.5,-0.4,760,16,0,0,0.0,0,38.158558,-122.452942,0.0,0.0,72.4,10,3,2.1,0,0.0,-1,0.0,0.0,0.0,0
36474,1480885148770,,,,,,,,0.04,0.03,0.97,-2.9,1.0,-0.3,800,16,,,,,,,,,,,,,,,,,,,
36494,1480885148790,,,,,,,,0.05,0.06,0.97,-2.9,0.8,-0.2,800,16,,,,,,,,,,,,,,,,,,,
36514,1480885148810,,,,,,,,0.04,0.06,0.96,-2.9,1.0,-0.2,820,16,,,,,,,,,,,,,,,,,,,
36534,1480885148830,,,,,,,,0.04,0.06,0.97,-2.9,0.8,-0.2,800,1538461,,,,,,,,,,,,,,,,,,,
36554,1480885148850,,,,,1,,,0.05,0.05,0.97,-3.0,0.9,-0.1,800,0,0,0,0.0,0,38.158558,-122.452942,0.0,0.0,72.4,10,3,2.1,0,0.0,-1,0.0,,0.0,0
36574,1480885148870,,,,,,,,0.05,0.06,0.98,-3.0,1.1,0.1,840,0,,,,,,,,,,,,,,,,,,,
36594,1480885148890,,,,,,,,0.05,0.08,0.98,-3.0,1.1,0.1,920,0,,,,,,,,,,,,,,,,,,,
36614,1480885148903,,,,,,,,0.06,0.1,0.99,-3.1,1.0,0.1,980,0,,,,,,,,,,,,,,,,,,,
36634,1480885148923,,,,,,,,0.06,0.1,0.99,-3.0,0.9,0.1,1020,0,,,,,,,,,,,,,,,,,,,
36654,1480885148943,0,185.0,,188.8,3,208.8,,0.07,0.1,0.98,-3.1,0.8,0.1,1060,0,0,0,0.0,0,38.158558,-122.452942,0.0,0.0,72.4,10,3,2.1,0,0.0,-1,0.0,0.0,0.0,0
36674,1480885148963,,,,,,,,0.07,0.09,0.98,-3.0,0.8,-0.0,1140,0,,,,,,,,,,,,,,,,,,,
36694,1480885148983,,,,,,,,0.06,0.07,0.99,-2.9,1.0,-0.2,1180,0,,,,,,,,,,,,,,,,,,,
36714,1480885149010,,,,,,,,0.05,0.07,1.0,-3.0,0.7,-0.2,1200,0,,,,,,,,,,,,,,,,,,,
36734,1480885149030,,,,,,,,0.05,0.07,0.99,-2.9,0.6,-0.3,1200,0,,,,,,,,,,,,,,,,,,,
36754,1480885149050,,,,,4,,,0.04,0.06,0.99,-3.0,0.6,-0.3,1240,0,0,1,0.0,0,38.158558,-122.452942,0.0,0.0,72.4,10,3,2.1,0,0.0,-1,0.0,,0.0,0
36774,1480885149070,,,,,,,,0.04,0.07,0.99,-3.0,0.5,-0.3,1260,0,,,,,,,,,,,,,,,,,,,
36794,1480885149090,,,,,,,,0.04,0.05,0.99,-3.1,0.6,-0.3,1300,0,,,,,,,,,,,,,,,,,,,
36814,1480885149110,,,,,,,,0.04,0.06,0.98,-3.0,0.4,-0.3,1300,0,,,,,,,,,,,,,,,,,,,
36834,1480885149130,,,,,,,,0.04,0.05,0.98,-3.0,0.6,-0.2,1300,0,,,,,,,,,,,,,,,,,,,
36854,1480885149150,0,183.6,,187.3,7,207.7,,0.04,0.06,0.98,-3.0,0.6,-0.3,1300,0,0,1,0.0,0,38.158558,-122.452942,0.0,0.0,72.4,10,3,2.1,0,0.0,-1,0.0,0.0,0.0,0
36874,1480885149170,,,,,,,,0.03,0.07,0.99,-3.0,0.6,-0.3,1300,0,,,,,,,,,,,,,,,,,,,
36894,1480885149190,,,,,,,,0.03,0.06,0.98,-3.0,0.7,-0.3,1320,0,,,,,,,,,,,,,,,,,,,
36914,1480885149310,,,,,,,,0.03,0.06,0.99,-3.0,0.9,-0.3,1320,0,,,,,,,,,,,,,,,,,,,
36934,1480885149330,,,,,,,,0.03,0.06,0.99,-3.0,0.8,-0.3,1280,0,,,,,,,,,,,,,,,,,,,
36954,1480885149350,,,,,10,,,0.03,0.06,0.99,-3.0,0.9,-0.3,1300,0,0,1,0.0,0,38.158558,-122.452942,0.0,0.0,72.4,10,3,2.1,0,0.0,-1,0.0,,0.0,0
36974,1480885149370,,,,,,,,0.03,0.07,0.99,-3.0,0.9,-0.2,1300,0,,,,,,,,,,,,,,,,,,,
36994,1480885149390,,,,,,,,0.03,0.07,0.99,-3.0,0.9,-0.2,1300,0,,,,,,,,,,,,,,,,,,,
37014,1480885149410,,,,,,,,0.03,0.07,1.0,-3.0,0.8,-0.2,1280,0,,,,,,,,,,,,,,,,,,,
37034,1480885149430,,,,,,,,0.03,0.07,0.99,-3.0,0.7,-0.2,1280,0,,,,,,,,,,,,,,,,,,,
37054,1480885149450,0,185.7,2.7,189.4,11,209.4,13.59,0.03,0.07,0.99,-3.0,0.7,-0.3,1300,0,0,1,0.0,0,38.158558,-122.452942,0.0,0.0,72.4,10,3,2.1,0,0.0,-1,0.0,0.0,0.0,0
37074,1480885149470,,,,,,,,0.03,0.07,0.99,-3.0,0.6,-0.3,1300,0,,,,,,,,,,,,,,,,,,,
37094,1480885149490,,,,,,,,0.03,0.07,0.99,-3.0,0.5,-0.2,1300,0,,,,,,,,,,,,,,,,,,,
37114,1480885149410,,,,,,,,0.03,0.07,0.99,-3.0,0.5,-0.2,1280,0,,,,,,,,,,,,,,,,,,,
37134,1480885149430,,,,,,,,0.03,0.07,0.99,-3.0,0.5,-0.2,1280,0,,,,,,,,,,,,,,,,,,,
37154,1480885149450,,,,,13,,,0.03,0.07,0.99,-3.0,0.4,-0.2,1280,0,0,1,0.0,0,38.158558,-122.452942,0.0,0.0,72.4,10,3,2.1,0,0.0,-1,0.0,,0.0,0
37174,1480885149470,,,,,,,,0.03,0.07,0.99,-3.0,0.4,-0.2,1280,0,,,,,,,,,,,,,,,,,,,
37194,1480885149491,,,,,,,,0.03,0.07,0.99,-3.0,0.3,-0.2,1260,0,,,,,,,,,,,,,,,,,,,
37214,1480885149511,,,,,,,,0.03,0.07,0.98,-3.0,0.4,-0.2,1260,0,,,,,,,,,,,,,,,,,,,
37234,1480885149531,,,,,,,,0.02,0.07,0.98,-3.0,0.3,-0.2,1260,0,,,,,,,,,,,,,,,,,,,
37254,1480885149551,0,183.5,,187.6,13,208.0,,0.03,0.07,0.99,-3.0,0.4,-0.2,1240,0,0,1,0.0,0,38.158558,-122.452942,0.0,0.0,72.4,10,3,2.1,0,0.0,-1,0.0,0.0,0.0,0
37274,1480885149571,,,,,,,,0.03,0.07,0.99,-3.1,0.4,-0.2,1240,0,,,,,,,,,,,,,,,,,,,
37294,1480885149591,,,,,,,,0.03,0.07,0.99,-3.1,0.4,-0.2,1240,0,,,,,,,,,,,,,,,,,,,
37314,1480885149611,,,,,,,,0.03,0.07,0.99,-3.1,0.3,-0.1,1220,0,,,,,,,,,,,,,,,,,,,
37334,1480885149631,,,,,,,,0.03,0.07,0.98,-3.1,0.3,-0.2,1200,0,,,,,,,,,,,,,,,,,,,
37354,1480885149651,,,,,17,,,0.03,0.07,0.98,-3.1,0.3,-0.2,1200,0,0,1,0.0,0,38.158558,-122.452942,0.0,0.0,72.4,10,3,2.1,0,0.0,-1,0.0,,0.0,0
37374,1480885149671,,,,,,,,0.02,0.06,0.98,-3.1,0.3,-0.2,1200,0,,,,,,,,,,,,,,,,,,,
37394,1480885149691,,,,,,,,0.02,0.06,0.98,-3.1,0.2,-0.2,1200,0,,,,,,,,,,,,,,,,,,,
37414,1480885149711,,,,,,,,0.02,0.06,0.97,-3.1,0.2,-0.2,1180,0,,,,,,,,,,,,,,,,,,,
37434,1480885149731,,,,,,,,0.02,0.06,0.97,-3.1,0.2,-0.2,1160,0,,,,,,,,,,,,,,,,,,,
37454,1480885149751,0,184.3,,188.4,15,208.4,,0.02,0.05,0.97,-3.1,0.2,-0.1,1160,0,0,1,0.0,0,38.158558,-122.452942,0.0,0.0,72.4,10,3,2.1,0,0.0,-1,0.0,0.0,0.0,0
37474,1480885149771,,,,,,,,0.02,0.05,0.97,-3.1,0.3,-0.1,1140,0,,,,,,,,,,,,,,,,,,,
37494,1480885149791,,,,,,,,0.01,0.05,0.98,-3.1,0.2,-0.1,1140,0,,,,,,,,,,,,,,,,,,,
37514,1480885149811,,,,,,,,0.02,0.05,0.98,-3.1,0.2,-0.2,1140,0,,,,,,,,,,,,,,,,,,,
37534,1480885149831,,,,,,,,0.01,0.06,0.98,-3.1,0.2,-0.2,1120,0,,,,,,,,,,,,,,,,,,,
37554,1480885149851,,,,,15,,,0.02,0.06,0.98,-3.1,0.2,-0.2,1120,0,0,1,0.0,0,38.158558,-122.452942,0.0,0.0,72.4,10,3,2.1,0,0.0,-1,0.0,,0.0,0
37574,1480885149871,,,,,,,,0.02,0.05,0.98,-3.1,0.2,-0.1,1100,0,,,,,,,,,,,,,,,,,,,
37594,1480885149891,,,,,,,,0.02,0.06,0.98,-3.0,0.2,-0.2,1100,0,,,,,,,,,,,,,,,,,,,
37614,1480885149904,,,,,,,,0.02,0.05,0.98,-3.0,0.3,-0.2,1100,0,,,,,,,,,,,,,,,,,,,
37634,1480885149924,,,,,,,,0.01,0.05,0.98,-3.0,0.2,-0.2,1100,0,,,,,,,,,,,,,,,,,,,
37654,1480885149944,0,183.6,,187.5,15,207.4,,0.01,0.06,0.98,-3.1,0.1,-0.2,1080,0,0,1,0.0,0,38.158558,-122.452942,0.0,0.0,72.4,10,3,2.1,0,0.0,-1,0.0,0.0,0.0,0
37674,1480885149964,,,,,,,,0.02,0.06,0.98,-3.0,0.1,-0.2,1080,0,,,,,,,,,,,,,,,,,,,
37694,1480885150091,,,,,,,,0.02,0.06,0.98,-3.0,0.1,-0.2,1080,0,,,,,,,,,,,,,,,,,,,
37714,1480885150111,,,,,,,,0.02,0.06,0.98,-3.1,0.2,-0.2,1060,0,,,,,,,,,,,,,,,,,,,
37734,1480885150131,,,,,,,,0.02,0.06,0.99,-3.1,0.3,-0.1,1060,0,,,,,,,,,,,,,,,,,,,
37754,1480885150151,,,,,16,,,0.02,0.06,0.99,-3.1,0.2,-0.1,1040,0,0,1,0.0,0,38.158558,-122.452942,0.0,0.0,72.4,10,3,2.1,0,0.0,-1,0.0,,0.0,0
37774,1480885150171,,,,,,,,0.02,0.07,0.98,-3.1,0.2,-0.1,1040,0,,,,,,,,,,,,,,,,,,,
37794,1480885150191,,,,,,,,0.02,0.07,0.98,-3.1,0.2,-0.1,1040,0,,,,,,,,,,,,,,,,,,,
37814,1480885150211,,,,,,,,0.02,0.07,0.98,-3.1,0.2,-0.1,1020,0,,,,,,,,,,,,,,,,,,,
37834,1480885150231,,,,,,,,0.02,0.07,0.98,-3.1,0.2,-0.1,1020,0,,,,,,,,,,,,,,,,,,,
37854,1480885150251,0,184.5,,189.0,14,208.7,,0.02,0.06,0.98,-3.1,0.1,-0.1,1020,0,0,1,0.0,0,38.158558,-122.452942,0.0,0.0,72.4,10,3,2.1,0,0.0,-1,0.0,0.0,0.0,0
37874,1480885150271,,,,,,,,0.02,0.07,0.98,-3.1,0.2,-0.1,1020,0,,,,,,,,,,,,,,,,,,,
37894,1480885150191,,,,,,,,0.03,0.07,0.98,-3.1,0.2,-0.1,1000,0,,,,,,,,,,,,,,,,,,,
37914,1480885150211,,,,,,,,0.03,0.07,0.98,-3.1,0.3,-0.1,1000,0,,,,,,,,,,,,,,,,,,,
37934,1480885150231,,,,,,,,0.03,0.07,0.99,-3.0,0.3,-0.1,1000,0,,,,,,,,,,,,,,,,,,,
37954,1480885150251,,,,,13,,,0.03,0.07,0.99,-3.0,0.4,-0.1,980,0,0,1,0.0,0,38.158558,-122.452942,0.0,0.0,72.4,10,3,2.1,0,0.0,-1,0.0,,0.0,0
37974,1480885150271,,,,,,,,0.04,0.08,0.99,-3.0,0.5,-0.1,1000,0,,,,,,,,,,,,,,,,,,,
37994,1480885150291,,,,,,,,0.04,0.08,1.0,-3.0,0.5,-0.1,980,0,,,,,,,,,,,,,,,,,,,
38014,1480885150311,,,,,,,,0.04,0.08,1.0,-3.0,0.5,-0.1,980,0,,,,,,,,,,,,,,,,,,,
38034,1480885150331,,,,,,,,0.04,0.08,1.0,-3.0,0.6,-0.1,980,0,,,,,,,,,,,,,,,,,,,
38054,1480885150351,0,183.7,2.0,188.8,13,208.0,13.68,0.04,0.08,1.0,-3.0,0.7,-0.1,960,0,0,1,0.0,0,38.158558,-122.452942,0.0,0.0,72.4,10,3,2.1,0,0.0,-1,0.0,0.0,0.0,0
38074,1480885150371,,,,,,,,0.04,0.09,1.0,-3.0,0.7,-0.1,980,0,,,,,,,,,,,,,,,,,,,
38094,1480885150391,,,,,,,,0.04,0.09,1.0,-3.1,0.8,-0.1,960,0,,,,,,,,,,,,,,,,,,,
38114,1480885150411,,,,,,,,0.04,0.09,1.0,-3.0,0.8,-0.0,960,0,,,,,,,,,,,,,,,,,,,
38134,1480885150431,,,,,,,,0.04,0.09,1.0,-3.1,0.9,0.0,960,0,,,,,,,,,,,,,,,,,,,
38154,1480885150451,,,,,14,,,0.04,0.09,1.0,-3.1,0.9,0.0,960,0,0,1,0.0,0,38.158558,-122.452942,0.0,0.0,72.4,10,3,2.1,0,0.0,-1,0.0,,0.0,0
38174,1480885150471,,,,,,,,0.05,0.1,0.99,-3.1,0.8,0.0,960,0,,,,,,,,,,,,,,,,,,,
38194,1480885150491,,,,,,,,0.05,0.1,0.99,-3.2,0.7,0.1,960,0,,,,,,,,,,,,,,,,,,,
38214,1480885150511,,,,,,,,0.05,0.1,0.99,-3.2,0.6,0.2,960,0,,,,,,,,,,,,,,,,,,,
38234,1480885150531,,,,,,,,0.05,0.11,0.99,-3.3,0.5,0.2,960,0,,,,,,,,,,,,,,,,,,,
38254,1480885150551,0,183.5,,187.9,12,207.3,,0.05,0.11,0.99,-3.2,0.4,0.2,940,0,0,1,0.0,0,38.158558,-122.452942,0.0,0.0,72.4,10,3,2.1,0,0.0,-1,0.0,0.0,0.0,0
38274,1480885150571,,,,,,,,0.05,0.11,0.99,-3.2,0.4,0.2,940,0,,,,,,,,,,,,,,,,,,,
38294,1480885150591,,,,,,,,0.05,0.12,1.0,-3.2,0.4,0.1,940,0,,,,,,,,,,,,,,,,,,,
38314,1480885150611,,,,,,,,0.04,0.12,1.0,-3.2,0.4,0.1,940,0,,,,,,,,,,,,,,,,,,,
38334,1480885150631,,,,,,,,0.04,0.12,1.0,-3.2,0.4,0.0,940,0,,,,,,,,,,,,,,,,,,,
38354,1480885150651,,,,,13,,,0.04,0.12,1.0,-3.1,0.4,-0.1,940,0,0,1,0.0,0,38.158558,-122.452942,0.0,0.0,72.4,10,3,2.1,0,0.0,-1,0.0,,0.0,0
38374,1480885150671,,,,,,,,0.04,0.11,1.0,-3.1,0.4,-0.1,940,0,,,,,,,,,,,,,,,,,,,
38394,1480885150691,,,,,,,,0.03,0.1,0.99,-3.1,0.4,-0.2,940,0,,,,,,,,,,,,,,,,,,,
38414,1480885150711,,,,,,,,0.03,0.09,0.99,-3.0,0.3,-0.3,940,0,,,,,,,,,,,,,,,,,,,
38434,1480885150731,,,,,,,,0.02,0.08,0.99,-3.0,0.3,-0.4,940,0,,,,,,,,,,,,,,,,,,,
38454,1480885150751,0,184.7,,189.5,14,207.7,,0.02,0.07,0.99,-2.9,0.2,-0.4,940,0,0,1,0.0,0,38.158558,-122.452942,0.0,0.0,72.4,10,3,2.1,0,0.0,-1,0.0,0.0,0.0,0
38474,1480885150771,,,,,,,,0.01,0.07,0.99,-2.9,0.2,-0.4,940,0,,,,,,,,,,,,,,,,,,,
38494,1480885150891,,,,,,,,0.01,0.06,0.98,-2.9,0.2,-0.4,940,0,,,,,,,,,,,,,,,,,,,
38514,1480885150911,,,,,,,,0.01,0.05,0.98,-3.0,0.3,-0.4,940,0,,,,,,,,,,,,,,,,,,,
38534,1480885150931,,,,,,,,0.01,0.04,0.98,-3.0,0.3,-0.3,940,0,,,,,,,,,,,,,,,,,,,
38554,1480885150951,,,,,13,,,0.01,0.04,0.98,-3.0,0.4,-0.3,920,0,0,1,0.0,0,38.158558,-122.452942,0.0,0.0,72.4,10,3,2.1,0,0.0,-1,0.0,,0.0,0
38574,1480885150971,,,,,,,,0.02,0.04,0.98,-3.0,0.5,-0.2,940,0,,,,,,,,,,,,,,,,,,,
38594,1480885150991,,,,,,,,0.02,0.05,0.98,-3.1,0.5,-0.1,940,0,,,,,,,,,,,,,,,,,,,
38614,1480885151011,,,,,,,,0.02,0.06,0.98,-3.1,0.4,0.0,940,0,,,,,,,,,,,,,,,,,,,
38634,1480885151031,,,,,,,,0.02,0.08,0.99,-3.2,0.3,0.0,920,0,,,,,,,,,,,,,,,,,,,
38654,1480885151051,0,184.3,,189.6,13,208.4,,0.03,0.08,0.99,-3.2,0.3,0.1,940,0,0,1,0.0,0,38.158558,-122.452942,0.0,0.0,72.4,10,3,2.1,0,0.0,-1,0.0,0.0,0.0,0
38674,1480885151071,,,,,,,,0.03,0.09,1.0,-3.1,0.4,0.0,920,0,,,,,,,,,,,,,,,,,,,
38694,1480885151091,,,,,,,,0.03,0.09,1.0,-3.1,0.4,-0.0,920,0,,,,,,,,,,,,,,,,,,,
38714,1480885151010,,,,,,,,0.03,0.1,1.0,-3.1,0.3,-0.1,940,0,,,,,,,,,,,,,,,,,,,
38734,1480885151030,,,,,,,,0.03,0.1,1.0,-3.1,0.3,-0.2,940,0,,,,,,,,,,,,,,,,,,,
38754,1480885151050,,,,,12,,,0.02,0.1,1.0,-3.1,0.3,-0.3,940,0,0,1,0.0,0,38.158558,-122.452942,0.0,0.0,72.4,10,3,1.7,0,0.0,-1,0.0,,0.0,0
38774,1480885151070,,,,,,,,0.02,0.08,1.0,-3.0,0.2,-0.4,940,0,,,,,,,,,,,,,,,,,,,
38794,1480885151090,,,,,,,,0.02,0.08,0.99,-3.0,0.2,-0.5,920,0,,,,,,,,,,,,,,,,,,,
38814,1480885151110,,,,,,,,0.01,0.06,0.99,-3.0,0.1,-0.5,920,0,,,,,,,,,,,,,,,,,,,
38834,1480885151130,,,,,,,,0.01,0.06,0.98,-3.0,0.1,-0.5,940,0,,,,,,,,,,,,,,,,,,,
38854,1480885151150,0,184.7,,189.5,12,207.3,,0.01,0.05,0.98,-3.0,0.2,-0.5,940,0,0,1,0.0,0,38.158558,-122.452942,0.0,0.0,72.4,10,3,1.7,0,0.0,-1,0.0,0.0,0.0,0
38874,1480885151170,,,,,,,,0.01,0.04,0.98,-3.0,0.2,-0.4,920,0,,,,,,,,,,,,,,,,,,,
38894,1480885151190,,,,,,,,0.01,0.05,0.98,-3.1,0.3,-0.3,920,0,,,,,,,,,,,,,,,,,,,
38914,1480885151210,,,,,,,,0.02,0.05,0.98,-3.1,0.3,-0.2,920,0,,,,,,,,,,,,,,,,,,,
38934,1480885151230,,,,,,,,0.02,0.06,0.97,-3.1,0.4,-0.1,920,0,,,,,,,,,,,,,,,,,,,
38954,1480885151250,,,,,12,,,0.02,0.08,0.98,-3.2,0.3,0.0,940,0,0,1,0.0,0,38.158558,-122.452942,0.0,0.0,72.4,10,3,1.7,0,0.0,-1,0.0,,0.0,0
38974,1480885151270,,,,,,,,0.02,0.09,0.98,-3.2,0.2,0.1,920,0,,,,,,,,,,,,,,,,,,,
38994,1480885151290,,,,,,,,0.02,0.1,0.98,-3.2,0.2,0.1,940,0,,,,,,,,,,,,,,,,,,,
39014,1480885151310,,,,,,,,0.02,0.11,0.98,-3.2,0.3,0.1,920,0,,,,,,,,,,,,,,,,,,,
39034,1480885151330,,,,,,,,0.02,0.1,0.99,-3.2,0.3,0.0,940,0,,,,,,,,,,,,,,,,,,,
39054,1480885151350,0,184.7,1.0,189.8,12,207.3,13.75,0.02,0.1,0.99,-3.2,0.2,-0.1,940,0,0,1,0.0,0,38.158558,-122.452942,0.0,0.0,72.4,10,3,1.7,0,0.0,-1,0.0,0.0,0.0,0
39074,1480885151370,,,,,,,,0.02,0.1,0.99,-3.1,0.2,-0.2,920,0,,,,,,,,,,,,,,,,,,,
39094,1480885151390,,,,,,,,0.02,0.09,0.98,-3.1,0.1,-0.3,940,0,,,,,,,,,,,,,,,,,,,
39114,1480885151410,,,,,,,,0.02,0.08,0.99,-3.1,0.1,-0.4,940,0,,,,,,,,,,,,,,,,,,,
39134,1480885151430,,,,,,,,0.01,0.07,0.99,-3.0,0.1,-0.4,920,0,,,,,,,,,,,,,,,,,,,
39154,1480885151450,,,,,14,,,0.01,0.05,0.98,-3.0,0.1,-0.4,920,0,0,1,0.0,0,38.158558,-122.452942,0.0,0.0,72.4,10,3,1.7,0,0.0,-1,0.0,,0.0,0
39174,1480885151470,,,,,,,,0.0,0.05,0.98,-3.0,0.1,-0.4,940,0,,,,,,,,,,,,,,,,,,,
39194,1480885151490,,,,,,,,0.0,0.04,0.97,-3.0,0.2,-0.4,920,0,,,,,,,,,,,,,,,,,,,
39214,1480885151510,,,,,,,,0.0,0.04,0.97,-3.0,0.3,-0.3,920,0,,,,,,,,,,,,,,,,,,,
39234,1480885151530,,,,,,,,0.01,0.04,0.97,-3.1,0.3,-0.2,920,0,,,,,,,,,,,,,,,,,,,
39254,1480885151550,0,184.8,,190.6,14,208.3,,0.02,0.05,0.97,-3.1,0.4,-0.1,920,0,0,1,0.0,0,38.158558,-122.452942,0.0,0.0,72.4,10,3,1.7,0,0.0,-1,0.0,0.0,0.0,0
39274,1480885151570,,,,,,,,0.02,0.06,0.98,-3.1,0.3,-0.0,920,0,,,,,,,,,,,,,,,,,,,
39294,1480885151590,,,,,,,,0.02,0.07,0.98,-3.2,0.2,0.0,920,0,,,,,,,,,,,,,,,,,,,
39314,1480885151709,,,,,,,,0.02,0.08,0.99,-3.2,0.3,0.0,920,0,,,,,,,,,,,,,,,,,,,
39334,1480885151729,,,,,,,,0.02,0.08,0.99,-3.2,0.3,0.0,920,0,,,,,,,,,,,,,,,,,,,
39354,1480885151749,,,,,11,,,0.02,0.09,0.99,-3.2,0.3,-0.0,920,0,0,1,0.0,0,38.158558,-122.452942,0.0,0.0,72.4,10,3,1.7,0,0.0,-1,0.0,,0.0,0
39374,1480885151769,,,,,,,,0.02,0.09,0.99,-3.2,0.3,-0.1,920,0,,,,,,,,,,,,,,,,,,,
39394,1480885151789,,,,,,,,0.02,0.09,1.0,-3.1,0.2,-0.2,920,0,,,,,,,,,,,,,,,,,,,
39414,1480885151809,,,,,,,,0.02,0.08,0.99,-3.1,0.2,-0.3,920,0,,,,,,,,,,,,,,,,,,,
39434,1480885151829,,,,,,,,0.02,0.07,0.99,-3.0,0.2,-0.4,920,0,,,,,,,,,,,,,,,,,,,
39454,1480885151849,0,183.2,,189.3,13,206.9,,0.01,0.06,0.99,-3.0,0.1,-0.5,920,0,0,1,0.0,0,38.158558,-122.452942,0.0,0.0,72.4,10,3,1.7,0,0.0,-1,0.0,0.0,0.0,0
39474,1480885151869,,,,,,,,0.01,0.05,0.98,-3.0,0.1,-0.4,920,0,,,,,,,,,,,,,,,,,,,
39494,1480885151889,,,,,,,,0.01,0.04,0.98,-3.0,0.2,-0.4,920,0,,,,,,,,,,,,,,,,,,,
39514,1480885151810,,,,,,,,0.01,0.04,0.98,-3.0,0.3,-0.3,900,0,,,,,,,,,,,,,,,,,,,
39534,1480885151830,,,,,,,,0.01,0.04,0.97,-3.1,0.4,-0.2,900,0,,,,,,,,,,,,,,,,,,,
39554,1480885151850,,,,,12,,,0.01,0.05,0.97,-3.1,0.3,-0.0,920,0,0,1,0.0,0,38.158558,-122.452942,0.0,0.0,72.4,10,3,1.7,0,0.0,-1,0.0,,0.0,0
39574,1480885151870,,,,,,,,0.02,0.06,0.98,-3.2,0.3,0.0,900,0,,,,,,,,,,,,,,,,,,,
39594,1480885151890,,,,,,,,0.02,0.07,0.98,-3.2,0.3,0.1,920,0,,,,,,,,,,,,,,,,,,,
39614,1480885151903,,,,,,,,0.02,0.08,0.98,-3.1,0.3,0.0,920,0,,,,,,,,,,,,,,,,,,,
39634,1480885151923,,,,,,,,0.02,0.08,0.99,-3.1,0.4,-0.1,920,0,,,,,,,,,,,,,,,,,,,
39654,1480885151943,0,184.1,,190.5,13,207.9,,0.02,0.08,0.99,-3.1,0.3,-0.2,920,0,0,1,0.0,0,38.158558,-122.452942,0.0,0.0,72.4,10,3,1.7,0,0.0,-1,0.0,0.0,0.0,0
39674,1480885151963,,,,,,,,0.02,0.07,0.99,-3.0,0.2,-0.3,900,0,,,,,,,,,,,,,,,,,,,
39694,1480885151983,,,,,,,,0.02,0.07,0.99,-3.0,0.2,-0.4,900,0,,,,,,,,,,,,,,,,,,,
39714,1480885152001,,,,,,,,0.01,0.06,0.99,-3.0,0.1,-0.5,900,0,,,,,,,,,,,,,,,,,,,
39734,1480885152021,,,,,,,,0.01,0.05,0.98,-2.9,0.2,-0.5,920,0,,,,,,,,,,,,,,,,,,,
39754,1480885152041,,,,,13,,,0.01,0.05,0.98,-3.0,0.2,-0.4,920,0,0,1,0.0,0,38.158558,-122.452942,0.0,0.0,72.4,10,3,1.7,0,0.0,-1,0.0,,0.0,0
39774,1480885152061,,,,,,,,0.01,0.05,0.98,-3.0,0.3,-0.3,900,0,,,,,,,,,,,,,,,,,,,
39794,1480885152081,,,,,,,,0.02,0.06,0.98,-3.1,0.3,-0.2,900,0,,,,,,,,,,,,,,,,,,,
39814,1480885152110,,,,,,,,0.02,0.06,0.98,-3.1,0.2,-0.0,900,0,,,,,,,,,,,,,,,,,,,
39834,1480885152130,,,,,,,,0.02,0.07,0.99,-3.2,0.2,0.0,900,0,,,,,,,,,,,,,,,,,,,
39854,1480885152150,0,183.3,,189.8,13,207.1,,0.02,0.08,0.98,-3.1,0.2,0.0,900,0,0,1,0.0,0,38.158558,-122.452942,0.0,0.0,72.4,10,3,1.7,0,0.0,-1,0.0,0.0,0.0,0
39874,1480885152170,,,,,,,,0.02,0.08,0.99,-3.1,0.2,-0.0,900,0,,,,,,,,,,,,,,,,,,,
39894,1480885152190,,,,,,,,0.02,0.08,0.99,-3.1,0.2,-0.1,900,0,,,,,,,,,,,,,,,,,,,
39914,1480885152207,,,,,,,,0.02,0.08,0.99,-3.0,0.2,-0.3,900,0,,,,,,,,,,,,,,,,,,,
39934,1480885152227,,,,,,,,0.02,0.07,0.98,-3.0,0.1,-0.3,900,0,,,,,,,,,,,,,,,,,,,
39954,1480885152247,,,,,12,,,0.01,0.06,0.98,-3.0,0.1,-0.4,900,0,0,1,0.0,0,38.158558,-122.452942,0.0,0.0,72.4,10,3,1.7,0,0.0,-1,0.0,,0.0,0
39974,1480885152267,,,,,,,,0.01,0.05,0.98,-3.0,0.1,-0.4,900,0,,,,,,,,,,,,,,,,,,,
39994,1480885152287,,,,,,,,0.01,0.05,0.98,-3.0,0.2,-0.3,900,0,,,,,,,,,,,,,,,,,,,
40014,1480885152310,,,,,,,,0.01,0.05,0.98,-3.1,0.2,-0.2,900,0,,,,,,,,,,,,,,,,,,,
40034,1480885152330,,,,,,,,0.02,0.05,0.98,-3.1,0.2,-0.1,900,0,,,,,,,,,,,,,,,,,,,
40054,1480885152350,0,184.5,0.0,191.0,13,207.7,13.89,0.02,0.07,0.98,-3.1,0.2,0.0,900,0,0,1,0.0,0,38.158558,-122.452942,0.0,0.0,72.4,10,3,1.7,0,0.0,-1,0.0,0.0,0.0,0
40074,1480885152370,,,,,,,,0.02,0.08,0.99,-3.1,0.3,0.0,900,0,,,,,,,,,,,,,,,,,,,
40094,1480885152390,,,,,,,,0.02,0.08,0.99,-3.1,0.3,0.0,900,0,,,,,,,,,,,,,,,,,,,
40114,1480885152509,,,,,,,,0.02,0.09,0.99,-3.1,0.3,-0.0,900,0,,,,,,,,,,,,,,,,,,,
40134,1480885152529,,,,,,,,0.02,0.09,0.99,-3.1,0.3,-0.2,900,0,,,,,,,,,,,,,,,,,,,
40154,1480885152549,,,,,12,,,0.02,0.08,0.99,-3.0,0.2,-0.3,900,0,0,1,0.0,0,38.158558,-122.452942,0.0,0.0,72.4,10,3,1.7,0,0.0,-1,0.0,,0.0,0
40174,1480885152569,,,,,,,,0.02,0.07,0.99,-3.0,0.2,-0.4,900,0,,,,,,,,,,,,,,,,,,,
40194,1480885152589,,,,,,,,0.02,0.06,0.99,-3.0,0.3,-0.4,900,0,,,,,,,,,,,,,,,,,,,
40214,1480885152609,,,,,,,,0.01,0.06,0.99,-3.0,0.3,-0.3,900,0,,,,,,,,,,,,,,,,,,,
40234,1480885152629,,,,,,,,0.02,0.05,0.98,-3.0,0.3,-0.2,900,0,,,,,,,,,,,,,,,,,,,
40254,1480885152649,0,184.3,,190.1,13,206.4,,0.02,0.05,0.98,-3.0,0.4,-0.1,900,0,0,1,0.0,0,38.158558,-122.452942,0.0,0.0,72.4,10,3,1.7,0,0.0,-1,0.0,0.0,0.0,0
40274,1480885152669,,,,,,,,0.02,0.07,0.98,-3.1,0.4,0.0,900,0,,,,,,,,,,,,,,,,,,,
40294,1480885152689,,,,,,,,0.02,0.08,0.98,-3.1,0.3,0.0,900,0,,,,,,,,,,,,,,,,,,,
40314,1480885152610,,,,,,,,0.02,0.09,0.98,-3.1,0.3,-0.0,900,0,,,,,,,,,,,,,,,,,,,
40334,1480885152630,,,,,,,,0.02,0.08,0.98,-3.1,0.3,-0.1,900,0,,,,,,,,,,,,,,,,,,,
40354,1480885152650,,,,,14,,,0.02,0.09,0.98,-3.0,0.2,-0.2,900,0,0,1,0.0,0,38.158558,-122.452942,0.0,0.0,72.4,10,3,1.7,0,0.0,-1,0.0,,0.0,0
40374,1480885152670,,,,,,,,0.01,0.08,0.98,-3.0,0.2,-0.3,900,0,,,,,,,,,,,,,,,,,,,
40394,1480885152691,,,,,,,,0.01,0.07,0.98,-3.0,0.2,-0.4,900,0,,,,,,,,,,,,,,,,,,,
40414,1480885152711,,,,,,,,0.01,0.06,0.98,-3.0,0.2,-0.4,900,0,,,,,,,,,,,,,,,,,,,
40434,1480885152731,,,,,,,,0.01,0.05,0.98,-3.0,0.3,-0.3,900,0,,,,,,,,,,,,,,,,,,,
40454,1480885152751,0,183.0,,189.8,11,206.4,,0.01,0.05,0.97,-3.1,0.2,-0.2,900,0,0,1,0.0,0,38.158558,-122.452942,0.0,0.0,72.4,10,3,1.7,0,0.0,-1,0.0,0.0,0.0,0
40474,1480885152771,,,,,,,,0.01,0.06,0.97,-3.1,0.2,-0.1,900,0,,,,,,,,,,,,,,,,,,,
40494,1480885152791,,,,,,,,0.01,0.07,0.98,-3.1,0.3,0.0,900,0,,,,,,,,,,,,,,,,,,,
40514,1480885152811,,,,,,,,0.01,0.08,0.98,-3.1,0.2,0.1,900,0,,,,,,,,,,,,,,,,,,,
40534,1480885152831,,,,,,,,0.02,0.08,0.98,-3.1,0.2,0.0,900,0,,,,,,,,,,,,,,,,,,,
40554,1480885152851,,,,,13,,,0.02,0.08,0.98,-3.1,0.2,-0.1,900,0,0,1,0.0,0,38.158558,-122.452942,0.0,0.0,72.4,10,3,1.7,0,0.0,-1,0.0,,0.0,0
40574,1480885152871,,,,,,,,0.02,0.08,0.98,-3.1,0.2,-0.2,900,0,,,,,,,,,,,,,,,,,,,
40594,1480885152891,,,,,,,,0.01,0.08,0.98,-3.0,0.1,-0.3,900,0,,,,,,,,,,,,,,,,,,,
40614,1480885152904,,,,,,,,0.01,0.07,0.98,-3.0,0.1,-0.4,900,0,,,,,,,,,,,,,,,,,,,
40634,1480885152924,,,,,,,,0.01,0.06,0.98,-3.0,0.1,-0.4,900,0,,,,,,,,,,,,,,,,,,,
40654,1480885152944,0,184.2,,191.3,13,207.3,,0.01,0.05,0.98,-3.0,0.2,-0.4,900,0,0,1,0.0,0,38.158558,-122.452942,0.0,0.0,72.4,10,3,1.7,0,0.0,-1,0.0,0.0,0.0,0
40674,1480885152964,,,,,,,,0.01,0.05,0.97,-3.1,0.3,-0.3,900,0,,,,,,,,,,,,,,,,,,,
40694,1480885152984,,,,,,,,0.02,0.06,0.97,-3.1,0.3,-0.1,900,0,,,,,,,,,,,,,,,,,,,
40714,1480885153010,,,,,,,,0.02,0.07,0.98,-3.2,0.3,-0.0,900,0,,,,,,,,,,,,,,,,,,,
40734,1480885153030,,,,,,,,0.02,0.08,0.98,-3.2,0.3,0.0,900,0,,,,,,,,,,,,,,,,,,,
40754,1480885153050,,,,,12,,,0.02,0.09,0.98,-3.2,0.3,-0.0,900,0,0,1,0.0,0,38.158558,-122.452942,0.0,0.0,72.4,10,3,1.7,0,0.0,-1,0.0,,0.0,0
40774,1480885153070,,,,,,,,0.02,0.09,0.98,-3.2,0.3,-0.1,900,0,,,,,,,,,,,,,,,,,,,
40794,1480885153090,,,,,,,,0.02,0.08,0.99,-3.1,0.3,-0.2,900,0,,,,,,,,,,,,,,,,,,,
40814,1480885153110,,,,,,,,0.02,0.08,0.99,-3.1,0.2,-0.3,900,0,,,,,,,,,,,,,,,,,,,
40834,1480885153130,,,,,,,,0.02,0.07,0.99,-3.0,0.2,-0.4,900,0,,,,,,,,,,,,,,,,,,,
40854,1480885153150,0,184.2,,191.5,13,207.4,,0.01,0.05,0.98,-3.0,0.2,-0.4,900,0,0,1,0.0,0,38.158558,-122.452942,0.0,0.0,72.4,10,3,1.7,0,0.0,-1,0.0,0.0,0.0,0
40874,1480885153170,,,,,,,,0.01,0.05,0.98,-3.0,0.2,-0.4,900,0,,,,,,,,,,,,,,,,,,,
40894,1480885153191,,,,,,,,0.01,0.05,0.97,-3.0,0.3,-0.3,900,0,,,,,,,,,,,,,,,,,,,
40914,1480885153310,,,,,,,,0.02,0.05,0.97,-3.1,0.3,-0.2,900,0,,,,,,,,,,,,,,,,,,,
40934,1480885153330,,,,,,,,0.02,0.06,0.97,-3.1,0.3,-0.0,900,0,,,,,,,,,,,,,,,,,,,
40954,1480885153350,,,,,13,,,0.02,0.07,0.98,-3.2,0.3,0.0,900,0,0,1,0.0,0,38.158558,-122.452942,0.0,0.0,72.4,10,3,1.7,0,0.0,-1,0.0,,0.0,0
40974,1480885153370,,,,,,,,0.02,0.09,0.98,-3.2,0.3,-0.0,900,0,,,,,,,,,,,,,,,,,,,
40994,1480885153390,,,,,,,,0.02,0.09,0.98,-3.2,0.3,-0.1,900,0,,,,,,,,,,,,,,,,,,,
41014,1480885153410,,,,,,,,0.02,0.08,0.98,-3.1,0.2,-0.2,900,0,,,,,,,,,,,,,,,,,,,
41034,1480885153430,,,,,,,,0.02,0.08,0.99,-3.1,0.2,-0.3,900,0,,,,,,,,,,,,,,,,,,,
41054,1480885153450,0,183.7,0.0,191.3,14,207.1,13.99,0.02,0.07,0.99,-3.1,0.2,-0.3,900,0,0,1,0.0,0,38.158558,-122.452942,0.0,0.0,72.4,10,3,1.7,0,0.0,-1,0.0,0.0,0.0,0
41074,1480885153470,,,,,,,,0.02,0.06,0.98,-3.0,0.2,-0.4,900,0,,,,,,,,,,,,,,,,,,,
41094,1480885153490,,,,,,,,0.01,0.05,0.98,-3.0,0.2,-0.4,900,0,,,,,,,,,,,,,,,,,,,
41114,1480885153410,,,,,,,,0.02,0.05,0.98,-3.1,0.2,-0.3,900,0,,,,,,,,,,,,,,,,,,,
41134,1480885153430,,,,,,,,0.02,0.05,0.98,-3.1,0.3,-0.2,900,0,,,,,,,,,,,,,,,,,,,
41154,1480885153450,,,,,13,,,0.02,0.06,0.98,-3.1,0.3,-0.1,900,0,0,1,0.0,0,38.158558,-122.452942,0.0,0.0,72.4,10,3,1.7,0,0.0,-1,0.0,,0.0,0
41174,1480885153470,,,,,,,,0.03,0.07,0.98,-3.2,0.3,0.0,900,0,,,,,,,,,,,,,,,,,,,
41194,1480885153490,,,,,,,,0.02,0.09,0.99,-3.2,0.3,0.0,880,0,,,,,,,,,,,,,,,,,,,
41214,1480885153510,,,,,,,,0.03,0.09,0.99,-3.2,0.3,-0.0,900,0,,,,,,,,,,,,,,,,,,,
41234,1480885153530,,,,,,,,0.03,0.09,0.99,-3.2,0.3,-0.1,900,0,,,,,,,,,,,,,,,,,,,
41254,1480885153550,0,184.2,,191.6,13,206.5,,0.03,0.09,0.99,-3.1,0.3,-0.2,900,0,0,1,0.0,0,38.158558,-122.452942,0.0,0.0,72.4,10,3,1.7,0,0.0,-1,0.0,0.0,0.0,0
41274,1480885153570,,,,,,,,0.02,0.08,0.99,-3.0,0.2,-0.4,900,0,,,,,,,,,,,,,,,,,,,
41294,1480885153591,,,,,,,,0.02,0.07,0.99,-3.0,0.1,-0.5,900,0,,,,,,,,,,,,,,,,,,,
41314,1480885153611,,,,,,,,0.02,0.06,0.98,-3.0,0.1,-0.5,900,0,,,,,,,,,,,,,,,,,,,
41334,1480885153631,,,,,,,,0.02,0.06,0.98,-3.0,0.2,-0.4,920,0,,,,,,,,,,,,,,,,,,,
41354,1480885153651,,,,,13,,,0.02,0.05,0.98,-3.1,0.3,-0.3,920,0,0,1,0.0,0,38.158558,-122.452942,0.0,0.0,72.4,10,3,1.7,0,0.0,-1,0.0,,0.0,0
41374,1480885153671,,,,,,,,0.02,0.06,0.98,-3.1,0.3,-0.1,900,0,,,,,,,,,,,,,,,,,,,
41394,1480885153691,,,,,,,,0.03,0.07,0.98,-3.2,0.2,-0.0,900,0,,,,,,,,,,,,,,,,,,,
41414,1480885153711,,,,,,,,0.03,0.08,0.98,-3.2,0.2,0.0,900,0,,,,,,,,,,,,,,,,,,,
41434,1480885153731,,,,,,,,0.03,0.09,0.99,-3.1,0.3,0.0,900,0,,,,,,,,,,,,,,,,,,,
41454,1480885153751,0,183.4,,190.2,12,205.7,,0.03,0.09,0.99,-3.1,0.3,-0.0,900,0,0,1,0.0,0,38.158558,-122.452942,0.0,0.0,72.4,10,3,1.7,0,0.0,-1,0.0,0.0,0.0,0
41474,1480885153771,,,,,,,,0.02,0.08,0.99,-3.1,0.2,-0.1,900,0,,,,,,,,,,,,,,,,,,,
41494,1480885153791,,,,,,,,0.02,0.08,0.99,-3.0,0.2,-0.3,900,0,,,,,,,,,,,,,,,,,,,
41514,1480885153811,,,,,,,,0.02,0.07,0.98,-3.0,0.1,-0.4,900,0,,,,,,,,,,,,,,,,,,,
41534,1480885153831,,,,,,,,0.02,0.06,0.98,-3.0,0.1,-0.4,900,0,,,,,,,,,,,,,,,,,,,
41554,1480885153851,,,,,13,,,0.02,0.05,0.98,-3.0,0.2,-0.5,900,0,0,1,0.0,0,38.158558,-122.452942,0.0,0.0,72.4,10,3,1.7,0,0.0,-1,0.0,,0.0,0
41574,1480885153871,,,,,,,,0.02,0.05,0.98,-3.0,0.3,-0.4,900,0,,,,,,,,,,,,,,,,,,,
41594,1480885153891,,,,,,,,0.02,0.05,0.97,-3.1,0.2,-0.3,900,0,,,,,,,,,,,,,,,,,,,
41614,1480885153903,,,,,,,,0.02,0.06,0.97,-3.1,0.2,-0.1,920,0,,,,,,,,,,,,,,,,,,,
41634,1480885153923,,,,,,,,0.02,0.07,0.98,-3.1,0.3,-0.0,900,0,,,,,,,,,,,,,,,,,,,
41654,1480885153943,0,184.2,,192.0,13,206.9,,0.02,0.08,0.98,-3.2,0.3,0.0,900,0,0,1,0.0,0,38.158558,-122.452942,0.0,0.0,72.4,10,3,1.7,0,0.0,-1,0.0,0.0,0.0,0
41674,1480885153963,,,,,,,,0.02,0.09,0.99,-3.1,0.3,-0.0,900,0,,,,,,,,,,,,,,,,,,,
41694,1480885153991,,,,,,,,0.02,0.09,0.99,-3.1,0.3,-0.1,900,0,,,,,,,,,,,,,,,,,,,
41714,1480885154110,,,,,,,,0.02,0.08,0.99,-3.1,0.2,-0.2,900,0,,,,,,,,,,,,,,,,,,,
41734,1480885154130,,,,,,,,0.02,0.08,0.99,-3.0,0.2,-0.3,900,0,,,,,,,,,,,,,,,,,,,
41754,1480885154150,,,,,13,,,0.02,0.06,0.99,-3.0,0.2,-0.4,900,0,0,1,0.0,0,38.158558,-122.452942,0.0,0.0,72.4,10,3,1.7,0,0.0,-1,0.0,,0.0,0
41774,1480885154170,,,,,,,,0.01,0.05,0.98,-3.0,0.2,-0.4,900,0,,,,,,,,,,,,,,,,,,,
41794,1480885154190,,,,,,,,0.01,0.05,0.98,-3.0,0.3,-0.4,900,0,,,,,,,,,,,,,,,,,,,
41814,1480885154210,,,,,,,,0.01,0.04,0.97,-3.0,0.3,-0.3,900,0,,,,,,,,,,,,,,,,,,,
41834,1480885154230,,,,,,,,0.02,0.04,0.98,-3.1,0.4,-0.1,900,0,,,,,,,,,,,,,,,,,,,
41854,1480885154250,0,183.7,,191.7,14,206.7,,0.02,0.06,0.97,-3.1,0.4,-0.0,900,0,0,1,0.0,0,38.158558,-122.452942,0.0,0.0,72.4,10,3,1.7,0,0.0,-1,0.0,0.0,0.0,0
41874,1480885154270,,,,,,,,0.02,0.07,0.98,-3.2,0.3,0.1,900,0,,,,,,,,,,,,,,,,,,,
41894,1480885154191,,,,,,,,0.02,0.08,0.98,-3.2,0.3,0.0,900,0,,,,,,,,,,,,,,,,,,,
41914,1480885154211,,,,,,,,0.02,0.08,0.98,-3.1,0.3,-0.1,900,0,,,,,,,,,,,,,,,,,,,
41934,1480885154231,,,,,,,,0.02,0.08,0.98,-3.1,0.3,-0.2,900,0,,,,,,,,,,,,,,,,,,,
41954,1480885154251,,,,,13,,,0.02,0.08,0.98,-3.0,0.1,-0.3,900,0,0,1,0.0,0,38.158558,-122.452942,0.0,0.0,72.4,10,3,1.7,0,0.0,-1,0.0,,0.0,0
41974,1480885154271,,,,,,,,0.01,0.07,0.98,-3.0,0.1,-0.3,900,0,,,,,,,,,,,,,,,,,,,
41994,1480885154291,,,,,,,,0.01,0.05,0.98,-3.0,0.2,-0.4,900,0,,,,,,,,,,,,,,,,,,,
42014,1480885154310,,,,,,,,0.01,0.05,0.98,-3.0,0.2,-0.3,900,0,,,,,,,,,,,,,,,,,,,
42034,1480885154330,,,,,,,,0.01,0.05,0.97,-3.1,0.1,-0.2,900,0,,,,,,,,,,,,,,,,,,,
42054,1480885154350,0,184.1,0.0,190.4,12,205.5,14.08,0.02,0.05,0.97,-3.1,0.2,-0.1,900,0,0,1,0.0,0,38.158558,-122.452942,0.0,0.0,72.4,10,3,1.7,0,0.0,-1,0.0,0.0,0.0,0
42074,1480885154370,,,,,,,,0.02,0.06,0.97,-3.2,0.2,0.0,900,0,,,,,,,,,,,,,,,,,,,
42094,1480885154390,,,,,,,,0.02,0.08,0.97,-3.2,0.2,0.1,900,0,,,,,,,,,,,,,,,,,,,
42114,1480885154410,,,,,,,,0.02,0.08,0.98,-3.2,0.2,0.1,880,0,,,,,,,,,,,,,,,,,,,
42134,1480885154430,,,,,,,,0.02,0.09,0.98,-3.1,0.2,-0.1,900,0,,,,,,,,,,,,,,,,,,,
42154,1480885154450,,,,,13,,,0.02,0.08,0.98,-3.1,0.2,-0.2,900,0,0,1,0.0,0,38.158558,-122.452942,0.0,0.0,72.4,10,3,1.7,0,0.0,-1,0.0,,0.0,0
42174,1480885154470,,,,,,,,0.02,0.08,0.98,-3.1,0.2,-0.3,900,0,,,,,,,,,,,,,,,,,,,
42194,1480885154490,,,,,,,,0.02,0.07,0.98,-3.1,0.1,-0.4,900,0,,,,,,,,,,,,,,,,,,,
42214,1480885154510,,,,,,,,0.02,0.06,0.98,-3.0,0.2,-0.4,900,0,,,,,,,,,,,,,,,,,,,
42234,1480885154530,,,,,,,,0.02,0.05,0.98,-3.0,0.3,-0.3,900,0,,,,,,,,,,,,,,,,,,,
42254,1480885154550,0,183.0,,191.2,14,206.2,,0.02,0.06,0.97,-3.1,0.2,-0.2,900,0,0,1,0.0,0,38.158558,-122.452942,0.0,0.0,72.4,10,3,1.7,0,0.0,-1,0.0,0.0,0.0,0
42274,1480885154570,,,,,,,,0.02,0.07,0.97,-3.1,0.3,-0.1,900,0,,,,,,,,,,,,,,,,,,,
42294,1480885154590,,,,,,,,0.03,0.08,0.98,-3.1,0.3,-0.0,900,0,,,,,,,,,,,,,,,,,,,
42314,1480885154610,,,,,,,,0.02,0.08,0.98,-3.1,0.3,-0.0,900,0,,,,,,,,,,,,,,,,,,,
42334,1480885154630,,,,,,,,0.02,0.09,0.98,-3.1,0.3,-0.1,900,0,,,,,,,,,,,,,,,,,,,
42354,1480885154650,,,,,13,,,0.02,0.09,0.99,-3.1,0.3,-0.2,900,0,0,1,0.0,0,38.158558,-122.452942,0.0,0.0,72.4,10,3,1.7,0,0.0,-1,0.0,,0.0,0
42374,1480885154670,,,,,,,,0.02,0.08,0.99,-3.0,0.3,-0.3,880,0,,,,,,,,,,,,,,,,,,,
42394,1480885154691,,,,,,,,0.02,0.07,0.99,-3.0,0.3,-0.4,880,0,,,,,,,,,,,,,,,,,,,
42414,1480885154711,,,,,,,,0.02,0.06,0.99,-3.0,0.2,-0.4,900,0,,,,,,,,,,,,,,,,,,,
42434,1480885154731,,,,,,,,0.02,0.06,0.99,-3.0,0.2,-0.3,900,0,,,,,,,,,,,,,,,,,,,
42454,1480885154751,0,183.2,,191.5,12,206.3,,0.02,0.06,0.99,-3.1,0.3,-0.2,900,0,0,1,0.0,0,38.158558,-122.452942,0.0,0.0,72.4,10,3,1.7,0,0.0,-1,0.0,0.0,0.0,0
42474,1480885154771,,,,,,,,0.02,0.06,0.99,-3.1,0.3,-0.0,880,0,,,,,,,,,,,,,,,,,,,
42494,1480885154791,,,,,,,,0.02,0.08,0.99,-3.2,0.3,0.0,900,0,,,,,,,,,,,,,,,,,,,
42514,1480885154907,,,,,,,,0.03,0.09,0.99,-3.2,0.3,0.0,900,0,,,,,,,,,,,,,,,,,,,
42534,1480885154927,,,,,,,,0.03,0.09,0.99,-3.1,0.2,-0.1,900,0,,,,,,,,,,,,,,,,,,,
42554,1480885154947,,,,,13,,,0.02,0.09,0.99,-3.1,0.2,-0.2,880,0,0,1,0.0,0,38.158558,-122.452942,0.0,0.0,72.4,10,3,1.7,0,0.0,-1,0.0,,0.0,0
42574,1480885154967,,,,,,,,0.02,0.09,0.99,-3.1,0.1,-0.3,880,0,,,,,,,,,,,,,,,,,,,
42594,1480885154987,,,,,,,,0.02,0.08,0.99,-3.0,0.1,-0.3,880,0,,,,,,,,,,,,,,,,,,,
42614,1480885155007,,,,,,,,0.02,0.07,0.98,-3.0,0.1,-0.4,880,0,,,,,,,,,,,,,,,,,,,
42634,1480885155027,,,,,,,,0.02,0.06,0.98,-3.0,0.3,-0.3,880,0,,,,,,,,,,,,,,,,,,,
42654,1480885155047,0,183.0,,191.2,13,205.8,,0.02,0.06,0.98,-3.1,0.2,-0.2,880,0,0,1,0.0,0,38.158558,-122.452942,0.0,0.0,72.4,10,3,1.7,0,0.0,-1,0.0,0.0,0.0,0
42674,1480885155067,,,,,,,,0.03,0.07,0.98,-3.1,0.3,-0.1,880,0,,,,,,,,,,,,,,,,,,,
42694,1480885155087,,,,,,,,0.03,0.08,0.98,-3.1,0.3,0.0,880,0,,,,,,,,,,,,,,,,,,,
42714,1480885155010,,,,,,,,0.03,0.09,0.98,-3.1,0.3,-0.0,880,0,,,,,,,,,,,,,,,,,,,
42734,1480885155030,,,,,,,,0.03,0.09,0.99,-3.1,0.3,-0.1,880,0,,,,,,,,,,,,,,,,,,,
42754,1480885155050,,,,,13,,,0.03,0.09,0.99,-3.1,0.2,-0.2,900,0,0,1,0.0,0,38.15855,-122.452942,1.17,0.001,70.7,10,2,2.1,0,0.0,-1,0.0,,0.0,0
42774,1480885155070,,,,,,,,0.02,0.08,0.98,-3.0,0.1,-0.3,880,0,,,,,,,,,,,,,,,,,,,
42794,1480885155091,,,,,,,,0.02,0.07,0.98,-3.0,0.2,-0.4,880,0,,,,,,,,,,,,,,,,,,,
42814,1480885155111,,,,,,,,0.02,0.06,0.98,-3.0,0.2,-0.4,880,0,,,,,,,,,,,,,,,,,,,
42834,1480885155131,,,,,,,,0.02,0.06,0.98,-3.0,0.2,-0.2,880,0,,,,,,,,,,,,,,,,,,,
42854,1480885155151,0,183.4,,191.7,13,206.3,,0.02,0.06,0.98,-3.1,0.2,-0.1,880,0,0,1,0.0,0,38.15855,-122.452942,1.65,0.001,70.7,10,2,2.1,0,0.0,-1,0.0,0.0,0.0,0
42874,1480885155171,,,,,,,,0.02,0.06,0.98,-3.1,0.3,-0.0,880,0,,,,,,,,,,,,,,,,,,,
42894,1480885155191,,,,,,,,0.02,0.08,0.98,-3.1,0.3,0.0,900,0,,,,,,,,,,,,,,,,,,,
42914,1480885155208,,,,,,,,0.02,0.08,0.98,-3.1,0.3,0.0,880,0,,,,,,,,,,,,,,,,,,,
42934,1480885155228,,,,,,,,0.02,0.08,0.98,-3.1,0.2,-0.1,900,0,,,,,,,,,,,,,,,,,,,
42954,1480885155248,,,,,14,,,0.02,0.08,0.98,-3.0,0.1,-0.2,880,0,0,1,0.0,0,38.15855,-122.452942,1.11,0.001,70.7,10,3,2.1,0,0.0,-1,0.0,,0.0,0
42974,1480885155268,,,,,,,,0.01,0.07,0.98,-3.0,0.0,-0.3,900,0,,,,,,,,,,,,,,,,,,,
42994,1480885155288,,,,,,,,0.01,0.06,0.98,-3.0,0.0,-0.3,880,0,,,,,,,,,,,,,,,,,,,
43014,1480885155309,,,,,,,,0.01,0.05,0.98,-3.0,0.1,-0.3,880,0,,,,,,,,,,,,,,,,,,,
43034,1480885155329,,,,,,,,0.02,0.05,0.97,-3.0,0.2,-0.2,880,0,,,,,,,,,,,,,,,,,,,
43054,1480885155349,0,183.2,0.0,190.2,12,204.8,14.18,0.02,0.06,0.98,-3.1,0.2,-0.1,900,0,0,1,0.0,0,38.15855,-122.452942,1.72,0.001,70.7,10,2,2.1,0,0.0,-1,0.0,0.0,0.0,0
43074,1480885155369,,,,,,,,0.02,0.07,0.98,-3.1,0.2,-0.0,900,0,,,,,,,,,,,,,,,,,,,
43094,1480885155389,,,,,,,,0.02,0.08,0.98,-3.1,0.1,0.0,900,0,,,,,,,,,,,,,,,,,,,
43114,1480885155409,,,,,,,,0.02,0.08,0.98,-3.1,0.1,-0.0,900,0,,,,,,,,,,,,,,,,,,,
43134,1480885155429,,,,,,,,0.02,0.08,0.99,-3.1,0.1,-0.1,900,0,,,,,,,,,,,,,,,,,,,
43154,1480885155449,,,,,13,,,0.02,0.08,0.98,-3.1,0.1,-0.2,900,0,0,1,0.0,0,38.15855,-122.452942,4.04,0.001,70.7,10,2,2.1,0,0.0,-1,0.0,,0.0,0
43174,1480885155469,,,,,,,,0.02,0.07,0.98,-3.0,0.1,-0.3,900,0,,,,,,,,,,,,,,,,,,,
43194,1480885155489,,,,,,,,0.01,0.06,0.98,-3.0,0.1,-0.3,900,0,,,,,,,,,,,,,,,,,,,
43214,1480885155510,,,,,,,,0.01,0.06,0.98,-3.0,0.1,-0.3,900,0,,,,,,,,,,,,,,,,,,,
43234,1480885155530,,,,,,,,0.01,0.06,0.97,-3.0,0.2,-0.3,900,0,,,,,,,,,,,,,,,,,,,
43254,1480885155550,0,183.8,,191.3,15,205.9,,0.02,0.06,0.97,-3.1,0.2,-0.2,900,0,0,1,0.0,0,38.15855,-122.452942,3.48,0.001,70.7,10,3,2.1,0,0.0,-1,0.0,0.0,0.0,0
43274,1480885155570,,,,,,,,0.02,0.07,0.97,-3.1,0.2,-0.0,900,0,,,,,,,,,,,,,,,,,,,
43294,1480885155590,,,,,,,,0.02,0.08,0.98,-3.2,0.2,0.0,900,0,,,,,,,,,,,,,,,,,,,
43314,1480885155709,,,,,,,,0.02,0.09,0.98,-3.2,0.2,0.0,900,0,,,,,,,,,,,,,,,,,,,
43334,1480885155729,,,,,,,,0.02,0.09,0.99,-3.2,0.2,-0.0,900,0,,,,,,,,,,,,,,,,,,,
43354,1480885155749,,,,,14,,,0.02,0.09,0.99,-3.1,0.2,-0.1,900,0,0,1,0.0,0,38.158554,-122.452957,2.94,0.002,70.4,10,2,2.1,0,0.0,-1,0.0,,0.0,0
43374,1480885155769,,,,,,,,0.02,0.08,0.99,-3.1,0.2,-0.2,880,0,,,,,,,,,,,,,,,,,,,
43394,1480885155789,,,,,,,,0.01,0.07,0.99,-3.0,0.1,-0.3,880,0,,,,,,,,,,,,,,,,,,,
43414,1480885155809,,,,,,,,0.01,0.06,0.98,-3.0,0.2,-0.3,900,0,,,,,,,,,,,,,,,,,,,
43434,1480885155829,,,,,,,,0.02,0.06,0.98,-3.0,0.2,-0.3,880,0,,,,,,,,,,,,,,,,,,,
43454,1480885155849,0,183.6,,190.9,13,205.7,,0.02,0.06,0.98,-3.1,0.2,-0.2,880,0,0,1,0.0,0,38.158554,-122.452957,2.94,0.002,70.4,10,2,2.1,0,0.0,-1,0.0,0.0,0.0,0
43474,1480885155869,,,,,,,,0.02,0.06,0.97,-3.1,0.2,-0.1,880,0,,,,,,,,,,,,,,,,,,,
43494,1480885155791,,,,,,,,0.02,0.08,0.98,-3.1,0.3,-0.0,880,0,,,,,,,,,,,,,,,,,,,
43514,1480885155811,,,,,,,,0.02,0.08,0.98,-3.2,0.3,-0.0,880,0,,,,,,,,,,,,,,,,,,,
43534,1480885155831,,,,,,,,0.02,0.09,0.99,-3.1,0.3,-0.0,900,0,,,,,,,,,,,,,,,,,,,
43554,1480885155851,,,,,13,,,0.02,0.09,0.99,-3.1,0.3,-0.1,900,0,0,1,0.0,0,38.158566,-122.452957,12.35,0.002,70.4,10,3,2.1,0,0.0,-1,0.0,,0.0,0
43574,1480885155871,,,,,,,,0.02,0.08,0.99,-3.0,0.2,-0.2,900,0,,,,,,,,,,,,,,,,,,,
43594,1480885155891,,,,,,,,0.02,0.07,0.99,-3.0,0.2,-0.4,900,0,,,,,,,,,,,,,,,,,,,
43614,1480885155907,,,,,,,,0.01,0.06,0.99,-3.0,0.2,-0.4,900,0,,,,,,,,,,,,,,,,,,,
43634,1480885155927,,,,,,,,0.02,0.05,0.99,-3.0,0.3,-0.4,900,0,,,,,,,,,,,,,,,,,,,
43654,1480885155947,0,182.9,,190.6,14,205.2,,0.02,0.05,0.99,-3.0,0.3,-0.3,900,0,0,1,0.0,0,38.158569,-122.452957,11.06,0.003,70.4,10,3,2.1,0,0.0,-1,0.0,0.0,0.0,0
43674,1480885155967,,,,,,,,0.02,0.05,0.99,-3.1,0.2,-0.2,900,0,,,,,,,,,,,,,,,,,,,
43694,1480885155995,,,,,,,,0.02,0.06,0.99,-3.1,0.3,-0.0,900,0,,,,,,,,,,,,,,,,,,,
43714,1480885156015,,,,,,,,0.02,0.07,0.99,-3.1,0.3,0.0,900,0,,,,,,,,,,,,,,,,,,,
43734,1480885156035,,,,,,,,0.02,0.09,0.99,-3.1,0.3,-0.0,900,0,,,,,,,,,,,,,,,,,,,
43754,1480885156055,,,,,13,,,0.02,0.09,0.99,-3.1,0.3,-0.1,900,0,0,1,0.0,0,38.158577,-122.452957,10.16,0.003,70.5,10,2,1.5,0,0.0,-1,0.0,,0.0,0
43774,1480885156075,,,,,,,,0.02,0.09,0.99,-3.1,0.3,-0.2,900,0,,,,,,,,,,,,,,,,,,,
43794,1480885156095,,,,,,,,0.02,0.09,0.99,-3.0,0.2,-0.3,900,0,,,,,,,,,,,,,,,,,,,
43814,1480885156115,,,,,,,,0.01,0.08,0.99,-3.0,0.1,-0.4,900,0,,,,,,,,,,,,,,,,,,,
43834,1480885156135,,,,,,,,0.01,0.07,0.99,-3.0,0.1,-0.4,920,0,,,,,,,,,,,,,,,,,,,
43854,1480885156155,0,184.0,,190.2,12,204.1,,0.01,0.06,0.98,-3.0,0.1,-0.4,920,0,0,1,0.0,0,38.158581,-122.452957,10.35,0.004,70.6,10,2,1.5,0,0.0,-1,0.0,0.0,0.0,0
43874,1480885156175,,,,,,,,0.01,0.05,0.98,-3.0,0.2,-0.4,920,0,,,,,,,,,,,,,,,,,,,
43894,1480885156195,,,,,,,,0.01,0.05,0.97,-3.1,0.2,-0.3,940,0,,,,,,,,,,,,,,,,,,,
43914,1480885156215,,,,,,,,0.01,0.04,0.97,-3.1,0.3,-0.2,940,0,,,,,,,,,,,,,,,,,,,
43934,1480885156235,,,,,,,,0.01,0.06,0.97,-3.2,0.2,-0.0,940,0,,,,,,,,,,,,,,,,,,,
43954,1480885156255,,,,,13,,,0.02,0.07,0.98,-3.2,0.2,0.1,940,0,0,1,0.0,0,38.158585,-122.452957,10.51,0.004,70.7,10,2,1.5,0,0.0,-1,0.0,,0.0,0
43974,1480885156275,,,,,,,,0.02,0.09,0.99,-3.2,0.2,0.1,960,0,,,,,,,,,,,,,,,,,,,
43994,1480885156295,,,,,,,,0.02,0.1,0.99,-3.2,0.2,0.2,960,0,,,,,,,,,,,,,,,,,,,
44014,1480885156315,,,,,,,,0.02,0.1,1.0,-3.2,0.4,0.2,960,0,,,,,,,,,,,,,,,,,,,
44034,1480885156335,,,,,,,,0.02,0.1,1.0,-3.2,0.4,0.2,980,0,,,,,,,,,,,,,,,,,,,
44054,1480885156355,0,183.0,0.0,190.6,15,205.2,14.22,0.02,0.11,1.0,-3.2,0.6,0.2,1000,0,0,1,0.0,0,38.158588,-122.452957,10.66,0.004,70.7,10,2,1.5,0,0.0,-1,0.0,0.0,0.0,0
44074,1480885156375,,,,,,,,0.02,0.1,1.0,-3.2,0.6,0.1,1000,0,,,,,,,,,,,,,,,,,,,
44094,1480885156494,,,,,,,,0.02,0.11,1.01,-3.2,0.7,0.1,1020,0,,,,,,,,,,,,,,,,,,,
44114,1480885156514,,,,,,,,0.02,0.1,1.0,-3.2,0.8,0.0,1020,0,,,,,,,,,,,,,,,,,,,
44134,1480885156534,,,,,,,,0.03,0.1,1.01,-3.2,0.9,0.0,1020,0,,,,,,,,,,,,,,,,,,,
44154,1480885156554,,,,,16,,,0.03,0.1,1.01,-3.2,0.9,0.0,1040,0,0,1,0.0,0,38.158596,-122.452957,10.54,0.005,70.8,10,2,1.5,0,0.0,-1,0.0,,0.0,0
44174,1480885156574,,,,,,,,0.03,0.09,1.01,-3.2,1.0,0.0,1060,0,,,,,,,,,,,,,,,,,,,
44194,1480885156594,,,,,,,,0.02,0.09,1.01,-3.2,0.9,0.1,1060,0,,,,,,,,,,,,,,,,,,,
44214,1480885156614,,,,,,,,0.02,0.08,1.0,-3.1,0.6,0.1,1080,0,,,,,,,,,,,,,,,,,,,
44234,1480885156634,,,,,,,,0.02,0.09,1.0,-3.2,0.5,0.0,1080,0,,,,,,,,,,,,,,,,,,,
44254,1480885156654,0,183.8,,191.0,18,204.0,,0.03,0.09,1.0,-3.1,0.4,-0.0,1100,0,0,1,0.0,0,38.158596,-122.452957,10.54,0.005,70.8,10,2,1.5,0,0.0,-1,0.0,0.0,0.0,0
44274,1480885156674,,,,,,,,0.03,0.08,1.0,-3.1,0.5,-0.1,1100,0,,,,,,,,,,,,,,,,,,,
44294,1480885156595,,,,,,,,0.02,0.09,1.0,-3.1,0.4,-0.1,1120,0,,,,,,,,,,,,,,,,,,,
44314,1480885156615,,,,,,,,0.02,0.09,1.0,-3.1,0.2,-0.1,1100,0,,,,,,,,,,,,,,,,,,,
44334,1480885156635,,,,,,,,0.03,0.09,1.0,-3.1,0.2,-0.1,1120,0,,,,,,,,,,,,,,,,,,,
44354,1480885156655,,,,,16,,,0.03,0.1,1.0,-3.1,0.3,-0.1,1140,0,0,1,0.0,0,38.158604,-122.452957,10.89,0.005,70.8,10,2,1.5,0,0.0,-1,0.0,,0.0,0
44374,1480885156675,,,,,,,,0.03,0.09,1.0,-3.1,0.3,-0.1,1140,0,,,,,,,,,,,,,,,,,,,
44394,1480885156695,,,,,,,,0.03,0.09,1.0,-3.1,0.2,-0.1,1140,0,,,,,,,,,,,,,,,,,,,
44414,1480885156715,,,,,,,,0.03,0.08,1.0,-3.1,0.2,-0.1,1140,0,,,,,,,,,,,,,,,,,,,
44434,1480885156735,,,,,,,,0.02,0.08,0.99,-3.1,0.2,-0.2,1160,0,,,,,,,,,,,,,,,,,,,
44454,1480885156755,0,182.6,,189.8,17,204.3,,0.02,0.08,0.99,-3.1,0.2,-0.2,1160,0,0,1,0.0,0,38.158604,-122.452957,10.88,0.005,70.8,10,2,1.5,0,0.0,-1,0.0,0.0,0.0,0
44474,1480885156775,,,,,,,,0.02,0.08,0.99,-3.1,0.1,-0.1,1180,0,,,,,,,,,,,,,,,,,,,
44494,1480885156794,,,,,,,,0.03,0.07,0.99,-3.1,0.2,-0.1,1180,0,,,,,,,,,,,,,,,,,,,
44514,1480885156814,,,,,,,,0.02,0.07,1.0,-3.1,0.2,-0.2,1180,0,,,,,,,,,,,,,,,,,,,
44534,1480885156834,,,,,,,,0.02,0.07,0.99,-3.1,0.2,-0.2,1200,0,,,,,,,,,,,,,,,,,,,
44554,1480885156854,,,,,20,,,0.02,0.08,0.99,-3.1,0.2,-0.2,1180,0,0,1,0.0,0,38.158607,-122.452957,10.5,0.005,70.9,10,2,1.5,0,0.0,-1,0.0,,0.0,0
44574,1480885156874,,,,,,,,0.02,0.08,0.99,-3.1,0.2,-0.2,1200,0,,,,,,,,,,,,,,,,,,,
44594,1480885156894,,,,,,,,0.02,0.07,1.0,-3.1,0.3,-0.2,1200,0,,,,,,,,,,,,,,,,,,,
44614,1480885156906,,,,,,,,0.02,0.08,1.0,-3.1,0.2,-0.2,1200,0,,,,,,,,,,,,,,,,,,,
44634,1480885156926,,,,,,,,0.02,0.08,0.99,-3.1,0.3,-0.2,1200,0,,,,,,,,,,,,,,,,,,,
44654,1480885156946,0,183.8,,191.0,21,203.7,,0.02,0.07,0.99,-3.1,0.2,-0.2,1220,0,0,1,0.0,0,38.158615,-122.452957,10.17,0.006,70.9,10,2,1.5,0,0.0,-1,0.0,0.0,0.0,0
44674,1480885156966,,,,,,,,0.02,0.08,1.0,-3.2,0.2,-0.1,1220,60,,,,,,,,,,,,,,,,,,,
44694,1480885156986,,,,,,,,0.02,0.07,1.0,-3.1,0.3,-0.1,1220,0,,,,,,,,,,,,,,,,,,,
44714,1480885157008,,,,,,,,0.02,0.08,1.0,-3.1,0.2,-0.2,1240,0,,,,,,,,,,,,,,,,,,,
44734,1480885157028,,,,,,,,0.02,0.08,1.0,-3.1,0.3,-0.2,1240,0,,,,,,,,,,,,,,,,,,,
44754,1480885157048,,,,,18,,,0.02,0.08,0.99,-3.1,0.3,-0.2,1240,0,0,1,20.333,0,38.158615,-122.452957,8.67,0.006,70.9,10,3,2.4,0,0.0,-1,0.0,,0.0,0
44774,1480885157068,,,,,,,,0.03,0.08,0.99,-3.1,0.3,-0.1,1240,0,,,,,,,,,,,,,,,,,,,
44794,1480885157092,,,,,,,,0.02,0.07,0.99,-3.0,0.2,-0.2,1240,0,,,,,,,,,,,,,,,,,,,
44814,1480885157112,,,,,,,,0.02,0.07,0.98,-3.0,0.2,-0.2,1260,0,,,,,,,,,,,,,,,,,,,
44834,1480885157132,,,,,,,,0.02,0.07,0.98,-3.1,0.2,-0.1,1240,0,,,,,,,,,,,,,,,,,,,
44854,1480885157152,0,182.4,,189.5,22,203.7,,0.02,0.07,0.98,-3.1,0.3,-0.1,1260,0,0,1,0.0,0,38.158619,-122.452957,8.6,0.006,71.0,10,2,2.4,0,0.0,-1,0.0,0.0,0.0,0
44874,1480885157172,,,,,,,,0.02,0.06,0.99,-3.1,0.2,-0.2,1240,0,,,,,,,,,,,,,,,,,,,
44894,1480885157291,,,,,,,,0.02,0.07,0.99,-3.1,0.3,-0.2,1240,0,,,,,,,,,,,,,,,,,,,
44914,1480885157311,,,,,,,,0.02,0.07,0.99,-3.1,0.3,-0.1,1260,23,,,,,,,,,,,,,,,,,,,
44934,1480885157331,,,,,,,,0.02,0.07,0.99,-3.1,0.3,-0.2,1260,23,,,,,,,,,,,,,,,,,,,
44954,1480885157351,,,,,19,,,0.02,0.07,0.99,-3.1,0.2,-0.2,1240,30,0,1,0.0,0,38.158623,-122.452957,7.6,0.006,70.9,10,2,2.4,0,0.0,-1,0.0,,0.0,0
44974,1480885157371,,,,,,,,0.02,0.07,0.99,-3.1,0.3,-0.2,1260,52,,,,,,,,,,,,,,,,,,,
44994,1480885157391,,,,,,,,0.02,0.07,0.99,-3.1,0.5,-0.1,1240,52,,,,,,,,,,,,,,,,,,,
45014,1480885157411,,,,,,,,0.02,0.06,0.99,-3.1,0.6,-0.1,1260,40,,,,,,,,,,,,,,,,,,,
45034,1480885157431,,,,,,,,0.02,0.07,0.99,-3.1,0.6,-0.1,1240,40,,,,,,,,,,,,,,,,,,,
45054,1480885157451,1,182.6,0.0,189.2,19,203.3,14.12,0.01,0.07,0.99,-3.1,0.5,-0.1,1240,40,0,1,24.231,0,38.158623,-122.452957,7.6,0.006,70.9,10,2,2.4,0,0.0,-1,0.0,0.0,0.0,0
45074,1480885157471,,,,,,,,0.01,0.07,0.98,-3.1,0.6,-0.1,1260,40,,,,,,,,,,,,,,,,,,,
45094,1480885157393,,,,,,,,0.01,0.06,0.99,-3.1,0.6,-0.2,1220,40,,,,,,,,,,,,,,,,,,,
45114,1480885157413,,,,,,,,0.0,0.06,0.99,-3.0,0.6,-0.2,1220,40,,,,,,,,,,,,,,,,,,,
45134,1480885157433,,,,,,,,0.0,0.07,0.99,-3.1,0.6,-0.2,1220,1538461,,,,,,,,,,,,,,,,,,,
45154,1480885157453,,,,,19,,,0.0,0.07,0.99,-3.1,0.6,-0.1,1220,0,0,1,31.0,0,38.158627,-122.452957,6.41,0.007,70.9,10,2,2.4,0,0.0,-1,0.0,,0.0,0
45174,1480885157473,,,,,,,,-0.0,0.07,0.99,-3.1,0.6,-0.1,1200,0,,,,,,,,,,,,,,,,,,,
45194,1480885157493,,,,,,,,-0.01,0.08,0.99,-3.1,0.5,-0.2,1200,0,,,,,,,,,,,,,,,,,,,
45214,1480885157513,,,,,,,,-0.01,0.07,0.99,-3.0,0.5,-0.2,1200,56,,,,,,,,,,,,,,,,,,,
45234,1480885157533,,,,,,,,-0.0,0.08,0.98,-3.0,0.5,-0.2,1180,56,,,,,,,,,,,,,,,,,,,
45254,1480885157553,0,182.3,,189.6,20,204.0,,-0.0,0.08,0.99,-3.0,0.5,-0.2,1180,56,0,1,0.0,0,38.15863,-122.452965,4.88,0.007,70.9,10,3,2.4,0,0.0,-1,0.0,0.0,0.0,0
45274,1480885157573,,,,,,,,-0.0,0.07,0.98,-3.0,0.4,-0.2,1160,56,,,,,,,,,,,,,,,,,,,
45294,1480885157592,,,,,,,,-0.0,0.07,0.98,-3.0,0.3,-0.2,1160,0,,,,,,,,,,,,,,,,,,,
45314,1480885157612,,,,,,,,-0.01,0.07,0.98,-2.9,0.3,-0.2,1160,0,,,,,,,,,,,,,,,,,,,
45334,1480885157632,,,,,,,,-0.01,0.07,0.98,-2.9,0.3,-0.2,1160,100,,,,,,,,,,,,,,,,,,,
45354,1480885157652,,,,,19,,,-0.01,0.07,0.98,-2.9,0.3,-0.2,1140,100,0,1,21.071,0,38.15863,-122.452965,4.2,0.007,70.9,10,3,2.4,0,0.0,-1,0.0,,0.0,0
45374,1480885157672,,,,,,,,-0.01,0.07,0.98,-2.9,0.4,-0.2,1120,100,,,,,,,,,,,,,,,,,,,
45394,1480885157692,,,,,,,,-0.01,0.07,0.98,-2.9,0.4,-0.2,1120,100,,,,,,,,,,,,,,,,,,,
45414,1480885157712,,,,,,,,-0.01,0.06,0.98,-2.9,0.3,-0.1,1120,100,,,,,,,,,,,,,,,,,,,
45434,1480885157732,,,,,,,,-0.01,0.06,0.99,-2.9,0.3,-0.2,1100,15,,,,,,,,,,,,,,,,,,,
45454,1480885157752,0,182.5,,190.0,17,203.7,,-0.01,0.06,0.98,-2.9,0.4,-0.2,1100,15,0,1,11.4,0,38.158634,-122.452965,3.68,0.007,70.9,10,2,2.4,0,0.0,-1,0.0,0.0,0.0,0
45474,1480885157772,,,,,,,,-0.01,0.06,0.98,-2.9,0.3,-0.2,1100,15,,,,,,,,,,,,,,,,,,,
45494,1480885157792,,,,,,,,-0.01,0.07,0.98,-2.9,0.2,-0.2,1080,15,,,,,,,,,,,,,,,,,,,
45514,1480885157812,,,,,,,,-0.01,0.07,0.98,-2.9,0.3,-0.1,1080,16,,,,,,,,,,,,,,,,,,,
45534,1480885157832,,,,,,,,-0.01,0.08,0.98,-2.9,0.3,-0.1,1060,16,,,,,,,,,,,,,,,,,,,
45554,1480885157852,,,,,16,,,-0.01,0.08,0.98,-2.9,0.4,-0.1,1060,16,0,1,73.333,0,38.158634,-122.452965,3.55,0.007,70.9,10,2,2.4,0,0.0,-1,0.0,,0.0,0
45574,1480885157872,,,,,,,,-0.01,0.08,0.99,-2.9,0.4,-0.0,1040,20,,,,,,,,,,,,,,,,,,,
45594,1480885157892,,,,,,,,-0.01,0.07,0.99,-2.9,0.3,-0.0,1040,20,,,,,,,,,,,,,,,,,,,
45614,1480885157904,,,,,,,,-0.01,0.07,0.98,-2.9,0.2,-0.0,1040,20,,,,,,,,,,,,,,,,,,,
45634,1480885157924,,,,,,,,-0.0,0.07,0.98,-2.9,0.1,0.0,1040,20,,,,,,,,,,,,,,,,,,,
45654,1480885157944,0,183.7,,190.0,16,203.0,,-0.0,0.07,0.98,-2.9,0.2,-0.0,1020,23,0,1,66.25,0,38.158638,-122.452965,3.36,0.008,70.9,10,2,2.4,0,0.0,-1,0.0,0.0,0.0,0
45674,1480885157964,,,,,,,,0.0,0.07,0.98,-2.9,0.2,0.0,1000,23,,,,,,,,,,,,,,,,,,,
45694,1480885158091,,,,,,,,0.01,0.07,0.98,-2.9,0.3,-0.0,1000,23,,,,,,,,,,,,,,,,,,,
45714,1480885158111,,,,,,,,0.01,0.08,0.98,-2.8,0.3,-0.1,1000,24,,,,,,,,,,,,,,,,,,,
45734,1480885158131,,,,,,,,0.01,0.08,0.97,-2.8,0.5,-0.1,980,24,,,,,,,,,,,,,,,,,,,
45754,1480885158151,,,,,16,,,0.01,0.07,0.97,-2.8,0.5,-0.1,980,26,0,1,44.348,0,38.158638,-122.452965,3.3,0.008,70.8,10,2,2.4,0,0.0,-1,0.0,,0.0,0
45774,1480885158171,,,,,,,,0.01,0.07,0.97,-2.8,0.6,-0.1,980,26,,,,,,,,,,,,,,,,,,,
45794,1480885158191,,,,,,,,0.02,0.07,0.97,-2.8,0.7,-0.1,960,26,,,,,,,,,,,,,,,,,,,
45814,1480885158211,,,,,,,,0.02,0.07,0.97,-2.8,0.7,-0.1,960,29,,,,,,,,,,,,,,,,,,,
45834,1480885158231,,,,,,,,0.02,0.07,0.97,-2.8,0.8,-0.1,960,29,,,,,,,,,,,,,,,,,,,
45854,1480885158251,0,182.3,,189.9,15,203.6,,0.03,0.07,0.97,-2.8,0.9,-0.1,960,30,0,1,37.692,0,38.158638,-122.452965,3.3,0.008,70.8,10,2,2.4,0,0.0,-1,0.0,0.0,0.0,0
45874,1480885158271,,,,,,,,0.03,0.08,0.97,-2.9,0.8,0.0,960,30,,,,,,,,,,,,,,,,,,,
45894,1480885158193,,,,,,,,0.03,0.08,0.97,-2.9,0.7,0.1,940,32,,,,,,,,,,,,,,,,,,,
45914,1480885158213,,,,,,,,0.03,0.09,0.97,-2.9,0.6,0.1,940,32,,,,,,,,,,,,,,,,,,,
45934,1480885158233,,,,,,,,0.03,0.09,0.97,-3.0,0.5,0.2,940,32,,,,,,,,,,,,,,,,,,,
45954,1480885158253,,,,,15,,,0.03,0.1,0.98,-3.0,0.5,0.2,940,35,0,1,32.0,0,38.158642,-122.452965,2.82,0.008,70.8,10,3,2.4,0,0.0,-1,0.0,,0.0,0
45974,1480885158273,,,,,,,,0.03,0.1,0.99,-3.0,0.5,0.2,940,35,,,,,,,,,,,,,,,,,,,
45994,1480885158295,,,,,,,,0.02,0.1,0.99,-3.0,0.6,0.3,920,36,,,,,,,,,,,,,,,,,,,
46014,1480885158315,,,,,,,,0.02,0.11,1.0,-3.0,0.5,0.3,940,36,,,,,,,,,,,,,,,,,,,
46034,1480885158335,,,,,,,,0.02,0.1,1.0,-3.0,0.5,0.2,920,35,,,,,,,,,,,,,,,,,,,
46054,1480885158355,0,183.3,0.0,190.2,14,203.7,14.25,0.01,0.09,1.0,-3.0,0.4,0.2,920,35,0,1,26.857,0,38.158642,-122.452965,2.21,0.008,70.8,10,2,2.4,0,0.0,-1,0.0,0.0,0.0,0
46074,1480885158375,,,,,,,,0.0,0.09,1.0,-2.9,0.3,0.1,920,43,,,,,,,,,,,,,,,,,,,
46094,1480885158395,,,,,,,,-0.01,0.09,1.0,-2.9,0.2,-0.0,920,36,,,,,,,,,,,,,,,,,,,
46114,1480885158415,,,,,,,,-0.01,0.09,1.0,-2.9,0.2,-0.1,920,36,,,,,,,,,,,,,,,,,,,
46134,1480885158435,,,,,,,,-0.02,0.08,0.99,-2.9,0.2,-0.2,920,47,,,,,,,,,,,,,,,,,,,
46154,1480885158455,,,,,14,,,-0.02,0.06,0.99,-2.8,0.3,-0.2,920,47,0,1,21.395,0,38.158642,-122.452965,2.02,0.008,70.8,10,2,2.4,0,0.0,-1,0.0,,0.0,0
46174,1480885158475,,,,,,,,-0.02,0.06,0.98,-2.8,0.5,-0.2,920,40,,,,,,,,,,,,,,,,,,,
46194,1480885158496,,,,,,,,-0.01,0.06,0.97,-2.9,0.5,-0.2,920,49,,,,,,,,,,,,,,,,,,,
46214,1480885158516,,,,,,,,-0.01,0.06,0.97,-2.9,0.5,-0.1,900,49,,,,,,,,,,,,,,,,,,,
46234,1480885158536,,,,,,,,-0.0,0.06,0.96,-3.0,0.4,-0.1,900,44,,,,,,,,,,,,,,,,,,,
46254,1480885158556,0,183.2,,190.0,14,203.7,,-0.0,0.07,0.97,-3.0,0.3,0.0,920,44,0,1,23.0,0,38.158642,-122.452965,1.81,0.008,70.8,10,3,2.4,0,0.0,-1,0.0,0.0,0.0,0
46274,1480885158576,,,,,,,,0.0,0.08,0.98,-3.0,0.4,0.0,920,46,,,,,,,,,,,,,,,,,,,
46294,1480885158596,,,,,,,,0.0,0.09,0.99,-3.0,0.4,0.0,920,53,,,,,,,,,,,,,,,,,,,
46314,1480885158616,,,,,,,,0.0,0.09,0.99,-3.0,0.4,-0.0,920,53,,,,,,,,,,,,,,,,,,,
46334,1480885158636,,,,,,,,-0.0,0.09,1.0,-3.0,0.2,-0.0,920,43,,,,,,,,,,,,,,,,,,,
46354,1480885158656,,,,,14,,,-0.01,0.08,1.0,-2.9,0.2,-0.1,920,56,0,1,20.0,0,38.158642,-122.452965,1.66,0.008,70.8,10,2,2.4,0,0.0,-1,0.0,,0.0,0
46374,1480885158676,,,,,,,,-0.01,0.08,1.0,-2.9,0.1,-0.2,920,56,,,,,,,,,,,,,,,,,,,
46394,1480885158695,,,,,,,,-0.02,0.08,1.0,-2.8,0.1,-0.3,940,52,,,,,,,,,,,,,,,,,,,
46414,1480885158715,,,,,,,,-0.03,0.07,0.99,-2.8,0.2,-0.3,920,49,,,,,,,,,,,,,,,,,,,
46434,1480885158735,,,,,,,,-0.03,0.06,0.98,-2.8,0.4,-0.3,920,63,,,,,,,,,,,,,,,,,,,
46454,1480885158755,0,183.3,,189.4,14,202.3,,-0.03,0.04,0.97,-2.8,0.5,-0.4,920,63,0,1,16.429,0,38.158642,-122.452965,1.57,0.008,70.7,10,2,2.4,0,0.0,-1,0.0,0.0,0.0,0
46474,1480885158775,,,,,,,,-0.02,0.04,0.97,-2.8,0.6,-0.4,940,50,,,,,,,,,,,,,,,,,,,
46494,1480885158795,,,,,,,,-0.01,0.04,0.96,-2.8,0.7,-0.3,920,55,,,,,,,,,,,,,,,,,,,
46514,1480885158906,,,,,,,,-0.01,0.05,0.96,-2.9,0.5,-0.2,920,64,,,,,,,,,,,,,,,,,,,
46534,1480885158926,,,,,,,,-0.0,0.06,0.97,-2.9,0.5,-0.1,920,64,,,,,,,,,,,,,,,,,,,
46554,1480885158946,,,,,13,,,0.0,0.07,0.98,-3.0,0.5,-0.0,920,52,0,1,18.4,0,38.158642,-122.452965,0.0,0.008,70.7,10,2,2.4,0,0.0,-1,0.0,,0.0,0
46574,1480885158966,,,,,,,,0.0,0.08,0.99,-2.9,0.5,0.0,940,58,,,,,,,,,,,,,,,,,,,
46594,1480885158986,,,,,,,,0.0,0.09,0.99,-2.9,0.5,0.0,940,69,,,,,,,,,,,,,,,,,,,
46614,1480885159006,,,,,,,,-0.0,0.09,1.0,-3.0,0.5,0.0,920,69,,,,,,,,,,,,,,,,,,,
46634,1480885159026,,,,,,,,-0.0,0.08,1.0,-3.0,0.4,0.0,940,58,,,,,,,,,,,,,,,,,,,
46654,1480885159046,0,183.0,,189.9,14,203.4,,-0.01,0.08,1.0,-2.9,0.4,-0.0,940,56,0,1,18.077,0,38.158642,-122.452965,0.0,0.008,70.7,10,2,2.4,0,0.0,-1,0.0,0.0,0.0,0
46674,1480885159066,,,,,,,,-0.01,0.07,1.0,-2.9,0.4,-0.1,940,73,,,,,,,,,,,,,,,,,,,
46694,1480885158993,,,,,,,,-0.02,0.07,0.99,-2.8,0.3,-0.2,940,70,,,,,,,,,,,,,,,,,,,
46714,1480885159013,,,,,,,,-0.03,0.07,0.99,-2.8,0.3,-0.2,940,55,,,,,,,,,,,,,,,,,,,
46734,1480885159033,,,,,,,,-0.03,0.06,0.98,-2.8,0.2,-0.3,940,67,,,,,,,,,,,,,,,,,,,
46754,1480885159053,,,,,16,,,-0.03,0.05,0.98,-2.8,0.2,-0.3,940,78,0,1,12.877,0,38.158642,-122.452965,0.0,0.008,70.7,10,2,1.7,0,0.0,-1,0.0,,0.0,0
46774,1480885159073,,,,,,,,-0.03,0.04,0.97,-2.8,0.3,-0.4,940,78,,,,,,,,,,,,,,,,,,,
46794,1480885159094,,,,,,,,-0.02,0.04,0.97,-2.8,0.4,-0.4,940,66,,,,,,,,,,,,,,,,,,,
46814,1480885159114,,,,,,,,-0.01,0.04,0.97,-2.8,0.5,-0.4,940,61,,,,,,,,,,,,,,,,,,,
46834,1480885159134,,,,,,,,-0.01,0.04,0.96,-2.8,0.5,-0.3,940,76,,,,,,,,,,,,,,,,,,,
46854,1480885159154,1,181.6,,188.2,14,201.7,,-0.01,0.05,0.96,-2.8,0.4,-0.3,960,78,0,1,12.051,0,38.158642,-122.452965,1.44,0.008,70.7,10,2,1.7,0,0.0,-1,0.0,0.0,0.0,0
46874,1480885159174,,,,,,,,-0.0,0.05,0.96,-2.9,0.3,-0.2,940,63,,,,,,,,,,,,,,,,,,,
46894,1480885159196,,,,,,,,0.0,0.05,0.96,-2.9,0.2,-0.1,940,66,,,,,,,,,,,,,,,,,,,
46914,1480885159216,,,,,,,,0.01,0.07,0.97,-2.9,0.1,-0.0,940,81,,,,,,,,,,,,,,,,,,,
46934,1480885159236,,,,,,,,0.01,0.07,0.98,-2.9,0.1,-0.0,940,83,,,,,,,,,,,,,,,,,,,
46954,1480885159256,,,,,14,,,0.01,0.08,0.99,-2.9,0.1,0.1,960,66,0,1,15.238,0,38.158642,-122.452965,1.3,0.008,70.7,10,3,1.7,0,0.0,-1,0.0,,0.0,0
46974,1480885159276,,,,,,,,0.01,0.09,1.0,-2.9,0.2,0.1,940,67,,,,,,,,,,,,,,,,,,,
46994,1480885159295,,,,,,,,0.01,0.09,1.0,-3.0,0.2,0.2,960,84,,,,,,,,,,,,,,,,,,,
47014,1480885159315,,,,,,,,0.0,0.1,1.0,-3.0,0.2,0.2,960,87,,,,,,,,,,,,,,,,,,,
47034,1480885159335,,,,,,,,0.0,0.1,1.0,-3.0,0.2,0.1,960,69,,,,,,,,,,,,,,,,,,,
47054,1480885159355,0,182.3,0.2,189.1,14,202.9,14.22,-0.0,0.09,1.0,-3.0,0.1,0.1,960,69,0,1,14.242,0,38.158642,-122.452965,1.0,0.008,70.7,10,2,1.7,0,0.0,-1,0.0,0.0,0.0,0
47074,1480885159375,,,,,,,,-0.01,0.09,0.99,-2.9,0.1,0.1,960,86,,,,,,,,,,,,,,,,,,,
47094,1480885159393,,,,,,,,-0.01,0.08,0.99,-2.9,0.1,0.0,960,92,,,,,,,,,,,,,,,,,,,
47114,1480885159413,,,,,,,,-0.01,0.09,1.0,-2.9,0.1,-0.0,960,78,,,,,,,,,,,,,,,,,,,
47134,1480885159433,,,,,,,,-0.01,0.09,1.0,-2.8,0.1,-0.1,960,69,,,,,,,,,,,,,,,,,,,
47154,1480885159453,,,,,14,,,-0.02,0.08,0.99,-2.8,-0.0,-0.2,960,81,0,1,11.163,0,38.158642,-122.452965,0.0,0.008,70.7,10,2,1.7,0,0.0,-1,0.0,,0.0,0
47174,1480885159473,,,,,,,,-0.02,0.08,0.99,-2.8,-0.0,-0.2,960,92,,,,,,,,,,,,,,,,,,,
47194,1480885159494,,,,,,,,-0.03,0.08,0.99,-2.8,-0.1,-0.3,960,92,,,,,,,,,,,,,,,,,,,
47214,1480885159514,,,,,,,,-0.03,0.08,0.98,-2.7,-0.1,-0.3,960,73,,,,,,,,,,,,,,,,,,,
47234,1480885159534,,,,,,,,-0.04,0.07,0.98,-2.7,-0.1,-0.4,960,90,,,,,,,,,,,,,,,,,,,
47254,1480885159554,0,181.1,,188.1,16,201.7,,-0.04,0.06,0.97,-2.7,-0.1,-0.4,960,100,0,1,10.105,0,38.158642,-122.452965,1.11,0.008,70.7,10,2,1.7,0,0.0,-1,0.0,0.0,0.0,0
47274,1480885159574,,,,,,,,-0.04,0.06,0.97,-2.7,-0.0,-0.4,960,87,,,,,,,,,,,,,,,,,,,
47294,1480885159693,,,,,,,,-0.04,0.05,0.97,-2.7,0.0,-0.4,960,72,,,,,,,,,,,,,,,,,,,
47314,1480885159713,,,,,,,,-0.04,0.05,0.97,-2.7,0.2,-0.4,960,81,,,,,,,,,,,,,,,,,,,
47334,1480885159733,,,,,,,,-0.04,0.04,0.97,-2.7,0.2,-0.4,960,103,,,,,,,,,,,,,,,,,,,
47354,1480885159753,,,,,15,,,-0.03,0.04,0.97,-2.7,0.3,-0.5,960,92,0,1,9.6,0,38.158642,-122.452965,1.19,0.008,70.7,10,2,1.7,0,0.0,-1,0.0,,0.0,0
47374,1480885159773,,,,,,,,-0.03,0.04,0.97,-2.7,0.4,-0.4,960,76,,,,,,,,,,,,,,,,,,,
47394,1480885159793,,,,,,,,-0.02,0.04,0.96,-2.7,0.4,-0.3,940,84,,,,,,,,,,,,,,,,,,,
47414,1480885159813,,,,,,,,-0.01,0.04,0.97,-2.7,0.4,-0.2,960,104,,,,,,,,,,,,,,,,,,,
47434,1480885159833,,,,,,,,-0.02,0.05,0.96,-2.8,0.3,-0.2,940,100,,,,,,,,,,,,,,,,,,,
47454,1480885159853,0,181.2,,187.8,16,201.5,,-0.01,0.06,0.97,-2.8,0.3,-0.1,940,81,0,1,10.435,0,38.158642,-122.452965,1.19,0.008,70.7,10,2,1.7,0,0.0,-1,0.0,0.0,0.0,0
47474,1480885159873,,,,,,,,-0.01,0.07,0.97,-2.8,0.2,0.0,940,83,,,,,,,,,,,,,,,,,,,
47494,1480885159794,,,,,,,,-0.01,0.08,0.98,-2.9,0.1,0.1,940,103,,,,,,,,,,,,,,,,,,,
47514,1480885159814,,,,,,,,-0.01,0.09,0.98,-2.9,0.2,0.2,940,109,,,,,,,,,,,,,,,,,,,
47534,1480885159834,,,,,,,,-0.01,0.09,0.99,-2.9,0.2,0.2,940,93,,,,,,,,,,,,,,,,,,,
47554,1480885159854,,,,,17,,,-0.01,0.09,0.99,-2.9,0.2,0.2,920,86,0,1,11.605,0,38.158642,-122.452965,0.0,0.008,70.7,10,2,1.7,0,0.0,-1,0.0,,0.0,0
47574,1480885159874,,,,,,,,-0.01,0.09,0.99,-3.0,0.2,0.2,920,109,,,,,,,,,,,,,,,,,,,
47594,1480885159894,,,,,,,,-0.02,0.08,0.99,-2.9,0.2,0.1,920,115,,,,,,,,,,,,,,,,,,,
47614,1480885159910,,,,,,,,-0.03,0.07,0.99,-2.8,0.1,0.1,920,109,,,,,,,,,,,,,,,,,,,
47634,1480885159930,,,,,,,,-0.03,0.07,0.99,-2.8,0.1,-0.0,900,92,,,,,,,,,,,,,,,,,,,
47654,1480885159950,0,182.3,,189.0,14,202.2,,-0.04,0.07,0.99,-2.8,0.0,-0.1,920,100,0,1,9.684,0,38.158642,-122.452957,0.0,0.008,70.7,10,2,1.7,0,0.0,-1,0.0,0.0,0.0,0
47674,1480885159970,,,,,,,,-0.04,0.06,0.98,-2.8,0.2,-0.2,900,118,,,,,,,,,,,,,,,,,,,
47694,1480885159996,,,,,,,,-0.04,0.06,0.98,-2.7,0.4,-0.2,900,115,,,,,,,,,,,,,,,,,,,
47714,1480885160016,,,,,,,,-0.03,0.06,0.98,-2.7,0.4,-0.1,880,106,,,,,,,,,,,,,,,,,,,
47734,1480885160036,,,,,,,,-0.03,0.07,0.97,-2.7,0.4,0.1,880,109,,,,,,,,,,,,,,,,,,,
47754,1480885160056,,,,,13,,,-0.02,0.08,0.98,-2.8,0.3,0.1,880,118,0,1,8.142,0,38.158642,-122.452965,0.0,0.009,70.7,10,2,1.2,0,0.0,-1,0.0,,0.0,0
47774,1480885160076,,,,,,,,-0.02,0.1,0.99,-2.8,0.4,0.1,880,116,,,,,,,,,,,,,,,,,,,
47794,1480885160096,,,,,,,,-0.02,0.09,0.99,-2.7,0.4,0.0,880,112,,,,,,,,,,,,,,,,,,,
47814,1480885160116,,,,,,,,-0.03,0.09,1.0,-2.7,0.3,-0.1,860,116,,,,,,,,,,,,,,,,,,,
47834,1480885160136,,,,,,,,-0.04,0.09,0.99,-2.7,0.2,-0.2,860,123,,,,,,,,,,,,,,,,,,,
47854,1480885160156,0,180.7,,187.7,13,201.3,,-0.05,0.08,1.0,-2.7,0.2,-0.3,860,121,0,1,7.273,0,38.158642,-122.452965,0.0,0.009,70.6,10,2,1.2,0,0.0,-1,0.0,0.0,0.0,0
47874,1480885160176,,,,,,,,-0.04,0.06,0.98,-2.6,0.2,-0.2,860,116,,,,,,,,,,,,,,,,,,,
47894,1480885160196,,,,,,,,-0.03,0.07,0.98,-2.7,0.4,-0.1,820,120,,,,,,,,,,,,,,,,,,,
47914,1480885160216,,,,,,,,-0.03,0.08,0.98,-2.7,0.5,0.0,840,127,,,,,,,,,,,,,,,,,,,
47934,1480885160236,,,,,,,,-0.03,0.09,0.98,-2.8,0.5,-0.0,820,129,,,,,,,,,,,,,,,,,,,
47954,1480885160256,,,,,14,,,-0.03,0.09,1.0,-2.7,0.4,-0.2,820,129,0,1,7.414,0,38.158642,-122.452965,0.0,0.009,70.6,10,2,1.2,0,0.0,-1,0.0,,0.0,0
47974,1480885160276,,,,,,,,-0.04,0.08,1.0,-2.7,0.3,-0.3,800,129,,,,,,,,,,,,,,,,,,,
47994,1480885160295,,,,,,,,-0.04,0.07,0.99,-2.6,0.3,-0.2,800,133,,,,,,,,,,,,,,,,,,,
48014,1480885160315,,,,,,,,-0.04,0.07,0.99,-2.7,0.4,-0.1,800,136,,,,,,,,,,,,,,,,,,,
48034,1480885160335,,,,,,,,-0.04,0.08,0.99,-2.7,0.4,0.0,800,136,,,,,,,,,,,,,,,,,,,
48054,1480885160355,0,181.5,0.5,188.4,14,202.1,14.13,-0.04,0.09,0.99,-2.7,0.4,-0.1,780,132,0,1,6.457,0,38.158642,-122.452965,0.0,0.009,70.6,10,3,1.2,0,0.0,-1,0.0,0.0,0.0,0
48074,1480885160375,,,,,,,,-0.05,0.08,0.99,-2.6,0.2,-0.2,780,136,,,,,,,,,,,,,,,,,,,
48094,1480885160494,,,,,,,,-0.05,0.08,0.99,-2.6,0.4,-0.2,780,144,,,,,,,,,,,,,,,,,,,
48114,1480885160514,,,,,,,,-0.06,0.08,0.98,-2.7,0.2,-0.0,780,143,,,,,,,,,,,,,,,,,,,
48134,1480885160534,,,,,,,,-0.05,0.08,0.98,-2.7,0.3,0.0,760,140,,,,,,,,,,,,,,,,,,,
48154,1480885160554,,,,,12,,,-0.06,0.08,0.99,-2.7,0.3,-0.1,760,141,0,1,5.865,0,38.158642,-122.452965,0.0,0.009,70.6,10,2,1.0,0,0.0,-1,0.0,,0.0,0
48174,1480885160574,,,,,,,,-0.07,0.07,0.99,-2.7,0.2,-0.1,760,152,,,,,,,,,,,,,,,,,,,
48194,1480885160594,,,,,,,,-0.06,0.07,0.99,-2.7,0.4,-0.0,740,155,,,,,,,,,,,,,,,,,,,
48214,1480885160614,,,,,,,,-0.06,0.08,0.99,-2.7,0.5,0.1,740,146,,,,,,,,,,,,,,,,,,,
48234,1480885160634,,,,,,,,-0.06,0.08,0.99,-2.6,0.5,0.0,740,146,,,,,,,,,,,,,,,,,,,
48254,1480885160654,0,180.4,,187.1,12,200.8,,-0.06,0.08,0.99,-2.6,0.5,-0.1,740,158,0,1,5.17,0,38.158642,-122.452965,0.0,0.009,70.6,10,2,1.0,0,0.0,-1,0.0,0.0,0.0,0
48274,1480885160674,,,,,,,,-0.06,0.08,0.99,-2.6,0.6,-0.0,720,160,,,,,,,,,,,,,,,,,,,
48294,1480885160593,,,,,,,,-0.06,0.09,0.99,-2.7,0.7,0.1,720,152,,,,,,,,,,,,,,,,,,,
48314,1480885160613,,,,,,,,-0.06,0.08,1.0,-2.6,0.6,-0.0,720,152,,,,,,,,,,,,,,,,,,,
48334,1480885160633,,,,,,,,-0.06,0.07,0.99,-2.6,0.5,-0.1,720,169,,,,,,,,,,,,,,,,,,,
48354,1480885160653,,,,,13,,,-0.06,0.08,0.98,-2.7,0.5,0.0,720,167,0,1,4.472,0,38.158642,-122.452965,0.0,0.009,70.6,10,3,1.0,0,0.0,-1,0.0,,0.0,0
48374,1480885160673,,,,,,,,-0.06,0.09,0.98,-2.7,0.5,0.0,720,160,,,,,,,,,,,,,,,,,,,
48394,1480885160693,,,,,,,,-0.06,0.07,0.98,-2.7,0.5,-0.1,700,163,,,,,,,,,,,,,,,,,,,
48414,1480885160710,,,,,,,,-0.06,0.07,0.98,-2.7,0.5,-0.1,700,172,,,,,,,,,,,,,,,,,,,
48434,1480885160730,,,,,,,,-0.05,0.07,0.98,-2.6,0.4,0.0,700,173,,,,,,,,,,,,,,,,,,,
48454,1480885160750,0,180.3,,187.3,12,201.1,,-0.06,0.07,0.98,-2.6,0.2,0.0,700,160,0,1,4.417,0,38.158642,-122.452965,0.0,0.009,70.6,10,3,2.5,0,0.0,-1,0.0,0.0,0.0,0
48474,1480885160770,,,,,,,,-0.05,0.06,0.98,-2.5,0.2,-0.1,700,164,,,,,,,,,,,,,,,,,,,
48494,1480885160793,,,,,,,,-0.05,0.08,0.98,-2.6,0.2,0.0,700,176,,,,,,,,,,,,,,,,,,,
48514,1480885160813,,,,,,,,-0.04,0.08,0.98,-2.6,0.2,0.0,700,176,,,,,,,,,,,,,,,,,,,
48534,1480885160833,,,,,,,,-0.05,0.07,0.99,-2.5,0.2,-0.1,720,163,,,,,,,,,,,,,,,,,,,
48554,1480885160853,,,,,12,,,-0.04,0.07,0.99,-2.5,0.3,-0.2,720,155,0,1,4.375,0,38.158642,-122.452965,0.0,0.009,70.6,10,2,2.5,0,0.0,-1,0.0,,0.0,0
48574,1480885160873,,,,,,,,-0.03,0.07,0.99,-2.6,0.2,-0.1,720,170,,,,,,,,,,,,,,,,,,,
48594,1480885160893,,,,,,,,-0.03,0.07,0.99,-2.5,0.0,-0.1,740,173,,,,,,,,,,,,,,,,,,,
48614,1480885160906,,,,,,,,-0.03,0.06,0.98,-2.5,0.1,-0.2,760,166,,,,,,,,,,,,,,,,,,,
