"Interval"|"ms"|0|0|1,"Utc"|"ms"|0|0|1,"FuelLevel"|"F"|0|100|5,"OilTemp"|"F"|0.0|300.0|5,"CoolantPressPSI"|"PSI"|0.0|20.0|1,"Coolant"|"F"|0.0|300.0|5,"OilPress"|"PSI"|0|150|10,"EngineTemp"|"F"|0.0|300.0|5,"Battery"|"Volts"|0.0|20.0|1,"AccelX"|"G"|-3.0|3.0|50,"AccelY"|"G"|-3.0|3.0|50,"AccelZ"|"G"|-3.0|3.0|50,"Yaw"|"Deg/Sec"|-300.0|300.0|50,"Pitch"|"Deg/Sec"|-300.0|300.0|50,"Roll"|"Deg/Sec"|-300.0|300.0|50,"RPM"|""|0|10000|50,"Driveshaft"|"RPM"|0|5000|50,"GPIO1"|""|0|1|10,"GPIO2"|""|0|1|10,"GearRatio"|""|-5.0|5.0|10,"Gear"|""|-1|5|10,"Latitude"|"Degrees"|-180.0|180.0|10,"Longitude"|"Degrees"|-180.0|180.0|10,"Speed"|"MPH"|0.0|150.0|10,"Distance"|"Miles"|0.0|0.0|10,"Altitude"|"Feet"|0.0|4000.0|10,"GPSSats"|""|0|20|10,"GPSQual"|""|0|5|10,"GPSDOP"|""|0.0|20.0|10,"LapCount"|""|0|0|10,"LapTime"|"Min"|0.0|0.0|10,"Sector"|""|0|0|10,"SectorTime"|"Min"|0.0|0.0|10,"PredTime"|"Min"|0.0|0.0|5,"ElapsedTime"|"Min"|0.0|0.0|10,"CurrentLap"|""|0|0|10
2031367,1480653286217,,,,,,,,-0.05,0.08,0.99,-3.1,0.0,0.1,340,0,,,,,,,,,,,,,,,,,,,
2031387,1480653286237,,,,,,,,-0.05,0.09,0.99,-3.1,-0.1,0.1,340,0,,,,,,,,,,,,,,,,,,,
2031407,1480653286257,,,,,,,,-0.05,0.1,0.99,-3.2,-0.1,0.2,500,0,,,,,,,,,,,,,,,,,,,
2031427,1480653286277,0,46.7,,54.0,0,56.6,,-0.05,0.09,0.99,-3.1,0.0,0.1,500,0,1,0,0.0,0,37.478367,-122.203728,0.0,0.0,13.5,8,3,1.1,0,0.0,-1,0.0,0.0,0.0,0
2031447,1480653286297,,,,,,,,-0.05,0.09,0.99,-3.1,0.1,0.1,540,0,,,,,,,,,,,,,,,,,,,
2031467,1480653286317,,,,,,,,-0.05,0.09,1.0,-3.1,0.1,0.1,620,0,,,,,,,,,,,,,,,,,,,
2031487,1480653286337,,,,,,,,-0.05,0.09,0.99,-3.1,0.1,0.1,620,0,,,,,,,,,,,,,,,,,,,
2031507,1480653286357,,,,,,,,-0.05,0.1,1.0,-3.1,0.1,0.1,700,0,,,,,,,,,,,,,,,,,,,
2031527,1480653286377,,,,,1,,,-0.05,0.11,1.0,-3.1,0.0,0.2,780,0,1,0,0.0,0,37.478367,-122.203728,0.0,0.0,13.5,8,3,1.1,0,0.0,-1,0.0,,0.0,0
2031547,1480653286394,,,,,,,,-0.05,0.1,1.01,-3.2,0.1,0.3,820,0,,,,,,,,,,,,,,,,,,,
2031567,1480653286414,,,,,,,,-0.05,0.1,1.01,-3.1,0.2,0.2,820,0,,,,,,,,,,,,,,,,,,,
2031587,1480653286434,,,,,,,,-0.06,0.09,1.01,-3.1,0.3,0.2,760,0,,,,,,,,,,,,,,,,,,,
2031607,1480653286454,,,,,,,,-0.05,0.09,1.01,-3.1,0.3,0.2,720,0,,,,,,,,,,,,,,,,,,,
2031627,1480653286474,1,47.1,,51.4,2,52.1,,-0.05,0.08,1.01,-3.1,0.4,0.2,640,0,1,0,0.0,0,37.478367,-122.203728,0.0,0.0,13.5,8,3,1.1,0,0.0,-1,0.0,0.0,0.0,0
2031647,1480653286497,,,,,,,,-0.05,0.08,1.01,-3.1,0.4,0.1,640,0,,,,,,,,,,,,,,,,,,,
2031667,1480653286517,,,,,,,,-0.05,0.08,1.02,-3.1,0.4,0.1,580,0,,,,,,,,,,,,,,,,,,,
2031687,1480653286537,,,,,,,,-0.05,0.06,1.01,-3.1,0.5,0.0,580,0,,,,,,,,,,,,,,,,,,,
2031707,1480653286557,,,,,,,,-0.05,0.07,1.01,-3.1,0.4,0.0,560,0,,,,,,,,,,,,,,,,,,,
2031727,1480653286577,,,,,2,,,-0.05,0.06,1.01,-3.1,0.4,0.1,560,0,1,0,0.0,0,37.478367,-122.203728,0.0,0.0,13.5,8,3,1.1,0,0.0,-1,0.0,,0.0,0
2031747,1480653286696,,,,,,,,-0.05,0.06,1.01,-3.1,0.4,0.1,640,0,,,,,,,,,,,,,,,,,,,
2031767,1480653286716,,,,,,,,-0.05,0.07,1.01,-3.1,0.4,0.1,600,0,,,,,,,,,,,,,,,,,,,
2031787,1480653286736,,,,,,,,-0.05,0.07,1.01,-3.1,0.3,0.1,600,0,,,,,,,,,,,,,,,,,,,
2031807,1480653286756,,,,,,,,-0.05,0.08,1.02,-3.1,0.3,0.1,660,0,,,,,,,,,,,,,,,,,,,
2031827,1480653286776,0,48.6,,54.0,4,54.9,,-0.05,0.09,1.02,-3.1,0.2,0.2,600,0,1,0,0.0,0,37.478367,-122.203728,0.0,0.0,13.5,8,3,1.1,0,0.0,-1,0.0,0.0,0.0,0
2031847,1480653286796,,,,,,,,-0.06,0.08,1.02,-3.1,0.1,0.1,600,0,,,,,,,,,,,,,,,,,,,
2031867,1480653286816,,,,,,,,-0.06,0.09,1.02,-3.1,0.2,0.2,700,0,,,,,,,,,,,,,,,,,,,
2031887,1480653286836,,,,,,,,-0.06,0.08,1.03,-3.1,0.1,0.3,720,0,,,,,,,,,,,,,,,,,,,
2031907,1480653286856,,,,,,,,-0.06,0.06,1.03,-3.1,-0.1,0.2,760,0,,,,,,,,,,,,,,,,,,,
2031927,1480653286876,,,,,5,,,-0.06,0.06,1.02,-3.1,0.1,0.2,760,0,1,0,0.0,0,37.478367,-122.203728,0.0,0.0,13.5,8,3,1.1,0,0.0,-1,0.0,,0.0,0
2031947,1480653286797,,,,,,,,-0.06,0.07,1.02,-3.1,0.0,0.2,820,0,,,,,,,,,,,,,,,,,,,
2031967,1480653286817,,,,,,,,-0.06,0.07,1.02,-3.2,0.1,0.1,840,0,,,,,,,,,,,,,,,,,,,
2031987,1480653286837,,,,,,,,-0.06,0.07,1.02,-3.1,0.1,0.1,760,0,,,,,,,,,,,,,,,,,,,
2032007,1480653286857,,,,,,,,-0.05,0.07,1.01,-3.1,0.3,0.1,780,0,,,,,,,,,,,,,,,,,,,
2032027,1480653286877,0,45.5,,52.3,6,56.3,,-0.05,0.07,1.01,-3.1,0.3,0.1,780,0,1,0,0.0,0,37.478367,-122.203728,0.0,0.0,13.5,8,3,1.1,0,0.0,-1,0.0,0.0,0.0,0
2032047,1480653286897,,,,,,,,-0.05,0.07,1.01,-3.1,0.3,0.1,780,0,,,,,,,,,,,,,,,,,,,
2032067,1480653286910,,,,,,,,-0.04,0.07,1.01,-3.1,0.4,0.1,820,0,,,,,,,,,,,,,,,,,,,
2032087,1480653286930,,,,,,,,-0.05,0.08,1.01,-3.1,0.2,0.1,840,0,,,,,,,,,,,,,,,,,,,
2032107,1480653286950,,,,,,,,-0.05,0.08,1.01,-3.2,0.3,0.1,860,0,,,,,,,,,,,,,,,,,,,
2032127,1480653286970,,,,,9,,,-0.05,0.07,1.01,-3.1,0.3,0.1,820,0,1,0,0.0,0,37.478367,-122.203728,0.0,0.0,13.5,8,3,1.1,0,0.0,-1,0.0,,0.0,0
2032147,1480653286997,,,,,,,,-0.06,0.06,1.01,-3.1,0.3,-0.0,880,0,,,,,,,,,,,,,,,,,,,
2032167,1480653287017,,,,,,,,-0.05,0.06,1.0,-3.1,0.5,-0.1,920,0,,,,,,,,,,,,,,,,,,,
2032187,1480653287037,,,,,,,,-0.04,0.06,1.0,-3.1,0.4,-0.1,940,0,,,,,,,,,,,,,,,,,,,
2032207,1480653287057,,,,,,,,-0.04,0.05,1.0,-3.1,0.4,-0.1,940,0,,,,,,,,,,,,,,,,,,,
2032227,1480653287077,0,47.9,0.0,52.0,12,52.2,14.84,-0.04,0.05,0.99,-3.1,0.5,-0.1,960,0,1,0,0.0,0,37.478367,-122.203728,0.0,0.0,13.5,8,3,1.1,0,0.0,-1,0.0,0.0,0.0,0
2032247,1480653287097,,,,,,,,-0.03,0.04,1.0,-3.1,0.8,-0.1,960,0,,,,,,,,,,,,,,,,,,,
2032267,1480653287117,,,,,,,,-0.03,0.04,0.99,-3.1,0.8,-0.1,940,0,,,,,,,,,,,,,,,,,,,
2032287,1480653287137,,,,,,,,-0.02,0.04,1.0,-3.1,0.7,-0.0,980,0,,,,,,,,,,,,,,,,,,,
2032307,1480653287157,,,,,,,,-0.02,0.05,0.99,-3.1,0.5,0.0,1000,0,,,,,,,,,,,,,,,,,,,
2032327,1480653287177,,,,,15,,,-0.02,0.06,1.0,-3.1,0.3,0.1,1000,0,1,0,0.0,0,37.478367,-122.203728,0.0,0.0,13.5,8,3,1.1,0,0.0,-1,0.0,,0.0,0
2032347,1480653287197,,,,,,,,-0.01,0.06,0.99,-3.2,0.3,0.2,1020,0,,,,,,,,,,,,,,,,,,,
2032367,1480653287217,,,,,,,,-0.01,0.06,1.0,-3.2,0.3,0.2,1040,0,,,,,,,,,,,,,,,,,,,
2032387,1480653287237,,,,,,,,-0.01,0.05,1.01,-3.2,0.5,0.1,1060,0,,,,,,,,,,,,,,,,,,,
2032407,1480653287257,,,,,,,,-0.0,0.04,1.0,-3.1,0.5,0.1,1060,0,,,,,,,,,,,,,,,,,,,
2032427,1480653287277,1,44.6,,51.4,21,56.0,,-0.01,0.03,1.0,-3.1,0.6,0.1,1060,0,1,0,0.0,0,37.478367,-122.203728,0.0,0.0,13.5,8,3,1.1,0,0.0,-1,0.0,0.0,0.0,0
2032447,1480653287297,,,,,,,,-0.01,0.03,0.99,-3.1,0.7,0.1,1060,0,,,,,,,,,,,,,,,,,,,
2032467,1480653287317,,,,,,,,-0.02,0.03,0.99,-3.1,0.7,0.0,1060,0,,,,,,,,,,,,,,,,,,,
2032487,1480653287337,,,,,,,,-0.02,0.03,0.99,-3.1,0.6,-0.0,1060,0,,,,,,,,,,,,,,,,,,,
2032507,1480653287357,,,,,,,,-0.02,0.02,0.99,-3.1,0.6,-0.0,1040,0,,,,,,,,,,,,,,,,,,,
2032527,1480653287377,,,,,31,,,-0.03,0.02,0.99,-3.1,0.5,-0.0,1040,0,1,0,0.0,0,37.478367,-122.203728,0.0,0.0,13.5,8,3,1.1,0,0.0,-1,0.0,,0.0,0
2032547,1480653287496,,,,,,,,-0.03,0.03,0.99,-3.1,0.4,-0.0,1040,0,,,,,,,,,,,,,,,,,,,
2032567,1480653287516,,,,,,,,-0.04,0.04,0.99,-3.1,0.4,-0.0,1040,0,,,,,,,,,,,,,,,,,,,
2032587,1480653287536,,,,,,,,-0.04,0.04,0.99,-3.1,0.4,-0.0,1020,0,,,,,,,,,,,,,,,,,,,
2032607,1480653287556,,,,,,,,-0.04,0.05,1.0,-3.1,0.4,0.0,1020,0,,,,,,,,,,,,,,,,,,,
2032627,1480653287576,0,44.6,,51.1,39,55.7,,-0.04,0.05,1.01,-3.1,0.4,0.1,1020,0,1,0,0.0,0,37.478367,-122.203728,0.0,0.0,13.5,8,3,1.1,0,0.0,-1,0.0,0.0,0.0,0
2032647,1480653287596,,,,,,,,-0.05,0.06,1.01,-3.1,0.3,0.1,1020,0,,,,,,,,,,,,,,,,,,,
2032667,1480653287616,,,,,,,,-0.05,0.07,1.01,-3.1,0.2,0.1,1020,0,,,,,,,,,,,,,,,,,,,
2032687,1480653287636,,,,,,,,-0.05,0.08,1.01,-3.1,0.1,0.2,1000,0,,,,,,,,,,,,,,,,,,,
2032707,1480653287656,,,,,,,,-0.05,0.08,1.0,-3.1,-0.1,0.2,1000,0,,,,,,,,,,,,,,,,,,,
2032727,1480653287676,,,,,46,,,-0.05,0.09,1.0,-3.1,-0.2,0.2,1000,0,1,0,0.0,0,37.478367,-122.203728,0.0,0.0,13.5,8,3,1.1,0,0.0,-1,0.0,,0.0,0
2032747,1480653287597,,,,,,,,-0.05,0.1,1.0,-3.1,-0.3,0.2,1000,0,,,,,,,,,,,,,,,,,,,
2032767,1480653287617,,,,,,,,-0.05,0.1,0.99,-3.1,-0.4,0.3,980,0,,,,,,,,,,,,,,,,,,,
2032787,1480653287637,,,,,,,,-0.05,0.11,0.99,-3.2,-0.5,0.3,980,0,,,,,,,,,,,,,,,,,,,
2032807,1480653287657,,,,,,,,-0.05,0.11,0.99,-3.2,-0.6,0.3,980,0,,,,,,,,,,,,,,,,,,,
2032827,1480653287677,0,48.6,,54.0,53,54.9,,-0.05,0.12,0.99,-3.2,-0.7,0.3,980,0,1,0,0.0,0,37.478367,-122.203728,0.0,0.0,13.5,8,3,1.1,0,0.0,-1,0.0,0.0,0.0,0
2032847,1480653287697,,,,,,,,-0.05,0.13,0.99,-3.2,-0.8,0.4,980,0,,,,,,,,,,,,,,,,,,,
2032867,1480653287717,,,,,,,,-0.05,0.13,1.0,-3.2,-0.8,0.4,980,0,,,,,,,,,,,,,,,,,,,
2032887,1480653287737,,,,,,,,-0.06,0.13,1.0,-3.2,-0.8,0.4,980,0,,,,,,,,,,,,,,,,,,,
2032907,1480653287757,,,,,,,,-0.06,0.13,1.0,-3.2,-0.7,0.4,960,0,,,,,,,,,,,,,,,,,,,
2032927,1480653287777,,,,,57,,,-0.06,0.13,1.01,-3.2,-0.6,0.3,960,0,1,0,0.0,0,37.478367,-122.203728,0.0,0.0,13.5,8,3,1.1,0,0.0,-1,0.0,,0.0,0
2032947,1480653287797,,,,,,,,-0.06,0.13,1.01,-3.2,-0.4,0.3,960,0,,,,,,,,,,,,,,,,,,,
2032967,1480653287817,,,,,,,,-0.06,0.12,1.02,-3.1,-0.2,0.3,940,0,,,,,,,,,,,,,,,,,,,
2032987,1480653287837,,,,,,,,-0.06,0.11,1.02,-3.1,-0.1,0.2,940,0,,,,,,,,,,,,,,,,,,,
2033007,1480653287857,,,,,,,,-0.06,0.11,1.02,-3.1,-0.1,0.2,960,0,,,,,,,,,,,,,,,,,,,
2033027,1480653287877,0,47.9,,54.1,61,55.5,,-0.06,0.12,1.01,-3.1,-0.2,0.2,960,0,1,0,0.0,0,37.478367,-122.203728,0.0,0.0,13.5,8,3,1.1,0,0.0,-1,0.0,0.0,0.0,0
2033047,1480653287897,,,,,,,,-0.06,0.11,1.01,-3.1,-0.3,0.2,960,0,,,,,,,,,,,,,,,,,,,
2033067,1480653287910,,,,,,,,-0.06,0.11,1.01,-3.2,-0.4,0.1,960,0,,,,,,,,,,,,,,,,,,,
2033087,1480653287930,,,,,,,,-0.06,0.11,1.01,-3.1,-0.4,0.1,960,0,,,,,,,,,,,,,,,,,,,
2033107,1480653287950,,,,,,,,-0.06,0.09,1.01,-3.1,-0.4,0.0,960,0,,,,,,,,,,,,,,,,,,,
2033127,1480653287970,,,,,62,,,-0.06,0.09,1.01,-3.1,-0.2,-0.0,960,0,1,0,0.0,0,37.478367,-122.203728,0.0,0.0,13.5,8,3,1.1,0,0.0,-1,0.0,,0.0,0
2033147,1480653287997,,,,,,,,-0.06,0.07,1.01,-3.1,-0.1,-0.1,960,0,,,,,,,,,,,,,,,,,,,
2033167,1480653288017,,,,,,,,-0.06,0.07,1.0,-3.1,0.1,-0.1,960,0,,,,,,,,,,,,,,,,,,,
2033187,1480653288037,,,,,,,,-0.05,0.06,1.0,-3.1,0.2,-0.2,960,0,,,,,,,,,,,,,,,,,,,
2033207,1480653288057,,,,,,,,-0.06,0.05,0.99,-3.1,0.2,-0.2,960,0,,,,,,,,,,,,,,,,,,,
2033227,1480653288077,0,47.9,0.0,53.8,63,55.4,14.93,-0.05,0.05,0.99,-3.1,0.2,-0.2,960,0,1,0,0.0,0,37.478367,-122.203728,0.0,0.0,13.5,8,3,1.1,0,0.0,-1,0.0,0.0,0.0,0
2033247,1480653288097,,,,,,,,-0.05,0.05,0.98,-3.1,0.1,-0.1,960,0,,,,,,,,,,,,,,,,,,,
2033267,1480653288117,,,,,,,,-0.05,0.05,0.98,-3.1,0.1,-0.2,960,0,,,,,,,,,,,,,,,,,,,
2033287,1480653288137,,,,,,,,-0.05,0.05,0.98,-3.1,0.1,-0.1,960,0,,,,,,,,,,,,,,,,,,,
2033307,1480653288157,,,,,,,,-0.05,0.05,0.98,-3.1,0.2,-0.2,960,0,,,,,,,,,,,,,,,,,,,
2033327,1480653288177,,,,,63,,,-0.05,0.05,0.98,-3.1,0.2,-0.1,960,0,1,0,0.0,0,37.478367,-122.203728,0.0,0.0,13.5,8,3,1.1,0,0.0,-1,0.0,,0.0,0
2033347,1480653288296,,,,,,,,-0.04,0.05,0.98,-3.1,0.4,-0.1,960,0,,,,,,,,,,,,,,,,,,,
2033367,1480653288316,,,,,,,,-0.04,0.05,0.98,-3.1,0.5,-0.1,960,0,,,,,,,,,,,,,,,,,,,
2033387,1480653288336,,,,,,,,-0.03,0.05,0.99,-3.1,0.6,-0.1,960,0,,,,,,,,,,,,,,,,,,,
2033407,1480653288356,,,,,,,,-0.02,0.04,1.0,-3.1,0.7,-0.1,980,0,,,,,,,,,,,,,,,,,,,
2033427,1480653288376,0,47.0,,50.2,62,52.4,,-0.02,0.04,1.0,-3.1,0.7,-0.0,980,0,1,0,0.0,0,37.478367,-122.203728,0.0,0.0,13.5,8,3,1.1,0,0.0,-1,0.0,0.0,0.0,0
2033447,1480653288396,,,,,,,,-0.02,0.04,1.0,-3.1,0.6,0.0,960,0,,,,,,,,,,,,,,,,,,,
2033467,1480653288416,,,,,,,,-0.01,0.04,1.0,-3.1,0.6,0.1,960,0,,,,,,,,,,,,,,,,,,,
2033487,1480653288436,,,,,,,,-0.01,0.05,1.0,-3.1,0.5,0.2,980,0,,,,,,,,,,,,,,,,,,,
2033507,1480653288456,,,,,,,,-0.01,0.06,1.0,-3.1,0.4,0.2,980,0,,,,,,,,,,,,,,,,,,,
2033527,1480653288476,,,,,63,,,-0.01,0.06,0.99,-3.2,0.4,0.3,980,0,1,0,0.0,0,37.478367,-122.203728,0.0,0.0,13.5,8,3,1.1,0,0.0,-1,0.0,,0.0,0
2033547,1480653288397,,,,,,,,-0.02,0.07,0.99,-3.2,0.3,0.3,980,0,,,,,,,,,,,,,,,,,,,
2033567,1480653288417,,,,,,,,-0.02,0.08,0.99,-3.2,0.2,0.3,980,0,,,,,,,,,,,,,,,,,,,
2033587,1480653288437,,,,,,,,-0.02,0.09,0.99,-3.2,0.1,0.4,980,0,,,,,,,,,,,,,,,,,,,
2033607,1480653288457,,,,,,,,-0.02,0.09,0.99,-3.2,0.0,0.4,980,0,,,,,,,,,,,,,,,,,,,
2033627,1480653288477,0,48.0,,53.6,62,55.2,,-0.02,0.1,0.98,-3.2,-0.0,0.4,980,0,1,0,0.0,0,37.478367,-122.203728,0.0,0.0,13.5,8,3,1.1,0,0.0,-1,0.0,0.0,0.0,0
2033647,1480653288497,,,,,,,,-0.02,0.1,0.98,-3.2,-0.1,0.4,980,0,,,,,,,,,,,,,,,,,,,
2033667,1480653288517,,,,,,,,-0.02,0.11,0.98,-3.2,-0.2,0.5,980,0,,,,,,,,,,,,,,,,,,,
2033687,1480653288537,,,,,,,,-0.03,0.11,0.98,-3.3,-0.3,0.5,980,0,,,,,,,,,,,,,,,,,,,
2033707,1480653288557,,,,,,,,-0.03,0.12,0.98,-3.3,-0.4,0.5,980,0,,,,,,,,,,,,,,,,,,,
2033727,1480653288577,,,,,62,,,-0.03,0.12,0.98,-3.3,-0.5,0.5,980,0,1,0,0.0,0,37.478367,-122.203728,0.0,0.0,13.5,8,3,1.1,0,0.0,-1,0.0,,0.0,0
2033747,1480653288597,,,,,,,,-0.03,0.13,0.98,-3.3,-0.5,0.5,980,0,,,,,,,,,,,,,,,,,,,
2033767,1480653288617,,,,,,,,-0.03,0.13,0.98,-3.3,-0.7,0.6,980,0,,,,,,,,,,,,,,,,,,,
2033787,1480653288637,,,,,,,,-0.04,0.14,0.98,-3.3,-0.8,0.6,980,0,,,,,,,,,,,,,,,,,,,
2033807,1480653288657,,,,,,,,-0.04,0.15,0.98,-3.3,-0.8,0.6,980,0,,,,,,,,,,,,,,,,,,,
2033827,1480653288677,0,48.0,,53.8,61,55.4,,-0.04,0.15,0.99,-3.3,-0.8,0.6,980,0,1,0,0.0,0,37.478367,-122.203728,0.0,0.0,13.5,8,3,1.1,0,0.0,-1,0.0,0.0,0.0,0
2033847,1480653288697,,,,,,,,-0.05,0.15,0.99,-3.3,-0.9,0.6,980,0,,,,,,,,,,,,,,,,,,,
2033867,1480653288717,,,,,,,,-0.05,0.16,0.99,-3.3,-0.9,0.6,980,0,,,,,,,,,,,,,,,,,,,
2033887,1480653288737,,,,,,,,-0.05,0.16,1.0,-3.3,-0.9,0.6,980,0,,,,,,,,,,,,,,,,,,,
2033907,1480653288757,,,,,,,,-0.05,0.16,1.0,-3.3,-0.9,0.6,980,0,,,,,,,,,,,,,,,,,,,
2033927,1480653288777,,,,,61,,,-0.05,0.16,1.0,-3.3,-0.8,0.5,980,0,1,0,0.0,0,37.478367,-122.203728,0.0,0.0,13.5,8,3,1.1,0,0.0,-1,0.0,,0.0,0
2033947,1480653288797,,,,,,,,-0.05,0.15,1.01,-3.3,-0.7,0.5,980,0,,,,,,,,,,,,,,,,,,,
2033967,1480653288817,,,,,,,,-0.06,0.15,1.01,-3.3,-0.7,0.5,980,0,,,,,,,,,,,,,,,,,,,
2033987,1480653288837,,,,,,,,-0.06,0.14,1.02,-3.2,-0.5,0.5,980,0,,,,,,,,,,,,,,,,,,,
2034007,1480653288857,,,,,,,,-0.06,0.14,1.03,-3.2,-0.4,0.5,980,0,,,,,,,,,,,,,,,,,,,
2034027,1480653288877,0,46.9,,53.2,61,53.3,,-0.06,0.13,1.03,-3.2,-0.2,0.4,960,0,1,0,0.0,0,37.478367,-122.203728,0.0,0.0,13.5,8,3,1.1,0,0.0,-1,0.0,0.0,0.0,0
2034047,1480653288897,,,,,,,,-0.06,0.12,1.03,-3.2,-0.1,0.4,980,0,,,,,,,,,,,,,,,,,,,
2034067,1480653288910,,,,,,,,-0.06,0.12,1.04,-3.2,0.0,0.4,980,0,,,,,,,,,,,,,,,,,,,
2034087,1480653288930,,,,,,,,-0.06,0.11,1.03,-3.2,0.1,0.4,980,0,,,,,,,,,,,,,,,,,,,
2034107,1480653288950,,,,,,,,-0.06,0.11,1.03,-3.2,0.1,0.3,980,0,,,,,,,,,,,,,,,,,,,
2034127,1480653288970,,,,,60,,,-0.06,0.11,1.03,-3.2,0.1,0.3,980,0,1,0,0.0,0,37.478367,-122.203728,0.0,0.0,13.5,8,3,1.1,0,0.0,-1,0.0,,0.0,0
2034147,1480653289091,,,,,,,,-0.06,0.11,1.03,-3.2,0.0,0.3,980,0,,,,,,,,,,,,,,,,,,,
2034167,1480653289111,,,,,,,,-0.06,0.11,1.03,-3.2,0.0,0.2,980,0,,,,,,,,,,,,,,,,,,,
2034187,1480653289131,,,,,,,,-0.06,0.11,1.03,-3.2,-0.0,0.2,980,0,,,,,,,,,,,,,,,,,,,
2034207,1480653289151,,,,,,,,-0.06,0.11,1.02,-3.2,-0.0,0.2,980,0,,,,,,,,,,,,,,,,,,,
2034227,1480653289171,0,48.4,0.0,53.9,61,55.5,14.96,-0.06,0.11,1.02,-3.2,-0.1,0.2,980,0,1,0,0.0,0,37.478367,-122.203728,0.0,0.0,13.5,8,3,1.1,0,0.0,-1,0.0,0.0,0.0,0
2034247,1480653289191,,,,,,,,-0.06,0.12,1.01,-3.2,-0.2,0.2,980,0,,,,,,,,,,,,,,,,,,,
2034267,1480653289211,,,,,,,,-0.06,0.12,1.01,-3.2,-0.3,0.1,980,0,,,,,,,,,,,,,,,,,,,
2034287,1480653289231,,,,,,,,-0.07,0.12,1.01,-3.2,-0.3,0.1,980,0,,,,,,,,,,,,,,,,,,,
2034307,1480653289251,,,,,,,,-0.07,0.11,1.01,-3.2,-0.3,0.1,980,0,,,,,,,,,,,,,,,,,,,
2034327,1480653289271,,,,,60,,,-0.07,0.11,1.0,-3.2,-0.3,0.0,980,0,1,0,0.0,0,37.478367,-122.203728,0.0,0.0,13.5,8,3,1.1,0,0.0,-1,0.0,,0.0,0
2034347,1480653289196,,,,,,,,-0.07,0.11,1.0,-3.1,-0.4,0.0,980,0,,,,,,,,,,,,,,,,,,,
2034367,1480653289216,,,,,,,,-0.07,0.11,1.0,-3.1,-0.4,0.0,980,0,,,,,,,,,,,,,,,,,,,
2034387,1480653289236,,,,,,,,-0.07,0.1,1.0,-3.1,-0.4,-0.0,980,0,,,,,,,,,,,,,,,,,,,
2034407,1480653289256,,,,,,,,-0.07,0.1,1.0,-3.1,-0.4,-0.0,980,0,,,,,,,,,,,,,,,,,,,
2034427,1480653289276,0,45.4,,50.8,61,53.7,,-0.07,0.1,0.99,-3.1,-0.4,-0.1,980,0,1,0,0.0,0,37.478367,-122.203728,0.0,0.0,13.5,8,3,1.1,0,0.0,-1,0.0,0.0,0.0,0
2034447,1480653289297,,,,,,,,-0.07,0.09,0.99,-3.1,-0.4,-0.1,980,0,,,,,,,,,,,,,,,,,,,
2034467,1480653289317,,,,,,,,-0.07,0.09,0.99,-3.1,-0.4,-0.1,980,0,,,,,,,,,,,,,,,,,,,
2034487,1480653289337,,,,,,,,-0.07,0.08,0.99,-3.1,-0.4,-0.1,980,0,,,,,,,,,,,,,,,,,,,
2034507,1480653289357,,,,,,,,-0.07,0.08,0.99,-3.1,-0.3,-0.1,980,0,,,,,,,,,,,,,,,,,,,
2034527,1480653289377,,,,,61,,,-0.07,0.07,0.99,-3.0,-0.3,-0.1,980,0,1,0,0.0,0,37.478367,-122.203728,0.0,0.0,13.5,8,3,1.1,0,0.0,-1,0.0,,0.0,0
2034547,1480653289397,,,,,,,,-0.07,0.07,0.99,-3.0,-0.4,-0.2,980,0,,,,,,,,,,,,,,,,,,,
2034567,1480653289417,,,,,,,,-0.07,0.07,0.99,-3.0,-0.3,-0.2,980,0,,,,,,,,,,,,,,,,,,,
2034587,1480653289437,,,,,,,,-0.06,0.07,0.99,-3.0,-0.3,-0.2,980,0,,,,,,,,,,,,,,,,,,,
2034607,1480653289457,,,,,,,,-0.06,0.06,0.99,-3.0,-0.3,-0.2,980,0,,,,,,,,,,,,,,,,,,,
2034627,1480653289477,0,48.5,,53.8,61,55.5,,-0.06,0.06,0.99,-3.0,-0.3,-0.2,980,0,1,0,0.0,0,37.478367,-122.203728,0.0,0.0,13.5,8,3,1.1,0,0.0,-1,0.0,0.0,0.0,0
2034647,1480653289497,,,,,,,,-0.06,0.05,0.99,-3.0,-0.2,-0.2,960,0,,,,,,,,,,,,,,,,,,,
2034667,1480653289517,,,,,,,,-0.06,0.04,0.99,-3.0,-0.1,-0.3,960,0,,,,,,,,,,,,,,,,,,,
2034687,1480653289537,,,,,,,,-0.06,0.04,0.99,-3.0,0.0,-0.3,960,0,,,,,,,,,,,,,,,,,,,
2034707,1480653289557,,,,,,,,-0.05,0.04,0.99,-3.0,0.2,-0.3,960,0,,,,,,,,,,,,,,,,,,,
2034727,1480653289577,,,,,60,,,-0.05,0.03,0.99,-3.0,0.3,-0.3,960,0,1,0,0.0,0,37.478367,-122.203728,0.0,0.0,13.5,8,3,1.1,0,0.0,-1,0.0,,0.0,0
2034747,1480653289597,,,,,,,,-0.05,0.02,0.98,-3.0,0.3,-0.3,960,0,,,,,,,,,,,,,,,,,,,
2034767,1480653289617,,,,,,,,-0.05,0.02,0.98,-3.0,0.3,-0.3,960,0,,,,,,,,,,,,,,,,,,,
2034787,1480653289637,,,,,,,,-0.05,0.01,0.97,-3.0,0.2,-0.3,960,0,,,,,,,,,,,,,,,,,,,
2034807,1480653289657,,,,,,,,-0.05,0.01,0.97,-3.1,0.2,-0.3,980,0,,,,,,,,,,,,,,,,,,,
2034827,1480653289677,0,45.1,,50.8,60,53.7,,-0.05,0.01,0.97,-3.1,0.1,-0.3,980,0,1,0,0.0,0,37.478367,-122.203728,0.0,0.0,13.5,8,3,1.1,0,0.0,-1,0.0,0.0,0.0,0
2034847,1480653289697,,,,,,,,-0.05,0.02,0.97,-3.1,0.1,-0.3,980,0,,,,,,,,,,,,,,,,,,,
2034867,1480653289717,,,,,,,,-0.05,0.02,0.96,-3.1,0.1,-0.2,980,0,,,,,,,,,,,,,,,,,,,
2034887,1480653289737,,,,,,,,-0.05,0.02,0.96,-3.1,0.2,-0.2,980,0,,,,,,,,,,,,,,,,,,,
2034907,1480653289757,,,,,,,,-0.05,0.03,0.96,-3.1,0.2,-0.2,980,0,,,,,,,,,,,,,,,,,,,
2034927,1480653289777,,,,,61,,,-0.05,0.03,0.96,-3.1,0.2,-0.2,980,0,1,0,0.0,0,37.478367,-122.203728,0.0,0.0,13.5,8,3,1.1,0,0.0,-1,0.0,,0.0,0
2034947,1480653289896,,,,,,,,-0.05,0.03,0.96,-3.1,0.3,-0.2,980,0,,,,,,,,,,,,,,,,,,,
2034967,1480653289916,,,,,,,,-0.04,0.03,0.97,-3.1,0.3,-0.1,980,0,,,,,,,,,,,,,,,,,,,
2034987,1480653289936,,,,,,,,-0.04,0.03,0.97,-3.1,0.4,-0.1,980,0,,,,,,,,,,,,,,,,,,,
2035007,1480653289956,,,,,,,,-0.04,0.03,0.97,-3.1,0.6,-0.1,980,0,,,,,,,,,,,,,,,,,,,
2035027,1480653289976,0,48.8,,53.5,61,56.1,,-0.03,0.03,0.97,-3.1,0.6,-0.1,980,0,1,0,0.0,0,37.478367,-122.203728,0.0,0.0,13.5,8,3,1.1,0,0.0,-1,0.0,0.0,0.0,0
2035047,1480653289996,,,,,,,,-0.03,0.03,0.98,-3.1,0.7,-0.1,980,0,,,,,,,,,,,,,,,,,,,
2035067,1480653290016,,,,,,,,-0.02,0.02,0.98,-3.1,0.7,-0.0,980,0,,,,,,,,,,,,,,,,,,,
2035087,1480653290036,,,,,,,,-0.02,0.02,0.99,-3.1,0.8,-0.0,980,0,,,,,,,,,,,,,,,,,,,
2035107,1480653290056,,,,,,,,-0.02,0.02,0.99,-3.1,0.9,0.0,980,0,,,,,,,,,,,,,,,,,,,
2035127,1480653290076,,,,,59,,,-0.01,0.02,1.0,-3.1,0.9,0.0,980,0,1,0,0.0,0,37.478367,-122.203728,0.0,0.0,13.5,8,3,1.1,0,0.0,-1,0.0,,0.0,0
2035147,1480653289996,,,,,,,,-0.01,0.02,1.0,-3.1,0.9,0.0,980,0,,,,,,,,,,,,,,,,,,,
2035167,1480653290016,,,,,,,,-0.0,0.02,1.01,-3.1,0.9,0.1,980,0,,,,,,,,,,,,,,,,,,,
2035187,1480653290036,,,,,,,,0.0,0.02,1.01,-3.1,0.9,0.1,980,0,,,,,,,,,,,,,,,,,,,
2035207,1480653290056,,,,,,,,0.0,0.02,1.01,-3.1,1.0,0.1,980,0,,,,,,,,,,,,,,,,,,,
2035227,1480653290076,0,45.2,0.0,51.1,62,53.9,14.9,0.0,0.02,1.01,-3.1,1.0,0.2,980,0,1,0,0.0,0,37.478367,-122.203728,0.0,0.0,13.5,8,3,1.1,0,0.0,-1,0.0,0.0,0.0,0
2035247,1480653290098,,,,,,,,0.0,0.02,1.01,-3.1,0.9,0.2,980,0,,,,,,,,,,,,,,,,,,,
2035267,1480653290118,,,,,,,,0.01,0.03,1.02,-3.2,0.9,0.2,980,0,,,,,,,,,,,,,,,,,,,
2035287,1480653290138,,,,,,,,0.01,0.03,1.01,-3.2,0.8,0.3,980,0,,,,,,,,,,,,,,,,,,,
2035307,1480653290158,,,,,,,,0.01,0.04,1.01,-3.2,0.7,0.3,980,0,,,,,,,,,,,,,,,,,,,
2035327,1480653290178,,,,,60,,,0.0,0.05,1.01,-3.2,0.6,0.3,980,0,1,0,0.0,0,37.478367,-122.203728,0.0,0.0,13.5,8,3,1.1,0,0.0,-1,0.0,,0.0,0
2035347,1480653290197,,,,,,,,0.0,0.06,1.01,-3.2,0.5,0.4,980,0,,,,,,,,,,,,,,,,,,,
2035367,1480653290217,,,,,,,,-0.0,0.06,1.0,-3.2,0.3,0.4,980,0,,,,,,,,,,,,,,,,,,,
2035387,1480653290237,,,,,,,,-0.01,0.07,1.0,-3.2,0.2,0.4,980,0,,,,,,,,,,,,,,,,,,,
2035407,1480653290257,,,,,,,,-0.01,0.08,1.0,-3.2,0.1,0.4,960,0,,,,,,,,,,,,,,,,,,,
2035427,1480653290277,0,49.1,,53.2,60,57.5,,-0.01,0.08,1.0,-3.2,-0.0,0.4,960,0,1,0,0.0,0,37.478367,-122.203728,0.0,0.0,13.5,8,3,1.1,0,0.0,-1,0.0,0.0,0.0,0
2035447,1480653290297,,,,,,,,-0.02,0.09,1.0,-3.2,-0.1,0.4,960,0,,,,,,,,,,,,,,,,,,,
2035467,1480653290317,,,,,,,,-0.03,0.1,1.0,-3.2,-0.1,0.5,960,0,,,,,,,,,,,,,,,,,,,
2035487,1480653290337,,,,,,,,-0.03,0.11,1.01,-3.2,-0.0,0.5,960,0,,,,,,,,,,,,,,,,,,,
2035507,1480653290357,,,,,,,,-0.03,0.11,1.02,-3.2,0.1,0.5,960,0,,,,,,,,,,,,,,,,,,,
2035527,1480653290377,,,,,61,,,-0.04,0.11,1.03,-3.2,0.2,0.5,960,0,1,0,0.0,0,37.478367,-122.203728,0.0,0.0,13.5,8,3,1.1,0,0.0,-1,0.0,,0.0,0
2035547,1480653290397,,,,,,,,-0.04,0.1,1.03,-3.2,0.4,0.4,960,0,,,,,,,,,,,,,,,,,,,
2035567,1480653290417,,,,,,,,-0.04,0.1,1.03,-3.1,0.4,0.4,960,0,,,,,,,,,,,,,,,,,,,
2035587,1480653290437,,,,,,,,-0.04,0.1,1.02,-3.1,0.4,0.4,960,0,,,,,,,,,,,,,,,,,,,
2035607,1480653290457,,,,,,,,-0.04,0.1,1.02,-3.1,0.3,0.4,960,0,,,,,,,,,,,,,,,,,,,
2035627,1480653290477,0,47.3,,52.3,60,55.7,,-0.05,0.11,1.02,-3.1,0.2,0.3,960,0,1,0,0.0,0,37.478367,-122.203728,0.0,0.0,13.5,8,3,1.1,0,0.0,-1,0.0,0.0,0.0,0
2035647,1480653290498,,,,,,,,-0.05,0.11,1.01,-3.1,0.0,0.3,960,0,,,,,,,,,,,,,,,,,,,
2035667,1480653290518,,,,,,,,-0.05,0.11,1.01,-3.1,-0.0,0.3,960,0,,,,,,,,,,,,,,,,,,,
2035687,1480653290538,,,,,,,,-0.06,0.11,1.01,-3.1,-0.1,0.2,960,0,,,,,,,,,,,,,,,,,,,
2035707,1480653290558,,,,,,,,-0.06,0.1,1.01,-3.1,-0.2,0.1,980,0,,,,,,,,,,,,,,,,,,,
2035727,1480653290578,,,,,59,,,-0.06,0.1,1.01,-3.1,-0.2,0.1,960,0,1,0,0.0,0,37.478367,-122.203728,0.0,0.0,13.5,8,3,1.1,0,0.0,-1,0.0,,0.0,0
2035747,1480653290696,,,,,,,,-0.06,0.09,1.01,-3.1,-0.2,-0.0,960,0,,,,,,,,,,,,,,,,,,,
2035767,1480653290716,,,,,,,,-0.06,0.08,1.01,-3.1,-0.1,-0.0,960,0,,,,,,,,,,,,,,,,,,,
2035787,1480653290736,,,,,,,,-0.06,0.07,1.01,-3.0,-0.0,-0.1,960,0,,,,,,,,,,,,,,,,,,,
2035807,1480653290756,,,,,,,,-0.05,0.07,1.01,-3.0,0.1,-0.1,980,0,,,,,,,,,,,,,,,,,,,
2035827,1480653290776,0,45.1,,51.7,61,52.8,,-0.05,0.06,1.0,-3.0,0.2,-0.2,980,0,1,0,0.0,0,37.478367,-122.203728,0.0,0.0,13.5,8,3,1.1,0,0.0,-1,0.0,0.0,0.0,0
2035847,1480653290796,,,,,,,,-0.05,0.05,1.0,-3.0,0.3,-0.2,960,0,,,,,,,,,,,,,,,,,,,
2035867,1480653290816,,,,,,,,-0.05,0.04,1.0,-3.0,0.4,-0.2,960,0,,,,,,,,,,,,,,,,,,,
2035887,1480653290836,,,,,,,,-0.05,0.03,0.99,-3.0,0.4,-0.2,960,0,,,,,,,,,,,,,,,,,,,
2035907,1480653290856,,,,,,,,-0.05,0.03,0.99,-3.0,0.4,-0.2,960,0,,,,,,,,,,,,,,,,,,,
2035927,1480653290876,,,,,61,,,-0.05,0.03,0.98,-3.0,0.3,-0.2,960,0,1,0,0.0,0,37.478367,-122.203728,0.0,0.0,13.5,8,3,1.1,0,0.0,-1,0.0,,0.0,0
2035947,1480653290797,,,,,,,,-0.05,0.03,0.98,-3.0,0.3,-0.2,960,0,,,,,,,,,,,,,,,,,,,
2035967,1480653290817,,,,,,,,-0.05,0.04,0.98,-3.0,0.2,-0.1,960,0,,,,,,,,,,,,,,,,,,,
2035987,1480653290837,,,,,,,,-0.05,0.04,0.98,-3.1,0.1,-0.1,960,0,,,,,,,,,,,,,,,,,,,
2036007,1480653290857,,,,,,,,-0.05,0.04,0.98,-3.1,0.2,-0.1,960,0,,,,,,,,,,,,,,,,,,,
2036027,1480653290877,0,46.5,,51.0,60,52.7,,-0.05,0.04,0.98,-3.1,0.3,-0.1,960,0,1,0,0.0,0,37.478367,-122.203728,0.0,0.0,13.5,8,3,1.1,0,0.0,-1,0.0,0.0,0.0,0
2036047,1480653290897,,,,,,,,-0.04,0.04,0.98,-3.1,0.4,-0.1,960,0,,,,,,,,,,,,,,,,,,,
2036067,1480653290910,,,,,,,,-0.04,0.04,0.99,-3.1,0.5,-0.0,960,0,,,,,,,,,,,,,,,,,,,
2036087,1480653290930,,,,,,,,-0.03,0.04,0.99,-3.1,0.6,-0.0,960,0,,,,,,,,,,,,,,,,,,,
2036107,1480653290950,,,,,,,,-0.03,0.05,0.99,-3.1,0.5,0.0,960,0,,,,,,,,,,,,,,,,,,,
2036127,1480653290970,,,,,60,,,-0.03,0.05,0.99,-3.1,0.4,0.1,960,0,1,0,0.0,0,37.478367,-122.203728,0.0,0.0,13.5,8,3,1.1,0,0.0,-1,0.0,,0.0,0
2036147,1480653290997,,,,,,,,-0.03,0.06,0.99,-3.1,0.2,0.2,960,0,,,,,,,,,,,,,,,,,,,
2036167,1480653291017,,,,,,,,-0.03,0.08,0.99,-3.1,-0.0,0.2,960,0,,,,,,,,,,,,,,,,,,,
2036187,1480653291037,,,,,,,,-0.04,0.09,1.0,-3.2,-0.1,0.3,960,0,,,,,,,,,,,,,,,,,,,
2036207,1480653291057,,,,,,,,-0.04,0.09,1.0,-3.2,-0.2,0.3,980,0,,,,,,,,,,,,,,,,,,,
2036227,1480653291077,0,46.2,0.0,50.7,60,52.8,14.96,-0.05,0.1,1.01,-3.2,-0.1,0.3,960,0,1,0,0.0,0,37.478367,-122.203728,0.0,0.0,13.5,8,3,1.1,0,0.0,-1,0.0,0.0,0.0,0
2036247,1480653291097,,,,,,,,-0.05,0.1,1.01,-3.2,-0.1,0.3,960,0,,,,,,,,,,,,,,,,,,,
2036267,1480653291117,,,,,,,,-0.05,0.1,1.02,-3.2,-0.0,0.3,960,0,,,,,,,,,,,,,,,,,,,
2036287,1480653291137,,,,,,,,-0.05,0.1,1.02,-3.2,0.1,0.4,960,0,,,,,,,,,,,,,,,,,,,
2036307,1480653291157,,,,,,,,-0.05,0.1,1.03,-3.1,0.2,0.3,960,0,,,,,,,,,,,,,,,,,,,
2036327,1480653291177,,,,,60,,,-0.05,0.1,1.03,-3.1,0.3,0.4,980,0,1,0,0.0,0,37.478367,-122.203728,0.0,0.0,13.5,8,3,1.1,0,0.0,-1,0.0,,0.0,0
2036347,1480653291194,,,,,,,,-0.05,0.09,1.03,-3.1,0.4,0.4,980,0,,,,,,,,,,,,,,,,,,,
2036367,1480653291214,,,,,,,,-0.05,0.09,1.03,-3.1,0.5,0.4,980,0,,,,,,,,,,,,,,,,,,,
2036387,1480653291234,,,,,,,,-0.05,0.09,1.03,-3.1,0.4,0.3,980,0,,,,,,,,,,,,,,,,,,,
2036407,1480653291254,,,,,,,,-0.05,0.1,1.03,-3.1,0.3,0.3,980,0,,,,,,,,,,,,,,,,,,,
2036427,1480653291274,0,46.9,,53.9,60,55.7,,-0.05,0.1,1.02,-3.1,0.2,0.2,980,0,1,0,0.0,0,37.478367,-122.203728,0.0,0.0,13.5,8,3,1.1,0,0.0,-1,0.0,0.0,0.0,0
2036447,1480653291297,,,,,,,,-0.05,0.1,1.02,-3.1,0.1,0.2,980,0,,,,,,,,,,,,,,,,,,,
2036467,1480653291317,,,,,,,,-0.05,0.11,1.02,-3.1,0.1,0.2,980,0,,,,,,,,,,,,,,,,,,,
2036487,1480653291337,,,,,,,,-0.05,0.11,1.01,-3.1,0.0,0.2,980,0,,,,,,,,,,,,,,,,,,,
2036507,1480653291357,,,,,,,,-0.06,0.11,1.01,-3.1,-0.0,0.1,980,0,,,,,,,,,,,,,,,,,,,
2036527,1480653291377,,,,,61,,,-0.06,0.11,1.01,-3.1,-0.0,0.1,980,0,1,0,0.0,0,37.478367,-122.203728,0.0,0.0,13.5,8,3,1.1,0,0.0,-1,0.0,,0.0,0
2036547,1480653291496,,,,,,,,-0.06,0.11,1.01,-3.1,-0.1,0.1,980,0,,,,,,,,,,,,,,,,,,,
2036567,1480653291516,,,,,,,,-0.06,0.11,1.01,-3.1,-0.2,0.1,980,0,,,,,,,,,,,,,,,,,,,
2036587,1480653291536,,,,,,,,-0.07,0.12,1.01,-3.1,-0.2,0.0,980,0,,,,,,,,,,,,,,,,,,,
2036607,1480653291556,,,,,,,,-0.07,0.12,1.0,-3.1,-0.2,0.0,980,0,,,,,,,,,,,,,,,,,,,
2036627,1480653291576,0,48.0,,53.6,60,56.0,,-0.07,0.12,1.0,-3.1,-0.3,-0.0,980,0,1,0,0.0,0,37.478367,-122.203728,0.0,0.0,13.5,8,3,1.1,0,0.0,-1,0.0,0.0,0.0,0
2036647,1480653291596,,,,,,,,-0.07,0.12,1.0,-3.1,-0.3,-0.1,980,0,,,,,,,,,,,,,,,,,,,
2036667,1480653291616,,,,,,,,-0.07,0.12,1.0,-3.1,-0.3,-0.1,980,0,,,,,,,,,,,,,,,,,,,
2036687,1480653291636,,,,,,,,-0.07,0.12,0.99,-3.1,-0.3,-0.1,1000,0,,,,,,,,,,,,,,,,,,,
2036707,1480653291656,,,,,,,,-0.07,0.12,0.99,-3.0,-0.3,-0.1,980,0,,,,,,,,,,,,,,,,,,,
2036727,1480653291676,,,,,61,,,-0.07,0.12,0.99,-3.0,-0.3,-0.1,980,0,1,0,0.0,0,37.478367,-122.203728,0.0,0.0,13.5,8,3,1.1,0,0.0,-1,0.0,,0.0,0
2036747,1480653291597,,,,,,,,-0.07,0.11,0.99,-3.0,-0.3,-0.1,980,0,,,,,,,,,,,,,,,,,,,
2036767,1480653291617,,,,,,,,-0.07,0.1,0.99,-3.0,-0.3,-0.2,980,0,,,,,,,,,,,,,,,,,,,
2036787,1480653291637,,,,,,,,-0.07,0.1,0.99,-3.0,-0.2,-0.2,980,0,,,,,,,,,,,,,,,,,,,
2036807,1480653291657,,,,,,,,-0.07,0.09,0.99,-3.0,-0.2,-0.2,980,0,,,,,,,,,,,,,,,,,,,
2036827,1480653291677,0,45.3,,51.1,60,52.7,,-0.07,0.08,0.99,-3.0,-0.1,-0.2,980,0,1,0,0.0,0,37.478367,-122.203728,0.0,0.0,13.5,8,3,1.1,0,0.0,-1,0.0,0.0,0.0,0
2036847,1480653291697,,,,,,,,-0.06,0.07,0.99,-3.0,-0.0,-0.3,980,0,,,,,,,,,,,,,,,,,,,
2036867,1480653291717,,,,,,,,-0.06,0.06,0.99,-3.0,0.1,-0.3,980,0,,,,,,,,,,,,,,,,,,,
2036887,1480653291737,,,,,,,,-0.06,0.05,0.99,-3.0,0.2,-0.3,980,0,,,,,,,,,,,,,,,,,,,
2036907,1480653291757,,,,,,,,-0.06,0.03,0.99,-3.0,0.3,-0.3,980,0,,,,,,,,,,,,,,,,,,,
2036927,1480653291777,,,,,61,,,-0.06,0.02,0.99,-3.0,0.4,-0.3,980,0,1,0,0.0,0,37.478367,-122.203728,0.0,0.0,13.5,8,3,1.1,0,0.0,-1,0.0,,0.0,0
2036947,1480653291797,,,,,,,,-0.06,0.02,0.99,-3.0,0.4,-0.3,960,0,,,,,,,,,,,,,,,,,,,
2036967,1480653291817,,,,,,,,-0.06,0.02,0.98,-3.0,0.5,-0.3,980,0,,,,,,,,,,,,,,,,,,,
2036987,1480653291837,,,,,,,,-0.06,0.01,0.98,-3.0,0.5,-0.3,960,0,,,,,,,,,,,,,,,,,,,
2037007,1480653291857,,,,,,,,-0.06,0.01,0.98,-3.0,0.5,-0.3,960,0,,,,,,,,,,,,,,,,,,,
2037027,1480653291877,0,46.6,,53.7,59,55.1,,-0.06,0.01,0.98,-3.0,0.5,-0.3,960,0,1,0,0.0,0,37.478367,-122.203728,0.0,0.0,13.5,8,3,1.1,0,0.0,-1,0.0,0.0,0.0,0
2037047,1480653291891,,,,,,,,-0.06,0.02,0.98,-3.0,0.4,-0.3,980,0,,,,,,,,,,,,,,,,,,,
2037067,1480653291911,,,,,,,,-0.06,0.02,0.97,-3.0,0.3,-0.2,940,0,,,,,,,,,,,,,,,,,,,
2037087,1480653291931,,,,,,,,-0.05,0.02,0.97,-3.1,0.2,-0.2,960,0,,,,,,,,,,,,,,,,,,,
2037107,1480653291951,,,,,,,,-0.05,0.02,0.97,-3.1,0.2,-0.2,960,0,,,,,,,,,,,,,,,,,,,
2037127,1480653291971,,,,,61,,,-0.05,0.03,0.97,-3.1,0.3,-0.2,960,0,1,0,0.0,0,37.478367,-122.203728,0.0,0.0,13.5,8,3,1.1,0,0.0,-1,0.0,,0.0,0
2037147,1480653291997,,,,,,,,-0.04,0.03,0.97,-3.1,0.4,-0.2,980,0,,,,,,,,,,,,,,,,,,,
2037167,1480653292017,,,,,,,,-0.04,0.04,0.98,-3.1,0.5,-0.1,960,0,,,,,,,,,,,,,,,,,,,
2037187,1480653292037,,,,,,,,-0.03,0.03,0.98,-3.1,0.6,-0.1,980,0,,,,,,,,,,,,,,,,,,,
2037207,1480653292057,,,,,,,,-0.03,0.03,0.99,-3.1,0.7,-0.0,960,0,,,,,,,,,,,,,,,,,,,
2037227,1480653292077,0,47.5,0.0,51.9,60,54.2,14.97,-0.02,0.04,0.99,-3.0,0.7,0.0,960,0,1,0,0.0,0,37.478367,-122.203728,0.0,0.0,13.5,8,3,1.1,0,0.0,-1,0.0,0.0,0.0,0
2037247,1480653292097,,,,,,,,-0.02,0.04,0.99,-3.1,0.7,0.1,960,0,,,,,,,,,,,,,,,,,,,
2037267,1480653292117,,,,,,,,-0.02,0.05,0.99,-3.1,0.6,0.1,960,0,,,,,,,,,,,,,,,,,,,
2037287,1480653292137,,,,,,,,-0.02,0.06,0.99,-3.1,0.5,0.2,960,0,,,,,,,,,,,,,,,,,,,
2037307,1480653292157,,,,,,,,-0.02,0.07,0.99,-3.1,0.3,0.2,980,0,,,,,,,,,,,,,,,,,,,
2037327,1480653292177,,,,,60,,,-0.03,0.08,0.99,-3.2,0.1,0.2,940,0,1,0,0.0,0,37.478367,-122.203728,0.0,0.0,13.5,8,3,1.1,0,0.0,-1,0.0,,0.0,0
2037347,1480653292296,,,,,,,,-0.03,0.09,0.99,-3.2,-0.0,0.2,960,0,,,,,,,,,,,,,,,,,,,
2037367,1480653292316,,,,,,,,-0.04,0.09,1.0,-3.2,-0.1,0.3,960,0,,,,,,,,,,,,,,,,,,,
2037387,1480653292336,,,,,,,,-0.04,0.1,1.01,-3.2,-0.1,0.3,960,0,,,,,,,,,,,,,,,,,,,
2037407,1480653292356,,,,,,,,-0.04,0.1,1.02,-3.2,0.1,0.3,960,0,,,,,,,,,,,,,,,,,,,
2037427,1480653292376,0,47.3,,54.3,60,55.5,,-0.04,0.1,1.02,-3.2,0.2,0.3,980,0,1,0,0.0,0,37.478367,-122.203728,0.0,0.0,13.5,8,3,1.1,0,0.0,-1,0.0,0.0,0.0,0
2037447,1480653292396,,,,,,,,-0.04,0.09,1.02,-3.1,0.3,0.3,940,0,,,,,,,,,,,,,,,,,,,
2037467,1480653292416,,,,,,,,-0.04,0.09,1.02,-3.1,0.4,0.3,960,0,,,,,,,,,,,,,,,,,,,
2037487,1480653292436,,,,,,,,-0.04,0.09,1.02,-3.1,0.4,0.3,960,0,,,,,,,,,,,,,,,,,,,
2037507,1480653292456,,,,,,,,-0.05,0.09,1.01,-3.1,0.2,0.2,960,0,,,,,,,,,,,,,,,,,,,
2037527,1480653292476,,,,,60,,,-0.05,0.09,1.01,-3.1,0.1,0.2,960,0,1,0,0.0,0,37.478367,-122.203728,0.0,0.0,13.5,8,3,1.1,0,0.0,-1,0.0,,0.0,0
2037547,1480653292397,,,,,,,,-0.05,0.1,1.01,-3.1,-0.1,0.2,980,0,,,,,,,,,,,,,,,,,,,
2037567,1480653292417,,,,,,,,-0.06,0.1,1.01,-3.1,-0.2,0.2,960,0,,,,,,,,,,,,,,,,,,,
2037587,1480653292437,,,,,,,,-0.06,0.09,1.01,-3.1,-0.2,0.1,960,0,,,,,,,,,,,,,,,,,,,
2037607,1480653292457,,,,,,,,-0.06,0.09,1.01,-3.1,-0.2,0.0,960,0,,,,,,,,,,,,,,,,,,,
2037627,1480653292477,0,45.6,,52.8,60,54.2,,-0.06,0.08,1.01,-3.1,-0.1,-0.0,960,0,1,0,0.0,0,37.478367,-122.203728,0.0,0.0,13.5,8,3,1.1,0,0.0,-1,0.0,0.0,0.0,0
2037647,1480653292497,,,,,,,,-0.06,0.07,1.01,-3.1,0.0,-0.1,960,0,,,,,,,,,,,,,,,,,,,
2037667,1480653292517,,,,,,,,-0.05,0.06,1.01,-3.0,0.2,-0.1,980,0,,,,,,,,,,,,,,,,,,,
2037687,1480653292537,,,,,,,,-0.05,0.05,1.0,-3.0,0.2,-0.2,960,0,,,,,,,,,,,,,,,,,,,
2037707,1480653292557,,,,,,,,-0.05,0.05,1.0,-3.0,0.3,-0.2,960,0,,,,,,,,,,,,,,,,,,,
2037727,1480653292577,,,,,59,,,-0.05,0.04,0.99,-3.0,0.3,-0.2,960,0,1,0,0.0,0,37.478367,-122.203728,0.0,0.0,13.5,8,3,1.1,0,0.0,-1,0.0,,0.0,0
2037747,1480653292597,,,,,,,,-0.05,0.04,0.99,-3.1,0.2,-0.2,960,0,,,,,,,,,,,,,,,,,,,
2037767,1480653292617,,,,,,,,-0.05,0.03,0.99,-3.1,0.2,-0.2,960,0,,,,,,,,,,,,,,,,,,,
2037787,1480653292637,,,,,,,,-0.05,0.03,0.99,-3.1,0.1,-0.2,960,0,,,,,,,,,,,,,,,,,,,
2037807,1480653292657,,,,,,,,-0.05,0.03,0.98,-3.1,0.1,-0.1,960,0,,,,,,,,,,,,,,,,,,,
2037827,1480653292677,0,45.4,,51.1,59,52.4,,-0.05,0.04,0.98,-3.1,0.2,-0.1,960,0,1,0,0.0,0,37.478367,-122.203728,0.0,0.0,13.5,8,3,1.1,0,0.0,-1,0.0,0.0,0.0,0
2037847,1480653292697,,,,,,,,-0.05,0.04,0.98,-3.1,0.3,-0.1,960,0,,,,,,,,,,,,,,,,,,,
2037867,1480653292717,,,,,,,,-0.05,0.04,0.98,-3.1,0.4,-0.1,960,0,,,,,,,,,,,,,,,,,,,
2037887,1480653292737,,,,,,,,-0.04,0.04,0.98,-3.1,0.5,-0.1,960,0,,,,,,,,,,,,,,,,,,,
2037907,1480653292757,,,,,,,,-0.04,0.05,0.99,-3.1,0.6,-0.1,960,0,,,,,,,,,,,,,,,,,,,
2037927,1480653292777,,,,,60,,,-0.03,0.05,0.99,-3.1,0.7,-0.0,960,0,1,0,0.0,0,37.478367,-122.203728,0.0,0.0,13.5,8,3,1.1,0,0.0,-1,0.0,,0.0,0
2037947,1480653292797,,,,,,,,-0.03,0.05,0.99,-3.1,0.5,0.0,960,0,,,,,,,,,,,,,,,,,,,
2037967,1480653292817,,,,,,,,-0.03,0.05,0.99,-3.1,0.4,0.1,960,0,,,,,,,,,,,,,,,,,,,
2037987,1480653292837,,,,,,,,-0.03,0.06,0.99,-3.1,0.2,0.1,940,0,,,,,,,,,,,,,,,,,,,
2038007,1480653292857,,,,,,,,-0.03,0.07,0.99,-3.1,-0.0,0.1,940,0,,,,,,,,,,,,,,,,,,,
2038027,1480653292877,0,45.5,,51.4,58,52.7,,-0.04,0.07,1.0,-3.2,-0.0,0.2,940,0,1,0,0.0,0,37.478367,-122.203728,0.0,0.0,13.5,8,3,1.1,0,0.0,-1,0.0,0.0,0.0,0
2038047,1480653292897,,,,,,,,-0.04,0.08,1.01,-3.2,0.1,0.2,960,0,,,,,,,,,,,,,,,,,,,
2038067,1480653292910,,,,,,,,-0.04,0.08,1.01,-3.1,0.2,0.2,940,0,,,,,,,,,,,,,,,,,,,
2038087,1480653292930,,,,,,,,-0.04,0.08,1.01,-3.1,0.4,0.2,940,0,,,,,,,,,,,,,,,,,,,
2038107,1480653292950,,,,,,,,-0.04,0.08,1.0,-3.1,0.3,0.2,940,0,,,,,,,,,,,,,,,,,,,
2038127,1480653292970,,,,,58,,,-0.05,0.09,1.0,-3.1,0.2,0.2,940,0,1,0,0.0,0,37.478367,-122.203728,0.0,0.0,13.5,8,3,1.1,0,0.0,-1,0.0,,0.0,0
2038147,1480653293097,,,,,,,,-0.05,0.09,1.0,-3.1,0.0,0.2,940,0,,,,,,,,,,,,,,,,,,,
2038167,1480653293117,,,,,,,,-0.05,0.09,1.0,-3.1,-0.1,0.1,960,0,,,,,,,,,,,,,,,,,,,
2038187,1480653293137,,,,,,,,-0.06,0.08,1.01,-3.1,-0.1,0.1,940,0,,,,,,,,,,,,,,,,,,,
2038207,1480653293157,,,,,,,,-0.05,0.07,1.0,-3.1,-0.1,0.0,960,0,,,,,,,,,,,,,,,,,,,
2038227,1480653293177,0,45.2,0.0,52.4,59,55.2,14.97,-0.05,0.06,1.01,-3.1,0.0,-0.1,960,0,1,0,0.0,0,37.478367,-122.203728,0.0,0.0,13.5,8,3,1.1,0,0.0,-1,0.0,0.0,0.0,0
2038247,1480653293197,,,,,,,,-0.05,0.06,1.0,-3.0,0.2,-0.1,960,0,,,,,,,,,,,,,,,,,,,
2038267,1480653293217,,,,,,,,-0.05,0.05,1.0,-3.0,0.3,-0.1,960,0,,,,,,,,,,,,,,,,,,,
2038287,1480653293237,,,,,,,,-0.05,0.04,0.99,-3.0,0.3,-0.1,960,0,,,,,,,,,,,,,,,,,,,
2038307,1480653293257,,,,,,,,-0.05,0.04,0.99,-3.0,0.3,-0.1,960,0,,,,,,,,,,,,,,,,,,,
2038327,1480653293277,,,,,60,,,-0.05,0.04,0.98,-3.1,0.3,-0.1,960,0,1,0,0.0,0,37.478367,-122.203728,0.0,0.0,13.5,8,3,1.1,0,0.0,-1,0.0,,0.0,0
2038347,1480653293198,,,,,,,,-0.05,0.04,0.98,-3.1,0.2,-0.2,960,0,,,,,,,,,,,,,,,,,,,
2038367,1480653293218,,,,,,,,-0.05,0.04,0.98,-3.1,0.1,-0.1,960,0,,,,,,,,,,,,,,,,,,,
2038387,1480653293238,,,,,,,,-0.05,0.04,0.98,-3.1,0.1,-0.1,960,0,,,,,,,,,,,,,,,,,,,
2038407,1480653293258,,,,,,,,-0.05,0.04,0.98,-3.1,0.2,-0.1,960,0,,,,,,,,,,,,,,,,,,,
2038427,1480653293278,0,47.5,,51.8,60,52.7,,-0.05,0.05,0.98,-3.1,0.3,-0.1,960,0,1,0,0.0,0,37.478367,-122.203728,0.0,0.0,13.5,8,3,1.1,0,0.0,-1,0.0,0.0,0.0,0
2038447,1480653293297,,,,,,,,-0.04,0.05,0.98,-3.1,0.4,-0.1,960,0,,,,,,,,,,,,,,,,,,,
2038467,1480653293317,,,,,,,,-0.04,0.05,0.99,-3.1,0.5,-0.1,960,0,,,,,,,,,,,,,,,,,,,
2038487,1480653293337,,,,,,,,-0.03,0.05,0.99,-3.1,0.6,-0.0,960,0,,,,,,,,,,,,,,,,,,,
2038507,1480653293357,,,,,,,,-0.03,0.04,1.0,-3.1,0.7,0.0,960,0,,,,,,,,,,,,,,,,,,,
2038527,1480653293377,,,,,60,,,-0.03,0.05,1.0,-3.1,0.7,0.0,960,0,1,0,0.0,0,37.478367,-122.203728,0.0,0.0,13.5,8,3,1.1,0,0.0,-1,0.0,,0.0,0
2038547,1480653293397,,,,,,,,-0.02,0.05,1.0,-3.1,0.6,0.1,960,0,,,,,,,,,,,,,,,,,,,
2038567,1480653293417,,,,,,,,-0.03,0.06,0.99,-3.1,0.4,0.2,960,0,,,,,,,,,,,,,,,,,,,
2038587,1480653293437,,,,,,,,-0.03,0.07,0.99,-3.2,0.3,0.2,960,0,,,,,,,,,,,,,,,,,,,
2038607,1480653293457,,,,,,,,-0.03,0.08,1.0,-3.2,0.1,0.2,960,0,,,,,,,,,,,,,,,,,,,
2038627,1480653293477,0,47.2,,51.5,60,52.9,,-0.04,0.09,1.0,-3.2,-0.0,0.3,960,0,1,0,0.0,0,37.478367,-122.203728,0.0,0.0,13.5,8,3,1.1,0,0.0,-1,0.0,0.0,0.0,0
2038647,1480653293497,,,,,,,,-0.04,0.09,1.0,-3.2,-0.0,0.3,960,0,,,,,,,,,,,,,,,,,,,
2038667,1480653293517,,,,,,,,-0.04,0.09,1.01,-3.2,0.0,0.3,960,0,,,,,,,,,,,,,,,,,,,
2038687,1480653293537,,,,,,,,-0.04,0.09,1.02,-3.2,0.2,0.3,940,0,,,,,,,,,,,,,,,,,,,
2038707,1480653293557,,,,,,,,-0.04,0.08,1.02,-3.2,0.4,0.3,940,0,,,,,,,,,,,,,,,,,,,
2038727,1480653293577,,,,,58,,,-0.04,0.08,1.02,-3.1,0.4,0.3,940,0,1,0,0.0,0,37.478367,-122.203728,0.0,0.0,13.5,8,3,1.1,0,0.0,-1,0.0,,0.0,0
2038747,1480653293597,,,,,,,,-0.04,0.08,1.01,-3.2,0.3,0.3,940,0,,,,,,,,,,,,,,,,,,,
2038767,1480653293617,,,,,,,,-0.05,0.08,1.01,-3.2,0.1,0.2,940,0,,,,,,,,,,,,,,,,,,,
2038787,1480653293637,,,,,,,,-0.05,0.08,1.01,-3.2,0.0,0.2,960,0,,,,,,,,,,,,,,,,,,,
2038807,1480653293657,,,,,,,,-0.06,0.08,1.01,-3.2,-0.1,0.1,960,0,,,,,,,,,,,,,,,,,,,
2038827,1480653293677,0,47.6,,52.4,61,52.2,,-0.05,0.07,1.01,-3.1,-0.0,0.1,960,0,1,0,0.0,0,37.478367,-122.203728,0.0,0.0,13.5,8,3,1.1,0,0.0,-1,0.0,0.0,0.0,0
2038847,1480653293697,,,,,,,,-0.06,0.07,1.01,-3.1,0.1,-0.0,960,0,,,,,,,,,,,,,,,,,,,
2038867,1480653293717,,,,,,,,-0.05,0.06,1.01,-3.1,0.3,-0.1,960,0,,,,,,,,,,,,,,,,,,,
2038887,1480653293737,,,,,,,,-0.05,0.05,1.0,-3.1,0.3,-0.1,960,0,,,,,,,,,,,,,,,,,,,
2038907,1480653293757,,,,,,,,-0.05,0.05,1.0,-3.0,0.4,-0.1,960,0,,,,,,,,,,,,,,,,,,,
2038927,1480653293777,,,,,60,,,-0.05,0.04,1.0,-3.0,0.4,-0.1,960,0,1,0,0.0,0,37.478367,-122.203728,0.0,0.0,13.5,8,3,1.1,0,0.0,-1,0.0,,0.0,0
2038947,1480653293896,,,,,,,,-0.05,0.04,0.99,-3.0,0.3,-0.1,940,0,,,,,,,,,,,,,,,,,,,
2038967,1480653293916,,,,,,,,-0.05,0.04,0.99,-3.0,0.2,-0.1,940,0,,,,,,,,,,,,,,,,,,,
2038987,1480653293936,,,,,,,,-0.05,0.04,0.98,-3.1,0.1,-0.1,940,0,,,,,,,,,,,,,,,,,,,
2039007,1480653293956,,,,,,,,-0.05,0.04,0.98,-3.1,0.1,-0.1,960,0,,,,,,,,,,,,,,,,,,,
2039027,1480653293976,0,48.6,,54.3,59,53.2,,-0.04,0.05,0.98,-3.1,0.2,-0.1,940,0,1,0,0.0,0,37.478367,-122.203728,0.0,0.0,13.5,8,3,1.1,0,0.0,-1,0.0,0.0,0.0,0
2039047,1480653293996,,,,,,,,-0.04,0.05,0.99,-3.1,0.4,-0.0,960,0,,,,,,,,,,,,,,,,,,,
2039067,1480653294016,,,,,,,,-0.03,0.05,0.99,-3.1,0.5,0.0,960,0,,,,,,,,,,,,,,,,,,,
2039087,1480653294036,,,,,,,,-0.03,0.05,1.0,-3.1,0.6,0.1,960,0,,,,,,,,,,,,,,,,,,,
2039107,1480653294056,,,,,,,,-0.03,0.05,0.99,-3.1,0.5,0.1,960,0,,,,,,,,,,,,,,,,,,,
2039127,1480653294076,,,,,61,,,-0.03,0.05,0.99,-3.1,0.3,0.1,960,0,1,0,0.0,0,37.478367,-122.203728,0.0,0.0,13.5,8,3,1.1,0,0.0,-1,0.0,,0.0,0
2039147,1480653293997,,,,,,,,-0.03,0.06,0.99,-3.1,0.1,0.2,960,0,,,,,,,,,,,,,,,,,,,
2039167,1480653294017,,,,,,,,-0.03,0.08,0.99,-3.1,-0.1,0.2,960,0,,,,,,,,,,,,,,,,,,,
2039187,1480653294037,,,,,,,,-0.04,0.09,1.0,-3.1,-0.1,0.3,960,0,,,,,,,,,,,,,,,,,,,
2039207,1480653294057,,,,,,,,-0.04,0.1,1.01,-3.1,-0.1,0.3,960,0,,,,,,,,,,,,,,,,,,,
2039227,1480653294077,0,48.2,0.0,54.0,61,52.7,14.98,-0.05,0.1,1.01,-3.2,-0.0,0.3,960,0,1,0,0.0,0,37.478367,-122.203728,0.0,0.0,13.5,8,3,1.1,0,0.0,-1,0.0,0.0,0.0,0
2039247,1480653294097,,,,,,,,-0.05,0.1,1.02,-3.1,0.0,0.3,960,0,,,,,,,,,,,,,,,,,,,
2039267,1480653294117,,,,,,,,-0.05,0.1,1.03,-3.1,0.2,0.3,980,0,,,,,,,,,,,,,,,,,,,
2039287,1480653294137,,,,,,,,-0.05,0.09,1.03,-3.1,0.3,0.3,980,0,,,,,,,,,,,,,,,,,,,
2039307,1480653294157,,,,,,,,-0.05,0.09,1.04,-3.1,0.4,0.3,980,0,,,,,,,,,,,,,,,,,,,
2039327,1480653294177,,,,,59,,,-0.05,0.09,1.03,-3.1,0.4,0.3,980,0,1,0,0.0,0,37.478367,-122.203728,0.0,0.0,13.5,8,3,1.1,0,0.0,-1,0.0,,0.0,0
2039347,1480653294197,,,,,,,,-0.05,0.09,1.03,-3.1,0.4,0.3,960,0,,,,,,,,,,,,,,,,,,,
2039367,1480653294217,,,,,,,,-0.06,0.1,1.03,-3.1,0.4,0.2,980,0,,,,,,,,,,,,,,,,,,,
2039387,1480653294237,,,,,,,,-0.06,0.1,1.02,-3.1,0.3,0.2,980,0,,,,,,,,,,,,,,,,,,,
2039407,1480653294257,,,,,,,,-0.06,0.1,1.02,-3.1,0.2,0.2,980,0,,,,,,,,,,,,,,,,,,,
2039427,1480653294277,0,48.1,,53.7,60,52.9,,-0.06,0.1,1.01,-3.1,0.1,0.2,960,0,1,0,0.0,0,37.478367,-122.203728,0.0,0.0,13.5,8,3,1.1,0,0.0,-1,0.0,0.0,0.0,0
2039447,1480653294297,,,,,,,,-0.06,0.1,1.01,-3.1,-0.0,0.1,960,0,,,,,,,,,,,,,,,,,,,
2039467,1480653294317,,,,,,,,-0.06,0.1,1.01,-3.1,-0.1,0.1,960,0,,,,,,,,,,,,,,,,,,,
2039487,1480653294337,,,,,,,,-0.06,0.1,1.01,-3.1,-0.2,0.1,960,0,,,,,,,,,,,,,,,,,,,
2039507,1480653294357,,,,,,,,-0.07,0.09,1.01,-3.1,-0.2,0.0,960,0,,,,,,,,,,,,,,,,,,,
2039527,1480653294377,,,,,60,,,-0.06,0.08,1.01,-3.1,-0.1,-0.0,980,0,1,0,0.0,0,37.478367,-122.203728,0.0,0.0,13.5,8,3,1.1,0,0.0,-1,0.0,,0.0,0
2039547,1480653294397,,,,,,,,-0.06,0.07,1.01,-3.1,0.0,-0.1,960,0,,,,,,,,,,,,,,,,,,,
2039567,1480653294417,,,,,,,,-0.06,0.07,1.01,-3.0,0.1,-0.1,960,0,,,,,,,,,,,,,,,,,,,
2039587,1480653294437,,,,,,,,-0.05,0.06,1.0,-3.0,0.3,-0.2,940,0,,,,,,,,,,,,,,,,,,,
2039607,1480653294457,,,,,,,,-0.05,0.05,1.0,-3.0,0.4,-0.2,940,0,,,,,,,,,,,,,,,,,,,
2039627,1480653294477,0,45.2,,52.1,60,54.8,,-0.05,0.05,0.99,-3.0,0.4,-0.2,940,0,1,0,0.0,0,37.478367,-122.203728,0.0,0.0,13.5,8,3,1.1,0,0.0,-1,0.0,0.0,0.0,0
2039647,1480653294497,,,,,,,,-0.05,0.05,0.99,-3.0,0.3,-0.1,960,0,,,,,,,,,,,,,,,,,,,
2039667,1480653294517,,,,,,,,-0.05,0.04,0.98,-3.0,0.2,-0.1,940,0,,,,,,,,,,,,,,,,,,,
2039687,1480653294537,,,,,,,,-0.05,0.05,0.98,-3.0,0.2,-0.1,940,0,,,,,,,,,,,,,,,,,,,
2039707,1480653294557,,,,,,,,-0.05,0.05,0.99,-3.1,0.3,-0.1,940,0,,,,,,,,,,,,,,,,,,,
2039727,1480653294577,,,,,60,,,-0.04,0.05,0.99,-3.1,0.5,-0.1,940,0,1,0,0.0,0,37.478367,-122.203728,0.0,0.0,13.5,8,3,1.1,0,0.0,-1,0.0,,0.0,0
2039747,1480653294696,,,,,,,,-0.04,0.05,0.99,-3.1,0.6,-0.0,940,0,,,,,,,,,,,,,,,,,,,
2039767,1480653294716,,,,,,,,-0.03,0.05,0.99,-3.1,0.6,0.0,940,0,,,,,,,,,,,,,,,,,,,
2039787,1480653294736,,,,,,,,-0.03,0.06,0.99,-3.1,0.5,0.1,960,0,,,,,,,,,,,,,,,,,,,
2039807,1480653294756,,,,,,,,-0.03,0.07,0.99,-3.1,0.3,0.1,940,0,,,,,,,,,,,,,,,,,,,
2039827,1480653294776,0,47.9,,53.9,61,52.7,,-0.04,0.07,0.99,-3.1,0.1,0.2,940,0,1,0,0.0,0,37.478367,-122.203728,0.0,0.0,13.5,8,3,1.1,0,0.0,-1,0.0,0.0,0.0,0
2039847,1480653294796,,,,,,,,-0.04,0.08,1.0,-3.1,-0.0,0.2,940,0,,,,,,,,,,,,,,,,,,,
2039867,1480653294816,,,,,,,,-0.05,0.08,1.0,-3.1,0.0,0.2,940,0,,,,,,,,,,,,,,,,,,,
2039887,1480653294836,,,,,,,,-0.05,0.08,1.01,-3.1,0.2,0.2,940,0,,,,,,,,,,,,,,,,,,,
2039907,1480653294856,,,,,,,,-0.05,0.08,1.01,-3.1,0.4,0.2,960,0,,,,,,,,,,,,,,,,,,,
2039927,1480653294876,,,,,59,,,-0.05,0.08,1.01,-3.1,0.3,0.2,940,0,1,0,0.0,0,37.478367,-122.203728,0.0,0.0,13.5,8,3,1.1,0,0.0,-1,0.0,,0.0,0
2039947,1480653294797,,,,,,,,-0.05,0.09,1.0,-3.1,0.3,0.2,940,0,,,,,,,,,,,,,,,,,,,
2039967,1480653294817,,,,,,,,-0.05,0.09,1.0,-3.2,0.1,0.2,940,0,,,,,,,,,,,,,,,,,,,
2039987,1480653294837,,,,,,,,-0.05,0.09,1.0,-3.1,-0.0,0.2,940,0,,,,,,,,,,,,,,,,,,,
2040007,1480653294857,,,,,,,,-0.05,0.08,1.01,-3.1,-0.0,0.1,940,0,,,,,,,,,,,,,,,,,,,
2040027,1480653294877,0,47.5,,54.8,60,55.4,,-0.05,0.07,1.01,-3.1,0.2,0.0,940,0,1,0,0.0,0,37.478367,-122.203728,0.0,0.0,13.5,8,3,1.1,0,0.0,-1,0.0,0.0,0.0,0
2040047,1480653294897,,,,,,,,-0.05,0.07,1.0,-3.1,0.3,-0.0,920,0,,,,,,,,,,,,,,,,,,,
2040067,1480653294910,,,,,,,,-0.05,0.06,1.0,-3.1,0.3,-0.1,940,0,,,,,,,,,,,,,,,,,,,
2040087,1480653294930,,,,,,,,-0.05,0.06,0.99,-3.1,0.2,-0.1,920,0,,,,,,,,,,,,,,,,,,,
2040107,1480653294950,,,,,,,,-0.05,0.06,0.99,-3.1,0.2,-0.0,920,0,,,,,,,,,,,,,,,,,,,
2040127,1480653294970,,,,,59,,,-0.05,0.05,0.99,-3.1,0.2,-0.0,940,0,1,0,0.0,0,37.478367,-122.203728,0.0,0.0,13.5,8,3,1.1,0,0.0,-1,0.0,,0.0,0
2040147,1480653294997,,,,,,,,-0.04,0.06,1.0,-3.1,0.4,-0.0,940,0,,,,,,,,,,,,,,,,,,,
2040167,1480653295017,,,,,,,,-0.04,0.05,0.99,-3.1,0.5,0.0,940,0,,,,,,,,,,,,,,,,,,,
2040187,1480653295037,,,,,,,,-0.03,0.06,0.99,-3.1,0.4,0.1,920,0,,,,,,,,,,,,,,,,,,,
2040207,1480653295057,,,,,,,,-0.03,0.06,0.99,-3.1,0.2,0.2,940,0,,,,,,,,,,,,,,,,,,,
2040227,1480653295077,0,47.8,0.0,55.2,59,55.8,14.95,-0.04,0.07,0.99,-3.2,-0.1,0.2,940,0,1,0,0.0,0,37.478367,-122.203728,0.0,0.0,13.5,8,3,1.1,0,0.0,-1,0.0,0.0,0.0,0
2040247,1480653295097,,,,,,,,-0.05,0.08,1.0,-3.2,-0.1,0.2,940,0,,,,,,,,,,,,,,,,,,,
2040267,1480653295117,,,,,,,,-0.05,0.08,1.01,-3.2,0.1,0.2,940,0,,,,,,,,,,,,,,,,,,,
2040287,1480653295137,,,,,,,,-0.05,0.07,1.01,-3.1,0.3,0.2,960,0,,,,,,,,,,,,,,,,,,,
2040307,1480653295157,,,,,,,,-0.05,0.08,1.01,-3.1,0.3,0.2,940,0,,,,,,,,,,,,,,,,,,,
2040327,1480653295177,,,,,60,,,-0.05,0.08,1.01,-3.1,0.3,0.2,940,0,1,0,0.0,0,37.478367,-122.203728,0.0,0.0,13.5,8,3,1.1,0,0.0,-1,0.0,,0.0,0
2040347,1480653295197,,,,,,,,-0.05,0.08,1.0,-3.1,0.1,0.2,940,0,,,,,,,,,,,,,,,,,,,
2040367,1480653295217,,,,,,,,-0.05,0.08,1.0,-3.1,-0.0,0.2,940,0,,,,,,,,,,,,,,,,,,,
2040387,1480653295237,,,,,,,,-0.05,0.08,1.01,-3.1,-0.0,0.1,940,0,,,,,,,,,,,,,,,,,,,
2040407,1480653295257,,,,,,,,-0.05,0.07,1.01,-3.1,0.1,0.0,960,0,,,,,,,,,,,,,,,,,,,
2040427,1480653295277,0,46.4,,54.2,60,56.0,,-0.05,0.06,1.01,-3.1,0.3,-0.0,940,0,1,0,0.0,0,37.478367,-122.203728,0.0,0.0,13.5,8,3,1.1,0,0.0,-1,0.0,0.0,0.0,0
2040447,1480653295297,,,,,,,,-0.05,0.06,1.0,-3.0,0.3,-0.1,940,0,,,,,,,,,,,,,,,,,,,
2040467,1480653295317,,,,,,,,-0.05,0.05,1.0,-3.1,0.3,-0.1,960,0,,,,,,,,,,,,,,,,,,,
2040487,1480653295337,,,,,,,,-0.05,0.05,0.99,-3.1,0.2,-0.1,960,0,,,,,,,,,,,,,,,,,,,
2040507,1480653295357,,,,,,,,-0.05,0.04,0.99,-3.1,0.1,-0.0,960,0,,,,,,,,,,,,,,,,,,,
2040527,1480653295377,,,,,60,,,-0.05,0.05,0.98,-3.1,0.1,-0.0,940,0,1,0,0.0,0,37.478367,-122.203728,0.0,0.0,13.5,8,3,1.1,0,0.0,-1,0.0,,0.0,0
2040547,1480653295496,,,,,,,,-0.05,0.05,0.98,-3.1,0.2,-0.0,960,0,,,,,,,,,,,,,,,,,,,
2040567,1480653295516,,,,,,,,-0.05,0.05,0.98,-3.1,0.4,-0.0,940,0,,,,,,,,,,,,,,,,,,,
2040587,1480653295536,,,,,,,,-0.04,0.05,0.99,-3.1,0.5,0.0,940,0,,,,,,,,,,,,,,,,,,,
2040607,1480653295556,,,,,,,,-0.04,0.06,0.98,-3.1,0.4,0.1,940,0,,,,,,,,,,,,,,,,,,,
2040627,1480653295576,0,47.3,,52.4,60,52.9,,-0.04,0.07,0.98,-3.1,0.2,0.1,940,0,1,0,0.0,0,37.478367,-122.203728,0.0,0.0,13.5,8,3,1.1,0,0.0,-1,0.0,0.0,0.0,0
2040647,1480653295596,,,,,,,,-0.04,0.08,0.99,-3.1,-0.0,0.2,940,0,,,,,,,,,,,,,,,,,,,
2040667,1480653295616,,,,,,,,-0.05,0.09,1.0,-3.2,-0.1,0.2,960,0,,,,,,,,,,,,,,,,,,,
2040687,1480653295636,,,,,,,,-0.05,0.09,1.01,-3.2,0.0,0.2,940,0,,,,,,,,,,,,,,,,,,,
2040707,1480653295656,,,,,,,,-0.05,0.08,1.02,-3.2,0.2,0.2,940,0,,,,,,,,,,,,,,,,,,,
2040727,1480653295676,,,,,59,,,-0.05,0.08,1.02,-3.1,0.4,0.2,940,0,1,0,0.0,0,37.478367,-122.203728,0.0,0.0,13.5,8,3,1.1,0,0.0,-1,0.0,,0.0,0
2040747,1480653295597,,,,,,,,-0.05,0.08,1.01,-3.1,0.4,0.2,940,0,,,,,,,,,,,,,,,,,,,
2040767,1480653295617,,,,,,,,-0.05,0.08,1.01,-3.1,0.3,0.2,940,0,,,,,,,,,,,,,,,,,,,
2040787,1480653295637,,,,,,,,-0.05,0.08,1.01,-3.2,0.1,0.1,940,0,,,,,,,,,,,,,,,,,,,
2040807,1480653295657,,,,,,,,-0.06,0.07,1.01,-3.1,0.1,0.1,940,0,,,,,,,,,,,,,,,,,,,
2040827,1480653295677,0,45.5,,51.8,59,53.8,,-0.05,0.06,1.01,-3.1,0.1,-0.0,940,0,1,0,0.0,0,37.478367,-122.203728,0.0,0.0,13.5,8,3,1.1,0,0.0,-1,0.0,0.0,0.0,0
2040847,1480653295697,,,,,,,,-0.05,0.06,1.01,-3.1,0.2,-0.1,940,0,,,,,,,,,,,,,,,,,,,
2040867,1480653295717,,,,,,,,-0.05,0.05,1.0,-3.1,0.3,-0.1,940,0,,,,,,,,,,,,,,,,,,,
2040887,1480653295737,,,,,,,,-0.05,0.04,1.0,-3.1,0.3,-0.1,940,0,,,,,,,,,,,,,,,,,,,
2040907,1480653295757,,,,,,,,-0.05,0.04,0.99,-3.1,0.2,-0.1,960,0,,,,,,,,,,,,,,,,,,,
2040927,1480653295777,,,,,61,,,-0.05,0.04,0.99,-3.1,0.1,-0.1,960,0,1,0,0.0,0,37.478367,-122.203728,0.0,0.0,13.5,8,3,1.1,0,0.0,-1,0.0,,0.0,0
2040947,1480653295797,,,,,,,,-0.05,0.05,0.98,-3.1,0.1,-0.0,940,0,,,,,,,,,,,,,,,,,,,
2040967,1480653295817,,,,,,,,-0.05,0.05,0.99,-3.1,0.2,-0.0,940,0,,,,,,,,,,,,,,,,,,,
2040987,1480653295837,,,,,,,,-0.04,0.05,0.99,-3.1,0.4,-0.0,940,0,,,,,,,,,,,,,,,,,,,
2041007,1480653295857,,,,,,,,-0.04,0.06,0.99,-3.1,0.5,0.0,940,0,,,,,,,,,,,,,,,,,,,
2041027,1480653295877,0,48.5,,55.1,60,54.8,,-0.04,0.07,0.99,-3.1,0.4,0.1,940,0,1,0,0.0,0,37.478367,-122.203728,0.0,0.0,13.5,8,3,1.1,0,0.0,-1,0.0,0.0,0.0,0
2041047,1480653295891,,,,,,,,-0.04,0.08,0.99,-3.1,0.1,0.1,940,0,,,,,,,,,,,,,,,,,,,
2041067,1480653295911,,,,,,,,-0.05,0.08,1.0,-3.2,-0.0,0.2,940,0,,,,,,,,,,,,,,,,,,,
2041087,1480653295931,,,,,,,,-0.05,0.08,1.01,-3.2,0.0,0.2,940,0,,,,,,,,,,,,,,,,,,,
2041107,1480653295951,,,,,,,,-0.05,0.08,1.02,-3.2,0.2,0.1,920,0,,,,,,,,,,,,,,,,,,,
2041127,1480653295971,,,,,59,,,-0.05,0.08,1.02,-3.2,0.4,0.1,940,0,1,0,0.0,0,37.478367,-122.203728,0.0,0.0,13.5,8,3,1.1,0,0.0,-1,0.0,,0.0,0
2041147,1480653295995,,,,,,,,-0.05,0.08,1.01,-3.1,0.3,0.1,940,0,,,,,,,,,,,,,,,,,,,
2041167,1480653296015,,,,,,,,-0.05,0.08,1.01,-3.2,0.1,0.1,940,0,,,,,,,,,,,,,,,,,,,
2041187,1480653296035,,,,,,,,-0.06,0.08,1.01,-3.2,0.0,0.0,940,0,,,,,,,,,,,,,,,,,,,
2041207,1480653296055,,,,,,,,-0.05,0.07,1.01,-3.2,0.0,-0.0,940,0,,,,,,,,,,,,,,,,,,,
2041227,1480653296075,0,46.1,0.0,54.0,59,56.1,14.97,-0.05,0.06,1.01,-3.1,0.1,-0.1,940,0,1,0,0.0,0,37.478367,-122.203728,0.0,0.0,13.5,8,3,1.1,0,0.0,-1,0.0,0.0,0.0,0
2041247,1480653296097,,,,,,,,-0.05,0.06,1.01,-3.1,0.3,-0.1,960,0,,,,,,,,,,,,,,,,,,,
2041267,1480653296117,,,,,,,,-0.05,0.05,1.0,-3.1,0.4,-0.1,940,0,,,,,,,,,,,,,,,,,,,
2041287,1480653296137,,,,,,,,-0.05,0.05,1.0,-3.1,0.3,-0.1,940,0,,,,,,,,,,,,,,,,,,,
2041307,1480653296157,,,,,,,,-0.05,0.04,0.99,-3.1,0.2,-0.1,960,0,,,,,,,,,,,,,,,,,,,
2041327,1480653296177,,,,,59,,,-0.05,0.05,0.99,-3.1,0.1,-0.1,960,0,1,0,0.0,0,37.478367,-122.203728,0.0,0.0,13.5,8,3,1.1,0,0.0,-1,0.0,,0.0,0
2041347,1480653296297,,,,,,,,-0.05,0.05,0.98,-3.1,0.1,-0.1,960,0,,,,,,,,,,,,,,,,,,,
2041367,1480653296317,,,,,,,,-0.05,0.05,0.99,-3.1,0.2,-0.1,940,0,,,,,,,,,,,,,,,,,,,
2041387,1480653296337,,,,,,,,-0.04,0.05,0.99,-3.1,0.4,-0.0,940,0,,,,,,,,,,,,,,,,,,,
2041407,1480653296357,,,,,,,,-0.04,0.05,0.99,-3.1,0.5,-0.0,960,0,,,,,,,,,,,,,,,,,,,
2041427,1480653296377,0,46.9,,52.1,61,53.0,,-0.03,0.05,1.0,-3.1,0.6,0.0,960,0,1,0,0.0,0,37.478367,-122.203728,0.0,0.0,13.5,8,3,1.1,0,0.0,-1,0.0,0.0,0.0,0
2041447,1480653296397,,,,,,,,-0.03,0.05,0.99,-3.1,0.4,0.1,960,0,,,,,,,,,,,,,,,,,,,
2041467,1480653296417,,,,,,,,-0.03,0.06,0.99,-3.1,0.2,0.1,960,0,,,,,,,,,,,,,,,,,,,
2041487,1480653296437,,,,,,,,-0.04,0.07,0.99,-3.2,-0.0,0.2,940,0,,,,,,,,,,,,,,,,,,,
2041507,1480653296457,,,,,,,,-0.04,0.08,1.0,-3.2,-0.1,0.2,940,0,,,,,,,,,,,,,,,,,,,
2041527,1480653296477,,,,,59,,,-0.05,0.08,1.0,-3.1,-0.1,0.2,940,0,1,0,0.0,0,37.478367,-122.203728,0.0,0.0,13.5,8,3,1.1,0,0.0,-1,0.0,,0.0,0
2041547,1480653296397,,,,,,,,-0.05,0.08,1.01,-3.1,0.1,0.2,940,0,,,,,,,,,,,,,,,,,,,
2041567,1480653296417,,,,,,,,-0.05,0.08,1.01,-3.1,0.2,0.2,940,0,,,,,,,,,,,,,,,,,,,
2041587,1480653296437,,,,,,,,-0.05,0.08,1.01,-3.1,0.3,0.1,940,0,,,,,,,,,,,,,,,,,,,
2041607,1480653296457,,,,,,,,-0.05,0.08,1.01,-3.1,0.2,0.2,920,0,,,,,,,,,,,,,,,,,,,
2041627,1480653296477,0,46.0,,52.4,58,54.0,,-0.05,0.09,1.0,-3.1,0.0,0.1,940,0,1,0,0.0,0,37.478367,-122.203728,0.0,0.0,13.5,8,3,1.1,0,0.0,-1,0.0,0.0,0.0,0
2041647,1480653296497,,,,,,,,-0.05,0.08,1.01,-3.1,-0.0,0.1,940,0,,,,,,,,,,,,,,,,,,,
2041667,1480653296517,,,,,,,,-0.05,0.08,1.01,-3.1,0.1,-0.0,940,0,,,,,,,,,,,,,,,,,,,
2041687,1480653296537,,,,,,,,-0.05,0.07,1.01,-3.1,0.2,-0.1,940,0,,,,,,,,,,,,,,,,,,,
2041707,1480653296557,,,,,,,,-0.05,0.06,1.0,-3.1,0.3,-0.1,940,0,,,,,,,,,,,,,,,,,,,
2041727,1480653296577,,,,,60,,,-0.05,0.05,1.0,-3.1,0.3,-0.1,940,0,1,0,0.0,0,37.478367,-122.203728,0.0,0.0,13.5,8,3,1.1,0,0.0,-1,0.0,,0.0,0
2041747,1480653296597,,,,,,,,-0.05,0.05,0.99,-3.1,0.2,-0.1,940,0,,,,,,,,,,,,,,,,,,,
2041767,1480653296617,,,,,,,,-0.05,0.05,0.99,-3.1,0.1,-0.1,940,0,,,,,,,,,,,,,,,,,,,
2041787,1480653296637,,,,,,,,-0.05,0.05,0.99,-3.1,0.2,-0.1,940,0,,,,,,,,,,,,,,,,,,,
2041807,1480653296657,,,,,,,,-0.05,0.05,0.99,-3.1,0.4,-0.0,960,0,,,,,,,,,,,,,,,,,,,
2041827,1480653296677,0,46.8,,55.1,59,56.0,,-0.04,0.05,0.99,-3.1,0.5,-0.0,940,0,1,0,0.0,0,37.478367,-122.203728,0.0,0.0,13.5,8,3,1.1,0,0.0,-1,0.0,0.0,0.0,0
2041847,1480653296697,,,,,,,,-0.04,0.05,0.99,-3.1,0.5,0.0,940,0,,,,,,,,,,,,,,,,,,,
2041867,1480653296717,,,,,,,,-0.04,0.06,0.99,-3.1,0.4,0.1,940,0,,,,,,,,,,,,,,,,,,,
2041887,1480653296737,,,,,,,,-0.04,0.07,0.99,-3.1,0.2,0.1,940,0,,,,,,,,,,,,,,,,,,,
2041907,1480653296757,,,,,,,,-0.05,0.08,1.0,-3.2,0.0,0.1,940,0,,,,,,,,,,,,,,,,,,,
2041927,1480653296777,,,,,60,,,-0.05,0.07,1.01,-3.1,0.2,0.1,940,0,1,0,0.0,0,37.478367,-122.203728,0.0,0.0,13.5,8,3,1.1,0,0.0,-1,0.0,,0.0,0
2041947,1480653296797,,,,,,,,-0.05,0.07,1.01,-3.1,0.3,0.1,940,0,,,,,,,,,,,,,,,,,,,
2041967,1480653296817,,,,,,,,-0.05,0.07,1.01,-3.1,0.5,0.1,920,0,,,,,,,,,,,,,,,,,,,
2041987,1480653296837,,,,,,,,-0.05,0.07,1.0,-3.1,0.5,0.1,920,0,,,,,,,,,,,,,,,,,,,
2042007,1480653296857,,,,,,,,-0.05,0.07,1.0,-3.1,0.3,0.1,920,0,,,,,,,,,,,,,,,,,,,
2042027,1480653296877,0,48.0,,55.7,59,55.5,,-0.05,0.07,1.01,-3.1,0.2,0.1,920,0,1,0,0.0,0,37.478367,-122.203728,0.0,0.0,13.5,8,3,1.1,0,0.0,-1,0.0,0.0,0.0,0
2042047,1480653296891,,,,,,,,-0.05,0.06,1.0,-3.1,0.2,0.0,940,0,,,,,,,,,,,,,,,,,,,
2042067,1480653296911,,,,,,,,-0.05,0.06,1.0,-3.1,0.3,-0.0,920,0,,,,,,,,,,,,,,,,,,,
2042087,1480653296931,,,,,,,,-0.05,0.06,0.99,-3.1,0.3,-0.1,920,0,,,,,,,,,,,,,,,,,,,
2042107,1480653296951,,,,,,,,-0.05,0.05,0.99,-3.1,0.3,-0.0,920,0,,,,,,,,,,,,,,,,,,,
2042127,1480653296971,,,,,60,,,-0.05,0.06,0.99,-3.1,0.2,-0.0,920,0,1,0,0.0,0,37.478367,-122.203728,0.0,0.0,13.5,8,3,1.1,0,0.0,-1,0.0,,0.0,0
2042147,1480653297097,,,,,,,,-0.05,0.06,0.99,-3.1,0.3,0.0,920,0,,,,,,,,,,,,,,,,,,,
2042167,1480653297117,,,,,,,,-0.04,0.06,0.99,-3.1,0.5,0.0,920,0,,,,,,,,,,,,,,,,,,,
2042187,1480653297137,,,,,,,,-0.04,0.06,0.99,-3.1,0.5,0.1,940,0,,,,,,,,,,,,,,,,,,,
2042207,1480653297157,,,,,,,,-0.04,0.07,0.99,-3.1,0.3,0.2,920,0,,,,,,,,,,,,,,,,,,,
2042227,1480653297177,0,45.6,0.0,52.1,58,53.8,15.0,-0.04,0.08,1.0,-3.1,0.1,0.2,940,0,1,0,0.0,0,37.478367,-122.203728,0.0,0.0,13.5,8,3,1.1,0,0.0,-1,0.0,0.0,0.0,0
2042247,1480653297197,,,,,,,,-0.05,0.09,1.01,-3.1,0.0,0.2,920,0,,,,,,,,,,,,,,,,,,,
2042267,1480653297217,,,,,,,,-0.05,0.08,1.01,-3.1,0.2,0.2,940,0,,,,,,,,,,,,,,,,,,,
2042287,1480653297237,,,,,,,,-0.05,0.08,1.01,-3.1,0.4,0.2,920,0,,,,,,,,,,,,,,,,,,,
2042307,1480653297257,,,,,,,,-0.05,0.08,1.01,-3.1,0.4,0.2,940,0,,,,,,,,,,,,,,,,,,,
2042327,1480653297277,,,,,58,,,-0.05,0.08,1.01,-3.1,0.3,0.2,920,0,1,0,0.0,0,37.478367,-122.203728,0.0,0.0,13.5,8,3,1.1,0,0.0,-1,0.0,,0.0,0
2042347,1480653297197,,,,,,,,-0.05,0.08,1.01,-3.1,0.1,0.1,920,0,,,,,,,,,,,,,,,,,,,
2042367,1480653297217,,,,,,,,-0.05,0.07,1.01,-3.1,0.2,0.1,900,0,,,,,,,,,,,,,,,,,,,
2042387,1480653297237,,,,,,,,-0.05,0.07,1.01,-3.1,0.3,0.1,900,0,,,,,,,,,,,,,,,,,,,
2042407,1480653297257,,,,,,,,-0.05,0.06,1.0,-3.1,0.3,0.0,900,0,,,,,,,,,,,,,,,,,,,
2042427,1480653297277,0,47.0,,54.9,59,55.8,,-0.05,0.07,1.0,-3.1,0.2,0.0,920,0,1,0,0.0,0,37.478367,-122.203728,0.0,0.0,13.5,8,3,1.1,0,0.0,-1,0.0,0.0,0.0,0
2042447,1480653297298,,,,,,,,-0.04,0.06,1.0,-3.1,0.3,0.0,920,0,,,,,,,,,,,,,,,,,,,
2042467,1480653297318,,,,,,,,-0.04,0.07,1.0,-3.1,0.4,0.0,920,0,,,,,,,,,,,,,,,,,,,
2042487,1480653297338,,,,,,,,-0.03,0.07,1.0,-3.1,0.4,0.1,920,0,,,,,,,,,,,,,,,,,,,
2042507,1480653297358,,,,,,,,-0.04,0.08,1.0,-3.1,0.2,0.2,920,0,,,,,,,,,,,,,,,,,,,
2042527,1480653297378,,,,,58,,,-0.04,0.08,1.01,-3.1,-0.0,0.2,920,0,1,0,0.0,0,37.478367,-122.203728,0.0,0.0,13.5,8,3,1.1,0,0.0,-1,0.0,,0.0,0
2042547,1480653297397,,,,,,,,-0.05,0.09,1.02,-3.1,0.1,0.2,920,0,,,,,,,,,,,,,,,,,,,
2042567,1480653297417,,,,,,,,-0.05,0.08,1.02,-3.1,0.3,0.2,940,0,,,,,,,,,,,,,,,,,,,
2042587,1480653297437,,,,,,,,-0.05,0.08,1.01,-3.1,0.3,0.2,920,0,,,,,,,,,,,,,,,,,,,
2042607,1480653297457,,,,,,,,-0.05,0.09,1.01,-3.1,0.2,0.1,920,0,,,,,,,,,,,,,,,,,,,
2042627,1480653297477,0,44.4,,52.0,58,54.5,,-0.05,0.08,1.01,-3.1,0.1,0.1,920,0,1,0,0.0,0,37.478367,-122.203728,0.0,0.0,13.5,8,3,1.1,0,0.0,-1,0.0,0.0,0.0,0
2042647,1480653297497,,,,,,,,-0.05,0.08,1.01,-3.1,0.1,0.0,940,0,,,,,,,,,,,,,,,,,,,
2042667,1480653297517,,,,,,,,-0.05,0.07,1.01,-3.1,0.2,-0.0,940,0,,,,,,,,,,,,,,,,,,,
2042687,1480653297537,,,,,,,,-0.05,0.07,1.0,-3.1,0.3,-0.1,940,0,,,,,,,,,,,,,,,,,,,
2042707,1480653297557,,,,,,,,-0.05,0.06,1.0,-3.1,0.2,-0.1,920,0,,,,,,,,,,,,,,,,,,,
2042727,1480653297577,,,,,58,,,-0.05,0.06,1.0,-3.1,0.1,-0.0,920,0,1,0,0.0,0,37.478367,-122.203728,0.0,0.0,13.5,8,3,1.1,0,0.0,-1,0.0,,0.0,0
2042747,1480653297597,,,,,,,,-0.05,0.06,1.0,-3.1,0.2,-0.0,920,0,,,,,,,,,,,,,,,,,,,
2042767,1480653297617,,,,,,,,-0.04,0.06,1.0,-3.1,0.4,-0.0,920,0,,,,,,,,,,,,,,,,,,,
2042787,1480653297637,,,,,,,,-0.04,0.07,1.0,-3.1,0.5,0.1,920,0,,,,,,,,,,,,,,,,,,,
2042807,1480653297657,,,,,,,,-0.03,0.07,1.0,-3.1,0.3,0.1,940,0,,,,,,,,,,,,,,,,,,,
2042827,1480653297677,0,45.5,,52.4,59,54.4,,-0.04,0.08,1.0,-3.1,0.1,0.2,940,0,1,0,0.0,0,37.478367,-122.203728,0.0,0.0,13.5,8,3,1.1,0,0.0,-1,0.0,0.0,0.0,0
2042847,1480653297697,,,,,,,,-0.04,0.09,1.01,-3.2,0.0,0.2,920,0,,,,,,,,,,,,,,,,,,,
2042867,1480653297717,,,,,,,,-0.05,0.08,1.01,-3.1,0.2,0.2,920,0,,,,,,,,,,,,,,,,,,,
2042887,1480653297737,,,,,,,,-0.05,0.08,1.02,-3.1,0.4,0.2,920,0,,,,,,,,,,,,,,,,,,,
2042907,1480653297757,,,,,,,,-0.04,0.08,1.01,-3.1,0.4,0.2,920,0,,,,,,,,,,,,,,,,,,,
2042927,1480653297777,,,,,59,,,-0.04,0.08,1.01,-3.1,0.3,0.1,920,0,1,0,0.0,0,37.478367,-122.203728,0.0,0.0,13.5,8,3,1.1,0,0.0,-1,0.0,,0.0,0
2042947,1480653297896,,,,,,,,-0.05,0.08,1.01,-3.1,0.2,0.1,920,0,,,,,,,,,,,,,,,,,,,
2042967,1480653297916,,,,,,,,-0.05,0.07,1.01,-3.1,0.3,0.0,920,0,,,,,,,,,,,,,,,,,,,
2042987,1480653297936,,,,,,,,-0.05,0.06,1.01,-3.1,0.4,-0.0,920,0,,,,,,,,,,,,,,,,,,,
2043007,1480653297956,,,,,,,,-0.05,0.06,1.0,-3.1,0.4,-0.1,920,0,,,,,,,,,,,,,,,,,,,
2043027,1480653297976,0,49.0,,56.1,58,55.1,,-0.05,0.06,1.0,-3.1,0.3,-0.1,920,0,1,0,0.0,0,37.478367,-122.203728,0.0,0.0,13.5,8,3,1.1,0,0.0,-1,0.0,0.0,0.0,0
2043047,1480653297996,,,,,,,,-0.05,0.05,1.0,-3.1,0.3,-0.0,920,0,,,,,,,,,,,,,,,,,,,
2043067,1480653298016,,,,,,,,-0.05,0.06,1.0,-3.1,0.4,-0.0,920,0,,,,,,,,,,,,,,,,,,,
2043087,1480653298036,,,,,,,,-0.04,0.05,1.0,-3.1,0.6,0.0,920,0,,,,,,,,,,,,,,,,,,,
2043107,1480653298056,,,,,,,,-0.04,0.06,1.0,-3.1,0.5,0.1,920,0,,,,,,,,,,,,,,,,,,,
2043127,1480653298076,,,,,58,,,-0.04,0.07,1.0,-3.1,0.2,0.1,920,0,1,0,0.0,0,37.478367,-122.203728,0.0,0.0,13.5,8,3,1.1,0,0.0,-1,0.0,,0.0,0
2043147,1480653297998,,,,,,,,-0.05,0.08,1.01,-3.1,0.1,0.1,920,0,,,,,,,,,,,,,,,,,,,
2043167,1480653298018,,,,,,,,-0.05,0.07,1.01,-3.1,0.2,0.1,920,0,,,,,,,,,,,,,,,,,,,
2043187,1480653298038,,,,,,,,-0.05,0.07,1.01,-3.1,0.4,0.1,920,0,,,,,,,,,,,,,,,,,,,
2043207,1480653298058,,,,,,,,-0.05,0.07,1.01,-3.1,0.4,0.1,920,0,,,,,,,,,,,,,,,,,,,
2043227,1480653298078,0,45.4,0.0,53.0,59,54.8,14.97,-0.05,0.07,1.01,-3.1,0.2,0.1,920,0,1,0,0.0,0,37.478367,-122.203728,0.0,0.0,13.5,8,3,1.1,0,0.0,-1,0.0,0.0,0.0,0
2043247,1480653298097,,,,,,,,-0.05,0.07,1.01,-3.1,0.2,0.0,920,0,,,,,,,,,,,,,,,,,,,
2043267,1480653298117,,,,,,,,-0.05,0.06,1.01,-3.0,0.3,-0.0,920,0,,,,,,,,,,,,,,,,,,,
2043287,1480653298137,,,,,,,,-0.04,0.06,1.0,-3.0,0.4,-0.0,920,0,,,,,,,,,,,,,,,,,,,
2043307,1480653298157,,,,,,,,-0.04,0.05,1.0,-3.0,0.4,-0.1,920,0,,,,,,,,,,,,,,,,,,,
2043327,1480653298177,,,,,59,,,-0.05,0.05,1.0,-3.1,0.2,-0.0,920,0,1,0,0.0,0,37.478367,-122.203728,0.0,0.0,13.5,8,3,1.1,0,0.0,-1,0.0,,0.0,0
2043347,1480653298197,,,,,,,,-0.04,0.06,1.0,-3.1,0.3,-0.0,920,0,,,,,,,,,,,,,,,,,,,
2043367,1480653298217,,,,,,,,-0.04,0.06,1.0,-3.1,0.5,-0.0,920,0,,,,,,,,,,,,,,,,,,,
2043387,1480653298237,,,,,,,,-0.03,0.06,1.0,-3.1,0.6,0.0,920,0,,,,,,,,,,,,,,,,,,,
2043407,1480653298257,,,,,,,,-0.03,0.07,1.0,-3.1,0.4,0.1,920,0,,,,,,,,,,,,,,,,,,,
2043427,1480653298277,0,46.9,,55.1,57,55.8,,-0.04,0.08,1.0,-3.1,0.2,0.1,920,0,1,0,0.0,0,37.478367,-122.203728,0.0,0.0,13.5,8,3,1.1,0,0.0,-1,0.0,0.0,0.0,0
2043447,1480653298297,,,,,,,,-0.05,0.08,1.01,-3.1,0.1,0.1,920,0,,,,,,,,,,,,,,,,,,,
2043467,1480653298317,,,,,,,,-0.05,0.08,1.02,-3.1,0.3,0.1,920,0,,,,,,,,,,,,,,,,,,,
2043487,1480653298337,,,,,,,,-0.05,0.08,1.01,-3.1,0.4,0.1,920,0,,,,,,,,,,,,,,,,,,,
2043507,1480653298357,,,,,,,,-0.05,0.08,1.01,-3.1,0.4,0.1,920,0,,,,,,,,,,,,,,,,,,,
2043527,1480653298377,,,,,58,,,-0.05,0.08,1.01,-3.1,0.2,0.1,920,0,1,0,0.0,0,37.478367,-122.203728,0.0,0.0,13.5,8,3,1.1,0,0.0,-1,0.0,,0.0,0
2043547,1480653298397,,,,,,,,-0.05,0.07,1.01,-3.1,0.2,0.0,920,0,,,,,,,,,,,,,,,,,,,
2043567,1480653298417,,,,,,,,-0.05,0.07,1.01,-3.1,0.3,-0.0,920,0,,,,,,,,,,,,,,,,,,,
2043587,1480653298437,,,,,,,,-0.04,0.06,1.0,-3.1,0.4,-0.1,940,0,,,,,,,,,,,,,,,,,,,
2043607,1480653298457,,,,,,,,-0.04,0.06,1.0,-3.1,0.3,-0.1,920,0,,,,,,,,,,,,,,,,,,,
