"Interval"|"ms"|0|0|1,"Utc"|"ms"|0|0|1,"FuelLevel"|"F"|0|100|5,"OilTemp"|"F"|0.0|300.0|5,"CoolantPressPSI"|"PSI"|0.0|20.0|1,"Coolant"|"F"|0.0|300.0|5,"OilPress"|"PSI"|0|150|10,"EngineTemp"|"F"|0.0|300.0|5,"Battery"|"Volts"|0.0|20.0|1,"AccelX"|"G"|-3.0|3.0|50,"AccelY"|"G"|-3.0|3.0|50,"AccelZ"|"G"|-3.0|3.0|50,"Yaw"|"Deg/Sec"|-300.0|300.0|50,"Pitch"|"Deg/Sec"|-300.0|300.0|50,"Roll"|"Deg/Sec"|-300.0|300.0|50,"RPM"|""|0|10000|50,"Driveshaft"|"RPM"|0|5000|50,"GPIO1"|""|0|1|10,"GPIO2"|""|0|1|10,"GearRatio"|""|-5.0|5.0|10,"Gear"|""|-1|5|10,"Latitude"|"Degrees"|-180.0|180.0|10,"Longitude"|"Degrees"|-180.0|180.0|10,"Speed"|"MPH"|0.0|150.0|10,"Distance"|"Miles"|0.0|0.0|10,"Altitude"|"Feet"|0.0|4000.0|10,"GPSSats"|""|0|20|10,"GPSQual"|""|0|5|10,"GPSDOP"|""|0.0|20.0|10,"LapCount"|""|0|0|10,"LapTime"|"Min"|0.0|0.0|10,"Sector"|""|0|0|10,"SectorTime"|"Min"|0.0|0.0|10,"PredTime"|"Min"|0.0|0.0|5,"ElapsedTime"|"Min"|0.0|0.0|10,"CurrentLap"|""|0|0|10
14775,1480908786353,,,,,,,,0.01,0.06,1.02,-3.0,-1.1,-0.6,640,32,,,,,,,,,,,,,,,,,,,
,,,,,,,,,,,,,,,,,,,,,,,,,,,,,,,,,,,
14615,1480908786193,,,,,,,,0.01,0.07,1.01,-3.1,-1.4,-0.6,660,43,,,,,,,,,,,,,,,,,,,
14635,1480908786213,,,,,,,,0.02,0.08,1.01,-3.0,-1.4,-0.5,640,1538461,,,,,,,,,,,,,,,,,,,
14655,1480908786233,0,54.9,,54.6,59,55.9,,0.01,0.07,1.02,-3.0,-1.3,-0.6,640,0,1,1,15.349,0,37.478298,-122.203941,6.07,0.0,47.8,4,2,1.8,0,0.0,-1,0.0,0.0,0.0,0
14675,1480908786253,,,,,,,,0.01,0.07,1.01,-3.0,-1.3,-0.6,640,0,,,,,,,,,,,,,,,,,,,
14695,1480908786273,,,,,,,,0.01,0.08,1.01,-3.0,-1.2,-0.5,640,32,,,,,,,,,,,,,,,,,,,
14715,1480908786293,,,,,,,,0.01,0.07,1.01,-3.0,-1.1,-0.6,640,32,,,,,,,,,,,,,,,,,,,
14735,1480908786313,,,,,,,,0.01,0.07,1.02,-3.0,-1.1,-0.6,640,32,,,,,,,,,,,,,,,,,,,
14755,1480908786333,,,,,56,,,0.01,0.08,1.01,-3.0,-1.2,-0.5,640,32,1,1,15.349,0,37.478298,-122.203957,5.91,0.0,47.1,4,2,1.8,0,0.0,-1,0.0,,0.0,0
14775,1480908786353,,,,,,,,0.01,0.06,1.02,-3.0,-1.1,-0.6,640,32,,,,,,,,,,,,,,,,,,,
14795,1480908786373,,,,,,,,0.01,0.07,1.02,-3.0,-1.1,-0.6,640,32,,,,,,,,,,,,,,,,,,,
14815,1480908786393,,,,,,,,0.01,0.07,1.01,-3.0,-1.2,-0.6,640,32,,,,,,,,,,,,,,,,,,,
14835,1480908786413,,,,,,,,0.01,0.07,1.01,-3.0,-1.2,-0.6,640,32,,,,,,,,,,,,,,,,,,,
14855,1480908786433,0,57.5,,56.6,57,59.0,,0.01,0.07,1.01,-3.0,-1.0,-0.6,620,12,1,1,20.0,0,37.478294,-122.203957,5.9,0.0,47.3,4,2,1.8,0,0.0,-1,0.0,0.0,0.0,0
14875,1480908786453,,,,,,,,0.0,0.07,1.0,-3.0,-1.0,-0.6,640,12,,,,,,,,,,,,,,,,,,,
14895,1480908786473,,,,,,,,0.01,0.06,1.01,-3.0,-1.0,-0.6,640,12,,,,,,,,,,,,,,,,,,,
14915,1480908786493,,,,,,,,0.02,0.07,1.01,-3.1,-0.8,-0.5,640,12,,,,,,,,,,,,,,,,,,,
14935,1480908786611,,,,,,,,0.02,0.06,1.01,-3.0,-0.8,-0.5,660,12,,,,,,,,,,,,,,,,,,,
14955,1480908786631,,,,,56,,,0.01,0.05,1.01,-3.0,-0.8,-0.5,660,12,1,1,53.333,0,37.478287,-122.203957,5.9,0.0,48.0,4,2,1.8,0,0.0,-1,0.0,,0.0,0
14975,1480908786651,,,,,,,,0.02,0.06,1.0,-3.1,-0.7,-0.4,680,13,,,,,,,,,,,,,,,,,,,
14995,1480908786671,,,,,,,,0.03,0.05,1.01,-3.1,-0.6,-0.4,660,13,,,,,,,,,,,,,,,,,,,
15015,1480908786691,,,,,,,,0.03,0.05,1.02,-3.1,-0.5,-0.5,660,13,,,,,,,,,,,,,,,,,,,
15035,1480908786711,,,,,,,,0.03,0.06,1.02,-3.1,-0.5,-0.5,660,13,,,,,,,,,,,,,,,,,,,
15055,1480908786731,0,57.5,2.1,56.3,57,58.1,14.86,0.03,0.06,1.02,-3.1,-0.5,-0.5,660,15,1,1,50.769,0,37.478287,-122.203957,5.9,0.0,48.0,4,2,1.8,0,0.0,-1,0.0,0.0,0.0,0
15075,1480908786751,,,,,,,,0.03,0.06,1.02,-3.0,-0.5,-0.5,660,15,,,,,,,,,,,,,,,,,,,
15095,1480908786771,,,,,,,,0.04,0.06,1.02,-3.1,-0.5,-0.5,660,18,,,,,,,,,,,,,,,,,,,
15115,1480908786791,,,,,,,,0.04,0.06,1.02,-3.1,-0.5,-0.5,660,18,,,,,,,,,,,,,,,,,,,
15135,1480908786712,,,,,,,,0.04,0.05,1.02,-3.1,-0.5,-0.5,660,18,,,,,,,,,,,,,,,,,,,
15155,1480908786732,,,,,56,,,0.04,0.06,1.02,-3.1,-0.5,-0.5,680,21,1,1,36.667,0,37.478287,-122.203972,5.86,0.0,48.2,4,2,1.8,0,0.0,-1,0.0,,0.0,0
15175,1480908786752,,,,,,,,0.05,0.07,1.02,-3.1,-0.6,-0.4,680,21,,,,,,,,,,,,,,,,,,,
15195,1480908786772,,,,,,,,0.05,0.05,1.02,-3.1,-0.6,-0.4,680,21,,,,,,,,,,,,,,,,,,,
15215,1480908786792,,,,,,,,0.05,0.06,1.02,-3.1,-0.5,-0.3,680,46,,,,,,,,,,,,,,,,,,,
15235,1480908786812,,,,,,,,0.04,0.07,1.01,-3.1,-0.7,-0.2,700,46,,,,,,,,,,,,,,,,,,,
15255,1480908786832,0,57.2,,53.9,58,60.2,,0.04,0.06,1.02,-3.1,-0.7,-0.3,720,46,1,1,32.381,0,37.478283,-122.203972,5.72,0.0,48.4,4,2,1.8,0,0.0,-1,0.0,0.0,0.0,0
15275,1480908786852,,,,,,,,0.03,0.06,1.01,-3.2,-0.6,-0.3,720,46,,,,,,,,,,,,,,,,,,,
15295,1480908786872,,,,,,,,0.02,0.07,1.0,-3.2,-0.5,-0.3,760,46,,,,,,,,,,,,,,,,,,,
15315,1480908786892,,,,,,,,0.03,0.07,1.0,-3.2,-0.5,-0.3,800,0,,,,,,,,,,,,,,,,,,,
15335,1480908786912,,,,,,,,0.02,0.07,1.0,-3.2,-0.3,-0.4,840,0,,,,,,,,,,,,,,,,,,,
15355,1480908786932,,,,,62,,,0.01,0.07,1.0,-3.2,-0.3,-0.4,840,0,1,1,16.522,0,37.478279,-122.203972,5.56,0.0,48.6,4,2,1.8,0,0.0,-1,0.0,,0.0,0
15375,1480908786952,,,,,,,,0.02,0.07,1.0,-3.2,-0.2,-0.4,860,96,,,,,,,,,,,,,,,,,,,
15395,1480908786972,,,,,,,,0.01,0.07,0.98,-3.3,-0.4,-0.4,860,96,,,,,,,,,,,,,,,,,,,
15415,1480908786992,,,,,,,,0.02,0.07,0.98,-3.3,-0.5,-0.4,860,96,,,,,,,,,,,,,,,,,,,
15435,1480908787012,,,,,,,,0.02,0.08,0.97,-3.3,-0.4,-0.4,880,15,,,,,,,,,,,,,,,,,,,
15455,1480908787032,0,58.1,,54.6,60,60.7,,0.02,0.08,0.97,-3.3,-0.6,-0.5,900,46,1,1,8.958,0,37.478279,-122.203972,5.44,0.0,48.8,4,2,1.8,0,0.0,-1,0.0,0.0,0.0,0
15475,1480908787052,,,,,,,,0.02,0.08,0.97,-3.2,-1.0,-0.6,920,61,,,,,,,,,,,,,,,,,,,
15495,1480908787072,,,,,,,,0.02,0.07,0.97,-3.2,-1.4,-0.7,920,61,,,,,,,,,,,,,,,,,,,
15515,1480908787092,,,,,,,,0.02,0.06,0.96,-3.2,-1.5,-0.8,940,61,,,,,,,,,,,,,,,,,,,
15535,1480908787112,,,,,,,,0.02,0.05,0.95,-3.1,-1.6,-0.9,960,58,,,,,,,,,,,,,,,,,,,
15555,1480908787132,,,,,59,,,0.03,0.05,0.95,-3.1,-1.9,-1.0,960,61,1,1,15.082,0,37.478275,-122.203972,5.29,0.0,49.0,4,2,1.8,0,0.0,-1,0.0,,0.0,0
15575,1480908787152,,,,,,,,0.03,0.05,0.96,-3.1,-2.2,-1.0,980,72,,,,,,,,,,,,,,,,,,,
15595,1480908787172,,,,,,,,0.03,0.05,0.97,-3.1,-2.4,-1.0,1000,81,,,,,,,,,,,,,,,,,,,
15615,1480908787192,,,,,,,,0.03,0.05,0.97,-3.1,-2.4,-1.1,1000,83,,,,,,,,,,,,,,,,,,,
15635,1480908787212,,,,,,,,0.02,0.04,0.98,-3.1,-2.4,-1.1,1020,80,,,,,,,,,,,,,,,,,,,
15655,1480908787229,0,56.9,,56.3,60,57.8,,0.01,0.04,1.0,-3.1,-2.4,-1.1,1020,73,1,1,12.346,0,37.478275,-122.203972,5.16,0.0,49.3,4,2,1.8,0,0.0,-1,0.0,0.0,0.0,0
15675,1480908787249,,,,,,,,0.01,0.03,1.0,-3.1,-2.3,-1.1,1040,69,,,,,,,,,,,,,,,,,,,
15695,1480908787269,,,,,,,,-0.0,0.03,1.0,-3.1,-2.1,-1.0,1040,66,,,,,,,,,,,,,,,,,,,
15715,1480908787289,,,,,,,,-0.01,0.03,1.01,-3.1,-2.0,-1.0,1040,66,,,,,,,,,,,,,,,,,,,
15735,1480908787411,,,,,,,,-0.02,0.03,1.02,-3.1,-1.7,-0.9,1060,66,,,,,,,,,,,,,,,,,,,
15755,1480908787431,,,,,61,,,-0.03,0.03,1.02,-3.1,-1.4,-0.9,1060,67,1,1,15.758,0,37.478272,-122.203972,2.98,0.0,49.7,4,2,1.8,0,0.0,-1,0.0,,0.0,0
15775,1480908787451,,,,,,,,-0.03,0.03,1.03,-3.0,-1.3,-0.9,1060,69,,,,,,,,,,,,,,,,,,,
15795,1480908787471,,,,,,,,-0.03,0.03,1.03,-3.0,-1.1,-0.9,1060,67,,,,,,,,,,,,,,,,,,,
15815,1480908787491,,,,,,,,-0.04,0.02,1.03,-3.0,-0.9,-0.8,1060,61,,,,,,,,,,,,,,,,,,,
15835,1480908787511,,,,,,,,-0.05,0.02,1.03,-3.0,-0.7,-0.8,1060,56,,,,,,,,,,,,,,,,,,,
15855,1480908787531,0,55.5,,55.5,60,56.9,,-0.05,0.03,1.03,-3.1,-0.6,-0.8,1060,56,1,1,15.821,0,37.478272,-122.203972,2.98,0.0,49.7,4,2,1.8,0,0.0,-1,0.0,0.0,0.0,0
15875,1480908787551,,,,,,,,-0.05,0.03,1.02,-3.1,-0.5,-0.8,1060,52,,,,,,,,,,,,,,,,,,,
15895,1480908787571,,,,,,,,-0.05,0.04,1.02,-3.1,-0.5,-0.8,1060,52,,,,,,,,,,,,,,,,,,,
15915,1480908787591,,,,,,,,-0.05,0.03,1.01,-3.1,-0.2,-0.7,1060,49,,,,,,,,,,,,,,,,,,,
15935,1480908787513,,,,,,,,-0.06,0.04,1.01,-3.2,-0.1,-0.7,1040,49,,,,,,,,,,,,,,,,,,,
15955,1480908787533,,,,,59,,,-0.06,0.04,1.01,-3.2,0.0,-0.7,1040,49,1,1,20.385,0,37.478268,-122.203972,2.73,0.0,49.8,4,2,1.8,0,0.0,-1,0.0,,0.0,0
15975,1480908787553,,,,,,,,-0.07,0.05,1.01,-3.2,0.1,-0.7,1040,47,,,,,,,,,,,,,,,,,,,
15995,1480908787573,,,,,,,,-0.07,0.05,0.99,-3.2,0.1,-0.7,1040,47,,,,,,,,,,,,,,,,,,,
16015,1480908787593,,,,,,,,-0.08,0.04,0.99,-3.2,0.1,-0.7,1040,43,,,,,,,,,,,,,,,,,,,
16035,1480908787613,,,,,,,,-0.08,0.05,0.98,-3.2,0.1,-0.7,1040,43,,,,,,,,,,,,,,,,,,,
16055,1480908787626,0,57.3,1.7,53.8,57,60.1,14.89,-0.09,0.05,0.98,-3.2,0.1,-0.7,1020,36,1,1,22.128,0,37.478268,-122.203972,1.88,0.0,49.7,4,2,1.8,0,0.0,-1,0.0,0.0,0.0,0
16075,1480908787646,,,,,,,,-0.09,0.06,0.97,-3.2,0.0,-0.7,1020,36,,,,,,,,,,,,,,,,,,,
16095,1480908787666,,,,,,,,-0.09,0.06,0.97,-3.2,-0.1,-0.7,1020,33,,,,,,,,,,,,,,,,,,,
16115,1480908787686,,,,,,,,-0.09,0.06,0.98,-3.2,-0.2,-0.7,1020,33,,,,,,,,,,,,,,,,,,,
16135,1480908787712,,,,,,,,-0.09,0.05,0.98,-3.2,-0.3,-0.7,1000,32,,,,,,,,,,,,,,,,,,,
16155,1480908787732,,,,,57,,,-0.09,0.05,0.98,-3.2,-0.5,-0.8,1000,32,1,1,30.909,0,37.478268,-122.203972,1.51,0.0,50.0,4,2,1.8,0,0.0,-1,0.0,,0.0,0
16175,1480908787752,,,,,,,,-0.09,0.04,0.98,-3.2,-0.6,-0.8,980,32,,,,,,,,,,,,,,,,,,,
16195,1480908787772,,,,,,,,-0.09,0.03,0.99,-3.1,-0.9,-0.7,980,30,,,,,,,,,,,,,,,,,,,
16215,1480908787792,,,,,,,,-0.09,0.03,0.99,-3.1,-1.1,-0.8,960,30,,,,,,,,,,,,,,,,,,,
16235,1480908787812,,,,,,,,-0.08,0.04,0.99,-3.1,-1.2,-0.8,960,30,,,,,,,,,,,,,,,,,,,
16255,1480908787832,0,58.2,,54.7,56,61.1,,-0.08,0.04,0.99,-3.1,-1.3,-0.8,960,29,1,1,32.667,0,37.478272,-122.203972,0.0,0.0,49.1,4,2,1.8,0,0.0,-1,0.0,0.0,0.0,0
16275,1480908787852,,,,,,,,-0.08,0.05,0.99,-3.1,-1.3,-0.8,960,29,,,,,,,,,,,,,,,,,,,
16295,1480908787872,,,,,,,,-0.08,0.04,0.99,-3.1,-1.4,-0.8,960,29,,,,,,,,,,,,,,,,,,,
16315,1480908787892,,,,,,,,-0.08,0.04,0.99,-3.1,-1.4,-0.8,940,29,,,,,,,,,,,,,,,,,,,
16335,1480908787912,,,,,,,,-0.08,0.03,0.99,-3.1,-1.5,-0.8,940,30,,,,,,,,,,,,,,,,,,,
16355,1480908787932,,,,,55,,,-0.08,0.02,0.98,-3.1,-1.5,-0.8,940,30,1,1,33.103,0,37.478272,-122.203972,0.0,0.0,48.4,4,2,1.8,0,0.0,-1,0.0,,0.0,0
16375,1480908787952,,,,,,,,-0.07,0.02,0.98,-3.1,-1.6,-0.8,940,30,,,,,,,,,,,,,,,,,,,
16395,1480908787972,,,,,,,,-0.07,0.02,0.98,-3.1,-1.5,-0.8,940,30,,,,,,,,,,,,,,,,,,,
16415,1480908787992,,,,,,,,-0.07,0.02,0.98,-3.0,-1.4,-0.8,940,30,,,,,,,,,,,,,,,,,,,
16435,1480908788012,,,,,,,,-0.06,0.01,0.98,-3.0,-1.3,-0.7,920,30,,,,,,,,,,,,,,,,,,,
16455,1480908788032,0,57.5,,56.7,54,59.1,,-0.05,0.02,0.98,-3.0,-1.3,-0.7,920,30,1,1,31.333,0,37.478275,-122.203972,0.0,0.0,47.8,4,2,1.8,0,0.0,-1,0.0,0.0,0.0,0
16475,1480908788052,,,,,,,,-0.05,0.02,0.98,-3.1,-1.4,-0.7,920,30,,,,,,,,,,,,,,,,,,,
16495,1480908788072,,,,,,,,-0.04,0.03,0.99,-3.1,-1.3,-0.6,920,29,,,,,,,,,,,,,,,,,,,
16515,1480908788092,,,,,,,,-0.04,0.04,0.98,-3.1,-1.1,-0.6,920,29,,,,,,,,,,,,,,,,,,,
16535,1480908788211,,,,,,,,-0.03,0.05,0.99,-3.1,-1.1,-0.5,920,30,,,,,,,,,,,,,,,,,,,
16555,1480908788231,,,,,54,,,-0.03,0.06,0.99,-3.1,-1.2,-0.5,920,30,1,1,31.724,0,37.478275,-122.203957,0.0,0.0,46.7,4,2,1.8,0,0.0,-1,0.0,,0.0,0
16575,1480908788251,,,,,,,,-0.03,0.06,1.0,-3.1,-1.2,-0.5,900,30,,,,,,,,,,,,,,,,,,,
16595,1480908788271,,,,,,,,-0.03,0.06,1.0,-3.1,-1.3,-0.5,900,30,,,,,,,,,,,,,,,,,,,
16615,1480908788291,,,,,,,,-0.03,0.06,1.0,-3.0,-1.2,-0.5,900,30,,,,,,,,,,,,,,,,,,,
16635,1480908788311,,,,,,,,-0.04,0.06,1.0,-3.0,-1.1,-0.6,900,30,,,,,,,,,,,,,,,,,,,
16655,1480908788331,0,57.4,,54.6,53,60.4,,-0.04,0.05,1.0,-3.0,-1.0,-0.7,900,30,1,1,30.0,0,37.478275,-122.203957,0.0,0.0,46.7,4,2,1.8,0,0.0,-1,0.0,0.0,0.0,0
16675,1480908788351,,,,,,,,-0.04,0.04,1.0,-3.0,-0.9,-0.7,900,30,,,,,,,,,,,,,,,,,,,
16695,1480908788371,,,,,,,,-0.03,0.04,1.0,-3.0,-1.0,-0.6,880,29,,,,,,,,,,,,,,,,,,,
16715,1480908788292,,,,,,,,-0.03,0.03,1.0,-3.0,-1.0,-0.6,880,29,,,,,,,,,,,,,,,,,,,
16735,1480908788312,,,,,,,,-0.03,0.04,0.99,-3.0,-0.8,-0.5,880,29,,,,,,,,,,,,,,,,,,,
16755,1480908788332,,,,,51,,,-0.02,0.05,0.99,-3.0,-0.7,-0.4,900,29,1,1,31.034,0,37.478279,-122.203957,0.0,0.0,46.1,4,2,1.8,0,0.0,-1,0.0,,0.0,0
16775,1480908788352,,,,,,,,-0.02,0.06,0.99,-3.1,-0.9,-0.4,900,29,,,,,,,,,,,,,,,,,,,
16795,1480908788372,,,,,,,,-0.02,0.06,1.0,-3.1,-1.1,-0.4,900,29,,,,,,,,,,,,,,,,,,,
16815,1480908788392,,,,,,,,-0.03,0.06,1.0,-3.1,-1.2,-0.4,900,29,,,,,,,,,,,,,,,,,,,
16835,1480908788412,,,,,,,,-0.03,0.05,0.99,-3.1,-1.2,-0.4,900,29,,,,,,,,,,,,,,,,,,,
16855,1480908788432,0,58.8,,56.4,52,60.7,,-0.03,0.04,0.99,-3.0,-1.2,-0.5,900,27,1,1,31.034,0,37.478279,-122.203957,0.0,0.0,45.6,4,2,1.8,0,0.0,-1,0.0,0.0,0.0,0
16875,1480908788452,,,,,,,,-0.03,0.03,0.99,-3.0,-1.0,-0.5,900,27,,,,,,,,,,,,,,,,,,,
16895,1480908788472,,,,,,,,-0.03,0.03,0.99,-3.0,-1.0,-0.5,900,27,,,,,,,,,,,,,,,,,,,
16915,1480908788492,,,,,,,,-0.02,0.03,0.98,-3.0,-1.1,-0.4,900,27,,,,,,,,,,,,,,,,,,,
16935,1480908788512,,,,,,,,-0.02,0.03,0.99,-3.0,-1.1,-0.3,900,27,,,,,,,,,,,,,,,,,,,
16955,1480908788532,,,,,54,,,-0.01,0.04,0.98,-3.0,-1.0,-0.3,900,27,1,1,33.333,0,37.478279,-122.203957,0.0,0.0,45.0,4,2,1.8,0,0.0,-1,0.0,,0.0,0
16975,1480908788552,,,,,,,,0.0,0.06,0.99,-3.1,-0.9,-0.2,920,27,,,,,,,,,,,,,,,,,,,
16995,1480908788572,,,,,,,,0.0,0.07,0.98,-3.1,-1.0,-0.2,900,27,,,,,,,,,,,,,,,,,,,
17015,1480908788593,,,,,,,,0.0,0.07,0.99,-3.1,-1.2,-0.2,920,29,,,,,,,,,,,,,,,,,,,
17035,1480908788613,,,,,,,,0.0,0.08,0.99,-3.1,-1.3,-0.3,920,29,,,,,,,,,,,,,,,,,,,
17055,1480908788633,0,55.5,0.8,52.6,56,56.4,14.92,-0.0,0.08,0.99,-3.1,-1.2,-0.3,920,30,1,1,33.333,0,37.478283,-122.203957,0.0,0.0,44.2,4,2,1.8,0,0.0,-1,0.0,0.0,0.0,0
17075,1480908788653,,,,,,,,-0.01,0.08,0.99,-3.2,-1.1,-0.5,920,30,,,,,,,,,,,,,,,,,,,
17095,1480908788673,,,,,,,,-0.01,0.07,0.97,-3.2,-1.1,-0.6,920,33,,,,,,,,,,,,,,,,,,,
17115,1480908788692,,,,,,,,-0.01,0.06,0.98,-3.2,-1.0,-0.6,920,33,,,,,,,,,,,,,,,,,,,
17135,1480908788712,,,,,,,,0.0,0.05,0.97,-3.2,-0.8,-0.7,920,38,,,,,,,,,,,,,,,,,,,
17155,1480908788732,,,,,55,,,0.01,0.05,0.97,-3.2,-0.7,-0.8,920,38,1,1,27.879,0,37.478283,-122.203957,0.0,0.0,43.6,4,2,1.8,0,0.0,-1,0.0,,0.0,0
17175,1480908788752,,,,,,,,0.02,0.05,0.96,-3.2,-0.7,-0.8,920,40,,,,,,,,,,,,,,,,,,,
17195,1480908788772,,,,,,,,0.02,0.05,0.96,-3.2,-0.5,-0.8,920,40,,,,,,,,,,,,,,,,,,,
17215,1480908788792,,,,,,,,0.02,0.05,0.96,-3.2,-0.3,-0.7,920,43,,,,,,,,,,,,,,,,,,,
17235,1480908788812,,,,,,,,0.03,0.04,0.97,-3.2,-0.3,-0.7,920,46,,,,,,,,,,,,,,,,,,,
17255,1480908788832,0,58.7,,56.7,55,60.7,,0.05,0.05,0.98,-3.1,-0.1,-0.8,920,46,1,1,23.0,0,37.478283,-122.203957,0.0,0.0,43.6,4,2,1.8,0,0.0,-1,0.0,0.0,0.0,0
17275,1480908788852,,,,,,,,0.05,0.06,0.97,-3.0,-0.1,-0.8,920,50,,,,,,,,,,,,,,,,,,,
17295,1480908788872,,,,,,,,0.06,0.06,0.99,-3.0,-0.2,-0.9,920,53,,,,,,,,,,,,,,,,,,,
17315,1480908788892,,,,,,,,0.05,0.06,0.98,-2.9,-0.0,-0.9,920,56,,,,,,,,,,,,,,,,,,,
17335,1480908789006,,,,,,,,0.06,0.06,0.99,-2.8,0.2,-0.9,900,63,,,,,,,,,,,,,,,,,,,
17355,1480908789026,,,,,54,,,0.06,0.05,0.98,-2.8,0.3,-0.9,900,72,1,1,17.358,0,37.478283,-122.203957,0.0,0.0,43.6,4,2,1.8,0,0.0,-1,0.0,,0.0,0
17375,1480908789046,,,,,,,,0.06,0.04,0.98,-2.7,0.5,-0.8,900,78,,,,,,,,,,,,,,,,,,,
17395,1480908789066,,,,,,,,0.07,0.03,0.98,-2.6,0.8,-0.6,900,81,,,,,,,,,,,,,,,,,,,
17415,1480908789086,,,,,,,,0.07,0.02,0.98,-2.6,1.0,-0.4,900,83,,,,,,,,,,,,,,,,,,,
17435,1480908789106,,,,,,,,0.08,0.02,0.97,-2.5,1.2,-0.1,900,84,,,,,,,,,,,,,,,,,,,
17455,1480908789126,1,57.6,,56.9,54,60.9,,0.08,0.02,0.97,-2.5,1.4,0.1,900,84,1,1,11.111,0,37.478283,-122.203957,0.0,0.0,43.6,4,2,1.8,0,0.0,-1,0.0,0.0,0.0,0
17475,1480908789146,,,,,,,,0.07,0.03,0.97,-2.5,1.8,0.4,900,83,,,,,,,,,,,,,,,,,,,
17495,1480908789166,,,,,,,,0.07,0.04,0.98,-2.6,2.2,0.6,900,81,,,,,,,,,,,,,,,,,,,
17515,1480908789092,,,,,,,,0.07,0.05,0.98,-2.7,2.3,0.7,880,80,,,,,,,,,,,,,,,,,,,
17535,1480908789112,,,,,,,,0.06,0.05,1.0,-2.8,2.3,0.7,880,78,,,,,,,,,,,,,,,,,,,
17555,1480908789132,,,,,54,,,0.04,0.05,1.01,-3.0,2.3,0.5,900,78,1,1,11.111,0,37.478283,-122.203957,0.0,0.0,43.6,4,2,1.8,0,0.0,-1,0.0,,0.0,0
17575,1480908789152,,,,,,,,0.03,0.05,1.01,-3.0,2.2,0.3,900,78,,,,,,,,,,,,,,,,,,,
17595,1480908789172,,,,,,,,0.02,0.05,1.01,-3.1,2.2,0.1,880,80,,,,,,,,,,,,,,,,,,,
17615,1480908789192,,,,,,,,0.01,0.05,1.01,-3.0,2.3,-0.0,880,83,,,,,,,,,,,,,,,,,,,
17635,1480908789212,,,,,,,,0.01,0.04,1.01,-3.0,2.2,-0.1,880,86,,,,,,,,,,,,,,,,,,,
17655,1480908789232,2,58.7,,56.3,54,60.5,,0.0,0.05,1.01,-3.0,1.9,-0.0,880,86,1,1,11.0,0,37.478283,-122.203957,0.0,0.0,43.6,4,2,1.8,0,0.0,-1,0.0,0.0,0.0,0
17675,1480908789252,,,,,,,,-0.0,0.05,1.01,-3.0,1.8,-0.0,880,86,,,,,,,,,,,,,,,,,,,
17695,1480908789272,,,,,,,,-0.01,0.07,1.01,-3.0,1.9,-0.0,880,84,,,,,,,,,,,,,,,,,,,
17715,1480908789292,,,,,,,,-0.01,0.07,1.01,-2.9,1.6,-0.1,880,84,,,,,,,,,,,,,,,,,,,
17735,1480908789312,,,,,,,,-0.02,0.07,1.02,-2.9,1.2,-0.2,880,83,,,,,,,,,,,,,,,,,,,
17755,1480908789332,,,,,53,,,-0.03,0.07,1.01,-2.9,1.0,-0.4,880,81,1,1,10.476,0,37.478287,-122.203957,1.04,0.0,40.3,4,2,1.8,0,0.0,-1,0.0,,0.0,0
17775,1480908789352,,,,,,,,-0.04,0.06,1.0,-2.9,0.9,-0.5,880,81,,,,,,,,,,,,,,,,,,,
17795,1480908789372,,,,,,,,-0.05,0.05,1.01,-2.9,0.9,-0.7,900,80,,,,,,,,,,,,,,,,,,,
17815,1480908789392,,,,,,,,-0.06,0.04,1.0,-3.0,0.9,-0.8,900,78,,,,,,,,,,,,,,,,,,,
17835,1480908789412,,,,,,,,-0.05,0.04,1.0,-3.0,0.7,-0.8,900,78,,,,,,,,,,,,,,,,,,,
17855,1480908789432,0,56.7,,52.8,54,57.2,,-0.05,0.04,1.0,-3.1,0.6,-0.7,900,76,1,1,11.25,0,37.478287,-122.203957,1.13,0.0,39.6,4,2,1.8,0,0.0,-1,0.0,0.0,0.0,0
17875,1480908789452,,,,,,,,-0.06,0.04,0.99,-3.1,0.7,-0.7,900,76,,,,,,,,,,,,,,,,,,,
17895,1480908789472,,,,,,,,-0.06,0.05,0.99,-3.1,0.8,-0.5,900,76,,,,,,,,,,,,,,,,,,,
17915,1480908789493,,,,,,,,-0.06,0.06,0.98,-3.1,0.7,-0.4,900,78,,,,,,,,,,,,,,,,,,,
17935,1480908789513,,,,,,,,-0.06,0.06,0.99,-3.0,0.5,-0.4,900,76,,,,,,,,,,,,,,,,,,,
17955,1480908789533,,,,,54,,,-0.07,0.06,0.99,-3.0,0.5,-0.4,900,75,1,1,11.842,0,37.478287,-122.203957,1.17,0.0,39.1,4,2,1.8,0,0.0,-1,0.0,,0.0,0
17975,1480908789553,,,,,,,,-0.08,0.06,0.99,-2.9,0.5,-0.3,900,73,,,,,,,,,,,,,,,,,,,
17995,1480908789573,,,,,,,,-0.09,0.06,0.99,-2.8,0.5,-0.3,900,73,,,,,,,,,,,,,,,,,,,
18015,1480908789593,,,,,,,,-0.09,0.06,1.0,-2.8,0.7,-0.4,880,72,,,,,,,,,,,,,,,,,,,
18035,1480908789613,,,,,,,,-0.09,0.05,1.0,-2.8,0.7,-0.3,880,70,,,,,,,,,,,,,,,,,,,
18055,1480908789633,1,57.0,1.3,56.7,55,59.9,14.88,-0.09,0.06,1.0,-2.8,0.5,-0.3,880,70,1,1,12.329,0,37.478287,-122.203957,1.24,0.0,38.6,4,2,1.8,0,0.0,-1,0.0,0.0,0.0,0
18075,1480908789653,,,,,,,,-0.09,0.05,1.0,-2.9,0.6,-0.2,880,70,,,,,,,,,,,,,,,,,,,
18095,1480908789673,,,,,,,,-0.08,0.07,1.0,-2.9,0.8,-0.2,900,67,,,,,,,,,,,,,,,,,,,
18115,1480908789792,,,,,,,,-0.08,0.08,1.0,-3.0,0.8,-0.1,900,66,,,,,,,,,,,,,,,,,,,
18135,1480908789812,,,,,,,,-0.08,0.08,1.01,-3.1,0.6,-0.1,900,66,,,,,,,,,,,,,,,,,,,
18155,1480908789832,,,,,54,,,-0.08,0.08,1.02,-3.1,0.4,-0.1,880,64,1,1,13.433,0,37.478287,-122.203957,1.36,0.0,37.7,4,2,1.8,0,0.0,-1,0.0,,0.0,0
18175,1480908789852,,,,,,,,-0.09,0.08,1.02,-3.2,0.4,-0.2,880,64,,,,,,,,,,,,,,,,,,,
18195,1480908789872,,,,,,,,-0.1,0.07,1.0,-3.2,0.5,-0.2,880,63,,,,,,,,,,,,,,,,,,,
18215,1480908789892,,,,,,,,-0.11,0.06,1.0,-3.2,0.5,-0.3,880,63,,,,,,,,,,,,,,,,,,,
18235,1480908789912,,,,,,,,-0.1,0.06,0.99,-3.2,0.5,-0.3,880,61,,,,,,,,,,,,,,,,,,,
18255,1480908789932,1,54.8,,54.0,52,57.3,,-0.1,0.05,0.99,-3.2,0.4,-0.4,880,61,1,1,13.968,0,37.478287,-122.203957,1.36,0.0,37.7,4,2,1.8,0,0.0,-1,0.0,0.0,0.0,0
18275,1480908789952,,,,,,,,-0.1,0.06,0.98,-3.1,0.3,-0.5,880,61,,,,,,,,,,,,,,,,,,,
18295,1480908789972,,,,,,,,-0.1,0.07,0.98,-3.1,0.4,-0.5,880,60,,,,,,,,,,,,,,,,,,,
18315,1480908789992,,,,,,,,-0.09,0.07,0.98,-3.1,0.2,-0.5,880,58,,,,,,,,,,,,,,,,,,,
18335,1480908789906,,,,,,,,-0.09,0.07,0.99,-3.0,0.0,-0.6,880,58,,,,,,,,,,,,,,,,,,,
18355,1480908789926,,,,,53,,,-0.1,0.06,1.0,-3.0,-0.1,-0.8,880,58,1,1,14.667,0,37.478287,-122.203957,1.21,0.0,37.9,4,2,1.8,0,0.0,-1,0.0,,0.0,0
18375,1480908789946,,,,,,,,-0.11,0.05,0.99,-3.0,-0.1,-0.9,880,58,,,,,,,,,,,,,,,,,,,
18395,1480908789966,,,,,,,,-0.1,0.05,0.99,-3.0,0.0,-0.9,860,58,,,,,,,,,,,,,,,,,,,
18415,1480908789991,,,,,,,,-0.1,0.06,0.99,-3.0,-0.1,-0.8,880,56,,,,,,,,,,,,,,,,,,,
18435,1480908790011,,,,,,,,-0.09,0.06,0.99,-3.1,-0.1,-0.6,880,56,,,,,,,,,,,,,,,,,,,
18455,1480908790031,0,54.9,,53.1,53,56.6,,-0.09,0.06,1.0,-3.1,0.0,-0.5,860,56,1,1,14.828,0,37.478287,-122.203957,1.21,0.0,37.6,5,2,2.3,0,0.0,-1,0.0,0.0,0.0,0
18475,1480908790051,,,,,,,,-0.08,0.07,1.0,-3.1,0.1,-0.4,880,55,,,,,,,,,,,,,,,,,,,
18495,1480908790071,,,,,,,,-0.09,0.07,1.01,-3.1,-0.0,-0.3,880,55,,,,,,,,,,,,,,,,,,,
18515,1480908790091,,,,,,,,-0.09,0.07,1.0,-3.1,-0.1,-0.4,880,56,,,,,,,,,,,,,,,,,,,
18535,1480908790108,,,,,,,,-0.09,0.07,0.99,-3.1,-0.0,-0.5,860,55,,,,,,,,,,,,,,,,,,,
18555,1480908790128,,,,,52,,,-0.1,0.06,1.0,-3.1,0.1,-0.7,860,55,1,1,16.0,0,37.478287,-122.203941,1.08,0.0,37.3,5,2,2.3,0,0.0,-1,0.0,,0.0,0
18575,1480908790148,,,,,,,,-0.09,0.06,1.0,-3.1,0.2,-0.7,860,55,,,,,,,,,,,,,,,,,,,
18595,1480908790168,,,,,,,,-0.09,0.05,1.0,-3.1,-0.0,-0.6,860,55,,,,,,,,,,,,,,,,,,,
18615,1480908790191,,,,,,,,-0.09,0.06,1.0,-3.1,-0.1,-0.5,860,53,,,,,,,,,,,,,,,,,,,
18635,1480908790211,,,,,,,,-0.09,0.07,1.0,-3.0,0.2,-0.5,880,53,,,,,,,,,,,,,,,,,,,
18655,1480908790231,0,55.1,,53.4,52,56.6,,-0.09,0.07,1.0,-3.0,0.2,-0.5,880,53,1,1,15.636,0,37.478287,-122.203941,1.03,0.0,37.2,5,2,2.3,0,0.0,-1,0.0,0.0,0.0,0
18675,1480908790251,,,,,,,,-0.09,0.07,1.01,-3.0,-0.0,-0.5,860,53,,,,,,,,,,,,,,,,,,,
18695,1480908790271,,,,,,,,-0.09,0.07,1.02,-3.0,-0.2,-0.6,860,52,,,,,,,,,,,,,,,,,,,
18715,1480908790291,,,,,,,,-0.1,0.06,1.02,-3.0,-0.1,-0.6,860,52,,,,,,,,,,,,,,,,,,,
18735,1480908790311,,,,,,,,-0.1,0.05,1.01,-3.0,0.1,-0.6,860,52,,,,,,,,,,,,,,,,,,,
18755,1480908790331,,,,,50,,,-0.1,0.05,1.01,-3.0,0.1,-0.6,860,50,1,1,16.538,0,37.478287,-122.203941,1.02,0.0,37.2,5,2,2.3,0,0.0,-1,0.0,,0.0,0
18775,1480908790351,,,,,,,,-0.1,0.06,1.0,-3.0,-0.0,-0.5,860,50,,,,,,,,,,,,,,,,,,,
18795,1480908790371,,,,,,,,-0.1,0.07,1.0,-3.0,0.1,-0.4,860,49,,,,,,,,,,,,,,,,,,,
18815,1480908790391,,,,,,,,-0.1,0.07,1.0,-3.0,0.1,-0.4,860,49,,,,,,,,,,,,,,,,,,,
18835,1480908790411,,,,,,,,-0.1,0.07,1.01,-3.0,0.1,-0.4,860,49,,,,,,,,,,,,,,,,,,,
18855,1480908790431,0,58.5,,57.5,51,60.9,,-0.1,0.07,1.02,-2.9,0.0,-0.6,860,47,1,1,17.551,0,37.478287,-122.203941,0.99,0.0,37.6,5,2,2.3,0,0.0,-1,0.0,0.0,0.0,0
18875,1480908790451,,,,,,,,-0.11,0.06,1.01,-2.9,0.0,-0.7,860,47,,,,,,,,,,,,,,,,,,,
18895,1480908790471,,,,,,,,-0.11,0.06,1.01,-2.9,0.2,-0.7,860,46,,,,,,,,,,,,,,,,,,,
18915,1480908790491,,,,,,,,-0.1,0.06,1.0,-2.9,0.1,-0.6,860,46,,,,,,,,,,,,,,,,,,,
18935,1480908790610,,,,,,,,-0.11,0.06,1.0,-2.9,-0.1,-0.6,860,46,,,,,,,,,,,,,,,,,,,
18955,1480908790630,,,,,50,,,-0.11,0.06,0.99,-2.9,0.2,-0.6,840,44,1,1,18.696,0,37.478287,-122.203941,1.37,0.0,37.7,5,2,2.3,0,0.0,-1,0.0,,0.0,0
18975,1480908790650,,,,,,,,-0.1,0.06,0.97,-3.0,0.2,-0.5,840,44,,,,,,,,,,,,,,,,,,,
18995,1480908790670,,,,,,,,-0.11,0.06,0.98,-3.0,0.1,-0.5,840,44,,,,,,,,,,,,,,,,,,,
19015,1480908790690,,,,,,,,-0.11,0.06,0.97,-3.0,-0.1,-0.5,840,44,,,,,,,,,,,,,,,,,,,
19035,1480908790710,,,,,,,,-0.11,0.04,0.97,-3.0,-0.1,-0.5,840,44,,,,,,,,,,,,,,,,,,,
19055,1480908790730,1,58.7,2.3,57.2,50,60.7,14.82,-0.1,0.04,0.96,-3.1,-0.1,-0.5,840,44,1,1,19.091,0,37.478287,-122.203941,1.37,0.0,37.7,5,2,2.3,0,0.0,-1,0.0,0.0,0.0,0
19075,1480908790750,,,,,,,,-0.1,0.05,0.96,-3.1,-0.1,-0.4,840,44,,,,,,,,,,,,,,,,,,,
19095,1480908790770,,,,,,,,-0.1,0.05,0.96,-3.2,0.1,-0.3,840,46,,,,,,,,,,,,,,,,,,,
19115,1480908790790,,,,,,,,-0.09,0.05,0.96,-3.2,0.1,-0.3,840,47,,,,,,,,,,,,,,,,,,,
19135,1480908790710,,,,,,,,-0.1,0.05,0.96,-3.2,0.1,-0.3,840,47,,,,,,,,,,,,,,,,,,,
19155,1480908790730,,,,,51,,,-0.1,0.06,0.95,-3.2,-0.1,-0.4,840,47,1,1,18.261,0,37.478287,-122.203941,1.28,0.0,38.1,5,2,2.3,0,0.0,-1,0.0,,0.0,0
19175,1480908790750,,,,,,,,-0.1,0.04,0.95,-3.1,-0.0,-0.5,840,47,,,,,,,,,,,,,,,,,,,
19195,1480908790770,,,,,,,,-0.09,0.05,0.95,-3.1,0.0,-0.4,840,47,,,,,,,,,,,,,,,,,,,
19215,1480908790791,,,,,,,,-0.09,0.05,0.95,-3.1,-0.1,-0.4,840,47,,,,,,,,,,,,,,,,,,,
19235,1480908790811,,,,,,,,-0.09,0.05,0.94,-3.1,0.1,-0.4,840,49,,,,,,,,,,,,,,,,,,,
19255,1480908790831,0,57.5,,53.4,52,57.2,,-0.09,0.05,0.94,-3.1,0.1,-0.4,840,49,1,1,17.872,0,37.478287,-122.203941,1.61,0.0,38.1,5,2,2.3,0,0.0,-1,0.0,0.0,0.0,0
19275,1480908790851,,,,,,,,-0.1,0.05,0.95,-3.1,0.0,-0.5,840,49,,,,,,,,,,,,,,,,,,,
19295,1480908790871,,,,,,,,-0.1,0.06,0.95,-3.1,-0.2,-0.6,840,49,,,,,,,,,,,,,,,,,,,
19315,1480908790891,,,,,,,,-0.11,0.05,0.95,-3.1,-0.1,-0.6,840,49,,,,,,,,,,,,,,,,,,,
19335,1480908790905,,,,,,,,-0.1,0.05,0.95,-3.1,-0.1,-0.5,840,49,,,,,,,,,,,,,,,,,,,
19355,1480908790925,,,,,52,,,-0.1,0.05,0.95,-3.1,-0.2,-0.5,840,49,1,1,17.143,0,37.478287,-122.203941,1.66,0.0,38.4,5,2,2.3,0,0.0,-1,0.0,,0.0,0
19375,1480908790945,,,,,,,,-0.1,0.05,0.96,-3.1,0.0,-0.5,840,47,,,,,,,,,,,,,,,,,,,
19395,1480908790965,,,,,,,,-0.1,0.05,0.97,-3.2,0.1,-0.4,840,47,,,,,,,,,,,,,,,,,,,
19415,1480908790991,,,,,,,,-0.1,0.05,0.99,-3.1,-0.1,-0.5,820,47,,,,,,,,,,,,,,,,,,,
19435,1480908791011,,,,,,,,-0.11,0.05,0.99,-3.1,-0.2,-0.6,840,46,,,,,,,,,,,,,,,,,,,
19455,1480908791031,1,56.3,,56.4,54,61.0,,-0.11,0.05,1.0,-3.1,0.1,-0.6,840,46,1,1,17.872,0,37.478291,-122.203941,1.18,0.0,38.5,5,2,2.3,0,0.0,-1,0.0,0.0,0.0,0
19475,1480908791051,,,,,,,,-0.1,0.05,1.0,-3.1,-0.1,-0.6,840,46,,,,,,,,,,,,,,,,,,,
19495,1480908791071,,,,,,,,-0.1,0.06,1.0,-3.2,-0.1,-0.5,840,44,,,,,,,,,,,,,,,,,,,
19515,1480908791091,,,,,,,,-0.1,0.06,1.0,-3.2,-0.1,-0.4,840,44,,,,,,,,,,,,,,,,,,,
19535,1480908791111,,,,,,,,-0.09,0.07,1.01,-3.1,-0.1,-0.5,840,44,,,,,,,,,,,,,,,,,,,
19555,1480908791131,,,,,53,,,-0.1,0.06,1.01,-3.1,-0.2,-0.5,840,44,1,1,19.091,0,37.478291,-122.203941,1.0,0.0,38.9,5,2,2.3,0,0.0,-1,0.0,,0.0,0
19575,1480908791151,,,,,,,,-0.1,0.06,1.01,-3.1,-0.2,-0.6,840,44,,,,,,,,,,,,,,,,,,,
19595,1480908791171,,,,,,,,-0.1,0.05,1.01,-3.1,0.0,-0.6,840,44,,,,,,,,,,,,,,,,,,,
19615,1480908791191,,,,,,,,-0.1,0.05,1.01,-3.2,-0.3,-0.5,840,44,,,,,,,,,,,,,,,,,,,
19635,1480908791211,,,,,,,,-0.1,0.06,1.02,-3.2,-0.2,-0.5,860,44,,,,,,,,,,,,,,,,,,,
19655,1480908791231,0,54.8,,54.2,53,60.0,,-0.09,0.06,1.02,-3.2,-0.1,-0.4,840,44,1,1,19.091,0,37.478291,-122.203941,0.92,0.0,39.4,5,2,2.3,0,0.0,-1,0.0,0.0,0.0,0
19675,1480908791251,,,,,,,,-0.09,0.07,1.02,-3.2,-0.1,-0.5,840,44,,,,,,,,,,,,,,,,,,,
19695,1480908791271,,,,,,,,-0.09,0.07,1.02,-3.2,-0.3,-0.5,840,44,,,,,,,,,,,,,,,,,,,
19715,1480908791291,,,,,,,,-0.1,0.06,1.01,-3.2,-0.1,-0.6,840,43,,,,,,,,,,,,,,,,,,,
19735,1480908791410,,,,,,,,-0.09,0.06,1.0,-3.2,0.0,-0.6,840,43,,,,,,,,,,,,,,,,,,,
19755,1480908791430,,,,,54,,,-0.09,0.06,1.01,-3.2,-0.2,-0.5,840,43,1,1,19.091,0,37.478291,-122.203941,0.0,0.0,40.6,5,2,2.3,0,0.0,-1,0.0,,0.0,0
19775,1480908791450,,,,,,,,-0.09,0.06,1.01,-3.2,-0.1,-0.4,820,44,,,,,,,,,,,,,,,,,,,
19795,1480908791470,,,,,,,,-0.09,0.06,1.02,-3.2,-0.2,-0.3,840,44,,,,,,,,,,,,,,,,,,,
19815,1480908791490,,,,,,,,-0.09,0.05,1.03,-3.2,-0.3,-0.4,840,44,,,,,,,,,,,,,,,,,,,
19835,1480908791510,,,,,,,,-0.1,0.05,1.03,-3.2,-0.4,-0.5,840,44,,,,,,,,,,,,,,,,,,,
19855,1480908791530,1,57.2,,56.9,54,60.4,,-0.09,0.05,1.02,-3.2,-0.2,-0.5,820,44,1,1,19.091,0,37.478291,-122.203941,0.0,0.0,40.6,5,2,2.3,0,0.0,-1,0.0,0.0,0.0,0
19875,1480908791550,,,,,,,,-0.09,0.05,1.01,-3.2,-0.2,-0.4,820,44,,,,,,,,,,,,,,,,,,,
19895,1480908791570,,,,,,,,-0.09,0.05,1.01,-3.2,-0.1,-0.4,820,44,,,,,,,,,,,,,,,,,,,
19915,1480908791590,,,,,,,,-0.09,0.05,1.0,-3.2,-0.0,-0.3,820,46,,,,,,,,,,,,,,,,,,,
19935,1480908791508,,,,,,,,-0.09,0.05,1.01,-3.2,-0.1,-0.4,820,46,,,,,,,,,,,,,,,,,,,
19955,1480908791528,,,,,54,,,-0.1,0.05,1.02,-3.2,-0.3,-0.5,820,46,1,1,18.636,0,37.478291,-122.203941,0.0,0.0,40.8,5,2,2.3,0,0.0,-1,0.0,,0.0,0
19975,1480908791548,,,,,,,,-0.1,0.05,1.02,-3.2,-0.2,-0.5,820,47,,,,,,,,,,,,,,,,,,,
19995,1480908791568,,,,,,,,-0.1,0.06,1.0,-3.2,-0.2,-0.5,820,47,,,,,,,,,,,,,,,,,,,
20015,1480908791591,,,,,,,,-0.1,0.06,1.0,-3.2,-0.3,-0.5,820,47,,,,,,,,,,,,,,,,,,,
20035,1480908791611,,,,,,,,-0.09,0.07,1.0,-3.2,-0.3,-0.4,820,47,,,,,,,,,,,,,,,,,,,
20055,1480908791631,0,56.3,1.0,53.1,53,58.2,14.88,-0.09,0.07,1.01,-3.2,-0.2,-0.5,820,47,1,1,17.447,0,37.478291,-122.203941,0.0,0.0,41.0,5,2,2.3,0,0.0,-1,0.0,0.0,0.0,0
20075,1480908791651,,,,,,,,-0.09,0.06,1.01,-3.2,-0.4,-0.6,820,49,,,,,,,,,,,,,,,,,,,
20095,1480908791671,,,,,,,,-0.09,0.06,1.0,-3.2,-0.3,-0.6,820,50,,,,,,,,,,,,,,,,,,,
20115,1480908791691,,,,,,,,-0.09,0.06,1.0,-3.2,-0.2,-0.5,820,50,,,,,,,,,,,,,,,,,,,
20135,1480908791711,,,,,,,,-0.09,0.06,1.0,-3.2,-0.1,-0.5,820,50,,,,,,,,,,,,,,,,,,,
20155,1480908791731,,,,,53,,,-0.09,0.06,1.0,-3.2,-0.1,-0.5,820,50,1,1,16.4,0,37.478291,-122.203941,0.0,0.0,41.2,5,2,2.3,0,0.0,-1,0.0,,0.0,0
20175,1480908791751,,,,,,,,-0.09,0.06,1.01,-3.1,-0.1,-0.6,820,50,,,,,,,,,,,,,,,,,,,
20195,1480908791771,,,,,,,,-0.09,0.06,1.0,-3.1,-0.2,-0.6,820,50,,,,,,,,,,,,,,,,,,,
20215,1480908791791,,,,,,,,-0.09,0.06,1.0,-3.1,-0.1,-0.6,820,52,,,,,,,,,,,,,,,,,,,
20235,1480908791811,,,,,,,,-0.09,0.06,1.01,-3.1,-0.1,-0.5,800,53,,,,,,,,,,,,,,,,,,,
20255,1480908791831,0,58.3,,57.5,52,60.1,,-0.09,0.06,1.01,-3.1,-0.1,-0.4,800,53,1,1,16.4,0,37.478291,-122.203941,0.0,0.0,41.3,5,2,2.3,0,0.0,-1,0.0,0.0,0.0,0
20275,1480908791851,,,,,,,,-0.09,0.06,1.01,-3.1,-0.1,-0.4,820,53,,,,,,,,,,,,,,,,,,,
20295,1480908791871,,,,,,,,-0.1,0.06,1.0,-3.1,-0.1,-0.5,800,53,,,,,,,,,,,,,,,,,,,
20315,1480908791891,,,,,,,,-0.1,0.06,1.0,-3.1,-0.1,-0.5,820,55,,,,,,,,,,,,,,,,,,,
20335,1480908791906,,,,,,,,-0.1,0.06,1.0,-3.1,-0.1,-0.4,820,55,,,,,,,,,,,,,,,,,,,
20355,1480908791926,,,,,52,,,-0.09,0.07,0.99,-3.1,-0.0,-0.4,820,55,1,1,15.094,0,37.478291,-122.203941,0.0,0.0,41.5,5,2,2.3,0,0.0,-1,0.0,,0.0,0
20375,1480908791946,,,,,,,,-0.09,0.07,0.99,-3.1,-0.1,-0.4,800,56,,,,,,,,,,,,,,,,,,,
20395,1480908791966,,,,,,,,-0.09,0.07,1.0,-3.1,-0.0,-0.4,800,58,,,,,,,,,,,,,,,,,,,
20415,1480908791991,,,,,,,,-0.09,0.07,1.0,-3.1,-0.0,-0.4,800,58,,,,,,,,,,,,,,,,,,,
20435,1480908792011,,,,,,,,-0.09,0.06,0.99,-3.1,0.0,-0.4,800,58,,,,,,,,,,,,,,,,,,,
20455,1480908792031,0,54.6,,54.4,51,60.0,,-0.08,0.06,0.99,-3.2,0.1,-0.4,800,58,1,1,14.286,0,37.478291,-122.203941,0.92,0.0,41.6,5,2,2.3,0,0.0,-1,0.0,0.0,0.0,0
20475,1480908792051,,,,,,,,-0.08,0.06,0.99,-3.1,0.2,-0.3,800,60,,,,,,,,,,,,,,,,,,,
20495,1480908792071,,,,,,,,-0.08,0.06,0.98,-3.1,0.3,-0.3,800,60,,,,,,,,,,,,,,,,,,,
20515,1480908792091,,,,,,,,-0.09,0.06,0.98,-3.1,0.4,-0.5,800,61,,,,,,,,,,,,,,,,,,,
20535,1480908792210,,,,,,,,-0.08,0.06,0.99,-3.1,0.5,-0.5,800,63,,,,,,,,,,,,,,,,,,,
20555,1480908792230,,,,,52,,,-0.08,0.05,0.98,-3.1,0.5,-0.5,800,63,1,1,13.333,0,37.478291,-122.203941,0.93,0.0,42.0,5,2,2.3,0,0.0,-1,0.0,,0.0,0
20575,1480908792250,,,,,,,,-0.08,0.06,0.99,-3.1,0.6,-0.4,800,61,,,,,,,,,,,,,,,,,,,
20595,1480908792270,,,,,,,,-0.08,0.06,0.99,-3.1,0.5,-0.4,800,61,,,,,,,,,,,,,,,,,,,
20615,1480908792290,,,,,,,,-0.09,0.06,1.0,-3.1,0.5,-0.4,800,61,,,,,,,,,,,,,,,,,,,
20635,1480908792310,,,,,,,,-0.09,0.05,0.99,-3.0,0.6,-0.4,800,63,,,,,,,,,,,,,,,,,,,
20655,1480908792330,0,55.2,,53.3,51,58.8,,-0.09,0.05,0.99,-3.1,0.7,-0.3,800,63,1,1,13.115,0,37.478291,-122.203941,0.93,0.0,42.0,5,2,2.3,0,0.0,-1,0.0,0.0,0.0,0
20675,1480908792350,,,,,,,,-0.09,0.05,0.99,-3.1,0.9,-0.3,800,66,,,,,,,,,,,,,,,,,,,
20695,1480908792370,,,,,,,,-0.09,0.05,0.99,-3.1,0.9,-0.3,800,67,,,,,,,,,,,,,,,,,,,
20715,1480908792292,,,,,,,,-0.1,0.05,0.99,-3.0,0.9,-0.3,800,69,,,,,,,,,,,,,,,,,,,
20735,1480908792312,,,,,,,,-0.1,0.04,1.0,-3.0,0.9,-0.4,800,70,,,,,,,,,,,,,,,,,,,
20755,1480908792332,,,,,51,,,-0.09,0.04,0.99,-3.0,1.0,-0.3,800,72,1,1,11.94,0,37.478291,-122.203941,0.93,0.0,42.3,5,2,2.3,0,0.0,-1,0.0,,0.0,0
20775,1480908792352,,,,,,,,-0.08,0.05,0.98,-3.0,1.1,-0.2,800,73,,,,,,,,,,,,,,,,,,,
20795,1480908792372,,,,,,,,-0.08,0.05,0.99,-3.0,1.1,-0.1,800,76,,,,,,,,,,,,,,,,,,,
20815,1480908792391,,,,,,,,-0.08,0.05,0.99,-3.0,1.3,-0.1,820,80,,,,,,,,,,,,,,,,,,,
20835,1480908792411,,,,,,,,-0.08,0.04,0.99,-3.0,1.2,-0.3,820,80,,,,,,,,,,,,,,,,,,,
20855,1480908792431,1,54.3,,53.7,52,59.7,,-0.09,0.04,0.99,-3.0,1.2,-0.3,820,76,1,1,10.526,0,37.478291,-122.203941,0.93,0.0,42.5,5,2,2.3,0,0.0,-1,0.0,0.0,0.0,0
20875,1480908792451,,,,,,,,-0.1,0.04,0.99,-3.1,1.2,-0.2,820,72,,,,,,,,,,,,,,,,,,,
20895,1480908792471,,,,,,,,-0.11,0.05,0.99,-3.1,1.2,-0.1,820,69,,,,,,,,,,,,,,,,,,,
20915,1480908792491,,,,,,,,-0.12,0.05,0.99,-3.2,1.1,-0.2,820,69,,,,,,,,,,,,,,,,,,,
20935,1480908792511,,,,,,,,-0.13,0.06,1.0,-3.2,1.2,-0.3,820,69,,,,,,,,,,,,,,,,,,,
20955,1480908792531,,,,,52,,,-0.14,0.06,1.0,-3.2,1.0,-0.4,820,75,1,1,11.884,0,37.478291,-122.203941,1.04,0.0,42.7,5,2,2.3,0,0.0,-1,0.0,,0.0,0
20975,1480908792551,,,,,,,,-0.15,0.05,1.0,-3.2,0.9,-0.5,820,78,,,,,,,,,,,,,,,,,,,
20995,1480908792571,,,,,,,,-0.16,0.05,1.0,-3.2,0.8,-0.5,820,78,,,,,,,,,,,,,,,,,,,
21015,1480908792591,,,,,,,,-0.16,0.05,1.02,-3.3,0.6,-0.4,820,75,,,,,,,,,,,,,,,,,,,
21035,1480908792611,,,,,,,,-0.17,0.04,1.02,-3.3,0.3,-0.4,820,75,,,,,,,,,,,,,,,,,,,
21055,1480908792631,0,57.5,1.9,57.2,53,60.3,14.91,-0.18,0.05,1.02,-3.3,-0.0,-0.4,840,70,1,1,10.513,0,37.478291,-122.203941,1.04,0.0,42.8,5,2,2.3,0,0.0,-1,0.0,0.0,0.0,0
21075,1480908792651,,,,,,,,-0.18,0.04,1.01,-3.2,-0.5,-0.4,840,66,,,,,,,,,,,,,,,,,,,
21095,1480908792671,,,,,,,,-0.18,0.03,1.0,-3.2,-0.6,-0.5,840,64,,,,,,,,,,,,,,,,,,,
21115,1480908792691,,,,,,,,-0.18,0.03,0.98,-3.2,-0.7,-0.4,840,64,,,,,,,,,,,,,,,,,,,
21135,1480908792711,,,,,,,,-0.18,0.04,0.98,-3.2,-0.9,-0.4,840,64,,,,,,,,,,,,,,,,,,,
21155,1480908792731,,,,,52,,,-0.19,0.04,0.97,-3.1,-0.9,-0.3,840,64,1,1,13.125,0,37.478291,-122.203941,1.04,0.0,43.0,5,2,2.3,0,0.0,-1,0.0,,0.0,0
21175,1480908792751,,,,,,,,-0.19,0.05,0.98,-3.1,-1.0,-0.3,840,64,,,,,,,,,,,,,,,,,,,
21195,1480908792771,,,,,,,,-0.19,0.04,0.99,-3.1,-1.2,-0.4,840,60,,,,,,,,,,,,,,,,,,,
21215,1480908792791,,,,,,,,-0.19,0.04,0.99,-3.1,-1.4,-0.4,840,55,,,,,,,,,,,,,,,,,,,
21235,1480908792811,,,,,,,,-0.19,0.04,0.99,-3.1,-1.4,-0.4,840,55,,,,,,,,,,,,,,,,,,,
21255,1480908792831,0,58.1,,54.4,53,56.7,,-0.19,0.04,0.99,-3.1,-1.5,-0.3,840,52,1,1,14.0,0,37.478291,-122.203941,1.13,0.0,43.3,5,2,2.3,0,0.0,-1,0.0,0.0,0.0,0
21275,1480908792851,,,,,,,,-0.18,0.05,0.99,-3.1,-1.6,-0.1,840,52,,,,,,,,,,,,,,,,,,,
21295,1480908792871,,,,,,,,-0.18,0.06,0.99,-3.1,-1.4,0.0,840,52,,,,,,,,,,,,,,,,,,,
21315,1480908792891,,,,,,,,-0.18,0.06,0.99,-3.1,-1.5,-0.0,840,50,,,,,,,,,,,,,,,,,,,
21335,1480908793004,,,,,,,,-0.18,0.06,1.0,-3.1,-1.6,-0.1,860,49,,,,,,,,,,,,,,,,,,,
21355,1480908793024,,,,,54,,,-0.19,0.05,1.0,-3.1,-1.7,-0.2,860,49,1,1,16.154,0,37.478291,-122.203941,1.04,0.0,43.7,5,2,2.3,0,0.0,-1,0.0,,0.0,0
21375,1480908793044,,,,,,,,-0.18,0.05,1.0,-3.1,-1.6,-0.3,860,47,,,,,,,,,,,,,,,,,,,
21395,1480908793064,,,,,,,,-0.17,0.05,1.0,-3.1,-1.7,-0.3,860,46,,,,,,,,,,,,,,,,,,,
21415,1480908793084,,,,,,,,-0.17,0.06,1.0,-3.2,-1.8,-0.2,860,46,,,,,,,,,,,,,,,,,,,
21435,1480908793104,,,,,,,,-0.16,0.06,1.01,-3.2,-1.5,-0.3,860,44,,,,,,,,,,,,,,,,,,,
21455,1480908793124,0,55.8,,53.1,55,58.2,,-0.15,0.07,1.02,-3.2,-1.6,-0.3,860,44,1,1,18.298,0,37.478291,-122.203941,1.04,0.0,43.7,5,2,2.3,0,0.0,-1,0.0,0.0,0.0,0
21475,1480908793144,,,,,,,,-0.16,0.07,1.02,-3.1,-1.8,-0.5,860,44,,,,,,,,,,,,,,,,,,,
21495,1480908793164,,,,,,,,-0.17,0.06,1.01,-3.1,-1.9,-0.6,860,44,,,,,,,,,,,,,,,,,,,
21515,1480908793091,,,,,,,,-0.16,0.06,1.0,-3.1,-1.8,-0.6,860,44,,,,,,,,,,,,,,,,,,,
21535,1480908793111,,,,,,,,-0.15,0.06,0.99,-3.1,-1.8,-0.6,840,43,,,,,,,,,,,,,,,,,,,
21555,1480908793131,,,,,56,,,-0.15,0.06,0.99,-3.1,-1.9,-0.6,840,43,1,1,19.545,0,37.478291,-122.203941,0.97,0.0,43.6,5,2,2.3,0,0.0,-1,0.0,,0.0,0
21575,1480908793151,,,,,,,,-0.15,0.06,0.98,-3.2,-1.7,-0.6,840,43,,,,,,,,,,,,,,,,,,,
21595,1480908793171,,,,,,,,-0.15,0.05,0.98,-3.2,-1.6,-0.6,860,43,,,,,,,,,,,,,,,,,,,
21615,1480908793191,,,,,,,,-0.15,0.06,0.99,-3.1,-1.8,-0.6,860,41,,,,,,,,,,,,,,,,,,,
21635,1480908793210,,,,,,,,-0.16,0.05,0.98,-3.1,-2.0,-0.6,860,41,,,,,,,,,,,,,,,,,,,
21655,1480908793230,0,58.4,,56.0,56,56.9,,-0.16,0.04,0.98,-3.1,-1.9,-0.6,860,41,1,1,20.0,0,37.478291,-122.203941,0.95,0.0,43.6,5,2,2.3,0,0.0,-1,0.0,0.0,0.0,0
21675,1480908793250,,,,,,,,-0.15,0.04,0.98,-3.1,-1.7,-0.6,860,41,,,,,,,,,,,,,,,,,,,
21695,1480908793270,,,,,,,,-0.15,0.04,0.98,-3.1,-1.8,-0.5,860,41,,,,,,,,,,,,,,,,,,,
21715,1480908793291,,,,,,,,-0.15,0.04,0.99,-3.1,-1.7,-0.5,840,41,,,,,,,,,,,,,,,,,,,
21735,1480908793311,,,,,,,,-0.14,0.04,1.0,-3.1,-1.6,-0.5,840,41,,,,,,,,,,,,,,,,,,,
21755,1480908793331,,,,,56,,,-0.14,0.05,1.0,-3.0,-1.8,-0.5,840,41,1,1,20.976,0,37.478291,-122.203941,0.0,0.0,43.6,5,2,2.3,0,0.0,-1,0.0,,0.0,0
21775,1480908793351,,,,,,,,-0.14,0.05,1.0,-3.0,-2.0,-0.5,840,41,,,,,,,,,,,,,,,,,,,
21795,1480908793371,,,,,,,,-0.14,0.04,1.0,-3.0,-1.9,-0.6,820,40,,,,,,,,,,,,,,,,,,,
21815,1480908793391,,,,,,,,-0.14,0.04,0.99,-3.0,-1.8,-0.6,820,40,,,,,,,,,,,,,,,,,,,
21835,1480908793410,,,,,,,,-0.13,0.05,0.98,-3.0,-1.8,-0.5,820,40,,,,,,,,,,,,,,,,,,,
21855,1480908793430,0,57.0,,53.4,57,57.5,,-0.13,0.05,0.99,-3.0,-1.7,-0.5,820,40,1,1,20.5,0,37.478291,-122.203941,0.0,0.0,43.6,5,2,2.3,0,0.0,-1,0.0,0.0,0.0,0
21875,1480908793450,,,,,,,,-0.13,0.05,0.99,-3.0,-1.8,-0.5,820,40,,,,,,,,,,,,,,,,,,,
21895,1480908793470,,,,,,,,-0.14,0.05,1.0,-3.0,-1.9,-0.5,820,40,,,,,,,,,,,,,,,,,,,
21915,1480908793490,,,,,,,,-0.14,0.05,1.0,-3.0,-1.9,-0.6,820,40,,,,,,,,,,,,,,,,,,,
21935,1480908793510,,,,,,,,-0.14,0.05,1.0,-3.1,-1.8,-0.6,820,40,,,,,,,,,,,,,,,,,,,
21955,1480908793530,,,,,56,,,-0.14,0.06,0.99,-3.1,-1.9,-0.6,820,40,1,1,20.5,0,37.478291,-122.203941,0.0,0.0,43.6,5,2,2.3,0,0.0,-1,0.0,,0.0,0
21975,1480908793550,,,,,,,,-0.14,0.06,0.99,-3.1,-1.8,-0.6,800,40,,,,,,,,,,,,,,,,,,,
21995,1480908793570,,,,,,,,-0.13,0.07,0.99,-3.1,-1.9,-0.5,820,40,,,,,,,,,,,,,,,,,,,
22015,1480908793590,,,,,,,,-0.13,0.06,0.99,-3.1,-1.9,-0.6,820,40,,,,,,,,,,,,,,,,,,,
22035,1480908793610,,,,,,,,-0.14,0.05,0.99,-3.1,-1.9,-0.6,820,40,,,,,,,,,,,,,,,,,,,
22055,1480908793630,0,57.0,1.7,57.1,55,60.7,14.77,-0.13,0.05,0.98,-3.1,-1.8,-0.6,820,40,1,1,20.5,0,37.478291,-122.203941,0.0,0.0,43.6,5,2,2.3,0,0.0,-1,0.0,0.0,0.0,0
22075,1480908793650,,,,,,,,-0.13,0.05,0.98,-3.1,-1.7,-0.5,820,40,,,,,,,,,,,,,,,,,,,
22095,1480908793670,,,,,,,,-0.13,0.06,0.99,-3.1,-1.7,-0.6,820,38,,,,,,,,,,,,,,,,,,,
22115,1480908793691,,,,,,,,-0.13,0.06,0.99,-3.1,-1.7,-0.5,820,38,,,,,,,,,,,,,,,,,,,
22135,1480908793810,,,,,,,,-0.13,0.06,1.0,-3.1,-1.7,-0.7,820,38,,,,,,,,,,,,,,,,,,,
22155,1480908793830,,,,,56,,,-0.13,0.05,0.99,-3.1,-1.7,-0.7,820,38,1,1,21.579,0,37.478291,-122.203941,0.0,0.0,43.6,5,2,2.3,0,0.0,-1,0.0,,0.0,0
22175,1480908793850,,,,,,,,-0.13,0.05,0.98,-3.1,-1.6,-0.7,820,38,,,,,,,,,,,,,,,,,,,
22195,1480908793870,,,,,,,,-0.13,0.05,0.99,-3.1,-1.7,-0.7,800,38,,,,,,,,,,,,,,,,,,,
22215,1480908793890,,,,,,,,-0.14,0.05,0.99,-3.1,-1.6,-0.6,800,38,,,,,,,,,,,,,,,,,,,
22235,1480908793910,,,,,,,,-0.14,0.06,1.0,-3.1,-1.6,-0.7,800,38,,,,,,,,,,,,,,,,,,,
22255,1480908793930,0,55.7,,55.5,54,60.7,,-0.14,0.05,1.0,-3.1,-1.7,-0.7,800,36,1,1,21.053,0,37.478291,-122.203941,0.0,0.0,43.6,5,2,2.3,0,0.0,-1,0.0,0.0,0.0,0
22275,1480908793950,,,,,,,,-0.14,0.06,1.0,-3.1,-1.6,-0.8,800,36,,,,,,,,,,,,,,,,,,,
22295,1480908793970,,,,,,,,-0.14,0.06,1.0,-3.2,-1.7,-0.7,800,36,,,,,,,,,,,,,,,,,,,
22315,1480908793990,,,,,,,,-0.14,0.06,1.0,-3.2,-1.6,-0.7,800,36,,,,,,,,,,,,,,,,,,,
22335,1480908793906,,,,,,,,-0.14,0.06,1.0,-3.2,-1.6,-0.7,800,35,,,,,,,,,,,,,,,,,,,
22355,1480908793926,,,,,54,,,-0.14,0.06,1.0,-3.2,-1.7,-0.8,800,35,1,1,22.222,0,37.478291,-122.203941,0.0,0.0,43.6,5,2,2.3,0,0.0,-1,0.0,,0.0,0
22375,1480908793946,,,,,,,,-0.15,0.06,1.0,-3.2,-1.6,-0.8,800,35,,,,,,,,,,,,,,,,,,,
22395,1480908793966,,,,,,,,-0.14,0.06,0.99,-3.2,-1.7,-0.8,800,35,,,,,,,,,,,,,,,,,,,
22415,1480908793986,,,,,,,,-0.14,0.06,0.99,-3.2,-1.6,-0.7,800,35,,,,,,,,,,,,,,,,,,,
22435,1480908794010,,,,,,,,-0.14,0.06,0.99,-3.2,-1.7,-0.7,780,33,,,,,,,,,,,,,,,,,,,
22455,1480908794030,0,55.4,,55.5,52,60.7,,-0.15,0.06,0.98,-3.2,-1.7,-0.8,780,33,1,1,22.857,0,37.478291,-122.203941,0.0,0.0,43.6,5,2,2.3,0,0.0,-1,0.0,0.0,0.0,0
22475,1480908794050,,,,,,,,-0.15,0.06,0.98,-3.2,-1.7,-0.8,780,32,,,,,,,,,,,,,,,,,,,
22495,1480908794070,,,,,,,,-0.14,0.05,0.98,-3.2,-1.7,-0.9,780,32,,,,,,,,,,,,,,,,,,,
22515,1480908794090,,,,,,,,-0.14,0.06,0.98,-3.2,-1.6,-0.8,780,32,,,,,,,,,,,,,,,,,,,
22535,1480908794110,,,,,,,,-0.14,0.06,0.98,-3.2,-1.7,-0.8,780,29,,,,,,,,,,,,,,,,,,,
22555,1480908794130,,,,,53,,,-0.14,0.06,0.99,-3.1,-1.7,-0.9,780,29,1,1,24.375,0,37.478291,-122.203941,0.0,0.0,43.6,5,2,2.3,0,0.0,-1,0.0,,0.0,0
22575,1480908794150,,,,,,,,-0.14,0.06,0.99,-3.1,-1.7,-0.9,780,29,,,,,,,,,,,,,,,,,,,
22595,1480908794170,,,,,,,,-0.14,0.05,0.99,-3.1,-1.7,-0.9,780,29,,,,,,,,,,,,,,,,,,,
22615,1480908794191,,,,,,,,-0.14,0.05,0.99,-3.1,-1.7,-0.9,780,29,,,,,,,,,,,,,,,,,,,
22635,1480908794211,,,,,,,,-0.14,0.05,1.0,-3.1,-1.7,-0.9,780,27,,,,,,,,,,,,,,,,,,,
22655,1480908794231,1,54.9,,55.2,51,60.9,,-0.15,0.05,0.99,-3.1,-1.6,-0.8,780,27,1,1,26.897,0,37.478291,-122.203941,0.0,0.0,43.6,5,2,2.3,0,0.0,-1,0.0,0.0,0.0,0
22675,1480908794251,,,,,,,,-0.15,0.05,0.99,-3.1,-1.6,-0.8,780,27,,,,,,,,,,,,,,,,,,,
22695,1480908794271,,,,,,,,-0.14,0.04,0.99,-3.1,-1.7,-0.8,760,27,,,,,,,,,,,,,,,,,,,
22715,1480908794291,,,,,,,,-0.15,0.05,1.0,-3.1,-1.6,-0.7,760,27,,,,,,,,,,,,,,,,,,,
22735,1480908794310,,,,,,,,-0.15,0.05,0.99,-3.1,-1.6,-0.8,760,27,,,,,,,,,,,,,,,,,,,
22755,1480908794330,,,,,51,,,-0.15,0.05,0.98,-3.1,-1.6,-0.7,760,27,1,1,28.148,0,37.478291,-122.203941,0.0,0.0,43.6,5,2,2.3,0,0.0,-1,0.0,,0.0,0
22775,1480908794350,,,,,,,,-0.14,0.05,0.98,-3.1,-1.6,-0.7,760,27,,,,,,,,,,,,,,,,,,,
22795,1480908794370,,,,,,,,-0.14,0.06,0.98,-3.1,-1.6,-0.7,760,26,,,,,,,,,,,,,,,,,,,
22815,1480908794390,,,,,,,,-0.14,0.06,0.98,-3.1,-1.6,-0.7,760,26,,,,,,,,,,,,,,,,,,,
22835,1480908794410,,,,,,,,-0.14,0.05,0.98,-3.1,-1.6,-0.7,760,26,,,,,,,,,,,,,,,,,,,
22855,1480908794430,0,57.7,,57.5,50,60.4,,-0.14,0.05,0.98,-3.1,-1.6,-0.7,760,26,1,1,29.231,0,37.478291,-122.203941,0.0,0.0,43.6,5,2,2.3,0,0.0,-1,0.0,0.0,0.0,0
22875,1480908794450,,,,,,,,-0.14,0.05,0.99,-3.1,-1.6,-0.6,760,26,,,,,,,,,,,,,,,,,,,
22895,1480908794470,,,,,,,,-0.14,0.05,0.99,-3.1,-1.6,-0.6,760,26,,,,,,,,,,,,,,,,,,,
22915,1480908794491,,,,,,,,-0.15,0.05,0.98,-3.1,-1.6,-0.7,760,24,,,,,,,,,,,,,,,,,,,
22935,1480908794610,,,,,,,,-0.14,0.05,0.98,-3.1,-1.5,-0.7,760,24,,,,,,,,,,,,,,,,,,,
22955,1480908794630,,,,,50,,,-0.14,0.04,0.98,-3.1,-1.6,-0.6,760,24,1,1,29.231,0,37.478291,-122.203941,0.0,0.0,43.6,5,2,2.3,0,0.0,-1,0.0,,0.0,0
22975,1480908794650,,,,,,,,-0.14,0.05,0.98,-3.1,-1.6,-0.6,760,23,,,,,,,,,,,,,,,,,,,
22995,1480908794670,,,,,,,,-0.14,0.05,0.99,-3.1,-1.6,-0.6,740,23,,,,,,,,,,,,,,,,,,,
23015,1480908794690,,,,,,,,-0.14,0.05,0.99,-3.1,-1.6,-0.5,740,23,,,,,,,,,,,,,,,,,,,
23035,1480908794710,,,,,,,,-0.14,0.05,0.98,-3.1,-1.6,-0.5,740,23,,,,,,,,,,,,,,,,,,,
23055,1480908794730,0,58.5,2.1,57.5,50,59.9,14.92,-0.14,0.06,0.98,-3.1,-1.5,-0.4,760,23,1,1,33.043,0,37.478291,-122.203941,0.0,0.0,43.6,5,2,2.3,0,0.0,-1,0.0,0.0,0.0,0
23075,1480908794750,,,,,,,,-0.14,0.06,0.98,-3.1,-1.6,-0.4,760,23,,,,,,,,,,,,,,,,,,,
23095,1480908794770,,,,,,,,-0.14,0.06,0.97,-3.1,-1.5,-0.4,760,23,,,,,,,,,,,,,,,,,,,
23115,1480908794691,,,,,,,,-0.14,0.06,0.97,-3.1,-1.5,-0.4,740,21,,,,,,,,,,,,,,,,,,,
23135,1480908794711,,,,,,,,-0.14,0.06,0.96,-3.2,-1.5,-0.3,740,21,,,,,,,,,,,,,,,,,,,
23155,1480908794731,,,,,51,,,-0.14,0.06,0.97,-3.2,-1.6,-0.4,740,21,1,1,33.043,0,37.478291,-122.203941,0.0,0.0,43.6,5,2,2.3,0,0.0,-1,0.0,,0.0,0
23175,1480908794751,,,,,,,,-0.14,0.06,0.97,-3.2,-1.6,-0.4,740,21,,,,,,,,,,,,,,,,,,,
23195,1480908794771,,,,,,,,-0.14,0.06,0.97,-3.2,-1.6,-0.4,720,21,,,,,,,,,,,,,,,,,,,
23215,1480908794791,,,,,,,,-0.14,0.06,0.96,-3.2,-1.7,-0.4,720,21,,,,,,,,,,,,,,,,,,,
23235,1480908794811,,,,,,,,-0.14,0.06,0.96,-3.2,-1.7,-0.5,720,21,,,,,,,,,,,,,,,,,,,
23255,1480908794831,0,59.1,,57.2,50,59.0,,-0.14,0.06,0.97,-3.2,-1.7,-0.5,720,21,1,1,34.286,0,37.478291,-122.203941,0.0,0.0,43.6,5,2,2.3,0,0.0,-1,0.0,0.0,0.0,0
23275,1480908794851,,,,,,,,-0.14,0.06,0.97,-3.2,-1.7,-0.5,720,21,,,,,,,,,,,,,,,,,,,
23295,1480908794871,,,,,,,,-0.14,0.06,0.97,-3.2,-1.6,-0.6,720,21,,,,,,,,,,,,,,,,,,,
23315,1480908794891,,,,,,,,-0.14,0.06,0.98,-3.1,-1.6,-0.6,720,23,,,,,,,,,,,,,,,,,,,
23335,1480908794903,,,,,,,,-0.13,0.06,0.98,-3.1,-1.6,-0.7,720,23,,,,,,,,,,,,,,,,,,,
23355,1480908794923,,,,,51,,,-0.13,0.06,0.98,-3.1,-1.6,-0.6,720,23,1,1,34.286,0,37.478291,-122.203941,0.0,0.0,43.6,5,2,2.3,0,0.0,-1,0.0,,0.0,0
23375,1480908794943,,,,,,,,-0.13,0.06,0.99,-3.1,-1.6,-0.7,720,26,,,,,,,,,,,,,,,,,,,
23395,1480908794963,,,,,,,,-0.13,0.06,0.99,-3.1,-1.6,-0.7,720,26,,,,,,,,,,,,,,,,,,,
23415,1480908794983,,,,,,,,-0.12,0.05,0.99,-3.0,-1.5,-0.7,720,29,,,,,,,,,,,,,,,,,,,
23435,1480908795010,,,,,,,,-0.12,0.06,0.98,-3.0,-1.5,-0.6,740,29,,,,,,,,,,,,,,,,,,,
23455,1480908795030,0,54.5,,53.9,50,59.7,,-0.13,0.05,0.98,-3.0,-1.6,-0.7,740,38,1,1,27.692,0,37.478291,-122.203941,0.0,0.0,43.6,5,2,2.3,0,0.0,-1,0.0,0.0,0.0,0
23475,1480908795050,,,,,,,,-0.12,0.05,0.98,-3.0,-1.6,-0.6,740,46,,,,,,,,,,,,,,,,,,,
23495,1480908795070,,,,,,,,-0.12,0.06,0.97,-3.0,-1.5,-0.6,740,46,,,,,,,,,,,,,,,,,,,
23515,1480908795090,,,,,,,,-0.12,0.06,0.97,-3.0,-1.4,-0.6,720,56,,,,,,,,,,,,,,,,,,,
23535,1480908795110,,,,,,,,-0.13,0.05,0.97,-2.9,-1.6,-0.6,720,58,,,,,,,,,,,,,,,,,,,
23555,1480908795130,,,,,51,,,-0.12,0.05,0.97,-2.9,-1.6,-0.6,720,58,1,1,16.087,0,37.478291,-122.203941,0.0,0.0,43.6,5,2,2.3,0,0.0,-1,0.0,,0.0,0
23575,1480908795150,,,,,,,,-0.12,0.06,0.97,-2.9,-1.7,-0.5,720,58,,,,,,,,,,,,,,,,,,,
23595,1480908795170,,,,,,,,-0.12,0.06,0.97,-2.9,-1.7,-0.6,740,58,,,,,,,,,,,,,,,,,,,
23615,1480908795191,,,,,,,,-0.11,0.05,0.98,-2.9,-1.6,-0.6,720,18,,,,,,,,,,,,,,,,,,,
23635,1480908795211,,,,,,,,-0.11,0.06,0.98,-2.9,-1.7,-0.6,720,18,,,,,,,,,,,,,,,,,,,
23655,1480908795231,0,58.8,,57.5,52,59.7,,-0.11,0.06,0.98,-2.9,-1.6,-0.6,720,36,1,1,12.759,0,37.478291,-122.203941,0.0,0.0,43.6,5,2,2.3,0,0.0,-1,0.0,0.0,0.0,0
23675,1480908795251,,,,,,,,-0.11,0.06,0.98,-2.9,-1.6,-0.6,720,36,,,,,,,,,,,,,,,,,,,
23695,1480908795271,,,,,,,,-0.1,0.06,0.99,-3.0,-1.6,-0.6,720,36,,,,,,,,,,,,,,,,,,,
23715,1480908795391,,,,,,,,-0.1,0.06,0.99,-3.0,-1.7,-0.6,720,35,,,,,,,,,,,,,,,,,,,
23735,1480908795411,,,,,,,,-0.1,0.06,0.99,-3.0,-1.8,-0.6,720,35,,,,,,,,,,,,,,,,,,,
23755,1480908795431,,,,,51,,,-0.09,0.06,0.99,-3.0,-1.8,-0.7,720,26,1,1,20.0,0,37.478291,-122.203941,0.0,0.0,43.6,5,2,2.3,0,0.0,-1,0.0,,0.0,0
23775,1480908795451,,,,,,,,-0.08,0.06,1.0,-3.0,-1.9,-0.7,720,26,,,,,,,,,,,,,,,,,,,
23795,1480908795471,,,,,,,,-0.07,0.05,1.0,-3.0,-1.9,-0.7,720,43,,,,,,,,,,,,,,,,,,,
23815,1480908795491,,,,,,,,-0.07,0.06,0.99,-3.0,-2.0,-0.7,720,43,,,,,,,,,,,,,,,,,,,
23835,1480908795511,,,,,,,,-0.07,0.05,0.99,-3.0,-2.2,-0.7,720,38,,,,,,,,,,,,,,,,,,,
23855,1480908795531,0,57.0,,57.2,52,60.7,,-0.06,0.05,0.98,-3.0,-2.3,-0.7,720,38,1,1,16.744,0,37.478291,-122.203941,0.0,0.0,43.6,5,2,2.3,0,0.0,-1,0.0,0.0,0.0,0
23875,1480908795551,,,,,,,,-0.05,0.06,0.98,-3.0,-2.5,-0.7,720,40,,,,,,,,,,,,,,,,,,,
23895,1480908795571,,,,,,,,-0.05,0.06,0.97,-3.0,-2.6,-0.7,720,52,,,,,,,,,,,,,,,,,,,
23915,1480908795491,,,,,,,,-0.04,0.05,0.97,-2.9,-2.8,-0.8,740,58,,,,,,,,,,,,,,,,,,,
23935,1480908795511,,,,,,,,-0.04,0.05,0.97,-2.9,-3.0,-0.8,740,58,,,,,,,,,,,,,,,,,,,
23955,1480908795531,,,,,51,,,-0.02,0.05,0.96,-2.9,-3.3,-0.8,720,52,1,1,13.846,0,37.478291,-122.203941,0.0,0.0,43.6,5,2,2.3,0,0.0,-1,0.0,,0.0,0
23975,1480908795551,,,,,,,,-0.01,0.05,0.96,-2.8,-3.5,-0.8,720,56,,,,,,,,,,,,,,,,,,,
23995,1480908795571,,,,,,,,-0.0,0.05,0.97,-2.8,-3.8,-0.7,720,61,,,,,,,,,,,,,,,,,,,
24015,1480908795591,,,,,,,,0.0,0.04,0.96,-2.8,-4.1,-0.4,720,61,,,,,,,,,,,,,,,,,,,
24035,1480908795611,,,,,,,,0.01,0.03,0.95,-2.7,-4.5,-0.2,740,58,,,,,,,,,,,,,,,,,,,
24055,1480908795631,0,57.8,2.2,57.5,52,60.4,14.89,0.01,0.03,0.95,-2.6,-4.9,-0.0,740,52,1,1,12.857,0,37.478291,-122.203941,0.0,0.0,43.6,5,2,2.3,0,0.0,-1,0.0,0.0,0.0,0
24075,1480908795651,,,,,,,,0.01,0.03,0.96,-2.5,-5.2,0.1,740,52,,,,,,,,,,,,,,,,,,,
24095,1480908795671,,,,,,,,0.01,0.03,0.96,-2.5,-5.5,0.2,740,46,,,,,,,,,,,,,,,,,,,
24115,1480908795691,,,,,,,,-0.0,0.03,0.97,-2.5,-5.9,0.4,760,47,,,,,,,,,,,,,,,,,,,
24135,1480908795710,,,,,,,,-0.02,0.02,0.96,-2.5,-6.0,0.4,760,72,,,,,,,,,,,,,,,,,,,
24155,1480908795730,,,,,53,,,-0.02,0.04,0.99,-2.4,-6.1,0.5,760,126,1,1,16.087,0,37.478291,-122.203941,0.0,0.0,43.6,5,2,2.3,0,0.0,-1,0.0,,0.0,0
24175,1480908795750,,,,,,,,-0.02,0.05,1.0,-2.5,-6.0,0.6,760,127,,,,,,,,,,,,,,,,,,,
24195,1480908795770,,,,,,,,-0.02,0.06,1.02,-2.5,-6.1,0.6,760,116,,,,,,,,,,,,,,,,,,,
24215,1480908795791,,,,,,,,-0.03,0.07,1.02,-2.6,-5.9,0.7,780,109,,,,,,,,,,,,,,,,,,,
24235,1480908795811,,,,,,,,-0.03,0.06,1.03,-2.6,-5.7,0.6,780,101,,,,,,,,,,,,,,,,,,,
24255,1480908795831,1,56.8,,57.2,55,60.7,,-0.03,0.06,1.05,-2.6,-5.3,0.5,780,92,1,1,6.609,0,37.478291,-122.203941,0.0,0.0,43.6,5,2,2.3,0,0.0,-1,0.0,0.0,0.0,0
24275,1480908795851,,,,,,,,-0.03,0.06,1.05,-2.5,-5.0,0.4,780,84,,,,,,,,,,,,,,,,,,,
24295,1480908795871,,,,,,,,-0.03,0.05,1.05,-2.5,-4.5,0.3,800,84,,,,,,,,,,,,,,,,,,,
24315,1480908795891,,,,,,,,-0.04,0.06,1.06,-2.5,-4.2,0.1,800,89,,,,,,,,,,,,,,,,,,,
24335,1480908795908,,,,,,,,-0.05,0.06,1.06,-2.5,-3.9,-0.2,800,104,,,,,,,,,,,,,,,,,,,
24355,1480908795928,,,,,56,,,-0.05,0.06,1.05,-2.5,-3.6,-0.3,800,113,1,1,9.524,0,37.478291,-122.203941,0.0,0.0,43.6,5,2,2.3,0,0.0,-1,0.0,,0.0,0
24375,1480908795948,,,,,,,,-0.06,0.06,1.04,-2.5,-3.4,-0.4,800,107,,,,,,,,,,,,,,,,,,,
24395,1480908795968,,,,,,,,-0.06,0.06,1.03,-2.5,-3.2,-0.4,800,101,,,,,,,,,,,,,,,,,,,
24415,1480908795991,,,,,,,,-0.06,0.06,1.02,-2.5,-3.1,-0.5,820,96,,,,,,,,,,,,,,,,,,,
24435,1480908796011,,,,,,,,-0.07,0.06,1.02,-2.6,-3.2,-0.5,820,93,,,,,,,,,,,,,,,,,,,
24455,1480908796031,0,57.5,,57.7,58,60.7,,-0.07,0.05,1.01,-2.6,-3.2,-0.6,820,90,1,1,7.921,0,37.478291,-122.203941,0.0,0.0,43.6,5,2,1.8,0,0.0,-1,0.0,0.0,0.0,0
24475,1480908796051,,,,,,,,-0.07,0.05,1.0,-2.6,-3.1,-0.6,820,96,,,,,,,,,,,,,,,,,,,
24495,1480908796071,,,,,,,,-0.07,0.05,0.99,-2.6,-3.3,-0.6,820,110,,,,,,,,,,,,,,,,,,,
24515,1480908796091,,,,,,,,-0.07,0.05,0.98,-2.6,-3.3,-0.5,820,112,,,,,,,,,,,,,,,,,,,
24535,1480908796210,,,,,,,,-0.07,0.05,0.98,-2.6,-3.4,-0.4,820,106,,,,,,,,,,,,,,,,,,,
24555,1480908796230,,,,,59,,,-0.07,0.04,0.97,-2.6,-3.7,-0.5,820,101,1,1,7.455,0,37.478298,-122.203941,2.07,0.0,43.4,5,2,1.8,0,0.0,-1,0.0,,0.0,0
24575,1480908796250,,,,,,,,-0.07,0.04,0.97,-2.5,-3.7,-0.5,820,100,,,,,,,,,,,,,,,,,,,
24595,1480908796270,,,,,,,,-0.07,0.04,0.96,-2.5,-3.7,-0.5,820,104,,,,,,,,,,,,,,,,,,,
24615,1480908796290,,,,,,,,-0.07,0.05,0.96,-2.5,-3.9,-0.4,820,109,,,,,,,,,,,,,,,,,,,
24635,1480908796310,,,,,,,,-0.06,0.05,0.96,-2.4,-3.9,-0.4,820,110,,,,,,,,,,,,,,,,,,,
24655,1480908796330,0,54.5,,54.6,59,60.1,,-0.06,0.06,0.97,-2.4,-4.0,-0.4,820,109,1,1,7.885,0,37.478298,-122.203941,2.07,0.0,43.4,5,2,1.8,0,0.0,-1,0.0,0.0,0.0,0
24675,1480908796350,,,,,,,,-0.07,0.06,0.98,-2.4,-4.2,-0.5,820,106,,,,,,,,,,,,,,,,,,,
24695,1480908796370,,,,,,,,-0.08,0.05,0.98,-2.5,-4.1,-0.5,820,100,,,,,,,,,,,,,,,,,,,
24715,1480908796390,,,,,,,,-0.08,0.06,0.98,-2.5,-4.2,-0.5,820,101,,,,,,,,,,,,,,,,,,,
24735,1480908796310,,,,,,,,-0.08,0.06,0.99,-2.6,-4.3,-0.4,840,101,,,,,,,,,,,,,,,,,,,
24755,1480908796330,,,,,63,,,-0.08,0.06,0.99,-2.6,-4.3,-0.4,820,106,1,1,8.2,0,37.478298,-122.203941,1.76,0.0,43.2,5,2,1.8,0,0.0,-1,0.0,,0.0,0
24775,1480908796350,,,,,,,,-0.08,0.06,1.0,-2.6,-4.4,-0.4,820,104,,,,,,,,,,,,,,,,,,,
24795,1480908796370,,,,,,,,-0.08,0.06,1.0,-2.6,-4.5,-0.5,820,104,,,,,,,,,,,,,,,,,,,
24815,1480908796393,,,,,,,,-0.09,0.05,1.0,-2.5,-4.4,-0.5,820,100,,,,,,,,,,,,,,,,,,,
24835,1480908796413,,,,,,,,-0.08,0.05,0.99,-2.5,-4.3,-0.5,820,98,,,,,,,,,,,,,,,,,,,
24855,1480908796433,0,56.4,,56.8,62,60.7,,-0.08,0.05,1.0,-2.5,-4.4,-0.5,820,96,1,1,7.885,0,37.478298,-122.203934,1.68,0.0,42.9,5,2,1.8,0,0.0,-1,0.0,0.0,0.0,0
24875,1480908796453,,,,,,,,-0.08,0.06,0.99,-2.5,-4.2,-0.5,820,96,,,,,,,,,,,,,,,,,,,
24895,1480908796473,,,,,,,,-0.08,0.06,1.0,-2.5,-4.1,-0.5,820,96,,,,,,,,,,,,,,,,,,,
24915,1480908796492,,,,,,,,-0.09,0.06,1.0,-2.5,-4.1,-0.6,820,96,,,,,,,,,,,,,,,,,,,
24935,1480908796512,,,,,,,,-0.1,0.05,1.0,-2.5,-3.9,-0.5,820,96,,,,,,,,,,,,,,,,,,,
24955,1480908796532,,,,,61,,,-0.09,0.05,0.99,-2.5,-3.9,-0.5,820,93,1,1,8.542,0,37.478298,-122.203934,1.68,0.0,42.7,5,2,1.8,0,0.0,-1,0.0,,0.0,0
24975,1480908796552,,,,,,,,-0.1,0.06,1.0,-2.6,-4.0,-0.4,820,92,,,,,,,,,,,,,,,,,,,
24995,1480908796572,,,,,,,,-0.1,0.06,1.0,-2.5,-3.9,-0.4,820,90,,,,,,,,,,,,,,,,,,,
25015,1480908796593,,,,,,,,-0.1,0.06,1.0,-2.6,-3.9,-0.4,820,89,,,,,,,,,,,,,,,,,,,
25035,1480908796613,,,,,,,,-0.1,0.06,1.0,-2.6,-4.0,-0.4,820,89,,,,,,,,,,,,,,,,,,,
25055,1480908796633,1,58.4,1.5,56.8,62,60.9,14.91,-0.1,0.05,0.99,-2.5,-3.9,-0.5,820,87,1,1,9.111,0,37.478298,-122.203934,1.61,0.0,42.5,5,2,1.8,0,0.0,-1,0.0,0.0,0.0,0
25075,1480908796653,,,,,,,,-0.09,0.05,0.98,-2.6,-3.8,-0.4,820,87,,,,,,,,,,,,,,,,,,,
25095,1480908796673,,,,,,,,-0.09,0.05,0.98,-2.6,-3.8,-0.4,820,86,,,,,,,,,,,,,,,,,,,
25115,1480908796692,,,,,,,,-0.08,0.06,0.98,-2.6,-3.7,-0.3,820,86,,,,,,,,,,,,,,,,,,,
25135,1480908796712,,,,,,,,-0.08,0.06,0.99,-2.6,-3.6,-0.3,820,84,,,,,,,,,,,,,,,,,,,
25155,1480908796732,,,,,61,,,-0.09,0.06,0.99,-2.5,-3.7,-0.4,820,84,1,1,9.535,0,37.478298,-122.203934,1.35,0.0,42.3,5,2,1.8,0,0.0,-1,0.0,,0.0,0
25175,1480908796752,,,,,,,,-0.09,0.05,0.99,-2.5,-3.6,-0.4,820,83,,,,,,,,,,,,,,,,,,,
25195,1480908796772,,,,,,,,-0.09,0.05,0.99,-2.5,-3.6,-0.3,820,83,,,,,,,,,,,,,,,,,,,
25215,1480908796792,,,,,,,,-0.09,0.05,1.0,-2.6,-3.7,-0.3,820,81,,,,,,,,,,,,,,,,,,,
25235,1480908796812,,,,,,,,-0.09,0.05,1.0,-2.6,-3.7,-0.3,820,83,,,,,,,,,,,,,,,,,,,
25255,1480908796832,0,56.1,,56.9,62,57.0,,-0.08,0.06,1.0,-2.6,-3.8,-0.3,820,81,1,1,9.88,0,37.478298,-122.203934,1.39,0.0,42.2,5,2,1.8,0,0.0,-1,0.0,0.0,0.0,0
25275,1480908796852,,,,,,,,-0.08,0.06,1.0,-2.6,-4.0,-0.3,820,81,,,,,,,,,,,,,,,,,,,
25295,1480908796872,,,,,,,,-0.08,0.05,1.0,-2.6,-3.9,-0.3,820,80,,,,,,,,,,,,,,,,,,,
25315,1480908796892,,,,,,,,-0.08,0.06,1.0,-2.6,-3.9,-0.3,800,78,,,,,,,,,,,,,,,,,,,
25335,1480908797004,,,,,,,,-0.08,0.07,1.0,-2.6,-3.9,-0.2,800,76,,,,,,,,,,,,,,,,,,,
25355,1480908797024,,,,,61,,,-0.07,0.07,1.0,-2.6,-3.8,-0.3,800,76,1,1,10.25,0,37.478298,-122.203934,1.42,0.0,41.9,5,2,2.3,0,0.0,-1,0.0,,0.0,0
25375,1480908797044,,,,,,,,-0.07,0.07,1.01,-2.6,-3.8,-0.4,800,76,,,,,,,,,,,,,,,,,,,
25395,1480908797064,,,,,,,,-0.07,0.07,1.01,-2.6,-3.7,-0.5,800,75,,,,,,,,,,,,,,,,,,,
25415,1480908797084,,,,,,,,-0.07,0.06,1.0,-2.6,-3.6,-0.5,800,75,,,,,,,,,,,,,,,,,,,
25435,1480908797104,,,,,,,,-0.06,0.07,1.0,-2.7,-3.6,-0.5,800,75,,,,,,,,,,,,,,,,,,,
25455,1480908797124,0,56.1,,54.3,60,59.4,,-0.06,0.07,1.0,-2.7,-3.6,-0.4,800,73,1,1,10.667,0,37.478298,-122.203934,1.42,0.0,41.9,5,2,2.3,0,0.0,-1,0.0,0.0,0.0,0
25475,1480908797144,,,,,,,,-0.06,0.07,1.01,-2.6,-3.5,-0.4,780,73,,,,,,,,,,,,,,,,,,,
25495,1480908797164,,,,,,,,-0.06,0.06,1.01,-2.6,-3.4,-0.5,780,72,,,,,,,,,,,,,,,,,,,
25515,1480908797091,,,,,,,,-0.06,0.06,1.0,-2.6,-3.4,-0.4,780,72,,,,,,,,,,,,,,,,,,,
25535,1480908797111,,,,,,,,-0.06,0.06,1.0,-2.6,-3.4,-0.5,780,70,,,,,,,,,,,,,,,,,,,
25555,1480908797131,,,,,59,,,-0.06,0.06,1.0,-2.6,-3.4,-0.4,780,70,1,1,10.833,0,37.478298,-122.203934,1.43,0.0,41.7,5,2,2.3,0,0.0,-1,0.0,,0.0,0
25575,1480908797151,,,,,,,,-0.06,0.06,1.0,-2.6,-3.5,-0.4,780,70,,,,,,,,,,,,,,,,,,,
25595,1480908797171,,,,,,,,-0.06,0.06,1.0,-2.6,-3.4,-0.4,780,70,,,,,,,,,,,,,,,,,,,
25615,1480908797191,,,,,,,,-0.05,0.06,1.0,-2.6,-3.4,-0.4,780,70,,,,,,,,,,,,,,,,,,,
25635,1480908797211,,,,,,,,-0.05,0.07,0.99,-2.6,-3.4,-0.3,780,69,,,,,,,,,,,,,,,,,,,
25655,1480908797231,0,54.9,,53.9,59,58.1,,-0.05,0.07,1.0,-2.6,-3.5,-0.3,780,67,1,1,11.143,0,37.478298,-122.203934,1.27,0.0,41.7,5,2,2.3,0,0.0,-1,0.0,0.0,0.0,0
25675,1480908797251,,,,,,,,-0.06,0.07,1.0,-2.6,-3.6,-0.3,780,67,,,,,,,,,,,,,,,,,,,
25695,1480908797271,,,,,,,,-0.06,0.06,1.0,-2.6,-3.4,-0.4,780,67,,,,,,,,,,,,,,,,,,,
25715,1480908797291,,,,,,,,-0.05,0.06,1.0,-2.6,-3.5,-0.4,780,66,,,,,,,,,,,,,,,,,,,
25735,1480908797311,,,,,,,,-0.05,0.06,1.0,-2.6,-3.5,-0.3,780,64,,,,,,,,,,,,,,,,,,,
25755,1480908797331,,,,,58,,,-0.05,0.06,1.0,-2.7,-3.4,-0.3,780,64,1,1,11.642,0,37.478298,-122.203934,1.04,0.0,41.5,5,2,2.3,0,0.0,-1,0.0,,0.0,0
25775,1480908797351,,,,,,,,-0.06,0.06,1.0,-2.7,-3.5,-0.3,780,63,,,,,,,,,,,,,,,,,,,
25795,1480908797371,,,,,,,,-0.05,0.06,0.99,-2.7,-3.4,-0.3,780,63,,,,,,,,,,,,,,,,,,,
25815,1480908797391,,,,,,,,-0.05,0.06,1.0,-2.7,-3.4,-0.3,780,63,,,,,,,,,,,,,,,,,,,
25835,1480908797411,,,,,,,,-0.05,0.06,1.0,-2.6,-3.4,-0.3,780,61,,,,,,,,,,,,,,,,,,,
25855,1480908797431,0,54.8,,53.6,58,58.2,,-0.05,0.06,1.0,-2.7,-3.4,-0.3,780,61,1,1,12.381,0,37.478302,-122.203918,4.75,0.0,41.0,5,2,2.3,0,0.0,-1,0.0,0.0,0.0,0
25875,1480908797451,,,,,,,,-0.05,0.06,1.0,-2.6,-3.4,-0.3,760,60,,,,,,,,,,,,,,,,,,,
25895,1480908797471,,,,,,,,-0.05,0.06,1.0,-2.6,-3.4,-0.3,760,60,,,,,,,,,,,,,,,,,,,
25915,1480908797491,,,,,,,,-0.04,0.06,1.0,-2.6,-3.4,-0.3,760,60,,,,,,,,,,,,,,,,,,,
25935,1480908797510,,,,,,,,-0.05,0.07,1.0,-2.6,-3.4,-0.3,760,60,,,,,,,,,,,,,,,,,,,
25955,1480908797530,,,,,56,,,-0.05,0.06,1.0,-2.6,-3.5,-0.4,760,60,1,1,12.667,0,37.478306,-122.203918,1.96,0.0,41.0,5,2,2.3,0,0.0,-1,0.0,,0.0,0
25975,1480908797550,,,,,,,,-0.04,0.06,1.0,-2.7,-3.5,-0.4,760,58,,,,,,,,,,,,,,,,,,,
25995,1480908797570,,,,,,,,-0.04,0.06,1.0,-2.7,-3.4,-0.4,760,58,,,,,,,,,,,,,,,,,,,
26015,1480908797590,,,,,,,,-0.04,0.07,1.0,-2.7,-3.3,-0.4,740,58,,,,,,,,,,,,,,,,,,,
26035,1480908797610,,,,,,,,-0.03,0.07,1.0,-2.7,-3.3,-0.4,740,56,,,,,,,,,,,,,,,,,,,
26055,1480908797630,0,56.6,1.3,54.9,55,60.0,14.85,-0.03,0.06,0.99,-2.7,-3.3,-0.4,740,56,1,1,13.103,0,37.478306,-122.203918,1.2,0.0,41.1,5,2,2.3,0,0.0,-1,0.0,0.0,0.0,0
26075,1480908797650,,,,,,,,-0.04,0.06,0.99,-2.7,-3.2,-0.4,740,56,,,,,,,,,,,,,,,,,,,
26095,1480908797670,,,,,,,,-0.03,0.06,0.99,-2.8,-3.3,-0.4,720,56,,,,,,,,,,,,,,,,,,,
26115,1480908797691,,,,,,,,-0.04,0.06,0.99,-2.7,-3.3,-0.5,720,56,,,,,,,,,,,,,,,,,,,
26135,1480908797810,,,,,,,,-0.03,0.05,0.99,-2.7,-3.2,-0.5,720,56,,,,,,,,,,,,,,,,,,,
26155,1480908797830,,,,,55,,,-0.02,0.06,0.99,-2.7,-3.2,-0.5,740,56,1,1,12.857,0,37.478306,-122.203918,0.96,0.0,40.9,5,2,2.3,0,0.0,-1,0.0,,0.0,0
26175,1480908797850,,,,,,,,-0.03,0.06,0.99,-2.7,-3.2,-0.5,740,56,,,,,,,,,,,,,,,,,,,
26195,1480908797870,,,,,,,,-0.03,0.06,0.99,-2.7,-3.4,-0.5,740,55,,,,,,,,,,,,,,,,,,,
26215,1480908797890,,,,,,,,-0.02,0.07,0.99,-2.7,-3.4,-0.5,740,55,,,,,,,,,,,,,,,,,,,
26235,1480908797910,,,,,,,,-0.02,0.07,0.99,-2.7,-3.5,-0.4,720,55,,,,,,,,,,,,,,,,,,,
26255,1480908797930,0,57.3,,56.9,53,58.0,,-0.02,0.07,0.99,-2.7,-3.5,-0.4,720,55,1,1,13.455,0,37.478306,-122.203918,0.96,0.0,40.9,5,2,2.3,0,0.0,-1,0.0,0.0,0.0,0
26275,1480908797950,,,,,,,,-0.02,0.07,0.99,-2.7,-3.5,-0.4,720,55,,,,,,,,,,,,,,,,,,,
26295,1480908797970,,,,,,,,-0.01,0.07,0.99,-2.7,-3.6,-0.4,720,55,,,,,,,,,,,,,,,,,,,
26315,1480908797990,,,,,,,,-0.01,0.07,0.99,-2.7,-3.7,-0.4,720,55,,,,,,,,,,,,,,,,,,,
26335,1480908797906,,,,,,,,-0.01,0.07,0.99,-2.7,-3.7,-0.5,720,56,,,,,,,,,,,,,,,,,,,
26355,1480908797926,,,,,53,,,-0.0,0.08,1.0,-2.7,-3.6,-0.5,720,56,1,1,13.091,0,37.478306,-122.203918,0.95,0.0,40.8,5,2,2.3,0,0.0,-1,0.0,,0.0,0
26375,1480908797946,,,,,,,,-0.0,0.07,1.0,-2.7,-3.6,-0.5,720,58,,,,,,,,,,,,,,,,,,,
26395,1480908797966,,,,,,,,0.0,0.07,1.0,-2.8,-3.6,-0.5,720,58,,,,,,,,,,,,,,,,,,,
26415,1480908797992,,,,,,,,0.0,0.07,0.99,-2.8,-3.7,-0.5,720,58,,,,,,,,,,,,,,,,,,,
26435,1480908798012,,,,,,,,0.01,0.07,0.99,-2.8,-3.7,-0.5,720,58,,,,,,,,,,,,,,,,,,,
26455,1480908798032,0,55.2,,56.3,52,57.0,,0.01,0.07,0.99,-2.7,-3.7,-0.5,720,56,1,1,12.414,0,37.478306,-122.203918,0.97,0.0,40.8,5,2,2.3,0,0.0,-1,0.0,0.0,0.0,0
26475,1480908798052,,,,,,,,0.01,0.07,0.99,-2.7,-3.7,-0.6,720,56,,,,,,,,,,,,,,,,,,,
26495,1480908798072,,,,,,,,0.01,0.06,0.99,-2.6,-3.7,-0.6,720,58,,,,,,,,,,,,,,,,,,,
26515,1480908798092,,,,,,,,0.01,0.07,0.98,-2.6,-3.8,-0.6,720,58,,,,,,,,,,,,,,,,,,,
26535,1480908798106,,,,,,,,0.02,0.07,0.98,-2.6,-3.8,-0.5,740,60,,,,,,,,,,,,,,,,,,,
26555,1480908798126,,,,,52,,,0.02,0.07,0.98,-2.6,-3.9,-0.4,740,61,1,1,12.414,0,37.478306,-122.203918,0.96,0.0,40.8,5,3,2.3,0,0.0,-1,0.0,,0.0,0
26575,1480908798146,,,,,,,,0.02,0.07,0.99,-2.5,-4.0,-0.3,740,61,,,,,,,,,,,,,,,,,,,
26595,1480908798166,,,,,,,,0.02,0.07,0.98,-2.5,-4.1,-0.3,740,63,,,,,,,,,,,,,,,,,,,
26615,1480908798186,,,,,,,,0.03,0.07,0.98,-2.5,-4.2,-0.3,740,64,,,,,,,,,,,,,,,,,,,
26635,1480908798193,,,,,,,,0.03,0.07,0.99,-2.6,-4.2,-0.5,740,66,,,,,,,,,,,,,,,,,,,
26655,1480908798213,0,54.5,,54.1,52,57.6,,0.02,0.08,0.99,-2.7,-4.3,-0.7,740,66,1,1,11.746,0,37.478306,-122.203918,1.01,0.0,40.8,5,3,2.3,0,0.0,-1,0.0,0.0,0.0,0
26675,1480908798233,,,,,,,,0.02,0.08,1.0,-2.8,-4.4,-0.8,740,69,,,,,,,,,,,,,,,,,,,
26695,1480908798253,,,,,,,,0.02,0.08,1.01,-2.9,-4.3,-0.8,740,67,,,,,,,,,,,,,,,,,,,
26715,1480908798291,,,,,,,,0.02,0.08,1.02,-3.0,-4.2,-0.9,740,66,,,,,,,,,,,,,,,,,,,
26735,1480908798311,,,,,,,,0.0,0.07,1.03,-3.0,-4.0,-0.9,740,66,,,,,,,,,,,,,,,,,,,
