"Interval"|"ms"|0|0|1,"Utc"|"ms"|0|0|1,"FuelLevel"|"F"|0|100|5,"OilTemp"|"F"|0.0|300.0|5,"CoolantPressPSI"|"PSI"|0.0|20.0|1,"Coolant"|"F"|0.0|300.0|5,"OilPress"|"PSI"|0|150|10,"EngineTemp"|"F"|0.0|300.0|5,"Battery"|"Volts"|0.0|20.0|1,"AccelX"|"G"|-3.0|3.0|50,"AccelY"|"G"|-3.0|3.0|50,"AccelZ"|"G"|-3.0|3.0|50,"Yaw"|"Deg/Sec"|-300.0|300.0|50,"Pitch"|"Deg/Sec"|-300.0|300.0|50,"Roll"|"Deg/Sec"|-300.0|300.0|50,"RPM"|""|0|10000|50,"Driveshaft"|"RPM"|0|5000|50,"GPIO1"|""|0|1|10,"GPIO2"|""|0|1|10,"GearRatio"|""|-5.0|5.0|10,"Gear"|""|-1|5|10,"Latitude"|"Degrees"|-180.0|180.0|10,"Longitude"|"Degrees"|-180.0|180.0|10,"Speed"|"MPH"|0.0|150.0|10,"Distance"|"Miles"|0.0|0.0|10,"Altitude"|"Feet"|0.0|4000.0|10,"GPSSats"|""|0|20|10,"GPSQual"|""|0|5|10,"GPSDOP"|""|0.0|20.0|10,"LapCount"|""|0|0|10,"LapTime"|"Min"|0.0|0.0|10,"Sector"|""|0|0|10,"SectorTime"|"Min"|0.0|0.0|10,"PredTime"|"Min"|0.0|0.0|5,"ElapsedTime"|"Min"|0.0|0.0|10,"CurrentLap"|""|0|0|10
,,,,,,,,,,,,,,,,,,,,,,,,,,,,,,,,,,,
30595,1480901661172,,,,,,,,0.04,0.12,0.99,-12.2,-1.3,-0.5,880,212,,,,,,,,,,,,,,,,,,,
30615,1480901661192,,,,,,,,0.04,0.12,1.0,-12.1,-1.3,-0.5,880,210,,,,,,,,,,,,,,,,,,,
30635,1480901661213,,,,,,,,0.04,0.13,1.0,-11.9,-1.3,-0.5,880,210,,,,,,,,,,,,,,,,,,,
30655,1480901661233,0,106.9,,122.9,52,117.8,,0.04,0.12,1.0,-11.8,-1.4,-0.5,880,207,1,1,4.19,0,38.159195,-122.454231,3.81,0.0,49.5,6,3,1.1,0,0.0,-1,0.0,0.0,0.0,0
30675,1480901661253,,,,,,,,0.03,0.12,1.0,-11.7,-1.4,-0.5,880,206,,,,,,,,,,,,,,,,,,,
30695,1480901661273,,,,,,,,0.04,0.1,1.0,-11.6,-1.2,-0.5,880,206,,,,,,,,,,,,,,,,,,,
30715,1480901661293,,,,,,,,0.04,0.1,1.0,-11.5,-1.3,-0.5,880,204,,,,,,,,,,,,,,,,,,,
30735,1480901661313,,,,,,,,0.04,0.1,0.99,-11.4,-1.4,-0.5,880,207,,,,,,,,,,,,,,,,,,,
30755,1480901661333,,,,,51,,,0.04,0.1,0.99,-11.4,-1.2,-0.5,880,206,1,1,4.19,0,38.159199,-122.454231,3.89,0.001,42.8,6,3,1.1,0,0.0,-1,0.0,,0.0,0
30775,1480901661353,,,,,,,,0.04,0.11,0.99,-11.3,-1.2,-0.5,880,206,,,,,,,,,,,,,,,,,,,
30795,1480901661373,,,,,,,,0.04,0.11,1.0,-11.2,-1.2,-0.5,880,203,,,,,,,,,,,,,,,,,,,
30815,1480901661393,,,,,,,,0.03,0.11,1.0,-11.1,-1.3,-0.5,880,200,,,,,,,,,,,,,,,,,,,
30835,1480901661412,,,,,,,,0.03,0.11,1.0,-11.0,-1.4,-0.5,880,200,,,,,,,,,,,,,,,,,,,
30855,1480901661432,0,105.3,,123.1,51,120.3,,0.03,0.1,1.0,-11.0,-1.4,-0.5,880,200,1,1,4.272,0,38.159203,-122.454231,3.6,0.001,43.4,6,3,1.1,0,0.0,-1,0.0,0.0,0.0,0
30875,1480901661452,,,,,,,,0.03,0.09,1.0,-10.9,-1.2,-0.4,880,201,,,,,,,,,,,,,,,,,,,
30895,1480901661472,,,,,,,,0.03,0.09,1.0,-10.8,-1.2,-0.4,880,204,,,,,,,,,,,,,,,,,,,
30915,1480901661492,,,,,,,,0.03,0.09,0.99,-10.8,-1.3,-0.3,880,203,,,,,,,,,,,,,,,,,,,
30935,1480901661512,,,,,,,,0.03,0.09,0.99,-10.7,-1.1,-0.3,880,201,,,,,,,,,,,,,,,,,,,
30955,1480901661532,,,,,52,,,0.03,0.1,1.0,-10.7,-1.1,-0.2,900,198,1,1,4.335,0,38.159206,-122.454231,3.78,0.001,44.2,6,3,1.1,0,0.0,-1,0.0,,0.0,0
30975,1480901661552,,,,,,,,0.03,0.11,1.0,-10.6,-1.3,-0.1,900,196,,,,,,,,,,,,,,,,,,,
30995,1480901661572,,,,,,,,0.03,0.11,1.0,-10.6,-1.4,-0.1,900,195,,,,,,,,,,,,,,,,,,,
31015,1480901661592,,,,,,,,0.03,0.11,1.0,-10.6,-1.2,-0.1,900,196,,,,,,,,,,,,,,,,,,,
31035,1480901661612,,,,,,,,0.03,0.11,1.0,-10.5,-1.3,-0.2,900,198,,,,,,,,,,,,,,,,,,,
31055,1480901661611,0,101.4,0.0,120.6,50,121.0,14.71,0.02,0.09,1.0,-10.4,-1.4,-0.2,900,200,1,1,4.615,0,38.15921,-122.454231,3.57,0.001,45.1,6,3,1.1,0,0.0,-1,0.0,0.0,0.0,0
31075,1480901661730,,,,,,,,0.02,0.09,1.0,-10.4,-1.3,-0.2,900,196,,,,,,,,,,,,,,,,,,,
31095,1480901661750,,,,,,,,0.03,0.09,1.0,-10.3,-1.3,-0.1,900,195,,,,,,,,,,,,,,,,,,,
31115,1480901661770,,,,,,,,0.03,0.09,1.0,-10.2,-1.4,-0.1,900,192,,,,,,,,,,,,,,,,,,,
31135,1480901661790,,,,,,,,0.03,0.09,1.0,-10.2,-1.4,-0.1,900,189,,,,,,,,,,,,,,,,,,,
31155,1480901661810,,,,,54,,,0.04,0.09,1.0,-10.1,-1.4,-0.1,900,189,1,1,4.545,0,38.159214,-122.454231,3.48,0.002,45.9,6,3,1.1,0,0.0,-1,0.0,,0.0,0
31175,1480901661830,,,,,,,,0.04,0.1,1.0,-10.0,-1.3,-0.1,900,190,,,,,,,,,,,,,,,,,,,
31195,1480901661850,,,,,,,,0.04,0.1,1.0,-9.9,-1.4,-0.1,900,193,,,,,,,,,,,,,,,,,,,
31215,1480901661870,,,,,,,,0.04,0.1,1.01,-9.8,-1.4,-0.2,900,193,,,,,,,,,,,,,,,,,,,
31235,1480901661811,,,,,,,,0.04,0.1,1.01,-9.8,-1.4,-0.2,900,192,,,,,,,,,,,,,,,,,,,
31255,1480901661831,0,102.3,,120.4,50,119.8,,0.03,0.1,1.01,-9.7,-1.5,-0.3,900,187,1,1,4.737,0,38.159218,-122.454231,3.51,0.002,46.4,6,3,1.1,0,0.0,-1,0.0,0.0,0.0,0
31275,1480901661851,,,,,,,,0.03,0.09,1.01,-9.7,-1.5,-0.3,900,186,,,,,,,,,,,,,,,,,,,
31295,1480901661871,,,,,,,,0.04,0.09,1.01,-9.6,-1.3,-0.3,880,183,,,,,,,,,,,,,,,,,,,
31315,1480901661891,,,,,,,,0.05,0.1,1.0,-9.6,-1.2,-0.2,900,184,,,,,,,,,,,,,,,,,,,
31335,1480901661911,,,,,,,,0.05,0.09,1.0,-9.6,-1.3,-0.2,900,184,,,,,,,,,,,,,,,,,,,
31355,1480901661931,,,,,53,,,0.04,0.1,1.0,-9.6,-1.3,-0.1,900,187,1,1,4.839,0,38.159218,-122.454231,3.34,0.002,47.0,6,3,1.1,0,0.0,-1,0.0,,0.0,0
31375,1480901661951,,,,,,,,0.05,0.1,1.01,-9.6,-1.2,-0.1,900,187,,,,,,,,,,,,,,,,,,,
31395,1480901661971,,,,,,,,0.05,0.11,1.0,-9.5,-1.1,-0.0,900,186,,,,,,,,,,,,,,,,,,,
31415,1480901661991,,,,,,,,0.05,0.11,1.01,-9.5,-1.1,-0.1,900,183,,,,,,,,,,,,,,,,,,,
31435,1480901662011,,,,,,,,0.05,0.12,1.01,-9.4,-1.1,-0.2,900,180,,,,,,,,,,,,,,,,,,,
31455,1480901662030,0,103.8,,119.7,52,118.3,,0.05,0.12,1.01,-9.3,-1.0,-0.2,900,178,1,1,4.813,0,38.159218,-122.454231,3.47,0.002,46.9,6,3,1.1,0,0.0,-1,0.0,0.0,0.0,0
31475,1480901662050,,,,,,,,0.04,0.11,1.0,-9.3,-1.2,-0.2,920,178,,,,,,,,,,,,,,,,,,,
31495,1480901662070,,,,,,,,0.03,0.11,1.0,-9.2,-1.3,-0.3,920,181,,,,,,,,,,,,,,,,,,,
31515,1480901662090,,,,,,,,0.03,0.1,1.0,-9.2,-1.2,-0.3,900,183,,,,,,,,,,,,,,,,,,,
31535,1480901662110,,,,,,,,0.03,0.1,0.99,-9.1,-0.9,-0.3,920,181,,,,,,,,,,,,,,,,,,,
31555,1480901662128,,,,,52,,,0.03,0.09,0.99,-9.1,-1.1,-0.3,900,180,1,1,5.169,0,38.159218,-122.454231,3.24,0.002,46.6,6,3,1.1,0,0.0,-1,0.0,,0.0,0
31575,1480901662148,,,,,,,,0.03,0.09,0.99,-9.1,-1.2,-0.2,900,178,,,,,,,,,,,,,,,,,,,
31595,1480901662168,,,,,,,,0.04,0.09,0.99,-9.1,-1.1,-0.2,920,175,,,,,,,,,,,,,,,,,,,
31615,1480901662188,,,,,,,,0.04,0.1,1.0,-9.1,-1.0,-0.2,920,173,,,,,,,,,,,,,,,,,,,
31635,1480901662208,,,,,,,,0.04,0.11,1.0,-9.1,-1.2,-0.1,920,173,,,,,,,,,,,,,,,,,,,
31655,1480901662227,0,106.4,,122.6,53,117.2,,0.04,0.11,1.01,-9.0,-1.2,-0.2,920,175,1,1,5.169,0,38.159222,-122.454231,3.22,0.002,46.7,6,3,1.1,0,0.0,-1,0.0,0.0,0.0,0
31675,1480901662247,,,,,,,,0.04,0.11,1.02,-8.9,-1.1,-0.3,920,176,,,,,,,,,,,,,,,,,,,
31695,1480901662267,,,,,,,,0.04,0.11,1.03,-8.8,-1.1,-0.4,920,176,,,,,,,,,,,,,,,,,,,
31715,1480901662287,,,,,,,,0.04,0.11,1.03,-8.7,-1.1,-0.6,920,173,,,,,,,,,,,,,,,,,,,
31735,1480901662307,,,,,,,,0.04,0.11,1.03,-8.7,-1.2,-0.8,940,172,,,,,,,,,,,,,,,,,,,
31755,1480901662328,,,,,54,,,0.03,0.1,1.02,-8.6,-1.3,-0.9,920,169,1,1,5.227,0,38.159222,-122.454231,3.37,0.002,46.2,6,3,1.1,0,0.0,-1,0.0,,0.0,0
31775,1480901662348,,,,,,,,0.03,0.09,1.01,-8.5,-1.3,-1.0,920,166,,,,,,,,,,,,,,,,,,,
31795,1480901662368,,,,,,,,0.03,0.09,1.01,-8.5,-1.2,-1.0,920,164,,,,,,,,,,,,,,,,,,,
31815,1480901662388,,,,,,,,0.04,0.08,1.0,-8.5,-1.1,-1.0,920,164,,,,,,,,,,,,,,,,,,,
31835,1480901662408,,,,,,,,0.05,0.08,1.0,-8.5,-1.1,-1.1,900,164,,,,,,,,,,,,,,,,,,,
31855,1480901662527,0,106.6,,122.9,53,118.9,,0.05,0.08,1.0,-8.4,-1.2,-1.2,900,166,1,1,5.542,0,38.159222,-122.454231,2.87,0.002,45.1,6,3,1.1,0,0.0,-1,0.0,0.0,0.0,0
31875,1480901662547,,,,,,,,0.05,0.09,1.01,-8.4,-1.2,-1.3,900,166,,,,,,,,,,,,,,,,,,,
31895,1480901662567,,,,,,,,0.05,0.09,1.02,-8.3,-1.2,-1.3,920,164,,,,,,,,,,,,,,,,,,,
31915,1480901662587,,,,,,,,0.05,0.1,1.02,-8.3,-1.2,-1.3,900,163,,,,,,,,,,,,,,,,,,,
31935,1480901662607,,,,,,,,0.05,0.1,1.02,-8.2,-1.2,-1.3,900,160,,,,,,,,,,,,,,,,,,,
31955,1480901662627,,,,,53,,,0.05,0.11,1.02,-8.1,-1.2,-1.3,900,156,1,1,5.542,0,38.159222,-122.454231,2.87,0.002,45.1,6,3,1.1,0,0.0,-1,0.0,,0.0,0
31975,1480901662647,,,,,,,,0.05,0.11,1.02,-8.0,-1.2,-1.3,900,155,,,,,,,,,,,,,,,,,,,
31995,1480901662667,,,,,,,,0.04,0.1,1.01,-8.0,-1.3,-1.3,900,156,,,,,,,,,,,,,,,,,,,
32015,1480901662687,,,,,,,,0.04,0.09,1.0,-8.0,-1.3,-1.4,900,155,,,,,,,,,,,,,,,,,,,
32035,1480901662707,,,,,,,,0.04,0.09,1.0,-7.9,-1.3,-1.4,900,156,,,,,,,,,,,,,,,,,,,
32055,1480901662624,0,105.9,0.0,122.1,52,117.4,14.78,0.04,0.08,1.0,-7.9,-1.2,-1.3,900,156,1,1,5.806,0,38.159222,-122.454231,2.89,0.002,44.9,6,3,1.1,0,0.0,-1,0.0,0.0,0.0,0
32075,1480901662644,,,,,,,,0.04,0.08,0.99,-8.0,-1.2,-1.2,900,155,,,,,,,,,,,,,,,,,,,
32095,1480901662664,,,,,,,,0.04,0.08,0.99,-7.9,-1.2,-1.1,900,153,,,,,,,,,,,,,,,,,,,
32115,1480901662684,,,,,,,,0.04,0.08,1.0,-7.9,-1.0,-1.0,900,150,,,,,,,,,,,,,,,,,,,
32135,1480901662704,,,,,,,,0.04,0.08,1.0,-7.8,-0.9,-0.9,900,149,,,,,,,,,,,,,,,,,,,
32155,1480901662727,,,,,53,,,0.04,0.09,1.0,-7.8,-1.1,-0.9,900,149,1,1,5.806,0,38.159225,-122.454231,2.8,0.002,44.5,6,3,1.1,0,0.0,-1,0.0,,0.0,0
32175,1480901662747,,,,,,,,0.04,0.1,1.0,-7.7,-1.1,-0.9,900,149,,,,,,,,,,,,,,,,,,,
32195,1480901662767,,,,,,,,0.04,0.1,1.0,-7.6,-1.0,-0.9,900,152,,,,,,,,,,,,,,,,,,,
32215,1480901662787,,,,,,,,0.03,0.1,1.0,-7.5,-1.0,-0.8,900,152,,,,,,,,,,,,,,,,,,,
32235,1480901662811,,,,,,,,0.02,0.09,1.0,-7.5,-1.0,-0.8,900,152,,,,,,,,,,,,,,,,,,,
32255,1480901662831,0,106.5,,122.7,51,117.6,,0.03,0.09,1.0,-7.4,-0.9,-0.8,900,150,1,1,6.04,0,38.159225,-122.454231,2.96,0.002,44.4,6,3,1.1,0,0.0,-1,0.0,0.0,0.0,0
32275,1480901662851,,,,,,,,0.03,0.09,0.99,-7.4,-0.9,-0.7,900,147,,,,,,,,,,,,,,,,,,,
32295,1480901662871,,,,,,,,0.03,0.09,0.99,-7.5,-1.0,-0.6,900,146,,,,,,,,,,,,,,,,,,,
32315,1480901662891,,,,,,,,0.03,0.09,0.99,-7.5,-1.1,-0.5,900,144,,,,,,,,,,,,,,,,,,,
32335,1480901662911,,,,,,,,0.04,0.09,1.0,-7.4,-1.0,-0.5,900,144,,,,,,,,,,,,,,,,,,,
32355,1480901662930,,,,,52,,,0.04,0.1,1.0,-7.4,-1.0,-0.5,880,143,1,1,6.122,0,38.159225,-122.454231,2.67,0.002,44.4,6,3,1.1,0,0.0,-1,0.0,,0.0,0
32375,1480901662950,,,,,,,,0.04,0.1,1.0,-7.4,-1.0,-0.5,880,143,,,,,,,,,,,,,,,,,,,
32395,1480901662970,,,,,,,,0.04,0.1,1.01,-7.3,-1.0,-0.5,880,144,,,,,,,,,,,,,,,,,,,
32415,1480901662990,,,,,,,,0.04,0.1,1.0,-7.2,-1.1,-0.5,900,144,,,,,,,,,,,,,,,,,,,
32435,1480901663010,,,,,,,,0.03,0.09,1.0,-7.2,-1.1,-0.5,880,143,,,,,,,,,,,,,,,,,,,
32455,1480901663030,0,103.8,,122.2,51,120.5,,0.03,0.09,1.0,-7.1,-1.0,-0.5,880,143,1,1,6.111,0,38.159229,-122.454231,2.56,0.003,44.4,6,3,1.1,0,0.0,-1,0.0,0.0,0.0,0
32475,1480901663050,,,,,,,,0.03,0.09,1.0,-7.1,-1.0,-0.4,880,140,,,,,,,,,,,,,,,,,,,
32495,1480901663070,,,,,,,,0.03,0.09,0.99,-7.1,-1.1,-0.3,880,140,,,,,,,,,,,,,,,,,,,
32515,1480901663090,,,,,,,,0.03,0.09,0.99,-7.1,-1.0,-0.3,880,138,,,,,,,,,,,,,,,,,,,
32535,1480901663110,,,,,,,,0.03,0.09,1.0,-7.1,-0.9,-0.3,880,136,,,,,,,,,,,,,,,,,,,
32555,1480901663127,,,,,51,,,0.03,0.1,1.0,-7.1,-1.0,-0.2,880,135,1,1,6.286,0,38.159229,-122.454231,2.58,0.003,44.1,7,3,2.5,0,0.0,-1,0.0,,0.0,0
32575,1480901663147,,,,,,,,0.03,0.1,1.0,-7.0,-1.0,-0.3,880,136,,,,,,,,,,,,,,,,,,,
32595,1480901663167,,,,,,,,0.03,0.1,1.0,-7.0,-1.1,-0.3,880,135,,,,,,,,,,,,,,,,,,,
32615,1480901663187,,,,,,,,0.03,0.09,1.0,-7.0,-1.1,-0.3,880,136,,,,,,,,,,,,,,,,,,,
32635,1480901663305,,,,,,,,0.03,0.08,1.0,-6.9,-0.9,-0.3,880,136,,,,,,,,,,,,,,,,,,,
32655,1480901663325,1,103.7,,122.3,49,120.5,,0.03,0.07,1.0,-6.9,-0.8,-0.2,880,136,1,1,6.471,0,38.159229,-122.454231,2.42,0.003,43.7,7,3,2.5,0,0.0,-1,0.0,0.0,0.0,0
32675,1480901663345,,,,,,,,0.03,0.08,0.99,-6.9,-0.9,-0.1,880,136,,,,,,,,,,,,,,,,,,,
32695,1480901663365,,,,,,,,0.03,0.08,1.0,-6.9,-0.7,-0.1,880,133,,,,,,,,,,,,,,,,,,,
32715,1480901663385,,,,,,,,0.03,0.09,1.0,-6.9,-0.6,-0.0,880,132,,,,,,,,,,,,,,,,,,,
32735,1480901663405,,,,,,,,0.03,0.09,0.99,-6.9,-0.7,-0.0,880,130,,,,,,,,,,,,,,,,,,,
32755,1480901663425,,,,,50,,,0.03,0.09,1.0,-6.8,-0.7,-0.0,880,129,1,1,6.519,0,38.159229,-122.454231,2.42,0.003,43.7,7,3,2.5,0,0.0,-1,0.0,,0.0,0
32775,1480901663445,,,,,,,,0.03,0.09,1.0,-6.8,-0.7,0.0,880,129,,,,,,,,,,,,,,,,,,,
32795,1480901663465,,,,,,,,0.03,0.08,1.01,-6.8,-0.7,0.1,880,127,,,,,,,,,,,,,,,,,,,
32815,1480901663485,,,,,,,,0.03,0.07,1.01,-6.8,-0.7,0.1,880,127,,,,,,,,,,,,,,,,,,,
32835,1480901663402,,,,,,,,0.03,0.07,1.0,-6.8,-0.8,0.2,880,127,,,,,,,,,,,,,,,,,,,
32855,1480901663422,0,105.8,,123.4,50,120.4,,0.03,0.08,1.0,-6.8,-0.9,0.3,880,127,1,1,6.822,0,38.159229,-122.454231,2.43,0.003,43.6,7,3,2.5,0,0.0,-1,0.0,0.0,0.0,0
32875,1480901663442,,,,,,,,0.03,0.08,1.01,-6.7,-0.6,0.3,880,129,,,,,,,,,,,,,,,,,,,
32895,1480901663462,,,,,,,,0.04,0.09,1.01,-6.7,-0.6,0.3,860,127,,,,,,,,,,,,,,,,,,,
32915,1480901663482,,,,,,,,0.03,0.1,1.01,-6.7,-0.7,0.3,880,124,,,,,,,,,,,,,,,,,,,
32935,1480901663501,,,,,,,,0.03,0.1,1.01,-6.6,-0.8,0.2,880,124,,,,,,,,,,,,,,,,,,,
32955,1480901663521,,,,,50,,,0.03,0.09,1.0,-6.6,-0.9,0.1,880,121,1,1,6.929,0,38.159229,-122.454247,2.29,0.003,43.5,8,3,1.1,0,0.0,-1,0.0,,0.0,0
32975,1480901663541,,,,,,,,0.03,0.09,1.0,-6.5,-0.8,0.0,880,121,,,,,,,,,,,,,,,,,,,
32995,1480901663561,,,,,,,,0.03,0.08,1.0,-6.5,-0.6,-0.0,880,120,,,,,,,,,,,,,,,,,,,
33015,1480901663581,,,,,,,,0.03,0.09,0.99,-6.5,-0.7,-0.0,880,118,,,,,,,,,,,,,,,,,,,
33035,1480901663602,,,,,,,,0.03,0.09,0.99,-6.5,-0.8,-0.0,860,116,,,,,,,,,,,,,,,,,,,
33055,1480901663622,0,105.6,0.0,121.3,51,117.3,14.79,0.04,0.09,1.0,-6.5,-0.7,-0.1,880,116,1,1,7.333,0,38.159233,-122.454247,2.18,0.004,43.1,8,3,1.1,0,0.0,-1,0.0,0.0,0.0,0
33075,1480901663642,,,,,,,,0.04,0.09,1.0,-6.5,-0.7,-0.2,880,116,,,,,,,,,,,,,,,,,,,
33095,1480901663662,,,,,,,,0.04,0.09,1.01,-6.5,-0.7,-0.3,880,116,,,,,,,,,,,,,,,,,,,
33115,1480901663682,,,,,,,,0.04,0.1,1.01,-6.5,-0.7,-0.4,860,116,,,,,,,,,,,,,,,,,,,
33135,1480901663705,,,,,,,,0.03,0.09,1.0,-6.4,-0.8,-0.4,860,115,,,,,,,,,,,,,,,,,,,
33155,1480901663725,,,,,51,,,0.03,0.09,1.0,-6.4,-0.6,-0.4,860,113,1,1,7.586,0,38.159233,-122.454247,2.17,0.004,46.9,8,3,1.1,0,0.0,-1,0.0,,0.0,0
33175,1480901663745,,,,,,,,0.04,0.09,1.0,-6.3,-0.6,-0.4,860,113,,,,,,,,,,,,,,,,,,,
33195,1480901663765,,,,,,,,0.04,0.08,0.99,-6.3,-0.7,-0.4,860,112,,,,,,,,,,,,,,,,,,,
33215,1480901663785,,,,,,,,0.04,0.09,0.99,-6.3,-0.7,-0.4,880,116,,,,,,,,,,,,,,,,,,,
33235,1480901663806,,,,,,,,0.04,0.1,0.99,-6.3,-0.8,-0.4,880,123,,,,,,,,,,,,,,,,,,,
33255,1480901663826,0,102.9,,120.5,49,119.1,,0.04,0.1,0.99,-6.3,-0.9,-0.4,860,143,1,1,7.611,0,38.159233,-122.454247,2.08,0.004,46.4,8,3,1.1,0,0.0,-1,0.0,0.0,0.0,0
33275,1480901663846,,,,,,,,0.04,0.1,1.0,-6.2,-0.8,-0.5,860,192,,,,,,,,,,,,,,,,,,,
33295,1480901663866,,,,,,,,0.04,0.11,0.99,-6.2,-1.2,-0.6,860,233,,,,,,,,,,,,,,,,,,,
33315,1480901663886,,,,,,,,0.01,0.09,0.99,-6.1,-1.1,-0.7,840,181,,,,,,,,,,,,,,,,,,,
33335,1480901663900,,,,,,,,0.02,0.09,0.98,-6.1,-0.9,-0.7,840,181,,,,,,,,,,,,,,,,,,,
33355,1480901663920,,,,,50,,,0.02,0.1,0.98,-6.1,-0.9,-0.6,840,44,1,1,4.479,0,38.159233,-122.454247,1.96,0.004,50.2,8,3,2.4,0,0.0,-1,0.0,,0.0,0
33375,1480901663940,,,,,,,,0.03,0.1,0.98,-6.1,-0.8,-0.6,820,147,,,,,,,,,,,,,,,,,,,
33395,1480901663960,,,,,,,,0.01,0.11,0.98,-6.1,-0.8,-0.6,800,215,,,,,,,,,,,,,,,,,,,
33415,1480901663980,,,,,,,,0.0,0.1,0.99,-6.1,-0.9,-0.7,780,187,,,,,,,,,,,,,,,,,,,
33435,1480901664105,,,,,,,,0.0,0.1,0.98,-6.0,-0.8,-0.7,760,187,,,,,,,,,,,,,,,,,,,
33455,1480901664125,0,106.1,,123.5,49,120.4,,0.01,0.1,0.98,-6.0,-0.8,-0.6,760,113,1,1,5.578,0,38.159237,-122.454247,1.97,0.004,52.3,8,3,2.4,0,0.0,-1,0.0,0.0,0.0,0
33475,1480901664145,,,,,,,,0.01,0.1,0.98,-6.1,-0.9,-0.5,740,189,,,,,,,,,,,,,,,,,,,
33495,1480901664165,,,,,,,,-0.0,0.11,0.99,-6.1,-0.9,-0.5,720,203,,,,,,,,,,,,,,,,,,,
33515,1480901664185,,,,,,,,-0.01,0.1,1.0,-6.1,-0.7,-0.5,720,169,,,,,,,,,,,,,,,,,,,
33535,1480901664205,,,,,,,,-0.01,0.1,1.0,-6.1,-0.7,-0.5,700,92,,,,,,,,,,,,,,,,,,,
33555,1480901664225,,,,,46,,,-0.01,0.11,1.0,-6.1,-0.7,-0.3,680,50,1,1,-3.915,-1,38.159237,-122.454247,1.97,0.004,52.3,8,3,2.4,0,0.0,-1,0.0,,0.0,0
33575,1480901664245,,,,,,,,-0.02,0.1,1.0,-6.1,-0.9,-0.3,680,198,,,,,,,,,,,,,,,,,,,
33595,1480901664265,,,,,,,,-0.02,0.1,1.0,-6.1,-1.0,-0.3,660,160,,,,,,,,,,,,,,,,,,,
33615,1480901664285,,,,,,,,-0.02,0.11,1.0,-6.1,-0.9,-0.3,620,101,,,,,,,,,,,,,,,,,,,
33635,1480901664205,,,,,,,,-0.02,0.11,1.0,-6.1,-0.9,-0.2,620,63,,,,,,,,,,,,,,,,,,,
33655,1480901664225,0,106.4,,122.7,46,117.3,,-0.02,0.1,1.0,-6.1,-0.9,-0.2,600,160,1,1,3.333,1,38.159237,-122.454247,2.02,0.004,52.7,8,3,2.4,0,0.0,-1,0.0,0.0,0.0,0
33675,1480901664245,,,,,,,,-0.03,0.1,1.0,-6.1,-1.0,-0.2,580,170,,,,,,,,,,,,,,,,,,,
33695,1480901664265,,,,,,,,-0.03,0.1,0.99,-6.1,-1.1,-0.2,580,149,,,,,,,,,,,,,,,,,,,
33715,1480901664285,,,,,,,,-0.03,0.11,0.99,-6.1,-1.0,-0.2,540,84,,,,,,,,,,,,,,,,,,,
33735,1480901664305,,,,,,,,-0.03,0.11,1.0,-6.2,-0.9,-0.1,540,104,,,,,,,,,,,,,,,,,,,
33755,1480901664325,,,,,45,,,-0.03,0.11,1.0,-6.2,-1.0,-0.1,540,158,1,1,3.412,1,38.159237,-122.454247,2.1,0.004,53.6,8,3,2.4,0,0.0,-1,0.0,,0.0,0
33775,1480901664345,,,,,,,,-0.03,0.11,1.0,-6.2,-1.1,-0.0,540,141,,,,,,,,,,,,,,,,,,,
33795,1480901664365,,,,,,,,-0.03,0.11,1.0,-6.2,-1.1,-0.1,500,112,,,,,,,,,,,,,,,,,,,
33815,1480901664385,,,,,,,,-0.04,0.1,1.0,-6.2,-1.1,-0.1,500,116,,,,,,,,,,,,,,,,,,,
33835,1480901664404,,,,,,,,-0.03,0.11,1.0,-6.2,-1.1,-0.1,480,143,,,,,,,,,,,,,,,,,,,
33855,1480901664424,0,103.4,,122.4,42,120.7,,-0.04,0.11,1.0,-6.3,-1.1,-0.1,480,136,1,1,-3.83,-1,38.159241,-122.454247,2.21,0.004,54.3,8,3,2.4,0,0.0,-1,0.0,0.0,0.0,0
33875,1480901664444,,,,,,,,-0.04,0.11,1.0,-6.3,-1.1,-0.1,460,133,,,,,,,,,,,,,,,,,,,
33895,1480901664464,,,,,,,,-0.04,0.11,1.0,-6.3,-1.1,-0.1,460,129,,,,,,,,,,,,,,,,,,,
33915,1480901664484,,,,,,,,-0.04,0.11,1.0,-6.3,-1.2,-0.2,440,135,,,,,,,,,,,,,,,,,,,
33935,1480901664503,,,,,,,,-0.04,0.11,1.01,-6.3,-1.2,-0.2,440,132,,,,,,,,,,,,,,,,,,,
33955,1480901664523,,,,,40,,,-0.04,0.11,1.01,-6.4,-1.2,-0.3,440,138,1,1,3.459,0,38.159241,-122.454247,2.16,0.004,53.9,8,3,2.4,0,0.0,-1,0.0,,0.0,0
33975,1480901664543,,,,,,,,-0.04,0.11,1.01,-6.4,-1.2,-0.3,440,133,,,,,,,,,,,,,,,,,,,
33995,1480901664563,,,,,,,,-0.04,0.1,1.0,-6.4,-1.2,-0.3,440,133,,,,,,,,,,,,,,,,,,,
34015,1480901664583,,,,,,,,-0.04,0.1,1.0,-6.4,-1.2,-0.3,420,130,,,,,,,,,,,,,,,,,,,
34035,1480901664603,,,,,,,,-0.04,0.1,1.01,-6.5,-1.3,-0.3,420,135,,,,,,,,,,,,,,,,,,,
34055,1480901664623,0,106.5,0.3,122.9,40,118.5,14.09,-0.03,0.11,1.0,-6.5,-1.3,-0.3,420,138,1,1,3.385,1,38.159241,-122.454247,2.26,0.004,53.8,8,3,2.4,0,0.0,-1,0.0,0.0,0.0,0
34075,1480901664643,,,,,,,,-0.02,0.11,1.0,-6.5,-1.4,-0.4,420,133,,,,,,,,,,,,,,,,,,,
34095,1480901664663,,,,,,,,-0.02,0.1,1.0,-6.5,-1.6,-0.5,440,143,,,,,,,,,,,,,,,,,,,
34115,1480901664683,,,,,,,,-0.02,0.11,1.01,-6.5,-1.6,-0.5,440,138,,,,,,,,,,,,,,,,,,,
34135,1480901664703,,,,,,,,-0.03,0.1,1.01,-6.5,-1.7,-0.6,440,147,,,,,,,,,,,,,,,,,,,
34155,1480901664723,,,,,38,,,-0.03,0.1,1.01,-6.5,-1.7,-0.7,460,144,1,1,3.158,1,38.159241,-122.454247,2.35,0.004,53.6,8,3,2.4,0,0.0,-1,0.0,,0.0,0
34175,1480901664743,,,,,,,,-0.04,0.09,1.0,-6.5,-1.7,-0.8,460,150,,,,,,,,,,,,,,,,,,,
34195,1480901664763,,,,,,,,-0.03,0.09,1.0,-6.5,-1.6,-0.9,480,146,,,,,,,,,,,,,,,,,,,
34215,1480901664783,,,,,,,,-0.04,0.09,0.99,-6.5,-1.6,-1.0,480,150,,,,,,,,,,,,,,,,,,,
34235,1480901664905,,,,,,,,-0.04,0.08,0.99,-6.5,-1.5,-1.0,480,147,,,,,,,,,,,,,,,,,,,
34255,1480901664925,0,103.7,,120.4,37,118.7,,-0.04,0.08,0.99,-6.5,-1.4,-1.0,480,144,1,1,3.2,1,38.159241,-122.454247,2.62,0.004,52.8,8,3,2.4,0,0.0,-1,0.0,0.0,0.0,0
34275,1480901664945,,,,,,,,-0.03,0.09,0.99,-6.5,-1.4,-1.0,480,143,,,,,,,,,,,,,,,,,,,
34295,1480901664965,,,,,,,,-0.03,0.09,0.99,-6.5,-1.3,-1.0,480,147,,,,,,,,,,,,,,,,,,,
34315,1480901664985,,,,,,,,-0.03,0.09,0.99,-6.5,-1.3,-1.0,480,144,,,,,,,,,,,,,,,,,,,
34335,1480901665005,,,,,,,,-0.03,0.09,0.99,-6.5,-1.3,-1.0,480,152,,,,,,,,,,,,,,,,,,,
34355,1480901665025,,,,,39,,,-0.04,0.09,0.99,-6.5,-1.4,-1.0,500,149,1,1,3.357,1,38.159241,-122.454247,2.62,0.004,52.8,8,3,2.4,0,0.0,-1,0.0,,0.0,0
34375,1480901665045,,,,,,,,-0.04,0.09,0.99,-6.5,-1.3,-1.0,500,149,,,,,,,,,,,,,,,,,,,
34395,1480901665065,,,,,,,,-0.04,0.09,0.99,-6.6,-1.3,-1.0,520,149,,,,,,,,,,,,,,,,,,,
34415,1480901665085,,,,,,,,-0.04,0.1,0.99,-6.6,-1.4,-1.0,520,150,,,,,,,,,,,,,,,,,,,
34435,1480901665005,,,,,,,,-0.05,0.09,1.0,-6.7,-1.4,-0.9,520,153,,,,,,,,,,,,,,,,,,,
34455,1480901665025,0,106.1,,123.2,39,119.8,,-0.05,0.1,1.0,-6.7,-1.5,-0.9,540,158,1,1,3.49,0,38.159241,-122.454247,2.49,0.004,52.4,8,3,2.4,0,0.0,-1,0.0,0.0,0.0,0
34475,1480901665045,,,,,,,,-0.05,0.1,1.0,-6.7,-1.6,-0.8,540,155,,,,,,,,,,,,,,,,,,,
34495,1480901665065,,,,,,,,-0.05,0.1,1.0,-6.8,-1.5,-0.8,540,156,,,,,,,,,,,,,,,,,,,
34515,1480901665085,,,,,,,,-0.05,0.1,1.0,-6.8,-1.5,-0.7,540,155,,,,,,,,,,,,,,,,,,,
34535,1480901665104,,,,,,,,-0.05,0.1,1.0,-6.8,-1.4,-0.6,540,158,,,,,,,,,,,,,,,,,,,
34555,1480901665124,,,,,40,,,-0.05,0.09,1.0,-6.8,-1.4,-0.6,540,160,1,1,3.484,0,38.159241,-122.454247,2.56,0.004,52.1,8,3,2.4,0,0.0,-1,0.0,,0.0,0
34575,1480901665144,,,,,,,,-0.05,0.09,1.0,-6.8,-1.3,-0.6,540,161,,,,,,,,,,,,,,,,,,,
34595,1480901665164,,,,,,,,-0.05,0.09,1.01,-6.8,-1.3,-0.6,540,160,,,,,,,,,,,,,,,,,,,
34615,1480901665184,,,,,,,,-0.05,0.09,1.0,-6.8,-1.3,-0.5,540,163,,,,,,,,,,,,,,,,,,,
34635,1480901665206,,,,,,,,-0.05,0.09,0.99,-6.8,-1.2,-0.5,560,166,,,,,,,,,,,,,,,,,,,
34655,1480901665226,0,105.5,,123.2,40,120.4,,-0.05,0.09,1.0,-6.8,-1.2,-0.5,560,166,1,1,3.375,1,38.159241,-122.454247,2.62,0.004,51.4,8,3,2.4,0,0.0,-1,0.0,0.0,0.0,0
34675,1480901665246,,,,,,,,-0.05,0.1,0.99,-6.8,-1.1,-0.4,560,169,,,,,,,,,,,,,,,,,,,
34695,1480901665266,,,,,,,,-0.05,0.09,1.0,-6.8,-1.1,-0.4,560,166,,,,,,,,,,,,,,,,,,,
34715,1480901665286,,,,,,,,-0.04,0.1,1.0,-6.9,-1.1,-0.4,560,167,,,,,,,,,,,,,,,,,,,
34735,1480901665305,,,,,,,,-0.04,0.09,0.99,-6.8,-1.3,-0.4,560,169,,,,,,,,,,,,,,,,,,,
34755,1480901665325,,,,,42,,,-0.05,0.09,0.99,-6.8,-1.3,-0.4,560,169,1,1,3.314,1,38.159241,-122.454247,2.87,0.004,50.6,8,3,2.4,0,0.0,-1,0.0,,0.0,0
34775,1480901665345,,,,,,,,-0.05,0.09,0.99,-6.8,-1.2,-0.3,560,172,,,,,,,,,,,,,,,,,,,
34795,1480901665365,,,,,,,,-0.05,0.09,0.99,-6.8,-1.3,-0.3,560,169,,,,,,,,,,,,,,,,,,,
34815,1480901665385,,,,,,,,-0.05,0.09,0.99,-6.8,-1.3,-0.3,560,173,,,,,,,,,,,,,,,,,,,
34835,1480901665402,,,,,,,,-0.04,0.09,0.99,-6.7,-1.2,-0.3,560,172,,,,,,,,,,,,,,,,,,,
34855,1480901665422,0,106.4,,123.2,42,118.6,,-0.04,0.09,1.0,-6.6,-1.3,-0.3,560,170,1,1,3.256,1,38.159245,-122.454262,2.85,0.005,50.3,8,3,1.1,0,0.0,-1,0.0,0.0,0.0,0
34875,1480901665442,,,,,,,,-0.04,0.09,0.99,-6.5,-1.5,-0.3,560,172,,,,,,,,,,,,,,,,,,,
34895,1480901665462,,,,,,,,-0.04,0.09,0.99,-6.5,-1.5,-0.3,560,169,,,,,,,,,,,,,,,,,,,
34915,1480901665482,,,,,,,,-0.04,0.09,0.99,-6.3,-1.4,-0.3,560,173,,,,,,,,,,,,,,,,,,,
34935,1480901665501,,,,,,,,-0.03,0.09,1.0,-6.3,-1.5,-0.3,560,172,,,,,,,,,,,,,,,,,,,
34955,1480901665521,,,,,42,,,-0.03,0.09,1.0,-6.2,-1.6,-0.4,560,176,1,1,3.256,1,38.159245,-122.454262,3.02,0.005,50.2,8,3,1.1,0,0.0,-1,0.0,,0.0,0
34975,1480901665541,,,,,,,,-0.03,0.09,1.0,-6.1,-1.5,-0.4,560,178,,,,,,,,,,,,,,,,,,,
34995,1480901665561,,,,,,,,-0.02,0.1,1.0,-6.1,-1.6,-0.4,580,176,,,,,,,,,,,,,,,,,,,
35015,1480901665581,,,,,,,,-0.02,0.09,1.0,-6.0,-1.7,-0.4,580,183,,,,,,,,,,,,,,,,,,,
35035,1480901665694,,,,,,,,-0.03,0.09,1.0,-6.0,-1.6,-0.5,580,181,,,,,,,,,,,,,,,,,,,
35055,1480901665714,0,105.2,0.0,120.9,43,118.1,14.71,-0.03,0.09,0.99,-6.0,-1.6,-0.5,600,184,1,1,3.146,1,38.159245,-122.454262,2.96,0.005,49.3,8,3,1.1,0,0.0,-1,0.0,0.0,0.0,0
35075,1480901665734,,,,,,,,-0.02,0.09,0.99,-5.9,-1.5,-0.5,600,183,,,,,,,,,,,,,,,,,,,
35095,1480901665754,,,,,,,,-0.02,0.1,0.99,-5.9,-1.6,-0.6,600,180,,,,,,,,,,,,,,,,,,,
35115,1480901665774,,,,,,,,-0.03,0.09,0.99,-5.8,-1.6,-0.6,600,183,,,,,,,,,,,,,,,,,,,
35135,1480901665794,,,,,,,,-0.03,0.09,1.0,-5.8,-1.6,-0.6,600,181,,,,,,,,,,,,,,,,,,,
35155,1480901665814,,,,,44,,,-0.03,0.09,1.0,-5.7,-1.7,-0.6,580,181,1,1,3.279,1,38.159245,-122.454262,2.96,0.005,49.3,8,3,1.1,0,0.0,-1,0.0,,0.0,0
35175,1480901665834,,,,,,,,-0.03,0.09,1.0,-5.7,-1.7,-0.6,580,180,,,,,,,,,,,,,,,,,,,
35195,1480901665854,,,,,,,,-0.02,0.09,1.0,-5.6,-1.8,-0.5,580,178,,,,,,,,,,,,,,,,,,,
35215,1480901665874,,,,,,,,-0.02,0.08,1.0,-5.6,-1.9,-0.5,580,183,,,,,,,,,,,,,,,,,,,
35235,1480901665805,,,,,,,,-0.02,0.09,1.0,-5.5,-1.9,-0.5,580,180,,,,,,,,,,,,,,,,,,,
35255,1480901665825,0,105.5,,121.6,44,117.8,,-0.02,0.09,1.0,-5.5,-1.9,-0.4,580,180,1,1,3.204,1,38.159248,-122.454262,3.21,0.005,48.9,8,3,1.1,0,0.0,-1,0.0,0.0,0.0,0
35275,1480901665845,,,,,,,,-0.02,0.09,1.0,-5.5,-1.9,-0.4,580,180,,,,,,,,,,,,,,,,,,,
35295,1480901665865,,,,,,,,-0.01,0.1,1.0,-5.6,-2.0,-0.5,580,181,,,,,,,,,,,,,,,,,,,
35315,1480901665885,,,,,,,,-0.01,0.09,1.0,-5.5,-2.0,-0.5,580,186,,,,,,,,,,,,,,,,,,,
35335,1480901665898,,,,,,,,-0.01,0.09,1.0,-5.5,-2.0,-0.5,600,183,,,,,,,,,,,,,,,,,,,
35355,1480901665918,,,,,44,,,-0.01,0.09,1.0,-5.5,-2.1,-0.5,600,183,1,1,3.222,1,38.159248,-122.454262,3.2,0.005,48.7,8,3,1.1,0,0.0,-1,0.0,,0.0,0
35375,1480901665938,,,,,,,,-0.01,0.09,0.99,-5.5,-2.1,-0.5,600,184,,,,,,,,,,,,,,,,,,,
35395,1480901665958,,,,,,,,-0.01,0.09,0.99,-5.5,-2.1,-0.5,600,184,,,,,,,,,,,,,,,,,,,
35415,1480901665978,,,,,,,,-0.01,0.09,0.99,-5.4,-2.0,-0.5,600,186,,,,,,,,,,,,,,,,,,,
35435,1480901666004,,,,,,,,-0.01,0.09,1.0,-5.4,-2.1,-0.6,600,184,,,,,,,,,,,,,,,,,,,
35455,1480901666024,0,107.1,,122.9,46,116.3,,-0.0,0.09,0.99,-5.3,-2.0,-0.7,600,184,1,1,3.261,1,38.159248,-122.454262,3.14,0.005,48.3,8,3,1.1,0,0.0,-1,0.0,0.0,0.0,0
35475,1480901666044,,,,,,,,-0.0,0.09,0.99,-5.3,-1.9,-0.7,600,184,,,,,,,,,,,,,,,,,,,
35495,1480901666064,,,,,,,,-0.0,0.09,0.99,-5.4,-1.9,-0.7,600,184,,,,,,,,,,,,,,,,,,,
35515,1480901666084,,,,,,,,-0.0,0.09,0.99,-5.4,-1.9,-0.6,600,186,,,,,,,,,,,,,,,,,,,
35535,1480901666104,,,,,,,,-0.01,0.09,1.0,-5.4,-2.0,-0.6,600,184,,,,,,,,,,,,,,,,,,,
35555,1480901666124,,,,,46,,,-0.0,0.1,1.0,-5.4,-1.9,-0.6,600,184,1,1,3.209,1,38.159252,-122.454262,3.23,0.006,47.0,8,3,1.1,0,0.0,-1,0.0,,0.0,0
35575,1480901666144,,,,,,,,-0.0,0.09,1.0,-5.4,-1.7,-0.6,600,186,,,,,,,,,,,,,,,,,,,
35595,1480901666164,,,,,,,,0.0,0.1,1.0,-5.4,-1.6,-0.6,600,184,,,,,,,,,,,,,,,,,,,
35615,1480901666184,,,,,,,,0.0,0.09,1.0,-5.4,-1.6,-0.7,600,189,,,,,,,,,,,,,,,,,,,
35635,1480901666205,,,,,,,,-0.0,0.1,1.0,-5.4,-1.6,-0.7,600,186,,,,,,,,,,,,,,,,,,,
35655,1480901666225,0,106.3,,123.4,46,120.7,,-0.0,0.1,1.0,-5.4,-1.6,-0.7,600,186,1,1,3.209,1,38.159252,-122.454262,3.13,0.006,45.3,8,3,1.1,0,0.0,-1,0.0,0.0,0.0,0
35675,1480901666245,,,,,,,,-0.01,0.1,1.0,-5.4,-1.7,-0.7,600,186,,,,,,,,,,,,,,,,,,,
35695,1480901666265,,,,,,,,-0.01,0.1,1.0,-5.4,-1.6,-0.8,600,186,,,,,,,,,,,,,,,,,,,
35715,1480901666285,,,,,,,,-0.0,0.1,1.0,-5.4,-1.6,-0.8,600,189,,,,,,,,,,,,,,,,,,,
35735,1480901666305,,,,,,,,-0.0,0.1,1.0,-5.4,-1.4,-0.8,600,187,,,,,,,,,,,,,,,,,,,
35755,1480901666325,,,,,46,,,-0.0,0.1,1.0,-5.4,-1.4,-0.8,600,186,1,1,3.209,1,38.159252,-122.454277,3.2,0.006,43.8,8,3,1.1,0,0.0,-1,0.0,,0.0,0
35775,1480901666345,,,,,,,,-0.0,0.09,0.99,-5.4,-1.4,-0.8,600,187,,,,,,,,,,,,,,,,,,,
35795,1480901666365,,,,,,,,-0.01,0.09,1.0,-5.5,-1.4,-0.8,600,184,,,,,,,,,,,,,,,,,,,
35815,1480901666385,,,,,,,,-0.0,0.1,0.99,-5.5,-1.4,-0.8,600,186,,,,,,,,,,,,,,,,,,,
35835,1480901666504,,,,,,,,-0.01,0.09,1.0,-5.6,-1.4,-0.8,600,186,,,,,,,,,,,,,,,,,,,
35855,1480901666524,0,105.7,,123.4,48,119.8,,0.0,0.1,0.99,-5.6,-1.3,-0.8,600,184,1,1,3.209,1,38.159256,-122.454277,3.38,0.007,42.1,8,3,1.1,0,0.0,-1,0.0,0.0,0.0,0
35875,1480901666544,,,,,,,,0.0,0.1,0.99,-5.7,-1.4,-0.8,600,184,,,,,,,,,,,,,,,,,,,
35895,1480901666564,,,,,,,,0.0,0.1,1.0,-5.7,-1.4,-0.8,600,183,,,,,,,,,,,,,,,,,,,
35915,1480901666584,,,,,,,,0.01,0.1,1.0,-5.8,-1.3,-0.8,600,186,,,,,,,,,,,,,,,,,,,
35935,1480901666604,,,,,,,,0.0,0.1,1.0,-5.9,-1.3,-0.8,600,187,,,,,,,,,,,,,,,,,,,
35955,1480901666624,,,,,47,,,0.01,0.1,1.0,-5.9,-1.2,-0.8,600,186,1,1,3.261,1,38.159256,-122.454277,3.38,0.007,42.1,8,3,1.1,0,0.0,-1,0.0,,0.0,0
35975,1480901666644,,,,,,,,0.01,0.1,0.99,-5.9,-1.3,-0.8,600,187,,,,,,,,,,,,,,,,,,,
35995,1480901666664,,,,,,,,0.01,0.1,0.99,-6.0,-1.1,-0.8,600,187,,,,,,,,,,,,,,,,,,,
36015,1480901666684,,,,,,,,0.01,0.11,0.99,-6.1,-1.1,-0.8,620,189,,,,,,,,,,,,,,,,,,,
36035,1480901666605,,,,,,,,0.01,0.1,0.99,-6.1,-1.1,-0.8,620,192,,,,,,,,,,,,,,,,,,,
36055,1480901666625,0,105.8,0.6,123.5,48,119.9,14.75,0.01,0.1,0.99,-6.1,-1.2,-0.9,620,189,1,1,3.209,1,38.159256,-122.454277,3.35,0.007,41.7,8,3,1.1,0,0.0,-1,0.0,0.0,0.0,0
36075,1480901666645,,,,,,,,0.01,0.1,0.99,-6.2,-1.0,-0.8,620,189,,,,,,,,,,,,,,,,,,,
36095,1480901666665,,,,,,,,0.01,0.09,0.99,-6.2,-1.0,-0.8,620,193,,,,,,,,,,,,,,,,,,,
36115,1480901666685,,,,,,,,0.0,0.09,0.99,-6.3,-0.9,-0.8,620,190,,,,,,,,,,,,,,,,,,,
36135,1480901666705,,,,,,,,0.0,0.09,0.99,-6.4,-1.0,-0.8,620,190,,,,,,,,,,,,,,,,,,,
36155,1480901666725,,,,,48,,,0.0,0.09,0.99,-6.4,-0.9,-0.7,620,189,1,1,3.28,1,38.159256,-122.454277,3.2,0.007,41.1,8,3,1.1,0,0.0,-1,0.0,,0.0,0
36175,1480901666745,,,,,,,,0.0,0.1,0.99,-6.5,-0.9,-0.6,620,187,,,,,,,,,,,,,,,,,,,
36195,1480901666765,,,,,,,,0.0,0.09,0.99,-6.5,-0.8,-0.6,620,190,,,,,,,,,,,,,,,,,,,
36215,1480901666785,,,,,,,,-0.0,0.09,1.0,-6.5,-0.8,-0.5,620,189,,,,,,,,,,,,,,,,,,,
36235,1480901666806,,,,,,,,-0.0,0.09,0.99,-6.6,-0.8,-0.5,620,189,,,,,,,,,,,,,,,,,,,
36255,1480901666826,0,106.6,,123.2,47,121.2,,-0.01,0.09,0.99,-6.7,-0.9,-0.5,620,187,1,1,3.316,1,38.15926,-122.454277,3.21,0.007,41.1,8,3,1.1,0,0.0,-1,0.0,0.0,0.0,0
36275,1480901666846,,,,,,,,-0.0,0.09,0.99,-6.7,-0.9,-0.5,600,184,,,,,,,,,,,,,,,,,,,
36295,1480901666866,,,,,,,,-0.0,0.1,0.98,-6.8,-1.0,-0.5,600,187,,,,,,,,,,,,,,,,,,,
36315,1480901666886,,,,,,,,0.0,0.1,0.98,-6.9,-1.0,-0.5,600,186,,,,,,,,,,,,,,,,,,,
36335,1480901666900,,,,,,,,0.0,0.11,0.98,-6.9,-1.0,-0.5,600,186,,,,,,,,,,,,,,,,,,,
36355,1480901666920,,,,,48,,,0.0,0.1,0.99,-7.0,-1.1,-0.5,600,189,1,1,3.261,1,38.15926,-122.454277,3.3,0.007,41.1,8,3,1.1,0,0.0,-1,0.0,,0.0,0
36375,1480901666940,,,,,,,,0.0,0.1,0.99,-7.0,-1.2,-0.5,600,187,,,,,,,,,,,,,,,,,,,
36395,1480901666960,,,,,,,,0.0,0.11,1.0,-7.0,-1.2,-0.5,620,190,,,,,,,,,,,,,,,,,,,
36415,1480901666980,,,,,,,,0.0,0.1,1.0,-7.1,-1.2,-0.5,620,190,,,,,,,,,,,,,,,,,,,
36435,1480901667006,,,,,,,,0.0,0.1,1.0,-7.1,-1.1,-0.6,620,190,,,,,,,,,,,,,,,,,,,
36455,1480901667026,0,105.8,,123.6,49,120.2,,0.0,0.1,1.0,-7.2,-1.2,-0.6,620,192,1,1,3.158,1,38.15926,-122.454277,3.42,0.007,41.0,8,3,1.1,0,0.0,-1,0.0,0.0,0.0,0
36475,1480901667046,,,,,,,,0.0,0.1,1.0,-7.2,-1.1,-0.5,620,192,,,,,,,,,,,,,,,,,,,
36495,1480901667066,,,,,,,,0.0,0.1,0.99,-7.2,-1.1,-0.4,620,192,,,,,,,,,,,,,,,,,,,
36515,1480901667086,,,,,,,,0.0,0.09,0.99,-7.2,-1.1,-0.3,620,193,,,,,,,,,,,,,,,,,,,
36535,1480901667105,,,,,,,,0.0,0.09,0.99,-7.3,-1.2,-0.2,620,190,,,,,,,,,,,,,,,,,,,
36555,1480901667125,,,,,50,,,0.0,0.1,1.0,-7.3,-1.1,-0.2,620,190,1,1,3.229,1,38.15926,-122.454277,3.45,0.007,41.0,8,3,1.1,0,0.0,-1,0.0,,0.0,0
36575,1480901667145,,,,,,,,0.0,0.1,1.0,-7.3,-1.1,-0.2,620,192,,,,,,,,,,,,,,,,,,,
36595,1480901667165,,,,,,,,0.0,0.09,1.0,-7.3,-1.1,-0.1,620,190,,,,,,,,,,,,,,,,,,,
36615,1480901667185,,,,,,,,0.0,0.1,1.0,-7.3,-1.1,-0.1,620,192,,,,,,,,,,,,,,,,,,,
36635,1480901667304,,,,,,,,0.0,0.09,1.0,-7.4,-1.0,-0.0,620,192,,,,,,,,,,,,,,,,,,,
36655,1480901667324,0,103.0,,120.7,48,118.8,,0.0,0.1,1.0,-7.4,-1.0,-0.0,620,189,1,1,3.212,1,38.159264,-122.454277,3.45,0.007,40.6,8,3,1.1,0,0.0,-1,0.0,0.0,0.0,0
36675,1480901667344,,,,,,,,0.0,0.1,1.0,-7.4,-1.0,-0.1,620,190,,,,,,,,,,,,,,,,,,,
36695,1480901667364,,,,,,,,0.0,0.1,1.0,-7.4,-1.0,-0.1,620,190,,,,,,,,,,,,,,,,,,,
36715,1480901667384,,,,,,,,0.0,0.1,1.0,-7.5,-0.9,-0.1,620,189,,,,,,,,,,,,,,,,,,,
36735,1480901667404,,,,,,,,0.0,0.1,1.0,-7.5,-0.9,-0.2,620,192,,,,,,,,,,,,,,,,,,,
36755,1480901667424,,,,,50,,,0.0,0.1,1.0,-7.5,-1.0,-0.3,620,190,1,1,3.263,1,38.159264,-122.454277,3.45,0.007,40.6,8,3,1.1,0,0.0,-1,0.0,,0.0,0
36775,1480901667444,,,,,,,,0.0,0.1,1.0,-7.5,-1.0,-0.3,620,192,,,,,,,,,,,,,,,,,,,
36795,1480901667464,,,,,,,,0.0,0.1,1.01,-7.5,-1.0,-0.3,620,195,,,,,,,,,,,,,,,,,,,
36815,1480901667484,,,,,,,,0.01,0.1,1.0,-7.5,-0.9,-0.4,620,192,,,,,,,,,,,,,,,,,,,
36835,1480901667405,,,,,,,,0.0,0.1,1.0,-7.5,-1.0,-0.4,620,190,,,,,,,,,,,,,,,,,,,
36855,1480901667425,0,102.6,,120.9,48,118.3,,0.0,0.09,1.0,-7.5,-1.0,-0.5,620,190,1,1,3.263,1,38.159264,-122.454285,3.39,0.008,40.3,8,3,1.1,0,0.0,-1,0.0,0.0,0.0,0
36875,1480901667445,,,,,,,,0.0,0.1,1.0,-7.5,-1.1,-0.5,620,190,,,,,,,,,,,,,,,,,,,
36895,1480901667465,,,,,,,,0.0,0.09,1.0,-7.5,-1.0,-0.6,620,193,,,,,,,,,,,,,,,,,,,
36915,1480901667485,,,,,,,,0.0,0.1,1.01,-7.5,-1.1,-0.6,620,190,,,,,,,,,,,,,,,,,,,
36935,1480901667505,,,,,,,,0.0,0.1,1.01,-7.5,-1.0,-0.5,620,190,,,,,,,,,,,,,,,,,,,
36955,1480901667525,,,,,49,,,0.0,0.1,1.01,-7.5,-1.0,-0.5,620,193,1,1,3.263,1,38.159264,-122.454285,3.48,0.008,40.0,8,3,1.1,0,0.0,-1,0.0,,0.0,0
36975,1480901667545,,,,,,,,0.0,0.09,1.01,-7.5,-1.0,-0.5,620,192,,,,,,,,,,,,,,,,,,,
36995,1480901667565,,,,,,,,0.0,0.09,1.0,-7.5,-1.0,-0.6,620,192,,,,,,,,,,,,,,,,,,,
37015,1480901667585,,,,,,,,0.0,0.09,1.01,-7.5,-1.0,-0.6,620,190,,,,,,,,,,,,,,,,,,,
37035,1480901667605,,,,,,,,0.0,0.1,1.01,-7.5,-0.9,-0.7,620,189,,,,,,,,,,,,,,,,,,,
37055,1480901667625,0,104.3,0.0,121.6,48,120.3,14.77,0.0,0.09,1.01,-7.5,-1.0,-0.8,620,190,1,1,3.229,1,38.159267,-122.454285,3.45,0.008,39.8,8,3,1.1,0,0.0,-1,0.0,0.0,0.0,0
37075,1480901667645,,,,,,,,0.0,0.1,1.01,-7.5,-1.0,-0.8,620,189,,,,,,,,,,,,,,,,,,,
37095,1480901667665,,,,,,,,0.01,0.1,1.01,-7.5,-1.0,-0.7,620,189,,,,,,,,,,,,,,,,,,,
37115,1480901667685,,,,,,,,0.01,0.09,1.0,-7.4,-1.0,-0.8,620,192,,,,,,,,,,,,,,,,,,,
37135,1480901667705,,,,,,,,0.01,0.09,1.01,-7.4,-1.0,-0.8,620,190,,,,,,,,,,,,,,,,,,,
37155,1480901667725,,,,,48,,,0.01,0.09,1.01,-7.4,-0.9,-0.7,620,190,1,1,3.28,1,38.159267,-122.454285,3.42,0.008,39.7,8,3,1.1,0,0.0,-1,0.0,,0.0,0
37175,1480901667745,,,,,,,,0.01,0.09,1.01,-7.4,-0.9,-0.8,620,192,,,,,,,,,,,,,,,,,,,
37195,1480901667765,,,,,,,,0.01,0.09,1.02,-7.4,-0.8,-0.9,620,189,,,,,,,,,,,,,,,,,,,
37215,1480901667785,,,,,,,,0.01,0.09,1.01,-7.4,-0.7,-1.0,620,192,,,,,,,,,,,,,,,,,,,
37235,1480901667805,,,,,,,,0.01,0.09,1.02,-7.4,-0.6,-1.1,620,193,,,,,,,,,,,,,,,,,,,
37255,1480901667825,0,103.8,,121.2,48,119.5,,0.01,0.1,1.01,-7.4,-0.6,-1.0,620,192,1,1,3.263,1,38.159267,-122.454285,3.3,0.008,39.6,8,3,1.1,0,0.0,-1,0.0,0.0,0.0,0
37275,1480901667845,,,,,,,,0.01,0.09,1.01,-7.4,-0.5,-1.0,620,192,,,,,,,,,,,,,,,,,,,
37295,1480901667865,,,,,,,,0.0,0.09,1.0,-7.4,-0.5,-1.0,620,190,,,,,,,,,,,,,,,,,,,
37315,1480901667885,,,,,,,,0.0,0.1,1.0,-7.5,-0.5,-1.0,620,190,,,,,,,,,,,,,,,,,,,
37335,1480901667897,,,,,,,,-0.0,0.09,1.0,-7.4,-0.6,-1.0,620,193,,,,,,,,,,,,,,,,,,,
37355,1480901667917,,,,,49,,,-0.0,0.09,1.0,-7.4,-0.5,-1.1,620,190,1,1,3.229,1,38.159271,-122.454285,3.35,0.008,39.4,8,3,1.1,0,0.0,-1,0.0,,0.0,0
37375,1480901667937,,,,,,,,0.0,0.09,1.0,-7.4,-0.6,-1.0,620,193,,,,,,,,,,,,,,,,,,,
37395,1480901667957,,,,,,,,-0.0,0.08,1.0,-7.4,-0.5,-0.9,620,190,,,,,,,,,,,,,,,,,,,
37415,1480901667977,,,,,,,,-0.0,0.08,1.0,-7.3,-0.6,-0.8,620,187,,,,,,,,,,,,,,,,,,,
37435,1480901668105,,,,,,,,-0.0,0.08,1.0,-7.3,-0.7,-0.8,600,190,,,,,,,,,,,,,,,,,,,
37455,1480901668125,0,103.3,,121.0,48,119.4,,0.0,0.08,1.01,-7.3,-0.7,-0.6,600,189,1,1,3.263,1,38.159271,-122.454285,3.5,0.008,39.2,8,3,1.1,0,0.0,-1,0.0,0.0,0.0,0
37475,1480901668145,,,,,,,,0.0,0.08,1.0,-7.3,-0.7,-0.6,620,189,,,,,,,,,,,,,,,,,,,
37495,1480901668165,,,,,,,,-0.0,0.07,1.0,-7.3,-0.7,-0.5,620,190,,,,,,,,,,,,,,,,,,,
37515,1480901668185,,,,,,,,-0.0,0.08,1.01,-7.3,-0.6,-0.4,620,189,,,,,,,,,,,,,,,,,,,
37535,1480901668205,,,,,,,,0.0,0.08,1.01,-7.3,-0.8,-0.2,620,190,,,,,,,,,,,,,,,,,,,
37555,1480901668225,,,,,49,,,0.0,0.07,1.01,-7.3,-0.8,-0.1,620,192,1,1,3.28,1,38.159271,-122.454285,3.5,0.008,39.2,8,3,1.1,0,0.0,-1,0.0,,0.0,0
37575,1480901668245,,,,,,,,0.01,0.08,1.01,-7.3,-0.7,-0.0,620,192,,,,,,,,,,,,,,,,,,,
37595,1480901668265,,,,,,,,0.0,0.08,1.0,-7.3,-0.8,0.1,640,193,,,,,,,,,,,,,,,,,,,
37615,1480901668285,,,,,,,,0.0,0.08,1.0,-7.2,-0.7,0.0,640,193,,,,,,,,,,,,,,,,,,,
37635,1480901668205,,,,,,,,-0.0,0.08,1.0,-7.2,-0.8,0.0,620,192,,,,,,,,,,,,,,,,,,,
37655,1480901668225,0,103.5,,121.3,49,119.6,,-0.0,0.08,0.99,-7.1,-0.8,-0.0,620,195,1,1,3.229,1,38.159275,-122.454285,3.3,0.008,39.1,8,3,1.1,0,0.0,-1,0.0,0.0,0.0,0
37675,1480901668245,,,,,,,,-0.01,0.09,0.99,-7.1,-0.9,-0.1,620,192,,,,,,,,,,,,,,,,,,,
37695,1480901668265,,,,,,,,-0.01,0.09,0.99,-7.1,-0.8,-0.1,620,192,,,,,,,,,,,,,,,,,,,
37715,1480901668285,,,,,,,,-0.01,0.09,0.98,-7.1,-0.9,-0.2,620,198,,,,,,,,,,,,,,,,,,,
37735,1480901668305,,,,,,,,-0.02,0.09,0.99,-7.0,-0.9,-0.3,620,193,,,,,,,,,,,,,,,,,,,
37755,1480901668325,,,,,49,,,-0.01,0.09,0.99,-7.0,-0.8,-0.3,640,195,1,1,3.229,1,38.159275,-122.454285,3.41,0.008,39.1,8,3,1.1,0,0.0,-1,0.0,,0.0,0
37775,1480901668345,,,,,,,,-0.02,0.09,0.99,-7.0,-0.8,-0.3,640,193,,,,,,,,,,,,,,,,,,,
37795,1480901668365,,,,,,,,-0.02,0.09,1.0,-7.0,-0.8,-0.4,640,192,,,,,,,,,,,,,,,,,,,
37815,1480901668385,,,,,,,,-0.02,0.08,0.99,-7.0,-0.8,-0.3,620,196,,,,,,,,,,,,,,,,,,,
37835,1480901668405,,,,,,,,-0.02,0.08,1.0,-7.0,-0.6,-0.3,620,195,,,,,,,,,,,,,,,,,,,
37855,1480901668425,0,105.2,,122.4,49,120.9,,-0.02,0.08,1.0,-7.0,-0.7,-0.3,640,193,1,1,3.282,1,38.159275,-122.4543,3.55,0.009,38.9,8,3,1.1,0,0.0,-1,0.0,0.0,0.0,0
37875,1480901668445,,,,,,,,-0.02,0.08,1.0,-7.0,-0.7,-0.3,640,198,,,,,,,,,,,,,,,,,,,
37895,1480901668465,,,,,,,,-0.02,0.08,1.0,-6.9,-0.8,-0.3,640,198,,,,,,,,,,,,,,,,,,,
37915,1480901668485,,,,,,,,-0.01,0.08,1.0,-6.9,-0.8,-0.2,640,196,,,,,,,,,,,,,,,,,,,
37935,1480901668505,,,,,,,,-0.02,0.08,1.0,-6.9,-0.7,-0.1,660,203,,,,,,,,,,,,,,,,,,,
37955,1480901668525,,,,,50,,,-0.02,0.08,1.0,-6.9,-0.9,-0.1,660,200,1,1,3.282,1,38.159275,-122.4543,3.43,0.009,38.7,8,3,1.1,0,0.0,-1,0.0,,0.0,0
37975,1480901668545,,,,,,,,-0.02,0.08,0.99,-6.9,-0.8,-0.1,660,196,,,,,,,,,,,,,,,,,,,
37995,1480901668565,,,,,,,,-0.02,0.08,0.99,-6.9,-0.7,-0.1,640,201,,,,,,,,,,,,,,,,,,,
38015,1480901668585,,,,,,,,-0.02,0.08,0.99,-6.8,-0.7,-0.1,640,200,,,,,,,,,,,,,,,,,,,
38035,1480901668605,,,,,,,,-0.02,0.09,0.99,-6.9,-0.6,-0.0,660,201,,,,,,,,,,,,,,,,,,,
38055,1480901668625,1,106.2,0.0,123.2,51,120.9,14.75,-0.02,0.09,0.99,-6.9,-0.7,-0.0,660,203,1,1,3.333,1,38.159279,-122.4543,3.5,0.01,38.6,8,3,1.1,0,0.0,-1,0.0,0.0,0.0,0
38075,1480901668645,,,,,,,,-0.03,0.08,0.99,-6.9,-0.7,-0.1,660,201,,,,,,,,,,,,,,,,,,,
38095,1480901668665,,,,,,,,-0.02,0.09,0.98,-7.0,-0.6,-0.1,660,203,,,,,,,,,,,,,,,,,,,
38115,1480901668685,,,,,,,,-0.02,0.09,0.98,-7.0,-0.6,-0.1,660,203,,,,,,,,,,,,,,,,,,,
38135,1480901668705,,,,,,,,-0.03,0.09,0.98,-7.0,-0.7,-0.1,660,200,,,,,,,,,,,,,,,,,,,
38155,1480901668725,,,,,52,,,-0.02,0.1,0.98,-7.0,-0.6,-0.1,660,201,1,1,3.235,1,38.159279,-122.4543,3.62,0.01,38.4,8,3,1.1,0,0.0,-1,0.0,,0.0,0
38175,1480901668745,,,,,,,,-0.02,0.09,0.99,-7.0,-0.7,-0.1,660,204,,,,,,,,,,,,,,,,,,,
38195,1480901668765,,,,,,,,-0.03,0.09,0.99,-7.0,-0.8,-0.1,660,201,,,,,,,,,,,,,,,,,,,
38215,1480901668785,,,,,,,,-0.02,0.09,0.99,-7.0,-0.6,-0.2,660,203,,,,,,,,,,,,,,,,,,,
38235,1480901668904,,,,,,,,-0.02,0.09,0.99,-7.0,-0.7,-0.3,660,207,,,,,,,,,,,,,,,,,,,
38255,1480901668924,0,103.2,,122.4,52,119.2,,-0.03,0.09,0.99,-7.1,-0.8,-0.4,660,204,1,1,3.251,1,38.159279,-122.4543,3.56,0.01,37.9,8,3,1.1,0,0.0,-1,0.0,0.0,0.0,0
38275,1480901668944,,,,,,,,-0.02,0.09,0.99,-7.1,-0.7,-0.4,680,206,,,,,,,,,,,,,,,,,,,
38295,1480901668964,,,,,,,,-0.02,0.09,0.99,-7.1,-0.7,-0.3,680,206,,,,,,,,,,,,,,,,,,,
38315,1480901668984,,,,,,,,-0.02,0.09,0.99,-7.2,-0.8,-0.3,680,204,,,,,,,,,,,,,,,,,,,
38335,1480901669004,,,,,,,,-0.02,0.09,0.99,-7.2,-0.8,-0.3,680,203,,,,,,,,,,,,,,,,,,,
38355,1480901669024,,,,,52,,,-0.03,0.08,0.99,-7.2,-0.8,-0.3,660,206,1,1,3.301,1,38.159279,-122.4543,3.56,0.01,37.9,8,3,1.1,0,0.0,-1,0.0,,0.0,0
38375,1480901669044,,,,,,,,-0.02,0.09,0.99,-7.2,-0.8,-0.4,660,206,,,,,,,,,,,,,,,,,,,
38395,1480901669064,,,,,,,,-0.02,0.09,0.99,-7.2,-0.8,-0.5,660,204,,,,,,,,,,,,,,,,,,,
38415,1480901669084,,,,,,,,-0.02,0.09,0.99,-7.2,-1.0,-0.5,660,207,,,,,,,,,,,,,,,,,,,
38435,1480901669005,,,,,,,,-0.03,0.08,1.0,-7.2,-1.1,-0.6,660,207,,,,,,,,,,,,,,,,,,,
38455,1480901669025,0,103.3,,122.6,52,119.3,,-0.03,0.09,1.0,-7.2,-1.1,-0.6,680,207,1,1,3.204,1,38.159279,-122.4543,3.61,0.01,37.7,8,3,1.1,0,0.0,-1,0.0,0.0,0.0,0
38475,1480901669045,,,,,,,,-0.03,0.1,0.99,-7.2,-1.2,-0.6,680,210,,,,,,,,,,,,,,,,,,,
38495,1480901669065,,,,,,,,-0.03,0.09,1.0,-7.2,-1.3,-0.7,680,212,,,,,,,,,,,,,,,,,,,
38515,1480901669085,,,,,,,,-0.03,0.09,1.0,-7.2,-1.2,-0.7,680,209,,,,,,,,,,,,,,,,,,,
38535,1480901669105,,,,,,,,-0.03,0.09,1.0,-7.2,-1.2,-0.6,680,210,,,,,,,,,,,,,,,,,,,
38555,1480901669125,,,,,53,,,-0.03,0.09,1.0,-7.2,-1.4,-0.7,680,213,1,1,3.254,1,38.159279,-122.4543,3.77,0.01,37.4,8,3,1.1,0,0.0,-1,0.0,,0.0,0
38575,1480901669145,,,,,,,,-0.03,0.08,1.0,-7.2,-1.4,-0.7,680,213,,,,,,,,,,,,,,,,,,,
38595,1480901669165,,,,,,,,-0.03,0.09,0.99,-7.2,-1.3,-0.6,680,212,,,,,,,,,,,,,,,,,,,
38615,1480901669185,,,,,,,,-0.03,0.08,0.99,-7.1,-1.2,-0.6,700,216,,,,,,,,,,,,,,,,,,,
38635,1480901669205,,,,,,,,-0.02,0.08,1.0,-7.1,-1.1,-0.6,700,213,,,,,,,,,,,,,,,,,,,
38655,1480901669225,0,103.9,,123.3,52,119.9,,-0.02,0.08,1.0,-7.0,-1.0,-0.6,700,210,1,1,3.163,1,38.159283,-122.4543,3.57,0.01,36.9,8,3,1.1,0,0.0,-1,0.0,0.0,0.0,0
38675,1480901669245,,,,,,,,-0.03,0.08,1.0,-7.0,-1.2,-0.5,700,209,,,,,,,,,,,,,,,,,,,
38695,1480901669265,,,,,,,,-0.03,0.07,1.0,-6.9,-1.2,-0.4,700,213,,,,,,,,,,,,,,,,,,,
38715,1480901669285,,,,,,,,-0.03,0.08,1.0,-6.8,-1.2,-0.4,680,212,,,,,,,,,,,,,,,,,,,
38735,1480901669305,,,,,,,,-0.02,0.08,1.0,-6.8,-1.3,-0.3,680,210,,,,,,,,,,,,,,,,,,,
38755,1480901669325,,,,,52,,,-0.02,0.08,1.0,-6.8,-1.4,-0.3,680,213,1,1,3.349,1,38.159283,-122.454315,3.7,0.011,36.5,8,3,1.1,0,0.0,-1,0.0,,0.0,0
38775,1480901669345,,,,,,,,-0.02,0.07,1.0,-6.7,-1.5,-0.4,680,212,,,,,,,,,,,,,,,,,,,
38795,1480901669365,,,,,,,,-0.02,0.07,1.0,-6.7,-1.4,-0.3,700,212,,,,,,,,,,,,,,,,,,,
38815,1480901669385,,,,,,,,-0.02,0.07,0.99,-6.6,-1.4,-0.4,700,215,,,,,,,,,,,,,,,,,,,
38835,1480901669405,,,,,,,,-0.02,0.07,1.0,-6.5,-1.3,-0.5,700,215,,,,,,,,,,,,,,,,,,,
38855,1480901669425,0,102.6,,121.8,52,118.4,,-0.02,0.06,1.0,-6.3,-1.3,-0.5,700,213,1,1,3.286,1,38.159283,-122.454315,3.8,0.011,35.9,8,3,1.1,0,0.0,-1,0.0,0.0,0.0,0
38875,1480901669445,,,,,,,,-0.01,0.07,0.99,-6.2,-1.5,-0.6,700,215,,,,,,,,,,,,,,,,,,,
38895,1480901669465,,,,,,,,-0.02,0.06,1.0,-6.0,-1.6,-0.8,700,216,,,,,,,,,,,,,,,,,,,
38915,1480901669485,,,,,,,,-0.02,0.07,1.0,-5.8,-1.8,-0.8,700,213,,,,,,,,,,,,,,,,,,,
38935,1480901669505,,,,,,,,-0.02,0.06,1.0,-5.6,-1.7,-0.8,700,213,,,,,,,,,,,,,,,,,,,
38955,1480901669525,,,,,51,,,-0.01,0.06,1.0,-5.4,-1.7,-0.9,700,213,1,1,3.286,1,38.159286,-122.454315,3.64,0.011,35.2,8,3,1.1,0,0.0,-1,0.0,,0.0,0
38975,1480901669545,,,,,,,,-0.01,0.06,1.0,-5.3,-1.7,-0.9,700,213,,,,,,,,,,,,,,,,,,,
38995,1480901669565,,,,,,,,-0.01,0.06,1.0,-5.1,-1.7,-0.8,700,213,,,,,,,,,,,,,,,,,,,
39015,1480901669585,,,,,,,,-0.01,0.05,0.99,-5.0,-1.7,-0.8,700,212,,,,,,,,,,,,,,,,,,,
39035,1480901669704,,,,,,,,-0.02,0.04,1.0,-4.8,-1.7,-0.8,700,215,,,,,,,,,,,,,,,,,,,
39055,1480901669724,0,104.2,0.0,123.4,49,120.3,14.77,-0.01,0.05,1.0,-4.6,-1.6,-0.7,700,213,1,1,3.241,1,38.159286,-122.454315,3.78,0.011,34.4,8,3,1.1,0,0.0,-1,0.0,0.0,0.0,0
39075,1480901669744,,,,,,,,-0.01,0.05,1.0,-4.5,-1.5,-0.6,700,215,,,,,,,,,,,,,,,,,,,
39095,1480901669764,,,,,,,,-0.01,0.04,1.0,-4.3,-1.6,-0.5,700,218,,,,,,,,,,,,,,,,,,,
39115,1480901669784,,,,,,,,-0.01,0.05,1.0,-4.1,-1.6,-0.4,700,216,,,,,,,,,,,,,,,,,,,
39135,1480901669804,,,,,,,,-0.0,0.05,1.0,-4.0,-1.6,-0.3,700,216,,,,,,,,,,,,,,,,,,,
39155,1480901669824,,,,,50,,,-0.0,0.06,1.0,-3.8,-1.6,-0.2,720,218,1,1,3.256,1,38.159286,-122.454315,3.78,0.011,34.4,8,3,1.1,0,0.0,-1,0.0,,0.0,0
39175,1480901669844,,,,,,,,-0.01,0.05,1.01,-3.6,-1.6,-0.2,720,218,,,,,,,,,,,,,,,,,,,
39195,1480901669864,,,,,,,,-0.0,0.06,1.01,-3.5,-1.5,-0.1,720,216,,,,,,,,,,,,,,,,,,,
39215,1480901669884,,,,,,,,-0.0,0.06,1.0,-3.4,-1.5,-0.0,700,218,,,,,,,,,,,,,,,,,,,
39235,1480901669804,,,,,,,,0.0,0.06,1.01,-3.3,-1.5,-0.0,720,218,,,,,,,,,,,,,,,,,,,
39255,1480901669824,0,104.4,,123.7,51,120.6,,-0.0,0.06,1.01,-3.2,-1.5,-0.0,720,218,1,1,3.303,1,38.15929,-122.454315,3.79,0.011,34.1,8,3,1.1,0,0.0,-1,0.0,0.0,0.0,0
39275,1480901669844,,,,,,,,-0.0,0.07,1.01,-3.2,-1.6,-0.1,720,216,,,,,,,,,,,,,,,,,,,
39295,1480901669864,,,,,,,,-0.0,0.07,1.0,-3.1,-1.7,-0.1,700,218,,,,,,,,,,,,,,,,,,,
39315,1480901669884,,,,,,,,-0.01,0.06,1.01,-3.0,-1.7,-0.3,720,218,,,,,,,,,,,,,,,,,,,
39335,1480901669897,,,,,,,,-0.01,0.07,1.01,-2.9,-1.6,-0.3,720,216,,,,,,,,,,,,,,,,,,,
39355,1480901669917,,,,,52,,,-0.01,0.07,1.0,-2.9,-1.6,-0.3,700,216,1,1,3.273,1,38.15929,-122.454315,3.78,0.011,33.8,8,3,1.1,0,0.0,-1,0.0,,0.0,0
39375,1480901669937,,,,,,,,-0.01,0.07,1.0,-2.8,-1.5,-0.3,700,218,,,,,,,,,,,,,,,,,,,
39395,1480901669957,,,,,,,,-0.01,0.08,1.0,-2.7,-1.5,-0.4,700,218,,,,,,,,,,,,,,,,,,,
39415,1480901669977,,,,,,,,-0.01,0.07,1.0,-2.7,-1.4,-0.4,700,216,,,,,,,,,,,,,,,,,,,
39435,1480901670004,,,,,,,,-0.01,0.08,0.99,-2.6,-1.5,-0.4,700,216,,,,,,,,,,,,,,,,,,,
39455,1480901670024,1,105.8,,124.2,51,121.8,,-0.01,0.07,1.0,-2.5,-1.5,-0.6,700,218,1,1,3.241,1,38.15929,-122.454315,3.87,0.011,33.6,8,3,1.1,0,0.0,-1,0.0,0.0,0.0,0
39475,1480901670044,,,,,,,,-0.01,0.07,1.0,-2.5,-1.6,-0.6,700,218,,,,,,,,,,,,,,,,,,,
39495,1480901670064,,,,,,,,-0.01,0.07,1.0,-2.4,-1.5,-0.6,700,216,,,,,,,,,,,,,,,,,,,
39515,1480901670084,,,,,,,,-0.01,0.07,1.0,-2.3,-1.4,-0.6,720,216,,,,,,,,,,,,,,,,,,,
39535,1480901670104,,,,,,,,-0.0,0.07,1.01,-2.2,-1.3,-0.7,720,220,,,,,,,,,,,,,,,,,,,
39555,1480901670124,,,,,50,,,-0.0,0.06,1.01,-2.1,-1.2,-0.7,700,218,1,1,3.182,1,38.15929,-122.454315,3.82,0.011,33.2,8,3,1.1,0,0.0,-1,0.0,,0.0,0
39575,1480901670144,,,,,,,,-0.0,0.07,1.0,-2.1,-1.4,-0.6,720,220,,,,,,,,,,,,,,,,,,,
39595,1480901670164,,,,,,,,-0.01,0.06,1.0,-2.0,-1.4,-0.7,720,223,,,,,,,,,,,,,,,,,,,
39615,1480901670184,,,,,,,,-0.0,0.06,1.0,-2.0,-1.2,-0.7,720,221,,,,,,,,,,,,,,,,,,,
39635,1480901670204,,,,,,,,-0.0,0.07,0.99,-2.0,-1.1,-0.6,720,221,,,,,,,,,,,,,,,,,,,
39655,1480901670224,0,104.4,,123.5,52,120.7,,0.0,0.07,0.99,-1.9,-1.1,-0.5,720,221,1,1,3.303,1,38.159294,-122.454323,3.73,0.012,33.0,8,3,1.1,0,0.0,-1,0.0,0.0,0.0,0
39675,1480901670244,,,,,,,,-0.0,0.07,0.99,-1.9,-1.2,-0.6,720,223,,,,,,,,,,,,,,,,,,,
39695,1480901670264,,,,,,,,-0.0,0.08,0.99,-1.9,-1.1,-0.6,720,221,,,,,,,,,,,,,,,,,,,
39715,1480901670284,,,,,,,,-0.0,0.07,0.99,-1.9,-1.1,-0.6,720,221,,,,,,,,,,,,,,,,,,,
39735,1480901670304,,,,,,,,-0.0,0.07,1.0,-1.9,-0.9,-0.7,720,221,,,,,,,,,,,,,,,,,,,
39755,1480901670324,,,,,51,,,-0.0,0.08,1.0,-1.8,-0.9,-0.7,720,221,1,1,3.273,1,38.159294,-122.454323,3.9,0.012,32.7,8,3,1.1,0,0.0,-1,0.0,,0.0,0
39775,1480901670344,,,,,,,,-0.0,0.08,1.01,-1.8,-0.9,-0.6,720,220,,,,,,,,,,,,,,,,,,,
39795,1480901670364,,,,,,,,-0.0,0.08,1.01,-1.8,-1.0,-0.5,720,220,,,,,,,,,,,,,,,,,,,
39815,1480901670384,,,,,,,,-0.0,0.08,1.01,-1.7,-1.0,-0.5,720,223,,,,,,,,,,,,,,,,,,,
39835,1480901670499,,,,,,,,-0.0,0.08,1.0,-1.7,-1.0,-0.4,720,220,,,,,,,,,,,,,,,,,,,
39855,1480901670519,0,104.3,,123.7,52,120.7,,0.01,0.07,1.0,-1.7,-0.9,-0.4,720,220,1,1,3.273,1,38.159294,-122.454323,3.83,0.012,32.1,8,3,1.1,0,0.0,-1,0.0,0.0,0.0,0
39875,1480901670539,,,,,,,,0.0,0.07,1.0,-1.7,-1.0,-0.3,720,220,,,,,,,,,,,,,,,,,,,
39895,1480901670559,,,,,,,,-0.0,0.07,1.01,-1.7,-1.1,-0.4,720,223,,,,,,,,,,,,,,,,,,,
39915,1480901670579,,,,,,,,-0.0,0.07,1.0,-1.7,-1.3,-0.4,720,223,,,,,,,,,,,,,,,,,,,
39935,1480901670599,,,,,,,,0.0,0.07,0.99,-1.8,-1.2,-0.2,720,221,,,,,,,,,,,,,,,,,,,
39955,1480901670619,,,,,52,,,0.0,0.08,0.99,-1.8,-1.1,-0.2,720,224,1,1,3.273,1,38.159294,-122.454323,3.83,0.012,32.1,8,3,1.1,0,0.0,-1,0.0,,0.0,0
39975,1480901670639,,,,,,,,-0.0,0.08,1.0,-1.9,-1.1,-0.2,720,224,,,,,,,,,,,,,,,,,,,
39995,1480901670659,,,,,,,,-0.0,0.09,1.0,-1.9,-1.1,-0.1,740,223,,,,,,,,,,,,,,,,,,,
40015,1480901670679,,,,,,,,-0.0,0.08,0.99,-2.0,-1.1,-0.1,720,221,,,,,,,,,,,,,,,,,,,
40035,1480901670604,,,,,,,,-0.0,0.09,1.0,-2.1,-1.1,-0.2,720,223,,,,,,,,,,,,,,,,,,,
40055,1480901670624,0,106.1,0.1,123.5,51,121.2,14.67,-0.01,0.09,1.0,-2.2,-1.1,-0.2,720,224,1,1,3.304,1,38.159298,-122.454323,3.94,0.012,31.8,8,3,1.1,0,0.0,-1,0.0,0.0,0.0,0
40075,1480901670644,,,,,,,,-0.0,0.1,1.0,-2.3,-1.0,-0.1,720,221,,,,,,,,,,,,,,,,,,,
40095,1480901670664,,,,,,,,-0.0,0.1,1.0,-2.4,-0.9,-0.1,720,223,,,,,,,,,,,,,,,,,,,
40115,1480901670684,,,,,,,,-0.0,0.1,1.0,-2.6,-1.0,-0.1,720,223,,,,,,,,,,,,,,,,,,,
40135,1480901670704,,,,,,,,-0.0,0.09,1.01,-2.7,-1.1,-0.1,720,226,,,,,,,,,,,,,,,,,,,
40155,1480901670724,,,,,54,,,0.0,0.1,1.01,-2.8,-1.0,-0.1,740,224,1,1,3.214,1,38.159298,-122.454323,3.87,0.012,31.4,8,3,1.1,0,0.0,-1,0.0,,0.0,0
40175,1480901670744,,,,,,,,-0.0,0.1,1.0,-3.0,-1.1,0.0,720,224,,,,,,,,,,,,,,,,,,,
40195,1480901670764,,,,,,,,-0.0,0.1,1.01,-3.1,-1.1,-0.0,740,226,,,,,,,,,,,,,,,,,,,
40215,1480901670784,,,,,,,,-0.0,0.1,1.01,-3.3,-1.1,0.1,740,224,,,,,,,,,,,,,,,,,,,
40235,1480901670804,,,,,,,,0.0,0.1,1.0,-3.5,-1.1,0.2,720,223,,,,,,,,,,,,,,,,,,,
40255,1480901670824,0,105.5,,124.1,53,121.0,,0.0,0.11,1.0,-3.6,-1.1,0.3,720,226,1,1,3.229,1,38.159298,-122.454323,4.04,0.012,31.2,8,3,1.1,0,0.0,-1,0.0,0.0,0.0,0
40275,1480901670844,,,,,,,,-0.0,0.1,1.0,-3.8,-1.2,0.3,740,229,,,,,,,,,,,,,,,,,,,
40295,1480901670864,,,,,,,,-0.0,0.11,1.0,-4.0,-1.2,0.3,740,227,,,,,,,,,,,,,,,,,,,
40315,1480901670884,,,,,,,,-0.0,0.11,0.99,-4.2,-1.2,0.4,740,224,,,,,,,,,,,,,,,,,,,
40335,1480901670898,,,,,,,,-0.0,0.11,0.99,-4.4,-1.1,0.4,740,226,,,,,,,,,,,,,,,,,,,
40355,1480901670918,,,,,53,,,-0.0,0.11,0.99,-4.6,-1.2,0.4,740,226,1,1,3.26,1,38.159298,-122.454323,4.03,0.012,30.8,8,3,1.1,0,0.0,-1,0.0,,0.0,0
40375,1480901670938,,,,,,,,-0.0,0.11,0.99,-4.8,-1.1,0.4,740,226,,,,,,,,,,,,,,,,,,,
40395,1480901670958,,,,,,,,0.0,0.11,0.99,-5.0,-1.1,0.5,720,224,,,,,,,,,,,,,,,,,,,
40415,1480901670978,,,,,,,,0.0,0.12,0.98,-5.3,-1.1,0.5,740,226,,,,,,,,,,,,,,,,,,,
40435,1480901671005,,,,,,,,-0.0,0.11,0.99,-5.5,-1.3,0.5,740,226,,,,,,,,,,,,,,,,,,,
40455,1480901671025,0,102.1,,122.0,51,120.7,,-0.0,0.12,0.99,-5.7,-1.3,0.5,740,224,1,1,3.172,1,38.159298,-122.454323,3.85,0.012,30.4,8,3,1.1,0,0.0,-1,0.0,0.0,0.0,0
40475,1480901671045,,,,,,,,0.0,0.12,0.98,-5.9,-1.3,0.6,740,223,,,,,,,,,,,,,,,,,,,
40495,1480901671065,,,,,,,,0.0,0.12,0.99,-6.2,-1.2,0.6,720,223,,,,,,,,,,,,,,,,,,,
40515,1480901671085,,,,,,,,-0.0,0.12,0.99,-6.4,-1.2,0.5,720,224,,,,,,,,,,,,,,,,,,,
40535,1480901671105,,,,,,,,0.0,0.13,0.99,-6.6,-1.1,0.5,720,223,,,,,,,,,,,,,,,,,,,
40555,1480901671125,,,,,53,,,0.01,0.13,0.99,-6.9,-1.2,0.5,720,221,1,1,3.304,1,38.159298,-122.454323,3.79,0.012,30.3,8,3,1.1,0,0.0,-1,0.0,,0.0,0
40575,1480901671145,,,,,,,,0.01,0.13,1.0,-7.1,-1.1,0.3,720,223,,,,,,,,,,,,,,,,,,,
40595,1480901671165,,,,,,,,0.0,0.13,1.0,-7.3,-1.1,0.3,720,223,,,,,,,,,,,,,,,,,,,
40615,1480901671185,,,,,,,,0.01,0.14,1.0,-7.6,-1.0,0.2,720,223,,,,,,,,,,,,,,,,,,,
40635,1480901671304,,,,,,,,0.01,0.14,0.99,-7.8,-1.0,0.2,740,223,,,,,,,,,,,,,,,,,,,
40655,1480901671324,0,103.2,,123.2,52,121.6,,0.01,0.14,1.0,-8.0,-1.1,0.0,740,224,1,1,3.273,1,38.159302,-122.454323,3.84,0.012,30.2,8,3,1.1,0,0.0,-1,0.0,0.0,0.0,0
40675,1480901671344,,,,,,,,0.01,0.13,0.99,-8.2,-1.0,-0.1,740,226,,,,,,,,,,,,,,,,,,,
40695,1480901671364,,,,,,,,0.01,0.13,0.99,-8.5,-1.0,-0.1,720,224,,,,,,,,,,,,,,,,,,,
40715,1480901671384,,,,,,,,0.01,0.13,0.99,-8.7,-1.0,-0.0,720,224,,,,,,,,,,,,,,,,,,,
40735,1480901671404,,,,,,,,0.01,0.13,0.99,-8.9,-1.1,-0.1,740,224,,,,,,,,,,,,,,,,,,,
40755,1480901671424,,,,,53,,,0.01,0.14,1.0,-9.1,-1.0,-0.2,740,226,1,1,3.186,1,38.159302,-122.454323,3.84,0.012,30.2,8,3,1.1,0,0.0,-1,0.0,,0.0,0
40775,1480901671444,,,,,,,,0.02,0.14,1.0,-9.4,-0.9,-0.2,720,223,,,,,,,,,,,,,,,,,,,
40795,1480901671464,,,,,,,,0.02,0.14,1.0,-9.6,-0.9,-0.2,720,223,,,,,,,,,,,,,,,,,,,
40815,1480901671484,,,,,,,,0.01,0.14,1.01,-9.9,-1.0,-0.4,720,224,,,,,,,,,,,,,,,,,,,
40835,1480901671405,,,,,,,,0.01,0.15,1.01,-10.2,-1.0,-0.4,720,221,,,,,,,,,,,,,,,,,,,
40855,1480901671425,0,102.4,,122.2,50,120.6,,0.01,0.15,1.0,-10.4,-1.0,-0.4,720,221,1,1,3.229,1,38.159302,-122.454338,4.02,0.013,30.1,8,3,1.1,0,0.0,-1,0.0,0.0,0.0,0
40875,1480901671445,,,,,,,,0.01,0.15,1.0,-10.7,-0.9,-0.5,720,220,,,,,,,,,,,,,,,,,,,
40895,1480901671465,,,,,,,,0.01,0.15,1.0,-11.0,-1.0,-0.5,720,223,,,,,,,,,,,,,,,,,,,
40915,1480901671485,,,,,,,,0.01,0.15,1.0,-11.3,-1.0,-0.5,720,220,,,,,,,,,,,,,,,,,,,
40935,1480901671505,,,,,,,,0.02,0.15,1.0,-11.5,-1.1,-0.5,720,220,,,,,,,,,,,,,,,,,,,
40955,1480901671525,,,,,51,,,0.02,0.15,1.0,-11.8,-1.1,-0.6,720,221,1,1,3.273,1,38.159302,-122.454338,3.98,0.013,29.9,8,3,1.1,0,0.0,-1,0.0,,0.0,0
40975,1480901671545,,,,,,,,0.01,0.15,1.0,-12.0,-1.1,-0.7,720,218,,,,,,,,,,,,,,,,,,,
40995,1480901671565,,,,,,,,0.02,0.15,1.0,-12.3,-1.1,-0.7,720,216,,,,,,,,,,,,,,,,,,,
41015,1480901671585,,,,,,,,0.02,0.15,0.99,-12.5,-1.2,-0.7,700,216,,,,,,,,,,,,,,,,,,,
41035,1480901671605,,,,,,,,0.01,0.15,1.0,-12.7,-1.3,-0.8,700,220,,,,,,,,,,,,,,,,,,,
41055,1480901671625,0,105.7,0.5,124.2,51,121.0,14.78,0.01,0.15,1.0,-13.0,-1.4,-0.7,700,220,1,1,3.273,1,38.159306,-122.454338,3.84,0.013,29.8,8,3,1.1,0,0.0,-1,0.0,0.0,0.0,0
41075,1480901671645,,,,,,,,0.02,0.15,1.0,-13.2,-1.2,-0.6,700,218,,,,,,,,,,,,,,,,,,,
41095,1480901671665,,,,,,,,0.02,0.15,0.99,-13.5,-1.1,-0.6,720,221,,,,,,,,,,,,,,,,,,,
41115,1480901671685,,,,,,,,0.02,0.15,1.0,-13.7,-1.1,-0.7,720,220,,,,,,,,,,,,,,,,,,,
41135,1480901671705,,,,,,,,0.02,0.15,1.0,-13.9,-1.0,-0.6,720,218,,,,,,,,,,,,,,,,,,,
41155,1480901671725,,,,,51,,,0.03,0.16,1.0,-14.2,-1.1,-0.6,720,218,1,1,3.211,1,38.159306,-122.454338,4.01,0.013,29.7,8,3,1.1,0,0.0,-1,0.0,,0.0,0
41175,1480901671745,,,,,,,,0.02,0.15,1.0,-14.4,-1.2,-0.6,700,218,,,,,,,,,,,,,,,,,,,
41195,1480901671765,,,,,,,,0.02,0.15,1.0,-14.6,-1.2,-0.6,700,220,,,,,,,,,,,,,,,,,,,
41215,1480901671785,,,,,,,,0.02,0.15,0.99,-14.8,-1.1,-0.5,720,218,,,,,,,,,,,,,,,,,,,
41235,1480901671805,,,,,,,,0.02,0.15,1.0,-15.1,-1.0,-0.4,700,218,,,,,,,,,,,,,,,,,,,
41255,1480901671825,0,106.1,,124.2,50,120.7,,0.02,0.14,1.01,-15.3,-1.1,-0.4,700,220,1,1,3.241,1,38.159306,-122.454338,3.96,0.013,29.6,8,3,1.1,0,0.0,-1,0.0,0.0,0.0,0
41275,1480901671845,,,,,,,,0.02,0.15,1.01,-15.5,-1.0,-0.3,700,216,,,,,,,,,,,,,,,,,,,
41295,1480901671865,,,,,,,,0.02,0.15,1.01,-15.8,-1.0,-0.2,700,215,,,,,,,,,,,,,,,,,,,
41315,1480901671885,,,,,,,,0.03,0.15,1.01,-16.0,-1.0,-0.2,700,215,,,,,,,,,,,,,,,,,,,
41335,1480901671899,,,,,,,,0.03,0.15,1.01,-16.3,-1.0,-0.1,700,215,,,,,,,,,,,,,,,,,,,
41355,1480901671919,,,,,49,,,0.04,0.15,1.01,-16.5,-1.0,0.0,700,213,1,1,3.211,1,38.159306,-122.454338,4.05,0.013,29.4,8,3,1.1,0,0.0,-1,0.0,,0.0,0
41375,1480901671939,,,,,,,,0.03,0.16,1.01,-16.8,-0.9,0.1,700,215,,,,,,,,,,,,,,,,,,,
41395,1480901671959,,,,,,,,0.03,0.15,1.01,-17.0,-1.0,0.2,700,215,,,,,,,,,,,,,,,,,,,
41415,1480901671979,,,,,,,,0.04,0.16,1.01,-17.3,-0.9,0.3,700,212,,,,,,,,,,,,,,,,,,,
41435,1480901672104,,,,,,,,0.04,0.17,1.01,-17.6,-1.0,0.4,700,212,,,,,,,,,,,,,,,,,,,
41455,1480901672124,1,102.6,,121.9,49,120.1,,0.03,0.17,1.01,-17.8,-1.1,0.4,680,212,1,1,3.302,1,38.159309,-122.454353,3.88,0.014,29.0,8,3,1.1,0,0.0,-1,0.0,0.0,0.0,0
41475,1480901672144,,,,,,,,0.03,0.17,1.0,-18.1,-1.0,0.4,680,209,,,,,,,,,,,,,,,,,,,
41495,1480901672164,,,,,,,,0.04,0.17,1.0,-18.4,-1.0,0.5,680,207,,,,,,,,,,,,,,,,,,,
41515,1480901672184,,,,,,,,0.04,0.17,1.0,-18.6,-1.1,0.6,680,210,,,,,,,,,,,,,,,,,,,
41535,1480901672204,,,,,,,,0.04,0.17,1.0,-18.9,-1.1,0.6,680,207,,,,,,,,,,,,,,,,,,,
41555,1480901672224,,,,,49,,,0.04,0.17,1.0,-19.2,-0.9,0.7,680,206,1,1,3.238,1,38.159309,-122.454353,3.88,0.014,29.0,8,3,1.1,0,0.0,-1,0.0,,0.0,0
41575,1480901672244,,,,,,,,0.04,0.17,1.0,-19.4,-0.9,0.6,680,207,,,,,,,,,,,,,,,,,,,
41595,1480901672264,,,,,,,,0.04,0.17,1.01,-19.7,-0.8,0.5,680,207,,,,,,,,,,,,,,,,,,,
41615,1480901672284,,,,,,,,0.05,0.18,1.0,-19.9,-0.7,0.5,680,206,,,,,,,,,,,,,,,,,,,
41635,1480901672205,,,,,,,,0.04,0.18,1.0,-20.2,-0.8,0.5,680,207,,,,,,,,,,,,,,,,,,,
41655,1480901672225,0,102.6,,122.7,48,121.3,,0.04,0.17,1.0,-20.4,-0.9,0.5,680,206,1,1,3.285,1,38.159309,-122.454353,3.93,0.014,28.7,8,3,1.1,0,0.0,-1,0.0,0.0,0.0,0
41675,1480901672245,,,,,,,,0.04,0.18,1.0,-20.7,-0.9,0.5,680,204,,,,,,,,,,,,,,,,,,,
41695,1480901672265,,,,,,,,0.04,0.18,1.0,-21.0,-1.0,0.6,660,204,,,,,,,,,,,,,,,,,,,
41715,1480901672285,,,,,,,,0.04,0.17,1.0,-21.2,-1.1,0.6,660,204,,,,,,,,,,,,,,,,,,,
41735,1480901672305,,,,,,,,0.03,0.18,1.0,-21.4,-1.1,0.6,660,203,,,,,,,,,,,,,,,,,,,
41755,1480901672325,,,,,48,,,0.04,0.18,1.0,-21.7,-1.2,0.6,660,201,1,1,3.301,1,38.159309,-122.454353,3.65,0.014,28.6,8,3,1.1,0,0.0,-1,0.0,,0.0,0
41775,1480901672345,,,,,,,,0.03,0.18,1.01,-21.9,-1.4,0.5,660,204,,,,,,,,,,,,,,,,,,,
41795,1480901672365,,,,,,,,0.03,0.18,1.01,-22.1,-1.4,0.4,660,200,,,,,,,,,,,,,,,,,,,
41815,1480901672385,,,,,,,,0.03,0.18,1.01,-22.3,-1.4,0.5,660,198,,,,,,,,,,,,,,,,,,,
41835,1480901672405,,,,,,,,0.03,0.17,1.01,-22.5,-1.6,0.5,660,200,,,,,,,,,,,,,,,,,,,
41855,1480901672425,0,102.0,,122.0,47,120.5,,0.03,0.17,1.01,-22.8,-1.6,0.5,640,196,1,1,3.235,1,38.159309,-122.454353,3.92,0.014,28.6,8,3,1.1,0,0.0,-1,0.0,0.0,0.0,0
41875,1480901672445,,,,,,,,0.03,0.17,1.0,-23.0,-1.7,0.5,640,198,,,,,,,,,,,,,,,,,,,
41895,1480901672465,,,,,,,,0.03,0.16,1.0,-23.2,-1.7,0.2,640,195,,,,,,,,,,,,,,,,,,,
41915,1480901672485,,,,,,,,0.03,0.17,0.99,-23.4,-1.7,0.1,640,192,,,,,,,,,,,,,,,,,,,
41935,1480901672505,,,,,,,,0.04,0.17,0.99,-23.6,-2.0,-0.1,620,193,,,,,,,,,,,,,,,,,,,
41955,1480901672525,,,,,47,,,0.04,0.17,0.99,-23.8,-1.9,-0.4,620,192,1,1,3.282,1,38.159313,-122.454353,3.86,0.015,28.5,8,3,1.1,0,0.0,-1,0.0,,0.0,0
41975,1480901672545,,,,,,,,0.04,0.17,0.99,-23.9,-1.9,-0.5,620,192,,,,,,,,,,,,,,,,,,,
41995,1480901672565,,,,,,,,0.04,0.16,0.99,-24.0,-1.9,-0.7,620,195,,,,,,,,,,,,,,,,,,,
42015,1480901672585,,,,,,,,0.04,0.16,0.99,-24.0,-2.1,-0.8,620,192,,,,,,,,,,,,,,,,,,,
42035,1480901672603,,,,,,,,0.04,0.15,0.99,-24.1,-2.0,-0.8,640,192,,,,,,,,,,,,,,,,,,,
42055,1480901672623,0,104.8,0.0,122.0,47,118.9,14.65,0.04,0.14,1.0,-24.0,-2.1,-0.8,640,198,1,1,3.229,1,38.159313,-122.454353,3.78,0.015,28.5,8,3,1.1,0,0.0,-1,0.0,0.0,0.0,0
42075,1480901672643,,,,,,,,0.03,0.14,1.01,-24.0,-2.0,-0.8,640,193,,,,,,,,,,,,,,,,,,,
42095,1480901672663,,,,,,,,0.04,0.13,1.01,-24.0,-1.9,-0.6,640,195,,,,,,,,,,,,,,,,,,,
42115,1480901672683,,,,,,,,0.04,0.13,1.02,-24.0,-1.9,-0.4,640,196,,,,,,,,,,,,,,,,,,,
42135,1480901672703,,,,,,,,0.04,0.12,1.01,-24.0,-1.6,-0.3,640,193,,,,,,,,,,,,,,,,,,,
42155,1480901672723,,,,,47,,,0.04,0.12,1.0,-24.0,-1.6,-0.2,640,198,1,1,3.316,1,38.159313,-122.454361,3.77,0.015,28.4,8,3,1.1,0,0.0,-1,0.0,,0.0,0
42175,1480901672743,,,,,,,,0.04,0.12,1.01,-24.0,-1.5,-0.1,640,201,,,,,,,,,,,,,,,,,,,
42195,1480901672763,,,,,,,,0.04,0.13,1.0,-24.0,-1.5,-0.1,640,196,,,,,,,,,,,,,,,,,,,
42215,1480901672783,,,,,,,,0.04,0.13,1.0,-24.0,-1.5,0.0,640,198,,,,,,,,,,,,,,,,,,,
42235,1480901672905,,,,,,,,0.04,0.13,1.0,-24.0,-1.5,-0.0,640,198,,,,,,,,,,,,,,,,,,,
42255,1480901672925,0,103.2,,121.5,48,119.5,,0.05,0.14,1.0,-24.0,-1.4,0.0,640,195,1,1,3.184,1,38.159313,-122.454361,3.71,0.015,28.3,8,3,1.1,0,0.0,-1,0.0,0.0,0.0,0
42275,1480901672945,,,,,,,,0.04,0.14,1.0,-23.9,-1.4,-0.0,640,198,,,,,,,,,,,,,,,,,,,
42295,1480901672965,,,,,,,,0.05,0.14,1.0,-23.9,-1.3,-0.1,640,195,,,,,,,,,,,,,,,,,,,
42315,1480901672985,,,,,,,,0.04,0.15,1.0,-23.9,-1.4,-0.1,640,192,,,,,,,,,,,,,,,,,,,
42335,1480901673005,,,,,,,,0.04,0.14,1.0,-23.8,-1.3,-0.2,620,192,,,,,,,,,,,,,,,,,,,
42355,1480901673025,,,,,48,,,0.03,0.14,1.0,-23.8,-1.3,-0.2,620,187,1,1,3.282,1,38.159313,-122.454361,3.71,0.015,28.3,8,3,1.1,0,0.0,-1,0.0,,0.0,0
42375,1480901673045,,,,,,,,0.03,0.14,1.0,-23.8,-1.3,-0.2,620,187,,,,,,,,,,,,,,,,,,,
42395,1480901673065,,,,,,,,0.03,0.14,1.0,-23.9,-1.3,-0.2,620,186,,,,,,,,,,,,,,,,,,,
42415,1480901673085,,,,,,,,0.03,0.13,1.0,-23.9,-1.4,-0.1,600,183,,,,,,,,,,,,,,,,,,,
42435,1480901673005,,,,,,,,0.03,0.13,1.0,-23.9,-1.5,-0.1,600,187,,,,,,,,,,,,,,,,,,,
42455,1480901673025,0,104.7,,121.5,47,118.8,,0.03,0.13,0.99,-23.9,-1.6,0.0,600,184,1,1,3.333,1,38.159313,-122.454361,3.64,0.015,28.2,8,3,1.1,0,0.0,-1,0.0,0.0,0.0,0
42475,1480901673045,,,,,,,,0.03,0.13,0.99,-24.0,-1.7,0.2,600,183,,,,,,,,,,,,,,,,,,,
42495,1480901673065,,,,,,,,0.02,0.12,0.99,-23.9,-1.9,0.2,600,186,,,,,,,,,,,,,,,,,,,
42515,1480901673085,,,,,,,,0.02,0.12,1.0,-23.9,-1.9,0.2,600,184,,,,,,,,,,,,,,,,,,,
42535,1480901673105,,,,,,,,0.03,0.12,1.01,-23.8,-1.9,0.2,600,187,,,,,,,,,,,,,,,,,,,
42555,1480901673125,,,,,48,,,0.03,0.12,1.01,-23.7,-1.8,0.2,600,187,1,1,3.279,1,38.159313,-122.454361,3.4,0.015,28.2,8,3,1.1,0,0.0,-1,0.0,,0.0,0
42575,1480901673145,,,,,,,,0.04,0.12,1.01,-23.6,-1.8,0.2,600,186,,,,,,,,,,,,,,,,,,,
42595,1480901673165,,,,,,,,0.04,0.12,1.02,-23.4,-1.7,0.2,620,190,,,,,,,,,,,,,,,,,,,
42615,1480901673185,,,,,,,,0.04,0.12,1.02,-23.4,-1.6,0.2,620,189,,,,,,,,,,,,,,,,,,,
42635,1480901673205,,,,,,,,0.05,0.13,1.02,-23.3,-1.4,0.2,620,189,,,,,,,,,,,,,,,,,,,
42655,1480901673225,0,102.3,,122.3,45,120.7,,0.04,0.13,1.02,-23.3,-1.4,0.1,620,192,1,1,3.226,1,38.159313,-122.454361,3.41,0.015,28.5,8,3,1.1,0,0.0,-1,0.0,0.0,0.0,0
