"Interval"|"ms"|0|0|1,"Utc"|"ms"|0|0|1,"FuelLevel"|"F"|0|100|5,"OilTemp"|"F"|0.0|300.0|5,"CoolantPressPSI"|"PSI"|0.0|20.0|1,"Coolant"|"F"|0.0|300.0|5,"OilPress"|"PSI"|0|150|10,"EngineTemp"|"F"|0.0|300.0|5,"Battery"|"Volts"|0.0|20.0|1,"AccelX"|"G"|-3.0|3.0|50,"AccelY"|"G"|-3.0|3.0|50,"AccelZ"|"G"|-3.0|3.0|50,"Yaw"|"Deg/Sec"|-300.0|300.0|50,"Pitch"|"Deg/Sec"|-300.0|300.0|50,"Roll"|"Deg/Sec"|-300.0|300.0|50,"RPM"|""|0|10000|50,"Driveshaft"|"RPM"|0|5000|50,"GPIO1"|""|0|1|10,"GPIO2"|""|0|1|10,"GearRatio"|""|-5.0|5.0|10,"Gear"|""|-1|5|10,"Latitude"|"Degrees"|-180.0|180.0|10,"Longitude"|"Degrees"|-180.0|180.0|10,"Speed"|"MPH"|0.0|150.0|10,"Distance"|"Miles"|0.0|0.0|10,"Altitude"|"Feet"|0.0|4000.0|10,"GPSSats"|""|0|20|10,"GPSQual"|""|0|5|10,"GPSDOP"|""|0.0|20.0|10,"LapCount"|""|0|0|10,"LapTime"|"Min"|0.0|0.0|10,"Sector"|""|0|0|10,"SectorTime"|"Min"|0.0|0.0|10,"PredTime"|"Min"|0.0|0.0|5,"ElapsedTime"|"Min"|0.0|0.0|10,"CurrentLap"|""|0|0|10
2797677,1480654052934,,,,,0,,,-0.05,0.07,0.98,-3.0,0.0,-0.1,360,0,1,0,0.0,0,37.478367,-122.203728,0.0,0.0,13.5,8,3,1.9,0,0.0,-1,0.0,,0.0,0
2797697,1480654052954,,,,,,,,-0.05,0.06,0.98,-3.0,0.2,-0.1,360,0,,,,,,,,,,,,,,,,,,,
2797717,1480654052974,,,,,,,,-0.05,0.08,1.0,-3.0,0.1,-0.0,580,0,,,,,,,,,,,,,,,,,,,
2797737,1480654053101,,,,,,,,-0.06,0.07,1.0,-3.1,-0.1,-0.1,720,0,,,,,,,,,,,,,,,,,,,
2797757,1480654053121,,,,,,,,-0.07,0.06,1.0,-3.0,-0.0,-0.2,720,0,,,,,,,,,,,,,,,,,,,
2797777,1480654053141,0,85.7,,153.9,3,142.6,,-0.05,0.06,0.97,-3.0,-0.1,-0.2,840,0,1,0,0.0,0,37.478367,-122.203728,0.0,0.0,13.5,8,3,1.9,0,0.0,-1,0.0,0.0,0.0,0
2797797,1480654053161,,,,,,,,-0.04,0.06,0.98,-3.0,0.1,-0.2,900,0,,,,,,,,,,,,,,,,,,,
2797817,1480654053181,,,,,,,,-0.04,0.05,0.97,-3.1,0.3,-0.2,840,0,,,,,,,,,,,,,,,,,,,
2797837,1480654053201,,,,,,,,-0.04,0.06,0.98,-3.1,0.3,-0.1,820,0,,,,,,,,,,,,,,,,,,,
2797857,1480654053221,,,,,,,,-0.04,0.06,0.99,-3.1,0.2,-0.1,800,0,,,,,,,,,,,,,,,,,,,
2797877,1480654053241,,,,,4,,,-0.05,0.07,1.0,-3.1,0.1,-0.0,800,0,1,0,0.0,0,37.478367,-122.203728,0.0,0.0,13.5,8,3,1.9,0,0.0,-1,0.0,,0.0,0
2797897,1480654053261,,,,,,,,-0.05,0.06,1.01,-3.1,0.2,-0.1,800,0,,,,,,,,,,,,,,,,,,,
2797917,1480654053281,,,,,,,,-0.03,0.07,1.0,-3.1,0.1,-0.0,800,0,,,,,,,,,,,,,,,,,,,
2797937,1480654053201,,,,,,,,-0.04,0.06,1.0,-3.1,0.1,0.0,820,0,,,,,,,,,,,,,,,,,,,
2797957,1480654053221,,,,,,,,-0.04,0.07,1.0,-3.1,0.1,0.0,800,12,,,,,,,,,,,,,,,,,,,
2797977,1480654053241,0,85.2,,153.8,6,141.6,,-0.05,0.05,1.01,-3.1,0.2,-0.0,800,12,1,0,66.667,0,37.478367,-122.203728,0.0,0.0,13.5,8,3,1.9,0,0.0,-1,0.0,0.0,0.0,0
2797997,1480654053261,,,,,,,,-0.05,0.06,1.0,-3.1,0.3,-0.0,740,12,,,,,,,,,,,,,,,,,,,
2798017,1480654053281,,,,,,,,-0.04,0.06,1.0,-3.1,0.5,-0.0,800,12,,,,,,,,,,,,,,,,,,,
2798037,1480654053301,,,,,,,,-0.04,0.07,1.01,-3.1,0.3,0.0,840,12,,,,,,,,,,,,,,,,,,,
2798057,1480654053321,,,,,,,,-0.05,0.06,1.01,-3.1,0.4,0.0,880,769230,,,,,,,,,,,,,,,,,,,
2798077,1480654053341,,,,,7,,,-0.05,0.07,1.01,-3.1,0.4,0.0,920,0,1,0,0.0,0,37.478367,-122.203728,0.0,0.0,13.5,8,3,1.9,0,0.0,-1,0.0,,0.0,0
2798097,1480654053361,,,,,,,,-0.05,0.07,0.99,-3.1,0.2,0.0,920,0,,,,,,,,,,,,,,,,,,,
2798117,1480654053381,,,,,,,,-0.05,0.06,1.01,-3.1,0.3,-0.0,960,0,,,,,,,,,,,,,,,,,,,
2798137,1480654053401,,,,,,,,-0.05,0.06,1.02,-3.1,0.3,-0.1,1000,0,,,,,,,,,,,,,,,,,,,
2798157,1480654053421,,,,,,,,-0.05,0.05,1.02,-3.1,0.4,-0.1,1020,0,,,,,,,,,,,,,,,,,,,
2798177,1480654053441,0,82.9,,153.1,9,142.5,,-0.05,0.04,1.02,-3.1,0.4,-0.1,1040,0,1,0,0.0,0,37.478367,-122.203728,0.0,0.0,13.5,8,3,1.9,0,0.0,-1,0.0,0.0,0.0,0
2798197,1480654053461,,,,,,,,-0.04,0.04,1.02,-3.1,0.4,-0.1,1060,0,,,,,,,,,,,,,,,,,,,
2798217,1480654053481,,,,,,,,-0.04,0.04,1.01,-3.1,0.3,-0.1,1060,0,,,,,,,,,,,,,,,,,,,
2798237,1480654053501,,,,,,,,-0.05,0.05,1.0,-3.1,0.3,-0.1,1100,0,,,,,,,,,,,,,,,,,,,
2798257,1480654053521,,,,,,,,-0.05,0.06,1.0,-3.1,0.3,-0.1,1100,0,,,,,,,,,,,,,,,,,,,
2798277,1480654053541,,,,,13,,,-0.05,0.07,1.0,-3.1,0.2,-0.1,1140,0,1,0,0.0,0,37.478367,-122.203728,0.0,0.0,13.5,8,3,1.9,0,0.0,-1,0.0,,0.0,0
2798297,1480654053561,,,,,,,,-0.05,0.07,1.01,-3.1,0.2,-0.0,1160,0,,,,,,,,,,,,,,,,,,,
2798317,1480654053581,,,,,,,,-0.04,0.07,1.0,-3.1,0.4,0.0,1160,0,,,,,,,,,,,,,,,,,,,
2798337,1480654053601,,,,,,,,-0.05,0.06,1.0,-3.1,0.4,0.0,1160,0,,,,,,,,,,,,,,,,,,,
2798357,1480654053621,,,,,,,,-0.05,0.06,1.0,-3.1,0.3,0.0,1160,0,,,,,,,,,,,,,,,,,,,
2798377,1480654053641,0,83.7,,152.8,15,142.0,,-0.05,0.07,1.0,-3.1,0.2,0.0,1180,0,1,0,0.0,0,37.478367,-122.203728,0.0,0.0,13.5,8,3,1.9,0,0.0,-1,0.0,0.0,0.0,0
2798397,1480654053661,,,,,,,,-0.05,0.08,1.0,-3.1,0.1,0.0,1180,0,,,,,,,,,,,,,,,,,,,
2798417,1480654053681,,,,,,,,-0.05,0.08,0.99,-3.1,0.1,0.0,1160,0,,,,,,,,,,,,,,,,,,,
2798437,1480654053701,,,,,,,,-0.05,0.08,0.99,-3.2,0.1,0.1,1160,0,,,,,,,,,,,,,,,,,,,
2798457,1480654053721,,,,,,,,-0.05,0.07,1.0,-3.1,0.0,0.1,1160,0,,,,,,,,,,,,,,,,,,,
2798477,1480654053741,,,,,18,,,-0.05,0.07,0.99,-3.1,-0.0,0.0,1160,0,1,0,0.0,0,37.478367,-122.203728,0.0,0.0,13.5,8,3,1.9,0,0.0,-1,0.0,,0.0,0
2798497,1480654053761,,,,,,,,-0.05,0.07,0.99,-3.1,0.1,0.0,1160,0,,,,,,,,,,,,,,,,,,,
2798517,1480654053781,,,,,,,,-0.06,0.07,0.99,-3.1,-0.0,0.0,1140,0,,,,,,,,,,,,,,,,,,,
2798537,1480654053900,,,,,,,,-0.05,0.07,1.0,-3.1,0.1,0.0,1140,0,,,,,,,,,,,,,,,,,,,
2798557,1480654053920,,,,,,,,-0.05,0.08,1.0,-3.1,0.2,0.1,1120,0,,,,,,,,,,,,,,,,,,,
2798577,1480654053940,0,85.5,2.5,153.9,25,142.6,14.95,-0.05,0.07,1.0,-3.1,0.3,0.1,1120,0,1,0,0.0,0,37.478367,-122.203728,0.0,0.0,13.5,8,3,1.9,0,0.0,-1,0.0,0.0,0.0,0
2798597,1480654053960,,,,,,,,-0.05,0.07,1.0,-3.1,0.2,0.1,1120,0,,,,,,,,,,,,,,,,,,,
2798617,1480654053980,,,,,,,,-0.05,0.07,0.99,-3.1,0.2,0.1,1100,0,,,,,,,,,,,,,,,,,,,
2798637,1480654054000,,,,,,,,-0.05,0.07,1.0,-3.1,0.3,0.0,1080,0,,,,,,,,,,,,,,,,,,,
2798657,1480654054020,,,,,,,,-0.05,0.07,1.0,-3.1,0.3,0.0,1080,0,,,,,,,,,,,,,,,,,,,
2798677,1480654054040,,,,,31,,,-0.05,0.07,0.99,-3.1,0.3,0.0,1060,0,1,0,0.0,0,37.478367,-122.203728,0.0,0.0,13.5,8,3,1.9,0,0.0,-1,0.0,,0.0,0
2798697,1480654054060,,,,,,,,-0.05,0.07,0.99,-3.1,0.1,0.0,1060,0,,,,,,,,,,,,,,,,,,,
2798717,1480654054080,,,,,,,,-0.05,0.07,1.0,-3.1,0.2,0.1,1040,0,,,,,,,,,,,,,,,,,,,
2798737,1480654054001,,,,,,,,-0.05,0.07,1.0,-3.1,0.2,0.1,1040,0,,,,,,,,,,,,,,,,,,,
2798757,1480654054021,,,,,,,,-0.04,0.08,1.0,-3.1,0.3,0.1,1020,0,,,,,,,,,,,,,,,,,,,
2798777,1480654054041,0,84.0,,152.8,34,141.8,,-0.04,0.07,1.0,-3.1,0.4,0.1,1000,0,1,0,0.0,0,37.478367,-122.203728,0.0,0.0,13.5,8,3,1.9,0,0.0,-1,0.0,0.0,0.0,0
2798797,1480654054061,,,,,,,,-0.04,0.07,1.01,-3.1,0.4,0.1,1000,0,,,,,,,,,,,,,,,,,,,
2798817,1480654054081,,,,,,,,-0.04,0.07,1.01,-3.1,0.4,0.1,980,0,,,,,,,,,,,,,,,,,,,
2798837,1480654054101,,,,,,,,-0.05,0.07,1.01,-3.1,0.4,0.1,980,0,,,,,,,,,,,,,,,,,,,
2798857,1480654054121,,,,,,,,-0.05,0.07,1.01,-3.1,0.5,0.1,960,0,,,,,,,,,,,,,,,,,,,
2798877,1480654054141,,,,,38,,,-0.05,0.08,1.01,-3.1,0.5,0.1,940,0,1,0,0.0,0,37.478367,-122.203728,0.0,0.0,13.5,8,3,1.9,0,0.0,-1,0.0,,0.0,0
2798897,1480654054161,,,,,,,,-0.05,0.08,1.01,-3.1,0.5,0.1,920,0,,,,,,,,,,,,,,,,,,,
2798917,1480654054181,,,,,,,,-0.04,0.08,1.01,-3.1,0.5,0.1,920,0,,,,,,,,,,,,,,,,,,,
2798937,1480654054201,,,,,,,,-0.04,0.08,1.01,-3.1,0.4,0.1,920,0,,,,,,,,,,,,,,,,,,,
2798957,1480654054221,,,,,,,,-0.05,0.08,1.01,-3.2,0.3,0.1,900,0,,,,,,,,,,,,,,,,,,,
2798977,1480654054241,0,82.8,,152.8,41,142.3,,-0.05,0.08,1.01,-3.2,0.3,0.1,880,0,1,0,0.0,0,37.478367,-122.203728,0.0,0.0,13.5,8,3,1.9,0,0.0,-1,0.0,0.0,0.0,0
2798997,1480654054261,,,,,,,,-0.05,0.07,1.01,-3.1,0.3,0.1,880,0,,,,,,,,,,,,,,,,,,,
2799017,1480654054281,,,,,,,,-0.05,0.08,1.01,-3.1,0.2,0.1,880,0,,,,,,,,,,,,,,,,,,,
2799037,1480654054301,,,,,,,,-0.05,0.07,1.01,-3.1,0.2,0.0,860,0,,,,,,,,,,,,,,,,,,,
2799057,1480654054321,,,,,,,,-0.05,0.07,1.0,-3.1,0.3,0.0,860,0,,,,,,,,,,,,,,,,,,,
2799077,1480654054341,,,,,44,,,-0.05,0.07,1.01,-3.1,0.2,0.0,860,0,1,0,0.0,0,37.478367,-122.203728,0.0,0.0,13.5,8,3,1.9,0,0.0,-1,0.0,,0.0,0
2799097,1480654054361,,,,,,,,-0.05,0.07,1.01,-3.1,0.2,0.0,860,0,,,,,,,,,,,,,,,,,,,
2799117,1480654054381,,,,,,,,-0.05,0.08,1.0,-3.1,0.2,0.1,840,0,,,,,,,,,,,,,,,,,,,
2799137,1480654054399,,,,,,,,-0.05,0.07,1.01,-3.1,0.2,0.0,820,0,,,,,,,,,,,,,,,,,,,
2799157,1480654054419,,,,,,,,-0.05,0.07,1.01,-3.1,0.2,0.0,820,0,,,,,,,,,,,,,,,,,,,
2799177,1480654054439,0,84.6,,153.9,49,142.8,,-0.05,0.07,1.0,-3.1,0.3,0.1,820,0,1,0,0.0,0,37.478367,-122.203728,0.0,0.0,13.5,8,3,1.9,0,0.0,-1,0.0,0.0,0.0,0
2799197,1480654054459,,,,,,,,-0.05,0.07,1.0,-3.1,0.4,0.0,800,0,,,,,,,,,,,,,,,,,,,
2799217,1480654054479,,,,,,,,-0.04,0.07,1.0,-3.1,0.3,0.0,800,0,,,,,,,,,,,,,,,,,,,
2799237,1480654054501,,,,,,,,-0.04,0.07,1.0,-3.1,0.3,0.1,800,0,,,,,,,,,,,,,,,,,,,
2799257,1480654054521,,,,,,,,-0.05,0.07,1.0,-3.1,0.3,0.1,800,0,,,,,,,,,,,,,,,,,,,
2799277,1480654054541,,,,,47,,,-0.05,0.07,1.0,-3.1,0.3,0.0,800,0,1,0,0.0,0,37.478367,-122.203728,0.0,0.0,13.5,8,3,1.9,0,0.0,-1,0.0,,0.0,0
2799297,1480654054561,,,,,,,,-0.04,0.07,1.0,-3.1,0.3,0.1,800,0,,,,,,,,,,,,,,,,,,,
2799317,1480654054581,,,,,,,,-0.04,0.07,1.0,-3.1,0.4,0.1,780,0,,,,,,,,,,,,,,,,,,,
2799337,1480654054700,,,,,,,,-0.04,0.07,1.0,-3.1,0.3,0.1,780,0,,,,,,,,,,,,,,,,,,,
2799357,1480654054720,,,,,,,,-0.04,0.06,1.0,-3.1,0.3,0.1,800,0,,,,,,,,,,,,,,,,,,,
2799377,1480654054740,0,83.1,,152.9,52,142.2,,-0.04,0.06,1.0,-3.1,0.3,0.1,800,0,1,0,0.0,0,37.478367,-122.203728,0.0,0.0,13.5,8,3,1.9,0,0.0,-1,0.0,0.0,0.0,0
2799397,1480654054760,,,,,,,,-0.04,0.06,1.0,-3.1,0.3,0.1,780,0,,,,,,,,,,,,,,,,,,,
2799417,1480654054780,,,,,,,,-0.04,0.06,1.0,-3.1,0.4,0.1,780,0,,,,,,,,,,,,,,,,,,,
2799437,1480654054800,,,,,,,,-0.04,0.07,1.0,-3.1,0.3,0.1,780,0,,,,,,,,,,,,,,,,,,,
2799457,1480654054820,,,,,,,,-0.04,0.06,0.99,-3.1,0.3,0.1,780,0,,,,,,,,,,,,,,,,,,,
2799477,1480654054840,,,,,51,,,-0.04,0.06,1.0,-3.1,0.3,0.0,780,0,1,0,0.0,0,37.478367,-122.203728,0.0,0.0,13.5,8,3,1.9,0,0.0,-1,0.0,,0.0,0
2799497,1480654054860,,,,,,,,-0.04,0.06,1.0,-3.1,0.4,0.0,800,0,,,,,,,,,,,,,,,,,,,
2799517,1480654054880,,,,,,,,-0.04,0.06,1.0,-3.1,0.4,0.0,800,0,,,,,,,,,,,,,,,,,,,
2799537,1480654054801,,,,,,,,-0.04,0.07,1.0,-3.1,0.4,0.1,800,0,,,,,,,,,,,,,,,,,,,
2799557,1480654054821,,,,,,,,-0.04,0.06,1.0,-3.1,0.3,0.1,800,0,,,,,,,,,,,,,,,,,,,
2799577,1480654054841,1,85.8,2.3,154.1,56,141.7,14.93,-0.05,0.06,1.01,-3.1,0.3,0.0,800,0,1,0,0.0,0,37.478367,-122.203728,0.0,0.0,13.5,8,3,1.9,0,0.0,-1,0.0,0.0,0.0,0
2799597,1480654054861,,,,,,,,-0.04,0.06,1.01,-3.1,0.3,0.0,800,0,,,,,,,,,,,,,,,,,,,
2799617,1480654054881,,,,,,,,-0.04,0.06,1.0,-3.1,0.4,0.1,800,0,,,,,,,,,,,,,,,,,,,
2799637,1480654054895,,,,,,,,-0.04,0.07,1.0,-3.1,0.3,0.1,800,0,,,,,,,,,,,,,,,,,,,
2799657,1480654054915,,,,,,,,-0.05,0.07,1.0,-3.1,0.3,0.1,800,0,,,,,,,,,,,,,,,,,,,
2799677,1480654054935,,,,,56,,,-0.05,0.07,1.0,-3.1,0.3,0.0,820,0,1,0,0.0,0,37.478367,-122.203728,0.0,0.0,13.5,8,3,1.9,0,0.0,-1,0.0,,0.0,0
2799697,1480654054955,,,,,,,,-0.05,0.07,1.0,-3.1,0.3,0.0,820,0,,,,,,,,,,,,,,,,,,,
2799717,1480654054975,,,,,,,,-0.05,0.07,1.0,-3.1,0.2,0.1,800,0,,,,,,,,,,,,,,,,,,,
2799737,1480654055001,,,,,,,,-0.04,0.07,1.0,-3.1,0.3,0.1,820,0,,,,,,,,,,,,,,,,,,,
2799757,1480654055021,,,,,,,,-0.05,0.07,1.01,-3.1,0.2,0.1,820,0,,,,,,,,,,,,,,,,,,,
2799777,1480654055041,0,84.8,,153.1,52,141.6,,-0.05,0.07,1.01,-3.1,0.3,0.1,820,0,1,0,0.0,0,37.478367,-122.203728,0.0,0.0,13.5,8,3,1.9,0,0.0,-1,0.0,0.0,0.0,0
2799797,1480654055061,,,,,,,,-0.05,0.07,1.01,-3.1,0.3,0.0,820,0,,,,,,,,,,,,,,,,,,,
2799817,1480654055081,,,,,,,,-0.05,0.07,1.01,-3.1,0.3,0.0,820,0,,,,,,,,,,,,,,,,,,,
2799837,1480654055102,,,,,,,,-0.05,0.07,1.01,-3.1,0.3,0.0,820,0,,,,,,,,,,,,,,,,,,,
2799857,1480654055122,,,,,,,,-0.04,0.07,1.0,-3.1,0.2,0.0,820,0,,,,,,,,,,,,,,,,,,,
2799877,1480654055142,,,,,52,,,-0.05,0.07,1.0,-3.1,0.2,0.0,820,0,1,0,0.0,0,37.478367,-122.203728,0.0,0.0,13.5,8,3,1.9,0,0.0,-1,0.0,,0.0,0
2799897,1480654055162,,,,,,,,-0.05,0.07,1.0,-3.1,0.2,0.0,820,0,,,,,,,,,,,,,,,,,,,
2799917,1480654055182,,,,,,,,-0.05,0.07,1.0,-3.1,0.2,0.0,820,0,,,,,,,,,,,,,,,,,,,
2799937,1480654055201,,,,,,,,-0.05,0.07,1.0,-3.1,0.2,-0.0,820,0,,,,,,,,,,,,,,,,,,,
2799957,1480654055221,,,,,,,,-0.04,0.07,1.0,-3.1,0.3,-0.0,820,0,,,,,,,,,,,,,,,,,,,
2799977,1480654055241,0,85.8,,154.2,57,141.7,,-0.04,0.07,1.0,-3.1,0.3,0.0,840,0,1,0,0.0,0,37.478367,-122.203728,0.0,0.0,13.5,8,3,1.9,0,0.0,-1,0.0,0.0,0.0,0
2799997,1480654055261,,,,,,,,-0.05,0.07,1.01,-3.1,0.3,0.0,820,0,,,,,,,,,,,,,,,,,,,
2800017,1480654055281,,,,,,,,-0.05,0.06,1.0,-3.1,0.3,-0.0,820,0,,,,,,,,,,,,,,,,,,,
2800037,1480654055302,,,,,,,,-0.05,0.06,1.01,-3.1,0.3,-0.0,820,0,,,,,,,,,,,,,,,,,,,
2800057,1480654055322,,,,,,,,-0.05,0.07,1.01,-3.1,0.3,-0.0,820,0,,,,,,,,,,,,,,,,,,,
2800077,1480654055342,,,,,55,,,-0.05,0.07,1.0,-3.1,0.3,0.0,820,0,1,0,0.0,0,37.478367,-122.203728,0.0,0.0,13.5,8,3,1.9,0,0.0,-1,0.0,,0.0,0
2800097,1480654055362,,,,,,,,-0.04,0.07,1.0,-3.1,0.3,0.0,840,0,,,,,,,,,,,,,,,,,,,
2800117,1480654055382,,,,,,,,-0.05,0.07,1.0,-3.1,0.2,0.0,820,0,,,,,,,,,,,,,,,,,,,
2800137,1480654055500,,,,,,,,-0.05,0.07,1.0,-3.1,0.2,0.0,820,0,,,,,,,,,,,,,,,,,,,
2800157,1480654055520,,,,,,,,-0.05,0.07,1.0,-3.1,0.2,0.0,820,0,,,,,,,,,,,,,,,,,,,
2800177,1480654055540,0,83.1,,153.2,55,142.3,,-0.04,0.07,1.0,-3.1,0.2,0.0,820,0,1,0,0.0,0,37.478367,-122.203728,0.0,0.0,13.5,8,3,1.9,0,0.0,-1,0.0,0.0,0.0,0
2800197,1480654055560,,,,,,,,-0.04,0.07,1.0,-3.1,0.3,0.0,820,0,,,,,,,,,,,,,,,,,,,
2800217,1480654055580,,,,,,,,-0.04,0.07,1.0,-3.1,0.2,0.0,820,0,,,,,,,,,,,,,,,,,,,
2800237,1480654055600,,,,,,,,-0.05,0.07,1.0,-3.1,0.2,0.0,820,0,,,,,,,,,,,,,,,,,,,
2800257,1480654055620,,,,,,,,-0.05,0.07,1.0,-3.1,0.3,0.0,820,0,,,,,,,,,,,,,,,,,,,
2800277,1480654055640,,,,,55,,,-0.05,0.07,1.0,-3.1,0.3,0.0,820,0,1,0,0.0,0,37.478367,-122.203728,0.0,0.0,13.5,8,3,1.9,0,0.0,-1,0.0,,0.0,0
2800297,1480654055660,,,,,,,,-0.04,0.07,1.0,-3.1,0.2,0.1,820,0,,,,,,,,,,,,,,,,,,,
2800317,1480654055680,,,,,,,,-0.04,0.07,1.0,-3.1,0.2,0.1,820,0,,,,,,,,,,,,,,,,,,,
2800337,1480654055601,,,,,,,,-0.04,0.07,1.0,-3.1,0.1,0.1,820,0,,,,,,,,,,,,,,,,,,,
2800357,1480654055621,,,,,,,,-0.04,0.07,1.0,-3.1,0.1,0.1,820,0,,,,,,,,,,,,,,,,,,,
2800377,1480654055641,0,85.3,,154.3,54,142.8,,-0.05,0.07,1.0,-3.1,0.1,0.1,820,0,1,0,0.0,0,37.478367,-122.203728,0.0,0.0,13.5,8,3,1.9,0,0.0,-1,0.0,0.0,0.0,0
2800397,1480654055661,,,,,,,,-0.05,0.07,1.0,-3.1,0.2,0.0,820,0,,,,,,,,,,,,,,,,,,,
2800417,1480654055681,,,,,,,,-0.05,0.07,1.01,-3.1,0.2,0.0,820,0,,,,,,,,,,,,,,,,,,,
2800437,1480654055701,,,,,,,,-0.04,0.07,1.0,-3.1,0.3,0.0,820,0,,,,,,,,,,,,,,,,,,,
2800457,1480654055721,,,,,,,,-0.04,0.07,1.0,-3.1,0.2,0.1,820,0,,,,,,,,,,,,,,,,,,,
2800477,1480654055741,,,,,55,,,-0.05,0.07,1.01,-3.1,0.3,0.1,820,0,1,0,0.0,0,37.478367,-122.203728,0.0,0.0,13.5,8,3,1.9,0,0.0,-1,0.0,,0.0,0
2800497,1480654055761,,,,,,,,-0.05,0.07,1.01,-3.1,0.3,0.1,820,0,,,,,,,,,,,,,,,,,,,
2800517,1480654055781,,,,,,,,-0.05,0.07,1.01,-3.1,0.3,0.0,820,0,,,,,,,,,,,,,,,,,,,
2800537,1480654055801,,,,,,,,-0.05,0.07,1.01,-3.1,0.3,0.1,820,0,,,,,,,,,,,,,,,,,,,
2800557,1480654055821,,,,,,,,-0.04,0.07,1.0,-3.1,0.3,0.1,820,0,,,,,,,,,,,,,,,,,,,
2800577,1480654055841,0,83.7,1.9,153.2,52,142.2,14.93,-0.04,0.07,1.0,-3.1,0.2,0.1,820,0,1,0,0.0,0,37.478367,-122.203728,0.0,0.0,13.5,8,3,1.9,0,0.0,-1,0.0,0.0,0.0,0
2800597,1480654055861,,,,,,,,-0.05,0.07,1.0,-3.1,0.2,0.1,820,0,,,,,,,,,,,,,,,,,,,
2800617,1480654055881,,,,,,,,-0.05,0.07,1.0,-3.1,0.2,0.1,820,0,,,,,,,,,,,,,,,,,,,
2800637,1480654055895,,,,,,,,-0.05,0.07,1.01,-3.1,0.2,0.0,820,0,,,,,,,,,,,,,,,,,,,
2800657,1480654055915,,,,,,,,-0.05,0.07,1.0,-3.1,0.3,0.0,820,0,,,,,,,,,,,,,,,,,,,
2800677,1480654055935,,,,,59,,,-0.04,0.07,1.01,-3.1,0.4,0.0,820,0,1,0,0.0,0,37.478367,-122.203728,0.0,0.0,13.5,8,3,1.9,0,0.0,-1,0.0,,0.0,0
2800697,1480654055955,,,,,,,,-0.04,0.07,1.01,-3.1,0.3,0.1,820,0,,,,,,,,,,,,,,,,,,,
2800717,1480654055975,,,,,,,,-0.05,0.07,1.01,-3.1,0.4,0.1,820,0,,,,,,,,,,,,,,,,,,,
2800737,1480654055996,,,,,,,,-0.05,0.06,1.01,-3.1,0.4,0.0,820,0,,,,,,,,,,,,,,,,,,,
2800757,1480654056016,,,,,,,,-0.05,0.06,1.01,-3.1,0.4,0.0,820,0,,,,,,,,,,,,,,,,,,,
2800777,1480654056036,0,86.0,,154.4,59,141.8,,-0.05,0.07,1.01,-3.1,0.3,0.0,820,0,1,0,0.0,0,37.478367,-122.203728,0.0,0.0,13.5,8,3,1.9,0,0.0,-1,0.0,0.0,0.0,0
2800797,1480654056056,,,,,,,,-0.04,0.07,1.01,-3.1,0.3,0.0,820,0,,,,,,,,,,,,,,,,,,,
2800817,1480654056076,,,,,,,,-0.04,0.07,1.0,-3.1,0.2,0.1,820,0,,,,,,,,,,,,,,,,,,,
2800837,1480654056101,,,,,,,,-0.05,0.07,1.01,-3.1,0.2,0.1,820,0,,,,,,,,,,,,,,,,,,,
2800857,1480654056121,,,,,,,,-0.05,0.07,1.01,-3.1,0.2,0.0,820,0,,,,,,,,,,,,,,,,,,,
2800877,1480654056141,,,,,56,,,-0.05,0.06,1.01,-3.1,0.2,0.0,820,0,1,0,0.0,0,37.478367,-122.203728,0.0,0.0,13.5,8,3,1.9,0,0.0,-1,0.0,,0.0,0
2800897,1480654056161,,,,,,,,-0.05,0.06,1.0,-3.1,0.3,0.0,820,0,,,,,,,,,,,,,,,,,,,
2800917,1480654056181,,,,,,,,-0.04,0.07,1.0,-3.1,0.4,0.1,820,0,,,,,,,,,,,,,,,,,,,
2800937,1480654056301,,,,,,,,-0.05,0.07,1.0,-3.1,0.3,0.1,800,0,,,,,,,,,,,,,,,,,,,
2800957,1480654056321,,,,,,,,-0.05,0.06,1.0,-3.1,0.4,0.1,820,0,,,,,,,,,,,,,,,,,,,
2800977,1480654056341,0,85.5,,154.4,58,142.7,,-0.05,0.06,1.0,-3.1,0.3,0.1,820,0,1,0,0.0,0,37.478367,-122.203728,0.0,0.0,13.5,8,3,1.9,0,0.0,-1,0.0,0.0,0.0,0
2800997,1480654056361,,,,,,,,-0.05,0.07,1.0,-3.1,0.3,0.1,820,0,,,,,,,,,,,,,,,,,,,
2801017,1480654056381,,,,,,,,-0.05,0.06,1.0,-3.1,0.3,0.1,820,0,,,,,,,,,,,,,,,,,,,
2801037,1480654056401,,,,,,,,-0.05,0.07,0.99,-3.1,0.3,0.1,820,0,,,,,,,,,,,,,,,,,,,
2801057,1480654056421,,,,,,,,-0.05,0.07,1.0,-3.1,0.2,0.1,820,0,,,,,,,,,,,,,,,,,,,
2801077,1480654056441,,,,,55,,,-0.05,0.07,1.0,-3.1,0.3,0.0,820,0,1,0,0.0,0,37.478367,-122.203728,0.0,0.0,13.5,8,3,1.9,0,0.0,-1,0.0,,0.0,0
2801097,1480654056461,,,,,,,,-0.05,0.06,1.0,-3.1,0.3,0.0,820,0,,,,,,,,,,,,,,,,,,,
2801117,1480654056481,,,,,,,,-0.05,0.06,1.0,-3.1,0.3,0.0,820,0,,,,,,,,,,,,,,,,,,,
2801137,1480654056401,,,,,,,,-0.05,0.06,1.0,-3.1,0.3,0.0,820,0,,,,,,,,,,,,,,,,,,,
2801157,1480654056421,,,,,,,,-0.04,0.07,1.0,-3.1,0.3,0.0,820,0,,,,,,,,,,,,,,,,,,,
2801177,1480654056441,0,85.0,,154.4,59,142.7,,-0.04,0.06,1.0,-3.1,0.2,0.0,820,0,1,0,0.0,0,37.478367,-122.203728,0.0,0.0,13.5,8,3,1.9,0,0.0,-1,0.0,0.0,0.0,0
2801197,1480654056461,,,,,,,,-0.05,0.07,1.0,-3.1,0.2,0.0,820,0,,,,,,,,,,,,,,,,,,,
2801217,1480654056481,,,,,,,,-0.05,0.07,1.0,-3.1,0.2,-0.0,820,0,,,,,,,,,,,,,,,,,,,
2801237,1480654056501,,,,,,,,-0.05,0.07,1.0,-3.1,0.2,-0.0,820,0,,,,,,,,,,,,,,,,,,,
2801257,1480654056521,,,,,,,,-0.04,0.07,1.0,-3.1,0.2,-0.0,820,0,,,,,,,,,,,,,,,,,,,
2801277,1480654056541,,,,,60,,,-0.04,0.07,1.0,-3.1,0.2,0.0,820,0,1,0,0.0,0,37.478367,-122.203728,0.0,0.0,13.5,8,3,1.9,0,0.0,-1,0.0,,0.0,0
2801297,1480654056561,,,,,,,,-0.05,0.06,1.0,-3.1,0.2,0.0,800,0,,,,,,,,,,,,,,,,,,,
2801317,1480654056581,,,,,,,,-0.05,0.06,1.0,-3.1,0.2,0.0,800,0,,,,,,,,,,,,,,,,,,,
2801337,1480654056602,,,,,,,,-0.05,0.06,1.0,-3.1,0.2,-0.0,800,0,,,,,,,,,,,,,,,,,,,
2801357,1480654056622,,,,,,,,-0.05,0.07,1.0,-3.1,0.2,-0.0,800,0,,,,,,,,,,,,,,,,,,,
2801377,1480654056642,0,83.8,,153.6,58,141.8,,-0.04,0.07,1.0,-3.1,0.2,0.0,820,0,1,0,0.0,0,37.478367,-122.203728,0.0,0.0,13.5,8,3,1.9,0,0.0,-1,0.0,0.0,0.0,0
2801397,1480654056662,,,,,,,,-0.05,0.07,1.0,-3.1,0.1,0.1,820,0,,,,,,,,,,,,,,,,,,,
2801417,1480654056682,,,,,,,,-0.05,0.07,1.0,-3.1,0.2,0.1,820,0,,,,,,,,,,,,,,,,,,,
2801437,1480654056701,,,,,,,,-0.05,0.07,1.0,-3.1,0.2,0.0,800,0,,,,,,,,,,,,,,,,,,,
2801457,1480654056721,,,,,,,,-0.05,0.06,1.0,-3.1,0.2,0.0,800,0,,,,,,,,,,,,,,,,,,,
2801477,1480654056741,,,,,61,,,-0.05,0.07,0.99,-3.1,0.2,0.0,800,0,1,0,0.0,0,37.478367,-122.203728,0.0,0.0,13.5,8,3,1.9,0,0.0,-1,0.0,,0.0,0
2801497,1480654056761,,,,,,,,-0.04,0.07,1.0,-3.1,0.2,0.1,800,0,,,,,,,,,,,,,,,,,,,
2801517,1480654056781,,,,,,,,-0.05,0.07,1.0,-3.1,0.1,0.1,800,0,,,,,,,,,,,,,,,,,,,
2801537,1480654056802,,,,,,,,-0.05,0.06,1.0,-3.1,0.1,0.1,800,0,,,,,,,,,,,,,,,,,,,
2801557,1480654056822,,,,,,,,-0.05,0.06,1.0,-3.1,0.2,0.1,800,0,,,,,,,,,,,,,,,,,,,
2801577,1480654056842,0,84.2,2.2,154.4,59,141.6,14.96,-0.05,0.06,1.0,-3.1,0.2,0.1,820,0,1,0,0.0,0,37.478367,-122.203728,0.0,0.0,13.5,8,3,1.9,0,0.0,-1,0.0,0.0,0.0,0
2801597,1480654056862,,,,,,,,-0.04,0.06,1.0,-3.1,0.3,0.1,800,0,,,,,,,,,,,,,,,,,,,
2801617,1480654056882,,,,,,,,-0.04,0.06,1.0,-3.1,0.2,0.1,800,0,,,,,,,,,,,,,,,,,,,
2801637,1480654056895,,,,,,,,-0.05,0.06,1.0,-3.1,0.2,0.1,800,0,,,,,,,,,,,,,,,,,,,
2801657,1480654056915,,,,,,,,-0.05,0.06,1.0,-3.1,0.2,0.1,800,0,,,,,,,,,,,,,,,,,,,
2801677,1480654056935,,,,,59,,,-0.04,0.06,1.0,-3.1,0.2,0.1,800,0,1,0,0.0,0,37.478367,-122.203728,0.0,0.0,13.5,8,3,1.9,0,0.0,-1,0.0,,0.0,0
2801697,1480654056955,,,,,,,,-0.05,0.06,1.0,-3.1,0.2,0.1,820,0,,,,,,,,,,,,,,,,,,,
2801717,1480654056975,,,,,,,,-0.04,0.06,1.0,-3.1,0.2,0.0,820,0,,,,,,,,,,,,,,,,,,,
2801737,1480654057099,,,,,,,,-0.05,0.06,1.0,-3.1,0.2,0.0,800,0,,,,,,,,,,,,,,,,,,,
2801757,1480654057119,,,,,,,,-0.05,0.06,1.0,-3.1,0.2,0.0,800,0,,,,,,,,,,,,,,,,,,,
2801777,1480654057139,0,85.6,,154.3,57,142.7,,-0.05,0.06,1.0,-3.1,0.2,0.0,800,0,1,0,0.0,0,37.478367,-122.203728,0.0,0.0,13.5,8,3,1.9,0,0.0,-1,0.0,0.0,0.0,0
2801797,1480654057159,,,,,,,,-0.05,0.06,1.0,-3.1,0.1,0.0,800,0,,,,,,,,,,,,,,,,,,,
2801817,1480654057179,,,,,,,,-0.04,0.07,1.0,-3.1,0.2,0.0,800,0,,,,,,,,,,,,,,,,,,,
2801837,1480654057199,,,,,,,,-0.04,0.07,1.0,-3.1,0.0,0.1,800,0,,,,,,,,,,,,,,,,,,,
2801857,1480654057219,,,,,,,,-0.05,0.07,1.0,-3.1,0.1,0.1,800,0,,,,,,,,,,,,,,,,,,,
2801877,1480654057239,,,,,56,,,-0.05,0.06,1.0,-3.1,0.1,0.1,800,0,1,0,0.0,0,37.478367,-122.203728,0.0,0.0,13.5,8,3,1.9,0,0.0,-1,0.0,,0.0,0
2801897,1480654057259,,,,,,,,-0.04,0.06,1.0,-3.1,0.2,0.1,800,0,,,,,,,,,,,,,,,,,,,
2801917,1480654057279,,,,,,,,-0.04,0.07,1.0,-3.1,0.2,0.1,800,0,,,,,,,,,,,,,,,,,,,
2801937,1480654057201,,,,,,,,-0.04,0.07,0.99,-3.1,0.1,0.1,800,0,,,,,,,,,,,,,,,,,,,
2801957,1480654057221,,,,,,,,-0.05,0.06,1.0,-3.1,0.1,0.1,800,0,,,,,,,,,,,,,,,,,,,
2801977,1480654057241,1,84.8,,154.7,59,141.8,,-0.05,0.06,1.0,-3.1,0.1,0.1,800,0,1,0,0.0,0,37.478367,-122.203728,0.0,0.0,13.5,8,3,1.9,0,0.0,-1,0.0,0.0,0.0,0
2801997,1480654057261,,,,,,,,-0.05,0.06,1.0,-3.1,0.1,0.1,800,0,,,,,,,,,,,,,,,,,,,
2802017,1480654057281,,,,,,,,-0.05,0.07,1.0,-3.1,0.2,0.1,800,0,,,,,,,,,,,,,,,,,,,
2802037,1480654057301,,,,,,,,-0.04,0.07,1.0,-3.1,0.1,0.1,800,0,,,,,,,,,,,,,,,,,,,
2802057,1480654057321,,,,,,,,-0.05,0.07,1.01,-3.1,0.1,0.1,800,0,,,,,,,,,,,,,,,,,,,
2802077,1480654057341,,,,,58,,,-0.05,0.07,1.01,-3.1,0.1,0.1,800,0,1,0,0.0,0,37.478367,-122.203728,0.0,0.0,13.5,8,3,1.9,0,0.0,-1,0.0,,0.0,0
2802097,1480654057361,,,,,,,,-0.05,0.07,1.0,-3.1,0.2,0.0,800,0,,,,,,,,,,,,,,,,,,,
2802117,1480654057381,,,,,,,,-0.05,0.07,1.0,-3.1,0.2,0.0,800,0,,,,,,,,,,,,,,,,,,,
2802137,1480654057401,,,,,,,,-0.04,0.07,1.0,-3.1,0.3,0.0,800,0,,,,,,,,,,,,,,,,,,,
2802157,1480654057421,,,,,,,,-0.05,0.07,1.0,-3.1,0.2,0.0,820,0,,,,,,,,,,,,,,,,,,,
2802177,1480654057441,0,86.1,,154.9,59,142.7,,-0.05,0.07,1.0,-3.1,0.2,0.0,800,0,1,0,0.0,0,37.478367,-122.203728,0.0,0.0,13.5,8,3,1.9,0,0.0,-1,0.0,0.0,0.0,0
2802197,1480654057461,,,,,,,,-0.05,0.07,1.0,-3.1,0.2,0.0,800,0,,,,,,,,,,,,,,,,,,,
2802217,1480654057481,,,,,,,,-0.05,0.07,1.0,-3.1,0.2,0.0,800,0,,,,,,,,,,,,,,,,,,,
2802237,1480654057501,,,,,,,,-0.04,0.07,1.0,-3.1,0.3,0.0,800,0,,,,,,,,,,,,,,,,,,,
2802257,1480654057521,,,,,,,,-0.04,0.07,1.0,-3.1,0.3,0.0,800,0,,,,,,,,,,,,,,,,,,,
2802277,1480654057541,,,,,59,,,-0.05,0.07,1.0,-3.1,0.3,0.0,820,0,0,0,0.0,0,37.478367,-122.203728,0.0,0.0,13.5,8,3,1.9,0,0.0,-1,0.0,,0.0,0
2802297,1480654057561,,,,,,,,-0.05,0.07,1.0,-3.1,0.2,0.0,800,0,,,,,,,,,,,,,,,,,,,
2802317,1480654057581,,,,,,,,-0.05,0.07,1.0,-3.1,0.3,0.0,800,0,,,,,,,,,,,,,,,,,,,
2802337,1480654057601,,,,,,,,-0.05,0.07,1.0,-3.1,0.2,0.0,800,0,,,,,,,,,,,,,,,,,,,
2802357,1480654057621,,,,,,,,-0.04,0.07,1.0,-3.1,0.2,0.1,800,0,,,,,,,,,,,,,,,,,,,
2802377,1480654057641,0,83.8,,154.2,58,141.6,,-0.05,0.07,1.0,-3.1,0.1,0.0,800,0,1,1,0.0,0,37.478367,-122.203728,0.0,0.0,13.5,8,3,1.9,0,0.0,-1,0.0,0.0,0.0,0
2802397,1480654057661,,,,,,,,-0.05,0.07,1.0,-3.1,0.2,0.0,780,0,,,,,,,,,,,,,,,,,,,
2802417,1480654057681,,,,,,,,-0.05,0.07,1.0,-3.1,0.1,0.0,780,0,,,,,,,,,,,,,,,,,,,
2802437,1480654057701,,,,,,,,-0.05,0.08,0.99,-3.1,0.1,0.0,780,0,,,,,,,,,,,,,,,,,,,
2802457,1480654057721,,,,,,,,-0.05,0.08,0.99,-3.1,0.0,0.1,760,0,,,,,,,,,,,,,,,,,,,
2802477,1480654057741,,,,,58,,,-0.05,0.08,0.99,-3.1,0.1,0.0,760,0,0,1,0.0,0,37.478367,-122.203728,0.0,0.0,13.5,8,3,1.9,0,0.0,-1,0.0,,0.0,0
2802497,1480654057761,,,,,,,,-0.05,0.08,0.99,-3.1,0.1,0.0,760,0,,,,,,,,,,,,,,,,,,,
2802517,1480654057781,,,,,,,,-0.05,0.08,0.99,-3.1,0.1,0.0,740,0,,,,,,,,,,,,,,,,,,,
2802537,1480654057901,,,,,,,,-0.04,0.07,0.99,-3.1,0.1,0.0,740,0,,,,,,,,,,,,,,,,,,,
2802557,1480654057921,,,,,,,,-0.04,0.07,0.99,-3.1,0.1,0.0,740,0,,,,,,,,,,,,,,,,,,,
2802577,1480654057941,0,85.1,1.8,155.0,55,141.7,13.98,-0.05,0.07,0.99,-3.1,0.1,0.0,740,0,1,1,0.0,0,37.478367,-122.203728,0.0,0.0,13.5,8,3,1.9,0,0.0,-1,0.0,0.0,0.0,0
2802597,1480654057961,,,,,,,,-0.04,0.07,0.98,-3.1,0.2,0.0,740,0,,,,,,,,,,,,,,,,,,,
2802617,1480654057981,,,,,,,,-0.04,0.07,0.99,-3.1,0.2,0.0,740,0,,,,,,,,,,,,,,,,,,,
2802637,1480654058001,,,,,,,,-0.04,0.07,0.99,-3.1,0.3,0.0,720,0,,,,,,,,,,,,,,,,,,,
2802657,1480654058021,,,,,,,,-0.04,0.07,0.99,-3.1,0.3,-0.0,720,0,,,,,,,,,,,,,,,,,,,
2802677,1480654058041,,,,,54,,,-0.04,0.07,0.99,-3.1,0.3,0.0,720,0,0,0,0.0,0,37.478367,-122.203728,0.0,0.0,13.5,8,3,1.9,0,0.0,-1,0.0,,0.0,0
2802697,1480654058061,,,,,,,,-0.04,0.08,0.99,-3.1,0.1,0.0,720,0,,,,,,,,,,,,,,,,,,,
2802717,1480654058081,,,,,,,,-0.04,0.07,0.99,-3.1,0.1,0.0,720,0,,,,,,,,,,,,,,,,,,,
2802737,1480654058002,,,,,,,,-0.05,0.07,1.0,-3.1,0.2,0.0,720,0,,,,,,,,,,,,,,,,,,,
2802757,1480654058022,,,,,,,,-0.04,0.07,1.0,-3.1,0.1,0.0,720,0,,,,,,,,,,,,,,,,,,,
2802777,1480654058042,0,86.5,,155.1,55,142.8,,-0.04,0.07,1.0,-3.1,0.1,0.0,720,0,1,1,0.0,0,37.478367,-122.203728,0.0,0.0,13.5,8,3,1.9,0,0.0,-1,0.0,0.0,0.0,0
2802797,1480654058062,,,,,,,,-0.05,0.06,1.0,-3.1,0.1,0.0,720,0,,,,,,,,,,,,,,,,,,,
2802817,1480654058082,,,,,,,,-0.04,0.06,0.99,-3.1,0.1,0.0,720,0,,,,,,,,,,,,,,,,,,,
2802837,1480654058101,,,,,,,,-0.04,0.06,0.99,-3.1,0.2,0.0,720,0,,,,,,,,,,,,,,,,,,,
2802857,1480654058121,,,,,,,,-0.04,0.06,0.99,-3.1,0.2,0.0,700,0,,,,,,,,,,,,,,,,,,,
2802877,1480654058141,,,,,53,,,-0.04,0.06,1.0,-3.1,0.2,0.0,700,0,1,1,0.0,0,37.478367,-122.203728,0.0,0.0,13.5,8,3,1.9,0,0.0,-1,0.0,,0.0,0
2802897,1480654058161,,,,,,,,-0.04,0.06,1.0,-3.1,0.2,0.0,720,0,,,,,,,,,,,,,,,,,,,
2802917,1480654058181,,,,,,,,-0.04,0.07,0.99,-3.1,0.1,0.1,720,0,,,,,,,,,,,,,,,,,,,
2802937,1480654058201,,,,,,,,-0.04,0.06,1.0,-3.1,0.1,0.0,740,0,,,,,,,,,,,,,,,,,,,
2802957,1480654058221,,,,,,,,-0.05,0.07,1.0,-3.1,0.1,0.0,740,0,,,,,,,,,,,,,,,,,,,
2802977,1480654058241,0,85.3,,154.3,51,142.6,,-0.05,0.07,1.0,-3.1,0.1,0.0,740,0,0,0,0.0,0,37.478367,-122.203728,0.0,0.0,13.5,8,3,1.9,0,0.0,-1,0.0,0.0,0.0,0
2802997,1480654058261,,,,,,,,-0.05,0.07,1.0,-3.1,0.0,0.1,740,0,,,,,,,,,,,,,,,,,,,
2803017,1480654058281,,,,,,,,-0.05,0.06,1.0,-3.1,0.1,0.1,760,0,,,,,,,,,,,,,,,,,,,
2803037,1480654058301,,,,,,,,-0.05,0.06,1.0,-3.1,0.1,0.0,760,0,,,,,,,,,,,,,,,,,,,
2803057,1480654058321,,,,,,,,-0.05,0.07,1.0,-3.1,0.1,0.0,760,0,,,,,,,,,,,,,,,,,,,
2803077,1480654058341,,,,,56,,,-0.04,0.07,1.0,-3.1,0.0,0.1,760,0,1,1,0.0,0,37.478367,-122.203728,0.0,0.0,13.5,8,3,1.9,0,0.0,-1,0.0,,0.0,0
2803097,1480654058361,,,,,,,,-0.05,0.06,1.01,-3.1,0.1,0.1,760,0,,,,,,,,,,,,,,,,,,,
2803117,1480654058381,,,,,,,,-0.05,0.06,1.01,-3.1,0.0,0.0,760,0,,,,,,,,,,,,,,,,,,,
2803137,1480654058401,,,,,,,,-0.05,0.06,1.0,-3.1,-0.0,0.1,760,0,,,,,,,,,,,,,,,,,,,
2803157,1480654058421,,,,,,,,-0.04,0.06,1.01,-3.1,0.1,0.1,740,0,,,,,,,,,,,,,,,,,,,
2803177,1480654058441,0,84.0,,154.2,56,141.7,,-0.05,0.06,1.01,-3.1,0.1,0.1,760,0,0,0,0.0,0,37.478367,-122.203728,0.0,0.0,13.5,8,3,1.9,0,0.0,-1,0.0,0.0,0.0,0
2803197,1480654058461,,,,,,,,-0.05,0.06,1.01,-3.1,0.1,0.0,760,0,,,,,,,,,,,,,,,,,,,
2803217,1480654058481,,,,,,,,-0.05,0.06,1.0,-3.1,0.2,0.0,760,0,,,,,,,,,,,,,,,,,,,
2803237,1480654058501,,,,,,,,-0.05,0.06,1.0,-3.1,0.2,0.1,760,0,,,,,,,,,,,,,,,,,,,
2803257,1480654058521,,,,,,,,-0.04,0.06,1.0,-3.1,0.1,0.1,760,0,,,,,,,,,,,,,,,,,,,
2803277,1480654058541,,,,,56,,,-0.05,0.06,1.0,-3.1,0.0,0.1,760,0,1,1,0.0,0,37.478367,-122.203728,0.0,0.0,13.5,8,3,1.9,0,0.0,-1,0.0,,0.0,0
2803297,1480654058561,,,,,,,,-0.05,0.06,1.0,-3.1,0.1,0.1,760,0,,,,,,,,,,,,,,,,,,,
2803317,1480654058581,,,,,,,,-0.05,0.06,1.0,-3.1,-0.0,0.1,760,0,,,,,,,,,,,,,,,,,,,
2803337,1480654058700,,,,,,,,-0.04,0.06,0.99,-3.1,-0.1,0.1,740,0,,,,,,,,,,,,,,,,,,,
2803357,1480654058720,,,,,,,,-0.04,0.06,0.99,-3.1,-0.1,0.1,740,0,,,,,,,,,,,,,,,,,,,
2803377,1480654058740,0,84.0,,154.5,55,141.6,,-0.05,0.07,0.99,-3.1,0.1,0.1,740,0,1,1,0.0,0,37.478367,-122.203728,0.0,0.0,13.5,8,3,1.9,0,0.0,-1,0.0,0.0,0.0,0
2803397,1480654058760,,,,,,,,-0.05,0.07,1.0,-3.1,0.0,0.1,760,0,,,,,,,,,,,,,,,,,,,
2803417,1480654058780,,,,,,,,-0.05,0.07,1.0,-3.1,0.0,0.1,760,0,,,,,,,,,,,,,,,,,,,
2803437,1480654058800,,,,,,,,-0.05,0.07,1.0,-3.1,0.1,0.1,760,0,,,,,,,,,,,,,,,,,,,
2803457,1480654058820,,,,,,,,-0.05,0.07,1.0,-3.1,0.1,0.1,760,0,,,,,,,,,,,,,,,,,,,
2803477,1480654058840,,,,,57,,,-0.04,0.07,1.0,-3.1,0.1,0.1,760,0,0,0,0.0,0,37.478367,-122.203728,0.0,0.0,13.5,8,3,1.9,0,0.0,-1,0.0,,0.0,0
2803497,1480654058860,,,,,,,,-0.04,0.07,0.99,-3.1,0.3,0.1,760,0,,,,,,,,,,,,,,,,,,,
2803517,1480654058880,,,,,,,,-0.04,0.07,1.0,-3.1,0.2,0.1,780,0,,,,,,,,,,,,,,,,,,,
2803537,1480654058801,,,,,,,,-0.05,0.06,1.0,-3.1,0.2,0.1,780,0,,,,,,,,,,,,,,,,,,,
2803557,1480654058821,,,,,,,,-0.05,0.06,1.0,-3.1,0.2,0.0,780,0,,,,,,,,,,,,,,,,,,,
2803577,1480654058841,0,86.2,2.4,155.1,57,142.8,14.68,-0.05,0.06,1.0,-3.1,0.2,0.0,780,0,1,1,0.0,0,37.478367,-122.203728,0.0,0.0,13.5,8,3,1.9,0,0.0,-1,0.0,0.0,0.0,0
2803597,1480654058861,,,,,,,,-0.04,0.07,1.0,-3.1,0.1,0.1,760,0,,,,,,,,,,,,,,,,,,,
2803617,1480654058881,,,,,,,,-0.05,0.07,1.0,-3.1,0.1,0.1,760,0,,,,,,,,,,,,,,,,,,,
2803637,1480654058895,,,,,,,,-0.05,0.06,1.0,-3.1,0.2,0.1,760,0,,,,,,,,,,,,,,,,,,,
2803657,1480654058915,,,,,,,,-0.05,0.07,1.0,-3.1,0.2,0.1,760,0,,,,,,,,,,,,,,,,,,,
2803677,1480654058935,,,,,56,,,-0.04,0.07,1.01,-3.1,0.2,0.1,760,0,1,1,0.0,0,37.478367,-122.203728,0.0,0.0,13.5,8,3,1.9,0,0.0,-1,0.0,,0.0,0
2803697,1480654058955,,,,,,,,-0.05,0.07,1.01,-3.1,0.2,0.1,760,0,,,,,,,,,,,,,,,,,,,
2803717,1480654058975,,,,,,,,-0.05,0.06,1.01,-3.1,0.2,0.1,780,0,,,,,,,,,,,,,,,,,,,
2803737,1480654059001,,,,,,,,-0.05,0.06,1.01,-3.1,0.3,0.1,780,0,,,,,,,,,,,,,,,,,,,
2803757,1480654059021,,,,,,,,-0.05,0.06,1.01,-3.1,0.2,0.1,760,0,,,,,,,,,,,,,,,,,,,
2803777,1480654059041,0,83.9,,154.4,55,141.6,,-0.05,0.07,1.0,-3.1,0.2,0.1,760,0,0,0,0.0,0,37.478367,-122.203728,0.0,0.0,13.5,8,3,1.9,0,0.0,-1,0.0,0.0,0.0,0
2803797,1480654059061,,,,,,,,-0.05,0.07,1.0,-3.1,0.3,0.1,780,0,,,,,,,,,,,,,,,,,,,
2803817,1480654059081,,,,,,,,-0.05,0.06,1.0,-3.1,0.2,0.1,780,0,,,,,,,,,,,,,,,,,,,
2803837,1480654059102,,,,,,,,-0.05,0.07,1.0,-3.1,0.2,0.0,780,0,,,,,,,,,,,,,,,,,,,
2803857,1480654059122,,,,,,,,-0.04,0.07,1.0,-3.1,0.3,0.1,780,0,,,,,,,,,,,,,,,,,,,
2803877,1480654059142,,,,,57,,,-0.05,0.07,1.0,-3.1,0.2,0.1,780,0,1,1,0.0,0,37.478367,-122.203728,0.0,0.0,13.5,8,3,1.9,0,0.0,-1,0.0,,0.0,0
2803897,1480654059162,,,,,,,,-0.05,0.07,1.0,-3.1,0.2,0.0,760,0,,,,,,,,,,,,,,,,,,,
2803917,1480654059182,,,,,,,,-0.05,0.07,1.0,-3.1,0.2,0.0,760,0,,,,,,,,,,,,,,,,,,,
2803937,1480654059198,,,,,,,,-0.05,0.07,1.0,-3.1,0.2,0.0,760,0,,,,,,,,,,,,,,,,,,,
2803957,1480654059218,,,,,,,,-0.04,0.07,1.0,-3.1,0.1,0.1,760,0,,,,,,,,,,,,,,,,,,,
2803977,1480654059238,0,86.0,,155.5,55,142.8,,-0.05,0.07,1.0,-3.1,0.2,0.0,760,0,0,0,0.0,0,37.478367,-122.203728,0.0,0.0,13.5,8,3,1.9,0,0.0,-1,0.0,0.0,0.0,0
2803997,1480654059258,,,,,,,,-0.05,0.07,1.0,-3.1,0.3,0.0,760,0,,,,,,,,,,,,,,,,,,,
2804017,1480654059278,,,,,,,,-0.05,0.07,1.0,-3.1,0.3,0.1,780,0,,,,,,,,,,,,,,,,,,,
2804037,1480654059301,,,,,,,,-0.05,0.07,1.0,-3.1,0.4,0.1,760,0,,,,,,,,,,,,,,,,,,,
2804057,1480654059321,,,,,,,,-0.05,0.07,1.01,-3.1,0.3,0.1,760,0,,,,,,,,,,,,,,,,,,,
2804077,1480654059341,,,,,56,,,-0.05,0.07,1.01,-3.1,0.3,0.1,760,0,1,1,0.0,0,37.478367,-122.203728,0.0,0.0,13.5,8,3,1.9,0,0.0,-1,0.0,,0.0,0
2804097,1480654059361,,,,,,,,-0.05,0.07,1.01,-3.1,0.3,0.1,760,0,,,,,,,,,,,,,,,,,,,
2804117,1480654059381,,,,,,,,-0.05,0.07,1.01,-3.1,0.2,0.1,760,0,,,,,,,,,,,,,,,,,,,
2804137,1480654059501,,,,,,,,-0.05,0.07,1.0,-3.1,0.2,0.1,760,0,,,,,,,,,,,,,,,,,,,
2804157,1480654059521,,,,,,,,-0.05,0.07,1.0,-3.1,0.2,0.0,760,0,,,,,,,,,,,,,,,,,,,
2804177,1480654059541,0,84.3,,154.8,56,141.9,,-0.05,0.07,1.0,-3.1,0.2,0.0,760,0,0,0,0.0,0,37.478367,-122.203728,0.0,0.0,13.5,8,3,1.9,0,0.0,-1,0.0,0.0,0.0,0
2804197,1480654059561,,,,,,,,-0.05,0.07,1.0,-3.1,0.2,0.0,780,0,,,,,,,,,,,,,,,,,,,
2804217,1480654059581,,,,,,,,-0.05,0.07,1.0,-3.1,0.3,0.0,780,0,,,,,,,,,,,,,,,,,,,
2804237,1480654059601,,,,,,,,-0.05,0.07,1.0,-3.1,0.3,0.0,780,0,,,,,,,,,,,,,,,,,,,
2804257,1480654059621,,,,,,,,-0.05,0.07,1.0,-3.1,0.2,0.0,760,0,,,,,,,,,,,,,,,,,,,
2804277,1480654059641,,,,,57,,,-0.05,0.08,1.01,-3.1,0.2,0.0,760,0,1,1,0.0,0,37.478367,-122.203728,0.0,0.0,13.5,8,3,1.9,0,0.0,-1,0.0,,0.0,0
2804297,1480654059661,,,,,,,,-0.05,0.07,1.0,-3.1,0.2,0.0,760,0,,,,,,,,,,,,,,,,,,,
2804317,1480654059681,,,,,,,,-0.05,0.08,1.0,-3.1,0.1,0.0,760,0,,,,,,,,,,,,,,,,,,,
2804337,1480654059601,,,,,,,,-0.05,0.08,1.0,-3.1,0.1,0.0,760,0,,,,,,,,,,,,,,,,,,,
2804357,1480654059621,,,,,,,,-0.05,0.08,1.0,-3.1,0.2,0.0,760,0,,,,,,,,,,,,,,,,,,,
2804377,1480654059641,0,84.7,,155.1,57,141.9,,-0.05,0.07,1.0,-3.1,0.1,0.0,760,0,0,0,0.0,0,37.478367,-122.203728,0.0,0.0,13.5,8,3,1.9,0,0.0,-1,0.0,0.0,0.0,0
2804397,1480654059661,,,,,,,,-0.04,0.08,1.0,-3.1,0.2,0.0,760,0,,,,,,,,,,,,,,,,,,,
2804417,1480654059681,,,,,,,,-0.05,0.07,1.0,-3.1,0.3,0.0,760,0,,,,,,,,,,,,,,,,,,,
2804437,1480654059701,,,,,,,,-0.05,0.07,1.0,-3.1,0.2,0.0,760,0,,,,,,,,,,,,,,,,,,,
2804457,1480654059721,,,,,,,,-0.05,0.07,1.0,-3.1,0.2,0.0,760,0,,,,,,,,,,,,,,,,,,,
2804477,1480654059741,,,,,55,,,-0.04,0.07,1.0,-3.1,0.3,0.0,760,0,1,1,0.0,0,37.478367,-122.203728,0.0,0.0,13.5,8,3,1.9,0,0.0,-1,0.0,,0.0,0
2804497,1480654059761,,,,,,,,-0.04,0.07,1.0,-3.1,0.2,0.1,740,0,,,,,,,,,,,,,,,,,,,
2804517,1480654059781,,,,,,,,-0.05,0.07,1.0,-3.1,0.2,0.1,760,0,,,,,,,,,,,,,,,,,,,
2804537,1480654059801,,,,,,,,-0.04,0.07,1.0,-3.1,0.2,0.1,760,0,,,,,,,,,,,,,,,,,,,
2804557,1480654059821,,,,,,,,-0.04,0.07,1.0,-3.1,0.2,0.0,740,0,,,,,,,,,,,,,,,,,,,
2804577,1480654059841,0,84.7,1.6,155.4,57,142.3,14.89,-0.04,0.07,1.0,-3.1,0.1,0.1,760,0,0,0,0.0,0,37.478367,-122.203728,0.0,0.0,13.5,8,3,1.9,0,0.0,-1,0.0,0.0,0.0,0
2804597,1480654059861,,,,,,,,-0.05,0.07,0.99,-3.1,0.1,0.1,760,0,,,,,,,,,,,,,,,,,,,
2804617,1480654059881,,,,,,,,-0.04,0.06,0.99,-3.1,0.2,0.1,760,0,,,,,,,,,,,,,,,,,,,
2804637,1480654059894,,,,,,,,-0.05,0.07,0.99,-3.1,0.1,0.1,780,0,,,,,,,,,,,,,,,,,,,
2804657,1480654059914,,,,,,,,-0.04,0.07,0.99,-3.1,0.2,0.1,760,0,,,,,,,,,,,,,,,,,,,
2804677,1480654059934,,,,,52,,,-0.05,0.07,1.0,-3.1,0.2,0.1,760,0,1,1,0.0,0,37.478367,-122.203728,0.0,0.0,13.5,8,3,1.9,0,0.0,-1,0.0,,0.0,0
2804697,1480654059954,,,,,,,,-0.05,0.07,1.0,-3.1,0.2,0.1,760,0,,,,,,,,,,,,,,,,,,,
2804717,1480654059974,,,,,,,,-0.04,0.07,1.0,-3.1,0.2,0.0,760,0,,,,,,,,,,,,,,,,,,,
2804737,1480654060002,,,,,,,,-0.04,0.07,1.0,-3.1,0.3,0.0,740,0,,,,,,,,,,,,,,,,,,,
2804757,1480654060022,,,,,,,,-0.04,0.07,1.01,-3.1,0.3,0.0,740,0,,,,,,,,,,,,,,,,,,,
2804777,1480654060042,1,86.8,,155.8,57,142.8,,-0.05,0.06,1.01,-3.1,0.2,0.0,760,0,0,0,0.0,0,37.478367,-122.203728,0.0,0.0,13.5,8,3,1.9,0,0.0,-1,0.0,0.0,0.0,0
2804797,1480654060062,,,,,,,,-0.05,0.06,1.01,-3.1,0.3,0.0,760,0,,,,,,,,,,,,,,,,,,,
2804817,1480654060082,,,,,,,,-0.04,0.07,1.01,-3.1,0.4,0.0,760,0,,,,,,,,,,,,,,,,,,,
2804837,1480654060101,,,,,,,,-0.05,0.07,1.01,-3.1,0.3,0.0,760,0,,,,,,,,,,,,,,,,,,,
2804857,1480654060121,,,,,,,,-0.05,0.07,1.0,-3.1,0.2,0.0,760,0,,,,,,,,,,,,,,,,,,,
2804877,1480654060141,,,,,53,,,-0.05,0.07,1.0,-3.1,0.2,0.0,760,0,1,1,0.0,0,37.478367,-122.203728,0.0,0.0,13.5,8,3,1.9,0,0.0,-1,0.0,,0.0,0
2804897,1480654060161,,,,,,,,-0.05,0.07,1.0,-3.1,0.2,0.0,760,0,,,,,,,,,,,,,,,,,,,
2804917,1480654060181,,,,,,,,-0.05,0.07,1.0,-3.1,0.2,0.0,740,0,,,,,,,,,,,,,,,,,,,
2804937,1480654060301,,,,,,,,-0.05,0.07,1.0,-3.1,0.2,0.0,760,0,,,,,,,,,,,,,,,,,,,
2804957,1480654060321,,,,,,,,-0.05,0.07,1.0,-3.1,0.2,0.0,760,0,,,,,,,,,,,,,,,,,,,
2804977,1480654060341,0,86.5,,155.4,58,142.6,,-0.05,0.07,1.0,-3.1,0.2,0.0,760,0,0,0,0.0,0,37.478367,-122.203728,0.0,0.0,13.5,8,3,1.9,0,0.0,-1,0.0,0.0,0.0,0
2804997,1480654060361,,,,,,,,-0.05,0.08,1.0,-3.1,0.2,0.1,760,0,,,,,,,,,,,,,,,,,,,
2805017,1480654060381,,,,,,,,-0.05,0.07,1.0,-3.1,0.3,0.0,760,0,,,,,,,,,,,,,,,,,,,
2805037,1480654060401,,,,,,,,-0.05,0.07,1.0,-3.1,0.2,0.0,780,0,,,,,,,,,,,,,,,,,,,
2805057,1480654060421,,,,,,,,-0.05,0.07,1.0,-3.1,0.3,-0.0,780,0,,,,,,,,,,,,,,,,,,,
2805077,1480654060441,,,,,56,,,-0.05,0.07,1.0,-3.1,0.2,0.0,760,0,1,1,0.0,0,37.478367,-122.203728,0.0,0.0,13.5,8,3,1.9,0,0.0,-1,0.0,,0.0,0
2805097,1480654060461,,,,,,,,-0.05,0.07,1.0,-3.1,0.2,0.0,760,0,,,,,,,,,,,,,,,,,,,
2805117,1480654060481,,,,,,,,-0.05,0.08,1.0,-3.1,0.2,0.0,760,0,,,,,,,,,,,,,,,,,,,
2805137,1480654060402,,,,,,,,-0.05,0.08,1.0,-3.1,0.2,-0.0,760,0,,,,,,,,,,,,,,,,,,,
2805157,1480654060422,,,,,,,,-0.05,0.08,1.0,-3.1,0.2,0.0,760,0,,,,,,,,,,,,,,,,,,,
2805177,1480654060442,0,85.9,,156.0,56,142.8,,-0.05,0.08,1.0,-3.1,0.2,0.0,760,0,0,0,0.0,0,37.478367,-122.203728,0.0,0.0,13.5,8,3,1.9,0,0.0,-1,0.0,0.0,0.0,0
2805197,1480654060462,,,,,,,,-0.05,0.08,1.0,-3.1,0.3,0.0,760,0,,,,,,,,,,,,,,,,,,,
2805217,1480654060482,,,,,,,,-0.05,0.08,1.0,-3.1,0.2,0.0,760,0,,,,,,,,,,,,,,,,,,,
2805237,1480654060502,,,,,,,,-0.05,0.07,1.0,-3.1,0.2,0.0,760,0,,,,,,,,,,,,,,,,,,,
2805257,1480654060522,,,,,,,,-0.05,0.08,1.0,-3.1,0.3,0.1,760,0,,,,,,,,,,,,,,,,,,,
2805277,1480654060542,,,,,57,,,-0.05,0.08,1.0,-3.1,0.2,0.1,780,0,1,1,0.0,0,37.478367,-122.203728,0.0,0.0,13.5,8,3,1.9,0,0.0,-1,0.0,,0.0,0
2805297,1480654060562,,,,,,,,-0.05,0.07,1.0,-3.1,0.2,0.1,760,0,,,,,,,,,,,,,,,,,,,
2805317,1480654060582,,,,,,,,-0.05,0.07,1.0,-3.1,0.2,0.0,760,0,,,,,,,,,,,,,,,,,,,
2805337,1480654060601,,,,,,,,-0.05,0.07,1.0,-3.1,0.2,0.0,760,0,,,,,,,,,,,,,,,,,,,
2805357,1480654060621,,,,,,,,-0.05,0.07,1.0,-3.1,0.1,0.1,760,0,,,,,,,,,,,,,,,,,,,
2805377,1480654060641,0,84.6,,155.3,56,142.0,,-0.05,0.07,1.0,-3.2,0.2,0.1,760,0,0,0,0.0,0,37.478367,-122.203728,0.0,0.0,13.5,8,3,1.9,0,0.0,-1,0.0,0.0,0.0,0
2805397,1480654060661,,,,,,,,-0.05,0.07,1.0,-3.1,0.2,0.1,760,0,,,,,,,,,,,,,,,,,,,
2805417,1480654060681,,,,,,,,-0.04,0.07,0.99,-3.1,0.2,0.1,780,0,,,,,,,,,,,,,,,,,,,
2805437,1480654060702,,,,,,,,-0.04,0.07,0.99,-3.1,0.2,0.1,780,0,,,,,,,,,,,,,,,,,,,
2805457,1480654060722,,,,,,,,-0.05,0.07,1.0,-3.1,0.2,0.1,780,0,,,,,,,,,,,,,,,,,,,
2805477,1480654060742,,,,,56,,,-0.05,0.06,1.0,-3.1,0.2,0.1,760,0,1,1,0.0,0,37.478367,-122.203728,0.0,0.0,13.5,8,3,1.9,0,0.0,-1,0.0,,0.0,0
2805497,1480654060762,,,,,,,,-0.05,0.06,1.0,-3.1,0.3,0.0,760,0,,,,,,,,,,,,,,,,,,,
2805517,1480654060782,,,,,,,,-0.05,0.06,1.0,-3.1,0.3,0.0,760,0,,,,,,,,,,,,,,,,,,,
2805537,1480654060801,,,,,,,,-0.05,0.07,1.0,-3.1,0.2,0.1,760,0,,,,,,,,,,,,,,,,,,,
2805557,1480654060821,,,,,,,,-0.05,0.06,0.99,-3.1,0.2,0.1,760,0,,,,,,,,,,,,,,,,,,,
2805577,1480654060841,0,85.0,1.4,155.5,57,142.3,14.94,-0.05,0.07,1.0,-3.1,0.2,0.0,760,0,1,1,0.0,0,37.478367,-122.203728,0.0,0.0,13.5,8,3,1.9,0,0.0,-1,0.0,0.0,0.0,0
2805597,1480654060861,,,,,,,,-0.05,0.07,0.99,-3.1,0.1,0.0,760,0,,,,,,,,,,,,,,,,,,,
2805617,1480654060881,,,,,,,,-0.04,0.07,1.0,-3.1,0.2,0.1,780,0,,,,,,,,,,,,,,,,,,,
2805637,1480654060895,,,,,,,,-0.04,0.07,1.0,-3.1,0.2,0.1,780,0,,,,,,,,,,,,,,,,,,,
2805657,1480654060915,,,,,,,,-0.05,0.06,1.0,-3.1,0.2,0.1,780,0,,,,,,,,,,,,,,,,,,,
2805677,1480654060935,,,,,57,,,-0.05,0.06,1.0,-3.1,0.2,0.1,780,0,0,0,0.0,0,37.478367,-122.203728,0.0,0.0,13.5,8,3,1.9,0,0.0,-1,0.0,,0.0,0
2805697,1480654060955,,,,,,,,-0.05,0.07,1.0,-3.1,0.3,0.1,780,0,,,,,,,,,,,,,,,,,,,
2805717,1480654060975,,,,,,,,-0.04,0.07,1.0,-3.1,0.2,0.1,780,0,,,,,,,,,,,,,,,,,,,
2805737,1480654061101,,,,,,,,-0.05,0.07,1.0,-3.1,0.2,0.1,800,0,,,,,,,,,,,,,,,,,,,
2805757,1480654061121,,,,,,,,-0.05,0.07,1.01,-3.1,0.2,0.1,780,0,,,,,,,,,,,,,,,,,,,
2805777,1480654061141,0,86.6,,156.1,58,142.8,,-0.05,0.07,1.01,-3.1,0.2,0.1,780,0,1,1,0.0,0,37.478367,-122.203728,0.0,0.0,13.5,8,3,1.9,0,0.0,-1,0.0,0.0,0.0,0
2805797,1480654061161,,,,,,,,-0.05,0.07,1.0,-3.1,0.2,0.1,780,0,,,,,,,,,,,,,,,,,,,
2805817,1480654061181,,,,,,,,-0.05,0.07,1.0,-3.1,0.1,0.1,760,0,,,,,,,,,,,,,,,,,,,
2805837,1480654061201,,,,,,,,-0.05,0.07,1.0,-3.1,0.1,0.0,760,0,,,,,,,,,,,,,,,,,,,
2805857,1480654061221,,,,,,,,-0.05,0.07,1.0,-3.1,0.2,0.0,760,0,,,,,,,,,,,,,,,,,,,
2805877,1480654061241,,,,,58,,,-0.05,0.07,1.0,-3.1,0.2,0.0,780,0,0,0,0.0,0,37.478367,-122.203728,0.0,0.0,13.5,8,3,1.9,0,0.0,-1,0.0,,0.0,0
2805897,1480654061261,,,,,,,,-0.05,0.07,1.0,-3.1,0.2,0.0,780,0,,,,,,,,,,,,,,,,,,,
2805917,1480654061281,,,,,,,,-0.05,0.07,1.01,-3.1,0.3,0.0,780,0,,,,,,,,,,,,,,,,,,,
2805937,1480654061201,,,,,,,,-0.05,0.07,1.01,-3.1,0.2,0.0,780,0,,,,,,,,,,,,,,,,,,,
2805957,1480654061221,,,,,,,,-0.05,0.07,1.0,-3.1,0.2,0.0,780,0,,,,,,,,,,,,,,,,,,,
2805977,1480654061241,0,84.3,,155.4,53,142.7,,-0.05,0.07,1.01,-3.1,0.2,0.0,780,0,1,1,0.0,0,37.478367,-122.203728,0.0,0.0,13.5,8,3,1.9,0,0.0,-1,0.0,0.0,0.0,0
2805997,1480654061261,,,,,,,,-0.05,0.07,1.0,-3.1,0.2,0.1,760,0,,,,,,,,,,,,,,,,,,,
2806017,1480654061281,,,,,,,,-0.05,0.07,1.0,-3.1,0.2,0.0,760,0,,,,,,,,,,,,,,,,,,,
2806037,1480654061301,,,,,,,,-0.05,0.07,1.0,-3.1,0.2,0.0,760,0,,,,,,,,,,,,,,,,,,,
2806057,1480654061321,,,,,,,,-0.05,0.07,1.0,-3.1,0.2,0.0,760,0,,,,,,,,,,,,,,,,,,,
2806077,1480654061341,,,,,56,,,-0.04,0.07,1.0,-3.1,0.3,0.0,760,0,0,0,0.0,0,37.478367,-122.203728,0.0,0.0,13.5,8,3,1.9,0,0.0,-1,0.0,,0.0,0
2806097,1480654061361,,,,,,,,-0.05,0.07,1.0,-3.2,0.3,0.0,760,0,,,,,,,,,,,,,,,,,,,
2806117,1480654061381,,,,,,,,-0.05,0.06,1.01,-3.1,0.3,0.0,760,0,,,,,,,,,,,,,,,,,,,
2806137,1480654061401,,,,,,,,-0.05,0.07,1.01,-3.1,0.3,0.0,760,0,,,,,,,,,,,,,,,,,,,
2806157,1480654061421,,,,,,,,-0.04,0.07,1.0,-3.1,0.3,0.0,760,0,,,,,,,,,,,,,,,,,,,
2806177,1480654061441,0,84.3,,155.4,52,142.4,,-0.05,0.07,1.0,-3.1,0.1,0.1,760,0,1,1,0.0,0,37.478367,-122.203728,0.0,0.0,13.5,8,3,1.9,0,0.0,-1,0.0,0.0,0.0,0
2806197,1480654061461,,,,,,,,-0.05,0.07,1.0,-3.1,0.1,0.0,760,0,,,,,,,,,,,,,,,,,,,
2806217,1480654061481,,,,,,,,-0.05,0.07,1.0,-3.1,0.2,0.0,760,0,,,,,,,,,,,,,,,,,,,
2806237,1480654061502,,,,,,,,-0.05,0.07,1.0,-3.1,0.2,0.0,760,0,,,,,,,,,,,,,,,,,,,
2806257,1480654061522,,,,,,,,-0.05,0.07,1.0,-3.1,0.1,0.1,760,0,,,,,,,,,,,,,,,,,,,
2806277,1480654061542,,,,,57,,,-0.05,0.07,1.0,-3.1,0.2,0.0,760,0,0,0,0.0,0,37.478367,-122.203728,0.0,0.0,13.5,8,3,1.9,0,0.0,-1,0.0,,0.0,0
2806297,1480654061562,,,,,,,,-0.05,0.07,1.0,-3.1,0.2,0.0,760,0,,,,,,,,,,,,,,,,,,,
2806317,1480654061582,,,,,,,,-0.05,0.07,1.0,-3.2,0.2,0.1,760,0,,,,,,,,,,,,,,,,,,,
2806337,1480654061601,,,,,,,,-0.05,0.07,1.0,-3.1,0.3,0.1,760,0,,,,,,,,,,,,,,,,,,,
2806357,1480654061621,,,,,,,,-0.05,0.08,1.0,-3.1,0.2,0.1,780,0,,,,,,,,,,,,,,,,,,,
2806377,1480654061641,0,84.4,,155.5,56,142.7,,-0.05,0.07,1.01,-3.1,0.2,0.1,760,0,1,1,0.0,0,37.478367,-122.203728,0.0,0.0,13.5,8,3,1.9,0,0.0,-1,0.0,0.0,0.0,0
2806397,1480654061661,,,,,,,,-0.05,0.07,1.0,-3.1,0.2,0.0,760,0,,,,,,,,,,,,,,,,,,,
2806417,1480654061681,,,,,,,,-0.05,0.07,1.0,-3.1,0.2,0.1,760,0,,,,,,,,,,,,,,,,,,,
2806437,1480654061701,,,,,,,,-0.05,0.07,1.0,-3.1,0.1,0.1,760,0,,,,,,,,,,,,,,,,,,,
2806457,1480654061721,,,,,,,,-0.05,0.07,1.0,-3.1,0.1,0.0,760,0,,,,,,,,,,,,,,,,,,,
2806477,1480654061741,,,,,57,,,-0.05,0.07,1.0,-3.1,0.2,0.0,760,0,0,0,0.0,0,37.478367,-122.203728,0.0,0.0,13.5,8,3,1.9,0,0.0,-1,0.0,,0.0,0
2806497,1480654061761,,,,,,,,-0.05,0.07,1.0,-3.1,0.1,0.0,760,0,,,,,,,,,,,,,,,,,,,
2806517,1480654061781,,,,,,,,-0.05,0.07,1.0,-3.1,0.2,0.0,760,0,,,,,,,,,,,,,,,,,,,
2806537,1480654061901,,,,,,,,-0.05,0.07,1.01,-3.1,0.2,0.0,760,0,,,,,,,,,,,,,,,,,,,
2806557,1480654061921,,,,,,,,-0.05,0.07,1.01,-3.1,0.2,-0.0,760,0,,,,,,,,,,,,,,,,,,,
2806577,1480654061941,0,86.9,1.8,156.4,58,141.7,15.09,-0.05,0.07,1.0,-3.1,0.2,-0.0,760,0,1,1,0.0,0,37.478367,-122.203728,0.0,0.0,13.5,8,3,1.9,0,0.0,-1,0.0,0.0,0.0,0
2806597,1480654061961,,,,,,,,-0.04,0.07,1.0,-3.1,0.3,0.0,760,0,,,,,,,,,,,,,,,,,,,
2806617,1480654061981,,,,,,,,-0.04,0.07,1.0,-3.1,0.3,0.0,740,0,,,,,,,,,,,,,,,,,,,
2806637,1480654062001,,,,,,,,-0.05,0.06,1.0,-3.1,0.2,-0.0,760,0,,,,,,,,,,,,,,,,,,,
2806657,1480654062021,,,,,,,,-0.05,0.07,1.0,-3.1,0.3,-0.0,760,0,,,,,,,,,,,,,,,,,,,
2806677,1480654062041,,,,,58,,,-0.05,0.06,1.0,-3.1,0.3,-0.0,760,0,0,0,0.0,0,37.478367,-122.203728,0.0,0.0,13.5,8,3,1.9,0,0.0,-1,0.0,,0.0,0
2806697,1480654062061,,,,,,,,-0.05,0.07,1.0,-3.1,0.2,-0.0,760,0,,,,,,,,,,,,,,,,,,,
2806717,1480654062081,,,,,,,,-0.05,0.07,1.0,-3.1,0.2,-0.0,760,0,,,,,,,,,,,,,,,,,,,
2806737,1480654062001,,,,,,,,-0.05,0.06,1.0,-3.1,0.2,-0.0,760,0,,,,,,,,,,,,,,,,,,,
2806757,1480654062021,,,,,,,,-0.05,0.07,1.0,-3.1,0.1,-0.0,760,0,,,,,,,,,,,,,,,,,,,
2806777,1480654062041,0,84.6,,155.8,54,142.8,,-0.05,0.07,1.0,-3.1,0.2,0.0,760,0,1,1,0.0,0,37.478367,-122.203728,0.0,0.0,13.5,8,3,1.9,0,0.0,-1,0.0,0.0,0.0,0
2806797,1480654062061,,,,,,,,-0.05,0.06,1.01,-3.1,0.3,0.0,760,0,,,,,,,,,,,,,,,,,,,
2806817,1480654062081,,,,,,,,-0.05,0.06,1.0,-3.1,0.3,-0.0,760,0,,,,,,,,,,,,,,,,,,,
2806837,1480654062102,,,,,,,,-0.04,0.06,1.0,-3.1,0.3,-0.0,760,0,,,,,,,,,,,,,,,,,,,
2806857,1480654062122,,,,,,,,-0.04,0.06,1.0,-3.1,0.3,0.0,760,0,,,,,,,,,,,,,,,,,,,
2806877,1480654062142,,,,,58,,,-0.04,0.06,1.0,-3.1,0.2,0.0,760,0,0,0,0.0,0,37.478367,-122.203728,0.0,0.0,13.5,8,3,1.9,0,0.0,-1,0.0,,0.0,0
2806897,1480654062162,,,,,,,,-0.05,0.06,1.0,-3.1,0.2,0.0,760,0,,,,,,,,,,,,,,,,,,,
2806917,1480654062182,,,,,,,,-0.05,0.06,1.0,-3.1,0.3,0.0,760,0,,,,,,,,,,,,,,,,,,,
2806937,1480654062202,,,,,,,,-0.05,0.06,1.0,-3.1,0.3,0.0,760,0,,,,,,,,,,,,,,,,,,,
2806957,1480654062222,,,,,,,,-0.04,0.06,1.0,-3.1,0.2,0.0,780,0,,,,,,,,,,,,,,,,,,,
2806977,1480654062242,0,85.9,,155.6,55,141.7,,-0.05,0.06,1.0,-3.1,0.2,0.0,780,0,1,1,0.0,0,37.478367,-122.203728,0.0,0.0,13.5,8,3,1.9,0,0.0,-1,0.0,0.0,0.0,0
2806997,1480654062262,,,,,,,,-0.05,0.06,1.0,-3.1,0.2,0.0,780,0,,,,,,,,,,,,,,,,,,,
2807017,1480654062282,,,,,,,,-0.05,0.07,1.0,-3.1,0.2,0.0,760,0,,,,,,,,,,,,,,,,,,,
2807037,1480654062301,,,,,,,,-0.04,0.07,1.0,-3.1,0.2,0.0,760,0,,,,,,,,,,,,,,,,,,,
2807057,1480654062321,,,,,,,,-0.05,0.06,1.0,-3.1,0.3,0.0,760,0,,,,,,,,,,,,,,,,,,,
2807077,1480654062341,,,,,54,,,-0.05,0.06,1.0,-3.1,0.3,0.0,760,0,0,0,0.0,0,37.478367,-122.203728,0.0,0.0,13.5,8,3,1.9,0,0.0,-1,0.0,,0.0,0
2807097,1480654062361,,,,,,,,-0.04,0.06,1.0,-3.1,0.2,0.0,760,0,,,,,,,,,,,,,,,,,,,
2807117,1480654062381,,,,,,,,-0.04,0.06,1.0,-3.2,0.3,0.0,760,0,,,,,,,,,,,,,,,,,,,
2807137,1480654062401,,,,,,,,-0.04,0.06,1.0,-3.1,0.2,0.0,780,0,,,,,,,,,,,,,,,,,,,
2807157,1480654062421,,,,,,,,-0.05,0.06,0.99,-3.1,0.2,0.0,760,0,,,,,,,,,,,,,,,,,,,
2807177,1480654062441,0,87.1,,156.9,57,142.9,,-0.05,0.07,1.0,-3.1,0.2,0.0,760,0,1,1,0.0,0,37.478367,-122.203728,0.0,0.0,13.5,8,3,1.9,0,0.0,-1,0.0,0.0,0.0,0
2807197,1480654062461,,,,,,,,-0.05,0.07,1.0,-3.2,0.2,0.0,760,0,,,,,,,,,,,,,,,,,,,
2807217,1480654062481,,,,,,,,-0.05,0.07,1.0,-3.1,0.2,0.1,760,0,,,,,,,,,,,,,,,,,,,
2807237,1480654062501,,,,,,,,-0.05,0.07,1.0,-3.1,0.2,0.0,740,0,,,,,,,,,,,,,,,,,,,
2807257,1480654062521,,,,,,,,-0.05,0.07,1.0,-3.1,0.3,0.0,740,0,,,,,,,,,,,,,,,,,,,
2807277,1480654062541,,,,,53,,,-0.05,0.07,1.0,-3.1,0.3,0.0,780,0,0,0,0.0,0,37.478367,-122.203728,0.0,0.0,13.5,8,3,1.9,0,0.0,-1,0.0,,0.0,0
2807297,1480654062561,,,,,,,,-0.05,0.07,1.0,-3.1,0.3,0.0,760,0,,,,,,,,,,,,,,,,,,,
2807317,1480654062581,,,,,,,,-0.05,0.07,1.01,-3.1,0.3,0.0,780,0,,,,,,,,,,,,,,,,,,,
2807337,1480654062701,,,,,,,,-0.05,0.07,1.0,-3.1,0.2,0.0,760,0,,,,,,,,,,,,,,,,,,,
2807357,1480654062721,,,,,,,,-0.05,0.07,1.0,-3.1,0.2,0.0,760,0,,,,,,,,,,,,,,,,,,,
2807377,1480654062741,0,87.1,,156.8,56,142.5,,-0.05,0.07,1.0,-3.1,0.2,0.0,760,0,1,1,0.0,0,37.478367,-122.203728,0.0,0.0,13.5,8,3,1.9,0,0.0,-1,0.0,0.0,0.0,0
2807397,1480654062761,,,,,,,,-0.05,0.07,1.0,-3.1,0.2,0.0,760,0,,,,,,,,,,,,,,,,,,,
2807417,1480654062781,,,,,,,,-0.05,0.07,1.0,-3.1,0.2,0.0,760,0,,,,,,,,,,,,,,,,,,,
2807437,1480654062801,,,,,,,,-0.05,0.07,1.0,-3.1,0.3,0.0,760,0,,,,,,,,,,,,,,,,,,,
2807457,1480654062821,,,,,,,,-0.05,0.07,1.0,-3.1,0.2,0.0,760,0,,,,,,,,,,,,,,,,,,,
2807477,1480654062841,,,,,54,,,-0.04,0.07,0.99,-3.1,0.2,0.0,760,0,0,0,0.0,0,37.478367,-122.203728,0.0,0.0,13.5,8,3,1.9,0,0.0,-1,0.0,,0.0,0
2807497,1480654062861,,,,,,,,-0.04,0.07,1.0,-3.1,0.2,0.0,740,0,,,,,,,,,,,,,,,,,,,
2807517,1480654062881,,,,,,,,-0.04,0.06,1.0,-3.1,0.2,0.0,740,0,,,,,,,,,,,,,,,,,,,
2807537,1480654062802,,,,,,,,-0.04,0.07,1.0,-3.1,0.2,0.0,760,0,,,,,,,,,,,,,,,,,,,
2807557,1480654062822,,,,,,,,-0.04,0.07,1.0,-3.1,0.3,0.0,740,0,,,,,,,,,,,,,,,,,,,
2807577,1480654062842,0,86.5,1.7,156.7,55,143.0,15.06,-0.05,0.07,1.01,-3.1,0.3,0.0,760,0,1,1,0.0,0,37.478367,-122.203728,0.0,0.0,13.5,8,3,1.9,0,0.0,-1,0.0,0.0,0.0,0
2807597,1480654062862,,,,,,,,-0.05,0.07,1.01,-3.1,0.3,0.0,760,0,,,,,,,,,,,,,,,,,,,
2807617,1480654062882,,,,,,,,-0.05,0.07,1.0,-3.1,0.3,0.0,760,0,,,,,,,,,,,,,,,,,,,
2807637,1480654062895,,,,,,,,-0.05,0.07,1.0,-3.1,0.4,0.0,740,0,,,,,,,,,,,,,,,,,,,
2807657,1480654062915,,,,,,,,-0.05,0.07,1.0,-3.1,0.4,0.0,740,0,,,,,,,,,,,,,,,,,,,
2807677,1480654062935,,,,,54,,,-0.05,0.07,1.0,-3.1,0.3,0.0,720,0,0,0,0.0,0,37.478367,-122.203728,0.0,0.0,13.5,8,3,1.9,0,0.0,-1,0.0,,0.0,0
2807697,1480654062955,,,,,,,,-0.05,0.06,1.0,-3.1,0.3,-0.0,720,0,,,,,,,,,,,,,,,,,,,
2807717,1480654062975,,,,,,,,-0.05,0.07,1.0,-3.1,0.4,0.0,740,0,,,,,,,,,,,,,,,,,,,
2807737,1480654063001,,,,,,,,-0.05,0.06,1.01,-3.1,0.3,0.0,740,0,,,,,,,,,,,,,,,,,,,
2807757,1480654063021,,,,,,,,-0.06,0.06,1.0,-3.1,0.3,0.0,740,0,,,,,,,,,,,,,,,,,,,
2807777,1480654063041,0,86.0,,156.7,53,143.2,,-0.05,0.07,1.0,-3.1,0.3,0.0,740,0,1,1,0.0,0,37.478367,-122.203728,0.0,0.0,13.5,8,3,1.9,0,0.0,-1,0.0,0.0,0.0,0
2807797,1480654063061,,,,,,,,-0.06,0.07,1.0,-3.1,0.4,-0.0,740,0,,,,,,,,,,,,,,,,,,,
2807817,1480654063081,,,,,,,,-0.05,0.07,1.0,-3.1,0.4,-0.0,720,0,,,,,,,,,,,,,,,,,,,
2807837,1480654063101,,,,,,,,-0.05,0.07,1.0,-3.1,0.4,-0.0,720,0,,,,,,,,,,,,,,,,,,,
2807857,1480654063121,,,,,,,,-0.05,0.06,1.0,-3.1,0.4,0.0,720,0,,,,,,,,,,,,,,,,,,,
2807877,1480654063141,,,,,56,,,-0.05,0.06,1.0,-3.1,0.4,0.0,740,0,0,0,0.0,0,37.478367,-122.203728,0.0,0.0,13.5,8,3,1.9,0,0.0,-1,0.0,,0.0,0
2807897,1480654063161,,,,,,,,-0.05,0.06,1.0,-3.1,0.4,0.0,760,0,,,,,,,,,,,,,,,,,,,
2807917,1480654063181,,,,,,,,-0.05,0.06,1.0,-3.1,0.4,0.0,760,0,,,,,,,,,,,,,,,,,,,
2807937,1480654063201,,,,,,,,-0.05,0.06,1.0,-3.1,0.4,-0.0,760,0,,,,,,,,,,,,,,,,,,,
2807957,1480654063221,,,,,,,,-0.05,0.06,1.0,-3.1,0.5,-0.0,760,0,,,,,,,,,,,,,,,,,,,
2807977,1480654063241,0,86.9,,156.5,55,141.6,,-0.05,0.06,0.99,-3.1,0.4,-0.0,740,0,1,1,0.0,0,37.478367,-122.203728,0.0,0.0,13.5,8,3,1.9,0,0.0,-1,0.0,0.0,0.0,0
2807997,1480654063261,,,,,,,,-0.05,0.06,0.99,-3.1,0.3,-0.0,740,0,,,,,,,,,,,,,,,,,,,
2808017,1480654063281,,,,,,,,-0.05,0.06,0.99,-3.1,0.4,-0.0,740,0,,,,,,,,,,,,,,,,,,,
2808037,1480654063301,,,,,,,,-0.05,0.06,0.99,-3.1,0.4,-0.0,740,0,,,,,,,,,,,,,,,,,,,
2808057,1480654063321,,,,,,,,-0.05,0.06,1.0,-3.1,0.3,-0.0,740,0,,,,,,,,,,,,,,,,,,,
2808077,1480654063341,,,,,56,,,-0.05,0.06,1.0,-3.1,0.3,0.0,760,0,0,0,0.0,0,37.478367,-122.203728,0.0,0.0,13.5,8,3,1.9,0,0.0,-1,0.0,,0.0,0
2808097,1480654063361,,,,,,,,-0.05,0.06,1.0,-3.1,0.3,0.0,760,0,,,,,,,,,,,,,,,,,,,
2808117,1480654063381,,,,,,,,-0.05,0.06,1.0,-3.1,0.4,0.0,760,0,,,,,,,,,,,,,,,,,,,
2808137,1480654063500,,,,,,,,-0.05,0.06,1.0,-3.1,0.3,0.0,740,0,,,,,,,,,,,,,,,,,,,
2808157,1480654063520,,,,,,,,-0.05,0.06,1.0,-3.1,0.2,0.0,740,0,,,,,,,,,,,,,,,,,,,
2808177,1480654063540,0,87.1,,157.0,53,142.0,,-0.05,0.07,1.0,-3.1,0.3,0.0,740,0,1,1,0.0,0,37.478367,-122.203728,0.0,0.0,13.5,8,3,1.9,0,0.0,-1,0.0,0.0,0.0,0
2808197,1480654063560,,,,,,,,-0.05,0.07,1.0,-3.1,0.3,0.0,740,0,,,,,,,,,,,,,,,,,,,
2808217,1480654063580,,,,,,,,-0.05,0.07,0.99,-3.1,0.1,0.1,740,0,,,,,,,,,,,,,,,,,,,
2808237,1480654063600,,,,,,,,-0.05,0.07,0.99,-3.1,0.1,0.0,740,0,,,,,,,,,,,,,,,,,,,
2808257,1480654063620,,,,,,,,-0.05,0.07,0.99,-3.1,0.1,0.0,740,0,,,,,,,,,,,,,,,,,,,
2808277,1480654063640,,,,,54,,,-0.05,0.07,0.99,-3.1,0.1,0.0,760,0,0,0,0.0,0,37.478367,-122.203728,0.0,0.0,13.5,8,3,1.9,0,0.0,-1,0.0,,0.0,0
2808297,1480654063660,,,,,,,,-0.05,0.07,0.99,-3.1,0.1,0.1,740,0,,,,,,,,,,,,,,,,,,,
2808317,1480654063680,,,,,,,,-0.05,0.07,0.99,-3.1,0.1,0.1,760,0,,,,,,,,,,,,,,,,,,,
2808337,1480654063601,,,,,,,,-0.05,0.07,0.99,-3.1,0.1,0.1,760,0,,,,,,,,,,,,,,,,,,,
2808357,1480654063621,,,,,,,,-0.05,0.07,1.0,-3.1,0.1,0.1,760,0,,,,,,,,,,,,,,,,,,,
2808377,1480654063641,0,84.7,,155.9,53,142.5,,-0.05,0.07,1.0,-3.1,0.2,0.1,760,0,1,1,0.0,0,37.478367,-122.203728,0.0,0.0,13.5,8,3,1.9,0,0.0,-1,0.0,0.0,0.0,0
2808397,1480654063661,,,,,,,,-0.05,0.07,1.0,-3.1,0.3,0.1,760,0,,,,,,,,,,,,,,,,,,,
2808417,1480654063681,,,,,,,,-0.05,0.06,1.01,-3.1,0.2,0.1,760,0,,,,,,,,,,,,,,,,,,,
2808437,1480654063701,,,,,,,,-0.05,0.07,1.0,-3.1,0.3,0.1,760,0,,,,,,,,,,,,,,,,,,,
2808457,1480654063721,,,,,,,,-0.04,0.07,1.0,-3.1,0.3,0.1,740,0,,,,,,,,,,,,,,,,,,,
2808477,1480654063741,,,,,53,,,-0.05,0.07,1.01,-3.1,0.2,0.0,740,0,0,0,0.0,0,37.478367,-122.203728,0.0,0.0,13.5,8,3,1.9,0,0.0,-1,0.0,,0.0,0
2808497,1480654063761,,,,,,,,-0.05,0.06,1.0,-3.1,0.2,0.0,760,0,,,,,,,,,,,,,,,,,,,
2808517,1480654063781,,,,,,,,-0.05,0.06,1.0,-3.1,0.3,0.0,760,0,,,,,,,,,,,,,,,,,,,
2808537,1480654063800,,,,,,,,-0.05,0.06,1.0,-3.1,0.3,-0.0,760,0,,,,,,,,,,,,,,,,,,,
2808557,1480654063820,,,,,,,,-0.05,0.06,1.0,-3.1,0.2,0.0,760,0,,,,,,,,,,,,,,,,,,,
2808577,1480654063840,0,84.7,1.2,156.2,53,142.8,15.13,-0.05,0.06,0.99,-3.1,0.2,0.1,760,0,1,1,0.0,0,37.478367,-122.203728,0.0,0.0,13.5,8,3,1.9,0,0.0,-1,0.0,0.0,0.0,0
2808597,1480654063860,,,,,,,,-0.05,0.07,0.99,-3.1,0.2,0.1,760,0,,,,,,,,,,,,,,,,,,,
2808617,1480654063880,,,,,,,,-0.05,0.07,0.99,-3.1,0.2,0.1,740,0,,,,,,,,,,,,,,,,,,,
2808637,1480654063895,,,,,,,,-0.04,0.07,0.99,-3.1,0.2,0.1,740,0,,,,,,,,,,,,,,,,,,,
2808657,1480654063915,,,,,,,,-0.05,0.07,0.99,-3.1,0.2,0.1,760,0,,,,,,,,,,,,,,,,,,,
2808677,1480654063935,,,,,53,,,-0.05,0.06,1.0,-3.2,0.2,0.1,760,0,0,0,0.0,0,37.478367,-122.203728,0.0,0.0,13.5,8,3,1.9,0,0.0,-1,0.0,,0.0,0
2808697,1480654063955,,,,,,,,-0.05,0.06,0.99,-3.2,0.2,0.1,760,0,,,,,,,,,,,,,,,,,,,
2808717,1480654063975,,,,,,,,-0.04,0.06,0.99,-3.2,0.3,0.1,760,0,,,,,,,,,,,,,,,,,,,
2808737,1480654064000,,,,,,,,-0.04,0.06,1.0,-3.1,0.3,0.1,760,0,,,,,,,,,,,,,,,,,,,
2808757,1480654064020,,,,,,,,-0.05,0.06,1.0,-3.1,0.3,0.1,740,0,,,,,,,,,,,,,,,,,,,
2808777,1480654064040,0,84.7,,156.2,55,142.8,,-0.05,0.06,1.0,-3.1,0.2,0.1,740,0,1,1,0.0,0,37.478367,-122.203728,0.0,0.0,13.5,8,3,1.9,0,0.0,-1,0.0,0.0,0.0,0
2808797,1480654064060,,,,,,,,-0.05,0.06,1.0,-3.1,0.3,0.0,740,0,,,,,,,,,,,,,,,,,,,
2808817,1480654064080,,,,,,,,-0.05,0.06,1.0,-3.1,0.3,0.1,740,0,,,,,,,,,,,,,,,,,,,
2808837,1480654064101,,,,,,,,-0.05,0.06,1.0,-3.1,0.2,0.0,740,0,,,,,,,,,,,,,,,,,,,
2808857,1480654064121,,,,,,,,-0.05,0.06,1.0,-3.1,0.2,0.0,740,0,,,,,,,,,,,,,,,,,,,
2808877,1480654064141,,,,,56,,,-0.05,0.06,1.0,-3.1,0.2,0.0,760,0,0,0,0.0,0,37.478367,-122.203728,0.0,0.0,13.5,8,3,1.9,0,0.0,-1,0.0,,0.0,0
2808897,1480654064161,,,,,,,,-0.05,0.06,1.0,-3.1,0.1,0.0,760,0,,,,,,,,,,,,,,,,,,,
2808917,1480654064181,,,,,,,,-0.05,0.06,1.0,-3.1,0.1,0.0,740,0,,,,,,,,,,,,,,,,,,,
2808937,1480654064301,,,,,,,,-0.05,0.06,1.0,-3.1,0.2,0.0,740,0,,,,,,,,,,,,,,,,,,,
2808957,1480654064321,,,,,,,,-0.05,0.07,1.0,-3.1,0.1,0.0,760,0,,,,,,,,,,,,,,,,,,,
2808977,1480654064341,0,87.4,,157.2,56,142.9,,-0.05,0.07,1.0,-3.1,0.1,0.1,760,0,1,1,0.0,0,37.478367,-122.203728,0.0,0.0,13.5,8,3,1.9,0,0.0,-1,0.0,0.0,0.0,0
2808997,1480654064361,,,,,,,,-0.05,0.07,1.0,-3.1,0.1,0.1,740,0,,,,,,,,,,,,,,,,,,,
2809017,1480654064381,,,,,,,,-0.05,0.07,1.0,-3.1,0.2,0.0,740,0,,,,,,,,,,,,,,,,,,,
2809037,1480654064401,,,,,,,,-0.05,0.07,0.99,-3.1,0.1,0.0,760,0,,,,,,,,,,,,,,,,,,,
2809057,1480654064421,,,,,,,,-0.04,0.07,0.99,-3.1,0.2,0.1,760,0,,,,,,,,,,,,,,,,,,,
2809077,1480654064441,,,,,52,,,-0.04,0.07,1.0,-3.1,0.2,0.0,740,0,0,0,0.0,0,37.478367,-122.203728,0.0,0.0,13.5,8,3,1.9,0,0.0,-1,0.0,,0.0,0
2809097,1480654064461,,,,,,,,-0.05,0.06,1.0,-3.2,0.2,0.0,740,0,,,,,,,,,,,,,,,,,,,
2809117,1480654064481,,,,,,,,-0.04,0.07,1.0,-3.1,0.2,0.0,760,0,,,,,,,,,,,,,,,,,,,
2809137,1480654064402,,,,,,,,-0.04,0.07,1.0,-3.2,0.2,0.0,760,0,,,,,,,,,,,,,,,,,,,
2809157,1480654064422,,,,,,,,-0.04,0.07,1.0,-3.2,0.2,0.0,760,0,,,,,,,,,,,,,,,,,,,
2809177,1480654064442,1,86.8,,156.7,57,141.8,,-0.05,0.06,1.0,-3.1,0.2,0.0,760,0,1,1,0.0,0,37.478367,-122.203728,0.0,0.0,13.5,8,3,1.9,0,0.0,-1,0.0,0.0,0.0,0
2809197,1480654064462,,,,,,,,-0.05,0.07,1.0,-3.1,0.2,0.0,760,0,,,,,,,,,,,,,,,,,,,
2809217,1480654064482,,,,,,,,-0.05,0.07,1.0,-3.1,0.3,0.0,760,0,,,,,,,,,,,,,,,,,,,
2809237,1480654064501,,,,,,,,-0.05,0.07,1.0,-3.1,0.2,0.0,740,0,,,,,,,,,,,,,,,,,,,
2809257,1480654064521,,,,,,,,-0.05,0.07,1.0,-3.1,0.2,0.0,740,0,,,,,,,,,,,,,,,,,,,
2809277,1480654064541,,,,,53,,,-0.05,0.07,1.0,-3.1,0.2,0.0,740,0,0,0,0.0,0,37.478367,-122.203728,0.0,0.0,13.5,8,3,1.9,0,0.0,-1,0.0,,0.0,0
2809297,1480654064561,,,,,,,,-0.05,0.07,1.0,-3.1,0.2,0.0,760,0,,,,,,,,,,,,,,,,,,,
2809317,1480654064581,,,,,,,,-0.05,0.07,1.0,-3.1,0.1,0.1,760,0,,,,,,,,,,,,,,,,,,,
2809337,1480654064602,,,,,,,,-0.05,0.07,1.0,-3.1,0.1,0.1,760,0,,,,,,,,,,,,,,,,,,,
2809357,1480654064622,,,,,,,,-0.05,0.07,1.0,-3.1,0.1,0.0,760,0,,,,,,,,,,,,,,,,,,,
2809377,1480654064642,0,86.2,,157.0,54,143.1,,-0.05,0.07,1.0,-3.1,0.1,0.0,760,0,1,1,0.0,0,37.478367,-122.203728,0.0,0.0,13.5,8,3,1.9,0,0.0,-1,0.0,0.0,0.0,0
2809397,1480654064662,,,,,,,,-0.05,0.07,1.0,-3.1,0.2,0.0,740,0,,,,,,,,,,,,,,,,,,,
2809417,1480654064682,,,,,,,,-0.05,0.07,1.01,-3.1,0.2,0.0,740,0,,,,,,,,,,,,,,,,,,,
2809437,1480654064702,,,,,,,,-0.05,0.07,1.0,-3.1,0.2,0.0,740,0,,,,,,,,,,,,,,,,,,,
2809457,1480654064722,,,,,,,,-0.05,0.06,1.0,-3.1,0.2,0.0,740,0,,,,,,,,,,,,,,,,,,,
2809477,1480654064742,,,,,55,,,-0.05,0.06,1.0,-3.1,0.3,0.0,740,0,0,0,0.0,0,37.478367,-122.203728,0.0,0.0,13.5,8,3,1.9,0,0.0,-1,0.0,,0.0,0
2809497,1480654064762,,,,,,,,-0.05,0.06,1.0,-3.1,0.2,0.0,760,0,,,,,,,,,,,,,,,,,,,
2809517,1480654064782,,,,,,,,-0.05,0.06,0.99,-3.1,0.2,0.0,780,0,,,,,,,,,,,,,,,,,,,
2809537,1480654064802,,,,,,,,-0.05,0.06,1.0,-3.1,0.2,0.0,780,0,,,,,,,,,,,,,,,,,,,
2809557,1480654064822,,,,,,,,-0.05,0.06,1.0,-3.1,0.2,0.0,740,0,,,,,,,,,,,,,,,,,,,
2809577,1480654064842,0,84.3,1.1,156.0,56,142.6,15.03,-0.05,0.07,1.0,-3.1,0.1,0.1,760,0,1,1,0.0,0,37.478367,-122.203728,0.0,0.0,13.5,8,3,1.9,0,0.0,-1,0.0,0.0,0.0,0
2809597,1480654064862,,,,,,,,-0.05,0.07,1.0,-3.1,0.1,0.0,740,0,,,,,,,,,,,,,,,,,,,
2809617,1480654064882,,,,,,,,-0.05,0.07,1.0,-3.1,0.2,0.0,740,0,,,,,,,,,,,,,,,,,,,
2809637,1480654064895,,,,,,,,-0.05,0.07,1.0,-3.1,0.2,0.0,740,0,,,,,,,,,,,,,,,,,,,
2809657,1480654064915,,,,,,,,-0.05,0.07,1.0,-3.1,0.1,0.0,760,0,,,,,,,,,,,,,,,,,,,
2809677,1480654064935,,,,,53,,,-0.05,0.07,1.0,-3.1,0.1,0.0,760,0,0,0,0.0,0,37.478367,-122.203728,0.0,0.0,13.5,8,3,1.9,0,0.0,-1,0.0,,0.0,0
2809697,1480654064955,,,,,,,,-0.05,0.07,1.0,-3.1,0.1,-0.0,760,0,,,,,,,,,,,,,,,,,,,
2809717,1480654064975,,,,,,,,-0.05,0.07,1.0,-3.2,0.1,0.0,740,0,,,,,,,,,,,,,,,,,,,
2809737,1480654065101,,,,,,,,-0.05,0.07,1.0,-3.2,0.1,0.0,760,0,,,,,,,,,,,,,,,,,,,
2809757,1480654065121,,,,,,,,-0.05,0.07,1.0,-3.2,0.2,0.0,760,0,,,,,,,,,,,,,,,,,,,
2809777,1480654065141,0,85.3,,156.9,54,143.2,,-0.05,0.06,1.0,-3.2,0.2,0.0,760,0,1,1,0.0,0,37.478367,-122.203728,0.0,0.0,13.5,8,3,1.9,0,0.0,-1,0.0,0.0,0.0,0
2809797,1480654065161,,,,,,,,-0.05,0.06,1.0,-3.1,0.2,0.0,760,0,,,,,,,,,,,,,,,,,,,
2809817,1480654065181,,,,,,,,-0.05,0.07,0.99,-3.1,0.2,0.0,760,0,,,,,,,,,,,,,,,,,,,
2809837,1480654065201,,,,,,,,-0.05,0.06,1.0,-3.1,0.2,0.0,760,0,,,,,,,,,,,,,,,,,,,
2809857,1480654065221,,,,,,,,-0.05,0.06,1.0,-3.1,0.2,0.0,740,0,,,,,,,,,,,,,,,,,,,
2809877,1480654065241,,,,,55,,,-0.05,0.07,1.0,-3.1,0.3,0.0,740,0,0,0,0.0,0,37.478367,-122.203728,0.0,0.0,13.5,8,3,1.9,0,0.0,-1,0.0,,0.0,0
2809897,1480654065261,,,,,,,,-0.05,0.06,1.01,-3.1,0.4,0.0,740,0,,,,,,,,,,,,,,,,,,,
2809917,1480654065281,,,,,,,,-0.05,0.06,1.0,-3.1,0.3,0.0,760,0,,,,,,,,,,,,,,,,,,,
2809937,1480654065202,,,,,,,,-0.05,0.06,1.01,-3.1,0.2,0.0,760,0,,,,,,,,,,,,,,,,,,,
2809957,1480654065222,,,,,,,,-0.05,0.06,1.0,-3.1,0.2,0.0,760,0,,,,,,,,,,,,,,,,,,,
2809977,1480654065242,0,87.2,,157.4,57,143.1,,-0.05,0.06,1.0,-3.1,0.2,0.0,760,0,1,1,0.0,0,37.478367,-122.203728,0.0,0.0,13.5,8,3,1.9,0,0.0,-1,0.0,0.0,0.0,0
2809997,1480654065262,,,,,,,,-0.05,0.06,1.0,-3.1,0.1,0.0,760,0,,,,,,,,,,,,,,,,,,,
