"Interval"|"ms"|0|0|1,"Utc"|"ms"|0|0|1,"FuelLevel"|"F"|0|100|5,"OilTemp"|"F"|0.0|300.0|5,"CoolantPressPSI"|"PSI"|0.0|20.0|1,"Coolant"|"F"|0.0|300.0|5,"OilPress"|"PSI"|0|150|10,"EngineTemp"|"F"|0.0|300.0|5,"Battery"|"Volts"|0.0|20.0|1,"AccelX"|"G"|-3.0|3.0|50,"AccelY"|"G"|-3.0|3.0|50,"AccelZ"|"G"|-3.0|3.0|50,"Yaw"|"Deg/Sec"|-300.0|300.0|50,"Pitch"|"Deg/Sec"|-300.0|300.0|50,"Roll"|"Deg/Sec"|-300.0|300.0|50,"RPM"|""|0|10000|50,"Driveshaft"|"RPM"|0|5000|50,"GPIO1"|""|0|1|10,"GPIO2"|""|0|1|10,"GearRatio"|""|-5.0|5.0|10,"Gear"|""|-1|5|10,"Latitude"|"Degrees"|-180.0|180.0|10,"Longitude"|"Degrees"|-180.0|180.0|10,"Speed"|"MPH"|0.0|150.0|10,"Distance"|"Miles"|0.0|0.0|10,"Altitude"|"Feet"|0.0|4000.0|10,"GPSSats"|""|0|20|10,"GPSQual"|""|0|5|10,"GPSDOP"|""|0.0|20.0|10,"LapCount"|""|0|0|10,"LapTime"|"Min"|0.0|0.0|10,"Sector"|""|0|0|10,"SectorTime"|"Min"|0.0|0.0|10,"PredTime"|"Min"|0.0|0.0|5,"ElapsedTime"|"Min"|0.0|0.0|10,"CurrentLap"|""|0|0|10
3034360,1480654290030,,,,,1,,,-0.06,0.11,0.99,-3.1,0.2,-0.0,360,0,1,0,0.0,0,37.478367,-122.203728,0.0,0.0,13.5,8,3,1.9,0,0.0,-1,0.0,,0.0,0
3034380,1480654290050,,,,,,,,-0.06,0.13,1.0,-3.1,0.2,0.0,580,0,,,,,,,,,,,,,,,,,,,
3034400,1480654290070,,,,,,,,-0.07,0.09,1.0,-3.1,0.1,-0.0,720,0,,,,,,,,,,,,,,,,,,,
3034420,1480654290095,,,,,,,,-0.06,0.09,1.0,-3.1,0.3,-0.1,720,0,,,,,,,,,,,,,,,,,,,
3034440,1480654290115,,,,,,,,-0.05,0.09,1.01,-3.1,0.4,-0.1,840,0,,,,,,,,,,,,,,,,,,,
3034460,1480654290135,0,91.9,,148.9,3,139.2,,-0.05,0.08,1.0,-3.1,0.5,-0.1,900,0,1,0,0.0,0,37.478367,-122.203728,0.0,0.0,13.5,8,3,1.9,0,0.0,-1,0.0,0.0,0.0,0
3034480,1480654290155,,,,,,,,-0.04,0.09,1.0,-3.1,0.6,-0.1,840,0,,,,,,,,,,,,,,,,,,,
3034500,1480654290175,,,,,,,,-0.04,0.09,1.0,-3.2,0.6,0.0,800,0,,,,,,,,,,,,,,,,,,,
3034520,1480654290195,,,,,,,,-0.05,0.08,1.01,-3.2,0.4,0.0,780,0,,,,,,,,,,,,,,,,,,,
3034540,1480654290215,,,,,,,,-0.05,0.08,1.01,-3.1,0.5,-0.0,780,0,,,,,,,,,,,,,,,,,,,
3034560,1480654290235,,,,,4,,,-0.05,0.08,1.0,-3.1,0.6,-0.0,780,0,1,0,0.0,0,37.478367,-122.203728,0.0,0.0,13.5,8,3,1.9,0,0.0,-1,0.0,,0.0,0
3034580,1480654290255,,,,,,,,-0.05,0.09,0.99,-3.1,0.3,0.0,780,0,,,,,,,,,,,,,,,,,,,
3034600,1480654290275,,,,,,,,-0.05,0.09,1.0,-3.2,0.3,0.1,800,0,,,,,,,,,,,,,,,,,,,
3034620,1480654290295,,,,,,,,-0.05,0.09,1.0,-3.1,0.3,0.1,780,0,,,,,,,,,,,,,,,,,,,
3034640,1480654290315,,,,,,,,-0.05,0.08,1.0,-3.1,0.3,0.1,780,0,,,,,,,,,,,,,,,,,,,
3034660,1480654290335,0,90.7,,148.9,6,139.2,,-0.05,0.08,1.0,-3.1,0.4,0.1,720,0,1,0,0.0,0,37.478367,-122.203728,0.0,0.0,13.5,8,3,1.9,0,0.0,-1,0.0,0.0,0.0,0
3034680,1480654290355,,,,,,,,-0.05,0.08,1.0,-3.1,0.2,0.1,780,0,,,,,,,,,,,,,,,,,,,
3034700,1480654290375,,,,,,,,-0.05,0.09,0.99,-3.1,0.2,0.1,820,0,,,,,,,,,,,,,,,,,,,
3034720,1480654290395,,,,,,,,-0.05,0.08,1.0,-3.1,0.2,0.0,860,0,,,,,,,,,,,,,,,,,,,
3034740,1480654290415,,,,,,,,-0.05,0.08,1.0,-3.1,0.3,0.0,900,0,,,,,,,,,,,,,,,,,,,
3034760,1480654290435,,,,,8,,,-0.04,0.08,0.99,-3.1,0.3,0.0,900,0,1,0,0.0,0,37.478367,-122.203728,0.0,0.0,13.5,8,3,1.9,0,0.0,-1,0.0,,0.0,0
3034780,1480654290455,,,,,,,,-0.04,0.07,0.99,-3.1,0.2,0.0,920,0,,,,,,,,,,,,,,,,,,,
3034800,1480654290475,,,,,,,,-0.04,0.07,0.99,-3.1,0.2,-0.0,960,0,,,,,,,,,,,,,,,,,,,
3034820,1480654290495,,,,,,,,-0.04,0.07,0.99,-3.1,0.5,-0.0,980,0,,,,,,,,,,,,,,,,,,,
3034840,1480654290515,,,,,,,,-0.03,0.07,1.0,-3.1,0.7,0.0,1020,0,,,,,,,,,,,,,,,,,,,
3034860,1480654290535,1,91.6,,149.2,11,139.5,,-0.03,0.07,1.0,-3.1,0.7,-0.0,1040,0,1,0,0.0,0,37.478367,-122.203728,0.0,0.0,13.5,8,3,1.9,0,0.0,-1,0.0,0.0,0.0,0
3034880,1480654290555,,,,,,,,-0.03,0.06,1.0,-3.1,0.7,-0.0,1040,0,,,,,,,,,,,,,,,,,,,
3034900,1480654290575,,,,,,,,-0.03,0.07,1.0,-3.1,0.6,-0.0,1060,0,,,,,,,,,,,,,,,,,,,
3034920,1480654290694,,,,,,,,-0.04,0.07,0.99,-3.1,0.5,-0.0,1080,0,,,,,,,,,,,,,,,,,,,
3034940,1480654290714,,,,,,,,-0.04,0.07,1.0,-3.1,0.4,-0.0,1120,0,,,,,,,,,,,,,,,,,,,
3034960,1480654290734,,,,,15,,,-0.04,0.07,0.98,-3.1,0.4,-0.0,1120,0,1,0,0.0,0,37.478367,-122.203728,0.0,0.0,13.5,8,3,1.9,0,0.0,-1,0.0,,0.0,0
3034980,1480654290754,,,,,,,,-0.04,0.07,0.98,-3.1,0.3,0.0,1140,0,,,,,,,,,,,,,,,,,,,
3035000,1480654290774,,,,,,,,-0.04,0.06,0.99,-3.1,0.3,0.0,1140,0,,,,,,,,,,,,,,,,,,,
3035020,1480654290794,,,,,,,,-0.04,0.06,0.99,-3.1,0.2,0.0,1160,0,,,,,,,,,,,,,,,,,,,
3035040,1480654290814,,,,,,,,-0.04,0.06,1.0,-3.1,0.3,-0.0,1160,0,,,,,,,,,,,,,,,,,,,
3035060,1480654290834,0,91.5,,148.5,21,139.1,,-0.04,0.07,1.0,-3.1,0.4,-0.1,1160,0,1,0,0.0,0,37.478367,-122.203728,0.0,0.0,13.5,8,3,1.9,0,0.0,-1,0.0,0.0,0.0,0
3035080,1480654290854,,,,,,,,-0.05,0.07,1.0,-3.1,0.4,-0.0,1160,0,,,,,,,,,,,,,,,,,,,
3035100,1480654290874,,,,,,,,-0.04,0.06,0.99,-3.1,0.4,-0.0,1160,0,,,,,,,,,,,,,,,,,,,
3035120,1480654290795,,,,,,,,-0.04,0.05,1.0,-3.1,0.5,-0.0,1180,0,,,,,,,,,,,,,,,,,,,
3035140,1480654290815,,,,,,,,-0.04,0.07,1.0,-3.1,0.3,-0.0,1180,0,,,,,,,,,,,,,,,,,,,
3035160,1480654290835,,,,,26,,,-0.04,0.07,1.0,-3.1,0.4,0.0,1160,0,1,0,0.0,0,37.478367,-122.203728,0.0,0.0,13.5,8,3,1.9,0,0.0,-1,0.0,,0.0,0
3035180,1480654290855,,,,,,,,-0.04,0.06,1.0,-3.1,0.4,0.0,1160,0,,,,,,,,,,,,,,,,,,,
3035200,1480654290875,,,,,,,,-0.04,0.06,1.0,-3.1,0.3,0.1,1140,0,,,,,,,,,,,,,,,,,,,
3035220,1480654290895,,,,,,,,-0.04,0.06,0.99,-3.1,0.2,0.0,1140,0,,,,,,,,,,,,,,,,,,,
3035240,1480654290908,,,,,,,,-0.04,0.07,0.99,-3.1,0.2,0.1,1140,0,,,,,,,,,,,,,,,,,,,
3035260,1480654290928,0,90.3,1.7,148.9,32,139.0,14.83,-0.04,0.07,0.99,-3.1,0.0,0.0,1140,0,1,0,0.0,0,37.478367,-122.203728,0.0,0.0,13.5,8,3,1.9,0,0.0,-1,0.0,0.0,0.0,0
3035280,1480654290948,,,,,,,,-0.04,0.07,0.99,-3.1,0.1,0.0,1120,0,,,,,,,,,,,,,,,,,,,
3035300,1480654290968,,,,,,,,-0.05,0.07,1.0,-3.1,0.2,0.0,1120,0,,,,,,,,,,,,,,,,,,,
3035320,1480654290994,,,,,,,,-0.05,0.07,1.01,-3.1,0.2,0.0,1100,0,,,,,,,,,,,,,,,,,,,
3035340,1480654291014,,,,,,,,-0.04,0.07,1.0,-3.1,0.2,0.1,1100,0,,,,,,,,,,,,,,,,,,,
3035360,1480654291034,,,,,37,,,-0.04,0.07,0.99,-3.1,0.2,0.1,1080,0,1,0,0.0,0,37.478367,-122.203728,0.0,0.0,13.5,8,3,1.9,0,0.0,-1,0.0,,0.0,0
3035380,1480654291054,,,,,,,,-0.04,0.07,1.0,-3.1,0.3,0.1,1080,0,,,,,,,,,,,,,,,,,,,
3035400,1480654291074,,,,,,,,-0.05,0.06,1.0,-3.1,0.4,0.0,1060,0,,,,,,,,,,,,,,,,,,,
3035420,1480654291096,,,,,,,,-0.05,0.07,1.0,-3.1,0.3,0.0,1060,0,,,,,,,,,,,,,,,,,,,
3035440,1480654291116,,,,,,,,-0.05,0.07,1.0,-3.1,0.2,0.0,1040,0,,,,,,,,,,,,,,,,,,,
3035460,1480654291136,0,91.2,,147.9,40,138.4,,-0.05,0.07,1.0,-3.1,0.2,0.0,1020,0,1,0,0.0,0,37.478367,-122.203728,0.0,0.0,13.5,8,3,1.9,0,0.0,-1,0.0,0.0,0.0,0
3035480,1480654291156,,,,,,,,-0.05,0.07,1.0,-3.1,0.1,0.1,1020,0,,,,,,,,,,,,,,,,,,,
3035500,1480654291176,,,,,,,,-0.04,0.08,1.0,-3.1,0.1,0.1,1020,0,,,,,,,,,,,,,,,,,,,
3035520,1480654291195,,,,,,,,-0.04,0.08,1.0,-3.1,0.2,0.1,1000,0,,,,,,,,,,,,,,,,,,,
3035540,1480654291215,,,,,,,,-0.04,0.08,1.01,-3.1,0.2,0.1,980,0,,,,,,,,,,,,,,,,,,,
3035560,1480654291235,,,,,50,,,-0.04,0.08,1.01,-3.1,0.3,0.1,980,0,1,0,0.0,0,37.478367,-122.203728,0.0,0.0,13.5,8,3,1.9,0,0.0,-1,0.0,,0.0,0
3035580,1480654291255,,,,,,,,-0.04,0.08,1.0,-3.1,0.3,0.1,960,0,,,,,,,,,,,,,,,,,,,
3035600,1480654291275,,,,,,,,-0.04,0.08,1.0,-3.1,0.3,0.1,960,0,,,,,,,,,,,,,,,,,,,
3035620,1480654291295,,,,,,,,-0.04,0.09,1.0,-3.1,0.2,0.1,940,0,,,,,,,,,,,,,,,,,,,
3035640,1480654291315,,,,,,,,-0.05,0.09,1.0,-3.2,0.1,0.2,940,0,,,,,,,,,,,,,,,,,,,
3035660,1480654291335,0,88.9,,147.6,44,137.7,,-0.05,0.09,1.0,-3.1,0.0,0.1,920,0,1,0,0.0,0,37.478367,-122.203728,0.0,0.0,13.5,8,3,1.9,0,0.0,-1,0.0,0.0,0.0,0
3035680,1480654291355,,,,,,,,-0.05,0.08,1.0,-3.1,0.0,0.1,920,0,,,,,,,,,,,,,,,,,,,
3035700,1480654291375,,,,,,,,-0.05,0.08,1.0,-3.1,0.1,0.1,900,0,,,,,,,,,,,,,,,,,,,
3035720,1480654291494,,,,,,,,-0.05,0.09,1.0,-3.1,0.2,0.1,900,0,,,,,,,,,,,,,,,,,,,
3035740,1480654291514,,,,,,,,-0.05,0.08,1.0,-3.1,0.1,0.1,880,0,,,,,,,,,,,,,,,,,,,
3035760,1480654291534,,,,,53,,,-0.05,0.08,1.0,-3.1,0.2,0.1,880,0,1,0,0.0,0,37.478367,-122.203728,0.0,0.0,13.5,8,3,1.9,0,0.0,-1,0.0,,0.0,0
3035780,1480654291554,,,,,,,,-0.04,0.08,1.0,-3.1,0.3,0.1,880,0,,,,,,,,,,,,,,,,,,,
3035800,1480654291574,,,,,,,,-0.05,0.08,1.0,-3.1,0.2,0.1,880,0,,,,,,,,,,,,,,,,,,,
3035820,1480654291594,,,,,,,,-0.04,0.08,1.0,-3.1,0.2,0.1,860,0,,,,,,,,,,,,,,,,,,,
3035840,1480654291614,,,,,,,,-0.05,0.08,1.0,-3.1,0.2,0.1,860,0,,,,,,,,,,,,,,,,,,,
3035860,1480654291634,0,90.0,,147.6,54,137.8,,-0.05,0.08,1.0,-3.1,0.2,0.1,860,0,1,0,0.0,0,37.478367,-122.203728,0.0,0.0,13.5,8,3,1.9,0,0.0,-1,0.0,0.0,0.0,0
3035880,1480654291654,,,,,,,,-0.05,0.08,1.0,-3.1,0.3,0.1,840,0,,,,,,,,,,,,,,,,,,,
3035900,1480654291674,,,,,,,,-0.05,0.07,1.0,-3.1,0.2,0.1,840,0,,,,,,,,,,,,,,,,,,,
3035920,1480654291595,,,,,,,,-0.05,0.07,1.0,-3.1,0.3,0.1,840,0,,,,,,,,,,,,,,,,,,,
3035940,1480654291615,,,,,,,,-0.05,0.07,1.0,-3.1,0.3,0.1,840,0,,,,,,,,,,,,,,,,,,,
3035960,1480654291635,,,,,56,,,-0.04,0.07,1.0,-3.1,0.3,0.1,820,0,1,0,0.0,0,37.478367,-122.203728,0.0,0.0,13.5,8,3,1.9,0,0.0,-1,0.0,,0.0,0
3035980,1480654291655,,,,,,,,-0.04,0.08,1.0,-3.1,0.2,0.1,820,0,,,,,,,,,,,,,,,,,,,
3036000,1480654291675,,,,,,,,-0.05,0.07,1.0,-3.1,0.3,0.1,820,0,,,,,,,,,,,,,,,,,,,
3036020,1480654291695,,,,,,,,-0.05,0.07,1.0,-3.1,0.3,0.1,820,0,,,,,,,,,,,,,,,,,,,
3036040,1480654291715,,,,,,,,-0.05,0.07,1.0,-3.1,0.2,0.1,820,0,,,,,,,,,,,,,,,,,,,
3036060,1480654291735,0,92.3,,149.4,56,138.8,,-0.05,0.07,1.0,-3.1,0.3,0.1,800,0,1,0,0.0,0,37.478367,-122.203728,0.0,0.0,13.5,8,3,1.9,0,0.0,-1,0.0,0.0,0.0,0
3036080,1480654291755,,,,,,,,-0.05,0.07,1.0,-3.1,0.3,0.1,800,0,,,,,,,,,,,,,,,,,,,
3036100,1480654291775,,,,,,,,-0.05,0.07,1.0,-3.1,0.3,0.1,800,0,,,,,,,,,,,,,,,,,,,
3036120,1480654291795,,,,,,,,-0.05,0.07,1.0,-3.1,0.3,0.1,800,0,,,,,,,,,,,,,,,,,,,
3036140,1480654291815,,,,,,,,-0.05,0.07,1.0,-3.1,0.3,0.0,800,0,,,,,,,,,,,,,,,,,,,
3036160,1480654291835,,,,,58,,,-0.05,0.07,1.0,-3.1,0.2,0.0,800,0,1,0,0.0,0,37.478367,-122.203728,0.0,0.0,13.5,8,3,1.9,0,0.0,-1,0.0,,0.0,0
3036180,1480654291855,,,,,,,,-0.05,0.07,1.0,-3.1,0.3,0.1,800,0,,,,,,,,,,,,,,,,,,,
3036200,1480654291875,,,,,,,,-0.05,0.07,1.0,-3.1,0.2,0.1,800,0,,,,,,,,,,,,,,,,,,,
3036220,1480654291895,,,,,,,,-0.05,0.07,1.0,-3.1,0.2,0.1,800,0,,,,,,,,,,,,,,,,,,,
3036240,1480654291909,,,,,,,,-0.05,0.07,1.0,-3.1,0.3,0.0,800,0,,,,,,,,,,,,,,,,,,,
3036260,1480654291929,0,92.4,2.6,149.5,60,138.9,14.91,-0.05,0.07,1.0,-3.1,0.2,0.0,800,0,1,0,0.0,0,37.478367,-122.203728,0.0,0.0,13.5,8,3,1.9,0,0.0,-1,0.0,0.0,0.0,0
3036280,1480654291949,,,,,,,,-0.05,0.07,1.0,-3.1,0.3,0.1,800,0,,,,,,,,,,,,,,,,,,,
3036300,1480654291969,,,,,,,,-0.05,0.07,1.0,-3.1,0.2,0.1,800,0,,,,,,,,,,,,,,,,,,,
3036320,1480654291995,,,,,,,,-0.05,0.07,1.0,-3.1,0.2,0.1,800,0,,,,,,,,,,,,,,,,,,,
3036340,1480654292015,,,,,,,,-0.05,0.07,1.0,-3.1,0.3,0.1,800,0,,,,,,,,,,,,,,,,,,,
3036360,1480654292035,,,,,55,,,-0.05,0.07,1.0,-3.1,0.3,0.1,800,0,1,0,0.0,0,37.478367,-122.203728,0.0,0.0,13.5,8,3,1.9,0,0.0,-1,0.0,,0.0,0
3036380,1480654292055,,,,,,,,-0.05,0.07,1.0,-3.1,0.2,0.1,800,0,,,,,,,,,,,,,,,,,,,
3036400,1480654292075,,,,,,,,-0.05,0.07,1.0,-3.1,0.1,0.1,800,0,,,,,,,,,,,,,,,,,,,
3036420,1480654292095,,,,,,,,-0.05,0.07,1.0,-3.1,0.1,0.1,800,0,,,,,,,,,,,,,,,,,,,
3036440,1480654292115,,,,,,,,-0.05,0.07,1.0,-3.1,0.2,0.1,820,0,,,,,,,,,,,,,,,,,,,
3036460,1480654292135,0,91.8,,148.9,59,137.6,,-0.05,0.07,1.0,-3.1,0.2,0.0,820,0,1,0,0.0,0,37.478367,-122.203728,0.0,0.0,13.5,8,3,1.9,0,0.0,-1,0.0,0.0,0.0,0
3036480,1480654292155,,,,,,,,-0.05,0.07,1.0,-3.2,0.3,0.1,820,0,,,,,,,,,,,,,,,,,,,
3036500,1480654292175,,,,,,,,-0.04,0.07,1.0,-3.1,0.3,0.1,820,0,,,,,,,,,,,,,,,,,,,
3036520,1480654292295,,,,,,,,-0.05,0.07,0.99,-3.1,0.2,0.1,820,0,,,,,,,,,,,,,,,,,,,
3036540,1480654292315,,,,,,,,-0.05,0.07,1.0,-3.1,0.3,0.1,820,0,,,,,,,,,,,,,,,,,,,
3036560,1480654292335,,,,,55,,,-0.05,0.07,1.0,-3.1,0.3,0.1,820,0,1,0,0.0,0,37.478367,-122.203728,0.0,0.0,13.5,8,3,1.9,0,0.0,-1,0.0,,0.0,0
3036580,1480654292355,,,,,,,,-0.05,0.07,1.0,-3.1,0.2,0.0,820,0,,,,,,,,,,,,,,,,,,,
3036600,1480654292375,,,,,,,,-0.05,0.07,1.0,-3.1,0.3,0.0,820,0,,,,,,,,,,,,,,,,,,,
3036620,1480654292395,,,,,,,,-0.04,0.07,1.0,-3.1,0.3,0.0,840,0,,,,,,,,,,,,,,,,,,,
3036640,1480654292415,,,,,,,,-0.05,0.07,1.0,-3.1,0.2,0.0,820,0,,,,,,,,,,,,,,,,,,,
3036660,1480654292435,0,89.0,,148.0,53,138.7,,-0.05,0.07,1.0,-3.1,0.3,0.0,840,0,1,0,0.0,0,37.478367,-122.203728,0.0,0.0,13.5,8,3,1.9,0,0.0,-1,0.0,0.0,0.0,0
3036680,1480654292455,,,,,,,,-0.05,0.07,1.0,-3.1,0.2,0.0,840,0,,,,,,,,,,,,,,,,,,,
3036700,1480654292475,,,,,,,,-0.05,0.07,1.0,-3.1,0.2,0.0,840,0,,,,,,,,,,,,,,,,,,,
3036720,1480654292395,,,,,,,,-0.05,0.07,1.0,-3.1,0.3,0.0,840,0,,,,,,,,,,,,,,,,,,,
3036740,1480654292415,,,,,,,,-0.04,0.07,1.0,-3.1,0.3,0.0,840,0,,,,,,,,,,,,,,,,,,,
3036760,1480654292435,,,,,52,,,-0.04,0.07,1.0,-3.1,0.3,0.0,840,0,1,0,0.0,0,37.478367,-122.203728,0.0,0.0,13.5,8,3,1.9,0,0.0,-1,0.0,,0.0,0
3036780,1480654292455,,,,,,,,-0.05,0.07,1.0,-3.1,0.3,0.0,840,0,,,,,,,,,,,,,,,,,,,
3036800,1480654292475,,,,,,,,-0.05,0.06,1.0,-3.1,0.3,-0.0,840,0,,,,,,,,,,,,,,,,,,,
3036820,1480654292495,,,,,,,,-0.05,0.06,1.0,-3.1,0.3,-0.0,840,0,,,,,,,,,,,,,,,,,,,
3036840,1480654292515,,,,,,,,-0.05,0.06,1.0,-3.1,0.3,-0.0,840,0,,,,,,,,,,,,,,,,,,,
3036860,1480654292535,0,91.1,,148.0,60,137.6,,-0.04,0.06,1.0,-3.1,0.4,0.0,840,0,1,0,0.0,0,37.478367,-122.203728,0.0,0.0,13.5,8,3,1.9,0,0.0,-1,0.0,0.0,0.0,0
3036880,1480654292555,,,,,,,,-0.04,0.06,1.0,-3.1,0.3,0.0,840,0,,,,,,,,,,,,,,,,,,,
3036900,1480654292575,,,,,,,,-0.05,0.07,0.99,-3.1,0.3,0.0,840,0,,,,,,,,,,,,,,,,,,,
3036920,1480654292595,,,,,,,,-0.05,0.06,1.0,-3.1,0.3,0.0,840,0,,,,,,,,,,,,,,,,,,,
3036940,1480654292615,,,,,,,,-0.05,0.06,1.0,-3.1,0.3,0.0,840,0,,,,,,,,,,,,,,,,,,,
3036960,1480654292635,,,,,58,,,-0.05,0.06,1.0,-3.1,0.3,0.0,840,0,1,0,0.0,0,37.478367,-122.203728,0.0,0.0,13.5,8,3,1.9,0,0.0,-1,0.0,,0.0,0
3036980,1480654292655,,,,,,,,-0.05,0.06,1.0,-3.1,0.3,0.0,840,0,,,,,,,,,,,,,,,,,,,
3037000,1480654292675,,,,,,,,-0.04,0.06,1.0,-3.1,0.4,0.0,840,0,,,,,,,,,,,,,,,,,,,
3037020,1480654292695,,,,,,,,-0.04,0.06,1.0,-3.1,0.3,0.1,840,0,,,,,,,,,,,,,,,,,,,
3037040,1480654292715,,,,,,,,-0.05,0.07,0.99,-3.1,0.3,0.1,840,0,,,,,,,,,,,,,,,,,,,
3037060,1480654292735,0,91.0,,149.5,60,139.4,,-0.05,0.06,1.0,-3.1,0.3,0.0,840,0,1,0,0.0,0,37.478367,-122.203728,0.0,0.0,13.5,8,3,1.9,0,0.0,-1,0.0,0.0,0.0,0
3037080,1480654292755,,,,,,,,-0.05,0.06,1.0,-3.1,0.3,0.0,840,0,,,,,,,,,,,,,,,,,,,
3037100,1480654292775,,,,,,,,-0.05,0.06,1.0,-3.1,0.3,0.0,840,0,,,,,,,,,,,,,,,,,,,
3037120,1480654292795,,,,,,,,-0.05,0.07,1.0,-3.1,0.3,0.0,840,0,,,,,,,,,,,,,,,,,,,
3037140,1480654292815,,,,,,,,-0.05,0.07,1.0,-3.1,0.3,0.0,840,0,,,,,,,,,,,,,,,,,,,
3037160,1480654292835,,,,,56,,,-0.05,0.07,1.0,-3.1,0.2,0.1,820,0,1,0,0.0,0,37.478367,-122.203728,0.0,0.0,13.5,8,3,1.9,0,0.0,-1,0.0,,0.0,0
3037180,1480654292855,,,,,,,,-0.05,0.07,1.0,-3.1,0.2,0.0,840,0,,,,,,,,,,,,,,,,,,,
3037200,1480654292875,,,,,,,,-0.05,0.07,1.0,-3.1,0.2,0.0,820,0,,,,,,,,,,,,,,,,,,,
3037220,1480654292895,,,,,,,,-0.05,0.07,1.0,-3.1,0.2,0.0,820,0,,,,,,,,,,,,,,,,,,,
3037240,1480654292908,,,,,,,,-0.05,0.07,1.0,-3.1,0.2,0.0,820,0,,,,,,,,,,,,,,,,,,,
3037260,1480654292928,0,91.7,2.3,149.5,60,139.1,14.95,-0.05,0.07,1.0,-3.1,0.3,0.0,820,0,1,0,0.0,0,37.478367,-122.203728,0.0,0.0,13.5,8,3,1.9,0,0.0,-1,0.0,0.0,0.0,0
3037280,1480654292948,,,,,,,,-0.04,0.07,1.0,-3.1,0.3,0.0,820,0,,,,,,,,,,,,,,,,,,,
3037300,1480654292968,,,,,,,,-0.05,0.07,1.0,-3.1,0.2,0.0,840,0,,,,,,,,,,,,,,,,,,,
3037320,1480654293093,,,,,,,,-0.05,0.07,1.0,-3.1,0.3,0.0,840,0,,,,,,,,,,,,,,,,,,,
3037340,1480654293113,,,,,,,,-0.05,0.07,1.01,-3.1,0.3,0.0,820,0,,,,,,,,,,,,,,,,,,,
3037360,1480654293133,,,,,58,,,-0.05,0.06,1.0,-3.1,0.3,0.0,820,0,1,0,0.0,0,37.478367,-122.203728,0.0,0.0,13.5,8,3,1.9,0,0.0,-1,0.0,,0.0,0
3037380,1480654293153,,,,,,,,-0.05,0.06,1.0,-3.1,0.4,0.0,820,0,,,,,,,,,,,,,,,,,,,
3037400,1480654293173,,,,,,,,-0.04,0.06,1.0,-3.1,0.4,0.0,820,0,,,,,,,,,,,,,,,,,,,
3037420,1480654293193,,,,,,,,-0.05,0.07,1.0,-3.1,0.3,0.1,840,0,,,,,,,,,,,,,,,,,,,
3037440,1480654293213,,,,,,,,-0.05,0.07,1.0,-3.1,0.3,0.1,840,0,,,,,,,,,,,,,,,,,,,
3037460,1480654293233,0,92.7,,149.7,57,139.0,,-0.05,0.07,1.0,-3.1,0.3,0.1,840,0,1,0,0.0,0,37.478367,-122.203728,0.0,0.0,13.5,8,3,1.9,0,0.0,-1,0.0,0.0,0.0,0
3037480,1480654293253,,,,,,,,-0.05,0.06,1.0,-3.1,0.2,0.1,840,0,,,,,,,,,,,,,,,,,,,
3037500,1480654293273,,,,,,,,-0.05,0.07,1.0,-3.1,0.3,0.1,840,0,,,,,,,,,,,,,,,,,,,
3037520,1480654293195,,,,,,,,-0.04,0.07,1.0,-3.1,0.3,0.1,840,0,,,,,,,,,,,,,,,,,,,
3037540,1480654293215,,,,,,,,-0.05,0.07,1.0,-3.1,0.2,0.1,840,0,,,,,,,,,,,,,,,,,,,
3037560,1480654293235,,,,,60,,,-0.05,0.07,1.0,-3.1,0.2,0.1,840,0,1,0,0.0,0,37.478367,-122.203728,0.0,0.0,13.5,8,3,1.9,0,0.0,-1,0.0,,0.0,0
3037580,1480654293255,,,,,,,,-0.05,0.07,1.0,-3.1,0.2,0.0,840,0,,,,,,,,,,,,,,,,,,,
3037600,1480654293275,,,,,,,,-0.05,0.07,1.0,-3.1,0.2,0.1,840,0,,,,,,,,,,,,,,,,,,,
3037620,1480654293296,,,,,,,,-0.05,0.07,1.0,-3.1,0.2,0.1,840,0,,,,,,,,,,,,,,,,,,,
3037640,1480654293316,,,,,,,,-0.05,0.07,1.0,-3.1,0.3,0.1,840,0,,,,,,,,,,,,,,,,,,,
3037660,1480654293336,0,91.3,,148.4,60,138.0,,-0.05,0.07,1.0,-3.1,0.2,0.1,820,0,1,0,0.0,0,37.478367,-122.203728,0.0,0.0,13.5,8,3,1.9,0,0.0,-1,0.0,0.0,0.0,0
3037680,1480654293356,,,,,,,,-0.05,0.07,1.0,-3.1,0.2,0.1,840,0,,,,,,,,,,,,,,,,,,,
3037700,1480654293376,,,,,,,,-0.05,0.07,1.0,-3.1,0.2,0.1,820,0,,,,,,,,,,,,,,,,,,,
3037720,1480654293395,,,,,,,,-0.05,0.07,1.0,-3.1,0.2,0.1,840,0,,,,,,,,,,,,,,,,,,,
3037740,1480654293415,,,,,,,,-0.05,0.06,1.0,-3.1,0.2,0.1,840,0,,,,,,,,,,,,,,,,,,,
3037760,1480654293435,,,,,57,,,-0.05,0.06,1.0,-3.1,0.3,0.1,840,0,1,0,0.0,0,37.478367,-122.203728,0.0,0.0,13.5,8,3,1.9,0,0.0,-1,0.0,,0.0,0
3037780,1480654293455,,,,,,,,-0.04,0.07,1.0,-3.1,0.3,0.1,820,0,,,,,,,,,,,,,,,,,,,
3037800,1480654293475,,,,,,,,-0.04,0.07,1.0,-3.1,0.2,0.1,820,0,,,,,,,,,,,,,,,,,,,
3037820,1480654293495,,,,,,,,-0.05,0.07,1.0,-3.1,0.2,0.1,820,0,,,,,,,,,,,,,,,,,,,
3037840,1480654293515,,,,,,,,-0.05,0.06,1.0,-3.1,0.2,0.0,840,0,,,,,,,,,,,,,,,,,,,
3037860,1480654293535,1,90.8,,149.4,57,139.3,,-0.05,0.06,1.0,-3.1,0.2,0.0,820,0,1,0,0.0,0,37.478367,-122.203728,0.0,0.0,13.5,8,3,1.9,0,0.0,-1,0.0,0.0,0.0,0
3037880,1480654293555,,,,,,,,-0.05,0.06,1.0,-3.1,0.2,0.0,820,0,,,,,,,,,,,,,,,,,,,
3037900,1480654293575,,,,,,,,-0.05,0.07,1.0,-3.1,0.2,0.0,840,0,,,,,,,,,,,,,,,,,,,
3037920,1480654293595,,,,,,,,-0.04,0.07,1.0,-3.1,0.1,0.0,820,0,,,,,,,,,,,,,,,,,,,
3037940,1480654293615,,,,,,,,-0.05,0.07,1.0,-3.1,0.1,0.0,820,0,,,,,,,,,,,,,,,,,,,
3037960,1480654293635,,,,,56,,,-0.05,0.07,1.0,-3.1,0.1,0.0,820,0,1,0,0.0,0,37.478367,-122.203728,0.0,0.0,13.5,8,3,1.9,0,0.0,-1,0.0,,0.0,0
3037980,1480654293655,,,,,,,,-0.05,0.07,1.0,-3.1,0.2,-0.0,820,0,,,,,,,,,,,,,,,,,,,
3038000,1480654293675,,,,,,,,-0.05,0.07,1.0,-3.1,0.2,-0.0,820,0,,,,,,,,,,,,,,,,,,,
3038020,1480654293695,,,,,,,,-0.04,0.06,1.0,-3.1,0.2,-0.0,840,0,,,,,,,,,,,,,,,,,,,
3038040,1480654293715,,,,,,,,-0.04,0.06,1.0,-3.1,0.2,0.0,840,0,,,,,,,,,,,,,,,,,,,
3038060,1480654293735,0,89.8,,148.6,57,138.7,,-0.05,0.06,1.0,-3.1,0.2,0.0,820,0,1,0,0.0,0,37.478367,-122.203728,0.0,0.0,13.5,8,3,1.9,0,0.0,-1,0.0,0.0,0.0,0
3038080,1480654293755,,,,,,,,-0.05,0.06,1.0,-3.1,0.2,-0.0,820,0,,,,,,,,,,,,,,,,,,,
3038100,1480654293775,,,,,,,,-0.05,0.06,1.0,-3.1,0.3,-0.0,820,0,,,,,,,,,,,,,,,,,,,
3038120,1480654293895,,,,,,,,-0.05,0.06,1.0,-3.1,0.2,0.0,820,0,,,,,,,,,,,,,,,,,,,
3038140,1480654293915,,,,,,,,-0.04,0.07,1.0,-3.1,0.2,0.0,820,0,,,,,,,,,,,,,,,,,,,
3038160,1480654293935,,,,,56,,,-0.04,0.07,1.0,-3.1,0.2,0.1,820,0,1,0,0.0,0,37.478367,-122.203728,0.0,0.0,13.5,8,3,1.9,0,0.0,-1,0.0,,0.0,0
3038180,1480654293955,,,,,,,,-0.04,0.07,1.0,-3.1,0.1,0.1,820,0,,,,,,,,,,,,,,,,,,,
3038200,1480654293975,,,,,,,,-0.05,0.07,1.0,-3.1,0.2,0.1,820,0,,,,,,,,,,,,,,,,,,,
3038220,1480654293995,,,,,,,,-0.05,0.07,1.0,-3.1,0.2,0.1,820,0,,,,,,,,,,,,,,,,,,,
3038240,1480654294015,,,,,,,,-0.05,0.07,1.0,-3.1,0.2,0.1,820,0,,,,,,,,,,,,,,,,,,,
3038260,1480654294035,0,92.6,2.4,149.9,56,138.8,14.93,-0.04,0.07,1.0,-3.1,0.2,0.1,820,0,1,0,0.0,0,37.478367,-122.203728,0.0,0.0,13.5,8,3,1.9,0,0.0,-1,0.0,0.0,0.0,0
3038280,1480654294055,,,,,,,,-0.04,0.07,1.0,-3.1,0.2,0.1,820,0,,,,,,,,,,,,,,,,,,,
3038300,1480654294075,,,,,,,,-0.05,0.07,1.0,-3.1,0.2,0.1,820,0,,,,,,,,,,,,,,,,,,,
3038320,1480654293995,,,,,,,,-0.05,0.07,1.0,-3.1,0.3,0.1,820,0,,,,,,,,,,,,,,,,,,,
3038340,1480654294015,,,,,,,,-0.05,0.07,1.0,-3.1,0.3,0.1,820,0,,,,,,,,,,,,,,,,,,,
3038360,1480654294035,,,,,55,,,-0.05,0.07,1.0,-3.1,0.3,0.1,820,0,1,0,0.0,0,37.478367,-122.203728,0.0,0.0,13.5,8,3,1.9,0,0.0,-1,0.0,,0.0,0
3038380,1480654294055,,,,,,,,-0.04,0.07,1.0,-3.1,0.3,0.1,820,0,,,,,,,,,,,,,,,,,,,
3038400,1480654294075,,,,,,,,-0.04,0.07,1.0,-3.1,0.2,0.1,820,0,,,,,,,,,,,,,,,,,,,
3038420,1480654294095,,,,,,,,-0.05,0.07,1.0,-3.1,0.2,0.1,820,0,,,,,,,,,,,,,,,,,,,
3038440,1480654294115,,,,,,,,-0.05,0.06,1.0,-3.1,0.2,0.1,820,0,,,,,,,,,,,,,,,,,,,
3038460,1480654294135,1,92.4,,149.9,57,139.1,,-0.05,0.07,1.01,-3.1,0.2,0.0,820,0,1,0,0.0,0,37.478367,-122.203728,0.0,0.0,13.5,8,3,1.9,0,0.0,-1,0.0,0.0,0.0,0
3038480,1480654294155,,,,,,,,-0.05,0.07,1.0,-3.1,0.2,0.0,820,0,,,,,,,,,,,,,,,,,,,
3038500,1480654294175,,,,,,,,-0.04,0.07,1.0,-3.1,0.3,0.0,820,0,,,,,,,,,,,,,,,,,,,
3038520,1480654294196,,,,,,,,-0.04,0.07,1.0,-3.1,0.2,0.1,820,0,,,,,,,,,,,,,,,,,,,
3038540,1480654294216,,,,,,,,-0.05,0.07,1.0,-3.1,0.3,0.1,820,0,,,,,,,,,,,,,,,,,,,
3038560,1480654294236,,,,,58,,,-0.05,0.07,1.0,-3.1,0.3,0.1,800,0,1,0,0.0,0,37.478367,-122.203728,0.0,0.0,13.5,8,3,1.9,0,0.0,-1,0.0,,0.0,0
3038580,1480654294256,,,,,,,,-0.05,0.07,1.0,-3.1,0.2,0.0,800,0,,,,,,,,,,,,,,,,,,,
3038600,1480654294276,,,,,,,,-0.05,0.06,1.0,-3.1,0.2,0.1,820,0,,,,,,,,,,,,,,,,,,,
3038620,1480654294295,,,,,,,,-0.04,0.06,1.0,-3.1,0.3,0.1,820,0,,,,,,,,,,,,,,,,,,,
3038640,1480654294315,,,,,,,,-0.05,0.07,1.0,-3.1,0.2,0.1,800,0,,,,,,,,,,,,,,,,,,,
3038660,1480654294335,0,90.0,,148.8,58,138.7,,-0.05,0.07,1.0,-3.1,0.3,0.1,800,0,1,0,0.0,0,37.478367,-122.203728,0.0,0.0,13.5,8,3,1.9,0,0.0,-1,0.0,0.0,0.0,0
3038680,1480654294355,,,,,,,,-0.05,0.06,1.0,-3.1,0.3,0.1,800,0,,,,,,,,,,,,,,,,,,,
3038700,1480654294375,,,,,,,,-0.05,0.06,1.0,-3.1,0.3,0.1,800,0,,,,,,,,,,,,,,,,,,,
3038720,1480654294393,,,,,,,,-0.05,0.07,1.0,-3.1,0.3,0.1,800,0,,,,,,,,,,,,,,,,,,,
3038740,1480654294413,,,,,,,,-0.04,0.07,1.0,-3.1,0.2,0.1,820,0,,,,,,,,,,,,,,,,,,,
3038760,1480654294433,,,,,59,,,-0.05,0.07,1.0,-3.1,0.2,0.1,820,0,1,0,0.0,0,37.478367,-122.203728,0.0,0.0,13.5,8,3,1.9,0,0.0,-1,0.0,,0.0,0
3038780,1480654294453,,,,,,,,-0.05,0.07,1.0,-3.1,0.2,0.1,800,0,,,,,,,,,,,,,,,,,,,
3038800,1480654294473,,,,,,,,-0.05,0.06,1.0,-3.1,0.2,0.1,800,0,,,,,,,,,,,,,,,,,,,
3038820,1480654294495,,,,,,,,-0.05,0.07,1.0,-3.1,0.2,0.1,820,0,,,,,,,,,,,,,,,,,,,
3038840,1480654294515,,,,,,,,-0.04,0.07,1.0,-3.1,0.3,0.1,820,0,,,,,,,,,,,,,,,,,,,
3038860,1480654294535,0,92.7,,150.2,56,139.0,,-0.04,0.07,1.0,-3.1,0.2,0.1,820,0,1,0,0.0,0,37.478367,-122.203728,0.0,0.0,13.5,8,3,1.9,0,0.0,-1,0.0,0.0,0.0,0
3038880,1480654294555,,,,,,,,-0.05,0.07,1.0,-3.1,0.3,0.1,820,0,,,,,,,,,,,,,,,,,,,
3038900,1480654294575,,,,,,,,-0.05,0.07,1.0,-3.1,0.2,0.1,820,0,,,,,,,,,,,,,,,,,,,
3038920,1480654294694,,,,,,,,-0.05,0.07,1.0,-3.1,0.2,0.1,820,0,,,,,,,,,,,,,,,,,,,
3038940,1480654294714,,,,,,,,-0.05,0.07,0.99,-3.1,0.2,0.1,820,0,,,,,,,,,,,,,,,,,,,
3038960,1480654294734,,,,,56,,,-0.04,0.07,1.0,-3.1,0.2,0.1,820,0,1,0,0.0,0,37.478367,-122.203728,0.0,0.0,13.5,8,3,1.9,0,0.0,-1,0.0,,0.0,0
3038980,1480654294754,,,,,,,,-0.05,0.07,1.0,-3.1,0.2,0.1,820,0,,,,,,,,,,,,,,,,,,,
3039000,1480654294774,,,,,,,,-0.05,0.07,1.0,-3.1,0.3,0.1,820,0,,,,,,,,,,,,,,,,,,,
3039020,1480654294794,,,,,,,,-0.05,0.06,1.0,-3.1,0.3,0.1,820,0,,,,,,,,,,,,,,,,,,,
3039040,1480654294814,,,,,,,,-0.05,0.06,1.0,-3.1,0.3,0.1,820,0,,,,,,,,,,,,,,,,,,,
3039060,1480654294834,0,90.5,,149.7,58,139.5,,-0.05,0.06,1.0,-3.1,0.3,0.1,820,0,1,0,0.0,0,37.478367,-122.203728,0.0,0.0,13.5,8,3,1.9,0,0.0,-1,0.0,0.0,0.0,0
3039080,1480654294854,,,,,,,,-0.04,0.06,1.0,-3.1,0.3,0.1,820,0,,,,,,,,,,,,,,,,,,,
3039100,1480654294874,,,,,,,,-0.05,0.07,1.0,-3.1,0.2,0.1,820,0,,,,,,,,,,,,,,,,,,,
3039120,1480654294795,,,,,,,,-0.05,0.06,1.0,-3.2,0.2,0.1,820,0,,,,,,,,,,,,,,,,,,,
3039140,1480654294815,,,,,,,,-0.05,0.06,1.0,-3.2,0.2,0.0,820,0,,,,,,,,,,,,,,,,,,,
3039160,1480654294835,,,,,58,,,-0.05,0.07,1.0,-3.1,0.2,0.1,800,0,1,0,0.0,0,37.478367,-122.203728,0.0,0.0,13.5,8,3,1.9,0,0.0,-1,0.0,,0.0,0
3039180,1480654294855,,,,,,,,-0.04,0.07,1.0,-3.1,0.3,0.1,820,0,,,,,,,,,,,,,,,,,,,
3039200,1480654294875,,,,,,,,-0.04,0.07,1.0,-3.1,0.2,0.1,820,0,,,,,,,,,,,,,,,,,,,
3039220,1480654294895,,,,,,,,-0.05,0.06,1.0,-3.2,0.3,0.0,800,0,,,,,,,,,,,,,,,,,,,
3039240,1480654294908,,,,,,,,-0.05,0.06,1.0,-3.1,0.3,0.0,820,0,,,,,,,,,,,,,,,,,,,
3039260,1480654294928,0,91.5,2.0,150.1,59,139.4,14.82,-0.04,0.06,1.0,-3.1,0.2,0.0,820,0,1,0,0.0,0,37.478367,-122.203728,0.0,0.0,13.5,8,3,1.9,0,0.0,-1,0.0,0.0,0.0,0
3039280,1480654294948,,,,,,,,-0.05,0.06,1.0,-3.1,0.2,0.0,820,0,,,,,,,,,,,,,,,,,,,
3039300,1480654294968,,,,,,,,-0.04,0.06,1.0,-3.2,0.2,0.0,800,0,,,,,,,,,,,,,,,,,,,
3039320,1480654294995,,,,,,,,-0.05,0.06,1.0,-3.2,0.2,0.1,820,0,,,,,,,,,,,,,,,,,,,
3039340,1480654295015,,,,,,,,-0.05,0.06,1.0,-3.1,0.2,0.0,820,0,,,,,,,,,,,,,,,,,,,
3039360,1480654295035,,,,,57,,,-0.05,0.07,1.0,-3.2,0.3,0.0,820,0,1,0,0.0,0,37.478367,-122.203728,0.0,0.0,13.5,8,3,1.9,0,0.0,-1,0.0,,0.0,0
3039380,1480654295055,,,,,,,,-0.05,0.07,1.0,-3.1,0.2,0.0,820,0,,,,,,,,,,,,,,,,,,,
3039400,1480654295075,,,,,,,,-0.05,0.07,1.0,-3.2,0.3,0.1,800,0,,,,,,,,,,,,,,,,,,,
3039420,1480654295095,,,,,,,,-0.05,0.07,1.0,-3.1,0.2,0.1,820,0,,,,,,,,,,,,,,,,,,,
3039440,1480654295115,,,,,,,,-0.05,0.07,1.0,-3.1,0.2,0.1,820,0,,,,,,,,,,,,,,,,,,,
3039460,1480654295135,0,92.4,,149.7,57,137.6,,-0.05,0.07,1.0,-3.1,0.1,0.1,820,0,1,0,0.0,0,37.478367,-122.203728,0.0,0.0,13.5,8,3,1.9,0,0.0,-1,0.0,0.0,0.0,0
3039480,1480654295155,,,,,,,,-0.05,0.06,1.01,-3.1,0.2,0.1,820,0,,,,,,,,,,,,,,,,,,,
3039500,1480654295175,,,,,,,,-0.05,0.07,1.0,-3.1,0.2,0.0,820,0,,,,,,,,,,,,,,,,,,,
3039520,1480654295195,,,,,,,,-0.04,0.07,1.0,-3.1,0.3,0.0,820,0,,,,,,,,,,,,,,,,,,,
3039540,1480654295215,,,,,,,,-0.04,0.07,1.0,-3.1,0.2,0.1,820,0,,,,,,,,,,,,,,,,,,,
3039560,1480654295235,,,,,58,,,-0.05,0.07,1.0,-3.1,0.3,0.0,820,0,1,0,0.0,0,37.478367,-122.203728,0.0,0.0,13.5,8,3,1.9,0,0.0,-1,0.0,,0.0,0
3039580,1480654295255,,,,,,,,-0.05,0.07,1.0,-3.1,0.3,0.0,820,0,,,,,,,,,,,,,,,,,,,
3039600,1480654295275,,,,,,,,-0.05,0.06,1.0,-3.1,0.3,0.0,820,0,,,,,,,,,,,,,,,,,,,
3039620,1480654295295,,,,,,,,-0.05,0.06,1.0,-3.1,0.3,0.0,820,0,,,,,,,,,,,,,,,,,,,
3039640,1480654295315,,,,,,,,-0.04,0.07,1.0,-3.1,0.3,0.0,820,0,,,,,,,,,,,,,,,,,,,
3039660,1480654295335,0,89.5,,149.4,56,139.2,,-0.05,0.07,1.0,-3.1,0.2,0.1,820,0,1,0,0.0,0,37.478367,-122.203728,0.0,0.0,13.5,8,3,1.9,0,0.0,-1,0.0,0.0,0.0,0
3039680,1480654295355,,,,,,,,-0.05,0.07,1.0,-3.1,0.2,0.1,820,0,,,,,,,,,,,,,,,,,,,
3039700,1480654295375,,,,,,,,-0.05,0.07,1.0,-3.1,0.2,0.1,820,0,,,,,,,,,,,,,,,,,,,
3039720,1480654295494,,,,,,,,-0.05,0.06,1.0,-3.1,0.2,0.1,820,0,,,,,,,,,,,,,,,,,,,
3039740,1480654295514,,,,,,,,-0.05,0.07,1.0,-3.1,0.3,0.1,820,0,,,,,,,,,,,,,,,,,,,
3039760,1480654295534,,,,,55,,,-0.04,0.07,1.0,-3.1,0.3,0.1,820,0,1,0,0.0,0,37.478367,-122.203728,0.0,0.0,13.5,8,3,1.9,0,0.0,-1,0.0,,0.0,0
3039780,1480654295554,,,,,,,,-0.05,0.07,1.0,-3.1,0.2,0.1,820,0,,,,,,,,,,,,,,,,,,,
3039800,1480654295574,,,,,,,,-0.05,0.07,1.0,-3.1,0.3,0.1,820,0,,,,,,,,,,,,,,,,,,,
3039820,1480654295594,,,,,,,,-0.05,0.07,1.0,-3.1,0.3,0.1,820,0,,,,,,,,,,,,,,,,,,,
3039840,1480654295614,,,,,,,,-0.05,0.07,1.0,-3.1,0.2,0.1,820,0,,,,,,,,,,,,,,,,,,,
3039860,1480654295634,0,92.7,,149.8,57,137.4,,-0.05,0.07,1.0,-3.1,0.2,0.1,820,0,1,0,0.0,0,37.478367,-122.203728,0.0,0.0,13.5,8,3,1.9,0,0.0,-1,0.0,0.0,0.0,0
3039880,1480654295654,,,,,,,,-0.04,0.07,1.0,-3.1,0.2,0.1,820,0,,,,,,,,,,,,,,,,,,,
3039900,1480654295674,,,,,,,,-0.05,0.07,1.0,-3.1,0.1,0.1,820,0,,,,,,,,,,,,,,,,,,,
3039920,1480654295595,,,,,,,,-0.05,0.07,1.0,-3.1,0.3,0.1,820,0,,,,,,,,,,,,,,,,,,,
3039940,1480654295615,,,,,,,,-0.05,0.07,1.0,-3.1,0.3,0.1,820,0,,,,,,,,,,,,,,,,,,,
3039960,1480654295635,,,,,56,,,-0.04,0.06,1.0,-3.1,0.2,0.1,820,0,1,0,0.0,0,37.478367,-122.203728,0.0,0.0,13.5,8,3,1.9,0,0.0,-1,0.0,,0.0,0
3039980,1480654295655,,,,,,,,-0.04,0.06,1.0,-3.1,0.3,0.1,820,0,,,,,,,,,,,,,,,,,,,
3040000,1480654295675,,,,,,,,-0.04,0.06,1.0,-3.1,0.3,0.1,820,0,,,,,,,,,,,,,,,,,,,
3040020,1480654295695,,,,,,,,-0.04,0.07,1.0,-3.1,0.2,0.1,820,0,,,,,,,,,,,,,,,,,,,
3040040,1480654295715,,,,,,,,-0.04,0.07,1.0,-3.1,0.3,0.1,820,0,,,,,,,,,,,,,,,,,,,
3040060,1480654295735,1,90.2,,149.0,58,138.4,,-0.05,0.07,1.0,-3.1,0.2,0.1,820,0,1,0,0.0,0,37.478367,-122.203728,0.0,0.0,13.5,8,3,1.9,0,0.0,-1,0.0,0.0,0.0,0
3040080,1480654295755,,,,,,,,-0.05,0.07,1.0,-3.1,0.2,0.1,820,0,,,,,,,,,,,,,,,,,,,
3040100,1480654295775,,,,,,,,-0.05,0.07,1.0,-3.1,0.3,0.1,820,0,,,,,,,,,,,,,,,,,,,
3040120,1480654295794,,,,,,,,-0.04,0.07,1.0,-3.1,0.3,0.1,820,0,,,,,,,,,,,,,,,,,,,
3040140,1480654295814,,,,,,,,-0.05,0.07,1.0,-3.2,0.3,0.1,800,0,,,,,,,,,,,,,,,,,,,
3040160,1480654295834,,,,,57,,,-0.05,0.06,1.0,-3.1,0.3,0.1,820,0,1,0,0.0,0,37.478367,-122.203728,0.0,0.0,13.5,8,3,1.9,0,0.0,-1,0.0,,0.0,0
3040180,1480654295854,,,,,,,,-0.05,0.06,1.0,-3.1,0.3,0.1,820,0,,,,,,,,,,,,,,,,,,,
3040200,1480654295874,,,,,,,,-0.05,0.07,1.0,-3.2,0.3,0.1,820,0,,,,,,,,,,,,,,,,,,,
3040220,1480654295894,,,,,,,,-0.05,0.07,1.0,-3.1,0.3,0.1,820,0,,,,,,,,,,,,,,,,,,,
3040240,1480654295908,,,,,,,,-0.04,0.07,1.0,-3.2,0.2,0.1,800,0,,,,,,,,,,,,,,,,,,,
3040260,1480654295928,0,90.4,1.7,149.9,58,139.4,14.89,-0.05,0.07,1.0,-3.2,0.2,0.1,800,0,1,0,0.0,0,37.478367,-122.203728,0.0,0.0,13.5,8,3,1.9,0,0.0,-1,0.0,0.0,0.0,0
3040280,1480654295948,,,,,,,,-0.05,0.06,1.0,-3.1,0.2,0.1,800,0,,,,,,,,,,,,,,,,,,,
3040300,1480654295968,,,,,,,,-0.04,0.06,1.0,-3.1,0.2,0.1,800,0,,,,,,,,,,,,,,,,,,,
3040320,1480654295995,,,,,,,,-0.04,0.07,1.0,-3.1,0.3,0.1,820,0,,,,,,,,,,,,,,,,,,,
3040340,1480654296015,,,,,,,,-0.04,0.07,1.0,-3.1,0.3,0.1,820,0,,,,,,,,,,,,,,,,,,,
3040360,1480654296035,,,,,62,,,-0.04,0.07,1.0,-3.1,0.2,0.1,820,0,1,0,0.0,0,37.478367,-122.203728,0.0,0.0,13.5,8,3,2.3,0,0.0,-1,0.0,,0.0,0
3040380,1480654296055,,,,,,,,-0.05,0.07,1.0,-3.1,0.2,0.1,820,0,,,,,,,,,,,,,,,,,,,
3040400,1480654296075,,,,,,,,-0.05,0.07,1.0,-3.1,0.2,0.1,820,0,,,,,,,,,,,,,,,,,,,
3040420,1480654296095,,,,,,,,-0.04,0.06,1.0,-3.1,0.2,0.1,820,0,,,,,,,,,,,,,,,,,,,
3040440,1480654296115,,,,,,,,-0.04,0.06,1.0,-3.1,0.2,0.1,820,0,,,,,,,,,,,,,,,,,,,
3040460,1480654296135,0,92.3,,150.7,57,139.4,,-0.04,0.07,1.0,-3.1,0.2,0.1,820,0,1,0,0.0,0,37.478367,-122.203728,0.0,0.0,13.5,8,3,2.3,0,0.0,-1,0.0,0.0,0.0,0
3040480,1480654296155,,,,,,,,-0.05,0.07,1.0,-3.1,0.2,0.1,820,0,,,,,,,,,,,,,,,,,,,
3040500,1480654296175,,,,,,,,-0.05,0.07,1.0,-3.1,0.2,0.1,840,0,,,,,,,,,,,,,,,,,,,
3040520,1480654296294,,,,,,,,-0.05,0.07,1.0,-3.1,0.2,0.1,820,0,,,,,,,,,,,,,,,,,,,
3040540,1480654296314,,,,,,,,-0.05,0.06,1.0,-3.1,0.2,0.1,820,0,,,,,,,,,,,,,,,,,,,
3040560,1480654296334,,,,,58,,,-0.04,0.06,1.0,-3.1,0.3,0.1,820,0,1,0,0.0,0,37.478367,-122.203728,0.0,0.0,13.5,8,3,2.3,0,0.0,-1,0.0,,0.0,0
3040580,1480654296354,,,,,,,,-0.04,0.06,1.0,-3.1,0.3,0.1,820,0,,,,,,,,,,,,,,,,,,,
3040600,1480654296374,,,,,,,,-0.05,0.06,1.0,-3.1,0.2,0.1,820,0,,,,,,,,,,,,,,,,,,,
3040620,1480654296394,,,,,,,,-0.05,0.06,1.0,-3.1,0.3,0.1,820,0,,,,,,,,,,,,,,,,,,,
3040640,1480654296414,,,,,,,,-0.05,0.07,1.0,-3.1,0.2,0.1,820,0,,,,,,,,,,,,,,,,,,,
3040660,1480654296434,0,92.4,,149.6,59,137.6,,-0.05,0.07,1.0,-3.1,0.2,0.1,820,0,1,0,0.0,0,37.478367,-122.203728,0.0,0.0,13.5,8,3,2.3,0,0.0,-1,0.0,0.0,0.0,0
3040680,1480654296454,,,,,,,,-0.05,0.07,1.0,-3.1,0.2,0.1,820,0,,,,,,,,,,,,,,,,,,,
3040700,1480654296474,,,,,,,,-0.04,0.07,1.0,-3.1,0.3,0.1,820,0,,,,,,,,,,,,,,,,,,,
3040720,1480654296395,,,,,,,,-0.05,0.07,1.0,-3.1,0.2,0.1,820,0,,,,,,,,,,,,,,,,,,,
3040740,1480654296415,,,,,,,,-0.05,0.06,1.0,-3.1,0.3,0.1,800,0,,,,,,,,,,,,,,,,,,,
3040760,1480654296435,,,,,59,,,-0.05,0.07,1.0,-3.1,0.3,0.1,820,0,1,0,0.0,0,37.478367,-122.203728,0.0,0.0,13.5,8,3,2.3,0,0.0,-1,0.0,,0.0,0
3040780,1480654296455,,,,,,,,-0.05,0.07,1.0,-3.1,0.3,0.0,820,0,,,,,,,,,,,,,,,,,,,
3040800,1480654296475,,,,,,,,-0.05,0.07,1.0,-3.1,0.3,0.1,820,0,,,,,,,,,,,,,,,,,,,
3040820,1480654296495,,,,,,,,-0.04,0.07,1.0,-3.1,0.3,0.1,820,0,,,,,,,,,,,,,,,,,,,
3040840,1480654296515,,,,,,,,-0.05,0.07,1.0,-3.1,0.2,0.0,800,0,,,,,,,,,,,,,,,,,,,
3040860,1480654296535,0,90.7,,150.1,58,139.5,,-0.05,0.07,1.0,-3.1,0.2,0.0,800,0,1,0,0.0,0,37.478367,-122.203728,0.0,0.0,13.5,8,3,2.3,0,0.0,-1,0.0,0.0,0.0,0
3040880,1480654296555,,,,,,,,-0.05,0.07,1.0,-3.1,0.2,0.0,800,0,,,,,,,,,,,,,,,,,,,
3040900,1480654296575,,,,,,,,-0.05,0.07,1.0,-3.1,0.2,0.0,820,0,,,,,,,,,,,,,,,,,,,
3040920,1480654296595,,,,,,,,-0.04,0.07,1.0,-3.1,0.3,0.0,800,0,,,,,,,,,,,,,,,,,,,
3040940,1480654296615,,,,,,,,-0.05,0.07,1.0,-3.1,0.3,0.1,820,0,,,,,,,,,,,,,,,,,,,
3040960,1480654296635,,,,,57,,,-0.05,0.07,1.0,-3.1,0.3,0.0,800,0,1,0,0.0,0,37.478367,-122.203728,0.0,0.0,13.5,8,3,2.3,0,0.0,-1,0.0,,0.0,0
3040980,1480654296655,,,,,,,,-0.05,0.06,1.0,-3.1,0.3,0.0,800,0,,,,,,,,,,,,,,,,,,,
3041000,1480654296675,,,,,,,,-0.05,0.07,1.0,-3.1,0.2,0.0,800,0,,,,,,,,,,,,,,,,,,,
3041020,1480654296695,,,,,,,,-0.05,0.07,1.0,-3.1,0.2,0.0,800,0,,,,,,,,,,,,,,,,,,,
3041040,1480654296715,,,,,,,,-0.04,0.07,1.0,-3.1,0.3,0.0,800,0,,,,,,,,,,,,,,,,,,,
3041060,1480654296735,0,90.0,,149.7,55,138.6,,-0.05,0.07,1.01,-3.1,0.2,0.0,820,0,1,0,0.0,0,37.478367,-122.203728,0.0,0.0,13.5,8,3,2.3,0,0.0,-1,0.0,0.0,0.0,0
3041080,1480654296755,,,,,,,,-0.05,0.07,1.0,-3.1,0.3,0.0,820,0,,,,,,,,,,,,,,,,,,,
3041100,1480654296775,,,,,,,,-0.05,0.07,1.01,-3.1,0.3,0.0,820,0,,,,,,,,,,,,,,,,,,,
3041120,1480654296795,,,,,,,,-0.05,0.07,1.01,-3.1,0.3,0.0,820,0,,,,,,,,,,,,,,,,,,,
3041140,1480654296815,,,,,,,,-0.05,0.07,1.0,-3.1,0.3,0.0,800,0,,,,,,,,,,,,,,,,,,,
3041160,1480654296835,,,,,59,,,-0.05,0.07,1.0,-3.1,0.2,0.0,820,0,1,0,0.0,0,37.478367,-122.203728,0.0,0.0,13.5,8,3,2.3,0,0.0,-1,0.0,,0.0,0
3041180,1480654296855,,,,,,,,-0.05,0.07,1.0,-3.1,0.2,0.0,820,0,,,,,,,,,,,,,,,,,,,
3041200,1480654296875,,,,,,,,-0.05,0.07,1.01,-3.1,0.1,0.0,820,0,,,,,,,,,,,,,,,,,,,
3041220,1480654296895,,,,,,,,-0.05,0.07,1.0,-3.1,0.2,0.0,820,0,,,,,,,,,,,,,,,,,,,
3041240,1480654296908,,,,,,,,-0.05,0.07,1.0,-3.1,0.2,0.0,820,0,,,,,,,,,,,,,,,,,,,
3041260,1480654296928,0,93.4,2.2,150.9,56,137.8,14.92,-0.05,0.07,1.0,-3.1,0.3,0.0,820,0,1,0,0.0,0,37.478367,-122.203728,0.0,0.0,13.5,8,3,2.3,0,0.0,-1,0.0,0.0,0.0,0
3041280,1480654296948,,,,,,,,-0.05,0.07,1.0,-3.1,0.2,0.0,800,0,,,,,,,,,,,,,,,,,,,
3041300,1480654296968,,,,,,,,-0.05,0.07,1.0,-3.1,0.2,0.0,800,0,,,,,,,,,,,,,,,,,,,
3041320,1480654297094,,,,,,,,-0.05,0.07,1.0,-3.1,0.2,0.0,800,0,,,,,,,,,,,,,,,,,,,
3041340,1480654297114,,,,,,,,-0.05,0.07,1.0,-3.1,0.1,0.0,800,0,,,,,,,,,,,,,,,,,,,
3041360,1480654297134,,,,,56,,,-0.05,0.07,1.0,-3.1,0.2,0.0,820,0,1,0,0.0,0,37.478367,-122.203728,0.0,0.0,13.5,8,3,1.9,0,0.0,-1,0.0,,0.0,0
3041380,1480654297154,,,,,,,,-0.04,0.07,1.0,-3.1,0.2,0.0,800,0,,,,,,,,,,,,,,,,,,,
3041400,1480654297174,,,,,,,,-0.05,0.06,1.01,-3.1,0.2,0.0,820,0,,,,,,,,,,,,,,,,,,,
3041420,1480654297194,,,,,,,,-0.05,0.06,1.0,-3.1,0.2,-0.0,800,0,,,,,,,,,,,,,,,,,,,
3041440,1480654297214,,,,,,,,-0.05,0.07,1.01,-3.1,0.2,-0.0,800,0,,,,,,,,,,,,,,,,,,,
3041460,1480654297234,0,93.6,,151.1,58,138.3,,-0.05,0.07,1.0,-3.1,0.2,-0.0,800,0,1,0,0.0,0,37.478367,-122.203728,0.0,0.0,13.5,8,3,1.9,0,0.0,-1,0.0,0.0,0.0,0
3041480,1480654297254,,,,,,,,-0.05,0.07,1.0,-3.1,0.2,0.0,800,0,,,,,,,,,,,,,,,,,,,
3041500,1480654297274,,,,,,,,-0.05,0.07,1.0,-3.1,0.1,0.0,820,0,,,,,,,,,,,,,,,,,,,
3041520,1480654297195,,,,,,,,-0.05,0.07,1.0,-3.1,0.2,0.0,800,0,,,,,,,,,,,,,,,,,,,
3041540,1480654297215,,,,,,,,-0.05,0.07,1.0,-3.1,0.2,0.0,800,0,,,,,,,,,,,,,,,,,,,
3041560,1480654297235,,,,,57,,,-0.05,0.07,1.0,-3.1,0.2,0.0,800,0,1,0,0.0,0,37.478367,-122.203728,0.0,0.0,13.5,8,3,1.9,0,0.0,-1,0.0,,0.0,0
3041580,1480654297255,,,,,,,,-0.05,0.07,1.0,-3.1,0.2,0.1,800,0,,,,,,,,,,,,,,,,,,,
3041600,1480654297275,,,,,,,,-0.05,0.07,1.0,-3.1,0.2,0.1,800,0,,,,,,,,,,,,,,,,,,,
3041620,1480654297295,,,,,,,,-0.05,0.07,1.0,-3.1,0.1,0.1,800,0,,,,,,,,,,,,,,,,,,,
3041640,1480654297315,,,,,,,,-0.05,0.07,1.0,-3.1,0.1,0.0,820,0,,,,,,,,,,,,,,,,,,,
3041660,1480654297335,0,91.2,,149.6,56,138.2,,-0.05,0.07,1.0,-3.1,0.2,0.0,820,0,1,0,0.0,0,37.478367,-122.203728,0.0,0.0,13.5,8,3,1.9,0,0.0,-1,0.0,0.0,0.0,0
3041680,1480654297355,,,,,,,,-0.05,0.07,1.0,-3.1,0.2,0.0,800,0,,,,,,,,,,,,,,,,,,,
3041700,1480654297375,,,,,,,,-0.05,0.07,1.0,-3.1,0.3,0.0,800,0,,,,,,,,,,,,,,,,,,,
3041720,1480654297395,,,,,,,,-0.05,0.07,1.0,-3.1,0.2,0.0,800,0,,,,,,,,,,,,,,,,,,,
3041740,1480654297415,,,,,,,,-0.05,0.07,1.0,-3.1,0.2,0.0,800,0,,,,,,,,,,,,,,,,,,,
3041760,1480654297435,,,,,58,,,-0.05,0.07,1.0,-3.1,0.2,0.0,800,0,1,0,0.0,0,37.478367,-122.203728,0.0,0.0,13.5,8,3,1.9,0,0.0,-1,0.0,,0.0,0
3041780,1480654297455,,,,,,,,-0.05,0.07,1.0,-3.1,0.2,0.0,800,0,,,,,,,,,,,,,,,,,,,
3041800,1480654297475,,,,,,,,-0.04,0.07,1.0,-3.1,0.4,0.0,820,0,,,,,,,,,,,,,,,,,,,
3041820,1480654297495,,,,,,,,-0.04,0.07,1.0,-3.1,0.3,0.0,800,0,,,,,,,,,,,,,,,,,,,
3041840,1480654297515,,,,,,,,-0.05,0.07,1.0,-3.1,0.3,0.0,800,0,,,,,,,,,,,,,,,,,,,
3041860,1480654297535,0,92.4,,149.9,57,137.7,,-0.05,0.06,1.0,-3.1,0.3,0.0,800,0,1,0,0.0,0,37.478367,-122.203728,0.0,0.0,13.5,8,3,1.9,0,0.0,-1,0.0,0.0,0.0,0
3041880,1480654297555,,,,,,,,-0.05,0.06,1.0,-3.1,0.3,0.0,800,0,,,,,,,,,,,,,,,,,,,
3041900,1480654297575,,,,,,,,-0.05,0.06,1.0,-3.1,0.3,0.0,800,0,,,,,,,,,,,,,,,,,,,
3041920,1480654297595,,,,,,,,-0.04,0.06,1.0,-3.1,0.3,0.0,800,0,,,,,,,,,,,,,,,,,,,
3041940,1480654297615,,,,,,,,-0.05,0.07,1.0,-3.1,0.3,0.0,820,0,,,,,,,,,,,,,,,,,,,
3041960,1480654297635,,,,,58,,,-0.05,0.06,1.0,-3.1,0.3,0.0,800,0,1,0,0.0,0,37.478367,-122.203728,0.0,0.0,13.5,8,3,1.9,0,0.0,-1,0.0,,0.0,0
3041980,1480654297655,,,,,,,,-0.05,0.06,1.0,-3.1,0.4,0.0,800,0,,,,,,,,,,,,,,,,,,,
3042000,1480654297675,,,,,,,,-0.05,0.07,1.0,-3.1,0.3,0.0,800,0,,,,,,,,,,,,,,,,,,,
3042020,1480654297695,,,,,,,,-0.05,0.07,1.0,-3.1,0.4,0.0,800,0,,,,,,,,,,,,,,,,,,,
3042040,1480654297715,,,,,,,,-0.05,0.07,1.0,-3.1,0.2,0.0,800,0,,,,,,,,,,,,,,,,,,,
3042060,1480654297735,0,93.4,,151.5,57,139.1,,-0.05,0.07,1.0,-3.1,0.3,0.0,820,0,1,0,0.0,0,37.478367,-122.203728,0.0,0.0,13.5,8,3,1.9,0,0.0,-1,0.0,0.0,0.0,0
3042080,1480654297755,,,,,,,,-0.05,0.06,1.0,-3.1,0.3,0.0,820,0,,,,,,,,,,,,,,,,,,,
3042100,1480654297775,,,,,,,,-0.05,0.06,1.0,-3.1,0.3,0.0,820,0,,,,,,,,,,,,,,,,,,,
3042120,1480654297895,,,,,,,,-0.05,0.06,0.99,-3.1,0.3,0.0,820,0,,,,,,,,,,,,,,,,,,,
3042140,1480654297915,,,,,,,,-0.04,0.06,0.99,-3.1,0.3,0.0,820,0,,,,,,,,,,,,,,,,,,,
3042160,1480654297935,,,,,57,,,-0.04,0.07,1.0,-3.1,0.2,0.0,820,0,1,0,0.0,0,37.478367,-122.203728,0.0,0.0,13.5,8,3,1.9,0,0.0,-1,0.0,,0.0,0
3042180,1480654297955,,,,,,,,-0.05,0.06,1.0,-3.1,0.2,0.0,820,0,,,,,,,,,,,,,,,,,,,
3042200,1480654297975,,,,,,,,-0.05,0.07,1.0,-3.1,0.2,-0.0,820,0,,,,,,,,,,,,,,,,,,,
3042220,1480654297995,,,,,,,,-0.05,0.06,1.0,-3.1,0.2,-0.0,820,0,,,,,,,,,,,,,,,,,,,
3042240,1480654298015,,,,,,,,-0.04,0.07,1.0,-3.1,0.3,-0.0,820,0,,,,,,,,,,,,,,,,,,,
3042260,1480654298035,0,93.5,2.9,151.7,59,139.2,14.9,-0.04,0.07,1.0,-3.1,0.2,0.0,820,0,1,0,0.0,0,37.478367,-122.203728,0.0,0.0,13.5,8,3,1.9,0,0.0,-1,0.0,0.0,0.0,0
3042280,1480654298055,,,,,,,,-0.05,0.07,1.0,-3.1,0.2,-0.0,820,0,,,,,,,,,,,,,,,,,,,
3042300,1480654298075,,,,,,,,-0.05,0.06,1.0,-3.1,0.2,-0.0,820,0,,,,,,,,,,,,,,,,,,,
3042320,1480654297995,,,,,,,,-0.05,0.06,1.0,-3.1,0.3,-0.0,820,0,,,,,,,,,,,,,,,,,,,
3042340,1480654298015,,,,,,,,-0.05,0.06,1.0,-3.1,0.2,-0.0,820,0,,,,,,,,,,,,,,,,,,,
3042360,1480654298035,,,,,60,,,-0.04,0.07,1.0,-3.1,0.3,0.0,820,0,1,0,0.0,0,37.478367,-122.203728,0.0,0.0,13.5,8,3,1.9,0,0.0,-1,0.0,,0.0,0
3042380,1480654298055,,,,,,,,-0.04,0.07,1.0,-3.1,0.2,0.1,820,0,,,,,,,,,,,,,,,,,,,
3042400,1480654298075,,,,,,,,-0.05,0.07,1.0,-3.1,0.2,0.1,820,0,,,,,,,,,,,,,,,,,,,
3042420,1480654298095,,,,,,,,-0.05,0.07,1.0,-3.1,0.2,0.0,820,0,,,,,,,,,,,,,,,,,,,
3042440,1480654298115,,,,,,,,-0.05,0.07,1.0,-3.1,0.2,0.0,820,0,,,,,,,,,,,,,,,,,,,
3042460,1480654298135,0,93.9,,151.7,60,139.2,,-0.05,0.07,1.0,-3.1,0.2,0.0,820,0,1,0,0.0,0,37.478367,-122.203728,0.0,0.0,13.5,8,3,1.9,0,0.0,-1,0.0,0.0,0.0,0
3042480,1480654298155,,,,,,,,-0.05,0.07,1.0,-3.1,0.3,0.0,820,0,,,,,,,,,,,,,,,,,,,
3042500,1480654298175,,,,,,,,-0.05,0.07,1.0,-3.1,0.3,0.1,820,0,,,,,,,,,,,,,,,,,,,
3042520,1480654298195,,,,,,,,-0.05,0.07,1.0,-3.1,0.3,0.1,820,0,,,,,,,,,,,,,,,,,,,
3042540,1480654298215,,,,,,,,-0.05,0.07,1.0,-3.1,0.3,0.1,820,0,,,,,,,,,,,,,,,,,,,
3042560,1480654298235,,,,,59,,,-0.05,0.07,1.01,-3.2,0.3,0.1,820,0,1,0,0.0,0,37.478367,-122.203728,0.0,0.0,13.5,8,3,1.9,0,0.0,-1,0.0,,0.0,0
3042580,1480654298255,,,,,,,,-0.05,0.07,1.0,-3.2,0.3,0.1,820,0,,,,,,,,,,,,,,,,,,,
3042600,1480654298275,,,,,,,,-0.05,0.07,1.0,-3.2,0.3,0.1,820,0,,,,,,,,,,,,,,,,,,,
3042620,1480654298295,,,,,,,,-0.05,0.07,1.0,-3.2,0.2,0.1,820,0,,,,,,,,,,,,,,,,,,,
3042640,1480654298315,,,,,,,,-0.05,0.07,1.01,-3.2,0.3,0.1,820,0,,,,,,,,,,,,,,,,,,,
3042660,1480654298335,0,90.2,,150.2,58,137.7,,-0.05,0.06,1.01,-3.2,0.2,0.0,820,0,1,0,0.0,0,37.478367,-122.203728,0.0,0.0,13.5,8,3,1.9,0,0.0,-1,0.0,0.0,0.0,0
3042680,1480654298355,,,,,,,,-0.05,0.06,1.01,-3.2,0.3,0.0,820,0,,,,,,,,,,,,,,,,,,,
3042700,1480654298375,,,,,,,,-0.05,0.07,1.0,-3.2,0.3,0.0,820,0,,,,,,,,,,,,,,,,,,,
3042720,1480654298395,,,,,,,,-0.05,0.07,1.0,-3.1,0.3,0.0,820,0,,,,,,,,,,,,,,,,,,,
3042740,1480654298415,,,,,,,,-0.05,0.07,1.0,-3.1,0.2,0.0,820,0,,,,,,,,,,,,,,,,,,,
3042760,1480654298435,,,,,58,,,-0.05,0.07,1.0,-3.1,0.3,0.1,820,0,1,0,0.0,0,37.478367,-122.203728,0.0,0.0,13.5,8,3,1.9,0,0.0,-1,0.0,,0.0,0
3042780,1480654298455,,,,,,,,-0.05,0.07,1.0,-3.2,0.3,0.0,820,0,,,,,,,,,,,,,,,,,,,
3042800,1480654298475,,,,,,,,-0.05,0.06,1.0,-3.1,0.2,0.0,820,0,,,,,,,,,,,,,,,,,,,
3042820,1480654298495,,,,,,,,-0.05,0.07,1.0,-3.1,0.2,0.0,820,0,,,,,,,,,,,,,,,,,,,
3042840,1480654298515,,,,,,,,-0.05,0.07,1.0,-3.1,0.2,0.1,820,0,,,,,,,,,,,,,,,,,,,
3042860,1480654298535,0,94.1,,151.9,61,139.3,,-0.05,0.07,1.0,-3.1,0.1,0.1,820,0,1,0,0.0,0,37.478367,-122.203728,0.0,0.0,13.5,8,3,1.9,0,0.0,-1,0.0,0.0,0.0,0
3042880,1480654298555,,,,,,,,-0.05,0.06,1.0,-3.1,0.1,0.1,820,0,,,,,,,,,,,,,,,,,,,
3042900,1480654298575,,,,,,,,-0.05,0.06,1.0,-3.2,0.2,0.1,820,0,,,,,,,,,,,,,,,,,,,
3042920,1480654298694,,,,,,,,-0.05,0.06,1.0,-3.1,0.2,0.1,820,0,,,,,,,,,,,,,,,,,,,
3042940,1480654298714,,,,,,,,-0.05,0.06,1.0,-3.1,0.2,0.1,820,0,,,,,,,,,,,,,,,,,,,
3042960,1480654298734,,,,,57,,,-0.04,0.06,1.0,-3.2,0.2,0.1,820,0,1,0,0.0,0,37.478367,-122.203728,0.0,0.0,13.5,8,3,1.9,0,0.0,-1,0.0,,0.0,0
3042980,1480654298754,,,,,,,,-0.05,0.07,1.0,-3.2,0.2,0.1,820,0,,,,,,,,,,,,,,,,,,,
3043000,1480654298774,,,,,,,,-0.05,0.06,1.0,-3.1,0.2,0.1,820,0,,,,,,,,,,,,,,,,,,,
3043020,1480654298794,,,,,,,,-0.05,0.06,1.0,-3.1,0.2,0.1,820,0,,,,,,,,,,,,,,,,,,,
3043040,1480654298814,,,,,,,,-0.04,0.06,1.0,-3.1,0.1,0.1,820,0,,,,,,,,,,,,,,,,,,,
3043060,1480654298834,0,93.0,,150.7,57,139.4,,-0.04,0.06,1.0,-3.1,0.1,0.0,820,0,1,0,0.0,0,37.478367,-122.203728,0.0,0.0,13.5,8,3,1.9,0,0.0,-1,0.0,0.0,0.0,0
3043080,1480654298854,,,,,,,,-0.04,0.06,1.0,-3.1,0.2,0.0,820,0,,,,,,,,,,,,,,,,,,,
3043100,1480654298874,,,,,,,,-0.04,0.06,1.0,-3.1,0.2,0.1,820,0,,,,,,,,,,,,,,,,,,,
3043120,1480654298795,,,,,,,,-0.05,0.06,1.01,-3.1,0.2,0.1,820,0,,,,,,,,,,,,,,,,,,,
3043140,1480654298815,,,,,,,,-0.05,0.06,1.01,-3.1,0.3,0.1,820,0,,,,,,,,,,,,,,,,,,,
3043160,1480654298835,,,,,56,,,-0.05,0.07,1.01,-3.1,0.2,0.1,820,0,1,0,0.0,0,37.478367,-122.203728,0.0,0.0,13.5,8,3,1.9,0,0.0,-1,0.0,,0.0,0
3043180,1480654298855,,,,,,,,-0.05,0.07,1.0,-3.1,0.2,0.1,820,0,,,,,,,,,,,,,,,,,,,
3043200,1480654298875,,,,,,,,-0.05,0.07,1.0,-3.1,0.2,0.1,800,0,,,,,,,,,,,,,,,,,,,
3043220,1480654298895,,,,,,,,-0.05,0.07,1.0,-3.1,0.1,0.1,800,0,,,,,,,,,,,,,,,,,,,
3043240,1480654298908,,,,,,,,-0.05,0.07,1.01,-3.1,0.1,0.0,820,0,,,,,,,,,,,,,,,,,,,
3043260,1480654298928,0,93.7,2.5,151.4,59,139.5,14.78,-0.05,0.07,1.0,-3.1,0.2,0.0,820,0,1,0,0.0,0,37.478367,-122.203728,0.0,0.0,13.5,8,3,1.9,0,0.0,-1,0.0,0.0,0.0,0
3043280,1480654298948,,,,,,,,-0.05,0.07,1.0,-3.1,0.2,0.1,820,0,,,,,,,,,,,,,,,,,,,
3043300,1480654298968,,,,,,,,-0.05,0.07,1.0,-3.1,0.3,0.0,800,0,,,,,,,,,,,,,,,,,,,
3043320,1480654298995,,,,,,,,-0.05,0.07,1.0,-3.1,0.3,0.1,800,0,,,,,,,,,,,,,,,,,,,
3043340,1480654299015,,,,,,,,-0.05,0.07,1.0,-3.1,0.3,0.1,800,0,,,,,,,,,,,,,,,,,,,
3043360,1480654299035,,,,,58,,,-0.05,0.07,1.0,-3.1,0.3,0.1,800,0,1,0,0.0,0,37.478367,-122.203728,0.0,0.0,13.5,8,3,2.3,0,0.0,-1,0.0,,0.0,0
3043380,1480654299055,,,,,,,,-0.05,0.07,1.0,-3.1,0.2,0.0,800,0,,,,,,,,,,,,,,,,,,,
3043400,1480654299075,,,,,,,,-0.05,0.07,1.0,-3.1,0.2,0.0,820,0,,,,,,,,,,,,,,,,,,,
3043420,1480654299095,,,,,,,,-0.04,0.07,1.0,-3.1,0.2,0.0,800,0,,,,,,,,,,,,,,,,,,,
3043440,1480654299115,,,,,,,,-0.05,0.07,1.0,-3.1,0.2,0.0,820,0,,,,,,,,,,,,,,,,,,,
3043460,1480654299135,0,91.7,,150.5,57,138.8,,-0.05,0.06,1.0,-3.1,0.2,0.0,800,0,1,0,0.0,0,37.478367,-122.203728,0.0,0.0,13.5,8,3,2.3,0,0.0,-1,0.0,0.0,0.0,0
3043480,1480654299155,,,,,,,,-0.05,0.06,1.0,-3.1,0.2,0.0,820,0,,,,,,,,,,,,,,,,,,,
3043500,1480654299175,,,,,,,,-0.05,0.07,1.0,-3.1,0.2,0.0,820,0,,,,,,,,,,,,,,,,,,,
3043520,1480654299192,,,,,,,,-0.05,0.07,1.0,-3.1,0.2,0.0,820,0,,,,,,,,,,,,,,,,,,,
3043540,1480654299212,,,,,,,,-0.05,0.07,1.0,-3.1,0.1,0.0,820,0,,,,,,,,,,,,,,,,,,,
3043560,1480654299232,,,,,57,,,-0.05,0.07,1.0,-3.1,0.1,0.0,820,0,1,0,0.0,0,37.478367,-122.203728,0.0,0.0,13.5,8,3,2.3,0,0.0,-1,0.0,,0.0,0
3043580,1480654299252,,,,,,,,-0.05,0.07,1.0,-3.1,0.1,0.0,820,0,,,,,,,,,,,,,,,,,,,
3043600,1480654299272,,,,,,,,-0.05,0.07,1.0,-3.1,0.1,0.0,820,0,,,,,,,,,,,,,,,,,,,
3043620,1480654299295,,,,,,,,-0.04,0.07,1.0,-3.1,0.2,0.0,820,0,,,,,,,,,,,,,,,,,,,
3043640,1480654299315,,,,,,,,-0.04,0.07,1.0,-3.1,0.3,0.0,820,0,,,,,,,,,,,,,,,,,,,
3043660,1480654299335,0,94.2,,151.8,56,139.5,,-0.04,0.07,1.0,-3.1,0.2,0.1,800,0,1,0,0.0,0,37.478367,-122.203728,0.0,0.0,13.5,8,3,2.3,0,0.0,-1,0.0,0.0,0.0,0
3043680,1480654299355,,,,,,,,-0.05,0.07,0.99,-3.1,0.2,0.0,820,0,,,,,,,,,,,,,,,,,,,
3043700,1480654299375,,,,,,,,-0.05,0.07,1.0,-3.1,0.2,0.0,800,0,,,,,,,,,,,,,,,,,,,
3043720,1480654299494,,,,,,,,-0.04,0.07,1.0,-3.1,0.2,0.0,800,0,,,,,,,,,,,,,,,,,,,
3043740,1480654299514,,,,,,,,-0.04,0.06,1.0,-3.1,0.3,0.0,800,0,,,,,,,,,,,,,,,,,,,
3043760,1480654299534,,,,,57,,,-0.04,0.06,1.0,-3.1,0.2,0.0,800,0,1,0,0.0,0,37.478367,-122.203728,0.0,0.0,13.5,8,3,2.3,0,0.0,-1,0.0,,0.0,0
3043780,1480654299554,,,,,,,,-0.05,0.06,1.0,-3.1,0.3,0.1,800,0,,,,,,,,,,,,,,,,,,,
3043800,1480654299574,,,,,,,,-0.05,0.06,1.0,-3.1,0.3,0.1,800,0,,,,,,,,,,,,,,,,,,,
3043820,1480654299594,,,,,,,,-0.05,0.06,1.0,-3.1,0.2,0.0,800,0,,,,,,,,,,,,,,,,,,,
3043840,1480654299614,,,,,,,,-0.05,0.06,1.0,-3.1,0.2,0.1,820,0,,,,,,,,,,,,,,,,,,,
3043860,1480654299634,0,94.0,,152.0,57,139.2,,-0.04,0.06,1.0,-3.1,0.2,0.1,800,0,1,0,0.0,0,37.478367,-122.203728,0.0,0.0,13.5,8,3,2.3,0,0.0,-1,0.0,0.0,0.0,0
3043880,1480654299654,,,,,,,,-0.05,0.06,1.0,-3.1,0.2,0.1,800,0,,,,,,,,,,,,,,,,,,,
3043900,1480654299674,,,,,,,,-0.05,0.06,1.0,-3.1,0.2,0.1,800,0,,,,,,,,,,,,,,,,,,,
3043920,1480654299595,,,,,,,,-0.05,0.06,1.0,-3.1,0.2,0.1,800,0,,,,,,,,,,,,,,,,,,,
3043940,1480654299615,,,,,,,,-0.05,0.06,1.0,-3.1,0.2,0.1,800,0,,,,,,,,,,,,,,,,,,,
3043960,1480654299635,,,,,53,,,-0.05,0.07,1.0,-3.1,0.3,0.1,800,0,1,0,0.0,0,37.478367,-122.203728,0.0,0.0,13.5,8,3,2.3,0,0.0,-1,0.0,,0.0,0
3043980,1480654299655,,,,,,,,-0.05,0.07,1.0,-3.1,0.1,0.1,800,0,,,,,,,,,,,,,,,,,,,
3044000,1480654299675,,,,,,,,-0.05,0.07,1.0,-3.1,0.1,0.1,800,0,,,,,,,,,,,,,,,,,,,
3044020,1480654299695,,,,,,,,-0.05,0.07,1.0,-3.1,0.2,0.1,800,0,,,,,,,,,,,,,,,,,,,
3044040,1480654299715,,,,,,,,-0.05,0.06,1.0,-3.1,0.2,0.1,800,0,,,,,,,,,,,,,,,,,,,
3044060,1480654299735,0,93.3,,151.7,57,139.2,,-0.05,0.07,1.0,-3.1,0.2,0.1,800,0,1,0,0.0,0,37.478367,-122.203728,0.0,0.0,13.5,8,3,2.3,0,0.0,-1,0.0,0.0,0.0,0
3044080,1480654299755,,,,,,,,-0.04,0.07,1.0,-3.1,0.1,0.1,800,0,,,,,,,,,,,,,,,,,,,
3044100,1480654299775,,,,,,,,-0.05,0.07,1.0,-3.1,0.1,0.1,800,0,,,,,,,,,,,,,,,,,,,
3044120,1480654299795,,,,,,,,-0.05,0.06,1.0,-3.1,0.1,0.1,800,0,,,,,,,,,,,,,,,,,,,
3044140,1480654299815,,,,,,,,-0.04,0.06,1.0,-3.1,0.1,0.1,800,0,,,,,,,,,,,,,,,,,,,
3044160,1480654299835,,,,,59,,,-0.04,0.06,1.0,-3.1,0.1,0.1,800,0,1,0,0.0,0,37.478367,-122.203728,0.0,0.0,13.5,8,3,2.3,0,0.0,-1,0.0,,0.0,0
3044180,1480654299855,,,,,,,,-0.04,0.06,0.99,-3.1,0.1,0.1,800,0,,,,,,,,,,,,,,,,,,,
3044200,1480654299875,,,,,,,,-0.04,0.07,1.0,-3.1,0.1,0.1,780,0,,,,,,,,,,,,,,,,,,,
3044220,1480654299895,,,,,,,,-0.04,0.06,1.0,-3.1,0.2,0.1,800,0,,,,,,,,,,,,,,,,,,,
3044240,1480654299908,,,,,,,,-0.04,0.06,1.0,-3.1,0.2,0.1,800,0,,,,,,,,,,,,,,,,,,,
3044260,1480654299928,0,93.6,2.4,151.9,54,139.2,14.97,-0.04,0.06,1.0,-3.1,0.2,0.1,780,0,1,0,0.0,0,37.478367,-122.203728,0.0,0.0,13.5,8,3,2.3,0,0.0,-1,0.0,0.0,0.0,0
3044280,1480654299948,,,,,,,,-0.04,0.07,1.0,-3.1,0.2,0.1,800,0,,,,,,,,,,,,,,,,,,,
3044300,1480654299968,,,,,,,,-0.04,0.07,1.0,-3.1,0.2,0.1,800,0,,,,,,,,,,,,,,,,,,,
3044320,1480654299995,,,,,,,,-0.05,0.06,1.0,-3.1,0.2,0.1,800,0,,,,,,,,,,,,,,,,,,,
3044340,1480654300015,,,,,,,,-0.04,0.07,1.0,-3.1,0.3,0.0,800,0,,,,,,,,,,,,,,,,,,,
3044360,1480654300035,,,,,60,,,-0.04,0.07,1.0,-3.1,0.3,0.0,800,0,1,0,0.0,0,37.478367,-122.203728,0.0,0.0,13.5,8,3,2.3,0,0.0,-1,0.0,,0.0,0
3044380,1480654300055,,,,,,,,-0.04,0.07,0.99,-3.1,0.4,0.0,800,0,,,,,,,,,,,,,,,,,,,
3044400,1480654300075,,,,,,,,-0.04,0.07,1.0,-3.1,0.3,0.1,800,0,,,,,,,,,,,,,,,,,,,
3044420,1480654300095,,,,,,,,-0.05,0.07,1.0,-3.1,0.3,0.0,800,0,,,,,,,,,,,,,,,,,,,
3044440,1480654300115,,,,,,,,-0.05,0.07,1.0,-3.1,0.3,0.0,800,0,,,,,,,,,,,,,,,,,,,
3044460,1480654300135,0,92.0,,150.6,55,138.1,,-0.05,0.07,1.0,-3.1,0.3,0.0,800,0,1,0,0.0,0,37.478367,-122.203728,0.0,0.0,13.5,8,3,2.3,0,0.0,-1,0.0,0.0,0.0,0
3044480,1480654300155,,,,,,,,-0.04,0.07,1.0,-3.1,0.4,0.0,800,0,,,,,,,,,,,,,,,,,,,
3044500,1480654300175,,,,,,,,-0.05,0.07,1.0,-3.1,0.3,0.1,800,0,,,,,,,,,,,,,,,,,,,
3044520,1480654300294,,,,,,,,-0.05,0.07,1.0,-3.1,0.3,0.0,800,0,,,,,,,,,,,,,,,,,,,
3044540,1480654300314,,,,,,,,-0.05,0.07,1.0,-3.1,0.3,0.0,800,0,,,,,,,,,,,,,,,,,,,
3044560,1480654300334,,,,,56,,,-0.05,0.07,1.0,-3.1,0.3,0.0,800,0,1,0,0.0,0,37.478367,-122.203728,0.0,0.0,13.5,8,3,2.3,0,0.0,-1,0.0,,0.0,0
3044580,1480654300354,,,,,,,,-0.04,0.07,1.0,-3.1,0.4,0.0,800,0,,,,,,,,,,,,,,,,,,,
3044600,1480654300374,,,,,,,,-0.05,0.07,1.0,-3.1,0.4,0.1,800,0,,,,,,,,,,,,,,,,,,,
3044620,1480654300394,,,,,,,,-0.05,0.07,0.99,-3.1,0.3,0.0,800,0,,,,,,,,,,,,,,,,,,,
3044640,1480654300414,,,,,,,,-0.05,0.07,1.0,-3.1,0.4,0.0,800,0,,,,,,,,,,,,,,,,,,,
3044660,1480654300434,0,93.6,,151.8,54,139.2,,-0.05,0.06,1.0,-3.1,0.3,0.0,800,0,1,0,0.0,0,37.478367,-122.203728,0.0,0.0,13.5,8,3,2.3,0,0.0,-1,0.0,0.0,0.0,0
3044680,1480654300454,,,,,,,,-0.05,0.06,1.0,-3.1,0.4,-0.0,800,0,,,,,,,,,,,,,,,,,,,
3044700,1480654300474,,,,,,,,-0.05,0.07,1.0,-3.1,0.3,0.0,780,0,,,,,,,,,,,,,,,,,,,
3044720,1480654300395,,,,,,,,-0.05,0.07,1.0,-3.1,0.3,-0.0,800,0,,,,,,,,,,,,,,,,,,,
3044740,1480654300415,,,,,,,,-0.05,0.07,1.0,-3.1,0.3,-0.0,800,0,,,,,,,,,,,,,,,,,,,
3044760,1480654300435,,,,,60,,,-0.05,0.07,1.0,-3.1,0.3,-0.0,800,0,1,0,0.0,0,37.478367,-122.203728,0.0,0.0,13.5,8,3,2.3,0,0.0,-1,0.0,,0.0,0
3044780,1480654300455,,,,,,,,-0.05,0.06,1.0,-3.2,0.3,-0.0,780,0,,,,,,,,,,,,,,,,,,,
3044800,1480654300475,,,,,,,,-0.05,0.07,1.0,-3.2,0.3,0.0,780,0,,,,,,,,,,,,,,,,,,,
3044820,1480654300495,,,,,,,,-0.05,0.07,1.0,-3.1,0.2,0.0,800,0,,,,,,,,,,,,,,,,,,,
3044840,1480654300515,,,,,,,,-0.05,0.07,1.0,-3.1,0.2,0.0,780,0,,,,,,,,,,,,,,,,,,,
3044860,1480654300535,0,90.8,,150.8,55,138.0,,-0.05,0.06,1.0,-3.1,0.2,0.0,780,0,1,0,0.0,0,37.478367,-122.203728,0.0,0.0,13.5,8,3,2.3,0,0.0,-1,0.0,0.0,0.0,0
3044880,1480654300555,,,,,,,,-0.05,0.07,1.0,-3.1,0.3,0.0,780,0,,,,,,,,,,,,,,,,,,,
3044900,1480654300575,,,,,,,,-0.05,0.07,1.0,-3.1,0.2,0.0,800,0,,,,,,,,,,,,,,,,,,,
3044920,1480654300595,,,,,,,,-0.05,0.07,1.0,-3.1,0.2,0.0,780,0,,,,,,,,,,,,,,,,,,,
3044940,1480654300615,,,,,,,,-0.05,0.06,1.0,-3.1,0.2,0.0,780,0,,,,,,,,,,,,,,,,,,,
3044960,1480654300635,,,,,53,,,-0.05,0.06,1.0,-3.1,0.2,0.0,780,0,1,0,0.0,0,37.478367,-122.203728,0.0,0.0,13.5,8,3,2.3,0,0.0,-1,0.0,,0.0,0
3044980,1480654300655,,,,,,,,-0.05,0.06,1.0,-3.1,0.3,0.0,780,0,,,,,,,,,,,,,,,,,,,
3045000,1480654300675,,,,,,,,-0.05,0.06,1.0,-3.1,0.2,0.1,780,0,,,,,,,,,,,,,,,,,,,
3045020,1480654300695,,,,,,,,-0.05,0.06,1.0,-3.1,0.2,0.1,800,0,,,,,,,,,,,,,,,,,,,
3045040,1480654300715,,,,,,,,-0.05,0.06,1.0,-3.1,0.2,0.1,800,0,,,,,,,,,,,,,,,,,,,
3045060,1480654300735,0,92.1,,150.6,60,137.9,,-0.05,0.06,1.0,-3.1,0.2,0.1,800,0,1,0,0.0,0,37.478367,-122.203728,0.0,0.0,13.5,8,3,2.3,0,0.0,-1,0.0,0.0,0.0,0
3045080,1480654300755,,,,,,,,-0.05,0.06,1.0,-3.1,0.3,0.1,800,0,,,,,,,,,,,,,,,,,,,
3045100,1480654300775,,,,,,,,-0.05,0.06,1.0,-3.1,0.2,0.1,800,0,,,,,,,,,,,,,,,,,,,
3045120,1480654300795,,,,,,,,-0.05,0.06,1.0,-3.1,0.2,0.1,800,0,,,,,,,,,,,,,,,,,,,
3045140,1480654300815,,,,,,,,-0.05,0.06,1.0,-3.1,0.2,0.0,780,0,,,,,,,,,,,,,,,,,,,
3045160,1480654300835,,,,,54,,,-0.05,0.06,1.0,-3.1,0.2,0.0,780,0,1,0,0.0,0,37.478367,-122.203728,0.0,0.0,13.5,8,3,2.3,0,0.0,-1,0.0,,0.0,0
3045180,1480654300855,,,,,,,,-0.05,0.06,1.0,-3.1,0.2,0.0,800,0,,,,,,,,,,,,,,,,,,,
3045200,1480654300875,,,,,,,,-0.04,0.06,1.0,-3.2,0.2,0.0,800,0,,,,,,,,,,,,,,,,,,,
3045220,1480654300895,,,,,,,,-0.04,0.06,1.0,-3.1,0.2,0.0,800,0,,,,,,,,,,,,,,,,,,,
3045240,1480654300908,,,,,,,,-0.05,0.06,1.0,-3.2,0.2,0.0,800,0,,,,,,,,,,,,,,,,,,,
3045260,1480654300928,0,93.0,2.5,152.2,56,139.3,14.88,-0.04,0.06,1.0,-3.2,0.1,0.0,800,0,1,0,0.0,0,37.478367,-122.203728,0.0,0.0,13.5,8,3,2.3,0,0.0,-1,0.0,0.0,0.0,0
3045280,1480654300948,,,,,,,,-0.04,0.06,1.0,-3.2,0.1,0.0,800,0,,,,,,,,,,,,,,,,,,,
3045300,1480654300968,,,,,,,,-0.04,0.06,1.0,-3.1,0.1,0.1,800,0,,,,,,,,,,,,,,,,,,,
3045320,1480654301094,,,,,,,,-0.04,0.06,1.0,-3.2,0.1,0.1,800,0,,,,,,,,,,,,,,,,,,,
3045340,1480654301114,,,,,,,,-0.05,0.07,1.0,-3.2,0.1,0.1,800,0,,,,,,,,,,,,,,,,,,,
3045360,1480654301134,,,,,53,,,-0.05,0.07,1.0,-3.2,0.1,0.1,800,0,1,0,0.0,0,37.478367,-122.203728,0.0,0.0,13.5,8,3,1.9,0,0.0,-1,0.0,,0.0,0
3045380,1480654301154,,,,,,,,-0.05,0.07,1.0,-3.2,0.1,0.1,800,0,,,,,,,,,,,,,,,,,,,
3045400,1480654301174,,,,,,,,-0.05,0.07,1.0,-3.2,0.2,0.1,800,0,,,,,,,,,,,,,,,,,,,
3045420,1480654301194,,,,,,,,-0.05,0.07,1.0,-3.2,0.2,0.1,800,0,,,,,,,,,,,,,,,,,,,
3045440,1480654301214,,,,,,,,-0.05,0.07,1.0,-3.2,0.2,0.1,780,0,,,,,,,,,,,,,,,,,,,
3045460,1480654301234,0,93.5,,152.3,53,139.4,,-0.05,0.07,1.0,-3.1,0.2,0.1,780,0,1,0,0.0,0,37.478367,-122.203728,0.0,0.0,13.5,8,3,1.9,0,0.0,-1,0.0,0.0,0.0,0
3045480,1480654301254,,,,,,,,-0.05,0.07,1.0,-3.2,0.2,0.1,800,0,,,,,,,,,,,,,,,,,,,
3045500,1480654301274,,,,,,,,-0.05,0.07,1.0,-3.2,0.2,0.1,800,0,,,,,,,,,,,,,,,,,,,
3045520,1480654301195,,,,,,,,-0.05,0.07,1.0,-3.1,0.2,0.1,780,0,,,,,,,,,,,,,,,,,,,
3045540,1480654301215,,,,,,,,-0.05,0.07,1.0,-3.1,0.2,0.0,800,0,,,,,,,,,,,,,,,,,,,
3045560,1480654301235,,,,,57,,,-0.05,0.07,1.0,-3.1,0.2,0.0,800,0,1,0,0.0,0,37.478367,-122.203728,0.0,0.0,13.5,8,3,1.9,0,0.0,-1,0.0,,0.0,0
3045580,1480654301255,,,,,,,,-0.05,0.07,1.0,-3.1,0.1,0.0,800,0,,,,,,,,,,,,,,,,,,,
3045600,1480654301275,,,,,,,,-0.05,0.07,1.0,-3.1,0.2,0.0,800,0,,,,,,,,,,,,,,,,,,,
3045620,1480654301295,,,,,,,,-0.05,0.07,1.0,-3.1,0.2,0.0,800,0,,,,,,,,,,,,,,,,,,,
3045640,1480654301315,,,,,,,,-0.05,0.07,1.0,-3.1,0.2,0.0,800,0,,,,,,,,,,,,,,,,,,,
3045660,1480654301335,0,92.3,,152.0,55,139.1,,-0.05,0.07,1.01,-3.1,0.2,0.0,800,0,1,0,0.0,0,37.478367,-122.203728,0.0,0.0,13.5,8,3,1.9,0,0.0,-1,0.0,0.0,0.0,0
3045680,1480654301355,,,,,,,,-0.05,0.07,1.0,-3.1,0.2,0.0,800,0,,,,,,,,,,,,,,,,,,,
3045700,1480654301375,,,,,,,,-0.05,0.07,1.0,-3.1,0.3,0.0,800,0,,,,,,,,,,,,,,,,,,,
3045720,1480654301395,,,,,,,,-0.05,0.07,1.01,-3.1,0.2,0.0,800,0,,,,,,,,,,,,,,,,,,,
3045740,1480654301415,,,,,,,,-0.05,0.07,1.01,-3.1,0.3,0.0,800,0,,,,,,,,,,,,,,,,,,,
3045760,1480654301435,,,,,56,,,-0.05,0.07,1.01,-3.1,0.3,0.0,800,0,1,0,0.0,0,37.478367,-122.203728,0.0,0.0,13.5,8,3,1.9,0,0.0,-1,0.0,,0.0,0
3045780,1480654301455,,,,,,,,-0.05,0.07,1.01,-3.1,0.3,0.0,800,0,,,,,,,,,,,,,,,,,,,
3045800,1480654301475,,,,,,,,-0.05,0.07,1.01,-3.1,0.4,0.0,800,0,,,,,,,,,,,,,,,,,,,
3045820,1480654301495,,,,,,,,-0.05,0.07,1.01,-3.1,0.3,0.0,800,0,,,,,,,,,,,,,,,,,,,
3045840,1480654301515,,,,,,,,-0.05,0.07,1.01,-3.1,0.3,0.0,800,0,,,,,,,,,,,,,,,,,,,
3045860,1480654301535,1,93.6,,152.3,56,139.3,,-0.06,0.07,1.01,-3.1,0.3,-0.0,800,0,1,0,0.0,0,37.478367,-122.203728,0.0,0.0,13.5,8,3,1.9,0,0.0,-1,0.0,0.0,0.0,0
3045880,1480654301555,,,,,,,,-0.05,0.07,1.01,-3.1,0.3,-0.0,800,0,,,,,,,,,,,,,,,,,,,
3045900,1480654301575,,,,,,,,-0.05,0.07,1.01,-3.1,0.3,0.0,800,0,,,,,,,,,,,,,,,,,,,
3045920,1480654301595,,,,,,,,-0.05,0.07,1.0,-3.1,0.2,0.1,800,0,,,,,,,,,,,,,,,,,,,
3045940,1480654301615,,,,,,,,-0.05,0.07,1.0,-3.1,0.2,0.1,820,0,,,,,,,,,,,,,,,,,,,
3045960,1480654301635,,,,,56,,,-0.05,0.07,1.01,-3.1,0.2,0.0,800,0,1,0,0.0,0,37.478367,-122.203728,0.0,0.0,13.5,8,3,1.9,0,0.0,-1,0.0,,0.0,0
3045980,1480654301655,,,,,,,,-0.05,0.07,1.0,-3.1,0.3,0.0,800,0,,,,,,,,,,,,,,,,,,,
3046000,1480654301675,,,,,,,,-0.05,0.07,1.0,-3.1,0.3,0.0,800,0,,,,,,,,,,,,,,,,,,,
3046020,1480654301695,,,,,,,,-0.05,0.07,1.0,-3.1,0.3,0.0,800,0,,,,,,,,,,,,,,,,,,,
3046040,1480654301715,,,,,,,,-0.05,0.07,1.0,-3.1,0.2,0.0,800,0,,,,,,,,,,,,,,,,,,,
3046060,1480654301735,0,92.7,,152.2,56,139.2,,-0.05,0.07,1.0,-3.1,0.3,0.1,820,0,1,0,0.0,0,37.478367,-122.203728,0.0,0.0,13.5,8,3,1.9,0,0.0,-1,0.0,0.0,0.0,0
3046080,1480654301755,,,,,,,,-0.05,0.07,1.0,-3.1,0.3,0.0,820,0,,,,,,,,,,,,,,,,,,,
3046100,1480654301775,,,,,,,,-0.05,0.07,1.0,-3.1,0.3,0.0,820,0,,,,,,,,,,,,,,,,,,,
3046120,1480654301894,,,,,,,,-0.05,0.07,1.0,-3.1,0.4,0.0,800,0,,,,,,,,,,,,,,,,,,,
3046140,1480654301914,,,,,,,,-0.04,0.07,1.0,-3.1,0.3,0.1,800,0,,,,,,,,,,,,,,,,,,,
3046160,1480654301934,,,,,59,,,-0.05,0.07,1.0,-3.1,0.3,0.1,820,0,1,0,0.0,0,37.478367,-122.203728,0.0,0.0,13.5,8,3,1.9,0,0.0,-1,0.0,,0.0,0
3046180,1480654301954,,,,,,,,-0.05,0.06,1.0,-3.1,0.3,0.1,820,0,,,,,,,,,,,,,,,,,,,
3046200,1480654301974,,,,,,,,-0.05,0.06,1.0,-3.1,0.3,0.1,820,0,,,,,,,,,,,,,,,,,,,
3046220,1480654301994,,,,,,,,-0.05,0.06,1.0,-3.1,0.2,0.1,820,0,,,,,,,,,,,,,,,,,,,
3046240,1480654302014,,,,,,,,-0.05,0.07,1.0,-3.1,0.3,0.1,820,0,,,,,,,,,,,,,,,,,,,
3046260,1480654302034,0,93.6,2.3,152.2,59,139.3,14.94,-0.05,0.07,1.0,-3.1,0.2,0.1,820,0,1,0,0.0,0,37.478367,-122.203728,0.0,0.0,13.5,8,3,1.9,0,0.0,-1,0.0,0.0,0.0,0
3046280,1480654302054,,,,,,,,-0.05,0.07,1.0,-3.1,0.3,0.1,820,0,,,,,,,,,,,,,,,,,,,
3046300,1480654302074,,,,,,,,-0.05,0.07,1.0,-3.1,0.3,0.1,820,0,,,,,,,,,,,,,,,,,,,
3046320,1480654301995,,,,,,,,-0.05,0.06,1.0,-3.1,0.3,0.1,820,0,,,,,,,,,,,,,,,,,,,
3046340,1480654302015,,,,,,,,-0.05,0.07,1.0,-3.1,0.3,0.1,820,0,,,,,,,,,,,,,,,,,,,
3046360,1480654302035,,,,,55,,,-0.05,0.07,1.0,-3.1,0.3,0.1,820,0,1,0,0.0,0,37.478367,-122.203728,0.0,0.0,13.5,8,3,1.9,0,0.0,-1,0.0,,0.0,0
3046380,1480654302055,,,,,,,,-0.05,0.07,1.0,-3.1,0.2,0.1,820,0,,,,,,,,,,,,,,,,,,,
3046400,1480654302075,,,,,,,,-0.05,0.07,1.0,-3.1,0.2,0.1,820,0,,,,,,,,,,,,,,,,,,,
3046420,1480654302095,,,,,,,,-0.05,0.07,1.0,-3.1,0.2,0.1,800,0,,,,,,,,,,,,,,,,,,,
3046440,1480654302115,,,,,,,,-0.05,0.07,1.0,-3.1,0.2,0.1,800,0,,,,,,,,,,,,,,,,,,,
3046460,1480654302135,0,90.9,,151.4,53,138.2,,-0.04,0.07,1.0,-3.1,0.3,0.1,800,0,1,0,0.0,0,37.478367,-122.203728,0.0,0.0,13.5,8,3,1.9,0,0.0,-1,0.0,0.0,0.0,0
3046480,1480654302155,,,,,,,,-0.04,0.07,1.0,-3.1,0.3,0.1,800,0,,,,,,,,,,,,,,,,,,,
3046500,1480654302175,,,,,,,,-0.05,0.07,1.0,-3.1,0.3,0.1,800,0,,,,,,,,,,,,,,,,,,,
3046520,1480654302195,,,,,,,,-0.05,0.07,1.0,-3.1,0.3,0.1,800,0,,,,,,,,,,,,,,,,,,,
3046540,1480654302215,,,,,,,,-0.05,0.07,1.0,-3.1,0.3,0.1,800,0,,,,,,,,,,,,,,,,,,,
3046560,1480654302235,,,,,57,,,-0.05,0.07,1.0,-3.1,0.2,0.1,800,0,1,0,0.0,0,37.478367,-122.203728,0.0,0.0,13.5,8,3,1.9,0,0.0,-1,0.0,,0.0,0
3046580,1480654302255,,,,,,,,-0.05,0.07,1.0,-3.1,0.3,0.1,800,0,,,,,,,,,,,,,,,,,,,
3046600,1480654302275,,,,,,,,-0.05,0.07,1.0,-3.1,0.2,0.1,800,0,,,,,,,,,,,,,,,,,,,
3046620,1480654302295,,,,,,,,-0.05,0.06,1.0,-3.1,0.3,0.1,800,0,,,,,,,,,,,,,,,,,,,
3046640,1480654302315,,,,,,,,-0.05,0.06,1.0,-3.1,0.3,0.1,800,0,,,,,,,,,,,,,,,,,,,
3046660,1480654302335,0,92.6,,152.3,54,139.7,,-0.05,0.06,1.0,-3.1,0.3,0.1,800,0,1,0,0.0,0,37.478367,-122.203728,0.0,0.0,13.5,8,3,1.9,0,0.0,-1,0.0,0.0,0.0,0
3046680,1480654302355,,,,,,,,-0.05,0.06,1.0,-3.1,0.3,0.0,820,0,,,,,,,,,,,,,,,,,,,
3046700,1480654302375,,,,,,,,-0.05,0.06,1.0,-3.1,0.2,0.1,800,0,,,,,,,,,,,,,,,,,,,
3046720,1480654302394,,,,,,,,-0.05,0.06,1.0,-3.1,0.2,0.1,800,0,,,,,,,,,,,,,,,,,,,
