"Interval"|"ms"|0|0|1,"Utc"|"ms"|0|0|1,"FuelLevel"|"F"|0|100|5,"OilTemp"|"F"|0.0|300.0|5,"CoolantPressPSI"|"PSI"|0.0|20.0|1,"Coolant"|"F"|0.0|300.0|5,"OilPress"|"PSI"|0|150|10,"EngineTemp"|"F"|0.0|300.0|5,"Battery"|"Volts"|0.0|20.0|1,"AccelX"|"G"|-3.0|3.0|50,"AccelY"|"G"|-3.0|3.0|50,"AccelZ"|"G"|-3.0|3.0|50,"Yaw"|"Deg/Sec"|-300.0|300.0|50,"Pitch"|"Deg/Sec"|-300.0|300.0|50,"Roll"|"Deg/Sec"|-300.0|300.0|50,"RPM"|""|0|10000|50,"Driveshaft"|"RPM"|0|5000|50,"GPIO1"|""|0|1|10,"GPIO2"|""|0|1|10,"GearRatio"|""|-5.0|5.0|10,"Gear"|""|-1|5|10,"Latitude"|"Degrees"|-180.0|180.0|10,"Longitude"|"Degrees"|-180.0|180.0|10,"Speed"|"MPH"|0.0|150.0|10,"Distance"|"Miles"|0.0|0.0|10,"Altitude"|"Feet"|0.0|4000.0|10,"GPSSats"|""|0|20|10,"GPSQual"|""|0|5|10,"GPSDOP"|""|0.0|20.0|10,"LapCount"|""|0|0|10,"LapTime"|"Min"|0.0|0.0|10,"Sector"|""|0|0|10,"SectorTime"|"Min"|0.0|0.0|10,"PredTime"|"Min"|0.0|0.0|5,"ElapsedTime"|"Min"|0.0|0.0|10,"CurrentLap"|""|0|0|10
4859760,1480656115552,,,,,0,,,-0.05,0.06,1.01,-3.1,-0.1,-0.0,180,0,1,0,0.0,0,37.478371,-122.203674,0.0,0.0,41.8,10,3,1.4,0,0.0,-1,0.0,,0.0,0
4859780,1480656115572,,,,,,,,-0.05,0.06,1.01,-3.1,-0.2,-0.1,180,0,,,,,,,,,,,,,,,,,,,
4859800,1480656115592,,,,,,,,-0.05,0.06,1.01,-3.1,-0.1,-0.1,180,0,,,,,,,,,,,,,,,,,,,
4859820,1480656115612,,,,,,,,-0.05,0.07,1.01,-3.1,-0.1,-0.1,180,0,,,,,,,,,,,,,,,,,,,
4859840,1480656115632,,,,,,,,-0.05,0.07,1.01,-3.2,-0.0,0.0,220,0,,,,,,,,,,,,,,,,,,,
4859860,1480656115652,0,99.1,,119.4,0,121.7,,-0.05,0.07,1.01,-3.2,-0.1,0.0,220,0,1,0,0.0,0,37.478371,-122.203674,0.0,0.0,41.8,10,3,1.4,0,0.0,-1,0.0,0.0,0.0,0
4859880,1480656115672,,,,,,,,-0.05,0.07,1.01,-3.1,-0.1,0.0,220,0,,,,,,,,,,,,,,,,,,,
4859900,1480656115593,,,,,,,,-0.05,0.07,1.01,-3.1,-0.1,0.0,220,0,,,,,,,,,,,,,,,,,,,
4859920,1480656115613,,,,,,,,-0.05,0.08,1.01,-3.2,-0.1,0.1,260,0,,,,,,,,,,,,,,,,,,,
4859940,1480656115633,,,,,,,,-0.05,0.07,1.01,-3.2,-0.1,0.0,260,0,,,,,,,,,,,,,,,,,,,
4859960,1480656115653,,,,,0,,,-0.05,0.07,1.01,-3.1,-0.1,0.0,260,0,1,0,0.0,0,37.478371,-122.203674,0.0,0.0,41.8,10,3,1.4,0,0.0,-1,0.0,,0.0,0
4859980,1480656115673,,,,,,,,-0.05,0.08,1.01,-3.2,-0.0,0.0,340,0,,,,,,,,,,,,,,,,,,,
4860000,1480656115693,,,,,,,,-0.05,0.06,1.0,-3.1,0.0,-0.1,340,0,,,,,,,,,,,,,,,,,,,
4860020,1480656115713,,,,,,,,-0.04,0.07,1.0,-3.2,0.1,-0.0,520,0,,,,,,,,,,,,,,,,,,,
4860040,1480656115733,,,,,,,,-0.05,0.05,1.01,-3.1,0.2,-0.1,640,0,,,,,,,,,,,,,,,,,,,
4860060,1480656115753,0,96.0,,117.2,0,120.3,,-0.05,0.05,1.0,-3.1,0.2,-0.1,640,0,1,0,0.0,0,37.478371,-122.203674,0.0,0.0,41.8,10,3,1.4,0,0.0,-1,0.0,0.0,0.0,0
4860080,1480656115773,,,,,,,,-0.05,0.05,1.0,-3.1,0.2,-0.1,740,0,,,,,,,,,,,,,,,,,,,
4860100,1480656115794,,,,,,,,-0.04,0.05,0.99,-3.1,0.1,-0.1,820,0,,,,,,,,,,,,,,,,,,,
4860120,1480656115814,,,,,,,,-0.04,0.06,1.0,-3.2,0.1,-0.0,860,0,,,,,,,,,,,,,,,,,,,
4860140,1480656115834,,,,,,,,-0.05,0.06,1.0,-3.1,0.1,0.0,820,0,,,,,,,,,,,,,,,,,,,
4860160,1480656115854,,,,,2,,,-0.05,0.06,1.0,-3.1,-0.0,0.0,820,0,1,0,0.0,0,37.478371,-122.203674,0.0,0.0,41.8,10,3,1.4,0,0.0,-1,0.0,,0.0,0
4860180,1480656115874,,,,,,,,-0.05,0.06,1.0,-3.1,0.1,-0.0,760,0,,,,,,,,,,,,,,,,,,,
4860200,1480656115894,,,,,,,,-0.05,0.06,1.0,-3.1,0.2,-0.0,780,20,,,,,,,,,,,,,,,,,,,
4860220,1480656115907,,,,,,,,-0.05,0.07,1.01,-3.1,0.1,-0.0,780,20,,,,,,,,,,,,,,,,,,,
4860240,1480656115927,,,,,,,,-0.05,0.07,1.01,-3.1,0.1,-0.0,740,1538461,,,,,,,,,,,,,,,,,,,
4860260,1480656115947,0,98.7,1.7,119.5,4,119.0,14.48,-0.05,0.07,1.01,-3.1,0.1,-0.1,740,0,1,0,39.0,0,37.478371,-122.203674,0.0,0.0,41.8,10,3,1.4,0,0.0,-1,0.0,0.0,0.0,0
4860280,1480656115967,,,,,,,,-0.05,0.06,1.0,-3.1,0.0,-0.1,760,0,,,,,,,,,,,,,,,,,,,
4860300,1480656115993,,,,,,,,-0.05,0.07,1.0,-3.1,-0.0,-0.0,720,0,,,,,,,,,,,,,,,,,,,
4860320,1480656116013,,,,,,,,-0.04,0.07,1.0,-3.0,-0.1,-0.1,720,0,,,,,,,,,,,,,,,,,,,
4860340,1480656116033,,,,,,,,-0.04,0.07,1.0,-3.1,-0.1,-0.1,680,0,,,,,,,,,,,,,,,,,,,
4860360,1480656116053,,,,,4,,,-0.04,0.07,1.01,-3.1,-0.0,-0.0,740,0,1,0,0.0,0,37.478371,-122.203674,0.0,0.0,41.8,10,3,1.4,0,0.0,-1,0.0,,0.0,0
4860380,1480656116073,,,,,,,,-0.05,0.06,1.01,-3.1,0.1,-0.0,780,0,,,,,,,,,,,,,,,,,,,
4860400,1480656116094,,,,,,,,-0.04,0.06,1.01,-3.0,0.1,-0.0,800,0,,,,,,,,,,,,,,,,,,,
4860420,1480656116114,,,,,,,,-0.04,0.06,1.0,-3.0,0.0,-0.0,800,0,,,,,,,,,,,,,,,,,,,
4860440,1480656116134,,,,,,,,-0.05,0.06,1.0,-3.1,0.1,-0.0,860,0,,,,,,,,,,,,,,,,,,,
4860460,1480656116154,0,98.7,,119.8,5,121.2,,-0.05,0.05,1.0,-3.0,0.0,-0.0,880,0,1,0,0.0,0,37.478371,-122.203674,0.0,0.0,41.8,10,3,1.4,0,0.0,-1,0.0,0.0,0.0,0
4860480,1480656116174,,,,,,,,-0.05,0.05,1.0,-3.0,0.2,-0.1,920,0,,,,,,,,,,,,,,,,,,,
4860500,1480656116293,,,,,,,,-0.04,0.06,0.99,-3.1,0.1,-0.0,920,0,,,,,,,,,,,,,,,,,,,
4860520,1480656116313,,,,,,,,-0.04,0.06,0.99,-3.1,-0.2,-0.0,960,0,,,,,,,,,,,,,,,,,,,
4860540,1480656116333,,,,,,,,-0.05,0.06,0.99,-3.1,-0.4,-0.0,960,0,,,,,,,,,,,,,,,,,,,
4860560,1480656116353,,,,,6,,,-0.06,0.06,1.0,-3.1,-0.2,-0.1,980,0,1,0,0.0,0,37.478371,-122.203674,0.0,0.0,41.8,10,3,1.4,0,0.0,-1,0.0,,0.0,0
4860580,1480656116373,,,,,,,,-0.06,0.06,1.01,-3.1,0.1,-0.1,980,0,,,,,,,,,,,,,,,,,,,
4860600,1480656116393,,,,,,,,-0.05,0.06,1.01,-3.1,0.3,-0.1,980,0,,,,,,,,,,,,,,,,,,,
4860620,1480656116413,,,,,,,,-0.05,0.05,1.01,-3.1,0.4,-0.1,1020,0,,,,,,,,,,,,,,,,,,,
4860640,1480656116433,,,,,,,,-0.05,0.05,1.01,-3.1,0.5,-0.0,1020,0,,,,,,,,,,,,,,,,,,,
4860660,1480656116453,0,98.7,,119.7,6,120.9,,-0.05,0.05,1.01,-3.1,0.5,-0.0,1040,0,1,0,0.0,0,37.478371,-122.203674,0.0,0.0,41.8,10,3,1.4,0,0.0,-1,0.0,0.0,0.0,0
4860680,1480656116473,,,,,,,,-0.05,0.06,1.02,-3.1,0.4,-0.0,1060,0,,,,,,,,,,,,,,,,,,,
4860700,1480656116392,,,,,,,,-0.05,0.07,1.02,-3.1,0.2,0.0,1080,0,,,,,,,,,,,,,,,,,,,
4860720,1480656116412,,,,,,,,-0.05,0.07,1.01,-3.1,0.1,0.0,1080,0,,,,,,,,,,,,,,,,,,,
4860740,1480656116432,,,,,,,,-0.05,0.07,1.01,-3.1,0.2,0.1,1100,0,,,,,,,,,,,,,,,,,,,
4860760,1480656116452,,,,,10,,,-0.05,0.06,1.02,-3.1,0.2,0.0,1120,0,1,0,0.0,0,37.478371,-122.203674,0.0,0.0,41.8,10,3,1.4,0,0.0,-1,0.0,,0.0,0
4860780,1480656116472,,,,,,,,-0.05,0.06,1.01,-3.1,0.2,0.0,1120,0,,,,,,,,,,,,,,,,,,,
4860800,1480656116494,,,,,,,,-0.05,0.05,1.01,-3.1,0.2,0.0,1140,0,,,,,,,,,,,,,,,,,,,
4860820,1480656116514,,,,,,,,-0.05,0.05,1.0,-3.1,0.1,0.0,1140,0,,,,,,,,,,,,,,,,,,,
4860840,1480656116534,,,,,,,,-0.05,0.04,1.0,-3.1,0.1,0.0,1140,0,,,,,,,,,,,,,,,,,,,
4860860,1480656116554,0,98.2,,117.6,15,119.2,,-0.05,0.05,1.0,-3.1,0.0,0.0,1140,0,1,0,0.0,0,37.478371,-122.203674,0.0,0.0,41.8,10,3,1.4,0,0.0,-1,0.0,0.0,0.0,0
4860880,1480656116574,,,,,,,,-0.05,0.05,1.01,-3.1,0.1,0.0,1160,0,,,,,,,,,,,,,,,,,,,
4860900,1480656116593,,,,,,,,-0.05,0.05,1.01,-3.1,0.2,-0.0,1160,0,,,,,,,,,,,,,,,,,,,
4860920,1480656116613,,,,,,,,-0.05,0.05,1.01,-3.1,0.2,-0.0,1160,0,,,,,,,,,,,,,,,,,,,
4860940,1480656116633,,,,,,,,-0.05,0.05,1.0,-3.1,0.2,-0.0,1140,0,,,,,,,,,,,,,,,,,,,
4860960,1480656116653,,,,,21,,,-0.05,0.05,1.0,-3.1,0.2,-0.0,1140,0,1,0,0.0,0,37.478371,-122.203674,0.0,0.0,41.8,10,3,1.4,0,0.0,-1,0.0,,0.0,0
4860980,1480656116673,,,,,,,,-0.05,0.06,1.0,-3.1,0.1,-0.0,1140,0,,,,,,,,,,,,,,,,,,,
4861000,1480656116693,,,,,,,,-0.04,0.06,1.0,-3.1,0.1,-0.0,1140,0,,,,,,,,,,,,,,,,,,,
4861020,1480656116713,,,,,,,,-0.04,0.07,1.0,-3.1,0.1,-0.0,1140,0,,,,,,,,,,,,,,,,,,,
4861040,1480656116733,,,,,,,,-0.05,0.06,1.0,-3.1,0.1,0.0,1120,0,,,,,,,,,,,,,,,,,,,
4861060,1480656116753,0,99.0,,119.8,27,120.1,,-0.05,0.05,1.01,-3.1,0.0,0.0,1120,0,1,0,0.0,0,37.478371,-122.203674,0.0,0.0,41.8,10,3,1.4,0,0.0,-1,0.0,0.0,0.0,0
4861080,1480656116773,,,,,,,,-0.05,0.06,1.0,-3.1,0.1,-0.0,1120,0,,,,,,,,,,,,,,,,,,,
4861100,1480656116794,,,,,,,,-0.05,0.05,1.0,-3.1,0.2,-0.1,1120,0,,,,,,,,,,,,,,,,,,,
4861120,1480656116814,,,,,,,,-0.05,0.06,1.0,-3.1,0.0,-0.1,1120,0,,,,,,,,,,,,,,,,,,,
4861140,1480656116834,,,,,,,,-0.04,0.07,1.0,-3.1,-0.1,-0.0,1100,0,,,,,,,,,,,,,,,,,,,
4861160,1480656116854,,,,,34,,,-0.04,0.07,1.01,-3.1,-0.0,-0.0,1080,0,1,0,0.0,0,37.478371,-122.203674,0.0,0.0,41.8,10,3,1.4,0,0.0,-1,0.0,,0.0,0
4861180,1480656116874,,,,,,,,-0.04,0.07,1.01,-3.1,0.0,-0.0,1080,0,,,,,,,,,,,,,,,,,,,
4861200,1480656116894,,,,,,,,-0.05,0.06,1.01,-3.2,0.0,-0.0,1080,0,,,,,,,,,,,,,,,,,,,
4861220,1480656116908,,,,,,,,-0.05,0.07,1.0,-3.2,-0.0,-0.0,1060,0,,,,,,,,,,,,,,,,,,,
4861240,1480656116928,,,,,,,,-0.05,0.06,1.01,-3.1,-0.0,-0.0,1060,0,,,,,,,,,,,,,,,,,,,
4861260,1480656116948,0,98.8,2.3,120.0,42,121.2,14.87,-0.05,0.06,1.01,-3.1,-0.0,-0.0,1040,0,1,0,0.0,0,37.478371,-122.203674,0.0,0.0,41.8,10,3,1.4,0,0.0,-1,0.0,0.0,0.0,0
4861280,1480656116968,,,,,,,,-0.04,0.06,1.0,-3.1,-0.1,-0.1,1040,0,,,,,,,,,,,,,,,,,,,
4861300,1480656117093,,,,,,,,-0.05,0.06,1.01,-3.1,-0.0,-0.1,1040,0,,,,,,,,,,,,,,,,,,,
4861320,1480656117113,,,,,,,,-0.05,0.06,1.0,-3.1,0.0,-0.1,1040,0,,,,,,,,,,,,,,,,,,,
4861340,1480656117133,,,,,,,,-0.05,0.06,1.0,-3.1,0.0,-0.1,1040,0,,,,,,,,,,,,,,,,,,,
4861360,1480656117153,,,,,44,,,-0.04,0.06,1.01,-3.1,0.1,-0.1,1020,0,1,0,0.0,0,37.478371,-122.203674,0.0,0.0,41.8,10,3,1.4,0,0.0,-1,0.0,,0.0,0
4861380,1480656117173,,,,,,,,-0.05,0.06,1.01,-3.1,0.1,-0.1,1000,0,,,,,,,,,,,,,,,,,,,
4861400,1480656117193,,,,,,,,-0.05,0.06,1.01,-3.1,0.1,-0.1,1000,0,,,,,,,,,,,,,,,,,,,
4861420,1480656117213,,,,,,,,-0.05,0.07,1.01,-3.1,0.1,-0.1,1000,0,,,,,,,,,,,,,,,,,,,
4861440,1480656117233,,,,,,,,-0.05,0.07,1.02,-3.1,0.1,-0.0,1000,0,,,,,,,,,,,,,,,,,,,
4861460,1480656117253,0,96.7,,119.2,56,121.6,,-0.05,0.07,1.02,-3.1,0.1,-0.0,1000,0,1,0,0.0,0,37.478371,-122.203674,0.0,0.0,41.8,10,3,1.4,0,0.0,-1,0.0,0.0,0.0,0
4861480,1480656117273,,,,,,,,-0.05,0.07,1.03,-3.1,0.1,-0.0,1000,0,,,,,,,,,,,,,,,,,,,
4861500,1480656117194,,,,,,,,-0.05,0.07,1.02,-3.1,0.1,-0.0,980,0,,,,,,,,,,,,,,,,,,,
4861520,1480656117214,,,,,,,,-0.05,0.07,1.03,-3.1,0.1,-0.0,980,0,,,,,,,,,,,,,,,,,,,
4861540,1480656117234,,,,,,,,-0.06,0.07,1.03,-3.1,0.0,-0.0,980,0,,,,,,,,,,,,,,,,,,,
4861560,1480656117254,,,,,53,,,-0.06,0.07,1.03,-3.1,0.1,-0.0,960,0,1,0,0.0,0,37.478371,-122.203674,0.0,0.0,41.8,10,3,1.4,0,0.0,-1,0.0,,0.0,0
4861580,1480656117274,,,,,,,,-0.06,0.07,1.03,-3.1,0.1,-0.1,960,0,,,,,,,,,,,,,,,,,,,
4861600,1480656117294,,,,,,,,-0.06,0.07,1.03,-3.1,0.1,-0.1,960,0,,,,,,,,,,,,,,,,,,,
4861620,1480656117314,,,,,,,,-0.06,0.06,1.03,-3.1,0.1,-0.1,960,0,,,,,,,,,,,,,,,,,,,
4861640,1480656117334,,,,,,,,-0.06,0.07,1.02,-3.1,0.1,-0.1,940,0,,,,,,,,,,,,,,,,,,,
4861660,1480656117354,0,96.5,,117.8,53,120.5,,-0.06,0.07,1.02,-3.1,0.1,-0.1,960,0,1,0,0.0,0,37.478371,-122.203674,0.0,0.0,41.8,10,3,1.4,0,0.0,-1,0.0,0.0,0.0,0
4861680,1480656117374,,,,,,,,-0.06,0.07,1.02,-3.1,-0.0,-0.1,960,0,,,,,,,,,,,,,,,,,,,
4861700,1480656117394,,,,,,,,-0.05,0.07,1.02,-3.1,-0.1,-0.1,960,0,,,,,,,,,,,,,,,,,,,
4861720,1480656117414,,,,,,,,-0.06,0.07,1.02,-3.1,-0.1,-0.1,940,0,,,,,,,,,,,,,,,,,,,
4861740,1480656117434,,,,,,,,-0.06,0.07,1.01,-3.1,-0.1,-0.1,960,0,,,,,,,,,,,,,,,,,,,
4861760,1480656117454,,,,,59,,,-0.06,0.07,1.01,-3.1,-0.1,-0.1,940,0,1,0,0.0,0,37.478371,-122.203674,0.0,0.0,41.8,10,3,1.4,0,0.0,-1,0.0,,0.0,0
4861780,1480656117474,,,,,,,,-0.06,0.06,1.01,-3.1,-0.0,-0.2,940,0,,,,,,,,,,,,,,,,,,,
4861800,1480656117494,,,,,,,,-0.05,0.06,1.01,-3.1,-0.0,-0.2,940,0,,,,,,,,,,,,,,,,,,,
4861820,1480656117514,,,,,,,,-0.05,0.06,1.0,-3.1,-0.0,-0.2,940,0,,,,,,,,,,,,,,,,,,,
4861840,1480656117534,,,,,,,,-0.05,0.06,1.0,-3.1,-0.1,-0.1,940,0,,,,,,,,,,,,,,,,,,,
4861860,1480656117554,0,96.4,,117.8,54,120.4,,-0.05,0.06,1.0,-3.1,-0.1,-0.2,940,0,1,0,0.0,0,37.478371,-122.203674,0.0,0.0,41.8,10,3,1.4,0,0.0,-1,0.0,0.0,0.0,0
4861880,1480656117574,,,,,,,,-0.05,0.06,1.0,-3.1,-0.0,-0.1,940,0,,,,,,,,,,,,,,,,,,,
4861900,1480656117594,,,,,,,,-0.05,0.06,1.0,-3.1,0.1,-0.1,940,0,,,,,,,,,,,,,,,,,,,
4861920,1480656117614,,,,,,,,-0.05,0.06,1.0,-3.1,0.2,-0.1,940,0,,,,,,,,,,,,,,,,,,,
4861940,1480656117634,,,,,,,,-0.04,0.06,1.0,-3.1,0.2,-0.1,940,0,,,,,,,,,,,,,,,,,,,
4861960,1480656117654,,,,,57,,,-0.04,0.06,1.0,-3.1,0.0,-0.0,940,0,1,0,0.0,0,37.478371,-122.203674,0.0,0.0,41.8,10,3,1.4,0,0.0,-1,0.0,,0.0,0
4861980,1480656117674,,,,,,,,-0.04,0.07,1.0,-3.1,-0.1,-0.0,940,0,,,,,,,,,,,,,,,,,,,
4862000,1480656117694,,,,,,,,-0.04,0.07,1.01,-3.1,-0.2,-0.0,940,0,,,,,,,,,,,,,,,,,,,
4862020,1480656117714,,,,,,,,-0.05,0.07,1.02,-3.1,-0.1,-0.0,940,0,,,,,,,,,,,,,,,,,,,
4862040,1480656117734,,,,,,,,-0.05,0.06,1.02,-3.1,0.0,-0.0,940,0,,,,,,,,,,,,,,,,,,,
4862060,1480656117754,0,98.6,,119.5,57,119.3,,-0.05,0.06,1.01,-3.1,0.1,-0.0,940,0,1,0,0.0,0,37.478371,-122.203674,0.0,0.0,41.8,10,3,1.4,0,0.0,-1,0.0,0.0,0.0,0
4862080,1480656117774,,,,,,,,-0.04,0.07,1.01,-3.1,0.1,-0.0,940,0,,,,,,,,,,,,,,,,,,,
4862100,1480656117893,,,,,,,,-0.05,0.07,1.01,-3.1,-0.0,-0.0,940,0,,,,,,,,,,,,,,,,,,,
4862120,1480656117913,,,,,,,,-0.05,0.07,1.01,-3.1,-0.1,-0.1,940,0,,,,,,,,,,,,,,,,,,,
4862140,1480656117933,,,,,,,,-0.05,0.07,1.01,-3.1,-0.2,-0.1,940,0,,,,,,,,,,,,,,,,,,,
4862160,1480656117953,,,,,59,,,-0.05,0.06,1.01,-3.1,-0.2,-0.1,940,0,1,0,0.0,0,37.478371,-122.203674,0.0,0.0,41.8,10,3,1.4,0,0.0,-1,0.0,,0.0,0
4862180,1480656117973,,,,,,,,-0.05,0.06,1.01,-3.1,-0.1,-0.1,940,0,,,,,,,,,,,,,,,,,,,
4862200,1480656117993,,,,,,,,-0.05,0.06,1.01,-3.1,-0.0,-0.1,940,0,,,,,,,,,,,,,,,,,,,
4862220,1480656118013,,,,,,,,-0.05,0.06,1.0,-3.1,-0.0,-0.1,940,0,,,,,,,,,,,,,,,,,,,
4862240,1480656118033,,,,,,,,-0.05,0.06,1.0,-3.1,-0.0,-0.1,940,0,,,,,,,,,,,,,,,,,,,
4862260,1480656118053,0,98.7,2.1,120.2,62,120.9,14.83,-0.05,0.06,1.0,-3.1,-0.0,-0.1,940,0,1,0,0.0,0,37.478371,-122.203674,0.0,0.0,41.8,10,3,1.4,0,0.0,-1,0.0,0.0,0.0,0
4862280,1480656118073,,,,,,,,-0.05,0.06,1.0,-3.1,-0.0,-0.1,940,0,,,,,,,,,,,,,,,,,,,
4862300,1480656117993,,,,,,,,-0.05,0.06,1.0,-3.1,0.0,-0.0,940,0,,,,,,,,,,,,,,,,,,,
4862320,1480656118013,,,,,,,,-0.04,0.06,1.0,-3.1,0.2,-0.0,940,0,,,,,,,,,,,,,,,,,,,
4862340,1480656118033,,,,,,,,-0.04,0.06,1.0,-3.1,0.2,-0.0,940,0,,,,,,,,,,,,,,,,,,,
4862360,1480656118053,,,,,58,,,-0.04,0.06,1.0,-3.1,0.1,-0.0,940,0,1,0,0.0,0,37.478371,-122.203674,0.0,0.0,41.8,10,3,1.4,0,0.0,-1,0.0,,0.0,0
4862380,1480656118073,,,,,,,,-0.04,0.06,1.0,-3.1,-0.0,-0.0,940,0,,,,,,,,,,,,,,,,,,,
4862400,1480656118093,,,,,,,,-0.04,0.07,1.0,-3.1,-0.2,0.0,940,0,,,,,,,,,,,,,,,,,,,
4862420,1480656118113,,,,,,,,-0.05,0.07,1.0,-3.1,-0.2,-0.0,960,0,,,,,,,,,,,,,,,,,,,
4862440,1480656118133,,,,,,,,-0.05,0.07,1.0,-3.1,-0.2,-0.0,940,0,,,,,,,,,,,,,,,,,,,
4862460,1480656118153,0,98.6,,118.8,57,119.2,,-0.05,0.07,1.01,-3.1,-0.1,-0.0,940,0,1,0,0.0,0,37.478371,-122.203674,0.0,0.0,41.8,10,3,1.4,0,0.0,-1,0.0,0.0,0.0,0
4862480,1480656118173,,,,,,,,-0.05,0.07,1.01,-3.1,-0.0,-0.0,940,0,,,,,,,,,,,,,,,,,,,
4862500,1480656118193,,,,,,,,-0.05,0.07,1.01,-3.1,0.1,-0.0,940,0,,,,,,,,,,,,,,,,,,,
4862520,1480656118213,,,,,,,,-0.05,0.07,1.01,-3.1,0.1,-0.0,940,0,,,,,,,,,,,,,,,,,,,
4862540,1480656118233,,,,,,,,-0.05,0.07,1.0,-3.1,0.1,-0.0,940,0,,,,,,,,,,,,,,,,,,,
4862560,1480656118253,,,,,58,,,-0.05,0.07,1.01,-3.1,0.0,-0.0,940,0,1,0,0.0,0,37.478371,-122.203674,0.0,0.0,41.8,10,3,1.4,0,0.0,-1,0.0,,0.0,0
4862580,1480656118273,,,,,,,,-0.05,0.07,1.01,-3.1,-0.1,-0.0,940,0,,,,,,,,,,,,,,,,,,,
4862600,1480656118293,,,,,,,,-0.05,0.06,1.01,-3.1,-0.0,-0.1,940,0,,,,,,,,,,,,,,,,,,,
4862620,1480656118313,,,,,,,,-0.05,0.06,1.01,-3.1,0.0,-0.1,940,0,,,,,,,,,,,,,,,,,,,
4862640,1480656118333,,,,,,,,-0.05,0.06,1.01,-3.0,0.1,-0.1,940,0,,,,,,,,,,,,,,,,,,,
4862660,1480656118353,0,96.1,,118.8,55,121.4,,-0.05,0.05,1.0,-3.0,0.1,-0.0,940,0,1,0,0.0,0,37.478371,-122.203674,0.0,0.0,41.8,10,3,1.4,0,0.0,-1,0.0,0.0,0.0,0
4862680,1480656118373,,,,,,,,-0.05,0.05,1.0,-3.1,-0.0,-0.0,940,0,,,,,,,,,,,,,,,,,,,
4862700,1480656118393,,,,,,,,-0.05,0.05,1.0,-3.1,-0.0,-0.0,940,0,,,,,,,,,,,,,,,,,,,
4862720,1480656118410,,,,,,,,-0.05,0.05,1.0,-3.1,-0.0,-0.0,940,0,,,,,,,,,,,,,,,,,,,
4862740,1480656118430,,,,,,,,-0.05,0.06,1.0,-3.1,0.1,-0.0,940,0,,,,,,,,,,,,,,,,,,,
4862760,1480656118450,,,,,61,,,-0.04,0.06,1.0,-3.1,0.2,-0.0,940,0,1,0,0.0,0,37.478371,-122.203674,0.0,0.0,41.8,10,3,1.4,0,0.0,-1,0.0,,0.0,0
4862780,1480656118470,,,,,,,,-0.04,0.06,1.0,-3.1,0.2,-0.0,940,0,,,,,,,,,,,,,,,,,,,
4862800,1480656118493,,,,,,,,-0.04,0.06,1.0,-3.1,0.2,0.0,960,0,,,,,,,,,,,,,,,,,,,
4862820,1480656118513,,,,,,,,-0.04,0.06,1.0,-3.1,0.1,0.0,960,0,,,,,,,,,,,,,,,,,,,
4862840,1480656118533,,,,,,,,-0.04,0.07,1.0,-3.1,-0.0,0.0,960,0,,,,,,,,,,,,,,,,,,,
4862860,1480656118553,0,98.2,,120.8,56,121.6,,-0.04,0.07,1.0,-3.1,-0.1,0.1,960,0,1,0,0.0,0,37.478371,-122.203674,0.0,0.0,41.8,10,3,1.4,0,0.0,-1,0.0,0.0,0.0,0
4862880,1480656118573,,,,,,,,-0.05,0.07,1.0,-3.1,-0.2,0.1,940,0,,,,,,,,,,,,,,,,,,,
4862900,1480656118692,,,,,,,,-0.05,0.07,1.0,-3.1,-0.1,0.0,940,0,,,,,,,,,,,,,,,,,,,
4862920,1480656118712,,,,,,,,-0.05,0.07,1.01,-3.1,-0.0,0.0,940,0,,,,,,,,,,,,,,,,,,,
4862940,1480656118732,,,,,,,,-0.05,0.07,1.01,-3.2,0.0,0.0,940,0,,,,,,,,,,,,,,,,,,,
4862960,1480656118752,,,,,56,,,-0.05,0.07,1.01,-3.1,0.1,0.0,960,0,1,0,0.0,0,37.478371,-122.203674,0.0,0.0,41.8,10,3,1.4,0,0.0,-1,0.0,,0.0,0
4862980,1480656118772,,,,,,,,-0.05,0.07,1.0,-3.1,0.1,0.0,940,0,,,,,,,,,,,,,,,,,,,
4863000,1480656118792,,,,,,,,-0.05,0.07,1.0,-3.2,-0.0,-0.0,940,0,,,,,,,,,,,,,,,,,,,
4863020,1480656118812,,,,,,,,-0.05,0.08,1.0,-3.2,-0.1,-0.0,940,0,,,,,,,,,,,,,,,,,,,
4863040,1480656118832,,,,,,,,-0.05,0.07,1.0,-3.1,-0.2,-0.1,940,0,,,,,,,,,,,,,,,,,,,
4863060,1480656118852,0,97.4,,117.8,60,119.7,,-0.05,0.07,1.01,-3.1,-0.1,-0.1,960,0,1,0,0.0,0,37.478371,-122.203674,0.0,0.0,41.8,10,3,1.4,0,0.0,-1,0.0,0.0,0.0,0
4863080,1480656118872,,,,,,,,-0.05,0.06,1.01,-3.1,-0.1,-0.1,960,0,,,,,,,,,,,,,,,,,,,
4863100,1480656118793,,,,,,,,-0.05,0.06,1.01,-3.1,-0.0,-0.1,960,0,,,,,,,,,,,,,,,,,,,
4863120,1480656118813,,,,,,,,-0.05,0.06,1.0,-3.1,0.0,-0.1,960,0,,,,,,,,,,,,,,,,,,,
4863140,1480656118833,,,,,,,,-0.05,0.05,1.0,-3.1,0.1,-0.1,940,0,,,,,,,,,,,,,,,,,,,
4863160,1480656118853,,,,,58,,,-0.05,0.05,1.0,-3.1,0.0,-0.1,960,0,1,0,0.0,0,37.478371,-122.203674,0.0,0.0,41.8,10,3,1.4,0,0.0,-1,0.0,,0.0,0
4863180,1480656118873,,,,,,,,-0.05,0.05,1.0,-3.1,-0.0,-0.1,960,0,,,,,,,,,,,,,,,,,,,
4863200,1480656118893,,,,,,,,-0.05,0.05,0.99,-3.1,-0.1,-0.1,960,0,,,,,,,,,,,,,,,,,,,
4863220,1480656118907,,,,,,,,-0.05,0.05,0.99,-3.1,-0.0,-0.1,960,0,,,,,,,,,,,,,,,,,,,
4863240,1480656118927,,,,,,,,-0.05,0.05,0.99,-3.1,0.0,-0.1,960,0,,,,,,,,,,,,,,,,,,,
4863260,1480656118947,0,99.1,2.1,121.8,61,121.8,14.8,-0.05,0.05,0.99,-3.1,0.1,-0.1,960,0,1,0,0.0,0,37.478371,-122.203674,0.0,0.0,41.8,10,3,1.4,0,0.0,-1,0.0,0.0,0.0,0
4863280,1480656118967,,,,,,,,-0.04,0.05,0.99,-3.1,0.2,-0.1,940,0,,,,,,,,,,,,,,,,,,,
4863300,1480656118993,,,,,,,,-0.04,0.05,1.0,-3.1,0.2,-0.1,960,0,,,,,,,,,,,,,,,,,,,
4863320,1480656119013,,,,,,,,-0.04,0.05,1.0,-3.1,0.2,-0.0,960,0,,,,,,,,,,,,,,,,,,,
4863340,1480656119033,,,,,,,,-0.04,0.06,1.0,-3.1,0.1,0.0,960,0,,,,,,,,,,,,,,,,,,,
4863360,1480656119053,,,,,62,,,-0.04,0.06,0.99,-3.1,-0.1,0.0,940,0,1,0,0.0,0,37.478371,-122.203674,0.0,0.0,41.8,10,3,1.4,0,0.0,-1,0.0,,0.0,0
4863380,1480656119073,,,,,,,,-0.05,0.06,1.0,-3.1,-0.2,0.0,960,0,,,,,,,,,,,,,,,,,,,
4863400,1480656119094,,,,,,,,-0.05,0.06,1.0,-3.1,-0.2,0.0,940,0,,,,,,,,,,,,,,,,,,,
4863420,1480656119114,,,,,,,,-0.05,0.06,1.01,-3.1,-0.2,0.0,940,0,,,,,,,,,,,,,,,,,,,
4863440,1480656119134,,,,,,,,-0.05,0.07,1.01,-3.1,-0.1,0.1,960,0,,,,,,,,,,,,,,,,,,,
4863460,1480656119154,0,99.6,,121.4,61,120.8,,-0.05,0.07,1.01,-3.1,0.0,0.1,960,0,1,0,0.0,0,37.478371,-122.203674,0.0,0.0,41.8,10,3,1.4,0,0.0,-1,0.0,0.0,0.0,0
4863480,1480656119174,,,,,,,,-0.05,0.07,1.01,-3.1,0.1,0.1,940,0,,,,,,,,,,,,,,,,,,,
4863500,1480656119194,,,,,,,,-0.05,0.07,1.01,-3.1,0.1,0.1,940,0,,,,,,,,,,,,,,,,,,,
4863520,1480656119214,,,,,,,,-0.05,0.07,1.0,-3.1,0.0,0.0,940,0,,,,,,,,,,,,,,,,,,,
4863540,1480656119234,,,,,,,,-0.05,0.07,1.01,-3.1,-0.1,0.0,940,0,,,,,,,,,,,,,,,,,,,
4863560,1480656119254,,,,,57,,,-0.05,0.07,1.01,-3.1,-0.1,-0.0,940,0,1,0,0.0,0,37.478371,-122.203674,0.0,0.0,41.8,10,3,1.4,0,0.0,-1,0.0,,0.0,0
4863580,1480656119274,,,,,,,,-0.05,0.06,1.01,-3.1,-0.1,-0.1,960,0,,,,,,,,,,,,,,,,,,,
4863600,1480656119293,,,,,,,,-0.05,0.06,1.01,-3.1,-0.1,-0.1,940,0,,,,,,,,,,,,,,,,,,,
4863620,1480656119313,,,,,,,,-0.05,0.06,1.01,-3.1,-0.0,-0.1,940,0,,,,,,,,,,,,,,,,,,,
4863640,1480656119333,,,,,,,,-0.05,0.06,1.01,-3.1,0.0,-0.1,940,0,,,,,,,,,,,,,,,,,,,
4863660,1480656119353,1,98.7,,121.7,60,121.8,,-0.05,0.06,1.0,-3.1,-0.0,-0.0,940,0,1,0,0.0,0,37.478371,-122.203674,0.0,0.0,41.8,10,3,1.4,0,0.0,-1,0.0,0.0,0.0,0
4863680,1480656119373,,,,,,,,-0.05,0.06,1.0,-3.1,-0.1,-0.0,940,0,,,,,,,,,,,,,,,,,,,
4863700,1480656119493,,,,,,,,-0.05,0.06,1.0,-3.1,-0.0,-0.0,940,0,,,,,,,,,,,,,,,,,,,
4863720,1480656119513,,,,,,,,-0.05,0.06,1.0,-3.1,0.1,-0.0,940,0,,,,,,,,,,,,,,,,,,,
4863740,1480656119533,,,,,,,,-0.04,0.06,1.0,-3.1,0.2,-0.0,940,0,,,,,,,,,,,,,,,,,,,
4863760,1480656119553,,,,,64,,,-0.04,0.06,1.0,-3.1,0.2,-0.0,940,0,1,0,0.0,0,37.478371,-122.203674,0.0,0.0,41.8,10,3,1.4,0,0.0,-1,0.0,,0.0,0
4863780,1480656119573,,,,,,,,-0.04,0.06,1.0,-3.1,0.0,0.0,940,0,,,,,,,,,,,,,,,,,,,
4863800,1480656119593,,,,,,,,-0.04,0.07,1.0,-3.1,-0.1,0.0,940,0,,,,,,,,,,,,,,,,,,,
4863820,1480656119613,,,,,,,,-0.04,0.07,1.0,-3.1,-0.1,0.0,940,0,,,,,,,,,,,,,,,,,,,
4863840,1480656119633,,,,,,,,-0.05,0.07,1.01,-3.1,-0.1,-0.0,940,0,,,,,,,,,,,,,,,,,,,
4863860,1480656119653,0,96.2,,119.8,60,121.8,,-0.05,0.07,1.01,-3.1,0.0,-0.0,940,0,1,0,0.0,0,37.478371,-122.203674,0.0,0.0,41.8,10,3,1.4,0,0.0,-1,0.0,0.0,0.0,0
4863880,1480656119673,,,,,,,,-0.04,0.07,1.01,-3.1,0.1,-0.0,940,0,,,,,,,,,,,,,,,,,,,
4863900,1480656119593,,,,,,,,-0.04,0.07,1.0,-3.1,0.1,-0.0,940,0,,,,,,,,,,,,,,,,,,,
4863920,1480656119613,,,,,,,,-0.04,0.07,1.0,-3.1,0.1,-0.1,940,0,,,,,,,,,,,,,,,,,,,
4863940,1480656119633,,,,,,,,-0.05,0.07,1.0,-3.1,-0.0,-0.1,940,0,,,,,,,,,,,,,,,,,,,
4863960,1480656119653,,,,,61,,,-0.05,0.06,1.01,-3.1,-0.1,-0.1,940,0,1,0,0.0,0,37.478371,-122.203674,0.0,0.0,41.8,10,3,1.4,0,0.0,-1,0.0,,0.0,0
4863980,1480656119673,,,,,,,,-0.05,0.06,1.0,-3.1,-0.0,-0.1,940,0,,,,,,,,,,,,,,,,,,,
4864000,1480656119693,,,,,,,,-0.05,0.05,1.0,-3.1,0.0,-0.1,940,0,,,,,,,,,,,,,,,,,,,
4864020,1480656119713,,,,,,,,-0.05,0.06,1.0,-3.1,0.0,-0.1,940,0,,,,,,,,,,,,,,,,,,,
4864040,1480656119733,,,,,,,,-0.05,0.05,1.0,-3.1,-0.1,-0.1,940,0,,,,,,,,,,,,,,,,,,,
4864060,1480656119753,0,96.5,,120.3,56,122.0,,-0.05,0.05,1.0,-3.1,-0.1,-0.1,940,0,1,0,0.0,0,37.478371,-122.203674,0.0,0.0,41.8,10,3,1.4,0,0.0,-1,0.0,0.0,0.0,0
4864080,1480656119773,,,,,,,,-0.05,0.05,1.0,-3.1,-0.0,-0.0,940,0,,,,,,,,,,,,,,,,,,,
4864100,1480656119793,,,,,,,,-0.05,0.06,1.0,-3.1,0.1,-0.0,940,0,,,,,,,,,,,,,,,,,,,
4864120,1480656119813,,,,,,,,-0.04,0.06,1.0,-3.1,0.2,-0.0,940,0,,,,,,,,,,,,,,,,,,,
4864140,1480656119833,,,,,,,,-0.04,0.06,0.99,-3.2,0.1,-0.0,940,0,,,,,,,,,,,,,,,,,,,
4864160,1480656119853,,,,,57,,,-0.04,0.06,0.99,-3.2,-0.1,0.0,940,0,1,0,0.0,0,37.478371,-122.203674,0.0,0.0,41.8,10,3,1.4,0,0.0,-1,0.0,,0.0,0
4864180,1480656119873,,,,,,,,-0.04,0.07,0.99,-3.2,-0.2,0.0,940,0,,,,,,,,,,,,,,,,,,,
4864200,1480656119893,,,,,,,,-0.05,0.07,1.0,-3.2,-0.2,0.0,940,0,,,,,,,,,,,,,,,,,,,
4864220,1480656119907,,,,,,,,-0.05,0.07,1.01,-3.2,-0.1,0.0,940,0,,,,,,,,,,,,,,,,,,,
4864240,1480656119927,,,,,,,,-0.05,0.07,1.01,-3.2,0.1,0.0,940,0,,,,,,,,,,,,,,,,,,,
4864260,1480656119947,0,99.4,2.0,121.0,61,118.8,14.87,-0.05,0.07,1.0,-3.2,0.2,0.0,940,0,1,0,0.0,0,37.478371,-122.203674,0.0,0.0,41.8,10,3,1.4,0,0.0,-1,0.0,0.0,0.0,0
4864280,1480656119967,,,,,,,,-0.04,0.07,1.0,-3.1,0.1,0.0,920,0,,,,,,,,,,,,,,,,,,,
4864300,1480656119994,,,,,,,,-0.05,0.07,1.0,-3.2,0.0,-0.0,920,0,,,,,,,,,,,,,,,,,,,
4864320,1480656120014,,,,,,,,-0.05,0.07,1.01,-3.2,0.0,-0.1,940,0,,,,,,,,,,,,,,,,,,,
4864340,1480656120034,,,,,,,,-0.05,0.06,1.01,-3.1,0.1,-0.1,940,0,,,,,,,,,,,,,,,,,,,
4864360,1480656120054,,,,,56,,,-0.05,0.06,1.01,-3.1,0.1,-0.1,920,0,1,0,0.0,0,37.478371,-122.203674,0.0,0.0,41.8,10,3,1.4,0,0.0,-1,0.0,,0.0,0
4864380,1480656120074,,,,,,,,-0.05,0.06,1.0,-3.1,0.1,-0.1,920,0,,,,,,,,,,,,,,,,,,,
4864400,1480656120094,,,,,,,,-0.05,0.06,1.0,-3.1,0.0,-0.1,920,0,,,,,,,,,,,,,,,,,,,
4864420,1480656120114,,,,,,,,-0.05,0.06,1.0,-3.1,0.0,-0.1,920,0,,,,,,,,,,,,,,,,,,,
4864440,1480656120134,,,,,,,,-0.05,0.06,1.0,-3.2,0.2,-0.0,920,0,,,,,,,,,,,,,,,,,,,
4864460,1480656120154,0,99.7,,121.8,60,119.1,,-0.04,0.06,1.0,-3.1,0.3,-0.0,920,0,1,0,0.0,0,37.478371,-122.203674,0.0,0.0,41.8,10,3,1.4,0,0.0,-1,0.0,0.0,0.0,0
4864480,1480656120174,,,,,,,,-0.04,0.06,1.0,-3.1,0.2,0.0,940,0,,,,,,,,,,,,,,,,,,,
4864500,1480656120293,,,,,,,,-0.04,0.06,1.0,-3.1,0.0,0.0,920,0,,,,,,,,,,,,,,,,,,,
4864520,1480656120313,,,,,,,,-0.04,0.06,1.0,-3.1,-0.1,0.0,920,0,,,,,,,,,,,,,,,,,,,
4864540,1480656120333,,,,,,,,-0.05,0.06,1.0,-3.1,-0.1,0.0,920,0,,,,,,,,,,,,,,,,,,,
4864560,1480656120353,,,,,60,,,-0.05,0.06,1.01,-3.1,0.0,0.0,920,0,1,0,0.0,0,37.478371,-122.203674,0.0,0.0,41.8,10,3,1.4,0,0.0,-1,0.0,,0.0,0
4864580,1480656120373,,,,,,,,-0.05,0.06,1.01,-3.1,0.1,-0.0,940,0,,,,,,,,,,,,,,,,,,,
4864600,1480656120393,,,,,,,,-0.05,0.06,1.0,-3.1,0.1,-0.0,920,0,,,,,,,,,,,,,,,,,,,
4864620,1480656120413,,,,,,,,-0.05,0.06,1.0,-3.1,-0.0,-0.0,920,0,,,,,,,,,,,,,,,,,,,
4864640,1480656120433,,,,,,,,-0.05,0.06,1.0,-3.1,-0.0,-0.1,920,0,,,,,,,,,,,,,,,,,,,
4864660,1480656120453,0,100.0,,122.2,60,120.6,,-0.05,0.05,1.01,-3.1,0.0,-0.1,920,0,1,0,0.0,0,37.478371,-122.203674,0.0,0.0,41.8,10,3,1.4,0,0.0,-1,0.0,0.0,0.0,0
4864680,1480656120473,,,,,,,,-0.05,0.05,1.0,-3.1,0.0,-0.1,920,0,,,,,,,,,,,,,,,,,,,
4864700,1480656120393,,,,,,,,-0.05,0.05,1.0,-3.1,-0.0,-0.1,920,0,,,,,,,,,,,,,,,,,,,
4864720,1480656120413,,,,,,,,-0.05,0.05,1.0,-3.1,-0.1,-0.1,920,0,,,,,,,,,,,,,,,,,,,
4864740,1480656120433,,,,,,,,-0.05,0.05,1.0,-3.1,0.0,-0.1,920,0,,,,,,,,,,,,,,,,,,,
4864760,1480656120453,,,,,59,,,-0.04,0.05,1.01,-3.1,0.2,-0.0,920,0,1,0,0.0,0,37.478371,-122.203674,0.0,0.0,41.8,10,3,1.4,0,0.0,-1,0.0,,0.0,0
4864780,1480656120473,,,,,,,,-0.04,0.05,1.0,-3.1,0.2,-0.0,920,0,,,,,,,,,,,,,,,,,,,
4864800,1480656120493,,,,,,,,-0.04,0.06,1.0,-3.1,0.1,-0.0,920,0,,,,,,,,,,,,,,,,,,,
4864820,1480656120513,,,,,,,,-0.04,0.06,1.0,-3.1,-0.1,0.0,920,0,,,,,,,,,,,,,,,,,,,
4864840,1480656120533,,,,,,,,-0.05,0.06,1.01,-3.1,-0.2,-0.0,920,0,,,,,,,,,,,,,,,,,,,
4864860,1480656120553,0,99.7,,122.5,61,121.3,,-0.05,0.06,1.01,-3.1,-0.1,-0.0,920,0,1,0,0.0,0,37.478371,-122.203674,0.0,0.0,41.8,10,3,1.4,0,0.0,-1,0.0,0.0,0.0,0
4864880,1480656120573,,,,,,,,-0.05,0.06,1.01,-3.1,0.1,-0.0,920,0,,,,,,,,,,,,,,,,,,,
4864900,1480656120593,,,,,,,,-0.05,0.06,1.0,-3.1,0.1,-0.0,920,0,,,,,,,,,,,,,,,,,,,
4864920,1480656120613,,,,,,,,-0.05,0.06,1.0,-3.1,0.0,-0.0,920,0,,,,,,,,,,,,,,,,,,,
4864940,1480656120633,,,,,,,,-0.05,0.06,1.01,-3.1,-0.1,-0.1,920,0,,,,,,,,,,,,,,,,,,,
4864960,1480656120653,,,,,59,,,-0.05,0.05,1.01,-3.1,-0.0,-0.1,920,0,1,0,0.0,0,37.478371,-122.203674,0.0,0.0,41.8,10,3,1.4,0,0.0,-1,0.0,,0.0,0
4864980,1480656120673,,,,,,,,-0.05,0.05,1.01,-3.1,0.0,-0.1,920,0,,,,,,,,,,,,,,,,,,,
4865000,1480656120693,,,,,,,,-0.05,0.05,1.0,-3.1,-0.0,-0.0,920,0,,,,,,,,,,,,,,,,,,,
4865020,1480656120713,,,,,,,,-0.05,0.05,1.0,-3.1,-0.1,-0.1,920,0,,,,,,,,,,,,,,,,,,,
4865040,1480656120733,,,,,,,,-0.05,0.05,1.0,-3.1,-0.1,-0.0,920,0,,,,,,,,,,,,,,,,,,,
4865060,1480656120753,0,98.3,,122.3,54,121.9,,-0.05,0.05,1.0,-3.1,0.0,-0.0,920,0,1,0,0.0,0,37.478371,-122.203674,0.0,0.0,41.8,10,3,1.4,0,0.0,-1,0.0,0.0,0.0,0
4865080,1480656120773,,,,,,,,-0.04,0.05,1.0,-3.1,0.1,-0.0,920,0,,,,,,,,,,,,,,,,,,,
4865100,1480656120793,,,,,,,,-0.04,0.06,1.0,-3.1,0.1,-0.0,940,0,,,,,,,,,,,,,,,,,,,
4865120,1480656120813,,,,,,,,-0.04,0.06,1.0,-3.2,-0.0,0.0,940,0,,,,,,,,,,,,,,,,,,,
4865140,1480656120833,,,,,,,,-0.05,0.06,1.0,-3.2,-0.2,0.0,920,0,,,,,,,,,,,,,,,,,,,
4865160,1480656120853,,,,,60,,,-0.05,0.06,1.0,-3.2,-0.2,0.0,920,0,1,0,0.0,0,37.478371,-122.203674,0.0,0.0,41.8,10,3,1.4,0,0.0,-1,0.0,,0.0,0
4865180,1480656120873,,,,,,,,-0.05,0.06,1.01,-3.2,-0.1,-0.0,920,0,,,,,,,,,,,,,,,,,,,
4865200,1480656120893,,,,,,,,-0.05,0.06,1.01,-3.1,0.0,-0.0,920,0,,,,,,,,,,,,,,,,,,,
4865220,1480656120907,,,,,,,,-0.05,0.06,1.0,-3.1,-0.0,-0.0,920,0,,,,,,,,,,,,,,,,,,,
4865240,1480656120927,,,,,,,,-0.05,0.06,1.0,-3.1,-0.1,-0.0,920,0,,,,,,,,,,,,,,,,,,,
4865260,1480656120947,0,97.5,1.7,120.1,59,120.4,14.93,-0.05,0.06,1.0,-3.1,-0.1,-0.1,920,0,1,0,0.0,0,37.478371,-122.203674,0.0,0.0,41.8,10,3,1.4,0,0.0,-1,0.0,0.0,0.0,0
4865280,1480656120967,,,,,,,,-0.05,0.06,1.0,-3.1,-0.1,-0.1,920,0,,,,,,,,,,,,,,,,,,,
4865300,1480656121093,,,,,,,,-0.05,0.06,1.0,-3.1,-0.1,-0.1,920,0,,,,,,,,,,,,,,,,,,,
4865320,1480656121113,,,,,,,,-0.05,0.06,1.0,-3.1,-0.1,-0.1,920,0,,,,,,,,,,,,,,,,,,,
4865340,1480656121133,,,,,,,,-0.05,0.06,1.0,-3.1,-0.1,-0.1,920,0,,,,,,,,,,,,,,,,,,,
4865360,1480656121153,,,,,61,,,-0.05,0.06,1.0,-3.1,-0.2,-0.1,920,0,1,0,0.0,0,37.478371,-122.203674,0.0,0.0,41.8,10,3,1.4,0,0.0,-1,0.0,,0.0,0
4865380,1480656121173,,,,,,,,-0.05,0.06,1.0,-3.1,-0.0,-0.0,920,0,,,,,,,,,,,,,,,,,,,
4865400,1480656121193,,,,,,,,-0.05,0.06,1.0,-3.1,0.1,-0.0,920,0,,,,,,,,,,,,,,,,,,,
4865420,1480656121213,,,,,,,,-0.04,0.06,1.0,-3.1,0.0,0.0,920,0,,,,,,,,,,,,,,,,,,,
4865440,1480656121233,,,,,,,,-0.04,0.07,1.0,-3.1,-0.2,0.0,920,0,,,,,,,,,,,,,,,,,,,
4865460,1480656121253,0,97.5,,120.1,57,120.2,,-0.05,0.07,1.0,-3.1,-0.3,-0.0,920,0,1,0,0.0,0,37.478371,-122.203674,0.0,0.0,41.8,10,3,1.4,0,0.0,-1,0.0,0.0,0.0,0
4865480,1480656121273,,,,,,,,-0.05,0.07,1.01,-3.1,-0.2,-0.0,920,0,,,,,,,,,,,,,,,,,,,
4865500,1480656121192,,,,,,,,-0.05,0.07,1.01,-3.1,-0.1,-0.0,920,0,,,,,,,,,,,,,,,,,,,
4865520,1480656121212,,,,,,,,-0.05,0.07,1.0,-3.1,-0.1,-0.0,920,0,,,,,,,,,,,,,,,,,,,
4865540,1480656121232,,,,,,,,-0.05,0.07,1.0,-3.1,-0.1,-0.1,920,0,,,,,,,,,,,,,,,,,,,
4865560,1480656121252,,,,,58,,,-0.05,0.07,1.0,-3.1,-0.2,-0.0,920,0,1,0,0.0,0,37.478371,-122.203674,0.0,0.0,41.8,10,3,1.4,0,0.0,-1,0.0,,0.0,0
4865580,1480656121272,,,,,,,,-0.05,0.06,1.0,-3.1,-0.1,-0.1,920,0,,,,,,,,,,,,,,,,,,,
4865600,1480656121293,,,,,,,,-0.05,0.06,1.0,-3.1,-0.1,-0.1,920,0,,,,,,,,,,,,,,,,,,,
4865620,1480656121313,,,,,,,,-0.05,0.06,1.0,-3.1,-0.1,-0.1,920,0,,,,,,,,,,,,,,,,,,,
4865640,1480656121333,,,,,,,,-0.05,0.06,1.0,-3.1,-0.2,-0.0,920,0,,,,,,,,,,,,,,,,,,,
4865660,1480656121353,0,99.8,,122.7,59,121.2,,-0.05,0.07,1.0,-3.1,-0.2,-0.1,920,0,1,0,0.0,0,37.478371,-122.203674,0.0,0.0,41.8,10,3,1.4,0,0.0,-1,0.0,0.0,0.0,0
4865680,1480656121373,,,,,,,,-0.05,0.06,1.0,-3.1,0.0,-0.0,920,0,,,,,,,,,,,,,,,,,,,
4865700,1480656121393,,,,,,,,-0.04,0.07,1.0,-3.1,0.1,-0.0,920,0,,,,,,,,,,,,,,,,,,,
4865720,1480656121413,,,,,,,,-0.04,0.07,1.0,-3.1,-0.0,-0.0,920,0,,,,,,,,,,,,,,,,,,,
4865740,1480656121433,,,,,,,,-0.04,0.07,1.0,-3.1,-0.2,0.0,920,0,,,,,,,,,,,,,,,,,,,
4865760,1480656121453,,,,,57,,,-0.05,0.07,1.0,-3.1,-0.2,0.0,920,0,1,0,0.0,0,37.478371,-122.203674,0.0,0.0,41.8,10,3,1.4,0,0.0,-1,0.0,,0.0,0
4865780,1480656121473,,,,,,,,-0.05,0.07,1.01,-3.1,-0.1,0.0,920,0,,,,,,,,,,,,,,,,,,,
4865800,1480656121493,,,,,,,,-0.05,0.07,1.0,-3.1,0.0,0.0,920,0,,,,,,,,,,,,,,,,,,,
4865820,1480656121513,,,,,,,,-0.05,0.07,1.0,-3.1,-0.0,0.0,920,0,,,,,,,,,,,,,,,,,,,
4865840,1480656121533,,,,,,,,-0.05,0.07,1.0,-3.1,-0.1,-0.0,920,0,,,,,,,,,,,,,,,,,,,
4865860,1480656121553,0,96.9,,120.9,58,119.5,,-0.05,0.07,1.0,-3.1,-0.1,-0.1,920,0,1,0,0.0,0,37.478371,-122.203674,0.0,0.0,41.8,10,3,1.4,0,0.0,-1,0.0,0.0,0.0,0
4865880,1480656121573,,,,,,,,-0.05,0.06,1.0,-3.1,-0.0,-0.1,920,0,,,,,,,,,,,,,,,,,,,
4865900,1480656121593,,,,,,,,-0.05,0.06,1.0,-3.1,-0.1,-0.1,920,0,,,,,,,,,,,,,,,,,,,
4865920,1480656121613,,,,,,,,-0.05,0.06,0.99,-3.1,-0.2,-0.0,920,0,,,,,,,,,,,,,,,,,,,
4865940,1480656121633,,,,,,,,-0.05,0.06,1.0,-3.1,-0.1,-0.0,920,0,,,,,,,,,,,,,,,,,,,
4865960,1480656121653,,,,,58,,,-0.05,0.06,1.0,-3.1,0.0,-0.0,920,0,1,0,0.0,0,37.478371,-122.203674,0.0,0.0,41.8,10,3,1.4,0,0.0,-1,0.0,,0.0,0
4865980,1480656121673,,,,,,,,-0.04,0.06,0.99,-3.1,0.1,-0.0,920,0,,,,,,,,,,,,,,,,,,,
4866000,1480656121693,,,,,,,,-0.04,0.07,0.99,-3.1,-0.0,-0.0,920,0,,,,,,,,,,,,,,,,,,,
4866020,1480656121713,,,,,,,,-0.05,0.06,0.99,-3.1,-0.2,-0.0,920,0,,,,,,,,,,,,,,,,,,,
4866040,1480656121733,,,,,,,,-0.05,0.06,1.0,-3.1,-0.1,-0.0,900,0,,,,,,,,,,,,,,,,,,,
4866060,1480656121753,0,99.7,,122.6,56,122.0,,-0.05,0.06,1.0,-3.1,0.0,-0.0,920,0,1,0,0.0,0,37.478371,-122.203674,0.0,0.0,41.8,10,3,1.4,0,0.0,-1,0.0,0.0,0.0,0
4866080,1480656121773,,,,,,,,-0.05,0.06,1.0,-3.1,-0.0,-0.0,900,0,,,,,,,,,,,,,,,,,,,
4866100,1480656121892,,,,,,,,-0.05,0.06,1.0,-3.1,-0.1,-0.1,900,0,,,,,,,,,,,,,,,,,,,
4866120,1480656121912,,,,,,,,-0.05,0.06,1.0,-3.1,-0.0,-0.1,920,0,,,,,,,,,,,,,,,,,,,
4866140,1480656121932,,,,,,,,-0.04,0.06,1.0,-3.1,0.0,-0.1,920,0,,,,,,,,,,,,,,,,,,,
4866160,1480656121952,,,,,60,,,-0.05,0.06,1.0,-3.1,-0.0,-0.1,920,0,1,0,0.0,0,37.478371,-122.203674,0.0,0.0,41.8,10,3,1.4,0,0.0,-1,0.0,,0.0,0
4866180,1480656121972,,,,,,,,-0.05,0.06,1.0,-3.1,-0.1,-0.1,900,0,,,,,,,,,,,,,,,,,,,
4866200,1480656121992,,,,,,,,-0.05,0.06,1.0,-3.1,-0.0,-0.0,920,0,,,,,,,,,,,,,,,,,,,
4866220,1480656122012,,,,,,,,-0.04,0.06,1.0,-3.1,0.1,-0.0,900,0,,,,,,,,,,,,,,,,,,,
4866240,1480656122032,,,,,,,,-0.04,0.07,1.0,-3.1,0.1,0.0,920,0,,,,,,,,,,,,,,,,,,,
4866260,1480656122052,0,99.6,1.8,122.7,59,122.0,14.93,-0.04,0.07,1.0,-3.1,-0.0,0.0,920,0,1,0,0.0,0,37.478371,-122.203674,0.0,0.0,41.8,10,3,1.4,0,0.0,-1,0.0,0.0,0.0,0
4866280,1480656122072,,,,,,,,-0.05,0.07,1.01,-3.1,-0.1,0.0,920,0,,,,,,,,,,,,,,,,,,,
4866300,1480656121993,,,,,,,,-0.05,0.07,1.01,-3.1,-0.0,0.0,920,0,,,,,,,,,,,,,,,,,,,
4866320,1480656122013,,,,,,,,-0.05,0.08,1.0,-3.1,0.1,0.0,920,0,,,,,,,,,,,,,,,,,,,
4866340,1480656122033,,,,,,,,-0.05,0.07,1.0,-3.1,-0.0,-0.0,920,0,,,,,,,,,,,,,,,,,,,
4866360,1480656122053,,,,,58,,,-0.05,0.07,1.0,-3.1,-0.1,-0.0,920,0,1,0,0.0,0,37.478371,-122.203674,0.0,0.0,41.8,10,3,1.4,0,0.0,-1,0.0,,0.0,0
4866380,1480656122073,,,,,,,,-0.05,0.07,1.0,-3.1,0.0,-0.0,920,0,,,,,,,,,,,,,,,,,,,
4866400,1480656122093,,,,,,,,-0.05,0.06,1.0,-3.1,0.1,-0.1,920,0,,,,,,,,,,,,,,,,,,,
4866420,1480656122113,,,,,,,,-0.05,0.07,1.0,-3.1,-0.0,-0.0,920,0,,,,,,,,,,,,,,,,,,,
4866440,1480656122133,,,,,,,,-0.05,0.06,1.0,-3.2,-0.1,-0.0,920,0,,,,,,,,,,,,,,,,,,,
4866460,1480656122153,0,99.7,,122.6,58,122.0,,-0.05,0.06,1.0,-3.2,-0.1,-0.0,900,0,1,0,0.0,0,37.478371,-122.203674,0.0,0.0,41.8,10,3,1.4,0,0.0,-1,0.0,0.0,0.0,0
4866480,1480656122173,,,,,,,,-0.05,0.06,1.0,-3.1,0.1,-0.0,920,0,,,,,,,,,,,,,,,,,,,
4866500,1480656122193,,,,,,,,-0.04,0.07,1.0,-3.1,0.1,0.0,920,0,,,,,,,,,,,,,,,,,,,
4866520,1480656122213,,,,,,,,-0.05,0.07,1.0,-3.2,-0.1,0.0,920,0,,,,,,,,,,,,,,,,,,,
4866540,1480656122233,,,,,,,,-0.05,0.07,1.01,-3.1,-0.2,0.0,920,0,,,,,,,,,,,,,,,,,,,
4866560,1480656122253,,,,,61,,,-0.05,0.07,1.01,-3.1,-0.1,0.0,920,0,1,0,0.0,0,37.478371,-122.203674,0.0,0.0,41.8,10,3,1.4,0,0.0,-1,0.0,,0.0,0
4866580,1480656122273,,,,,,,,-0.05,0.07,1.0,-3.1,0.0,0.0,920,0,,,,,,,,,,,,,,,,,,,
4866600,1480656122293,,,,,,,,-0.05,0.07,1.0,-3.1,-0.0,-0.0,920,0,,,,,,,,,,,,,,,,,,,
4866620,1480656122313,,,,,,,,-0.05,0.06,1.01,-3.1,-0.1,-0.0,920,0,,,,,,,,,,,,,,,,,,,
4866640,1480656122333,,,,,,,,-0.05,0.06,1.01,-3.1,-0.0,-0.1,920,0,,,,,,,,,,,,,,,,,,,
4866660,1480656122353,0,98.5,,123.0,60,119.5,,-0.05,0.06,1.0,-3.1,0.0,-0.1,920,0,1,0,0.0,0,37.478371,-122.203674,0.0,0.0,41.8,10,3,1.4,0,0.0,-1,0.0,0.0,0.0,0
4866680,1480656122373,,,,,,,,-0.05,0.05,1.0,-3.1,-0.1,-0.1,920,0,,,,,,,,,,,,,,,,,,,
4866700,1480656122393,,,,,,,,-0.05,0.06,1.0,-3.1,-0.2,-0.1,920,0,,,,,,,,,,,,,,,,,,,
4866720,1480656122413,,,,,,,,-0.05,0.05,1.0,-3.1,-0.1,-0.1,920,0,,,,,,,,,,,,,,,,,,,
4866740,1480656122433,,,,,,,,-0.05,0.05,1.0,-3.1,0.1,-0.1,920,0,,,,,,,,,,,,,,,,,,,
4866760,1480656122453,,,,,59,,,-0.04,0.05,1.0,-3.1,0.2,-0.1,920,0,1,0,0.0,0,37.478371,-122.203674,0.0,0.0,41.8,10,3,1.4,0,0.0,-1,0.0,,0.0,0
4866780,1480656122473,,,,,,,,-0.04,0.06,1.0,-3.1,0.0,-0.0,920,0,,,,,,,,,,,,,,,,,,,
4866800,1480656122493,,,,,,,,-0.05,0.06,1.0,-3.1,-0.2,-0.0,920,0,,,,,,,,,,,,,,,,,,,
4866820,1480656122513,,,,,,,,-0.05,0.06,1.0,-3.1,-0.2,-0.0,920,0,,,,,,,,,,,,,,,,,,,
4866840,1480656122533,,,,,,,,-0.05,0.06,1.01,-3.1,-0.0,-0.0,920,0,,,,,,,,,,,,,,,,,,,
4866860,1480656122553,0,100.5,,123.6,60,122.0,,-0.05,0.06,1.0,-3.1,0.0,-0.1,900,0,1,0,0.0,0,37.478371,-122.203674,0.0,0.0,41.8,10,3,1.4,0,0.0,-1,0.0,0.0,0.0,0
4866880,1480656122573,,,,,,,,-0.05,0.06,1.0,-3.1,0.0,-0.1,900,0,,,,,,,,,,,,,,,,,,,
4866900,1480656122692,,,,,,,,-0.05,0.06,1.0,-3.1,0.0,-0.1,900,0,,,,,,,,,,,,,,,,,,,
4866920,1480656122712,,,,,,,,-0.05,0.05,1.0,-3.1,0.1,-0.1,920,0,,,,,,,,,,,,,,,,,,,
4866940,1480656122732,,,,,,,,-0.04,0.05,1.0,-3.1,0.0,-0.1,920,0,,,,,,,,,,,,,,,,,,,
4866960,1480656122752,,,,,57,,,-0.04,0.06,1.0,-3.1,-0.1,-0.1,920,0,1,0,0.0,0,37.478371,-122.203674,0.0,0.0,41.8,10,3,1.4,0,0.0,-1,0.0,,0.0,0
4866980,1480656122772,,,,,,,,-0.05,0.06,1.0,-3.1,-0.1,-0.0,900,0,,,,,,,,,,,,,,,,,,,
4867000,1480656122792,,,,,,,,-0.04,0.06,1.0,-3.1,0.1,-0.0,920,0,,,,,,,,,,,,,,,,,,,
4867020,1480656122812,,,,,,,,-0.04,0.06,1.0,-3.1,0.2,-0.0,920,0,,,,,,,,,,,,,,,,,,,
4867040,1480656122832,,,,,,,,-0.04,0.07,0.99,-3.1,0.0,0.0,920,0,,,,,,,,,,,,,,,,,,,
4867060,1480656122852,0,99.9,,122.7,55,122.2,,-0.04,0.07,1.0,-3.1,-0.1,0.0,920,0,1,0,0.0,0,37.478371,-122.203674,0.0,0.0,41.8,10,3,1.4,0,0.0,-1,0.0,0.0,0.0,0
4867080,1480656122872,,,,,,,,-0.05,0.07,1.0,-3.1,-0.1,0.0,920,0,,,,,,,,,,,,,,,,,,,
4867100,1480656122793,,,,,,,,-0.05,0.07,1.01,-3.1,0.0,0.0,920,0,,,,,,,,,,,,,,,,,,,
4867120,1480656122813,,,,,,,,-0.04,0.07,1.0,-3.1,0.1,0.0,920,0,,,,,,,,,,,,,,,,,,,
4867140,1480656122833,,,,,,,,-0.04,0.07,1.0,-3.1,0.1,0.0,920,0,,,,,,,,,,,,,,,,,,,
4867160,1480656122853,,,,,59,,,-0.05,0.07,1.0,-3.1,0.0,-0.0,920,0,1,0,0.0,0,37.478371,-122.203674,0.0,0.0,41.8,10,3,1.4,0,0.0,-1,0.0,,0.0,0
4867180,1480656122873,,,,,,,,-0.05,0.07,1.0,-3.1,0.0,-0.0,920,0,,,,,,,,,,,,,,,,,,,
4867200,1480656122893,,,,,,,,-0.04,0.06,1.0,-3.1,0.0,-0.1,920,0,,,,,,,,,,,,,,,,,,,
4867220,1480656122907,,,,,,,,-0.04,0.07,1.0,-3.1,-0.0,-0.1,920,0,,,,,,,,,,,,,,,,,,,
4867240,1480656122927,,,,,,,,-0.05,0.07,1.0,-3.1,-0.1,-0.0,920,0,,,,,,,,,,,,,,,,,,,
4867260,1480656122947,0,96.7,1.4,122.3,55,119.2,14.86,-0.05,0.07,1.0,-3.1,-0.1,-0.0,920,0,1,0,0.0,0,37.478371,-122.203674,0.0,0.0,41.8,10,3,1.4,0,0.0,-1,0.0,0.0,0.0,0
4867280,1480656122967,,,,,,,,-0.05,0.07,1.0,-3.1,0.1,-0.0,920,0,,,,,,,,,,,,,,,,,,,
4867300,1480656122987,,,,,,,,-0.04,0.07,1.0,-3.1,0.2,0.0,920,0,,,,,,,,,,,,,,,,,,,
4867320,1480656123007,,,,,,,,-0.04,0.07,1.0,-3.1,0.0,0.0,920,0,,,,,,,,,,,,,,,,,,,
4867340,1480656123027,,,,,,,,-0.05,0.07,1.0,-3.1,-0.2,0.0,920,0,,,,,,,,,,,,,,,,,,,
4867360,1480656123047,,,,,60,,,-0.05,0.07,1.01,-3.1,-0.2,0.0,920,0,1,0,0.0,0,37.478371,-122.203674,0.0,0.0,41.8,10,3,1.4,0,0.0,-1,0.0,,0.0,0
4867380,1480656123067,,,,,,,,-0.05,0.07,1.01,-3.1,-0.0,0.0,920,0,,,,,,,,,,,,,,,,,,,
4867400,1480656123093,,,,,,,,-0.05,0.07,1.0,-3.1,0.0,0.0,920,0,,,,,,,,,,,,,,,,,,,
4867420,1480656123113,,,,,,,,-0.05,0.07,1.0,-3.2,-0.1,0.0,920,0,,,,,,,,,,,,,,,,,,,
4867440,1480656123133,,,,,,,,-0.05,0.07,1.0,-3.2,-0.1,-0.0,920,0,,,,,,,,,,,,,,,,,,,
4867460,1480656123153,0,99.4,,123.6,60,120.5,,-0.05,0.07,1.0,-3.1,-0.1,-0.0,920,0,1,0,0.0,0,37.478371,-122.203674,0.0,0.0,41.8,10,3,1.4,0,0.0,-1,0.0,0.0,0.0,0
4867480,1480656123173,,,,,,,,-0.05,0.06,1.0,-3.1,-0.0,-0.0,920,0,,,,,,,,,,,,,,,,,,,
4867500,1480656123193,,,,,,,,-0.05,0.07,1.0,-3.1,-0.1,-0.0,920,0,,,,,,,,,,,,,,,,,,,
4867520,1480656123210,,,,,,,,-0.05,0.06,1.0,-3.2,-0.2,-0.0,920,0,,,,,,,,,,,,,,,,,,,
4867540,1480656123230,,,,,,,,-0.05,0.06,1.0,-3.2,-0.1,-0.0,900,0,,,,,,,,,,,,,,,,,,,
4867560,1480656123250,,,,,62,,,-0.05,0.06,1.0,-3.2,0.1,-0.0,900,0,1,0,0.0,0,37.478371,-122.203674,0.0,0.0,41.8,10,3,1.4,0,0.0,-1,0.0,,0.0,0
4867580,1480656123270,,,,,,,,-0.05,0.07,1.0,-3.2,0.0,0.0,920,0,,,,,,,,,,,,,,,,,,,
4867600,1480656123293,,,,,,,,-0.05,0.07,1.0,-3.2,-0.2,-0.0,920,0,,,,,,,,,,,,,,,,,,,
4867620,1480656123313,,,,,,,,-0.05,0.07,1.01,-3.2,-0.2,-0.0,900,0,,,,,,,,,,,,,,,,,,,
4867640,1480656123333,,,,,,,,-0.05,0.07,1.01,-3.2,-0.1,-0.0,900,0,,,,,,,,,,,,,,,,,,,
4867660,1480656123353,0,99.9,,124.0,56,121.5,,-0.05,0.07,1.0,-3.1,-0.0,-0.0,900,0,1,0,0.0,0,37.478371,-122.203674,0.0,0.0,41.8,10,3,1.4,0,0.0,-1,0.0,0.0,0.0,0
4867680,1480656123373,,,,,,,,-0.05,0.07,1.01,-3.1,-0.1,-0.0,920,0,,,,,,,,,,,,,,,,,,,
4867700,1480656123492,,,,,,,,-0.05,0.06,1.01,-3.1,-0.1,-0.0,920,0,,,,,,,,,,,,,,,,,,,
4867720,1480656123512,,,,,,,,-0.05,0.06,1.01,-3.1,0.0,-0.1,920,0,,,,,,,,,,,,,,,,,,,
4867740,1480656123532,,,,,,,,-0.05,0.06,1.0,-3.1,0.0,-0.1,900,0,,,,,,,,,,,,,,,,,,,
4867760,1480656123552,,,,,60,,,-0.05,0.07,1.0,-3.1,-0.1,-0.1,900,0,1,0,0.0,0,37.478371,-122.203674,0.0,0.0,41.8,10,3,1.4,0,0.0,-1,0.0,,0.0,0
4867780,1480656123572,,,,,,,,-0.05,0.06,1.0,-3.1,-0.1,-0.1,920,0,,,,,,,,,,,,,,,,,,,
4867800,1480656123592,,,,,,,,-0.05,0.07,1.0,-3.1,0.1,-0.1,920,0,,,,,,,,,,,,,,,,,,,
4867820,1480656123612,,,,,,,,-0.04,0.07,1.0,-3.1,0.2,-0.0,920,0,,,,,,,,,,,,,,,,,,,
4867840,1480656123632,,,,,,,,-0.05,0.07,1.0,-3.1,0.0,0.0,920,0,,,,,,,,,,,,,,,,,,,
4867860,1480656123652,0,98.9,,122.5,57,121.8,,-0.05,0.07,1.0,-3.1,-0.1,0.0,920,0,1,0,0.0,0,37.478371,-122.203674,0.0,0.0,41.8,10,3,1.4,0,0.0,-1,0.0,0.0,0.0,0
4867880,1480656123672,,,,,,,,-0.05,0.07,1.01,-3.1,-0.1,0.0,920,0,,,,,,,,,,,,,,,,,,,
4867900,1480656123593,,,,,,,,-0.05,0.08,1.01,-3.1,0.0,0.0,920,0,,,,,,,,,,,,,,,,,,,
4867920,1480656123613,,,,,,,,-0.05,0.08,1.0,-3.1,0.1,0.0,920,0,,,,,,,,,,,,,,,,,,,
4867940,1480656123633,,,,,,,,-0.05,0.08,1.0,-3.1,0.0,-0.0,920,0,,,,,,,,,,,,,,,,,,,
4867960,1480656123653,,,,,61,,,-0.05,0.07,1.0,-3.1,-0.0,-0.0,920,0,1,0,0.0,0,37.478371,-122.203674,0.0,0.0,41.8,10,3,1.4,0,0.0,-1,0.0,,0.0,0
4867980,1480656123673,,,,,,,,-0.05,0.07,1.0,-3.1,-0.0,-0.1,920,0,,,,,,,,,,,,,,,,,,,
4868000,1480656123693,,,,,,,,-0.05,0.07,1.0,-3.1,0.0,-0.1,920,0,,,,,,,,,,,,,,,,,,,
4868020,1480656123713,,,,,,,,-0.05,0.07,1.0,-3.1,-0.0,-0.1,920,0,,,,,,,,,,,,,,,,,,,
4868040,1480656123733,,,,,,,,-0.05,0.07,1.0,-3.1,-0.1,-0.1,920,0,,,,,,,,,,,,,,,,,,,
4868060,1480656123753,0,99.9,,124.2,59,121.3,,-0.05,0.07,1.0,-3.1,-0.1,-0.0,920,0,1,0,0.0,0,37.478371,-122.203674,0.0,0.0,41.8,10,3,1.4,0,0.0,-1,0.0,0.0,0.0,0
4868080,1480656123773,,,,,,,,-0.05,0.07,1.0,-3.1,0.0,-0.0,920,0,,,,,,,,,,,,,,,,,,,
4868100,1480656123794,,,,,,,,-0.04,0.07,1.0,-3.1,0.2,-0.0,920,0,,,,,,,,,,,,,,,,,,,
4868120,1480656123814,,,,,,,,-0.04,0.07,1.0,-3.1,0.1,-0.0,920,0,,,,,,,,,,,,,,,,,,,
4868140,1480656123834,,,,,,,,-0.04,0.07,1.0,-3.2,-0.1,0.0,920,0,,,,,,,,,,,,,,,,,,,
4868160,1480656123854,,,,,57,,,-0.05,0.07,1.0,-3.2,-0.2,0.0,920,0,1,0,0.0,0,37.478371,-122.203674,0.0,0.0,41.8,10,3,1.4,0,0.0,-1,0.0,,0.0,0
4868180,1480656123874,,,,,,,,-0.05,0.07,1.01,-3.2,-0.1,0.0,920,0,,,,,,,,,,,,,,,,,,,
4868200,1480656123894,,,,,,,,-0.05,0.07,1.01,-3.1,0.0,-0.0,920,0,,,,,,,,,,,,,,,,,,,
4868220,1480656123908,,,,,,,,-0.05,0.08,1.0,-3.1,0.1,-0.0,920,0,,,,,,,,,,,,,,,,,,,
4868240,1480656123928,,,,,,,,-0.05,0.08,1.0,-3.1,-0.0,-0.0,920,0,,,,,,,,,,,,,,,,,,,
4868260,1480656123948,0,99.0,1.5,121.8,60,119.8,14.9,-0.05,0.08,1.0,-3.2,-0.1,-0.0,920,0,1,0,0.0,0,37.478371,-122.203674,0.0,0.0,41.8,10,3,1.4,0,0.0,-1,0.0,0.0,0.0,0
4868280,1480656123968,,,,,,,,-0.05,0.07,1.0,-3.1,-0.1,-0.1,920,0,,,,,,,,,,,,,,,,,,,
4868300,1480656123991,,,,,,,,-0.05,0.07,1.0,-3.1,0.0,-0.1,920,0,,,,,,,,,,,,,,,,,,,
4868320,1480656124011,,,,,,,,-0.05,0.07,1.0,-3.1,-0.0,-0.1,920,0,,,,,,,,,,,,,,,,,,,
4868340,1480656124031,,,,,,,,-0.05,0.07,1.0,-3.1,-0.1,-0.1,920,0,,,,,,,,,,,,,,,,,,,
4868360,1480656124051,,,,,57,,,-0.05,0.07,1.0,-3.1,-0.1,-0.0,920,0,1,0,0.0,0,37.478371,-122.203674,0.0,0.0,41.8,10,3,1.4,0,0.0,-1,0.0,,0.0,0
4868380,1480656124071,,,,,,,,-0.05,0.07,1.0,-3.1,0.1,-0.0,920,0,,,,,,,,,,,,,,,,,,,
4868400,1480656124093,,,,,,,,-0.04,0.07,1.0,-3.1,0.2,-0.0,920,0,,,,,,,,,,,,,,,,,,,
4868420,1480656124113,,,,,,,,-0.04,0.07,0.99,-3.2,0.1,-0.0,920,0,,,,,,,,,,,,,,,,,,,
4868440,1480656124133,,,,,,,,-0.04,0.07,0.99,-3.1,-0.1,0.0,920,0,,,,,,,,,,,,,,,,,,,
4868460,1480656124153,0,96.3,,122.6,57,119.1,,-0.05,0.07,1.0,-3.2,-0.2,-0.0,920,0,1,0,0.0,0,37.478371,-122.203674,0.0,0.0,41.8,10,3,1.4,0,0.0,-1,0.0,0.0,0.0,0
4868480,1480656124173,,,,,,,,-0.05,0.07,1.01,-3.2,-0.0,-0.0,920,0,,,,,,,,,,,,,,,,,,,
4868500,1480656124293,,,,,,,,-0.05,0.07,1.0,-3.2,0.0,-0.0,900,0,,,,,,,,,,,,,,,,,,,
4868520,1480656124313,,,,,,,,-0.05,0.07,0.99,-3.2,-0.0,-0.0,920,0,,,,,,,,,,,,,,,,,,,
4868540,1480656124333,,,,,,,,-0.05,0.07,1.0,-3.2,-0.1,-0.0,900,0,,,,,,,,,,,,,,,,,,,
4868560,1480656124353,,,,,58,,,-0.05,0.06,1.0,-3.1,-0.0,-0.0,920,0,1,0,0.0,0,37.478371,-122.203674,0.0,0.0,41.8,10,3,1.4,0,0.0,-1,0.0,,0.0,0
4868580,1480656124373,,,,,,,,-0.04,0.06,1.0,-3.1,0.0,-0.1,920,0,,,,,,,,,,,,,,,,,,,
4868600,1480656124393,,,,,,,,-0.05,0.06,1.0,-3.1,-0.1,-0.1,920,0,,,,,,,,,,,,,,,,,,,
4868620,1480656124413,,,,,,,,-0.05,0.06,1.0,-3.1,-0.1,-0.0,920,0,,,,,,,,,,,,,,,,,,,
4868640,1480656124433,,,,,,,,-0.05,0.06,1.0,-3.1,-0.0,-0.0,900,0,,,,,,,,,,,,,,,,,,,
4868660,1480656124453,0,96.5,,122.1,64,118.6,,-0.05,0.06,1.0,-3.1,0.1,-0.0,900,0,1,0,0.0,0,37.478371,-122.203674,0.0,0.0,41.8,10,3,1.4,0,0.0,-1,0.0,0.0,0.0,0
4868680,1480656124473,,,,,,,,-0.04,0.06,0.99,-3.1,0.0,-0.0,900,0,,,,,,,,,,,,,,,,,,,
4868700,1480656124393,,,,,,,,-0.05,0.06,1.0,-3.1,-0.2,-0.0,900,0,,,,,,,,,,,,,,,,,,,
4868720,1480656124413,,,,,,,,-0.05,0.06,1.01,-3.1,-0.1,-0.0,920,0,,,,,,,,,,,,,,,,,,,
4868740,1480656124433,,,,,,,,-0.05,0.06,1.01,-3.1,-0.0,0.0,920,0,,,,,,,,,,,,,,,,,,,
4868760,1480656124453,,,,,56,,,-0.05,0.06,1.0,-3.1,-0.0,-0.0,900,0,1,0,0.0,0,37.478371,-122.203674,0.0,0.0,41.8,10,3,1.4,0,0.0,-1,0.0,,0.0,0
4868780,1480656124473,,,,,,,,-0.05,0.06,1.0,-3.1,-0.1,-0.0,900,0,,,,,,,,,,,,,,,,,,,
4868800,1480656124493,,,,,,,,-0.05,0.06,1.0,-3.1,0.0,-0.1,900,0,,,,,,,,,,,,,,,,,,,
4868820,1480656124513,,,,,,,,-0.05,0.06,1.0,-3.1,0.1,-0.0,900,0,,,,,,,,,,,,,,,,,,,
4868840,1480656124533,,,,,,,,-0.04,0.06,1.0,-3.1,0.0,-0.1,900,0,,,,,,,,,,,,,,,,,,,
4868860,1480656124553,0,99.3,,122.3,59,120.1,,-0.05,0.06,1.0,-3.1,-0.1,-0.0,900,0,1,0,0.0,0,37.478371,-122.203674,0.0,0.0,41.8,10,3,1.4,0,0.0,-1,0.0,0.0,0.0,0
4868880,1480656124573,,,,,,,,-0.05,0.06,1.0,-3.1,0.0,-0.0,900,0,,,,,,,,,,,,,,,,,,,
4868900,1480656124593,,,,,,,,-0.04,0.06,1.0,-3.1,0.2,-0.0,900,0,,,,,,,,,,,,,,,,,,,
4868920,1480656124613,,,,,,,,-0.04,0.06,1.0,-3.1,0.1,-0.0,900,0,,,,,,,,,,,,,,,,,,,
4868940,1480656124633,,,,,,,,-0.05,0.06,1.0,-3.2,-0.0,-0.0,900,0,,,,,,,,,,,,,,,,,,,
4868960,1480656124653,,,,,60,,,-0.05,0.06,1.01,-3.1,-0.1,-0.0,900,0,1,0,0.0,0,37.478371,-122.203674,0.0,0.0,41.8,10,3,1.4,0,0.0,-1,0.0,,0.0,0
4868980,1480656124673,,,,,,,,-0.05,0.06,1.0,-3.1,-0.0,-0.0,900,0,,,,,,,,,,,,,,,,,,,
4869000,1480656124693,,,,,,,,-0.05,0.06,1.0,-3.1,-0.0,-0.0,900,0,,,,,,,,,,,,,,,,,,,
4869020,1480656124713,,,,,,,,-0.05,0.06,1.0,-3.1,-0.0,-0.0,900,0,,,,,,,,,,,,,,,,,,,
4869040,1480656124733,,,,,,,,-0.04,0.05,1.0,-3.1,0.1,-0.1,900,0,,,,,,,,,,,,,,,,,,,
4869060,1480656124753,1,98.7,,124.6,59,121.9,,-0.04,0.06,1.0,-3.1,0.1,-0.0,900,0,1,0,0.0,0,37.478371,-122.203674,0.0,0.0,41.8,10,3,1.4,0,0.0,-1,0.0,0.0,0.0,0
4869080,1480656124773,,,,,,,,-0.04,0.06,1.0,-3.1,-0.1,-0.0,900,0,,,,,,,,,,,,,,,,,,,
4869100,1480656124794,,,,,,,,-0.05,0.06,1.0,-3.1,-0.1,-0.0,900,0,,,,,,,,,,,,,,,,,,,
4869120,1480656124814,,,,,,,,-0.04,0.06,1.0,-3.1,0.1,-0.0,900,0,,,,,,,,,,,,,,,,,,,
4869140,1480656124834,,,,,,,,-0.04,0.06,1.0,-3.1,0.2,0.0,900,0,,,,,,,,,,,,,,,,,,,
4869160,1480656124854,,,,,58,,,-0.04,0.06,1.0,-3.1,-0.0,0.0,900,0,1,0,0.0,0,37.478371,-122.203674,0.0,0.0,41.8,10,3,1.4,0,0.0,-1,0.0,,0.0,0
4869180,1480656124874,,,,,,,,-0.05,0.06,1.0,-3.1,-0.1,0.0,900,0,,,,,,,,,,,,,,,,,,,
4869200,1480656124894,,,,,,,,-0.05,0.07,1.01,-3.1,0.0,0.0,900,0,,,,,,,,,,,,,,,,,,,
4869220,1480656124908,,,,,,,,-0.05,0.07,1.0,-3.1,0.1,0.0,900,0,,,,,,,,,,,,,,,,,,,
4869240,1480656124928,,,,,,,,-0.05,0.07,1.0,-3.1,0.0,-0.0,920,0,,,,,,,,,,,,,,,,,,,
4869260,1480656124948,0,100.2,2.7,124.9,59,122.5,14.91,-0.05,0.06,1.0,-3.1,0.0,-0.0,920,0,1,0,0.0,0,37.478371,-122.203674,0.0,0.0,41.8,10,3,1.4,0,0.0,-1,0.0,0.0,0.0,0
4869280,1480656124968,,,,,,,,-0.05,0.06,1.0,-3.1,0.1,-0.1,920,0,,,,,,,,,,,,,,,,,,,
4869300,1480656125093,,,,,,,,-0.05,0.06,1.0,-3.1,0.1,-0.1,920,0,,,,,,,,,,,,,,,,,,,
4869320,1480656125113,,,,,,,,-0.05,0.06,1.0,-3.1,0.0,-0.1,920,0,,,,,,,,,,,,,,,,,,,
4869340,1480656125133,,,,,,,,-0.05,0.06,1.0,-3.1,-0.0,-0.0,920,0,,,,,,,,,,,,,,,,,,,
4869360,1480656125153,,,,,58,,,-0.05,0.06,1.0,-3.1,0.0,-0.0,900,0,1,0,0.0,0,37.478371,-122.203674,0.0,0.0,41.8,10,3,1.4,0,0.0,-1,0.0,,0.0,0
4869380,1480656125173,,,,,,,,-0.04,0.06,1.0,-3.1,0.2,-0.0,920,0,,,,,,,,,,,,,,,,,,,
4869400,1480656125193,,,,,,,,-0.04,0.06,1.0,-3.1,0.1,-0.0,920,0,,,,,,,,,,,,,,,,,,,
4869420,1480656125213,,,,,,,,-0.05,0.06,1.0,-3.1,-0.1,0.0,920,0,,,,,,,,,,,,,,,,,,,
4869440,1480656125233,,,,,,,,-0.05,0.06,1.01,-3.1,-0.1,-0.0,920,0,,,,,,,,,,,,,,,,,,,
4869460,1480656125253,0,99.9,,123.3,60,121.5,,-0.05,0.06,1.01,-3.1,-0.0,-0.0,920,0,1,0,0.0,0,37.478371,-122.203674,0.0,0.0,41.8,10,3,1.4,0,0.0,-1,0.0,0.0,0.0,0
4869480,1480656125273,,,,,,,,-0.05,0.06,1.0,-3.1,0.0,-0.0,920,0,,,,,,,,,,,,,,,,,,,
4869500,1480656125193,,,,,,,,-0.05,0.06,1.0,-3.1,-0.0,-0.0,920,0,,,,,,,,,,,,,,,,,,,
4869520,1480656125213,,,,,,,,-0.05,0.06,1.01,-3.1,-0.0,-0.0,920,0,,,,,,,,,,,,,,,,,,,
4869540,1480656125233,,,,,,,,-0.05,0.06,1.01,-3.1,0.0,-0.1,920,0,,,,,,,,,,,,,,,,,,,
4869560,1480656125253,,,,,59,,,-0.05,0.05,1.01,-3.1,0.0,-0.1,920,0,1,0,0.0,0,37.478371,-122.203674,0.0,0.0,41.8,10,3,1.4,0,0.0,-1,0.0,,0.0,0
4869580,1480656125273,,,,,,,,-0.05,0.06,1.0,-3.1,-0.0,-0.1,920,0,,,,,,,,,,,,,,,,,,,
4869600,1480656125293,,,,,,,,-0.05,0.05,1.0,-3.1,-0.1,-0.1,920,0,,,,,,,,,,,,,,,,,,,
4869620,1480656125313,,,,,,,,-0.05,0.06,1.0,-3.1,0.0,-0.0,920,0,,,,,,,,,,,,,,,,,,,
4869640,1480656125333,,,,,,,,-0.04,0.06,1.0,-3.1,0.2,-0.0,920,0,,,,,,,,,,,,,,,,,,,
4869660,1480656125353,0,100.3,,124.3,55,121.7,,-0.04,0.06,1.0,-3.1,0.2,-0.0,920,0,1,0,0.0,0,37.478371,-122.203674,0.0,0.0,41.8,10,3,1.4,0,0.0,-1,0.0,0.0,0.0,0
4869680,1480656125373,,,,,,,,-0.04,0.06,1.0,-3.1,0.0,0.0,920,0,,,,,,,,,,,,,,,,,,,
4869700,1480656125393,,,,,,,,-0.05,0.06,1.0,-3.1,-0.1,0.0,920,0,,,,,,,,,,,,,,,,,,,
4869720,1480656125413,,,,,,,,-0.05,0.06,1.01,-3.1,0.0,-0.0,920,0,,,,,,,,,,,,,,,,,,,
4869740,1480656125433,,,,,,,,-0.05,0.06,1.01,-3.1,0.2,-0.0,920,0,,,,,,,,,,,,,,,,,,,
4869760,1480656125453,,,,,58,,,-0.05,0.07,1.01,-3.1,0.1,-0.0,920,0,1,0,0.0,0,37.478371,-122.203674,0.0,0.0,41.8,10,3,1.4,0,0.0,-1,0.0,,0.0,0
4869780,1480656125473,,,,,,,,-0.05,0.07,1.01,-3.1,0.1,-0.0,920,0,,,,,,,,,,,,,,,,,,,
4869800,1480656125494,,,,,,,,-0.05,0.06,1.01,-3.1,0.1,-0.0,920,0,,,,,,,,,,,,,,,,,,,
4869820,1480656125514,,,,,,,,-0.04,0.06,1.01,-3.1,0.1,-0.0,920,0,,,,,,,,,,,,,,,,,,,
4869840,1480656125534,,,,,,,,-0.04,0.06,1.01,-3.1,0.1,-0.1,920,0,,,,,,,,,,,,,,,,,,,
4869860,1480656125554,0,98.7,,124.8,56,121.9,,-0.04,0.06,1.0,-3.1,0.0,-0.0,920,0,1,0,0.0,0,37.478371,-122.203674,0.0,0.0,41.8,10,3,1.4,0,0.0,-1,0.0,0.0,0.0,0
4869880,1480656125574,,,,,,,,-0.05,0.06,1.0,-3.2,-0.0,-0.0,920,0,,,,,,,,,,,,,,,,,,,
4869900,1480656125594,,,,,,,,-0.04,0.06,1.01,-3.1,0.1,-0.0,920,0,,,,,,,,,,,,,,,,,,,
4869920,1480656125614,,,,,,,,-0.04,0.06,1.01,-3.1,0.3,-0.0,920,0,,,,,,,,,,,,,,,,,,,
4869940,1480656125634,,,,,,,,-0.04,0.07,1.0,-3.1,0.2,0.0,920,0,,,,,,,,,,,,,,,,,,,
4869960,1480656125654,,,,,57,,,-0.04,0.07,1.0,-3.1,0.0,0.0,920,0,1,0,0.0,0,37.478371,-122.203674,0.0,0.0,41.8,10,3,1.4,0,0.0,-1,0.0,,0.0,0
4869980,1480656125674,,,,,,,,-0.05,0.07,1.01,-3.1,-0.0,-0.0,920,0,,,,,,,,,,,,,,,,,,,
4870000,1480656125694,,,,,,,,-0.05,0.07,1.01,-3.1,0.1,-0.0,920,0,,,,,,,,,,,,,,,,,,,
4870020,1480656125714,,,,,,,,-0.05,0.07,1.01,-3.1,0.1,-0.0,920,0,,,,,,,,,,,,,,,,,,,
4870040,1480656125734,,,,,,,,-0.05,0.07,1.0,-3.1,0.1,-0.0,920,0,,,,,,,,,,,,,,,,,,,
4870060,1480656125754,0,100.3,,124.4,59,121.8,,-0.05,0.07,1.0,-3.1,0.0,-0.0,920,0,1,0,0.0,0,37.478371,-122.203674,0.0,0.0,41.8,10,3,1.4,0,0.0,-1,0.0,0.0,0.0,0
4870080,1480656125774,,,,,,,,-0.05,0.07,1.01,-3.1,0.0,-0.0,920,0,,,,,,,,,,,,,,,,,,,
4870100,1480656125893,,,,,,,,-0.05,0.07,1.01,-3.1,0.1,-0.0,920,0,,,,,,,,,,,,,,,,,,,
4870120,1480656125913,,,,,,,,-0.05,0.07,1.01,-3.1,0.0,-0.0,920,0,,,,,,,,,,,,,,,,,,,
4870140,1480656125933,,,,,,,,-0.05,0.07,1.0,-3.1,-0.1,-0.0,920,0,,,,,,,,,,,,,,,,,,,
4870160,1480656125953,,,,,62,,,-0.05,0.07,1.0,-3.1,-0.0,0.0,920,0,1,0,0.0,0,37.478371,-122.203674,0.0,0.0,41.8,10,3,1.4,0,0.0,-1,0.0,,0.0,0
4870180,1480656125973,,,,,,,,-0.05,0.07,1.0,-3.1,0.2,-0.0,920,0,,,,,,,,,,,,,,,,,,,
4870200,1480656125993,,,,,,,,-0.04,0.07,1.0,-3.1,0.2,0.0,920,0,,,,,,,,,,,,,,,,,,,
4870220,1480656126013,,,,,,,,-0.05,0.07,1.0,-3.1,0.0,0.0,920,0,,,,,,,,,,,,,,,,,,,
4870240,1480656126033,,,,,,,,-0.05,0.07,1.01,-3.1,-0.1,0.0,920,0,,,,,,,,,,,,,,,,,,,
4870260,1480656126053,0,98.3,1.9,124.8,57,121.3,14.9,-0.05,0.07,1.01,-3.1,-0.0,-0.0,920,0,1,0,0.0,0,37.478371,-122.203674,0.0,0.0,41.8,10,3,1.4,0,0.0,-1,0.0,0.0,0.0,0
4870280,1480656126073,,,,,,,,-0.05,0.07,1.0,-3.1,0.0,-0.0,920,0,,,,,,,,,,,,,,,,,,,
4870300,1480656125992,,,,,,,,-0.05,0.07,1.0,-3.1,0.0,-0.0,920,0,,,,,,,,,,,,,,,,,,,
4870320,1480656126012,,,,,,,,-0.05,0.06,1.01,-3.1,-0.1,-0.0,920,0,,,,,,,,,,,,,,,,,,,
4870340,1480656126032,,,,,,,,-0.05,0.06,1.01,-3.1,-0.1,-0.0,900,0,,,,,,,,,,,,,,,,,,,
4870360,1480656126052,,,,,61,,,-0.05,0.06,1.0,-3.1,0.0,-0.1,920,0,1,0,0.0,0,37.478371,-122.203674,0.0,0.0,41.8,10,3,1.4,0,0.0,-1,0.0,,0.0,0
4870380,1480656126072,,,,,,,,-0.05,0.06,1.0,-3.1,-0.0,-0.1,920,0,,,,,,,,,,,,,,,,,,,
4870400,1480656126094,,,,,,,,-0.05,0.06,1.0,-3.1,-0.1,-0.0,920,0,,,,,,,,,,,,,,,,,,,
4870420,1480656126114,,,,,,,,-0.05,0.05,1.0,-3.1,-0.1,-0.0,920,0,,,,,,,,,,,,,,,,,,,
4870440,1480656126134,,,,,,,,-0.05,0.05,1.01,-3.1,0.1,-0.0,920,0,,,,,,,,,,,,,,,,,,,
4870460,1480656126154,0,99.9,,123.7,59,121.5,,-0.04,0.06,1.0,-3.1,0.1,-0.0,920,0,1,0,0.0,0,37.478371,-122.203674,0.0,0.0,41.8,10,3,1.4,0,0.0,-1,0.0,0.0,0.0,0
4870480,1480656126174,,,,,,,,-0.04,0.06,1.0,-3.1,0.0,0.0,920,0,,,,,,,,,,,,,,,,,,,
4870500,1480656126193,,,,,,,,-0.05,0.06,1.0,-3.1,-0.1,-0.0,920,0,,,,,,,,,,,,,,,,,,,
4870520,1480656126213,,,,,,,,-0.05,0.06,1.01,-3.1,-0.1,-0.0,900,0,,,,,,,,,,,,,,,,,,,
4870540,1480656126233,,,,,,,,-0.05,0.06,1.01,-3.1,-0.0,-0.0,920,0,,,,,,,,,,,,,,,,,,,
4870560,1480656126253,,,,,60,,,-0.05,0.06,1.0,-3.1,0.0,-0.0,920,0,1,0,0.0,0,37.478371,-122.203674,0.0,0.0,41.8,10,3,1.4,0,0.0,-1,0.0,,0.0,0
4870580,1480656126273,,,,,,,,-0.05,0.07,1.0,-3.1,0.0,-0.0,920,0,,,,,,,,,,,,,,,,,,,
4870600,1480656126294,,,,,,,,-0.05,0.06,1.01,-3.1,-0.0,-0.1,920,0,,,,,,,,,,,,,,,,,,,
4870620,1480656126314,,,,,,,,-0.05,0.06,1.01,-3.1,0.1,-0.1,920,0,,,,,,,,,,,,,,,,,,,
4870640,1480656126334,,,,,,,,-0.05,0.06,1.0,-3.1,0.1,-0.1,920,0,,,,,,,,,,,,,,,,,,,
4870660,1480656126354,0,100.6,,125.6,60,121.8,,-0.05,0.06,1.0,-3.1,-0.0,-0.1,920,0,1,0,0.0,0,37.478371,-122.203674,0.0,0.0,41.8,10,3,1.4,0,0.0,-1,0.0,0.0,0.0,0
4870680,1480656126374,,,,,,,,-0.05,0.06,1.0,-3.1,-0.1,-0.1,920,0,,,,,,,,,,,,,,,,,,,
4870700,1480656126394,,,,,,,,-0.05,0.06,1.0,-3.1,0.1,-0.0,920,0,,,,,,,,,,,,,,,,,,,
4870720,1480656126414,,,,,,,,-0.04,0.06,1.01,-3.1,0.2,-0.0,920,0,,,,,,,,,,,,,,,,,,,
4870740,1480656126434,,,,,,,,-0.04,0.07,1.0,-3.1,0.2,-0.0,920,0,,,,,,,,,,,,,,,,,,,
4870760,1480656126454,,,,,61,,,-0.04,0.07,1.0,-3.1,-0.0,-0.0,920,0,1,0,0.0,0,37.478371,-122.203674,0.0,0.0,41.8,10,3,1.4,0,0.0,-1,0.0,,0.0,0
4870780,1480656126474,,,,,,,,-0.05,0.07,1.01,-3.1,-0.1,-0.0,920,0,,,,,,,,,,,,,,,,,,,
4870800,1480656126494,,,,,,,,-0.05,0.08,1.02,-3.1,0.0,-0.0,920,0,,,,,,,,,,,,,,,,,,,
4870820,1480656126514,,,,,,,,-0.05,0.08,1.01,-3.1,0.1,0.0,920,0,,,,,,,,,,,,,,,,,,,
4870840,1480656126534,,,,,,,,-0.05,0.08,1.01,-3.1,0.1,0.0,920,0,,,,,,,,,,,,,,,,,,,
4870860,1480656126554,0,96.9,,123.9,56,122.2,,-0.05,0.08,1.01,-3.1,0.0,0.0,920,0,1,0,0.0,0,37.478371,-122.203674,0.0,0.0,41.8,10,3,1.4,0,0.0,-1,0.0,0.0,0.0,0
4870880,1480656126574,,,,,,,,-0.05,0.08,1.01,-3.1,-0.0,-0.0,920,0,,,,,,,,,,,,,,,,,,,
4870900,1480656126693,,,,,,,,-0.05,0.07,1.01,-3.1,0.0,-0.0,920,0,,,,,,,,,,,,,,,,,,,
4870920,1480656126713,,,,,,,,-0.05,0.07,1.01,-3.1,0.1,-0.0,920,0,,,,,,,,,,,,,,,,,,,
4870940,1480656126733,,,,,,,,-0.05,0.07,1.0,-3.1,-0.0,-0.0,920,0,,,,,,,,,,,,,,,,,,,
4870960,1480656126753,,,,,61,,,-0.05,0.07,1.0,-3.2,-0.1,-0.0,920,0,1,0,0.0,0,37.478371,-122.203674,0.0,0.0,41.8,10,3,1.4,0,0.0,-1,0.0,,0.0,0
4870980,1480656126773,,,,,,,,-0.05,0.07,1.0,-3.1,0.1,-0.0,920,0,,,,,,,,,,,,,,,,,,,
4871000,1480656126793,,,,,,,,-0.04,0.07,1.0,-3.1,0.1,-0.0,920,0,,,,,,,,,,,,,,,,,,,
4871020,1480656126813,,,,,,,,-0.04,0.07,0.99,-3.2,0.1,0.0,920,0,,,,,,,,,,,,,,,,,,,
4871040,1480656126833,,,,,,,,-0.04,0.08,0.99,-3.1,-0.1,0.1,920,0,,,,,,,,,,,,,,,,,,,
4871060,1480656126853,0,100.6,,125.1,60,119.7,,-0.05,0.08,1.0,-3.2,-0.2,0.1,920,0,1,0,0.0,0,37.478371,-122.203674,0.0,0.0,41.8,10,3,1.4,0,0.0,-1,0.0,0.0,0.0,0
4871080,1480656126873,,,,,,,,-0.05,0.08,1.01,-3.2,-0.1,0.1,920,0,,,,,,,,,,,,,,,,,,,
4871100,1480656126794,,,,,,,,-0.05,0.08,1.0,-3.1,-0.1,0.0,920,0,,,,,,,,,,,,,,,,,,,
4871120,1480656126814,,,,,,,,-0.05,0.08,1.0,-3.1,0.0,0.1,920,0,,,,,,,,,,,,,,,,,,,
4871140,1480656126834,,,,,,,,-0.05,0.08,1.0,-3.1,-0.1,0.0,920,0,,,,,,,,,,,,,,,,,,,
4871160,1480656126854,,,,,57,,,-0.05,0.07,1.0,-3.1,-0.1,-0.0,920,0,1,0,0.0,0,37.478371,-122.203674,0.0,0.0,41.8,10,3,1.4,0,0.0,-1,0.0,,0.0,0
4871180,1480656126874,,,,,,,,-0.05,0.07,1.0,-3.1,-0.1,-0.0,920,0,,,,,,,,,,,,,,,,,,,
4871200,1480656126894,,,,,,,,-0.05,0.07,1.0,-3.1,-0.0,-0.0,920,0,,,,,,,,,,,,,,,,,,,
4871220,1480656126908,,,,,,,,-0.05,0.07,1.0,-3.1,-0.1,-0.0,920,0,,,,,,,,,,,,,,,,,,,
4871240,1480656126928,,,,,,,,-0.05,0.07,1.0,-3.1,-0.2,-0.0,920,0,,,,,,,,,,,,,,,,,,,
4871260,1480656126948,0,100.0,2.0,124.5,63,118.9,14.9,-0.05,0.07,1.0,-3.1,-0.1,-0.0,920,0,1,0,0.0,0,37.478371,-122.203674,0.0,0.0,41.8,10,3,1.4,0,0.0,-1,0.0,0.0,0.0,0
4871280,1480656126968,,,,,,,,-0.05,0.07,1.0,-3.1,0.1,0.0,920,0,,,,,,,,,,,,,,,,,,,
4871300,1480656126994,,,,,,,,-0.04,0.07,0.99,-3.1,0.0,0.0,920,0,,,,,,,,,,,,,,,,,,,
4871320,1480656127014,,,,,,,,-0.04,0.07,1.0,-3.1,-0.2,0.0,920,0,,,,,,,,,,,,,,,,,,,
4871340,1480656127034,,,,,,,,-0.05,0.07,1.0,-3.1,-0.2,0.0,920,0,,,,,,,,,,,,,,,,,,,
4871360,1480656127054,,,,,59,,,-0.05,0.07,1.01,-3.1,-0.1,0.0,920,0,1,0,0.0,0,37.478371,-122.203674,0.0,0.0,41.8,10,3,1.4,0,0.0,-1,0.0,,0.0,0
4871380,1480656127074,,,,,,,,-0.05,0.07,1.01,-3.1,-0.0,0.0,920,0,,,,,,,,,,,,,,,,,,,
4871400,1480656127094,,,,,,,,-0.05,0.07,1.0,-3.1,-0.0,0.0,920,0,,,,,,,,,,,,,,,,,,,
4871420,1480656127114,,,,,,,,-0.05,0.07,1.0,-3.1,-0.1,-0.0,920,0,,,,,,,,,,,,,,,,,,,
4871440,1480656127134,,,,,,,,-0.05,0.07,1.0,-3.1,-0.1,-0.0,920,0,,,,,,,,,,,,,,,,,,,
4871460,1480656127154,0,99.9,,124.3,62,119.2,,-0.05,0.06,1.0,-3.1,-0.0,-0.1,920,0,1,0,0.0,0,37.478371,-122.203674,0.0,0.0,41.8,10,3,1.4,0,0.0,-1,0.0,0.0,0.0,0
4871480,1480656127174,,,,,,,,-0.05,0.06,1.0,-3.1,-0.0,-0.1,920,0,,,,,,,,,,,,,,,,,,,
4871500,1480656127194,,,,,,,,-0.05,0.06,1.0,-3.1,-0.1,-0.0,920,0,,,,,,,,,,,,,,,,,,,
4871520,1480656127214,,,,,,,,-0.05,0.06,1.0,-3.1,-0.1,-0.0,920,0,,,,,,,,,,,,,,,,,,,
4871540,1480656127234,,,,,,,,-0.05,0.06,1.0,-3.1,0.0,-0.0,920,0,,,,,,,,,,,,,,,,,,,
4871560,1480656127254,,,,,62,,,-0.05,0.06,1.0,-3.1,0.2,-0.0,900,0,1,0,0.0,0,37.478371,-122.203674,0.0,0.0,41.8,10,3,1.4,0,0.0,-1,0.0,,0.0,0
4871580,1480656127274,,,,,,,,-0.05,0.06,1.0,-3.1,0.0,-0.0,900,0,,,,,,,,,,,,,,,,,,,
4871600,1480656127294,,,,,,,,-0.05,0.06,1.01,-3.1,-0.1,-0.0,900,0,,,,,,,,,,,,,,,,,,,
4871620,1480656127314,,,,,,,,-0.05,0.06,1.01,-3.1,-0.1,-0.0,900,0,,,,,,,,,,,,,,,,,,,
4871640,1480656127334,,,,,,,,-0.05,0.06,1.01,-3.1,0.0,-0.0,900,0,,,,,,,,,,,,,,,,,,,
4871660,1480656127354,0,101.1,,125.7,61,121.6,,-0.05,0.07,1.01,-3.1,-0.0,-0.0,900,0,1,0,0.0,0,37.478371,-122.203674,0.0,0.0,41.8,10,3,1.4,0,0.0,-1,0.0,0.0,0.0,0
4871680,1480656127374,,,,,,,,-0.05,0.06,1.01,-3.1,-0.0,-0.1,900,0,,,,,,,,,,,,,,,,,,,
4871700,1480656127493,,,,,,,,-0.05,0.06,1.01,-3.1,0.1,-0.1,920,0,,,,,,,,,,,,,,,,,,,
4871720,1480656127513,,,,,,,,-0.05,0.06,1.0,-3.1,0.1,-0.1,900,0,,,,,,,,,,,,,,,,,,,
4871740,1480656127533,,,,,,,,-0.05,0.06,1.0,-3.1,-0.0,-0.1,900,0,,,,,,,,,,,,,,,,,,,
4871760,1480656127553,,,,,56,,,-0.05,0.06,1.0,-3.1,-0.1,-0.1,900,0,1,0,0.0,0,37.478371,-122.203674,0.0,0.0,41.8,10,3,1.4,0,0.0,-1,0.0,,0.0,0
4871780,1480656127573,,,,,,,,-0.05,0.06,1.0,-3.1,0.0,-0.0,900,0,,,,,,,,,,,,,,,,,,,
4871800,1480656127593,,,,,,,,-0.05,0.07,1.0,-3.1,0.1,-0.0,900,0,,,,,,,,,,,,,,,,,,,
4871820,1480656127613,,,,,,,,-0.05,0.07,1.0,-3.1,0.0,-0.0,900,0,,,,,,,,,,,,,,,,,,,
4871840,1480656127633,,,,,,,,-0.05,0.07,1.0,-3.2,-0.1,-0.0,920,0,,,,,,,,,,,,,,,,,,,
4871860,1480656127653,0,98.4,,125.0,58,122.1,,-0.05,0.07,1.01,-3.1,-0.1,-0.0,900,0,1,0,0.0,0,37.478371,-122.203674,0.0,0.0,41.8,10,3,1.4,0,0.0,-1,0.0,0.0,0.0,0
4871880,1480656127673,,,,,,,,-0.05,0.07,1.0,-3.1,-0.0,-0.0,900,0,,,,,,,,,,,,,,,,,,,
4871900,1480656127593,,,,,,,,-0.05,0.06,1.0,-3.1,-0.1,-0.0,900,0,,,,,,,,,,,,,,,,,,,
