"Interval"|"ms"|0|0|1,"Utc"|"ms"|0|0|1,"FuelLevel"|"F"|0|100|5,"OilTemp"|"F"|0.0|300.0|5,"CoolantPressPSI"|"PSI"|0.0|20.0|1,"Coolant"|"F"|0.0|300.0|5,"OilPress"|"PSI"|0|150|10,"EngineTemp"|"F"|0.0|300.0|5,"Battery"|"Volts"|0.0|20.0|1,"AccelX"|"G"|-3.0|3.0|50,"AccelY"|"G"|-3.0|3.0|50,"AccelZ"|"G"|-3.0|3.0|50,"Yaw"|"Deg/Sec"|-300.0|300.0|50,"Pitch"|"Deg/Sec"|-300.0|300.0|50,"Roll"|"Deg/Sec"|-300.0|300.0|50,"RPM"|""|0|10000|50,"Driveshaft"|"RPM"|0|5000|50,"GPIO1"|""|0|1|10,"GPIO2"|""|0|1|10,"GearRatio"|""|-5.0|5.0|10,"Gear"|""|-1|5|10,"Latitude"|"Degrees"|-180.0|180.0|10,"Longitude"|"Degrees"|-180.0|180.0|10,"Speed"|"MPH"|0.0|150.0|10,"Distance"|"Miles"|0.0|0.0|10,"Altitude"|"Feet"|0.0|4000.0|10,"GPSSats"|""|0|20|10,"GPSQual"|""|0|5|10,"GPSDOP"|""|0.0|20.0|10,"LapCount"|""|0|0|10,"LapTime"|"Min"|0.0|0.0|10,"Sector"|""|0|0|10,"SectorTime"|"Min"|0.0|0.0|10,"PredTime"|"Min"|0.0|0.0|5,"ElapsedTime"|"Min"|0.0|0.0|10,"CurrentLap"|""|0|0|10
5069,1480656421932,,,,,,,,-0.06,0.08,0.99,-3.1,-0.2,0.1,740,0,,,,,,,,,,,,,,,,,,,
5089,1480656421952,,,,,,,,-0.05,0.08,0.99,-3.1,-0.1,0.1,740,0,,,,,,,,,,,,,,,,,,,
5109,1480656421972,,,,,,,,-0.05,0.08,0.99,-3.1,0.0,0.1,740,0,,,,,,,,,,,,,,,,,,,
5129,1480656421992,,,,,,,,-0.05,0.07,0.99,-3.1,0.1,0.1,740,0,,,,,,,,,,,,,,,,,,,
5149,1480656422018,,,,,44,,,-0.05,0.07,0.99,-3.1,0.0,0.1,720,0,0,0,0.0,0,37.478374,-122.203712,0.0,0.0,40.2,7,2,1.1,0,0.0,-1,0.0,,0.0,0
5169,1480656422038,,,,,,,,-0.05,0.08,0.99,-3.1,-0.1,0.1,720,0,,,,,,,,,,,,,,,,,,,
5189,1480656422058,,,,,,,,-0.05,0.07,0.99,-3.1,-0.1,0.1,700,0,,,,,,,,,,,,,,,,,,,
5209,1480656422078,,,,,,,,-0.05,0.07,0.99,-3.1,-0.1,0.1,700,0,,,,,,,,,,,,,,,,,,,
5229,1480656422098,,,,,,,,-0.05,0.08,0.99,-3.1,-0.2,0.1,700,0,,,,,,,,,,,,,,,,,,,
5249,1480656422118,0,92.3,,165.6,45,157.8,,-0.05,0.07,1.0,-3.1,-0.2,0.1,680,0,0,0,0.0,0,37.478374,-122.203712,0.0,0.0,40.2,7,2,1.1,0,0.0,-1,0.0,0.0,0.0,0
5269,1480656422138,,,,,,,,-0.05,0.07,1.0,-3.1,-0.1,0.1,680,0,,,,,,,,,,,,,,,,,,,
5289,1480656422158,,,,,,,,-0.05,0.07,1.0,-3.1,0.0,0.1,660,0,,,,,,,,,,,,,,,,,,,
5309,1480656422178,,,,,,,,-0.05,0.07,1.0,-3.1,-0.1,0.1,660,0,,,,,,,,,,,,,,,,,,,
5329,1480656422198,,,,,,,,-0.05,0.07,1.0,-3.1,-0.1,0.1,660,0,,,,,,,,,,,,,,,,,,,
5349,1480656422218,,,,,46,,,-0.05,0.07,1.0,-3.1,-0.1,0.1,640,0,0,0,0.0,0,37.478374,-122.203712,0.0,0.0,40.2,7,2,1.1,0,0.0,-1,0.0,,0.0,0
5369,1480656422238,,,,,,,,-0.05,0.07,1.0,-3.1,-0.1,0.1,620,0,,,,,,,,,,,,,,,,,,,
5389,1480656422258,,,,,,,,-0.05,0.07,1.0,-3.1,-0.0,0.0,620,0,,,,,,,,,,,,,,,,,,,
5409,1480656422278,,,,,,,,-0.05,0.07,1.0,-3.1,-0.1,0.1,640,0,,,,,,,,,,,,,,,,,,,
5429,1480656422298,,,,,,,,-0.05,0.07,1.0,-3.1,-0.0,0.0,640,0,,,,,,,,,,,,,,,,,,,
5449,1480656422318,0,92.4,,165.7,37,157.5,,-0.05,0.07,1.0,-3.2,0.0,0.1,620,0,0,0,0.0,0,37.478374,-122.203712,0.0,0.0,40.2,7,2,1.1,0,0.0,-1,0.0,0.0,0.0,0
5469,1480656422338,,,,,,,,-0.05,0.07,1.0,-3.1,0.0,0.1,620,0,,,,,,,,,,,,,,,,,,,
5489,1480656422358,,,,,,,,-0.05,0.06,1.0,-3.1,0.0,0.1,620,0,,,,,,,,,,,,,,,,,,,
5509,1480656422378,,,,,,,,-0.05,0.07,1.0,-3.1,-0.0,0.1,620,0,,,,,,,,,,,,,,,,,,,
5529,1480656422398,,,,,,,,-0.05,0.06,1.0,-3.1,-0.0,0.0,600,0,,,,,,,,,,,,,,,,,,,
5549,1480656422414,,,,,38,,,-0.05,0.07,1.0,-3.1,0.0,0.0,600,0,0,0,0.0,0,37.478374,-122.203712,0.0,0.0,40.2,7,2,1.1,0,0.0,-1,0.0,,0.0,0
5569,1480656422434,,,,,,,,-0.05,0.07,1.0,-3.1,0.0,0.0,600,0,,,,,,,,,,,,,,,,,,,
5589,1480656422454,,,,,,,,-0.05,0.06,1.0,-3.1,0.0,0.0,600,0,,,,,,,,,,,,,,,,,,,
5609,1480656422474,,,,,,,,-0.05,0.07,1.0,-3.1,0.0,0.0,620,0,,,,,,,,,,,,,,,,,,,
5629,1480656422494,,,,,,,,-0.05,0.07,1.0,-3.1,-0.0,0.0,620,0,,,,,,,,,,,,,,,,,,,
5649,1480656422612,0,92.2,,165.9,38,157.7,,-0.05,0.06,1.0,-3.1,0.0,0.0,620,0,0,0,0.0,0,37.478374,-122.203712,0.0,0.0,32.7,8,2,1.8,0,0.0,-1,0.0,0.0,0.0,0
5669,1480656422632,,,,,,,,-0.05,0.07,1.0,-3.1,0.0,0.0,600,0,,,,,,,,,,,,,,,,,,,
5689,1480656422652,,,,,,,,-0.05,0.06,1.0,-3.1,0.0,0.0,600,0,,,,,,,,,,,,,,,,,,,
5709,1480656422672,,,,,,,,-0.05,0.07,1.0,-3.1,0.1,0.0,600,0,,,,,,,,,,,,,,,,,,,
5729,1480656422692,,,,,,,,-0.05,0.07,1.0,-3.1,0.1,0.0,600,0,,,,,,,,,,,,,,,,,,,
5749,1480656422712,,,,,39,,,-0.05,0.06,1.0,-3.1,0.1,0.0,600,0,0,0,0.0,0,37.478374,-122.203712,0.0,0.0,32.7,8,2,1.8,0,0.0,-1,0.0,,0.0,0
5769,1480656422732,,,,,,,,-0.04,0.07,1.0,-3.1,0.1,0.0,620,0,,,,,,,,,,,,,,,,,,,
5789,1480656422752,,,,,,,,-0.05,0.07,1.0,-3.1,0.1,0.0,620,0,,,,,,,,,,,,,,,,,,,
5809,1480656422772,,,,,,,,-0.05,0.07,1.0,-3.1,0.1,0.0,620,0,,,,,,,,,,,,,,,,,,,
5829,1480656422792,,,,,,,,-0.05,0.08,1.0,-3.1,0.1,0.0,620,0,,,,,,,,,,,,,,,,,,,
5849,1480656422713,0,92.2,,166.1,38,157.7,,-0.05,0.07,1.0,-3.1,0.1,0.0,620,0,0,0,0.0,0,37.478374,-122.203712,0.0,0.0,32.7,8,2,1.8,0,0.0,-1,0.0,0.0,0.0,0
5869,1480656422733,,,,,,,,-0.05,0.07,1.0,-3.1,0.1,0.0,620,0,,,,,,,,,,,,,,,,,,,
5889,1480656422753,,,,,,,,-0.05,0.07,1.0,-3.1,0.1,0.0,620,0,,,,,,,,,,,,,,,,,,,
5909,1480656422773,,,,,,,,-0.05,0.06,1.0,-3.1,0.1,0.0,620,0,,,,,,,,,,,,,,,,,,,
5929,1480656422793,,,,,,,,-0.05,0.07,1.0,-3.1,0.1,-0.0,620,0,,,,,,,,,,,,,,,,,,,
5949,1480656422816,,,,,38,,,-0.05,0.07,1.0,-3.1,0.2,0.0,620,0,0,0,0.0,0,37.478374,-122.203712,0.0,0.0,32.7,8,2,1.8,0,0.0,-1,0.0,,0.0,0
5969,1480656422836,,,,,,,,-0.05,0.07,1.0,-3.1,0.2,0.0,620,0,,,,,,,,,,,,,,,,,,,
5989,1480656422856,,,,,,,,-0.04,0.07,1.0,-3.1,0.2,0.0,640,0,,,,,,,,,,,,,,,,,,,
6009,1480656422876,,,,,,,,-0.04,0.06,1.0,-3.1,0.1,0.0,640,0,,,,,,,,,,,,,,,,,,,
6029,1480656422896,,,,,,,,-0.05,0.07,1.0,-3.1,0.1,0.0,640,0,,,,,,,,,,,,,,,,,,,
6049,1480656422910,0,92.4,6.9,165.9,38,157.7,14.75,-0.05,0.07,1.0,-3.1,0.1,0.0,640,0,0,0,0.0,0,37.478374,-122.203712,0.0,0.0,32.7,8,2,1.8,0,0.0,-1,0.0,0.0,0.0,0
6069,1480656422930,,,,,,,,-0.05,0.07,1.0,-3.1,-0.0,0.0,640,0,,,,,,,,,,,,,,,,,,,
6089,1480656422950,,,,,,,,-0.05,0.07,1.0,-3.1,-0.0,0.0,640,0,,,,,,,,,,,,,,,,,,,
6109,1480656422970,,,,,,,,-0.05,0.07,1.0,-3.1,0.0,0.0,660,0,,,,,,,,,,,,,,,,,,,
6129,1480656422990,,,,,,,,-0.05,0.07,1.0,-3.1,-0.1,0.0,660,0,,,,,,,,,,,,,,,,,,,
6149,1480656423016,,,,,36,,,-0.05,0.07,1.0,-3.1,-0.0,0.0,660,0,0,0,0.0,0,37.478374,-122.203712,0.0,0.0,33.2,9,2,1.6,0,0.0,-1,0.0,,0.0,0
6169,1480656423036,,,,,,,,-0.05,0.07,1.0,-3.1,0.0,0.0,660,0,,,,,,,,,,,,,,,,,,,
6189,1480656423056,,,,,,,,-0.05,0.07,1.0,-3.1,-0.1,0.0,660,0,,,,,,,,,,,,,,,,,,,
6209,1480656423076,,,,,,,,-0.05,0.07,1.0,-3.1,-0.1,0.0,660,0,,,,,,,,,,,,,,,,,,,
6229,1480656423096,,,,,,,,-0.05,0.07,1.0,-3.1,0.0,0.0,680,0,,,,,,,,,,,,,,,,,,,
6249,1480656423116,0,94.2,,166.7,40,158.7,,-0.05,0.07,1.0,-3.1,-0.0,0.0,680,0,0,0,0.0,0,37.478374,-122.203712,0.0,0.0,33.2,9,2,1.6,0,0.0,-1,0.0,0.0,0.0,0
6269,1480656423136,,,,,,,,-0.05,0.07,1.0,-3.1,-0.1,0.0,680,0,,,,,,,,,,,,,,,,,,,
6289,1480656423156,,,,,,,,-0.05,0.07,1.0,-3.1,-0.0,0.0,680,0,,,,,,,,,,,,,,,,,,,
6309,1480656423176,,,,,,,,-0.05,0.07,0.99,-3.1,0.1,0.0,680,0,,,,,,,,,,,,,,,,,,,
6329,1480656423196,,,,,,,,-0.04,0.07,0.99,-3.1,0.1,0.0,680,0,,,,,,,,,,,,,,,,,,,
6349,1480656423216,,,,,42,,,-0.04,0.07,0.99,-3.1,0.0,0.0,680,0,0,0,0.0,0,37.478374,-122.203712,0.0,0.0,33.2,9,2,1.6,0,0.0,-1,0.0,,0.0,0
6369,1480656423236,,,,,,,,-0.05,0.07,1.0,-3.1,0.0,0.0,680,0,,,,,,,,,,,,,,,,,,,
6389,1480656423256,,,,,,,,-0.04,0.07,1.0,-3.1,0.2,-0.0,680,0,,,,,,,,,,,,,,,,,,,
6409,1480656423276,,,,,,,,-0.04,0.07,1.0,-3.1,0.2,-0.0,680,0,,,,,,,,,,,,,,,,,,,
6429,1480656423296,,,,,,,,-0.04,0.07,1.0,-3.1,0.1,-0.0,680,0,,,,,,,,,,,,,,,,,,,
6449,1480656423415,0,94.2,,166.9,42,158.7,,-0.05,0.07,1.0,-3.1,0.0,-0.0,680,0,0,0,0.0,0,37.478374,-122.203712,0.0,0.0,33.2,9,2,1.6,0,0.0,-1,0.0,0.0,0.0,0
6469,1480656423435,,,,,,,,-0.05,0.07,1.0,-3.1,0.1,0.0,680,0,,,,,,,,,,,,,,,,,,,
6489,1480656423455,,,,,,,,-0.05,0.07,1.0,-3.1,0.2,0.0,680,0,,,,,,,,,,,,,,,,,,,
6509,1480656423475,,,,,,,,-0.05,0.07,1.0,-3.1,0.1,0.0,680,0,,,,,,,,,,,,,,,,,,,
6529,1480656423495,,,,,,,,-0.05,0.07,1.0,-3.1,-0.0,0.0,680,0,,,,,,,,,,,,,,,,,,,
6549,1480656423515,,,,,40,,,-0.05,0.07,1.0,-3.1,-0.0,0.0,680,0,0,0,0.0,0,37.478374,-122.203712,0.0,0.0,33.2,9,2,1.6,0,0.0,-1,0.0,,0.0,0
6569,1480656423535,,,,,,,,-0.05,0.07,1.0,-3.1,0.1,0.0,680,0,,,,,,,,,,,,,,,,,,,
6589,1480656423555,,,,,,,,-0.05,0.07,1.0,-3.1,0.1,0.0,680,0,,,,,,,,,,,,,,,,,,,
6609,1480656423575,,,,,,,,-0.05,0.07,1.0,-3.1,0.1,0.0,680,0,,,,,,,,,,,,,,,,,,,
6629,1480656423595,,,,,,,,-0.05,0.07,1.0,-3.1,0.1,0.0,680,0,,,,,,,,,,,,,,,,,,,
6649,1480656423516,0,94.4,,166.9,42,158.7,,-0.05,0.06,1.0,-3.1,0.2,0.0,680,0,0,0,0.0,0,37.478374,-122.203712,0.0,0.0,33.2,9,2,1.6,0,0.0,-1,0.0,0.0,0.0,0
6669,1480656423536,,,,,,,,-0.05,0.06,1.0,-3.1,0.3,0.0,680,0,,,,,,,,,,,,,,,,,,,
6689,1480656423556,,,,,,,,-0.05,0.06,1.0,-3.1,0.2,0.0,680,0,,,,,,,,,,,,,,,,,,,
6709,1480656423576,,,,,,,,-0.05,0.06,1.0,-3.1,0.1,0.0,680,0,,,,,,,,,,,,,,,,,,,
6729,1480656423596,,,,,,,,-0.05,0.06,1.0,-3.1,0.1,0.0,680,0,,,,,,,,,,,,,,,,,,,
6749,1480656423606,,,,,37,,,-0.05,0.07,1.0,-3.1,0.2,0.0,680,0,0,0,0.0,0,37.478374,-122.203712,0.0,0.0,33.2,9,2,1.6,0,0.0,-1,0.0,,0.0,0
6769,1480656423626,,,,,,,,-0.05,0.07,1.0,-3.1,0.2,0.0,680,0,,,,,,,,,,,,,,,,,,,
6789,1480656423646,,,,,,,,-0.05,0.06,1.0,-3.1,0.1,0.0,680,0,,,,,,,,,,,,,,,,,,,
6809,1480656423666,,,,,,,,-0.05,0.06,1.0,-3.1,0.1,0.0,680,0,,,,,,,,,,,,,,,,,,,
6829,1480656423686,,,,,,,,-0.05,0.07,1.0,-3.1,0.2,0.0,700,0,,,,,,,,,,,,,,,,,,,
6849,1480656423705,1,93.4,,166.0,39,157.8,,-0.05,0.06,1.0,-3.1,0.2,0.0,700,0,0,0,0.0,0,37.478374,-122.203712,0.0,0.0,33.2,9,2,1.6,0,0.0,-1,0.0,0.0,0.0,0
6869,1480656423725,,,,,,,,-0.05,0.07,1.0,-3.1,0.3,0.0,700,0,,,,,,,,,,,,,,,,,,,
6889,1480656423745,,,,,,,,-0.05,0.07,1.0,-3.1,0.2,0.0,700,0,,,,,,,,,,,,,,,,,,,
6909,1480656423765,,,,,,,,-0.05,0.07,1.0,-3.1,0.1,0.0,700,0,,,,,,,,,,,,,,,,,,,
6929,1480656423785,,,,,,,,-0.05,0.07,1.01,-3.1,0.1,0.0,700,0,,,,,,,,,,,,,,,,,,,
6949,1480656423805,,,,,44,,,-0.05,0.07,1.01,-3.1,0.2,0.0,700,0,0,0,0.0,0,37.478374,-122.203712,0.0,0.0,33.2,9,2,1.6,0,0.0,-1,0.0,,0.0,0
6969,1480656423825,,,,,,,,-0.04,0.07,1.0,-3.1,0.3,0.0,700,0,,,,,,,,,,,,,,,,,,,
6989,1480656423845,,,,,,,,-0.04,0.07,1.0,-3.1,0.3,0.0,700,0,,,,,,,,,,,,,,,,,,,
7009,1480656423865,,,,,,,,-0.04,0.07,1.0,-3.1,0.3,0.0,700,0,,,,,,,,,,,,,,,,,,,
7029,1480656423885,,,,,,,,-0.04,0.07,1.0,-3.1,0.1,0.0,700,0,,,,,,,,,,,,,,,,,,,
7049,1480656423903,0,92.9,7.1,166.5,44,158.3,14.82,-0.05,0.07,1.0,-3.1,0.0,0.0,720,0,0,0,0.0,0,37.478374,-122.203712,0.0,0.0,33.2,9,2,1.6,0,0.0,-1,0.0,0.0,0.0,0
7069,1480656423923,,,,,,,,-0.05,0.07,1.0,-3.1,0.1,0.0,720,0,,,,,,,,,,,,,,,,,,,
7089,1480656423943,,,,,,,,-0.05,0.07,1.01,-3.1,0.2,0.0,700,0,,,,,,,,,,,,,,,,,,,
7109,1480656423963,,,,,,,,-0.05,0.07,1.0,-3.1,0.3,0.0,700,0,,,,,,,,,,,,,,,,,,,
7129,1480656423983,,,,,,,,-0.04,0.07,1.0,-3.1,0.4,-0.0,700,0,,,,,,,,,,,,,,,,,,,
7149,1480656424009,,,,,40,,,-0.05,0.07,1.0,-3.1,0.3,-0.0,700,0,0,0,0.0,0,37.478374,-122.203712,0.0,0.0,33.2,9,2,1.6,0,0.0,-1,0.0,,0.0,0
7169,1480656424029,,,,,,,,-0.05,0.07,1.0,-3.1,0.2,-0.0,700,0,,,,,,,,,,,,,,,,,,,
7189,1480656424049,,,,,,,,-0.05,0.07,1.01,-3.1,0.1,0.0,700,0,,,,,,,,,,,,,,,,,,,
7209,1480656424069,,,,,,,,-0.05,0.07,1.01,-3.1,0.1,0.0,700,0,,,,,,,,,,,,,,,,,,,
7229,1480656424089,,,,,,,,-0.05,0.07,1.01,-3.1,0.3,0.0,700,0,,,,,,,,,,,,,,,,,,,
7249,1480656424208,0,93.9,,166.5,39,158.8,,-0.05,0.07,1.0,-3.1,0.4,0.0,700,0,0,0,0.0,0,37.478374,-122.203712,0.0,0.0,33.2,9,2,1.6,0,0.0,-1,0.0,0.0,0.0,0
7269,1480656424228,,,,,,,,-0.04,0.07,1.0,-3.1,0.3,0.0,700,0,,,,,,,,,,,,,,,,,,,
7289,1480656424248,,,,,,,,-0.05,0.07,1.0,-3.1,0.2,0.0,700,0,,,,,,,,,,,,,,,,,,,
7309,1480656424268,,,,,,,,-0.05,0.07,1.0,-3.1,0.2,0.0,700,0,,,,,,,,,,,,,,,,,,,
7329,1480656424288,,,,,,,,-0.05,0.07,1.01,-3.1,0.2,0.0,700,0,,,,,,,,,,,,,,,,,,,
7349,1480656424308,,,,,38,,,-0.05,0.06,1.01,-3.1,0.2,0.0,700,0,0,0,0.0,0,37.478374,-122.203712,0.0,0.0,33.2,9,2,1.6,0,0.0,-1,0.0,,0.0,0
7369,1480656424328,,,,,,,,-0.05,0.06,1.01,-3.1,0.3,0.0,700,0,,,,,,,,,,,,,,,,,,,
7389,1480656424348,,,,,,,,-0.05,0.06,1.0,-3.1,0.3,0.0,700,0,,,,,,,,,,,,,,,,,,,
7409,1480656424368,,,,,,,,-0.05,0.06,1.0,-3.1,0.2,0.0,700,0,,,,,,,,,,,,,,,,,,,
7429,1480656424388,,,,,,,,-0.05,0.06,1.0,-3.1,0.1,0.0,700,0,,,,,,,,,,,,,,,,,,,
7449,1480656424308,0,94.2,,166.7,44,158.9,,-0.05,0.06,1.0,-3.1,0.2,0.0,700,0,0,0,0.0,0,37.478374,-122.203712,0.0,0.0,33.2,9,2,1.6,0,0.0,-1,0.0,0.0,0.0,0
7469,1480656424328,,,,,,,,-0.05,0.06,1.0,-3.1,0.3,0.0,700,0,,,,,,,,,,,,,,,,,,,
7489,1480656424348,,,,,,,,-0.05,0.06,1.0,-3.1,0.3,0.0,700,0,,,,,,,,,,,,,,,,,,,
7509,1480656424368,,,,,,,,-0.04,0.06,1.0,-3.1,0.3,0.0,700,0,,,,,,,,,,,,,,,,,,,
7529,1480656424388,,,,,,,,-0.05,0.06,1.0,-3.1,0.1,0.0,700,0,,,,,,,,,,,,,,,,,,,
7549,1480656424406,,,,,40,,,-0.05,0.06,1.0,-3.1,-0.0,0.0,700,0,0,0,0.0,0,37.478374,-122.203712,0.0,0.0,33.2,9,2,1.6,0,0.0,-1,0.0,,0.0,0
7569,1480656424426,,,,,,,,-0.05,0.06,1.0,-3.1,0.0,0.1,700,0,,,,,,,,,,,,,,,,,,,
7589,1480656424446,,,,,,,,-0.05,0.07,1.0,-3.1,0.2,0.1,700,0,,,,,,,,,,,,,,,,,,,
7609,1480656424466,,,,,,,,-0.04,0.06,1.0,-3.1,0.2,0.1,700,0,,,,,,,,,,,,,,,,,,,
7629,1480656424486,,,,,,,,-0.04,0.07,1.0,-3.1,0.2,0.1,700,0,,,,,,,,,,,,,,,,,,,
7649,1480656424505,0,92.1,,166.1,45,157.9,,-0.05,0.07,1.0,-3.1,0.1,0.1,700,0,0,0,0.0,0,37.478374,-122.203712,0.0,0.0,33.2,9,2,1.6,0,0.0,-1,0.0,0.0,0.0,0
7669,1480656424525,,,,,,,,-0.05,0.07,1.0,-3.1,0.1,0.1,700,0,,,,,,,,,,,,,,,,,,,
7689,1480656424545,,,,,,,,-0.05,0.06,1.01,-3.1,0.2,0.1,700,0,,,,,,,,,,,,,,,,,,,
7709,1480656424565,,,,,,,,-0.05,0.06,1.0,-3.1,0.3,0.1,700,0,,,,,,,,,,,,,,,,,,,
7729,1480656424585,,,,,,,,-0.05,0.07,1.0,-3.1,0.3,0.1,700,0,,,,,,,,,,,,,,,,,,,
7749,1480656424605,,,,,42,,,-0.05,0.06,1.0,-3.1,0.2,0.0,700,0,0,0,0.0,0,37.478374,-122.203712,0.0,0.0,33.2,9,2,1.6,0,0.0,-1,0.0,,0.0,0
7769,1480656424625,,,,,,,,-0.05,0.06,1.0,-3.1,0.1,0.0,700,0,,,,,,,,,,,,,,,,,,,
7789,1480656424645,,,,,,,,-0.05,0.07,1.0,-3.1,0.1,0.0,700,0,,,,,,,,,,,,,,,,,,,
7809,1480656424665,,,,,,,,-0.05,0.06,1.0,-3.1,0.2,0.0,700,0,,,,,,,,,,,,,,,,,,,
7829,1480656424685,,,,,,,,-0.05,0.06,1.0,-3.1,0.3,0.0,700,0,,,,,,,,,,,,,,,,,,,
7849,1480656424706,0,94.1,,166.9,40,158.8,,-0.05,0.06,1.0,-3.1,0.3,0.0,700,0,0,0,0.0,0,37.478374,-122.203712,0.0,0.0,33.2,9,2,1.6,0,0.0,-1,0.0,0.0,0.0,0
7869,1480656424726,,,,,,,,-0.05,0.06,1.0,-3.1,0.2,0.0,700,0,,,,,,,,,,,,,,,,,,,
7889,1480656424746,,,,,,,,-0.05,0.06,0.99,-3.1,0.0,0.0,700,0,,,,,,,,,,,,,,,,,,,
7909,1480656424766,,,,,,,,-0.05,0.06,1.0,-3.1,-0.0,0.0,700,0,,,,,,,,,,,,,,,,,,,
7929,1480656424786,,,,,,,,-0.04,0.06,1.0,-3.1,0.1,0.0,700,0,,,,,,,,,,,,,,,,,,,
7949,1480656424809,,,,,43,,,-0.04,0.06,1.0,-3.1,0.2,0.0,700,0,0,0,0.0,0,37.478374,-122.203712,0.0,0.0,33.2,9,2,1.6,0,0.0,-1,0.0,,0.0,0
7969,1480656424829,,,,,,,,-0.04,0.06,1.0,-3.1,0.3,0.0,700,0,,,,,,,,,,,,,,,,,,,
7989,1480656424849,,,,,,,,-0.04,0.06,1.0,-3.1,0.2,0.0,700,0,,,,,,,,,,,,,,,,,,,
8009,1480656424869,,,,,,,,-0.04,0.07,1.0,-3.1,0.0,0.0,700,0,,,,,,,,,,,,,,,,,,,
8029,1480656424889,,,,,,,,-0.04,0.06,1.0,-3.1,-0.0,-0.0,700,0,,,,,,,,,,,,,,,,,,,
8049,1480656425001,0,92.2,7.0,166.3,39,158.2,14.78,-0.04,0.06,1.0,-3.1,0.0,-0.0,700,0,0,0,0.0,0,37.478374,-122.203712,0.0,0.0,32.7,10,2,1.4,0,0.0,-1,0.0,0.0,0.0,0
8069,1480656425021,,,,,,,,-0.04,0.06,1.0,-3.1,0.2,-0.0,700,0,,,,,,,,,,,,,,,,,,,
8089,1480656425041,,,,,,,,-0.04,0.06,1.0,-3.1,0.4,-0.0,700,0,,,,,,,,,,,,,,,,,,,
8109,1480656425061,,,,,,,,-0.04,0.06,1.0,-3.1,0.3,-0.0,700,0,,,,,,,,,,,,,,,,,,,
8129,1480656425081,,,,,,,,-0.04,0.07,1.0,-3.1,0.2,-0.0,700,0,,,,,,,,,,,,,,,,,,,
8149,1480656425101,,,,,41,,,-0.04,0.07,1.0,-3.1,0.1,0.0,700,0,0,0,0.0,0,37.478374,-122.203712,0.0,0.0,32.7,10,2,1.4,0,0.0,-1,0.0,,0.0,0
8169,1480656425121,,,,,,,,-0.05,0.07,1.0,-3.1,-0.0,0.0,700,0,,,,,,,,,,,,,,,,,,,
8189,1480656425141,,,,,,,,-0.05,0.07,1.0,-3.1,0.0,-0.0,700,0,,,,,,,,,,,,,,,,,,,
8209,1480656425161,,,,,,,,-0.04,0.07,1.0,-3.1,0.2,0.0,700,0,,,,,,,,,,,,,,,,,,,
8229,1480656425181,,,,,,,,-0.04,0.07,1.0,-3.0,0.3,0.0,700,0,,,,,,,,,,,,,,,,,,,
8249,1480656425107,0,94.6,,167.1,42,158.2,,-0.04,0.07,1.0,-3.1,0.3,0.0,700,0,0,0,0.0,0,37.478374,-122.203712,0.0,0.0,32.7,10,2,1.4,0,0.0,-1,0.0,0.0,0.0,0
8269,1480656425127,,,,,,,,-0.04,0.07,1.0,-3.1,0.2,0.0,700,0,,,,,,,,,,,,,,,,,,,
8289,1480656425147,,,,,,,,-0.04,0.07,1.0,-3.1,0.0,0.0,700,0,,,,,,,,,,,,,,,,,,,
8309,1480656425167,,,,,,,,-0.05,0.07,1.0,-3.1,-0.1,0.0,700,0,,,,,,,,,,,,,,,,,,,
8329,1480656425187,,,,,,,,-0.05,0.07,1.0,-3.1,0.0,0.0,700,0,,,,,,,,,,,,,,,,,,,
8349,1480656425207,,,,,42,,,-0.04,0.07,1.0,-3.1,0.2,0.1,700,0,0,0,0.0,0,37.478374,-122.203712,0.0,0.0,32.7,10,2,1.4,0,0.0,-1,0.0,,0.0,0
8369,1480656425227,,,,,,,,-0.04,0.07,1.01,-3.1,0.3,0.0,700,0,,,,,,,,,,,,,,,,,,,
8389,1480656425247,,,,,,,,-0.04,0.07,1.01,-3.1,0.3,0.0,700,0,,,,,,,,,,,,,,,,,,,
8409,1480656425267,,,,,,,,-0.04,0.08,1.0,-3.1,0.2,0.0,700,0,,,,,,,,,,,,,,,,,,,
8429,1480656425287,,,,,,,,-0.05,0.08,1.0,-3.1,0.0,0.0,700,0,,,,,,,,,,,,,,,,,,,
8449,1480656425307,0,92.9,,166.1,42,158.1,,-0.05,0.08,1.01,-3.1,0.1,0.0,700,0,0,0,0.0,0,37.478374,-122.203712,0.0,0.0,32.7,10,2,1.4,0,0.0,-1,0.0,0.0,0.0,0
8469,1480656425327,,,,,,,,-0.05,0.07,1.01,-3.1,0.2,0.0,700,0,,,,,,,,,,,,,,,,,,,
8489,1480656425347,,,,,,,,-0.04,0.07,1.0,-3.1,0.3,0.1,700,0,,,,,,,,,,,,,,,,,,,
8509,1480656425367,,,,,,,,-0.04,0.07,1.0,-3.1,0.3,0.1,680,0,,,,,,,,,,,,,,,,,,,
8529,1480656425387,,,,,,,,-0.05,0.07,1.0,-3.1,0.2,0.0,680,0,,,,,,,,,,,,,,,,,,,
8549,1480656425404,,,,,41,,,-0.05,0.08,1.0,-3.1,0.2,0.0,680,0,0,0,0.0,0,37.478374,-122.203712,0.0,0.0,32.7,10,2,1.4,0,0.0,-1,0.0,,0.0,0
8569,1480656425424,,,,,,,,-0.05,0.07,1.0,-3.1,0.2,0.0,700,0,,,,,,,,,,,,,,,,,,,
8589,1480656425444,,,,,,,,-0.05,0.07,1.0,-3.1,0.3,0.0,700,0,,,,,,,,,,,,,,,,,,,
8609,1480656425464,,,,,,,,-0.05,0.07,1.0,-3.1,0.3,0.0,680,0,,,,,,,,,,,,,,,,,,,
8629,1480656425484,,,,,,,,-0.05,0.07,1.0,-3.1,0.1,0.0,700,0,,,,,,,,,,,,,,,,,,,
8649,1480656425503,0,92.2,,166.3,44,158.5,,-0.05,0.07,1.0,-3.1,0.0,0.0,700,0,0,0,0.0,0,37.478374,-122.203712,0.0,0.0,32.7,10,2,1.4,0,0.0,-1,0.0,0.0,0.0,0
8669,1480656425523,,,,,,,,-0.05,0.07,1.0,-3.1,0.1,0.0,700,0,,,,,,,,,,,,,,,,,,,
8689,1480656425543,,,,,,,,-0.04,0.07,1.0,-3.1,0.2,0.0,700,0,,,,,,,,,,,,,,,,,,,
8709,1480656425563,,,,,,,,-0.04,0.07,1.0,-3.1,0.2,0.0,700,0,,,,,,,,,,,,,,,,,,,
8729,1480656425583,,,,,,,,-0.04,0.07,1.0,-3.1,0.2,0.0,700,0,,,,,,,,,,,,,,,,,,,
8749,1480656425604,,,,,45,,,-0.04,0.07,1.0,-3.1,0.1,0.0,700,0,0,0,0.0,0,37.478374,-122.203712,0.0,0.0,32.7,10,2,1.4,0,0.0,-1,0.0,,0.0,0
8769,1480656425624,,,,,,,,-0.05,0.07,1.0,-3.1,0.1,0.0,700,0,,,,,,,,,,,,,,,,,,,
8789,1480656425644,,,,,,,,-0.05,0.07,1.01,-3.1,0.2,0.0,700,0,,,,,,,,,,,,,,,,,,,
8809,1480656425664,,,,,,,,-0.05,0.07,1.0,-3.1,0.2,0.0,700,0,,,,,,,,,,,,,,,,,,,
8829,1480656425684,,,,,,,,-0.05,0.07,1.0,-3.1,0.2,0.0,700,0,,,,,,,,,,,,,,,,,,,
8849,1480656425802,0,92.2,,166.3,42,158.6,,-0.05,0.07,1.0,-3.1,0.1,0.0,700,0,0,0,0.0,0,37.478374,-122.203712,0.0,0.0,32.7,10,2,1.4,0,0.0,-1,0.0,0.0,0.0,0
8869,1480656425822,,,,,,,,-0.05,0.07,1.0,-3.1,0.0,0.0,700,0,,,,,,,,,,,,,,,,,,,
8889,1480656425842,,,,,,,,-0.04,0.07,1.0,-3.1,0.1,0.1,700,0,,,,,,,,,,,,,,,,,,,
8909,1480656425862,,,,,,,,-0.04,0.07,1.0,-3.1,0.2,0.0,700,0,,,,,,,,,,,,,,,,,,,
8929,1480656425882,,,,,,,,-0.04,0.06,1.0,-3.1,0.3,0.0,700,0,,,,,,,,,,,,,,,,,,,
8949,1480656425902,,,,,41,,,-0.04,0.07,1.0,-3.1,0.2,0.1,680,0,0,0,0.0,0,37.478374,-122.203712,0.0,0.0,32.7,10,2,1.4,0,0.0,-1,0.0,,0.0,0
8969,1480656425922,,,,,,,,-0.04,0.07,1.0,-3.1,0.1,0.1,700,0,,,,,,,,,,,,,,,,,,,
8989,1480656425942,,,,,,,,-0.05,0.07,1.0,-3.1,0.0,0.1,700,0,,,,,,,,,,,,,,,,,,,
9009,1480656425962,,,,,,,,-0.05,0.07,1.0,-3.1,0.1,0.1,700,0,,,,,,,,,,,,,,,,,,,
9029,1480656425982,,,,,,,,-0.04,0.07,1.0,-3.1,0.2,0.1,680,0,,,,,,,,,,,,,,,,,,,
9049,1480656425901,0,93.6,7.1,166.3,40,157.9,14.69,-0.04,0.07,1.0,-3.1,0.2,0.1,680,0,0,0,0.0,0,37.478374,-122.203712,0.0,0.0,32.7,10,2,1.4,0,0.0,-1,0.0,0.0,0.0,0
9069,1480656425921,,,,,,,,-0.04,0.07,1.0,-3.1,0.1,0.0,700,0,,,,,,,,,,,,,,,,,,,
9089,1480656425941,,,,,,,,-0.04,0.07,1.0,-3.1,0.1,0.0,700,0,,,,,,,,,,,,,,,,,,,
9109,1480656425961,,,,,,,,-0.05,0.07,1.01,-3.1,0.2,0.0,680,0,,,,,,,,,,,,,,,,,,,
9129,1480656425981,,,,,,,,-0.05,0.07,1.0,-3.1,0.3,0.0,680,0,,,,,,,,,,,,,,,,,,,
9149,1480656426007,,,,,43,,,-0.04,0.07,1.0,-3.1,0.3,0.0,680,0,0,0,0.0,0,37.478374,-122.203712,0.0,0.0,32.7,10,2,1.4,0,0.0,-1,0.0,,0.0,0
9169,1480656426027,,,,,,,,-0.05,0.07,1.0,-3.1,0.1,0.0,680,0,,,,,,,,,,,,,,,,,,,
9189,1480656426047,,,,,,,,-0.05,0.07,1.0,-3.1,0.1,0.0,680,0,,,,,,,,,,,,,,,,,,,
9209,1480656426067,,,,,,,,-0.05,0.07,1.01,-3.1,0.1,0.0,700,0,,,,,,,,,,,,,,,,,,,
9229,1480656426087,,,,,,,,-0.04,0.07,1.0,-3.1,0.2,0.1,700,0,,,,,,,,,,,,,,,,,,,
9249,1480656426107,1,92.3,,166.6,41,158.8,,-0.04,0.07,1.0,-3.1,0.2,0.1,700,0,0,0,0.0,0,37.478374,-122.203712,0.0,0.0,32.7,10,2,1.4,0,0.0,-1,0.0,0.0,0.0,0
9269,1480656426127,,,,,,,,-0.04,0.07,1.0,-3.1,0.2,0.1,700,0,,,,,,,,,,,,,,,,,,,
9289,1480656426147,,,,,,,,-0.04,0.07,1.0,-3.1,0.1,0.1,680,0,,,,,,,,,,,,,,,,,,,
9309,1480656426167,,,,,,,,-0.05,0.07,1.01,-3.1,0.2,0.1,700,0,,,,,,,,,,,,,,,,,,,
9329,1480656426187,,,,,,,,-0.05,0.07,1.01,-3.1,0.3,0.1,700,0,,,,,,,,,,,,,,,,,,,
9349,1480656426207,,,,,45,,,-0.05,0.07,1.01,-3.1,0.3,0.1,700,0,0,0,0.0,0,37.478374,-122.203712,0.0,0.0,32.7,10,2,1.4,0,0.0,-1,0.0,,0.0,0
9369,1480656426227,,,,,,,,-0.04,0.07,1.0,-3.1,0.1,0.1,700,0,,,,,,,,,,,,,,,,,,,
9389,1480656426247,,,,,,,,-0.05,0.07,1.0,-3.1,0.0,0.0,700,0,,,,,,,,,,,,,,,,,,,
9409,1480656426267,,,,,,,,-0.05,0.07,1.0,-3.1,0.0,0.0,700,0,,,,,,,,,,,,,,,,,,,
9429,1480656426287,,,,,,,,-0.04,0.07,1.0,-3.1,0.2,0.0,700,0,,,,,,,,,,,,,,,,,,,
9449,1480656426307,1,91.9,,166.4,41,158.7,,-0.04,0.07,1.0,-3.1,0.3,0.0,700,0,0,0,0.0,0,37.478374,-122.203712,0.0,0.0,32.7,10,2,1.4,0,0.0,-1,0.0,0.0,0.0,0
9469,1480656426327,,,,,,,,-0.04,0.07,1.0,-3.1,0.3,0.0,700,0,,,,,,,,,,,,,,,,,,,
9489,1480656426347,,,,,,,,-0.04,0.07,1.0,-3.1,0.2,0.0,700,0,,,,,,,,,,,,,,,,,,,
9509,1480656426367,,,,,,,,-0.05,0.07,1.0,-3.1,0.1,0.0,700,0,,,,,,,,,,,,,,,,,,,
9529,1480656426387,,,,,,,,-0.05,0.07,1.0,-3.1,0.2,0.0,700,0,,,,,,,,,,,,,,,,,,,
9549,1480656426405,,,,,39,,,-0.05,0.07,1.0,-3.1,0.3,0.0,700,0,0,0,0.0,0,37.478374,-122.203712,0.0,0.0,32.7,10,2,1.4,0,0.0,-1,0.0,,0.0,0
9569,1480656426425,,,,,,,,-0.04,0.07,1.0,-3.1,0.3,0.0,700,0,,,,,,,,,,,,,,,,,,,
9589,1480656426445,,,,,,,,-0.04,0.07,1.0,-3.1,0.2,0.0,700,0,,,,,,,,,,,,,,,,,,,
9609,1480656426465,,,,,,,,-0.05,0.07,0.99,-3.1,0.1,-0.0,700,0,,,,,,,,,,,,,,,,,,,
9629,1480656426485,,,,,,,,-0.05,0.07,1.0,-3.1,0.1,0.0,700,0,,,,,,,,,,,,,,,,,,,
9649,1480656426603,0,92.2,,166.5,40,158.8,,-0.05,0.07,1.0,-3.1,0.2,0.0,700,0,0,0,0.0,0,37.478374,-122.203712,0.0,0.0,32.7,10,2,1.4,0,0.0,-1,0.0,0.0,0.0,0
9669,1480656426623,,,,,,,,-0.05,0.06,1.0,-3.1,0.3,0.0,700,0,,,,,,,,,,,,,,,,,,,
9689,1480656426643,,,,,,,,-0.05,0.06,1.0,-3.1,0.2,0.0,700,0,,,,,,,,,,,,,,,,,,,
9709,1480656426663,,,,,,,,-0.05,0.07,1.0,-3.1,0.0,0.0,700,0,,,,,,,,,,,,,,,,,,,
9729,1480656426683,,,,,,,,-0.05,0.06,0.99,-3.1,-0.0,0.0,700,0,,,,,,,,,,,,,,,,,,,
9749,1480656426703,,,,,42,,,-0.05,0.06,1.0,-3.1,-0.0,0.0,700,0,0,0,0.0,0,37.478374,-122.203712,0.0,0.0,32.7,10,2,1.4,0,0.0,-1,0.0,,0.0,0
9769,1480656426723,,,,,,,,-0.04,0.06,0.99,-3.1,0.1,0.1,700,0,,,,,,,,,,,,,,,,,,,
9789,1480656426743,,,,,,,,-0.04,0.06,0.99,-3.1,0.2,0.0,700,0,,,,,,,,,,,,,,,,,,,
9809,1480656426763,,,,,,,,-0.05,0.06,0.99,-3.1,0.2,0.0,700,0,,,,,,,,,,,,,,,,,,,
9829,1480656426783,,,,,,,,-0.05,0.07,0.99,-3.1,0.1,0.1,700,0,,,,,,,,,,,,,,,,,,,
9849,1480656426704,0,94.1,,166.5,41,158.0,,-0.05,0.07,1.0,-3.1,0.0,0.1,700,0,0,0,0.0,0,37.478374,-122.203712,0.0,0.0,32.7,10,2,1.4,0,0.0,-1,0.0,0.0,0.0,0
9869,1480656426724,,,,,,,,-0.06,0.06,1.0,-3.1,0.0,0.1,700,0,,,,,,,,,,,,,,,,,,,
9889,1480656426744,,,,,,,,-0.05,0.06,1.0,-3.1,0.2,0.1,700,0,,,,,,,,,,,,,,,,,,,
9909,1480656426764,,,,,,,,-0.05,0.07,1.0,-3.1,0.3,0.1,700,0,,,,,,,,,,,,,,,,,,,
9929,1480656426784,,,,,,,,-0.04,0.07,1.0,-3.1,0.3,0.1,720,0,,,,,,,,,,,,,,,,,,,
9949,1480656426807,,,,,43,,,-0.05,0.07,1.0,-3.1,0.2,0.0,720,0,0,0,0.0,0,37.478374,-122.203712,0.0,0.0,32.7,10,2,1.4,0,0.0,-1,0.0,,0.0,0
9969,1480656426827,,,,,,,,-0.05,0.07,1.0,-3.1,0.1,0.1,700,0,,,,,,,,,,,,,,,,,,,
9989,1480656426847,,,,,,,,-0.05,0.07,1.0,-3.1,0.0,0.0,700,0,,,,,,,,,,,,,,,,,,,
10009,1480656426867,,,,,,,,-0.06,0.07,1.0,-3.1,0.1,0.0,700,0,,,,,,,,,,,,,,,,,,,
10029,1480656426887,,,,,,,,-0.05,0.07,1.0,-3.1,0.3,0.0,700,0,,,,,,,,,,,,,,,,,,,
10049,1480656426901,0,92.2,7.1,166.4,44,159.0,14.76,-0.05,0.07,1.0,-3.1,0.3,0.0,700,0,0,0,0.0,0,37.478374,-122.203712,0.0,0.0,32.7,10,2,1.4,0,0.0,-1,0.0,0.0,0.0,0
10069,1480656426921,,,,,,,,-0.05,0.06,0.99,-3.1,0.2,0.0,700,0,,,,,,,,,,,,,,,,,,,
10089,1480656426941,,,,,,,,-0.05,0.06,0.99,-3.1,0.1,0.0,700,0,,,,,,,,,,,,,,,,,,,
10109,1480656426961,,,,,,,,-0.05,0.07,1.0,-3.1,0.1,0.0,700,0,,,,,,,,,,,,,,,,,,,
10129,1480656426981,,,,,,,,-0.05,0.06,1.0,-3.1,0.2,0.0,700,0,,,,,,,,,,,,,,,,,,,
10149,1480656427007,,,,,43,,,-0.05,0.06,1.0,-3.1,0.3,0.0,700,0,0,0,0.0,0,37.478374,-122.203712,0.0,0.0,32.7,10,2,1.4,0,0.0,-1,0.0,,0.0,0
10169,1480656427027,,,,,,,,-0.05,0.06,1.0,-3.1,0.2,0.0,680,0,,,,,,,,,,,,,,,,,,,
10189,1480656427047,,,,,,,,-0.05,0.06,0.99,-3.1,0.1,0.0,700,0,,,,,,,,,,,,,,,,,,,
10209,1480656427067,,,,,,,,-0.05,0.06,0.99,-3.1,-0.0,-0.0,700,0,,,,,,,,,,,,,,,,,,,
10229,1480656427087,,,,,,,,-0.05,0.06,1.0,-3.1,0.0,0.0,700,0,,,,,,,,,,,,,,,,,,,
10249,1480656427107,0,93.7,,167.1,44,159.0,,-0.04,0.06,1.0,-3.1,0.1,0.0,700,0,0,0,0.0,0,37.478374,-122.203712,0.0,0.0,32.7,10,2,1.4,0,0.0,-1,0.0,0.0,0.0,0
10269,1480656427127,,,,,,,,-0.04,0.06,0.99,-3.1,0.2,0.0,700,0,,,,,,,,,,,,,,,,,,,
10289,1480656427147,,,,,,,,-0.04,0.06,1.0,-3.1,0.2,0.0,700,0,,,,,,,,,,,,,,,,,,,
10309,1480656427167,,,,,,,,-0.04,0.07,1.0,-3.1,0.1,0.0,700,0,,,,,,,,,,,,,,,,,,,
10329,1480656427187,,,,,,,,-0.05,0.06,1.0,-3.1,0.1,0.0,700,0,,,,,,,,,,,,,,,,,,,
10349,1480656427207,,,,,45,,,-0.05,0.06,1.0,-3.1,0.2,0.0,700,0,0,0,0.0,0,37.478374,-122.203712,0.0,0.0,32.7,10,2,1.4,0,0.0,-1,0.0,,0.0,0
10369,1480656427227,,,,,,,,-0.05,0.06,1.0,-3.1,0.2,0.1,700,0,,,,,,,,,,,,,,,,,,,
10389,1480656427247,,,,,,,,-0.05,0.07,1.0,-3.1,0.2,0.1,680,0,,,,,,,,,,,,,,,,,,,
10409,1480656427267,,,,,,,,-0.05,0.06,1.0,-3.1,0.0,0.0,680,0,,,,,,,,,,,,,,,,,,,
10429,1480656427287,,,,,,,,-0.05,0.07,1.0,-3.1,-0.0,0.0,700,0,,,,,,,,,,,,,,,,,,,
10449,1480656427406,0,93.6,,167.1,46,159.1,,-0.05,0.07,1.0,-3.1,0.1,0.1,700,0,0,0,0.0,0,37.478374,-122.203712,0.0,0.0,32.7,10,2,1.4,0,0.0,-1,0.0,0.0,0.0,0
10469,1480656427426,,,,,,,,-0.05,0.06,1.0,-3.1,0.2,0.1,700,0,,,,,,,,,,,,,,,,,,,
10489,1480656427446,,,,,,,,-0.05,0.06,1.0,-3.1,0.3,0.1,700,0,,,,,,,,,,,,,,,,,,,
10509,1480656427466,,,,,,,,-0.04,0.07,1.0,-3.1,0.2,0.1,700,0,,,,,,,,,,,,,,,,,,,
10529,1480656427486,,,,,,,,-0.05,0.07,1.0,-3.1,0.0,0.1,700,0,,,,,,,,,,,,,,,,,,,
10549,1480656427506,,,,,42,,,-0.05,0.06,1.0,-3.1,0.0,0.1,700,0,0,0,0.0,0,37.478374,-122.203712,0.0,0.0,32.7,10,2,1.4,0,0.0,-1,0.0,,0.0,0
10569,1480656427526,,,,,,,,-0.05,0.06,1.0,-3.1,0.1,0.1,700,0,,,,,,,,,,,,,,,,,,,
10589,1480656427546,,,,,,,,-0.04,0.06,1.0,-3.1,0.2,0.0,700,0,,,,,,,,,,,,,,,,,,,
10609,1480656427566,,,,,,,,-0.04,0.06,1.0,-3.1,0.3,0.0,700,0,,,,,,,,,,,,,,,,,,,
10629,1480656427586,,,,,,,,-0.04,0.07,1.0,-3.1,0.2,0.0,700,0,,,,,,,,,,,,,,,,,,,
10649,1480656427505,0,92.7,,166.4,41,158.3,,-0.05,0.07,1.0,-3.1,0.1,0.0,700,0,0,0,0.0,0,37.478374,-122.203712,0.0,0.0,32.7,10,2,1.4,0,0.0,-1,0.0,0.0,0.0,0
10669,1480656427525,,,,,,,,-0.05,0.07,1.0,-3.1,0.1,0.0,700,0,,,,,,,,,,,,,,,,,,,
10689,1480656427545,,,,,,,,-0.05,0.07,1.0,-3.1,0.2,0.0,700,0,,,,,,,,,,,,,,,,,,,
10709,1480656427565,,,,,,,,-0.05,0.07,1.0,-3.1,0.2,-0.0,680,0,,,,,,,,,,,,,,,,,,,
10729,1480656427585,,,,,,,,-0.05,0.07,1.0,-3.0,0.2,-0.0,680,0,,,,,,,,,,,,,,,,,,,
10749,1480656427605,,,,,43,,,-0.05,0.06,1.0,-3.0,0.0,-0.0,680,0,0,0,0.0,0,37.478374,-122.203712,0.0,0.0,32.7,10,2,1.4,0,0.0,-1,0.0,,0.0,0
10769,1480656427625,,,,,,,,-0.05,0.06,1.0,-3.0,0.1,-0.0,680,0,,,,,,,,,,,,,,,,,,,
10789,1480656427645,,,,,,,,-0.04,0.06,1.0,-3.0,0.2,-0.0,700,0,,,,,,,,,,,,,,,,,,,
10809,1480656427665,,,,,,,,-0.04,0.06,1.0,-3.0,0.2,-0.0,680,0,,,,,,,,,,,,,,,,,,,
10829,1480656427685,,,,,,,,-0.04,0.06,1.0,-3.0,0.3,-0.0,680,0,,,,,,,,,,,,,,,,,,,
10849,1480656427705,0,92.0,,166.3,40,158.5,,-0.04,0.07,1.0,-3.0,0.2,0.0,700,0,0,0,0.0,0,37.478374,-122.203712,0.0,0.0,32.7,10,2,1.4,0,0.0,-1,0.0,0.0,0.0,0
10869,1480656427725,,,,,,,,-0.05,0.06,1.0,-3.0,0.2,0.0,700,0,,,,,,,,,,,,,,,,,,,
10889,1480656427745,,,,,,,,-0.05,0.06,1.0,-3.1,0.3,0.0,700,0,,,,,,,,,,,,,,,,,,,
10909,1480656427765,,,,,,,,-0.05,0.07,1.0,-3.1,0.3,0.0,700,0,,,,,,,,,,,,,,,,,,,
10929,1480656427785,,,,,,,,-0.05,0.07,1.0,-3.1,0.2,0.0,700,0,,,,,,,,,,,,,,,,,,,
10949,1480656427807,,,,,45,,,-0.05,0.07,1.0,-3.1,0.1,0.0,700,0,0,0,0.0,0,37.478374,-122.203712,0.0,0.0,32.7,10,2,1.4,0,0.0,-1,0.0,,0.0,0
10969,1480656427827,,,,,,,,-0.05,0.07,1.0,-3.1,0.0,0.0,700,0,,,,,,,,,,,,,,,,,,,
10989,1480656427847,,,,,,,,-0.05,0.07,1.0,-3.1,0.1,0.1,700,0,,,,,,,,,,,,,,,,,,,
11009,1480656427867,,,,,,,,-0.05,0.07,1.01,-3.1,0.3,0.0,700,0,,,,,,,,,,,,,,,,,,,
11029,1480656427887,,,,,,,,-0.05,0.06,1.0,-3.1,0.3,0.0,700,0,,,,,,,,,,,,,,,,,,,
11049,1480656427901,0,94.1,7.8,167.3,39,159.1,14.81,-0.05,0.07,1.0,-3.1,0.3,0.1,700,0,0,0,0.0,0,37.478374,-122.203712,0.0,0.0,32.7,10,2,1.4,0,0.0,-1,0.0,0.0,0.0,0
11069,1480656427921,,,,,,,,-0.05,0.07,1.0,-3.1,0.1,0.1,700,0,,,,,,,,,,,,,,,,,,,
11089,1480656427941,,,,,,,,-0.05,0.07,1.0,-3.1,-0.0,0.1,700,0,,,,,,,,,,,,,,,,,,,
11109,1480656427961,,,,,,,,-0.05,0.07,1.0,-3.1,0.0,0.1,700,0,,,,,,,,,,,,,,,,,,,
11129,1480656427981,,,,,,,,-0.05,0.07,1.0,-3.1,0.2,0.1,700,0,,,,,,,,,,,,,,,,,,,
11149,1480656428007,,,,,41,,,-0.04,0.07,1.0,-3.1,0.3,0.0,700,0,0,0,0.0,0,37.478374,-122.203712,0.0,0.0,32.7,10,2,1.4,0,0.0,-1,0.0,,0.0,0
11169,1480656428027,,,,,,,,-0.05,0.07,1.0,-3.1,0.3,0.0,700,0,,,,,,,,,,,,,,,,,,,
11189,1480656428047,,,,,,,,-0.05,0.07,1.0,-3.1,0.2,0.1,700,0,,,,,,,,,,,,,,,,,,,
11209,1480656428067,,,,,,,,-0.05,0.07,1.0,-3.1,0.1,0.1,700,0,,,,,,,,,,,,,,,,,,,
11229,1480656428087,,,,,,,,-0.06,0.07,1.01,-3.1,0.1,0.0,700,0,,,,,,,,,,,,,,,,,,,
11249,1480656428207,0,94.2,,167.3,39,158.5,,-0.05,0.07,1.0,-3.1,0.2,0.0,700,0,0,0,0.0,0,37.478374,-122.203712,0.0,0.0,32.7,10,2,1.4,0,0.0,-1,0.0,0.0,0.0,0
11269,1480656428227,,,,,,,,-0.05,0.07,1.0,-3.1,0.3,0.1,700,0,,,,,,,,,,,,,,,,,,,
11289,1480656428247,,,,,,,,-0.05,0.07,1.0,-3.1,0.3,0.1,700,0,,,,,,,,,,,,,,,,,,,
11309,1480656428267,,,,,,,,-0.05,0.07,1.0,-3.1,0.2,0.1,700,0,,,,,,,,,,,,,,,,,,,
11329,1480656428287,,,,,,,,-0.05,0.08,1.0,-3.1,0.1,0.1,700,0,,,,,,,,,,,,,,,,,,,
11349,1480656428307,,,,,40,,,-0.05,0.07,1.0,-3.1,0.1,0.1,700,0,0,0,0.0,0,37.478374,-122.203712,0.0,0.0,32.7,10,2,1.4,0,0.0,-1,0.0,,0.0,0
11369,1480656428327,,,,,,,,-0.06,0.07,1.0,-3.1,0.1,0.1,700,0,,,,,,,,,,,,,,,,,,,
11389,1480656428347,,,,,,,,-0.05,0.07,1.0,-3.1,0.3,0.1,700,0,,,,,,,,,,,,,,,,,,,
11409,1480656428367,,,,,,,,-0.05,0.07,1.0,-3.1,0.4,0.1,700,0,,,,,,,,,,,,,,,,,,,
11429,1480656428387,,,,,,,,-0.05,0.07,1.0,-3.1,0.3,0.0,700,0,,,,,,,,,,,,,,,,,,,
11449,1480656428307,0,94.2,,167.3,45,159.2,,-0.05,0.07,1.0,-3.1,0.2,0.0,700,0,0,0,0.0,0,37.478374,-122.203712,0.0,0.0,32.7,10,2,1.4,0,0.0,-1,0.0,0.0,0.0,0
11469,1480656428327,,,,,,,,-0.05,0.07,1.0,-3.1,0.1,0.0,700,0,,,,,,,,,,,,,,,,,,,
11489,1480656428347,,,,,,,,-0.06,0.07,1.0,-3.1,0.1,0.0,700,0,,,,,,,,,,,,,,,,,,,
11509,1480656428367,,,,,,,,-0.06,0.06,1.0,-3.1,0.2,0.0,700,0,,,,,,,,,,,,,,,,,,,
11529,1480656428387,,,,,,,,-0.05,0.06,1.0,-3.1,0.3,0.0,700,0,,,,,,,,,,,,,,,,,,,
11549,1480656428405,,,,,43,,,-0.05,0.06,1.0,-3.1,0.3,0.0,700,0,0,0,0.0,0,37.478374,-122.203712,0.0,0.0,32.7,10,2,1.4,0,0.0,-1,0.0,,0.0,0
11569,1480656428425,,,,,,,,-0.05,0.06,0.99,-3.1,0.1,0.0,700,0,,,,,,,,,,,,,,,,,,,
11589,1480656428445,,,,,,,,-0.05,0.06,0.99,-3.1,0.0,-0.0,700,0,,,,,,,,,,,,,,,,,,,
11609,1480656428465,,,,,,,,-0.05,0.07,0.99,-3.1,0.1,0.0,700,0,,,,,,,,,,,,,,,,,,,
11629,1480656428485,,,,,,,,-0.05,0.06,1.0,-3.1,0.2,0.0,700,0,,,,,,,,,,,,,,,,,,,
11649,1480656428505,0,94.2,,167.5,44,158.5,,-0.05,0.06,1.0,-3.1,0.3,-0.0,700,0,0,0,0.0,0,37.478374,-122.203712,0.0,0.0,32.7,10,2,1.4,0,0.0,-1,0.0,0.0,0.0,0
11669,1480656428525,,,,,,,,-0.04,0.06,1.0,-3.1,0.2,0.0,700,0,,,,,,,,,,,,,,,,,,,
11689,1480656428545,,,,,,,,-0.04,0.06,0.99,-3.1,0.1,0.0,680,0,,,,,,,,,,,,,,,,,,,
11709,1480656428565,,,,,,,,-0.05,0.06,0.99,-3.1,-0.1,0.0,680,0,,,,,,,,,,,,,,,,,,,
11729,1480656428585,,,,,,,,-0.05,0.06,1.0,-3.1,-0.0,0.0,680,0,,,,,,,,,,,,,,,,,,,
11749,1480656428601,,,,,40,,,-0.04,0.07,1.0,-3.1,0.1,0.1,680,0,0,0,0.0,0,37.478374,-122.203712,0.0,0.0,32.7,10,2,1.4,0,0.0,-1,0.0,,0.0,0
11769,1480656428621,,,,,,,,-0.04,0.07,1.0,-3.1,0.2,0.0,700,0,,,,,,,,,,,,,,,,,,,
11789,1480656428641,,,,,,,,-0.04,0.07,1.0,-3.1,0.1,0.0,700,0,,,,,,,,,,,,,,,,,,,
11809,1480656428661,,,,,,,,-0.04,0.07,1.0,-3.1,0.1,0.0,700,0,,,,,,,,,,,,,,,,,,,
11829,1480656428681,,,,,,,,-0.05,0.07,1.0,-3.1,0.1,0.0,700,0,,,,,,,,,,,,,,,,,,,
11849,1480656428705,0,92.4,,166.5,38,158.6,,-0.05,0.07,1.0,-3.1,0.2,0.0,700,0,0,0,0.0,0,37.478374,-122.203712,0.0,0.0,32.7,10,2,1.4,0,0.0,-1,0.0,0.0,0.0,0
11869,1480656428725,,,,,,,,-0.05,0.07,1.0,-3.1,0.2,0.0,700,0,,,,,,,,,,,,,,,,,,,
11889,1480656428745,,,,,,,,-0.05,0.07,1.0,-3.1,0.1,0.0,700,0,,,,,,,,,,,,,,,,,,,
11909,1480656428765,,,,,,,,-0.05,0.07,1.0,-3.1,-0.0,0.0,700,0,,,,,,,,,,,,,,,,,,,
11929,1480656428785,,,,,,,,-0.05,0.07,1.0,-3.1,0.0,0.0,700,0,,,,,,,,,,,,,,,,,,,
11949,1480656428807,,,,,40,,,-0.04,0.07,1.0,-3.1,0.1,0.0,700,0,0,0,0.0,0,37.478374,-122.203712,0.0,0.0,32.7,10,2,1.4,0,0.0,-1,0.0,,0.0,0
11969,1480656428827,,,,,,,,-0.04,0.07,1.0,-3.1,0.2,0.0,700,0,,,,,,,,,,,,,,,,,,,
11989,1480656428847,,,,,,,,-0.04,0.07,1.0,-3.1,0.2,0.0,700,0,,,,,,,,,,,,,,,,,,,
12009,1480656428867,,,,,,,,-0.04,0.07,1.0,-3.1,0.1,0.1,700,0,,,,,,,,,,,,,,,,,,,
12029,1480656428887,,,,,,,,-0.05,0.07,1.0,-3.1,-0.1,0.1,700,0,,,,,,,,,,,,,,,,,,,
12049,1480656429000,0,92.7,7.2,166.5,44,158.6,14.74,-0.05,0.07,1.0,-3.1,-0.0,0.0,700,0,0,0,0.0,0,37.478374,-122.203712,0.0,0.0,32.7,10,2,1.4,0,0.0,-1,0.0,0.0,0.0,0
12069,1480656429020,,,,,,,,-0.05,0.07,1.0,-3.1,0.1,0.0,700,0,,,,,,,,,,,,,,,,,,,
12089,1480656429040,,,,,,,,-0.04,0.07,1.0,-3.1,0.2,0.1,700,0,,,,,,,,,,,,,,,,,,,
12109,1480656429060,,,,,,,,-0.04,0.07,1.0,-3.1,0.2,0.0,700,0,,,,,,,,,,,,,,,,,,,
12129,1480656429080,,,,,,,,-0.04,0.07,1.0,-3.1,0.1,0.0,700,0,,,,,,,,,,,,,,,,,,,
12149,1480656429100,,,,,45,,,-0.05,0.07,1.0,-3.1,0.0,0.0,700,0,0,0,0.0,0,37.478374,-122.203712,0.0,0.0,32.7,10,2,1.4,0,0.0,-1,0.0,,0.0,0
12169,1480656429120,,,,,,,,-0.05,0.07,1.01,-3.1,0.1,0.0,700,0,,,,,,,,,,,,,,,,,,,
12189,1480656429140,,,,,,,,-0.05,0.07,1.0,-3.1,0.2,0.0,700,0,,,,,,,,,,,,,,,,,,,
12209,1480656429160,,,,,,,,-0.05,0.07,1.0,-3.1,0.3,0.0,700,0,,,,,,,,,,,,,,,,,,,
12229,1480656429180,,,,,,,,-0.05,0.07,1.0,-3.1,0.1,0.0,700,0,,,,,,,,,,,,,,,,,,,
12249,1480656429107,0,94.0,,167.5,44,159.3,,-0.05,0.06,0.99,-3.1,0.0,0.0,700,0,0,0,0.0,0,37.478374,-122.203712,0.0,0.0,32.7,10,2,1.4,0,0.0,-1,0.0,0.0,0.0,0
12269,1480656429127,,,,,,,,-0.05,0.06,1.0,-3.1,-0.0,0.0,680,0,,,,,,,,,,,,,,,,,,,
12289,1480656429147,,,,,,,,-0.05,0.07,1.0,-3.1,0.1,0.1,680,0,,,,,,,,,,,,,,,,,,,
12309,1480656429167,,,,,,,,-0.04,0.06,1.0,-3.1,0.2,0.1,700,0,,,,,,,,,,,,,,,,,,,
12329,1480656429187,,,,,,,,-0.04,0.06,1.0,-3.1,0.2,0.0,700,0,,,,,,,,,,,,,,,,,,,
12349,1480656429207,,,,,43,,,-0.04,0.07,1.0,-3.1,0.1,0.1,680,0,0,0,0.0,0,37.478374,-122.203712,0.0,0.0,32.7,10,2,1.4,0,0.0,-1,0.0,,0.0,0
12369,1480656429227,,,,,,,,-0.05,0.06,1.0,-3.1,0.1,0.1,700,0,,,,,,,,,,,,,,,,,,,
12389,1480656429247,,,,,,,,-0.05,0.06,1.0,-3.1,0.2,0.0,700,0,,,,,,,,,,,,,,,,,,,
12409,1480656429267,,,,,,,,-0.05,0.06,1.0,-3.1,0.2,0.1,680,0,,,,,,,,,,,,,,,,,,,
12429,1480656429287,,,,,,,,-0.05,0.07,1.0,-3.1,0.1,0.1,700,0,,,,,,,,,,,,,,,,,,,
12449,1480656429307,0,93.9,,167.3,38,159.3,,-0.05,0.06,1.0,-3.1,0.0,0.0,700,0,0,0,0.0,0,37.478374,-122.203712,0.0,0.0,32.7,10,2,1.4,0,0.0,-1,0.0,0.0,0.0,0
12469,1480656429327,,,,,,,,-0.05,0.06,1.0,-3.1,0.0,0.0,700,0,,,,,,,,,,,,,,,,,,,
12489,1480656429347,,,,,,,,-0.04,0.06,1.0,-3.1,0.2,0.0,700,0,,,,,,,,,,,,,,,,,,,
12509,1480656429367,,,,,,,,-0.04,0.06,1.0,-3.1,0.3,0.0,700,0,,,,,,,,,,,,,,,,,,,
12529,1480656429387,,,,,,,,-0.04,0.06,1.0,-3.1,0.3,-0.0,700,0,,,,,,,,,,,,,,,,,,,
12549,1480656429404,,,,,40,,,-0.04,0.07,1.0,-3.1,0.2,0.0,700,0,0,0,0.0,0,37.478374,-122.203712,0.0,0.0,32.7,10,2,1.4,0,0.0,-1,0.0,,0.0,0
12569,1480656429424,,,,,,,,-0.05,0.07,1.0,-3.1,0.1,0.0,700,0,,,,,,,,,,,,,,,,,,,
12589,1480656429444,,,,,,,,-0.05,0.06,1.0,-3.1,0.1,0.0,700,0,,,,,,,,,,,,,,,,,,,
12609,1480656429464,,,,,,,,-0.05,0.06,1.0,-3.1,0.2,0.0,700,0,,,,,,,,,,,,,,,,,,,
12629,1480656429484,,,,,,,,-0.04,0.07,1.0,-3.1,0.3,0.0,700,0,,,,,,,,,,,,,,,,,,,
12649,1480656429504,1,93.4,,167.3,44,159.3,,-0.04,0.07,1.0,-3.1,0.3,0.0,700,0,0,0,0.0,0,37.478374,-122.203712,0.0,0.0,32.7,10,2,1.4,0,0.0,-1,0.0,0.0,0.0,0
12669,1480656429524,,,,,,,,-0.05,0.07,1.0,-3.1,0.2,0.0,700,0,,,,,,,,,,,,,,,,,,,
12689,1480656429544,,,,,,,,-0.05,0.07,1.0,-3.1,0.1,0.0,700,0,,,,,,,,,,,,,,,,,,,
12709,1480656429564,,,,,,,,-0.05,0.06,1.0,-3.1,0.1,0.0,700,0,,,,,,,,,,,,,,,,,,,
12729,1480656429584,,,,,,,,-0.05,0.06,1.0,-3.1,0.2,0.0,700,0,,,,,,,,,,,,,,,,,,,
12749,1480656429604,,,,,42,,,-0.05,0.06,1.0,-3.1,0.3,0.0,700,0,0,0,0.0,0,37.478374,-122.203712,0.0,0.0,32.7,10,2,1.4,0,0.0,-1,0.0,,0.0,0
12769,1480656429624,,,,,,,,-0.05,0.06,1.0,-3.1,0.2,0.0,700,0,,,,,,,,,,,,,,,,,,,
12789,1480656429644,,,,,,,,-0.05,0.06,0.99,-3.1,0.0,0.0,700,0,,,,,,,,,,,,,,,,,,,
12809,1480656429664,,,,,,,,-0.05,0.06,0.99,-3.1,-0.0,0.0,700,0,,,,,,,,,,,,,,,,,,,
12829,1480656429684,,,,,,,,-0.04,0.06,1.0,-3.1,0.1,0.0,700,0,,,,,,,,,,,,,,,,,,,
12849,1480656429803,0,93.9,,167.5,43,159.3,,-0.04,0.06,1.0,-3.1,0.2,0.0,700,0,0,0,0.0,0,37.478374,-122.203712,0.0,0.0,32.7,10,2,1.4,0,0.0,-1,0.0,0.0,0.0,0
12869,1480656429823,,,,,,,,-0.04,0.06,1.0,-3.1,0.3,0.0,700,0,,,,,,,,,,,,,,,,,,,
12889,1480656429843,,,,,,,,-0.04,0.06,1.0,-3.1,0.2,0.0,700,0,,,,,,,,,,,,,,,,,,,
12909,1480656429863,,,,,,,,-0.05,0.07,1.0,-3.1,0.0,0.0,700,0,,,,,,,,,,,,,,,,,,,
12929,1480656429883,,,,,,,,-0.05,0.07,1.0,-3.1,0.0,0.0,700,0,,,,,,,,,,,,,,,,,,,
12949,1480656429903,,,,,37,,,-0.05,0.07,1.0,-3.1,0.1,0.0,700,0,0,0,0.0,0,37.478374,-122.203712,0.0,0.0,32.7,10,2,1.4,0,0.0,-1,0.0,,0.0,0
12969,1480656429923,,,,,,,,-0.04,0.07,1.0,-3.1,0.2,0.0,700,0,,,,,,,,,,,,,,,,,,,
12989,1480656429943,,,,,,,,-0.04,0.07,1.0,-3.1,0.3,0.0,700,0,,,,,,,,,,,,,,,,,,,
13009,1480656429963,,,,,,,,-0.05,0.07,1.0,-3.1,0.2,0.0,700,0,,,,,,,,,,,,,,,,,,,
13029,1480656429983,,,,,,,,-0.05,0.07,1.0,-3.1,0.1,0.0,700,0,,,,,,,,,,,,,,,,,,,
13049,1480656429900,0,92.2,7.2,166.9,44,159.2,14.76,-0.05,0.07,1.0,-3.1,0.1,0.0,700,0,0,0,0.0,0,37.478374,-122.203712,0.0,0.0,32.7,10,2,1.4,0,0.0,-1,0.0,0.0,0.0,0
13069,1480656429920,,,,,,,,-0.05,0.07,1.01,-3.1,0.2,0.0,700,0,,,,,,,,,,,,,,,,,,,
13089,1480656429940,,,,,,,,-0.05,0.07,1.0,-3.1,0.3,0.0,700,0,,,,,,,,,,,,,,,,,,,
13109,1480656429960,,,,,,,,-0.05,0.07,1.0,-3.1,0.3,0.0,700,0,,,,,,,,,,,,,,,,,,,
13129,1480656429980,,,,,,,,-0.05,0.06,1.0,-3.1,0.2,0.0,700,0,,,,,,,,,,,,,,,,,,,
13149,1480656430008,,,,,45,,,-0.05,0.06,1.0,-3.1,0.1,0.0,700,0,0,0,0.0,0,37.478374,-122.203712,0.0,0.0,32.7,10,2,1.4,0,0.0,-1,0.0,,0.0,0
13169,1480656430028,,,,,,,,-0.05,0.07,1.0,-3.1,0.1,0.0,700,0,,,,,,,,,,,,,,,,,,,
13189,1480656430048,,,,,,,,-0.05,0.06,1.0,-3.1,0.2,0.0,700,0,,,,,,,,,,,,,,,,,,,
13209,1480656430068,,,,,,,,-0.05,0.06,1.0,-3.1,0.2,0.0,700,0,,,,,,,,,,,,,,,,,,,
13229,1480656430088,,,,,,,,-0.05,0.06,1.0,-3.1,0.3,0.0,700,0,,,,,,,,,,,,,,,,,,,
13249,1480656430107,0,92.3,,166.6,40,158.8,,-0.05,0.07,1.0,-3.1,0.1,0.0,700,0,0,0,0.0,0,37.478374,-122.203712,0.0,0.0,32.7,10,2,1.4,0,0.0,-1,0.0,0.0,0.0,0
13269,1480656430127,,,,,,,,-0.05,0.06,1.0,-3.1,0.0,0.0,700,0,,,,,,,,,,,,,,,,,,,
13289,1480656430147,,,,,,,,-0.05,0.06,1.0,-3.1,-0.1,0.0,700,0,,,,,,,,,,,,,,,,,,,
13309,1480656430167,,,,,,,,-0.05,0.06,1.0,-3.1,-0.0,0.0,700,0,,,,,,,,,,,,,,,,,,,
13329,1480656430187,,,,,,,,-0.05,0.06,1.0,-3.1,0.1,0.0,700,0,,,,,,,,,,,,,,,,,,,
13349,1480656430207,,,,,43,,,-0.05,0.05,1.0,-3.1,0.2,0.0,700,0,0,0,0.0,0,37.478374,-122.203712,0.0,0.0,32.7,10,2,1.4,0,0.0,-1,0.0,,0.0,0
13369,1480656430227,,,,,,,,-0.05,0.06,1.0,-3.1,0.2,0.0,700,0,,,,,,,,,,,,,,,,,,,
13389,1480656430247,,,,,,,,-0.04,0.06,1.0,-3.1,0.2,0.0,720,0,,,,,,,,,,,,,,,,,,,
13409,1480656430267,,,,,,,,-0.04,0.06,0.99,-3.1,0.0,0.0,700,0,,,,,,,,,,,,,,,,,,,
13429,1480656430287,,,,,,,,-0.05,0.06,0.99,-3.1,-0.0,0.0,700,0,,,,,,,,,,,,,,,,,,,
13449,1480656430307,0,93.9,,167.5,40,159.4,,-0.05,0.06,0.99,-3.1,-0.0,0.1,700,0,0,0,0.0,0,37.478374,-122.203712,0.0,0.0,32.7,10,2,1.4,0,0.0,-1,0.0,0.0,0.0,0
13469,1480656430327,,,,,,,,-0.05,0.06,1.0,-3.1,0.0,0.1,720,0,,,,,,,,,,,,,,,,,,,
13489,1480656430347,,,,,,,,-0.05,0.06,1.0,-3.1,0.1,0.1,720,0,,,,,,,,,,,,,,,,,,,
13509,1480656430367,,,,,,,,-0.05,0.06,1.0,-3.1,0.2,0.1,720,0,,,,,,,,,,,,,,,,,,,
13529,1480656430387,,,,,,,,-0.04,0.06,1.0,-3.1,0.2,0.1,700,0,,,,,,,,,,,,,,,,,,,
13549,1480656430404,,,,,41,,,-0.04,0.06,1.0,-3.1,0.2,0.0,720,0,0,0,0.0,0,37.478374,-122.203712,0.0,0.0,32.7,10,2,1.4,0,0.0,-1,0.0,,0.0,0
13569,1480656430424,,,,,,,,-0.04,0.07,1.0,-3.1,0.1,0.0,720,0,,,,,,,,,,,,,,,,,,,
13589,1480656430444,,,,,,,,-0.05,0.07,1.0,-3.1,-0.0,0.0,700,0,,,,,,,,,,,,,,,,,,,
13609,1480656430464,,,,,,,,-0.05,0.07,1.0,-3.1,-0.1,0.1,700,0,,,,,,,,,,,,,,,,,,,
13629,1480656430484,,,,,,,,-0.05,0.07,1.0,-3.1,-0.1,0.0,700,0,,,,,,,,,,,,,,,,,,,
13649,1480656430603,0,93.9,,167.7,44,159.1,,-0.05,0.07,1.0,-3.1,0.1,0.0,720,0,0,0,0.0,0,37.478374,-122.203712,0.0,0.0,32.7,10,2,1.4,0,0.0,-1,0.0,0.0,0.0,0
13669,1480656430623,,,,,,,,-0.04,0.07,1.0,-3.1,0.2,0.0,720,0,,,,,,,,,,,,,,,,,,,
13689,1480656430643,,,,,,,,-0.04,0.07,1.0,-3.0,0.3,-0.0,700,0,,,,,,,,,,,,,,,,,,,
13709,1480656430663,,,,,,,,-0.04,0.07,1.0,-3.1,0.3,-0.0,700,0,,,,,,,,,,,,,,,,,,,
13729,1480656430683,,,,,,,,-0.04,0.07,1.0,-3.1,0.2,0.0,720,0,,,,,,,,,,,,,,,,,,,
13749,1480656430703,,,,,43,,,-0.05,0.07,1.0,-3.1,0.0,0.0,720,0,0,0,0.0,0,37.478374,-122.203712,0.0,0.0,32.7,10,2,1.4,0,0.0,-1,0.0,,0.0,0
13769,1480656430723,,,,,,,,-0.05,0.07,1.0,-3.1,-0.1,0.0,720,0,,,,,,,,,,,,,,,,,,,
13789,1480656430743,,,,,,,,-0.05,0.07,1.0,-3.1,-0.0,0.0,700,0,,,,,,,,,,,,,,,,,,,
13809,1480656430763,,,,,,,,-0.05,0.07,1.0,-3.1,0.1,0.0,720,0,,,,,,,,,,,,,,,,,,,
13829,1480656430783,,,,,,,,-0.05,0.06,1.01,-3.1,0.2,0.0,720,0,,,,,,,,,,,,,,,,,,,
13849,1480656430704,0,93.7,,167.7,43,158.9,,-0.05,0.06,1.01,-3.1,0.3,0.0,720,0,0,0,0.0,0,37.478374,-122.203712,0.0,0.0,32.7,10,2,1.4,0,0.0,-1,0.0,0.0,0.0,0
13869,1480656430724,,,,,,,,-0.05,0.06,1.0,-3.1,0.3,0.0,720,0,,,,,,,,,,,,,,,,,,,
13889,1480656430744,,,,,,,,-0.04,0.07,1.0,-3.1,0.2,0.0,700,0,,,,,,,,,,,,,,,,,,,
13909,1480656430764,,,,,,,,-0.04,0.06,1.0,-3.1,0.1,0.0,700,0,,,,,,,,,,,,,,,,,,,
13929,1480656430784,,,,,,,,-0.05,0.07,1.0,-3.1,0.0,0.0,700,0,,,,,,,,,,,,,,,,,,,
13949,1480656430807,,,,,40,,,-0.05,0.07,1.0,-3.1,-0.0,0.0,700,0,0,0,0.0,0,37.478374,-122.203712,0.0,0.0,32.7,10,2,1.4,0,0.0,-1,0.0,,0.0,0
13969,1480656430827,,,,,,,,-0.05,0.07,1.0,-3.1,0.0,-0.0,700,0,,,,,,,,,,,,,,,,,,,
13989,1480656430847,,,,,,,,-0.05,0.06,1.0,-3.1,0.1,-0.0,700,0,,,,,,,,,,,,,,,,,,,
14009,1480656430867,,,,,,,,-0.05,0.07,1.0,-3.1,0.2,-0.0,720,0,,,,,,,,,,,,,,,,,,,
14029,1480656430887,,,,,,,,-0.04,0.07,1.0,-3.1,0.2,0.0,700,0,,,,,,,,,,,,,,,,,,,
14049,1480656430902,0,93.0,7.1,166.7,41,159.0,14.78,-0.04,0.07,1.0,-3.1,0.1,0.0,700,0,0,0,0.0,0,37.478374,-122.203712,0.0,0.0,32.7,10,2,1.4,0,0.0,-1,0.0,0.0,0.0,0
14069,1480656430922,,,,,,,,-0.05,0.07,1.0,-3.1,0.1,0.0,700,0,,,,,,,,,,,,,,,,,,,
14089,1480656430942,,,,,,,,-0.05,0.07,1.0,-3.1,0.0,0.0,700,0,,,,,,,,,,,,,,,,,,,
14109,1480656430962,,,,,,,,-0.05,0.07,1.0,-3.1,0.0,0.0,700,0,,,,,,,,,,,,,,,,,,,
14129,1480656430982,,,,,,,,-0.05,0.06,1.01,-3.1,0.1,0.0,700,0,,,,,,,,,,,,,,,,,,,
14149,1480656431000,,,,,42,,,-0.05,0.06,1.0,-3.1,0.2,0.0,700,0,0,0,0.0,0,37.478374,-122.203712,0.0,0.0,32.7,10,2,1.4,0,0.0,-1,0.0,,0.0,0
14169,1480656431020,,,,,,,,-0.05,0.06,1.0,-3.1,0.3,0.0,720,0,,,,,,,,,,,,,,,,,,,
14189,1480656431040,,,,,,,,-0.05,0.06,1.0,-3.1,0.3,0.0,700,0,,,,,,,,,,,,,,,,,,,
14209,1480656431060,,,,,,,,-0.05,0.07,1.0,-3.1,0.2,-0.0,700,0,,,,,,,,,,,,,,,,,,,
14229,1480656431080,,,,,,,,-0.05,0.07,1.0,-3.1,0.1,0.0,700,0,,,,,,,,,,,,,,,,,,,
14249,1480656431107,0,92.3,,166.7,44,158.6,,-0.05,0.07,1.0,-3.1,0.0,0.0,700,0,0,0,0.0,0,37.478374,-122.203712,0.0,0.0,32.7,10,2,1.4,0,0.0,-1,0.0,0.0,0.0,0
14269,1480656431127,,,,,,,,-0.05,0.07,1.0,-3.1,0.1,0.0,700,0,,,,,,,,,,,,,,,,,,,
14289,1480656431147,,,,,,,,-0.05,0.06,1.0,-3.1,0.2,0.0,700,0,,,,,,,,,,,,,,,,,,,
14309,1480656431167,,,,,,,,-0.05,0.06,1.0,-3.1,0.3,0.0,700,0,,,,,,,,,,,,,,,,,,,
14329,1480656431187,,,,,,,,-0.04,0.06,1.0,-3.1,0.3,0.0,700,0,,,,,,,,,,,,,,,,,,,
14349,1480656431207,,,,,43,,,-0.04,0.07,1.0,-3.1,0.3,0.0,700,0,0,0,0.0,0,37.478374,-122.203712,0.0,0.0,32.7,10,2,1.4,0,0.0,-1,0.0,,0.0,0
14369,1480656431227,,,,,,,,-0.04,0.07,1.0,-3.1,0.1,0.0,700,0,,,,,,,,,,,,,,,,,,,
14389,1480656431247,,,,,,,,-0.05,0.07,1.0,-3.1,0.0,0.0,700,0,,,,,,,,,,,,,,,,,,,
14409,1480656431267,,,,,,,,-0.05,0.07,1.0,-3.1,0.1,0.0,700,0,,,,,,,,,,,,,,,,,,,
14429,1480656431287,,,,,,,,-0.05,0.07,1.0,-3.1,0.2,0.0,700,0,,,,,,,,,,,,,,,,,,,
14449,1480656431406,0,93.6,,166.9,41,159.2,,-0.04,0.07,1.0,-3.1,0.3,0.0,700,0,0,0,0.0,0,37.478374,-122.203712,0.0,0.0,32.7,10,2,1.4,0,0.0,-1,0.0,0.0,0.0,0
14469,1480656431426,,,,,,,,-0.04,0.07,1.0,-3.1,0.3,0.0,700,0,,,,,,,,,,,,,,,,,,,
14489,1480656431446,,,,,,,,-0.04,0.07,1.0,-3.1,0.3,-0.0,700,0,,,,,,,,,,,,,,,,,,,
14509,1480656431466,,,,,,,,-0.05,0.07,1.0,-3.1,0.1,-0.0,700,0,,,,,,,,,,,,,,,,,,,
14529,1480656431486,,,,,,,,-0.05,0.07,1.0,-3.1,0.1,0.0,700,0,,,,,,,,,,,,,,,,,,,
14549,1480656431506,,,,,40,,,-0.05,0.07,1.01,-3.1,0.2,0.0,700,0,0,0,0.0,0,37.478374,-122.203712,0.0,0.0,32.7,10,2,1.4,0,0.0,-1,0.0,,0.0,0
14569,1480656431526,,,,,,,,-0.05,0.07,1.01,-3.1,0.3,0.0,700,0,,,,,,,,,,,,,,,,,,,
14589,1480656431546,,,,,,,,-0.05,0.07,1.0,-3.1,0.3,0.0,700,0,,,,,,,,,,,,,,,,,,,
14609,1480656431566,,,,,,,,-0.05,0.07,1.0,-3.1,0.2,0.0,700,0,,,,,,,,,,,,,,,,,,,
14629,1480656431586,,,,,,,,-0.05,0.07,1.0,-3.1,0.2,-0.0,700,0,,,,,,,,,,,,,,,,,,,
14649,1480656431504,0,94.1,,167.1,43,159.4,,-0.05,0.07,1.0,-3.1,0.1,0.0,700,0,0,0,0.0,0,37.478374,-122.203712,0.0,0.0,32.7,10,2,1.4,0,0.0,-1,0.0,0.0,0.0,0
14669,1480656431524,,,,,,,,-0.05,0.07,1.0,-3.1,0.2,0.0,700,0,,,,,,,,,,,,,,,,,,,
14689,1480656431544,,,,,,,,-0.05,0.06,1.0,-3.1,0.3,-0.0,700,0,,,,,,,,,,,,,,,,,,,
14709,1480656431564,,,,,,,,-0.05,0.06,1.0,-3.1,0.3,0.0,700,0,,,,,,,,,,,,,,,,,,,
14729,1480656431584,,,,,,,,-0.05,0.06,1.0,-3.1,0.2,0.0,700,0,,,,,,,,,,,,,,,,,,,
14749,1480656431605,,,,,42,,,-0.05,0.06,1.0,-3.1,0.1,0.0,700,0,0,0,0.0,0,37.478374,-122.203712,0.0,0.0,32.7,10,2,1.4,0,0.0,-1,0.0,,0.0,0
14769,1480656431625,,,,,,,,-0.05,0.06,1.0,-3.1,0.0,-0.0,700,0,,,,,,,,,,,,,,,,,,,
14789,1480656431645,,,,,,,,-0.05,0.07,1.0,-3.1,0.1,0.0,700,0,,,,,,,,,,,,,,,,,,,
14809,1480656431665,,,,,,,,-0.05,0.06,1.0,-3.1,0.1,0.0,720,0,,,,,,,,,,,,,,,,,,,
14829,1480656431685,,,,,,,,-0.05,0.06,1.0,-3.1,0.2,0.0,720,0,,,,,,,,,,,,,,,,,,,
14849,1480656431705,0,92.4,,166.7,38,158.8,,-0.05,0.06,1.0,-3.1,0.3,-0.0,720,0,0,0,0.0,0,37.478374,-122.203712,0.0,0.0,32.7,10,2,1.4,0,0.0,-1,0.0,0.0,0.0,0
14869,1480656431725,,,,,,,,-0.05,0.07,1.0,-3.1,0.2,0.0,700,0,,,,,,,,,,,,,,,,,,,
14889,1480656431745,,,,,,,,-0.04,0.07,1.0,-3.1,0.2,0.0,720,0,,,,,,,,,,,,,,,,,,,
14909,1480656431765,,,,,,,,-0.05,0.07,1.0,-3.1,0.1,-0.0,720,0,,,,,,,,,,,,,,,,,,,
14929,1480656431785,,,,,,,,-0.05,0.07,1.0,-3.1,-0.0,-0.0,720,0,,,,,,,,,,,,,,,,,,,
14949,1480656431807,,,,,40,,,-0.05,0.07,1.0,-3.1,-0.1,0.0,700,0,0,0,0.0,0,37.478374,-122.203712,0.0,0.0,32.7,10,2,1.4,0,0.0,-1,0.0,,0.0,0
14969,1480656431827,,,,,,,,-0.05,0.06,1.01,-3.1,0.0,-0.0,700,0,,,,,,,,,,,,,,,,,,,
14989,1480656431847,,,,,,,,-0.05,0.06,1.0,-3.1,0.1,-0.0,720,0,,,,,,,,,,,,,,,,,,,
15009,1480656431867,,,,,,,,-0.04,0.06,1.0,-3.1,0.3,-0.0,720,0,,,,,,,,,,,,,,,,,,,
15029,1480656431887,,,,,,,,-0.04,0.06,1.0,-3.1,0.4,-0.0,720,0,,,,,,,,,,,,,,,,,,,
15049,1480656431900,0,92.6,7.2,166.7,42,159.0,14.76,-0.04,0.07,1.0,-3.1,0.3,-0.0,720,0,0,0,0.0,0,37.478374,-122.203712,0.0,0.0,32.7,10,2,1.4,0,0.0,-1,0.0,0.0,0.0,0
15069,1480656431920,,,,,,,,-0.05,0.07,1.0,-3.1,0.2,-0.0,700,0,,,,,,,,,,,,,,,,,,,
15089,1480656431940,,,,,,,,-0.05,0.07,1.0,-3.1,0.1,0.0,700,0,,,,,,,,,,,,,,,,,,,
15109,1480656431960,,,,,,,,-0.05,0.07,1.0,-3.1,-0.0,-0.0,700,0,,,,,,,,,,,,,,,,,,,
15129,1480656431980,,,,,,,,-0.05,0.07,1.0,-3.1,0.0,-0.0,700,0,,,,,,,,,,,,,,,,,,,
15149,1480656432007,,,,,43,,,-0.04,0.07,1.0,-3.1,0.2,0.0,700,0,0,0,0.0,0,37.478374,-122.203712,0.0,0.0,32.7,10,2,1.4,0,0.0,-1,0.0,,0.0,0
15169,1480656432027,,,,,,,,-0.04,0.06,1.0,-3.1,0.3,-0.0,700,0,,,,,,,,,,,,,,,,,,,
15189,1480656432047,,,,,,,,-0.04,0.07,1.0,-3.1,0.3,-0.0,700,0,,,,,,,,,,,,,,,,,,,
15209,1480656432067,,,,,,,,-0.04,0.07,1.0,-3.1,0.2,0.0,700,0,,,,,,,,,,,,,,,,,,,
15229,1480656432087,,,,,,,,-0.05,0.07,1.0,-3.1,0.0,0.0,700,0,,,,,,,,,,,,,,,,,,,
15249,1480656432207,0,93.9,,167.1,42,159.3,,-0.05,0.07,1.0,-3.1,-0.1,0.0,700,0,0,0,0.0,0,37.478374,-122.203712,0.0,0.0,32.7,10,2,1.4,0,0.0,-1,0.0,0.0,0.0,0
15269,1480656432227,,,,,,,,-0.05,0.07,1.0,-3.1,-0.0,0.0,700,0,,,,,,,,,,,,,,,,,,,
15289,1480656432247,,,,,,,,-0.04,0.07,1.0,-3.1,0.2,0.0,700,0,,,,,,,,,,,,,,,,,,,
15309,1480656432267,,,,,,,,-0.04,0.07,1.0,-3.1,0.3,-0.0,700,0,,,,,,,,,,,,,,,,,,,
15329,1480656432287,,,,,,,,-0.04,0.07,1.0,-3.1,0.3,0.0,700,0,,,,,,,,,,,,,,,,,,,
15349,1480656432307,,,,,47,,,-0.05,0.07,1.0,-3.1,0.2,0.0,700,0,0,0,0.0,0,37.478374,-122.203712,0.0,0.0,32.7,10,2,1.4,0,0.0,-1,0.0,,0.0,0
15369,1480656432327,,,,,,,,-0.05,0.07,1.0,-3.1,0.0,0.1,700,0,,,,,,,,,,,,,,,,,,,
15389,1480656432347,,,,,,,,-0.05,0.07,1.01,-3.1,0.0,0.0,700,0,,,,,,,,,,,,,,,,,,,
15409,1480656432367,,,,,,,,-0.05,0.07,1.01,-3.1,0.1,0.0,700,0,,,,,,,,,,,,,,,,,,,
15429,1480656432387,,,,,,,,-0.05,0.07,1.0,-3.1,0.3,0.0,700,0,,,,,,,,,,,,,,,,,,,
15449,1480656432308,1,94.4,,167.6,43,159.6,,-0.05,0.07,1.0,-3.1,0.4,0.0,700,0,0,0,0.0,0,37.478374,-122.203712,0.0,0.0,32.7,10,2,1.4,0,0.0,-1,0.0,0.0,0.0,0
15469,1480656432328,,,,,,,,-0.05,0.07,1.0,-3.1,0.3,0.0,700,0,,,,,,,,,,,,,,,,,,,
15489,1480656432348,,,,,,,,-0.05,0.07,1.0,-3.1,0.2,0.0,700,0,,,,,,,,,,,,,,,,,,,
15509,1480656432368,,,,,,,,-0.05,0.07,1.0,-3.1,0.1,0.1,700,0,,,,,,,,,,,,,,,,,,,
15529,1480656432388,,,,,,,,-0.06,0.07,1.01,-3.1,0.2,0.1,700,0,,,,,,,,,,,,,,,,,,,
15549,1480656432405,,,,,42,,,-0.05,0.07,1.01,-3.1,0.3,0.1,700,0,0,0,0.0,0,37.478374,-122.203712,0.0,0.0,32.7,10,2,1.4,0,0.0,-1,0.0,,0.0,0
15569,1480656432425,,,,,,,,-0.05,0.07,1.0,-3.1,0.4,0.1,700,0,,,,,,,,,,,,,,,,,,,
15589,1480656432445,,,,,,,,-0.05,0.07,1.0,-3.1,0.5,0.0,700,0,,,,,,,,,,,,,,,,,,,
15609,1480656432465,,,,,,,,-0.05,0.07,1.0,-3.1,0.4,0.0,700,0,,,,,,,,,,,,,,,,,,,
15629,1480656432485,,,,,,,,-0.05,0.07,1.0,-3.1,0.2,0.0,700,0,,,,,,,,,,,,,,,,,,,
15649,1480656432505,0,94.1,,167.8,44,159.3,,-0.06,0.07,1.0,-3.1,0.1,0.0,700,0,0,0,0.0,0,37.478374,-122.203712,0.0,0.0,32.7,10,2,1.4,0,0.0,-1,0.0,0.0,0.0,0
15669,1480656432525,,,,,,,,-0.06,0.07,1.01,-3.1,0.2,0.0,700,0,,,,,,,,,,,,,,,,,,,
15689,1480656432545,,,,,,,,-0.05,0.07,1.01,-3.1,0.3,0.0,700,0,,,,,,,,,,,,,,,,,,,
15709,1480656432565,,,,,,,,-0.05,0.07,1.0,-3.1,0.4,0.0,700,0,,,,,,,,,,,,,,,,,,,
15729,1480656432585,,,,,,,,-0.05,0.07,1.0,-3.1,0.4,0.0,700,0,,,,,,,,,,,,,,,,,,,
15749,1480656432605,,,,,41,,,-0.05,0.07,1.0,-3.1,0.3,0.0,700,0,0,0,0.0,0,37.478374,-122.203712,0.0,0.0,32.7,10,2,1.4,0,0.0,-1,0.0,,0.0,0
15769,1480656432625,,,,,,,,-0.06,0.07,1.0,-3.1,0.2,0.0,700,0,,,,,,,,,,,,,,,,,,,
15789,1480656432645,,,,,,,,-0.06,0.07,1.0,-3.1,0.1,0.0,700,0,,,,,,,,,,,,,,,,,,,
15809,1480656432665,,,,,,,,-0.06,0.07,1.01,-3.1,0.2,0.0,700,0,,,,,,,,,,,,,,,,,,,
15829,1480656432685,,,,,,,,-0.06,0.07,1.01,-3.1,0.4,0.0,700,0,,,,,,,,,,,,,,,,,,,
15849,1480656432705,0,94.5,,167.7,40,159.6,,-0.05,0.07,1.01,-3.1,0.4,0.0,700,0,0,0,0.0,0,37.478374,-122.203712,0.0,0.0,32.7,10,2,1.4,0,0.0,-1,0.0,0.0,0.0,0
15869,1480656432725,,,,,,,,-0.05,0.07,1.0,-3.1,0.3,0.0,700,0,,,,,,,,,,,,,,,,,,,
15889,1480656432745,,,,,,,,-0.05,0.07,1.0,-3.1,0.2,0.0,700,0,,,,,,,,,,,,,,,,,,,
15909,1480656432765,,,,,,,,-0.06,0.07,1.0,-3.2,0.2,0.0,700,0,,,,,,,,,,,,,,,,,,,
15929,1480656432785,,,,,,,,-0.06,0.07,1.0,-3.2,0.2,0.0,700,0,,,,,,,,,,,,,,,,,,,
15949,1480656432808,,,,,40,,,-0.06,0.07,1.0,-3.2,0.3,-0.0,700,0,0,0,0.0,0,37.478374,-122.203712,0.0,0.0,32.7,10,2,1.4,0,0.0,-1,0.0,,0.0,0
15969,1480656432828,,,,,,,,-0.05,0.07,1.0,-3.2,0.3,0.0,700,0,,,,,,,,,,,,,,,,,,,
15989,1480656432848,,,,,,,,-0.05,0.07,1.0,-3.2,0.2,0.0,700,0,,,,,,,,,,,,,,,,,,,
16009,1480656432868,,,,,,,,-0.05,0.06,0.99,-3.2,0.0,-0.0,700,0,,,,,,,,,,,,,,,,,,,
16029,1480656432888,,,,,,,,-0.05,0.06,1.0,-3.2,0.0,-0.0,700,0,,,,,,,,,,,,,,,,,,,
16049,1480656432999,0,92.6,7.1,166.8,43,158.7,14.8,-0.05,0.06,1.0,-3.1,0.1,0.0,700,0,0,0,0.0,0,37.478374,-122.203712,0.0,0.0,32.7,10,2,1.4,0,0.0,-1,0.0,0.0,0.0,0
16069,1480656433019,,,,,,,,-0.05,0.06,1.0,-3.1,0.3,-0.0,700,0,,,,,,,,,,,,,,,,,,,
16089,1480656433039,,,,,,,,-0.04,0.06,1.0,-3.1,0.3,-0.0,700,0,,,,,,,,,,,,,,,,,,,
16109,1480656433059,,,,,,,,-0.04,0.06,1.0,-3.1,0.2,0.0,700,0,,,,,,,,,,,,,,,,,,,
16129,1480656433079,,,,,,,,-0.04,0.06,0.99,-3.1,0.0,0.0,700,0,,,,,,,,,,,,,,,,,,,
16149,1480656433099,,,,,41,,,-0.05,0.06,0.99,-3.1,-0.0,-0.0,700,0,0,0,0.0,0,37.478374,-122.203712,0.0,0.0,32.7,10,2,1.4,0,0.0,-1,0.0,,0.0,0
16169,1480656433119,,,,,,,,-0.05,0.06,1.0,-3.1,0.1,-0.0,700,0,,,,,,,,,,,,,,,,,,,
16189,1480656433139,,,,,,,,-0.04,0.06,1.0,-3.1,0.3,0.0,700,0,,,,,,,,,,,,,,,,,,,
16209,1480656433159,,,,,,,,-0.04,0.06,1.0,-3.1,0.3,-0.0,700,0,,,,,,,,,,,,,,,,,,,
16229,1480656433179,,,,,,,,-0.04,0.06,1.0,-3.1,0.3,-0.0,700,0,,,,,,,,,,,,,,,,,,,
16249,1480656433107,0,94.1,,167.6,41,159.6,,-0.05,0.07,1.0,-3.1,0.2,-0.0,700,0,0,0,0.0,0,37.478374,-122.203712,0.0,0.0,32.7,10,2,1.4,0,0.0,-1,0.0,0.0,0.0,0
16269,1480656433127,,,,,,,,-0.05,0.06,1.0,-3.1,0.1,0.0,700,0,,,,,,,,,,,,,,,,,,,
16289,1480656433147,,,,,,,,-0.05,0.06,1.0,-3.1,0.2,-0.0,700,0,,,,,,,,,,,,,,,,,,,
16309,1480656433167,,,,,,,,-0.05,0.06,1.0,-3.1,0.3,-0.0,700,0,,,,,,,,,,,,,,,,,,,
16329,1480656433187,,,,,,,,-0.05,0.06,1.0,-3.1,0.3,0.0,700,0,,,,,,,,,,,,,,,,,,,
16349,1480656433207,,,,,44,,,-0.05,0.06,1.0,-3.1,0.2,0.0,700,0,0,0,0.0,0,37.478374,-122.203712,0.0,0.0,32.7,10,2,1.4,0,0.0,-1,0.0,,0.0,0
16369,1480656433227,,,,,,,,-0.05,0.06,0.99,-3.1,0.2,0.0,700,0,,,,,,,,,,,,,,,,,,,
16389,1480656433247,,,,,,,,-0.05,0.07,1.0,-3.1,0.1,0.0,700,0,,,,,,,,,,,,,,,,,,,
16409,1480656433267,,,,,,,,-0.05,0.06,1.0,-3.1,0.2,0.0,700,0,,,,,,,,,,,,,,,,,,,
16429,1480656433287,,,,,,,,-0.05,0.06,1.0,-3.1,0.3,0.0,700,0,,,,,,,,,,,,,,,,,,,
16449,1480656433307,0,92.9,,167.3,38,159.2,,-0.05,0.06,1.0,-3.1,0.3,0.0,700,0,0,0,0.0,0,37.478374,-122.203712,0.0,0.0,32.7,10,2,1.4,0,0.0,-1,0.0,0.0,0.0,0
16469,1480656433327,,,,,,,,-0.04,0.06,0.99,-3.1,0.2,0.0,700,0,,,,,,,,,,,,,,,,,,,
16489,1480656433347,,,,,,,,-0.04,0.06,0.99,-3.1,0.0,0.0,700,0,,,,,,,,,,,,,,,,,,,
16509,1480656433367,,,,,,,,-0.05,0.06,0.99,-3.1,-0.1,0.0,700,0,,,,,,,,,,,,,,,,,,,
16529,1480656433387,,,,,,,,-0.04,0.06,1.0,-3.1,0.0,0.0,700,0,,,,,,,,,,,,,,,,,,,
16549,1480656433404,,,,,43,,,-0.04,0.06,1.0,-3.1,0.1,0.0,700,0,0,0,0.0,0,37.478374,-122.203712,0.0,0.0,32.7,10,2,1.4,0,0.0,-1,0.0,,0.0,0
16569,1480656433424,,,,,,,,-0.04,0.06,1.0,-3.1,0.2,0.0,700,0,,,,,,,,,,,,,,,,,,,
16589,1480656433444,,,,,,,,-0.04,0.06,1.0,-3.1,0.2,0.0,700,0,,,,,,,,,,,,,,,,,,,
16609,1480656433464,,,,,,,,-0.04,0.06,0.99,-3.1,0.0,0.0,700,0,,,,,,,,,,,,,,,,,,,
16629,1480656433484,,,,,,,,-0.04,0.06,1.0,-3.1,-0.1,0.0,700,0,,,,,,,,,,,,,,,,,,,
16649,1480656433507,0,93.0,,166.8,39,158.9,,-0.04,0.06,1.0,-3.1,-0.1,0.0,700,0,0,0,0.0,0,37.478374,-122.203712,0.0,0.0,32.7,10,2,1.4,0,0.0,-1,0.0,0.0,0.0,0
16669,1480656433527,,,,,,,,-0.04,0.06,1.0,-3.1,0.0,0.0,700,0,,,,,,,,,,,,,,,,,,,
16689,1480656433547,,,,,,,,-0.04,0.06,1.0,-3.1,0.2,-0.0,700,0,,,,,,,,,,,,,,,,,,,
16709,1480656433567,,,,,,,,-0.04,0.07,1.0,-3.1,0.3,-0.0,700,0,,,,,,,,,,,,,,,,,,,
16729,1480656433587,,,,,,,,-0.04,0.07,1.0,-3.1,0.2,-0.0,700,0,,,,,,,,,,,,,,,,,,,
16749,1480656433607,,,,,40,,,-0.04,0.07,1.0,-3.1,-0.0,0.0,700,0,0,0,0.0,0,37.478374,-122.203712,0.0,0.0,32.7,10,2,1.4,0,0.0,-1,0.0,,0.0,0
16769,1480656433627,,,,,,,,-0.04,0.07,1.0,-3.1,-0.2,0.0,700,0,,,,,,,,,,,,,,,,,,,
16789,1480656433647,,,,,,,,-0.05,0.07,1.0,-3.1,-0.1,0.0,700,0,,,,,,,,,,,,,,,,,,,
16809,1480656433667,,,,,,,,-0.04,0.07,1.0,-3.1,0.1,0.0,700,0,,,,,,,,,,,,,,,,,,,
16829,1480656433687,,,,,,,,-0.04,0.06,1.0,-3.1,0.2,-0.0,700,0,,,,,,,,,,,,,,,,,,,
16849,1480656433806,0,93.2,,167.6,45,159.4,,-0.04,0.06,1.0,-3.1,0.3,-0.0,700,0,0,0,0.0,0,37.478374,-122.203712,0.0,0.0,32.7,10,2,1.4,0,0.0,-1,0.0,0.0,0.0,0
16869,1480656433826,,,,,,,,-0.04,0.07,1.0,-3.1,0.2,0.0,700,0,,,,,,,,,,,,,,,,,,,
16889,1480656433846,,,,,,,,-0.04,0.07,1.0,-3.1,0.0,0.0,700,0,,,,,,,,,,,,,,,,,,,
16909,1480656433866,,,,,,,,-0.04,0.07,1.0,-3.1,-0.1,0.0,700,0,,,,,,,,,,,,,,,,,,,
16929,1480656433886,,,,,,,,-0.05,0.07,1.0,-3.1,-0.1,0.0,700,0,,,,,,,,,,,,,,,,,,,
16949,1480656433906,,,,,43,,,-0.04,0.07,1.0,-3.1,0.1,0.0,700,0,0,0,0.0,0,37.478374,-122.203712,0.0,0.0,32.7,10,2,1.4,0,0.0,-1,0.0,,0.0,0
16969,1480656433926,,,,,,,,-0.04,0.06,1.01,-3.1,0.2,0.0,700,0,,,,,,,,,,,,,,,,,,,
16989,1480656433946,,,,,,,,-0.04,0.06,1.0,-3.1,0.3,0.0,700,0,,,,,,,,,,,,,,,,,,,
17009,1480656433966,,,,,,,,-0.04,0.07,1.0,-3.1,0.2,0.0,700,0,,,,,,,,,,,,,,,,,,,
17029,1480656433986,,,,,,,,-0.04,0.07,1.0,-3.1,0.0,0.0,700,0,,,,,,,,,,,,,,,,,,,
17049,1480656433901,0,92.9,7.3,167.5,42,159.3,14.7,-0.05,0.07,1.0,-3.1,-0.1,0.0,700,0,0,0,0.0,0,37.478374,-122.203712,0.0,0.0,32.7,10,2,1.4,0,0.0,-1,0.0,0.0,0.0,0
17069,1480656433921,,,,,,,,-0.05,0.07,1.0,-3.1,0.0,0.0,700,0,,,,,,,,,,,,,,,,,,,
17089,1480656433941,,,,,,,,-0.04,0.07,1.0,-3.1,0.2,0.0,700,0,,,,,,,,,,,,,,,,,,,
17109,1480656433961,,,,,,,,-0.04,0.07,1.0,-3.1,0.4,-0.0,700,0,,,,,,,,,,,,,,,,,,,
17129,1480656433981,,,,,,,,-0.04,0.07,1.0,-3.1,0.3,0.0,700,0,,,,,,,,,,,,,,,,,,,
17149,1480656434007,,,,,42,,,-0.05,0.07,1.0,-3.1,0.2,0.0,700,0,0,0,0.0,0,37.478374,-122.203712,0.0,0.0,32.7,10,2,1.4,0,0.0,-1,0.0,,0.0,0
17169,1480656434027,,,,,,,,-0.05,0.07,1.0,-3.1,0.0,0.0,700,0,,,,,,,,,,,,,,,,,,,
17189,1480656434047,,,,,,,,-0.05,0.07,1.0,-3.1,0.0,0.0,700,0,,,,,,,,,,,,,,,,,,,
17209,1480656434067,,,,,,,,-0.05,0.07,1.01,-3.1,0.2,0.0,720,0,,,,,,,,,,,,,,,,,,,
17229,1480656434087,,,,,,,,-0.05,0.07,1.0,-3.1,0.4,0.0,700,0,,,,,,,,,,,,,,,,,,,
17249,1480656434107,0,93.3,,167.6,41,159.6,,-0.05,0.07,1.01,-3.1,0.4,-0.0,700,0,0,0,0.0,0,37.478374,-122.203712,0.0,0.0,32.7,10,2,1.4,0,0.0,-1,0.0,0.0,0.0,0
17269,1480656434127,,,,,,,,-0.04,0.07,1.01,-3.1,0.4,-0.0,700,0,,,,,,,,,,,,,,,,,,,
17289,1480656434147,,,,,,,,-0.04,0.07,1.0,-3.1,0.3,-0.0,700,0,,,,,,,,,,,,,,,,,,,
17309,1480656434167,,,,,,,,-0.05,0.07,1.0,-3.1,0.1,0.0,700,0,,,,,,,,,,,,,,,,,,,
17329,1480656434187,,,,,,,,-0.05,0.07,1.0,-3.1,0.1,0.0,700,0,,,,,,,,,,,,,,,,,,,
17349,1480656434207,,,,,40,,,-0.05,0.07,1.0,-3.1,0.1,0.0,720,0,0,0,0.0,0,37.478374,-122.203712,0.0,0.0,32.7,10,2,1.4,0,0.0,-1,0.0,,0.0,0
17369,1480656434227,,,,,,,,-0.05,0.07,1.0,-3.1,0.3,0.0,720,0,,,,,,,,,,,,,,,,,,,
17389,1480656434247,,,,,,,,-0.05,0.06,1.01,-3.1,0.4,0.0,700,0,,,,,,,,,,,,,,,,,,,
17409,1480656434267,,,,,,,,-0.05,0.06,1.01,-3.1,0.4,0.0,700,0,,,,,,,,,,,,,,,,,,,
17429,1480656434287,,,,,,,,-0.05,0.07,1.0,-3.1,0.3,0.0,700,0,,,,,,,,,,,,,,,,,,,
17449,1480656434308,0,93.3,,166.9,41,159.0,,-0.05,0.07,1.0,-3.1,0.1,0.0,700,0,0,0,0.0,0,37.478374,-122.203712,0.0,0.0,32.7,10,2,1.4,0,0.0,-1,0.0,0.0,0.0,0
17469,1480656434328,,,,,,,,-0.05,0.07,1.0,-3.1,-0.0,0.0,700,0,,,,,,,,,,,,,,,,,,,
17489,1480656434348,,,,,,,,-0.05,0.07,1.0,-3.1,-0.0,0.0,700,0,,,,,,,,,,,,,,,,,,,
17509,1480656434368,,,,,,,,-0.04,0.07,1.0,-3.1,0.1,0.0,700,0,,,,,,,,,,,,,,,,,,,
17529,1480656434388,,,,,,,,-0.04,0.07,1.0,-3.1,0.3,0.0,700,0,,,,,,,,,,,,,,,,,,,
17549,1480656434408,,,,,40,,,-0.04,0.07,1.0,-3.1,0.3,-0.0,700,0,0,0,0.0,0,37.478374,-122.203712,0.0,0.0,32.7,10,2,1.4,0,0.0,-1,0.0,,0.0,0
17569,1480656434428,,,,,,,,-0.04,0.07,1.0,-3.1,0.2,0.0,700,0,,,,,,,,,,,,,,,,,,,
17589,1480656434448,,,,,,,,-0.05,0.08,1.0,-3.1,0.1,0.0,700,0,,,,,,,,,,,,,,,,,,,
17609,1480656434468,,,,,,,,-0.05,0.07,1.01,-3.1,0.0,0.0,700,0,,,,,,,,,,,,,,,,,,,
17629,1480656434488,,,,,,,,-0.05,0.07,1.0,-3.1,0.1,0.0,700,0,,,,,,,,,,,,,,,,,,,
17649,1480656434606,0,93.2,,166.8,43,158.9,,-0.05,0.07,1.0,-3.1,0.3,0.0,700,0,0,0,0.0,0,37.478374,-122.203712,0.0,0.0,32.7,10,2,1.4,0,0.0,-1,0.0,0.0,0.0,0
17669,1480656434626,,,,,,,,-0.05,0.07,1.0,-3.1,0.4,-0.0,700,0,,,,,,,,,,,,,,,,,,,
17689,1480656434646,,,,,,,,-0.05,0.07,1.0,-3.1,0.4,-0.0,700,0,,,,,,,,,,,,,,,,,,,
17709,1480656434666,,,,,,,,-0.05,0.08,1.0,-3.1,0.3,-0.0,700,0,,,,,,,,,,,,,,,,,,,
