"Interval"|"ms"|0|0|1,"Utc"|"ms"|0|0|1,"FuelLevel"|"F"|0|100|5,"OilTemp"|"F"|0.0|300.0|5,"CoolantPressPSI"|"PSI"|0.0|20.0|1,"Coolant"|"F"|0.0|300.0|5,"OilPress"|"PSI"|0|150|10,"EngineTemp"|"F"|0.0|300.0|5,"Battery"|"Volts"|0.0|20.0|1,"AccelX"|"G"|-3.0|3.0|50,"AccelY"|"G"|-3.0|3.0|50,"AccelZ"|"G"|-3.0|3.0|50,"Yaw"|"Deg/Sec"|-300.0|300.0|50,"Pitch"|"Deg/Sec"|-300.0|300.0|50,"Roll"|"Deg/Sec"|-300.0|300.0|50,"RPM"|""|0|10000|50,"Driveshaft"|"RPM"|0|5000|50,"GPIO1"|""|0|1|10,"GPIO2"|""|0|1|10,"GearRatio"|""|-5.0|5.0|10,"Gear"|""|-1|5|10,"Latitude"|"Degrees"|-180.0|180.0|10,"Longitude"|"Degrees"|-180.0|180.0|10,"Speed"|"MPH"|0.0|150.0|10,"Distance"|"Miles"|0.0|0.0|10,"Altitude"|"Feet"|0.0|4000.0|10,"GPSSats"|""|0|20|10,"GPSQual"|""|0|5|10,"GPSDOP"|""|0.0|20.0|10,"LapCount"|""|0|0|10,"LapTime"|"Min"|0.0|0.0|10,"Sector"|""|0|0|10,"SectorTime"|"Min"|0.0|0.0|10,"PredTime"|"Min"|0.0|0.0|5,"ElapsedTime"|"Min"|0.0|0.0|10,"CurrentLap"|""|0|0|10
,,,,,,,,,,,,,,,,,,,,,,,,,,,,,,,,,,,
35609,1480714128407,,,,,,,,-0.01,0.08,0.99,-1.8,-0.1,0.0,820,36,,,,,,,,,,,,,,,,,,,
35629,1480714128427,,,,,,,,-0.01,0.08,1.0,-1.9,-0.1,0.1,800,40,,,,,,,,,,,,,,,,,,,
35649,1480714128447,0,49.9,,47.2,62,47.2,,-0.01,0.07,1.01,-1.9,-0.1,-0.0,820,40,1,0,21.667,0,37.478306,-122.203659,0.0,0.0,14.2,5,2,0.8,0,0.0,-1,0.0,0.0,0.0,0
35669,1480714128467,,,,,,,,-0.01,0.07,1.01,-1.9,-0.2,-0.1,800,40,,,,,,,,,,,,,,,,,,,
35689,1480714128487,,,,,,,,-0.01,0.07,1.0,-2.0,-0.3,-0.1,800,40,,,,,,,,,,,,,,,,,,,
35709,1480714128507,,,,,,,,-0.01,0.07,0.99,-2.0,-0.2,0.0,820,41,,,,,,,,,,,,,,,,,,,
35729,1480714128527,,,,,,,,0.0,0.07,1.0,-2.1,-0.1,0.0,800,41,,,,,,,,,,,,,,,,,,,
35749,1480714128547,,,,,63,,,-0.01,0.07,1.0,-2.1,-0.3,0.0,820,41,1,0,21.667,0,37.478306,-122.203659,0.0,0.0,14.2,5,2,0.8,0,0.0,-1,0.0,,0.0,0
35769,1480714128567,,,,,,,,-0.01,0.06,1.01,-2.2,-0.2,-0.1,800,41,,,,,,,,,,,,,,,,,,,
35789,1480714128587,,,,,,,,-0.01,0.06,1.01,-2.2,-0.3,-0.2,820,41,,,,,,,,,,,,,,,,,,,
35809,1480714128634,,,,,,,,-0.01,0.06,1.0,-2.2,-0.1,-0.1,820,41,,,,,,,,,,,,,,,,,,,
35829,1480714128654,,,,,,,,-0.0,0.06,1.0,-2.3,-0.1,-0.1,800,41,,,,,,,,,,,,,,,,,,,
35849,1480714128674,0,48.9,,46.6,63,48.2,,0.0,0.06,1.0,-2.3,-0.2,-0.1,800,41,1,0,19.512,0,37.47831,-122.203659,0.0,0.0,16.4,6,2,0.4,0,0.0,-1,0.0,0.0,0.0,0
35869,1480714128694,,,,,,,,-0.01,0.05,1.0,-2.3,-0.1,-0.2,800,41,,,,,,,,,,,,,,,,,,,
35889,1480714128714,,,,,,,,-0.01,0.05,1.0,-2.3,-0.1,-0.3,800,41,,,,,,,,,,,,,,,,,,,
35909,1480714128734,,,,,,,,-0.01,0.04,1.0,-2.3,-0.1,-0.3,800,44,,,,,,,,,,,,,,,,,,,
35929,1480714128754,,,,,,,,-0.0,0.05,1.0,-2.3,-0.0,-0.1,800,44,,,,,,,,,,,,,,,,,,,
35949,1480714128746,,,,,63,,,0.0,0.05,1.01,-2.3,0.0,-0.1,800,40,1,0,19.512,0,37.47831,-122.203659,0.0,0.0,8.7,6,2,0.4,0,0.0,-1,0.0,,0.0,0
35969,1480714128766,,,,,,,,-0.01,0.05,1.01,-2.3,-0.2,-0.2,800,40,,,,,,,,,,,,,,,,,,,
35989,1480714128786,,,,,,,,-0.01,0.04,1.0,-2.3,-0.1,-0.3,800,47,,,,,,,,,,,,,,,,,,,
36009,1480714128806,,,,,,,,-0.01,0.04,1.0,-2.3,-0.2,-0.3,800,47,,,,,,,,,,,,,,,,,,,
36029,1480714128826,,,,,,,,-0.01,0.05,1.0,-2.4,-0.1,-0.3,800,41,,,,,,,,,,,,,,,,,,,
36049,1480714128846,0,49.0,0.8,46.5,64,48.6,14.97,-0.0,0.05,1.0,-2.4,0.0,-0.2,800,46,1,0,17.021,0,37.47831,-122.203659,0.0,0.0,8.7,6,2,0.4,0,0.0,-1,0.0,0.0,0.0,0
36069,1480714128849,,,,,,,,-0.01,0.06,1.01,-2.3,-0.2,-0.3,800,46,,,,,,,,,,,,,,,,,,,
36089,1480714128869,,,,,,,,-0.01,0.06,1.0,-2.3,-0.1,-0.4,800,49,,,,,,,,,,,,,,,,,,,
36109,1480714128889,,,,,,,,-0.01,0.05,1.01,-2.3,-0.2,-0.5,800,49,,,,,,,,,,,,,,,,,,,
36129,1480714128909,,,,,,,,-0.01,0.05,1.0,-2.3,-0.1,-0.4,780,43,,,,,,,,,,,,,,,,,,,
36149,1480714128945,,,,,62,,,-0.01,0.06,1.0,-2.3,0.0,-0.3,800,50,1,0,16.327,0,37.478313,-122.203659,0.0,0.0,11.7,6,2,0.4,0,0.0,-1,0.0,,0.0,0
36169,1480714128965,,,,,,,,-0.01,0.06,1.01,-2.3,-0.3,-0.4,780,50,,,,,,,,,,,,,,,,,,,
36189,1480714128985,,,,,,,,-0.02,0.06,1.01,-2.2,-0.2,-0.5,800,47,,,,,,,,,,,,,,,,,,,
36209,1480714129005,,,,,,,,-0.02,0.05,1.01,-2.2,-0.2,-0.5,800,46,,,,,,,,,,,,,,,,,,,
36229,1480714129025,,,,,,,,-0.01,0.05,1.0,-2.2,-0.2,-0.5,780,46,,,,,,,,,,,,,,,,,,,
36249,1480714129045,0,46.0,,45.7,62,44.8,,-0.01,0.06,1.01,-2.2,0.0,-0.4,800,47,1,0,17.021,0,37.478313,-122.203659,0.0,0.0,15.7,6,2,0.4,0,0.0,-1,0.0,0.0,0.0,0
36269,1480714129065,,,,,,,,-0.01,0.06,1.01,-2.1,-0.2,-0.4,780,47,,,,,,,,,,,,,,,,,,,
36289,1480714129085,,,,,,,,-0.01,0.06,1.01,-2.0,-0.2,-0.5,800,47,,,,,,,,,,,,,,,,,,,
36309,1480714129105,,,,,,,,-0.01,0.05,1.01,-2.0,-0.2,-0.5,800,44,,,,,,,,,,,,,,,,,,,
36329,1480714129125,,,,,,,,-0.01,0.06,1.0,-2.0,-0.2,-0.4,780,44,,,,,,,,,,,,,,,,,,,
36349,1480714129144,,,,,63,,,-0.0,0.06,1.0,-1.9,-0.0,-0.4,800,50,1,0,17.021,0,37.478317,-122.203659,0.0,0.0,18.3,6,2,0.4,0,0.0,-1,0.0,,0.0,0
36369,1480714129164,,,,,,,,-0.0,0.06,1.01,-1.9,-0.3,-0.4,800,52,,,,,,,,,,,,,,,,,,,
36389,1480714129184,,,,,,,,-0.01,0.06,1.01,-1.8,-0.2,-0.5,820,52,,,,,,,,,,,,,,,,,,,
36409,1480714129204,,,,,,,,-0.0,0.06,1.01,-1.8,-0.3,-0.5,800,41,,,,,,,,,,,,,,,,,,,
36429,1480714129224,,,,,,,,-0.0,0.06,1.0,-1.8,-0.2,-0.5,800,50,,,,,,,,,,,,,,,,,,,
36449,1480714129244,0,48.8,,47.2,62,47.9,,0.0,0.07,1.0,-1.8,-0.2,-0.4,820,50,1,0,15.769,0,37.478317,-122.203659,0.0,0.0,18.3,6,2,0.4,0,0.0,-1,0.0,0.0,0.0,0
36469,1480714129264,,,,,,,,0.01,0.07,1.0,-1.7,-0.3,-0.3,820,50,,,,,,,,,,,,,,,,,,,
36489,1480714129284,,,,,,,,0.0,0.07,1.01,-1.7,-0.3,-0.4,840,50,,,,,,,,,,,,,,,,,,,
36509,1480714129304,,,,,,,,0.0,0.07,1.0,-1.6,-0.2,-0.4,820,43,,,,,,,,,,,,,,,,,,,
36529,1480714129324,,,,,,,,0.0,0.06,1.0,-1.6,-0.3,-0.5,860,47,,,,,,,,,,,,,,,,,,,
36549,1480714129440,,,,,63,,,0.01,0.07,1.0,-1.6,-0.1,-0.3,860,47,1,0,16.8,0,37.478317,-122.203659,0.0,0.0,18.3,6,2,0.4,0,0.0,-1,0.0,,0.0,0
36569,1480714129460,,,,,,,,0.01,0.07,1.0,-1.6,-0.1,-0.2,840,47,,,,,,,,,,,,,,,,,,,
36589,1480714129480,,,,,,,,0.01,0.07,1.01,-1.6,-0.1,-0.2,840,46,,,,,,,,,,,,,,,,,,,
36609,1480714129500,,,,,,,,0.01,0.08,1.01,-1.5,-0.2,-0.2,840,46,,,,,,,,,,,,,,,,,,,
36629,1480714129520,,,,,,,,0.0,0.07,1.02,-1.5,-0.1,-0.3,860,49,,,,,,,,,,,,,,,,,,,
36649,1480714129540,0,46.2,,43.7,63,46.8,,0.0,0.07,1.01,-1.5,-0.2,-0.3,860,49,1,0,17.872,0,37.478317,-122.203659,0.0,0.0,18.3,6,2,0.4,0,0.0,-1,0.0,0.0,0.0,0
36669,1480714129560,,,,,,,,0.0,0.06,1.0,-1.5,-0.1,-0.3,880,47,,,,,,,,,,,,,,,,,,,
36689,1480714129580,,,,,,,,0.01,0.06,1.0,-1.5,-0.0,-0.2,880,47,,,,,,,,,,,,,,,,,,,
36709,1480714129600,,,,,,,,0.01,0.07,0.99,-1.5,-0.1,-0.1,860,47,,,,,,,,,,,,,,,,,,,
36729,1480714129620,,,,,,,,0.02,0.07,1.0,-1.5,-0.0,-0.0,860,49,,,,,,,,,,,,,,,,,,,
36749,1480714129541,,,,,63,,,0.01,0.08,1.01,-1.5,-0.1,-0.0,860,49,1,0,18.723,0,37.478317,-122.203659,0.0,0.0,18.3,6,2,0.4,0,0.0,-1,0.0,,0.0,0
36769,1480714129561,,,,,,,,0.01,0.08,1.02,-1.5,-0.3,-0.1,880,41,,,,,,,,,,,,,,,,,,,
36789,1480714129581,,,,,,,,0.0,0.07,1.01,-1.5,-0.2,-0.2,880,49,,,,,,,,,,,,,,,,,,,
36809,1480714129601,,,,,,,,-0.0,0.07,1.01,-1.4,-0.3,-0.3,900,49,,,,,,,,,,,,,,,,,,,
36829,1480714129621,,,,,,,,-0.0,0.05,1.01,-1.4,-0.2,-0.3,900,44,,,,,,,,,,,,,,,,,,,
36849,1480714129641,0,45.2,,43.9,63,45.1,,0.0,0.05,1.0,-1.4,-0.0,-0.3,900,44,1,0,18.367,0,37.478317,-122.203659,0.0,0.0,18.3,6,2,0.4,0,0.0,-1,0.0,0.0,0.0,0
36869,1480714129661,,,,,,,,0.01,0.05,1.0,-1.4,-0.0,-0.3,920,44,,,,,,,,,,,,,,,,,,,
36889,1480714129681,,,,,,,,0.01,0.04,1.0,-1.4,-0.1,-0.2,920,46,,,,,,,,,,,,,,,,,,,
36909,1480714129701,,,,,,,,0.02,0.05,1.0,-1.5,-0.1,-0.0,920,46,,,,,,,,,,,,,,,,,,,
36929,1480714129721,,,,,,,,0.03,0.06,1.0,-1.5,0.0,0.1,940,43,,,,,,,,,,,,,,,,,,,
36949,1480714129743,,,,,67,,,0.04,0.07,1.01,-1.6,0.1,0.1,940,43,1,0,20.0,0,37.478317,-122.203659,0.0,0.0,18.3,6,2,0.4,0,0.0,-1,0.0,,0.0,0
36969,1480714129763,,,,,,,,0.04,0.08,1.01,-1.6,0.1,0.2,940,44,,,,,,,,,,,,,,,,,,,
36989,1480714129783,,,,,,,,0.04,0.09,1.01,-1.6,0.2,0.2,960,44,,,,,,,,,,,,,,,,,,,
37009,1480714129803,,,,,,,,0.04,0.09,1.01,-1.6,-0.1,0.3,960,41,,,,,,,,,,,,,,,,,,,
37029,1480714129823,,,,,,,,0.04,0.09,1.01,-1.5,-0.3,0.3,980,43,,,,,,,,,,,,,,,,,,,
37049,1480714129835,0,47.2,0.0,43.4,65,45.1,14.93,0.03,0.1,1.01,-1.6,-0.5,0.2,980,43,1,0,23.415,0,37.478317,-122.203659,0.0,0.0,18.3,6,2,0.4,0,0.0,-1,0.0,0.0,0.0,0
37069,1480714129855,,,,,,,,0.03,0.11,1.01,-1.6,-0.7,0.1,980,40,,,,,,,,,,,,,,,,,,,
37089,1480714129875,,,,,,,,0.02,0.12,1.01,-1.6,-0.7,0.1,980,40,,,,,,,,,,,,,,,,,,,
37109,1480714129895,,,,,,,,0.02,0.12,1.0,-1.6,-0.8,0.1,980,43,,,,,,,,,,,,,,,,,,,
37129,1480714129915,,,,,,,,0.01,0.12,1.01,-1.6,-0.9,0.0,1000,43,,,,,,,,,,,,,,,,,,,
37149,1480714129943,,,,,65,,,0.01,0.13,1.01,-1.6,-0.9,-0.0,1000,40,1,0,22.791,0,37.478317,-122.203659,0.0,0.0,18.3,6,2,0.4,0,0.0,-1,0.0,,0.0,0
37169,1480714129963,,,,,,,,0.01,0.13,1.0,-1.6,-1.0,-0.1,980,40,,,,,,,,,,,,,,,,,,,
37189,1480714129983,,,,,,,,0.0,0.13,1.0,-1.6,-1.1,-0.1,980,43,,,,,,,,,,,,,,,,,,,
37209,1480714130003,,,,,,,,-0.0,0.13,1.0,-1.6,-1.1,-0.2,980,40,,,,,,,,,,,,,,,,,,,
37229,1480714130023,,,,,,,,-0.01,0.14,1.0,-1.6,-1.2,-0.1,980,40,,,,,,,,,,,,,,,,,,,
37249,1480714130043,0,48.3,,45.9,63,47.3,,-0.01,0.14,1.01,-1.6,-1.2,-0.2,980,41,1,0,24.5,0,37.478317,-122.203659,0.0,0.0,18.3,6,2,0.4,0,0.0,-1,0.0,0.0,0.0,0
37269,1480714130063,,,,,,,,-0.02,0.14,1.01,-1.7,-1.3,-0.2,980,41,,,,,,,,,,,,,,,,,,,
37289,1480714130083,,,,,,,,-0.02,0.13,1.01,-1.6,-1.2,-0.3,960,38,,,,,,,,,,,,,,,,,,,
37309,1480714130103,,,,,,,,-0.03,0.12,1.02,-1.7,-1.1,-0.3,960,38,,,,,,,,,,,,,,,,,,,
37329,1480714130123,,,,,,,,-0.03,0.11,1.02,-1.6,-0.9,-0.3,940,38,,,,,,,,,,,,,,,,,,,
37349,1480714130242,,,,,63,,,-0.03,0.1,1.02,-1.6,-0.8,-0.4,940,38,1,0,25.263,0,37.478317,-122.203659,0.0,0.0,18.3,6,2,0.4,0,0.0,-1,0.0,,0.0,0
37369,1480714130262,,,,,,,,-0.03,0.09,1.01,-1.6,-0.8,-0.4,920,38,,,,,,,,,,,,,,,,,,,
37389,1480714130282,,,,,,,,-0.03,0.08,1.01,-1.6,-0.8,-0.4,920,38,,,,,,,,,,,,,,,,,,,
37409,1480714130302,,,,,,,,-0.03,0.07,1.01,-1.6,-0.8,-0.5,920,36,,,,,,,,,,,,,,,,,,,
37429,1480714130322,,,,,,,,-0.03,0.06,1.01,-1.6,-0.7,-0.5,920,36,,,,,,,,,,,,,,,,,,,
37449,1480714130342,0,47.9,,44.3,61,46.6,,-0.03,0.06,1.0,-1.6,-0.5,-0.5,900,38,1,0,25.556,0,37.478317,-122.203659,0.0,0.0,18.3,6,2,0.4,0,0.0,-1,0.0,0.0,0.0,0
37469,1480714130362,,,,,,,,-0.02,0.05,1.0,-1.7,-0.4,-0.3,900,38,,,,,,,,,,,,,,,,,,,
37489,1480714130382,,,,,,,,-0.02,0.05,1.01,-1.7,-0.4,-0.2,900,36,,,,,,,,,,,,,,,,,,,
37509,1480714130402,,,,,,,,-0.01,0.05,1.01,-1.7,-0.3,-0.0,880,36,,,,,,,,,,,,,,,,,,,
37529,1480714130422,,,,,,,,-0.0,0.06,1.01,-1.7,-0.1,0.1,880,40,,,,,,,,,,,,,,,,,,,
37549,1480714130341,,,,,60,,,0.0,0.07,1.02,-1.7,-0.3,0.0,880,40,1,0,24.444,0,37.478317,-122.203659,0.0,0.0,18.3,6,2,0.4,0,0.0,-1,0.0,,0.0,0
37569,1480714130361,,,,,,,,-0.0,0.07,1.02,-1.7,-0.3,0.0,880,35,,,,,,,,,,,,,,,,,,,
37589,1480714130381,,,,,,,,-0.01,0.07,1.02,-1.7,-0.1,-0.1,860,35,,,,,,,,,,,,,,,,,,,
37609,1480714130440,,,,,,,,-0.01,0.06,1.02,-1.6,-0.2,-0.2,860,40,,,,,,,,,,,,,,,,,,,
37629,1480714130460,,,,,,,,-0.01,0.05,1.01,-1.6,-0.2,-0.2,860,40,,,,,,,,,,,,,,,,,,,
37649,1480714130480,0,48.2,,44.8,60,47.1,,-0.0,0.05,1.01,-1.6,-0.2,-0.2,860,35,1,0,21.5,0,37.478317,-122.203659,0.0,0.0,18.3,6,2,0.4,0,0.0,-1,0.0,0.0,0.0,0
37669,1480714130500,,,,,,,,0.0,0.06,1.0,-1.6,-0.2,-0.0,860,35,,,,,,,,,,,,,,,,,,,
37689,1480714130520,,,,,,,,0.01,0.06,1.01,-1.7,-0.1,0.1,840,40,,,,,,,,,,,,,,,,,,,
37709,1480714130500,,,,,,,,0.01,0.07,1.01,-1.7,-0.3,0.1,860,40,,,,,,,,,,,,,,,,,,,
37729,1480714130520,,,,,,,,0.0,0.06,1.02,-1.7,-0.1,0.0,840,35,,,,,,,,,,,,,,,,,,,
37749,1480714130540,,,,,60,,,0.0,0.06,1.01,-1.7,-0.1,-0.0,840,35,1,0,21.5,0,37.478317,-122.203659,0.0,0.0,18.3,6,2,0.4,0,0.0,-1,0.0,,0.0,0
37769,1480714130560,,,,,,,,0.0,0.06,1.01,-1.7,-0.1,-0.1,820,40,,,,,,,,,,,,,,,,,,,
37789,1480714130580,,,,,,,,0.01,0.06,1.01,-1.7,-0.1,-0.0,820,40,,,,,,,,,,,,,,,,,,,
37809,1480714130600,,,,,,,,0.01,0.07,1.0,-1.7,-0.1,0.1,820,35,,,,,,,,,,,,,,,,,,,
37829,1480714130620,,,,,,,,0.02,0.07,1.01,-1.7,-0.1,0.1,820,35,,,,,,,,,,,,,,,,,,,
37849,1480714130640,0,46.3,,45.5,58,46.8,,0.01,0.07,1.02,-1.7,-0.1,0.0,840,38,1,0,23.429,0,37.478317,-122.203659,0.0,0.0,18.3,6,2,0.4,0,0.0,-1,0.0,0.0,0.0,0
37869,1480714130660,,,,,,,,0.01,0.06,1.02,-1.7,-0.1,-0.0,820,38,,,,,,,,,,,,,,,,,,,
37889,1480714130680,,,,,,,,0.01,0.06,1.01,-1.7,-0.1,-0.1,840,36,,,,,,,,,,,,,,,,,,,
37909,1480714130703,,,,,,,,0.01,0.06,1.0,-1.7,-0.1,0.0,840,36,,,,,,,,,,,,,,,,,,,
37929,1480714130723,,,,,,,,0.01,0.07,1.0,-1.7,-0.0,0.1,820,38,,,,,,,,,,,,,,,,,,,
37949,1480714130743,,,,,57,,,0.02,0.07,1.01,-1.7,0.1,0.2,820,38,1,0,22.778,0,37.478317,-122.203659,0.0,0.0,18.3,6,2,0.4,0,0.0,-1,0.0,,0.0,0
37969,1480714130763,,,,,,,,0.01,0.07,1.01,-1.7,-0.0,0.2,820,36,,,,,,,,,,,,,,,,,,,
37989,1480714130783,,,,,,,,0.01,0.07,1.02,-1.7,0.1,0.1,820,36,,,,,,,,,,,,,,,,,,,
38009,1480714130803,,,,,,,,0.01,0.07,1.01,-1.7,-0.0,0.0,820,36,,,,,,,,,,,,,,,,,,,
38029,1480714130823,,,,,,,,0.01,0.07,1.0,-1.7,0.0,0.1,820,36,,,,,,,,,,,,,,,,,,,
38049,1480714130843,0,45.5,0.0,44.0,57,44.8,14.96,0.01,0.07,1.0,-1.8,-0.0,0.2,800,36,1,0,22.778,0,37.478317,-122.203659,0.0,0.0,18.3,6,2,0.4,0,0.0,-1,0.0,0.0,0.0,0
38069,1480714130863,,,,,,,,0.02,0.08,1.01,-1.7,-0.1,0.2,800,36,,,,,,,,,,,,,,,,,,,
38089,1480714130883,,,,,,,,0.01,0.07,1.01,-1.7,-0.2,0.1,820,36,,,,,,,,,,,,,,,,,,,
38109,1480714130996,,,,,,,,0.0,0.07,1.01,-1.7,-0.2,0.0,820,36,,,,,,,,,,,,,,,,,,,
38129,1480714131016,,,,,,,,0.01,0.07,1.01,-1.7,-0.2,-0.0,820,36,,,,,,,,,,,,,,,,,,,
38149,1480714131036,,,,,58,,,0.01,0.07,1.0,-1.7,-0.2,0.1,820,36,1,0,22.778,0,37.478317,-122.203659,0.0,0.0,18.3,6,2,0.4,0,0.0,-1,0.0,,0.0,0
38169,1480714131056,,,,,,,,0.01,0.07,1.01,-1.7,-0.1,0.1,800,38,,,,,,,,,,,,,,,,,,,
38189,1480714131076,,,,,,,,0.01,0.08,1.01,-1.7,-0.2,0.1,800,38,,,,,,,,,,,,,,,,,,,
38209,1480714131096,,,,,,,,0.0,0.07,1.01,-1.7,-0.2,-0.0,780,38,,,,,,,,,,,,,,,,,,,
38229,1480714131116,,,,,,,,0.0,0.07,1.0,-1.6,-0.1,-0.1,780,38,,,,,,,,,,,,,,,,,,,
38249,1480714131136,0,48.2,,47.2,58,48.4,,0.0,0.08,0.99,-1.7,-0.1,-0.0,800,36,1,0,20.526,0,37.478317,-122.203659,0.0,0.0,18.3,6,2,0.4,0,0.0,-1,0.0,0.0,0.0,0
38269,1480714131156,,,,,,,,0.01,0.08,0.99,-1.7,0.1,0.1,800,36,,,,,,,,,,,,,,,,,,,
38289,1480714131176,,,,,,,,0.01,0.08,1.0,-1.7,-0.1,0.0,780,41,,,,,,,,,,,,,,,,,,,
38309,1480714131103,,,,,,,,-0.0,0.08,1.0,-1.7,-0.1,-0.1,780,41,,,,,,,,,,,,,,,,,,,
38329,1480714131123,,,,,,,,-0.0,0.08,1.0,-1.7,-0.0,-0.1,780,36,,,,,,,,,,,,,,,,,,,
38349,1480714131143,,,,,57,,,0.0,0.07,0.99,-1.7,-0.1,0.0,780,36,1,0,19.024,0,37.478317,-122.203659,0.0,0.0,18.3,6,2,0.4,0,0.0,-1,0.0,,0.0,0
38369,1480714131163,,,,,,,,0.01,0.08,1.0,-1.7,0.1,0.1,780,43,,,,,,,,,,,,,,,,,,,
38389,1480714131183,,,,,,,,0.0,0.08,1.01,-1.7,0.0,0.0,800,43,,,,,,,,,,,,,,,,,,,
38409,1480714131203,,,,,,,,-0.01,0.07,1.01,-1.6,-0.0,-0.1,800,40,,,,,,,,,,,,,,,,,,,
38429,1480714131223,,,,,,,,-0.0,0.07,1.01,-1.6,0.0,-0.2,800,40,,,,,,,,,,,,,,,,,,,
38449,1480714131243,0,48.3,,45.0,58,47.3,,-0.0,0.07,1.0,-1.6,0.1,-0.1,780,43,1,0,20.0,0,37.478317,-122.203659,0.0,0.0,18.3,6,2,0.4,0,0.0,-1,0.0,0.0,0.0,0
38469,1480714131263,,,,,,,,-0.0,0.07,1.0,-1.6,0.2,0.0,780,44,,,,,,,,,,,,,,,,,,,
38489,1480714131283,,,,,,,,-0.0,0.07,1.01,-1.6,0.1,-0.0,780,44,,,,,,,,,,,,,,,,,,,
38509,1480714131303,,,,,,,,-0.02,0.06,1.01,-1.6,-0.0,-0.2,780,43,,,,,,,,,,,,,,,,,,,
38529,1480714131323,,,,,,,,-0.01,0.06,1.0,-1.6,-0.0,-0.2,780,43,,,,,,,,,,,,,,,,,,,
38549,1480714131343,,,,,57,,,-0.01,0.07,1.0,-1.6,0.1,-0.1,780,47,1,0,18.14,0,37.478317,-122.203659,0.0,0.0,18.3,6,2,0.4,0,0.0,-1,0.0,,0.0,0
38569,1480714131363,,,,,,,,-0.0,0.07,1.0,-1.6,0.2,-0.0,800,44,,,,,,,,,,,,,,,,,,,
38589,1480714131383,,,,,,,,-0.01,0.07,1.01,-1.5,-0.0,-0.1,800,44,,,,,,,,,,,,,,,,,,,
38609,1480714131400,,,,,,,,-0.02,0.07,1.01,-1.5,0.0,-0.2,800,46,,,,,,,,,,,,,,,,,,,
38629,1480714131420,,,,,,,,-0.02,0.07,1.0,-1.4,-0.0,-0.3,800,52,,,,,,,,,,,,,,,,,,,
38649,1480714131440,0,47.8,,46.9,57,48.2,,-0.01,0.07,1.0,-1.4,-0.0,-0.2,800,52,1,0,17.391,0,37.478317,-122.203659,0.0,0.0,18.3,6,2,0.4,0,0.0,-1,0.0,0.0,0.0,0
38669,1480714131460,,,,,,,,-0.01,0.08,1.0,-1.4,0.1,-0.1,800,46,,,,,,,,,,,,,,,,,,,
38689,1480714131480,,,,,,,,-0.01,0.08,1.0,-1.4,-0.1,-0.2,800,52,,,,,,,,,,,,,,,,,,,
38709,1480714131499,,,,,,,,-0.03,0.08,1.0,-1.3,-0.0,-0.4,800,52,,,,,,,,,,,,,,,,,,,
38729,1480714131519,,,,,,,,-0.02,0.08,1.0,-1.3,0.0,-0.5,800,53,,,,,,,,,,,,,,,,,,,
38749,1480714131539,,,,,57,,,-0.02,0.09,0.99,-1.3,0.0,-0.5,800,50,1,0,15.385,0,37.478317,-122.203659,0.0,0.0,18.3,6,2,0.4,0,0.0,-1,0.0,,0.0,0
38769,1480714131559,,,,,,,,-0.02,0.09,0.99,-1.3,0.2,-0.4,800,50,,,,,,,,,,,,,,,,,,,
38789,1480714131579,,,,,,,,-0.02,0.09,1.0,-1.3,0.0,-0.4,800,58,,,,,,,,,,,,,,,,,,,
38809,1480714131600,,,,,,,,-0.03,0.08,1.0,-1.2,0.1,-0.5,800,56,,,,,,,,,,,,,,,,,,,
38829,1480714131620,,,,,,,,-0.03,0.08,1.0,-1.2,0.2,-0.6,800,55,,,,,,,,,,,,,,,,,,,
38849,1480714131640,0,45.3,,44.8,58,45.9,,-0.03,0.08,0.99,-1.2,0.1,-0.6,800,55,1,0,14.286,0,37.478317,-122.203659,0.0,0.0,18.3,6,2,0.4,0,0.0,-1,0.0,0.0,0.0,0
38869,1480714131660,,,,,,,,-0.03,0.08,0.99,-1.2,0.1,-0.5,800,61,,,,,,,,,,,,,,,,,,,
38889,1480714131680,,,,,,,,-0.02,0.08,0.99,-1.2,0.2,-0.5,800,60,,,,,,,,,,,,,,,,,,,
38909,1480714131799,,,,,,,,-0.04,0.07,1.0,-1.2,0.1,-0.6,780,61,,,,,,,,,,,,,,,,,,,
38929,1480714131819,,,,,,,,-0.04,0.06,1.0,-1.1,0.1,-0.8,800,64,,,,,,,,,,,,,,,,,,,
38949,1480714131839,,,,,57,,,-0.03,0.06,1.0,-1.1,0.0,-0.8,800,63,1,0,12.787,0,37.478317,-122.203659,0.0,0.0,18.3,6,2,0.4,0,0.0,-1,0.0,,0.0,0
38969,1480714131859,,,,,,,,-0.03,0.07,1.0,-1.1,0.1,-0.7,800,63,,,,,,,,,,,,,,,,,,,
38989,1480714131879,,,,,,,,-0.03,0.06,1.01,-1.0,0.2,-0.6,800,66,,,,,,,,,,,,,,,,,,,
39009,1480714131899,,,,,,,,-0.03,0.06,1.01,-1.0,0.1,-0.7,800,67,,,,,,,,,,,,,,,,,,,
39029,1480714131919,,,,,,,,-0.04,0.05,1.01,-0.9,0.2,-0.8,800,64,,,,,,,,,,,,,,,,,,,
39049,1480714131939,0,47.0,0.0,46.2,58,47.6,14.85,-0.03,0.05,1.01,-0.9,0.1,-0.7,800,66,1,0,11.94,0,37.478317,-122.203659,0.0,0.0,18.3,6,2,0.4,0,0.0,-1,0.0,0.0,0.0,0
39069,1480714131959,,,,,,,,-0.03,0.05,1.0,-0.9,0.1,-0.6,780,70,,,,,,,,,,,,,,,,,,,
39089,1480714131979,,,,,,,,-0.02,0.05,1.0,-0.9,0.2,-0.5,780,69,,,,,,,,,,,,,,,,,,,
39109,1480714131895,,,,,,,,-0.03,0.05,1.01,-0.9,0.0,-0.5,780,67,,,,,,,,,,,,,,,,,,,
39129,1480714131915,,,,,,,,-0.03,0.05,1.01,-0.9,0.1,-0.6,800,72,,,,,,,,,,,,,,,,,,,
39149,1480714131935,,,,,58,,,-0.03,0.05,1.01,-0.9,-0.0,-0.5,800,72,1,0,11.642,0,37.478317,-122.203659,0.0,0.0,18.3,6,2,0.4,0,0.0,-1,0.0,,0.0,0
39169,1480714131955,,,,,,,,-0.03,0.05,1.01,-0.8,-0.1,-0.3,800,72,,,,,,,,,,,,,,,,,,,
39189,1480714131975,,,,,,,,-0.02,0.05,1.01,-0.8,0.1,-0.1,800,69,,,,,,,,,,,,,,,,,,,
39209,1480714132002,,,,,,,,-0.03,0.06,1.02,-0.8,-0.1,-0.1,780,70,,,,,,,,,,,,,,,,,,,
39229,1480714132022,,,,,,,,-0.03,0.06,1.02,-0.8,-0.0,-0.1,800,76,,,,,,,,,,,,,,,,,,,
39249,1480714132042,0,48.4,,47.3,58,48.7,,-0.02,0.06,1.02,-0.8,-0.0,-0.1,800,75,1,0,10.263,0,37.478317,-122.203659,0.0,0.0,18.3,6,2,0.4,0,0.0,-1,0.0,0.0,0.0,0
39269,1480714132062,,,,,,,,-0.02,0.06,1.02,-0.8,0.0,-0.0,780,70,,,,,,,,,,,,,,,,,,,
39289,1480714132082,,,,,,,,-0.02,0.06,1.02,-0.8,0.2,0.0,800,72,,,,,,,,,,,,,,,,,,,
39309,1480714132102,,,,,,,,-0.02,0.07,1.02,-0.7,0.0,0.0,800,76,,,,,,,,,,,,,,,,,,,
39329,1480714132122,,,,,,,,-0.02,0.06,1.02,-0.7,0.0,-0.1,800,76,,,,,,,,,,,,,,,,,,,
39349,1480714132142,,,,,59,,,-0.02,0.06,1.01,-0.7,-0.0,-0.1,800,75,1,0,10.526,0,37.478317,-122.203659,0.0,0.0,18.3,6,2,0.4,0,0.0,-1,0.0,,0.0,0
39369,1480714132162,,,,,,,,-0.02,0.06,1.01,-0.7,-0.0,0.0,800,73,,,,,,,,,,,,,,,,,,,
39389,1480714132182,,,,,,,,-0.01,0.07,1.01,-0.8,0.0,0.1,800,75,,,,,,,,,,,,,,,,,,,
39409,1480714132203,,,,,,,,-0.01,0.07,1.02,-0.8,-0.2,0.1,800,75,,,,,,,,,,,,,,,,,,,
39429,1480714132223,,,,,,,,-0.02,0.06,1.02,-0.8,-0.1,-0.1,800,76,,,,,,,,,,,,,,,,,,,
39449,1480714132243,0,45.3,,43.9,58,47.3,,-0.02,0.06,1.01,-0.8,-0.1,-0.1,800,78,1,0,10.526,0,37.478317,-122.203659,0.0,0.0,18.3,6,2,0.4,0,0.0,-1,0.0,0.0,0.0,0
39469,1480714132263,,,,,,,,-0.01,0.06,1.01,-0.8,-0.2,-0.1,800,76,,,,,,,,,,,,,,,,,,,
39489,1480714132283,,,,,,,,-0.01,0.07,1.01,-0.8,-0.0,-0.1,800,75,,,,,,,,,,,,,,,,,,,
39509,1480714132302,,,,,,,,-0.01,0.07,1.01,-0.8,-0.2,-0.1,780,78,,,,,,,,,,,,,,,,,,,
39529,1480714132322,,,,,,,,-0.02,0.06,1.01,-0.8,-0.0,-0.2,780,80,,,,,,,,,,,,,,,,,,,
39549,1480714132342,,,,,58,,,-0.02,0.06,1.01,-0.8,-0.0,-0.2,780,78,1,0,9.75,0,37.478317,-122.203659,0.0,0.0,18.3,6,2,0.4,0,0.0,-1,0.0,,0.0,0
39569,1480714132362,,,,,,,,-0.02,0.06,1.0,-0.8,-0.0,-0.2,780,78,,,,,,,,,,,,,,,,,,,
39589,1480714132382,,,,,,,,-0.02,0.06,1.0,-0.8,0.0,-0.1,780,81,,,,,,,,,,,,,,,,,,,
39609,1480714132400,,,,,,,,-0.02,0.06,1.0,-0.8,-0.2,-0.1,800,80,,,,,,,,,,,,,,,,,,,
39629,1480714132420,,,,,,,,-0.02,0.06,1.0,-0.7,-0.2,-0.1,800,80,,,,,,,,,,,,,,,,,,,
39649,1480714132440,0,48.5,,47.2,59,47.3,,-0.02,0.06,1.0,-0.7,-0.2,-0.2,800,83,1,0,10.0,0,37.478317,-122.203659,0.0,0.0,18.3,6,2,0.4,0,0.0,-1,0.0,0.0,0.0,0
39669,1480714132460,,,,,,,,-0.02,0.06,1.0,-0.8,-0.1,-0.0,780,84,,,,,,,,,,,,,,,,,,,
39689,1480714132480,,,,,,,,-0.01,0.07,1.0,-0.8,0.0,0.1,780,83,,,,,,,,,,,,,,,,,,,
39709,1480714132599,,,,,,,,-0.01,0.07,1.01,-0.8,-0.2,0.2,800,81,,,,,,,,,,,,,,,,,,,
39729,1480714132619,,,,,,,,-0.02,0.07,1.01,-0.7,-0.1,0.2,780,84,,,,,,,,,,,,,,,,,,,
39749,1480714132639,,,,,58,,,-0.02,0.07,1.01,-0.8,-0.0,0.3,780,87,1,0,9.524,0,37.478317,-122.203659,0.0,0.0,18.3,6,2,0.4,0,0.0,-1,0.0,,0.0,0
39769,1480714132659,,,,,,,,-0.02,0.07,1.0,-0.8,-0.1,0.4,800,84,,,,,,,,,,,,,,,,,,,
39789,1480714132679,,,,,,,,-0.01,0.08,1.01,-0.9,0.1,0.5,780,86,,,,,,,,,,,,,,,,,,,
39809,1480714132699,,,,,,,,-0.02,0.07,1.02,-0.9,-0.0,0.5,760,87,,,,,,,,,,,,,,,,,,,
39829,1480714132719,,,,,,,,-0.02,0.07,1.01,-1.0,0.1,0.5,760,89,,,,,,,,,,,,,,,,,,,
39849,1480714132739,0,48.8,,46.6,58,45.8,,-0.02,0.07,1.01,-1.1,0.1,0.5,760,87,1,0,8.736,0,37.478317,-122.203659,0.0,0.0,18.3,6,2,0.4,0,0.0,-1,0.0,0.0,0.0,0
39869,1480714132759,,,,,,,,-0.01,0.08,1.0,-1.1,0.1,0.6,760,87,,,,,,,,,,,,,,,,,,,
39889,1480714132779,,,,,,,,-0.01,0.08,1.0,-1.1,0.1,0.7,760,92,,,,,,,,,,,,,,,,,,,
39909,1480714132698,,,,,,,,-0.02,0.08,1.01,-1.2,0.0,0.5,780,89,,,,,,,,,,,,,,,,,,,
39929,1480714132718,,,,,,,,-0.02,0.08,1.0,-1.2,0.1,0.4,780,86,,,,,,,,,,,,,,,,,,,
39949,1480714132738,,,,,58,,,-0.01,0.09,1.0,-1.2,0.1,0.5,760,89,1,0,8.764,0,37.478317,-122.203659,0.0,0.0,18.3,6,2,0.4,0,0.0,-1,0.0,,0.0,0
39969,1480714132758,,,,,,,,-0.01,0.09,1.0,-1.2,0.1,0.5,760,92,,,,,,,,,,,,,,,,,,,
39989,1480714132778,,,,,,,,-0.01,0.09,1.01,-1.3,0.1,0.4,760,92,,,,,,,,,,,,,,,,,,,
40009,1480714132802,,,,,,,,-0.01,0.09,1.02,-1.3,0.2,0.3,760,90,,,,,,,,,,,,,,,,,,,
40029,1480714132822,,,,,,,,-0.01,0.09,1.01,-1.4,0.1,0.3,760,92,,,,,,,,,,,,,,,,,,,
40049,1480714132842,0,46.9,0.0,46.1,55,48.5,14.95,-0.0,0.09,1.0,-1.4,0.1,0.3,780,95,1,0,8.444,0,37.478317,-122.203659,0.0,0.0,18.3,6,2,0.4,0,0.0,-1,0.0,0.0,0.0,0
40069,1480714132862,,,,,,,,-0.01,0.09,1.01,-1.5,-0.0,0.2,780,93,,,,,,,,,,,,,,,,,,,
40089,1480714132882,,,,,,,,-0.01,0.08,1.01,-1.5,-0.1,0.1,760,89,,,,,,,,,,,,,,,,,,,
40109,1480714132893,,,,,,,,-0.01,0.08,1.0,-1.6,-0.1,-0.0,760,92,,,,,,,,,,,,,,,,,,,
40129,1480714132913,,,,,,,,-0.01,0.09,1.0,-1.6,-0.1,0.0,760,93,,,,,,,,,,,,,,,,,,,
40149,1480714132933,,,,,56,,,-0.0,0.09,1.0,-1.7,0.0,0.2,780,90,1,0,8.261,0,37.478317,-122.203659,0.0,0.0,18.3,6,2,0.4,0,0.0,-1,0.0,,0.0,0
40169,1480714132953,,,,,,,,-0.01,0.08,1.01,-1.7,-0.1,0.1,780,86,,,,,,,,,,,,,,,,,,,
40189,1480714132973,,,,,,,,-0.0,0.08,1.01,-1.8,-0.1,0.1,780,84,,,,,,,,,,,,,,,,,,,
40209,1480714133002,,,,,,,,0.0,0.08,1.01,-1.8,-0.1,0.2,780,86,,,,,,,,,,,,,,,,,,,
40229,1480714133022,,,,,,,,0.01,0.08,1.0,-1.9,-0.2,0.2,800,86,,,,,,,,,,,,,,,,,,,
40249,1480714133042,0,47.0,,43.6,56,45.9,,0.01,0.08,1.01,-1.9,-0.1,0.2,800,83,1,0,9.302,0,37.478317,-122.203659,0.0,0.0,18.3,6,2,0.4,0,0.0,-1,0.0,0.0,0.0,0
40269,1480714133062,,,,,,,,0.01,0.08,1.02,-1.9,-0.1,0.2,800,78,,,,,,,,,,,,,,,,,,,
40289,1480714133082,,,,,,,,0.01,0.08,1.01,-2.0,-0.0,0.1,820,75,,,,,,,,,,,,,,,,,,,
40309,1480714133102,,,,,,,,0.02,0.07,1.0,-2.0,-0.0,0.2,820,72,,,,,,,,,,,,,,,,,,,
40329,1480714133122,,,,,,,,0.02,0.08,1.0,-2.0,0.0,0.3,820,73,,,,,,,,,,,,,,,,,,,
40349,1480714133142,,,,,57,,,0.02,0.08,1.01,-2.1,0.2,0.4,840,72,1,0,11.233,0,37.478333,-122.203674,1.08,0.0,14.1,6,2,0.4,0,0.0,-1,0.0,,0.0,0
40369,1480714133162,,,,,,,,0.02,0.09,1.0,-2.1,-0.1,0.4,840,73,,,,,,,,,,,,,,,,,,,
40389,1480714133182,,,,,,,,0.01,0.08,1.01,-2.1,-0.0,0.4,860,73,,,,,,,,,,,,,,,,,,,
40409,1480714133202,,,,,,,,0.02,0.08,1.0,-2.2,-0.0,0.3,840,75,,,,,,,,,,,,,,,,,,,
40429,1480714133222,,,,,,,,0.02,0.07,1.0,-2.2,-0.1,0.2,860,75,,,,,,,,,,,,,,,,,,,
40449,1480714133242,0,48.4,,47.5,60,48.2,,0.03,0.07,1.0,-2.2,-0.1,0.2,860,75,1,0,11.2,0,37.478333,-122.203674,1.11,0.0,13.6,6,2,0.4,0,0.0,-1,0.0,0.0,0.0,0
40469,1480714133262,,,,,,,,0.03,0.08,1.0,-2.3,-0.1,0.2,880,75,,,,,,,,,,,,,,,,,,,
40489,1480714133282,,,,,,,,0.03,0.08,1.0,-2.4,-0.2,0.3,880,75,,,,,,,,,,,,,,,,,,,
40509,1480714133402,,,,,,,,0.03,0.08,1.01,-2.4,0.0,0.3,900,75,,,,,,,,,,,,,,,,,,,
40529,1480714133422,,,,,,,,0.03,0.09,1.01,-2.4,-0.2,0.3,900,75,,,,,,,,,,,,,,,,,,,
40549,1480714133442,,,,,62,,,0.03,0.09,1.01,-2.5,-0.3,0.2,920,75,1,0,12.0,0,37.478333,-122.203674,0.97,0.0,12.4,6,2,0.4,0,0.0,-1,0.0,,0.0,0
40569,1480714133462,,,,,,,,0.02,0.09,1.01,-2.5,-0.1,0.1,940,75,,,,,,,,,,,,,,,,,,,
40589,1480714133482,,,,,,,,0.02,0.09,1.01,-2.5,-0.0,0.0,940,76,,,,,,,,,,,,,,,,,,,
40609,1480714133502,,,,,,,,0.01,0.09,1.01,-2.5,-0.1,-0.1,960,78,,,,,,,,,,,,,,,,,,,
40629,1480714133522,,,,,,,,0.01,0.08,1.0,-2.5,-0.3,-0.2,980,78,,,,,,,,,,,,,,,,,,,
40649,1480714133542,0,46.8,,43.5,66,46.1,,0.01,0.07,0.98,-2.5,-0.5,-0.3,980,78,1,0,12.308,0,37.478333,-122.203674,0.97,0.0,12.4,6,2,0.4,0,0.0,-1,0.0,0.0,0.0,0
40669,1480714133562,,,,,,,,0.01,0.07,0.98,-2.6,-0.5,-0.4,980,76,,,,,,,,,,,,,,,,,,,
40689,1480714133582,,,,,,,,0.01,0.06,0.98,-2.6,-0.5,-0.5,980,76,,,,,,,,,,,,,,,,,,,
40709,1480714133499,,,,,,,,0.01,0.05,0.97,-2.7,-0.5,-0.5,1000,75,,,,,,,,,,,,,,,,,,,
40729,1480714133519,,,,,,,,0.0,0.05,0.97,-2.7,-0.4,-0.5,1000,75,,,,,,,,,,,,,,,,,,,
40749,1480714133539,,,,,65,,,0.01,0.05,0.96,-2.8,-0.3,-0.6,1000,75,1,0,13.333,0,37.478333,-122.203674,0.0,0.0,12.4,6,2,0.4,0,0.0,-1,0.0,,0.0,0
40769,1480714133559,,,,,,,,0.01,0.05,0.96,-2.8,-0.2,-0.6,1000,73,,,,,,,,,,,,,,,,,,,
40789,1480714133579,,,,,,,,0.01,0.05,0.96,-2.8,-0.2,-0.6,1000,73,,,,,,,,,,,,,,,,,,,
40809,1480714133599,,,,,,,,0.01,0.05,0.96,-2.8,-0.1,-0.7,1000,72,,,,,,,,,,,,,,,,,,,
40829,1480714133619,,,,,,,,0.01,0.05,0.95,-2.8,-0.1,-0.7,1000,73,,,,,,,,,,,,,,,,,,,
40849,1480714133639,0,45.5,,44.8,64,48.0,,0.01,0.05,0.95,-2.9,-0.1,-0.7,1000,72,1,0,13.889,0,37.478333,-122.203674,1.24,0.0,12.5,6,2,0.4,0,0.0,-1,0.0,0.0,0.0,0
40869,1480714133659,,,,,,,,0.01,0.05,0.95,-2.9,-0.0,-0.7,1000,72,,,,,,,,,,,,,,,,,,,
40889,1480714133679,,,,,,,,0.01,0.05,0.95,-2.9,0.0,-0.7,1000,70,,,,,,,,,,,,,,,,,,,
40909,1480714133693,,,,,,,,0.01,0.05,0.95,-3.0,0.0,-0.7,980,70,,,,,,,,,,,,,,,,,,,
40929,1480714133713,,,,,,,,0.01,0.05,0.95,-3.0,0.0,-0.8,980,69,,,,,,,,,,,,,,,,,,,
40949,1480714133733,,,,,63,,,0.01,0.05,0.95,-3.0,-0.0,-0.8,980,69,1,0,14.0,0,37.478333,-122.203674,1.03,0.0,12.5,6,2,0.4,0,0.0,-1,0.0,,0.0,0
40969,1480714133753,,,,,,,,0.01,0.05,0.95,-3.1,-0.0,-0.8,980,69,,,,,,,,,,,,,,,,,,,
40989,1480714133773,,,,,,,,0.01,0.05,0.95,-3.1,-0.1,-0.7,980,67,,,,,,,,,,,,,,,,,,,
41009,1480714133802,,,,,,,,0.01,0.05,0.95,-3.1,-0.1,-0.7,960,67,,,,,,,,,,,,,,,,,,,
41029,1480714133822,,,,,,,,0.01,0.04,0.95,-3.2,-0.0,-0.7,940,67,,,,,,,,,,,,,,,,,,,
41049,1480714133842,0,46.1,0.0,43.6,64,46.5,14.9,0.01,0.03,0.96,-3.2,0.0,-0.6,940,66,1,0,14.328,0,37.478333,-122.203674,0.0,0.0,12.6,6,2,0.4,0,0.0,-1,0.0,0.0,0.0,0
41069,1480714133862,,,,,,,,0.02,0.02,0.96,-3.2,0.2,-0.6,940,66,,,,,,,,,,,,,,,,,,,
41089,1480714133882,,,,,,,,0.03,0.02,0.96,-3.2,0.3,-0.6,940,66,,,,,,,,,,,,,,,,,,,
41109,1480714133894,,,,,,,,0.03,0.02,0.96,-3.2,0.2,-0.5,940,63,,,,,,,,,,,,,,,,,,,
41129,1480714133914,,,,,,,,0.04,0.03,0.97,-3.2,0.1,-0.4,940,63,,,,,,,,,,,,,,,,,,,
41149,1480714133934,,,,,61,,,0.03,0.04,0.97,-3.2,-0.2,-0.3,920,63,1,0,14.921,0,37.478333,-122.203674,1.08,0.0,12.3,6,2,0.4,0,0.0,-1,0.0,,0.0,0
41169,1480714133954,,,,,,,,0.03,0.04,0.98,-3.3,-0.3,-0.2,920,61,,,,,,,,,,,,,,,,,,,
41189,1480714133974,,,,,,,,0.04,0.05,0.99,-3.3,-0.2,-0.0,920,61,,,,,,,,,,,,,,,,,,,
41209,1480714134003,,,,,,,,0.05,0.06,0.99,-3.4,0.0,0.0,920,60,,,,,,,,,,,,,,,,,,,
41229,1480714134023,,,,,,,,0.05,0.06,1.0,-3.4,0.1,0.0,920,60,,,,,,,,,,,,,,,,,,,
41249,1480714134043,0,46.5,,46.0,60,48.6,,0.05,0.07,1.0,-3.4,-0.1,-0.0,920,60,1,0,15.333,0,37.478333,-122.203674,0.0,0.0,12.3,6,2,0.4,0,0.0,-1,0.0,0.0,0.0,0
41269,1480714134063,,,,,,,,0.04,0.07,1.0,-3.5,-0.2,-0.1,920,58,,,,,,,,,,,,,,,,,,,
41289,1480714134083,,,,,,,,0.04,0.06,1.01,-3.5,-0.2,-0.1,900,56,,,,,,,,,,,,,,,,,,,
41309,1480714134202,,,,,,,,0.04,0.06,1.0,-3.5,-0.0,-0.2,900,56,,,,,,,,,,,,,,,,,,,
41329,1480714134222,,,,,,,,0.03,0.06,0.99,-3.5,-0.1,-0.3,900,55,,,,,,,,,,,,,,,,,,,
41349,1480714134242,,,,,62,,,0.04,0.05,0.99,-3.5,-0.2,-0.3,900,55,1,0,16.364,0,37.478333,-122.203674,0.0,0.0,12.3,6,2,0.4,0,0.0,-1,0.0,,0.0,0
41369,1480714134262,,,,,,,,0.04,0.04,0.99,-3.5,-0.1,-0.4,920,55,,,,,,,,,,,,,,,,,,,
41389,1480714134282,,,,,,,,0.04,0.04,0.98,-3.5,-0.1,-0.4,920,53,,,,,,,,,,,,,,,,,,,
41409,1480714134302,,,,,,,,0.04,0.04,0.99,-3.5,-0.1,-0.3,920,52,,,,,,,,,,,,,,,,,,,
41429,1480714134322,,,,,,,,0.04,0.04,1.0,-3.6,-0.2,-0.2,900,52,,,,,,,,,,,,,,,,,,,
41449,1480714134342,0,48.8,,47.3,62,47.7,,0.05,0.06,1.0,-3.6,-0.2,-0.1,900,50,1,0,17.308,0,37.478333,-122.203674,0.0,0.0,12.3,6,2,0.4,0,0.0,-1,0.0,0.0,0.0,0
41469,1480714134362,,,,,,,,0.05,0.07,1.0,-3.7,-0.1,-0.0,900,49,,,,,,,,,,,,,,,,,,,
41489,1480714134382,,,,,,,,0.05,0.08,1.0,-3.7,-0.0,-0.0,920,49,,,,,,,,,,,,,,,,,,,
41509,1480714134302,,,,,,,,0.05,0.09,1.0,-3.7,-0.2,-0.0,920,49,,,,,,,,,,,,,,,,,,,
41529,1480714134322,,,,,,,,0.04,0.09,1.01,-3.8,-0.3,-0.1,940,47,,,,,,,,,,,,,,,,,,,
41549,1480714134342,,,,,59,,,0.03,0.08,1.02,-3.8,-0.2,-0.2,920,47,1,0,18.776,0,37.478333,-122.203674,0.0,0.0,12.8,6,2,0.4,0,0.0,-1,0.0,,0.0,0
41569,1480714134362,,,,,,,,0.03,0.08,1.01,-3.8,-0.1,-0.3,940,46,,,,,,,,,,,,,,,,,,,
41589,1480714134382,,,,,,,,0.03,0.08,1.0,-3.8,-0.1,-0.4,940,46,,,,,,,,,,,,,,,,,,,
41609,1480714134401,,,,,,,,0.02,0.07,1.0,-3.7,-0.2,-0.5,960,44,,,,,,,,,,,,,,,,,,,
41629,1480714134421,,,,,,,,0.02,0.06,0.99,-3.7,-0.2,-0.6,960,44,,,,,,,,,,,,,,,,,,,
41649,1480714134441,0,46.1,,43.9,61,46.5,,0.02,0.05,0.99,-3.7,-0.2,-0.6,980,44,1,0,21.818,0,37.478333,-122.203674,0.0,0.0,13.2,6,2,0.4,0,0.0,-1,0.0,0.0,0.0,0
41669,1480714134461,,,,,,,,0.02,0.04,1.0,-3.7,-0.1,-0.6,960,43,,,,,,,,,,,,,,,,,,,
41689,1480714134481,,,,,,,,0.03,0.03,1.0,-3.7,0.0,-0.6,980,43,,,,,,,,,,,,,,,,,,,
41709,1480714134499,,,,,,,,0.03,0.03,0.99,-3.7,0.1,-0.6,960,41,,,,,,,,,,,,,,,,,,,
41729,1480714134519,,,,,,,,0.04,0.03,0.99,-3.7,0.2,-0.7,980,41,,,,,,,,,,,,,,,,,,,
41749,1480714134539,,,,,63,,,0.04,0.03,0.99,-3.7,0.2,-0.6,1000,40,1,0,23.415,0,37.478333,-122.203674,0.0,0.0,13.1,6,2,0.4,0,0.0,-1,0.0,,0.0,0
41769,1480714134559,,,,,,,,0.05,0.03,0.99,-3.7,0.2,-0.6,980,40,,,,,,,,,,,,,,,,,,,
41789,1480714134579,,,,,,,,0.05,0.03,0.99,-3.7,0.1,-0.5,960,40,,,,,,,,,,,,,,,,,,,
41809,1480714134598,,,,,,,,0.05,0.03,1.0,-3.7,0.1,-0.4,980,40,,,,,,,,,,,,,,,,,,,
41829,1480714134618,,,,,,,,0.05,0.03,0.99,-3.7,0.2,-0.4,980,38,,,,,,,,,,,,,,,,,,,
41849,1480714134638,0,46.5,,43.8,62,46.4,,0.05,0.03,1.0,-3.7,0.2,-0.4,980,38,1,0,25.789,0,37.478333,-122.203674,0.0,0.0,13.7,6,2,0.4,0,0.0,-1,0.0,0.0,0.0,0
41869,1480714134658,,,,,,,,0.05,0.03,1.0,-3.7,0.1,-0.4,980,36,,,,,,,,,,,,,,,,,,,
41889,1480714134678,,,,,,,,0.05,0.03,1.0,-3.7,0.0,-0.4,1000,36,,,,,,,,,,,,,,,,,,,
41909,1480714134699,,,,,,,,0.05,0.03,1.0,-3.7,-0.1,-0.3,980,35,,,,,,,,,,,,,,,,,,,
41929,1480714134719,,,,,,,,0.05,0.03,1.0,-3.7,-0.2,-0.2,980,35,,,,,,,,,,,,,,,,,,,
41949,1480714134739,,,,,63,,,0.05,0.03,1.01,-3.7,-0.2,-0.2,980,35,1,0,28.0,0,37.478333,-122.203674,0.0,0.0,13.7,6,2,0.4,0,0.0,-1,0.0,,0.0,0
41969,1480714134759,,,,,,,,0.05,0.03,1.01,-3.7,-0.3,-0.1,980,35,,,,,,,,,,,,,,,,,,,
41989,1480714134779,,,,,,,,0.05,0.03,1.01,-3.7,-0.4,-0.0,1000,33,,,,,,,,,,,,,,,,,,,
42009,1480714134802,,,,,,,,0.05,0.04,1.01,-3.7,-0.4,0.0,1000,33,,,,,,,,,,,,,,,,,,,
42029,1480714134822,,,,,,,,0.05,0.05,1.01,-3.7,-0.4,0.1,980,33,,,,,,,,,,,,,,,,,,,
42049,1480714134842,0,48.6,0.3,46.4,63,45.2,14.95,0.05,0.06,1.01,-3.8,-0.4,0.1,980,32,1,0,30.303,0,37.478333,-122.203674,0.0,0.0,13.7,6,2,0.4,0,0.0,-1,0.0,0.0,0.0,0
42069,1480714134862,,,,,,,,0.05,0.06,1.01,-3.8,-0.4,0.1,980,32,,,,,,,,,,,,,,,,,,,
42089,1480714134882,,,,,,,,0.05,0.06,1.01,-3.8,-0.4,0.1,980,30,,,,,,,,,,,,,,,,,,,
42109,1480714134993,,,,,,,,0.05,0.07,1.01,-3.8,-0.5,0.2,980,30,,,,,,,,,,,,,,,,,,,
42129,1480714135013,,,,,,,,0.05,0.07,1.01,-3.8,-0.5,0.3,980,30,,,,,,,,,,,,,,,,,,,
42149,1480714135033,,,,,61,,,0.04,0.08,1.01,-3.8,-0.5,0.3,960,29,1,0,32.667,0,37.478333,-122.203674,0.0,0.0,13.7,6,2,0.4,0,0.0,-1,0.0,,0.0,0
42169,1480714135053,,,,,,,,0.04,0.08,1.0,-3.8,-0.5,0.3,960,29,,,,,,,,,,,,,,,,,,,
42189,1480714135073,,,,,,,,0.04,0.08,1.0,-3.8,-0.5,0.4,960,29,,,,,,,,,,,,,,,,,,,
42209,1480714135093,,,,,,,,0.04,0.08,1.0,-3.7,-0.4,0.4,960,26,,,,,,,,,,,,,,,,,,,
42229,1480714135113,,,,,,,,0.04,0.09,1.0,-3.7,-0.3,0.4,980,26,,,,,,,,,,,,,,,,,,,
42249,1480714135133,0,47.6,,43.9,62,45.8,,0.04,0.1,1.01,-3.7,-0.1,0.4,960,26,1,0,37.692,0,37.478333,-122.203674,0.0,0.0,13.7,6,2,0.4,0,0.0,-1,0.0,0.0,0.0,0
42269,1480714135153,,,,,,,,0.05,0.11,1.01,-3.7,0.1,0.4,960,24,,,,,,,,,,,,,,,,,,,
42289,1480714135173,,,,,,,,0.05,0.12,1.01,-3.7,0.2,0.4,960,24,,,,,,,,,,,,,,,,,,,
42309,1480714135102,,,,,,,,0.06,0.12,1.01,-3.7,0.3,0.4,960,24,,,,,,,,,,,,,,,,,,,
42329,1480714135122,,,,,,,,0.07,0.13,1.01,-3.7,0.3,0.4,960,24,,,,,,,,,,,,,,,,,,,
42349,1480714135142,,,,,61,,,0.07,0.13,1.01,-3.7,0.2,0.4,960,23,1,0,40.0,0,37.478333,-122.203674,0.0,0.0,13.7,6,2,0.4,0,0.0,-1,0.0,,0.0,0
42369,1480714135162,,,,,,,,0.07,0.12,1.01,-3.7,-0.0,0.3,960,23,,,,,,,,,,,,,,,,,,,
42389,1480714135182,,,,,,,,0.06,0.12,1.01,-3.6,-0.3,0.3,960,23,,,,,,,,,,,,,,,,,,,
42409,1480714135202,,,,,,,,0.05,0.12,1.01,-3.6,-0.4,0.3,960,20,,,,,,,,,,,,,,,,,,,
42429,1480714135222,,,,,,,,0.04,0.13,1.0,-3.6,-0.5,0.2,940,20,,,,,,,,,,,,,,,,,,,
42449,1480714135242,0,48.1,,44.8,60,44.9,,0.04,0.13,1.01,-3.6,-0.4,0.2,940,20,1,0,48.0,0,37.478333,-122.203674,0.0,0.0,13.7,6,2,0.4,0,0.0,-1,0.0,0.0,0.0,0
42469,1480714135262,,,,,,,,0.03,0.13,1.01,-3.6,-0.2,0.1,940,21,,,,,,,,,,,,,,,,,,,
42489,1480714135282,,,,,,,,0.02,0.12,1.01,-3.5,-0.1,-0.0,940,47,,,,,,,,,,,,,,,,,,,
42509,1480714135302,,,,,,,,0.02,0.11,1.01,-3.5,-0.1,-0.2,940,73,,,,,,,,,,,,,,,,,,,
42529,1480714135322,,,,,,,,0.01,0.1,1.01,-3.4,-0.1,-0.3,920,92,,,,,,,,,,,,,,,,,,,
42549,1480714135342,,,,,60,,,0.01,0.09,1.01,-3.4,-0.0,-0.3,920,84,1,0,12.877,0,37.478333,-122.203674,0.0,0.0,13.7,6,2,0.4,0,0.0,-1,0.0,,0.0,0
42569,1480714135362,,,,,,,,0.01,0.08,1.0,-3.4,0.0,-0.4,920,84,,,,,,,,,,,,,,,,,,,
42589,1480714135382,,,,,,,,0.01,0.07,0.99,-3.4,0.1,-0.3,920,47,,,,,,,,,,,,,,,,,,,
42609,1480714135402,,,,,,,,0.02,0.07,0.99,-3.4,0.1,-0.2,900,47,,,,,,,,,,,,,,,,,,,
42629,1480714135422,,,,,,,,0.01,0.08,0.99,-3.5,-0.1,-0.1,900,33,,,,,,,,,,,,,,,,,,,
42649,1480714135442,0,47.9,,43.9,60,45.6,,0.01,0.09,1.0,-3.5,-0.1,-0.0,920,33,1,0,19.149,0,37.478333,-122.203674,0.0,0.0,13.7,6,2,0.4,0,0.0,-1,0.0,0.0,0.0,0
42669,1480714135462,,,,,,,,0.02,0.09,1.0,-3.5,-0.0,0.0,880,46,,,,,,,,,,,,,,,,,,,
42689,1480714135482,,,,,,,,0.02,0.1,1.0,-3.5,-0.0,-0.0,900,46,,,,,,,,,,,,,,,,,,,
42709,1480714135502,,,,,,,,0.02,0.09,1.01,-3.5,-0.1,-0.0,900,30,,,,,,,,,,,,,,,,,,,
42729,1480714135522,,,,,,,,0.0,0.09,1.02,-3.5,-0.1,-0.1,880,30,,,,,,,,,,,,,,,,,,,
42749,1480714135542,,,,,59,,,-0.0,0.09,1.01,-3.5,-0.0,-0.1,900,30,1,0,30.0,0,37.478333,-122.203674,0.0,0.0,13.7,6,2,0.4,0,0.0,-1,0.0,,0.0,0
42769,1480714135562,,,,,,,,-0.01,0.08,1.01,-3.4,-0.1,-0.3,880,30,,,,,,,,,,,,,,,,,,,
42789,1480714135582,,,,,,,,-0.01,0.07,1.01,-3.4,0.0,-0.3,880,38,,,,,,,,,,,,,,,,,,,
42809,1480714135602,,,,,,,,-0.0,0.07,1.0,-3.4,0.0,-0.3,860,38,,,,,,,,,,,,,,,,,,,
42829,1480714135622,,,,,,,,-0.0,0.07,1.0,-3.4,-0.0,-0.2,860,38,,,,,,,,,,,,,,,,,,,
42849,1480714135642,0,47.5,,47.1,58,48.8,,0.0,0.07,1.0,-3.5,0.0,-0.0,860,18,1,0,22.632,0,37.478333,-122.203674,0.0,0.0,13.7,6,2,0.4,0,0.0,-1,0.0,0.0,0.0,0
42869,1480714135662,,,,,,,,0.01,0.08,1.0,-3.5,0.1,0.0,860,18,,,,,,,,,,,,,,,,,,,
42889,1480714135682,,,,,,,,0.0,0.08,1.01,-3.5,-0.1,-0.0,840,18,,,,,,,,,,,,,,,,,,,
42909,1480714135798,,,,,,,,-0.01,0.08,1.01,-3.5,-0.0,-0.1,840,20,,,,,,,,,,,,,,,,,,,
42929,1480714135818,,,,,,,,-0.01,0.08,1.01,-3.5,0.0,-0.2,820,20,,,,,,,,,,,,,,,,,,,
42949,1480714135838,,,,,56,,,-0.01,0.08,1.0,-3.5,0.0,-0.2,820,20,1,0,42.0,0,37.478333,-122.203674,0.0,0.0,13.7,6,2,0.4,0,0.0,-1,0.0,,0.0,0
42969,1480714135858,,,,,,,,-0.01,0.08,1.0,-3.6,-0.0,-0.1,800,24,,,,,,,,,,,,,,,,,,,
42989,1480714135878,,,,,,,,-0.01,0.08,1.01,-3.6,0.1,-0.0,780,24,,,,,,,,,,,,,,,,,,,
43009,1480714135898,,,,,,,,-0.02,0.07,1.01,-3.6,0.0,-0.1,760,33,,,,,,,,,,,,,,,,,,,
43029,1480714135918,,,,,,,,-0.03,0.07,1.02,-3.6,0.1,-0.1,760,33,,,,,,,,,,,,,,,,,,,
43049,1480714135938,0,47.6,0.0,43.8,55,45.8,14.91,-0.03,0.08,1.01,-3.6,0.1,-0.1,760,33,1,0,23.03,0,37.478333,-122.203674,0.0,0.0,13.7,6,2,0.4,0,0.0,-1,0.0,0.0,0.0,0
43069,1480714135958,,,,,,,,-0.02,0.08,1.0,-3.6,0.2,0.0,740,30,,,,,,,,,,,,,,,,,,,
43089,1480714135978,,,,,,,,-0.03,0.07,1.01,-3.6,0.1,-0.1,720,30,,,,,,,,,,,,,,,,,,,
43109,1480714135893,,,,,,,,-0.04,0.07,1.01,-3.6,0.2,-0.2,720,33,,,,,,,,,,,,,,,,,,,
43129,1480714135913,,,,,,,,-0.03,0.08,1.01,-3.7,0.2,-0.1,700,33,,,,,,,,,,,,,,,,,,,
43149,1480714135933,,,,,54,,,-0.02,0.09,1.0,-3.7,0.2,-0.1,700,33,1,0,21.212,0,37.478333,-122.203674,0.0,0.0,13.7,6,2,0.4,0,0.0,-1,0.0,,0.0,0
43169,1480714135953,,,,,,,,-0.03,0.08,1.0,-3.7,0.3,-0.2,680,33,,,,,,,,,,,,,,,,,,,
43189,1480714135973,,,,,,,,-0.03,0.09,1.01,-3.8,0.3,-0.2,680,38,,,,,,,,,,,,,,,,,,,
43209,1480714136001,,,,,,,,-0.03,0.1,1.01,-3.8,0.4,-0.1,680,38,,,,,,,,,,,,,,,,,,,
43229,1480714136021,,,,,,,,-0.03,0.09,1.01,-3.8,0.4,-0.2,700,38,,,,,,,,,,,,,,,,,,,
43249,1480714136041,0,48.8,,47.8,56,47.9,,-0.02,0.09,1.01,-3.8,0.4,-0.3,700,32,1,0,17.895,0,37.478333,-122.203674,0.0,0.0,13.7,6,2,0.4,0,0.0,-1,0.0,0.0,0.0,0
43269,1480714136061,,,,,,,,-0.02,0.1,1.0,-3.9,0.2,-0.2,680,32,,,,,,,,,,,,,,,,,,,
43289,1480714136081,,,,,,,,-0.02,0.1,1.0,-3.9,0.1,-0.3,700,35,,,,,,,,,,,,,,,,,,,
43309,1480714136101,,,,,,,,-0.02,0.09,1.01,-3.9,0.1,-0.3,700,35,,,,,,,,,,,,,,,,,,,
43329,1480714136121,,,,,,,,-0.01,0.09,1.0,-4.0,0.1,-0.3,720,33,,,,,,,,,,,,,,,,,,,
43349,1480714136141,,,,,55,,,-0.01,0.09,1.0,-4.0,0.1,-0.2,740,33,1,0,20.571,0,37.478333,-122.203674,0.0,0.0,13.7,6,2,0.4,0,0.0,-1,0.0,,0.0,0
43369,1480714136161,,,,,,,,-0.01,0.08,1.01,-4.1,0.1,-0.3,760,40,,,,,,,,,,,,,,,,,,,
43389,1480714136181,,,,,,,,-0.01,0.08,1.02,-4.1,0.1,-0.4,760,40,,,,,,,,,,,,,,,,,,,
43409,1480714136201,,,,,,,,-0.01,0.08,1.01,-4.1,0.1,-0.4,780,38,,,,,,,,,,,,,,,,,,,
43429,1480714136221,,,,,,,,0.0,0.08,1.0,-4.1,0.2,-0.2,780,44,,,,,,,,,,,,,,,,,,,
43449,1480714136241,0,46.9,,43.0,58,45.9,,0.0,0.08,1.01,-4.2,0.0,-0.2,780,44,1,0,20.526,0,37.478333,-122.203674,0.0,0.0,13.7,6,2,0.4,0,0.0,-1,0.0,0.0,0.0,0
43469,1480714136261,,,,,,,,-0.0,0.08,1.01,-4.2,0.0,-0.3,800,43,,,,,,,,,,,,,,,,,,,
43489,1480714136281,,,,,,,,-0.0,0.08,1.0,-4.2,0.1,-0.3,820,43,,,,,,,,,,,,,,,,,,,
43509,1480714136301,,,,,,,,0.0,0.08,1.0,-4.2,0.1,-0.3,820,40,,,,,,,,,,,,,,,,,,,
43529,1480714136321,,,,,,,,0.0,0.09,0.99,-4.2,0.0,-0.2,820,40,,,,,,,,,,,,,,,,,,,
43549,1480714136341,,,,,59,,,0.01,0.08,1.0,-4.2,0.1,-0.2,820,47,1,0,20.5,0,37.478333,-122.203674,0.0,0.0,13.7,6,2,0.4,0,0.0,-1,0.0,,0.0,0
43569,1480714136361,,,,,,,,-0.0,0.08,1.01,-4.3,-0.1,-0.2,820,41,,,,,,,,,,,,,,,,,,,
43589,1480714136381,,,,,,,,-0.01,0.08,1.01,-4.3,-0.1,-0.3,840,41,,,,,,,,,,,,,,,,,,,
43609,1480714136402,,,,,,,,-0.01,0.07,1.01,-4.3,-0.0,-0.3,840,47,,,,,,,,,,,,,,,,,,,
43629,1480714136422,,,,,,,,-0.0,0.07,1.0,-4.3,0.0,-0.2,840,47,,,,,,,,,,,,,,,,,,,
43649,1480714136442,0,45.0,,44.8,62,48.3,,0.0,0.08,1.0,-4.4,-0.0,-0.1,860,47,1,0,17.872,0,37.478333,-122.203674,0.0,0.0,13.7,6,2,0.4,0,0.0,-1,0.0,0.0,0.0,0
43669,1480714136462,,,,,,,,0.01,0.08,1.0,-4.4,0.1,-0.0,860,41,,,,,,,,,,,,,,,,,,,
43689,1480714136482,,,,,,,,0.01,0.09,1.0,-4.4,-0.1,0.0,860,41,,,,,,,,,,,,,,,,,,,
43709,1480714136600,,,,,,,,-0.0,0.09,1.01,-4.5,-0.1,-0.0,860,49,,,,,,,,,,,,,,,,,,,
43729,1480714136620,,,,,,,,-0.01,0.09,1.01,-4.5,-0.1,-0.1,880,49,,,,,,,,,,,,,,,,,,,
43749,1480714136640,,,,,65,,,-0.01,0.08,1.0,-4.5,-0.1,-0.3,880,44,1,0,17.551,0,37.478333,-122.203674,0.0,0.0,13.7,6,2,0.4,0,0.0,-1,0.0,,0.0,0
43769,1480714136660,,,,,,,,-0.01,0.07,1.0,-4.6,-0.1,-0.3,880,44,,,,,,,,,,,,,,,,,,,
43789,1480714136680,,,,,,,,-0.01,0.07,0.99,-4.6,-0.1,-0.2,880,44,,,,,,,,,,,,,,,,,,,
43809,1480714136700,,,,,,,,-0.0,0.08,1.0,-4.7,-0.2,-0.1,880,52,,,,,,,,,,,,,,,,,,,
43829,1480714136720,,,,,,,,0.0,0.08,1.0,-4.8,0.0,0.0,900,44,,,,,,,,,,,,,,,,,,,
43849,1480714136740,0,45.9,,43.3,67,46.4,,0.01,0.1,1.0,-4.8,0.1,0.1,880,44,1,0,17.308,0,37.478333,-122.203674,0.0,0.0,13.7,6,2,0.4,0,0.0,-1,0.0,0.0,0.0,0
43869,1480714136760,,,,,,,,0.01,0.11,1.0,-4.8,-0.1,0.0,900,50,,,,,,,,,,,,,,,,,,,
43889,1480714136780,,,,,,,,-0.0,0.1,1.01,-4.8,-0.2,-0.0,900,50,,,,,,,,,,,,,,,,,,,
43909,1480714136701,,,,,,,,-0.01,0.1,1.01,-4.8,-0.0,-0.1,920,50,,,,,,,,,,,,,,,,,,,
43929,1480714136721,,,,,,,,-0.02,0.09,1.01,-4.8,-0.0,-0.3,920,46,,,,,,,,,,,,,,,,,,,
43949,1480714136741,,,,,68,,,-0.02,0.08,1.01,-4.8,-0.1,-0.4,920,52,1,0,18.4,0,37.478333,-122.203674,0.0,0.0,13.7,6,2,0.4,0,0.0,-1,0.0,,0.0,0
43969,1480714136761,,,,,,,,-0.02,0.06,1.01,-4.8,-0.0,-0.4,920,52,,,,,,,,,,,,,,,,,,,
43989,1480714136781,,,,,,,,-0.01,0.06,1.0,-4.8,0.0,-0.4,920,50,,,,,,,,,,,,,,,,,,,
44009,1480714136801,,,,,,,,-0.01,0.06,1.0,-4.9,-0.1,-0.3,920,49,,,,,,,,,,,,,,,,,,,
44029,1480714136821,,,,,,,,-0.01,0.06,1.0,-4.9,-0.1,-0.2,920,49,,,,,,,,,,,,,,,,,,,
44049,1480714136841,0,45.0,0.0,43.5,65,47.0,14.85,0.0,0.08,1.0,-5.0,-0.0,-0.0,920,53,1,0,18.776,0,37.478333,-122.203674,0.0,0.0,13.7,6,2,0.4,0,0.0,-1,0.0,0.0,0.0,0
44069,1480714136861,,,,,,,,0.01,0.09,1.0,-5.1,0.2,0.1,940,50,,,,,,,,,,,,,,,,,,,
44089,1480714136881,,,,,,,,0.02,0.1,1.0,-5.1,0.3,0.1,940,50,,,,,,,,,,,,,,,,,,,
44109,1480714136892,,,,,,,,0.02,0.11,1.0,-5.1,0.2,0.1,920,50,,,,,,,,,,,,,,,,,,,
44129,1480714136912,,,,,,,,0.02,0.11,1.0,-5.1,0.0,0.1,920,55,,,,,,,,,,,,,,,,,,,
44149,1480714136932,,,,,62,,,0.01,0.11,1.01,-5.1,-0.2,0.1,920,55,1,0,18.4,0,37.478333,-122.203674,0.0,0.0,13.7,6,2,0.4,0,0.0,-1,0.0,,0.0,0
44169,1480714136952,,,,,,,,-0.01,0.1,1.02,-5.1,-0.2,-0.0,920,50,,,,,,,,,,,,,,,,,,,
44189,1480714136972,,,,,,,,-0.01,0.1,1.02,-5.1,0.0,-0.1,940,55,,,,,,,,,,,,,,,,,,,
44209,1480714137001,,,,,,,,-0.02,0.09,1.01,-5.0,0.1,-0.3,940,55,,,,,,,,,,,,,,,,,,,
44229,1480714137021,,,,,,,,-0.02,0.08,1.01,-5.0,0.0,-0.4,920,55,,,,,,,,,,,,,,,,,,,
44249,1480714137041,0,48.4,,47.8,62,48.0,,-0.01,0.06,1.01,-5.0,0.0,-0.4,920,53,1,0,17.091,0,37.478333,-122.203674,0.0,0.0,13.7,6,2,0.4,0,0.0,-1,0.0,0.0,0.0,0
44269,1480714137061,,,,,,,,-0.01,0.06,1.0,-5.0,0.1,-0.3,900,56,,,,,,,,,,,,,,,,,,,
44289,1480714137081,,,,,,,,-0.01,0.06,1.0,-5.0,0.0,-0.3,900,56,,,,,,,,,,,,,,,,,,,
44309,1480714137100,,,,,,,,-0.0,0.06,1.0,-5.1,-0.0,-0.2,900,56,,,,,,,,,,,,,,,,,,,
44329,1480714137120,,,,,,,,-0.01,0.07,1.0,-5.1,-0.0,-0.0,900,55,,,,,,,,,,,,,,,,,,,
44349,1480714137140,,,,,62,,,0.0,0.08,1.0,-5.2,0.2,0.1,900,58,1,0,16.364,0,37.478333,-122.203674,0.0,0.0,13.7,6,2,0.4,0,0.0,-1,0.0,,0.0,0
44369,1480714137160,,,,,,,,0.01,0.09,1.0,-5.2,0.2,0.1,880,58,,,,,,,,,,,,,,,,,,,
44389,1480714137180,,,,,,,,0.01,0.1,1.0,-5.3,-0.1,0.1,880,58,,,,,,,,,,,,,,,,,,,
44409,1480714137200,,,,,,,,0.0,0.09,1.01,-5.3,-0.2,0.1,880,55,,,,,,,,,,,,,,,,,,,
44429,1480714137220,,,,,,,,-0.01,0.09,1.01,-5.3,-0.1,0.0,880,60,,,,,,,,,,,,,,,,,,,
44449,1480714137240,0,45.9,,43.3,60,46.5,,-0.01,0.08,1.01,-5.2,-0.1,-0.1,860,61,1,0,16.0,0,37.478333,-122.203674,0.0,0.0,13.7,6,2,0.4,0,0.0,-1,0.0,0.0,0.0,0
44469,1480714137260,,,,,,,,-0.0,0.07,1.0,-5.3,0.1,-0.1,860,61,,,,,,,,,,,,,,,,,,,
44489,1480714137280,,,,,,,,0.0,0.07,1.0,-5.3,0.0,-0.0,860,55,,,,,,,,,,,,,,,,,,,
44509,1480714137399,,,,,,,,-0.0,0.08,1.0,-5.3,-0.1,0.0,840,60,,,,,,,,,,,,,,,,,,,
44529,1480714137419,,,,,,,,0.0,0.07,1.0,-5.3,0.1,0.1,840,63,,,,,,,,,,,,,,,,,,,
44549,1480714137439,,,,,58,,,0.0,0.08,1.0,-5.3,-0.1,0.2,820,56,1,0,14.0,0,37.478333,-122.203674,0.0,0.0,13.7,6,2,0.4,0,0.0,-1,0.0,,0.0,0
44569,1480714137459,,,,,,,,-0.0,0.08,1.01,-5.3,-0.1,0.1,820,56,,,,,,,,,,,,,,,,,,,
44589,1480714137479,,,,,,,,-0.01,0.07,1.0,-5.3,-0.1,0.1,800,60,,,,,,,,,,,,,,,,,,,
44609,1480714137499,,,,,,,,0.0,0.07,1.0,-5.4,-0.0,0.1,800,63,,,,,,,,,,,,,,,,,,,
44629,1480714137519,,,,,,,,-0.0,0.08,1.0,-5.4,-0.1,0.1,820,60,,,,,,,,,,,,,,,,,,,
44649,1480714137539,0,48.8,,47.9,57,47.9,,0.0,0.07,1.01,-5.4,-0.0,0.1,780,60,1,0,13.016,0,37.478333,-122.203674,0.0,0.0,13.7,6,2,0.4,0,0.0,-1,0.0,0.0,0.0,0
44669,1480714137559,,,,,,,,0.0,0.07,1.02,-5.4,-0.1,0.0,780,60,,,,,,,,,,,,,,,,,,,
44689,1480714137579,,,,,,,,0.0,0.07,1.02,-5.4,-0.2,-0.0,760,63,,,,,,,,,,,,,,,,,,,
44709,1480714137501,,,,,,,,0.0,0.08,1.01,-5.4,-0.1,0.0,760,64,,,,,,,,,,,,,,,,,,,
44729,1480714137521,,,,,,,,0.0,0.08,1.0,-5.4,-0.1,0.0,760,63,,,,,,,,,,,,,,,,,,,
44749,1480714137541,,,,,57,,,0.0,0.08,1.0,-5.3,-0.3,0.0,760,60,1,0,11.875,0,37.478333,-122.203674,0.0,0.0,13.7,6,2,0.4,0,0.0,-1,0.0,,0.0,0
44769,1480714137561,,,,,,,,-0.0,0.08,1.0,-5.3,-0.2,-0.1,760,63,,,,,,,,,,,,,,,,,,,
44789,1480714137581,,,,,,,,-0.0,0.08,1.0,-5.3,-0.1,-0.2,760,63,,,,,,,,,,,,,,,,,,,
44809,1480714137601,,,,,,,,-0.0,0.08,1.0,-5.3,-0.1,-0.2,740,67,,,,,,,,,,,,,,,,,,,
44829,1480714137621,,,,,,,,0.0,0.08,1.0,-5.3,0.1,-0.1,760,64,,,,,,,,,,,,,,,,,,,
44849,1480714137641,0,48.4,,47.9,55,48.0,,-0.0,0.07,1.01,-5.2,0.1,-0.2,760,61,1,0,11.562,0,37.478333,-122.203674,0.0,0.0,13.7,6,2,0.4,0,0.0,-1,0.0,0.0,0.0,0
44869,1480714137661,,,,,,,,-0.01,0.07,1.01,-5.2,0.2,-0.2,760,66,,,,,,,,,,,,,,,,,,,
44889,1480714137681,,,,,,,,-0.0,0.07,1.01,-5.2,0.1,-0.2,760,69,,,,,,,,,,,,,,,,,,,
44909,1480714137701,,,,,,,,0.0,0.07,1.01,-5.2,0.2,-0.2,760,66,,,,,,,,,,,,,,,,,,,
44929,1480714137721,,,,,,,,-0.0,0.07,1.01,-5.1,0.2,-0.2,780,64,,,,,,,,,,,,,,,,,,,
44949,1480714137741,,,,,56,,,-0.01,0.06,1.02,-5.1,0.2,-0.3,760,64,1,0,11.515,0,37.478333,-122.203674,0.0,0.0,13.7,6,2,0.4,0,0.0,-1,0.0,,0.0,0
44969,1480714137761,,,,,,,,-0.0,0.07,1.01,-5.1,0.2,-0.3,760,69,,,,,,,,,,,,,,,,,,,
44989,1480714137781,,,,,,,,-0.0,0.07,1.0,-5.0,0.1,-0.2,760,69,,,,,,,,,,,,,,,,,,,
45009,1480714137801,,,,,,,,-0.0,0.07,1.0,-5.0,0.0,-0.2,760,66,,,,,,,,,,,,,,,,,,,
45029,1480714137821,,,,,,,,-0.01,0.06,1.01,-4.9,0.0,-0.3,760,69,,,,,,,,,,,,,,,,,,,
45049,1480714137841,0,49.2,0.9,48.2,55,47.7,14.8,-0.01,0.06,1.01,-4.8,0.1,-0.4,760,70,1,0,11.515,0,37.478333,-122.203674,0.0,0.0,13.7,6,2,0.4,0,0.0,-1,0.0,0.0,0.0,0
45069,1480714137861,,,,,,,,-0.0,0.07,1.0,-4.8,0.1,-0.5,760,67,,,,,,,,,,,,,,,,,,,
45089,1480714137881,,,,,,,,0.0,0.08,1.0,-4.7,0.1,-0.4,780,66,,,,,,,,,,,,,,,,,,,
45109,1480714137892,,,,,,,,-0.01,0.07,1.01,-4.6,0.1,-0.5,760,70,,,,,,,,,,,,,,,,,,,
45129,1480714137912,,,,,,,,-0.01,0.06,1.0,-4.5,0.1,-0.5,760,72,,,,,,,,,,,,,,,,,,,
45149,1480714137932,,,,,57,,,-0.01,0.06,1.0,-4.5,0.0,-0.5,760,67,1,0,10.857,0,37.478333,-122.203674,0.0,0.0,13.7,6,2,0.4,0,0.0,-1,0.0,,0.0,0
45169,1480714137952,,,,,,,,-0.0,0.06,1.0,-4.4,0.0,-0.4,760,67,,,,,,,,,,,,,,,,,,,
45189,1480714137972,,,,,,,,0.0,0.07,1.0,-4.3,-0.1,-0.4,760,67,,,,,,,,,,,,,,,,,,,
45209,1480714138000,,,,,,,,-0.01,0.06,1.0,-4.3,-0.1,-0.5,760,72,,,,,,,,,,,,,,,,,,,
45229,1480714138020,,,,,,,,-0.0,0.06,1.0,-4.2,0.0,-0.5,760,72,,,,,,,,,,,,,,,,,,,
45249,1480714138040,0,46.6,,44.3,56,47.4,,0.0,0.07,1.0,-4.2,-0.0,-0.5,780,70,1,0,10.556,0,37.478333,-122.203674,0.0,0.0,13.7,6,2,0.4,0,0.0,-1,0.0,0.0,0.0,0
45269,1480714138060,,,,,,,,0.01,0.07,1.0,-4.1,0.0,-0.4,740,72,,,,,,,,,,,,,,,,,,,
45289,1480714138080,,,,,,,,-0.0,0.06,1.01,-4.1,-0.0,-0.5,760,72,,,,,,,,,,,,,,,,,,,
45309,1480714138200,,,,,,,,-0.0,0.06,1.01,-4.0,0.0,-0.5,760,70,,,,,,,,,,,,,,,,,,,
45329,1480714138220,,,,,,,,0.0,0.07,1.0,-3.9,-0.1,-0.5,740,72,,,,,,,,,,,,,,,,,,,
45349,1480714138240,,,,,57,,,0.0,0.07,1.0,-3.9,-0.1,-0.4,760,75,1,0,10.571,0,37.478336,-122.203674,1.08,0.0,18.2,6,2,0.4,0,0.0,-1,0.0,,0.0,0
45369,1480714138260,,,,,,,,-0.0,0.07,1.01,-3.8,-0.2,-0.4,760,75,,,,,,,,,,,,,,,,,,,
45389,1480714138280,,,,,,,,-0.01,0.06,1.01,-3.8,-0.2,-0.4,780,70,,,,,,,,,,,,,,,,,,,
45409,1480714138300,,,,,,,,-0.0,0.06,1.01,-3.7,-0.1,-0.4,780,72,,,,,,,,,,,,,,,,,,,
45429,1480714138320,,,,,,,,-0.0,0.07,1.0,-3.7,-0.1,-0.3,740,76,,,,,,,,,,,,,,,,,,,
45449,1480714138340,0,48.8,,47.3,56,47.9,,-0.01,0.07,1.0,-3.7,-0.2,-0.3,760,76,1,0,10.278,0,37.478336,-122.203674,1.08,0.0,18.2,6,2,0.4,0,0.0,-1,0.0,0.0,0.0,0
45469,1480714138360,,,,,,,,-0.01,0.06,1.0,-3.6,-0.2,-0.4,760,75,,,,,,,,,,,,,,,,,,,
45489,1480714138380,,,,,,,,-0.01,0.06,1.0,-3.6,-0.0,-0.4,760,76,,,,,,,,,,,,,,,,,,,
45509,1480714138301,,,,,,,,-0.01,0.06,1.0,-3.6,-0.0,-0.3,780,78,,,,,,,,,,,,,,,,,,,
45529,1480714138321,,,,,,,,-0.0,0.07,1.0,-3.5,0.1,-0.2,760,76,,,,,,,,,,,,,,,,,,,
45549,1480714138341,,,,,58,,,-0.01,0.06,1.01,-3.5,0.1,-0.3,780,76,1,0,10.0,0,37.478336,-122.203674,1.1,0.0,18.2,6,2,0.4,0,0.0,-1,0.0,,0.0,0
45569,1480714138361,,,,,,,,-0.01,0.06,1.01,-3.4,0.1,-0.3,780,80,,,,,,,,,,,,,,,,,,,
45589,1480714138381,,,,,,,,-0.0,0.07,1.0,-3.4,0.0,-0.3,740,83,,,,,,,,,,,,,,,,,,,
45609,1480714138401,,,,,,,,-0.0,0.07,0.99,-3.3,0.1,-0.2,760,80,,,,,,,,,,,,,,,,,,,
45629,1480714138421,,,,,,,,-0.01,0.07,1.0,-3.3,-0.1,-0.2,740,76,,,,,,,,,,,,,,,,,,,
45649,1480714138441,1,47.1,,44.8,55,47.9,,-0.01,0.07,1.0,-3.3,-0.1,-0.3,760,78,1,0,9.5,0,37.478336,-122.203674,1.1,0.0,18.1,6,2,0.4,0,0.0,-1,0.0,0.0,0.0,0
45669,1480714138461,,,,,,,,-0.01,0.08,1.0,-3.3,-0.0,-0.3,760,76,,,,,,,,,,,,,,,,,,,
45689,1480714138481,,,,,,,,-0.0,0.08,1.0,-3.3,-0.0,-0.3,760,73,,,,,,,,,,,,,,,,,,,
45709,1480714138495,,,,,,,,0.0,0.08,1.0,-3.3,-0.1,-0.4,780,70,,,,,,,,,,,,,,,,,,,
45729,1480714138515,,,,,,,,0.0,0.08,1.0,-3.3,-0.1,-0.5,780,72,,,,,,,,,,,,,,,,,,,
45749,1480714138535,,,,,57,,,0.0,0.08,1.0,-3.3,-0.1,-0.6,780,70,1,0,11.143,0,37.478336,-122.203674,1.19,0.0,18.1,6,2,0.4,0,0.0,-1,0.0,,0.0,0
45769,1480714138555,,,,,,,,0.01,0.08,1.0,-3.3,-0.2,-0.6,780,66,,,,,,,,,,,,,,,,,,,
45789,1480714138575,,,,,,,,0.01,0.08,1.0,-3.3,-0.2,-0.5,800,66,,,,,,,,,,,,,,,,,,,
45809,1480714138601,,,,,,,,0.02,0.08,1.0,-3.2,-0.2,-0.5,820,60,,,,,,,,,,,,,,,,,,,
45829,1480714138621,,,,,,,,0.01,0.08,1.01,-3.2,-0.2,-0.6,840,58,,,,,,,,,,,,,,,,,,,
45849,1480714138641,0,45.4,,44.3,59,45.5,,0.01,0.08,1.0,-3.2,-0.3,-0.7,860,56,1,0,13.667,0,37.478336,-122.203674,1.17,0.0,18.0,6,2,0.4,0,0.0,-1,0.0,0.0,0.0,0
45869,1480714138661,,,,,,,,0.02,0.07,1.0,-3.1,-0.2,-0.8,840,56,,,,,,,,,,,,,,,,,,,
45889,1480714138681,,,,,,,,0.02,0.07,1.0,-3.2,-0.3,-0.7,840,56,,,,,,,,,,,,,,,,,,,
45909,1480714138701,,,,,,,,0.02,0.08,1.0,-3.2,-0.4,-0.6,860,58,,,,,,,,,,,,,,,,,,,
45929,1480714138721,,,,,,,,0.02,0.08,1.0,-3.2,-0.2,-0.6,880,58,,,,,,,,,,,,,,,,,,,
45949,1480714138741,,,,,59,,,0.03,0.09,1.0,-3.2,-0.3,-0.5,900,60,1,0,15.172,0,37.478336,-122.203674,1.14,0.0,18.1,6,2,0.4,0,0.0,-1,0.0,,0.0,0
45969,1480714138761,,,,,,,,0.02,0.09,1.01,-3.2,-0.6,-0.5,900,60,,,,,,,,,,,,,,,,,,,
45989,1480714138781,,,,,,,,0.01,0.09,1.01,-3.3,-0.4,-0.6,940,64,,,,,,,,,,,,,,,,,,,
46009,1480714138801,,,,,,,,0.01,0.09,1.0,-3.3,-0.2,-0.6,920,70,,,,,,,,,,,,,,,,,,,
46029,1480714138821,,,,,,,,0.01,0.08,1.0,-3.3,-0.2,-0.7,940,75,,,,,,,,,,,,,,,,,,,
46049,1480714138841,0,45.7,0.0,44.1,64,46.7,14.94,0.01,0.07,1.0,-3.3,-0.3,-0.8,940,75,1,0,12.267,0,37.478336,-122.203674,1.14,0.0,18.1,6,2,0.4,0,0.0,-1,0.0,0.0,0.0,0
46069,1480714138861,,,,,,,,0.02,0.06,1.0,-3.3,-0.3,-0.9,960,72,,,,,,,,,,,,,,,,,,,
46089,1480714138881,,,,,,,,0.02,0.05,1.0,-3.3,-0.3,-1.0,960,72,,,,,,,,,,,,,,,,,,,
46109,1480714138994,,,,,,,,0.02,0.05,1.0,-3.3,-0.3,-0.9,980,72,,,,,,,,,,,,,,,,,,,
46129,1480714139014,,,,,,,,0.03,0.05,0.99,-3.4,-0.3,-0.9,960,72,,,,,,,,,,,,,,,,,,,
46149,1480714139034,,,,,67,,,0.03,0.04,0.99,-3.4,-0.2,-0.8,980,73,1,0,13.611,0,37.478336,-122.203674,1.07,0.0,17.9,6,2,0.4,0,0.0,-1,0.0,,0.0,0
46169,1480714139054,,,,,,,,0.03,0.04,0.99,-3.4,-0.2,-0.7,980,72,,,,,,,,,,,,,,,,,,,
46189,1480714139074,,,,,,,,0.03,0.04,0.99,-3.5,-0.1,-0.6,980,72,,,,,,,,,,,,,,,,,,,
46209,1480714139094,,,,,,,,0.03,0.04,0.99,-3.5,-0.2,-0.5,980,70,,,,,,,,,,,,,,,,,,,
46229,1480714139114,,,,,,,,0.03,0.04,0.99,-3.6,-0.2,-0.4,1000,70,,,,,,,,,,,,,,,,,,,
46249,1480714139134,0,45.4,,44.2,65,45.8,,0.03,0.05,0.99,-3.7,-0.2,-0.3,960,70,1,0,14.0,0,37.478336,-122.203674,1.07,0.0,17.9,6,2,0.4,0,0.0,-1,0.0,0.0,0.0,0
46269,1480714139154,,,,,,,,0.03,0.05,1.0,-3.8,-0.1,-0.3,980,69,,,,,,,,,,,,,,,,,,,
46289,1480714139174,,,,,,,,0.03,0.06,1.0,-3.9,-0.1,-0.2,960,69,,,,,,,,,,,,,,,,,,,
46309,1480714139102,,,,,,,,0.03,0.06,1.0,-3.9,-0.2,-0.2,960,69,,,,,,,,,,,,,,,,,,,
46329,1480714139122,,,,,,,,0.03,0.06,1.0,-4.0,-0.3,-0.1,940,67,,,,,,,,,,,,,,,,,,,
46349,1480714139142,,,,,63,,,0.03,0.07,1.0,-4.1,-0.2,-0.0,960,66,1,0,14.328,0,37.478336,-122.203674,1.15,0.0,18.2,6,2,0.4,0,0.0,-1,0.0,,0.0,0
46369,1480714139162,,,,,,,,0.04,0.07,1.0,-4.2,-0.0,0.0,960,66,,,,,,,,,,,,,,,,,,,
46389,1480714139182,,,,,,,,0.04,0.07,1.0,-4.3,0.1,0.0,940,66,,,,,,,,,,,,,,,,,,,
46409,1480714139202,,,,,,,,0.04,0.08,1.0,-4.4,0.3,0.0,940,64,,,,,,,,,,,,,,,,,,,
46429,1480714139222,,,,,,,,0.05,0.08,1.01,-4.5,0.3,0.1,920,64,,,,,,,,,,,,,,,,,,,
46449,1480714139242,0,46.3,,44.2,63,47.0,,0.06,0.09,1.01,-4.6,0.2,0.1,920,64,1,0,14.375,0,37.478336,-122.203674,1.12,0.0,18.6,6,2,0.4,0,0.0,-1,0.0,0.0,0.0,0
46469,1480714139262,,,,,,,,0.06,0.09,1.01,-4.6,-0.0,0.0,920,63,,,,,,,,,,,,,,,,,,,
46489,1480714139282,,,,,,,,0.05,0.09,1.02,-4.7,-0.2,-0.0,940,63,,,,,,,,,,,,,,,,,,,
46509,1480714139302,,,,,,,,0.04,0.09,1.02,-4.7,-0.2,-0.1,900,63,,,,,,,,,,,,,,,,,,,
46529,1480714139322,,,,,,,,0.04,0.09,1.01,-4.7,-0.1,-0.2,920,63,,,,,,,,,,,,,,,,,,,
46549,1480714139342,,,,,62,,,0.03,0.08,1.0,-4.7,-0.1,-0.3,920,61,1,0,14.286,0,37.478336,-122.203674,1.14,0.0,19.0,6,2,0.4,0,0.0,-1,0.0,,0.0,0
46569,1480714139362,,,,,,,,0.03,0.06,1.0,-4.7,-0.2,-0.4,920,61,,,,,,,,,,,,,,,,,,,
46589,1480714139382,,,,,,,,0.03,0.05,1.0,-4.7,-0.1,-0.5,920,60,,,,,,,,,,,,,,,,,,,
46609,1480714139402,,,,,,,,0.04,0.05,0.99,-4.7,-0.2,-0.5,940,60,,,,,,,,,,,,,,,,,,,
46629,1480714139422,,,,,,,,0.04,0.05,0.99,-4.7,-0.3,-0.4,900,58,,,,,,,,,,,,,,,,,,,
46649,1480714139442,0,47.8,,47.2,60,46.7,,0.03,0.05,0.99,-4.8,-0.3,-0.4,900,58,1,0,15.667,0,37.478336,-122.203674,1.08,0.0,19.4,6,2,0.4,0,0.0,-1,0.0,0.0,0.0,0
46669,1480714139462,,,,,,,,0.03,0.05,1.0,-4.8,-0.1,-0.3,920,58,,,,,,,,,,,,,,,,,,,
46689,1480714139482,,,,,,,,0.04,0.06,1.0,-4.8,0.1,-0.2,920,56,,,,,,,,,,,,,,,,,,,
46709,1480714139502,,,,,,,,0.05,0.07,1.01,-4.8,0.2,-0.2,920,56,,,,,,,,,,,,,,,,,,,
46729,1480714139522,,,,,,,,0.05,0.07,1.01,-4.8,0.1,-0.2,920,56,,,,,,,,,,,,,,,,,,,
46749,1480714139542,,,,,60,,,0.05,0.07,1.01,-4.9,-0.1,-0.3,940,56,1,0,16.429,0,37.478336,-122.203674,1.05,0.0,19.8,6,2,0.4,0,0.0,-1,0.0,,0.0,0
46769,1480714139562,,,,,,,,0.05,0.07,1.01,-4.8,-0.2,-0.3,920,55,,,,,,,,,,,,,,,,,,,
46789,1480714139582,,,,,,,,0.04,0.07,1.02,-4.8,-0.2,-0.3,920,53,,,,,,,,,,,,,,,,,,,
46809,1480714139603,,,,,,,,0.03,0.06,1.02,-4.8,-0.1,-0.4,920,53,,,,,,,,,,,,,,,,,,,
46829,1480714139623,,,,,,,,0.03,0.06,1.01,-4.8,-0.0,-0.4,940,53,,,,,,,,,,,,,,,,,,,
46849,1480714139643,0,48.7,,47.8,62,47.9,,0.02,0.06,1.0,-4.7,-0.1,-0.5,940,52,1,0,17.358,0,37.478336,-122.203674,1.07,0.0,20.2,6,2,0.4,0,0.0,-1,0.0,0.0,0.0,0
46869,1480714139663,,,,,,,,0.03,0.04,1.0,-4.7,-0.0,-0.5,940,52,,,,,,,,,,,,,,,,,,,
46889,1480714139683,,,,,,,,0.03,0.04,1.0,-4.7,-0.1,-0.5,920,50,,,,,,,,,,,,,,,,,,,
46909,1480714139802,,,,,,,,0.03,0.04,1.0,-4.7,-0.1,-0.4,920,50,,,,,,,,,,,,,,,,,,,
46929,1480714139822,,,,,,,,0.04,0.04,1.0,-4.6,-0.1,-0.4,920,50,,,,,,,,,,,,,,,,,,,
46949,1480714139842,,,,,60,,,0.04,0.04,1.0,-4.6,-0.2,-0.3,940,49,1,0,18.4,0,37.478336,-122.203674,0.99,0.0,20.9,6,2,0.4,0,0.0,-1,0.0,,0.0,0
46969,1480714139862,,,,,,,,0.04,0.04,1.0,-4.6,-0.2,-0.2,940,49,,,,,,,,,,,,,,,,,,,
46989,1480714139882,,,,,,,,0.04,0.05,1.01,-4.6,-0.1,-0.2,940,49,,,,,,,,,,,,,,,,,,,
47009,1480714139902,,,,,,,,0.04,0.06,1.01,-4.6,0.0,-0.1,960,49,,,,,,,,,,,,,,,,,,,
47029,1480714139922,,,,,,,,0.05,0.07,1.01,-4.6,0.2,-0.0,920,49,,,,,,,,,,,,,,,,,,,
47049,1480714139942,0,47.8,0.0,47.1,61,45.8,14.95,0.05,0.08,1.01,-4.6,0.3,0.0,940,47,1,0,18.776,0,37.478336,-122.203674,0.99,0.0,20.9,6,2,0.4,0,0.0,-1,0.0,0.0,0.0,0
47069,1480714139962,,,,,,,,0.06,0.08,1.02,-4.6,0.2,0.0,940,47,,,,,,,,,,,,,,,,,,,
47089,1480714139982,,,,,,,,0.06,0.08,1.01,-4.6,-0.1,0.0,940,47,,,,,,,,,,,,,,,,,,,
47109,1480714139894,,,,,,,,0.05,0.08,1.01,-4.6,-0.4,-0.0,940,46,,,,,,,,,,,,,,,,,,,
47129,1480714139914,,,,,,,,0.04,0.08,1.01,-4.6,-0.6,-0.0,960,46,,,,,,,,,,,,,,,,,,,
47149,1480714139934,,,,,61,,,0.03,0.08,1.01,-4.5,-0.6,-0.0,920,44,1,0,20.435,0,37.478336,-122.203674,0.0,0.0,20.9,6,2,0.4,0,0.0,-1,0.0,,0.0,0
47169,1480714139954,,,,,,,,0.02,0.07,1.02,-4.5,-0.3,-0.1,940,43,,,,,,,,,,,,,,,,,,,
47189,1480714139974,,,,,,,,0.02,0.07,1.01,-4.4,-0.1,-0.1,940,43,,,,,,,,,,,,,,,,,,,
47209,1480714140001,,,,,,,,0.02,0.07,1.01,-4.3,0.1,-0.2,940,43,,,,,,,,,,,,,,,,,,,
47229,1480714140021,,,,,,,,0.02,0.06,1.0,-4.3,0.1,-0.3,940,43,,,,,,,,,,,,,,,,,,,
47249,1480714140041,0,46.2,,44.2,60,47.4,,0.02,0.05,1.0,-4.3,0.0,-0.3,960,41,1,0,21.86,0,37.478336,-122.203674,0.0,0.0,20.9,6,2,0.4,0,0.0,-1,0.0,0.0,0.0,0
47269,1480714140061,,,,,,,,0.02,0.04,1.0,-4.3,-0.0,-0.4,920,41,,,,,,,,,,,,,,,,,,,
47289,1480714140081,,,,,,,,0.03,0.04,0.99,-4.3,-0.0,-0.3,940,41,,,,,,,,,,,,,,,,,,,
47309,1480714140102,,,,,,,,0.03,0.03,0.99,-4.3,0.0,-0.3,940,41,,,,,,,,,,,,,,,,,,,
47329,1480714140122,,,,,,,,0.03,0.04,0.99,-4.3,0.0,-0.2,940,41,,,,,,,,,,,,,,,,,,,
47349,1480714140142,,,,,58,,,0.03,0.03,0.99,-4.3,-0.1,-0.1,940,41,1,0,22.927,0,37.478336,-122.203674,0.0,0.0,20.9,6,2,0.4,0,0.0,-1,0.0,,0.0,0
47369,1480714140162,,,,,,,,0.03,0.04,1.0,-4.3,-0.2,-0.0,940,40,,,,,,,,,,,,,,,,,,,
47389,1480714140182,,,,,,,,0.03,0.04,1.0,-4.3,-0.1,0.1,960,40,,,,,,,,,,,,,,,,,,,
47409,1480714140202,,,,,,,,0.03,0.05,1.01,-4.3,-0.0,0.1,900,40,,,,,,,,,,,,,,,,,,,
47429,1480714140222,,,,,,,,0.04,0.06,1.01,-4.3,0.2,0.1,920,38,,,,,,,,,,,,,,,,,,,
47449,1480714140242,0,48.5,,46.4,61,49.1,,0.04,0.06,1.01,-4.2,0.2,0.2,920,38,1,0,23.0,0,37.478336,-122.203674,0.0,0.0,20.9,6,2,0.4,0,0.0,-1,0.0,0.0,0.0,0
47469,1480714140262,,,,,,,,0.04,0.06,1.01,-4.2,0.0,0.2,940,38,,,,,,,,,,,,,,,,,,,
47489,1480714140282,,,,,,,,0.04,0.07,1.01,-4.2,-0.2,0.2,940,36,,,,,,,,,,,,,,,,,,,
47509,1480714140302,,,,,,,,0.03,0.07,1.02,-4.1,-0.3,0.1,960,36,,,,,,,,,,,,,,,,,,,
47529,1480714140322,,,,,,,,0.02,0.07,1.02,-4.1,-0.2,0.1,920,36,,,,,,,,,,,,,,,,,,,
47549,1480714140342,,,,,60,,,0.02,0.07,1.02,-4.1,0.0,-0.0,940,36,1,0,26.667,0,37.478336,-122.203674,0.0,0.0,20.9,6,2,0.4,0,0.0,-1,0.0,,0.0,0
47569,1480714140362,,,,,,,,0.01,0.07,1.01,-4.1,0.2,-0.1,940,35,,,,,,,,,,,,,,,,,,,
47589,1480714140382,,,,,,,,0.01,0.07,1.01,-4.1,0.2,-0.2,940,35,,,,,,,,,,,,,,,,,,,
47609,1480714140403,,,,,,,,0.01,0.07,1.0,-4.1,0.1,-0.3,940,33,,,,,,,,,,,,,,,,,,,
47629,1480714140423,,,,,,,,0.02,0.06,1.0,-4.1,-0.0,-0.3,960,33,,,,,,,,,,,,,,,,,,,
47649,1480714140443,0,47.8,,47.7,60,48.5,,0.02,0.05,1.0,-4.0,0.0,-0.3,920,33,1,0,28.485,0,37.478336,-122.203674,0.0,0.0,20.9,6,2,0.4,0,0.0,-1,0.0,0.0,0.0,0
47669,1480714140463,,,,,,,,0.02,0.04,1.0,-4.0,0.1,-0.3,940,33,,,,,,,,,,,,,,,,,,,
47689,1480714140483,,,,,,,,0.03,0.04,1.0,-4.0,0.1,-0.3,940,33,,,,,,,,,,,,,,,,,,,
47709,1480714140598,,,,,,,,0.03,0.04,1.0,-4.0,0.1,-0.3,940,32,,,,,,,,,,,,,,,,,,,
47729,1480714140618,,,,,,,,0.03,0.04,1.0,-4.0,-0.0,-0.2,940,32,,,,,,,,,,,,,,,,,,,
47749,1480714140638,,,,,59,,,0.02,0.04,1.0,-4.0,-0.1,-0.2,960,30,1,0,29.375,0,37.478336,-122.203674,0.0,0.0,20.9,6,2,0.4,0,0.0,-1,0.0,,0.0,0
47769,1480714140658,,,,,,,,0.02,0.04,1.0,-4.0,-0.1,-0.1,960,30,,,,,,,,,,,,,,,,,,,
47789,1480714140678,,,,,,,,0.03,0.05,1.0,-4.0,0.0,-0.1,920,30,,,,,,,,,,,,,,,,,,,
47809,1480714140698,,,,,,,,0.03,0.06,1.01,-4.0,0.2,-0.0,940,30,,,,,,,,,,,,,,,,,,,
47829,1480714140718,,,,,,,,0.04,0.07,1.01,-4.0,0.3,-0.0,940,30,,,,,,,,,,,,,,,,,,,
47849,1480714140738,0,44.8,,44.0,60,44.9,,0.05,0.08,1.01,-4.0,0.2,-0.0,940,30,1,0,31.333,0,37.478336,-122.203674,0.0,0.0,20.9,6,2,0.4,0,0.0,-1,0.0,0.0,0.0,0
47869,1480714140758,,,,,,,,0.05,0.08,1.01,-4.0,0.0,-0.1,940,30,,,,,,,,,,,,,,,,,,,
47889,1480714140778,,,,,,,,0.04,0.08,1.01,-3.9,-0.3,-0.1,960,29,,,,,,,,,,,,,,,,,,,
47909,1480714140702,,,,,,,,0.04,0.09,1.0,-3.9,-0.5,-0.1,920,29,,,,,,,,,,,,,,,,,,,
47929,1480714140722,,,,,,,,0.02,0.09,1.01,-3.9,-0.4,-0.2,940,29,,,,,,,,,,,,,,,,,,,
