"Interval"|"ms"|0|0|1,"Utc"|"ms"|0|0|1,"FuelLevel"|"F"|0.0|100.0|5,"OilTemp"|"F"|0|300|5,"Coolant"|"F"|0|300|5,"OilPress"|"PSI"|0|150|10,"EngineTemp"|"F"|0|300|5,"Battery"|"Volts"|0.0|20.0|1,"AccelX"|"G"|-3.0|3.0|50,"AccelY"|"G"|-3.0|3.0|50,"AccelZ"|"G"|-3.0|3.0|50,"Yaw"|"Deg/Sec"|-300.0|300.0|50,"Pitch"|"Deg/Sec"|-300.0|300.0|50,"Roll"|"Deg/Sec"|-300.0|300.0|50,"RPM"|""|0|10000|50,"Wheel"|"RPM"|0|5000|50,"Latitude"|"Degrees"|-180.0|180.0|50,"Longitude"|"Degrees"|-180.0|180.0|50,"Speed"|"MPH"|0.0|150.0|50,"Distance"|"Miles"|0.0|0.0|50,"Altitude"|"Feet"|0.0|4000.0|50,"GPSSats"|""|0|20|50,"GPSQual"|""|0|5|50,"GPSDOP"|""|0.0|20.0|50,"LapCount"|""|0|0|50,"LapTime"|"Min"|0.0|0.0|50,"Sector"|""|0|0|50,"SectorTime"|"Min"|0.0|0.0|50,"PredTime"|"Min"|0.0|0.0|5,"ElapsedTime"|"Min"|0.0|0.0|50,"CurrentLap"|""|0|0|50
37021,1464552419633,,,,,,,0.01,0.08,0.98,-3.0,-0.2,-0.1,0,0,37.478348,-122.203735,0.0,0.0,80.6,9,3,1.8,0,0.0,-1,0.0,,0.0,0
,,,,,,,,,,,,,,,,,,,,,,,,,,,,,,
36901,1464552419513,,,,0,,,0.01,0.08,0.99,-3.1,-0.3,-0.1,0,0,37.478348,-122.203735,0.0,0.0,80.6,9,3,1.8,0,0.0,-1,0.0,,0.0,0
36921,1464552419533,,,,,,,0.02,0.08,0.99,-3.1,-0.2,-0.1,0,0,37.478348,-122.203735,0.0,0.0,80.6,9,3,1.8,0,0.0,-1,0.0,,0.0,0
36941,1464552419554,,,,,,,0.02,0.08,0.99,-3.1,-0.1,-0.1,0,0,37.478348,-122.203735,0.0,0.0,80.6,9,3,1.8,0,0.0,-1,0.0,,0.0,0
36961,1464552419573,,,,,,,0.01,0.08,0.98,-3.1,-0.2,-0.1,0,0,37.478348,-122.203735,0.0,0.0,80.6,9,3,1.8,0,0.0,-1,0.0,,0.0,0
36981,1464552419593,,,,,,,0.01,0.08,0.98,-3.1,-0.2,-0.1,0,0,37.478348,-122.203735,0.0,0.0,80.6,9,3,1.8,0,0.0,-1,0.0,,0.0,0
37001,1464552419613,0.001,60,60,0,60,13.19,0.01,0.08,0.98,-3.1,-0.1,-0.1,0,0,37.478348,-122.203735,0.0,0.0,80.6,9,3,1.8,0,0.0,-1,0.0,0.0,0.0,0
37021,1464552419633,,,,,,,0.01,0.08,0.98,-3.0,-0.2,-0.1,0,0,37.478348,-122.203735,0.0,0.0,80.6,9,3,1.8,0,0.0,-1,0.0,,0.0,0
37081,1464552419693,,,,,,,0.01,0.08,0.98,-3.0,-0.2,-0.0,0,0,37.478348,-122.203735,0.0,0.0,80.6,9,3,1.8,0,0.0,-1,0.0,,0.0,0
37101,1464552419714,,,,0,,,0.01,0.08,0.98,-3.0,-0.2,-0.0,0,0,37.478348,-122.203735,0.0,0.0,80.6,9,3,1.8,0,0.0,-1,0.0,,0.0,0
37121,1464552419733,,,,,,,0.01,0.08,0.98,-3.0,-0.2,-0.0,0,0,37.478348,-122.203735,0.0,0.0,80.6,9,3,1.8,0,0.0,-1,0.0,,0.0,0
37141,1464552419753,,,,,,,0.01,0.08,0.98,-3.0,-0.2,-0.0,0,0,37.478348,-122.203735,0.0,0.0,80.6,9,3,1.8,0,0.0,-1,0.0,,0.0,0
37161,1464552419773,,,,,,,0.01,0.08,0.99,-3.0,-0.1,-0.0,0,0,37.478348,-122.203735,0.0,0.0,80.6,9,3,1.8,0,0.0,-1,0.0,,0.0,0
37181,1464552419794,,,,,,,0.01,0.08,0.99,-3.0,-0.1,-0.0,0,0,37.478348,-122.203735,0.0,0.0,80.6,9,3,1.8,0,0.0,-1,0.0,,0.0,0
37201,1464552419813,0.001,62,59,0,59,,0.01,0.08,0.99,-3.1,-0.1,-0.0,0,0,37.478348,-122.203735,0.0,0.0,80.6,9,3,1.8,0,0.0,-1,0.0,0.0,0.0,0
37221,1464552419833,,,,,,,0.01,0.08,0.99,-3.1,-0.1,-0.0,0,0,37.478348,-122.203735,0.0,0.0,80.6,9,3,1.8,0,0.0,-1,0.0,,0.0,0
37241,1464552419854,,,,,,,0.01,0.08,0.99,-3.1,-0.1,-0.0,0,0,37.478348,-122.203735,0.0,0.0,80.6,9,3,1.8,0,0.0,-1,0.0,,0.0,0
37261,1464552419873,,,,,,,0.01,0.08,0.99,-3.1,-0.1,-0.0,0,0,37.478348,-122.203735,0.0,0.0,80.6,9,3,1.8,0,0.0,-1,0.0,,0.0,0
37281,1464552419893,,,,,,,0.01,0.08,0.99,-3.0,-0.1,-0.0,0,0,37.478348,-122.203735,0.0,0.0,80.6,9,3,1.8,0,0.0,-1,0.0,,0.0,0
37301,1464552419914,,,,0,,,0.01,0.08,0.99,-3.0,-0.1,-0.0,0,0,37.478348,-122.203735,0.0,0.0,80.6,9,3,1.8,0,0.0,-1,0.0,,0.0,0
37321,1464552419933,,,,,,,0.01,0.08,0.99,-3.0,-0.1,-0.0,0,0,37.478348,-122.203735,0.0,0.0,80.6,9,3,1.8,0,0.0,-1,0.0,,0.0,0
37341,1464552419953,,,,,,,0.01,0.08,0.99,-3.0,-0.0,-0.0,0,0,37.478348,-122.203735,0.0,0.0,80.6,9,3,1.8,0,0.0,-1,0.0,,0.0,0
37361,1464552419973,,,,,,,0.01,0.08,0.99,-3.0,-0.0,-0.0,0,0,37.478348,-122.203735,0.0,0.0,80.6,9,3,1.8,0,0.0,-1,0.0,,0.0,0
37381,1464552419993,,,,,,,0.01,0.08,0.99,-3.0,-0.1,-0.0,0,0,37.478348,-122.203735,0.0,0.0,80.6,9,3,1.8,0,0.0,-1,0.0,,0.0,0
37401,1464552420013,0.001,59,59,0,59,,0.01,0.08,0.99,-3.1,-0.1,-0.0,0,0,37.478348,-122.203735,0.0,0.0,80.6,9,3,1.8,0,0.0,-1,0.0,0.0,0.0,0
37421,1464552420034,,,,,,,0.01,0.08,0.99,-3.1,-0.0,-0.0,0,0,37.478348,-122.203735,0.0,0.0,80.6,9,3,1.8,0,0.0,-1,0.0,,0.0,0
37441,1464552420053,,,,,,,0.01,0.08,0.99,-3.0,-0.0,-0.0,0,0,37.478348,-122.203735,0.0,0.0,80.6,9,3,1.8,0,0.0,-1,0.0,,0.0,0
37461,1464552420073,,,,,,,0.01,0.08,0.99,-3.0,-0.1,-0.0,0,0,37.478348,-122.203735,0.0,0.0,80.6,9,3,1.8,0,0.0,-1,0.0,,0.0,0
37481,1464552420093,,,,,,,0.01,0.08,0.99,-3.0,-0.1,-0.0,0,0,37.478348,-122.203735,0.0,0.0,80.6,9,3,1.8,0,0.0,-1,0.0,,0.0,0
37501,1464552420113,,,,0,,,0.01,0.08,0.99,-3.0,-0.1,-0.0,0,0,37.478348,-122.203735,0.0,0.0,80.6,9,3,1.8,0,0.0,-1,0.0,,0.0,0
37521,1464552420133,,,,,,,0.01,0.08,0.99,-3.0,-0.0,-0.0,0,0,37.478348,-122.203735,0.0,0.0,80.6,9,3,1.8,0,0.0,-1,0.0,,0.0,0
37541,1464552420153,,,,,,,0.01,0.08,0.99,-3.0,-0.0,-0.0,0,0,37.478348,-122.203735,0.0,0.0,80.6,9,3,1.8,0,0.0,-1,0.0,,0.0,0
37561,1464552420173,,,,,,,0.01,0.08,0.99,-3.0,-0.0,-0.0,0,0,37.478348,-122.203735,0.0,0.0,80.6,9,3,1.8,0,0.0,-1,0.0,,0.0,0
37581,1464552420193,,,,,,,0.01,0.08,0.99,-3.0,-0.0,-0.0,0,0,37.478348,-122.203735,0.0,0.0,80.6,9,3,1.8,0,0.0,-1,0.0,,0.0,0
37601,1464552420213,0.001,59,59,0,60,,0.01,0.08,0.99,-3.0,-0.0,-0.0,0,0,37.478348,-122.203735,0.0,0.0,80.6,9,3,1.8,0,0.0,-1,0.0,0.0,0.0,0
37621,1464552420233,,,,,,,0.01,0.08,0.99,-3.0,-0.0,-0.1,0,0,37.478348,-122.203735,0.0,0.0,80.6,9,3,1.8,0,0.0,-1,0.0,,0.0,0
37641,1464552420254,,,,,,,0.01,0.08,0.99,-3.0,-0.0,-0.1,0,0,37.478348,-122.203735,0.0,0.0,80.6,9,3,1.8,0,0.0,-1,0.0,,0.0,0
37661,1464552420273,,,,,,,0.01,0.08,0.99,-3.0,-0.0,-0.1,0,0,37.478348,-122.203735,0.0,0.0,80.6,9,3,1.8,0,0.0,-1,0.0,,0.0,0
37681,1464552420294,,,,,,,0.01,0.08,0.99,-3.1,-0.0,-0.0,0,0,37.478348,-122.203735,0.0,0.0,80.6,9,3,1.8,0,0.0,-1,0.0,,0.0,0
37701,1464552420313,,,,0,,,0.01,0.08,0.99,-3.1,-0.0,-0.0,0,0,37.478348,-122.203735,0.0,0.0,80.6,9,3,1.8,0,0.0,-1,0.0,,0.0,0
37721,1464552420333,,,,,,,0.01,0.08,0.99,-3.0,-0.0,-0.0,0,0,37.478348,-122.203735,0.0,0.0,80.6,9,3,1.8,0,0.0,-1,0.0,,0.0,0
37741,1464552420354,,,,,,,0.01,0.08,0.99,-3.0,-0.0,-0.0,0,0,37.478348,-122.203735,0.0,0.0,80.6,9,3,1.8,0,0.0,-1,0.0,,0.0,0
37761,1464552420371,,,,,,,0.01,0.08,0.99,-3.0,-0.0,-0.0,0,0,37.478348,-122.203735,0.0,0.0,80.6,9,3,1.8,0,0.0,-1,0.0,,0.0,0
37781,1464552420394,,,,,,,0.01,0.08,0.99,-3.0,-0.0,-0.0,0,0,37.478348,-122.203735,0.0,0.0,80.6,9,3,1.8,0,0.0,-1,0.0,,0.0,0
37801,1464552420413,0.003,58,62,0,59,,0.01,0.08,0.99,-3.0,-0.0,-0.0,0,0,37.478348,-122.203735,0.0,0.0,80.6,9,3,1.8,0,0.0,-1,0.0,0.0,0.0,0
37821,1464552420433,,,,,,,0.01,0.08,0.99,-3.0,-0.0,-0.0,0,0,37.478348,-122.203735,0.0,0.0,80.6,9,3,1.8,0,0.0,-1,0.0,,0.0,0
37841,1464552420453,,,,,,,0.01,0.08,0.99,-3.1,-0.0,-0.0,0,0,37.478348,-122.203735,0.0,0.0,80.6,9,3,1.8,0,0.0,-1,0.0,,0.0,0
37861,1464552420473,,,,,,,0.01,0.08,0.99,-3.0,-0.0,-0.0,0,0,37.478348,-122.203735,0.0,0.0,80.6,9,3,1.8,0,0.0,-1,0.0,,0.0,0
37881,1464552420494,,,,,,,0.01,0.08,0.99,-3.0,-0.0,-0.0,0,0,37.478348,-122.203735,0.0,0.0,80.6,9,3,1.8,0,0.0,-1,0.0,,0.0,0
37901,1464552420513,,,,0,,,0.01,0.08,0.99,-3.0,-0.0,-0.0,0,0,37.478348,-122.203735,0.0,0.0,80.6,9,3,1.8,0,0.0,-1,0.0,,0.0,0
37921,1464552420533,,,,,,,0.01,0.08,0.99,-3.0,-0.0,-0.0,0,0,37.478348,-122.203735,0.0,0.0,80.6,9,3,1.8,0,0.0,-1,0.0,,0.0,0
37941,1464552420553,,,,,,,0.01,0.08,0.99,-3.0,-0.0,-0.0,0,0,37.478348,-122.203735,0.0,0.0,80.6,9,3,1.8,0,0.0,-1,0.0,,0.0,0
37961,1464552420573,,,,,,,0.01,0.08,0.99,-3.0,-0.0,-0.0,0,0,37.478348,-122.203735,0.0,0.0,80.6,9,3,1.8,0,0.0,-1,0.0,,0.0,0
37981,1464552420593,,,,,,,0.01,0.08,0.99,-3.0,-0.0,-0.0,0,0,37.478348,-122.203735,0.0,0.0,80.6,9,3,1.8,0,0.0,-1,0.0,,0.0,0
38001,1464552420613,0.003,59,59,0,60,13.23,0.01,0.08,0.99,-3.0,-0.0,-0.0,0,0,37.478348,-122.203735,0.0,0.0,80.6,9,3,1.8,0,0.0,-1,0.0,0.0,0.0,0
38021,1464552420633,,,,,,,0.01,0.08,0.99,-3.0,-0.0,-0.0,0,0,37.478348,-122.203735,0.0,0.0,80.6,9,3,1.8,0,0.0,-1,0.0,,0.0,0
38041,1464552420653,,,,,,,0.01,0.08,0.99,-3.0,-0.0,-0.0,0,0,37.478348,-122.203735,0.0,0.0,80.6,9,3,1.8,0,0.0,-1,0.0,,0.0,0
38061,1464552420673,,,,,,,0.01,0.08,0.99,-3.0,-0.0,-0.0,0,0,37.478348,-122.203735,0.0,0.0,80.6,9,3,1.8,0,0.0,-1,0.0,,0.0,0
38081,1464552420693,,,,,,,0.01,0.08,0.99,-3.0,-0.0,-0.0,0,0,37.478348,-122.203735,0.0,0.0,80.6,9,3,1.8,0,0.0,-1,0.0,,0.0,0
38101,1464552420713,,,,0,,,0.01,0.08,0.99,-3.0,-0.0,-0.0,0,0,37.478348,-122.203735,0.0,0.0,80.6,9,3,1.8,0,0.0,-1,0.0,,0.0,0
38121,1464552420733,,,,,,,0.01,0.08,0.99,-3.0,-0.0,-0.0,0,0,37.478348,-122.203735,0.0,0.0,80.6,9,3,1.8,0,0.0,-1,0.0,,0.0,0
38141,1464552420753,,,,,,,0.01,0.08,0.99,-3.0,-0.1,-0.0,0,0,37.478348,-122.203735,0.0,0.0,80.6,9,3,1.8,0,0.0,-1,0.0,,0.0,0
38161,1464552420773,,,,,,,0.01,0.08,0.99,-3.0,-0.1,-0.1,0,0,37.478348,-122.203735,0.0,0.0,80.6,9,3,1.8,0,0.0,-1,0.0,,0.0,0
38181,1464552420793,,,,,,,0.01,0.08,0.99,-3.0,-0.1,-0.0,0,0,37.478348,-122.203735,0.0,0.0,80.6,9,3,1.8,0,0.0,-1,0.0,,0.0,0
38201,1464552420813,0.001,60,58,0,59,,0.01,0.08,0.99,-3.0,-0.1,-0.0,0,0,37.478348,-122.203735,0.0,0.0,80.6,9,3,1.8,0,0.0,-1,0.0,0.0,0.0,0
38221,1464552420833,,,,,,,0.01,0.08,0.99,-3.0,-0.1,-0.1,0,0,37.478348,-122.203735,0.0,0.0,80.6,9,3,1.8,0,0.0,-1,0.0,,0.0,0
38241,1464552420852,,,,,,,0.01,0.08,0.99,-3.0,-0.1,-0.0,0,0,37.478348,-122.203735,0.0,0.0,80.6,9,3,1.8,0,0.0,-1,0.0,,0.0,0
38261,1464552420873,,,,,,,0.01,0.08,0.99,-3.0,-0.1,-0.0,0,0,37.478348,-122.203735,0.0,0.0,80.6,9,3,1.8,0,0.0,-1,0.0,,0.0,0
38281,1464552420894,,,,,,,0.01,0.08,0.99,-3.0,-0.1,-0.0,0,0,37.478348,-122.203735,0.0,0.0,80.6,9,3,1.8,0,0.0,-1,0.0,,0.0,0
38301,1464552420913,,,,0,,,0.01,0.08,0.99,-3.0,-0.1,-0.0,0,0,37.478348,-122.203735,0.0,0.0,80.6,9,3,1.8,0,0.0,-1,0.0,,0.0,0
38321,1464552420934,,,,,,,0.01,0.08,0.98,-3.0,-0.1,-0.0,0,0,37.478348,-122.203735,0.0,0.0,80.6,9,3,1.8,0,0.0,-1,0.0,,0.0,0
38341,1464552420953,,,,,,,0.01,0.08,0.99,-3.0,-0.1,-0.0,0,0,37.478348,-122.203735,0.0,0.0,80.6,9,3,1.8,0,0.0,-1,0.0,,0.0,0
38361,1464552420973,,,,,,,0.01,0.08,0.99,-3.0,-0.1,-0.0,0,0,37.478348,-122.203735,0.0,0.0,80.6,9,3,1.8,0,0.0,-1,0.0,,0.0,0
38381,1464552420994,,,,,,,0.01,0.08,0.99,-3.0,-0.1,-0.0,0,0,37.478348,-122.203735,0.0,0.0,80.6,9,3,1.8,0,0.0,-1,0.0,,0.0,0
38401,1464552421014,0.003,59,60,0,57,,0.01,0.08,0.99,-3.0,-0.1,-0.0,0,0,37.478348,-122.203735,0.0,0.0,80.6,9,3,1.8,0,0.0,-1,0.0,0.0,0.0,0
38421,1464552421034,,,,,,,0.01,0.08,0.99,-3.0,-0.1,-0.0,0,0,37.478348,-122.203735,0.0,0.0,80.6,9,3,1.8,0,0.0,-1,0.0,,0.0,0
38441,1464552421054,,,,,,,0.01,0.08,0.99,-3.0,-0.0,-0.0,0,0,37.478348,-122.203735,0.0,0.0,80.6,9,3,1.8,0,0.0,-1,0.0,,0.0,0
38461,1464552421073,,,,,,,0.01,0.08,0.99,-3.0,-0.1,-0.0,0,0,37.478348,-122.203735,0.0,0.0,80.6,9,3,1.8,0,0.0,-1,0.0,,0.0,0
38481,1464552421094,,,,,,,0.01,0.08,0.99,-3.0,-0.0,-0.0,0,0,37.478348,-122.203735,0.0,0.0,80.6,9,3,1.8,0,0.0,-1,0.0,,0.0,0
38501,1464552421114,,,,0,,,0.01,0.08,0.99,-3.0,-0.0,-0.0,0,0,37.478348,-122.203735,0.0,0.0,80.6,9,3,1.8,0,0.0,-1,0.0,,0.0,0
38521,1464552421133,,,,,,,0.01,0.08,0.99,-3.0,-0.0,-0.0,0,0,37.478348,-122.203735,0.0,0.0,80.6,9,3,1.8,0,0.0,-1,0.0,,0.0,0
38541,1464552421153,,,,,,,0.01,0.08,0.99,-3.0,-0.0,-0.0,0,0,37.478348,-122.203735,0.0,0.0,80.6,9,3,1.8,0,0.0,-1,0.0,,0.0,0
38561,1464552421173,,,,,,,0.01,0.08,0.99,-3.0,-0.1,-0.0,0,0,37.478348,-122.203735,0.0,0.0,80.6,9,3,1.8,0,0.0,-1,0.0,,0.0,0
38581,1464552421194,,,,,,,0.01,0.08,0.99,-3.0,-0.1,-0.0,0,0,37.478348,-122.203735,0.0,0.0,80.6,9,3,1.8,0,0.0,-1,0.0,,0.0,0
38601,1464552421214,0.001,60,58,0,59,,0.01,0.08,0.99,-3.0,-0.1,-0.0,0,0,37.478348,-122.203735,0.0,0.0,80.6,9,3,1.8,0,0.0,-1,0.0,0.0,0.0,0
38621,1464552421234,,,,,,,0.01,0.08,0.99,-3.0,-0.1,-0.0,0,0,37.478348,-122.203735,0.0,0.0,80.6,9,3,1.8,0,0.0,-1,0.0,,0.0,0
38641,1464552421254,,,,,,,0.01,0.08,0.99,-3.0,-0.1,-0.0,0,0,37.478348,-122.203735,0.0,0.0,80.6,9,3,1.8,0,0.0,-1,0.0,,0.0,0
38661,1464552421273,,,,,,,0.01,0.08,0.99,-3.0,-0.1,-0.0,0,0,37.478348,-122.203735,0.0,0.0,80.6,9,3,1.8,0,0.0,-1,0.0,,0.0,0
38681,1464552421293,,,,,,,0.01,0.08,0.99,-3.0,-0.1,-0.0,0,0,37.478348,-122.203735,0.0,0.0,80.6,9,3,1.8,0,0.0,-1,0.0,,0.0,0
38701,1464552421314,,,,0,,,0.01,0.08,0.99,-3.0,-0.1,-0.0,0,0,37.478348,-122.203735,0.0,0.0,80.6,9,3,1.8,0,0.0,-1,0.0,,0.0,0
38721,1464552421332,,,,,,,0.01,0.08,0.99,-3.0,-0.1,-0.0,0,0,37.478348,-122.203735,0.0,0.0,80.6,9,3,1.8,0,0.0,-1,0.0,,0.0,0
38741,1464552421352,,,,,,,0.01,0.08,0.99,-3.0,-0.1,-0.0,0,0,37.478348,-122.203735,0.0,0.0,80.6,9,3,1.8,0,0.0,-1,0.0,,0.0,0
38761,1464552421372,,,,,,,0.01,0.08,0.99,-3.0,-0.1,-0.0,0,0,37.478348,-122.203735,0.0,0.0,80.6,9,3,1.8,0,0.0,-1,0.0,,0.0,0
38781,1464552421392,,,,,,,0.01,0.08,0.99,-3.0,-0.1,-0.0,0,0,37.478348,-122.203735,0.0,0.0,80.6,9,3,1.8,0,0.0,-1,0.0,,0.0,0
38801,1464552421412,0.001,61,59,0,59,,0.01,0.08,0.99,-3.0,-0.1,-0.0,0,0,37.478348,-122.203735,0.0,0.0,80.6,9,3,1.8,0,0.0,-1,0.0,0.0,0.0,0
38821,1464552421377,,,,,,,0.01,0.08,0.99,-3.0,-0.0,-0.0,0,0,37.478348,-122.203735,0.0,0.0,80.6,9,3,1.8,0,0.0,-1,0.0,,0.0,0
38841,1464552421416,,,,,,,0.01,0.08,0.99,-3.0,-0.0,-0.0,0,0,37.478348,-122.203735,0.0,0.0,80.6,9,3,1.8,0,0.0,-1,0.0,,0.0,0
38861,1464552421456,,,,,,,0.01,0.08,0.99,-3.0,-0.1,-0.0,0,0,37.478348,-122.203735,0.0,0.0,80.6,9,3,1.8,0,0.0,-1,0.0,,0.0,0
38881,1464552421493,,,,,,,0.01,0.08,0.99,-3.0,-0.1,-0.0,0,0,37.478348,-122.203735,0.0,0.0,80.6,9,3,1.8,0,0.0,-1,0.0,,0.0,0
38901,1464552421513,,,,0,,,0.01,0.08,0.99,-3.0,-0.1,-0.0,0,0,37.478348,-122.203735,0.0,0.0,80.6,9,3,1.8,0,0.0,-1,0.0,,0.0,0
38921,1464552421534,,,,,,,0.01,0.08,0.99,-3.0,-0.1,-0.0,0,0,37.478348,-122.203735,0.0,0.0,80.6,9,3,1.8,0,0.0,-1,0.0,,0.0,0
38941,1464552421553,,,,,,,0.01,0.08,0.99,-3.0,-0.1,-0.0,0,0,37.478348,-122.203735,0.0,0.0,80.6,9,3,1.8,0,0.0,-1,0.0,,0.0,0
38961,1464552421573,,,,,,,0.01,0.08,0.99,-3.0,-0.0,-0.0,0,0,37.478348,-122.203735,0.0,0.0,80.6,9,3,1.8,0,0.0,-1,0.0,,0.0,0
38981,1464552421594,,,,,,,0.01,0.08,0.99,-3.0,-0.1,-0.0,0,0,37.478348,-122.203735,0.0,0.0,80.6,9,3,1.8,0,0.0,-1,0.0,,0.0,0
39001,1464552421614,0.001,58,61,0,60,13.24,0.01,0.08,0.99,-3.0,-0.1,-0.0,0,0,37.478348,-122.203735,0.0,0.0,80.6,9,3,1.8,0,0.0,-1,0.0,0.0,0.0,0
39021,1464552421634,,,,,,,0.01,0.08,0.99,-3.0,-0.0,-0.0,0,0,37.478348,-122.203735,0.0,0.0,80.6,9,3,1.8,0,0.0,-1,0.0,,0.0,0
39041,1464552421654,,,,,,,0.01,0.08,0.99,-3.0,-0.0,-0.0,0,0,37.478348,-122.203735,0.0,0.0,80.6,9,3,1.8,0,0.0,-1,0.0,,0.0,0
39061,1464552421673,,,,,,,0.01,0.08,0.99,-3.0,-0.0,-0.0,0,0,37.478348,-122.203735,0.0,0.0,80.6,9,3,1.8,0,0.0,-1,0.0,,0.0,0
39081,1464552421694,,,,,,,0.01,0.08,0.99,-3.0,-0.0,-0.0,0,0,37.478348,-122.203735,0.0,0.0,80.6,9,3,1.8,0,0.0,-1,0.0,,0.0,0
39101,1464552421714,,,,0,,,0.01,0.08,0.99,-3.0,-0.0,-0.1,0,0,37.478348,-122.203735,0.0,0.0,80.6,9,3,1.8,0,0.0,-1,0.0,,0.0,0
39121,1464552421734,,,,,,,0.01,0.08,0.99,-3.0,-0.1,-0.0,0,0,37.478348,-122.203735,0.0,0.0,80.6,9,3,1.8,0,0.0,-1,0.0,,0.0,0
39141,1464552421754,,,,,,,0.01,0.08,0.99,-3.0,-0.1,-0.0,0,0,37.478348,-122.203735,0.0,0.0,80.6,9,3,1.8,0,0.0,-1,0.0,,0.0,0
39161,1464552421773,,,,,,,0.01,0.08,0.99,-3.0,-0.1,-0.0,0,0,37.478348,-122.203735,0.0,0.0,80.6,9,3,1.8,0,0.0,-1,0.0,,0.0,0
39181,1464552421794,,,,,,,0.01,0.08,0.99,-3.0,-0.1,-0.0,0,0,37.478348,-122.203735,0.0,0.0,80.6,9,3,1.8,0,0.0,-1,0.0,,0.0,0
39201,1464552421813,0.001,59,59,0,60,,0.01,0.08,0.99,-3.0,-0.1,-0.0,0,0,37.478348,-122.203735,0.0,0.0,80.6,9,3,1.8,0,0.0,-1,0.0,0.0,0.0,0
39221,1464552421834,,,,,,,0.01,0.08,0.99,-3.0,-0.1,-0.0,0,0,37.478348,-122.203735,0.0,0.0,80.6,9,3,1.8,0,0.0,-1,0.0,,0.0,0
39241,1464552421854,,,,,,,0.01,0.08,0.99,-3.0,-0.1,-0.0,0,0,37.478348,-122.203735,0.0,0.0,80.6,9,3,1.8,0,0.0,-1,0.0,,0.0,0
39261,1464552421873,,,,,,,0.01,0.08,0.99,-3.0,-0.1,-0.0,0,0,37.478348,-122.203735,0.0,0.0,80.6,9,3,1.8,0,0.0,-1,0.0,,0.0,0
39281,1464552421894,,,,,,,0.01,0.08,0.99,-3.0,-0.1,-0.0,0,0,37.478348,-122.203735,0.0,0.0,80.6,9,3,1.8,0,0.0,-1,0.0,,0.0,0
39301,1464552421914,,,,0,,,0.01,0.08,0.99,-3.0,-0.1,-0.0,0,0,37.478348,-122.203735,0.0,0.0,80.6,9,3,1.8,0,0.0,-1,0.0,,0.0,0
39321,1464552421933,,,,,,,0.01,0.08,0.99,-3.0,-0.1,-0.0,0,0,37.478348,-122.203735,0.0,0.0,80.6,9,3,1.8,0,0.0,-1,0.0,,0.0,0
39341,1464552421953,,,,,,,0.01,0.08,0.99,-3.0,-0.1,-0.0,0,0,37.478348,-122.203735,0.0,0.0,80.6,9,3,1.8,0,0.0,-1,0.0,,0.0,0
39361,1464552421973,,,,,,,0.01,0.08,0.99,-3.0,-0.1,-0.0,0,0,37.478348,-122.203735,0.0,0.0,80.6,9,3,1.8,0,0.0,-1,0.0,,0.0,0
39381,1464552421993,,,,,,,0.01,0.08,0.99,-3.0,-0.1,-0.0,0,0,37.478348,-122.203735,0.0,0.0,80.6,9,3,1.8,0,0.0,-1,0.0,,0.0,0
39401,1464552422013,0.003,60,59,0,60,,0.01,0.08,0.99,-3.0,-0.1,-0.0,0,0,37.478348,-122.203735,0.0,0.0,80.6,9,3,1.8,0,0.0,-1,0.0,0.0,0.0,0
39421,1464552422034,,,,,,,0.01,0.08,0.99,-3.0,-0.1,-0.0,0,0,37.478348,-122.203735,0.0,0.0,80.6,9,3,1.8,0,0.0,-1,0.0,,0.0,0
39441,1464552422054,,,,,,,0.01,0.08,0.99,-3.0,-0.1,-0.0,0,0,37.478348,-122.203735,0.0,0.0,80.6,9,3,1.8,0,0.0,-1,0.0,,0.0,0
39461,1464552422073,,,,,,,0.01,0.08,0.99,-3.0,-0.1,0.0,0,0,37.478348,-122.203735,0.0,0.0,80.6,9,3,1.8,0,0.0,-1,0.0,,0.0,0
39481,1464552422094,,,,,,,0.01,0.08,0.99,-3.0,-0.1,0.0,0,0,37.478348,-122.203735,0.0,0.0,80.6,9,3,1.8,0,0.0,-1,0.0,,0.0,0
39501,1464552422114,,,,0,,,0.01,0.08,0.99,-3.0,-0.1,0.0,0,0,37.478348,-122.203735,0.0,0.0,80.6,9,3,1.8,0,0.0,-1,0.0,,0.0,0
39521,1464552422134,,,,,,,0.01,0.08,0.99,-3.0,-0.1,0.0,0,0,37.478348,-122.203735,0.0,0.0,80.6,9,3,1.8,0,0.0,-1,0.0,,0.0,0
39541,1464552422154,,,,,,,0.01,0.08,0.99,-3.0,-0.1,0.0,0,0,37.478348,-122.203735,0.0,0.0,80.6,9,3,1.8,0,0.0,-1,0.0,,0.0,0
39561,1464552422173,,,,,,,0.01,0.08,0.99,-3.0,-0.1,0.0,0,0,37.478348,-122.203735,0.0,0.0,80.6,9,3,1.8,0,0.0,-1,0.0,,0.0,0
39581,1464552422193,,,,,,,0.01,0.08,0.99,-3.0,-0.1,-0.0,0,0,37.478348,-122.203735,0.0,0.0,80.6,9,3,1.8,0,0.0,-1,0.0,,0.0,0
39601,1464552422214,0.001,58,59,0,62,,0.01,0.08,0.99,-3.1,-0.1,0.0,0,0,37.478348,-122.203735,0.0,0.0,80.6,9,3,1.8,0,0.0,-1,0.0,0.0,0.0,0
39621,1464552422234,,,,,,,0.01,0.08,0.99,-3.0,-0.1,0.0,0,0,37.478348,-122.203735,0.0,0.0,80.6,9,3,1.8,0,0.0,-1,0.0,,0.0,0
39641,1464552422254,,,,,,,0.01,0.08,0.99,-3.0,-0.1,-0.0,0,0,37.478348,-122.203735,0.0,0.0,80.6,9,3,1.8,0,0.0,-1,0.0,,0.0,0
39661,1464552422274,,,,,,,0.01,0.08,0.99,-3.0,-0.1,-0.0,0,0,37.478348,-122.203735,0.0,0.0,80.6,9,3,1.8,0,0.0,-1,0.0,,0.0,0
39681,1464552422292,,,,,,,0.01,0.08,0.99,-3.0,-0.1,-0.0,0,0,37.478348,-122.203735,0.0,0.0,80.6,9,3,1.8,0,0.0,-1,0.0,,0.0,0
39701,1464552422314,,,,0,,,0.01,0.08,0.99,-3.0,-0.1,-0.0,0,0,37.478348,-122.203735,0.0,0.0,80.6,9,3,1.8,0,0.0,-1,0.0,,0.0,0
39721,1464552422334,,,,,,,0.01,0.08,0.99,-3.0,-0.1,-0.0,0,0,37.478348,-122.203735,0.0,0.0,80.6,9,3,1.8,0,0.0,-1,0.0,,0.0,0
39741,1464552422354,,,,,,,0.01,0.08,0.99,-3.0,-0.0,-0.0,0,0,37.478348,-122.203735,0.0,0.0,80.6,9,3,1.8,0,0.0,-1,0.0,,0.0,0
39761,1464552422373,,,,,,,0.01,0.08,0.99,-3.0,-0.0,-0.0,0,0,37.478348,-122.203735,0.0,0.0,80.6,9,3,1.8,0,0.0,-1,0.0,,0.0,0
39781,1464552422394,,,,,,,0.01,0.08,0.99,-3.0,-0.0,-0.0,0,0,37.478348,-122.203735,0.0,0.0,80.6,9,3,1.8,0,0.0,-1,0.0,,0.0,0
39801,1464552422414,0.003,59,58,0,59,,0.01,0.08,0.99,-3.0,-0.0,-0.0,0,0,37.478348,-122.203735,0.0,0.0,80.6,9,3,1.8,0,0.0,-1,0.0,0.0,0.0,0
39821,1464552422434,,,,,,,0.01,0.08,0.99,-3.0,-0.0,-0.0,0,0,37.478348,-122.203735,0.0,0.0,80.6,9,3,1.8,0,0.0,-1,0.0,,0.0,0
39841,1464552422454,,,,,,,0.01,0.08,0.99,-3.0,-0.0,-0.0,0,0,37.478348,-122.203735,0.0,0.0,80.6,9,3,1.8,0,0.0,-1,0.0,,0.0,0
39861,1464552422473,,,,,,,0.01,0.08,0.99,-3.0,-0.0,-0.0,0,0,37.478348,-122.203735,0.0,0.0,80.6,9,3,1.8,0,0.0,-1,0.0,,0.0,0
39881,1464552422492,,,,,,,0.01,0.08,0.99,-3.0,-0.0,-0.1,0,0,37.478348,-122.203735,0.0,0.0,80.6,9,3,1.8,0,0.0,-1,0.0,,0.0,0
39901,1464552422512,,,,0,,,0.01,0.08,0.99,-3.0,-0.1,-0.1,0,0,37.478348,-122.203735,0.0,0.0,80.6,9,3,1.8,0,0.0,-1,0.0,,0.0,0
39921,1464552422533,,,,,,,0.01,0.08,0.99,-3.0,-0.1,-0.0,0,0,37.478348,-122.203735,0.0,0.0,80.6,9,3,1.8,0,0.0,-1,0.0,,0.0,0
39941,1464552422553,,,,,,,0.01,0.08,0.99,-3.0,-0.1,-0.1,0,0,37.478348,-122.203735,0.0,0.0,80.6,9,3,1.8,0,0.0,-1,0.0,,0.0,0
39961,1464552422572,,,,,,,0.01,0.08,0.99,-3.0,-0.1,-0.1,0,0,37.478348,-122.203735,0.0,0.0,80.6,9,3,1.8,0,0.0,-1,0.0,,0.0,0
39981,1464552422593,,,,,,,0.01,0.08,0.99,-3.0,-0.1,-0.1,0,0,37.478348,-122.203735,0.0,0.0,80.6,9,3,1.8,0,0.0,-1,0.0,,0.0,0
40001,1464552422612,0.001,60,60,0,59,13.22,0.01,0.08,0.99,-3.0,-0.1,-0.1,0,0,37.478348,-122.203735,0.0,0.0,80.6,9,3,1.8,0,0.0,-1,0.0,0.0,0.0,0
40021,1464552422632,,,,,,,0.01,0.08,0.99,-3.0,-0.1,-0.1,0,0,37.478348,-122.203735,0.0,0.0,80.6,9,3,1.8,0,0.0,-1,0.0,,0.0,0
40041,1464552422653,,,,,,,0.01,0.08,0.99,-3.0,-0.1,-0.1,0,0,37.478348,-122.203735,0.0,0.0,80.6,9,3,1.8,0,0.0,-1,0.0,,0.0,0
40061,1464552422671,,,,,,,0.01,0.08,0.99,-3.0,-0.1,-0.1,0,0,37.478348,-122.203735,0.0,0.0,80.6,9,3,1.8,0,0.0,-1,0.0,,0.0,0
40081,1464552422691,,,,,,,0.01,0.08,0.99,-3.0,-0.1,-0.1,0,0,37.478348,-122.203735,0.0,0.0,80.6,9,3,1.8,0,0.0,-1,0.0,,0.0,0
40101,1464552422713,,,,0,,,0.01,0.08,0.99,-3.0,-0.1,-0.1,0,0,37.478348,-122.203735,0.0,0.0,80.6,9,3,1.8,0,0.0,-1,0.0,,0.0,0
40121,1464552422733,,,,,,,0.01,0.08,0.99,-3.0,-0.0,-0.1,0,0,37.478348,-122.203735,0.0,0.0,80.6,9,3,1.8,0,0.0,-1,0.0,,0.0,0
40141,1464552422752,,,,,,,0.01,0.08,0.99,-3.0,-0.0,-0.0,0,0,37.478348,-122.203735,0.0,0.0,80.6,9,3,1.8,0,0.0,-1,0.0,,0.0,0
40161,1464552422771,,,,,,,0.01,0.08,0.99,-3.0,-0.1,-0.1,0,0,37.478348,-122.203735,0.0,0.0,80.6,9,3,1.8,0,0.0,-1,0.0,,0.0,0
40181,1464552422793,,,,,,,0.01,0.08,0.99,-3.0,-0.0,-0.1,0,0,37.478348,-122.203735,0.0,0.0,80.6,9,3,1.8,0,0.0,-1,0.0,,0.0,0
40201,1464552422813,0.001,59,59,0,62,,0.01,0.08,0.99,-3.0,-0.0,-0.1,0,0,37.478348,-122.203735,0.0,0.0,80.6,9,3,1.8,0,0.0,-1,0.0,0.0,0.0,0
40221,1464552422834,,,,,,,0.01,0.08,0.99,-3.0,-0.0,-0.1,0,0,37.478348,-122.203735,0.0,0.0,80.6,9,3,1.8,0,0.0,-1,0.0,,0.0,0
40241,1464552422853,,,,,,,0.01,0.08,0.99,-3.0,-0.0,-0.1,0,0,37.478348,-122.203735,0.0,0.0,80.6,9,3,1.8,0,0.0,-1,0.0,,0.0,0
40261,1464552422873,,,,,,,0.01,0.08,0.99,-3.0,-0.0,-0.1,0,0,37.478348,-122.203735,0.0,0.0,80.6,9,3,1.8,0,0.0,-1,0.0,,0.0,0
40281,1464552422894,,,,,,,0.01,0.08,0.99,-3.0,-0.0,-0.0,0,0,37.478348,-122.203735,0.0,0.0,80.6,9,3,1.8,0,0.0,-1,0.0,,0.0,0
40301,1464552422914,,,,0,,,0.01,0.08,0.99,-3.0,-0.0,-0.0,0,0,37.478348,-122.203735,0.0,0.0,80.6,9,3,1.8,0,0.0,-1,0.0,,0.0,0
40321,1464552422934,,,,,,,0.01,0.08,0.99,-3.0,-0.0,-0.0,0,0,37.478348,-122.203735,0.0,0.0,80.6,9,3,1.8,0,0.0,-1,0.0,,0.0,0
40341,1464552422954,,,,,,,0.01,0.08,0.99,-3.0,-0.0,-0.0,0,0,37.478348,-122.203735,0.0,0.0,80.6,9,3,1.8,0,0.0,-1,0.0,,0.0,0
40361,1464552422974,,,,,,,0.01,0.08,0.99,-3.0,-0.1,-0.0,0,0,37.478348,-122.203735,0.0,0.0,80.6,9,3,1.8,0,0.0,-1,0.0,,0.0,0
40381,1464552422994,,,,,,,0.01,0.08,0.99,-3.0,-0.0,-0.0,0,0,37.478348,-122.203735,0.0,0.0,80.6,9,3,1.8,0,0.0,-1,0.0,,0.0,0
40401,1464552423014,0.001,60,58,0,59,,0.01,0.08,0.99,-3.0,-0.0,-0.0,0,0,37.478348,-122.203735,0.0,0.0,80.6,9,3,1.8,0,0.0,-1,0.0,0.0,0.0,0
40421,1464552423034,,,,,,,0.01,0.08,0.99,-3.0,-0.0,-0.0,0,0,37.478348,-122.203735,0.0,0.0,80.6,9,3,1.8,0,0.0,-1,0.0,,0.0,0
40441,1464552423053,,,,,,,0.01,0.08,0.99,-3.0,-0.0,-0.0,0,0,37.478348,-122.203735,0.0,0.0,80.6,9,3,1.8,0,0.0,-1,0.0,,0.0,0
40461,1464552423073,,,,,,,0.01,0.08,0.99,-3.0,-0.0,-0.0,0,0,37.478348,-122.203735,0.0,0.0,80.6,9,3,1.8,0,0.0,-1,0.0,,0.0,0
40481,1464552423094,,,,,,,0.01,0.08,0.99,-3.0,-0.0,-0.0,0,0,37.478348,-122.203735,0.0,0.0,80.6,9,3,1.8,0,0.0,-1,0.0,,0.0,0
40501,1464552423114,,,,0,,,0.01,0.08,0.99,-3.0,-0.0,-0.0,0,0,37.478348,-122.203735,0.0,0.0,80.6,9,3,1.8,0,0.0,-1,0.0,,0.0,0
40521,1464552423134,,,,,,,0.01,0.08,0.99,-3.0,-0.0,-0.0,0,0,37.478348,-122.203735,0.0,0.0,80.6,9,3,1.8,0,0.0,-1,0.0,,0.0,0
40541,1464552423154,,,,,,,0.01,0.08,0.99,-3.0,-0.0,-0.0,0,0,37.478348,-122.203735,0.0,0.0,80.6,9,3,1.8,0,0.0,-1,0.0,,0.0,0
40561,1464552423173,,,,,,,0.01,0.08,0.99,-3.0,-0.0,-0.0,0,0,37.478348,-122.203735,0.0,0.0,80.6,9,3,1.8,0,0.0,-1,0.0,,0.0,0
40581,1464552423194,,,,,,,0.01,0.08,0.99,-3.0,-0.0,-0.0,0,0,37.478348,-122.203735,0.0,0.0,80.6,9,3,1.8,0,0.0,-1,0.0,,0.0,0
40601,1464552423214,0.001,60,59,0,60,,0.01,0.08,0.99,-3.0,-0.0,-0.0,0,0,37.478348,-122.203735,0.0,0.0,80.6,9,3,1.8,0,0.0,-1,0.0,0.0,0.0,0
40621,1464552423234,,,,,,,0.01,0.08,0.99,-3.0,-0.0,-0.0,0,0,37.478348,-122.203735,0.0,0.0,80.6,9,3,1.8,0,0.0,-1,0.0,,0.0,0
40641,1464552423252,,,,,,,0.01,0.08,0.99,-3.0,-0.0,-0.0,0,0,37.478348,-122.203735,0.0,0.0,80.6,9,3,1.8,0,0.0,-1,0.0,,0.0,0
40661,1464552423273,,,,,,,0.01,0.08,0.99,-3.0,-0.0,-0.0,0,0,37.478348,-122.203735,0.0,0.0,80.6,9,3,1.8,0,0.0,-1,0.0,,0.0,0
40681,1464552423294,,,,,,,0.01,0.08,0.99,-3.0,-0.0,-0.0,0,0,37.478348,-122.203735,0.0,0.0,80.6,9,3,1.8,0,0.0,-1,0.0,,0.0,0
40701,1464552423313,,,,0,,,0.01,0.08,0.99,-3.0,-0.0,-0.0,0,0,37.478348,-122.203735,0.0,0.0,80.6,9,3,1.8,0,0.0,-1,0.0,,0.0,0
40721,1464552423334,,,,,,,0.01,0.08,0.99,-3.0,-0.0,-0.0,0,0,37.478348,-122.203735,0.0,0.0,80.6,9,3,1.8,0,0.0,-1,0.0,,0.0,0
40741,1464552423353,,,,,,,0.01,0.08,0.99,-3.0,-0.1,-0.0,0,0,37.478348,-122.203735,0.0,0.0,80.6,9,3,1.8,0,0.0,-1,0.0,,0.0,0
40761,1464552423374,,,,,,,0.01,0.08,0.99,-3.0,-0.0,-0.0,0,0,37.478348,-122.203735,0.0,0.0,80.6,9,3,1.8,0,0.0,-1,0.0,,0.0,0
40781,1464552423394,,,,,,,0.01,0.08,0.99,-3.0,-0.0,-0.0,0,0,37.478348,-122.203735,0.0,0.0,80.6,9,3,1.8,0,0.0,-1,0.0,,0.0,0
40801,1464552423414,0.001,62,57,0,58,,0.01,0.08,0.99,-3.0,-0.0,-0.0,0,0,37.478348,-122.203735,0.0,0.0,80.6,9,3,1.8,0,0.0,-1,0.0,0.0,0.0,0
40821,1464552423434,,,,,,,0.01,0.08,0.99,-3.0,-0.0,-0.0,0,0,37.478348,-122.203735,0.0,0.0,80.6,9,3,1.8,0,0.0,-1,0.0,,0.0,0
40841,1464552423454,,,,,,,0.01,0.08,0.99,-3.0,-0.1,-0.0,0,0,37.478348,-122.203735,0.0,0.0,80.6,9,3,1.8,0,0.0,-1,0.0,,0.0,0
40861,1464552423473,,,,,,,0.01,0.08,0.99,-3.0,-0.1,-0.0,0,0,37.478348,-122.203735,0.0,0.0,80.6,9,3,1.8,0,0.0,-1,0.0,,0.0,0
40881,1464552423494,,,,,,,0.01,0.08,0.99,-3.0,-0.1,-0.0,0,0,37.478348,-122.203735,0.0,0.0,80.6,9,3,1.8,0,0.0,-1,0.0,,0.0,0
40901,1464552423514,,,,0,,,0.01,0.08,0.99,-3.0,-0.1,-0.0,0,0,37.478348,-122.203735,0.0,0.0,80.6,9,3,1.8,0,0.0,-1,0.0,,0.0,0
40921,1464552423533,,,,,,,0.01,0.08,0.99,-3.0,-0.1,-0.0,0,0,37.478348,-122.203735,0.0,0.0,80.6,9,3,1.8,0,0.0,-1,0.0,,0.0,0
40941,1464552423554,,,,,,,0.01,0.08,0.99,-3.0,-0.1,-0.0,0,0,37.478348,-122.203735,0.0,0.0,80.6,9,3,1.8,0,0.0,-1,0.0,,0.0,0
40961,1464552423573,,,,,,,0.01,0.08,0.99,-3.0,-0.1,-0.0,0,0,37.478348,-122.203735,0.0,0.0,80.6,9,3,1.8,0,0.0,-1,0.0,,0.0,0
40981,1464552423594,,,,,,,0.01,0.08,0.99,-3.0,-0.1,-0.0,0,0,37.478348,-122.203735,0.0,0.0,80.6,9,3,1.8,0,0.0,-1,0.0,,0.0,0
41001,1464552423614,0.003,60,59,0,59,13.22,0.01,0.08,0.99,-3.0,-0.1,-0.0,0,0,37.478348,-122.203735,0.0,0.0,80.6,9,3,1.8,0,0.0,-1,0.0,0.0,0.0,0
41021,1464552423634,,,,,,,0.01,0.08,0.99,-3.0,-0.1,-0.0,0,0,37.478348,-122.203735,0.0,0.0,80.6,9,3,1.8,0,0.0,-1,0.0,,0.0,0
41041,1464552423654,,,,,,,0.01,0.08,0.99,-3.0,-0.1,-0.0,0,0,37.478348,-122.203735,0.0,0.0,80.6,9,3,1.8,0,0.0,-1,0.0,,0.0,0
41061,1464552423673,,,,,,,0.01,0.08,0.99,-3.0,-0.0,-0.0,0,0,37.478348,-122.203735,0.0,0.0,80.6,9,3,1.8,0,0.0,-1,0.0,,0.0,0
41081,1464552423693,,,,,,,0.01,0.08,0.99,-3.0,-0.0,-0.0,0,0,37.478348,-122.203735,0.0,0.0,80.6,9,3,1.8,0,0.0,-1,0.0,,0.0,0
41101,1464552423714,,,,0,,,0.01,0.08,0.99,-3.0,-0.0,-0.0,0,0,37.478348,-122.203735,0.0,0.0,80.6,9,3,1.8,0,0.0,-1,0.0,,0.0,0
41121,1464552423733,,,,,,,0.01,0.08,0.99,-3.0,-0.0,-0.0,0,0,37.478348,-122.203735,0.0,0.0,80.6,9,3,1.8,0,0.0,-1,0.0,,0.0,0
41141,1464552423754,,,,,,,0.01,0.08,0.99,-3.0,-0.0,-0.0,0,0,37.478348,-122.203735,0.0,0.0,80.6,9,3,1.8,0,0.0,-1,0.0,,0.0,0
41161,1464552423773,,,,,,,0.01,0.08,0.99,-3.0,-0.0,-0.0,0,0,37.478348,-122.203735,0.0,0.0,80.6,9,3,1.8,0,0.0,-1,0.0,,0.0,0
41181,1464552423794,,,,,,,0.01,0.08,0.99,-3.0,-0.0,-0.0,0,0,37.478348,-122.203735,0.0,0.0,80.6,9,3,1.8,0,0.0,-1,0.0,,0.0,0
41201,1464552423814,0.001,60,59,0,59,,0.01,0.08,0.99,-3.0,-0.0,-0.0,0,0,37.478348,-122.203735,0.0,0.0,80.6,9,3,1.8,0,0.0,-1,0.0,0.0,0.0,0
41221,1464552423834,,,,,,,0.01,0.08,0.99,-3.0,-0.0,-0.0,0,0,37.478348,-122.203735,0.0,0.0,80.6,9,3,1.8,0,0.0,-1,0.0,,0.0,0
41241,1464552423853,,,,,,,0.01,0.08,0.99,-3.0,-0.0,-0.0,0,0,37.478348,-122.203735,0.0,0.0,80.6,9,3,1.8,0,0.0,-1,0.0,,0.0,0
41261,1464552423874,,,,,,,0.01,0.08,0.99,-3.0,-0.1,-0.0,0,0,37.478348,-122.203735,0.0,0.0,80.6,9,3,1.8,0,0.0,-1,0.0,,0.0,0
41281,1464552423894,,,,,,,0.01,0.08,0.99,-3.0,-0.0,-0.0,0,0,37.478348,-122.203735,0.0,0.0,80.6,9,3,1.8,0,0.0,-1,0.0,,0.0,0
41301,1464552423914,,,,0,,,0.01,0.08,0.99,-3.0,-0.1,-0.0,0,0,37.478348,-122.203735,0.0,0.0,80.6,9,3,1.8,0,0.0,-1,0.0,,0.0,0
41321,1464552423933,,,,,,,0.01,0.08,0.99,-3.0,-0.0,-0.0,0,0,37.478348,-122.203735,0.0,0.0,80.6,9,3,1.8,0,0.0,-1,0.0,,0.0,0
41341,1464552423954,,,,,,,0.01,0.08,0.99,-3.0,-0.0,-0.0,0,0,37.478348,-122.203735,0.0,0.0,80.6,9,3,1.8,0,0.0,-1,0.0,,0.0,0
41361,1464552423974,,,,,,,0.01,0.08,0.99,-3.0,-0.0,-0.0,0,0,37.478348,-122.203735,0.0,0.0,80.6,9,3,1.8,0,0.0,-1,0.0,,0.0,0
41381,1464552423994,,,,,,,0.01,0.08,0.99,-3.0,-0.1,-0.0,0,0,37.478348,-122.203735,0.0,0.0,80.6,9,3,1.8,0,0.0,-1,0.0,,0.0,0
41401,1464552424014,0.001,62,58,0,57,,0.01,0.08,0.99,-3.0,-0.1,-0.0,0,0,37.478348,-122.203735,0.0,0.0,80.6,9,3,1.8,0,0.0,-1,0.0,0.0,0.0,0
41421,1464552424034,,,,,,,0.01,0.08,0.99,-3.0,-0.1,-0.0,0,0,37.478348,-122.203735,0.0,0.0,80.6,9,3,1.8,0,0.0,-1,0.0,,0.0,0
41441,1464552424054,,,,,,,0.01,0.08,0.99,-3.0,-0.1,-0.0,0,0,37.478348,-122.203735,0.0,0.0,80.6,9,3,1.8,0,0.0,-1,0.0,,0.0,0
41461,1464552424074,,,,,,,0.01,0.08,0.99,-3.0,-0.1,-0.0,0,0,37.478348,-122.203735,0.0,0.0,80.6,9,3,1.8,0,0.0,-1,0.0,,0.0,0
41481,1464552424031,,,,,,,0.01,0.08,0.99,-3.0,-0.1,-0.0,0,0,37.478348,-122.203735,0.0,0.0,80.6,9,3,1.8,0,0.0,-1,0.0,,0.0,0
41501,1464552424061,,,,0,,,0.01,0.08,0.99,-3.0,-0.1,-0.0,0,0,37.478348,-122.203735,0.0,0.0,80.6,9,3,1.8,0,0.0,-1,0.0,,0.0,0
41521,1464552424100,,,,,,,0.01,0.08,0.99,-3.0,-0.1,-0.0,0,0,37.478348,-122.203735,0.0,0.0,80.6,9,3,1.8,0,0.0,-1,0.0,,0.0,0
41541,1464552424140,,,,,,,0.01,0.08,0.99,-3.0,-0.1,-0.0,0,0,37.478348,-122.203735,0.0,0.0,80.6,9,3,1.8,0,0.0,-1,0.0,,0.0,0
41561,1464552424173,,,,,,,0.01,0.08,0.99,-3.0,-0.0,-0.0,0,0,37.478348,-122.203735,0.0,0.0,80.6,9,3,1.8,0,0.0,-1,0.0,,0.0,0
41581,1464552424194,,,,,,,0.01,0.08,0.99,-3.0,-0.1,-0.0,0,0,37.478348,-122.203735,0.0,0.0,80.6,9,3,1.8,0,0.0,-1,0.0,,0.0,0
41601,1464552424212,0.001,60,59,0,60,,0.01,0.08,0.99,-3.0,-0.0,-0.0,0,0,37.478348,-122.203735,0.0,0.0,80.6,9,3,1.8,0,0.0,-1,0.0,0.0,0.0,0
41621,1464552424234,,,,,,,0.01,0.08,0.99,-3.0,-0.0,-0.0,0,0,37.478348,-122.203735,0.0,0.0,80.6,9,3,1.8,0,0.0,-1,0.0,,0.0,0
41641,1464552424254,,,,,,,0.01,0.08,0.99,-3.0,-0.0,-0.0,0,0,37.478348,-122.203735,0.0,0.0,80.6,9,3,1.8,0,0.0,-1,0.0,,0.0,0
41661,1464552424273,,,,,,,0.01,0.08,0.99,-3.0,-0.1,-0.0,0,0,37.478348,-122.203735,0.0,0.0,80.6,9,3,1.8,0,0.0,-1,0.0,,0.0,0
41681,1464552424294,,,,,,,0.01,0.08,0.99,-3.0,-0.1,-0.0,0,0,37.478348,-122.203735,0.0,0.0,80.6,9,3,1.8,0,0.0,-1,0.0,,0.0,0
41701,1464552424314,,,,0,,,0.01,0.08,0.99,-3.0,-0.1,-0.0,0,0,37.478348,-122.203735,0.0,0.0,80.6,9,3,1.8,0,0.0,-1,0.0,,0.0,0
41721,1464552424334,,,,,,,0.01,0.08,0.99,-3.0,-0.0,-0.0,0,0,37.478348,-122.203735,0.0,0.0,80.6,9,3,1.8,0,0.0,-1,0.0,,0.0,0
41741,1464552424353,,,,,,,0.01,0.08,0.99,-3.0,-0.0,-0.0,0,0,37.478348,-122.203735,0.0,0.0,80.6,9,3,1.8,0,0.0,-1,0.0,,0.0,0
41761,1464552424373,,,,,,,0.01,0.08,0.99,-3.0,-0.0,-0.0,0,0,37.478348,-122.203735,0.0,0.0,80.6,9,3,1.8,0,0.0,-1,0.0,,0.0,0
41781,1464552424394,,,,,,,0.01,0.08,0.99,-3.0,-0.0,-0.0,0,0,37.478348,-122.203735,0.0,0.0,80.6,9,3,1.8,0,0.0,-1,0.0,,0.0,0
41801,1464552424413,0.001,60,60,0,60,,0.01,0.08,0.99,-3.0,-0.0,-0.0,0,0,37.478348,-122.203735,0.0,0.0,80.6,9,3,1.8,0,0.0,-1,0.0,0.0,0.0,0
41821,1464552424434,,,,,,,0.01,0.08,0.99,-3.0,-0.1,-0.0,0,0,37.478348,-122.203735,0.0,0.0,80.6,9,3,1.8,0,0.0,-1,0.0,,0.0,0
41841,1464552424454,,,,,,,0.01,0.08,0.99,-3.0,-0.1,-0.0,0,0,37.478348,-122.203735,0.0,0.0,80.6,9,3,1.8,0,0.0,-1,0.0,,0.0,0
41861,1464552424473,,,,,,,0.01,0.08,0.99,-3.0,-0.1,-0.0,0,0,37.478348,-122.203735,0.0,0.0,80.6,9,3,1.8,0,0.0,-1,0.0,,0.0,0
41881,1464552424494,,,,,,,0.01,0.08,0.99,-3.0,-0.1,-0.0,0,0,37.478348,-122.203735,0.0,0.0,80.6,9,3,1.8,0,0.0,-1,0.0,,0.0,0
41901,1464552424514,,,,0,,,0.01,0.08,0.99,-3.0,-0.1,-0.0,0,0,37.478348,-122.203735,0.0,0.0,80.6,9,3,1.8,0,0.0,-1,0.0,,0.0,0
41921,1464552424534,,,,,,,0.01,0.08,0.99,-3.0,-0.1,-0.0,0,0,37.478348,-122.203735,0.0,0.0,80.6,9,3,1.8,0,0.0,-1,0.0,,0.0,0
41941,1464552424553,,,,,,,0.01,0.08,0.99,-3.0,-0.1,-0.0,0,0,37.478348,-122.203735,0.0,0.0,80.6,9,3,1.8,0,0.0,-1,0.0,,0.0,0
41961,1464552424573,,,,,,,0.01,0.08,0.99,-3.0,-0.1,-0.0,0,0,37.478348,-122.203735,0.0,0.0,80.6,9,3,1.8,0,0.0,-1,0.0,,0.0,0
41981,1464552424594,,,,,,,0.01,0.08,0.99,-3.0,-0.1,0.0,0,0,37.478348,-122.203735,0.0,0.0,80.6,9,3,1.8,0,0.0,-1,0.0,,0.0,0
42001,1464552424614,0.0,62,57,0,59,13.2,0.01,0.08,0.99,-3.0,-0.1,-0.0,0,0,37.478348,-122.203735,0.0,0.0,80.6,9,3,1.8,0,0.0,-1,0.0,0.0,0.0,0
42021,1464552424634,,,,,,,0.01,0.08,0.99,-3.0,-0.1,-0.0,0,0,37.478348,-122.203735,0.0,0.0,80.6,942021,1464552424634,,,,,,,0.01,0.08,0.99,-3.0,-0.1,-0.0,0,0,37.478348,-122.203735,0.0,0.0,80.6,9,3,1.8,0,0.0,-1,0.0,,0.0,0
42041,1464552424654,,,,,,,0.01,0.08,0.99,-3.0,-0.1,-0.0,0,0,37.478348,-122.203735,0.0,0.0,80.6,9,3,1.8,0,0.0,-1,0.0,,0.0,0
42061,1464552424673,,,,,,,0.01,0.08,0.99,-3.0,-0.1,-0.0,0,0,37.478348,-122.203735,0.0,0.0,80.6,9,3,1.8,0,0.0,-1,0.0,,0.0,0
42081,1464552424693,,,,,,,0.01,0.08,0.99,-3.0,-0.1,-0.0,0,0,37.478348,-122.203735,0.0,0.0,80.6,9,3,1.8,0,0.0,-1,0.0,,0.0,0
42101,1464552424714,,,,0,,,0.01,0.08,0.99,-3.0,-0.1,-0.0,0,0,37.478348,-122.203735,0.0,0.0,80.6,9,3,1.8,0,0.0,-1,0.0,,0.0,0
42121,1464552424734,,,,,,,0.01,0.08,0.99,-3.0,-0.1,-0.0,0,0,37.478348,-122.203735,0.0,0.0,80.6,9,3,1.8,0,0.0,-1,0.0,,0.0,0
42141,1464552424753,,,,,,,0.01,0.08,0.99,-3.0,-0.1,-0.0,0,0,37.478348,-122.203735,0.0,0.0,80.6,9,3,1.8,0,0.0,-1,0.0,,0.0,0
42161,1464552424773,,,,,,,0.01,0.08,0.99,-3.0,-0.1,-0.0,0,0,37.478348,-122.203735,0.0,0.0,80.6,9,3,1.8,0,0.0,-1,0.0,,0.0,0
42181,1464552424794,,,,,,,0.01,0.08,0.99,-3.0,-0.0,-0.0,0,0,37.478348,-122.203735,0.0,0.0,80.6,9,3,1.8,0,0.0,-1,0.0,,0.0,0
42201,1464552424814,0.003,59,59,0,59,,0.01,0.08,0.99,-3.0,-0.0,-0.0,0,0,37.478348,-122.203735,0.0,0.0,80.6,9,3,1.8,0,0.0,-1,0.0,0.0,0.0,0
42221,1464552424834,,,,,,,0.01,0.08,0.99,-3.0,-0.0,-0.0,0,0,37.478348,-122.203735,0.0,0.0,80.6,9,3,1.8,0,0.0,-1,0.0,,0.0,0
42241,1464552424854,,,,,,,0.01,0.08,0.99,-3.0,-0.0,-0.0,0,0,37.478348,-122.203735,0.0,0.0,80.6,9,3,1.8,0,0.0,-1,0.0,,0.0,0
42261,1464552424873,,,,,,,0.01,0.08,0.99,-3.0,-0.0,-0.0,0,0,37.478348,-122.203735,0.0,0.0,80.6,9,3,1.8,0,0.0,-1,0.0,,0.0,0
42281,1464552424894,,,,,,,0.01,0.08,0.99,-3.0,-0.0,-0.0,0,0,37.478348,-122.203735,0.0,0.0,80.6,9,3,1.8,0,0.0,-1,0.0,,0.0,0
42301,1464552424913,,,,0,,,0.01,0.08,0.99,-3.0,-0.0,-0.0,0,0,37.478348,-122.203735,0.0,0.0,80.6,9,3,1.8,0,0.0,-1,0.0,,0.0,0
42321,1464552424934,,,,,,,0.01,0.08,0.99,-3.0,-0.0,-0.0,0,0,37.478348,-122.203735,0.0,0.0,80.6,9,3,1.8,0,0.0,-1,0.0,,0.0,0
42341,1464552424954,,,,,,,0.01,0.08,0.99,-3.0,-0.0,-0.0,0,0,37.478348,-122.203735,0.0,0.0,80.6,9,3,1.8,0,0.0,-1,0.0,,0.0,0
42361,1464552424974,,,,,,,0.01,0.08,0.99,-3.0,-0.0,-0.0,0,0,37.478348,-122.203735,0.0,0.0,80.6,9,3,1.8,0,0.0,-1,0.0,,0.0,0
42381,1464552424994,,,,,,,0.01,0.08,0.99,-3.0,-0.0,-0.0,0,0,37.478348,-122.203735,0.0,0.0,80.6,9,3,1.8,0,0.0,-1,0.0,,0.0,0
42401,1464552425014,0.001,60,59,0,60,,0.01,0.08,0.99,-3.0,-0.0,-0.0,0,0,37.478348,-122.203735,0.0,0.0,80.6,9,3,1.8,0,0.0,-1,0.0,0.0,0.0,0
42421,1464552425034,,,,,,,0.01,0.08,0.99,-3.0,-0.0,-0.0,0,0,37.478348,-122.203735,0.0,0.0,80.6,9,3,1.8,0,0.0,-1,0.0,,0.0,0
42441,1464552425054,,,,,,,0.01,0.08,0.99,-3.0,-0.0,-0.0,0,0,37.478348,-122.203735,0.0,0.0,80.6,9,3,1.8,0,0.0,-1,0.0,,0.0,0
42461,1464552425073,,,,,,,0.01,0.08,0.99,-3.0,-0.0,-0.1,0,0,37.478348,-122.203735,0.0,0.0,80.6,9,3,1.8,0,0.0,-1,0.0,,0.0,0
42481,1464552425094,,,,,,,0.01,0.08,0.99,-3.0,-0.0,-0.1,0,0,37.478348,-122.203735,0.0,0.0,80.6,9,3,1.8,0,0.0,-1,0.0,,0.0,0
42501,1464552425114,,,,0,,,0.01,0.08,0.99,-3.0,-0.0,-0.0,0,0,37.478348,-122.203735,0.0,0.0,80.6,9,3,1.8,0,0.0,-1,0.0,,0.0,0
42521,1464552425134,,,,,,,0.01,0.08,0.99,-3.0,-0.0,-0.1,0,0,37.478348,-122.203735,0.0,0.0,80.6,9,3,1.8,0,0.0,-1,0.0,,0.0,0
42541,1464552425154,,,,,,,0.01,0.08,0.99,-3.0,-0.0,-0.1,0,0,37.478348,-122.203735,0.0,0.0,80.6,9,3,1.8,0,0.0,-1,0.0,,0.0,0
42561,1464552425171,,,,,,,0.01,0.08,0.99,-3.0,-0.0,-0.1,0,0,37.478348,-122.203735,0.0,0.0,80.6,9,3,1.8,0,0.0,-1,0.0,,0.0,0
42581,1464552425194,,,,,,,0.01,0.08,0.99,-3.0,-0.0,-0.1,0,0,37.478348,-122.203735,0.0,0.0,80.6,9,3,1.8,0,0.0,-1,0.0,,0.0,0
42601,1464552425214,0.0,59,58,0,61,,0.01,0.08,0.99,-3.0,-0.1,-0.0,0,0,37.478348,-122.203735,0.0,0.0,80.6,9,3,1.8,0,0.0,-1,0.0,0.0,0.0,0
42621,1464552425234,,,,,,,0.01,0.08,0.99,-3.0,-0.1,-0.0,0,0,37.478348,-122.203735,0.0,0.0,80.6,9,3,1.8,0,0.0,-1,0.0,,0.0,0
42641,1464552425253,,,,,,,0.01,0.08,0.99,-3.0,-0.1,-0.0,0,0,37.478348,-122.203735,0.0,0.0,80.6,9,3,1.8,0,0.0,-1,0.0,,0.0,0
42661,1464552425273,,,,,,,0.01,0.08,0.99,-3.0,-0.1,-0.0,0,0,37.478348,-122.203735,0.0,0.0,80.6,9,3,1.8,0,0.0,-1,0.0,,0.0,0
42681,1464552425294,,,,,,,0.01,0.08,0.99,-3.0,-0.1,-0.0,0,0,37.478348,-122.203735,0.0,0.0,80.6,9,3,1.8,0,0.0,-1,0.0,,0.0,0
42701,1464552425314,,,,0,,,0.01,0.08,0.99,-3.0,-0.1,-0.0,0,0,37.478348,-122.203735,0.0,0.0,80.6,9,3,1.8,0,0.0,-1,0.0,,0.0,0
42721,1464552425334,,,,,,,0.01,0.08,0.99,-3.0,-0.1,-0.0,0,0,37.478348,-122.203735,0.0,0.0,80.6,9,3,1.8,0,0.0,-1,0.0,,0.0,0
42741,1464552425354,,,,,,,0.01,0.08,0.99,-3.0,-0.1,-0.0,0,0,37.478348,-122.203735,0.0,0.0,80.6,9,3,1.8,0,0.0,-1,0.0,,0.0,0
42761,1464552425373,,,,,,,0.01,0.08,0.99,-3.0,-0.1,-0.0,0,0,37.478348,-122.203735,0.0,0.0,80.6,9,3,1.8,0,0.0,-1,0.0,,0.0,0
42781,1464552425394,,,,,,,0.01,0.08,0.99,-3.0,-0.1,-0.0,0,0,37.478348,-122.203735,0.0,0.0,80.6,9,3,1.8,0,0.0,-1,0.0,,0.0,0
42801,1464552425414,0.001,60,59,0,60,,0.01,0.08,0.99,-3.0,-0.1,-0.0,0,0,37.478348,-122.203735,0.0,0.0,80.6,9,3,1.8,0,0.0,-1,0.0,0.0,0.0,0
42821,1464552425434,,,,,,,0.01,0.08,0.99,-3.0,-0.1,-0.0,0,0,37.478348,-122.203735,0.0,0.0,80.6,9,3,1.8,0,0.0,-1,0.0,,0.0,0
42841,1464552425454,,,,,,,0.01,0.08,0.99,-3.0,-0.0,-0.0,0,0,37.478348,-122.203735,0.0,0.0,80.6,9,3,1.8,0,0.0,-1,0.0,,0.0,0
42861,1464552425472,,,,,,,0.01,0.08,0.99,-3.0,-0.1,-0.0,0,0,37.478348,-122.203735,0.0,0.0,80.6,9,3,1.8,0,0.0,-1,0.0,,0.0,0
42881,1464552425492,,,,,,,0.01,0.08,0.99,-3.0,-0.0,-0.0,0,0,37.478348,-122.203735,0.0,0.0,80.6,9,3,1.8,0,0.0,-1,0.0,,0.0,0
42901,1464552425512,,,,0,,,0.01,0.08,0.99,-3.0,-0.0,-0.0,0,0,37.478348,-122.203735,0.0,0.0,80.6,9,3,1.8,0,0.0,-1,0.0,,0.0,0
42921,1464552425532,,,,,,,0.01,0.08,0.99,-3.0,-0.0,-0.0,0,0,37.478348,-122.203735,0.0,0.0,80.6,9,3,1.8,0,0.0,-1,0.0,,0.0,0
42941,1464552425552,,,,,,,0.01,0.08,0.99,-3.0,-0.1,-0.0,0,0,37.478348,-122.203735,0.0,0.0,80.6,9,3,1.8,0,0.0,-1,0.0,,0.0,0
42961,1464552425571,,,,,,,0.01,0.08,0.99,-3.0,-0.0,-0.0,0,0,37.478348,-122.203735,0.0,0.0,80.6,9,3,1.8,0,0.0,-1,0.0,,0.0,0
42981,1464552425593,,,,,,,0.01,0.08,0.99,-3.0,-0.1,-0.0,0,0,37.478348,-122.203735,0.0,0.0,80.6,9,3,1.8,0,0.0,-1,0.0,,0.0,0
43001,1464552425613,0.004,60,58,0,59,13.22,0.01,0.08,0.99,-3.0,-0.1,-0.0,0,0,37.478348,-122.203735,0.0,0.0,80.6,9,3,1.8,0,0.0,-1,0.0,0.0,0.0,0
43021,1464552425633,,,,,,,0.01,0.08,0.99,-3.0,-0.1,-0.0,0,0,37.478348,-122.203735,0.0,0.0,80.6,9,3,1.8,0,0.0,-1,0.0,,0.0,0
43041,1464552425651,,,,,,,0.01,0.08,0.99,-3.0,-0.1,-0.0,0,0,37.478348,-122.203735,0.0,0.0,80.6,9,3,1.8,0,0.0,-1,0.0,,0.0,0
43061,1464552425672,,,,,,,0.01,0.08,0.99,-3.0,-0.1,-0.0,0,0,37.478348,-122.203735,0.0,0.0,80.6,9,3,1.8,0,0.0,-1,0.0,,0.0,0
43081,1464552425692,,,,,,,0.01,0.08,0.99,-3.0,-0.1,-0.0,0,0,37.478348,-122.203735,0.0,0.0,80.6,9,3,1.8,0,0.0,-1,0.0,,0.0,0
43101,1464552425712,,,,0,,,0.01,0.08,0.99,-3.0,-0.1,-0.0,0,0,37.478348,-122.203735,0.0,0.0,80.6,9,3,1.8,0,0.0,-1,0.0,,0.0,0
43121,1464552425733,,,,,,,0.01,0.08,0.99,-3.0,-0.1,-0.0,0,0,37.478348,-122.203735,0.0,0.0,80.6,9,3,1.8,0,0.0,-1,0.0,,0.0,0
43141,1464552425753,,,,,,,0.01,0.08,0.99,-3.0,-0.1,-0.0,0,0,37.478348,-122.203735,0.0,0.0,80.6,9,3,1.8,0,0.0,-1,0.0,,0.0,0
43161,1464552425772,,,,,,,0.01,0.08,0.99,-3.0,-0.1,-0.0,0,0,37.478348,-122.203735,0.0,0.0,80.6,9,3,1.8,0,0.0,-1,0.0,,0.0,0
43181,1464552425793,,,,,,,0.01,0.08,0.99,-3.0,-0.1,-0.0,0,0,37.478348,-122.203735,0.0,0.0,80.6,9,3,1.8,0,0.0,-1,0.0,,0.0,0
43201,1464552425814,0.0,61,56,0,59,,0.01,0.08,0.99,-3.0,-0.1,-0.0,0,0,37.478348,-122.203735,0.0,0.0,80.6,9,3,1.8,0,0.0,-1,0.0,0.0,0.0,0
43221,1464552425834,,,,,,,0.01,0.08,0.99,-3.0,-0.1,-0.0,0,0,37.478348,-122.203735,0.0,0.0,80.6,9,3,1.8,0,0.0,-1,0.0,,0.0,0
43241,1464552425854,,,,,,,0.01,0.08,0.99,-3.0,-0.1,-0.0,0,0,37.478348,-122.203735,0.0,0.0,80.6,9,3,1.8,0,0.0,-1,0.0,,0.0,0
43261,1464552425873,,,,,,,0.01,0.08,0.99,-3.0,-0.1,-0.0,0,0,37.478348,-122.203735,0.0,0.0,80.6,9,3,1.8,0,0.0,-1,0.0,,0.0,0
43281,1464552425893,,,,,,,0.01,0.08,0.99,-3.0,-0.0,-0.1,0,0,37.478348,-122.203735,0.0,0.0,80.6,9,3,1.8,0,0.0,-1,0.0,,0.0,0
43301,1464552425914,,,,0,,,0.01,0.08,0.99,-3.0,-0.1,-0.0,0,0,37.478348,-122.203735,0.0,0.0,80.6,9,3,1.8,0,0.0,-1,0.0,,0.0,0
43321,1464552425934,,,,,,,0.01,0.08,0.99,-3.0,-0.0,-0.0,0,0,37.478348,-122.203735,0.0,0.0,80.6,9,3,1.8,0,0.0,-1,0.0,,0.0,0
43341,1464552425954,,,,,,,0.01,0.08,0.99,-3.0,-0.0,-0.0,0,0,37.478348,-122.203735,0.0,0.0,80.6,9,3,1.8,0,0.0,-1,0.0,,0.0,0
43361,1464552425974,,,,,,,0.01,0.08,0.99,-3.0,-0.0,-0.1,0,0,37.478348,-122.203735,0.0,0.0,80.6,9,3,1.8,0,0.0,-1,0.0,,0.0,0
43381,1464552425994,,,,,,,0.01,0.08,0.99,-3.0,-0.0,-0.1,0,0,37.478348,-122.203735,0.0,0.0,80.6,9,3,1.8,0,0.0,-1,0.0,,0.0,0
43401,1464552426014,0.003,59,58,0,59,,0.01,0.08,0.99,-3.0,-0.0,-0.0,0,0,37.478348,-122.203735,0.0,0.0,80.6,9,3,1.8,0,0.0,-1,0.0,0.0,0.0,0
43421,1464552426034,,,,,,,0.01,0.08,0.99,-3.0,-0.0,-0.0,0,0,37.478348,-122.203735,0.0,0.0,80.6,9,3,1.8,0,0.0,-1,0.0,,0.0,0
43441,1464552426053,,,,,,,0.01,0.08,0.99,-3.0,-0.0,-0.0,0,0,37.478348,-122.203735,0.0,0.0,80.6,9,3,1.8,0,0.0,-1,0.0,,0.0,0
43461,1464552426073,,,,,,,0.01,0.08,0.99,-3.0,-0.0,-0.0,0,0,37.478348,-122.203735,0.0,0.0,80.6,9,3,1.8,0,0.0,-1,0.0,,0.0,0
43481,1464552426093,,,,,,,0.01,0.08,0.99,-3.0,-0.0,-0.1,0,0,37.478348,-122.203735,0.0,0.0,80.6,9,3,1.8,0,0.0,-1,0.0,,0.0,0
43501,1464552426114,,,,0,,,0.01,0.08,0.99,-3.0,-0.0,-0.0,0,0,37.478348,-122.203735,0.0,0.0,80.6,9,3,1.8,0,0.0,-1,0.0,,0.0,0
43521,1464552426134,,,,,,,0.01,0.08,0.99,-3.1,-0.0,-0.0,0,0,37.478348,-122.203735,0.0,0.0,80.6,9,3,1.8,0,0.0,-1,0.0,,0.0,0
43541,1464552426154,,,,,,,0.01,0.08,0.99,-3.1,-0.0,-0.0,0,0,37.478348,-122.203735,0.0,0.0,80.6,9,3,1.8,0,0.0,-1,0.0,,0.0,0
43561,1464552426173,,,,,,,0.01,0.08,0.99,-3.0,-0.0,-0.0,0,0,37.478348,-122.203735,0.0,0.0,80.6,9,3,1.8,0,0.0,-1,0.0,,0.0,0
43581,1464552426194,,,,,,,0.01,0.08,0.99,-3.0,-0.0,-0.0,0,0,37.478348,-122.203735,0.0,0.0,80.6,9,3,1.8,0,0.0,-1,0.0,,0.0,0
43601,1464552426213,0.003,59,58,0,59,,0.01,0.08,0.99,-3.0,-0.0,-0.0,0,0,37.478348,-122.203735,0.0,0.0,80.6,9,3,1.8,0,0.0,-1,0.0,0.0,0.0,0
43621,1464552426234,,,,,,,0.01,0.08,0.99,-3.0,-0.0,-0.0,0,0,37.478348,-122.203735,0.0,0.0,80.6,9,3,1.8,0,0.0,-1,0.0,,0.0,0
43641,1464552426254,,,,,,,0.01,0.08,0.99,-3.0,-0.0,-0.0,0,0,37.478348,-122.203735,0.0,0.0,80.6,9,3,1.8,0,0.0,-1,0.0,,0.0,0
43661,1464552426274,,,,,,,0.01,0.08,0.99,-3.0,-0.0,-0.0,0,0,37.478348,-122.203735,0.0,0.0,80.6,9,3,1.8,0,0.0,-1,0.0,,0.0,0
43681,1464552426294,,,,,,,0.01,0.08,0.99,-3.0,-0.0,-0.0,0,0,37.478348,-122.203735,0.0,0.0,80.6,9,3,1.8,0,0.0,-1,0.0,,0.0,0
43701,1464552426314,,,,0,,,0.01,0.08,0.99,-3.0,-0.1,-0.0,0,0,37.478348,-122.203735,0.0,0.0,80.6,9,3,1.8,0,0.0,-1,0.0,,0.0,0
43721,1464552426334,,,,,,,0.01,0.08,0.99,-3.0,-0.1,-0.0,0,0,37.478348,-122.203735,0.0,0.0,80.6,9,3,1.8,0,0.0,-1,0.0,,0.0,0
43741,1464552426354,,,,,,,0.01,0.08,0.99,-3.0,-0.1,-0.0,0,0,37.478348,-122.203735,0.0,0.0,80.6,9,3,1.8,0,0.0,-1,0.0,,0.0,0
43761,1464552426373,,,,,,,0.01,0.08,0.99,-3.0,-0.1,-0.0,0,0,37.478348,-122.203735,0.0,0.0,80.6,9,3,1.8,0,0.0,-1,0.0,,0.0,0
43781,1464552426394,,,,,,,0.01,0.08,0.99,-3.0,-0.1,-0.0,0,0,37.478348,-122.203735,0.0,0.0,80.6,9,3,1.8,0,0.0,-1,0.0,,0.0,0
43801,1464552426414,0.003,58,57,0,61,,0.01,0.08,0.99,-3.0,-0.1,-0.0,0,0,37.478348,-122.203735,0.0,0.0,80.6,9,3,1.8,0,0.0,-1,0.0,0.0,0.0,0
43821,1464552426434,,,,,,,0.01,0.08,0.99,-3.0,-0.1,-0.0,0,0,37.478348,-122.203735,0.0,0.0,80.6,9,3,1.8,0,0.0,-1,0.0,,0.0,0
43841,1464552426454,,,,,,,0.01,0.08,0.99,-3.0,-0.1,-0.0,0,0,37.478348,-122.203735,0.0,0.0,80.6,9,3,1.8,0,0.0,-1,0.0,,0.0,0
43861,1464552426474,,,,,,,0.01,0.08,0.99,-3.0,-0.1,-0.0,0,0,37.478348,-122.203735,0.0,0.0,80.6,9,3,1.8,0,0.0,-1,0.0,,0.0,0
43881,1464552426437,,,,,,,0.01,0.08,0.99,-3.0,-0.1,-0.0,0,0,37.478348,-122.203735,0.0,0.0,80.6,9,3,1.8,0,0.0,-1,0.0,,0.0,0
43901,1464552426476,,,,0,,,0.01,0.08,0.99,-3.1,-0.1,-0.0,0,0,37.478348,-122.203735,0.0,0.0,80.6,9,3,1.8,0,0.0,-1,0.0,,0.0,0
43921,1464552426516,,,,,,,0.01,0.08,0.99,-3.0,-0.1,-0.0,0,0,37.478348,-122.203735,0.0,0.0,80.6,9,3,1.8,0,0.0,-1,0.0,,0.0,0
43941,1464552426553,,,,,,,0.01,0.08,0.99,-3.0,-0.1,-0.0,0,0,37.478348,-122.203735,0.0,0.0,80.6,9,3,1.8,0,0.0,-1,0.0,,0.0,0
43961,1464552426573,,,,,,,0.01,0.08,0.99,-3.0,-0.0,-0.0,0,0,37.478348,-122.203735,0.0,0.0,80.6,9,3,1.8,0,0.0,-1,0.0,,0.0,0
43981,1464552426594,,,,,,,0.01,0.08,0.99,-3.0,-0.0,-0.0,0,0,37.478348,-122.203735,0.0,0.0,80.6,9,3,1.8,0,0.0,-1,0.0,,0.0,0
44001,1464552426613,0.003,59,59,0,59,13.23,0.01,0.08,0.99,-3.0,-0.0,-0.0,0,0,37.478348,-122.203735,0.0,0.0,80.6,9,3,1.8,0,0.0,-1,0.0,0.0,0.0,0
44021,1464552426633,,,,,,,0.01,0.08,0.99,-3.0,-0.1,-0.0,0,0,37.478348,-122.203735,0.0,0.0,80.6,9,3,1.8,0,0.0,-1,0.0,,0.0,0
44041,1464552426653,,,,,,,0.01,0.08,0.99,-3.0,-0.1,-0.0,0,0,37.478348,-122.203735,0.0,0.0,80.6,9,3,1.8,0,0.0,-1,0.0,,0.0,0
44061,1464552426673,,,,,,,0.01,0.08,0.99,-3.0,-0.1,-0.0,0,0,37.478348,-122.203735,0.0,0.0,80.6,9,3,1.8,0,0.0,-1,0.0,,0.0,0
44081,1464552426693,,,,,,,0.01,0.08,0.99,-3.0,-0.1,-0.0,0,0,37.478348,-122.203735,0.0,0.0,80.6,9,3,1.8,0,0.0,-1,0.0,,0.0,0
44101,1464552426714,,,,0,,,0.01,0.08,0.99,-3.0,-0.1,-0.0,0,0,37.478348,-122.203735,0.0,0.0,80.6,9,3,1.8,0,0.0,-1,0.0,,0.0,0
44121,1464552426734,,,,,,,0.01,0.08,0.99,-3.0,-0.1,-0.0,0,0,37.478348,-122.203735,0.0,0.0,80.6,9,3,1.8,0,0.0,-1,0.0,,0.0,0
44141,1464552426754,,,,,,,0.01,0.08,0.99,-3.0,-0.1,-0.0,0,0,37.478348,-122.203735,0.0,0.0,80.6,9,3,1.8,0,0.0,-1,0.0,,0.0,0
44161,1464552426773,,,,,,,0.01,0.08,0.99,-3.0,-0.1,-0.0,0,0,37.478348,-122.203735,0.0,0.0,80.6,9,3,1.8,0,0.0,-1,0.0,,0.0,0
44181,1464552426794,,,,,,,0.01,0.08,0.99,-3.0,-0.1,-0.0,0,0,37.478348,-122.203735,0.0,0.0,80.6,9,3,1.8,0,0.0,-1,0.0,,0.0,0
44201,1464552426813,0.003,60,59,0,59,,0.01,0.08,0.99,-3.0,-0.1,-0.0,0,0,37.478348,-122.203735,0.0,0.0,80.6,9,3,1.8,0,0.0,-1,0.0,0.0,0.0,0
44221,1464552426834,,,,,,,0.01,0.08,0.99,-3.0,-0.1,-0.0,0,0,37.478348,-122.203735,0.0,0.0,80.6,9,3,1.8,0,0.0,-1,0.0,,0.0,0
44241,1464552426854,,,,,,,0.01,0.08,0.99,-3.0,-0.1,-0.0,0,0,37.478348,-122.203735,0.0,0.0,80.6,9,3,1.8,0,0.0,-1,0.0,,0.0,0
44261,1464552426873,,,,,,,0.01,0.08,0.99,-3.0,-0.1,0.0,0,0,37.478348,-122.203735,0.0,0.0,80.6,9,3,1.8,0,0.0,-1,0.0,,0.0,0
44281,1464552426894,,,,,,,0.01,0.08,0.99,-3.1,-0.1,0.0,0,0,37.478348,-122.203735,0.0,0.0,80.6,9,3,1.8,0,0.0,-1,0.0,,0.0,0
44301,1464552426914,,,,0,,,0.01,0.08,0.99,-3.0,-0.1,0.0,0,0,37.478348,-122.203735,0.0,0.0,80.6,9,3,1.8,0,0.0,-1,0.0,,0.0,0
44321,1464552426934,,,,,,,0.01,0.08,0.99,-3.0,-0.1,0.0,0,0,37.478348,-122.203735,0.0,0.0,80.6,9,3,1.8,0,0.0,-1,0.0,,0.0,0
44341,1464552426954,,,,,,,0.01,0.08,0.99,-3.0,-0.0,0.0,0,0,37.478348,-122.203735,0.0,0.0,80.6,9,3,1.8,0,0.0,-1,0.0,,0.0,0
44361,1464552426974,,,,,,,0.01,0.08,0.99,-3.0,-0.1,-0.0,0,0,37.478348,-122.203735,0.0,0.0,80.6,9,3,1.8,0,0.0,-1,0.0,,0.0,0
44381,1464552426993,,,,,,,0.01,0.08,0.99,-3.0,-0.1,-0.0,0,0,37.478348,-122.203735,0.0,0.0,80.6,9,3,1.8,0,0.0,-1,0.0,,0.0,0
44401,1464552427014,0.003,60,57,0,59,,0.01,0.08,0.99,-3.0,-0.1,0.0,0,0,37.478348,-122.203735,0.0,0.0,80.6,9,3,1.8,0,0.0,-1,0.0,0.0,0.0,0
44421,1464552427034,,,,,,,0.01,0.08,0.99,-3.0,-0.0,-0.0,0,0,37.478348,-122.203735,0.0,0.0,80.6,9,3,1.8,0,0.0,-1,0.0,,0.0,0
44441,1464552427054,,,,,,,0.01,0.08,0.99,-3.0,-0.0,-0.0,0,0,37.478348,-122.203735,0.0,0.0,80.6,9,3,1.8,0,0.0,-1,0.0,,0.0,0
44461,1464552427073,,,,,,,0.01,0.08,0.99,-3.0,-0.0,-0.0,0,0,37.478348,-122.203735,0.0,0.0,80.6,9,3,1.8,0,0.0,-1,0.0,,0.0,0
44481,1464552427094,,,,,,,0.01,0.08,0.99,-3.0,-0.0,-0.0,0,0,37.478348,-122.203735,0.0,0.0,80.6,9,3,1.8,0,0.0,-1,0.0,,0.0,0
44501,1464552427114,,,,0,,,0.01,0.08,0.99,-3.0,-0.0,-0.0,0,0,37.478348,-122.203735,0.0,0.0,80.6,9,3,1.8,0,0.0,-1,0.0,,0.0,0
44521,1464552427134,,,,,,,0.01,0.08,0.99,-3.0,-0.1,-0.0,0,0,37.478348,-122.203735,0.0,0.0,80.6,9,3,1.8,0,0.0,-1,0.0,,0.0,0
44541,1464552427154,,,,,,,0.01,0.08,0.99,-3.0,-0.1,-0.0,0,0,37.478348,-122.203735,0.0,0.0,80.6,9,3,1.8,0,0.0,-1,0.0,,0.0,0
44561,1464552427173,,,,,,,0.01,0.08,0.99,-3.0,-0.1,-0.0,0,0,37.478348,-122.203735,0.0,0.0,80.6,9,3,1.8,0,0.0,-1,0.0,,0.0,0
44581,1464552427193,,,,,,,0.01,0.08,0.99,-3.0,-0.1,-0.0,0,0,37.478348,-122.203735,0.0,0.0,80.6,9,3,1.8,0,0.0,-1,0.0,,0.0,0
44601,1464552427214,0.001,60,59,0,59,,0.01,0.08,0.99,-3.0,-0.1,-0.0,0,0,37.478348,-122.203735,0.0,0.0,80.6,9,3,1.8,0,0.0,-1,0.0,0.0,0.0,0
44621,1464552427234,,,,,,,0.01,0.08,0.99,-3.0,-0.1,-0.0,0,0,37.478348,-122.203735,0.0,0.0,80.6,9,3,1.8,0,0.0,-1,0.0,,0.0,0
44641,1464552427254,,,,,,,0.01,0.08,0.99,-3.0,-0.1,-0.0,0,0,37.478348,-122.203735,0.0,0.0,80.6,9,3,1.8,0,0.0,-1,0.0,,0.0,0
44661,1464552427273,,,,,,,0.01,0.08,0.99,-3.0,-0.1,-0.0,0,0,37.478348,-122.203735,0.0,0.0,80.6,9,3,1.8,0,0.0,-1,0.0,,0.0,0
44681,1464552427294,,,,,,,0.01,0.08,0.99,-3.0,-0.1,-0.0,0,0,37.478348,-122.203735,0.0,0.0,80.6,9,3,1.8,0,0.0,-1,0.0,,0.0,0
44701,1464552427314,,,,0,,,0.01,0.08,0.99,-3.0,-0.1,-0.0,0,0,37.478348,-122.203735,0.0,0.0,80.6,9,3,1.8,0,0.0,-1,0.0,,0.0,0
44721,1464552427334,,,,,,,0.01,0.08,0.99,-3.0,-0.1,-0.0,0,0,37.478348,-122.203735,0.0,0.0,80.6,9,3,1.8,0,0.0,-1,0.0,,0.0,0
44741,1464552427353,,,,,,,0.01,0.08,0.99,-3.0,-0.1,-0.0,0,0,37.478348,-122.203735,0.0,0.0,80.6,9,3,1.8,0,0.0,-1,0.0,,0.0,0
44761,1464552427373,,,,,,,0.01,0.08,0.99,-3.0,-0.1,-0.0,0,0,37.478348,-122.203735,0.0,0.0,80.6,9,3,1.8,0,0.0,-1,0.0,,0.0,0
44781,1464552427394,,,,,,,0.01,0.08,0.99,-3.0,-0.1,-0.0,0,0,37.478348,-122.203735,0.0,0.0,80.6,9,3,1.8,0,0.0,-1,0.0,,0.0,0
44801,1464552427414,0.001,59,59,0,59,,0.01,0.08,0.99,-3.0,-0.1,-0.0,0,0,37.478348,-122.203735,0.0,0.0,80.6,9,3,1.8,0,0.0,-1,0.0,0.0,0.0,0
44821,1464552427434,,,,,,,0.01,0.08,0.99,-3.0,-0.1,-0.0,0,0,37.478348,-122.203735,0.0,0.0,80.6,9,3,1.8,0,0.0,-1,0.0,,0.0,0
44841,1464552427454,,,,,,,0.01,0.08,0.99,-3.0,-0.1,-0.0,0,0,37.478348,-122.203735,0.0,0.0,80.6,9,3,1.8,0,0.0,-1,0.0,,0.0,0
44861,1464552427473,,,,,,,0.01,0.08,0.99,-3.0,-0.1,-0.0,0,0,37.478348,-122.203735,0.0,0.0,80.6,9,3,1.8,0,0.0,-1,0.0,,0.0,0
44881,1464552427492,,,,,,,0.01,0.08,0.99,-3.0,-0.1,-0.0,0,0,37.478348,-122.203735,0.0,0.0,80.6,9,3,1.8,0,0.0,-1,0.0,,0.0,0
44901,1464552427512,,,,0,,,0.01,0.08,0.99,-3.0,-0.1,-0.0,0,0,37.478348,-122.203735,0.0,0.0,80.6,9,3,1.8,0,0.0,-1,0.0,,0.0,0
44921,1464552427532,,,,,,,0.01,0.08,0.99,-3.0,-0.1,-0.0,0,0,37.478348,-122.203735,0.0,0.0,80.6,9,3,1.8,0,0.0,-1,0.0,,0.0,0
44941,1464552427551,,,,,,,0.01,0.08,0.99,-3.0,-0.1,-0.0,0,0,37.478348,-122.203735,0.0,0.0,80.6,9,3,1.8,0,0.0,-1,0.0,,0.0,0
44961,1464552427571,,,,,,,0.01,0.08,0.99,-3.0,-0.1,-0.0,0,0,37.478348,-122.203735,0.0,0.0,80.6,9,3,1.8,0,0.0,-1,0.0,,0.0,0
44981,1464552427592,,,,,,,0.01,0.08,0.99,-3.0,-0.1,-0.0,0,0,37.478348,-122.203735,0.0,0.0,80.6,9,3,1.8,0,0.0,-1,0.0,,0.0,0
45001,1464552427613,0.003,60,56,0,61,13.21,0.01,0.08,0.99,-3.0,-0.1,-0.0,0,0,37.478348,-122.203735,0.0,0.0,80.6,9,3,1.8,0,0.0,-1,0.0,0.0,0.0,0
45021,1464552427632,,,,,,,0.01,0.08,0.99,-3.0,-0.1,-0.0,0,0,37.478348,-122.203735,0.0,0.0,80.6,9,3,1.8,0,0.0,-1,0.0,,0.0,0
45041,1464552427652,,,,,,,0.01,0.08,0.99,-3.0,-0.0,-0.0,0,0,37.478348,-122.203735,0.0,0.0,80.6,9,3,1.8,0,0.0,-1,0.0,,0.0,0
45061,1464552427671,,,,,,,0.01,0.08,0.99,-3.0,-0.0,-0.0,0,0,37.478348,-122.203735,0.0,0.0,80.6,9,3,1.8,0,0.0,-1,0.0,,0.0,0
45081,1464552427692,,,,,,,0.01,0.08,0.99,-3.0,-0.0,-0.0,0,0,37.478348,-122.203735,0.0,0.0,80.6,9,3,1.8,0,0.0,-1,0.0,,0.0,0
45101,1464552427712,,,,0,,,0.01,0.08,0.99,-3.0,-0.0,-0.0,0,0,37.478348,-122.203735,0.0,0.0,80.6,9,3,1.8,0,0.0,-1,0.0,,0.0,0
45121,1464552427733,,,,,,,0.01,0.08,0.99,-3.0,-0.1,-0.0,0,0,37.478348,-122.203735,0.0,0.0,80.6,9,3,1.8,0,0.0,-1,0.0,,0.0,0
45141,1464552427753,,,,,,,0.01,0.08,0.99,-3.0,-0.1,-0.0,0,0,37.478348,-122.203735,0.0,0.0,80.6,9,3,1.8,0,0.0,-1,0.0,,0.0,0
45161,1464552427772,,,,,,,0.01,0.08,0.99,-3.0,-0.1,-0.0,0,0,37.478348,-122.203735,0.0,0.0,80.6,9,3,1.8,0,0.0,-1,0.0,,0.0,0
45181,1464552427793,,,,,,,0.01,0.08,0.99,-3.0,-0.0,-0.0,0,0,37.478348,-122.203735,0.0,0.0,80.6,9,3,1.8,0,0.0,-1,0.0,,0.0,0
45201,1464552427814,0.003,61,59,0,60,,0.01,0.08,0.99,-3.0,-0.1,-0.0,0,0,37.478348,-122.203735,0.0,0.0,80.6,9,3,1.8,0,0.0,-1,0.0,0.0,0.0,0
45221,1464552427834,,,,,,,0.01,0.08,0.99,-3.0,-0.1,-0.0,0,0,37.478348,-122.203735,0.0,0.0,80.6,9,3,1.8,0,0.0,-1,0.0,,0.0,0
45241,1464552427853,,,,,,,0.01,0.08,0.99,-3.0,-0.1,-0.0,0,0,37.478348,-122.203735,0.0,0.0,80.6,9,3,1.8,0,0.0,-1,0.0,,0.0,0
45261,1464552427873,,,,,,,0.01,0.08,0.99,-3.0,-0.1,-0.1,0,0,37.478348,-122.203735,0.0,0.0,80.6,9,3,1.8,0,0.0,-1,0.0,,0.0,0
45281,1464552427894,,,,,,,0.01,0.08,0.99,-3.0,-0.1,-0.1,0,0,37.478348,-122.203735,0.0,0.0,80.6,9,3,1.8,0,0.0,-1,0.0,,0.0,0
45301,1464552427914,,,,0,,,0.01,0.08,0.99,-3.0,-0.1,-0.0,0,0,37.478348,-122.203735,0.0,0.0,80.6,9,3,1.8,0,0.0,-1,0.0,,0.0,0
45321,1464552427934,,,,,,,0.01,0.08,0.99,-3.0,-0.1,-0.0,0,0,37.478348,-122.203735,0.0,0.0,80.6,9,3,1.8,0,0.0,-1,0.0,,0.0,0
45341,1464552427954,,,,,,,0.01,0.08,0.99,-3.1,-0.1,-0.0,0,0,37.478348,-122.203735,0.0,0.0,80.6,9,3,1.8,0,0.0,-1,0.0,,0.0,0
45361,1464552427974,,,,,,,0.01,0.08,0.99,-3.0,-0.0,-0.1,0,0,37.478348,-122.203735,0.0,0.0,80.6,9,3,1.8,0,0.0,-1,0.0,,0.0,0
45381,1464552427994,,,,,,,0.01,0.08,0.99,-3.0,-0.1,-0.0,0,0,37.478348,-122.203735,0.0,0.0,80.6,9,3,1.8,0,0.0,-1,0.0,,0.0,0
45401,1464552428014,0.001,59,58,0,60,,0.01,0.08,0.99,-3.0,-0.1,-0.0,0,0,37.478348,-122.203735,0.0,0.0,80.6,9,3,1.8,0,0.0,-1,0.0,0.0,0.0,0
45421,1464552428034,,,,,,,0.01,0.08,0.99,-3.0,-0.1,-0.0,0,0,37.478348,-122.203735,0.0,0.0,80.6,9,3,1.8,0,0.0,-1,0.0,,0.0,0
45441,1464552428052,,,,,,,0.01,0.08,0.99,-3.1,-0.1,-0.0,0,0,37.478348,-122.203735,0.0,0.0,80.6,9,3,1.8,0,0.0,-1,0.0,,0.0,0
45461,1464552428073,,,,,,,0.01,0.08,0.99,-3.0,-0.1,-0.0,0,0,37.478348,-122.203735,0.0,0.0,80.6,9,3,1.8,0,0.0,-1,0.0,,0.0,0
45481,1464552428094,,,,,,,0.01,0.08,0.99,-3.0,-0.1,-0.1,0,0,37.478348,-122.203735,0.0,0.0,80.6,9,3,1.8,0,0.0,-1,0.0,,0.0,0
45501,1464552428114,,,,0,,,0.01,0.08,0.99,-3.1,-0.1,-0.1,0,0,37.478348,-122.203735,0.0,0.0,80.6,9,3,1.8,0,0.0,-1,0.0,,0.0,0
45521,1464552428134,,,,,,,0.01,0.08,0.99,-3.0,-0.1,-0.1,0,0,37.478348,-122.203735,0.0,0.0,80.6,9,3,1.8,0,0.0,-1,0.0,,0.0,0
45541,1464552428154,,,,,,,0.01,0.08,0.99,-3.0,-0.1,-0.1,0,0,37.478348,-122.203735,0.0,0.0,80.6,9,3,1.8,0,0.0,-1,0.0,,0.0,0
45561,1464552428173,,,,,,,0.01,0.08,0.99,-3.0,-0.1,-0.1,0,0,37.478348,-122.203735,0.0,0.0,80.6,9,3,1.8,0,0.0,-1,0.0,,0.0,0
45581,1464552428194,,,,,,,0.01,0.08,0.99,-3.1,-0.1,-0.1,0,0,37.478348,-122.203735,0.0,0.0,80.6,9,3,1.8,0,0.0,-1,0.0,,0.0,0
45601,1464552428214,0.003,58,61,0,58,,0.01,0.08,0.99,-3.1,-0.1,-0.1,0,0,37.478348,-122.203735,0.0,0.0,80.6,9,3,1.8,0,0.0,-1,0.0,0.0,0.0,0
45621,1464552428234,,,,,,,0.01,0.08,0.99,-3.1,-0.1,-0.0,0,0,37.478348,-122.203735,0.0,0.0,80.6,9,3,1.8,0,0.0,-1,0.0,,0.0,0
45641,1464552428254,,,,,,,0.01,0.08,0.99,-3.1,-0.1,-0.0,0,0,37.478348,-122.203735,0.0,0.0,80.6,9,3,1.8,0,0.0,-1,0.0,,0.0,0
45661,1464552428273,,,,,,,0.01,0.08,0.99,-3.1,-0.1,-0.0,0,0,37.478348,-122.203735,0.0,0.0,80.6,9,3,1.8,0,0.0,-1,0.0,,0.0,0
45681,1464552428294,,,,,,,0.01,0.08,0.99,-3.1,-0.1,-0.0,0,0,37.478348,-122.203735,0.0,0.0,80.6,9,3,1.8,0,0.0,-1,0.0,,0.0,0
45701,1464552428314,,,,0,,,0.01,0.08,0.99,-3.1,-0.1,-0.0,0,0,37.478348,-122.203735,0.0,0.0,80.6,9,3,1.8,0,0.0,-1,0.0,,0.0,0
45721,1464552428334,,,,,,,0.01,0.08,0.99,-3.1,-0.1,-0.0,0,0,37.478348,-122.203735,0.0,0.0,80.6,9,3,1.8,0,0.0,-1,0.0,,0.0,0
45741,1464552428354,,,,,,,0.01,0.08,0.99,-3.1,-0.1,-0.0,0,0,37.478348,-122.203735,0.0,0.0,80.6,9,3,1.8,0,0.0,-1,0.0,,0.0,0
45761,1464552428373,,,,,,,0.01,0.08,0.99,-3.1,-0.1,-0.0,0,0,37.478348,-122.203735,0.0,0.0,80.6,9,3,1.8,0,0.0,-1,0.0,,0.0,0
45781,1464552428394,,,,,,,0.01,0.08,0.99,-3.1,-0.1,-0.0,0,0,37.478348,-122.203735,0.0,0.0,80.6,9,3,1.8,0,0.0,-1,0.0,,0.0,0
45801,1464552428414,0.003,59,58,0,59,,0.01,0.08,0.99,-3.0,-0.1,-0.0,0,0,37.478348,-122.203735,0.0,0.0,80.6,9,3,1.8,0,0.0,-1,0.0,0.0,0.0,0
45821,1464552428434,,,,,,,0.01,0.08,0.99,-3.1,-0.1,-0.0,0,0,37.478348,-122.203735,0.0,0.0,80.6,9,3,1.8,0,0.0,-1,0.0,,0.0,0
45841,1464552428454,,,,,,,0.01,0.08,0.99,-3.1,-0.1,-0.0,0,0,37.478348,-122.203735,0.0,0.0,80.6,9,3,1.8,0,0.0,-1,0.0,,0.0,0
45861,1464552428474,,,,,,,0.01,0.08,0.99,-3.1,-0.1,-0.1,0,0,37.478348,-122.203735,0.0,0.0,80.6,9,3,1.8,0,0.0,-1,0.0,,0.0,0
45881,1464552428494,,,,,,,0.01,0.08,0.99,-3.1,-0.1,-0.1,0,0,37.478348,-122.203735,0.0,0.0,80.6,9,3,1.8,0,0.0,-1,0.0,,0.0,0
45901,1464552428514,,,,0,,,0.01,0.08,0.99,-3.1,-0.1,-0.0,0,0,37.478348,-122.203735,0.0,0.0,80.6,9,3,1.8,0,0.0,-1,0.0,,0.0,0
45921,1464552428533,,,,,,,0.01,0.08,0.99,-3.1,-0.1,-0.0,0,0,37.478348,-122.203735,0.0,0.0,80.6,9,3,1.8,0,0.0,-1,0.0,,0.0,0
45941,1464552428554,,,,,,,0.01,0.08,0.99,-3.1,-0.1,-0.0,0,0,37.478348,-122.203735,0.0,0.0,80.6,9,3,1.8,0,0.0,-1,0.0,,0.0,0
45961,1464552428573,,,,,,,0.01,0.08,0.99,-3.1,-0.1,-0.0,0,0,37.478348,-122.203735,0.0,0.0,80.6,9,3,1.8,0,0.0,-1,0.0,,0.0,0
45981,1464552428594,,,,,,,0.01,0.08,0.99,-3.1,-0.1,-0.1,0,0,37.478348,-122.203735,0.0,0.0,80.6,9,3,1.8,0,0.0,-1,0.0,,0.0,0
46001,1464552428614,0.003,59,59,0,59,13.23,0.01,0.08,0.99,-3.0,-0.1,-0.0,0,0,37.478348,-122.203735,0.0,0.0,80.6,9,3,1.8,0,0.0,-1,0.0,0.0,0.0,0
46021,1464552428634,,,,,,,0.01,0.08,0.99,-3.0,-0.1,-0.0,0,0,37.478348,-122.203735,0.0,0.0,80.6,9,3,1.8,0,0.0,-1,0.0,,0.0,0
46041,1464552428654,,,,,,,0.01,0.08,0.99,-3.0,-0.1,-0.0,0,0,37.478348,-122.203735,0.0,0.0,80.6,9,3,1.8,0,0.0,-1,0.0,,0.0,0
46061,1464552428673,,,,,,,0.01,0.08,0.99,-3.0,-0.1,-0.0,0,0,37.478348,-122.203735,0.0,0.0,80.6,9,3,1.8,0,0.0,-1,0.0,,0.0,0
46081,1464552428694,,,,,,,0.01,0.08,0.99,-3.0,-0.1,-0.0,0,0,37.478348,-122.203735,0.0,0.0,80.6,9,3,1.8,0,0.0,-1,0.0,,0.0,0
46101,1464552428714,,,,0,,,0.01,0.08,0.99,-3.0,-0.1,-0.0,0,0,37.478348,-122.203735,0.0,0.0,80.6,9,3,1.8,0,0.0,-1,0.0,,0.0,0
46121,1464552428734,,,,,,,0.01,0.08,0.99,-3.0,-0.1,-0.0,0,0,37.478348,-122.203735,0.0,0.0,80.6,9,3,1.8,0,0.0,-1,0.0,,0.0,0
46141,1464552428754,,,,,,,0.01,0.08,0.99,-3.0,-0.1,-0.0,0,0,37.478348,-122.203735,0.0,0.0,80.6,9,3,1.8,0,0.0,-1,0.0,,0.0,0
46161,1464552428773,,,,,,,0.01,0.08,0.99,-3.0,-0.1,-0.0,0,0,37.478348,-122.203735,0.0,0.0,80.6,9,3,1.8,0,0.0,-1,0.0,,0.0,0
46181,1464552428793,,,,,,,0.01,0.08,0.99,-3.0,-0.0,-0.0,0,0,37.478348,-122.203735,0.0,0.0,80.6,9,3,1.8,0,0.0,-1,0.0,,0.0,0
46201,1464552428814,0.0,61,57,0,58,,0.01,0.08,0.99,-3.0,-0.0,-0.0,0,0,37.478348,-122.203735,0.0,0.0,80.6,9,3,1.8,0,0.0,-1,0.0,0.0,0.0,0
46221,1464552428834,,,,,,,0.01,0.08,0.99,-3.0,-0.0,-0.1,0,0,37.478348,-122.203735,0.0,0.0,80.6,9,3,1.8,0,0.0,-1,0.0,,0.0,0
46241,1464552428854,,,,,,,0.01,0.08,0.99,-3.0,-0.0,-0.0,0,0,37.478348,-122.203735,0.0,0.0,80.6,9,3,1.8,0,0.0,-1,0.0,,0.0,0
46261,1464552428873,,,,,,,0.01,0.08,0.99,-3.0,-0.0,-0.0,0,0,37.478348,-122.203735,0.0,0.0,80.6,9,3,1.8,0,0.0,-1,0.0,,0.0,0
46281,1464552428894,,,,,,,0.01,0.08,0.99,-3.0,-0.0,-0.0,0,0,37.478348,-122.203735,0.0,0.0,80.6,9,3,1.8,0,0.0,-1,0.0,,0.0,0
46301,1464552428914,,,,0,,,0.01,0.08,0.99,-3.0,-0.0,-0.0,0,0,37.478348,-122.203735,0.0,0.0,80.6,9,3,1.8,0,0.0,-1,0.0,,0.0,0
46321,1464552428934,,,,,,,0.01,0.08,0.99,-3.0,-0.0,-0.0,0,0,37.478348,-122.203735,0.0,0.0,80.6,9,3,1.8,0,0.0,-1,0.0,,0.0,0
46341,1464552428954,,,,,,,0.01,0.08,0.99,-3.0,-0.0,-0.0,0,0,37.478348,-122.203735,0.0,0.0,80.6,9,3,1.8,0,0.0,-1,0.0,,0.0,0
46361,1464552428974,,,,,,,0.01,0.08,0.99,-3.0,-0.0,-0.0,0,0,37.478348,-122.203735,0.0,0.0,80.6,9,3,1.8,0,0.0,-1,0.0,,0.0,0
