"Interval"|"ms"|0|0|1,"Utc"|"ms"|0|0|1,"FuelLevel"|"F"|0|100|5,"OilTemp"|"F"|0.0|300.0|5,"CoolantPressPSI"|"PSI"|0.0|20.0|1,"Coolant"|"F"|0.0|300.0|5,"OilPress"|"PSI"|0|150|10,"EngineTemp"|"F"|0.0|300.0|5,"Battery"|"Volts"|0.0|20.0|1,"AccelX"|"G"|-3.0|3.0|50,"AccelY"|"G"|-3.0|3.0|50,"AccelZ"|"G"|-3.0|3.0|50,"Yaw"|"Deg/Sec"|-300.0|300.0|50,"Pitch"|"Deg/Sec"|-300.0|300.0|50,"Roll"|"Deg/Sec"|-300.0|300.0|50,"RPM"|""|0|10000|50,"Driveshaft"|"RPM"|0|5000|50,"GPIO1"|""|0|1|10,"GPIO2"|""|0|1|10,"GearRatio"|""|-5.0|5.0|10,"Gear"|""|-1|5|10,"Latitude"|"Degrees"|-180.0|180.0|10,"Longitude"|"Degrees"|-180.0|180.0|10,"Speed"|"mph"|0.0|150.0|10,"Distance"|"mi"|0.0|0.0|10,"Altitude"|"ft"|0.0|4000.0|10,"GPSSats"|""|0|20|10,"GPSQual"|""|0|5|10,"GPSDOP"|""|0.0|20.0|10,"LapCount"|""|0|0|10,"LapTime"|"Min"|0.0|0.0|10,"Sector"|""|0|0|10,"SectorTime"|"Min"|0.0|0.0|10,"PredTime"|"Min"|0.0|0.0|10,"ElapsedTime"|"Min"|0.0|0.0|10,"CurrentLap"|""|0|0|10
25511134,1490486163923,,,,,,,,0.0,0.06,0.99,-3.0,0.8,-0.2,60,0,,,,,,,,,,,,,,,,,,,
25511154,1490486163943,,,,,,,,0.0,0.06,0.99,-3.1,0.8,-0.2,60,0,,,,,,,,,,,,,,,,,,,
25511174,1490486163963,,,,,,,,-0.0,0.06,0.99,-3.0,0.9,-0.1,60,0,,,,,,,,,,,,,,,,,,,
25511194,1490486163983,,,,,,,,0.01,0.08,0.99,-3.1,0.8,0.0,60,0,,,,,,,,,,,,,,,,,,,
25511216,1490486163996,,,,,0,,,0.01,0.08,1.01,-3.1,0.8,0.0,200,0,1,1,0.0,0,38.159184,-122.454186,0.0,2.409,26.7,9,3,2.3,134,2.5067,2,0.1833,17.9358,17.8017,135
25511235,1490486164015,,,,,,,,0.01,0.08,1.01,-3.1,0.8,0.0,200,0,,,,,,,,,,,,,,,,,,,
25511255,1490486164035,,,,,,,,0.01,0.07,1.0,-3.0,0.7,-0.1,200,0,,,,,,,,,,,,,,,,,,,
25511275,1490486164055,,,,,,,,0.01,0.08,1.0,-3.1,0.6,-0.1,300,0,,,,,,,,,,,,,,,,,,,
25511295,1490486164075,,,,,,,,0.01,0.07,1.0,-3.1,0.6,-0.1,300,0,,,,,,,,,,,,,,,,,,,
25511317,1490486164103,0,134.9,,155.9,0,154.9,,0.01,0.07,0.99,-3.1,0.3,-0.2,300,0,1,1,0.0,0,38.159184,-122.454186,0.0,2.409,26.7,9,3,2.3,134,2.5067,2,0.1833,17.9376,17.8033,135
25511336,1490486164122,,,,,,,,0.02,0.08,0.99,-3.2,0.4,-0.1,400,0,,,,,,,,,,,,,,,,,,,
25511356,1490486164142,,,,,,,,0.01,0.05,1.0,-3.0,0.6,-0.1,400,0,,,,,,,,,,,,,,,,,,,
25511376,1490486164162,,,,,,,,0.0,0.07,0.99,-3.1,0.9,-0.0,520,0,,,,,,,,,,,,,,,,,,,
25511396,1490486164182,,,,,,,,-0.01,0.07,0.99,-3.2,0.7,0.1,700,0,,,,,,,,,,,,,,,,,,,
25511418,1490486164206,,,,,0,,,-0.0,0.07,1.01,-3.1,0.8,-0.1,820,0,1,0,0.0,0,38.159184,-122.454186,0.0,2.409,26.7,9,3,2.3,134,2.5067,2,0.1833,17.9393,17.805,135
25511437,1490486164225,,,,,,,,0.0,0.07,0.99,-3.0,0.6,-0.4,900,0,,,,,,,,,,,,,,,,,,,
25511457,1490486164245,,,,,,,,-0.0,0.07,0.99,-3.0,0.5,-0.5,920,0,,,,,,,,,,,,,,,,,,,
25511477,1490486164265,,,,,,,,-0.01,0.07,0.98,-3.0,0.7,-0.5,900,0,,,,,,,,,,,,,,,,,,,
25511497,1490486164285,,,,,,,,-0.02,0.08,0.97,-2.9,0.6,-0.6,920,0,,,,,,,,,,,,,,,,,,,
25511519,1490486164307,0,135.9,,156.1,1,154.0,,-0.02,0.07,0.97,-3.0,0.6,-0.5,920,0,1,0,0.0,0,38.159184,-122.454186,0.0,2.409,26.7,9,3,2.3,134,2.5067,2,0.1833,17.941,17.8067,135
25511538,1490486164326,,,,,,,,-0.03,0.06,0.97,-3.0,0.7,-0.5,900,0,,,,,,,,,,,,,,,,,,,
25511558,1490486164346,,,,,,,,-0.03,0.05,0.96,-3.0,0.8,-0.5,900,6,,,,,,,,,,,,,,,,,,,
25511578,1490486164366,,,,,,,,-0.02,0.05,0.96,-3.0,0.9,-0.4,920,6,,,,,,,,,,,,,,,,,,,
25511598,1490486164386,,,,,,,,-0.01,0.05,0.97,-3.1,0.9,-0.3,920,6,,,,,,,,,,,,,,,,,,,
25511620,1490486164408,,,,,1,,,-0.01,0.06,0.97,-3.1,0.7,-0.2,980,6,1,0,0.0,0,38.159184,-122.454186,0.0,2.409,26.7,9,3,1.9,134,2.5067,2,0.1833,17.9427,17.8083,135
25511639,1490486164427,,,,,,,,-0.0,0.07,0.98,-3.1,0.7,-0.2,960,6,,,,,,,,,,,,,,,,,,,
25511659,1490486164447,,,,,,,,-0.0,0.08,0.98,-3.1,0.5,-0.2,1000,6,,,,,,,,,,,,,,,,,,,
25511679,1490486164467,,,,,,,,0.0,0.08,0.99,-3.2,0.5,-0.1,1020,6,,,,,,,,,,,,,,,,,,,
25511699,1490486164487,,,,,,,,0.0,0.08,0.99,-3.1,0.3,-0.2,1060,6,,,,,,,,,,,,,,,,,,,
25511721,1490486164509,0,135.9,,157.3,3,155.2,,0.01,0.09,1.0,-3.1,0.3,-0.2,1080,6,1,0,163.333,0,38.159184,-122.454186,0.0,2.409,26.7,9,3,1.9,134,2.5067,2,0.1833,17.9444,17.81,135
25511740,1490486164528,,,,,,,,0.02,0.09,0.99,-3.1,0.3,-0.2,1100,6,,,,,,,,,,,,,,,,,,,
25511760,1490486164548,,,,,,,,0.01,0.09,1.0,-3.1,0.4,-0.3,1100,6,,,,,,,,,,,,,,,,,,,
25511780,1490486164568,,,,,,,,0.01,0.08,1.0,-3.2,0.3,-0.3,1140,6,,,,,,,,,,,,,,,,,,,
25511800,1490486164588,,,,,,,,0.01,0.09,0.99,-3.2,0.2,-0.2,1140,6,,,,,,,,,,,,,,,,,,,
25511822,1490486164610,,,,,3,,,0.02,0.08,1.0,-3.2,0.3,-0.2,1160,6,1,0,180.0,0,38.159184,-122.454186,0.0,2.409,26.7,9,3,2.3,134,2.5067,2,0.1833,17.9461,17.8117,135
25511841,1490486164629,,,,,,,,0.01,0.08,0.99,-3.2,0.2,-0.2,1160,6,,,,,,,,,,,,,,,,,,,
25511861,1490486164649,,,,,,,,0.02,0.08,0.99,-3.2,0.2,-0.2,1160,6,,,,,,,,,,,,,,,,,,,
25511881,1490486164669,,,,,,,,0.02,0.08,0.99,-3.2,0.2,-0.3,1180,6,,,,,,,,,,,,,,,,,,,
25511901,1490486164689,,,,,,,,0.02,0.08,0.99,-3.2,0.2,-0.2,1180,6,,,,,,,,,,,,,,,,,,,
25511923,1490486164711,0,135.4,,156.1,3,154.0,,0.01,0.07,0.98,-3.1,0.3,-0.2,1180,6,1,0,193.333,0,38.159184,-122.454186,0.0,2.409,26.7,9,3,2.3,134,2.5067,2,0.1833,17.9477,17.8133,135
25511942,1490486164730,,,,,,,,0.01,0.07,0.98,-3.1,0.3,-0.2,1180,6,,,,,,,,,,,,,,,,,,,
25511962,1490486164750,,,,,,,,0.01,0.07,0.98,-3.1,0.3,-0.3,1180,6,,,,,,,,,,,,,,,,,,,
25511982,1490486164770,,,,,,,,0.01,0.07,0.98,-3.2,0.3,-0.3,1180,6,,,,,,,,,,,,,,,,,,,
25512002,1490486164790,,,,,,,,0.01,0.07,0.98,-3.1,0.3,-0.3,1160,6,,,,,,,,,,,,,,,,,,,
25512024,1490486164812,,,,,3,,,0.01,0.07,0.98,-3.1,0.3,-0.3,1160,6,1,0,196.667,0,38.159184,-122.454186,0.0,2.409,26.7,9,3,2.3,134,2.5067,2,0.1833,17.9494,17.815,135
25512043,1490486164831,,,,,,,,0.01,0.07,0.98,-3.1,0.3,-0.3,1140,6,,,,,,,,,,,,,,,,,,,
25512063,1490486164851,,,,,,,,0.01,0.07,0.98,-3.1,0.3,-0.3,1100,6,,,,,,,,,,,,,,,,,,,
25512083,1490486164871,,,,,,,,0.01,0.07,0.98,-3.1,0.3,-0.3,1100,6,,,,,,,,,,,,,,,,,,,
25512103,1490486164891,,,,,,,,0.01,0.08,0.98,-3.1,0.4,-0.2,1100,6,,,,,,,,,,,,,,,,,,,
25512125,1490486164913,0,136.1,-0.5,156.3,2,153.9,13.78,0.01,0.07,0.99,-3.1,0.4,-0.2,1060,6,1,0,190.0,0,38.159184,-122.454186,0.0,2.409,26.7,9,3,2.3,134,2.5067,2,0.1833,17.9511,17.8167,135
25512144,1490486164932,,,,,,,,0.01,0.07,0.99,-3.1,0.3,-0.2,1060,6,,,,,,,,,,,,,,,,,,,
25512164,1490486164952,,,,,,,,0.01,0.08,0.98,-3.1,0.4,-0.2,1040,6,,,,,,,,,,,,,,,,,,,
25512184,1490486164972,,,,,,,,0.01,0.08,0.98,-3.1,0.4,-0.2,1020,6,,,,,,,,,,,,,,,,,,,
25512204,1490486164992,,,,,,,,0.01,0.08,0.98,-3.2,0.4,-0.2,1020,6,,,,,,,,,,,,,,,,,,,
25512226,1490486165007,,,,,3,,,0.01,0.08,0.99,-3.1,0.5,-0.2,1000,6,1,0,176.667,0,38.159184,-122.454186,0.0,2.409,26.7,9,3,2.3,134,2.5067,2,0.1833,17.9527,17.8183,135
25512245,1490486165026,,,,,,,,0.01,0.08,0.98,-3.1,0.5,-0.2,980,6,,,,,,,,,,,,,,,,,,,
25512265,1490486165046,,,,,,,,0.01,0.08,0.99,-3.1,0.5,-0.2,960,6,,,,,,,,,,,,,,,,,,,
25512285,1490486165066,,,,,,,,0.01,0.09,0.99,-3.1,0.5,-0.2,960,6,,,,,,,,,,,,,,,,,,,
25512305,1490486165092,,,,,,,,0.01,0.09,0.99,-3.1,0.5,-0.2,940,512820,,,,,,,,,,,,,,,,,,,
25512327,1490486165114,0,135.0,,156.1,5,154.3,,0.01,0.09,0.99,-3.1,0.5,-0.2,920,0,1,1,166.667,0,38.159184,-122.454186,0.0,2.409,26.7,9,3,2.3,134,2.5067,2,0.1833,17.9545,17.82,135
25512346,1490486165133,,,,,,,,0.01,0.09,0.99,-3.1,0.5,-0.3,920,0,,,,,,,,,,,,,,,,,,,
25512366,1490486165153,,,,,,,,0.01,0.08,0.98,-3.1,0.4,-0.3,880,0,,,,,,,,,,,,,,,,,,,
25512386,1490486165173,,,,,,,,0.01,0.08,0.99,-3.2,0.4,-0.3,880,0,,,,,,,,,,,,,,,,,,,
25512406,1490486165193,,,,,,,,0.01,0.08,0.99,-3.1,0.4,-0.2,880,0,,,,,,,,,,,,,,,,,,,
25512428,1490486165215,,,,,7,,,0.01,0.08,0.99,-3.1,0.4,-0.2,860,0,1,1,0.0,0,38.159184,-122.454186,0.0,2.409,26.7,9,3,2.3,134,2.5067,2,0.1833,17.9561,17.8217,135
25512447,1490486165234,,,,,,,,0.01,0.08,0.99,-3.1,0.4,-0.2,840,0,,,,,,,,,,,,,,,,,,,
25512467,1490486165254,,,,,,,,0.01,0.08,0.99,-3.0,0.4,-0.2,820,0,,,,,,,,,,,,,,,,,,,
25512487,1490486165274,,,,,,,,0.01,0.08,0.99,-3.0,0.4,-0.2,800,0,,,,,,,,,,,,,,,,,,,
25512507,1490486165294,,,,,,,,0.01,0.08,0.99,-3.0,0.4,-0.2,780,0,,,,,,,,,,,,,,,,,,,
25512529,1490486165316,0,135.8,,156.1,7,154.0,,0.01,0.08,0.99,-3.0,0.4,-0.3,780,0,1,1,0.0,0,38.159184,-122.454186,0.0,2.409,26.7,9,3,2.3,134,2.5067,2,0.1833,17.9578,17.8233,135
25512548,1490486165335,,,,,,,,0.01,0.09,0.98,-3.0,0.4,-0.2,780,0,,,,,,,,,,,,,,,,,,,
25512568,1490486165355,,,,,,,,0.01,0.09,0.98,-3.1,0.4,-0.2,760,0,,,,,,,,,,,,,,,,,,,
25512588,1490486165375,,,,,,,,0.01,0.08,0.98,-3.1,0.3,-0.3,760,0,,,,,,,,,,,,,,,,,,,
25512608,1490486165395,,,,,,,,0.01,0.08,0.98,-3.0,0.3,-0.4,740,0,,,,,,,,,,,,,,,,,,,
25512630,1490486165417,,,,,8,,,0.01,0.08,0.98,-3.0,0.3,-0.3,740,0,1,1,0.0,0,38.159184,-122.454186,0.0,2.409,26.7,9,3,1.9,134,2.5067,2,0.1833,17.9595,17.825,135
25512649,1490486165436,,,,,,,,0.01,0.08,0.98,-3.1,0.3,-0.3,740,0,,,,,,,,,,,,,,,,,,,
25512669,1490486165456,,,,,,,,0.01,0.08,0.98,-3.0,0.3,-0.3,740,0,,,,,,,,,,,,,,,,,,,
25512689,1490486165476,,,,,,,,0.01,0.07,0.98,-3.0,0.4,-0.3,720,0,,,,,,,,,,,,,,,,,,,
25512709,1490486165496,,,,,,,,0.01,0.08,0.98,-3.0,0.4,-0.3,720,0,,,,,,,,,,,,,,,,,,,
25512731,1490486165518,0,135.8,,157.3,10,155.1,,0.01,0.07,0.98,-3.0,0.4,-0.2,720,0,1,1,0.0,0,38.159184,-122.454186,0.0,2.409,26.7,9,3,1.9,134,2.5067,2,0.1833,17.9612,17.8267,135
25512750,1490486165537,,,,,,,,0.01,0.08,0.99,-3.1,0.4,-0.2,720,0,,,,,,,,,,,,,,,,,,,
25512770,1490486165557,,,,,,,,0.01,0.08,0.99,-3.1,0.4,-0.2,720,0,,,,,,,,,,,,,,,,,,,
25512790,1490486165577,,,,,,,,0.01,0.09,0.99,-3.0,0.4,-0.2,700,0,,,,,,,,,,,,,,,,,,,
25512810,1490486165599,,,,,,,,0.01,0.08,0.99,-3.1,0.4,-0.2,700,0,,,,,,,,,,,,,,,,,,,
25512832,1490486165621,,,,,11,,,0.01,0.08,0.99,-3.0,0.3,-0.2,700,0,1,1,0.0,0,38.159184,-122.454186,0.0,2.409,26.7,9,3,2.3,134,2.5067,2,0.1833,17.9629,17.8283,135
25512851,1490486165640,,,,,,,,0.01,0.08,0.99,-3.1,0.4,-0.2,700,0,,,,,,,,,,,,,,,,,,,
25512871,1490486165660,,,,,,,,0.01,0.09,0.99,-3.1,0.4,-0.2,700,0,,,,,,,,,,,,,,,,,,,
25512891,1490486165680,,,,,,,,0.01,0.09,0.99,-3.1,0.4,-0.2,680,0,,,,,,,,,,,,,,,,,,,
25512911,1490486165700,,,,,,,,0.01,0.08,0.99,-3.0,0.4,-0.3,680,0,,,,,,,,,,,,,,,,,,,
25512933,1490486165722,0,135.9,,156.2,12,154.1,,0.01,0.08,0.99,-3.1,0.4,-0.3,680,0,1,1,0.0,0,38.159184,-122.454186,0.0,2.409,26.7,9,3,2.3,134,2.5067,2,0.1833,17.9646,17.83,135
25512952,1490486165741,,,,,,,,0.01,0.08,0.98,-3.1,0.3,-0.3,680,0,,,,,,,,,,,,,,,,,,,
25512972,1490486165761,,,,,,,,0.01,0.07,0.98,-3.1,0.3,-0.3,680,0,,,,,,,,,,,,,,,,,,,
25512992,1490486165781,,,,,,,,0.01,0.08,0.98,-3.1,0.4,-0.3,680,0,,,,,,,,,,,,,,,,,,,
25513012,1490486165801,,,,,,,,0.01,0.08,0.99,-3.1,0.3,-0.2,680,0,,,,,,,,,,,,,,,,,,,
25513034,1490486165823,,,,,12,,,0.01,0.07,0.98,-3.1,0.3,-0.2,680,0,1,1,0.0,0,38.159184,-122.454186,0.0,2.409,26.7,9,3,2.3,134,2.5067,2,0.1833,17.9663,17.8317,135
25513053,1490486165842,,,,,,,,0.01,0.08,0.98,-3.1,0.3,-0.2,680,0,,,,,,,,,,,,,,,,,,,
25513073,1490486165862,,,,,,,,0.01,0.08,0.99,-3.1,0.4,-0.1,680,0,,,,,,,,,,,,,,,,,,,
25513093,1490486165882,,,,,,,,0.01,0.08,0.99,-3.1,0.3,-0.1,680,0,,,,,,,,,,,,,,,,,,,
25513113,1490486165902,,,,,,,,0.01,0.08,0.99,-3.1,0.3,-0.1,680,0,,,,,,,,,,,,,,,,,,,
25513135,1490486165924,0,135.8,-0.7,156.4,13,154.0,13.55,0.01,0.08,0.98,-3.1,0.3,-0.1,680,0,1,1,0.0,0,38.159184,-122.454186,0.0,2.409,26.7,9,3,2.3,134,2.5067,2,0.1833,17.968,17.8333,135
25513154,1490486165943,,,,,,,,0.01,0.08,0.98,-3.1,0.3,-0.2,680,0,,,,,,,,,,,,,,,,,,,
25513174,1490486165963,,,,,,,,0.01,0.07,0.98,-3.1,0.2,-0.3,680,0,,,,,,,,,,,,,,,,,,,
25513194,1490486165983,,,,,,,,0.01,0.08,0.98,-3.1,0.3,-0.3,680,0,,,,,,,,,,,,,,,,,,,
25513214,1490486165994,,,,,,,,0.01,0.08,0.98,-3.1,0.3,-0.3,680,0,,,,,,,,,,,,,,,,,,,
25513236,1490486166016,,,,,13,,,0.01,0.08,0.98,-3.1,0.3,-0.3,700,0,1,1,0.0,0,38.159184,-122.454186,0.0,2.409,26.7,9,3,2.3,134,2.5067,2,0.1833,17.9695,17.835,135
25513255,1490486166035,,,,,,,,0.01,0.07,0.98,-3.1,0.3,-0.3,700,0,,,,,,,,,,,,,,,,,,,
25513275,1490486166055,,,,,,,,0.01,0.08,0.98,-3.1,0.3,-0.3,680,0,,,,,,,,,,,,,,,,,,,
25513295,1490486166075,,,,,,,,0.01,0.08,0.98,-3.1,0.3,-0.3,700,0,,,,,,,,,,,,,,,,,,,
25513315,1490486166099,,,,,,,,0.01,0.07,0.98,-3.1,0.4,-0.3,700,0,,,,,,,,,,,,,,,,,,,
25513337,1490486166121,0,134.9,,156.4,13,154.0,,0.01,0.08,0.98,-3.1,0.4,-0.3,700,0,1,1,0.0,0,38.159184,-122.454186,0.0,2.409,26.7,9,3,2.3,134,2.5067,2,0.1833,17.9712,17.8367,135
25513356,1490486166140,,,,,,,,0.01,0.08,0.98,-3.1,0.3,-0.3,700,0,,,,,,,,,,,,,,,,,,,
25513376,1490486166160,,,,,,,,0.0,0.08,0.98,-3.1,0.3,-0.3,700,0,,,,,,,,,,,,,,,,,,,
25513396,1490486166180,,,,,,,,0.01,0.08,0.98,-3.1,0.3,-0.3,700,0,,,,,,,,,,,,,,,,,,,
25513416,1490486166204,,,,,,,,0.01,0.08,0.98,-3.1,0.3,-0.3,700,0,,,,,,,,,,,,,,,,,,,
25513438,1490486166226,,,,,14,,,0.01,0.08,0.98,-3.1,0.3,-0.3,700,0,1,1,0.0,0,38.159184,-122.454186,0.0,2.409,26.7,9,3,2.3,134,2.5067,2,0.1833,17.973,17.8383,135
25513457,1490486166245,,,,,,,,0.01,0.07,0.98,-3.1,0.3,-0.3,700,0,,,,,,,,,,,,,,,,,,,
25513477,1490486166265,,,,,,,,0.01,0.07,0.98,-3.1,0.3,-0.3,700,0,,,,,,,,,,,,,,,,,,,
25513497,1490486166285,,,,,,,,0.01,0.07,0.98,-3.1,0.3,-0.2,700,0,,,,,,,,,,,,,,,,,,,
25513517,1490486166305,,,,,,,,0.01,0.07,0.98,-3.1,0.3,-0.2,700,0,,,,,,,,,,,,,,,,,,,
25513539,1490486166327,0,136.2,,157.5,15,154.7,,0.01,0.08,0.98,-3.1,0.3,-0.2,700,0,1,1,0.0,0,38.159184,-122.454186,0.0,2.409,26.7,9,3,2.3,134,2.5067,2,0.1833,17.9747,17.84,135
25513558,1490486166346,,,,,,,,0.01,0.08,0.99,-3.1,0.3,-0.2,700,0,,,,,,,,,,,,,,,,,,,
25513578,1490486166366,,,,,,,,0.01,0.08,0.99,-3.1,0.4,-0.2,700,0,,,,,,,,,,,,,,,,,,,
25513598,1490486166386,,,,,,,,0.01,0.08,0.99,-3.1,0.3,-0.2,700,0,,,,,,,,,,,,,,,,,,,
25513618,1490486166406,,,,,,,,0.02,0.09,0.99,-3.1,0.4,-0.1,700,0,,,,,,,,,,,,,,,,,,,
25513640,1490486166428,,,,,16,,,0.02,0.09,0.99,-3.1,0.3,-0.1,700,0,1,1,0.0,0,38.159184,-122.454186,0.0,2.409,26.7,9,3,1.9,134,2.5067,2,0.1833,17.9764,17.8417,135
25513659,1490486166447,,,,,,,,0.02,0.08,0.99,-3.1,0.3,-0.2,700,0,,,,,,,,,,,,,,,,,,,
25513679,1490486166467,,,,,,,,0.02,0.08,0.99,-3.1,0.4,-0.2,700,0,,,,,,,,,,,,,,,,,,,
25513699,1490486166487,,,,,,,,0.02,0.08,0.99,-3.1,0.3,-0.2,700,0,,,,,,,,,,,,,,,,,,,
25513719,1490486166507,,,,,,,,0.02,0.09,0.99,-3.1,0.3,-0.2,700,0,,,,,,,,,,,,,,,,,,,
25513741,1490486166529,0,136.2,,157.6,16,155.1,,0.02,0.09,0.99,-3.1,0.3,-0.2,700,0,1,1,0.0,0,38.159184,-122.454186,0.0,2.409,26.7,9,3,1.9,134,2.5067,2,0.1833,17.978,17.8433,135
25513760,1490486166548,,,,,,,,0.02,0.09,0.99,-3.1,0.3,-0.2,700,0,,,,,,,,,,,,,,,,,,,
25513780,1490486166568,,,,,,,,0.02,0.09,0.99,-3.1,0.3,-0.2,700,0,,,,,,,,,,,,,,,,,,,
25513800,1490486166588,,,,,,,,0.01,0.08,0.99,-3.1,0.3,-0.2,700,0,,,,,,,,,,,,,,,,,,,
25513820,1490486166608,,,,,,,,0.01,0.08,0.99,-3.1,0.3,-0.2,700,0,,,,,,,,,,,,,,,,,,,
25513842,1490486166630,,,,,16,,,0.01,0.08,0.99,-3.1,0.3,-0.2,700,0,1,1,0.0,0,38.159184,-122.454186,0.0,2.409,26.7,9,3,2.3,134,2.5067,2,0.1833,17.9797,17.845,135
25513861,1490486166649,,,,,,,,0.01,0.09,0.95,-3.1,0.7,-0.3,700,0,,,,,,,,,,,,,,,,,,,
25513881,1490486166669,,,,,,,,-0.08,0.23,0.89,-3.1,2.8,0.2,700,0,,,,,,,,,,,,,,,,,,,
25513901,1490486166689,,,,,,,,-0.03,0.27,1.0,-3.6,1.9,-0.3,700,0,,,,,,,,,,,,,,,,,,,
25513921,1490486166709,,,,,,,,-0.13,0.22,1.01,-3.5,0.4,-0.0,700,0,,,,,,,,,,,,,,,,,,,
25513943,1490486166731,0,136.3,,157.7,16,155.2,,-0.09,0.21,1.04,-3.3,1.3,0.0,700,0,1,1,0.0,0,38.159184,-122.454186,0.0,2.409,26.7,9,3,2.3,134,2.5067,2,0.1833,17.9814,17.8467,135
25513962,1490486166750,,,,,,,,-0.08,0.2,0.98,-3.1,2.1,0.2,700,0,,,,,,,,,,,,,,,,,,,
25513982,1490486166770,,,,,,,,-0.07,0.17,1.0,-3.0,1.7,0.4,700,0,,,,,,,,,,,,,,,,,,,
25514002,1490486166790,,,,,,,,-0.05,0.17,1.0,-3.0,1.3,0.1,700,0,,,,,,,,,,,,,,,,,,,
25514022,1490486166810,,,,,,,,-0.04,0.15,0.98,-2.9,1.2,0.0,700,0,,,,,,,,,,,,,,,,,,,
25514044,1490486166832,,,,,16,,,-0.04,0.17,0.97,-3.1,1.0,-0.0,700,0,1,1,0.0,0,38.159184,-122.454186,0.0,2.409,26.7,9,3,2.3,134,2.5067,2,0.1833,17.9831,17.8483,135
25514063,1490486166851,,,,,,,,-0.03,0.15,0.98,-3.2,1.2,-0.1,700,0,,,,,,,,,,,,,,,,,,,
25514083,1490486166871,,,,,,,,-0.02,0.15,0.98,-3.2,1.1,-0.1,700,0,,,,,,,,,,,,,,,,,,,
25514103,1490486166891,,,,,,,,-0.02,0.15,0.98,-3.2,0.9,-0.1,700,0,,,,,,,,,,,,,,,,,,,
25514123,1490486166911,,,,,,,,-0.02,0.15,0.99,-3.3,1.0,-0.1,700,0,,,,,,,,,,,,,,,,,,,
25514145,1490486166933,0,136.1,-0.3,157.6,16,154.5,13.78,-0.02,0.14,0.99,-3.2,0.9,-0.2,700,0,1,1,0.0,0,38.159184,-122.454186,0.0,2.409,26.7,9,3,2.3,134,2.5067,2,0.1833,17.9848,17.85,135
25514164,1490486166952,,,,,,,,-0.01,0.13,0.99,-3.1,1.0,-0.2,700,0,,,,,,,,,,,,,,,,,,,
25514184,1490486166972,,,,,,,,-0.01,0.13,0.98,-3.1,0.8,-0.2,700,0,,,,,,,,,,,,,,,,,,,
25514204,1490486166992,,,,,,,,-0.01,0.13,0.98,-3.1,0.9,-0.1,700,0,,,,,,,,,,,,,,,,,,,
25514224,1490486167005,,,,,,,,-0.0,0.11,0.98,-3.1,0.8,-0.1,700,0,,,,,,,,,,,,,,,,,,,
25514246,1490486167027,,,,,16,,,-0.0,0.11,0.99,-3.1,0.7,-0.1,700,0,1,1,0.0,0,38.159184,-122.454186,0.0,2.409,26.7,9,3,2.3,134,2.5067,2,0.1833,17.9863,17.8517,135
25514265,1490486167046,,,,,,,,0.0,0.12,0.99,-3.2,0.7,-0.1,680,0,,,,,,,,,,,,,,,,,,,
25514285,1490486167066,,,,,,,,-0.0,0.12,0.98,-3.2,0.6,-0.1,700,0,,,,,,,,,,,,,,,,,,,
25514305,1490486167092,,,,,,,,-0.0,0.11,0.98,-3.2,0.6,-0.1,700,0,,,,,,,,,,,,,,,,,,,
25514325,1490486167112,,,,,,,,-0.0,0.11,0.98,-3.2,0.5,-0.1,700,0,,,,,,,,,,,,,,,,,,,
25514347,1490486167134,0,136.3,,158.0,17,155.1,,-0.01,0.11,0.98,-3.2,0.5,-0.2,700,0,1,1,0.0,0,38.159184,-122.454186,0.0,2.409,26.7,9,3,2.3,134,2.5067,2,0.1833,17.9881,17.8533,135
25514366,1490486167153,,,,,,,,-0.0,0.1,0.99,-3.1,0.4,-0.2,700,0,,,,,,,,,,,,,,,,,,,
25514386,1490486167173,,,,,,,,0.0,0.1,0.99,-3.1,0.4,-0.2,700,0,,,,,,,,,,,,,,,,,,,
25514406,1490486167195,,,,,,,,0.01,0.1,0.99,-3.1,0.4,-0.2,680,0,,,,,,,,,,,,,,,,,,,
25514426,1490486167215,,,,,,,,0.01,0.09,0.99,-3.1,0.4,-0.2,700,0,,,,,,,,,,,,,,,,,,,
25514448,1490486167237,,,,,17,,,0.01,0.09,0.99,-3.1,0.5,-0.2,700,0,1,1,0.0,0,38.159184,-122.454186,0.0,2.409,26.7,9,3,2.3,134,2.5067,2,0.1833,17.9898,17.855,135
25514467,1490486167256,,,,,,,,0.01,0.09,0.99,-3.1,0.4,-0.1,700,0,,,,,,,,,,,,,,,,,,,
25514487,1490486167276,,,,,,,,0.01,0.09,0.99,-3.1,0.4,-0.1,700,0,,,,,,,,,,,,,,,,,,,
25514507,1490486167296,,,,,,,,0.0,0.09,0.99,-3.1,0.4,-0.2,700,0,,,,,,,,,,,,,,,,,,,
25514527,1490486167316,,,,,,,,0.0,0.09,0.99,-3.1,0.3,-0.1,700,0,,,,,,,,,,,,,,,,,,,
25514549,1490486167338,0,136.0,,157.8,16,155.1,,0.0,0.09,0.99,-3.1,0.3,-0.1,700,0,1,1,0.0,0,38.159184,-122.454186,0.0,2.409,26.7,9,3,2.3,134,2.5067,2,0.1833,17.9915,17.8567,135
25514568,1490486167357,,,,,,,,0.0,0.08,0.98,-3.1,0.2,-0.2,700,0,,,,,,,,,,,,,,,,,,,
25514588,1490486167377,,,,,,,,-0.01,0.09,0.99,-3.2,0.4,-0.1,700,0,,,,,,,,,,,,,,,,,,,
25514608,1490486167397,,,,,,,,0.0,0.09,0.98,-3.1,0.1,-0.2,700,0,,,,,,,,,,,,,,,,,,,
25514628,1490486167417,,,,,,,,-0.0,0.09,0.98,-3.0,0.0,-0.3,700,0,,,,,,,,,,,,,,,,,,,
25514650,1490486167439,,,,,16,,,0.0,0.09,0.98,-3.0,0.2,-0.3,700,0,1,1,0.0,0,38.159184,-122.454186,0.0,2.409,26.7,9,3,1.9,134,2.5067,2,0.1833,17.9932,17.8583,135
25514669,1490486167458,,,,,,,,0.01,0.09,0.98,-3.1,0.2,-0.3,700,0,,,,,,,,,,,,,,,,,,,
25514689,1490486167478,,,,,,,,0.01,0.09,0.98,-3.1,0.2,-0.2,700,0,,,,,,,,,,,,,,,,,,,
25514709,1490486167496,,,,,,,,0.01,0.09,0.99,-3.1,0.1,-0.2,700,0,,,,,,,,,,,,,,,,,,,
25514729,1490486167516,,,,,,,,0.01,0.09,0.99,-3.1,0.2,-0.2,700,0,,,,,,,,,,,,,,,,,,,
25514751,1490486167538,0,136.1,,157.9,17,154.9,,0.01,0.09,0.99,-3.2,0.2,-0.2,700,0,1,1,0.0,0,38.159184,-122.454186,0.0,2.409,26.7,9,3,1.9,134,2.5067,2,0.1833,17.9949,17.86,135
25514770,1490486167557,,,,,,,,0.01,0.08,0.99,-3.1,0.3,-0.3,700,0,,,,,,,,,,,,,,,,,,,
25514790,1490486167577,,,,,,,,0.01,0.08,0.99,-3.1,0.3,-0.3,700,0,,,,,,,,,,,,,,,,,,,
25514810,1490486167599,,,,,,,,0.01,0.08,0.99,-3.1,0.3,-0.2,700,0,,,,,,,,,,,,,,,,,,,
25514830,1490486167619,,,,,,,,0.01,0.08,0.99,-3.1,0.3,-0.1,700,0,,,,,,,,,,,,,,,,,,,
25514852,1490486167641,,,,,16,,,0.01,0.08,0.99,-3.0,0.2,-0.2,700,0,1,1,0.0,0,38.159184,-122.454186,0.0,2.409,26.7,9,3,2.3,134,2.5067,2,0.1833,17.9966,17.8617,135
25514871,1490486167660,,,,,,,,0.01,0.08,0.99,-3.1,0.3,-0.1,700,0,,,,,,,,,,,,,,,,,,,
25514891,1490486167680,,,,,,,,0.01,0.09,0.99,-3.1,0.2,-0.2,700,0,,,,,,,,,,,,,,,,,,,
25514911,1490486167700,,,,,,,,0.01,0.08,0.99,-3.1,0.2,-0.2,700,0,,,,,,,,,,,,,,,,,,,
25514931,1490486167720,,,,,,,,0.01,0.08,0.99,-3.1,0.3,-0.3,700,0,,,,,,,,,,,,,,,,,,,
25514953,1490486167742,0,135.9,,157.3,17,153.9,,0.02,0.09,0.99,-3.1,0.3,-0.2,700,0,1,1,0.0,0,38.159184,-122.454186,0.0,2.409,26.7,9,3,2.3,134,2.5067,2,0.1833,17.9982,17.8633,135
25514972,1490486167761,,,,,,,,0.02,0.08,0.99,-3.1,0.3,-0.2,680,0,,,,,,,,,,,,,,,,,,,
25514992,1490486167781,,,,,,,,0.01,0.07,0.99,-3.1,0.3,-0.3,700,0,,,,,,,,,,,,,,,,,,,
25515012,1490486167801,,,,,,,,0.01,0.08,0.99,-3.1,0.3,-0.3,700,0,,,,,,,,,,,,,,,,,,,
25515032,1490486167821,,,,,,,,0.01,0.08,0.99,-3.1,0.4,-0.2,700,0,,,,,,,,,,,,,,,,,,,
25515054,1490486167843,,,,,17,,,0.01,0.08,0.99,-3.0,0.3,-0.3,700,0,1,1,0.0,0,38.159184,-122.454186,0.0,2.409,26.7,9,3,2.3,134,2.5067,2,0.1833,17.9999,17.865,135
25515073,1490486167862,,,,,,,,0.01,0.08,0.98,-3.0,0.3,-0.3,700,0,,,,,,,,,,,,,,,,,,,
25515093,1490486167882,,,,,,,,0.01,0.08,0.98,-3.0,0.3,-0.2,700,0,,,,,,,,,,,,,,,,,,,
25515113,1490486167902,,,,,,,,0.0,0.08,0.98,-3.1,0.3,-0.2,700,0,,,,,,,,,,,,,,,,,,,
25515133,1490486167922,,,,,,,,0.0,0.07,0.98,-3.1,0.3,-0.2,700,0,,,,,,,,,,,,,,,,,,,
25515155,1490486167944,0,136.3,-0.2,158.1,17,155.0,13.93,0.01,0.07,0.98,-3.1,0.3,-0.2,700,0,1,1,0.0,0,38.159184,-122.454186,0.0,2.409,26.7,9,3,2.3,134,2.5067,2,0.1833,18.0016,17.8667,135
25515174,1490486167963,,,,,,,,0.01,0.08,0.98,-3.1,0.3,-0.2,700,0,,,,,,,,,,,,,,,,,,,
25515194,1490486167983,,,,,,,,0.01,0.08,0.98,-3.1,0.2,-0.3,700,0,,,,,,,,,,,,,,,,,,,
25515214,1490486167996,,,,,,,,0.01,0.08,0.98,-3.1,0.3,-0.3,700,0,,,,,,,,,,,,,,,,,,,
25515234,1490486168016,,,,,,,,0.01,0.08,0.98,-3.1,0.3,-0.2,680,0,,,,,,,,,,,,,,,,,,,
25515256,1490486168038,,,,,18,,,0.01,0.08,0.98,-3.1,0.3,-0.2,700,0,1,1,0.0,0,38.159184,-122.454186,0.0,2.409,26.7,9,3,2.3,134,2.5067,2,0.1833,18.0032,17.8683,135
25515275,1490486168057,,,,,,,,0.01,0.07,0.98,-3.0,0.3,-0.3,700,0,,,,,,,,,,,,,,,,,,,
25515295,1490486168077,,,,,,,,0.01,0.08,0.98,-3.1,0.3,-0.2,700,0,,,,,,,,,,,,,,,,,,,
25515315,1490486168103,,,,,,,,0.01,0.08,0.98,-3.1,0.3,-0.2,700,0,,,,,,,,,,,,,,,,,,,
25515335,1490486168123,,,,,,,,0.01,0.08,0.98,-3.1,0.3,-0.2,700,0,,,,,,,,,,,,,,,,,,,
25515357,1490486168145,0,136.0,,157.6,17,154.1,,0.01,0.08,0.98,-3.1,0.3,-0.2,700,0,1,1,0.0,0,38.159184,-122.454186,0.0,2.409,26.7,9,3,2.3,134,2.5067,2,0.1833,18.005,17.87,135
25515376,1490486168164,,,,,,,,0.01,0.08,0.98,-3.1,0.3,-0.2,700,0,,,,,,,,,,,,,,,,,,,
25515396,1490486168184,,,,,,,,0.01,0.08,0.98,-3.1,0.3,-0.2,700,0,,,,,,,,,,,,,,,,,,,
25515416,1490486168204,,,,,,,,0.01,0.08,0.98,-3.1,0.3,-0.2,700,0,,,,,,,,,,,,,,,,,,,
25515436,1490486168224,,,,,,,,0.01,0.08,0.98,-3.1,0.3,-0.2,700,0,,,,,,,,,,,,,,,,,,,
25515458,1490486168246,,,,,16,,,0.01,0.08,0.98,-3.1,0.3,-0.2,700,0,1,1,0.0,0,38.159184,-122.454186,0.0,2.409,26.7,9,3,2.3,134,2.5067,2,0.1833,18.0067,17.8717,135
25515477,1490486168265,,,,,,,,0.01,0.08,0.98,-3.1,0.2,-0.3,700,0,,,,,,,,,,,,,,,,,,,
25515497,1490486168285,,,,,,,,0.01,0.08,0.98,-3.1,0.3,-0.2,700,0,,,,,,,,,,,,,,,,,,,
25515517,1490486168305,,,,,,,,0.01,0.08,0.98,-3.1,0.3,-0.2,700,0,,,,,,,,,,,,,,,,,,,
25515537,1490486168325,,,,,,,,0.01,0.08,0.98,-3.1,0.3,-0.2,700,0,,,,,,,,,,,,,,,,,,,
25515559,1490486168347,0,136.0,,157.5,17,154.1,,0.01,0.07,0.99,-3.1,0.4,-0.2,700,0,1,1,0.0,0,38.159184,-122.454186,0.0,2.409,26.7,9,3,2.3,134,2.5067,2,0.1833,18.0083,17.8733,135
25515578,1490486168366,,,,,,,,0.01,0.08,0.98,-3.1,0.3,-0.2,700,0,,,,,,,,,,,,,,,,,,,
25515598,1490486168386,,,,,,,,0.01,0.08,0.98,-3.1,0.3,-0.2,700,0,,,,,,,,,,,,,,,,,,,
25515618,1490486168406,,,,,,,,0.01,0.07,0.98,-3.0,0.2,-0.2,700,0,,,,,,,,,,,,,,,,,,,
25515638,1490486168426,,,,,,,,0.01,0.08,0.98,-3.1,0.2,-0.2,700,0,,,,,,,,,,,,,,,,,,,
25515660,1490486168448,,,,,17,,,0.01,0.08,0.99,-3.1,0.2,-0.2,700,0,1,1,0.0,0,38.159184,-122.454186,0.0,2.409,26.7,9,3,1.9,134,2.5067,2,0.1833,18.01,17.875,135
25515679,1490486168467,,,,,,,,0.01,0.08,0.99,-3.1,0.2,-0.2,700,0,,,,,,,,,,,,,,,,,,,
25515699,1490486168487,,,,,,,,0.01,0.07,0.99,-3.1,0.3,-0.2,700,0,,,,,,,,,,,,,,,,,,,
25515719,1490486168507,,,,,,,,0.01,0.08,0.99,-3.1,0.3,-0.2,700,0,,,,,,,,,,,,,,,,,,,
25515739,1490486168527,,,,,,,,0.01,0.08,0.99,-3.1,0.3,-0.2,700,0,,,,,,,,,,,,,,,,,,,
25515761,1490486168549,0,135.1,,157.3,16,154.4,,0.01,0.07,0.98,-3.1,0.2,-0.2,700,0,1,1,0.0,0,38.159184,-122.454186,0.0,2.409,26.7,9,3,1.9,134,2.5067,2,0.1833,18.0117,17.8767,135
25515780,1490486168568,,,,,,,,0.01,0.07,0.98,-3.1,0.3,-0.2,700,0,,,,,,,,,,,,,,,,,,,
25515800,1490486168588,,,,,,,,0.01,0.08,0.99,-3.1,0.3,-0.2,680,0,,,,,,,,,,,,,,,,,,,
25515820,1490486168608,,,,,,,,0.01,0.07,0.99,-3.1,0.3,-0.2,680,0,,,,,,,,,,,,,,,,,,,
25515840,1490486168628,,,,,,,,0.0,0.08,0.99,-3.1,0.3,-0.2,680,0,,,,,,,,,,,,,,,,,,,
25515862,1490486168650,,,,,17,,,0.0,0.08,0.99,-3.1,0.3,-0.2,680,0,1,1,0.0,0,38.159184,-122.454186,0.0,2.409,26.7,9,3,2.3,134,2.5067,2,0.1833,18.0134,17.8783,135
25515881,1490486168669,,,,,,,,0.0,0.08,0.98,-3.1,0.2,-0.2,680,0,,,,,,,,,,,,,,,,,,,
25515901,1490486168689,,,,,,,,0.0,0.07,0.98,-3.1,0.2,-0.2,680,0,,,,,,,,,,,,,,,,,,,
25515921,1490486168709,,,,,,,,0.01,0.07,0.98,-3.1,0.2,-0.2,680,0,,,,,,,,,,,,,,,,,,,
25515941,1490486168729,,,,,,,,0.01,0.08,0.98,-3.1,0.2,-0.2,680,0,,,,,,,,,,,,,,,,,,,
25515963,1490486168751,0,135.2,,157.6,16,154.6,,0.01,0.07,0.98,-3.1,0.2,-0.3,680,0,1,1,0.0,0,38.159184,-122.454186,0.0,2.409,26.7,9,3,2.3,134,2.5067,2,0.1833,18.0151,17.88,135
25515982,1490486168770,,,,,,,,0.01,0.07,0.98,-3.1,0.3,-0.2,680,0,,,,,,,,,,,,,,,,,,,
25516002,1490486168790,,,,,,,,0.01,0.08,0.99,-3.1,0.3,-0.2,680,0,,,,,,,,,,,,,,,,,,,
25516022,1490486168810,,,,,,,,0.01,0.08,0.99,-3.1,0.3,-0.2,680,0,,,,,,,,,,,,,,,,,,,
25516042,1490486168830,,,,,,,,0.01,0.08,0.99,-3.1,0.3,-0.2,680,0,,,,,,,,,,,,,,,,,,,
25516064,1490486168852,,,,,16,,,0.01,0.08,0.99,-3.1,0.3,-0.2,680,0,1,1,0.0,0,38.159184,-122.454186,0.0,2.409,26.7,9,3,2.3,134,2.5067,2,0.1833,18.0168,17.8817,135
25516083,1490486168871,,,,,,,,0.01,0.08,0.99,-3.1,0.2,-0.2,680,0,,,,,,,,,,,,,,,,,,,
25516103,1490486168891,,,,,,,,0.01,0.07,0.99,-3.1,0.3,-0.3,680,0,,,,,,,,,,,,,,,,,,,
25516123,1490486168911,,,,,,,,0.01,0.08,0.97,-3.1,0.1,-0.2,680,0,,,,,,,,,,,,,,,,,,,
25516143,1490486168931,,,,,,,,0.01,0.07,0.98,-3.1,0.0,-0.1,680,0,,,,,,,,,,,,,,,,,,,
25516165,1490486168953,0,136.1,-0.1,158.4,16,155.1,13.99,-0.0,0.06,0.98,-3.1,-0.1,-0.1,680,0,1,1,0.0,0,38.159184,-122.454186,0.0,2.409,26.7,9,3,2.3,134,2.5067,2,0.1833,18.0184,17.8833,135
25516184,1490486168972,,,,,,,,0.0,0.06,0.98,-3.1,-0.1,-0.2,680,0,,,,,,,,,,,,,,,,,,,
25516204,1490486168992,,,,,,,,0.01,0.07,0.98,-3.1,0.0,-0.2,700,0,,,,,,,,,,,,,,,,,,,
25516224,1490486169005,,,,,,,,0.01,0.07,0.98,-3.1,0.0,-0.2,700,0,,,,,,,,,,,,,,,,,,,
25516244,1490486169025,,,,,,,,0.01,0.07,0.98,-3.1,0.1,-0.2,700,0,,,,,,,,,,,,,,,,,,,
25516266,1490486169047,,,,,16,,,0.01,0.07,0.98,-3.2,0.1,-0.1,700,0,1,1,0.0,0,38.159184,-122.454186,0.0,2.409,26.7,9,3,2.3,134,2.5067,2,0.1833,18.02,17.885,135
25516285,1490486169066,,,,,,,,0.01,0.07,0.98,-3.2,0.0,-0.2,700,0,,,,,,,,,,,,,,,,,,,
25516305,1490486169092,,,,,,,,0.0,0.06,0.98,-3.2,0.1,-0.2,700,0,,,,,,,,,,,,,,,,,,,
25516325,1490486169112,,,,,,,,0.01,0.07,0.98,-3.2,0.1,-0.2,700,0,,,,,,,,,,,,,,,,,,,
25516345,1490486169132,,,,,,,,0.0,0.07,0.98,-3.2,0.1,-0.2,680,0,,,,,,,,,,,,,,,,,,,
25516367,1490486169154,0,136.1,,158.0,18,153.9,,0.0,0.07,0.98,-3.1,0.1,-0.2,700,0,1,1,0.0,0,38.159184,-122.454186,0.0,2.409,26.7,9,3,2.3,134,2.5067,2,0.1833,18.0218,17.8867,135
25516386,1490486169173,,,,,,,,0.0,0.07,0.98,-3.1,0.2,-0.2,700,0,,,,,,,,,,,,,,,,,,,
25516406,1490486169193,,,,,,,,0.0,0.08,0.98,-3.1,0.1,-0.2,700,0,,,,,,,,,,,,,,,,,,,
25516426,1490486169213,,,,,,,,-0.0,0.08,0.98,-3.1,0.1,-0.2,700,0,,,,,,,,,,,,,,,,,,,
25516446,1490486169233,,,,,,,,-0.0,0.07,0.98,-3.1,0.2,-0.2,700,0,,,,,,,,,,,,,,,,,,,
25516468,1490486169255,,,,,17,,,0.0,0.08,0.98,-3.1,0.3,-0.2,700,0,1,1,0.0,0,38.159184,-122.454186,0.0,2.409,26.7,9,3,2.3,134,2.5067,2,0.1833,18.0235,17.8883,135
25516487,1490486169274,,,,,,,,0.0,0.08,0.98,-3.1,0.2,-0.2,700,0,,,,,,,,,,,,,,,,,,,
25516507,1490486169296,,,,,,,,0.0,0.08,0.99,-3.1,0.1,-0.2,680,0,,,,,,,,,,,,,,,,,,,
25516527,1490486169316,,,,,,,,-0.01,0.08,1.0,-3.1,0.5,-0.3,680,2,,,,,,,,,,,,,,,,,,,
25516547,1490486169336,,,,,,,,-0.01,0.09,1.0,-3.2,0.6,-0.3,700,103,,,,,,,,,,,,,,,,,,,
25516569,1490486169358,0,135.2,,157.4,17,153.9,,-0.01,0.09,0.96,-3.1,0.5,-0.3,700,85,1,1,0.0,0,38.159184,-122.454186,0.0,2.409,26.7,9,3,2.3,134,2.5067,2,0.1833,18.0252,17.89,135
25516588,1490486169377,,,,,,,,0.0,0.08,0.97,-3.0,0.4,-0.3,700,85,,,,,,,,,,,,,,,,,,,
25516608,1490486169395,,,,,,,,0.0,0.08,0.97,-3.1,0.3,-0.3,680,58,,,,,,,,,,,,,,,,,,,
25516628,1490486169415,,,,,,,,0.0,0.09,0.97,-3.1,0.4,-0.3,680,65,,,,,,,,,,,,,,,,,,,
25516648,1490486169435,,,,,,,,-0.0,0.09,0.97,-3.0,0.4,-0.3,680,57,,,,,,,,,,,,,,,,,,,
25516670,1490486169457,,,,,18,,,-0.01,0.1,0.97,-3.1,0.4,-0.3,680,57,1,1,8.333,0,38.159184,-122.454186,0.0,2.409,26.7,9,3,1.9,134,2.5067,2,0.1833,18.0268,17.8917,135
25516689,1490486169476,,,,,,,,0.0,0.1,0.97,-3.1,0.3,-0.2,680,57,,,,,,,,,,,,,,,,,,,
25516709,1490486169496,,,,,,,,0.0,0.1,0.97,-3.1,0.4,-0.3,680,57,,,,,,,,,,,,,,,,,,,
25516729,1490486169516,,,,,,,,0.0,0.1,0.97,-3.1,0.3,-0.2,680,46,,,,,,,,,,,,,,,,,,,
25516749,1490486169536,,,,,,,,0.01,0.09,0.97,-3.1,0.2,-0.2,680,46,,,,,,,,,,,,,,,,,,,
25516771,1490486169558,0,136.2,,158.6,18,154.5,,0.01,0.09,0.98,-3.1,0.3,-0.2,680,46,1,1,12.143,0,38.159184,-122.454186,0.0,2.409,26.7,9,3,1.9,134,2.5067,2,0.1833,18.0285,17.8933,135
25516790,1490486169577,,,,,,,,0.01,0.08,0.98,-3.0,0.2,-0.3,680,46,,,,,,,,,,,,,,,,,,,
25516810,1490486169599,,,,,,,,0.01,0.09,0.98,-3.0,0.2,-0.3,700,17,,,,,,,,,,,,,,,,,,,
25516830,1490486169619,,,,,,,,0.01,0.09,0.98,-3.0,0.1,-0.2,680,17,,,,,,,,,,,,,,,,,,,
25516850,1490486169639,,,,,,,,0.01,0.08,0.98,-3.0,0.1,-0.3,700,17,,,,,,,,,,,,,,,,,,,
25516872,1490486169661,,,,,17,,,0.01,0.09,0.98,-3.1,0.3,-0.3,700,17,1,1,14.783,0,38.159184,-122.454186,0.0,2.409,26.7,9,3,2.3,134,2.5067,2,0.1833,18.0302,17.895,135
25516891,1490486169680,,,,,,,,0.01,0.09,0.98,-3.1,0.3,-0.2,680,17,,,,,,,,,,,,,,,,,,,
25516911,1490486169700,,,,,,,,0.0,0.09,0.98,-3.1,0.3,-0.2,700,17,,,,,,,,,,,,,,,,,,,
25516931,1490486169720,,,,,,,,0.0,0.09,0.98,-3.1,0.3,-0.2,700,17,,,,,,,,,,,,,,,,,,,
25516951,1490486169740,,,,,,,,0.0,0.09,0.99,-3.1,0.3,-0.2,680,17,,,,,,,,,,,,,,,,,,,
25516973,1490486169762,0,136.1,,158.2,17,154.0,,0.0,0.09,0.98,-3.1,0.2,-0.2,700,17,1,1,43.75,0,38.159184,-122.454186,0.0,2.409,26.7,9,3,2.3,134,2.5067,2,0.1833,18.0319,17.8967,135
25516992,1490486169781,,,,,,,,0.0,0.08,0.99,-3.0,0.2,-0.2,680,17,,,,,,,,,,,,,,,,,,,
25517012,1490486169799,,,,,,,,0.01,0.08,0.99,-3.0,0.2,-0.2,680,17,,,,,,,,,,,,,,,,,,,
25517032,1490486169819,,,,,,,,0.01,0.09,0.99,-3.0,0.3,-0.2,680,17,,,,,,,,,,,,,,,,,,,
25517052,1490486169839,,,,,,,,0.01,0.08,0.99,-3.0,0.2,-0.3,680,17,,,,,,,,,,,,,,,,,,,
25517074,1490486169861,,,,,16,,,0.01,0.08,0.99,-3.0,0.3,-0.2,680,17,1,1,43.75,0,38.159184,-122.454186,0.0,2.409,26.7,9,3,2.3,134,2.5067,2,0.1833,18.0336,17.8983,135
25517093,1490486169880,,,,,,,,0.01,0.08,0.99,-3.1,0.3,-0.2,680,17,,,,,,,,,,,,,,,,,,,
25517113,1490486169900,,,,,,,,0.01,0.08,0.99,-3.1,0.3,-0.2,680,17,,,,,,,,,,,,,,,,,,,
25517133,1490486169920,,,,,,,,0.01,0.08,0.99,-3.1,0.3,-0.3,680,17,,,,,,,,,,,,,,,,,,,
25517153,1490486169940,,,,,,,,0.01,0.08,0.98,-3.1,0.4,-0.3,680,17,,,,,,,,,,,,,,,,,,,
25517175,1490486169962,0,135.2,-0.4,157.8,16,154.3,14.11,0.01,0.08,0.98,-3.1,0.3,-0.3,680,17,1,1,42.5,0,38.159184,-122.454186,0.0,2.409,26.7,9,3,2.3,134,2.5067,2,0.1833,18.0352,17.9,135
25517194,1490486169981,,,,,,,,0.01,0.07,0.98,-3.1,0.2,-0.3,680,17,,,,,,,,,,,,,,,,,,,
25517214,1490486169994,,,,,,,,0.01,0.08,0.98,-3.1,0.3,-0.3,680,17,,,,,,,,,,,,,,,,,,,
25517234,1490486170014,,,,,,,,0.01,0.09,0.98,-3.1,0.4,-0.2,680,17,,,,,,,,,,,,,,,,,,,
25517254,1490486170034,,,,,,,,0.01,0.08,0.99,-3.1,0.4,-0.2,680,17,,,,,,,,,,,,,,,,,,,
25517276,1490486170056,,,,,17,,,0.01,0.08,0.99,-3.1,0.4,-0.3,680,17,1,1,42.5,0,38.159184,-122.454186,0.0,2.409,26.7,9,3,2.3,134,2.5067,2,0.1833,18.0368,17.9017,135
25517295,1490486170075,,,,,,,,0.01,0.08,0.99,-3.1,0.4,-0.3,680,17,,,,,,,,,,,,,,,,,,,
25517315,1490486170103,,,,,,,,0.0,0.08,0.99,-3.1,0.4,-0.3,680,17,,,,,,,,,,,,,,,,,,,
25517335,1490486170123,,,,,,,,0.0,0.07,0.99,-3.1,0.3,-0.3,680,17,,,,,,,,,,,,,,,,,,,
25517355,1490486170143,,,,,,,,0.0,0.08,0.98,-3.1,0.3,-0.3,680,17,,,,,,,,,,,,,,,,,,,
25517377,1490486170165,0,135.4,,157.9,17,153.8,,0.0,0.08,0.98,-3.1,0.3,-0.2,680,17,1,1,42.5,0,38.159184,-122.454186,0.0,2.409,26.7,9,3,2.3,134,2.5067,2,0.1833,18.0386,17.9033,135
25517396,1490486170184,,,,,,,,0.0,0.07,0.99,-3.1,0.2,-0.3,680,17,,,,,,,,,,,,,,,,,,,
25517416,1490486170204,,,,,,,,0.01,0.08,0.99,-3.1,0.3,-0.3,680,17,,,,,,,,,,,,,,,,,,,
25517436,1490486170224,,,,,,,,0.01,0.08,0.99,-3.1,0.3,-0.2,680,17,,,,,,,,,,,,,,,,,,,
25517456,1490486170244,,,,,,,,0.01,0.08,0.99,-3.1,0.3,-0.3,680,17,,,,,,,,,,,,,,,,,,,
25517478,1490486170266,,,,,17,,,0.01,0.08,0.99,-3.1,0.3,-0.3,680,17,1,1,42.5,0,38.159184,-122.454186,0.0,2.409,26.7,9,3,2.3,134,2.5067,2,0.1833,18.0403,17.905,135
25517497,1490486170285,,,,,,,,0.01,0.08,0.99,-3.1,0.3,-0.3,680,17,,,,,,,,,,,,,,,,,,,
25517517,1490486170305,,,,,,,,0.01,0.07,0.98,-3.1,0.3,-0.3,680,17,,,,,,,,,,,,,,,,,,,
25517537,1490486170325,,,,,,,,0.01,0.07,0.98,-3.1,0.3,-0.3,680,17,,,,,,,,,,,,,,,,,,,
25517557,1490486170345,,,,,,,,0.01,0.08,0.98,-3.1,0.3,-0.3,680,17,,,,,,,,,,,,,,,,,,,
25517579,1490486170367,0,135.7,,158.6,16,154.7,,0.01,0.08,0.98,-3.1,0.3,-0.3,700,17,1,1,42.5,0,38.159184,-122.454186,0.0,2.409,26.7,9,3,2.3,134,2.5067,2,0.1833,18.042,17.9067,135
25517598,1490486170386,,,,,,,,0.01,0.08,0.98,-3.1,0.3,-0.3,700,17,,,,,,,,,,,,,,,,,,,
25517618,1490486170406,,,,,,,,0.01,0.07,0.98,-3.1,0.3,-0.3,700,17,,,,,,,,,,,,,,,,,,,
25517638,1490486170426,,,,,,,,0.01,0.08,0.98,-3.1,0.4,-0.3,720,1538462,,,,,,,,,,,,,,,,,,,
25517658,1490486170446,,,,,,,,0.01,0.08,0.99,-3.2,0.3,-0.2,720,0,,,,,,,,,,,,,,,,,,,
25517680,1490486170468,,,,,18,,,0.01,0.07,0.99,-3.1,0.3,-0.3,720,0,1,1,43.75,0,38.159184,-122.454186,0.0,2.409,26.7,9,3,2.3,134,2.5067,2,0.1833,18.0437,17.9083,135
25517699,1490486170487,,,,,,,,0.01,0.08,0.99,-3.1,0.4,-0.3,720,0,,,,,,,,,,,,,,,,,,,
25517719,1490486170507,,,,,,,,0.01,0.07,0.99,-3.1,0.5,-0.2,720,0,,,,,,,,,,,,,,,,,,,
25517739,1490486170527,,,,,,,,0.01,0.08,0.99,-3.1,0.4,-0.2,740,0,,,,,,,,,,,,,,,,,,,
25517759,1490486170547,,,,,,,,0.01,0.07,0.99,-3.1,0.5,-0.3,740,0,,,,,,,,,,,,,,,,,,,
25517781,1490486170569,0,136.1,,158.8,17,154.8,,0.01,0.07,0.99,-3.1,0.4,-0.3,740,0,1,1,0.0,0,38.159184,-122.454186,0.0,2.409,26.7,9,3,2.3,134,2.5067,2,0.1833,18.0454,17.91,135
25517800,1490486170588,,,,,,,,0.01,0.07,0.99,-3.1,0.4,-0.2,760,0,,,,,,,,,,,,,,,,,,,
25517820,1490486170608,,,,,,,,0.01,0.08,0.99,-3.1,0.4,-0.1,760,0,,,,,,,,,,,,,,,,,,,
25517840,1490486170628,,,,,,,,0.01,0.08,0.99,-3.1,0.3,-0.2,760,0,,,,,,,,,,,,,,,,,,,
25517860,1490486170648,,,,,,,,0.01,0.07,0.99,-3.0,0.3,-0.3,760,0,,,,,,,,,,,,,,,,,,,
25517882,1490486170670,,,,,19,,,0.01,0.07,0.99,-3.1,0.3,-0.2,760,0,1,1,0.0,0,38.159184,-122.454186,0.0,2.409,26.7,9,3,1.9,134,2.5067,2,0.1833,18.0471,17.9117,135
25517901,1490486170689,,,,,,,,0.01,0.08,0.99,-3.1,0.4,-0.1,780,0,,,,,,,,,,,,,,,,,,,
25517921,1490486170709,,,,,,,,0.01,0.08,0.99,-3.1,0.3,-0.1,780,0,,,,,,,,,,,,,,,,,,,
25517941,1490486170729,,,,,,,,0.01,0.07,0.99,-3.0,0.3,-0.3,780,0,,,,,,,,,,,,,,,,,,,
25517961,1490486170749,,,,,,,,0.01,0.07,0.99,-3.0,0.3,-0.3,780,0,,,,,,,,,,,,,,,,,,,
25517983,1490486170771,0,135.7,,158.4,19,154.3,,0.01,0.08,0.98,-3.1,0.3,-0.2,800,0,1,1,0.0,0,38.159184,-122.454186,0.0,2.409,26.7,9,3,1.9,134,2.5067,2,0.1833,18.0487,17.9133,135
25518002,1490486170792,,,,,,,,0.01,0.08,0.99,-3.1,0.4,-0.1,800,0,,,,,,,,,,,,,,,,,,,
25518022,1490486170812,,,,,,,,0.01,0.08,0.99,-3.1,0.2,-0.1,800,0,,,,,,,,,,,,,,,,,,,
25518042,1490486170832,,,,,,,,0.01,0.08,0.98,-3.1,0.2,-0.2,820,0,,,,,,,,,,,,,,,,,,,
25518062,1490486170852,,,,,,,,0.01,0.08,0.98,-3.1,0.2,-0.3,840,0,,,,,,,,,,,,,,,,,,,
25518084,1490486170874,,,,,19,,,0.01,0.07,0.98,-3.1,0.2,-0.3,840,0,1,1,0.0,0,38.159184,-122.454186,0.0,2.409,26.7,9,3,2.3,134,2.5067,2,0.1833,18.0504,17.915,135
25518103,1490486170891,,,,,,,,0.01,0.07,0.98,-3.1,0.4,-0.2,840,0,,,,,,,,,,,,,,,,,,,
25518123,1490486170911,,,,,,,,0.02,0.07,0.98,-3.1,0.3,-0.1,860,3,,,,,,,,,,,,,,,,,,,
25518143,1490486170931,,,,,,,,0.02,0.09,0.98,-3.1,0.3,-0.0,880,3,,,,,,,,,,,,,,,,,,,
25518163,1490486170951,,,,,,,,0.01,0.09,0.99,-3.1,0.3,-0.1,880,28,,,,,,,,,,,,,,,,,,,
25518185,1490486170973,0,136.3,-0.5,159.0,21,154.0,14.58,0.01,0.09,1.0,-3.0,0.2,-0.2,900,28,1,1,0.0,0,38.159184,-122.454186,0.0,2.409,26.7,9,3,2.3,134,2.5067,2,0.1833,18.0521,17.9167,135
25518204,1490486170992,,,,,,,,0.01,0.09,0.99,-3.0,0.1,-0.4,920,48,,,,,,,,,,,,,,,,,,,
25518224,1490486171005,,,,,,,,0.01,0.07,0.99,-2.9,0.1,-0.4,920,48,,,,,,,,,,,,,,,,,,,
25518244,1490486171025,,,,,,,,0.0,0.07,0.99,-2.9,0.0,-0.4,940,40,,,,,,,,,,,,,,,,,,,
25518264,1490486171045,,,,,,,,0.0,0.06,0.98,-2.9,0.1,-0.4,940,40,,,,,,,,,,,,,,,,,,,
25518286,1490486171067,,,,,23,,,0.0,0.06,0.98,-2.9,0.3,-0.4,960,40,1,1,33.333,0,38.159184,-122.454186,0.0,2.409,26.7,9,3,2.3,134,2.5067,2,0.1833,18.0537,17.9183,135
25518305,1490486171092,,,,,,,,0.0,0.06,0.98,-3.0,0.3,-0.4,980,40,,,,,,,,,,,,,,,,,,,
25518325,1490486171112,,,,,,,,0.01,0.06,0.98,-3.0,0.3,-0.4,980,20,,,,,,,,,,,,,,,,,,,
25518345,1490486171132,,,,,,,,0.01,0.06,0.98,-3.1,0.3,-0.4,980,20,,,,,,,,,,,,,,,,,,,
25518365,1490486171152,,,,,,,,0.01,0.06,0.98,-3.1,0.4,-0.4,1000,20,,,,,,,,,,,,,,,,,,,
25518387,1490486171174,0,136.5,,159.3,26,154.7,,0.02,0.07,0.98,-3.1,0.3,-0.4,1000,20,1,1,24.0,0,38.159184,-122.454186,0.0,2.409,26.7,9,3,2.3,134,2.5067,2,0.1833,18.0555,17.92,135
25518406,1490486171193,,,,,,,,0.01,0.07,0.98,-3.1,0.3,-0.4,1020,20,,,,,,,,,,,,,,,,,,,
25518426,1490486171213,,,,,,,,0.01,0.07,0.98,-3.1,0.3,-0.5,1020,20,,,,,,,,,,,,,,,,,,,
25518446,1490486171233,,,,,,,,0.01,0.07,0.98,-3.1,0.3,-0.4,1020,20,,,,,,,,,,,,,,,,,,,
25518466,1490486171253,,,,,,,,0.01,0.06,0.98,-3.1,0.3,-0.4,1020,20,,,,,,,,,,,,,,,,,,,
25518488,1490486171275,,,,,26,,,0.01,0.06,0.97,-3.1,0.2,-0.4,1020,20,1,1,50.0,0,38.159184,-122.454186,0.0,2.409,26.7,9,3,2.3,134,2.5067,2,0.1833,18.0571,17.9217,135
25518507,1490486171296,,,,,,,,0.01,0.06,0.97,-3.1,0.2,-0.4,1020,20,,,,,,,,,,,,,,,,,,,
25518527,1490486171316,,,,,,,,0.02,0.07,0.98,-3.1,0.3,-0.5,1020,20,,,,,,,,,,,,,,,,,,,
25518547,1490486171336,,,,,,,,0.01,0.07,0.98,-3.1,0.3,-0.5,1040,20,,,,,,,,,,,,,,,,,,,
25518567,1490486171356,,,,,,,,0.01,0.07,0.98,-3.1,0.3,-0.5,1040,20,,,,,,,,,,,,,,,,,,,
25518589,1490486171378,0,135.8,,158.9,26,154.5,,0.01,0.07,0.98,-3.2,0.3,-0.5,1040,6,1,1,51.0,0,38.159184,-122.454186,0.0,2.409,26.7,9,3,2.3,134,2.5067,2,0.1833,18.0588,17.9233,135
25518608,1490486171395,,,,,,,,0.01,0.08,0.97,-3.2,0.2,-0.5,1040,6,,,,,,,,,,,,,,,,,,,
25518628,1490486171415,,,,,,,,0.01,0.08,0.98,-3.2,0.3,-0.5,1020,6,,,,,,,,,,,,,,,,,,,
25518648,1490486171435,,,,,,,,0.01,0.08,0.98,-3.3,0.2,-0.4,1020,6,,,,,,,,,,,,,,,,,,,
25518668,1490486171455,,,,,,,,0.02,0.08,0.98,-3.3,0.2,-0.4,1040,6,,,,,,,,,,,,,,,,,,,
25518690,1490486171477,,,,,28,,,0.02,0.09,0.99,-3.3,0.2,-0.4,1040,6,1,1,173.333,0,38.159184,-122.454186,0.0,2.409,26.7,9,3,1.9,134,2.5067,2,0.1833,18.0605,17.925,135
25518709,1490486171496,,,,,,,,0.02,0.08,0.99,-3.3,0.1,-0.4,1040,6,,,,,,,,,,,,,,,,,,,
25518729,1490486171516,,,,,,,,0.03,0.09,0.98,-3.4,0.1,-0.4,1040,8,,,,,,,,,,,,,,,,,,,
25518749,1490486171536,,,,,,,,0.03,0.08,0.99,-3.5,0.1,-0.4,1020,8,,,,,,,,,,,,,,,,,,,
25518769,1490486171556,,,,,,,,0.04,0.08,0.99,-3.5,0.2,-0.4,1040,8,,,,,,,,,,,,,,,,,,,
25518791,1490486171578,0,136.5,,159.7,27,154.9,,0.04,0.08,0.99,-3.6,0.2,-0.4,1040,8,1,1,173.333,0,38.159184,-122.454186,0.0,2.409,26.7,9,3,1.9,134,2.5067,2,0.1833,18.0622,17.9267,135
25518810,1490486171597,,,,,,,,0.03,0.08,0.99,-3.6,0.3,-0.4,1020,8,,,,,,,,,,,,,,,,,,,
25518830,1490486171617,,,,,,,,0.03,0.08,0.99,-3.6,0.3,-0.4,1020,8,,,,,,,,,,,,,,,,,,,
25518850,1490486171637,,,,,,,,0.03,0.08,0.98,-3.7,0.4,-0.4,1020,12,,,,,,,,,,,,,,,,,,,
25518870,1490486171657,,,,,,,,0.03,0.08,0.98,-3.7,0.5,-0.4,1040,12,,,,,,,,,,,,,,,,,,,
25518892,1490486171679,,,,,27,,,0.02,0.07,0.97,-3.7,0.4,-0.3,1020,12,1,1,148.571,0,38.159184,-122.454186,0.0,2.409,26.7,9,3,2.3,134,2.5067,2,0.1833,18.0639,17.9283,135
25518911,1490486171696,,,,,,,,0.02,0.08,0.97,-3.8,0.4,-0.3,1020,12,,,,,,,,,,,,,,,,,,,
25518931,1490486171716,,,,,,,,0.02,0.08,0.97,-3.8,0.4,-0.3,1020,12,,,,,,,,,,,,,,,,,,,
25518951,1490486171736,,,,,,,,0.02,0.08,0.98,-3.8,0.4,-0.3,1020,14,,,,,,,,,,,,,,,,,,,
25518971,1490486171756,,,,,,,,0.02,0.08,0.98,-3.9,0.4,-0.3,1020,14,,,,,,,,,,,,,,,,,,,
25518993,1490486171778,0,136.3,,159.3,28,154.1,,0.02,0.08,0.98,-3.9,0.4,-0.3,1020,14,1,1,85.0,0,38.159184,-122.454186,0.0,2.409,26.7,9,3,2.3,134,2.5067,2,0.1833,18.0655,17.93,135
25519012,1490486171801,,,,,,,,0.02,0.08,0.98,-4.0,0.3,-0.3,1020,14,,,,,,,,,,,,,,,,,,,
25519032,1490486171821,,,,,,,,0.02,0.08,0.98,-4.1,0.3,-0.3,1020,17,,,,,,,,,,,,,,,,,,,
25519052,1490486171841,,,,,,,,0.02,0.08,0.98,-4.2,0.3,-0.3,1020,17,,,,,,,,,,,,,,,,,,,
25519072,1490486171861,,,,,,,,0.02,0.09,0.99,-4.3,0.3,-0.3,1020,17,,,,,,,,,,,,,,,,,,,
25519094,1490486171883,,,,,27,,,0.02,0.09,0.99,-4.3,0.3,-0.3,1020,17,1,1,78.462,0,38.159184,-122.454186,0.0,2.409,26.7,9,3,2.3,134,2.5067,2,0.1833,18.0673,17.9317,135
25519113,1490486171902,,,,,,,,0.02,0.09,0.99,-4.4,0.3,-0.2,1020,18,,,,,,,,,,,,,,,,,,,
25519133,1490486171922,,,,,,,,0.02,0.1,0.99,-4.4,0.3,-0.2,1020,18,,,,,,,,,,,,,,,,,,,
25519153,1490486171942,,,,,,,,0.03,0.09,0.99,-4.5,0.3,-0.2,1020,18,,,,,,,,,,,,,,,,,,,
25519173,1490486171962,,,,,,,,0.03,0.09,0.99,-4.5,0.2,-0.2,1040,18,,,,,,,,,,,,,,,,,,,
25519195,1490486171984,0,136.8,-0.4,159.9,28,154.8,14.58,0.03,0.09,1.0,-4.6,0.2,-0.2,1020,20,1,1,63.75,0,38.159184,-122.454186,0.0,2.409,26.7,9,3,2.3,134,2.5067,2,0.1833,18.069,17.9333,135
25519214,1490486171994,,,,,,,,0.04,0.09,0.99,-4.7,0.2,-0.1,1040,20,,,,,,,,,,,,,,,,,,,
25519234,1490486172014,,,,,,,,0.04,0.09,0.99,-4.7,0.3,-0.1,1040,20,,,,,,,,,,,,,,,,,,,
25519254,1490486172034,,,,,,,,0.04,0.08,1.0,-4.7,0.3,-0.2,1040,22,,,,,,,,,,,,,,,,,,,
25519274,1490486172054,,,,,,,,0.04,0.08,1.0,-4.8,0.3,-0.2,1040,22,,,,,,,,,,,,,,,,,,,
25519296,1490486172076,,,,,29,,,0.04,0.08,0.99,-4.8,0.3,-0.2,1040,22,1,1,51.0,0,38.159184,-122.454186,0.0,2.409,26.7,9,3,2.3,134,2.5067,2,0.1833,18.0705,17.935,135
25519315,1490486172103,,,,,,,,0.04,0.08,1.0,-4.9,0.4,-0.2,1040,25,,,,,,,,,,,,,,,,,,,
25519335,1490486172123,,,,,,,,0.04,0.08,0.99,-4.9,0.4,-0.2,1040,25,,,,,,,,,,,,,,,,,,,
25519355,1490486172143,,,,,,,,0.03,0.08,0.99,-5.0,0.3,-0.2,1040,25,,,,,,,,,,,,,,,,,,,
25519375,1490486172163,,,,,,,,0.03,0.08,0.99,-5.0,0.4,-0.2,1040,25,,,,,,,,,,,,,,,,,,,
25519397,1490486172185,0,136.2,,159.3,29,154.0,,0.03,0.08,0.98,-5.0,0.4,-0.3,1040,25,1,1,49.524,0,38.159184,-122.454186,0.0,2.409,26.7,9,3,2.3,134,2.5067,2,0.1833,18.0723,17.9367,135
25519416,1490486172204,,,,,,,,0.03,0.08,0.98,-5.1,0.3,-0.2,1040,25,,,,,,,,,,,,,,,,,,,
25519436,1490486172224,,,,,,,,0.03,0.09,0.98,-5.2,0.3,-0.2,1040,28,,,,,,,,,,,,,,,,,,,
25519456,1490486172244,,,,,,,,0.03,0.09,0.99,-5.2,0.3,-0.2,1060,28,,,,,,,,,,,,,,,,,,,
25519476,1490486172264,,,,,,,,0.03,0.1,0.98,-5.3,0.3,-0.2,1060,28,,,,,,,,,,,,,,,,,,,
25519498,1490486172286,,,,,29,,,0.03,0.09,0.98,-5.3,0.2,-0.2,1060,28,1,1,43.333,0,38.159184,-122.454186,0.0,2.409,26.7,9,3,2.3,134,2.5067,2,0.1833,18.074,17.9383,135
25519517,1490486172305,,,,,,,,0.03,0.09,0.98,-5.4,0.2,-0.2,1060,28,,,,,,,,,,,,,,,,,,,
25519537,1490486172325,,,,,,,,0.04,0.09,0.98,-5.4,0.2,-0.2,1060,29,,,,,,,,,,,,,,,,,,,
25519557,1490486172345,,,,,,,,0.03,0.09,0.99,-5.5,0.2,-0.2,1040,29,,,,,,,,,,,,,,,,,,,
25519577,1490486172365,,,,,,,,0.03,0.1,0.99,-5.5,0.3,-0.2,1060,28,,,,,,,,,,,,,,,,,,,
25519599,1490486172387,0,136.4,,160.0,29,155.0,,0.03,0.09,0.98,-5.6,0.3,-0.3,1060,28,1,1,39.259,0,38.159184,-122.454186,0.0,2.409,26.7,9,3,2.3,134,2.5067,2,0.1833,18.0757,17.94,135
25519618,1490486172406,,,,,,,,0.03,0.09,0.98,-5.6,0.3,-0.3,1060,28,,,,,,,,,,,,,,,,,,,
25519638,1490486172426,,,,,,,,0.02,0.08,0.98,-5.7,0.5,-0.3,1060,28,,,,,,,,,,,,,,,,,,,
25519658,1490486172446,,,,,,,,0.02,0.08,0.98,-5.8,0.5,-0.3,1060,28,,,,,,,,,,,,,,,,,,,
25519678,1490486172466,,,,,,,,0.01,0.07,0.98,-5.8,0.5,-0.3,1060,17,,,,,,,,,,,,,,,,,,,
25519700,1490486172488,,,,,29,,,0.01,0.07,0.97,-5.8,0.5,-0.3,1060,17,1,1,39.259,0,38.159184,-122.454186,0.0,2.409,26.7,9,3,1.9,134,2.5067,2,0.1833,18.0774,17.9417,135
25519719,1490486172507,,,,,,,,0.02,0.07,0.98,-5.8,0.4,-0.3,1060,17,,,,,,,,,,,,,,,,,,,
25519739,1490486172527,,,,,,,,0.01,0.08,0.98,-5.8,0.5,-0.4,1020,17,,,,,,,,,,,,,,,,,,,
25519759,1490486172547,,,,,,,,0.02,0.07,0.98,-5.8,0.5,-0.4,1000,20,,,,,,,,,,,,,,,,,,,
25519779,1490486172567,,,,,,,,0.02,0.07,0.98,-5.8,0.5,-0.4,1000,20,,,,,,,,,,,,,,,,,,,
25519801,1490486172589,0,135.8,,159.1,27,153.8,,0.02,0.07,0.98,-5.7,0.5,-0.4,960,20,0,1,66.25,0,38.159184,-122.454186,0.0,2.409,26.7,9,3,1.9,134,2.5067,2,0.1833,18.079,17.9433,135
25519820,1490486172608,,,,,,,,0.01,0.07,0.98,-5.6,0.5,-0.4,940,22,,,,,,,,,,,,,,,,,,,
25519840,1490486172628,,,,,,,,0.02,0.07,0.98,-5.6,0.6,-0.3,920,22,,,,,,,,,,,,,,,,,,,
25519860,1490486172648,,,,,,,,0.01,0.07,0.98,-5.6,0.6,-0.3,880,28,,,,,,,,,,,,,,,,,,,
25519880,1490486172668,,,,,,,,0.01,0.07,0.98,-5.6,0.6,-0.2,860,28,,,,,,,,,,,,,,,,,,,
25519902,1490486172690,,,,,26,,,0.01,0.08,0.98,-5.6,0.5,-0.2,820,28,0,1,47.0,0,38.159184,-122.454186,0.0,2.409,26.7,9,3,2.3,134,2.5067,2,0.1833,18.0807,17.945,135
25519921,1490486172709,,,,,,,,0.01,0.07,0.98,-5.6,0.5,-0.2,780,31,,,,,,,,,,,,,,,,,,,
25519941,1490486172729,,,,,,,,0.01,0.07,0.98,-5.6,0.5,-0.2,780,31,,,,,,,,,,,,,,,,,,,
25519961,1490486172749,,,,,,,,0.01,0.07,0.98,-5.6,0.5,-0.2,780,31,,,,,,,,,,,,,,,,,,,
25519981,1490486172769,,,,,,,,0.01,0.08,0.98,-5.6,0.5,-0.1,760,28,,,,,,,,,,,,,,,,,,,
25520003,1490486172791,0,136.8,,160.2,24,154.7,,0.0,0.08,0.98,-5.6,0.4,-0.1,760,28,0,1,30.37,0,38.159184,-122.454186,0.0,2.409,26.7,9,3,2.3,134,2.5067,2,0.1833,18.0824,17.9467,135
25520022,1490486172809,,,,,,,,0.0,0.08,0.98,-5.5,0.5,-0.2,740,28,,,,,,,,,,,,,,,,,,,
25520042,1490486172829,,,,,,,,0.0,0.07,0.98,-5.5,0.4,-0.2,740,26,,,,,,,,,,,,,,,,,,,
25520062,1490486172849,,,,,,,,0.0,0.08,0.98,-5.5,0.5,-0.1,740,26,,,,,,,,,,,,,,,,,,,
25520082,1490486172869,,,,,,,,0.0,0.08,0.99,-5.4,0.5,-0.1,740,26,,,,,,,,,,,,,,,,,,,
25520104,1490486172891,,,,,21,,,0.0,0.07,0.99,-5.4,0.5,-0.2,740,26,0,1,28.148,0,38.159184,-122.454186,0.0,2.409,26.7,9,3,2.3,134,2.5067,2,0.1833,18.0841,17.9483,135
25520123,1490486172909,,,,,,,,0.0,0.07,0.99,-5.4,0.5,-0.2,740,20,,,,,,,,,,,,,,,,,,,
25520143,1490486172929,,,,,,,,0.0,0.08,0.99,-5.4,0.4,-0.2,720,20,,,,,,,,,,,,,,,,,,,
25520163,1490486172949,,,,,,,,-0.0,0.08,0.99,-5.4,0.4,-0.2,720,20,,,,,,,,,,,,,,,,,,,
25520183,1490486172969,,,,,,,,-0.0,0.08,0.99,-5.4,0.5,-0.2,720,20,,,,,,,,,,,,,,,,,,,
25520205,1490486172991,0,137.0,-0.6,160.5,21,154.9,13.33,-0.0,0.07,0.99,-5.4,0.5,-0.2,700,18,0,1,37.0,0,38.159184,-122.454186,0.0,2.409,26.7,9,3,2.3,134,2.5067,2,0.1833,18.0857,17.95,135
25520224,1490486173005,,,,,,,,-0.0,0.08,0.98,-5.4,0.5,-0.1,700,18,,,,,,,,,,,,,,,,,,,
25520244,1490486173025,,,,,,,,-0.0,0.07,0.98,-5.3,0.5,-0.2,700,18,,,,,,,,,,,,,,,,,,,
25520264,1490486173045,,,,,,,,-0.01,0.08,0.99,-5.3,0.5,-0.2,700,20,,,,,,,,,,,,,,,,,,,
25520284,1490486173065,,,,,,,,-0.0,0.08,0.99,-5.3,0.5,-0.2,700,20,,,,,,,,,,,,,,,,,,,
25520306,1490486173093,,,,,19,,,-0.0,0.07,0.99,-5.2,0.5,-0.2,680,20,0,1,38.889,0,38.159184,-122.454186,0.0,2.409,26.7,9,3,2.3,134,2.5067,2,0.1833,18.0874,17.9533,135
25520325,1490486173112,,,,,,,,-0.0,0.06,0.98,-5.2,0.4,-0.2,680,20,,,,,,,,,,,,,,,,,,,
25520345,1490486173132,,,,,,,,-0.0,0.07,0.98,-5.2,0.5,-0.2,680,20,,,,,,,,,,,,,,,,,,,
25520365,1490486173152,,,,,,,,-0.0,0.07,0.98,-5.2,0.5,-0.2,680,20,,,,,,,,,,,,,,,,,,,
25520385,1490486173172,,,,,,,,-0.0,0.07,0.98,-5.2,0.5,-0.2,680,20,,,,,,,,,,,,,,,,,,,
25520407,1490486173196,0,136.8,,160.4,19,154.9,,-0.0,0.07,0.98,-5.2,0.5,-0.2,680,20,0,1,34.0,0,38.159184,-122.454186,0.0,2.409,26.7,9,3,2.3,134,2.5067,2,0.1833,18.0891,17.955,135
25520426,1490486173215,,,,,,,,0.0,0.08,0.99,-5.2,0.5,-0.1,680,18,,,,,,,,,,,,,,,,,,,
25520446,1490486173235,,,,,,,,-0.0,0.07,0.99,-5.1,0.5,-0.1,680,18,,,,,,,,,,,,,,,,,,,
25520466,1490486173255,,,,,,,,-0.0,0.08,0.99,-5.1,0.5,-0.2,680,18,,,,,,,,,,,,,,,,,,,
25520486,1490486173275,,,,,,,,0.0,0.08,0.99,-5.1,0.4,-0.1,680,18,,,,,,,,,,,,,,,,,,,
25520508,1490486173297,,,,,18,,,-0.0,0.07,0.99,-5.1,0.3,-0.1,680,17,0,1,34.0,0,38.159184,-122.454186,0.0,2.409,26.7,9,3,2.3,134,2.5067,2,0.1833,18.0908,17.9567,135
25520527,1490486173316,,,,,,,,-0.0,0.07,0.99,-5.0,0.3,-0.2,680,17,,,,,,,,,,,,,,,,,,,
25520547,1490486173336,,,,,,,,0.0,0.08,0.98,-5.0,0.3,-0.2,680,17,,,,,,,,,,,,,,,,,,,
25520567,1490486173356,,,,,,,,-0.0,0.08,0.98,-5.0,0.3,-0.2,680,17,,,,,,,,,,,,,,,,,,,
25520587,1490486173376,,,,,,,,-0.0,0.08,0.98,-5.0,0.3,-0.2,680,18,,,,,,,,,,,,,,,,,,,
25520609,1490486173398,0,135.8,,159.4,17,153.8,,-0.0,0.08,0.98,-5.0,0.4,-0.2,680,18,0,1,42.5,0,38.159184,-122.454186,0.0,2.409,26.7,9,3,1.9,134,2.5067,2,0.1833,18.0925,17.9583,135
25520628,1490486173417,,,,,,,,-0.0,0.08,0.98,-5.0,0.4,-0.2,680,18,,,,,,,,,,,,,,,,,,,
25520648,1490486173437,,,,,,,,-0.0,0.08,0.98,-4.9,0.4,-0.2,680,18,,,,,,,,,,,,,,,,,,,
25520668,1490486173457,,,,,,,,-0.0,0.08,0.98,-4.9,0.4,-0.2,680,18,,,,,,,,,,,,,,,,,,,
25520688,1490486173477,,,,,,,,-0.0,0.09,0.98,-4.9,0.4,-0.2,680,18,,,,,,,,,,,,,,,,,,,
25520710,1490486173497,,,,,17,,,-0.0,0.08,0.99,-4.8,0.4,-0.2,680,18,0,1,37.778,0,38.159184,-122.454186,0.0,2.409,26.7,9,3,1.9,134,2.5067,2,0.1833,18.0942,17.96,135
25520729,1490486173516,,,,,,,,-0.0,0.08,0.99,-4.8,0.4,-0.2,680,18,,,,,,,,,,,,,,,,,,,
25520749,1490486173536,,,,,,,,0.0,0.08,0.99,-4.8,0.4,-0.2,680,18,,,,,,,,,,,,,,,,,,,
25520769,1490486173556,,,,,,,,0.0,0.07,0.99,-4.8,0.4,-0.2,680,17,,,,,,,,,,,,,,,,,,,
25520789,1490486173576,,,,,,,,0.0,0.06,0.99,-4.7,0.5,-0.3,680,17,,,,,,,,,,,,,,,,,,,
25520811,1490486173600,0,136.9,,160.6,18,154.9,,0.0,0.07,0.99,-4.7,0.4,-0.2,680,17,0,1,37.778,0,38.159184,-122.454186,0.0,2.409,26.7,9,3,1.9,134,2.5067,2,0.1833,18.0959,17.9617,135
25520830,1490486173619,,,,,,,,0.0,0.07,0.98,-4.7,0.4,-0.2,680,17,,,,,,,,,,,,,,,,,,,
25520850,1490486173639,,,,,,,,0.0,0.06,0.98,-4.7,0.4,-0.2,680,15,,,,,,,,,,,,,,,,,,,
25520870,1490486173659,,,,,,,,0.0,0.07,0.98,-4.7,0.4,-0.2,680,15,,,,,,,,,,,,,,,,,,,
25520890,1490486173679,,,,,,,,0.0,0.08,0.97,-4.6,0.4,-0.2,700,15,,,,,,,,,,,,,,,,,,,
25520912,1490486173701,,,,,17,,,-0.0,0.07,0.97,-4.6,0.3,-0.2,680,15,0,1,42.5,0,38.159184,-122.454186,0.0,2.409,26.7,9,3,1.9,134,2.5067,2,0.1833,18.0976,17.9633,135
25520931,1490486173720,,,,,,,,-0.0,0.07,0.97,-4.6,0.3,-0.2,680,15,,,,,,,,,,,,,,,,,,,
25520951,1490486173740,,,,,,,,-0.0,0.07,0.97,-4.6,0.3,-0.1,680,15,,,,,,,,,,,,,,,,,,,
25520971,1490486173760,,,,,,,,-0.0,0.07,0.98,-4.5,0.3,-0.1,700,15,,,,,,,,,,,,,,,,,,,
25520991,1490486173780,,,,,,,,0.0,0.06,0.98,-4.5,0.4,-0.2,700,15,,,,,,,,,,,,,,,,,,,
25521013,1490486173800,0,136.7,,160.6,18,154.7,,0.0,0.07,0.98,-4.5,0.4,-0.2,680,15,0,1,45.333,0,38.159184,-122.454186,0.0,2.409,26.7,9,3,1.9,134,2.5067,2,0.1833,18.0992,17.965,135
25521032,1490486173819,,,,,,,,0.0,0.08,0.98,-4.5,0.4,-0.1,680,15,,,,,,,,,,,,,,,,,,,
25521052,1490486173839,,,,,,,,0.0,0.07,0.99,-4.5,0.4,-0.1,700,15,,,,,,,,,,,,,,,,,,,
25521072,1490486173859,,,,,,,,-0.0,0.08,0.99,-4.5,0.4,-0.1,700,14,,,,,,,,,,,,,,,,,,,
25521092,1490486173879,,,,,,,,-0.0,0.08,0.99,-4.5,0.4,-0.1,680,14,,,,,,,,,,,,,,,,,,,
25521114,1490486173903,,,,,18,,,-0.0,0.08,0.99,-4.4,0.4,-0.1,680,14,0,1,45.333,0,38.159184,-122.454186,0.0,2.409,26.7,9,3,1.9,134,2.5067,2,0.1833,18.1009,17.9667,135
25521133,1490486173922,,,,,,,,-0.0,0.07,0.99,-4.4,0.4,-0.2,680,14,,,,,,,,,,,,,,,,,,,
25521153,1490486173942,,,,,,,,-0.0,0.07,0.98,-4.4,0.3,-0.1,680,14,,,,,,,,,,,,,,,,,,,
25521173,1490486173962,,,,,,,,-0.01,0.07,0.98,-4.4,0.3,-0.1,680,14,,,,,,,,,,,,,,,,,,,
25521193,1490486173982,,,,,,,,-0.01,0.07,0.98,-4.3,0.4,-0.2,680,12,,,,,,,,,,,,,,,,,,,
25521215,1490486173995,0,136.1,-0.4,160.3,17,154.9,13.61,-0.01,0.07,0.98,-4.3,0.3,-0.2,680,12,0,1,52.308,0,38.159184,-122.454186,0.0,2.409,26.7,9,3,1.9,134,2.5067,2,0.1833,18.1025,17.9683,135
25521234,1490486174014,,,,,,,,-0.01,0.07,0.98,-4.3,0.4,-0.1,680,12,,,,,,,,,,,,,,,,,,,
25521254,1490486174034,,,,,,,,-0.0,0.07,0.98,-4.3,0.4,-0.2,660,12,,,,,,,,,,,,,,,,,,,
25521274,1490486174054,,,,,,,,-0.01,0.07,0.97,-4.3,0.4,-0.1,660,12,,,,,,,,,,,,,,,,,,,
25521294,1490486174074,,,,,,,,-0.01,0.08,0.98,-4.2,0.3,-0.1,660,12,,,,,,,,,,,,,,,,,,,
25521316,1490486174102,,,,,18,,,-0.01,0.08,0.98,-4.2,0.3,-0.1,680,12,0,1,56.667,0,38.159184,-122.454186,0.0,2.409,26.7,9,3,1.9,134,2.5067,2,0.1833,18.1042,17.97,135
25521335,1490486174121,,,,,,,,-0.01,0.08,0.98,-4.1,0.2,-0.1,680,12,,,,,,,,,,,,,,,,,,,
25521355,1490486174141,,,,,,,,-0.0,0.08,0.98,-4.1,0.3,-0.1,680,12,,,,,,,,,,,,,,,,,,,
25521375,1490486174161,,,,,,,,-0.01,0.08,0.98,-4.1,0.4,-0.2,680,12,,,,,,,,,,,,,,,,,,,
25521395,1490486174181,,,,,,,,-0.01,0.07,0.99,-4.0,0.4,-0.2,680,12,,,,,,,,,,,,,,,,,,,
25521417,1490486174205,0,135.6,,159.9,17,154.6,,-0.01,0.08,0.99,-4.1,0.5,-0.2,680,12,0,1,56.667,0,38.159184,-122.454186,0.0,2.409,26.7,9,3,1.9,134,2.5067,2,0.1833,18.106,17.9717,135
25521436,1490486174224,,,,,,,,-0.01,0.08,0.98,-4.0,0.4,-0.2,680,12,,,,,,,,,,,,,,,,,,,
25521456,1490486174244,,,,,,,,-0.01,0.08,0.99,-4.0,0.3,-0.2,680,12,,,,,,,,,,,,,,,,,,,
25521476,1490486174264,,,,,,,,-0.0,0.08,0.98,-3.9,0.4,-0.2,680,12,,,,,,,,,,,,,,,,,,,
25521496,1490486174284,,,,,,,,-0.0,0.08,0.98,-3.9,0.4,-0.2,680,12,,,,,,,,,,,,,,,,,,,
25521518,1490486174306,,,,,17,,,-0.01,0.07,0.98,-3.9,0.3,-0.2,680,12,0,1,56.667,0,38.159184,-122.454186,0.0,2.409,26.7,9,3,1.9,134,2.5067,2,0.1833,18.1077,17.9733,135
25521537,1490486174325,,,,,,,,-0.01,0.07,0.98,-4.0,0.3,-0.2,680,12,,,,,,,,,,,,,,,,,,,
25521557,1490486174345,,,,,,,,-0.01,0.08,0.99,-3.9,0.3,-0.2,680,12,,,,,,,,,,,,,,,,,,,
25521577,1490486174365,,,,,,,,-0.0,0.07,0.99,-3.9,0.3,-0.2,680,12,,,,,,,,,,,,,,,,,,,
25521597,1490486174385,,,,,,,,-0.0,0.07,0.99,-3.9,0.2,-0.2,680,12,,,,,,,,,,,,,,,,,,,
25521619,1490486174407,0,136.9,,160.9,18,155.0,,0.0,0.07,0.99,-3.9,0.2,-0.1,680,12,0,1,56.667,0,38.159184,-122.454186,0.0,2.409,26.7,9,3,1.9,134,2.5067,2,0.1833,18.1093,17.975,135
25521638,1490486174426,,,,,,,,0.0,0.07,0.99,-3.8,0.3,-0.2,680,12,,,,,,,,,,,,,,,,,,,
25521658,1490486174446,,,,,,,,-0.0,0.07,0.99,-3.8,0.1,-0.2,680,12,,,,,,,,,,,,,,,,,,,
25521678,1490486174466,,,,,,,,0.0,0.08,0.99,-3.8,0.2,-0.2,700,12,,,,,,,,,,,,,,,,,,,
25521698,1490486174486,,,,,,,,-0.0,0.09,0.99,-3.8,0.2,-0.1,700,12,,,,,,,,,,,,,,,,,,,
25521720,1490486174508,,,,,17,,,-0.01,0.08,0.99,-3.8,0.2,-0.2,720,12,0,1,56.667,0,38.159184,-122.454186,0.0,2.409,26.7,9,3,1.9,134,2.5067,2,0.1833,18.111,17.9767,135
25521739,1490486174527,,,,,,,,-0.01,0.08,0.99,-3.8,0.2,-0.3,720,12,,,,,,,,,,,,,,,,,,,
25521759,1490486174547,,,,,,,,-0.01,0.08,0.98,-3.8,0.2,-0.2,740,12,,,,,,,,,,,,,,,,,,,
25521779,1490486174567,,,,,,,,-0.01,0.08,0.99,-3.7,0.1,-0.1,740,12,,,,,,,,,,,,,,,,,,,
25521799,1490486174587,,,,,,,,-0.01,0.08,0.99,-3.7,0.2,-0.3,760,12,,,,,,,,,,,,,,,,,,,
25521821,1490486174609,0,136.4,,160.5,18,154.2,,-0.01,0.08,0.98,-3.6,0.3,-0.3,760,2,0,1,60.0,0,38.159184,-122.454186,0.0,2.409,26.7,9,3,1.9,134,2.5067,2,0.1833,18.1127,17.9783,135
25521840,1490486174628,,,,,,,,-0.0,0.08,0.98,-3.6,0.3,-0.2,780,2,,,,,,,,,,,,,,,,,,,
25521860,1490486174648,,,,,,,,0.0,0.08,0.98,-3.7,0.4,-0.1,780,28,,,,,,,,,,,,,,,,,,,
25521880,1490486174668,,,,,,,,0.0,0.08,0.99,-3.7,0.5,-0.2,800,43,,,,,,,,,,,,,,,,,,,
25521900,1490486174688,,,,,,,,0.0,0.08,1.0,-3.6,0.5,-0.3,820,43,,,,,,,,,,,,,,,,,,,
25521922,1490486174710,,,,,19,,,0.0,0.08,0.99,-3.5,0.5,-0.4,820,43,0,1,780.0,0,38.159184,-122.454186,0.0,2.409,26.7,9,3,1.9,134,2.5067,2,0.1833,18.1144,17.98,135
25521941,1490486174729,,,,,,,,0.0,0.07,0.98,-3.6,0.4,-0.3,820,43,,,,,,,,,,,,,,,,,,,
25521961,1490486174749,,,,,,,,-0.0,0.07,0.97,-3.6,0.5,-0.1,840,43,,,,,,,,,,,,,,,,,,,
25521981,1490486174769,,,,,,,,0.01,0.08,0.98,-3.7,0.5,-0.1,860,25,,,,,,,,,,,,,,,,,,,
25522001,1490486174789,,,,,,,,0.0,0.09,0.98,-3.7,0.5,-0.1,860,25,,,,,,,,,,,,,,,,,,,
25522023,1490486174811,0,135.6,,160.0,20,154.3,,0.0,0.09,0.98,-3.7,0.5,-0.2,880,25,0,1,19.07,0,38.159184,-122.454186,0.0,2.409,26.7,9,3,1.9,134,2.5067,2,0.1833,18.1161,17.9817,135
25522042,1490486174830,,,,,,,,0.0,0.09,0.98,-3.7,0.5,-0.3,880,17,,,,,,,,,,,,,,,,,,,
25522062,1490486174850,,,,,,,,-0.0,0.09,0.98,-3.7,0.3,-0.3,900,17,,,,,,,,,,,,,,,,,,,
25522082,1490486174870,,,,,,,,-0.0,0.08,0.98,-3.6,0.1,-0.3,900,17,,,,,,,,,,,,,,,,,,,
25522102,1490486174890,,,,,,,,-0.0,0.06,0.98,-3.6,0.3,-0.3,920,17,,,,,,,,,,,,,,,,,,,
25522124,1490486174912,,,,,22,,,0.0,0.06,0.97,-3.6,0.3,-0.3,920,17,0,1,36.667,0,38.159184,-122.454186,0.0,2.409,26.7,9,3,1.9,134,2.5067,2,0.1833,18.1178,17.9833,135
25522143,1490486174931,,,,,,,,0.01,0.05,0.97,-3.6,0.4,-0.3,920,17,,,,,,,,,,,,,,,,,,,
25522163,1490486174951,,,,,,,,0.01,0.06,0.97,-3.6,0.4,-0.3,940,17,,,,,,,,,,,,,,,,,,,
25522183,1490486174971,,,,,,,,0.02,0.07,0.97,-3.6,0.3,-0.3,940,17,,,,,,,,,,,,,,,,,,,
25522203,1490486174991,,,,,,,,0.02,0.07,0.97,-3.7,0.3,-0.2,940,17,,,,,,,,,,,,,,,,,,,
25522225,1490486175006,0,135.6,-0.6,159.9,22,154.3,14.15,0.02,0.07,0.98,-3.7,0.4,-0.2,940,17,0,1,57.5,0,38.159184,-122.454186,0.0,2.409,26.7,9,3,1.9,134,2.5067,2,0.1833,18.1193,17.985,135
25522244,1490486175025,,,,,,,,0.02,0.07,0.99,-3.7,0.4,-0.1,940,17,,,,,,,,,,,,,,,,,,,
25522264,1490486175045,,,,,,,,0.03,0.08,1.0,-3.7,0.3,-0.1,940,17,,,,,,,,,,,,,,,,,,,
25522284,1490486175065,,,,,,,,0.03,0.09,1.0,-3.8,0.3,-0.1,940,17,,,,,,,,,,,,,,,,,,,
25522304,1490486175091,,,,,,,,0.02,0.1,1.0,-3.8,0.2,-0.1,940,17,,,,,,,,,,,,,,,,,,,
25522326,1490486175113,,,,,24,,,0.02,0.09,1.0,-3.9,0.2,-0.1,940,17,0,1,58.75,0,38.159184,-122.454186,0.0,2.409,26.7,9,3,1.9,134,2.5067,2,0.1833,18.1211,17.9867,135
25522345,1490486175132,,,,,,,,0.02,0.1,1.0,-3.9,0.0,-0.1,940,17,,,,,,,,,,,,,,,,,,,
25522365,1490486175152,,,,,,,,0.02,0.09,1.0,-3.9,-0.0,-0.2,960,17,,,,,,,,,,,,,,,,,,,
25522385,1490486175172,,,,,,,,0.01,0.08,1.0,-3.9,-0.0,-0.2,960,17,,,,,,,,,,,,,,,,,,,
25522405,1490486175192,,,,,,,,0.0,0.08,0.99,-3.8,-0.0,-0.3,960,17,,,,,,,,,,,,,,,,,,,
25522427,1490486175214,0,136.8,,161.2,25,155.4,,0.0,0.07,0.99,-3.8,0.0,-0.3,960,17,0,1,58.75,0,38.159184,-122.454186,0.0,2.409,26.7,9,3,1.9,134,2.5067,2,0.1833,18.1228,17.9883,135
25522446,1490486175233,,,,,,,,0.01,0.07,1.0,-3.8,0.1,-0.4,940,17,,,,,,,,,,,,,,,,,,,
25522466,1490486175253,,,,,,,,0.0,0.07,1.0,-3.7,0.1,-0.4,940,17,,,,,,,,,,,,,,,,,,,
25522486,1490486175273,,,,,,,,0.0,0.07,1.0,-3.7,0.1,-0.5,960,17,,,,,,,,,,,,,,,,,,,
25522506,1490486175293,,,,,,,,0.0,0.07,0.99,-3.8,0.2,-0.5,960,17,,,,,,,,,,,,,,,,,,,
25522528,1490486175315,,,,,24,,,0.0,0.07,0.99,-3.8,0.2,-0.6,940,17,0,1,60.0,0,38.159184,-122.454186,0.0,2.409,26.7,9,3,1.9,134,2.5067,2,0.1833,18.1245,17.99,135
25522547,1490486175334,,,,,,,,0.0,0.07,0.99,-3.8,0.3,-0.6,940,17,,,,,,,,,,,,,,,,,,,
25522567,1490486175354,,,,,,,,-0.0,0.07,0.98,-3.8,0.3,-0.6,940,17,,,,,,,,,,,,,,,,,,,
25522587,1490486175374,,,,,,,,-0.0,0.05,0.98,-3.8,0.3,-0.6,940,17,,,,,,,,,,,,,,,,,,,
25522607,1490486175394,,,,,,,,0.0,0.04,0.97,-3.7,0.4,-0.5,940,2,,,,,,,,,,,,,,,,,,,
25522629,1490486175416,0,135.6,,159.9,26,154.5,,0.0,0.05,0.98,-3.8,0.3,-0.5,940,2,0,1,58.75,0,38.159184,-122.454186,0.0,2.409,26.7,9,3,1.9,134,2.5067,2,0.1833,18.1262,17.9917,135
25522648,1490486175435,,,,,,,,0.0,0.04,0.97,-3.8,0.4,-0.4,940,2,,,,,,,,,,,,,,,,,,,
25522668,1490486175455,,,,,,,,0.01,0.04,0.97,-3.8,0.5,-0.5,940,2,,,,,,,,,,,,,,,,,,,
25522688,1490486175475,,,,,,,,0.01,0.05,0.96,-3.9,0.6,-0.4,920,2,,,,,,,,,,,,,,,,,,,
25522708,1490486175495,,,,,,,,0.01,0.06,0.96,-4.0,0.5,-0.2,920,14,,,,,,,,,,,,,,,,,,,
25522730,1490486175517,,,,,24,,,0.01,0.06,0.96,-4.2,0.4,-0.2,920,14,0,1,940.0,0,38.159184,-122.454186,0.0,2.409,26.7,9,3,1.9,134,2.5067,2,0.1833,18.1278,17.9933,135
25522749,1490486175536,,,,,,,,0.02,0.05,0.97,-4.3,0.4,-0.1,920,14,,,,,,,,,,,,,,,,,,,
25522769,1490486175556,,,,,,,,0.03,0.06,0.98,-4.4,0.4,-0.1,920,14,,,,,,,,,,,,,,,,,,,
25522789,1490486175576,,,,,,,,0.03,0.07,0.98,-4.4,0.4,-0.1,920,14,,,,,,,,,,,,,,,,,,,
25522809,1490486175596,,,,,,,,0.03,0.09,0.99,-4.4,0.3,-0.1,920,14,,,,,,,,,,,,,,,,,,,
