"Interval"|"ms"|0|0|1,"Utc"|"ms"|0|0|1,"FuelLevel"|"F"|0|100|5,"OilTemp"|"F"|0.0|300.0|5,"CoolantPressPSI"|"PSI"|0.0|20.0|1,"Coolant"|"F"|0.0|300.0|5,"OilPress"|"PSI"|0|150|10,"EngineTemp"|"F"|0.0|300.0|5,"Battery"|"Volts"|0.0|20.0|1,"AccelX"|"G"|-3.0|3.0|50,"AccelY"|"G"|-3.0|3.0|50,"AccelZ"|"G"|-3.0|3.0|50,"Yaw"|"Deg/Sec"|-300.0|300.0|50,"Pitch"|"Deg/Sec"|-300.0|300.0|50,"Roll"|"Deg/Sec"|-300.0|300.0|50,"RPM"|""|0|10000|50,"Driveshaft"|"RPM"|0|5000|50,"GPIO1"|""|0|1|10,"GPIO2"|""|0|1|10,"GearRatio"|""|-5.0|5.0|10,"Gear"|""|-1|5|10,"Latitude"|"Degrees"|-180.0|180.0|10,"Longitude"|"Degrees"|-180.0|180.0|10,"Speed"|"mph"|0.0|150.0|10,"Distance"|"mi"|0.0|0.0|10,"Altitude"|"ft"|0.0|4000.0|10,"GPSSats"|""|0|20|10,"GPSQual"|""|0|5|10,"GPSDOP"|""|0.0|20.0|10,"LapCount"|""|0|0|10,"LapTime"|"Min"|0.0|0.0|10,"Sector"|""|0|0|10,"SectorTime"|"Min"|0.0|0.0|10,"PredTime"|"Min"|0.0|0.0|10,"ElapsedTime"|"Min"|0.0|0.0|10,"CurrentLap"|""|0|0|10
4301656,1490556637571,,,,,,,,0.01,0.05,0.99,-3.0,-0.3,-0.3,20,0,,,,,,,,,,,,,,,,,,,
4301676,1490556637591,,,,,,,,0.0,0.05,0.98,-3.0,-0.1,-0.2,20,0,,,,,,,,,,,,,,,,,,,
4301696,1490556637611,,,,,,,,0.01,0.05,0.99,-3.0,0.0,-0.2,320,0,,,,,,,,,,,,,,,,,,,
4301716,1490556637631,,,,,,,,0.0,0.04,0.99,-3.0,0.0,-0.4,320,0,,,,,,,,,,,,,,,,,,,
4301738,1490556637653,,,,,0,,,0.01,0.05,0.99,-3.0,0.3,-0.4,500,0,0,1,0.0,0,38.158772,-122.453072,0.0,2.321,-21.2,9,2,1.5,27,2.3533,2,0.1333,6.8259,7.3217,28
4301757,1490556637672,,,,,,,,0.01,0.05,0.99,-3.0,0.1,-0.3,600,0,,,,,,,,,,,,,,,,,,,
4301777,1490556637693,,,,,,,,0.01,0.04,0.99,-3.0,0.2,-0.3,600,0,,,,,,,,,,,,,,,,,,,
4301797,1490556637713,,,,,,,,0.01,0.06,0.99,-3.0,0.2,-0.1,660,0,,,,,,,,,,,,,,,,,,,
4301817,1490556637733,,,,,,,,0.01,0.06,0.99,-3.0,0.1,-0.1,760,0,,,,,,,,,,,,,,,,,,,
4301839,1490556637755,0,165.6,,173.6,0,186.3,,0.01,0.06,0.99,-3.0,-0.0,-0.3,820,0,0,0,0.0,0,38.158772,-122.453072,0.0,2.321,-21.2,9,2,1.5,27,2.3533,2,0.1333,6.8259,7.3233,28
4301858,1490556637774,,,,,,,,0.01,0.06,0.99,-2.9,-0.2,-0.5,860,0,,,,,,,,,,,,,,,,,,,
4301878,1490556637793,,,,,,,,0.0,0.05,0.99,-2.9,-0.2,-0.6,860,0,,,,,,,,,,,,,,,,,,,
4301898,1490556637813,,,,,,,,0.01,0.04,0.99,-2.9,-0.1,-0.6,820,0,,,,,,,,,,,,,,,,,,,
4301918,1490556637833,,,,,,,,0.01,0.05,0.99,-3.0,-0.0,-0.3,780,0,,,,,,,,,,,,,,,,,,,
4301940,1490556637855,,,,,0,,,0.01,0.06,1.0,-3.0,-0.1,-0.2,780,0,0,0,0.0,0,38.158772,-122.453072,0.0,2.321,-21.2,9,2,1.5,27,2.3533,2,0.1333,6.8259,7.325,28
4301959,1490556637874,,,,,,,,0.01,0.06,1.0,-2.9,-0.0,-0.3,800,0,,,,,,,,,,,,,,,,,,,
4301979,1490556637893,,,,,,,,0.01,0.07,1.0,-3.0,-0.2,-0.4,840,0,,,,,,,,,,,,,,,,,,,
4301999,1490556637913,,,,,,,,0.01,0.06,1.0,-3.0,-0.1,-0.4,840,0,,,,,,,,,,,,,,,,,,,
4302019,1490556637933,,,,,,,,0.01,0.07,1.0,-3.0,-0.0,-0.2,820,0,,,,,,,,,,,,,,,,,,,
4302041,1490556637955,0,164.7,,172.7,2,185.9,,0.02,0.08,1.0,-3.0,-0.1,-0.1,880,5,0,0,0.0,0,38.158772,-122.453072,0.0,2.321,-21.2,9,2,1.5,27,2.3533,2,0.1333,6.8259,7.3267,28
4302060,1490556637974,,,,,,,,0.02,0.08,1.0,-3.0,-0.1,-0.0,960,5,,,,,,,,,,,,,,,,,,,
4302080,1490556637994,,,,,,,,0.02,0.08,1.01,-3.0,-0.2,-0.1,1020,5,,,,,,,,,,,,,,,,,,,
4302100,1490556638004,,,,,,,,0.02,0.07,0.99,-3.0,-0.5,-0.1,1040,5,,,,,,,,,,,,,,,,,,,
4302120,1490556638024,,,,,,,,0.03,0.07,0.99,-2.8,-0.5,-0.2,1120,5,,,,,,,,,,,,,,,,,,,
4302142,1490556638046,,,,,2,,,0.03,0.04,1.0,-2.8,-0.5,-0.2,1140,5,0,0,220.0,0,38.158772,-122.453072,0.0,2.321,-21.2,9,2,1.5,27,2.3533,2,0.1333,6.8259,7.3283,28
4302161,1490556638065,,,,,,,,0.02,0.05,1.0,-2.8,-0.4,-0.3,1180,5,,,,,,,,,,,,,,,,,,,
4302181,1490556638093,,,,,,,,0.02,0.06,0.99,-2.8,-0.5,-0.2,1200,5,,,,,,,,,,,,,,,,,,,
4302201,1490556638113,,,,,,,,0.02,0.06,0.99,-2.9,-0.5,-0.1,1180,5,,,,,,,,,,,,,,,,,,,
4302221,1490556638133,,,,,,,,0.02,0.05,1.0,-2.9,-0.5,-0.1,1340,5,,,,,,,,,,,,,,,,,,,
4302243,1490556638155,0,165.6,0.1,173.6,4,187.0,13.74,0.02,0.06,1.01,-2.9,-0.2,-0.2,1400,5,0,0,285.0,0,38.158772,-122.453072,0.0,2.321,-21.2,9,2,1.5,27,2.3533,2,0.1333,6.8259,7.33,28
4302262,1490556638174,,,,,,,,0.02,0.05,1.0,-2.9,-0.1,-0.2,1540,5,,,,,,,,,,,,,,,,,,,
4302282,1490556638196,,,,,,,,0.02,0.05,1.01,-2.8,-0.0,-0.3,1600,5,,,,,,,,,,,,,,,,,,,
4302302,1490556638216,,,,,,,,0.03,0.06,0.99,-2.8,-0.2,-0.3,1680,5,,,,,,,,,,,,,,,,,,,
4302322,1490556638236,,,,,,,,0.02,0.05,0.99,-2.8,-0.1,-0.1,1780,5,,,,,,,,,,,,,,,,,,,
4302344,1490556638258,,,,,7,,,0.02,0.06,0.99,-2.9,0.1,-0.1,1880,5,0,1,350.0,0,38.158772,-122.453072,0.0,2.321,-21.2,9,2,1.5,27,2.3533,2,0.1333,6.8259,7.3317,28
4302363,1490556638277,,,,,,,,0.03,0.07,1.0,-2.9,0.1,-0.1,1980,384615,,,,,,,,,,,,,,,,,,,
4302383,1490556638297,,,,,,,,0.04,0.07,1.01,-2.9,0.1,-0.1,2060,0,,,,,,,,,,,,,,,,,,,
4302403,1490556638317,,,,,,,,0.06,0.05,0.99,-3.0,0.5,-0.3,2160,0,,,,,,,,,,,,,,,,,,,
4302423,1490556638337,,,,,,,,0.07,0.05,0.98,-3.0,0.5,-0.3,2240,0,,,,,,,,,,,,,,,,,,,
4302445,1490556638359,0,165.2,,173.4,15,186.6,,0.08,0.05,0.96,-3.0,0.9,-0.4,2360,0,0,1,470.0,0,38.158772,-122.453072,0.0,2.321,-21.2,9,2,1.5,27,2.3533,2,0.1333,6.8259,7.3333,28
4302464,1490556638378,,,,,,,,0.07,0.04,0.97,-3.0,1.0,-0.4,2340,0,,,,,,,,,,,,,,,,,,,
4302484,1490556638398,,,,,,,,0.05,0.05,0.99,-3.0,0.7,-0.4,2420,0,,,,,,,,,,,,,,,,,,,
4302504,1490556638418,,,,,,,,0.06,0.04,0.98,-3.0,0.6,-0.5,2420,0,,,,,,,,,,,,,,,,,,,
4302524,1490556638438,,,,,,,,0.05,0.05,0.99,-3.0,0.4,-0.5,2380,0,,,,,,,,,,,,,,,,,,,
4302546,1490556638460,,,,,27,,,0.05,0.05,0.98,-3.1,0.4,-0.4,2380,0,0,1,0.0,0,38.158772,-122.453072,0.0,2.321,-21.2,9,2,1.5,27,2.3533,2,0.1333,6.8259,7.335,28
4302565,1490556638479,,,,,,,,0.05,0.06,0.98,-3.1,0.3,-0.4,2280,0,,,,,,,,,,,,,,,,,,,
4302585,1490556638501,,,,,,,,0.05,0.07,0.99,-3.1,0.3,-0.4,2280,0,,,,,,,,,,,,,,,,,,,
4302605,1490556638521,,,,,,,,0.04,0.07,0.99,-3.1,0.2,-0.4,2220,0,,,,,,,,,,,,,,,,,,,
4302625,1490556638541,,,,,,,,0.04,0.07,0.98,-3.1,0.2,-0.3,2220,0,,,,,,,,,,,,,,,,,,,
4302647,1490556638563,0,165.4,,173.5,33,185.8,,0.04,0.08,0.99,-3.1,0.2,-0.3,2160,0,0,1,0.0,0,38.158772,-122.453072,0.0,2.321,-21.2,9,2,1.5,27,2.3533,2,0.1333,6.8259,7.3367,28
4302666,1490556638582,,,,,,,,0.04,0.09,0.99,-3.1,0.2,-0.3,2160,0,,,,,,,,,,,,,,,,,,,
4302686,1490556638600,,,,,,,,0.04,0.08,0.99,-3.1,0.3,-0.3,2120,0,,,,,,,,,,,,,,,,,,,
4302706,1490556638620,,,,,,,,0.04,0.09,0.99,-3.1,0.4,-0.3,2020,0,,,,,,,,,,,,,,,,,,,
4302726,1490556638640,,,,,,,,0.03,0.08,0.99,-3.1,0.4,-0.2,1980,0,,,,,,,,,,,,,,,,,,,
4302748,1490556638662,,,,,39,,,0.02,0.09,1.01,-3.1,0.4,-0.2,1980,0,0,1,0.0,0,38.158772,-122.453072,0.0,2.321,-21.2,9,2,1.5,27,2.3533,2,0.1333,6.8259,7.3383,28
4302767,1490556638681,,,,,,,,0.01,0.09,1.01,-3.1,0.1,-0.1,1960,0,,,,,,,,,,,,,,,,,,,
4302787,1490556638701,,,,,,,,0.01,0.09,1.01,-3.1,-0.1,-0.1,1880,0,,,,,,,,,,,,,,,,,,,
4302807,1490556638721,,,,,,,,-0.0,0.09,1.02,-3.1,-0.1,-0.1,1860,0,,,,,,,,,,,,,,,,,,,
4302827,1490556638741,,,,,,,,-0.01,0.1,1.02,-3.1,-0.1,-0.1,1860,0,,,,,,,,,,,,,,,,,,,
4302849,1490556638763,0,164.6,,172.8,38,185.9,,-0.01,0.11,1.03,-3.1,0.0,-0.1,1820,0,0,1,0.0,0,38.158772,-122.453072,0.0,2.321,-21.2,9,2,1.5,27,2.3533,2,0.1333,6.8259,7.34,28
4302868,1490556638782,,,,,,,,-0.01,0.12,1.02,-3.1,0.2,-0.1,1740,0,,,,,,,,,,,,,,,,,,,
4302888,1490556638802,,,,,,,,-0.0,0.11,1.02,-3.1,0.3,-0.1,1720,0,,,,,,,,,,,,,,,,,,,
4302908,1490556638822,,,,,,,,0.0,0.11,1.02,-3.1,0.1,-0.1,1700,0,,,,,,,,,,,,,,,,,,,
4302928,1490556638842,,,,,,,,-0.0,0.11,1.02,-3.1,0.1,-0.1,1640,0,,,,,,,,,,,,,,,,,,,
4302950,1490556638864,,,,,37,,,0.0,0.11,1.02,-3.0,0.3,-0.1,1620,0,0,1,0.0,0,38.158772,-122.453072,0.0,2.321,-21.2,9,2,1.5,27,2.3533,2,0.1333,6.8259,7.3417,28
4302969,1490556638883,,,,,,,,0.01,0.1,1.01,-3.1,0.1,-0.1,1580,0,,,,,,,,,,,,,,,,,,,
4302989,1490556638904,,,,,,,,0.01,0.1,1.01,-3.1,0.1,-0.1,1540,0,,,,,,,,,,,,,,,,,,,
4303009,1490556638924,,,,,,,,0.01,0.1,1.01,-3.1,0.1,-0.1,1520,0,,,,,,,,,,,,,,,,,,,
4303029,1490556638944,,,,,,,,0.01,0.09,1.01,-3.1,0.1,-0.1,1480,0,,,,,,,,,,,,,,,,,,,
4303051,1490556638966,0,165.4,,173.5,30,185.7,,0.01,0.09,1.01,-3.1,0.2,-0.1,1440,0,0,1,0.0,0,38.158772,-122.453072,0.0,2.321,-21.2,9,2,1.5,27,2.3533,2,0.1333,6.8259,7.3433,28
4303070,1490556638985,,,,,,,,0.01,0.1,1.01,-3.1,0.0,-0.1,1400,0,,,,,,,,,,,,,,,,,,,
4303090,1490556638995,,,,,,,,0.01,0.09,1.01,-3.1,0.1,-0.2,1380,0,,,,,,,,,,,,,,,,,,,
4303110,1490556639015,,,,,,,,0.02,0.09,1.01,-3.1,0.0,-0.2,1340,0,,,,,,,,,,,,,,,,,,,
4303130,1490556639035,,,,,,,,0.02,0.1,1.0,-3.1,-0.0,-0.2,1300,0,,,,,,,,,,,,,,,,,,,
4303152,1490556639057,,,,,28,,,0.02,0.1,1.0,-3.1,-0.1,-0.2,1260,0,0,1,0.0,0,38.158772,-122.453072,0.0,2.321,-21.2,9,2,1.5,27,2.3533,2,0.1333,6.8259,7.345,28
4303171,1490556639076,,,,,,,,0.02,0.1,1.0,-3.1,-0.2,-0.2,1240,0,,,,,,,,,,,,,,,,,,,
4303191,1490556639104,,,,,,,,0.02,0.1,1.0,-3.2,-0.0,-0.2,1220,0,,,,,,,,,,,,,,,,,,,
4303211,1490556639124,,,,,,,,0.02,0.09,1.0,-3.2,-0.1,-0.2,1160,0,,,,,,,,,,,,,,,,,,,
4303231,1490556639144,,,,,,,,0.02,0.09,1.0,-3.1,-0.1,-0.2,1120,0,,,,,,,,,,,,,,,,,,,
4303253,1490556639166,0,165.4,-1.0,173.3,23,185.4,14.23,0.02,0.09,1.0,-3.1,-0.1,-0.2,1100,0,0,1,0.0,0,38.158772,-122.453072,0.0,2.321,-21.2,9,2,1.5,27,2.3533,2,0.1333,6.8259,7.3467,28
4303272,1490556639185,,,,,,,,0.02,0.08,1.0,-3.2,0.0,-0.2,1060,0,,,,,,,,,,,,,,,,,,,
4303292,1490556639205,,,,,,,,0.03,0.08,1.0,-3.2,0.0,-0.2,1040,0,,,,,,,,,,,,,,,,,,,
4303312,1490556639225,,,,,,,,0.03,0.08,0.99,-3.2,0.0,-0.2,1000,0,,,,,,,,,,,,,,,,,,,
4303332,1490556639245,,,,,,,,0.03,0.08,0.99,-3.1,0.0,-0.3,1000,0,,,,,,,,,,,,,,,,,,,
4303354,1490556639267,,,,,20,,,0.03,0.08,0.99,-3.2,0.1,-0.2,980,0,0,1,0.0,0,38.158772,-122.453072,0.0,2.321,-21.2,9,2,1.5,27,2.3533,2,0.1333,6.8259,7.3483,28
4303373,1490556639286,,,,,,,,0.03,0.08,0.99,-3.2,0.1,-0.2,960,0,,,,,,,,,,,,,,,,,,,
4303393,1490556639308,,,,,,,,0.03,0.08,0.99,-3.2,0.2,-0.3,920,0,,,,,,,,,,,,,,,,,,,
4303413,1490556639328,,,,,,,,0.03,0.08,0.99,-3.1,0.1,-0.3,880,0,,,,,,,,,,,,,,,,,,,
4303433,1490556639348,,,,,,,,0.03,0.07,0.99,-3.1,0.1,-0.3,840,0,,,,,,,,,,,,,,,,,,,
4303455,1490556639370,0,165.6,,174.1,17,186.9,,0.03,0.07,0.99,-3.1,0.0,-0.3,840,0,0,1,0.0,0,38.158772,-122.453072,0.0,2.321,-21.2,9,2,1.5,27,2.3533,2,0.1333,6.8259,7.35,28
4303474,1490556639389,,,,,,,,0.02,0.07,0.99,-3.1,0.0,-0.2,840,0,,,,,,,,,,,,,,,,,,,
4303494,1490556639405,,,,,,,,0.03,0.07,0.99,-3.1,-0.0,-0.2,820,0,,,,,,,,,,,,,,,,,,,
4303514,1490556639425,,,,,,,,0.03,0.08,0.99,-3.1,-0.0,-0.2,840,0,,,,,,,,,,,,,,,,,,,
4303534,1490556639445,,,,,,,,0.02,0.08,0.99,-3.1,-0.2,-0.2,840,0,,,,,,,,,,,,,,,,,,,
4303556,1490556639467,,,,,16,,,0.02,0.07,0.99,-3.1,-0.2,-0.3,840,0,0,1,0.0,0,38.158772,-122.453072,0.0,2.321,-21.2,9,2,1.5,27,2.3533,2,0.1333,6.8259,7.3517,28
4303575,1490556639486,,,,,,,,0.02,0.07,0.99,-3.1,-0.2,-0.3,840,0,,,,,,,,,,,,,,,,,,,
4303595,1490556639510,,,,,,,,0.02,0.07,0.99,-3.1,-0.2,-0.3,840,0,,,,,,,,,,,,,,,,,,,
4303615,1490556639530,,,,,,,,0.02,0.07,0.99,-3.1,-0.1,-0.3,840,0,,,,,,,,,,,,,,,,,,,
4303635,1490556639550,,,,,,,,0.02,0.07,0.99,-3.1,-0.1,-0.3,820,0,,,,,,,,,,,,,,,,,,,
4303657,1490556639572,0,164.6,,173.3,14,185.7,,0.02,0.08,0.99,-3.1,-0.2,-0.3,820,0,0,1,0.0,0,38.158772,-122.453072,0.0,2.321,-21.2,9,2,1.5,27,2.3533,2,0.1333,6.8259,7.3533,28
4303676,1490556639591,,,,,,,,0.02,0.08,0.99,-3.1,-0.3,-0.3,820,0,,,,,,,,,,,,,,,,,,,
4303696,1490556639611,,,,,,,,0.02,0.07,0.99,-3.1,-0.2,-0.4,820,0,,,,,,,,,,,,,,,,,,,
4303716,1490556639631,,,,,,,,0.02,0.07,0.99,-3.1,-0.2,-0.4,820,0,,,,,,,,,,,,,,,,,,,
4303736,1490556639651,,,,,,,,0.02,0.07,0.99,-3.1,-0.2,-0.3,800,0,,,,,,,,,,,,,,,,,,,
4303758,1490556639673,,,,,13,,,0.02,0.06,0.99,-3.1,-0.1,-0.3,800,0,0,1,0.0,0,38.158772,-122.453072,0.0,2.321,-21.2,9,2,1.5,27,2.3533,2,0.1333,6.8259,7.355,28
4303777,1490556639692,,,,,,,,0.02,0.07,0.99,-3.1,-0.1,-0.2,800,0,,,,,,,,,,,,,,,,,,,
4303797,1490556639712,,,,,,,,0.02,0.06,1.0,-3.1,-0.2,-0.2,800,0,,,,,,,,,,,,,,,,,,,
4303817,1490556639732,,,,,,,,0.02,0.06,1.0,-3.1,-0.1,-0.3,780,0,,,,,,,,,,,,,,,,,,,
4303837,1490556639752,,,,,,,,0.02,0.06,0.99,-3.0,-0.1,-0.2,780,0,,,,,,,,,,,,,,,,,,,
4303859,1490556639774,0,165.5,,174.3,14,186.5,,0.02,0.07,0.99,-3.0,-0.1,-0.2,780,0,0,1,0.0,0,38.158772,-122.453072,0.0,2.321,-21.2,9,2,1.5,27,2.3533,2,0.1333,6.8259,7.3567,28
4303878,1490556639793,,,,,,,,0.02,0.07,1.0,-3.1,-0.2,-0.2,760,0,,,,,,,,,,,,,,,,,,,
4303898,1490556639813,,,,,,,,0.02,0.07,1.0,-3.0,-0.3,-0.2,780,0,,,,,,,,,,,,,,,,,,,
4303918,1490556639833,,,,,,,,0.02,0.07,1.0,-3.0,-0.3,-0.3,780,0,,,,,,,,,,,,,,,,,,,
4303938,1490556639853,,,,,,,,0.02,0.07,0.99,-3.1,-0.3,-0.2,760,0,,,,,,,,,,,,,,,,,,,
4303960,1490556639875,,,,,12,,,0.02,0.07,1.0,-3.1,-0.2,-0.2,780,0,0,1,0.0,0,38.158772,-122.453072,0.0,2.321,-21.2,9,2,1.5,27,2.3533,2,0.1333,6.8259,7.3583,28
4303979,1490556639893,,,,,,,,0.02,0.08,1.0,-3.0,-0.3,-0.2,760,0,,,,,,,,,,,,,,,,,,,
4303999,1490556639913,,,,,,,,0.02,0.07,1.0,-3.0,-0.3,-0.3,760,0,,,,,,,,,,,,,,,,,,,
4304019,1490556639933,,,,,,,,0.02,0.07,0.99,-3.0,-0.2,-0.3,760,0,,,,,,,,,,,,,,,,,,,
4304039,1490556639953,,,,,,,,0.02,0.07,0.99,-3.0,-0.2,-0.2,760,0,,,,,,,,,,,,,,,,,,,
4304061,1490556639975,0,164.8,,173.7,12,185.5,,0.02,0.08,0.99,-3.1,-0.2,-0.1,760,0,0,1,0.0,0,38.158772,-122.453072,0.0,2.321,-21.2,9,2,1.5,27,2.3533,2,0.1333,6.8259,7.36,28
4304080,1490556639994,,,,,,,,0.02,0.08,1.0,-3.0,-0.2,-0.2,760,0,,,,,,,,,,,,,,,,,,,
4304100,1490556640004,,,,,,,,0.02,0.07,1.0,-3.0,-0.1,-0.2,780,0,,,,,,,,,,,,,,,,,,,
4304120,1490556640024,,,,,,,,0.02,0.07,1.0,-3.0,-0.1,-0.2,780,0,,,,,,,,,,,,,,,,,,,
4304140,1490556640044,,,,,,,,0.02,0.07,0.99,-3.0,0.0,-0.1,780,0,,,,,,,,,,,,,,,,,,,
4304162,1490556640066,,,,,13,,,0.02,0.08,1.0,-3.0,-0.1,-0.1,780,0,0,1,0.0,0,38.158772,-122.453072,0.0,2.321,-21.2,9,2,1.5,27,2.3533,2,0.1333,6.8259,7.3617,28
4304181,1490556640095,,,,,,,,0.01,0.07,1.0,-3.0,-0.2,-0.2,760,0,,,,,,,,,,,,,,,,,,,
4304201,1490556640115,,,,,,,,0.02,0.07,0.99,-3.0,-0.2,-0.2,800,0,,,,,,,,,,,,,,,,,,,
4304221,1490556640135,,,,,,,,0.02,0.06,0.99,-3.0,-0.2,-0.1,800,0,,,,,,,,,,,,,,,,,,,
4304241,1490556640155,,,,,,,,0.02,0.07,0.99,-3.1,-0.0,-0.0,800,0,,,,,,,,,,,,,,,,,,,
4304263,1490556640177,0,165.1,-1.2,174.5,13,186.2,13.96,0.02,0.08,1.0,-3.1,-0.1,-0.0,820,0,0,1,0.0,0,38.158772,-122.453072,0.0,2.321,-21.2,9,2,1.5,27,2.3533,2,0.1333,6.8259,7.3633,28
4304282,1490556640196,,,,,,,,0.02,0.08,1.0,-3.1,-0.1,-0.1,840,0,,,,,,,,,,,,,,,,,,,
4304302,1490556640216,,,,,,,,0.01,0.07,1.0,-3.0,-0.2,-0.3,860,0,,,,,,,,,,,,,,,,,,,
4304322,1490556640236,,,,,,,,0.01,0.07,1.0,-3.0,-0.1,-0.3,860,0,,,,,,,,,,,,,,,,,,,
4304342,1490556640256,,,,,,,,0.01,0.06,0.99,-3.0,-0.2,-0.3,880,0,,,,,,,,,,,,,,,,,,,
4304364,1490556640278,,,,,14,,,0.01,0.06,0.99,-3.1,-0.1,-0.2,880,0,0,1,0.0,0,38.158772,-122.453072,0.0,2.321,-21.2,9,2,1.5,27,2.3533,2,0.1333,6.8259,7.365,28
4304383,1490556640297,,,,,,,,0.02,0.06,1.0,-3.1,-0.0,-0.1,900,0,,,,,,,,,,,,,,,,,,,
4304403,1490556640317,,,,,,,,0.02,0.07,1.0,-3.1,0.0,0.0,920,0,,,,,,,,,,,,,,,,,,,
4304423,1490556640337,,,,,,,,0.02,0.09,1.0,-3.2,0.1,0.0,940,0,,,,,,,,,,,,,,,,,,,
4304443,1490556640357,,,,,,,,0.03,0.09,1.0,-3.1,0.1,0.0,940,0,,,,,,,,,,,,,,,,,,,
4304465,1490556640379,0,165.5,,174.2,16,184.9,,0.03,0.1,1.0,-3.1,0.1,0.0,960,0,0,1,0.0,0,38.158772,-122.453072,0.0,2.321,-21.2,9,2,1.5,27,2.3533,2,0.1333,6.8259,7.3667,28
4304484,1490556640398,,,,,,,,0.03,0.11,1.01,-3.1,0.2,0.0,980,0,,,,,,,,,,,,,,,,,,,
4304504,1490556640418,,,,,,,,0.03,0.12,1.01,-3.1,0.2,0.0,1020,0,,,,,,,,,,,,,,,,,,,
4304524,1490556640438,,,,,,,,0.04,0.12,1.02,-3.1,0.2,0.0,1040,0,,,,,,,,,,,,,,,,,,,
4304544,1490556640458,,,,,,,,0.04,0.11,1.02,-3.1,0.1,0.0,1080,0,,,,,,,,,,,,,,,,,,,
4304566,1490556640480,,,,,17,,,0.04,0.11,1.01,-3.1,0.1,0.0,1100,0,0,1,0.0,0,38.158772,-122.453072,0.0,2.321,-21.2,9,2,1.5,27,2.3533,2,0.1333,6.8259,7.3683,28
4304585,1490556640499,,,,,,,,0.04,0.11,1.01,-3.1,0.1,-0.0,1140,0,,,,,,,,,,,,,,,,,,,
4304605,1490556640519,,,,,,,,0.04,0.1,1.01,-3.0,-0.0,-0.1,1140,0,,,,,,,,,,,,,,,,,,,
4304625,1490556640539,,,,,,,,0.04,0.11,1.0,-3.1,0.0,-0.1,1180,0,,,,,,,,,,,,,,,,,,,
4304645,1490556640559,,,,,,,,0.03,0.1,1.0,-3.2,0.0,-0.0,1180,0,,,,,,,,,,,,,,,,,,,
4304667,1490556640581,0,165.4,,174.2,20,184.9,,0.03,0.11,1.0,-3.2,-0.0,-0.0,1220,0,0,1,0.0,0,38.158772,-122.453072,0.0,2.321,-21.2,9,2,1.5,27,2.3533,2,0.1333,6.8259,7.37,28
4304686,1490556640600,,,,,,,,0.03,0.1,1.0,-3.2,0.1,-0.1,1240,0,,,,,,,,,,,,,,,,,,,
4304706,1490556640620,,,,,,,,0.02,0.11,0.99,-3.2,-0.1,-0.1,1260,0,,,,,,,,,,,,,,,,,,,
4304726,1490556640640,,,,,,,,0.02,0.1,0.99,-3.2,0.1,-0.1,1300,0,,,,,,,,,,,,,,,,,,,
4304746,1490556640660,,,,,,,,0.03,0.1,0.99,-3.2,-0.0,-0.0,1320,0,,,,,,,,,,,,,,,,,,,
4304768,1490556640682,,,,,22,,,0.02,0.09,1.0,-3.2,0.1,-0.1,1320,0,0,1,0.0,0,38.158772,-122.453072,0.0,2.321,-21.2,9,2,1.5,27,2.3533,2,0.1333,6.8259,7.3717,28
4304787,1490556640703,,,,,,,,0.03,0.09,1.0,-3.1,0.1,-0.1,1360,0,,,,,,,,,,,,,,,,,,,
4304807,1490556640723,,,,,,,,0.03,0.08,1.0,-3.1,0.1,-0.1,1360,0,,,,,,,,,,,,,,,,,,,
4304827,1490556640743,,,,,,,,0.03,0.09,0.99,-3.1,0.0,-0.1,1360,0,,,,,,,,,,,,,,,,,,,
4304847,1490556640763,,,,,,,,0.03,0.08,0.99,-3.1,-0.1,-0.2,1340,0,,,,,,,,,,,,,,,,,,,
4304869,1490556640785,0,164.9,,174.2,24,184.9,,0.03,0.08,1.0,-3.1,-0.0,-0.2,1320,0,0,1,0.0,0,38.158772,-122.453072,0.0,2.321,-21.2,9,2,1.5,27,2.3533,2,0.1333,6.8259,7.3733,28
4304888,1490556640802,,,,,,,,0.03,0.08,0.99,-3.0,0.1,-0.2,1300,0,,,,,,,,,,,,,,,,,,,
4304908,1490556640822,,,,,,,,0.02,0.08,0.99,-3.1,0.0,-0.2,1240,0,,,,,,,,,,,,,,,,,,,
4304928,1490556640842,,,,,,,,0.02,0.08,0.99,-3.1,0.0,-0.2,1200,0,,,,,,,,,,,,,,,,,,,
4304948,1490556640862,,,,,,,,0.01,0.08,1.0,-3.1,0.0,-0.2,1160,0,,,,,,,,,,,,,,,,,,,
4304970,1490556640884,,,,,21,,,0.01,0.08,1.0,-3.1,0.1,-0.1,1120,0,0,1,0.0,0,38.158772,-122.453072,0.0,2.321,-21.2,9,2,1.5,27,2.3533,2,0.1333,6.8259,7.375,28
4304989,1490556640905,,,,,,,,0.01,0.08,0.99,-3.1,0.1,-0.1,1100,0,,,,,,,,,,,,,,,,,,,
4305009,1490556640925,,,,,,,,0.01,0.09,0.99,-3.2,0.1,-0.1,1060,2,,,,,,,,,,,,,,,,,,,
4305029,1490556640945,,,,,,,,0.01,0.09,0.99,-3.2,0.1,-0.0,1020,2,,,,,,,,,,,,,,,,,,,
4305049,1490556640965,,,,,,,,0.01,0.09,1.0,-3.2,0.2,-0.0,1040,2,,,,,,,,,,,,,,,,,,,
4305071,1490556640987,0,165.6,,175.2,20,186.0,,0.01,0.09,1.0,-3.2,0.2,0.0,1000,2,0,1,0.0,0,38.158772,-122.453072,0.0,2.321,-21.2,9,2,1.5,27,2.3533,2,0.1333,6.8259,7.3767,28
4305090,1490556640995,,,,,,,,0.01,0.09,1.01,-3.2,0.2,0.0,1040,2,,,,,,,,,,,,,,,,,,,
4305110,1490556641015,,,,,,,,0.01,0.09,1.01,-3.2,0.3,0.1,1040,2,,,,,,,,,,,,,,,,,,,
4305130,1490556641035,,,,,,,,0.02,0.1,1.01,-3.2,0.3,0.1,1040,2,,,,,,,,,,,,,,,,,,,
4305150,1490556641055,,,,,,,,0.02,0.1,1.01,-3.2,0.4,0.0,1040,8,,,,,,,,,,,,,,,,,,,
4305172,1490556641077,,,,,19,,,0.02,0.09,1.01,-3.2,0.4,-0.0,1060,8,0,1,1040.0,0,38.158772,-122.453072,0.0,2.321,-21.2,9,2,1.5,27,2.3533,2,0.1333,6.8259,7.3783,28
4305191,1490556641104,,,,,,,,0.01,0.08,1.0,-3.1,0.5,-0.0,1060,8,,,,,,,,,,,,,,,,,,,
4305211,1490556641124,,,,,,,,0.01,0.09,0.99,-3.2,0.4,-0.0,1060,8,,,,,,,,,,,,,,,,,,,
4305231,1490556641144,,,,,,,,0.01,0.1,0.98,-3.2,0.4,-0.0,1080,8,,,,,,,,,,,,,,,,,,,
4305251,1490556641164,,,,,,,,0.01,0.1,0.98,-3.3,0.5,-0.0,1080,12,,,,,,,,,,,,,,,,,,,
4305273,1490556641186,0,165.7,-2.1,175.2,20,185.7,14.35,0.01,0.1,0.99,-3.2,0.7,0.0,1100,12,0,1,151.429,0,38.158772,-122.453072,0.0,2.321,-21.2,9,2,1.5,27,2.3533,2,0.1333,6.8259,7.38,28
4305292,1490556641205,,,,,,,,0.0,0.1,0.99,-3.3,0.6,0.1,1120,12,,,,,,,,,,,,,,,,,,,
4305312,1490556641225,,,,,,,,0.0,0.11,1.0,-3.4,0.6,0.1,1160,12,,,,,,,,,,,,,,,,,,,
4305332,1490556641245,,,,,,,,0.0,0.1,0.99,-3.3,0.5,0.0,1180,18,,,,,,,,,,,,,,,,,,,
4305352,1490556641265,,,,,,,,-0.01,0.1,0.99,-3.3,0.5,-0.1,1200,18,,,,,,,,,,,,,,,,,,,
4305374,1490556641287,,,,,20,,,-0.02,0.1,0.98,-3.3,0.3,-0.0,1220,18,0,1,93.333,0,38.158772,-122.453072,0.0,2.321,-21.2,9,2,1.5,27,2.3533,2,0.1333,6.8259,7.3817,28
4305393,1490556641306,,,,,,,,-0.01,0.09,0.99,-3.3,0.3,0.0,1280,18,,,,,,,,,,,,,,,,,,,
4305413,1490556641326,,,,,,,,-0.01,0.1,0.99,-3.3,0.2,-0.0,1280,23,,,,,,,,,,,,,,,,,,,
4305433,1490556641346,,,,,,,,-0.02,0.08,0.99,-3.3,0.3,-0.0,1320,23,,,,,,,,,,,,,,,,,,,
4305453,1490556641366,,,,,,,,-0.02,0.08,0.98,-3.4,0.2,0.0,1380,25,,,,,,,,,,,,,,,,,,,
4305475,1490556641388,0,164.9,,174.7,22,185.1,,-0.02,0.09,0.98,-3.4,0.2,-0.0,1380,25,0,1,68.889,0,38.158772,-122.453072,0.0,2.321,-21.2,9,2,1.5,27,2.3533,2,0.1333,6.8259,7.3833,28
4305494,1490556641409,,,,,,,,-0.02,0.09,0.98,-3.5,0.1,0.0,1440,25,,,,,,,,,,,,,,,,,,,
4305514,1490556641429,,,,,,,,-0.02,0.09,0.98,-3.6,0.0,0.0,1460,26,,,,,,,,,,,,,,,,,,,
4305534,1490556641449,,,,,,,,-0.03,0.08,0.98,-3.6,0.1,0.1,1480,26,,,,,,,,,,,,,,,,,,,
4305554,1490556641469,,,,,,,,-0.02,0.08,0.98,-3.6,0.0,0.0,1500,26,,,,,,,,,,,,,,,,,,,
4305576,1490556641491,,,,,28,,,-0.03,0.08,0.99,-3.7,0.1,0.1,1500,32,0,1,59.167,0,38.158772,-122.453072,0.0,2.321,-21.2,9,2,1.6,27,2.3533,2,0.1333,6.8259,7.385,28
4305595,1490556641509,,,,,,,,-0.03,0.08,0.99,-3.7,0.1,0.1,1540,32,,,,,,,,,,,,,,,,,,,
4305615,1490556641529,,,,,,,,-0.03,0.09,0.98,-3.8,0.1,0.1,1520,31,,,,,,,,,,,,,,,,,,,
4305635,1490556641549,,,,,,,,-0.03,0.09,0.99,-3.8,0.0,0.0,1500,31,,,,,,,,,,,,,,,,,,,
4305655,1490556641569,,,,,,,,-0.02,0.09,1.0,-3.9,0.1,0.1,1540,37,,,,,,,,,,,,,,,,,,,
4305677,1490556641591,0,164.9,,174.6,28,184.6,,-0.03,0.1,0.99,-3.9,0.2,0.0,1580,37,0,1,46.875,0,38.158772,-122.453072,0.0,2.321,-21.2,9,2,1.6,27,2.3533,2,0.1333,6.8259,7.3867,28
4305696,1490556641609,,,,,,,,-0.02,0.09,1.0,-4.0,0.2,0.0,1580,37,,,,,,,,,,,,,,,,,,,
4305716,1490556641629,,,,,,,,-0.02,0.1,1.0,-4.1,0.2,0.0,1580,42,,,,,,,,,,,,,,,,,,,
4305736,1490556641649,,,,,,,,-0.02,0.1,0.99,-4.2,0.2,-0.0,1600,42,,,,,,,,,,,,,,,,,,,
4305756,1490556641669,,,,,,,,-0.02,0.1,0.98,-4.3,0.1,0.0,1580,40,,,,,,,,,,,,,,,,,,,
4305778,1490556641695,,,,,31,,,-0.02,0.1,0.99,-4.4,0.2,-0.0,1600,40,0,1,42.778,0,38.158772,-122.453072,0.0,2.321,-21.2,9,2,1.6,27,2.3533,2,0.1333,6.8259,7.39,28
4305797,1490556641714,,,,,,,,-0.02,0.1,0.99,-4.5,0.1,-0.0,1600,45,,,,,,,,,,,,,,,,,,,
4305817,1490556641734,,,,,,,,-0.03,0.1,0.98,-4.6,0.2,0.0,1600,45,,,,,,,,,,,,,,,,,,,
4305837,1490556641754,,,,,,,,-0.02,0.11,0.98,-4.7,0.1,-0.0,1620,46,,,,,,,,,,,,,,,,,,,
4305857,1490556641774,,,,,,,,-0.03,0.09,0.99,-4.8,0.2,0.0,1620,48,,,,,,,,,,,,,,,,,,,
4305879,1490556641796,0,165.8,,175.6,33,185.4,,-0.03,0.08,0.98,-4.9,0.2,0.0,1640,54,0,1,40.5,0,38.158772,-122.453072,0.0,2.321,-21.2,9,2,1.6,27,2.3533,2,0.1333,6.8259,7.3917,28
4305898,1490556641815,,,,,,,,-0.03,0.09,0.98,-5.0,0.2,0.1,1640,54,,,,,,,,,,,,,,,,,,,
4305918,1490556641835,,,,,,,,-0.03,0.09,0.98,-5.2,0.1,0.1,1640,60,,,,,,,,,,,,,,,,,,,
4305938,1490556641855,,,,,,,,-0.04,0.09,0.98,-5.3,0.4,0.1,1620,65,,,,,,,,,,,,,,,,,,,
4305958,1490556641875,,,,,,,,-0.04,0.11,0.98,-5.4,0.1,0.1,1640,69,,,,,,,,,,,,,,,,,,,
4305980,1490556641896,,,,,34,,,-0.05,0.1,0.98,-5.5,0.3,0.2,1620,72,0,1,30.943,0,38.158772,-122.453072,0.0,2.321,-21.2,9,2,1.6,27,2.3533,2,0.1333,6.8259,7.3933,28
4305999,1490556641915,,,,,,,,-0.05,0.11,0.97,-5.6,0.5,0.2,1600,72,,,,,,,,,,,,,,,,,,,
4306019,1490556641935,,,,,,,,-0.05,0.11,0.98,-5.7,0.4,0.1,1600,68,,,,,,,,,,,,,,,,,,,
4306039,1490556641955,,,,,,,,-0.06,0.11,0.98,-5.9,0.4,0.2,1600,66,,,,,,,,,,,,,,,,,,,
4306059,1490556641975,,,,,,,,-0.06,0.11,0.99,-6.1,0.6,0.2,1580,71,,,,,,,,,,,,,,,,,,,
4306081,1490556641997,0,165.8,,175.4,34,185.1,,-0.06,0.11,0.99,-6.3,0.5,0.1,1600,77,0,1,23.056,0,38.158772,-122.453072,0.0,2.321,-21.2,9,2,1.6,27,2.3533,2,0.1333,6.8259,7.3933,28
4306100,1490556642008,,,,,,,,-0.06,0.11,0.99,-6.5,0.5,0.1,1620,80,,,,,,,,,,,,,,,,,,,
4306120,1490556642028,,,,,,,,-0.06,0.12,0.99,-6.8,0.5,0.1,1580,77,,,,,,,,,,,,,,,,,,,
4306140,1490556642048,,,,,,,,-0.06,0.13,0.99,-7.0,0.4,0.1,1580,80,,,,,,,,,,,,,,,,,,,
4306160,1490556642068,,,,,,,,-0.06,0.12,0.99,-7.2,0.6,0.1,1600,88,,,,,,,,,,,,,,,,,,,
4306182,1490556642094,,,,,36,,,-0.07,0.11,0.99,-7.3,0.4,0.0,1540,92,0,1,20.789,0,38.158772,-122.453072,0.0,2.321,-21.2,9,2,1.6,27,2.3533,2,0.1333,6.8259,7.3967,28
4306201,1490556642113,,,,,,,,-0.07,0.11,0.98,-7.5,0.5,0.0,1520,89,,,,,,,,,,,,,,,,,,,
4306221,1490556642133,,,,,,,,-0.07,0.12,0.98,-7.8,0.4,-0.0,1560,92,,,,,,,,,,,,,,,,,,,
4306241,1490556642153,,,,,,,,-0.07,0.11,0.97,-7.9,0.2,-0.0,1580,98,,,,,,,,,,,,,,,,,,,
4306261,1490556642173,,,,,,,,-0.07,0.11,0.98,-8.1,0.4,-0.1,1520,102,,,,,,,,,,,,,,,,,,,
4306283,1490556642199,0,165.8,-2.3,175.6,32,184.5,14.26,-0.07,0.11,0.99,-8.3,0.3,-0.1,1520,98,0,1,17.174,0,38.158772,-122.453072,0.0,2.321,-21.2,9,2,1.6,27,2.3533,2,0.1333,6.8259,7.3983,28
4306302,1490556642218,,,,,,,,-0.08,0.12,0.98,-8.5,0.3,-0.0,1500,108,,,,,,,,,,,,,,,,,,,
4306322,1490556642238,,,,,,,,-0.07,0.11,0.98,-8.8,0.3,-0.1,1540,112,,,,,,,,,,,,,,,,,,,
4306342,1490556642258,,,,,,,,-0.08,0.12,0.97,-9.0,0.3,0.0,1520,115,,,,,,,,,,,,,,,,,,,
4306362,1490556642278,,,,,,,,-0.08,0.11,0.98,-9.2,0.2,-0.0,1520,109,,,,,,,,,,,,,,,,,,,
4306384,1490556642298,,,,,32,,,-0.08,0.12,0.97,-9.5,0.2,0.0,1500,112,0,1,15.248,0,38.158772,-122.453072,0.0,2.321,-21.2,9,2,1.6,27,2.3533,2,0.1333,6.8259,7.4,28
4306403,1490556642317,,,,,,,,-0.08,0.12,0.98,-9.7,0.3,0.0,1500,120,,,,,,,,,,,,,,,,,,,
4306423,1490556642337,,,,,,,,-0.08,0.13,0.98,-9.9,0.2,0.0,1540,117,,,,,,,,,,,,,,,,,,,
4306443,1490556642357,,,,,,,,-0.07,0.14,0.98,-10.1,0.2,-0.0,1500,117,,,,,,,,,,,,,,,,,,,
4306463,1490556642377,,,,,,,,-0.07,0.13,0.99,-10.3,0.1,-0.0,1500,125,,,,,,,,,,,,,,,,,,,
4306485,1490556642401,0,165.6,,175.4,31,184.9,,-0.08,0.14,0.99,-10.5,0.1,-0.1,1560,131,0,1,12.931,0,38.158752,-122.453072,1.22,2.321,12.9,9,2,1.6,27,2.3533,2,0.1333,6.8259,7.4017,28
4306504,1490556642420,,,,,,,,-0.07,0.13,0.99,-10.7,0.1,-0.1,1560,131,,,,,,,,,,,,,,,,,,,
4306524,1490556642440,,,,,,,,-0.08,0.12,0.99,-10.9,0.3,-0.2,1560,128,,,,,,,,,,,,,,,,,,,
4306544,1490556642460,,,,,,,,-0.08,0.12,1.0,-11.0,0.0,-0.3,1560,134,,,,,,,,,,,,,,,,,,,
4306564,1490556642480,,,,,,,,-0.07,0.11,0.99,-11.1,0.0,-0.3,1560,142,,,,,,,,,,,,,,,,,,,
4306586,1490556642503,,,,,31,,,-0.08,0.11,0.99,-11.2,0.1,-0.3,1600,138,0,1,11.692,0,38.158752,-122.453072,1.5,2.321,12.9,9,2,1.6,27,2.3533,2,0.1333,6.8259,7.4033,28
4306605,1490556642522,,,,,,,,-0.07,0.11,1.0,-11.3,0.1,-0.4,1560,140,,,,,,,,,,,,,,,,,,,
4306625,1490556642542,,,,,,,,-0.08,0.11,1.0,-11.3,0.3,-0.3,1580,145,,,,,,,,,,,,,,,,,,,
4306645,1490556642562,,,,,,,,-0.08,0.1,0.99,-11.3,0.0,-0.4,1620,151,,,,,,,,,,,,,,,,,,,
4306665,1490556642582,,,,,,,,-0.07,0.09,0.99,-11.4,0.0,-0.3,1620,152,,,,,,,,,,,,,,,,,,,
4306687,1490556642601,1,165.9,,175.5,34,184.4,,-0.07,0.1,0.99,-11.4,-0.0,-0.4,1640,151,0,1,11.449,0,38.158756,-122.453072,2.05,2.321,13.0,9,2,1.5,27,2.3533,2,0.1333,6.8259,7.405,28
4306706,1490556642620,,,,,,,,-0.07,0.1,0.99,-11.5,0.0,-0.4,1620,151,,,,,,,,,,,,,,,,,,,
4306726,1490556642640,,,,,,,,-0.07,0.1,0.99,-11.5,0.1,-0.3,1620,157,,,,,,,,,,,,,,,,,,,
4306746,1490556642660,,,,,,,,-0.07,0.09,1.0,-11.6,0.0,-0.3,1660,155,,,,,,,,,,,,,,,,,,,
4306766,1490556642680,,,,,,,,-0.07,0.08,1.0,-11.6,0.1,-0.3,1660,154,,,,,,,,,,,,,,,,,,,
4306788,1490556642702,,,,,34,,,-0.07,0.09,0.99,-11.6,0.1,-0.2,1680,155,0,1,11.007,0,38.158756,-122.453072,2.61,2.321,13.0,9,2,1.5,27,2.3533,2,0.1333,6.8259,7.4067,28
4306807,1490556642721,,,,,,,,-0.06,0.09,0.99,-11.6,0.0,-0.2,1680,163,,,,,,,,,,,,,,,,,,,
4306827,1490556642741,,,,,,,,-0.06,0.1,0.99,-11.6,-0.1,-0.2,1700,168,,,,,,,,,,,,,,,,,,,
4306847,1490556642761,,,,,,,,-0.06,0.09,0.99,-11.5,-0.1,-0.2,1740,166,,,,,,,,,,,,,,,,,,,
4306867,1490556642781,,,,,,,,-0.06,0.09,0.98,-11.5,0.2,-0.2,1740,169,,,,,,,,,,,,,,,,,,,
4306889,1490556642805,0,166.0,,175.7,35,184.7,,-0.06,0.09,1.0,-11.4,-0.1,-0.1,1740,171,0,1,10.769,0,38.158756,-122.453072,2.56,2.321,13.1,9,2,1.5,27,2.3533,2,0.1333,6.8259,7.4083,28
4306908,1490556642824,,,,,,,,-0.06,0.09,0.99,-11.4,-0.3,-0.1,1760,172,,,,,,,,,,,,,,,,,,,
4306928,1490556642844,,,,,,,,-0.06,0.1,0.99,-11.3,-0.0,-0.1,1780,174,,,,,,,,,,,,,,,,,,,
4306948,1490556642864,,,,,,,,-0.06,0.1,0.98,-11.3,0.1,-0.1,1760,174,,,,,,,,,,,,,,,,,,,
4306968,1490556642884,,,,,,,,-0.05,0.1,0.98,-11.3,0.1,-0.0,1760,177,,,,,,,,,,,,,,,,,,,
4306990,1490556642905,,,,,37,,,-0.05,0.11,0.98,-11.3,0.1,-0.1,1780,180,0,1,10.235,0,38.158756,-122.453072,2.44,2.321,13.2,9,2,1.5,27,2.3533,2,0.1333,6.8259,7.41,28
4307009,1490556642924,,,,,,,,-0.04,0.11,0.99,-11.3,0.2,-0.1,1780,183,,,,,,,,,,,,,,,,,,,
4307029,1490556642944,,,,,,,,-0.05,0.11,0.99,-11.3,0.2,-0.1,1820,183,,,,,,,,,,,,,,,,,,,
4307049,1490556642964,,,,,,,,-0.05,0.12,1.0,-11.3,0.2,-0.2,1820,182,,,,,,,,,,,,,,,,,,,
4307069,1490556642984,,,,,,,,-0.05,0.11,0.99,-11.3,0.3,-0.2,1860,183,,,,,,,,,,,,,,,,,,,
4307091,1490556642998,0,165.9,,175.5,38,184.4,,-0.05,0.12,0.97,-11.4,0.3,-0.2,1840,183,0,1,9.834,0,38.158756,-122.453072,2.87,2.321,13.4,9,2,1.5,27,2.3533,2,0.1333,6.8259,7.4117,28
4307110,1490556643017,,,,,,,,-0.05,0.12,0.99,-11.4,0.4,-0.3,1840,185,,,,,,,,,,,,,,,,,,,
4307130,1490556643037,,,,,,,,-0.04,0.11,0.99,-11.5,0.3,-0.4,1840,186,,,,,,,,,,,,,,,,,,,
4307150,1490556643057,,,,,,,,-0.04,0.12,0.98,-11.5,0.1,-0.4,1860,191,,,,,,,,,,,,,,,,,,,
4307170,1490556643077,,,,,,,,-0.05,0.11,0.99,-11.5,0.1,-0.5,1860,192,,,,,,,,,,,,,,,,,,,
4307192,1490556643105,,,,,39,,,-0.05,0.1,0.99,-11.5,-0.0,-0.5,1860,192,0,1,10.0,0,38.15876,-122.453072,2.82,2.321,13.5,9,2,1.5,27,2.3533,2,0.1333,6.8259,7.4133,28
4307211,1490556643124,,,,,,,,-0.05,0.09,1.0,-11.5,0.0,-0.5,1880,194,,,,,,,,,,,,,,,,,,,
4307231,1490556643144,,,,,,,,-0.05,0.08,0.99,-11.5,0.1,-0.5,1900,197,,,,,,,,,,,,,,,,,,,
4307251,1490556643164,,,,,,,,-0.06,0.09,0.99,-11.6,0.2,-0.5,1880,202,,,,,,,,,,,,,,,,,,,
4307271,1490556643184,,,,,,,,-0.06,0.11,0.98,-11.5,0.2,-0.5,1880,208,,,,,,,,,,,,,,,,,,,
4307293,1490556643208,0,165.9,-1.9,175.5,42,183.3,14.3,-0.06,0.11,0.96,-11.5,0.4,-0.5,1880,208,0,1,9.896,0,38.15876,-122.453072,3.03,2.321,13.5,9,2,1.5,27,2.3533,2,0.1333,6.8259,7.415,28
4307312,1490556643227,,,,,,,,-0.05,0.11,0.97,-11.5,0.5,-0.5,1900,208,,,,,,,,,,,,,,,,,,,
4307332,1490556643247,,,,,,,,-0.05,0.12,0.97,-11.5,0.4,-0.5,1900,208,,,,,,,,,,,,,,,,,,,
4307352,1490556643267,,,,,,,,-0.05,0.12,0.98,-11.6,0.3,-0.5,1880,214,,,,,,,,,,,,,,,,,,,
4307372,1490556643287,,,,,,,,-0.05,0.12,0.98,-11.7,0.2,-0.5,1920,215,,,,,,,,,,,,,,,,,,,
4307394,1490556643310,,,,,39,,,-0.05,0.11,0.99,-11.7,0.1,-0.5,1860,211,0,1,8.986,0,38.15876,-122.453072,2.91,2.321,13.5,9,2,1.5,27,2.3533,2,0.1333,6.8259,7.4167,28
4307413,1490556643329,,,,,,,,-0.06,0.11,0.99,-11.8,0.1,-0.5,1860,214,,,,,,,,,,,,,,,,,,,
4307433,1490556643349,,,,,,,,-0.06,0.11,1.0,-11.9,0.0,-0.4,1900,222,,,,,,,,,,,,,,,,,,,
4307453,1490556643369,,,,,,,,-0.07,0.11,1.0,-12.1,0.0,-0.4,1840,228,,,,,,,,,,,,,,,,,,,
4307473,1490556643389,,,,,,,,-0.08,0.11,1.01,-12.1,0.0,-0.4,1860,228,,,,,,,,,,,,,,,,,,,
4307495,1490556643410,0,165.7,,174.6,41,182.6,,-0.08,0.12,1.0,-12.2,0.1,-0.4,1860,225,0,1,8.774,0,38.15876,-122.453072,3.49,2.321,13.6,9,2,1.5,27,2.3533,2,0.1333,6.8259,7.4183,28
4307514,1490556643429,,,,,,,,-0.08,0.12,1.0,-12.3,0.1,-0.5,1860,232,,,,,,,,,,,,,,,,,,,
4307534,1490556643449,,,,,,,,-0.09,0.12,1.01,-12.4,0.1,-0.5,1840,234,,,,,,,,,,,,,,,,,,,
4307554,1490556643469,,,,,,,,-0.08,0.12,0.99,-12.4,-0.2,-0.4,1860,234,,,,,,,,,,,,,,,,,,,
4307574,1490556643489,,,,,,,,-0.09,0.12,1.0,-12.5,-0.3,-0.4,1820,240,,,,,,,,,,,,,,,,,,,
4307596,1490556643511,,,,,40,,,-0.09,0.1,1.01,-12.5,-0.2,-0.3,1800,245,0,1,8.053,0,38.158764,-122.453079,3.59,2.321,13.7,9,2,1.5,27,2.3533,2,0.1333,6.8259,7.42,28
4307615,1490556643530,,,,,,,,-0.09,0.1,1.0,-12.6,-0.2,-0.3,1780,245,,,,,,,,,,,,,,,,,,,
4307635,1490556643550,,,,,,,,-0.09,0.1,1.01,-12.6,-0.3,-0.2,1820,243,,,,,,,,,,,,,,,,,,,
4307655,1490556643570,,,,,,,,-0.09,0.1,1.01,-12.7,-0.3,-0.2,1800,245,,,,,,,,,,,,,,,,,,,
4307675,1490556643590,,,,,,,,-0.09,0.1,1.0,-12.7,-0.4,-0.2,1780,252,,,,,,,,,,,,,,,,,,,
4307697,1490556643612,0,166.0,,175.2,39,182.6,,-0.09,0.09,1.0,-12.7,-0.5,-0.2,1780,257,0,1,7.398,0,38.158764,-122.453079,3.52,2.322,13.8,9,2,1.5,27,2.3533,2,0.1333,6.8259,7.4217,28
4307716,1490556643631,,,,,,,,-0.09,0.09,0.99,-12.7,-0.5,-0.1,1800,257,,,,,,,,,,,,,,,,,,,
4307736,1490556643651,,,,,,,,-0.09,0.1,0.99,-12.8,-0.6,-0.0,1780,258,,,,,,,,,,,,,,,,,,,
4307756,1490556643671,,,,,,,,-0.09,0.1,1.0,-12.8,-0.6,0.0,1780,263,,,,,,,,,,,,,,,,,,,
4307776,1490556643691,,,,,,,,-0.1,0.11,1.0,-12.8,-0.7,0.0,1740,263,,,,,,,,,,,,,,,,,,,
4307798,1490556643713,,,,,39,,,-0.1,0.1,0.98,-12.7,-0.6,-0.0,1740,263,0,1,6.953,0,38.158764,-122.453079,4.38,2.322,13.8,9,2,1.5,27,2.3533,2,0.1333,6.8259,7.4233,28
4307817,1490556643732,,,,,,,,-0.1,0.1,0.99,-12.8,-0.5,-0.1,1720,271,,,,,,,,,,,,,,,,,,,
4307837,1490556643752,,,,,,,,-0.1,0.1,0.98,-12.8,-0.6,-0.2,1720,278,,,,,,,,,,,,,,,,,,,
4307857,1490556643772,,,,,,,,-0.09,0.1,0.99,-12.8,-0.7,-0.3,1720,278,,,,,,,,,,,,,,,,,,,
4307877,1490556643794,,,,,,,,-0.09,0.1,0.99,-12.9,-0.7,-0.3,1720,274,,,,,,,,,,,,,,,,,,,
4307899,1490556643816,0,165.2,,174.4,36,182.2,,-0.09,0.11,0.98,-12.9,-0.7,-0.4,1740,278,0,1,6.616,0,38.158764,-122.453079,4.2,2.322,13.8,9,2,1.5,27,2.3533,2,0.1333,6.8259,7.425,28
4307918,1490556643835,,,,,,,,-0.09,0.11,0.99,-13.0,-0.7,-0.4,1660,282,,,,,,,,,,,,,,,,,,,
4307938,1490556643855,,,,,,,,-0.09,0.12,0.99,-13.1,-1.0,-0.5,1700,291,,,,,,,,,,,,,,,,,,,
4307958,1490556643875,,,,,,,,-0.09,0.11,1.0,-13.2,-0.8,-0.5,1680,288,,,,,,,,,,,,,,,,,,,
4307978,1490556643894,,,,,,,,-0.09,0.11,1.0,-13.3,-0.8,-0.4,1660,283,,,,,,,,,,,,,,,,,,,
4308000,1490556643916,,,,,35,,,-0.08,0.11,1.0,-13.3,-0.9,-0.5,1680,283,0,1,6.259,0,38.158764,-122.453079,4.54,2.322,13.9,9,2,1.5,27,2.3533,2,0.1333,6.8259,7.4267,28
4308019,1490556643935,,,,,,,,-0.08,0.11,1.0,-13.5,-1.1,-0.5,1640,295,,,,,,,,,,,,,,,,,,,
4308039,1490556643955,,,,,,,,-0.08,0.11,0.99,-13.5,-1.0,-0.6,1660,305,,,,,,,,,,,,,,,,,,,
4308059,1490556643975,,,,,,,,-0.08,0.12,0.99,-13.6,-1.2,-0.6,1680,303,,,,,,,,,,,,,,,,,,,
4308079,1490556643995,,,,,,,,-0.08,0.11,0.99,-13.6,-1.2,-0.6,1640,295,,,,,,,,,,,,,,,,,,,
4308101,1490556644007,0,166.1,,174.6,35,182.0,,-0.08,0.11,0.98,-13.6,-1.3,-0.5,1660,298,0,1,5.874,0,38.158768,-122.453079,5.05,2.322,14.1,9,2,1.5,27,2.3533,2,0.1333,6.8259,7.4283,28
4308120,1490556644026,,,,,,,,-0.08,0.12,0.98,-13.6,-1.2,-0.5,1640,312,,,,,,,,,,,,,,,,,,,
4308140,1490556644046,,,,,,,,-0.08,0.11,0.98,-13.5,-1.3,-0.6,1660,318,,,,,,,,,,,,,,,,,,,
4308160,1490556644066,,,,,,,,-0.09,0.11,0.97,-13.4,-1.3,-0.7,1640,312,,,,,,,,,,,,,,,,,,,
4308180,1490556644096,,,,,,,,-0.08,0.11,0.97,-13.4,-1.3,-0.8,1640,306,,,,,,,,,,,,,,,,,,,
4308202,1490556644118,,,,,36,,,-0.08,0.09,0.98,-13.3,-1.3,-0.8,1380,318,0,1,5.479,0,38.158768,-122.453079,5.37,2.322,14.3,9,2,1.5,27,2.3533,2,0.1333,6.8259,7.43,28
4308221,1490556644137,,,,,,,,-0.09,0.09,0.98,-13.2,-1.2,-0.8,1620,328,,,,,,,,,,,,,,,,,,,
4308241,1490556644157,,,,,,,,-0.08,0.08,0.98,-13.1,-1.1,-0.9,1620,328,,,,,,,,,,,,,,,,,,,
4308261,1490556644177,,,,,,,,-0.08,0.09,0.98,-13.1,-1.1,-1.0,1580,322,,,,,,,,,,,,,,,,,,,
4308281,1490556644195,,,,,,,,-0.08,0.09,0.98,-13.0,-1.1,-1.1,1540,322,,,,,,,,,,,,,,,,,,,
4308303,1490556644217,0,165.4,-1.9,174.9,32,183.0,14.36,-0.08,0.09,0.98,-12.9,-1.2,-1.3,1440,332,0,1,4.34,0,38.158768,-122.453079,5.31,2.322,14.5,9,2,1.5,27,2.3533,2,0.1333,6.8259,7.4317,28
4308322,1490556644236,,,,,,,,-0.08,0.09,0.98,-12.8,-1.2,-1.4,1400,340,,,,,,,,,,,,,,,,,,,
4308342,1490556644256,,,,,,,,-0.07,0.09,0.99,-12.7,-1.1,-1.6,1320,337,,,,,,,,,,,,,,,,,,,
4308362,1490556644276,,,,,,,,-0.08,0.1,0.99,-12.6,-1.1,-1.7,1300,332,,,,,,,,,,,,,,,,,,,
4308382,1490556644298,,,,,,,,-0.07,0.1,0.99,-12.5,-1.2,-1.8,1240,334,,,,,,,,,,,,,,,,,,,
4308404,1490556644320,,,,,26,,,-0.07,0.09,1.0,-12.3,-1.2,-1.8,1200,345,0,1,4.299,0,38.158772,-122.453094,5.47,2.322,14.6,9,2,1.5,27,2.3533,2,0.1333,6.8259,7.4333,28
4308423,1490556644339,,,,,,,,-0.07,0.09,0.99,-12.2,-1.2,-1.8,1100,338,,,,,,,,,,,,,,,,,,,
4308443,1490556644359,,,,,,,,-0.07,0.08,0.99,-12.1,-1.2,-1.8,1060,325,,,,,,,,,,,,,,,,,,,
4308463,1490556644379,,,,,,,,-0.06,0.08,0.99,-12.0,-1.2,-1.7,1020,314,,,,,,,,,,,,,,,,,,,
4308483,1490556644399,,,,,,,,-0.05,0.08,0.99,-11.9,-1.2,-1.5,980,305,,,,,,,,,,,,,,,,,,,
4308505,1490556644421,0,165.0,,174.1,21,181.9,,-0.04,0.06,0.98,-11.7,-1.3,-1.3,960,305,0,1,3.324,1,38.158772,-122.453094,4.46,2.323,14.7,9,2,1.5,27,2.3533,2,0.1333,6.8259,7.435,28
4308524,1490556644440,,,,,,,,-0.04,0.07,0.98,-11.6,-1.3,-1.1,1000,320,,,,,,,,,,,,,,,,,,,
4308544,1490556644460,,,,,,,,-0.04,0.07,0.98,-11.5,-1.5,-0.8,1020,309,,,,,,,,,,,,,,,,,,,
4308564,1490556644480,,,,,,,,-0.03,0.06,0.98,-11.4,-1.5,-0.5,1040,326,,,,,,,,,,,,,,,,,,,
4308584,1490556644500,,,,,,,,-0.03,0.06,0.98,-11.3,-1.5,-0.3,1080,335,,,,,,,,,,,,,,,,,,,
4308606,1490556644522,,,,,20,,,-0.03,0.07,0.98,-11.2,-1.5,-0.1,1100,343,0,1,3.158,1,38.158775,-122.453094,4.95,2.323,14.8,9,2,1.5,27,2.3533,2,0.1333,6.8259,7.4367,28
4308625,1490556644541,,,,,,,,-0.02,0.08,0.97,-11.1,-1.4,0.0,1120,349,,,,,,,,,,,,,,,,,,,
4308645,1490556644561,,,,,,,,-0.01,0.07,0.98,-11.0,-1.2,0.2,1160,360,,,,,,,,,,,,,,,,,,,
4308665,1490556644581,,,,,,,,-0.0,0.09,0.98,-10.9,-1.1,0.3,1200,362,,,,,,,,,,,,,,,,,,,
4308685,1490556644601,,,,,,,,0.0,0.09,0.99,-10.8,-1.1,0.3,1240,380,,,,,,,,,,,,,,,,,,,
4308707,1490556644623,0,165.9,,174.8,23,182.3,,-0.0,0.1,1.0,-10.7,-0.9,0.2,1260,386,0,1,3.226,1,38.158775,-122.453094,4.96,2.323,14.9,9,2,1.5,27,2.3533,2,0.1333,6.8259,7.4383,28
4308726,1490556644642,,,,,,,,0.0,0.1,1.0,-10.7,-0.9,0.2,1260,394,,,,,,,,,,,,,,,,,,,
4308746,1490556644662,,,,,,,,0.0,0.1,1.0,-10.6,-1.1,0.3,1300,402,,,,,,,,,,,,,,,,,,,
4308766,1490556644682,,,,,,,,0.01,0.1,1.01,-10.5,-0.7,0.2,1320,382,,,,,,,,,,,,,,,,,,,
4308786,1490556644702,,,,,,,,-0.01,0.1,1.0,-10.5,-0.6,0.2,1340,331,,,,,,,,,,,,,,,,,,,
4308808,1490556644724,,,,,25,,,-0.0,0.1,1.0,-10.4,-0.6,0.2,1340,312,0,1,3.264,1,38.158775,-122.453094,5.34,2.323,15.0,9,2,1.5,27,2.3533,2,0.1333,6.8259,7.44,28
4308827,1490556644743,,,,,,,,0.0,0.1,1.01,-10.4,-0.3,0.1,1360,360,,,,,,,,,,,,,,,,,,,
4308847,1490556644763,,,,,,,,-0.0,0.1,1.01,-10.3,-0.1,0.1,1360,394,,,,,,,,,,,,,,,,,,,
4308867,1490556644783,,,,,,,,-0.0,0.09,1.02,-10.3,-0.0,0.1,1380,368,,,,,,,,,,,,,,,,,,,
4308887,1490556644803,,,,,,,,-0.01,0.09,1.01,-10.2,0.1,0.2,1380,326,,,,,,,,,,,,,,,,,,,
4308909,1490556644825,0,165.9,,174.2,26,181.0,,-0.01,0.09,1.02,-10.0,0.3,0.2,1380,340,0,1,4.214,0,38.158779,-122.453094,6.23,2.323,15.1,9,2,1.5,27,2.3533,2,0.1333,6.8259,7.4417,28
4308928,1490556644844,,,,,,,,-0.01,0.09,1.02,-9.9,0.4,0.1,1400,383,,,,,,,,,,,,,,,,,,,
4308948,1490556644864,,,,,,,,-0.02,0.09,1.02,-9.8,0.4,0.0,1420,394,,,,,,,,,,,,,,,,,,,
4308968,1490556644884,,,,,,,,-0.02,0.09,1.01,-9.7,0.4,-0.1,1420,355,,,,,,,,,,,,,,,,,,,
4308988,1490556644904,,,,,,,,-0.03,0.1,1.0,-9.6,0.2,-0.2,1420,337,,,,,,,,,,,,,,,,,,,
4309010,1490556644926,,,,,29,,,-0.02,0.09,1.0,-9.5,0.3,-0.3,1420,363,0,1,3.988,0,38.158779,-122.453094,6.03,2.323,15.1,9,2,1.5,27,2.3533,2,0.1333,6.8259,7.4433,28
4309029,1490556644945,,,,,,,,-0.02,0.09,1.0,-9.4,0.3,-0.2,1420,394,,,,,,,,,,,,,,,,,,,
4309049,1490556644965,,,,,,,,-0.03,0.09,1.0,-9.3,0.3,-0.3,1440,382,,,,,,,,,,,,,,,,,,,
4309069,1490556644985,,,,,,,,-0.03,0.08,1.0,-9.2,0.3,-0.5,1440,348,,,,,,,,,,,,,,,,,,,
4309089,1490556644994,,,,,,,,-0.03,0.09,1.0,-9.0,0.4,-0.6,1440,351,,,,,,,,,,,,,,,,,,,
4309111,1490556645016,0,165.7,,174.7,28,181.9,,-0.02,0.08,0.99,-8.9,0.5,-0.7,1460,386,0,1,-3.817,-1,38.158783,-122.45311,6.29,2.324,15.2,9,2,1.5,27,2.3533,2,0.1333,6.8259,7.445,28
4309130,1490556645035,,,,,,,,-0.02,0.08,1.0,-8.7,0.6,-0.7,1460,394,,,,,,,,,,,,,,,,,,,
4309150,1490556645055,,,,,,,,-0.03,0.08,0.99,-8.5,0.7,-0.7,1460,365,,,,,,,,,,,,,,,,,,,
4309170,1490556645075,,,,,,,,-0.03,0.07,1.0,-8.3,0.8,-0.7,1440,354,,,,,,,,,,,,,,,,,,,
4309190,1490556645105,,,,,,,,-0.02,0.07,1.0,-8.1,0.8,-0.7,1440,382,,,,,,,,,,,,,,,,,,,
4309212,1490556645127,,,,,29,,,-0.02,0.06,0.99,-7.9,0.7,-0.7,1460,398,0,1,-3.664,-1,38.158783,-122.45311,6.2,2.324,15.2,9,2,1.5,27,2.3533,2,0.1333,6.8259,7.4467,28
4309231,1490556645146,,,,,,,,-0.03,0.06,0.99,-7.6,0.8,-0.9,1440,383,,,,,,,,,,,,,,,,,,,
4309251,1490556645166,,,,,,,,-0.03,0.06,0.98,-7.4,0.8,-1.1,1460,363,,,,,,,,,,,,,,,,,,,
4309271,1490556645186,,,,,,,,-0.03,0.05,0.98,-7.1,0.8,-1.3,1440,382,,,,,,,,,,,,,,,,,,,
4309291,1490556645206,,,,,,,,-0.04,0.06,0.97,-6.8,0.6,-1.3,1480,398,,,,,,,,,,,,,,,,,,,
4309313,1490556645228,0,165.7,-1.6,173.8,29,180.5,14.36,-0.03,0.05,0.97,-6.5,0.5,-1.3,1440,391,0,1,-3.668,-1,38.158783,-122.45311,6.43,2.324,15.2,9,2,1.5,27,2.3533,2,0.1333,6.8259,7.4483,28
4309332,1490556645247,,,,,,,,-0.04,0.03,0.98,-6.1,0.5,-1.1,1460,377,,,,,,,,,,,,,,,,,,,
4309352,1490556645267,,,,,,,,-0.03,0.02,0.99,-5.9,0.5,-1.0,1480,389,,,,,,,,,,,,,,,,,,,
4309372,1490556645287,,,,,,,,-0.04,0.03,0.99,-5.6,0.5,-0.9,1480,397,,,,,,,,,,,,,,,,,,,
4309392,1490556645307,,,,,,,,-0.03,0.02,0.99,-5.4,0.5,-0.8,1460,394,,,,,,,,,,,,,,,,,,,
4309414,1490556645329,,,,,30,,,-0.04,0.02,0.99,-5.1,0.6,-0.8,1460,386,0,1,-3.731,-1,38.158783,-122.45311,5.96,2.324,15.3,9,2,1.5,27,2.3533,2,0.1333,6.8259,7.45,28
4309433,1490556645348,,,,,,,,-0.03,0.02,1.0,-4.9,0.7,-0.8,1460,397,,,,,,,,,,,,,,,,,,,
4309453,1490556645368,,,,,,,,-0.04,0.03,0.99,-4.6,0.7,-0.7,1460,402,,,,,,,,,,,,,,,,,,,
4309473,1490556645388,,,,,,,,-0.03,0.03,0.99,-4.4,0.7,-0.6,1480,397,,,,,,,,,,,,,,,,,,,
4309493,1490556645408,,,,,,,,-0.04,0.03,0.99,-4.1,0.8,-0.4,1460,397,,,,,,,,,,,,,,,,,,,
4309515,1490556645430,0,165.3,,174.1,30,181.2,,-0.03,0.02,0.98,-3.8,0.9,-0.3,1480,403,0,1,-3.805,-1,38.158787,-122.45311,6.1,2.324,15.3,9,2,1.5,27,2.3533,2,0.1333,6.8259,7.4517,28
4309534,1490556645449,,,,,,,,-0.04,0.03,0.98,-3.6,1.0,-0.2,1480,400,,,,,,,,,,,,,,,,,,,
4309554,1490556645469,,,,,,,,-0.04,0.02,0.98,-3.4,0.9,-0.1,1500,400,,,,,,,,,,,,,,,,,,,
4309574,1490556645489,,,,,,,,-0.04,0.03,0.98,-3.3,1.0,0.1,1460,408,,,,,,,,,,,,,,,,,,,
4309594,1490556645509,,,,,,,,-0.04,0.02,0.98,-3.1,1.0,0.1,1480,409,,,,,,,,,,,,,,,,,,,
4309616,1490556645531,,,,,29,,,-0.04,0.02,0.98,-2.9,0.8,0.1,1480,402,0,1,-3.672,-1,38.158787,-122.453125,5.76,2.324,15.4,9,2,1.5,27,2.3533,2,0.1333,6.8259,7.4533,28
4309635,1490556645550,,,,,,,,-0.03,0.02,0.98,-2.8,0.8,0.1,1500,406,,,,,,,,,,,,,,,,,,,
4309655,1490556645570,,,,,,,,-0.04,0.02,0.98,-2.6,0.6,0.1,1480,414,,,,,,,,,,,,,,,,,,,
4309675,1490556645592,,,,,,,,-0.04,0.02,0.99,-2.4,0.5,0.1,1480,409,,,,,,,,,,,,,,,,,,,
4309695,1490556645612,,,,,,,,-0.04,0.03,1.0,-2.3,0.4,0.1,1480,403,,,,,,,,,,,,,,,,,,,
4309717,1490556645634,0,165.7,,173.6,31,180.0,,-0.03,0.02,1.0,-2.1,0.2,0.1,1480,411,0,1,-3.691,-1,38.158791,-122.453125,6.08,2.325,15.5,9,2,1.5,27,2.3533,2,0.1333,6.8259,7.455,28
4309736,1490556645653,,,,,,,,-0.03,0.03,1.01,-1.9,0.2,0.2,1500,418,,,,,,,,,,,,,,,,,,,
4309756,1490556645673,,,,,,,,-0.02,0.02,1.02,-1.7,0.2,0.2,1480,412,,,,,,,,,,,,,,,,,,,
4309776,1490556645693,,,,,,,,-0.03,0.02,1.02,-1.6,-0.0,0.2,1500,405,,,,,,,,,,,,,,,,,,,
4309796,1490556645713,,,,,,,,-0.02,0.01,1.02,-1.4,0.1,0.2,1480,408,,,,,,,,,,,,,,,,,,,
4309818,1490556645735,,,,,31,,,-0.02,0.01,1.02,-1.2,0.1,0.2,1480,415,0,1,3.592,0,38.158791,-122.453125,6.01,2.325,15.6,9,2,1.5,27,2.3533,2,0.1333,6.8259,7.4567,28
4309837,1490556645754,,,,,,,,-0.01,0.01,1.01,-1.0,0.1,0.1,1520,415,,,,,,,,,,,,,,,,,,,
4309857,1490556645774,,,,,,,,-0.02,0.02,1.0,-0.8,0.1,-0.0,1520,412,,,,,,,,,,,,,,,,,,,
4309877,1490556645794,,,,,,,,-0.01,0.02,0.99,-0.6,0.0,-0.2,1520,417,,,,,,,,,,,,,,,,,,,
4309897,1490556645814,,,,,,,,-0.01,0.02,0.98,-0.3,-0.0,-0.4,1520,417,,,,,,,,,,,,,,,,,,,
4309919,1490556645836,0,164.8,,173.5,31,180.4,,-0.01,0.01,0.98,-0.1,-0.1,-0.5,1520,415,0,1,3.584,0,38.158794,-122.453125,6.31,2.325,15.7,9,2,1.5,27,2.3533,2,0.1333,6.8259,7.4583,28
4309938,1490556645855,,,,,,,,-0.01,0.01,0.98,0.2,-0.2,-0.5,1520,418,,,,,,,,,,,,,,,,,,,
4309958,1490556645875,,,,,,,,-0.01,0.0,0.98,0.4,-0.1,-0.5,1520,420,,,,,,,,,,,,,,,,,,,
4309978,1490556645894,,,,,,,,-0.01,0.0,0.99,0.6,-0.2,-0.4,1520,414,,,,,,,,,,,,,,,,,,,
4309998,1490556645914,,,,,,,,-0.01,0.01,0.98,0.8,-0.2,-0.4,1520,417,,,,,,,,,,,,,,,,,,,
4310020,1490556645936,,,,,34,,,-0.0,0.0,0.99,0.9,-0.1,-0.3,1560,422,0,1,-3.654,-1,38.158794,-122.453125,6.76,2.325,15.8,9,2,1.5,27,2.3533,2,0.1333,6.8259,7.46,28
4310039,1490556645955,,,,,,,,-0.01,0.01,0.99,1.0,-0.2,-0.3,1540,418,,,,,,,,,,,,,,,,,,,
4310059,1490556645975,,,,,,,,-0.0,0.0,1.0,1.2,0.1,-0.3,1540,412,,,,,,,,,,,,,,,,,,,
4310079,1490556645995,,,,,,,,-0.01,0.01,1.0,1.3,0.1,-0.2,1560,414,,,,,,,,,,,,,,,,,,,
4310099,1490556646005,,,,,,,,-0.01,0.01,1.0,1.4,0.2,-0.0,1560,417,,,,,,,,,,,,,,,,,,,
4310121,1490556646027,0,164.9,,173.0,32,179.5,,0.0,0.02,0.99,1.4,0.2,0.1,1560,417,0,1,-3.714,-1,38.158798,-122.453125,6.86,2.325,15.9,9,2,1.5,27,2.3533,2,0.1333,6.8259,7.4617,28
4310140,1490556646046,,,,,,,,-0.0,0.02,0.99,1.5,0.1,0.1,1580,411,,,,,,,,,,,,,,,,,,,
4310160,1490556646066,,,,,,,,0.01,0.02,0.99,1.6,0.3,0.2,1580,406,,,,,,,,,,,,,,,,,,,
4310180,1490556646096,,,,,,,,0.01,0.02,1.0,1.6,0.3,0.2,1580,402,,,,,,,,,,,,,,,,,,,
4310200,1490556646116,,,,,,,,0.01,0.01,0.99,1.7,0.5,0.3,1560,400,,,,,,,,,,,,,,,,,,,
4310222,1490556646138,,,,,33,,,0.01,0.02,0.99,1.7,0.2,0.3,1560,400,0,1,-3.777,-1,38.158802,-122.453133,7.23,2.325,16.0,9,2,1.5,27,2.3533,2,0.1333,6.8259,7.4633,28
4310241,1490556646157,,,,,,,,0.02,0.02,1.0,1.7,0.2,0.2,1560,394,,,,,,,,,,,,,,,,,,,
4310261,1490556646177,,,,,,,,0.02,0.01,1.0,1.7,0.2,0.2,1520,397,,,,,,,,,,,,,,,,,,,
4310281,1490556646197,,,,,,,,0.02,0.02,0.99,1.8,-0.0,0.2,1500,397,,,,,,,,,,,,,,,,,,,
4310301,1490556646217,,,,,,,,0.02,0.02,0.99,1.9,-0.0,0.2,1460,394,,,,,,,,,,,,,,,,,,,
4310323,1490556646239,0,165.8,-1.1,173.9,32,180.2,14.18,0.03,0.02,0.99,1.9,-0.1,0.3,1440,394,0,1,3.92,0,38.158802,-122.453133,7.46,2.326,16.2,9,2,1.5,27,2.3533,2,0.1333,6.8259,7.465,28
4310342,1490556646258,,,,,,,,0.03,0.02,0.99,1.9,-0.2,0.4,1400,394,,,,,,,,,,,,,,,,,,,
4310362,1490556646278,,,,,,,,0.03,0.02,0.99,2.0,-0.1,0.4,1380,397,,,,,,,,,,,,,,,,,,,
4310382,1490556646298,,,,,,,,0.03,0.02,0.99,2.1,-0.3,0.4,1340,402,,,,,,,,,,,,,,,,,,,
4310402,1490556646318,,,,,,,,0.03,0.03,0.99,2.2,-0.1,0.4,1320,408,,,,,,,,,,,,,,,,,,,
4310424,1490556646340,,,,,30,,,0.03,0.03,0.99,2.2,0.0,0.4,1320,412,0,1,3.613,0,38.158802,-122.453133,7.38,2.326,16.3,9,2,1.5,27,2.3533,2,0.1333,6.8259,7.4667,28
4310443,1490556646359,,,,,,,,0.03,0.03,0.99,2.2,0.1,0.4,1260,420,,,,,,,,,,,,,,,,,,,
4310463,1490556646379,,,,,,,,0.04,0.03,1.0,2.3,0.2,0.5,1260,423,,,,,,,,,,,,,,,,,,,
4310483,1490556646399,,,,,,,,0.03,0.03,1.0,2.3,0.4,0.5,1220,423,,,,,,,,,,,,,,,,,,,
4310503,1490556646419,,,,,,,,0.03,0.03,1.0,2.4,0.4,0.5,1220,423,,,,,,,,,,,,,,,,,,,
4310525,1490556646441,1,164.8,,172.8,26,178.8,,0.03,0.03,1.0,2.4,0.3,0.5,1180,422,0,1,3.133,0,38.158802,-122.453133,7.23,2.326,16.5,9,2,1.5,27,2.3533,2,0.1333,6.8259,7.4683,28
4310544,1490556646460,,,,,,,,0.03,0.03,1.0,2.5,0.2,0.5,1180,418,,,,,,,,,,,,,,,,,,,
4310564,1490556646480,,,,,,,,0.04,0.03,1.01,2.5,0.2,0.4,1160,414,,,,,,,,,,,,,,,,,,,
4310584,1490556646501,,,,,,,,0.04,0.03,1.01,2.5,-0.1,0.3,1120,414,,,,,,,,,,,,,,,,,,,
4310604,1490556646521,,,,,,,,0.03,0.03,1.01,2.5,-0.1,0.2,1120,411,,,,,,,,,,,,,,,,,,,
4310626,1490556646543,,,,,25,,,0.03,0.03,1.01,2.5,-0.1,0.1,1100,409,0,1,2.803,0,38.158806,-122.453133,7.19,2.326,16.6,9,2,1.5,27,2.3533,2,0.1333,6.8259,7.47,28
4310645,1490556646562,,,,,,,,0.03,0.03,1.0,2.5,-0.1,-0.0,1080,409,,,,,,,,,,,,,,,,,,,
4310665,1490556646582,,,,,,,,0.03,0.03,1.0,2.5,0.1,-0.1,1060,408,,,,,,,,,,,,,,,,,,,
4310685,1490556646601,,,,,,,,0.04,0.04,1.0,2.5,0.1,-0.1,1060,406,,,,,,,,,,,,,,,,,,,
4310705,1490556646621,,,,,,,,0.04,0.04,1.0,2.6,0.2,-0.1,1020,412,,,,,,,,,,,,,,,,,,,
4310727,1490556646643,0,165.6,,173.7,22,180.1,,0.03,0.04,1.0,2.6,0.3,-0.1,1000,415,0,1,2.689,0,38.15881,-122.453148,7.29,2.326,16.7,9,2,1.5,27,2.3533,2,0.1333,6.8259,7.4717,28
4310746,1490556646662,,,,,,,,0.04,0.03,1.0,2.6,0.2,-0.2,960,415,,,,,,,,,,,,,,,,,,,
4310766,1490556646682,,,,,,,,0.04,0.03,1.0,2.6,0.3,-0.3,960,412,,,,,,,,,,,,,,,,,,,
4310786,1490556646704,,,,,,,,0.03,0.03,1.0,2.6,0.3,-0.3,940,412,,,,,,,,,,,,,,,,,,,
4310806,1490556646724,,,,,,,,0.03,0.03,1.0,2.6,0.3,-0.3,940,414,,,,,,,,,,,,,,,,,,,
4310828,1490556646746,,,,,19,,,0.04,0.03,0.99,2.6,0.2,-0.2,900,409,0,1,2.404,0,38.15881,-122.453148,7.07,2.327,16.9,9,2,1.5,27,2.3533,2,0.1333,6.8259,7.4733,28
4310847,1490556646765,,,,,,,,0.04,0.03,0.99,2.6,0.1,-0.0,900,408,,,,,,,,,,,,,,,,,,,
4310867,1490556646785,,,,,,,,0.04,0.04,0.99,2.5,-0.0,0.1,880,426,,,,,,,,,,,,,,,,,,,
4310887,1490556646803,,,,,,,,0.04,0.04,0.99,2.4,-0.1,0.1,860,422,,,,,,,,,,,,,,,,,,,
4310907,1490556646823,,,,,,,,0.04,0.04,0.99,2.4,-0.2,0.1,840,432,,,,,,,,,,,,,,,,,,,
4310929,1490556646845,0,164.4,,172.7,17,179.3,,0.04,0.04,0.99,2.4,-0.2,0.1,820,482,0,1,2.2,0,38.158813,-122.453148,7.42,2.327,17.0,9,2,1.5,27,2.3533,2,0.1333,6.8259,7.475,28
4310948,1490556646864,,,,,,,,0.04,0.04,0.98,2.4,-0.1,0.2,820,352,,,,,,,,,,,,,,,,,,,
4310968,1490556646884,,,,,,,,0.04,0.04,0.99,2.4,-0.1,0.1,800,388,,,,,,,,,,,,,,,,,,,
4310988,1490556646903,,,,,,,,0.03,0.05,1.0,2.4,-0.0,0.1,800,382,,,,,,,,,,,,,,,,,,,
4311008,1490556646923,,,,,,,,0.03,0.04,1.0,2.5,-0.2,0.1,780,391,,,,,,,,,,,,,,,,,,,
4311030,1490556646945,,,,,16,,,0.03,0.04,0.99,2.4,-0.2,0.1,760,400,0,1,1.779,2,38.158817,-122.453148,6.97,2.327,17.1,9,2,1.5,27,2.3533,2,0.1333,6.8259,7.4767,28
4311049,1490556646964,,,,,,,,0.04,0.05,0.98,2.4,-0.3,0.2,760,394,,,,,,,,,,,,,,,,,,,
4311069,1490556646984,,,,,,,,0.04,0.04,0.98,2.3,-0.3,0.3,740,374,,,,,,,,,,,,,,,,,,,
4311089,1490556646994,,,,,,,,0.04,0.04,0.98,2.3,-0.3,0.3,720,383,,,,,,,,,,,,,,,,,,,
4311109,1490556647014,,,,,,,,0.03,0.04,0.98,2.3,-0.3,0.2,720,385,,,,,,,,,,,,,,,,,,,
4311131,1490556647036,0,164.6,,172.5,14,178.3,,0.03,0.04,0.99,2.3,-0.4,0.1,720,388,0,1,1.919,2,38.158817,-122.453148,6.69,2.327,17.2,9,2,1.5,27,2.3533,2,0.1333,6.8259,7.4783,28
4311150,1490556647055,,,,,,,,0.03,0.04,0.98,2.2,-0.3,-0.0,700,395,,,,,,,,,,,,,,,,,,,
4311170,1490556647075,,,,,,,,0.03,0.04,0.98,2.2,-0.3,-0.2,700,398,,,,,,,,,,,,,,,,,,,
4311190,1490556647105,,,,,,,,0.03,0.05,0.99,2.1,-0.4,-0.4,700,402,,,,,,,,,,,,,,,,,,,
4311210,1490556647125,,,,,,,,0.03,0.05,0.99,2.1,-0.4,-0.5,680,403,,,,,,,,,,,,,,,,,,,
4311232,1490556647147,,,,,14,,,0.03,0.05,0.99,2.1,-0.5,-0.8,680,405,0,1,1.851,2,38.158821,-122.453148,6.63,2.327,17.2,9,2,1.5,27,2.3533,2,0.1333,6.8259,7.48,28
4311251,1490556647166,,,,,,,,0.03,0.06,0.99,2.1,-0.4,-1.1,680,400,,,,,,,,,,,,,,,,,,,
4311271,1490556647186,,,,,,,,0.04,0.06,0.98,2.0,-0.3,-1.4,660,397,,,,,,,,,,,,,,,,,,,
4311291,1490556647206,,,,,,,,0.04,0.07,0.98,1.9,-0.5,-1.7,660,395,,,,,,,,,,,,,,,,,,,
4311311,1490556647226,,,,,,,,0.04,0.06,0.99,1.9,-0.6,-2.0,660,395,,,,,,,,,,,,,,,,,,,
4311333,1490556647248,0,164.5,-0.6,172.2,12,178.3,14.08,0.04,0.05,0.99,1.9,-0.6,-2.1,660,394,0,1,1.687,0,38.158821,-122.453148,6.86,2.328,17.3,9,2,1.5,27,2.3533,2,0.1333,6.8259,7.4817,28
4311352,1490556647267,,,,,,,,0.04,0.05,0.99,1.9,-0.6,-2.1,660,388,,,,,,,,,,,,,,,,,,,
4311372,1490556647287,,,,,,,,0.03,0.04,0.99,1.9,-0.5,-2.0,660,391,,,,,,,,,,,,,,,,,,,
4311392,1490556647310,,,,,,,,0.03,0.03,0.99,2.0,-0.6,-1.9,660,389,,,,,,,,,,,,,,,,,,,
4311412,1490556647330,,,,,,,,0.03,0.04,0.99,2.0,-0.6,-1.6,660,394,,,,,,,,,,,,,,,,,,,
4311434,1490556647352,,,,,13,,,0.03,0.03,1.01,2.0,-0.7,-1.4,660,395,0,1,1.679,0,38.158821,-122.453163,6.89,2.328,17.3,9,2,1.5,27,2.3533,2,0.1333,6.8259,7.4833,28
4311453,1490556647371,,,,,,,,0.04,0.03,1.01,2.0,-0.6,-1.0,660,398,,,,,,,,,,,,,,,,,,,
4311473,1490556647391,,,,,,,,0.04,0.03,1.01,2.0,-0.6,-0.6,660,398,,,,,,,,,,,,,,,,,,,
4311493,1490556647410,,,,,,,,0.04,0.03,1.02,2.0,-0.5,-0.3,660,398,,,,,,,,,,,,,,,,,,,
4311513,1490556647430,,,,,,,,0.04,0.04,1.03,1.9,-0.5,0.1,660,397,,,,,,,,,,,,,,,,,,,
4311535,1490556647452,0,164.2,,172.3,11,178.6,,0.04,0.04,1.03,1.8,-0.3,0.5,660,397,0,1,1.671,0,38.158825,-122.453163,7.08,2.328,17.4,9,2,1.5,27,2.3533,2,0.1333,6.8259,7.485,28
4311554,1490556647471,,,,,,,,0.04,0.04,1.03,1.8,-0.4,0.8,660,397,,,,,,,,,,,,,,,,,,,
4311574,1490556647491,,,,,,,,0.04,0.05,1.03,1.6,-0.3,1.0,660,397,,,,,,,,,,,,,,,,,,,
4311594,1490556647511,,,,,,,,0.04,0.06,1.03,1.5,-0.2,1.2,660,395,,,,,,,,,,,,,,,,,,,
4311614,1490556647531,,,,,,,,0.04,0.06,1.03,1.4,-0.0,1.3,680,395,,,,,,,,,,,,,,,,,,,
4311636,1490556647553,,,,,12,,,0.04,0.06,1.03,1.3,0.1,1.4,680,394,0,1,1.671,0,38.158825,-122.453163,6.85,2.328,17.7,9,2,1.5,27,2.3533,2,0.1333,6.8259,7.4867,28
4311655,1490556647572,,,,,,,,0.04,0.07,1.02,1.2,0.2,1.6,700,392,,,,,,,,,,,,,,,,,,,
4311675,1490556647592,,,,,,,,0.04,0.07,1.01,1.1,0.4,1.7,680,394,,,,,,,,,,,,,,,,,,,
4311695,1490556647612,,,,,,,,0.05,0.07,1.01,1.0,0.5,1.8,700,392,,,,,,,,,,,,,,,,,,,
4311715,1490556647632,,,,,,,,0.05,0.07,1.0,0.8,0.6,1.9,700,392,,,,,,,,,,,,,,,,,,,
4311737,1490556647654,0,164.8,,172.1,12,177.5,,0.05,0.06,1.0,0.7,0.7,1.9,700,391,0,1,1.781,2,38.158829,-122.453163,6.93,2.328,17.7,9,2,1.5,27,2.3533,2,0.1333,6.8259,7.4883,28
4311756,1490556647673,,,,,,,,0.05,0.06,1.0,0.7,0.7,1.7,700,389,,,,,,,,,,,,,,,,,,,
4311776,1490556647691,,,,,,,,0.05,0.06,1.0,0.7,0.7,1.5,700,391,,,,,,,,,,,,,,,,,,,
4311796,1490556647711,,,,,,,,0.05,0.07,1.0,0.7,0.7,1.4,700,389,,,,,,,,,,,,,,,,,,,
4311816,1490556647731,,,,,,,,0.05,0.07,1.0,0.7,0.6,1.4,700,386,,,,,,,,,,,,,,,,,,,
4311838,1490556647753,,,,,13,,,0.04,0.07,1.0,0.7,0.5,1.3,700,386,0,1,1.795,2,38.158829,-122.453163,6.83,2.329,17.9,9,2,1.5,27,2.3533,2,0.1333,6.8259,7.49,28
4311857,1490556647772,,,,,,,,0.05,0.07,0.99,0.7,0.5,1.3,700,386,,,,,,,,,,,,,,,,,,,
4311877,1490556647792,,,,,,,,0.05,0.07,0.99,0.7,0.4,1.4,720,386,,,,,,,,,,,,,,,,,,,
4311897,1490556647812,,,,,,,,0.05,0.06,1.0,0.6,0.4,1.5,720,386,,,,,,,,,,,,,,,,,,,
4311917,1490556647832,,,,,,,,0.04,0.06,0.99,0.5,0.5,1.5,720,383,,,,,,,,,,,,,,,,,,,
4311939,1490556647854,0,164.7,,172.6,13,178.6,,0.05,0.06,0.99,0.5,0.5,1.4,720,386,0,1,1.813,2,38.158833,-122.453163,6.27,2.329,18.2,9,2,1.5,27,2.3533,2,0.1333,6.8259,7.4917,28
4311958,1490556647873,,,,,,,,0.04,0.07,0.99,0.4,0.5,1.4,720,383,,,,,,,,,,,,,,,,,,,
4311978,1490556647892,,,,,,,,0.05,0.07,1.0,0.4,0.6,1.1,720,380,,,,,,,,,,,,,,,,,,,
4311998,1490556647912,,,,,,,,0.04,0.07,1.0,0.4,0.7,1.0,720,382,,,,,,,,,,,,,,,,,,,
4312018,1490556647932,,,,,,,,0.04,0.08,1.0,0.4,0.7,0.8,720,383,,,,,,,,,,,,,,,,,,,
4312040,1490556647954,,,,,13,,,0.04,0.08,1.0,0.4,0.6,0.7,720,383,0,1,1.875,2,38.158833,-122.453163,6.56,2.329,18.4,9,2,1.5,27,2.3533,2,0.1333,6.8259,7.4933,28
4312059,1490556647973,,,,,,,,0.04,0.07,1.0,0.5,0.6,0.6,720,382,,,,,,,,,,,,,,,,,,,
4312079,1490556647993,,,,,,,,0.03,0.07,0.99,0.5,0.7,0.3,720,385,,,,,,,,,,,,,,,,,,,
4312099,1490556648005,,,,,,,,0.03,0.07,0.99,0.5,0.7,0.1,720,382,,,,,,,,,,,,,,,,,,,
4312119,1490556648025,,,,,,,,0.04,0.08,0.99,0.5,0.7,-0.2,720,382,,,,,,,,,,,,,,,,,,,
4312141,1490556648047,0,164.4,,171.9,13,177.2,,0.03,0.08,0.99,0.5,0.8,-0.5,720,380,0,1,1.89,2,38.158836,-122.453163,6.68,2.329,18.5,9,2,1.5,27,2.3533,2,0.1333,6.8259,7.495,28
4312160,1490556648066,,,,,,,,0.03,0.07,0.99,0.4,0.9,-0.7,720,383,,,,,,,,,,,,,,,,,,,
4312180,1490556648098,,,,,,,,0.03,0.08,0.99,0.4,0.8,-0.8,720,385,,,,,,,,,,,,,,,,,,,
4312200,1490556648118,,,,,,,,0.03,0.08,0.99,0.4,0.9,-0.9,720,382,,,,,,,,,,,,,,,,,,,
4312220,1490556648138,,,,,,,,0.03,0.08,0.99,0.4,1.0,-1.1,720,385,,,,,,,,,,,,,,,,,,,
4312242,1490556648160,,,,,12,,,0.03,0.08,0.99,0.3,1.1,-1.2,720,385,0,1,1.895,2,38.15884,-122.453171,6.71,2.329,18.6,9,2,1.5,27,2.3533,2,0.1333,6.8259,7.4967,28
4312261,1490556648179,,,,,,,,0.03,0.07,0.98,0.3,1.2,-1.1,720,386,,,,,,,,,,,,,,,,,,,
4312281,1490556648197,,,,,,,,0.02,0.06,0.99,0.3,1.3,-1.1,720,382,,,,,,,,,,,,,,,,,,,
4312301,1490556648217,,,,,,,,0.02,0.05,0.99,0.2,1.5,-1.0,720,383,,,,,,,,,,,,,,,,,,,
4312321,1490556648237,,,,,,,,0.02,0.05,0.99,0.2,1.5,-0.8,720,383,,,,,,,,,,,,,,,,,,,
4312343,1490556648259,0,164.1,-0.5,171.8,12,177.5,14.28,0.02,0.05,0.99,0.1,1.6,-0.5,720,383,0,1,1.865,2,38.15884,-122.453171,6.39,2.329,18.7,9,2,1.5,27,2.3533,2,0.1333,6.8259,7.4983,28
4312362,1490556648278,,,,,,,,0.02,0.04,0.99,0.1,1.6,-0.3,720,382,,,,,,,,,,,,,,,,,,,
4312382,1490556648298,,,,,,,,0.01,0.03,1.0,0.1,1.6,-0.1,720,378,,,,,,,,,,,,,,,,,,,
4312402,1490556648318,,,,,,,,0.01,0.03,1.0,0.1,1.6,0.2,720,378,,,,,,,,,,,,,,,,,,,
4312422,1490556648338,,,,,,,,0.01,0.04,1.0,0.0,1.6,0.4,720,378,,,,,,,,,,,,,,,,,,,
4312444,1490556648360,,,,,13,,,0.01,0.04,1.0,0.1,1.5,0.5,720,374,0,1,1.89,2,38.15884,-122.453171,6.73,2.33,18.8,9,2,1.5,27,2.3533,2,0.1333,6.8259,7.5,28
4312463,1490556648379,,,,,,,,0.02,0.04,1.0,0.1,1.4,0.7,720,374,,,,,,,,,,,,,,,,,,,
4312483,1490556648399,,,,,,,,0.02,0.05,1.0,0.1,1.4,0.9,720,374,,,,,,,,,,,,,,,,,,,
4312503,1490556648419,,,,,,,,0.02,0.05,1.0,0.1,1.2,1.0,740,374,,,,,,,,,,,,,,,,,,,
4312523,1490556648439,,,,,,,,0.02,0.05,1.01,0.1,0.9,1.1,740,372,,,,,,,,,,,,,,,,,,,
4312545,1490556648461,0,164.1,,171.7,12,177.4,,0.02,0.06,1.01,0.0,0.7,1.1,740,371,0,1,1.935,2,38.15884,-122.453171,6.67,2.33,19.0,9,2,1.5,27,2.3533,2,0.1333,6.8259,7.5017,28
4312564,1490556648480,,,,,,,,0.01,0.06,1.01,0.0,0.5,1.2,740,371,,,,,,,,,,,,,,,,,,,
4312584,1490556648498,,,,,,,,0.02,0.07,1.01,0.0,0.4,1.3,740,371,,,,,,,,,,,,,,,,,,,
4312604,1490556648518,,,,,,,,0.01,0.07,1.01,0.0,0.2,1.3,760,368,,,,,,,,,,,,,,,,,,,
4312624,1490556648538,,,,,,,,0.02,0.07,1.01,0.0,0.2,1.3,760,368,,,,,,,,,,,,,,,,,,,
4312646,1490556648560,,,,,14,,,0.02,0.07,1.0,-0.0,0.2,1.3,760,368,0,1,2.0,2,38.158844,-122.453171,6.39,2.33,19.1,9,2,1.5,27,2.3533,2,0.1333,6.8259,7.5033,28
4312665,1490556648579,,,,,,,,0.03,0.08,1.0,-0.0,0.1,1.4,780,368,,,,,,,,,,,,,,,,,,,
4312685,1490556648601,,,,,,,,0.03,0.08,1.01,0.0,0.1,1.3,800,368,,,,,,,,,,,,,,,,,,,
4312705,1490556648621,,,,,,,,0.02,0.08,1.01,0.1,0.0,1.1,820,368,,,,,,,,,,,,,,,,,,,
4312725,1490556648641,,,,,,,,0.03,0.07,1.0,0.1,0.1,1.0,840,371,,,,,,,,,,,,,,,,,,,
4312747,1490556648663,0,164.8,,172.6,15,177.9,,0.03,0.06,1.0,0.0,-0.1,1.0,840,372,0,1,2.071,0,38.158848,-122.453171,6.84,2.33,19.2,9,2,1.5,27,2.3533,2,0.1333,6.8259,7.505,28
4312766,1490556648682,,,,,,,,0.03,0.07,0.99,0.0,-0.1,1.0,840,389,,,,,,,,,,,,,,,,,,,
4312786,1490556648702,,,,,,,,0.04,0.07,0.99,0.0,0.0,1.1,860,397,,,,,,,,,,,,,,,,,,,
4312806,1490556648722,,,,,,,,0.04,0.07,0.99,-0.0,-0.1,1.1,880,412,,,,,,,,,,,,,,,,,,,
4312826,1490556648742,,,,,,,,0.03,0.08,1.01,-0.1,-0.2,1.2,920,429,,,,,,,,,,,,,,,,,,,
4312848,1490556648764,,,,,16,,,0.01,0.07,1.02,-0.1,-0.4,1.3,920,385,0,1,2.24,0,38.158848,-122.453171,6.35,2.33,19.3,9,2,1.5,27,2.3533,2,0.1333,6.8259,7.5067,28
4312867,1490556648783,,,,,,,,0.01,0.07,1.02,-0.1,-0.4,1.3,940,311,,,,,,,,,,,,,,,,,,,
4312887,1490556648803,,,,,,,,0.0,0.07,1.02,-0.1,-0.4,1.3,960,375,,,,,,,,,,,,,,,,,,,
4312907,1490556648823,,,,,,,,0.01,0.07,1.02,-0.1,-0.4,1.2,980,409,,,,,,,,,,,,,,,,,,,
4312927,1490556648843,,,,,,,,0.0,0.08,1.01,0.0,-0.2,1.2,1000,335,,,,,,,,,,,,,,,,,,,
4312949,1490556648865,0,164.0,,171.7,17,177.3,,0.01,0.08,1.0,0.0,-0.2,1.1,1020,343,0,1,2.396,0,38.158852,-122.453171,6.24,2.331,19.4,9,2,1.5,27,2.3533,2,0.1333,6.8259,7.5083,28
4312968,1490556648884,,,,,,,,0.01,0.08,0.99,0.1,-0.1,1.1,1020,394,,,,,,,,,,,,,,,,,,,
4312988,1490556648905,,,,,,,,0.01,0.09,0.99,0.1,0.0,1.0,1060,368,,,,,,,,,,,,,,,,,,,
4313008,1490556648925,,,,,,,,0.01,0.09,0.99,0.1,0.2,0.9,1040,343,,,,,,,,,,,,,,,,,,,
4313028,1490556648945,,,,,,,,0.01,0.09,1.0,0.1,0.1,0.8,1080,369,,,,,,,,,,,,,,,,,,,
4313050,1490556648967,,,,,20,,,0.01,0.09,1.0,0.1,0.1,0.8,1100,378,0,1,2.873,0,38.158852,-122.453171,6.3,2.331,19.5,9,2,1.5,27,2.3533,2,0.1333,6.8259,7.51,28
4313069,1490556648986,,,,,,,,0.01,0.09,1.0,0.1,0.0,0.7,1100,360,,,,,,,,,,,,,,,,,,,
4313089,1490556648994,,,,,,,,0.02,0.09,1.0,0.1,-0.1,0.6,1120,355,,,,,,,,,,,,,,,,,,,
4313109,1490556649014,,,,,,,,0.02,0.08,1.01,0.1,-0.1,0.5,1100,368,,,,,,,,,,,,,,,,,,,
4313129,1490556649034,,,,,,,,0.02,0.09,1.01,0.0,-0.1,0.2,1100,368,,,,,,,,,,,,,,,,,,,
4313151,1490556649056,0,164.3,,171.8,22,177.3,,0.02,0.09,1.02,-0.0,0.1,0.0,1100,369,0,1,2.926,0,38.158855,-122.453171,6.33,2.331,19.6,9,2,1.5,27,2.3533,2,0.1333,6.8259,7.5117,28
4313170,1490556649075,,,,,,,,0.02,0.09,1.02,-0.0,0.2,-0.1,1080,372,,,,,,,,,,,,,,,,,,,
4313190,1490556649105,,,,,,,,0.02,0.08,1.02,-0.0,0.4,-0.3,1060,366,,,,,,,,,,,,,,,,,,,
4313210,1490556649125,,,,,,,,0.02,0.09,1.02,-0.0,0.5,-0.4,1040,371,,,,,,,,,,,,,,,,,,,
4313230,1490556649145,,,,,,,,0.02,0.09,1.02,-0.1,0.6,-0.4,1040,372,,,,,,,,,,,,,,,,,,,
4313252,1490556649167,,,,,21,,,0.02,0.08,1.01,-0.1,0.5,-0.4,1000,365,0,1,2.981,0,38.158855,-122.453171,6.25,2.331,19.8,9,2,1.5,27,2.3533,2,0.1333,6.8259,7.5133,28
4313271,1490556649186,,,,,,,,0.02,0.09,1.0,-0.0,0.5,-0.3,960,366,,,,,,,,,,,,,,,,,,,
4313291,1490556649206,,,,,,,,0.02,0.09,0.99,-0.1,0.5,-0.2,980,375,,,,,,,,,,,,,,,,,,,
4313311,1490556649226,,,,,,,,0.02,0.09,0.99,-0.1,0.3,-0.1,940,372,,,,,,,,,,,,,,,,,,,
4313331,1490556649246,,,,,,,,0.02,0.09,0.99,-0.1,0.2,0.0,940,368,,,,,,,,,,,,,,,,,,,
