"Interval"|"ms"|0|0|1,"Utc"|"ms"|0|0|1,"FuelLevel"|"F"|0|100|5,"OilTemp"|"F"|0.0|300.0|5,"CoolantPressPSI"|"PSI"|0.0|20.0|1,"Coolant"|"F"|0.0|300.0|5,"OilPress"|"PSI"|0|150|10,"EngineTemp"|"F"|0.0|300.0|5,"Battery"|"Volts"|0.0|20.0|1,"AccelX"|"G"|-3.0|3.0|50,"AccelY"|"G"|-3.0|3.0|50,"AccelZ"|"G"|-3.0|3.0|50,"Yaw"|"Deg/Sec"|-300.0|300.0|50,"Pitch"|"Deg/Sec"|-300.0|300.0|50,"Roll"|"Deg/Sec"|-300.0|300.0|50,"RPM"|""|0|10000|50,"Driveshaft"|"RPM"|0|5000|50,"GPIO1"|""|0|1|10,"GPIO2"|""|0|1|10,"GearRatio"|""|-5.0|5.0|10,"Gear"|""|-1|5|10,"Latitude"|"Degrees"|-180.0|180.0|10,"Longitude"|"Degrees"|-180.0|180.0|10,"Speed"|"mph"|0.0|150.0|10,"Distance"|"mi"|0.0|0.0|10,"Altitude"|"ft"|0.0|4000.0|10,"GPSSats"|""|0|20|10,"GPSQual"|""|0|5|10,"GPSDOP"|""|0.0|20.0|10,"LapCount"|""|0|0|10,"LapTime"|"Min"|0.0|0.0|10,"Sector"|""|0|0|10,"SectorTime"|"Min"|0.0|0.0|10,"PredTime"|"Min"|0.0|0.0|10,"ElapsedTime"|"Min"|0.0|0.0|10,"CurrentLap"|""|0|0|10
35854,1490542782222,,,,,,,,0.01,0.05,1.01,-3.0,-0.6,0.8,1020,0,,,,,,,,,,,,,,,,,,,
35874,1490542782242,0,46.4,,41.5,56,42.5,,0.01,0.05,1.0,-3.0,-0.6,0.7,1020,0,1,1,0.0,0,38.159218,-122.454155,0.0,0.0,61.6,5,3,2.0,0,0.0,-1,0.0,0.0,0.0,0
35894,1490542782262,,,,,,,,0.01,0.05,1.0,-3.0,-0.5,0.7,1040,0,,,,,,,,,,,,,,,,,,,
35914,1490542782282,,,,,,,,0.01,0.05,1.0,-3.0,-0.5,0.7,1040,0,,,,,,,,,,,,,,,,,,,
35934,1490542782302,,,,,,,,0.01,0.05,1.01,-3.0,-0.5,0.7,1020,0,,,,,,,,,,,,,,,,,,,
35954,1490542782322,,,,,,,,0.01,0.06,1.01,-3.0,-0.5,0.7,1020,0,,,,,,,,,,,,,,,,,,,
35974,1490542782342,,,,,55,,,0.01,0.06,1.0,-3.0,-0.5,0.7,1020,0,1,1,0.0,0,38.159218,-122.454155,0.0,0.0,61.6,5,3,2.0,0,0.0,-1,0.0,0.0,0.0,0
35994,1490542782350,,,,,,,,0.01,0.06,1.0,-3.0,-0.6,0.7,1020,0,,,,,,,,,,,,,,,,,,,
36014,1490542782370,,,,,,,,0.01,0.06,1.01,-3.0,-0.6,0.7,1020,0,,,,,,,,,,,,,,,,,,,
36034,1490542782390,,,,,,,,0.01,0.07,1.01,-3.0,-0.7,0.7,1020,0,,,,,,,,,,,,,,,,,,,
36054,1490542782410,,,,,,,,0.01,0.07,1.01,-3.0,-0.7,0.7,1020,0,,,,,,,,,,,,,,,,,,,
36074,1490542782454,0,43.1,-0.6,41.3,56,46.2,14.79,0.01,0.07,1.02,-3.0,-0.7,0.7,1020,0,1,1,0.0,0,38.159218,-122.45417,0.0,0.0,67.4,6,3,1.3,0,0.0,-1,0.0,0.0,0.0,0
36094,1490542782474,,,,,,,,0.02,0.07,1.02,-3.0,-0.7,0.7,1000,0,,,,,,,,,,,,,,,,,,,
36114,1490542782494,,,,,,,,0.02,0.07,1.02,-3.0,-0.7,0.7,1020,0,,,,,,,,,,,,,,,,,,,
36134,1490542782514,,,,,,,,0.02,0.08,1.02,-3.0,-0.7,0.8,1020,0,,,,,,,,,,,,,,,,,,,
36154,1490542782534,,,,,,,,0.02,0.08,1.02,-3.0,-0.7,0.8,1000,0,,,,,,,,,,,,,,,,,,,
36174,1490542782556,,,,,56,,,0.03,0.09,1.02,-3.0,-0.7,0.9,1000,0,1,1,0.0,0,38.159218,-122.45417,0.0,0.0,64.4,6,3,1.3,0,0.0,-1,0.0,0.0,0.0,0
36194,1490542782576,,,,,,,,0.03,0.09,1.02,-3.0,-0.7,0.9,1000,0,,,,,,,,,,,,,,,,,,,
36214,1490542782596,,,,,,,,0.03,0.1,1.02,-3.1,-0.7,0.9,1000,0,,,,,,,,,,,,,,,,,,,
36234,1490542782616,,,,,,,,0.03,0.1,1.03,-3.1,-0.7,1.0,1000,0,,,,,,,,,,,,,,,,,,,
36254,1490542782636,,,,,,,,0.04,0.11,1.03,-3.1,-0.7,1.0,1000,0,,,,,,,,,,,,,,,,,,,
36274,1490542782656,0,43.2,,42.5,53,47.1,,0.04,0.11,1.03,-3.1,-0.7,1.1,1000,0,1,1,0.0,0,38.159218,-122.45417,0.0,0.0,64.4,6,3,1.3,0,0.0,-1,0.0,0.0,0.0,0
36294,1490542782652,,,,,,,,0.04,0.11,1.04,-3.1,-0.8,1.1,1000,0,,,,,,,,,,,,,,,,,,,
36314,1490542782672,,,,,,,,0.04,0.12,1.04,-3.1,-0.8,1.2,1000,0,,,,,,,,,,,,,,,,,,,
36334,1490542782692,,,,,,,,0.05,0.12,1.04,-3.1,-0.8,1.2,1000,0,,,,,,,,,,,,,,,,,,,
36354,1490542782712,,,,,,,,0.05,0.12,1.05,-3.1,-0.9,1.3,1000,0,,,,,,,,,,,,,,,,,,,
36374,1490542782752,,,,,55,,,0.05,0.11,1.05,-3.1,-0.9,1.3,1000,0,1,1,0.0,0,38.159218,-122.45417,0.0,0.0,61.6,6,3,1.3,0,0.0,-1,0.0,0.0,0.0,0
36394,1490542782772,,,,,,,,0.06,0.12,1.05,-3.1,-0.9,1.4,1000,0,,,,,,,,,,,,,,,,,,,
36414,1490542782792,,,,,,,,0.06,0.11,1.05,-3.1,-1.0,1.4,1000,0,,,,,,,,,,,,,,,,,,,
36434,1490542782812,,,,,,,,0.06,0.11,1.05,-3.1,-1.0,1.4,1000,0,,,,,,,,,,,,,,,,,,,
36454,1490542782832,,,,,,,,0.06,0.1,1.05,-3.1,-1.0,1.4,1000,0,,,,,,,,,,,,,,,,,,,
36474,1490542782852,0,47.6,,44.5,55,45.6,,0.06,0.1,1.05,-3.1,-0.9,1.3,1020,0,1,1,0.0,0,38.159218,-122.45417,0.0,0.0,60.7,6,3,1.3,0,0.0,-1,0.0,0.0,0.0,0
36494,1490542782872,,,,,,,,0.06,0.09,1.05,-3.1,-0.9,1.3,1020,0,,,,,,,,,,,,,,,,,,,
36514,1490542782892,,,,,,,,0.05,0.09,1.04,-3.0,-0.8,1.3,1020,0,,,,,,,,,,,,,,,,,,,
36534,1490542782912,,,,,,,,0.05,0.09,1.04,-3.0,-0.6,1.2,1020,0,,,,,,,,,,,,,,,,,,,
36554,1490542782932,,,,,,,,0.05,0.08,1.03,-3.0,-0.6,1.2,1020,0,,,,,,,,,,,,,,,,,,,
36574,1490542782946,,,,,56,,,0.05,0.08,1.03,-3.0,-0.5,1.2,1020,0,1,1,0.0,0,38.159218,-122.45417,0.0,0.0,59.8,6,3,1.3,0,0.0,-1,0.0,0.0,0.0,0
36594,1490542782966,,,,,,,,0.05,0.07,1.03,-3.0,-0.5,1.2,1000,0,,,,,,,,,,,,,,,,,,,
36614,1490542782986,,,,,,,,0.05,0.07,1.03,-3.0,-0.6,1.1,1000,0,,,,,,,,,,,,,,,,,,,
36634,1490542783006,,,,,,,,0.05,0.06,1.03,-3.0,-0.6,1.1,1000,0,,,,,,,,,,,,,,,,,,,
36654,1490542783026,,,,,,,,0.04,0.05,1.03,-3.0,-0.5,1.0,1000,0,,,,,,,,,,,,,,,,,,,
36674,1490542783052,0,47.1,,45.6,56,46.2,,0.03,0.04,1.03,-3.0,-0.4,1.0,1000,0,1,1,0.0,0,38.159218,-122.45417,0.0,0.0,58.6,6,3,1.3,0,0.0,-1,0.0,0.0,0.0,0
36694,1490542783072,,,,,,,,0.03,0.03,1.03,-3.0,-0.3,1.0,1000,0,,,,,,,,,,,,,,,,,,,
36714,1490542783092,,,,,,,,0.02,0.02,1.02,-3.0,-0.2,0.9,1000,0,,,,,,,,,,,,,,,,,,,
36734,1490542783112,,,,,,,,0.01,0.01,1.02,-3.0,-0.2,0.9,1000,0,,,,,,,,,,,,,,,,,,,
36754,1490542783132,,,,,,,,0.01,0.01,1.02,-3.0,-0.3,0.9,1020,0,,,,,,,,,,,,,,,,,,,
36774,1490542783147,,,,,55,,,0.0,0.01,1.01,-3.0,-0.3,0.9,1020,0,1,1,0.0,0,38.159218,-122.45417,0.0,0.0,58.6,6,3,1.3,0,0.0,-1,0.0,0.0,0.0,0
36794,1490542783167,,,,,,,,-0.0,0.01,1.0,-3.0,-0.3,0.8,1020,0,,,,,,,,,,,,,,,,,,,
36814,1490542783187,,,,,,,,-0.0,0.02,1.0,-3.0,-0.4,0.8,1020,0,,,,,,,,,,,,,,,,,,,
36834,1490542783207,,,,,,,,-0.0,0.02,1.0,-2.9,-0.4,0.8,1020,0,,,,,,,,,,,,,,,,,,,
36854,1490542783227,,,,,,,,-0.0,0.02,0.99,-2.9,-0.5,0.8,1020,0,,,,,,,,,,,,,,,,,,,
36874,1490542783247,0,46.8,,45.4,55,46.2,,-0.0,0.02,0.99,-2.9,-0.5,0.7,1020,0,1,1,0.0,0,38.159218,-122.45417,0.0,0.0,58.6,6,3,1.3,0,0.0,-1,0.0,0.0,0.0,0
36894,1490542783267,,,,,,,,-0.01,0.02,0.99,-2.9,-0.5,0.6,1000,0,,,,,,,,,,,,,,,,,,,
36914,1490542783287,,,,,,,,-0.01,0.03,0.98,-2.9,-0.5,0.6,1000,0,,,,,,,,,,,,,,,,,,,
36934,1490542783307,,,,,,,,-0.01,0.03,0.98,-2.9,-0.5,0.5,1000,0,,,,,,,,,,,,,,,,,,,
36954,1490542783327,,,,,,,,-0.01,0.03,0.98,-2.9,-0.5,0.5,1000,0,,,,,,,,,,,,,,,,,,,
36974,1490542783345,,,,,56,,,-0.01,0.03,0.99,-2.9,-0.4,0.5,1000,0,1,1,0.0,0,38.159218,-122.45417,0.0,0.0,58.6,6,3,1.3,0,0.0,-1,0.0,0.0,0.0,0
36994,1490542783365,,,,,,,,-0.01,0.03,0.99,-2.9,-0.4,0.5,1000,0,,,,,,,,,,,,,,,,,,,
37014,1490542783385,,,,,,,,-0.01,0.03,0.99,-2.9,-0.4,0.4,1000,0,,,,,,,,,,,,,,,,,,,
37034,1490542783405,,,,,,,,-0.01,0.04,0.99,-2.9,-0.4,0.4,1000,0,,,,,,,,,,,,,,,,,,,
37054,1490542783425,,,,,,,,-0.01,0.04,1.0,-2.9,-0.4,0.4,1000,0,,,,,,,,,,,,,,,,,,,
37074,1490542783445,0,46.6,-0.3,45.4,54,46.8,14.9,-0.0,0.04,1.0,-2.9,-0.4,0.4,1000,0,1,1,0.0,0,38.159218,-122.45417,0.0,0.0,58.6,6,3,1.3,0,0.0,-1,0.0,0.0,0.0,0
37094,1490542783465,,,,,,,,-0.01,0.04,1.0,-2.9,-0.4,0.4,1000,0,,,,,,,,,,,,,,,,,,,
37114,1490542783485,,,,,,,,-0.01,0.04,1.0,-2.9,-0.4,0.4,1000,0,,,,,,,,,,,,,,,,,,,
37134,1490542783453,,,,,,,,-0.0,0.05,1.01,-3.0,-0.5,0.4,1000,0,,,,,,,,,,,,,,,,,,,
37154,1490542783473,,,,,,,,-0.0,0.05,1.0,-3.0,-0.6,0.5,1000,0,,,,,,,,,,,,,,,,,,,
37174,1490542783551,,,,,56,,,-0.0,0.04,1.01,-3.0,-0.6,0.5,1000,0,1,1,0.0,0,38.159218,-122.45417,0.0,0.0,55.3,7,3,0.4,0,0.0,-1,0.0,0.0,0.0,0
37194,1490542783571,,,,,,,,-0.0,0.04,1.01,-3.0,-0.6,0.5,1000,0,,,,,,,,,,,,,,,,,,,
37214,1490542783591,,,,,,,,-0.0,0.05,1.01,-3.0,-0.7,0.5,1000,0,,,,,,,,,,,,,,,,,,,
37234,1490542783611,,,,,,,,-0.0,0.05,1.01,-3.0,-0.7,0.5,1000,0,,,,,,,,,,,,,,,,,,,
37254,1490542783631,,,,,,,,-0.0,0.06,1.01,-3.0,-0.8,0.6,1000,0,,,,,,,,,,,,,,,,,,,
37274,1490542783641,0,46.5,,45.4,55,47.1,,0.0,0.06,1.01,-3.0,-0.9,0.6,1000,0,1,1,0.0,0,38.159218,-122.45417,0.0,0.0,55.3,7,3,0.4,0,0.0,-1,0.0,0.0,0.0,0
37294,1490542783661,,,,,,,,0.0,0.06,1.0,-3.0,-1.0,0.6,1000,0,,,,,,,,,,,,,,,,,,,
37314,1490542783681,,,,,,,,0.0,0.07,1.01,-3.0,-1.0,0.6,1000,0,,,,,,,,,,,,,,,,,,,
37334,1490542783701,,,,,,,,0.01,0.07,1.01,-2.9,-1.0,0.6,1000,0,,,,,,,,,,,,,,,,,,,
37354,1490542783721,,,,,,,,0.01,0.07,1.01,-2.9,-1.0,0.6,1000,0,,,,,,,,,,,,,,,,,,,
37374,1490542783751,,,,,53,,,0.01,0.08,1.01,-2.9,-1.1,0.7,1000,0,1,1,0.0,0,38.159218,-122.45417,0.0,0.0,55.3,7,3,0.4,0,0.0,-1,0.0,0.0,0.0,0
37394,1490542783771,,,,,,,,0.01,0.09,1.01,-2.9,-1.1,0.7,1000,0,,,,,,,,,,,,,,,,,,,
37414,1490542783791,,,,,,,,0.01,0.09,1.01,-2.9,-1.1,0.7,1000,0,,,,,,,,,,,,,,,,,,,
37434,1490542783811,,,,,,,,0.01,0.09,1.01,-2.9,-1.1,0.6,1000,0,,,,,,,,,,,,,,,,,,,
37454,1490542783831,,,,,,,,0.01,0.09,1.02,-2.9,-1.1,0.6,1020,0,,,,,,,,,,,,,,,,,,,
37474,1490542783851,0,43.7,,40.9,55,45.3,,0.01,0.09,1.02,-2.9,-1.1,0.7,1000,0,1,1,0.0,0,38.159218,-122.45417,0.0,0.0,55.3,7,3,0.4,0,0.0,-1,0.0,0.0,0.0,0
37494,1490542783871,,,,,,,,0.02,0.09,1.03,-2.8,-1.0,0.7,1000,0,,,,,,,,,,,,,,,,,,,
37514,1490542783891,,,,,,,,0.02,0.09,1.02,-2.9,-1.1,0.7,1000,0,,,,,,,,,,,,,,,,,,,
37534,1490542783911,,,,,,,,0.02,0.1,1.03,-2.9,-1.0,0.7,1020,0,,,,,,,,,,,,,,,,,,,
37554,1490542783931,,,,,,,,0.02,0.1,1.02,-2.9,-1.0,0.7,1020,0,,,,,,,,,,,,,,,,,,,
37574,1490542783951,,,,,53,,,0.03,0.1,1.02,-2.9,-1.0,0.7,1000,0,1,1,0.0,0,38.159218,-122.45417,0.0,0.0,55.3,7,3,0.4,0,0.0,-1,0.0,0.0,0.0,0
37594,1490542783971,,,,,,,,0.03,0.11,1.02,-2.9,-1.0,0.8,1000,0,,,,,,,,,,,,,,,,,,,
37614,1490542783991,,,,,,,,0.03,0.11,1.02,-3.0,-1.0,0.9,1000,0,,,,,,,,,,,,,,,,,,,
37634,1490542784011,,,,,,,,0.03,0.11,1.03,-3.0,-1.0,0.9,1000,0,,,,,,,,,,,,,,,,,,,
37654,1490542784031,,,,,,,,0.04,0.11,1.03,-3.0,-1.0,1.0,1000,0,,,,,,,,,,,,,,,,,,,
37674,1490542784051,0,43.3,,41.4,54,43.8,,0.04,0.11,1.03,-3.0,-1.1,1.0,1000,0,1,1,0.0,0,38.159218,-122.45417,0.0,0.0,55.3,7,3,0.4,0,0.0,-1,0.0,0.0,0.0,0
37694,1490542784071,,,,,,,,0.04,0.11,1.03,-3.0,-1.0,1.1,1020,0,,,,,,,,,,,,,,,,,,,
37714,1490542784091,,,,,,,,0.05,0.11,1.04,-3.0,-1.0,1.1,1000,0,,,,,,,,,,,,,,,,,,,
37734,1490542784111,,,,,,,,0.05,0.11,1.04,-3.0,-1.0,1.1,1000,0,,,,,,,,,,,,,,,,,,,
37754,1490542784131,,,,,,,,0.05,0.11,1.04,-3.1,-0.9,1.2,1000,0,,,,,,,,,,,,,,,,,,,
37774,1490542784148,,,,,52,,,0.05,0.11,1.04,-3.1,-0.9,1.1,1000,0,1,1,0.0,0,38.159218,-122.45417,0.0,0.0,55.3,7,3,0.4,0,0.0,-1,0.0,0.0,0.0,0
37794,1490542784168,,,,,,,,0.05,0.1,1.03,-3.1,-0.9,1.1,1000,0,,,,,,,,,,,,,,,,,,,
37814,1490542784188,,,,,,,,0.05,0.1,1.03,-3.1,-0.8,1.1,1000,0,,,,,,,,,,,,,,,,,,,
37834,1490542784206,,,,,,,,0.05,0.1,1.03,-3.1,-0.7,1.1,1000,0,,,,,,,,,,,,,,,,,,,
37854,1490542784226,,,,,,,,0.04,0.09,1.02,-3.1,-0.6,1.1,1000,0,,,,,,,,,,,,,,,,,,,
37874,1490542784246,0,43.6,,40.9,53,45.0,,0.04,0.08,1.02,-3.1,-0.5,1.0,1020,0,1,1,0.0,0,38.159218,-122.45417,0.0,0.0,55.3,7,3,0.4,0,0.0,-1,0.0,0.0,0.0,0
37894,1490542784266,,,,,,,,0.05,0.08,1.02,-3.1,-0.4,1.0,1020,0,,,,,,,,,,,,,,,,,,,
37914,1490542784286,,,,,,,,0.05,0.07,1.02,-3.1,-0.3,1.0,1020,0,,,,,,,,,,,,,,,,,,,
37934,1490542784300,,,,,,,,0.04,0.06,1.02,-3.1,-0.3,0.9,1020,0,,,,,,,,,,,,,,,,,,,
37954,1490542784320,,,,,,,,0.04,0.06,1.02,-3.1,-0.2,0.9,1000,0,,,,,,,,,,,,,,,,,,,
37974,1490542784340,,,,,55,,,0.04,0.05,1.02,-3.0,-0.2,0.9,1000,0,1,1,0.0,0,38.159218,-122.45417,0.0,0.0,55.3,7,3,0.4,0,0.0,-1,0.0,0.0,0.0,0
37994,1490542784360,,,,,,,,0.04,0.04,1.03,-3.0,-0.2,0.9,1000,0,,,,,,,,,,,,,,,,,,,
38014,1490542784380,,,,,,,,0.03,0.03,1.03,-3.0,-0.2,0.9,1000,0,,,,,,,,,,,,,,,,,,,
38034,1490542784406,,,,,,,,0.03,0.03,1.02,-3.0,-0.2,0.9,1000,0,,,,,,,,,,,,,,,,,,,
38054,1490542784426,,,,,,,,0.02,0.03,1.02,-3.1,-0.2,0.8,1000,0,,,,,,,,,,,,,,,,,,,
38074,1490542784446,0,46.0,-0.0,44.4,55,44.1,14.87,0.02,0.02,1.02,-3.1,-0.2,0.8,1000,0,1,1,0.0,0,38.159218,-122.45417,0.0,0.0,55.3,7,3,0.4,0,0.0,-1,0.0,0.0,0.0,0
38094,1490542784466,,,,,,,,0.01,0.01,1.02,-3.0,-0.2,0.8,980,0,,,,,,,,,,,,,,,,,,,
38114,1490542784486,,,,,,,,0.01,0.01,1.02,-3.0,-0.2,0.8,1000,0,,,,,,,,,,,,,,,,,,,
38134,1490542784502,,,,,,,,0.0,0.01,1.01,-3.0,-0.2,0.7,1000,0,,,,,,,,,,,,,,,,,,,
38154,1490542784522,,,,,,,,0.0,0.0,1.01,-3.0,-0.3,0.7,1000,0,,,,,,,,,,,,,,,,,,,
38174,1490542784542,,,,,54,,,-0.0,0.0,1.01,-3.0,-0.3,0.7,1000,0,1,1,0.0,0,38.159218,-122.45417,0.0,0.0,55.3,7,3,0.4,0,0.0,-1,0.0,0.0,0.0,0
38194,1490542784562,,,,,,,,-0.0,0.0,1.0,-3.0,-0.3,0.6,1000,0,,,,,,,,,,,,,,,,,,,
38214,1490542784582,,,,,,,,-0.0,0.0,1.0,-2.9,-0.3,0.6,980,0,,,,,,,,,,,,,,,,,,,
38234,1490542784602,,,,,,,,-0.0,0.0,1.0,-2.9,-0.3,0.6,980,0,,,,,,,,,,,,,,,,,,,
38254,1490542784622,,,,,,,,-0.01,-0.0,1.0,-2.9,-0.3,0.6,980,0,,,,,,,,,,,,,,,,,,,
38274,1490542784642,0,47.8,,44.8,54,47.1,,-0.01,-0.01,0.99,-2.9,-0.3,0.6,980,0,1,1,0.0,0,38.159218,-122.45417,0.0,0.0,55.3,7,3,0.4,0,0.0,-1,0.0,0.0,0.0,0
38294,1490542784662,,,,,,,,-0.01,-0.01,0.99,-2.9,-0.4,0.5,980,0,,,,,,,,,,,,,,,,,,,
38314,1490542784682,,,,,,,,-0.02,-0.01,0.99,-2.9,-0.4,0.5,980,0,,,,,,,,,,,,,,,,,,,
38334,1490542784704,,,,,,,,-0.02,-0.01,0.99,-2.9,-0.3,0.5,980,0,,,,,,,,,,,,,,,,,,,
38354,1490542784724,,,,,,,,-0.02,-0.02,0.99,-2.9,-0.3,0.5,980,0,,,,,,,,,,,,,,,,,,,
38374,1490542784744,,,,,52,,,-0.02,-0.03,0.99,-2.9,-0.3,0.5,980,0,1,1,0.0,0,38.159218,-122.45417,0.0,0.0,55.3,7,3,0.4,0,0.0,-1,0.0,0.0,0.0,0
38394,1490542784764,,,,,,,,-0.02,-0.03,0.99,-2.9,-0.2,0.5,980,0,,,,,,,,,,,,,,,,,,,
38414,1490542784784,,,,,,,,-0.02,-0.03,0.99,-2.9,-0.2,0.4,980,0,,,,,,,,,,,,,,,,,,,
38434,1490542784806,,,,,,,,-0.02,-0.04,0.99,-2.9,-0.1,0.5,980,0,,,,,,,,,,,,,,,,,,,
38454,1490542784826,,,,,,,,-0.02,-0.04,0.99,-2.9,-0.0,0.5,980,0,,,,,,,,,,,,,,,,,,,
38474,1490542784846,0,43.7,,41.3,55,43.9,,-0.02,-0.04,0.99,-2.9,0.1,0.5,980,0,1,1,0.0,0,38.159218,-122.45417,0.0,0.0,55.3,7,3,0.4,0,0.0,-1,0.0,0.0,0.0,0
38494,1490542784866,,,,,,,,-0.01,-0.04,0.99,-3.0,0.1,0.5,980,0,,,,,,,,,,,,,,,,,,,
38514,1490542784886,,,,,,,,-0.01,-0.03,0.99,-3.0,0.2,0.5,980,0,,,,,,,,,,,,,,,,,,,
38534,1490542784906,,,,,,,,-0.0,-0.03,0.99,-3.0,0.2,0.5,960,0,,,,,,,,,,,,,,,,,,,
38554,1490542784926,,,,,,,,0.0,-0.02,0.99,-3.0,0.3,0.6,980,0,,,,,,,,,,,,,,,,,,,
38574,1490542784946,,,,,56,,,0.01,-0.01,0.99,-3.0,0.4,0.6,960,0,1,1,0.0,0,38.159218,-122.45417,0.0,0.0,55.3,7,3,0.4,0,0.0,-1,0.0,0.0,0.0,0
38594,1490542784966,,,,,,,,0.01,-0.01,1.0,-3.0,0.4,0.6,960,0,,,,,,,,,,,,,,,,,,,
38614,1490542784986,,,,,,,,0.01,-0.01,1.0,-3.0,0.4,0.7,960,0,,,,,,,,,,,,,,,,,,,
38634,1490542784998,,,,,,,,0.02,-0.01,1.0,-3.0,0.4,0.8,980,0,,,,,,,,,,,,,,,,,,,
38654,1490542785018,,,,,,,,0.02,-0.0,1.01,-3.0,0.3,0.9,960,0,,,,,,,,,,,,,,,,,,,
38674,1490542785038,0,43.9,,43.6,56,43.0,,0.03,0.01,1.01,-3.1,0.2,0.9,960,0,1,1,0.0,0,38.159218,-122.45417,0.0,0.0,55.3,7,3,0.4,0,0.0,-1,0.0,0.0,0.0,0
38694,1490542785058,,,,,,,,0.03,0.01,1.01,-3.1,0.0,1.0,960,0,,,,,,,,,,,,,,,,,,,
38714,1490542785078,,,,,,,,0.03,0.02,1.01,-3.1,-0.1,1.1,960,0,,,,,,,,,,,,,,,,,,,
38734,1490542785105,,,,,,,,0.03,0.03,1.02,-3.1,-0.1,1.2,960,0,,,,,,,,,,,,,,,,,,,
38754,1490542785125,,,,,,,,0.03,0.05,1.02,-3.1,-0.2,1.2,960,0,,,,,,,,,,,,,,,,,,,
38774,1490542785145,,,,,56,,,0.04,0.06,1.03,-3.2,-0.1,1.3,960,0,1,1,0.0,0,38.159218,-122.45417,0.0,0.0,55.3,7,3,0.4,0,0.0,-1,0.0,0.0,0.0,0
38794,1490542785165,,,,,,,,0.04,0.07,1.03,-3.2,-0.2,1.3,940,0,,,,,,,,,,,,,,,,,,,
38814,1490542785185,,,,,,,,0.04,0.08,1.04,-3.2,-0.3,1.3,960,0,,,,,,,,,,,,,,,,,,,
38834,1490542785205,,,,,,,,0.04,0.09,1.04,-3.2,-0.3,1.3,940,0,,,,,,,,,,,,,,,,,,,
38854,1490542785225,,,,,,,,0.03,0.1,1.04,-3.2,-0.3,1.3,960,0,,,,,,,,,,,,,,,,,,,
38874,1490542785245,0,46.0,,42.7,57,46.6,,0.03,0.1,1.04,-3.2,-0.3,1.2,960,0,1,1,0.0,0,38.159218,-122.45417,0.0,0.0,55.3,7,3,0.4,0,0.0,-1,0.0,0.0,0.0,0
38894,1490542785265,,,,,,,,0.03,0.11,1.04,-3.1,-0.4,1.2,980,0,,,,,,,,,,,,,,,,,,,
38914,1490542785285,,,,,,,,0.03,0.11,1.05,-3.1,-0.5,1.1,960,0,,,,,,,,,,,,,,,,,,,
38934,1490542785305,,,,,,,,0.03,0.11,1.05,-3.1,-0.6,1.1,980,0,,,,,,,,,,,,,,,,,,,
38954,1490542785325,,,,,,,,0.03,0.11,1.05,-3.0,-0.7,1.0,980,0,,,,,,,,,,,,,,,,,,,
38974,1490542785345,,,,,59,,,0.03,0.11,1.04,-3.0,-0.7,1.0,980,0,1,1,0.0,0,38.159218,-122.45417,0.0,0.0,55.3,7,3,0.4,0,0.0,-1,0.0,0.0,0.0,0
38994,1490542785365,,,,,,,,0.03,0.11,1.04,-3.0,-0.8,1.0,980,0,,,,,,,,,,,,,,,,,,,
39014,1490542785385,,,,,,,,0.03,0.11,1.05,-3.0,-0.8,1.0,1000,0,,,,,,,,,,,,,,,,,,,
39034,1490542785405,,,,,,,,0.03,0.11,1.05,-3.0,-0.8,0.9,1000,0,,,,,,,,,,,,,,,,,,,
39054,1490542785425,,,,,,,,0.03,0.1,1.04,-3.0,-0.9,0.9,1000,0,,,,,,,,,,,,,,,,,,,
39074,1490542785445,0,43.6,-0.7,43.0,61,43.3,14.93,0.03,0.1,1.04,-3.0,-1.0,0.8,1000,0,1,1,0.0,0,38.159218,-122.45417,0.0,0.0,55.3,7,3,0.4,0,0.0,-1,0.0,0.0,0.0,0
39094,1490542785465,,,,,,,,0.02,0.1,1.04,-3.0,-1.0,0.8,1000,0,,,,,,,,,,,,,,,,,,,
39114,1490542785485,,,,,,,,0.03,0.1,1.04,-3.0,-1.0,0.8,1000,0,,,,,,,,,,,,,,,,,,,
39134,1490542785503,,,,,,,,0.02,0.1,1.04,-3.0,-1.1,0.9,1000,0,,,,,,,,,,,,,,,,,,,
39154,1490542785523,,,,,,,,0.02,0.11,1.04,-3.0,-1.1,0.8,1000,0,,,,,,,,,,,,,,,,,,,
39174,1490542785543,,,,,59,,,0.02,0.11,1.03,-3.0,-1.2,0.8,1000,0,1,1,0.0,0,38.159218,-122.45417,0.0,0.0,55.3,7,3,0.4,0,0.0,-1,0.0,0.0,0.0,0
39194,1490542785563,,,,,,,,0.02,0.11,1.03,-3.0,-1.2,0.8,1000,0,,,,,,,,,,,,,,,,,,,
39214,1490542785583,,,,,,,,0.02,0.11,1.03,-3.0,-1.3,0.8,1000,0,,,,,,,,,,,,,,,,,,,
39234,1490542785603,,,,,,,,0.02,0.11,1.03,-3.0,-1.2,0.8,1000,0,,,,,,,,,,,,,,,,,,,
39254,1490542785623,,,,,,,,0.02,0.11,1.03,-3.0,-1.1,0.8,1000,0,,,,,,,,,,,,,,,,,,,
39274,1490542785643,0,47.3,,44.1,61,47.6,,0.02,0.11,1.03,-3.0,-1.1,0.8,1000,0,1,1,0.0,0,38.159218,-122.45417,0.0,0.0,55.3,7,3,0.4,0,0.0,-1,0.0,0.0,0.0,0
39294,1490542785663,,,,,,,,0.03,0.11,1.03,-3.0,-1.1,0.8,1000,0,,,,,,,,,,,,,,,,,,,
39314,1490542785683,,,,,,,,0.03,0.12,1.03,-3.0,-1.0,0.8,1000,0,,,,,,,,,,,,,,,,,,,
39334,1490542785703,,,,,,,,0.03,0.11,1.03,-3.0,-1.0,0.9,1000,0,,,,,,,,,,,,,,,,,,,
39354,1490542785723,,,,,,,,0.03,0.11,1.03,-3.0,-0.9,0.9,1000,0,,,,,,,,,,,,,,,,,,,
39374,1490542785743,,,,,60,,,0.03,0.12,1.03,-3.0,-0.8,0.9,1000,0,1,1,0.0,0,38.159218,-122.45417,0.0,0.0,55.3,7,3,0.4,0,0.0,-1,0.0,0.0,0.0,0
39394,1490542785763,,,,,,,,0.04,0.12,1.02,-3.0,-0.8,0.9,1000,0,,,,,,,,,,,,,,,,,,,
39414,1490542785783,,,,,,,,0.04,0.12,1.03,-3.0,-0.7,1.0,1000,0,,,,,,,,,,,,,,,,,,,
39434,1490542785803,,,,,,,,0.04,0.12,1.03,-3.1,-0.7,1.0,1000,0,,,,,,,,,,,,,,,,,,,
39454,1490542785823,,,,,,,,0.04,0.13,1.03,-3.1,-0.6,1.1,1000,0,,,,,,,,,,,,,,,,,,,
39474,1490542785843,0,43.3,,42.4,61,43.2,,0.04,0.13,1.03,-3.1,-0.6,1.1,1000,0,1,1,0.0,0,38.159218,-122.45417,0.0,0.0,55.3,7,3,0.4,0,0.0,-1,0.0,0.0,0.0,0
39494,1490542785863,,,,,,,,0.04,0.13,1.03,-3.1,-0.6,1.1,1000,0,,,,,,,,,,,,,,,,,,,
39514,1490542785883,,,,,,,,0.04,0.13,1.03,-3.1,-0.7,1.2,1000,0,,,,,,,,,,,,,,,,,,,
39534,1490542785907,,,,,,,,0.04,0.13,1.04,-3.1,-0.7,1.2,1000,0,,,,,,,,,,,,,,,,,,,
39554,1490542785927,,,,,,,,0.05,0.13,1.04,-3.1,-0.8,1.3,1000,0,,,,,,,,,,,,,,,,,,,
39574,1490542785947,,,,,59,,,0.05,0.13,1.04,-3.1,-0.8,1.3,1000,0,1,1,0.0,0,38.159218,-122.45417,0.0,0.0,55.3,7,3,0.4,0,0.0,-1,0.0,0.0,0.0,0
39594,1490542785967,,,,,,,,0.05,0.13,1.04,-3.1,-0.8,1.3,1000,0,,,,,,,,,,,,,,,,,,,
39614,1490542785987,,,,,,,,0.05,0.13,1.04,-3.1,-0.9,1.3,980,0,,,,,,,,,,,,,,,,,,,
39634,1490542785997,,,,,,,,0.05,0.12,1.04,-3.1,-0.9,1.4,980,0,,,,,,,,,,,,,,,,,,,
39654,1490542786017,,,,,,,,0.05,0.11,1.04,-3.1,-0.9,1.4,980,0,,,,,,,,,,,,,,,,,,,
39674,1490542786037,0,46.9,,45.6,58,47.6,,0.05,0.11,1.04,-3.1,-0.9,1.4,980,0,1,1,0.0,0,38.159218,-122.45417,0.0,0.0,55.3,7,3,0.4,0,0.0,-1,0.0,0.0,0.0,0
39694,1490542786057,,,,,,,,0.05,0.11,1.04,-3.2,-1.0,1.4,980,0,,,,,,,,,,,,,,,,,,,
39714,1490542786077,,,,,,,,0.05,0.11,1.04,-3.1,-1.0,1.4,980,0,,,,,,,,,,,,,,,,,,,
39734,1490542786104,,,,,,,,0.05,0.11,1.04,-3.1,-1.0,1.4,980,0,,,,,,,,,,,,,,,,,,,
39754,1490542786124,,,,,,,,0.06,0.11,1.04,-3.1,-1.0,1.5,980,0,,,,,,,,,,,,,,,,,,,
39774,1490542786144,,,,,59,,,0.06,0.1,1.04,-3.1,-1.0,1.5,980,0,1,1,0.0,0,38.159218,-122.45417,0.0,0.0,55.3,7,3,0.4,0,0.0,-1,0.0,0.0,0.0,0
39794,1490542786164,,,,,,,,0.06,0.11,1.04,-3.2,-1.1,1.5,980,0,,,,,,,,,,,,,,,,,,,
39814,1490542786184,,,,,,,,0.06,0.11,1.04,-3.2,-1.0,1.6,980,0,,,,,,,,,,,,,,,,,,,
39834,1490542786204,,,,,,,,0.06,0.11,1.04,-3.2,-1.0,1.6,980,0,,,,,,,,,,,,,,,,,,,
39854,1490542786224,,,,,,,,0.06,0.11,1.05,-3.2,-1.0,1.6,980,0,,,,,,,,,,,,,,,,,,,
39874,1490542786244,0,43.4,,41.4,59,43.0,,0.06,0.12,1.05,-3.2,-1.0,1.7,980,0,1,1,0.0,0,38.159218,-122.45417,0.0,0.0,55.3,7,3,0.4,0,0.0,-1,0.0,0.0,0.0,0
39894,1490542786264,,,,,,,,0.06,0.12,1.06,-3.3,-1.0,1.7,980,0,,,,,,,,,,,,,,,,,,,
39914,1490542786284,,,,,,,,0.06,0.13,1.05,-3.3,-0.9,1.7,980,0,,,,,,,,,,,,,,,,,,,
39934,1490542786304,,,,,,,,0.06,0.14,1.06,-3.3,-0.8,1.6,980,0,,,,,,,,,,,,,,,,,,,
39954,1490542786324,,,,,,,,0.06,0.14,1.05,-3.3,-0.8,1.6,980,0,,,,,,,,,,,,,,,,,,,
39974,1490542786344,,,,,58,,,0.06,0.14,1.05,-3.3,-0.7,1.6,1000,0,1,1,0.0,0,38.159218,-122.45417,0.0,0.0,55.3,7,3,0.4,0,0.0,-1,0.0,0.0,0.0,0
39994,1490542786364,,,,,,,,0.06,0.14,1.05,-3.3,-0.7,1.6,1000,0,,,,,,,,,,,,,,,,,,,
40014,1490542786384,,,,,,,,0.06,0.14,1.05,-3.3,-0.7,1.6,1000,0,,,,,,,,,,,,,,,,,,,
40034,1490542786404,,,,,,,,0.06,0.15,1.05,-3.3,-0.7,1.5,1000,0,,,,,,,,,,,,,,,,,,,
40054,1490542786424,,,,,,,,0.06,0.14,1.05,-3.3,-0.6,1.5,1000,0,,,,,,,,,,,,,,,,,,,
40074,1490542786444,0,47.1,-0.1,45.9,58,47.9,14.88,0.06,0.14,1.05,-3.3,-0.7,1.5,1000,0,1,1,0.0,0,38.159218,-122.45417,0.0,0.0,55.3,7,3,0.4,0,0.0,-1,0.0,0.0,0.0,0
40094,1490542786464,,,,,,,,0.06,0.14,1.05,-3.3,-0.6,1.5,1000,0,,,,,,,,,,,,,,,,,,,
40114,1490542786484,,,,,,,,0.06,0.15,1.04,-3.3,-0.6,1.5,1000,0,,,,,,,,,,,,,,,,,,,
40134,1490542786502,,,,,,,,0.06,0.14,1.04,-3.3,-0.7,1.5,1000,0,,,,,,,,,,,,,,,,,,,
40154,1490542786522,,,,,,,,0.06,0.15,1.04,-3.3,-0.7,1.5,1000,0,,,,,,,,,,,,,,,,,,,
40174,1490542786542,,,,,58,,,0.06,0.14,1.04,-3.3,-0.6,1.5,980,0,1,1,0.0,0,38.159218,-122.45417,0.0,0.0,55.3,7,3,0.4,0,0.0,-1,0.0,0.0,0.0,0
40194,1490542786562,,,,,,,,0.06,0.15,1.04,-3.3,-0.7,1.5,980,0,,,,,,,,,,,,,,,,,,,
40214,1490542786582,,,,,,,,0.06,0.15,1.04,-3.3,-0.7,1.5,980,0,,,,,,,,,,,,,,,,,,,
40234,1490542786600,,,,,,,,0.06,0.15,1.04,-3.3,-0.7,1.5,960,0,,,,,,,,,,,,,,,,,,,
40254,1490542786620,,,,,,,,0.06,0.15,1.04,-3.3,-0.7,1.5,960,0,,,,,,,,,,,,,,,,,,,
40274,1490542786640,0,43.4,,42.9,58,44.1,,0.06,0.15,1.04,-3.3,-0.7,1.5,960,0,1,1,0.0,0,38.159218,-122.45417,0.0,0.0,55.3,7,3,0.4,0,0.0,-1,0.0,0.0,0.0,0
40294,1490542786660,,,,,,,,0.06,0.15,1.05,-3.3,-0.7,1.5,980,0,,,,,,,,,,,,,,,,,,,
40314,1490542786680,,,,,,,,0.06,0.15,1.05,-3.3,-0.7,1.6,980,0,,,,,,,,,,,,,,,,,,,
40334,1490542786700,,,,,,,,0.06,0.16,1.05,-3.3,-0.7,1.6,980,0,,,,,,,,,,,,,,,,,,,
40354,1490542786720,,,,,,,,0.06,0.16,1.05,-3.3,-0.6,1.5,980,0,,,,,,,,,,,,,,,,,,,
40374,1490542786740,,,,,58,,,0.06,0.16,1.05,-3.2,-0.6,1.5,980,0,1,1,0.0,0,38.159218,-122.45417,0.0,0.0,55.3,7,3,0.4,0,0.0,-1,0.0,0.0,0.0,0
40394,1490542786760,,,,,,,,0.05,0.15,1.05,-3.2,-0.6,1.4,980,0,,,,,,,,,,,,,,,,,,,
40414,1490542786780,,,,,,,,0.06,0.15,1.05,-3.2,-0.6,1.4,980,0,,,,,,,,,,,,,,,,,,,
40434,1490542786798,,,,,,,,0.06,0.15,1.05,-3.2,-0.6,1.4,980,0,,,,,,,,,,,,,,,,,,,
40454,1490542786818,,,,,,,,0.05,0.15,1.05,-3.2,-0.6,1.4,980,0,,,,,,,,,,,,,,,,,,,
40474,1490542786838,0,46.0,,41.1,59,45.0,,0.05,0.15,1.05,-3.1,-0.6,1.3,980,0,1,1,0.0,0,38.159218,-122.45417,0.0,0.0,55.3,7,3,0.4,0,0.0,-1,0.0,0.0,0.0,0
40494,1490542786858,,,,,,,,0.05,0.15,1.05,-3.1,-0.7,1.2,980,0,,,,,,,,,,,,,,,,,,,
40514,1490542786878,,,,,,,,0.04,0.14,1.05,-3.1,-0.7,1.1,980,0,,,,,,,,,,,,,,,,,,,
40534,1490542786904,,,,,,,,0.04,0.14,1.05,-3.1,-0.8,1.1,980,0,,,,,,,,,,,,,,,,,,,
40554,1490542786924,,,,,,,,0.04,0.14,1.05,-3.1,-0.9,1.1,980,0,,,,,,,,,,,,,,,,,,,
40574,1490542786944,,,,,58,,,0.03,0.14,1.05,-3.0,-1.0,1.0,980,0,1,1,0.0,0,38.159218,-122.45417,0.0,0.0,55.3,7,3,0.4,0,0.0,-1,0.0,0.0,0.0,0
40594,1490542786964,,,,,,,,0.03,0.13,1.05,-3.0,-1.0,1.0,960,0,,,,,,,,,,,,,,,,,,,
40614,1490542786984,,,,,,,,0.03,0.13,1.04,-3.0,-1.1,1.0,980,0,,,,,,,,,,,,,,,,,,,
40634,1490542786996,,,,,,,,0.03,0.12,1.04,-3.0,-1.1,1.0,980,0,,,,,,,,,,,,,,,,,,,
40654,1490542787016,,,,,,,,0.02,0.12,1.05,-3.0,-1.1,0.9,980,0,,,,,,,,,,,,,,,,,,,
40674,1490542787036,0,43.6,,43.2,58,44.4,,0.02,0.12,1.04,-3.0,-1.2,0.9,980,0,1,1,0.0,0,38.159218,-122.45417,0.0,0.0,55.3,7,3,0.4,0,0.0,-1,0.0,0.0,0.0,0
40694,1490542787056,,,,,,,,0.02,0.12,1.04,-3.0,-1.3,0.9,980,0,,,,,,,,,,,,,,,,,,,
40714,1490542787076,,,,,,,,0.02,0.11,1.04,-3.0,-1.2,0.8,980,0,,,,,,,,,,,,,,,,,,,
40734,1490542787103,,,,,,,,0.02,0.11,1.04,-3.0,-1.1,0.8,980,0,,,,,,,,,,,,,,,,,,,
40754,1490542787123,,,,,,,,0.02,0.1,1.04,-3.0,-1.2,0.7,960,0,,,,,,,,,,,,,,,,,,,
40774,1490542787143,,,,,58,,,0.01,0.1,1.04,-3.0,-1.1,0.7,960,0,1,1,0.0,0,38.159218,-122.45417,0.0,0.0,55.3,7,3,0.4,0,0.0,-1,0.0,0.0,0.0,0
40794,1490542787163,,,,,,,,0.01,0.1,1.03,-2.9,-1.1,0.7,960,0,,,,,,,,,,,,,,,,,,,
40814,1490542787183,,,,,,,,0.01,0.09,1.03,-2.9,-1.0,0.6,960,0,,,,,,,,,,,,,,,,,,,
40834,1490542787205,,,,,,,,0.01,0.09,1.03,-2.9,-1.1,0.5,960,0,,,,,,,,,,,,,,,,,,,
40854,1490542787225,,,,,,,,0.01,0.09,1.02,-2.9,-1.1,0.5,960,0,,,,,,,,,,,,,,,,,,,
40874,1490542787245,0,46.2,,45.3,57,46.8,,0.01,0.08,1.01,-2.9,-1.1,0.4,960,0,1,1,0.0,0,38.159218,-122.45417,0.0,0.0,55.3,7,3,0.4,0,0.0,-1,0.0,0.0,0.0,0
40894,1490542787265,,,,,,,,0.01,0.07,1.0,-2.9,-1.1,0.4,960,0,,,,,,,,,,,,,,,,,,,
40914,1490542787285,,,,,,,,0.0,0.06,1.0,-2.9,-1.2,0.3,960,0,,,,,,,,,,,,,,,,,,,
40934,1490542787305,,,,,,,,-0.0,0.05,0.99,-2.9,-1.2,0.3,960,0,,,,,,,,,,,,,,,,,,,
40954,1490542787325,,,,,,,,-0.0,0.04,0.99,-2.9,-1.1,0.3,960,0,,,,,,,,,,,,,,,,,,,
40974,1490542787345,,,,,57,,,-0.01,0.03,0.99,-2.8,-0.9,0.3,960,0,1,1,0.0,0,38.159218,-122.45417,0.0,0.0,55.3,7,3,0.4,0,0.0,-1,0.0,0.0,0.0,0
40994,1490542787365,,,,,,,,-0.0,0.02,0.99,-2.8,-0.7,0.3,960,0,,,,,,,,,,,,,,,,,,,
41014,1490542787385,,,,,,,,-0.0,0.01,0.99,-2.9,-0.5,0.3,960,0,,,,,,,,,,,,,,,,,,,
41034,1490542787405,,,,,,,,0.0,0.01,0.98,-2.9,-0.4,0.4,960,0,,,,,,,,,,,,,,,,,,,
41054,1490542787425,,,,,,,,0.01,0.01,0.98,-2.9,-0.3,0.5,960,0,,,,,,,,,,,,,,,,,,,
41074,1490542787445,0,46.0,-0.4,45.0,55,46.6,14.93,0.01,0.02,0.98,-2.9,-0.3,0.5,960,0,1,1,0.0,0,38.159218,-122.45417,0.0,0.0,55.3,7,3,0.4,0,0.0,-1,0.0,0.0,0.0,0
41094,1490542787465,,,,,,,,0.02,0.02,0.98,-3.0,-0.3,0.6,960,0,,,,,,,,,,,,,,,,,,,
41114,1490542787485,,,,,,,,0.02,0.03,0.98,-3.0,-0.3,0.7,960,0,,,,,,,,,,,,,,,,,,,
41134,1490542787501,,,,,,,,0.03,0.03,0.99,-3.0,-0.4,0.8,960,0,,,,,,,,,,,,,,,,,,,
41154,1490542787521,,,,,,,,0.03,0.04,0.99,-3.0,-0.4,0.9,960,0,,,,,,,,,,,,,,,,,,,
41174,1490542787541,,,,,56,,,0.03,0.04,1.0,-3.0,-0.5,1.0,980,0,1,1,0.0,0,38.159218,-122.45417,0.0,0.0,55.3,7,3,0.4,0,0.0,-1,0.0,0.0,0.0,0
41194,1490542787561,,,,,,,,0.03,0.05,1.01,-3.1,-0.5,1.1,980,0,,,,,,,,,,,,,,,,,,,
41214,1490542787581,,,,,,,,0.03,0.06,1.02,-3.1,-0.5,1.2,980,0,,,,,,,,,,,,,,,,,,,
41234,1490542787601,,,,,,,,0.04,0.07,1.02,-3.2,-0.5,1.3,980,0,,,,,,,,,,,,,,,,,,,
41254,1490542787621,,,,,,,,0.04,0.09,1.03,-3.2,-0.5,1.3,980,0,,,,,,,,,,,,,,,,,,,
41274,1490542787641,0,47.2,,46.0,57,47.6,,0.04,0.1,1.03,-3.2,-0.4,1.3,980,0,1,1,0.0,0,38.159218,-122.45417,0.0,0.0,55.3,7,3,0.4,0,0.0,-1,0.0,0.0,0.0,0
41294,1490542787661,,,,,,,,0.04,0.11,1.04,-3.2,-0.4,1.3,980,0,,,,,,,,,,,,,,,,,,,
41314,1490542787681,,,,,,,,0.05,0.12,1.04,-3.2,-0.4,1.3,960,0,,,,,,,,,,,,,,,,,,,
41334,1490542787701,,,,,,,,0.05,0.12,1.05,-3.2,-0.4,1.3,980,0,,,,,,,,,,,,,,,,,,,
41354,1490542787721,,,,,,,,0.05,0.13,1.05,-3.2,-0.5,1.3,980,0,,,,,,,,,,,,,,,,,,,
41374,1490542787741,,,,,57,,,0.05,0.14,1.05,-3.2,-0.4,1.2,980,0,1,1,0.0,0,38.159218,-122.45417,0.0,0.0,55.3,7,3,0.4,0,0.0,-1,0.0,0.0,0.0,0
41394,1490542787761,,,,,,,,0.05,0.14,1.05,-3.1,-0.5,1.2,980,0,,,,,,,,,,,,,,,,,,,
41414,1490542787781,,,,,,,,0.05,0.14,1.05,-3.1,-0.5,1.2,960,0,,,,,,,,,,,,,,,,,,,
41434,1490542787801,,,,,,,,0.05,0.14,1.05,-3.1,-0.6,1.1,980,0,,,,,,,,,,,,,,,,,,,
41454,1490542787821,,,,,,,,0.04,0.14,1.05,-3.1,-0.6,1.1,980,0,,,,,,,,,,,,,,,,,,,
41474,1490542787841,0,46.0,,41.7,56,44.1,,0.04,0.14,1.05,-3.1,-0.7,1.0,980,0,1,1,0.0,0,38.159218,-122.45417,0.0,0.0,55.3,7,3,0.4,0,0.0,-1,0.0,0.0,0.0,0
41494,1490542787861,,,,,,,,0.04,0.13,1.04,-3.0,-0.8,1.0,980,0,,,,,,,,,,,,,,,,,,,
41514,1490542787881,,,,,,,,0.04,0.13,1.04,-3.0,-0.8,1.0,960,0,,,,,,,,,,,,,,,,,,,
41534,1490542787905,,,,,,,,0.04,0.12,1.04,-3.0,-0.9,0.9,980,0,,,,,,,,,,,,,,,,,,,
41554,1490542787925,,,,,,,,0.03,0.11,1.04,-3.0,-0.9,0.9,980,0,,,,,,,,,,,,,,,,,,,
41574,1490542787945,,,,,56,,,0.03,0.1,1.04,-3.0,-1.0,0.9,980,0,1,1,0.0,0,38.159218,-122.45417,0.0,0.0,55.3,7,3,0.4,0,0.0,-1,0.0,0.0,0.0,0
41594,1490542787965,,,,,,,,0.02,0.1,1.04,-3.0,-1.0,0.8,960,0,,,,,,,,,,,,,,,,,,,
41614,1490542787985,,,,,,,,0.02,0.09,1.04,-3.0,-1.0,0.8,960,0,,,,,,,,,,,,,,,,,,,
41634,1490542787995,,,,,,,,0.02,0.09,1.04,-3.0,-0.8,0.7,960,0,,,,,,,,,,,,,,,,,,,
41654,1490542788015,,,,,,,,0.02,0.1,1.03,-3.0,-0.8,0.7,960,0,,,,,,,,,,,,,,,,,,,
41674,1490542788035,0,43.7,,43.5,55,44.7,,0.02,0.09,1.04,-3.0,-0.8,0.6,980,0,1,1,0.0,0,38.159218,-122.45417,0.0,0.0,55.3,7,3,0.4,0,0.0,-1,0.0,0.0,0.0,0
41694,1490542788055,,,,,,,,0.02,0.09,1.03,-2.9,-0.9,0.6,960,0,,,,,,,,,,,,,,,,,,,
41714,1490542788075,,,,,,,,0.02,0.08,1.02,-2.9,-0.9,0.5,980,0,,,,,,,,,,,,,,,,,,,
41734,1490542788104,,,,,,,,0.02,0.08,1.01,-2.9,-0.9,0.5,980,0,,,,,,,,,,,,,,,,,,,
41754,1490542788124,,,,,,,,0.01,0.07,1.0,-2.9,-1.0,0.4,980,0,,,,,,,,,,,,,,,,,,,
41774,1490542788144,,,,,57,,,0.01,0.07,0.99,-2.9,-1.0,0.3,980,0,1,1,0.0,0,38.159218,-122.45417,0.0,0.0,55.3,7,3,0.4,0,0.0,-1,0.0,0.0,0.0,0
41794,1490542788164,,,,,,,,0.01,0.06,0.99,-2.8,-1.1,0.3,980,0,,,,,,,,,,,,,,,,,,,
41814,1490542788184,,,,,,,,0.0,0.05,0.99,-2.8,-1.2,0.2,980,0,,,,,,,,,,,,,,,,,,,
41834,1490542788204,,,,,,,,-0.0,0.05,0.98,-2.8,-1.3,0.2,980,0,,,,,,,,,,,,,,,,,,,
41854,1490542788224,,,,,,,,-0.01,0.04,0.98,-2.8,-1.3,0.2,980,0,,,,,,,,,,,,,,,,,,,
41874,1490542788244,0,46.8,,45.9,57,47.6,,-0.01,0.03,0.97,-2.8,-1.3,0.2,980,0,1,1,0.0,0,38.159218,-122.45417,0.0,0.0,55.3,7,3,0.4,0,0.0,-1,0.0,0.0,0.0,0
41894,1490542788264,,,,,,,,-0.01,0.02,0.97,-2.8,-1.4,0.2,980,0,,,,,,,,,,,,,,,,,,,
41914,1490542788284,,,,,,,,-0.02,0.02,0.97,-2.8,-1.3,0.2,1000,0,,,,,,,,,,,,,,,,,,,
41934,1490542788304,,,,,,,,-0.02,0.01,0.97,-2.8,-1.3,0.2,1000,0,,,,,,,,,,,,,,,,,,,
41954,1490542788324,,,,,,,,-0.02,0.01,0.97,-2.8,-1.3,0.2,980,0,,,,,,,,,,,,,,,,,,,
41974,1490542788344,,,,,58,,,-0.03,0.0,0.97,-2.8,-1.2,0.2,980,0,1,1,0.0,0,38.159218,-122.45417,0.0,0.0,55.3,7,3,0.4,0,0.0,-1,0.0,0.0,0.0,0
41994,1490542788364,,,,,,,,-0.03,-0.0,0.97,-2.8,-1.1,0.2,980,0,,,,,,,,,,,,,,,,,,,
42014,1490542788384,,,,,,,,-0.03,-0.01,0.97,-2.8,-1.1,0.2,980,0,,,,,,,,,,,,,,,,,,,
42034,1490542788404,,,,,,,,-0.03,-0.01,0.97,-2.8,-1.0,0.2,980,0,,,,,,,,,,,,,,,,,,,
42054,1490542788424,,,,,,,,-0.02,-0.01,0.97,-2.8,-0.9,0.3,980,0,,,,,,,,,,,,,,,,,,,
42074,1490542788444,0,43.7,-0.7,42.0,56,45.8,14.87,-0.02,-0.02,0.97,-2.8,-0.9,0.3,980,0,1,1,0.0,0,38.159218,-122.45417,0.0,0.0,55.3,7,3,0.4,0,0.0,-1,0.0,0.0,0.0,0
42094,1490542788464,,,,,,,,-0.03,-0.02,0.98,-2.8,-0.8,0.3,980,0,,,,,,,,,,,,,,,,,,,
42114,1490542788484,,,,,,,,-0.03,-0.03,0.98,-2.8,-0.7,0.3,980,0,,,,,,,,,,,,,,,,,,,
42134,1490542788502,,,,,,,,-0.03,-0.04,0.98,-2.8,-0.6,0.3,980,0,,,,,,,,,,,,,,,,,,,
42154,1490542788522,,,,,,,,-0.03,-0.04,0.98,-2.8,-0.5,0.3,980,0,,,,,,,,,,,,,,,,,,,
42174,1490542788542,,,,,58,,,-0.03,-0.05,0.98,-2.8,-0.4,0.3,980,0,1,1,0.0,0,38.159218,-122.45417,0.0,0.0,55.3,7,3,0.4,0,0.0,-1,0.0,0.0,0.0,0
42194,1490542788562,,,,,,,,-0.03,-0.05,0.98,-2.9,-0.3,0.4,980,0,,,,,,,,,,,,,,,,,,,
42214,1490542788582,,,,,,,,-0.03,-0.05,0.98,-2.9,-0.1,0.4,980,0,,,,,,,,,,,,,,,,,,,
42234,1490542788600,,,,,,,,-0.03,-0.05,0.98,-2.9,-0.0,0.4,980,0,,,,,,,,,,,,,,,,,,,
42254,1490542788620,,,,,,,,-0.02,-0.05,0.99,-2.9,0.1,0.4,980,0,,,,,,,,,,,,,,,,,,,
42274,1490542788640,0,43.8,,43.8,57,47.3,,-0.02,-0.05,0.99,-2.9,0.2,0.5,980,0,1,1,0.0,0,38.159218,-122.45417,0.0,0.0,55.3,7,3,0.4,0,0.0,-1,0.0,0.0,0.0,0
42294,1490542788660,,,,,,,,-0.01,-0.05,0.99,-2.9,0.2,0.5,980,0,,,,,,,,,,,,,,,,,,,
42314,1490542788680,,,,,,,,-0.01,-0.04,0.99,-2.9,0.4,0.5,960,0,,,,,,,,,,,,,,,,,,,
42334,1490542788700,,,,,,,,-0.01,-0.04,0.99,-2.9,0.5,0.6,960,0,,,,,,,,,,,,,,,,,,,
42354,1490542788720,,,,,,,,-0.0,-0.03,0.99,-2.9,0.5,0.6,960,0,,,,,,,,,,,,,,,,,,,
42374,1490542788740,,,,,58,,,0.0,-0.03,0.99,-3.0,0.4,0.6,960,0,1,1,0.0,0,38.159218,-122.45417,0.0,0.0,55.3,7,3,0.4,0,0.0,-1,0.0,0.0,0.0,0
42394,1490542788760,,,,,,,,0.01,-0.02,0.99,-3.0,0.4,0.7,960,0,,,,,,,,,,,,,,,,,,,
42414,1490542788780,,,,,,,,0.01,-0.01,1.0,-3.0,0.4,0.8,960,0,,,,,,,,,,,,,,,,,,,
42434,1490542788800,,,,,,,,0.02,-0.0,1.0,-3.0,0.3,0.9,960,0,,,,,,,,,,,,,,,,,,,
42454,1490542788820,,,,,,,,0.02,0.0,1.0,-3.0,0.2,1.0,960,0,,,,,,,,,,,,,,,,,,,
42474,1490542788840,0,46.9,,45.9,55,46.2,,0.03,0.01,1.01,-3.0,0.0,1.1,960,0,1,1,0.0,0,38.159218,-122.45417,0.0,0.0,55.3,7,3,0.4,0,0.0,-1,0.0,0.0,0.0,0
42494,1490542788860,,,,,,,,0.03,0.02,1.01,-3.0,-0.0,1.2,960,0,,,,,,,,,,,,,,,,,,,
42514,1490542788880,,,,,,,,0.03,0.04,1.02,-3.1,-0.1,1.2,960,0,,,,,,,,,,,,,,,,,,,
42534,1490542788904,,,,,,,,0.03,0.05,1.02,-3.1,-0.1,1.2,960,0,,,,,,,,,,,,,,,,,,,
42554,1490542788924,,,,,,,,0.03,0.06,1.03,-3.1,-0.1,1.2,940,0,,,,,,,,,,,,,,,,,,,
42574,1490542788944,,,,,57,,,0.04,0.07,1.03,-3.1,-0.2,1.2,940,0,1,1,0.0,0,38.159218,-122.45417,0.0,0.0,55.3,7,3,0.4,0,0.0,-1,0.0,0.0,0.0,0
42594,1490542788964,,,,,,,,0.04,0.08,1.03,-3.1,-0.3,1.2,940,0,,,,,,,,,,,,,,,,,,,
42614,1490542788984,,,,,,,,0.03,0.09,1.03,-3.1,-0.4,1.2,940,0,,,,,,,,,,,,,,,,,,,
42634,1490542788996,,,,,,,,0.03,0.09,1.04,-3.1,-0.5,1.1,960,0,,,,,,,,,,,,,,,,,,,
42654,1490542789016,,,,,,,,0.03,0.1,1.05,-3.1,-0.5,1.1,980,0,,,,,,,,,,,,,,,,,,,
42674,1490542789036,0,43.6,,43.0,55,47.0,,0.03,0.11,1.06,-3.0,-0.5,1.0,960,0,1,1,0.0,0,38.159218,-122.45417,0.0,0.0,55.3,7,3,0.4,0,0.0,-1,0.0,0.0,0.0,0
42694,1490542789056,,,,,,,,0.03,0.1,1.06,-3.0,-0.5,0.9,960,0,,,,,,,,,,,,,,,,,,,
42714,1490542789076,,,,,,,,0.03,0.1,1.06,-3.0,-0.5,0.8,960,0,,,,,,,,,,,,,,,,,,,
42734,1490542789105,,,,,,,,0.02,0.09,1.06,-3.0,-0.5,0.8,980,0,,,,,,,,,,,,,,,,,,,
42754,1490542789125,,,,,,,,0.02,0.09,1.05,-3.0,-0.6,0.7,980,0,,,,,,,,,,,,,,,,,,,
42774,1490542789145,,,,,56,,,0.02,0.09,1.04,-3.0,-0.6,0.6,980,0,1,1,0.0,0,38.159218,-122.45417,0.0,0.0,55.3,7,3,0.4,0,0.0,-1,0.0,0.0,0.0,0
42794,1490542789165,,,,,,,,0.02,0.09,1.04,-2.9,-0.6,0.6,980,0,,,,,,,,,,,,,,,,,,,
42814,1490542789185,,,,,,,,0.02,0.08,1.04,-2.9,-0.7,0.5,980,0,,,,,,,,,,,,,,,,,,,
42834,1490542789205,,,,,,,,0.02,0.08,1.03,-2.9,-0.7,0.4,980,0,,,,,,,,,,,,,,,,,,,
42854,1490542789225,,,,,,,,0.02,0.08,1.02,-2.9,-0.8,0.3,980,0,,,,,,,,,,,,,,,,,,,
42874,1490542789245,0,46.7,,45.9,57,46.4,,0.02,0.08,1.01,-2.9,-0.9,0.3,980,0,1,1,0.0,0,38.159218,-122.45417,0.0,0.0,55.3,7,3,0.4,0,0.0,-1,0.0,0.0,0.0,0
42894,1490542789265,,,,,,,,0.02,0.08,1.01,-2.9,-0.9,0.3,960,0,,,,,,,,,,,,,,,,,,,
42914,1490542789285,,,,,,,,0.01,0.07,1.0,-2.9,-0.9,0.3,960,0,,,,,,,,,,,,,,,,,,,
42934,1490542789305,,,,,,,,0.01,0.06,1.0,-2.9,-0.9,0.2,960,0,,,,,,,,,,,,,,,,,,,
42954,1490542789325,,,,,,,,0.01,0.05,1.0,-2.8,-0.8,0.2,960,0,,,,,,,,,,,,,,,,,,,
42974,1490542789345,,,,,55,,,0.0,0.04,0.99,-2.8,-0.8,0.2,960,0,1,1,0.0,0,38.159218,-122.45417,0.0,0.0,55.3,7,3,0.4,0,0.0,-1,0.0,0.0,0.0,0
42994,1490542789365,,,,,,,,0.0,0.03,0.99,-2.8,-0.6,0.2,940,0,,,,,,,,,,,,,,,,,,,
43014,1490542789385,,,,,,,,0.0,0.01,0.99,-2.8,-0.6,0.2,960,0,,,,,,,,,,,,,,,,,,,
43034,1490542789405,,,,,,,,0.0,0.01,0.99,-2.8,-0.5,0.3,960,0,,,,,,,,,,,,,,,,,,,
43054,1490542789425,,,,,,,,0.01,0.02,0.99,-2.9,-0.4,0.4,960,0,,,,,,,,,,,,,,,,,,,
43074,1490542789445,0,44.8,-0.4,41.2,55,44.5,14.93,0.01,0.02,0.99,-2.9,-0.3,0.4,940,0,1,1,0.0,0,38.159218,-122.45417,0.0,0.0,55.3,7,3,0.4,0,0.0,-1,0.0,0.0,0.0,0
43094,1490542789465,,,,,,,,0.02,0.03,0.99,-2.9,-0.3,0.5,960,0,,,,,,,,,,,,,,,,,,,
43114,1490542789485,,,,,,,,0.02,0.03,0.99,-2.9,-0.4,0.6,940,0,,,,,,,,,,,,,,,,,,,
43134,1490542789501,,,,,,,,0.02,0.04,1.0,-3.0,-0.4,0.8,960,0,,,,,,,,,,,,,,,,,,,
43154,1490542789521,,,,,,,,0.02,0.04,1.0,-3.0,-0.4,0.8,960,0,,,,,,,,,,,,,,,,,,,
43174,1490542789541,,,,,55,,,0.03,0.05,1.01,-3.0,-0.4,0.9,940,0,1,1,0.0,0,38.159218,-122.45417,0.0,0.0,55.3,7,3,0.4,0,0.0,-1,0.0,0.0,0.0,0
43194,1490542789561,,,,,,,,0.03,0.06,1.01,-3.1,-0.4,1.0,960,0,,,,,,,,,,,,,,,,,,,
43214,1490542789581,,,,,,,,0.03,0.08,1.02,-3.1,-0.4,1.1,940,0,,,,,,,,,,,,,,,,,,,
43234,1490542789599,,,,,,,,0.04,0.09,1.02,-3.1,-0.4,1.1,960,0,,,,,,,,,,,,,,,,,,,
43254,1490542789619,,,,,,,,0.04,0.09,1.03,-3.1,-0.5,1.1,940,0,,,,,,,,,,,,,,,,,,,
43274,1490542789639,0,46.1,,42.0,55,43.2,,0.03,0.1,1.03,-3.1,-0.6,1.1,960,0,1,1,0.0,0,38.159218,-122.45417,0.0,0.0,55.3,7,3,0.4,0,0.0,-1,0.0,0.0,0.0,0
43294,1490542789659,,,,,,,,0.03,0.1,1.03,-3.1,-0.6,1.1,940,0,,,,,,,,,,,,,,,,,,,
43314,1490542789679,,,,,,,,0.03,0.1,1.04,-3.1,-0.6,1.1,940,0,,,,,,,,,,,,,,,,,,,
43334,1490542789701,,,,,,,,0.03,0.1,1.03,-3.0,-0.7,1.0,940,0,,,,,,,,,,,,,,,,,,,
43354,1490542789721,,,,,,,,0.03,0.1,1.04,-3.0,-0.6,0.9,940,0,,,,,,,,,,,,,,,,,,,
43374,1490542789741,,,,,55,,,0.03,0.09,1.04,-3.0,-0.6,0.9,940,0,1,1,0.0,0,38.159218,-122.45417,0.0,0.0,55.3,7,3,0.4,0,0.0,-1,0.0,0.0,0.0,0
43394,1490542789761,,,,,,,,0.03,0.09,1.03,-2.9,-0.6,0.8,960,0,,,,,,,,,,,,,,,,,,,
43414,1490542789781,,,,,,,,0.03,0.09,1.03,-2.9,-0.6,0.7,920,0,,,,,,,,,,,,,,,,,,,
43434,1490542789801,,,,,,,,0.03,0.08,1.02,-2.9,-0.7,0.7,940,0,,,,,,,,,,,,,,,,,,,
43454,1490542789821,,,,,,,,0.02,0.07,1.02,-2.9,-0.8,0.6,920,0,,,,,,,,,,,,,,,,,,,
43474,1490542789841,0,47.4,,45.0,55,44.0,,0.02,0.05,1.01,-2.9,-0.8,0.6,940,0,1,1,0.0,0,38.159218,-122.45417,0.0,0.0,55.3,7,3,0.4,0,0.0,-1,0.0,0.0,0.0,0
43494,1490542789861,,,,,,,,0.02,0.04,1.01,-2.9,-0.7,0.6,940,0,,,,,,,,,,,,,,,,,,,
43514,1490542789881,,,,,,,,0.02,0.04,1.0,-2.9,-0.6,0.6,960,0,,,,,,,,,,,,,,,,,,,
43534,1490542789905,,,,,,,,0.02,0.03,1.0,-2.9,-0.5,0.7,940,0,,,,,,,,,,,,,,,,,,,
43554,1490542789925,,,,,,,,0.03,0.04,1.0,-2.9,-0.5,0.8,940,0,,,,,,,,,,,,,,,,,,,
43574,1490542789945,,,,,54,,,0.03,0.04,0.99,-2.9,-0.5,0.8,920,0,1,1,0.0,0,38.159218,-122.45417,0.0,0.0,55.3,7,3,0.4,0,0.0,-1,0.0,0.0,0.0,0
43594,1490542789965,,,,,,,,0.03,0.05,1.0,-2.9,-0.5,0.9,920,0,,,,,,,,,,,,,,,,,,,
43614,1490542789985,,,,,,,,0.03,0.06,1.0,-3.0,-0.5,1.0,940,0,,,,,,,,,,,,,,,,,,,
43634,1490542789995,,,,,,,,0.03,0.07,1.01,-3.0,-0.5,1.0,940,0,,,,,,,,,,,,,,,,,,,
43654,1490542790015,,,,,,,,0.03,0.08,1.01,-3.1,-0.5,1.1,960,0,,,,,,,,,,,,,,,,,,,
43674,1490542790035,0,46.0,,41.4,55,43.6,,0.03,0.09,1.02,-3.1,-0.5,1.1,940,0,1,1,0.0,0,38.159218,-122.45417,0.0,0.0,55.3,7,3,0.4,0,0.0,-1,0.0,0.0,0.0,0
43694,1490542790055,,,,,,,,0.03,0.09,1.02,-3.1,-0.6,1.1,940,0,,,,,,,,,,,,,,,,,,,
43714,1490542790075,,,,,,,,0.03,0.1,1.03,-3.1,-0.7,1.0,940,0,,,,,,,,,,,,,,,,,,,
43734,1490542790104,,,,,,,,0.03,0.1,1.03,-3.1,-0.7,1.0,940,0,,,,,,,,,,,,,,,,,,,
43754,1490542790124,,,,,,,,0.03,0.1,1.03,-3.0,-0.7,0.9,940,0,,,,,,,,,,,,,,,,,,,
43774,1490542790144,,,,,53,,,0.03,0.1,1.04,-3.0,-0.7,0.9,960,0,1,1,0.0,0,38.159218,-122.45417,0.0,0.0,55.3,7,3,0.4,0,0.0,-1,0.0,0.0,0.0,0
43794,1490542790164,,,,,,,,0.03,0.09,1.04,-3.0,-0.7,0.8,940,0,,,,,,,,,,,,,,,,,,,
43814,1490542790184,,,,,,,,0.02,0.09,1.04,-3.0,-0.7,0.7,940,0,,,,,,,,,,,,,,,,,,,
43834,1490542790204,,,,,,,,0.02,0.08,1.02,-3.0,-0.8,0.7,940,0,,,,,,,,,,,,,,,,,,,
43854,1490542790224,,,,,,,,0.02,0.08,1.01,-2.9,-0.9,0.6,940,0,,,,,,,,,,,,,,,,,,,
43874,1490542790244,0,46.9,,46.0,55,46.3,,0.01,0.07,1.01,-3.0,-0.9,0.5,960,0,1,1,0.0,0,38.159218,-122.45417,0.0,0.0,55.3,7,3,0.4,0,0.0,-1,0.0,0.0,0.0,0
43894,1490542790264,,,,,,,,0.01,0.06,1.01,-2.9,-0.8,0.5,960,0,,,,,,,,,,,,,,,,,,,
43914,1490542790284,,,,,,,,0.01,0.04,1.01,-2.9,-0.8,0.5,940,0,,,,,,,,,,,,,,,,,,,
43934,1490542790304,,,,,,,,0.01,0.04,1.0,-3.0,-0.7,0.5,940,0,,,,,,,,,,,,,,,,,,,
43954,1490542790324,,,,,,,,0.01,0.03,1.0,-3.0,-0.6,0.6,940,0,,,,,,,,,,,,,,,,,,,
43974,1490542790344,,,,,53,,,0.01,0.04,1.0,-3.0,-0.5,0.6,940,0,1,1,0.0,0,38.159218,-122.45417,0.0,0.0,55.3,7,3,0.4,0,0.0,-1,0.0,0.0,0.0,0
43994,1490542790364,,,,,,,,0.02,0.04,1.0,-3.0,-0.5,0.7,940,0,,,,,,,,,,,,,,,,,,,
44014,1490542790384,,,,,,,,0.02,0.04,1.0,-3.0,-0.4,0.8,960,0,,,,,,,,,,,,,,,,,,,
44034,1490542790404,,,,,,,,0.02,0.05,1.0,-3.1,-0.4,0.9,960,0,,,,,,,,,,,,,,,,,,,
44054,1490542790424,,,,,,,,0.03,0.06,1.01,-3.1,-0.3,0.9,940,0,,,,,,,,,,,,,,,,,,,
44074,1490542790444,0,43.6,-0.5,42.0,53,45.9,14.93,0.03,0.07,1.01,-3.1,-0.3,1.0,940,0,1,1,0.0,0,38.159218,-122.45417,0.0,0.0,55.3,7,3,0.4,0,0.0,-1,0.0,0.0,0.0,0
44094,1490542790464,,,,,,,,0.03,0.08,1.02,-3.1,-0.3,1.0,940,0,,,,,,,,,,,,,,,,,,,
44114,1490542790484,,,,,,,,0.03,0.08,1.02,-3.1,-0.3,1.0,940,0,,,,,,,,,,,,,,,,,,,
44134,1490542790504,,,,,,,,0.03,0.08,1.03,-3.1,-0.4,1.0,940,0,,,,,,,,,,,,,,,,,,,
44154,1490542790524,,,,,,,,0.03,0.09,1.03,-3.1,-0.5,1.0,960,0,,,,,,,,,,,,,,,,,,,
44174,1490542790544,,,,,54,,,0.03,0.09,1.03,-3.1,-0.5,0.9,940,0,1,1,0.0,0,38.159218,-122.45417,0.0,0.0,55.3,7,3,0.4,0,0.0,-1,0.0,0.0,0.0,0
44194,1490542790564,,,,,,,,0.03,0.09,1.04,-3.1,-0.5,0.9,940,0,,,,,,,,,,,,,,,,,,,
44214,1490542790584,,,,,,,,0.03,0.09,1.04,-3.0,-0.5,0.8,940,0,,,,,,,,,,,,,,,,,,,
44234,1490542790604,,,,,,,,0.03,0.09,1.04,-3.0,-0.5,0.8,940,0,,,,,,,,,,,,,,,,,,,
44254,1490542790624,,,,,,,,0.03,0.08,1.04,-2.9,-0.6,0.7,960,0,,,,,,,,,,,,,,,,,,,
44274,1490542790644,0,44.2,,44.1,53,47.5,,0.02,0.08,1.03,-2.9,-0.8,0.6,960,0,1,1,0.0,0,38.159218,-122.45417,0.0,0.0,55.3,7,3,0.4,0,0.0,-1,0.0,0.0,0.0,0
44294,1490542790664,,,,,,,,0.02,0.08,1.02,-2.9,-0.8,0.5,940,0,,,,,,,,,,,,,,,,,,,
44314,1490542790684,,,,,,,,0.02,0.07,1.01,-2.9,-0.9,0.5,960,0,,,,,,,,,,,,,,,,,,,
44334,1490542790704,,,,,,,,0.01,0.06,1.01,-2.9,-0.9,0.4,960,0,,,,,,,,,,,,,,,,,,,
44354,1490542790724,,,,,,,,0.0,0.04,1.0,-2.9,-0.9,0.4,960,0,,,,,,,,,,,,,,,,,,,
44374,1490542790744,,,,,55,,,0.0,0.03,1.0,-2.9,-0.8,0.4,960,0,1,1,0.0,0,38.159218,-122.45417,0.0,0.0,55.3,7,3,0.4,0,0.0,-1,0.0,0.0,0.0,0
44394,1490542790764,,,,,,,,-0.0,0.02,1.0,-2.9,-0.7,0.4,980,0,,,,,,,,,,,,,,,,,,,
44414,1490542790784,,,,,,,,0.0,0.01,1.0,-2.9,-0.6,0.5,960,2,,,,,,,,,,,,,,,,,,,
44434,1490542790804,,,,,,,,0.0,0.01,1.0,-2.9,-0.4,0.5,960,2,,,,,,,,,,,,,,,,,,,
44454,1490542790824,,,,,,,,0.01,0.0,1.0,-2.9,-0.2,0.5,960,2,,,,,,,,,,,,,,,,,,,
44474,1490542790844,0,45.5,,45.0,53,47.6,,0.01,0.01,1.0,-2.9,-0.1,0.6,960,2,1,1,960.0,0,38.159218,-122.45417,0.0,0.0,55.3,7,3,0.4,0,0.0,-1,0.0,0.0,0.0,0
44494,1490542790864,,,,,,,,0.02,0.01,0.99,-3.0,-0.0,0.7,940,49,,,,,,,,,,,,,,,,,,,
44514,1490542790884,,,,,,,,0.03,0.01,0.98,-3.0,0.1,0.7,940,85,,,,,,,,,,,,,,,,,,,
44534,1490542790904,,,,,,,,0.04,0.01,0.98,-3.0,0.0,0.8,940,103,,,,,,,,,,,,,,,,,,,
44554,1490542790924,,,,,,,,0.06,0.03,0.98,-3.1,-0.3,0.9,920,103,,,,,,,,,,,,,,,,,,,
44574,1490542790944,,,,,53,,,0.06,0.04,0.99,-3.1,-0.4,1.0,920,54,1,1,9.126,0,38.159218,-122.45417,0.0,0.0,55.3,7,3,0.4,0,0.0,-1,0.0,0.0,0.0,0
44594,1490542790964,,,,,,,,0.06,0.05,0.99,-3.1,-0.5,1.0,900,54,,,,,,,,,,,,,,,,,,,
44614,1490542790984,,,,,,,,0.07,0.06,1.0,-3.1,-0.5,0.9,880,34,,,,,,,,,,,,,,,,,,,
44634,1490542790994,,,,,,,,0.07,0.06,1.02,-3.1,-0.5,0.8,860,34,,,,,,,,,,,,,,,,,,,
44654,1490542791014,,,,,,,,0.07,0.06,1.03,-3.0,-0.5,0.8,860,34,,,,,,,,,,,,,,,,,,,
44674,1490542791034,0,46.9,,45.9,52,46.2,,0.06,0.05,1.03,-3.0,-0.6,0.6,820,34,1,1,26.061,0,38.159218,-122.45417,0.0,0.0,55.3,7,3,0.4,0,0.0,-1,0.0,0.0,0.0,0
44694,1490542791054,,,,,,,,0.06,0.05,1.03,-3.0,-0.6,0.7,820,34,,,,,,,,,,,,,,,,,,,
44714,1490542791074,,,,,,,,0.07,0.06,1.02,-3.0,-0.6,0.8,800,17,,,,,,,,,,,,,,,,,,,
44734,1490542791103,,,,,,,,0.08,0.06,1.02,-3.0,-0.6,0.9,780,17,,,,,,,,,,,,,,,,,,,
44754,1490542791123,,,,,,,,0.08,0.06,1.02,-3.0,-0.7,0.9,760,17,,,,,,,,,,,,,,,,,,,
44774,1490542791143,,,,,52,,,0.07,0.06,1.02,-3.0,-0.7,0.8,760,31,1,1,48.75,0,38.159218,-122.45417,0.0,0.0,55.3,7,3,0.4,0,0.0,-1,0.0,0.0,0.0,0
44794,1490542791163,,,,,,,,0.08,0.06,1.02,-3.0,-0.7,0.8,760,31,,,,,,,,,,,,,,,,,,,
44814,1490542791183,,,,,,,,0.07,0.06,1.01,-3.0,-0.8,0.9,740,31,,,,,,,,,,,,,,,,,,,
44834,1490542791205,,,,,,,,0.07,0.06,1.02,-3.0,-0.8,0.9,700,20,,,,,,,,,,,,,,,,,,,
44854,1490542791225,,,,,,,,0.07,0.06,1.02,-2.9,-0.8,0.8,700,20,,,,,,,,,,,,,,,,,,,
44874,1490542791245,0,47.4,,45.6,54,45.9,,0.06,0.06,1.02,-2.9,-0.6,0.9,700,20,1,1,35.0,0,38.159218,-122.45417,0.0,0.0,55.3,7,3,0.4,0,0.0,-1,0.0,0.0,0.0,0
44894,1490542791265,,,,,,,,0.06,0.07,1.02,-2.9,-0.5,0.9,700,20,,,,,,,,,,,,,,,,,,,
44914,1490542791285,,,,,,,,0.05,0.06,1.02,-2.9,-0.5,0.9,700,17,,,,,,,,,,,,,,,,,,,
44934,1490542791305,,,,,,,,0.05,0.06,1.02,-2.9,-0.6,0.9,700,17,,,,,,,,,,,,,,,,,,,
44954,1490542791325,,,,,,,,0.05,0.07,1.02,-3.0,-0.6,1.0,700,17,,,,,,,,,,,,,,,,,,,
44974,1490542791345,,,,,53,,,0.04,0.07,1.01,-2.9,-0.6,0.9,740,17,1,1,43.75,0,38.159218,-122.45417,0.0,0.0,55.3,7,3,0.4,0,0.0,-1,0.0,0.0,0.0,0
44994,1490542791365,,,,,,,,0.04,0.06,1.02,-2.9,-0.6,0.9,740,23,,,,,,,,,,,,,,,,,,,
45014,1490542791385,,,,,,,,0.04,0.07,1.02,-3.0,-0.5,0.9,720,23,,,,,,,,,,,,,,,,,,,
45034,1490542791405,,,,,,,,0.04,0.07,1.01,-3.0,-0.4,0.9,740,29,,,,,,,,,,,,,,,,,,,
45054,1490542791425,,,,,,,,0.04,0.07,1.02,-3.0,-0.4,0.9,740,29,,,,,,,,,,,,,,,,,,,
45074,1490542791445,0,44.2,-0.7,41.8,54,45.0,14.83,0.03,0.06,1.02,-3.0,-0.4,0.9,760,29,1,1,25.517,0,38.159218,-122.45417,0.0,0.0,55.3,7,3,0.4,0,0.0,-1,0.0,0.0,0.0,0
45094,1490542791465,,,,,,,,0.03,0.07,1.02,-3.0,-0.4,0.9,760,25,,,,,,,,,,,,,,,,,,,
45114,1490542791485,,,,,,,,0.04,0.07,1.01,-3.0,-0.4,0.9,780,25,,,,,,,,,,,,,,,,,,,
45134,1490542791505,,,,,,,,0.03,0.08,1.01,-3.0,-0.4,0.9,800,25,,,,,,,,,,,,,,,,,,,
45154,1490542791525,,,,,,,,0.03,0.07,1.02,-3.0,-0.4,0.8,800,28,,,,,,,,,,,,,,,,,,,
45174,1490542791545,,,,,58,,,0.03,0.07,1.02,-3.0,-0.4,0.7,820,28,1,1,33.333,0,38.159218,-122.45417,0.0,0.0,55.3,7,3,0.4,0,0.0,-1,0.0,0.0,0.0,0
45194,1490542791565,,,,,,,,0.03,0.06,1.01,-3.0,-0.4,0.8,820,28,,,,,,,,,,,,,,,,,,,
45214,1490542791585,,,,,,,,0.03,0.07,1.0,-3.0,-0.4,0.9,820,28,,,,,,,,,,,,,,,,,,,
45234,1490542791603,,,,,,,,0.04,0.07,1.01,-3.0,-0.4,0.9,840,28,,,,,,,,,,,,,,,,,,,
45254,1490542791623,,,,,,,,0.03,0.07,1.02,-3.0,-0.4,0.9,840,28,,,,,,,,,,,,,,,,,,,
45274,1490542791643,0,47.6,,45.3,62,45.0,,0.03,0.07,1.02,-3.0,-0.4,0.8,860,25,1,1,31.111,0,38.159218,-122.45417,0.0,0.0,55.3,7,3,0.4,0,0.0,-1,0.0,0.0,0.0,0
45294,1490542791663,,,,,,,,0.02,0.06,1.02,-3.0,-0.4,0.7,840,25,,,,,,,,,,,,,,,,,,,
45314,1490542791683,,,,,,,,0.02,0.05,1.01,-3.0,-0.4,0.7,880,25,,,,,,,,,,,,,,,,,,,
45334,1490542791705,,,,,,,,0.03,0.06,1.01,-3.0,-0.3,0.9,880,26,,,,,,,,,,,,,,,,,,,
45354,1490542791725,,,,,,,,0.03,0.06,1.01,-3.0,-0.4,1.0,880,26,,,,,,,,,,,,,,,,,,,
45374,1490542791745,,,,,65,,,0.03,0.07,1.01,-3.0,-0.3,1.0,880,26,1,1,33.846,0,38.159218,-122.45417,0.0,0.0,55.3,7,3,0.4,0,0.0,-1,0.0,0.0,0.0,0
45394,1490542791765,,,,,,,,0.03,0.08,1.02,-3.0,-0.4,1.0,900,25,,,,,,,,,,,,,,,,,,,
45414,1490542791785,,,,,,,,0.02,0.08,1.02,-3.0,-0.4,0.9,920,25,,,,,,,,,,,,,,,,,,,
45434,1490542791805,,,,,,,,0.02,0.08,1.03,-3.0,-0.4,0.8,920,28,,,,,,,,,,,,,,,,,,,
45454,1490542791825,,,,,,,,0.01,0.08,1.03,-3.0,-0.5,0.8,940,28,,,,,,,,,,,,,,,,,,,
45474,1490542791845,0,46.8,,44.7,68,43.3,,0.0,0.07,1.02,-2.9,-0.6,0.7,940,28,1,1,38.333,0,38.159218,-122.45417,0.0,0.0,55.3,7,3,0.4,0,0.0,-1,0.0,0.0,0.0,0
45494,1490542791865,,,,,,,,0.0,0.07,1.02,-2.9,-0.8,0.7,960,26,,,,,,,,,,,,,,,,,,,
45514,1490542791885,,,,,,,,-0.0,0.05,1.02,-2.9,-0.8,0.7,960,26,,,,,,,,,,,,,,,,,,,
45534,1490542791905,,,,,,,,-0.0,0.04,1.01,-2.9,-0.7,0.7,960,26,,,,,,,,,,,,,,,,,,,
45554,1490542791925,,,,,,,,0.0,0.04,1.0,-2.9,-0.6,0.7,960,28,,,,,,,,,,,,,,,,,,,
45574,1490542791945,,,,,65,,,0.0,0.03,1.0,-2.9,-0.5,0.7,960,28,1,1,36.923,0,38.159218,-122.45417,0.0,0.0,55.3,7,3,0.4,0,0.0,-1,0.0,0.0,0.0,0
45594,1490542791965,,,,,,,,0.01,0.03,0.99,-2.9,-0.4,0.6,960,28,,,,,,,,,,,,,,,,,,,
45614,1490542791985,,,,,,,,0.02,0.03,0.98,-2.9,-0.3,0.6,960,28,,,,,,,,,,,,,,,,,,,
45634,1490542791997,,,,,,,,0.02,0.03,0.97,-2.9,-0.2,0.7,960,28,,,,,,,,,,,,,,,,,,,
45654,1490542792017,,,,,,,,0.03,0.04,0.97,-2.9,-0.1,0.7,960,28,,,,,,,,,,,,,,,,,,,
45674,1490542792037,0,43.3,,43.6,60,47.4,,0.04,0.04,0.97,-2.9,-0.1,0.8,940,28,1,1,35.556,0,38.159218,-122.45417,0.0,0.0,55.3,7,3,0.4,0,0.0,-1,0.0,0.0,0.0,0
45694,1490542792057,,,,,,,,0.04,0.06,0.97,-3.0,-0.2,0.9,940,28,,,,,,,,,,,,,,,,,,,
45714,1490542792077,,,,,,,,0.04,0.07,0.98,-3.0,-0.2,0.9,920,28,,,,,,,,,,,,,,,,,,,
45734,1490542792106,,,,,,,,0.04,0.07,0.99,-3.0,-0.3,0.9,920,28,,,,,,,,,,,,,,,,,,,
45754,1490542792126,,,,,,,,0.05,0.08,0.99,-3.1,-0.3,0.9,920,28,,,,,,,,,,,,,,,,,,,
45774,1490542792146,,,,,60,,,0.05,0.09,1.0,-3.0,-0.3,0.9,920,28,1,1,34.074,0,38.159218,-122.45417,0.0,0.0,55.3,7,3,0.4,0,0.0,-1,0.0,0.0,0.0,0
45794,1490542792166,,,,,,,,0.04,0.1,1.01,-3.0,-0.4,0.8,900,28,,,,,,,,,,,,,,,,,,,
45814,1490542792186,,,,,,,,0.04,0.1,1.02,-3.0,-0.4,0.8,900,29,,,,,,,,,,,,,,,,,,,
45834,1490542792206,,,,,,,,0.03,0.09,1.03,-3.0,-0.4,0.7,900,29,,,,,,,,,,,,,,,,,,,
45854,1490542792226,,,,,,,,0.03,0.08,1.03,-3.0,-0.5,0.7,900,29,,,,,,,,,,,,,,,,,,,
45874,1490542792246,0,46.0,,42.0,58,43.8,,0.03,0.07,1.03,-2.9,-0.6,0.6,900,29,1,1,31.034,0,38.159218,-122.45417,0.0,0.0,55.3,7,3,0.4,0,0.0,-1,0.0,0.0,0.0,0
45894,1490542792266,,,,,,,,0.03,0.05,1.02,-2.9,-0.4,0.7,900,29,,,,,,,,,,,,,,,,,,,
45914,1490542792286,,,,,,,,0.04,0.05,1.01,-2.9,-0.4,0.8,900,31,,,,,,,,,,,,,,,,,,,
45934,1490542792306,,,,,,,,0.04,0.05,1.0,-2.9,-0.4,0.9,900,31,,,,,,,,,,,,,,,,,,,
45954,1490542792326,,,,,,,,0.05,0.06,1.0,-3.0,-0.4,0.9,880,31,,,,,,,,,,,,,,,,,,,
45974,1490542792346,,,,,56,,,0.05,0.07,1.0,-3.0,-0.5,1.0,880,31,1,1,30.0,0,38.159218,-122.45417,0.0,0.0,55.3,7,3,0.4,0,0.0,-1,0.0,0.0,0.0,0
45994,1490542792366,,,,,,,,0.05,0.08,1.01,-3.0,-0.7,0.9,880,31,,,,,,,,,,,,,,,,,,,
46014,1490542792386,,,,,,,,0.04,0.07,1.02,-3.0,-0.6,0.8,880,32,,,,,,,,,,,,,,,,,,,
46034,1490542792406,,,,,,,,0.03,0.07,1.02,-3.0,-0.6,0.8,880,32,,,,,,,,,,,,,,,,,,,
46054,1490542792426,,,,,,,,0.03,0.07,1.02,-3.0,-0.7,0.8,880,34,,,,,,,,,,,,,,,,,,,
46074,1490542792446,0,43.6,-0.6,42.4,55,46.2,14.92,0.03,0.05,1.02,-3.0,-0.6,0.8,860,34,1,1,27.5,0,38.159218,-122.45417,0.0,0.0,55.3,7,3,0.4,0,0.0,-1,0.0,0.0,0.0,0
46094,1490542792466,,,,,,,,0.03,0.05,1.01,-3.0,-0.5,0.9,860,34,,,,,,,,,,,,,,,,,,,
46114,1490542792486,,,,,,,,0.04,0.06,1.01,-3.0,-0.5,1.1,860,34,,,,,,,,,,,,,,,,,,,
46134,1490542792506,,,,,,,,0.05,0.07,1.01,-3.1,-0.4,1.2,860,35,,,,,,,,,,,,,,,,,,,
46154,1490542792526,,,,,,,,0.05,0.08,1.01,-3.1,-0.6,1.1,860,35,,,,,,,,,,,,,,,,,,,
46174,1490542792546,,,,,55,,,0.04,0.07,1.02,-3.1,-0.6,1.0,860,35,1,1,24.571,0,38.159218,-122.45417,0.0,0.0,55.3,7,3,0.4,0,0.0,-1,0.0,0.0,0.0,0
46194,1490542792566,,,,,,,,0.04,0.07,1.03,-3.0,-0.6,0.9,860,35,,,,,,,,,,,,,,,,,,,
46214,1490542792586,,,,,,,,0.03,0.06,1.02,-3.0,-0.6,0.8,840,35,,,,,,,,,,,,,,,,,,,
46234,1490542792606,,,,,,,,0.03,0.05,1.02,-3.0,-0.6,0.9,840,35,,,,,,,,,,,,,,,,,,,
46254,1490542792626,,,,,,,,0.04,0.05,1.01,-3.0,-0.4,1.0,840,38,,,,,,,,,,,,,,,,,,,
46274,1490542792646,0,46.5,,46.3,55,47.1,,0.04,0.06,1.01,-3.0,-0.4,1.1,820,38,1,1,24.0,0,38.159218,-122.45417,0.0,0.0,55.3,7,3,0.4,0,0.0,-1,0.0,0.0,0.0,0
46294,1490542792666,,,,,,,,0.04,0.07,1.01,-3.0,-0.5,1.2,840,37,,,,,,,,,,,,,,,,,,,
46314,1490542792686,,,,,,,,0.04,0.07,1.02,-2.9,-0.5,1.0,840,37,,,,,,,,,,,,,,,,,,,
46334,1490542792706,,,,,,,,0.03,0.06,1.02,-2.8,-0.5,0.9,840,38,,,,,,,,,,,,,,,,,,,
46354,1490542792726,,,,,,,,0.03,0.06,1.02,-2.8,-0.5,0.8,840,38,,,,,,,,,,,,,,,,,,,
46374,1490542792746,,,,,55,,,0.03,0.05,1.01,-2.8,-0.5,0.9,840,40,1,1,22.105,0,38.159218,-122.45417,0.0,0.0,55.3,7,3,0.4,0,0.0,-1,0.0,0.0,0.0,0
46394,1490542792766,,,,,,,,0.04,0.06,1.0,-2.8,-0.4,1.1,840,40,,,,,,,,,,,,,,,,,,,
46414,1490542792786,,,,,,,,0.05,0.07,1.01,-2.8,-0.4,1.1,840,40,,,,,,,,,,,,,,,,,,,
46434,1490542792806,,,,,,,,0.05,0.07,1.02,-2.8,-0.6,1.1,840,40,,,,,,,,,,,,,,,,,,,
46454,1490542792826,,,,,,,,0.04,0.07,1.02,-2.7,-0.7,0.9,840,43,,,,,,,,,,,,,,,,,,,
46474,1490542792846,0,47.3,,46.2,55,46.2,,0.04,0.06,1.02,-2.7,-0.7,0.8,840,43,1,1,21.0,0,38.159218,-122.45417,0.0,0.0,55.3,7,3,0.4,0,0.0,-1,0.0,0.0,0.0,0
46494,1490542792866,,,,,,,,0.04,0.06,1.02,-2.7,-0.6,0.8,840,40,,,,,,,,,,,,,,,,,,,
46514,1490542792886,,,,,,,,0.04,0.06,1.01,-2.7,-0.5,0.9,840,45,,,,,,,,,,,,,,,,,,,
46534,1490542792906,,,,,,,,0.05,0.07,1.0,-2.7,-0.5,1.0,840,45,,,,,,,,,,,,,,,,,,,
46554,1490542792926,,,,,,,,0.05,0.08,1.0,-2.7,-0.5,1.0,820,45,,,,,,,,,,,,,,,,,,,
46574,1490542792946,,,,,55,,,0.04,0.07,1.01,-2.6,-0.5,0.9,840,45,1,1,19.091,0,38.159218,-122.45417,0.0,0.0,55.3,7,3,0.4,0,0.0,-1,0.0,0.0,0.0,0
46594,1490542792966,,,,,,,,0.04,0.07,1.01,-2.6,-0.5,0.7,840,40,,,,,,,,,,,,,,,,,,,
46614,1490542792986,,,,,,,,0.03,0.06,1.02,-2.6,-0.5,0.7,860,48,,,,,,,,,,,,,,,,,,,
46634,1490542792998,,,,,,,,0.03,0.05,1.01,-2.5,-0.5,0.7,860,48,,,,,,,,,,,,,,,,,,,
46654,1490542793018,,,,,,,,0.04,0.06,1.0,-2.6,-0.5,0.9,840,42,,,,,,,,,,,,,,,,,,,
46674,1490542793038,0,45.7,,45.6,55,47.2,,0.04,0.07,1.0,-2.6,-0.4,1.0,860,42,1,1,18.298,0,38.159218,-122.45417,0.0,0.0,55.3,7,3,0.4,0,0.0,-1,0.0,0.0,0.0,0
46694,1490542793058,,,,,,,,0.04,0.07,1.01,-2.6,-0.5,1.0,840,43,,,,,,,,,,,,,,,,,,,
46714,1490542793078,,,,,,,,0.03,0.07,1.02,-2.5,-0.5,0.9,880,43,,,,,,,,,,,,,,,,,,,
46734,1490542793105,,,,,,,,0.03,0.07,1.02,-2.5,-0.5,0.8,860,45,,,,,,,,,,,,,,,,,,,
46754,1490542793125,,,,,,,,0.02,0.06,1.02,-2.4,-0.5,0.7,880,45,,,,,,,,,,,,,,,,,,,
46774,1490542793145,,,,,55,,,0.02,0.05,1.01,-2.4,-0.5,0.7,860,45,1,1,19.545,0,38.159218,-122.45417,0.0,0.0,55.3,7,3,0.4,0,0.0,-1,0.0,0.0,0.0,0
46794,1490542793165,,,,,,,,0.02,0.05,1.01,-2.4,-0.4,0.8,860,43,,,,,,,,,,,,,,,,,,,
46814,1490542793185,,,,,,,,0.03,0.06,1.01,-2.5,-0.4,1.0,880,43,,,,,,,,,,,,,,,,,,,
46834,1490542793205,,,,,,,,0.03,0.06,1.01,-2.4,-0.3,1.0,880,45,,,,,,,,,,,,,,,,,,,
46854,1490542793225,,,,,,,,0.03,0.08,1.01,-2.4,-0.5,1.1,900,45,,,,,,,,,,,,,,,,,,,
46874,1490542793245,0,45.2,,45.3,56,47.6,,0.02,0.08,1.02,-2.4,-0.5,1.0,900,45,1,1,20.0,0,38.159218,-122.45417,0.0,0.0,55.3,7,3,0.4,0,0.0,-1,0.0,0.0,0.0,0
46894,1490542793265,,,,,,,,0.02,0.08,1.03,-2.4,-0.5,0.9,920,45,,,,,,,,,,,,,,,,,,,
46914,1490542793285,,,,,,,,0.01,0.08,1.03,-2.4,-0.5,0.8,920,45,,,,,,,,,,,,,,,,,,,
46934,1490542793305,,,,,,,,0.01,0.08,1.03,-2.4,-0.6,0.8,940,43,,,,,,,,,,,,,,,,,,,
46954,1490542793325,,,,,,,,0.0,0.07,1.03,-2.4,-0.7,0.8,920,43,,,,,,,,,,,,,,,,,,,
46974,1490542793345,,,,,59,,,-0.0,0.06,1.02,-2.4,-0.7,0.8,960,43,1,1,21.86,0,38.159218,-122.45417,0.0,0.0,55.3,7,3,0.4,0,0.0,-1,0.0,0.0,0.0,0
46994,1490542793365,,,,,,,,-0.0,0.05,1.02,-2.4,-0.6,0.7,960,45,,,,,,,,,,,,,,,,,,,
47014,1490542793385,,,,,,,,-0.0,0.04,1.01,-2.4,-0.5,0.8,980,45,,,,,,,,,,,,,,,,,,,
47034,1490542793405,,,,,,,,0.0,0.04,1.0,-2.4,-0.4,0.7,960,45,,,,,,,,,,,,,,,,,,,
47054,1490542793425,,,,,,,,0.01,0.03,0.98,-2.4,-0.2,0.7,980,45,,,,,,,,,,,,,,,,,,,
47074,1490542793445,0,44.1,-0.3,42.0,62,45.1,14.9,0.02,0.03,0.98,-2.4,-0.1,0.7,960,45,1,1,21.818,0,38.159218,-122.45417,0.0,0.0,55.3,7,3,0.4,0,0.0,-1,0.0,0.0,0.0,0
47094,1490542793465,,,,,,,,0.02,0.04,0.97,-2.4,-0.0,0.7,980,45,,,,,,,,,,,,,,,,,,,
47114,1490542793485,,,,,,,,0.02,0.04,0.97,-2.4,0.0,0.7,960,43,,,,,,,,,,,,,,,,,,,
47134,1490542793507,,,,,,,,0.03,0.05,0.98,-2.4,0.0,0.8,980,43,,,,,,,,,,,,,,,,,,,
47154,1490542793527,,,,,,,,0.03,0.05,0.98,-2.4,-0.0,0.8,960,43,,,,,,,,,,,,,,,,,,,
47174,1490542793547,,,,,63,,,0.03,0.05,0.98,-2.4,-0.1,0.9,960,42,1,1,22.326,0,38.159218,-122.45417,0.0,0.0,55.3,7,3,0.4,0,0.0,-1,0.0,0.0,0.0,0
47194,1490542793567,,,,,,,,0.03,0.06,0.98,-2.5,-0.2,0.9,960,42,,,,,,,,,,,,,,,,,,,
47214,1490542793587,,,,,,,,0.03,0.06,0.99,-2.5,-0.3,0.9,960,42,,,,,,,,,,,,,,,,,,,
47234,1490542793607,,,,,,,,0.03,0.06,1.0,-2.5,-0.4,1.0,960,42,,,,,,,,,,,,,,,,,,,
47254,1490542793627,,,,,,,,0.03,0.07,1.01,-2.5,-0.3,1.0,940,40,,,,,,,,,,,,,,,,,,,
47274,1490542793647,0,46.4,,43.6,64,43.4,,0.04,0.08,1.01,-2.5,-0.3,1.0,940,40,1,1,23.415,0,38.159218,-122.45417,0.0,0.0,55.3,7,3,0.4,0,0.0,-1,0.0,0.0,0.0,0
47294,1490542793667,,,,,,,,0.04,0.09,1.02,-2.5,-0.3,1.0,920,37,,,,,,,,,,,,,,,,,,,
47314,1490542793687,,,,,,,,0.03,0.1,1.02,-2.5,-0.3,1.0,940,37,,,,,,,,,,,,,,,,,,,
47334,1490542793705,,,,,,,,0.03,0.1,1.02,-2.5,-0.4,1.0,920,34,,,,,,,,,,,,,,,,,,,
47354,1490542793725,,,,,,,,0.03,0.1,1.03,-2.5,-0.4,0.9,940,34,,,,,,,,,,,,,,,,,,,
47374,1490542793745,,,,,61,,,0.02,0.1,1.03,-2.4,-0.4,0.9,920,34,1,1,25.556,0,38.159218,-122.45417,0.0,0.0,55.3,7,3,0.4,0,0.0,-1,0.0,0.0,0.0,0
47394,1490542793765,,,,,,,,0.02,0.09,1.03,-2.4,-0.4,0.9,940,29,,,,,,,,,,,,,,,,,,,
47414,1490542793785,,,,,,,,0.02,0.09,1.03,-2.4,-0.5,0.8,920,29,,,,,,,,,,,,,,,,,,,
47434,1490542793805,,,,,,,,0.02,0.09,1.03,-2.4,-0.6,0.8,920,29,,,,,,,,,,,,,,,,,,,
47454,1490542793825,,,,,,,,0.01,0.08,1.02,-2.4,-0.6,0.8,900,28,,,,,,,,,,,,,,,,,,,
47474,1490542793845,0,47.6,,45.9,63,45.8,,0.01,0.07,1.02,-2.3,-0.5,0.7,920,28,1,1,31.724,0,38.159218,-122.45417,0.0,0.0,55.3,7,3,0.4,0,0.0,-1,0.0,0.0,0.0,0
47494,1490542793865,,,,,,,,0.02,0.06,1.02,-2.3,-0.5,0.7,920,28,,,,,,,,,,,,,,,,,,,
47514,1490542793885,,,,,,,,0.02,0.07,1.01,-2.4,-0.5,0.8,940,25,,,,,,,,,,,,,,,,,,,
47534,1490542793901,,,,,,,,0.02,0.07,1.0,-2.4,-0.5,0.9,940,25,,,,,,,,,,,,,,,,,,,
47554,1490542793921,,,,,,,,0.03,0.07,1.0,-2.4,-0.5,1.0,920,29,,,,,,,,,,,,,,,,,,,
47574,1490542793941,,,,,62,,,0.03,0.08,1.01,-2.5,-0.5,1.0,940,29,1,1,39.167,0,38.159218,-122.45417,0.0,0.0,55.3,7,3,0.4,0,0.0,-1,0.0,0.0,0.0,0
47594,1490542793961,,,,,,,,0.03,0.09,1.01,-2.5,-0.5,1.0,920,32,,,,,,,,,,,,,,,,,,,
47614,1490542793981,,,,,,,,0.02,0.09,1.02,-2.5,-0.4,1.0,940,32,,,,,,,,,,,,,,,,,,,
47634,1490542793999,,,,,,,,0.02,0.09,1.02,-2.4,-0.5,0.9,920,32,,,,,,,,,,,,,,,,,,,
47654,1490542794019,,,,,,,,0.01,0.09,1.03,-2.4,-0.5,0.9,940,34,,,,,,,,,,,,,,,,,,,
47674,1490542794039,0,46.0,,45.9,60,47.3,,0.01,0.09,1.03,-2.4,-0.5,0.9,920,34,1,1,28.75,0,38.159218,-122.45417,0.0,0.0,55.3,7,3,0.4,0,0.0,-1,0.0,0.0,0.0,0
47694,1490542794059,,,,,,,,0.01,0.08,1.03,-2.4,-0.4,0.8,940,34,,,,,,,,,,,,,,,,,,,
47714,1490542794079,,,,,,,,0.0,0.08,1.03,-2.4,-0.5,0.8,920,34,,,,,,,,,,,,,,,,,,,
47734,1490542794102,,,,,,,,-0.0,0.07,1.02,-2.4,-0.6,0.8,940,34,,,,,,,,,,,,,,,,,,,
47754,1490542794122,,,,,,,,-0.01,0.06,1.02,-2.4,-0.6,0.7,940,34,,,,,,,,,,,,,,,,,,,
47774,1490542794142,,,,,59,,,-0.0,0.05,1.01,-2.4,-0.5,0.7,960,35,1,1,28.485,0,38.159218,-122.45417,0.0,0.0,55.3,7,3,0.4,0,0.0,-1,0.0,0.0,0.0,0
47794,1490542794162,,,,,,,,0.0,0.05,1.01,-2.4,-0.4,0.7,920,35,,,,,,,,,,,,,,,,,,,
47814,1490542794182,,,,,,,,0.01,0.06,1.0,-2.4,-0.3,0.8,940,34,,,,,,,,,,,,,,,,,,,
47834,1490542794206,,,,,,,,0.01,0.06,0.99,-2.4,-0.3,0.8,920,34,,,,,,,,,,,,,,,,,,,
47854,1490542794226,,,,,,,,0.01,0.06,0.99,-2.4,-0.4,0.9,920,34,,,,,,,,,,,,,,,,,,,
47874,1490542794246,0,46.0,,42.3,61,44.0,,0.01,0.06,0.99,-2.4,-0.4,1.0,920,34,1,1,28.485,0,38.159218,-122.45417,0.0,0.0,55.3,7,3,0.4,0,0.0,-1,0.0,0.0,0.0,0
47894,1490542794266,,,,,,,,0.02,0.07,1.0,-2.4,-0.4,1.0,940,34,,,,,,,,,,,,,,,,,,,
47914,1490542794286,,,,,,,,0.02,0.08,1.01,-2.5,-0.5,1.0,960,32,,,,,,,,,,,,,,,,,,,
47934,1490542794306,,,,,,,,0.02,0.09,1.01,-2.5,-0.5,1.0,920,32,,,,,,,,,,,,,,,,,,,
47954,1490542794326,,,,,,,,0.01,0.09,1.02,-2.5,-0.5,1.0,940,32,,,,,,,,,,,,,,,,,,,
47974,1490542794346,,,,,60,,,0.01,0.09,1.02,-2.5,-0.6,0.9,920,32,1,1,28.75,0,38.159218,-122.45417,0.0,0.0,55.3,7,3,0.4,0,0.0,-1,0.0,0.0,0.0,0
47994,1490542794366,,,,,,,,0.01,0.09,1.03,-2.5,-0.6,0.9,940,32,,,,,,,,,,,,,,,,,,,
48014,1490542794386,,,,,,,,0.01,0.08,1.04,-2.5,-0.7,0.9,940,31,,,,,,,,,,,,,,,,,,,
48034,1490542794406,,,,,,,,0.0,0.08,1.04,-2.5,-0.6,0.9,960,31,,,,,,,,,,,,,,,,,,,
48054,1490542794426,,,,,,,,0.0,0.07,1.04,-2.5,-0.7,0.8,920,31,,,,,,,,,,,,,,,,,,,
48074,1490542794446,0,46.8,-0.2,46.5,60,46.6,14.86,-0.0,0.07,1.03,-2.5,-0.7,0.8,940,31,1,1,32.0,0,38.159218,-122.45417,0.0,0.0,55.3,7,3,0.4,0,0.0,-1,0.0,0.0,0.0,0
48094,1490542794466,,,,,,,,-0.0,0.07,1.02,-2.5,-0.8,0.8,920,31,,,,,,,,,,,,,,,,,,,
48114,1490542794486,,,,,,,,-0.0,0.06,1.02,-2.5,-0.8,0.8,920,29,,,,,,,,,,,,,,,,,,,
48134,1490542794506,,,,,,,,-0.0,0.05,1.01,-2.4,-0.7,0.8,920,29,,,,,,,,,,,,,,,,,,,
48154,1490542794526,,,,,,,,0.0,0.05,1.01,-2.4,-0.6,0.8,940,29,,,,,,,,,,,,,,,,,,,
48174,1490542794546,,,,,59,,,0.01,0.05,1.0,-2.4,-0.6,0.8,900,29,1,1,31.724,0,38.159218,-122.45417,0.0,0.0,55.3,7,3,0.4,0,0.0,-1,0.0,0.0,0.0,0
48194,1490542794566,,,,,,,,0.01,0.05,1.0,-2.5,-0.5,0.9,900,29,,,,,,,,,,,,,,,,,,,
48214,1490542794586,,,,,,,,0.01,0.05,1.0,-2.5,-0.6,1.0,920,29,,,,,,,,,,,,,,,,,,,
48234,1490542794606,,,,,,,,0.01,0.06,1.01,-2.5,-0.5,1.0,900,29,,,,,,,,,,,,,,,,,,,
48254,1490542794626,,,,,,,,0.01,0.08,1.01,-2.5,-0.5,1.0,920,29,,,,,,,,,,,,,,,,,,,
48274,1490542794646,0,47.1,,46.8,60,46.6,,0.01,0.08,1.01,-2.5,-0.5,1.0,920,28,1,1,31.034,0,38.159218,-122.45417,0.0,0.0,55.3,7,3,0.4,0,0.0,-1,0.0,0.0,0.0,0
48294,1490542794666,,,,,,,,0.01,0.08,1.02,-2.5,-0.5,1.0,940,28,,,,,,,,,,,,,,,,,,,
