"Interval"|"ms"|0|0|1,"Utc"|"ms"|0|0|1,"FuelLevel"|"F"|0|100|5,"OilTemp"|"F"|0.0|300.0|5,"CoolantPressPSI"|"PSI"|0.0|20.0|1,"Coolant"|"F"|0.0|300.0|5,"OilPress"|"PSI"|0|150|10,"EngineTemp"|"F"|0.0|300.0|5,"Battery"|"Volts"|0.0|20.0|1,"AccelX"|"G"|-3.0|3.0|50,"AccelY"|"G"|-3.0|3.0|50,"AccelZ"|"G"|-3.0|3.0|50,"Yaw"|"Deg/Sec"|-300.0|300.0|50,"Pitch"|"Deg/Sec"|-300.0|300.0|50,"Roll"|"Deg/Sec"|-300.0|300.0|50,"RPM"|""|0|10000|50,"Driveshaft"|"RPM"|0|5000|50,"GPIO1"|""|0|1|10,"GPIO2"|""|0|1|10,"GearRatio"|""|-5.0|5.0|10,"Gear"|""|-1|5|10,"Latitude"|"Degrees"|-180.0|180.0|10,"Longitude"|"Degrees"|-180.0|180.0|10,"Speed"|"mph"|0.0|150.0|10,"Distance"|"mi"|0.0|0.0|10,"Altitude"|"ft"|0.0|4000.0|10,"GPSSats"|""|0|20|10,"GPSQual"|""|0|5|10,"GPSDOP"|""|0.0|20.0|10,"LapCount"|""|0|0|10,"LapTime"|"Min"|0.0|0.0|10,"Sector"|""|0|0|10,"SectorTime"|"Min"|0.0|0.0|10,"PredTime"|"Min"|0.0|0.0|10,"ElapsedTime"|"Min"|0.0|0.0|10,"CurrentLap"|""|0|0|10
35654,1490584262429,,,,,,,,-0.07,0.08,1.0,-3.8,-3.6,0.4,340,108,,,,,,,,,,,,,,,,,,,
35674,1490584262448,0,52.9,,53.6,16,55.8,,-0.07,0.08,1.0,-3.8,-3.5,0.5,340,109,1,1,3.178,1,37.478458,-122.203804,2.04,0.0,107.3,6,3,1.5,0,0.0,-1,0.0,0.0,0.0,0
35694,1490584262468,,,,,,,,-0.07,0.08,1.0,-3.8,-3.7,0.4,520,109,,,,,,,,,,,,,,,,,,,
35714,1490584262488,,,,,,,,-0.07,0.07,1.0,-3.8,-3.8,0.4,520,109,,,,,,,,,,,,,,,,,,,
35734,1490584262508,,,,,,,,-0.07,0.08,1.0,-3.8,-3.8,0.4,620,108,,,,,,,,,,,,,,,,,,,
35754,1490584262528,,,,,,,,-0.08,0.08,1.0,-3.8,-4.0,0.5,720,108,,,,,,,,,,,,,,,,,,,
35774,1490584262540,,,,,21,,,-0.08,0.06,1.0,-3.8,-4.0,0.4,820,108,1,1,3.178,1,37.478458,-122.203804,1.65,0.0,107.6,6,3,1.5,0,0.0,-1,0.0,0.0,0.0,0
35794,1490584262560,,,,,,,,-0.09,0.06,1.0,-3.7,-3.9,0.3,860,108,,,,,,,,,,,,,,,,,,,
35814,1490584262580,,,,,,,,-0.09,0.04,0.99,-3.8,-4.0,0.3,860,109,,,,,,,,,,,,,,,,,,,
35834,1490584262600,,,,,,,,-0.08,0.06,0.99,-3.8,-4.0,0.4,900,111,,,,,,,,,,,,,,,,,,,
35854,1490584262620,,,,,,,,-0.08,0.07,0.99,-3.8,-4.0,0.3,940,111,,,,,,,,,,,,,,,,,,,
35874,1490584262646,0,52.7,,52.6,35,56.1,,-0.08,0.07,1.0,-3.8,-4.0,0.2,940,112,1,1,8.182,0,37.478458,-122.203804,1.63,0.0,108.7,6,3,1.5,0,0.0,-1,0.0,0.0,0.0,0
35894,1490584262666,,,,,,,,-0.08,0.07,0.99,-3.8,-3.8,0.1,880,112,,,,,,,,,,,,,,,,,,,
35914,1490584262686,,,,,,,,-0.08,0.08,0.99,-3.8,-3.8,0.1,900,111,,,,,,,,,,,,,,,,,,,
35934,1490584262706,,,,,,,,-0.08,0.08,1.0,-3.8,-3.9,0.1,960,111,,,,,,,,,,,,,,,,,,,
35954,1490584262726,,,,,,,,-0.08,0.08,0.99,-3.8,-3.9,0.0,940,111,,,,,,,,,,,,,,,,,,,
35974,1490584262746,,,,,52,,,-0.09,0.07,0.99,-3.8,-3.8,-0.1,980,112,1,1,8.727,0,37.478458,-122.203804,1.74,0.0,109.5,6,3,1.5,0,0.0,-1,0.0,0.0,0.0,0
35994,1490584262766,,,,,,,,-0.09,0.06,0.98,-3.7,-3.8,-0.2,1000,112,,,,,,,,,,,,,,,,,,,
36014,1490584262786,,,,,,,,-0.1,0.06,0.98,-3.7,-3.8,-0.3,1020,112,,,,,,,,,,,,,,,,,,,
36034,1490584262806,,,,,,,,-0.11,0.05,0.98,-3.7,-3.8,-0.3,1020,111,,,,,,,,,,,,,,,,,,,
36054,1490584262826,,,,,,,,-0.11,0.05,0.98,-3.7,-3.7,-0.3,1040,111,,,,,,,,,,,,,,,,,,,
36074,1490584262846,0,53.0,-0.4,52.9,60,56.4,14.83,-0.11,0.04,0.97,-3.8,-3.8,-0.3,1040,112,1,1,9.273,0,37.478458,-122.203804,1.57,0.0,109.7,6,3,1.5,0,0.0,-1,0.0,0.0,0.0,0
36094,1490584262866,,,,,,,,-0.11,0.05,0.96,-3.8,-4.0,-0.2,1040,114,,,,,,,,,,,,,,,,,,,
36114,1490584262886,,,,,,,,-0.1,0.05,0.95,-3.8,-4.1,-0.2,1020,115,,,,,,,,,,,,,,,,,,,
36134,1490584262906,,,,,,,,-0.1,0.05,0.95,-3.8,-4.2,-0.1,1020,115,,,,,,,,,,,,,,,,,,,
36154,1490584262926,,,,,,,,-0.1,0.05,0.96,-3.8,-4.2,-0.1,1000,115,,,,,,,,,,,,,,,,,,,
36174,1490584262948,,,,,63,,,-0.09,0.05,0.96,-3.7,-4.1,-0.2,980,115,1,1,8.87,0,37.478458,-122.203804,1.91,0.0,109.8,6,3,1.5,0,0.0,-1,0.0,0.0,0.0,0
36194,1490584262968,,,,,,,,-0.09,0.05,0.96,-3.7,-4.1,-0.3,940,115,,,,,,,,,,,,,,,,,,,
36214,1490584262988,,,,,,,,-0.09,0.06,0.96,-3.7,-4.1,-0.3,920,115,,,,,,,,,,,,,,,,,,,
36234,1490584263008,,,,,,,,-0.09,0.06,0.97,-3.7,-4.1,-0.2,860,115,,,,,,,,,,,,,,,,,,,
36254,1490584263028,,,,,,,,-0.09,0.06,0.97,-3.7,-4.0,-0.2,840,114,,,,,,,,,,,,,,,,,,,
36274,1490584263042,0,54.6,,53.8,61,55.2,,-0.09,0.06,0.98,-3.7,-4.0,-0.2,780,112,1,1,7.478,0,37.478458,-122.203804,1.83,0.0,109.3,6,3,1.5,0,0.0,-1,0.0,0.0,0.0,0
36294,1490584263062,,,,,,,,-0.09,0.05,0.97,-3.7,-4.0,-0.3,780,114,,,,,,,,,,,,,,,,,,,
36314,1490584263082,,,,,,,,-0.09,0.05,0.97,-3.7,-3.9,-0.3,720,112,,,,,,,,,,,,,,,,,,,
36334,1490584263102,,,,,,,,-0.09,0.05,0.98,-3.7,-3.8,-0.3,640,111,,,,,,,,,,,,,,,,,,,
36354,1490584263122,,,,,,,,-0.09,0.05,0.98,-3.7,-3.8,-0.3,640,111,,,,,,,,,,,,,,,,,,,
36374,1490584263146,,,,,56,,,-0.09,0.05,0.99,-3.7,-3.8,-0.3,560,111,1,1,5.818,0,37.478458,-122.203804,1.84,0.0,108.3,6,3,1.5,0,0.0,-1,0.0,0.0,0.0,0
36394,1490584263166,,,,,,,,-0.09,0.05,0.98,-3.7,-3.9,-0.2,560,112,,,,,,,,,,,,,,,,,,,
36414,1490584263186,,,,,,,,-0.09,0.05,0.99,-3.6,-3.8,-0.2,500,112,,,,,,,,,,,,,,,,,,,
36434,1490584263206,,,,,,,,-0.09,0.05,0.98,-3.6,-3.8,-0.2,500,112,,,,,,,,,,,,,,,,,,,
36454,1490584263226,,,,,,,,-0.09,0.05,0.99,-3.6,-3.8,-0.2,460,111,,,,,,,,,,,,,,,,,,,
36474,1490584263248,0,55.5,,53.0,52,53.2,,-0.09,0.05,0.98,-3.6,-4.0,-0.2,460,109,1,1,4.464,0,37.478455,-122.203804,1.83,0.001,107.3,6,3,1.5,0,0.0,-1,0.0,0.0,0.0,0
36494,1490584263268,,,,,,,,-0.09,0.05,0.98,-3.6,-3.9,-0.1,460,108,,,,,,,,,,,,,,,,,,,
36514,1490584263288,,,,,,,,-0.08,0.05,0.99,-3.6,-3.9,-0.1,360,108,,,,,,,,,,,,,,,,,,,
36534,1490584263308,,,,,,,,-0.08,0.05,0.98,-3.6,-3.9,-0.1,360,106,,,,,,,,,,,,,,,,,,,
36554,1490584263328,,,,,,,,-0.08,0.05,0.99,-3.6,-3.9,-0.1,360,106,,,,,,,,,,,,,,,,,,,
36574,1490584263350,,,,,51,,,-0.08,0.05,0.99,-3.6,-3.9,-0.1,280,106,1,1,3.396,1,37.478455,-122.203789,1.76,0.001,107.8,6,3,1.5,0,0.0,-1,0.0,0.0,0.0,0
36594,1490584263370,,,,,,,,-0.08,0.05,0.98,-3.6,-3.9,-0.1,280,106,,,,,,,,,,,,,,,,,,,
36614,1490584263390,,,,,,,,-0.08,0.05,0.99,-3.6,-3.8,-0.0,280,106,,,,,,,,,,,,,,,,,,,
36634,1490584263410,,,,,,,,-0.08,0.05,0.99,-3.6,-3.8,-0.0,280,105,,,,,,,,,,,,,,,,,,,
36654,1490584263430,,,,,,,,-0.07,0.04,0.98,-3.6,-3.8,-0.1,280,105,,,,,,,,,,,,,,,,,,,
36674,1490584263449,0,53.7,,50.5,53,53.3,,-0.07,0.04,0.98,-3.6,-3.8,-0.1,180,105,1,1,2.692,0,37.478455,-122.203789,1.83,0.001,108.3,6,3,1.5,0,0.0,-1,0.0,0.0,0.0,0
36694,1490584263469,,,,,,,,-0.07,0.05,0.98,-3.6,-3.8,-0.2,180,105,,,,,,,,,,,,,,,,,,,
36714,1490584263489,,,,,,,,-0.07,0.05,0.99,-3.5,-3.7,-0.3,180,103,,,,,,,,,,,,,,,,,,,
36734,1490584263509,,,,,,,,-0.07,0.05,0.99,-3.5,-3.7,-0.3,180,103,,,,,,,,,,,,,,,,,,,
36754,1490584263529,,,,,,,,-0.07,0.05,0.99,-3.5,-3.7,-0.4,180,102,,,,,,,,,,,,,,,,,,,
36774,1490584263545,,,,,54,,,-0.07,0.04,0.99,-3.5,-3.7,-0.5,180,102,1,1,1.748,2,37.478455,-122.203789,1.86,0.001,108.9,6,3,1.5,0,0.0,-1,0.0,0.0,0.0,0
36794,1490584263565,,,,,,,,-0.06,0.04,0.99,-3.5,-3.7,-0.5,180,102,,,,,,,,,,,,,,,,,,,
36814,1490584263585,,,,,,,,-0.06,0.04,0.99,-3.5,-3.7,-0.6,140,102,,,,,,,,,,,,,,,,,,,
36834,1490584263605,,,,,,,,-0.06,0.04,0.99,-3.5,-3.6,-0.6,140,102,,,,,,,,,,,,,,,,,,,
36854,1490584263625,,,,,,,,-0.06,0.04,0.99,-3.5,-3.6,-0.6,140,100,,,,,,,,,,,,,,,,,,,
36874,1490584263645,0,53.7,,50.4,51,53.2,,-0.06,0.03,0.99,-3.5,-3.6,-0.7,140,100,1,1,1.386,3,37.478455,-122.203789,1.61,0.001,109.5,6,3,1.5,0,0.0,-1,0.0,0.0,0.0,0
36894,1490584263665,,,,,,,,-0.06,0.03,0.99,-3.5,-3.5,-0.8,140,100,,,,,,,,,,,,,,,,,,,
36914,1490584263685,,,,,,,,-0.06,0.03,0.99,-3.5,-3.5,-0.8,140,100,,,,,,,,,,,,,,,,,,,
36934,1490584263705,,,,,,,,-0.05,0.03,1.0,-3.5,-3.4,-0.8,140,100,,,,,,,,,,,,,,,,,,,
36954,1490584263725,,,,,,,,-0.05,0.03,0.99,-3.5,-3.4,-0.6,140,102,,,,,,,,,,,,,,,,,,,
36974,1490584263745,,,,,45,,,-0.05,0.03,0.99,-3.4,-3.4,-0.5,140,102,1,1,1.4,3,37.478455,-122.203789,1.69,0.001,109.3,6,2,1.5,0,0.0,-1,0.0,0.0,0.0,0
36994,1490584263765,,,,,,,,-0.05,0.03,0.99,-3.4,-3.4,-0.5,140,102,,,,,,,,,,,,,,,,,,,
37014,1490584263785,,,,,,,,-0.04,0.03,0.99,-3.4,-3.4,-0.5,140,100,,,,,,,,,,,,,,,,,,,
37034,1490584263805,,,,,,,,-0.04,0.04,0.99,-3.4,-3.5,-0.5,140,100,,,,,,,,,,,,,,,,,,,
37054,1490584263825,,,,,,,,-0.04,0.04,0.99,-3.5,-3.5,-0.4,140,100,,,,,,,,,,,,,,,,,,,
37074,1490584263845,0,55.0,-0.1,54.3,44,55.5,12.17,-0.04,0.04,0.99,-3.5,-3.6,-0.4,140,102,1,1,1.4,3,37.478455,-122.203789,1.51,0.001,109.2,6,3,1.5,0,0.0,-1,0.0,0.0,0.0,0
37094,1490584263865,,,,,,,,-0.03,0.04,0.99,-3.5,-3.6,-0.4,60,102,,,,,,,,,,,,,,,,,,,
37114,1490584263885,,,,,,,,-0.03,0.04,0.99,-3.5,-3.7,-0.4,60,102,,,,,,,,,,,,,,,,,,,
37134,1490584263905,,,,,,,,-0.03,0.05,0.99,-3.5,-3.7,-0.5,60,100,,,,,,,,,,,,,,,,,,,
37154,1490584263925,,,,,,,,-0.03,0.05,0.99,-3.5,-3.8,-0.5,60,100,,,,,,,,,,,,,,,,,,,
37174,1490584263949,,,,,42,,,-0.03,0.05,0.99,-3.5,-3.8,-0.4,60,100,1,1,0.594,0,37.478455,-122.203789,1.49,0.001,109.3,6,3,1.5,0,0.0,-1,0.0,0.0,0.0,0
37194,1490584263969,,,,,,,,-0.03,0.05,0.99,-3.5,-3.8,-0.4,60,102,,,,,,,,,,,,,,,,,,,
37214,1490584263989,,,,,,,,-0.02,0.05,0.99,-3.5,-3.9,-0.4,60,100,,,,,,,,,,,,,,,,,,,
37234,1490584264009,,,,,,,,-0.02,0.05,0.99,-3.4,-3.9,-0.4,60,102,,,,,,,,,,,,,,,,,,,
37254,1490584264029,,,,,,,,-0.02,0.05,0.99,-3.4,-3.9,-0.5,60,102,,,,,,,,,,,,,,,,,,,
37274,1490584264043,0,55.4,,52.9,39,53.0,,-0.02,0.05,0.99,-3.4,-3.9,-0.6,60,102,1,1,0.594,0,37.478455,-122.203789,1.66,0.001,109.1,6,3,1.5,0,0.0,-1,0.0,0.0,0.0,0
37294,1490584264063,,,,,,,,-0.02,0.05,0.98,-3.4,-4.0,-0.7,60,102,,,,,,,,,,,,,,,,,,,
37314,1490584264083,,,,,,,,-0.01,0.05,0.98,-3.5,-4.1,-0.7,60,102,,,,,,,,,,,,,,,,,,,
37334,1490584264103,,,,,,,,-0.01,0.05,0.97,-3.5,-4.3,-0.8,60,102,,,,,,,,,,,,,,,,,,,
37354,1490584264123,,,,,,,,-0.0,0.05,0.97,-3.6,-4.4,-1.1,60,105,,,,,,,,,,,,,,,,,,,
37374,1490584264149,,,,,36,,,0.0,0.06,0.97,-3.6,-4.6,-1.3,60,106,1,1,0.594,0,37.478455,-122.203789,1.54,0.001,109.1,6,3,1.5,0,0.0,-1,0.0,0.0,0.0,0
37394,1490584264169,,,,,,,,0.0,0.05,0.97,-3.7,-4.8,-1.3,60,109,,,,,,,,,,,,,,,,,,,
37414,1490584264189,,,,,,,,0.0,0.04,0.98,-3.6,-4.9,-1.4,60,109,,,,,,,,,,,,,,,,,,,
37434,1490584264209,,,,,,,,-0.0,0.04,0.98,-3.5,-4.9,-1.2,60,109,,,,,,,,,,,,,,,,,,,
37454,1490584264231,,,,,,,,-0.0,0.03,0.99,-3.4,-5.0,-1.0,60,106,,,,,,,,,,,,,,,,,,,
37474,1490584264251,0,52.3,,50.5,34,54.0,,-0.0,0.02,1.0,-3.3,-4.9,-0.7,60,103,1,1,0.55,0,37.478455,-122.203789,1.7,0.001,109.0,6,3,1.6,0,0.0,-1,0.0,0.0,0.0,0
37494,1490584264271,,,,,,,,-0.0,0.02,1.0,-3.1,-4.9,-0.2,60,102,,,,,,,,,,,,,,,,,,,
37514,1490584264291,,,,,,,,0.0,0.01,1.0,-3.0,-4.7,0.3,60,102,,,,,,,,,,,,,,,,,,,
37534,1490584264311,,,,,,,,-0.0,0.01,1.0,-3.0,-4.5,0.8,60,103,,,,,,,,,,,,,,,,,,,
37554,1490584264331,,,,,,,,-0.0,0.01,1.01,-3.0,-4.4,1.3,60,105,,,,,,,,,,,,,,,,,,,
37574,1490584264349,,,,,32,,,-0.01,0.02,1.02,-3.1,-4.1,1.7,60,105,1,1,0.583,0,37.478451,-122.203789,1.65,0.001,108.9,6,3,1.6,0,0.0,-1,0.0,0.0,0.0,0
37594,1490584264369,,,,,,,,-0.02,0.02,1.02,-3.2,-3.9,2.1,60,102,,,,,,,,,,,,,,,,,,,
37614,1490584264389,,,,,,,,-0.02,0.03,1.03,-3.3,-3.6,2.3,60,100,,,,,,,,,,,,,,,,,,,
37634,1490584264409,,,,,,,,-0.03,0.05,1.04,-3.5,-3.2,2.6,60,97,,,,,,,,,,,,,,,,,,,
37654,1490584264429,,,,,,,,-0.03,0.05,1.04,-3.6,-2.8,2.7,60,95,,,,,,,,,,,,,,,,,,,
37674,1490584264449,0,52.1,,50.7,31,53.6,,-0.03,0.06,1.04,-3.6,-2.3,2.8,60,91,1,1,0.625,0,37.478451,-122.203789,1.49,0.001,108.7,6,3,1.6,0,0.0,-1,0.0,0.0,0.0,0
37694,1490584264469,,,,,,,,-0.04,0.06,1.04,-3.6,-2.0,2.8,60,88,,,,,,,,,,,,,,,,,,,
37714,1490584264489,,,,,,,,-0.04,0.07,1.03,-3.6,-1.6,2.6,60,85,,,,,,,,,,,,,,,,,,,
37734,1490584264509,,,,,,,,-0.04,0.07,1.03,-3.5,-1.4,2.2,60,80,,,,,,,,,,,,,,,,,,,
37754,1490584264529,,,,,,,,-0.04,0.07,1.02,-3.4,-1.1,1.9,60,77,,,,,,,,,,,,,,,,,,,
37774,1490584264548,,,,,30,,,-0.04,0.07,1.02,-3.3,-1.0,1.4,60,77,1,1,0.75,5,37.478451,-122.203789,1.89,0.001,108.6,6,3,1.6,0,0.0,-1,0.0,0.0,0.0,0
37794,1490584264568,,,,,,,,-0.04,0.07,1.01,-3.2,-0.9,1.1,60,75,,,,,,,,,,,,,,,,,,,
37814,1490584264588,,,,,,,,-0.04,0.07,1.0,-3.2,-0.8,0.8,60,75,,,,,,,,,,,,,,,,,,,
37834,1490584264604,,,,,,,,-0.04,0.06,0.99,-3.2,-0.8,0.5,60,75,,,,,,,,,,,,,,,,,,,
37854,1490584264624,,,,,,,,-0.04,0.06,0.99,-3.3,-0.8,0.4,60,75,,,,,,,,,,,,,,,,,,,
37874,1490584264644,0,54.0,,54.0,29,54.6,,-0.03,0.06,0.98,-3.4,-0.8,0.3,60,75,1,1,0.8,5,37.478451,-122.203789,1.56,0.001,108.4,6,3,1.6,0,0.0,-1,0.0,0.0,0.0,0
37894,1490584264664,,,,,,,,-0.03,0.06,0.98,-3.5,-0.9,0.2,60,75,,,,,,,,,,,,,,,,,,,
37914,1490584264684,,,,,,,,-0.03,0.05,0.98,-3.5,-0.9,0.2,60,74,,,,,,,,,,,,,,,,,,,
37934,1490584264704,,,,,,,,-0.03,0.05,0.98,-3.6,-1.0,0.2,60,74,,,,,,,,,,,,,,,,,,,
37954,1490584264724,,,,,,,,-0.03,0.05,0.98,-3.6,-1.0,0.2,5000000,74,,,,,,,,,,,,,,,,,,,
37974,1490584264744,,,,,28,,,-0.03,0.05,0.98,-3.6,-1.0,0.3,0,72,1,1,0.822,5,37.478451,-122.203789,1.24,0.001,108.3,6,2,1.6,0,0.0,-1,0.0,0.0,0.0,0
37994,1490584264764,,,,,,,,-0.03,0.05,0.98,-3.5,-1.0,0.3,0,72,,,,,,,,,,,,,,,,,,,
38014,1490584264784,,,,,,,,-0.03,0.05,0.99,-3.4,-1.0,0.2,0,71,,,,,,,,,,,,,,,,,,,
38034,1490584264804,,,,,,,,-0.03,0.05,0.99,-3.4,-1.0,0.2,0,69,,,,,,,,,,,,,,,,,,,
38054,1490584264824,,,,,,,,-0.03,0.06,0.99,-3.3,-1.0,0.2,0,68,,,,,,,,,,,,,,,,,,,
38074,1490584264844,0,53.2,-0.1,52.9,27,52.9,12.37,-0.03,0.06,1.0,-3.3,-1.0,0.2,0,66,1,1,0.0,0,37.478451,-122.203789,1.33,0.001,108.1,6,3,1.6,0,0.0,-1,0.0,0.0,0.0,0
38094,1490584264864,,,,,,,,-0.03,0.06,1.0,-3.2,-1.0,0.2,0,65,,,,,,,,,,,,,,,,,,,
38114,1490584264884,,,,,,,,-0.03,0.06,1.0,-3.2,-0.9,0.1,0,63,,,,,,,,,,,,,,,,,,,
38134,1490584264906,,,,,,,,-0.03,0.06,1.0,-3.2,-0.9,0.0,0,63,,,,,,,,,,,,,,,,,,,
38154,1490584264926,,,,,,,,-0.03,0.06,1.0,-3.3,-0.9,-0.0,0,62,,,,,,,,,,,,,,,,,,,
38174,1490584264946,,,,,26,,,-0.02,0.06,0.99,-3.3,-0.9,-0.1,0,62,1,1,0.0,0,37.478451,-122.203789,1.2,0.001,107.9,6,3,1.6,0,0.0,-1,0.0,0.0,0.0,0
38194,1490584264966,,,,,,,,-0.03,0.06,0.99,-3.3,-0.9,-0.1,0,62,,,,,,,,,,,,,,,,,,,
38214,1490584264986,,,,,,,,-0.02,0.06,0.99,-3.3,-0.9,-0.2,0,62,,,,,,,,,,,,,,,,,,,
38234,1490584265002,,,,,,,,-0.02,0.06,0.99,-3.3,-0.9,-0.2,0,62,,,,,,,,,,,,,,,,,,,
38254,1490584265022,,,,,,,,-0.02,0.06,0.99,-3.3,-0.9,-0.2,0,60,,,,,,,,,,,,,,,,,,,
38274,1490584265042,0,55.2,,54.1,25,55.5,,-0.02,0.05,0.99,-3.3,-0.9,-0.2,0,58,1,1,0.0,0,37.478451,-122.203789,1.18,0.001,107.9,6,3,1.6,0,0.0,-1,0.0,0.0,0.0,0
38294,1490584265062,,,,,,,,-0.02,0.05,0.99,-3.2,-1.0,-0.2,0,57,,,,,,,,,,,,,,,,,,,
38314,1490584265082,,,,,,,,-0.02,0.05,0.99,-3.1,-1.0,-0.2,0,57,,,,,,,,,,,,,,,,,,,
38334,1490584265106,,,,,,,,-0.02,0.05,0.99,-3.1,-1.0,-0.2,0,55,,,,,,,,,,,,,,,,,,,
38354,1490584265126,,,,,,,,-0.02,0.05,0.99,-3.0,-1.0,-0.2,0,54,,,,,,,,,,,,,,,,,,,
38374,1490584265146,,,,,25,,,-0.02,0.05,0.99,-3.0,-1.0,-0.2,0,52,1,1,0.0,0,37.478451,-122.203789,1.17,0.001,107.9,6,2,1.6,0,0.0,-1,0.0,0.0,0.0,0
38394,1490584265166,,,,,,,,-0.02,0.06,0.99,-2.9,-0.9,-0.2,0,52,,,,,,,,,,,,,,,,,,,
38414,1490584265186,,,,,,,,-0.02,0.06,0.99,-2.9,-0.9,-0.2,0,52,,,,,,,,,,,,,,,,,,,
38434,1490584265208,,,,,,,,-0.02,0.06,0.99,-2.9,-0.9,-0.2,0,51,,,,,,,,,,,,,,,,,,,
38454,1490584265228,,,,,,,,-0.02,0.06,0.99,-2.9,-0.9,-0.2,0,51,,,,,,,,,,,,,,,,,,,
38474,1490584265248,0,55.0,,54.3,24,55.1,,-0.02,0.06,1.0,-3.0,-0.9,-0.2,0,51,1,1,0.0,0,37.478451,-122.203789,1.04,0.001,107.9,6,3,1.6,0,0.0,-1,0.0,0.0,0.0,0
38494,1490584265268,,,,,,,,-0.02,0.06,1.0,-3.0,-1.0,-0.3,0,51,,,,,,,,,,,,,,,,,,,
38514,1490584265288,,,,,,,,-0.02,0.06,1.0,-3.0,-0.9,-0.3,0,51,,,,,,,,,,,,,,,,,,,
38534,1490584265308,,,,,,,,-0.02,0.06,0.99,-3.0,-1.0,-0.3,0,49,,,,,,,,,,,,,,,,,,,
38554,1490584265328,,,,,,,,-0.02,0.06,0.99,-2.9,-0.9,-0.3,0,49,,,,,,,,,,,,,,,,,,,
38574,1490584265348,,,,,23,,,-0.01,0.06,0.99,-2.9,-1.0,-0.3,0,48,1,1,0.0,0,37.478451,-122.203789,0.0,0.001,107.9,6,3,1.6,0,0.0,-1,0.0,0.0,0.0,0
38594,1490584265368,,,,,,,,-0.01,0.06,0.99,-2.9,-0.9,-0.4,0,46,,,,,,,,,,,,,,,,,,,
38614,1490584265388,,,,,,,,-0.01,0.06,0.99,-2.9,-0.9,-0.4,0,46,,,,,,,,,,,,,,,,,,,
38634,1490584265408,,,,,,,,-0.01,0.06,0.99,-2.8,-0.9,-0.4,0,45,,,,,,,,,,,,,,,,,,,
38654,1490584265428,,,,,,,,-0.01,0.06,0.99,-2.9,-0.9,-0.4,0,45,,,,,,,,,,,,,,,,,,,
38674,1490584265448,0,52.7,,50.8,22,54.6,,-0.01,0.06,0.99,-2.9,-0.9,-0.4,0,43,1,1,0.0,0,37.478451,-122.203789,0.0,0.001,107.9,6,3,1.6,0,0.0,-1,0.0,0.0,0.0,0
38694,1490584265468,,,,,,,,-0.01,0.06,0.99,-2.9,-0.8,-0.4,0,43,,,,,,,,,,,,,,,,,,,
38714,1490584265488,,,,,,,,-0.01,0.06,0.99,-2.9,-0.8,-0.4,0,42,,,,,,,,,,,,,,,,,,,
38734,1490584265507,,,,,,,,-0.01,0.06,0.99,-2.9,-0.8,-0.3,0,42,,,,,,,,,,,,,,,,,,,
38754,1490584265527,,,,,,,,-0.01,0.06,0.99,-2.9,-0.8,-0.3,0,42,,,,,,,,,,,,,,,,,,,
38774,1490584265547,,,,,22,,,-0.01,0.06,0.99,-3.0,-0.8,-0.3,0,40,1,1,0.0,0,37.478451,-122.203789,0.0,0.001,107.9,6,3,1.6,0,0.0,-1,0.0,0.0,0.0,0
38794,1490584265567,,,,,,,,-0.01,0.06,0.99,-2.9,-0.8,-0.3,0,40,,,,,,,,,,,,,,,,,,,
38814,1490584265587,,,,,,,,-0.01,0.06,0.99,-2.9,-0.8,-0.3,0,40,,,,,,,,,,,,,,,,,,,
38834,1490584265607,,,,,,,,-0.01,0.06,0.99,-2.9,-0.8,-0.3,0,40,,,,,,,,,,,,,,,,,,,
38854,1490584265627,,,,,,,,-0.01,0.06,0.99,-2.9,-0.8,-0.3,0,38,,,,,,,,,,,,,,,,,,,
38874,1490584265647,0,52.7,,51.0,21,54.5,,-0.01,0.06,0.99,-2.9,-0.8,-0.3,0,38,1,1,0.0,0,37.478451,-122.203789,0.0,0.001,107.8,6,3,1.6,0,0.0,-1,0.0,0.0,0.0,0
38894,1490584265667,,,,,,,,-0.01,0.06,0.99,-2.9,-0.7,-0.3,0,37,,,,,,,,,,,,,,,,,,,
38914,1490584265687,,,,,,,,-0.01,0.06,0.99,-2.9,-0.7,-0.3,0,37,,,,,,,,,,,,,,,,,,,
38934,1490584265707,,,,,,,,-0.01,0.06,0.99,-2.9,-0.7,-0.3,0,37,,,,,,,,,,,,,,,,,,,
38954,1490584265727,,,,,,,,-0.01,0.06,0.99,-2.9,-0.7,-0.4,0,35,,,,,,,,,,,,,,,,,,,
38974,1490584265747,,,,,21,,,-0.01,0.06,0.99,-2.9,-0.7,-0.4,0,35,1,1,0.0,0,37.478451,-122.203789,0.0,0.001,107.7,6,3,1.6,0,0.0,-1,0.0,0.0,0.0,0
38994,1490584265767,,,,,,,,-0.01,0.06,0.99,-2.9,-0.7,-0.4,0,34,,,,,,,,,,,,,,,,,,,
39014,1490584265787,,,,,,,,-0.01,0.06,0.99,-2.9,-0.7,-0.4,0,34,,,,,,,,,,,,,,,,,,,
39034,1490584265803,,,,,,,,-0.01,0.06,0.99,-3.0,-0.7,-0.4,0,32,,,,,,,,,,,,,,,,,,,
39054,1490584265823,,,,,,,,-0.01,0.06,0.99,-3.0,-0.7,-0.4,0,32,,,,,,,,,,,,,,,,,,,
39074,1490584265843,0,53.8,-0.6,53.5,20,54.0,12.37,-0.01,0.06,0.99,-2.9,-0.7,-0.4,0,32,1,1,0.0,0,37.478451,-122.203789,0.0,0.001,107.6,6,3,1.6,0,0.0,-1,0.0,0.0,0.0,0
39094,1490584265863,,,,,,,,-0.01,0.06,0.99,-2.9,-0.7,-0.4,0,32,,,,,,,,,,,,,,,,,,,
39114,1490584265883,,,,,,,,-0.01,0.06,0.99,-2.9,-0.7,-0.3,0,32,,,,,,,,,,,,,,,,,,,
39134,1490584265907,,,,,,,,-0.01,0.06,0.99,-2.9,-0.7,-0.3,0,29,,,,,,,,,,,,,,,,,,,
39154,1490584265927,,,,,,,,-0.01,0.06,0.99,-2.9,-0.7,-0.3,0,29,,,,,,,,,,,,,,,,,,,
39174,1490584265947,,,,,19,,,-0.01,0.06,0.99,-2.9,-0.7,-0.3,0,29,1,1,0.0,0,37.478451,-122.203789,0.0,0.001,107.6,6,3,1.6,0,0.0,-1,0.0,0.0,0.0,0
39194,1490584265967,,,,,,,,-0.01,0.06,0.99,-2.9,-0.6,-0.3,0,28,,,,,,,,,,,,,,,,,,,
39214,1490584265987,,,,,,,,-0.01,0.06,0.99,-2.9,-0.6,-0.3,0,28,,,,,,,,,,,,,,,,,,,
39234,1490584266001,,,,,,,,-0.01,0.06,0.99,-2.9,-0.6,-0.3,0,28,,,,,,,,,,,,,,,,,,,
39254,1490584266021,,,,,,,,-0.01,0.06,0.99,-2.9,-0.6,-0.3,0,26,,,,,,,,,,,,,,,,,,,
39274,1490584266041,0,53.9,,53.7,20,54.5,,-0.01,0.06,0.99,-2.9,-0.6,-0.3,0,26,1,1,0.0,0,37.478451,-122.203789,0.0,0.001,107.6,6,3,1.6,0,0.0,-1,0.0,0.0,0.0,0
39294,1490584266061,,,,,,,,-0.01,0.06,0.99,-3.0,-0.6,-0.3,0,26,,,,,,,,,,,,,,,,,,,
39314,1490584266081,,,,,,,,-0.01,0.06,0.99,-3.0,-0.6,-0.3,0,23,,,,,,,,,,,,,,,,,,,
39334,1490584266105,,,,,,,,-0.01,0.06,0.99,-3.0,-0.6,-0.3,0,23,,,,,,,,,,,,,,,,,,,
39354,1490584266125,,,,,,,,-0.01,0.06,0.99,-3.0,-0.6,-0.3,0,23,,,,,,,,,,,,,,,,,,,
39374,1490584266145,,,,,19,,,-0.01,0.06,0.99,-3.0,-0.6,-0.3,0,23,1,1,0.0,0,37.478451,-122.203789,0.0,0.001,107.6,6,3,1.6,0,0.0,-1,0.0,0.0,0.0,0
39394,1490584266165,,,,,,,,-0.01,0.06,0.99,-3.0,-0.6,-0.3,0,20,,,,,,,,,,,,,,,,,,,
39414,1490584266185,,,,,,,,-0.01,0.06,0.99,-3.0,-0.6,-0.3,0,20,,,,,,,,,,,,,,,,,,,
39434,1490584266207,,,,,,,,-0.01,0.06,0.99,-3.0,-0.6,-0.3,0,20,,,,,,,,,,,,,,,,,,,
39454,1490584266227,,,,,,,,-0.01,0.06,0.99,-3.0,-0.6,-0.3,0,20,,,,,,,,,,,,,,,,,,,
39474,1490584266247,0,52.3,,50.7,18,53.7,,-0.01,0.06,0.99,-3.0,-0.6,-0.3,0,17,1,1,0.0,0,37.478451,-122.203789,0.0,0.001,107.6,6,3,1.6,0,0.0,-1,0.0,0.0,0.0,0
39494,1490584266267,,,,,,,,-0.01,0.06,0.99,-3.0,-0.6,-0.3,0,17,,,,,,,,,,,,,,,,,,,
39514,1490584266287,,,,,,,,-0.01,0.06,0.99,-3.0,-0.6,-0.3,0,17,,,,,,,,,,,,,,,,,,,
39534,1490584266307,,,,,,,,-0.01,0.06,0.99,-3.0,-0.6,-0.3,0,17,,,,,,,,,,,,,,,,,,,
39554,1490584266327,,,,,,,,-0.01,0.06,0.99,-3.0,-0.6,-0.2,0,17,,,,,,,,,,,,,,,,,,,
39574,1490584266347,,,,,18,,,-0.01,0.06,0.99,-3.0,-0.6,-0.2,0,17,1,1,0.0,0,37.478451,-122.203789,0.0,0.001,107.6,6,3,1.6,0,0.0,-1,0.0,0.0,0.0,0
39594,1490584266367,,,,,,,,-0.01,0.06,0.99,-3.0,-0.6,-0.2,0,14,,,,,,,,,,,,,,,,,,,
39614,1490584266387,,,,,,,,-0.01,0.06,0.99,-3.0,-0.6,-0.2,0,14,,,,,,,,,,,,,,,,,,,
39634,1490584266407,,,,,,,,-0.01,0.06,0.99,-3.0,-0.6,-0.2,0,14,,,,,,,,,,,,,,,,,,,
39654,1490584266427,,,,,,,,-0.01,0.06,0.99,-3.0,-0.6,-0.2,0,14,,,,,,,,,,,,,,,,,,,
39674,1490584266447,0,54.0,,53.9,17,55.8,,-0.01,0.06,0.99,-3.0,-0.6,-0.2,0,14,1,1,0.0,0,37.478451,-122.203789,0.0,0.001,107.6,6,3,1.6,0,0.0,-1,0.0,0.0,0.0,0
39694,1490584266467,,,,,,,,-0.01,0.06,0.99,-3.0,-0.6,-0.2,0,14,,,,,,,,,,,,,,,,,,,
39714,1490584266487,,,,,,,,-0.01,0.06,0.99,-3.0,-0.6,-0.2,0,14,,,,,,,,,,,,,,,,,,,
39734,1490584266504,,,,,,,,-0.01,0.06,0.99,-3.0,-0.6,-0.2,0,14,,,,,,,,,,,,,,,,,,,
39754,1490584266524,,,,,,,,-0.01,0.06,0.99,-3.0,-0.6,-0.2,0,14,,,,,,,,,,,,,,,,,,,
39774,1490584266544,,,,,17,,,-0.01,0.06,0.99,-3.1,-0.6,-0.2,0,14,1,1,0.0,0,37.478451,-122.203789,0.0,0.001,107.6,6,3,1.6,0,0.0,-1,0.0,0.0,0.0,0
39794,1490584266564,,,,,,,,-0.01,0.06,0.99,-3.0,-0.6,-0.2,0,14,,,,,,,,,,,,,,,,,,,
39814,1490584266584,,,,,,,,-0.01,0.06,0.99,-3.0,-0.6,-0.3,0,14,,,,,,,,,,,,,,,,,,,
39834,1490584266606,,,,,,,,-0.01,0.06,0.99,-3.0,-0.6,-0.3,0,14,,,,,,,,,,,,,,,,,,,
39854,1490584266626,,,,,,,,-0.01,0.06,0.99,-3.0,-0.6,-0.3,0,14,,,,,,,,,,,,,,,,,,,
39874,1490584266646,0,54.0,,52.0,17,54.6,,-0.01,0.06,0.99,-3.0,-0.6,-0.3,0,14,1,1,0.0,0,37.478451,-122.203789,0.0,0.001,107.6,6,3,1.6,0,0.0,-1,0.0,0.0,0.0,0
39894,1490584266666,,,,,,,,-0.01,0.06,0.99,-3.0,-0.6,-0.3,0,14,,,,,,,,,,,,,,,,,,,
39914,1490584266686,,,,,,,,-0.01,0.06,0.99,-3.0,-0.6,-0.3,0,14,,,,,,,,,,,,,,,,,,,
39934,1490584266706,,,,,,,,-0.01,0.06,0.99,-3.0,-0.6,-0.3,0,14,,,,,,,,,,,,,,,,,,,
39954,1490584266704,,,,,,,,-0.01,0.06,0.99,-3.0,-0.6,-0.3,0,14,,,,,,,,,,,,,,,,,,,
39974,1490584266724,,,,,16,,,-0.01,0.06,0.99,-3.0,-0.6,-0.3,0,14,1,1,0.0,0,37.478451,-122.203789,0.0,0.001,107.6,6,3,1.6,0,0.0,-1,0.0,0.0,0.0,0
39994,1490584266744,,,,,,,,-0.0,0.06,0.99,-3.0,-0.5,-0.1,0,14,,,,,,,,,,,,,,,,,,,
40014,1490584266764,,,,,,,,-0.0,0.07,0.99,-3.0,-0.6,-0.0,0,14,,,,,,,,,,,,,,,,,,,
40034,1490584266806,,,,,,,,-0.0,0.07,1.0,-3.0,-0.6,-0.0,0,14,,,,,,,,,,,,,,,,,,,
40054,1490584266826,,,,,,,,-0.0,0.07,1.0,-3.0,-0.6,-0.1,0,14,,,,,,,,,,,,,,,,,,,
40074,1490584266846,0,54.8,-0.2,52.6,17,54.5,9.58,0.0,0.07,1.0,-3.0,-0.6,-0.1,0,14,1,1,0.0,0,37.478451,-122.203789,0.0,0.001,107.6,6,3,1.6,0,0.0,-1,0.0,0.0,0.0,0
40094,1490584266866,,,,,,,,-0.0,0.07,1.0,-3.0,-0.6,-0.2,0,14,,,,,,,,,,,,,,,,,,,
40114,1490584266886,,,,,,,,-0.0,0.07,1.0,-3.0,-0.7,-0.2,0,14,,,,,,,,,,,,,,,,,,,
40134,1490584266906,,,,,,,,-0.0,0.06,1.0,-3.0,-0.7,-0.2,0,14,,,,,,,,,,,,,,,,,,,
40154,1490584266926,,,,,,,,0.0,0.06,1.0,-3.0,-0.7,-0.2,0,14,,,,,,,,,,,,,,,,,,,
40174,1490584266946,,,,,17,,,0.0,0.06,1.0,-3.0,-0.6,-0.2,0,14,1,1,0.0,0,37.478451,-122.203789,0.0,0.001,107.6,6,3,1.6,0,0.0,-1,0.0,0.0,0.0,0
40194,1490584266966,,,,,,,,0.0,0.05,1.0,-3.0,-0.6,-0.2,0,14,,,,,,,,,,,,,,,,,,,
40214,1490584266986,,,,,,,,0.0,0.05,0.99,-3.0,-0.7,-0.3,0,14,,,,,,,,,,,,,,,,,,,
40234,1490584267000,,,,,,,,0.0,0.06,0.99,-3.0,-0.7,-0.2,0,14,,,,,,,,,,,,,,,,,,,
40254,1490584267020,,,,,,,,0.0,0.06,0.99,-3.0,-0.7,-0.2,0,14,,,,,,,,,,,,,,,,,,,
40274,1490584267040,0,55.0,,54.3,17,56.2,,0.01,0.06,0.99,-3.0,-0.7,-0.2,0,14,1,1,0.0,0,37.478451,-122.203789,0.0,0.001,107.6,6,3,1.6,0,0.0,-1,0.0,0.0,0.0,0
40294,1490584267060,,,,,,,,0.01,0.06,0.99,-3.0,-0.6,-0.2,0,14,,,,,,,,,,,,,,,,,,,
40314,1490584267080,,,,,,,,0.01,0.06,0.99,-3.0,-0.6,-0.2,0,14,,,,,,,,,,,,,,,,,,,
40334,1490584267106,,,,,,,,0.01,0.07,0.99,-3.0,-0.6,-0.1,0,14,,,,,,,,,,,,,,,,,,,
40354,1490584267126,,,,,,,,0.01,0.08,0.98,-3.1,-0.6,-0.1,0,14,,,,,,,,,,,,,,,,,,,
40374,1490584267146,,,,,18,,,0.01,0.08,0.99,-3.0,-0.5,-0.1,0,14,1,1,0.0,0,37.478451,-122.203789,0.0,0.001,107.6,6,3,1.6,0,0.0,-1,0.0,0.0,0.0,0
40394,1490584267166,,,,,,,,0.01,0.07,0.99,-3.0,-0.5,-0.1,0,14,,,,,,,,,,,,,,,,,,,
40414,1490584267186,,,,,,,,0.01,0.06,0.99,-3.0,-0.7,-0.2,0,14,,,,,,,,,,,,,,,,,,,
40434,1490584267206,,,,,,,,0.01,0.05,0.99,-3.0,-0.8,-0.2,0,14,,,,,,,,,,,,,,,,,,,
40454,1490584267226,,,,,,,,0.01,0.05,0.99,-3.0,-0.7,-0.2,0,14,,,,,,,,,,,,,,,,,,,
40474,1490584267246,0,55.2,,54.2,19,56.1,,0.01,0.03,0.99,-3.0,-0.7,-0.4,0,14,1,1,0.0,0,37.478451,-122.203789,0.0,0.001,107.6,6,3,1.6,0,0.0,-1,0.0,0.0,0.0,0
40494,1490584267266,,,,,,,,0.01,0.03,0.98,-3.0,-0.7,-0.6,0,14,,,,,,,,,,,,,,,,,,,
40514,1490584267286,,,,,,,,0.01,0.03,0.98,-3.0,-0.5,-0.5,0,14,,,,,,,,,,,,,,,,,,,
40534,1490584267306,,,,,,,,0.02,0.03,0.98,-3.0,-0.4,-0.4,0,14,,,,,,,,,,,,,,,,,,,
40554,1490584267326,,,,,,,,0.02,0.03,0.98,-3.0,-0.4,-0.4,0,14,,,,,,,,,,,,,,,,,,,
40574,1490584267346,,,,,20,,,0.01,0.04,0.98,-3.0,-0.4,-0.4,0,14,1,1,0.0,0,37.478451,-122.203789,0.0,0.001,107.6,6,3,1.6,0,0.0,-1,0.0,0.0,0.0,0
40594,1490584267366,,,,,,,,0.01,0.03,0.98,-3.0,-0.4,-0.6,0,3,,,,,,,,,,,,,,,,,,,
40614,1490584267386,,,,,,,,0.0,0.04,0.98,-3.0,-0.4,-0.7,0,3,,,,,,,,,,,,,,,,,,,
40634,1490584267406,,,,,,,,-0.0,0.05,0.97,-3.0,-0.2,-0.6,220,3,,,,,,,,,,,,,,,,,,,
40654,1490584267426,,,,,,,,-0.0,0.04,0.97,-3.0,-0.1,-0.3,220,3,,,,,,,,,,,,,,,,,,,
40674,1490584267446,0,55.3,,53.3,22,55.8,,-0.01,0.05,0.96,-3.0,-0.5,-0.3,220,3,1,1,73.333,0,37.478451,-122.203789,0.0,0.001,107.6,6,3,1.6,0,0.0,-1,0.0,0.0,0.0,0
40694,1490584267466,,,,,,,,-0.01,0.06,0.97,-3.0,-0.6,-0.3,340,3,,,,,,,,,,,,,,,,,,,
40714,1490584267486,,,,,,,,-0.01,0.05,0.96,-3.0,-0.5,-0.5,340,3,,,,,,,,,,,,,,,,,,,
40734,1490584267503,,,,,,,,0.0,0.06,0.95,-3.0,-0.5,-0.4,520,3,,,,,,,,,,,,,,,,,,,
40754,1490584267523,,,,,,,,0.0,0.07,0.96,-3.0,-0.7,-0.3,620,3,,,,,,,,,,,,,,,,,,,
40774,1490584267543,,,,,28,,,0.0,0.06,0.97,-3.0,-0.7,-0.4,620,3,1,1,173.333,0,37.478451,-122.203789,0.0,0.001,107.6,6,3,1.6,0,0.0,-1,0.0,0.0,0.0,0
40794,1490584267563,,,,,,,,0.0,0.07,0.96,-3.1,-0.5,-0.3,720,3,,,,,,,,,,,,,,,,,,,
40814,1490584267583,,,,,,,,0.01,0.09,0.97,-3.1,-0.4,-0.1,820,3,,,,,,,,,,,,,,,,,,,
40834,1490584267603,,,,,,,,0.02,0.09,0.98,-3.1,-0.6,-0.2,900,219780,,,,,,,,,,,,,,,,,,,
40854,1490584267623,,,,,,,,0.01,0.09,0.99,-3.1,-0.6,-0.4,940,0,,,,,,,,,,,,,,,,,,,
40874,1490584267643,0,55.3,,54.0,45,56.1,,0.01,0.08,0.99,-3.0,-0.5,-0.4,980,0,1,1,300.0,0,37.478451,-122.203789,0.0,0.001,107.6,6,3,1.6,0,0.0,-1,0.0,0.0,0.0,0
40894,1490584267663,,,,,,,,0.01,0.08,0.98,-3.1,-0.7,-0.4,1000,0,,,,,,,,,,,,,,,,,,,
40914,1490584267683,,,,,,,,0.0,0.07,0.99,-3.1,-0.6,-0.3,940,0,,,,,,,,,,,,,,,,,,,
40934,1490584267703,,,,,,,,-0.0,0.06,0.99,-3.0,-0.5,-0.2,920,0,,,,,,,,,,,,,,,,,,,
40954,1490584267723,,,,,,,,-0.01,0.06,1.0,-3.0,-0.6,-0.3,940,0,,,,,,,,,,,,,,,,,,,
40974,1490584267743,,,,,57,,,-0.01,0.06,1.0,-3.0,-0.7,-0.4,1000,0,1,1,0.0,0,37.478451,-122.203789,0.0,0.001,107.6,6,3,1.6,0,0.0,-1,0.0,0.0,0.0,0
40994,1490584267763,,,,,,,,-0.01,0.06,0.99,-3.0,-0.7,-0.4,1000,0,,,,,,,,,,,,,,,,,,,
41014,1490584267783,,,,,,,,-0.01,0.06,0.98,-3.0,-0.6,-0.4,1020,0,,,,,,,,,,,,,,,,,,,
41034,1490584267803,,,,,,,,-0.01,0.06,0.99,-3.0,-0.5,-0.4,1040,0,,,,,,,,,,,,,,,,,,,
41054,1490584267823,,,,,,,,-0.01,0.06,0.99,-3.0,-0.5,-0.4,1040,0,,,,,,,,,,,,,,,,,,,
41074,1490584267843,0,54.7,-0.7,52.6,62,55.1,14.68,-0.02,0.06,0.99,-3.0,-0.4,-0.4,1060,0,1,1,0.0,0,37.478451,-122.203789,0.0,0.001,107.6,6,3,1.6,0,0.0,-1,0.0,0.0,0.0,0
41094,1490584267863,,,,,,,,-0.02,0.06,0.98,-3.0,-0.7,-0.4,1060,0,,,,,,,,,,,,,,,,,,,
41114,1490584267883,,,,,,,,-0.02,0.07,0.97,-3.1,-0.8,-0.3,1080,0,,,,,,,,,,,,,,,,,,,
41134,1490584267907,,,,,,,,-0.01,0.07,0.98,-3.1,-0.8,-0.2,1120,0,,,,,,,,,,,,,,,,,,,
41154,1490584267927,,,,,,,,-0.01,0.07,0.98,-3.0,-0.7,-0.2,1140,0,,,,,,,,,,,,,,,,,,,
41174,1490584267947,,,,,65,,,-0.01,0.06,0.98,-3.1,-0.8,-0.3,1140,0,1,1,0.0,0,37.478451,-122.203789,0.0,0.001,107.6,6,3,1.6,0,0.0,-1,0.0,0.0,0.0,0
41194,1490584267967,,,,,,,,-0.0,0.07,0.98,-3.1,-0.9,-0.3,1160,0,,,,,,,,,,,,,,,,,,,
41214,1490584267987,,,,,,,,-0.0,0.07,0.98,-3.1,-0.8,-0.3,1180,0,,,,,,,,,,,,,,,,,,,
41234,1490584268001,,,,,,,,0.0,0.07,0.98,-3.0,-0.7,-0.3,1180,0,,,,,,,,,,,,,,,,,,,
41254,1490584268021,,,,,,,,0.0,0.07,0.98,-3.1,-0.8,-0.3,1200,0,,,,,,,,,,,,,,,,,,,
41274,1490584268041,0,55.4,,54.3,64,56.3,,0.01,0.07,0.97,-3.1,-0.9,-0.3,1200,0,1,1,0.0,0,37.478451,-122.203789,0.0,0.001,107.6,6,3,1.6,0,0.0,-1,0.0,0.0,0.0,0
41294,1490584268061,,,,,,,,0.01,0.07,0.97,-3.1,-0.8,-0.3,1220,0,,,,,,,,,,,,,,,,,,,
41314,1490584268081,,,,,,,,0.0,0.07,0.97,-3.1,-0.8,-0.3,1220,0,,,,,,,,,,,,,,,,,,,
41334,1490584268107,,,,,,,,0.01,0.07,0.97,-3.1,-0.7,-0.2,1220,0,,,,,,,,,,,,,,,,,,,
41354,1490584268127,,,,,,,,0.01,0.07,0.99,-3.1,-0.7,-0.1,1240,0,,,,,,,,,,,,,,,,,,,
41374,1490584268147,,,,,64,,,0.01,0.07,0.99,-3.1,-0.7,-0.2,1220,0,1,1,0.0,0,37.478451,-122.203789,0.0,0.001,107.6,6,3,1.6,0,0.0,-1,0.0,0.0,0.0,0
41394,1490584268167,,,,,,,,0.01,0.07,0.99,-3.1,-0.8,-0.2,1220,0,,,,,,,,,,,,,,,,,,,
41414,1490584268187,,,,,,,,0.02,0.07,0.99,-3.1,-0.7,-0.1,1220,0,,,,,,,,,,,,,,,,,,,
41434,1490584268207,,,,,,,,0.02,0.08,0.99,-3.1,-0.7,-0.1,1220,0,,,,,,,,,,,,,,,,,,,
41454,1490584268227,,,,,,,,0.02,0.08,0.99,-3.1,-0.7,-0.1,1200,0,,,,,,,,,,,,,,,,,,,
41474,1490584268247,0,52.2,,51.7,62,53.2,,0.02,0.08,1.0,-3.1,-0.6,-0.2,1200,0,1,1,0.0,0,37.478451,-122.203789,0.0,0.001,107.6,6,3,1.6,0,0.0,-1,0.0,0.0,0.0,0
41494,1490584268267,,,,,,,,0.02,0.08,0.99,-3.1,-0.7,-0.2,1180,0,,,,,,,,,,,,,,,,,,,
41514,1490584268287,,,,,,,,0.02,0.07,1.0,-3.1,-0.6,-0.2,1160,0,,,,,,,,,,,,,,,,,,,
41534,1490584268307,,,,,,,,0.02,0.08,0.99,-3.1,-0.7,-0.1,1160,0,,,,,,,,,,,,,,,,,,,
41554,1490584268327,,,,,,,,0.02,0.07,1.0,-3.1,-0.6,-0.1,1140,0,,,,,,,,,,,,,,,,,,,
41574,1490584268347,,,,,62,,,0.02,0.07,1.0,-3.1,-0.6,-0.2,1140,0,1,1,0.0,0,37.478451,-122.203789,0.0,0.001,107.6,6,3,1.6,0,0.0,-1,0.0,0.0,0.0,0
41594,1490584268367,,,,,,,,0.02,0.07,1.0,-3.1,-0.7,-0.2,1120,0,,,,,,,,,,,,,,,,,,,
41614,1490584268387,,,,,,,,0.02,0.07,1.0,-3.1,-0.7,-0.2,1100,0,,,,,,,,,,,,,,,,,,,
41634,1490584268405,,,,,,,,0.02,0.07,0.99,-3.1,-0.6,-0.2,1080,0,,,,,,,,,,,,,,,,,,,
41654,1490584268425,,,,,,,,0.02,0.07,1.0,-3.1,-0.5,-0.3,1080,0,,,,,,,,,,,,,,,,,,,
41674,1490584268445,0,55.4,,53.9,60,55.8,,0.02,0.07,0.99,-3.1,-0.5,-0.3,1080,0,1,1,0.0,0,37.478451,-122.203789,0.0,0.001,107.6,6,3,1.6,0,0.0,-1,0.0,0.0,0.0,0
41694,1490584268465,,,,,,,,0.02,0.07,0.99,-3.1,-0.6,-0.3,1060,0,,,,,,,,,,,,,,,,,,,
41714,1490584268485,,,,,,,,0.02,0.07,0.99,-3.1,-0.7,-0.2,1060,0,,,,,,,,,,,,,,,,,,,
41734,1490584268504,,,,,,,,0.02,0.07,0.99,-3.1,-0.7,-0.2,1040,0,,,,,,,,,,,,,,,,,,,
41754,1490584268524,,,,,,,,0.02,0.07,1.0,-3.1,-0.6,-0.2,1040,0,,,,,,,,,,,,,,,,,,,
41774,1490584268544,,,,,60,,,0.02,0.07,1.0,-3.1,-0.6,-0.2,1020,0,1,1,0.0,0,37.478451,-122.203789,0.0,0.001,107.6,6,3,1.6,0,0.0,-1,0.0,0.0,0.0,0
41794,1490584268564,,,,,,,,0.02,0.06,1.0,-3.1,-0.6,-0.3,1000,0,,,,,,,,,,,,,,,,,,,
41814,1490584268584,,,,,,,,0.02,0.06,1.0,-3.1,-0.5,-0.2,1000,17,,,,,,,,,,,,,,,,,,,
41834,1490584268604,,,,,,,,0.02,0.06,1.0,-3.1,-0.6,-0.2,980,17,,,,,,,,,,,,,,,,,,,
41854,1490584268624,,,,,,,,0.02,0.06,0.99,-3.1,-0.8,-0.2,980,17,,,,,,,,,,,,,,,,,,,
41874,1490584268644,1,54.4,,54.3,59,56.0,,0.03,0.06,0.99,-3.1,-0.8,-0.1,980,23,1,1,62.5,0,37.478451,-122.203789,0.0,0.001,107.6,6,3,1.6,0,0.0,-1,0.0,0.0,0.0,0
41894,1490584268664,,,,,,,,0.03,0.06,1.0,-3.1,-0.8,-0.1,960,23,,,,,,,,,,,,,,,,,,,
41914,1490584268684,,,,,,,,0.03,0.07,1.0,-3.1,-0.8,-0.0,960,23,,,,,,,,,,,,,,,,,,,
41934,1490584268704,,,,,,,,0.03,0.07,1.0,-3.1,-0.7,-0.0,960,23,,,,,,,,,,,,,,,,,,,
41954,1490584268724,,,,,,,,0.03,0.07,1.0,-3.1,-0.6,-0.1,960,23,,,,,,,,,,,,,,,,,,,
41974,1490584268744,,,,,59,,,0.03,0.07,1.0,-3.1,-0.5,-0.0,960,23,1,1,41.739,0,37.478451,-122.203789,0.0,0.001,107.6,6,3,1.6,0,0.0,-1,0.0,0.0,0.0,0
41994,1490584268764,,,,,,,,0.03,0.08,1.0,-3.2,-0.5,0.0,960,23,,,,,,,,,,,,,,,,,,,
42014,1490584268784,,,,,,,,0.04,0.09,1.0,-3.2,-0.5,0.0,960,23,,,,,,,,,,,,,,,,,,,
42034,1490584268806,,,,,,,,0.04,0.09,1.0,-3.1,-0.5,-0.0,960,23,,,,,,,,,,,,,,,,,,,
42054,1490584268826,,,,,,,,0.04,0.09,1.0,-3.2,-0.4,-0.0,940,23,,,,,,,,,,,,,,,,,,,
42074,1490584268846,0,54.0,-0.3,54.0,59,55.7,14.86,0.05,0.09,1.0,-3.2,-0.5,-0.1,940,23,1,1,41.739,0,37.478451,-122.203789,0.0,0.001,107.6,6,3,1.6,0,0.0,-1,0.0,0.0,0.0,0
42094,1490584268866,,,,,,,,0.04,0.1,0.99,-3.2,-0.7,-0.1,960,23,,,,,,,,,,,,,,,,,,,
42114,1490584268886,,,,,,,,0.04,0.1,0.99,-3.2,-0.8,-0.2,940,23,,,,,,,,,,,,,,,,,,,
42134,1490584268906,,,,,,,,0.04,0.09,0.98,-3.2,-0.9,-0.2,960,23,,,,,,,,,,,,,,,,,,,
42154,1490584268926,,,,,,,,0.03,0.08,0.99,-3.1,-0.9,-0.2,960,23,,,,,,,,,,,,,,,,,,,
42174,1490584268946,,,,,59,,,0.03,0.07,1.0,-3.1,-0.9,-0.2,960,23,1,1,41.739,0,37.478451,-122.203789,0.0,0.001,107.6,6,3,1.6,0,0.0,-1,0.0,0.0,0.0,0
42194,1490584268966,,,,,,,,0.02,0.06,1.0,-3.1,-0.8,-0.3,960,23,,,,,,,,,,,,,,,,,,,
42214,1490584268986,,,,,,,,0.02,0.06,1.0,-3.1,-0.9,-0.3,980,23,,,,,,,,,,,,,,,,,,,
42234,1490584269000,,,,,,,,0.01,0.06,1.0,-3.1,-0.9,-0.3,980,23,,,,,,,,,,,,,,,,,,,
42254,1490584269020,,,,,,,,0.0,0.06,1.0,-3.1,-0.9,-0.3,980,23,,,,,,,,,,,,,,,,,,,
42274,1490584269040,0,54.0,,54.2,61,55.6,,-0.0,0.06,0.99,-3.1,-0.9,-0.4,980,23,1,1,42.609,0,37.478451,-122.203789,0.0,0.001,107.6,6,3,1.6,0,0.0,-1,0.0,0.0,0.0,0
42294,1490584269060,,,,,,,,-0.01,0.06,0.98,-3.1,-0.9,-0.3,980,23,,,,,,,,,,,,,,,,,,,
42314,1490584269080,,,,,,,,-0.01,0.06,0.98,-3.0,-0.9,-0.4,1000,23,,,,,,,,,,,,,,,,,,,
42334,1490584269104,,,,,,,,-0.01,0.06,0.97,-3.0,-0.9,-0.4,1000,23,,,,,,,,,,,,,,,,,,,
42354,1490584269124,,,,,,,,-0.02,0.06,0.97,-3.0,-0.9,-0.4,1020,23,,,,,,,,,,,,,,,,,,,
42374,1490584269144,,,,,63,,,-0.02,0.06,0.97,-3.0,-0.8,-0.4,1020,23,1,1,43.478,0,37.478451,-122.203789,0.0,0.001,107.6,6,3,1.6,0,0.0,-1,0.0,0.0,0.0,0
42394,1490584269164,,,,,,,,-0.03,0.06,0.97,-3.0,-0.8,-0.4,1020,23,,,,,,,,,,,,,,,,,,,
42414,1490584269184,,,,,,,,-0.03,0.06,0.97,-3.0,-0.7,-0.4,1040,23,,,,,,,,,,,,,,,,,,,
42434,1490584269206,,,,,,,,-0.03,0.07,0.98,-3.0,-0.7,-0.4,1060,23,,,,,,,,,,,,,,,,,,,
42454,1490584269226,,,,,,,,-0.03,0.07,0.97,-3.1,-0.9,-0.4,1080,23,,,,,,,,,,,,,,,,,,,
42474,1490584269246,0,52.0,,52.4,63,56.1,,-0.02,0.08,0.97,-3.1,-1.1,-0.3,1080,23,1,1,46.087,0,37.478451,-122.203789,0.0,0.001,107.6,6,3,1.6,0,0.0,-1,0.0,0.0,0.0,0
42494,1490584269266,,,,,,,,-0.01,0.07,0.99,-3.1,-1.1,-0.3,1100,23,,,,,,,,,,,,,,,,,,,
42514,1490584269286,,,,,,,,-0.01,0.06,0.99,-3.1,-0.9,-0.3,1120,23,,,,,,,,,,,,,,,,,,,
42534,1490584269306,,,,,,,,-0.01,0.06,1.0,-3.0,-1.0,-0.4,1120,23,,,,,,,,,,,,,,,,,,,
42554,1490584269326,,,,,,,,-0.01,0.05,1.0,-3.0,-1.0,-0.4,1140,23,,,,,,,,,,,,,,,,,,,
42574,1490584269346,,,,,66,,,-0.0,0.05,0.99,-3.0,-1.0,-0.4,1160,23,1,1,48.696,0,37.478451,-122.203789,0.0,0.001,107.6,6,3,1.6,0,0.0,-1,0.0,0.0,0.0,0
42594,1490584269366,,,,,,,,0.0,0.06,0.99,-3.0,-0.8,-0.3,1160,23,,,,,,,,,,,,,,,,,,,
42614,1490584269386,,,,,,,,0.0,0.07,0.99,-3.1,-0.9,-0.3,1180,23,,,,,,,,,,,,,,,,,,,
42634,1490584269406,,,,,,,,0.01,0.06,0.99,-3.0,-0.9,-0.3,1200,23,,,,,,,,,,,,,,,,,,,
42654,1490584269426,,,,,,,,0.01,0.06,0.99,-3.0,-0.9,-0.4,1200,23,,,,,,,,,,,,,,,,,,,
42674,1490584269446,0,52.5,,53.2,65,56.1,,0.01,0.06,0.99,-3.0,-0.9,-0.4,1220,23,1,1,52.174,0,37.478451,-122.203789,0.0,0.001,107.6,6,3,1.6,0,0.0,-1,0.0,0.0,0.0,0
42694,1490584269466,,,,,,,,0.01,0.07,0.99,-3.0,-0.8,-0.3,1220,23,,,,,,,,,,,,,,,,,,,
42714,1490584269486,,,,,,,,0.01,0.07,0.99,-3.1,-0.8,-0.3,1240,1538462,,,,,,,,,,,,,,,,,,,
42734,1490584269505,,,,,,,,0.01,0.06,0.99,-3.0,-0.8,-0.3,1240,0,,,,,,,,,,,,,,,,,,,
42754,1490584269525,,,,,,,,0.01,0.05,0.99,-3.0,-0.8,-0.4,1240,0,,,,,,,,,,,,,,,,,,,
42774,1490584269545,,,,,65,,,0.01,0.06,1.0,-3.0,-0.7,-0.4,1260,0,1,1,0.0,0,37.478451,-122.203789,0.0,0.001,107.6,6,3,1.6,0,0.0,-1,0.0,0.0,0.0,0
42794,1490584269565,,,,,,,,0.01,0.06,1.0,-3.1,-0.8,-0.3,1260,0,,,,,,,,,,,,,,,,,,,
42814,1490584269585,,,,,,,,0.02,0.06,0.99,-3.1,-0.8,-0.3,1260,0,,,,,,,,,,,,,,,,,,,
42834,1490584269605,,,,,,,,0.02,0.05,0.99,-3.1,-0.8,-0.4,1260,0,,,,,,,,,,,,,,,,,,,
42854,1490584269625,,,,,,,,0.02,0.05,0.99,-3.1,-0.8,-0.3,1260,0,,,,,,,,,,,,,,,,,,,
42874,1490584269645,0,55.3,,54.3,64,54.9,,0.02,0.06,0.99,-3.1,-0.8,-0.3,1260,0,1,1,0.0,0,37.478451,-122.203789,0.0,0.001,107.6,6,3,1.6,0,0.0,-1,0.0,0.0,0.0,0
42894,1490584269665,,,,,,,,0.02,0.06,0.99,-3.1,-0.8,-0.3,1260,0,,,,,,,,,,,,,,,,,,,
42914,1490584269685,,,,,,,,0.02,0.07,0.99,-3.1,-0.7,-0.3,1260,0,,,,,,,,,,,,,,,,,,,
42934,1490584269705,,,,,,,,0.02,0.07,0.99,-3.1,-0.7,-0.2,1240,0,,,,,,,,,,,,,,,,,,,
42954,1490584269725,,,,,,,,0.02,0.06,0.99,-3.1,-0.7,-0.2,1260,0,,,,,,,,,,,,,,,,,,,
42974,1490584269745,,,,,62,,,0.02,0.06,1.0,-3.1,-0.6,-0.3,1260,0,1,1,0.0,0,37.478451,-122.203789,0.0,0.001,107.6,6,3,1.6,0,0.0,-1,0.0,0.0,0.0,0
42994,1490584269765,,,,,,,,0.02,0.06,0.99,-3.1,-0.6,-0.3,1240,0,,,,,,,,,,,,,,,,,,,
43014,1490584269785,,,,,,,,0.02,0.06,0.99,-3.1,-0.6,-0.2,1240,0,,,,,,,,,,,,,,,,,,,
43034,1490584269805,,,,,,,,0.03,0.06,0.99,-3.1,-0.6,-0.2,1240,0,,,,,,,,,,,,,,,,,,,
43054,1490584269825,,,,,,,,0.03,0.06,1.0,-3.0,-0.6,-0.3,1240,0,,,,,,,,,,,,,,,,,,,
43074,1490584269845,0,54.6,-0.6,52.9,64,52.9,14.81,0.02,0.07,0.99,-3.1,-0.6,-0.3,1240,0,1,1,0.0,0,37.478451,-122.203789,0.0,0.001,107.6,6,3,1.6,0,0.0,-1,0.0,0.0,0.0,0
43094,1490584269865,,,,,,,,0.02,0.07,0.99,-3.1,-0.5,-0.2,1220,0,,,,,,,,,,,,,,,,,,,
43114,1490584269885,,,,,,,,0.03,0.06,0.99,-3.1,-0.6,-0.2,1220,0,,,,,,,,,,,,,,,,,,,
43134,1490584269905,,,,,,,,0.02,0.06,0.99,-3.1,-0.6,-0.2,1220,0,,,,,,,,,,,,,,,,,,,
43154,1490584269925,,,,,,,,0.02,0.06,0.99,-3.1,-0.6,-0.2,1200,0,,,,,,,,,,,,,,,,,,,
43174,1490584269945,,,,,62,,,0.02,0.06,0.99,-3.1,-0.5,-0.2,1200,0,1,1,0.0,0,37.478451,-122.203789,0.0,0.001,107.6,6,3,1.6,0,0.0,-1,0.0,0.0,0.0,0
43194,1490584269965,,,,,,,,0.02,0.07,0.99,-3.1,-0.6,-0.1,1180,0,,,,,,,,,,,,,,,,,,,
43214,1490584269985,,,,,,,,0.03,0.07,0.98,-3.1,-0.6,-0.2,1180,0,,,,,,,,,,,,,,,,,,,
43234,1490584269999,,,,,,,,0.02,0.06,0.99,-3.1,-0.5,-0.2,1180,0,,,,,,,,,,,,,,,,,,,
43254,1490584270019,,,,,,,,0.02,0.06,0.99,-3.1,-0.6,-0.2,1180,0,,,,,,,,,,,,,,,,,,,
43274,1490584270039,0,54.3,,51.8,62,52.9,,0.02,0.06,0.99,-3.1,-0.5,-0.2,1180,0,1,1,0.0,0,37.478451,-122.203789,0.0,0.001,107.6,6,3,1.6,0,0.0,-1,0.0,0.0,0.0,0
43294,1490584270059,,,,,,,,0.02,0.07,0.98,-3.1,-0.6,-0.2,1160,0,,,,,,,,,,,,,,,,,,,
43314,1490584270079,,,,,,,,0.03,0.06,0.98,-3.1,-0.6,-0.2,1160,0,,,,,,,,,,,,,,,,,,,
43334,1490584270105,,,,,,,,0.03,0.06,0.98,-3.1,-0.6,-0.2,1160,0,,,,,,,,,,,,,,,,,,,
43354,1490584270125,,,,,,,,0.03,0.06,0.98,-3.0,-0.7,-0.2,1160,0,,,,,,,,,,,,,,,,,,,
43374,1490584270145,,,,,59,,,0.03,0.06,0.98,-3.1,-0.7,-0.2,1160,0,1,1,0.0,0,37.478451,-122.203789,0.0,0.001,107.6,6,3,1.6,0,0.0,-1,0.0,0.0,0.0,0
43394,1490584270165,,,,,,,,0.02,0.06,0.99,-3.1,-0.6,-0.2,1140,0,,,,,,,,,,,,,,,,,,,
43414,1490584270185,,,,,,,,0.02,0.06,0.98,-3.1,-0.6,-0.2,1140,0,,,,,,,,,,,,,,,,,,,
43434,1490584270205,,,,,,,,0.03,0.07,0.99,-3.1,-0.7,-0.1,1140,0,,,,,,,,,,,,,,,,,,,
43454,1490584270225,,,,,,,,0.03,0.06,0.98,-3.1,-0.7,-0.1,1140,0,,,,,,,,,,,,,,,,,,,
43474,1490584270245,0,52.0,,52.9,60,56.1,,0.02,0.06,0.99,-3.1,-0.7,-0.2,1140,0,1,1,0.0,0,37.478451,-122.203789,0.0,0.001,107.6,6,3,1.6,0,0.0,-1,0.0,0.0,0.0,0
43494,1490584270265,,,,,,,,0.03,0.05,0.99,-3.1,-0.6,-0.2,1140,0,,,,,,,,,,,,,,,,,,,
43514,1490584270285,,,,,,,,0.02,0.06,0.98,-3.1,-0.6,-0.2,1140,0,,,,,,,,,,,,,,,,,,,
43534,1490584270305,,,,,,,,0.02,0.06,0.98,-3.1,-0.6,-0.2,1140,0,,,,,,,,,,,,,,,,,,,
43554,1490584270325,,,,,,,,0.02,0.07,0.98,-3.1,-0.6,-0.2,1120,0,,,,,,,,,,,,,,,,,,,
43574,1490584270345,,,,,62,,,0.03,0.07,0.99,-3.1,-0.6,-0.2,1120,2,1,1,0.0,0,37.478451,-122.203789,0.0,0.001,107.6,6,3,1.6,0,0.0,-1,0.0,0.0,0.0,0
43594,1490584270365,,,,,,,,0.03,0.07,0.99,-3.0,-0.5,-0.2,1120,2,,,,,,,,,,,,,,,,,,,
43614,1490584270385,,,,,,,,0.03,0.07,0.99,-3.0,-0.5,-0.2,1120,2,,,,,,,,,,,,,,,,,,,
43634,1490584270405,,,,,,,,0.03,0.06,0.99,-3.0,-0.5,-0.2,1120,2,,,,,,,,,,,,,,,,,,,
43654,1490584270425,,,,,,,,0.03,0.07,0.99,-3.0,-0.6,-0.3,1120,2,,,,,,,,,,,,,,,,,,,
43674,1490584270445,0,54.2,,51.5,61,52.9,,0.03,0.07,0.99,-3.0,-0.5,-0.3,1140,2,1,1,1120.0,0,37.478451,-122.203789,0.0,0.001,107.6,6,3,1.6,0,0.0,-1,0.0,0.0,0.0,0
43694,1490584270465,,,,,,,,0.03,0.08,0.98,-3.0,-0.5,-0.2,1140,11,,,,,,,,,,,,,,,,,,,
43714,1490584270485,,,,,,,,0.03,0.08,0.99,-3.0,-0.6,-0.2,1140,11,,,,,,,,,,,,,,,,,,,
43734,1490584270506,,,,,,,,0.03,0.07,0.99,-3.0,-0.5,-0.2,1140,11,,,,,,,,,,,,,,,,,,,
43754,1490584270526,,,,,,,,0.03,0.07,0.99,-3.0,-0.6,-0.2,1140,11,,,,,,,,,,,,,,,,,,,
43774,1490584270546,,,,,61,,,0.03,0.06,0.99,-3.0,-0.6,-0.3,1140,11,1,1,114.0,0,37.478451,-122.203789,0.0,0.001,107.6,6,3,1.6,0,0.0,-1,0.0,0.0,0.0,0
43794,1490584270566,,,,,,,,0.03,0.06,0.99,-3.0,-0.6,-0.3,1140,11,,,,,,,,,,,,,,,,,,,
43814,1490584270586,,,,,,,,0.03,0.06,0.99,-3.0,-0.6,-0.2,1140,12,,,,,,,,,,,,,,,,,,,
43834,1490584270602,,,,,,,,0.03,0.07,0.98,-3.0,-0.7,-0.2,1140,12,,,,,,,,,,,,,,,,,,,
43854,1490584270622,,,,,,,,0.03,0.06,0.99,-3.0,-0.7,-0.1,1160,12,,,,,,,,,,,,,,,,,,,
43874,1490584270642,0,55.5,,53.8,62,52.8,,0.03,0.06,0.99,-3.0,-0.8,-0.2,1160,12,1,1,114.0,0,37.478451,-122.203789,0.0,0.001,107.6,6,3,1.6,0,0.0,-1,0.0,0.0,0.0,0
43894,1490584270662,,,,,,,,0.03,0.06,0.99,-3.0,-0.8,-0.2,1160,12,,,,,,,,,,,,,,,,,,,
43914,1490584270682,,,,,,,,0.03,0.06,0.99,-3.0,-0.7,-0.2,1160,14,,,,,,,,,,,,,,,,,,,
43934,1490584270706,,,,,,,,0.03,0.06,0.99,-3.0,-0.6,-0.2,1160,14,,,,,,,,,,,,,,,,,,,
43954,1490584270726,,,,,,,,0.03,0.07,0.99,-3.0,-0.7,-0.1,1160,14,,,,,,,,,,,,,,,,,,,
43974,1490584270746,,,,,62,,,0.03,0.07,0.99,-3.0,-0.7,-0.1,1160,14,1,1,96.667,0,37.478451,-122.203789,0.0,0.001,107.6,6,3,1.6,0,0.0,-1,0.0,0.0,0.0,0
43994,1490584270766,,,,,,,,0.03,0.06,0.99,-3.0,-0.7,-0.2,1160,14,,,,,,,,,,,,,,,,,,,
44014,1490584270786,,,,,,,,0.03,0.06,0.99,-3.0,-0.8,-0.2,1160,14,,,,,,,,,,,,,,,,,,,
44034,1490584270806,,,,,,,,0.03,0.06,0.98,-3.0,-0.8,-0.2,1160,14,,,,,,,,,,,,,,,,,,,
44054,1490584270826,,,,,,,,0.03,0.06,0.98,-3.0,-0.7,-0.2,1160,14,,,,,,,,,,,,,,,,,,,
44074,1490584270846,1,54.3,-0.5,51.4,61,53.1,14.83,0.03,0.06,0.98,-3.0,-0.7,-0.1,1160,14,1,1,89.231,0,37.478451,-122.203789,0.0,0.001,107.6,6,3,1.6,0,0.0,-1,0.0,0.0,0.0,0
44094,1490584270866,,,,,,,,0.03,0.06,0.99,-3.0,-0.7,-0.1,1160,14,,,,,,,,,,,,,,,,,,,
44114,1490584270886,,,,,,,,0.03,0.06,0.99,-3.0,-0.7,-0.1,1160,17,,,,,,,,,,,,,,,,,,,
44134,1490584270908,,,,,,,,0.03,0.05,0.99,-3.0,-0.6,-0.2,1160,17,,,,,,,,,,,,,,,,,,,
44154,1490584270928,,,,,,,,0.03,0.05,0.99,-3.0,-0.6,-0.2,1180,17,,,,,,,,,,,,,,,,,,,
44174,1490584270948,,,,,61,,,0.03,0.05,0.99,-3.0,-0.5,-0.1,1180,17,1,1,89.231,0,37.478451,-122.203789,0.0,0.001,107.6,6,3,1.6,0,0.0,-1,0.0,0.0,0.0,0
44194,1490584270968,,,,,,,,0.03,0.06,0.99,-3.0,-0.6,-0.1,1180,17,,,,,,,,,,,,,,,,,,,
44214,1490584270988,,,,,,,,0.03,0.05,0.99,-3.0,-0.5,-0.1,1160,17,,,,,,,,,,,,,,,,,,,
44234,1490584271002,,,,,,,,0.03,0.05,1.0,-3.0,-0.5,-0.2,1160,17,,,,,,,,,,,,,,,,,,,
44254,1490584271022,,,,,,,,0.03,0.05,1.0,-3.0,-0.5,-0.2,1180,17,,,,,,,,,,,,,,,,,,,
44274,1490584271042,0,55.7,,54.2,61,54.2,,0.03,0.05,1.0,-3.0,-0.5,-0.2,1180,18,1,1,73.75,0,37.478451,-122.203789,0.0,0.001,107.6,6,3,1.6,0,0.0,-1,0.0,0.0,0.0,0
44294,1490584271062,,,,,,,,0.03,0.06,0.99,-3.0,-0.5,-0.2,1180,18,,,,,,,,,,,,,,,,,,,
44314,1490584271082,,,,,,,,0.03,0.06,0.99,-3.0,-0.5,-0.2,1180,18,,,,,,,,,,,,,,,,,,,
44334,1490584271108,,,,,,,,0.03,0.06,0.99,-3.0,-0.5,-0.2,1180,18,,,,,,,,,,,,,,,,,,,
44354,1490584271128,,,,,,,,0.03,0.05,0.99,-3.0,-0.5,-0.2,1180,18,,,,,,,,,,,,,,,,,,,
44374,1490584271148,,,,,61,,,0.03,0.06,0.99,-2.9,-0.5,-0.2,1180,18,1,1,65.556,0,37.478451,-122.203789,0.0,0.001,107.6,6,3,1.6,0,0.0,-1,0.0,0.0,0.0,0
44394,1490584271168,,,,,,,,0.03,0.06,0.98,-3.0,-0.5,-0.2,1180,18,,,,,,,,,,,,,,,,,,,
44414,1490584271188,,,,,,,,0.03,0.07,0.99,-3.0,-0.5,-0.2,1180,22,,,,,,,,,,,,,,,,,,,
44434,1490584271208,,,,,,,,0.03,0.06,0.98,-3.0,-0.6,-0.2,1180,22,,,,,,,,,,,,,,,,,,,
44454,1490584271228,,,,,,,,0.03,0.06,0.98,-3.0,-0.6,-0.3,1180,22,,,,,,,,,,,,,,,,,,,
44474,1490584271248,0,52.2,,51.2,62,54.6,,0.03,0.06,0.98,-3.0,-0.6,-0.2,1180,23,1,1,65.556,0,37.478451,-122.203789,0.0,0.001,107.6,6,3,1.6,0,0.0,-1,0.0,0.0,0.0,0
44494,1490584271268,,,,,,,,0.03,0.07,0.98,-3.0,-0.5,-0.2,1180,23,,,,,,,,,,,,,,,,,,,
44514,1490584271288,,,,,,,,0.03,0.07,0.98,-3.0,-0.6,-0.1,1180,23,,,,,,,,,,,,,,,,,,,
44534,1490584271306,,,,,,,,0.03,0.07,0.99,-3.0,-0.7,-0.2,1180,23,,,,,,,,,,,,,,,,,,,
44554,1490584271326,,,,,,,,0.03,0.06,0.99,-3.0,-0.7,-0.2,1180,23,,,,,,,,,,,,,,,,,,,
44574,1490584271346,,,,,61,,,0.03,0.06,0.99,-3.0,-0.7,-0.2,1180,23,1,1,51.304,0,37.478451,-122.203789,0.0,0.001,107.6,6,3,1.6,0,0.0,-1,0.0,0.0,0.0,0
44594,1490584271366,,,,,,,,0.03,0.07,0.99,-3.0,-0.6,-0.2,1180,25,,,,,,,,,,,,,,,,,,,
44614,1490584271386,,,,,,,,0.03,0.07,0.99,-3.0,-0.6,-0.1,1180,25,,,,,,,,,,,,,,,,,,,
44634,1490584271408,,,,,,,,0.03,0.07,0.99,-3.0,-0.7,-0.1,1180,25,,,,,,,,,,,,,,,,,,,
44654,1490584271428,,,,,,,,0.03,0.06,1.0,-3.0,-0.8,-0.2,1180,26,,,,,,,,,,,,,,,,,,,
44674,1490584271448,0,55.2,,54.3,61,55.1,,0.03,0.06,1.0,-3.0,-0.7,-0.2,1180,26,1,1,49.167,0,37.478451,-122.203789,0.0,0.001,107.6,6,3,1.6,0,0.0,-1,0.0,0.0,0.0,0
44694,1490584271468,,,,,,,,0.03,0.07,0.99,-3.0,-0.5,-0.2,1160,26,,,,,,,,,,,,,,,,,,,
44714,1490584271488,,,,,,,,0.03,0.07,1.0,-3.0,-0.6,-0.1,1180,26,,,,,,,,,,,,,,,,,,,
44734,1490584271507,,,,,,,,0.03,0.07,1.0,-3.0,-0.6,-0.1,1160,26,,,,,,,,,,,,,,,,,,,
44754,1490584271527,,,,,,,,0.03,0.06,1.0,-3.0,-0.6,-0.2,1160,26,,,,,,,,,,,,,,,,,,,
44774,1490584271547,,,,,61,,,0.03,0.06,1.0,-3.0,-0.6,-0.2,1160,28,1,1,45.385,0,37.478451,-122.203789,0.0,0.001,107.6,6,3,1.6,0,0.0,-1,0.0,0.0,0.0,0
44794,1490584271567,,,,,,,,0.03,0.06,0.99,-3.0,-0.5,-0.2,1160,28,,,,,,,,,,,,,,,,,,,
44814,1490584271587,,,,,,,,0.03,0.06,1.0,-3.0,-0.5,-0.2,1160,28,,,,,,,,,,,,,,,,,,,
44834,1490584271607,,,,,,,,0.03,0.07,0.99,-3.0,-0.6,-0.1,1160,28,,,,,,,,,,,,,,,,,,,
44854,1490584271627,,,,,,,,0.03,0.06,1.0,-3.0,-0.6,-0.1,1160,28,,,,,,,,,,,,,,,,,,,
44874,1490584271647,0,54.6,,54.7,60,55.5,,0.03,0.06,1.0,-3.0,-0.6,-0.2,1160,29,1,1,42.963,0,37.478451,-122.203789,0.0,0.001,107.6,6,3,1.6,0,0.0,-1,0.0,0.0,0.0,0
44894,1490584271667,,,,,,,,0.03,0.06,1.0,-3.0,-0.6,-0.2,1160,29,,,,,,,,,,,,,,,,,,,
44914,1490584271687,,,,,,,,0.03,0.06,0.99,-3.0,-0.6,-0.2,1160,29,,,,,,,,,,,,,,,,,,,
44934,1490584271707,,,,,,,,0.03,0.06,1.0,-3.0,-0.6,-0.1,1160,29,,,,,,,,,,,,,,,,,,,
44954,1490584271727,,,,,,,,0.03,0.06,0.99,-3.0,-0.6,-0.1,1140,29,,,,,,,,,,,,,,,,,,,
44974,1490584271747,,,,,61,,,0.03,0.06,0.99,-3.0,-0.6,-0.1,1160,29,1,1,40.0,0,37.478451,-122.203789,0.0,0.001,107.6,6,3,1.6,0,0.0,-1,0.0,0.0,0.0,0
44994,1490584271767,,,,,,,,0.03,0.06,0.99,-3.0,-0.6,-0.1,1140,29,,,,,,,,,,,,,,,,,,,
45014,1490584271787,,,,,,,,0.02,0.06,1.0,-3.0,-0.7,-0.1,1160,31,,,,,,,,,,,,,,,,,,,
45034,1490584271807,,,,,,,,0.03,0.06,0.99,-3.0,-0.6,-0.1,1140,31,,,,,,,,,,,,,,,,,,,
45054,1490584271827,,,,,,,,0.02,0.05,1.0,-3.0,-0.5,-0.1,1120,31,,,,,,,,,,,,,,,,,,,
45074,1490584271847,0,51.9,-0.5,52.6,60,56.1,14.83,0.02,0.06,0.99,-3.0,-0.5,-0.1,1120,31,1,1,39.31,0,37.478451,-122.203789,0.0,0.001,107.6,6,3,1.6,0,0.0,-1,0.0,0.0,0.0,0
45094,1490584271867,,,,,,,,0.03,0.07,1.0,-3.0,-0.6,-0.0,1140,31,,,,,,,,,,,,,,,,,,,
45114,1490584271887,,,,,,,,0.03,0.06,1.0,-3.0,-0.5,0.0,1140,31,,,,,,,,,,,,,,,,,,,
45134,1490584271907,,,,,,,,0.03,0.06,1.0,-3.0,-0.5,-0.0,1120,31,,,,,,,,,,,,,,,,,,,
45154,1490584271927,,,,,,,,0.03,0.06,1.0,-3.0,-0.6,-0.1,1120,31,,,,,,,,,,,,,,,,,,,
45174,1490584271947,,,,,60,,,0.03,0.06,0.99,-3.0,-0.6,-0.1,1120,31,1,1,38.0,0,37.478451,-122.203789,0.0,0.001,107.6,6,3,1.6,0,0.0,-1,0.0,0.0,0.0,0
45194,1490584271967,,,,,,,,0.03,0.06,0.99,-3.1,-0.6,-0.1,1140,31,,,,,,,,,,,,,,,,,,,
45214,1490584271987,,,,,,,,0.02,0.07,0.99,-3.0,-0.5,-0.0,1140,32,,,,,,,,,,,,,,,,,,,
45234,1490584272003,,,,,,,,0.02,0.07,0.98,-3.0,-0.6,0.0,1140,32,,,,,,,,,,,,,,,,,,,
45254,1490584272023,,,,,,,,0.03,0.06,0.99,-3.0,-0.6,0.1,1140,32,,,,,,,,,,,,,,,,,,,
45274,1490584272043,0,55.0,,53.9,60,53.1,,0.03,0.06,0.99,-3.0,-0.6,0.1,1140,32,1,1,38.0,0,37.478451,-122.203789,0.0,0.001,107.6,6,3,1.6,0,0.0,-1,0.0,0.0,0.0,0
45294,1490584272063,,,,,,,,0.03,0.06,1.0,-3.0,-0.6,0.0,1120,32,,,,,,,,,,,,,,,,,,,
45314,1490584272083,,,,,,,,0.03,0.05,1.0,-3.0,-0.6,-0.0,1120,32,,,,,,,,,,,,,,,,,,,
45334,1490584272109,,,,,,,,0.03,0.06,0.99,-3.0,-0.6,0.0,1120,32,,,,,,,,,,,,,,,,,,,
45354,1490584272129,,,,,,,,0.02,0.06,0.99,-3.0,-0.6,0.0,1120,32,,,,,,,,,,,,,,,,,,,
45374,1490584272149,,,,,60,,,0.03,0.07,0.99,-3.0,-0.7,0.1,1120,32,1,1,35.0,0,37.478451,-122.203789,0.0,0.001,107.6,6,3,1.6,0,0.0,-1,0.0,0.0,0.0,0
45394,1490584272169,,,,,,,,0.03,0.06,0.99,-3.0,-0.6,0.1,1140,35,,,,,,,,,,,,,,,,,,,
45414,1490584272189,,,,,,,,0.03,0.06,0.99,-3.0,-0.6,0.0,1140,35,,,,,,,,,,,,,,,,,,,
45434,1490584272209,,,,,,,,0.03,0.05,1.0,-3.0,-0.6,-0.0,1140,34,,,,,,,,,,,,,,,,,,,
45454,1490584272229,,,,,,,,0.03,0.05,0.99,-2.9,-0.6,-0.1,1140,34,,,,,,,,,,,,,,,,,,,
45474,1490584272249,0,54.8,,53.6,60,53.1,,0.03,0.06,0.99,-2.9,-0.4,-0.1,1140,34,1,1,32.571,0,37.478451,-122.203789,0.0,0.001,107.6,6,3,1.6,0,0.0,-1,0.0,0.0,0.0,0
45494,1490584272269,,,,,,,,0.03,0.06,0.99,-2.9,-0.3,-0.1,1140,34,,,,,,,,,,,,,,,,,,,
45514,1490584272289,,,,,,,,0.03,0.07,0.98,-2.9,-0.4,-0.0,1140,35,,,,,,,,,,,,,,,,,,,
45534,1490584272309,,,,,,,,0.03,0.07,0.99,-2.9,-0.3,-0.0,1140,35,,,,,,,,,,,,,,,,,,,
45554,1490584272329,,,,,,,,0.03,0.06,1.0,-2.9,-0.3,-0.0,1140,35,,,,,,,,,,,,,,,,,,,
45574,1490584272349,,,,,59,,,0.03,0.06,1.0,-2.9,-0.3,-0.1,1120,35,1,1,34.545,0,37.478451,-122.203789,0.0,0.001,107.6,6,3,1.6,0,0.0,-1,0.0,0.0,0.0,0
45594,1490584272369,,,,,,,,0.03,0.06,1.0,-2.8,-0.3,-0.1,1120,35,,,,,,,,,,,,,,,,,,,
45614,1490584272389,,,,,,,,0.03,0.06,0.99,-2.8,-0.3,-0.1,1120,35,,,,,,,,,,,,,,,,,,,
45634,1490584272409,,,,,,,,0.03,0.06,1.0,-2.8,-0.2,-0.1,1120,35,,,,,,,,,,,,,,,,,,,
45654,1490584272429,,,,,,,,0.03,0.07,0.99,-2.8,-0.4,-0.0,1120,35,,,,,,,,,,,,,,,,,,,
45674,1490584272449,0,53.8,,51.4,58,53.5,,0.04,0.08,1.0,-2.8,-0.4,0.0,1120,35,1,1,32.0,0,37.478451,-122.203789,0.0,0.001,105.1,6,3,1.5,0,0.0,-1,0.0,0.0,0.0,0
45694,1490584272469,,,,,,,,0.04,0.07,1.0,-2.8,-0.3,0.0,1120,37,,,,,,,,,,,,,,,,,,,
45714,1490584272489,,,,,,,,0.03,0.07,1.0,-2.8,-0.4,-0.0,1120,37,,,,,,,,,,,,,,,,,,,
45734,1490584272508,,,,,,,,0.03,0.06,1.0,-2.8,-0.4,-0.1,1120,37,,,,,,,,,,,,,,,,,,,
45754,1490584272528,,,,,,,,0.03,0.06,1.0,-2.8,-0.4,-0.1,1120,37,,,,,,,,,,,,,,,,,,,
45774,1490584272548,,,,,59,,,0.03,0.06,1.0,-2.8,-0.4,-0.2,1120,37,1,1,31.111,0,37.478451,-122.203789,0.0,0.001,105.1,6,3,1.5,0,0.0,-1,0.0,0.0,0.0,0
45794,1490584272568,,,,,,,,0.03,0.06,1.0,-2.8,-0.3,-0.1,1120,37,,,,,,,,,,,,,,,,,,,
45814,1490584272588,,,,,,,,0.03,0.07,0.99,-2.8,-0.5,-0.1,1120,38,,,,,,,,,,,,,,,,,,,
45834,1490584272608,,,,,,,,0.03,0.07,0.99,-2.8,-0.5,-0.0,1120,38,,,,,,,,,,,,,,,,,,,
45854,1490584272628,,,,,,,,0.03,0.06,0.99,-2.7,-0.5,-0.0,1120,37,,,,,,,,,,,,,,,,,,,
45874,1490584272648,0,54.3,,51.7,60,53.3,,0.03,0.06,1.0,-2.7,-0.6,-0.0,1120,37,1,1,31.111,0,37.478451,-122.203789,0.0,0.001,105.1,6,3,1.5,0,0.0,-1,0.0,0.0,0.0,0
45894,1490584272668,,,,,,,,0.03,0.05,1.0,-2.7,-0.6,-0.1,1100,38,,,,,,,,,,,,,,,,,,,
45914,1490584272688,,,,,,,,0.03,0.05,0.99,-2.7,-0.6,-0.1,1100,38,,,,,,,,,,,,,,,,,,,
45934,1490584272708,,,,,,,,0.03,0.06,0.99,-2.7,-0.5,-0.1,1120,40,,,,,,,,,,,,,,,,,,,
45954,1490584272728,,,,,,,,0.02,0.06,0.99,-2.6,-0.5,-0.1,1100,40,,,,,,,,,,,,,,,,,,,
45974,1490584272748,,,,,61,,,0.02,0.07,0.98,-2.6,-0.6,-0.1,1100,38,1,1,28.947,0,37.478451,-122.203789,0.0,0.001,105.1,6,3,1.5,0,0.0,-1,0.0,0.0,0.0,0
45994,1490584272768,,,,,,,,0.02,0.07,0.99,-2.7,-0.6,-0.1,1100,38,,,,,,,,,,,,,,,,,,,
46014,1490584272788,,,,,,,,0.03,0.06,0.99,-2.6,-0.5,-0.1,1100,38,,,,,,,,,,,,,,,,,,,
46034,1490584272808,,,,,,,,0.02,0.06,0.99,-2.6,-0.6,-0.1,1100,40,,,,,,,,,,,,,,,,,,,
46054,1490584272828,,,,,,,,0.02,0.05,0.99,-2.5,-0.6,-0.2,1120,40,,,,,,,,,,,,,,,,,,,
46074,1490584272848,0,54.3,-0.4,52.0,61,53.2,14.89,0.03,0.04,1.0,-2.5,-0.6,-0.2,1120,40,1,1,28.947,0,37.478451,-122.203789,0.0,0.001,105.1,6,3,1.5,0,0.0,-1,0.0,0.0,0.0,0
46094,1490584272868,,,,,,,,0.03,0.05,0.99,-2.4,-0.5,-0.2,1100,40,,,,,,,,,,,,,,,,,,,
46114,1490584272888,,,,,,,,0.02,0.05,0.99,-2.4,-0.4,-0.2,1100,42,,,,,,,,,,,,,,,,,,,
46134,1490584272908,,,,,,,,0.02,0.06,0.99,-2.4,-0.4,-0.2,1100,42,,,,,,,,,,,,,,,,,,,
46154,1490584272928,,,,,,,,0.02,0.07,0.99,-2.3,-0.6,-0.1,1120,40,,,,,,,,,,,,,,,,,,,
46174,1490584272948,,,,,60,,,0.03,0.07,1.0,-2.3,-0.5,-0.1,1120,40,1,1,27.5,0,37.478451,-122.203789,0.0,0.001,105.1,6,3,1.5,0,0.0,-1,0.0,0.0,0.0,0
46194,1490584272968,,,,,,,,0.03,0.06,1.0,-2.2,-0.4,-0.1,1120,42,,,,,,,,,,,,,,,,,,,
46214,1490584272988,,,,,,,,0.03,0.06,1.0,-2.3,-0.5,-0.2,1120,42,,,,,,,,,,,,,,,,,,,
46234,1490584273004,,,,,,,,0.03,0.06,1.0,-2.2,-0.5,-0.2,1120,42,,,,,,,,,,,,,,,,,,,
46254,1490584273024,,,,,,,,0.03,0.06,0.99,-2.2,-0.5,-0.2,1120,42,,,,,,,,,,,,,,,,,,,
46274,1490584273044,0,53.6,,54.3,61,56.4,,0.03,0.06,1.0,-2.2,-0.4,-0.2,1120,42,1,1,27.317,0,37.478451,-122.203789,0.0,0.001,105.1,6,3,1.5,0,0.0,-1,0.0,0.0,0.0,0
46294,1490584273064,,,,,,,,0.03,0.06,0.99,-2.2,-0.3,-0.2,1120,43,,,,,,,,,,,,,,,,,,,
46314,1490584273084,,,,,,,,0.03,0.07,0.99,-2.2,-0.4,-0.2,1100,43,,,,,,,,,,,,,,,,,,,
46334,1490584273108,,,,,,,,0.03,0.07,0.99,-2.2,-0.4,-0.2,1100,43,,,,,,,,,,,,,,,,,,,
46354,1490584273128,,,,,,,,0.03,0.06,1.0,-2.2,-0.4,-0.2,1100,43,,,,,,,,,,,,,,,,,,,
46374,1490584273148,,,,,59,,,0.03,0.06,1.0,-2.2,-0.5,-0.2,1100,43,1,1,25.581,0,37.478451,-122.203789,0.0,0.001,105.1,6,3,1.5,0,0.0,-1,0.0,0.0,0.0,0
46394,1490584273168,,,,,,,,0.03,0.06,1.0,-2.1,-0.5,-0.3,1120,43,,,,,,,,,,,,,,,,,,,
46414,1490584273188,,,,,,,,0.03,0.05,0.99,-2.1,-0.5,-0.4,1100,43,,,,,,,,,,,,,,,,,,,
46434,1490584273208,,,,,,,,0.03,0.06,0.99,-2.1,-0.4,-0.4,1100,45,,,,,,,,,,,,,,,,,,,
46454,1490584273228,,,,,,,,0.03,0.06,0.99,-2.0,-0.4,-0.4,1100,45,,,,,,,,,,,,,,,,,,,
46474,1490584273248,0,51.8,,51.7,58,55.3,,0.03,0.06,0.98,-2.0,-0.5,-0.3,1100,45,1,1,26.047,0,37.478451,-122.203789,0.0,0.001,105.1,6,3,1.5,0,0.0,-1,0.0,0.0,0.0,0
46494,1490584273268,,,,,,,,0.03,0.07,0.98,-2.0,-0.5,-0.2,1120,46,,,,,,,,,,,,,,,,,,,
46514,1490584273288,,,,,,,,0.03,0.07,0.99,-2.0,-0.5,-0.2,1100,46,,,,,,,,,,,,,,,,,,,
46534,1490584273308,,,,,,,,0.03,0.06,0.99,-1.9,-0.6,-0.2,1100,45,,,,,,,,,,,,,,,,,,,
46554,1490584273328,,,,,,,,0.03,0.06,0.99,-1.9,-0.6,-0.3,1100,45,,,,,,,,,,,,,,,,,,,
46574,1490584273348,,,,,60,,,0.03,0.05,1.0,-1.9,-0.5,-0.4,1120,46,1,1,24.348,0,37.478451,-122.203789,0.0,0.001,105.1,6,3,1.5,0,0.0,-1,0.0,0.0,0.0,0
46594,1490584273368,,,,,,,,0.03,0.05,0.99,-1.9,-0.5,-0.4,1120,46,,,,,,,,,,,,,,,,,,,
46614,1490584273388,,,,,,,,0.03,0.05,0.99,-1.9,-0.3,-0.4,1120,46,,,,,,,,,,,,,,,,,,,
46634,1490584273408,,,,,,,,0.02,0.07,0.99,-1.9,-0.3,-0.3,1120,46,,,,,,,,,,,,,,,,,,,
46654,1490584273428,,,,,,,,0.02,0.07,0.99,-1.9,-0.5,-0.3,1120,46,,,,,,,,,,,,,,,,,,,
46674,1490584273448,0,55.2,,54.8,61,55.2,,0.03,0.07,0.99,-1.9,-0.4,-0.3,1120,48,1,1,24.348,0,37.478451,-122.203789,0.0,0.001,105.1,6,3,1.5,0,0.0,-1,0.0,0.0,0.0,0
46694,1490584273468,,,,,,,,0.03,0.06,0.99,-1.9,-0.4,-0.4,1140,46,,,,,,,,,,,,,,,,,,,
46714,1490584273488,,,,,,,,0.03,0.05,1.0,-1.8,-0.3,-0.5,1140,46,,,,,,,,,,,,,,,,,,,
46734,1490584273507,,,,,,,,0.03,0.05,0.99,-1.8,-0.3,-0.6,1140,46,,,,,,,,,,,,,,,,,,,
46754,1490584273527,,,,,,,,0.02,0.06,1.0,-1.8,-0.2,-0.5,1140,48,,,,,,,,,,,,,,,,,,,
46774,1490584273547,,,,,62,,,0.02,0.06,0.99,-1.8,-0.2,-0.5,1140,48,1,1,24.783,0,37.478451,-122.203789,0.0,0.001,105.1,6,3,1.5,0,0.0,-1,0.0,0.0,0.0,0
46794,1490584273567,,,,,,,,0.02,0.06,1.0,-1.8,-0.3,-0.5,1140,48,,,,,,,,,,,,,,,,,,,
46814,1490584273587,,,,,,,,0.02,0.06,1.0,-1.8,-0.2,-0.5,1140,48,,,,,,,,,,,,,,,,,,,
46834,1490584273603,,,,,,,,0.02,0.06,1.0,-1.8,-0.3,-0.5,1140,46,,,,,,,,,,,,,,,,,,,
46854,1490584273623,,,,,,,,0.02,0.06,1.0,-1.8,-0.3,-0.5,1120,49,,,,,,,,,,,,,,,,,,,
46874,1490584273643,0,52.6,,53.7,62,56.6,,0.02,0.06,1.0,-1.8,-0.3,-0.5,1120,49,1,1,24.255,0,37.478451,-122.203789,0.0,0.001,105.1,6,3,1.5,0,0.0,-1,0.0,0.0,0.0,0
46894,1490584273663,,,,,,,,0.02,0.06,1.0,-1.8,-0.2,-0.5,1120,46,,,,,,,,,,,,,,,,,,,
46914,1490584273683,,,,,,,,0.02,0.07,0.99,-1.8,-0.3,-0.4,1120,49,,,,,,,,,,,,,,,,,,,
46934,1490584273707,,,,,,,,0.02,0.08,0.98,-1.8,-0.5,-0.4,1120,49,,,,,,,,,,,,,,,,,,,
46954,1490584273727,,,,,,,,0.02,0.08,0.99,-1.8,-0.5,-0.4,1120,46,,,,,,,,,,,,,,,,,,,
46974,1490584273747,,,,,60,,,0.02,0.07,0.99,-1.8,-0.4,-0.4,1100,46,1,1,24.348,0,37.478451,-122.203789,0.0,0.001,105.1,6,3,1.5,0,0.0,-1,0.0,0.0,0.0,0
46994,1490584273767,,,,,,,,0.02,0.07,0.99,-1.8,-0.5,-0.4,1100,49,,,,,,,,,,,,,,,,,,,
47014,1490584273787,,,,,,,,0.02,0.06,1.0,-1.9,-0.5,-0.5,1100,46,,,,,,,,,,,,,,,,,,,
47034,1490584273807,,,,,,,,0.02,0.06,0.99,-1.9,-0.5,-0.5,1100,46,,,,,,,,,,,,,,,,,,,
47054,1490584273827,,,,,,,,0.02,0.06,0.99,-1.9,-0.5,-0.5,1080,46,,,,,,,,,,,,,,,,,,,
47074,1490584273847,0,55.1,-0.1,55.2,59,55.2,14.9,0.02,0.06,0.99,-2.0,-0.3,-0.5,1080,48,1,1,22.449,0,37.478451,-122.203789,0.0,0.001,105.1,6,3,1.5,0,0.0,-1,0.0,0.0,0.0,0
47094,1490584273867,,,,,,,,0.01,0.07,0.99,-2.0,-0.3,-0.5,1080,48,,,,,,,,,,,,,,,,,,,
47114,1490584273887,,,,,,,,0.01,0.07,0.98,-2.0,-0.5,-0.4,1080,46,,,,,,,,,,,,,,,,,,,
47134,1490584273907,,,,,,,,0.01,0.07,0.99,-2.1,-0.5,-0.3,1080,46,,,,,,,,,,,,,,,,,,,
47154,1490584273927,,,,,,,,0.02,0.07,0.99,-2.1,-0.4,-0.3,1060,46,,,,,,,,,,,,,,,,,,,
47174,1490584273947,,,,,59,,,0.02,0.07,1.0,-2.1,-0.5,-0.3,1060,48,1,1,22.979,0,37.478451,-122.203789,0.0,0.001,105.1,6,3,1.5,0,0.0,-1,0.0,0.0,0.0,0
47194,1490584273967,,,,,,,,0.02,0.06,1.0,-2.1,-0.5,-0.3,1060,48,,,,,,,,,,,,,,,,,,,
47214,1490584273987,,,,,,,,0.02,0.06,1.0,-2.1,-0.5,-0.3,1060,46,,,,,,,,,,,,,,,,,,,
47234,1490584274003,,,,,,,,0.02,0.05,1.0,-2.0,-0.6,-0.3,1060,46,,,,,,,,,,,,,,,,,,,
47254,1490584274023,,,,,,,,0.02,0.05,1.0,-2.1,-0.5,-0.3,1060,48,,,,,,,,,,,,,,,,,,,
47274,1490584274043,0,54.3,,54.9,58,55.6,,0.03,0.05,0.99,-2.1,-0.5,-0.3,1040,45,1,1,22.553,0,37.478451,-122.203789,0.0,0.001,105.1,6,3,1.5,0,0.0,-1,0.0,0.0,0.0,0
47294,1490584274063,,,,,,,,0.03,0.05,0.99,-2.1,-0.5,-0.3,1020,45,,,,,,,,,,,,,,,,,,,
47314,1490584274083,,,,,,,,0.02,0.06,0.99,-2.1,-0.4,-0.3,1020,48,,,,,,,,,,,,,,,,,,,
47334,1490584274105,,,,,,,,0.02,0.06,0.98,-2.1,-0.4,-0.3,1020,48,,,,,,,,,,,,,,,,,,,
47354,1490584274125,,,,,,,,0.02,0.06,0.98,-2.1,-0.4,-0.3,1020,43,,,,,,,,,,,,,,,,,,,
47374,1490584274145,,,,,58,,,0.01,0.06,0.98,-2.1,-0.3,-0.4,1020,45,1,1,23.182,0,37.478451,-122.203789,0.0,0.001,105.1,6,3,1.5,0,0.0,-1,0.0,0.0,0.0,0
47394,1490584274165,,,,,,,,0.0,0.06,0.98,-2.1,-0.3,-0.4,1000,45,,,,,,,,,,,,,,,,,,,
47414,1490584274185,,,,,,,,0.0,0.06,0.99,-2.1,-0.3,-0.4,1000,45,,,,,,,,,,,,,,,,,,,
47434,1490584274209,,,,,,,,-0.0,0.06,0.98,-2.2,-0.2,-0.4,1000,45,,,,,,,,,,,,,,,,,,,
47454,1490584274229,,,,,,,,-0.01,0.06,0.99,-2.2,-0.3,-0.4,1000,45,,,,,,,,,,,,,,,,,,,
47474,1490584274249,0,54.0,,51.7,57,53.4,,-0.01,0.06,0.99,-2.2,-0.3,-0.4,980,43,1,1,22.727,0,37.478451,-122.203789,0.0,0.001,105.1,6,3,1.5,0,0.0,-1,0.0,0.0,0.0,0
47494,1490584274269,,,,,,,,-0.01,0.06,0.99,-2.2,-0.3,-0.4,1000,43,,,,,,,,,,,,,,,,,,,
47514,1490584274289,,,,,,,,-0.02,0.06,0.99,-2.2,-0.3,-0.5,980,45,,,,,,,,,,,,,,,,,,,
47534,1490584274309,,,,,,,,-0.02,0.05,0.99,-2.2,-0.3,-0.5,980,45,,,,,,,,,,,,,,,,,,,
47554,1490584274329,,,,,,,,-0.02,0.06,0.99,-2.2,-0.3,-0.5,980,43,,,,,,,,,,,,,,,,,,,
47574,1490584274349,,,,,56,,,-0.02,0.06,0.99,-2.2,-0.3,-0.5,980,43,1,1,23.256,0,37.478451,-122.203789,0.0,0.001,105.1,6,3,1.5,0,0.0,-1,0.0,0.0,0.0,0
47594,1490584274369,,,,,,,,-0.02,0.06,0.99,-2.2,-0.4,-0.5,980,43,,,,,,,,,,,,,,,,,,,
47614,1490584274389,,,,,,,,-0.03,0.06,1.0,-2.2,-0.4,-0.5,980,43,,,,,,,,,,,,,,,,,,,
47634,1490584274409,,,,,,,,-0.03,0.06,0.99,-2.2,-0.4,-0.5,980,43,,,,,,,,,,,,,,,,,,,
47654,1490584274429,,,,,,,,-0.03,0.06,0.99,-2.2,-0.5,-0.5,960,42,,,,,,,,,,,,,,,,,,,
47674,1490584274449,0,53.2,,51.8,57,53.7,,-0.03,0.06,0.98,-2.2,-0.5,-0.5,960,42,1,1,22.791,0,37.478451,-122.203789,0.0,0.001,105.1,6,3,1.5,0,0.0,-1,0.0,0.0,0.0,0
47694,1490584274469,,,,,,,,-0.03,0.06,0.97,-2.2,-0.6,-0.5,960,42,,,,,,,,,,,,,,,,,,,
47714,1490584274489,,,,,,,,-0.03,0.05,0.97,-2.2,-0.7,-0.5,960,42,,,,,,,,,,,,,,,,,,,
47734,1490584274508,,,,,,,,-0.03,0.05,0.96,-2.2,-0.7,-0.6,960,43,,,,,,,,,,,,,,,,,,,
47754,1490584274528,,,,,,,,-0.03,0.04,0.96,-2.2,-0.7,-0.6,960,43,,,,,,,,,,,,,,,,,,,
