"Interval"|"ms"|0|0|1,"Utc"|"ms"|0|0|1,"FuelLevel"|"F"|0|100|5,"OilTemp"|"F"|0.0|300.0|5,"CoolantPressPSI"|"PSI"|0.0|20.0|1,"Coolant"|"F"|0.0|300.0|5,"OilPress"|"PSI"|0|150|10,"EngineTemp"|"F"|0.0|300.0|5,"Battery"|"Volts"|0.0|20.0|1,"AccelX"|"G"|-3.0|3.0|50,"AccelY"|"G"|-3.0|3.0|50,"AccelZ"|"G"|-3.0|3.0|50,"Yaw"|"Deg/Sec"|-300.0|300.0|50,"Pitch"|"Deg/Sec"|-300.0|300.0|50,"Roll"|"Deg/Sec"|-300.0|300.0|50,"RPM"|""|0|10000|50,"Driveshaft"|"RPM"|0|5000|50,"GPIO1"|""|0|1|10,"GPIO2"|""|0|1|10,"GearRatio"|""|-5.0|5.0|10,"Gear"|""|-1|5|10,"Latitude"|"Degrees"|-180.0|180.0|10,"Longitude"|"Degrees"|-180.0|180.0|10,"Speed"|"mph"|0.0|150.0|10,"Distance"|"mi"|0.0|0.0|10,"Altitude"|"ft"|0.0|4000.0|10,"GPSSats"|""|0|20|10,"GPSQual"|""|0|5|10,"GPSDOP"|""|0.0|20.0|10,"LapCount"|""|0|0|10,"LapTime"|"Min"|0.0|0.0|10,"Sector"|""|0|0|10,"SectorTime"|"Min"|0.0|0.0|10,"PredTime"|"Min"|0.0|0.0|10,"ElapsedTime"|"Min"|0.0|0.0|10,"CurrentLap"|""|0|0|10
19066743,1490575870652,,,,,,,,-0.01,0.1,0.98,-3.0,-0.3,-0.1,360,2,,,,,,,,,,,,,,,,,,,
19066763,1490575870672,,,,,,,,-0.01,0.08,0.97,-3.0,-0.2,-0.3,580,2,,,,,,,,,,,,,,,,,,,
19066783,1490575870692,,,,,,,,-0.01,0.08,0.97,-3.0,-0.2,-0.2,580,2,,,,,,,,,,,,,,,,,,,
19066803,1490575870709,,,,,,,,-0.01,0.09,0.97,-3.1,-0.2,-0.1,720,2,,,,,,,,,,,,,,,,,,,
19066823,1490575870729,0,99.7,-0.6,114.0,1,114.5,11.75,-0.01,0.1,0.97,-3.1,-0.3,0.0,820,2,1,0,820.0,0,38.159203,-122.454247,0.0,2.399,62.5,9,3,1.6,85,2.2017,2,0.2833,78.1856,78.0617,86
19066843,1490575870749,,,,,,,,-0.0,0.11,0.98,-3.1,-0.0,-0.0,860,2,,,,,,,,,,,,,,,,,,,
19066863,1490575870769,,,,,,,,-0.0,0.12,0.98,-3.1,-0.3,-0.1,820,2,,,,,,,,,,,,,,,,,,,
19066883,1490575870791,,,,,,,,-0.01,0.1,0.98,-3.0,-0.4,-0.3,820,2,,,,,,,,,,,,,,,,,,,
19066903,1490575870811,,,,,,,,-0.01,0.1,0.98,-3.0,-0.3,-0.4,780,2,,,,,,,,,,,,,,,,,,,
19066923,1490575870831,,,,,0,,,-0.01,0.1,0.98,-3.0,-0.2,-0.3,740,0,1,0,0.005,0,38.159203,-122.454247,0.0,2.399,62.5,9,3,1.6,85,2.2017,2,0.2833,78.1873,78.0633,86
19066943,1490575870851,,,,,,,,-0.01,0.1,0.98,-3.1,-0.2,-0.2,700,0,,,,,,,,,,,,,,,,,,,
19066963,1490575870871,,,,,,,,-0.0,0.1,0.98,-3.0,-0.2,-0.3,700,0,,,,,,,,,,,,,,,,,,,
19066983,1490575870893,,,,,,,,-0.0,0.1,0.99,-3.1,-0.3,-0.3,660,0,,,,,,,,,,,,,,,,,,,
19067003,1490575870913,,,,,,,,-0.01,0.1,0.99,-3.0,-0.3,-0.2,620,0,,,,,,,,,,,,,,,,,,,
19067023,1490575870933,0,97.4,,113.1,0,113.8,,-0.01,0.09,0.99,-3.0,-0.2,-0.3,620,0,1,0,0.0,0,38.159203,-122.454247,0.0,2.399,62.5,9,3,1.6,85,2.2017,2,0.2833,78.189,78.065,86
19067043,1490575870953,,,,,,,,-0.01,0.1,0.99,-3.1,-0.3,-0.3,580,0,,,,,,,,,,,,,,,,,,,
19067063,1490575870973,,,,,,,,-0.01,0.09,0.99,-3.0,-0.3,-0.2,580,0,,,,,,,,,,,,,,,,,,,
19067083,1490575870993,,,,,,,,-0.01,0.09,0.99,-3.0,-0.2,-0.1,560,0,,,,,,,,,,,,,,,,,,,
19067103,1490575871005,,,,,,,,-0.01,0.1,0.99,-3.0,-0.2,-0.2,620,0,,,,,,,,,,,,,,,,,,,
19067123,1490575871025,,,,,1,,,-0.0,0.1,1.0,-3.1,-0.2,-0.2,620,0,1,0,0.0,0,38.159203,-122.454247,0.0,2.399,62.5,9,3,1.6,85,2.2017,2,0.2833,78.1905,78.0667,86
19067143,1490575871045,,,,,,,,-0.0,0.11,0.99,-3.1,-0.2,-0.2,720,0,,,,,,,,,,,,,,,,,,,
19067163,1490575871065,,,,,,,,-0.0,0.11,0.99,-3.1,-0.3,-0.2,760,0,,,,,,,,,,,,,,,,,,,
19067183,1490575871091,,,,,,,,-0.0,0.12,0.99,-3.1,-0.4,-0.2,740,0,,,,,,,,,,,,,,,,,,,
19067203,1490575871111,,,,,,,,-0.01,0.11,0.99,-3.0,-0.5,-0.3,740,0,,,,,,,,,,,,,,,,,,,
19067223,1490575871131,0,97.1,,112.4,1,112.8,,-0.0,0.11,0.98,-3.1,-0.4,-0.3,720,0,1,0,0.0,0,38.159203,-122.454247,0.0,2.399,62.5,9,3,1.6,85,2.2017,2,0.2833,78.1923,78.0683,86
19067243,1490575871151,,,,,,,,-0.01,0.11,0.98,-3.0,-0.4,-0.2,680,0,,,,,,,,,,,,,,,,,,,
19067263,1490575871171,,,,,,,,-0.0,0.1,0.99,-3.0,-0.4,-0.2,680,0,,,,,,,,,,,,,,,,,,,
19067283,1490575871193,,,,,,,,-0.0,0.1,0.99,-3.1,-0.4,-0.2,720,0,,,,,,,,,,,,,,,,,,,
19067303,1490575871213,,,,,,,,0.0,0.11,0.99,-3.1,-0.3,-0.1,740,0,,,,,,,,,,,,,,,,,,,
19067323,1490575871233,,,,,1,,,0.0,0.11,0.99,-3.1,-0.2,-0.2,760,0,1,0,0.0,0,38.159203,-122.454247,0.0,2.399,62.5,9,3,1.6,85,2.2017,2,0.2833,78.194,78.07,86
19067343,1490575871253,,,,,,,,0.0,0.11,1.0,-3.0,-0.1,-0.2,760,0,,,,,,,,,,,,,,,,,,,
19067363,1490575871273,,,,,,,,-0.0,0.11,1.0,-3.1,-0.2,-0.1,760,0,,,,,,,,,,,,,,,,,,,
19067383,1490575871293,,,,,,,,0.0,0.11,0.99,-3.1,-0.1,-0.1,780,0,,,,,,,,,,,,,,,,,,,
19067403,1490575871313,,,,,,,,-0.0,0.11,1.0,-3.0,-0.2,-0.1,800,0,,,,,,,,,,,,,,,,,,,
19067423,1490575871333,0,99.4,,114.0,2,114.6,,-0.0,0.11,0.99,-3.0,-0.2,-0.2,820,0,1,0,0.0,0,38.159203,-122.454247,0.0,2.399,62.5,9,3,1.6,85,2.2017,2,0.2833,78.1957,78.0717,86
19067443,1490575871353,,,,,,,,-0.01,0.1,1.0,-3.0,-0.2,-0.3,860,0,,,,,,,,,,,,,,,,,,,
19067463,1490575871373,,,,,,,,-0.0,0.1,0.99,-3.0,-0.2,-0.3,880,0,,,,,,,,,,,,,,,,,,,
19067483,1490575871393,,,,,,,,-0.0,0.1,0.99,-3.1,-0.1,-0.2,880,0,,,,,,,,,,,,,,,,,,,
19067503,1490575871413,,,,,,,,0.0,0.1,0.99,-3.1,-0.1,-0.2,880,0,,,,,,,,,,,,,,,,,,,
19067523,1490575871433,,,,,2,,,0.0,0.11,0.99,-3.1,-0.2,-0.1,900,0,1,0,0.0,0,38.159203,-122.454247,0.0,2.399,62.5,9,3,1.6,85,2.2017,2,0.2833,78.1973,78.0733,86
19067543,1490575871453,,,,,,,,0.0,0.12,0.99,-3.1,-0.2,-0.1,880,0,,,,,,,,,,,,,,,,,,,
19067563,1490575871473,,,,,,,,0.0,0.11,1.0,-3.1,-0.1,-0.1,920,0,,,,,,,,,,,,,,,,,,,
19067583,1490575871493,,,,,,,,0.0,0.11,1.0,-3.1,-0.2,-0.2,940,0,,,,,,,,,,,,,,,,,,,
19067603,1490575871513,,,,,,,,-0.0,0.11,0.99,-3.1,-0.3,-0.3,960,0,,,,,,,,,,,,,,,,,,,
19067623,1490575871533,0,97.2,,112.9,2,113.7,,-0.0,0.1,0.99,-3.0,-0.4,-0.4,960,0,1,0,0.0,0,38.159203,-122.454247,0.0,2.399,62.5,9,3,1.6,85,2.2017,2,0.2833,78.199,78.075,86
19067643,1490575871553,,,,,,,,-0.0,0.09,0.99,-3.0,-0.3,-0.4,960,0,,,,,,,,,,,,,,,,,,,
19067663,1490575871573,,,,,,,,-0.01,0.08,0.98,-3.0,-0.3,-0.4,960,0,,,,,,,,,,,,,,,,,,,
19067683,1490575871592,,,,,,,,-0.01,0.08,0.99,-3.0,-0.2,-0.4,960,0,,,,,,,,,,,,,,,,,,,
19067703,1490575871612,,,,,,,,-0.01,0.07,0.99,-3.0,-0.1,-0.4,980,0,,,,,,,,,,,,,,,,,,,
19067723,1490575871632,,,,,2,,,-0.01,0.07,0.99,-3.0,0.0,-0.5,980,0,1,0,0.0,0,38.159203,-122.454247,0.0,2.399,62.5,9,3,1.6,85,2.2017,2,0.2833,78.2007,78.0767,86
19067743,1490575871652,,,,,,,,-0.0,0.07,0.99,-3.0,0.2,-0.5,980,0,,,,,,,,,,,,,,,,,,,
19067763,1490575871672,,,,,,,,-0.0,0.07,0.99,-3.0,0.2,-0.4,980,0,,,,,,,,,,,,,,,,,,,
19067783,1490575871692,,,,,,,,-0.0,0.07,0.98,-3.1,0.2,-0.4,980,0,,,,,,,,,,,,,,,,,,,
19067803,1490575871712,,,,,,,,-0.0,0.07,0.98,-3.1,0.2,-0.3,980,0,,,,,,,,,,,,,,,,,,,
19067823,1490575871732,1,97.4,-0.4,112.1,3,113.0,14.68,-0.0,0.07,0.98,-3.1,0.2,-0.2,980,0,1,0,0.0,0,38.159203,-122.454247,0.0,2.399,62.5,9,3,1.6,85,2.2017,2,0.2833,78.2023,78.0783,86
19067843,1490575871752,,,,,,,,0.0,0.07,0.98,-3.1,0.1,-0.2,980,0,,,,,,,,,,,,,,,,,,,
19067863,1490575871772,,,,,,,,0.0,0.08,0.98,-3.1,0.1,-0.2,980,0,,,,,,,,,,,,,,,,,,,
19067883,1490575871792,,,,,,,,0.0,0.08,0.98,-3.1,0.0,-0.1,980,0,,,,,,,,,,,,,,,,,,,
19067903,1490575871812,,,,,,,,0.0,0.08,0.98,-3.1,-0.1,-0.1,980,0,,,,,,,,,,,,,,,,,,,
19067923,1490575871832,,,,,2,,,0.01,0.09,0.98,-3.2,-0.1,-0.0,960,0,1,0,0.0,0,38.159203,-122.454247,0.0,2.399,62.5,9,3,1.6,85,2.2017,2,0.2833,78.204,78.08,86
19067943,1490575871852,,,,,,,,0.01,0.09,0.98,-3.2,-0.2,0.0,960,0,,,,,,,,,,,,,,,,,,,
19067963,1490575871872,,,,,,,,0.01,0.09,0.98,-3.2,-0.2,0.0,960,0,,,,,,,,,,,,,,,,,,,
19067983,1490575871892,,,,,,,,0.01,0.1,0.99,-3.2,-0.2,0.0,960,0,,,,,,,,,,,,,,,,,,,
19068003,1490575871912,,,,,,,,0.01,0.1,0.99,-3.2,-0.2,0.1,960,0,,,,,,,,,,,,,,,,,,,
19068023,1490575871932,0,97.9,,112.0,2,112.8,,0.01,0.1,0.99,-3.2,-0.2,0.1,960,0,1,0,0.0,0,38.159203,-122.454247,0.0,2.399,62.5,9,3,1.6,85,2.2017,2,0.2833,78.2057,78.0817,86
19068043,1490575871952,,,,,,,,0.01,0.11,0.99,-3.2,-0.2,0.1,940,0,,,,,,,,,,,,,,,,,,,
19068063,1490575871972,,,,,,,,0.01,0.11,1.0,-3.2,-0.1,0.1,940,0,,,,,,,,,,,,,,,,,,,
19068083,1490575871992,,,,,,,,0.01,0.11,1.0,-3.2,-0.2,0.1,940,0,,,,,,,,,,,,,,,,,,,
19068103,1490575872006,,,,,,,,0.01,0.12,0.99,-3.2,-0.3,0.1,920,0,,,,,,,,,,,,,,,,,,,
19068123,1490575872026,,,,,2,,,0.01,0.12,1.0,-3.2,-0.3,0.0,920,0,1,0,0.0,0,38.159203,-122.454247,0.0,2.399,62.5,9,3,1.6,85,2.2017,2,0.2833,78.2072,78.0833,86
19068143,1490575872046,,,,,,,,0.01,0.12,1.01,-3.1,-0.3,-0.0,920,0,,,,,,,,,,,,,,,,,,,
19068163,1490575872066,,,,,,,,0.01,0.12,1.0,-3.1,-0.2,-0.1,900,0,,,,,,,,,,,,,,,,,,,
19068183,1490575872092,,,,,,,,0.01,0.12,1.0,-3.1,-0.3,-0.1,900,0,,,,,,,,,,,,,,,,,,,
19068203,1490575872112,,,,,,,,0.0,0.11,1.0,-3.1,-0.4,-0.2,900,0,,,,,,,,,,,,,,,,,,,
19068223,1490575872132,0,99.0,,113.1,3,113.7,,0.0,0.1,1.0,-3.1,-0.3,-0.3,900,0,1,0,0.0,0,38.159203,-122.454247,0.0,2.399,62.5,9,3,1.6,85,2.2017,2,0.2833,78.209,78.085,86
19068243,1490575872152,,,,,,,,0.0,0.1,1.0,-3.1,-0.1,-0.3,880,0,,,,,,,,,,,,,,,,,,,
19068263,1490575872172,,,,,,,,0.0,0.1,1.0,-3.1,-0.2,-0.3,880,0,,,,,,,,,,,,,,,,,,,
19068283,1490575872192,,,,,,,,-0.0,0.09,1.0,-3.1,-0.2,-0.3,880,0,,,,,,,,,,,,,,,,,,,
19068303,1490575872212,,,,,,,,0.0,0.1,0.99,-3.1,-0.1,-0.2,860,0,,,,,,,,,,,,,,,,,,,
19068323,1490575872232,,,,,3,,,0.0,0.1,0.99,-3.1,-0.2,-0.2,860,0,1,1,0.0,0,38.159203,-122.454247,0.0,2.399,62.5,9,3,1.6,85,2.2017,2,0.2833,78.2106,78.0867,86
19068343,1490575872252,,,,,,,,0.0,0.1,1.0,-3.1,-0.1,-0.2,860,0,,,,,,,,,,,,,,,,,,,
19068363,1490575872272,,,,,,,,0.0,0.1,0.99,-3.1,-0.3,-0.3,840,0,,,,,,,,,,,,,,,,,,,
19068383,1490575872292,,,,,,,,-0.0,0.09,1.0,-3.0,-0.3,-0.4,840,0,,,,,,,,,,,,,,,,,,,
19068403,1490575872312,,,,,,,,-0.0,0.09,0.99,-3.0,-0.3,-0.4,840,0,,,,,,,,,,,,,,,,,,,
19068423,1490575872332,0,97.1,,113.1,3,114.0,,-0.0,0.09,0.99,-3.1,-0.3,-0.3,840,0,1,1,0.0,0,38.159203,-122.454247,0.0,2.399,62.5,9,3,1.6,85,2.2017,2,0.2833,78.2123,78.0883,86
19068443,1490575872352,,,,,,,,-0.0,0.09,0.99,-3.1,-0.2,-0.2,840,0,,,,,,,,,,,,,,,,,,,
19068463,1490575872372,,,,,,,,-0.0,0.1,0.98,-3.1,-0.3,-0.1,840,0,,,,,,,,,,,,,,,,,,,
19068483,1490575872392,,,,,,,,-0.0,0.1,0.99,-3.1,-0.2,-0.2,840,0,,,,,,,,,,,,,,,,,,,
19068503,1490575872412,,,,,,,,-0.0,0.1,0.98,-3.0,-0.3,-0.3,820,0,,,,,,,,,,,,,,,,,,,
19068523,1490575872432,,,,,4,,,-0.01,0.09,0.99,-3.0,-0.2,-0.4,820,0,1,1,0.0,0,38.159203,-122.454247,0.0,2.399,62.5,9,3,1.6,85,2.2017,2,0.2833,78.214,78.09,86
19068543,1490575872452,,,,,,,,-0.0,0.09,0.99,-3.0,-0.2,-0.3,820,0,,,,,,,,,,,,,,,,,,,
19068563,1490575872472,,,,,,,,-0.0,0.09,0.98,-3.0,-0.1,-0.2,820,0,,,,,,,,,,,,,,,,,,,
19068583,1490575872494,,,,,,,,-0.0,0.1,0.99,-3.0,-0.2,-0.2,800,0,,,,,,,,,,,,,,,,,,,
19068603,1490575872514,,,,,,,,-0.0,0.1,0.99,-3.0,-0.1,-0.2,800,0,,,,,,,,,,,,,,,,,,,
19068623,1490575872534,0,99.4,,115.1,4,115.4,,-0.0,0.09,0.99,-3.0,-0.2,-0.3,800,0,1,1,0.0,0,38.159203,-122.454247,0.0,2.399,62.5,9,3,1.6,85,2.2017,2,0.2833,78.2157,78.0917,86
19068643,1490575872554,,,,,,,,-0.0,0.09,0.99,-3.0,-0.2,-0.3,800,0,,,,,,,,,,,,,,,,,,,
19068663,1490575872574,,,,,,,,-0.0,0.09,0.99,-3.0,-0.2,-0.2,820,0,,,,,,,,,,,,,,,,,,,
19068683,1490575872594,,,,,,,,0.0,0.1,0.99,-3.1,-0.2,-0.2,800,0,,,,,,,,,,,,,,,,,,,
19068703,1490575872614,,,,,,,,0.0,0.09,0.99,-3.1,-0.1,-0.2,800,0,,,,,,,,,,,,,,,,,,,
19068723,1490575872634,,,,,5,,,-0.0,0.1,0.99,-3.0,-0.1,-0.2,800,0,1,1,0.0,0,38.159203,-122.454247,0.0,2.399,62.5,9,3,1.6,85,2.2017,2,0.2833,78.2173,78.0933,86
19068743,1490575872654,,,,,,,,-0.0,0.09,0.99,-3.0,-0.1,-0.3,800,0,,,,,,,,,,,,,,,,,,,
19068763,1490575872674,,,,,,,,-0.0,0.09,0.99,-3.0,-0.2,-0.2,800,0,,,,,,,,,,,,,,,,,,,
19068783,1490575872693,,,,,,,,0.0,0.1,0.99,-3.1,-0.1,-0.2,800,0,,,,,,,,,,,,,,,,,,,
19068803,1490575872713,,,,,,,,-0.0,0.1,0.99,-3.1,-0.2,-0.1,800,0,,,,,,,,,,,,,,,,,,,
19068823,1490575872733,0,97.2,-0.4,113.2,4,113.8,13.39,-0.0,0.1,0.99,-3.0,-0.1,-0.2,800,0,1,1,0.0,0,38.159203,-122.454247,0.0,2.399,62.5,9,3,1.6,85,2.2017,2,0.2833,78.219,78.095,86
19068843,1490575872753,,,,,,,,-0.0,0.1,1.0,-3.0,-0.1,-0.3,800,0,,,,,,,,,,,,,,,,,,,
19068863,1490575872773,,,,,,,,0.0,0.1,0.99,-3.0,-0.1,-0.3,800,0,,,,,,,,,,,,,,,,,,,
19068883,1490575872793,,,,,,,,0.0,0.1,0.99,-3.1,-0.0,-0.2,800,0,,,,,,,,,,,,,,,,,,,
19068903,1490575872813,,,,,,,,0.0,0.1,0.99,-3.1,-0.1,-0.1,800,0,,,,,,,,,,,,,,,,,,,
19068923,1490575872833,,,,,9,,,0.0,0.1,0.99,-3.0,-0.1,-0.2,800,0,1,1,0.0,0,38.159203,-122.454247,0.0,2.399,62.5,9,3,1.6,85,2.2017,2,0.2833,78.2207,78.0967,86
19068943,1490575872853,,,,,,,,0.0,0.1,0.99,-3.0,-0.1,-0.3,800,0,,,,,,,,,,,,,,,,,,,
19068963,1490575872873,,,,,,,,0.0,0.09,0.99,-3.0,-0.1,-0.3,800,0,,,,,,,,,,,,,,,,,,,
19068983,1490575872893,,,,,,,,0.0,0.1,0.99,-3.0,-0.1,-0.3,800,0,,,,,,,,,,,,,,,,,,,
19069003,1490575872913,,,,,,,,0.01,0.1,0.99,-3.1,-0.0,-0.2,800,0,,,,,,,,,,,,,,,,,,,
19069023,1490575872933,0,97.1,,112.4,11,113.2,,0.0,0.1,1.0,-3.1,-0.0,-0.2,800,0,1,1,0.0,0,38.159203,-122.454247,0.0,2.399,62.5,9,3,1.6,85,2.2017,2,0.2833,78.2223,78.0983,86
19069043,1490575872953,,,,,,,,0.0,0.1,0.99,-3.0,-0.1,-0.3,800,0,,,,,,,,,,,,,,,,,,,
19069063,1490575872973,,,,,,,,-0.0,0.09,0.99,-3.0,-0.2,-0.4,820,0,,,,,,,,,,,,,,,,,,,
19069083,1490575872993,,,,,,,,-0.0,0.09,0.99,-3.0,-0.1,-0.4,820,0,,,,,,,,,,,,,,,,,,,
19069103,1490575873005,,,,,,,,0.0,0.1,0.99,-3.0,-0.1,-0.3,820,0,,,,,,,,,,,,,,,,,,,
19069123,1490575873025,,,,,13,,,0.0,0.1,0.99,-3.1,-0.2,-0.2,820,0,1,1,0.0,0,38.159203,-122.454247,0.0,2.399,62.5,9,3,1.6,85,2.2017,2,0.2833,78.2239,78.1,86
19069143,1490575873045,,,,,,,,0.0,0.1,1.0,-3.0,-0.0,-0.3,820,0,,,,,,,,,,,,,,,,,,,
19069163,1490575873065,,,,,,,,-0.0,0.1,1.0,-3.0,-0.1,-0.4,800,0,,,,,,,,,,,,,,,,,,,
19069183,1490575873091,,,,,,,,-0.0,0.1,0.99,-3.0,-0.1,-0.4,800,0,,,,,,,,,,,,,,,,,,,
19069203,1490575873111,,,,,,,,-0.0,0.1,0.99,-3.0,-0.2,-0.3,820,0,,,,,,,,,,,,,,,,,,,
19069223,1490575873131,0,99.1,,113.7,16,112.3,,0.0,0.1,0.99,-3.1,-0.1,-0.2,820,0,1,1,0.0,0,38.159203,-122.454247,0.0,2.399,62.5,9,3,1.6,85,2.2017,2,0.2833,78.2256,78.1017,86
19069243,1490575873151,,,,,,,,0.0,0.1,0.99,-3.1,-0.2,-0.2,820,0,,,,,,,,,,,,,,,,,,,
19069263,1490575873171,,,,,,,,0.0,0.1,0.99,-3.0,-0.2,-0.3,820,0,,,,,,,,,,,,,,,,,,,
19069283,1490575873193,,,,,,,,-0.0,0.1,1.0,-3.0,-0.2,-0.4,820,0,,,,,,,,,,,,,,,,,,,
19069303,1490575873213,,,,,,,,0.0,0.1,0.99,-3.0,-0.1,-0.3,820,0,,,,,,,,,,,,,,,,,,,
19069323,1490575873233,,,,,20,,,0.0,0.1,0.99,-3.0,-0.1,-0.3,800,0,1,1,0.0,0,38.159203,-122.454247,0.0,2.399,62.5,9,3,1.6,85,2.2017,2,0.2833,78.2273,78.1033,86
19069343,1490575873253,,,,,,,,0.01,0.1,0.99,-3.1,-0.2,-0.2,820,0,,,,,,,,,,,,,,,,,,,
19069363,1490575873273,,,,,,,,0.0,0.1,1.0,-3.0,-0.1,-0.2,820,0,,,,,,,,,,,,,,,,,,,
19069383,1490575873293,,,,,,,,0.0,0.1,0.99,-3.0,-0.2,-0.3,820,0,,,,,,,,,,,,,,,,,,,
19069403,1490575873313,,,,,,,,-0.0,0.09,1.0,-3.0,-0.2,-0.4,820,0,,,,,,,,,,,,,,,,,,,
19069423,1490575873333,0,97.0,,112.4,25,113.7,,0.0,0.09,0.99,-3.0,-0.2,-0.3,820,0,1,1,0.0,0,38.159203,-122.454247,0.0,2.399,62.5,9,3,1.6,85,2.2017,2,0.2833,78.229,78.105,86
19069443,1490575873353,,,,,,,,0.0,0.09,0.99,-3.0,-0.1,-0.3,820,0,,,,,,,,,,,,,,,,,,,
19069463,1490575873373,,,,,,,,0.0,0.1,0.99,-3.0,-0.1,-0.2,800,0,,,,,,,,,,,,,,,,,,,
19069483,1490575873393,,,,,,,,0.0,0.1,1.0,-3.0,-0.0,-0.2,820,0,,,,,,,,,,,,,,,,,,,
19069503,1490575873413,,,,,,,,-0.0,0.1,1.0,-3.0,-0.2,-0.3,820,0,,,,,,,,,,,,,,,,,,,
19069523,1490575873433,,,,,30,,,-0.0,0.09,1.0,-3.0,-0.1,-0.4,820,0,1,1,0.0,0,38.159203,-122.454247,0.0,2.399,62.5,9,3,1.6,85,2.2017,2,0.2833,78.2307,78.1067,86
19069543,1490575873453,,,,,,,,-0.0,0.09,1.0,-3.0,-0.1,-0.2,820,0,,,,,,,,,,,,,,,,,,,
19069563,1490575873473,,,,,,,,0.0,0.09,1.0,-3.0,-0.1,-0.2,820,0,,,,,,,,,,,,,,,,,,,
19069583,1490575873493,,,,,,,,-0.0,0.09,1.0,-3.0,-0.2,-0.1,820,0,,,,,,,,,,,,,,,,,,,
19069603,1490575873513,,,,,,,,0.0,0.1,0.99,-3.0,-0.2,-0.2,820,0,,,,,,,,,,,,,,,,,,,
19069623,1490575873533,0,97.1,,112.7,37,114.2,,-0.0,0.09,0.99,-3.0,-0.2,-0.3,820,0,1,1,0.0,0,38.159203,-122.454247,0.0,2.399,62.5,9,3,1.6,85,2.2017,2,0.2833,78.2323,78.1083,86
19069643,1490575873553,,,,,,,,-0.0,0.09,0.99,-3.0,-0.1,-0.3,820,0,,,,,,,,,,,,,,,,,,,
19069663,1490575873573,,,,,,,,-0.0,0.09,0.99,-3.0,-0.1,-0.2,820,0,,,,,,,,,,,,,,,,,,,
19069683,1490575873593,,,,,,,,0.0,0.09,0.99,-3.1,-0.1,-0.2,820,0,,,,,,,,,,,,,,,,,,,
19069703,1490575873613,,,,,,,,0.0,0.09,0.99,-3.1,-0.1,-0.2,800,0,,,,,,,,,,,,,,,,,,,
19069723,1490575873633,,,,,44,,,0.0,0.1,0.98,-3.1,-0.2,-0.3,800,0,1,1,0.0,0,38.159203,-122.454247,0.0,2.399,62.5,9,3,1.6,85,2.2017,2,0.2833,78.234,78.11,86
19069743,1490575873653,,,,,,,,-0.0,0.09,0.99,-3.0,-0.2,-0.4,800,0,,,,,,,,,,,,,,,,,,,
19069763,1490575873673,,,,,,,,-0.0,0.09,0.99,-3.0,-0.2,-0.3,800,0,,,,,,,,,,,,,,,,,,,
19069783,1490575873692,,,,,,,,0.0,0.09,0.99,-3.0,-0.1,-0.2,800,0,,,,,,,,,,,,,,,,,,,
19069803,1490575873712,,,,,,,,-0.0,0.09,0.99,-3.0,-0.2,-0.2,800,0,,,,,,,,,,,,,,,,,,,
19069823,1490575873732,0,97.1,-0.4,113.0,47,114.7,13.51,0.0,0.1,0.99,-3.0,-0.1,-0.3,800,0,1,1,0.0,0,38.159203,-122.454247,0.0,2.399,62.5,9,3,1.6,85,2.2017,2,0.2833,78.2356,78.1117,86
19069843,1490575873752,,,,,,,,-0.0,0.09,0.99,-3.0,-0.2,-0.3,800,0,,,,,,,,,,,,,,,,,,,
19069863,1490575873772,,,,,,,,-0.0,0.09,0.99,-3.0,-0.2,-0.3,800,0,,,,,,,,,,,,,,,,,,,
19069883,1490575873792,,,,,,,,-0.0,0.09,0.99,-3.0,-0.1,-0.3,800,0,,,,,,,,,,,,,,,,,,,
19069903,1490575873812,,,,,,,,-0.0,0.1,0.99,-3.0,-0.2,-0.2,800,0,,,,,,,,,,,,,,,,,,,
19069923,1490575873832,,,,,52,,,-0.0,0.1,0.99,-3.0,-0.1,-0.3,800,0,1,1,0.0,0,38.159203,-122.454247,0.0,2.399,62.5,9,3,1.6,85,2.2017,2,0.2833,78.2373,78.1133,86
19069943,1490575873852,,,,,,,,-0.0,0.1,0.99,-3.0,-0.2,-0.4,800,0,,,,,,,,,,,,,,,,,,,
19069963,1490575873872,,,,,,,,-0.0,0.09,0.99,-3.0,-0.2,-0.4,800,0,,,,,,,,,,,,,,,,,,,
19069983,1490575873892,,,,,,,,-0.0,0.09,0.99,-3.0,-0.2,-0.3,800,0,,,,,,,,,,,,,,,,,,,
19070003,1490575873912,,,,,,,,0.0,0.1,0.99,-3.0,-0.2,-0.2,800,0,,,,,,,,,,,,,,,,,,,
19070023,1490575873932,0,97.2,,113.4,55,114.8,,0.0,0.1,0.99,-3.0,-0.1,-0.2,800,0,1,1,0.0,0,38.159203,-122.454247,0.0,2.399,62.5,9,3,1.6,85,2.2017,2,0.2833,78.239,78.115,86
19070043,1490575873952,,,,,,,,-0.0,0.1,0.99,-3.0,-0.2,-0.3,800,0,,,,,,,,,,,,,,,,,,,
19070063,1490575873972,,,,,,,,-0.0,0.09,0.99,-3.0,-0.2,-0.3,800,0,,,,,,,,,,,,,,,,,,,
19070083,1490575873992,,,,,,,,-0.0,0.09,0.99,-3.1,-0.2,-0.2,800,0,,,,,,,,,,,,,,,,,,,
19070103,1490575874006,,,,,,,,0.0,0.1,0.99,-3.1,-0.1,-0.1,800,0,,,,,,,,,,,,,,,,,,,
19070123,1490575874026,,,,,54,,,0.0,0.1,0.99,-3.1,-0.2,-0.1,800,0,1,1,0.0,0,38.159203,-122.454247,0.0,2.399,62.5,9,3,1.6,85,2.2017,2,0.2833,78.2405,78.1167,86
19070143,1490575874046,,,,,,,,0.0,0.1,0.99,-3.0,-0.2,-0.2,800,0,,,,,,,,,,,,,,,,,,,
19070163,1490575874066,,,,,,,,-0.0,0.1,0.99,-3.0,-0.2,-0.3,800,0,,,,,,,,,,,,,,,,,,,
19070183,1490575874092,,,,,,,,-0.0,0.1,0.99,-3.0,-0.2,-0.3,800,0,,,,,,,,,,,,,,,,,,,
19070203,1490575874112,,,,,,,,0.0,0.1,0.99,-3.0,-0.1,-0.2,800,0,,,,,,,,,,,,,,,,,,,
19070223,1490575874132,0,99.7,,114.6,55,113.5,,-0.0,0.1,0.99,-3.1,-0.3,-0.1,800,0,1,1,0.0,0,38.159203,-122.454247,0.0,2.399,62.5,9,3,1.6,85,2.2017,2,0.2833,78.2423,78.1183,86
19070243,1490575874152,,,,,,,,-0.0,0.1,0.99,-3.0,-0.3,-0.2,800,0,,,,,,,,,,,,,,,,,,,
19070263,1490575874172,,,,,,,,-0.0,0.1,0.99,-3.0,-0.3,-0.3,800,0,,,,,,,,,,,,,,,,,,,
19070283,1490575874194,,,,,,,,-0.0,0.09,0.99,-3.0,-0.2,-0.3,800,0,,,,,,,,,,,,,,,,,,,
19070303,1490575874214,,,,,,,,0.0,0.09,0.99,-3.0,-0.2,-0.2,800,0,,,,,,,,,,,,,,,,,,,
19070323,1490575874234,,,,,55,,,0.0,0.1,0.99,-3.1,-0.3,-0.2,800,0,1,1,0.0,0,38.159203,-122.454247,0.0,2.399,62.5,9,3,1.6,85,2.2017,2,0.2833,78.244,78.12,86
19070343,1490575874254,,,,,,,,0.0,0.1,0.99,-3.0,-0.2,-0.2,800,0,,,,,,,,,,,,,,,,,,,
19070363,1490575874274,,,,,,,,0.0,0.1,0.99,-3.0,-0.2,-0.3,800,0,,,,,,,,,,,,,,,,,,,
19070383,1490575874294,,,,,,,,0.0,0.09,0.99,-3.0,-0.2,-0.3,800,0,,,,,,,,,,,,,,,,,,,
19070403,1490575874314,,,,,,,,0.0,0.09,0.99,-3.1,-0.2,-0.2,800,0,,,,,,,,,,,,,,,,,,,
19070423,1490575874334,0,97.1,,112.3,56,113.7,,0.01,0.1,0.99,-3.1,-0.1,-0.1,800,0,1,1,0.0,0,38.159203,-122.454247,0.0,2.399,62.5,9,3,1.6,85,2.2017,2,0.2833,78.2457,78.1217,86
19070443,1490575874354,,,,,,,,0.0,0.1,1.0,-3.1,-0.1,-0.1,800,0,,,,,,,,,,,,,,,,,,,
19070463,1490575874374,,,,,,,,0.01,0.1,0.99,-3.1,-0.1,-0.2,800,0,,,,,,,,,,,,,,,,,,,
19070483,1490575874394,,,,,,,,0.0,0.09,1.0,-3.1,-0.2,-0.3,800,0,,,,,,,,,,,,,,,,,,,
19070503,1490575874414,,,,,,,,0.0,0.1,0.99,-3.1,-0.2,-0.2,800,0,,,,,,,,,,,,,,,,,,,
19070523,1490575874434,,,,,53,,,0.0,0.1,0.99,-3.1,-0.0,-0.2,800,0,1,1,0.0,0,38.159203,-122.454247,0.0,2.399,62.5,9,3,1.6,85,2.2017,2,0.2833,78.2474,78.1233,86
19070543,1490575874454,,,,,,,,0.0,0.1,0.99,-3.1,-0.1,-0.1,800,0,,,,,,,,,,,,,,,,,,,
19070563,1490575874474,,,,,,,,0.0,0.1,0.99,-3.0,-0.1,-0.2,800,0,,,,,,,,,,,,,,,,,,,
19070583,1490575874494,,,,,,,,0.0,0.1,0.99,-3.0,-0.2,-0.3,800,0,,,,,,,,,,,,,,,,,,,
19070603,1490575874514,,,,,,,,-0.0,0.1,1.0,-3.0,-0.2,-0.3,800,0,,,,,,,,,,,,,,,,,,,
19070623,1490575874534,0,99.1,,113.5,55,112.7,,0.0,0.1,0.99,-3.0,-0.1,-0.3,800,0,1,1,0.0,0,38.159203,-122.454247,0.0,2.399,62.5,9,3,1.6,85,2.2017,2,0.2833,78.249,78.125,86
19070643,1490575874554,,,,,,,,0.0,0.1,0.99,-3.1,-0.1,-0.2,780,0,,,,,,,,,,,,,,,,,,,
19070663,1490575874574,,,,,,,,-0.0,0.1,0.99,-3.1,-0.1,-0.3,800,0,,,,,,,,,,,,,,,,,,,
19070683,1490575874593,,,,,,,,-0.0,0.1,0.99,-3.0,-0.2,-0.4,800,0,,,,,,,,,,,,,,,,,,,
19070703,1490575874613,,,,,,,,-0.0,0.1,0.99,-3.0,-0.2,-0.4,800,0,,,,,,,,,,,,,,,,,,,
19070723,1490575874633,,,,,55,,,-0.0,0.1,0.99,-3.1,-0.1,-0.3,800,0,1,1,0.0,0,38.159203,-122.454247,0.0,2.399,62.5,9,3,1.6,85,2.2017,2,0.2833,78.2507,78.1267,86
19070743,1490575874653,,,,,,,,0.0,0.1,0.99,-3.1,-0.2,-0.2,800,0,,,,,,,,,,,,,,,,,,,
19070763,1490575874673,,,,,,,,0.0,0.11,0.99,-3.1,-0.1,-0.3,800,0,,,,,,,,,,,,,,,,,,,
19070783,1490575874693,,,,,,,,0.0,0.1,1.0,-3.1,-0.2,-0.3,780,0,,,,,,,,,,,,,,,,,,,
19070803,1490575874709,,,,,,,,-0.0,0.1,0.99,-3.1,-0.2,-0.3,780,0,,,,,,,,,,,,,,,,,,,
19070823,1490575874729,0,98.0,-0.4,114.5,55,115.3,13.56,-0.0,0.1,0.99,-3.1,-0.1,-0.3,800,0,1,1,0.0,0,38.159203,-122.454247,0.0,2.399,62.5,9,3,1.6,85,2.2017,2,0.2833,78.2523,78.1283,86
19070843,1490575874749,,,,,,,,0.0,0.1,0.99,-3.1,-0.2,-0.2,800,0,,,,,,,,,,,,,,,,,,,
19070863,1490575874769,,,,,,,,0.0,0.1,0.99,-3.0,-0.1,-0.2,800,0,,,,,,,,,,,,,,,,,,,
19070883,1490575874793,,,,,,,,0.0,0.1,0.99,-3.0,-0.2,-0.3,800,0,,,,,,,,,,,,,,,,,,,
19070903,1490575874813,,,,,,,,-0.0,0.1,0.99,-3.0,-0.2,-0.3,800,0,,,,,,,,,,,,,,,,,,,
19070923,1490575874833,,,,,55,,,0.0,0.1,0.99,-3.0,-0.1,-0.3,800,0,1,1,0.0,0,38.159203,-122.454247,0.0,2.399,62.5,9,3,1.6,85,2.2017,2,0.2833,78.254,78.13,86
19070943,1490575874853,,,,,,,,0.0,0.1,0.99,-3.1,-0.2,-0.2,780,0,,,,,,,,,,,,,,,,,,,
19070963,1490575874873,,,,,,,,0.0,0.11,0.99,-3.0,-0.2,-0.2,780,0,,,,,,,,,,,,,,,,,,,
19070983,1490575874893,,,,,,,,-0.0,0.1,0.99,-3.0,-0.2,-0.3,800,0,,,,,,,,,,,,,,,,,,,
19071003,1490575874913,,,,,,,,-0.0,0.1,0.99,-3.0,-0.2,-0.4,800,0,,,,,,,,,,,,,,,,,,,
19071023,1490575874933,0,97.1,,112.6,56,113.8,,0.0,0.1,0.99,-3.1,-0.2,-0.3,800,0,1,1,0.0,0,38.159203,-122.454247,0.0,2.399,62.5,9,3,1.6,85,2.2017,2,0.2833,78.2557,78.1317,86
19071043,1490575874953,,,,,,,,0.0,0.1,0.99,-3.1,-0.2,-0.2,800,0,,,,,,,,,,,,,,,,,,,
19071063,1490575874973,,,,,,,,0.0,0.11,0.99,-3.1,-0.1,-0.2,800,0,,,,,,,,,,,,,,,,,,,
19071083,1490575874993,,,,,,,,0.0,0.1,0.99,-3.0,-0.1,-0.3,780,0,,,,,,,,,,,,,,,,,,,
19071103,1490575875005,,,,,,,,0.0,0.1,0.99,-3.0,-0.2,-0.3,780,0,,,,,,,,,,,,,,,,,,,
19071123,1490575875025,,,,,54,,,0.0,0.1,0.99,-3.0,-0.2,-0.2,780,0,1,1,0.0,0,38.159203,-122.454247,0.0,2.399,62.5,9,3,1.6,85,2.2017,2,0.2833,78.2572,78.1333,86
19071143,1490575875045,,,,,,,,0.0,0.11,0.99,-3.1,-0.2,-0.2,800,0,,,,,,,,,,,,,,,,,,,
19071163,1490575875065,,,,,,,,0.0,0.11,0.99,-3.1,-0.2,-0.2,800,0,,,,,,,,,,,,,,,,,,,
19071183,1490575875093,,,,,,,,0.0,0.1,0.99,-3.0,-0.2,-0.3,800,0,,,,,,,,,,,,,,,,,,,
19071203,1490575875113,,,,,,,,0.0,0.1,0.99,-3.0,-0.3,-0.4,800,0,,,,,,,,,,,,,,,,,,,
19071223,1490575875133,0,99.4,,114.3,55,112.6,,0.0,0.1,0.99,-3.0,-0.2,-0.3,800,0,1,1,0.0,0,38.159203,-122.454247,0.0,2.399,62.5,9,3,1.6,85,2.2017,2,0.2833,78.259,78.135,86
19071243,1490575875153,,,,,,,,0.0,0.1,0.99,-3.1,-0.3,-0.2,780,0,,,,,,,,,,,,,,,,,,,
19071263,1490575875173,,,,,,,,0.0,0.1,0.99,-3.0,-0.2,-0.3,780,0,,,,,,,,,,,,,,,,,,,
19071283,1490575875193,,,,,,,,0.0,0.1,0.99,-3.0,-0.2,-0.3,780,0,,,,,,,,,,,,,,,,,,,
19071303,1490575875213,,,,,,,,0.0,0.09,0.99,-3.0,-0.2,-0.4,780,0,,,,,,,,,,,,,,,,,,,
19071323,1490575875233,,,,,54,,,0.0,0.09,0.99,-3.0,-0.2,-0.3,800,0,1,1,0.0,0,38.159203,-122.454247,0.0,2.399,62.5,9,3,1.6,85,2.2017,2,0.2833,78.2607,78.1367,86
19071343,1490575875253,,,,,,,,0.0,0.1,0.99,-3.0,-0.2,-0.2,780,0,,,,,,,,,,,,,,,,,,,
19071363,1490575875273,,,,,,,,0.0,0.1,0.99,-3.0,-0.2,-0.2,780,0,,,,,,,,,,,,,,,,,,,
19071383,1490575875293,,,,,,,,0.0,0.1,0.99,-3.0,-0.2,-0.3,780,0,,,,,,,,,,,,,,,,,,,
19071403,1490575875313,,,,,,,,0.0,0.1,0.99,-3.0,-0.2,-0.3,780,0,,,,,,,,,,,,,,,,,,,
19071423,1490575875333,0,99.8,,114.8,54,114.3,,0.0,0.1,0.99,-3.1,-0.1,-0.2,780,0,1,1,0.0,0,38.159203,-122.454247,0.0,2.399,62.5,9,3,1.6,85,2.2017,2,0.2833,78.2623,78.1383,86
19071443,1490575875353,,,,,,,,0.01,0.1,0.99,-3.1,-0.2,-0.1,780,0,,,,,,,,,,,,,,,,,,,
19071463,1490575875373,,,,,,,,0.01,0.1,0.99,-3.0,-0.2,-0.2,780,0,,,,,,,,,,,,,,,,,,,
19071483,1490575875393,,,,,,,,0.0,0.1,0.99,-3.0,-0.2,-0.3,780,0,,,,,,,,,,,,,,,,,,,
19071503,1490575875413,,,,,,,,0.0,0.1,0.99,-3.0,-0.2,-0.3,780,0,,,,,,,,,,,,,,,,,,,
19071523,1490575875433,,,,,54,,,0.0,0.1,0.99,-3.0,-0.1,-0.3,780,0,1,1,0.0,0,38.159203,-122.454247,0.0,2.399,62.5,9,3,1.6,85,2.2017,2,0.2833,78.264,78.14,86
19071543,1490575875453,,,,,,,,0.01,0.1,0.99,-3.1,-0.2,-0.2,780,0,,,,,,,,,,,,,,,,,,,
19071563,1490575875473,,,,,,,,0.01,0.1,0.99,-3.0,-0.2,-0.3,780,0,,,,,,,,,,,,,,,,,,,
19071583,1490575875493,,,,,,,,0.0,0.1,1.0,-3.0,-0.2,-0.3,780,0,,,,,,,,,,,,,,,,,,,
19071603,1490575875509,,,,,,,,0.0,0.1,1.0,-3.0,-0.2,-0.3,780,0,,,,,,,,,,,,,,,,,,,
19071623,1490575875529,0,99.8,,114.8,56,113.7,,0.0,0.1,1.0,-3.1,-0.1,-0.3,800,0,1,1,0.0,0,38.159203,-122.454247,0.0,2.399,62.5,9,3,1.6,85,2.2017,2,0.2833,78.2656,78.1417,86
19071643,1490575875549,,,,,,,,0.0,0.1,1.0,-3.1,-0.2,-0.2,800,0,,,,,,,,,,,,,,,,,,,
19071663,1490575875569,,,,,,,,0.0,0.11,0.99,-3.1,-0.1,-0.2,800,0,,,,,,,,,,,,,,,,,,,
19071683,1490575875593,,,,,,,,0.0,0.1,1.0,-3.1,-0.1,-0.3,780,0,,,,,,,,,,,,,,,,,,,
19071703,1490575875613,,,,,,,,0.0,0.1,0.99,-3.1,-0.2,-0.3,780,0,,,,,,,,,,,,,,,,,,,
19071723,1490575875633,,,,,54,,,0.0,0.1,0.99,-3.1,-0.1,-0.2,780,0,1,1,0.0,0,38.159203,-122.454247,0.0,2.399,62.5,9,3,1.6,85,2.2017,2,0.2833,78.2673,78.1433,86
19071743,1490575875653,,,,,,,,0.0,0.11,0.99,-3.1,-0.1,-0.1,800,0,,,,,,,,,,,,,,,,,,,
19071763,1490575875673,,,,,,,,0.0,0.11,1.0,-3.0,-0.2,-0.2,800,0,,,,,,,,,,,,,,,,,,,
19071783,1490575875692,,,,,,,,0.0,0.1,1.0,-3.0,-0.2,-0.3,800,0,,,,,,,,,,,,,,,,,,,
19071803,1490575875712,,,,,,,,-0.0,0.1,1.0,-3.0,-0.2,-0.3,800,0,,,,,,,,,,,,,,,,,,,
19071823,1490575875732,0,97.0,-0.5,112.5,55,113.7,13.64,0.0,0.1,1.0,-3.1,-0.1,-0.2,800,0,1,1,0.0,0,38.159203,-122.454247,0.0,2.399,62.5,9,3,1.6,85,2.2017,2,0.2833,78.269,78.145,86
19071843,1490575875752,,,,,,,,0.0,0.11,1.0,-3.1,-0.2,-0.2,800,0,,,,,,,,,,,,,,,,,,,
19071863,1490575875772,,,,,,,,0.0,0.11,0.99,-3.0,-0.2,-0.2,800,0,,,,,,,,,,,,,,,,,,,
19071883,1490575875792,,,,,,,,-0.0,0.1,0.99,-3.0,-0.2,-0.3,800,0,,,,,,,,,,,,,,,,,,,
19071903,1490575875812,,,,,,,,-0.0,0.1,0.99,-3.0,-0.2,-0.3,800,0,,,,,,,,,,,,,,,,,,,
19071923,1490575875832,,,,,56,,,0.0,0.1,0.99,-3.1,-0.1,-0.2,800,0,1,1,0.0,0,38.159203,-122.454247,0.0,2.399,62.5,9,3,1.6,85,2.2017,2,0.2833,78.2707,78.1467,86
19071943,1490575875852,,,,,,,,0.0,0.11,0.99,-3.1,-0.2,-0.1,800,0,,,,,,,,,,,,,,,,,,,
19071963,1490575875872,,,,,,,,0.0,0.11,0.99,-3.1,-0.1,-0.2,800,0,,,,,,,,,,,,,,,,,,,
19071983,1490575875894,,,,,,,,0.0,0.1,0.99,-3.1,-0.1,-0.3,780,0,,,,,,,,,,,,,,,,,,,
19072003,1490575875914,,,,,,,,0.0,0.1,0.99,-3.1,-0.2,-0.3,780,0,,,,,,,,,,,,,,,,,,,
19072023,1490575875934,0,99.4,,115.3,54,114.8,,0.0,0.1,0.99,-3.1,-0.2,-0.2,800,0,1,1,0.0,0,38.159203,-122.454247,0.0,2.399,62.5,9,3,1.6,85,2.2017,2,0.2833,78.2723,78.1483,86
19072043,1490575875954,,,,,,,,0.01,0.11,0.99,-3.1,-0.2,-0.1,800,0,,,,,,,,,,,,,,,,,,,
19072063,1490575875974,,,,,,,,0.0,0.11,0.99,-3.1,-0.2,-0.2,800,0,,,,,,,,,,,,,,,,,,,
19072083,1490575875994,,,,,,,,0.0,0.11,0.99,-3.1,-0.2,-0.3,780,0,,,,,,,,,,,,,,,,,,,
19072103,1490575876006,,,,,,,,0.0,0.1,0.99,-3.1,-0.3,-0.3,780,0,,,,,,,,,,,,,,,,,,,
19072123,1490575876026,,,,,55,,,0.0,0.1,0.99,-3.0,-0.3,-0.2,780,0,1,1,0.0,0,38.159203,-122.454247,0.0,2.399,62.5,9,3,1.6,85,2.2017,2,0.2833,78.2739,78.15,86
19072143,1490575876046,,,,,,,,0.0,0.11,0.99,-3.1,-0.3,-0.2,780,0,,,,,,,,,,,,,,,,,,,
19072163,1490575876066,,,,,,,,0.0,0.11,0.99,-3.0,-0.3,-0.2,780,0,,,,,,,,,,,,,,,,,,,
19072183,1490575876094,,,,,,,,0.0,0.1,0.99,-3.0,-0.3,-0.3,780,0,,,,,,,,,,,,,,,,,,,
19072203,1490575876114,,,,,,,,0.0,0.1,0.99,-3.1,-0.3,-0.3,780,0,,,,,,,,,,,,,,,,,,,
19072223,1490575876134,0,98.6,,115.0,55,115.3,,0.0,0.1,0.99,-3.1,-0.2,-0.2,780,0,1,1,0.0,0,38.159203,-122.454247,0.0,2.399,62.5,9,3,1.6,85,2.2017,2,0.2833,78.2757,78.1517,86
19072243,1490575876154,,,,,,,,0.0,0.11,0.99,-3.1,-0.3,-0.2,780,0,,,,,,,,,,,,,,,,,,,
19072263,1490575876174,,,,,,,,0.0,0.11,0.99,-3.1,-0.3,-0.2,780,0,,,,,,,,,,,,,,,,,,,
19072283,1490575876194,,,,,,,,0.0,0.11,0.99,-3.0,-0.3,-0.3,780,0,,,,,,,,,,,,,,,,,,,
19072303,1490575876214,,,,,,,,0.0,0.11,0.99,-3.0,-0.3,-0.3,780,0,,,,,,,,,,,,,,,,,,,
19072323,1490575876234,,,,,54,,,0.0,0.11,0.99,-3.0,-0.1,-0.2,780,0,1,1,0.0,0,38.159203,-122.454247,0.0,2.399,62.5,9,3,1.6,85,2.2017,2,0.2833,78.2774,78.1533,86
19072343,1490575876254,,,,,,,,0.0,0.11,0.99,-3.0,-0.2,-0.2,780,0,,,,,,,,,,,,,,,,,,,
19072363,1490575876274,,,,,,,,0.0,0.11,0.99,-3.0,-0.2,-0.3,780,0,,,,,,,,,,,,,,,,,,,
19072383,1490575876294,,,,,,,,0.0,0.1,0.99,-3.0,-0.2,-0.3,780,0,,,,,,,,,,,,,,,,,,,
19072403,1490575876314,,,,,,,,0.0,0.1,0.99,-3.0,-0.2,-0.3,780,0,,,,,,,,,,,,,,,,,,,
19072423,1490575876334,0,97.0,,113.1,53,114.4,,0.0,0.1,0.99,-3.1,-0.1,-0.3,780,0,1,1,0.0,0,38.159203,-122.454247,0.0,2.399,62.5,9,3,1.6,85,2.2017,2,0.2833,78.279,78.155,86
19072443,1490575876354,,,,,,,,0.0,0.11,1.0,-3.0,-0.1,-0.2,780,0,,,,,,,,,,,,,,,,,,,
19072463,1490575876374,,,,,,,,0.0,0.1,0.99,-3.0,-0.1,-0.3,780,0,,,,,,,,,,,,,,,,,,,
19072483,1490575876394,,,,,,,,-0.0,0.1,1.0,-3.0,-0.1,-0.3,780,0,,,,,,,,,,,,,,,,,,,
19072503,1490575876414,,,,,,,,0.0,0.1,0.99,-3.0,-0.1,-0.3,800,0,,,,,,,,,,,,,,,,,,,
19072523,1490575876434,,,,,54,,,0.0,0.1,0.99,-3.0,-0.1,-0.2,800,0,1,1,0.0,0,38.159203,-122.454247,0.0,2.399,62.5,9,3,1.6,85,2.2017,2,0.2833,78.2807,78.1567,86
19072543,1490575876454,,,,,,,,0.0,0.1,1.0,-3.0,-0.1,-0.2,800,0,,,,,,,,,,,,,,,,,,,
19072563,1490575876474,,,,,,,,0.0,0.1,0.99,-3.0,-0.2,-0.3,800,0,,,,,,,,,,,,,,,,,,,
19072583,1490575876494,,,,,,,,0.0,0.1,0.99,-3.0,-0.2,-0.3,800,0,,,,,,,,,,,,,,,,,,,
19072603,1490575876514,,,,,,,,0.0,0.1,0.99,-3.0,-0.2,-0.3,800,0,,,,,,,,,,,,,,,,,,,
19072623,1490575876534,0,97.5,,113.9,54,114.9,,0.0,0.1,0.99,-3.0,-0.1,-0.2,800,0,1,1,0.0,0,38.159203,-122.454247,0.0,2.399,62.5,9,3,1.6,85,2.2017,2,0.2833,78.2823,78.1583,86
19072643,1490575876554,,,,,,,,0.0,0.1,0.99,-3.0,-0.2,-0.2,820,0,,,,,,,,,,,,,,,,,,,
19072663,1490575876574,,,,,,,,0.0,0.1,0.99,-3.0,-0.2,-0.2,820,0,,,,,,,,,,,,,,,,,,,
19072683,1490575876594,,,,,,,,-0.0,0.1,0.99,-3.0,-0.2,-0.3,820,0,,,,,,,,,,,,,,,,,,,
19072703,1490575876614,,,,,,,,-0.0,0.1,0.99,-3.0,-0.3,-0.3,820,0,,,,,,,,,,,,,,,,,,,
19072723,1490575876634,,,,,56,,,-0.0,0.1,0.99,-3.0,-0.3,-0.3,820,0,1,1,0.0,0,38.159203,-122.454247,0.0,2.399,62.5,9,3,1.6,85,2.2017,2,0.2833,78.284,78.16,86
19072743,1490575876654,,,,,,,,0.0,0.1,0.99,-3.1,-0.3,-0.2,820,0,,,,,,,,,,,,,,,,,,,
19072763,1490575876674,,,,,,,,-0.0,0.1,0.99,-3.1,-0.3,-0.2,820,0,,,,,,,,,,,,,,,,,,,
19072783,1490575876693,,,,,,,,0.0,0.1,0.99,-3.1,-0.3,-0.3,840,0,,,,,,,,,,,,,,,,,,,
19072803,1490575876713,,,,,,,,-0.0,0.09,0.99,-3.0,-0.3,-0.4,840,0,,,,,,,,,,,,,,,,,,,
19072823,1490575876733,1,97.1,-0.2,113.4,57,114.5,14.71,-0.0,0.09,0.99,-3.0,-0.2,-0.4,840,0,1,1,0.0,0,38.159203,-122.454247,0.0,2.399,62.5,9,3,1.6,85,2.2017,2,0.2833,78.2857,78.1617,86
19072843,1490575876753,,,,,,,,-0.0,0.09,0.99,-3.1,-0.2,-0.3,840,0,,,,,,,,,,,,,,,,,,,
19072863,1490575876773,,,,,,,,-0.0,0.09,0.99,-3.1,-0.1,-0.2,840,0,,,,,,,,,,,,,,,,,,,
19072883,1490575876793,,,,,,,,-0.0,0.1,0.99,-3.1,-0.2,-0.1,840,0,,,,,,,,,,,,,,,,,,,
19072903,1490575876813,,,,,,,,-0.0,0.09,1.0,-3.1,-0.1,-0.2,860,0,,,,,,,,,,,,,,,,,,,
19072923,1490575876833,,,,,58,,,0.0,0.1,1.0,-3.0,-0.2,-0.3,860,0,1,1,0.0,0,38.159203,-122.454247,0.0,2.399,62.5,9,3,1.6,85,2.2017,2,0.2833,78.2873,78.1633,86
19072943,1490575876853,,,,,,,,-0.0,0.09,1.0,-3.0,-0.2,-0.4,860,0,,,,,,,,,,,,,,,,,,,
19072963,1490575876873,,,,,,,,-0.0,0.08,0.99,-3.0,-0.1,-0.4,860,0,,,,,,,,,,,,,,,,,,,
19072983,1490575876893,,,,,,,,-0.0,0.08,0.99,-3.0,-0.2,-0.3,860,0,,,,,,,,,,,,,,,,,,,
19073003,1490575876913,,,,,,,,-0.0,0.08,0.99,-3.0,-0.2,-0.3,860,0,,,,,,,,,,,,,,,,,,,
19073023,1490575876933,0,97.2,,112.5,59,113.5,,0.0,0.09,0.99,-3.0,-0.2,-0.2,860,0,1,1,0.0,0,38.159203,-122.454247,0.0,2.399,62.5,9,3,1.6,85,2.2017,2,0.2833,78.289,78.165,86
19073043,1490575876953,,,,,,,,-0.0,0.09,0.99,-3.0,-0.2,-0.2,860,0,,,,,,,,,,,,,,,,,,,
19073063,1490575876973,,,,,,,,0.0,0.09,0.99,-3.1,-0.2,-0.3,860,0,,,,,,,,,,,,,,,,,,,
19073083,1490575876993,,,,,,,,-0.0,0.09,0.99,-3.0,-0.4,-0.4,860,0,,,,,,,,,,,,,,,,,,,
19073103,1490575877005,,,,,,,,-0.01,0.08,0.99,-3.0,-0.2,-0.4,860,0,,,,,,,,,,,,,,,,,,,
19073123,1490575877025,,,,,56,,,-0.0,0.08,0.99,-3.0,-0.3,-0.4,860,0,1,1,0.0,0,38.159203,-122.454247,0.0,2.399,62.5,9,3,1.6,85,2.2017,2,0.2833,78.2905,78.1667,86
19073143,1490575877045,,,,,,,,-0.0,0.08,0.99,-3.1,-0.3,-0.3,860,0,,,,,,,,,,,,,,,,,,,
19073163,1490575877065,,,,,,,,-0.0,0.09,0.99,-3.1,-0.2,-0.2,860,0,,,,,,,,,,,,,,,,,,,
19073183,1490575877093,,,,,,,,-0.0,0.09,0.99,-3.1,-0.2,-0.2,860,0,,,,,,,,,,,,,,,,,,,
19073203,1490575877113,,,,,,,,0.0,0.09,0.99,-3.1,-0.2,-0.2,860,0,,,,,,,,,,,,,,,,,,,
19073223,1490575877133,0,97.0,,113.1,57,114.2,,0.0,0.1,0.99,-3.0,-0.2,-0.3,860,0,1,1,0.0,0,38.159203,-122.454247,0.0,2.399,62.5,9,3,1.6,85,2.2017,2,0.2833,78.2923,78.1683,86
19073243,1490575877153,,,,,,,,-0.0,0.09,0.99,-3.0,-0.3,-0.4,860,0,,,,,,,,,,,,,,,,,,,
19073263,1490575877173,,,,,,,,-0.0,0.09,0.99,-3.0,-0.2,-0.4,860,0,,,,,,,,,,,,,,,,,,,
19073283,1490575877193,,,,,,,,-0.0,0.09,0.99,-3.0,-0.3,-0.3,860,0,,,,,,,,,,,,,,,,,,,
19073303,1490575877213,,,,,,,,-0.0,0.09,0.99,-3.0,-0.2,-0.3,860,0,,,,,,,,,,,,,,,,,,,
19073323,1490575877233,,,,,56,,,0.0,0.1,0.99,-3.0,-0.1,-0.2,860,0,1,1,0.0,0,38.159203,-122.454247,0.0,2.399,62.5,9,3,1.6,85,2.2017,2,0.2833,78.294,78.17,86
19073343,1490575877253,,,,,,,,-0.0,0.1,0.99,-3.0,-0.2,-0.2,860,0,,,,,,,,,,,,,,,,,,,
19073363,1490575877273,,,,,,,,0.0,0.1,1.0,-3.0,-0.1,-0.3,860,0,,,,,,,,,,,,,,,,,,,
19073383,1490575877293,,,,,,,,0.0,0.1,0.99,-3.0,-0.2,-0.3,860,0,,,,,,,,,,,,,,,,,,,
19073403,1490575877313,,,,,,,,-0.0,0.09,1.0,-3.0,-0.1,-0.4,840,0,,,,,,,,,,,,,,,,,,,
19073423,1490575877333,1,99.4,,114.3,56,112.3,,0.0,0.1,0.99,-3.0,-0.1,-0.4,840,0,1,1,0.0,0,38.159203,-122.454247,0.0,2.399,62.5,9,3,1.6,85,2.2017,2,0.2833,78.2957,78.1717,86
19073443,1490575877353,,,,,,,,-0.0,0.09,0.99,-3.1,-0.1,-0.3,840,0,,,,,,,,,,,,,,,,,,,
19073463,1490575877373,,,,,,,,0.0,0.1,0.99,-3.1,0.0,-0.2,840,0,,,,,,,,,,,,,,,,,,,
19073483,1490575877393,,,,,,,,-0.0,0.1,0.99,-3.1,-0.0,-0.2,840,0,,,,,,,,,,,,,,,,,,,
19073503,1490575877413,,,,,,,,0.0,0.1,1.0,-3.1,0.1,-0.3,840,0,,,,,,,,,,,,,,,,,,,
19073523,1490575877433,,,,,56,,,0.0,0.1,0.99,-3.1,-0.0,-0.3,840,0,1,1,0.0,0,38.159203,-122.454247,0.0,2.399,62.5,9,3,1.6,85,2.2017,2,0.2833,78.2973,78.1733,86
19073543,1490575877453,,,,,,,,-0.0,0.09,1.0,-3.1,0.1,-0.4,840,0,,,,,,,,,,,,,,,,,,,
19073563,1490575877473,,,,,,,,0.0,0.09,0.99,-3.0,0.1,-0.3,840,0,,,,,,,,,,,,,,,,,,,
19073583,1490575877493,,,,,,,,0.0,0.09,0.99,-3.1,0.0,-0.3,820,0,,,,,,,,,,,,,,,,,,,
19073603,1490575877513,,,,,,,,0.01,0.1,1.0,-3.0,-0.0,-0.2,840,0,,,,,,,,,,,,,,,,,,,
19073623,1490575877533,0,97.5,,114.2,53,114.9,,0.0,0.09,1.0,-3.0,-0.1,-0.3,840,0,1,1,0.0,0,38.159203,-122.454247,0.0,2.399,62.5,9,3,1.6,85,2.2017,2,0.2833,78.299,78.175,86
19073643,1490575877553,,,,,,,,0.0,0.1,1.0,-3.0,-0.1,-0.3,840,0,,,,,,,,,,,,,,,,,,,
19073663,1490575877573,,,,,,,,0.0,0.09,1.0,-3.0,-0.2,-0.4,840,0,,,,,,,,,,,,,,,,,,,
19073683,1490575877593,,,,,,,,0.0,0.09,0.99,-3.0,-0.2,-0.4,840,0,,,,,,,,,,,,,,,,,,,
19073703,1490575877613,,,,,,,,0.0,0.09,0.99,-3.0,-0.3,-0.3,820,0,,,,,,,,,,,,,,,,,,,
19073723,1490575877633,,,,,54,,,0.0,0.1,0.99,-3.1,-0.2,-0.2,820,0,1,1,0.0,0,38.159203,-122.454247,0.0,2.399,62.5,9,3,1.6,85,2.2017,2,0.2833,78.3007,78.1767,86
19073743,1490575877653,,,,,,,,0.0,0.1,0.99,-3.1,-0.3,-0.2,840,0,,,,,,,,,,,,,,,,,,,
19073763,1490575877673,,,,,,,,0.0,0.1,0.99,-3.1,-0.2,-0.2,820,0,,,,,,,,,,,,,,,,,,,
19073783,1490575877692,,,,,,,,-0.0,0.09,0.99,-3.1,-0.3,-0.3,840,0,,,,,,,,,,,,,,,,,,,
19073803,1490575877712,,,,,,,,-0.0,0.09,0.99,-3.0,-0.3,-0.3,840,0,,,,,,,,,,,,,,,,,,,
19073823,1490575877732,0,97.4,-0.3,114.0,53,114.6,14.69,-0.0,0.09,0.99,-3.1,-0.2,-0.3,840,0,1,1,0.0,0,38.159203,-122.454247,0.0,2.399,62.5,9,3,1.6,85,2.2017,2,0.2833,78.3023,78.1783,86
19073843,1490575877752,,,,,,,,-0.0,0.09,0.99,-3.1,-0.1,-0.2,820,0,,,,,,,,,,,,,,,,,,,
19073863,1490575877772,,,,,,,,-0.0,0.1,0.98,-3.1,-0.2,-0.1,820,0,,,,,,,,,,,,,,,,,,,
19073883,1490575877792,,,,,,,,-0.0,0.09,0.99,-3.1,-0.0,-0.2,840,0,,,,,,,,,,,,,,,,,,,
19073903,1490575877812,,,,,,,,0.0,0.09,0.99,-3.0,-0.1,-0.2,840,0,,,,,,,,,,,,,,,,,,,
19073923,1490575877832,,,,,54,,,-0.0,0.09,1.0,-3.0,-0.1,-0.3,840,0,1,1,0.0,0,38.159203,-122.454247,0.0,2.399,62.5,9,3,1.6,85,2.2017,2,0.2833,78.304,78.18,86
19073943,1490575877852,,,,,,,,0.0,0.09,0.99,-3.0,-0.1,-0.3,840,0,,,,,,,,,,,,,,,,,,,
19073963,1490575877872,,,,,,,,-0.0,0.09,0.99,-3.1,-0.1,-0.3,840,0,,,,,,,,,,,,,,,,,,,
19073983,1490575877892,,,,,,,,0.0,0.1,0.99,-3.1,-0.1,-0.2,820,0,,,,,,,,,,,,,,,,,,,
19074003,1490575877912,,,,,,,,0.0,0.1,1.0,-3.0,-0.1,-0.2,840,0,,,,,,,,,,,,,,,,,,,
19074023,1490575877932,0,99.6,,115.0,55,113.0,,0.0,0.1,1.0,-3.0,-0.1,-0.2,840,0,1,1,0.0,0,38.159203,-122.454247,0.0,2.399,62.5,9,3,1.6,85,2.2017,2,0.2833,78.3056,78.1817,86
19074043,1490575877952,,,,,,,,-0.0,0.09,1.0,-3.0,-0.2,-0.3,840,0,,,,,,,,,,,,,,,,,,,
19074063,1490575877972,,,,,,,,0.0,0.09,0.99,-3.0,-0.1,-0.3,840,0,,,,,,,,,,,,,,,,,,,
19074083,1490575877992,,,,,,,,0.0,0.09,0.99,-3.0,-0.2,-0.2,840,0,,,,,,,,,,,,,,,,,,,
19074103,1490575878006,,,,,,,,0.0,0.1,0.99,-3.1,-0.1,-0.1,840,0,,,,,,,,,,,,,,,,,,,
19074123,1490575878026,,,,,56,,,0.0,0.1,0.99,-3.1,-0.2,-0.1,820,0,1,1,0.0,0,38.159203,-122.454247,0.0,2.399,62.5,9,3,1.6,85,2.2017,2,0.2833,78.3072,78.1833,86
19074143,1490575878046,,,,,,,,0.0,0.1,1.0,-3.1,-0.1,-0.1,840,0,,,,,,,,,,,,,,,,,,,
19074163,1490575878066,,,,,,,,0.0,0.11,0.99,-3.1,-0.3,-0.2,840,0,,,,,,,,,,,,,,,,,,,
19074183,1490575878092,,,,,,,,-0.0,0.1,0.99,-3.0,-0.2,-0.3,840,0,,,,,,,,,,,,,,,,,,,
19074203,1490575878112,,,,,,,,-0.0,0.1,0.99,-3.0,-0.2,-0.3,840,0,,,,,,,,,,,,,,,,,,,
19074223,1490575878132,0,98.0,,114.7,55,114.9,,-0.0,0.1,0.99,-3.0,-0.2,-0.2,840,0,1,1,0.0,0,38.159203,-122.454247,0.0,2.399,62.5,9,3,1.6,85,2.2017,2,0.2833,78.309,78.185,86
19074243,1490575878152,,,,,,,,0.0,0.1,0.99,-3.1,-0.2,-0.2,860,0,,,,,,,,,,,,,,,,,,,
19074263,1490575878172,,,,,,,,0.0,0.1,0.99,-3.1,-0.2,-0.1,840,0,,,,,,,,,,,,,,,,,,,
19074283,1490575878194,,,,,,,,0.0,0.1,1.0,-3.0,-0.1,-0.2,840,0,,,,,,,,,,,,,,,,,,,
19074303,1490575878214,,,,,,,,0.0,0.1,0.99,-3.0,-0.4,-0.3,840,0,,,,,,,,,,,,,,,,,,,
19074323,1490575878234,,,,,57,,,-0.0,0.09,0.99,-3.0,-0.3,-0.4,840,0,1,1,0.0,0,38.159203,-122.454247,0.0,2.399,62.5,9,3,1.6,85,2.2017,2,0.2833,78.3107,78.1867,86
19074343,1490575878254,,,,,,,,0.0,0.09,0.99,-3.0,-0.2,-0.4,840,0,,,,,,,,,,,,,,,,,,,
19074363,1490575878274,,,,,,,,0.0,0.1,0.99,-3.0,-0.3,-0.3,840,0,,,,,,,,,,,,,,,,,,,
19074383,1490575878294,,,,,,,,0.0,0.1,0.99,-3.0,-0.3,-0.2,840,0,,,,,,,,,,,,,,,,,,,
19074403,1490575878314,,,,,,,,0.0,0.1,0.99,-3.1,-0.3,-0.2,840,0,,,,,,,,,,,,,,,,,,,
19074423,1490575878334,0,97.9,,112.8,55,112.7,,0.0,0.1,0.99,-3.0,-0.3,-0.3,840,0,1,1,0.0,0,38.159203,-122.454247,0.0,2.399,62.5,9,3,1.6,85,2.2017,2,0.2833,78.3123,78.1883,86
19074443,1490575878354,,,,,,,,0.0,0.1,0.99,-3.0,-0.4,-0.3,840,0,,,,,,,,,,,,,,,,,,,
19074463,1490575878374,,,,,,,,0.0,0.09,0.99,-3.0,-0.4,-0.4,840,0,,,,,,,,,,,,,,,,,,,
19074483,1490575878394,,,,,,,,-0.0,0.1,0.99,-3.0,-0.3,-0.3,840,0,,,,,,,,,,,,,,,,,,,
19074503,1490575878414,,,,,,,,0.0,0.1,0.99,-3.1,-0.2,-0.2,840,0,,,,,,,,,,,,,,,,,,,
19074523,1490575878434,,,,,55,,,0.0,0.11,0.99,-3.1,-0.3,-0.2,840,0,1,1,0.0,0,38.159203,-122.454247,0.0,2.399,62.5,9,3,1.6,85,2.2017,2,0.2833,78.314,78.19,86
19074543,1490575878454,,,,,,,,0.0,0.1,1.0,-3.0,-0.1,-0.3,840,0,,,,,,,,,,,,,,,,,,,
19074563,1490575878474,,,,,,,,0.0,0.1,0.99,-3.0,-0.2,-0.4,840,0,,,,,,,,,,,,,,,,,,,
19074583,1490575878494,,,,,,,,-0.0,0.09,1.0,-3.0,-0.1,-0.5,840,0,,,,,,,,,,,,,,,,,,,
19074603,1490575878514,,,,,,,,0.0,0.09,0.99,-3.0,-0.0,-0.5,840,0,,,,,,,,,,,,,,,,,,,
19074623,1490575878534,0,98.6,,115.1,56,114.8,,0.0,0.09,0.99,-3.0,0.0,-0.4,840,0,1,1,0.0,0,38.159203,-122.454247,0.0,2.399,62.5,9,3,1.6,85,2.2017,2,0.2833,78.3157,78.1917,86
19074643,1490575878554,,,,,,,,0.01,0.1,0.99,-3.0,0.1,-0.2,860,0,,,,,,,,,,,,,,,,,,,
19074663,1490575878574,,,,,,,,0.0,0.1,0.99,-3.0,-0.0,-0.2,860,0,,,,,,,,,,,,,,,,,,,
19074683,1490575878594,,,,,,,,0.01,0.1,1.0,-3.0,0.1,-0.3,860,0,,,,,,,,,,,,,,,,,,,
19074703,1490575878614,,,,,,,,0.0,0.1,1.0,-2.9,-0.2,-0.4,860,0,,,,,,,,,,,,,,,,,,,
19074723,1490575878634,,,,,57,,,-0.0,0.09,1.0,-2.9,-0.1,-0.5,860,0,1,1,0.0,0,38.159203,-122.454247,0.0,2.399,62.5,9,3,1.6,85,2.2017,2,0.2833,78.3174,78.1933,86
19074743,1490575878654,,,,,,,,-0.0,0.08,0.99,-2.9,-0.0,-0.5,880,0,,,,,,,,,,,,,,,,,,,
19074763,1490575878674,,,,,,,,-0.0,0.08,0.99,-2.9,-0.1,-0.4,880,0,,,,,,,,,,,,,,,,,,,
19074783,1490575878693,,,,,,,,0.0,0.09,0.99,-2.9,-0.0,-0.3,880,0,,,,,,,,,,,,,,,,,,,
19074803,1490575878713,,,,,,,,0.01,0.1,1.0,-2.9,0.0,-0.2,880,0,,,,,,,,,,,,,,,,,,,
19074823,1490575878733,0,99.4,-0.0,115.5,57,114.4,14.79,0.0,0.1,0.99,-3.0,-0.2,-0.2,880,0,1,1,0.0,0,38.159203,-122.454247,0.0,2.399,62.5,9,3,1.6,85,2.2017,2,0.2833,78.319,78.195,86
19074843,1490575878753,,,,,,,,0.0,0.1,1.0,-2.9,-0.1,-0.3,880,0,,,,,,,,,,,,,,,,,,,
19074863,1490575878773,,,,,,,,0.0,0.11,1.0,-2.9,-0.1,-0.4,880,0,,,,,,,,,,,,,,,,,,,
19074883,1490575878793,,,,,,,,-0.0,0.1,1.0,-2.9,-0.3,-0.4,900,6,,,,,,,,,,,,,,,,,,,
19074903,1490575878813,,,,,,,,-0.01,0.09,1.0,-2.9,-0.1,-0.5,900,37,,,,,,,,,,,,,,,,,,,
19074923,1490575878833,,,,,58,,,-0.01,0.09,1.0,-2.9,-0.0,-0.6,900,66,1,1,13.636,0,38.159203,-122.454247,0.0,2.399,62.5,9,3,1.6,85,2.2017,2,0.2833,78.3207,78.1967,86
19074943,1490575878853,,,,,,,,-0.01,0.08,0.99,-3.0,0.0,-0.5,900,75,,,,,,,,,,,,,,,,,,,
19074963,1490575878873,,,,,,,,-0.01,0.08,0.99,-3.0,0.2,-0.4,900,75,,,,,,,,,,,,,,,,,,,
19074983,1490575878893,,,,,,,,-0.0,0.09,1.0,-3.0,0.4,-0.4,900,51,,,,,,,,,,,,,,,,,,,
19075003,1490575878913,,,,,,,,0.01,0.11,0.99,-3.0,0.2,-0.3,900,51,,,,,,,,,,,,,,,,,,,
19075023,1490575878933,0,97.3,,114.0,58,114.7,,0.01,0.11,1.0,-3.0,0.2,-0.3,900,35,1,1,25.714,0,38.159203,-122.454247,0.0,2.399,62.5,9,3,1.6,85,2.2017,2,0.2833,78.3223,78.1983,86
19075043,1490575878953,,,,,,,,0.0,0.1,1.0,-3.0,0.2,-0.3,900,35,,,,,,,,,,,,,,,,,,,
19075063,1490575878973,,,,,,,,-0.0,0.1,1.01,-2.9,0.1,-0.4,900,46,,,,,,,,,,,,,,,,,,,
19075083,1490575878993,,,,,,,,-0.0,0.1,1.0,-2.9,0.1,-0.5,900,46,,,,,,,,,,,,,,,,,,,
19075103,1490575879005,,,,,,,,-0.01,0.09,1.01,-2.8,-0.1,-0.5,880,46,,,,,,,,,,,,,,,,,,,
19075123,1490575879025,,,,,57,,,-0.01,0.08,1.01,-2.8,0.2,-0.5,880,46,1,1,19.13,0,38.159203,-122.454247,0.0,2.399,62.5,9,3,1.6,85,2.2017,2,0.2833,78.3239,78.2,86
19075143,1490575879045,,,,,,,,-0.01,0.07,1.0,-2.8,0.1,-0.4,880,46,,,,,,,,,,,,,,,,,,,
19075163,1490575879065,,,,,,,,-0.0,0.08,0.99,-2.8,0.1,-0.3,880,46,,,,,,,,,,,,,,,,,,,
19075183,1490575879091,,,,,,,,-0.0,0.08,0.99,-2.8,0.2,-0.2,880,46,,,,,,,,,,,,,,,,,,,
19075203,1490575879111,,,,,,,,0.01,0.09,0.99,-2.8,0.1,-0.2,880,20,,,,,,,,,,,,,,,,,,,
19075223,1490575879131,0,99.3,,114.9,55,114.7,,0.0,0.1,0.99,-2.8,-0.1,-0.2,880,20,1,1,44.0,0,38.159203,-122.454247,0.0,2.399,62.5,9,3,1.6,85,2.2017,2,0.2833,78.3256,78.2017,86
19075243,1490575879151,,,,,,,,-0.0,0.1,1.0,-2.7,-0.0,-0.3,860,20,,,,,,,,,,,,,,,,,,,
19075263,1490575879171,,,,,,,,-0.0,0.1,1.0,-2.7,-0.2,-0.4,860,20,,,,,,,,,,,,,,,,,,,
19075283,1490575879193,,,,,,,,-0.01,0.09,1.01,-2.6,-0.2,-0.4,860,20,,,,,,,,,,,,,,,,,,,
19075303,1490575879213,,,,,,,,-0.01,0.08,1.0,-2.6,-0.1,-0.4,880,20,,,,,,,,,,,,,,,,,,,
19075323,1490575879233,,,,,55,,,-0.01,0.08,0.99,-2.5,-0.1,-0.3,880,20,1,1,44.0,0,38.159203,-122.454247,0.0,2.399,62.5,9,3,1.6,85,2.2017,2,0.2833,78.3273,78.2033,86
19075343,1490575879253,,,,,,,,-0.01,0.09,0.98,-2.5,0.0,-0.2,860,20,,,,,,,,,,,,,,,,,,,
19075363,1490575879273,,,,,,,,-0.0,0.11,0.99,-2.5,-0.0,-0.1,860,20,,,,,,,,,,,,,,,,,,,
19075383,1490575879293,,,,,,,,-0.01,0.11,0.99,-2.5,-0.1,-0.1,840,20,,,,,,,,,,,,,,,,,,,
19075403,1490575879313,,,,,,,,-0.01,0.11,1.0,-2.4,0.1,-0.2,860,20,,,,,,,,,,,,,,,,,,,
19075423,1490575879333,0,98.0,,113.6,54,114.0,,-0.02,0.1,0.99,-2.4,-0.3,-0.3,860,20,1,1,43.0,0,38.159203,-122.454247,0.0,2.399,62.5,9,3,1.6,85,2.2017,2,0.2833,78.329,78.205,86
19075443,1490575879353,,,,,,,,-0.02,0.08,1.0,-2.3,-0.2,-0.4,860,20,,,,,,,,,,,,,,,,,,,
19075463,1490575879373,,,,,,,,-0.02,0.08,0.99,-2.3,-0.1,-0.3,860,20,,,,,,,,,,,,,,,,,,,
19075483,1490575879393,,,,,,,,-0.02,0.08,0.99,-2.3,-0.1,-0.2,860,20,,,,,,,,,,,,,,,,,,,
19075503,1490575879413,,,,,,,,-0.01,0.09,0.99,-2.3,0.0,-0.1,840,20,,,,,,,,,,,,,,,,,,,
19075523,1490575879433,,,,,54,,,-0.01,0.1,0.99,-2.2,-0.1,-0.1,840,3,1,1,280.0,0,38.159203,-122.454247,0.0,2.399,62.5,9,3,1.6,85,2.2017,2,0.2833,78.3307,78.2067,86
19075543,1490575879453,,,,,,,,-0.02,0.1,1.0,-2.1,0.1,-0.2,840,3,,,,,,,,,,,,,,,,,,,
19075563,1490575879473,,,,,,,,-0.02,0.09,1.0,-2.1,-0.1,-0.3,840,3,,,,,,,,,,,,,,,,,,,
19075583,1490575879493,,,,,,,,-0.03,0.08,1.0,-2.0,-0.1,-0.4,840,3,,,,,,,,,,,,,,,,,,,
19075603,1490575879509,,,,,,,,-0.03,0.07,0.98,-1.9,0.0,-0.3,840,3,,,,,,,,,,,,,,,,,,,
19075623,1490575879529,0,97.4,,113.0,52,113.4,,-0.02,0.08,0.98,-1.9,0.1,-0.1,820,15,1,1,54.667,0,38.159203,-122.454247,0.0,2.399,62.5,9,3,1.6,85,2.2017,2,0.2833,78.3323,78.2083,86
19075643,1490575879549,,,,,,,,-0.02,0.09,0.98,-1.8,0.1,-0.0,820,15,,,,,,,,,,,,,,,,,,,
19075663,1490575879569,,,,,,,,-0.02,0.1,0.99,-1.7,0.1,-0.1,800,15,,,,,,,,,,,,,,,,,,,
19075683,1490575879593,,,,,,,,-0.02,0.09,0.99,-1.6,0.1,-0.3,820,15,,,,,,,,,,,,,,,,,,,
19075703,1490575879613,,,,,,,,-0.03,0.08,1.0,-1.5,-0.0,-0.4,820,15,,,,,,,,,,,,,,,,,,,
19075723,1490575879633,,,,,53,,,-0.03,0.08,0.99,-1.5,0.1,-0.2,820,15,1,1,54.667,0,38.159203,-122.454247,0.0,2.399,62.5,9,3,1.6,85,2.2017,2,0.2833,78.334,78.21,86
19075743,1490575879653,,,,,,,,-0.02,0.09,0.98,-1.4,0.2,-0.0,820,15,,,,,,,,,,,,,,,,,,,
19075763,1490575879673,,,,,,,,-0.02,0.1,0.98,-1.4,0.0,0.0,800,20,,,,,,,,,,,,,,,,,,,
19075783,1490575879692,,,,,,,,-0.03,0.1,0.99,-1.3,0.0,-0.1,800,20,,,,,,,,,,,,,,,,,,,
19075803,1490575879712,,,,,,,,-0.03,0.09,1.0,-1.2,-0.0,-0.3,780,20,,,,,,,,,,,,,,,,,,,
19075823,1490575879732,0,97.4,-0.4,113.8,53,112.1,14.63,-0.03,0.08,1.0,-1.1,-0.0,-0.3,780,22,1,1,37.143,0,38.159203,-122.454247,0.0,2.399,62.5,9,3,1.6,85,2.2017,2,0.2833,78.3356,78.2117,86
19075843,1490575879752,,,,,,,,-0.03,0.08,0.99,-1.0,0.0,-0.1,800,22,,,,,,,,,,,,,,,,,,,
19075863,1490575879772,,,,,,,,-0.02,0.09,0.98,-1.0,-0.0,-0.0,800,22,,,,,,,,,,,,,,,,,,,
19075883,1490575879792,,,,,,,,-0.03,0.1,0.99,-0.9,-0.1,-0.1,820,25,,,,,,,,,,,,,,,,,,,
19075903,1490575879812,,,,,,,,-0.03,0.09,0.99,-0.8,-0.2,-0.2,800,25,,,,,,,,,,,,,,,,,,,
19075923,1490575879832,,,,,51,,,-0.04,0.08,1.0,-0.7,-0.2,-0.3,800,25,1,1,33.333,0,38.159203,-122.454247,0.0,2.399,62.5,9,3,1.6,85,2.2017,2,0.2833,78.3373,78.2133,86
19075943,1490575879852,,,,,,,,-0.04,0.08,0.99,-0.6,-0.1,-0.1,800,35,,,,,,,,,,,,,,,,,,,
19075963,1490575879872,,,,,,,,-0.03,0.09,0.98,-0.5,0.0,-0.0,780,35,,,,,,,,,,,,,,,,,,,
19075983,1490575879892,,,,,,,,-0.03,0.09,0.98,-0.5,-0.1,0.0,800,26,,,,,,,,,,,,,,,,,,,
19076003,1490575879912,,,,,,,,-0.04,0.08,0.99,-0.3,-0.0,-0.2,820,26,,,,,,,,,,,,,,,,,,,
19076023,1490575879932,0,98.6,,115.0,55,112.3,,-0.04,0.07,0.99,-0.2,-0.1,-0.3,820,26,1,1,31.538,0,38.159203,-122.454247,0.0,2.399,62.5,9,3,1.6,85,2.2017,2,0.2833,78.339,78.215,86
19076043,1490575879952,,,,,,,,-0.04,0.07,0.99,-0.1,-0.0,-0.2,820,38,,,,,,,,,,,,,,,,,,,
19076063,1490575879972,,,,,,,,-0.03,0.08,0.98,-0.1,0.1,-0.1,820,38,,,,,,,,,,,,,,,,,,,
19076083,1490575879992,,,,,,,,-0.03,0.09,0.98,0.0,0.0,0.0,800,31,,,,,,,,,,,,,,,,,,,
19076103,1490575880006,,,,,,,,-0.03,0.09,0.99,0.1,0.1,-0.1,800,31,,,,,,,,,,,,,,,,,,,
19076123,1490575880026,,,,,56,,,-0.03,0.09,0.99,0.3,-0.0,-0.3,820,40,1,1,20.5,0,38.159203,-122.454247,0.0,2.399,62.5,9,3,1.6,85,2.2017,2,0.2833,78.3406,78.2167,86
19076143,1490575880046,,,,,,,,-0.04,0.07,1.0,0.4,0.0,-0.3,820,40,,,,,,,,,,,,,,,,,,,
19076163,1490575880066,,,,,,,,-0.04,0.08,0.99,0.5,0.1,-0.2,820,35,,,,,,,,,,,,,,,,,,,
19076183,1490575880092,,,,,,,,-0.03,0.08,0.99,0.5,0.1,-0.0,840,45,,,,,,,,,,,,,,,,,,,
19076203,1490575880112,,,,,,,,-0.03,0.09,0.99,0.6,-0.0,0.1,840,45,,,,,,,,,,,,,,,,,,,
19076223,1490575880132,0,99.5,,115.7,56,114.0,,-0.03,0.09,0.99,0.7,-0.1,-0.0,840,40,1,1,21.0,0,38.159203,-122.454247,0.0,2.399,62.5,9,3,1.6,85,2.2017,2,0.2833,78.3423,78.2183,86
19076243,1490575880152,,,,,,,,-0.04,0.1,1.0,0.9,-0.1,-0.2,840,40,,,,,,,,,,,,,,,,,,,
19076263,1490575880172,,,,,,,,-0.04,0.09,1.0,1.0,-0.4,-0.2,860,45,,,,,,,,,,,,,,,,,,,
19076283,1490575880194,,,,,,,,-0.05,0.08,1.0,1.1,-0.2,-0.2,860,48,,,,,,,,,,,,,,,,,,,
19076303,1490575880214,,,,,,,,-0.04,0.09,0.99,1.1,-0.2,-0.0,860,48,,,,,,,,,,,,,,,,,,,
19076323,1490575880234,,,,,58,,,-0.03,0.08,0.99,1.2,-0.1,0.1,880,45,1,1,20.0,0,38.159203,-122.454247,0.0,2.399,62.5,9,3,1.6,85,2.2017,2,0.2833,78.344,78.22,86
19076343,1490575880254,,,,,,,,-0.03,0.1,0.98,1.2,-0.2,0.2,880,54,,,,,,,,,,,,,,,,,,,
19076363,1490575880274,,,,,,,,-0.03,0.11,0.99,1.3,-0.2,0.2,880,54,,,,,,,,,,,,,,,,,,,
19076383,1490575880294,,,,,,,,-0.03,0.11,1.0,1.3,-0.0,0.1,880,51,,,,,,,,,,,,,,,,,,,
19076403,1490575880310,,,,,,,,-0.04,0.11,1.0,1.4,-0.0,0.1,880,51,,,,,,,,,,,,,,,,,,,
19076423,1490575880330,0,99.2,,115.4,59,112.4,,-0.05,0.1,0.99,1.4,-0.3,0.0,900,51,1,1,18.0,0,38.159203,-122.454247,0.0,2.399,62.5,9,3,1.6,85,2.2017,2,0.2833,78.3456,78.2217,86
19076443,1490575880350,,,,,,,,-0.06,0.09,0.99,1.4,-0.2,-0.1,900,62,,,,,,,,,,,,,,,,,,,
19076463,1490575880370,,,,,,,,-0.05,0.08,0.99,1.5,0.0,-0.1,900,55,,,,,,,,,,,,,,,,,,,
19076483,1490575880394,,,,,,,,-0.05,0.08,0.98,1.5,0.1,0.1,880,58,,,,,,,,,,,,,,,,,,,
19076503,1490575880414,,,,,,,,-0.04,0.08,0.98,1.5,0.0,0.1,880,62,,,,,,,,,,,,,,,,,,,
19076523,1490575880434,,,,,58,,,-0.04,0.09,0.98,1.5,0.1,0.2,880,62,1,1,14.426,0,38.159203,-122.454247,0.0,2.399,62.5,9,3,1.6,85,2.2017,2,0.2833,78.3474,78.2233,86
19076543,1490575880454,,,,,,,,-0.03,0.11,0.98,1.6,0.2,0.2,900,62,,,,,,,,,,,,,,,,,,,
19076563,1490575880474,,,,,,,,-0.03,0.11,0.99,1.6,0.0,0.2,900,65,,,,,,,,,,,,,,,,,,,
19076583,1490575880494,,,,,,,,-0.04,0.11,0.99,1.6,-0.0,0.1,900,62,,,,,,,,,,,,,,,,,,,
19076603,1490575880514,,,,,,,,-0.04,0.11,1.0,1.7,-0.0,-0.0,880,66,,,,,,,,,,,,,,,,,,,
19076623,1490575880534,0,97.3,,113.3,58,113.3,,-0.05,0.11,0.99,1.7,-0.1,-0.1,880,71,1,1,12.571,0,38.159203,-122.454247,0.0,2.399,62.5,9,3,1.6,85,2.2017,2,0.2833,78.349,78.225,86
19076643,1490575880554,,,,,,,,-0.06,0.1,0.99,1.7,-0.1,-0.2,880,66,,,,,,,,,,,,,,,,,,,
19076663,1490575880574,,,,,,,,-0.06,0.09,0.99,1.7,0.1,-0.2,880,68,,,,,,,,,,,,,,,,,,,
19076683,1490575880594,,,,,,,,-0.05,0.09,0.98,1.7,0.0,-0.1,880,75,,,,,,,,,,,,,,,,,,,
19076703,1490575880614,,,,,,,,-0.05,0.1,0.98,1.6,-0.0,-0.0,880,75,,,,,,,,,,,,,,,,,,,
19076723,1490575880634,,,,,58,,,-0.04,0.11,0.98,1.6,0.1,0.0,880,74,1,1,12.055,0,38.159203,-122.454247,0.0,2.399,62.5,9,3,1.6,85,2.2017,2,0.2833,78.3507,78.2267,86
19076743,1490575880654,,,,,,,,-0.04,0.12,0.98,1.5,0.1,-0.0,880,74,,,,,,,,,,,,,,,,,,,
19076763,1490575880674,,,,,,,,-0.05,0.12,0.99,1.5,0.0,-0.0,860,77,,,,,,,,,,,,,,,,,,,
19076783,1490575880693,,,,,,,,-0.05,0.12,0.99,1.5,-0.0,-0.1,860,78,,,,,,,,,,,,,,,,,,,
19076803,1490575880713,,,,,,,,-0.06,0.12,0.99,1.5,-0.2,-0.2,860,83,,,,,,,,,,,,,,,,,,,
19076823,1490575880733,0,97.4,-0.2,113.3,56,113.4,14.73,-0.07,0.11,0.99,1.5,-0.1,-0.3,860,85,1,1,10.238,0,38.159218,-122.454247,1.04,2.399,42.9,9,3,1.6,85,2.2017,2,0.2833,78.3514,78.2283,86
19076843,1490575880753,,,,,,,,-0.06,0.1,0.98,1.5,0.0,-0.2,880,80,,,,,,,,,,,,,,,,,,,
19076863,1490575880773,,,,,,,,-0.06,0.1,0.98,1.4,0.0,-0.1,880,82,,,,,,,,,,,,,,,,,,,
19076883,1490575880793,,,,,,,,-0.05,0.11,0.98,1.4,0.1,-0.1,860,89,,,,,,,,,,,,,,,,,,,
19076903,1490575880813,,,,,,,,-0.05,0.12,0.98,1.4,0.1,-0.1,840,91,,,,,,,,,,,,,,,,,,,
19076923,1490575880833,,,,,54,,,-0.05,0.12,0.99,1.3,0.2,-0.3,840,88,1,1,9.655,0,38.159218,-122.454247,1.14,2.399,42.9,9,3,1.6,85,2.2017,2,0.2833,78.3531,78.23,86
19076943,1490575880853,,,,,,,,-0.05,0.12,1.0,1.3,0.2,-0.4,860,91,,,,,,,,,,,,,,,,,,,
19076963,1490575880873,,,,,,,,-0.06,0.11,1.0,1.3,0.0,-0.5,860,94,,,,,,,,,,,,,,,,,,,
19076983,1490575880893,,,,,,,,-0.07,0.1,0.99,1.3,0.2,-0.5,880,92,,,,,,,,,,,,,,,,,,,
19077003,1490575880913,,,,,,,,-0.06,0.1,0.99,1.2,0.2,-0.5,880,91,,,,,,,,,,,,,,,,,,,
19077023,1490575880933,0,97.7,,114.3,54,112.0,,-0.05,0.11,0.99,1.2,0.4,-0.4,860,100,1,1,8.6,0,38.159218,-122.454247,1.15,2.4,42.9,9,3,1.6,85,2.2017,2,0.2833,78.3548,78.2317,86
19077043,1490575880953,,,,,,,,-0.05,0.12,0.99,1.1,0.4,-0.4,860,98,,,,,,,,,,,,,,,,,,,
19077063,1490575880973,,,,,,,,-0.05,0.12,0.99,1.1,0.3,-0.5,840,95,,,,,,,,,,,,,,,,,,,
19077083,1490575880993,,,,,,,,-0.05,0.12,1.0,1.0,0.4,-0.7,860,105,,,,,,,,,,,,,,,,,,,
19077103,1490575881007,,,,,,,,-0.06,0.11,0.99,1.0,0.2,-0.8,860,106,,,,,,,,,,,,,,,,,,,
19077123,1490575881027,,,,,53,,,-0.07,0.09,0.99,1.0,0.2,-0.9,880,103,1,1,8.544,0,38.159218,-122.454247,1.21,2.4,42.9,9,3,1.6,85,2.2017,2,0.2833,78.3563,78.2333,86
19077143,1490575881047,,,,,,,,-0.06,0.09,0.98,1.0,0.3,-0.8,860,106,,,,,,,,,,,,,,,,,,,
19077163,1490575881067,,,,,,,,-0.06,0.09,0.98,0.9,0.3,-0.7,860,109,,,,,,,,,,,,,,,,,,,
19077183,1490575881093,,,,,,,,-0.05,0.1,0.98,0.8,0.4,-0.6,860,108,,,,,,,,,,,,,,,,,,,
19077203,1490575881113,,,,,,,,-0.05,0.11,0.98,0.8,0.2,-0.6,840,108,,,,,,,,,,,,,,,,,,,
19077223,1490575881133,0,98.1,,113.7,54,113.8,,-0.06,0.1,0.99,0.8,0.2,-0.7,860,112,1,1,7.679,0,38.159218,-122.454247,1.3,2.4,42.9,9,3,1.6,85,2.2017,2,0.2833,78.3581,78.235,86
19077243,1490575881153,,,,,,,,-0.06,0.1,0.99,0.8,0.0,-0.7,840,114,,,,,,,,,,,,,,,,,,,
19077263,1490575881173,,,,,,,,-0.07,0.09,0.99,0.7,-0.1,-0.8,860,112,,,,,,,,,,,,,,,,,,,
19077283,1490575881193,,,,,,,,-0.07,0.08,0.99,0.7,0.0,-0.7,840,115,,,,,,,,,,,,,,,,,,,
19077303,1490575881213,,,,,,,,-0.07,0.08,0.98,0.7,0.1,-0.6,840,120,,,,,,,,,,,,,,,,,,,
19077323,1490575881233,,,,,54,,,-0.06,0.09,0.98,0.6,0.1,-0.5,840,118,1,1,7.119,0,38.159218,-122.454247,1.65,2.4,42.8,9,3,1.6,85,2.2017,2,0.2833,78.3597,78.2367,86
19077343,1490575881253,,,,,,,,-0.05,0.1,0.98,0.5,-0.1,-0.4,840,120,,,,,,,,,,,,,,,,,,,
19077363,1490575881273,,,,,,,,-0.06,0.11,0.98,0.5,-0.1,-0.5,860,126,,,,,,,,,,,,,,,,,,,
19077383,1490575881293,,,,,,,,-0.06,0.11,0.99,0.5,-0.1,-0.5,840,129,,,,,,,,,,,,,,,,,,,
19077403,1490575881313,,,,,,,,-0.07,0.1,0.99,0.5,-0.3,-0.5,860,125,,,,,,,,,,,,,,,,,,,
19077423,1490575881333,1,99.8,,115.2,54,114.1,,-0.07,0.09,0.98,0.5,-0.3,-0.5,840,126,1,1,6.667,0,38.159218,-122.454247,1.88,2.4,42.8,9,3,1.6,85,2.2017,2,0.2833,78.3614,78.2383,86
19077443,1490575881353,,,,,,,,-0.07,0.09,0.97,0.4,-0.2,-0.3,840,132,,,,,,,,,,,,,,,,,,,
19077463,1490575881373,,,,,,,,-0.06,0.1,0.97,0.3,-0.2,-0.1,840,131,,,,,,,,,,,,,,,,,,,
19077483,1490575881393,,,,,,,,-0.06,0.11,0.97,0.2,-0.4,-0.0,840,129,,,,,,,,,,,,,,,,,,,
19077503,1490575881413,,,,,,,,-0.06,0.11,0.98,0.1,-0.3,-0.1,860,134,,,,,,,,,,,,,,,,,,,
19077523,1490575881433,,,,,55,,,-0.07,0.11,0.99,-0.0,-0.4,-0.1,860,138,1,1,6.232,0,38.159218,-122.454247,2.34,2.4,42.8,9,3,1.6,85,2.2017,2,0.2833,78.3631,78.24,86
19077543,1490575881453,,,,,,,,-0.07,0.1,0.99,-0.1,-0.6,-0.2,860,137,,,,,,,,,,,,,,,,,,,
19077563,1490575881473,,,,,,,,-0.07,0.1,0.98,-0.2,-0.5,-0.1,840,142,,,,,,,,,,,,,,,,,,,
19077583,1490575881495,,,,,,,,-0.07,0.11,0.98,-0.4,-0.4,0.0,840,145,,,,,,,,,,,,,,,,,,,
19077603,1490575881515,,,,,,,,-0.06,0.11,0.98,-0.6,-0.3,0.1,840,143,,,,,,,,,,,,,,,,,,,
19077623,1490575881535,0,98.1,,115.0,54,114.0,,-0.05,0.12,0.98,-0.7,-0.3,0.1,840,145,1,1,5.833,0,38.159218,-122.454247,2.28,2.4,42.8,9,3,1.6,85,2.2017,2,0.2833,78.3648,78.2417,86
19077643,1490575881555,,,,,,,,-0.06,0.12,0.99,-0.9,-0.4,0.0,860,148,,,,,,,,,,,,,,,,,,,
19077663,1490575881575,,,,,,,,-0.06,0.13,0.99,-1.1,-0.4,-0.0,860,149,,,,,,,,,,,,,,,,,,,
19077683,1490575881595,,,,,,,,-0.07,0.12,0.99,-1.2,-0.6,-0.1,860,146,,,,,,,,,,,,,,,,,,,
19077703,1490575881615,,,,,,,,-0.07,0.12,0.99,-1.4,-0.4,-0.1,860,151,,,,,,,,,,,,,,,,,,,
19077723,1490575881635,,,,,54,,,-0.06,0.11,0.98,-1.6,-0.3,0.0,860,154,1,1,5.621,0,38.159218,-122.454247,2.42,2.4,42.8,9,3,1.6,85,2.2017,2,0.2833,78.3664,78.2433,86
19077743,1490575881655,,,,,,,,-0.05,0.12,0.98,-1.8,-0.2,0.1,860,151,,,,,,,,,,,,,,,,,,,
19077763,1490575881675,,,,,,,,-0.05,0.13,0.98,-2.0,-0.2,0.2,860,154,,,,,,,,,,,,,,,,,,,
19077783,1490575881694,,,,,,,,-0.06,0.15,0.98,-2.2,-0.4,0.2,860,160,,,,,,,,,,,,,,,,,,,
19077803,1490575881714,,,,,,,,-0.06,0.14,1.0,-2.4,-0.3,0.2,860,160,,,,,,,,,,,,,,,,,,,
19077823,1490575881734,0,98.2,-0.4,113.1,55,112.2,14.76,-0.07,0.14,0.99,-2.5,-0.6,0.1,880,158,1,1,5.57,0,38.159218,-122.454247,2.64,2.4,42.8,9,3,1.6,85,2.2017,2,0.2833,78.3681,78.245,86
19077843,1490575881754,,,,,,,,-0.08,0.13,0.99,-2.7,-0.6,0.0,880,166,,,,,,,,,,,,,,,,,,,
19077863,1490575881774,,,,,,,,-0.07,0.13,0.99,-2.9,-0.4,0.1,860,163,,,,,,,,,,,,,,,,,,,
19077883,1490575881794,,,,,,,,-0.06,0.13,0.98,-3.1,-0.4,0.2,860,158,,,,,,,,,,,,,,,,,,,
19077903,1490575881814,,,,,,,,-0.06,0.14,0.98,-3.4,-0.4,0.2,860,163,,,,,,,,,,,,,,,,,,,
19077923,1490575881834,,,,,56,,,-0.05,0.16,0.98,-3.6,-0.3,0.2,860,171,1,1,5.059,0,38.159222,-122.454247,2.27,2.4,42.7,9,3,1.6,85,2.2017,2,0.2833,78.3695,78.2467,86
19077943,1490575881854,,,,,,,,-0.05,0.16,0.98,-3.8,-0.4,0.1,860,171,,,,,,,,,,,,,,,,,,,
19077963,1490575881874,,,,,,,,-0.05,0.15,0.99,-4.0,-0.4,0.1,880,166,,,,,,,,,,,,,,,,,,,
19077983,1490575881894,,,,,,,,-0.06,0.15,0.99,-4.3,-0.6,-0.0,860,171,,,,,,,,,,,,,,,,,,,
19078003,1490575881914,,,,,,,,-0.06,0.15,0.99,-4.5,-0.7,-0.1,860,177,,,,,,,,,,,,,,,,,,,
19078023,1490575881934,0,99.1,,113.4,55,112.2,,-0.06,0.14,0.99,-4.7,-0.5,-0.0,860,175,1,1,4.914,0,38.159222,-122.454247,2.73,2.4,42.7,9,3,1.6,85,2.2017,2,0.2833,78.3712,78.2483,86
19078043,1490575881954,,,,,,,,-0.06,0.14,0.98,-5.0,-0.5,0.1,860,172,,,,,,,,,,,,,,,,,,,
19078063,1490575881974,,,,,,,,-0.05,0.14,0.98,-5.3,-0.4,0.2,860,172,,,,,,,,,,,,,,,,,,,
19078083,1490575881994,,,,,,,,-0.04,0.16,0.98,-5.6,-0.3,0.3,880,174,,,,,,,,,,,,,,,,,,,
19078103,1490575882006,,,,,,,,-0.04,0.17,0.98,-5.9,-0.5,0.3,880,180,,,,,,,,,,,,,,,,,,,
19078123,1490575882026,,,,,55,,,-0.04,0.16,0.99,-6.1,-0.4,0.2,880,183,1,1,4.809,0,38.159222,-122.454247,2.39,2.4,42.7,9,3,1.6,85,2.2017,2,0.2833,78.3727,78.25,86
19078143,1490575882046,,,,,,,,-0.04,0.16,1.0,-6.4,-0.4,0.2,860,178,,,,,,,,,,,,,,,,,,,
19078163,1490575882066,,,,,,,,-0.05,0.15,1.0,-6.5,-0.5,0.1,860,178,,,,,,,,,,,,,,,,,,,
19078183,1490575882094,,,,,,,,-0.06,0.14,1.0,-6.7,-0.3,0.1,880,185,,,,,,,,,,,,,,,,,,,
19078203,1490575882114,,,,,,,,-0.05,0.13,0.99,-6.9,-0.4,0.2,880,185,,,,,,,,,,,,,,,,,,,
19078223,1490575882134,0,97.1,,113.3,56,112.2,,-0.04,0.14,0.99,-7.0,-0.4,0.4,880,172,1,1,5.029,0,38.159225,-122.454247,2.66,2.4,42.6,9,3,1.6,85,2.2017,2,0.2833,78.3743,78.2517,86
19078243,1490575882154,,,,,,,,-0.03,0.14,0.99,-7.3,-0.3,0.4,880,172,,,,,,,,,,,,,,,,,,,
19078263,1490575882174,,,,,,,,-0.02,0.16,0.99,-7.4,-0.4,0.4,880,178,,,,,,,,,,,,,,,,,,,
19078283,1490575882194,,,,,,,,-0.02,0.16,0.99,-7.6,-0.6,0.4,880,180,,,,,,,,,,,,,,,,,,,
19078303,1490575882214,,,,,,,,-0.02,0.16,1.0,-7.8,-0.6,0.3,880,177,,,,,,,,,,,,,,,,,,,
19078323,1490575882234,,,,,57,,,-0.02,0.16,1.0,-8.0,-0.8,0.2,900,175,1,1,5.143,0,38.159225,-122.454247,3.05,2.4,42.6,9,3,1.6,85,2.2017,2,0.2833,78.376,78.2533,86
19078343,1490575882254,,,,,,,,-0.02,0.15,1.0,-8.2,-0.9,0.1,900,175,,,,,,,,,,,,,,,,,,,
19078363,1490575882274,,,,,,,,-0.02,0.15,1.0,-8.4,-0.8,0.1,920,178,,,,,,,,,,,,,,,,,,,
19078383,1490575882294,,,,,,,,-0.01,0.14,1.0,-8.6,-0.8,0.1,920,180,,,,,,,,,,,,,,,,,,,
19078403,1490575882314,,,,,,,,-0.0,0.14,0.98,-8.8,-0.9,0.1,940,180,,,,,,,,,,,,,,,,,,,
