"Interval"|"ms"|0|0|1,"Utc"|"ms"|0|0|1,"FuelLevel"|"F"|0|100|5,"OilTemp"|"F"|0.0|300.0|5,"CoolantPressPSI"|"PSI"|0.0|20.0|1,"Coolant"|"F"|0.0|300.0|5,"OilPress"|"PSI"|0|150|10,"EngineTemp"|"F"|0.0|300.0|5,"Battery"|"Volts"|0.0|20.0|1,"AccelX"|"G"|-3.0|3.0|50,"AccelY"|"G"|-3.0|3.0|50,"AccelZ"|"G"|-3.0|3.0|50,"Yaw"|"Deg/Sec"|-300.0|300.0|50,"Pitch"|"Deg/Sec"|-300.0|300.0|50,"Roll"|"Deg/Sec"|-300.0|300.0|50,"RPM"|""|0|10000|50,"Driveshaft"|"RPM"|0|5000|50,"GPIO1"|""|0|1|10,"GPIO2"|""|0|1|10,"GearRatio"|""|-5.0|5.0|10,"Gear"|""|-1|5|10,"Latitude"|"Degrees"|-180.0|180.0|10,"Longitude"|"Degrees"|-180.0|180.0|10,"Speed"|"mph"|0.0|150.0|10,"Distance"|"mi"|0.0|0.0|10,"Altitude"|"ft"|0.0|4000.0|10,"GPSSats"|""|0|20|10,"GPSQual"|""|0|5|10,"GPSDOP"|""|0.0|20.0|10,"LapCount"|""|0|0|10,"LapTime"|"Min"|0.0|0.0|10,"Sector"|""|0|0|10,"SectorTime"|"Min"|0.0|0.0|10,"PredTime"|"Min"|0.0|0.0|10,"ElapsedTime"|"Min"|0.0|0.0|10,"CurrentLap"|""|0|0|10
12354,1490460193758,,,,,,,,0.01,0.09,0.99,-3.1,0.4,0.0,560,0,,,,,,,,,,,,,,,,,,,
12374,1490460193798,,,,,56,,,0.01,0.1,0.99,-3.1,0.5,0.0,540,0,1,1,0.0,0,38.159145,-122.454391,0.0,0.0,2.7,8,2,1.7,0,0.0,-1,0.0,0.0,0.0,0
12394,1490460193818,,,,,,,,0.01,0.09,0.99,-3.1,0.5,-0.0,540,0,,,,,,,,,,,,,,,,,,,
12414,1490460193838,,,,,,,,0.01,0.09,0.99,-3.1,0.4,0.0,540,0,,,,,,,,,,,,,,,,,,,
12434,1490460193858,,,,,,,,0.02,0.09,0.99,-3.1,0.5,0.0,540,0,,,,,,,,,,,,,,,,,,,
12454,1490460193878,,,,,,,,0.02,0.09,0.99,-3.1,0.4,0.1,580,0,,,,,,,,,,,,,,,,,,,
12474,1490460193898,0,44.9,,43.6,54,46.4,,0.01,0.09,0.99,-3.1,0.4,0.1,600,0,1,1,0.0,0,38.159153,-122.454376,0.0,0.0,6.2,8,2,1.7,0,0.0,-1,0.0,0.0,0.0,0
12494,1490460193918,,,,,,,,0.01,0.09,0.99,-3.1,0.5,0.0,600,0,,,,,,,,,,,,,,,,,,,
12514,1490460193938,,,,,,,,0.01,0.09,0.99,-3.1,0.4,0.0,620,0,,,,,,,,,,,,,,,,,,,
12534,1490460193958,,,,,,,,0.01,0.08,0.99,-3.1,0.4,-0.0,620,0,,,,,,,,,,,,,,,,,,,
12554,1490460193978,,,,,,,,0.01,0.08,0.99,-3.1,0.4,-0.0,620,0,,,,,,,,,,,,,,,,,,,
12574,1490460194000,,,,,55,,,0.01,0.09,0.99,-3.1,0.4,0.1,660,0,1,1,0.0,0,38.159153,-122.454361,0.0,0.0,18.9,8,2,1.7,0,0.0,-1,0.0,0.0,0.0,0
12594,1490460194020,,,,,,,,0.0,0.09,0.99,-3.1,0.3,-0.0,680,0,,,,,,,,,,,,,,,,,,,
12614,1490460194040,,,,,,,,-0.0,0.08,0.98,-3.1,0.4,-0.0,680,0,,,,,,,,,,,,,,,,,,,
12634,1490460194060,,,,,,,,0.0,0.09,0.98,-3.2,0.4,0.1,660,0,,,,,,,,,,,,,,,,,,,
12654,1490460194080,,,,,,,,0.0,0.09,0.98,-3.2,0.4,0.1,740,0,,,,,,,,,,,,,,,,,,,
12674,1490460194099,0,46.8,,45.4,58,49.0,,0.01,0.09,0.98,-3.1,0.4,-0.0,760,0,1,1,0.0,0,38.159157,-122.454361,0.0,0.0,26.0,8,2,1.7,0,0.0,-1,0.0,0.0,0.0,0
12694,1490460194119,,,,,,,,0.01,0.1,0.98,-3.2,0.4,0.0,760,0,,,,,,,,,,,,,,,,,,,
12714,1490460194139,,,,,,,,0.01,0.11,0.98,-3.2,0.4,0.1,760,0,,,,,,,,,,,,,,,,,,,
12734,1490460194159,,,,,,,,0.01,0.1,0.99,-3.2,0.4,0.0,780,0,,,,,,,,,,,,,,,,,,,
12754,1490460194179,,,,,,,,0.0,0.1,0.99,-3.1,0.4,-0.1,780,0,,,,,,,,,,,,,,,,,,,
12774,1490460194197,,,,,64,,,0.01,0.09,0.98,-3.1,0.4,-0.2,780,0,1,1,0.0,0,38.159157,-122.454361,0.0,0.0,30.3,8,2,1.7,0,0.0,-1,0.0,0.0,0.0,0
12794,1490460194217,,,,,,,,0.01,0.09,0.98,-3.1,0.4,-0.1,820,0,,,,,,,,,,,,,,,,,,,
12814,1490460194237,,,,,,,,0.01,0.1,0.98,-3.2,0.6,0.0,840,0,,,,,,,,,,,,,,,,,,,
12834,1490460194257,,,,,,,,0.01,0.1,0.99,-3.1,0.4,0.1,860,0,,,,,,,,,,,,,,,,,,,
12854,1490460194277,,,,,,,,0.0,0.11,0.99,-3.1,0.6,0.0,880,0,,,,,,,,,,,,,,,,,,,
12874,1490460194297,0,45.3,,43.6,65,46.7,,0.01,0.11,0.99,-3.1,0.4,-0.1,880,0,1,1,0.0,0,38.159157,-122.454361,0.0,0.0,32.9,8,2,1.7,0,0.0,-1,0.0,0.0,0.0,0
12894,1490460194317,,,,,,,,-0.01,0.1,0.99,-3.1,0.2,-0.3,900,0,,,,,,,,,,,,,,,,,,,
12914,1490460194337,,,,,,,,-0.01,0.08,0.99,-3.0,0.5,-0.4,920,0,,,,,,,,,,,,,,,,,,,
12934,1490460194357,,,,,,,,-0.0,0.08,0.98,-3.0,0.3,-0.4,940,0,,,,,,,,,,,,,,,,,,,
12954,1490460194377,,,,,,,,-0.0,0.07,0.98,-3.1,0.4,-0.2,940,0,,,,,,,,,,,,,,,,,,,
12974,1490460194397,,,,,64,,,0.0,0.08,0.98,-3.1,0.5,-0.1,940,0,1,1,0.0,0,38.159157,-122.454361,0.0,0.0,35.1,8,2,1.7,0,0.0,-1,0.0,0.0,0.0,0
12994,1490460194417,,,,,,,,0.01,0.08,0.99,-3.1,0.5,0.1,940,0,,,,,,,,,,,,,,,,,,,
13014,1490460194437,,,,,,,,0.01,0.09,0.99,-3.2,0.6,0.2,940,0,,,,,,,,,,,,,,,,,,,
13034,1490460194457,,,,,,,,0.02,0.1,1.0,-3.2,0.4,0.3,940,0,,,,,,,,,,,,,,,,,,,
13054,1490460194477,,,,,,,,0.02,0.11,1.0,-3.2,0.3,0.3,940,0,,,,,,,,,,,,,,,,,,,
13074,1490460194497,0,47.3,0.1,45.7,65,47.9,14.93,0.02,0.11,1.0,-3.2,0.3,0.3,940,0,1,1,0.0,0,38.159161,-122.454361,0.0,0.0,37.1,8,2,1.7,0,0.0,-1,0.0,0.0,0.0,0
13094,1490460194517,,,,,,,,0.02,0.12,1.0,-3.2,0.3,0.2,940,0,,,,,,,,,,,,,,,,,,,
13114,1490460194537,,,,,,,,0.01,0.13,1.01,-3.2,0.3,0.2,940,0,,,,,,,,,,,,,,,,,,,
13134,1490460194557,,,,,,,,0.02,0.13,1.01,-3.2,0.2,0.1,920,0,,,,,,,,,,,,,,,,,,,
13154,1490460194577,,,,,,,,0.02,0.13,1.01,-3.2,0.3,0.0,920,0,,,,,,,,,,,,,,,,,,,
13174,1490460194597,,,,,63,,,0.01,0.13,1.0,-3.1,0.2,-0.1,920,0,1,1,0.0,0,38.159161,-122.454361,0.0,0.0,38.2,8,2,1.7,0,0.0,-1,0.0,0.0,0.0,0
13194,1490460194617,,,,,,,,0.01,0.12,1.0,-3.1,0.1,-0.2,920,0,,,,,,,,,,,,,,,,,,,
13214,1490460194637,,,,,,,,0.0,0.11,0.99,-3.1,0.1,-0.3,920,0,,,,,,,,,,,,,,,,,,,
13234,1490460194657,,,,,,,,0.0,0.09,0.99,-3.1,0.1,-0.3,900,0,,,,,,,,,,,,,,,,,,,
13254,1490460194677,,,,,,,,-0.0,0.09,0.99,-3.1,0.2,-0.2,900,0,,,,,,,,,,,,,,,,,,,
13274,1490460194689,0,47.9,,46.2,62,47.8,,0.0,0.08,0.98,-3.1,0.2,-0.1,880,0,1,1,0.0,0,38.159161,-122.454361,0.0,0.0,38.2,8,2,1.7,0,0.0,-1,0.0,0.0,0.0,0
13294,1490460194709,,,,,,,,0.0,0.08,0.98,-3.1,0.2,-0.1,880,0,,,,,,,,,,,,,,,,,,,
13314,1490460194729,,,,,,,,0.01,0.08,0.98,-3.1,0.3,0.0,880,0,,,,,,,,,,,,,,,,,,,
13334,1490460194749,,,,,,,,0.01,0.09,0.98,-3.1,0.3,0.1,860,0,,,,,,,,,,,,,,,,,,,
13354,1490460194769,,,,,,,,0.01,0.09,0.99,-3.1,0.4,0.1,840,0,,,,,,,,,,,,,,,,,,,
13374,1490460194795,,,,,62,,,0.01,0.1,0.99,-3.1,0.4,0.0,820,0,1,1,0.0,0,38.159161,-122.454361,0.0,0.0,38.2,8,2,1.7,0,0.0,-1,0.0,0.0,0.0,0
13394,1490460194815,,,,,,,,0.01,0.09,0.99,-3.1,0.3,-0.0,780,0,,,,,,,,,,,,,,,,,,,
13414,1490460194835,,,,,,,,0.01,0.09,0.99,-3.1,0.4,-0.0,780,0,,,,,,,,,,,,,,,,,,,
13434,1490460194855,,,,,,,,0.01,0.1,0.99,-3.2,0.5,0.1,780,0,,,,,,,,,,,,,,,,,,,
13454,1490460194875,,,,,,,,0.01,0.1,0.99,-3.2,0.3,0.2,780,0,,,,,,,,,,,,,,,,,,,
13474,1490460194895,0,44.6,,42.4,61,45.2,,0.01,0.1,1.0,-3.1,0.4,0.1,800,0,1,1,0.0,0,38.159161,-122.454361,0.0,0.0,38.2,8,2,1.7,0,0.0,-1,0.0,0.0,0.0,0
13494,1490460194915,,,,,,,,0.01,0.1,1.0,-3.1,0.4,-0.0,800,0,,,,,,,,,,,,,,,,,,,
13514,1490460194935,,,,,,,,0.01,0.1,1.0,-3.2,0.4,0.0,800,0,,,,,,,,,,,,,,,,,,,
13534,1490460194955,,,,,,,,0.01,0.1,0.99,-3.2,0.5,0.1,800,0,,,,,,,,,,,,,,,,,,,
13554,1490460194975,,,,,,,,0.01,0.11,1.0,-3.2,0.3,0.1,780,0,,,,,,,,,,,,,,,,,,,
13574,1490460194995,,,,,59,,,0.01,0.11,1.0,-3.1,0.3,0.1,800,0,1,1,0.0,0,38.159161,-122.454361,0.0,0.0,38.2,8,2,1.7,0,0.0,-1,0.0,0.0,0.0,0
13594,1490460195015,,,,,,,,0.01,0.1,1.0,-3.1,0.3,-0.1,800,0,,,,,,,,,,,,,,,,,,,
13614,1490460195035,,,,,,,,0.01,0.1,1.0,-3.1,0.3,-0.1,800,0,,,,,,,,,,,,,,,,,,,
13634,1490460195055,,,,,,,,0.01,0.1,0.99,-3.1,0.3,0.0,820,0,,,,,,,,,,,,,,,,,,,
13654,1490460195075,,,,,,,,0.02,0.1,1.0,-3.2,0.3,0.1,820,0,,,,,,,,,,,,,,,,,,,
13674,1490460195095,0,44.8,,42.7,58,44.9,,0.01,0.1,1.0,-3.1,0.2,0.1,800,0,1,1,0.0,0,38.159161,-122.454353,0.0,0.0,38.3,9,2,1.5,0,0.0,-1,0.0,0.0,0.0,0
13694,1490460195115,,,,,,,,0.02,0.1,1.0,-3.1,0.3,-0.0,800,0,,,,,,,,,,,,,,,,,,,
13714,1490460195135,,,,,,,,0.01,0.09,1.0,-3.1,0.2,-0.0,800,0,,,,,,,,,,,,,,,,,,,
13734,1490460195155,,,,,,,,0.02,0.1,0.99,-3.1,0.3,0.0,800,0,,,,,,,,,,,,,,,,,,,
13754,1490460195175,,,,,,,,0.02,0.1,1.0,-3.1,0.4,0.1,800,0,,,,,,,,,,,,,,,,,,,
13774,1490460195194,,,,,60,,,0.01,0.11,1.0,-3.1,0.2,0.1,820,0,1,1,0.0,0,38.159161,-122.454353,0.0,0.0,38.3,9,2,1.5,0,0.0,-1,0.0,0.0,0.0,0
13794,1490460195214,,,,,,,,0.01,0.1,1.0,-3.1,0.5,-0.0,820,0,,,,,,,,,,,,,,,,,,,
13814,1490460195234,,,,,,,,0.01,0.09,1.0,-3.0,0.3,-0.1,800,0,,,,,,,,,,,,,,,,,,,
13834,1490460195254,,,,,,,,0.01,0.09,1.0,-3.1,0.4,-0.1,800,0,,,,,,,,,,,,,,,,,,,
13854,1490460195274,,,,,,,,0.01,0.09,0.99,-3.1,0.5,-0.0,820,0,,,,,,,,,,,,,,,,,,,
13874,1490460195294,0,47.6,,45.2,59,45.7,,0.01,0.1,1.0,-3.1,0.3,0.0,800,0,1,1,0.0,0,38.159161,-122.454353,0.0,0.0,38.3,9,2,1.5,0,0.0,-1,0.0,0.0,0.0,0
13894,1490460195314,,,,,,,,0.01,0.1,1.0,-3.1,0.5,0.0,820,0,,,,,,,,,,,,,,,,,,,
13914,1490460195334,,,,,,,,0.01,0.09,1.0,-3.0,0.4,-0.1,820,0,,,,,,,,,,,,,,,,,,,
13934,1490460195354,,,,,,,,0.0,0.09,1.0,-3.1,0.3,-0.2,820,0,,,,,,,,,,,,,,,,,,,
13954,1490460195374,,,,,,,,0.01,0.09,0.99,-3.1,0.4,-0.2,820,0,,,,,,,,,,,,,,,,,,,
13974,1490460195394,,,,,59,,,0.01,0.1,0.99,-3.1,0.5,-0.0,820,0,1,1,0.0,0,38.159161,-122.454353,0.0,0.0,38.3,9,2,1.5,0,0.0,-1,0.0,0.0,0.0,0
13994,1490460195414,,,,,,,,0.01,0.1,1.0,-3.1,0.3,0.1,820,0,,,,,,,,,,,,,,,,,,,
14014,1490460195434,,,,,,,,0.01,0.1,1.0,-3.1,0.4,0.0,820,0,,,,,,,,,,,,,,,,,,,
14034,1490460195454,,,,,,,,0.01,0.09,1.0,-3.0,0.3,-0.1,840,0,,,,,,,,,,,,,,,,,,,
14054,1490460195474,,,,,,,,0.0,0.09,0.99,-3.0,0.3,-0.2,840,0,,,,,,,,,,,,,,,,,,,
14074,1490460195494,0,46.4,0.1,44.4,60,47.2,14.82,0.01,0.08,0.99,-3.0,0.4,-0.2,840,0,1,1,0.0,0,38.159161,-122.454353,0.0,0.0,38.3,9,2,1.5,0,0.0,-1,0.0,0.0,0.0,0
14094,1490460195514,,,,,,,,0.01,0.09,0.98,-3.1,0.4,-0.1,840,0,,,,,,,,,,,,,,,,,,,
14114,1490460195534,,,,,,,,0.01,0.09,0.99,-3.1,0.4,-0.0,820,0,,,,,,,,,,,,,,,,,,,
14134,1490460195554,,,,,,,,0.01,0.1,0.99,-3.1,0.4,0.0,840,0,,,,,,,,,,,,,,,,,,,
14154,1490460195574,,,,,,,,0.01,0.1,0.99,-3.1,0.4,-0.0,840,0,,,,,,,,,,,,,,,,,,,
14174,1490460195594,,,,,59,,,0.0,0.09,0.99,-3.1,0.1,-0.2,840,0,1,1,0.0,0,38.159161,-122.454353,0.0,0.0,38.3,9,2,1.5,0,0.0,-1,0.0,0.0,0.0,0
14194,1490460195614,,,,,,,,0.01,0.08,0.99,-3.1,0.3,-0.3,860,0,,,,,,,,,,,,,,,,,,,
14214,1490460195634,,,,,,,,0.01,0.08,0.98,-3.1,0.3,-0.2,860,0,,,,,,,,,,,,,,,,,,,
14234,1490460195654,,,,,,,,0.02,0.08,0.98,-3.1,0.5,-0.1,860,0,,,,,,,,,,,,,,,,,,,
14254,1490460195674,,,,,,,,0.02,0.09,0.98,-3.1,0.4,0.0,840,0,,,,,,,,,,,,,,,,,,,
14274,1490460195686,0,47.4,,45.6,61,47.0,,0.01,0.1,0.99,-3.1,0.5,0.1,840,0,1,1,0.0,0,38.159161,-122.454353,0.0,0.0,38.3,9,2,1.5,0,0.0,-1,0.0,0.0,0.0,0
14294,1490460195706,,,,,,,,0.01,0.09,0.99,-3.1,0.5,-0.0,840,0,,,,,,,,,,,,,,,,,,,
14314,1490460195726,,,,,,,,0.01,0.09,0.99,-3.1,0.4,-0.2,840,0,,,,,,,,,,,,,,,,,,,
14334,1490460195746,,,,,,,,0.01,0.08,0.99,-3.0,0.5,-0.2,860,0,,,,,,,,,,,,,,,,,,,
14354,1490460195766,,,,,,,,0.01,0.08,0.98,-3.1,0.5,-0.2,860,0,,,,,,,,,,,,,,,,,,,
14374,1490460195796,,,,,63,,,0.02,0.08,0.98,-3.1,0.6,-0.0,860,0,1,1,0.0,0,38.159161,-122.454353,0.0,0.0,38.3,9,2,1.5,0,0.0,-1,0.0,0.0,0.0,0
14394,1490460195816,,,,,,,,0.02,0.09,0.99,-3.1,0.5,0.1,840,0,,,,,,,,,,,,,,,,,,,
14414,1490460195836,,,,,,,,0.01,0.09,0.99,-3.1,0.5,0.1,840,0,,,,,,,,,,,,,,,,,,,
14434,1490460195856,,,,,,,,0.01,0.09,1.0,-3.1,0.5,-0.0,840,0,,,,,,,,,,,,,,,,,,,
14454,1490460195876,,,,,,,,0.01,0.09,0.99,-3.0,0.4,-0.2,840,17,,,,,,,,,,,,,,,,,,,
14474,1490460195894,0,45.5,,43.4,62,45.8,,0.01,0.08,0.99,-3.0,0.5,-0.2,860,17,1,1,0.0,0,38.159161,-122.454353,0.0,0.0,38.3,9,2,1.5,0,0.0,-1,0.0,0.0,0.0,0
14494,1490460195914,,,,,,,,0.01,0.08,0.99,-3.0,0.4,-0.2,860,17,,,,,,,,,,,,,,,,,,,
14514,1490460195934,,,,,,,,0.01,0.08,0.99,-3.1,0.6,-0.1,840,17,,,,,,,,,,,,,,,,,,,
14534,1490460195954,,,,,,,,0.01,0.09,0.99,-3.1,0.5,0.0,840,17,,,,,,,,,,,,,,,,,,,
14554,1490460195974,,,,,,,,0.01,0.09,0.99,-3.1,0.6,0.0,840,17,,,,,,,,,,,,,,,,,,,
14574,1490460195994,,,,,63,,,0.01,0.08,0.99,-3.0,0.6,-0.1,840,17,1,1,52.5,0,38.159161,-122.454353,0.0,0.0,38.3,9,2,1.5,0,0.0,-1,0.0,0.0,0.0,0
14594,1490460196014,,,,,,,,0.0,0.08,1.0,-3.0,0.4,-0.2,840,17,,,,,,,,,,,,,,,,,,,
14614,1490460196034,,,,,,,,0.01,0.08,0.99,-3.0,0.5,-0.3,860,17,,,,,,,,,,,,,,,,,,,
14634,1490460196054,,,,,,,,0.0,0.08,0.99,-3.0,0.5,-0.2,860,17,,,,,,,,,,,,,,,,,,,
14654,1490460196074,,,,,,,,0.01,0.08,0.99,-3.1,0.6,-0.0,860,17,,,,,,,,,,,,,,,,,,,
14674,1490460196094,0,47.0,,44.6,62,45.2,,0.01,0.09,0.99,-3.1,0.4,0.1,840,17,1,1,53.75,0,38.159161,-122.454353,0.0,0.0,38.3,9,2,1.5,0,0.0,-1,0.0,0.0,0.0,0
14694,1490460196114,,,,,,,,0.01,0.09,0.99,-3.1,0.5,0.1,840,17,,,,,,,,,,,,,,,,,,,
14714,1490460196134,,,,,,,,0.01,0.09,0.99,-3.1,0.5,-0.0,820,17,,,,,,,,,,,,,,,,,,,
14734,1490460196154,,,,,,,,0.01,0.08,0.99,-3.1,0.5,-0.1,820,17,,,,,,,,,,,,,,,,,,,
14754,1490460196174,,,,,,,,0.01,0.08,0.98,-3.1,0.5,-0.1,820,1538462,,,,,,,,,,,,,,,,,,,
14774,1490460196195,,,,,62,,,0.01,0.08,0.98,-3.1,0.6,0.0,840,0,1,1,51.25,0,38.159161,-122.454353,0.0,0.0,38.3,9,2,1.5,0,0.0,-1,0.0,0.0,0.0,0
14794,1490460196215,,,,,,,,0.01,0.09,0.99,-3.1,0.5,0.1,840,0,,,,,,,,,,,,,,,,,,,
14814,1490460196235,,,,,,,,0.01,0.1,0.99,-3.1,0.5,0.1,820,0,,,,,,,,,,,,,,,,,,,
14834,1490460196255,,,,,,,,0.01,0.09,0.99,-3.1,0.4,-0.0,820,0,,,,,,,,,,,,,,,,,,,
14854,1490460196275,,,,,,,,0.01,0.09,0.99,-3.1,0.4,-0.1,820,0,,,,,,,,,,,,,,,,,,,
14874,1490460196293,0,47.3,,45.1,60,46.6,,0.01,0.08,0.98,-3.1,0.5,-0.1,820,0,1,1,0.0,0,38.159161,-122.454353,0.0,0.0,38.3,9,2,1.5,0,0.0,-1,0.0,0.0,0.0,0
14894,1490460196313,,,,,,,,0.01,0.09,0.98,-3.1,0.5,0.0,820,0,,,,,,,,,,,,,,,,,,,
14914,1490460196333,,,,,,,,0.02,0.1,0.98,-3.2,0.4,0.1,840,0,,,,,,,,,,,,,,,,,,,
14934,1490460196353,,,,,,,,0.01,0.1,0.99,-3.1,0.5,0.1,840,0,,,,,,,,,,,,,,,,,,,
14954,1490460196373,,,,,,,,0.01,0.09,0.99,-3.1,0.5,-0.0,820,0,,,,,,,,,,,,,,,,,,,
14974,1490460196393,,,,,60,,,0.01,0.09,0.99,-3.1,0.4,-0.1,820,0,1,1,0.0,0,38.159161,-122.454353,0.0,0.0,38.3,9,2,1.5,0,0.0,-1,0.0,0.0,0.0,0
14994,1490460196413,,,,,,,,0.01,0.08,0.98,-3.1,0.5,-0.1,820,0,,,,,,,,,,,,,,,,,,,
15014,1490460196433,,,,,,,,0.01,0.09,0.98,-3.1,0.5,-0.0,840,0,,,,,,,,,,,,,,,,,,,
15034,1490460196453,,,,,,,,0.02,0.1,0.99,-3.1,0.4,0.1,840,0,,,,,,,,,,,,,,,,,,,
15054,1490460196473,,,,,,,,0.01,0.11,0.99,-3.1,0.3,0.1,840,0,,,,,,,,,,,,,,,,,,,
15074,1490460196493,0,45.2,0.1,43.6,60,46.0,14.93,0.02,0.11,0.99,-3.1,0.4,0.0,840,0,1,1,0.0,0,38.159161,-122.454353,0.0,0.0,38.3,9,2,1.5,0,0.0,-1,0.0,0.0,0.0,0
15094,1490460196513,,,,,,,,0.01,0.1,0.99,-3.1,0.3,-0.1,820,0,,,,,,,,,,,,,,,,,,,
15114,1490460196533,,,,,,,,0.01,0.09,0.99,-3.1,0.4,-0.1,820,0,,,,,,,,,,,,,,,,,,,
15134,1490460196553,,,,,,,,0.02,0.1,0.99,-3.1,0.4,-0.0,820,0,,,,,,,,,,,,,,,,,,,
15154,1490460196573,,,,,,,,0.02,0.1,0.99,-3.1,0.4,0.1,820,0,,,,,,,,,,,,,,,,,,,
15174,1490460196593,,,,,60,,,0.02,0.1,0.99,-3.1,0.2,0.2,840,0,1,1,0.0,0,38.159161,-122.454353,0.0,0.0,38.3,9,2,1.5,0,0.0,-1,0.0,0.0,0.0,0
15194,1490460196613,,,,,,,,0.02,0.1,0.99,-3.1,0.4,0.1,840,0,,,,,,,,,,,,,,,,,,,
15214,1490460196633,,,,,,,,0.01,0.1,0.99,-3.1,0.2,-0.0,840,0,,,,,,,,,,,,,,,,,,,
15234,1490460196653,,,,,,,,0.01,0.1,0.99,-3.1,0.2,-0.1,820,0,,,,,,,,,,,,,,,,,,,
15254,1490460196673,,,,,,,,0.01,0.1,0.99,-3.1,0.2,-0.1,820,0,,,,,,,,,,,,,,,,,,,
15274,1490460196693,0,46.5,,44.6,60,47.0,,0.02,0.1,0.99,-3.1,0.3,-0.0,820,0,1,1,0.0,0,38.159161,-122.454353,0.0,0.0,38.3,9,2,1.5,0,0.0,-1,0.0,0.0,0.0,0
15294,1490460196713,,,,,,,,0.02,0.11,0.99,-3.1,0.2,0.1,820,0,,,,,,,,,,,,,,,,,,,
15314,1490460196733,,,,,,,,0.01,0.1,0.99,-3.1,0.4,0.0,820,0,,,,,,,,,,,,,,,,,,,
15334,1490460196753,,,,,,,,0.01,0.1,0.99,-3.1,0.2,-0.1,840,0,,,,,,,,,,,,,,,,,,,
15354,1490460196773,,,,,,,,0.01,0.09,0.99,-3.1,0.3,-0.2,840,0,,,,,,,,,,,,,,,,,,,
15374,1490460196793,,,,,59,,,0.01,0.09,0.98,-3.1,0.3,-0.2,840,0,1,1,0.0,0,38.159161,-122.454353,0.0,0.0,38.3,9,2,1.5,0,0.0,-1,0.0,0.0,0.0,0
15394,1490460196813,,,,,,,,0.01,0.09,0.98,-3.1,0.4,-0.0,820,0,,,,,,,,,,,,,,,,,,,
15414,1490460196833,,,,,,,,0.01,0.1,0.98,-3.2,0.3,0.1,840,0,,,,,,,,,,,,,,,,,,,
15434,1490460196853,,,,,,,,0.01,0.1,0.99,-3.2,0.3,0.1,840,0,,,,,,,,,,,,,,,,,,,
15454,1490460196873,,,,,,,,0.01,0.1,0.99,-3.1,0.3,0.0,840,0,,,,,,,,,,,,,,,,,,,
15474,1490460196893,0,45.0,,43.2,60,45.3,,0.01,0.09,0.99,-3.1,0.2,-0.1,860,0,1,1,0.0,0,38.159161,-122.454353,0.0,0.0,38.3,9,2,1.5,0,0.0,-1,0.0,0.0,0.0,0
15494,1490460196913,,,,,,,,0.01,0.09,0.98,-3.1,0.3,-0.2,860,0,,,,,,,,,,,,,,,,,,,
15514,1490460196933,,,,,,,,0.01,0.09,0.98,-3.1,0.3,-0.1,860,0,,,,,,,,,,,,,,,,,,,
15534,1490460196953,,,,,,,,0.01,0.09,0.98,-3.1,0.4,-0.1,820,0,,,,,,,,,,,,,,,,,,,
15554,1490460196973,,,,,,,,0.01,0.09,0.99,-3.1,0.3,0.0,820,0,,,,,,,,,,,,,,,,,,,
15574,1490460196993,,,,,59,,,0.01,0.09,0.99,-3.1,0.3,-0.0,820,0,1,1,0.0,0,38.159161,-122.454353,0.0,0.0,38.3,9,2,1.5,0,0.0,-1,0.0,0.0,0.0,0
15594,1490460197005,,,,,,,,0.01,0.09,0.99,-3.1,0.1,-0.1,820,0,,,,,,,,,,,,,,,,,,,
15614,1490460197025,,,,,,,,0.01,0.08,0.99,-3.1,0.3,-0.2,840,0,,,,,,,,,,,,,,,,,,,
15634,1490460197045,,,,,,,,0.01,0.08,0.98,-3.1,0.2,-0.1,840,0,,,,,,,,,,,,,,,,,,,
15654,1490460197065,,,,,,,,0.01,0.09,0.98,-3.1,0.4,0.0,840,0,,,,,,,,,,,,,,,,,,,
15674,1490460197092,0,45.5,,43.9,58,46.4,,0.01,0.09,0.99,-3.1,0.2,0.1,820,0,1,1,0.0,0,38.159161,-122.454353,0.0,0.0,38.3,9,2,1.5,0,0.0,-1,0.0,0.0,0.0,0
15694,1490460197112,,,,,,,,0.01,0.1,0.99,-3.1,0.4,0.1,820,0,,,,,,,,,,,,,,,,,,,
15714,1490460197132,,,,,,,,0.01,0.09,0.99,-3.1,0.3,-0.1,820,0,,,,,,,,,,,,,,,,,,,
15734,1490460197152,,,,,,,,0.0,0.08,0.99,-3.1,0.4,-0.2,820,0,,,,,,,,,,,,,,,,,,,
15754,1490460197172,,,,,,,,0.01,0.08,0.98,-3.1,0.4,-0.1,820,0,,,,,,,,,,,,,,,,,,,
15774,1490460197192,,,,,59,,,0.01,0.09,0.98,-3.1,0.5,-0.0,840,0,1,1,0.0,0,38.159161,-122.454353,0.0,0.0,38.3,9,2,1.5,0,0.0,-1,0.0,0.0,0.0,0
15794,1490460197212,,,,,,,,0.01,0.09,0.99,-3.1,0.4,0.1,840,0,,,,,,,,,,,,,,,,,,,
15814,1490460197232,,,,,,,,0.01,0.1,0.99,-3.1,0.4,0.1,800,0,,,,,,,,,,,,,,,,,,,
15834,1490460197252,,,,,,,,0.01,0.09,0.99,-3.1,0.3,-0.0,820,0,,,,,,,,,,,,,,,,,,,
15854,1490460197272,,,,,,,,0.01,0.08,0.99,-3.1,0.2,-0.1,840,0,,,,,,,,,,,,,,,,,,,
15874,1490460197292,0,46.2,,44.4,59,46.9,,0.01,0.08,0.98,-3.1,0.4,-0.1,840,0,1,1,0.0,0,38.159161,-122.454353,0.0,0.0,38.3,9,2,1.5,0,0.0,-1,0.0,0.0,0.0,0
15894,1490460197312,,,,,,,,0.01,0.09,0.98,-3.1,0.4,0.0,840,0,,,,,,,,,,,,,,,,,,,
15914,1490460197332,,,,,,,,0.02,0.09,0.98,-3.1,0.4,0.1,840,0,,,,,,,,,,,,,,,,,,,
15934,1490460197352,,,,,,,,0.01,0.1,0.99,-3.1,0.4,0.1,840,0,,,,,,,,,,,,,,,,,,,
15954,1490460197372,,,,,,,,0.01,0.09,0.99,-3.1,0.4,0.0,800,0,,,,,,,,,,,,,,,,,,,
15974,1490460197392,,,,,57,,,0.01,0.09,0.99,-3.1,0.4,-0.1,820,0,1,1,0.0,0,38.159161,-122.454353,0.0,0.0,38.3,9,2,1.5,0,0.0,-1,0.0,0.0,0.0,0
15994,1490460197412,,,,,,,,0.01,0.08,0.99,-3.1,0.5,-0.0,820,0,,,,,,,,,,,,,,,,,,,
16014,1490460197432,,,,,,,,0.02,0.09,0.99,-3.1,0.5,0.0,820,0,,,,,,,,,,,,,,,,,,,
16034,1490460197452,,,,,,,,0.02,0.1,0.99,-3.2,0.4,0.1,820,0,,,,,,,,,,,,,,,,,,,
16054,1490460197472,,,,,,,,0.01,0.1,1.0,-3.1,0.4,0.1,840,0,,,,,,,,,,,,,,,,,,,
16074,1490460197492,0,47.0,0.3,45.3,58,47.0,14.94,0.01,0.1,0.99,-3.1,0.5,0.0,840,0,1,1,0.0,0,38.159161,-122.454353,0.0,0.0,38.3,9,2,1.5,0,0.0,-1,0.0,0.0,0.0,0
16094,1490460197512,,,,,,,,0.01,0.09,0.99,-3.1,0.2,-0.1,820,0,,,,,,,,,,,,,,,,,,,
16114,1490460197532,,,,,,,,0.01,0.09,0.99,-3.1,0.4,-0.2,820,0,,,,,,,,,,,,,,,,,,,
16134,1490460197552,,,,,,,,0.01,0.09,0.98,-3.1,0.4,-0.1,840,0,,,,,,,,,,,,,,,,,,,
16154,1490460197572,,,,,,,,0.02,0.09,0.99,-3.1,0.4,0.0,820,0,,,,,,,,,,,,,,,,,,,
16174,1490460197594,,,,,58,,,0.01,0.1,0.99,-3.1,0.2,0.1,840,0,1,1,0.0,0,38.159161,-122.454353,0.0,0.0,38.3,9,2,1.5,0,0.0,-1,0.0,0.0,0.0,0
16194,1490460197614,,,,,,,,0.01,0.1,0.99,-3.1,0.3,-0.0,860,0,,,,,,,,,,,,,,,,,,,
16214,1490460197634,,,,,,,,0.01,0.1,0.99,-3.1,0.2,-0.1,860,0,,,,,,,,,,,,,,,,,,,
16234,1490460197654,,,,,,,,0.01,0.08,0.99,-3.1,0.3,-0.2,820,0,,,,,,,,,,,,,,,,,,,
16254,1490460197674,,,,,,,,0.01,0.08,0.98,-3.1,0.3,-0.2,820,0,,,,,,,,,,,,,,,,,,,
16274,1490460197692,0,47.6,,45.4,59,46.2,,0.01,0.08,0.98,-3.1,0.4,-0.1,840,0,1,1,0.0,0,38.159161,-122.454353,0.0,0.0,38.3,9,2,1.5,0,0.0,-1,0.0,0.0,0.0,0
16294,1490460197712,,,,,,,,0.01,0.09,0.98,-3.1,0.4,0.0,840,0,,,,,,,,,,,,,,,,,,,
16314,1490460197732,,,,,,,,0.01,0.09,0.99,-3.1,0.5,0.0,840,0,,,,,,,,,,,,,,,,,,,
16334,1490460197752,,,,,,,,0.01,0.09,0.99,-3.1,0.5,-0.0,840,0,,,,,,,,,,,,,,,,,,,
16354,1490460197772,,,,,,,,0.01,0.09,0.99,-3.1,0.3,-0.1,840,0,,,,,,,,,,,,,,,,,,,
16374,1490460197794,,,,,59,,,0.01,0.08,0.99,-3.1,0.4,-0.2,840,0,1,1,0.0,0,38.159161,-122.454353,0.0,0.0,38.3,9,2,1.5,0,0.0,-1,0.0,0.0,0.0,0
16394,1490460197814,,,,,,,,0.01,0.09,0.98,-3.1,0.4,-0.1,800,0,,,,,,,,,,,,,,,,,,,
16414,1490460197834,,,,,,,,0.01,0.09,0.99,-3.1,0.5,0.0,820,0,,,,,,,,,,,,,,,,,,,
16434,1490460197854,,,,,,,,0.01,0.1,0.99,-3.1,0.3,0.1,820,0,,,,,,,,,,,,,,,,,,,
16454,1490460197874,,,,,,,,0.01,0.1,0.99,-3.1,0.5,0.0,820,0,,,,,,,,,,,,,,,,,,,
16474,1490460197894,0,47.7,,45.0,59,44.9,,0.01,0.09,0.99,-3.1,0.3,-0.1,840,0,1,1,0.0,0,38.159161,-122.454353,0.0,0.0,38.3,9,2,1.5,0,0.0,-1,0.0,0.0,0.0,0
16494,1490460197910,,,,,,,,0.01,0.09,0.99,-3.1,0.4,-0.2,840,0,,,,,,,,,,,,,,,,,,,
16514,1490460197930,,,,,,,,0.01,0.09,0.98,-3.1,0.4,-0.1,840,0,,,,,,,,,,,,,,,,,,,
16534,1490460197950,,,,,,,,0.01,0.09,0.99,-3.1,0.5,-0.0,800,0,,,,,,,,,,,,,,,,,,,
16554,1490460197970,,,,,,,,0.01,0.09,0.99,-3.1,0.3,0.1,820,0,,,,,,,,,,,,,,,,,,,
16574,1490460197990,,,,,58,,,0.01,0.1,0.99,-3.1,0.4,0.0,820,0,1,1,0.0,0,38.159161,-122.454353,0.0,0.0,38.3,9,2,1.5,0,0.0,-1,0.0,0.0,0.0,0
16594,1490460198006,,,,,,,,0.01,0.09,0.99,-3.1,0.2,-0.1,820,0,,,,,,,,,,,,,,,,,,,
16614,1490460198026,,,,,,,,0.01,0.08,0.99,-3.1,0.3,-0.1,840,0,,,,,,,,,,,,,,,,,,,
16634,1490460198046,,,,,,,,0.01,0.09,0.99,-3.1,0.3,-0.1,840,0,,,,,,,,,,,,,,,,,,,
16654,1490460198066,,,,,,,,0.01,0.09,0.99,-3.1,0.4,0.0,840,0,,,,,,,,,,,,,,,,,,,
16674,1490460198091,0,45.7,,44.8,57,47.0,,0.01,0.1,0.99,-3.2,0.2,0.1,800,0,1,1,0.0,0,38.159161,-122.454353,0.0,0.0,38.3,9,2,1.5,0,0.0,-1,0.0,0.0,0.0,0
16694,1490460198111,,,,,,,,0.01,0.1,0.99,-3.1,0.4,0.1,800,0,,,,,,,,,,,,,,,,,,,
16714,1490460198131,,,,,,,,0.01,0.09,0.99,-3.1,0.2,-0.0,800,0,,,,,,,,,,,,,,,,,,,
16734,1490460198151,,,,,,,,0.01,0.09,0.99,-3.1,0.3,-0.0,800,0,,,,,,,,,,,,,,,,,,,
16754,1490460198171,,,,,,,,0.01,0.09,0.99,-3.1,0.4,0.0,820,0,,,,,,,,,,,,,,,,,,,
16774,1490460198191,,,,,57,,,0.02,0.1,0.99,-3.2,0.3,0.1,820,0,1,1,0.0,0,38.159161,-122.454353,0.0,0.0,38.3,9,2,1.5,0,0.0,-1,0.0,0.0,0.0,0
16794,1490460198211,,,,,,,,0.01,0.11,0.99,-3.1,0.3,0.1,840,0,,,,,,,,,,,,,,,,,,,
16814,1490460198231,,,,,,,,0.01,0.1,0.99,-3.1,0.3,0.0,800,0,,,,,,,,,,,,,,,,,,,
16834,1490460198251,,,,,,,,0.01,0.09,1.0,-3.1,0.2,-0.0,800,0,,,,,,,,,,,,,,,,,,,
16854,1490460198271,,,,,,,,0.01,0.09,0.99,-3.1,0.4,-0.0,800,0,,,,,,,,,,,,,,,,,,,
16874,1490460198291,0,47.3,,45.0,58,46.1,,0.02,0.1,0.99,-3.2,0.4,0.1,820,0,1,1,0.0,0,38.159161,-122.454353,0.0,0.0,38.3,9,2,1.5,0,0.0,-1,0.0,0.0,0.0,0
16894,1490460198311,,,,,,,,0.01,0.11,0.99,-3.2,0.3,0.2,820,0,,,,,,,,,,,,,,,,,,,
16914,1490460198331,,,,,,,,0.01,0.11,0.99,-3.2,0.3,0.1,840,0,,,,,,,,,,,,,,,,,,,
16934,1490460198351,,,,,,,,0.01,0.1,0.99,-3.1,0.3,0.0,840,0,,,,,,,,,,,,,,,,,,,
16954,1490460198371,,,,,,,,0.01,0.1,0.99,-3.1,0.3,-0.0,800,0,,,,,,,,,,,,,,,,,,,
16974,1490460198393,,,,,57,,,0.01,0.09,0.99,-3.1,0.4,-0.0,800,0,1,1,0.0,0,38.159161,-122.454353,0.0,0.0,38.3,9,2,1.5,0,0.0,-1,0.0,0.0,0.0,0
16994,1490460198413,,,,,,,,0.01,0.1,0.99,-3.1,0.4,0.0,820,0,,,,,,,,,,,,,,,,,,,
17014,1490460198433,,,,,,,,0.01,0.1,0.99,-3.1,0.3,0.1,820,0,,,,,,,,,,,,,,,,,,,
17034,1490460198453,,,,,,,,0.01,0.1,1.0,-3.1,0.4,0.1,820,0,,,,,,,,,,,,,,,,,,,
17054,1490460198473,,,,,,,,0.01,0.09,1.0,-3.1,0.4,-0.0,840,0,,,,,,,,,,,,,,,,,,,
17074,1490460198491,0,46.6,0.5,45.2,57,46.8,14.98,0.01,0.09,1.0,-3.1,0.3,-0.0,840,0,1,1,0.0,0,38.159161,-122.454353,0.0,0.0,38.3,9,2,1.5,0,0.0,-1,0.0,0.0,0.0,0
17094,1490460198511,,,,,,,,0.01,0.09,0.99,-3.1,0.4,-0.0,840,0,,,,,,,,,,,,,,,,,,,
17114,1490460198531,,,,,,,,0.01,0.09,0.99,-3.1,0.4,0.0,800,0,,,,,,,,,,,,,,,,,,,
17134,1490460198551,,,,,,,,0.01,0.1,0.99,-3.1,0.3,0.1,820,0,,,,,,,,,,,,,,,,,,,
17154,1490460198571,,,,,,,,0.01,0.11,1.0,-3.1,0.4,0.1,820,0,,,,,,,,,,,,,,,,,,,
17174,1490460198591,,,,,57,,,0.01,0.1,0.99,-3.1,0.3,-0.0,820,0,1,1,0.0,0,38.159161,-122.454353,0.0,0.0,38.3,9,2,1.5,0,0.0,-1,0.0,0.0,0.0,0
17194,1490460198611,,,,,,,,0.01,0.09,0.99,-3.1,0.2,-0.1,840,0,,,,,,,,,,,,,,,,,,,
17214,1490460198631,,,,,,,,0.01,0.09,0.99,-3.1,0.3,-0.1,840,0,,,,,,,,,,,,,,,,,,,
17234,1490460198651,,,,,,,,0.01,0.09,0.99,-3.1,0.4,-0.1,840,0,,,,,,,,,,,,,,,,,,,
17254,1490460198671,,,,,,,,0.01,0.09,0.99,-3.1,0.3,-0.0,800,0,,,,,,,,,,,,,,,,,,,
17274,1490460198691,0,47.1,,44.4,57,44.9,,0.01,0.1,0.99,-3.1,0.4,-0.0,800,0,1,1,0.0,0,38.159161,-122.454353,0.0,0.0,38.3,9,2,1.5,0,0.0,-1,0.0,0.0,0.0,0
17294,1490460198711,,,,,,,,0.01,0.09,0.99,-3.1,0.3,-0.1,800,0,,,,,,,,,,,,,,,,,,,
17314,1490460198731,,,,,,,,0.01,0.08,0.99,-3.1,0.3,-0.1,800,0,,,,,,,,,,,,,,,,,,,
17334,1490460198751,,,,,,,,0.01,0.09,0.98,-3.1,0.4,-0.0,800,0,,,,,,,,,,,,,,,,,,,
17354,1490460198771,,,,,,,,0.01,0.09,0.99,-3.1,0.4,0.0,800,0,,,,,,,,,,,,,,,,,,,
17374,1490460198791,,,,,56,,,0.01,0.09,0.99,-3.1,0.3,0.0,820,0,1,1,0.0,0,38.159161,-122.454353,0.0,0.0,38.3,9,2,1.5,0,0.0,-1,0.0,0.0,0.0,0
17394,1490460198811,,,,,,,,0.01,0.09,0.98,-3.1,0.4,-0.0,780,0,,,,,,,,,,,,,,,,,,,
17414,1490460198831,,,,,,,,0.01,0.08,0.99,-3.1,0.3,-0.1,800,0,,,,,,,,,,,,,,,,,,,
17434,1490460198851,,,,,,,,0.01,0.09,0.99,-3.2,0.4,0.0,800,0,,,,,,,,,,,,,,,,,,,
17454,1490460198871,,,,,,,,0.01,0.1,0.99,-3.2,0.5,0.1,800,0,,,,,,,,,,,,,,,,,,,
17474,1490460198891,0,45.8,,43.6,55,45.8,,0.01,0.1,0.99,-3.2,0.3,0.1,800,0,1,1,0.0,0,38.159161,-122.454353,0.0,0.0,38.3,9,2,1.5,0,0.0,-1,0.0,0.0,0.0,0
17494,1490460198911,,,,,,,,0.01,0.1,0.99,-3.1,0.4,-0.0,820,0,,,,,,,,,,,,,,,,,,,
17514,1490460198931,,,,,,,,0.01,0.09,0.99,-3.1,0.3,-0.1,840,0,,,,,,,,,,,,,,,,,,,
17534,1490460198951,,,,,,,,0.01,0.09,0.99,-3.1,0.3,-0.1,840,0,,,,,,,,,,,,,,,,,,,
17554,1490460198971,,,,,,,,0.01,0.09,0.99,-3.1,0.5,-0.1,780,0,,,,,,,,,,,,,,,,,,,
17574,1490460198991,,,,,55,,,0.01,0.09,0.99,-3.1,0.3,-0.0,800,0,1,1,0.0,0,38.159161,-122.454353,0.0,0.0,38.3,9,2,1.5,0,0.0,-1,0.0,0.0,0.0,0
17594,1490460199003,,,,,,,,0.01,0.09,0.99,-3.1,0.4,-0.0,800,0,,,,,,,,,,,,,,,,,,,
17614,1490460199023,,,,,,,,0.01,0.08,0.99,-3.1,0.3,-0.1,800,0,,,,,,,,,,,,,,,,,,,
17634,1490460199043,,,,,,,,0.01,0.08,0.99,-3.1,0.3,-0.1,800,0,,,,,,,,,,,,,,,,,,,
17654,1490460199063,,,,,,,,0.01,0.09,0.99,-3.1,0.3,-0.0,820,0,,,,,,,,,,,,,,,,,,,
17674,1490460199092,0,46.0,,44.8,55,46.7,,0.02,0.09,0.99,-3.1,0.3,0.0,820,0,1,1,0.0,0,38.159161,-122.454353,0.0,0.0,38.3,9,3,1.5,0,0.0,-1,0.0,0.0,0.0,0
17694,1490460199112,,,,,,,,0.01,0.09,1.0,-3.1,0.2,0.1,780,0,,,,,,,,,,,,,,,,,,,
17714,1490460199132,,,,,,,,0.01,0.09,0.99,-3.1,0.4,0.0,800,0,,,,,,,,,,,,,,,,,,,
17734,1490460199152,,,,,,,,0.01,0.08,0.99,-3.1,0.2,-0.1,800,0,,,,,,,,,,,,,,,,,,,
17754,1490460199172,,,,,,,,0.01,0.08,0.99,-3.1,0.4,-0.1,800,0,,,,,,,,,,,,,,,,,,,
17774,1490460199192,,,,,55,,,0.02,0.09,0.99,-3.1,0.4,0.0,820,0,1,1,0.0,0,38.159161,-122.454353,0.0,0.0,38.3,9,3,1.5,0,0.0,-1,0.0,0.0,0.0,0
17794,1490460199212,,,,,,,,0.02,0.09,0.99,-3.1,0.4,0.1,820,0,,,,,,,,,,,,,,,,,,,
17814,1490460199232,,,,,,,,0.01,0.09,0.99,-3.1,0.5,0.0,840,0,,,,,,,,,,,,,,,,,,,
17834,1490460199252,,,,,,,,0.01,0.09,1.0,-3.1,0.5,-0.1,800,0,,,,,,,,,,,,,,,,,,,
17854,1490460199272,,,,,,,,0.01,0.08,1.0,-3.1,0.4,-0.1,820,0,,,,,,,,,,,,,,,,,,,
17874,1490460199292,0,47.3,,45.2,55,46.0,,0.01,0.09,0.99,-3.1,0.5,-0.1,820,0,1,1,0.0,0,38.159161,-122.454353,0.0,0.0,38.3,9,3,1.5,0,0.0,-1,0.0,0.0,0.0,0
17894,1490460199312,,,,,,,,0.02,0.09,1.0,-3.1,0.5,0.0,820,0,,,,,,,,,,,,,,,,,,,
17914,1490460199332,,,,,,,,0.01,0.1,0.99,-3.2,0.4,0.1,820,0,,,,,,,,,,,,,,,,,,,
17934,1490460199352,,,,,,,,0.01,0.1,0.99,-3.1,0.5,0.0,820,0,,,,,,,,,,,,,,,,,,,
17954,1490460199372,,,,,,,,0.01,0.1,0.99,-3.1,0.3,-0.1,860,0,,,,,,,,,,,,,,,,,,,
17974,1490460199392,,,,,55,,,0.01,0.09,0.99,-3.1,0.3,-0.1,800,0,1,1,0.0,0,38.159161,-122.454353,0.0,0.0,38.3,9,3,1.5,0,0.0,-1,0.0,0.0,0.0,0
17994,1490460199412,,,,,,,,0.01,0.09,0.98,-3.1,0.4,-0.1,800,0,,,,,,,,,,,,,,,,,,,
18014,1490460199432,,,,,,,,0.02,0.09,0.98,-3.1,0.5,-0.0,820,0,,,,,,,,,,,,,,,,,,,
18034,1490460199452,,,,,,,,0.02,0.1,0.99,-3.1,0.3,0.0,820,0,,,,,,,,,,,,,,,,,,,
18054,1490460199472,,,,,,,,0.01,0.09,0.99,-3.1,0.5,0.0,820,0,,,,,,,,,,,,,,,,,,,
18074,1490460199492,0,45.4,0.3,43.6,56,46.0,15.0,0.01,0.09,0.99,-3.1,0.3,-0.1,820,0,1,1,0.0,0,38.159161,-122.454353,0.0,0.0,38.3,9,3,1.5,0,0.0,-1,0.0,0.0,0.0,0
18094,1490460199512,,,,,,,,0.01,0.09,0.99,-3.1,0.3,-0.1,860,0,,,,,,,,,,,,,,,,,,,
18114,1490460199532,,,,,,,,0.01,0.09,0.98,-3.1,0.4,-0.1,860,0,,,,,,,,,,,,,,,,,,,
18134,1490460199552,,,,,,,,0.01,0.09,0.98,-3.1,0.5,-0.1,800,0,,,,,,,,,,,,,,,,,,,
18154,1490460199572,,,,,,,,0.01,0.09,0.99,-3.1,0.3,0.0,820,0,,,,,,,,,,,,,,,,,,,
18174,1490460199592,,,,,57,,,0.01,0.09,0.99,-3.1,0.4,0.0,820,0,1,1,0.0,0,38.159161,-122.454353,0.0,0.0,38.3,9,3,1.5,0,0.0,-1,0.0,0.0,0.0,0
18194,1490460199612,,,,,,,,0.01,0.09,0.98,-3.1,0.4,-0.1,820,0,,,,,,,,,,,,,,,,,,,
18214,1490460199632,,,,,,,,0.01,0.08,0.98,-3.1,0.4,-0.1,820,0,,,,,,,,,,,,,,,,,,,
18234,1490460199652,,,,,,,,0.01,0.09,0.98,-3.1,0.4,-0.1,820,62,,,,,,,,,,,,,,,,,,,
18254,1490460199672,,,,,,,,0.01,0.09,0.99,-3.1,0.6,0.0,840,125,,,,,,,,,,,,,,,,,,,
18274,1490460199692,0,45.5,,44.4,55,46.6,,0.03,0.1,0.99,-3.1,0.4,0.0,760,140,1,1,0.0,0,38.159161,-122.454353,0.0,0.0,38.3,9,3,1.5,0,0.0,-1,0.0,0.0,0.0,0
18294,1490460199712,,,,,,,,0.04,0.1,1.0,-3.1,0.5,-0.0,780,66,,,,,,,,,,,,,,,,,,,
18314,1490460199732,,,,,,,,0.04,0.09,1.0,-3.1,0.3,-0.1,780,78,,,,,,,,,,,,,,,,,,,
18334,1490460199752,,,,,,,,0.04,0.1,0.99,-3.0,0.2,-0.1,760,97,,,,,,,,,,,,,,,,,,,
18354,1490460199772,,,,,,,,0.04,0.1,0.98,-3.0,0.3,-0.1,760,97,,,,,,,,,,,,,,,,,,,
18374,1490460199792,,,,,55,,,0.03,0.09,0.99,-3.1,0.4,-0.0,760,97,1,1,9.744,0,38.159161,-122.454353,0.0,0.0,38.3,9,3,1.5,0,0.0,-1,0.0,0.0,0.0,0
18394,1490460199812,,,,,,,,0.03,0.1,0.99,-3.1,0.6,-0.1,780,97,,,,,,,,,,,,,,,,,,,
18414,1490460199832,,,,,,,,0.03,0.09,0.99,-3.1,0.6,-0.1,780,97,,,,,,,,,,,,,,,,,,,
18434,1490460199852,,,,,,,,0.02,0.1,0.99,-3.1,0.7,-0.0,740,54,,,,,,,,,,,,,,,,,,,
18454,1490460199872,,,,,,,,0.02,0.1,0.99,-3.1,0.7,-0.1,760,54,,,,,,,,,,,,,,,,,,,
18474,1490460199892,0,47.0,,44.4,55,45.2,,0.02,0.1,0.99,-3.1,0.7,-0.1,760,54,1,1,7.708,0,38.159161,-122.454353,0.0,0.0,38.3,9,3,1.5,0,0.0,-1,0.0,0.0,0.0,0
18494,1490460199912,,,,,,,,0.02,0.1,0.98,-3.2,0.7,-0.1,760,54,,,,,,,,,,,,,,,,,,,
18514,1490460199932,,,,,,,,0.02,0.1,0.98,-3.2,0.6,-0.0,780,11,,,,,,,,,,,,,,,,,,,
18534,1490460199952,,,,,,,,0.01,0.1,0.98,-3.2,0.6,0.0,780,11,,,,,,,,,,,,,,,,,,,
18554,1490460199972,,,,,,,,0.01,0.1,0.99,-3.1,0.5,0.0,800,11,,,,,,,,,,,,,,,,,,,
18574,1490460199992,,,,,53,,,0.0,0.1,0.99,-3.1,0.5,-0.0,760,11,1,1,78.0,0,38.159161,-122.454353,0.0,0.0,38.3,9,3,1.5,0,0.0,-1,0.0,0.0,0.0,0
18594,1490460200002,,,,,,,,0.0,0.1,0.99,-3.1,0.5,-0.1,760,11,,,,,,,,,,,,,,,,,,,
18614,1490460200022,,,,,,,,0.0,0.1,0.99,-3.1,0.4,-0.0,780,20,,,,,,,,,,,,,,,,,,,
18634,1490460200042,,,,,,,,0.0,0.1,0.99,-3.1,0.5,-0.0,780,20,,,,,,,,,,,,,,,,,,,
18654,1490460200062,,,,,,,,-0.0,0.1,0.99,-3.1,0.5,-0.1,780,20,,,,,,,,,,,,,,,,,,,
18674,1490460200091,0,46.8,,44.0,53,44.9,,-0.0,0.09,0.99,-3.1,0.5,-0.1,780,20,1,1,39.0,0,38.159161,-122.454353,0.0,0.0,38.3,9,3,1.5,0,0.0,-1,0.0,0.0,0.0,0
18694,1490460200111,,,,,,,,0.0,0.09,0.99,-3.1,0.5,-0.1,780,20,,,,,,,,,,,,,,,,,,,
18714,1490460200131,,,,,,,,0.0,0.1,0.98,-3.1,0.5,0.0,800,20,,,,,,,,,,,,,,,,,,,
18734,1490460200151,,,,,,,,0.01,0.1,0.99,-3.1,0.4,0.0,780,20,,,,,,,,,,,,,,,,,,,
18754,1490460200171,,,,,,,,-0.0,0.1,0.99,-3.1,0.4,-0.0,780,20,,,,,,,,,,,,,,,,,,,
18774,1490460200193,,,,,53,,,0.0,0.1,0.99,-3.1,0.4,-0.1,780,20,1,1,40.0,0,38.159161,-122.454353,0.0,0.0,38.3,9,3,1.5,0,0.0,-1,0.0,0.0,0.0,0
18794,1490460200213,,,,,,,,0.01,0.1,0.99,-3.1,0.4,-0.0,780,20,,,,,,,,,,,,,,,,,,,
18814,1490460200233,,,,,,,,0.01,0.11,0.98,-3.1,0.5,0.0,800,20,,,,,,,,,,,,,,,,,,,
18834,1490460200253,,,,,,,,0.01,0.11,0.99,-3.1,0.4,0.1,800,20,,,,,,,,,,,,,,,,,,,
18854,1490460200273,,,,,,,,0.0,0.11,0.99,-3.1,0.4,-0.0,820,20,,,,,,,,,,,,,,,,,,,
18874,1490460200291,0,46.5,,43.7,53,45.1,,0.01,0.11,0.99,-3.1,0.5,-0.1,800,20,1,1,40.0,0,38.159161,-122.454353,0.0,0.0,38.3,9,3,1.5,0,0.0,-1,0.0,0.0,0.0,0
18894,1490460200311,,,,,,,,0.01,0.1,0.99,-3.1,0.4,-0.1,800,20,,,,,,,,,,,,,,,,,,,
18914,1490460200331,,,,,,,,0.01,0.11,0.98,-3.1,0.5,0.0,820,20,,,,,,,,,,,,,,,,,,,
18934,1490460200351,,,,,,,,0.03,0.11,0.99,-3.1,0.4,0.1,820,20,,,,,,,,,,,,,,,,,,,
18954,1490460200371,,,,,,,,0.02,0.11,0.99,-3.2,0.3,0.1,840,20,,,,,,,,,,,,,,,,,,,
18974,1490460200391,,,,,54,,,0.02,0.1,0.99,-3.1,0.5,-0.0,840,20,1,1,41.0,0,38.159161,-122.454353,0.0,0.0,38.3,9,3,1.5,0,0.0,-1,0.0,0.0,0.0,0
18994,1490460200411,,,,,,,,0.02,0.09,0.99,-3.1,0.2,-0.1,860,20,,,,,,,,,,,,,,,,,,,
19014,1490460200431,,,,,,,,0.01,0.08,0.99,-3.1,0.4,-0.1,860,20,,,,,,,,,,,,,,,,,,,
19034,1490460200451,,,,,,,,0.02,0.1,0.98,-3.1,0.5,-0.0,840,20,,,,,,,,,,,,,,,,,,,
19054,1490460200471,,,,,,,,0.03,0.1,0.98,-3.2,0.5,0.1,860,20,,,,,,,,,,,,,,,,,,,
19074,1490460200491,0,46.6,-0.3,45.1,55,46.8,15.01,0.04,0.11,0.99,-3.2,0.2,0.2,860,3,1,1,42.0,0,38.159161,-122.454353,0.0,0.0,38.3,9,3,1.5,0,0.0,-1,0.0,0.0,0.0,0
19094,1490460200511,,,,,,,,0.03,0.11,1.0,-3.2,0.3,0.1,860,3,,,,,,,,,,,,,,,,,,,
19114,1490460200531,,,,,,,,0.03,0.11,1.0,-3.1,0.2,-0.1,860,3,,,,,,,,,,,,,,,,,,,
19134,1490460200551,,,,,,,,0.03,0.1,1.01,-3.1,0.0,-0.2,860,3,,,,,,,,,,,,,,,,,,,
19154,1490460200571,,,,,,,,0.02,0.09,1.0,-3.1,0.1,-0.3,820,3,,,,,,,,,,,,,,,,,,,
19174,1490460200593,,,,,55,,,0.03,0.08,0.99,-3.1,0.2,-0.1,820,3,1,1,286.667,0,38.159161,-122.454353,0.0,0.0,38.3,9,3,1.5,0,0.0,-1,0.0,0.0,0.0,0
19194,1490460200613,,,,,,,,0.04,0.09,0.99,-3.2,0.3,0.1,840,3,,,,,,,,,,,,,,,,,,,
19214,1490460200633,,,,,,,,0.05,0.1,0.99,-3.2,0.1,0.1,820,3,,,,,,,,,,,,,,,,,,,
19234,1490460200653,,,,,,,,0.04,0.1,1.0,-3.2,0.3,0.1,820,3,,,,,,,,,,,,,,,,,,,
19254,1490460200673,,,,,,,,0.04,0.1,1.0,-3.1,0.3,-0.1,820,3,,,,,,,,,,,,,,,,,,,
19274,1490460200693,1,46.8,,44.2,56,45.1,,0.03,0.09,1.0,-3.1,0.2,-0.2,820,3,1,1,273.333,0,38.159161,-122.454353,0.0,0.0,38.3,9,3,1.5,0,0.0,-1,0.0,0.0,0.0,0
19294,1490460200713,,,,,,,,0.03,0.09,0.99,-3.2,0.2,-0.1,820,6,,,,,,,,,,,,,,,,,,,
19314,1490460200733,,,,,,,,0.04,0.09,0.99,-3.2,0.4,0.0,780,6,,,,,,,,,,,,,,,,,,,
19334,1490460200753,,,,,,,,0.04,0.09,0.99,-3.2,0.2,0.1,780,6,,,,,,,,,,,,,,,,,,,
19354,1490460200773,,,,,,,,0.03,0.09,0.99,-3.2,0.3,-0.0,780,6,,,,,,,,,,,,,,,,,,,
19374,1490460200791,,,,,54,,,0.03,0.08,1.0,-3.1,0.2,-0.1,780,6,1,1,130.0,0,38.159161,-122.454353,0.0,0.0,38.3,9,3,1.5,0,0.0,-1,0.0,0.0,0.0,0
19394,1490460200811,,,,,,,,0.03,0.08,1.0,-3.1,0.3,-0.0,780,6,,,,,,,,,,,,,,,,,,,
19414,1490460200831,,,,,,,,0.04,0.09,0.99,-3.2,0.4,0.0,780,6,,,,,,,,,,,,,,,,,,,
19434,1490460200851,,,,,,,,0.04,0.09,1.0,-3.2,0.3,-0.0,780,14,,,,,,,,,,,,,,,,,,,
19454,1490460200871,,,,,,,,0.04,0.09,1.0,-3.2,0.4,-0.1,740,14,,,,,,,,,,,,,,,,,,,
19474,1490460200891,0,46.8,,44.9,54,47.2,,0.04,0.09,1.0,-3.2,0.4,-0.1,740,14,1,1,60.0,0,38.159161,-122.454353,0.0,0.0,38.3,9,3,1.5,0,0.0,-1,0.0,0.0,0.0,0
19494,1490460200911,,,,,,,,0.03,0.09,0.99,-3.3,0.4,-0.0,740,14,,,,,,,,,,,,,,,,,,,
19514,1490460200931,,,,,,,,0.03,0.09,0.99,-3.2,0.4,-0.1,720,14,,,,,,,,,,,,,,,,,,,
19534,1490460200951,,,,,,,,0.03,0.08,1.0,-3.2,0.3,-0.1,720,12,,,,,,,,,,,,,,,,,,,
19554,1490460200971,,,,,,,,0.03,0.09,0.99,-3.2,0.3,-0.1,720,12,,,,,,,,,,,,,,,,,,,
19574,1490460200991,,,,,52,,,0.04,0.09,0.99,-3.3,0.4,0.0,720,12,1,1,60.0,0,38.159161,-122.454353,0.0,0.0,38.3,9,3,1.5,0,0.0,-1,0.0,0.0,0.0,0
19594,1490460201003,,,,,,,,0.03,0.09,1.0,-3.2,0.3,-0.0,740,12,,,,,,,,,,,,,,,,,,,
19614,1490460201023,,,,,,,,0.03,0.1,1.0,-3.2,0.3,-0.1,740,17,,,,,,,,,,,,,,,,,,,
19634,1490460201043,,,,,,,,0.03,0.1,1.0,-3.3,0.3,-0.1,700,17,,,,,,,,,,,,,,,,,,,
19654,1490460201063,,,,,,,,0.03,0.1,0.99,-3.3,0.2,-0.1,700,17,,,,,,,,,,,,,,,,,,,
19674,1490460201092,1,47.2,,45.1,50,45.5,,0.03,0.09,1.0,-3.2,0.2,-0.1,680,28,1,1,43.75,0,38.159161,-122.454353,0.0,0.0,38.3,9,3,1.5,0,0.0,-1,0.0,0.0,0.0,0
19694,1490460201112,,,,,,,,0.03,0.09,1.0,-3.3,0.3,-0.1,680,28,,,,,,,,,,,,,,,,,,,
19714,1490460201132,,,,,,,,0.04,0.1,0.99,-3.3,0.4,-0.0,660,28,,,,,,,,,,,,,,,,,,,
19734,1490460201152,,,,,,,,0.03,0.09,0.99,-3.3,0.3,-0.1,680,20,,,,,,,,,,,,,,,,,,,
19754,1490460201172,,,,,,,,0.03,0.09,1.0,-3.3,0.4,-0.1,680,20,,,,,,,,,,,,,,,,,,,
19774,1490460201192,,,,,53,,,0.03,0.1,1.0,-3.3,0.4,0.0,680,20,1,1,34.0,0,38.159161,-122.454353,0.0,0.0,38.3,9,3,1.5,0,0.0,-1,0.0,0.0,0.0,0
19794,1490460201212,,,,,,,,0.03,0.09,0.99,-3.3,0.3,-0.0,640,20,,,,,,,,,,,,,,,,,,,
19814,1490460201232,,,,,,,,0.03,0.09,0.99,-3.3,0.2,-0.0,640,22,,,,,,,,,,,,,,,,,,,
19834,1490460201252,,,,,,,,0.03,0.1,0.99,-3.4,0.2,-0.0,640,22,,,,,,,,,,,,,,,,,,,
19854,1490460201272,,,,,,,,0.03,0.09,0.99,-3.3,0.1,-0.1,640,22,,,,,,,,,,,,,,,,,,,
19874,1490460201292,0,45.5,,43.9,56,46.8,,0.03,0.09,0.99,-3.3,0.2,-0.1,640,29,1,1,30.476,0,38.159161,-122.454353,0.0,0.0,38.3,9,3,1.5,0,0.0,-1,0.0,0.0,0.0,0
19894,1490460201312,,,,,,,,0.03,0.1,0.99,-3.3,0.1,-0.1,640,29,,,,,,,,,,,,,,,,,,,
19914,1490460201332,,,,,,,,0.02,0.08,0.98,-3.3,0.1,-0.1,640,25,,,,,,,,,,,,,,,,,,,
19934,1490460201352,,,,,,,,0.03,0.09,0.98,-3.4,0.2,-0.1,640,25,,,,,,,,,,,,,,,,,,,
19954,1490460201372,,,,,,,,0.03,0.09,0.98,-3.4,0.2,-0.1,660,25,,,,,,,,,,,,,,,,,,,
19974,1490460201392,,,,,59,,,0.02,0.08,0.98,-3.3,0.3,-0.1,660,29,1,1,26.667,0,38.159161,-122.454353,0.0,0.0,38.3,9,3,1.5,0,0.0,-1,0.0,0.0,0.0,0
19994,1490460201412,,,,,,,,0.03,0.09,0.98,-3.4,0.4,-0.0,660,29,,,,,,,,,,,,,,,,,,,
20014,1490460201432,,,,,,,,0.02,0.09,0.98,-3.4,0.4,0.0,640,29,,,,,,,,,,,,,,,,,,,
20034,1490460201452,,,,,,,,0.02,0.07,0.99,-3.4,0.4,-0.0,640,26,,,,,,,,,,,,,,,,,,,
20054,1490460201472,,,,,,,,0.02,0.08,0.99,-3.4,0.6,-0.0,680,26,,,,,,,,,,,,,,,,,,,
20074,1490460201492,0,46.8,-0.1,45.1,62,47.0,14.96,0.02,0.09,0.99,-3.4,0.5,0.1,680,31,1,1,26.154,0,38.159161,-122.454353,0.0,0.0,38.3,9,3,1.5,0,0.0,-1,0.0,0.0,0.0,0
20094,1490460201512,,,,,,,,0.02,0.08,0.98,-3.4,0.5,-0.0,700,31,,,,,,,,,,,,,,,,,,,
20114,1490460201532,,,,,,,,0.01,0.08,0.99,-3.4,0.5,-0.1,700,31,,,,,,,,,,,,,,,,,,,
20134,1490460201552,,,,,,,,0.01,0.09,0.98,-3.4,0.6,-0.0,720,23,,,,,,,,,,,,,,,,,,,
20154,1490460201572,,,,,,,,0.01,0.08,0.98,-3.4,0.5,-0.0,720,23,,,,,,,,,,,,,,,,,,,
20174,1490460201592,,,,,64,,,0.01,0.08,0.98,-3.4,0.5,-0.1,740,23,1,1,31.304,0,38.159161,-122.454353,0.0,0.0,38.3,9,3,1.5,0,0.0,-1,0.0,0.0,0.0,0
20194,1490460201612,,,,,,,,0.01,0.09,0.98,-3.4,0.5,-0.0,740,29,,,,,,,,,,,,,,,,,,,
20214,1490460201632,,,,,,,,0.01,0.09,0.98,-3.5,0.5,0.1,760,29,,,,,,,,,,,,,,,,,,,
20234,1490460201652,,,,,,,,0.01,0.09,0.98,-3.5,0.5,0.0,780,29,,,,,,,,,,,,,,,,,,,
20254,1490460201672,,,,,,,,0.0,0.09,0.99,-3.4,0.4,-0.1,800,25,,,,,,,,,,,,,,,,,,,
20274,1490460201692,1,46.4,,43.7,67,44.9,,0.01,0.08,0.98,-3.4,0.5,-0.1,820,25,1,1,32.5,0,38.159161,-122.454353,0.0,0.0,38.3,9,3,1.5,0,0.0,-1,0.0,0.0,0.0,0
20294,1490460201712,,,,,,,,0.01,0.09,0.98,-3.4,0.5,0.0,820,31,,,,,,,,,,,,,,,,,,,
20314,1490460201732,,,,,,,,0.01,0.09,0.98,-3.4,0.7,0.1,820,31,,,,,,,,,,,,,,,,,,,
20334,1490460201752,,,,,,,,0.01,0.1,0.99,-3.4,0.4,0.1,840,31,,,,,,,,,,,,,,,,,,,
20354,1490460201772,,,,,,,,0.0,0.1,0.99,-3.4,0.5,0.0,840,29,,,,,,,,,,,,,,,,,,,
20374,1490460201792,,,,,65,,,0.0,0.1,0.99,-3.4,0.4,-0.1,860,29,1,1,28.0,0,38.159161,-122.454353,0.0,0.0,38.3,9,3,1.5,0,0.0,-1,0.0,0.0,0.0,0
20394,1490460201812,,,,,,,,-0.01,0.08,0.99,-3.4,0.4,-0.2,860,29,,,,,,,,,,,,,,,,,,,
20414,1490460201832,,,,,,,,-0.0,0.09,0.98,-3.4,0.5,-0.1,880,26,,,,,,,,,,,,,,,,,,,
20434,1490460201852,,,,,,,,0.01,0.09,0.98,-3.4,0.5,0.0,880,26,,,,,,,,,,,,,,,,,,,
20454,1490460201872,,,,,,,,0.02,0.1,0.98,-3.4,0.6,0.1,880,26,,,,,,,,,,,,,,,,,,,
20474,1490460201892,0,45.4,,43.7,64,46.7,,0.02,0.1,0.98,-3.4,0.5,0.2,880,26,1,1,33.846,0,38.159161,-122.454353,0.0,0.0,38.3,9,3,1.5,0,0.0,-1,0.0,0.0,0.0,0
20494,1490460201912,,,,,,,,0.01,0.11,1.0,-3.4,0.4,0.1,900,26,,,,,,,,,,,,,,,,,,,
20514,1490460201932,,,,,,,,0.01,0.11,1.0,-3.4,0.5,0.0,900,28,,,,,,,,,,,,,,,,,,,
20534,1490460201952,,,,,,,,0.0,0.11,1.01,-3.4,0.4,-0.1,900,28,,,,,,,,,,,,,,,,,,,
20554,1490460201972,,,,,,,,-0.0,0.1,1.0,-3.3,0.2,-0.2,900,28,,,,,,,,,,,,,,,,,,,
20574,1490460201992,,,,,64,,,-0.0,0.09,1.0,-3.3,0.2,-0.2,880,25,1,1,33.333,0,38.159161,-122.454353,0.0,0.0,38.3,9,3,1.5,0,0.0,-1,0.0,0.0,0.0,0
20594,1490460202002,,,,,,,,-0.01,0.08,0.99,-3.3,0.3,-0.2,880,25,,,,,,,,,,,,,,,,,,,
20614,1490460202022,,,,,,,,0.0,0.08,0.99,-3.3,0.3,-0.1,880,25,,,,,,,,,,,,,,,,,,,
20634,1490460202042,,,,,,,,0.01,0.08,0.98,-3.4,0.3,0.0,880,25,,,,,,,,,,,,,,,,,,,
20654,1490460202062,,,,,,,,0.01,0.09,0.98,-3.4,0.4,0.1,860,25,,,,,,,,,,,,,,,,,,,
20674,1490460202093,0,45.2,,43.4,62,46.3,,0.01,0.1,0.98,-3.4,0.3,0.1,860,25,1,1,35.833,0,38.159161,-122.454353,0.0,0.0,38.3,9,3,1.5,0,0.0,-1,0.0,0.0,0.0,0
20694,1490460202113,,,,,,,,0.01,0.1,0.99,-3.4,0.3,0.0,860,25,,,,,,,,,,,,,,,,,,,
20714,1490460202133,,,,,,,,0.01,0.1,0.99,-3.4,0.2,-0.0,820,25,,,,,,,,,,,,,,,,,,,
20734,1490460202153,,,,,,,,0.0,0.09,0.99,-3.3,0.2,-0.1,820,25,,,,,,,,,,,,,,,,,,,
20754,1490460202173,,,,,,,,0.0,0.08,0.99,-3.3,0.3,-0.1,820,25,,,,,,,,,,,,,,,,,,,
20774,1490460202193,,,,,61,,,0.01,0.09,0.98,-3.4,0.4,0.0,800,25,1,1,34.167,0,38.159161,-122.454353,0.0,0.0,38.3,9,3,1.5,0,0.0,-1,0.0,0.0,0.0,0
20794,1490460202213,,,,,,,,0.01,0.1,0.99,-3.4,0.3,0.1,820,25,,,,,,,,,,,,,,,,,,,
20814,1490460202233,,,,,,,,0.01,0.1,0.99,-3.4,0.3,0.1,820,25,,,,,,,,,,,,,,,,,,,
20834,1490460202253,,,,,,,,0.01,0.1,1.0,-3.4,0.4,-0.0,820,23,,,,,,,,,,,,,,,,,,,
20854,1490460202273,,,,,,,,0.01,0.09,1.0,-3.4,0.3,-0.1,780,23,,,,,,,,,,,,,,,,,,,
20874,1490460202293,0,45.3,,43.4,60,46.1,,0.01,0.09,0.99,-3.4,0.3,0.0,780,23,1,1,35.652,0,38.159161,-122.454353,0.0,0.0,38.3,9,3,1.5,0,0.0,-1,0.0,0.0,0.0,0
20894,1490460202313,,,,,,,,0.02,0.1,0.99,-3.4,0.5,0.1,780,23,,,,,,,,,,,,,,,,,,,
20914,1490460202333,,,,,,,,0.01,0.1,0.99,-3.4,0.2,0.2,780,23,,,,,,,,,,,,,,,,,,,
20934,1490460202353,,,,,,,,0.01,0.09,0.99,-3.4,0.4,0.1,780,23,,,,,,,,,,,,,,,,,,,
20954,1490460202373,,,,,,,,0.01,0.09,0.99,-3.4,0.3,-0.0,780,25,,,,,,,,,,,,,,,,,,,
20974,1490460202393,,,,,60,,,0.01,0.09,0.99,-3.4,0.3,0.0,780,25,1,1,32.5,0,38.159161,-122.454353,0.0,0.0,38.3,9,3,1.5,0,0.0,-1,0.0,0.0,0.0,0
20994,1490460202413,,,,,,,,0.02,0.09,0.99,-3.4,0.4,0.1,800,25,,,,,,,,,,,,,,,,,,,
21014,1490460202433,,,,,,,,0.02,0.09,0.99,-3.4,0.2,0.1,760,25,,,,,,,,,,,,,,,,,,,
21034,1490460202453,,,,,,,,0.01,0.09,0.99,-3.3,0.3,0.0,760,25,,,,,,,,,,,,,,,,,,,
21054,1490460202473,,,,,,,,0.01,0.08,0.99,-3.3,0.3,-0.0,760,25,,,,,,,,,,,,,,,,,,,
21074,1490460202493,0,45.6,-0.0,43.6,58,44.8,15.01,0.01,0.09,0.98,-3.4,0.3,0.1,760,25,1,1,31.667,0,38.159161,-122.454353,0.0,0.0,38.3,9,3,1.5,0,0.0,-1,0.0,0.0,0.0,0
21094,1490460202513,,,,,,,,0.02,0.09,0.99,-3.4,0.3,0.1,760,25,,,,,,,,,,,,,,,,,,,
21114,1490460202533,,,,,,,,0.02,0.1,0.99,-3.3,0.1,-0.0,780,25,,,,,,,,,,,,,,,,,,,
21134,1490460202553,,,,,,,,0.01,0.1,0.99,-3.4,0.3,-0.1,780,23,,,,,,,,,,,,,,,,,,,
21154,1490460202573,,,,,,,,0.02,0.09,0.99,-3.4,0.3,-0.1,780,23,,,,,,,,,,,,,,,,,,,
21174,1490460202593,,,,,58,,,0.02,0.1,0.99,-3.4,0.3,0.0,740,23,1,1,33.913,0,38.159161,-122.454353,0.0,0.0,38.3,9,3,1.5,0,0.0,-1,0.0,0.0,0.0,0
21194,1490460202613,,,,,,,,0.02,0.09,0.99,-3.3,0.3,0.0,740,26,,,,,,,,,,,,,,,,,,,
21214,1490460202633,,,,,,,,0.01,0.09,0.99,-3.3,0.3,-0.0,740,26,,,,,,,,,,,,,,,,,,,
21234,1490460202653,,,,,,,,0.02,0.09,0.99,-3.4,0.3,-0.0,740,26,,,,,,,,,,,,,,,,,,,
21254,1490460202673,,,,,,,,0.02,0.09,0.99,-3.3,0.4,0.0,740,25,,,,,,,,,,,,,,,,,,,
21274,1490460202693,0,46.8,,44.0,57,44.8,,0.01,0.09,0.99,-3.3,0.4,-0.0,740,25,1,1,28.462,0,38.159161,-122.454353,0.0,0.0,38.3,9,3,1.5,0,0.0,-1,0.0,0.0,0.0,0
21294,1490460202709,,,,,,,,0.01,0.09,1.0,-3.3,0.4,-0.1,740,25,,,,,,,,,,,,,,,,,,,
21314,1490460202729,,,,,,,,0.01,0.09,0.99,-3.3,0.4,-0.0,740,25,,,,,,,,,,,,,,,,,,,
21334,1490460202749,,,,,,,,0.02,0.09,0.99,-3.4,0.5,-0.0,720,25,,,,,,,,,,,,,,,,,,,
21354,1490460202769,,,,,,,,0.02,0.09,1.0,-3.4,0.4,-0.0,720,25,,,,,,,,,,,,,,,,,,,
21374,1490460202793,,,,,56,,,0.02,0.09,1.0,-3.4,0.4,-0.0,720,29,1,1,30.0,0,38.159161,-122.454353,0.0,0.0,38.3,9,3,1.5,0,0.0,-1,0.0,0.0,0.0,0
21394,1490460202813,,,,,,,,0.02,0.1,1.0,-3.4,0.4,0.0,680,29,,,,,,,,,,,,,,,,,,,
21414,1490460202833,,,,,,,,0.02,0.1,1.0,-3.4,0.4,0.0,720,29,,,,,,,,,,,,,,,,,,,
21434,1490460202853,,,,,,,,0.02,0.09,1.0,-3.4,0.4,-0.0,720,25,,,,,,,,,,,,,,,,,,,
21454,1490460202873,,,,,,,,0.02,0.1,1.01,-3.4,0.4,-0.0,720,25,,,,,,,,,,,,,,,,,,,
21474,1490460202895,0,45.6,,44.1,55,46.3,,0.02,0.1,1.0,-3.4,0.4,0.0,720,25,1,1,30.0,0,38.159161,-122.454353,0.0,0.0,38.3,9,3,1.5,0,0.0,-1,0.0,0.0,0.0,0
21494,1490460202915,,,,,,,,0.02,0.09,1.0,-3.4,0.4,-0.0,720,28,,,,,,,,,,,,,,,,,,,
21514,1490460202935,,,,,,,,0.02,0.1,1.0,-3.4,0.4,-0.1,720,28,,,,,,,,,,,,,,,,,,,
21534,1490460202955,,,,,,,,0.02,0.1,1.0,-3.4,0.4,0.0,720,29,,,,,,,,,,,,,,,,,,,
21554,1490460202975,,,,,,,,0.02,0.11,0.99,-3.5,0.3,0.1,720,29,,,,,,,,,,,,,,,,,,,
21574,1490460202995,,,,,56,,,0.02,0.1,1.0,-3.4,0.2,-0.0,740,29,1,1,24.828,0,38.159161,-122.454353,0.0,0.0,38.3,9,3,1.5,0,0.0,-1,0.0,0.0,0.0,0
21594,1490460203005,,,,,,,,0.02,0.1,1.0,-3.4,0.4,-0.1,740,26,,,,,,,,,,,,,,,,,,,
21614,1490460203025,,,,,,,,0.03,0.1,1.0,-3.5,0.4,-0.0,740,26,,,,,,,,,,,,,,,,,,,
21634,1490460203045,,,,,,,,0.02,0.1,1.0,-3.5,0.3,0.0,740,32,,,,,,,,,,,,,,,,,,,
21654,1490460203065,,,,,,,,0.02,0.1,1.0,-3.4,0.3,-0.1,740,32,,,,,,,,,,,,,,,,,,,
21674,1490460203095,0,47.4,,45.5,57,46.5,,0.02,0.1,1.0,-3.5,0.3,-0.1,740,32,1,1,23.125,0,38.159161,-122.454353,0.0,0.0,38.3,9,3,1.5,0,0.0,-1,0.0,0.0,0.0,0
21694,1490460203115,,,,,,,,0.02,0.1,0.99,-3.5,0.3,0.0,740,28,,,,,,,,,,,,,,,,,,,
21714,1490460203135,,,,,,,,0.02,0.1,0.99,-3.5,0.2,0.0,720,28,,,,,,,,,,,,,,,,,,,
21734,1490460203155,,,,,,,,0.02,0.1,1.0,-3.5,0.2,-0.0,740,32,,,,,,,,,,,,,,,,,,,
21754,1490460203175,,,,,,,,0.02,0.1,1.0,-3.5,0.3,-0.1,740,32,,,,,,,,,,,,,,,,,,,
21774,1490460203194,,,,,58,,,0.02,0.1,0.99,-3.5,0.3,0.0,740,32,1,1,23.125,0,38.159161,-122.454353,0.0,0.0,38.3,9,3,1.5,0,0.0,-1,0.0,0.0,0.0,0
21794,1490460203214,,,,,,,,0.02,0.1,0.99,-3.5,0.3,0.0,760,28,,,,,,,,,,,,,,,,,,,
21814,1490460203234,,,,,,,,0.01,0.09,1.0,-3.4,0.2,-0.1,760,28,,,,,,,,,,,,,,,,,,,
21834,1490460203254,,,,,,,,0.02,0.09,0.99,-3.4,0.3,-0.1,760,34,,,,,,,,,,,,,,,,,,,
21854,1490460203274,,,,,,,,0.02,0.09,0.99,-3.5,0.2,0.0,760,34,,,,,,,,,,,,,,,,,,,
21874,1490460203294,0,45.6,,43.4,57,45.1,,0.02,0.09,0.99,-3.5,0.3,0.1,760,34,1,1,23.03,0,38.159161,-122.454353,0.0,0.0,38.3,9,3,1.5,0,0.0,-1,0.0,0.0,0.0,0
21894,1490460203314,,,,,,,,0.02,0.09,0.99,-3.5,0.2,0.0,780,28,,,,,,,,,,,,,,,,,,,
21914,1490460203334,,,,,,,,0.02,0.09,0.99,-3.5,0.3,-0.0,780,28,,,,,,,,,,,,,,,,,,,
21934,1490460203354,,,,,,,,0.02,0.08,0.99,-3.5,0.3,-0.0,780,35,,,,,,,,,,,,,,,,,,,
21954,1490460203374,,,,,,,,0.02,0.08,0.99,-3.5,0.3,0.1,800,35,,,,,,,,,,,,,,,,,,,
21974,1490460203394,,,,,60,,,0.02,0.09,0.99,-3.5,0.3,0.1,780,35,1,1,22.857,0,38.159161,-122.454353,0.0,0.0,38.3,9,3,1.5,0,0.0,-1,0.0,0.0,0.0,0
21994,1490460203414,,,,,,,,0.02,0.09,1.0,-3.5,0.2,0.0,800,29,,,,,,,,,,,,,,,,,,,
22014,1490460203434,,,,,,,,0.02,0.09,0.99,-3.5,0.3,-0.1,800,29,,,,,,,,,,,,,,,,,,,
22034,1490460203454,,,,,,,,0.02,0.09,0.99,-3.5,0.3,-0.1,800,32,,,,,,,,,,,,,,,,,,,
22054,1490460203474,,,,,,,,0.02,0.1,0.99,-3.5,0.4,0.1,820,32,,,,,,,,,,,,,,,,,,,
22074,1490460203494,0,47.1,-0.3,45.1,61,45.3,14.97,0.03,0.1,0.99,-3.5,0.4,0.1,820,32,1,1,25.625,0,38.159161,-122.454353,0.0,0.0,38.3,9,3,1.5,0,0.0,-1,0.0,0.0,0.0,0
22094,1490460203514,,,,,,,,0.02,0.11,1.0,-3.5,0.2,0.1,820,32,,,,,,,,,,,,,,,,,,,
22114,1490460203534,,,,,,,,0.02,0.11,1.0,-3.5,0.4,-0.0,820,32,,,,,,,,,,,,,,,,,,,
22134,1490460203554,,,,,,,,0.02,0.09,1.0,-3.5,0.2,-0.1,820,32,,,,,,,,,,,,,,,,,,,
22154,1490460203574,,,,,,,,0.02,0.08,0.99,-3.5,0.3,-0.0,820,32,,,,,,,,,,,,,,,,,,,
22174,1490460203594,,,,,63,,,0.02,0.09,0.98,-3.6,0.5,0.1,840,32,1,1,25.625,0,38.159161,-122.454353,0.0,0.0,38.3,9,3,1.5,0,0.0,-1,0.0,0.0,0.0,0
22194,1490460203614,,,,,,,,0.03,0.1,0.98,-3.6,0.4,0.1,840,32,,,,,,,,,,,,,,,,,,,
22214,1490460203634,,,,,,,,0.02,0.11,0.99,-3.6,0.4,0.2,840,32,,,,,,,,,,,,,,,,,,,
22234,1490460203654,,,,,,,,0.02,0.1,1.0,-3.5,0.5,0.0,860,31,,,,,,,,,,,,,,,,,,,
22254,1490460203674,,,,,,,,0.01,0.09,1.0,-3.5,0.3,-0.1,840,31,,,,,,,,,,,,,,,,,,,
22274,1490460203694,0,45.6,,44.0,62,46.2,,0.01,0.08,0.99,-3.5,0.4,-0.1,840,31,1,1,28.667,0,38.159161,-122.454353,0.0,0.0,38.3,9,3,1.5,0,0.0,-1,0.0,0.0,0.0,0
22294,1490460203714,,,,,,,,0.01,0.08,0.98,-3.5,0.4,-0.0,840,31,,,,,,,,,,,,,,,,,,,
22314,1490460203734,,,,,,,,0.02,0.09,0.98,-3.5,0.6,0.1,840,32,,,,,,,,,,,,,,,,,,,
22334,1490460203754,,,,,,,,0.02,0.1,0.98,-3.5,0.4,0.2,860,32,,,,,,,,,,,,,,,,,,,
22354,1490460203774,,,,,,,,0.01,0.1,0.99,-3.6,0.5,0.2,860,32,,,,,,,,,,,,,,,,,,,
22374,1490460203794,,,,,66,,,0.01,0.1,1.0,-3.5,0.5,0.1,860,34,1,1,26.875,0,38.159161,-122.454353,0.0,0.0,38.3,9,3,1.5,0,0.0,-1,0.0,0.0,0.0,0
22394,1490460203814,,,,,,,,0.01,0.09,1.0,-3.5,0.3,-0.0,840,34,,,,,,,,,,,,,,,,,,,
22414,1490460203834,,,,,,,,0.01,0.09,1.0,-3.5,0.4,-0.0,840,31,,,,,,,,,,,,,,,,,,,
22434,1490460203854,,,,,,,,0.01,0.09,0.99,-3.5,0.5,0.0,840,31,,,,,,,,,,,,,,,,,,,
22454,1490460203874,,,,,,,,0.01,0.09,0.99,-3.5,0.6,0.1,820,32,,,,,,,,,,,,,,,,,,,
22474,1490460203894,0,47.3,,45.2,65,46.5,,0.01,0.1,0.99,-3.6,0.4,0.1,820,32,1,1,27.333,0,38.159161,-122.454353,0.0,0.0,38.3,9,3,1.5,0,0.0,-1,0.0,0.0,0.0,0
22494,1490460203914,,,,,,,,0.01,0.1,0.99,-3.5,0.5,0.1,820,32,,,,,,,,,,,,,,,,,,,
22514,1490460203934,,,,,,,,0.01,0.1,1.0,-3.5,0.5,0.0,820,32,,,,,,,,,,,,,,,,,,,
22534,1490460203954,,,,,,,,0.01,0.09,1.0,-3.5,0.4,-0.0,780,32,,,,,,,,,,,,,,,,,,,
22554,1490460203974,,,,,,,,0.01,0.1,0.99,-3.5,0.4,0.0,780,31,,,,,,,,,,,,,,,,,,,
22574,1490460203994,,,,,64,,,0.01,0.1,0.99,-3.5,0.4,0.0,780,31,1,1,24.375,0,38.159161,-122.454353,0.0,0.0,38.3,9,3,1.5,0,0.0,-1,0.0,0.0,0.0,0
22594,1490460204006,,,,,,,,0.01,0.1,1.0,-3.5,0.2,0.1,760,32,,,,,,,,,,,,,,,,,,,
22614,1490460204026,,,,,,,,0.0,0.1,1.0,-3.5,0.4,-0.0,760,32,,,,,,,,,,,,,,,,,,,
22634,1490460204046,,,,,,,,0.01,0.09,1.0,-3.5,0.3,-0.0,760,32,,,,,,,,,,,,,,,,,,,
22654,1490460204066,,,,,,,,0.01,0.1,0.99,-3.5,0.3,0.1,760,31,,,,,,,,,,,,,,,,,,,
22674,1490460204093,0,46.7,,45.0,63,47.0,,0.01,0.1,0.99,-3.5,0.3,0.1,760,31,1,1,25.333,0,38.159161,-122.454353,0.0,0.0,38.3,9,3,1.5,0,0.0,-1,0.0,0.0,0.0,0
22694,1490460204113,,,,,,,,0.01,0.1,1.0,-3.5,0.2,0.0,740,32,,,,,,,,,,,,,,,,,,,
22714,1490460204133,,,,,,,,0.01,0.1,1.0,-3.5,0.3,-0.0,740,32,,,,,,,,,,,,,,,,,,,
22734,1490460204153,,,,,,,,0.01,0.1,0.99,-3.5,0.2,0.0,740,32,,,,,,,,,,,,,,,,,,,
22754,1490460204173,,,,,,,,0.01,0.1,0.99,-3.5,0.2,0.0,720,31,,,,,,,,,,,,,,,,,,,
22774,1490460204193,,,,,61,,,0.0,0.09,0.99,-3.5,0.2,-0.1,740,31,1,1,24.667,0,38.159161,-122.454353,0.0,0.0,38.3,9,3,1.5,0,0.0,-1,0.0,0.0,0.0,0
22794,1490460204213,,,,,,,,0.0,0.1,0.99,-3.5,0.2,-0.1,740,32,,,,,,,,,,,,,,,,,,,
22814,1490460204233,,,,,,,,0.01,0.1,0.99,-3.5,0.2,-0.0,740,32,,,,,,,,,,,,,,,,,,,
22834,1490460204253,,,,,,,,0.0,0.09,0.99,-3.5,0.2,-0.0,740,32,,,,,,,,,,,,,,,,,,,
22854,1490460204273,,,,,,,,0.0,0.09,0.99,-3.5,0.3,-0.0,720,29,,,,,,,,,,,,,,,,,,,
22874,1490460204293,0,47.5,,45.4,59,46.6,,0.0,0.09,0.99,-3.5,0.3,-0.0,720,29,1,1,25.517,0,38.159161,-122.454353,0.0,0.0,38.3,9,3,1.5,0,0.0,-1,0.0,0.0,0.0,0
22894,1490460204313,,,,,,,,0.0,0.09,0.99,-3.5,0.2,-0.0,700,32,,,,,,,,,,,,,,,,,,,
22914,1490460204333,,,,,,,,-0.0,0.09,0.99,-3.5,0.3,-0.1,680,32,,,,,,,,,,,,,,,,,,,
22934,1490460204353,,,,,,,,-0.0,0.09,1.0,-3.5,0.3,-0.1,680,32,,,,,,,,,,,,,,,,,,,
22954,1490460204373,,,,,,,,-0.0,0.09,0.99,-3.5,0.2,-0.1,680,28,,,,,,,,,,,,,,,,,,,
22974,1490460204393,,,,,56,,,0.0,0.09,0.99,-3.5,0.2,-0.1,700,28,1,1,25.185,0,38.159161,-122.454353,0.0,0.0,38.3,9,3,1.5,0,0.0,-1,0.0,0.0,0.0,0
22994,1490460204413,,,,,,,,0.0,0.08,0.99,-3.5,0.2,-0.1,680,32,,,,,,,,,,,,,,,,,,,
23014,1490460204433,,,,,,,,0.0,0.09,0.99,-3.5,0.3,-0.1,680,32,,,,,,,,,,,,,,,,,,,
23034,1490460204453,,,,,,,,0.0,0.09,0.99,-3.5,0.2,-0.0,660,32,,,,,,,,,,,,,,,,,,,
23054,1490460204473,,,,,,,,0.0,0.09,0.99,-3.5,0.2,-0.0,660,28,,,,,,,,,,,,,,,,,,,
23074,1490460204493,0,47.0,0.2,45.6,56,47.1,15.0,0.0,0.09,0.99,-3.5,0.3,-0.0,660,28,1,1,24.444,0,38.159161,-122.454353,0.0,0.0,38.3,9,3,1.5,0,0.0,-1,0.0,0.0,0.0,0
23094,1490460204513,,,,,,,,0.0,0.1,0.99,-3.5,0.2,0.0,640,31,,,,,,,,,,,,,,,,,,,
23114,1490460204533,,,,,,,,-0.0,0.09,0.99,-3.5,0.2,-0.0,640,31,,,,,,,,,,,,,,,,,,,
23134,1490460204553,,,,,,,,-0.0,0.09,0.99,-3.5,0.2,-0.0,640,31,,,,,,,,,,,,,,,,,,,
23154,1490460204573,,,,,,,,0.0,0.09,0.99,-3.4,0.2,-0.0,640,28,,,,,,,,,,,,,,,,,,,
23174,1490460204595,,,,,55,,,-0.0,0.09,0.99,-3.4,0.2,-0.1,640,28,1,1,23.704,0,38.159161,-122.454353,0.0,0.0,38.3,9,3,1.5,0,0.0,-1,0.0,0.0,0.0,0
23194,1490460204615,,,,,,,,-0.0,0.09,0.99,-3.5,0.2,-0.1,640,29,,,,,,,,,,,,,,,,,,,
23214,1490460204635,,,,,,,,-0.0,0.09,0.99,-3.5,0.2,-0.1,600,29,,,,,,,,,,,,,,,,,,,
23234,1490460204655,,,,,,,,-0.0,0.09,0.99,-3.5,0.2,-0.1,600,29,,,,,,,,,,,,,,,,,,,
23254,1490460204675,,,,,,,,0.0,0.09,0.99,-3.5,0.2,-0.0,600,28,,,,,,,,,,,,,,,,,,,
23274,1490460204695,0,46.8,,45.5,54,47.2,,0.0,0.09,0.99,-3.5,0.2,-0.0,600,28,1,1,20.69,0,38.159161,-122.454353,0.0,0.0,38.3,9,3,1.5,0,0.0,-1,0.0,0.0,0.0,0
23294,1490460204715,,,,,,,,0.0,0.09,0.99,-3.5,0.3,-0.0,600,28,,,,,,,,,,,,,,,,,,,
23314,1490460204735,,,,,,,,0.0,0.08,0.99,-3.4,0.2,-0.0,600,28,,,,,,,,,,,,,,,,,,,
23334,1490460204755,,,,,,,,0.0,0.08,0.99,-3.4,0.3,-0.0,600,28,,,,,,,,,,,,,,,,,,,
23354,1490460204775,,,,,,,,0.01,0.09,0.99,-3.4,0.3,0.0,620,28,,,,,,,,,,,,,,,,,,,
23374,1490460204795,,,,,54,,,0.01,0.09,0.99,-3.4,0.3,-0.0,620,28,1,1,22.963,0,38.159161,-122.454353,0.0,0.0,38.3,9,3,1.5,0,0.0,-1,0.0,0.0,0.0,0
23394,1490460204815,,,,,,,,0.0,0.09,0.98,-3.4,0.3,-0.0,620,28,,,,,,,,,,,,,,,,,,,
23414,1490460204835,,,,,,,,0.01,0.1,0.98,-3.4,0.3,-0.0,640,25,,,,,,,,,,,,,,,,,,,
23434,1490460204855,,,,,,,,0.0,0.09,0.98,-3.4,0.2,-0.1,660,25,,,,,,,,,,,,,,,,,,,
23454,1490460204875,,,,,,,,0.01,0.09,0.98,-3.4,0.4,-0.0,660,25,,,,,,,,,,,,,,,,,,,
23474,1490460204895,0,46.6,,45.2,55,47.2,,0.01,0.1,0.98,-3.5,0.3,0.0,680,29,1,1,27.5,0,38.159161,-122.454353,0.0,0.0,38.3,9,3,1.5,0,0.0,-1,0.0,0.0,0.0,0
23494,1490460204915,,,,,,,,0.0,0.09,0.99,-3.4,0.3,-0.1,640,29,,,,,,,,,,,,,,,,,,,
23514,1490460204935,,,,,,,,0.01,0.09,0.99,-3.5,0.4,-0.2,640,29,,,,,,,,,,,,,,,,,,,
23534,1490460204955,,,,,,,,0.01,0.1,0.98,-3.5,0.4,-0.1,720,25,,,,,,,,,,,,,,,,,,,
23554,1490460204975,,,,,,,,0.0,0.08,0.99,-3.4,0.4,-0.2,700,25,,,,,,,,,,,,,,,,,,,
23574,1490460204995,,,,,58,,,0.0,0.08,0.99,-3.5,0.4,-0.2,700,25,1,1,30.0,0,38.159161,-122.454353,0.0,0.0,38.3,9,3,1.5,0,0.0,-1,0.0,0.0,0.0,0
23594,1490460205007,,,,,,,,0.01,0.09,0.98,-3.5,0.4,-0.1,720,26,,,,,,,,,,,,,,,,,,,
23614,1490460205027,,,,,,,,0.01,0.09,0.98,-3.5,0.4,-0.0,740,26,,,,,,,,,,,,,,,,,,,
23634,1490460205047,,,,,,,,0.0,0.09,0.99,-3.4,0.4,-0.1,740,26,,,,,,,,,,,,,,,,,,,
23654,1490460205067,,,,,,,,0.0,0.09,0.99,-3.4,0.3,-0.2,740,28,,,,,,,,,,,,,,,,,,,
23674,1490460205094,0,47.6,,45.6,61,46.5,,0.0,0.1,0.99,-3.5,0.4,-0.0,760,28,1,1,27.407,0,38.159161,-122.454353,0.0,0.0,38.3,9,3,1.5,0,0.0,-1,0.0,0.0,0.0,0
23694,1490460205114,,,,,,,,0.01,0.1,0.98,-3.5,0.4,0.0,780,28,,,,,,,,,,,,,,,,,,,
23714,1490460205134,,,,,,,,0.0,0.1,0.99,-3.5,0.3,-0.1,800,25,,,,,,,,,,,,,,,,,,,
23734,1490460205154,,,,,,,,-0.0,0.1,0.99,-3.4,0.4,-0.2,820,25,,,,,,,,,,,,,,,,,,,
23754,1490460205174,,,,,,,,-0.0,0.09,0.99,-3.4,0.4,-0.2,820,25,,,,,,,,,,,,,,,,,,,
23774,1490460205194,,,,,65,,,-0.0,0.09,0.98,-3.5,0.4,-0.0,820,26,1,1,34.167,0,38.159161,-122.454353,0.0,0.0,38.3,9,3,1.5,0,0.0,-1,0.0,0.0,0.0,0
23794,1490460205214,,,,,,,,0.01,0.1,0.98,-3.5,0.6,0.1,820,26,,,,,,,,,,,,,,,,,,,
23814,1490460205234,,,,,,,,0.0,0.1,0.99,-3.5,0.2,0.1,840,25,,,,,,,,,,,,,,,,,,,
23834,1490460205254,,,,,,,,-0.0,0.1,0.99,-3.5,0.5,0.0,860,25,,,,,,,,,,,,,,,,,,,
23854,1490460205274,,,,,,,,-0.0,0.1,0.99,-3.5,0.3,-0.1,880,25,,,,,,,,,,,,,,,,,,,
23874,1490460205294,0,45.6,,44.2,67,46.4,,-0.01,0.09,0.99,-3.5,0.2,-0.2,880,25,1,1,35.833,0,38.159161,-122.454353,0.0,0.0,38.3,9,3,1.5,0,0.0,-1,0.0,0.0,0.0,0
23894,1490460205314,,,,,,,,-0.01,0.08,0.98,-3.4,0.3,-0.3,880,25,,,,,,,,,,,,,,,,,,,
23914,1490460205334,,,,,,,,-0.01,0.08,0.97,-3.4,0.3,-0.2,880,25,,,,,,,,,,,,,,,,,,,
23934,1490460205354,,,,,,,,0.0,0.08,0.97,-3.5,0.4,-0.1,880,25,,,,,,,,,,,,,,,,,,,
23954,1490460205374,,,,,,,,0.01,0.09,0.98,-3.5,0.5,0.0,900,25,,,,,,,,,,,,,,,,,,,
23974,1490460205394,,,,,65,,,0.01,0.1,0.98,-3.5,0.4,0.1,900,25,1,1,37.5,0,38.159161,-122.454353,0.0,0.0,38.3,9,3,1.5,0,0.0,-1,0.0,0.0,0.0,0
23994,1490460205414,,,,,,,,0.01,0.1,0.99,-3.5,0.4,0.0,900,25,,,,,,,,,,,,,,,,,,,
24014,1490460205434,,,,,,,,0.01,0.11,1.0,-3.5,0.4,-0.0,860,25,,,,,,,,,,,,,,,,,,,
24034,1490460205454,,,,,,,,0.0,0.11,1.0,-3.5,0.4,-0.1,860,25,,,,,,,,,,,,,,,,,,,
24054,1490460205474,,,,,,,,-0.0,0.1,1.0,-3.4,0.3,-0.1,840,25,,,,,,,,,,,,,,,,,,,
24074,1490460205494,0,46.8,0.3,45.2,62,47.0,14.98,-0.0,0.09,1.0,-3.4,0.5,-0.1,840,25,1,1,35.833,0,38.159161,-122.454353,0.0,0.0,38.3,9,3,1.5,0,0.0,-1,0.0,0.0,0.0,0
24094,1490460205514,,,,,,,,0.01,0.09,0.99,-3.4,0.5,-0.1,840,25,,,,,,,,,,,,,,,,,,,
24114,1490460205534,,,,,,,,0.01,0.09,0.98,-3.4,0.5,0.0,860,25,,,,,,,,,,,,,,,,,,,
24134,1490460205554,,,,,,,,0.02,0.1,0.99,-3.4,0.4,0.0,840,25,,,,,,,,,,,,,,,,,,,
24154,1490460205574,,,,,,,,0.01,0.1,0.99,-3.4,0.4,0.0,820,25,,,,,,,,,,,,,,,,,,,
24174,1490460205594,,,,,62,,,0.01,0.1,0.99,-3.4,0.5,-0.0,800,25,1,1,35.0,0,38.159161,-122.454353,0.0,0.0,38.3,9,3,1.5,0,0.0,-1,0.0,0.0,0.0,0
24194,1490460205614,,,,,,,,0.01,0.09,0.99,-3.4,0.4,-0.1,780,25,,,,,,,,,,,,,,,,,,,
24214,1490460205634,,,,,,,,0.01,0.09,0.99,-3.4,0.4,-0.0,780,25,,,,,,,,,,,,,,,,,,,
24234,1490460205654,,,,,,,,0.02,0.1,0.99,-3.4,0.5,0.0,780,25,,,,,,,,,,,,,,,,,,,
24254,1490460205674,,,,,,,,0.02,0.1,0.99,-3.4,0.4,0.1,800,23,,,,,,,,,,,,,,,,,,,
24274,1490460205694,0,45.6,,43.4,61,44.8,,0.01,0.1,0.99,-3.4,0.5,-0.0,780,23,1,1,34.783,0,38.159161,-122.454353,0.0,0.0,38.3,9,3,1.5,0,0.0,-1,0.0,0.0,0.0,0
24294,1490460205714,,,,,,,,0.01,0.1,1.0,-3.4,0.5,-0.1,760,23,,,,,,,,,,,,,,,,,,,
24314,1490460205734,,,,,,,,0.01,0.1,0.99,-3.4,0.4,-0.0,760,23,,,,,,,,,,,,,,,,,,,
24334,1490460205754,,,,,,,,0.01,0.1,0.99,-3.4,0.5,0.0,760,23,,,,,,,,,,,,,,,,,,,
24354,1490460205774,,,,,,,,0.01,0.1,0.99,-3.4,0.4,0.0,740,23,,,,,,,,,,,,,,,,,,,
24374,1490460205794,,,,,60,,,0.0,0.09,0.99,-3.3,0.4,-0.1,760,23,1,1,33.043,0,38.159161,-122.454353,0.0,0.0,38.3,9,3,1.5,0,0.0,-1,0.0,0.0,0.0,0
24394,1490460205814,,,,,,,,0.01,0.09,0.99,-3.3,0.5,-0.1,760,23,,,,,,,,,,,,,,,,,,,
24414,1490460205834,,,,,,,,0.01,0.09,0.99,-3.3,0.4,0.0,780,23,,,,,,,,,,,,,,,,,,,
24434,1490460205854,,,,,,,,0.01,0.1,0.99,-3.3,0.5,0.0,780,23,,,,,,,,,,,,,,,,,,,
24454,1490460205874,,,,,,,,0.01,0.09,0.99,-3.3,0.3,-0.1,760,22,,,,,,,,,,,,,,,,,,,
24474,1490460205894,0,45.5,,44.2,58,46.2,,0.01,0.09,0.99,-3.3,0.4,-0.1,760,22,1,1,37.143,0,38.159161,-122.454353,0.0,0.0,38.3,9,3,1.5,0,0.0,-1,0.0,0.0,0.0,0
24494,1490460205914,,,,,,,,0.01,0.1,0.99,-3.4,0.3,0.0,760,22,,,,,,,,,,,,,,,,,,,
24514,1490460205934,,,,,,,,0.01,0.1,0.99,-3.4,0.4,0.1,740,22,,,,,,,,,,,,,,,,,,,
24534,1490460205954,,,,,,,,0.01,0.1,1.0,-3.3,0.4,-0.0,760,22,,,,,,,,,,,,,,,,,,,
24554,1490460205974,,,,,,,,0.0,0.1,1.0,-3.3,0.4,-0.1,780,22,,,,,,,,,,,,,,,,,,,
24574,1490460205994,,,,,59,,,0.01,0.09,1.0,-3.3,0.4,-0.1,780,22,1,1,36.19,0,38.159161,-122.454353,0.0,0.0,38.3,9,3,1.5,0,0.0,-1,0.0,0.0,0.0,0
24594,1490460206008,,,,,,,,0.01,0.09,0.99,-3.4,0.4,0.0,760,22,,,,,,,,,,,,,,,,,,,
24614,1490460206028,,,,,,,,0.01,0.1,0.99,-3.4,0.4,0.0,760,22,,,,,,,,,,,,,,,,,,,
24634,1490460206048,,,,,,,,0.01,0.1,1.0,-3.4,0.4,-0.0,760,22,,,,,,,,,,,,,,,,,,,
24654,1490460206068,,,,,,,,0.01,0.09,1.0,-3.4,0.4,-0.0,760,22,,,,,,,,,,,,,,,,,,,
24674,1490460206088,0,45.5,,44.0,58,46.0,,0.01,0.09,0.99,-3.4,0.4,0.1,740,22,1,1,36.19,0,38.159161,-122.454353,0.0,0.0,38.3,9,3,1.5,0,0.0,-1,0.0,0.0,0.0,0
24694,1490460206109,,,,,,,,0.01,0.1,0.99,-3.4,0.4,0.1,760,22,,,,,,,,,,,,,,,,,,,
24714,1490460206129,,,,,,,,0.01,0.1,0.99,-3.4,0.3,0.0,760,22,,,,,,,,,,,,,,,,,,,
24734,1490460206149,,,,,,,,0.01,0.1,0.99,-3.4,0.4,-0.0,760,20,,,,,,,,,,,,,,,,,,,
24754,1490460206169,,,,,,,,0.02,0.1,0.99,-3.4,0.3,0.1,760,20,,,,,,,,,,,,,,,,,,,
24774,1490460206195,,,,,58,,,0.02,0.1,0.99,-3.4,0.3,0.1,720,26,1,1,38.0,0,38.159161,-122.454353,0.0,0.0,38.3,9,3,1.5,0,0.0,-1,0.0,0.0,0.0,0
24794,1490460206215,,,,,,,,0.02,0.1,1.0,-3.4,0.2,0.0,720,52,,,,,,,,,,,,,,,,,,,
24814,1490460206235,,,,,,,,0.03,0.1,1.0,-3.4,0.2,0.0,720,52,,,,,,,,,,,,,,,,,,,
24834,1490460206255,,,,,,,,0.04,0.1,0.99,-3.4,0.1,0.1,700,52,,,,,,,,,,,,,,,,,,,
24854,1490460206275,,,,,,,,0.03,0.1,0.99,-3.4,0.1,0.1,700,52,,,,,,,,,,,,,,,,,,,
24874,1490460206295,0,47.0,,44.8,57,45.0,,0.03,0.09,0.99,-3.4,0.1,0.0,700,22,1,1,13.462,0,38.159161,-122.454353,0.0,0.0,38.3,9,3,1.5,0,0.0,-1,0.0,0.0,0.0,0
