"Interval"|"ms"|0|0|1,"Utc"|"ms"|0|0|1,"FuelLevel"|"F"|0|100|5,"OilTemp"|"F"|0.0|300.0|5,"CoolantPressPSI"|"PSI"|0.0|20.0|1,"Coolant"|"F"|0.0|300.0|5,"OilPress"|"PSI"|0|150|10,"EngineTemp"|"F"|0.0|300.0|5,"Battery"|"Volts"|0.0|20.0|1,"AccelX"|"G"|-3.0|3.0|50,"AccelY"|"G"|-3.0|3.0|50,"AccelZ"|"G"|-3.0|3.0|50,"Yaw"|"Deg/Sec"|-300.0|300.0|50,"Pitch"|"Deg/Sec"|-300.0|300.0|50,"Roll"|"Deg/Sec"|-300.0|300.0|50,"RPM"|""|0|10000|50,"Driveshaft"|"RPM"|0|5000|50,"GPIO1"|""|0|1|10,"GPIO2"|""|0|1|10,"GearRatio"|""|-5.0|5.0|10,"Gear"|""|-1|5|10,"Latitude"|"Degrees"|-180.0|180.0|10,"Longitude"|"Degrees"|-180.0|180.0|10,"Speed"|"mph"|0.0|150.0|10,"Distance"|"mi"|0.0|0.0|10,"Altitude"|"ft"|0.0|4000.0|10,"GPSSats"|""|0|20|10,"GPSQual"|""|0|5|10,"GPSDOP"|""|0.0|20.0|10,"LapCount"|""|0|0|10,"LapTime"|"Min"|0.0|0.0|10,"Sector"|""|0|0|10,"SectorTime"|"Min"|0.0|0.0|10,"PredTime"|"Min"|0.0|0.0|10,"ElapsedTime"|"Min"|0.0|0.0|10,"CurrentLap"|""|0|0|10
6794016,1490467446495,,,,,,,,0.01,0.07,0.99,-3.2,0.1,0.0,140,0,,,,,,,,,,,,,,,,,,,
6794036,1490467446515,,,,,,,,0.01,0.07,0.98,-3.2,-0.0,0.0,420,0,,,,,,,,,,,,,,,,,,,
6794056,1490467446535,,,,,,,,0.01,0.08,0.99,-3.2,0.0,0.0,420,0,,,,,,,,,,,,,,,,,,,
6794076,1490467446555,,,,,,,,0.0,0.07,1.0,-3.2,0.1,-0.1,580,0,,,,,,,,,,,,,,,,,,,
6794098,1490467446577,,,,,0,,,0.0,0.06,0.99,-3.1,-0.1,-0.2,580,0,0,1,0.0,0,38.158642,-122.452957,0.0,2.318,31.9,9,2,1.6,34,2.4467,2,0.1617,2.6269,4.2717,35
6794117,1490467446596,,,,,,,,0.01,0.06,1.0,-3.2,0.0,-0.1,700,0,,,,,,,,,,,,,,,,,,,
6794137,1490467446616,,,,,,,,0.02,0.07,1.0,-3.2,0.2,0.1,800,0,,,,,,,,,,,,,,,,,,,
6794157,1490467446636,,,,,,,,0.02,0.08,1.01,-3.2,0.2,0.2,840,0,,,,,,,,,,,,,,,,,,,
6794177,1490467446656,,,,,,,,0.02,0.09,1.01,-3.2,0.2,0.1,800,0,,,,,,,,,,,,,,,,,,,
6794199,1490467446678,0,211.6,,201.8,1,217.5,,0.02,0.08,1.02,-3.1,0.2,-0.2,820,0,0,0,0.0,0,38.158642,-122.452957,0.0,2.318,31.9,9,2,1.6,34,2.4467,2,0.1617,2.6269,4.2733,35
6794218,1490467446697,,,,,,,,0.03,0.07,1.01,-3.1,0.2,-0.2,900,0,,,,,,,,,,,,,,,,,,,
6794238,1490467446717,,,,,,,,0.03,0.07,1.0,-3.2,0.2,-0.0,960,0,,,,,,,,,,,,,,,,,,,
6794258,1490467446737,,,,,,,,0.02,0.08,1.0,-3.2,0.5,0.1,1040,0,,,,,,,,,,,,,,,,,,,
6794278,1490467446757,,,,,,,,0.02,0.08,1.01,-3.2,0.2,0.1,1080,0,,,,,,,,,,,,,,,,,,,
6794300,1490467446779,,,,,3,,,0.02,0.08,1.03,-3.1,0.2,-0.1,1080,0,0,0,0.0,0,38.158642,-122.452957,0.0,2.318,31.9,9,2,1.6,34,2.4467,2,0.1617,2.6269,4.275,35
6794319,1490467446798,,,,,,,,0.01,0.08,1.02,-3.1,-0.0,-0.1,1060,0,,,,,,,,,,,,,,,,,,,
6794339,1490467446818,,,,,,,,0.02,0.09,1.0,-3.1,-0.0,-0.1,1100,0,,,,,,,,,,,,,,,,,,,
6794359,1490467446838,,,,,,,,0.02,0.09,1.0,-3.1,0.1,-0.1,1140,0,,,,,,,,,,,,,,,,,,,
6794379,1490467446858,,,,,,,,0.02,0.08,1.0,-3.1,0.2,-0.1,1160,0,,,,,,,,,,,,,,,,,,,
6794401,1490467446880,0,210.1,,200.7,4,217.2,,0.02,0.08,0.99,-3.1,0.2,-0.1,1220,0,0,0,0.0,0,38.158642,-122.452957,0.0,2.318,31.9,9,2,1.6,34,2.4467,2,0.1617,2.6269,4.2767,35
6794420,1490467446899,,,,,,,,0.02,0.08,0.99,-3.1,0.3,-0.1,1240,0,,,,,,,,,,,,,,,,,,,
6794440,1490467446919,,,,,,,,0.02,0.09,0.99,-3.0,0.2,-0.1,1260,0,,,,,,,,,,,,,,,,,,,
6794460,1490467446939,,,,,,,,0.02,0.08,1.0,-3.0,0.3,-0.1,1280,0,,,,,,,,,,,,,,,,,,,
6794480,1490467446959,,,,,,,,0.03,0.08,1.0,-3.0,0.3,-0.1,1300,0,,,,,,,,,,,,,,,,,,,
6794502,1490467446981,,,,,6,,,0.03,0.07,1.0,-3.1,0.4,-0.1,1300,0,0,0,0.0,0,38.158642,-122.452957,0.0,2.318,31.9,9,2,1.6,34,2.4467,2,0.1617,2.6269,4.2783,35
6794521,1490467447000,,,,,,,,0.02,0.07,1.01,-3.1,0.3,-0.1,1320,0,,,,,,,,,,,,,,,,,,,
6794541,1490467447009,,,,,,,,0.02,0.07,1.01,-3.1,0.3,-0.1,1320,0,,,,,,,,,,,,,,,,,,,
6794561,1490467447029,,,,,,,,0.02,0.08,1.01,-3.1,0.3,-0.1,1320,0,,,,,,,,,,,,,,,,,,,
6794581,1490467447049,,,,,,,,0.02,0.08,1.01,-3.1,0.3,-0.1,1300,0,,,,,,,,,,,,,,,,,,,
6794603,1490467447071,0,210.2,,200.6,9,217.1,,0.02,0.08,1.01,-3.1,0.3,-0.1,1280,0,0,0,0.0,0,38.158642,-122.452957,0.0,2.318,31.9,9,2,1.6,34,2.4467,2,0.1617,2.6269,4.28,35
6794622,1490467447094,,,,,,,,0.01,0.07,1.01,-3.1,0.3,-0.1,1280,0,,,,,,,,,,,,,,,,,,,
6794642,1490467447114,,,,,,,,0.02,0.08,1.02,-3.1,0.3,-0.1,1280,0,,,,,,,,,,,,,,,,,,,
6794662,1490467447134,,,,,,,,0.02,0.08,1.01,-3.1,0.2,-0.1,1260,0,,,,,,,,,,,,,,,,,,,
6794682,1490467447154,,,,,,,,0.02,0.08,1.01,-3.1,0.2,-0.1,1260,0,,,,,,,,,,,,,,,,,,,
6794704,1490467447176,,,,,11,,,0.02,0.09,1.01,-3.1,0.2,-0.1,1220,0,0,0,0.0,0,38.158642,-122.452957,0.0,2.318,31.9,9,2,1.6,34,2.4467,2,0.1617,2.6269,4.2817,35
6794723,1490467447201,,,,,,,,0.02,0.08,1.01,-3.0,0.2,-0.0,1220,0,,,,,,,,,,,,,,,,,,,
6794743,1490467447221,,,,,,,,0.02,0.08,1.0,-3.0,0.2,-0.0,1200,0,,,,,,,,,,,,,,,,,,,
6794763,1490467447241,,,,,,,,0.02,0.09,1.0,-3.0,0.2,-0.0,1200,0,,,,,,,,,,,,,,,,,,,
6794783,1490467447261,,,,,,,,0.02,0.08,1.01,-3.0,0.2,-0.1,1160,0,,,,,,,,,,,,,,,,,,,
6794805,1490467447283,0,209.8,5.2,200.8,10,217.5,14.19,0.02,0.08,1.01,-3.0,0.3,-0.1,1140,0,0,0,0.0,0,38.158642,-122.452957,0.0,2.318,31.9,9,2,1.6,34,2.4467,2,0.1617,2.6269,4.2833,35
6794824,1490467447302,,,,,,,,0.01,0.08,1.0,-3.0,0.4,-0.1,1140,0,,,,,,,,,,,,,,,,,,,
6794844,1490467447322,,,,,,,,0.01,0.08,1.0,-3.0,0.3,-0.0,1120,0,,,,,,,,,,,,,,,,,,,
6794864,1490467447342,,,,,,,,0.02,0.08,0.99,-3.0,0.3,-0.0,1100,0,,,,,,,,,,,,,,,,,,,
6794884,1490467447362,,,,,,,,0.02,0.07,1.0,-3.0,0.3,-0.0,1080,0,,,,,,,,,,,,,,,,,,,
6794906,1490467447384,,,,,12,,,0.01,0.08,0.99,-3.0,0.2,-0.0,1060,0,0,0,0.0,0,38.158642,-122.452957,0.0,2.318,31.9,9,2,1.6,34,2.4467,2,0.1617,2.6269,4.285,35
6794925,1490467447403,,,,,,,,0.01,0.08,0.99,-3.1,0.1,-0.0,1060,0,,,,,,,,,,,,,,,,,,,
6794945,1490467447423,,,,,,,,0.01,0.08,0.99,-3.1,0.0,-0.0,1040,0,,,,,,,,,,,,,,,,,,,
6794965,1490467447443,,,,,,,,0.01,0.07,0.99,-3.1,0.2,0.0,1020,0,,,,,,,,,,,,,,,,,,,
6794985,1490467447463,,,,,,,,0.02,0.08,0.99,-3.1,0.2,-0.0,1020,0,,,,,,,,,,,,,,,,,,,
6795007,1490467447485,0,211.1,,201.9,12,218.4,,0.02,0.07,1.0,-3.1,0.3,-0.0,1000,0,0,0,0.0,0,38.158642,-122.452957,0.0,2.318,31.9,9,2,1.6,34,2.4467,2,0.1617,2.6269,4.2867,35
6795026,1490467447504,,,,,,,,0.02,0.07,1.0,-3.1,0.3,-0.1,1000,0,,,,,,,,,,,,,,,,,,,
6795046,1490467447524,,,,,,,,0.02,0.07,1.0,-3.1,0.3,-0.1,980,0,,,,,,,,,,,,,,,,,,,
6795066,1490467447544,,,,,,,,0.01,0.08,1.0,-3.1,0.3,-0.1,980,0,,,,,,,,,,,,,,,,,,,
6795086,1490467447564,,,,,,,,0.01,0.08,1.0,-3.1,0.3,-0.0,960,0,,,,,,,,,,,,,,,,,,,
6795108,1490467447586,,,,,11,,,0.01,0.08,0.99,-3.2,0.3,-0.0,940,0,0,0,0.0,0,38.158642,-122.452957,0.0,2.318,31.9,9,2,1.6,34,2.4467,2,0.1617,2.6269,4.2883,35
6795127,1490467447605,,,,,,,,0.0,0.07,1.0,-3.2,0.3,-0.0,920,0,,,,,,,,,,,,,,,,,,,
6795147,1490467447625,,,,,,,,0.01,0.08,1.0,-3.2,0.2,-0.0,900,0,,,,,,,,,,,,,,,,,,,
6795167,1490467447645,,,,,,,,0.01,0.08,0.99,-3.2,0.3,-0.0,900,0,,,,,,,,,,,,,,,,,,,
6795187,1490467447665,,,,,,,,0.01,0.08,0.99,-3.2,0.3,-0.0,900,0,,,,,,,,,,,,,,,,,,,
6795209,1490467447687,0,211.2,,202.2,12,217.8,,0.01,0.08,0.99,-3.2,0.3,-0.0,900,0,0,0,0.0,0,38.158642,-122.452957,0.0,2.318,31.9,9,2,1.6,34,2.4467,2,0.1617,2.6269,4.29,35
6795228,1490467447704,,,,,,,,0.01,0.08,0.99,-3.2,0.2,0.0,880,0,,,,,,,,,,,,,,,,,,,
6795248,1490467447724,,,,,,,,0.01,0.08,0.99,-3.2,0.3,-0.0,860,0,,,,,,,,,,,,,,,,,,,
6795268,1490467447744,,,,,,,,0.01,0.09,0.99,-3.2,0.2,-0.0,860,0,,,,,,,,,,,,,,,,,,,
6795288,1490467447764,,,,,,,,0.01,0.08,0.99,-3.2,0.2,-0.0,840,0,,,,,,,,,,,,,,,,,,,
6795310,1490467447786,,,,,10,,,0.01,0.08,0.99,-3.2,0.1,-0.1,820,0,0,0,0.0,0,38.158642,-122.452957,0.0,2.318,31.9,9,2,1.6,34,2.4467,2,0.1617,2.6269,4.2917,35
6795329,1490467447807,,,,,,,,0.01,0.08,0.98,-3.2,0.2,-0.1,820,0,,,,,,,,,,,,,,,,,,,
6795349,1490467447827,,,,,,,,0.01,0.08,0.98,-3.2,0.2,-0.1,820,0,,,,,,,,,,,,,,,,,,,
6795369,1490467447847,,,,,,,,0.01,0.08,0.99,-3.2,0.3,-0.1,800,0,,,,,,,,,,,,,,,,,,,
6795389,1490467447867,,,,,,,,0.01,0.08,0.99,-3.2,0.3,-0.0,800,0,,,,,,,,,,,,,,,,,,,
6795411,1490467447889,0,209.8,,201.2,10,217.2,,0.02,0.08,0.99,-3.2,0.4,-0.0,780,0,0,0,0.0,0,38.158642,-122.452957,0.0,2.318,31.9,9,2,1.6,34,2.4467,2,0.1617,2.6269,4.2933,35
6795430,1490467447908,,,,,,,,0.02,0.08,0.99,-3.2,0.3,-0.1,780,0,,,,,,,,,,,,,,,,,,,
6795450,1490467447928,,,,,,,,0.02,0.08,0.99,-3.2,0.4,-0.1,780,0,,,,,,,,,,,,,,,,,,,
6795470,1490467447948,,,,,,,,0.02,0.08,0.98,-3.2,0.4,-0.0,780,0,,,,,,,,,,,,,,,,,,,
6795490,1490467447968,,,,,,,,0.02,0.09,0.99,-3.2,0.5,0.0,760,0,,,,,,,,,,,,,,,,,,,
6795512,1490467447990,,,,,10,,,0.01,0.09,0.99,-3.2,0.4,-0.0,760,0,0,0,0.0,0,38.158642,-122.452957,0.0,2.318,31.9,9,2,1.6,34,2.4467,2,0.1617,2.6269,4.295,35
6795531,1490467448000,,,,,,,,0.02,0.08,0.99,-3.2,0.4,-0.1,740,0,,,,,,,,,,,,,,,,,,,
6795551,1490467448020,,,,,,,,0.02,0.08,0.99,-3.2,0.5,-0.1,740,0,,,,,,,,,,,,,,,,,,,
6795571,1490467448040,,,,,,,,0.02,0.08,0.99,-3.2,0.6,-0.1,740,0,,,,,,,,,,,,,,,,,,,
6795591,1490467448060,,,,,,,,0.02,0.08,0.99,-3.2,0.5,-0.0,740,0,,,,,,,,,,,,,,,,,,,
6795613,1490467448082,0,211.3,,201.8,9,217.4,,0.02,0.08,1.0,-3.2,0.4,-0.1,740,0,0,0,0.0,0,38.158642,-122.452957,0.0,2.318,31.9,9,2,1.7,34,2.4467,2,0.1617,2.6269,4.2967,35
6795632,1490467448109,,,,,,,,0.02,0.08,0.99,-3.2,0.5,-0.1,740,0,,,,,,,,,,,,,,,,,,,
6795652,1490467448129,,,,,,,,0.02,0.08,1.0,-3.2,0.4,-0.1,740,0,,,,,,,,,,,,,,,,,,,
6795672,1490467448149,,,,,,,,0.02,0.09,0.99,-3.1,0.3,-0.1,720,0,,,,,,,,,,,,,,,,,,,
6795692,1490467448169,,,,,,,,0.02,0.09,1.0,-3.1,0.3,-0.1,720,0,,,,,,,,,,,,,,,,,,,
6795714,1490467448191,,,,,8,,,0.02,0.09,0.99,-3.1,0.4,-0.1,720,0,0,0,0.0,0,38.158642,-122.452957,0.0,2.318,31.9,9,2,1.7,34,2.4467,2,0.1617,2.6269,4.2983,35
6795733,1490467448209,,,,,,,,0.02,0.09,1.0,-3.1,0.4,-0.1,720,0,,,,,,,,,,,,,,,,,,,
6795753,1490467448229,,,,,,,,0.02,0.09,1.0,-3.0,0.4,-0.1,720,0,,,,,,,,,,,,,,,,,,,
6795773,1490467448249,,,,,,,,0.02,0.09,1.0,-3.0,0.4,-0.2,720,0,,,,,,,,,,,,,,,,,,,
6795793,1490467448269,,,,,,,,0.02,0.09,1.0,-3.1,0.5,-0.2,720,0,,,,,,,,,,,,,,,,,,,
6795815,1490467448294,0,210.9,5.0,202.6,9,218.5,14.25,0.02,0.09,0.99,-3.1,0.5,-0.1,720,0,0,0,0.0,0,38.158642,-122.452957,0.0,2.318,31.9,9,2,1.7,34,2.4467,2,0.1617,2.6269,4.3017,35
6795834,1490467448313,,,,,,,,0.02,0.09,1.0,-3.1,0.5,-0.1,720,0,,,,,,,,,,,,,,,,,,,
6795854,1490467448333,,,,,,,,0.02,0.09,1.0,-3.1,0.4,-0.1,720,0,,,,,,,,,,,,,,,,,,,
6795874,1490467448353,,,,,,,,0.02,0.09,1.0,-3.1,0.5,-0.1,720,0,,,,,,,,,,,,,,,,,,,
6795894,1490467448373,,,,,,,,0.02,0.09,0.99,-3.2,0.4,-0.1,720,0,,,,,,,,,,,,,,,,,,,
6795916,1490467448395,,,,,8,,,0.02,0.09,1.0,-3.1,0.5,-0.1,700,0,0,0,0.0,0,38.158642,-122.452957,0.0,2.318,31.9,9,2,1.7,34,2.4467,2,0.1617,2.6269,4.3033,35
6795935,1490467448414,,,,,,,,0.02,0.09,0.99,-3.1,0.4,-0.1,700,0,,,,,,,,,,,,,,,,,,,
6795955,1490467448434,,,,,,,,0.02,0.09,1.0,-3.0,0.5,-0.1,720,0,,,,,,,,,,,,,,,,,,,
6795975,1490467448454,,,,,,,,0.02,0.09,0.99,-3.0,0.4,-0.1,720,0,,,,,,,,,,,,,,,,,,,
6795995,1490467448474,,,,,,,,0.02,0.1,1.0,-3.0,0.4,-0.1,720,0,,,,,,,,,,,,,,,,,,,
6796017,1490467448496,0,210.2,,201.5,8,216.9,,0.02,0.1,1.0,-3.0,0.5,-0.1,720,0,0,0,0.0,0,38.158642,-122.452957,0.0,2.318,31.9,9,2,1.7,34,2.4467,2,0.1617,2.6269,4.3033,35
6796036,1490467448509,,,,,,,,0.02,0.11,1.0,-3.1,0.5,-0.0,720,0,,,,,,,,,,,,,,,,,,,
6796056,1490467448529,,,,,,,,0.02,0.1,0.99,-3.1,0.5,-0.0,720,0,,,,,,,,,,,,,,,,,,,
6796076,1490467448549,,,,,,,,0.01,0.1,1.0,-3.2,0.3,-0.1,720,0,,,,,,,,,,,,,,,,,,,
6796096,1490467448569,,,,,,,,0.02,0.1,0.99,-3.2,0.3,-0.1,720,0,,,,,,,,,,,,,,,,,,,
6796118,1490467448597,,,,,9,,,0.01,0.1,0.99,-3.2,0.2,0.0,720,0,0,0,0.0,0,38.158642,-122.452957,0.0,2.318,31.9,9,2,1.7,34,2.4467,2,0.1617,2.6269,4.3067,35
6796137,1490467448616,,,,,,,,0.01,0.09,1.0,-3.2,0.2,-0.0,720,0,,,,,,,,,,,,,,,,,,,
6796157,1490467448636,,,,,,,,0.01,0.09,1.0,-3.2,0.1,-0.0,720,0,,,,,,,,,,,,,,,,,,,
6796177,1490467448656,,,,,,,,0.01,0.1,1.0,-3.2,0.2,-0.0,720,0,,,,,,,,,,,,,,,,,,,
6796197,1490467448676,,,,,,,,0.01,0.1,0.99,-3.2,0.3,-0.0,740,0,,,,,,,,,,,,,,,,,,,
6796219,1490467448698,0,211.1,,202.6,9,217.4,,0.01,0.11,1.01,-3.1,0.3,-0.0,740,0,0,0,0.0,0,38.158642,-122.452957,0.0,2.318,31.9,9,2,1.7,34,2.4467,2,0.1617,2.6269,4.3083,35
6796238,1490467448717,,,,,,,,0.01,0.09,1.0,-3.1,0.3,-0.1,740,0,,,,,,,,,,,,,,,,,,,
6796258,1490467448737,,,,,,,,0.02,0.09,1.0,-3.1,0.2,-0.1,740,0,,,,,,,,,,,,,,,,,,,
6796278,1490467448757,,,,,,,,0.02,0.1,1.0,-3.1,0.1,0.0,760,0,,,,,,,,,,,,,,,,,,,
6796298,1490467448777,,,,,,,,0.02,0.1,1.0,-3.1,-0.0,0.0,760,0,,,,,,,,,,,,,,,,,,,
6796320,1490467448799,,,,,9,,,0.01,0.09,1.0,-3.1,-0.1,-0.1,760,0,0,0,0.0,0,38.158642,-122.452957,0.0,2.318,31.9,9,2,1.7,34,2.4467,2,0.1617,2.6269,4.31,35
6796339,1490467448818,,,,,,,,0.01,0.09,1.0,-3.1,-0.0,-0.1,760,0,,,,,,,,,,,,,,,,,,,
6796359,1490467448838,,,,,,,,0.01,0.09,0.99,-3.1,0.1,-0.1,760,0,,,,,,,,,,,,,,,,,,,
6796379,1490467448858,,,,,,,,0.01,0.1,1.0,-3.1,0.2,-0.0,760,0,,,,,,,,,,,,,,,,,,,
6796399,1490467448878,,,,,,,,0.01,0.09,1.0,-3.1,0.2,-0.1,760,0,,,,,,,,,,,,,,,,,,,
6796421,1490467448900,0,209.7,,202.0,9,217.5,,0.02,0.09,1.0,-3.1,0.3,-0.2,760,0,0,0,0.0,0,38.158642,-122.452957,0.0,2.318,31.9,9,2,1.7,34,2.4467,2,0.1617,2.6269,4.3117,35
6796440,1490467448919,,,,,,,,0.01,0.09,1.0,-3.1,0.1,-0.1,780,0,,,,,,,,,,,,,,,,,,,
6796460,1490467448939,,,,,,,,0.02,0.09,0.99,-3.1,0.2,-0.1,780,0,,,,,,,,,,,,,,,,,,,
6796480,1490467448959,,,,,,,,0.01,0.09,1.0,-3.1,0.1,-0.0,780,0,,,,,,,,,,,,,,,,,,,
6796500,1490467448979,,,,,,,,0.01,0.09,1.0,-3.1,0.2,-0.0,780,0,,,,,,,,,,,,,,,,,,,
6796522,1490467449001,,,,,11,,,0.01,0.09,1.0,-3.1,0.2,-0.1,780,0,0,0,0.0,0,38.158642,-122.452957,0.0,2.318,31.9,9,2,1.7,34,2.4467,2,0.1617,2.6269,4.3117,35
6796541,1490467449009,,,,,,,,0.01,0.09,1.0,-3.1,0.2,-0.1,780,0,,,,,,,,,,,,,,,,,,,
6796561,1490467449029,,,,,,,,0.02,0.09,1.0,-3.1,0.3,-0.1,760,0,,,,,,,,,,,,,,,,,,,
6796581,1490467449049,,,,,,,,0.02,0.09,1.01,-3.1,0.2,-0.1,760,0,,,,,,,,,,,,,,,,,,,
6796601,1490467449069,,,,,,,,0.02,0.09,1.01,-3.1,0.3,-0.1,760,0,,,,,,,,,,,,,,,,,,,
6796623,1490467449101,0,210.2,,202.9,9,218.1,,0.02,0.09,1.0,-3.1,0.2,-0.1,760,0,0,0,0.0,0,38.158642,-122.452957,0.0,2.318,31.9,9,2,1.6,34,2.4467,2,0.1617,2.6269,4.315,35
6796642,1490467449120,,,,,,,,0.01,0.09,1.0,-3.1,0.4,-0.1,760,0,,,,,,,,,,,,,,,,,,,
6796662,1490467449140,,,,,,,,0.02,0.09,1.0,-3.1,0.3,-0.1,760,0,,,,,,,,,,,,,,,,,,,
6796682,1490467449160,,,,,,,,0.02,0.09,1.0,-3.0,0.4,-0.1,760,0,,,,,,,,,,,,,,,,,,,
6796702,1490467449180,,,,,,,,0.02,0.08,1.0,-3.0,0.4,-0.2,760,0,,,,,,,,,,,,,,,,,,,
6796724,1490467449204,,,,,10,,,0.02,0.08,1.0,-3.0,0.2,-0.1,760,0,0,0,0.0,0,38.158642,-122.452957,0.0,2.318,31.9,9,2,1.6,34,2.4467,2,0.1617,2.6269,4.3167,35
6796743,1490467449223,,,,,,,,0.03,0.09,0.99,-3.0,0.3,-0.1,760,0,,,,,,,,,,,,,,,,,,,
6796763,1490467449243,,,,,,,,0.02,0.09,0.99,-3.0,0.1,-0.1,760,0,,,,,,,,,,,,,,,,,,,
6796783,1490467449263,,,,,,,,0.02,0.09,0.99,-3.0,0.1,-0.1,760,0,,,,,,,,,,,,,,,,,,,
6796803,1490467449283,,,,,,,,0.02,0.09,0.99,-3.1,-0.1,-0.1,760,0,,,,,,,,,,,,,,,,,,,
6796825,1490467449305,0,210.9,4.5,203.4,10,217.8,14.23,0.02,0.09,0.98,-3.1,0.1,-0.1,740,0,0,0,0.0,0,38.158642,-122.452957,0.0,2.318,31.9,9,2,1.6,34,2.4467,2,0.1617,2.6269,4.3183,35
6796844,1490467449324,,,,,,,,0.01,0.09,0.99,-3.1,0.2,-0.1,740,0,,,,,,,,,,,,,,,,,,,
6796864,1490467449344,,,,,,,,0.02,0.1,1.0,-3.1,0.2,-0.1,740,0,,,,,,,,,,,,,,,,,,,
6796884,1490467449364,,,,,,,,0.02,0.09,0.99,-3.1,0.4,-0.2,740,0,,,,,,,,,,,,,,,,,,,
6796904,1490467449384,,,,,,,,0.02,0.09,0.99,-3.1,0.5,-0.2,740,0,,,,,,,,,,,,,,,,,,,
6796926,1490467449406,,,,,9,,,0.03,0.1,0.99,-3.1,0.3,-0.1,740,0,0,0,0.0,0,38.158642,-122.452957,0.0,2.318,31.9,9,2,1.6,34,2.4467,2,0.1617,2.6269,4.32,35
6796945,1490467449425,,,,,,,,0.03,0.1,1.0,-3.0,0.2,-0.2,740,0,,,,,,,,,,,,,,,,,,,
6796965,1490467449445,,,,,,,,0.03,0.09,1.0,-3.0,0.3,-0.2,740,0,,,,,,,,,,,,,,,,,,,
6796985,1490467449465,,,,,,,,0.03,0.09,1.0,-3.0,0.2,-0.2,740,0,,,,,,,,,,,,,,,,,,,
6797005,1490467449485,,,,,,,,0.02,0.09,1.0,-3.0,0.1,-0.2,720,0,,,,,,,,,,,,,,,,,,,
6797027,1490467449507,0,209.6,,202.9,8,217.5,,0.02,0.09,1.0,-2.9,0.1,-0.2,720,0,0,0,0.0,0,38.158642,-122.452957,0.0,2.318,31.9,9,2,1.6,34,2.4467,2,0.1617,2.6269,4.3217,35
6797046,1490467449526,,,,,,,,0.02,0.09,1.0,-2.9,0.2,-0.2,720,0,,,,,,,,,,,,,,,,,,,
6797066,1490467449546,,,,,,,,0.02,0.09,0.99,-3.0,0.2,-0.2,720,0,,,,,,,,,,,,,,,,,,,
6797086,1490467449566,,,,,,,,0.02,0.09,0.99,-3.0,0.3,-0.2,720,0,,,,,,,,,,,,,,,,,,,
6797106,1490467449586,,,,,,,,0.02,0.09,0.99,-3.0,0.3,-0.2,720,0,,,,,,,,,,,,,,,,,,,
6797128,1490467449606,,,,,9,,,0.02,0.09,1.0,-3.0,0.3,-0.2,720,0,0,0,0.0,0,38.158642,-122.452957,0.0,2.318,31.9,9,2,1.6,34,2.4467,2,0.1617,2.6269,4.3233,35
6797147,1490467449625,,,,,,,,0.02,0.1,0.99,-3.0,0.3,-0.1,720,0,,,,,,,,,,,,,,,,,,,
6797167,1490467449645,,,,,,,,0.01,0.09,1.0,-3.0,0.3,-0.1,720,0,,,,,,,,,,,,,,,,,,,
6797187,1490467449665,,,,,,,,0.01,0.1,1.0,-3.0,0.4,-0.2,720,0,,,,,,,,,,,,,,,,,,,
6797207,1490467449685,,,,,,,,0.02,0.09,0.99,-3.0,0.4,-0.1,720,0,,,,,,,,,,,,,,,,,,,
6797229,1490467449709,0,209.8,,202.6,9,216.8,,0.02,0.09,0.99,-3.1,0.4,-0.1,720,0,0,0,0.0,0,38.158642,-122.452957,0.0,2.318,31.9,9,2,1.6,34,2.4467,2,0.1617,2.6269,4.325,35
6797248,1490467449728,,,,,,,,0.02,0.09,0.99,-3.1,0.3,-0.0,720,0,,,,,,,,,,,,,,,,,,,
6797268,1490467449748,,,,,,,,0.01,0.09,1.0,-3.1,0.2,-0.1,720,0,,,,,,,,,,,,,,,,,,,
6797288,1490467449768,,,,,,,,0.02,0.09,0.99,-3.1,0.2,-0.1,720,0,,,,,,,,,,,,,,,,,,,
6797308,1490467449788,,,,,,,,0.02,0.09,0.99,-3.1,0.3,0.0,720,0,,,,,,,,,,,,,,,,,,,
6797330,1490467449810,,,,,9,,,0.02,0.09,0.99,-3.1,0.3,-0.0,720,0,0,0,0.0,0,38.158642,-122.452957,0.0,2.318,31.9,9,2,1.6,34,2.4467,2,0.1617,2.6269,4.3267,35
6797349,1490467449829,,,,,,,,0.02,0.09,1.0,-3.1,0.3,-0.1,720,0,,,,,,,,,,,,,,,,,,,
6797369,1490467449849,,,,,,,,0.02,0.1,1.0,-3.1,0.1,-0.0,720,0,,,,,,,,,,,,,,,,,,,
6797389,1490467449869,,,,,,,,0.02,0.1,0.99,-3.1,0.1,-0.0,720,0,,,,,,,,,,,,,,,,,,,
6797409,1490467449889,,,,,,,,0.02,0.1,1.0,-3.1,0.1,-0.1,720,0,,,,,,,,,,,,,,,,,,,
6797431,1490467449910,0,210.1,,203.8,10,217.9,,0.02,0.09,1.0,-3.1,0.2,-0.1,720,0,0,0,0.0,0,38.158642,-122.452957,0.0,2.318,31.9,9,2,1.6,34,2.4467,2,0.1617,2.6269,4.3283,35
6797450,1490467449929,,,,,,,,0.02,0.1,0.99,-3.2,0.2,-0.1,720,0,,,,,,,,,,,,,,,,,,,
6797470,1490467449949,,,,,,,,0.02,0.09,0.99,-3.2,0.3,-0.1,720,0,,,,,,,,,,,,,,,,,,,
6797490,1490467449969,,,,,,,,0.02,0.09,1.0,-3.2,0.3,-0.1,720,0,,,,,,,,,,,,,,,,,,,
6797510,1490467449989,,,,,,,,0.02,0.08,1.0,-3.1,0.3,-0.1,720,0,,,,,,,,,,,,,,,,,,,
6797532,1490467450001,,,,,9,,,0.02,0.09,0.99,-3.2,0.2,-0.0,720,0,0,0,0.0,0,38.158642,-122.452957,0.0,2.318,31.9,9,2,1.6,34,2.4467,2,0.1617,2.6269,4.33,35
6797551,1490467450020,,,,,,,,0.02,0.09,0.99,-3.2,0.2,-0.0,700,0,,,,,,,,,,,,,,,,,,,
6797571,1490467450040,,,,,,,,0.01,0.09,0.99,-3.1,0.2,-0.1,700,0,,,,,,,,,,,,,,,,,,,
6797591,1490467450060,,,,,,,,0.01,0.09,0.99,-3.1,0.3,-0.1,700,0,,,,,,,,,,,,,,,,,,,
6797611,1490467450080,,,,,,,,0.01,0.09,0.99,-3.1,0.3,-0.1,700,0,,,,,,,,,,,,,,,,,,,
6797633,1490467450110,0,209.7,,202.9,8,216.7,,0.01,0.09,0.99,-3.1,0.4,-0.1,700,0,0,0,0.0,0,38.158642,-122.452957,0.0,2.318,31.9,9,2,1.6,34,2.4467,2,0.1617,2.6269,4.3317,35
6797652,1490467450129,,,,,,,,0.01,0.09,0.99,-3.1,0.4,-0.2,700,0,,,,,,,,,,,,,,,,,,,
6797672,1490467450149,,,,,,,,0.01,0.09,1.0,-3.1,0.4,-0.1,680,0,,,,,,,,,,,,,,,,,,,
6797692,1490467450169,,,,,,,,0.01,0.09,0.99,-3.1,0.3,-0.1,680,0,,,,,,,,,,,,,,,,,,,
6797712,1490467450189,,,,,,,,0.01,0.08,0.99,-3.1,0.2,-0.1,680,0,,,,,,,,,,,,,,,,,,,
6797734,1490467450211,,,,,8,,,0.01,0.09,0.99,-3.1,0.2,-0.1,680,0,0,0,0.0,0,38.158642,-122.452957,0.0,2.318,31.9,9,2,1.6,34,2.4467,2,0.1617,2.6269,4.3333,35
6797753,1490467450230,,,,,,,,0.01,0.09,0.99,-3.1,0.0,-0.0,680,0,,,,,,,,,,,,,,,,,,,
6797773,1490467450250,,,,,,,,0.01,0.08,0.99,-3.1,-0.0,-0.1,680,0,,,,,,,,,,,,,,,,,,,
6797793,1490467450270,,,,,,,,0.01,0.09,0.99,-3.1,0.1,-0.1,660,0,,,,,,,,,,,,,,,,,,,
6797813,1490467450292,,,,,,,,0.01,0.09,0.99,-3.1,0.1,-0.0,660,0,,,,,,,,,,,,,,,,,,,
6797835,1490467450314,0,210.8,3.8,203.6,9,216.7,14.12,0.01,0.08,0.99,-3.0,0.3,-0.1,660,0,0,0,0.0,0,38.158642,-122.452957,0.0,2.318,31.9,9,2,1.6,34,2.4467,2,0.1617,2.6269,4.335,35
6797854,1490467450333,,,,,,,,0.01,0.08,0.99,-3.0,0.5,-0.1,660,0,,,,,,,,,,,,,,,,,,,
6797874,1490467450353,,,,,,,,0.01,0.09,0.99,-3.0,0.6,-0.1,640,0,,,,,,,,,,,,,,,,,,,
6797894,1490467450373,,,,,,,,0.01,0.08,0.99,-3.0,0.7,-0.2,640,0,,,,,,,,,,,,,,,,,,,
6797914,1490467450393,,,,,,,,0.01,0.08,0.99,-3.0,0.9,-0.1,640,0,,,,,,,,,,,,,,,,,,,
6797936,1490467450415,,,,,7,,,0.01,0.08,0.99,-3.0,0.8,-0.1,640,0,0,0,0.0,0,38.158642,-122.452957,0.0,2.318,31.9,9,2,1.6,34,2.4467,2,0.1617,2.6269,4.3367,35
6797955,1490467450434,,,,,,,,0.01,0.07,0.99,-3.0,0.8,-0.1,640,0,,,,,,,,,,,,,,,,,,,
6797975,1490467450454,,,,,,,,0.0,0.08,0.99,-3.0,0.8,-0.1,640,0,,,,,,,,,,,,,,,,,,,
6797995,1490467450474,,,,,,,,-0.0,0.08,0.99,-3.0,0.8,-0.1,620,0,,,,,,,,,,,,,,,,,,,
6798015,1490467450494,,,,,,,,-0.0,0.08,0.99,-3.0,0.7,-0.1,620,0,,,,,,,,,,,,,,,,,,,
6798037,1490467450516,0,210.0,,204.4,8,217.8,,-0.0,0.09,0.99,-3.0,0.7,-0.1,620,5,0,0,0.0,0,38.158642,-122.452957,0.0,2.318,31.9,9,2,1.6,34,2.4467,2,0.1617,2.6269,4.3383,35
6798056,1490467450535,,,,,,,,-0.0,0.08,0.99,-2.9,0.5,-0.1,600,5,,,,,,,,,,,,,,,,,,,
6798076,1490467450555,,,,,,,,-0.01,0.08,1.0,-2.9,0.4,-0.1,600,5,,,,,,,,,,,,,,,,,,,
6798096,1490467450575,,,,,,,,-0.01,0.09,1.0,-2.9,0.3,-0.1,600,5,,,,,,,,,,,,,,,,,,,
6798116,1490467450593,,,,,,,,-0.02,0.08,1.0,-2.9,0.3,-0.1,600,5,,,,,,,,,,,,,,,,,,,
6798138,1490467450615,,,,,7,,,-0.02,0.09,1.0,-2.9,0.3,-0.1,600,5,0,0,155.0,0,38.158642,-122.452957,0.0,2.318,31.9,9,2,1.6,34,2.4467,2,0.1617,2.6269,4.34,35
6798157,1490467450634,,,,,,,,-0.02,0.08,0.99,-2.8,0.3,-0.1,580,5,,,,,,,,,,,,,,,,,,,
6798177,1490467450654,,,,,,,,-0.02,0.08,0.99,-2.8,0.3,-0.1,580,5,,,,,,,,,,,,,,,,,,,
6798197,1490467450674,,,,,,,,-0.02,0.09,0.98,-2.8,0.4,-0.0,580,8,,,,,,,,,,,,,,,,,,,
6798217,1490467450696,,,,,,,,-0.02,0.08,0.98,-2.8,0.3,-0.1,580,8,,,,,,,,,,,,,,,,,,,
6798239,1490467450718,0,209.5,,203.2,6,216.6,,-0.02,0.08,0.98,-2.8,0.4,-0.0,560,8,0,0,150.0,0,38.158642,-122.452957,0.0,2.318,31.9,9,2,1.6,34,2.4467,2,0.1617,2.6269,4.3417,35
6798258,1490467450737,,,,,,,,-0.02,0.08,0.99,-2.7,0.4,-0.1,560,20,,,,,,,,,,,,,,,,,,,
6798278,1490467450757,,,,,,,,-0.02,0.08,0.99,-2.7,0.4,-0.1,560,20,,,,,,,,,,,,,,,,,,,
6798298,1490467450777,,,,,,,,-0.02,0.09,0.99,-2.7,0.4,-0.0,560,26,,,,,,,,,,,,,,,,,,,
6798318,1490467450797,,,,,,,,-0.02,0.08,0.99,-2.6,0.4,-0.0,560,26,,,,,,,,,,,,,,,,,,,
6798340,1490467450819,,,,,6,,,-0.02,0.09,0.99,-2.6,0.4,-0.0,560,26,0,0,80.0,0,38.158642,-122.452957,0.0,2.318,31.9,9,2,1.6,34,2.4467,2,0.1617,2.6269,4.3433,35
6798359,1490467450838,,,,,,,,-0.02,0.08,0.99,-2.5,0.3,-0.0,560,28,,,,,,,,,,,,,,,,,,,
6798379,1490467450858,,,,,,,,-0.02,0.09,0.99,-2.5,0.3,-0.0,540,28,,,,,,,,,,,,,,,,,,,
6798399,1490467450878,,,,,,,,-0.02,0.08,0.98,-2.4,0.3,-0.1,540,35,,,,,,,,,,,,,,,,,,,
6798419,1490467450898,,,,,,,,-0.03,0.08,0.99,-2.4,0.2,-0.0,540,35,,,,,,,,,,,,,,,,,,,
6798441,1490467450920,0,209.4,,203.3,6,216.5,,-0.03,0.09,0.99,-2.4,0.2,-0.1,540,34,0,0,21.538,0,38.158642,-122.452957,0.0,2.318,31.9,9,2,1.6,34,2.4467,2,0.1617,2.6269,4.345,35
6798460,1490467450939,,,,,,,,-0.03,0.07,0.99,-2.3,0.2,-0.1,540,34,,,,,,,,,,,,,,,,,,,
6798480,1490467450959,,,,,,,,-0.03,0.08,1.0,-2.3,0.3,0.0,540,42,,,,,,,,,,,,,,,,,,,
6798500,1490467450979,,,,,,,,-0.03,0.08,0.99,-2.2,0.2,-0.0,540,42,,,,,,,,,,,,,,,,,,,
6798520,1490467450999,,,,,,,,-0.03,0.08,0.99,-2.2,0.2,-0.0,560,40,,,,,,,,,,,,,,,,,,,
6798542,1490467451010,,,,,7,,,-0.03,0.08,0.99,-2.1,0.2,-0.1,560,43,0,0,16.364,0,38.158642,-122.452957,0.0,2.318,31.9,9,2,1.6,34,2.4467,2,0.1617,2.6269,4.3467,35
6798561,1490467451029,,,,,,,,-0.04,0.08,0.99,-2.1,0.3,-0.1,560,43,,,,,,,,,,,,,,,,,,,
6798581,1490467451049,,,,,,,,-0.04,0.08,0.99,-2.0,0.3,-0.1,560,48,,,,,,,,,,,,,,,,,,,
6798601,1490467451069,,,,,,,,-0.04,0.07,0.99,-2.0,0.4,-0.1,560,48,,,,,,,,,,,,,,,,,,,
6798621,1490467451099,,,,,,,,-0.04,0.08,0.99,-2.0,0.4,-0.0,580,48,,,,,,,,,,,,,,,,,,,
6798643,1490467451121,0,210.1,,204.9,7,217.8,,-0.04,0.07,0.99,-1.9,0.2,-0.1,580,49,0,0,13.023,0,38.158642,-122.452957,0.0,2.318,31.9,9,2,1.6,34,2.4467,2,0.1617,2.6269,4.3483,35
6798662,1490467451140,,,,,,,,-0.04,0.08,0.99,-1.9,0.3,-0.0,580,51,,,,,,,,,,,,,,,,,,,
6798682,1490467451160,,,,,,,,-0.04,0.08,0.99,-1.8,0.4,-0.1,580,51,,,,,,,,,,,,,,,,,,,
6798702,1490467451180,,,,,,,,-0.04,0.07,0.99,-1.9,0.3,-0.0,580,57,,,,,,,,,,,,,,,,,,,
6798722,1490467451200,,,,,,,,-0.03,0.08,0.99,-1.8,0.3,-0.0,580,55,,,,,,,,,,,,,,,,,,,
6798744,1490467451222,,,,,7,,,-0.04,0.07,0.99,-1.8,0.3,-0.1,580,55,0,0,11.837,0,38.158642,-122.452957,0.0,2.318,31.9,9,2,1.6,34,2.4467,2,0.1617,2.6269,4.35,35
6798763,1490467451241,,,,,,,,-0.04,0.07,0.99,-1.7,0.2,-0.0,600,55,,,,,,,,,,,,,,,,,,,
6798783,1490467451261,,,,,,,,-0.04,0.07,0.98,-1.7,0.1,-0.1,600,60,,,,,,,,,,,,,,,,,,,
6798803,1490467451281,,,,,,,,-0.05,0.06,0.99,-1.7,0.1,-0.0,600,65,,,,,,,,,,,,,,,,,,,
6798823,1490467451301,,,,,,,,-0.04,0.08,0.99,-1.7,0.2,0.0,600,62,,,,,,,,,,,,,,,,,,,
6798845,1490467451323,0,209.0,3.3,203.9,7,216.8,13.53,-0.04,0.07,0.99,-1.6,0.2,-0.0,600,62,0,0,10.545,0,38.158642,-122.452957,0.0,2.318,31.9,9,2,1.6,34,2.4467,2,0.1617,2.6269,4.3517,35
6798864,1490467451342,,,,,,,,-0.04,0.07,1.0,-1.6,0.4,-0.0,620,69,,,,,,,,,,,,,,,,,,,
6798884,1490467451362,,,,,,,,-0.04,0.08,1.01,-1.6,0.4,0.0,620,72,,,,,,,,,,,,,,,,,,,
6798904,1490467451382,,,,,,,,-0.05,0.07,1.0,-1.6,0.5,-0.0,620,68,,,,,,,,,,,,,,,,,,,
6798924,1490467451402,,,,,,,,-0.04,0.08,0.99,-1.6,0.6,0.0,620,68,,,,,,,,,,,,,,,,,,,
6798946,1490467451424,,,,,6,,,-0.04,0.08,0.99,-1.5,0.6,-0.0,620,74,0,0,10.164,0,38.158642,-122.452957,0.0,2.318,31.9,9,2,1.6,34,2.4467,2,0.1617,2.6269,4.3533,35
6798965,1490467451443,,,,,,,,-0.04,0.07,0.99,-1.5,0.6,-0.1,620,80,,,,,,,,,,,,,,,,,,,
6798985,1490467451463,,,,,,,,-0.03,0.08,0.99,-1.5,0.6,0.0,640,80,,,,,,,,,,,,,,,,,,,
6799005,1490467451483,,,,,,,,-0.04,0.07,0.99,-1.6,0.5,0.0,640,75,,,,,,,,,,,,,,,,,,,
6799025,1490467451503,,,,,,,,-0.04,0.07,0.99,-1.6,0.5,-0.0,640,77,,,,,,,,,,,,,,,,,,,
6799047,1490467451525,0,209.2,,204.4,7,217.2,,-0.04,0.08,0.99,-1.6,0.5,0.1,640,83,0,0,8.493,0,38.158642,-122.452957,0.0,2.318,31.9,9,2,1.6,34,2.4467,2,0.1617,2.6269,4.355,35
6799066,1490467451544,,,,,,,,-0.04,0.07,0.98,-1.5,0.4,0.0,640,85,,,,,,,,,,,,,,,,,,,
6799086,1490467451564,,,,,,,,-0.05,0.07,0.99,-1.5,0.3,0.0,640,83,,,,,,,,,,,,,,,,,,,
6799106,1490467451584,,,,,,,,-0.04,0.08,0.99,-1.6,0.2,0.1,640,82,,,,,,,,,,,,,,,,,,,
6799126,1490467451606,,,,,,,,-0.05,0.08,0.99,-1.5,0.0,0.1,640,86,,,,,,,,,,,,,,,,,,,
6799148,1490467451628,,,,,7,,,-0.05,0.09,0.99,-1.5,0.2,0.1,640,91,0,0,7.711,0,38.158642,-122.452957,0.0,2.318,31.9,9,2,1.6,34,2.4467,2,0.1617,2.6269,4.3567,35
6799167,1490467451647,,,,,,,,-0.05,0.09,0.99,-1.5,0.2,0.1,640,92,,,,,,,,,,,,,,,,,,,
6799187,1490467451667,,,,,,,,-0.06,0.09,0.99,-1.5,0.2,-0.0,640,92,,,,,,,,,,,,,,,,,,,
6799207,1490467451687,,,,,,,,-0.05,0.09,1.0,-1.5,0.3,0.0,640,92,,,,,,,,,,,,,,,,,,,
6799227,1490467451707,,,,,,,,-0.05,0.1,0.99,-1.5,0.3,0.0,640,95,,,,,,,,,,,,,,,,,,,
6799249,1490467451729,0,209.1,,203.9,7,216.7,,-0.05,0.09,1.0,-1.4,0.4,-0.1,640,98,0,0,7.111,0,38.158653,-122.452957,0.99,2.318,8.9,9,2,1.6,34,2.4467,2,0.1617,2.6269,4.3583,35
6799268,1490467451748,,,,,,,,-0.05,0.1,1.0,-1.5,0.4,0.0,640,100,,,,,,,,,,,,,,,,,,,
6799288,1490467451768,,,,,,,,-0.05,0.1,1.0,-1.5,0.4,0.0,620,100,,,,,,,,,,,,,,,,,,,
6799308,1490467451788,,,,,,,,-0.05,0.09,1.0,-1.5,0.5,-0.0,620,100,,,,,,,,,,,,,,,,,,,
6799328,1490467451808,,,,,,,,-0.04,0.1,1.0,-1.6,0.6,0.0,640,102,,,,,,,,,,,,,,,,,,,
6799350,1490467451830,,,,,7,,,-0.04,0.09,1.0,-1.6,0.5,-0.0,640,109,0,0,6.531,0,38.158653,-122.452957,1.13,2.318,8.9,9,2,1.6,34,2.4467,2,0.1617,2.6269,4.36,35
6799369,1490467451849,,,,,,,,-0.04,0.08,1.0,-1.5,0.5,-0.1,640,111,,,,,,,,,,,,,,,,,,,
6799389,1490467451869,,,,,,,,-0.04,0.09,1.0,-1.5,0.5,-0.1,640,106,,,,,,,,,,,,,,,,,,,
6799409,1490467451889,,,,,,,,-0.04,0.08,1.0,-1.5,0.3,-0.1,640,105,,,,,,,,,,,,,,,,,,,
6799429,1490467451907,,,,,,,,-0.04,0.07,0.99,-1.6,0.1,-0.1,640,108,,,,,,,,,,,,,,,,,,,
6799451,1490467451929,0,209.0,,204.1,7,216.6,,-0.04,0.08,0.99,-1.6,0.1,-0.0,640,117,0,0,5.872,0,38.158653,-122.452957,1.26,2.318,8.9,9,2,1.6,34,2.4467,2,0.1617,2.6269,4.3617,35
6799470,1490467451948,,,,,,,,-0.05,0.08,0.99,-1.5,-0.1,-0.1,640,115,,,,,,,,,,,,,,,,,,,
6799490,1490467451968,,,,,,,,-0.05,0.08,0.99,-1.6,-0.1,-0.1,640,111,,,,,,,,,,,,,,,,,,,
6799510,1490467451988,,,,,,,,-0.05,0.09,0.99,-1.6,0.0,-0.0,640,120,,,,,,,,,,,,,,,,,,,
6799530,1490467452001,,,,,,,,-0.06,0.08,0.99,-1.6,0.0,-0.1,640,126,,,,,,,,,,,,,,,,,,,
6799552,1490467452023,,,,,8,,,-0.05,0.09,1.0,-1.6,0.2,-0.1,640,126,0,0,5.517,0,38.158653,-122.452957,1.63,2.318,8.9,9,2,1.6,34,2.4467,2,0.1617,2.6269,4.3633,35
6799571,1490467452042,,,,,,,,-0.05,0.1,1.0,-1.6,0.2,-0.1,640,122,,,,,,,,,,,,,,,,,,,
6799591,1490467452062,,,,,,,,-0.05,0.08,1.0,-1.6,0.3,-0.2,640,122,,,,,,,,,,,,,,,,,,,
6799611,1490467452082,,,,,,,,-0.05,0.09,1.0,-1.6,0.4,-0.2,640,131,,,,,,,,,,,,,,,,,,,
6799631,1490467452110,,,,,,,,-0.05,0.09,1.0,-1.6,0.3,-0.1,640,132,,,,,,,,,,,,,,,,,,,
6799653,1490467452132,0,209.0,,204.0,7,216.4,,-0.05,0.08,0.99,-1.6,0.4,-0.2,640,128,0,0,5.079,0,38.158653,-122.452957,1.57,2.318,8.9,9,2,1.6,34,2.4467,2,0.1617,2.6269,4.365,35
6799672,1490467452151,,,,,,,,-0.04,0.08,0.99,-1.6,0.5,-0.2,640,125,,,,,,,,,,,,,,,,,,,
6799692,1490467452171,,,,,,,,-0.04,0.08,0.99,-1.6,0.5,-0.2,660,132,,,,,,,,,,,,,,,,,,,
6799712,1490467452193,,,,,,,,-0.04,0.07,0.99,-1.6,0.6,-0.2,660,138,,,,,,,,,,,,,,,,,,,
6799732,1490467452213,,,,,,,,-0.03,0.08,0.99,-1.6,0.8,-0.2,660,140,,,,,,,,,,,,,,,,,,,
6799754,1490467452235,,,,,8,,,-0.03,0.08,0.99,-1.6,0.8,-0.2,660,134,0,0,5.161,0,38.158653,-122.452957,1.23,2.318,8.8,9,2,1.6,34,2.4467,2,0.1617,2.6269,4.3667,35
6799773,1490467452254,,,,,,,,-0.03,0.07,1.0,-1.5,0.9,-0.3,680,137,,,,,,,,,,,,,,,,,,,
6799793,1490467452274,,,,,,,,-0.03,0.07,1.0,-1.5,1.0,-0.2,680,146,,,,,,,,,,,,,,,,,,,
6799813,1490467452294,,,,,,,,-0.03,0.08,1.0,-1.5,1.2,-0.2,680,146,,,,,,,,,,,,,,,,,,,
6799833,1490467452314,,,,,,,,-0.03,0.07,1.0,-1.4,1.3,-0.2,680,140,,,,,,,,,,,,,,,,,,,
6799855,1490467452336,0,210.1,3.1,205.6,8,217.0,14.23,-0.03,0.07,1.01,-1.3,1.4,-0.3,680,138,0,0,4.962,0,38.158653,-122.452957,1.08,2.318,8.8,9,2,1.6,34,2.4467,2,0.1617,2.6269,4.3683,35
6799874,1490467452355,,,,,,,,-0.04,0.08,1.01,-1.3,1.3,-0.2,680,143,,,,,,,,,,,,,,,,,,,
6799894,1490467452375,,,,,,,,-0.04,0.08,1.01,-1.3,1.0,-0.2,680,152,,,,,,,,,,,,,,,,,,,
6799914,1490467452393,,,,,,,,-0.05,0.07,1.01,-1.2,0.8,-0.2,680,152,,,,,,,,,,,,,,,,,,,
6799934,1490467452413,,,,,,,,-0.05,0.08,1.0,-1.2,0.5,-0.2,700,146,,,,,,,,,,,,,,,,,,,
6799956,1490467452435,,,,,8,,,-0.05,0.08,1.0,-1.2,0.2,-0.1,700,149,0,0,4.857,0,38.158657,-122.452957,1.14,2.318,8.7,9,2,1.6,34,2.4467,2,0.1617,2.6269,4.37,35
6799975,1490467452454,,,,,,,,-0.04,0.07,0.99,-1.1,0.1,-0.2,700,160,,,,,,,,,,,,,,,,,,,
6799995,1490467452474,,,,,,,,-0.04,0.07,1.0,-1.0,0.2,-0.1,700,158,,,,,,,,,,,,,,,,,,,
6800015,1490467452494,,,,,,,,-0.03,0.08,0.99,-1.0,0.3,-0.0,700,152,,,,,,,,,,,,,,,,,,,
6800035,1490467452510,,,,,,,,-0.04,0.07,0.99,-0.9,0.3,0.0,700,154,,,,,,,,,,,,,,,,,,,
6800057,1490467452532,0,209.6,,204.4,9,216.0,,-0.04,0.06,1.0,-0.8,0.4,-0.0,700,166,0,0,4.575,0,38.158657,-122.452957,2.05,2.318,8.7,9,2,1.6,34,2.4467,2,0.1617,2.6269,4.3717,35
6800076,1490467452551,,,,,,,,-0.04,0.07,1.0,-0.8,0.2,0.0,700,169,,,,,,,,,,,,,,,,,,,
6800096,1490467452571,,,,,,,,-0.04,0.07,0.99,-0.7,0.1,0.1,700,162,,,,,,,,,,,,,,,,,,,
6800116,1490467452597,,,,,,,,-0.04,0.07,0.99,-0.6,0.1,0.0,700,157,,,,,,,,,,,,,,,,,,,
6800136,1490467452617,,,,,,,,-0.03,0.06,0.99,-0.5,0.3,0.0,700,168,,,,,,,,,,,,,,,,,,,
6800158,1490467452639,,,,,8,,,-0.04,0.07,0.99,-0.4,0.4,0.0,700,183,0,0,4.217,0,38.158657,-122.452957,1.88,2.318,8.9,9,2,1.6,34,2.4467,2,0.1617,2.6269,4.3733,35
6800177,1490467452658,,,,,,,,-0.04,0.07,0.99,-0.3,0.5,0.1,700,177,,,,,,,,,,,,,,,,,,,
6800197,1490467452678,,,,,,,,-0.05,0.07,0.99,-0.2,0.5,-0.1,700,165,,,,,,,,,,,,,,,,,,,
6800217,1490467452698,,,,,,,,-0.05,0.07,0.99,-0.2,0.4,-0.1,700,177,,,,,,,,,,,,,,,,,,,
6800237,1490467452718,,,,,,,,-0.05,0.07,0.98,-0.1,0.4,-0.1,700,189,,,,,,,,,,,,,,,,,,,
6800259,1490467452740,0,209.0,,204.3,8,216.0,,-0.05,0.06,0.98,-0.0,0.3,-0.2,700,182,0,0,-3.867,-1,38.158657,-122.452957,1.89,2.318,9.1,9,2,1.6,34,2.4467,2,0.1617,2.6269,4.375,35
6800278,1490467452759,,,,,,,,-0.05,0.06,0.98,0.0,0.6,-0.2,700,174,,,,,,,,,,,,,,,,,,,
6800298,1490467452779,,,,,,,,-0.05,0.07,0.99,0.1,0.7,-0.1,700,178,,,,,,,,,,,,,,,,,,,
6800318,1490467452797,,,,,,,,-0.06,0.06,0.99,0.2,0.7,-0.1,680,197,,,,,,,,,,,,,,,,,,,
6800338,1490467452817,,,,,,,,-0.07,0.05,0.99,0.3,0.8,-0.2,680,197,,,,,,,,,,,,,,,,,,,
6800360,1490467452839,,,,,9,,,-0.07,0.06,0.99,0.3,0.7,-0.1,680,188,0,0,-3.867,-1,38.158657,-122.452957,2.11,2.318,8.9,9,2,1.6,34,2.4467,2,0.1617,2.6269,4.3767,35
6800379,1490467452858,,,,,,,,-0.06,0.06,0.98,0.4,0.6,-0.0,680,188,,,,,,,,,,,,,,,,,,,
6800399,1490467452878,,,,,,,,-0.06,0.05,0.98,0.5,0.5,-0.1,680,198,,,,,,,,,,,,,,,,,,,
6800419,1490467452898,,,,,,,,-0.06,0.05,0.98,0.6,0.6,0.0,680,200,,,,,,,,,,,,,,,,,,,
6800439,1490467452918,,,,,,,,-0.05,0.06,0.98,0.7,0.6,0.1,680,197,,,,,,,,,,,,,,,,,,,
6800461,1490467452940,0,208.7,,204.7,8,216.4,,-0.05,0.05,0.98,0.8,0.6,0.1,680,202,0,0,-3.656,-1,38.158661,-122.452957,3.1,2.318,9.0,9,2,1.6,34,2.4467,2,0.1617,2.6269,4.3783,35
6800480,1490467452959,,,,,,,,-0.05,0.05,0.99,0.9,0.9,0.2,680,205,,,,,,,,,,,,,,,,,,,
6800500,1490467452979,,,,,,,,-0.05,0.06,0.99,1.0,1.0,0.3,660,202,,,,,,,,,,,,,,,,,,,
6800520,1490467452999,,,,,,,,-0.06,0.05,1.0,1.1,1.0,0.2,660,205,,,,,,,,,,,,,,,,,,,
6800540,1490467453010,,,,,,,,-0.05,0.05,1.0,1.2,1.1,0.2,660,206,,,,,,,,,,,,,,,,,,,
6800562,1490467453032,,,,,8,,,-0.05,0.06,1.0,1.3,1.0,0.2,660,203,0,0,3.35,1,38.158661,-122.452957,3.0,2.318,9.0,9,2,1.6,34,2.4467,2,0.1617,2.6269,4.38,35
6800581,1490467453051,,,,,,,,-0.06,0.06,0.99,1.5,0.8,0.1,660,206,,,,,,,,,,,,,,,,,,,
6800601,1490467453071,,,,,,,,-0.06,0.05,1.0,1.6,0.8,0.1,660,209,,,,,,,,,,,,,,,,,,,
6800621,1490467453099,,,,,,,,-0.05,0.07,1.0,1.6,0.7,0.1,680,208,,,,,,,,,,,,,,,,,,,
6800641,1490467453119,,,,,,,,-0.06,0.06,1.0,1.8,0.5,0.1,680,212,,,,,,,,,,,,,,,,,,,
6800663,1490467453141,0,208.8,,204.6,8,216.0,,-0.06,0.06,1.0,1.9,0.4,-0.0,680,215,0,0,3.284,1,38.158661,-122.452957,2.23,2.319,9.1,9,2,1.6,34,2.4467,2,0.1617,2.6269,4.3817,35
6800682,1490467453160,,,,,,,,-0.05,0.06,1.0,2.0,0.4,0.0,680,214,,,,,,,,,,,,,,,,,,,
6800702,1490467453180,,,,,,,,-0.05,0.07,0.99,2.1,0.2,0.0,700,218,,,,,,,,,,,,,,,,,,,
6800722,1490467453200,,,,,,,,-0.05,0.06,0.99,2.2,0.1,-0.2,720,222,,,,,,,,,,,,,,,,,,,
6800742,1490467453220,,,,,,,,-0.03,0.06,0.99,2.3,0.2,-0.3,720,226,,,,,,,,,,,,,,,,,,,
6800764,1490467453242,,,,,9,,,-0.03,0.06,0.99,2.4,0.3,-0.2,720,223,0,0,3.163,1,38.158665,-122.452957,3.54,2.319,9.2,9,2,1.6,34,2.4467,2,0.1617,2.6269,4.3833,35
6800783,1490467453261,,,,,,,,-0.03,0.06,0.99,2.5,0.4,-0.2,740,225,,,,,,,,,,,,,,,,,,,
6800803,1490467453281,,,,,,,,-0.04,0.05,0.99,2.6,0.3,-0.3,740,228,,,,,,,,,,,,,,,,,,,
6800823,1490467453297,,,,,,,,-0.03,0.05,1.0,2.7,0.4,-0.3,740,228,,,,,,,,,,,,,,,,,,,
6800843,1490467453317,,,,,,,,-0.04,0.05,0.98,2.8,0.3,-0.2,740,223,,,,,,,,,,,,,,,,,,,
6800865,1490467453339,0,208.9,2.7,205.3,9,216.8,14.22,-0.04,0.05,0.99,2.9,0.3,-0.2,740,226,0,0,3.214,1,38.158665,-122.452957,2.88,2.319,9.4,9,2,1.6,34,2.4467,2,0.1617,2.6269,4.385,35
6800884,1490467453358,,,,,,,,-0.04,0.05,1.0,3.1,0.2,-0.4,740,228,,,,,,,,,,,,,,,,,,,
6800904,1490467453378,,,,,,,,-0.04,0.04,1.0,3.2,0.3,-0.5,740,226,,,,,,,,,,,,,,,,,,,
6800924,1490467453404,,,,,,,,-0.04,0.05,1.0,3.3,0.3,-0.4,740,226,,,,,,,,,,,,,,,,,,,
6800944,1490467453424,,,,,,,,-0.03,0.05,0.99,3.4,0.2,-0.4,740,229,,,,,,,,,,,,,,,,,,,
6800966,1490467453446,,,,,8,,,-0.03,0.05,1.0,3.6,0.2,-0.4,740,231,0,0,3.304,1,38.158665,-122.452957,3.01,2.319,9.7,9,2,1.6,34,2.4467,2,0.1617,2.6269,4.3867,35
6800985,1490467453465,,,,,,,,-0.03,0.04,1.0,3.6,0.3,-0.4,740,231,,,,,,,,,,,,,,,,,,,
6801005,1490467453485,,,,,,,,-0.03,0.04,1.0,3.7,0.1,-0.3,740,231,,,,,,,,,,,,,,,,,,,
6801025,1490467453505,,,,,,,,-0.02,0.06,1.0,3.7,0.1,-0.2,740,232,,,,,,,,,,,,,,,,,,,
6801045,1490467453525,,,,,,,,-0.03,0.06,1.01,3.8,-0.0,-0.2,760,235,,,,,,,,,,,,,,,,,,,
6801067,1490467453547,0,209.3,,205.7,11,216.9,,-0.03,0.04,1.01,3.9,0.1,-0.2,760,240,0,0,3.231,1,38.158665,-122.452957,2.83,2.319,9.9,9,2,1.6,34,2.4467,2,0.1617,2.6269,4.3883,35
6801086,1490467453566,,,,,,,,-0.02,0.05,1.0,3.9,-0.1,-0.1,780,240,,,,,,,,,,,,,,,,,,,
6801106,1490467453586,,,,,,,,-0.02,0.05,1.0,3.9,-0.0,0.1,780,242,,,,,,,,,,,,,,,,,,,
6801126,1490467453606,,,,,,,,-0.02,0.06,1.0,3.9,-0.2,0.1,800,242,,,,,,,,,,,,,,,,,,,
6801146,1490467453626,,,,,,,,-0.02,0.06,1.01,4.0,-0.0,-0.1,800,246,,,,,,,,,,,,,,,,,,,
6801168,1490467453648,,,,,10,,,-0.02,0.04,1.01,4.1,0.1,-0.2,800,248,0,0,3.305,1,38.158665,-122.452957,3.93,2.319,9.9,9,2,1.6,34,2.4467,2,0.1617,2.6269,4.39,35
6801187,1490467453667,,,,,,,,-0.02,0.05,1.0,4.1,0.2,-0.1,800,246,,,,,,,,,,,,,,,,,,,
6801207,1490467453687,,,,,,,,-0.02,0.05,0.99,4.1,0.3,0.0,800,245,,,,,,,,,,,,,,,,,,,
6801227,1490467453705,,,,,,,,-0.02,0.06,1.0,4.2,0.2,0.0,800,245,,,,,,,,,,,,,,,,,,,
6801247,1490467453725,,,,,,,,-0.03,0.06,1.0,4.2,0.2,-0.1,800,243,,,,,,,,,,,,,,,,,,,
6801269,1490467453747,0,208.8,,204.7,9,215.7,,-0.03,0.05,1.01,4.3,0.2,-0.3,800,245,0,0,3.279,1,38.158669,-122.452957,2.56,2.319,10.0,9,2,1.6,34,2.4467,2,0.1617,2.6269,4.3917,35
6801288,1490467453766,,,,,,,,-0.03,0.05,1.0,4.3,0.0,-0.4,800,245,,,,,,,,,,,,,,,,,,,
6801308,1490467453786,,,,,,,,-0.02,0.05,1.0,4.3,0.1,-0.3,800,242,,,,,,,,,,,,,,,,,,,
6801328,1490467453806,,,,,,,,-0.02,0.06,1.01,4.3,0.0,-0.3,800,243,,,,,,,,,,,,,,,,,,,
6801348,1490467453826,,,,,,,,-0.02,0.06,1.01,4.3,0.1,-0.3,800,245,,,,,,,,,,,,,,,,,,,
6801370,1490467453848,,,,,10,,,-0.02,0.06,1.02,4.3,-0.0,-0.5,800,246,0,0,3.292,1,38.158669,-122.452957,3.51,2.319,10.1,9,2,1.6,34,2.4467,2,0.1617,2.6269,4.3933,35
6801389,1490467453867,,,,,,,,-0.02,0.05,1.02,4.3,0.0,-0.6,820,254,,,,,,,,,,,,,,,,,,,
6801409,1490467453887,,,,,,,,-0.01,0.05,1.0,4.3,-0.1,-0.5,820,254,,,,,,,,,,,,,,,,,,,
6801429,1490467453907,,,,,,,,-0.01,0.07,0.99,4.2,-0.0,-0.4,820,252,,,,,,,,,,,,,,,,,,,
6801449,1490467453927,,,,,,,,-0.01,0.07,1.0,4.2,-0.2,-0.3,820,252,,,,,,,,,,,,,,,,,,,
6801471,1490467453949,0,208.8,,204.8,10,215.8,,-0.01,0.07,1.0,4.1,-0.2,-0.4,820,255,0,0,3.252,1,38.158672,-122.452957,3.49,2.319,10.1,9,2,1.6,34,2.4467,2,0.1617,2.6269,4.395,35
6801490,1490467453968,,,,,,,,-0.01,0.07,1.0,4.1,-0.3,-0.4,840,258,,,,,,,,,,,,,,,,,,,
6801510,1490467453988,,,,,,,,-0.01,0.06,1.0,4.0,-0.2,-0.4,840,258,,,,,,,,,,,,,,,,,,,
6801530,1490467453999,,,,,,,,-0.01,0.06,0.99,3.9,-0.1,-0.3,840,260,,,,,,,,,,,,,,,,,,,
6801550,1490467454019,,,,,,,,-0.01,0.07,0.99,3.8,-0.0,-0.2,840,260,,,,,,,,,,,,,,,,,,,
6801572,1490467454041,,,,,11,,,-0.01,0.08,0.99,3.7,0.1,-0.1,840,258,0,0,3.203,1,38.158672,-122.452957,4.14,2.319,10.2,9,2,1.6,34,2.4467,2,0.1617,2.6269,4.3967,35
6801591,1490467454060,,,,,,,,-0.01,0.09,1.0,3.6,0.0,0.0,840,257,,,,,,,,,,,,,,,,,,,
6801611,1490467454080,,,,,,,,-0.01,0.09,1.0,3.5,-0.1,0.0,840,258,,,,,,,,,,,,,,,,,,,
6801631,1490467454108,,,,,,,,-0.01,0.08,1.0,3.4,-0.1,-0.0,840,258,,,,,,,,,,,,,,,,,,,
6801651,1490467454128,,,,,,,,-0.01,0.07,1.0,3.3,-0.0,-0.1,840,258,,,,,,,,,,,,,,,,,,,
6801673,1490467454150,0,208.8,,204.7,11,215.6,,-0.01,0.07,0.99,3.1,0.0,-0.0,840,260,0,0,3.231,1,38.158672,-122.452957,2.64,2.319,10.2,9,2,1.6,34,2.4467,2,0.1617,2.6269,4.3983,35
6801692,1490467454169,,,,,,,,-0.0,0.08,0.99,3.0,0.2,0.0,840,258,,,,,,,,,,,,,,,,,,,
6801712,1490467454191,,,,,,,,-0.0,0.08,0.99,2.8,0.1,0.1,840,258,,,,,,,,,,,,,,,,,,,
6801732,1490467454211,,,,,,,,-0.0,0.09,0.99,2.7,0.0,-0.1,840,258,,,,,,,,,,,,,,,,,,,
6801752,1490467454231,,,,,,,,-0.01,0.1,0.99,2.6,-0.2,-0.3,840,260,,,,,,,,,,,,,,,,,,,
6801774,1490467454253,,,,,11,,,-0.01,0.09,0.99,2.5,-0.4,-0.6,860,262,0,0,3.256,1,38.158676,-122.452957,2.43,2.319,10.2,9,2,1.6,34,2.4467,2,0.1617,2.6269,4.4,35
6801793,1490467454272,,,,,,,,-0.0,0.09,0.98,2.3,-0.3,-0.7,860,265,,,,,,,,,,,,,,,,,,,
6801813,1490467454292,,,,,,,,-0.0,0.08,0.98,2.2,-0.3,-0.7,860,268,,,,,,,,,,,,,,,,,,,
6801833,1490467454312,,,,,,,,0.0,0.08,0.98,2.0,-0.3,-0.5,860,266,,,,,,,,,,,,,,,,,,,
6801853,1490467454332,,,,,,,,0.01,0.09,0.99,1.8,-0.2,-0.4,860,266,,,,,,,,,,,,,,,,,,,
6801875,1490467454354,0,208.3,2.0,204.8,11,215.8,14.22,0.01,0.09,0.99,1.6,-0.2,-0.4,880,268,0,0,3.27,1,38.158676,-122.452957,2.67,2.32,10.2,9,2,1.6,34,2.4467,2,0.1617,2.6269,4.4017,35
6801894,1490467454373,,,,,,,,0.01,0.09,1.0,1.4,-0.2,-0.3,860,268,,,,,,,,,,,,,,,,,,,
6801914,1490467454395,,,,,,,,0.0,0.09,1.0,1.3,-0.2,-0.2,880,266,,,,,,,,,,,,,,,,,,,
6801934,1490467454415,,,,,,,,-0.0,0.09,1.0,1.2,-0.2,-0.1,880,268,,,,,,,,,,,,,,,,,,,
6801954,1490467454435,,,,,,,,-0.0,0.08,1.0,1.1,-0.2,-0.0,880,269,,,,,,,,,,,,,,,,,,,
6801976,1490467454457,,,,,12,,,-0.0,0.08,1.0,1.0,0.0,-0.0,880,269,0,0,3.197,1,38.15868,-122.452957,3.17,2.32,10.1,9,2,1.6,34,2.4467,2,0.1617,2.6269,4.4033,35
6801995,1490467454476,,,,,,,,0.0,0.07,0.99,0.9,0.1,-0.1,880,269,,,,,,,,,,,,,,,,,,,
6802015,1490467454494,,,,,,,,0.0,0.08,0.99,0.8,0.2,-0.1,880,271,,,,,,,,,,,,,,,,,,,
6802035,1490467454514,,,,,,,,0.01,0.09,0.99,0.7,0.3,0.0,860,269,,,,,,,,,,,,,,,,,,,
6802055,1490467454534,,,,,,,,0.01,0.09,1.0,0.6,0.4,0.1,880,268,,,,,,,,,,,,,,,,,,,
6802077,1490467454556,0,209.0,,205.8,11,216.4,,0.01,0.09,1.0,0.5,0.5,0.2,880,268,0,0,3.271,1,38.15868,-122.452957,3.87,2.32,10.1,9,2,1.6,34,2.4467,2,0.1617,2.6269,4.405,35
6802096,1490467454575,,,,,,,,0.01,0.09,1.0,0.4,0.4,0.2,880,268,,,,,,,,,,,,,,,,,,,
6802116,1490467454595,,,,,,,,0.01,0.09,1.0,0.3,0.3,0.1,880,269,,,,,,,,,,,,,,,,,,,
6802136,1490467454615,,,,,,,,0.01,0.09,1.0,0.2,0.4,-0.0,880,269,,,,,,,,,,,,,,,,,,,
6802156,1490467454635,,,,,,,,0.01,0.08,0.99,0.1,0.5,-0.1,880,269,,,,,,,,,,,,,,,,,,,
6802178,1490467454657,,,,,12,,,0.01,0.08,0.98,0.0,0.6,-0.1,880,271,0,0,3.259,1,38.158684,-122.452957,4.37,2.32,10.1,9,2,1.6,34,2.4467,2,0.1617,2.6269,4.4067,35
6802197,1490467454676,,,,,,,,0.01,0.08,0.98,-0.1,0.6,-0.0,880,271,,,,,,,,,,,,,,,,,,,
6802217,1490467454698,,,,,,,,0.01,0.08,0.98,-0.2,0.7,0.1,880,271,,,,,,,,,,,,,,,,,,,
6802237,1490467454718,,,,,,,,0.02,0.08,0.99,-0.3,0.7,0.2,880,272,,,,,,,,,,,,,,,,,,,
6802257,1490467454738,,,,,,,,0.02,0.08,0.99,-0.3,0.7,0.3,880,271,,,,,,,,,,,,,,,,,,,
6802279,1490467454760,0,209.5,,206.1,12,216.7,,0.02,0.08,1.0,-0.4,0.7,0.3,880,269,0,0,3.271,1,38.158684,-122.452957,4.19,2.32,10.0,9,2,1.6,34,2.4467,2,0.1617,2.6269,4.4083,35
6802298,1490467454779,,,,,,,,0.01,0.08,0.99,-0.4,0.5,0.2,880,272,,,,,,,,,,,,,,,,,,,
6802318,1490467454799,,,,,,,,0.01,0.08,0.99,-0.4,0.4,0.1,880,274,,,,,,,,,,,,,,,,,,,
6802338,1490467454819,,,,,,,,0.01,0.08,0.99,-0.4,0.4,0.1,900,274,,,,,,,,,,,,,,,,,,,
6802358,1490467454839,,,,,,,,0.0,0.07,0.98,-0.4,0.5,0.1,900,275,,,,,,,,,,,,,,,,,,,
6802380,1490467454861,,,,,12,,,0.01,0.06,0.98,-0.4,0.5,0.2,900,275,0,0,3.235,1,38.158684,-122.452957,3.73,2.32,10.1,9,2,1.6,34,2.4467,2,0.1617,2.6269,4.41,35
6802399,1490467454880,,,,,,,,0.01,0.06,0.98,-0.5,0.6,0.3,900,274,,,,,,,,,,,,,,,,,,,
6802419,1490467454898,,,,,,,,0.01,0.07,0.98,-0.6,0.6,0.3,900,274,,,,,,,,,,,,,,,,,,,
6802439,1490467454918,,,,,,,,0.01,0.07,0.98,-0.6,0.7,0.4,880,274,,,,,,,,,,,,,,,,,,,
6802459,1490467454938,,,,,,,,0.02,0.08,0.99,-0.7,0.7,0.4,880,272,,,,,,,,,,,,,,,,,,,
6802481,1490467454960,0,208.8,,205.8,12,216.2,,0.02,0.08,1.0,-0.7,0.8,0.3,880,272,0,0,3.297,1,38.158684,-122.452957,4.28,2.32,10.0,9,2,1.6,34,2.4467,2,0.1617,2.6269,4.4117,35
6802500,1490467454979,,,,,,,,0.02,0.08,1.01,-0.7,0.7,0.3,900,274,,,,,,,,,,,,,,,,,,,
6802520,1490467454999,,,,,,,,0.02,0.08,1.01,-0.7,0.7,0.2,880,272,,,,,,,,,,,,,,,,,,,
6802540,1490467455010,,,,,,,,0.01,0.09,1.01,-0.7,0.8,0.1,900,274,,,,,,,,,,,,,,,,,,,
6802560,1490467455030,,,,,,,,0.01,0.09,1.01,-0.7,0.8,-0.1,900,275,,,,,,,,,,,,,,,,,,,
6802582,1490467455052,,,,,11,,,0.01,0.08,1.01,-0.6,0.8,-0.2,900,275,0,0,3.309,1,38.158688,-122.452957,4.59,2.32,10.0,9,2,1.6,34,2.4467,2,0.1617,2.6269,4.4133,35
6802601,1490467455071,,,,,,,,0.01,0.07,1.0,-0.6,0.8,-0.2,900,277,,,,,,,,,,,,,,,,,,,
6802621,1490467455101,,,,,,,,0.01,0.07,1.0,-0.6,0.8,-0.3,900,280,,,,,,,,,,,,,,,,,,,
6802641,1490467455121,,,,,,,,0.02,0.07,1.0,-0.6,0.7,-0.3,900,278,,,,,,,,,,,,,,,,,,,
6802661,1490467455141,,,,,,,,0.02,0.07,1.0,-0.7,0.6,-0.2,900,278,,,,,,,,,,,,,,,,,,,
6802683,1490467455163,0,208.9,,206.1,12,216.2,,0.02,0.07,1.0,-0.7,0.6,-0.1,900,275,0,1,3.261,1,38.158688,-122.452957,4.64,2.32,10.0,9,2,1.6,34,2.4467,2,0.1617,2.6269,4.415,35
6802702,1490467455182,,,,,,,,0.01,0.08,0.99,-0.8,0.5,-0.1,900,275,,,,,,,,,,,,,,,,,,,
6802722,1490467455202,,,,,,,,0.01,0.08,0.98,-0.8,0.4,-0.1,900,275,,,,,,,,,,,,,,,,,,,
6802742,1490467455222,,,,,,,,0.01,0.08,0.98,-0.8,0.3,-0.1,900,275,,,,,,,,,,,,,,,,,,,
6802762,1490467455242,,,,,,,,0.01,0.08,0.97,-0.9,0.2,-0.2,900,275,,,,,,,,,,,,,,,,,,,
6802784,1490467455264,,,,,12,,,0.0,0.08,0.97,-0.9,-0.0,-0.3,900,274,0,0,3.273,1,38.158691,-122.452957,4.85,2.321,10.1,9,2,1.6,34,2.4467,2,0.1617,2.6269,4.4167,35
6802803,1490467455283,,,,,,,,-0.0,0.08,0.97,-0.9,-0.2,-0.4,900,274,,,,,,,,,,,,,,,,,,,
6802823,1490467455303,,,,,,,,-0.01,0.08,0.97,-0.9,-0.3,-0.4,900,274,,,,,,,,,,,,,,,,,,,
6802843,1490467455323,,,,,,,,-0.0,0.08,0.97,-0.8,-0.4,-0.5,900,277,,,,,,,,,,,,,,,,,,,
6802863,1490467455343,,,,,,,,0.0,0.08,0.98,-0.9,-0.4,-0.4,900,277,,,,,,,,,,,,,,,,,,,
6802885,1490467455365,0,209.2,1.7,206.2,13,216.4,14.17,0.01,0.07,0.98,-0.9,-0.5,-0.3,900,278,0,0,3.273,1,38.158695,-122.452957,4.32,2.321,10.3,9,2,1.6,34,2.4467,2,0.1617,2.6269,4.4183,35
6802904,1490467455384,,,,,,,,0.01,0.07,0.99,-0.9,-0.6,-0.3,900,282,,,,,,,,,,,,,,,,,,,
6802924,1490467455404,,,,,,,,0.01,0.07,1.0,-0.9,-0.7,-0.2,900,280,,,,,,,,,,,,,,,,,,,
6802944,1490467455424,,,,,,,,0.01,0.09,1.0,-0.9,-0.6,-0.3,900,283,,,,,,,,,,,,,,,,,,,
6802964,1490467455444,,,,,,,,0.01,0.1,1.0,-0.9,-0.4,-0.5,920,282,,,,,,,,,,,,,,,,,,,
6802986,1490467455466,,,,,12,,,0.01,0.1,1.0,-0.9,-0.4,-0.6,920,282,0,0,3.237,1,38.158695,-122.452957,4.88,2.321,10.3,9,2,1.6,34,2.4467,2,0.1617,2.6269,4.42,35
6803005,1490467455485,,,,,,,,0.0,0.11,1.0,-1.0,-0.3,-0.6,920,283,,,,,,,,,,,,,,,,,,,
6803025,1490467455505,,,,,,,,0.0,0.11,1.0,-1.1,-0.3,-0.5,920,283,,,,,,,,,,,,,,,,,,,
6803045,1490467455525,,,,,,,,0.0,0.11,1.0,-1.2,-0.3,-0.4,920,283,,,,,,,,,,,,,,,,,,,
6803065,1490467455545,,,,,,,,0.0,0.11,1.0,-1.4,-0.4,-0.4,920,280,,,,,,,,,,,,,,,,,,,
6803087,1490467455567,0,208.1,,204.8,11,214.9,,-0.0,0.1,0.99,-1.5,-0.4,-0.5,920,282,0,0,3.274,1,38.158699,-122.452957,5.11,2.321,10.3,9,2,1.6,34,2.4467,2,0.1617,2.6269,4.4217,35
6803106,1490467455586,,,,,,,,-0.01,0.1,0.99,-1.7,-0.5,-0.4,920,282,,,,,,,,,,,,,,,,,,,
6803126,1490467455606,,,,,,,,-0.01,0.09,0.99,-1.9,-0.4,-0.2,920,282,,,,,,,,,,,,,,,,,,,
6803146,1490467455626,,,,,,,,-0.0,0.08,0.99,-2.0,-0.3,0.1,920,283,,,,,,,,,,,,,,,,,,,
6803166,1490467455646,,,,,,,,0.0,0.09,0.98,-2.2,-0.4,0.3,920,282,,,,,,,,,,,,,,,,,,,
6803188,1490467455668,,,,,12,,,0.01,0.08,0.99,-2.3,-0.4,0.3,920,283,0,1,3.251,1,38.158703,-122.452957,4.85,2.321,10.4,9,2,1.6,34,2.4467,2,0.1617,2.6269,4.4233,35
6803207,1490467455687,,,,,,,,0.02,0.09,0.99,-2.5,-0.4,0.2,920,285,,,,,,,,,,,,,,,,,,,
6803227,1490467455705,,,,,,,,0.02,0.1,1.0,-2.6,-0.5,0.3,920,285,,,,,,,,,,,,,,,,,,,
6803247,1490467455725,,,,,,,,0.02,0.11,1.01,-2.8,-0.5,0.4,920,283,,,,,,,,,,,,,,,,,,,
6803267,1490467455745,,,,,,,,0.02,0.12,1.01,-2.9,-0.6,0.5,920,283,,,,,,,,,,,,,,,,,,,
6803289,1490467455767,0,208.9,,206.2,12,216.0,,0.02,0.12,1.01,-3.1,-0.6,0.6,920,283,0,0,3.274,1,38.158703,-122.452957,4.63,2.321,10.6,9,2,1.6,34,2.4467,2,0.1617,2.6269,4.425,35
6803308,1490467455786,,,,,,,,0.02,0.12,1.01,-3.3,-0.6,0.5,920,282,,,,,,,,,,,,,,,,,,,
6803328,1490467455808,,,,,,,,0.02,0.13,1.01,-3.6,-0.6,0.4,920,283,,,,,,,,,,,,,,,,,,,
6803348,1490467455828,,,,,,,,0.03,0.12,1.01,-3.8,-0.6,0.4,920,282,,,,,,,,,,,,,,,,,,,
6803368,1490467455848,,,,,,,,0.02,0.13,1.01,-4.1,-0.6,0.4,920,282,,,,,,,,,,,,,,,,,,,
6803390,1490467455870,,,,,11,,,0.02,0.13,1.0,-4.4,-0.6,0.5,920,282,0,0,3.251,1,38.158703,-122.452957,4.83,2.321,10.6,9,2,1.6,34,2.4467,2,0.1617,2.6269,4.4267,35
6803409,1490467455889,,,,,,,,0.02,0.13,1.0,-4.7,-0.5,0.7,920,283,,,,,,,,,,,,,,,,,,,
6803429,1490467455908,,,,,,,,0.02,0.13,1.0,-5.0,-0.4,0.8,920,282,,,,,,,,,,,,,,,,,,,
6803449,1490467455928,,,,,,,,0.02,0.13,1.0,-5.2,-0.4,0.8,920,280,,,,,,,,,,,,,,,,,,,
6803469,1490467455948,,,,,,,,0.02,0.13,0.99,-5.4,-0.3,0.8,920,285,,,,,,,,,,,,,,,,,,,
6803491,1490467455970,0,209.3,,205.2,13,214.5,,0.03,0.13,0.99,-5.7,-0.1,0.8,920,285,0,1,3.251,1,38.158707,-122.452957,4.74,2.321,10.7,9,2,1.6,34,2.4467,2,0.1617,2.6269,4.4283,35
6803510,1490467455989,,,,,,,,0.03,0.13,0.99,-6.0,-0.0,0.8,920,283,,,,,,,,,,,,,,,,,,,
6803530,1490467455999,,,,,,,,0.03,0.14,1.0,-6.3,0.0,0.8,920,285,,,,,,,,,,,,,,,,,,,
6803550,1490467456019,,,,,,,,0.04,0.14,1.0,-6.6,-0.1,0.9,920,285,,,,,,,,,,,,,,,,,,,
6803570,1490467456039,,,,,,,,0.04,0.15,1.0,-7.0,-0.2,0.9,920,285,,,,,,,,,,,,,,,,,,,
6803592,1490467456061,,,,,12,,,0.04,0.15,1.01,-7.4,-0.2,0.9,920,286,0,1,3.251,1,38.158707,-122.452957,5.07,2.322,10.8,9,2,1.6,34,2.4467,2,0.1617,2.6269,4.43,35
6803611,1490467456080,,,,,,,,0.04,0.16,1.02,-7.7,-0.3,0.9,920,285,,,,,,,,,,,,,,,,,,,
6803631,1490467456110,,,,,,,,0.04,0.16,1.02,-8.1,-0.4,0.8,940,283,,,,,,,,,,,,,,,,,,,
6803651,1490467456130,,,,,,,,0.03,0.18,1.03,-8.5,-0.3,0.7,920,285,,,,,,,,,,,,,,,,,,,
6803671,1490467456150,,,,,,,,0.03,0.18,1.03,-8.9,-0.3,0.5,920,283,,,,,,,,,,,,,,,,,,,
6803693,1490467456172,0,208.4,,204.8,12,214.2,,0.04,0.18,1.03,-9.2,-0.3,0.3,920,282,0,1,3.239,1,38.15871,-122.452957,5.37,2.322,10.9,9,2,1.6,34,2.4467,2,0.1617,2.6269,4.4317,35
6803712,1490467456191,,,,,,,,0.04,0.18,1.03,-9.5,-0.3,0.2,920,278,,,,,,,,,,,,,,,,,,,
6803732,1490467456211,,,,,,,,0.04,0.18,1.02,-9.9,-0.4,0.2,900,278,,,,,,,,,,,,,,,,,,,
6803752,1490467456231,,,,,,,,0.03,0.18,1.01,-10.3,-0.5,0.1,920,280,,,,,,,,,,,,,,,,,,,
6803772,1490467456251,,,,,,,,0.03,0.18,1.01,-10.6,-0.4,0.1,920,278,,,,,,,,,,,,,,,,,,,
6803794,1490467456273,,,,,12,,,0.02,0.18,0.99,-11.0,-0.3,0.1,900,280,0,1,3.274,1,38.158714,-122.452957,5.12,2.322,11.0,9,2,1.6,34,2.4467,2,0.1617,2.6269,4.4333,35
6803813,1490467456292,,,,,,,,0.03,0.17,0.99,-11.3,-0.2,0.1,900,278,,,,,,,,,,,,,,,,,,,
6803833,1490467456312,,,,,,,,0.03,0.16,0.98,-11.6,-0.1,0.1,900,280,,,,,,,,,,,,,,,,,,,
6803853,1490467456332,,,,,,,,0.03,0.16,0.98,-12.0,-0.2,0.1,900,278,,,,,,,,,,,,,,,,,,,
6803873,1490467456352,,,,,,,,0.03,0.16,0.98,-12.3,-0.2,0.3,900,280,,,,,,,,,,,,,,,,,,,
6803895,1490467456374,0,208.0,0.8,204.6,13,214.1,14.17,0.03,0.16,0.99,-12.6,-0.1,0.3,900,278,0,1,3.237,1,38.158714,-122.452957,5.22,2.322,11.0,9,2,1.6,34,2.4467,2,0.1617,2.6269,4.435,35
6803914,1490467456395,,,,,,,,0.03,0.16,1.0,-12.8,-0.0,0.5,920,282,,,,,,,,,,,,,,,,,,,
6803934,1490467456415,,,,,,,,0.03,0.17,1.0,-13.0,0.1,0.4,920,282,,,,,,,,,,,,,,,,,,,
6803954,1490467456435,,,,,,,,0.03,0.17,1.0,-13.2,0.3,0.4,920,280,,,,,,,,,,,,,,,,,,,
6803974,1490467456455,,,,,,,,0.04,0.17,1.0,-13.3,0.5,0.3,900,280,,,,,,,,,,,,,,,,,,,
6803996,1490467456477,,,,,13,,,0.04,0.18,1.0,-13.5,0.7,0.3,920,280,0,1,3.286,1,38.158718,-122.452957,5.17,2.322,11.0,9,2,1.6,34,2.4467,2,0.1617,2.6269,4.4367,35
6804015,1490467456494,,,,,,,,0.04,0.18,0.99,-13.6,0.8,0.4,920,280,,,,,,,,,,,,,,,,,,,
6804035,1490467456514,,,,,,,,0.04,0.18,0.99,-13.8,0.9,0.4,920,280,,,,,,,,,,,,,,,,,,,
6804055,1490467456534,,,,,,,,0.04,0.18,0.99,-14.1,0.9,0.4,920,282,,,,,,,,,,,,,,,,,,,
6804075,1490467456554,,,,,,,,0.04,0.18,0.99,-14.4,1.0,0.3,920,283,,,,,,,,,,,,,,,,,,,
6804097,1490467456576,0,208.2,,204.8,12,213.8,,0.04,0.17,0.99,-14.6,1.1,0.2,920,283,0,0,3.274,1,38.158722,-122.452965,4.93,2.322,11.2,9,2,1.6,34,2.4467,2,0.1617,2.6269,4.4383,35
6804116,1490467456597,,,,,,,,0.04,0.17,0.99,-14.9,1.2,0.1,920,283,,,,,,,,,,,,,,,,,,,
6804136,1490467456617,,,,,,,,0.05,0.17,0.99,-15.2,1.2,0.1,920,282,,,,,,,,,,,,,,,,,,,
6804156,1490467456637,,,,,,,,0.05,0.17,0.99,-15.5,1.2,0.2,920,283,,,,,,,,,,,,,,,,,,,
6804176,1490467456657,,,,,,,,0.05,0.17,1.0,-15.8,1.1,0.4,920,285,,,,,,,,,,,,,,,,,,,
6804198,1490467456679,,,,,12,,,0.05,0.17,1.0,-16.0,1.1,0.5,920,282,0,1,3.274,1,38.158722,-122.452965,5.07,2.322,11.2,9,2,1.6,34,2.4467,2,0.1617,2.6269,4.44,35
6804217,1490467456698,,,,,,,,0.05,0.18,1.0,-16.3,1.1,0.6,920,278,,,,,,,,,,,,,,,,,,,
6804237,1490467456718,,,,,,,,0.05,0.18,1.01,-16.6,1.2,0.7,900,278,,,,,,,,,,,,,,,,,,,
6804257,1490467456738,,,,,,,,0.05,0.19,1.01,-16.8,1.3,0.6,900,278,,,,,,,,,,,,,,,,,,,
6804277,1490467456758,,,,,,,,0.05,0.19,1.0,-17.1,1.4,0.5,920,278,,,,,,,,,,,,,,,,,,,
6804299,1490467456780,0,207.7,,205.4,13,214.6,,0.05,0.19,1.0,-17.3,1.4,0.5,920,277,0,1,3.274,1,38.158722,-122.452965,5.24,2.323,11.3,9,2,1.6,34,2.4467,2,0.1617,2.6269,4.4417,35
6804318,1490467456797,,,,,,,,0.05,0.2,1.0,-17.6,1.3,0.5,900,277,,,,,,,,,,,,,,,,,,,
6804338,1490467456817,,,,,,,,0.05,0.21,0.99,-17.9,1.1,0.5,900,275,,,,,,,,,,,,,,,,,,,
6804358,1490467456837,,,,,,,,0.05,0.2,0.99,-18.2,1.0,0.5,900,275,,,,,,,,,,,,,,,,,,,
6804378,1490467456857,,,,,,,,0.04,0.2,0.99,-18.4,0.9,0.4,900,275,,,,,,,,,,,,,,,,,,,
6804400,1490467456879,,,,,13,,,0.05,0.2,0.99,-18.7,0.8,0.4,900,275,0,1,3.309,1,38.158726,-122.452965,4.81,2.323,11.3,9,2,1.6,34,2.4467,2,0.1617,2.6269,4.4433,35
6804419,1490467456898,,,,,,,,0.05,0.19,0.99,-19.0,0.8,0.3,900,274,,,,,,,,,,,,,,,,,,,
6804439,1490467456918,,,,,,,,0.05,0.19,0.99,-19.3,0.8,0.4,900,277,,,,,,,,,,,,,,,,,,,
6804459,1490467456938,,,,,,,,0.05,0.19,0.99,-19.7,0.7,0.5,900,275,,,,,,,,,,,,,,,,,,,
6804479,1490467456958,,,,,,,,0.05,0.19,1.0,-20.0,0.6,0.6,900,275,,,,,,,,,,,,,,,,,,,
6804501,1490467456980,0,207.9,,204.7,13,213.4,,0.05,0.19,1.01,-20.2,0.6,0.7,880,274,0,1,3.297,1,38.158726,-122.452965,4.99,2.323,11.4,9,2,1.6,34,2.4467,2,0.1617,2.6269,4.445,35
6804520,1490467456999,,,,,,,,0.05,0.2,1.01,-20.5,0.6,0.8,900,274,,,,,,,,,,,,,,,,,,,
6804540,1490467457010,,,,,,,,0.05,0.2,1.01,-20.8,0.5,0.9,900,272,,,,,,,,,,,,,,,,,,,
6804560,1490467457030,,,,,,,,0.05,0.21,1.01,-21.1,0.4,0.9,900,272,,,,,,,,,,,,,,,,,,,
6804580,1490467457050,,,,,,,,0.04,0.21,1.01,-21.4,0.4,0.9,880,272,,,,,,,,,,,,,,,,,,,
6804602,1490467457072,,,,,12,,,0.04,0.22,1.01,-21.7,0.5,0.8,880,272,0,1,3.2,1,38.15873,-122.452965,4.91,2.323,11.5,9,2,1.6,34,2.4467,2,0.1617,2.6269,4.4467,35
6804621,1490467457101,,,,,,,,0.04,0.22,1.0,-22.0,0.5,0.8,880,271,,,,,,,,,,,,,,,,,,,
6804641,1490467457121,,,,,,,,0.04,0.21,0.99,-22.3,0.4,0.7,880,271,,,,,,,,,,,,,,,,,,,
6804661,1490467457141,,,,,,,,0.05,0.22,0.99,-22.7,0.3,0.8,880,271,,,,,,,,,,,,,,,,,,,
6804681,1490467457161,,,,,,,,0.06,0.23,0.99,-23.1,0.3,0.9,880,269,,,,,,,,,,,,,,,,,,,
6804703,1490467457183,0,208.6,,205.8,13,214.6,,0.05,0.22,0.99,-23.5,0.2,1.0,880,269,0,1,3.259,1,38.158733,-122.452965,4.8,2.323,11.6,9,2,1.6,34,2.4467,2,0.1617,2.6269,4.4483,35
6804722,1490467457200,,,,,,,,0.06,0.23,1.0,-23.9,0.1,1.1,880,268,,,,,,,,,,,,,,,,,,,
6804742,1490467457220,,,,,,,,0.06,0.24,1.0,-24.2,0.1,1.1,880,265,,,,,,,,,,,,,,,,,,,
6804762,1490467457240,,,,,,,,0.06,0.24,1.01,-24.6,-0.1,1.0,860,265,,,,,,,,,,,,,,,,,,,
6804782,1490467457260,,,,,,,,0.05,0.25,1.0,-24.9,-0.1,0.9,860,263,,,,,,,,,,,,,,,,,,,
6804804,1490467457282,,,,,12,,,0.05,0.24,1.0,-25.3,-0.2,0.8,860,265,0,1,3.271,1,38.158733,-122.452965,4.19,2.323,11.6,9,2,1.6,34,2.4467,2,0.1617,2.6269,4.45,35
6804823,1490467457299,,,,,,,,0.05,0.24,1.0,-25.6,-0.2,0.7,860,263,,,,,,,,,,,,,,,,,,,
6804843,1490467457319,,,,,,,,0.06,0.23,0.99,-26.0,-0.3,0.7,860,263,,,,,,,,,,,,,,,,,,,
6804863,1490467457339,,,,,,,,0.06,0.24,0.99,-26.4,-0.3,0.7,860,260,,,,,,,,,,,,,,,,,,,
6804883,1490467457359,,,,,,,,0.07,0.24,0.99,-26.8,-0.3,0.6,860,260,,,,,,,,,,,,,,,,,,,
6804905,1490467457381,0,207.4,0.3,204.5,10,213.2,14.25,0.07,0.24,0.99,-27.1,-0.3,0.5,840,258,0,1,3.295,1,38.158737,-122.452965,5.07,2.323,11.8,9,2,1.6,34,2.4467,2,0.1617,2.6269,4.4517,35
6804924,1490467457404,,,,,,,,0.08,0.23,1.0,-27.5,-0.5,0.4,840,258,,,,,,,,,,,,,,,,,,,
6804944,1490467457424,,,,,,,,0.08,0.23,1.0,-27.8,-0.5,0.2,840,260,,,,,,,,,,,,,,,,,,,
6804964,1490467457444,,,,,,,,0.08,0.23,1.0,-28.2,-0.5,-0.0,860,258,,,,,,,,,,,,,,,,,,,
6804984,1490467457464,,,,,,,,0.08,0.23,1.0,-28.5,-0.4,-0.2,860,260,,,,,,,,,,,,,,,,,,,
6805006,1490467457486,,,,,11,,,0.07,0.24,1.0,-28.8,-0.4,-0.3,840,258,0,1,3.256,1,38.158737,-122.452965,5.42,2.324,11.9,9,2,1.6,34,2.4467,2,0.1617,2.6269,4.4533,35
6805025,1490467457505,,,,,,,,0.08,0.24,1.0,-29.1,-0.4,-0.4,840,255,,,,,,,,,,,,,,,,,,,
6805045,1490467457525,,,,,,,,0.07,0.25,1.0,-29.3,-0.5,-0.5,820,255,,,,,,,,,,,,,,,,,,,
6805065,1490467457545,,,,,,,,0.07,0.24,1.0,-29.5,-0.5,-0.5,820,255,,,,,,,,,,,,,,,,,,,
6805085,1490467457565,,,,,,,,0.06,0.23,1.0,-29.6,-0.4,-0.6,840,255,,,,,,,,,,,,,,,,,,,
6805107,1490467457587,0,207.7,,204.6,11,212.8,,0.07,0.22,1.0,-29.7,-0.3,-0.7,840,257,0,1,3.231,1,38.158741,-122.45298,5.24,2.324,11.9,9,2,1.6,34,2.4467,2,0.1617,2.6269,4.455,35
6805126,1490467457606,,,,,,,,0.07,0.22,0.99,-29.9,-0.3,-0.6,840,258,,,,,,,,,,,,,,,,,,,
6805146,1490467457626,,,,,,,,0.07,0.21,1.0,-30.0,-0.2,-0.5,840,254,,,,,,,,,,,,,,,,,,,
6805166,1490467457646,,,,,,,,0.08,0.22,1.0,-30.1,-0.2,-0.4,820,252,,,,,,,,,,,,,,,,,,,
6805186,1490467457666,,,,,,,,0.07,0.21,1.01,-30.2,-0.2,-0.3,800,251,,,,,,,,,,,,,,,,,,,
6805208,1490467457688,,,,,11,,,0.07,0.21,1.01,-30.2,-0.4,-0.4,840,252,0,1,3.32,1,38.158741,-122.45298,4.67,2.324,12.3,9,2,1.6,34,2.4467,2,0.1617,2.6269,4.4567,35
6805227,1490467457707,,,,,,,,0.07,0.2,1.01,-30.3,-0.4,-0.4,820,255,,,,,,,,,,,,,,,,,,,
6805247,1490467457727,,,,,,,,0.07,0.21,1.0,-30.3,-0.4,-0.4,840,254,,,,,,,,,,,,,,,,,,,
6805267,1490467457747,,,,,,,,0.07,0.2,1.0,-30.4,-0.4,-0.4,840,255,,,,,,,,,,,,,,,,,,,
6805287,1490467457767,,,,,,,,0.08,0.21,1.0,-30.5,-0.4,-0.3,820,254,,,,,,,,,,,,,,,,,,,
6805309,1490467457789,0,208.4,,204.9,11,213.0,,0.08,0.22,1.0,-30.6,-0.4,-0.3,820,254,0,1,3.333,1,38.158741,-122.45298,4.82,2.324,12.4,9,2,1.6,34,2.4467,2,0.1617,2.6269,4.4583,35
6805328,1490467457808,,,,,,,,0.08,0.22,1.01,-30.6,-0.5,-0.3,820,254,,,,,,,,,,,,,,,,,,,
6805348,1490467457828,,,,,,,,0.07,0.21,1.01,-30.5,-0.7,-0.4,840,255,,,,,,,,,,,,,,,,,,,
6805368,1490467457848,,,,,,,,0.07,0.2,1.01,-30.5,-0.6,-0.4,820,255,,,,,,,,,,,,,,,,,,,
6805388,1490467457868,,,,,,,,0.07,0.2,1.01,-30.5,-0.6,-0.4,820,255,,,,,,,,,,,,,,,,,,,
6805410,1490467457890,,,,,13,,,0.07,0.2,1.01,-30.6,-0.5,-0.3,840,252,0,1,3.241,1,38.158741,-122.45298,4.98,2.324,12.6,9,2,1.6,34,2.4467,2,0.1617,2.6269,4.46,35
6805429,1490467457908,,,,,,,,0.07,0.2,1.01,-30.5,-0.5,-0.2,820,252,,,,,,,,,,,,,,,,,,,
6805449,1490467457928,,,,,,,,0.07,0.21,1.01,-30.5,-0.5,-0.2,820,252,,,,,,,,,,,,,,,,,,,
6805469,1490467457948,,,,,,,,0.07,0.2,1.01,-30.5,-0.5,-0.2,800,254,,,,,,,,,,,,,,,,,,,
6805489,1490467457968,,,,,,,,0.06,0.19,1.0,-30.5,-0.4,-0.2,820,252,,,,,,,,,,,,,,,,,,,
6805511,1490467457990,0,207.3,,204.2,12,212.6,,0.07,0.19,1.0,-30.4,-0.4,-0.1,820,252,0,1,3.294,1,38.158741,-122.45298,5.03,2.324,12.7,9,2,1.6,34,2.4467,2,0.1617,2.6269,4.4617,35
6805530,1490467457999,,,,,,,,0.07,0.2,0.99,-30.5,-0.3,-0.0,820,249,,,,,,,,,,,,,,,,,,,
6805550,1490467458019,,,,,,,,0.08,0.2,0.99,-30.5,-0.1,0.0,820,249,,,,,,,,,,,,,,,,,,,
6805570,1490467458039,,,,,,,,0.07,0.21,1.0,-30.5,-0.3,0.0,820,248,,,,,,,,,,,,,,,,,,,
6805590,1490467458059,,,,,,,,0.07,0.21,1.01,-30.4,-0.3,-0.1,820,249,,,,,,,,,,,,,,,,,,,
6805612,1490467458081,,,,,11,,,0.06,0.2,1.01,-30.3,-0.4,-0.2,780,249,0,1,3.254,1,38.158741,-122.45298,3.48,2.324,12.7,9,2,1.6,34,2.4467,2,0.1617,2.6269,4.4633,35
6805631,1490467458106,,,,,,,,0.07,0.19,1.0,-30.3,-0.4,-0.2,780,251,,,,,,,,,,,,,,,,,,,
6805651,1490467458126,,,,,,,,0.08,0.2,0.99,-30.3,-0.3,-0.1,820,248,,,,,,,,,,,,,,,,,,,
6805671,1490467458146,,,,,,,,0.08,0.2,1.0,-30.4,-0.3,-0.1,800,246,,,,,,,,,,,,,,,,,,,
6805691,1490467458166,,,,,,,,0.08,0.2,1.01,-30.3,-0.3,-0.2,800,248,,,,,,,,,,,,,,,,,,,
6805713,1490467458188,0,208.1,,204.8,11,212.7,,0.08,0.2,1.01,-30.3,-0.3,-0.4,800,249,0,1,3.158,1,38.158745,-122.452995,4.34,2.324,12.8,9,2,1.6,34,2.4467,2,0.1617,2.6269,4.465,35
6805732,1490467458209,,,,,,,,0.07,0.19,1.01,-30.3,-0.1,-0.5,820,251,,,,,,,,,,,,,,,,,,,
6805752,1490467458229,,,,,,,,0.07,0.18,0.99,-30.3,-0.1,-0.5,820,248,,,,,,,,,,,,,,,,,,,
6805772,1490467458249,,,,,,,,0.07,0.19,0.99,-30.3,0.0,-0.5,780,248,,,,,,,,,,,,,,,,,,,
6805792,1490467458269,,,,,,,,0.07,0.19,0.99,-30.3,-0.0,-0.4,820,246,,,,,,,,,,,,,,,,,,,
6805814,1490467458295,,,,,11,,,0.06,0.19,1.0,-30.3,-0.1,-0.4,800,245,0,1,3.213,1,38.158745,-122.452995,4.1,2.325,12.8,9,2,1.6,34,2.4467,2,0.1617,2.6269,4.4683,35
6805833,1490467458314,,,,,,,,0.05,0.19,0.99,-30.3,-0.3,-0.6,820,248,,,,,,,,,,,,,,,,,,,
