"Interval"|"ms"|0|0|1,"Utc"|"ms"|0|0|1,"FuelLevel"|"F"|0|100|5,"OilTemp"|"F"|0.0|300.0|5,"CoolantPressPSI"|"PSI"|0.0|20.0|1,"Coolant"|"F"|0.0|300.0|5,"OilPress"|"PSI"|0|150|10,"EngineTemp"|"F"|0.0|300.0|5,"Battery"|"Volts"|0.0|20.0|1,"AccelX"|"G"|-3.0|3.0|50,"AccelY"|"G"|-3.0|3.0|50,"AccelZ"|"G"|-3.0|3.0|50,"Yaw"|"Deg/Sec"|-300.0|300.0|50,"Pitch"|"Deg/Sec"|-300.0|300.0|50,"Roll"|"Deg/Sec"|-300.0|300.0|50,"RPM"|""|0|10000|50,"Driveshaft"|"RPM"|0|5000|50,"GPIO1"|""|0|1|10,"GPIO2"|""|0|1|10,"GearRatio"|""|-5.0|5.0|10,"Gear"|""|-1|5|10,"Latitude"|"Degrees"|-180.0|180.0|10,"Longitude"|"Degrees"|-180.0|180.0|10,"Speed"|"mph"|0.0|150.0|10,"Distance"|"mi"|0.0|0.0|10,"Altitude"|"ft"|0.0|4000.0|10,"GPSSats"|""|0|20|10,"GPSQual"|""|0|5|10,"GPSDOP"|""|0.0|20.0|10,"LapCount"|""|0|0|10,"LapTime"|"Min"|0.0|0.0|10,"Sector"|""|0|0|10,"SectorTime"|"Min"|0.0|0.0|10,"PredTime"|"Min"|0.0|0.0|10,"ElapsedTime"|"Min"|0.0|0.0|10,"CurrentLap"|""|0|0|10
8720083,1506798011252,,,,,,,,0.02,0.1,0.96,-2.9,-0.1,-0.2,560,0,,,,,,,,,,,,,,,,,,,
8720103,1506798011272,,,,,,,,0.02,0.1,0.95,-2.9,-0.2,-0.3,560,0,,,,,,,,,,,,,,,,,,,
8720123,1506798011292,,,,,,,,0.02,0.12,0.95,-3.0,-0.1,-0.1,600,0,,,,,,,,,,,,,,,,,,,
8720145,1506798011314,,,,,1,,,0.02,0.1,0.95,-3.0,-0.0,-0.2,640,0,0,0,0.0,0,35.489567,-119.543999,0.0,2.778,246.8,10,3,1.5,41,2.4667,0,0.0,6.4392,4.1067,42
8720164,1506798011333,,,,,,,,0.02,0.1,0.95,-2.9,-0.2,-0.3,640,0,,,,,,,,,,,,,,,,,,,
8720184,1506798011353,,,,,,,,0.01,0.11,0.94,-3.1,0.1,-0.1,760,3,,,,,,,,,,,,,,,,,,,
8720204,1506798011373,,,,,,,,0.02,0.1,0.93,-3.1,0.1,0.1,840,3,,,,,,,,,,,,,,,,,,,
8720224,1506798011393,,,,,,,,0.02,0.11,0.94,-3.1,0.1,-0.0,900,3,,,,,,,,,,,,,,,,,,,
8720246,1506798011415,0,225.2,,213.1,4,223.5,,0.03,0.12,0.95,-3.1,-0.1,-0.0,960,3,0,0,0.0,0,35.489567,-119.543999,0.0,2.778,246.8,10,3,1.5,41,2.4667,0,0.0,6.4409,4.1083,42
8720265,1506798011434,,,,,,,,0.03,0.13,0.96,-3.1,-0.3,0.1,1000,3,,,,,,,,,,,,,,,,,,,
8720285,1506798011454,,,,,,,,0.03,0.13,0.96,-3.2,-0.5,0.1,1060,256409,,,,,,,,,,,,,,,,,,,
8720305,1506798011474,,,,,,,,0.04,0.14,0.97,-3.2,-0.6,-0.0,1160,0,,,,,,,,,,,,,,,,,,,
8720325,1506798011494,,,,,,,,0.03,0.11,0.96,-3.1,-0.7,-0.2,1200,0,,,,,,,,,,,,,,,,,,,
8720347,1506798011516,,,,,9,,,0.03,0.1,0.96,-3.1,-0.6,-0.2,1240,0,0,0,353.333,0,35.489567,-119.543999,0.0,2.778,246.8,10,3,1.5,41,2.4667,0,0.0,6.4426,4.11,42
8720366,1506798011535,,,,,,,,0.03,0.1,0.97,-3.1,-0.5,-0.1,1260,0,,,,,,,,,,,,,,,,,,,
8720386,1506798011555,,,,,,,,0.02,0.1,0.97,-3.1,-0.6,-0.1,1320,0,,,,,,,,,,,,,,,,,,,
8720406,1506798011575,,,,,,,,0.02,0.1,0.97,-3.2,-0.5,-0.1,1340,0,,,,,,,,,,,,,,,,,,,
8720426,1506798011594,,,,,,,,0.02,0.1,0.97,-3.1,-0.5,-0.1,1360,0,,,,,,,,,,,,,,,,,,,
8720448,1506798011616,0,225.5,,213.6,15,223.6,,0.02,0.1,0.97,-3.1,-0.6,-0.1,1400,0,0,0,0.0,0,35.489567,-119.543999,0.0,2.778,246.8,10,3,1.5,41,2.4667,0,0.0,6.4443,4.1117,42
8720467,1506798011635,,,,,,,,0.01,0.09,0.97,-3.1,-0.5,-0.1,1420,0,,,,,,,,,,,,,,,,,,,
8720487,1506798011655,,,,,,,,0.01,0.1,0.97,-3.2,-0.7,-0.2,1440,0,,,,,,,,,,,,,,,,,,,
8720507,1506798011675,,,,,,,,0.02,0.09,0.97,-3.1,-0.4,-0.2,1440,0,,,,,,,,,,,,,,,,,,,
8720527,1506798011695,,,,,,,,0.02,0.09,0.97,-3.0,-0.4,-0.2,1460,0,,,,,,,,,,,,,,,,,,,
8720549,1506798011717,,,,,15,,,0.02,0.1,0.97,-3.0,-0.3,-0.2,1440,0,0,0,0.0,0,35.489567,-119.543999,0.0,2.778,246.8,10,3,1.5,41,2.4667,0,0.0,6.4459,4.1133,42
8720568,1506798011736,,,,,,,,0.02,0.1,0.97,-3.0,-0.3,-0.2,1460,0,,,,,,,,,,,,,,,,,,,
8720588,1506798011756,,,,,,,,0.02,0.1,0.97,-3.0,-0.2,-0.2,1440,0,,,,,,,,,,,,,,,,,,,
8720608,1506798011776,,,,,,,,0.02,0.1,0.96,-3.0,-0.3,-0.3,1460,0,,,,,,,,,,,,,,,,,,,
8720628,1506798011796,,,,,,,,0.02,0.1,0.97,-3.1,-0.3,-0.3,1440,0,,,,,,,,,,,,,,,,,,,
8720650,1506798011818,0,225.0,,213.1,17,223.3,,0.02,0.1,0.97,-3.1,-0.3,-0.3,1440,0,0,0,0.0,0,35.489567,-119.543999,0.0,2.778,246.8,10,3,1.5,41,2.4667,0,0.0,6.4476,4.115,42
8720669,1506798011837,,,,,,,,0.02,0.11,0.97,-3.1,-0.3,-0.2,1440,0,,,,,,,,,,,,,,,,,,,
8720689,1506798011857,,,,,,,,0.02,0.11,0.96,-3.1,-0.4,-0.2,1440,0,,,,,,,,,,,,,,,,,,,
8720709,1506798011877,,,,,,,,0.02,0.12,0.97,-3.2,-0.4,-0.2,1420,0,,,,,,,,,,,,,,,,,,,
8720729,1506798011897,,,,,,,,0.02,0.11,0.96,-3.1,-0.5,-0.2,1400,0,,,,,,,,,,,,,,,,,,,
8720751,1506798011919,,,,,18,,,0.02,0.11,0.97,-3.1,-0.4,-0.1,1400,0,0,0,0.0,0,35.489567,-119.543999,0.0,2.778,246.8,10,3,1.5,41,2.4667,0,0.0,6.4493,4.1167,42
8720770,1506798011938,,,,,,,,0.02,0.11,0.97,-3.1,-0.3,-0.1,1380,0,,,,,,,,,,,,,,,,,,,
8720790,1506798011958,,,,,,,,0.02,0.11,0.97,-3.1,-0.2,-0.1,1340,0,,,,,,,,,,,,,,,,,,,
8720810,1506798011978,,,,,,,,0.02,0.11,0.96,-3.1,-0.3,-0.0,1340,0,,,,,,,,,,,,,,,,,,,
8720830,1506798011998,,,,,,,,0.02,0.11,0.97,-3.1,-0.3,-0.0,1320,0,,,,,,,,,,,,,,,,,,,
8720852,1506798012012,0,225.9,4.9,213.4,17,223.2,13.81,0.02,0.1,0.96,-3.0,-0.3,-0.1,1300,0,0,0,0.0,0,35.489567,-119.543999,0.0,2.778,246.8,10,3,1.5,41,2.4667,0,0.0,6.4508,4.1183,42
8720871,1506798012031,,,,,,,,0.03,0.1,0.97,-3.0,-0.3,-0.1,1280,0,,,,,,,,,,,,,,,,,,,
8720891,1506798012051,,,,,,,,0.03,0.1,0.97,-3.0,-0.3,-0.1,1300,0,,,,,,,,,,,,,,,,,,,
8720911,1506798012071,,,,,,,,0.02,0.09,0.97,-3.0,-0.2,-0.2,1240,0,,,,,,,,,,,,,,,,,,,
8720931,1506798012097,,,,,,,,0.03,0.09,0.97,-3.0,-0.2,-0.1,1260,0,,,,,,,,,,,,,,,,,,,
8720953,1506798012119,,,,,16,,,0.03,0.09,0.97,-3.0,-0.2,-0.1,1220,0,0,0,0.0,0,35.489567,-119.543999,0.0,2.778,246.8,10,3,1.5,41,2.4667,0,0.0,6.4526,4.12,42
8720972,1506798012138,,,,,,,,0.03,0.09,0.97,-3.0,-0.3,-0.2,1240,0,,,,,,,,,,,,,,,,,,,
8720992,1506798012158,,,,,,,,0.03,0.09,0.97,-3.0,-0.3,-0.2,1200,0,,,,,,,,,,,,,,,,,,,
8721012,1506798012178,,,,,,,,0.02,0.1,0.97,-3.0,-0.3,-0.2,1180,0,,,,,,,,,,,,,,,,,,,
8721032,1506798012200,,,,,,,,0.02,0.09,0.97,-3.0,-0.4,-0.2,1160,0,,,,,,,,,,,,,,,,,,,
8721054,1506798012222,0,225.5,,213.3,17,223.5,,0.02,0.09,0.97,-3.0,-0.4,-0.2,1140,0,0,0,0.0,0,35.489567,-119.543999,0.0,2.778,246.8,10,3,1.5,41,2.4667,0,0.0,6.4544,4.1217,42
8721073,1506798012241,,,,,,,,0.03,0.09,0.98,-3.0,-0.3,-0.2,1120,0,,,,,,,,,,,,,,,,,,,
8721093,1506798012261,,,,,,,,0.02,0.09,0.97,-3.0,-0.3,-0.2,1100,0,,,,,,,,,,,,,,,,,,,
8721113,1506798012281,,,,,,,,0.02,0.09,0.97,-3.0,-0.3,-0.2,1100,0,,,,,,,,,,,,,,,,,,,
8721133,1506798012301,,,,,,,,0.02,0.09,0.97,-3.0,-0.4,-0.2,1060,0,,,,,,,,,,,,,,,,,,,
8721155,1506798012323,,,,,12,,,0.02,0.09,0.97,-3.0,-0.4,-0.2,1060,0,0,0,0.0,0,35.489567,-119.543999,0.0,2.778,246.8,10,3,1.5,41,2.4667,0,0.0,6.456,4.1233,42
8721174,1506798012342,,,,,,,,0.02,0.1,0.97,-3.0,-0.4,-0.2,1040,0,,,,,,,,,,,,,,,,,,,
8721194,1506798012362,,,,,,,,0.02,0.09,0.98,-3.0,-0.4,-0.2,1020,0,,,,,,,,,,,,,,,,,,,
8721214,1506798012382,,,,,,,,0.02,0.1,0.97,-3.0,-0.3,-0.2,1000,0,,,,,,,,,,,,,,,,,,,
8721234,1506798012402,,,,,,,,0.02,0.1,0.97,-3.0,-0.3,-0.2,980,0,,,,,,,,,,,,,,,,,,,
8721256,1506798012424,0,225.4,,213.4,13,223.6,,0.02,0.1,0.98,-3.0,-0.3,-0.2,980,0,0,0,0.0,0,35.489567,-119.543999,0.0,2.778,246.8,10,3,1.5,41,2.4667,0,0.0,6.4577,4.125,42
8721275,1506798012443,,,,,,,,0.02,0.1,0.98,-3.0,-0.3,-0.2,940,0,,,,,,,,,,,,,,,,,,,
8721295,1506798012463,,,,,,,,0.01,0.1,0.97,-3.0,-0.4,-0.2,940,0,,,,,,,,,,,,,,,,,,,
8721315,1506798012483,,,,,,,,0.02,0.1,0.97,-3.0,-0.4,-0.2,940,0,,,,,,,,,,,,,,,,,,,
8721335,1506798012503,,,,,,,,0.02,0.1,0.97,-3.0,-0.4,-0.2,900,0,,,,,,,,,,,,,,,,,,,
8721357,1506798012525,,,,,10,,,0.02,0.1,0.98,-3.0,-0.4,-0.2,900,0,0,0,0.0,0,35.489567,-119.543999,0.0,2.778,246.8,10,3,1.5,41,2.4667,0,0.0,6.4594,4.1267,42
8721376,1506798012544,,,,,,,,0.02,0.1,0.98,-3.0,-0.4,-0.2,880,0,,,,,,,,,,,,,,,,,,,
8721396,1506798012564,,,,,,,,0.02,0.1,0.98,-3.0,-0.4,-0.2,880,0,,,,,,,,,,,,,,,,,,,
8721416,1506798012584,,,,,,,,0.02,0.1,0.98,-3.0,-0.4,-0.3,860,0,,,,,,,,,,,,,,,,,,,
8721436,1506798012603,,,,,,,,0.02,0.1,0.98,-3.0,-0.4,-0.3,840,0,,,,,,,,,,,,,,,,,,,
8721458,1506798012625,0,225.1,,212.8,9,222.8,,0.02,0.1,0.98,-3.0,-0.4,-0.3,820,0,0,0,0.0,0,35.489567,-119.543999,0.0,2.778,246.8,10,3,1.5,41,2.4667,0,0.0,6.4611,4.1283,42
8721477,1506798012644,,,,,,,,0.02,0.1,0.98,-3.0,-0.4,-0.2,820,0,,,,,,,,,,,,,,,,,,,
8721497,1506798012664,,,,,,,,0.02,0.1,0.97,-3.0,-0.4,-0.2,800,0,,,,,,,,,,,,,,,,,,,
8721517,1506798012684,,,,,,,,0.02,0.1,0.98,-3.0,-0.4,-0.2,780,0,,,,,,,,,,,,,,,,,,,
8721537,1506798012704,,,,,,,,0.02,0.1,0.98,-3.0,-0.4,-0.2,760,0,,,,,,,,,,,,,,,,,,,
8721559,1506798012726,,,,,9,,,0.02,0.1,0.98,-3.0,-0.5,-0.3,760,0,0,0,0.0,0,35.489567,-119.543999,0.0,2.778,246.8,10,3,1.5,41,2.4667,0,0.0,6.4627,4.13,42
8721578,1506798012745,,,,,,,,0.02,0.1,0.97,-3.0,-0.4,-0.3,760,0,,,,,,,,,,,,,,,,,,,
8721598,1506798012765,,,,,,,,0.02,0.1,0.97,-3.0,-0.4,-0.3,740,0,,,,,,,,,,,,,,,,,,,
8721618,1506798012785,,,,,,,,0.02,0.1,0.98,-3.0,-0.4,-0.3,720,0,,,,,,,,,,,,,,,,,,,
8721638,1506798012805,,,,,,,,0.02,0.1,0.98,-3.0,-0.4,-0.3,720,0,,,,,,,,,,,,,,,,,,,
8721660,1506798012827,0,224.8,,212.7,7,222.5,,0.02,0.1,0.98,-3.0,-0.4,-0.2,720,0,0,0,0.0,0,35.489567,-119.543999,0.0,2.778,246.8,10,3,1.5,41,2.4667,0,0.0,6.4644,4.1317,42
8721679,1506798012846,,,,,,,,0.02,0.1,0.98,-3.1,-0.4,-0.2,720,0,,,,,,,,,,,,,,,,,,,
8721699,1506798012866,,,,,,,,0.02,0.1,0.98,-3.1,-0.4,-0.2,680,0,,,,,,,,,,,,,,,,,,,
8721719,1506798012886,,,,,,,,0.01,0.09,0.98,-3.1,-0.4,-0.3,680,0,,,,,,,,,,,,,,,,,,,
8721739,1506798012906,,,,,,,,0.01,0.1,0.98,-3.1,-0.4,-0.2,700,0,,,,,,,,,,,,,,,,,,,
8721761,1506798012928,,,,,8,,,0.01,0.1,0.97,-3.1,-0.4,-0.2,680,0,0,0,0.0,0,35.489567,-119.543999,0.0,2.778,246.8,10,3,1.5,41,2.4667,0,0.0,6.4661,4.1333,42
8721780,1506798012947,,,,,,,,0.01,0.09,0.97,-3.1,-0.4,-0.3,680,0,,,,,,,,,,,,,,,,,,,
8721800,1506798012967,,,,,,,,0.01,0.09,0.97,-3.1,-0.4,-0.2,660,0,,,,,,,,,,,,,,,,,,,
8721820,1506798012987,,,,,,,,0.02,0.09,0.97,-3.1,-0.3,-0.2,660,0,,,,,,,,,,,,,,,,,,,
8721840,1506798012999,,,,,,,,0.02,0.09,0.97,-3.0,-0.3,-0.3,660,0,,,,,,,,,,,,,,,,,,,
8721862,1506798013021,0,225.5,4.6,213.8,7,223.6,13.16,0.02,0.09,0.97,-3.1,-0.3,-0.2,660,0,0,0,0.0,0,35.489567,-119.543999,0.0,2.778,246.8,10,3,1.5,41,2.4667,0,0.0,6.4677,4.135,42
8721881,1506798013040,,,,,,,,0.02,0.1,0.97,-3.1,-0.2,-0.2,660,0,,,,,,,,,,,,,,,,,,,
8721901,1506798013060,,,,,,,,0.02,0.09,0.97,-3.0,-0.1,-0.2,660,0,,,,,,,,,,,,,,,,,,,
8721921,1506798013080,,,,,,,,0.03,0.09,0.97,-3.1,-0.1,-0.2,660,0,,,,,,,,,,,,,,,,,,,
8721941,1506798013108,,,,,,,,0.03,0.1,0.97,-3.1,-0.1,-0.2,660,0,,,,,,,,,,,,,,,,,,,
8721963,1506798013130,,,,,7,,,0.03,0.09,0.98,-3.0,-0.1,-0.3,660,0,0,0,0.0,0,35.489567,-119.543999,0.0,2.778,246.8,10,3,1.5,41,2.4667,0,0.0,6.4695,4.1367,42
8721982,1506798013149,,,,,,,,0.03,0.1,0.98,-3.0,-0.1,-0.3,660,0,,,,,,,,,,,,,,,,,,,
8722002,1506798013169,,,,,,,,0.02,0.1,0.98,-3.0,-0.1,-0.3,660,0,,,,,,,,,,,,,,,,,,,
8722022,1506798013189,,,,,,,,0.02,0.09,0.98,-3.0,-0.2,-0.3,660,0,,,,,,,,,,,,,,,,,,,
8722042,1506798013209,,,,,,,,0.02,0.09,0.98,-3.0,-0.0,-0.3,660,0,,,,,,,,,,,,,,,,,,,
8722064,1506798013231,0,225.1,,213.1,7,222.6,,0.01,0.1,0.98,-3.1,-0.0,-0.2,680,0,0,0,0.0,0,35.489567,-119.543999,0.0,2.778,246.8,10,3,1.5,41,2.4667,0,0.0,6.4712,4.1383,42
8722083,1506798013250,,,,,,,,0.01,0.1,0.97,-3.0,-0.1,-0.2,680,0,,,,,,,,,,,,,,,,,,,
8722103,1506798013270,,,,,,,,0.01,0.1,0.98,-3.1,-0.2,-0.2,680,0,,,,,,,,,,,,,,,,,,,
8722123,1506798013290,,,,,,,,0.01,0.11,0.98,-3.1,-0.2,-0.1,680,0,,,,,,,,,,,,,,,,,,,
8722143,1506798013310,,,,,,,,0.01,0.11,0.98,-3.1,-0.4,-0.1,680,0,,,,,,,,,,,,,,,,,,,
8722165,1506798013332,,,,,7,,,0.01,0.11,0.98,-3.1,-0.4,-0.2,680,0,0,0,0.0,0,35.489567,-119.543999,0.0,2.778,246.8,10,3,1.5,41,2.4667,0,0.0,6.4728,4.14,42
8722184,1506798013351,,,,,,,,0.02,0.11,0.98,-3.1,-0.4,-0.2,700,0,,,,,,,,,,,,,,,,,,,
8722204,1506798013371,,,,,,,,0.02,0.11,0.98,-3.1,-0.4,-0.1,700,0,,,,,,,,,,,,,,,,,,,
8722224,1506798013391,,,,,,,,0.02,0.1,0.98,-3.1,-0.4,-0.2,720,0,,,,,,,,,,,,,,,,,,,
8722244,1506798013411,,,,,,,,0.02,0.1,0.98,-3.1,-0.3,-0.3,720,0,,,,,,,,,,,,,,,,,,,
8722266,1506798013433,0,225.1,,213.3,7,222.5,,0.02,0.1,0.98,-3.1,-0.2,-0.2,720,0,0,0,0.0,0,35.489567,-119.543999,0.0,2.778,246.8,10,3,1.5,41,2.4667,0,0.0,6.4745,4.1417,42
8722285,1506798013452,,,,,,,,0.03,0.11,0.98,-3.1,-0.3,-0.1,720,0,,,,,,,,,,,,,,,,,,,
8722305,1506798013472,,,,,,,,0.02,0.1,0.97,-3.0,-0.3,-0.2,720,0,,,,,,,,,,,,,,,,,,,
8722325,1506798013492,,,,,,,,0.03,0.1,0.98,-3.0,-0.3,-0.3,720,0,,,,,,,,,,,,,,,,,,,
8722345,1506798013510,,,,,,,,0.03,0.11,0.97,-3.1,-0.1,-0.2,740,0,,,,,,,,,,,,,,,,,,,
8722367,1506798013532,,,,,9,,,0.03,0.11,0.97,-3.0,-0.1,-0.1,760,0,0,0,0.0,0,35.489567,-119.543999,0.0,2.778,246.8,10,3,1.5,41,2.4667,0,0.0,6.4762,4.1433,42
8722386,1506798013551,,,,,,,,0.02,0.11,0.98,-3.0,-0.1,-0.2,760,0,,,,,,,,,,,,,,,,,,,
8722406,1506798013571,,,,,,,,0.02,0.11,0.98,-3.0,-0.1,-0.3,760,0,,,,,,,,,,,,,,,,,,,
8722426,1506798013594,,,,,,,,0.03,0.11,0.98,-3.0,-0.2,-0.2,760,0,,,,,,,,,,,,,,,,,,,
8722446,1506798013614,,,,,,,,0.03,0.11,0.97,-3.0,-0.2,-0.1,760,0,,,,,,,,,,,,,,,,,,,
8722468,1506798013636,0,225.1,,213.4,8,222.6,,0.03,0.11,0.98,-3.0,-0.2,-0.2,780,0,0,0,0.0,0,35.489567,-119.543999,0.0,2.778,246.8,10,3,1.5,41,2.4667,0,0.0,6.4779,4.145,42
8722487,1506798013655,,,,,,,,0.02,0.11,0.98,-3.0,-0.3,-0.3,780,0,,,,,,,,,,,,,,,,,,,
8722507,1506798013675,,,,,,,,0.02,0.1,0.98,-3.0,-0.3,-0.3,780,0,,,,,,,,,,,,,,,,,,,
8722527,1506798013695,,,,,,,,0.02,0.1,0.97,-3.0,-0.3,-0.2,780,0,,,,,,,,,,,,,,,,,,,
8722547,1506798013715,,,,,,,,0.02,0.11,0.97,-3.0,-0.3,-0.1,800,0,,,,,,,,,,,,,,,,,,,
8722569,1506798013737,,,,,9,,,0.02,0.11,0.98,-3.0,-0.4,-0.2,800,0,0,0,0.0,0,35.489567,-119.543999,0.0,2.778,246.8,10,3,1.5,41,2.4667,0,0.0,6.4796,4.1467,42
8722588,1506798013756,,,,,,,,0.02,0.11,0.98,-3.0,-0.4,-0.3,800,0,,,,,,,,,,,,,,,,,,,
8722608,1506798013776,,,,,,,,0.02,0.1,0.98,-2.9,-0.4,-0.3,820,0,,,,,,,,,,,,,,,,,,,
8722628,1506798013796,,,,,,,,0.02,0.1,0.97,-3.0,-0.4,-0.3,820,0,,,,,,,,,,,,,,,,,,,
8722648,1506798013816,,,,,,,,0.02,0.1,0.97,-3.0,-0.4,-0.2,820,0,,,,,,,,,,,,,,,,,,,
8722670,1506798013838,0,224.7,,213.4,9,222.9,,0.02,0.12,0.98,-3.1,-0.4,-0.1,820,0,0,0,0.0,0,35.489567,-119.543999,0.0,2.778,246.8,10,3,1.5,41,2.4667,0,0.0,6.4813,4.1483,42
8722689,1506798013857,,,,,,,,0.02,0.12,0.98,-3.0,-0.4,-0.2,820,0,,,,,,,,,,,,,,,,,,,
8722709,1506798013877,,,,,,,,0.02,0.11,0.97,-3.0,-0.4,-0.3,840,0,,,,,,,,,,,,,,,,,,,
8722729,1506798013897,,,,,,,,0.02,0.11,0.97,-3.0,-0.4,-0.3,820,0,,,,,,,,,,,,,,,,,,,
8722749,1506798013917,,,,,,,,0.02,0.1,0.97,-3.0,-0.4,-0.3,820,0,,,,,,,,,,,,,,,,,,,
8722771,1506798013939,,,,,9,,,0.02,0.11,0.97,-3.0,-0.3,-0.2,820,0,0,0,0.0,0,35.489567,-119.543999,0.0,2.778,246.8,10,3,1.5,41,2.4667,0,0.0,6.483,4.15,42
8722790,1506798013958,,,,,,,,0.02,0.1,0.98,-3.0,-0.3,-0.1,820,0,,,,,,,,,,,,,,,,,,,
8722810,1506798013978,,,,,,,,0.02,0.11,0.98,-3.1,-0.3,-0.1,820,0,,,,,,,,,,,,,,,,,,,
8722830,1506798013998,,,,,,,,0.02,0.11,0.98,-3.0,-0.4,-0.2,820,0,,,,,,,,,,,,,,,,,,,
8722850,1506798014010,,,,,,,,0.02,0.11,0.98,-3.0,-0.5,-0.3,840,0,,,,,,,,,,,,,,,,,,,
8722872,1506798014032,0,225.1,3.5,214.1,10,223.3,13.57,0.02,0.1,0.97,-3.0,-0.5,-0.3,840,0,0,0,0.0,0,35.489567,-119.543999,0.0,2.778,246.8,10,3,1.5,41,2.4667,0,0.0,6.4845,4.1517,42
8722891,1506798014051,,,,,,,,0.02,0.1,0.97,-3.0,-0.4,-0.2,820,0,,,,,,,,,,,,,,,,,,,
8722911,1506798014071,,,,,,,,0.02,0.1,0.97,-3.0,-0.4,-0.1,820,0,,,,,,,,,,,,,,,,,,,
8722931,1506798014099,,,,,,,,0.02,0.11,0.97,-3.1,-0.3,-0.1,820,0,,,,,,,,,,,,,,,,,,,
8722951,1506798014119,,,,,,,,0.02,0.1,0.98,-3.0,-0.3,-0.1,820,0,,,,,,,,,,,,,,,,,,,
8722973,1506798014141,,,,,9,,,0.02,0.1,0.98,-3.0,-0.4,-0.2,820,0,0,0,0.0,0,35.489567,-119.543999,0.0,2.778,246.8,10,3,1.5,41,2.4667,0,0.0,6.4863,4.1533,42
8722992,1506798014160,,,,,,,,0.01,0.1,0.98,-3.0,-0.4,-0.3,820,0,,,,,,,,,,,,,,,,,,,
8723012,1506798014180,,,,,,,,0.02,0.09,0.97,-3.0,-0.4,-0.2,820,0,,,,,,,,,,,,,,,,,,,
8723032,1506798014200,,,,,,,,0.02,0.1,0.97,-3.1,-0.4,-0.1,820,0,,,,,,,,,,,,,,,,,,,
8723052,1506798014220,,,,,,,,0.02,0.1,0.98,-3.1,-0.4,-0.1,820,0,,,,,,,,,,,,,,,,,,,
8723074,1506798014242,0,224.5,,213.5,9,222.6,,0.02,0.1,0.98,-3.1,-0.3,-0.1,820,0,0,0,0.0,0,35.489567,-119.543999,0.0,2.778,246.8,10,3,1.5,41,2.4667,0,0.0,6.488,4.155,42
8723093,1506798014261,,,,,,,,0.02,0.1,0.98,-3.1,-0.4,-0.2,820,0,,,,,,,,,,,,,,,,,,,
8723113,1506798014281,,,,,,,,0.02,0.1,0.98,-3.0,-0.4,-0.3,840,0,,,,,,,,,,,,,,,,,,,
8723133,1506798014301,,,,,,,,0.02,0.09,0.97,-3.0,-0.4,-0.4,840,0,,,,,,,,,,,,,,,,,,,
8723153,1506798014321,,,,,,,,0.02,0.1,0.97,-3.1,-0.3,-0.3,820,0,,,,,,,,,,,,,,,,,,,
8723175,1506798014343,,,,,9,,,0.02,0.1,0.97,-3.1,-0.3,-0.2,820,0,0,0,0.0,0,35.489567,-119.543999,0.0,2.778,246.8,10,3,1.5,41,2.4667,0,0.0,6.4897,4.1567,42
8723194,1506798014362,,,,,,,,0.02,0.1,0.97,-3.1,-0.3,-0.1,820,0,,,,,,,,,,,,,,,,,,,
8723214,1506798014382,,,,,,,,0.02,0.1,0.98,-3.0,-0.2,-0.2,820,0,,,,,,,,,,,,,,,,,,,
8723234,1506798014402,,,,,,,,0.02,0.1,0.97,-3.0,-0.3,-0.3,820,0,,,,,,,,,,,,,,,,,,,
8723254,1506798014422,,,,,,,,0.02,0.09,0.97,-3.0,-0.3,-0.3,820,0,,,,,,,,,,,,,,,,,,,
8723276,1506798014444,0,225.4,,214.6,9,223.6,,0.02,0.09,0.97,-3.0,-0.3,-0.2,820,0,0,0,0.0,0,35.489567,-119.543999,0.0,2.778,246.8,10,3,1.5,41,2.4667,0,0.0,6.4914,4.1583,42
8723295,1506798014463,,,,,,,,0.02,0.1,0.97,-3.1,-0.2,-0.1,820,0,,,,,,,,,,,,,,,,,,,
8723315,1506798014483,,,,,,,,0.03,0.11,0.97,-3.1,-0.2,-0.1,820,0,,,,,,,,,,,,,,,,,,,
8723335,1506798014505,,,,,,,,0.02,0.1,0.98,-3.1,-0.2,-0.1,820,0,,,,,,,,,,,,,,,,,,,
8723355,1506798014525,,,,,,,,0.02,0.1,0.98,-3.0,-0.3,-0.2,820,0,,,,,,,,,,,,,,,,,,,
8723377,1506798014547,,,,,11,,,0.02,0.1,0.97,-3.0,-0.3,-0.3,820,0,0,0,0.0,0,35.489567,-119.543999,0.0,2.778,246.8,10,3,1.5,41,2.4667,0,0.0,6.4931,4.16,42
8723396,1506798014566,,,,,,,,0.02,0.1,0.97,-3.0,-0.3,-0.2,820,0,,,,,,,,,,,,,,,,,,,
8723416,1506798014586,,,,,,,,0.02,0.1,0.97,-3.0,-0.3,-0.1,820,0,,,,,,,,,,,,,,,,,,,
8723436,1506798014605,,,,,,,,0.02,0.11,0.97,-3.0,-0.4,-0.0,820,0,,,,,,,,,,,,,,,,,,,
8723456,1506798014625,,,,,,,,0.02,0.1,0.98,-3.0,-0.4,-0.1,820,0,,,,,,,,,,,,,,,,,,,
8723478,1506798014647,0,224.4,,213.8,9,222.8,,0.02,0.1,0.98,-3.0,-0.4,-0.2,800,0,0,0,0.0,0,35.489567,-119.543999,0.0,2.778,246.8,10,3,1.5,41,2.4667,0,0.0,6.4948,4.1617,42
8723497,1506798014666,,,,,,,,0.02,0.1,0.97,-3.0,-0.4,-0.3,800,0,,,,,,,,,,,,,,,,,,,
8723517,1506798014686,,,,,,,,0.02,0.1,0.97,-3.0,-0.4,-0.2,800,0,,,,,,,,,,,,,,,,,,,
8723537,1506798014706,,,,,,,,0.02,0.1,0.97,-3.0,-0.3,-0.1,800,0,,,,,,,,,,,,,,,,,,,
8723557,1506798014726,,,,,,,,0.03,0.11,0.97,-3.0,-0.3,-0.1,800,0,,,,,,,,,,,,,,,,,,,
8723579,1506798014748,,,,,9,,,0.02,0.1,0.97,-3.0,-0.2,-0.2,820,0,0,0,0.0,0,35.489567,-119.543999,0.0,2.778,246.8,10,3,1.5,41,2.4667,0,0.0,6.4964,4.1633,42
8723598,1506798014767,,,,,,,,0.02,0.1,0.98,-3.0,-0.3,-0.3,800,0,,,,,,,,,,,,,,,,,,,
8723618,1506798014787,,,,,,,,0.02,0.1,0.97,-3.0,-0.3,-0.3,800,0,,,,,,,,,,,,,,,,,,,
8723638,1506798014807,,,,,,,,0.02,0.1,0.97,-3.0,-0.2,-0.2,800,0,,,,,,,,,,,,,,,,,,,
8723658,1506798014827,,,,,,,,0.02,0.11,0.97,-3.0,-0.2,-0.1,800,0,,,,,,,,,,,,,,,,,,,
8723680,1506798014849,0,225.2,,214.6,10,223.5,,0.02,0.1,0.98,-3.0,-0.2,-0.2,800,0,0,0,0.0,0,35.489567,-119.543999,0.0,2.778,246.8,10,3,1.5,41,2.4667,0,0.0,6.4981,4.165,42
8723699,1506798014868,,,,,,,,0.02,0.1,0.98,-3.0,-0.2,-0.3,800,0,,,,,,,,,,,,,,,,,,,
8723719,1506798014888,,,,,,,,0.02,0.1,0.98,-3.0,-0.3,-0.3,800,0,,,,,,,,,,,,,,,,,,,
8723739,1506798014908,,,,,,,,0.02,0.1,0.97,-3.0,-0.2,-0.2,800,0,,,,,,,,,,,,,,,,,,,
8723759,1506798014928,,,,,,,,0.02,0.1,0.97,-3.0,-0.3,-0.1,780,0,,,,,,,,,,,,,,,,,,,
8723781,1506798014950,,,,,9,,,0.02,0.1,0.98,-3.0,-0.3,-0.1,780,0,0,0,0.0,0,35.489567,-119.543999,0.0,2.778,246.8,10,3,1.5,41,2.4667,0,0.0,6.4998,4.1667,42
8723800,1506798014969,,,,,,,,0.02,0.1,0.98,-3.0,-0.3,-0.2,780,0,,,,,,,,,,,,,,,,,,,
8723820,1506798014989,,,,,,,,0.01,0.1,0.98,-3.0,-0.4,-0.3,800,0,,,,,,,,,,,,,,,,,,,
8723840,1506798014999,,,,,,,,0.02,0.09,0.97,-3.0,-0.4,-0.2,800,0,,,,,,,,,,,,,,,,,,,
8723860,1506798015019,,,,,,,,0.02,0.1,0.98,-3.1,-0.3,-0.1,780,0,,,,,,,,,,,,,,,,,,,
8723882,1506798015041,0,224.4,2.8,213.8,9,222.8,13.76,0.02,0.11,0.98,-3.1,-0.4,-0.1,800,0,0,0,0.0,0,35.489567,-119.543999,0.0,2.778,246.8,10,3,1.5,41,2.4667,0,0.0,6.5013,4.1683,42
8723901,1506798015060,,,,,,,,0.02,0.1,0.98,-3.1,-0.4,-0.2,780,0,,,,,,,,,,,,,,,,,,,
8723921,1506798015080,,,,,,,,0.02,0.1,0.98,-3.1,-0.3,-0.3,780,0,,,,,,,,,,,,,,,,,,,
8723941,1506798015108,,,,,,,,0.02,0.1,0.97,-3.1,-0.4,-0.2,780,0,,,,,,,,,,,,,,,,,,,
8723961,1506798015128,,,,,,,,0.02,0.1,0.97,-3.1,-0.4,-0.2,780,0,,,,,,,,,,,,,,,,,,,
8723983,1506798015150,,,,,9,,,0.02,0.11,0.98,-3.1,-0.4,-0.1,780,0,0,0,0.0,0,35.489567,-119.543999,0.0,2.778,246.8,10,3,1.5,41,2.4667,0,0.0,6.5032,4.17,42
8724002,1506798015169,,,,,,,,0.02,0.1,0.98,-3.1,-0.4,-0.2,780,0,,,,,,,,,,,,,,,,,,,
8724022,1506798015191,,,,,,,,0.02,0.1,0.98,-3.0,-0.4,-0.3,780,0,,,,,,,,,,,,,,,,,,,
8724042,1506798015211,,,,,,,,0.02,0.1,0.97,-3.1,-0.4,-0.2,780,0,,,,,,,,,,,,,,,,,,,
8724062,1506798015231,,,,,,,,0.03,0.1,0.98,-3.1,-0.4,-0.2,760,0,,,,,,,,,,,,,,,,,,,
8724084,1506798015253,0,225.4,,214.9,9,223.2,,0.03,0.11,0.98,-3.1,-0.4,-0.2,760,0,0,0,0.0,0,35.489567,-119.543999,0.0,2.778,246.8,10,3,1.5,41,2.4667,0,0.0,6.5049,4.1717,42
8724103,1506798015272,,,,,,,,0.02,0.1,0.98,-3.0,-0.4,-0.3,760,0,,,,,,,,,,,,,,,,,,,
8724123,1506798015292,,,,,,,,0.02,0.09,0.98,-3.1,-0.4,-0.3,760,0,,,,,,,,,,,,,,,,,,,
8724143,1506798015312,,,,,,,,0.02,0.1,0.98,-3.1,-0.3,-0.2,760,0,,,,,,,,,,,,,,,,,,,
8724163,1506798015332,,,,,,,,0.02,0.1,0.98,-3.1,-0.4,-0.2,760,0,,,,,,,,,,,,,,,,,,,
8724185,1506798015354,,,,,8,,,0.02,0.1,0.98,-3.1,-0.4,-0.3,760,0,0,0,0.0,0,35.489567,-119.543999,0.0,2.778,246.8,10,3,1.5,41,2.4667,0,0.0,6.5065,4.1733,42
8724204,1506798015373,,,,,,,,0.02,0.1,0.98,-3.1,-0.4,-0.3,760,0,,,,,,,,,,,,,,,,,,,
8724224,1506798015393,,,,,,,,0.02,0.1,0.98,-3.1,-0.4,-0.3,760,0,,,,,,,,,,,,,,,,,,,
8724244,1506798015413,,,,,,,,0.02,0.1,0.98,-3.1,-0.3,-0.2,760,0,,,,,,,,,,,,,,,,,,,
8724264,1506798015433,,,,,,,,0.02,0.1,0.98,-3.0,-0.3,-0.2,760,0,,,,,,,,,,,,,,,,,,,
8724286,1506798015455,0,224.4,,214.0,9,222.7,,0.02,0.1,0.98,-3.0,-0.4,-0.3,760,0,0,0,0.0,0,35.489567,-119.543999,0.0,2.778,246.8,10,3,1.5,41,2.4667,0,0.0,6.5082,4.175,42
8724305,1506798015474,,,,,,,,0.02,0.09,0.98,-3.0,-0.4,-0.3,760,0,,,,,,,,,,,,,,,,,,,
8724325,1506798015494,,,,,,,,0.02,0.1,0.97,-3.1,-0.4,-0.2,780,0,,,,,,,,,,,,,,,,,,,
8724345,1506798015514,,,,,,,,0.02,0.11,0.97,-3.1,-0.3,-0.2,760,0,,,,,,,,,,,,,,,,,,,
8724365,1506798015534,,,,,,,,0.02,0.1,0.98,-3.0,-0.3,-0.3,760,0,,,,,,,,,,,,,,,,,,,
8724387,1506798015556,,,,,7,,,0.02,0.09,0.98,-3.0,-0.3,-0.3,760,0,0,0,0.0,0,35.489567,-119.543999,0.0,2.778,246.8,10,3,1.5,41,2.4667,0,0.0,6.5099,4.1767,42
8724406,1506798015575,,,,,,,,0.02,0.09,0.97,-3.0,-0.3,-0.2,760,0,,,,,,,,,,,,,,,,,,,
8724426,1506798015594,,,,,,,,0.02,0.1,0.97,-3.1,-0.3,-0.1,760,0,,,,,,,,,,,,,,,,,,,
8724446,1506798015614,,,,,,,,0.02,0.11,0.97,-3.1,-0.4,-0.1,780,0,,,,,,,,,,,,,,,,,,,
8724466,1506798015634,,,,,,,,0.02,0.1,0.98,-3.1,-0.3,-0.3,780,0,,,,,,,,,,,,,,,,,,,
8724488,1506798015656,0,224.1,,214.0,8,222.6,,0.02,0.1,0.98,-3.1,-0.3,-0.3,780,0,0,0,0.0,0,35.489567,-119.543999,0.0,2.778,246.8,10,3,1.5,41,2.4667,0,0.0,6.5116,4.1783,42
8724507,1506798015675,,,,,,,,0.02,0.1,0.97,-3.1,-0.4,-0.2,780,0,,,,,,,,,,,,,,,,,,,
8724527,1506798015695,,,,,,,,0.03,0.1,0.97,-3.1,-0.3,-0.1,780,0,,,,,,,,,,,,,,,,,,,
8724547,1506798015715,,,,,,,,0.02,0.1,0.98,-3.1,-0.3,-0.2,780,0,,,,,,,,,,,,,,,,,,,
8724567,1506798015735,,,,,,,,0.02,0.1,0.98,-3.0,-0.3,-0.2,800,0,,,,,,,,,,,,,,,,,,,
8724589,1506798015757,,,,,10,,,0.02,0.09,0.97,-3.0,-0.3,-0.3,800,0,0,0,0.0,0,35.489567,-119.543999,0.0,2.778,246.8,10,3,1.5,41,2.4667,0,0.0,6.5133,4.18,42
8724608,1506798015776,,,,,,,,0.02,0.09,0.96,-3.1,-0.4,-0.2,800,0,,,,,,,,,,,,,,,,,,,
8724628,1506798015796,,,,,,,,0.02,0.1,0.96,-3.1,-0.3,-0.1,800,0,,,,,,,,,,,,,,,,,,,
8724648,1506798015816,,,,,,,,0.02,0.11,0.97,-3.1,-0.4,-0.1,800,0,,,,,,,,,,,,,,,,,,,
8724668,1506798015836,,,,,,,,0.02,0.1,0.97,-3.0,-0.4,-0.2,820,0,,,,,,,,,,,,,,,,,,,
8724690,1506798015858,0,225.1,,214.7,9,222.7,,0.02,0.1,0.97,-3.0,-0.4,-0.3,820,0,0,0,0.0,0,35.489567,-119.543999,0.0,2.778,246.8,10,3,1.5,41,2.4667,0,0.0,6.5149,4.1817,42
8724709,1506798015877,,,,,,,,0.02,0.09,0.96,-3.0,-0.4,-0.4,820,0,,,,,,,,,,,,,,,,,,,
8724729,1506798015893,,,,,,,,0.02,0.09,0.96,-3.0,-0.4,-0.3,820,0,,,,,,,,,,,,,,,,,,,
8724749,1506798015913,,,,,,,,0.03,0.09,0.97,-3.0,-0.3,-0.2,820,0,,,,,,,,,,,,,,,,,,,
8724769,1506798015933,,,,,,,,0.03,0.1,0.97,-3.0,-0.3,-0.1,840,0,,,,,,,,,,,,,,,,,,,
8724791,1506798015955,,,,,9,,,0.03,0.1,0.98,-3.0,-0.2,-0.2,840,0,0,0,0.0,0,35.489567,-119.543999,0.0,2.778,246.8,10,3,1.5,41,2.4667,0,0.0,6.5166,4.1833,42
8724810,1506798015974,,,,,,,,0.03,0.1,0.98,-3.0,-0.3,-0.3,840,0,,,,,,,,,,,,,,,,,,,
8724830,1506798015994,,,,,,,,0.02,0.09,0.98,-3.0,-0.4,-0.4,840,0,,,,,,,,,,,,,,,,,,,
8724850,1506798016010,,,,,,,,0.02,0.08,0.97,-3.0,-0.4,-0.4,840,0,,,,,,,,,,,,,,,,,,,
8724870,1506798016030,,,,,,,,0.03,0.09,0.97,-3.0,-0.4,-0.2,860,0,,,,,,,,,,,,,,,,,,,
8724892,1506798016052,0,225.1,2.3,215.1,9,223.4,14.01,0.03,0.09,0.97,-3.1,-0.3,-0.1,860,0,0,0,0.0,0,35.489567,-119.543999,0.0,2.778,246.8,10,3,1.5,41,2.4667,0,0.0,6.5182,4.185,42
8724911,1506798016071,,,,,,,,0.03,0.1,0.98,-3.1,-0.2,-0.0,860,0,,,,,,,,,,,,,,,,,,,
8724931,1506798016099,,,,,,,,0.03,0.1,0.98,-3.1,-0.2,-0.1,860,0,,,,,,,,,,,,,,,,,,,
8724951,1506798016119,,,,,,,,0.03,0.1,0.98,-3.1,-0.3,-0.2,880,0,,,,,,,,,,,,,,,,,,,
8724971,1506798016139,,,,,,,,0.03,0.1,0.98,-3.0,-0.3,-0.3,880,0,,,,,,,,,,,,,,,,,,,
8724993,1506798016161,,,,,10,,,0.02,0.09,0.98,-3.0,-0.3,-0.4,880,0,0,0,0.0,0,35.489567,-119.543999,0.0,2.778,246.8,10,3,1.5,41,2.4667,0,0.0,6.52,4.1867,42
8725012,1506798016180,,,,,,,,0.02,0.08,0.97,-3.0,-0.3,-0.4,880,0,,,,,,,,,,,,,,,,,,,
8725032,1506798016202,,,,,,,,0.02,0.08,0.97,-3.0,-0.3,-0.3,900,0,,,,,,,,,,,,,,,,,,,
8725052,1506798016222,,,,,,,,0.02,0.08,0.97,-3.1,-0.3,-0.1,900,0,,,,,,,,,,,,,,,,,,,
8725072,1506798016242,,,,,,,,0.02,0.09,0.97,-3.1,-0.3,-0.1,900,0,,,,,,,,,,,,,,,,,,,
8725094,1506798016264,0,224.7,,214.9,11,223.1,,0.02,0.11,0.97,-3.1,-0.3,-0.0,900,0,0,0,0.0,0,35.489567,-119.543999,0.0,2.778,246.8,10,3,1.5,41,2.4667,0,0.0,6.5217,4.1883,42
8725113,1506798016283,,,,,,,,0.02,0.11,0.98,-3.1,-0.2,-0.0,900,0,,,,,,,,,,,,,,,,,,,
8725133,1506798016303,,,,,,,,0.03,0.11,0.98,-3.1,-0.2,-0.0,900,0,,,,,,,,,,,,,,,,,,,
8725153,1506798016323,,,,,,,,0.03,0.12,0.98,-3.1,-0.3,-0.1,900,0,,,,,,,,,,,,,,,,,,,
8725173,1506798016343,,,,,,,,0.02,0.12,0.98,-3.1,-0.4,-0.2,900,0,,,,,,,,,,,,,,,,,,,
8725195,1506798016365,,,,,11,,,0.02,0.1,0.99,-3.1,-0.5,-0.3,920,0,0,0,0.0,0,35.489567,-119.543999,0.0,2.778,246.8,10,3,1.5,41,2.4667,0,0.0,6.5234,4.19,42
8725214,1506798016384,,,,,,,,0.01,0.1,0.98,-3.0,-0.5,-0.4,900,0,,,,,,,,,,,,,,,,,,,
8725234,1506798016404,,,,,,,,0.01,0.09,0.98,-3.0,-0.5,-0.4,900,0,,,,,,,,,,,,,,,,,,,
8725254,1506798016424,,,,,,,,0.01,0.08,0.97,-3.0,-0.4,-0.4,920,0,,,,,,,,,,,,,,,,,,,
8725274,1506798016444,,,,,,,,0.01,0.08,0.96,-3.0,-0.3,-0.3,920,0,,,,,,,,,,,,,,,,,,,
8725296,1506798016466,1,224.5,,214.7,11,222.9,,0.02,0.08,0.96,-3.0,-0.4,-0.2,920,0,0,0,0.0,0,35.489567,-119.543999,0.0,2.778,246.8,10,3,1.5,41,2.4667,0,0.0,6.5251,4.1917,42
8725315,1506798016485,,,,,,,,0.02,0.08,0.96,-3.1,-0.4,-0.1,920,0,,,,,,,,,,,,,,,,,,,
8725335,1506798016505,,,,,,,,0.02,0.08,0.96,-3.1,-0.5,-0.0,920,0,,,,,,,,,,,,,,,,,,,
8725355,1506798016525,,,,,,,,0.01,0.1,0.97,-3.1,-0.4,0.0,920,0,,,,,,,,,,,,,,,,,,,
8725375,1506798016545,,,,,,,,0.02,0.11,0.97,-3.1,-0.2,0.0,920,0,,,,,,,,,,,,,,,,,,,
8725397,1506798016567,,,,,11,,,0.03,0.12,0.97,-3.2,-0.1,0.0,920,0,0,0,0.0,0,35.489567,-119.543999,0.0,2.778,246.8,10,3,1.5,41,2.4667,0,0.0,6.5268,4.1933,42
8725416,1506798016586,,,,,,,,0.03,0.12,0.98,-3.2,-0.2,-0.0,940,0,,,,,,,,,,,,,,,,,,,
8725436,1506798016605,,,,,,,,0.03,0.12,0.98,-3.2,-0.3,-0.1,920,0,,,,,,,,,,,,,,,,,,,
8725456,1506798016625,,,,,,,,0.03,0.12,0.98,-3.1,-0.5,-0.2,920,0,,,,,,,,,,,,,,,,,,,
8725476,1506798016645,,,,,,,,0.03,0.12,0.98,-3.1,-0.6,-0.3,920,0,,,,,,,,,,,,,,,,,,,
8725498,1506798016667,0,224.0,,214.2,10,222.3,,0.02,0.12,0.98,-3.1,-0.6,-0.3,920,0,0,0,0.0,0,35.489567,-119.543999,0.0,2.778,246.8,10,3,1.5,41,2.4667,0,0.0,6.5284,4.195,42
8725517,1506798016686,,,,,,,,0.01,0.11,0.98,-3.1,-0.6,-0.4,920,0,,,,,,,,,,,,,,,,,,,
8725537,1506798016706,,,,,,,,0.01,0.11,0.98,-3.1,-0.5,-0.4,920,0,,,,,,,,,,,,,,,,,,,
8725557,1506798016726,,,,,,,,0.01,0.09,0.97,-3.0,-0.4,-0.5,920,0,,,,,,,,,,,,,,,,,,,
8725577,1506798016746,,,,,,,,0.01,0.08,0.97,-3.0,-0.3,-0.5,920,0,,,,,,,,,,,,,,,,,,,
8725599,1506798016768,,,,,12,,,0.01,0.08,0.96,-3.0,-0.2,-0.4,920,0,0,0,0.0,0,35.489567,-119.543999,0.0,2.778,246.8,10,3,1.5,41,2.4667,0,0.0,6.5301,4.1967,42
8725618,1506798016787,,,,,,,,0.02,0.08,0.96,-3.0,-0.2,-0.4,920,0,,,,,,,,,,,,,,,,,,,
8725638,1506798016807,,,,,,,,0.01,0.08,0.96,-3.0,-0.3,-0.2,900,0,,,,,,,,,,,,,,,,,,,
8725658,1506798016827,,,,,,,,0.01,0.09,0.96,-3.1,-0.3,-0.1,900,0,,,,,,,,,,,,,,,,,,,
8725678,1506798016847,,,,,,,,0.02,0.1,0.97,-3.1,-0.2,-0.1,900,0,,,,,,,,,,,,,,,,,,,
8725700,1506798016869,0,224.4,,214.8,11,222.9,,0.02,0.11,0.97,-3.0,-0.1,-0.0,900,0,0,0,0.0,0,35.489567,-119.543999,0.0,2.778,246.8,10,3,1.5,41,2.4667,0,0.0,6.5318,4.1983,42
8725719,1506798016888,,,,,,,,0.03,0.11,0.98,-3.0,-0.0,-0.0,900,0,,,,,,,,,,,,,,,,,,,
8725739,1506798016908,,,,,,,,0.03,0.11,0.98,-3.1,-0.1,-0.0,900,0,,,,,,,,,,,,,,,,,,,
8725759,1506798016928,,,,,,,,0.03,0.11,0.98,-3.1,-0.2,-0.1,900,0,,,,,,,,,,,,,,,,,,,
8725779,1506798016948,,,,,,,,0.03,0.11,0.98,-3.0,-0.4,-0.1,900,0,,,,,,,,,,,,,,,,,,,
8725801,1506798016970,,,,,10,,,0.02,0.11,0.98,-3.0,-0.5,-0.2,880,0,0,0,0.0,0,35.489567,-119.543999,0.0,2.778,246.8,10,3,1.5,41,2.4667,0,0.0,6.5335,4.2,42
8725820,1506798016989,,,,,,,,0.02,0.11,0.98,-3.0,-0.5,-0.3,900,0,,,,,,,,,,,,,,,,,,,
8725840,1506798016999,,,,,,,,0.01,0.1,0.97,-3.0,-0.5,-0.3,880,0,,,,,,,,,,,,,,,,,,,
8725860,1506798017019,,,,,,,,0.02,0.1,0.96,-3.0,-0.4,-0.3,880,0,,,,,,,,,,,,,,,,,,,
8725880,1506798017039,,,,,,,,0.02,0.09,0.96,-3.0,-0.3,-0.2,880,0,,,,,,,,,,,,,,,,,,,
8725902,1506798017061,0,223.9,1.8,214.2,9,222.4,13.95,0.02,0.09,0.96,-3.1,-0.3,-0.1,880,0,0,0,0.0,0,35.489567,-119.543999,0.0,2.778,246.8,10,3,1.5,41,2.4667,0,0.0,6.535,4.2017,42
8725921,1506798017080,,,,,,,,0.02,0.09,0.96,-3.1,-0.3,-0.0,860,0,,,,,,,,,,,,,,,,,,,
8725941,1506798017108,,,,,,,,0.02,0.11,0.97,-3.1,-0.3,0.0,860,0,,,,,,,,,,,,,,,,,,,
8725961,1506798017128,,,,,,,,0.02,0.11,0.97,-3.1,-0.4,-0.0,860,0,,,,,,,,,,,,,,,,,,,
8725981,1506798017148,,,,,,,,0.02,0.11,0.98,-3.1,-0.4,-0.1,860,0,,,,,,,,,,,,,,,,,,,
8726003,1506798017170,,,,,11,,,0.02,0.11,0.98,-3.1,-0.4,-0.2,860,0,0,0,0.0,0,35.489567,-119.543999,0.0,2.778,246.8,10,3,1.5,41,2.4667,0,0.0,6.5368,4.2033,42
8726022,1506798017191,,,,,,,,0.02,0.09,0.97,-3.0,-0.4,-0.3,860,0,,,,,,,,,,,,,,,,,,,
8726042,1506798017211,,,,,,,,0.02,0.09,0.97,-3.0,-0.4,-0.3,840,0,,,,,,,,,,,,,,,,,,,
8726062,1506798017231,,,,,,,,0.02,0.09,0.97,-3.1,-0.3,-0.2,840,0,,,,,,,,,,,,,,,,,,,
8726082,1506798017251,,,,,,,,0.03,0.09,0.96,-3.1,-0.3,-0.1,860,0,,,,,,,,,,,,,,,,,,,
8726104,1506798017273,0,224.3,,214.5,9,222.1,,0.03,0.11,0.97,-3.1,-0.2,-0.1,840,0,0,0,0.0,0,35.489567,-119.543999,0.0,2.778,246.8,10,3,1.5,41,2.4667,0,0.0,6.5385,4.205,42
8726123,1506798017292,,,,,,,,0.03,0.11,0.97,-3.2,-0.3,-0.1,840,0,,,,,,,,,,,,,,,,,,,
8726143,1506798017312,,,,,,,,0.02,0.1,0.98,-3.1,-0.3,-0.2,840,0,,,,,,,,,,,,,,,,,,,
8726163,1506798017332,,,,,,,,0.02,0.1,0.98,-3.1,-0.3,-0.3,840,0,,,,,,,,,,,,,,,,,,,
8726183,1506798017352,,,,,,,,0.02,0.09,0.97,-3.1,-0.4,-0.3,820,0,,,,,,,,,,,,,,,,,,,
8726205,1506798017374,,,,,10,,,0.02,0.09,0.96,-3.1,-0.3,-0.2,820,0,0,0,0.0,0,35.489567,-119.543999,0.0,2.778,246.8,10,3,1.5,41,2.4667,0,0.0,6.5402,4.2067,42
8726224,1506798017393,,,,,,,,0.03,0.09,0.96,-3.2,-0.2,-0.0,840,0,,,,,,,,,,,,,,,,,,,
8726244,1506798017413,,,,,,,,0.03,0.1,0.97,-3.2,-0.2,0.0,820,0,,,,,,,,,,,,,,,,,,,
8726264,1506798017433,,,,,,,,0.03,0.1,0.98,-3.2,-0.2,-0.0,820,0,,,,,,,,,,,,,,,,,,,
8726284,1506798017453,,,,,,,,0.02,0.1,0.98,-3.2,-0.3,-0.2,820,0,,,,,,,,,,,,,,,,,,,
8726306,1506798017475,0,223.9,,214.6,9,222.5,,0.01,0.09,0.98,-3.2,-0.3,-0.2,800,0,0,0,0.0,0,35.489567,-119.543999,0.0,2.778,246.8,10,3,1.5,41,2.4667,0,0.0,6.5419,4.2083,42
8726325,1506798017494,,,,,,,,0.02,0.09,0.98,-3.2,-0.3,-0.1,800,0,,,,,,,,,,,,,,,,,,,
8726345,1506798017514,,,,,,,,0.02,0.09,0.97,-3.2,-0.3,-0.0,800,0,,,,,,,,,,,,,,,,,,,
8726365,1506798017534,,,,,,,,0.02,0.1,0.97,-3.2,-0.3,0.0,800,0,,,,,,,,,,,,,,,,,,,
8726385,1506798017554,,,,,,,,0.02,0.1,0.98,-3.2,-0.4,-0.1,800,0,,,,,,,,,,,,,,,,,,,
8726407,1506798017576,,,,,9,,,0.01,0.09,0.99,-3.1,-0.5,-0.2,800,0,0,0,0.0,0,35.489567,-119.543999,0.0,2.778,246.8,10,3,1.5,41,2.4667,0,0.0,6.5436,4.21,42
8726426,1506798017594,,,,,,,,0.01,0.09,0.99,-3.1,-0.4,-0.3,800,0,,,,,,,,,,,,,,,,,,,
8726446,1506798017614,,,,,,,,0.02,0.09,0.98,-3.2,-0.3,-0.1,800,0,,,,,,,,,,,,,,,,,,,
8726466,1506798017634,,,,,,,,0.02,0.1,0.98,-3.2,-0.3,-0.1,780,0,,,,,,,,,,,,,,,,,,,
8726486,1506798017654,,,,,,,,0.02,0.1,0.98,-3.2,-0.2,-0.1,780,0,,,,,,,,,,,,,,,,,,,
8726508,1506798017676,0,224.8,,214.8,9,222.5,,0.01,0.09,0.98,-3.1,-0.3,-0.2,780,0,0,0,0.0,0,35.489567,-119.543999,0.0,2.778,246.8,10,3,1.5,41,2.4667,0,0.0,6.5452,4.2117,42
8726527,1506798017695,,,,,,,,0.01,0.09,0.99,-3.1,-0.3,-0.3,780,0,,,,,,,,,,,,,,,,,,,
8726547,1506798017715,,,,,,,,0.01,0.09,0.98,-3.2,-0.2,-0.1,780,0,,,,,,,,,,,,,,,,,,,
8726567,1506798017735,,,,,,,,0.02,0.1,0.97,-3.2,-0.2,-0.0,780,0,,,,,,,,,,,,,,,,,,,
8726587,1506798017755,,,,,,,,0.02,0.1,0.98,-3.2,-0.2,-0.1,780,0,,,,,,,,,,,,,,,,,,,
8726609,1506798017777,,,,,9,,,0.01,0.09,0.98,-3.2,-0.3,-0.2,760,0,0,0,0.0,0,35.489567,-119.543999,0.0,2.778,246.8,10,3,1.5,41,2.4667,0,0.0,6.5469,4.2133,42
8726628,1506798017796,,,,,,,,0.01,0.09,0.98,-3.2,-0.3,-0.2,760,0,,,,,,,,,,,,,,,,,,,
8726648,1506798017816,,,,,,,,0.01,0.1,0.98,-3.2,-0.2,-0.0,760,0,,,,,,,,,,,,,,,,,,,
8726668,1506798017836,,,,,,,,0.02,0.1,0.97,-3.2,-0.3,0.0,760,0,,,,,,,,,,,,,,,,,,,
8726688,1506798017856,,,,,,,,0.01,0.1,0.98,-3.2,-0.3,-0.1,760,0,,,,,,,,,,,,,,,,,,,
8726710,1506798017878,0,224.2,,214.3,8,222.0,,0.0,0.09,0.98,-3.2,-0.4,-0.2,760,0,0,0,0.0,0,35.489567,-119.543999,0.0,2.778,246.8,10,3,1.5,41,2.4667,0,0.0,6.5486,4.215,42
8726729,1506798017899,,,,,,,,0.01,0.09,0.98,-3.2,-0.4,-0.2,760,0,,,,,,,,,,,,,,,,,,,
8726749,1506798017919,,,,,,,,0.01,0.1,0.98,-3.2,-0.3,-0.0,760,0,,,,,,,,,,,,,,,,,,,
8726769,1506798017939,,,,,,,,0.01,0.09,0.98,-3.3,-0.3,-0.0,760,0,,,,,,,,,,,,,,,,,,,
8726789,1506798017959,,,,,,,,0.0,0.08,0.98,-3.2,-0.4,-0.2,740,0,,,,,,,,,,,,,,,,,,,
8726811,1506798017981,,,,,8,,,0.0,0.08,0.98,-3.3,-0.3,-0.1,740,0,0,0,0.0,0,35.489567,-119.543999,0.0,2.778,246.8,10,3,1.5,41,2.4667,0,0.0,6.5503,4.2167,42
8726830,1506798018000,,,,,,,,0.01,0.1,0.97,-3.4,-0.3,0.0,760,0,,,,,,,,,,,,,,,,,,,
8726850,1506798018010,,,,,,,,0.01,0.1,0.97,-3.4,-0.3,0.1,740,0,,,,,,,,,,,,,,,,,,,
8726870,1506798018030,,,,,,,,0.01,0.1,0.98,-3.4,-0.3,-0.0,740,0,,,,,,,,,,,,,,,,,,,
8726890,1506798018050,,,,,,,,0.0,0.1,0.98,-3.4,-0.3,-0.1,740,0,,,,,,,,,,,,,,,,,,,
8726912,1506798018072,0,223.7,1.4,214.6,8,222.4,13.89,0.01,0.11,0.98,-3.4,-0.2,0.0,740,0,0,0,0.0,0,35.489567,-119.543999,0.0,2.778,246.8,10,3,1.5,41,2.4667,0,0.0,6.5518,4.2183,42
8726931,1506798018099,,,,,,,,0.0,0.11,0.97,-3.5,-0.2,0.1,740,0,,,,,,,,,,,,,,,,,,,
8726951,1506798018119,,,,,,,,-0.0,0.1,0.98,-3.4,-0.3,-0.1,740,0,,,,,,,,,,,,,,,,,,,
8726971,1506798018139,,,,,,,,-0.0,0.1,0.98,-3.5,-0.4,-0.1,740,2,,,,,,,,,,,,,,,,,,,
8726991,1506798018159,,,,,,,,0.0,0.11,0.97,-3.5,-0.2,0.0,740,2,,,,,,,,,,,,,,,,,,,
8727013,1506798018181,,,,,8,,,0.0,0.1,0.97,-3.5,-0.2,0.0,740,2,0,0,0.0,0,35.489567,-119.543999,0.0,2.778,246.8,10,3,1.5,41,2.4667,0,0.0,6.5537,4.22,42
8727032,1506798018202,,,,,,,,0.0,0.1,0.98,-3.5,-0.3,-0.1,740,2,,,,,,,,,,,,,,,,,,,
8727052,1506798018222,,,,,,,,0.0,0.1,0.98,-3.4,-0.3,-0.2,740,2,,,,,,,,,,,,,,,,,,,
8727072,1506798018242,,,,,,,,0.0,0.1,0.98,-3.5,-0.2,-0.0,740,9,,,,,,,,,,,,,,,,,,,
8727092,1506798018262,,,,,,,,0.0,0.11,0.97,-3.5,-0.3,-0.0,740,9,,,,,,,,,,,,,,,,,,,
8727114,1506798018284,0,224.5,,215.1,8,222.8,,0.01,0.11,0.98,-3.5,-0.4,-0.1,740,9,0,0,740.0,0,35.489567,-119.543999,0.0,2.778,246.8,10,3,1.5,41,2.4667,0,0.0,6.5554,4.2217,42
8727133,1506798018299,,,,,,,,0.0,0.1,0.98,-3.5,-0.3,-0.3,740,9,,,,,,,,,,,,,,,,,,,
8727153,1506798018319,,,,,,,,0.01,0.1,0.97,-3.6,-0.2,-0.1,760,17,,,,,,,,,,,,,,,,,,,
8727173,1506798018339,,,,,,,,0.01,0.11,0.97,-3.6,-0.3,-0.1,740,17,,,,,,,,,,,,,,,,,,,
8727193,1506798018359,,,,,,,,0.01,0.11,0.98,-3.6,-0.3,-0.1,760,17,,,,,,,,,,,,,,,,,,,
8727215,1506798018381,,,,,9,,,0.01,0.1,0.98,-3.6,-0.3,-0.2,760,17,0,0,82.222,0,35.489567,-119.543999,0.0,2.778,246.8,10,3,1.5,41,2.4667,0,0.0,6.557,4.2233,42
8727234,1506798018402,,,,,,,,0.0,0.09,0.98,-3.7,-0.3,-0.3,760,17,,,,,,,,,,,,,,,,,,,
8727254,1506798018422,,,,,,,,0.01,0.11,0.97,-3.8,-0.2,-0.0,760,17,,,,,,,,,,,,,,,,,,,
8727274,1506798018442,,,,,,,,0.01,0.11,0.97,-3.8,-0.1,0.0,760,17,,,,,,,,,,,,,,,,,,,
8727294,1506798018462,,,,,,,,0.01,0.11,0.98,-3.9,-0.2,-0.1,780,17,,,,,,,,,,,,,,,,,,,
8727316,1506798018484,0,224.6,,214.8,9,222.4,,0.0,0.11,0.98,-3.9,-0.1,-0.3,780,18,0,0,47.5,0,35.489567,-119.543999,0.0,2.778,246.8,10,3,1.5,41,2.4667,0,0.0,6.5587,4.225,42
8727335,1506798018505,,,,,,,,0.0,0.11,0.97,-4.0,-0.1,-0.1,760,18,,,,,,,,,,,,,,,,,,,
8727355,1506798018525,,,,,,,,0.01,0.11,0.97,-4.0,-0.1,-0.0,780,18,,,,,,,,,,,,,,,,,,,
8727375,1506798018545,,,,,,,,0.01,0.11,0.98,-4.0,-0.1,-0.0,780,18,,,,,,,,,,,,,,,,,,,
8727395,1506798018565,,,,,,,,-0.0,0.1,0.98,-4.0,-0.3,-0.2,780,37,,,,,,,,,,,,,,,,,,,
8727417,1506798018587,,,,,8,,,-0.0,0.1,0.98,-4.1,-0.1,-0.2,780,37,0,0,42.222,0,35.489567,-119.543999,0.0,2.778,246.8,10,3,1.5,41,2.4667,0,0.0,6.5604,4.2267,42
8727436,1506798018605,,,,,,,,-0.0,0.11,0.97,-4.2,-0.2,-0.0,780,22,,,,,,,,,,,,,,,,,,,
8727456,1506798018625,,,,,,,,0.01,0.11,0.97,-4.3,-0.2,0.1,780,22,,,,,,,,,,,,,,,,,,,
8727476,1506798018645,,,,,,,,0.01,0.12,0.98,-4.3,-0.1,0.0,780,22,,,,,,,,,,,,,,,,,,,
8727496,1506798018665,,,,,,,,-0.01,0.11,0.98,-4.3,-0.3,-0.2,780,22,,,,,,,,,,,,,,,,,,,
8727518,1506798018687,0,223.6,,214.1,9,221.8,,-0.01,0.11,0.98,-4.4,-0.3,-0.2,780,22,0,0,37.143,0,35.489567,-119.543999,0.0,2.778,246.8,10,3,1.5,41,2.4667,0,0.0,6.5621,4.2283,42
8727537,1506798018706,,,,,,,,-0.0,0.11,0.97,-4.5,-0.2,-0.0,780,22,,,,,,,,,,,,,,,,,,,
8727557,1506798018726,,,,,,,,0.0,0.12,0.97,-4.5,-0.3,0.1,780,38,,,,,,,,,,,,,,,,,,,
8727577,1506798018746,,,,,,,,0.0,0.12,0.99,-4.6,-0.2,-0.0,780,38,,,,,,,,,,,,,,,,,,,
8727597,1506798018766,,,,,,,,-0.01,0.11,0.98,-4.6,-0.4,-0.2,780,25,,,,,,,,,,,,,,,,,,,
8727619,1506798018788,,,,,9,,,-0.01,0.11,0.98,-4.7,-0.4,-0.3,780,25,0,0,37.143,0,35.489567,-119.543999,0.0,2.778,246.8,10,3,1.5,41,2.4667,0,0.0,6.5638,4.23,42
8727638,1506798018807,,,,,,,,-0.01,0.11,0.97,-4.8,-0.3,-0.0,780,42,,,,,,,,,,,,,,,,,,,
8727658,1506798018827,,,,,,,,-0.0,0.11,0.97,-4.9,-0.3,0.1,780,42,,,,,,,,,,,,,,,,,,,
8727678,1506798018847,,,,,,,,-0.0,0.12,0.98,-4.9,-0.1,-0.0,780,29,,,,,,,,,,,,,,,,,,,
8727698,1506798018867,,,,,,,,-0.02,0.11,0.98,-4.9,-0.3,-0.2,780,29,,,,,,,,,,,,,,,,,,,
8727720,1506798018889,0,224.4,,214.9,8,222.4,,-0.02,0.1,0.98,-5.0,-0.3,-0.3,780,46,0,0,32.5,0,35.489567,-119.543999,0.0,2.778,246.8,10,3,1.5,41,2.4667,0,0.0,6.5655,4.2317,42
8727739,1506798018908,,,,,,,,-0.01,0.11,0.98,-5.1,-0.3,-0.1,780,46,,,,,,,,,,,,,,,,,,,
8727759,1506798018928,,,,,,,,-0.0,0.11,0.97,-5.1,-0.4,0.0,780,29,,,,,,,,,,,,,,,,,,,
8727779,1506798018948,,,,,,,,-0.0,0.12,0.98,-5.2,-0.2,-0.0,780,29,,,,,,,,,,,,,,,,,,,
8727799,1506798018968,,,,,,,,-0.02,0.11,0.99,-5.3,-0.4,-0.2,780,55,,,,,,,,,,,,,,,,,,,
8727821,1506798018990,,,,,10,,,-0.01,0.11,0.98,-5.4,-0.4,-0.2,780,55,0,0,16.957,0,35.489567,-119.543999,0.0,2.778,246.8,10,3,1.5,41,2.4667,0,0.0,6.5672,4.2333,42
8727840,1506798019001,,,,,,,,-0.01,0.12,0.98,-5.5,-0.2,0.0,780,29,,,,,,,,,,,,,,,,,,,
8727860,1506798019021,,,,,,,,-0.01,0.12,0.97,-5.5,-0.4,0.1,760,60,,,,,,,,,,,,,,,,,,,
8727880,1506798019041,,,,,,,,-0.01,0.11,0.98,-5.5,-0.4,-0.1,760,60,,,,,,,,,,,,,,,,,,,
8727900,1506798019061,,,,,,,,-0.02,0.1,0.98,-5.6,-0.4,-0.2,760,60,,,,,,,,,,,,,,,,,,,
8727922,1506798019083,0,223.8,1.1,214.7,8,222.5,13.95,-0.01,0.1,0.97,-5.7,-0.5,-0.1,760,40,0,0,14.182,0,35.489567,-119.543999,0.0,2.778,246.8,10,3,1.5,41,2.4667,0,0.0,6.5687,4.235,42
8727941,1506798019108,,,,,,,,-0.01,0.12,0.97,-5.8,-0.3,0.0,740,42,,,,,,,,,,,,,,,,,,,
8727961,1506798019128,,,,,,,,-0.01,0.12,0.98,-5.8,-0.4,0.0,740,66,,,,,,,,,,,,,,,,,,,
8727981,1506798019148,,,,,,,,-0.02,0.12,0.99,-5.9,-0.5,-0.2,760,66,,,,,,,,,,,,,,,,,,,
8728001,1506798019168,,,,,,,,-0.01,0.11,0.99,-6.0,-0.3,-0.2,760,38,,,,,,,,,,,,,,,,,,,
8728023,1506798019190,,,,,8,,,-0.01,0.12,0.97,-6.1,-0.2,-0.0,740,55,0,0,19.0,0,35.489567,-119.543999,0.0,2.778,246.8,10,3,1.5,41,2.4667,0,0.0,6.5705,4.2367,42
8728042,1506798019209,,,,,,,,-0.01,0.12,0.97,-6.2,-0.3,0.0,720,55,,,,,,,,,,,,,,,,,,,
8728062,1506798019229,,,,,,,,-0.01,0.11,0.98,-6.3,-0.3,-0.1,740,65,,,,,,,,,,,,,,,,,,,
8728082,1506798019249,,,,,,,,-0.02,0.12,0.97,-6.4,-0.4,-0.1,740,43,,,,,,,,,,,,,,,,,,,
8728102,1506798019269,,,,,,,,-0.02,0.12,0.97,-6.5,-0.4,0.0,720,58,,,,,,,,,,,,,,,,,,,
8728124,1506798019293,0,223.7,,214.2,8,221.8,,-0.01,0.13,0.97,-6.6,-0.4,0.0,720,58,0,0,13.455,0,35.489567,-119.543999,0.0,2.778,246.8,10,3,1.5,41,2.4667,0,0.0,6.5722,4.24,42
8728143,1506798019312,,,,,,,,-0.02,0.11,0.98,-6.7,-0.4,-0.1,720,66,,,,,,,,,,,,,,,,,,,
8728163,1506798019332,,,,,,,,-0.02,0.11,0.99,-6.8,-0.5,-0.1,720,52,,,,,,,,,,,,,,,,,,,
8728183,1506798019352,,,,,,,,-0.01,0.13,0.98,-6.9,-0.4,0.1,720,58,,,,,,,,,,,,,,,,,,,
8728203,1506798019372,,,,,,,,-0.01,0.13,0.98,-7.0,-0.3,-0.0,700,68,,,,,,,,,,,,,,,,,,,
8728225,1506798019396,,,,,9,,,-0.01,0.12,0.98,-7.1,-0.1,-0.1,700,68,0,0,12.414,0,35.489574,-119.544014,1.13,2.778,246.9,10,3,1.5,41,2.4667,0,0.0,6.5745,4.2417,42
8728244,1506798019415,,,,,,,,-0.02,0.12,0.99,-7.3,-0.2,-0.0,700,58,,,,,,,,,,,,,,,,,,,
8728264,1506798019435,,,,,,,,-0.02,0.13,0.97,-7.4,-0.3,0.1,700,60,,,,,,,,,,,,,,,,,,,
8728284,1506798019455,,,,,,,,-0.02,0.13,0.98,-7.5,-0.5,-0.0,700,71,,,,,,,,,,,,,,,,,,,
8728304,1506798019475,,,,,,,,-0.01,0.13,0.98,-7.7,-0.4,-0.0,700,69,,,,,,,,,,,,,,,,,,,
8728326,1506798019497,0,223.1,,214.1,8,222.0,,-0.01,0.14,0.98,-7.9,-0.2,0.1,700,63,0,0,10.448,0,35.489574,-119.544014,1.2,2.778,246.8,10,3,1.6,41,2.4667,0,0.0,6.5762,4.2433,42
8728345,1506798019516,,,,,,,,-0.01,0.14,0.97,-8.0,-0.2,0.0,680,68,,,,,,,,,,,,,,,,,,,
8728365,1506798019536,,,,,,,,-0.02,0.14,0.99,-8.1,-0.2,-0.1,680,72,,,,,,,,,,,,,,,,,,,
8728385,1506798019556,,,,,,,,-0.03,0.14,0.98,-8.4,-0.4,-0.0,680,72,,,,,,,,,,,,,,,,,,,
8728405,1506798019576,,,,,,,,-0.02,0.15,0.97,-8.5,-0.6,0.0,680,71,,,,,,,,,,,,,,,,,,,
8728427,1506798019597,,,,,8,,,-0.03,0.14,0.97,-8.6,-0.6,-0.2,680,69,0,0,11.111,0,35.489574,-119.544014,1.38,2.778,246.7,10,3,1.6,41,2.4667,0,0.0,6.5778,4.245,42
8728446,1506798019616,,,,,,,,-0.02,0.14,0.98,-8.8,-0.6,-0.1,680,72,,,,,,,,,,,,,,,,,,,
8728466,1506798019636,,,,,,,,-0.01,0.15,0.97,-8.9,-0.5,-0.0,680,75,,,,,,,,,,,,,,,,,,,
8728486,1506798019656,,,,,,,,-0.01,0.14,0.97,-9.1,-0.6,-0.2,680,72,,,,,,,,,,,,,,,,,,,
8728506,1506798019676,,,,,,,,-0.01,0.13,0.98,-9.2,-0.5,-0.2,680,72,,,,,,,,,,,,,,,,,,,
8728528,1506798019698,0,223.0,,214.2,7,221.8,,-0.01,0.14,0.97,-9.4,-0.3,-0.1,660,78,0,0,9.444,0,35.489574,-119.543999,1.28,2.778,246.6,10,3,1.6,41,2.4667,0,0.0,6.5789,4.2467,42
8728547,1506798019717,,,,,,,,-0.02,0.14,0.97,-9.5,-0.2,-0.2,660,80,,,,,,,,,,,,,,,,,,,
8728567,1506798019737,,,,,,,,-0.02,0.12,0.97,-9.7,-0.1,-0.3,660,75,,,,,,,,,,,,,,,,,,,
8728587,1506798019757,,,,,,,,-0.02,0.13,0.97,-9.8,0.0,-0.2,680,83,,,,,,,,,,,,,,,,,,,
8728607,1506798019777,,,,,,,,-0.02,0.13,0.97,-10.0,-0.1,-0.2,680,86,,,,,,,,,,,,,,,,,,,
8728629,1506798019799,,,,,7,,,-0.03,0.13,0.98,-10.1,0.1,-0.3,680,82,0,0,8.25,0,35.489574,-119.543999,1.45,2.778,246.5,10,3,1.6,41,2.4667,0,0.0,6.5806,4.2483,42
8728648,1506798019818,,,,,,,,-0.03,0.14,0.97,-10.3,-0.1,-0.2,680,78,,,,,,,,,,,,,,,,,,,
8728668,1506798019838,,,,,,,,-0.03,0.13,0.97,-10.4,-0.3,-0.1,680,85,,,,,,,,,,,,,,,,,,,
8728688,1506798019858,,,,,,,,-0.04,0.13,0.97,-10.5,-0.4,-0.3,680,94,,,,,,,,,,,,,,,,,,,
8728708,1506798019878,,,,,,,,-0.04,0.14,0.98,-10.8,-0.5,-0.2,680,94,,,,,,,,,,,,,,,,,,,
8728730,1506798019900,0,222.9,,214.2,7,221.8,,-0.04,0.14,0.97,-10.9,-0.5,-0.1,680,86,0,0,8.395,0,35.489574,-119.543999,1.41,2.778,246.4,10,3,1.6,41,2.4667,0,0.0,6.5823,4.25,42
8728749,1506798019919,,,,,,,,-0.04,0.13,0.97,-11.0,-0.7,-0.2,680,91,,,,,,,,,,,,,,,,,,,
8728769,1506798019939,,,,,,,,-0.04,0.13,0.98,-11.2,-0.8,-0.1,680,100,,,,,,,,,,,,,,,,,,,
8728789,1506798019959,,,,,,,,-0.03,0.15,0.97,-11.3,-0.7,-0.0,680,100,,,,,,,,,,,,,,,,,,,
8728809,1506798019979,,,,,,,,-0.02,0.14,0.96,-11.5,-0.7,-0.1,680,92,,,,,,,,,,,,,,,,,,,
8728831,1506798019993,,,,,7,,,-0.02,0.13,0.98,-11.6,-0.5,-0.1,680,94,0,0,8.193,0,35.489578,-119.543999,1.7,2.778,246.4,10,3,1.6,41,2.4667,0,0.0,6.5838,4.2517,42
8728850,1506798020012,,,,,,,,-0.02,0.14,0.98,-11.8,-0.3,0.0,680,105,,,,,,,,,,,,,,,,,,,
8728870,1506798020032,,,,,,,,-0.02,0.14,0.97,-11.9,-0.4,0.0,680,108,,,,,,,,,,,,,,,,,,,
8728890,1506798020052,,,,,,,,-0.03,0.14,0.98,-12.1,-0.3,-0.1,680,91,,,,,,,,,,,,,,,,,,,
8728910,1506798020072,,,,,,,,-0.03,0.15,0.98,-12.3,-0.4,0.0,680,92,,,,,,,,,,,,,,,,,,,
8728932,1506798020102,0,223.9,0.9,214.9,9,222.0,13.6,-0.03,0.14,0.97,-12.5,-0.5,0.1,680,103,0,0,7.312,0,35.489578,-119.543999,1.75,2.778,246.3,10,3,1.6,41,2.4667,0,0.0,6.5856,4.2533,42
8728951,1506798020121,,,,,,,,-0.03,0.13,0.97,-12.6,-0.6,-0.1,680,112,,,,,,,,,,,,,,,,,,,
8728971,1506798020141,,,,,,,,-0.03,0.14,0.98,-12.7,-0.6,-0.0,680,105,,,,,,,,,,,,,,,,,,,
8728991,1506798020161,,,,,,,,-0.02,0.15,0.97,-13.0,-0.6,0.1,680,100,,,,,,,,,,,,,,,,,,,
8729011,1506798020181,,,,,,,,-0.03,0.14,0.97,-13.1,-0.8,-0.0,680,111,,,,,,,,,,,,,,,,,,,
8729033,1506798020203,,,,,8,,,-0.02,0.13,0.98,-13.3,-0.5,-0.1,680,118,0,0,6.071,0,35.489578,-119.543999,1.93,2.779,246.2,10,3,1.6,41,2.4667,0,0.0,6.5873,4.255,42
8729052,1506798020222,,,,,,,,-0.03,0.14,0.98,-13.5,-0.3,-0.0,680,109,,,,,,,,,,,,,,,,,,,
8729072,1506798020242,,,,,,,,-0.02,0.14,0.97,-13.6,-0.4,-0.1,680,100,,,,,,,,,,,,,,,,,,,
8729092,1506798020262,,,,,,,,-0.03,0.13,0.98,-13.8,-0.3,-0.2,680,112,,,,,,,,,,,,,,,,,,,
8729112,1506798020282,,,,,,,,-0.04,0.14,0.98,-14.0,-0.4,-0.1,660,122,,,,,,,,,,,,,,,,,,,
8729134,1506798020304,0,222.6,,213.8,7,221.4,,-0.04,0.14,0.98,-14.1,-0.4,-0.1,660,117,0,0,5.763,0,35.489578,-119.543999,2.02,2.779,246.1,10,3,1.6,41,2.4667,0,0.0,6.589,4.2567,42
8729153,1506798020323,,,,,,,,-0.05,0.13,0.98,-14.3,-0.5,-0.2,660,108,,,,,,,,,,,,,,,,,,,
8729173,1506798020343,,,,,,,,-0.04,0.14,0.99,-14.5,-0.6,-0.2,640,114,,,,,,,,,,,,,,,,,,,
8729193,1506798020363,,,,,,,,-0.05,0.13,0.98,-14.6,-0.7,-0.1,660,134,,,,,,,,,,,,,,,,,,,
8729213,1506798020383,,,,,,,,-0.05,0.13,0.98,-14.7,-0.9,-0.2,660,131,,,,,,,,,,,,,,,,,,,
8729235,1506798020405,,,,,6,,,-0.04,0.15,0.99,-14.8,-0.9,-0.2,640,112,0,0,5.69,0,35.489578,-119.543999,2.31,2.779,246.1,10,3,1.5,41,2.4667,0,0.0,6.5907,4.2583,42
8729254,1506798020424,,,,,,,,-0.04,0.16,0.98,-14.9,-1.0,-0.2,640,111,,,,,,,,,,,,,,,,,,,
8729274,1506798020444,,,,,,,,-0.04,0.15,0.98,-15.0,-1.0,-0.3,640,132,,,,,,,,,,,,,,,,,,,
8729294,1506798020464,,,,,,,,-0.04,0.16,0.98,-15.2,-1.1,-0.2,640,138,,,,,,,,,,,,,,,,,,,
8729314,1506798020484,,,,,,,,-0.04,0.16,0.97,-15.3,-1.2,-0.2,640,129,,,,,,,,,,,,,,,,,,,
8729336,1506798020506,0,223.4,,214.6,7,221.8,,-0.04,0.16,0.97,-15.5,-1.1,-0.2,640,115,0,0,5.714,0,35.489578,-119.543999,2.28,2.779,246.1,10,3,1.5,41,2.4667,0,0.0,6.5924,4.26,42
8729355,1506798020525,,,,,,,,-0.04,0.17,0.97,-15.7,-1.1,-0.2,620,132,,,,,,,,,,,,,,,,,,,
8729375,1506798020545,,,,,,,,-0.04,0.16,0.97,-15.8,-1.1,-0.3,640,143,,,,,,,,,,,,,,,,,,,
8729395,1506798020565,,,,,,,,-0.04,0.15,0.98,-16.0,-1.0,-0.3,640,138,,,,,,,,,,,,,,,,,,,
8729415,1506798020585,,,,,,,,-0.04,0.16,0.97,-16.1,-1.0,-0.3,620,122,,,,,,,,,,,,,,,,,,,
8729437,1506798020606,,,,,7,,,-0.04,0.15,0.97,-16.2,-0.9,-0.3,620,132,0,0,5.565,0,35.489582,-119.543999,2.48,2.779,246.1,10,3,1.5,41,2.4667,0,0.0,6.594,4.2617,42
8729456,1506798020625,,,,,,,,-0.03,0.16,0.97,-16.4,-0.7,-0.3,640,148,,,,,,,,,,,,,,,,,,,
8729476,1506798020645,,,,,,,,-0.03,0.16,0.97,-16.6,-0.6,-0.2,620,142,,,,,,,,,,,,,,,,,,,
8729496,1506798020665,,,,,,,,-0.03,0.15,0.97,-16.7,-0.5,-0.3,620,134,,,,,,,,,,,,,,,,,,,
8729516,1506798020685,,,,,,,,-0.02,0.17,0.98,-16.8,-0.4,-0.3,620,132,,,,,,,,,,,,,,,,,,,
8729538,1506798020703,0,222.5,,213.7,7,221.4,,-0.03,0.16,0.97,-17.0,-0.5,-0.2,620,146,0,0,4.848,0,35.489582,-119.543999,2.65,2.779,246.0,10,3,1.5,41,2.4667,0,0.0,6.5956,4.2633,42
8729557,1506798020722,,,,,,,,-0.02,0.16,0.98,-17.1,-0.6,-0.3,620,151,,,,,,,,,,,,,,,,,,,
8729577,1506798020742,,,,,,,,-0.01,0.18,0.97,-17.3,-0.7,-0.3,620,143,,,,,,,,,,,,,,,,,,,
8729597,1506798020762,,,,,,,,-0.02,0.17,0.97,-17.3,-0.8,-0.2,620,135,,,,,,,,,,,,,,,,,,,
8729617,1506798020782,,,,,,,,-0.02,0.16,0.97,-17.5,-0.8,-0.2,620,146,,,,,,,,,,,,,,,,,,,
8729639,1506798020808,,,,,7,,,-0.03,0.17,0.97,-17.7,-0.8,-0.2,620,154,0,0,4.247,0,35.489582,-119.543999,2.81,2.779,246.0,10,3,1.5,41,2.4667,0,0.0,6.5974,4.265,42
8729658,1506798020827,,,,,,,,-0.03,0.16,0.96,-17.7,-0.9,-0.2,620,148,,,,,,,,,,,,,,,,,,,
8729678,1506798020847,,,,,,,,-0.03,0.16,0.97,-17.9,-0.9,-0.1,620,146,,,,,,,,,,,,,,,,,,,
8729698,1506798020867,,,,,,,,-0.03,0.17,0.97,-18.0,-0.8,-0.2,620,154,,,,,,,,,,,,,,,,,,,
8729718,1506798020887,,,,,,,,-0.03,0.16,0.97,-18.1,-0.7,-0.3,620,155,,,,,,,,,,,,,,,,,,,
8729740,1506798020911,0,222.8,,213.8,7,221.2,,-0.03,0.17,0.98,-18.3,-0.6,-0.2,620,155,0,0,4.052,0,35.489582,-119.543999,2.75,2.779,246.0,10,3,1.5,41,2.4667,0,0.0,6.5991,4.2667,42
8729759,1506798020930,,,,,,,,-0.02,0.17,0.97,-18.4,-0.5,-0.3,640,154,,,,,,,,,,,,,,,,,,,
8729779,1506798020950,,,,,,,,-0.02,0.16,0.97,-18.5,-0.5,-0.4,640,155,,,,,,,,,,,,,,,,,,,
8729799,1506798020970,,,,,,,,-0.02,0.18,0.98,-18.8,-0.5,-0.3,620,158,,,,,,,,,,,,,,,,,,,
8729819,1506798020990,,,,,,,,-0.01,0.17,0.97,-18.9,-0.7,-0.3,640,157,,,,,,,,,,,,,,,,,,,
8729841,1506798021002,,,,,8,,,-0.02,0.16,0.97,-19.0,-0.8,-0.5,640,158,0,0,4.0,0,35.489586,-119.543999,2.91,2.779,246.1,10,3,1.5,41,2.4667,0,0.0,6.6006,4.2683,42
8729860,1506798021021,,,,,,,,-0.02,0.18,0.97,-19.1,-0.8,-0.5,620,165,,,,,,,,,,,,,,,,,,,
8729880,1506798021041,,,,,,,,-0.02,0.17,0.96,-19.2,-1.0,-0.5,640,165,,,,,,,,,,,,,,,,,,,
8729900,1506798021061,,,,,,,,-0.02,0.16,0.97,-19.4,-0.9,-0.6,640,160,,,,,,,,,,,,,,,,,,,
8729920,1506798021081,,,,,,,,-0.02,0.17,0.97,-19.6,-0.9,-0.6,620,166,,,,,,,,,,,,,,,,,,,
8729942,1506798021111,0,222.7,0.9,214.3,8,221.7,13.46,-0.03,0.16,0.96,-19.7,-1.0,-0.7,640,171,0,0,4.051,0,35.489586,-119.543999,3.04,2.779,246.1,10,3,1.5,41,2.4667,0,0.0,6.6024,4.27,42
8729961,1506798021130,,,,,,,,-0.03,0.16,0.98,-19.8,-0.8,-0.7,640,171,,,,,,,,,,,,,,,,,,,
8729981,1506798021150,,,,,,,,-0.03,0.17,0.97,-20.0,-0.7,-0.7,640,166,,,,,,,,,,,,,,,,,,,
8730001,1506798021170,,,,,,,,-0.03,0.15,0.97,-20.1,-0.6,-0.8,640,168,,,,,,,,,,,,,,,,,,,
8730021,1506798021190,,,,,,,,-0.03,0.15,0.98,-20.2,-0.5,-0.8,640,174,,,,,,,,,,,,,,,,,,,
8730043,1506798021212,,,,,8,,,-0.03,0.16,0.97,-20.3,-0.5,-0.7,640,177,0,0,-3.765,-1,35.489586,-119.543999,3.17,2.779,246.1,10,3,1.5,41,2.4667,0,0.0,6.6041,4.2717,42
8730062,1506798021231,,,,,,,,-0.03,0.15,0.97,-20.4,-0.5,-0.7,640,174,,,,,,,,,,,,,,,,,,,
8730082,1506798021251,,,,,,,,-0.03,0.15,0.98,-20.6,-0.4,-0.7,640,172,,,,,,,,,,,,,,,,,,,
8730102,1506798021271,,,,,,,,-0.03,0.16,0.97,-20.8,-0.4,-0.5,640,175,,,,,,,,,,,,,,,,,,,
8730122,1506798021291,,,,,,,,-0.03,0.15,0.97,-20.9,-0.4,-0.6,640,180,,,,,,,,,,,,,,,,,,,
8730144,1506798021313,0,222.5,,213.5,8,220.7,,-0.02,0.17,0.97,-21.1,-0.2,-0.5,660,178,0,0,-3.636,-1,35.489586,-119.543991,3.38,2.779,246.2,10,3,1.5,41,2.4667,0,0.0,6.6055,4.2733,42
8730163,1506798021332,,,,,,,,-0.01,0.16,0.97,-21.2,-0.3,-0.4,640,177,,,,,,,,,,,,,,,,,,,
8730183,1506798021352,,,,,,,,-0.01,0.16,0.97,-21.3,-0.4,-0.5,640,180,,,,,,,,,,,,,,,,,,,
8730203,1506798021372,,,,,,,,-0.0,0.16,0.97,-21.5,-0.3,-0.3,660,185,,,,,,,,,,,,,,,,,,,
8730223,1506798021392,,,,,,,,-0.0,0.16,0.97,-21.6,-0.4,-0.2,660,186,,,,,,,,,,,,,,,,,,,
8730245,1506798021414,,,,,8,,,-0.0,0.14,0.97,-21.6,-0.5,-0.3,660,180,0,0,-3.708,-1,35.489586,-119.543991,3.46,2.779,246.3,10,3,1.5,41,2.4667,0,0.0,6.6072,4.275,42
8730264,1506798021433,,,,,,,,0.01,0.14,0.97,-21.8,-0.4,-0.2,660,178,,,,,,,,,,,,,,,,,,,
8730284,1506798021453,,,,,,,,0.01,0.15,0.97,-21.9,-0.3,-0.1,660,183,,,,,,,,,,,,,,,,,,,
8730304,1506798021473,,,,,,,,0.01,0.13,0.97,-22.0,-0.3,-0.1,660,188,,,,,,,,,,,,,,,,,,,
8730324,1506798021493,,,,,,,,0.02,0.14,0.97,-22.2,-0.1,-0.1,660,188,,,,,,,,,,,,,,,,,,,
8730346,1506798021515,0,222.3,,213.7,7,220.7,,0.02,0.15,0.96,-22.3,-0.1,-0.0,660,183,0,0,-3.667,-1,35.489586,-119.543991,3.55,2.78,246.4,10,3,1.5,41,2.4667,0,0.0,6.6089,4.2767,42
8730365,1506798021534,,,,,,,,0.02,0.14,0.96,-22.4,-0.2,-0.1,660,183,,,,,,,,,,,,,,,,,,,
8730385,1506798021554,,,,,,,,0.02,0.14,0.97,-22.5,-0.1,-0.2,660,188,,,,,,,,,,,,,,,,,,,
8730405,1506798021574,,,,,,,,0.02,0.15,0.97,-22.6,-0.0,-0.1,680,191,,,,,,,,,,,,,,,,,,,
8730425,1506798021593,,,,,,,,0.02,0.15,0.98,-22.7,-0.2,-0.1,680,188,,,,,,,,,,,,,,,,,,,
8730447,1506798021615,,,,,8,,,0.01,0.15,0.98,-22.7,-0.2,-0.2,680,185,0,0,-3.646,-1,35.48959,-119.543991,3.87,2.78,246.5,10,3,1.5,41,2.4667,0,0.0,6.6105,4.2783,42
8730466,1506798021634,,,,,,,,0.01,0.16,0.98,-22.9,-0.3,-0.1,680,186,,,,,,,,,,,,,,,,,,,
8730486,1506798021654,,,,,,,,0.01,0.17,0.97,-22.9,-0.5,-0.1,700,191,,,,,,,,,,,,,,,,,,,
8730506,1506798021674,,,,,,,,0.0,0.16,0.97,-22.9,-0.7,-0.3,700,192,,,,,,,,,,,,,,,,,,,
8730526,1506798021694,,,,,,,,0.01,0.16,0.97,-23.0,-1.0,-0.3,700,191,,,,,,,,,,,,,,,,,,,
8730548,1506798021716,0,222.6,,214.2,8,221.1,,0.02,0.17,0.97,-23.1,-1.0,-0.2,700,189,0,0,-3.716,-1,35.48959,-119.543991,2.93,2.78,246.5,10,3,1.5,41,2.4667,0,0.0,6.6122,4.28,42
8730567,1506798021735,,,,,,,,0.02,0.17,0.96,-23.1,-1.0,-0.3,700,191,,,,,,,,,,,,,,,,,,,
8730587,1506798021755,,,,,,,,0.03,0.16,0.97,-23.2,-0.8,-0.4,700,194,,,,,,,,,,,,,,,,,,,
8730607,1506798021775,,,,,,,,0.03,0.16,0.97,-23.2,-0.7,-0.3,700,192,,,,,,,,,,,,,,,,,,,
8730627,1506798021797,,,,,,,,0.03,0.16,0.97,-23.3,-0.8,-0.2,700,189,,,,,,,,,,,,,,,,,,,
8730649,1506798021819,,,,,9,,,0.03,0.16,0.97,-23.3,-0.9,-0.3,700,189,0,0,-3.704,-1,35.48959,-119.543991,3.47,2.78,246.5,10,3,1.5,41,2.4667,0,0.0,6.6139,4.2817,42
8730668,1506798021838,,,,,,,,0.03,0.17,0.98,-23.3,-1.0,-0.3,700,194,,,,,,,,,,,,,,,,,,,
8730688,1506798021858,,,,,,,,0.04,0.17,0.97,-23.4,-0.9,-0.2,700,195,,,,,,,,,,,,,,,,,,,
8730708,1506798021878,,,,,,,,0.04,0.17,0.97,-23.4,-0.8,-0.2,700,192,,,,,,,,,,,,,,,,,,,
8730728,1506798021898,,,,,,,,0.04,0.16,0.98,-23.4,-0.7,-0.3,700,191,,,,,,,,,,,,,,,,,,,
8730750,1506798021920,0,221.7,,213.2,8,220.4,,0.03,0.17,0.98,-23.4,-0.6,-0.3,680,192,0,0,-3.684,-1,35.489594,-119.543991,3.73,2.78,246.5,10,3,1.5,41,2.4667,0,0.0,6.6156,4.2833,42
8730769,1506798021939,,,,,,,,0.03,0.17,0.97,-23.5,-0.7,-0.2,680,191,,,,,,,,,,,,,,,,,,,
8730789,1506798021959,,,,,,,,0.02,0.16,0.98,-23.5,-0.8,-0.4,680,188,,,,,,,,,,,,,,,,,,,
8730809,1506798021979,,,,,,,,0.03,0.17,0.98,-23.6,-1.0,-0.4,680,186,,,,,,,,,,,,,,,,,,,
8730829,1506798021991,,,,,,,,0.04,0.17,0.97,-23.6,-1.1,-0.4,680,192,,,,,,,,,,,,,,,,,,,
8730851,1506798022013,,,,,9,,,0.04,0.15,0.97,-23.6,-1.3,-0.6,680,195,0,0,3.523,0,35.489594,-119.543991,3.69,2.78,246.5,10,3,1.5,41,2.4667,0,0.0,6.6171,4.285,42
8730870,1506798022032,,,,,,,,0.04,0.15,0.98,-23.7,-1.1,-0.7,680,194,,,,,,,,,,,,,,,,,,,
8730890,1506798022052,,,,,,,,0.04,0.16,0.98,-23.7,-0.9,-0.6,680,189,,,,,,,,,,,,,,,,,,,
8730910,1506798022072,,,,,,,,0.04,0.15,0.98,-23.7,-0.8,-0.6,700,189,,,,,,,,,,,,,,,,,,,
8730930,1506798022100,,,,,,,,0.04,0.14,0.98,-23.7,-0.7,-0.7,700,194,,,,,,,,,,,,,,,,,,,
8730952,1506798022122,0,221.7,0.4,213.4,8,220.4,13.7,0.04,0.14,0.98,-23.8,-0.7,-0.6,680,195,0,0,3.487,0,35.489594,-119.543991,3.87,2.78,246.5,10,3,1.5,41,2.4667,0,0.0,6.6189,4.2867,42
8730971,1506798022141,,,,,,,,0.04,0.15,0.97,-23.7,-0.8,-0.6,700,191,,,,,,,,,,,,,,,,,,,
8730991,1506798022161,,,,,,,,0.03,0.14,0.98,-23.7,-0.8,-0.7,700,189,,,,,,,,,,,,,,,,,,,
8731011,1506798022181,,,,,,,,0.04,0.14,0.98,-23.7,-0.9,-0.6,700,192,,,,,,,,,,,,,,,,,,,
8731031,1506798022201,,,,,,,,0.05,0.15,0.97,-23.7,-0.9,-0.5,700,197,,,,,,,,,,,,,,,,,,,
8731053,1506798022223,,,,,8,,,0.05,0.14,0.96,-23.7,-0.9,-0.5,700,195,0,0,3.523,0,35.489597,-119.543991,3.69,2.78,246.6,10,3,1.5,41,2.4667,0,0.0,6.6206,4.2883,42
8731072,1506798022242,,,,,,,,0.05,0.14,0.97,-23.7,-0.8,-0.5,700,191,,,,,,,,,,,,,,,,,,,
8731092,1506798022262,,,,,,,,0.05,0.15,0.96,-23.7,-0.7,-0.3,700,188,,,,,,,,,,,,,,,,,,,
8731112,1506798022282,,,,,,,,0.04,0.15,0.96,-23.8,-0.8,-0.2,700,191,,,,,,,,,,,,,,,,,,,
8731132,1506798022302,,,,,,,,0.04,0.14,0.96,-23.7,-0.9,-0.3,700,194,,,,,,,,,,,,,,,,,,,
8731154,1506798022324,0,221.8,,213.2,8,220.3,,0.04,0.14,0.97,-23.8,-1.0,-0.4,680,192,0,0,-3.646,-1,35.489597,-119.543991,3.73,2.78,246.6,10,3,1.5,41,2.4667,0,0.0,6.6223,4.29,42
8731173,1506798022343,,,,,,,,0.04,0.14,0.96,-23.7,-1.1,-0.3,680,189,,,,,,,,,,,,,,,,,,,
8731193,1506798022363,,,,,,,,0.04,0.13,0.96,-23.7,-1.1,-0.4,680,189,,,,,,,,,,,,,,,,,,,
8731213,1506798022383,,,,,,,,0.05,0.13,0.97,-23.6,-0.9,-0.4,680,192,,,,,,,,,,,,,,,,,,,
8731233,1506798022403,,,,,,,,0.06,0.13,0.96,-23.6,-0.6,-0.4,680,192,,,,,,,,,,,,,,,,,,,
8731255,1506798022425,,,,,8,,,0.05,0.13,0.96,-23.6,-0.5,-0.4,680,189,0,0,3.542,0,35.489601,-119.543991,3.58,2.78,246.7,10,3,1.5,41,2.4667,0,0.0,6.624,4.2917,42
8731274,1506798022444,,,,,,,,0.05,0.12,0.98,-23.5,-0.5,-0.4,680,188,,,,,,,,,,,,,,,,,,,
8731294,1506798022464,,,,,,,,0.04,0.13,0.98,-23.6,-0.5,-0.3,660,189,,,,,,,,,,,,,,,,,,,
8731314,1506798022484,,,,,,,,0.04,0.13,0.97,-23.6,-0.7,-0.2,660,189,,,,,,,,,,,,,,,,,,,
8731334,1506798022504,,,,,,,,0.04,0.13,0.98,-23.6,-0.7,-0.1,660,191,,,,,,,,,,,,,,,,,,,
8731356,1506798022526,0,222.1,,213.5,8,220.0,,0.03,0.13,0.98,-23.6,-0.8,0.1,660,191,0,0,-3.636,-1,35.489601,-119.543991,3.58,2.781,246.7,10,3,1.8,41,2.4667,0,0.0,6.6256,4.2933,42
8731375,1506798022545,,,,,,,,0.03,0.13,0.98,-23.6,-1.0,0.1,660,191,,,,,,,,,,,,,,,,,,,
8731395,1506798022565,,,,,,,,0.02,0.13,0.98,-23.6,-1.1,0.0,660,189,,,,,,,,,,,,,,,,,,,
8731415,1506798022585,,,,,,,,0.03,0.13,0.98,-23.6,-1.0,0.1,640,186,,,,,,,,,,,,,,,,,,,
8731435,1506798022604,,,,,,,,0.03,0.13,0.98,-23.5,-1.1,0.1,640,185,,,,,,,,,,,,,,,,,,,
8731457,1506798022626,,,,,8,,,0.03,0.13,0.98,-23.5,-1.0,0.2,640,189,0,0,3.474,0,35.489601,-119.543976,3.48,2.781,246.7,10,3,1.8,41,2.4667,0,0.0,6.6267,4.295,42
8731476,1506798022645,,,,,,,,0.03,0.14,0.99,-23.5,-1.1,0.3,640,192,,,,,,,,,,,,,,,,,,,
8731496,1506798022665,,,,,,,,0.03,0.14,0.98,-23.4,-1.2,0.4,640,189,,,,,,,,,,,,,,,,,,,
8731516,1506798022685,,,,,,,,0.03,0.14,0.98,-23.4,-1.2,0.3,640,186,,,,,,,,,,,,,,,,,,,
8731536,1506798022705,,,,,,,,0.03,0.14,0.98,-23.4,-1.1,0.3,640,186,,,,,,,,,,,,,,,,,,,
8731558,1506798022727,0,221.1,,212.8,8,220.3,,0.03,0.14,0.97,-23.3,-1.1,0.2,640,188,0,0,3.386,1,35.489605,-119.543976,3.48,2.781,246.8,10,3,1.8,41,2.4667,0,0.0,6.6284,4.2967,42
8731577,1506798022746,,,,,,,,0.03,0.14,0.97,-23.3,-1.0,0.1,640,186,,,,,,,,,,,,,,,,,,,
8731597,1506798022766,,,,,,,,0.03,0.15,0.97,-23.3,-1.1,0.0,640,183,,,,,,,,,,,,,,,,,,,
8731617,1506798022786,,,,,,,,0.03,0.14,0.97,-23.2,-1.0,-0.1,640,183,,,,,,,,,,,,,,,,,,,
8731637,1506798022806,,,,,,,,0.04,0.15,0.97,-23.2,-0.9,-0.1,640,186,,,,,,,,,,,,,,,,,,,
8731659,1506798022828,,,,,7,,,0.04,0.15,0.97,-23.2,-0.8,-0.2,620,188,0,0,3.422,1,35.489605,-119.543976,3.63,2.781,246.8,10,3,1.8,41,2.4667,0,0.0,6.6301,4.2983,42
8731678,1506798022847,,,,,,,,0.04,0.14,0.98,-23.1,-0.6,-0.3,620,183,,,,,,,,,,,,,,,,,,,
8731698,1506798022867,,,,,,,,0.04,0.15,0.98,-23.1,-0.5,-0.4,640,182,,,,,,,,,,,,,,,,,,,
8731718,1506798022887,,,,,,,,0.04,0.15,0.98,-23.1,-0.5,-0.5,640,185,,,,,,,,,,,,,,,,,,,
8731738,1506798022909,,,,,,,,0.04,0.14,0.98,-23.1,-0.5,-0.6,640,186,,,,,,,,,,,,,,,,,,,
8731760,1506798022931,0,221.1,,212.9,7,220.0,,0.05,0.15,0.97,-23.1,-0.5,-0.5,640,185,0,0,3.333,1,35.489605,-119.543976,3.52,2.781,246.9,10,3,1.8,41,2.4667,0,0.0,6.6318,4.3,42
8731779,1506798022950,,,,,,,,0.05,0.15,0.96,-23.1,-0.5,-0.5,620,182,,,,,,,,,,,,,,,,,,,
8731799,1506798022970,,,,,,,,0.05,0.13,0.96,-23.1,-0.6,-0.5,620,183,,,,,,,,,,,,,,,,,,,
8731819,1506798022990,,,,,,,,0.05,0.14,0.96,-23.1,-0.7,-0.5,640,188,,,,,,,,,,,,,,,,,,,
8731839,1506798023000,,,,,,,,0.05,0.13,0.95,-23.1,-0.8,-0.4,620,188,,,,,,,,,,,,,,,,,,,
