"Interval"|"ms"|0|0|1,"Utc"|"ms"|0|0|1,"FuelLevel"|"F"|0|100|5,"OilTemp"|"F"|0.0|300.0|5,"CoolantPressPSI"|"PSI"|0.0|20.0|1,"Coolant"|"F"|0.0|300.0|5,"OilPress"|"PSI"|0|150|10,"EngineTemp"|"F"|0.0|300.0|5,"Battery"|"Volts"|0.0|20.0|1,"AccelX"|"G"|-3.0|3.0|50,"AccelY"|"G"|-3.0|3.0|50,"AccelZ"|"G"|-3.0|3.0|50,"Yaw"|"Deg/Sec"|-300.0|300.0|50,"Pitch"|"Deg/Sec"|-300.0|300.0|50,"Roll"|"Deg/Sec"|-300.0|300.0|50,"RPM"|""|0|10000|50,"Driveshaft"|"RPM"|0|5000|50,"GPIO1"|""|0|1|10,"GPIO2"|""|0|1|10,"GearRatio"|""|-5.0|5.0|10,"Gear"|""|-1|5|10,"Latitude"|"Degrees"|-180.0|180.0|10,"Longitude"|"Degrees"|-180.0|180.0|10,"Speed"|"mph"|0.0|150.0|10,"Distance"|"mi"|0.0|0.0|10,"Altitude"|"ft"|0.0|4000.0|10,"GPSSats"|""|0|20|10,"GPSQual"|""|0|5|10,"GPSDOP"|""|0.0|20.0|10,"LapCount"|""|0|0|10,"LapTime"|"Min"|0.0|0.0|10,"Sector"|""|0|0|10,"SectorTime"|"Min"|0.0|0.0|10,"PredTime"|"Min"|0.0|0.0|10,"ElapsedTime"|"Min"|0.0|0.0|10,"CurrentLap"|""|0|0|10
39554,1506783246399,,,,,,,,0.08,0.04,1.01,-2.5,-1.2,-0.3,1820,42,,,,,,,,,,,,,,,,,,,
39574,1506783246413,,,,,69,,,0.07,0.05,1.0,-2.3,-1.2,-0.3,1820,42,1,1,44.39,0,35.490017,-119.546165,0.0,0.0,339.2,5,2,1.0,0,0.0,-1,0.0,0.0,0.0,0
39594,1506783246433,,,,,,,,0.07,0.04,1.0,-2.2,-1.0,-0.3,1820,42,,,,,,,,,,,,,,,,,,,
39614,1506783246453,,,,,,,,0.07,0.04,1.01,-2.1,-1.1,-0.4,1800,46,,,,,,,,,,,,,,,,,,,
39634,1506783246473,,,,,,,,0.08,0.03,0.98,-2.0,-1.0,-0.4,1820,49,,,,,,,,,,,,,,,,,,,
39654,1506783246493,,,,,,,,0.08,0.03,1.01,-1.9,-0.9,-0.4,1820,49,,,,,,,,,,,,,,,,,,,
39674,1506783246517,0,56.6,,54.8,72,57.3,,0.08,0.03,1.0,-1.8,-1.1,-0.3,1800,49,1,1,44.39,0,35.489975,-119.546165,0.0,0.0,285.2,5,2,1.0,0,0.0,-1,0.0,0.0,0.0,0
39694,1506783246537,,,,,,,,0.08,0.02,1.01,-1.7,-1.2,-0.4,1800,54,,,,,,,,,,,,,,,,,,,
39714,1506783246557,,,,,,,,0.08,0.03,1.0,-1.6,-1.0,-0.4,1800,55,,,,,,,,,,,,,,,,,,,
39734,1506783246577,,,,,,,,0.08,0.02,1.01,-1.5,-0.8,-0.4,1800,55,,,,,,,,,,,,,,,,,,,
39754,1506783246597,,,,,,,,0.1,0.02,0.98,-1.4,-1.1,-0.3,1780,57,,,,,,,,,,,,,,,,,,,
39774,1506783246617,,,,,70,,,0.09,0.04,0.99,-1.3,-1.1,-0.3,1800,58,1,1,32.727,0,35.489975,-119.546165,0.0,0.0,285.2,5,2,1.0,0,0.0,-1,0.0,0.0,0.0,0
39794,1506783246602,,,,,,,,0.09,0.02,0.97,-1.2,-1.3,-0.3,1780,62,,,,,,,,,,,,,,,,,,,
39814,1506783246622,,,,,,,,0.09,0.03,0.98,-1.0,-1.2,-0.3,1780,63,,,,,,,,,,,,,,,,,,,
39834,1506783246642,,,,,,,,0.1,0.02,0.97,-0.9,-1.2,-0.3,1780,63,,,,,,,,,,,,,,,,,,,
39854,1506783246662,,,,,,,,0.1,0.03,0.97,-0.8,-1.1,-0.3,1780,65,,,,,,,,,,,,,,,,,,,
39874,1506783246716,0,57.4,,56.4,65,57.9,,0.09,0.02,0.97,-0.7,-1.2,-0.3,1780,66,1,1,28.254,0,35.489956,-119.546181,1.3,0.0,289.3,6,2,0.8,0,0.0,-1,0.0,0.0,0.0,0
39894,1506783246736,,,,,,,,0.09,0.03,0.98,-0.5,-1.4,-0.4,1780,69,,,,,,,,,,,,,,,,,,,
39914,1506783246756,,,,,,,,0.09,0.03,0.98,-0.4,-1.3,-0.4,1780,71,,,,,,,,,,,,,,,,,,,
39934,1506783246776,,,,,,,,0.08,0.03,0.98,-0.2,-1.0,-0.3,1780,72,,,,,,,,,,,,,,,,,,,
39954,1506783246796,,,,,,,,0.09,0.03,0.97,-0.1,-1.1,-0.2,1760,74,,,,,,,,,,,,,,,,,,,
39974,1506783246816,,,,,66,,,0.08,0.03,0.99,0.0,-1.2,-0.2,1780,75,1,1,24.722,0,35.489952,-119.546181,1.17,0.0,283.4,6,2,0.8,0,0.0,-1,0.0,0.0,0.0,0
39994,1506783246836,,,,,,,,0.08,0.02,1.0,0.2,-1.3,-0.2,1780,78,,,,,,,,,,,,,,,,,,,
40014,1506783246856,,,,,,,,0.08,0.02,0.98,0.4,-1.3,-0.3,1780,80,,,,,,,,,,,,,,,,,,,
40034,1506783246876,,,,,,,,0.09,0.03,0.99,0.5,-1.1,-0.2,1780,82,,,,,,,,,,,,,,,,,,,
40054,1506783246896,,,,,,,,0.09,0.04,0.98,0.6,-1.2,-0.2,1780,82,,,,,,,,,,,,,,,,,,,
40074,1506783246916,1,57.2,-0.7,56.4,67,57.9,14.81,0.08,0.03,0.99,0.8,-1.3,-0.2,1780,83,1,1,21.975,0,35.489952,-119.546181,1.5,0.0,281.3,6,2,0.8,0,0.0,-1,0.0,0.0,0.0,0
40094,1506783246936,,,,,,,,0.09,0.03,0.97,1.0,-1.5,-0.2,1780,86,,,,,,,,,,,,,,,,,,,
40114,1506783246956,,,,,,,,0.09,0.03,0.98,1.1,-1.1,-0.1,1780,88,,,,,,,,,,,,,,,,,,,
40134,1506783246976,,,,,,,,0.1,0.03,0.97,1.3,-1.1,-0.1,1780,88,,,,,,,,,,,,,,,,,,,
40154,1506783246996,,,,,,,,0.09,0.04,1.0,1.4,-0.9,-0.1,1780,89,,,,,,,,,,,,,,,,,,,
40174,1506783247016,,,,,72,,,0.09,0.04,0.97,1.6,-0.9,-0.1,1780,91,1,1,20.46,0,35.489948,-119.546181,1.46,0.0,278.9,6,2,0.8,0,0.0,-1,0.0,0.0,0.0,0
40194,1506783247036,,,,,,,,0.09,0.04,0.98,1.8,-0.9,-0.2,1780,94,,,,,,,,,,,,,,,,,,,
40214,1506783247056,,,,,,,,0.09,0.04,0.98,2.0,-0.8,-0.1,1780,95,,,,,,,,,,,,,,,,,,,
40234,1506783247076,,,,,,,,0.09,0.05,0.99,2.1,-0.7,-0.1,1780,95,,,,,,,,,,,,,,,,,,,
40254,1506783247096,,,,,,,,0.09,0.05,1.0,2.2,-0.9,-0.1,1800,97,,,,,,,,,,,,,,,,,,,
40274,1506783247116,0,57.0,,56.7,70,58.0,,0.08,0.04,1.01,2.4,-1.0,-0.2,1780,100,1,1,18.737,0,35.489948,-119.546181,1.46,0.0,278.9,6,2,0.8,0,0.0,-1,0.0,0.0,0.0,0
40294,1506783247118,,,,,,,,0.09,0.04,0.99,2.6,-0.8,-0.2,1780,100,,,,,,,,,,,,,,,,,,,
40314,1506783247138,,,,,,,,0.09,0.05,1.0,2.8,-0.6,-0.1,1800,100,,,,,,,,,,,,,,,,,,,
40334,1506783247158,,,,,,,,0.09,0.05,0.99,3.0,-0.8,-0.1,1780,100,,,,,,,,,,,,,,,,,,,
40354,1506783247178,,,,,,,,0.08,0.04,1.0,3.2,-0.8,-0.1,1780,102,,,,,,,,,,,,,,,,,,,
40374,1506783247216,,,,,64,,,0.09,0.04,1.01,3.4,-0.8,-0.1,1780,103,1,1,17.8,0,35.489944,-119.546181,1.79,0.0,273.5,6,2,0.8,0,0.0,-1,0.0,0.0,0.0,0
40394,1506783247236,,,,,,,,0.09,0.05,0.99,3.6,-0.8,-0.1,1780,105,,,,,,,,,,,,,,,,,,,
40414,1506783247256,,,,,,,,0.09,0.06,1.0,3.8,-0.5,-0.1,1760,105,,,,,,,,,,,,,,,,,,,
40434,1506783247276,,,,,,,,0.08,0.06,0.99,4.0,-0.6,-0.1,1780,105,,,,,,,,,,,,,,,,,,,
40454,1506783247296,,,,,,,,0.08,0.06,1.02,4.2,-0.9,-0.2,1760,106,,,,,,,,,,,,,,,,,,,
40474,1506783247316,0,56.8,,54.2,70,56.3,,0.07,0.06,1.0,4.4,-0.9,-0.2,1760,106,1,1,16.923,0,35.489944,-119.546181,1.96,0.0,271.6,6,2,0.8,0,0.0,-1,0.0,0.0,0.0,0
40494,1506783247336,,,,,,,,0.07,0.06,1.01,4.6,-0.7,-0.2,1720,109,,,,,,,,,,,,,,,,,,,
40514,1506783247356,,,,,,,,0.08,0.06,1.0,4.8,-0.8,-0.2,1720,109,,,,,,,,,,,,,,,,,,,
40534,1506783247376,,,,,,,,0.08,0.05,0.98,5.0,-1.0,-0.2,1700,109,,,,,,,,,,,,,,,,,,,
40554,1506783247396,,,,,,,,0.08,0.07,0.98,5.1,-1.0,-0.2,1660,109,,,,,,,,,,,,,,,,,,,
40574,1506783247416,,,,,66,,,0.08,0.07,0.98,5.4,-1.0,-0.2,1620,114,1,1,15.596,0,35.489944,-119.546181,2.07,0.0,269.7,6,2,0.8,0,0.0,-1,0.0,0.0,0.0,0
40594,1506783247436,,,,,,,,0.08,0.05,0.98,5.6,-1.0,-0.3,1600,115,,,,,,,,,,,,,,,,,,,
40614,1506783247456,,,,,,,,0.07,0.05,0.98,5.8,-0.8,-0.3,1540,114,,,,,,,,,,,,,,,,,,,
40634,1506783247476,,,,,,,,0.07,0.05,0.97,6.0,-1.0,-0.2,1520,114,,,,,,,,,,,,,,,,,,,
40654,1506783247496,,,,,,,,0.06,0.05,0.97,6.2,-0.9,-0.3,1440,115,,,,,,,,,,,,,,,,,,,
40674,1506783247516,0,54.6,,55.3,64,55.8,,0.06,0.04,0.98,6.4,-0.7,-0.3,1420,118,1,1,13.451,0,35.489944,-119.546181,1.99,0.0,268.7,6,2,0.8,0,0.0,-1,0.0,0.0,0.0,0
40694,1506783247536,,,,,,,,0.06,0.04,0.98,6.6,-0.7,-0.4,1340,118,,,,,,,,,,,,,,,,,,,
40714,1506783247556,,,,,,,,0.06,0.05,0.99,6.7,-0.8,-0.4,1300,117,,,,,,,,,,,,,,,,,,,
40734,1506783247576,,,,,,,,0.05,0.05,0.98,6.9,-0.6,-0.4,1240,115,,,,,,,,,,,,,,,,,,,
40754,1506783247596,,,,,,,,0.05,0.04,0.98,7.1,-0.6,-0.4,1180,117,,,,,,,,,,,,,,,,,,,
40774,1506783247613,,,,,63,,,0.05,0.05,0.98,7.3,-0.6,-0.4,1140,118,1,1,10.783,0,35.489944,-119.546165,2.09,0.0,267.4,6,2,0.8,0,0.0,-1,0.0,0.0,0.0,0
40794,1506783247633,,,,,,,,0.05,0.05,0.98,7.5,-0.5,-0.4,1100,118,,,,,,,,,,,,,,,,,,,
40814,1506783247653,,,,,,,,0.05,0.06,0.96,7.7,-0.7,-0.4,1040,118,,,,,,,,,,,,,,,,,,,
40834,1506783247673,,,,,,,,0.06,0.06,0.97,7.9,-0.8,-0.4,980,117,,,,,,,,,,,,,,,,,,,
40854,1506783247693,,,,,,,,0.06,0.06,0.97,8.1,-0.7,-0.3,920,120,,,,,,,,,,,,,,,,,,,
40874,1506783247713,0,56.9,,54.3,58,55.8,,0.06,0.07,0.97,8.3,-0.8,-0.2,900,122,1,1,8.448,0,35.489937,-119.546165,2.29,0.001,266.3,6,2,0.8,0,0.0,-1,0.0,0.0,0.0,0
40894,1506783247733,,,,,,,,0.06,0.08,0.97,8.5,-0.8,-0.2,880,118,,,,,,,,,,,,,,,,,,,
40914,1506783247753,,,,,,,,0.05,0.08,0.97,8.7,-0.7,-0.2,840,117,,,,,,,,,,,,,,,,,,,
40934,1506783247773,,,,,,,,0.05,0.09,0.98,8.8,-0.7,-0.3,800,117,,,,,,,,,,,,,,,,,,,
40954,1506783247793,,,,,,,,0.05,0.09,0.97,8.9,-0.7,-0.3,800,117,,,,,,,,,,,,,,,,,,,
40974,1506783247809,,,,,57,,,0.06,0.09,0.98,9.0,-0.7,-0.4,760,117,1,1,6.897,0,35.489933,-119.546165,2.38,0.001,265.5,6,2,0.8,0,0.0,-1,0.0,0.0,0.0,0
40994,1506783247829,,,,,,,,0.06,0.09,0.98,9.1,-0.8,-0.3,720,117,,,,,,,,,,,,,,,,,,,
41014,1506783247849,,,,,,,,0.06,0.09,0.98,9.2,-0.7,-0.3,680,117,,,,,,,,,,,,,,,,,,,
41034,1506783247869,,,,,,,,0.06,0.09,0.98,9.3,-0.8,-0.3,680,114,,,,,,,,,,,,,,,,,,,
41054,1506783247889,,,,,,,,0.05,0.09,0.98,9.3,-0.8,-0.3,640,112,,,,,,,,,,,,,,,,,,,
41074,1506783247913,0,54.8,-0.5,54.3,54,55.2,14.74,0.05,0.09,0.99,9.4,-0.7,-0.3,640,111,1,1,5.913,0,35.489929,-119.546165,2.36,0.001,265.2,6,2,0.8,0,0.0,-1,0.0,0.0,0.0,0
41094,1506783247933,,,,,,,,0.04,0.09,0.99,9.4,-0.8,-0.4,600,114,,,,,,,,,,,,,,,,,,,
41114,1506783247953,,,,,,,,0.04,0.09,0.98,9.5,-0.8,-0.4,560,118,,,,,,,,,,,,,,,,,,,
41134,1506783247973,,,,,,,,0.04,0.08,0.97,9.6,-0.8,-0.4,560,118,,,,,,,,,,,,,,,,,,,
41154,1506783247993,,,,,,,,0.04,0.08,0.98,9.6,-0.8,-0.3,520,115,,,,,,,,,,,,,,,,,,,
41174,1506783248017,,,,,54,,,0.04,0.08,0.98,9.6,-0.7,-0.4,520,114,1,1,4.746,0,35.489925,-119.546165,2.44,0.001,264.4,6,2,0.8,0,0.0,-1,0.0,0.0,0.0,0
41194,1506783248037,,,,,,,,0.03,0.09,0.98,9.7,-0.8,-0.4,480,109,,,,,,,,,,,,,,,,,,,
41214,1506783248057,,,,,,,,0.03,0.09,0.98,9.7,-0.9,-0.4,480,109,,,,,,,,,,,,,,,,,,,
41234,1506783248077,,,,,,,,0.03,0.08,0.98,9.7,-0.9,-0.4,460,108,,,,,,,,,,,,,,,,,,,
41254,1506783248097,,,,,,,,0.02,0.08,0.98,9.7,-0.9,-0.4,460,108,,,,,,,,,,,,,,,,,,,
41274,1506783248111,0,54.9,,55.5,54,56.3,,0.02,0.08,0.98,9.7,-1.1,-0.5,460,108,1,1,4.486,0,35.489925,-119.54615,2.41,0.001,263.5,6,2,0.8,0,0.0,-1,0.0,0.0,0.0,0
41294,1506783248131,,,,,,,,0.01,0.07,0.98,9.7,-1.1,-0.5,480,106,,,,,,,,,,,,,,,,,,,
41314,1506783248151,,,,,,,,0.01,0.07,0.98,9.7,-1.1,-0.6,480,106,,,,,,,,,,,,,,,,,,,
41334,1506783248171,,,,,,,,0.0,0.07,0.99,9.6,-1.0,-0.7,500,106,,,,,,,,,,,,,,,,,,,
41354,1506783248191,,,,,,,,-0.0,0.06,0.99,9.6,-1.0,-0.7,500,106,,,,,,,,,,,,,,,,,,,
41374,1506783248217,,,,,56,,,-0.01,0.06,0.99,9.6,-1.0,-0.7,500,106,1,1,4.717,0,35.489922,-119.54615,2.29,0.001,262.2,6,3,0.8,0,0.0,-1,0.0,0.0,0.0,0
41394,1506783248237,,,,,,,,-0.01,0.05,0.98,9.6,-1.0,-0.8,520,103,,,,,,,,,,,,,,,,,,,
41414,1506783248257,,,,,,,,-0.0,0.06,0.98,9.6,-1.0,-0.8,520,102,,,,,,,,,,,,,,,,,,,
41434,1506783248277,,,,,,,,-0.0,0.07,0.98,9.5,-1.0,-0.7,560,102,,,,,,,,,,,,,,,,,,,
41454,1506783248297,,,,,,,,-0.0,0.07,0.97,9.4,-1.0,-0.7,560,103,,,,,,,,,,,,,,,,,,,
41474,1506783248317,0,57.2,,56.5,59,57.9,,0.0,0.08,0.99,9.4,-1.0,-0.7,600,105,1,1,5.545,0,35.489918,-119.54615,2.3,0.001,261.3,6,3,0.8,0,0.0,-1,0.0,0.0,0.0,0
41494,1506783248337,,,,,,,,0.0,0.07,0.98,9.4,-1.0,-0.7,660,106,,,,,,,,,,,,,,,,,,,
41514,1506783248357,,,,,,,,0.0,0.07,0.99,9.4,-1.1,-0.7,660,109,,,,,,,,,,,,,,,,,,,
41534,1506783248377,,,,,,,,0.01,0.09,0.99,9.4,-0.9,-0.7,700,111,,,,,,,,,,,,,,,,,,,
41554,1506783248397,,,,,,,,0.02,0.1,0.97,9.3,-1.2,-0.5,660,117,,,,,,,,,,,,,,,,,,,
41574,1506783248417,,,,,67,,,0.04,0.12,0.96,9.3,-1.0,-0.5,740,120,1,1,6.364,0,35.489918,-119.54615,2.08,0.001,260.7,6,3,0.8,0,0.0,-1,0.0,0.0,0.0,0
41594,1506783248437,,,,,,,,0.03,0.12,0.95,9.2,-1.1,-0.6,740,125,,,,,,,,,,,,,,,,,,,
41614,1506783248457,,,,,,,,0.03,0.13,0.96,9.2,-1.1,-0.5,740,129,,,,,,,,,,,,,,,,,,,
41634,1506783248477,,,,,,,,0.03,0.12,0.96,9.2,-1.1,-0.5,780,131,,,,,,,,,,,,,,,,,,,
41654,1506783248497,,,,,,,,0.02,0.1,0.98,9.2,-1.1,-0.7,800,132,,,,,,,,,,,,,,,,,,,
41674,1506783248517,0,54.8,,55.0,67,55.7,,0.01,0.09,0.99,9.1,-0.9,-0.9,820,134,1,1,6.0,0,35.489914,-119.54615,2.16,0.001,260.3,6,3,0.8,0,0.0,-1,0.0,0.0,0.0,0
41694,1506783248537,,,,,,,,-0.0,0.09,0.97,9.0,-0.8,-0.9,820,137,,,,,,,,,,,,,,,,,,,
41714,1506783248557,,,,,,,,0.04,0.12,0.91,9.0,-1.0,-0.7,840,137,,,,,,,,,,,,,,,,,,,
41734,1506783248577,,,,,,,,0.03,0.09,0.94,8.9,-1.0,-0.6,860,115,,,,,,,,,,,,,,,,,,,
41754,1506783248597,,,,,,,,0.05,0.11,0.94,8.8,-0.3,-0.3,880,97,,,,,,,,,,,,,,,,,,,
41774,1506783248614,,,,,65,,,0.05,0.09,0.92,8.8,-1.1,-0.6,900,86,1,1,7.478,0,35.489914,-119.54615,2.05,0.001,259.9,6,3,0.8,0,0.0,-1,0.0,0.0,0.0,0
41794,1506783248634,,,,,,,,0.03,0.09,0.96,8.8,-1.1,-0.8,940,88,,,,,,,,,,,,,,,,,,,
41814,1506783248654,,,,,,,,0.01,0.09,0.95,8.7,-1.0,-0.9,940,92,,,,,,,,,,,,,,,,,,,
41834,1506783248674,,,,,,,,-0.0,0.07,0.95,8.7,-0.9,-0.9,960,97,,,,,,,,,,,,,,,,,,,
41854,1506783248692,,,,,,,,-0.01,0.04,0.92,8.8,-1.2,-0.9,980,100,,,,,,,,,,,,,,,,,,,
41874,1506783248712,0,55.1,,55.7,67,56.3,,-0.01,0.01,0.93,8.9,-1.1,-1.0,980,105,1,1,10.0,0,35.48991,-119.54615,2.03,0.001,259.1,6,3,0.8,0,0.0,-1,0.0,0.0,0.0,0
41894,1506783248732,,,,,,,,-0.01,0.0,0.96,8.8,-1.1,-1.2,1000,106,,,,,,,,,,,,,,,,,,,
41914,1506783248752,,,,,,,,-0.03,0.01,0.97,8.7,-0.7,-1.3,1000,109,,,,,,,,,,,,,,,,,,,
41934,1506783248772,,,,,,,,-0.03,0.01,0.97,8.6,-0.4,-1.4,1020,109,,,,,,,,,,,,,,,,,,,
41954,1506783248792,,,,,,,,-0.03,0.01,0.98,8.6,-0.2,-1.4,1020,111,,,,,,,,,,,,,,,,,,,
41974,1506783248812,,,,,66,,,-0.03,0.0,0.98,8.5,0.1,-1.5,1020,112,1,1,9.358,0,35.48991,-119.54615,2.07,0.001,258.3,6,3,0.8,0,0.0,-1,0.0,0.0,0.0,0
41994,1506783248832,,,,,,,,-0.03,-0.01,0.96,8.5,0.2,-1.5,1000,111,,,,,,,,,,,,,,,,,,,
42014,1506783248852,,,,,,,,-0.02,0.0,0.96,8.4,0.2,-1.5,1000,114,,,,,,,,,,,,,,,,,,,
42034,1506783248872,,,,,,,,-0.03,0.01,0.98,8.4,0.3,-1.6,1000,114,,,,,,,,,,,,,,,,,,,
42054,1506783248896,,,,,,,,-0.04,0.01,0.98,8.3,0.2,-1.6,1000,111,,,,,,,,,,,,,,,,,,,
42074,1506783248916,0,55.0,-0.4,54.6,66,56.9,14.94,-0.04,0.02,0.99,8.2,0.1,-1.6,1000,97,1,1,8.85,0,35.48991,-119.54615,2.04,0.001,257.6,6,3,0.8,0,0.0,-1,0.0,0.0,0.0,0
42094,1506783248936,,,,,,,,-0.04,0.01,0.99,8.3,-0.1,-1.7,1000,92,,,,,,,,,,,,,,,,,,,
42114,1506783248956,,,,,,,,-0.05,0.01,1.0,8.2,-0.2,-1.6,980,92,,,,,,,,,,,,,,,,,,,
42134,1506783248976,,,,,,,,-0.04,0.01,0.98,8.2,-0.5,-1.7,980,95,,,,,,,,,,,,,,,,,,,
42154,1506783248996,,,,,,,,-0.04,0.01,1.0,8.1,-0.6,-1.7,980,105,,,,,,,,,,,,,,,,,,,
42174,1506783249010,,,,,64,,,-0.04,0.02,1.01,8.1,-0.7,-1.7,980,108,1,1,10.316,0,35.489906,-119.54615,1.82,0.001,257.1,6,3,0.8,0,0.0,-1,0.0,0.0,0.0,0
42194,1506783249030,,,,,,,,-0.04,0.02,1.02,8.0,-0.8,-1.7,940,109,,,,,,,,,,,,,,,,,,,
42214,1506783249050,,,,,,,,-0.04,0.02,1.03,8.0,-1.0,-1.6,940,103,,,,,,,,,,,,,,,,,,,
42234,1506783249070,,,,,,,,-0.04,0.01,1.04,8.0,-1.3,-1.6,920,95,,,,,,,,,,,,,,,,,,,
42254,1506783249096,,,,,,,,-0.05,0.02,1.02,7.9,-1.6,-1.5,900,92,,,,,,,,,,,,,,,,,,,
42274,1506783249116,0,57.1,,55.5,61,55.7,,-0.05,0.02,0.99,7.8,-1.5,-1.3,880,103,1,1,9.684,0,35.489906,-119.54615,1.9,0.001,256.7,6,3,0.8,0,0.0,-1,0.0,0.0,0.0,0
42294,1506783249136,,,,,,,,-0.04,0.03,1.0,7.8,-1.3,-1.2,880,108,,,,,,,,,,,,,,,,,,,
42314,1506783249156,,,,,,,,-0.03,0.03,0.99,7.8,-1.2,-1.0,880,103,,,,,,,,,,,,,,,,,,,
42334,1506783249176,,,,,,,,-0.02,0.04,0.99,7.7,-1.3,-0.9,840,100,,,,,,,,,,,,,,,,,,,
42354,1506783249196,,,,,,,,-0.01,0.05,0.98,7.7,-1.3,-0.8,800,95,,,,,,,,,,,,,,,,,,,
42374,1506783249216,,,,,59,,,-0.0,0.05,0.97,7.7,-1.4,-0.8,760,94,1,1,8.4,0,35.489906,-119.54615,1.91,0.001,256.4,6,3,0.8,0,0.0,-1,0.0,0.0,0.0,0
42394,1506783249236,,,,,,,,-0.0,0.05,0.98,7.8,-1.3,-0.8,760,103,,,,,,,,,,,,,,,,,,,
42414,1506783249256,,,,,,,,0.01,0.05,0.98,7.8,-0.9,-0.7,760,106,,,,,,,,,,,,,,,,,,,
42434,1506783249276,,,,,,,,0.01,0.06,0.97,7.8,-0.9,-0.6,720,103,,,,,,,,,,,,,,,,,,,
42454,1506783249296,,,,,,,,0.02,0.06,0.97,7.8,-1.0,-0.6,700,92,,,,,,,,,,,,,,,,,,,
42474,1506783249316,0,57.5,,57.0,56,56.1,,0.02,0.07,0.97,7.8,-0.9,-0.7,700,97,1,1,6.99,0,35.489906,-119.54615,1.99,0.001,256.4,6,3,0.8,0,0.0,-1,0.0,0.0,0.0,0
42494,1506783249336,,,,,,,,0.03,0.08,0.97,7.8,-0.9,-0.6,680,103,,,,,,,,,,,,,,,,,,,
42514,1506783249356,,,,,,,,0.04,0.08,0.97,7.8,-0.8,-0.6,660,105,,,,,,,,,,,,,,,,,,,
42534,1506783249376,,,,,,,,0.04,0.08,0.97,7.8,-0.9,-0.6,660,100,,,,,,,,,,,,,,,,,,,
42554,1506783249396,,,,,,,,0.04,0.08,0.97,7.8,-0.9,-0.4,640,97,,,,,,,,,,,,,,,,,,,
42574,1506783249416,,,,,56,,,0.04,0.07,0.97,7.9,-0.8,-0.4,620,103,1,1,6.6,0,35.489906,-119.54615,1.94,0.002,256.2,6,3,0.8,0,0.0,-1,0.0,0.0,0.0,0
42594,1506783249436,,,,,,,,0.04,0.07,0.97,7.9,-0.9,-0.4,620,106,,,,,,,,,,,,,,,,,,,
42614,1506783249456,,,,,,,,0.04,0.07,0.97,7.9,-0.9,-0.4,620,105,,,,,,,,,,,,,,,,,,,
42634,1506783249476,,,,,,,,0.04,0.07,0.97,7.9,-0.9,-0.4,620,98,,,,,,,,,,,,,,,,,,,
42654,1506783249494,,,,,,,,0.04,0.07,0.98,7.9,-0.7,-0.4,600,98,,,,,,,,,,,,,,,,,,,
42674,1506783249514,0,57.1,,56.8,55,56.1,,0.04,0.07,0.98,7.9,-0.8,-0.4,580,102,1,1,6.139,0,35.489906,-119.54615,2.04,0.002,256.0,6,3,0.8,0,0.0,-1,0.0,0.0,0.0,0
42694,1506783249534,,,,,,,,0.04,0.08,0.98,7.9,-0.8,-0.4,580,105,,,,,,,,,,,,,,,,,,,
42714,1506783249554,,,,,,,,0.04,0.08,0.98,8.0,-0.8,-0.4,540,102,,,,,,,,,,,,,,,,,,,
42734,1506783249574,,,,,,,,0.04,0.07,0.98,8.0,-0.8,-0.4,540,102,,,,,,,,,,,,,,,,,,,
42754,1506783249591,,,,,,,,0.05,0.08,0.98,8.0,-0.6,-0.3,540,103,,,,,,,,,,,,,,,,,,,
42774,1506783249611,,,,,55,,,0.05,0.08,0.99,8.0,-0.5,-0.3,540,106,1,1,5.347,0,35.489906,-119.54615,2.09,0.002,256.0,6,3,0.8,0,0.0,-1,0.0,0.0,0.0,0
42794,1506783249631,,,,,,,,0.05,0.1,0.99,8.0,-0.5,-0.3,540,108,,,,,,,,,,,,,,,,,,,
42814,1506783249651,,,,,,,,0.05,0.09,0.99,8.1,-0.5,-0.4,540,102,,,,,,,,,,,,,,,,,,,
42834,1506783249671,,,,,,,,0.05,0.1,1.0,8.1,-0.6,-0.5,560,98,,,,,,,,,,,,,,,,,,,
42854,1506783249693,,,,,,,,0.05,0.1,0.99,8.1,-0.6,-0.5,580,100,,,,,,,,,,,,,,,,,,,
42874,1506783249713,0,56.3,,54.8,56,56.3,,0.04,0.09,1.0,8.1,-0.5,-0.5,580,109,1,1,5.714,0,35.489902,-119.54615,1.79,0.002,256.0,6,3,0.8,0,0.0,-1,0.0,0.0,0.0,0
42894,1506783249733,,,,,,,,0.05,0.1,0.99,8.1,-0.5,-0.5,580,109,,,,,,,,,,,,,,,,,,,
42914,1506783249753,,,,,,,,0.05,0.1,0.99,8.1,-0.6,-0.4,580,105,,,,,,,,,,,,,,,,,,,
42934,1506783249773,,,,,,,,0.04,0.11,0.99,8.1,-0.6,-0.3,580,95,,,,,,,,,,,,,,,,,,,
42954,1506783249793,,,,,,,,0.04,0.11,0.98,8.1,-0.6,-0.2,600,97,,,,,,,,,,,,,,,,,,,
42974,1506783249813,,,,,58,,,0.05,0.11,0.99,8.1,-0.6,-0.2,600,102,1,1,5.918,0,35.489902,-119.54615,1.98,0.002,256.0,6,3,0.8,0,0.0,-1,0.0,0.0,0.0,0
42994,1506783249833,,,,,,,,0.05,0.11,0.98,8.1,-0.6,-0.2,620,105,,,,,,,,,,,,,,,,,,,
43014,1506783249853,,,,,,,,0.05,0.1,0.98,8.1,-0.6,-0.2,660,103,,,,,,,,,,,,,,,,,,,
43034,1506783249873,,,,,,,,0.05,0.11,1.0,8.1,-0.7,-0.2,660,98,,,,,,,,,,,,,,,,,,,
43054,1506783249895,,,,,,,,0.05,0.11,0.98,8.1,-0.8,-0.1,680,100,,,,,,,,,,,,,,,,,,,
43074,1506783249915,0,54.6,-0.9,55.5,61,57.8,14.92,0.05,0.1,0.98,8.1,-0.8,-0.2,660,105,1,1,6.735,0,35.489902,-119.54615,1.88,0.002,256.2,6,3,0.8,0,0.0,-1,0.0,0.0,0.0,0
43094,1506783249935,,,,,,,,0.05,0.11,0.98,8.1,-1.0,-0.4,660,108,,,,,,,,,,,,,,,,,,,
43114,1506783249955,,,,,,,,0.05,0.11,0.98,8.1,-1.0,-0.4,700,102,,,,,,,,,,,,,,,,,,,
43134,1506783249975,,,,,,,,0.05,0.12,0.97,8.1,-0.9,-0.4,700,98,,,,,,,,,,,,,,,,,,,
43154,1506783249995,,,,,,,,0.04,0.11,0.99,8.1,-0.8,-0.5,700,100,,,,,,,,,,,,,,,,,,,
43174,1506783250009,,,,,66,,,0.04,0.11,1.0,8.1,-0.9,-0.5,700,105,1,1,7.143,0,35.489902,-119.54615,1.78,0.002,256.4,6,3,0.8,0,0.0,-1,0.0,0.0,0.0,0
43194,1506783250029,,,,,,,,0.04,0.11,0.99,8.0,-0.8,-0.3,740,103,,,,,,,,,,,,,,,,,,,
43214,1506783250049,,,,,,,,0.03,0.1,1.0,8.0,-0.7,-0.4,760,102,,,,,,,,,,,,,,,,,,,
43234,1506783250069,,,,,,,,0.03,0.1,0.99,8.0,-0.8,-0.5,760,102,,,,,,,,,,,,,,,,,,,
43254,1506783250095,,,,,,,,0.03,0.1,0.99,8.0,-0.8,-0.4,760,102,,,,,,,,,,,,,,,,,,,
43274,1506783250115,0,57.3,,56.9,67,55.5,,0.04,0.11,0.98,8.0,-0.7,-0.3,760,100,1,1,7.6,0,35.489899,-119.54615,1.93,0.002,256.2,6,3,0.8,0,0.0,-1,0.0,0.0,0.0,0
43294,1506783250135,,,,,,,,0.02,0.12,1.04,8.0,-0.5,-0.4,780,97,,,,,,,,,,,,,,,,,,,
43314,1506783250155,,,,,,,,0.02,0.13,1.04,7.9,-0.9,-0.7,800,98,,,,,,,,,,,,,,,,,,,
43334,1506783250175,,,,,,,,0.02,0.13,1.02,7.9,-1.0,-0.7,800,100,,,,,,,,,,,,,,,,,,,
43354,1506783250195,,,,,,,,0.03,0.11,1.06,8.0,-0.2,-0.6,800,98,,,,,,,,,,,,,,,,,,,
43374,1506783250215,,,,,64,,,0.02,0.11,1.05,8.0,-1.2,-0.7,820,98,1,1,8.0,0,35.489899,-119.54615,1.97,0.002,255.9,6,3,0.8,0,0.0,-1,0.0,0.0,0.0,0
43394,1506783250235,,,,,,,,0.03,0.13,0.93,8.1,-0.9,-0.4,820,98,,,,,,,,,,,,,,,,,,,
43414,1506783250255,,,,,,,,0.04,0.12,0.9,8.1,-1.4,-0.5,820,97,,,,,,,,,,,,,,,,,,,
43434,1506783250275,,,,,,,,0.04,0.12,0.89,8.1,-1.6,-0.5,820,95,,,,,,,,,,,,,,,,,,,
43454,1506783250293,,,,,,,,0.03,0.1,0.93,8.0,-0.7,-0.5,820,86,,,,,,,,,,,,,,,,,,,
43474,1506783250313,0,57.0,,57.3,62,57.5,,0.04,0.11,0.93,8.0,-1.3,-0.5,800,82,1,1,8.632,0,35.489899,-119.54615,1.9,0.002,255.7,6,3,0.8,0,0.0,-1,0.0,0.0,0.0,0
43494,1506783250333,,,,,,,,0.02,0.09,0.93,8.0,-1.0,-0.3,800,75,,,,,,,,,,,,,,,,,,,
43514,1506783250353,,,,,,,,0.03,0.11,0.94,7.9,-0.7,-0.3,780,75,,,,,,,,,,,,,,,,,,,
43534,1506783250373,,,,,,,,0.03,0.1,0.96,7.9,-0.9,-0.4,740,69,,,,,,,,,,,,,,,,,,,
43554,1506783250395,,,,,,,,0.02,0.1,0.96,7.8,-1.0,-0.5,740,65,,,,,,,,,,,,,,,,,,,
43574,1506783250415,,,,,60,,,0.02,0.1,0.96,7.8,-1.0,-0.5,700,60,1,1,11.304,0,35.489899,-119.54615,1.9,0.002,255.6,6,3,0.8,0,0.0,-1,0.0,0.0,0.0,0
43594,1506783250435,,,,,,,,0.03,0.1,0.95,7.8,-1.2,-0.4,680,57,,,,,,,,,,,,,,,,,,,
43614,1506783250455,,,,,,,,0.02,0.1,0.95,7.8,-1.2,-0.5,680,65,,,,,,,,,,,,,,,,,,,
43634,1506783250475,,,,,,,,0.02,0.1,0.95,7.7,-1.1,-0.4,640,89,,,,,,,,,,,,,,,,,,,
43654,1506783250493,,,,,,,,0.02,0.1,0.95,7.7,-1.0,-0.5,620,118,,,,,,,,,,,,,,,,,,,
43674,1506783250513,0,55.6,,56.7,55,58.4,,0.02,0.1,0.95,7.6,-1.0,-0.5,620,114,1,1,7.191,0,35.489895,-119.54615,1.69,0.002,255.6,6,3,0.8,0,0.0,-1,0.0,0.0,0.0,0
43694,1506783250533,,,,,,,,0.02,0.1,0.96,7.6,-1.0,-0.5,600,106,,,,,,,,,,,,,,,,,,,
43714,1506783250553,,,,,,,,0.02,0.1,0.96,7.5,-1.1,-0.5,600,100,,,,,,,,,,,,,,,,,,,
43734,1506783250573,,,,,,,,0.02,0.1,0.97,7.5,-1.0,-0.6,520,92,,,,,,,,,,,,,,,,,,,
43754,1506783250592,,,,,,,,0.02,0.1,0.97,7.4,-1.0,-0.6,520,89,,,,,,,,,,,,,,,,,,,
43774,1506783250612,,,,,54,,,0.02,0.1,0.98,7.3,-0.9,-0.7,460,86,1,1,5.652,0,35.489895,-119.54615,1.76,0.002,255.6,6,3,0.8,0,0.0,-1,0.0,0.0,0.0,0
43794,1506783250632,,,,,,,,0.02,0.1,0.98,7.3,-1.0,-0.7,460,77,,,,,,,,,,,,,,,,,,,
43814,1506783250652,,,,,,,,0.01,0.1,0.98,7.2,-1.0,-0.7,460,77,,,,,,,,,,,,,,,,,,,
43834,1506783250672,,,,,,,,0.01,0.1,0.98,7.2,-0.9,-0.7,380,83,,,,,,,,,,,,,,,,,,,
43854,1506783250692,,,,,,,,0.01,0.1,0.98,7.1,-0.9,-0.7,380,102,,,,,,,,,,,,,,,,,,,
43874,1506783250712,0,57.0,,56.2,53,55.5,,0.01,0.1,0.98,7.1,-1.0,-0.6,340,100,1,1,4.578,0,35.489895,-119.54615,1.78,0.002,255.5,6,3,0.8,0,0.0,-1,0.0,0.0,0.0,0
43894,1506783250732,,,,,,,,0.01,0.1,0.98,7.0,-0.9,-0.6,340,95,,,,,,,,,,,,,,,,,,,
43914,1506783250752,,,,,,,,0.01,0.1,0.98,7.0,-0.9,-0.6,340,94,,,,,,,,,,,,,,,,,,,
43934,1506783250772,,,,,,,,0.01,0.1,0.98,6.9,-1.0,-0.6,320,88,,,,,,,,,,,,,,,,,,,
43954,1506783250792,,,,,,,,0.01,0.1,0.98,6.8,-1.0,-0.6,320,83,,,,,,,,,,,,,,,,,,,
43974,1506783250812,,,,,53,,,0.01,0.1,0.98,6.8,-1.0,-0.6,320,78,1,1,-3.908,-1,35.489895,-119.54615,1.83,0.002,255.5,6,3,0.8,0,0.0,-1,0.0,0.0,0.0,0
43994,1506783250832,,,,,,,,0.01,0.1,0.98,6.8,-1.0,-0.6,320,78,,,,,,,,,,,,,,,,,,,
44014,1506783250852,,,,,,,,0.01,0.1,0.98,6.7,-1.0,-0.6,300,86,,,,,,,,,,,,,,,,,,,
44034,1506783250872,,,,,,,,0.01,0.1,0.98,6.6,-0.9,-0.5,300,91,,,,,,,,,,,,,,,,,,,
44054,1506783250894,,,,,,,,0.01,0.1,0.98,6.6,-1.0,-0.5,300,89,,,,,,,,,,,,,,,,,,,
44074,1506783250914,0,56.4,-0.5,55.0,53,56.0,12.35,0.01,0.1,0.98,6.5,-1.0,-0.5,300,88,1,1,3.333,1,35.489895,-119.54615,1.75,0.002,255.5,6,3,0.8,0,0.0,-1,0.0,0.0,0.0,0
44094,1506783250934,,,,,,,,0.01,0.1,0.98,6.4,-1.0,-0.5,240,83,,,,,,,,,,,,,,,,,,,
44114,1506783250954,,,,,,,,0.01,0.1,0.98,6.3,-1.0,-0.5,240,80,,,,,,,,,,,,,,,,,,,
44134,1506783250974,,,,,,,,0.01,0.1,0.98,6.3,-1.0,-0.5,240,80,,,,,,,,,,,,,,,,,,,
44154,1506783250994,,,,,,,,0.01,0.1,0.98,6.2,-1.0,-0.5,240,80,,,,,,,,,,,,,,,,,,,
44174,1506783251008,,,,,53,,,0.01,0.1,0.98,6.1,-1.0,-0.5,240,83,1,1,3.0,0,35.489891,-119.54615,1.65,0.002,255.9,6,3,0.8,0,0.0,-1,0.0,0.0,0.0,0
44194,1506783251028,,,,,,,,0.01,0.1,0.98,6.1,-1.0,-0.5,160,85,,,,,,,,,,,,,,,,,,,
44214,1506783251048,,,,,,,,0.0,0.1,0.98,6.0,-1.0,-0.5,160,83,,,,,,,,,,,,,,,,,,,
44234,1506783251068,,,,,,,,0.0,0.1,0.98,6.0,-1.0,-0.4,160,80,,,,,,,,,,,,,,,,,,,
44254,1506783251094,,,,,,,,0.01,0.1,0.98,6.0,-1.0,-0.4,160,78,,,,,,,,,,,,,,,,,,,
44274,1506783251114,0,54.7,,55.2,53,57.5,,0.01,0.1,0.98,5.9,-1.1,-0.5,160,78,1,1,1.928,2,35.489891,-119.54615,1.6,0.002,255.7,6,3,0.8,0,0.0,-1,0.0,0.0,0.0,0
44294,1506783251134,,,,,,,,0.01,0.1,0.98,5.9,-1.1,-0.5,160,78,,,,,,,,,,,,,,,,,,,
44314,1506783251154,,,,,,,,0.01,0.1,0.99,5.8,-1.1,-0.5,160,78,,,,,,,,,,,,,,,,,,,
44334,1506783251174,,,,,,,,0.01,0.1,0.99,5.8,-1.0,-0.5,160,80,,,,,,,,,,,,,,,,,,,
44354,1506783251194,,,,,,,,0.01,0.09,0.99,5.7,-1.1,-0.5,160,78,,,,,,,,,,,,,,,,,,,
44374,1506783251214,,,,,53,,,0.01,0.1,0.99,5.6,-1.1,-0.4,100,77,1,1,2.0,2,35.489891,-119.54615,1.55,0.002,255.6,6,3,0.8,0,0.0,-1,0.0,0.0,0.0,0
44394,1506783251234,,,,,,,,0.01,0.1,0.99,5.6,-1.1,-0.4,100,77,,,,,,,,,,,,,,,,,,,
44414,1506783251254,,,,,,,,0.01,0.1,0.99,5.5,-1.0,-0.4,100,75,,,,,,,,,,,,,,,,,,,
44434,1506783251274,,,,,,,,0.0,0.1,0.99,5.5,-1.0,-0.4,100,77,,,,,,,,,,,,,,,,,,,
44454,1506783251294,,,,,,,,0.0,0.1,0.99,5.4,-1.0,-0.4,100,77,,,,,,,,,,,,,,,,,,,
44474,1506783251314,0,57.5,,57.3,50,56.6,,0.0,0.1,0.99,5.3,-1.0,-0.4,100,77,1,1,1.316,3,35.489891,-119.54615,1.58,0.002,255.3,6,3,0.8,0,0.0,-1,0.0,0.0,0.0,0
44494,1506783251334,,,,,,,,0.0,0.1,0.99,5.3,-1.0,-0.4,100,75,,,,,,,,,,,,,,,,,,,
44514,1506783251354,,,,,,,,0.0,0.1,0.99,5.3,-1.0,-0.4,100,74,,,,,,,,,,,,,,,,,,,
44534,1506783251374,,,,,,,,0.0,0.1,0.99,5.2,-1.0,-0.4,100,74,,,,,,,,,,,,,,,,,,,
44554,1506783251394,,,,,,,,0.0,0.1,0.99,5.2,-1.0,-0.4,100,74,,,,,,,,,,,,,,,,,,,
44574,1506783251414,,,,,48,,,0.0,0.09,0.99,5.1,-1.0,-0.5,100,74,1,1,1.37,3,35.489891,-119.54615,1.44,0.003,255.1,6,3,0.8,0,0.0,-1,0.0,0.0,0.0,0
44594,1506783251434,,,,,,,,0.0,0.09,0.99,5.1,-1.0,-0.5,100,72,,,,,,,,,,,,,,,,,,,
44614,1506783251454,,,,,,,,0.0,0.09,0.99,5.0,-1.0,-0.5,100,72,,,,,,,,,,,,,,,,,,,
44634,1506783251474,,,,,,,,0.0,0.09,0.99,5.0,-1.1,-0.4,100,72,,,,,,,,,,,,,,,,,,,
44654,1506783251492,,,,,,,,0.0,0.09,0.99,4.9,-1.0,-0.4,100,71,,,,,,,,,,,,,,,,,,,
44674,1506783251512,0,55.6,,56.8,45,58.4,,0.01,0.09,0.99,4.8,-1.0,-0.5,100,71,1,1,1.389,3,35.489887,-119.546165,1.44,0.003,254.9,6,3,0.8,0,0.0,-1,0.0,0.0,0.0,0
44694,1506783251532,,,,,,,,0.01,0.09,0.99,4.8,-1.0,-0.5,100,71,,,,,,,,,,,,,,,,,,,
44714,1506783251552,,,,,,,,0.01,0.09,0.99,4.7,-1.0,-0.4,100,71,,,,,,,,,,,,,,,,,,,
44734,1506783251572,,,,,,,,0.0,0.09,0.99,4.7,-1.0,-0.4,100,69,,,,,,,,,,,,,,,,,,,
44754,1506783251591,,,,,,,,0.0,0.09,0.99,4.6,-1.0,-0.4,100,69,,,,,,,,,,,,,,,,,,,
44774,1506783251611,,,,,44,,,0.0,0.09,0.99,4.6,-1.0,-0.4,100,68,1,1,1.449,0,35.489887,-119.546165,1.25,0.003,254.6,6,3,0.8,0,0.0,-1,0.0,0.0,0.0,0
44794,1506783251631,,,,,,,,0.0,0.09,0.99,4.5,-1.0,-0.4,100,68,,,,,,,,,,,,,,,,,,,
44814,1506783251651,,,,,,,,0.0,0.09,0.99,4.5,-1.0,-0.4,100,68,,,,,,,,,,,,,,,,,,,
44834,1506783251671,,,,,,,,0.0,0.09,0.99,4.4,-1.0,-0.3,100,68,,,,,,,,,,,,,,,,,,,
44854,1506783251691,,,,,,,,0.0,0.09,0.99,4.4,-1.0,-0.4,100,68,,,,,,,,,,,,,,,,,,,
44874,1506783251711,0,54.8,,55.7,41,57.8,,0.0,0.09,0.99,4.3,-1.0,-0.4,100,68,1,1,1.493,0,35.489887,-119.546165,1.36,0.003,254.5,6,3,0.8,0,0.0,-1,0.0,0.0,0.0,0
44894,1506783251731,,,,,,,,0.01,0.09,0.99,4.2,-1.0,-0.4,100,66,,,,,,,,,,,,,,,,,,,
44914,1506783251751,,,,,,,,0.01,0.09,0.99,4.2,-1.0,-0.4,100,66,,,,,,,,,,,,,,,,,,,
44934,1506783251771,,,,,,,,0.01,0.09,0.99,4.1,-1.0,-0.4,100,65,,,,,,,,,,,,,,,,,,,
44954,1506783251791,,,,,,,,0.01,0.09,0.99,4.1,-1.0,-0.4,100,65,,,,,,,,,,,,,,,,,,,
44974,1506783251811,,,,,40,,,0.01,0.09,0.99,4.1,-1.0,-0.4,100,65,1,1,1.562,0,35.489887,-119.546165,1.29,0.003,254.4,6,3,0.8,0,0.0,-1,0.0,0.0,0.0,0
44994,1506783251831,,,,,,,,0.01,0.09,0.99,4.0,-1.0,-0.4,100,65,,,,,,,,,,,,,,,,,,,
45014,1506783251851,,,,,,,,0.01,0.09,0.99,4.0,-1.0,-0.3,100,65,,,,,,,,,,,,,,,,,,,
45034,1506783251871,,,,,,,,0.01,0.09,0.99,3.9,-1.0,-0.4,100,63,,,,,,,,,,,,,,,,,,,
45054,1506783251895,,,,,,,,0.0,0.09,0.99,3.9,-1.1,-0.3,100,62,,,,,,,,,,,,,,,,,,,
45074,1506783251915,0,56.0,-0.5,54.7,38,56.3,12.48,0.0,0.09,0.99,3.8,-1.1,-0.3,100,62,1,1,1.587,0,35.489887,-119.546165,1.11,0.003,254.5,6,3,0.8,0,0.0,-1,0.0,0.0,0.0,0
45094,1506783251935,,,,,,,,0.0,0.09,0.99,3.8,-1.0,-0.4,100,75,,,,,,,,,,,,,,,,,,,
45114,1506783251955,,,,,,,,0.0,0.09,0.99,3.8,-1.1,-0.4,100,77,,,,,,,,,,,,,,,,,,,
45134,1506783251975,,,,,,,,0.01,0.1,0.99,3.8,-1.1,-0.4,100,65,,,,,,,,,,,,,,,,,,,
45154,1506783251995,,,,,,,,0.01,0.09,0.99,3.7,-1.1,-0.4,100,65,,,,,,,,,,,,,,,,,,,
45174,1506783252009,,,,,38,,,0.01,0.09,0.99,3.6,-1.2,-0.4,100,66,1,1,1.316,3,35.489887,-119.546165,1.19,0.003,254.3,6,3,0.8,0,0.0,-1,0.0,0.0,0.0,0
45194,1506783252029,,,,,,,,0.01,0.1,0.98,3.6,-1.2,-0.4,100,60,,,,,,,,,,,,,,,,,,,
45214,1506783252049,,,,,,,,0.01,0.09,0.99,3.5,-1.2,-0.4,100,62,,,,,,,,,,,,,,,,,,,
45234,1506783252069,,,,,,,,0.01,0.09,0.99,3.5,-1.2,-0.4,0,60,,,,,,,,,,,,,,,,,,,
45254,1506783252095,,,,,,,,0.01,0.09,0.99,3.5,-1.2,-0.4,0,60,,,,,,,,,,,,,,,,,,,
45274,1506783252115,0,54.9,,56.1,36,58.4,,0.01,0.09,0.99,3.4,-1.2,-0.4,0,60,1,1,0.0,0,35.489887,-119.546165,1.16,0.003,254.2,6,3,0.8,0,0.0,-1,0.0,0.0,0.0,0
45294,1506783252135,,,,,,,,0.01,0.09,0.99,3.4,-1.2,-0.4,0,57,,,,,,,,,,,,,,,,,,,
45314,1506783252155,,,,,,,,0.0,0.09,0.99,3.3,-1.2,-0.4,0,57,,,,,,,,,,,,,,,,,,,
45334,1506783252175,,,,,,,,0.01,0.09,0.99,3.3,-1.1,-0.5,0,35,,,,,,,,,,,,,,,,,,,
45354,1506783252195,,,,,,,,0.0,0.09,0.99,3.3,-1.1,-0.4,0,71,,,,,,,,,,,,,,,,,,,
45374,1506783252215,,,,,35,,,0.0,0.08,0.99,3.2,-1.1,-0.4,0,74,1,1,0.0,0,35.489883,-119.546165,1.06,0.003,254.2,6,3,0.8,0,0.0,-1,0.0,0.0,0.0,0
45394,1506783252235,,,,,,,,0.0,0.08,0.99,3.2,-1.0,-0.5,0,78,,,,,,,,,,,,,,,,,,,
45414,1506783252255,,,,,,,,0.01,0.08,0.99,3.2,-0.9,-0.4,0,83,,,,,,,,,,,,,,,,,,,
45434,1506783252275,,,,,,,,0.01,0.09,0.99,3.1,-0.9,-0.4,0,72,,,,,,,,,,,,,,,,,,,
45454,1506783252295,,,,,,,,0.01,0.08,1.0,3.1,-0.9,-0.5,0,72,,,,,,,,,,,,,,,,,,,
45474,1506783252315,0,56.5,,55.3,34,55.7,,0.01,0.09,0.99,3.0,-0.9,-0.4,0,62,1,1,0.0,0,35.489883,-119.546165,1.17,0.003,254.1,6,3,0.8,0,0.0,-1,0.0,0.0,0.0,0
45494,1506783252335,,,,,,,,0.01,0.09,0.99,3.0,-0.9,-0.4,0,51,,,,,,,,,,,,,,,,,,,
45514,1506783252355,,,,,,,,0.01,0.09,0.99,2.9,-1.0,-0.4,0,51,,,,,,,,,,,,,,,,,,,
45534,1506783252375,,,,,,,,0.01,0.09,0.99,2.9,-1.1,-0.4,0,43,,,,,,,,,,,,,,,,,,,
45554,1506783252395,,,,,,,,0.01,0.08,0.99,2.8,-1.0,-0.4,0,43,,,,,,,,,,,,,,,,,,,
45574,1506783252415,,,,,33,,,0.01,0.09,0.99,2.8,-1.0,-0.4,0,40,1,1,0.0,0,35.489883,-119.546165,1.09,0.003,254.0,6,3,0.8,0,0.0,-1,0.0,0.0,0.0,0
45594,1506783252435,,,,,,,,0.01,0.09,0.99,2.8,-1.0,-0.5,0,45,,,,,,,,,,,,,,,,,,,
45614,1506783252455,,,,,,,,0.01,0.09,0.99,2.8,-1.0,-0.5,0,45,,,,,,,,,,,,,,,,,,,
45634,1506783252475,,,,,,,,0.01,0.09,0.99,2.7,-1.0,-0.5,0,49,,,,,,,,,,,,,,,,,,,
45654,1506783252493,,,,,,,,0.01,0.09,0.99,2.7,-1.0,-0.4,0,58,,,,,,,,,,,,,,,,,,,
45674,1506783252513,0,54.6,,55.5,32,57.5,,0.01,0.09,0.99,2.6,-1.0,-0.5,0,63,1,1,0.0,0,35.489883,-119.546165,1.0,0.003,253.8,6,3,0.8,0,0.0,-1,0.0,0.0,0.0,0
45694,1506783252533,,,,,,,,0.01,0.09,0.99,2.6,-1.1,-0.5,0,63,,,,,,,,,,,,,,,,,,,
45714,1506783252553,,,,,,,,0.01,0.09,1.0,2.6,-1.1,-0.5,0,55,,,,,,,,,,,,,,,,,,,
45734,1506783252573,,,,,,,,0.0,0.09,0.99,2.5,-1.1,-0.5,0,55,,,,,,,,,,,,,,,,,,,
45754,1506783252592,,,,,,,,0.01,0.09,0.99,2.5,-1.4,-0.4,0,31,,,,,,,,,,,,,,,,,,,
45774,1506783252612,,,,,31,,,0.01,0.09,0.99,2.4,-1.4,-0.4,0,31,1,1,0.0,0,35.489883,-119.546165,1.02,0.003,253.5,6,3,0.8,0,0.0,-1,0.0,0.0,0.0,0
45794,1506783252632,,,,,,,,-0.0,0.09,0.99,2.3,-1.3,-0.4,0,46,,,,,,,,,,,,,,,,,,,
45814,1506783252652,,,,,,,,0.0,0.08,1.0,2.3,-1.2,-0.5,0,78,,,,,,,,,,,,,,,,,,,
45834,1506783252672,,,,,,,,0.0,0.09,0.99,2.3,-1.2,-0.5,0,75,,,,,,,,,,,,,,,,,,,
45854,1506783252692,,,,,,,,0.01,0.09,0.99,2.2,-1.2,-0.5,0,69,,,,,,,,,,,,,,,,,,,
45874,1506783252712,0,54.8,,56.2,30,58.2,,0.01,0.08,0.99,2.2,-1.3,-0.5,0,62,1,1,0.0,0,35.489883,-119.546165,0.96,0.003,253.2,6,3,0.8,0,0.0,-1,0.0,0.0,0.0,0
45894,1506783252732,,,,,,,,0.01,0.09,0.99,2.1,-1.3,-0.5,0,62,,,,,,,,,,,,,,,,,,,
45914,1506783252752,,,,,,,,0.01,0.08,0.99,2.1,-1.3,-0.5,0,52,,,,,,,,,,,,,,,,,,,
45934,1506783252772,,,,,,,,0.01,0.09,0.99,2.0,-1.3,-0.5,0,52,,,,,,,,,,,,,,,,,,,
45954,1506783252792,,,,,,,,0.01,0.08,0.99,2.0,-1.3,-0.5,0,43,,,,,,,,,,,,,,,,,,,
45974,1506783252806,,,,,30,,,0.01,0.08,0.99,1.9,-1.2,-0.5,0,43,1,1,0.0,0,35.489883,-119.546165,0.98,0.003,253.0,6,3,0.8,0,0.0,-1,0.0,0.0,0.0,0
45994,1506783252826,,,,,,,,0.01,0.08,0.99,1.9,-1.2,-0.5,0,35,,,,,,,,,,,,,,,,,,,
46014,1506783252846,,,,,,,,0.0,0.08,0.99,1.9,-1.2,-0.5,0,35,,,,,,,,,,,,,,,,,,,
46034,1506783252866,,,,,,,,0.0,0.08,0.99,1.8,-1.2,-0.5,0,32,,,,,,,,,,,,,,,,,,,
46054,1506783252894,,,,,,,,0.0,0.09,0.99,1.8,-1.2,-0.5,0,32,,,,,,,,,,,,,,,,,,,
46074,1506783252914,0,57.4,-0.2,57.2,29,55.7,12.47,0.0,0.09,0.99,1.7,-1.2,-0.5,0,32,1,1,0.0,0,35.489883,-119.546165,0.0,0.003,253.0,6,3,0.8,0,0.0,-1,0.0,0.0,0.0,0
46094,1506783252934,,,,,,,,0.0,0.09,0.99,1.7,-1.2,-0.5,0,32,,,,,,,,,,,,,,,,,,,
46114,1506783252954,,,,,,,,0.0,0.09,0.99,1.6,-1.2,-0.5,0,40,,,,,,,,,,,,,,,,,,,
46134,1506783252974,,,,,,,,0.0,0.09,0.99,1.6,-1.2,-0.4,0,40,,,,,,,,,,,,,,,,,,,
46154,1506783252994,,,,,,,,0.0,0.09,0.99,1.5,-1.2,-0.4,0,48,,,,,,,,,,,,,,,,,,,
46174,1506783253008,,,,,29,,,0.0,0.09,0.99,1.5,-1.2,-0.4,0,48,1,1,0.0,0,35.489883,-119.546165,0.0,0.003,253.0,6,3,0.8,0,0.0,-1,0.0,0.0,0.0,0
46194,1506783253028,,,,,,,,0.01,0.09,0.99,1.4,-1.2,-0.4,0,48,,,,,,,,,,,,,,,,,,,
46214,1506783253048,,,,,,,,0.01,0.09,0.99,1.4,-1.2,-0.4,0,46,,,,,,,,,,,,,,,,,,,
46234,1506783253068,,,,,,,,0.01,0.09,0.99,1.3,-1.2,-0.4,0,46,,,,,,,,,,,,,,,,,,,
46254,1506783253094,,,,,,,,0.01,0.09,0.99,1.3,-1.1,-0.4,0,45,,,,,,,,,,,,,,,,,,,
46274,1506783253114,0,57.8,,57.6,28,56.6,,0.01,0.09,0.99,1.2,-1.1,-0.4,0,45,1,1,0.0,0,35.489883,-119.546165,0.0,0.003,253.0,6,3,0.8,0,0.0,-1,0.0,0.0,0.0,0
46294,1506783253134,,,,,,,,0.01,0.09,0.99,1.2,-1.1,-0.4,0,40,,,,,,,,,,,,,,,,,,,
46314,1506783253154,,,,,,,,0.01,0.09,0.99,1.2,-1.1,-0.4,0,40,,,,,,,,,,,,,,,,,,,
46334,1506783253174,,,,,,,,0.01,0.09,0.99,1.1,-1.1,-0.4,0,37,,,,,,,,,,,,,,,,,,,
46354,1506783253194,,,,,,,,0.01,0.09,0.99,1.1,-1.1,-0.4,0,37,,,,,,,,,,,,,,,,,,,
46374,1506783253214,,,,,28,,,0.01,0.09,0.99,1.1,-1.1,-0.4,0,35,1,1,0.0,0,35.489883,-119.546165,0.0,0.003,253.0,6,3,0.8,0,0.0,-1,0.0,0.0,0.0,0
46394,1506783253234,,,,,,,,0.01,0.09,0.99,1.1,-1.1,-0.4,0,35,,,,,,,,,,,,,,,,,,,
46414,1506783253254,,,,,,,,0.01,0.09,0.99,1.0,-1.1,-0.4,0,37,,,,,,,,,,,,,,,,,,,
46434,1506783253274,,,,,,,,0.01,0.09,0.99,1.0,-1.1,-0.4,0,37,,,,,,,,,,,,,,,,,,,
46454,1506783253294,,,,,,,,0.01,0.09,0.99,1.0,-1.1,-0.3,0,37,,,,,,,,,,,,,,,,,,,
46474,1506783253314,0,56.9,,56.5,27,55.4,,0.01,0.09,0.99,0.9,-1.1,-0.4,0,37,1,1,0.0,0,35.489883,-119.546165,0.0,0.003,253.0,6,3,0.8,0,0.0,-1,0.0,0.0,0.0,0
46494,1506783253334,,,,,,,,0.01,0.09,0.99,0.9,-1.1,-0.4,0,37,,,,,,,,,,,,,,,,,,,
46514,1506783253354,,,,,,,,0.01,0.09,0.99,0.8,-1.1,-0.4,0,37,,,,,,,,,,,,,,,,,,,
46534,1506783253374,,,,,,,,0.01,0.09,0.99,0.8,-1.1,-0.4,0,37,,,,,,,,,,,,,,,,,,,
46554,1506783253394,,,,,,,,0.01,0.09,0.99,0.8,-1.1,-0.4,0,37,,,,,,,,,,,,,,,,,,,
46574,1506783253414,,,,,27,,,0.01,0.09,0.99,0.7,-1.1,-0.4,0,35,1,1,0.0,0,35.489883,-119.546165,0.0,0.003,253.0,6,3,0.8,0,0.0,-1,0.0,0.0,0.0,0
46594,1506783253434,,,,,,,,0.01,0.09,0.99,0.7,-1.1,-0.4,0,35,,,,,,,,,,,,,,,,,,,
46614,1506783253454,,,,,,,,0.01,0.09,0.99,0.7,-1.1,-0.4,0,34,,,,,,,,,,,,,,,,,,,
46634,1506783253474,,,,,,,,0.01,0.09,0.99,0.6,-1.1,-0.4,0,34,,,,,,,,,,,,,,,,,,,
46654,1506783253494,,,,,,,,0.01,0.09,0.98,0.6,-1.2,-0.4,0,34,,,,,,,,,,,,,,,,,,,
46674,1506783253514,0,56.9,,57.3,26,57.2,,0.01,0.1,0.97,0.5,-1.2,-0.4,0,34,1,1,0.0,0,35.489883,-119.546165,0.0,0.003,253.0,6,3,0.8,0,0.0,-1,0.0,0.0,0.0,0
46694,1506783253534,,,,,,,,0.01,0.11,0.96,0.5,-1.1,-0.4,0,34,,,,,,,,,,,,,,,,,,,
46714,1506783253554,,,,,,,,-0.0,0.09,0.98,0.5,-1.1,-0.7,0,32,,,,,,,,,,,,,,,,,,,
46734,1506783253574,,,,,,,,-0.01,0.1,0.97,0.5,-1.5,-0.6,0,32,,,,,,,,,,,,,,,,,,,
46754,1506783253593,,,,,,,,0.01,0.1,0.95,0.4,-2.0,-0.3,0,32,,,,,,,,,,,,,,,,,,,
46774,1506783253613,,,,,26,,,-0.0,0.11,0.93,0.3,-1.6,-0.2,0,32,1,1,0.0,0,35.489883,-119.546165,0.0,0.003,253.0,6,3,0.8,0,0.0,-1,0.0,0.0,0.0,0
46794,1506783253633,,,,,,,,0.0,0.11,0.91,0.3,-1.8,-0.1,0,32,,,,,,,,,,,,,,,,,,,
46814,1506783253653,,,,,,,,0.0,0.11,0.9,0.3,-1.8,-0.1,0,31,,,,,,,,,,,,,,,,,,,
46834,1506783253673,,,,,,,,0.01,0.11,0.93,0.2,-1.6,-0.1,0,31,,,,,,,,,,,,,,,,,,,
46854,1506783253693,,,,,,,,0.01,0.11,0.94,0.2,-1.5,-0.2,0,29,,,,,,,,,,,,,,,,,,,
46874,1506783253713,0,56.7,,56.9,26,56.0,,0.01,0.11,0.95,0.2,-1.6,-0.3,0,29,1,1,0.0,0,35.489883,-119.546165,0.0,0.003,253.0,6,3,0.8,0,0.0,-1,0.0,0.0,0.0,0
46894,1506783253733,,,,,,,,0.0,0.11,0.94,0.2,-1.6,-0.3,0,29,,,,,,,,,,,,,,,,,,,
46914,1506783253753,,,,,,,,0.01,0.11,0.96,0.1,-1.5,-0.3,0,29,,,,,,,,,,,,,,,,,,,
46934,1506783253773,,,,,,,,0.01,0.1,0.96,0.1,-1.5,-0.4,0,29,,,,,,,,,,,,,,,,,,,
46954,1506783253795,,,,,,,,0.01,0.1,0.96,0.0,-1.5,-0.4,0,29,,,,,,,,,,,,,,,,,,,
46974,1506783253815,,,,,27,,,0.02,0.1,0.97,-0.0,-1.4,-0.4,0,28,1,1,0.0,0,35.489883,-119.546165,0.0,0.003,253.0,6,3,0.8,0,0.0,-1,0.0,0.0,0.0,0
46994,1506783253835,,,,,,,,0.01,0.1,0.97,-0.1,-1.3,-0.4,0,28,,,,,,,,,,,,,,,,,,,
47014,1506783253855,,,,,,,,0.01,0.1,0.97,-0.1,-1.3,-0.4,0,28,,,,,,,,,,,,,,,,,,,
47034,1506783253875,,,,,,,,0.01,0.09,0.97,-0.1,-1.3,-0.4,0,26,,,,,,,,,,,,,,,,,,,
47054,1506783253895,,,,,,,,0.01,0.09,0.99,-0.2,-1.2,-0.4,0,26,,,,,,,,,,,,,,,,,,,
47074,1506783253915,0,56.5,-0.2,56.7,28,56.1,9.65,0.01,0.09,1.01,-0.3,-1.3,-0.4,0,26,1,1,0.0,0,35.489883,-119.546165,0.0,0.003,253.0,6,3,0.8,0,0.0,-1,0.0,0.0,0.0,0
47094,1506783253935,,,,,,,,-0.0,0.09,1.03,-0.3,-1.4,-0.3,0,26,,,,,,,,,,,,,,,,,,,
47114,1506783253955,,,,,,,,-0.02,0.09,1.04,-0.4,-1.1,-0.2,0,26,,,,,,,,,,,,,,,,,,,
47134,1506783253975,,,,,,,,-0.02,0.09,1.04,-0.4,-1.3,-0.1,0,26,,,,,,,,,,,,,,,,,,,
47154,1506783253995,,,,,,,,-0.03,0.07,1.05,-0.4,-1.1,-0.2,0,25,,,,,,,,,,,,,,,,,,,
47174,1506783254009,,,,,29,,,-0.02,0.08,1.05,-0.5,-1.1,-0.3,0,25,1,1,0.0,0,35.489883,-119.546165,0.0,0.003,253.0,6,3,0.8,0,0.0,-1,0.0,0.0,0.0,0
47194,1506783254029,,,,,,,,-0.02,0.08,1.06,-0.5,-1.3,-0.4,0,25,,,,,,,,,,,,,,,,,,,
47214,1506783254049,,,,,,,,-0.02,0.07,1.1,-0.6,-1.6,-0.6,0,23,,,,,,,,,,,,,,,,,,,
47234,1506783254069,,,,,,,,-0.03,0.06,1.07,-0.6,-1.7,-0.8,0,23,,,,,,,,,,,,,,,,,,,
47254,1506783254093,,,,,,,,-0.03,0.05,1.05,-0.6,-1.6,-0.8,0,23,,,,,,,,,,,,,,,,,,,
47274,1506783254113,0,57.2,,57.3,30,56.6,,-0.03,0.05,1.01,-0.5,-1.7,-0.6,0,23,1,1,0.0,0,35.489883,-119.546165,0.0,0.003,253.0,6,3,0.8,0,0.0,-1,0.0,0.0,0.0,0
47294,1506783254133,,,,,,,,-0.03,0.07,1.01,-0.6,-1.6,-0.6,0,23,,,,,,,,,,,,,,,,,,,
47314,1506783254153,,,,,,,,-0.02,0.1,0.99,-0.6,-1.5,-0.5,0,23,,,,,,,,,,,,,,,,,,,
47334,1506783254173,,,,,,,,-0.01,0.13,1.0,-0.7,-1.5,-0.4,40,23,,,,,,,,,,,,,,,,,,,
47354,1506783254195,,,,,,,,-0.01,0.13,1.04,-0.7,-1.3,-0.4,40,22,,,,,,,,,,,,,,,,,,,
47374,1506783254215,,,,,32,,,-0.01,0.12,1.03,-0.8,-1.4,-0.3,40,22,1,1,1.739,0,35.489883,-119.546165,0.0,0.003,253.0,6,3,0.8,0,0.0,-1,0.0,0.0,0.0,0
47394,1506783254235,,,,,,,,0.01,0.15,1.02,-0.8,-1.1,-0.1,340,22,,,,,,,,,,,,,,,,,,,
47414,1506783254255,,,,,,,,0.0,0.13,1.0,-0.9,-1.2,-0.2,340,20,,,,,,,,,,,,,,,,,,,
47434,1506783254275,,,,,,,,-0.0,0.15,1.0,-0.9,-1.2,-0.2,540,20,,,,,,,,,,,,,,,,,,,
47454,1506783254295,,,,,,,,-0.0,0.14,1.06,-1.0,-1.1,-0.4,660,20,,,,,,,,,,,,,,,,,,,
47474,1506783254315,0,56.3,,55.8,40,55.7,,-0.01,0.14,1.04,-1.1,-1.3,-0.4,660,20,1,1,27.0,0,35.489883,-119.546165,0.0,0.003,253.0,6,3,0.8,0,0.0,-1,0.0,0.0,0.0,0
47494,1506783254335,,,,,,,,0.0,0.15,1.02,-1.2,-1.7,-0.1,760,20,,,,,,,,,,,,,,,,,,,
47514,1506783254355,,,,,,,,0.02,0.16,1.0,-1.1,-1.2,0.1,820,18,,,,,,,,,,,,,,,,,,,
47534,1506783254375,,,,,,,,0.03,0.17,1.0,-1.1,-1.5,-0.1,840,18,,,,,,,,,,,,,,,,,,,
47554,1506783254395,,,,,,,,0.02,0.15,0.97,-1.1,-1.6,-0.3,880,18,,,,,,,,,,,,,,,,,,,
47574,1506783254415,,,,,53,,,0.01,0.12,1.03,-1.1,-1.2,-0.6,920,18,1,1,46.667,0,35.489883,-119.546165,0.0,0.003,253.0,6,3,0.8,0,0.0,-1,0.0,0.0,0.0,0
47594,1506783254435,,,,,,,,0.01,0.11,1.02,-1.2,-1.6,-0.6,940,17,,,,,,,,,,,,,,,,,,,
47614,1506783254455,,,,,,,,0.02,0.1,1.03,-1.2,-1.3,-0.5,960,17,,,,,,,,,,,,,,,,,,,
47634,1506783254475,,,,,,,,0.02,0.07,1.03,-1.2,-0.5,-0.5,960,17,,,,,,,,,,,,,,,,,,,
47654,1506783254495,,,,,,,,0.04,0.08,1.0,-1.2,-0.7,-0.6,960,17,,,,,,,,,,,,,,,,,,,
47674,1506783254515,0,56.2,,57.9,61,58.2,,0.05,0.08,0.99,-1.3,-0.7,-0.7,900,17,1,1,60.0,0,35.489883,-119.546165,0.0,0.003,253.0,6,3,0.8,0,0.0,-1,0.0,0.0,0.0,0
47694,1506783254535,,,,,,,,0.05,0.08,0.97,-1.3,-0.8,-0.5,860,15,,,,,,,,,,,,,,,,,,,
47714,1506783254555,,,,,,,,0.04,0.06,1.02,-1.3,-0.7,-0.5,880,15,,,,,,,,,,,,,,,,,,,
47734,1506783254575,,,,,,,,0.06,0.08,0.94,-1.4,-0.5,-0.2,880,15,,,,,,,,,,,,,,,,,,,
47754,1506783254594,,,,,,,,0.06,0.08,0.9,-1.4,-0.9,-0.3,940,15,,,,,,,,,,,,,,,,,,,
47774,1506783254614,,,,,65,,,0.05,0.07,0.94,-1.4,-1.3,-0.4,920,15,1,1,58.667,0,35.489883,-119.546165,0.0,0.003,253.0,6,3,0.8,0,0.0,-1,0.0,0.0,0.0,0
47794,1506783254634,,,,,,,,0.03,0.07,0.95,-1.4,-0.8,-0.5,960,15,,,,,,,,,,,,,,,,,,,
47814,1506783254654,,,,,,,,0.05,0.09,0.96,-1.4,-0.4,-0.7,980,12,,,,,,,,,,,,,,,,,,,
47834,1506783254674,,,,,,,,0.07,0.09,0.94,-1.4,-0.3,-0.7,1000,12,,,,,,,,,,,,,,,,,,,
47854,1506783254694,,,,,,,,0.08,0.07,0.92,-1.4,-0.5,-0.7,1020,12,,,,,,,,,,,,,,,,,,,
47874,1506783254714,0,56.9,,58.4,66,58.4,,0.08,0.05,0.91,-1.4,-0.7,-0.7,1040,12,1,1,83.333,0,35.489883,-119.546165,0.0,0.003,253.0,6,3,0.8,0,0.0,-1,0.0,0.0,0.0,0
47894,1506783254734,,,,,,,,0.08,0.05,0.91,-1.5,-0.9,-0.7,1040,12,,,,,,,,,,,,,,,,,,,
47914,1506783254754,,,,,,,,0.06,0.05,0.92,-1.5,-0.9,-0.8,1060,12,,,,,,,,,,,,,,,,,,,
47934,1506783254774,,,,,,,,0.05,0.04,0.95,-1.5,-0.7,-0.8,1100,12,,,,,,,,,,,,,,,,,,,
47954,1506783254794,,,,,,,,0.05,0.05,0.94,-1.5,-0.8,-0.8,1120,12,,,,,,,,,,,,,,,,,,,
47974,1506783254814,,,,,66,,,0.05,0.07,0.9,-1.6,-1.0,-0.7,1140,12,1,1,91.667,0,35.489883,-119.546165,0.0,0.003,253.0,6,3,0.8,0,0.0,-1,0.0,0.0,0.0,0
47994,1506783254834,,,,,,,,0.04,0.08,0.93,-1.6,-0.7,-0.6,1180,12,,,,,,,,,,,,,,,,,,,
48014,1506783254854,,,,,,,,0.02,0.06,0.93,-1.6,-1.0,-0.6,1200,12,,,,,,,,,,,,,,,,,,,
48034,1506783254874,,,,,,,,0.03,0.08,0.93,-1.7,-1.2,-0.6,1220,12,,,,,,,,,,,,,,,,,,,
48054,1506783254894,,,,,,,,0.01,0.07,0.96,-1.8,-1.0,-0.6,1280,12,,,,,,,,,,,,,,,,,,,
48074,1506783254914,0,57.2,-0.2,58.2,68,58.4,14.88,0.02,0.08,0.96,-1.8,-1.0,-0.6,1300,12,1,1,101.667,0,35.489883,-119.546165,0.0,0.003,253.0,6,3,0.8,0,0.0,-1,0.0,0.0,0.0,0
48094,1506783254934,,,,,,,,0.01,0.07,0.96,-1.9,-1.2,-0.6,1320,12,,,,,,,,,,,,,,,,,,,
48114,1506783254954,,,,,,,,0.01,0.08,0.95,-2.0,-1.1,-0.5,1300,12,,,,,,,,,,,,,,,,,,,
48134,1506783254974,,,,,,,,0.02,0.07,0.95,-1.9,-1.2,-0.5,1340,12,,,,,,,,,,,,,,,,,,,
48154,1506783254994,,,,,,,,0.01,0.06,0.94,-2.0,-1.6,-0.5,1360,12,,,,,,,,,,,,,,,,,,,
48174,1506783255008,,,,,67,,,0.01,0.05,0.95,-2.0,-1.4,-0.6,1420,12,1,1,111.667,0,35.489883,-119.546165,0.0,0.003,253.0,6,3,0.8,0,0.0,-1,0.0,0.0,0.0,0
48194,1506783255028,,,,,,,,-0.0,0.06,0.96,-2.0,-1.1,-0.7,1440,12,,,,,,,,,,,,,,,,,,,
48214,1506783255048,,,,,,,,-0.01,0.06,0.97,-2.1,-0.7,-0.7,1500,12,,,,,,,,,,,,,,,,,,,
48234,1506783255068,,,,,,,,-0.02,0.05,0.97,-2.2,-0.7,-0.7,1540,12,,,,,,,,,,,,,,,,,,,
48254,1506783255092,,,,,,,,-0.02,0.06,1.0,-2.2,-0.6,-0.6,1600,12,,,,,,,,,,,,,,,,,,,
48274,1506783255112,0,56.9,,58.4,67,57.8,,-0.02,0.09,0.98,-2.3,-0.9,-0.7,1620,12,1,1,128.333,0,35.489883,-119.546165,0.0,0.003,253.0,6,3,0.8,0,0.0,-1,0.0,0.0,0.0,0
48294,1506783255132,,,,,,,,-0.01,0.07,0.96,-2.3,-1.0,-0.7,1680,12,,,,,,,,,,,,,,,,,,,
48314,1506783255152,,,,,,,,-0.0,0.05,0.97,-2.3,-0.7,-0.7,1760,12,,,,,,,,,,,,,,,,,,,
48334,1506783255172,,,,,,,,-0.0,0.07,0.98,-2.4,-0.8,-0.7,1840,12,,,,,,,,,,,,,,,,,,,
48354,1506783255194,,,,,,,,-0.01,0.06,1.02,-2.4,-0.9,-0.6,1900,12,,,,,,,,,,,,,,,,,,,
48374,1506783255214,,,,,69,,,-0.03,0.08,1.0,-2.5,-0.5,-0.6,1980,12,1,1,150.0,0,35.489883,-119.546165,0.0,0.003,253.0,6,3,0.8,0,0.0,-1,0.0,0.0,0.0,0
48394,1506783255234,,,,,,,,-0.04,0.08,1.03,-2.5,0.2,-0.7,2020,12,,,,,,,,,,,,,,,,,,,
48414,1506783255254,,,,,,,,-0.05,0.11,0.97,-2.6,0.6,-0.7,2080,12,,,,,,,,,,,,,,,,,,,
48434,1506783255274,,,,,,,,-0.04,0.11,0.94,-2.6,1.0,-0.6,2140,12,,,,,,,,,,,,,,,,,,,
48454,1506783255294,,,,,,,,-0.05,0.12,0.96,-2.7,1.2,-0.6,2180,12,,,,,,,,,,,,,,,,,,,
48474,1506783255314,0,55.8,,55.7,71,57.8,,-0.05,0.09,1.02,-2.8,0.9,-0.6,2220,12,1,1,178.333,0,35.489883,-119.546165,0.0,0.003,253.0,6,3,0.8,0,0.0,-1,0.0,0.0,0.0,0
48494,1506783255334,,,,,,,,-0.04,0.1,0.97,-2.8,0.3,-0.6,2280,12,,,,,,,,,,,,,,,,,,,
48514,1506783255354,,,,,,,,-0.01,0.11,0.94,-2.8,0.0,-0.7,2320,12,,,,,,,,,,,,,,,,,,,
48534,1506783255374,,,,,,,,-0.02,0.11,0.94,-2.8,-0.1,-0.7,2340,12,,,,,,,,,,,,,,,,,,,
48554,1506783255394,,,,,,,,-0.01,0.13,0.94,-3.0,-0.7,-0.7,2400,12,,,,,,,,,,,,,,,,,,,
48574,1506783255414,,,,,70,,,-0.01,0.12,0.95,-3.0,-0.4,-0.7,2420,12,1,1,195.0,0,35.489883,-119.546165,0.0,0.003,253.0,6,3,0.8,0,0.0,-1,0.0,0.0,0.0,0
48594,1506783255434,,,,,,,,-0.01,0.12,0.97,-3.0,-0.5,-0.8,2460,2,,,,,,,,,,,,,,,,,,,
48614,1506783255454,,,,,,,,-0.02,0.11,0.99,-3.1,-0.3,-0.8,2480,2,,,,,,,,,,,,,,,,,,,
48634,1506783255474,,,,,,,,-0.04,0.12,1.02,-3.2,-0.6,-0.7,2480,2,,,,,,,,,,,,,,,,,,,
48654,1506783255494,,,,,,,,-0.03,0.11,1.03,-3.1,-0.4,-0.6,2500,2,,,,,,,,,,,,,,,,,,,
48674,1506783255514,1,54.5,,57.4,72,55.8,,-0.06,0.08,1.1,-3.2,-0.7,-0.8,2560,22,1,1,2480.0,0,35.489883,-119.546165,0.0,0.003,253.0,6,3,0.8,0,0.0,-1,0.0,0.0,0.0,0
48694,1506783255534,,,,,,,,-0.06,0.11,1.05,-3.3,-0.5,-0.7,2560,22,,,,,,,,,,,,,,,,,,,
48714,1506783255554,,,,,,,,-0.07,0.1,1.06,-3.3,-1.0,-0.8,2520,26,,,,,,,,,,,,,,,,,,,
48734,1506783255574,,,,,,,,-0.07,0.09,1.07,-3.3,-0.5,-0.7,2540,26,,,,,,,,,,,,,,,,,,,
48754,1506783255593,,,,,,,,-0.06,0.09,1.03,-3.5,-0.7,-0.6,2540,26,,,,,,,,,,,,,,,,,,,
48774,1506783255613,,,,,71,,,-0.07,0.09,1.03,-3.6,-0.7,-0.6,2520,26,1,1,97.692,0,35.489883,-119.546165,0.0,0.003,253.0,6,3,0.8,0,0.0,-1,0.0,0.0,0.0,0
48794,1506783255633,,,,,,,,-0.06,0.1,0.96,-3.7,-1.2,-0.4,2560,26,,,,,,,,,,,,,,,,,,,
48814,1506783255653,,,,,,,,-0.08,0.09,0.95,-3.8,-1.3,-0.5,2580,32,,,,,,,,,,,,,,,,,,,
48834,1506783255673,,,,,,,,-0.06,0.1,0.96,-3.9,-1.6,-0.6,2580,32,,,,,,,,,,,,,,,,,,,
48854,1506783255695,,,,,,,,-0.08,0.09,1.0,-4.0,-1.8,-0.8,2540,37,,,,,,,,,,,,,,,,,,,
48874,1506783255715,0,55.8,,55.8,74,57.8,,-0.08,0.08,1.01,-4.1,-1.3,-0.8,2580,37,1,1,80.625,0,35.489883,-119.546165,0.0,0.003,253.0,6,3,0.8,0,0.0,-1,0.0,0.0,0.0,0
48894,1506783255735,,,,,,,,-0.09,0.07,1.01,-4.2,-1.5,-0.7,2580,42,,,,,,,,,,,,,,,,,,,
48914,1506783255755,,,,,,,,-0.09,0.09,1.03,-4.4,-1.2,-0.5,2540,48,,,,,,,,,,,,,,,,,,,
48934,1506783255775,,,,,,,,-0.1,0.09,1.05,-4.4,-1.6,-0.6,2540,48,,,,,,,,,,,,,,,,,,,
48954,1506783255795,,,,,,,,-0.11,0.09,1.05,-4.5,-1.2,-0.7,2520,55,,,,,,,,,,,,,,,,,,,
48974,1506783255815,,,,,70,,,-0.11,0.08,1.04,-4.6,-1.4,-0.7,2480,60,1,1,54.043,0,35.489883,-119.546165,0.0,0.003,253.0,6,3,0.8,0,0.0,-1,0.0,0.0,0.0,0
48994,1506783255835,,,,,,,,-0.12,0.07,1.05,-4.6,-1.1,-0.7,2480,66,,,,,,,,,,,,,,,,,,,
49014,1506783255855,,,,,,,,-0.11,0.07,1.04,-4.7,-0.9,-0.5,2460,69,,,,,,,,,,,,,,,,,,,
49034,1506783255875,,,,,,,,-0.11,0.09,1.05,-4.8,-0.4,-0.6,2420,72,,,,,,,,,,,,,,,,,,,
49054,1506783255895,,,,,,,,-0.11,0.08,1.04,-4.8,-0.9,-0.5,2400,74,,,,,,,,,,,,,,,,,,,
49074,1506783255915,0,55.2,-0.4,58.0,72,55.8,14.87,-0.11,0.09,1.05,-4.9,-0.5,-0.5,2380,78,1,1,33.611,0,35.489883,-119.546165,1.01,0.003,256.0,6,3,0.8,0,0.0,-1,0.0,0.0,0.0,0
49094,1506783255935,,,,,,,,-0.13,0.1,1.06,-5.0,-0.9,-0.7,2360,85,,,,,,,,,,,,,,,,,,,
49114,1506783255955,,,,,,,,-0.12,0.09,1.03,-5.1,-0.7,-0.7,2300,88,,,,,,,,,,,,,,,,,,,
49134,1506783255975,,,,,,,,-0.13,0.1,1.03,-5.2,-0.4,-0.7,2260,88,,,,,,,,,,,,,,,,,,,
49154,1506783255995,,,,,,,,-0.14,0.1,1.0,-5.3,-0.9,-0.6,2240,92,,,,,,,,,,,,,,,,,,,
49174,1506783256007,,,,,71,,,-0.14,0.08,1.01,-5.3,-1.1,-0.6,2180,97,1,1,25.977,0,35.489883,-119.546165,1.25,0.003,256.4,6,3,0.8,0,0.0,-1,0.0,0.0,0.0,0
49194,1506783256027,,,,,,,,-0.13,0.1,1.0,-5.3,-0.9,-0.7,2140,100,,,,,,,,,,,,,,,,,,,
49214,1506783256047,,,,,,,,-0.13,0.1,1.03,-5.4,-0.6,-0.9,2120,105,,,,,,,,,,,,,,,,,,,
49234,1506783256067,,,,,,,,-0.14,0.09,1.03,-5.4,-0.4,-0.8,2080,106,,,,,,,,,,,,,,,,,,,
49254,1506783256095,,,,,,,,-0.16,0.07,1.01,-5.4,-0.5,-0.8,2040,114,,,,,,,,,,,,,,,,,,,
49274,1506783256115,0,54.4,,56.0,71,55.7,,-0.17,0.08,1.01,-5.5,-0.7,-0.7,2020,118,1,1,19.623,0,35.489883,-119.546165,1.53,0.003,256.6,6,3,0.8,0,0.0,-1,0.0,0.0,0.0,0
49294,1506783256135,,,,,,,,-0.17,0.08,1.0,-5.5,-1.0,-0.6,1980,120,,,,,,,,,,,,,,,,,,,
49314,1506783256155,,,,,,,,-0.16,0.09,1.0,-5.5,-1.2,-0.6,1960,126,,,,,,,,,,,,,,,,,,,
49334,1506783256175,,,,,,,,-0.16,0.09,1.0,-5.5,-1.1,-0.6,1920,131,,,,,,,,,,,,,,,,,,,
49354,1506783256195,,,,,,,,-0.16,0.09,1.0,-5.4,-1.2,-0.5,1880,137,,,,,,,,,,,,,,,,,,,
49374,1506783256215,,,,,68,,,-0.16,0.08,1.02,-5.3,-0.9,-0.5,1860,138,1,1,14.769,0,35.489883,-119.546165,2.05,0.003,256.9,6,3,0.8,0,0.0,-1,0.0,0.0,0.0,0
49394,1506783256235,,,,,,,,-0.16,0.07,1.04,-5.3,-0.6,-0.6,1840,145,,,,,,,,,,,,,,,,,,,
49414,1506783256255,,,,,,,,-0.15,0.07,1.04,-5.3,-0.6,-0.7,1840,149,,,,,,,,,,,,,,,,,,,
49434,1506783256275,,,,,,,,-0.14,0.06,1.01,-5.2,-0.6,-0.6,1800,152,,,,,,,,,,,,,,,,,,,
49454,1506783256295,,,,,,,,-0.15,0.06,1.03,-5.2,-0.6,-0.6,1780,149,,,,,,,,,,,,,,,,,,,
49474,1506783256315,0,54.6,,56.7,68,55.4,,-0.14,0.06,1.01,-5.2,-0.9,-0.6,1760,157,1,1,11.842,0,35.489883,-119.546165,2.49,0.003,256.9,6,3,0.8,0,0.0,-1,0.0,0.0,0.0,0
49494,1506783256335,,,,,,,,-0.15,0.05,1.02,-5.1,-1.0,-0.6,1760,163,,,,,,,,,,,,,,,,,,,
49514,1506783256355,,,,,,,,-0.15,0.04,1.03,-5.0,-0.9,-0.6,1740,166,,,,,,,,,,,,,,,,,,,
49534,1506783256375,,,,,,,,-0.15,0.04,1.03,-4.9,-0.8,-0.6,1720,174,,,,,,,,,,,,,,,,,,,
49554,1506783256395,,,,,,,,-0.14,0.05,1.01,-4.8,-0.7,-0.5,1700,177,,,,,,,,,,,,,,,,,,,
49574,1506783256415,,,,,65,,,-0.13,0.04,0.99,-4.6,-0.9,-0.6,1700,182,1,1,9.942,0,35.489883,-119.546165,2.74,0.003,257.0,6,3,0.8,0,0.0,-1,0.0,0.0,0.0,0
49594,1506783256435,,,,,,,,-0.14,0.05,1.0,-4.4,-0.9,-0.6,1700,183,,,,,,,,,,,,,,,,,,,
49614,1506783256455,,,,,,,,-0.14,0.06,1.02,-4.3,-0.6,-0.5,1680,186,,,,,,,,,,,,,,,,,,,
49634,1506783256475,,,,,,,,-0.15,0.05,1.04,-4.2,-0.6,-0.7,1680,192,,,,,,,,,,,,,,,,,,,
49654,1506783256495,,,,,,,,-0.14,0.04,1.07,-4.1,-0.8,-0.6,1660,192,,,,,,,,,,,,,,,,,,,
49674,1506783256515,0,54.6,,56.7,68,55.8,,-0.14,0.03,1.05,-3.9,-0.7,-0.5,1680,195,1,1,8.75,0,35.489883,-119.546165,2.99,0.003,257.0,6,3,0.8,0,0.0,-1,0.0,0.0,0.0,0
49694,1506783256535,,,,,,,,-0.13,0.02,1.04,-3.8,-0.6,-0.5,1680,203,,,,,,,,,,,,,,,,,,,
49714,1506783256555,,,,,,,,-0.13,0.01,1.04,-3.7,-0.7,-0.5,1660,208,,,,,,,,,,,,,,,,,,,
49734,1506783256575,,,,,,,,-0.13,0.02,1.04,-3.6,-0.7,-0.5,1640,214,,,,,,,,,,,,,,,,,,,
49754,1506783256594,,,,,,,,-0.13,0.01,1.04,-3.6,-0.7,-0.6,1660,214,,,,,,,,,,,,,,,,,,,
49774,1506783256614,,,,,64,,,-0.13,0.02,1.02,-3.5,-1.1,-0.5,1640,211,1,1,7.905,0,35.489883,-119.546165,3.43,0.003,257.0,6,3,0.8,0,0.0,-1,0.0,0.0,0.0,0
49794,1506783256634,,,,,,,,-0.13,0.02,1.02,-3.3,-1.1,-0.5,1620,217,,,,,,,,,,,,,,,,,,,
49814,1506783256654,,,,,,,,-0.13,0.03,1.01,-3.2,-1.1,-0.5,1560,231,,,,,,,,,,,,,,,,,,,
49834,1506783256674,,,,,,,,-0.13,0.03,1.02,-3.0,-1.3,-0.5,1560,229,,,,,,,,,,,,,,,,,,,
49854,1506783256694,,,,,,,,-0.13,0.03,1.03,-2.9,-1.0,-0.7,1540,228,,,,,,,,,,,,,,,,,,,
49874,1506783256714,0,57.2,,58.7,66,58.1,,-0.13,0.04,1.05,-2.8,-1.3,-0.7,1500,235,1,1,6.812,0,35.489883,-119.54615,3.65,0.003,257.0,6,3,0.8,0,0.0,-1,0.0,0.0,0.0,0
49894,1506783256734,,,,,,,,-0.13,0.05,1.02,-2.6,-1.4,-0.7,1460,246,,,,,,,,,,,,,,,,,,,
49914,1506783256754,,,,,,,,-0.14,0.05,1.02,-2.5,-1.2,-0.7,1400,240,,,,,,,,,,,,,,,,,,,
49934,1506783256774,,,,,,,,-0.14,0.04,1.03,-2.3,-1.4,-0.7,1360,237,,,,,,,,,,,,,,,,,,,
49954,1506783256794,,,,,,,,-0.14,0.04,1.01,-2.2,-1.3,-0.6,1320,252,,,,,,,,,,,,,,,,,,,
49974,1506783256814,,,,,64,,,-0.14,0.04,1.01,-2.0,-1.2,-0.6,1240,272,1,1,5.763,0,35.489883,-119.54615,4.07,0.004,257.1,6,3,0.8,0,0.0,-1,0.0,0.0,0.0,0
49994,1506783256834,,,,,,,,-0.14,0.03,1.0,-1.9,-1.3,-0.6,1180,266,,,,,,,,,,,,,,,,,,,
50014,1506783256854,,,,,,,,-0.15,0.03,1.01,-1.7,-1.1,-0.7,1100,252,,,,,,,,,,,,,,,,,,,
50034,1506783256874,,,,,,,,-0.15,0.02,1.01,-1.6,-1.1,-0.7,1020,260,,,,,,,,,,,,,,,,,,,
50054,1506783256894,,,,,,,,-0.15,0.02,1.01,-1.4,-1.1,-0.7,940,275,,,,,,,,,,,,,,,,,,,
50074,1506783256914,0,54.8,-0.5,56.5,59,56.0,14.87,-0.15,0.02,1.0,-1.2,-1.1,-0.7,840,255,1,1,3.923,0,35.489883,-119.54615,4.3,0.004,257.1,6,3,0.8,0,0.0,-1,0.0,0.0,0.0,0
50094,1506783256934,,,,,,,,-0.14,0.02,1.0,-1.1,-1.1,-0.6,840,237,,,,,,,,,,,,,,,,,,,
50114,1506783256954,,,,,,,,-0.13,0.03,1.01,-0.9,-1.1,-0.5,760,228,,,,,,,,,,,,,,,,,,,
50134,1506783256974,,,,,,,,-0.11,0.04,0.99,-0.8,-1.3,-0.5,700,220,,,,,,,,,,,,,,,,,,,
50154,1506783256994,,,,,,,,-0.1,0.04,0.99,-0.7,-1.6,-0.5,700,215,,,,,,,,,,,,,,,,,,,
50174,1506783257008,,,,,56,,,-0.08,0.04,1.0,-0.6,-1.7,-0.5,680,200,1,1,3.182,1,35.489883,-119.54615,4.64,0.004,257.1,6,3,0.8,0,0.0,-1,0.0,0.0,0.0,0
50194,1506783257028,,,,,,,,-0.07,0.04,0.99,-0.5,-1.7,-0.5,620,194,,,,,,,,,,,,,,,,,,,
50214,1506783257048,,,,,,,,-0.06,0.05,1.0,-0.4,-1.8,-0.5,620,183,,,,,,,,,,,,,,,,,,,
50234,1506783257068,,,,,,,,-0.04,0.05,1.0,-0.3,-1.9,-0.5,580,178,,,,,,,,,,,,,,,,,,,
50254,1506783257094,,,,,,,,-0.01,0.05,1.0,-0.2,-1.8,-0.4,580,182,,,,,,,,,,,,,,,,,,,
50274,1506783257114,0,56.1,,55.4,55,56.1,,0.02,0.05,1.01,-0.2,-2.0,-0.4,560,298,1,1,3.169,1,35.489883,-119.54615,4.96,0.004,257.1,6,3,0.8,0,0.0,-1,0.0,0.0,0.0,0
50294,1506783257134,,,,,,,,0.02,0.05,1.0,-0.2,-2.1,-0.4,540,382,,,,,,,,,,,,,,,,,,,
50314,1506783257154,,,,,,,,0.02,0.05,1.0,-0.2,-2.1,-0.5,540,320,,,,,,,,,,,,,,,,,,,
50334,1506783257174,,,,,,,,0.02,0.05,1.01,-0.2,-2.2,-0.5,520,231,,,,,,,,,,,,,,,,,,,
50354,1506783257194,,,,,,,,0.03,0.06,1.01,-0.2,-2.1,-0.6,520,172,,,,,,,,,,,,,,,,,,,
50374,1506783257214,,,,,55,,,0.05,0.06,0.99,-0.2,-1.9,-0.6,520,225,1,1,2.261,0,35.489883,-119.54615,4.58,0.004,257.1,6,3,0.8,0,0.0,-1,0.0,0.0,0.0,0
50394,1506783257234,,,,,,,,0.04,0.05,1.0,-0.2,-1.8,-0.6,520,317,,,,,,,,,,,,,,,,,,,
50414,1506783257254,,,,,,,,0.04,0.05,0.99,-0.3,-1.6,-0.6,500,303,,,,,,,,,,,,,,,,,,,
50434,1506783257274,,,,,,,,0.04,0.05,1.0,-0.3,-1.6,-0.5,500,248,,,,,,,,,,,,,,,,,,,
50454,1506783257294,,,,,,,,0.04,0.05,0.99,-0.3,-1.5,-0.5,500,188,,,,,,,,,,,,,,,,,,,
50474,1506783257314,0,54.8,,57.2,55,57.2,,0.05,0.05,0.99,-0.3,-1.7,-0.6,500,215,1,1,2.024,2,35.489883,-119.546143,4.33,0.004,257.1,6,3,0.8,0,0.0,-1,0.0,0.0,0.0,0
50494,1506783257334,,,,,,,,0.05,0.05,1.0,-0.3,-1.7,-0.5,500,275,,,,,,,,,,,,,,,,,,,
50514,1506783257354,,,,,,,,0.06,0.06,1.0,-0.2,-1.6,-0.5,500,285,,,,,,,,,,,,,,,,,,,
50534,1506783257374,,,,,,,,0.06,0.07,1.0,-0.3,-1.5,-0.4,500,240,,,,,,,,,,,,,,,,,,,
50554,1506783257394,,,,,,,,0.06,0.06,1.0,-0.3,-1.5,-0.3,500,203,,,,,,,,,,,,,,,,,,,
50574,1506783257414,,,,,57,,,0.06,0.07,1.01,-0.3,-1.5,-0.3,540,200,1,1,1.938,2,35.489883,-119.546143,4.15,0.004,257.1,6,3,0.8,0,0.0,-1,0.0,0.0,0.0,0
50594,1506783257434,,,,,,,,0.07,0.08,1.01,-0.3,-1.4,-0.2,540,251,,,,,,,,,,,,,,,,,,,
50614,1506783257454,,,,,,,,0.06,0.07,1.01,-0.3,-1.5,-0.2,560,271,,,,,,,,,,,,,,,,,,,
50634,1506783257474,,,,,,,,0.07,0.06,1.01,-0.3,-1.5,-0.3,560,237,,,,,,,,,,,,,,,,,,,
50654,1506783257494,,,,,,,,0.07,0.06,1.0,-0.3,-1.4,-0.3,560,194,,,,,,,,,,,,,,,,,,,
50674,1506783257514,0,56.6,,58.7,58,58.7,,0.08,0.06,1.0,-0.3,-1.3,-0.2,600,198,1,1,2.373,0,35.489883,-119.546143,4.16,0.004,257.0,6,3,0.8,0,0.0,-1,0.0,0.0,0.0,0
50694,1506783257534,,,,,,,,0.07,0.06,1.0,-0.3,-1.3,-0.4,640,235,,,,,,,,,,,,,,,,,,,
50714,1506783257554,,,,,,,,0.08,0.06,0.99,-0.3,-1.3,-0.5,640,248,,,,,,,,,,,,,,,,,,,
50734,1506783257574,,,,,,,,0.08,0.07,0.97,-0.3,-1.4,-0.4,700,225,,,,,,,,,,,,,,,,,,,
50754,1506783257591,,,,,,,,0.07,0.07,0.97,-0.4,-1.4,-0.3,760,235,,,,,,,,,,,,,,,,,,,
50774,1506783257611,,,,,66,,,0.07,0.07,0.99,-0.4,-1.4,-0.5,740,238,1,1,3.043,0,35.489883,-119.546143,4.16,0.005,257.0,6,3,0.8,0,0.0,-1,0.0,0.0,0.0,0
50794,1506783257631,,,,,,,,0.06,0.08,0.99,-0.4,-1.2,-0.6,740,242,,,,,,,,,,,,,,,,,,,
50814,1506783257651,,,,,,,,0.06,0.07,0.98,-0.5,-1.2,-0.6,820,248,,,,,,,,,,,,,,,,,,,
50834,1506783257671,,,,,,,,0.06,0.08,1.0,-0.5,-1.2,-0.6,820,249,,,,,,,,,,,,,,,,,,,
50854,1506783257695,,,,,,,,0.05,0.08,1.0,-0.4,-1.2,-0.6,840,257,,,,,,,,,,,,,,,,,,,
50874,1506783257715,0,57.3,,58.1,66,58.4,,0.05,0.07,0.99,-0.4,-1.3,-0.7,860,268,1,1,3.293,1,35.489887,-119.546143,3.84,0.005,257.0,6,3,0.8,0,0.0,-1,0.0,0.0,0.0,0
50894,1506783257735,,,,,,,,0.04,0.05,0.99,-0.4,-1.5,-1.0,900,275,,,,,,,,,,,,,,,,,,,
50914,1506783257755,,,,,,,,0.03,0.04,1.0,-0.5,-1.2,-1.0,920,277,,,,,,,,,,,,,,,,,,,
50934,1506783257775,,,,,,,,0.02,0.04,0.99,-0.5,-0.9,-0.9,920,265,,,,,,,,,,,,,,,,,,,
50954,1506783257795,,,,,,,,0.02,0.07,0.99,-0.6,-0.7,-0.8,920,220,,,,,,,,,,,,,,,,,,,
50974,1506783257815,,,,,65,,,0.02,0.07,0.97,-0.6,-0.9,-0.6,940,186,1,1,3.407,1,35.489887,-119.546143,3.8,0.005,257.1,6,3,0.8,0,0.0,-1,0.0,0.0,0.0,0
50994,1506783257835,,,,,,,,0.02,0.08,0.99,-0.6,-1.1,-0.4,940,215,,,,,,,,,,,,,,,,,,,
51014,1506783257855,,,,,,,,0.01,0.1,0.99,-0.7,-1.5,-0.3,940,268,,,,,,,,,,,,,,,,,,,
51034,1506783257875,,,,,,,,-0.01,0.11,1.0,-0.7,-1.4,-0.1,960,257,,,,,,,,,,,,,,,,,,,
51054,1506783257895,,,,,,,,-0.03,0.08,1.01,-0.7,-1.3,-0.1,960,217,,,,,,,,,,,,,,,,,,,
51074,1506783257915,0,56.7,-0.8,56.1,66,57.0,14.93,-0.04,0.07,1.01,-0.6,-1.1,-0.1,960,182,1,1,3.596,0,35.489887,-119.546143,3.86,0.005,257.0,6,3,0.8,0,0.0,-1,0.0,0.0,0.0,0
51094,1506783257935,,,,,,,,-0.03,0.08,1.01,-0.6,-1.0,-0.2,940,248,,,,,,,,,,,,,,,,,,,
51114,1506783257955,,,,,,,,-0.03,0.1,0.99,-0.5,-1.1,-0.2,940,280,,,,,,,,,,,,,,,,,,,
51134,1506783257975,,,,,,,,-0.05,0.12,0.99,-0.5,-1.1,-0.2,940,243,,,,,,,,,,,,,,,,,,,
51154,1506783257995,,,,,,,,-0.05,0.12,0.94,-0.5,-1.0,-0.2,920,197,,,,,,,,,,,,,,,,,,,
51174,1506783258009,,,,,64,,,-0.05,0.1,0.94,-0.4,-0.9,-0.3,920,203,1,1,3.615,0,35.489887,-119.546127,3.99,0.005,257.0,6,3,0.8,0,0.0,-1,0.0,0.0,0.0,0
51194,1506783258029,,,,,,,,-0.05,0.08,0.96,-0.4,-1.1,-0.6,900,272,,,,,,,,,,,,,,,,,,,
51214,1506783258049,,,,,,,,-0.05,0.07,0.94,-0.4,-1.5,-0.7,880,266,,,,,,,,,,,,,,,,,,,
51234,1506783258069,,,,,,,,-0.06,0.05,0.96,-0.4,-1.6,-0.7,880,248,,,,,,,,,,,,,,,,,,,
51254,1506783258095,,,,,,,,-0.05,0.04,0.96,-0.4,-1.4,-0.6,880,232,,,,,,,,,,,,,,,,,,,
51274,1506783258115,0,54.5,,56.7,61,56.3,,-0.04,0.05,0.98,-0.5,-1.4,-0.4,860,235,1,1,3.563,0,35.489887,-119.546127,4.2,0.005,257.0,6,3,0.8,0,0.0,-1,0.0,0.0,0.0,0
51294,1506783258135,,,,,,,,-0.05,0.05,0.99,-0.5,-1.6,-0.3,860,254,,,,,,,,,,,,,,,,,,,
51314,1506783258155,,,,,,,,-0.05,0.06,0.99,-0.5,-1.4,-0.2,840,251,,,,,,,,,,,,,,,,,,,
51334,1506783258175,,,,,,,,-0.05,0.07,0.99,-0.5,-1.1,-0.3,820,251,,,,,,,,,,,,,,,,,,,
51354,1506783258195,,,,,,,,-0.04,0.06,0.98,-0.4,-1.4,-0.5,800,251,,,,,,,,,,,,,,,,,,,
51374,1506783258215,,,,,60,,,-0.05,0.04,0.99,-0.4,-1.3,-0.6,800,251,1,1,3.28,1,35.489887,-119.546127,4.15,0.005,257.0,6,3,0.8,0,0.0,-1,0.0,0.0,0.0,0
51394,1506783258235,,,,,,,,-0.05,0.05,0.99,-0.4,-1.0,-0.5,780,246,,,,,,,,,,,,,,,,,,,
51414,1506783258255,,,,,,,,-0.04,0.05,0.98,-0.4,-1.3,-0.4,800,243,,,,,,,,,,,,,,,,,,,
51434,1506783258275,,,,,,,,-0.05,0.05,0.99,-0.4,-1.3,-0.4,800,246,,,,,,,,,,,,,,,,,,,
51454,1506783258295,,,,,,,,-0.04,0.04,1.01,-0.4,-1.3,-0.6,800,248,,,,,,,,,,,,,,,,,,,
51474,1506783258315,0,57.4,,59.3,60,59.3,,-0.04,0.03,1.01,-0.3,-1.6,-0.7,800,249,1,1,3.252,1,35.489887,-119.546127,4.51,0.005,256.9,6,3,0.8,0,0.0,-1,0.0,0.0,0.0,0
51494,1506783258335,,,,,,,,-0.04,0.03,1.0,-0.3,-1.5,-0.6,800,246,,,,,,,,,,,,,,,,,,,
51514,1506783258355,,,,,,,,-0.02,0.03,0.99,-0.4,-1.6,-0.5,800,245,,,,,,,,,,,,,,,,,,,
51534,1506783258375,,,,,,,,-0.02,0.04,0.99,-0.4,-1.7,-0.3,800,251,,,,,,,,,,,,,,,,,,,
51554,1506783258395,,,,,,,,-0.01,0.03,1.0,-0.3,-1.4,-0.4,820,254,,,,,,,,,,,,,,,,,,,
51574,1506783258415,,,,,58,,,-0.0,0.03,1.0,-0.3,-1.7,-0.6,840,246,1,1,3.2,1,35.489887,-119.546127,4.51,0.005,256.9,6,3,0.8,0,0.0,-1,0.0,0.0,0.0,0
51594,1506783258405,,,,,,,,-0.0,0.02,0.99,-0.3,-1.6,-0.6,860,237,,,,,,,,,,,,,,,,,,,
51614,1506783258425,,,,,,,,0.01,0.03,0.99,-0.2,-1.3,-0.5,860,229,,,,,,,,,,,,,,,,,,,
51634,1506783258445,,,,,,,,0.01,0.04,0.99,-0.3,-1.5,-0.3,880,220,,,,,,,,,,,,,,,,,,,
51654,1506783258495,,,,,,,,0.01,0.06,1.0,-0.3,-1.6,-0.2,880,212,,,,,,,,,,,,,,,,,,,
51674,1506783258515,0,56.2,,58.7,62,58.4,,0.02,0.06,0.99,-0.3,-1.3,-0.0,900,208,1,1,-3.894,-1,35.489887,-119.546127,4.47,0.006,257.0,7,3,1.9,0,0.0,-1,0.0,0.0,0.0,0
51694,1506783258535,,,,,,,,0.02,0.07,0.99,-0.3,-1.4,-0.1,920,202,,,,,,,,,,,,,,,,,,,
51714,1506783258555,,,,,,,,0.03,0.06,0.99,-0.2,-1.7,-0.2,940,211,,,,,,,,,,,,,,,,,,,
