"Interval"|"ms"|0|0|1,"Utc"|"ms"|0|0|1,"FuelLevel"|"F"|0|100|5,"OilTemp"|"F"|0.0|300.0|5,"CoolantPressPSI"|"PSI"|0.0|20.0|1,"Coolant"|"F"|0.0|300.0|5,"OilPress"|"PSI"|0|150|10,"EngineTemp"|"F"|0.0|300.0|5,"Battery"|"Volts"|0.0|20.0|1,"AccelX"|"G"|-3.0|3.0|50,"AccelY"|"G"|-3.0|3.0|50,"AccelZ"|"G"|-3.0|3.0|50,"Yaw"|"Deg/Sec"|-300.0|300.0|50,"Pitch"|"Deg/Sec"|-300.0|300.0|50,"Roll"|"Deg/Sec"|-300.0|300.0|50,"RPM"|""|0|10000|50,"Driveshaft"|"RPM"|0|5000|50,"GPIO1"|""|0|1|10,"GPIO2"|""|0|1|10,"GearRatio"|""|-5.0|5.0|10,"Gear"|""|-1|5|10,"Latitude"|"Degrees"|-180.0|180.0|10,"Longitude"|"Degrees"|-180.0|180.0|10,"Speed"|"mph"|0.0|150.0|10,"Distance"|"mi"|0.0|0.0|10,"Altitude"|"ft"|0.0|4000.0|10,"GPSSats"|""|0|20|10,"GPSQual"|""|0|5|10,"GPSDOP"|""|0.0|20.0|10,"LapCount"|""|0|0|10,"LapTime"|"Min"|0.0|0.0|10,"Sector"|""|0|0|10,"SectorTime"|"Min"|0.0|0.0|10,"PredTime"|"Min"|0.0|0.0|10,"ElapsedTime"|"Min"|0.0|0.0|10,"CurrentLap"|""|0|0|10
10454,1506783577906,,,,,,,,0.02,0.08,0.99,-3.1,-1.1,-0.3,1340,6,,,,,,,,,,,,,,,,,,,
10474,1506783577928,0,63.6,,100.7,71,86.0,,0.02,0.08,0.99,-3.1,-1.2,-0.4,1400,6,1,1,223.333,0,35.490303,-119.544807,0.0,0.0,278.6,5,2,1.1,0,0.0,-1,0.0,0.0,0.0,0
10494,1506783577948,,,,,,,,0.02,0.07,1.0,-3.0,-1.2,-0.5,1440,6,,,,,,,,,,,,,,,,,,,
10514,1506783577968,,,,,,,,0.02,0.07,0.99,-3.1,-1.3,-0.4,1500,6,,,,,,,,,,,,,,,,,,,
10534,1506783577988,,,,,,,,0.02,0.07,0.99,-3.0,-1.3,-0.5,1520,6,,,,,,,,,,,,,,,,,,,
10554,1506783578008,,,,,,,,0.02,0.07,0.99,-3.0,-1.2,-0.4,1580,2,,,,,,,,,,,,,,,,,,,
10574,1506783578030,,,,,61,,,0.02,0.07,1.01,-3.0,-1.1,-0.4,1620,38,1,1,223.333,0,35.490295,-119.544792,0.0,0.0,263.5,5,2,1.1,0,0.0,-1,0.0,0.0,0.0,0
10594,1506783578050,,,,,,,,0.0,0.07,1.0,-3.0,-1.2,-0.5,1620,82,,,,,,,,,,,,,,,,,,,
10614,1506783578070,,,,,,,,-0.0,0.07,0.99,-3.0,-1.1,-0.4,1680,105,,,,,,,,,,,,,,,,,,,
10634,1506783578090,,,,,,,,-0.01,0.08,0.98,-3.0,-1.3,-0.4,1700,72,,,,,,,,,,,,,,,,,,,
10654,1506783578110,,,,,,,,0.0,0.08,0.99,-3.0,-1.3,-0.4,1700,63,,,,,,,,,,,,,,,,,,,
10674,1506783578129,0,61.6,,97.7,68,84.8,,0.0,0.08,0.98,-3.1,-1.3,-0.3,1740,63,1,1,23.333,0,35.490295,-119.544807,0.0,0.0,262.2,5,2,1.1,0,0.0,-1,0.0,0.0,0.0,0
10694,1506783578149,,,,,,,,-0.0,0.07,0.98,-3.1,-1.2,-0.3,1760,38,,,,,,,,,,,,,,,,,,,
10714,1506783578169,,,,,,,,-0.0,0.08,0.99,-3.1,-1.4,-0.4,1780,38,,,,,,,,,,,,,,,,,,,
10734,1506783578189,,,,,,,,-0.01,0.08,0.99,-3.2,-1.4,-0.4,1780,45,,,,,,,,,,,,,,,,,,,
10754,1506783578209,,,,,,,,-0.0,0.08,0.99,-3.2,-1.2,-0.4,1800,45,,,,,,,,,,,,,,,,,,,
10774,1506783578229,,,,,65,,,-0.0,0.07,0.99,-3.2,-1.2,-0.4,1800,45,1,1,40.455,0,35.490295,-119.544807,0.0,0.0,260.9,5,2,1.1,0,0.0,-1,0.0,0.0,0.0,0
10794,1506783578249,,,,,,,,0.0,0.08,0.99,-3.2,-1.3,-0.4,1820,45,,,,,,,,,,,,,,,,,,,
10814,1506783578269,,,,,,,,-0.0,0.08,0.99,-3.3,-1.2,-0.4,1840,45,,,,,,,,,,,,,,,,,,,
10834,1506783578289,,,,,,,,-0.01,0.08,0.99,-3.3,-1.2,-0.4,1840,45,,,,,,,,,,,,,,,,,,,
10854,1506783578309,,,,,,,,-0.01,0.08,0.99,-3.3,-1.1,-0.4,1840,45,,,,,,,,,,,,,,,,,,,
10874,1506783578327,0,63.1,,100.2,67,84.7,,-0.01,0.07,0.99,-3.3,-1.1,-0.4,1840,11,1,1,41.818,0,35.490295,-119.544807,0.0,0.0,261.6,5,2,1.1,0,0.0,-1,0.0,0.0,0.0,0
10894,1506783578347,,,,,,,,-0.01,0.07,0.99,-3.3,-1.2,-0.4,1860,11,,,,,,,,,,,,,,,,,,,
10914,1506783578367,,,,,,,,-0.01,0.08,0.99,-3.3,-1.1,-0.4,1860,11,,,,,,,,,,,,,,,,,,,
10934,1506783578387,,,,,,,,-0.01,0.08,0.99,-3.3,-1.1,-0.4,1860,11,,,,,,,,,,,,,,,,,,,
10954,1506783578407,,,,,,,,-0.01,0.09,1.0,-3.4,-1.2,-0.3,1860,17,,,,,,,,,,,,,,,,,,,
10974,1506783578427,,,,,66,,,-0.01,0.09,1.0,-3.5,-1.2,-0.3,1860,17,1,1,186.0,0,35.490295,-119.544792,0.0,0.0,262.6,5,2,1.1,0,0.0,-1,0.0,0.0,0.0,0
10994,1506783578447,,,,,,,,-0.01,0.08,0.99,-3.5,-1.2,-0.3,1860,17,,,,,,,,,,,,,,,,,,,
11014,1506783578467,,,,,,,,-0.01,0.07,1.0,-3.5,-1.2,-0.3,1860,17,,,,,,,,,,,,,,,,,,,
11034,1506783578487,,,,,,,,-0.01,0.07,1.0,-3.5,-1.1,-0.4,1860,17,,,,,,,,,,,,,,,,,,,
11054,1506783578507,,,,,,,,-0.01,0.08,1.0,-3.6,-1.2,-0.3,1860,17,,,,,,,,,,,,,,,,,,,
11074,1506783578529,0,63.0,-0.2,99.8,67,84.4,14.89,-0.01,0.08,1.0,-3.6,-1.3,-0.3,1860,17,1,1,116.25,0,35.490295,-119.544792,0.0,0.0,262.6,5,2,1.1,0,0.0,-1,0.0,0.0,0.0,0
11094,1506783578549,,,,,,,,-0.01,0.08,0.99,-3.6,-1.3,-0.4,1840,17,,,,,,,,,,,,,,,,,,,
11114,1506783578569,,,,,,,,-0.01,0.07,1.0,-3.6,-1.3,-0.4,1840,20,,,,,,,,,,,,,,,,,,,
11134,1506783578589,,,,,,,,-0.01,0.08,1.0,-3.7,-1.2,-0.4,1860,20,,,,,,,,,,,,,,,,,,,
11154,1506783578609,,,,,,,,-0.01,0.07,1.0,-3.7,-1.2,-0.4,1860,20,,,,,,,,,,,,,,,,,,,
11174,1506783578629,,,,,69,,,-0.0,0.07,1.0,-3.7,-1.2,-0.4,1840,26,1,1,93.0,0,35.490292,-119.544792,0.0,0.0,262.0,5,2,1.1,0,0.0,-1,0.0,0.0,0.0,0
11194,1506783578649,,,,,,,,0.0,0.07,1.0,-3.8,-1.3,-0.3,1840,26,,,,,,,,,,,,,,,,,,,
11214,1506783578669,,,,,,,,-0.0,0.07,1.0,-3.8,-1.2,-0.4,1840,26,,,,,,,,,,,,,,,,,,,
11234,1506783578689,,,,,,,,-0.01,0.07,1.01,-3.8,-1.2,-0.4,1840,23,,,,,,,,,,,,,,,,,,,
11254,1506783578709,,,,,,,,-0.01,0.08,1.01,-3.8,-1.2,-0.4,1840,23,,,,,,,,,,,,,,,,,,,
11274,1506783578729,0,62.8,,98.6,65,84.2,,-0.0,0.07,1.01,-3.9,-1.3,-0.4,1840,23,1,1,80.0,0,35.490292,-119.544792,0.0,0.0,262.0,5,2,1.1,0,0.0,-1,0.0,0.0,0.0,0
11294,1506783578725,,,,,,,,-0.0,0.07,1.01,-3.9,-1.3,-0.4,1840,26,,,,,,,,,,,,,,,,,,,
11314,1506783578745,,,,,,,,-0.01,0.07,1.01,-3.9,-1.2,-0.4,1820,26,,,,,,,,,,,,,,,,,,,
11334,1506783578765,,,,,,,,0.0,0.07,1.0,-3.9,-1.2,-0.4,1840,35,,,,,,,,,,,,,,,,,,,
11354,1506783578785,,,,,,,,0.0,0.08,1.0,-3.9,-1.3,-0.4,1820,35,,,,,,,,,,,,,,,,,,,
11374,1506783578827,,,,,65,,,-0.0,0.08,0.99,-3.9,-1.3,-0.4,1820,31,1,1,52.571,0,35.490292,-119.544792,0.0,0.0,261.0,5,2,1.1,0,0.0,-1,0.0,0.0,0.0,0
11394,1506783578847,,,,,,,,-0.01,0.08,1.0,-4.0,-1.2,-0.4,1820,31,,,,,,,,,,,,,,,,,,,
11414,1506783578867,,,,,,,,-0.01,0.08,0.99,-4.0,-1.2,-0.4,1820,43,,,,,,,,,,,,,,,,,,,
11434,1506783578887,,,,,,,,-0.01,0.08,0.99,-4.1,-1.2,-0.4,1800,43,,,,,,,,,,,,,,,,,,,
11454,1506783578907,,,,,,,,-0.02,0.08,1.0,-4.1,-1.1,-0.4,1780,40,,,,,,,,,,,,,,,,,,,
11474,1506783578927,0,60.1,,98.1,63,86.5,,-0.02,0.09,0.99,-4.2,-1.1,-0.4,1760,46,1,1,41.86,0,35.490292,-119.544792,0.0,0.0,261.0,5,2,1.1,0,0.0,-1,0.0,0.0,0.0,0
11494,1506783578947,,,,,,,,-0.03,0.08,0.99,-4.3,-1.2,-0.4,1760,46,,,,,,,,,,,,,,,,,,,
11514,1506783578967,,,,,,,,-0.03,0.08,0.99,-4.3,-1.0,-0.4,1740,51,,,,,,,,,,,,,,,,,,,
11534,1506783578987,,,,,,,,-0.03,0.09,1.0,-4.4,-1.0,-0.4,1740,51,,,,,,,,,,,,,,,,,,,
11554,1506783579007,,,,,,,,-0.03,0.09,1.0,-4.5,-1.1,-0.4,1720,45,,,,,,,,,,,,,,,,,,,
11574,1506783579027,,,,,63,,,-0.03,0.08,1.0,-4.5,-1.2,-0.4,1700,51,1,1,34.8,0,35.490292,-119.544792,0.0,0.0,261.0,5,2,1.1,0,0.0,-1,0.0,0.0,0.0,0
11594,1506783579047,,,,,,,,-0.04,0.08,1.0,-4.6,-1.2,-0.4,1680,51,,,,,,,,,,,,,,,,,,,
11614,1506783579067,,,,,,,,-0.04,0.08,1.0,-4.6,-1.1,-0.4,1680,52,,,,,,,,,,,,,,,,,,,
11634,1506783579087,,,,,,,,-0.04,0.09,1.0,-4.7,-1.2,-0.4,1660,54,,,,,,,,,,,,,,,,,,,
11654,1506783579107,,,,,,,,-0.05,0.08,1.0,-4.7,-1.1,-0.4,1660,62,,,,,,,,,,,,,,,,,,,
11674,1506783579125,0,60.5,,99.3,64,87.1,,-0.05,0.08,0.99,-4.9,-1.1,-0.4,1660,63,1,1,31.321,0,35.490292,-119.544792,0.0,0.0,261.0,5,2,1.1,0,0.0,-1,0.0,0.0,0.0,0
11694,1506783579145,,,,,,,,-0.04,0.08,0.99,-4.9,-1.2,-0.4,1640,63,,,,,,,,,,,,,,,,,,,
11714,1506783579165,,,,,,,,-0.05,0.08,0.99,-5.0,-1.2,-0.3,1620,62,,,,,,,,,,,,,,,,,,,
11734,1506783579185,,,,,,,,-0.05,0.08,0.99,-5.1,-1.0,-0.3,1620,68,,,,,,,,,,,,,,,,,,,
11754,1506783579205,,,,,,,,-0.06,0.09,0.99,-5.2,-1.1,-0.4,1620,72,,,,,,,,,,,,,,,,,,,
11774,1506783579226,,,,,62,,,-0.06,0.08,0.98,-5.3,-1.1,-0.3,1600,71,1,1,24.179,0,35.490292,-119.544792,0.0,0.0,261.0,5,2,1.1,0,0.0,-1,0.0,0.0,0.0,0
11794,1506783579246,,,,,,,,-0.06,0.09,0.98,-5.4,-1.1,-0.3,1580,74,,,,,,,,,,,,,,,,,,,
11814,1506783579266,,,,,,,,-0.06,0.08,0.99,-5.4,-1.2,-0.3,1580,78,,,,,,,,,,,,,,,,,,,
11834,1506783579286,,,,,,,,-0.06,0.09,0.99,-5.5,-1.0,-0.3,1580,83,,,,,,,,,,,,,,,,,,,
11854,1506783579306,,,,,,,,-0.07,0.08,0.98,-5.6,-1.1,-0.3,1560,82,,,,,,,,,,,,,,,,,,,
11874,1506783579326,0,62.4,,98.0,68,84.7,,-0.07,0.08,0.98,-5.7,-1.1,-0.2,1560,86,1,1,19.036,0,35.490292,-119.544792,0.0,0.0,261.0,5,2,1.1,0,0.0,-1,0.0,0.0,0.0,0
11894,1506783579346,,,,,,,,-0.07,0.09,0.98,-5.8,-1.1,-0.3,1560,91,,,,,,,,,,,,,,,,,,,
11914,1506783579366,,,,,,,,-0.07,0.09,0.98,-5.9,-1.0,-0.3,1560,91,,,,,,,,,,,,,,,,,,,
11934,1506783579386,,,,,,,,-0.08,0.09,0.98,-6.0,-1.1,-0.3,1540,92,,,,,,,,,,,,,,,,,,,
11954,1506783579406,,,,,,,,-0.08,0.09,0.98,-6.1,-1.0,-0.3,1540,95,,,,,,,,,,,,,,,,,,,
11974,1506783579426,,,,,69,,,-0.08,0.09,0.98,-6.2,-1.1,-0.3,1540,102,1,1,16.739,0,35.490292,-119.544792,0.99,0.0,262.7,5,2,1.1,0,0.0,-1,0.0,0.0,0.0,0
11994,1506783579446,,,,,,,,-0.08,0.09,0.98,-6.3,-1.1,-0.3,1540,102,,,,,,,,,,,,,,,,,,,
12014,1506783579466,,,,,,,,-0.08,0.09,0.99,-6.4,-1.1,-0.3,1520,102,,,,,,,,,,,,,,,,,,,
12034,1506783579486,,,,,,,,-0.08,0.09,0.98,-6.5,-1.3,-0.3,1520,105,,,,,,,,,,,,,,,,,,,
12054,1506783579506,,,,,,,,-0.09,0.09,0.98,-6.6,-1.2,-0.3,1520,109,,,,,,,,,,,,,,,,,,,
12074,1506783579526,0,60.1,-0.5,98.3,63,86.6,14.91,-0.09,0.09,0.98,-6.7,-1.3,-0.2,1520,112,1,1,14.615,0,35.490292,-119.544792,1.17,0.0,262.7,5,2,1.1,0,0.0,-1,0.0,0.0,0.0,0
12094,1506783579546,,,,,,,,-0.09,0.09,0.97,-6.9,-1.4,-0.2,1500,112,,,,,,,,,,,,,,,,,,,
12114,1506783579566,,,,,,,,-0.09,0.09,0.97,-7.0,-1.5,-0.2,1500,117,,,,,,,,,,,,,,,,,,,
12134,1506783579586,,,,,,,,-0.08,0.09,0.97,-7.1,-1.4,-0.2,1520,123,,,,,,,,,,,,,,,,,,,
12154,1506783579606,,,,,,,,-0.08,0.1,0.98,-7.2,-1.5,-0.2,1520,122,,,,,,,,,,,,,,,,,,,
12174,1506783579626,,,,,61,,,-0.08,0.1,0.97,-7.3,-1.4,-0.2,1500,123,1,1,12.562,0,35.490292,-119.544792,1.37,0.0,262.7,5,2,1.1,0,0.0,-1,0.0,0.0,0.0,0
12194,1506783579646,,,,,,,,-0.08,0.09,0.98,-7.4,-1.5,-0.2,1500,125,,,,,,,,,,,,,,,,,,,
12214,1506783579666,,,,,,,,-0.08,0.1,0.99,-7.5,-1.4,-0.1,1520,131,,,,,,,,,,,,,,,,,,,
12234,1506783579686,,,,,,,,-0.07,0.1,0.99,-7.5,-1.5,-0.1,1520,132,,,,,,,,,,,,,,,,,,,
12254,1506783579706,,,,,,,,-0.08,0.09,1.0,-7.5,-1.4,-0.0,1520,132,,,,,,,,,,,,,,,,,,,
12274,1506783579720,0,60.3,,99.3,67,87.5,,-0.07,0.09,1.01,-7.6,-1.4,-0.1,1520,135,1,1,11.692,0,35.490292,-119.544792,2.02,0.0,262.8,5,2,1.1,0,0.0,-1,0.0,0.0,0.0,0
12294,1506783579740,,,,,,,,-0.08,0.09,1.01,-7.6,-1.3,-0.1,1520,145,,,,,,,,,,,,,,,,,,,
12314,1506783579760,,,,,,,,-0.08,0.09,1.01,-7.7,-1.3,-0.2,1520,143,,,,,,,,,,,,,,,,,,,
12334,1506783579780,,,,,,,,-0.08,0.08,1.01,-7.7,-1.2,-0.2,1520,145,,,,,,,,,,,,,,,,,,,
12354,1506783579800,,,,,,,,-0.08,0.09,1.01,-7.8,-1.1,-0.2,1520,149,,,,,,,,,,,,,,,,,,,
12374,1506783579826,,,,,62,,,-0.08,0.09,1.01,-7.8,-1.1,-0.1,1520,152,1,1,10.556,0,35.490288,-119.544792,2.27,0.0,262.9,5,2,1.1,0,0.0,-1,0.0,0.0,0.0,0
12394,1506783579846,,,,,,,,-0.08,0.09,1.01,-7.9,-1.0,-0.1,1520,154,,,,,,,,,,,,,,,,,,,
12414,1506783579866,,,,,,,,-0.08,0.08,1.0,-8.0,-1.1,-0.1,1520,152,,,,,,,,,,,,,,,,,,,
12434,1506783579886,,,,,,,,-0.08,0.09,1.0,-8.0,-1.1,-0.0,1520,157,,,,,,,,,,,,,,,,,,,
12454,1506783579906,,,,,,,,-0.09,0.08,0.99,-8.0,-1.3,-0.0,1520,165,,,,,,,,,,,,,,,,,,,
12474,1506783579928,0,61.4,,100.0,63,87.5,,-0.09,0.08,0.99,-8.0,-1.2,0.0,1520,166,1,1,9.744,0,35.490284,-119.544785,2.52,0.0,262.8,5,2,1.1,0,0.0,-1,0.0,0.0,0.0,0
12494,1506783579948,,,,,,,,-0.09,0.07,0.99,-8.0,-1.3,-0.0,1520,165,,,,,,,,,,,,,,,,,,,
12514,1506783579968,,,,,,,,-0.09,0.08,0.99,-8.0,-1.3,-0.0,1520,172,,,,,,,,,,,,,,,,,,,
12534,1506783579988,,,,,,,,-0.09,0.08,0.99,-8.0,-1.3,-0.1,1520,180,,,,,,,,,,,,,,,,,,,
12554,1506783580008,,,,,,,,-0.09,0.09,0.99,-8.0,-1.2,-0.0,1500,182,,,,,,,,,,,,,,,,,,,
12574,1506783580028,,,,,65,,,-0.09,0.09,0.99,-7.9,-1.3,-0.1,1480,177,1,1,8.444,0,35.490284,-119.544785,2.81,0.0,262.7,5,2,1.1,0,0.0,-1,0.0,0.0,0.0,0
12594,1506783580048,,,,,,,,-0.09,0.1,0.99,-7.9,-1.3,-0.0,1480,178,,,,,,,,,,,,,,,,,,,
12614,1506783580068,,,,,,,,-0.09,0.1,0.99,-7.8,-1.3,-0.2,1480,186,,,,,,,,,,,,,,,,,,,
12634,1506783580088,,,,,,,,-0.09,0.1,0.99,-7.8,-1.2,-0.2,1460,194,,,,,,,,,,,,,,,,,,,
12654,1506783580108,,,,,,,,-0.09,0.1,0.99,-7.7,-1.3,-0.3,1440,191,,,,,,,,,,,,,,,,,,,
12674,1506783580127,1,62.3,,98.3,57,85.1,,-0.09,0.1,0.99,-7.7,-1.3,-0.4,1420,192,1,1,7.565,0,35.49028,-119.544785,3.07,0.0,262.7,5,2,1.1,0,0.0,-1,0.0,0.0,0.0,0
12694,1506783580147,,,,,,,,-0.09,0.1,0.98,-7.5,-1.3,-0.6,1400,200,,,,,,,,,,,,,,,,,,,
12714,1506783580167,,,,,,,,-0.09,0.09,0.98,-7.4,-1.1,-0.8,1380,209,,,,,,,,,,,,,,,,,,,
12734,1506783580187,,,,,,,,-0.09,0.09,0.98,-7.3,-1.1,-0.9,1340,208,,,,,,,,,,,,,,,,,,,
12754,1506783580207,,,,,,,,-0.09,0.08,0.98,-7.0,-1.1,-1.0,1300,198,,,,,,,,,,,,,,,,,,,
12774,1506783580227,,,,,57,,,-0.09,0.08,0.98,-6.9,-1.0,-1.2,1280,205,1,1,6.57,0,35.49028,-119.544785,3.39,0.0,262.7,5,2,1.1,0,0.0,-1,0.0,0.0,0.0,0
12794,1506783580247,,,,,,,,-0.09,0.08,0.98,-6.7,-0.9,-1.2,1260,222,,,,,,,,,,,,,,,,,,,
12814,1506783580267,,,,,,,,-0.09,0.08,0.98,-6.6,-0.9,-1.3,1220,229,,,,,,,,,,,,,,,,,,,
12834,1506783580287,,,,,,,,-0.09,0.07,0.98,-6.4,-1.0,-1.3,1180,217,,,,,,,,,,,,,,,,,,,
12854,1506783580305,,,,,,,,-0.1,0.07,0.99,-6.3,-1.1,-1.4,1140,217,,,,,,,,,,,,,,,,,,,
12874,1506783580325,0,61.7,,100.1,53,87.5,,-0.1,0.07,0.99,-6.1,-1.2,-1.4,1120,231,1,1,5.463,0,35.49028,-119.544785,3.71,0.001,262.7,5,2,1.1,0,0.0,-1,0.0,0.0,0.0,0
12894,1506783580345,,,,,,,,-0.1,0.07,0.99,-6.0,-1.2,-1.3,1100,235,,,,,,,,,,,,,,,,,,,
12914,1506783580365,,,,,,,,-0.1,0.07,0.99,-6.0,-1.2,-1.3,1080,235,,,,,,,,,,,,,,,,,,,
12934,1506783580385,,,,,,,,-0.11,0.06,0.99,-5.8,-1.2,-1.3,1040,232,,,,,,,,,,,,,,,,,,,
12954,1506783580405,,,,,,,,-0.11,0.07,0.99,-5.8,-1.3,-1.2,1020,245,,,,,,,,,,,,,,,,,,,
12974,1506783580425,,,,,58,,,-0.11,0.07,0.99,-5.6,-1.4,-1.2,980,262,1,1,4.483,0,35.49028,-119.544785,4.01,0.001,262.5,5,2,1.1,0,0.0,-1,0.0,0.0,0.0,0
12994,1506783580445,,,,,,,,-0.11,0.09,1.01,-5.4,-1.2,-1.1,940,252,,,,,,,,,,,,,,,,,,,
13014,1506783580465,,,,,,,,-0.11,0.1,1.03,-5.2,-1.3,-1.1,920,240,,,,,,,,,,,,,,,,,,,
13034,1506783580485,,,,,,,,-0.12,0.11,1.03,-5.0,-1.3,-1.0,880,258,,,,,,,,,,,,,,,,,,,
13054,1506783580505,,,,,,,,-0.13,0.11,1.03,-4.8,-1.4,-1.1,840,255,,,,,,,,,,,,,,,,,,,
13074,1506783580525,0,62.3,0.1,100.7,56,87.7,14.88,-0.12,0.1,1.02,-4.5,-1.4,-1.1,800,245,1,1,3.478,0,35.490276,-119.544769,4.27,0.001,262.2,5,2,1.1,0,0.0,-1,0.0,0.0,0.0,0
13094,1506783580545,,,,,,,,-0.11,0.08,1.02,-4.3,-1.4,-1.2,800,242,,,,,,,,,,,,,,,,,,,
13114,1506783580565,,,,,,,,-0.1,0.08,1.01,-4.1,-1.4,-1.2,760,235,,,,,,,,,,,,,,,,,,,
13134,1506783580585,,,,,,,,-0.08,0.07,1.02,-3.9,-1.3,-1.2,760,231,,,,,,,,,,,,,,,,,,,
13154,1506783580605,,,,,,,,-0.07,0.07,1.02,-3.8,-1.5,-1.2,740,235,,,,,,,,,,,,,,,,,,,
13174,1506783580625,,,,,54,,,-0.07,0.07,1.02,-3.7,-1.6,-1.1,740,232,1,1,3.304,1,35.490273,-119.544769,4.46,0.001,261.7,5,2,1.1,0,0.0,-1,0.0,0.0,0.0,0
13194,1506783580645,,,,,,,,-0.05,0.06,1.01,-3.5,-1.7,-1.0,760,231,,,,,,,,,,,,,,,,,,,
13214,1506783580665,,,,,,,,-0.04,0.06,1.01,-3.3,-1.7,-0.9,760,238,,,,,,,,,,,,,,,,,,,
13234,1506783580685,,,,,,,,-0.04,0.06,1.03,-3.0,-1.7,-1.0,780,240,,,,,,,,,,,,,,,,,,,
13254,1506783580705,,,,,,,,-0.02,0.05,1.05,-2.8,-1.8,-1.1,780,243,,,,,,,,,,,,,,,,,,,
13274,1506783580725,0,61.9,,98.2,56,85.4,,-0.01,0.05,1.04,-2.5,-1.9,-0.9,780,246,1,1,3.25,1,35.490269,-119.544769,4.51,0.001,261.5,5,2,1.1,0,0.0,-1,0.0,0.0,0.0,0
13294,1506783580745,,,,,,,,-0.0,0.05,1.03,-2.2,-1.9,-0.8,800,252,,,,,,,,,,,,,,,,,,,
13314,1506783580765,,,,,,,,0.01,0.07,1.04,-2.0,-1.8,-0.5,820,260,,,,,,,,,,,,,,,,,,,
13334,1506783580785,,,,,,,,0.01,0.05,1.04,-1.7,-1.8,-0.3,840,260,,,,,,,,,,,,,,,,,,,
13354,1506783580805,,,,,,,,0.02,0.04,1.04,-1.4,-1.7,-0.1,860,263,,,,,,,,,,,,,,,,,,,
13374,1506783580825,,,,,58,,,0.02,0.04,1.03,-1.2,-1.6,0.0,880,268,1,1,3.231,1,35.490269,-119.544769,4.67,0.001,261.5,5,2,1.1,0,0.0,-1,0.0,0.0,0.0,0
13394,1506783580845,,,,,,,,0.03,0.03,1.03,-1.0,-1.6,0.2,880,269,,,,,,,,,,,,,,,,,,,
13414,1506783580865,,,,,,,,0.03,0.02,1.02,-0.8,-1.4,0.5,880,277,,,,,,,,,,,,,,,,,,,
13434,1506783580885,,,,,,,,0.05,0.03,1.02,-0.6,-1.4,0.8,900,282,,,,,,,,,,,,,,,,,,,
13454,1506783580905,,,,,,,,0.04,0.07,1.0,-0.4,-1.6,0.8,920,283,,,,,,,,,,,,,,,,,,,
13474,1506783580925,0,62.7,,98.6,63,85.4,,0.05,0.06,0.98,-0.2,-1.6,0.6,940,288,1,1,3.261,1,35.490269,-119.544754,4.56,0.001,261.4,5,2,1.1,0,0.0,-1,0.0,0.0,0.0,0
13494,1506783580945,,,,,,,,0.05,0.05,0.99,0.0,-1.7,0.6,940,292,,,,,,,,,,,,,,,,,,,
13514,1506783580965,,,,,,,,0.06,0.08,0.99,0.2,-1.8,0.5,960,295,,,,,,,,,,,,,,,,,,,
13534,1506783580985,,,,,,,,0.06,0.09,0.98,0.4,-2.3,0.3,980,298,,,,,,,,,,,,,,,,,,,
13554,1506783581001,,,,,,,,0.04,0.07,1.05,0.6,-1.9,0.2,1000,300,,,,,,,,,,,,,,,,,,,
13574,1506783581021,,,,,67,,,0.02,0.06,1.04,0.8,-1.6,0.2,1000,297,1,1,3.289,1,35.490265,-119.544754,4.61,0.001,261.0,5,2,1.1,0,0.0,-1,0.0,0.0,0.0,0
13594,1506783581041,,,,,,,,0.02,0.06,1.03,0.9,-1.8,0.2,980,294,,,,,,,,,,,,,,,,,,,
13614,1506783581061,,,,,,,,-0.01,0.06,1.04,1.1,-2.0,0.2,960,288,,,,,,,,,,,,,,,,,,,
13634,1506783581081,,,,,,,,-0.03,0.07,1.03,1.3,-1.7,0.3,940,280,,,,,,,,,,,,,,,,,,,
13654,1506783581105,,,,,,,,-0.04,0.06,1.03,1.4,-1.4,0.4,920,275,,,,,,,,,,,,,,,,,,,
13674,1506783581125,0,63.0,,99.8,68,84.8,,-0.06,0.04,1.03,1.6,-1.3,0.4,880,271,1,1,3.345,1,35.490261,-119.544754,4.62,0.002,260.6,5,2,1.1,0,0.0,-1,0.0,0.0,0.0,0
13694,1506783581145,,,,,,,,-0.07,0.02,1.02,1.9,-1.0,0.5,860,268,,,,,,,,,,,,,,,,,,,
13714,1506783581165,,,,,,,,-0.07,0.01,1.01,2.2,-0.9,0.6,860,263,,,,,,,,,,,,,,,,,,,
13734,1506783581185,,,,,,,,-0.07,0.0,1.0,2.4,-0.7,0.8,860,262,,,,,,,,,,,,,,,,,,,
13754,1506783581204,,,,,,,,-0.06,0.01,0.99,2.7,-0.6,1.0,820,258,,,,,,,,,,,,,,,,,,,
13774,1506783581224,,,,,66,,,-0.04,0.02,0.99,2.9,-0.7,1.2,840,258,1,1,3.333,1,35.490261,-119.544754,4.73,0.002,260.2,5,2,1.1,0,0.0,-1,0.0,0.0,0.0,0
13794,1506783581244,,,,,,,,-0.04,0.02,1.0,3.2,-0.9,1.3,840,262,,,,,,,,,,,,,,,,,,,
13814,1506783581264,,,,,,,,-0.04,0.02,1.0,3.4,-1.0,1.4,860,265,,,,,,,,,,,,,,,,,,,
13834,1506783581284,,,,,,,,-0.03,0.03,1.0,3.7,-1.3,1.4,860,269,,,,,,,,,,,,,,,,,,,
13854,1506783581304,,,,,,,,-0.02,0.02,0.99,4.0,-1.4,1.5,880,275,,,,,,,,,,,,,,,,,,,
13874,1506783581324,0,63.0,,99.5,64,85.1,,-0.01,0.02,0.99,4.2,-1.3,1.6,900,277,1,1,3.197,1,35.490257,-119.544754,4.98,0.002,260.0,5,2,1.1,0,0.0,-1,0.0,0.0,0.0,0
13894,1506783581344,,,,,,,,0.0,0.02,0.99,4.3,-1.2,1.8,900,282,,,,,,,,,,,,,,,,,,,
13914,1506783581364,,,,,,,,0.01,0.03,0.99,4.5,-1.3,1.8,920,286,,,,,,,,,,,,,,,,,,,
13934,1506783581384,,,,,,,,0.01,0.03,0.99,4.6,-1.2,1.7,920,291,,,,,,,,,,,,,,,,,,,
13954,1506783581404,,,,,,,,0.02,0.03,0.99,4.8,-1.0,1.6,940,292,,,,,,,,,,,,,,,,,,,
13974,1506783581424,,,,,64,,,0.02,0.04,1.0,4.9,-0.9,1.4,960,298,1,1,3.183,1,35.490257,-119.544746,4.99,0.002,259.8,5,2,1.1,0,0.0,-1,0.0,0.0,0.0,0
13994,1506783581444,,,,,,,,0.03,0.04,1.0,5.0,-0.8,1.3,980,302,,,,,,,,,,,,,,,,,,,
14014,1506783581464,,,,,,,,0.04,0.04,1.0,5.1,-0.7,1.2,980,305,,,,,,,,,,,,,,,,,,,
14034,1506783581484,,,,,,,,0.04,0.04,1.02,5.3,-0.6,1.0,1000,309,,,,,,,,,,,,,,,,,,,
14054,1506783581506,,,,,,,,0.04,0.05,1.03,5.4,-0.5,0.7,1020,311,,,,,,,,,,,,,,,,,,,
14074,1506783581526,0,60.5,-0.6,99.6,67,87.7,14.82,0.04,0.07,1.04,5.5,-0.4,0.5,1040,312,1,1,3.268,1,35.490253,-119.544746,5.03,0.002,259.6,5,2,1.1,0,0.0,-1,0.0,0.0,0.0,0
14094,1506783581546,,,,,,,,0.03,0.07,1.05,5.8,-0.2,0.2,1040,312,,,,,,,,,,,,,,,,,,,
14114,1506783581566,,,,,,,,0.02,0.08,1.05,5.9,0.1,-0.4,1020,309,,,,,,,,,,,,,,,,,,,
14134,1506783581586,,,,,,,,0.01,0.09,1.05,6.1,0.4,-1.0,1000,308,,,,,,,,,,,,,,,,,,,
14154,1506783581604,,,,,,,,0.0,0.09,1.04,6.2,0.8,-1.4,980,305,,,,,,,,,,,,,,,,,,,
14174,1506783581624,,,,,67,,,0.0,0.08,1.04,6.4,1.3,-1.7,980,302,1,1,3.322,1,35.49025,-119.544746,4.92,0.002,259.3,5,2,1.1,0,0.0,-1,0.0,0.0,0.0,0
14194,1506783581644,,,,,,,,-0.01,0.08,1.04,6.5,1.3,-1.9,960,297,,,,,,,,,,,,,,,,,,,
14214,1506783581664,,,,,,,,-0.02,0.07,1.03,6.7,1.4,-1.9,960,291,,,,,,,,,,,,,,,,,,,
14234,1506783581684,,,,,,,,-0.02,0.05,1.03,6.8,1.4,-1.9,940,288,,,,,,,,,,,,,,,,,,,
14254,1506783581706,,,,,,,,-0.02,0.04,1.02,7.0,1.4,-1.7,920,285,,,,,,,,,,,,,,,,,,,
14274,1506783581726,0,63.3,,100.6,62,85.1,,-0.02,0.03,1.02,7.1,1.2,-1.6,920,283,1,1,3.275,1,35.490246,-119.544746,5.34,0.002,259.2,5,2,1.1,0,0.0,-1,0.0,0.0,0.0,0
14294,1506783581746,,,,,,,,-0.01,0.02,1.01,7.2,0.8,-1.4,920,285,,,,,,,,,,,,,,,,,,,
14314,1506783581766,,,,,,,,-0.01,0.02,1.01,7.4,0.5,-1.2,920,289,,,,,,,,,,,,,,,,,,,
14334,1506783581786,,,,,,,,-0.01,0.02,1.01,7.6,0.2,-0.9,940,292,,,,,,,,,,,,,,,,,,,
14354,1506783581806,,,,,,,,-0.01,0.03,1.01,7.8,-0.2,-0.7,960,297,,,,,,,,,,,,,,,,,,,
14374,1506783581826,,,,,57,,,-0.01,0.02,1.01,8.0,-0.3,-0.5,960,300,1,1,3.219,1,35.490246,-119.544731,5.43,0.003,259.0,5,2,1.1,0,0.0,-1,0.0,0.0,0.0,0
14394,1506783581846,,,,,,,,-0.0,0.03,1.01,8.1,-0.3,-0.3,980,305,,,,,,,,,,,,,,,,,,,
14414,1506783581866,,,,,,,,-0.0,0.03,1.01,8.3,-0.3,-0.1,1000,309,,,,,,,,,,,,,,,,,,,
14434,1506783581886,,,,,,,,0.0,0.03,1.02,8.3,-0.1,-0.1,1020,312,,,,,,,,,,,,,,,,,,,
14454,1506783581902,,,,,,,,0.01,0.03,1.02,8.4,0.1,-0.1,1040,315,,,,,,,,,,,,,,,,,,,
14474,1506783581922,0,62.5,,98.7,62,85.6,,0.01,0.03,1.02,8.4,0.4,-0.3,1040,322,1,1,3.269,1,35.490242,-119.544731,5.48,0.003,258.9,5,2,1.1,0,0.0,-1,0.0,0.0,0.0,0
14494,1506783581942,,,,,,,,-0.0,0.03,1.01,8.4,0.4,-0.4,1060,323,,,,,,,,,,,,,,,,,,,
14514,1506783581962,,,,,,,,-0.0,0.04,0.99,8.4,0.4,-0.5,1060,325,,,,,,,,,,,,,,,,,,,
14534,1506783581982,,,,,,,,-0.0,0.03,1.0,8.3,0.3,-0.4,1060,326,,,,,,,,,,,,,,,,,,,
14554,1506783582000,,,,,,,,-0.0,0.03,1.0,8.2,0.2,-0.2,1060,328,,,,,,,,,,,,,,,,,,,
14574,1506783582020,,,,,65,,,-0.01,0.03,1.0,8.2,0.2,0.1,1060,328,1,1,3.282,1,35.490242,-119.544731,5.3,0.003,258.9,5,2,1.1,0,0.0,-1,0.0,0.0,0.0,0
14594,1506783582040,,,,,,,,-0.01,0.03,1.01,8.1,0.2,0.3,1060,325,,,,,,,,,,,,,,,,,,,
14614,1506783582060,,,,,,,,-0.02,0.03,1.01,8.1,0.2,0.4,1040,323,,,,,,,,,,,,,,,,,,,
14634,1506783582080,,,,,,,,-0.02,0.03,1.0,8.2,0.1,0.3,1040,320,,,,,,,,,,,,,,,,,,,
14654,1506783582104,,,,,,,,-0.02,0.03,0.99,8.4,0.2,0.1,1020,317,,,,,,,,,,,,,,,,,,,
14674,1506783582124,0,63.1,,100.9,64,86.6,,-0.02,0.03,0.99,8.6,0.2,-0.2,1020,314,1,1,3.27,1,35.490238,-119.544731,5.48,0.003,258.9,5,2,1.1,0,0.0,-1,0.0,0.0,0.0,0
14694,1506783582144,,,,,,,,-0.02,0.04,0.99,8.7,0.4,-0.5,1020,312,,,,,,,,,,,,,,,,,,,
14714,1506783582164,,,,,,,,-0.02,0.04,0.99,8.8,0.6,-0.5,1020,311,,,,,,,,,,,,,,,,,,,
14734,1506783582184,,,,,,,,-0.02,0.03,1.0,8.8,0.6,-0.4,1000,309,,,,,,,,,,,,,,,,,,,
14754,1506783582203,,,,,,,,-0.02,0.02,1.0,8.7,0.4,-0.1,1000,312,,,,,,,,,,,,,,,,,,,
14774,1506783582223,,,,,61,,,-0.01,0.01,1.0,8.5,0.3,0.1,1020,315,1,1,3.205,1,35.490238,-119.544731,5.66,0.003,258.9,6,2,0.5,0,0.0,-1,0.0,0.0,0.0,0
14794,1506783582243,,,,,,,,-0.02,-0.01,1.0,8.3,0.2,0.3,1040,318,,,,,,,,,,,,,,,,,,,
14814,1506783582263,,,,,,,,-0.01,-0.01,0.99,8.1,0.0,0.5,1040,322,,,,,,,,,,,,,,,,,,,
14834,1506783582283,,,,,,,,-0.02,-0.01,0.98,7.9,0.0,0.6,1060,326,,,,,,,,,,,,,,,,,,,
14854,1506783582303,,,,,,,,-0.02,-0.01,0.98,7.7,-0.1,0.8,1080,329,,,,,,,,,,,,,,,,,,,
14874,1506783582323,0,61.8,,100.6,66,88.2,,-0.02,0.0,0.98,7.6,-0.4,1.0,1080,334,1,1,3.252,1,35.490234,-119.544731,5.84,0.003,258.8,6,2,0.5,0,0.0,-1,0.0,0.0,0.0,0
14894,1506783582343,,,,,,,,-0.02,0.02,0.97,7.6,-0.8,1.2,1100,337,,,,,,,,,,,,,,,,,,,
14914,1506783582363,,,,,,,,-0.02,0.04,0.97,7.5,-0.9,1.4,1140,346,,,,,,,,,,,,,,,,,,,
14934,1506783582383,,,,,,,,-0.02,0.05,0.98,7.4,-1.0,1.6,1140,349,,,,,,,,,,,,,,,,,,,
14954,1506783582403,,,,,,,,-0.03,0.06,0.98,7.4,-0.9,1.7,1140,349,,,,,,,,,,,,,,,,,,,
14974,1506783582423,,,,,68,,,-0.04,0.06,0.98,7.3,-0.9,1.6,1160,352,1,1,3.295,1,35.490234,-119.544731,5.84,0.003,258.8,6,2,0.5,0,0.0,-1,0.0,0.0,0.0,0
14994,1506783582443,,,,,,,,-0.05,0.06,0.99,7.1,-0.6,1.5,1180,355,,,,,,,,,,,,,,,,,,,
15014,1506783582463,,,,,,,,-0.05,0.07,0.99,6.9,-0.3,1.3,1180,365,,,,,,,,,,,,,,,,,,,
15034,1506783582483,,,,,,,,-0.06,0.07,0.99,6.7,-0.2,1.1,1200,363,,,,,,,,,,,,,,,,,,,
15054,1506783582503,,,,,,,,-0.06,0.08,0.96,6.6,-0.3,0.8,1180,363,,,,,,,,,,,,,,,,,,,
15074,1506783582523,0,60.6,-0.5,98.3,63,86.5,14.91,-0.08,0.08,0.95,6.4,0.0,0.5,1180,360,1,1,3.333,1,35.490231,-119.544716,5.93,0.004,258.8,6,2,0.5,0,0.0,-1,0.0,0.0,0.0,0
15094,1506783582543,,,,,,,,-0.09,0.07,0.96,6.2,0.1,0.3,1180,360,,,,,,,,,,,,,,,,,,,
15114,1506783582563,,,,,,,,-0.1,0.08,0.97,6.1,0.2,0.3,1180,363,,,,,,,,,,,,,,,,,,,
15134,1506783582583,,,,,,,,-0.1,0.08,0.97,6.0,0.1,0.2,1180,366,,,,,,,,,,,,,,,,,,,
15154,1506783582603,,,,,,,,-0.11,0.07,0.98,5.9,0.2,0.0,1180,363,,,,,,,,,,,,,,,,,,,
15174,1506783582623,,,,,65,,,-0.11,0.07,0.98,5.9,0.1,-0.1,1180,362,1,1,3.251,1,35.490227,-119.544716,6.1,0.004,258.7,6,2,0.5,0,0.0,-1,0.0,0.0,0.0,0
15194,1506783582643,,,,,,,,-0.11,0.06,0.98,5.8,-0.1,-0.2,1200,363,,,,,,,,,,,,,,,,,,,
15214,1506783582663,,,,,,,,-0.11,0.06,0.98,5.7,-0.1,-0.1,1200,372,,,,,,,,,,,,,,,,,,,
15234,1506783582683,,,,,,,,-0.11,0.06,0.99,5.6,-0.3,0.0,1220,377,,,,,,,,,,,,,,,,,,,
15254,1506783582703,,,,,,,,-0.1,0.06,1.0,5.5,-0.6,-0.1,1240,380,,,,,,,,,,,,,,,,,,,
15274,1506783582723,0,63.1,,100.9,64,85.6,,-0.1,0.05,1.01,5.4,-0.8,-0.3,1240,383,1,1,3.253,1,35.490223,-119.544716,6.64,0.004,258.6,6,2,0.5,0,0.0,-1,0.0,0.0,0.0,0
15294,1506783582743,,,,,,,,-0.09,0.06,1.01,5.3,-1.0,-0.5,1260,394,,,,,,,,,,,,,,,,,,,
15314,1506783582763,,,,,,,,-0.09,0.08,0.99,5.1,-1.3,-0.7,1300,397,,,,,,,,,,,,,,,,,,,
15334,1506783582783,,,,,,,,-0.09,0.08,0.99,5.0,-1.5,-0.9,1300,397,,,,,,,,,,,,,,,,,,,
15354,1506783582803,,,,,,,,-0.09,0.09,0.98,5.0,-1.8,-0.9,1320,406,,,,,,,,,,,,,,,,,,,
15374,1506783582823,,,,,65,,,-0.09,0.09,0.98,4.9,-1.8,-0.8,1320,408,1,1,3.242,1,35.490223,-119.544716,6.83,0.004,258.6,6,2,0.5,0,0.0,-1,0.0,0.0,0.0,0
15394,1506783582843,,,,,,,,-0.1,0.08,0.97,4.8,-1.8,-0.8,1340,405,,,,,,,,,,,,,,,,,,,
15414,1506783582863,,,,,,,,-0.1,0.08,0.95,4.8,-1.7,-0.7,1340,414,,,,,,,,,,,,,,,,,,,
15434,1506783582883,,,,,,,,-0.1,0.07,0.96,4.8,-1.5,-0.7,1340,411,,,,,,,,,,,,,,,,,,,
15454,1506783582903,,,,,,,,-0.1,0.06,0.96,4.7,-1.4,-1.0,1340,408,,,,,,,,,,,,,,,,,,,
15474,1506783582923,0,62.2,,101.0,62,88.1,,-0.11,0.06,0.92,4.7,-1.3,-1.0,1340,414,1,1,3.245,1,35.490223,-119.544716,6.65,0.004,258.6,6,2,0.5,0,0.0,-1,0.0,0.0,0.0,0
15494,1506783582943,,,,,,,,-0.12,0.04,0.92,4.6,-1.4,-1.0,1340,411,,,,,,,,,,,,,,,,,,,
15514,1506783582963,,,,,,,,-0.12,0.03,0.94,4.6,-1.3,-1.0,1340,411,,,,,,,,,,,,,,,,,,,
15534,1506783582983,,,,,,,,-0.11,0.03,0.93,4.5,-1.2,-0.8,1360,420,,,,,,,,,,,,,,,,,,,
15554,1506783582997,,,,,,,,-0.11,0.03,0.95,4.6,-1.4,-0.7,1360,417,,,,,,,,,,,,,,,,,,,
15574,1506783583017,,,,,69,,,-0.11,0.04,0.96,4.5,-1.3,-0.7,1380,425,1,1,3.301,1,35.490219,-119.544716,7.07,0.005,258.8,6,2,0.5,0,0.0,-1,0.0,0.0,0.0,0
15594,1506783583037,,,,,,,,-0.11,0.05,0.96,4.5,-1.4,-0.6,1380,429,,,,,,,,,,,,,,,,,,,
15614,1506783583057,,,,,,,,-0.1,0.04,0.96,4.5,-1.7,-0.7,1400,428,,,,,,,,,,,,,,,,,,,
15634,1506783583077,,,,,,,,-0.09,0.05,0.95,4.5,-1.8,-0.7,1420,435,,,,,,,,,,,,,,,,,,,
15654,1506783583103,,,,,,,,-0.09,0.05,0.96,4.5,-1.7,-0.7,1420,434,,,,,,,,,,,,,,,,,,,
15674,1506783583123,0,63.3,,101.2,70,87.8,,-0.09,0.05,0.97,4.6,-1.7,-0.8,1440,442,1,1,3.256,1,35.490219,-119.544716,7.36,0.005,259.1,6,2,0.5,0,0.0,-1,0.0,0.0,0.0,0
15694,1506783583143,,,,,,,,-0.09,0.05,0.97,4.6,-1.5,-0.8,1440,445,,,,,,,,,,,,,,,,,,,
15714,1506783583163,,,,,,,,-0.09,0.05,0.97,4.6,-1.5,-0.9,1440,445,,,,,,,,,,,,,,,,,,,
15734,1506783583183,,,,,,,,-0.09,0.05,0.98,4.6,-1.6,-1.0,1460,449,,,,,,,,,,,,,,,,,,,
15754,1506783583202,,,,,,,,-0.09,0.05,0.98,4.6,-1.6,-1.2,1480,451,,,,,,,,,,,,,,,,,,,
15774,1506783583222,,,,,61,,,-0.08,0.06,0.96,4.5,-1.6,-1.2,1480,452,1,1,3.252,1,35.490215,-119.544716,7.79,0.005,259.3,6,2,0.5,0,0.0,-1,0.0,0.0,0.0,0
15794,1506783583242,,,,,,,,-0.08,0.05,0.97,4.5,-1.5,-1.3,1480,454,,,,,,,,,,,,,,,,,,,
15814,1506783583262,,,,,,,,-0.07,0.04,0.98,4.5,-1.3,-1.2,1480,455,,,,,,,,,,,,,,,,,,,
15834,1506783583282,,,,,,,,-0.07,0.04,0.99,4.5,-1.4,-1.3,1500,454,,,,,,,,,,,,,,,,,,,
15854,1506783583302,,,,,,,,-0.07,0.05,0.96,4.5,-1.5,-1.2,1500,460,,,,,,,,,,,,,,,,,,,
15874,1506783583322,0,62.9,,99.7,68,85.6,,-0.07,0.04,0.97,4.6,-1.5,-1.4,1480,455,1,1,3.297,1,35.490212,-119.544708,7.63,0.005,259.5,6,2,0.5,0,0.0,-1,0.0,0.0,0.0,0
15894,1506783583342,,,,,,,,-0.07,0.04,0.98,4.6,-1.3,-1.4,1500,462,,,,,,,,,,,,,,,,,,,
15914,1506783583362,,,,,,,,-0.06,0.04,0.99,4.6,-1.4,-1.4,1500,458,,,,,,,,,,,,,,,,,,,
15934,1506783583382,,,,,,,,-0.06,0.05,0.99,4.6,-1.4,-1.3,1500,462,,,,,,,,,,,,,,,,,,,
15954,1506783583402,,,,,,,,-0.06,0.04,1.01,4.7,-1.5,-1.4,1500,460,,,,,,,,,,,,,,,,,,,
15974,1506783583422,,,,,70,,,-0.06,0.04,1.01,4.6,-1.1,-1.4,1520,465,1,1,3.275,1,35.490212,-119.544708,8.13,0.005,259.5,6,2,0.5,0,0.0,-1,0.0,0.0,0.0,0
15994,1506783583442,,,,,,,,-0.06,0.05,1.0,4.6,-1.5,-1.4,1520,462,,,,,,,,,,,,,,,,,,,
16014,1506783583462,,,,,,,,-0.06,0.06,1.02,4.6,-1.2,-1.4,1500,465,,,,,,,,,,,,,,,,,,,
16034,1506783583482,,,,,,,,-0.06,0.05,1.01,4.6,-1.3,-1.5,1500,463,,,,,,,,,,,,,,,,,,,
16054,1506783583504,,,,,,,,-0.06,0.05,1.01,4.6,-1.3,-1.4,1540,468,,,,,,,,,,,,,,,,,,,
16074,1506783583524,0,61.1,-0.2,100.3,70,88.5,14.8,-0.06,0.05,1.01,4.6,-1.3,-1.5,1540,468,1,1,3.233,1,35.490208,-119.544708,8.04,0.006,259.5,6,2,0.5,0,0.0,-1,0.0,0.0,0.0,0
16094,1506783583544,,,,,,,,-0.05,0.05,1.01,4.6,-1.4,-1.4,1540,471,,,,,,,,,,,,,,,,,,,
16114,1506783583564,,,,,,,,-0.05,0.05,1.01,4.6,-1.5,-1.4,1540,474,,,,,,,,,,,,,,,,,,,
16134,1506783583584,,,,,,,,-0.06,0.04,1.01,4.5,-1.5,-1.3,1540,471,,,,,,,,,,,,,,,,,,,
16154,1506783583604,,,,,,,,-0.04,0.03,0.99,4.6,-1.7,-1.2,1540,474,,,,,,,,,,,,,,,,,,,
16174,1506783583624,,,,,68,,,-0.04,0.03,0.99,4.5,-1.8,-1.1,1540,472,1,1,3.256,1,35.490204,-119.544708,8.12,0.006,259.6,6,2,0.5,0,0.0,-1,0.0,0.0,0.0,0
16194,1506783583644,,,,,,,,-0.03,0.02,0.99,4.5,-1.6,-1.1,1560,477,,,,,,,,,,,,,,,,,,,
16214,1506783583664,,,,,,,,-0.02,0.03,0.98,4.5,-1.8,-1.1,1560,478,,,,,,,,,,,,,,,,,,,
16234,1506783583684,,,,,,,,-0.02,0.04,0.98,4.6,-1.6,-1.2,1560,477,,,,,,,,,,,,,,,,,,,
16254,1506783583704,,,,,,,,-0.02,0.03,0.99,4.6,-1.4,-1.2,1540,477,,,,,,,,,,,,,,,,,,,
16274,1506783583724,0,63.1,,101.2,69,88.1,,-0.01,0.03,1.0,4.6,-1.4,-1.3,1560,477,1,1,3.277,1,35.490204,-119.544708,8.13,0.006,259.7,6,2,0.5,0,0.0,-1,0.0,0.0,0.0,0
16294,1506783583744,,,,,,,,-0.02,0.03,1.0,4.6,-1.5,-1.3,1560,474,,,,,,,,,,,,,,,,,,,
16314,1506783583764,,,,,,,,-0.02,0.03,1.01,4.6,-1.5,-1.3,1560,474,,,,,,,,,,,,,,,,,,,
16334,1506783583784,,,,,,,,-0.02,0.04,1.0,4.6,-1.5,-1.3,1540,478,,,,,,,,,,,,,,,,,,,
16354,1506783583804,,,,,,,,-0.02,0.04,0.99,4.6,-1.2,-1.3,1560,477,,,,,,,,,,,,,,,,,,,
16374,1506783583824,,,,,67,,,-0.01,0.05,1.0,4.5,-1.1,-1.4,1560,478,1,1,3.277,1,35.4902,-119.544708,8.3,0.006,260.0,6,2,0.5,0,0.0,-1,0.0,0.0,0.0,0
16394,1506783583844,,,,,,,,-0.01,0.06,0.99,4.5,-1.3,-1.4,1560,474,,,,,,,,,,,,,,,,,,,
16414,1506783583864,,,,,,,,-0.01,0.05,1.0,4.5,-1.1,-1.3,1540,474,,,,,,,,,,,,,,,,,,,
16434,1506783583884,,,,,,,,-0.0,0.05,0.99,4.5,-1.2,-1.3,1540,471,,,,,,,,,,,,,,,,,,,
16454,1506783583902,,,,,,,,0.0,0.05,1.0,4.6,-1.1,-1.3,1540,471,,,,,,,,,,,,,,,,,,,
16474,1506783583922,0,62.8,,100.9,66,88.2,,0.01,0.04,1.01,4.6,-1.2,-1.4,1520,463,1,1,3.263,1,35.4902,-119.544708,8.3,0.006,260.0,7,2,0.1,0,0.0,-1,0.0,0.0,0.0,0
16494,1506783583942,,,,,,,,0.01,0.04,1.01,4.7,-1.1,-1.4,1500,462,,,,,,,,,,,,,,,,,,,
16514,1506783583962,,,,,,,,0.02,0.03,1.0,4.7,-1.2,-1.3,1500,455,,,,,,,,,,,,,,,,,,,
16534,1506783583982,,,,,,,,0.03,0.03,0.97,4.8,-1.5,-1.3,1500,455,,,,,,,,,,,,,,,,,,,
16554,1506783583996,,,,,,,,0.02,0.03,0.96,4.8,-1.4,-1.4,1480,454,,,,,,,,,,,,,,,,,,,
16574,1506783584016,,,,,59,,,0.03,0.03,0.96,4.9,-1.6,-1.3,1480,454,1,1,3.311,1,35.490196,-119.544708,8.45,0.007,260.0,7,2,0.1,0,0.0,-1,0.0,0.0,0.0,0
16594,1506783584036,,,,,,,,0.03,0.03,0.96,5.0,-1.6,-1.3,1480,455,,,,,,,,,,,,,,,,,,,
16614,1506783584056,,,,,,,,0.04,0.03,0.96,5.0,-1.5,-1.2,1480,455,,,,,,,,,,,,,,,,,,,
16634,1506783584076,,,,,,,,0.04,0.02,0.97,5.0,-1.5,-1.2,1480,451,,,,,,,,,,,,,,,,,,,
16654,1506783584102,,,,,,,,0.04,0.02,0.97,5.0,-1.5,-1.2,1480,452,,,,,,,,,,,,,,,,,,,
16674,1506783584122,0,62.6,,100.9,60,88.3,,0.05,0.03,0.97,5.1,-1.5,-1.3,1480,451,1,1,3.289,1,35.490192,-119.544693,8.46,0.007,260.6,7,2,0.1,0,0.0,-1,0.0,0.0,0.0,0
16694,1506783584142,,,,,,,,0.05,0.04,0.97,5.1,-1.4,-1.2,1480,451,,,,,,,,,,,,,,,,,,,
16714,1506783584162,,,,,,,,0.05,0.03,0.98,5.1,-1.5,-1.2,1480,454,,,,,,,,,,,,,,,,,,,
16734,1506783584182,,,,,,,,0.05,0.03,0.98,5.2,-1.4,-1.0,1480,455,,,,,,,,,,,,,,,,,,,
16754,1506783584203,,,,,,,,0.05,0.04,0.97,5.2,-1.5,-0.9,1480,452,,,,,,,,,,,,,,,,,,,
16774,1506783584223,,,,,60,,,0.04,0.04,0.98,5.3,-1.4,-0.8,1480,452,1,1,3.253,1,35.490192,-119.544693,8.19,0.007,261.0,7,2,0.1,0,0.0,-1,0.0,0.0,0.0,0
16794,1506783584243,,,,,,,,0.05,0.04,0.98,5.3,-1.4,-0.9,1480,452,,,,,,,,,,,,,,,,,,,
16814,1506783584263,,,,,,,,0.05,0.04,0.98,5.3,-1.5,-1.0,1480,455,,,,,,,,,,,,,,,,,,,
16834,1506783584283,,,,,,,,0.05,0.04,0.97,5.4,-1.5,-1.0,1480,452,,,,,,,,,,,,,,,,,,,
16854,1506783584301,,,,,,,,0.05,0.04,0.98,5.4,-1.7,-0.8,1500,455,,,,,,,,,,,,,,,,,,,
16874,1506783584321,0,62.5,,100.2,65,88.7,,0.05,0.03,0.97,5.4,-1.8,-0.7,1500,455,1,1,3.253,1,35.490189,-119.544693,8.13,0.007,261.0,8,2,1.6,0,0.0,-1,0.0,0.0,0.0,0
16894,1506783584341,,,,,,,,0.06,0.03,0.98,5.4,-1.7,-0.6,1500,462,,,,,,,,,,,,,,,,,,,
16914,1506783584361,,,,,,,,0.06,0.02,0.97,5.4,-1.6,-0.6,1500,460,,,,,,,,,,,,,,,,,,,
16934,1506783584381,,,,,,,,0.06,0.02,0.97,5.4,-1.5,-0.6,1500,462,,,,,,,,,,,,,,,,,,,
16954,1506783584401,,,,,,,,0.06,0.02,0.97,5.5,-1.7,-0.7,1500,458,,,,,,,,,,,,,,,,,,,
16974,1506783584421,,,,,64,,,0.05,0.02,0.98,5.5,-1.6,-0.6,1500,463,1,1,3.261,1,35.490185,-119.544693,7.97,0.008,261.0,8,2,1.6,0,0.0,-1,0.0,0.0,0.0,0
16994,1506783584441,,,,,,,,0.05,0.03,0.97,5.5,-1.6,-0.6,1500,462,,,,,,,,,,,,,,,,,,,
17014,1506783584461,,,,,,,,0.05,0.03,0.98,5.5,-1.6,-0.6,1520,460,,,,,,,,,,,,,,,,,,,
17034,1506783584481,,,,,,,,0.05,0.03,0.98,5.6,-1.6,-0.7,1500,460,,,,,,,,,,,,,,,,,,,
17054,1506783584501,,,,,,,,0.05,0.03,0.98,5.5,-1.5,-0.6,1500,460,,,,,,,,,,,,,,,,,,,
17074,1506783584521,0,62.6,-0.1,100.9,62,88.4,14.81,0.05,0.03,0.98,5.6,-1.6,-0.7,1500,458,1,1,3.261,1,35.490181,-119.544693,7.93,0.008,261.0,8,2,1.6,0,0.0,-1,0.0,0.0,0.0,0
17094,1506783584541,,,,,,,,0.05,0.03,0.98,5.5,-1.5,-0.7,1500,460,,,,,,,,,,,,,,,,,,,
17114,1506783584561,,,,,,,,0.05,0.03,0.98,5.5,-1.4,-0.7,1500,455,,,,,,,,,,,,,,,,,,,
17134,1506783584581,,,,,,,,0.05,0.03,0.98,5.5,-1.5,-0.6,1500,458,,,,,,,,,,,,,,,,,,,
17154,1506783584601,,,,,,,,0.05,0.04,0.98,5.5,-1.5,-0.6,1500,458,,,,,,,,,,,,,,,,,,,
17174,1506783584621,,,,,68,,,0.05,0.03,0.98,5.4,-1.4,-0.6,1500,460,1,1,3.275,1,35.490181,-119.544693,7.88,0.008,260.8,8,2,1.6,0,0.0,-1,0.0,0.0,0.0,0
17194,1506783584641,,,,,,,,0.05,0.03,0.99,5.4,-1.3,-0.7,1500,455,,,,,,,,,,,,,,,,,,,
17214,1506783584661,,,,,,,,0.05,0.03,0.99,5.4,-1.3,-0.7,1480,458,,,,,,,,,,,,,,,,,,,
17234,1506783584681,,,,,,,,0.05,0.04,0.99,5.4,-1.3,-0.7,1500,454,,,,,,,,,,,,,,,,,,,
17254,1506783584701,,,,,,,,0.05,0.04,0.99,5.3,-1.3,-0.6,1480,455,,,,,,,,,,,,,,,,,,,
17274,1506783584721,0,60.2,,99.3,60,86.6,,0.05,0.04,1.0,5.4,-1.2,-0.6,1480,452,1,1,3.297,1,35.490177,-119.544693,7.92,0.008,260.7,8,2,1.6,0,0.0,-1,0.0,0.0,0.0,0
17294,1506783584741,,,,,,,,0.06,0.05,1.0,5.4,-1.2,-0.5,1480,454,,,,,,,,,,,,,,,,,,,
17314,1506783584761,,,,,,,,0.05,0.04,1.0,5.4,-1.1,-0.5,1480,452,,,,,,,,,,,,,,,,,,,
17334,1506783584781,,,,,,,,0.06,0.04,0.99,5.4,-1.1,-0.5,1480,451,,,,,,,,,,,,,,,,,,,
17354,1506783584801,,,,,,,,0.06,0.04,0.99,5.3,-1.2,-0.7,1480,451,,,,,,,,,,,,,,,,,,,
17374,1506783584821,,,,,60,,,0.05,0.04,0.99,5.3,-1.1,-0.7,1460,449,1,1,3.289,1,35.490173,-119.544693,7.62,0.009,260.5,8,2,1.6,0,0.0,-1,0.0,0.0,0.0,0
17394,1506783584841,,,,,,,,0.05,0.04,0.99,5.3,-1.3,-0.8,1460,448,,,,,,,,,,,,,,,,,,,
17414,1506783584861,,,,,,,,0.05,0.04,1.0,5.3,-1.3,-0.8,1460,449,,,,,,,,,,,,,,,,,,,
17434,1506783584881,,,,,,,,0.05,0.04,1.0,5.2,-1.3,-0.8,1460,445,,,,,,,,,,,,,,,,,,,
17454,1506783584903,,,,,,,,0.05,0.04,1.0,5.2,-1.2,-0.7,1460,448,,,,,,,,,,,,,,,,,,,
17474,1506783584923,0,62.6,,100.0,64,88.7,,0.05,0.04,1.0,5.2,-1.4,-0.7,1440,442,1,1,3.266,1,35.49017,-119.544693,7.8,0.009,260.3,8,2,1.6,0,0.0,-1,0.0,0.0,0.0,0
17494,1506783584943,,,,,,,,0.04,0.03,1.0,5.2,-1.3,-0.7,1440,440,,,,,,,,,,,,,,,,,,,
17514,1506783584963,,,,,,,,0.04,0.02,1.0,5.2,-1.4,-0.7,1440,437,,,,,,,,,,,,,,,,,,,
17534,1506783584983,,,,,,,,0.04,0.02,1.0,5.1,-1.1,-0.8,1420,437,,,,,,,,,,,,,,,,,,,
17554,1506783584995,,,,,,,,0.04,0.03,0.99,5.1,-1.3,-0.9,1420,435,,,,,,,,,,,,,,,,,,,
17574,1506783585015,,,,,57,,,0.04,0.02,1.0,5.1,-1.0,-0.9,1420,432,1,1,3.264,1,35.490166,-119.544693,7.7,0.009,260.1,8,2,1.6,0,0.0,-1,0.0,0.0,0.0,0
17594,1506783585035,,,,,,,,0.04,0.03,1.0,5.1,-1.2,-0.9,1400,434,,,,,,,,,,,,,,,,,,,
17614,1506783585055,,,,,,,,0.04,0.04,1.0,5.1,-1.1,-1.0,1400,431,,,,,,,,,,,,,,,,,,,
17634,1506783585075,,,,,,,,0.04,0.04,1.0,5.1,-1.0,-0.9,1420,434,,,,,,,,,,,,,,,,,,,
17654,1506783585101,,,,,,,,0.04,0.03,1.01,5.1,-1.1,-0.9,1420,432,,,,,,,,,,,,,,,,,,,
17674,1506783585121,0,62.8,,101.0,56,88.7,,0.04,0.03,1.01,5.1,-1.2,-0.9,1420,431,1,1,3.241,1,35.490162,-119.544678,7.1,0.009,261.6,8,2,1.6,0,0.0,-1,0.0,0.0,0.0,0
17694,1506783585141,,,,,,,,0.04,0.03,1.0,5.1,-1.3,-0.9,1400,431,,,,,,,,,,,,,,,,,,,
17714,1506783585161,,,,,,,,0.04,0.02,1.0,5.1,-1.3,-0.9,1400,431,,,,,,,,,,,,,,,,,,,
17734,1506783585181,,,,,,,,0.04,0.03,1.0,5.1,-1.2,-0.9,1420,434,,,,,,,,,,,,,,,,,,,
17754,1506783585202,,,,,,,,0.04,0.03,0.99,5.1,-1.1,-1.0,1420,434,,,,,,,,,,,,,,,,,,,
17774,1506783585222,,,,,56,,,0.04,0.03,0.98,5.1,-1.1,-1.0,1420,434,1,1,3.287,1,35.490158,-119.544678,7.6,0.009,263.1,8,2,1.6,0,0.0,-1,0.0,0.0,0.0,0
17794,1506783585242,,,,,,,,0.04,0.03,0.99,5.1,-1.2,-1.0,1420,435,,,,,,,,,,,,,,,,,,,
17814,1506783585262,,,,,,,,0.04,0.03,0.99,5.0,-1.2,-1.0,1420,434,,,,,,,,,,,,,,,,,,,
17834,1506783585282,,,,,,,,0.04,0.03,0.99,5.0,-1.3,-0.9,1420,435,,,,,,,,,,,,,,,,,,,
17854,1506783585300,,,,,,,,0.04,0.03,0.99,5.0,-1.3,-0.9,1420,434,,,,,,,,,,,,,,,,,,,
17874,1506783585320,0,61.7,,99.1,59,88.1,,0.04,0.03,0.99,5.0,-1.4,-0.9,1420,437,1,1,3.264,1,35.49015,-119.544678,7.32,0.01,264.3,8,2,1.6,0,0.0,-1,0.0,0.0,0.0,0
17894,1506783585340,,,,,,,,0.05,0.03,0.99,5.0,-1.5,-1.0,1420,432,,,,,,,,,,,,,,,,,,,
17914,1506783585360,,,,,,,,0.04,0.03,0.99,4.9,-1.5,-1.1,1420,432,,,,,,,,,,,,,,,,,,,
17934,1506783585380,,,,,,,,0.04,0.03,0.99,4.9,-1.7,-1.1,1400,434,,,,,,,,,,,,,,,,,,,
17954,1506783585402,,,,,,,,0.05,0.04,0.99,4.8,-1.5,-0.9,1420,434,,,,,,,,,,,,,,,,,,,
17974,1506783585422,,,,,61,,,0.04,0.03,1.0,4.7,-1.4,-0.6,1400,432,1,1,3.233,1,35.490147,-119.54467,6.97,0.01,265.2,9,2,1.4,0,0.0,-1,0.0,0.0,0.0,0
17994,1506783585442,,,,,,,,0.03,0.03,1.01,4.7,-1.4,-0.7,1420,431,,,,,,,,,,,,,,,,,,,
18014,1506783585462,,,,,,,,0.03,0.03,1.01,4.6,-1.4,-0.6,1400,431,,,,,,,,,,,,,,,,,,,
18034,1506783585482,,,,,,,,0.04,0.03,1.01,4.6,-1.5,-0.8,1400,429,,,,,,,,,,,,,,,,,,,
18054,1506783585500,,,,,,,,0.04,0.04,1.0,4.5,-1.5,-0.9,1400,428,,,,,,,,,,,,,,,,,,,
18074,1506783585520,0,63.0,-0.4,101.1,62,88.7,14.93,0.04,0.04,1.0,4.5,-1.6,-1.0,1400,429,1,1,3.241,1,35.490143,-119.54467,7.22,0.01,266.0,9,2,1.4,0,0.0,-1,0.0,0.0,0.0,0
18094,1506783585540,,,,,,,,0.04,0.05,1.02,4.5,-1.5,-1.2,1400,428,,,,,,,,,,,,,,,,,,,
18114,1506783585560,,,,,,,,0.03,0.05,1.02,4.5,-1.2,-1.3,1380,426,,,,,,,,,,,,,,,,,,,
18134,1506783585580,,,,,,,,0.04,0.05,1.02,4.5,-1.4,-1.3,1380,425,,,,,,,,,,,,,,,,,,,
18154,1506783585600,,,,,,,,0.03,0.06,1.02,4.5,-1.3,-1.2,1400,429,,,,,,,,,,,,,,,,,,,
18174,1506783585620,,,,,56,,,0.04,0.05,1.03,4.4,-1.2,-1.2,1400,426,1,1,3.239,1,35.490139,-119.54467,7.41,0.01,266.6,9,2,1.4,0,0.0,-1,0.0,0.0,0.0,0
18194,1506783585640,,,,,,,,0.04,0.04,1.03,4.3,-1.2,-1.3,1400,425,,,,,,,,,,,,,,,,,,,
18214,1506783585660,,,,,,,,0.04,0.04,1.03,4.3,-1.1,-1.3,1400,434,,,,,,,,,,,,,,,,,,,
18234,1506783585680,,,,,,,,0.04,0.04,1.02,4.3,-1.1,-1.3,1400,431,,,,,,,,,,,,,,,,,,,
18254,1506783585702,,,,,,,,0.04,0.03,1.01,4.2,-1.0,-1.1,1420,429,,,,,,,,,,,,,,,,,,,
18274,1506783585722,0,63.0,,101.2,56,88.7,,0.04,0.03,1.01,4.2,-1.1,-1.0,1400,432,1,1,3.256,1,35.490135,-119.54467,7.54,0.01,266.8,9,2,1.4,0,0.0,-1,0.0,0.0,0.0,0
18294,1506783585742,,,,,,,,0.04,0.03,1.01,4.2,-1.0,-0.8,1420,432,,,,,,,,,,,,,,,,,,,
18314,1506783585762,,,,,,,,0.05,0.03,1.0,4.1,-1.0,-0.5,1400,432,,,,,,,,,,,,,,,,,,,
18334,1506783585782,,,,,,,,0.04,0.03,0.99,4.1,-0.8,-0.5,1400,426,,,,,,,,,,,,,,,,,,,
18354,1506783585802,,,,,,,,0.04,0.03,1.0,4.1,-0.8,-0.4,1400,429,,,,,,,,,,,,,,,,,,,
18374,1506783585822,,,,,55,,,0.05,0.03,1.01,4.1,-0.9,-0.3,1400,428,1,1,3.263,1,35.490131,-119.54467,7.56,0.011,267.2,9,2,1.4,0,0.0,-1,0.0,0.0,0.0,0
18394,1506783585842,,,,,,,,0.04,0.03,1.0,4.1,-1.1,-0.4,1380,426,,,,,,,,,,,,,,,,,,,
18414,1506783585862,,,,,,,,0.04,0.04,1.0,4.1,-1.1,-0.4,1380,425,,,,,,,,,,,,,,,,,,,
18434,1506783585882,,,,,,,,0.04,0.03,1.01,4.1,-0.8,-0.5,1380,423,,,,,,,,,,,,,,,,,,,
18454,1506783585902,,,,,,,,0.05,0.04,1.01,4.0,-1.0,-0.5,1380,422,,,,,,,,,,,,,,,,,,,
18474,1506783585922,0,63.0,,100.7,59,88.9,,0.05,0.04,1.0,4.0,-1.1,-0.6,1380,422,1,1,3.255,1,35.490128,-119.54467,7.53,0.011,267.6,9,2,1.4,0,0.0,-1,0.0,0.0,0.0,0
18494,1506783585942,,,,,,,,0.05,0.03,1.0,4.0,-1.0,-0.7,1380,422,,,,,,,,,,,,,,,,,,,
18514,1506783585962,,,,,,,,0.05,0.04,1.0,4.0,-0.9,-0.6,1380,422,,,,,,,,,,,,,,,,,,,
18534,1506783585982,,,,,,,,0.05,0.03,1.0,4.0,-0.8,-0.6,1360,418,,,,,,,,,,,,,,,,,,,
18554,1506783585996,,,,,,,,0.05,0.03,1.0,3.9,-0.8,-0.6,1380,422,,,,,,,,,,,,,,,,,,,
18574,1506783586016,,,,,56,,,0.05,0.03,1.0,3.9,-0.8,-0.5,1380,423,1,1,3.23,1,35.490124,-119.54467,7.44,0.011,267.7,9,2,1.4,0,0.0,-1,0.0,0.0,0.0,0
18594,1506783586036,,,,,,,,0.04,0.02,0.99,3.9,-0.7,-0.5,1380,423,,,,,,,,,,,,,,,,,,,
18614,1506783586056,,,,,,,,0.04,0.02,0.99,3.9,-0.7,-0.4,1380,425,,,,,,,,,,,,,,,,,,,
18634,1506783586076,,,,,,,,0.04,0.02,0.99,3.9,-0.4,-0.4,1380,420,,,,,,,,,,,,,,,,,,,
18654,1506783586102,,,,,,,,0.03,0.02,0.98,3.9,-0.4,-0.4,1380,422,,,,,,,,,,,,,,,,,,,
18674,1506783586122,0,63.0,,101.2,56,88.9,,0.03,0.02,0.99,3.9,-0.4,-0.4,1380,423,1,1,3.262,1,35.49012,-119.544655,7.41,0.011,267.5,9,2,1.4,0,0.0,-1,0.0,0.0,0.0,0
18694,1506783586142,,,,,,,,0.03,0.02,0.99,3.9,-0.4,-0.6,1380,422,,,,,,,,,,,,,,,,,,,
18714,1506783586162,,,,,,,,0.03,0.03,0.99,4.0,-0.3,-0.6,1380,422,,,,,,,,,,,,,,,,,,,
18734,1506783586182,,,,,,,,0.03,0.03,0.99,4.0,-0.3,-0.7,1360,420,,,,,,,,,,,,,,,,,,,
18754,1506783586201,,,,,,,,0.03,0.03,0.99,3.9,-0.4,-0.5,1380,418,,,,,,,,,,,,,,,,,,,
18774,1506783586221,,,,,57,,,0.03,0.03,0.98,3.9,-0.3,-0.4,1380,418,1,1,3.238,1,35.490116,-119.544655,7.37,0.011,267.2,9,2,1.4,0,0.0,-1,0.0,0.0,0.0,0
18794,1506783586241,,,,,,,,0.03,0.03,1.0,3.9,-0.1,-0.4,1360,417,,,,,,,,,,,,,,,,,,,
18814,1506783586261,,,,,,,,0.02,0.04,1.0,3.9,-0.0,-0.4,1360,415,,,,,,,,,,,,,,,,,,,
18834,1506783586281,,,,,,,,0.02,0.05,1.0,3.9,-0.1,-0.6,1360,417,,,,,,,,,,,,,,,,,,,
18854,1506783586301,,,,,,,,0.03,0.04,1.01,4.0,0.0,-0.9,1360,415,,,,,,,,,,,,,,,,,,,
18874,1506783586321,0,62.1,,101.0,56,89.0,,0.03,0.05,1.0,4.0,0.1,-1.0,1340,412,1,1,3.269,1,35.490112,-119.544655,7.33,0.012,266.9,9,2,1.4,0,0.0,-1,0.0,0.0,0.0,0
18894,1506783586341,,,,,,,,0.03,0.05,1.01,4.0,-0.0,-0.9,1340,411,,,,,,,,,,,,,,,,,,,
18914,1506783586361,,,,,,,,0.03,0.04,1.0,4.0,-0.2,-0.8,1340,406,,,,,,,,,,,,,,,,,,,
18934,1506783586381,,,,,,,,0.03,0.04,1.0,4.0,-0.3,-0.7,1340,411,,,,,,,,,,,,,,,,,,,
18954,1506783586401,,,,,,,,0.04,0.03,1.0,4.0,-0.5,-0.7,1340,409,,,,,,,,,,,,,,,,,,,
18974,1506783586421,,,,,59,,,0.04,0.02,1.0,4.0,-0.6,-0.8,1320,406,1,1,3.292,1,35.490108,-119.544655,7.24,0.012,266.5,9,2,1.4,0,0.0,-1,0.0,0.0,0.0,0
18994,1506783586441,,,,,,,,0.04,0.02,1.0,4.1,-0.7,-0.8,1320,406,,,,,,,,,,,,,,,,,,,
19014,1506783586461,,,,,,,,0.05,0.01,1.0,4.1,-0.8,-0.8,1320,406,,,,,,,,,,,,,,,,,,,
19034,1506783586481,,,,,,,,0.05,0.01,1.0,4.2,-1.0,-0.7,1340,406,,,,,,,,,,,,,,,,,,,
19054,1506783586501,,,,,,,,0.05,0.01,0.99,4.2,-1.1,-0.5,1320,405,,,,,,,,,,,,,,,,,,,
19074,1506783586521,0,60.5,-0.5,99.7,54,87.4,14.92,0.05,0.0,0.99,4.3,-1.2,-0.4,1320,403,1,1,3.3,1,35.490105,-119.544655,7.18,0.012,266.4,9,2,1.4,0,0.0,-1,0.0,0.0,0.0,0
19094,1506783586541,,,,,,,,0.04,0.01,1.0,4.4,-1.3,-0.4,1320,403,,,,,,,,,,,,,,,,,,,
19114,1506783586561,,,,,,,,0.05,0.01,0.99,4.5,-1.4,-0.3,1320,403,,,,,,,,,,,,,,,,,,,
19134,1506783586581,,,,,,,,0.05,0.01,0.99,4.6,-1.4,-0.4,1320,405,,,,,,,,,,,,,,,,,,,
19154,1506783586601,,,,,,,,0.05,0.01,0.99,4.6,-1.4,-0.4,1320,403,,,,,,,,,,,,,,,,,,,
19174,1506783586621,,,,,53,,,0.05,0.01,0.99,4.7,-1.4,-0.3,1300,400,1,1,3.275,1,35.490105,-119.544655,7.11,0.012,266.4,9,2,1.4,0,0.0,-1,0.0,0.0,0.0,0
19194,1506783586641,,,,,,,,0.05,0.0,0.99,4.8,-1.3,-0.2,1300,402,,,,,,,,,,,,,,,,,,,
19214,1506783586661,,,,,,,,0.05,0.0,1.0,4.9,-1.2,-0.2,1320,403,,,,,,,,,,,,,,,,,,,
19234,1506783586681,,,,,,,,0.05,-0.0,1.0,5.0,-1.3,-0.2,1320,403,,,,,,,,,,,,,,,,,,,
19254,1506783586699,,,,,,,,0.05,0.0,1.0,5.2,-1.3,-0.4,1300,398,,,,,,,,,,,,,,,,,,,
19274,1506783586719,0,61.1,,100.2,67,88.4,,0.05,0.0,1.01,5.3,-1.3,-0.6,1300,398,1,1,3.275,1,35.490101,-119.544655,7.1,0.012,266.0,9,2,1.4,0,0.0,-1,0.0,0.0,0.0,0
19294,1506783586739,,,,,,,,0.05,0.0,1.0,5.4,-1.4,-0.8,1300,398,,,,,,,,,,,,,,,,,,,
19314,1506783586759,,,,,,,,0.05,0.01,1.0,5.6,-1.5,-0.9,1300,395,,,,,,,,,,,,,,,,,,,
19334,1506783586779,,,,,,,,0.05,0.0,1.0,5.7,-1.6,-0.9,1300,397,,,,,,,,,,,,,,,,,,,
19354,1506783586801,,,,,,,,0.05,0.01,0.99,5.9,-1.8,-0.9,1300,397,,,,,,,,,,,,,,,,,,,
19374,1506783586821,,,,,65,,,0.05,0.0,0.98,6.0,-1.7,-0.9,1300,395,1,1,3.283,1,35.490097,-119.544655,6.89,0.013,265.9,9,2,1.4,0,0.0,-1,0.0,0.0,0.0,0
19394,1506783586841,,,,,,,,0.05,-0.01,0.99,6.1,-1.8,-1.1,1300,397,,,,,,,,,,,,,,,,,,,
19414,1506783586861,,,,,,,,0.05,-0.01,0.98,6.2,-2.0,-1.3,1300,394,,,,,,,,,,,,,,,,,,,
19434,1506783586881,,,,,,,,0.05,-0.01,0.99,6.4,-2.0,-1.4,1280,394,,,,,,,,,,,,,,,,,,,
19454,1506783586901,,,,,,,,0.05,-0.02,0.99,6.5,-2.0,-1.5,1280,397,,,,,,,,,,,,,,,,,,,
19474,1506783586921,0,62.5,,101.3,63,89.0,,0.05,-0.02,0.99,6.7,-1.9,-1.6,1280,395,1,1,3.257,1,35.490093,-119.544655,7.06,0.013,266.4,9,2,1.4,0,0.0,-1,0.0,0.0,0.0,0
19494,1506783586941,,,,,,,,0.05,-0.02,0.99,6.9,-1.9,-1.6,1300,394,,,,,,,,,,,,,,,,,,,
19514,1506783586961,,,,,,,,0.05,-0.03,0.99,7.1,-2.0,-1.6,1280,398,,,,,,,,,,,,,,,,,,,
19534,1506783586981,,,,,,,,0.05,-0.02,0.99,7.3,-1.8,-1.5,1300,394,,,,,,,,,,,,,,,,,,,
19554,1506783586997,,,,,,,,0.05,-0.03,0.99,7.5,-1.8,-1.5,1280,394,,,,,,,,,,,,,,,,,,,
19574,1506783587017,,,,,70,,,0.05,-0.03,1.0,7.6,-1.9,-1.5,1280,394,1,1,3.291,1,35.490086,-119.544655,6.9,0.013,266.2,9,2,1.4,0,0.0,-1,0.0,0.0,0.0,0
19594,1506783587037,,,,,,,,0.05,-0.02,1.01,7.8,-1.6,-1.5,1300,395,,,,,,,,,,,,,,,,,,,
19614,1506783587057,,,,,,,,0.05,-0.02,1.01,7.9,-1.9,-1.5,1280,394,,,,,,,,,,,,,,,,,,,
19634,1506783587077,,,,,,,,0.05,-0.03,1.0,8.1,-1.9,-1.4,1280,394,,,,,,,,,,,,,,,,,,,
19654,1506783587101,,,,,,,,0.06,-0.03,1.0,8.2,-1.9,-1.2,1300,394,,,,,,,,,,,,,,,,,,,
19674,1506783587121,0,62.9,,101.2,67,89.2,,0.05,-0.04,1.0,8.3,-1.9,-1.1,1300,397,1,1,3.257,1,35.490086,-119.544655,7.01,0.013,266.2,9,2,1.4,0,0.0,-1,0.0,0.0,0.0,0
19694,1506783587141,,,,,,,,0.05,-0.03,1.0,8.4,-1.9,-1.0,1300,397,,,,,,,,,,,,,,,,,,,
19714,1506783587161,,,,,,,,0.05,-0.03,1.01,8.6,-1.9,-0.8,1300,397,,,,,,,,,,,,,,,,,,,
19734,1506783587181,,,,,,,,0.04,-0.03,1.02,8.7,-1.7,-0.9,1280,394,,,,,,,,,,,,,,,,,,,
19754,1506783587200,,,,,,,,0.04,-0.02,1.02,8.8,-1.7,-0.9,1300,394,,,,,,,,,,,,,,,,,,,
19774,1506783587220,,,,,60,,,0.04,-0.01,1.02,8.9,-1.8,-0.9,1280,394,1,1,3.232,1,35.490082,-119.544655,7.06,0.013,266.2,9,2,1.4,0,0.0,-1,0.0,0.0,0.0,0
19794,1506783587240,,,,,,,,0.03,-0.02,1.02,9.0,-1.7,-0.8,1280,392,,,,,,,,,,,,,,,,,,,
19814,1506783587260,,,,,,,,0.03,-0.02,1.01,9.1,-1.7,-0.8,1280,386,,,,,,,,,,,,,,,,,,,
19834,1506783587280,,,,,,,,0.02,-0.01,1.0,9.2,-1.7,-0.6,1260,392,,,,,,,,,,,,,,,,,,,
19854,1506783587300,,,,,,,,0.03,-0.01,1.0,9.3,-1.7,-0.6,1280,388,,,,,,,,,,,,,,,,,,,
19874,1506783587320,0,61.9,,100.9,62,88.9,,0.03,-0.0,0.98,9.3,-1.6,-0.6,1260,383,1,1,3.256,1,35.490082,-119.544655,6.83,0.014,266.1,9,2,1.4,0,0.0,-1,0.0,0.0,0.0,0
19894,1506783587340,,,,,,,,0.02,0.0,0.98,9.4,-1.4,-0.7,1260,382,,,,,,,,,,,,,,,,,,,
19914,1506783587360,,,,,,,,0.02,-0.0,0.98,9.5,-1.4,-0.7,1240,382,,,,,,,,,,,,,,,,,,,
19934,1506783587380,,,,,,,,0.02,-0.0,0.98,9.5,-1.4,-0.7,1240,382,,,,,,,,,,,,,,,,,,,
19954,1506783587402,,,,,,,,0.02,-0.0,0.98,9.6,-1.5,-0.6,1240,378,,,,,,,,,,,,,,,,,,,
19974,1506783587422,,,,,67,,,0.02,0.01,0.99,9.6,-1.5,-0.5,1240,382,1,1,3.263,1,35.490078,-119.544655,6.89,0.014,266.0,9,2,1.4,0,0.0,-1,0.0,0.0,0.0,0
19994,1506783587442,,,,,,,,0.03,0.0,0.99,9.6,-1.4,-0.5,1240,380,,,,,,,,,,,,,,,,,,,
20014,1506783587462,,,,,,,,0.03,0.0,0.99,9.7,-1.4,-0.5,1240,380,,,,,,,,,,,,,,,,,,,
20034,1506783587482,,,,,,,,0.03,0.0,0.99,9.8,-1.3,-0.5,1240,382,,,,,,,,,,,,,,,,,,,
20054,1506783587502,,,,,,,,0.03,0.01,0.99,9.8,-1.4,-0.5,1260,383,,,,,,,,,,,,,,,,,,,
20074,1506783587522,0,60.8,-0.4,99.1,58,86.9,14.91,0.04,0.0,0.99,9.7,-1.6,-0.6,1260,386,1,1,3.238,1,35.490074,-119.544655,6.99,0.014,266.0,9,2,1.4,0,0.0,-1,0.0,0.0,0.0,0
20094,1506783587542,,,,,,,,0.04,0.01,0.99,9.7,-1.6,-0.6,1260,386,,,,,,,,,,,,,,,,,,,
20114,1506783587562,,,,,,,,0.04,0.01,0.98,9.7,-1.7,-0.6,1240,385,,,,,,,,,,,,,,,,,,,
20134,1506783587582,,,,,,,,0.04,0.01,0.99,9.7,-1.6,-0.5,1260,385,,,,,,,,,,,,,,,,,,,
20154,1506783587602,,,,,,,,0.04,0.01,0.98,9.6,-1.5,-0.4,1260,388,,,,,,,,,,,,,,,,,,,
20174,1506783587622,,,,,60,,,0.05,0.01,0.98,9.6,-1.3,-0.4,1260,389,1,1,3.29,1,35.49007,-119.544655,6.83,0.014,265.9,9,2,1.4,0,0.0,-1,0.0,0.0,0.0,0
20194,1506783587642,,,,,,,,0.05,0.0,0.98,9.6,-1.3,-0.4,1260,386,,,,,,,,,,,,,,,,,,,
20214,1506783587662,,,,,,,,0.05,0.0,0.99,9.5,-1.1,-0.3,1260,391,,,,,,,,,,,,,,,,,,,
20234,1506783587682,,,,,,,,0.05,0.0,0.99,9.5,-1.0,-0.4,1280,392,,,,,,,,,,,,,,,,,,,
20254,1506783587702,,,,,,,,0.05,0.01,0.99,9.5,-1.0,-0.4,1280,389,,,,,,,,,,,,,,,,,,,
20274,1506783587722,0,60.7,,100.0,65,87.7,,0.05,0.02,0.98,9.5,-0.9,-0.4,1280,391,1,1,3.239,1,35.490067,-119.544655,6.8,0.014,265.8,9,2,1.4,0,0.0,-1,0.0,0.0,0.0,0
20294,1506783587742,,,,,,,,0.05,0.02,0.99,9.5,-0.8,-0.4,1280,394,,,,,,,,,,,,,,,,,,,
20314,1506783587762,,,,,,,,0.05,0.01,0.99,9.6,-0.7,-0.5,1280,394,,,,,,,,,,,,,,,,,,,
20334,1506783587782,,,,,,,,0.05,0.01,0.99,9.6,-0.8,-0.5,1300,394,,,,,,,,,,,,,,,,,,,
20354,1506783587804,,,,,,,,0.05,0.01,1.0,9.6,-0.6,-0.4,1280,392,,,,,,,,,,,,,,,,,,,
20374,1506783587824,,,,,60,,,0.05,0.01,1.0,9.6,-0.7,-0.4,1280,392,1,1,3.308,1,35.490063,-119.544655,6.88,0.015,265.6,9,2,1.4,0,0.0,-1,0.0,0.0,0.0,0
20394,1506783587844,,,,,,,,0.04,0.01,1.0,9.6,-0.7,-0.5,1260,389,,,,,,,,,,,,,,,,,,,
20414,1506783587864,,,,,,,,0.03,0.01,1.0,9.6,-0.6,-0.5,1280,388,,,,,,,,,,,,,,,,,,,
20434,1506783587884,,,,,,,,0.03,0.0,0.99,9.5,-0.6,-0.5,1260,388,,,,,,,,,,,,,,,,,,,
20454,1506783587902,,,,,,,,0.03,-0.01,0.99,9.5,-0.6,-0.5,1260,386,,,,,,,,,,,,,,,,,,,
20474,1506783587922,0,62.6,,101.2,64,89.2,,0.02,-0.01,0.99,9.6,-0.7,-0.6,1260,382,1,1,3.316,1,35.490063,-119.544655,6.69,0.015,265.6,9,2,1.4,0,0.0,-1,0.0,0.0,0.0,0
20494,1506783587942,,,,,,,,0.03,-0.0,0.98,9.6,-0.6,-0.5,1240,380,,,,,,,,,,,,,,,,,,,
20514,1506783587962,,,,,,,,0.03,-0.01,0.99,9.6,-0.6,-0.3,1240,383,,,,,,,,,,,,,,,,,,,
20534,1506783587982,,,,,,,,0.03,-0.01,0.99,9.6,-0.5,-0.3,1240,383,,,,,,,,,,,,,,,,,,,
20554,1506783587998,,,,,,,,0.02,-0.01,0.99,9.6,-0.7,-0.2,1240,378,,,,,,,,,,,,,,,,,,,
20574,1506783588018,,,,,62,,,0.03,-0.01,0.99,9.6,-0.7,0.0,1240,380,1,1,3.255,1,35.490059,-119.544655,6.84,0.015,265.5,9,2,1.4,0,0.0,-1,0.0,0.0,0.0,0
20594,1506783588038,,,,,,,,0.03,-0.01,0.98,9.7,-0.8,0.2,1240,380,,,,,,,,,,,,,,,,,,,
20614,1506783588058,,,,,,,,0.03,-0.01,0.99,9.7,-0.8,0.3,1240,383,,,,,,,,,,,,,,,,,,,
20634,1506783588078,,,,,,,,0.03,-0.01,0.99,9.7,-1.1,0.3,1240,380,,,,,,,,,,,,,,,,,,,
20654,1506783588104,,,,,,,,0.04,-0.0,1.0,9.8,-1.1,0.3,1240,380,,,,,,,,,,,,,,,,,,,
20674,1506783588124,0,61.4,,100.6,62,88.5,,0.04,0.0,1.0,9.8,-1.1,0.3,1240,386,1,1,3.238,1,35.490055,-119.544655,6.97,0.015,265.7,9,2,1.4,0,0.0,-1,0.0,0.0,0.0,0
20694,1506783588144,,,,,,,,0.04,0.01,0.99,9.8,-1.2,0.2,1260,386,,,,,,,,,,,,,,,,,,,
20714,1506783588164,,,,,,,,0.04,0.01,0.99,9.7,-1.2,0.3,1260,386,,,,,,,,,,,,,,,,,,,
20734,1506783588184,,,,,,,,0.04,-0.0,0.99,9.7,-1.2,0.4,1260,386,,,,,,,,,,,,,,,,,,,
20754,1506783588203,,,,,,,,0.04,0.0,1.0,9.7,-1.3,0.4,1260,386,,,,,,,,,,,,,,,,,,,
20774,1506783588223,,,,,63,,,0.04,0.0,1.0,9.7,-1.3,0.2,1260,386,1,1,3.256,1,35.490051,-119.54467,7.03,0.015,265.9,9,2,1.4,0,0.0,-1,0.0,0.0,0.0,0
20794,1506783588243,,,,,,,,0.04,0.0,0.99,9.7,-1.2,0.2,1260,386,,,,,,,,,,,,,,,,,,,
20814,1506783588263,,,,,,,,0.04,-0.0,0.99,9.7,-1.2,0.2,1260,388,,,,,,,,,,,,,,,,,,,
20834,1506783588283,,,,,,,,0.04,-0.0,0.99,9.7,-1.2,0.2,1260,391,,,,,,,,,,,,,,,,,,,
20854,1506783588301,,,,,,,,0.04,-0.01,0.99,9.7,-1.4,0.2,1280,389,,,,,,,,,,,,,,,,,,,
20874,1506783588321,0,60.7,,100.0,65,88.3,,0.04,-0.01,0.99,9.6,-1.3,0.3,1260,388,1,1,3.231,1,35.490051,-119.54467,6.35,0.015,265.8,9,2,1.4,0,0.0,-1,0.0,0.0,0.0,0
20894,1506783588341,,,,,,,,0.04,-0.01,1.0,9.6,-1.3,0.4,1280,389,,,,,,,,,,,,,,,,,,,
20914,1506783588361,,,,,,,,0.03,-0.01,0.99,9.6,-1.2,0.4,1280,389,,,,,,,,,,,,,,,,,,,
20934,1506783588381,,,,,,,,0.03,-0.01,0.98,9.5,-1.3,0.5,1280,389,,,,,,,,,,,,,,,,,,,
20954,1506783588405,,,,,,,,0.03,-0.01,0.99,9.5,-1.2,0.5,1260,389,,,,,,,,,,,,,,,,,,,
20974,1506783588425,,,,,63,,,0.03,-0.01,0.99,9.5,-1.1,0.5,1260,386,1,1,3.282,1,35.490047,-119.54467,6.51,0.016,265.9,9,2,1.4,0,0.0,-1,0.0,0.0,0.0,0
20994,1506783588445,,,,,,,,0.02,-0.01,0.98,9.5,-1.3,0.6,1260,385,,,,,,,,,,,,,,,,,,,
21014,1506783588465,,,,,,,,0.03,-0.01,0.98,9.5,-1.2,0.6,1260,383,,,,,,,,,,,,,,,,,,,
21034,1506783588485,,,,,,,,0.03,-0.01,0.98,9.5,-1.3,0.6,1240,382,,,,,,,,,,,,,,,,,,,
21054,1506783588503,,,,,,,,0.03,-0.0,0.99,9.6,-1.2,0.6,1240,382,,,,,,,,,,,,,,,,,,,
21074,1506783588523,0,60.9,-0.5,99.4,56,88.5,14.93,0.03,-0.01,0.99,9.6,-1.2,0.4,1240,380,1,1,3.263,1,35.490044,-119.54467,6.69,0.016,265.9,9,2,1.4,0,0.0,-1,0.0,0.0,0.0,0
21094,1506783588543,,,,,,,,0.03,-0.0,0.99,9.6,-1.2,0.4,1240,383,,,,,,,,,,,,,,,,,,,
21114,1506783588563,,,,,,,,0.03,-0.0,0.99,9.5,-1.3,0.4,1240,383,,,,,,,,,,,,,,,,,,,
21134,1506783588583,,,,,,,,0.03,0.01,0.99,9.4,-1.2,0.5,1240,382,,,,,,,,,,,,,,,,,,,
21154,1506783588603,,,,,,,,0.03,0.01,0.99,9.4,-1.5,0.5,1240,383,,,,,,,,,,,,,,,,,,,
21174,1506783588623,,,,,63,,,0.03,0.02,0.99,9.2,-1.5,0.7,1240,383,1,1,3.255,1,35.490044,-119.54467,6.75,0.016,266.0,9,2,1.4,0,0.0,-1,0.0,0.0,0.0,0
21194,1506783588643,,,,,,,,0.03,0.02,0.99,9.1,-1.4,0.8,1260,385,,,,,,,,,,,,,,,,,,,
21214,1506783588663,,,,,,,,0.03,0.02,0.99,9.0,-1.3,0.8,1260,388,,,,,,,,,,,,,,,,,,,
21234,1506783588683,,,,,,,,0.03,0.02,0.98,8.9,-1.4,0.9,1260,388,,,,,,,,,,,,,,,,,,,
21254,1506783588703,,,,,,,,0.03,0.03,0.98,8.8,-1.4,1.0,1260,392,,,,,,,,,,,,,,,,,,,
21274,1506783588723,0,63.1,,100.7,64,87.2,,0.04,0.03,0.99,8.6,-1.3,1.0,1280,394,1,1,3.239,1,35.49004,-119.54467,6.78,0.016,266.1,9,2,1.4,0,0.0,-1,0.0,0.0,0.0,0
21294,1506783588743,,,,,,,,0.04,0.03,0.99,8.5,-1.3,1.0,1280,392,,,,,,,,,,,,,,,,,,,
21314,1506783588763,,,,,,,,0.03,0.03,0.99,8.4,-1.3,1.0,1280,392,,,,,,,,,,,,,,,,,,,
21334,1506783588783,,,,,,,,0.03,0.03,0.99,8.3,-1.2,1.0,1280,394,,,,,,,,,,,,,,,,,,,
21354,1506783588803,,,,,,,,0.03,0.03,0.99,8.2,-1.2,0.9,1280,394,,,,,,,,,,,,,,,,,,,
21374,1506783588823,,,,,60,,,0.02,0.03,0.98,8.1,-1.4,0.8,1280,392,1,1,3.257,1,35.490036,-119.54467,6.55,0.016,266.2,9,2,1.4,0,0.0,-1,0.0,0.0,0.0,0
21394,1506783588843,,,,,,,,0.03,0.02,0.98,8.0,-1.2,0.8,1280,391,,,,,,,,,,,,,,,,,,,
21414,1506783588863,,,,,,,,0.03,0.03,0.99,7.9,-1.3,0.6,1260,389,,,,,,,,,,,,,,,,,,,
21434,1506783588883,,,,,,,,0.02,0.02,0.99,7.9,-1.3,0.5,1260,386,,,,,,,,,,,,,,,,,,,
21454,1506783588903,,,,,,,,0.02,0.02,0.98,7.8,-1.3,0.4,1260,385,,,,,,,,,,,,,,,,,,,
21474,1506783588923,0,63.1,,101.5,63,88.6,,0.02,0.02,0.98,7.8,-1.3,0.5,1260,386,1,1,3.256,1,35.490032,-119.54467,6.94,0.017,266.2,9,2,1.4,0,0.0,-1,0.0,0.0,0.0,0
21494,1506783588943,,,,,,,,0.03,0.01,0.98,7.8,-1.3,0.5,1260,386,,,,,,,,,,,,,,,,,,,
21514,1506783588963,,,,,,,,0.03,0.01,0.98,7.8,-1.2,0.5,1260,383,,,,,,,,,,,,,,,,,,,
21534,1506783588983,,,,,,,,0.03,0.02,0.98,7.8,-1.3,0.6,1240,383,,,,,,,,,,,,,,,,,,,
21554,1506783588999,,,,,,,,0.03,0.02,0.99,7.7,-1.3,0.6,1260,386,,,,,,,,,,,,,,,,,,,
21574,1506783589019,,,,,62,,,0.04,0.02,0.99,7.7,-1.2,0.4,1260,388,1,1,3.212,1,35.490032,-119.54467,6.76,0.017,266.2,9,2,1.4,0,0.0,-1,0.0,0.0,0.0,0
21594,1506783589039,,,,,,,,0.04,0.01,0.99,7.8,-1.4,0.3,1260,386,,,,,,,,,,,,,,,,,,,
21614,1506783589059,,,,,,,,0.04,0.02,0.99,7.8,-1.3,0.2,1260,391,,,,,,,,,,,,,,,,,,,
21634,1506783589079,,,,,,,,0.05,0.01,0.99,7.9,-1.3,0.2,1280,392,,,,,,,,,,,,,,,,,,,
21654,1506783589103,,,,,,,,0.04,0.01,0.99,7.9,-1.2,-0.0,1280,391,,,,,,,,,,,,,,,,,,,
21674,1506783589123,0,61.9,,100.9,62,89.6,,0.04,0.01,0.98,7.9,-1.4,-0.0,1280,392,1,1,3.239,1,35.490028,-119.54467,6.94,0.017,266.2,9,2,1.4,0,0.0,-1,0.0,0.0,0.0,0
21694,1506783589143,,,,,,,,0.04,0.01,0.99,8.0,-1.3,-0.0,1280,392,,,,,,,,,,,,,,,,,,,
21714,1506783589163,,,,,,,,0.04,0.01,0.99,8.1,-1.2,-0.1,1280,394,,,,,,,,,,,,,,,,,,,
21734,1506783589183,,,,,,,,0.04,0.0,0.98,8.1,-1.4,-0.2,1280,391,,,,,,,,,,,,,,,,,,,
21754,1506783589202,,,,,,,,0.04,0.01,0.98,8.2,-1.2,-0.2,1280,394,,,,,,,,,,,,,,,,,,,
21774,1506783589222,,,,,62,,,0.04,0.01,0.99,8.2,-1.2,-0.3,1280,395,1,1,3.257,1,35.490025,-119.54467,6.86,0.017,266.2,9,2,1.4,0,0.0,-1,0.0,0.0,0.0,0
21794,1506783589242,,,,,,,,0.04,0.0,0.99,8.3,-1.0,-0.4,1280,388,,,,,,,,,,,,,,,,,,,
21814,1506783589262,,,,,,,,0.04,-0.0,0.98,8.4,-1.2,-0.4,1260,389,,,,,,,,,,,,,,,,,,,
21834,1506783589282,,,,,,,,0.04,0.0,0.99,8.5,-1.3,-0.4,1280,391,,,,,,,,,,,,,,,,,,,
21854,1506783589304,,,,,,,,0.05,-0.01,0.99,8.7,-1.1,-0.5,1260,386,,,,,,,,,,,,,,,,,,,
21874,1506783589324,0,60.7,,99.0,63,88.4,,0.04,-0.02,0.99,8.9,-1.1,-0.7,1260,386,1,1,3.256,1,35.490025,-119.54467,6.85,0.017,266.2,9,2,1.4,0,0.0,-1,0.0,0.0,0.0,0
21894,1506783589344,,,,,,,,0.04,-0.01,0.99,9.1,-1.1,-0.7,1260,386,,,,,,,,,,,,,,,,,,,
21914,1506783589364,,,,,,,,0.04,-0.02,0.99,9.4,-1.2,-0.8,1260,388,,,,,,,,,,,,,,,,,,,
21934,1506783589384,,,,,,,,0.04,-0.03,1.0,9.7,-1.0,-1.0,1260,388,,,,,,,,,,,,,,,,,,,
21954,1506783589404,,,,,,,,0.04,-0.02,1.0,9.9,-1.1,-1.2,1260,386,,,,,,,,,,,,,,,,,,,
21974,1506783589424,,,,,58,,,0.05,-0.02,1.0,10.1,-1.0,-1.3,1260,386,1,1,3.239,1,35.490021,-119.54467,6.98,0.018,266.1,9,2,1.4,0,0.0,-1,0.0,0.0,0.0,0
21994,1506783589444,,,,,,,,0.05,-0.02,1.01,10.4,-0.9,-1.6,1260,386,,,,,,,,,,,,,,,,,,,
22014,1506783589464,,,,,,,,0.05,-0.03,1.01,10.6,-0.8,-2.0,1260,388,,,,,,,,,,,,,,,,,,,
22034,1506783589484,,,,,,,,0.05,-0.04,1.0,10.9,-0.8,-2.1,1280,388,,,,,,,,,,,,,,,,,,,
22054,1506783589504,,,,,,,,0.05,-0.04,1.0,11.1,-0.8,-2.1,1260,389,,,,,,,,,,,,,,,,,,,
22074,1506783589524,0,62.6,-0.1,99.3,58,87.7,14.89,0.06,-0.04,0.99,11.4,-0.7,-2.3,1260,389,1,1,3.29,1,35.490017,-119.54467,6.97,0.018,266.0,9,2,1.4,0,0.0,-1,0.0,0.0,0.0,0
22094,1506783589544,,,,,,,,0.05,-0.05,0.99,11.7,-0.8,-2.3,1260,388,,,,,,,,,,,,,,,,,,,
22114,1506783589564,,,,,,,,0.05,-0.05,0.99,12.1,-0.7,-2.4,1280,386,,,,,,,,,,,,,,,,,,,
22134,1506783589584,,,,,,,,0.06,-0.05,0.99,12.4,-0.9,-2.5,1260,386,,,,,,,,,,,,,,,,,,,
22154,1506783589604,,,,,,,,0.06,-0.06,0.99,12.8,-0.7,-2.7,1260,388,,,,,,,,,,,,,,,,,,,
22174,1506783589624,,,,,55,,,0.05,-0.05,0.98,13.0,-0.7,-2.8,1260,386,1,1,3.316,1,35.490017,-119.544678,6.63,0.018,265.9,9,2,1.4,0,0.0,-1,0.0,0.0,0.0,0
22194,1506783589644,,,,,,,,0.04,-0.05,0.99,13.2,-0.8,-2.7,1260,386,,,,,,,,,,,,,,,,,,,
22214,1506783589664,,,,,,,,0.04,-0.05,0.99,13.5,-0.7,-2.8,1260,386,,,,,,,,,,,,,,,,,,,
22234,1506783589684,,,,,,,,0.04,-0.06,0.99,13.7,-0.7,-2.8,1260,385,,,,,,,,,,,,,,,,,,,
22254,1506783589704,,,,,,,,0.04,-0.06,0.98,14.0,-0.6,-2.8,1260,385,,,,,,,,,,,,,,,,,,,
22274,1506783589724,1,60.7,,99.7,58,89.2,,0.05,-0.06,0.98,14.1,-0.4,-2.8,1260,386,1,1,3.264,1,35.490013,-119.544678,6.71,0.018,265.8,9,2,1.4,0,0.0,-1,0.0,0.0,0.0,0
22294,1506783589744,,,,,,,,0.06,-0.06,1.0,14.3,-0.1,-2.8,1260,386,,,,,,,,,,,,,,,,,,,
22314,1506783589764,,,,,,,,0.05,-0.06,0.98,14.6,-0.1,-2.8,1260,383,,,,,,,,,,,,,,,,,,,
22334,1506783589784,,,,,,,,0.06,-0.07,1.0,14.7,-0.0,-2.8,1260,386,,,,,,,,,,,,,,,,,,,
22354,1506783589806,,,,,,,,0.06,-0.06,0.99,14.9,0.0,-2.7,1260,383,,,,,,,,,,,,,,,,,,,
22374,1506783589826,,,,,63,,,0.05,-0.07,0.99,15.2,-0.1,-2.8,1240,385,1,1,3.264,1,35.490009,-119.544678,6.91,0.018,265.8,9,2,1.4,0,0.0,-1,0.0,0.0,0.0,0
22394,1506783589846,,,,,,,,0.03,-0.06,0.99,15.4,-0.3,-2.8,1260,386,,,,,,,,,,,,,,,,,,,
22414,1506783589866,,,,,,,,0.03,-0.06,0.99,15.5,-0.4,-2.7,1260,386,,,,,,,,,,,,,,,,,,,
22434,1506783589886,,,,,,,,0.02,-0.06,1.01,15.7,-0.2,-2.6,1260,388,,,,,,,,,,,,,,,,,,,
