"Interval"|"ms"|0|0|1,"Utc"|"ms"|0|0|1,"FuelLevel"|"F"|0|100|5,"OilTemp"|"F"|0.0|300.0|5,"CoolantPressPSI"|"PSI"|0.0|20.0|1,"Coolant"|"F"|0.0|300.0|5,"OilPress"|"PSI"|0|150|10,"EngineTemp"|"F"|0.0|300.0|5,"Battery"|"Volts"|0.0|20.0|1,"AccelX"|"G"|-3.0|3.0|50,"AccelY"|"G"|-3.0|3.0|50,"AccelZ"|"G"|-3.0|3.0|50,"Yaw"|"Deg/Sec"|-300.0|300.0|50,"Pitch"|"Deg/Sec"|-300.0|300.0|50,"Roll"|"Deg/Sec"|-300.0|300.0|50,"RPM"|""|0|10000|50,"Driveshaft"|"RPM"|0|5000|50,"GPIO1"|""|0|1|10,"GPIO2"|""|0|1|10,"GearRatio"|""|-5.0|5.0|10,"Gear"|""|-1|5|10,"Latitude"|"Degrees"|-180.0|180.0|10,"Longitude"|"Degrees"|-180.0|180.0|10,"Speed"|"mph"|0.0|150.0|10,"Distance"|"mi"|0.0|0.0|10,"Altitude"|"ft"|0.0|4000.0|10,"GPSSats"|""|0|20|10,"GPSQual"|""|0|5|10,"GPSDOP"|""|0.0|20.0|10,"LapCount"|""|0|0|10,"LapTime"|"Min"|0.0|0.0|10,"Sector"|""|0|0|10,"SectorTime"|"Min"|0.0|0.0|10,"PredTime"|"Min"|0.0|0.0|10,"ElapsedTime"|"Min"|0.0|0.0|10,"CurrentLap"|""|0|0|10
4957409,1506794248507,,,,,,,,-0.02,0.06,0.98,-3.0,-0.2,-0.3,400,5,,,,,,,,,,,,,,,,,,,
4957429,1506794248527,,,,,,,,-0.02,0.07,0.99,-3.0,-0.2,-0.2,500,5,,,,,,,,,,,,,,,,,,,
4957449,1506794248547,,,,,,,,-0.02,0.08,0.99,-3.0,-0.3,-0.3,500,5,,,,,,,,,,,,,,,,,,,
4957469,1506794248567,,,,,,,,-0.02,0.08,1.01,-3.1,-0.4,-0.3,560,5,,,,,,,,,,,,,,,,,,,
4957491,1506794248589,,,,,0,,,-0.02,0.08,1.01,-3.1,-0.4,-0.5,560,5,0,0,100.0,0,35.490265,-119.54483,0.0,2.835,278.5,12,3,1.1,22,2.8367,0,0.0,7.8702,7.8583,23
4957510,1506794248608,,,,,,,,-0.01,0.08,1.02,-3.1,-0.2,-0.3,560,5,,,,,,,,,,,,,,,,,,,
4957530,1506794248628,,,,,,,,-0.01,0.08,1.02,-3.1,-0.5,-0.2,620,5,,,,,,,,,,,,,,,,,,,
4957550,1506794248648,,,,,,,,-0.02,0.05,1.01,-3.0,-0.7,-0.5,760,5,,,,,,,,,,,,,,,,,,,
4957570,1506794248668,,,,,,,,-0.03,0.01,1.0,-3.1,0.2,-0.5,760,5,,,,,,,,,,,,,,,,,,,
4957592,1506794248690,0,199.3,2.5,202.0,0,212.1,11.6,-0.02,0.03,0.99,-3.2,-1.3,-0.3,820,5,0,0,140.0,0,35.490265,-119.54483,0.0,2.835,278.5,12,3,1.1,22,2.8367,0,0.0,7.8719,7.86,23
4957611,1506794248709,,,,,,,,-0.01,-0.0,0.93,-3.1,-1.1,-0.2,840,5,,,,,,,,,,,,,,,,,,,
4957631,1506794248729,,,,,,,,0.04,0.05,0.73,-3.0,-2.3,0.1,880,5,,,,,,,,,,,,,,,,,,,
4957651,1506794248749,,,,,,,,0.06,0.04,0.71,-3.0,-2.4,0.1,900,5,,,,,,,,,,,,,,,,,,,
4957671,1506794248769,,,,,,,,0.06,0.05,0.73,-3.0,-2.0,-0.0,940,307692,,,,,,,,,,,,,,,,,,,
4957693,1506794248791,,,,,1,,,0.06,0.05,0.75,-3.0,-1.7,-0.1,980,0,0,0,205.0,0,35.490265,-119.54483,0.0,2.835,278.5,12,3,1.1,22,2.8367,0,0.0,7.8735,7.8617,23
4957712,1506794248809,,,,,,,,0.07,0.07,0.75,-2.8,-1.4,-0.1,1000,0,,,,,,,,,,,,,,,,,,,
4957732,1506794248829,,,,,,,,0.05,0.07,0.81,-2.8,-0.7,-0.3,1000,0,,,,,,,,,,,,,,,,,,,
4957752,1506794248849,,,,,,,,0.04,0.09,0.87,-2.8,-0.5,-0.3,1060,0,,,,,,,,,,,,,,,,,,,
4957772,1506794248869,,,,,,,,0.02,0.11,0.91,-2.8,-0.2,-0.3,1040,0,,,,,,,,,,,,,,,,,,,
4957794,1506794248891,0,199.2,,202.0,4,212.6,,0.02,0.1,0.93,-2.8,-0.2,-0.2,1060,0,0,0,0.0,0,35.490265,-119.54483,0.0,2.835,278.5,12,3,1.1,22,2.8367,0,0.0,7.8752,7.8633,23
4957813,1506794248909,,,,,,,,0.02,0.1,0.91,-2.8,-0.5,-0.3,1100,0,,,,,,,,,,,,,,,,,,,
4957833,1506794248929,,,,,,,,0.03,0.1,0.9,-2.9,-0.6,-0.3,1160,0,,,,,,,,,,,,,,,,,,,
4957853,1506794248949,,,,,,,,0.04,0.08,0.9,-2.9,-0.6,-0.3,1180,0,,,,,,,,,,,,,,,,,,,
4957873,1506794248969,,,,,,,,0.02,0.1,0.94,-3.0,-1.0,-0.3,1200,0,,,,,,,,,,,,,,,,,,,
4957895,1506794248991,,,,,5,,,0.01,0.1,0.95,-3.0,-1.0,-0.2,1200,0,0,1,0.0,0,35.490265,-119.54483,0.0,2.835,278.5,12,3,1.1,22,2.8367,0,0.0,7.8769,7.865,23
4957914,1506794249005,,,,,,,,0.01,0.1,0.95,-3.0,-0.9,-0.2,1240,0,,,,,,,,,,,,,,,,,,,
4957934,1506794249025,,,,,,,,0.01,0.09,0.96,-3.0,-0.9,-0.2,1260,0,,,,,,,,,,,,,,,,,,,
4957954,1506794249045,,,,,,,,0.01,0.09,0.96,-3.0,-0.8,-0.2,1260,0,,,,,,,,,,,,,,,,,,,
4957974,1506794249065,,,,,,,,0.01,0.09,0.97,-3.0,-0.8,-0.2,1280,0,,,,,,,,,,,,,,,,,,,
4957996,1506794249093,0,198.6,,201.5,9,211.7,,0.01,0.08,0.97,-3.0,-0.8,-0.2,1280,0,0,1,0.0,0,35.490265,-119.54483,0.0,2.835,278.5,12,3,1.1,22,2.8367,0,0.0,7.8786,7.8683,23
4958015,1506794249112,,,,,,,,0.02,0.09,0.94,-3.0,-1.0,-0.2,1280,0,,,,,,,,,,,,,,,,,,,
4958035,1506794249132,,,,,,,,0.03,0.09,0.94,-3.0,-1.0,-0.2,1280,0,,,,,,,,,,,,,,,,,,,
4958055,1506794249152,,,,,,,,0.03,0.08,0.94,-3.0,-0.9,-0.2,1280,0,,,,,,,,,,,,,,,,,,,
4958075,1506794249172,,,,,,,,0.03,0.08,0.94,-3.0,-0.9,-0.2,1260,0,,,,,,,,,,,,,,,,,,,
4958097,1506794249194,,,,,11,,,0.02,0.08,0.95,-3.0,-0.7,-0.2,1240,0,0,1,0.0,0,35.490265,-119.54483,0.0,2.835,278.5,12,3,1.1,22,2.8367,0,0.0,7.8803,7.87,23
4958116,1506794249213,,,,,,,,0.02,0.07,0.95,-3.0,-0.7,-0.2,1260,0,,,,,,,,,,,,,,,,,,,
4958136,1506794249233,,,,,,,,0.02,0.08,0.95,-3.0,-0.5,-0.2,1200,0,,,,,,,,,,,,,,,,,,,
4958156,1506794249253,,,,,,,,0.02,0.08,0.97,-3.0,-0.5,-0.2,1200,0,,,,,,,,,,,,,,,,,,,
4958176,1506794249273,,,,,,,,0.02,0.08,0.98,-3.0,-0.5,-0.2,1180,0,,,,,,,,,,,,,,,,,,,
4958198,1506794249295,0,198.5,,201.7,14,211.8,,0.02,0.08,0.98,-3.0,-0.4,-0.3,1160,0,0,1,0.0,0,35.490265,-119.54483,0.0,2.835,278.5,12,3,1.1,22,2.8367,0,0.0,7.8819,7.8717,23
4958217,1506794249314,,,,,,,,0.02,0.07,0.98,-3.0,-0.3,-0.3,1160,0,,,,,,,,,,,,,,,,,,,
4958237,1506794249334,,,,,,,,0.02,0.08,0.97,-3.0,-0.4,-0.3,1120,0,,,,,,,,,,,,,,,,,,,
4958257,1506794249354,,,,,,,,0.03,0.07,0.96,-3.0,-0.4,-0.2,1120,0,,,,,,,,,,,,,,,,,,,
4958277,1506794249374,,,,,,,,0.03,0.07,0.97,-3.0,-0.4,-0.2,1100,0,,,,,,,,,,,,,,,,,,,
4958299,1506794249396,,,,,13,,,0.03,0.07,0.96,-3.0,-0.4,-0.2,1100,0,0,1,0.0,0,35.490265,-119.54483,0.0,2.835,278.5,12,3,1.1,22,2.8367,0,0.0,7.8836,7.8733,23
4958318,1506794249415,,,,,,,,0.03,0.07,0.96,-3.0,-0.4,-0.2,1080,0,,,,,,,,,,,,,,,,,,,
4958338,1506794249435,,,,,,,,0.03,0.08,0.97,-3.0,-0.4,-0.2,1060,0,,,,,,,,,,,,,,,,,,,
4958358,1506794249455,,,,,,,,0.03,0.07,0.97,-3.0,-0.3,-0.2,1060,0,,,,,,,,,,,,,,,,,,,
4958378,1506794249475,,,,,,,,0.03,0.07,0.97,-3.0,-0.2,-0.2,1060,0,,,,,,,,,,,,,,,,,,,
4958400,1506794249497,0,198.4,,201.2,14,211.4,,0.02,0.07,0.98,-3.0,-0.2,-0.2,1020,0,0,1,0.0,0,35.490265,-119.54483,0.0,2.835,278.5,12,3,1.1,22,2.8367,0,0.0,7.8853,7.875,23
4958419,1506794249516,,,,,,,,0.02,0.07,0.98,-3.0,-0.2,-0.2,1020,0,,,,,,,,,,,,,,,,,,,
4958439,1506794249536,,,,,,,,0.02,0.07,0.97,-3.0,-0.3,-0.2,1000,0,,,,,,,,,,,,,,,,,,,
4958459,1506794249556,,,,,,,,0.01,0.07,0.97,-3.0,-0.4,-0.2,980,0,,,,,,,,,,,,,,,,,,,
4958479,1506794249576,,,,,,,,0.01,0.07,0.97,-3.0,-0.4,-0.2,980,0,,,,,,,,,,,,,,,,,,,
4958501,1506794249598,,,,,14,,,0.01,0.07,0.97,-3.1,-0.4,-0.2,960,0,0,1,0.0,0,35.490265,-119.54483,0.0,2.835,278.5,12,3,1.1,22,2.8367,0,0.0,7.887,7.8767,23
4958520,1506794249617,,,,,,,,0.01,0.07,0.98,-3.1,-0.5,-0.2,940,0,,,,,,,,,,,,,,,,,,,
4958540,1506794249637,,,,,,,,0.01,0.07,0.98,-3.1,-0.4,-0.2,940,0,,,,,,,,,,,,,,,,,,,
4958560,1506794249657,,,,,,,,0.01,0.08,0.97,-3.1,-0.4,-0.2,920,0,,,,,,,,,,,,,,,,,,,
4958580,1506794249677,,,,,,,,0.01,0.08,0.97,-3.1,-0.4,-0.3,920,0,,,,,,,,,,,,,,,,,,,
4958602,1506794249698,0,199.1,2.0,202.2,13,212.3,14.06,0.0,0.08,0.97,-3.1,-0.3,-0.3,880,0,0,1,0.0,0,35.490265,-119.54483,0.0,2.835,278.5,12,3,1.1,22,2.8367,0,0.0,7.8887,7.8783,23
4958621,1506794249717,,,,,,,,0.0,0.07,0.97,-3.1,-0.2,-0.3,900,0,,,,,,,,,,,,,,,,,,,
4958641,1506794249737,,,,,,,,0.0,0.07,0.97,-3.0,-0.1,-0.3,860,0,,,,,,,,,,,,,,,,,,,
4958661,1506794249757,,,,,,,,0.01,0.07,0.96,-3.1,-0.2,-0.2,860,0,,,,,,,,,,,,,,,,,,,
4958681,1506794249777,,,,,,,,0.01,0.06,0.96,-3.1,-0.4,-0.2,860,0,,,,,,,,,,,,,,,,,,,
4958703,1506794249797,,,,,13,,,0.02,0.07,0.96,-3.1,-0.5,-0.1,840,0,0,1,0.0,0,35.490265,-119.54483,0.0,2.835,278.5,12,3,1.1,22,2.8367,0,0.0,7.8903,7.88,23
4958722,1506794249816,,,,,,,,0.02,0.08,0.96,-3.1,-0.5,-0.1,840,0,,,,,,,,,,,,,,,,,,,
4958742,1506794249836,,,,,,,,0.02,0.09,0.95,-3.1,-0.6,-0.1,820,0,,,,,,,,,,,,,,,,,,,
4958762,1506794249856,,,,,,,,0.02,0.09,0.96,-3.1,-0.6,-0.2,820,0,,,,,,,,,,,,,,,,,,,
4958782,1506794249876,,,,,,,,0.02,0.08,0.95,-3.1,-0.6,-0.2,800,0,,,,,,,,,,,,,,,,,,,
4958804,1506794249900,0,198.3,,201.5,11,211.6,,0.02,0.07,0.95,-3.1,-0.5,-0.2,800,0,0,1,0.0,0,35.490265,-119.54483,0.0,2.835,278.5,12,3,1.1,22,2.8367,0,0.0,7.892,7.8817,23
4958823,1506794249919,,,,,,,,0.02,0.07,0.96,-3.1,-0.4,-0.1,780,0,,,,,,,,,,,,,,,,,,,
4958843,1506794249939,,,,,,,,0.02,0.08,0.96,-3.1,-0.5,-0.0,780,0,,,,,,,,,,,,,,,,,,,
4958863,1506794249959,,,,,,,,0.02,0.07,0.95,-3.1,-0.4,-0.1,780,0,,,,,,,,,,,,,,,,,,,
4958883,1506794249979,,,,,,,,0.02,0.06,0.96,-3.1,-0.5,-0.2,780,0,,,,,,,,,,,,,,,,,,,
4958905,1506794249995,,,,,11,,,0.03,0.06,0.96,-3.1,-0.5,-0.1,780,0,0,1,0.0,0,35.490265,-119.54483,0.0,2.835,278.5,12,3,1.1,22,2.8367,0,0.0,7.8936,7.8833,23
4958924,1506794250014,,,,,,,,0.02,0.07,0.96,-3.2,-0.8,-0.1,760,0,,,,,,,,,,,,,,,,,,,
4958944,1506794250034,,,,,,,,0.02,0.08,0.93,-3.1,-0.9,-0.0,760,0,,,,,,,,,,,,,,,,,,,
4958964,1506794250054,,,,,,,,0.02,0.07,0.93,-3.1,-0.8,-0.1,760,0,,,,,,,,,,,,,,,,,,,
4958984,1506794250074,,,,,,,,0.01,0.06,0.92,-3.1,-0.9,-0.2,760,0,,,,,,,,,,,,,,,,,,,
4959006,1506794250102,0,198.2,,201.3,9,211.3,,0.03,0.06,0.93,-3.0,-0.6,-0.1,740,0,0,1,0.0,0,35.490265,-119.54483,0.0,2.835,278.5,12,3,1.1,22,2.8367,0,0.0,7.8954,7.885,23
4959025,1506794250121,,,,,,,,0.02,0.06,0.94,-3.0,-0.5,-0.1,740,0,,,,,,,,,,,,,,,,,,,
4959045,1506794250141,,,,,,,,0.01,0.07,0.97,-3.0,-0.5,-0.1,740,0,,,,,,,,,,,,,,,,,,,
4959065,1506794250161,,,,,,,,0.03,0.2,0.94,-3.5,-0.5,-0.1,740,0,,,,,,,,,,,,,,,,,,,
4959085,1506794250181,,,,,,,,0.04,0.2,0.97,-3.3,-0.9,0.0,740,0,,,,,,,,,,,,,,,,,,,
4959107,1506794250205,,,,,9,,,0.03,0.16,0.94,-3.4,-0.4,0.1,740,0,0,1,0.0,0,35.490265,-119.54483,0.0,2.835,278.5,12,3,1.1,22,2.8367,0,0.0,7.8971,7.8867,23
4959126,1506794250224,,,,,,,,0.04,0.14,0.95,-3.3,-0.2,0.1,720,0,,,,,,,,,,,,,,,,,,,
4959146,1506794250244,,,,,,,,0.04,0.14,0.96,-3.3,0.1,0.0,720,0,,,,,,,,,,,,,,,,,,,
4959166,1506794250264,,,,,,,,0.04,0.12,0.96,-3.3,0.1,0.0,720,0,,,,,,,,,,,,,,,,,,,
4959186,1506794250284,,,,,,,,0.03,0.12,0.95,-3.3,-0.2,0.0,720,0,,,,,,,,,,,,,,,,,,,
4959208,1506794250306,0,199.1,,202.4,10,212.3,,0.03,0.11,0.99,-3.2,-0.1,-0.0,740,0,0,1,0.0,0,35.490265,-119.54483,0.0,2.835,278.5,12,3,1.1,22,2.8367,0,0.0,7.8988,7.8883,23
4959227,1506794250325,,,,,,,,0.03,0.1,0.99,-3.2,-0.0,-0.1,740,0,,,,,,,,,,,,,,,,,,,
4959247,1506794250345,,,,,,,,0.02,0.1,0.96,-3.2,-0.1,-0.1,720,0,,,,,,,,,,,,,,,,,,,
4959267,1506794250365,,,,,,,,0.02,0.1,0.96,-3.2,-0.3,-0.1,720,0,,,,,,,,,,,,,,,,,,,
4959287,1506794250385,,,,,,,,0.01,0.08,0.98,-3.0,-0.2,-0.2,720,0,,,,,,,,,,,,,,,,,,,
4959309,1506794250407,,,,,10,,,0.02,0.09,0.98,-3.0,-0.3,-0.2,720,0,0,1,0.0,0,35.490265,-119.54483,0.0,2.835,278.5,12,3,1.1,22,2.8367,0,0.0,7.9005,7.89,23
4959328,1506794250426,,,,,,,,0.02,0.08,0.98,-3.0,-0.2,-0.2,720,0,,,,,,,,,,,,,,,,,,,
4959348,1506794250446,,,,,,,,0.01,0.07,0.95,-2.9,-0.4,-0.2,720,0,,,,,,,,,,,,,,,,,,,
4959368,1506794250466,,,,,,,,0.02,0.08,0.93,-2.9,-0.8,-0.3,740,0,,,,,,,,,,,,,,,,,,,
4959388,1506794250486,,,,,,,,0.02,0.08,0.95,-2.9,-0.8,-0.4,740,0,,,,,,,,,,,,,,,,,,,
4959410,1506794250508,0,198.9,,202.3,9,212.2,,0.03,0.09,0.95,-2.9,-0.5,-0.3,740,0,0,1,0.0,0,35.490265,-119.54483,0.0,2.835,278.5,12,3,1.1,22,2.8367,0,0.0,7.9022,7.8917,23
4959429,1506794250527,,,,,,,,0.02,0.09,0.93,-3.0,-0.6,-0.3,740,0,,,,,,,,,,,,,,,,,,,
4959449,1506794250547,,,,,,,,0.03,0.09,0.92,-2.9,-1.0,-0.4,740,0,,,,,,,,,,,,,,,,,,,
4959469,1506794250567,,,,,,,,0.03,0.09,0.93,-2.9,-1.1,-0.4,740,0,,,,,,,,,,,,,,,,,,,
4959489,1506794250587,,,,,,,,0.03,0.1,0.95,-2.9,-0.7,-0.4,740,0,,,,,,,,,,,,,,,,,,,
4959511,1506794250607,,,,,9,,,0.03,0.09,0.93,-2.9,-0.3,-0.3,740,0,0,1,0.0,0,35.490265,-119.54483,0.0,2.835,278.5,12,3,1.1,22,2.8367,0,0.0,7.9038,7.8933,23
4959530,1506794250626,,,,,,,,0.02,0.1,0.96,-2.9,-0.5,-0.4,740,0,,,,,,,,,,,,,,,,,,,
4959550,1506794250646,,,,,,,,0.03,0.1,0.94,-2.9,-0.6,-0.4,740,0,,,,,,,,,,,,,,,,,,,
4959570,1506794250666,,,,,,,,0.03,0.11,0.95,-2.9,-0.3,-0.4,740,0,,,,,,,,,,,,,,,,,,,
4959590,1506794250686,,,,,,,,0.03,0.09,0.95,-2.9,-0.1,-0.3,740,0,,,,,,,,,,,,,,,,,,,
4959612,1506794250708,0,199.0,1.7,202.5,10,212.2,13.9,0.03,0.1,0.94,-2.9,-0.5,-0.4,740,0,0,1,0.0,0,35.490265,-119.54483,0.0,2.835,278.5,12,3,1.1,22,2.8367,0,0.0,7.9055,7.895,23
4959631,1506794250727,,,,,,,,0.04,0.1,0.94,-2.9,-0.5,-0.4,740,0,,,,,,,,,,,,,,,,,,,
4959651,1506794250747,,,,,,,,0.04,0.12,0.96,-3.0,-0.1,-0.4,740,0,,,,,,,,,,,,,,,,,,,
4959671,1506794250767,,,,,,,,0.03,0.12,0.92,-3.0,-0.2,-0.2,740,0,,,,,,,,,,,,,,,,,,,
4959691,1506794250787,,,,,,,,0.03,0.12,0.94,-3.0,-0.2,-0.2,740,0,,,,,,,,,,,,,,,,,,,
4959713,1506794250810,,,,,9,,,0.03,0.12,0.94,-3.0,-0.2,-0.3,760,0,0,1,0.0,0,35.490265,-119.54483,0.0,2.835,278.5,12,3,1.1,22,2.8367,0,0.0,7.9072,7.8967,23
4959732,1506794250829,,,,,,,,0.03,0.1,0.93,-3.0,-0.4,-0.3,760,0,,,,,,,,,,,,,,,,,,,
4959752,1506794250849,,,,,,,,0.02,0.11,0.94,-3.1,-0.5,-0.2,740,0,,,,,,,,,,,,,,,,,,,
4959772,1506794250869,,,,,,,,0.03,0.09,0.89,-3.0,-0.4,-0.1,760,0,,,,,,,,,,,,,,,,,,,
4959792,1506794250889,,,,,,,,0.03,0.08,0.89,-3.0,-0.3,-0.3,760,0,,,,,,,,,,,,,,,,,,,
4959814,1506794250911,0,198.5,,202.2,10,211.6,,0.02,0.07,0.9,-3.0,-0.5,-0.3,760,0,0,1,0.0,0,35.490265,-119.54483,0.0,2.835,278.5,12,3,1.1,22,2.8367,0,0.0,7.9089,7.8983,23
4959833,1506794250930,,,,,,,,0.03,0.08,0.87,-3.1,-0.6,-0.2,760,0,,,,,,,,,,,,,,,,,,,
4959853,1506794250950,,,,,,,,0.02,0.09,0.96,-3.2,-0.6,-0.2,760,0,,,,,,,,,,,,,,,,,,,
4959873,1506794250970,,,,,,,,0.03,0.09,0.95,-3.1,-0.9,-0.3,760,0,,,,,,,,,,,,,,,,,,,
4959893,1506794250990,,,,,,,,0.03,0.09,0.94,-3.1,-0.9,-0.4,760,0,,,,,,,,,,,,,,,,,,,
4959915,1506794251006,,,,,10,,,0.03,0.09,0.96,-3.1,-0.6,-0.3,760,0,0,1,0.0,0,35.490265,-119.54483,0.0,2.835,278.5,12,3,1.1,22,2.8367,0,0.0,7.9105,7.9,23
4959934,1506794251025,,,,,,,,0.03,0.08,0.98,-3.0,-0.7,-0.2,760,0,,,,,,,,,,,,,,,,,,,
4959954,1506794251045,,,,,,,,0.03,0.07,0.98,-3.0,-0.5,-0.0,760,0,,,,,,,,,,,,,,,,,,,
4959974,1506794251065,,,,,,,,0.02,0.06,1.01,-3.1,-0.2,-0.2,740,0,,,,,,,,,,,,,,,,,,,
4959994,1506794251091,,,,,,,,0.02,0.07,1.01,-3.1,-0.4,-0.2,740,0,,,,,,,,,,,,,,,,,,,
4960016,1506794251113,0,199.1,,202.8,10,211.7,,0.03,0.08,1.0,-3.1,-0.4,-0.1,760,0,0,1,0.0,0,35.490265,-119.54483,0.0,2.835,278.5,12,3,1.1,22,2.8367,0,0.0,7.9122,7.9017,23
4960035,1506794251132,,,,,,,,0.03,0.09,1.07,-3.1,-0.5,-0.2,760,0,,,,,,,,,,,,,,,,,,,
4960055,1506794251152,,,,,,,,0.03,0.09,1.04,-3.1,-0.7,-0.3,760,0,,,,,,,,,,,,,,,,,,,
4960075,1506794251172,,,,,,,,0.04,0.09,1.02,-3.0,-0.8,-0.3,760,0,,,,,,,,,,,,,,,,,,,
4960095,1506794251192,,,,,,,,0.03,0.07,1.07,-3.0,-0.3,-0.3,760,0,,,,,,,,,,,,,,,,,,,
4960117,1506794251214,,,,,9,,,0.02,0.07,0.99,-3.1,-0.5,-0.2,760,0,0,1,0.0,0,35.490265,-119.54483,0.0,2.835,278.5,12,3,1.1,22,2.8367,0,0.0,7.9139,7.9033,23
4960136,1506794251233,,,,,,,,0.03,0.06,0.94,-3.0,-0.1,-0.0,760,0,,,,,,,,,,,,,,,,,,,
4960156,1506794251253,,,,,,,,0.02,0.04,0.97,-3.0,0.1,-0.3,760,0,,,,,,,,,,,,,,,,,,,
4960176,1506794251273,,,,,,,,0.0,0.06,0.96,-3.1,-0.2,-0.3,760,0,,,,,,,,,,,,,,,,,,,
4960196,1506794251293,,,,,,,,0.02,0.07,0.93,-3.1,-0.4,-0.2,760,0,,,,,,,,,,,,,,,,,,,
4960218,1506794251315,0,198.2,,202.2,10,211.4,,0.02,0.08,0.98,-3.1,-0.4,-0.2,760,0,0,1,0.0,0,35.490265,-119.54483,0.0,2.835,278.5,12,3,1.1,22,2.8367,0,0.0,7.9156,7.905,23
4960237,1506794251334,,,,,,,,0.03,0.1,0.98,-3.0,-0.7,-0.3,760,0,,,,,,,,,,,,,,,,,,,
4960257,1506794251354,,,,,,,,0.04,0.09,0.96,-3.0,-0.8,-0.4,760,0,,,,,,,,,,,,,,,,,,,
4960277,1506794251374,,,,,,,,0.03,0.08,1.0,-3.0,-0.4,-0.3,760,0,,,,,,,,,,,,,,,,,,,
4960297,1506794251394,,,,,,,,0.03,0.07,0.99,-3.0,-0.6,-0.2,760,0,,,,,,,,,,,,,,,,,,,
4960319,1506794251416,,,,,10,,,0.03,0.08,1.05,-3.1,-0.2,-0.1,760,0,0,1,0.0,0,35.490265,-119.54483,0.0,2.835,278.5,12,3,1.1,22,2.8367,0,0.0,7.9173,7.9067,23
4960338,1506794251435,,,,,,,,0.01,0.07,1.08,-3.1,0.1,-0.2,760,0,,,,,,,,,,,,,,,,,,,
4960358,1506794251455,,,,,,,,0.01,0.06,1.06,-3.1,-0.1,-0.2,760,0,,,,,,,,,,,,,,,,,,,
4960378,1506794251475,,,,,,,,0.02,0.08,1.05,-3.1,-0.2,-0.1,760,0,,,,,,,,,,,,,,,,,,,
4960398,1506794251495,,,,,,,,0.02,0.09,1.14,-3.2,-0.2,-0.2,760,0,,,,,,,,,,,,,,,,,,,
4960420,1506794251517,0,199.1,,202.6,10,211.4,,0.02,0.08,1.11,-2.9,-0.6,-0.3,760,0,0,1,0.0,0,35.490265,-119.54483,0.0,2.835,278.5,12,3,1.1,22,2.8367,0,0.0,7.919,7.9083,23
4960439,1506794251536,,,,,,,,0.03,0.07,1.08,-2.8,-0.6,-0.4,760,0,,,,,,,,,,,,,,,,,,,
4960459,1506794251556,,,,,,,,0.03,0.07,1.1,-2.8,-0.5,-0.4,760,0,,,,,,,,,,,,,,,,,,,
4960479,1506794251576,,,,,,,,0.02,0.06,1.05,-2.8,-0.6,-0.3,760,0,,,,,,,,,,,,,,,,,,,
4960499,1506794251596,,,,,,,,0.02,0.06,1.05,-2.8,-0.3,-0.2,760,0,,,,,,,,,,,,,,,,,,,
4960521,1506794251618,,,,,9,,,0.02,0.05,1.06,-2.8,-0.1,-0.3,760,0,0,1,0.0,0,35.490265,-119.54483,0.0,2.835,278.5,12,3,1.1,22,2.8367,0,0.0,7.9207,7.91,23
4960540,1506794251637,,,,,,,,0.01,0.05,1.05,-2.8,-0.2,-0.3,760,0,,,,,,,,,,,,,,,,,,,
4960560,1506794251657,,,,,,,,0.02,0.07,0.98,-2.9,-0.2,-0.2,760,0,,,,,,,,,,,,,,,,,,,
4960580,1506794251677,,,,,,,,0.02,0.08,1.05,-2.9,-0.2,-0.2,760,0,,,,,,,,,,,,,,,,,,,
4960600,1506794251697,,,,,,,,0.03,0.08,1.02,-2.9,-0.6,-0.3,760,0,,,,,,,,,,,,,,,,,,,
4960622,1506794251719,0,198.2,0.7,202.3,9,211.5,13.95,0.03,0.08,1.0,-2.9,-0.6,-0.4,760,0,0,1,0.0,0,35.490265,-119.54483,0.0,2.835,278.5,12,3,1.1,22,2.8367,0,0.0,7.9223,7.9117,23
4960641,1506794251738,,,,,,,,0.03,0.06,1.03,-2.9,-0.4,-0.3,760,0,,,,,,,,,,,,,,,,,,,
4960661,1506794251758,,,,,,,,0.02,0.06,0.99,-2.9,-0.6,-0.2,760,0,,,,,,,,,,,,,,,,,,,
4960681,1506794251778,,,,,,,,0.02,0.06,1.02,-2.9,-0.3,-0.1,760,0,,,,,,,,,,,,,,,,,,,
4960701,1506794251797,,,,,,,,0.01,0.05,1.05,-2.9,-0.1,-0.3,760,0,,,,,,,,,,,,,,,,,,,
4960723,1506794251819,,,,,9,,,0.0,0.06,1.0,-3.0,-0.3,-0.3,760,0,0,1,0.0,0,35.490265,-119.54483,0.0,2.835,278.5,12,3,1.1,22,2.8367,0,0.0,7.924,7.9133,23
4960742,1506794251838,,,,,,,,0.02,0.07,0.96,-3.0,-0.4,-0.2,760,0,,,,,,,,,,,,,,,,,,,
4960762,1506794251858,,,,,,,,0.02,0.08,1.06,-3.0,-0.4,-0.2,760,0,,,,,,,,,,,,,,,,,,,
4960782,1506794251878,,,,,,,,0.01,0.05,0.93,-2.4,-0.6,-0.6,760,0,,,,,,,,,,,,,,,,,,,
4960802,1506794251900,,,,,,,,0.01,0.04,0.89,-2.3,-0.7,-0.6,760,0,,,,,,,,,,,,,,,,,,,
4960824,1506794251922,0,198.5,,202.9,10,211.7,,0.02,0.05,0.92,-2.4,0.2,-0.5,760,0,0,1,0.0,0,35.490265,-119.54483,0.0,2.835,278.5,12,3,1.1,22,2.8367,0,0.0,7.9257,7.915,23
4960843,1506794251941,,,,,,,,0.03,0.04,0.93,-2.5,0.1,-0.4,760,0,,,,,,,,,,,,,,,,,,,
4960863,1506794251961,,,,,,,,0.03,0.03,0.89,-2.5,0.4,-0.2,760,0,,,,,,,,,,,,,,,,,,,
4960883,1506794251981,,,,,,,,0.02,0.03,0.92,-2.6,0.4,-0.4,760,0,,,,,,,,,,,,,,,,,,,
4960903,1506794251993,,,,,,,,0.01,0.03,0.91,-2.6,0.2,-0.4,760,0,,,,,,,,,,,,,,,,,,,
4960925,1506794252015,,,,,9,,,0.02,0.05,0.91,-2.7,0.0,-0.3,740,0,0,1,0.0,0,35.490265,-119.54483,0.0,2.835,278.5,12,3,1.1,22,2.8367,0,0.0,7.9273,7.9167,23
4960944,1506794252034,,,,,,,,0.01,0.06,1.0,-2.8,-0.1,-0.3,760,0,,,,,,,,,,,,,,,,,,,
4960964,1506794252054,,,,,,,,0.02,0.07,0.97,-2.8,-0.4,-0.4,760,0,,,,,,,,,,,,,,,,,,,
4960984,1506794252074,,,,,,,,0.03,0.07,0.96,-2.8,-0.5,-0.4,760,0,,,,,,,,,,,,,,,,,,,
4961004,1506794252100,,,,,,,,0.02,0.07,0.98,-2.8,-0.2,-0.4,760,0,,,,,,,,,,,,,,,,,,,
4961026,1506794252122,0,198.5,,202.9,9,211.6,,0.01,0.06,0.9,-2.9,-0.3,-0.3,760,0,0,1,0.0,0,35.490265,-119.54483,0.0,2.835,278.5,12,3,1.1,22,2.8367,0,0.0,7.9291,7.9183,23
4961045,1506794252141,,,,,,,,0.01,0.05,0.93,-2.9,-0.0,-0.3,760,0,,,,,,,,,,,,,,,,,,,
4961065,1506794252161,,,,,,,,0.01,0.05,0.96,-2.9,0.0,-0.4,760,0,,,,,,,,,,,,,,,,,,,
4961085,1506794252181,,,,,,,,0.01,0.04,0.96,-2.9,-0.0,-0.4,760,0,,,,,,,,,,,,,,,,,,,
4961105,1506794252203,,,,,,,,0.02,0.03,1.02,-2.9,-0.2,-0.3,760,0,,,,,,,,,,,,,,,,,,,
4961127,1506794252225,,,,,10,,,0.03,0.03,0.99,-2.9,0.1,-0.2,760,0,0,1,0.0,0,35.490265,-119.54483,0.0,2.835,278.5,12,3,1.1,22,2.8367,0,0.0,7.9308,7.92,23
4961146,1506794252244,,,,,,,,0.03,0.02,0.98,-2.9,-0.1,-0.2,740,0,,,,,,,,,,,,,,,,,,,
4961166,1506794252264,,,,,,,,0.02,0.03,1.01,-2.9,-0.2,-0.3,740,0,,,,,,,,,,,,,,,,,,,
4961186,1506794252284,,,,,,,,0.02,0.05,0.96,-3.0,0.1,-0.2,760,0,,,,,,,,,,,,,,,,,,,
4961206,1506794252304,,,,,,,,0.02,0.06,1.03,-3.0,0.1,-0.3,760,0,,,,,,,,,,,,,,,,,,,
4961228,1506794252326,0,198.8,,203.6,9,212.0,,0.03,0.07,0.99,-2.9,-0.2,-0.3,720,0,0,1,0.0,0,35.490265,-119.54483,0.0,2.835,278.5,12,3,1.1,22,2.8367,0,0.0,7.9325,7.9217,23
4961247,1506794252345,,,,,,,,0.03,0.07,0.97,-2.9,-0.2,-0.3,720,0,,,,,,,,,,,,,,,,,,,
4961267,1506794252365,,,,,,,,0.03,0.05,1.01,-2.9,-0.2,-0.3,760,0,,,,,,,,,,,,,,,,,,,
4961287,1506794252385,,,,,,,,0.02,0.05,0.94,-2.9,-0.3,-0.2,740,0,,,,,,,,,,,,,,,,,,,
4961307,1506794252405,,,,,,,,0.01,0.05,0.98,-2.9,-0.1,-0.3,740,0,,,,,,,,,,,,,,,,,,,
4961329,1506794252427,,,,,9,,,0.01,0.06,0.99,-2.9,-0.1,-0.3,740,0,0,1,0.0,0,35.490265,-119.54483,0.0,2.835,278.5,12,3,1.1,22,2.8367,0,0.0,7.9341,7.9233,23
4961348,1506794252446,,,,,,,,0.01,0.05,0.94,-2.9,-0.3,-0.3,740,0,,,,,,,,,,,,,,,,,,,
4961368,1506794252466,,,,,,,,0.02,0.05,0.99,-2.9,-0.6,-0.2,740,0,,,,,,,,,,,,,,,,,,,
4961388,1506794252486,,,,,,,,0.02,0.04,0.97,-2.9,-0.4,-0.1,740,0,,,,,,,,,,,,,,,,,,,
4961408,1506794252506,,,,,,,,0.01,0.04,1.0,-3.0,-0.2,-0.3,740,0,,,,,,,,,,,,,,,,,,,
4961430,1506794252528,0,198.9,,203.6,10,211.5,,-0.0,0.05,0.97,-3.0,-0.3,-0.3,740,0,0,1,0.0,0,35.490265,-119.54483,0.0,2.835,278.5,12,3,1.1,22,2.8367,0,0.0,7.9358,7.925,23
4961449,1506794252547,,,,,,,,0.01,0.07,0.93,-3.1,-0.4,-0.2,740,0,,,,,,,,,,,,,,,,,,,
4961469,1506794252567,,,,,,,,0.02,0.08,0.91,-3.0,-0.4,-0.2,740,0,,,,,,,,,,,,,,,,,,,
4961489,1506794252587,,,,,,,,0.02,0.06,0.9,-3.0,-0.6,-0.2,740,0,,,,,,,,,,,,,,,,,,,
4961509,1506794252607,,,,,,,,0.02,0.07,0.94,-3.1,-0.5,-0.2,740,0,,,,,,,,,,,,,,,,,,,
4961531,1506794252629,,,,,9,,,0.03,0.08,0.89,-3.1,-0.5,-0.1,740,0,0,1,0.0,0,35.490265,-119.54483,0.0,2.835,278.5,12,3,1.1,22,2.8367,0,0.0,7.9375,7.9267,23
4961550,1506794252648,,,,,,,,0.02,0.09,0.98,-3.1,-0.3,-0.2,740,0,,,,,,,,,,,,,,,,,,,
4961570,1506794252668,,,,,,,,0.03,0.1,0.95,-3.1,-0.6,-0.2,740,0,,,,,,,,,,,,,,,,,,,
4961590,1506794252688,,,,,,,,0.04,0.09,0.93,-3.1,-0.7,-0.3,740,0,,,,,,,,,,,,,,,,,,,
4961610,1506794252708,,,,,,,,0.04,0.09,0.94,-3.1,-0.3,-0.2,740,0,,,,,,,,,,,,,,,,,,,
4961632,1506794252730,0,198.4,0.2,203.0,10,211.1,14.1,0.04,0.08,0.98,-3.1,-0.1,-0.2,740,0,0,1,0.0,0,35.490265,-119.54483,0.0,2.835,278.5,12,3,1.1,22,2.8367,0,0.0,7.9392,7.9283,23
4961651,1506794252749,,,,,,,,0.03,0.1,1.01,-3.1,-0.2,-0.3,740,0,,,,,,,,,,,,,,,,,,,
4961671,1506794252769,,,,,,,,0.03,0.1,1.0,-3.0,-0.3,-0.3,740,0,,,,,,,,,,,,,,,,,,,
4961691,1506794252789,,,,,,,,0.04,0.09,1.04,-3.0,0.1,-0.3,760,0,,,,,,,,,,,,,,,,,,,
4961711,1506794252808,,,,,,,,0.03,0.08,0.97,-3.0,0.0,-0.2,720,0,,,,,,,,,,,,,,,,,,,
4961733,1506794252830,,,,,10,,,0.02,0.08,1.03,-3.0,0.2,-0.3,740,0,0,1,0.0,0,35.490265,-119.54483,0.0,2.835,278.5,12,3,1.1,22,2.8367,0,0.0,7.9409,7.93,23
4961752,1506794252849,,,,,,,,0.02,0.08,1.04,-3.0,0.3,-0.4,740,0,,,,,,,,,,,,,,,,,,,
4961772,1506794252869,,,,,,,,0.02,0.07,0.99,-3.0,0.3,-0.3,740,0,,,,,,,,,,,,,,,,,,,
4961792,1506794252889,,,,,,,,0.01,0.07,1.0,-3.0,0.0,-0.3,740,0,,,,,,,,,,,,,,,,,,,
4961812,1506794252909,,,,,,,,0.01,0.06,1.01,-3.0,0.1,-0.2,740,0,,,,,,,,,,,,,,,,,,,
4961834,1506794252931,0,198.6,,203.6,10,211.7,,0.02,0.06,1.01,-3.0,0.1,-0.3,740,0,0,1,0.0,0,35.490265,-119.54483,0.0,2.835,278.5,12,3,1.1,22,2.8367,0,0.0,7.9426,7.9317,23
4961853,1506794252950,,,,,,,,0.01,0.06,0.98,-3.0,0.1,-0.2,740,0,,,,,,,,,,,,,,,,,,,
4961873,1506794252970,,,,,,,,0.01,0.05,0.97,-3.0,-0.3,-0.1,720,0,,,,,,,,,,,,,,,,,,,
4961893,1506794252990,,,,,,,,0.0,0.04,1.0,-3.0,0.0,-0.0,740,0,,,,,,,,,,,,,,,,,,,
4961913,1506794253002,,,,,,,,0.01,0.04,1.01,-3.0,0.2,-0.1,740,0,,,,,,,,,,,,,,,,,,,
4961935,1506794253024,,,,,9,,,0.01,0.05,0.98,-3.0,0.2,-0.2,740,0,0,1,0.0,0,35.490265,-119.54483,0.0,2.835,278.5,12,3,1.1,22,2.8367,0,0.0,7.9441,7.9333,23
4961954,1506794253043,,,,,,,,0.01,0.05,1.04,-3.1,-0.1,-0.1,740,0,,,,,,,,,,,,,,,,,,,
4961974,1506794253063,,,,,,,,0.01,0.04,1.04,-3.1,0.0,-0.1,740,0,,,,,,,,,,,,,,,,,,,
4961994,1506794253093,,,,,,,,0.01,0.04,1.03,-3.1,0.1,-0.1,740,0,,,,,,,,,,,,,,,,,,,
4962014,1506794253113,,,,,,,,0.0,0.04,1.01,-3.1,0.2,-0.2,740,0,,,,,,,,,,,,,,,,,,,
4962036,1506794253135,0,198.4,,203.2,9,211.1,,-0.0,0.03,1.03,-3.1,-0.1,-0.1,740,0,0,1,0.0,0,35.490265,-119.54483,0.0,2.835,278.5,12,3,1.1,22,2.8367,0,0.0,7.946,7.935,23
4962055,1506794253154,,,,,,,,0.0,0.02,0.98,-3.1,0.0,-0.0,740,0,,,,,,,,,,,,,,,,,,,
4962075,1506794253174,,,,,,,,0.01,0.02,0.97,-3.1,0.1,-0.1,740,0,,,,,,,,,,,,,,,,,,,
4962095,1506794253194,,,,,,,,0.0,0.02,0.96,-3.1,0.1,-0.1,740,0,,,,,,,,,,,,,,,,,,,
4962115,1506794253214,,,,,,,,0.0,0.02,1.0,-3.2,-0.2,-0.1,740,0,,,,,,,,,,,,,,,,,,,
4962137,1506794253236,,,,,9,,,0.01,0.01,0.94,-3.1,-0.1,0.0,740,0,0,1,0.0,0,35.490265,-119.54483,0.0,2.835,278.5,12,3,1.1,22,2.8367,0,0.0,7.9476,7.9367,23
4962156,1506794253255,,,,,,,,0.01,0.01,0.93,-3.1,-0.0,-0.1,740,0,,,,,,,,,,,,,,,,,,,
4962176,1506794253275,,,,,,,,0.01,0.0,0.93,-3.1,-0.1,-0.1,740,0,,,,,,,,,,,,,,,,,,,
4962196,1506794253295,,,,,,,,0.0,0.01,0.97,-3.2,-0.3,-0.1,740,0,,,,,,,,,,,,,,,,,,,
4962216,1506794253315,,,,,,,,0.01,0.01,0.93,-3.1,-0.2,0.0,740,0,,,,,,,,,,,,,,,,,,,
4962238,1506794253337,0,198.6,,203.3,10,211.0,,0.01,0.01,0.93,-3.1,-0.0,-0.1,740,0,0,1,0.0,0,35.490265,-119.54483,0.0,2.835,278.5,12,3,1.1,22,2.8367,0,0.0,7.9493,7.9383,23
4962257,1506794253356,,,,,,,,0.0,0.0,0.96,-3.2,-0.1,-0.1,740,0,,,,,,,,,,,,,,,,,,,
4962277,1506794253376,,,,,,,,0.0,0.02,0.98,-3.2,-0.3,-0.1,740,0,,,,,,,,,,,,,,,,,,,
4962297,1506794253396,,,,,,,,0.01,0.02,0.93,-3.2,-0.2,-0.1,740,0,,,,,,,,,,,,,,,,,,,
4962317,1506794253416,,,,,,,,0.01,0.02,0.93,-3.2,-0.2,-0.2,740,0,,,,,,,,,,,,,,,,,,,
4962339,1506794253438,,,,,9,,,0.0,0.02,0.94,-3.3,-0.2,-0.2,740,0,0,1,0.0,0,35.490265,-119.54483,0.0,2.835,278.5,12,3,1.1,22,2.8367,0,0.0,7.951,7.94,23
4962358,1506794253457,,,,,,,,0.01,0.03,0.93,-3.3,-0.5,-0.1,720,0,,,,,,,,,,,,,,,,,,,
4962378,1506794253477,,,,,,,,0.01,0.05,0.93,-3.3,-0.6,-0.1,740,0,,,,,,,,,,,,,,,,,,,
4962398,1506794253495,,,,,,,,0.01,0.05,0.93,-3.3,-0.4,-0.2,740,0,,,,,,,,,,,,,,,,,,,
4962418,1506794253515,,,,,,,,0.01,0.04,0.95,-3.2,-0.5,-0.2,740,0,,,,,,,,,,,,,,,,,,,
4962440,1506794253537,0,198.7,,203.6,9,211.0,,0.01,0.06,0.95,-3.3,-0.6,-0.2,740,0,0,1,0.0,0,35.490265,-119.54483,0.0,2.835,278.5,12,3,1.1,22,2.8367,0,0.0,7.9527,7.9417,23
4962459,1506794253556,,,,,,,,0.0,0.08,1.04,-3.3,-0.6,-0.2,740,0,,,,,,,,,,,,,,,,,,,
4962479,1506794253576,,,,,,,,0.0,0.07,1.05,-3.2,-0.6,-0.2,760,0,,,,,,,,,,,,,,,,,,,
4962499,1506794253598,,,,,,,,-0.0,0.07,1.06,-3.2,-0.7,-0.2,760,0,,,,,,,,,,,,,,,,,,,
4962519,1506794253618,,,,,,,,0.01,0.08,1.01,-3.3,-0.7,-0.2,720,0,,,,,,,,,,,,,,,,,,,
4962541,1506794253640,,,,,10,,,0.01,0.09,1.09,-3.3,-0.8,-0.2,760,0,0,1,0.0,0,35.490265,-119.54483,0.0,2.835,278.5,12,3,1.1,22,2.8367,0,0.0,7.9544,7.9433,23
4962560,1506794253659,,,,,,,,0.01,0.1,1.06,-3.3,-0.9,-0.3,740,0,,,,,,,,,,,,,,,,,,,
4962580,1506794253679,,,,,,,,0.01,0.1,1.03,-3.2,-1.1,-0.3,740,0,,,,,,,,,,,,,,,,,,,
4962600,1506794253699,,,,,,,,0.02,0.1,1.01,-3.1,-0.9,-0.2,740,0,,,,,,,,,,,,,,,,,,,
4962620,1506794253719,,,,,,,,0.02,0.11,1.06,-3.2,-0.8,-0.2,740,0,,,,,,,,,,,,,,,,,,,
4962642,1506794253741,0,198.7,-0.1,203.7,10,210.9,14.06,0.02,0.11,1.03,-3.2,-0.9,-0.4,740,0,0,1,0.0,0,35.490265,-119.54483,0.0,2.835,278.5,12,3,1.1,22,2.8367,0,0.0,7.956,7.945,23
4962661,1506794253760,,,,,,,,0.03,0.11,1.01,-3.1,-0.9,-0.4,740,0,,,,,,,,,,,,,,,,,,,
4962681,1506794253780,,,,,,,,0.02,0.1,1.01,-3.1,-0.6,-0.3,740,0,,,,,,,,,,,,,,,,,,,
4962701,1506794253799,,,,,,,,0.03,0.09,1.04,-3.1,-0.5,-0.2,740,0,,,,,,,,,,,,,,,,,,,
4962721,1506794253819,,,,,,,,0.03,0.08,1.0,-3.0,-0.4,-0.1,740,0,,,,,,,,,,,,,,,,,,,
4962743,1506794253841,,,,,9,,,0.02,0.08,1.0,-3.0,-0.3,-0.2,740,0,0,1,0.0,0,35.490265,-119.54483,0.0,2.835,278.5,12,3,1.1,22,2.8367,0,0.0,7.9577,7.9467,23
4962762,1506794253860,,,,,,,,0.02,0.08,1.02,-3.1,-0.3,-0.3,740,0,,,,,,,,,,,,,,,,,,,
4962782,1506794253880,,,,,,,,0.02,0.09,0.99,-3.2,-0.1,-0.2,740,0,,,,,,,,,,,,,,,,,,,
4962802,1506794253900,,,,,,,,0.02,0.1,0.96,-3.1,-0.3,-0.2,740,0,,,,,,,,,,,,,,,,,,,
4962822,1506794253920,,,,,,,,0.02,0.09,0.96,-3.1,-0.3,-0.2,740,0,,,,,,,,,,,,,,,,,,,
4962844,1506794253942,0,197.9,,203.0,9,210.6,,0.02,0.09,0.99,-3.1,-0.3,-0.2,740,0,0,1,0.0,0,35.490265,-119.54483,0.0,2.835,278.5,12,3,1.1,22,2.8367,0,0.0,7.9594,7.9483,23
4962863,1506794253961,,,,,,,,0.02,0.1,0.96,-3.2,-0.0,-0.2,740,0,,,,,,,,,,,,,,,,,,,
4962883,1506794253981,,,,,,,,0.01,0.11,1.05,-3.2,-0.1,-0.2,740,0,,,,,,,,,,,,,,,,,,,
4962903,1506794253995,,,,,,,,0.01,0.1,1.05,-3.2,-0.2,-0.2,740,0,,,,,,,,,,,,,,,,,,,
4962923,1506794254015,,,,,,,,0.01,0.1,1.05,-3.2,-0.4,-0.3,740,0,,,,,,,,,,,,,,,,,,,
4962945,1506794254037,,,,,9,,,0.01,0.1,1.02,-3.1,-0.2,-0.2,740,0,0,1,0.0,0,35.490265,-119.54483,0.0,2.835,278.5,12,3,1.1,22,2.8367,0,0.0,7.961,7.95,23
4962964,1506794254056,,,,,,,,0.01,0.1,1.01,-3.2,-0.2,-0.3,740,0,,,,,,,,,,,,,,,,,,,
4962984,1506794254076,,,,,,,,0.01,0.1,0.97,-3.1,-0.4,-0.3,720,0,,,,,,,,,,,,,,,,,,,
4963004,1506794254098,,,,,,,,0.01,0.1,0.95,-3.1,-0.6,-0.3,720,0,,,,,,,,,,,,,,,,,,,
4963024,1506794254118,,,,,,,,0.02,0.1,0.98,-3.1,-0.2,-0.3,740,0,,,,,,,,,,,,,,,,,,,
4963046,1506794254140,0,198.7,,204.1,9,211.3,,0.01,0.1,0.99,-3.1,-0.2,-0.3,740,0,0,1,0.0,0,35.490265,-119.54483,0.0,2.835,278.5,12,3,1.1,22,2.8367,0,0.0,7.9627,7.9517,23
4963065,1506794254159,,,,,,,,0.01,0.1,0.99,-3.1,-0.3,-0.4,720,0,,,,,,,,,,,,,,,,,,,
4963085,1506794254179,,,,,,,,0.01,0.1,0.98,-3.1,-0.4,-0.4,720,0,,,,,,,,,,,,,,,,,,,
4963105,1506794254203,,,,,,,,0.01,0.1,0.98,-3.0,-0.2,-0.3,720,0,,,,,,,,,,,,,,,,,,,
4963125,1506794254223,,,,,,,,0.01,0.1,1.01,-3.1,-0.1,-0.3,720,0,,,,,,,,,,,,,,,,,,,
4963147,1506794254245,,,,,9,,,0.01,0.1,1.0,-3.0,-0.2,-0.3,720,0,0,1,0.0,0,35.490265,-119.54483,0.0,2.835,278.5,12,3,1.1,22,2.8367,0,0.0,7.9644,7.9533,23
4963166,1506794254264,,,,,,,,0.01,0.1,0.99,-3.0,-0.3,-0.3,720,0,,,,,,,,,,,,,,,,,,,
4963186,1506794254284,,,,,,,,0.02,0.1,1.01,-3.0,-0.1,-0.3,740,0,,,,,,,,,,,,,,,,,,,
4963206,1506794254304,,,,,,,,0.01,0.1,1.03,-3.0,-0.1,-0.3,720,0,,,,,,,,,,,,,,,,,,,
4963226,1506794254324,,,,,,,,0.01,0.1,1.02,-3.0,-0.2,-0.4,720,0,,,,,,,,,,,,,,,,,,,
4963248,1506794254346,0,197.8,,203.0,9,210.6,,0.01,0.1,0.99,-3.0,-0.4,-0.3,720,0,0,1,0.0,0,35.490265,-119.54483,0.0,2.835,278.5,12,3,1.1,22,2.8367,0,0.0,7.9661,7.955,23
4963267,1506794254365,,,,,,,,0.02,0.09,1.02,-3.0,-0.2,-0.2,740,0,,,,,,,,,,,,,,,,,,,
4963287,1506794254385,,,,,,,,0.01,0.1,1.05,-3.0,-0.2,-0.3,740,0,,,,,,,,,,,,,,,,,,,
4963307,1506794254405,,,,,,,,0.01,0.09,1.05,-3.0,-0.2,-0.3,720,0,,,,,,,,,,,,,,,,,,,
4963327,1506794254425,,,,,,,,0.0,0.1,1.01,-3.0,-0.4,-0.3,720,0,,,,,,,,,,,,,,,,,,,
4963349,1506794254447,,,,,10,,,0.01,0.1,1.01,-3.0,-0.2,-0.3,740,0,0,1,0.0,0,35.490265,-119.54483,0.0,2.835,278.5,12,3,1.2,22,2.8367,0,0.0,7.9678,7.9567,23
4963368,1506794254466,,,,,,,,0.01,0.1,1.04,-3.0,-0.1,-0.3,740,0,,,,,,,,,,,,,,,,,,,
4963388,1506794254486,,,,,,,,0.0,0.09,1.05,-3.0,-0.1,-0.3,740,0,,,,,,,,,,,,,,,,,,,
4963408,1506794254506,,,,,,,,0.0,0.08,1.06,-3.0,-0.3,-0.3,740,0,,,,,,,,,,,,,,,,,,,
4963428,1506794254526,,,,,,,,0.02,0.1,1.0,-3.1,-0.3,-0.3,740,0,,,,,,,,,,,,,,,,,,,
4963450,1506794254548,0,198.0,,203.5,9,210.9,,0.02,0.11,0.98,-3.1,-0.1,-0.2,740,0,0,1,0.0,0,35.490265,-119.54483,0.0,2.835,278.5,12,3,1.2,22,2.8367,0,0.0,7.9695,7.9583,23
4963469,1506794254567,,,,,,,,0.01,0.1,1.0,-3.0,-0.2,-0.3,720,0,,,,,,,,,,,,,,,,,,,
4963489,1506794254587,,,,,,,,0.01,0.1,1.01,-3.0,-0.3,-0.3,720,0,,,,,,,,,,,,,,,,,,,
4963509,1506794254605,,,,,,,,0.01,0.11,0.95,-3.0,-0.1,-0.3,740,0,,,,,,,,,,,,,,,,,,,
4963529,1506794254625,,,,,,,,0.02,0.1,0.99,-3.0,0.0,-0.3,740,0,,,,,,,,,,,,,,,,,,,
4963551,1506794254647,,,,,9,,,0.01,0.1,1.0,-3.0,-0.1,-0.3,740,0,0,1,0.0,0,35.490265,-119.54483,0.0,2.835,278.5,12,3,1.2,22,2.8367,0,0.0,7.9711,7.96,23
4963570,1506794254666,,,,,,,,0.01,0.09,0.98,-3.0,-0.4,-0.3,740,0,,,,,,,,,,,,,,,,,,,
4963590,1506794254686,,,,,,,,0.02,0.1,0.95,-2.9,-0.2,-0.3,740,0,,,,,,,,,,,,,,,,,,,
4963610,1506794254708,,,,,,,,0.01,0.09,1.03,-2.9,0.0,-0.3,740,0,,,,,,,,,,,,,,,,,,,
4963630,1506794254728,,,,,,,,0.01,0.09,1.04,-2.9,-0.1,-0.4,720,0,,,,,,,,,,,,,,,,,,,
4963652,1506794254750,0,198.1,-0.6,203.7,9,211.0,14.07,0.0,0.08,1.04,-2.9,-0.2,-0.4,720,0,0,1,0.0,0,35.490265,-119.54483,0.0,2.835,278.5,12,3,1.2,22,2.8367,0,0.0,7.9729,7.9617,23
4963671,1506794254769,,,,,,,,0.01,0.08,1.05,-2.9,0.1,-0.3,740,0,,,,,,,,,,,,,,,,,,,
4963691,1506794254789,,,,,,,,-0.0,0.08,1.07,-2.9,0.2,-0.3,740,0,,,,,,,,,,,,,,,,,,,
4963711,1506794254808,,,,,,,,-0.01,0.08,1.07,-2.9,0.1,-0.4,740,0,,,,,,,,,,,,,,,,,,,
4963731,1506794254828,,,,,,,,-0.01,0.08,1.04,-2.9,-0.2,-0.4,740,0,,,,,,,,,,,,,,,,,,,
4963753,1506794254850,,,,,9,,,-0.0,0.08,1.05,-2.9,0.0,-0.4,740,0,0,1,0.0,0,35.490265,-119.54483,0.0,2.835,278.5,12,3,1.2,22,2.8367,0,0.0,7.9745,7.9633,23
4963772,1506794254869,,,,,,,,-0.01,0.08,1.01,-2.9,0.0,-0.3,740,0,,,,,,,,,,,,,,,,,,,
4963792,1506794254891,,,,,,,,-0.01,0.09,1.01,-2.9,-0.1,-0.4,720,0,,,,,,,,,,,,,,,,,,,
4963812,1506794254911,,,,,,,,-0.01,0.09,0.98,-2.9,-0.3,-0.4,720,0,,,,,,,,,,,,,,,,,,,
4963832,1506794254931,,,,,,,,0.0,0.09,1.0,-2.9,-0.1,-0.4,740,0,,,,,,,,,,,,,,,,,,,
4963854,1506794254953,0,198.2,,203.8,9,211.1,,-0.01,0.08,1.01,-2.9,0.2,-0.3,740,0,0,1,0.0,0,35.490265,-119.54483,0.0,2.835,278.5,12,3,1.2,22,2.8367,0,0.0,7.9763,7.965,23
4963873,1506794254972,,,,,,,,-0.01,0.09,1.0,-2.9,-0.1,-0.4,720,0,,,,,,,,,,,,,,,,,,,
4963893,1506794254992,,,,,,,,-0.01,0.09,1.0,-2.9,-0.3,-0.4,720,0,,,,,,,,,,,,,,,,,,,
4963913,1506794255006,,,,,,,,0.0,0.09,1.03,-2.9,0.1,-0.4,740,0,,,,,,,,,,,,,,,,,,,
4963933,1506794255026,,,,,,,,-0.0,0.09,1.03,-2.9,0.2,-0.3,740,0,,,,,,,,,,,,,,,,,,,
4963955,1506794255048,,,,,9,,,0.0,0.1,0.99,-2.9,-0.1,-0.4,740,0,0,1,0.0,0,35.490265,-119.54483,0.0,2.835,278.5,12,3,1.2,22,2.8367,0,0.0,7.9778,7.9667,23
4963974,1506794255067,,,,,,,,0.01,0.1,1.0,-2.9,-0.3,-0.4,740,0,,,,,,,,,,,,,,,,,,,
4963994,1506794255091,,,,,,,,0.01,0.1,1.03,-2.9,0.1,-0.4,720,0,,,,,,,,,,,,,,,,,,,
4964014,1506794255111,,,,,,,,0.01,0.09,0.99,-2.9,0.1,-0.3,740,0,,,,,,,,,,,,,,,,,,,
4964034,1506794255131,,,,,,,,0.01,0.1,0.97,-2.9,-0.0,-0.4,740,0,,,,,,,,,,,,,,,,,,,
4964056,1506794255153,0,197.8,,203.2,9,210.0,,0.01,0.1,0.95,-2.9,-0.3,-0.4,740,0,0,1,0.0,0,35.490265,-119.54483,0.0,2.835,278.5,12,3,1.2,22,2.8367,0,0.0,7.9796,7.9683,23
4964075,1506794255172,,,,,,,,0.01,0.09,0.97,-2.8,0.0,-0.3,740,0,,,,,,,,,,,,,,,,,,,
4964095,1506794255194,,,,,,,,0.0,0.09,0.93,-2.9,-0.0,-0.3,740,0,,,,,,,,,,,,,,,,,,,
4964115,1506794255214,,,,,,,,0.0,0.1,0.92,-2.9,-0.2,-0.4,720,0,,,,,,,,,,,,,,,,,,,
4964135,1506794255234,,,,,,,,-0.0,0.1,0.9,-2.9,-0.4,-0.4,720,0,,,,,,,,,,,,,,,,,,,
4964157,1506794255256,,,,,9,,,0.01,0.1,0.9,-2.8,-0.2,-0.3,740,0,0,1,0.0,0,35.490265,-119.54483,0.0,2.835,278.5,12,3,1.2,22,2.8367,0,0.0,7.9813,7.97,23
4964176,1506794255275,,,,,,,,0.0,0.1,0.9,-2.9,-0.2,-0.3,740,0,,,,,,,,,,,,,,,,,,,
4964196,1506794255295,,,,,,,,-0.0,0.1,0.9,-2.9,-0.4,-0.4,740,0,,,,,,,,,,,,,,,,,,,
4964216,1506794255315,,,,,,,,0.0,0.11,0.88,-2.9,-0.6,-0.4,740,0,,,,,,,,,,,,,,,,,,,
4964236,1506794255335,,,,,,,,0.01,0.1,0.93,-2.9,-0.2,-0.3,740,0,,,,,,,,,,,,,,,,,,,
4964258,1506794255357,0,198.4,,203.5,9,210.2,,0.0,0.1,0.96,-2.9,-0.1,-0.3,760,0,0,1,0.0,0,35.490265,-119.54483,0.0,2.835,278.5,12,3,1.2,22,2.8367,0,0.0,7.983,7.9717,23
4964277,1506794255376,,,,,,,,-0.01,0.11,0.98,-2.9,0.1,-0.3,720,0,,,,,,,,,,,,,,,,,,,
4964297,1506794255394,,,,,,,,0.01,0.11,1.0,-2.8,0.0,-0.4,720,0,,,,,,,,,,,,,,,,,,,
4964317,1506794255414,,,,,,,,0.01,0.09,1.03,-2.9,-0.1,-0.3,760,0,,,,,,,,,,,,,,,,,,,
4964337,1506794255434,,,,,,,,-0.0,0.08,0.96,-3.0,-0.2,-0.2,740,0,,,,,,,,,,,,,,,,,,,
4964359,1506794255456,,,,,10,,,-0.01,0.08,1.01,-3.0,-0.2,-0.2,740,0,0,1,0.0,0,35.490265,-119.54483,0.0,2.835,278.5,12,3,1.1,22,2.8367,0,0.0,7.9846,7.9733,23
4964378,1506794255475,,,,,,,,-0.01,0.07,1.02,-3.0,-0.0,-0.4,740,0,,,,,,,,,,,,,,,,,,,
4964398,1506794255495,,,,,,,,-0.01,0.07,0.98,-3.1,-0.1,-0.4,740,0,,,,,,,,,,,,,,,,,,,
4964418,1506794255515,,,,,,,,0.0,0.08,1.04,-3.1,-0.4,-0.3,740,0,,,,,,,,,,,,,,,,,,,
4964438,1506794255535,,,,,,,,0.0,0.07,1.01,-3.1,-0.5,-0.2,740,0,,,,,,,,,,,,,,,,,,,
4964460,1506794255557,0,197.8,,203.3,9,210.0,,-0.0,0.06,1.03,-3.0,-0.4,-0.2,740,0,0,1,0.0,0,35.490265,-119.54483,0.0,2.835,278.5,12,3,1.1,22,2.8367,0,0.0,7.9863,7.975,23
4964479,1506794255576,,,,,,,,-0.0,0.06,1.06,-3.1,-0.4,-0.3,740,0,,,,,,,,,,,,,,,,,,,
4964499,1506794255596,,,,,,,,0.0,0.08,1.02,-3.1,-0.3,-0.2,740,0,,,,,,,,,,,,,,,,,,,
4964519,1506794255616,,,,,,,,0.01,0.09,0.99,-3.1,-0.5,-0.2,740,0,,,,,,,,,,,,,,,,,,,
4964539,1506794255636,,,,,,,,0.01,0.07,0.98,-3.1,-0.4,-0.2,740,0,,,,,,,,,,,,,,,,,,,
4964561,1506794255658,,,,,9,,,0.01,0.07,1.0,-3.2,-0.4,-0.2,740,0,0,1,0.0,0,35.490265,-119.54483,0.0,2.835,278.5,12,3,1.1,22,2.8367,0,0.0,7.988,7.9767,23
4964580,1506794255677,,,,,,,,0.01,0.08,0.95,-3.2,-0.3,-0.2,740,0,,,,,,,,,,,,,,,,,,,
4964600,1506794255697,,,,,,,,0.01,0.07,0.99,-3.2,-0.2,-0.2,740,0,,,,,,,,,,,,,,,,,,,
4964620,1506794255717,,,,,,,,0.03,0.05,1.0,-3.1,-0.2,-0.1,740,0,,,,,,,,,,,,,,,,,,,
4964640,1506794255737,,,,,,,,0.03,0.05,1.02,-3.0,-0.6,-0.2,740,0,,,,,,,,,,,,,,,,,,,
4964662,1506794255759,0,198.0,-0.8,203.4,9,210.3,14.06,0.03,0.06,0.96,-3.1,-0.6,-0.1,740,0,0,1,0.0,0,35.490265,-119.54483,0.0,2.835,278.5,12,3,1.1,22,2.8367,0,0.0,7.9897,7.9783,23
4964681,1506794255778,,,,,,,,0.03,0.06,1.03,-3.1,-0.4,-0.1,740,0,,,,,,,,,,,,,,,,,,,
4964701,1506794255799,,,,,,,,0.03,0.07,1.0,-3.1,-0.5,-0.1,740,0,,,,,,,,,,,,,,,,,,,
4964721,1506794255819,,,,,,,,0.03,0.07,0.98,-3.1,-0.6,-0.1,740,0,,,,,,,,,,,,,,,,,,,
4964741,1506794255839,,,,,,,,0.03,0.08,0.96,-3.1,-0.4,-0.1,740,0,,,,,,,,,,,,,,,,,,,
4964763,1506794255861,,,,,10,,,0.02,0.08,0.99,-3.1,-0.3,-0.1,740,0,0,1,0.0,0,35.490265,-119.54483,0.0,2.835,278.5,12,3,1.1,22,2.8367,0,0.0,7.9914,7.98,23
4964782,1506794255880,,,,,,,,0.03,0.09,0.96,-3.1,-0.5,-0.2,740,0,,,,,,,,,,,,,,,,,,,
4964802,1506794255900,,,,,,,,0.03,0.09,0.95,-3.1,-0.6,-0.1,740,0,,,,,,,,,,,,,,,,,,,
4964822,1506794255920,,,,,,,,0.03,0.1,0.94,-3.1,-0.4,-0.1,740,0,,,,,,,,,,,,,,,,,,,
4964842,1506794255940,,,,,,,,0.03,0.1,1.01,-3.1,-0.3,-0.1,740,0,,,,,,,,,,,,,,,,,,,
4964864,1506794255962,0,197.6,,202.9,9,209.8,,0.03,0.09,1.02,-3.0,-0.2,-0.2,740,0,0,1,0.0,0,35.490265,-119.54483,0.0,2.835,278.5,12,3,1.1,22,2.8367,0,0.0,7.9931,7.9817,23
4964883,1506794255981,,,,,,,,0.02,0.09,1.01,-3.0,-0.4,-0.2,740,0,,,,,,,,,,,,,,,,,,,
4964903,1506794255993,,,,,,,,0.03,0.1,0.97,-3.1,-0.3,-0.1,740,0,,,,,,,,,,,,,,,,,,,
4964923,1506794256013,,,,,,,,0.03,0.11,0.98,-3.1,-0.2,-0.1,740,0,,,,,,,,,,,,,,,,,,,
4964943,1506794256033,,,,,,,,0.03,0.1,1.0,-3.0,-0.3,-0.1,740,0,,,,,,,,,,,,,,,,,,,
4964965,1506794256055,,,,,9,,,0.02,0.1,1.03,-3.0,-0.4,-0.2,740,0,0,1,0.0,0,35.490265,-119.54483,0.0,2.835,278.5,12,3,1.1,22,2.8367,0,0.0,7.9946,7.9833,23
4964984,1506794256074,,,,,,,,0.03,0.1,0.99,-3.0,-0.1,-0.2,740,0,,,,,,,,,,,,,,,,,,,
4965004,1506794256102,,,,,,,,0.02,0.11,1.06,-3.0,0.1,-0.2,740,0,,,,,,,,,,,,,,,,,,,
4965024,1506794256122,,,,,,,,0.02,0.1,1.05,-3.0,-0.2,-0.3,740,0,,,,,,,,,,,,,,,,,,,
4965044,1506794256142,,,,,,,,0.02,0.1,1.04,-3.0,-0.4,-0.3,740,0,,,,,,,,,,,,,,,,,,,
4965066,1506794256164,0,198.2,,204.0,10,210.7,,0.03,0.11,0.97,-3.0,-0.2,-0.3,740,0,0,1,0.0,0,35.490265,-119.54483,0.0,2.835,278.5,12,3,1.1,22,2.8367,0,0.0,7.9964,7.985,23
4965085,1506794256183,,,,,,,,0.02,0.11,1.04,-3.0,0.1,-0.3,740,0,,,,,,,,,,,,,,,,,,,
4965105,1506794256203,,,,,,,,0.03,0.12,1.0,-2.9,-0.2,-0.4,740,0,,,,,,,,,,,,,,,,,,,
4965125,1506794256223,,,,,,,,0.03,0.12,0.97,-2.9,-0.4,-0.4,740,0,,,,,,,,,,,,,,,,,,,
4965145,1506794256243,,,,,,,,0.03,0.12,0.98,-2.9,-0.1,-0.3,740,0,,,,,,,,,,,,,,,,,,,
4965167,1506794256265,,,,,10,,,0.03,0.12,1.04,-2.9,0.2,-0.3,740,0,0,1,0.0,0,35.490265,-119.54483,0.0,2.835,278.5,12,3,1.1,22,2.8367,0,0.0,7.9981,7.9867,23
4965186,1506794256284,,,,,,,,0.02,0.12,1.09,-2.9,0.5,-0.4,740,0,,,,,,,,,,,,,,,,,,,
4965206,1506794256304,,,,,,,,0.02,0.11,1.07,-2.9,0.3,-0.4,740,0,,,,,,,,,,,,,,,,,,,
4965226,1506794256324,,,,,,,,0.03,0.1,1.11,-2.8,0.6,-0.4,740,0,,,,,,,,,,,,,,,,,,,
4965246,1506794256344,,,,,,,,0.03,0.08,1.05,-2.8,0.3,-0.3,740,0,,,,,,,,,,,,,,,,,,,
4965268,1506794256366,0,197.6,,203.0,10,209.6,,0.03,0.09,1.08,-2.8,0.3,-0.4,740,0,0,1,0.0,0,35.490265,-119.54483,0.0,2.835,278.5,12,3,1.1,22,2.8367,0,0.0,7.9998,7.9883,23
4965287,1506794256385,,,,,,,,0.02,0.08,1.1,-2.9,0.4,-0.4,740,0,,,,,,,,,,,,,,,,,,,
4965307,1506794256405,,,,,,,,0.01,0.1,1.06,-3.0,0.2,-0.4,740,0,,,,,,,,,,,,,,,,,,,
4965327,1506794256425,,,,,,,,0.01,0.08,1.09,-3.0,-0.1,-0.3,740,0,,,,,,,,,,,,,,,,,,,
4965347,1506794256445,,,,,,,,0.01,0.08,1.02,-2.9,-0.2,-0.2,760,0,,,,,,,,,,,,,,,,,,,
4965369,1506794256467,,,,,9,,,0.01,0.07,1.02,-3.0,-0.1,-0.3,760,0,0,1,0.0,0,35.490265,-119.54483,0.0,2.835,278.5,12,3,1.1,22,2.8367,0,0.0,8.0015,7.99,23
4965388,1506794256486,,,,,,,,0.0,0.07,1.03,-3.0,-0.1,-0.3,760,0,,,,,,,,,,,,,,,,,,,
4965408,1506794256506,,,,,,,,0.01,0.11,0.97,-3.1,-0.2,-0.0,740,0,,,,,,,,,,,,,,,,,,,
4965428,1506794256526,,,,,,,,0.0,0.12,1.06,-3.2,-0.3,0.0,780,0,,,,,,,,,,,,,,,,,,,
4965448,1506794256546,,,,,,,,0.01,0.1,1.04,-3.0,-0.8,-0.3,860,0,,,,,,,,,,,,,,,,,,,
4965470,1506794256568,0,197.3,,202.9,11,209.4,,0.0,0.11,1.01,-3.0,-1.2,-0.5,920,0,0,1,0.0,0,35.490265,-119.54483,0.0,2.835,278.5,12,3,1.1,22,2.8367,0,0.0,8.0032,7.9917,23
4965489,1506794256587,,,,,,,,-0.01,0.06,1.01,-3.0,-0.5,-0.4,960,0,,,,,,,,,,,,,,,,,,,
4965509,1506794256607,,,,,,,,0.01,0.05,0.98,-2.8,-0.9,-0.4,1020,0,,,,,,,,,,,,,,,,,,,
4965529,1506794256627,,,,,,,,-0.01,0.07,1.04,-3.0,-1.3,-0.3,1080,0,,,,,,,,,,,,,,,,,,,
4965549,1506794256647,,,,,,,,-0.02,0.08,1.02,-2.9,-1.3,-0.2,1120,0,,,,,,,,,,,,,,,,,,,
4965571,1506794256669,,,,,14,,,-0.01,0.08,1.03,-2.9,-1.3,-0.3,1160,0,0,1,0.0,0,35.490265,-119.54483,0.0,2.835,278.5,12,3,1.1,22,2.8367,0,0.0,8.0049,7.9933,23
4965590,1506794256688,,,,,,,,-0.03,0.07,1.01,-2.9,-1.5,-0.5,1180,0,,,,,,,,,,,,,,,,,,,
4965610,1506794256708,,,,,,,,-0.04,0.08,0.97,-3.0,-1.2,-0.4,1140,0,,,,,,,,,,,,,,,,,,,
4965630,1506794256728,,,,,,,,-0.03,0.08,0.96,-3.0,-1.2,-0.4,1160,0,,,,,,,,,,,,,,,,,,,
4965650,1506794256748,,,,,,,,-0.04,0.07,0.96,-3.0,-1.4,-0.4,1160,0,,,,,,,,,,,,,,,,,,,
4965672,1506794256770,0,197.3,-1.3,203.0,15,209.7,14.1,-0.05,0.05,0.95,-3.0,-1.7,-0.4,1160,0,0,1,0.0,0,35.490265,-119.54483,0.0,2.835,278.5,12,3,1.1,22,2.8367,0,0.0,8.0065,7.995,23
4965691,1506794256789,,,,,,,,-0.04,0.06,0.95,-3.1,-1.5,-0.4,1120,0,,,,,,,,,,,,,,,,,,,
4965711,1506794256808,,,,,,,,-0.03,0.07,0.95,-3.1,-1.3,-0.3,1100,0,,,,,,,,,,,,,,,,,,,
4965731,1506794256828,,,,,,,,-0.03,0.06,0.96,-3.1,-1.0,-0.2,1060,0,,,,,,,,,,,,,,,,,,,
4965751,1506794256848,,,,,,,,-0.03,0.05,0.97,-3.2,-0.9,-0.2,1040,0,,,,,,,,,,,,,,,,,,,
4965773,1506794256870,,,,,14,,,-0.04,0.05,0.96,-3.1,-1.0,-0.2,1000,0,0,1,0.0,0,35.490265,-119.54483,0.0,2.835,278.5,12,3,1.1,22,2.8367,0,0.0,8.0082,7.9967,23
4965792,1506794256889,,,,,,,,-0.03,0.06,0.98,-3.2,-1.5,-0.2,980,5,,,,,,,,,,,,,,,,,,,
4965812,1506794256909,,,,,,,,-0.04,0.05,1.0,-3.2,-1.5,-0.2,900,5,,,,,,,,,,,,,,,,,,,
4965832,1506794256929,,,,,,,,-0.05,0.07,0.99,-3.2,-1.2,-0.1,900,5,,,,,,,,,,,,,,,,,,,
4965852,1506794256949,,,,,,,,-0.06,0.07,1.0,-3.2,-0.9,-0.1,820,17,,,,,,,,,,,,,,,,,,,
4965874,1506794256971,0,197.3,,202.7,12,209.1,,-0.06,0.05,0.99,-3.2,-0.9,-0.3,800,17,0,1,0.0,0,35.490265,-119.54483,0.0,2.835,278.5,12,3,1.1,22,2.8367,0,0.0,8.0099,7.9983,23
4965893,1506794256990,,,,,,,,-0.07,0.05,0.99,-3.1,-0.9,-0.5,800,17,,,,,,,,,,,,,,,,,,,
4965913,1506794257004,,,,,,,,-0.07,0.04,0.94,-3.1,-0.5,-0.3,740,17,,,,,,,,,,,,,,,,,,,
4965933,1506794257024,,,,,,,,-0.07,0.07,0.93,-3.2,-0.6,-0.2,740,17,,,,,,,,,,,,,,,,,,,
4965953,1506794257044,,,,,,,,-0.06,0.07,0.9,-3.1,-0.3,-0.2,680,17,,,,,,,,,,,,,,,,,,,
4965975,1506794257066,,,,,10,,,-0.06,0.07,0.94,-3.3,0.1,-0.4,680,17,0,1,50.0,0,35.490265,-119.54483,0.0,2.835,278.5,12,3,1.2,22,2.8367,0,0.0,8.0115,8.0,23
4965994,1506794257093,,,,,,,,-0.07,0.06,0.94,-3.2,-0.2,-0.3,660,17,,,,,,,,,,,,,,,,,,,
4966014,1506794257113,,,,,,,,-0.06,0.07,0.96,-3.3,0.1,-0.3,620,20,,,,,,,,,,,,,,,,,,,
4966034,1506794257133,,,,,,,,-0.05,0.07,0.98,-3.3,0.3,-0.3,620,20,,,,,,,,,,,,,,,,,,,
4966054,1506794257153,,,,,,,,-0.06,0.07,0.98,-3.3,0.4,-0.2,620,20,,,,,,,,,,,,,,,,,,,
4966076,1506794257175,0,197.1,,202.7,8,209.3,,-0.06,0.06,0.98,-3.2,0.4,-0.2,620,20,0,1,42.5,0,35.490265,-119.54483,0.0,2.835,278.5,12,3,1.2,22,2.8367,0,0.0,8.0133,8.0017,23
4966095,1506794257194,,,,,,,,-0.05,0.06,1.0,-3.2,0.5,-0.2,620,17,,,,,,,,,,,,,,,,,,,
4966115,1506794257214,,,,,,,,-0.04,0.06,1.0,-3.1,0.4,-0.1,620,17,,,,,,,,,,,,,,,,,,,
4966135,1506794257234,,,,,,,,-0.03,0.05,0.98,-3.1,0.4,-0.1,620,17,,,,,,,,,,,,,,,,,,,
4966155,1506794257254,,,,,,,,-0.01,0.07,0.98,-3.1,0.3,-0.1,640,17,,,,,,,,,,,,,,,,,,,
4966177,1506794257276,,,,,9,,,-0.01,0.05,0.98,-3.1,0.4,-0.0,660,17,0,1,31.0,0,35.490265,-119.54483,0.0,2.835,278.5,12,3,1.2,22,2.8367,0,0.0,8.015,8.0033,23
4966196,1506794257295,,,,,,,,-0.0,0.04,0.96,-3.0,0.1,-0.1,660,17,,,,,,,,,,,,,,,,,,,
4966216,1506794257315,,,,,,,,0.01,0.05,0.97,-3.2,0.1,-0.1,680,17,,,,,,,,,,,,,,,,,,,
4966236,1506794257335,,,,,,,,0.01,0.04,0.95,-3.1,0.3,-0.0,720,17,,,,,,,,,,,,,,,,,,,
4966256,1506794257355,,,,,,,,0.0,0.05,0.95,-3.1,0.2,-0.1,740,17,,,,,,,,,,,,,,,,,,,
4966278,1506794257377,0,197.5,,203.3,9,210.0,,-0.0,0.05,0.96,-3.0,0.1,-0.3,740,17,0,1,41.25,0,35.490265,-119.54483,0.0,2.835,278.5,12,3,1.2,22,2.8367,0,0.0,8.0167,8.005,23
4966297,1506794257396,,,,,,,,0.01,0.05,0.95,-3.0,0.2,-0.2,760,11,,,,,,,,,,,,,,,,,,,
4966317,1506794257416,,,,,,,,0.03,0.06,0.97,-3.0,0.7,-0.1,780,11,,,,,,,,,,,,,,,,,,,
4966337,1506794257436,,,,,,,,0.02,0.06,0.95,-2.9,0.6,-0.1,800,11,,,,,,,,,,,,,,,,,,,
4966357,1506794257456,,,,,,,,0.02,0.05,0.99,-2.9,0.8,-0.2,820,11,,,,,,,,,,,,,,,,,,,
4966379,1506794257478,,,,,10,,,0.02,0.04,1.04,-2.8,0.8,-0.6,840,11,0,1,47.5,0,35.490265,-119.54483,0.0,2.835,278.5,12,3,1.1,22,2.8367,0,0.0,8.0183,8.0067,23
4966398,1506794257495,,,,,,,,-0.0,0.05,1.08,-2.9,0.4,-0.6,880,11,,,,,,,,,,,,,,,,,,,
4966418,1506794257515,,,,,,,,0.02,0.08,0.99,-2.9,0.7,-0.5,880,11,,,,,,,,,,,,,,,,,,,
4966438,1506794257535,,,,,,,,0.0,0.06,0.89,-3.0,0.1,-0.3,880,26,,,,,,,,,,,,,,,,,,,
4966458,1506794257555,,,,,,,,0.0,0.07,0.93,-3.1,0.4,-0.3,880,26,,,,,,,,,,,,,,,,,,,
4966480,1506794257577,0,197.4,,203.0,12,209.7,,0.01,0.06,0.92,-3.0,0.4,-0.2,880,26,0,1,84.0,0,35.490265,-119.54483,0.0,2.835,278.5,12,3,1.1,22,2.8367,0,0.0,8.02,8.0083,23
4966499,1506794257596,,,,,,,,0.02,0.06,0.97,-3.0,0.5,-0.2,900,25,,,,,,,,,,,,,,,,,,,
4966519,1506794257616,,,,,,,,0.02,0.08,0.95,-3.0,0.6,-0.3,880,25,,,,,,,,,,,,,,,,,,,
4966539,1506794257636,,,,,,,,0.03,0.07,0.94,-3.0,0.3,-0.3,900,25,,,,,,,,,,,,,,,,,,,
4966559,1506794257656,,,,,,,,0.03,0.07,0.94,-3.0,0.4,-0.4,880,26,,,,,,,,,,,,,,,,,,,
4966581,1506794257678,,,,,12,,,0.03,0.07,0.93,-3.0,0.2,-0.4,880,26,0,1,33.846,0,35.490265,-119.54483,0.0,2.835,278.5,12,3,1.1,22,2.8367,0,0.0,8.0217,8.01,23
4966600,1506794257699,,,,,,,,0.04,0.07,0.94,-3.0,0.1,-0.3,880,37,,,,,,,,,,,,,,,,,,,
4966620,1506794257719,,,,,,,,0.04,0.08,0.93,-3.0,-0.0,-0.3,880,49,,,,,,,,,,,,,,,,,,,
4966640,1506794257739,,,,,,,,0.04,0.08,0.94,-3.1,0.0,-0.2,880,60,,,,,,,,,,,,,,,,,,,
4966660,1506794257759,,,,,,,,0.04,0.08,0.94,-3.1,-0.1,-0.1,860,60,,,,,,,,,,,,,,,,,,,
4966682,1506794257781,0,197.7,-1.5,203.4,12,209.5,14.13,0.03,0.08,0.95,-3.1,-0.2,-0.1,860,60,0,1,24.444,0,35.490265,-119.54483,0.0,2.835,278.5,12,3,1.1,22,2.8367,0,0.0,8.0234,8.0117,23
4966701,1506794257797,,,,,,,,0.03,0.08,0.96,-3.1,-0.1,-0.1,860,60,,,,,,,,,,,,,,,,,,,
4966721,1506794257817,,,,,,,,0.03,0.08,0.97,-3.1,0.1,-0.2,860,60,,,,,,,,,,,,,,,,,,,
4966741,1506794257837,,,,,,,,0.03,0.07,0.98,-3.0,-0.0,-0.3,860,17,,,,,,,,,,,,,,,,,,,
4966761,1506794257857,,,,,,,,0.02,0.07,0.99,-3.0,-0.1,-0.4,840,17,,,,,,,,,,,,,,,,,,,
4966783,1506794257879,,,,,12,,,0.01,0.06,0.98,-3.0,0.2,-0.3,840,17,0,1,14.333,0,35.490265,-119.54483,0.0,2.835,278.5,12,3,1.1,22,2.8367,0,0.0,8.025,8.0133,23
4966802,1506794257900,,,,,,,,0.02,0.07,0.98,-3.1,0.4,-0.2,840,42,,,,,,,,,,,,,,,,,,,
4966822,1506794257920,,,,,,,,0.02,0.07,1.0,-3.1,0.2,-0.1,840,42,,,,,,,,,,,,,,,,,,,
4966842,1506794257940,,,,,,,,0.01,0.08,1.02,-3.1,0.4,-0.1,840,22,,,,,,,,,,,,,,,,,,,
4966862,1506794257960,,,,,,,,0.01,0.07,1.0,-3.0,0.6,-0.1,820,22,,,,,,,,,,,,,,,,,,,
4966884,1506794257982,0,196.8,,202.3,11,208.5,,0.02,0.07,0.98,-3.0,0.2,-0.2,800,22,0,1,52.5,0,35.490265,-119.54483,0.0,2.835,278.5,12,3,1.1,22,2.8367,0,0.0,8.0267,8.015,23
4966903,1506794257993,,,,,,,,0.0,0.07,0.98,-3.0,-0.0,-0.4,800,22,,,,,,,,,,,,,,,,,,,
4966923,1506794258013,,,,,,,,-0.01,0.06,0.93,-2.9,0.3,-0.3,800,22,,,,,,,,,,,,,,,,,,,
4966943,1506794258033,,,,,,,,0.0,0.1,0.9,-3.1,0.1,-0.0,800,22,,,,,,,,,,,,,,,,,,,
4966963,1506794258053,,,,,,,,-0.02,0.11,0.97,-3.2,0.3,-0.2,780,22,,,,,,,,,,,,,,,,,,,
4966985,1506794258075,,,,,11,,,-0.03,0.07,1.04,-3.1,0.9,-0.3,780,23,0,1,38.095,0,35.490265,-119.54483,0.0,2.835,278.5,12,3,1.1,22,2.8367,0,0.0,8.0283,8.0167,23
4967004,1506794258102,,,,,,,,-0.03,0.07,1.05,-3.1,0.9,-0.4,780,43,,,,,,,,,,,,,,,,,,,
4967024,1506794258122,,,,,,,,-0.05,0.07,1.06,-3.2,0.5,-0.2,760,43,,,,,,,,,,,,,,,,,,,
4967044,1506794258142,,,,,,,,-0.03,0.09,1.11,-3.2,0.6,-0.1,740,43,,,,,,,,,,,,,,,,,,,
4967064,1506794258162,,,,,,,,-0.04,0.06,1.07,-3.1,0.4,-0.3,740,26,,,,,,,,,,,,,,,,,,,
4967086,1506794258184,0,196.8,,202.9,10,208.9,,-0.05,0.04,1.0,-3.0,0.4,-0.4,740,26,0,1,33.913,0,35.490265,-119.54483,0.0,2.835,278.5,12,3,1.2,22,2.8367,0,0.0,8.0301,8.0183,23
4967105,1506794258205,,,,,,,,-0.04,0.05,1.01,-3.1,0.6,-0.3,740,51,,,,,,,,,,,,,,,,,,,
4967125,1506794258225,,,,,,,,-0.05,0.05,1.0,-3.1,0.7,-0.2,740,51,,,,,,,,,,,,,,,,,,,
4967145,1506794258245,,,,,,,,-0.05,0.06,1.0,-3.1,0.5,-0.2,720,32,,,,,,,,,,,,,,,,,,,
4967165,1506794258265,,,,,,,,-0.06,0.04,0.98,-3.0,0.5,-0.3,720,51,,,,,,,,,,,,,,,,,,,
4967187,1506794258287,,,,,10,,,-0.06,0.06,0.99,-3.1,0.2,-0.3,720,51,0,1,14.8,0,35.490265,-119.54483,0.0,2.835,278.5,12,3,1.2,22,2.8367,0,0.0,8.0318,8.02,23
4967206,1506794258304,,,,,,,,-0.05,0.07,0.98,-3.2,0.2,-0.1,720,62,,,,,,,,,,,,,,,,,,,
4967226,1506794258324,,,,,,,,-0.05,0.07,0.97,-3.1,-0.1,-0.0,720,62,,,,,,,,,,,,,,,,,,,
4967246,1506794258344,,,,,,,,-0.05,0.06,0.98,-3.2,-0.1,-0.2,720,32,,,,,,,,,,,,,,,,,,,
4967266,1506794258364,,,,,,,,-0.06,0.05,0.99,-3.3,0.0,-0.1,720,72,,,,,,,,,,,,,,,,,,,
4967288,1506794258386,0,196.9,,202.7,9,209.4,,-0.05,0.04,0.98,-3.2,0.0,-0.0,720,72,0,1,14.4,0,35.490265,-119.54483,0.0,2.835,278.5,12,3,1.2,22,2.8367,0,0.0,8.0335,8.0217,23
4967307,1506794258407,,,,,,,,-0.06,0.04,0.97,-3.2,-0.3,-0.1,720,57,,,,,,,,,,,,,,,,,,,
4967327,1506794258427,,,,,,,,-0.06,0.03,0.97,-3.2,-0.4,-0.2,720,40,,,,,,,,,,,,,,,,,,,
4967347,1506794258447,,,,,,,,-0.06,0.04,0.96,-3.1,-0.3,-0.1,720,82,,,,,,,,,,,,,,,,,,,
4967367,1506794258467,,,,,,,,-0.05,0.04,0.96,-3.1,-0.2,-0.1,720,69,,,,,,,,,,,,,,,,,,,
4967389,1506794258489,,,,,9,,,-0.05,0.04,0.94,-3.0,-0.3,-0.3,720,69,0,1,12.857,0,35.490265,-119.54483,0.0,2.835,278.5,12,3,1.2,22,2.8367,0,0.0,8.0352,8.0233,23
4967408,1506794258508,,,,,,,,-0.06,0.03,0.96,-3.0,-0.2,-0.3,720,40,,,,,,,,,,,,,,,,,,,
4967428,1506794258528,,,,,,,,-0.05,0.05,0.96,-2.9,-0.3,-0.2,720,83,,,,,,,,,,,,,,,,,,,
4967448,1506794258548,,,,,,,,-0.05,0.05,0.97,-2.9,-0.3,-0.2,720,89,,,,,,,,,,,,,,,,,,,
4967468,1506794258568,,,,,,,,-0.05,0.04,0.96,-2.8,-0.3,-0.4,720,49,,,,,,,,,,,,,,,,,,,
4967490,1506794258590,0,196.4,,202.5,9,209.0,,-0.05,0.06,0.96,-2.9,-0.2,-0.4,720,63,0,1,10.435,0,35.490265,-119.54483,0.0,2.835,278.5,12,3,1.2,22,2.8367,0,0.0,8.0369,8.025,23
4967509,1506794258609,,,,,,,,-0.05,0.07,0.97,-2.9,-0.3,-0.2,740,97,,,,,,,,,,,,,,,,,,,
4967529,1506794258629,,,,,,,,-0.05,0.06,0.98,-2.9,-0.3,-0.1,740,89,,,,,,,,,,,,,,,,,,,
4967549,1506794258649,,,,,,,,-0.05,0.05,0.97,-2.8,-0.5,-0.3,740,54,,,,,,,,,,,,,,,,,,,
4967569,1506794258669,,,,,,,,-0.04,0.05,0.97,-2.9,-0.1,-0.3,740,71,,,,,,,,,,,,,,,,,,,
4967591,1506794258691,,,,,9,,,-0.05,0.07,0.94,-2.9,0.0,-0.2,740,103,0,1,11.429,0,35.490265,-119.54483,0.0,2.835,278.5,12,3,1.2,22,2.8367,0,0.0,8.0386,8.0267,23
4967610,1506794258709,,,,,,,,-0.06,0.06,0.96,-2.9,-0.3,-0.1,740,105,,,,,,,,,,,,,,,,,,,
4967630,1506794258729,,,,,,,,-0.04,0.05,0.92,-2.7,-0.8,-0.3,740,74,,,,,,,,,,,,,,,,,,,
4967650,1506794258749,,,,,,,,-0.04,0.05,0.91,-2.7,-0.3,-0.4,740,63,,,,,,,,,,,,,,,,,,,
4967670,1506794258769,,,,,,,,-0.06,0.04,0.9,-2.8,-0.1,-0.2,760,115,,,,,,,,,,,,,,,,,,,
4967692,1506794258791,0,196.5,-1.2,201.9,9,208.5,14.06,-0.06,0.03,0.9,-2.7,-0.8,-0.1,740,105,0,1,7.184,0,35.490265,-119.544823,0.96,2.835,264.7,12,3,1.2,22,2.8367,0,0.0,8.0398,8.0283,23
4967711,1506794258809,,,,,,,,-0.06,0.03,0.92,-2.6,-0.7,-0.1,760,72,,,,,,,,,,,,,,,,,,,
4967731,1506794258829,,,,,,,,-0.05,0.01,0.93,-2.6,-0.4,-0.2,760,75,,,,,,,,,,,,,,,,,,,
4967751,1506794258849,,,,,,,,-0.06,0.01,0.92,-2.9,-0.4,-0.0,760,120,,,,,,,,,,,,,,,,,,,
4967771,1506794258869,,,,,,,,-0.03,0.01,0.92,-2.8,-1.0,0.2,740,109,,,,,,,,,,,,,,,,,,,
4967793,1506794258891,,,,,10,,,-0.02,0.03,0.94,-2.8,-0.4,0.3,760,83,0,1,7.115,0,35.490265,-119.544823,1.0,2.835,264.7,12,3,1.2,22,2.8367,0,0.0,8.0415,8.03,23
4967812,1506794258909,,,,,,,,-0.02,0.03,0.89,-2.8,-0.6,0.0,760,82,,,,,,,,,,,,,,,,,,,
4967832,1506794258929,,,,,,,,-0.02,0.03,0.88,-2.8,-1.0,0.0,760,123,,,,,,,,,,,,,,,,,,,
4967852,1506794258949,,,,,,,,0.0,0.06,0.94,-2.8,-0.0,0.1,760,122,,,,,,,,,,,,,,,,,,,
4967872,1506794258969,,,,,,,,-0.01,0.05,0.92,-2.7,0.1,0.1,760,89,,,,,,,,,,,,,,,,,,,
4967894,1506794258991,0,196.6,,202.2,10,208.7,,-0.03,0.05,1.0,-2.6,0.0,-0.2,760,98,0,1,9.157,0,35.490265,-119.544823,1.18,2.835,264.7,12,3,1.2,22,2.8367,0,0.0,8.0432,8.0317,23
4967913,1506794259006,,,,,,,,-0.05,0.04,1.02,-2.5,0.3,-0.5,760,128,,,,,,,,,,,,,,,,,,,
4967933,1506794259026,,,,,,,,-0.08,0.04,1.06,-2.5,0.4,-0.4,780,125,,,,,,,,,,,,,,,,,,,
4967953,1506794259046,,,,,,,,-0.09,0.06,1.05,-2.6,-0.2,-0.1,780,98,,,,,,,,,,,,,,,,,,,
4967973,1506794259066,,,,,,,,-0.1,0.11,1.14,-2.7,-0.1,-0.1,780,105,,,,,,,,,,,,,,,,,,,
4967995,1506794259094,,,,,10,,,-0.07,0.11,1.13,-2.6,-0.0,-0.6,760,131,0,1,7.755,0,35.490265,-119.544823,1.52,2.836,264.7,12,3,1.2,22,2.8367,0,0.0,8.0449,8.035,23
4968014,1506794259113,,,,,,,,-0.08,0.11,1.14,-2.5,-0.2,-0.8,760,131,,,,,,,,,,,,,,,,,,,
4968034,1506794259133,,,,,,,,-0.07,0.09,1.07,-2.4,0.1,-0.7,780,112,,,,,,,,,,,,,,,,,,,
4968054,1506794259153,,,,,,,,-0.08,0.1,1.08,-2.6,-0.3,-0.4,780,111,,,,,,,,,,,,,,,,,,,
4968074,1506794259173,,,,,,,,-0.09,0.14,1.16,-2.6,-0.1,-0.5,760,131,,,,,,,,,,,,,,,,,,,
4968096,1506794259195,0,196.3,,201.7,11,208.2,,-0.09,0.12,1.17,-2.6,0.0,-0.8,780,135,0,1,5.846,0,35.490265,-119.544823,1.69,2.836,264.6,12,3,1.2,22,2.8367,0,0.0,8.0466,8.0367,23
4968115,1506794259214,,,,,,,,-0.09,0.12,1.16,-2.4,-0.2,-0.7,780,125,,,,,,,,,,,,,,,,,,,
4968135,1506794259234,,,,,,,,-0.08,0.13,1.12,-2.5,0.5,-0.4,760,125,,,,,,,,,,,,,,,,,,,
4968155,1506794259254,,,,,,,,-0.09,0.12,1.09,-2.3,0.2,-0.2,760,137,,,,,,,,,,,,,,,,,,,
4968175,1506794259274,,,,,,,,-0.09,0.11,1.1,-2.2,0.2,-0.2,760,143,,,,,,,,,,,,,,,,,,,
4968197,1506794259296,,,,,11,,,-0.08,0.1,1.09,-2.1,0.4,-0.3,760,137,0,1,5.778,0,35.490265,-119.544823,2.16,2.836,264.5,12,3,1.2,22,2.8367,0,0.0,8.0483,8.0383,23
4968216,1506794259315,,,,,,,,-0.08,0.07,1.07,-2.2,0.5,-0.2,740,134,,,,,,,,,,,,,,,,,,,
4968236,1506794259335,,,,,,,,-0.07,0.09,1.05,-2.2,0.3,0.2,760,135,,,,,,,,,,,,,,,,,,,
4968256,1506794259355,,,,,,,,-0.06,0.08,0.97,-2.1,0.6,0.3,760,148,,,,,,,,,,,,,,,,,,,
4968276,1506794259375,,,,,,,,-0.07,0.06,0.97,-2.0,0.8,0.1,760,151,,,,,,,,,,,,,,,,,,,
4968298,1506794259395,0,196.4,,202.2,10,208.6,,-0.09,0.05,1.02,-2.0,0.6,0.0,760,143,0,1,5.441,0,35.490265,-119.544823,2.38,2.836,264.5,12,3,1.2,22,2.8367,0,0.0,8.0499,8.04,23
4968317,1506794259414,,,,,,,,-0.06,0.07,1.06,-2.1,0.7,0.1,760,142,,,,,,,,,,,,,,,,,,,
4968337,1506794259434,,,,,,,,-0.08,0.07,1.08,-2.2,0.9,0.1,760,154,,,,,,,,,,,,,,,,,,,
4968357,1506794259454,,,,,,,,-0.1,0.07,1.16,-2.0,0.9,-0.1,740,163,,,,,,,,,,,,,,,,,,,
4968377,1506794259474,,,,,,,,-0.09,0.07,1.17,-1.9,0.4,-0.3,740,155,,,,,,,,,,,,,,,,,,,
4968399,1506794259498,,,,,9,,,-0.07,0.06,1.12,-1.8,0.8,-0.2,760,148,0,1,5.429,0,35.490269,-119.544823,2.56,2.836,264.5,12,3,1.1,22,2.8367,0,0.0,8.0516,8.0417,23
4968418,1506794259517,,,,,,,,-0.07,0.08,1.12,-1.8,0.2,0.1,760,166,,,,,,,,,,,,,,,,,,,
4968438,1506794259537,,,,,,,,-0.06,0.09,1.11,-1.8,0.1,0.1,760,171,,,,,,,,,,,,,,,,,,,
4968458,1506794259557,,,,,,,,-0.06,0.07,1.12,-1.8,0.3,-0.1,740,157,,,,,,,,,,,,,,,,,,,
4968478,1506794259577,,,,,,,,-0.09,0.07,1.11,-1.9,0.2,-0.0,740,151,,,,,,,,,,,,,,,,,,,
4968500,1506794259599,0,196.3,,201.6,10,208.0,,-0.07,0.1,1.14,-1.9,0.4,0.1,760,166,0,1,5.067,0,35.490269,-119.54483,2.77,2.836,264.4,12,3,1.1,22,2.8367,0,0.0,8.0537,8.0433,23
4968519,1506794259618,,,,,,,,-0.07,0.08,1.12,-1.8,0.4,-0.0,740,183,,,,,,,,,,,,,,,,,,,
4968539,1506794259638,,,,,,,,-0.08,0.08,1.06,-1.6,-0.1,-0.2,760,171,,,,,,,,,,,,,,,,,,,
4968559,1506794259658,,,,,,,,-0.06,0.09,1.05,-1.4,-0.6,-0.4,760,160,,,,,,,,,,,,,,,,,,,
4968579,1506794259678,,,,,,,,-0.04,0.08,1.05,-1.3,0.4,-0.3,760,172,,,,,,,,,,,,,,,,,,,
4968601,1506794259699,,,,,10,,,-0.06,0.07,1.01,-1.3,0.2,-0.4,760,189,0,1,4.578,0,35.490269,-119.54483,2.58,2.836,264.4,12,3,1.1,22,2.8367,0,0.0,8.0554,8.045,23
4968620,1506794259718,,,,,,,,-0.06,0.06,1.01,-1.1,0.0,-0.4,740,178,,,,,,,,,,,,,,,,,,,
4968640,1506794259738,,,,,,,,-0.06,0.06,1.01,-1.1,0.3,-0.6,740,166,,,,,,,,,,,,,,,,,,,
4968660,1506794259758,,,,,,,,-0.08,0.04,0.99,-1.0,0.3,-0.5,740,183,,,,,,,,,,,,,,,,,,,
4968680,1506794259778,,,,,,,,-0.07,0.04,0.99,-1.0,-0.3,-0.3,740,195,,,,,,,,,,,,,,,,,,,
4968702,1506794259800,0,196.4,-2.1,201.6,10,207.7,14.03,-0.08,0.03,1.0,-0.9,0.0,-0.2,740,189,0,1,4.021,0,35.490269,-119.54483,3.16,2.836,264.3,12,3,1.1,22,2.8367,0,0.0,8.057,8.0467,23
4968721,1506794259819,,,,,,,,-0.08,0.01,1.03,-0.9,0.5,-0.4,740,180,,,,,,,,,,,,,,,,,,,
4968741,1506794259839,,,,,,,,-0.1,-0.0,1.03,-0.9,0.3,-0.2,740,186,,,,,,,,,,,,,,,,,,,
4968761,1506794259859,,,,,,,,-0.1,0.03,0.99,-1.0,0.1,0.0,740,198,,,,,,,,,,,,,,,,,,,
4968781,1506794259879,,,,,,,,-0.09,0.04,1.02,-0.9,0.7,-0.0,740,191,,,,,,,,,,,,,,,,,,,
4968803,1506794259901,,,,,11,,,-0.09,0.02,1.04,-0.7,0.7,-0.3,740,185,0,1,-3.915,-1,35.490273,-119.54483,3.25,2.836,264.2,12,3,1.1,22,2.8367,0,0.0,8.0587,8.0483,23
4968822,1506794259920,,,,,,,,-0.08,0.04,1.04,-0.5,0.1,-0.4,740,200,,,,,,,,,,,,,,,,,,,
4968842,1506794259940,,,,,,,,-0.05,0.06,1.04,-0.2,0.8,-0.3,740,209,,,,,,,,,,,,,,,,,,,
4968862,1506794259960,,,,,,,,-0.06,0.06,1.06,-0.1,0.7,-0.6,740,203,,,,,,,,,,,,,,,,,,,
4968882,1506794259980,,,,,,,,-0.08,0.07,1.07,0.2,0.5,-0.7,740,197,,,,,,,,,,,,,,,,,,,
4968904,1506794259998,0,196.4,,201.9,10,208.3,,-0.09,0.08,1.07,0.4,0.3,-0.7,740,205,0,1,3.957,0,35.490273,-119.54483,3.2,2.836,264.2,12,3,1.2,22,2.8367,0,0.0,8.0603,8.05,23
4968923,1506794260017,,,,,,,,-0.07,0.1,1.07,0.5,0.8,-0.6,740,211,,,,,,,,,,,,,,,,,,,
4968943,1506794260037,,,,,,,,-0.09,0.12,1.14,0.6,0.7,-0.7,740,206,,,,,,,,,,,,,,,,,,,
4968963,1506794260057,,,,,,,,-0.1,0.1,1.15,0.8,0.5,-0.8,740,206,,,,,,,,,,,,,,,,,,,
4968983,1506794260077,,,,,,,,-0.1,0.11,1.13,1.0,-0.0,-0.9,740,212,,,,,,,,,,,,,,,,,,,
4969005,1506794260105,,,,,10,,,-0.06,0.13,1.13,1.1,0.5,-0.8,740,218,0,1,3.575,0,35.490273,-119.54483,3.1,2.836,264.0,12,3,1.2,22,2.8367,0,0.0,8.0621,8.0517,23
4969024,1506794260124,,,,,,,,-0.07,0.14,1.18,1.3,0.3,-0.9,740,217,,,,,,,,,,,,,,,,,,,
4969044,1506794260144,,,,,,,,-0.08,0.14,1.15,1.6,-0.2,-1.1,740,217,,,,,,,,,,,,,,,,,,,
4969064,1506794260164,,,,,,,,-0.07,0.14,1.12,1.9,-0.3,-1.1,740,220,,,,,,,,,,,,,,,,,,,
4969084,1506794260184,,,,,,,,-0.05,0.14,1.08,2.2,0.4,-1.0,740,222,,,,,,,,,,,,,,,,,,,
4969106,1506794260206,0,195.8,,201.4,9,207.8,,-0.06,0.14,1.1,2.4,-0.1,-1.0,720,223,0,1,3.426,1,35.490273,-119.54483,3.3,2.836,263.9,12,3,1.2,22,2.8367,0,0.0,8.0638,8.0533,23
4969125,1506794260225,,,,,,,,-0.05,0.13,1.08,2.6,-0.5,-1.1,740,225,,,,,,,,,,,,,,,,,,,
4969145,1506794260245,,,,,,,,-0.04,0.12,1.08,2.8,-0.1,-1.1,740,226,,,,,,,,,,,,,,,,,,,
4969165,1506794260265,,,,,,,,-0.05,0.12,1.04,2.9,0.2,-1.0,720,225,,,,,,,,,,,,,,,,,,,
4969185,1506794260285,,,,,,,,-0.07,0.11,1.04,3.1,-0.3,-1.0,740,228,,,,,,,,,,,,,,,,,,,
4969207,1506794260307,,,,,11,,,-0.05,0.12,1.01,3.3,-0.7,-1.2,740,231,0,1,3.229,1,35.490276,-119.54483,3.45,2.836,263.8,12,3,1.2,22,2.8367,0,0.0,8.0655,8.055,23
4969226,1506794260326,,,,,,,,-0.04,0.1,1.01,3.4,-0.4,-1.2,740,232,,,,,,,,,,,,,,,,,,,
4969246,1506794260346,,,,,,,,-0.05,0.08,0.99,3.5,0.1,-1.1,760,231,,,,,,,,,,,,,,,,,,,
4969266,1506794260366,,,,,,,,-0.06,0.07,0.99,3.7,-0.5,-1.0,740,232,,,,,,,,,,,,,,,,,,,
4969286,1506794260386,,,,,,,,-0.05,0.06,0.99,3.9,-0.6,-1.2,760,237,,,,,,,,,,,,,,,,,,,
