"Interval"|"ms"|0|0|1,"Utc"|"ms"|0|0|1,"FuelLevel"|"F"|0|100|5,"OilTemp"|"F"|0.0|300.0|5,"CoolantPressPSI"|"PSI"|0.0|20.0|1,"Coolant"|"F"|0.0|300.0|5,"OilPress"|"PSI"|0|150|10,"EngineTemp"|"F"|0.0|300.0|5,"Battery"|"Volts"|0.0|20.0|1,"AccelX"|"G"|-3.0|3.0|50,"AccelY"|"G"|-3.0|3.0|50,"AccelZ"|"G"|-3.0|3.0|50,"Yaw"|"Deg/Sec"|-300.0|300.0|50,"Pitch"|"Deg/Sec"|-300.0|300.0|50,"Roll"|"Deg/Sec"|-300.0|300.0|50,"RPM"|""|0|10000|50,"Driveshaft"|"RPM"|0|5000|50,"GPIO1"|""|0|1|10,"GPIO2"|""|0|1|10,"GearRatio"|""|-5.0|5.0|10,"Gear"|""|-1|5|10,"Latitude"|"Degrees"|-180.0|180.0|10,"Longitude"|"Degrees"|-180.0|180.0|10,"Speed"|"mph"|0.0|150.0|10,"Distance"|"mi"|0.0|0.0|10,"Altitude"|"ft"|0.0|4000.0|10,"GPSSats"|""|0|20|10,"GPSQual"|""|0|5|10,"GPSDOP"|""|0.0|20.0|10,"LapCount"|""|0|0|10,"LapTime"|"Min"|0.0|0.0|10,"Sector"|""|0|0|10,"SectorTime"|"Min"|0.0|0.0|10,"PredTime"|"Min"|0.0|0.0|10,"ElapsedTime"|"Min"|0.0|0.0|10,"CurrentLap"|""|0|0|10
11354,1506732859749,,,,,,,,-0.01,0.08,0.99,-3.0,-0.4,-0.2,720,2,,,,,,,,,,,,,,,,,,,
11374,1506732859787,,,,,49,,,-0.01,0.08,0.99,-3.0,-0.4,-0.2,720,2,1,1,720.0,0,35.490131,-119.544434,0.0,0.0,248.1,9,2,1.8,0,0.0,-1,0.0,0.0,0.0,0
11394,1506732859807,,,,,,,,-0.0,0.08,0.99,-3.0,-0.4,-0.2,700,2,,,,,,,,,,,,,,,,,,,
11414,1506732859827,,,,,,,,-0.01,0.08,0.98,-3.0,-0.4,-0.2,700,2,,,,,,,,,,,,,,,,,,,
11434,1506732859847,,,,,,,,-0.01,0.08,0.99,-3.0,-0.3,-0.2,700,2,,,,,,,,,,,,,,,,,,,
11454,1506732859867,,,,,,,,-0.01,0.08,0.99,-3.0,-0.2,-0.2,700,2,,,,,,,,,,,,,,,,,,,
11474,1506732859887,0,124.4,,157.9,51,144.1,,-0.01,0.09,0.99,-3.1,-0.3,-0.1,700,2,1,1,720.0,0,35.490131,-119.544434,0.0,0.0,249.5,9,2,1.8,0,0.0,-1,0.0,0.0,0.0,0
11494,1506732859907,,,,,,,,-0.01,0.08,0.99,-3.0,-0.4,-0.2,700,2,,,,,,,,,,,,,,,,,,,
11514,1506732859927,,,,,,,,-0.01,0.08,0.98,-3.1,-0.4,-0.2,700,2,,,,,,,,,,,,,,,,,,,
11534,1506732859947,,,,,,,,-0.0,0.08,0.98,-3.1,-0.4,-0.1,700,2,,,,,,,,,,,,,,,,,,,
11554,1506732859967,,,,,,,,-0.0,0.09,0.98,-3.1,-0.4,-0.1,700,2,,,,,,,,,,,,,,,,,,,
11574,1506732859987,,,,,50,,,-0.0,0.08,0.98,-3.0,-0.4,-0.2,700,2,1,1,700.0,0,35.490131,-119.544434,0.0,0.0,249.5,9,2,1.8,0,0.0,-1,0.0,0.0,0.0,0
11594,1506732860007,,,,,,,,-0.01,0.08,0.99,-3.1,-0.4,-0.2,700,2,,,,,,,,,,,,,,,,,,,
11614,1506732860027,,,,,,,,-0.01,0.08,0.99,-3.1,-0.4,-0.1,700,2,,,,,,,,,,,,,,,,,,,
11634,1506732860047,,,,,,,,-0.01,0.08,0.99,-3.0,-0.4,-0.2,700,2,,,,,,,,,,,,,,,,,,,
11654,1506732860067,,,,,,,,-0.01,0.08,0.99,-3.1,-0.5,-0.2,700,2,,,,,,,,,,,,,,,,,,,
11674,1506732860086,0,125.2,,157.6,50,142.8,,-0.01,0.08,0.98,-3.1,-0.5,-0.2,720,2,1,1,700.0,0,35.490131,-119.544434,0.0,0.0,248.7,9,2,1.8,0,0.0,-1,0.0,0.0,0.0,0
11694,1506732860106,,,,,,,,-0.01,0.08,0.98,-3.0,-0.5,-0.2,700,2,,,,,,,,,,,,,,,,,,,
11714,1506732860126,,,,,,,,-0.01,0.08,0.98,-3.0,-0.5,-0.2,720,2,,,,,,,,,,,,,,,,,,,
11734,1506732860146,,,,,,,,-0.01,0.08,0.98,-3.0,-0.4,-0.2,720,2,,,,,,,,,,,,,,,,,,,
11754,1506732860166,,,,,,,,-0.01,0.08,0.98,-3.0,-0.4,-0.2,700,2,,,,,,,,,,,,,,,,,,,
11774,1506732860184,,,,,49,,,-0.01,0.08,0.98,-3.0,-0.5,-0.2,700,2,1,1,720.0,0,35.490131,-119.544434,0.0,0.0,248.5,9,2,1.8,0,0.0,-1,0.0,0.0,0.0,0
11794,1506732860204,,,,,,,,-0.01,0.07,0.99,-3.0,-0.4,-0.2,700,2,,,,,,,,,,,,,,,,,,,
11814,1506732860224,,,,,,,,-0.01,0.08,0.99,-3.0,-0.4,-0.2,720,2,,,,,,,,,,,,,,,,,,,
11834,1506732860244,,,,,,,,-0.01,0.08,0.98,-3.0,-0.4,-0.2,720,2,,,,,,,,,,,,,,,,,,,
11854,1506732860264,,,,,,,,-0.01,0.07,0.98,-3.0,-0.5,-0.2,720,2,,,,,,,,,,,,,,,,,,,
11874,1506732860286,0,125.6,,158.4,50,143.9,,-0.01,0.08,0.98,-3.0,-0.5,-0.2,720,2,1,1,720.0,0,35.490131,-119.544434,0.0,0.0,248.2,9,2,1.8,0,0.0,-1,0.0,0.0,0.0,0
11894,1506732860306,,,,,,,,-0.01,0.08,0.98,-3.0,-0.5,-0.1,720,2,,,,,,,,,,,,,,,,,,,
11914,1506732860326,,,,,,,,-0.01,0.08,0.98,-3.0,-0.5,-0.1,720,2,,,,,,,,,,,,,,,,,,,
11934,1506732860346,,,,,,,,-0.01,0.08,0.98,-3.0,-0.4,-0.2,720,2,,,,,,,,,,,,,,,,,,,
11954,1506732860366,,,,,,,,-0.01,0.08,0.99,-3.0,-0.4,-0.2,720,2,,,,,,,,,,,,,,,,,,,
11974,1506732860384,,,,,49,,,-0.01,0.08,0.99,-3.0,-0.4,-0.2,720,2,1,1,720.0,0,35.490131,-119.544434,0.0,0.0,248.0,9,2,1.8,0,0.0,-1,0.0,0.0,0.0,0
11994,1506732860404,,,,,,,,-0.01,0.08,0.99,-3.0,-0.5,-0.2,720,2,,,,,,,,,,,,,,,,,,,
12014,1506732860424,,,,,,,,-0.01,0.08,0.99,-3.0,-0.5,-0.2,720,2,,,,,,,,,,,,,,,,,,,
12034,1506732860444,,,,,,,,-0.01,0.08,0.99,-3.1,-0.5,-0.1,720,2,,,,,,,,,,,,,,,,,,,
12054,1506732860464,,,,,,,,-0.01,0.08,0.99,-3.1,-0.4,-0.1,720,2,,,,,,,,,,,,,,,,,,,
12074,1506732860486,0,125.0,-0.4,158.0,50,143.8,14.61,-0.01,0.08,0.99,-3.1,-0.5,-0.2,720,2,1,1,720.0,0,35.490131,-119.544434,0.0,0.0,248.0,9,2,1.8,0,0.0,-1,0.0,0.0,0.0,0
12094,1506732860506,,,,,,,,-0.01,0.08,0.99,-3.1,-0.5,-0.2,720,2,,,,,,,,,,,,,,,,,,,
12114,1506732860526,,,,,,,,-0.01,0.08,0.99,-3.1,-0.5,-0.2,720,2,,,,,,,,,,,,,,,,,,,
12134,1506732860546,,,,,,,,-0.01,0.08,0.98,-3.0,-0.5,-0.2,720,2,,,,,,,,,,,,,,,,,,,
12154,1506732860566,,,,,,,,-0.01,0.08,0.99,-3.0,-0.5,-0.2,720,2,,,,,,,,,,,,,,,,,,,
12174,1506732860586,,,,,49,,,-0.01,0.08,0.99,-3.0,-0.5,-0.2,720,153846,1,1,720.0,0,35.490131,-119.544434,0.0,0.0,248.2,9,2,1.8,0,0.0,-1,0.0,0.0,0.0,0
12194,1506732860606,,,,,,,,-0.01,0.08,0.99,-3.0,-0.5,-0.2,720,0,,,,,,,,,,,,,,,,,,,
12214,1506732860626,,,,,,,,-0.01,0.07,0.98,-3.0,-0.6,-0.3,720,0,,,,,,,,,,,,,,,,,,,
12234,1506732860646,,,,,,,,-0.01,0.07,0.99,-3.1,-0.6,-0.3,720,0,,,,,,,,,,,,,,,,,,,
12254,1506732860666,,,,,,,,-0.01,0.07,0.98,-3.1,-0.5,-0.2,720,0,,,,,,,,,,,,,,,,,,,
12274,1506732860680,0,124.5,,157.4,48,143.2,,-0.01,0.07,0.97,-3.1,-0.4,-0.2,720,0,1,1,0.0,0,35.490131,-119.544434,0.0,0.0,248.2,9,2,1.8,0,0.0,-1,0.0,0.0,0.0,0
12294,1506732860700,,,,,,,,-0.01,0.07,0.98,-3.0,-0.4,-0.3,720,0,,,,,,,,,,,,,,,,,,,
12314,1506732860720,,,,,,,,-0.02,0.07,0.98,-3.0,-0.5,-0.2,720,0,,,,,,,,,,,,,,,,,,,
12334,1506732860740,,,,,,,,-0.01,0.08,0.98,-3.1,-0.4,-0.2,720,0,,,,,,,,,,,,,,,,,,,
12354,1506732860760,,,,,,,,-0.01,0.07,0.98,-3.0,-0.4,-0.2,720,0,,,,,,,,,,,,,,,,,,,
12374,1506732860784,,,,,49,,,-0.01,0.07,0.99,-3.0,-0.3,-0.2,720,0,1,1,0.0,0,35.490131,-119.544434,0.0,0.0,248.2,9,2,1.8,0,0.0,-1,0.0,0.0,0.0,0
12394,1506732860804,,,,,,,,-0.01,0.08,0.99,-3.0,-0.3,-0.1,720,0,,,,,,,,,,,,,,,,,,,
12414,1506732860824,,,,,,,,-0.01,0.08,0.99,-3.1,-0.4,-0.1,700,0,,,,,,,,,,,,,,,,,,,
12434,1506732860844,,,,,,,,-0.01,0.07,0.99,-3.1,-0.5,-0.2,700,0,,,,,,,,,,,,,,,,,,,
12454,1506732860864,,,,,,,,-0.01,0.08,0.99,-3.1,-0.4,-0.2,700,0,,,,,,,,,,,,,,,,,,,
12474,1506732860884,0,125.6,,158.4,50,143.5,,-0.01,0.08,0.99,-3.1,-0.4,-0.1,720,0,1,1,0.0,0,35.490131,-119.544434,0.0,0.0,248.2,9,2,1.8,0,0.0,-1,0.0,0.0,0.0,0
12494,1506732860904,,,,,,,,-0.01,0.08,0.99,-3.1,-0.5,-0.1,720,0,,,,,,,,,,,,,,,,,,,
12514,1506732860924,,,,,,,,-0.01,0.08,1.0,-3.1,-0.4,-0.2,720,0,,,,,,,,,,,,,,,,,,,
12534,1506732860944,,,,,,,,-0.01,0.08,1.0,-3.1,-0.4,-0.2,700,0,,,,,,,,,,,,,,,,,,,
12554,1506732860964,,,,,,,,-0.01,0.08,1.0,-3.1,-0.5,-0.1,700,0,,,,,,,,,,,,,,,,,,,
12574,1506732860984,,,,,52,,,-0.01,0.08,0.99,-3.0,-0.5,-0.1,700,0,1,1,0.0,0,35.490131,-119.544434,0.0,0.0,248.2,9,2,1.8,0,0.0,-1,0.0,0.0,0.0,0
12594,1506732861004,,,,,,,,-0.01,0.08,0.99,-3.1,-0.5,-0.1,700,0,,,,,,,,,,,,,,,,,,,
12614,1506732861024,,,,,,,,-0.01,0.08,0.99,-3.1,-0.5,-0.1,700,0,,,,,,,,,,,,,,,,,,,
12634,1506732861044,,,,,,,,-0.01,0.09,0.99,-3.1,-0.5,-0.1,720,0,,,,,,,,,,,,,,,,,,,
12654,1506732861064,,,,,,,,-0.01,0.08,0.99,-3.0,-0.5,-0.1,720,0,,,,,,,,,,,,,,,,,,,
12674,1506732861083,0,124.8,,157.4,50,143.0,,-0.01,0.09,0.99,-3.0,-0.4,-0.1,720,0,1,1,0.0,0,35.490131,-119.544434,0.0,0.0,248.4,10,2,1.7,0,0.0,-1,0.0,0.0,0.0,0
12694,1506732861103,,,,,,,,-0.01,0.09,0.98,-3.0,-0.5,-0.1,720,0,,,,,,,,,,,,,,,,,,,
12714,1506732861123,,,,,,,,-0.01,0.09,0.98,-3.0,-0.5,-0.1,720,0,,,,,,,,,,,,,,,,,,,
12734,1506732861143,,,,,,,,-0.01,0.09,0.99,-3.1,-0.5,-0.2,720,0,,,,,,,,,,,,,,,,,,,
12754,1506732861163,,,,,,,,-0.01,0.09,0.99,-3.1,-0.5,-0.1,720,0,,,,,,,,,,,,,,,,,,,
12774,1506732861183,,,,,48,,,-0.01,0.09,0.98,-3.1,-0.5,-0.1,720,0,1,1,0.0,0,35.490131,-119.544434,0.0,0.0,248.4,10,2,1.7,0,0.0,-1,0.0,0.0,0.0,0
12794,1506732861203,,,,,,,,-0.01,0.08,0.98,-3.1,-0.5,-0.2,720,0,,,,,,,,,,,,,,,,,,,
12814,1506732861223,,,,,,,,-0.01,0.08,0.98,-3.1,-0.6,-0.1,720,0,,,,,,,,,,,,,,,,,,,
12834,1506732861243,,,,,,,,-0.01,0.08,0.98,-3.1,-0.6,-0.1,720,0,,,,,,,,,,,,,,,,,,,
12854,1506732861263,,,,,,,,-0.01,0.08,0.98,-3.1,-0.5,-0.1,720,0,,,,,,,,,,,,,,,,,,,
12874,1506732861283,0,125.7,,158.3,50,143.8,,-0.01,0.08,0.98,-3.0,-0.5,-0.1,720,0,1,1,0.0,0,35.490131,-119.544434,0.0,0.0,248.4,10,2,1.7,0,0.0,-1,0.0,0.0,0.0,0
12894,1506732861303,,,,,,,,-0.01,0.08,0.99,-3.1,-0.4,-0.1,720,0,,,,,,,,,,,,,,,,,,,
12914,1506732861323,,,,,,,,-0.01,0.07,0.98,-3.1,-0.5,-0.1,700,0,,,,,,,,,,,,,,,,,,,
12934,1506732861343,,,,,,,,-0.01,0.07,0.98,-3.0,-0.5,-0.2,700,0,,,,,,,,,,,,,,,,,,,
12954,1506732861363,,,,,,,,-0.01,0.07,0.99,-3.1,-0.5,-0.2,700,0,,,,,,,,,,,,,,,,,,,
12974,1506732861383,,,,,47,,,-0.01,0.08,0.99,-3.1,-0.4,-0.1,720,0,1,1,0.0,0,35.490131,-119.544434,0.0,0.0,248.4,10,2,1.7,0,0.0,-1,0.0,0.0,0.0,0
12994,1506732861403,,,,,,,,-0.01,0.08,0.98,-3.1,-0.4,-0.1,720,0,,,,,,,,,,,,,,,,,,,
13014,1506732861423,,,,,,,,-0.01,0.07,0.99,-3.1,-0.5,-0.2,720,0,,,,,,,,,,,,,,,,,,,
13034,1506732861443,,,,,,,,-0.01,0.07,0.99,-3.1,-0.4,-0.2,720,0,,,,,,,,,,,,,,,,,,,
13054,1506732861463,,,,,,,,-0.01,0.09,0.99,-3.1,-0.5,-0.1,720,0,,,,,,,,,,,,,,,,,,,
13074,1506732861481,0,125.6,-0.3,158.4,50,144.1,14.59,-0.01,0.09,0.99,-3.1,-0.4,-0.1,720,0,1,1,0.0,0,35.490131,-119.544434,0.0,0.0,248.4,10,2,1.7,0,0.0,-1,0.0,0.0,0.0,0
13094,1506732861501,,,,,,,,-0.01,0.09,0.99,-3.1,-0.4,-0.2,720,0,,,,,,,,,,,,,,,,,,,
13114,1506732861521,,,,,,,,-0.01,0.09,0.99,-3.1,-0.4,-0.2,720,0,,,,,,,,,,,,,,,,,,,
13134,1506732861541,,,,,,,,-0.0,0.09,0.99,-3.1,-0.5,-0.1,720,0,,,,,,,,,,,,,,,,,,,
13154,1506732861561,,,,,,,,-0.0,0.09,1.0,-3.1,-0.5,-0.1,720,0,,,,,,,,,,,,,,,,,,,
13174,1506732861583,,,,,50,,,-0.01,0.09,1.0,-3.1,-0.5,-0.1,720,0,1,1,0.0,0,35.490131,-119.544434,0.0,0.0,248.4,10,2,1.7,0,0.0,-1,0.0,0.0,0.0,0
13194,1506732861603,,,,,,,,-0.01,0.09,0.99,-3.1,-0.5,-0.1,720,0,,,,,,,,,,,,,,,,,,,
13214,1506732861623,,,,,,,,-0.01,0.09,0.99,-3.1,-0.4,-0.2,700,0,,,,,,,,,,,,,,,,,,,
13234,1506732861643,,,,,,,,-0.01,0.08,1.0,-3.0,-0.4,-0.2,700,0,,,,,,,,,,,,,,,,,,,
13254,1506732861663,,,,,,,,-0.01,0.08,1.0,-3.0,-0.4,-0.2,700,0,,,,,,,,,,,,,,,,,,,
13274,1506732861677,0,125.6,,158.2,49,143.1,,-0.01,0.09,1.0,-3.0,-0.4,-0.2,720,0,1,1,0.0,0,35.490131,-119.544434,0.0,0.0,248.4,10,2,1.7,0,0.0,-1,0.0,0.0,0.0,0
13294,1506732861697,,,,,,,,-0.01,0.08,0.99,-3.0,-0.4,-0.2,720,0,,,,,,,,,,,,,,,,,,,
13314,1506732861717,,,,,,,,-0.01,0.08,1.0,-3.0,-0.4,-0.2,720,0,,,,,,,,,,,,,,,,,,,
13334,1506732861737,,,,,,,,-0.01,0.09,1.0,-3.1,-0.5,-0.2,720,0,,,,,,,,,,,,,,,,,,,
13354,1506732861757,,,,,,,,-0.01,0.08,0.99,-3.1,-0.5,-0.2,720,0,,,,,,,,,,,,,,,,,,,
13374,1506732861783,,,,,48,,,-0.01,0.08,0.99,-3.0,-0.5,-0.2,720,0,1,1,0.0,0,35.490131,-119.544434,0.0,0.0,248.4,10,2,1.7,0,0.0,-1,0.0,0.0,0.0,0
13394,1506732861803,,,,,,,,-0.01,0.08,0.99,-3.1,-0.5,-0.2,720,0,,,,,,,,,,,,,,,,,,,
13414,1506732861823,,,,,,,,-0.01,0.08,0.99,-3.1,-0.5,-0.2,720,0,,,,,,,,,,,,,,,,,,,
13434,1506732861843,,,,,,,,-0.01,0.09,0.99,-3.0,-0.4,-0.2,720,0,,,,,,,,,,,,,,,,,,,
13454,1506732861863,,,,,,,,-0.01,0.08,1.0,-3.0,-0.4,-0.2,720,0,,,,,,,,,,,,,,,,,,,
13474,1506732861885,0,125.3,,157.6,50,143.0,,-0.01,0.08,1.0,-3.0,-0.4,-0.2,720,0,1,1,0.0,0,35.490131,-119.544434,0.0,0.0,248.4,10,2,1.7,0,0.0,-1,0.0,0.0,0.0,0
13494,1506732861905,,,,,,,,-0.01,0.08,1.0,-3.0,-0.4,-0.2,720,0,,,,,,,,,,,,,,,,,,,
13514,1506732861925,,,,,,,,-0.01,0.09,1.0,-3.0,-0.4,-0.2,720,0,,,,,,,,,,,,,,,,,,,
13534,1506732861945,,,,,,,,-0.01,0.09,1.0,-3.0,-0.4,-0.2,720,0,,,,,,,,,,,,,,,,,,,
13554,1506732861965,,,,,,,,-0.0,0.09,1.0,-3.0,-0.4,-0.1,720,0,,,,,,,,,,,,,,,,,,,
13574,1506732861983,,,,,52,,,-0.0,0.09,0.99,-3.0,-0.5,-0.1,720,0,1,1,0.0,0,35.490131,-119.544434,0.0,0.0,248.4,10,2,1.7,0,0.0,-1,0.0,0.0,0.0,0
13594,1506732862003,,,,,,,,-0.01,0.08,0.99,-3.0,-0.5,-0.2,720,0,,,,,,,,,,,,,,,,,,,
13614,1506732862023,,,,,,,,-0.01,0.09,0.99,-3.0,-0.4,-0.2,720,0,,,,,,,,,,,,,,,,,,,
13634,1506732862043,,,,,,,,-0.01,0.09,0.99,-3.0,-0.4,-0.1,720,0,,,,,,,,,,,,,,,,,,,
13654,1506732862063,,,,,,,,-0.01,0.09,0.99,-3.0,-0.5,-0.1,720,0,,,,,,,,,,,,,,,,,,,
13674,1506732862083,0,125.7,,158.4,50,144.0,,-0.01,0.09,0.99,-3.0,-0.4,-0.1,720,0,1,1,0.0,0,35.490131,-119.544434,0.0,0.0,248.4,10,2,1.7,0,0.0,-1,0.0,0.0,0.0,0
13694,1506732862103,,,,,,,,-0.01,0.09,0.99,-3.0,-0.4,-0.1,720,0,,,,,,,,,,,,,,,,,,,
13714,1506732862123,,,,,,,,-0.01,0.09,0.99,-3.0,-0.4,-0.1,720,0,,,,,,,,,,,,,,,,,,,
13734,1506732862143,,,,,,,,-0.01,0.08,0.99,-3.0,-0.4,-0.2,700,0,,,,,,,,,,,,,,,,,,,
13754,1506732862163,,,,,,,,-0.01,0.09,0.99,-3.0,-0.5,-0.2,700,0,,,,,,,,,,,,,,,,,,,
13774,1506732862182,,,,,49,,,-0.0,0.09,0.99,-3.1,-0.5,-0.1,700,0,1,1,0.0,0,35.490131,-119.544434,0.0,0.0,248.4,10,2,1.7,0,0.0,-1,0.0,0.0,0.0,0
13794,1506732862202,,,,,,,,-0.01,0.09,0.99,-3.1,-0.5,-0.1,720,0,,,,,,,,,,,,,,,,,,,
13814,1506732862222,,,,,,,,-0.01,0.08,0.99,-3.0,-0.5,-0.2,720,0,,,,,,,,,,,,,,,,,,,
13834,1506732862242,,,,,,,,-0.01,0.08,0.99,-3.1,-0.5,-0.2,720,0,,,,,,,,,,,,,,,,,,,
13854,1506732862262,,,,,,,,-0.01,0.08,0.98,-3.0,-0.5,-0.2,720,0,,,,,,,,,,,,,,,,,,,
13874,1506732862282,0,125.0,,157.5,50,143.0,,-0.01,0.08,0.98,-3.0,-0.5,-0.2,720,0,1,1,0.0,0,35.490131,-119.544434,0.0,0.0,248.4,10,2,1.7,0,0.0,-1,0.0,0.0,0.0,0
13894,1506732862304,,,,,,,,-0.01,0.08,0.98,-3.0,-0.5,-0.2,720,0,,,,,,,,,,,,,,,,,,,
13914,1506732862324,,,,,,,,-0.01,0.08,0.98,-3.0,-0.5,-0.2,700,0,,,,,,,,,,,,,,,,,,,
13934,1506732862344,,,,,,,,-0.01,0.08,0.97,-3.1,-0.5,-0.2,700,0,,,,,,,,,,,,,,,,,,,
13954,1506732862364,,,,,,,,-0.01,0.08,0.97,-3.1,-0.5,-0.3,720,0,,,,,,,,,,,,,,,,,,,
13974,1506732862384,,,,,55,,,-0.01,0.07,0.98,-3.1,-0.5,-0.2,720,0,1,1,0.0,0,35.490131,-119.544434,0.0,0.0,248.4,10,2,1.7,0,0.0,-1,0.0,0.0,0.0,0
13994,1506732862404,,,,,,,,-0.01,0.08,0.97,-3.1,-0.5,-0.2,720,0,,,,,,,,,,,,,,,,,,,
14014,1506732862424,,,,,,,,-0.01,0.07,0.97,-3.1,-0.4,-0.2,720,0,,,,,,,,,,,,,,,,,,,
14034,1506732862444,,,,,,,,-0.01,0.07,0.98,-3.0,-0.4,-0.2,720,0,,,,,,,,,,,,,,,,,,,
14054,1506732862464,,,,,,,,-0.01,0.07,0.98,-3.0,-0.3,-0.2,720,0,,,,,,,,,,,,,,,,,,,
14074,1506732862484,0,124.6,-0.5,157.6,50,143.6,14.63,-0.01,0.07,0.97,-3.1,-0.4,-0.2,720,0,1,1,0.0,0,35.490131,-119.544434,0.0,0.0,248.4,10,2,1.7,0,0.0,-1,0.0,0.0,0.0,0
14094,1506732862504,,,,,,,,-0.01,0.07,0.98,-3.1,-0.4,-0.2,720,0,,,,,,,,,,,,,,,,,,,
14114,1506732862524,,,,,,,,-0.01,0.07,0.98,-3.1,-0.4,-0.2,720,0,,,,,,,,,,,,,,,,,,,
14134,1506732862544,,,,,,,,-0.01,0.08,0.98,-3.1,-0.3,-0.1,720,0,,,,,,,,,,,,,,,,,,,
14154,1506732862564,,,,,,,,-0.01,0.07,0.97,-3.0,-0.4,-0.1,720,0,,,,,,,,,,,,,,,,,,,
14174,1506732862584,,,,,52,,,-0.01,0.07,0.97,-3.0,-0.5,-0.1,720,0,1,1,0.0,0,35.490131,-119.544434,0.0,0.0,248.4,10,2,1.7,0,0.0,-1,0.0,0.0,0.0,0
14194,1506732862604,,,,,,,,-0.01,0.08,0.98,-3.1,-0.4,-0.1,720,0,,,,,,,,,,,,,,,,,,,
14214,1506732862624,,,,,,,,-0.0,0.08,0.97,-3.1,-0.4,-0.1,720,0,,,,,,,,,,,,,,,,,,,
14234,1506732862644,,,,,,,,-0.01,0.08,0.97,-3.1,-0.4,-0.1,720,0,,,,,,,,,,,,,,,,,,,
14254,1506732862664,,,,,,,,-0.01,0.08,0.98,-3.0,-0.3,-0.1,720,0,,,,,,,,,,,,,,,,,,,
14274,1506732862684,0,125.6,,158.3,50,143.1,,-0.01,0.08,0.98,-3.0,-0.3,-0.1,700,0,1,1,0.0,0,35.490131,-119.544434,0.0,0.0,248.4,10,2,1.7,0,0.0,-1,0.0,0.0,0.0,0
14294,1506732862704,,,,,,,,-0.01,0.08,0.98,-3.1,-0.3,-0.1,720,0,,,,,,,,,,,,,,,,,,,
14314,1506732862724,,,,,,,,-0.01,0.08,0.98,-3.1,-0.3,-0.1,720,0,,,,,,,,,,,,,,,,,,,
14334,1506732862744,,,,,,,,-0.01,0.08,0.98,-3.1,-0.3,-0.1,720,0,,,,,,,,,,,,,,,,,,,
14354,1506732862764,,,,,,,,-0.0,0.08,0.98,-3.1,-0.3,-0.1,720,0,,,,,,,,,,,,,,,,,,,
14374,1506732862784,,,,,50,,,-0.01,0.08,0.98,-3.1,-0.3,-0.1,720,0,1,1,0.0,0,35.490131,-119.544434,0.0,0.0,248.4,10,2,1.7,0,0.0,-1,0.0,0.0,0.0,0
14394,1506732862804,,,,,,,,-0.01,0.08,0.98,-3.1,-0.3,-0.1,720,0,,,,,,,,,,,,,,,,,,,
14414,1506732862824,,,,,,,,-0.01,0.07,0.99,-3.1,-0.3,-0.1,720,0,,,,,,,,,,,,,,,,,,,
14434,1506732862844,,,,,,,,-0.01,0.08,0.99,-3.0,-0.3,-0.1,720,0,,,,,,,,,,,,,,,,,,,
14454,1506732862864,,,,,,,,-0.01,0.08,0.99,-3.1,-0.4,-0.1,720,0,,,,,,,,,,,,,,,,,,,
14474,1506732862884,0,124.6,,157.7,51,143.6,,-0.01,0.08,0.99,-3.1,-0.4,-0.2,720,0,1,1,0.0,0,35.490131,-119.544434,0.0,0.0,248.4,10,2,1.7,0,0.0,-1,0.0,0.0,0.0,0
14494,1506732862904,,,,,,,,-0.01,0.09,0.99,-3.0,-0.4,-0.2,720,0,,,,,,,,,,,,,,,,,,,
14514,1506732862924,,,,,,,,-0.01,0.09,0.99,-3.0,-0.4,-0.1,720,0,,,,,,,,,,,,,,,,,,,
14534,1506732862944,,,,,,,,-0.01,0.08,0.99,-3.0,-0.6,-0.2,720,0,,,,,,,,,,,,,,,,,,,
14554,1506732862964,,,,,,,,-0.01,0.09,0.99,-3.1,-0.6,-0.2,720,0,,,,,,,,,,,,,,,,,,,
14574,1506732862984,,,,,49,,,-0.01,0.08,0.99,-3.1,-0.6,-0.2,720,0,1,1,0.0,0,35.490131,-119.544434,0.0,0.0,248.4,10,2,1.7,0,0.0,-1,0.0,0.0,0.0,0
14594,1506732862998,,,,,,,,-0.01,0.09,0.98,-3.1,-0.6,-0.2,720,0,,,,,,,,,,,,,,,,,,,
14614,1506732863018,,,,,,,,-0.01,0.08,0.98,-3.1,-0.6,-0.2,720,0,,,,,,,,,,,,,,,,,,,
14634,1506732863038,,,,,,,,-0.01,0.08,0.98,-3.1,-0.5,-0.2,720,0,,,,,,,,,,,,,,,,,,,
14654,1506732863058,,,,,,,,-0.01,0.08,0.98,-3.1,-0.5,-0.2,720,0,,,,,,,,,,,,,,,,,,,
14674,1506732863078,0,125.5,,158.2,49,144.1,,-0.01,0.08,0.98,-3.1,-0.5,-0.2,720,0,1,1,0.0,0,35.490131,-119.544434,0.0,0.0,248.4,10,2,1.7,0,0.0,-1,0.0,0.0,0.0,0
14694,1506732863103,,,,,,,,-0.01,0.08,0.99,-3.1,-0.5,-0.2,720,0,,,,,,,,,,,,,,,,,,,
14714,1506732863123,,,,,,,,-0.01,0.08,0.99,-3.1,-0.4,-0.2,720,0,,,,,,,,,,,,,,,,,,,
14734,1506732863143,,,,,,,,-0.01,0.08,0.99,-3.1,-0.5,-0.1,720,0,,,,,,,,,,,,,,,,,,,
14754,1506732863163,,,,,,,,-0.01,0.08,0.98,-3.1,-0.5,-0.2,720,0,,,,,,,,,,,,,,,,,,,
14774,1506732863183,,,,,51,,,-0.01,0.08,0.98,-3.1,-0.5,-0.2,720,0,1,1,0.0,0,35.490131,-119.544434,0.0,0.0,248.4,10,2,1.7,0,0.0,-1,0.0,0.0,0.0,0
14794,1506732863203,,,,,,,,-0.01,0.08,0.99,-3.1,-0.5,-0.2,720,0,,,,,,,,,,,,,,,,,,,
14814,1506732863223,,,,,,,,-0.01,0.08,0.98,-3.1,-0.5,-0.1,720,0,,,,,,,,,,,,,,,,,,,
14834,1506732863243,,,,,,,,-0.01,0.08,0.99,-3.1,-0.5,-0.2,720,0,,,,,,,,,,,,,,,,,,,
14854,1506732863263,,,,,,,,-0.01,0.08,0.98,-3.1,-0.5,-0.1,720,0,,,,,,,,,,,,,,,,,,,
14874,1506732863283,0,125.1,,158.0,51,144.1,,-0.0,0.08,0.99,-3.1,-0.4,-0.1,720,14,1,1,0.0,0,35.490131,-119.544434,0.0,0.0,248.4,10,2,1.7,0,0.0,-1,0.0,0.0,0.0,0
14894,1506732863303,,,,,,,,-0.01,0.07,0.99,-3.2,-0.5,-0.1,720,14,,,,,,,,,,,,,,,,,,,
14914,1506732863323,,,,,,,,-0.02,0.07,1.0,-3.1,-0.6,-0.1,720,14,,,,,,,,,,,,,,,,,,,
14934,1506732863343,,,,,,,,-0.02,0.07,1.0,-3.1,-0.6,-0.1,720,14,,,,,,,,,,,,,,,,,,,
14954,1506732863363,,,,,,,,-0.02,0.07,1.0,-3.1,-0.7,-0.1,720,14,,,,,,,,,,,,,,,,,,,
14974,1506732863383,,,,,52,,,-0.01,0.08,0.99,-3.1,-0.6,-0.1,740,14,1,1,55.385,0,35.490131,-119.544434,0.0,0.0,248.4,10,2,1.7,0,0.0,-1,0.0,0.0,0.0,0
14994,1506732863401,,,,,,,,-0.0,0.08,1.0,-3.1,-0.4,-0.1,720,14,,,,,,,,,,,,,,,,,,,
15014,1506732863421,,,,,,,,-0.0,0.08,1.0,-3.0,-0.4,-0.1,720,14,,,,,,,,,,,,,,,,,,,
15034,1506732863441,,,,,,,,0.0,0.09,0.99,-3.1,-0.4,-0.1,720,14,,,,,,,,,,,,,,,,,,,
15054,1506732863461,,,,,,,,-0.0,0.08,1.0,-3.1,-0.4,-0.2,720,14,,,,,,,,,,,,,,,,,,,
15074,1506732863481,0,125.3,-0.4,158.1,51,144.1,14.51,-0.0,0.07,1.0,-3.0,-0.2,-0.2,720,14,1,1,55.385,0,35.490131,-119.544434,0.0,0.0,248.4,10,2,1.7,0,0.0,-1,0.0,0.0,0.0,0
15094,1506732863503,,,,,,,,-0.0,0.08,1.0,-3.0,-0.1,-0.1,720,14,,,,,,,,,,,,,,,,,,,
15114,1506732863523,,,,,,,,-0.0,0.08,1.0,-3.0,-0.2,-0.1,720,14,,,,,,,,,,,,,,,,,,,
15134,1506732863543,,,,,,,,-0.0,0.08,1.0,-3.0,-0.2,-0.1,740,14,,,,,,,,,,,,,,,,,,,
15154,1506732863563,,,,,,,,-0.0,0.08,1.0,-3.0,-0.1,-0.1,740,14,,,,,,,,,,,,,,,,,,,
15174,1506732863583,,,,,50,,,-0.0,0.08,1.0,-3.0,-0.1,-0.1,720,14,1,1,56.923,0,35.490131,-119.544434,0.0,0.0,248.4,10,2,1.7,0,0.0,-1,0.0,0.0,0.0,0
15194,1506732863605,,,,,,,,-0.0,0.08,0.99,-3.0,-0.1,-0.1,720,14,,,,,,,,,,,,,,,,,,,
15214,1506732863625,,,,,,,,-0.0,0.08,1.0,-3.0,-0.2,-0.2,720,14,,,,,,,,,,,,,,,,,,,
15234,1506732863645,,,,,,,,-0.01,0.08,1.0,-3.1,-0.3,-0.2,720,14,,,,,,,,,,,,,,,,,,,
15254,1506732863665,,,,,,,,-0.0,0.08,0.99,-3.1,-0.3,-0.2,720,14,,,,,,,,,,,,,,,,,,,
15274,1506732863685,0,125.7,,158.4,51,143.6,,-0.01,0.08,0.99,-3.1,-0.3,-0.2,720,14,1,1,55.385,0,35.490131,-119.544434,0.0,0.0,248.4,10,2,1.7,0,0.0,-1,0.0,0.0,0.0,0
15294,1506732863703,,,,,,,,-0.01,0.08,0.99,-3.0,-0.3,-0.2,720,14,,,,,,,,,,,,,,,,,,,
15314,1506732863723,,,,,,,,-0.01,0.08,0.99,-3.0,-0.3,-0.2,720,14,,,,,,,,,,,,,,,,,,,
15334,1506732863743,,,,,,,,-0.01,0.08,0.98,-3.0,-0.3,-0.2,720,14,,,,,,,,,,,,,,,,,,,
15354,1506732863763,,,,,,,,-0.01,0.07,0.98,-3.0,-0.4,-0.2,720,14,,,,,,,,,,,,,,,,,,,
15374,1506732863783,,,,,52,,,-0.01,0.07,0.98,-3.0,-0.4,-0.2,720,14,1,1,55.385,0,35.490131,-119.544434,0.0,0.0,248.4,10,2,1.7,0,0.0,-1,0.0,0.0,0.0,0
15394,1506732863805,,,,,,,,-0.01,0.08,0.98,-3.0,-0.4,-0.2,720,14,,,,,,,,,,,,,,,,,,,
15414,1506732863825,,,,,,,,-0.01,0.08,0.97,-3.1,-0.4,-0.2,720,14,,,,,,,,,,,,,,,,,,,
15434,1506732863845,,,,,,,,-0.01,0.07,0.97,-3.1,-0.4,-0.2,720,14,,,,,,,,,,,,,,,,,,,
15454,1506732863865,,,,,,,,-0.01,0.07,0.97,-3.1,-0.4,-0.2,720,14,,,,,,,,,,,,,,,,,,,
15474,1506732863885,0,125.9,,158.5,48,144.0,,-0.01,0.08,0.97,-3.1,-0.5,-0.2,720,14,1,1,55.385,0,35.490131,-119.544434,0.0,0.0,248.4,10,2,1.7,0,0.0,-1,0.0,0.0,0.0,0
15494,1506732863905,,,,,,,,-0.01,0.08,0.97,-3.1,-0.4,-0.2,720,14,,,,,,,,,,,,,,,,,,,
15514,1506732863925,,,,,,,,-0.01,0.07,0.98,-3.1,-0.3,-0.2,720,14,,,,,,,,,,,,,,,,,,,
15534,1506732863945,,,,,,,,-0.02,0.07,0.98,-3.1,-0.3,-0.3,720,14,,,,,,,,,,,,,,,,,,,
15554,1506732863965,,,,,,,,-0.01,0.07,0.98,-3.1,-0.3,-0.2,700,14,,,,,,,,,,,,,,,,,,,
15574,1506732863985,,,,,50,,,-0.01,0.07,0.98,-3.1,-0.4,-0.2,700,14,1,1,55.385,0,35.490131,-119.544434,0.0,0.0,248.4,10,2,1.7,0,0.0,-1,0.0,0.0,0.0,0
15594,1506732863999,,,,,,,,-0.01,0.07,0.98,-3.1,-0.4,-0.2,700,14,,,,,,,,,,,,,,,,,,,
15614,1506732864019,,,,,,,,-0.01,0.07,0.98,-3.1,-0.4,-0.2,700,14,,,,,,,,,,,,,,,,,,,
15634,1506732864039,,,,,,,,-0.01,0.08,0.98,-3.1,-0.3,-0.2,700,14,,,,,,,,,,,,,,,,,,,
15654,1506732864059,,,,,,,,-0.01,0.07,0.99,-3.1,-0.2,-0.2,700,14,,,,,,,,,,,,,,,,,,,
15674,1506732864079,0,124.7,,157.8,47,143.7,,-0.01,0.07,1.0,-3.1,-0.2,-0.3,700,14,1,1,53.846,0,35.490131,-119.544434,0.0,0.0,248.4,10,2,1.7,0,0.0,-1,0.0,0.0,0.0,0
15694,1506732864102,,,,,,,,-0.01,0.08,0.99,-3.1,-0.3,-0.2,680,14,,,,,,,,,,,,,,,,,,,
15714,1506732864122,,,,,,,,-0.01,0.08,0.99,-3.1,-0.4,-0.3,680,769231,,,,,,,,,,,,,,,,,,,
15734,1506732864142,,,,,,,,-0.01,0.08,0.99,-3.1,-0.5,-0.3,680,0,,,,,,,,,,,,,,,,,,,
15754,1506732864162,,,,,,,,-0.01,0.08,0.99,-3.0,-0.5,-0.3,680,0,,,,,,,,,,,,,,,,,,,
15774,1506732864182,,,,,50,,,-0.01,0.07,0.99,-3.0,-0.4,-0.3,680,0,1,1,0.0,0,35.490131,-119.544434,0.0,0.0,248.4,10,2,1.7,0,0.0,-1,0.0,0.0,0.0,0
15794,1506732864200,,,,,,,,-0.01,0.08,0.99,-3.0,-0.3,-0.4,680,0,,,,,,,,,,,,,,,,,,,
15814,1506732864220,,,,,,,,-0.0,0.08,0.99,-3.0,-0.5,-0.4,680,0,,,,,,,,,,,,,,,,,,,
15834,1506732864240,,,,,,,,-0.01,0.08,0.99,-2.9,-0.5,-0.4,660,0,,,,,,,,,,,,,,,,,,,
15854,1506732864260,,,,,,,,-0.01,0.08,0.99,-2.9,-0.4,-0.4,660,0,,,,,,,,,,,,,,,,,,,
15874,1506732864280,0,125.4,,157.7,49,142.9,,-0.0,0.08,0.99,-2.9,-0.4,-0.4,660,0,1,1,0.0,0,35.490131,-119.544434,0.0,0.0,248.4,10,2,1.7,0,0.0,-1,0.0,0.0,0.0,0
15894,1506732864302,,,,,,,,-0.01,0.08,0.99,-2.9,-0.5,-0.4,660,0,,,,,,,,,,,,,,,,,,,
15914,1506732864322,,,,,,,,-0.01,0.08,0.99,-2.9,-0.4,-0.5,660,0,,,,,,,,,,,,,,,,,,,
15934,1506732864342,,,,,,,,-0.01,0.09,0.98,-2.9,-0.3,-0.4,660,0,,,,,,,,,,,,,,,,,,,
15954,1506732864362,,,,,,,,-0.01,0.08,0.98,-2.9,-0.5,-0.4,660,0,,,,,,,,,,,,,,,,,,,
15974,1506732864382,,,,,49,,,-0.01,0.08,0.99,-2.9,-0.5,-0.5,660,0,1,1,0.0,0,35.490131,-119.544434,0.0,0.0,248.4,10,2,1.7,0,0.0,-1,0.0,0.0,0.0,0
15994,1506732864402,,,,,,,,-0.01,0.08,0.99,-2.9,-0.4,-0.4,660,0,,,,,,,,,,,,,,,,,,,
16014,1506732864422,,,,,,,,-0.01,0.07,0.98,-2.8,-0.4,-0.4,660,0,,,,,,,,,,,,,,,,,,,
16034,1506732864442,,,,,,,,-0.01,0.07,0.99,-2.8,-0.3,-0.5,660,0,,,,,,,,,,,,,,,,,,,
16054,1506732864462,,,,,,,,-0.01,0.07,0.98,-2.8,-0.2,-0.4,660,0,,,,,,,,,,,,,,,,,,,
16074,1506732864482,0,124.5,-0.5,157.6,46,143.7,14.6,-0.01,0.08,0.98,-2.8,-0.4,-0.4,640,0,1,1,0.0,0,35.490131,-119.544434,0.0,0.0,248.4,10,2,1.7,0,0.0,-1,0.0,0.0,0.0,0
16094,1506732864504,,,,,,,,-0.01,0.08,0.98,-2.8,-0.3,-0.4,640,0,,,,,,,,,,,,,,,,,,,
16114,1506732864524,,,,,,,,-0.0,0.08,0.98,-2.8,-0.3,-0.4,660,0,,,,,,,,,,,,,,,,,,,
16134,1506732864544,,,,,,,,-0.0,0.08,0.98,-2.8,-0.4,-0.4,660,0,,,,,,,,,,,,,,,,,,,
16154,1506732864564,,,,,,,,-0.0,0.08,0.98,-2.8,-0.4,-0.4,660,0,,,,,,,,,,,,,,,,,,,
16174,1506732864584,,,,,47,,,0.0,0.08,0.98,-2.8,-0.3,-0.4,660,0,1,1,0.0,0,35.490131,-119.544434,0.0,0.0,248.4,10,2,1.7,0,0.0,-1,0.0,0.0,0.0,0
16194,1506732864602,,,,,,,,-0.0,0.07,0.97,-2.8,-0.4,-0.4,660,0,,,,,,,,,,,,,,,,,,,
16214,1506732864622,,,,,,,,-0.0,0.08,0.97,-2.9,-0.3,-0.4,660,0,,,,,,,,,,,,,,,,,,,
16234,1506732864642,,,,,,,,0.0,0.08,0.98,-2.9,-0.2,-0.4,660,0,,,,,,,,,,,,,,,,,,,
16254,1506732864662,,,,,,,,0.0,0.08,0.97,-2.8,-0.3,-0.3,660,0,,,,,,,,,,,,,,,,,,,
16274,1506732864682,0,125.7,,158.4,47,143.3,,0.0,0.08,0.98,-2.8,-0.3,-0.4,660,0,1,1,0.0,0,35.490131,-119.544434,0.0,0.0,248.4,10,2,1.7,0,0.0,-1,0.0,0.0,0.0,0
16294,1506732864702,,,,,,,,0.01,0.08,0.98,-2.8,-0.3,-0.3,660,0,,,,,,,,,,,,,,,,,,,
16314,1506732864722,,,,,,,,0.0,0.08,0.97,-2.8,-0.3,-0.3,660,0,,,,,,,,,,,,,,,,,,,
16334,1506732864742,,,,,,,,0.0,0.08,0.97,-2.8,-0.3,-0.3,660,0,,,,,,,,,,,,,,,,,,,
16354,1506732864762,,,,,,,,0.01,0.08,0.98,-2.8,-0.2,-0.3,660,0,,,,,,,,,,,,,,,,,,,
16374,1506732864782,,,,,48,,,0.0,0.08,0.97,-2.8,-0.2,-0.3,660,0,1,1,0.0,0,35.490131,-119.544434,0.0,0.0,248.4,10,2,1.7,0,0.0,-1,0.0,0.0,0.0,0
16394,1506732864804,,,,,,,,0.0,0.08,0.98,-2.8,-0.2,-0.4,660,0,,,,,,,,,,,,,,,,,,,
16414,1506732864824,,,,,,,,0.01,0.08,0.98,-2.8,-0.1,-0.4,660,0,,,,,,,,,,,,,,,,,,,
16434,1506732864844,,,,,,,,0.0,0.08,0.98,-2.8,-0.2,-0.4,640,0,,,,,,,,,,,,,,,,,,,
16454,1506732864864,,,,,,,,0.01,0.08,0.98,-2.8,-0.2,-0.4,640,0,,,,,,,,,,,,,,,,,,,
16474,1506732864884,0,125.6,,158.3,45,144.0,,0.01,0.09,0.98,-2.8,-0.1,-0.4,660,0,1,1,0.0,0,35.490131,-119.544434,0.0,0.0,248.4,10,2,1.7,0,0.0,-1,0.0,0.0,0.0,0
16494,1506732864904,,,,,,,,0.01,0.09,0.97,-2.7,-0.2,-0.4,660,0,,,,,,,,,,,,,,,,,,,
16514,1506732864924,,,,,,,,0.0,0.09,0.98,-2.8,-0.2,-0.4,660,0,,,,,,,,,,,,,,,,,,,
16534,1506732864944,,,,,,,,0.01,0.09,0.98,-2.8,-0.1,-0.4,680,0,,,,,,,,,,,,,,,,,,,
16554,1506732864964,,,,,,,,0.0,0.09,0.97,-2.8,-0.2,-0.4,660,0,,,,,,,,,,,,,,,,,,,
16574,1506732864984,,,,,45,,,0.0,0.09,0.98,-2.8,-0.1,-0.4,660,0,1,1,0.0,0,35.490131,-119.544434,0.0,0.0,248.4,10,2,1.7,0,0.0,-1,0.0,0.0,0.0,0
16594,1506732864998,,,,,,,,0.01,0.09,0.98,-2.8,-0.0,-0.4,660,0,,,,,,,,,,,,,,,,,,,
16614,1506732865018,,,,,,,,0.01,0.09,0.97,-2.9,-0.1,-0.3,660,0,,,,,,,,,,,,,,,,,,,
16634,1506732865038,,,,,,,,0.0,0.09,0.97,-2.9,-0.1,-0.3,660,0,,,,,,,,,,,,,,,,,,,
16654,1506732865058,,,,,,,,0.01,0.08,0.97,-2.9,-0.1,-0.3,660,0,,,,,,,,,,,,,,,,,,,
16674,1506732865078,0,125.6,,157.7,46,143.1,,0.01,0.08,0.97,-3.0,-0.2,-0.3,660,0,1,1,0.0,0,35.490131,-119.544434,0.0,0.0,248.4,10,2,1.7,0,0.0,-1,0.0,0.0,0.0,0
16694,1506732865103,,,,,,,,0.01,0.08,0.98,-3.0,-0.2,-0.3,660,0,,,,,,,,,,,,,,,,,,,
16714,1506732865123,,,,,,,,0.01,0.07,0.97,-3.1,-0.1,-0.3,660,0,,,,,,,,,,,,,,,,,,,
16734,1506732865143,,,,,,,,0.01,0.08,0.97,-3.1,-0.1,-0.3,660,0,,,,,,,,,,,,,,,,,,,
16754,1506732865163,,,,,,,,0.01,0.07,0.97,-3.2,-0.1,-0.3,660,0,,,,,,,,,,,,,,,,,,,
16774,1506732865183,,,,,46,,,0.02,0.07,0.97,-3.2,0.0,-0.3,660,0,1,1,0.0,0,35.490131,-119.544434,0.0,0.0,248.4,10,2,1.7,0,0.0,-1,0.0,0.0,0.0,0
16794,1506732865203,,,,,,,,0.01,0.07,0.97,-3.2,-0.0,-0.3,640,0,,,,,,,,,,,,,,,,,,,
16814,1506732865223,,,,,,,,0.01,0.07,0.98,-3.2,-0.1,-0.4,640,0,,,,,,,,,,,,,,,,,,,
16834,1506732865243,,,,,,,,0.02,0.07,0.98,-3.2,0.0,-0.3,660,0,,,,,,,,,,,,,,,,,,,
16854,1506732865263,,,,,,,,0.02,0.07,0.97,-3.2,-0.1,-0.4,660,0,,,,,,,,,,,,,,,,,,,
16874,1506732865283,0,125.6,,158.2,46,143.2,,0.02,0.07,0.98,-3.2,-0.1,-0.3,660,5,1,1,0.0,0,35.490131,-119.544434,0.0,0.0,248.4,10,2,1.7,0,0.0,-1,0.0,0.0,0.0,0
16894,1506732865303,,,,,,,,0.02,0.07,0.98,-3.3,0.1,-0.3,660,5,,,,,,,,,,,,,,,,,,,
16914,1506732865323,,,,,,,,0.02,0.08,0.98,-3.3,0.0,-0.3,660,5,,,,,,,,,,,,,,,,,,,
16934,1506732865343,,,,,,,,0.01,0.07,0.98,-3.3,0.1,-0.3,660,5,,,,,,,,,,,,,,,,,,,
16954,1506732865363,,,,,,,,0.02,0.07,0.98,-3.3,0.1,-0.3,660,5,,,,,,,,,,,,,,,,,,,
16974,1506732865383,,,,,46,,,0.01,0.08,0.98,-3.4,-0.0,-0.3,640,5,1,1,165.0,0,35.490131,-119.544434,0.0,0.0,248.4,10,2,1.7,0,0.0,-1,0.0,0.0,0.0,0
16994,1506732865403,,,,,,,,0.01,0.07,0.98,-3.4,-0.0,-0.3,640,14,,,,,,,,,,,,,,,,,,,
17014,1506732865423,,,,,,,,0.01,0.08,0.98,-3.4,0.0,-0.3,660,14,,,,,,,,,,,,,,,,,,,
17034,1506732865443,,,,,,,,0.01,0.08,0.98,-3.4,-0.1,-0.3,660,14,,,,,,,,,,,,,,,,,,,
17054,1506732865463,,,,,,,,0.01,0.08,0.98,-3.5,-0.0,-0.3,660,14,,,,,,,,,,,,,,,,,,,
17074,1506732865483,0,125.5,-0.2,158.2,46,144.1,14.64,0.01,0.08,0.98,-3.5,0.0,-0.3,660,14,1,1,50.769,0,35.490131,-119.544434,0.0,0.0,248.4,10,2,1.7,0,0.0,-1,0.0,0.0,0.0,0
17094,1506732865503,,,,,,,,0.01,0.08,0.97,-3.5,-0.0,-0.3,640,14,,,,,,,,,,,,,,,,,,,
17114,1506732865523,,,,,,,,0.01,0.08,0.97,-3.6,0.0,-0.3,640,14,,,,,,,,,,,,,,,,,,,
17134,1506732865543,,,,,,,,0.01,0.09,0.97,-3.6,-0.1,-0.3,640,14,,,,,,,,,,,,,,,,,,,
17154,1506732865563,,,,,,,,0.01,0.08,0.97,-3.6,-0.1,-0.3,640,14,,,,,,,,,,,,,,,,,,,
17174,1506732865583,,,,,45,,,0.01,0.08,0.98,-3.7,-0.1,-0.3,640,17,1,1,49.231,0,35.490131,-119.544434,0.0,0.0,248.4,10,2,1.7,0,0.0,-1,0.0,0.0,0.0,0
17194,1506732865603,,,,,,,,0.01,0.09,0.97,-3.8,-0.2,-0.2,640,17,,,,,,,,,,,,,,,,,,,
17214,1506732865623,,,,,,,,0.01,0.08,0.97,-3.8,-0.2,-0.3,640,17,,,,,,,,,,,,,,,,,,,
17234,1506732865643,,,,,,,,0.01,0.09,0.98,-3.9,-0.2,-0.3,640,20,,,,,,,,,,,,,,,,,,,
17254,1506732865663,,,,,,,,0.0,0.09,0.98,-4.0,-0.3,-0.2,660,20,,,,,,,,,,,,,,,,,,,
17274,1506732865683,0,124.8,,157.6,45,143.5,,0.0,0.09,0.98,-4.1,-0.3,-0.3,640,20,1,1,32.0,0,35.490131,-119.544434,0.0,0.0,248.4,10,2,1.7,0,0.0,-1,0.0,0.0,0.0,0
17294,1506732865703,,,,,,,,0.0,0.09,0.98,-4.1,-0.3,-0.3,640,20,,,,,,,,,,,,,,,,,,,
17314,1506732865723,,,,,,,,0.0,0.09,0.99,-4.2,-0.4,-0.2,640,22,,,,,,,,,,,,,,,,,,,
17334,1506732865743,,,,,,,,-0.0,0.09,0.98,-4.3,-0.4,-0.3,640,22,,,,,,,,,,,,,,,,,,,
17354,1506732865763,,,,,,,,-0.0,0.09,0.98,-4.3,-0.4,-0.3,640,22,,,,,,,,,,,,,,,,,,,
17374,1506732865783,,,,,42,,,-0.0,0.09,0.98,-4.4,-0.4,-0.3,640,22,1,1,30.476,0,35.490131,-119.544434,0.0,0.0,248.4,10,2,1.7,0,0.0,-1,0.0,0.0,0.0,0
17394,1506732865803,,,,,,,,-0.01,0.09,0.99,-4.4,-0.4,-0.4,640,22,,,,,,,,,,,,,,,,,,,
17414,1506732865823,,,,,,,,-0.0,0.09,0.99,-4.5,-0.3,-0.4,640,22,,,,,,,,,,,,,,,,,,,
17434,1506732865843,,,,,,,,-0.0,0.08,0.98,-4.5,-0.2,-0.4,660,22,,,,,,,,,,,,,,,,,,,
17454,1506732865863,,,,,,,,-0.01,0.07,0.98,-4.5,-0.3,-0.4,660,22,,,,,,,,,,,,,,,,,,,
17474,1506732865883,0,125.4,,158.2,42,144.1,,-0.0,0.08,0.98,-4.6,-0.2,-0.4,640,22,1,1,31.429,0,35.490131,-119.544434,0.0,0.0,248.4,10,2,1.7,0,0.0,-1,0.0,0.0,0.0,0
17494,1506732865903,,,,,,,,-0.0,0.08,0.98,-4.6,-0.2,-0.4,640,22,,,,,,,,,,,,,,,,,,,
17514,1506732865923,,,,,,,,-0.0,0.08,0.99,-4.6,-0.1,-0.4,640,20,,,,,,,,,,,,,,,,,,,
17534,1506732865943,,,,,,,,-0.0,0.08,0.98,-4.7,-0.0,-0.3,620,20,,,,,,,,,,,,,,,,,,,
17554,1506732865963,,,,,,,,-0.0,0.08,0.98,-4.8,-0.1,-0.3,640,20,,,,,,,,,,,,,,,,,,,
17574,1506732865983,,,,,44,,,0.0,0.08,0.99,-4.9,-0.1,-0.3,640,25,1,1,31.0,0,35.490131,-119.544434,0.0,0.0,248.4,10,2,1.7,0,0.0,-1,0.0,0.0,0.0,0
17594,1506732865997,,,,,,,,0.0,0.09,0.98,-5.0,-0.2,-0.2,640,25,,,,,,,,,,,,,,,,,,,
17614,1506732866017,,,,,,,,0.0,0.08,0.98,-5.0,-0.2,-0.2,640,25,,,,,,,,,,,,,,,,,,,
17634,1506732866037,,,,,,,,0.0,0.08,0.99,-5.1,-0.3,-0.2,640,28,,,,,,,,,,,,,,,,,,,
17654,1506732866057,,,,,,,,0.0,0.09,0.99,-5.2,-0.3,-0.2,620,28,,,,,,,,,,,,,,,,,,,
17674,1506732866077,0,124.8,,157.5,43,143.4,,0.0,0.09,0.99,-5.2,-0.5,-0.2,620,28,1,1,23.704,0,35.490131,-119.544434,0.0,0.0,248.4,10,2,1.7,0,0.0,-1,0.0,0.0,0.0,0
17694,1506732866104,,,,,,,,-0.0,0.09,0.99,-5.3,-0.4,-0.3,620,28,,,,,,,,,,,,,,,,,,,
17714,1506732866124,,,,,,,,-0.0,0.08,0.99,-5.3,-0.4,-0.3,620,28,,,,,,,,,,,,,,,,,,,
17734,1506732866144,,,,,,,,-0.0,0.08,0.99,-5.3,-0.4,-0.3,620,26,,,,,,,,,,,,,,,,,,,
17754,1506732866164,,,,,,,,0.0,0.08,0.99,-5.4,-0.3,-0.2,620,26,,,,,,,,,,,,,,,,,,,
17774,1506732866184,,,,,44,,,0.0,0.08,0.99,-5.4,-0.3,-0.2,620,26,1,1,23.846,0,35.490131,-119.544434,0.0,0.0,248.4,10,2,1.7,0,0.0,-1,0.0,0.0,0.0,0
17794,1506732866204,,,,,,,,0.0,0.08,0.99,-5.4,-0.3,-0.3,620,28,,,,,,,,,,,,,,,,,,,
17814,1506732866224,,,,,,,,0.0,0.08,0.99,-5.4,-0.4,-0.3,640,28,,,,,,,,,,,,,,,,,,,
17834,1506732866244,,,,,,,,0.0,0.07,0.98,-5.5,-0.4,-0.3,640,28,,,,,,,,,,,,,,,,,,,
17854,1506732866264,,,,,,,,-0.0,0.08,0.98,-5.6,-0.5,-0.3,620,29,,,,,,,,,,,,,,,,,,,
17874,1506732866284,0,125.0,,158.0,43,144.1,,-0.0,0.08,0.98,-5.6,-0.4,-0.3,620,29,1,1,23.704,0,35.490131,-119.544434,0.0,0.0,248.4,10,2,1.7,0,0.0,-1,0.0,0.0,0.0,0
17894,1506732866304,,,,,,,,-0.01,0.08,0.98,-5.7,-0.5,-0.3,620,29,,,,,,,,,,,,,,,,,,,
17914,1506732866324,,,,,,,,-0.0,0.08,0.98,-5.7,-0.4,-0.3,620,29,,,,,,,,,,,,,,,,,,,
17934,1506732866344,,,,,,,,-0.0,0.08,0.98,-5.8,-0.4,-0.3,620,31,,,,,,,,,,,,,,,,,,,
17954,1506732866364,,,,,,,,-0.0,0.08,0.99,-5.8,-0.3,-0.3,620,31,,,,,,,,,,,,,,,,,,,
17974,1506732866384,,,,,44,,,0.0,0.09,0.99,-5.9,-0.3,-0.3,620,31,1,1,21.379,0,35.490131,-119.544434,0.0,0.0,248.4,10,2,1.7,0,0.0,-1,0.0,0.0,0.0,0
17994,1506732866404,,,,,,,,0.0,0.08,0.99,-5.9,-0.3,-0.3,640,32,,,,,,,,,,,,,,,,,,,
18014,1506732866424,,,,,,,,0.0,0.08,0.99,-5.9,-0.4,-0.3,640,32,,,,,,,,,,,,,,,,,,,
18034,1506732866444,,,,,,,,0.0,0.09,0.99,-5.9,-0.4,-0.2,620,32,,,,,,,,,,,,,,,,,,,
18054,1506732866464,,,,,,,,-0.0,0.08,0.99,-5.9,-0.5,-0.3,620,32,,,,,,,,,,,,,,,,,,,
18074,1506732866484,0,124.8,-0.4,157.6,41,143.7,14.64,-0.0,0.08,1.0,-6.0,-0.4,-0.2,620,32,1,1,19.375,0,35.490131,-119.544434,0.0,0.0,248.4,10,2,1.7,0,0.0,-1,0.0,0.0,0.0,0
18094,1506732866504,,,,,,,,-0.0,0.08,0.99,-6.0,-0.5,-0.2,620,32,,,,,,,,,,,,,,,,,,,
18114,1506732866524,,,,,,,,-0.01,0.07,0.99,-6.0,-0.4,-0.2,620,32,,,,,,,,,,,,,,,,,,,
18134,1506732866544,,,,,,,,-0.0,0.08,0.99,-6.1,-0.3,-0.2,620,34,,,,,,,,,,,,,,,,,,,
18154,1506732866564,,,,,,,,-0.0,0.08,0.99,-6.1,-0.4,-0.2,620,34,,,,,,,,,,,,,,,,,,,
18174,1506732866584,,,,,44,,,-0.0,0.08,0.99,-6.1,-0.4,-0.2,620,34,1,1,18.788,0,35.490131,-119.544434,0.0,0.0,248.4,10,2,1.7,0,0.0,-1,0.0,0.0,0.0,0
18194,1506732866604,,,,,,,,0.0,0.08,0.99,-6.2,-0.6,-0.2,640,34,,,,,,,,,,,,,,,,,,,
18214,1506732866624,,,,,,,,0.0,0.08,0.98,-6.2,-0.6,-0.3,640,34,,,,,,,,,,,,,,,,,,,
18234,1506732866644,,,,,,,,-0.0,0.08,0.99,-6.2,-0.6,-0.3,640,34,,,,,,,,,,,,,,,,,,,
18254,1506732866664,,,,,,,,-0.0,0.08,0.99,-6.2,-0.6,-0.3,640,34,,,,,,,,,,,,,,,,,,,
18274,1506732866684,0,124.8,,157.6,44,143.6,,-0.01,0.08,0.99,-6.2,-0.6,-0.3,640,34,1,1,19.394,0,35.490131,-119.544434,0.0,0.0,248.4,10,2,1.7,0,0.0,-1,0.0,0.0,0.0,0
18294,1506732866704,,,,,,,,-0.01,0.08,0.99,-6.3,-0.7,-0.3,640,34,,,,,,,,,,,,,,,,,,,
18314,1506732866724,,,,,,,,-0.01,0.08,0.99,-6.3,-0.6,-0.3,640,31,,,,,,,,,,,,,,,,,,,
18334,1506732866744,,,,,,,,-0.01,0.07,0.99,-6.4,-0.6,-0.4,640,31,,,,,,,,,,,,,,,,,,,
18354,1506732866764,,,,,,,,-0.01,0.07,0.99,-6.4,-0.6,-0.4,640,29,,,,,,,,,,,,,,,,,,,
18374,1506732866784,,,,,45,,,-0.01,0.07,0.99,-6.4,-0.5,-0.4,660,29,1,1,21.333,0,35.490131,-119.544434,0.0,0.0,248.4,10,2,1.7,0,0.0,-1,0.0,0.0,0.0,0
18394,1506732866804,,,,,,,,-0.01,0.07,0.99,-6.5,-0.5,-0.4,660,29,,,,,,,,,,,,,,,,,,,
18414,1506732866824,,,,,,,,-0.01,0.07,1.0,-6.5,-0.4,-0.4,640,28,,,,,,,,,,,,,,,,,,,
18434,1506732866844,,,,,,,,-0.01,0.07,0.99,-6.5,-0.4,-0.4,640,28,,,,,,,,,,,,,,,,,,,
18454,1506732866864,,,,,,,,-0.01,0.07,1.0,-6.6,-0.4,-0.4,640,28,,,,,,,,,,,,,,,,,,,
18474,1506732866884,0,125.7,,158.4,45,143.6,,-0.01,0.07,1.0,-6.6,-0.2,-0.4,640,25,1,1,23.704,0,35.490131,-119.544434,0.0,0.0,248.4,10,2,1.7,0,0.0,-1,0.0,0.0,0.0,0
18494,1506732866904,,,,,,,,-0.01,0.07,0.99,-6.6,-0.3,-0.4,640,25,,,,,,,,,,,,,,,,,,,
18514,1506732866924,,,,,,,,-0.01,0.06,1.0,-6.6,-0.2,-0.5,640,25,,,,,,,,,,,,,,,,,,,
18534,1506732866944,,,,,,,,-0.01,0.07,0.99,-6.6,-0.2,-0.4,660,26,,,,,,,,,,,,,,,,,,,
18554,1506732866964,,,,,,,,-0.0,0.07,0.99,-6.6,-0.3,-0.4,660,26,,,,,,,,,,,,,,,,,,,
18574,1506732866984,,,,,45,,,-0.0,0.06,0.99,-6.7,-0.2,-0.4,660,26,1,1,25.385,0,35.490131,-119.544434,0.0,0.0,248.4,10,2,1.7,0,0.0,-1,0.0,0.0,0.0,0
18594,1506732866998,,,,,,,,-0.0,0.07,0.99,-6.7,-0.2,-0.4,660,28,,,,,,,,,,,,,,,,,,,
18614,1506732867018,,,,,,,,-0.0,0.08,0.98,-6.7,-0.2,-0.4,660,28,,,,,,,,,,,,,,,,,,,
18634,1506732867038,,,,,,,,-0.0,0.07,0.99,-6.8,-0.1,-0.4,660,29,,,,,,,,,,,,,,,,,,,
18654,1506732867058,,,,,,,,0.0,0.07,0.99,-6.8,-0.1,-0.4,660,29,,,,,,,,,,,,,,,,,,,
18674,1506732867078,0,124.9,,157.8,46,144.0,,0.0,0.07,0.98,-6.8,-0.2,-0.4,660,29,1,1,22.759,0,35.490131,-119.544434,0.0,0.0,248.4,10,2,1.7,0,0.0,-1,0.0,0.0,0.0,0
18694,1506732867105,,,,,,,,0.0,0.07,0.99,-6.8,-0.1,-0.4,660,29,,,,,,,,,,,,,,,,,,,
18714,1506732867125,,,,,,,,0.0,0.07,0.99,-6.9,-0.1,-0.3,660,29,,,,,,,,,,,,,,,,,,,
18734,1506732867145,,,,,,,,0.0,0.08,0.98,-6.9,-0.2,-0.3,660,31,,,,,,,,,,,,,,,,,,,
18754,1506732867165,,,,,,,,0.01,0.08,0.98,-6.9,-0.2,-0.3,660,31,,,,,,,,,,,,,,,,,,,
18774,1506732867185,,,,,44,,,0.01,0.08,0.98,-6.9,-0.2,-0.2,660,31,1,1,22.0,0,35.490131,-119.544434,0.0,0.0,248.4,10,2,1.7,0,0.0,-1,0.0,0.0,0.0,0
18794,1506732867203,,,,,,,,0.01,0.08,0.98,-6.9,-0.3,-0.2,660,31,,,,,,,,,,,,,,,,,,,
18814,1506732867223,,,,,,,,0.01,0.08,0.99,-7.0,-0.2,-0.2,660,31,,,,,,,,,,,,,,,,,,,
18834,1506732867243,,,,,,,,0.01,0.08,0.99,-7.0,-0.2,-0.2,660,32,,,,,,,,,,,,,,,,,,,
18854,1506732867263,,,,,,,,0.01,0.08,0.98,-7.0,-0.3,-0.2,660,32,,,,,,,,,,,,,,,,,,,
18874,1506732867283,0,124.6,,157.5,45,143.6,,0.01,0.07,0.98,-7.0,-0.2,-0.2,660,37,1,1,20.625,0,35.490131,-119.544434,0.0,0.0,248.4,10,2,1.7,0,0.0,-1,0.0,0.0,0.0,0
18894,1506732867305,,,,,,,,0.01,0.08,0.98,-7.0,-0.2,-0.2,660,37,,,,,,,,,,,,,,,,,,,
18914,1506732867325,,,,,,,,0.01,0.08,0.98,-7.0,-0.4,-0.2,660,40,,,,,,,,,,,,,,,,,,,
18934,1506732867345,,,,,,,,0.01,0.07,0.98,-7.1,-0.3,-0.2,660,38,,,,,,,,,,,,,,,,,,,
18954,1506732867365,,,,,,,,0.01,0.08,0.98,-7.1,-0.2,-0.1,660,38,,,,,,,,,,,,,,,,,,,
18974,1506732867385,,,,,46,,,0.01,0.08,0.98,-7.1,-0.3,-0.1,660,38,1,1,16.5,0,35.490131,-119.544434,0.0,0.0,248.4,10,2,1.7,0,0.0,-1,0.0,0.0,0.0,0
18994,1506732867405,,,,,,,,0.01,0.07,0.98,-7.1,-0.3,-0.1,660,38,,,,,,,,,,,,,,,,,,,
19014,1506732867425,,,,,,,,0.01,0.08,0.98,-7.1,-0.2,-0.1,660,38,,,,,,,,,,,,,,,,,,,
19034,1506732867445,,,,,,,,0.01,0.08,0.97,-7.1,-0.3,-0.1,660,37,,,,,,,,,,,,,,,,,,,
19054,1506732867465,,,,,,,,0.01,0.07,0.98,-7.1,-0.2,-0.1,660,37,,,,,,,,,,,,,,,,,,,
19074,1506732867485,0,125.2,-0.3,158.0,47,144.3,14.64,0.01,0.08,0.98,-7.2,-0.2,-0.1,660,37,1,1,18.333,0,35.490131,-119.544434,0.0,0.0,248.4,10,2,1.7,0,0.0,-1,0.0,0.0,0.0,0
19094,1506732867503,,,,,,,,0.01,0.08,0.98,-7.2,-0.3,-0.1,660,38,,,,,,,,,,,,,,,,,,,
19114,1506732867523,,,,,,,,0.01,0.07,0.98,-7.2,-0.2,-0.2,660,38,,,,,,,,,,,,,,,,,,,
19134,1506732867543,,,,,,,,0.01,0.08,0.99,-7.2,-0.2,-0.1,660,40,,,,,,,,,,,,,,,,,,,
19154,1506732867563,,,,,,,,0.01,0.08,0.97,-7.3,-0.3,-0.1,660,40,,,,,,,,,,,,,,,,,,,
19174,1506732867583,,,,,46,,,0.01,0.07,0.97,-7.3,-0.2,-0.2,660,40,1,1,16.5,0,35.490131,-119.544434,0.0,0.0,248.4,10,2,1.7,0,0.0,-1,0.0,0.0,0.0,0
19194,1506732867605,,,,,,,,0.01,0.08,0.98,-7.3,-0.2,-0.1,660,40,,,,,,,,,,,,,,,,,,,
19214,1506732867625,,,,,,,,0.01,0.08,0.97,-7.3,-0.3,-0.1,660,40,,,,,,,,,,,,,,,,,,,
19234,1506732867645,,,,,,,,0.01,0.07,0.98,-7.3,-0.2,-0.2,660,40,,,,,,,,,,,,,,,,,,,
19254,1506732867665,,,,,,,,0.01,0.07,0.98,-7.4,-0.1,-0.1,660,40,,,,,,,,,,,,,,,,,,,
19274,1506732867685,0,124.9,,157.8,45,144.1,,0.01,0.07,0.97,-7.4,-0.2,-0.1,660,40,1,1,16.5,0,35.490131,-119.544434,0.0,0.0,248.4,10,2,1.7,0,0.0,-1,0.0,0.0,0.0,0
19294,1506732867703,,,,,,,,0.01,0.06,0.98,-7.4,-0.2,-0.2,660,42,,,,,,,,,,,,,,,,,,,
19314,1506732867723,,,,,,,,0.01,0.07,0.98,-7.4,-0.1,-0.2,660,42,,,,,,,,,,,,,,,,,,,
19334,1506732867743,,,,,,,,0.01,0.07,0.98,-7.4,-0.2,-0.2,660,42,,,,,,,,,,,,,,,,,,,
19354,1506732867763,,,,,,,,0.0,0.06,0.98,-7.4,-0.2,-0.2,660,42,,,,,,,,,,,,,,,,,,,
19374,1506732867783,,,,,44,,,0.0,0.06,0.98,-7.5,-0.1,-0.2,660,42,1,1,16.098,0,35.490131,-119.544434,0.0,0.0,248.4,10,2,1.7,0,0.0,-1,0.0,0.0,0.0,0
19394,1506732867805,,,,,,,,0.0,0.06,0.98,-7.5,-0.1,-0.2,660,42,,,,,,,,,,,,,,,,,,,
19414,1506732867825,,,,,,,,-0.0,0.06,0.99,-7.5,-0.1,-0.2,660,42,,,,,,,,,,,,,,,,,,,
19434,1506732867845,,,,,,,,-0.0,0.06,0.99,-7.5,-0.0,-0.2,660,43,,,,,,,,,,,,,,,,,,,
19454,1506732867865,,,,,,,,-0.0,0.06,0.98,-7.5,-0.1,-0.2,660,43,,,,,,,,,,,,,,,,,,,
19474,1506732867885,0,125.6,,157.8,46,143.4,,-0.0,0.05,0.99,-7.6,-0.1,-0.3,660,43,1,1,15.349,0,35.490131,-119.544434,0.0,0.0,248.4,10,2,1.7,0,0.0,-1,0.0,0.0,0.0,0
19494,1506732867905,,,,,,,,-0.0,0.06,0.99,-7.6,-0.0,-0.2,660,43,,,,,,,,,,,,,,,,,,,
19514,1506732867925,,,,,,,,-0.0,0.06,0.99,-7.6,-0.1,-0.2,660,43,,,,,,,,,,,,,,,,,,,
19534,1506732867945,,,,,,,,-0.0,0.05,0.99,-7.6,-0.0,-0.2,660,43,,,,,,,,,,,,,,,,,,,
19554,1506732867965,,,,,,,,-0.01,0.06,1.0,-7.7,0.0,-0.2,660,43,,,,,,,,,,,,,,,,,,,
19574,1506732867985,,,,,47,,,-0.01,0.06,0.99,-7.7,-0.1,-0.2,660,43,1,1,15.349,0,35.490131,-119.544434,0.0,0.0,248.4,10,2,1.7,0,0.0,-1,0.0,0.0,0.0,0
19594,1506732867999,,,,,,,,-0.01,0.05,1.0,-7.7,-0.0,-0.3,660,43,,,,,,,,,,,,,,,,,,,
19614,1506732868019,,,,,,,,-0.01,0.06,1.0,-7.7,-0.0,-0.2,660,43,,,,,,,,,,,,,,,,,,,
19634,1506732868039,,,,,,,,-0.0,0.07,0.99,-7.7,-0.0,-0.2,660,43,,,,,,,,,,,,,,,,,,,
19654,1506732868059,,,,,,,,-0.0,0.06,1.0,-7.7,-0.1,-0.2,660,43,,,,,,,,,,,,,,,,,,,
19674,1506732868079,0,125.7,,158.3,44,144.3,,-0.0,0.06,1.0,-7.7,-0.0,-0.2,660,43,1,1,15.349,0,35.490131,-119.544434,0.0,0.0,248.4,10,2,1.7,0,0.0,-1,0.0,0.0,0.0,0
19694,1506732868104,,,,,,,,-0.0,0.07,0.99,-7.7,-0.1,-0.1,660,43,,,,,,,,,,,,,,,,,,,
19714,1506732868124,,,,,,,,-0.0,0.06,0.99,-7.8,-0.1,-0.2,660,43,,,,,,,,,,,,,,,,,,,
19734,1506732868144,,,,,,,,-0.0,0.06,0.99,-7.8,-0.0,-0.2,660,43,,,,,,,,,,,,,,,,,,,
19754,1506732868164,,,,,,,,-0.0,0.07,0.99,-7.8,-0.1,-0.2,660,43,,,,,,,,,,,,,,,,,,,
19774,1506732868184,,,,,45,,,-0.0,0.06,0.99,-7.8,-0.1,-0.2,660,45,1,1,15.349,0,35.490131,-119.544434,0.0,0.0,248.4,10,2,1.7,0,0.0,-1,0.0,0.0,0.0,0
19794,1506732868202,,,,,,,,-0.0,0.06,1.0,-7.9,-0.1,-0.2,660,45,,,,,,,,,,,,,,,,,,,
19814,1506732868222,,,,,,,,-0.0,0.06,0.99,-7.8,-0.0,-0.2,660,45,,,,,,,,,,,,,,,,,,,
19834,1506732868242,,,,,,,,-0.0,0.05,1.0,-7.8,-0.1,-0.3,660,45,,,,,,,,,,,,,,,,,,,
19854,1506732868262,,,,,,,,-0.0,0.06,1.0,-7.9,-0.0,-0.3,660,45,,,,,,,,,,,,,,,,,,,
19874,1506732868282,0,125.8,,158.4,45,144.4,,-0.0,0.06,1.0,-7.8,0.0,-0.2,660,45,1,1,15.0,0,35.490131,-119.544434,0.0,0.0,248.4,10,2,1.7,0,0.0,-1,0.0,0.0,0.0,0
19894,1506732868304,,,,,,,,-0.0,0.05,1.0,-7.8,-0.1,-0.2,660,45,,,,,,,,,,,,,,,,,,,
19914,1506732868324,,,,,,,,-0.0,0.06,1.0,-7.9,-0.0,-0.2,660,43,,,,,,,,,,,,,,,,,,,
19934,1506732868344,,,,,,,,-0.0,0.06,1.0,-7.9,0.0,-0.2,660,43,,,,,,,,,,,,,,,,,,,
19954,1506732868364,,,,,,,,-0.01,0.05,0.99,-7.9,-0.1,-0.2,660,45,,,,,,,,,,,,,,,,,,,
19974,1506732868384,,,,,47,,,-0.01,0.05,1.0,-7.9,-0.2,-0.3,660,45,1,1,15.349,0,35.490131,-119.544434,0.0,0.0,248.4,10,2,1.7,0,0.0,-1,0.0,0.0,0.0,0
19994,1506732868404,,,,,,,,-0.01,0.06,1.0,-7.9,-0.1,-0.2,660,45,,,,,,,,,,,,,,,,,,,
20014,1506732868424,,,,,,,,-0.01,0.06,1.0,-7.9,-0.2,-0.2,660,45,,,,,,,,,,,,,,,,,,,
20034,1506732868444,,,,,,,,-0.01,0.06,1.0,-8.0,-0.3,-0.3,660,45,,,,,,,,,,,,,,,,,,,
20054,1506732868464,,,,,,,,-0.01,0.06,1.0,-8.0,-0.2,-0.2,660,45,,,,,,,,,,,,,,,,,,,
20074,1506732868484,0,125.8,-0.3,158.5,47,144.3,14.55,-0.01,0.06,1.0,-8.0,-0.3,-0.3,660,45,1,1,15.0,0,35.490131,-119.544434,0.0,0.0,248.4,10,2,1.7,0,0.0,-1,0.0,0.0,0.0,0
20094,1506732868504,,,,,,,,-0.02,0.05,1.0,-8.0,-0.4,-0.2,660,45,,,,,,,,,,,,,,,,,,,
20114,1506732868524,,,,,,,,-0.02,0.06,1.0,-8.1,-0.3,-0.2,660,45,,,,,,,,,,,,,,,,,,,
20134,1506732868544,,,,,,,,-0.02,0.06,1.0,-8.0,-0.4,-0.2,660,45,,,,,,,,,,,,,,,,,,,
20154,1506732868564,,,,,,,,-0.02,0.05,1.0,-8.0,-0.5,-0.2,660,45,,,,,,,,,,,,,,,,,,,
20174,1506732868584,,,,,46,,,-0.02,0.06,0.99,-8.1,-0.6,-0.2,660,45,1,1,15.0,0,35.490131,-119.544434,0.0,0.0,248.4,10,2,1.7,0,0.0,-1,0.0,0.0,0.0,0
20194,1506732868604,,,,,,,,-0.02,0.05,0.99,-8.0,-0.6,-0.2,660,45,,,,,,,,,,,,,,,,,,,
20214,1506732868624,,,,,,,,-0.02,0.05,0.99,-8.0,-0.6,-0.2,660,45,,,,,,,,,,,,,,,,,,,
20234,1506732868644,,,,,,,,-0.02,0.06,0.98,-8.1,-0.7,-0.1,660,45,,,,,,,,,,,,,,,,,,,
20254,1506732868664,,,,,,,,-0.02,0.06,0.99,-8.0,-0.7,-0.1,660,45,,,,,,,,,,,,,,,,,,,
20274,1506732868684,0,125.9,,158.6,46,143.6,,-0.02,0.05,0.99,-8.1,-0.7,-0.0,660,45,1,1,15.0,0,35.490131,-119.544434,0.0,0.0,248.4,10,2,1.7,0,0.0,-1,0.0,0.0,0.0,0
20294,1506732868704,,,,,,,,-0.02,0.06,0.99,-8.1,-0.8,0.1,660,45,,,,,,,,,,,,,,,,,,,
20314,1506732868724,,,,,,,,-0.02,0.06,0.99,-8.1,-0.7,0.0,660,45,,,,,,,,,,,,,,,,,,,
20334,1506732868744,,,,,,,,-0.02,0.06,0.99,-8.0,-0.7,0.0,660,43,,,,,,,,,,,,,,,,,,,
20354,1506732868764,,,,,,,,-0.01,0.07,0.99,-8.0,-0.9,0.1,660,43,,,,,,,,,,,,,,,,,,,
20374,1506732868784,,,,,46,,,-0.02,0.07,0.98,-8.0,-0.8,0.1,660,43,1,1,15.349,0,35.490131,-119.544434,0.0,0.0,248.4,10,2,1.7,0,0.0,-1,0.0,0.0,0.0,0
20394,1506732868804,,,,,,,,-0.02,0.07,0.99,-8.0,-0.7,0.1,660,43,,,,,,,,,,,,,,,,,,,
20414,1506732868824,,,,,,,,-0.01,0.08,0.98,-7.9,-0.9,0.1,660,43,,,,,,,,,,,,,,,,,,,
20434,1506732868844,,,,,,,,-0.01,0.07,0.97,-7.9,-0.8,0.1,660,43,,,,,,,,,,,,,,,,,,,
20454,1506732868864,,,,,,,,-0.02,0.07,0.98,-7.9,-0.7,0.1,660,43,,,,,,,,,,,,,,,,,,,
20474,1506732868884,0,124.8,,157.7,44,144.1,,-0.01,0.08,0.97,-7.9,-0.8,0.1,660,43,1,1,15.349,0,35.490131,-119.544434,0.0,0.0,248.4,10,2,1.7,0,0.0,-1,0.0,0.0,0.0,0
20494,1506732868906,,,,,,,,-0.02,0.07,0.97,-7.9,-0.8,0.0,660,43,,,,,,,,,,,,,,,,,,,
20514,1506732868926,,,,,,,,-0.02,0.07,0.98,-7.9,-0.6,0.0,660,43,,,,,,,,,,,,,,,,,,,
20534,1506732868946,,,,,,,,-0.01,0.08,0.98,-7.9,-0.7,0.0,660,43,,,,,,,,,,,,,,,,,,,
20554,1506732868966,,,,,,,,-0.01,0.07,0.97,-7.8,-0.7,0.0,660,43,,,,,,,,,,,,,,,,,,,
20574,1506732868986,,,,,47,,,-0.01,0.07,0.98,-7.8,-0.6,0.0,660,43,1,1,15.349,0,35.490131,-119.544434,0.0,0.0,248.4,10,2,1.7,0,0.0,-1,0.0,0.0,0.0,0
20594,1506732868998,,,,,,,,-0.01,0.08,0.99,-7.8,-0.5,0.1,660,43,,,,,,,,,,,,,,,,,,,
20614,1506732869018,,,,,,,,-0.01,0.08,0.98,-7.8,-0.6,0.0,660,43,,,,,,,,,,,,,,,,,,,
20634,1506732869038,,,,,,,,-0.01,0.07,0.97,-7.8,-0.5,0.1,660,43,,,,,,,,,,,,,,,,,,,
20654,1506732869058,,,,,,,,-0.0,0.08,0.98,-7.8,-0.4,0.1,660,43,,,,,,,,,,,,,,,,,,,
20674,1506732869078,0,125.7,,158.4,45,144.5,,-0.01,0.08,0.97,-7.7,-0.5,0.1,660,45,1,1,15.349,0,35.490131,-119.544434,0.0,0.0,248.4,10,2,1.7,0,0.0,-1,0.0,0.0,0.0,0
20694,1506732869105,,,,,,,,-0.01,0.07,0.97,-7.7,-0.5,0.1,660,45,,,,,,,,,,,,,,,,,,,
20714,1506732869125,,,,,,,,-0.0,0.07,0.97,-7.7,-0.4,0.1,660,45,,,,,,,,,,,,,,,,,,,
20734,1506732869145,,,,,,,,-0.01,0.07,0.97,-7.7,-0.5,0.1,660,46,,,,,,,,,,,,,,,,,,,
20754,1506732869165,,,,,,,,-0.01,0.07,0.98,-7.7,-0.4,0.1,660,46,,,,,,,,,,,,,,,,,,,
20774,1506732869185,,,,,47,,,-0.01,0.07,0.97,-7.7,-0.3,0.1,660,49,1,1,14.348,0,35.490131,-119.544434,0.0,0.0,248.4,10,2,1.7,0,0.0,-1,0.0,0.0,0.0,0
20794,1506732869205,,,,,,,,-0.01,0.07,0.97,-7.7,-0.5,0.1,660,48,,,,,,,,,,,,,,,,,,,
20814,1506732869225,,,,,,,,-0.01,0.07,0.98,-7.7,-0.5,0.1,660,48,,,,,,,,,,,,,,,,,,,
20834,1506732869245,,,,,,,,-0.01,0.07,0.97,-7.7,-0.3,0.1,660,57,,,,,,,,,,,,,,,,,,,
20854,1506732869265,,,,,,,,-0.01,0.07,0.97,-7.7,-0.5,0.1,660,58,,,,,,,,,,,,,,,,,,,
20874,1506732869285,0,125.8,,158.5,48,143.8,,-0.01,0.07,0.97,-7.7,-0.6,0.1,660,58,1,1,11.786,0,35.490131,-119.544434,0.0,0.0,248.4,10,2,1.7,0,0.0,-1,0.0,0.0,0.0,0
20894,1506732869305,,,,,,,,-0.01,0.06,0.97,-7.7,-0.4,0.2,660,58,,,,,,,,,,,,,,,,,,,
20914,1506732869325,,,,,,,,-0.01,0.06,0.97,-7.6,-0.5,0.2,660,58,,,,,,,,,,,,,,,,,,,
20934,1506732869345,,,,,,,,-0.02,0.06,0.97,-7.6,-0.6,0.1,660,58,,,,,,,,,,,,,,,,,,,
20954,1506732869365,,,,,,,,-0.02,0.06,0.97,-7.6,-0.4,0.1,660,58,,,,,,,,,,,,,,,,,,,
20974,1506732869385,,,,,45,,,-0.01,0.07,0.96,-7.5,-0.5,0.1,660,58,1,1,11.379,0,35.490131,-119.544434,0.0,0.0,248.4,10,2,1.7,0,0.0,-1,0.0,0.0,0.0,0
20994,1506732869405,,,,,,,,-0.02,0.06,0.97,-7.5,-0.6,0.1,660,58,,,,,,,,,,,,,,,,,,,
21014,1506732869425,,,,,,,,-0.02,0.06,0.97,-7.5,-0.4,0.1,660,42,,,,,,,,,,,,,,,,,,,
21034,1506732869445,,,,,,,,-0.02,0.07,0.97,-7.5,-0.5,0.1,660,42,,,,,,,,,,,,,,,,,,,
21054,1506732869465,,,,,,,,-0.02,0.07,0.97,-7.4,-0.6,0.1,660,29,,,,,,,,,,,,,,,,,,,
21074,1506732869485,0,125.7,-0.3,158.4,45,143.5,14.65,-0.02,0.07,0.98,-7.5,-0.4,0.1,660,29,1,1,16.098,0,35.490131,-119.544434,0.0,0.0,248.4,10,2,1.7,0,0.0,-1,0.0,0.0,0.0,0
21094,1506732869505,,,,,,,,-0.02,0.07,0.97,-7.4,-0.5,0.1,660,40,,,,,,,,,,,,,,,,,,,
21114,1506732869525,,,,,,,,-0.02,0.06,0.98,-7.4,-0.6,-0.1,660,51,,,,,,,,,,,,,,,,,,,
21134,1506732869545,,,,,,,,-0.02,0.06,0.98,-7.4,-0.4,-0.0,660,51,,,,,,,,,,,,,,,,,,,
21154,1506732869565,,,,,,,,-0.02,0.06,0.98,-7.3,-0.5,-0.1,640,46,,,,,,,,,,,,,,,,,,,
21174,1506732869585,,,,,46,,,-0.02,0.05,0.98,-7.3,-0.5,-0.1,640,46,1,1,13.2,0,35.490131,-119.544434,0.0,0.0,248.4,10,2,1.7,0,0.0,-1,0.0,0.0,0.0,0
21194,1506732869605,,,,,,,,-0.02,0.06,0.99,-7.3,-0.3,-0.1,640,35,,,,,,,,,,,,,,,,,,,
21214,1506732869625,,,,,,,,-0.02,0.06,0.98,-7.3,-0.4,-0.1,640,35,,,,,,,,,,,,,,,,,,,
21234,1506732869645,,,,,,,,-0.01,0.06,0.98,-7.2,-0.4,-0.2,640,38,,,,,,,,,,,,,,,,,,,
21254,1506732869665,,,,,,,,-0.01,0.06,0.98,-7.2,-0.2,-0.1,640,38,,,,,,,,,,,,,,,,,,,
21274,1506732869685,0,124.8,,157.6,43,144.1,,-0.01,0.06,0.98,-7.2,-0.4,-0.1,640,38,1,1,16.842,0,35.490131,-119.544434,0.0,0.0,248.4,10,2,1.7,0,0.0,-1,0.0,0.0,0.0,0
21294,1506732869705,,,,,,,,-0.01,0.06,0.98,-7.2,-0.3,-0.2,640,38,,,,,,,,,,,,,,,,,,,
21314,1506732869725,,,,,,,,-0.01,0.06,0.98,-7.3,-0.4,-0.1,640,37,,,,,,,,,,,,,,,,,,,
21334,1506732869745,,,,,,,,-0.01,0.06,0.97,-7.3,-0.5,-0.1,640,37,,,,,,,,,,,,,,,,,,,
21354,1506732869765,,,,,,,,-0.01,0.06,0.97,-7.3,-0.5,-0.2,640,37,,,,,,,,,,,,,,,,,,,
21374,1506732869785,,,,,45,,,-0.0,0.07,0.97,-7.3,-0.5,-0.1,640,37,1,1,17.778,0,35.490131,-119.544434,0.0,0.0,248.4,10,2,1.7,0,0.0,-1,0.0,0.0,0.0,0
21394,1506732869805,,,,,,,,-0.01,0.06,0.97,-7.2,-0.6,-0.1,640,43,,,,,,,,,,,,,,,,,,,
21414,1506732869825,,,,,,,,-0.01,0.06,0.98,-7.3,-0.6,-0.1,640,43,,,,,,,,,,,,,,,,,,,
21434,1506732869845,,,,,,,,-0.01,0.07,0.98,-7.3,-0.7,-0.0,640,35,,,,,,,,,,,,,,,,,,,
21454,1506732869865,,,,,,,,-0.01,0.06,0.98,-7.2,-0.7,-0.1,640,35,,,,,,,,,,,,,,,,,,,
21474,1506732869885,0,125.9,,158.5,43,144.5,,-0.01,0.06,0.98,-7.3,-0.7,-0.1,640,40,1,1,18.286,0,35.490131,-119.544434,0.0,0.0,248.4,10,2,1.7,0,0.0,-1,0.0,0.0,0.0,0
21494,1506732869905,,,,,,,,-0.01,0.06,0.99,-7.3,-0.6,-0.1,640,40,,,,,,,,,,,,,,,,,,,
21514,1506732869925,,,,,,,,-0.01,0.06,0.98,-7.3,-0.7,-0.2,640,42,,,,,,,,,,,,,,,,,,,
21534,1506732869945,,,,,,,,-0.01,0.06,0.98,-7.3,-0.6,-0.1,640,42,,,,,,,,,,,,,,,,,,,
21554,1506732869965,,,,,,,,-0.01,0.06,0.98,-7.3,-0.6,-0.1,640,37,,,,,,,,,,,,,,,,,,,
21574,1506732869985,,,,,44,,,-0.01,0.06,0.97,-7.3,-0.6,-0.1,640,45,1,1,15.61,0,35.490131,-119.544434,0.0,0.0,248.4,10,2,1.7,0,0.0,-1,0.0,0.0,0.0,0
21594,1506732869999,,,,,,,,-0.0,0.06,0.98,-7.4,-0.5,-0.1,640,45,,,,,,,,,,,,,,,,,,,
21614,1506732870019,,,,,,,,0.0,0.06,0.98,-7.3,-0.5,-0.1,660,37,,,,,,,,,,,,,,,,,,,
21634,1506732870039,,,,,,,,-0.0,0.05,0.98,-7.4,-0.4,-0.2,660,37,,,,,,,,,,,,,,,,,,,
21654,1506732870059,,,,,,,,0.0,0.06,0.99,-7.4,-0.4,-0.1,640,42,,,,,,,,,,,,,,,,,,,
21674,1506732870079,0,124.9,,157.7,43,144.1,,0.01,0.06,0.99,-7.4,-0.4,-0.2,660,42,1,1,18.333,0,35.490131,-119.544434,0.0,0.0,248.4,10,2,1.7,0,0.0,-1,0.0,0.0,0.0,0
21694,1506732870104,,,,,,,,0.01,0.05,1.0,-7.4,-0.4,-0.2,660,43,,,,,,,,,,,,,,,,,,,
21714,1506732870124,,,,,,,,0.01,0.06,1.0,-7.5,-0.3,-0.1,660,43,,,,,,,,,,,,,,,,,,,
21734,1506732870144,,,,,,,,0.01,0.06,0.99,-7.5,-0.4,-0.1,660,37,,,,,,,,,,,,,,,,,,,
21754,1506732870164,,,,,,,,0.01,0.05,1.0,-7.5,-0.4,-0.2,660,37,,,,,,,,,,,,,,,,,,,
21774,1506732870184,,,,,45,,,0.01,0.06,1.0,-7.5,-0.3,-0.1,660,45,1,1,18.333,0,35.490131,-119.544434,0.0,0.0,248.4,10,2,1.7,0,0.0,-1,0.0,0.0,0.0,0
21794,1506732870204,,,,,,,,0.01,0.06,0.99,-7.5,-0.4,-0.1,680,45,,,,,,,,,,,,,,,,,,,
21814,1506732870224,,,,,,,,0.01,0.05,0.99,-7.5,-0.5,-0.1,680,42,,,,,,,,,,,,,,,,,,,
21834,1506732870244,,,,,,,,0.01,0.06,0.99,-7.6,-0.4,-0.1,680,42,,,,,,,,,,,,,,,,,,,
21854,1506732870264,,,,,,,,0.02,0.06,1.0,-7.6,-0.4,-0.1,680,42,,,,,,,,,,,,,,,,,,,
21874,1506732870284,0,125.9,,158.4,46,144.3,,0.02,0.05,0.99,-7.6,-0.4,-0.2,680,45,1,1,16.585,0,35.490131,-119.544434,0.0,0.0,248.4,10,2,1.7,0,0.0,-1,0.0,0.0,0.0,0
21894,1506732870304,,,,,,,,0.01,0.06,0.99,-7.6,-0.4,-0.2,680,45,,,,,,,,,,,,,,,,,,,
21914,1506732870324,,,,,,,,0.01,0.06,0.99,-7.7,-0.3,-0.1,700,43,,,,,,,,,,,,,,,,,,,
21934,1506732870344,,,,,,,,0.01,0.06,0.99,-7.6,-0.3,-0.2,700,43,,,,,,,,,,,,,,,,,,,
21954,1506732870364,,,,,,,,0.01,0.06,0.99,-7.7,-0.2,-0.2,700,42,,,,,,,,,,,,,,,,,,,
21974,1506732870384,,,,,46,,,0.01,0.07,0.98,-7.7,-0.4,-0.2,700,42,1,1,16.279,0,35.490131,-119.544434,0.0,0.0,248.4,10,2,1.7,0,0.0,-1,0.0,0.0,0.0,0
21994,1506732870404,,,,,,,,0.01,0.07,0.98,-7.7,-0.5,-0.1,720,42,,,,,,,,,,,,,,,,,,,
22014,1506732870424,,,,,,,,0.0,0.06,0.98,-7.7,-0.6,-0.2,720,48,,,,,,,,,,,,,,,,,,,
22034,1506732870444,,,,,,,,-0.0,0.06,0.99,-7.7,-0.5,-0.2,720,48,,,,,,,,,,,,,,,,,,,
22054,1506732870464,,,,,,,,0.01,0.07,0.99,-7.8,-0.5,-0.1,720,42,,,,,,,,,,,,,,,,,,,
22074,1506732870484,0,125.2,-0.5,158.0,46,144.4,14.65,0.01,0.07,0.99,-7.8,-0.5,-0.1,740,45,1,1,15.319,0,35.490131,-119.544434,0.0,0.0,248.4,10,2,1.7,0,0.0,-1,0.0,0.0,0.0,0
22094,1506732870504,,,,,,,,0.01,0.07,0.99,-7.8,-0.6,-0.2,740,45,,,,,,,,,,,,,,,,,,,
22114,1506732870524,,,,,,,,0.01,0.06,0.99,-7.8,-0.7,-0.2,740,46,,,,,,,,,,,,,,,,,,,
22134,1506732870544,,,,,,,,0.01,0.06,0.98,-7.8,-0.6,-0.1,760,46,,,,,,,,,,,,,,,,,,,
22154,1506732870564,,,,,,,,0.0,0.07,0.98,-7.8,-0.6,-0.0,760,42,,,,,,,,,,,,,,,,,,,
22174,1506732870584,,,,,50,,,0.0,0.06,1.0,-7.8,-0.7,-0.2,760,46,1,1,16.522,0,35.490131,-119.544434,0.0,0.0,248.4,10,2,1.7,0,0.0,-1,0.0,0.0,0.0,0
22194,1506732870604,,,,,,,,-0.0,0.06,0.99,-7.7,-0.6,-0.2,760,46,,,,,,,,,,,,,,,,,,,
22214,1506732870624,,,,,,,,0.0,0.06,0.98,-7.8,-0.6,-0.1,780,46,,,,,,,,,,,,,,,,,,,
22234,1506732870644,,,,,,,,0.0,0.07,0.99,-7.8,-0.6,0.0,780,46,,,,,,,,,,,,,,,,,,,
22254,1506732870664,,,,,,,,0.0,0.07,0.99,-7.7,-0.7,-0.1,800,45,,,,,,,,,,,,,,,,,,,
22274,1506732870684,0,125.6,,157.8,55,143.8,,0.0,0.06,0.99,-7.7,-0.7,-0.2,800,45,1,1,16.957,0,35.490131,-119.544434,0.0,0.0,248.4,10,2,1.7,0,0.0,-1,0.0,0.0,0.0,0
22294,1506732870704,,,,,,,,0.0,0.06,0.97,-7.8,-0.7,-0.1,800,45,,,,,,,,,,,,,,,,,,,
22314,1506732870724,,,,,,,,0.01,0.07,0.96,-7.8,-0.8,-0.0,800,48,,,,,,,,,,,,,,,,,,,
22334,1506732870744,,,,,,,,0.02,0.08,0.97,-7.8,-0.7,0.1,800,48,,,,,,,,,,,,,,,,,,,
22354,1506732870764,,,,,,,,0.02,0.07,0.96,-7.8,-0.7,0.0,800,48,,,,,,,,,,,,,,,,,,,
22374,1506732870784,,,,,54,,,0.02,0.07,0.95,-7.7,-0.9,-0.2,820,46,1,1,17.021,0,35.490131,-119.544434,0.0,0.0,248.4,10,2,1.7,0,0.0,-1,0.0,0.0,0.0,0
22394,1506732870806,,,,,,,,0.01,0.06,0.95,-7.8,-0.9,-0.3,820,46,,,,,,,,,,,,,,,,,,,
22414,1506732870826,,,,,,,,0.01,0.07,0.96,-7.9,-0.7,-0.1,820,46,,,,,,,,,,,,,,,,,,,
22434,1506732870846,,,,,,,,0.02,0.06,0.97,-7.9,-0.8,0.1,820,46,,,,,,,,,,,,,,,,,,,
22454,1506732870866,,,,,,,,0.01,0.08,0.98,-8.0,-0.7,0.1,820,46,,,,,,,,,,,,,,,,,,,
22474,1506732870886,0,125.6,,158.3,54,144.7,,0.01,0.08,0.98,-8.0,-0.7,-0.0,840,51,1,1,17.826,0,35.490131,-119.544434,0.0,0.0,248.4,10,2,1.7,0,0.0,-1,0.0,0.0,0.0,0
22494,1506732870904,,,,,,,,0.01,0.07,0.97,-8.0,-0.9,-0.2,840,51,,,,,,,,,,,,,,,,,,,
22514,1506732870924,,,,,,,,0.01,0.06,0.97,-8.1,-1.0,-0.2,840,48,,,,,,,,,,,,,,,,,,,
22534,1506732870944,,,,,,,,0.02,0.06,0.97,-8.1,-0.7,-0.1,840,49,,,,,,,,,,,,,,,,,,,
22554,1506732870964,,,,,,,,0.02,0.07,0.98,-8.2,-0.6,0.1,840,49,,,,,,,,,,,,,,,,,,,
22574,1506732870984,,,,,55,,,0.02,0.07,0.99,-8.2,-0.6,0.2,840,51,1,1,17.143,0,35.490131,-119.544434,0.0,0.0,248.4,10,2,1.7,0,0.0,-1,0.0,0.0,0.0,0
22594,1506732871000,,,,,,,,0.02,0.07,0.99,-8.2,-0.6,0.1,840,51,,,,,,,,,,,,,,,,,,,
22614,1506732871020,,,,,,,,0.02,0.07,0.99,-8.2,-0.7,-0.1,840,51,,,,,,,,,,,,,,,,,,,
22634,1506732871040,,,,,,,,0.02,0.07,0.99,-8.3,-0.9,-0.2,840,49,,,,,,,,,,,,,,,,,,,
22654,1506732871060,,,,,,,,0.01,0.06,0.99,-8.3,-0.8,-0.1,840,52,,,,,,,,,,,,,,,,,,,
22674,1506732871080,0,125.5,,158.0,55,144.7,,0.02,0.07,0.99,-8.4,-0.5,0.0,840,52,1,1,17.143,0,35.490131,-119.544434,0.0,0.0,248.4,10,2,1.7,0,0.0,-1,0.0,0.0,0.0,0
22694,1506732871105,,,,,,,,0.03,0.08,1.0,-8.4,-0.5,0.2,840,55,,,,,,,,,,,,,,,,,,,
22714,1506732871125,,,,,,,,0.02,0.08,1.01,-8.5,-0.6,0.2,860,52,,,,,,,,,,,,,,,,,,,
22734,1506732871145,,,,,,,,0.02,0.08,1.01,-8.5,-0.6,0.1,840,55,,,,,,,,,,,,,,,,,,,
22754,1506732871165,,,,,,,,0.02,0.08,1.0,-8.6,-0.7,-0.0,840,55,,,,,,,,,,,,,,,,,,,
22774,1506732871185,,,,,56,,,0.02,0.07,1.0,-8.6,-0.9,-0.1,840,57,1,1,15.273,0,35.490131,-119.544434,0.91,0.0,255.5,10,2,1.7,0,0.0,-1,0.0,0.0,0.0,0
22794,1506732871205,,,,,,,,0.02,0.06,0.99,-8.7,-0.9,-0.2,860,55,,,,,,,,,,,,,,,,,,,
22814,1506732871225,,,,,,,,0.02,0.06,0.99,-8.8,-0.5,-0.0,860,58,,,,,,,,,,,,,,,,,,,
22834,1506732871245,,,,,,,,0.03,0.07,0.99,-8.9,-0.5,0.1,860,58,,,,,,,,,,,,,,,,,,,
22854,1506732871265,,,,,,,,0.03,0.08,1.0,-9.0,-0.6,0.1,860,58,,,,,,,,,,,,,,,,,,,
22874,1506732871285,0,125.1,,157.8,54,144.4,,0.03,0.09,1.0,-9.0,-0.6,0.1,860,58,1,1,14.828,0,35.490131,-119.544434,0.0,0.0,255.5,10,2,1.7,0,0.0,-1,0.0,0.0,0.0,0
22894,1506732871305,,,,,,,,0.03,0.08,0.99,-9.1,-0.6,-0.1,860,60,,,,,,,,,,,,,,,,,,,
22914,1506732871325,,,,,,,,0.04,0.08,0.98,-9.1,-0.9,-0.2,860,60,,,,,,,,,,,,,,,,,,,
22934,1506732871345,,,,,,,,0.03,0.08,0.97,-9.2,-1.0,-0.3,860,60,,,,,,,,,,,,,,,,,,,
22954,1506732871365,,,,,,,,0.03,0.07,0.96,-9.3,-0.7,-0.1,860,63,,,,,,,,,,,,,,,,,,,
22974,1506732871385,,,,,58,,,0.04,0.08,0.96,-9.4,-0.6,0.0,860,63,1,1,14.333,0,35.490131,-119.544434,0.0,0.0,255.5,10,2,1.7,0,0.0,-1,0.0,0.0,0.0,0
22994,1506732871405,,,,,,,,0.04,0.08,0.97,-9.5,-0.9,0.1,860,62,,,,,,,,,,,,,,,,,,,
23014,1506732871425,,,,,,,,0.04,0.09,0.98,-9.5,-0.9,0.0,840,65,,,,,,,,,,,,,,,,,,,
23034,1506732871445,,,,,,,,0.04,0.09,0.97,-9.6,-0.8,-0.1,860,66,,,,,,,,,,,,,,,,,,,
23054,1506732871465,,,,,,,,0.04,0.08,0.96,-9.7,-1.1,-0.2,840,65,,,,,,,,,,,,,,,,,,,
23074,1506732871485,0,125.9,-0.2,158.3,57,144.7,14.61,0.04,0.08,0.96,-9.8,-1.2,-0.4,860,65,1,1,13.03,0,35.490131,-119.544434,0.94,0.0,255.5,10,2,1.7,0,0.0,-1,0.0,0.0,0.0,0
23094,1506732871505,,,,,,,,0.04,0.07,0.96,-9.8,-0.9,-0.3,860,66,,,,,,,,,,,,,,,,,,,
23114,1506732871525,,,,,,,,0.04,0.08,0.96,-9.9,-0.8,-0.1,860,69,,,,,,,,,,,,,,,,,,,
23134,1506732871545,,,,,,,,0.04,0.08,0.97,-10.0,-1.1,-0.1,860,69,,,,,,,,,,,,,,,,,,,
23154,1506732871565,,,,,,,,0.04,0.09,0.99,-10.1,-1.0,-0.0,840,71,,,,,,,,,,,,,,,,,,,
23174,1506732871585,,,,,57,,,0.04,0.08,0.99,-10.2,-0.9,-0.1,840,72,1,1,12.464,0,35.490131,-119.544434,1.01,0.0,255.5,10,2,1.7,0,0.0,-1,0.0,0.0,0.0,0
23194,1506732871605,,,,,,,,0.04,0.08,0.98,-10.2,-1.1,-0.3,840,71,,,,,,,,,,,,,,,,,,,
23214,1506732871625,,,,,,,,0.04,0.07,0.97,-10.3,-1.3,-0.5,840,74,,,,,,,,,,,,,,,,,,,
23234,1506732871645,,,,,,,,0.04,0.06,0.96,-10.4,-1.0,-0.4,840,77,,,,,,,,,,,,,,,,,,,
23254,1506732871665,,,,,,,,0.05,0.08,0.96,-10.5,-0.8,-0.2,860,74,,,,,,,,,,,,,,,,,,,
23274,1506732871685,0,125.9,,158.1,57,144.0,,0.05,0.08,0.97,-10.6,-1.1,-0.1,860,74,1,1,11.053,0,35.490131,-119.544434,1.01,0.0,255.5,10,2,1.7,0,0.0,-1,0.0,0.0,0.0,0
23294,1506732871705,,,,,,,,0.05,0.08,0.98,-10.7,-1.1,-0.1,840,77,,,,,,,,,,,,,,,,,,,
23314,1506732871725,,,,,,,,0.05,0.08,0.98,-10.8,-1.1,-0.2,840,80,,,,,,,,,,,,,,,,,,,
23334,1506732871745,,,,,,,,0.05,0.07,0.95,-10.8,-1.2,-0.4,840,78,,,,,,,,,,,,,,,,,,,
23354,1506732871765,,,,,,,,0.05,0.07,0.95,-10.9,-1.3,-0.6,840,77,,,,,,,,,,,,,,,,,,,
23374,1506732871785,,,,,56,,,0.05,0.06,0.93,-11.0,-1.0,-0.5,840,80,1,1,10.769,0,35.490131,-119.544434,1.08,0.0,255.4,10,2,1.7,0,0.0,-1,0.0,0.0,0.0,0
23394,1506732871805,,,,,,,,0.05,0.07,0.93,-11.2,-0.8,-0.4,840,80,,,,,,,,,,,,,,,,,,,
23414,1506732871825,,,,,,,,0.05,0.07,0.95,-11.3,-1.1,-0.3,860,82,,,,,,,,,,,,,,,,,,,
23434,1506732871845,,,,,,,,0.05,0.08,0.96,-11.4,-1.1,-0.3,840,83,,,,,,,,,,,,,,,,,,,
23454,1506732871865,,,,,,,,0.05,0.08,0.96,-11.5,-1.1,-0.4,840,83,,,,,,,,,,,,,,,,,,,
23474,1506732871885,0,125.8,,158.1,57,143.8,,0.05,0.06,0.95,-11.5,-1.3,-0.6,840,82,1,1,10.12,0,35.490131,-119.544434,0.97,0.0,255.4,10,2,1.7,0,0.0,-1,0.0,0.0,0.0,0
