"Interval"|"ms"|0|0|1,"Utc"|"ms"|0|0|1,"FuelLevel"|"F"|0|100|5,"OilTemp"|"F"|0.0|300.0|5,"CoolantPressPSI"|"PSI"|0.0|20.0|1,"Coolant"|"F"|0.0|300.0|5,"OilPress"|"PSI"|0|150|10,"EngineTemp"|"F"|0.0|300.0|5,"Battery"|"Volts"|0.0|20.0|1,"AccelX"|"G"|-3.0|3.0|50,"AccelY"|"G"|-3.0|3.0|50,"AccelZ"|"G"|-3.0|3.0|50,"Yaw"|"Deg/Sec"|-300.0|300.0|50,"Pitch"|"Deg/Sec"|-300.0|300.0|50,"Roll"|"Deg/Sec"|-300.0|300.0|50,"RPM"|""|0|10000|50,"Driveshaft"|"RPM"|0|5000|50,"GPIO1"|""|0|1|10,"GPIO2"|""|0|1|10,"GearRatio"|""|-5.0|5.0|10,"Gear"|""|-1|5|10,"Latitude"|"Degrees"|-180.0|180.0|10,"Longitude"|"Degrees"|-180.0|180.0|10,"Speed"|"mph"|0.0|150.0|10,"Distance"|"mi"|0.0|0.0|10,"Altitude"|"ft"|0.0|4000.0|10,"GPSSats"|""|0|20|10,"GPSQual"|""|0|5|10,"GPSDOP"|""|0.0|20.0|10,"LapCount"|""|0|0|10,"LapTime"|"Min"|0.0|0.0|10,"Sector"|""|0|0|10,"SectorTime"|"Min"|0.0|0.0|10,"PredTime"|"Min"|0.0|0.0|10,"ElapsedTime"|"Min"|0.0|0.0|10,"CurrentLap"|""|0|0|10
39154,1506732281183,,,,,,,,0.03,0.06,0.92,-3.0,-0.4,-0.6,40,0,,,,,,,,,,,,,,,,,,,
39174,1506732281203,,,,,0,,,0.04,0.04,0.91,-3.0,-0.2,-0.6,40,0,1,1,0.0,0,35.48991,-119.546143,0.0,0.0,250.3,10,2,1.7,0,0.0,-1,0.0,0.0,0.0,0
39194,1506732281223,,,,,,,,0.04,0.03,0.95,-3.0,0.1,-0.4,160,0,,,,,,,,,,,,,,,,,,,
39214,1506732281243,,,,,,,,0.05,0.04,0.99,-3.1,0.2,-0.3,160,0,,,,,,,,,,,,,,,,,,,
39234,1506732281203,,,,,,,,0.05,0.05,0.98,-3.1,0.1,-0.1,160,0,,,,,,,,,,,,,,,,,,,
39254,1506732281223,,,,,,,,0.04,0.04,0.98,-3.0,0.2,-0.2,160,0,,,,,,,,,,,,,,,,,,,
39274,1506732281307,0,105.5,,105.5,0,108.3,,0.04,0.02,0.95,-2.9,-0.0,-0.4,160,0,1,1,0.0,0,35.48991,-119.546143,0.0,0.0,250.3,10,2,1.7,0,0.0,-1,0.0,0.0,0.0,0
39294,1506732281327,,,,,,,,0.04,0.04,0.99,-3.1,0.1,-0.2,160,0,,,,,,,,,,,,,,,,,,,
39314,1506732281347,,,,,,,,0.04,0.06,1.01,-3.2,-0.3,0.0,160,0,,,,,,,,,,,,,,,,,,,
39334,1506732281367,,,,,,,,0.03,0.07,1.03,-3.1,-0.3,0.0,160,0,,,,,,,,,,,,,,,,,,,
39354,1506732281387,,,,,,,,0.03,0.07,1.01,-3.1,-0.4,-0.0,160,0,,,,,,,,,,,,,,,,,,,
39374,1506732281401,,,,,0,,,0.03,0.08,1.01,-3.1,-0.4,0.0,160,0,1,1,0.0,0,35.48991,-119.546143,0.0,0.0,250.3,10,2,1.7,0,0.0,-1,0.0,0.0,0.0,0
39394,1506732281421,,,,,,,,0.04,0.1,1.02,-3.2,-0.2,0.0,160,0,,,,,,,,,,,,,,,,,,,
39414,1506732281441,,,,,,,,0.04,0.1,1.02,-3.1,0.1,-0.1,180,0,,,,,,,,,,,,,,,,,,,
39434,1506732281461,,,,,,,,0.05,0.1,0.99,-3.1,-0.2,-0.1,180,0,,,,,,,,,,,,,,,,,,,
39454,1506732281481,,,,,,,,0.05,0.1,0.98,-3.0,-0.5,-0.1,180,0,,,,,,,,,,,,,,,,,,,
39474,1506732281505,0,104.7,,105.2,0,108.6,,0.07,0.09,0.97,-3.1,-0.7,-0.1,340,0,1,1,0.0,0,35.48991,-119.546143,0.0,0.0,250.3,10,2,1.7,0,0.0,-1,0.0,0.0,0.0,0
39494,1506732281525,,,,,,,,0.05,0.05,1.0,-3.0,-0.6,-0.4,560,0,,,,,,,,,,,,,,,,,,,
39514,1506732281545,,,,,,,,0.03,0.05,1.01,-3.0,-0.3,-0.2,560,0,,,,,,,,,,,,,,,,,,,
39534,1506732281565,,,,,,,,0.04,0.05,1.03,-3.1,-0.1,-0.0,700,0,,,,,,,,,,,,,,,,,,,
39554,1506732281585,,,,,,,,0.03,0.07,1.02,-3.1,-0.4,-0.1,740,0,,,,,,,,,,,,,,,,,,,
39574,1506732281605,,,,,0,,,0.05,0.09,0.98,-3.0,-0.5,-0.1,740,0,1,0,0.0,0,35.48991,-119.546143,0.0,0.0,250.3,10,2,1.7,0,0.0,-1,0.0,0.0,0.0,0
39594,1506732281625,,,,,,,,0.05,0.07,0.97,-2.9,-0.4,-0.2,700,0,,,,,,,,,,,,,,,,,,,
39614,1506732281645,,,,,,,,0.04,0.08,0.95,-3.0,-0.4,-0.1,660,0,,,,,,,,,,,,,,,,,,,
39634,1506732281665,,,,,,,,0.04,0.07,0.96,-3.0,-0.2,-0.1,660,0,,,,,,,,,,,,,,,,,,,
39654,1506732281685,,,,,,,,0.04,0.08,0.98,-3.1,-0.3,-0.1,600,0,,,,,,,,,,,,,,,,,,,
39674,1506732281705,0,104.3,,103.8,0,107.1,,0.04,0.07,0.99,-3.1,-0.6,-0.1,540,0,1,0,0.0,0,35.48991,-119.546143,0.0,0.0,250.3,10,2,1.7,0,0.0,-1,0.0,0.0,0.0,0
39694,1506732281725,,,,,,,,0.04,0.07,0.99,-3.0,-0.7,-0.1,540,0,,,,,,,,,,,,,,,,,,,
39714,1506732281745,,,,,,,,0.04,0.07,0.99,-3.1,-0.7,-0.1,520,0,,,,,,,,,,,,,,,,,,,
39734,1506732281765,,,,,,,,0.04,0.07,0.99,-3.0,-0.6,-0.2,520,2,,,,,,,,,,,,,,,,,,,
39754,1506732281785,,,,,,,,0.04,0.07,1.0,-3.0,-0.6,-0.2,520,2,,,,,,,,,,,,,,,,,,,
39774,1506732281804,,,,,1,,,0.03,0.07,1.0,-3.0,-0.5,-0.1,520,2,1,0,520.0,0,35.48991,-119.546143,0.0,0.0,250.3,10,2,1.7,0,0.0,-1,0.0,0.0,0.0,0
39794,1506732281824,,,,,,,,0.04,0.07,1.01,-3.0,-0.5,-0.0,560,2,,,,,,,,,,,,,,,,,,,
39814,1506732281844,,,,,,,,0.04,0.07,1.0,-3.0,-0.5,-0.1,560,2,,,,,,,,,,,,,,,,,,,
39834,1506732281864,,,,,,,,0.03,0.07,0.99,-3.0,-0.5,-0.2,600,2,,,,,,,,,,,,,,,,,,,
39854,1506732281884,,,,,,,,0.03,0.06,0.98,-3.0,-0.7,-0.2,580,2,,,,,,,,,,,,,,,,,,,
39874,1506732281908,0,105.4,,105.3,2,107.9,,0.02,0.06,0.98,-3.0,-0.8,-0.2,580,2,1,0,600.0,0,35.48991,-119.546143,0.0,0.0,250.3,10,2,1.7,0,0.0,-1,0.0,0.0,0.0,0
39894,1506732281928,,,,,,,,0.02,0.06,0.99,-3.0,-0.9,-0.1,640,2,,,,,,,,,,,,,,,,,,,
39914,1506732281948,,,,,,,,0.02,0.05,0.98,-3.0,-0.7,-0.1,680,2,,,,,,,,,,,,,,,,,,,
39934,1506732281968,,,,,,,,0.03,0.06,0.99,-3.0,-0.5,-0.1,680,2,,,,,,,,,,,,,,,,,,,
39954,1506732281988,,,,,,,,0.03,0.05,0.97,-2.9,-0.5,-0.1,740,2,,,,,,,,,,,,,,,,,,,
39974,1506732282000,,,,,3,,,0.03,0.04,0.96,-2.9,-0.6,-0.1,720,2,1,0,680.0,0,35.48991,-119.546143,0.0,0.0,250.3,10,2,1.7,0,0.0,-1,0.0,0.0,0.0,0
39994,1506732282020,,,,,,,,0.03,0.04,0.96,-3.0,-0.6,-0.1,760,2,,,,,,,,,,,,,,,,,,,
40014,1506732282040,,,,,,,,0.02,0.04,0.98,-3.0,-0.6,-0.2,760,2,,,,,,,,,,,,,,,,,,,
40034,1506732282060,,,,,,,,0.02,0.04,0.96,-3.0,-0.5,-0.1,700,2,,,,,,,,,,,,,,,,,,,
40054,1506732282080,,,,,,,,0.02,0.05,0.96,-3.0,-0.4,-0.1,700,2,,,,,,,,,,,,,,,,,,,
40074,1506732282108,0,105.5,-0.3,106.1,3,107.7,14.29,0.02,0.05,0.96,-3.0,-0.5,-0.1,700,2,1,0,700.0,0,35.48991,-119.546143,0.0,0.0,250.3,10,2,1.7,0,0.0,-1,0.0,0.0,0.0,0
40094,1506732282128,,,,,,,,0.02,0.04,0.97,-3.0,-0.3,-0.2,740,2,,,,,,,,,,,,,,,,,,,
40114,1506732282148,,,,,,,,0.02,0.04,0.98,-3.0,-0.2,-0.2,740,2,,,,,,,,,,,,,,,,,,,
40134,1506732282168,,,,,,,,0.02,0.06,0.97,-3.1,-0.3,-0.3,760,2,,,,,,,,,,,,,,,,,,,
40154,1506732282188,,,,,,,,0.02,0.06,0.96,-3.0,-0.4,-0.3,760,2,,,,,,,,,,,,,,,,,,,
40174,1506732282208,,,,,4,,,0.02,0.05,0.94,-3.0,-0.2,-0.2,760,2,1,1,760.0,0,35.48991,-119.546143,0.0,0.0,250.3,10,2,1.7,0,0.0,-1,0.0,0.0,0.0,0
40194,1506732282228,,,,,,,,0.03,0.07,0.94,-3.1,-0.3,-0.0,720,2,,,,,,,,,,,,,,,,,,,
40214,1506732282248,,,,,,,,0.03,0.08,0.95,-3.1,-0.4,-0.1,760,2,,,,,,,,,,,,,,,,,,,
40234,1506732282268,,,,,,,,0.03,0.06,0.96,-3.0,-0.5,-0.3,820,2,,,,,,,,,,,,,,,,,,,
40254,1506732282288,,,,,,,,0.02,0.06,0.96,-3.0,-0.4,-0.4,820,2,,,,,,,,,,,,,,,,,,,
40274,1506732282308,0,105.4,,105.3,5,107.7,,0.02,0.06,1.0,-3.0,-0.4,-0.3,840,2,1,1,760.0,0,35.48991,-119.546143,0.0,0.0,250.3,10,2,1.7,0,0.0,-1,0.0,0.0,0.0,0
40294,1506732282328,,,,,,,,0.03,0.07,1.01,-3.1,-0.4,-0.2,840,2,,,,,,,,,,,,,,,,,,,
40314,1506732282348,,,,,,,,0.02,0.07,1.0,-3.0,-0.5,-0.0,880,2,,,,,,,,,,,,,,,,,,,
40334,1506732282368,,,,,,,,0.02,0.08,0.99,-3.1,-0.2,0.0,900,0,,,,,,,,,,,,,,,,,,,
40354,1506732282388,,,,,,,,0.03,0.07,0.99,-3.0,-0.1,-0.0,900,0,,,,,,,,,,,,,,,,,,,
40374,1506732282410,,,,,4,,,0.03,0.08,0.99,-3.0,-0.4,-0.2,940,0,1,1,0.007,0,35.48991,-119.546143,0.0,0.0,250.3,10,2,1.7,0,0.0,-1,0.0,0.0,0.0,0
40394,1506732282430,,,,,,,,0.03,0.07,1.0,-3.1,-0.5,-0.4,940,0,,,,,,,,,,,,,,,,,,,
40414,1506732282450,,,,,,,,0.02,0.06,1.0,-3.0,-0.4,-0.4,940,0,,,,,,,,,,,,,,,,,,,
40434,1506732282470,,,,,,,,0.01,0.06,1.0,-3.0,-0.5,-0.3,960,0,,,,,,,,,,,,,,,,,,,
40454,1506732282490,,,,,,,,0.01,0.06,1.0,-3.1,-0.6,-0.3,960,0,,,,,,,,,,,,,,,,,,,
40474,1506732282506,0,105.5,,105.4,4,108.3,,0.01,0.05,1.0,-3.1,-0.7,-0.3,980,0,1,1,0.0,0,35.48991,-119.546143,0.0,0.0,250.3,10,2,1.7,0,0.0,-1,0.0,0.0,0.0,0
40494,1506732282526,,,,,,,,0.0,0.05,1.02,-3.1,-0.7,-0.3,980,0,,,,,,,,,,,,,,,,,,,
40514,1506732282546,,,,,,,,-0.0,0.04,1.01,-3.1,-0.6,-0.2,1000,0,,,,,,,,,,,,,,,,,,,
40534,1506732282566,,,,,,,,-0.0,0.03,1.01,-3.2,-0.5,-0.2,1000,0,,,,,,,,,,,,,,,,,,,
40554,1506732282586,,,,,,,,-0.01,0.02,1.04,-3.2,-0.5,-0.3,1000,0,,,,,,,,,,,,,,,,,,,
40574,1506732282606,,,,,3,,,-0.01,0.03,1.05,-3.2,-0.5,-0.3,1000,0,1,1,0.0,0,35.48991,-119.546143,0.0,0.0,250.3,10,2,1.7,0,0.0,-1,0.0,0.0,0.0,0
40594,1506732282626,,,,,,,,-0.01,0.02,1.07,-3.1,-0.4,-0.4,1000,0,,,,,,,,,,,,,,,,,,,
40614,1506732282646,,,,,,,,-0.01,0.02,1.08,-3.1,-0.5,-0.4,1020,0,,,,,,,,,,,,,,,,,,,
40634,1506732282666,,,,,,,,-0.01,0.02,1.06,-3.1,-0.5,-0.4,1020,0,,,,,,,,,,,,,,,,,,,
40654,1506732282686,,,,,,,,-0.01,0.01,1.06,-3.2,-0.5,-0.3,1000,0,,,,,,,,,,,,,,,,,,,
40674,1506732282706,0,103.8,,103.7,3,107.3,,-0.02,0.01,1.06,-3.2,-0.6,-0.3,1000,0,1,1,0.0,0,35.48991,-119.546143,0.0,0.0,250.3,10,2,1.7,0,0.0,-1,0.0,0.0,0.0,0
40694,1506732282726,,,,,,,,-0.02,0.01,1.06,-3.2,-0.6,-0.4,1000,0,,,,,,,,,,,,,,,,,,,
40714,1506732282746,,,,,,,,-0.02,0.01,1.05,-3.3,-0.7,-0.4,1000,0,,,,,,,,,,,,,,,,,,,
40734,1506732282766,,,,,,,,-0.02,0.01,1.06,-3.3,-0.8,-0.4,1000,0,,,,,,,,,,,,,,,,,,,
40754,1506732282786,,,,,,,,-0.02,0.01,1.06,-3.3,-1.0,-0.4,1000,0,,,,,,,,,,,,,,,,,,,
40774,1506732282805,,,,,2,,,-0.02,0.01,1.06,-3.3,-1.1,-0.4,980,0,1,0,0.0,0,35.48991,-119.546143,0.0,0.0,250.3,10,2,1.7,0,0.0,-1,0.0,0.0,0.0,0
40794,1506732282825,,,,,,,,-0.01,0.01,1.05,-3.3,-1.2,-0.4,980,0,,,,,,,,,,,,,,,,,,,
40814,1506732282845,,,,,,,,-0.02,0.01,1.05,-3.3,-1.1,-0.4,980,0,,,,,,,,,,,,,,,,,,,
40834,1506732282865,,,,,,,,-0.02,0.0,1.04,-3.2,-1.2,-0.4,980,0,,,,,,,,,,,,,,,,,,,
40854,1506732282885,,,,,,,,-0.02,-0.01,1.05,-3.2,-1.2,-0.4,960,0,,,,,,,,,,,,,,,,,,,
40874,1506732282909,0,103.8,,103.6,3,107.6,,-0.02,-0.0,1.04,-3.2,-1.2,-0.4,960,0,1,0,0.0,0,35.48991,-119.546143,0.0,0.0,250.3,10,2,1.7,0,0.0,-1,0.0,0.0,0.0,0
40894,1506732282929,,,,,,,,-0.02,-0.01,1.05,-3.2,-1.0,-0.4,960,0,,,,,,,,,,,,,,,,,,,
40914,1506732282949,,,,,,,,-0.02,-0.0,1.07,-3.2,-0.9,-0.4,960,0,,,,,,,,,,,,,,,,,,,
40934,1506732282969,,,,,,,,-0.02,0.0,1.07,-3.2,-0.8,-0.4,940,0,,,,,,,,,,,,,,,,,,,
40954,1506732282989,,,,,,,,-0.01,0.01,1.06,-3.2,-0.7,-0.3,940,0,,,,,,,,,,,,,,,,,,,
40974,1506732283003,,,,,4,,,-0.0,0.01,1.07,-3.2,-0.7,-0.2,940,0,1,0,0.0,0,35.48991,-119.546143,0.0,0.0,250.3,10,2,1.7,0,0.0,-1,0.0,0.0,0.0,0
40994,1506732283023,,,,,,,,0.01,0.02,1.06,-3.2,-0.7,-0.2,940,0,,,,,,,,,,,,,,,,,,,
41014,1506732283043,,,,,,,,0.01,0.03,1.05,-3.1,-0.7,-0.1,940,0,,,,,,,,,,,,,,,,,,,
41034,1506732283063,,,,,,,,0.02,0.03,1.05,-3.1,-0.6,-0.1,920,0,,,,,,,,,,,,,,,,,,,
41054,1506732283083,,,,,,,,0.02,0.03,1.05,-3.1,-0.7,-0.1,920,0,,,,,,,,,,,,,,,,,,,
41074,1506732283109,0,105.5,-0.2,105.5,8,108.0,14.65,0.02,0.04,1.04,-3.1,-0.8,-0.1,920,0,1,1,0.0,0,35.48991,-119.546143,0.0,0.0,250.3,10,2,1.7,0,0.0,-1,0.0,0.0,0.0,0
41094,1506732283129,,,,,,,,0.02,0.03,1.04,-3.1,-0.9,-0.1,920,0,,,,,,,,,,,,,,,,,,,
41114,1506732283149,,,,,,,,0.01,0.03,1.03,-3.1,-0.8,-0.2,920,0,,,,,,,,,,,,,,,,,,,
41134,1506732283169,,,,,,,,0.01,0.04,1.04,-3.1,-0.9,-0.3,920,0,,,,,,,,,,,,,,,,,,,
41154,1506732283189,,,,,,,,0.01,0.03,1.04,-3.0,-0.8,-0.3,900,0,,,,,,,,,,,,,,,,,,,
41174,1506732283209,,,,,10,,,0.01,0.04,1.03,-3.0,-0.8,-0.4,900,0,1,1,0.0,0,35.48991,-119.546143,0.0,0.0,250.3,10,2,1.7,0,0.0,-1,0.0,0.0,0.0,0
41194,1506732283229,,,,,,,,0.01,0.04,1.02,-3.0,-0.8,-0.4,900,0,,,,,,,,,,,,,,,,,,,
41214,1506732283249,,,,,,,,0.01,0.03,1.02,-3.0,-0.5,-0.4,900,0,,,,,,,,,,,,,,,,,,,
41234,1506732283269,,,,,,,,0.01,0.02,1.03,-3.0,-0.3,-0.3,900,0,,,,,,,,,,,,,,,,,,,
41254,1506732283289,,,,,,,,0.01,0.04,1.02,-3.1,-0.4,-0.2,900,0,,,,,,,,,,,,,,,,,,,
41274,1506732283309,0,103.8,,104.0,14,107.7,,0.02,0.04,1.01,-3.1,-0.5,-0.1,900,0,1,1,0.0,0,35.48991,-119.546143,0.0,0.0,250.3,10,2,1.7,0,0.0,-1,0.0,0.0,0.0,0
41294,1506732283329,,,,,,,,0.02,0.04,1.02,-3.1,-0.4,-0.1,880,0,,,,,,,,,,,,,,,,,,,
41314,1506732283349,,,,,,,,0.02,0.04,1.01,-3.0,-0.4,-0.1,880,0,,,,,,,,,,,,,,,,,,,
41334,1506732283369,,,,,,,,0.02,0.05,1.01,-3.0,-0.4,-0.1,880,0,,,,,,,,,,,,,,,,,,,
41354,1506732283389,,,,,,,,0.02,0.05,1.01,-3.0,-0.4,-0.2,880,0,,,,,,,,,,,,,,,,,,,
41374,1506732283409,,,,,17,,,0.02,0.05,1.01,-3.0,-0.7,-0.3,880,0,1,1,0.0,0,35.48991,-119.546143,0.0,0.0,250.3,10,2,1.7,0,0.0,-1,0.0,0.0,0.0,0
41394,1506732283429,,,,,,,,0.02,0.04,1.01,-3.0,-0.6,-0.4,880,0,,,,,,,,,,,,,,,,,,,
41414,1506732283449,,,,,,,,0.01,0.04,1.01,-3.0,-0.5,-0.4,880,0,,,,,,,,,,,,,,,,,,,
41434,1506732283469,,,,,,,,0.02,0.05,1.0,-3.0,-0.5,-0.3,880,0,,,,,,,,,,,,,,,,,,,
41454,1506732283489,,,,,,,,0.03,0.05,0.99,-3.1,-0.6,-0.2,880,0,,,,,,,,,,,,,,,,,,,
41474,1506732283505,0,103.8,,104.3,23,108.0,,0.03,0.05,1.0,-3.1,-0.6,-0.1,860,0,1,1,0.0,0,35.48991,-119.546143,0.0,0.0,250.3,10,2,1.7,0,0.0,-1,0.0,0.0,0.0,0
41494,1506732283525,,,,,,,,0.03,0.07,1.0,-3.1,-0.7,0.0,880,0,,,,,,,,,,,,,,,,,,,
41514,1506732283545,,,,,,,,0.03,0.06,1.0,-3.1,-0.5,-0.0,880,0,,,,,,,,,,,,,,,,,,,
41534,1506732283565,,,,,,,,0.03,0.07,1.0,-3.0,-0.6,-0.2,880,0,,,,,,,,,,,,,,,,,,,
41554,1506732283585,,,,,,,,0.03,0.06,1.0,-3.0,-0.9,-0.3,880,0,,,,,,,,,,,,,,,,,,,
41574,1506732283603,,,,,30,,,0.02,0.06,0.99,-3.0,-0.9,-0.3,880,0,1,1,0.0,0,35.48991,-119.546143,0.0,0.0,250.3,10,2,1.7,0,0.0,-1,0.0,0.0,0.0,0
41594,1506732283623,,,,,,,,0.02,0.04,0.97,-3.0,-0.6,-0.3,860,0,,,,,,,,,,,,,,,,,,,
41614,1506732283643,,,,,,,,0.03,0.05,0.97,-3.0,-0.6,-0.2,860,0,,,,,,,,,,,,,,,,,,,
41634,1506732283663,,,,,,,,0.03,0.05,0.98,-3.1,-0.7,-0.0,880,0,,,,,,,,,,,,,,,,,,,
41654,1506732283683,,,,,,,,0.03,0.05,0.99,-3.1,-0.7,-0.0,880,0,,,,,,,,,,,,,,,,,,,
41674,1506732283705,0,105.0,,105.3,39,108.4,,0.03,0.06,0.99,-3.1,-0.7,0.0,880,0,1,1,0.0,0,35.48991,-119.546143,0.0,0.0,250.3,10,2,1.7,0,0.0,-1,0.0,0.0,0.0,0
41694,1506732283725,,,,,,,,0.03,0.07,0.98,-3.1,-0.6,0.0,880,0,,,,,,,,,,,,,,,,,,,
41714,1506732283745,,,,,,,,0.03,0.06,0.99,-3.0,-0.6,-0.1,880,0,,,,,,,,,,,,,,,,,,,
41734,1506732283765,,,,,,,,0.03,0.06,0.98,-3.0,-0.9,-0.2,880,0,,,,,,,,,,,,,,,,,,,
41754,1506732283785,,,,,,,,0.02,0.05,0.98,-3.0,-0.9,-0.3,880,0,,,,,,,,,,,,,,,,,,,
41774,1506732283804,,,,,48,,,0.02,0.03,0.96,-2.9,-0.6,-0.3,880,0,1,1,0.0,0,35.48991,-119.546143,0.0,0.0,250.3,10,2,1.7,0,0.0,-1,0.0,0.0,0.0,0
41794,1506732283824,,,,,,,,0.02,0.04,0.96,-3.0,-0.6,-0.2,880,0,,,,,,,,,,,,,,,,,,,
41814,1506732283844,,,,,,,,0.03,0.05,0.95,-3.0,-0.8,-0.1,880,0,,,,,,,,,,,,,,,,,,,
41834,1506732283864,,,,,,,,0.03,0.05,0.97,-3.0,-0.7,-0.1,880,0,,,,,,,,,,,,,,,,,,,
41854,1506732283884,,,,,,,,0.03,0.05,0.97,-3.0,-0.7,-0.1,880,0,,,,,,,,,,,,,,,,,,,
41874,1506732283908,0,105.5,,105.6,58,108.3,,0.03,0.06,0.97,-3.0,-0.6,-0.0,880,0,1,1,0.0,0,35.48991,-119.546143,0.0,0.0,250.3,10,2,1.7,0,0.0,-1,0.0,0.0,0.0,0
41894,1506732283928,,,,,,,,0.03,0.05,0.99,-3.0,-0.5,-0.1,880,0,,,,,,,,,,,,,,,,,,,
41914,1506732283948,,,,,,,,0.03,0.05,0.99,-2.9,-0.7,-0.3,880,0,,,,,,,,,,,,,,,,,,,
41934,1506732283968,,,,,,,,0.02,0.04,0.98,-2.9,-0.7,-0.4,880,0,,,,,,,,,,,,,,,,,,,
41954,1506732283988,,,,,,,,0.02,0.04,0.98,-2.9,-0.5,-0.4,880,0,,,,,,,,,,,,,,,,,,,
41974,1506732284002,,,,,60,,,0.03,0.05,0.96,-2.9,-0.5,-0.2,880,0,1,1,0.0,0,35.48991,-119.546143,0.0,0.0,250.3,10,2,1.7,0,0.0,-1,0.0,0.0,0.0,0
41994,1506732284022,,,,,,,,0.03,0.06,0.95,-3.0,-0.6,-0.1,880,0,,,,,,,,,,,,,,,,,,,
42014,1506732284042,,,,,,,,0.04,0.06,0.96,-3.0,-0.6,-0.0,880,0,,,,,,,,,,,,,,,,,,,
42034,1506732284062,,,,,,,,0.03,0.07,0.97,-3.0,-0.7,0.0,880,0,,,,,,,,,,,,,,,,,,,
42054,1506732284082,,,,,,,,0.03,0.07,0.97,-3.0,-0.6,0.0,880,0,,,,,,,,,,,,,,,,,,,
42074,1506732284108,0,104.1,-0.4,104.6,61,108.2,14.63,0.03,0.07,0.97,-3.0,-0.6,-0.1,900,0,1,1,0.0,0,35.48991,-119.546143,0.0,0.0,250.3,10,2,1.7,0,0.0,-1,0.0,0.0,0.0,0
42094,1506732284128,,,,,,,,0.04,0.06,0.97,-2.9,-0.8,-0.3,880,65,,,,,,,,,,,,,,,,,,,
42114,1506732284148,,,,,,,,0.03,0.06,0.99,-2.9,-0.8,-0.3,880,65,,,,,,,,,,,,,,,,,,,
42134,1506732284168,,,,,,,,0.02,0.06,1.02,-3.0,-0.5,-0.3,880,65,,,,,,,,,,,,,,,,,,,
42154,1506732284188,,,,,,,,0.03,0.06,1.01,-3.0,-0.5,-0.2,880,65,,,,,,,,,,,,,,,,,,,
42174,1506732284210,,,,,59,,,0.03,0.07,0.99,-3.0,-0.7,-0.1,880,65,1,1,13.75,0,35.48991,-119.546143,0.0,0.0,250.3,10,2,1.7,0,0.0,-1,0.0,0.0,0.0,0
42194,1506732284230,,,,,,,,0.04,0.06,0.99,-3.0,-0.6,-0.1,880,65,,,,,,,,,,,,,,,,,,,
42214,1506732284250,,,,,,,,0.04,0.07,0.99,-3.0,-0.6,-0.1,880,65,,,,,,,,,,,,,,,,,,,
42234,1506732284270,,,,,,,,0.03,0.08,0.99,-3.0,-0.6,-0.1,880,65,,,,,,,,,,,,,,,,,,,
42254,1506732284290,,,,,,,,0.03,0.08,1.0,-3.0,-0.4,-0.1,880,65,,,,,,,,,,,,,,,,,,,
42274,1506732284308,0,105.4,,105.5,61,108.1,,0.03,0.07,1.0,-3.0,-0.6,-0.2,860,65,1,1,13.75,0,35.48991,-119.546143,0.0,0.0,250.3,10,2,1.7,0,0.0,-1,0.0,0.0,0.0,0
42294,1506732284328,,,,,,,,0.03,0.06,0.98,-3.0,-0.8,-0.3,880,65,,,,,,,,,,,,,,,,,,,
42314,1506732284348,,,,,,,,0.02,0.05,1.01,-3.0,-0.5,-0.3,880,65,,,,,,,,,,,,,,,,,,,
42334,1506732284368,,,,,,,,0.02,0.05,1.0,-3.0,-0.5,-0.3,880,65,,,,,,,,,,,,,,,,,,,
42354,1506732284388,,,,,,,,0.03,0.06,1.0,-3.0,-0.6,-0.1,880,65,,,,,,,,,,,,,,,,,,,
42374,1506732284410,,,,,59,,,0.03,0.06,1.01,-3.0,-0.6,-0.1,880,65,1,1,13.75,0,35.48991,-119.546143,0.0,0.0,250.3,10,2,1.7,0,0.0,-1,0.0,0.0,0.0,0
42394,1506732284430,,,,,,,,0.03,0.07,1.01,-3.0,-0.6,-0.0,880,65,,,,,,,,,,,,,,,,,,,
42414,1506732284450,,,,,,,,0.03,0.07,1.0,-3.0,-0.5,-0.0,880,65,,,,,,,,,,,,,,,,,,,
42434,1506732284470,,,,,,,,0.03,0.07,1.0,-3.0,-0.4,-0.1,880,65,,,,,,,,,,,,,,,,,,,
42454,1506732284490,,,,,,,,0.03,0.06,1.0,-2.9,-0.8,-0.3,880,65,,,,,,,,,,,,,,,,,,,
42474,1506732284506,0,103.8,,104.1,60,108.0,,0.02,0.06,1.0,-3.0,-0.7,-0.4,880,65,1,1,13.75,0,35.48991,-119.546143,0.0,0.0,250.3,10,2,1.7,0,0.0,-1,0.0,0.0,0.0,0
42494,1506732284526,,,,,,,,0.02,0.05,0.98,-2.9,-0.5,-0.4,880,65,,,,,,,,,,,,,,,,,,,
42514,1506732284546,,,,,,,,0.03,0.06,0.97,-3.0,-0.5,-0.3,880,65,,,,,,,,,,,,,,,,,,,
42534,1506732284566,,,,,,,,0.03,0.06,0.97,-3.0,-0.7,-0.1,880,65,,,,,,,,,,,,,,,,,,,
42554,1506732284586,,,,,,,,0.03,0.06,0.99,-3.0,-0.7,-0.1,880,65,,,,,,,,,,,,,,,,,,,
42574,1506732284604,,,,,59,,,0.03,0.07,0.98,-3.0,-0.8,-0.0,880,65,1,1,13.75,0,35.48991,-119.546143,0.0,0.0,250.3,10,2,1.7,0,0.0,-1,0.0,0.0,0.0,0
42594,1506732284624,,,,,,,,0.03,0.07,0.98,-3.0,-0.6,-0.1,880,65,,,,,,,,,,,,,,,,,,,
42614,1506732284644,,,,,,,,0.03,0.06,0.99,-3.0,-0.7,-0.2,880,65,,,,,,,,,,,,,,,,,,,
42634,1506732284664,,,,,,,,0.03,0.06,0.99,-2.9,-0.9,-0.3,880,65,,,,,,,,,,,,,,,,,,,
42654,1506732284684,,,,,,,,0.02,0.06,0.98,-3.0,-0.9,-0.3,880,65,,,,,,,,,,,,,,,,,,,
42674,1506732284706,0,105.5,,105.5,60,108.1,,0.02,0.04,0.97,-3.0,-0.6,-0.3,880,65,1,1,13.75,0,35.48991,-119.546143,0.0,0.0,250.3,10,2,1.7,0,0.0,-1,0.0,0.0,0.0,0
42694,1506732284726,,,,,,,,0.02,0.05,0.97,-3.0,-0.7,-0.2,880,65,,,,,,,,,,,,,,,,,,,
42714,1506732284746,,,,,,,,0.02,0.05,0.96,-3.1,-0.9,-0.0,880,65,,,,,,,,,,,,,,,,,,,
42734,1506732284766,,,,,,,,0.02,0.05,0.98,-3.1,-0.8,-0.0,880,65,,,,,,,,,,,,,,,,,,,
42754,1506732284786,,,,,,,,0.02,0.05,0.98,-3.1,-0.7,-0.0,880,65,,,,,,,,,,,,,,,,,,,
42774,1506732284805,,,,,60,,,0.02,0.06,0.99,-3.1,-0.7,-0.0,880,65,1,1,13.75,0,35.48991,-119.546143,0.0,0.0,250.3,10,2,1.7,0,0.0,-1,0.0,0.0,0.0,0
42794,1506732284825,,,,,,,,0.02,0.05,0.99,-3.1,-0.6,-0.1,880,65,,,,,,,,,,,,,,,,,,,
42814,1506732284845,,,,,,,,0.02,0.05,0.99,-3.0,-0.9,-0.3,880,65,,,,,,,,,,,,,,,,,,,
42834,1506732284865,,,,,,,,0.02,0.05,0.98,-3.0,-0.9,-0.3,880,65,,,,,,,,,,,,,,,,,,,
42854,1506732284885,,,,,,,,0.02,0.03,0.97,-3.0,-0.6,-0.3,880,65,,,,,,,,,,,,,,,,,,,
42874,1506732284907,1,104.1,,104.6,60,108.2,,0.02,0.04,0.96,-3.0,-0.6,-0.3,880,65,1,1,13.75,0,35.48991,-119.546143,0.0,0.0,250.3,10,2,1.7,0,0.0,-1,0.0,0.0,0.0,0
42894,1506732284927,,,,,,,,0.03,0.04,0.95,-3.1,-0.8,-0.1,880,65,,,,,,,,,,,,,,,,,,,
42914,1506732284947,,,,,,,,0.03,0.04,0.97,-3.1,-0.7,-0.1,880,65,,,,,,,,,,,,,,,,,,,
42934,1506732284967,,,,,,,,0.02,0.05,0.97,-3.0,-0.7,-0.1,880,0,,,,,,,,,,,,,,,,,,,
42954,1506732284987,,,,,,,,0.02,0.06,0.98,-3.0,-0.7,-0.0,880,0,,,,,,,,,,,,,,,,,,,
42974,1506732285003,,,,,60,,,0.03,0.06,0.99,-3.0,-0.5,-0.1,880,0,1,1,0.0,0,35.48991,-119.546143,0.0,0.0,250.3,10,2,1.7,0,0.0,-1,0.0,0.0,0.0,0
42994,1506732285023,,,,,,,,0.02,0.06,0.99,-3.0,-0.8,-0.3,880,0,,,,,,,,,,,,,,,,,,,
43014,1506732285043,,,,,,,,0.02,0.06,0.99,-3.0,-0.8,-0.4,880,0,,,,,,,,,,,,,,,,,,,
43034,1506732285063,,,,,,,,0.01,0.05,1.01,-3.0,-0.7,-0.3,880,0,,,,,,,,,,,,,,,,,,,
43054,1506732285083,,,,,,,,0.02,0.05,1.0,-3.0,-0.6,-0.3,860,0,,,,,,,,,,,,,,,,,,,
43074,1506732285109,0,105.4,-0.2,105.6,60,108.5,14.6,0.03,0.06,0.98,-3.0,-0.8,-0.1,860,0,1,1,0.0,0,35.48991,-119.546143,0.0,0.0,250.3,10,2,1.7,0,0.0,-1,0.0,0.0,0.0,0
43094,1506732285129,,,,,,,,0.03,0.05,0.99,-3.1,-0.8,-0.1,860,0,,,,,,,,,,,,,,,,,,,
43114,1506732285149,,,,,,,,0.03,0.06,0.98,-3.0,-0.9,-0.0,880,0,,,,,,,,,,,,,,,,,,,
43134,1506732285169,,,,,,,,0.03,0.07,0.99,-3.1,-0.7,-0.0,880,0,,,,,,,,,,,,,,,,,,,
43154,1506732285189,,,,,,,,0.03,0.07,1.0,-3.0,-0.8,-0.1,880,0,,,,,,,,,,,,,,,,,,,
43174,1506732285209,,,,,59,,,0.03,0.06,1.0,-3.0,-1.0,-0.3,880,0,1,1,0.0,0,35.48991,-119.546143,0.0,0.0,250.3,10,2,1.7,0,0.0,-1,0.0,0.0,0.0,0
43194,1506732285229,,,,,,,,0.02,0.06,0.99,-3.0,-1.0,-0.3,880,0,,,,,,,,,,,,,,,,,,,
43214,1506732285249,,,,,,,,0.02,0.05,0.99,-3.0,-0.7,-0.2,880,0,,,,,,,,,,,,,,,,,,,
43234,1506732285269,,,,,,,,0.02,0.06,0.98,-3.0,-0.8,-0.1,880,0,,,,,,,,,,,,,,,,,,,
43254,1506732285289,,,,,,,,0.02,0.06,0.99,-3.1,-0.9,-0.0,880,0,,,,,,,,,,,,,,,,,,,
43274,1506732285309,0,105.6,,105.5,60,107.6,,0.02,0.05,1.0,-3.1,-0.9,-0.0,880,0,1,1,0.0,0,35.48991,-119.546143,0.0,0.0,250.3,10,2,1.7,0,0.0,-1,0.0,0.0,0.0,0
43294,1506732285329,,,,,,,,0.02,0.06,1.0,-3.1,-0.8,-0.0,880,0,,,,,,,,,,,,,,,,,,,
43314,1506732285349,,,,,,,,0.02,0.06,1.0,-3.1,-0.7,-0.0,880,0,,,,,,,,,,,,,,,,,,,
43334,1506732285369,,,,,,,,0.02,0.04,1.0,-3.0,-0.7,-0.1,860,0,,,,,,,,,,,,,,,,,,,
43354,1506732285389,,,,,,,,0.02,0.05,0.98,-2.9,-1.0,-0.3,860,0,,,,,,,,,,,,,,,,,,,
43374,1506732285407,,,,,59,,,0.01,0.04,0.99,-3.0,-0.7,-0.3,860,0,1,1,0.0,0,35.48991,-119.546143,0.0,0.0,250.3,10,2,1.7,0,0.0,-1,0.0,0.0,0.0,0
43394,1506732285427,,,,,,,,0.02,0.03,0.97,-2.9,-0.5,-0.2,880,0,,,,,,,,,,,,,,,,,,,
43414,1506732285447,,,,,,,,0.02,0.04,0.96,-3.0,-0.6,-0.1,880,0,,,,,,,,,,,,,,,,,,,
43434,1506732285467,,,,,,,,0.02,0.03,0.99,-3.0,-0.7,-0.0,880,0,,,,,,,,,,,,,,,,,,,
43454,1506732285487,,,,,,,,0.02,0.04,0.99,-3.0,-0.7,-0.0,880,0,,,,,,,,,,,,,,,,,,,
43474,1506732285505,0,105.4,,105.0,59,106.9,,0.02,0.05,0.98,-3.0,-0.5,-0.0,880,0,1,1,0.0,0,35.48991,-119.546143,0.0,0.0,250.3,10,2,1.7,0,0.0,-1,0.0,0.0,0.0,0
43494,1506732285525,,,,,,,,0.02,0.05,0.98,-3.0,-0.4,-0.1,860,0,,,,,,,,,,,,,,,,,,,
43514,1506732285545,,,,,,,,0.02,0.04,0.98,-3.0,-0.8,-0.2,880,0,,,,,,,,,,,,,,,,,,,
43534,1506732285565,,,,,,,,0.01,0.03,0.97,-3.0,-0.7,-0.3,880,0,,,,,,,,,,,,,,,,,,,
43554,1506732285585,,,,,,,,0.01,0.02,0.97,-3.0,-0.4,-0.3,880,0,,,,,,,,,,,,,,,,,,,
43574,1506732285605,,,,,59,,,0.01,0.03,0.99,-3.0,-0.3,-0.2,880,0,1,1,0.0,0,35.48991,-119.546143,0.0,0.0,250.3,10,2,1.7,0,0.0,-1,0.0,0.0,0.0,0
43594,1506732285625,,,,,,,,0.01,0.03,1.0,-3.0,-0.4,-0.1,880,0,,,,,,,,,,,,,,,,,,,
43614,1506732285645,,,,,,,,0.02,0.04,1.01,-3.1,-0.3,-0.1,880,0,,,,,,,,,,,,,,,,,,,
43634,1506732285665,,,,,,,,0.01,0.04,1.0,-3.0,-0.4,-0.1,860,0,,,,,,,,,,,,,,,,,,,
43654,1506732285685,,,,,,,,0.01,0.04,1.0,-3.1,-0.1,-0.1,860,0,,,,,,,,,,,,,,,,,,,
43674,1506732285705,0,104.7,,104.0,60,107.0,,0.02,0.04,0.98,-3.0,-0.2,-0.2,880,0,1,1,0.0,0,35.48991,-119.546143,0.0,0.0,250.3,10,2,1.7,0,0.0,-1,0.0,0.0,0.0,0
43694,1506732285725,,,,,,,,0.02,0.04,0.98,-3.0,-0.5,-0.3,880,0,,,,,,,,,,,,,,,,,,,
43714,1506732285745,,,,,,,,0.01,0.03,1.0,-3.0,-0.3,-0.3,860,0,,,,,,,,,,,,,,,,,,,
43734,1506732285765,,,,,,,,0.01,0.04,0.99,-3.0,-0.2,-0.3,860,0,,,,,,,,,,,,,,,,,,,
43754,1506732285785,,,,,,,,0.02,0.05,0.98,-3.1,-0.5,-0.2,860,0,,,,,,,,,,,,,,,,,,,
43774,1506732285804,,,,,60,,,0.03,0.05,0.99,-3.1,-0.5,-0.1,860,0,1,1,0.0,0,35.48991,-119.546143,0.0,0.0,250.3,10,2,1.7,0,0.0,-1,0.0,0.0,0.0,0
43794,1506732285824,,,,,,,,0.02,0.06,0.98,-3.1,-0.6,-0.0,860,0,,,,,,,,,,,,,,,,,,,
43814,1506732285844,,,,,,,,0.02,0.06,0.98,-3.2,-0.4,-0.1,880,0,,,,,,,,,,,,,,,,,,,
43834,1506732285864,,,,,,,,0.03,0.06,0.99,-3.1,-0.5,-0.2,880,0,,,,,,,,,,,,,,,,,,,
43854,1506732285884,,,,,,,,0.02,0.06,0.99,-3.1,-0.9,-0.3,860,0,,,,,,,,,,,,,,,,,,,
43874,1506732285904,0,105.2,,105.5,60,108.7,,0.01,0.06,1.0,-3.1,-0.6,-0.3,860,0,1,1,0.0,0,35.48991,-119.546143,0.0,0.0,250.3,10,2,1.7,0,0.0,-1,0.0,0.0,0.0,0
43894,1506732285924,,,,,,,,0.02,0.04,0.97,-3.1,-0.4,-0.3,860,0,,,,,,,,,,,,,,,,,,,
43914,1506732285944,,,,,,,,0.03,0.05,0.96,-3.1,-0.5,-0.2,860,0,,,,,,,,,,,,,,,,,,,
43934,1506732285964,,,,,,,,0.02,0.05,0.99,-3.1,-0.3,-0.1,860,0,,,,,,,,,,,,,,,,,,,
43954,1506732285984,,,,,,,,0.02,0.06,0.99,-3.1,-0.5,-0.1,860,0,,,,,,,,,,,,,,,,,,,
43974,1506732286002,,,,,60,,,0.02,0.06,0.98,-3.1,-0.3,-0.1,860,0,1,1,0.0,0,35.48991,-119.546143,0.0,0.0,250.3,10,2,1.7,0,0.0,-1,0.0,0.0,0.0,0
43994,1506732286022,,,,,,,,0.02,0.05,0.99,-3.0,-0.3,-0.2,860,0,,,,,,,,,,,,,,,,,,,
44014,1506732286042,,,,,,,,0.02,0.05,0.98,-3.0,-0.7,-0.3,860,0,,,,,,,,,,,,,,,,,,,
44034,1506732286062,,,,,,,,0.01,0.04,0.99,-3.1,-0.3,-0.3,860,0,,,,,,,,,,,,,,,,,,,
44054,1506732286082,,,,,,,,0.01,0.04,0.98,-3.0,-0.2,-0.2,860,0,,,,,,,,,,,,,,,,,,,
44074,1506732286108,0,105.4,-0.4,104.9,61,107.1,14.63,0.02,0.04,0.96,-3.1,-0.5,-0.1,860,0,1,1,0.0,0,35.48991,-119.546143,0.0,0.0,250.3,10,2,1.7,0,0.0,-1,0.0,0.0,0.0,0
44094,1506732286128,,,,,,,,0.02,0.04,0.97,-3.2,-0.6,-0.1,880,0,,,,,,,,,,,,,,,,,,,
44114,1506732286148,,,,,,,,0.02,0.05,0.97,-3.1,-0.6,-0.0,880,0,,,,,,,,,,,,,,,,,,,
44134,1506732286168,,,,,,,,0.02,0.05,0.96,-3.1,-0.5,-0.1,860,0,,,,,,,,,,,,,,,,,,,
44154,1506732286188,,,,,,,,0.03,0.05,0.97,-3.0,-0.4,-0.1,860,0,,,,,,,,,,,,,,,,,,,
44174,1506732286208,,,,,61,,,0.02,0.05,0.97,-3.0,-0.9,-0.2,860,0,1,1,0.0,0,35.48991,-119.546143,0.0,0.0,250.3,10,2,1.7,0,0.0,-1,0.0,0.0,0.0,0
44194,1506732286228,,,,,,,,0.01,0.03,0.98,-3.1,-0.6,-0.3,860,0,,,,,,,,,,,,,,,,,,,
44214,1506732286248,,,,,,,,0.02,0.04,0.98,-3.0,-0.5,-0.2,860,0,,,,,,,,,,,,,,,,,,,
44234,1506732286268,,,,,,,,0.02,0.05,0.98,-3.1,-0.4,-0.1,880,0,,,,,,,,,,,,,,,,,,,
44254,1506732286288,,,,,,,,0.03,0.05,1.01,-3.1,-0.4,-0.1,880,0,,,,,,,,,,,,,,,,,,,
44274,1506732286308,0,105.5,,105.5,60,107.3,,0.02,0.06,1.01,-3.1,-0.5,-0.1,860,0,1,1,0.0,0,35.48991,-119.546143,0.0,0.0,250.3,10,2,1.7,0,0.0,-1,0.0,0.0,0.0,0
44294,1506732286328,,,,,,,,0.02,0.06,1.0,-3.1,-0.3,-0.1,860,0,,,,,,,,,,,,,,,,,,,
44314,1506732286348,,,,,,,,0.03,0.05,0.99,-3.1,-0.3,-0.1,860,0,,,,,,,,,,,,,,,,,,,
44334,1506732286368,,,,,,,,0.02,0.05,0.98,-3.1,-0.7,-0.3,880,0,,,,,,,,,,,,,,,,,,,
44354,1506732286388,,,,,,,,0.01,0.04,1.01,-3.1,-0.4,-0.3,880,0,,,,,,,,,,,,,,,,,,,
44374,1506732286408,,,,,60,,,0.01,0.04,1.0,-3.0,-0.2,-0.3,880,0,1,1,0.0,0,35.48991,-119.546143,0.0,0.0,250.3,10,2,1.7,0,0.0,-1,0.0,0.0,0.0,0
44394,1506732286428,,,,,,,,0.02,0.05,1.0,-3.1,-0.3,-0.3,880,0,,,,,,,,,,,,,,,,,,,
44414,1506732286448,,,,,,,,0.02,0.04,1.02,-3.2,-0.4,-0.3,860,0,,,,,,,,,,,,,,,,,,,
44434,1506732286394,,,,,,,,0.02,0.05,1.01,-3.1,-0.4,-0.2,860,0,,,,,,,,,,,,,,,,,,,
44454,1506732286414,,,,,,,,0.02,0.06,1.01,-3.1,-0.4,-0.2,860,0,,,,,,,,,,,,,,,,,,,
44474,1506732286508,0,105.4,,105.6,60,108.4,,0.03,0.06,1.01,-3.1,-0.3,-0.2,860,0,1,1,0.0,0,35.48991,-119.546143,0.0,0.0,250.3,10,2,1.7,0,0.0,-1,0.0,0.0,0.0,0
44494,1506732286528,,,,,,,,0.02,0.06,1.01,-3.1,-0.7,-0.4,860,0,,,,,,,,,,,,,,,,,,,
44514,1506732286548,,,,,,,,0.02,0.05,1.0,-3.1,-0.6,-0.4,860,0,,,,,,,,,,,,,,,,,,,
44534,1506732286568,,,,,,,,0.02,0.04,0.97,-3.1,-0.4,-0.3,860,0,,,,,,,,,,,,,,,,,,,
44554,1506732286588,,,,,,,,0.02,0.05,0.96,-3.1,-0.5,-0.2,860,0,,,,,,,,,,,,,,,,,,,
44574,1506732286610,,,,,59,,,0.02,0.05,0.99,-3.1,-0.5,-0.1,860,0,1,1,0.0,0,35.48991,-119.546143,0.0,0.0,250.3,10,2,1.7,0,0.0,-1,0.0,0.0,0.0,0
44594,1506732286630,,,,,,,,0.02,0.05,0.99,-3.1,-0.5,-0.0,860,0,,,,,,,,,,,,,,,,,,,
44614,1506732286650,,,,,,,,0.02,0.06,0.98,-3.1,-0.4,-0.0,880,0,,,,,,,,,,,,,,,,,,,
44634,1506732286670,,,,,,,,0.02,0.05,0.99,-3.1,-0.3,-0.1,880,0,,,,,,,,,,,,,,,,,,,
44654,1506732286690,,,,,,,,0.02,0.05,0.98,-3.0,-0.6,-0.3,880,0,,,,,,,,,,,,,,,,,,,
44674,1506732286708,0,104.1,,103.8,60,107.0,,0.01,0.03,0.96,-3.1,-0.5,-0.4,860,0,1,1,0.0,0,35.48991,-119.546143,0.0,0.0,250.3,10,2,1.7,0,0.0,-1,0.0,0.0,0.0,0
44694,1506732286728,,,,,,,,0.01,0.03,0.97,-3.0,-0.2,-0.3,860,0,,,,,,,,,,,,,,,,,,,
44714,1506732286748,,,,,,,,0.02,0.04,0.99,-3.1,-0.1,-0.2,860,0,,,,,,,,,,,,,,,,,,,
44734,1506732286768,,,,,,,,0.02,0.05,1.0,-3.1,-0.2,-0.1,860,0,,,,,,,,,,,,,,,,,,,
44754,1506732286788,,,,,,,,0.02,0.05,1.0,-3.1,-0.3,-0.1,880,0,,,,,,,,,,,,,,,,,,,
44774,1506732286809,,,,,60,,,0.02,0.06,0.99,-3.1,-0.4,-0.1,880,0,1,1,0.0,0,35.48991,-119.546143,0.0,0.0,250.3,10,2,1.7,0,0.0,-1,0.0,0.0,0.0,0
44794,1506732286829,,,,,,,,0.02,0.05,1.0,-3.1,-0.3,-0.2,880,0,,,,,,,,,,,,,,,,,,,
44814,1506732286849,,,,,,,,0.02,0.06,0.99,-3.1,-0.6,-0.3,860,0,,,,,,,,,,,,,,,,,,,
44834,1506732286869,,,,,,,,0.02,0.06,0.98,-3.1,-0.8,-0.4,860,0,,,,,,,,,,,,,,,,,,,
44854,1506732286889,,,,,,,,0.01,0.04,1.0,-3.1,-0.4,-0.3,860,0,,,,,,,,,,,,,,,,,,,
44874,1506732286909,0,105.6,,105.8,60,108.7,,0.02,0.05,1.0,-3.1,-0.5,-0.2,860,0,1,1,0.0,0,35.48991,-119.546143,0.0,0.0,250.3,10,2,1.7,0,0.0,-1,0.0,0.0,0.0,0
44894,1506732286929,,,,,,,,0.02,0.06,0.98,-3.1,-0.7,-0.1,880,0,,,,,,,,,,,,,,,,,,,
44914,1506732286949,,,,,,,,0.03,0.05,0.99,-3.1,-0.8,-0.1,880,0,,,,,,,,,,,,,,,,,,,
44934,1506732286969,,,,,,,,0.02,0.07,0.98,-3.0,-0.8,-0.0,880,0,,,,,,,,,,,,,,,,,,,
44954,1506732286989,,,,,,,,0.02,0.06,0.99,-3.0,-0.5,-0.0,860,0,,,,,,,,,,,,,,,,,,,
44974,1506732287003,,,,,60,,,0.03,0.05,0.98,-2.9,-0.6,-0.2,880,0,1,1,0.0,0,35.48991,-119.546143,0.0,0.0,250.3,10,2,1.7,0,0.0,-1,0.0,0.0,0.0,0
44994,1506732287023,,,,,,,,0.02,0.04,0.97,-2.9,-0.9,-0.3,880,0,,,,,,,,,,,,,,,,,,,
45014,1506732287043,,,,,,,,0.01,0.03,0.97,-2.9,-0.6,-0.3,880,0,,,,,,,,,,,,,,,,,,,
45034,1506732287063,,,,,,,,0.02,0.02,0.96,-2.9,-0.3,-0.2,880,0,,,,,,,,,,,,,,,,,,,
45054,1506732287083,,,,,,,,0.02,0.03,0.98,-2.9,-0.3,-0.2,880,0,,,,,,,,,,,,,,,,,,,
45074,1506732287109,0,105.0,-0.3,104.0,62,106.9,14.67,0.02,0.03,1.0,-3.0,-0.4,-0.1,880,0,1,1,0.0,0,35.48991,-119.546143,0.0,0.0,250.3,10,2,1.7,0,0.0,-1,0.0,0.0,0.0,0
45094,1506732287129,,,,,,,,0.02,0.04,1.0,-3.0,-0.4,-0.1,880,0,,,,,,,,,,,,,,,,,,,
45114,1506732287149,,,,,,,,0.02,0.04,0.99,-2.9,-0.4,-0.1,880,0,,,,,,,,,,,,,,,,,,,
45134,1506732287169,,,,,,,,0.02,0.04,0.98,-3.0,-0.2,-0.1,860,0,,,,,,,,,,,,,,,,,,,
45154,1506732287189,,,,,,,,0.02,0.03,0.98,-2.9,-0.5,-0.2,880,0,,,,,,,,,,,,,,,,,,,
45174,1506732287209,,,,,62,,,0.01,0.03,0.96,-2.9,-0.7,-0.3,880,0,1,1,0.0,0,35.48991,-119.546143,0.0,0.0,250.3,10,2,1.7,0,0.0,-1,0.0,0.0,0.0,0
45194,1506732287229,,,,,,,,0.01,0.02,0.96,-2.9,-0.4,-0.2,880,0,,,,,,,,,,,,,,,,,,,
45214,1506732287249,,,,,,,,0.02,0.03,0.98,-2.9,-0.2,-0.1,880,0,,,,,,,,,,,,,,,,,,,
45234,1506732287269,,,,,,,,0.02,0.03,0.98,-3.0,-0.3,-0.0,860,0,,,,,,,,,,,,,,,,,,,
45254,1506732287289,,,,,,,,0.02,0.03,1.0,-3.0,-0.3,-0.0,880,0,,,,,,,,,,,,,,,,,,,
45274,1506732287309,0,105.0,,104.0,62,106.7,,0.02,0.04,0.99,-2.9,-0.5,0.0,860,0,1,1,0.0,0,35.48991,-119.546143,0.0,0.0,250.3,10,2,1.7,0,0.0,-1,0.0,0.0,0.0,0
45294,1506732287329,,,,,,,,0.01,0.04,0.99,-3.0,-0.3,-0.0,880,0,,,,,,,,,,,,,,,,,,,
45314,1506732287349,,,,,,,,0.02,0.04,0.98,-3.0,-0.3,-0.1,880,0,,,,,,,,,,,,,,,,,,,
45334,1506732287369,,,,,,,,0.02,0.04,0.98,-2.9,-0.5,-0.2,880,0,,,,,,,,,,,,,,,,,,,
45354,1506732287389,,,,,,,,0.01,0.03,0.99,-3.0,-0.4,-0.3,880,0,,,,,,,,,,,,,,,,,,,
45374,1506732287409,,,,,60,,,0.01,0.03,0.99,-3.0,-0.1,-0.2,860,0,1,1,0.0,0,35.48991,-119.546143,0.0,0.0,250.3,10,2,1.7,0,0.0,-1,0.0,0.0,0.0,0
45394,1506732287429,,,,,,,,0.01,0.04,1.01,-3.0,-0.3,-0.2,860,0,,,,,,,,,,,,,,,,,,,
45414,1506732287449,,,,,,,,0.02,0.04,1.01,-3.0,-0.3,-0.1,860,0,,,,,,,,,,,,,,,,,,,
45434,1506732287469,,,,,,,,0.02,0.05,1.01,-3.0,-0.3,-0.1,860,0,,,,,,,,,,,,,,,,,,,
45454,1506732287489,,,,,,,,0.02,0.06,0.99,-3.0,-0.4,-0.1,880,0,,,,,,,,,,,,,,,,,,,
45474,1506732287507,0,104.1,,104.6,61,108.3,,0.02,0.06,1.0,-3.0,-0.2,-0.2,880,0,1,1,0.0,0,35.48991,-119.546143,0.0,0.0,250.3,10,2,1.7,0,0.0,-1,0.0,0.0,0.0,0
45494,1506732287527,,,,,,,,0.02,0.06,1.0,-3.0,-0.5,-0.3,860,0,,,,,,,,,,,,,,,,,,,
45514,1506732287547,,,,,,,,0.02,0.06,0.99,-3.1,-0.7,-0.3,860,0,,,,,,,,,,,,,,,,,,,
45534,1506732287567,,,,,,,,0.02,0.05,1.0,-3.0,-0.4,-0.3,860,0,,,,,,,,,,,,,,,,,,,
45554,1506732287587,,,,,,,,0.02,0.06,0.99,-3.0,-0.5,-0.2,860,0,,,,,,,,,,,,,,,,,,,
45574,1506732287605,,,,,60,,,0.02,0.06,0.97,-3.1,-0.5,-0.1,860,0,1,1,0.0,0,35.48991,-119.546143,0.0,0.0,250.3,10,2,1.7,0,0.0,-1,0.0,0.0,0.0,0
45594,1506732287625,,,,,,,,0.02,0.06,0.98,-3.1,-0.6,-0.1,860,0,,,,,,,,,,,,,,,,,,,
45614,1506732287645,,,,,,,,0.02,0.07,0.97,-3.0,-0.6,-0.1,860,0,,,,,,,,,,,,,,,,,,,
45634,1506732287665,,,,,,,,0.02,0.05,0.98,-3.0,-0.3,-0.2,860,0,,,,,,,,,,,,,,,,,,,
45654,1506732287685,,,,,,,,0.03,0.05,0.98,-3.0,-0.8,-0.3,860,0,,,,,,,,,,,,,,,,,,,
45674,1506732287705,0,104.4,,104.7,60,108.3,,0.02,0.05,0.97,-3.0,-0.5,-0.3,860,0,1,1,0.0,0,35.48991,-119.546143,0.0,0.0,250.3,10,2,1.7,0,0.0,-1,0.0,0.0,0.0,0
45694,1506732287725,,,,,,,,0.02,0.04,0.96,-3.0,-0.3,-0.2,860,0,,,,,,,,,,,,,,,,,,,
45714,1506732287745,,,,,,,,0.02,0.05,0.99,-3.1,-0.5,-0.1,860,0,,,,,,,,,,,,,,,,,,,
45734,1506732287765,,,,,,,,0.02,0.04,1.01,-3.1,-0.6,-0.1,860,0,,,,,,,,,,,,,,,,,,,
45754,1506732287785,,,,,,,,0.02,0.06,1.0,-3.1,-0.7,-0.0,860,0,,,,,,,,,,,,,,,,,,,
45774,1506732287806,,,,,60,,,0.03,0.07,0.98,-3.0,-0.5,-0.1,840,0,1,1,0.0,0,35.48991,-119.546143,0.0,0.0,250.3,10,2,1.7,0,0.0,-1,0.0,0.0,0.0,0
45794,1506732287826,,,,,,,,0.03,0.06,0.98,-3.0,-0.5,-0.2,860,0,,,,,,,,,,,,,,,,,,,
45814,1506732287846,,,,,,,,0.02,0.06,0.97,-3.0,-0.8,-0.3,840,0,,,,,,,,,,,,,,,,,,,
45834,1506732287866,,,,,,,,0.02,0.04,0.97,-3.0,-0.5,-0.3,860,0,,,,,,,,,,,,,,,,,,,
45854,1506732287886,,,,,,,,0.02,0.05,1.0,-3.0,-0.4,-0.2,860,0,,,,,,,,,,,,,,,,,,,
45874,1506732287908,0,104.0,,103.8,58,107.3,,0.02,0.05,1.01,-3.1,-0.5,-0.1,860,0,1,1,0.0,0,35.48991,-119.546143,0.0,0.0,250.3,10,2,1.7,0,0.0,-1,0.0,0.0,0.0,0
45894,1506732287928,,,,,,,,0.02,0.06,1.02,-3.1,-0.5,-0.1,880,0,,,,,,,,,,,,,,,,,,,
45914,1506732287948,,,,,,,,0.02,0.07,1.01,-3.0,-0.5,-0.1,860,0,,,,,,,,,,,,,,,,,,,
45934,1506732287968,,,,,,,,0.03,0.06,1.01,-3.1,-0.2,-0.1,860,0,,,,,,,,,,,,,,,,,,,
45954,1506732287988,,,,,,,,0.02,0.07,1.0,-3.0,-0.7,-0.3,860,0,,,,,,,,,,,,,,,,,,,
45974,1506732288002,,,,,58,,,0.01,0.06,1.01,-3.1,-0.7,-0.3,860,0,1,1,0.0,0,35.48991,-119.546143,0.0,0.0,250.3,10,2,1.7,0,0.0,-1,0.0,0.0,0.0,0
45994,1506732288022,,,,,,,,0.03,0.05,0.98,-3.0,-0.5,-0.3,860,0,,,,,,,,,,,,,,,,,,,
46014,1506732288042,,,,,,,,0.03,0.06,0.96,-3.0,-0.5,-0.2,840,0,,,,,,,,,,,,,,,,,,,
46034,1506732288062,,,,,,,,0.03,0.06,1.0,-3.1,-0.4,-0.1,840,0,,,,,,,,,,,,,,,,,,,
46054,1506732288082,,,,,,,,0.03,0.06,1.01,-3.0,-0.5,-0.1,820,0,,,,,,,,,,,,,,,,,,,
46074,1506732288108,0,105.5,-0.4,104.6,57,106.9,14.69,0.03,0.06,1.01,-3.0,-0.2,-0.2,820,0,1,1,0.0,0,35.48991,-119.546143,0.0,0.0,250.3,10,2,1.7,0,0.0,-1,0.0,0.0,0.0,0
46094,1506732288128,,,,,,,,0.02,0.06,1.0,-3.0,-0.7,-0.2,820,0,,,,,,,,,,,,,,,,,,,
46114,1506732288148,,,,,,,,0.02,0.05,1.0,-3.1,-0.5,-0.3,820,0,,,,,,,,,,,,,,,,,,,
46134,1506732288168,,,,,,,,0.02,0.05,1.0,-3.1,-0.7,-0.2,840,0,,,,,,,,,,,,,,,,,,,
46154,1506732288188,,,,,,,,0.03,0.05,1.01,-3.1,-0.5,-0.1,840,0,,,,,,,,,,,,,,,,,,,
46174,1506732288208,,,,,57,,,0.03,0.06,1.0,-3.0,-0.6,-0.1,840,0,1,1,0.0,0,35.48991,-119.546143,0.0,0.0,250.3,10,2,1.7,0,0.0,-1,0.0,0.0,0.0,0
46194,1506732288228,,,,,,,,0.03,0.05,1.0,-3.0,-0.5,-0.1,840,0,,,,,,,,,,,,,,,,,,,
46214,1506732288248,,,,,,,,0.03,0.05,1.0,-3.0,-0.7,-0.3,840,0,,,,,,,,,,,,,,,,,,,
46234,1506732288268,,,,,,,,0.02,0.05,1.0,-3.0,-0.6,-0.3,840,0,,,,,,,,,,,,,,,,,,,
46254,1506732288288,,,,,,,,0.03,0.04,0.99,-3.0,-0.5,-0.2,840,0,,,,,,,,,,,,,,,,,,,
46274,1506732288308,0,104.2,,104.7,57,108.4,,0.02,0.05,0.99,-3.1,-0.7,-0.1,840,0,1,1,0.0,0,35.48991,-119.546143,0.0,0.0,250.3,10,2,1.7,0,0.0,-1,0.0,0.0,0.0,0
46294,1506732288328,,,,,,,,0.03,0.05,1.01,-3.1,-0.6,-0.1,860,0,,,,,,,,,,,,,,,,,,,
46314,1506732288348,,,,,,,,0.03,0.06,0.99,-3.0,-0.8,-0.1,860,0,,,,,,,,,,,,,,,,,,,
46334,1506732288368,,,,,,,,0.03,0.05,1.0,-3.0,-0.5,-0.2,840,0,,,,,,,,,,,,,,,,,,,
46354,1506732288388,,,,,,,,0.03,0.05,1.0,-3.0,-0.8,-0.3,840,0,,,,,,,,,,,,,,,,,,,
46374,1506732288408,,,,,58,,,0.02,0.04,0.99,-3.0,-0.6,-0.3,840,0,1,1,0.0,0,35.48991,-119.546143,0.0,0.0,250.3,10,2,1.7,0,0.0,-1,0.0,0.0,0.0,0
46394,1506732288428,,,,,,,,0.03,0.04,0.99,-3.0,-0.5,-0.2,840,0,,,,,,,,,,,,,,,,,,,
46414,1506732288448,,,,,,,,0.03,0.05,0.97,-3.1,-0.6,-0.1,840,0,,,,,,,,,,,,,,,,,,,
46434,1506732288468,,,,,,,,0.03,0.05,0.99,-3.1,-0.7,-0.0,840,0,,,,,,,,,,,,,,,,,,,
46454,1506732288488,,,,,,,,0.03,0.06,0.97,-3.1,-0.8,-0.0,860,0,,,,,,,,,,,,,,,,,,,
46474,1506732288510,0,104.1,,104.7,58,108.2,,0.03,0.05,0.98,-3.1,-0.5,-0.1,840,0,1,1,0.0,0,35.48991,-119.546143,0.0,0.0,250.3,10,2,1.7,0,0.0,-1,0.0,0.0,0.0,0
46494,1506732288530,,,,,,,,0.03,0.05,0.98,-3.0,-0.9,-0.2,840,0,,,,,,,,,,,,,,,,,,,
46514,1506732288550,,,,,,,,0.02,0.04,0.97,-3.1,-0.6,-0.3,840,0,,,,,,,,,,,,,,,,,,,
46534,1506732288570,,,,,,,,0.02,0.03,0.96,-3.0,-0.5,-0.2,840,0,,,,,,,,,,,,,,,,,,,
46554,1506732288590,,,,,,,,0.02,0.04,0.97,-3.1,-0.6,-0.0,860,0,,,,,,,,,,,,,,,,,,,
46574,1506732288608,,,,,57,,,0.03,0.04,0.99,-3.1,-0.6,-0.0,860,0,1,1,0.0,0,35.48991,-119.546143,0.0,0.0,250.3,10,2,1.7,0,0.0,-1,0.0,0.0,0.0,0
46594,1506732288628,,,,,,,,0.03,0.05,0.98,-3.1,-0.7,-0.0,860,0,,,,,,,,,,,,,,,,,,,
46614,1506732288648,,,,,,,,0.03,0.05,0.98,-3.1,-0.5,-0.0,840,0,,,,,,,,,,,,,,,,,,,
46634,1506732288668,,,,,,,,0.03,0.05,0.98,-3.0,-0.7,-0.1,860,0,,,,,,,,,,,,,,,,,,,
46654,1506732288688,,,,,,,,0.02,0.04,0.97,-3.0,-0.8,-0.2,860,0,,,,,,,,,,,,,,,,,,,
46674,1506732288710,0,104.8,,105.5,59,108.7,,0.02,0.03,0.96,-3.0,-0.5,-0.2,860,0,1,1,0.0,0,35.48991,-119.546143,0.0,0.0,250.3,10,2,1.7,0,0.0,-1,0.0,0.0,0.0,0
46694,1506732288730,,,,,,,,0.02,0.05,0.98,-3.1,-0.6,-0.1,860,0,,,,,,,,,,,,,,,,,,,
46714,1506732288750,,,,,,,,0.03,0.04,1.0,-3.1,-0.6,-0.0,860,0,,,,,,,,,,,,,,,,,,,
46734,1506732288770,,,,,,,,0.03,0.05,1.0,-3.1,-0.6,-0.0,860,0,,,,,,,,,,,,,,,,,,,
46754,1506732288790,,,,,,,,0.03,0.06,0.99,-3.1,-0.5,-0.1,860,0,,,,,,,,,,,,,,,,,,,
46774,1506732288809,,,,,60,,,0.03,0.06,1.0,-3.1,-0.2,-0.1,860,0,1,1,0.0,0,35.48991,-119.546143,0.0,0.0,250.3,10,2,1.7,0,0.0,-1,0.0,0.0,0.0,0
46794,1506732288829,,,,,,,,0.02,0.06,1.0,-3.0,-0.8,-0.2,860,0,,,,,,,,,,,,,,,,,,,
46814,1506732288849,,,,,,,,0.01,0.05,1.0,-3.0,-0.6,-0.2,860,0,,,,,,,,,,,,,,,,,,,
46834,1506732288869,,,,,,,,0.03,0.05,0.98,-3.0,-0.5,-0.2,860,0,,,,,,,,,,,,,,,,,,,
46854,1506732288889,,,,,,,,0.03,0.05,0.97,-3.0,-0.5,-0.1,860,0,,,,,,,,,,,,,,,,,,,
46874,1506732288909,0,105.5,,105.2,60,107.2,,0.03,0.05,1.0,-3.1,-0.4,-0.1,860,0,1,1,0.0,0,35.48991,-119.546143,0.0,0.0,250.3,10,2,1.7,0,0.0,-1,0.0,0.0,0.0,0
46894,1506732288929,,,,,,,,0.02,0.05,1.01,-3.0,-0.4,-0.1,840,0,,,,,,,,,,,,,,,,,,,
46914,1506732288949,,,,,,,,0.02,0.05,1.0,-3.1,-0.2,-0.1,840,0,,,,,,,,,,,,,,,,,,,
46934,1506732288969,,,,,,,,0.03,0.05,0.99,-3.0,-0.5,-0.1,840,0,,,,,,,,,,,,,,,,,,,
46954,1506732288989,,,,,,,,0.02,0.05,0.99,-3.0,-0.7,-0.2,840,0,,,,,,,,,,,,,,,,,,,
46974,1506732289003,,,,,59,,,0.03,0.04,0.98,-2.9,-0.3,-0.1,840,0,1,1,0.0,0,35.48991,-119.546143,0.0,0.0,250.3,10,2,1.7,0,0.0,-1,0.0,0.0,0.0,0
46994,1506732289023,,,,,,,,0.03,0.05,0.97,-3.0,-0.4,-0.1,860,0,,,,,,,,,,,,,,,,,,,
47014,1506732289043,,,,,,,,0.03,0.05,0.99,-3.0,-0.3,0.0,860,0,,,,,,,,,,,,,,,,,,,
47034,1506732289063,,,,,,,,0.02,0.06,1.0,-3.0,-0.4,-0.0,840,0,,,,,,,,,,,,,,,,,,,
47054,1506732289083,,,,,,,,0.02,0.06,1.0,-3.0,-0.2,-0.1,840,0,,,,,,,,,,,,,,,,,,,
47074,1506732289109,0,105.5,-0.3,105.9,60,108.7,14.68,0.03,0.06,0.98,-3.0,-0.5,-0.2,840,0,1,1,0.0,0,35.48991,-119.546143,0.0,0.0,250.3,10,2,1.7,0,0.0,-1,0.0,0.0,0.0,0
47094,1506732289129,,,,,,,,0.02,0.06,0.98,-3.0,-0.7,-0.3,860,0,,,,,,,,,,,,,,,,,,,
47114,1506732289149,,,,,,,,0.02,0.04,0.99,-2.9,-0.4,-0.2,860,0,,,,,,,,,,,,,,,,,,,
47134,1506732289169,,,,,,,,0.02,0.05,0.98,-3.0,-0.4,-0.1,860,0,,,,,,,,,,,,,,,,,,,
47154,1506732289189,,,,,,,,0.03,0.05,0.99,-3.0,-0.3,-0.1,860,0,,,,,,,,,,,,,,,,,,,
47174,1506732289209,,,,,58,,,0.02,0.05,0.99,-3.0,-0.4,-0.0,840,0,1,1,0.0,0,35.48991,-119.546143,0.0,0.0,250.3,10,2,1.7,0,0.0,-1,0.0,0.0,0.0,0
47194,1506732289229,,,,,,,,0.02,0.06,0.98,-3.0,-0.3,-0.1,840,0,,,,,,,,,,,,,,,,,,,
47214,1506732289249,,,,,,,,0.02,0.05,0.99,-3.0,-0.5,-0.2,840,0,,,,,,,,,,,,,,,,,,,
47234,1506732289269,,,,,,,,0.02,0.05,0.98,-2.9,-0.8,-0.3,860,0,,,,,,,,,,,,,,,,,,,
47254,1506732289289,,,,,,,,0.01,0.03,1.01,-2.9,-0.3,-0.2,860,0,,,,,,,,,,,,,,,,,,,
47274,1506732289309,0,105.5,,105.9,58,108.9,,0.02,0.04,1.01,-2.9,-0.3,-0.1,860,0,1,1,0.0,0,35.48991,-119.546143,0.0,0.0,250.3,10,2,1.7,0,0.0,-1,0.0,0.0,0.0,0
47294,1506732289329,,,,,,,,0.02,0.05,0.99,-3.0,-0.4,-0.1,860,0,,,,,,,,,,,,,,,,,,,
47314,1506732289349,,,,,,,,0.03,0.05,0.98,-3.0,-0.5,-0.0,840,0,,,,,,,,,,,,,,,,,,,
47334,1506732289369,,,,,,,,0.02,0.06,0.97,-3.0,-0.5,-0.1,860,0,,,,,,,,,,,,,,,,,,,
47354,1506732289389,,,,,,,,0.02,0.05,0.99,-3.1,-0.3,-0.1,840,0,,,,,,,,,,,,,,,,,,,
47374,1506732289409,,,,,59,,,0.02,0.05,0.98,-3.0,-0.7,-0.2,860,0,1,1,0.0,0,35.48991,-119.546143,0.0,0.0,250.3,10,2,1.7,0,0.0,-1,0.0,0.0,0.0,0
47394,1506732289429,,,,,,,,0.01,0.04,0.98,-3.0,-0.3,-0.3,860,0,,,,,,,,,,,,,,,,,,,
47414,1506732289449,,,,,,,,0.02,0.03,0.97,-3.0,-0.1,-0.2,860,0,,,,,,,,,,,,,,,,,,,
47434,1506732289469,,,,,,,,0.02,0.04,1.0,-3.0,-0.3,-0.2,860,0,,,,,,,,,,,,,,,,,,,
47454,1506732289489,,,,,,,,0.02,0.04,1.02,-3.1,-0.4,-0.1,840,0,,,,,,,,,,,,,,,,,,,
47474,1506732289509,0,105.1,,104.4,58,106.9,,0.02,0.05,1.0,-3.0,-0.6,-0.0,860,0,1,1,0.0,0,35.48991,-119.546143,0.0,0.0,250.3,10,2,1.7,0,0.0,-1,0.0,0.0,0.0,0
47494,1506732289529,,,,,,,,0.02,0.04,1.01,-3.0,-0.3,-0.1,860,0,,,,,,,,,,,,,,,,,,,
47514,1506732289549,,,,,,,,0.03,0.04,1.0,-3.0,-0.5,-0.2,860,0,,,,,,,,,,,,,,,,,,,
47534,1506732289569,,,,,,,,0.02,0.03,0.98,-3.0,-0.6,-0.3,860,0,,,,,,,,,,,,,,,,,,,
47554,1506732289589,,,,,,,,0.02,0.03,0.98,-3.0,-0.3,-0.2,860,0,,,,,,,,,,,,,,,,,,,
47574,1506732289609,,,,,58,,,0.02,0.04,1.01,-3.1,-0.3,-0.2,860,0,1,1,0.0,0,35.48991,-119.546143,0.0,0.0,250.3,10,2,1.7,0,0.0,-1,0.0,0.0,0.0,0
47594,1506732289629,,,,,,,,0.02,0.04,1.03,-3.1,-0.3,-0.2,840,0,,,,,,,,,,,,,,,,,,,
47614,1506732289649,,,,,,,,0.02,0.04,1.01,-3.0,-0.3,-0.1,860,0,,,,,,,,,,,,,,,,,,,
47634,1506732289669,,,,,,,,0.02,0.06,1.0,-3.0,-0.2,-0.1,860,0,,,,,,,,,,,,,,,,,,,
47654,1506732289689,,,,,,,,0.03,0.05,1.01,-3.0,0.0,-0.2,860,0,,,,,,,,,,,,,,,,,,,
47674,1506732289708,0,104.7,,104.3,59,106.7,,0.02,0.05,1.01,-3.0,-0.5,-0.3,860,0,1,1,0.0,0,35.48991,-119.546143,0.0,0.0,250.3,10,2,1.7,0,0.0,-1,0.0,0.0,0.0,0
47694,1506732289728,,,,,,,,0.01,0.05,1.01,-3.0,-0.4,-0.3,860,0,,,,,,,,,,,,,,,,,,,
47714,1506732289748,,,,,,,,0.02,0.04,0.98,-3.0,-0.3,-0.2,860,0,,,,,,,,,,,,,,,,,,,
47734,1506732289768,,,,,,,,0.02,0.05,0.98,-3.0,-0.4,-0.2,840,0,,,,,,,,,,,,,,,,,,,
47754,1506732289788,,,,,,,,0.02,0.05,1.01,-3.1,-0.3,-0.1,860,0,,,,,,,,,,,,,,,,,,,
47774,1506732289808,,,,,59,,,0.02,0.06,1.0,-3.0,-0.4,-0.1,860,0,1,1,0.0,0,35.48991,-119.546143,0.0,0.0,250.3,10,2,1.7,0,0.0,-1,0.0,0.0,0.0,0
47794,1506732289828,,,,,,,,0.02,0.05,1.01,-3.1,-0.1,-0.1,860,0,,,,,,,,,,,,,,,,,,,
47814,1506732289848,,,,,,,,0.02,0.05,0.99,-3.0,-0.5,-0.2,860,0,,,,,,,,,,,,,,,,,,,
47834,1506732289868,,,,,,,,0.01,0.05,0.99,-3.0,-0.6,-0.3,880,0,,,,,,,,,,,,,,,,,,,
47854,1506732289888,,,,,,,,0.02,0.05,0.98,-3.0,-0.3,-0.3,860,0,,,,,,,,,,,,,,,,,,,
47874,1506732289908,0,104.0,,104.4,59,107.9,,0.02,0.06,0.98,-3.0,-0.4,-0.2,860,0,1,1,0.0,0,35.48991,-119.546143,0.0,0.0,250.3,10,2,1.7,0,0.0,-1,0.0,0.0,0.0,0
47894,1506732289928,,,,,,,,0.02,0.05,0.99,-3.1,-0.4,-0.1,860,0,,,,,,,,,,,,,,,,,,,
47914,1506732289948,,,,,,,,0.02,0.06,0.99,-3.1,-0.6,-0.0,860,0,,,,,,,,,,,,,,,,,,,
47934,1506732289968,,,,,,,,0.01,0.06,0.98,-3.0,-0.5,-0.1,860,0,,,,,,,,,,,,,,,,,,,
47954,1506732289988,,,,,,,,0.02,0.06,1.0,-3.0,-0.4,-0.2,860,0,,,,,,,,,,,,,,,,,,,
47974,1506732290002,,,,,59,,,0.02,0.06,0.99,-3.0,-0.8,-0.3,860,0,1,1,0.0,0,35.48991,-119.546143,0.0,0.0,250.3,10,2,1.7,0,0.0,-1,0.0,0.0,0.0,0
47994,1506732290022,,,,,,,,0.01,0.04,1.0,-3.0,-0.5,-0.3,840,0,,,,,,,,,,,,,,,,,,,
48014,1506732290042,,,,,,,,0.02,0.04,1.0,-3.0,-0.3,-0.2,840,0,,,,,,,,,,,,,,,,,,,
48034,1506732290062,,,,,,,,0.02,0.06,0.99,-3.1,-0.6,-0.2,860,0,,,,,,,,,,,,,,,,,,,
48054,1506732290082,,,,,,,,0.02,0.05,0.99,-3.1,-0.7,-0.1,840,0,,,,,,,,,,,,,,,,,,,
48074,1506732290110,0,105.9,-0.1,106.1,59,108.4,14.7,0.02,0.06,0.98,-3.0,-0.9,0.0,860,0,1,1,0.0,0,35.48991,-119.546143,0.0,0.0,250.3,10,2,1.7,0,0.0,-1,0.0,0.0,0.0,0
48094,1506732290130,,,,,,,,0.02,0.06,0.99,-3.1,-0.5,-0.1,860,0,,,,,,,,,,,,,,,,,,,
48114,1506732290150,,,,,,,,0.03,0.05,0.99,-3.0,-0.7,-0.2,860,0,,,,,,,,,,,,,,,,,,,
48134,1506732290170,,,,,,,,0.02,0.04,0.97,-3.0,-0.7,-0.2,840,0,,,,,,,,,,,,,,,,,,,
48154,1506732290190,,,,,,,,0.02,0.04,0.97,-3.0,-0.3,-0.2,840,0,,,,,,,,,,,,,,,,,,,
48174,1506732290206,,,,,59,,,0.02,0.05,1.0,-3.0,-0.5,-0.1,860,0,1,1,0.0,0,35.48991,-119.546143,0.0,0.0,250.3,10,2,1.7,0,0.0,-1,0.0,0.0,0.0,0
48194,1506732290226,,,,,,,,0.02,0.05,1.01,-3.1,-0.5,-0.1,860,0,,,,,,,,,,,,,,,,,,,
48214,1506732290246,,,,,,,,0.03,0.06,1.0,-3.0,-0.6,-0.0,860,0,,,,,,,,,,,,,,,,,,,
48234,1506732290266,,,,,,,,0.03,0.07,0.99,-3.1,-0.4,-0.1,860,0,,,,,,,,,,,,,,,,,,,
48254,1506732290286,,,,,,,,0.03,0.06,0.99,-3.0,-0.4,-0.2,880,0,,,,,,,,,,,,,,,,,,,
48274,1506732290310,0,104.0,,104.6,59,107.9,,0.02,0.06,1.0,-3.0,-0.7,-0.3,840,0,1,1,0.0,0,35.48991,-119.546143,0.0,0.0,250.3,10,2,1.7,0,0.0,-1,0.0,0.0,0.0,0
48294,1506732290330,,,,,,,,0.02,0.05,1.0,-3.0,-0.4,-0.3,860,0,,,,,,,,,,,,,,,,,,,
48314,1506732290350,,,,,,,,0.03,0.05,0.97,-3.0,-0.3,-0.2,860,0,,,,,,,,,,,,,,,,,,,
48334,1506732290370,,,,,,,,0.03,0.06,0.96,-3.0,-0.3,-0.1,860,0,,,,,,,,,,,,,,,,,,,
48354,1506732290390,,,,,,,,0.04,0.06,0.98,-3.1,-0.2,-0.1,860,0,,,,,,,,,,,,,,,,,,,
48374,1506732290408,,,,,60,,,0.03,0.07,0.98,-3.0,-0.4,-0.1,860,0,1,1,0.0,0,35.48991,-119.546143,0.0,0.0,250.3,10,2,1.7,0,0.0,-1,0.0,0.0,0.0,0
48394,1506732290428,,,,,,,,0.03,0.06,0.99,-3.0,-0.2,-0.1,880,0,,,,,,,,,,,,,,,,,,,
48414,1506732290448,,,,,,,,0.03,0.07,0.98,-3.0,-0.4,-0.3,860,0,,,,,,,,,,,,,,,,,,,
48434,1506732290468,,,,,,,,0.02,0.07,0.97,-3.0,-0.7,-0.3,860,0,,,,,,,,,,,,,,,,,,,
48454,1506732290488,,,,,,,,0.02,0.05,0.98,-3.0,-0.3,-0.2,860,0,,,,,,,,,,,,,,,,,,,
48474,1506732290510,0,105.9,,105.9,60,107.8,,0.02,0.06,0.97,-3.0,-0.4,-0.2,860,0,1,1,0.0,0,35.48991,-119.546143,0.0,0.0,250.3,10,2,1.7,0,0.0,-1,0.0,0.0,0.0,0
48494,1506732290530,,,,,,,,0.03,0.06,0.97,-3.1,-0.5,-0.1,860,0,,,,,,,,,,,,,,,,,,,
48514,1506732290550,,,,,,,,0.02,0.06,0.97,-3.1,-0.5,-0.0,860,0,,,,,,,,,,,,,,,,,,,
48534,1506732290570,,,,,,,,0.02,0.07,0.96,-3.1,-0.6,-0.0,860,0,,,,,,,,,,,,,,,,,,,
48554,1506732290590,,,,,,,,0.02,0.06,0.98,-3.1,-0.4,-0.1,840,0,,,,,,,,,,,,,,,,,,,
48574,1506732290610,,,,,60,,,0.02,0.05,0.97,-3.0,-0.8,-0.2,860,0,1,1,0.0,0,35.48991,-119.546143,0.0,0.0,250.3,10,2,1.7,0,0.0,-1,0.0,0.0,0.0,0
48594,1506732290630,,,,,,,,0.01,0.05,0.98,-3.1,-0.5,-0.2,840,0,,,,,,,,,,,,,,,,,,,
48614,1506732290650,,,,,,,,0.02,0.04,0.97,-3.0,-0.3,-0.2,840,0,,,,,,,,,,,,,,,,,,,
48634,1506732290670,,,,,,,,0.02,0.05,0.96,-3.1,-0.6,-0.1,840,0,,,,,,,,,,,,,,,,,,,
48654,1506732290690,,,,,,,,0.02,0.04,0.97,-3.1,-0.6,-0.1,840,0,,,,,,,,,,,,,,,,,,,
48674,1506732290709,0,105.8,,106.4,60,108.7,,0.02,0.06,0.96,-3.1,-0.7,-0.0,860,0,1,1,0.0,0,35.48991,-119.546143,0.0,0.0,250.3,10,2,1.7,0,0.0,-1,0.0,0.0,0.0,0
48694,1506732290729,,,,,,,,0.02,0.05,0.97,-3.1,-0.5,-0.1,840,0,,,,,,,,,,,,,,,,,,,
48714,1506732290749,,,,,,,,0.03,0.05,0.97,-3.0,-0.7,-0.2,840,0,,,,,,,,,,,,,,,,,,,
48734,1506732290769,,,,,,,,0.02,0.04,0.96,-3.1,-0.6,-0.3,840,0,,,,,,,,,,,,,,,,,,,
48754,1506732290789,,,,,,,,0.02,0.03,0.95,-3.0,-0.4,-0.2,840,0,,,,,,,,,,,,,,,,,,,
48774,1506732290809,,,,,59,,,0.02,0.04,0.97,-3.1,-0.6,-0.1,860,0,1,1,0.0,0,35.48991,-119.546143,0.0,0.0,250.3,10,2,1.7,0,0.0,-1,0.0,0.0,0.0,0
48794,1506732290829,,,,,,,,0.02,0.04,0.99,-3.1,-0.5,-0.1,860,0,,,,,,,,,,,,,,,,,,,
48814,1506732290849,,,,,,,,0.02,0.05,0.97,-3.1,-0.7,-0.1,860,0,,,,,,,,,,,,,,,,,,,
48834,1506732290869,,,,,,,,0.03,0.04,0.97,-3.1,-0.5,-0.1,840,0,,,,,,,,,,,,,,,,,,,
48854,1506732290889,,,,,,,,0.03,0.05,0.98,-3.0,-0.7,-0.2,840,0,,,,,,,,,,,,,,,,,,,
48874,1506732290909,0,105.8,,105.5,60,106.7,,0.02,0.04,0.97,-3.0,-0.6,-0.2,840,0,1,1,0.0,0,35.48991,-119.546143,0.0,0.0,250.3,10,2,1.7,0,0.0,-1,0.0,0.0,0.0,0
48894,1506732290929,,,,,,,,0.02,0.03,0.97,-3.1,-0.4,-0.2,840,0,,,,,,,,,,,,,,,,,,,
48914,1506732290949,,,,,,,,0.02,0.04,0.98,-3.1,-0.6,-0.1,840,0,,,,,,,,,,,,,,,,,,,
48934,1506732290969,,,,,,,,0.03,0.04,0.99,-3.1,-0.6,-0.0,840,0,,,,,,,,,,,,,,,,,,,
48954,1506732290989,,,,,,,,0.03,0.05,0.98,-3.0,-0.7,-0.0,860,0,,,,,,,,,,,,,,,,,,,
48974,1506732291003,,,,,59,,,0.03,0.05,0.98,-3.0,-0.5,-0.1,840,0,1,1,0.0,0,35.48991,-119.546143,0.0,0.0,250.3,10,2,1.7,0,0.0,-1,0.0,0.0,0.0,0
48994,1506732291023,,,,,,,,0.03,0.05,0.98,-3.0,-0.8,-0.2,840,0,,,,,,,,,,,,,,,,,,,
49014,1506732291043,,,,,,,,0.02,0.04,0.97,-3.1,-0.6,-0.3,840,0,,,,,,,,,,,,,,,,,,,
49034,1506732291063,,,,,,,,0.02,0.04,0.97,-3.0,-0.4,-0.2,840,0,,,,,,,,,,,,,,,,,,,
49054,1506732291083,,,,,,,,0.02,0.05,0.97,-3.1,-0.6,-0.1,840,0,,,,,,,,,,,,,,,,,,,
49074,1506732291107,0,104.1,-0.3,104.9,57,108.3,14.68,0.02,0.04,0.99,-3.1,-0.6,-0.1,840,0,1,1,0.0,0,35.48991,-119.546143,0.0,0.0,250.3,10,2,1.7,0,0.0,-1,0.0,0.0,0.0,0
49094,1506732291127,,,,,,,,0.02,0.05,0.97,-3.0,-0.7,-0.1,860,0,,,,,,,,,,,,,,,,,,,
49114,1506732291147,,,,,,,,0.03,0.05,0.98,-3.0,-0.5,-0.1,820,0,,,,,,,,,,,,,,,,,,,
49134,1506732291167,,,,,,,,0.03,0.05,0.98,-3.0,-0.8,-0.2,820,0,,,,,,,,,,,,,,,,,,,
49154,1506732291187,,,,,,,,0.02,0.04,0.98,-3.1,-0.4,-0.2,820,0,,,,,,,,,,,,,,,,,,,
49174,1506732291209,,,,,58,,,0.03,0.04,0.98,-3.1,-0.4,-0.1,820,0,1,1,0.0,0,35.48991,-119.546143,0.0,0.0,250.3,10,2,1.7,0,0.0,-1,0.0,0.0,0.0,0
49194,1506732291229,,,,,,,,0.03,0.04,0.99,-3.1,-0.3,-0.0,840,0,,,,,,,,,,,,,,,,,,,
49214,1506732291249,,,,,,,,0.03,0.05,0.99,-3.1,-0.5,-0.0,840,0,,,,,,,,,,,,,,,,,,,
49234,1506732291269,,,,,,,,0.02,0.05,0.99,-3.1,-0.4,-0.1,860,0,,,,,,,,,,,,,,,,,,,
49254,1506732291289,,,,,,,,0.02,0.05,1.0,-3.1,-0.5,-0.2,820,0,,,,,,,,,,,,,,,,,,,
49274,1506732291309,0,104.0,,104.3,57,107.5,,0.02,0.05,0.99,-3.1,-0.6,-0.2,820,0,1,1,0.0,0,35.48991,-119.546143,0.0,0.0,250.3,10,2,1.7,0,0.0,-1,0.0,0.0,0.0,0
49294,1506732291329,,,,,,,,0.02,0.04,0.98,-3.1,-0.3,-0.2,820,0,,,,,,,,,,,,,,,,,,,
49314,1506732291349,,,,,,,,0.02,0.05,0.98,-3.1,-0.5,-0.1,820,0,,,,,,,,,,,,,,,,,,,
49334,1506732291369,,,,,,,,0.03,0.05,1.0,-3.1,-0.3,-0.1,820,0,,,,,,,,,,,,,,,,,,,
49354,1506732291389,,,,,,,,0.02,0.06,0.99,-3.1,-0.4,-0.1,840,0,,,,,,,,,,,,,,,,,,,
49374,1506732291409,,,,,57,,,0.02,0.05,1.0,-3.1,-0.4,-0.2,860,0,1,1,0.0,0,35.48991,-119.546143,0.0,0.0,250.3,10,2,1.7,0,0.0,-1,0.0,0.0,0.0,0
49394,1506732291429,,,,,,,,0.02,0.04,0.99,-3.0,-0.7,-0.4,820,0,,,,,,,,,,,,,,,,,,,
49414,1506732291449,,,,,,,,0.01,0.04,0.99,-3.1,-0.4,-0.3,820,0,,,,,,,,,,,,,,,,,,,
49434,1506732291469,,,,,,,,0.02,0.05,0.99,-3.1,-0.5,-0.2,820,0,,,,,,,,,,,,,,,,,,,
49454,1506732291489,,,,,,,,0.02,0.05,1.0,-3.1,-0.4,-0.1,840,0,,,,,,,,,,,,,,,,,,,
49474,1506732291509,0,103.8,,104.9,56,108.0,,0.02,0.05,0.98,-3.1,-0.6,-0.0,840,0,1,1,0.0,0,35.48991,-119.546143,0.0,0.0,250.3,10,2,1.7,0,0.0,-1,0.0,0.0,0.0,0
49494,1506732291529,,,,,,,,0.02,0.05,0.98,-3.1,-0.4,-0.1,840,0,,,,,,,,,,,,,,,,,,,
49514,1506732291549,,,,,,,,0.02,0.04,0.99,-3.0,-0.5,-0.2,860,0,,,,,,,,,,,,,,,,,,,
49534,1506732291569,,,,,,,,0.01,0.04,0.97,-3.0,-0.5,-0.3,820,0,,,,,,,,,,,,,,,,,,,
49554,1506732291589,,,,,,,,0.02,0.04,0.97,-3.0,-0.3,-0.3,820,0,,,,,,,,,,,,,,,,,,,
49574,1506732291609,,,,,58,,,0.02,0.05,0.98,-3.0,-0.5,-0.2,840,0,1,1,0.0,0,35.48991,-119.546143,0.0,0.0,250.3,10,2,1.7,0,0.0,-1,0.0,0.0,0.0,0
49594,1506732291629,,,,,,,,0.02,0.04,0.99,-3.1,-0.4,-0.1,840,0,,,,,,,,,,,,,,,,,,,
49614,1506732291649,,,,,,,,0.03,0.05,0.97,-3.0,-0.6,-0.1,840,0,,,,,,,,,,,,,,,,,,,
49634,1506732291669,,,,,,,,0.03,0.05,0.97,-3.1,-0.3,-0.1,860,0,,,,,,,,,,,,,,,,,,,
49654,1506732291689,,,,,,,,0.03,0.04,0.98,-3.0,-0.5,-0.3,860,0,,,,,,,,,,,,,,,,,,,
49674,1506732291709,0,105.6,,105.8,58,107.0,,0.02,0.04,0.97,-3.0,-0.5,-0.3,820,0,1,1,0.0,0,35.48991,-119.546143,0.0,0.0,250.3,10,2,1.7,0,0.0,-1,0.0,0.0,0.0,0
49694,1506732291729,,,,,,,,0.02,0.04,0.96,-3.0,-0.3,-0.2,820,0,,,,,,,,,,,,,,,,,,,
49714,1506732291749,,,,,,,,0.02,0.05,0.97,-3.1,-0.6,-0.1,840,0,,,,,,,,,,,,,,,,,,,
49734,1506732291769,,,,,,,,0.03,0.05,0.99,-3.1,-0.5,-0.0,840,0,,,,,,,,,,,,,,,,,,,
49754,1506732291789,,,,,,,,0.03,0.06,0.97,-3.0,-0.6,-0.0,840,0,,,,,,,,,,,,,,,,,,,
49774,1506732291808,,,,,57,,,0.02,0.05,0.97,-3.0,-0.4,-0.1,840,0,1,1,0.0,0,35.48991,-119.546143,0.0,0.0,250.3,10,2,1.7,0,0.0,-1,0.0,0.0,0.0,0
49794,1506732291828,,,,,,,,0.03,0.05,0.98,-3.0,-0.6,-0.2,860,0,,,,,,,,,,,,,,,,,,,
49814,1506732291848,,,,,,,,0.01,0.04,0.97,-3.0,-0.4,-0.3,820,0,,,,,,,,,,,,,,,,,,,
49834,1506732291868,,,,,,,,0.02,0.05,0.97,-3.0,-0.2,-0.2,820,0,,,,,,,,,,,,,,,,,,,
49854,1506732291888,,,,,,,,0.02,0.05,0.97,-3.0,-0.5,-0.2,840,0,,,,,,,,,,,,,,,,,,,
49874,1506732291908,0,105.8,,106.5,57,108.7,,0.02,0.05,0.98,-3.0,-0.5,-0.1,840,0,1,1,0.0,0,35.48991,-119.546143,0.0,0.0,250.3,10,2,1.7,0,0.0,-1,0.0,0.0,0.0,0
49894,1506732291928,,,,,,,,0.02,0.06,0.97,-3.0,-0.6,-0.1,840,0,,,,,,,,,,,,,,,,,,,
49914,1506732291948,,,,,,,,0.02,0.05,0.98,-3.0,-0.4,-0.2,840,0,,,,,,,,,,,,,,,,,,,
49934,1506732291968,,,,,,,,0.02,0.05,0.98,-3.0,-0.7,-0.3,860,0,,,,,,,,,,,,,,,,,,,
49954,1506732291988,,,,,,,,0.01,0.04,0.99,-3.0,-0.3,-0.3,820,0,,,,,,,,,,,,,,,,,,,
49974,1506732292002,,,,,58,,,0.02,0.05,0.99,-3.0,-0.3,-0.2,820,0,1,1,0.0,0,35.48991,-119.546143,0.0,0.0,250.3,10,2,1.7,0,0.0,-1,0.0,0.0,0.0,0
49994,1506732292022,,,,,,,,0.02,0.05,0.97,-3.1,-0.4,-0.1,840,0,,,,,,,,,,,,,,,,,,,
50014,1506732292042,,,,,,,,0.02,0.05,0.98,-3.0,-0.5,-0.1,840,0,,,,,,,,,,,,,,,,,,,
50034,1506732292062,,,,,,,,0.02,0.07,0.97,-3.0,-0.6,-0.1,840,0,,,,,,,,,,,,,,,,,,,
50054,1506732292082,,,,,,,,0.02,0.06,0.98,-3.0,-0.5,-0.2,840,0,,,,,,,,,,,,,,,,,,,
50074,1506732292102,0,105.3,-0.3,106.1,58,108.6,14.74,0.02,0.06,0.97,-3.0,-0.7,-0.3,860,0,1,1,0.0,0,35.48991,-119.546143,0.0,0.0,250.3,10,2,1.7,0,0.0,-1,0.0,0.0,0.0,0
50094,1506732292122,,,,,,,,0.02,0.05,0.98,-3.0,-0.3,-0.3,820,0,,,,,,,,,,,,,,,,,,,
50114,1506732292142,,,,,,,,0.02,0.05,0.97,-3.0,-0.4,-0.2,820,0,,,,,,,,,,,,,,,,,,,
50134,1506732292162,,,,,,,,0.02,0.05,0.98,-3.1,-0.4,-0.1,840,0,,,,,,,,,,,,,,,,,,,
50154,1506732292182,,,,,,,,0.02,0.06,0.97,-3.1,-0.5,-0.1,840,0,,,,,,,,,,,,,,,,,,,
50174,1506732292210,,,,,58,,,0.02,0.06,0.97,-3.1,-0.5,-0.1,840,0,1,1,0.0,0,35.48991,-119.546143,0.0,0.0,250.3,10,2,1.7,0,0.0,-1,0.0,0.0,0.0,0
50194,1506732292230,,,,,,,,0.02,0.05,0.98,-3.1,-0.5,-0.2,840,0,,,,,,,,,,,,,,,,,,,
50214,1506732292250,,,,,,,,0.02,0.06,0.97,-3.0,-0.7,-0.3,860,0,,,,,,,,,,,,,,,,,,,
50234,1506732292270,,,,,,,,0.02,0.05,0.98,-3.0,-0.3,-0.2,820,0,,,,,,,,,,,,,,,,,,,
50254,1506732292290,,,,,,,,0.02,0.05,0.98,-3.0,-0.4,-0.2,820,0,,,,,,,,,,,,,,,,,,,
50274,1506732292308,0,104.1,,105.0,56,108.6,,0.02,0.05,0.99,-3.1,-0.4,-0.1,840,0,1,1,0.0,0,35.48991,-119.546143,0.0,0.0,250.3,10,2,1.7,0,0.0,-1,0.0,0.0,0.0,0
50294,1506732292328,,,,,,,,0.02,0.06,0.98,-3.0,-0.5,-0.0,840,0,,,,,,,,,,,,,,,,,,,
50314,1506732292348,,,,,,,,0.02,0.07,0.98,-3.1,-0.4,-0.1,840,0,,,,,,,,,,,,,,,,,,,
50334,1506732292368,,,,,,,,0.02,0.06,0.98,-3.0,-0.5,-0.2,840,0,,,,,,,,,,,,,,,,,,,
50354,1506732292388,,,,,,,,0.01,0.06,0.97,-3.0,-0.7,-0.2,860,0,,,,,,,,,,,,,,,,,,,
50374,1506732292408,,,,,57,,,0.02,0.05,0.96,-3.0,-0.4,-0.2,860,0,1,1,0.0,0,35.48991,-119.546143,0.0,0.0,250.3,10,2,1.7,0,0.0,-1,0.0,0.0,0.0,0
50394,1506732292428,,,,,,,,0.02,0.05,0.96,-3.1,-0.5,-0.1,820,0,,,,,,,,,,,,,,,,,,,
50414,1506732292448,,,,,,,,0.02,0.05,0.99,-3.1,-0.4,-0.1,840,0,,,,,,,,,,,,,,,,,,,
50434,1506732292468,,,,,,,,0.02,0.05,0.98,-3.1,-0.5,-0.1,820,0,,,,,,,,,,,,,,,,,,,
50454,1506732292488,,,,,,,,0.02,0.05,0.99,-3.1,-0.3,-0.1,840,0,,,,,,,,,,,,,,,,,,,
50474,1506732292508,0,105.2,,106.0,57,108.7,,0.02,0.05,0.98,-3.1,-0.7,-0.2,840,0,1,1,0.0,0,35.48991,-119.546143,0.0,0.0,250.3,10,2,1.7,0,0.0,-1,0.0,0.0,0.0,0
50494,1506732292528,,,,,,,,0.01,0.05,0.98,-3.1,-0.5,-0.2,860,0,,,,,,,,,,,,,,,,,,,
50514,1506732292548,,,,,,,,0.02,0.04,0.98,-3.1,-0.5,-0.1,860,0,,,,,,,,,,,,,,,,,,,
50534,1506732292568,,,,,,,,0.02,0.05,0.99,-3.1,-0.5,-0.1,800,0,,,,,,,,,,,,,,,,,,,
50554,1506732292588,,,,,,,,0.03,0.05,0.98,-3.1,-0.5,0.0,820,0,,,,,,,,,,,,,,,,,,,
50574,1506732292608,,,,,58,,,0.02,0.05,0.98,-3.1,-0.4,-0.1,820,0,1,1,0.0,0,35.48991,-119.546143,0.0,0.0,250.3,10,2,1.7,0,0.0,-1,0.0,0.0,0.0,0
50594,1506732292628,,,,,,,,0.02,0.05,0.99,-3.0,-0.5,-0.2,840,0,,,,,,,,,,,,,,,,,,,
50614,1506732292648,,,,,,,,0.01,0.05,0.98,-3.1,-0.4,-0.2,840,0,,,,,,,,,,,,,,,,,,,
50634,1506732292668,,,,,,,,0.02,0.05,0.98,-3.1,-0.4,-0.2,840,0,,,,,,,,,,,,,,,,,,,
50654,1506732292688,,,,,,,,0.02,0.05,0.98,-3.1,-0.5,-0.1,860,0,,,,,,,,,,,,,,,,,,,
50674,1506732292708,0,105.9,,106.6,57,108.5,,0.02,0.06,0.98,-3.1,-0.4,-0.0,820,0,1,1,0.0,0,35.48991,-119.546143,0.0,0.0,250.3,10,2,1.7,0,0.0,-1,0.0,0.0,0.0,0
50694,1506732292728,,,,,,,,0.02,0.07,0.98,-3.1,-0.5,-0.1,840,0,,,,,,,,,,,,,,,,,,,
50714,1506732292748,,,,,,,,0.03,0.05,1.0,-3.1,-0.4,-0.2,840,0,,,,,,,,,,,,,,,,,,,
50734,1506732292768,,,,,,,,0.02,0.06,0.99,-3.1,-0.6,-0.3,840,0,,,,,,,,,,,,,,,,,,,
50754,1506732292788,,,,,,,,0.02,0.05,1.0,-3.0,-0.2,-0.2,840,0,,,,,,,,,,,,,,,,,,,
50774,1506732292807,,,,,56,,,0.02,0.06,0.99,-3.1,-0.4,-0.1,840,0,1,1,0.0,0,35.48991,-119.546143,0.0,0.0,250.3,10,2,1.7,0,0.0,-1,0.0,0.0,0.0,0
50794,1506732292827,,,,,,,,0.02,0.05,1.0,-3.1,-0.3,-0.0,860,0,,,,,,,,,,,,,,,,,,,
50814,1506732292847,,,,,,,,0.02,0.06,1.0,-3.1,-0.3,-0.0,820,0,,,,,,,,,,,,,,,,,,,
50834,1506732292867,,,,,,,,0.02,0.07,0.99,-3.1,-0.2,-0.1,840,0,,,,,,,,,,,,,,,,,,,
50854,1506732292887,,,,,,,,0.02,0.06,0.99,-3.1,-0.6,-0.2,820,0,,,,,,,,,,,,,,,,,,,
50874,1506732292907,0,105.0,,104.6,57,106.7,,0.01,0.06,0.99,-3.1,-0.4,-0.2,840,0,1,1,0.0,0,35.48991,-119.546143,0.0,0.0,250.3,10,2,1.7,0,0.0,-1,0.0,0.0,0.0,0
50894,1506732292927,,,,,,,,0.02,0.06,0.98,-3.1,-0.5,-0.1,840,0,,,,,,,,,,,,,,,,,,,
50914,1506732292947,,,,,,,,0.02,0.06,0.98,-3.1,-0.4,-0.1,840,0,,,,,,,,,,,,,,,,,,,
50934,1506732292967,,,,,,,,0.03,0.06,0.98,-3.1,-0.4,-0.0,860,0,,,,,,,,,,,,,,,,,,,
50954,1506732292987,,,,,,,,0.03,0.07,0.98,-3.1,-0.4,-0.1,820,0,,,,,,,,,,,,,,,,,,,
50974,1506732293001,,,,,59,,,0.03,0.06,0.99,-3.1,-0.3,-0.2,840,0,1,1,0.0,0,35.48991,-119.546143,0.0,0.0,250.3,10,2,1.7,0,0.0,-1,0.0,0.0,0.0,0
50994,1506732293021,,,,,,,,0.02,0.05,0.97,-3.0,-0.6,-0.3,820,0,,,,,,,,,,,,,,,,,,,
51014,1506732293041,,,,,,,,0.02,0.05,0.97,-3.0,-0.4,-0.2,820,0,,,,,,,,,,,,,,,,,,,
51034,1506732293061,,,,,,,,0.02,0.06,0.98,-3.1,-0.6,-0.1,840,0,,,,,,,,,,,,,,,,,,,
51054,1506732293081,,,,,,,,0.03,0.05,0.99,-3.1,-0.5,-0.1,840,0,,,,,,,,,,,,,,,,,,,
51074,1506732293107,0,105.8,-0.2,106.1,58,107.0,14.67,0.03,0.06,0.98,-3.0,-0.6,-0.0,860,0,1,1,0.0,0,35.48991,-119.546143,0.0,0.0,250.3,10,2,1.7,0,0.0,-1,0.0,0.0,0.0,0
51094,1506732293127,,,,,,,,0.03,0.05,0.99,-3.0,-0.5,-0.2,820,0,,,,,,,,,,,,,,,,,,,
51114,1506732293147,,,,,,,,0.03,0.06,0.98,-3.0,-0.8,-0.3,840,0,,,,,,,,,,,,,,,,,,,
51134,1506732293167,,,,,,,,0.02,0.05,0.99,-3.0,-0.5,-0.3,840,0,,,,,,,,,,,,,,,,,,,
51154,1506732293187,,,,,,,,0.02,0.05,0.98,-3.0,-0.5,-0.2,840,0,,,,,,,,,,,,,,,,,,,
51174,1506732293207,,,,,57,,,0.02,0.06,0.97,-3.1,-0.5,-0.1,840,0,1,1,0.0,0,35.48991,-119.546143,0.0,0.0,250.3,10,2,1.7,0,0.0,-1,0.0,0.0,0.0,0
51194,1506732293227,,,,,,,,0.03,0.06,0.97,-3.0,-0.5,-0.1,840,0,,,,,,,,,,,,,,,,,,,
51214,1506732293247,,,,,,,,0.02,0.07,0.97,-3.0,-0.6,-0.1,860,0,,,,,,,,,,,,,,,,,,,
51234,1506732293267,,,,,,,,0.03,0.06,0.97,-3.1,-0.5,-0.2,820,0,,,,,,,,,,,,,,,,,,,
51254,1506732293287,,,,,,,,0.02,0.06,0.96,-3.1,-0.8,-0.2,840,0,,,,,,,,,,,,,,,,,,,
51274,1506732293309,0,103.7,,104.6,57,108.0,,0.02,0.05,0.98,-3.1,-0.3,-0.2,840,0,1,1,0.0,0,35.48991,-119.546143,0.0,0.0,250.3,10,2,1.7,0,0.0,-1,0.0,0.0,0.0,0
51294,1506732293329,,,,,,,,0.02,0.05,0.98,-3.1,-0.3,-0.1,840,0,,,,,,,,,,,,,,,,,,,
51314,1506732293349,,,,,,,,0.02,0.05,0.98,-3.1,-0.3,-0.0,840,0,,,,,,,,,,,,,,,,,,,
51334,1506732293369,,,,,,,,0.02,0.06,0.98,-3.1,-0.4,0.0,860,0,,,,,,,,,,,,,,,,,,,
51354,1506732293389,,,,,,,,0.02,0.06,0.97,-3.1,-0.4,-0.1,880,0,,,,,,,,,,,,,,,,,,,
51374,1506732293409,,,,,58,,,0.02,0.05,0.98,-3.1,-0.4,-0.2,820,0,1,1,0.0,0,35.48991,-119.546143,0.0,0.0,250.3,10,2,1.7,0,0.0,-1,0.0,0.0,0.0,0
51394,1506732293429,,,,,,,,0.02,0.06,0.97,-3.1,-0.7,-0.2,840,0,,,,,,,,,,,,,,,,,,,
51414,1506732293449,,,,,,,,0.01,0.05,0.99,-3.1,-0.3,-0.2,840,0,,,,,,,,,,,,,,,,,,,
51434,1506732293469,,,,,,,,0.02,0.05,0.98,-3.0,-0.3,-0.1,840,0,,,,,,,,,,,,,,,,,,,
51454,1506732293489,,,,,,,,0.02,0.05,0.97,-3.1,-0.3,-0.0,840,0,,,,,,,,,,,,,,,,,,,
