"Interval"|"ms"|0|0|1,"Utc"|"ms"|0|0|1,"FuelLevel"|"F"|0|100|5,"OilTemp"|"F"|0.0|300.0|5,"CoolantPressPSI"|"PSI"|0.0|20.0|1,"Coolant"|"F"|0.0|300.0|5,"OilPress"|"PSI"|0|150|10,"EngineTemp"|"F"|0.0|300.0|5,"Battery"|"Volts"|0.0|20.0|1,"AccelX"|"G"|-3.0|3.0|50,"AccelY"|"G"|-3.0|3.0|50,"AccelZ"|"G"|-3.0|3.0|50,"Yaw"|"Deg/Sec"|-300.0|300.0|50,"Pitch"|"Deg/Sec"|-300.0|300.0|50,"Roll"|"Deg/Sec"|-300.0|300.0|50,"RPM"|""|0|10000|50,"Driveshaft"|"RPM"|0|5000|50,"GPIO1"|""|0|1|10,"GPIO2"|""|0|1|10,"GearRatio"|""|-5.0|5.0|10,"Gear"|""|-1|5|10,"Latitude"|"Degrees"|-180.0|180.0|10,"Longitude"|"Degrees"|-180.0|180.0|10,"Speed"|"mph"|0.0|150.0|10,"Distance"|"mi"|0.0|0.0|10,"Altitude"|"ft"|0.0|4000.0|10,"GPSSats"|""|0|20|10,"GPSQual"|""|0|5|10,"GPSDOP"|""|0.0|20.0|10,"LapCount"|""|0|0|10,"LapTime"|"Min"|0.0|0.0|10,"Sector"|""|0|0|10,"SectorTime"|"Min"|0.0|0.0|10,"PredTime"|"Min"|0.0|0.0|10,"ElapsedTime"|"Min"|0.0|0.0|10,"CurrentLap"|""|0|0|10
,,,,,,,,,,,,,,,,,,,,,,,,,,,,,,,,,,,
206560,1506818648508,,,,,,,,0.03,0.06,1.0,-3.0,-0.6,-0.1,0,0,,,,,,,,,,,,,,,,,,,
206580,1506818648528,,,,,,,,0.02,0.06,1.0,-3.0,-0.6,-0.1,0,0,,,,,,,,,,,,,,,,,,,
206600,1506818648548,,,,,,,,0.02,0.06,1.0,-3.0,-0.6,-0.1,0,0,,,,,,,,,,,,,,,,,,,
206620,1506818648568,0,146.1,,158.9,0,155.4,,0.02,0.06,1.0,-3.0,-0.6,-0.1,0,0,1,1,0.0,0,35.489754,-119.546188,0.0,0.0,325.9,10,3,1.7,0,0.0,-1,0.0,0.0,0.0,0
206640,1506818648588,,,,,,,,0.02,0.05,1.0,-3.0,-0.6,-0.1,0,0,,,,,,,,,,,,,,,,,,,
206660,1506818648608,,,,,,,,0.02,0.06,1.0,-3.0,-0.6,-0.1,0,0,,,,,,,,,,,,,,,,,,,
206680,1506818648628,,,,,,,,0.02,0.06,1.0,-3.0,-0.6,-0.1,0,0,,,,,,,,,,,,,,,,,,,
206700,1506818648648,,,,,,,,0.02,0.06,0.99,-3.0,-0.6,-0.1,0,0,,,,,,,,,,,,,,,,,,,
206720,1506818648668,,,,,0,,,0.02,0.06,1.0,-3.1,-0.6,-0.1,0,0,1,1,0.0,0,35.489754,-119.546188,0.0,0.0,325.9,10,3,1.7,0,0.0,-1,0.0,0.0,0.0,0
206740,1506818648688,,,,,,,,0.02,0.06,0.99,-3.1,-0.5,-0.1,0,0,,,,,,,,,,,,,,,,,,,
206760,1506818648708,,,,,,,,0.02,0.06,0.99,-3.0,-0.5,-0.1,0,0,,,,,,,,,,,,,,,,,,,
206780,1506818648728,,,,,,,,0.03,0.06,0.99,-3.0,-0.5,-0.1,0,0,,,,,,,,,,,,,,,,,,,
206800,1506818648748,,,,,,,,0.02,0.06,0.99,-3.0,-0.5,-0.1,0,0,,,,,,,,,,,,,,,,,,,
206820,1506818648768,0,145.9,,159.2,0,156.1,,0.02,0.06,0.99,-3.0,-0.2,-0.1,0,0,1,1,0.0,0,35.489754,-119.546188,0.0,0.0,325.9,10,3,1.7,0,0.0,-1,0.0,0.0,0.0,0
206840,1506818648788,,,,,,,,0.02,0.05,0.99,-3.0,-0.3,-0.1,0,0,,,,,,,,,,,,,,,,,,,
206860,1506818648807,,,,,,,,0.02,0.05,0.99,-3.0,-0.3,-0.1,0,0,,,,,,,,,,,,,,,,,,,
206880,1506818648827,,,,,,,,0.02,0.05,0.99,-3.0,-0.3,-0.1,0,0,,,,,,,,,,,,,,,,,,,
206900,1506818648847,,,,,,,,0.02,0.05,0.99,-3.0,-0.3,-0.1,0,0,,,,,,,,,,,,,,,,,,,
206920,1506818648867,,,,,0,,,0.02,0.05,0.99,-3.0,-0.3,-0.1,0,0,1,1,0.0,0,35.489754,-119.546188,0.0,0.0,325.9,10,3,1.7,0,0.0,-1,0.0,0.0,0.0,0
206940,1506818648887,,,,,,,,0.02,0.05,0.99,-3.0,-0.4,-0.1,0,0,,,,,,,,,,,,,,,,,,,
206960,1506818648907,,,,,,,,0.02,0.05,0.99,-3.0,-0.4,-0.1,0,0,,,,,,,,,,,,,,,,,,,
206980,1506818648927,,,,,,,,0.02,0.05,0.99,-3.0,-0.4,-0.1,0,0,,,,,,,,,,,,,,,,,,,
207000,1506818648947,,,,,,,,0.02,0.06,0.99,-3.0,-0.4,-0.1,0,0,,,,,,,,,,,,,,,,,,,
207020,1506818648967,0,146.4,,159.5,0,156.0,,0.02,0.06,0.99,-3.0,-0.4,-0.1,0,0,1,1,0.0,0,35.489754,-119.546188,0.0,0.0,325.9,10,3,1.7,0,0.0,-1,0.0,0.0,0.0,0
207040,1506818648987,,,,,,,,0.02,0.05,0.99,-3.0,-0.4,-0.1,0,0,,,,,,,,,,,,,,,,,,,
207060,1506818649003,,,,,,,,0.02,0.05,0.99,-3.0,-0.5,-0.1,0,0,,,,,,,,,,,,,,,,,,,
207080,1506818649023,,,,,,,,0.02,0.05,0.99,-3.0,-0.5,-0.1,0,0,,,,,,,,,,,,,,,,,,,
207100,1506818649043,,,,,,,,0.02,0.05,0.99,-3.0,-0.5,-0.1,0,0,,,,,,,,,,,,,,,,,,,
207120,1506818649063,,,,,0,,,0.02,0.05,0.99,-3.0,-0.5,-0.1,0,0,1,1,0.0,0,35.489754,-119.546188,0.0,0.0,325.9,10,3,1.7,0,0.0,-1,0.0,0.0,0.0,0
207140,1506818649083,,,,,,,,0.02,0.05,0.99,-3.0,-0.5,-0.1,0,0,,,,,,,,,,,,,,,,,,,
207160,1506818649107,,,,,,,,0.02,0.05,0.99,-3.0,-0.5,-0.1,0,0,,,,,,,,,,,,,,,,,,,
207180,1506818649127,,,,,,,,0.02,0.05,0.99,-3.0,-0.5,-0.1,0,0,,,,,,,,,,,,,,,,,,,
207200,1506818649147,,,,,,,,0.02,0.05,0.99,-3.0,-0.5,-0.1,0,0,,,,,,,,,,,,,,,,,,,
207220,1506818649167,0,145.9,,159.3,0,155.9,,0.02,0.05,0.99,-3.0,-0.5,-0.1,0,0,1,1,0.0,0,35.489754,-119.546188,0.0,0.0,325.9,10,3,1.7,0,0.0,-1,0.0,0.0,0.0,0
207240,1506818649187,,,,,,,,0.02,0.05,0.99,-3.0,-0.5,-0.1,0,0,,,,,,,,,,,,,,,,,,,
207260,1506818649207,,,,,,,,0.02,0.06,0.99,-3.0,-0.5,-0.1,0,0,,,,,,,,,,,,,,,,,,,
207280,1506818649227,,,,,,,,0.02,0.05,0.99,-3.0,-0.5,-0.1,0,0,,,,,,,,,,,,,,,,,,,
207300,1506818649247,,,,,,,,0.02,0.06,0.99,-3.0,-0.5,-0.1,0,0,,,,,,,,,,,,,,,,,,,
207320,1506818649267,,,,,0,,,0.03,0.06,0.99,-3.0,-0.5,-0.1,0,0,1,1,0.0,0,35.489754,-119.546188,0.0,0.0,325.9,10,3,1.7,0,0.0,-1,0.0,0.0,0.0,0
207340,1506818649287,,,,,,,,0.03,0.06,0.99,-3.0,-0.5,-0.1,0,0,,,,,,,,,,,,,,,,,,,
207360,1506818649307,,,,,,,,0.03,0.06,0.99,-3.0,-0.5,-0.1,0,0,,,,,,,,,,,,,,,,,,,
207380,1506818649327,,,,,,,,0.02,0.06,0.99,-3.0,-0.5,-0.1,0,0,,,,,,,,,,,,,,,,,,,
207400,1506818649347,,,,,,,,0.02,0.06,0.99,-3.0,-0.5,-0.1,0,0,,,,,,,,,,,,,,,,,,,
207420,1506818649367,0,145.4,-0.6,158.6,0,155.5,12.91,0.02,0.06,0.99,-3.0,-0.5,-0.1,0,0,1,1,0.0,0,35.489754,-119.546188,0.0,0.0,325.9,10,3,1.7,0,0.0,-1,0.0,0.0,0.0,0
207440,1506818649387,,,,,,,,0.02,0.06,0.99,-3.0,-0.5,-0.1,0,0,,,,,,,,,,,,,,,,,,,
207460,1506818649407,,,,,,,,0.02,0.06,0.99,-3.0,-0.5,-0.1,0,0,,,,,,,,,,,,,,,,,,,
207480,1506818649427,,,,,,,,0.02,0.06,0.99,-3.0,-0.5,-0.1,0,0,,,,,,,,,,,,,,,,,,,
207500,1506818649447,,,,,,,,0.02,0.06,0.99,-3.0,-0.5,-0.1,0,0,,,,,,,,,,,,,,,,,,,
207520,1506818649467,,,,,0,,,0.03,0.06,0.99,-3.0,-0.5,-0.1,0,0,1,1,0.0,0,35.489754,-119.546188,0.0,0.0,325.9,10,3,1.7,0,0.0,-1,0.0,0.0,0.0,0
207540,1506818649487,,,,,,,,0.03,0.06,1.0,-3.0,-0.5,-0.1,0,0,,,,,,,,,,,,,,,,,,,
207560,1506818649509,,,,,,,,0.02,0.06,0.99,-3.0,-0.5,-0.1,0,0,,,,,,,,,,,,,,,,,,,
207580,1506818649529,,,,,,,,0.02,0.06,0.99,-3.0,-0.5,-0.1,0,0,,,,,,,,,,,,,,,,,,,
207600,1506818649549,,,,,,,,0.02,0.06,0.99,-3.0,-0.5,-0.1,0,0,,,,,,,,,,,,,,,,,,,
207620,1506818649569,0,146.2,,159.3,0,156.1,,0.03,0.06,0.99,-3.0,-0.5,-0.1,0,0,1,1,0.0,0,35.489754,-119.546188,0.0,0.0,325.9,10,3,1.7,0,0.0,-1,0.0,0.0,0.0,0
207640,1506818649589,,,,,,,,0.03,0.06,0.99,-3.0,-0.5,-0.1,0,0,,,,,,,,,,,,,,,,,,,
207660,1506818649607,,,,,,,,0.03,0.06,0.99,-3.0,-0.5,-0.1,0,0,,,,,,,,,,,,,,,,,,,
207680,1506818649627,,,,,,,,0.03,0.06,1.0,-3.0,-0.5,-0.1,0,0,,,,,,,,,,,,,,,,,,,
207700,1506818649647,,,,,,,,0.03,0.06,1.0,-3.0,-0.5,-0.1,0,0,,,,,,,,,,,,,,,,,,,
207720,1506818649667,,,,,0,,,0.03,0.06,1.0,-3.0,-0.5,-0.1,0,0,1,1,0.0,0,35.489754,-119.546188,0.0,0.0,325.9,10,3,1.7,0,0.0,-1,0.0,0.0,0.0,0
207740,1506818649687,,,,,,,,0.03,0.06,1.0,-3.0,-0.5,-0.1,0,0,,,,,,,,,,,,,,,,,,,
207760,1506818649707,,,,,,,,0.03,0.06,1.0,-3.0,-0.5,-0.1,0,0,,,,,,,,,,,,,,,,,,,
207780,1506818649727,,,,,,,,0.03,0.06,1.0,-3.0,-0.5,-0.1,0,0,,,,,,,,,,,,,,,,,,,
207800,1506818649747,,,,,,,,0.03,0.06,1.0,-3.0,-0.5,-0.1,0,0,,,,,,,,,,,,,,,,,,,
207820,1506818649767,0,146.0,,159.2,0,156.0,,0.03,0.06,1.0,-3.0,-0.5,-0.1,0,0,1,1,0.0,0,35.489754,-119.546188,0.0,0.0,325.9,10,3,1.7,0,0.0,-1,0.0,0.0,0.0,0
207840,1506818649787,,,,,,,,0.02,0.06,0.99,-3.0,-0.5,-0.1,0,0,,,,,,,,,,,,,,,,,,,
207860,1506818649808,,,,,,,,0.03,0.06,0.99,-3.0,-0.5,-0.1,0,0,,,,,,,,,,,,,,,,,,,
207880,1506818649828,,,,,,,,0.03,0.06,0.99,-3.0,-0.5,-0.1,0,0,,,,,,,,,,,,,,,,,,,
207900,1506818649848,,,,,,,,0.02,0.06,0.99,-3.0,-0.5,-0.1,0,0,,,,,,,,,,,,,,,,,,,
207920,1506818649868,,,,,0,,,0.02,0.06,1.0,-3.0,-0.5,-0.1,0,0,1,1,0.0,0,35.489754,-119.546188,0.0,0.0,325.9,10,3,1.7,0,0.0,-1,0.0,0.0,0.0,0
207940,1506818649888,,,,,,,,0.02,0.06,1.0,-3.0,-0.5,-0.1,0,0,,,,,,,,,,,,,,,,,,,
207960,1506818649908,,,,,,,,0.03,0.06,0.99,-3.0,-0.5,-0.1,0,0,,,,,,,,,,,,,,,,,,,
207980,1506818649928,,,,,,,,0.03,0.06,1.0,-3.0,-0.5,-0.1,0,0,,,,,,,,,,,,,,,,,,,
208000,1506818649948,,,,,,,,0.03,0.06,0.99,-3.0,-0.5,-0.1,0,0,,,,,,,,,,,,,,,,,,,
208020,1506818649968,0,146.5,,159.6,0,156.1,,0.03,0.06,1.0,-3.0,-0.5,-0.1,0,0,1,1,0.0,0,35.489754,-119.546188,0.0,0.0,325.9,10,3,1.7,0,0.0,-1,0.0,0.0,0.0,0
208040,1506818649988,,,,,,,,0.03,0.06,1.0,-3.0,-0.5,-0.1,0,0,,,,,,,,,,,,,,,,,,,
208060,1506818650002,,,,,,,,0.03,0.06,1.0,-3.0,-0.5,-0.1,0,0,,,,,,,,,,,,,,,,,,,
208080,1506818650022,,,,,,,,0.03,0.06,1.0,-3.0,-0.5,-0.1,0,0,,,,,,,,,,,,,,,,,,,
208100,1506818650042,,,,,,,,0.03,0.06,0.99,-3.0,-0.5,-0.1,0,0,,,,,,,,,,,,,,,,,,,
208120,1506818650062,,,,,0,,,0.03,0.06,0.99,-3.0,-0.5,-0.1,0,0,1,1,0.0,0,35.489754,-119.546188,0.0,0.0,325.9,10,3,1.7,0,0.0,-1,0.0,0.0,0.0,0
208140,1506818650082,,,,,,,,0.03,0.06,0.99,-3.0,-0.5,-0.1,0,0,,,,,,,,,,,,,,,,,,,
208160,1506818650108,,,,,,,,0.03,0.06,0.99,-3.0,-0.5,-0.1,0,0,,,,,,,,,,,,,,,,,,,
208180,1506818650128,,,,,,,,0.03,0.06,1.0,-3.0,-0.5,-0.1,0,0,,,,,,,,,,,,,,,,,,,
208200,1506818650148,,,,,,,,0.03,0.06,1.0,-3.0,-0.5,-0.1,0,0,,,,,,,,,,,,,,,,,,,
208220,1506818650168,0,146.4,,159.5,0,155.9,,0.03,0.06,1.0,-3.0,-0.5,-0.1,0,0,1,1,0.0,0,35.489754,-119.546188,0.0,0.0,325.9,10,3,1.7,0,0.0,-1,0.0,0.0,0.0,0
208240,1506818650188,,,,,,,,0.03,0.06,1.0,-3.0,-0.5,-0.1,0,0,,,,,,,,,,,,,,,,,,,
208260,1506818650208,,,,,,,,0.03,0.06,1.0,-3.0,-0.5,-0.1,0,0,,,,,,,,,,,,,,,,,,,
208280,1506818650228,,,,,,,,0.03,0.06,1.0,-3.0,-0.5,-0.1,0,0,,,,,,,,,,,,,,,,,,,
208300,1506818650248,,,,,,,,0.03,0.06,1.0,-3.0,-0.5,-0.1,0,0,,,,,,,,,,,,,,,,,,,
208320,1506818650268,,,,,0,,,0.03,0.06,1.0,-3.0,-0.5,-0.2,0,0,1,1,0.0,0,35.489754,-119.546188,0.0,0.0,325.9,10,3,1.7,0,0.0,-1,0.0,0.0,0.0,0
208340,1506818650288,,,,,,,,0.03,0.06,1.0,-3.0,-0.5,-0.2,0,0,,,,,,,,,,,,,,,,,,,
208360,1506818650308,,,,,,,,0.03,0.06,1.0,-3.0,-0.5,-0.1,0,0,,,,,,,,,,,,,,,,,,,
208380,1506818650328,,,,,,,,0.03,0.06,1.0,-3.0,-0.5,-0.1,0,0,,,,,,,,,,,,,,,,,,,
208400,1506818650348,,,,,,,,0.03,0.06,0.99,-3.0,-0.5,-0.1,0,0,,,,,,,,,,,,,,,,,,,
208420,1506818650368,0,145.8,-0.5,159.3,0,156.1,12.91,0.03,0.06,1.0,-3.0,-0.5,-0.1,0,0,1,1,0.0,0,35.489754,-119.546188,0.0,0.0,325.9,10,3,1.7,0,0.0,-1,0.0,0.0,0.0,0
208440,1506818650388,,,,,,,,0.03,0.06,0.99,-3.0,-0.5,-0.1,0,0,,,,,,,,,,,,,,,,,,,
208460,1506818650408,,,,,,,,0.03,0.05,1.0,-3.0,-0.5,-0.1,0,0,,,,,,,,,,,,,,,,,,,
208480,1506818650428,,,,,,,,0.03,0.05,1.0,-3.0,-0.5,-0.1,0,0,,,,,,,,,,,,,,,,,,,
208500,1506818650448,,,,,,,,0.03,0.05,1.0,-3.0,-0.5,-0.1,0,0,,,,,,,,,,,,,,,,,,,
208520,1506818650468,,,,,0,,,0.03,0.05,1.0,-3.0,-0.5,-0.1,0,0,1,1,0.0,0,35.489754,-119.546188,0.0,0.0,325.9,10,3,1.7,0,0.0,-1,0.0,0.0,0.0,0
208540,1506818650488,,,,,,,,0.03,0.05,1.0,-3.0,-0.5,-0.1,0,0,,,,,,,,,,,,,,,,,,,
208560,1506818650506,,,,,,,,0.03,0.05,1.0,-3.0,-0.5,-0.1,0,0,,,,,,,,,,,,,,,,,,,
208580,1506818650526,,,,,,,,0.03,0.05,0.99,-3.0,-0.6,-0.1,0,0,,,,,,,,,,,,,,,,,,,
208600,1506818650546,,,,,,,,0.03,0.05,1.0,-3.0,-0.6,-0.1,0,0,,,,,,,,,,,,,,,,,,,
208620,1506818650566,0,145.6,,158.8,0,155.8,,0.03,0.06,1.0,-3.0,-0.6,-0.1,0,0,1,1,0.0,0,35.489754,-119.546188,0.0,0.0,325.9,10,3,1.7,0,0.0,-1,0.0,0.0,0.0,0
208640,1506818650586,,,,,,,,0.03,0.06,1.0,-3.0,-0.6,-0.1,0,0,,,,,,,,,,,,,,,,,,,
208660,1506818650608,,,,,,,,0.03,0.05,1.0,-3.0,-0.5,-0.1,0,0,,,,,,,,,,,,,,,,,,,
208680,1506818650628,,,,,,,,0.03,0.05,1.0,-3.0,-0.5,-0.1,0,0,,,,,,,,,,,,,,,,,,,
208700,1506818650648,,,,,,,,0.03,0.05,1.0,-3.0,-0.5,-0.1,0,0,,,,,,,,,,,,,,,,,,,
208720,1506818650668,,,,,0,,,0.03,0.05,1.0,-3.0,-0.5,-0.1,0,0,1,1,0.0,0,35.489754,-119.546188,0.0,0.0,325.9,10,3,1.7,0,0.0,-1,0.0,0.0,0.0,0
208740,1506818650688,,,,,,,,0.03,0.05,1.0,-3.0,-0.5,-0.1,0,0,,,,,,,,,,,,,,,,,,,
208760,1506818650707,,,,,,,,0.03,0.05,1.0,-3.0,-0.5,-0.1,0,0,,,,,,,,,,,,,,,,,,,
208780,1506818650727,,,,,,,,0.03,0.05,1.0,-3.0,-0.5,-0.1,0,0,,,,,,,,,,,,,,,,,,,
208800,1506818650747,,,,,,,,0.02,0.05,1.0,-3.0,-0.5,-0.1,0,0,,,,,,,,,,,,,,,,,,,
208820,1506818650767,0,145.6,,158.9,0,155.8,,0.02,0.05,1.0,-3.0,-0.5,-0.1,0,0,1,1,0.0,0,35.489754,-119.546188,0.0,0.0,325.9,10,3,1.7,0,0.0,-1,0.0,0.0,0.0,0
208840,1506818650787,,,,,,,,0.02,0.05,1.0,-3.0,-0.5,-0.1,0,0,,,,,,,,,,,,,,,,,,,
208860,1506818650807,,,,,,,,0.03,0.05,1.0,-3.0,-0.5,-0.1,0,0,,,,,,,,,,,,,,,,,,,
208880,1506818650827,,,,,,,,0.03,0.06,1.0,-3.0,-0.5,-0.1,0,0,,,,,,,,,,,,,,,,,,,
208900,1506818650847,,,,,,,,0.03,0.06,1.0,-3.0,-0.5,-0.1,0,0,,,,,,,,,,,,,,,,,,,
208920,1506818650867,,,,,0,,,0.03,0.06,1.0,-3.0,-0.5,-0.1,0,0,1,1,0.0,0,35.489754,-119.546188,0.0,0.0,325.9,10,3,1.7,0,0.0,-1,0.0,0.0,0.0,0
208940,1506818650887,,,,,,,,0.03,0.05,1.0,-3.0,-0.5,-0.1,0,0,,,,,,,,,,,,,,,,,,,
208960,1506818650907,,,,,,,,0.03,0.05,1.0,-3.0,-0.5,-0.1,0,0,,,,,,,,,,,,,,,,,,,
208980,1506818650927,,,,,,,,0.02,0.05,1.0,-3.0,-0.5,-0.1,0,0,,,,,,,,,,,,,,,,,,,
209000,1506818650947,,,,,,,,0.02,0.05,1.0,-3.0,-0.5,-0.1,0,0,,,,,,,,,,,,,,,,,,,
209020,1506818650967,0,145.8,,158.7,0,155.5,,0.02,0.05,1.0,-3.0,-0.5,-0.1,0,0,1,1,0.0,0,35.489754,-119.546188,0.0,0.0,325.9,10,3,1.7,0,0.0,-1,0.0,0.0,0.0,0
209040,1506818650987,,,,,,,,0.02,0.05,1.0,-3.0,-0.5,-0.1,0,0,,,,,,,,,,,,,,,,,,,
209060,1506818651003,,,,,,,,0.02,0.05,1.0,-3.0,-0.5,-0.1,0,0,,,,,,,,,,,,,,,,,,,
209080,1506818651023,,,,,,,,0.02,0.05,1.0,-3.0,-0.5,-0.1,0,0,,,,,,,,,,,,,,,,,,,
209100,1506818651043,,,,,,,,0.02,0.06,1.0,-3.0,-0.5,-0.1,0,0,,,,,,,,,,,,,,,,,,,
209120,1506818651063,,,,,0,,,0.02,0.06,1.0,-3.0,-0.5,-0.1,0,0,1,1,0.0,0,35.489754,-119.546188,0.0,0.0,325.9,10,3,1.7,0,0.0,-1,0.0,0.0,0.0,0
209140,1506818651083,,,,,,,,0.02,0.06,0.99,-3.0,-0.5,-0.1,0,0,,,,,,,,,,,,,,,,,,,
209160,1506818651101,,,,,,,,0.02,0.06,0.99,-3.0,-0.5,-0.1,0,0,,,,,,,,,,,,,,,,,,,
209180,1506818651121,,,,,,,,0.02,0.06,0.99,-3.0,-0.5,-0.1,0,0,,,,,,,,,,,,,,,,,,,
209200,1506818651141,,,,,,,,0.02,0.06,0.99,-3.0,-0.5,-0.1,0,0,,,,,,,,,,,,,,,,,,,
209220,1506818651161,0,145.8,,159.3,0,156.1,,0.03,0.06,0.99,-3.0,-0.5,-0.1,0,0,1,1,0.0,0,35.489754,-119.546188,0.0,0.0,325.9,10,3,1.7,0,0.0,-1,0.0,0.0,0.0,0
209240,1506818651181,,,,,,,,0.02,0.06,1.0,-3.0,-0.5,-0.1,0,0,,,,,,,,,,,,,,,,,,,
209260,1506818651207,,,,,,,,0.03,0.05,0.99,-3.0,-0.5,-0.1,0,0,,,,,,,,,,,,,,,,,,,
209280,1506818651227,,,,,,,,0.02,0.05,0.99,-3.0,-0.5,-0.1,0,0,,,,,,,,,,,,,,,,,,,
209300,1506818651247,,,,,,,,0.03,0.05,0.99,-3.0,-0.5,-0.1,0,0,,,,,,,,,,,,,,,,,,,
209320,1506818651267,,,,,0,,,0.03,0.06,0.99,-3.0,-0.5,-0.1,0,0,1,1,0.0,0,35.489754,-119.546188,0.0,0.0,325.9,10,3,1.7,0,0.0,-1,0.0,0.0,0.0,0
209340,1506818651287,,,,,,,,0.03,0.06,0.99,-3.0,-0.5,-0.1,0,0,,,,,,,,,,,,,,,,,,,
209360,1506818651307,,,,,,,,0.03,0.06,0.99,-3.0,-0.5,-0.1,0,0,,,,,,,,,,,,,,,,,,,
209380,1506818651327,,,,,,,,0.03,0.06,1.0,-3.0,-0.5,-0.1,0,0,,,,,,,,,,,,,,,,,,,
209400,1506818651347,,,,,,,,0.03,0.06,1.0,-3.0,-0.5,-0.1,0,0,,,,,,,,,,,,,,,,,,,
209420,1506818651367,0,146.3,-0.5,159.5,0,156.1,12.9,0.03,0.06,1.0,-3.0,-0.5,-0.1,0,0,1,1,0.0,0,35.489754,-119.546188,0.0,0.0,325.9,10,3,1.7,0,0.0,-1,0.0,0.0,0.0,0
209440,1506818651387,,,,,,,,0.03,0.06,1.0,-3.0,-0.5,-0.1,0,0,,,,,,,,,,,,,,,,,,,
209460,1506818651407,,,,,,,,0.03,0.06,1.0,-3.0,-0.5,-0.1,0,0,,,,,,,,,,,,,,,,,,,
209480,1506818651427,,,,,,,,0.03,0.06,0.99,-3.0,-0.5,-0.1,0,0,,,,,,,,,,,,,,,,,,,
209500,1506818651447,,,,,,,,0.03,0.06,0.99,-3.0,-0.5,-0.1,0,0,,,,,,,,,,,,,,,,,,,
209520,1506818651467,,,,,0,,,0.03,0.05,0.99,-3.0,-0.5,-0.1,0,0,1,1,0.0,0,35.489754,-119.546188,0.0,0.0,325.9,10,3,1.7,0,0.0,-1,0.0,0.0,0.0,0
209540,1506818651487,,,,,,,,0.03,0.05,0.99,-3.0,-0.5,-0.1,0,0,,,,,,,,,,,,,,,,,,,
209560,1506818651507,,,,,,,,0.03,0.05,0.99,-3.0,-0.5,-0.1,0,0,,,,,,,,,,,,,,,,,,,
209580,1506818651527,,,,,,,,0.03,0.05,0.99,-3.0,-0.5,-0.1,0,0,,,,,,,,,,,,,,,,,,,
209600,1506818651547,,,,,,,,0.03,0.06,0.99,-3.0,-0.5,-0.1,0,0,,,,,,,,,,,,,,,,,,,
209620,1506818651567,0,145.6,,158.7,0,155.7,,0.03,0.06,0.99,-3.0,-0.5,-0.1,0,0,1,1,0.0,0,35.489754,-119.546188,0.0,0.0,325.9,10,3,1.7,0,0.0,-1,0.0,0.0,0.0,0
209640,1506818651587,,,,,,,,0.03,0.06,1.0,-3.0,-0.5,-0.1,0,0,,,,,,,,,,,,,,,,,,,
209660,1506818651607,,,,,,,,0.03,0.06,1.0,-3.0,-0.5,-0.1,0,0,,,,,,,,,,,,,,,,,,,
209680,1506818651627,,,,,,,,0.03,0.06,1.0,-3.0,-0.5,-0.1,0,0,,,,,,,,,,,,,,,,,,,
209700,1506818651647,,,,,,,,0.03,0.06,1.0,-3.0,-0.5,-0.1,0,0,,,,,,,,,,,,,,,,,,,
209720,1506818651667,,,,,0,,,0.03,0.06,1.0,-3.0,-0.5,-0.1,0,0,1,1,0.0,0,35.489754,-119.546188,0.0,0.0,325.9,10,3,1.7,0,0.0,-1,0.0,0.0,0.0,0
209740,1506818651687,,,,,,,,0.03,0.06,1.0,-3.0,-0.5,-0.1,0,0,,,,,,,,,,,,,,,,,,,
209760,1506818651708,,,,,,,,0.03,0.06,1.0,-3.0,-0.5,-0.1,0,0,,,,,,,,,,,,,,,,,,,
209780,1506818651728,,,,,,,,0.02,0.06,1.0,-3.0,-0.5,-0.1,0,0,,,,,,,,,,,,,,,,,,,
209800,1506818651748,,,,,,,,0.02,0.06,1.0,-3.0,-0.5,-0.1,0,0,,,,,,,,,,,,,,,,,,,
209820,1506818651768,0,145.4,,159.3,0,156.0,,0.02,0.06,1.0,-3.0,-0.5,-0.1,0,0,1,1,0.0,0,35.489754,-119.546188,0.0,0.0,325.9,10,3,1.7,0,0.0,-1,0.0,0.0,0.0,0
209840,1506818651788,,,,,,,,0.02,0.06,0.99,-3.0,-0.5,-0.1,0,0,,,,,,,,,,,,,,,,,,,
209860,1506818651808,,,,,,,,0.03,0.06,1.0,-3.0,-0.5,-0.1,0,0,,,,,,,,,,,,,,,,,,,
209880,1506818651828,,,,,,,,0.03,0.06,1.0,-3.0,-0.5,-0.0,0,0,,,,,,,,,,,,,,,,,,,
209900,1506818651848,,,,,,,,0.03,0.06,1.0,-3.0,-0.5,-0.0,0,0,,,,,,,,,,,,,,,,,,,
209920,1506818651868,,,,,0,,,0.03,0.06,1.0,-3.0,-0.5,-0.1,0,0,1,1,0.0,0,35.489754,-119.546188,0.0,0.0,325.9,10,3,1.7,0,0.0,-1,0.0,0.0,0.0,0
209940,1506818651888,,,,,,,,0.03,0.06,1.0,-3.0,-0.5,-0.1,0,0,,,,,,,,,,,,,,,,,,,
209960,1506818651909,,,,,,,,0.03,0.06,1.0,-3.0,-0.5,-0.0,0,0,,,,,,,,,,,,,,,,,,,
209980,1506818651929,,,,,,,,0.02,0.06,1.0,-3.0,-0.5,-0.1,0,0,,,,,,,,,,,,,,,,,,,
210000,1506818651949,,,,,,,,0.02,0.06,1.0,-3.0,-0.5,-0.1,0,0,,,,,,,,,,,,,,,,,,,
210020,1506818651969,0,146.0,,159.5,0,156.1,,0.03,0.06,1.0,-3.0,-0.5,-0.1,0,0,1,1,0.0,0,35.489754,-119.546188,0.0,0.0,325.9,10,3,1.7,0,0.0,-1,0.0,0.0,0.0,0
210040,1506818651989,,,,,,,,0.02,0.06,1.0,-3.0,-0.6,-0.1,0,0,,,,,,,,,,,,,,,,,,,
210060,1506818652002,,,,,,,,0.02,0.06,1.0,-3.0,-0.6,-0.1,0,0,,,,,,,,,,,,,,,,,,,
210080,1506818652022,,,,,,,,0.02,0.06,1.0,-3.0,-0.6,-0.1,0,0,,,,,,,,,,,,,,,,,,,
210100,1506818652042,,,,,,,,0.02,0.06,1.0,-3.0,-0.6,-0.1,0,0,,,,,,,,,,,,,,,,,,,
210120,1506818652062,,,,,0,,,0.03,0.06,1.0,-3.0,-0.6,-0.1,0,0,1,1,0.0,0,35.489754,-119.546188,0.0,0.0,325.9,10,3,1.7,0,0.0,-1,0.0,0.0,0.0,0
210140,1506818652082,,,,,,,,0.03,0.06,1.0,-3.0,-0.5,-0.1,0,0,,,,,,,,,,,,,,,,,,,
210160,1506818652108,,,,,,,,0.03,0.06,1.0,-3.0,-0.6,-0.1,0,0,,,,,,,,,,,,,,,,,,,
210180,1506818652128,,,,,,,,0.03,0.06,1.0,-3.0,-0.5,-0.1,0,0,,,,,,,,,,,,,,,,,,,
210200,1506818652148,,,,,,,,0.03,0.06,1.0,-3.0,-0.5,-0.1,0,0,,,,,,,,,,,,,,,,,,,
210220,1506818652168,0,146.4,,159.5,0,156.1,,0.03,0.06,1.0,-3.0,-0.6,-0.1,0,0,1,1,0.0,0,35.489754,-119.546188,0.0,0.0,325.9,10,3,1.7,0,0.0,-1,0.0,0.0,0.0,0
210240,1506818652188,,,,,,,,0.02,0.06,1.0,-3.0,-0.6,-0.1,0,0,,,,,,,,,,,,,,,,,,,
210260,1506818652208,,,,,,,,0.02,0.06,1.0,-3.0,-0.5,-0.1,0,0,,,,,,,,,,,,,,,,,,,
210280,1506818652228,,,,,,,,0.02,0.06,1.0,-3.0,-0.5,-0.1,0,0,,,,,,,,,,,,,,,,,,,
210300,1506818652248,,,,,,,,0.02,0.05,1.0,-3.0,-0.5,-0.1,0,0,,,,,,,,,,,,,,,,,,,
210320,1506818652268,,,,,0,,,0.02,0.06,1.0,-3.0,-0.5,-0.1,0,0,1,1,0.0,0,35.489754,-119.546188,0.0,0.0,325.9,10,3,1.7,0,0.0,-1,0.0,0.0,0.0,0
210340,1506818652288,,,,,,,,0.03,0.06,1.0,-3.0,-0.5,-0.1,0,0,,,,,,,,,,,,,,,,,,,
210360,1506818652308,,,,,,,,0.03,0.06,1.0,-3.0,-0.5,-0.1,0,0,,,,,,,,,,,,,,,,,,,
210380,1506818652328,,,,,,,,0.03,0.06,1.0,-3.0,-0.5,-0.1,0,0,,,,,,,,,,,,,,,,,,,
210400,1506818652348,,,,,,,,0.03,0.06,1.0,-3.0,-0.6,-0.1,0,0,,,,,,,,,,,,,,,,,,,
210420,1506818652368,0,146.5,-0.6,159.5,0,156.0,12.9,0.03,0.05,1.0,-3.0,-0.6,-0.1,0,0,1,1,0.0,0,35.489754,-119.546188,0.0,0.0,325.9,10,3,1.7,0,0.0,-1,0.0,0.0,0.0,0
210440,1506818652388,,,,,,,,0.03,0.06,1.0,-3.0,-0.6,-0.1,0,0,,,,,,,,,,,,,,,,,,,
210460,1506818652408,,,,,,,,0.02,0.06,1.0,-3.0,-0.5,-0.1,0,0,,,,,,,,,,,,,,,,,,,
210480,1506818652428,,,,,,,,0.02,0.06,1.0,-3.0,-0.5,-0.1,0,0,,,,,,,,,,,,,,,,,,,
210500,1506818652448,,,,,,,,0.02,0.06,1.0,-3.0,-0.5,-0.1,0,0,,,,,,,,,,,,,,,,,,,
210520,1506818652468,,,,,0,,,0.02,0.06,1.0,-3.0,-0.5,-0.1,0,0,1,1,0.0,0,35.489754,-119.546188,0.0,0.0,325.9,10,3,1.7,0,0.0,-1,0.0,0.0,0.0,0
210540,1506818652488,,,,,,,,0.02,0.06,1.0,-3.0,-0.5,-0.1,0,0,,,,,,,,,,,,,,,,,,,
210560,1506818652508,,,,,,,,0.02,0.06,1.0,-3.0,-0.5,-0.1,0,0,,,,,,,,,,,,,,,,,,,
210580,1506818652528,,,,,,,,0.02,0.06,1.0,-3.0,-0.5,-0.1,0,0,,,,,,,,,,,,,,,,,,,
210600,1506818652548,,,,,,,,0.02,0.06,1.0,-3.0,-0.5,-0.1,0,0,,,,,,,,,,,,,,,,,,,
210620,1506818652568,0,146.5,,159.6,0,155.9,,0.02,0.06,1.0,-3.0,-0.5,-0.1,0,0,1,1,0.0,0,35.489754,-119.546188,0.0,0.0,325.9,10,3,1.7,0,0.0,-1,0.0,0.0,0.0,0
210640,1506818652588,,,,,,,,0.03,0.06,0.99,-3.0,-0.5,-0.1,0,0,,,,,,,,,,,,,,,,,,,
210660,1506818652608,,,,,,,,0.02,0.06,0.99,-3.0,-0.5,-0.1,0,0,,,,,,,,,,,,,,,,,,,
210680,1506818652628,,,,,,,,0.03,0.05,0.99,-3.0,-0.5,-0.1,0,0,,,,,,,,,,,,,,,,,,,
210700,1506818652648,,,,,,,,0.03,0.05,0.99,-3.0,-0.5,-0.1,0,0,,,,,,,,,,,,,,,,,,,
210720,1506818652668,,,,,0,,,0.03,0.06,0.99,-3.0,-0.5,-0.1,0,0,1,1,0.0,0,35.489754,-119.546188,0.0,0.0,325.9,10,3,1.7,0,0.0,-1,0.0,0.0,0.0,0
210740,1506818652688,,,,,,,,0.03,0.06,1.0,-3.0,-0.5,-0.1,0,0,,,,,,,,,,,,,,,,,,,
210760,1506818652708,,,,,,,,0.03,0.06,0.99,-3.0,-0.5,-0.1,0,0,,,,,,,,,,,,,,,,,,,
210780,1506818652728,,,,,,,,0.03,0.06,0.99,-3.0,-0.5,-0.1,0,0,,,,,,,,,,,,,,,,,,,
210800,1506818652748,,,,,,,,0.03,0.06,0.99,-3.0,-0.5,-0.1,0,0,,,,,,,,,,,,,,,,,,,
210820,1506818652768,0,146.4,,159.1,0,156.0,,0.03,0.06,1.0,-3.0,-0.5,-0.1,0,0,1,1,0.0,0,35.489754,-119.546188,0.0,0.0,325.9,10,3,1.7,0,0.0,-1,0.0,0.0,0.0,0
210840,1506818652788,,,,,,,,0.03,0.06,1.0,-3.0,-0.5,-0.1,0,0,,,,,,,,,,,,,,,,,,,
210860,1506818652801,,,,,,,,0.03,0.06,1.0,-3.0,-0.5,-0.1,0,0,,,,,,,,,,,,,,,,,,,
210880,1506818652821,,,,,,,,0.03,0.06,1.0,-3.0,-0.5,-0.1,0,0,,,,,,,,,,,,,,,,,,,
210900,1506818652841,,,,,,,,0.03,0.06,1.0,-3.0,-0.5,-0.1,0,0,,,,,,,,,,,,,,,,,,,
210920,1506818652861,,,,,0,,,0.03,0.06,1.0,-3.0,-0.5,-0.1,0,0,1,1,0.0,0,35.489754,-119.546188,0.0,0.0,325.9,10,3,1.7,0,0.0,-1,0.0,0.0,0.0,0
210940,1506818652881,,,,,,,,0.03,0.06,1.0,-3.0,-0.5,-0.1,0,0,,,,,,,,,,,,,,,,,,,
210960,1506818652907,,,,,,,,0.03,0.06,1.0,-3.1,-0.5,-0.1,0,0,,,,,,,,,,,,,,,,,,,
210980,1506818652927,,,,,,,,0.03,0.06,1.0,-3.1,-0.6,-0.1,0,0,,,,,,,,,,,,,,,,,,,
211000,1506818652947,,,,,,,,0.02,0.06,1.0,-3.1,-0.6,-0.1,0,0,,,,,,,,,,,,,,,,,,,
211020,1506818652967,0,145.5,,158.8,0,156.0,,0.02,0.06,1.0,-3.1,-0.5,-0.1,0,0,1,1,0.0,0,35.489754,-119.546188,0.0,0.0,325.9,10,3,1.7,0,0.0,-1,0.0,0.0,0.0,0
211040,1506818652987,,,,,,,,0.02,0.06,1.0,-3.0,-0.5,-0.1,0,0,,,,,,,,,,,,,,,,,,,
211060,1506818653001,,,,,,,,0.03,0.06,1.0,-3.0,-0.5,-0.1,0,0,,,,,,,,,,,,,,,,,,,
211080,1506818653021,,,,,,,,0.03,0.06,1.0,-3.0,-0.6,-0.1,0,0,,,,,,,,,,,,,,,,,,,
211100,1506818653041,,,,,,,,0.03,0.06,1.0,-3.0,-0.6,-0.1,0,0,,,,,,,,,,,,,,,,,,,
211120,1506818653061,,,,,0,,,0.03,0.06,1.0,-3.0,-0.5,-0.1,0,0,1,1,0.0,0,35.489754,-119.546188,0.0,0.0,325.9,10,3,1.7,0,0.0,-1,0.0,0.0,0.0,0
211140,1506818653081,,,,,,,,0.03,0.05,1.0,-3.0,-0.6,-0.1,0,0,,,,,,,,,,,,,,,,,,,
211160,1506818653107,,,,,,,,0.03,0.05,1.0,-3.0,-0.6,-0.1,0,0,,,,,,,,,,,,,,,,,,,
211180,1506818653127,,,,,,,,0.03,0.05,1.0,-3.0,-0.6,-0.1,0,0,,,,,,,,,,,,,,,,,,,
211200,1506818653147,,,,,,,,0.03,0.06,1.0,-3.0,-0.5,-0.1,0,0,,,,,,,,,,,,,,,,,,,
211220,1506818653167,0,146.3,,159.4,0,156.1,,0.03,0.05,1.0,-3.0,-0.6,-0.1,0,0,1,1,0.0,0,35.489754,-119.546188,0.0,0.0,325.9,10,3,1.7,0,0.0,-1,0.0,0.0,0.0,0
211240,1506818653187,,,,,,,,0.03,0.05,1.0,-3.0,-0.6,-0.1,0,0,,,,,,,,,,,,,,,,,,,
211260,1506818653207,,,,,,,,0.03,0.05,1.0,-3.0,-0.6,-0.1,0,0,,,,,,,,,,,,,,,,,,,
211280,1506818653227,,,,,,,,0.03,0.05,1.0,-3.0,-0.6,-0.1,0,0,,,,,,,,,,,,,,,,,,,
211300,1506818653247,,,,,,,,0.03,0.05,1.0,-3.0,-0.6,-0.1,0,0,,,,,,,,,,,,,,,,,,,
211320,1506818653267,,,,,0,,,0.03,0.05,1.0,-3.0,-0.6,-0.1,0,0,1,1,0.0,0,35.489754,-119.546188,0.0,0.0,325.9,10,3,1.7,0,0.0,-1,0.0,0.0,0.0,0
211340,1506818653287,,,,,,,,0.03,0.05,1.0,-3.0,-0.6,-0.1,0,0,,,,,,,,,,,,,,,,,,,
211360,1506818653307,,,,,,,,0.03,0.05,1.0,-3.0,-0.6,-0.1,0,0,,,,,,,,,,,,,,,,,,,
211380,1506818653327,,,,,,,,0.03,0.06,1.0,-3.0,-0.6,-0.1,0,0,,,,,,,,,,,,,,,,,,,
211400,1506818653347,,,,,,,,0.03,0.06,1.0,-3.0,-0.6,-0.1,0,0,,,,,,,,,,,,,,,,,,,
211420,1506818653367,0,146.3,-0.5,159.3,0,155.6,12.91,0.03,0.06,1.0,-3.0,-0.6,-0.1,0,0,1,1,0.0,0,35.489754,-119.546188,0.0,0.0,325.9,10,3,1.7,0,0.0,-1,0.0,0.0,0.0,0
211440,1506818653387,,,,,,,,0.03,0.05,1.0,-3.0,-0.6,-0.1,0,0,,,,,,,,,,,,,,,,,,,
211460,1506818653409,,,,,,,,0.03,0.05,1.0,-3.0,-0.6,-0.1,0,0,,,,,,,,,,,,,,,,,,,
211480,1506818653429,,,,,,,,0.03,0.05,1.0,-3.0,-0.6,-0.1,0,0,,,,,,,,,,,,,,,,,,,
211500,1506818653449,,,,,,,,0.02,0.05,1.0,-3.0,-0.6,-0.1,0,0,,,,,,,,,,,,,,,,,,,
211520,1506818653469,,,,,0,,,0.03,0.05,1.0,-3.0,-0.6,-0.1,0,0,1,1,0.0,0,35.489754,-119.546188,0.0,0.0,325.9,10,3,1.7,0,0.0,-1,0.0,0.0,0.0,0
211540,1506818653489,,,,,,,,0.03,0.05,1.0,-3.0,-0.6,-0.1,0,0,,,,,,,,,,,,,,,,,,,
211560,1506818653509,,,,,,,,0.03,0.05,1.0,-3.0,-0.6,-0.1,0,0,,,,,,,,,,,,,,,,,,,
211580,1506818653529,,,,,,,,0.03,0.05,1.0,-3.0,-0.6,-0.1,0,0,,,,,,,,,,,,,,,,,,,
211600,1506818653549,,,,,,,,0.03,0.06,1.0,-3.0,-0.6,-0.1,0,0,,,,,,,,,,,,,,,,,,,
211620,1506818653569,0,146.3,,159.3,0,155.9,,0.03,0.06,1.0,-3.0,-0.5,-0.1,0,0,1,1,0.0,0,35.489754,-119.546188,0.0,0.0,325.9,10,3,1.7,0,0.0,-1,0.0,0.0,0.0,0
211640,1506818653589,,,,,,,,0.03,0.05,1.0,-3.0,-0.5,-0.1,0,0,,,,,,,,,,,,,,,,,,,
211660,1506818653609,,,,,,,,0.03,0.05,1.0,-3.0,-0.5,-0.1,0,0,,,,,,,,,,,,,,,,,,,
211680,1506818653629,,,,,,,,0.03,0.06,1.0,-3.0,-0.5,-0.1,0,0,,,,,,,,,,,,,,,,,,,
211700,1506818653649,,,,,,,,0.03,0.06,1.0,-3.0,-0.5,-0.1,0,0,,,,,,,,,,,,,,,,,,,
211720,1506818653669,,,,,0,,,0.03,0.06,1.0,-3.0,-0.5,-0.1,0,0,1,1,0.0,0,35.489754,-119.546188,0.0,0.0,325.9,10,3,1.7,0,0.0,-1,0.0,0.0,0.0,0
211740,1506818653689,,,,,,,,0.03,0.06,1.0,-3.0,-0.5,-0.1,0,0,,,,,,,,,,,,,,,,,,,
211760,1506818653709,,,,,,,,0.03,0.06,1.0,-3.0,-0.5,-0.1,0,0,,,,,,,,,,,,,,,,,,,
211780,1506818653729,,,,,,,,0.03,0.06,1.0,-3.0,-0.5,-0.1,0,0,,,,,,,,,,,,,,,,,,,
211800,1506818653749,,,,,,,,0.03,0.06,1.0,-3.0,-0.5,-0.1,0,0,,,,,,,,,,,,,,,,,,,
211820,1506818653769,0,146.5,,159.5,0,156.0,,0.03,0.06,1.0,-3.0,-0.5,-0.1,0,0,1,1,0.0,0,35.489754,-119.546188,0.0,0.0,325.9,10,3,1.7,0,0.0,-1,0.0,0.0,0.0,0
211840,1506818653789,,,,,,,,0.03,0.06,1.0,-3.0,-0.5,-0.1,0,0,,,,,,,,,,,,,,,,,,,
211860,1506818653806,,,,,,,,0.03,0.06,1.0,-3.0,-0.5,-0.1,0,0,,,,,,,,,,,,,,,,,,,
211880,1506818653826,,,,,,,,0.03,0.06,1.0,-3.0,-0.5,-0.1,0,0,,,,,,,,,,,,,,,,,,,
211900,1506818653846,,,,,,,,0.03,0.06,1.0,-3.0,-0.5,-0.1,0,0,,,,,,,,,,,,,,,,,,,
211920,1506818653866,,,,,0,,,0.03,0.06,1.0,-3.0,-0.5,-0.2,0,0,1,1,0.0,0,35.489754,-119.546188,0.0,0.0,325.9,10,3,1.7,0,0.0,-1,0.0,0.0,0.0,0
211940,1506818653886,,,,,,,,0.02,0.06,1.0,-3.0,-0.6,-0.1,0,0,,,,,,,,,,,,,,,,,,,
211960,1506818653908,,,,,,,,0.02,0.06,1.0,-3.0,-0.5,-0.2,0,0,,,,,,,,,,,,,,,,,,,
211980,1506818653928,,,,,,,,0.02,0.06,1.0,-3.0,-0.5,-0.2,0,0,,,,,,,,,,,,,,,,,,,
212000,1506818653948,,,,,,,,0.02,0.06,1.0,-3.0,-0.6,-0.2,0,0,,,,,,,,,,,,,,,,,,,
212020,1506818653968,0,146.4,,159.5,0,155.9,,0.03,0.06,1.0,-3.0,-0.6,-0.1,0,0,1,1,0.0,0,35.489754,-119.546188,0.0,0.0,325.9,10,3,1.7,0,0.0,-1,0.0,0.0,0.0,0
212040,1506818653988,,,,,,,,0.03,0.06,1.0,-3.0,-0.6,-0.1,0,0,,,,,,,,,,,,,,,,,,,
212060,1506818654002,,,,,,,,0.03,0.05,1.0,-3.0,-0.5,-0.2,0,0,,,,,,,,,,,,,,,,,,,
212080,1506818654022,,,,,,,,0.03,0.06,1.0,-3.0,-0.5,-0.1,0,0,,,,,,,,,,,,,,,,,,,
212100,1506818654042,,,,,,,,0.03,0.06,1.0,-3.0,-0.5,-0.1,0,0,,,,,,,,,,,,,,,,,,,
212120,1506818654062,,,,,0,,,0.02,0.06,1.0,-3.0,-0.5,-0.1,0,0,1,1,0.0,0,35.489754,-119.546188,0.0,0.0,325.9,10,3,1.7,0,0.0,-1,0.0,0.0,0.0,0
212140,1506818654082,,,,,,,,0.02,0.06,1.0,-3.0,-0.5,-0.1,0,0,,,,,,,,,,,,,,,,,,,
212160,1506818654108,,,,,,,,0.02,0.06,1.0,-3.0,-0.5,-0.1,0,0,,,,,,,,,,,,,,,,,,,
212180,1506818654128,,,,,,,,0.02,0.06,0.99,-3.0,-0.5,-0.1,0,0,,,,,,,,,,,,,,,,,,,
212200,1506818654148,,,,,,,,0.03,0.06,0.99,-3.0,-0.5,-0.1,0,0,,,,,,,,,,,,,,,,,,,
212220,1506818654168,0,146.3,,159.5,0,156.0,,0.03,0.06,0.99,-3.0,-0.6,-0.1,0,0,1,1,0.0,0,35.489754,-119.546188,0.0,0.0,325.9,10,3,1.7,0,0.0,-1,0.0,0.0,0.0,0
212240,1506818654188,,,,,,,,0.02,0.06,0.99,-3.0,-0.6,-0.1,0,0,,,,,,,,,,,,,,,,,,,
212260,1506818654208,,,,,,,,0.03,0.06,0.99,-3.0,-0.5,-0.1,0,0,,,,,,,,,,,,,,,,,,,
212280,1506818654228,,,,,,,,0.03,0.06,0.99,-3.0,-0.5,-0.1,0,0,,,,,,,,,,,,,,,,,,,
212300,1506818654248,,,,,,,,0.03,0.06,0.99,-3.0,-0.5,-0.1,0,0,,,,,,,,,,,,,,,,,,,
212320,1506818654268,,,,,0,,,0.03,0.06,0.99,-3.0,-0.5,-0.1,0,0,1,1,0.0,0,35.489754,-119.546188,0.0,0.0,325.9,10,3,1.7,0,0.0,-1,0.0,0.0,0.0,0
212340,1506818654288,,,,,,,,0.03,0.06,0.99,-3.0,-0.5,-0.1,0,0,,,,,,,,,,,,,,,,,,,
212360,1506818654309,,,,,,,,0.03,0.06,0.99,-3.0,-0.5,-0.2,0,0,,,,,,,,,,,,,,,,,,,
212380,1506818654329,,,,,,,,0.03,0.06,0.99,-3.0,-0.5,-0.2,0,0,,,,,,,,,,,,,,,,,,,
212400,1506818654349,,,,,,,,0.03,0.06,0.99,-3.0,-0.5,-0.1,0,0,,,,,,,,,,,,,,,,,,,
212420,1506818654369,0,146.1,-0.6,159.1,0,156.1,12.92,0.03,0.06,1.0,-3.0,-0.5,-0.1,0,0,1,1,0.0,0,35.489754,-119.546188,0.0,0.0,325.9,10,3,1.7,0,0.0,-1,0.0,0.0,0.0,0
212440,1506818654389,,,,,,,,0.03,0.06,1.0,-3.0,-0.5,-0.1,0,0,,,,,,,,,,,,,,,,,,,
212460,1506818654408,,,,,,,,0.03,0.06,1.0,-3.0,-0.5,-0.1,0,0,,,,,,,,,,,,,,,,,,,
212480,1506818654428,,,,,,,,0.03,0.06,1.0,-3.0,-0.5,-0.1,0,0,,,,,,,,,,,,,,,,,,,
212500,1506818654448,,,,,,,,0.03,0.06,1.0,-3.0,-0.5,-0.1,0,0,,,,,,,,,,,,,,,,,,,
212520,1506818654468,,,,,0,,,0.03,0.06,1.0,-3.0,-0.5,-0.1,0,0,1,1,0.0,0,35.489754,-119.546188,0.0,0.0,325.9,10,3,1.7,0,0.0,-1,0.0,0.0,0.0,0
212540,1506818654488,,,,,,,,0.03,0.06,1.0,-3.0,-0.5,-0.1,0,0,,,,,,,,,,,,,,,,,,,
212560,1506818654508,,,,,,,,0.03,0.06,1.0,-3.0,-0.5,-0.1,0,0,,,,,,,,,,,,,,,,,,,
212580,1506818654528,,,,,,,,0.03,0.06,1.0,-3.0,-0.5,-0.1,0,0,,,,,,,,,,,,,,,,,,,
212600,1506818654548,,,,,,,,0.03,0.06,1.0,-3.0,-0.5,-0.1,0,0,,,,,,,,,,,,,,,,,,,
212620,1506818654568,0,145.6,,158.7,0,155.3,,0.03,0.06,1.0,-3.0,-0.5,-0.1,0,0,1,1,0.0,0,35.489754,-119.546188,0.0,0.0,325.9,10,3,1.7,0,0.0,-1,0.0,0.0,0.0,0
212640,1506818654588,,,,,,,,0.03,0.06,1.0,-3.0,-0.5,-0.1,0,0,,,,,,,,,,,,,,,,,,,
212660,1506818654608,,,,,,,,0.03,0.06,1.0,-3.0,-0.5,-0.1,0,0,,,,,,,,,,,,,,,,,,,
212680,1506818654628,,,,,,,,0.03,0.06,1.0,-3.0,-0.5,-0.1,0,0,,,,,,,,,,,,,,,,,,,
212700,1506818654648,,,,,,,,0.03,0.06,1.0,-3.0,-0.5,-0.1,0,0,,,,,,,,,,,,,,,,,,,
212720,1506818654668,,,,,0,,,0.03,0.06,1.0,-3.0,-0.5,-0.1,0,0,1,1,0.0,0,35.489754,-119.546188,0.0,0.0,325.9,10,3,1.7,0,0.0,-1,0.0,0.0,0.0,0
212740,1506818654688,,,,,,,,0.03,0.06,1.0,-3.0,-0.5,-0.1,0,0,,,,,,,,,,,,,,,,,,,
212760,1506818654708,,,,,,,,0.03,0.06,1.0,-3.0,-0.5,-0.1,0,0,,,,,,,,,,,,,,,,,,,
212780,1506818654728,,,,,,,,0.03,0.05,1.0,-3.0,-0.5,-0.1,0,0,,,,,,,,,,,,,,,,,,,
212800,1506818654748,,,,,,,,0.03,0.05,1.0,-3.0,-0.5,-0.1,0,0,,,,,,,,,,,,,,,,,,,
212820,1506818654768,0,146.1,,159.0,0,155.3,,0.03,0.05,1.0,-3.0,-0.5,-0.1,0,0,1,1,0.0,0,35.489754,-119.546188,0.0,0.0,325.9,10,3,1.7,0,0.0,-1,0.0,0.0,0.0,0
212840,1506818654788,,,,,,,,0.03,0.05,1.0,-3.0,-0.5,-0.1,0,0,,,,,,,,,,,,,,,,,,,
212860,1506818654807,,,,,,,,0.03,0.05,1.0,-3.0,-0.6,-0.1,0,0,,,,,,,,,,,,,,,,,,,
212880,1506818654827,,,,,,,,0.03,0.06,1.0,-3.0,-0.6,-0.1,0,0,,,,,,,,,,,,,,,,,,,
212900,1506818654847,,,,,,,,0.03,0.05,1.0,-3.0,-0.6,-0.1,0,0,,,,,,,,,,,,,,,,,,,
212920,1506818654867,,,,,0,,,0.03,0.05,1.0,-3.0,-0.6,-0.1,0,0,1,1,0.0,0,35.489754,-119.546188,0.0,0.0,325.9,10,3,1.7,0,0.0,-1,0.0,0.0,0.0,0
212940,1506818654887,,,,,,,,0.03,0.05,1.0,-3.0,-0.5,-0.1,0,0,,,,,,,,,,,,,,,,,,,
212960,1506818654907,,,,,,,,0.03,0.05,1.0,-3.0,-0.5,-0.1,0,0,,,,,,,,,,,,,,,,,,,
212980,1506818654927,,,,,,,,0.03,0.05,1.0,-3.0,-0.5,-0.1,0,0,,,,,,,,,,,,,,,,,,,
213000,1506818654947,,,,,,,,0.03,0.05,1.0,-3.0,-0.5,-0.1,0,0,,,,,,,,,,,,,,,,,,,
213020,1506818654967,0,146.2,,159.1,0,155.4,,0.02,0.05,1.0,-3.0,-0.5,-0.1,0,0,1,1,0.0,0,35.489754,-119.546188,0.0,0.0,325.9,10,3,1.7,0,0.0,-1,0.0,0.0,0.0,0
213040,1506818654987,,,,,,,,0.03,0.05,1.0,-3.0,-0.5,-0.1,0,0,,,,,,,,,,,,,,,,,,,
213060,1506818655001,,,,,,,,0.03,0.05,1.0,-3.0,-0.5,-0.1,0,0,,,,,,,,,,,,,,,,,,,
213080,1506818655021,,,,,,,,0.03,0.06,1.0,-3.0,-0.5,-0.1,0,0,,,,,,,,,,,,,,,,,,,
213100,1506818655041,,,,,,,,0.02,0.06,1.0,-3.0,-0.5,-0.1,0,0,,,,,,,,,,,,,,,,,,,
213120,1506818655061,,,,,0,,,0.02,0.06,1.0,-3.0,-0.5,-0.1,0,0,1,1,0.0,0,35.489754,-119.546188,0.0,0.0,325.9,10,3,1.7,0,0.0,-1,0.0,0.0,0.0,0
213140,1506818655081,,,,,,,,0.02,0.06,1.0,-3.0,-0.5,-0.1,0,0,,,,,,,,,,,,,,,,,,,
213160,1506818655100,,,,,,,,0.02,0.06,1.0,-3.0,-0.5,-0.1,0,0,,,,,,,,,,,,,,,,,,,
213180,1506818655120,,,,,,,,0.02,0.06,1.0,-3.0,-0.5,-0.1,0,0,,,,,,,,,,,,,,,,,,,
213200,1506818655140,,,,,,,,0.03,0.06,1.0,-3.0,-0.5,-0.1,0,0,,,,,,,,,,,,,,,,,,,
213220,1506818655160,0,146.4,,159.4,0,156.0,,0.03,0.05,1.0,-3.0,-0.5,-0.1,0,0,1,1,0.0,0,35.489754,-119.546188,0.0,0.0,325.9,10,3,1.7,0,0.0,-1,0.0,0.0,0.0,0
213240,1506818655180,,,,,,,,0.03,0.05,1.0,-3.0,-0.5,-0.1,0,0,,,,,,,,,,,,,,,,,,,
213260,1506818655207,,,,,,,,0.03,0.05,1.0,-3.0,-0.5,-0.1,0,0,,,,,,,,,,,,,,,,,,,
213280,1506818655227,,,,,,,,0.03,0.05,1.0,-3.0,-0.5,-0.1,0,0,,,,,,,,,,,,,,,,,,,
213300,1506818655247,,,,,,,,0.03,0.05,1.0,-3.0,-0.5,-0.1,0,0,,,,,,,,,,,,,,,,,,,
213320,1506818655267,,,,,0,,,0.03,0.05,1.0,-3.0,-0.5,-0.1,0,0,1,1,0.0,0,35.489754,-119.546188,0.0,0.0,325.9,10,3,1.7,0,0.0,-1,0.0,0.0,0.0,0
213340,1506818655287,,,,,,,,0.03,0.06,1.0,-3.0,-0.5,-0.1,0,0,,,,,,,,,,,,,,,,,,,
213360,1506818655307,,,,,,,,0.03,0.06,1.0,-3.0,-0.6,-0.1,0,0,,,,,,,,,,,,,,,,,,,
213380,1506818655327,,,,,,,,0.03,0.06,1.0,-3.0,-0.5,-0.1,0,0,,,,,,,,,,,,,,,,,,,
213400,1506818655347,,,,,,,,0.03,0.06,1.0,-3.0,-0.5,-0.1,0,0,,,,,,,,,,,,,,,,,,,
213420,1506818655367,0,146.4,-0.5,159.5,0,156.1,12.92,0.03,0.06,1.0,-3.1,-0.5,-0.1,0,0,1,1,0.0,0,35.489754,-119.546188,0.0,0.0,325.9,10,3,1.7,0,0.0,-1,0.0,0.0,0.0,0
213440,1506818655387,,,,,,,,0.03,0.06,1.0,-3.1,-0.5,-0.1,0,0,,,,,,,,,,,,,,,,,,,
213460,1506818655407,,,,,,,,0.03,0.06,1.0,-3.0,-0.5,-0.1,0,0,,,,,,,,,,,,,,,,,,,
213480,1506818655427,,,,,,,,0.03,0.06,1.0,-3.0,-0.5,-0.1,0,0,,,,,,,,,,,,,,,,,,,
213500,1506818655447,,,,,,,,0.03,0.06,1.0,-3.0,-0.5,-0.1,0,0,,,,,,,,,,,,,,,,,,,
213520,1506818655467,,,,,0,,,0.03,0.06,1.0,-3.0,-0.6,-0.1,0,0,1,1,0.0,0,35.489754,-119.546188,0.0,0.0,325.9,10,3,1.7,0,0.0,-1,0.0,0.0,0.0,0
213540,1506818655487,,,,,,,,0.03,0.06,1.0,-3.1,-0.5,-0.1,0,0,,,,,,,,,,,,,,,,,,,
213560,1506818655509,,,,,,,,0.03,0.06,1.0,-3.1,-0.5,-0.1,0,0,,,,,,,,,,,,,,,,,,,
213580,1506818655529,,,,,,,,0.03,0.06,1.0,-3.1,-0.5,-0.1,0,0,,,,,,,,,,,,,,,,,,,
213600,1506818655549,,,,,,,,0.03,0.06,1.0,-3.0,-0.5,-0.1,0,0,,,,,,,,,,,,,,,,,,,
213620,1506818655569,0,145.5,,158.7,0,155.6,,0.03,0.06,1.0,-3.0,-0.6,-0.1,0,0,1,1,0.0,0,35.489754,-119.546188,0.0,0.0,325.9,10,3,1.7,0,0.0,-1,0.0,0.0,0.0,0
213640,1506818655589,,,,,,,,0.03,0.05,0.99,-3.0,-0.5,-0.1,0,0,,,,,,,,,,,,,,,,,,,
213660,1506818655607,,,,,,,,0.03,0.06,1.0,-3.0,-0.5,-0.1,0,0,,,,,,,,,,,,,,,,,,,
213680,1506818655627,,,,,,,,0.03,0.06,1.0,-3.0,-0.5,-0.1,0,0,,,,,,,,,,,,,,,,,,,
213700,1506818655647,,,,,,,,0.03,0.06,1.0,-3.0,-0.5,-0.1,0,0,,,,,,,,,,,,,,,,,,,
213720,1506818655667,,,,,0,,,0.03,0.06,1.0,-3.0,-0.5,-0.1,0,0,1,1,0.0,0,35.489754,-119.546188,0.0,0.0,325.9,10,3,1.7,0,0.0,-1,0.0,0.0,0.0,0
213740,1506818655687,,,,,,,,0.03,0.06,1.0,-3.0,-0.5,-0.1,0,0,,,,,,,,,,,,,,,,,,,
213760,1506818655708,,,,,,,,0.03,0.06,1.0,-3.0,-0.5,-0.1,0,0,,,,,,,,,,,,,,,,,,,
213780,1506818655728,,,,,,,,0.03,0.06,1.0,-3.0,-0.6,-0.1,0,0,,,,,,,,,,,,,,,,,,,
213800,1506818655748,,,,,,,,0.03,0.06,1.0,-3.0,-0.6,-0.1,0,0,,,,,,,,,,,,,,,,,,,
213820,1506818655768,0,145.5,,158.6,0,155.3,,0.03,0.06,1.0,-3.0,-0.5,-0.1,0,0,1,1,0.0,0,35.489754,-119.546188,0.0,0.0,325.9,10,3,1.7,0,0.0,-1,0.0,0.0,0.0,0
213840,1506818655788,,,,,,,,0.03,0.06,1.0,-3.0,-0.6,-0.1,0,0,,,,,,,,,,,,,,,,,,,
213860,1506818655808,,,,,,,,0.03,0.06,1.0,-3.0,-0.5,-0.1,0,0,,,,,,,,,,,,,,,,,,,
213880,1506818655828,,,,,,,,0.03,0.06,1.0,-3.0,-0.5,-0.1,0,0,,,,,,,,,,,,,,,,,,,
213900,1506818655848,,,,,,,,0.03,0.06,1.0,-3.0,-0.5,-0.1,0,0,,,,,,,,,,,,,,,,,,,
213920,1506818655868,,,,,0,,,0.03,0.06,1.0,-3.0,-0.5,-0.1,0,0,1,1,0.0,0,35.489754,-119.546188,0.0,0.0,325.9,10,3,1.7,0,0.0,-1,0.0,0.0,0.0,0
213940,1506818655888,,,,,,,,0.03,0.05,1.0,-3.0,-0.5,-0.1,0,0,,,,,,,,,,,,,,,,,,,
213960,1506818655909,,,,,,,,0.03,0.05,1.0,-3.0,-0.5,-0.1,0,0,,,,,,,,,,,,,,,,,,,
213980,1506818655929,,,,,,,,0.03,0.05,1.0,-3.0,-0.5,-0.1,0,0,,,,,,,,,,,,,,,,,,,
214000,1506818655949,,,,,,,,0.03,0.05,1.0,-3.0,-0.5,-0.1,0,0,,,,,,,,,,,,,,,,,,,
214020,1506818655969,0,145.8,,159.3,0,156.0,,0.03,0.05,1.0,-3.0,-0.5,-0.1,0,0,1,1,0.0,0,35.489754,-119.546188,0.0,0.0,325.9,10,3,1.7,0,0.0,-1,0.0,0.0,0.0,0
214040,1506818655989,,,,,,,,0.03,0.06,1.0,-3.0,-0.5,-0.1,0,0,,,,,,,,,,,,,,,,,,,
214060,1506818656002,,,,,,,,0.03,0.05,1.0,-3.0,-0.5,-0.1,0,0,,,,,,,,,,,,,,,,,,,
214080,1506818656022,,,,,,,,0.03,0.05,1.0,-3.0,-0.5,-0.1,0,0,,,,,,,,,,,,,,,,,,,
214100,1506818656042,,,,,,,,0.03,0.05,1.0,-3.0,-0.5,-0.1,0,0,,,,,,,,,,,,,,,,,,,
214120,1506818656062,,,,,0,,,0.03,0.06,1.0,-3.0,-0.5,-0.1,0,0,1,1,0.0,0,35.489754,-119.546188,0.0,0.0,325.9,10,3,1.7,0,0.0,-1,0.0,0.0,0.0,0
214140,1506818656082,,,,,,,,0.03,0.06,1.0,-3.0,-0.5,-0.1,0,0,,,,,,,,,,,,,,,,,,,
214160,1506818656108,,,,,,,,0.03,0.06,1.0,-3.0,-0.5,-0.1,0,0,,,,,,,,,,,,,,,,,,,
214180,1506818656128,,,,,,,,0.03,0.06,1.0,-3.0,-0.5,-0.1,0,0,,,,,,,,,,,,,,,,,,,
214200,1506818656148,,,,,,,,0.03,0.06,1.0,-3.0,-0.5,-0.1,0,0,,,,,,,,,,,,,,,,,,,
214220,1506818656168,0,145.6,,158.7,0,155.6,,0.03,0.06,1.0,-3.0,-0.5,-0.1,0,0,1,1,0.0,0,35.489754,-119.546188,0.0,0.0,325.9,10,3,1.7,0,0.0,-1,0.0,0.0,0.0,0
214240,1506818656188,,,,,,,,0.03,0.05,1.0,-3.0,-0.6,-0.1,0,0,,,,,,,,,,,,,,,,,,,
214260,1506818656208,,,,,,,,0.03,0.06,1.0,-3.0,-0.6,-0.1,0,0,,,,,,,,,,,,,,,,,,,
214280,1506818656228,,,,,,,,0.03,0.05,1.0,-3.0,-0.6,-0.1,0,0,,,,,,,,,,,,,,,,,,,
214300,1506818656248,,,,,,,,0.03,0.06,1.0,-3.0,-0.6,-0.1,0,0,,,,,,,,,,,,,,,,,,,
214320,1506818656268,,,,,0,,,0.03,0.06,1.0,-3.0,-0.6,-0.1,0,0,1,1,0.0,0,35.489754,-119.546188,0.0,0.0,325.9,10,3,1.7,0,0.0,-1,0.0,0.0,0.0,0
214340,1506818656288,,,,,,,,0.03,0.06,1.0,-3.0,-0.6,-0.1,0,0,,,,,,,,,,,,,,,,,,,
214360,1506818656308,,,,,,,,0.03,0.06,1.0,-3.0,-0.6,-0.1,0,0,,,,,,,,,,,,,,,,,,,
214380,1506818656328,,,,,,,,0.03,0.06,1.0,-3.0,-0.6,-0.1,0,0,,,,,,,,,,,,,,,,,,,
214400,1506818656348,,,,,,,,0.03,0.06,1.0,-3.0,-0.6,-0.1,0,0,,,,,,,,,,,,,,,,,,,
214420,1506818656368,0,146.4,-0.6,159.5,0,156.1,12.93,0.03,0.06,1.0,-3.0,-0.6,-0.1,0,0,1,1,0.0,0,35.489754,-119.546188,0.0,0.0,325.9,10,3,1.7,0,0.0,-1,0.0,0.0,0.0,0
214440,1506818656388,,,,,,,,0.03,0.06,1.0,-3.0,-0.6,-0.1,0,0,,,,,,,,,,,,,,,,,,,
214460,1506818656408,,,,,,,,0.03,0.06,1.0,-3.0,-0.6,-0.1,0,0,,,,,,,,,,,,,,,,,,,
214480,1506818656428,,,,,,,,0.03,0.06,1.0,-3.0,-0.6,-0.1,0,0,,,,,,,,,,,,,,,,,,,
214500,1506818656448,,,,,,,,0.03,0.06,1.0,-3.0,-0.6,-0.1,0,0,,,,,,,,,,,,,,,,,,,
214520,1506818656468,,,,,0,,,0.03,0.06,1.0,-3.0,-0.6,-0.1,0,0,1,1,0.0,0,35.489754,-119.546188,0.0,0.0,325.9,10,3,1.7,0,0.0,-1,0.0,0.0,0.0,0
214540,1506818656488,,,,,,,,0.03,0.06,1.0,-3.0,-0.6,-0.1,0,0,,,,,,,,,,,,,,,,,,,
214560,1506818656508,,,,,,,,0.03,0.06,1.0,-3.0,-0.6,-0.1,0,0,,,,,,,,,,,,,,,,,,,
214580,1506818656528,,,,,,,,0.03,0.06,1.0,-3.0,-0.6,-0.1,0,0,,,,,,,,,,,,,,,,,,,
214600,1506818656548,,,,,,,,0.03,0.06,1.0,-3.0,-0.6,-0.1,0,0,,,,,,,,,,,,,,,,,,,
214620,1506818656568,0,145.5,,158.5,0,155.3,,0.03,0.06,1.0,-3.0,-0.6,-0.1,0,0,1,1,0.0,0,35.489754,-119.546188,0.0,0.0,325.9,10,3,1.7,0,0.0,-1,0.0,0.0,0.0,0
214640,1506818656588,,,,,,,,0.02,0.06,1.0,-3.0,-0.6,-0.1,0,0,,,,,,,,,,,,,,,,,,,
214660,1506818656608,,,,,,,,0.02,0.06,1.0,-3.0,-0.5,-0.1,0,0,,,,,,,,,,,,,,,,,,,
214680,1506818656628,,,,,,,,0.02,0.06,1.0,-3.0,-0.6,-0.1,0,0,,,,,,,,,,,,,,,,,,,
214700,1506818656648,,,,,,,,0.02,0.06,1.0,-3.0,-0.5,-0.1,0,0,,,,,,,,,,,,,,,,,,,
214720,1506818656668,,,,,0,,,0.02,0.06,1.0,-3.0,-0.5,-0.1,0,0,1,1,0.0,0,35.489754,-119.546188,0.0,0.0,325.9,10,3,1.7,0,0.0,-1,0.0,0.0,0.0,0
214740,1506818656688,,,,,,,,0.02,0.06,1.0,-3.0,-0.6,-0.1,0,0,,,,,,,,,,,,,,,,,,,
214760,1506818656708,,,,,,,,0.02,0.06,1.0,-3.0,-0.5,-0.1,0,0,,,,,,,,,,,,,,,,,,,
214780,1506818656728,,,,,,,,0.02,0.06,1.0,-3.0,-0.5,-0.1,0,0,,,,,,,,,,,,,,,,,,,
214800,1506818656748,,,,,,,,0.03,0.06,1.0,-3.0,-0.5,-0.1,0,0,,,,,,,,,,,,,,,,,,,
214820,1506818656768,0,145.6,,158.8,0,155.9,,0.02,0.06,1.0,-3.0,-0.5,-0.1,0,0,1,1,0.0,0,35.489754,-119.546188,0.0,0.0,325.9,10,3,1.7,0,0.0,-1,0.0,0.0,0.0,0
214840,1506818656788,,,,,,,,0.03,0.06,1.0,-3.0,-0.5,-0.1,0,0,,,,,,,,,,,,,,,,,,,
214860,1506818656807,,,,,,,,0.03,0.06,1.0,-3.0,-0.5,-0.1,0,0,,,,,,,,,,,,,,,,,,,
214880,1506818656827,,,,,,,,0.02,0.06,1.0,-3.0,-0.5,-0.1,0,0,,,,,,,,,,,,,,,,,,,
214900,1506818656847,,,,,,,,0.03,0.06,1.0,-3.0,-0.5,-0.1,0,0,,,,,,,,,,,,,,,,,,,
214920,1506818656867,,,,,0,,,0.03,0.06,1.0,-3.0,-0.5,-0.1,0,0,1,1,0.0,0,35.489754,-119.546188,0.0,0.0,325.9,10,3,1.7,0,0.0,-1,0.0,0.0,0.0,0
214940,1506818656887,,,,,,,,0.03,0.06,1.0,-3.0,-0.5,-0.1,0,0,,,,,,,,,,,,,,,,,,,
214960,1506818656907,,,,,,,,0.03,0.06,1.0,-3.0,-0.5,-0.1,0,0,,,,,,,,,,,,,,,,,,,
214980,1506818656927,,,,,,,,0.03,0.06,1.0,-3.0,-0.5,-0.1,0,0,,,,,,,,,,,,,,,,,,,
215000,1506818656947,,,,,,,,0.03,0.06,1.0,-3.0,-0.5,-0.1,0,0,,,,,,,,,,,,,,,,,,,
215020,1506818656967,0,146.2,,159.3,0,156.1,,0.03,0.06,1.0,-3.0,-0.5,-0.1,0,0,1,1,0.0,0,35.489754,-119.546188,0.0,0.0,325.9,10,3,1.7,0,0.0,-1,0.0,0.0,0.0,0
215040,1506818656987,,,,,,,,0.03,0.06,1.0,-3.0,-0.5,-0.1,0,0,,,,,,,,,,,,,,,,,,,
215060,1506818657001,,,,,,,,0.03,0.06,1.0,-3.0,-0.5,-0.1,0,0,,,,,,,,,,,,,,,,,,,
215080,1506818657021,,,,,,,,0.03,0.05,1.0,-3.0,-0.5,-0.1,0,0,,,,,,,,,,,,,,,,,,,
215100,1506818657041,,,,,,,,0.03,0.06,1.0,-3.0,-0.5,-0.1,0,0,,,,,,,,,,,,,,,,,,,
215120,1506818657061,,,,,0,,,0.03,0.06,1.0,-3.0,-0.5,-0.1,0,0,1,1,0.0,0,35.489754,-119.546188,0.0,0.0,325.9,10,3,1.7,0,0.0,-1,0.0,0.0,0.0,0
215140,1506818657081,,,,,,,,0.03,0.06,1.0,-3.0,-0.5,-0.1,0,0,,,,,,,,,,,,,,,,,,,
215160,1506818657107,,,,,,,,0.03,0.06,1.0,-3.0,-0.5,-0.1,0,0,,,,,,,,,,,,,,,,,,,
215180,1506818657127,,,,,,,,0.03,0.06,1.0,-3.0,-0.5,-0.1,0,0,,,,,,,,,,,,,,,,,,,
215200,1506818657147,,,,,,,,0.03,0.05,1.0,-3.0,-0.6,-0.1,0,0,,,,,,,,,,,,,,,,,,,
215220,1506818657167,0,146.2,,159.4,0,156.1,,0.03,0.05,1.0,-3.0,-0.6,-0.1,0,0,1,1,0.0,0,35.489754,-119.546188,0.0,0.0,325.9,10,3,1.7,0,0.0,-1,0.0,0.0,0.0,0
215240,1506818657187,,,,,,,,0.03,0.05,1.0,-3.0,-0.5,-0.1,0,0,,,,,,,,,,,,,,,,,,,
215260,1506818657207,,,,,,,,0.03,0.05,1.0,-3.0,-0.5,-0.1,0,0,,,,,,,,,,,,,,,,,,,
215280,1506818657227,,,,,,,,0.03,0.05,1.0,-3.0,-0.5,-0.1,0,0,,,,,,,,,,,,,,,,,,,
215300,1506818657247,,,,,,,,0.03,0.06,1.0,-3.0,-0.5,-0.1,0,0,,,,,,,,,,,,,,,,,,,
215320,1506818657267,,,,,0,,,0.03,0.05,1.0,-3.0,-0.5,-0.1,0,0,1,1,0.0,0,35.489754,-119.546188,0.0,0.0,325.9,10,3,1.7,0,0.0,-1,0.0,0.0,0.0,0
215340,1506818657287,,,,,,,,0.03,0.05,1.0,-3.0,-0.5,-0.1,0,0,,,,,,,,,,,,,,,,,,,
215360,1506818657307,,,,,,,,0.02,0.06,1.0,-3.0,-0.5,-0.1,0,0,,,,,,,,,,,,,,,,,,,
215380,1506818657327,,,,,,,,0.03,0.05,1.0,-3.0,-0.5,-0.1,0,0,,,,,,,,,,,,,,,,,,,
215400,1506818657347,,,,,,,,0.03,0.05,1.0,-3.0,-0.5,-0.1,0,0,,,,,,,,,,,,,,,,,,,
215420,1506818657367,0,145.5,-0.7,158.5,0,155.3,12.92,0.02,0.05,1.0,-3.0,-0.5,-0.1,0,0,1,1,0.0,0,35.489754,-119.546188,0.0,0.0,325.9,10,3,1.7,0,0.0,-1,0.0,0.0,0.0,0
215440,1506818657387,,,,,,,,0.02,0.06,1.0,-3.0,-0.5,-0.1,0,0,,,,,,,,,,,,,,,,,,,
215460,1506818657407,,,,,,,,0.02,0.06,1.0,-3.0,-0.5,-0.1,0,0,,,,,,,,,,,,,,,,,,,
215480,1506818657427,,,,,,,,0.02,0.06,1.0,-3.0,-0.5,-0.1,0,0,,,,,,,,,,,,,,,,,,,
215500,1506818657447,,,,,,,,0.03,0.05,1.0,-3.0,-0.5,-0.1,0,0,,,,,,,,,,,,,,,,,,,
215520,1506818657467,,,,,0,,,0.03,0.06,1.0,-3.0,-0.5,-0.1,0,0,1,1,0.0,0,35.489754,-119.546188,0.0,0.0,325.9,10,3,1.7,0,0.0,-1,0.0,0.0,0.0,0
215540,1506818657487,,,,,,,,0.03,0.06,1.0,-3.0,-0.5,-0.1,0,0,,,,,,,,,,,,,,,,,,,
215560,1506818657508,,,,,,,,0.03,0.05,1.0,-3.0,-0.5,-0.1,0,0,,,,,,,,,,,,,,,,,,,
215580,1506818657528,,,,,,,,0.03,0.06,1.0,-3.0,-0.5,-0.1,0,0,,,,,,,,,,,,,,,,,,,
215600,1506818657548,,,,,,,,0.03,0.06,1.0,-3.0,-0.5,-0.1,0,0,,,,,,,,,,,,,,,,,,,
215620,1506818657568,0,146.0,,158.8,0,155.3,,0.03,0.06,1.0,-3.0,-0.5,-0.1,0,0,1,1,0.0,0,35.489754,-119.546188,0.0,0.0,325.9,10,3,1.7,0,0.0,-1,0.0,0.0,0.0,0
215640,1506818657588,,,,,,,,0.03,0.06,1.0,-3.0,-0.5,-0.1,0,0,,,,,,,,,,,,,,,,,,,
215660,1506818657603,,,,,,,,0.03,0.06,1.0,-3.0,-0.5,-0.1,0,0,,,,,,,,,,,,,,,,,,,
215680,1506818657623,,,,,,,,0.03,0.06,1.0,-3.0,-0.5,-0.1,0,0,,,,,,,,,,,,,,,,,,,
215700,1506818657643,,,,,,,,0.03,0.06,1.0,-3.0,-0.5,-0.1,0,0,,,,,,,,,,,,,,,,,,,
215720,1506818657663,,,,,0,,,0.03,0.06,1.0,-3.0,-0.5,-0.1,0,0,1,1,0.0,0,35.489754,-119.546188,0.0,0.0,325.9,10,3,1.7,0,0.0,-1,0.0,0.0,0.0,0
215740,1506818657683,,,,,,,,0.03,0.06,1.0,-3.0,-0.5,-0.1,0,0,,,,,,,,,,,,,,,,,,,
215760,1506818657707,,,,,,,,0.03,0.06,1.0,-3.0,-0.5,-0.1,0,0,,,,,,,,,,,,,,,,,,,
215780,1506818657727,,,,,,,,0.03,0.06,1.0,-3.0,-0.5,-0.1,0,0,,,,,,,,,,,,,,,,,,,
215800,1506818657747,,,,,,,,0.03,0.06,1.0,-3.0,-0.5,-0.1,0,0,,,,,,,,,,,,,,,,,,,
215820,1506818657767,0,145.5,,158.6,0,155.3,,0.03,0.06,1.0,-3.0,-0.5,-0.1,0,0,1,1,0.0,0,35.489754,-119.546188,0.0,0.0,325.9,10,3,1.7,0,0.0,-1,0.0,0.0,0.0,0
215840,1506818657787,,,,,,,,0.03,0.06,1.0,-3.0,-0.5,-0.1,0,0,,,,,,,,,,,,,,,,,,,
215860,1506818657808,,,,,,,,0.03,0.06,1.0,-3.0,-0.6,-0.1,0,0,,,,,,,,,,,,,,,,,,,
215880,1506818657828,,,,,,,,0.03,0.06,1.0,-3.0,-0.6,-0.1,0,0,,,,,,,,,,,,,,,,,,,
215900,1506818657848,,,,,,,,0.03,0.06,1.0,-3.0,-0.5,-0.1,0,0,,,,,,,,,,,,,,,,,,,
215920,1506818657868,,,,,0,,,0.03,0.06,1.0,-3.0,-0.5,-0.1,0,0,1,1,0.0,0,35.489754,-119.546188,0.0,0.0,325.9,10,3,1.7,0,0.0,-1,0.0,0.0,0.0,0
215940,1506818657888,,,,,,,,0.03,0.06,1.0,-3.1,-0.5,-0.1,0,0,,,,,,,,,,,,,,,,,,,
215960,1506818657908,,,,,,,,0.03,0.06,1.0,-3.0,-0.5,-0.1,0,0,,,,,,,,,,,,,,,,,,,
215980,1506818657928,,,,,,,,0.03,0.06,1.0,-3.0,-0.5,-0.1,0,0,,,,,,,,,,,,,,,,,,,
216000,1506818657948,,,,,,,,0.03,0.06,1.0,-3.0,-0.5,-0.1,0,0,,,,,,,,,,,,,,,,,,,
216020,1506818657968,0,146.1,,158.8,0,155.3,,0.03,0.06,1.0,-3.1,-0.5,-0.1,0,0,1,1,0.0,0,35.489754,-119.546188,0.0,0.0,325.9,10,3,1.7,0,0.0,-1,0.0,0.0,0.0,0
216040,1506818657988,,,,,,,,0.03,0.06,1.0,-3.1,-0.5,-0.1,0,0,,,,,,,,,,,,,,,,,,,
216060,1506818658002,,,,,,,,0.03,0.06,1.0,-3.1,-0.5,-0.1,0,0,,,,,,,,,,,,,,,,,,,
216080,1506818658022,,,,,,,,0.03,0.06,1.0,-3.1,-0.5,-0.1,0,0,,,,,,,,,,,,,,,,,,,
216100,1506818658042,,,,,,,,0.03,0.06,1.0,-3.1,-0.5,-0.1,0,0,,,,,,,,,,,,,,,,,,,
216120,1506818658062,,,,,0,,,0.03,0.05,1.0,-3.1,-0.5,-0.1,0,0,1,1,0.0,0,35.489754,-119.546188,0.0,0.0,325.9,10,3,1.7,0,0.0,-1,0.0,0.0,0.0,0
216140,1506818658082,,,,,,,,0.03,0.05,1.0,-3.0,-0.5,-0.1,0,0,,,,,,,,,,,,,,,,,,,
216160,1506818658108,,,,,,,,0.03,0.05,1.0,-3.0,-0.5,-0.1,0,0,,,,,,,,,,,,,,,,,,,
216180,1506818658128,,,,,,,,0.03,0.05,1.0,-3.0,-0.5,-0.1,0,0,,,,,,,,,,,,,,,,,,,
216200,1506818658148,,,,,,,,0.03,0.05,1.0,-3.0,-0.5,-0.1,0,0,,,,,,,,,,,,,,,,,,,
216220,1506818658168,0,146.3,,159.3,0,155.9,,0.03,0.05,1.0,-3.0,-0.5,-0.1,0,0,1,1,0.0,0,35.489754,-119.546188,0.0,0.0,325.9,10,3,1.7,0,0.0,-1,0.0,0.0,0.0,0
216240,1506818658188,,,,,,,,0.02,0.05,1.0,-3.0,-0.5,-0.1,0,0,,,,,,,,,,,,,,,,,,,
216260,1506818658208,,,,,,,,0.03,0.05,1.0,-3.0,-0.5,-0.1,0,0,,,,,,,,,,,,,,,,,,,
216280,1506818658228,,,,,,,,0.03,0.06,0.99,-3.0,-0.5,-0.1,0,0,,,,,,,,,,,,,,,,,,,
216300,1506818658248,,,,,,,,0.02,0.06,0.99,-3.0,-0.5,-0.1,0,0,,,,,,,,,,,,,,,,,,,
216320,1506818658268,,,,,0,,,0.02,0.06,0.99,-3.0,-0.5,-0.1,0,0,1,1,0.0,0,35.489754,-119.546188,0.0,0.0,325.9,10,3,1.7,0,0.0,-1,0.0,0.0,0.0,0
216340,1506818658288,,,,,,,,0.02,0.06,0.99,-3.0,-0.5,-0.1,0,0,,,,,,,,,,,,,,,,,,,
216360,1506818658308,,,,,,,,0.02,0.05,0.99,-3.0,-0.5,-0.1,0,0,,,,,,,,,,,,,,,,,,,
216380,1506818658328,,,,,,,,0.02,0.05,1.0,-3.0,-0.5,-0.1,0,0,,,,,,,,,,,,,,,,,,,
216400,1506818658348,,,,,,,,0.02,0.05,1.0,-3.0,-0.5,-0.1,0,0,,,,,,,,,,,,,,,,,,,
216420,1506818658368,0,146.1,-0.5,159.3,0,156.0,12.92,0.03,0.05,0.99,-3.0,-0.5,-0.1,0,0,1,1,0.0,0,35.489754,-119.546188,0.0,0.0,325.9,10,3,1.7,0,0.0,-1,0.0,0.0,0.0,0
216440,1506818658388,,,,,,,,0.03,0.05,1.0,-3.0,-0.5,-0.1,0,0,,,,,,,,,,,,,,,,,,,
216460,1506818658408,,,,,,,,0.03,0.05,1.0,-3.0,-0.5,-0.1,0,0,,,,,,,,,,,,,,,,,,,
216480,1506818658428,,,,,,,,0.03,0.05,1.0,-3.0,-0.5,-0.1,0,0,,,,,,,,,,,,,,,,,,,
216500,1506818658448,,,,,,,,0.03,0.06,1.0,-3.0,-0.5,-0.1,0,0,,,,,,,,,,,,,,,,,,,
216520,1506818658468,,,,,0,,,0.03,0.06,1.0,-3.0,-0.5,-0.1,0,0,1,1,0.0,0,35.489754,-119.546188,0.0,0.0,325.9,10,3,1.7,0,0.0,-1,0.0,0.0,0.0,0
216540,1506818658488,,,,,,,,0.03,0.06,1.0,-3.0,-0.5,-0.1,0,0,,,,,,,,,,,,,,,,,,,
216560,1506818658508,,,,,,,,0.03,0.06,1.0,-3.0,-0.5,-0.1,0,0,,,,,,,,,,,,,,,,,,,
216580,1506818658528,,,,,,,,0.03,0.06,1.0,-3.0,-0.5,-0.1,0,0,,,,,,,,,,,,,,,,,,,
216600,1506818658548,,,,,,,,0.03,0.06,1.0,-3.0,-0.5,-0.1,0,0,,,,,,,,,,,,,,,,,,,
216620,1506818658568,0,146.1,,159.2,0,156.0,,0.03,0.06,1.0,-3.0,-0.5,-0.1,0,0,1,1,0.0,0,35.489754,-119.546188,0.0,0.0,325.9,10,3,1.7,0,0.0,-1,0.0,0.0,0.0,0
216640,1506818658588,,,,,,,,0.03,0.06,1.0,-3.0,-0.5,-0.1,0,0,,,,,,,,,,,,,,,,,,,
216660,1506818658608,,,,,,,,0.03,0.06,1.0,-3.0,-0.5,-0.1,0,0,,,,,,,,,,,,,,,,,,,
216680,1506818658628,,,,,,,,0.03,0.06,1.0,-3.0,-0.5,-0.1,0,0,,,,,,,,,,,,,,,,,,,
216700,1506818658648,,,,,,,,0.03,0.06,1.0,-3.0,-0.5,-0.1,0,0,,,,,,,,,,,,,,,,,,,
216720,1506818658668,,,,,0,,,0.03,0.06,1.0,-3.0,-0.6,-0.1,0,0,1,1,0.0,0,35.489754,-119.546188,0.0,0.0,325.9,10,3,1.7,0,0.0,-1,0.0,0.0,0.0,0
216740,1506818658688,,,,,,,,0.03,0.06,1.0,-3.0,-0.6,-0.1,0,0,,,,,,,,,,,,,,,,,,,
216760,1506818658708,,,,,,,,0.03,0.06,1.0,-3.0,-0.6,-0.1,0,0,,,,,,,,,,,,,,,,,,,
216780,1506818658728,,,,,,,,0.03,0.06,1.0,-3.0,-0.6,-0.1,0,0,,,,,,,,,,,,,,,,,,,
216800,1506818658748,,,,,,,,0.03,0.06,1.0,-3.0,-0.6,-0.1,0,0,,,,,,,,,,,,,,,,,,,
216820,1506818658768,0,146.1,,159.2,0,156.1,,0.03,0.06,1.0,-3.0,-0.6,-0.1,0,0,1,1,0.0,0,35.489754,-119.546188,0.0,0.0,325.9,10,3,1.7,0,0.0,-1,0.0,0.0,0.0,0
216840,1506818658788,,,,,,,,0.03,0.06,1.0,-3.0,-0.6,-0.1,0,0,,,,,,,,,,,,,,,,,,,
216860,1506818658807,,,,,,,,0.03,0.06,1.0,-3.0,-0.6,-0.1,0,0,,,,,,,,,,,,,,,,,,,
216880,1506818658827,,,,,,,,0.03,0.06,1.0,-3.0,-0.6,-0.1,0,0,,,,,,,,,,,,,,,,,,,
216900,1506818658847,,,,,,,,0.03,0.06,1.0,-3.0,-0.5,-0.1,0,0,,,,,,,,,,,,,,,,,,,
216920,1506818658867,,,,,0,,,0.03,0.06,1.0,-3.0,-0.5,-0.1,0,0,1,1,0.0,0,35.489754,-119.546188,0.0,0.0,325.9,10,3,1.7,0,0.0,-1,0.0,0.0,0.0,0
216940,1506818658887,,,,,,,,0.03,0.06,1.0,-3.0,-0.5,-0.1,0,0,,,,,,,,,,,,,,,,,,,
216960,1506818658907,,,,,,,,0.03,0.06,1.0,-3.0,-0.5,-0.1,0,0,,,,,,,,,,,,,,,,,,,
216980,1506818658927,,,,,,,,0.02,0.06,1.0,-3.0,-0.5,-0.1,0,0,,,,,,,,,,,,,,,,,,,
217000,1506818658947,,,,,,,,0.03,0.06,1.0,-3.0,-0.6,-0.1,0,0,,,,,,,,,,,,,,,,,,,
217020,1506818658967,0,146.2,,159.3,0,155.5,,0.03,0.06,1.0,-3.0,-0.5,-0.1,0,0,1,1,0.0,0,35.489754,-119.546188,0.0,0.0,325.9,10,3,1.7,0,0.0,-1,0.0,0.0,0.0,0
217040,1506818658987,,,,,,,,0.03,0.06,1.0,-3.0,-0.5,-0.1,0,0,,,,,,,,,,,,,,,,,,,
217060,1506818659001,,,,,,,,0.02,0.06,1.0,-3.0,-0.5,-0.1,0,0,,,,,,,,,,,,,,,,,,,
217080,1506818659021,,,,,,,,0.03,0.06,1.0,-3.0,-0.5,-0.1,0,0,,,,,,,,,,,,,,,,,,,
217100,1506818659041,,,,,,,,0.03,0.06,1.0,-3.0,-0.5,-0.1,0,0,,,,,,,,,,,,,,,,,,,
217120,1506818659061,,,,,0,,,0.03,0.06,1.0,-3.0,-0.6,-0.1,0,0,1,1,0.0,0,35.489754,-119.546188,0.0,0.0,325.9,10,3,1.7,0,0.0,-1,0.0,0.0,0.0,0
217140,1506818659081,,,,,,,,0.02,0.05,1.0,-3.0,-0.5,-0.1,0,0,,,,,,,,,,,,,,,,,,,
217160,1506818659108,,,,,,,,0.03,0.05,1.0,-3.0,-0.6,-0.1,0,0,,,,,,,,,,,,,,,,,,,
217180,1506818659128,,,,,,,,0.03,0.05,1.0,-3.0,-0.6,-0.1,0,0,,,,,,,,,,,,,,,,,,,
217200,1506818659148,,,,,,,,0.03,0.05,1.0,-3.0,-0.6,-0.1,0,0,,,,,,,,,,,,,,,,,,,
217220,1506818659168,0,146.2,,159.2,0,156.0,,0.03,0.05,1.0,-3.0,-0.5,-0.1,0,0,1,1,0.0,0,35.489754,-119.546188,0.0,0.0,325.9,10,3,1.7,0,0.0,-1,0.0,0.0,0.0,0
217240,1506818659188,,,,,,,,0.03,0.05,1.0,-3.0,-0.5,-0.1,0,0,,,,,,,,,,,,,,,,,,,
217260,1506818659207,,,,,,,,0.03,0.05,1.0,-3.0,-0.5,-0.1,0,0,,,,,,,,,,,,,,,,,,,
217280,1506818659227,,,,,,,,0.03,0.05,1.0,-3.0,-0.5,-0.1,0,0,,,,,,,,,,,,,,,,,,,
217300,1506818659247,,,,,,,,0.03,0.05,1.0,-3.0,-0.5,-0.1,0,0,,,,,,,,,,,,,,,,,,,
217320,1506818659267,,,,,0,,,0.03,0.05,1.0,-3.0,-0.5,-0.1,0,0,1,1,0.0,0,35.489754,-119.546188,0.0,0.0,325.9,10,3,1.7,0,0.0,-1,0.0,0.0,0.0,0
217340,1506818659287,,,,,,,,0.02,0.05,1.0,-3.0,-0.5,-0.1,0,0,,,,,,,,,,,,,,,,,,,
217360,1506818659307,,,,,,,,0.03,0.05,1.0,-3.0,-0.5,-0.1,0,0,,,,,,,,,,,,,,,,,,,
217380,1506818659327,,,,,,,,0.03,0.05,1.0,-3.0,-0.5,-0.1,0,0,,,,,,,,,,,,,,,,,,,
217400,1506818659347,,,,,,,,0.03,0.05,1.0,-3.0,-0.5,-0.1,0,0,,,,,,,,,,,,,,,,,,,
217420,1506818659367,0,146.1,-0.8,159.2,0,155.5,12.9,0.03,0.05,1.0,-3.0,-0.5,-0.1,0,0,1,1,0.0,0,35.489754,-119.546188,0.0,0.0,325.9,10,3,1.7,0,0.0,-1,0.0,0.0,0.0,0
217440,1506818659387,,,,,,,,0.03,0.05,1.0,-3.0,-0.5,-0.1,0,0,,,,,,,,,,,,,,,,,,,
217460,1506818659407,,,,,,,,0.03,0.05,1.0,-3.0,-0.5,-0.1,0,0,,,,,,,,,,,,,,,,,,,
217480,1506818659427,,,,,,,,0.03,0.05,1.0,-3.0,-0.5,-0.1,0,0,,,,,,,,,,,,,,,,,,,
217500,1506818659447,,,,,,,,0.03,0.05,1.0,-3.0,-0.5,-0.1,0,0,,,,,,,,,,,,,,,,,,,
217520,1506818659467,,,,,0,,,0.03,0.05,1.0,-3.0,-0.5,-0.1,0,0,1,1,0.0,0,35.489754,-119.546188,0.0,0.0,325.9,10,3,1.7,0,0.0,-1,0.0,0.0,0.0,0
217540,1506818659487,,,,,,,,0.03,0.05,1.0,-3.0,-0.5,-0.1,0,0,,,,,,,,,,,,,,,,,,,
217560,1506818659507,,,,,,,,0.03,0.05,1.0,-3.0,-0.5,-0.1,0,0,,,,,,,,,,,,,,,,,,,
217580,1506818659527,,,,,,,,0.03,0.05,1.0,-3.0,-0.5,-0.1,0,0,,,,,,,,,,,,,,,,,,,
217600,1506818659547,,,,,,,,0.03,0.05,1.0,-3.0,-0.5,-0.1,0,0,,,,,,,,,,,,,,,,,,,
217620,1506818659567,0,146.1,,158.8,0,155.3,,0.03,0.05,1.0,-3.0,-0.5,-0.1,0,0,1,1,0.0,0,35.489754,-119.546188,0.0,0.0,325.9,10,3,1.7,0,0.0,-1,0.0,0.0,0.0,0
217640,1506818659587,,,,,,,,0.03,0.06,1.0,-3.0,-0.5,-0.1,0,0,,,,,,,,,,,,,,,,,,,
217660,1506818659607,,,,,,,,0.03,0.06,1.0,-3.0,-0.5,-0.1,0,0,,,,,,,,,,,,,,,,,,,
217680,1506818659627,,,,,,,,0.03,0.06,1.0,-3.0,-0.5,-0.1,0,0,,,,,,,,,,,,,,,,,,,
217700,1506818659647,,,,,,,,0.03,0.06,1.0,-3.0,-0.5,-0.1,0,0,,,,,,,,,,,,,,,,,,,
217720,1506818659667,,,,,0,,,0.03,0.06,1.0,-3.0,-0.5,-0.1,0,0,1,1,0.0,0,35.489754,-119.546188,0.0,0.0,325.9,10,3,1.7,0,0.0,-1,0.0,0.0,0.0,0
217740,1506818659687,,,,,,,,0.03,0.06,1.0,-3.0,-0.5,-0.1,0,0,,,,,,,,,,,,,,,,,,,
217760,1506818659707,,,,,,,,0.03,0.06,1.0,-3.0,-0.5,-0.1,0,0,,,,,,,,,,,,,,,,,,,
217780,1506818659727,,,,,,,,0.03,0.06,1.0,-3.0,-0.5,-0.1,0,0,,,,,,,,,,,,,,,,,,,
217800,1506818659747,,,,,,,,0.03,0.06,1.0,-3.0,-0.5,-0.1,0,0,,,,,,,,,,,,,,,,,,,
217820,1506818659767,0,146.1,,159.2,0,156.0,,0.03,0.06,1.0,-3.0,-0.5,-0.2,0,0,1,1,0.0,0,35.489754,-119.546188,0.0,0.0,325.9,10,3,1.7,0,0.0,-1,0.0,0.0,0.0,0
217840,1506818659787,,,,,,,,0.03,0.06,1.0,-3.0,-0.5,-0.1,0,0,,,,,,,,,,,,,,,,,,,
217860,1506818659806,,,,,,,,0.03,0.06,1.0,-3.0,-0.5,-0.1,0,0,,,,,,,,,,,,,,,,,,,
217880,1506818659826,,,,,,,,0.03,0.06,1.0,-3.0,-0.5,-0.1,0,0,,,,,,,,,,,,,,,,,,,
217900,1506818659846,,,,,,,,0.03,0.06,1.0,-3.0,-0.5,-0.1,0,0,,,,,,,,,,,,,,,,,,,
217920,1506818659866,,,,,0,,,0.03,0.06,1.0,-3.0,-0.5,-0.1,0,0,1,1,0.0,0,35.489754,-119.546188,0.0,0.0,325.9,10,3,1.7,0,0.0,-1,0.0,0.0,0.0,0
217940,1506818659886,,,,,,,,0.03,0.06,1.0,-3.0,-0.5,-0.1,0,0,,,,,,,,,,,,,,,,,,,
217960,1506818659899,,,,,,,,0.03,0.06,1.0,-3.0,-0.5,-0.1,0,0,,,,,,,,,,,,,,,,,,,
217980,1506818659919,,,,,,,,0.03,0.06,1.0,-3.0,-0.5,-0.1,0,0,,,,,,,,,,,,,,,,,,,
218000,1506818659939,,,,,,,,0.02,0.06,1.0,-3.0,-0.5,-0.1,0,0,,,,,,,,,,,,,,,,,,,
218020,1506818659959,0,146.4,,159.4,0,156.0,,0.03,0.06,1.0,-3.0,-0.5,-0.1,0,0,1,1,0.0,0,35.489754,-119.546188,0.0,0.0,325.9,10,3,1.7,0,0.0,-1,0.0,0.0,0.0,0
218040,1506818659979,,,,,,,,0.03,0.06,1.0,-3.0,-0.5,-0.1,0,0,,,,,,,,,,,,,,,,,,,
218060,1506818660002,,,,,,,,0.03,0.06,1.0,-3.0,-0.5,-0.1,0,0,,,,,,,,,,,,,,,,,,,
218080,1506818660022,,,,,,,,0.03,0.06,1.0,-3.0,-0.5,-0.1,0,0,,,,,,,,,,,,,,,,,,,
218100,1506818660042,,,,,,,,0.03,0.06,1.0,-3.0,-0.5,-0.1,0,0,,,,,,,,,,,,,,,,,,,
218120,1506818660062,,,,,0,,,0.03,0.06,1.0,-3.0,-0.5,-0.1,0,0,1,1,0.0,0,35.489754,-119.546188,0.0,0.0,325.9,10,3,1.7,0,0.0,-1,0.0,0.0,0.0,0
218140,1506818660082,,,,,,,,0.03,0.06,1.0,-3.0,-0.5,-0.1,0,0,,,,,,,,,,,,,,,,,,,
218160,1506818660106,,,,,,,,0.03,0.06,1.0,-3.0,-0.5,-0.1,0,0,,,,,,,,,,,,,,,,,,,
218180,1506818660126,,,,,,,,0.03,0.06,1.0,-3.0,-0.5,-0.1,0,0,,,,,,,,,,,,,,,,,,,
218200,1506818660146,,,,,,,,0.03,0.06,1.0,-3.0,-0.5,-0.1,0,0,,,,,,,,,,,,,,,,,,,
218220,1506818660166,0,146.2,,158.9,0,155.4,,0.03,0.06,1.0,-3.0,-0.5,-0.1,0,0,1,1,0.0,0,35.489754,-119.546188,0.0,0.0,325.9,10,3,1.7,0,0.0,-1,0.0,0.0,0.0,0
218240,1506818660186,,,,,,,,0.03,0.05,1.0,-3.0,-0.5,-0.1,0,0,,,,,,,,,,,,,,,,,,,
218260,1506818660208,,,,,,,,0.03,0.05,1.0,-3.0,-0.5,-0.1,0,0,,,,,,,,,,,,,,,,,,,
218280,1506818660228,,,,,,,,0.03,0.05,1.0,-3.0,-0.5,-0.1,0,0,,,,,,,,,,,,,,,,,,,
218300,1506818660248,,,,,,,,0.03,0.05,1.0,-3.0,-0.5,-0.1,0,0,,,,,,,,,,,,,,,,,,,
218320,1506818660268,,,,,0,,,0.03,0.05,1.0,-3.0,-0.5,-0.1,0,0,1,1,0.0,0,35.489754,-119.546188,0.0,0.0,325.9,10,3,1.7,0,0.0,-1,0.0,0.0,0.0,0
218340,1506818660288,,,,,,,,0.03,0.05,1.0,-3.0,-0.5,-0.1,0,0,,,,,,,,,,,,,,,,,,,
218360,1506818660308,,,,,,,,0.03,0.06,1.0,-3.0,-0.5,-0.1,0,0,,,,,,,,,,,,,,,,,,,
218380,1506818660328,,,,,,,,0.03,0.05,1.0,-3.0,-0.5,-0.1,0,0,,,,,,,,,,,,,,,,,,,
218400,1506818660348,,,,,,,,0.03,0.06,1.0,-3.0,-0.5,-0.1,0,0,,,,,,,,,,,,,,,,,,,
218420,1506818660368,0,146.0,-0.7,158.8,0,155.2,12.93,0.03,0.06,1.0,-3.0,-0.5,-0.1,0,0,1,1,0.0,0,35.489754,-119.546188,0.0,0.0,325.9,10,3,1.7,0,0.0,-1,0.0,0.0,0.0,0
218440,1506818660388,,,,,,,,0.03,0.06,1.0,-3.0,-0.6,-0.1,0,0,,,,,,,,,,,,,,,,,,,
218460,1506818660408,,,,,,,,0.03,0.06,1.0,-3.0,-0.5,-0.1,0,0,,,,,,,,,,,,,,,,,,,
218480,1506818660428,,,,,,,,0.03,0.06,1.0,-3.0,-0.5,-0.1,0,0,,,,,,,,,,,,,,,,,,,
218500,1506818660448,,,,,,,,0.03,0.06,1.0,-3.0,-0.6,-0.1,0,0,,,,,,,,,,,,,,,,,,,
218520,1506818660468,,,,,0,,,0.03,0.06,1.0,-3.0,-0.5,-0.1,0,0,1,1,0.0,0,35.489754,-119.546188,0.0,0.0,325.9,10,3,1.7,0,0.0,-1,0.0,0.0,0.0,0
218540,1506818660488,,,,,,,,0.03,0.06,1.0,-3.0,-0.6,-0.1,0,0,,,,,,,,,,,,,,,,,,,
218560,1506818660508,,,,,,,,0.03,0.06,1.0,-3.0,-0.5,-0.1,0,0,,,,,,,,,,,,,,,,,,,
218580,1506818660528,,,,,,,,0.03,0.06,1.0,-3.0,-0.5,-0.1,0,0,,,,,,,,,,,,,,,,,,,
218600,1506818660548,,,,,,,,0.03,0.06,1.0,-3.0,-0.5,-0.1,0,0,,,,,,,,,,,,,,,,,,,
218620,1506818660568,0,145.8,,159.3,0,156.1,,0.03,0.06,1.0,-3.0,-0.6,-0.1,0,0,1,1,0.0,0,35.489754,-119.546188,0.0,0.0,325.9,10,3,1.7,0,0.0,-1,0.0,0.0,0.0,0
218640,1506818660588,,,,,,,,0.03,0.06,1.0,-3.0,-0.5,-0.1,0,0,,,,,,,,,,,,,,,,,,,
218660,1506818660608,,,,,,,,0.03,0.06,1.0,-3.0,-0.5,-0.1,0,0,,,,,,,,,,,,,,,,,,,
218680,1506818660628,,,,,,,,0.03,0.06,1.0,-3.0,-0.5,-0.1,0,0,,,,,,,,,,,,,,,,,,,
218700,1506818660648,,,,,,,,0.03,0.06,0.99,-3.0,-0.5,-0.1,0,0,,,,,,,,,,,,,,,,,,,
218720,1506818660668,,,,,0,,,0.03,0.06,1.0,-3.0,-0.5,-0.1,0,0,1,1,0.0,0,35.489754,-119.546188,0.0,0.0,325.9,10,3,1.7,0,0.0,-1,0.0,0.0,0.0,0
218740,1506818660688,,,,,,,,0.03,0.06,1.0,-3.0,-0.6,-0.1,0,0,,,,,,,,,,,,,,,,,,,
218760,1506818660709,,,,,,,,0.03,0.06,1.0,-3.0,-0.6,-0.1,0,0,,,,,,,,,,,,,,,,,,,
218780,1506818660729,,,,,,,,0.03,0.06,1.0,-3.0,-0.6,-0.1,0,0,,,,,,,,,,,,,,,,,,,
218800,1506818660749,,,,,,,,0.03,0.06,1.0,-3.0,-0.5,-0.1,0,0,,,,,,,,,,,,,,,,,,,
218820,1506818660769,0,146.1,,159.3,0,156.0,,0.03,0.06,1.0,-3.0,-0.6,-0.1,0,0,1,1,0.0,0,35.489754,-119.546188,0.0,0.0,325.9,10,3,1.7,0,0.0,-1,0.0,0.0,0.0,0
218840,1506818660789,,,,,,,,0.03,0.06,0.99,-3.0,-0.5,-0.1,0,0,,,,,,,,,,,,,,,,,,,
218860,1506818660807,,,,,,,,0.03,0.06,0.99,-3.0,-0.5,-0.1,0,0,,,,,,,,,,,,,,,,,,,
218880,1506818660827,,,,,,,,0.03,0.06,0.99,-3.0,-0.5,-0.1,0,0,,,,,,,,,,,,,,,,,,,
218900,1506818660847,,,,,,,,0.03,0.06,0.99,-3.0,-0.5,-0.1,0,0,,,,,,,,,,,,,,,,,,,
218920,1506818660867,,,,,0,,,0.03,0.06,0.99,-3.0,-0.5,-0.1,0,0,1,1,0.0,0,35.489754,-119.546188,0.0,0.0,325.9,10,3,1.7,0,0.0,-1,0.0,0.0,0.0,0
218940,1506818660887,,,,,,,,0.03,0.06,1.0,-3.0,-0.5,-0.1,0,0,,,,,,,,,,,,,,,,,,,
218960,1506818660907,,,,,,,,0.03,0.06,1.0,-3.0,-0.5,-0.1,0,0,,,,,,,,,,,,,,,,,,,
218980,1506818660927,,,,,,,,0.03,0.06,0.99,-3.0,-0.5,-0.1,0,0,,,,,,,,,,,,,,,,,,,
219000,1506818660947,,,,,,,,0.03,0.06,1.0,-3.0,-0.5,-0.1,0,0,,,,,,,,,,,,,,,,,,,
219020,1506818660967,0,145.3,,158.7,0,155.9,,0.03,0.06,1.0,-3.0,-0.5,-0.1,0,0,1,1,0.0,0,35.489754,-119.546188,0.0,0.0,325.9,10,3,1.7,0,0.0,-1,0.0,0.0,0.0,0
219040,1506818660987,,,,,,,,0.03,0.06,1.0,-3.0,-0.5,-0.1,0,0,,,,,,,,,,,,,,,,,,,
219060,1506818661001,,,,,,,,0.03,0.06,1.0,-3.0,-0.5,-0.1,0,0,,,,,,,,,,,,,,,,,,,
219080,1506818661021,,,,,,,,0.03,0.06,1.0,-3.0,-0.5,-0.1,0,0,,,,,,,,,,,,,,,,,,,
219100,1506818661041,,,,,,,,0.03,0.06,1.0,-3.0,-0.5,-0.1,0,0,,,,,,,,,,,,,,,,,,,
