"Interval"|"ms"|0|0|1,"Utc"|"ms"|0|0|1,"FuelLevel"|"F"|0|100|5,"OilTemp"|"F"|0.0|300.0|5,"CoolantPressPSI"|"PSI"|0.0|20.0|1,"Coolant"|"F"|0.0|300.0|5,"OilPress"|"PSI"|0|150|10,"EngineTemp"|"F"|0.0|300.0|5,"Battery"|"Volts"|0.0|20.0|1,"AccelX"|"G"|-3.0|3.0|50,"AccelY"|"G"|-3.0|3.0|50,"AccelZ"|"G"|-3.0|3.0|50,"Yaw"|"Deg/Sec"|-300.0|300.0|50,"Pitch"|"Deg/Sec"|-300.0|300.0|50,"Roll"|"Deg/Sec"|-300.0|300.0|50,"RPM"|""|0|10000|50,"Driveshaft"|"RPM"|0|5000|50,"GPIO1"|""|0|1|10,"GPIO2"|""|0|1|10,"GearRatio"|""|-5.0|5.0|10,"Gear"|""|-1|5|10,"Latitude"|"Degrees"|-180.0|180.0|10,"Longitude"|"Degrees"|-180.0|180.0|10,"Speed"|"mph"|0.0|150.0|10,"Distance"|"mi"|0.0|0.0|10,"Altitude"|"ft"|0.0|4000.0|10,"GPSSats"|""|0|20|10,"GPSQual"|""|0|5|10,"GPSDOP"|""|0.0|20.0|10,"LapCount"|""|0|0|10,"LapTime"|"Min"|0.0|0.0|10,"Sector"|""|0|0|10,"SectorTime"|"Min"|0.0|0.0|10,"PredTime"|"Min"|0.0|0.0|10,"ElapsedTime"|"Min"|0.0|0.0|10,"CurrentLap"|""|0|0|10
44353,1506823623904,,,,,,,,0.03,0.05,1.03,-3.1,-0.9,-0.1,0,0,,,,,,,,,,,,,,,,,,,
44373,1506823623924,,,,,0,,,0.03,0.05,1.03,-3.1,-0.9,-0.1,0,0,1,1,0.0,0,35.489849,-119.546051,0.0,0.0,217.4,10,3,1.6,0,0.0,-1,0.0,0.0,0.0,0
44393,1506823623944,,,,,,,,0.03,0.05,1.03,-3.1,-0.9,-0.1,0,0,,,,,,,,,,,,,,,,,,,
44413,1506823623964,,,,,,,,0.03,0.05,1.03,-3.1,-0.9,-0.1,0,0,,,,,,,,,,,,,,,,,,,
44433,1506823623984,,,,,,,,0.03,0.05,1.03,-3.1,-0.9,-0.1,0,0,,,,,,,,,,,,,,,,,,,
44453,1506823624000,,,,,,,,0.03,0.05,1.03,-3.1,-0.9,-0.1,0,0,,,,,,,,,,,,,,,,,,,
44473,1506823624020,0,123.4,,129.5,0,131.3,,0.03,0.05,1.03,-3.1,-0.9,-0.1,0,0,1,1,0.0,0,35.489849,-119.546051,0.0,0.0,217.4,10,3,1.6,0,0.0,-1,0.0,0.0,0.0,0
44493,1506823624040,,,,,,,,0.03,0.05,1.03,-3.1,-0.9,-0.1,0,0,,,,,,,,,,,,,,,,,,,
44513,1506823624060,,,,,,,,0.03,0.05,1.03,-3.0,-0.9,-0.1,0,0,,,,,,,,,,,,,,,,,,,
44533,1506823624080,,,,,,,,0.03,0.05,1.03,-3.0,-0.9,-0.1,0,0,,,,,,,,,,,,,,,,,,,
44553,1506823624100,,,,,,,,0.03,0.05,1.03,-3.0,-0.8,-0.1,0,0,,,,,,,,,,,,,,,,,,,
44573,1506823624120,,,,,0,,,0.03,0.05,1.03,-3.0,-0.8,-0.1,0,0,1,1,0.0,0,35.489849,-119.546051,0.0,0.0,217.4,10,3,1.6,0,0.0,-1,0.0,0.0,0.0,0
44593,1506823624140,,,,,,,,0.03,0.05,1.03,-2.9,-0.7,-0.1,0,0,,,,,,,,,,,,,,,,,,,
44613,1506823624160,,,,,,,,0.04,0.05,1.03,-2.9,-0.6,-0.1,0,0,,,,,,,,,,,,,,,,,,,
44633,1506823624180,,,,,,,,0.04,0.05,1.03,-2.8,-0.6,-0.1,0,0,,,,,,,,,,,,,,,,,,,
44653,1506823624204,,,,,,,,0.04,0.05,1.03,-2.9,-0.6,-0.1,0,0,,,,,,,,,,,,,,,,,,,
44673,1506823624224,0,123.2,,129.2,0,130.6,,0.04,0.05,1.03,-2.9,-0.6,-0.1,0,0,1,1,0.0,0,35.489849,-119.546051,0.0,0.0,217.4,10,3,1.6,0,0.0,-1,0.0,0.0,0.0,0
44693,1506823624244,,,,,,,,0.04,0.05,1.03,-2.9,-0.6,-0.1,0,0,,,,,,,,,,,,,,,,,,,
44713,1506823624264,,,,,,,,0.04,0.05,1.03,-2.9,-0.6,-0.1,0,0,,,,,,,,,,,,,,,,,,,
44733,1506823624284,,,,,,,,0.03,0.05,1.03,-2.9,-0.6,-0.1,0,0,,,,,,,,,,,,,,,,,,,
44753,1506823624304,,,,,,,,0.03,0.05,1.03,-2.9,-0.6,-0.1,0,0,,,,,,,,,,,,,,,,,,,
44773,1506823624324,,,,,0,,,0.03,0.05,1.03,-2.9,-0.6,-0.1,0,0,1,1,0.0,0,35.489849,-119.546051,0.0,0.0,217.4,10,3,1.6,0,0.0,-1,0.0,0.0,0.0,0
44793,1506823624344,,,,,,,,0.03,0.05,1.03,-2.9,-0.6,-0.1,0,0,,,,,,,,,,,,,,,,,,,
44813,1506823624364,,,,,,,,0.03,0.05,1.03,-2.9,-0.6,-0.1,0,0,,,,,,,,,,,,,,,,,,,
44833,1506823624384,,,,,,,,0.03,0.05,1.03,-2.9,-0.7,-0.1,0,0,,,,,,,,,,,,,,,,,,,
44853,1506823624406,,,,,,,,0.03,0.05,1.03,-2.9,-0.7,-0.1,0,0,,,,,,,,,,,,,,,,,,,
44873,1506823624426,0,122.3,,128.0,0,130.0,,0.03,0.05,1.02,-2.9,-0.7,-0.1,0,0,1,1,0.0,0,35.489849,-119.546051,0.0,0.0,217.4,10,3,1.6,0,0.0,-1,0.0,0.0,0.0,0
44893,1506823624446,,,,,,,,0.03,0.05,1.02,-3.0,-0.7,-0.1,0,0,,,,,,,,,,,,,,,,,,,
44913,1506823624466,,,,,,,,0.03,0.05,1.03,-2.9,-0.7,-0.1,0,0,,,,,,,,,,,,,,,,,,,
44933,1506823624486,,,,,,,,0.03,0.05,1.03,-3.0,-0.7,-0.1,0,0,,,,,,,,,,,,,,,,,,,
44953,1506823624506,,,,,,,,0.03,0.05,1.03,-3.0,-0.7,-0.1,0,0,,,,,,,,,,,,,,,,,,,
44973,1506823624526,,,,,0,,,0.03,0.05,1.03,-3.0,-0.7,-0.1,0,0,1,1,0.0,0,35.489849,-119.546051,0.0,0.0,217.4,10,3,1.6,0,0.0,-1,0.0,0.0,0.0,0
44993,1506823624546,,,,,,,,0.03,0.05,1.03,-3.0,-0.7,-0.1,0,0,,,,,,,,,,,,,,,,,,,
45013,1506823624566,,,,,,,,0.03,0.05,1.03,-3.0,-0.7,-0.1,0,0,,,,,,,,,,,,,,,,,,,
45033,1506823624586,,,,,,,,0.03,0.05,1.02,-3.0,-0.7,-0.1,0,0,,,,,,,,,,,,,,,,,,,
45053,1506823624606,,,,,,,,0.03,0.05,1.02,-3.0,-0.7,-0.1,0,0,,,,,,,,,,,,,,,,,,,
45073,1506823624626,0,122.9,-0.7,128.5,0,129.8,13.01,0.03,0.05,1.02,-3.0,-0.7,-0.1,0,0,1,1,0.0,0,35.489849,-119.546051,0.0,0.0,217.4,10,3,1.6,0,0.0,-1,0.0,0.0,0.0,0
45093,1506823624646,,,,,,,,0.03,0.05,1.03,-3.0,-0.7,-0.1,0,0,,,,,,,,,,,,,,,,,,,
45113,1506823624666,,,,,,,,0.03,0.05,1.03,-3.0,-0.7,-0.1,0,0,,,,,,,,,,,,,,,,,,,
45133,1506823624686,,,,,,,,0.03,0.05,1.03,-3.0,-0.7,-0.1,0,0,,,,,,,,,,,,,,,,,,,
45153,1506823624706,,,,,,,,0.03,0.05,1.03,-3.0,-0.7,-0.1,0,0,,,,,,,,,,,,,,,,,,,
45173,1506823624726,,,,,0,,,0.03,0.05,1.03,-3.0,-0.7,-0.1,0,0,1,1,0.0,0,35.489849,-119.546051,0.0,0.0,217.4,10,3,1.6,0,0.0,-1,0.0,0.0,0.0,0
45193,1506823624746,,,,,,,,0.03,0.05,1.03,-3.0,-0.8,-0.1,0,0,,,,,,,,,,,,,,,,,,,
45213,1506823624766,,,,,,,,0.03,0.05,1.03,-3.0,-0.8,-0.1,0,0,,,,,,,,,,,,,,,,,,,
45233,1506823624786,,,,,,,,0.03,0.05,1.03,-3.0,-0.8,-0.1,0,0,,,,,,,,,,,,,,,,,,,
45253,1506823624806,,,,,,,,0.03,0.05,1.03,-3.0,-0.7,-0.1,0,0,,,,,,,,,,,,,,,,,,,
45273,1506823624826,0,122.7,,128.1,0,130.0,,0.03,0.05,1.03,-3.0,-0.8,-0.1,0,0,1,1,0.0,0,35.489849,-119.546051,0.0,0.0,217.4,10,3,1.6,0,0.0,-1,0.0,0.0,0.0,0
45293,1506823624846,,,,,,,,0.03,0.05,1.02,-3.0,-0.7,-0.1,0,0,,,,,,,,,,,,,,,,,,,
45313,1506823624866,,,,,,,,0.03,0.05,1.02,-3.0,-0.7,-0.1,0,0,,,,,,,,,,,,,,,,,,,
45333,1506823624886,,,,,,,,0.03,0.05,1.02,-3.0,-0.7,-0.1,0,0,,,,,,,,,,,,,,,,,,,
45353,1506823624905,,,,,,,,0.03,0.05,1.02,-3.0,-0.7,-0.1,0,0,,,,,,,,,,,,,,,,,,,
45373,1506823624925,,,,,0,,,0.03,0.05,1.02,-3.0,-0.7,-0.1,0,0,1,1,0.0,0,35.489849,-119.546051,0.0,0.0,217.4,10,3,1.6,0,0.0,-1,0.0,0.0,0.0,0
45393,1506823624945,,,,,,,,0.03,0.05,1.03,-2.9,-0.7,-0.1,0,0,,,,,,,,,,,,,,,,,,,
45413,1506823624965,,,,,,,,0.03,0.05,1.03,-2.9,-0.7,-0.1,0,0,,,,,,,,,,,,,,,,,,,
45433,1506823624985,,,,,,,,0.03,0.05,1.02,-2.9,-0.7,-0.1,0,0,,,,,,,,,,,,,,,,,,,
45453,1506823624999,,,,,,,,0.03,0.05,1.02,-2.9,-0.7,-0.1,0,0,,,,,,,,,,,,,,,,,,,
45473,1506823625019,0,122.4,,128.9,0,130.9,,0.03,0.05,1.02,-3.0,-0.7,-0.1,0,0,1,1,0.0,0,35.489849,-119.546051,0.0,0.0,217.4,10,3,1.6,0,0.0,-1,0.0,0.0,0.0,0
45493,1506823625039,,,,,,,,0.03,0.05,1.02,-3.0,-0.8,-0.1,0,0,,,,,,,,,,,,,,,,,,,
45513,1506823625059,,,,,,,,0.03,0.05,1.02,-3.0,-0.8,-0.1,0,0,,,,,,,,,,,,,,,,,,,
45533,1506823625079,,,,,,,,0.03,0.05,1.02,-3.0,-0.8,-0.1,0,0,,,,,,,,,,,,,,,,,,,
45553,1506823625105,,,,,,,,0.03,0.05,1.02,-3.0,-0.8,-0.1,0,0,,,,,,,,,,,,,,,,,,,
45573,1506823625125,,,,,0,,,0.03,0.05,1.02,-3.0,-0.8,-0.1,0,0,1,1,0.0,0,35.489849,-119.546051,0.0,0.0,217.4,10,3,1.6,0,0.0,-1,0.0,0.0,0.0,0
45593,1506823625145,,,,,,,,0.03,0.05,1.02,-3.0,-0.8,-0.1,0,0,,,,,,,,,,,,,,,,,,,
45613,1506823625165,,,,,,,,0.03,0.05,1.03,-3.0,-0.7,-0.1,0,0,,,,,,,,,,,,,,,,,,,
45633,1506823625185,,,,,,,,0.03,0.05,1.02,-3.0,-0.8,-0.1,0,0,,,,,,,,,,,,,,,,,,,
45653,1506823625205,,,,,,,,0.03,0.05,1.02,-3.0,-0.8,-0.1,0,0,,,,,,,,,,,,,,,,,,,
45673,1506823625225,0,122.8,,128.2,0,130.1,,0.03,0.05,1.02,-3.0,-0.8,-0.1,0,0,1,1,0.0,0,35.489849,-119.546051,0.0,0.0,217.4,10,3,1.6,0,0.0,-1,0.0,0.0,0.0,0
45693,1506823625245,,,,,,,,0.03,0.05,1.02,-3.0,-0.7,-0.1,0,0,,,,,,,,,,,,,,,,,,,
45713,1506823625265,,,,,,,,0.03,0.05,1.02,-3.0,-0.7,-0.1,0,0,,,,,,,,,,,,,,,,,,,
45733,1506823625285,,,,,,,,0.03,0.05,1.02,-3.0,-0.7,-0.1,0,0,,,,,,,,,,,,,,,,,,,
45753,1506823625305,,,,,,,,0.03,0.05,1.03,-3.0,-0.7,-0.1,0,0,,,,,,,,,,,,,,,,,,,
45773,1506823625325,,,,,0,,,0.03,0.05,1.03,-3.0,-0.7,-0.1,0,0,1,1,0.0,0,35.489849,-119.546051,0.0,0.0,217.4,10,3,1.6,0,0.0,-1,0.0,0.0,0.0,0
45793,1506823625345,,,,,,,,0.03,0.05,1.03,-3.0,-0.7,-0.1,0,0,,,,,,,,,,,,,,,,,,,
45813,1506823625365,,,,,,,,0.03,0.05,1.03,-3.0,-0.8,-0.1,0,0,,,,,,,,,,,,,,,,,,,
45833,1506823625385,,,,,,,,0.03,0.05,1.03,-3.0,-0.8,-0.1,0,0,,,,,,,,,,,,,,,,,,,
45853,1506823625405,,,,,,,,0.03,0.05,1.03,-3.0,-0.8,-0.1,0,0,,,,,,,,,,,,,,,,,,,
45873,1506823625425,0,123.2,,129.1,0,130.2,,0.03,0.05,1.03,-3.0,-0.8,-0.1,0,0,1,1,0.0,0,35.489849,-119.546051,0.0,0.0,217.4,10,3,1.6,0,0.0,-1,0.0,0.0,0.0,0
45893,1506823625445,,,,,,,,0.03,0.05,1.03,-3.0,-0.8,-0.1,0,0,,,,,,,,,,,,,,,,,,,
45913,1506823625465,,,,,,,,0.03,0.05,1.03,-3.0,-0.8,-0.1,0,0,,,,,,,,,,,,,,,,,,,
45933,1506823625485,,,,,,,,0.03,0.05,1.03,-3.0,-0.8,-0.0,0,0,,,,,,,,,,,,,,,,,,,
45953,1506823625505,,,,,,,,0.03,0.05,1.03,-3.0,-0.8,-0.0,0,0,,,,,,,,,,,,,,,,,,,
45973,1506823625525,,,,,0,,,0.03,0.05,1.03,-3.0,-0.8,-0.0,0,0,1,1,0.0,0,35.489849,-119.546051,0.0,0.0,217.4,10,3,1.6,0,0.0,-1,0.0,0.0,0.0,0
45993,1506823625545,,,,,,,,0.03,0.05,1.03,-3.0,-0.8,-0.0,0,0,,,,,,,,,,,,,,,,,,,
46013,1506823625565,,,,,,,,0.03,0.05,1.03,-3.0,-0.8,-0.0,0,0,,,,,,,,,,,,,,,,,,,
46033,1506823625585,,,,,,,,0.03,0.05,1.03,-3.0,-0.8,-0.1,0,0,,,,,,,,,,,,,,,,,,,
46053,1506823625605,,,,,,,,0.03,0.05,1.03,-3.0,-0.8,-0.0,0,0,,,,,,,,,,,,,,,,,,,
46073,1506823625625,0,122.0,-0.7,128.1,0,130.3,13.02,0.03,0.05,1.03,-3.0,-0.8,-0.0,0,0,1,1,0.0,0,35.489849,-119.546051,0.0,0.0,217.4,10,3,1.6,0,0.0,-1,0.0,0.0,0.0,0
46093,1506823625645,,,,,,,,0.03,0.05,1.03,-3.0,-0.8,-0.0,0,0,,,,,,,,,,,,,,,,,,,
46113,1506823625665,,,,,,,,0.03,0.05,1.03,-3.0,-0.7,-0.1,0,0,,,,,,,,,,,,,,,,,,,
46133,1506823625685,,,,,,,,0.03,0.05,1.03,-3.0,-0.7,-0.1,0,0,,,,,,,,,,,,,,,,,,,
46153,1506823625705,,,,,,,,0.03,0.05,1.03,-3.0,-0.7,-0.1,0,0,,,,,,,,,,,,,,,,,,,
46173,1506823625725,,,,,0,,,0.03,0.05,1.03,-3.0,-0.7,-0.0,0,0,1,1,0.0,0,35.489849,-119.546051,0.0,0.0,217.4,10,3,1.6,0,0.0,-1,0.0,0.0,0.0,0
46193,1506823625745,,,,,,,,0.03,0.05,1.03,-3.0,-0.7,-0.0,0,0,,,,,,,,,,,,,,,,,,,
46213,1506823625765,,,,,,,,0.03,0.05,1.03,-3.0,-0.7,-0.0,0,0,,,,,,,,,,,,,,,,,,,
46233,1506823625785,,,,,,,,0.03,0.05,1.03,-3.0,-0.7,-0.0,0,0,,,,,,,,,,,,,,,,,,,
46253,1506823625805,,,,,,,,0.03,0.05,1.03,-3.0,-0.7,-0.0,0,0,,,,,,,,,,,,,,,,,,,
46273,1506823625825,0,123.2,,129.3,0,130.9,,0.03,0.05,1.03,-3.0,-0.7,-0.1,0,0,1,1,0.0,0,35.489849,-119.546051,0.0,0.0,217.4,10,3,1.6,0,0.0,-1,0.0,0.0,0.0,0
46293,1506823625845,,,,,,,,0.03,0.05,1.03,-3.0,-0.8,-0.1,0,0,,,,,,,,,,,,,,,,,,,
46313,1506823625865,,,,,,,,0.03,0.05,1.03,-3.0,-0.7,-0.1,0,0,,,,,,,,,,,,,,,,,,,
46333,1506823625885,,,,,,,,0.03,0.05,1.03,-3.0,-0.7,-0.1,0,0,,,,,,,,,,,,,,,,,,,
46353,1506823625906,,,,,,,,0.03,0.05,1.03,-3.0,-0.7,-0.0,0,0,,,,,,,,,,,,,,,,,,,
46373,1506823625926,,,,,0,,,0.03,0.05,1.03,-3.0,-0.7,-0.1,0,0,1,1,0.0,0,35.489849,-119.546051,0.0,0.0,217.4,10,3,1.6,0,0.0,-1,0.0,0.0,0.0,0
46393,1506823625946,,,,,,,,0.03,0.05,1.03,-3.0,-0.7,-0.1,0,0,,,,,,,,,,,,,,,,,,,
46413,1506823625966,,,,,,,,0.03,0.05,1.03,-3.0,-0.7,-0.1,0,0,,,,,,,,,,,,,,,,,,,
46433,1506823625986,,,,,,,,0.03,0.05,1.03,-3.0,-0.7,-0.1,0,0,,,,,,,,,,,,,,,,,,,
46453,1506823626000,,,,,,,,0.03,0.05,1.03,-3.0,-0.7,-0.1,0,0,,,,,,,,,,,,,,,,,,,
46473,1506823626020,0,122.0,,128.4,0,130.9,,0.03,0.05,1.03,-3.0,-0.7,-0.1,0,0,1,1,0.0,0,35.489849,-119.546051,0.0,0.0,217.4,10,3,1.6,0,0.0,-1,0.0,0.0,0.0,0
46493,1506823626040,,,,,,,,0.03,0.05,1.03,-3.0,-0.7,-0.1,0,0,,,,,,,,,,,,,,,,,,,
46513,1506823626060,,,,,,,,0.03,0.05,1.03,-3.0,-0.7,-0.1,0,0,,,,,,,,,,,,,,,,,,,
46533,1506823626080,,,,,,,,0.03,0.05,1.03,-3.0,-0.7,-0.1,0,0,,,,,,,,,,,,,,,,,,,
46553,1506823626104,,,,,,,,0.03,0.05,1.03,-3.0,-0.7,-0.1,0,0,,,,,,,,,,,,,,,,,,,
46573,1506823626124,,,,,0,,,0.03,0.05,1.02,-3.0,-0.7,-0.0,0,0,1,1,0.0,0,35.489849,-119.546051,0.0,0.0,217.4,10,3,1.6,0,0.0,-1,0.0,0.0,0.0,0
46593,1506823626144,,,,,,,,0.03,0.05,1.03,-3.0,-0.7,-0.1,0,0,,,,,,,,,,,,,,,,,,,
46613,1506823626164,,,,,,,,0.03,0.05,1.03,-3.0,-0.7,-0.1,0,0,,,,,,,,,,,,,,,,,,,
46633,1506823626184,,,,,,,,0.03,0.05,1.03,-3.0,-0.7,-0.1,0,0,,,,,,,,,,,,,,,,,,,
46653,1506823626204,,,,,,,,0.03,0.05,1.03,-3.0,-0.8,-0.1,0,0,,,,,,,,,,,,,,,,,,,
46673,1506823626224,0,122.5,,129.0,0,131.1,,0.03,0.05,1.02,-3.0,-0.8,-0.1,0,0,1,1,0.0,0,35.489849,-119.546051,0.0,0.0,217.4,10,3,1.6,0,0.0,-1,0.0,0.0,0.0,0
46693,1506823626244,,,,,,,,0.03,0.05,1.02,-3.0,-0.8,-0.1,0,0,,,,,,,,,,,,,,,,,,,
46713,1506823626264,,,,,,,,0.03,0.05,1.02,-3.0,-0.8,-0.1,0,0,,,,,,,,,,,,,,,,,,,
46733,1506823626284,,,,,,,,0.03,0.05,1.02,-3.0,-0.8,-0.1,0,0,,,,,,,,,,,,,,,,,,,
46753,1506823626306,,,,,,,,0.03,0.05,1.03,-3.0,-0.8,-0.1,0,0,,,,,,,,,,,,,,,,,,,
46773,1506823626326,,,,,0,,,0.03,0.05,1.02,-3.0,-0.8,-0.1,0,0,1,1,0.0,0,35.489849,-119.546051,0.0,0.0,217.4,10,3,1.6,0,0.0,-1,0.0,0.0,0.0,0
46793,1506823626346,,,,,,,,0.03,0.05,1.02,-3.0,-0.8,-0.1,0,0,,,,,,,,,,,,,,,,,,,
46813,1506823626366,,,,,,,,0.03,0.05,1.03,-3.0,-0.8,-0.1,0,0,,,,,,,,,,,,,,,,,,,
46833,1506823626386,,,,,,,,0.03,0.05,1.02,-3.0,-0.8,-0.1,0,0,,,,,,,,,,,,,,,,,,,
46853,1506823626406,,,,,,,,0.03,0.05,1.03,-3.0,-0.8,-0.1,0,0,,,,,,,,,,,,,,,,,,,
46873,1506823626426,0,122.0,,128.1,0,130.4,,0.03,0.05,1.02,-3.0,-0.8,-0.1,0,0,1,1,0.0,0,35.489849,-119.546051,0.0,0.0,217.4,10,3,1.6,0,0.0,-1,0.0,0.0,0.0,0
46893,1506823626446,,,,,,,,0.03,0.05,1.02,-3.0,-0.8,-0.1,0,0,,,,,,,,,,,,,,,,,,,
46913,1506823626466,,,,,,,,0.03,0.05,1.03,-3.0,-0.8,-0.1,0,0,,,,,,,,,,,,,,,,,,,
46933,1506823626486,,,,,,,,0.03,0.05,1.03,-3.0,-0.8,-0.1,0,0,,,,,,,,,,,,,,,,,,,
46953,1506823626506,,,,,,,,0.03,0.05,1.03,-3.0,-0.8,-0.1,0,0,,,,,,,,,,,,,,,,,,,
46973,1506823626526,,,,,0,,,0.03,0.05,1.02,-3.0,-0.8,-0.1,0,0,1,1,0.0,0,35.489849,-119.546051,0.0,0.0,217.4,10,3,1.6,0,0.0,-1,0.0,0.0,0.0,0
46993,1506823626546,,,,,,,,0.03,0.05,1.02,-3.0,-0.8,-0.1,0,0,,,,,,,,,,,,,,,,,,,
47013,1506823626566,,,,,,,,0.03,0.05,1.02,-3.0,-0.8,-0.1,0,0,,,,,,,,,,,,,,,,,,,
47033,1506823626586,,,,,,,,0.03,0.05,1.03,-3.0,-0.8,-0.1,0,0,,,,,,,,,,,,,,,,,,,
47053,1506823626602,,,,,,,,0.03,0.05,1.02,-3.0,-0.8,-0.1,0,0,,,,,,,,,,,,,,,,,,,
47073,1506823626622,0,122.3,-0.6,128.9,0,130.9,13.05,0.03,0.05,1.03,-3.0,-0.8,-0.1,0,0,1,1,0.0,0,35.489849,-119.546051,0.0,0.0,217.4,10,3,1.6,0,0.0,-1,0.0,0.0,0.0,0
47093,1506823626642,,,,,,,,0.03,0.05,1.03,-3.0,-0.8,-0.1,0,0,,,,,,,,,,,,,,,,,,,
47113,1506823626662,,,,,,,,0.03,0.05,1.03,-3.0,-0.8,-0.1,0,0,,,,,,,,,,,,,,,,,,,
47133,1506823626682,,,,,,,,0.03,0.05,1.03,-3.0,-0.8,-0.1,0,0,,,,,,,,,,,,,,,,,,,
47153,1506823626704,,,,,,,,0.03,0.05,1.03,-3.0,-0.8,-0.1,0,0,,,,,,,,,,,,,,,,,,,
47173,1506823626724,,,,,0,,,0.03,0.05,1.03,-3.0,-0.8,-0.1,0,0,1,1,0.0,0,35.489849,-119.546051,0.0,0.0,217.4,10,3,1.6,0,0.0,-1,0.0,0.0,0.0,0
47193,1506823626744,,,,,,,,0.03,0.05,1.03,-3.0,-0.7,-0.1,0,0,,,,,,,,,,,,,,,,,,,
47213,1506823626764,,,,,,,,0.03,0.05,1.03,-3.0,-0.7,-0.1,0,0,,,,,,,,,,,,,,,,,,,
47233,1506823626784,,,,,,,,0.03,0.05,1.03,-3.0,-0.7,-0.1,0,0,,,,,,,,,,,,,,,,,,,
47253,1506823626806,,,,,,,,0.03,0.05,1.03,-3.0,-0.7,-0.1,0,0,,,,,,,,,,,,,,,,,,,
47273,1506823626826,0,122.5,,128.9,0,131.1,,0.03,0.05,1.03,-3.0,-0.8,-0.1,0,0,1,1,0.0,0,35.489849,-119.546051,0.0,0.0,217.4,10,3,1.6,0,0.0,-1,0.0,0.0,0.0,0
47293,1506823626846,,,,,,,,0.03,0.05,1.03,-3.0,-0.8,-0.1,0,0,,,,,,,,,,,,,,,,,,,
47313,1506823626866,,,,,,,,0.03,0.05,1.03,-3.0,-0.8,-0.1,0,0,,,,,,,,,,,,,,,,,,,
47333,1506823626886,,,,,,,,0.03,0.05,1.03,-3.0,-0.8,-0.1,0,0,,,,,,,,,,,,,,,,,,,
47353,1506823626905,,,,,,,,0.03,0.05,1.03,-3.0,-0.8,-0.1,0,0,,,,,,,,,,,,,,,,,,,
47373,1506823626925,,,,,0,,,0.03,0.05,1.03,-3.0,-0.8,-0.1,0,0,1,1,0.0,0,35.489849,-119.546051,0.0,0.0,217.4,10,3,1.6,0,0.0,-1,0.0,0.0,0.0,0
47393,1506823626945,,,,,,,,0.03,0.05,1.03,-3.0,-0.8,-0.1,0,0,,,,,,,,,,,,,,,,,,,
47413,1506823626965,,,,,,,,0.03,0.05,1.03,-3.0,-0.8,-0.1,0,0,,,,,,,,,,,,,,,,,,,
47433,1506823626985,,,,,,,,0.03,0.05,1.03,-3.0,-0.7,-0.1,0,0,,,,,,,,,,,,,,,,,,,
47453,1506823626999,,,,,,,,0.03,0.05,1.03,-3.0,-0.7,-0.1,0,0,,,,,,,,,,,,,,,,,,,
47473,1506823627019,0,122.0,,128.0,0,130.3,,0.03,0.05,1.03,-3.0,-0.7,-0.1,0,0,1,1,0.0,0,35.489849,-119.546051,0.0,0.0,217.4,10,3,1.6,0,0.0,-1,0.0,0.0,0.0,0
47493,1506823627039,,,,,,,,0.03,0.05,1.03,-3.0,-0.7,-0.1,0,0,,,,,,,,,,,,,,,,,,,
47513,1506823627059,,,,,,,,0.03,0.05,1.03,-3.0,-0.8,-0.1,0,0,,,,,,,,,,,,,,,,,,,
47533,1506823627079,,,,,,,,0.03,0.05,1.02,-3.0,-0.8,-0.1,0,0,,,,,,,,,,,,,,,,,,,
47553,1506823627103,,,,,,,,0.03,0.05,1.02,-3.0,-0.8,-0.1,0,0,,,,,,,,,,,,,,,,,,,
47573,1506823627123,,,,,0,,,0.03,0.05,1.03,-3.0,-0.8,-0.1,0,0,1,1,0.0,0,35.489849,-119.546051,0.0,0.0,217.4,10,3,1.6,0,0.0,-1,0.0,0.0,0.0,0
47593,1506823627143,,,,,,,,0.03,0.05,1.02,-3.0,-0.8,-0.1,0,0,,,,,,,,,,,,,,,,,,,
47613,1506823627163,,,,,,,,0.03,0.05,1.02,-3.0,-0.8,-0.1,0,0,,,,,,,,,,,,,,,,,,,
47633,1506823627183,,,,,,,,0.03,0.05,1.02,-3.0,-0.7,-0.1,0,0,,,,,,,,,,,,,,,,,,,
47653,1506823627203,,,,,,,,0.03,0.05,1.02,-3.0,-0.7,-0.0,0,0,,,,,,,,,,,,,,,,,,,
47673,1506823627223,0,122.0,,128.2,0,130.7,,0.03,0.05,1.02,-3.0,-0.8,-0.1,0,0,1,1,0.0,0,35.489849,-119.546051,0.0,0.0,217.4,10,3,1.6,0,0.0,-1,0.0,0.0,0.0,0
47693,1506823627243,,,,,,,,0.03,0.05,1.03,-3.0,-0.8,-0.1,0,0,,,,,,,,,,,,,,,,,,,
47713,1506823627263,,,,,,,,0.03,0.05,1.03,-3.0,-0.7,-0.0,0,0,,,,,,,,,,,,,,,,,,,
47733,1506823627283,,,,,,,,0.03,0.05,1.03,-3.0,-0.8,-0.0,0,0,,,,,,,,,,,,,,,,,,,
47753,1506823627303,,,,,,,,0.03,0.05,1.03,-3.0,-0.8,-0.0,0,0,,,,,,,,,,,,,,,,,,,
47773,1506823627323,,,,,0,,,0.03,0.05,1.02,-3.0,-0.7,-0.0,0,0,1,1,0.0,0,35.489849,-119.546051,0.0,0.0,217.4,10,3,1.6,0,0.0,-1,0.0,0.0,0.0,0
47793,1506823627343,,,,,,,,0.03,0.05,1.02,-3.0,-0.7,-0.0,0,0,,,,,,,,,,,,,,,,,,,
47813,1506823627363,,,,,,,,0.03,0.05,1.02,-3.0,-0.7,-0.0,0,0,,,,,,,,,,,,,,,,,,,
47833,1506823627383,,,,,,,,0.03,0.05,1.03,-3.0,-0.7,-0.0,0,0,,,,,,,,,,,,,,,,,,,
47853,1506823627403,,,,,,,,0.03,0.05,1.03,-3.0,-0.7,-0.0,0,0,,,,,,,,,,,,,,,,,,,
47873,1506823627423,0,123.3,,129.3,0,130.7,,0.03,0.05,1.03,-3.0,-0.7,-0.0,0,0,1,1,0.0,0,35.489849,-119.546051,0.0,0.0,217.4,10,3,1.6,0,0.0,-1,0.0,0.0,0.0,0
47893,1506823627443,,,,,,,,0.03,0.05,1.03,-3.0,-0.7,-0.0,0,0,,,,,,,,,,,,,,,,,,,
47913,1506823627463,,,,,,,,0.03,0.05,1.03,-3.0,-0.8,-0.0,0,0,,,,,,,,,,,,,,,,,,,
47933,1506823627483,,,,,,,,0.03,0.05,1.03,-3.0,-0.7,-0.1,0,0,,,,,,,,,,,,,,,,,,,
47953,1506823627505,,,,,,,,0.03,0.05,1.03,-3.0,-0.7,-0.1,0,0,,,,,,,,,,,,,,,,,,,
47973,1506823627525,,,,,0,,,0.03,0.05,1.02,-3.0,-0.7,-0.1,0,0,1,1,0.0,0,35.489849,-119.546051,0.0,0.0,217.4,10,3,1.6,0,0.0,-1,0.0,0.0,0.0,0
47993,1506823627545,,,,,,,,0.03,0.05,1.03,-3.0,-0.7,-0.1,0,0,,,,,,,,,,,,,,,,,,,
48013,1506823627565,,,,,,,,0.03,0.05,1.02,-3.0,-0.7,-0.1,0,0,,,,,,,,,,,,,,,,,,,
48033,1506823627585,,,,,,,,0.03,0.05,1.03,-3.0,-0.7,-0.1,0,0,,,,,,,,,,,,,,,,,,,
48053,1506823627603,,,,,,,,0.03,0.05,1.03,-3.0,-0.7,-0.1,0,0,,,,,,,,,,,,,,,,,,,
48073,1506823627623,0,122.0,-0.6,128.5,0,130.9,13.03,0.03,0.05,1.03,-3.0,-0.7,-0.1,0,0,1,1,0.0,0,35.489849,-119.546051,0.0,0.0,217.4,10,3,1.6,0,0.0,-1,0.0,0.0,0.0,0
48093,1506823627643,,,,,,,,0.03,0.05,1.03,-3.0,-0.7,-0.1,0,0,,,,,,,,,,,,,,,,,,,
48113,1506823627663,,,,,,,,0.03,0.05,1.03,-3.0,-0.7,-0.1,0,0,,,,,,,,,,,,,,,,,,,
48133,1506823627683,,,,,,,,0.03,0.05,1.03,-3.0,-0.7,-0.1,0,0,,,,,,,,,,,,,,,,,,,
48153,1506823627703,,,,,,,,0.03,0.05,1.03,-3.0,-0.7,-0.0,0,0,,,,,,,,,,,,,,,,,,,
48173,1506823627723,,,,,0,,,0.03,0.05,1.03,-3.0,-0.7,-0.0,0,0,1,1,0.0,0,35.489849,-119.546051,0.0,0.0,217.4,10,3,1.6,0,0.0,-1,0.0,0.0,0.0,0
48193,1506823627743,,,,,,,,0.03,0.05,1.03,-3.0,-0.7,-0.1,0,0,,,,,,,,,,,,,,,,,,,
48213,1506823627763,,,,,,,,0.03,0.05,1.03,-3.0,-0.7,-0.1,0,0,,,,,,,,,,,,,,,,,,,
48233,1506823627783,,,,,,,,0.03,0.05,1.03,-3.0,-0.7,-0.0,0,0,,,,,,,,,,,,,,,,,,,
48253,1506823627803,,,,,,,,0.03,0.05,1.02,-3.0,-0.7,-0.0,0,0,,,,,,,,,,,,,,,,,,,
48273,1506823627823,0,122.0,,127.8,0,130.1,,0.03,0.05,1.02,-3.0,-0.7,-0.0,0,0,1,1,0.0,0,35.489849,-119.546051,0.0,0.0,217.4,10,3,1.6,0,0.0,-1,0.0,0.0,0.0,0
48293,1506823627843,,,,,,,,0.03,0.05,1.02,-3.0,-0.7,-0.0,0,0,,,,,,,,,,,,,,,,,,,
48313,1506823627863,,,,,,,,0.03,0.05,1.02,-3.0,-0.7,-0.0,0,0,,,,,,,,,,,,,,,,,,,
48333,1506823627883,,,,,,,,0.03,0.05,1.02,-3.0,-0.7,-0.0,0,0,,,,,,,,,,,,,,,,,,,
48353,1506823627904,,,,,,,,0.03,0.05,1.02,-3.0,-0.7,-0.0,0,0,,,,,,,,,,,,,,,,,,,
48373,1506823627924,,,,,0,,,0.03,0.05,1.02,-2.9,-0.7,-0.0,0,0,1,1,0.0,0,35.489849,-119.546051,0.0,0.0,217.4,10,3,1.6,0,0.0,-1,0.0,0.0,0.0,0
48393,1506823627944,,,,,,,,0.03,0.05,1.02,-2.9,-0.7,-0.0,0,0,,,,,,,,,,,,,,,,,,,
48413,1506823627964,,,,,,,,0.03,0.05,1.02,-2.9,-0.7,-0.0,0,0,,,,,,,,,,,,,,,,,,,
48433,1506823627984,,,,,,,,0.03,0.05,1.02,-3.0,-0.7,-0.1,0,0,,,,,,,,,,,,,,,,,,,
48453,1506823627998,,,,,,,,0.03,0.05,1.02,-3.0,-0.8,-0.1,0,0,,,,,,,,,,,,,,,,,,,
48473,1506823628018,0,121.8,,128.3,0,130.7,,0.03,0.05,1.02,-3.0,-0.8,-0.0,0,0,1,1,0.0,0,35.489849,-119.546051,0.0,0.0,217.4,10,3,1.6,0,0.0,-1,0.0,0.0,0.0,0
48493,1506823628038,,,,,,,,0.03,0.05,1.02,-3.0,-0.7,-0.0,0,0,,,,,,,,,,,,,,,,,,,
48513,1506823628058,,,,,,,,0.03,0.05,1.02,-3.0,-0.7,-0.0,0,0,,,,,,,,,,,,,,,,,,,
48533,1506823628078,,,,,,,,0.03,0.05,1.02,-3.0,-0.7,-0.0,0,0,,,,,,,,,,,,,,,,,,,
48553,1506823628104,,,,,,,,0.03,0.05,1.02,-3.0,-0.7,-0.0,0,0,,,,,,,,,,,,,,,,,,,
48573,1506823628124,,,,,0,,,0.03,0.05,1.02,-3.0,-0.7,-0.1,0,0,1,1,0.0,0,35.489849,-119.546051,0.0,0.0,217.4,10,3,1.6,0,0.0,-1,0.0,0.0,0.0,0
48593,1506823628144,,,,,,,,0.03,0.05,1.02,-3.0,-0.7,-0.1,0,0,,,,,,,,,,,,,,,,,,,
48613,1506823628164,,,,,,,,0.03,0.05,1.02,-3.0,-0.7,-0.0,0,0,,,,,,,,,,,,,,,,,,,
48633,1506823628184,,,,,,,,0.03,0.05,1.02,-3.0,-0.7,-0.1,0,0,,,,,,,,,,,,,,,,,,,
48653,1506823628204,,,,,,,,0.03,0.05,1.02,-3.0,-0.7,-0.1,0,0,,,,,,,,,,,,,,,,,,,
48673,1506823628224,0,123.2,,129.4,0,130.9,,0.03,0.05,1.02,-3.0,-0.7,-0.1,0,0,1,1,0.0,0,35.489849,-119.546051,0.0,0.0,217.4,10,3,1.6,0,0.0,-1,0.0,0.0,0.0,0
48693,1506823628244,,,,,,,,0.03,0.05,1.02,-3.0,-0.7,-0.0,0,0,,,,,,,,,,,,,,,,,,,
48713,1506823628264,,,,,,,,0.03,0.05,1.02,-3.0,-0.8,-0.0,0,0,,,,,,,,,,,,,,,,,,,
48733,1506823628284,,,,,,,,0.03,0.05,1.02,-3.0,-0.8,-0.0,0,0,,,,,,,,,,,,,,,,,,,
48753,1506823628304,,,,,,,,0.03,0.05,1.02,-3.0,-0.8,-0.0,0,0,,,,,,,,,,,,,,,,,,,
48773,1506823628324,,,,,0,,,0.03,0.05,1.02,-3.0,-0.8,-0.0,0,0,1,1,0.0,0,35.489849,-119.546051,0.0,0.0,217.4,10,3,1.6,0,0.0,-1,0.0,0.0,0.0,0
48793,1506823628344,,,,,,,,0.03,0.05,1.02,-3.0,-0.8,-0.1,0,0,,,,,,,,,,,,,,,,,,,
48813,1506823628364,,,,,,,,0.03,0.05,1.02,-3.0,-0.8,-0.1,0,0,,,,,,,,,,,,,,,,,,,
48833,1506823628384,,,,,,,,0.03,0.05,1.02,-3.0,-0.8,-0.1,0,0,,,,,,,,,,,,,,,,,,,
48853,1506823628404,,,,,,,,0.03,0.05,1.02,-3.0,-0.8,-0.1,0,0,,,,,,,,,,,,,,,,,,,
48873,1506823628424,0,121.9,,128.2,0,130.7,,0.03,0.05,1.02,-3.0,-0.8,-0.1,0,0,1,1,0.0,0,35.489849,-119.546051,0.0,0.0,217.4,10,3,1.6,0,0.0,-1,0.0,0.0,0.0,0
48893,1506823628444,,,,,,,,0.03,0.05,1.02,-3.0,-0.8,-0.1,0,0,,,,,,,,,,,,,,,,,,,
48913,1506823628464,,,,,,,,0.03,0.05,1.02,-3.0,-0.8,-0.0,0,0,,,,,,,,,,,,,,,,,,,
48933,1506823628484,,,,,,,,0.03,0.05,1.02,-3.0,-0.8,-0.0,0,0,,,,,,,,,,,,,,,,,,,
48953,1506823628504,,,,,,,,0.03,0.05,1.02,-3.0,-0.8,-0.0,0,0,,,,,,,,,,,,,,,,,,,
48973,1506823628524,,,,,0,,,0.03,0.05,1.02,-3.0,-0.8,-0.0,0,0,1,1,0.0,0,35.489849,-119.546051,0.0,0.0,217.4,10,3,1.6,0,0.0,-1,0.0,0.0,0.0,0
48993,1506823628544,,,,,,,,0.03,0.05,1.02,-3.0,-0.8,-0.0,0,0,,,,,,,,,,,,,,,,,,,
49013,1506823628564,,,,,,,,0.03,0.05,1.02,-3.0,-0.8,-0.0,0,0,,,,,,,,,,,,,,,,,,,
49033,1506823628584,,,,,,,,0.03,0.05,1.02,-3.0,-0.8,-0.0,0,0,,,,,,,,,,,,,,,,,,,
49053,1506823628604,,,,,,,,0.03,0.05,1.02,-3.0,-0.8,-0.0,0,0,,,,,,,,,,,,,,,,,,,
49073,1506823628624,0,122.1,-0.6,128.4,0,130.7,13.04,0.03,0.05,1.02,-3.0,-0.8,-0.0,0,0,1,1,0.0,0,35.489849,-119.546051,0.0,0.0,217.4,10,3,1.6,0,0.0,-1,0.0,0.0,0.0,0
49093,1506823628644,,,,,,,,0.03,0.05,1.02,-3.0,-0.8,-0.0,0,0,,,,,,,,,,,,,,,,,,,
49113,1506823628664,,,,,,,,0.03,0.05,1.02,-3.0,-0.8,-0.0,0,0,,,,,,,,,,,,,,,,,,,
49133,1506823628684,,,,,,,,0.03,0.05,1.02,-3.0,-0.8,-0.1,0,0,,,,,,,,,,,,,,,,,,,
49153,1506823628704,,,,,,,,0.03,0.05,1.02,-3.0,-0.8,-0.1,0,0,,,,,,,,,,,,,,,,,,,
49173,1506823628724,,,,,0,,,0.03,0.05,1.02,-3.0,-0.8,-0.1,0,0,1,1,0.0,0,35.489849,-119.546051,0.0,0.0,217.4,10,3,1.6,0,0.0,-1,0.0,0.0,0.0,0
49193,1506823628744,,,,,,,,0.03,0.05,1.02,-3.0,-0.8,-0.1,0,0,,,,,,,,,,,,,,,,,,,
49213,1506823628764,,,,,,,,0.03,0.05,1.02,-3.0,-0.8,-0.1,0,0,,,,,,,,,,,,,,,,,,,
49233,1506823628784,,,,,,,,0.03,0.05,1.02,-3.0,-0.8,-0.1,0,0,,,,,,,,,,,,,,,,,,,
49253,1506823628804,,,,,,,,0.03,0.05,1.02,-3.0,-0.8,-0.1,0,0,,,,,,,,,,,,,,,,,,,
49273,1506823628824,0,122.4,,128.8,0,131.0,,0.03,0.05,1.02,-3.0,-0.8,-0.1,0,0,1,1,0.0,0,35.489849,-119.546051,0.0,0.0,217.4,10,3,1.6,0,0.0,-1,0.0,0.0,0.0,0
49293,1506823628844,,,,,,,,0.03,0.05,1.02,-3.0,-0.7,-0.1,0,0,,,,,,,,,,,,,,,,,,,
49313,1506823628864,,,,,,,,0.03,0.05,1.03,-3.0,-0.7,-0.1,0,0,,,,,,,,,,,,,,,,,,,
49333,1506823628884,,,,,,,,0.03,0.05,1.03,-3.0,-0.8,-0.1,0,0,,,,,,,,,,,,,,,,,,,
49353,1506823628899,,,,,,,,0.03,0.05,1.03,-3.0,-0.8,-0.0,0,0,,,,,,,,,,,,,,,,,,,
49373,1506823628919,,,,,0,,,0.03,0.05,1.02,-3.0,-0.8,-0.1,0,0,1,1,0.0,0,35.489849,-119.546051,0.0,0.0,217.4,10,3,1.6,0,0.0,-1,0.0,0.0,0.0,0
49393,1506823628939,,,,,,,,0.03,0.05,1.02,-3.0,-0.7,-0.0,0,0,,,,,,,,,,,,,,,,,,,
49413,1506823628959,,,,,,,,0.03,0.05,1.02,-3.0,-0.8,-0.0,0,0,,,,,,,,,,,,,,,,,,,
49433,1506823628979,,,,,,,,0.03,0.05,1.02,-3.0,-0.8,-0.0,0,0,,,,,,,,,,,,,,,,,,,
49453,1506823628997,,,,,,,,0.03,0.05,1.02,-3.0,-0.8,-0.0,0,0,,,,,,,,,,,,,,,,,,,
49473,1506823629017,0,123.2,,129.0,0,130.6,,0.03,0.05,1.02,-3.0,-0.8,-0.0,0,0,1,1,0.0,0,35.489849,-119.546051,0.0,0.0,217.4,10,3,1.6,0,0.0,-1,0.0,0.0,0.0,0
49493,1506823629037,,,,,,,,0.03,0.05,1.03,-3.0,-0.8,-0.0,0,0,,,,,,,,,,,,,,,,,,,
49513,1506823629057,,,,,,,,0.03,0.05,1.03,-3.0,-0.8,-0.1,0,0,,,,,,,,,,,,,,,,,,,
49533,1506823629077,,,,,,,,0.03,0.05,1.03,-3.0,-0.8,-0.1,0,0,,,,,,,,,,,,,,,,,,,
49553,1506823629103,,,,,,,,0.03,0.05,1.03,-3.0,-0.8,-0.1,0,0,,,,,,,,,,,,,,,,,,,
49573,1506823629123,,,,,0,,,0.03,0.05,1.03,-3.0,-0.8,-0.1,0,0,1,1,0.0,0,35.489849,-119.546051,0.0,0.0,217.4,10,3,1.6,0,0.0,-1,0.0,0.0,0.0,0
49593,1506823629143,,,,,,,,0.03,0.05,1.03,-3.0,-0.8,-0.1,0,0,,,,,,,,,,,,,,,,,,,
49613,1506823629163,,,,,,,,0.03,0.05,1.02,-3.0,-0.8,-0.1,0,0,,,,,,,,,,,,,,,,,,,
49633,1506823629183,,,,,,,,0.03,0.05,1.02,-3.0,-0.8,-0.1,0,0,,,,,,,,,,,,,,,,,,,
49653,1506823629203,,,,,,,,0.03,0.05,1.03,-3.0,-0.8,-0.0,0,0,,,,,,,,,,,,,,,,,,,
49673,1506823629223,0,122.5,,128.9,0,131.1,,0.03,0.05,1.03,-3.0,-0.7,-0.1,0,0,1,1,0.0,0,35.489849,-119.546051,0.0,0.0,217.4,10,3,1.6,0,0.0,-1,0.0,0.0,0.0,0
49693,1506823629243,,,,,,,,0.03,0.05,1.02,-3.0,-0.8,-0.1,0,0,,,,,,,,,,,,,,,,,,,
49713,1506823629263,,,,,,,,0.03,0.05,1.03,-3.0,-0.7,-0.0,0,0,,,,,,,,,,,,,,,,,,,
49733,1506823629283,,,,,,,,0.03,0.05,1.03,-3.0,-0.7,-0.1,0,0,,,,,,,,,,,,,,,,,,,
49753,1506823629303,,,,,,,,0.03,0.05,1.03,-3.0,-0.7,-0.1,0,0,,,,,,,,,,,,,,,,,,,
49773,1506823629323,,,,,0,,,0.03,0.05,1.03,-3.0,-0.7,-0.1,0,0,1,1,0.0,0,35.489849,-119.546051,0.0,0.0,217.4,10,3,1.6,0,0.0,-1,0.0,0.0,0.0,0
49793,1506823629343,,,,,,,,0.03,0.05,1.02,-3.0,-0.7,-0.1,0,0,,,,,,,,,,,,,,,,,,,
49813,1506823629363,,,,,,,,0.03,0.05,1.03,-3.0,-0.7,-0.1,0,0,,,,,,,,,,,,,,,,,,,
49833,1506823629383,,,,,,,,0.03,0.05,1.02,-3.0,-0.7,-0.1,0,0,,,,,,,,,,,,,,,,,,,
49853,1506823629405,,,,,,,,0.03,0.05,1.02,-3.0,-0.7,-0.1,0,0,,,,,,,,,,,,,,,,,,,
49873,1506823629425,0,123.2,,129.2,0,130.9,,0.03,0.05,1.02,-3.0,-0.7,-0.1,0,0,1,1,0.0,0,35.489849,-119.546051,0.0,0.0,217.4,10,3,1.6,0,0.0,-1,0.0,0.0,0.0,0
49893,1506823629445,,,,,,,,0.03,0.05,1.02,-3.0,-0.7,-0.1,0,0,,,,,,,,,,,,,,,,,,,
49913,1506823629465,,,,,,,,0.03,0.05,1.02,-3.0,-0.7,-0.1,0,0,,,,,,,,,,,,,,,,,,,
49933,1506823629485,,,,,,,,0.03,0.05,1.02,-3.0,-0.7,-0.1,0,0,,,,,,,,,,,,,,,,,,,
49953,1506823629505,,,,,,,,0.03,0.05,1.03,-3.0,-0.7,-0.1,0,0,,,,,,,,,,,,,,,,,,,
49973,1506823629525,,,,,0,,,0.03,0.05,1.03,-3.0,-0.7,-0.1,0,0,1,1,0.0,0,35.489849,-119.546051,0.0,0.0,217.4,10,3,1.6,0,0.0,-1,0.0,0.0,0.0,0
49993,1506823629545,,,,,,,,0.03,0.05,1.03,-3.0,-0.7,-0.1,0,0,,,,,,,,,,,,,,,,,,,
50013,1506823629565,,,,,,,,0.03,0.05,1.02,-3.0,-0.7,-0.1,0,0,,,,,,,,,,,,,,,,,,,
50033,1506823629585,,,,,,,,0.03,0.05,1.02,-3.0,-0.7,-0.1,0,0,,,,,,,,,,,,,,,,,,,
50053,1506823629605,,,,,,,,0.03,0.05,1.02,-3.0,-0.7,-0.1,0,0,,,,,,,,,,,,,,,,,,,
50073,1506823629625,0,123.0,-0.5,129.1,0,131.1,13.03,0.03,0.05,1.02,-3.0,-0.7,-0.1,0,0,1,1,0.0,0,35.489849,-119.546051,0.0,0.0,217.4,10,3,1.6,0,0.0,-1,0.0,0.0,0.0,0
50093,1506823629645,,,,,,,,0.03,0.05,1.02,-3.0,-0.8,-0.0,0,0,,,,,,,,,,,,,,,,,,,
50113,1506823629665,,,,,,,,0.03,0.05,1.03,-3.0,-0.7,-0.0,0,0,,,,,,,,,,,,,,,,,,,
50133,1506823629685,,,,,,,,0.03,0.05,1.03,-3.0,-0.7,-0.1,0,0,,,,,,,,,,,,,,,,,,,
50153,1506823629705,,,,,,,,0.03,0.05,1.03,-3.0,-0.7,-0.1,0,0,,,,,,,,,,,,,,,,,,,
50173,1506823629725,,,,,0,,,0.03,0.05,1.03,-3.0,-0.7,-0.1,0,0,1,1,0.0,0,35.489849,-119.546051,0.0,0.0,217.4,10,3,1.6,0,0.0,-1,0.0,0.0,0.0,0
50193,1506823629745,,,,,,,,0.03,0.05,1.03,-3.0,-0.7,-0.1,0,0,,,,,,,,,,,,,,,,,,,
50213,1506823629765,,,,,,,,0.03,0.05,1.03,-3.0,-0.7,-0.0,0,0,,,,,,,,,,,,,,,,,,,
50233,1506823629785,,,,,,,,0.03,0.05,1.03,-3.0,-0.7,-0.1,0,0,,,,,,,,,,,,,,,,,,,
50253,1506823629805,,,,,,,,0.03,0.05,1.03,-3.0,-0.8,-0.1,0,0,,,,,,,,,,,,,,,,,,,
50273,1506823629825,0,122.9,,129.1,0,131.0,,0.03,0.05,1.03,-3.0,-0.7,-0.1,0,0,1,1,0.0,0,35.489849,-119.546051,0.0,0.0,217.4,10,3,1.6,0,0.0,-1,0.0,0.0,0.0,0
50293,1506823629845,,,,,,,,0.03,0.05,1.03,-3.0,-0.7,-0.1,0,0,,,,,,,,,,,,,,,,,,,
50313,1506823629865,,,,,,,,0.03,0.05,1.03,-3.0,-0.7,-0.0,0,0,,,,,,,,,,,,,,,,,,,
50333,1506823629885,,,,,,,,0.03,0.05,1.03,-3.0,-0.7,-0.0,0,0,,,,,,,,,,,,,,,,,,,
50353,1506823629904,,,,,,,,0.03,0.05,1.03,-3.0,-0.8,-0.1,0,0,,,,,,,,,,,,,,,,,,,
50373,1506823629924,,,,,0,,,0.03,0.05,1.03,-3.0,-0.8,-0.1,0,0,1,1,0.0,0,35.489849,-119.546051,0.0,0.0,217.4,10,3,1.6,0,0.0,-1,0.0,0.0,0.0,0
50393,1506823629944,,,,,,,,0.03,0.05,1.03,-3.0,-0.7,-0.1,0,0,,,,,,,,,,,,,,,,,,,
50413,1506823629964,,,,,,,,0.03,0.05,1.03,-3.0,-0.8,-0.1,0,0,,,,,,,,,,,,,,,,,,,
50433,1506823629984,,,,,,,,0.03,0.05,1.03,-3.0,-0.8,-0.1,0,0,,,,,,,,,,,,,,,,,,,
50453,1506823629998,,,,,,,,0.03,0.05,1.03,-3.0,-0.8,-0.0,0,0,,,,,,,,,,,,,,,,,,,
50473,1506823630018,0,122.4,,128.4,0,130.9,,0.03,0.05,1.03,-3.0,-0.8,-0.0,0,0,1,1,0.0,0,35.489849,-119.546051,0.0,0.0,217.4,10,3,1.6,0,0.0,-1,0.0,0.0,0.0,0
50493,1506823630038,,,,,,,,0.03,0.05,1.03,-3.0,-0.8,-0.0,0,0,,,,,,,,,,,,,,,,,,,
50513,1506823630058,,,,,,,,0.03,0.05,1.03,-3.0,-0.8,-0.1,0,0,,,,,,,,,,,,,,,,,,,
50533,1506823630078,,,,,,,,0.03,0.05,1.03,-3.0,-0.7,-0.1,0,0,,,,,,,,,,,,,,,,,,,
50553,1506823630098,,,,,,,,0.03,0.05,1.02,-3.0,-0.7,-0.1,0,0,,,,,,,,,,,,,,,,,,,
50573,1506823630118,,,,,0,,,0.03,0.05,1.03,-3.0,-0.7,-0.1,0,0,1,1,0.0,0,35.489849,-119.546051,0.0,0.0,217.4,10,3,1.6,0,0.0,-1,0.0,0.0,0.0,0
50593,1506823630138,,,,,,,,0.03,0.05,1.03,-3.0,-0.7,-0.0,0,0,,,,,,,,,,,,,,,,,,,
50613,1506823630158,,,,,,,,0.03,0.05,1.03,-3.0,-0.7,-0.0,0,0,,,,,,,,,,,,,,,,,,,
50633,1506823630178,,,,,,,,0.03,0.05,1.03,-3.0,-0.7,-0.0,0,0,,,,,,,,,,,,,,,,,,,
50653,1506823630206,,,,,,,,0.03,0.05,1.02,-3.0,-0.8,-0.0,0,0,,,,,,,,,,,,,,,,,,,
50673,1506823630226,0,123.2,,129.2,0,131.0,,0.03,0.05,1.02,-3.0,-0.8,-0.0,0,0,1,1,0.0,0,35.489849,-119.546051,0.0,0.0,217.4,10,3,1.6,0,0.0,-1,0.0,0.0,0.0,0
50693,1506823630246,,,,,,,,0.03,0.05,1.02,-3.0,-0.8,-0.0,0,0,,,,,,,,,,,,,,,,,,,
50713,1506823630266,,,,,,,,0.03,0.05,1.02,-3.0,-0.7,-0.0,0,0,,,,,,,,,,,,,,,,,,,
50733,1506823630286,,,,,,,,0.03,0.05,1.02,-3.0,-0.8,-0.0,0,0,,,,,,,,,,,,,,,,,,,
50753,1506823630306,,,,,,,,0.03,0.05,1.02,-3.0,-0.8,-0.0,0,0,,,,,,,,,,,,,,,,,,,
50773,1506823630326,,,,,0,,,0.03,0.05,1.02,-3.0,-0.8,-0.0,0,0,1,1,0.0,0,35.489849,-119.546051,0.0,0.0,217.4,10,3,1.6,0,0.0,-1,0.0,0.0,0.0,0
50793,1506823630346,,,,,,,,0.03,0.05,1.02,-3.0,-0.8,-0.0,0,0,,,,,,,,,,,,,,,,,,,
50813,1506823630366,,,,,,,,0.03,0.05,1.02,-3.0,-0.7,-0.1,0,0,,,,,,,,,,,,,,,,,,,
50833,1506823630386,,,,,,,,0.03,0.05,1.02,-3.0,-0.8,-0.1,0,0,,,,,,,,,,,,,,,,,,,
50853,1506823630406,,,,,,,,0.03,0.05,1.02,-3.0,-0.8,-0.1,0,0,,,,,,,,,,,,,,,,,,,
50873,1506823630426,0,122.7,,128.6,0,129.9,,0.03,0.06,1.02,-3.0,-0.8,-0.1,0,0,1,1,0.0,0,35.489849,-119.546051,0.0,0.0,217.4,10,3,1.6,0,0.0,-1,0.0,0.0,0.0,0
50893,1506823630446,,,,,,,,0.03,0.06,1.02,-3.0,-0.8,-0.1,0,0,,,,,,,,,,,,,,,,,,,
50913,1506823630466,,,,,,,,0.03,0.05,1.02,-3.0,-0.8,-0.1,0,0,,,,,,,,,,,,,,,,,,,
50933,1506823630486,,,,,,,,0.03,0.05,1.02,-3.0,-0.8,-0.1,0,0,,,,,,,,,,,,,,,,,,,
50953,1506823630506,,,,,,,,0.03,0.05,1.02,-3.0,-0.8,-0.1,0,0,,,,,,,,,,,,,,,,,,,
50973,1506823630526,,,,,0,,,0.03,0.05,1.02,-3.0,-0.8,-0.1,0,0,1,1,0.0,0,35.489849,-119.546051,0.0,0.0,217.4,10,3,1.6,0,0.0,-1,0.0,0.0,0.0,0
50993,1506823630546,,,,,,,,0.03,0.05,1.02,-3.0,-0.8,-0.1,0,0,,,,,,,,,,,,,,,,,,,
51013,1506823630566,,,,,,,,0.03,0.05,1.02,-3.0,-0.8,-0.1,0,0,,,,,,,,,,,,,,,,,,,
51033,1506823630586,,,,,,,,0.03,0.05,1.02,-3.0,-0.8,-0.1,0,0,,,,,,,,,,,,,,,,,,,
51053,1506823630606,,,,,,,,0.03,0.05,1.02,-3.0,-0.8,-0.1,0,0,,,,,,,,,,,,,,,,,,,
51073,1506823630626,0,122.0,-0.7,128.1,0,130.6,13.03,0.03,0.05,1.02,-3.0,-0.7,-0.1,0,0,1,1,0.0,0,35.489849,-119.546051,0.0,0.0,217.4,10,3,1.6,0,0.0,-1,0.0,0.0,0.0,0
51093,1506823630646,,,,,,,,0.03,0.05,1.03,-3.0,-0.7,-0.1,0,0,,,,,,,,,,,,,,,,,,,
51113,1506823630666,,,,,,,,0.03,0.05,1.02,-3.0,-0.8,-0.1,0,0,,,,,,,,,,,,,,,,,,,
51133,1506823630686,,,,,,,,0.03,0.05,1.03,-3.0,-0.8,-0.1,0,0,,,,,,,,,,,,,,,,,,,
51153,1506823630706,,,,,,,,0.03,0.05,1.02,-3.0,-0.8,-0.1,0,0,,,,,,,,,,,,,,,,,,,
51173,1506823630726,,,,,0,,,0.03,0.05,1.02,-3.0,-0.8,-0.1,0,0,1,1,0.0,0,35.489849,-119.546051,0.0,0.0,217.4,10,3,1.6,0,0.0,-1,0.0,0.0,0.0,0
51193,1506823630746,,,,,,,,0.03,0.05,1.02,-3.0,-0.8,-0.1,0,0,,,,,,,,,,,,,,,,,,,
51213,1506823630766,,,,,,,,0.03,0.05,1.03,-3.0,-0.8,-0.1,0,0,,,,,,,,,,,,,,,,,,,
51233,1506823630786,,,,,,,,0.03,0.05,1.03,-3.0,-0.8,-0.1,0,0,,,,,,,,,,,,,,,,,,,
51253,1506823630806,,,,,,,,0.03,0.05,1.03,-3.0,-0.8,-0.1,0,0,,,,,,,,,,,,,,,,,,,
51273,1506823630826,0,122.9,,128.7,0,129.9,,0.03,0.05,1.02,-3.0,-0.8,-0.1,0,0,1,1,0.0,0,35.489849,-119.546051,0.0,0.0,217.4,10,3,1.6,0,0.0,-1,0.0,0.0,0.0,0
51293,1506823630846,,,,,,,,0.03,0.05,1.02,-3.0,-0.8,-0.1,0,0,,,,,,,,,,,,,,,,,,,
51313,1506823630866,,,,,,,,0.03,0.05,1.02,-3.0,-0.8,-0.1,0,0,,,,,,,,,,,,,,,,,,,
51333,1506823630886,,,,,,,,0.03,0.05,1.03,-3.0,-0.8,-0.1,0,0,,,,,,,,,,,,,,,,,,,
51353,1506823630905,,,,,,,,0.03,0.05,1.03,-3.0,-0.8,-0.1,0,0,,,,,,,,,,,,,,,,,,,
51373,1506823630925,,,,,0,,,0.03,0.05,1.02,-3.0,-0.8,-0.1,0,0,1,1,0.0,0,35.489849,-119.546051,0.0,0.0,217.4,10,3,1.6,0,0.0,-1,0.0,0.0,0.0,0
51393,1506823630945,,,,,,,,0.03,0.05,1.02,-3.0,-0.8,-0.1,0,0,,,,,,,,,,,,,,,,,,,
51413,1506823630965,,,,,,,,0.03,0.05,1.02,-3.0,-0.8,-0.1,0,0,,,,,,,,,,,,,,,,,,,
51433,1506823630985,,,,,,,,0.03,0.05,1.02,-3.0,-0.8,-0.1,0,0,,,,,,,,,,,,,,,,,,,
51453,1506823630999,,,,,,,,0.03,0.05,1.02,-3.0,-0.8,-0.1,0,0,,,,,,,,,,,,,,,,,,,
51473,1506823631019,0,122.8,,128.8,0,130.0,,0.03,0.05,1.02,-3.0,-0.8,-0.1,0,0,1,1,0.0,0,35.489849,-119.546051,0.0,0.0,217.4,10,3,1.6,0,0.0,-1,0.0,0.0,0.0,0
51493,1506823631039,,,,,,,,0.03,0.05,1.02,-3.0,-0.8,-0.1,0,0,,,,,,,,,,,,,,,,,,,
51513,1506823631059,,,,,,,,0.03,0.05,1.02,-3.0,-0.8,-0.1,0,0,,,,,,,,,,,,,,,,,,,
51533,1506823631079,,,,,,,,0.03,0.05,1.02,-3.0,-0.8,-0.1,0,0,,,,,,,,,,,,,,,,,,,
51553,1506823631105,,,,,,,,0.03,0.05,1.02,-3.0,-0.8,-0.1,0,0,,,,,,,,,,,,,,,,,,,
51573,1506823631125,,,,,0,,,0.03,0.05,1.02,-3.0,-0.8,-0.1,0,0,1,1,0.0,0,35.489849,-119.546051,0.0,0.0,217.4,10,3,1.6,0,0.0,-1,0.0,0.0,0.0,0
51593,1506823631145,,,,,,,,0.03,0.05,1.02,-3.0,-0.8,-0.1,0,0,,,,,,,,,,,,,,,,,,,
51613,1506823631165,,,,,,,,0.03,0.05,1.02,-3.0,-0.8,-0.1,0,0,,,,,,,,,,,,,,,,,,,
51633,1506823631185,,,,,,,,0.03,0.05,1.03,-3.0,-0.8,-0.1,0,0,,,,,,,,,,,,,,,,,,,
51653,1506823631205,,,,,,,,0.03,0.05,1.03,-3.0,-0.8,-0.1,0,0,,,,,,,,,,,,,,,,,,,
51673,1506823631225,0,121.9,,128.0,0,130.6,,0.03,0.05,1.02,-3.0,-0.8,-0.0,0,0,1,1,0.0,0,35.489849,-119.546051,0.0,0.0,217.4,10,3,1.6,0,0.0,-1,0.0,0.0,0.0,0
51693,1506823631245,,,,,,,,0.03,0.05,1.02,-3.0,-0.8,-0.0,0,0,,,,,,,,,,,,,,,,,,,
51713,1506823631265,,,,,,,,0.03,0.05,1.02,-3.0,-0.8,-0.0,0,0,,,,,,,,,,,,,,,,,,,
51733,1506823631285,,,,,,,,0.03,0.05,1.02,-3.0,-0.8,-0.0,0,0,,,,,,,,,,,,,,,,,,,
51753,1506823631305,,,,,,,,0.03,0.05,1.02,-3.0,-0.8,-0.0,0,0,,,,,,,,,,,,,,,,,,,
51773,1506823631325,,,,,0,,,0.03,0.05,1.02,-3.0,-0.8,-0.1,0,0,1,1,0.0,0,35.489849,-119.546051,0.0,0.0,217.4,10,3,1.6,0,0.0,-1,0.0,0.0,0.0,0
51793,1506823631345,,,,,,,,0.03,0.05,1.03,-3.0,-0.8,-0.1,0,0,,,,,,,,,,,,,,,,,,,
51813,1506823631365,,,,,,,,0.03,0.05,1.02,-3.0,-0.8,-0.1,0,0,,,,,,,,,,,,,,,,,,,
51833,1506823631385,,,,,,,,0.03,0.05,1.02,-3.0,-0.8,-0.1,0,0,,,,,,,,,,,,,,,,,,,
51853,1506823631401,,,,,,,,0.03,0.05,1.02,-3.0,-0.8,-0.1,0,0,,,,,,,,,,,,,,,,,,,
51873,1506823631421,0,122.7,,128.3,0,129.8,,0.03,0.05,1.02,-3.0,-0.8,-0.1,0,0,1,1,0.0,0,35.489849,-119.546051,0.0,0.0,217.4,10,3,1.6,0,0.0,-1,0.0,0.0,0.0,0
51893,1506823631441,,,,,,,,0.03,0.05,1.02,-3.1,-0.8,-0.0,0,0,,,,,,,,,,,,,,,,,,,
51913,1506823631461,,,,,,,,0.03,0.05,1.02,-3.1,-0.8,-0.0,0,0,,,,,,,,,,,,,,,,,,,
51933,1506823631481,,,,,,,,0.03,0.05,1.02,-3.1,-0.8,-0.1,0,0,,,,,,,,,,,,,,,,,,,
51953,1506823631505,,,,,,,,0.03,0.05,1.02,-3.1,-0.8,-0.1,0,0,,,,,,,,,,,,,,,,,,,
51973,1506823631525,,,,,0,,,0.03,0.05,1.02,-3.1,-0.7,-0.1,0,0,1,1,0.0,0,35.489849,-119.546051,0.0,0.0,217.4,10,3,1.6,0,0.0,-1,0.0,0.0,0.0,0
51993,1506823631545,,,,,,,,0.03,0.05,1.02,-3.0,-0.7,-0.1,0,0,,,,,,,,,,,,,,,,,,,
52013,1506823631565,,,,,,,,0.03,0.05,1.02,-3.0,-0.7,-0.0,0,0,,,,,,,,,,,,,,,,,,,
52033,1506823631585,,,,,,,,0.03,0.05,1.02,-3.0,-0.7,-0.1,0,0,,,,,,,,,,,,,,,,,,,
52053,1506823631605,,,,,,,,0.03,0.05,1.02,-3.0,-0.7,-0.1,0,0,,,,,,,,,,,,,,,,,,,
52073,1506823631625,0,122.8,-0.7,128.4,0,129.9,13.03,0.03,0.05,1.02,-3.0,-0.7,-0.0,0,0,1,1,0.0,0,35.489849,-119.546051,0.0,0.0,217.4,10,3,1.6,0,0.0,-1,0.0,0.0,0.0,0
52093,1506823631645,,,,,,,,0.03,0.05,1.02,-3.0,-0.7,-0.0,0,0,,,,,,,,,,,,,,,,,,,
52113,1506823631665,,,,,,,,0.03,0.05,1.02,-3.0,-0.7,-0.1,0,0,,,,,,,,,,,,,,,,,,,
52133,1506823631685,,,,,,,,0.03,0.05,1.02,-3.0,-0.7,-0.1,0,0,,,,,,,,,,,,,,,,,,,
52153,1506823631705,,,,,,,,0.03,0.05,1.02,-3.0,-0.8,-0.1,0,0,,,,,,,,,,,,,,,,,,,
52173,1506823631725,,,,,0,,,0.03,0.05,1.02,-3.0,-0.7,-0.1,0,0,1,1,0.0,0,35.489849,-119.546051,0.0,0.0,217.4,10,3,1.6,0,0.0,-1,0.0,0.0,0.0,0
52193,1506823631745,,,,,,,,0.03,0.05,1.02,-3.0,-0.7,-0.1,0,0,,,,,,,,,,,,,,,,,,,
52213,1506823631765,,,,,,,,0.03,0.05,1.02,-3.0,-0.7,-0.1,0,0,,,,,,,,,,,,,,,,,,,
52233,1506823631785,,,,,,,,0.03,0.05,1.02,-3.0,-0.7,-0.1,0,0,,,,,,,,,,,,,,,,,,,
52253,1506823631805,,,,,,,,0.03,0.05,1.03,-3.0,-0.7,-0.0,0,0,,,,,,,,,,,,,,,,,,,
52273,1506823631825,0,121.9,,128.0,0,130.4,,0.03,0.05,1.03,-3.0,-0.7,-0.0,0,0,1,1,0.0,0,35.489849,-119.546051,0.0,0.0,217.4,10,3,1.6,0,0.0,-1,0.0,0.0,0.0,0
52293,1506823631845,,,,,,,,0.03,0.05,1.03,-3.0,-0.7,-0.1,0,0,,,,,,,,,,,,,,,,,,,
52313,1506823631865,,,,,,,,0.03,0.05,1.03,-3.0,-0.7,-0.0,0,0,,,,,,,,,,,,,,,,,,,
52333,1506823631885,,,,,,,,0.03,0.05,1.03,-3.0,-0.7,-0.0,0,0,,,,,,,,,,,,,,,,,,,
52353,1506823631904,,,,,,,,0.03,0.05,1.03,-3.0,-0.7,-0.0,0,0,,,,,,,,,,,,,,,,,,,
52373,1506823631924,,,,,0,,,0.03,0.05,1.03,-3.0,-0.7,-0.0,0,0,1,1,0.0,0,35.489849,-119.546051,0.0,0.0,217.4,10,3,1.6,0,0.0,-1,0.0,0.0,0.0,0
52393,1506823631944,,,,,,,,0.03,0.05,1.03,-3.0,-0.7,-0.1,0,0,,,,,,,,,,,,,,,,,,,
52413,1506823631964,,,,,,,,0.03,0.05,1.03,-3.0,-0.7,-0.1,0,0,,,,,,,,,,,,,,,,,,,
52433,1506823631984,,,,,,,,0.03,0.05,1.02,-3.0,-0.7,-0.1,0,0,,,,,,,,,,,,,,,,,,,
52453,1506823632000,,,,,,,,0.03,0.05,1.02,-3.0,-0.7,-0.1,0,0,,,,,,,,,,,,,,,,,,,
52473,1506823632020,0,123.2,,129.3,0,131.0,,0.03,0.05,1.02,-3.0,-0.7,-0.0,0,0,1,1,0.0,0,35.489849,-119.546051,0.0,0.0,217.4,10,3,1.6,0,0.0,-1,0.0,0.0,0.0,0
52493,1506823632040,,,,,,,,0.03,0.05,1.02,-3.0,-0.7,-0.0,0,0,,,,,,,,,,,,,,,,,,,
52513,1506823632060,,,,,,,,0.03,0.05,1.02,-3.0,-0.7,-0.0,0,0,,,,,,,,,,,,,,,,,,,
52533,1506823632080,,,,,,,,0.03,0.05,1.02,-3.0,-0.7,-0.0,0,0,,,,,,,,,,,,,,,,,,,
52553,1506823632104,,,,,,,,0.03,0.05,1.02,-3.0,-0.7,-0.0,0,0,,,,,,,,,,,,,,,,,,,
52573,1506823632124,,,,,0,,,0.03,0.05,1.02,-3.0,-0.7,-0.0,0,0,1,1,0.0,0,35.489849,-119.546051,0.0,0.0,217.4,10,3,1.6,0,0.0,-1,0.0,0.0,0.0,0
52593,1506823632144,,,,,,,,0.03,0.05,1.02,-3.0,-0.7,-0.0,0,0,,,,,,,,,,,,,,,,,,,
52613,1506823632164,,,,,,,,0.03,0.05,1.02,-3.0,-0.7,-0.0,0,0,,,,,,,,,,,,,,,,,,,
52633,1506823632184,,,,,,,,0.03,0.05,1.02,-3.0,-0.7,-0.0,0,0,,,,,,,,,,,,,,,,,,,
52653,1506823632204,,,,,,,,0.03,0.05,1.02,-3.0,-0.7,-0.0,0,0,,,,,,,,,,,,,,,,,,,
52673,1506823632224,0,121.8,,127.8,0,130.1,,0.03,0.05,1.02,-3.0,-0.7,-0.0,0,0,1,1,0.0,0,35.489849,-119.546051,0.0,0.0,217.4,10,3,1.6,0,0.0,-1,0.0,0.0,0.0,0
52693,1506823632244,,,,,,,,0.03,0.05,1.02,-3.0,-0.7,-0.0,0,0,,,,,,,,,,,,,,,,,,,
52713,1506823632264,,,,,,,,0.03,0.05,1.02,-3.0,-0.8,-0.0,0,0,,,,,,,,,,,,,,,,,,,
52733,1506823632284,,,,,,,,0.03,0.05,1.02,-3.0,-0.8,-0.0,0,0,,,,,,,,,,,,,,,,,,,
52753,1506823632304,,,,,,,,0.03,0.05,1.02,-3.0,-0.8,-0.0,0,0,,,,,,,,,,,,,,,,,,,
52773,1506823632324,,,,,0,,,0.03,0.05,1.02,-3.0,-0.8,-0.0,0,0,1,1,0.0,0,35.489849,-119.546051,0.0,0.0,217.4,10,3,1.6,0,0.0,-1,0.0,0.0,0.0,0
52793,1506823632344,,,,,,,,0.03,0.05,1.02,-3.0,-0.8,-0.0,0,0,,,,,,,,,,,,,,,,,,,
52813,1506823632364,,,,,,,,0.03,0.05,1.02,-3.0,-0.8,-0.0,0,0,,,,,,,,,,,,,,,,,,,
52833,1506823632384,,,,,,,,0.03,0.05,1.02,-3.0,-0.8,-0.0,0,0,,,,,,,,,,,,,,,,,,,
52853,1506823632406,,,,,,,,0.03,0.05,1.02,-3.0,-0.8,-0.0,0,0,,,,,,,,,,,,,,,,,,,
52873,1506823632426,0,123.0,,129.3,0,131.1,,0.03,0.05,1.02,-3.0,-0.8,-0.1,0,0,1,1,0.0,0,35.489849,-119.546051,0.0,0.0,217.4,10,3,1.6,0,0.0,-1,0.0,0.0,0.0,0
52893,1506823632446,,,,,,,,0.03,0.05,1.02,-3.0,-0.8,-0.1,0,0,,,,,,,,,,,,,,,,,,,
52913,1506823632466,,,,,,,,0.03,0.05,1.02,-3.0,-0.8,-0.1,0,0,,,,,,,,,,,,,,,,,,,
52933,1506823632486,,,,,,,,0.03,0.05,1.02,-3.0,-0.8,-0.1,0,0,,,,,,,,,,,,,,,,,,,
52953,1506823632506,,,,,,,,0.03,0.05,1.02,-3.0,-0.8,-0.1,0,0,,,,,,,,,,,,,,,,,,,
52973,1506823632526,,,,,0,,,0.03,0.05,1.02,-3.0,-0.8,-0.1,0,0,1,1,0.0,0,35.489849,-119.546051,0.0,0.0,217.4,10,3,1.6,0,0.0,-1,0.0,0.0,0.0,0
52993,1506823632546,,,,,,,,0.03,0.05,1.02,-3.0,-0.8,-0.1,0,0,,,,,,,,,,,,,,,,,,,
53013,1506823632566,,,,,,,,0.03,0.05,1.02,-3.0,-0.8,-0.1,0,0,,,,,,,,,,,,,,,,,,,
53033,1506823632586,,,,,,,,0.03,0.05,1.02,-3.0,-0.8,-0.1,0,0,,,,,,,,,,,,,,,,,,,
53053,1506823632606,,,,,,,,0.03,0.05,1.02,-3.0,-0.8,-0.1,0,0,,,,,,,,,,,,,,,,,,,
53073,1506823632626,0,122.4,-0.6,128.9,0,130.9,13.02,0.03,0.05,1.02,-3.0,-0.8,-0.1,0,0,1,1,0.0,0,35.489849,-119.546051,0.0,0.0,217.4,10,3,1.6,0,0.0,-1,0.0,0.0,0.0,0
53093,1506823632646,,,,,,,,0.03,0.05,1.02,-3.0,-0.8,-0.1,0,0,,,,,,,,,,,,,,,,,,,
53113,1506823632666,,,,,,,,0.03,0.05,1.02,-3.0,-0.8,-0.1,0,0,,,,,,,,,,,,,,,,,,,
53133,1506823632686,,,,,,,,0.03,0.05,1.02,-3.0,-0.8,-0.0,0,0,,,,,,,,,,,,,,,,,,,
53153,1506823632704,,,,,,,,0.03,0.05,1.02,-3.0,-0.8,-0.0,0,0,,,,,,,,,,,,,,,,,,,
53173,1506823632724,,,,,0,,,0.03,0.05,1.02,-3.0,-0.8,-0.0,0,0,1,1,0.0,0,35.489849,-119.546051,0.0,0.0,217.4,10,3,1.6,0,0.0,-1,0.0,0.0,0.0,0
53193,1506823632744,,,,,,,,0.03,0.05,1.02,-3.0,-0.8,-0.0,0,0,,,,,,,,,,,,,,,,,,,
53213,1506823632764,,,,,,,,0.03,0.05,1.02,-3.0,-0.8,-0.0,0,0,,,,,,,,,,,,,,,,,,,
53233,1506823632784,,,,,,,,0.03,0.05,1.02,-3.0,-0.8,-0.0,0,0,,,,,,,,,,,,,,,,,,,
53253,1506823632806,,,,,,,,0.03,0.05,1.02,-3.0,-0.8,-0.0,0,0,,,,,,,,,,,,,,,,,,,
53273,1506823632826,0,123.0,,128.8,0,130.4,,0.03,0.05,1.02,-3.0,-0.8,-0.0,0,0,1,1,0.0,0,35.489849,-119.546051,0.0,0.0,217.4,10,3,1.6,0,0.0,-1,0.0,0.0,0.0,0
53293,1506823632846,,,,,,,,0.03,0.05,1.03,-3.0,-0.8,-0.1,0,0,,,,,,,,,,,,,,,,,,,
53313,1506823632866,,,,,,,,0.03,0.05,1.03,-3.0,-0.8,-0.0,0,0,,,,,,,,,,,,,,,,,,,
53333,1506823632886,,,,,,,,0.03,0.05,1.03,-3.0,-0.8,-0.0,0,0,,,,,,,,,,,,,,,,,,,
53353,1506823632905,,,,,,,,0.03,0.05,1.02,-3.0,-0.8,-0.1,0,0,,,,,,,,,,,,,,,,,,,
53373,1506823632925,,,,,0,,,0.03,0.05,1.02,-2.9,-0.8,-0.1,0,0,1,1,0.0,0,35.489849,-119.546051,0.0,0.0,217.4,10,3,1.6,0,0.0,-1,0.0,0.0,0.0,0
53393,1506823632945,,,,,,,,0.03,0.05,1.02,-3.0,-0.8,-0.0,0,0,,,,,,,,,,,,,,,,,,,
53413,1506823632965,,,,,,,,0.03,0.05,1.02,-2.9,-0.8,-0.0,0,0,,,,,,,,,,,,,,,,,,,
53433,1506823632985,,,,,,,,0.03,0.05,1.02,-3.0,-0.8,-0.0,0,0,,,,,,,,,,,,,,,,,,,
53453,1506823632999,,,,,,,,0.03,0.05,1.02,-3.0,-0.8,-0.0,0,0,,,,,,,,,,,,,,,,,,,
53473,1506823633019,0,122.8,,128.5,0,129.9,,0.03,0.05,1.02,-3.0,-0.8,-0.0,0,0,1,1,0.0,0,35.489849,-119.546051,0.0,0.0,217.4,10,3,1.6,0,0.0,-1,0.0,0.0,0.0,0
53493,1506823633039,,,,,,,,0.03,0.05,1.02,-3.0,-0.8,-0.0,0,0,,,,,,,,,,,,,,,,,,,
53513,1506823633059,,,,,,,,0.03,0.05,1.02,-3.0,-0.8,-0.0,0,0,,,,,,,,,,,,,,,,,,,
53533,1506823633079,,,,,,,,0.03,0.05,1.03,-3.0,-0.7,-0.0,0,0,,,,,,,,,,,,,,,,,,,
53553,1506823633105,,,,,,,,0.03,0.05,1.02,-3.0,-0.8,-0.1,0,0,,,,,,,,,,,,,,,,,,,
53573,1506823633125,,,,,0,,,0.03,0.05,1.03,-3.0,-0.8,-0.1,0,0,1,1,0.0,0,35.489849,-119.546051,0.0,0.0,217.4,10,3,1.6,0,0.0,-1,0.0,0.0,0.0,0
53593,1506823633145,,,,,,,,0.03,0.05,1.03,-3.0,-0.8,-0.1,0,0,,,,,,,,,,,,,,,,,,,
53613,1506823633165,,,,,,,,0.03,0.05,1.03,-2.9,-0.7,-0.1,0,0,,,,,,,,,,,,,,,,,,,
53633,1506823633185,,,,,,,,0.03,0.05,1.03,-3.0,-0.7,-0.1,0,0,,,,,,,,,,,,,,,,,,,
53653,1506823633205,,,,,,,,0.03,0.05,1.03,-3.0,-0.7,-0.1,0,0,,,,,,,,,,,,,,,,,,,
53673,1506823633225,0,122.2,,128.0,0,130.0,,0.03,0.05,1.03,-3.0,-0.7,-0.1,0,0,1,1,0.0,0,35.489849,-119.546051,0.0,0.0,217.4,10,3,1.6,0,0.0,-1,0.0,0.0,0.0,0
53693,1506823633245,,,,,,,,0.03,0.05,1.03,-3.0,-0.7,-0.1,0,0,,,,,,,,,,,,,,,,,,,
53713,1506823633265,,,,,,,,0.03,0.05,1.03,-3.0,-0.7,-0.0,0,0,,,,,,,,,,,,,,,,,,,
53733,1506823633285,,,,,,,,0.03,0.05,1.03,-3.0,-0.7,-0.1,0,0,,,,,,,,,,,,,,,,,,,
53753,1506823633305,,,,,,,,0.03,0.05,1.03,-3.0,-0.7,-0.1,0,0,,,,,,,,,,,,,,,,,,,
53773,1506823633325,,,,,0,,,0.03,0.05,1.03,-3.0,-0.7,-0.0,0,0,1,1,0.0,0,35.489849,-119.546051,0.0,0.0,217.4,10,3,1.6,0,0.0,-1,0.0,0.0,0.0,0
53793,1506823633345,,,,,,,,0.03,0.05,1.03,-3.0,-0.7,-0.1,0,0,,,,,,,,,,,,,,,,,,,
53813,1506823633365,,,,,,,,0.03,0.05,1.03,-3.0,-0.7,-0.1,0,0,,,,,,,,,,,,,,,,,,,
53833,1506823633385,,,,,,,,0.03,0.05,1.03,-3.0,-0.7,-0.1,0,0,,,,,,,,,,,,,,,,,,,
53853,1506823633405,,,,,,,,0.03,0.05,1.03,-3.0,-0.7,-0.1,0,0,,,,,,,,,,,,,,,,,,,
53873,1506823633425,0,123.0,,129.2,0,131.1,,0.03,0.05,1.03,-3.0,-0.7,-0.0,0,0,1,1,0.0,0,35.489849,-119.546051,0.0,0.0,217.4,10,3,1.6,0,0.0,-1,0.0,0.0,0.0,0
53893,1506823633445,,,,,,,,0.03,0.05,1.03,-3.0,-0.7,-0.0,0,0,,,,,,,,,,,,,,,,,,,
53913,1506823633465,,,,,,,,0.03,0.05,1.03,-3.0,-0.7,-0.0,0,0,,,,,,,,,,,,,,,,,,,
53933,1506823633485,,,,,,,,0.03,0.05,1.03,-3.0,-0.7,-0.0,0,0,,,,,,,,,,,,,,,,,,,
53953,1506823633503,,,,,,,,0.03,0.05,1.03,-3.0,-0.7,-0.1,0,0,,,,,,,,,,,,,,,,,,,
53973,1506823633523,,,,,0,,,0.03,0.05,1.03,-3.0,-0.7,-0.1,0,0,1,1,0.0,0,35.489849,-119.546051,0.0,0.0,217.4,10,3,1.6,0,0.0,-1,0.0,0.0,0.0,0
53993,1506823633543,,,,,,,,0.03,0.05,1.03,-3.0,-0.7,-0.1,0,0,,,,,,,,,,,,,,,,,,,
54013,1506823633563,,,,,,,,0.03,0.05,1.03,-3.0,-0.7,-0.1,0,0,,,,,,,,,,,,,,,,,,,
54033,1506823633583,,,,,,,,0.03,0.05,1.03,-3.0,-0.7,-0.1,0,0,,,,,,,,,,,,,,,,,,,
54053,1506823633603,,,,,,,,0.03,0.05,1.03,-3.0,-0.7,-0.1,0,0,,,,,,,,,,,,,,,,,,,
54073,1506823633623,0,123.0,-0.6,129.2,0,130.4,13.04,0.03,0.05,1.02,-3.0,-0.7,-0.0,0,0,1,1,0.0,0,35.489849,-119.546051,0.0,0.0,217.4,10,3,1.6,0,0.0,-1,0.0,0.0,0.0,0
54093,1506823633643,,,,,,,,0.03,0.05,1.02,-3.0,-0.7,-0.0,0,0,,,,,,,,,,,,,,,,,,,
54113,1506823633663,,,,,,,,0.03,0.05,1.02,-3.0,-0.7,-0.0,0,0,,,,,,,,,,,,,,,,,,,
54133,1506823633683,,,,,,,,0.03,0.05,1.02,-3.0,-0.7,-0.0,0,0,,,,,,,,,,,,,,,,,,,
54153,1506823633697,,,,,,,,0.03,0.05,1.02,-3.0,-0.7,-0.0,0,0,,,,,,,,,,,,,,,,,,,
54173,1506823633717,,,,,0,,,0.03,0.05,1.02,-3.0,-0.7,-0.0,0,0,1,1,0.0,0,35.489849,-119.546051,0.0,0.0,217.4,10,3,1.6,0,0.0,-1,0.0,0.0,0.0,0
54193,1506823633737,,,,,,,,0.03,0.05,1.02,-3.0,-0.7,-0.0,0,0,,,,,,,,,,,,,,,,,,,
54213,1506823633757,,,,,,,,0.03,0.05,1.02,-3.0,-0.7,-0.0,0,0,,,,,,,,,,,,,,,,,,,
54233,1506823633777,,,,,,,,0.03,0.05,1.02,-3.0,-0.8,-0.0,0,0,,,,,,,,,,,,,,,,,,,
54253,1506823633803,,,,,,,,0.03,0.05,1.02,-3.0,-0.7,-0.1,0,0,,,,,,,,,,,,,,,,,,,
54273,1506823633823,0,123.3,,129.3,0,130.9,,0.03,0.05,1.02,-3.0,-0.7,-0.1,0,0,1,1,0.0,0,35.489849,-119.546051,0.0,0.0,217.4,10,3,1.6,0,0.0,-1,0.0,0.0,0.0,0
54293,1506823633843,,,,,,,,0.03,0.05,1.02,-3.0,-0.8,-0.1,0,0,,,,,,,,,,,,,,,,,,,
54313,1506823633863,,,,,,,,0.03,0.05,1.02,-3.0,-0.8,-0.1,0,0,,,,,,,,,,,,,,,,,,,
54333,1506823633883,,,,,,,,0.03,0.05,1.02,-3.0,-0.8,-0.1,0,0,,,,,,,,,,,,,,,,,,,
54353,1506823633904,,,,,,,,0.03,0.05,1.02,-3.0,-0.8,-0.1,0,0,,,,,,,,,,,,,,,,,,,
54373,1506823633924,,,,,0,,,0.03,0.05,1.02,-3.0,-0.8,-0.1,0,0,1,1,0.0,0,35.489849,-119.546051,0.0,0.0,217.4,10,3,1.6,0,0.0,-1,0.0,0.0,0.0,0
54393,1506823633944,,,,,,,,0.03,0.05,1.02,-3.0,-0.8,-0.1,0,0,,,,,,,,,,,,,,,,,,,
54413,1506823633964,,,,,,,,0.03,0.05,1.02,-3.0,-0.8,-0.1,0,0,,,,,,,,,,,,,,,,,,,
54433,1506823633984,,,,,,,,0.03,0.05,1.02,-3.0,-0.8,-0.1,0,0,,,,,,,,,,,,,,,,,,,
54453,1506823634000,,,,,,,,0.03,0.05,1.02,-3.0,-0.8,-0.1,0,0,,,,,,,,,,,,,,,,,,,
54473,1506823634020,0,123.0,,128.9,0,130.2,,0.03,0.05,1.02,-3.0,-0.8,-0.1,0,0,1,1,0.0,0,35.489849,-119.546051,0.0,0.0,217.4,10,3,1.6,0,0.0,-1,0.0,0.0,0.0,0
54493,1506823634040,,,,,,,,0.03,0.05,1.02,-3.0,-0.7,-0.1,0,0,,,,,,,,,,,,,,,,,,,
54513,1506823634060,,,,,,,,0.03,0.05,1.02,-3.0,-0.7,-0.1,0,0,,,,,,,,,,,,,,,,,,,
54533,1506823634080,,,,,,,,0.03,0.05,1.02,-3.0,-0.7,-0.1,0,0,,,,,,,,,,,,,,,,,,,
54553,1506823634104,,,,,,,,0.03,0.05,1.02,-3.0,-0.7,-0.1,0,0,,,,,,,,,,,,,,,,,,,
54573,1506823634124,,,,,0,,,0.03,0.05,1.02,-3.0,-0.7,-0.1,0,0,1,1,0.0,0,35.489849,-119.546051,0.0,0.0,217.4,10,3,1.6,0,0.0,-1,0.0,0.0,0.0,0
54593,1506823634144,,,,,,,,0.03,0.05,1.02,-3.0,-0.7,-0.1,0,0,,,,,,,,,,,,,,,,,,,
54613,1506823634164,,,,,,,,0.03,0.05,1.02,-3.0,-0.7,-0.1,0,0,,,,,,,,,,,,,,,,,,,
54633,1506823634184,,,,,,,,0.03,0.05,1.02,-3.0,-0.7,-0.1,0,0,,,,,,,,,,,,,,,,,,,
54653,1506823634206,,,,,,,,0.03,0.05,1.02,-3.0,-0.7,-0.0,0,0,,,,,,,,,,,,,,,,,,,
54673,1506823634226,0,122.2,,128.0,0,129.9,,0.03,0.05,1.02,-3.0,-0.7,-0.1,0,0,1,1,0.0,0,35.489849,-119.546051,0.0,0.0,217.4,10,3,1.6,0,0.0,-1,0.0,0.0,0.0,0
54693,1506823634246,,,,,,,,0.03,0.05,1.02,-3.0,-0.7,-0.1,0,0,,,,,,,,,,,,,,,,,,,
54713,1506823634266,,,,,,,,0.03,0.05,1.02,-3.0,-0.7,-0.1,0,0,,,,,,,,,,,,,,,,,,,
54733,1506823634286,,,,,,,,0.03,0.05,1.02,-3.0,-0.7,-0.1,0,0,,,,,,,,,,,,,,,,,,,
54753,1506823634306,,,,,,,,0.03,0.05,1.03,-3.0,-0.7,-0.1,0,0,,,,,,,,,,,,,,,,,,,
54773,1506823634326,,,,,0,,,0.03,0.05,1.03,-3.0,-0.7,-0.1,0,0,1,1,0.0,0,35.489849,-119.546051,0.0,0.0,217.4,10,3,1.6,0,0.0,-1,0.0,0.0,0.0,0
54793,1506823634346,,,,,,,,0.03,0.05,1.03,-3.0,-0.7,-0.1,0,0,,,,,,,,,,,,,,,,,,,
54813,1506823634366,,,,,,,,0.03,0.05,1.03,-3.0,-0.7,-0.1,0,0,,,,,,,,,,,,,,,,,,,
54833,1506823634386,,,,,,,,0.03,0.05,1.02,-3.0,-0.7,-0.1,0,0,,,,,,,,,,,,,,,,,,,
54853,1506823634404,,,,,,,,0.03,0.05,1.03,-3.0,-0.7,-0.1,0,0,,,,,,,,,,,,,,,,,,,
54873,1506823634424,0,123.1,,129.1,0,130.6,,0.03,0.05,1.03,-3.0,-0.7,-0.1,0,0,1,1,0.0,0,35.489849,-119.546051,0.0,0.0,217.4,10,3,1.6,0,0.0,-1,0.0,0.0,0.0,0
54893,1506823634444,,,,,,,,0.03,0.05,1.02,-3.0,-0.7,-0.1,0,0,,,,,,,,,,,,,,,,,,,
54913,1506823634464,,,,,,,,0.03,0.05,1.02,-3.0,-0.7,-0.1,0,0,,,,,,,,,,,,,,,,,,,
54933,1506823634484,,,,,,,,0.03,0.05,1.02,-3.0,-0.7,-0.1,0,0,,,,,,,,,,,,,,,,,,,
54953,1506823634506,,,,,,,,0.03,0.05,1.02,-3.0,-0.8,-0.1,0,0,,,,,,,,,,,,,,,,,,,
54973,1506823634526,,,,,0,,,0.03,0.05,1.02,-3.0,-0.8,-0.1,0,0,1,1,0.0,0,35.489849,-119.546051,0.0,0.0,217.4,10,3,1.6,0,0.0,-1,0.0,0.0,0.0,0
54993,1506823634546,,,,,,,,0.03,0.05,1.02,-3.0,-0.7,-0.1,0,0,,,,,,,,,,,,,,,,,,,
55013,1506823634566,,,,,,,,0.03,0.05,1.02,-3.0,-0.8,-0.1,0,0,,,,,,,,,,,,,,,,,,,
55033,1506823634586,,,,,,,,0.03,0.05,1.02,-3.0,-0.8,-0.1,0,0,,,,,,,,,,,,,,,,,,,
55053,1506823634606,,,,,,,,0.03,0.05,1.03,-3.0,-0.7,-0.1,0,0,,,,,,,,,,,,,,,,,,,
55073,1506823634626,0,122.5,-0.6,129.1,0,131.3,13.02,0.03,0.05,1.02,-3.0,-0.7,-0.1,0,0,1,1,0.0,0,35.489849,-119.546051,0.0,0.0,217.4,10,3,1.6,0,0.0,-1,0.0,0.0,0.0,0
55093,1506823634646,,,,,,,,0.03,0.05,1.02,-3.0,-0.7,-0.1,0,0,,,,,,,,,,,,,,,,,,,
55113,1506823634666,,,,,,,,0.03,0.05,1.02,-3.0,-0.7,-0.1,0,0,,,,,,,,,,,,,,,,,,,
55133,1506823634686,,,,,,,,0.03,0.05,1.02,-3.0,-0.7,-0.1,0,0,,,,,,,,,,,,,,,,,,,
55153,1506823634706,,,,,,,,0.03,0.05,1.02,-3.0,-0.7,-0.1,0,0,,,,,,,,,,,,,,,,,,,
55173,1506823634726,,,,,0,,,0.03,0.05,1.02,-3.0,-0.7,-0.1,0,0,1,1,0.0,0,35.489849,-119.546051,0.0,0.0,217.4,10,3,1.6,0,0.0,-1,0.0,0.0,0.0,0
55193,1506823634746,,,,,,,,0.03,0.05,1.03,-3.0,-0.7,-0.1,0,0,,,,,,,,,,,,,,,,,,,
55213,1506823634766,,,,,,,,0.03,0.05,1.02,-3.0,-0.7,-0.1,0,0,,,,,,,,,,,,,,,,,,,
55233,1506823634786,,,,,,,,0.03,0.05,1.03,-3.0,-0.7,-0.1,0,0,,,,,,,,,,,,,,,,,,,
55253,1506823634806,,,,,,,,0.03,0.05,1.03,-3.0,-0.7,-0.1,0,0,,,,,,,,,,,,,,,,,,,
55273,1506823634826,0,122.0,,128.4,0,130.9,,0.03,0.05,1.03,-3.0,-0.7,-0.1,0,0,1,1,0.0,0,35.489849,-119.546051,0.0,0.0,217.4,10,3,1.6,0,0.0,-1,0.0,0.0,0.0,0
55293,1506823634846,,,,,,,,0.03,0.05,1.03,-3.0,-0.7,-0.1,0,0,,,,,,,,,,,,,,,,,,,
55313,1506823634866,,,,,,,,0.03,0.05,1.02,-3.0,-0.7,-0.0,0,0,,,,,,,,,,,,,,,,,,,
55333,1506823634886,,,,,,,,0.03,0.05,1.02,-3.0,-0.7,-0.0,0,0,,,,,,,,,,,,,,,,,,,
55353,1506823634905,,,,,,,,0.03,0.05,1.02,-3.0,-0.7,-0.0,0,0,,,,,,,,,,,,,,,,,,,
55373,1506823634925,,,,,0,,,0.03,0.05,1.02,-3.0,-0.7,-0.0,0,0,1,1,0.0,0,35.489849,-119.546051,0.0,0.0,217.4,10,3,1.6,0,0.0,-1,0.0,0.0,0.0,0
55393,1506823634945,,,,,,,,0.03,0.05,1.02,-3.0,-0.7,-0.0,0,0,,,,,,,,,,,,,,,,,,,
55413,1506823634965,,,,,,,,0.03,0.05,1.02,-3.0,-0.7,-0.1,0,0,,,,,,,,,,,,,,,,,,,
55433,1506823634985,,,,,,,,0.03,0.05,1.03,-3.0,-0.7,-0.1,0,0,,,,,,,,,,,,,,,,,,,
55453,1506823634999,,,,,,,,0.03,0.05,1.02,-3.0,-0.7,-0.1,0,0,,,,,,,,,,,,,,,,,,,
55473,1506823635019,0,122.2,,128.9,0,131.1,,0.03,0.05,1.03,-3.0,-0.7,-0.1,0,0,1,1,0.0,0,35.489849,-119.546051,0.0,0.0,217.4,10,3,1.6,0,0.0,-1,0.0,0.0,0.0,0
55493,1506823635039,,,,,,,,0.03,0.05,1.03,-3.0,-0.7,-0.1,0,0,,,,,,,,,,,,,,,,,,,
55513,1506823635059,,,,,,,,0.03,0.05,1.03,-3.0,-0.8,-0.1,0,0,,,,,,,,,,,,,,,,,,,
55533,1506823635079,,,,,,,,0.03,0.05,1.03,-3.0,-0.8,-0.1,0,0,,,,,,,,,,,,,,,,,,,
55553,1506823635105,,,,,,,,0.03,0.05,1.03,-3.0,-0.8,-0.1,0,0,,,,,,,,,,,,,,,,,,,
55573,1506823635125,,,,,0,,,0.03,0.05,1.03,-3.0,-0.8,-0.1,0,0,1,1,0.0,0,35.489849,-119.546051,0.0,0.0,217.4,10,3,1.6,0,0.0,-1,0.0,0.0,0.0,0
55593,1506823635145,,,,,,,,0.03,0.05,1.03,-3.0,-0.7,-0.1,0,0,,,,,,,,,,,,,,,,,,,
55613,1506823635165,,,,,,,,0.03,0.05,1.03,-3.0,-0.7,-0.1,0,0,,,,,,,,,,,,,,,,,,,
55633,1506823635185,,,,,,,,0.03,0.05,1.03,-3.0,-0.7,-0.1,0,0,,,,,,,,,,,,,,,,,,,
55653,1506823635205,,,,,,,,0.03,0.05,1.03,-3.0,-0.7,-0.1,0,0,,,,,,,,,,,,,,,,,,,
55673,1506823635225,0,122.2,,129.0,0,131.1,,0.03,0.05,1.03,-3.0,-0.7,-0.1,0,0,1,1,0.0,0,35.489849,-119.546051,0.0,0.0,217.4,10,3,1.6,0,0.0,-1,0.0,0.0,0.0,0
55693,1506823635245,,,,,,,,0.03,0.05,1.03,-3.0,-0.7,-0.1,0,0,,,,,,,,,,,,,,,,,,,
55713,1506823635265,,,,,,,,0.03,0.05,1.03,-3.0,-0.7,-0.1,0,0,,,,,,,,,,,,,,,,,,,
55733,1506823635285,,,,,,,,0.03,0.05,1.03,-3.0,-0.7,-0.1,0,0,,,,,,,,,,,,,,,,,,,
55753,1506823635305,,,,,,,,0.03,0.05,1.03,-3.0,-0.7,-0.1,0,0,,,,,,,,,,,,,,,,,,,
55773,1506823635325,,,,,0,,,0.03,0.05,1.03,-3.0,-0.7,-0.1,0,0,1,1,0.0,0,35.489849,-119.546051,0.0,0.0,217.4,10,3,1.6,0,0.0,-1,0.0,0.0,0.0,0
55793,1506823635345,,,,,,,,0.03,0.05,1.03,-3.0,-0.7,-0.2,0,0,,,,,,,,,,,,,,,,,,,
55813,1506823635365,,,,,,,,0.03,0.05,1.03,-3.0,-0.7,-0.2,0,0,,,,,,,,,,,,,,,,,,,
55833,1506823635385,,,,,,,,0.03,0.05,1.03,-3.0,-0.7,-0.1,0,0,,,,,,,,,,,,,,,,,,,
55853,1506823635405,,,,,,,,0.03,0.05,1.03,-3.0,-0.7,-0.1,0,0,,,,,,,,,,,,,,,,,,,
55873,1506823635425,0,122.4,,128.1,0,130.1,,0.03,0.05,1.03,-3.0,-0.7,-0.1,0,0,1,1,0.0,0,35.489849,-119.546051,0.0,0.0,217.4,10,3,1.6,0,0.0,-1,0.0,0.0,0.0,0
55893,1506823635445,,,,,,,,0.03,0.05,1.03,-3.0,-0.7,-0.1,0,0,,,,,,,,,,,,,,,,,,,
55913,1506823635465,,,,,,,,0.03,0.05,1.03,-3.0,-0.7,-0.1,0,0,,,,,,,,,,,,,,,,,,,
55933,1506823635485,,,,,,,,0.03,0.05,1.03,-3.0,-0.7,-0.1,0,0,,,,,,,,,,,,,,,,,,,
55953,1506823635505,,,,,,,,0.03,0.05,1.03,-3.0,-0.7,-0.1,0,0,,,,,,,,,,,,,,,,,,,
55973,1506823635525,,,,,0,,,0.03,0.05,1.03,-3.0,-0.7,-0.1,0,0,1,1,0.0,0,35.489849,-119.546051,0.0,0.0,217.4,10,3,1.6,0,0.0,-1,0.0,0.0,0.0,0
55993,1506823635545,,,,,,,,0.03,0.05,1.03,-3.0,-0.7,-0.1,0,0,,,,,,,,,,,,,,,,,,,
56013,1506823635565,,,,,,,,0.03,0.05,1.03,-3.0,-0.7,-0.1,0,0,,,,,,,,,,,,,,,,,,,
56033,1506823635585,,,,,,,,0.03,0.05,1.03,-3.0,-0.7,-0.1,0,0,,,,,,,,,,,,,,,,,,,
56053,1506823635605,,,,,,,,0.03,0.05,1.03,-3.0,-0.7,-0.1,0,0,,,,,,,,,,,,,,,,,,,
56073,1506823635625,0,121.8,-0.7,128.1,0,130.8,13.02,0.03,0.05,1.03,-3.0,-0.7,-0.0,0,0,1,1,0.0,0,35.489849,-119.546051,0.0,0.0,217.4,10,3,1.6,0,0.0,-1,0.0,0.0,0.0,0
56093,1506823635645,,,,,,,,0.03,0.05,1.03,-3.0,-0.7,-0.1,0,0,,,,,,,,,,,,,,,,,,,
56113,1506823635665,,,,,,,,0.03,0.05,1.03,-3.0,-0.7,-0.1,0,0,,,,,,,,,,,,,,,,,,,
56133,1506823635685,,,,,,,,0.03,0.05,1.03,-3.0,-0.7,-0.1,0,0,,,,,,,,,,,,,,,,,,,
56153,1506823635705,,,,,,,,0.03,0.05,1.03,-3.0,-0.7,-0.0,0,0,,,,,,,,,,,,,,,,,,,
56173,1506823635725,,,,,0,,,0.03,0.05,1.03,-3.0,-0.7,-0.0,0,0,1,1,0.0,0,35.489849,-119.546051,0.0,0.0,217.4,10,3,1.6,0,0.0,-1,0.0,0.0,0.0,0
56193,1506823635745,,,,,,,,0.03,0.05,1.03,-3.0,-0.7,-0.0,0,0,,,,,,,,,,,,,,,,,,,
56213,1506823635765,,,,,,,,0.03,0.05,1.03,-3.0,-0.7,-0.0,0,0,,,,,,,,,,,,,,,,,,,
56233,1506823635785,,,,,,,,0.03,0.05,1.03,-3.0,-0.7,-0.0,0,0,,,,,,,,,,,,,,,,,,,
56253,1506823635805,,,,,,,,0.03,0.05,1.03,-3.0,-0.7,-0.0,0,0,,,,,,,,,,,,,,,,,,,
56273,1506823635825,0,121.9,,128.3,0,130.7,,0.03,0.05,1.03,-3.0,-0.7,-0.0,0,0,1,1,0.0,0,35.489849,-119.546051,0.0,0.0,217.4,10,3,1.6,0,0.0,-1,0.0,0.0,0.0,0
56293,1506823635845,,,,,,,,0.03,0.05,1.03,-3.0,-0.7,-0.0,0,0,,,,,,,,,,,,,,,,,,,
56313,1506823635865,,,,,,,,0.03,0.05,1.03,-3.0,-0.6,-0.0,0,0,,,,,,,,,,,,,,,,,,,
56333,1506823635885,,,,,,,,0.03,0.05,1.03,-3.0,-0.6,-0.0,0,0,,,,,,,,,,,,,,,,,,,
56353,1506823635904,,,,,,,,0.03,0.05,1.03,-3.0,-0.6,-0.0,0,0,,,,,,,,,,,,,,,,,,,
56373,1506823635924,,,,,0,,,0.03,0.05,1.03,-3.0,-0.7,-0.0,0,0,1,1,0.0,0,35.489849,-119.546051,0.0,0.0,217.4,10,3,1.6,0,0.0,-1,0.0,0.0,0.0,0
56393,1506823635944,,,,,,,,0.03,0.05,1.02,-3.0,-0.7,-0.1,0,0,,,,,,,,,,,,,,,,,,,
56413,1506823635964,,,,,,,,0.03,0.05,1.02,-3.0,-0.7,-0.1,0,0,,,,,,,,,,,,,,,,,,,
56433,1506823635984,,,,,,,,0.03,0.05,1.02,-3.0,-0.8,-0.1,0,0,,,,,,,,,,,,,,,,,,,
56453,1506823636000,,,,,,,,0.03,0.05,1.02,-3.0,-0.8,-0.1,0,0,,,,,,,,,,,,,,,,,,,
56473,1506823636020,0,123.3,,129.3,0,130.9,,0.03,0.05,1.02,-3.0,-0.7,-0.1,0,0,1,1,0.0,0,35.489849,-119.546051,0.0,0.0,217.4,10,3,1.6,0,0.0,-1,0.0,0.0,0.0,0
56493,1506823636040,,,,,,,,0.03,0.05,1.02,-3.0,-0.7,-0.1,0,0,,,,,,,,,,,,,,,,,,,
56513,1506823636060,,,,,,,,0.03,0.05,1.02,-3.0,-0.7,-0.1,0,0,,,,,,,,,,,,,,,,,,,
56533,1506823636080,,,,,,,,0.03,0.05,1.02,-3.0,-0.8,-0.1,0,0,,,,,,,,,,,,,,,,,,,
56553,1506823636104,,,,,,,,0.03,0.05,1.02,-3.0,-0.8,-0.0,0,0,,,,,,,,,,,,,,,,,,,
56573,1506823636124,,,,,0,,,0.03,0.05,1.02,-2.9,-0.8,-0.1,0,0,1,1,0.0,0,35.489849,-119.546051,0.0,0.0,217.4,10,3,1.6,0,0.0,-1,0.0,0.0,0.0,0
56593,1506823636144,,,,,,,,0.03,0.05,1.02,-2.9,-0.8,-0.1,0,0,,,,,,,,,,,,,,,,,,,
56613,1506823636164,,,,,,,,0.03,0.05,1.02,-2.9,-0.8,-0.1,0,0,,,,,,,,,,,,,,,,,,,
56633,1506823636184,,,,,,,,0.02,0.05,1.02,-2.9,-0.8,-0.1,0,0,,,,,,,,,,,,,,,,,,,
56653,1506823636204,,,,,,,,0.02,0.05,1.02,-2.9,-0.8,-0.1,0,0,,,,,,,,,,,,,,,,,,,
56673,1506823636224,0,122.9,,128.5,0,130.0,,0.02,0.05,1.02,-3.0,-0.7,-0.1,0,0,1,1,0.0,0,35.489849,-119.546051,0.0,0.0,217.4,10,3,1.6,0,0.0,-1,0.0,0.0,0.0,0
56693,1506823636244,,,,,,,,0.02,0.05,1.02,-3.0,-0.8,-0.1,0,0,,,,,,,,,,,,,,,,,,,
56713,1506823636264,,,,,,,,0.01,0.05,1.02,-3.0,-0.7,-0.1,0,0,,,,,,,,,,,,,,,,,,,
56733,1506823636284,,,,,,,,0.01,0.05,1.02,-3.0,-0.7,-0.1,0,0,,,,,,,,,,,,,,,,,,,
56753,1506823636304,,,,,,,,0.01,0.05,1.02,-3.0,-0.8,-0.1,0,0,,,,,,,,,,,,,,,,,,,
56773,1506823636324,,,,,0,,,0.01,0.05,1.02,-3.0,-0.8,-0.0,0,0,1,1,0.0,0,35.489849,-119.546051,0.0,0.0,217.4,10,3,1.6,0,0.0,-1,0.0,0.0,0.0,0
56793,1506823636344,,,,,,,,0.02,0.05,1.02,-3.0,-0.8,-0.1,0,0,,,,,,,,,,,,,,,,,,,
56813,1506823636364,,,,,,,,0.02,0.05,1.02,-3.0,-0.8,-0.0,0,0,,,,,,,,,,,,,,,,,,,
56833,1506823636384,,,,,,,,0.02,0.05,1.02,-3.0,-0.8,-0.1,0,0,,,,,,,,,,,,,,,,,,,
56853,1506823636406,,,,,,,,0.02,0.05,1.02,-3.0,-0.8,-0.1,0,0,,,,,,,,,,,,,,,,,,,
56873,1506823636426,0,123.2,,129.1,0,130.6,,0.02,0.05,1.02,-3.0,-0.8,-0.1,0,0,1,1,0.0,0,35.489849,-119.546051,0.0,0.0,217.4,10,3,1.6,0,0.0,-1,0.0,0.0,0.0,0
56893,1506823636446,,,,,,,,0.02,0.05,1.02,-3.0,-0.8,-0.0,0,0,,,,,,,,,,,,,,,,,,,
56913,1506823636466,,,,,,,,0.02,0.05,1.02,-3.0,-0.8,-0.0,0,0,,,,,,,,,,,,,,,,,,,
