"Interval"|"ms"|0|0|1,"Utc"|"ms"|0|0|1,"FuelLevel"|"F"|0|100|5,"OilTemp"|"F"|0.0|300.0|5,"CoolantPressPSI"|"PSI"|0.0|20.0|1,"Coolant"|"F"|0.0|300.0|5,"OilPress"|"PSI"|0|150|10,"EngineTemp"|"F"|0.0|300.0|5,"Battery"|"Volts"|0.0|20.0|1,"AccelX"|"G"|-3.0|3.0|50,"AccelY"|"G"|-3.0|3.0|50,"AccelZ"|"G"|-3.0|3.0|50,"Yaw"|"Deg/Sec"|-300.0|300.0|50,"Pitch"|"Deg/Sec"|-300.0|300.0|50,"Roll"|"Deg/Sec"|-300.0|300.0|50,"RPM"|""|0|10000|50,"Driveshaft"|"RPM"|0|5000|50,"GPIO1"|""|0|1|10,"GPIO2"|""|0|1|10,"GearRatio"|""|-5.0|5.0|10,"Gear"|""|-1|5|10,"Latitude"|"Degrees"|-180.0|180.0|10,"Longitude"|"Degrees"|-180.0|180.0|10,"Speed"|"mph"|0.0|150.0|10,"Distance"|"mi"|0.0|0.0|10,"Altitude"|"ft"|0.0|4000.0|10,"GPSSats"|""|0|20|10,"GPSQual"|""|0|5|10,"GPSDOP"|""|0.0|20.0|10,"LapCount"|""|0|0|10,"LapTime"|"Min"|0.0|0.0|10,"Sector"|""|0|0|10,"SectorTime"|"Min"|0.0|0.0|10,"PredTime"|"Min"|0.0|0.0|10,"ElapsedTime"|"Min"|0.0|0.0|10,"CurrentLap"|""|0|0|10
43613,1506822410756,,,,,,,,0.03,0.05,1.0,-3.0,-1.1,-0.2,0,0,,,,,,,,,,,,,,,,,,,
43633,1506822410776,,,,,,,,0.03,0.05,1.0,-3.0,-1.1,-0.2,0,0,,,,,,,,,,,,,,,,,,,
43653,1506822410796,,,,,,,,0.03,0.05,1.0,-3.1,-1.0,-0.2,0,0,,,,,,,,,,,,,,,,,,,
43673,1506822410816,0,128.2,,138.6,0,139.5,,0.03,0.05,1.0,-3.1,-1.0,-0.1,0,0,1,1,0.0,0,35.489845,-119.546097,0.0,0.0,284.4,11,3,1.4,0,0.0,-1,0.0,0.0,0.0,0
43693,1506822410836,,,,,,,,0.03,0.05,1.0,-3.1,-1.1,-0.1,0,0,,,,,,,,,,,,,,,,,,,
43713,1506822410856,,,,,,,,0.03,0.05,1.0,-3.0,-1.1,-0.1,0,0,,,,,,,,,,,,,,,,,,,
43733,1506822410876,,,,,,,,0.03,0.05,1.0,-3.1,-1.1,-0.1,0,0,,,,,,,,,,,,,,,,,,,
43753,1506822410898,,,,,,,,0.03,0.05,1.0,-3.1,-1.1,-0.1,0,0,,,,,,,,,,,,,,,,,,,
43773,1506822410918,,,,,0,,,0.03,0.05,1.0,-3.1,-1.1,-0.1,0,0,1,1,0.0,0,35.489845,-119.546097,0.0,0.0,284.4,11,3,1.4,0,0.0,-1,0.0,0.0,0.0,0
43793,1506822410938,,,,,,,,0.03,0.05,1.0,-3.1,-1.1,-0.1,0,0,,,,,,,,,,,,,,,,,,,
43813,1506822410958,,,,,,,,0.03,0.05,1.0,-3.1,-1.1,-0.1,0,0,,,,,,,,,,,,,,,,,,,
43833,1506822410978,,,,,,,,0.03,0.05,1.0,-3.1,-1.0,-0.1,0,0,,,,,,,,,,,,,,,,,,,
43853,1506822410994,,,,,,,,0.03,0.05,1.0,-3.0,-0.9,-0.1,0,0,,,,,,,,,,,,,,,,,,,
43873,1506822411014,0,127.7,,137.9,0,138.9,,0.03,0.05,1.0,-3.0,-0.8,-0.1,0,0,1,1,0.0,0,35.489845,-119.546097,0.0,0.0,284.4,11,3,1.4,0,0.0,-1,0.0,0.0,0.0,0
43893,1506822411034,,,,,,,,0.03,0.05,1.0,-3.0,-0.8,-0.1,0,0,,,,,,,,,,,,,,,,,,,
43913,1506822411054,,,,,,,,0.03,0.05,1.0,-2.9,-0.5,-0.1,0,0,,,,,,,,,,,,,,,,,,,
43933,1506822411074,,,,,,,,0.02,0.05,1.0,-3.0,-0.5,-0.1,0,0,,,,,,,,,,,,,,,,,,,
43953,1506822411100,,,,,,,,0.02,0.05,1.0,-3.0,-0.6,-0.2,0,0,,,,,,,,,,,,,,,,,,,
43973,1506822411120,,,,,0,,,0.02,0.05,1.0,-3.0,-0.6,-0.2,0,0,1,1,0.0,0,35.489845,-119.546097,0.0,0.0,284.4,11,3,1.4,0,0.0,-1,0.0,0.0,0.0,0
43993,1506822411140,,,,,,,,0.02,0.05,1.0,-3.0,-0.6,-0.2,0,0,,,,,,,,,,,,,,,,,,,
44013,1506822411160,,,,,,,,0.02,0.05,1.0,-3.0,-0.7,-0.1,0,0,,,,,,,,,,,,,,,,,,,
44033,1506822411180,,,,,,,,0.02,0.05,1.0,-3.0,-0.7,-0.2,0,0,,,,,,,,,,,,,,,,,,,
44053,1506822411200,,,,,,,,0.02,0.05,1.0,-3.0,-0.7,-0.2,0,0,,,,,,,,,,,,,,,,,,,
44073,1506822411220,0,128.2,-0.7,138.7,0,139.7,13.06,0.03,0.05,1.0,-3.0,-0.8,-0.2,0,0,1,1,0.0,0,35.489845,-119.546097,0.0,0.0,284.4,11,3,1.4,0,0.0,-1,0.0,0.0,0.0,0
44093,1506822411240,,,,,,,,0.03,0.05,1.0,-3.0,-0.8,-0.2,0,0,,,,,,,,,,,,,,,,,,,
44113,1506822411260,,,,,,,,0.03,0.05,1.0,-3.0,-0.8,-0.2,0,0,,,,,,,,,,,,,,,,,,,
44133,1506822411280,,,,,,,,0.03,0.05,1.0,-3.0,-0.8,-0.1,0,0,,,,,,,,,,,,,,,,,,,
44153,1506822411300,,,,,,,,0.03,0.05,1.0,-3.0,-0.8,-0.1,0,0,,,,,,,,,,,,,,,,,,,
44173,1506822411320,,,,,0,,,0.03,0.05,1.0,-3.0,-0.8,-0.1,0,0,1,1,0.0,0,35.489845,-119.546097,0.0,0.0,284.4,11,3,1.4,0,0.0,-1,0.0,0.0,0.0,0
44193,1506822411340,,,,,,,,0.03,0.05,1.0,-3.0,-0.8,-0.2,0,0,,,,,,,,,,,,,,,,,,,
44213,1506822411360,,,,,,,,0.03,0.05,1.0,-3.0,-0.8,-0.2,0,0,,,,,,,,,,,,,,,,,,,
44233,1506822411380,,,,,,,,0.03,0.05,1.0,-3.0,-0.8,-0.2,0,0,,,,,,,,,,,,,,,,,,,
44253,1506822411400,,,,,,,,0.03,0.05,1.0,-3.0,-0.8,-0.2,0,0,,,,,,,,,,,,,,,,,,,
44273,1506822411420,0,128.4,,138.8,0,139.7,,0.03,0.05,1.0,-3.0,-0.8,-0.1,0,0,1,1,0.0,0,35.489845,-119.546097,0.0,0.0,284.4,11,3,1.4,0,0.0,-1,0.0,0.0,0.0,0
44293,1506822411440,,,,,,,,0.03,0.05,1.01,-3.0,-0.8,-0.2,0,0,,,,,,,,,,,,,,,,,,,
44313,1506822411460,,,,,,,,0.03,0.05,1.01,-3.0,-0.9,-0.1,0,0,,,,,,,,,,,,,,,,,,,
44333,1506822411480,,,,,,,,0.03,0.05,1.0,-3.1,-0.9,-0.2,0,0,,,,,,,,,,,,,,,,,,,
44353,1506822411497,,,,,,,,0.03,0.05,1.0,-3.1,-0.9,-0.2,0,0,,,,,,,,,,,,,,,,,,,
44373,1506822411517,,,,,0,,,0.03,0.05,1.0,-3.1,-0.9,-0.2,0,0,1,1,0.0,0,35.489845,-119.546097,0.0,0.0,284.4,11,3,1.4,0,0.0,-1,0.0,0.0,0.0,0
44393,1506822411537,,,,,,,,0.03,0.05,1.0,-3.1,-0.9,-0.2,0,0,,,,,,,,,,,,,,,,,,,
44413,1506822411557,,,,,,,,0.03,0.05,1.0,-3.0,-0.9,-0.2,0,0,,,,,,,,,,,,,,,,,,,
44433,1506822411577,,,,,,,,0.03,0.05,1.0,-3.1,-0.9,-0.2,0,0,,,,,,,,,,,,,,,,,,,
44453,1506822411597,,,,,,,,0.03,0.05,1.0,-3.1,-0.9,-0.2,0,0,,,,,,,,,,,,,,,,,,,
44473,1506822411617,0,128.3,,137.9,0,138.7,,0.03,0.05,1.0,-3.1,-0.9,-0.2,0,0,1,1,0.0,0,35.489845,-119.546097,0.0,0.0,284.4,11,3,1.4,0,0.0,-1,0.0,0.0,0.0,0
44493,1506822411637,,,,,,,,0.03,0.05,1.0,-3.1,-0.9,-0.2,0,0,,,,,,,,,,,,,,,,,,,
44513,1506822411657,,,,,,,,0.03,0.05,1.01,-3.1,-0.9,-0.2,0,0,,,,,,,,,,,,,,,,,,,
44533,1506822411677,,,,,,,,0.03,0.05,1.01,-3.1,-0.9,-0.2,0,0,,,,,,,,,,,,,,,,,,,
44553,1506822411697,,,,,,,,0.03,0.05,1.01,-3.1,-0.9,-0.2,0,0,,,,,,,,,,,,,,,,,,,
44573,1506822411717,,,,,0,,,0.03,0.05,1.01,-3.0,-0.9,-0.2,0,0,1,1,0.0,0,35.489845,-119.546097,0.0,0.0,284.4,11,3,1.4,0,0.0,-1,0.0,0.0,0.0,0
44593,1506822411737,,,,,,,,0.03,0.05,1.0,-3.0,-0.9,-0.2,0,0,,,,,,,,,,,,,,,,,,,
44613,1506822411757,,,,,,,,0.03,0.05,1.0,-3.0,-0.9,-0.2,0,0,,,,,,,,,,,,,,,,,,,
44633,1506822411777,,,,,,,,0.03,0.05,1.0,-3.0,-0.9,-0.2,0,0,,,,,,,,,,,,,,,,,,,
44653,1506822411797,,,,,,,,0.03,0.05,1.0,-3.0,-0.9,-0.2,0,0,,,,,,,,,,,,,,,,,,,
44673,1506822411817,0,127.9,,138.4,0,139.5,,0.03,0.05,1.0,-3.1,-0.9,-0.2,0,0,1,1,0.0,0,35.489845,-119.546097,0.0,0.0,284.4,11,3,1.4,0,0.0,-1,0.0,0.0,0.0,0
44693,1506822411837,,,,,,,,0.03,0.05,1.0,-3.1,-0.9,-0.2,0,0,,,,,,,,,,,,,,,,,,,
44713,1506822411857,,,,,,,,0.03,0.05,1.0,-3.0,-0.9,-0.1,0,0,,,,,,,,,,,,,,,,,,,
44733,1506822411877,,,,,,,,0.03,0.05,1.0,-3.0,-0.9,-0.2,0,0,,,,,,,,,,,,,,,,,,,
44753,1506822411899,,,,,,,,0.03,0.05,1.0,-3.0,-0.9,-0.2,0,0,,,,,,,,,,,,,,,,,,,
44773,1506822411919,,,,,0,,,0.03,0.05,1.0,-3.0,-0.9,-0.2,0,0,1,1,0.0,0,35.489845,-119.546097,0.0,0.0,284.4,11,3,1.4,0,0.0,-1,0.0,0.0,0.0,0
44793,1506822411939,,,,,,,,0.03,0.05,1.0,-3.0,-0.9,-0.2,0,0,,,,,,,,,,,,,,,,,,,
44813,1506822411959,,,,,,,,0.03,0.05,1.0,-3.0,-1.0,-0.2,0,0,,,,,,,,,,,,,,,,,,,
44833,1506822411979,,,,,,,,0.03,0.05,1.0,-3.0,-0.9,-0.2,0,0,,,,,,,,,,,,,,,,,,,
44853,1506822411993,,,,,,,,0.03,0.05,1.0,-3.0,-1.0,-0.2,0,0,,,,,,,,,,,,,,,,,,,
44873,1506822412013,0,128.7,,138.8,0,138.7,,0.03,0.05,1.0,-3.0,-1.0,-0.2,0,0,1,1,0.0,0,35.489845,-119.546097,0.0,0.0,284.4,11,3,1.4,0,0.0,-1,0.0,0.0,0.0,0
44893,1506822412033,,,,,,,,0.03,0.05,1.0,-3.0,-1.0,-0.2,0,0,,,,,,,,,,,,,,,,,,,
44913,1506822412053,,,,,,,,0.03,0.05,1.0,-3.0,-1.0,-0.1,0,0,,,,,,,,,,,,,,,,,,,
44933,1506822412073,,,,,,,,0.03,0.05,1.0,-3.0,-1.0,-0.1,0,0,,,,,,,,,,,,,,,,,,,
44953,1506822412095,,,,,,,,0.03,0.05,1.0,-3.0,-0.9,-0.1,0,0,,,,,,,,,,,,,,,,,,,
44973,1506822412115,,,,,0,,,0.03,0.05,1.0,-3.0,-0.9,-0.1,0,0,1,1,0.0,0,35.489845,-119.546097,0.0,0.0,284.4,11,3,1.4,0,0.0,-1,0.0,0.0,0.0,0
44993,1506822412135,,,,,,,,0.03,0.05,1.0,-3.0,-0.9,-0.1,0,0,,,,,,,,,,,,,,,,,,,
45013,1506822412155,,,,,,,,0.03,0.05,1.0,-3.0,-0.9,-0.1,0,0,,,,,,,,,,,,,,,,,,,
45033,1506822412175,,,,,,,,0.03,0.05,1.0,-3.0,-0.9,-0.1,0,0,,,,,,,,,,,,,,,,,,,
45053,1506822412199,,,,,,,,0.03,0.05,1.0,-3.0,-1.0,-0.1,0,0,,,,,,,,,,,,,,,,,,,
45073,1506822412219,0,128.4,-0.8,137.9,0,138.6,13.05,0.03,0.05,1.01,-3.0,-0.9,-0.1,0,0,1,1,0.0,0,35.489845,-119.546097,0.0,0.0,284.4,11,3,1.4,0,0.0,-1,0.0,0.0,0.0,0
45093,1506822412239,,,,,,,,0.03,0.05,1.01,-3.0,-0.9,-0.2,0,0,,,,,,,,,,,,,,,,,,,
45113,1506822412259,,,,,,,,0.03,0.05,1.01,-3.0,-0.9,-0.2,0,0,,,,,,,,,,,,,,,,,,,
45133,1506822412279,,,,,,,,0.03,0.05,1.01,-3.0,-0.9,-0.2,0,0,,,,,,,,,,,,,,,,,,,
45153,1506822412301,,,,,,,,0.03,0.05,1.01,-3.0,-0.9,-0.2,0,0,,,,,,,,,,,,,,,,,,,
45173,1506822412321,,,,,0,,,0.03,0.05,1.01,-3.0,-0.9,-0.2,0,0,1,1,0.0,0,35.489845,-119.546097,0.0,0.0,284.4,11,3,1.4,0,0.0,-1,0.0,0.0,0.0,0
45193,1506822412341,,,,,,,,0.03,0.05,1.01,-3.0,-0.9,-0.2,0,0,,,,,,,,,,,,,,,,,,,
45213,1506822412361,,,,,,,,0.03,0.05,1.01,-3.0,-0.9,-0.2,0,0,,,,,,,,,,,,,,,,,,,
45233,1506822412381,,,,,,,,0.03,0.05,1.01,-3.0,-0.9,-0.2,0,0,,,,,,,,,,,,,,,,,,,
45253,1506822412399,,,,,,,,0.03,0.05,1.01,-3.0,-0.9,-0.2,0,0,,,,,,,,,,,,,,,,,,,
45273,1506822412419,0,128.9,,139.1,0,139.5,,0.03,0.05,1.01,-3.0,-0.9,-0.2,0,0,1,1,0.0,0,35.489845,-119.546097,0.0,0.0,284.4,11,3,1.4,0,0.0,-1,0.0,0.0,0.0,0
45293,1506822412439,,,,,,,,0.03,0.05,1.01,-3.0,-0.9,-0.2,0,0,,,,,,,,,,,,,,,,,,,
45313,1506822412459,,,,,,,,0.03,0.05,1.01,-3.0,-0.9,-0.1,0,0,,,,,,,,,,,,,,,,,,,
45333,1506822412479,,,,,,,,0.03,0.05,1.01,-3.0,-0.9,-0.2,0,0,,,,,,,,,,,,,,,,,,,
45353,1506822412498,,,,,,,,0.03,0.05,1.0,-3.0,-0.9,-0.2,0,0,,,,,,,,,,,,,,,,,,,
45373,1506822412518,,,,,0,,,0.03,0.05,1.0,-3.0,-0.9,-0.2,0,0,1,1,0.0,0,35.489845,-119.546097,0.0,0.0,284.4,11,3,1.4,0,0.0,-1,0.0,0.0,0.0,0
45393,1506822412538,,,,,,,,0.03,0.05,1.01,-3.0,-0.9,-0.1,0,0,,,,,,,,,,,,,,,,,,,
45413,1506822412558,,,,,,,,0.03,0.05,1.01,-3.0,-0.9,-0.1,0,0,,,,,,,,,,,,,,,,,,,
45433,1506822412578,,,,,,,,0.03,0.05,1.01,-3.0,-0.9,-0.1,0,0,,,,,,,,,,,,,,,,,,,
45453,1506822412598,,,,,,,,0.03,0.05,1.01,-3.0,-0.9,-0.1,0,0,,,,,,,,,,,,,,,,,,,
45473,1506822412618,0,127.7,,137.9,0,138.6,,0.03,0.05,1.01,-3.0,-0.9,-0.1,0,0,1,1,0.0,0,35.489845,-119.546097,0.0,0.0,284.4,11,3,1.4,0,0.0,-1,0.0,0.0,0.0,0
45493,1506822412638,,,,,,,,0.03,0.05,1.01,-3.0,-0.9,-0.2,0,0,,,,,,,,,,,,,,,,,,,
45513,1506822412658,,,,,,,,0.03,0.05,1.01,-3.0,-0.9,-0.2,0,0,,,,,,,,,,,,,,,,,,,
45533,1506822412678,,,,,,,,0.03,0.05,1.01,-3.0,-0.9,-0.2,0,0,,,,,,,,,,,,,,,,,,,
45553,1506822412698,,,,,,,,0.03,0.05,1.01,-3.0,-0.9,-0.2,0,0,,,,,,,,,,,,,,,,,,,
45573,1506822412718,,,,,0,,,0.03,0.05,1.01,-3.0,-0.9,-0.2,0,0,1,1,0.0,0,35.489845,-119.546097,0.0,0.0,284.4,11,3,1.4,0,0.0,-1,0.0,0.0,0.0,0
45593,1506822412738,,,,,,,,0.03,0.05,1.01,-3.0,-0.9,-0.2,0,0,,,,,,,,,,,,,,,,,,,
45613,1506822412758,,,,,,,,0.03,0.05,1.01,-3.0,-0.9,-0.1,0,0,,,,,,,,,,,,,,,,,,,
45633,1506822412778,,,,,,,,0.03,0.05,1.01,-3.0,-0.9,-0.2,0,0,,,,,,,,,,,,,,,,,,,
45653,1506822412800,,,,,,,,0.03,0.05,1.01,-3.0,-0.9,-0.2,0,0,,,,,,,,,,,,,,,,,,,
45673,1506822412820,0,128.8,,139.1,0,139.5,,0.03,0.05,1.01,-3.1,-0.9,-0.2,0,0,1,1,0.0,0,35.489845,-119.546097,0.0,0.0,284.4,11,3,1.4,0,0.0,-1,0.0,0.0,0.0,0
45693,1506822412840,,,,,,,,0.03,0.05,1.01,-3.1,-0.9,-0.2,0,0,,,,,,,,,,,,,,,,,,,
45713,1506822412860,,,,,,,,0.03,0.05,1.01,-3.1,-0.9,-0.2,0,0,,,,,,,,,,,,,,,,,,,
45733,1506822412880,,,,,,,,0.03,0.05,1.01,-3.1,-0.9,-0.2,0,0,,,,,,,,,,,,,,,,,,,
45753,1506822412896,,,,,,,,0.03,0.05,1.01,-3.0,-0.9,-0.2,0,0,,,,,,,,,,,,,,,,,,,
45773,1506822412916,,,,,0,,,0.03,0.05,1.01,-3.0,-0.9,-0.2,0,0,1,1,0.0,0,35.489845,-119.546097,0.0,0.0,284.4,11,3,1.4,0,0.0,-1,0.0,0.0,0.0,0
45793,1506822412936,,,,,,,,0.03,0.05,1.01,-3.1,-0.9,-0.2,0,0,,,,,,,,,,,,,,,,,,,
45813,1506822412956,,,,,,,,0.03,0.05,1.01,-3.0,-0.9,-0.2,0,0,,,,,,,,,,,,,,,,,,,
45833,1506822412976,,,,,,,,0.03,0.05,1.01,-3.0,-0.9,-0.2,0,0,,,,,,,,,,,,,,,,,,,
45853,1506822412994,,,,,,,,0.03,0.05,1.01,-3.0,-0.9,-0.2,0,0,,,,,,,,,,,,,,,,,,,
45873,1506822413014,0,127.8,,138.3,0,139.5,,0.03,0.05,1.01,-3.0,-0.9,-0.2,0,0,1,1,0.0,0,35.489845,-119.546097,0.0,0.0,284.4,11,3,1.4,0,0.0,-1,0.0,0.0,0.0,0
45893,1506822413034,,,,,,,,0.03,0.05,1.01,-3.0,-0.9,-0.3,0,0,,,,,,,,,,,,,,,,,,,
45913,1506822413054,,,,,,,,0.03,0.05,1.01,-3.0,-0.9,-0.2,0,0,,,,,,,,,,,,,,,,,,,
45933,1506822413074,,,,,,,,0.03,0.05,1.01,-3.0,-0.9,-0.2,0,0,,,,,,,,,,,,,,,,,,,
45953,1506822413094,,,,,,,,0.03,0.05,1.01,-3.0,-0.9,-0.2,0,0,,,,,,,,,,,,,,,,,,,
45973,1506822413114,,,,,0,,,0.03,0.05,1.01,-3.0,-0.9,-0.2,0,0,1,1,0.0,0,35.489845,-119.546097,0.0,0.0,284.4,11,3,1.4,0,0.0,-1,0.0,0.0,0.0,0
45993,1506822413134,,,,,,,,0.03,0.05,1.01,-3.0,-0.9,-0.2,0,0,,,,,,,,,,,,,,,,,,,
46013,1506822413154,,,,,,,,0.03,0.05,1.01,-3.0,-0.9,-0.2,0,0,,,,,,,,,,,,,,,,,,,
46033,1506822413174,,,,,,,,0.03,0.05,1.01,-3.0,-0.9,-0.2,0,0,,,,,,,,,,,,,,,,,,,
46053,1506822413198,,,,,,,,0.03,0.05,1.01,-3.0,-0.9,-0.2,0,0,,,,,,,,,,,,,,,,,,,
46073,1506822413218,0,128.4,-0.7,138.9,0,139.7,13.06,0.03,0.05,1.01,-3.0,-0.9,-0.2,0,0,1,1,0.0,0,35.489845,-119.546097,0.0,0.0,284.4,11,3,1.4,0,0.0,-1,0.0,0.0,0.0,0
46093,1506822413238,,,,,,,,0.03,0.05,1.01,-3.0,-0.9,-0.2,0,0,,,,,,,,,,,,,,,,,,,
46113,1506822413258,,,,,,,,0.03,0.05,1.01,-3.0,-0.9,-0.2,0,0,,,,,,,,,,,,,,,,,,,
46133,1506822413278,,,,,,,,0.03,0.05,1.01,-3.0,-0.9,-0.2,0,0,,,,,,,,,,,,,,,,,,,
46153,1506822413298,,,,,,,,0.03,0.05,1.01,-3.0,-0.9,-0.2,0,0,,,,,,,,,,,,,,,,,,,
46173,1506822413318,,,,,0,,,0.03,0.05,1.01,-3.0,-0.9,-0.1,0,0,1,1,0.0,0,35.489845,-119.546097,0.0,0.0,284.4,11,3,1.4,0,0.0,-1,0.0,0.0,0.0,0
46193,1506822413338,,,,,,,,0.03,0.05,1.01,-3.0,-0.9,-0.1,0,0,,,,,,,,,,,,,,,,,,,
46213,1506822413358,,,,,,,,0.03,0.05,1.0,-3.0,-0.9,-0.1,0,0,,,,,,,,,,,,,,,,,,,
46233,1506822413378,,,,,,,,0.03,0.05,1.0,-3.0,-0.9,-0.1,0,0,,,,,,,,,,,,,,,,,,,
46253,1506822413398,,,,,,,,0.03,0.05,1.0,-3.0,-0.9,-0.1,0,0,,,,,,,,,,,,,,,,,,,
46273,1506822413418,0,128.5,,138.9,0,139.7,,0.03,0.05,1.0,-3.0,-0.9,-0.2,0,0,1,1,0.0,0,35.489845,-119.546097,0.0,0.0,284.4,11,3,1.4,0,0.0,-1,0.0,0.0,0.0,0
46293,1506822413438,,,,,,,,0.03,0.05,1.0,-3.0,-0.9,-0.2,0,0,,,,,,,,,,,,,,,,,,,
46313,1506822413458,,,,,,,,0.03,0.05,1.0,-3.0,-0.9,-0.2,0,0,,,,,,,,,,,,,,,,,,,
46333,1506822413478,,,,,,,,0.03,0.05,1.0,-3.0,-0.9,-0.1,0,0,,,,,,,,,,,,,,,,,,,
46353,1506822413499,,,,,,,,0.03,0.05,1.0,-3.0,-0.9,-0.1,0,0,,,,,,,,,,,,,,,,,,,
46373,1506822413519,,,,,0,,,0.03,0.05,1.0,-3.0,-0.9,-0.1,0,0,1,1,0.0,0,35.489845,-119.546097,0.0,0.0,284.4,11,3,1.4,0,0.0,-1,0.0,0.0,0.0,0
46393,1506822413539,,,,,,,,0.03,0.05,1.0,-3.0,-0.9,-0.1,0,0,,,,,,,,,,,,,,,,,,,
46413,1506822413559,,,,,,,,0.03,0.05,1.0,-3.0,-0.9,-0.1,0,0,,,,,,,,,,,,,,,,,,,
46433,1506822413579,,,,,,,,0.03,0.05,1.0,-3.0,-0.9,-0.2,0,0,,,,,,,,,,,,,,,,,,,
46453,1506822413599,,,,,,,,0.03,0.05,1.0,-3.0,-0.9,-0.2,0,0,,,,,,,,,,,,,,,,,,,
46473,1506822413619,0,128.4,,138.5,0,138.6,,0.03,0.05,1.0,-3.0,-0.9,-0.1,0,0,1,1,0.0,0,35.489845,-119.546097,0.0,0.0,284.4,11,3,1.4,0,0.0,-1,0.0,0.0,0.0,0
46493,1506822413639,,,,,,,,0.03,0.05,1.0,-3.0,-0.9,-0.2,0,0,,,,,,,,,,,,,,,,,,,
46513,1506822413659,,,,,,,,0.03,0.05,1.0,-3.0,-0.9,-0.1,0,0,,,,,,,,,,,,,,,,,,,
46533,1506822413679,,,,,,,,0.03,0.05,1.0,-3.0,-0.9,-0.1,0,0,,,,,,,,,,,,,,,,,,,
46553,1506822413699,,,,,,,,0.03,0.05,1.0,-3.0,-0.9,-0.2,0,0,,,,,,,,,,,,,,,,,,,
46573,1506822413719,,,,,0,,,0.03,0.05,1.0,-3.0,-0.9,-0.2,0,0,1,1,0.0,0,35.489845,-119.546097,0.0,0.0,284.4,11,3,1.4,0,0.0,-1,0.0,0.0,0.0,0
46593,1506822413739,,,,,,,,0.03,0.05,1.0,-3.0,-0.9,-0.2,0,0,,,,,,,,,,,,,,,,,,,
46613,1506822413759,,,,,,,,0.03,0.05,1.0,-3.0,-0.9,-0.2,0,0,,,,,,,,,,,,,,,,,,,
46633,1506822413779,,,,,,,,0.03,0.05,1.01,-3.0,-0.9,-0.2,0,0,,,,,,,,,,,,,,,,,,,
46653,1506822413799,,,,,,,,0.03,0.05,1.01,-3.0,-0.9,-0.2,0,0,,,,,,,,,,,,,,,,,,,
46673,1506822413819,0,128.8,,139.2,0,139.5,,0.03,0.05,1.01,-3.0,-0.9,-0.2,0,0,1,1,0.0,0,35.489845,-119.546097,0.0,0.0,284.4,11,3,1.4,0,0.0,-1,0.0,0.0,0.0,0
46693,1506822413839,,,,,,,,0.03,0.05,1.01,-3.0,-0.9,-0.1,0,0,,,,,,,,,,,,,,,,,,,
46713,1506822413859,,,,,,,,0.03,0.05,1.01,-3.0,-0.9,-0.1,0,0,,,,,,,,,,,,,,,,,,,
46733,1506822413879,,,,,,,,0.03,0.05,1.01,-3.0,-0.9,-0.1,0,0,,,,,,,,,,,,,,,,,,,
46753,1506822413899,,,,,,,,0.03,0.05,1.01,-3.0,-0.9,-0.1,0,0,,,,,,,,,,,,,,,,,,,
46773,1506822413919,,,,,0,,,0.03,0.05,1.01,-3.0,-0.9,-0.1,0,0,1,1,0.0,0,35.489845,-119.546097,0.0,0.0,284.4,11,3,1.4,0,0.0,-1,0.0,0.0,0.0,0
46793,1506822413939,,,,,,,,0.03,0.05,1.01,-3.0,-0.9,-0.1,0,0,,,,,,,,,,,,,,,,,,,
46813,1506822413959,,,,,,,,0.03,0.05,1.01,-3.0,-0.9,-0.1,0,0,,,,,,,,,,,,,,,,,,,
46833,1506822413979,,,,,,,,0.03,0.05,1.01,-3.0,-0.9,-0.1,0,0,,,,,,,,,,,,,,,,,,,
46853,1506822413993,,,,,,,,0.03,0.05,1.01,-3.0,-0.9,-0.1,0,0,,,,,,,,,,,,,,,,,,,
46873,1506822414013,0,128.0,,138.7,0,139.5,,0.03,0.05,1.01,-3.1,-0.9,-0.1,0,0,1,1,0.0,0,35.489845,-119.546097,0.0,0.0,284.4,11,3,1.4,0,0.0,-1,0.0,0.0,0.0,0
46893,1506822414033,,,,,,,,0.03,0.05,1.01,-3.1,-0.9,-0.1,0,0,,,,,,,,,,,,,,,,,,,
46913,1506822414053,,,,,,,,0.03,0.05,1.01,-3.0,-0.9,-0.1,0,0,,,,,,,,,,,,,,,,,,,
46933,1506822414073,,,,,,,,0.03,0.05,1.01,-3.0,-0.9,-0.1,0,0,,,,,,,,,,,,,,,,,,,
46953,1506822414099,,,,,,,,0.03,0.05,1.0,-3.0,-0.9,-0.1,0,0,,,,,,,,,,,,,,,,,,,
46973,1506822414119,,,,,0,,,0.03,0.05,1.0,-3.1,-0.9,-0.1,0,0,1,1,0.0,0,35.489845,-119.546097,0.0,0.0,284.4,11,3,1.4,0,0.0,-1,0.0,0.0,0.0,0
46993,1506822414139,,,,,,,,0.03,0.05,1.0,-3.1,-0.9,-0.1,0,0,,,,,,,,,,,,,,,,,,,
47013,1506822414159,,,,,,,,0.03,0.05,1.0,-3.1,-0.9,-0.1,0,0,,,,,,,,,,,,,,,,,,,
47033,1506822414179,,,,,,,,0.03,0.05,1.0,-3.1,-0.9,-0.1,0,0,,,,,,,,,,,,,,,,,,,
47053,1506822414199,,,,,,,,0.03,0.05,1.01,-3.1,-0.9,-0.1,0,0,,,,,,,,,,,,,,,,,,,
47073,1506822414219,0,128.3,-0.7,138.1,0,138.6,13.07,0.03,0.05,1.01,-3.1,-0.9,-0.1,0,0,1,1,0.0,0,35.489845,-119.546097,0.0,0.0,284.4,11,3,1.4,0,0.0,-1,0.0,0.0,0.0,0
47093,1506822414239,,,,,,,,0.03,0.05,1.01,-3.1,-0.9,-0.1,0,0,,,,,,,,,,,,,,,,,,,
47113,1506822414259,,,,,,,,0.03,0.05,1.01,-3.0,-0.9,-0.1,0,0,,,,,,,,,,,,,,,,,,,
47133,1506822414279,,,,,,,,0.03,0.05,1.01,-3.0,-0.9,-0.2,0,0,,,,,,,,,,,,,,,,,,,
47153,1506822414299,,,,,,,,0.03,0.05,1.01,-3.0,-0.9,-0.2,0,0,,,,,,,,,,,,,,,,,,,
47173,1506822414319,,,,,0,,,0.03,0.05,1.01,-3.0,-0.9,-0.2,0,0,1,1,0.0,0,35.489845,-119.546097,0.0,0.0,284.4,11,3,1.4,0,0.0,-1,0.0,0.0,0.0,0
47193,1506822414339,,,,,,,,0.03,0.05,1.01,-3.0,-0.9,-0.2,0,0,,,,,,,,,,,,,,,,,,,
47213,1506822414359,,,,,,,,0.03,0.05,1.01,-3.1,-0.9,-0.2,0,0,,,,,,,,,,,,,,,,,,,
47233,1506822414379,,,,,,,,0.03,0.05,1.0,-3.1,-0.9,-0.1,0,0,,,,,,,,,,,,,,,,,,,
47253,1506822414399,,,,,,,,0.03,0.05,1.0,-3.1,-0.9,-0.1,0,0,,,,,,,,,,,,,,,,,,,
47273,1506822414419,0,127.5,,137.9,0,139.1,,0.03,0.05,1.0,-3.1,-0.9,-0.1,0,0,1,1,0.0,0,35.489845,-119.546097,0.0,0.0,284.4,11,3,1.4,0,0.0,-1,0.0,0.0,0.0,0
47293,1506822414439,,,,,,,,0.03,0.05,1.0,-3.1,-0.9,-0.1,0,0,,,,,,,,,,,,,,,,,,,
47313,1506822414459,,,,,,,,0.03,0.05,1.0,-3.0,-0.9,-0.1,0,0,,,,,,,,,,,,,,,,,,,
47333,1506822414479,,,,,,,,0.03,0.05,1.0,-3.0,-0.9,-0.1,0,0,,,,,,,,,,,,,,,,,,,
47353,1506822414498,,,,,,,,0.03,0.05,1.0,-3.0,-0.9,-0.1,0,0,,,,,,,,,,,,,,,,,,,
47373,1506822414518,,,,,0,,,0.03,0.05,1.0,-3.0,-0.9,-0.1,0,0,1,1,0.0,0,35.489845,-119.546097,0.0,0.0,284.4,11,3,1.4,0,0.0,-1,0.0,0.0,0.0,0
47393,1506822414538,,,,,,,,0.03,0.05,1.0,-3.0,-0.9,-0.1,0,0,,,,,,,,,,,,,,,,,,,
47413,1506822414558,,,,,,,,0.03,0.05,1.0,-3.0,-0.9,-0.1,0,0,,,,,,,,,,,,,,,,,,,
47433,1506822414578,,,,,,,,0.03,0.05,1.0,-3.1,-0.9,-0.1,0,0,,,,,,,,,,,,,,,,,,,
47453,1506822414598,,,,,,,,0.03,0.05,1.0,-3.0,-0.9,-0.2,0,0,,,,,,,,,,,,,,,,,,,
47473,1506822414618,0,127.9,,137.9,0,138.7,,0.03,0.05,1.0,-3.0,-0.9,-0.1,0,0,1,1,0.0,0,35.489845,-119.546097,0.0,0.0,284.4,11,3,1.4,0,0.0,-1,0.0,0.0,0.0,0
47493,1506822414638,,,,,,,,0.03,0.05,1.0,-3.0,-0.9,-0.1,0,0,,,,,,,,,,,,,,,,,,,
47513,1506822414658,,,,,,,,0.03,0.05,1.0,-3.0,-0.9,-0.1,0,0,,,,,,,,,,,,,,,,,,,
47533,1506822414678,,,,,,,,0.03,0.05,1.0,-3.0,-0.9,-0.1,0,0,,,,,,,,,,,,,,,,,,,
47553,1506822414698,,,,,,,,0.03,0.05,1.01,-3.0,-0.9,-0.1,0,0,,,,,,,,,,,,,,,,,,,
47573,1506822414718,,,,,0,,,0.03,0.05,1.01,-3.0,-0.9,-0.2,0,0,1,1,0.0,0,35.489845,-119.546097,0.0,0.0,284.4,11,3,1.4,0,0.0,-1,0.0,0.0,0.0,0
47593,1506822414738,,,,,,,,0.03,0.05,1.01,-3.0,-0.9,-0.2,0,0,,,,,,,,,,,,,,,,,,,
47613,1506822414758,,,,,,,,0.03,0.05,1.01,-3.0,-0.9,-0.2,0,0,,,,,,,,,,,,,,,,,,,
47633,1506822414778,,,,,,,,0.03,0.05,1.0,-3.0,-0.9,-0.1,0,0,,,,,,,,,,,,,,,,,,,
47653,1506822414798,,,,,,,,0.03,0.05,1.0,-3.0,-0.9,-0.1,0,0,,,,,,,,,,,,,,,,,,,
47673,1506822414818,0,127.9,,138.6,0,139.6,,0.03,0.05,1.01,-3.0,-0.9,-0.1,0,0,1,1,0.0,0,35.489845,-119.546097,0.0,0.0,284.4,11,3,1.4,0,0.0,-1,0.0,0.0,0.0,0
47693,1506822414838,,,,,,,,0.03,0.05,1.01,-3.0,-0.9,-0.1,0,0,,,,,,,,,,,,,,,,,,,
47713,1506822414858,,,,,,,,0.03,0.05,1.01,-3.0,-0.9,-0.1,0,0,,,,,,,,,,,,,,,,,,,
47733,1506822414878,,,,,,,,0.03,0.05,1.01,-3.0,-0.9,-0.1,0,0,,,,,,,,,,,,,,,,,,,
47753,1506822414898,,,,,,,,0.03,0.05,1.01,-3.0,-0.9,-0.1,0,0,,,,,,,,,,,,,,,,,,,
47773,1506822414918,,,,,0,,,0.03,0.05,1.01,-3.0,-0.9,-0.1,0,0,1,1,0.0,0,35.489845,-119.546097,0.0,0.0,284.4,11,3,1.4,0,0.0,-1,0.0,0.0,0.0,0
47793,1506822414938,,,,,,,,0.03,0.05,1.01,-3.0,-0.9,-0.1,0,0,,,,,,,,,,,,,,,,,,,
47813,1506822414958,,,,,,,,0.03,0.05,1.01,-3.0,-0.9,-0.1,0,0,,,,,,,,,,,,,,,,,,,
47833,1506822414978,,,,,,,,0.03,0.05,1.01,-3.0,-0.9,-0.1,0,0,,,,,,,,,,,,,,,,,,,
47853,1506822414992,,,,,,,,0.03,0.05,1.01,-3.0,-0.9,-0.1,0,0,,,,,,,,,,,,,,,,,,,
47873,1506822415012,0,128.6,,138.9,0,139.7,,0.03,0.05,1.01,-3.0,-0.9,-0.1,0,0,1,1,0.0,0,35.489845,-119.546097,0.0,0.0,284.4,11,3,1.4,0,0.0,-1,0.0,0.0,0.0,0
47893,1506822415032,,,,,,,,0.03,0.05,1.01,-3.0,-0.9,-0.1,0,0,,,,,,,,,,,,,,,,,,,
47913,1506822415052,,,,,,,,0.03,0.05,1.01,-3.0,-0.9,-0.1,0,0,,,,,,,,,,,,,,,,,,,
47933,1506822415072,,,,,,,,0.03,0.05,1.01,-3.0,-0.9,-0.1,0,0,,,,,,,,,,,,,,,,,,,
47953,1506822415100,,,,,,,,0.03,0.05,1.01,-3.0,-0.9,-0.1,0,0,,,,,,,,,,,,,,,,,,,
47973,1506822415120,,,,,0,,,0.03,0.05,1.01,-3.0,-0.9,-0.1,0,0,1,1,0.0,0,35.489845,-119.546097,0.0,0.0,284.4,11,3,1.4,0,0.0,-1,0.0,0.0,0.0,0
47993,1506822415140,,,,,,,,0.03,0.05,1.01,-3.0,-0.9,-0.2,0,0,,,,,,,,,,,,,,,,,,,
48013,1506822415160,,,,,,,,0.03,0.05,1.01,-3.0,-0.9,-0.1,0,0,,,,,,,,,,,,,,,,,,,
48033,1506822415180,,,,,,,,0.03,0.05,1.0,-3.0,-0.9,-0.1,0,0,,,,,,,,,,,,,,,,,,,
48053,1506822415198,,,,,,,,0.03,0.05,1.0,-3.1,-0.9,-0.2,0,0,,,,,,,,,,,,,,,,,,,
48073,1506822415218,0,128.8,-0.5,139.0,0,139.4,13.06,0.03,0.05,1.0,-3.1,-0.9,-0.1,0,0,1,1,0.0,0,35.489845,-119.546097,0.0,0.0,284.4,11,3,1.4,0,0.0,-1,0.0,0.0,0.0,0
48093,1506822415238,,,,,,,,0.03,0.05,1.0,-3.1,-0.9,-0.2,0,0,,,,,,,,,,,,,,,,,,,
48113,1506822415258,,,,,,,,0.03,0.05,1.0,-3.0,-0.9,-0.2,0,0,,,,,,,,,,,,,,,,,,,
48133,1506822415278,,,,,,,,0.03,0.05,1.0,-3.0,-0.9,-0.2,0,0,,,,,,,,,,,,,,,,,,,
48153,1506822415298,,,,,,,,0.03,0.05,1.0,-3.0,-0.9,-0.1,0,0,,,,,,,,,,,,,,,,,,,
48173,1506822415318,,,,,0,,,0.03,0.05,1.0,-3.1,-0.9,-0.1,0,0,1,1,0.0,0,35.489845,-119.546097,0.0,0.0,284.4,11,3,1.4,0,0.0,-1,0.0,0.0,0.0,0
48193,1506822415338,,,,,,,,0.03,0.05,1.0,-3.1,-0.9,-0.1,0,0,,,,,,,,,,,,,,,,,,,
48213,1506822415358,,,,,,,,0.03,0.05,1.0,-3.1,-0.9,-0.1,0,0,,,,,,,,,,,,,,,,,,,
48233,1506822415378,,,,,,,,0.03,0.05,1.0,-3.0,-0.9,-0.1,0,0,,,,,,,,,,,,,,,,,,,
48253,1506822415398,,,,,,,,0.03,0.05,1.0,-3.0,-0.9,-0.1,0,0,,,,,,,,,,,,,,,,,,,
48273,1506822415418,0,128.6,,139.0,0,139.7,,0.03,0.05,1.0,-3.0,-0.9,-0.1,0,0,1,1,0.0,0,35.489845,-119.546097,0.0,0.0,284.4,11,3,1.4,0,0.0,-1,0.0,0.0,0.0,0
48293,1506822415438,,,,,,,,0.03,0.05,1.0,-3.0,-0.9,-0.1,0,0,,,,,,,,,,,,,,,,,,,
48313,1506822415458,,,,,,,,0.03,0.05,1.0,-3.0,-0.9,-0.2,0,0,,,,,,,,,,,,,,,,,,,
48333,1506822415478,,,,,,,,0.03,0.05,1.0,-3.0,-0.9,-0.2,0,0,,,,,,,,,,,,,,,,,,,
48353,1506822415499,,,,,,,,0.03,0.05,1.0,-3.0,-0.9,-0.2,0,0,,,,,,,,,,,,,,,,,,,
48373,1506822415519,,,,,0,,,0.03,0.05,1.0,-3.0,-0.9,-0.2,0,0,1,1,0.0,0,35.489845,-119.546097,0.0,0.0,284.4,11,3,1.4,0,0.0,-1,0.0,0.0,0.0,0
48393,1506822415539,,,,,,,,0.03,0.05,1.0,-3.0,-0.9,-0.2,0,0,,,,,,,,,,,,,,,,,,,
48413,1506822415559,,,,,,,,0.03,0.05,1.0,-3.0,-0.9,-0.2,0,0,,,,,,,,,,,,,,,,,,,
48433,1506822415579,,,,,,,,0.03,0.05,1.0,-3.0,-0.9,-0.2,0,0,,,,,,,,,,,,,,,,,,,
48453,1506822415599,,,,,,,,0.03,0.05,1.0,-3.0,-0.9,-0.2,0,0,,,,,,,,,,,,,,,,,,,
48473,1506822415619,0,128.5,,138.8,0,139.7,,0.03,0.05,1.0,-3.0,-0.9,-0.2,0,0,1,1,0.0,0,35.489845,-119.546097,0.0,0.0,284.4,11,3,1.4,0,0.0,-1,0.0,0.0,0.0,0
48493,1506822415639,,,,,,,,0.03,0.05,1.0,-3.0,-0.9,-0.2,0,0,,,,,,,,,,,,,,,,,,,
48513,1506822415659,,,,,,,,0.03,0.05,1.0,-3.0,-0.9,-0.2,0,0,,,,,,,,,,,,,,,,,,,
48533,1506822415679,,,,,,,,0.03,0.05,1.0,-3.0,-0.9,-0.2,0,0,,,,,,,,,,,,,,,,,,,
48553,1506822415699,,,,,,,,0.03,0.05,1.0,-3.0,-0.9,-0.2,0,0,,,,,,,,,,,,,,,,,,,
48573,1506822415719,,,,,0,,,0.03,0.05,1.0,-3.0,-0.9,-0.1,0,0,1,1,0.0,0,35.489845,-119.546097,0.0,0.0,284.4,11,3,1.4,0,0.0,-1,0.0,0.0,0.0,0
48593,1506822415739,,,,,,,,0.03,0.05,1.01,-3.0,-0.9,-0.2,0,0,,,,,,,,,,,,,,,,,,,
48613,1506822415759,,,,,,,,0.03,0.05,1.0,-3.0,-0.9,-0.2,0,0,,,,,,,,,,,,,,,,,,,
48633,1506822415779,,,,,,,,0.03,0.05,1.0,-3.0,-0.9,-0.2,0,0,,,,,,,,,,,,,,,,,,,
48653,1506822415799,,,,,,,,0.03,0.05,1.0,-3.0,-0.9,-0.2,0,0,,,,,,,,,,,,,,,,,,,
48673,1506822415819,0,128.7,,139.0,0,139.6,,0.03,0.05,1.0,-3.0,-1.0,-0.2,0,0,1,1,0.0,0,35.489845,-119.546097,0.0,0.0,284.4,11,3,1.4,0,0.0,-1,0.0,0.0,0.0,0
48693,1506822415839,,,,,,,,0.03,0.05,1.0,-3.0,-0.9,-0.2,0,0,,,,,,,,,,,,,,,,,,,
48713,1506822415859,,,,,,,,0.03,0.05,1.0,-3.0,-0.9,-0.2,0,0,,,,,,,,,,,,,,,,,,,
48733,1506822415879,,,,,,,,0.03,0.05,1.0,-3.0,-0.9,-0.2,0,0,,,,,,,,,,,,,,,,,,,
48753,1506822415899,,,,,,,,0.03,0.05,1.01,-3.1,-0.9,-0.2,0,0,,,,,,,,,,,,,,,,,,,
48773,1506822415919,,,,,0,,,0.03,0.05,1.0,-3.0,-0.9,-0.2,0,0,1,1,0.0,0,35.489845,-119.546097,0.0,0.0,284.4,11,3,1.4,0,0.0,-1,0.0,0.0,0.0,0
48793,1506822415939,,,,,,,,0.03,0.05,1.01,-3.0,-0.9,-0.1,0,0,,,,,,,,,,,,,,,,,,,
48813,1506822415959,,,,,,,,0.03,0.05,1.0,-3.0,-0.9,-0.1,0,0,,,,,,,,,,,,,,,,,,,
48833,1506822415979,,,,,,,,0.03,0.05,1.0,-3.0,-0.9,-0.1,0,0,,,,,,,,,,,,,,,,,,,
48853,1506822415993,,,,,,,,0.03,0.05,1.0,-3.0,-0.9,-0.1,0,0,,,,,,,,,,,,,,,,,,,
48873,1506822416013,0,127.6,,138.0,0,139.0,,0.03,0.05,1.0,-3.0,-0.9,-0.2,0,0,1,1,0.0,0,35.489845,-119.546097,0.0,0.0,284.4,11,3,1.4,0,0.0,-1,0.0,0.0,0.0,0
48893,1506822416033,,,,,,,,0.03,0.05,1.0,-3.0,-0.9,-0.2,0,0,,,,,,,,,,,,,,,,,,,
48913,1506822416053,,,,,,,,0.03,0.05,1.0,-3.0,-0.9,-0.2,0,0,,,,,,,,,,,,,,,,,,,
48933,1506822416073,,,,,,,,0.03,0.05,1.0,-3.0,-0.9,-0.2,0,0,,,,,,,,,,,,,,,,,,,
48953,1506822416099,,,,,,,,0.03,0.05,1.0,-3.0,-0.9,-0.2,0,0,,,,,,,,,,,,,,,,,,,
48973,1506822416119,,,,,0,,,0.03,0.05,1.0,-3.0,-0.9,-0.2,0,0,1,1,0.0,0,35.489845,-119.546097,0.0,0.0,284.4,11,3,1.4,0,0.0,-1,0.0,0.0,0.0,0
48993,1506822416139,,,,,,,,0.03,0.05,1.0,-3.0,-0.9,-0.1,0,0,,,,,,,,,,,,,,,,,,,
49013,1506822416159,,,,,,,,0.03,0.05,1.0,-3.0,-0.9,-0.1,0,0,,,,,,,,,,,,,,,,,,,
49033,1506822416179,,,,,,,,0.03,0.05,1.0,-3.0,-0.9,-0.1,0,0,,,,,,,,,,,,,,,,,,,
49053,1506822416199,,,,,,,,0.03,0.05,1.0,-3.0,-0.9,-0.1,0,0,,,,,,,,,,,,,,,,,,,
49073,1506822416219,0,127.9,-0.7,137.7,0,138.6,13.07,0.03,0.05,1.0,-3.0,-0.9,-0.1,0,0,1,1,0.0,0,35.489845,-119.546097,0.0,0.0,284.4,11,3,1.4,0,0.0,-1,0.0,0.0,0.0,0
49093,1506822416239,,,,,,,,0.03,0.05,1.0,-3.0,-0.9,-0.1,0,0,,,,,,,,,,,,,,,,,,,
49113,1506822416259,,,,,,,,0.03,0.05,1.0,-3.0,-0.9,-0.1,0,0,,,,,,,,,,,,,,,,,,,
49133,1506822416279,,,,,,,,0.03,0.05,1.0,-3.0,-0.9,-0.1,0,0,,,,,,,,,,,,,,,,,,,
49153,1506822416299,,,,,,,,0.03,0.05,1.0,-3.0,-0.9,-0.1,0,0,,,,,,,,,,,,,,,,,,,
49173,1506822416319,,,,,0,,,0.03,0.05,1.0,-3.0,-0.9,-0.1,0,0,1,1,0.0,0,35.489845,-119.546097,0.0,0.0,284.4,11,3,1.4,0,0.0,-1,0.0,0.0,0.0,0
49193,1506822416339,,,,,,,,0.03,0.05,1.0,-3.0,-0.9,-0.2,0,0,,,,,,,,,,,,,,,,,,,
49213,1506822416359,,,,,,,,0.03,0.05,1.0,-3.0,-0.9,-0.2,0,0,,,,,,,,,,,,,,,,,,,
49233,1506822416379,,,,,,,,0.03,0.05,1.0,-3.0,-0.9,-0.2,0,0,,,,,,,,,,,,,,,,,,,
49253,1506822416399,,,,,,,,0.03,0.05,1.0,-3.0,-0.9,-0.2,0,0,,,,,,,,,,,,,,,,,,,
49273,1506822416419,0,127.8,,138.3,0,139.3,,0.03,0.05,1.0,-3.0,-0.9,-0.2,0,0,1,1,0.0,0,35.489845,-119.546097,0.0,0.0,284.4,11,3,1.4,0,0.0,-1,0.0,0.0,0.0,0
49293,1506822416439,,,,,,,,0.03,0.05,1.0,-3.0,-0.9,-0.2,0,0,,,,,,,,,,,,,,,,,,,
49313,1506822416459,,,,,,,,0.03,0.05,1.0,-3.0,-0.9,-0.2,0,0,,,,,,,,,,,,,,,,,,,
49333,1506822416479,,,,,,,,0.03,0.05,1.0,-3.0,-0.9,-0.1,0,0,,,,,,,,,,,,,,,,,,,
49353,1506822416498,,,,,,,,0.03,0.05,1.0,-3.0,-0.9,-0.1,0,0,,,,,,,,,,,,,,,,,,,
49373,1506822416518,,,,,0,,,0.03,0.05,1.0,-3.0,-0.9,-0.1,0,0,1,1,0.0,0,35.489845,-119.546097,0.0,0.0,284.4,11,3,1.4,0,0.0,-1,0.0,0.0,0.0,0
49393,1506822416538,,,,,,,,0.03,0.05,1.0,-3.0,-0.9,-0.1,0,0,,,,,,,,,,,,,,,,,,,
49413,1506822416558,,,,,,,,0.03,0.05,1.0,-3.1,-0.9,-0.1,0,0,,,,,,,,,,,,,,,,,,,
49433,1506822416578,,,,,,,,0.03,0.05,1.0,-3.1,-0.9,-0.1,0,0,,,,,,,,,,,,,,,,,,,
49453,1506822416598,,,,,,,,0.03,0.05,1.0,-3.1,-0.9,-0.2,0,0,,,,,,,,,,,,,,,,,,,
49473,1506822416618,0,127.5,,138.0,0,139.0,,0.03,0.05,1.0,-3.0,-0.9,-0.2,0,0,1,1,0.0,0,35.489845,-119.546097,0.0,0.0,284.4,11,3,1.4,0,0.0,-1,0.0,0.0,0.0,0
49493,1506822416638,,,,,,,,0.03,0.05,1.0,-3.0,-0.9,-0.2,0,0,,,,,,,,,,,,,,,,,,,
49513,1506822416658,,,,,,,,0.03,0.05,1.0,-3.0,-0.9,-0.2,0,0,,,,,,,,,,,,,,,,,,,
49533,1506822416678,,,,,,,,0.03,0.05,1.0,-3.0,-0.9,-0.2,0,0,,,,,,,,,,,,,,,,,,,
49553,1506822416698,,,,,,,,0.03,0.05,1.0,-3.0,-0.9,-0.2,0,0,,,,,,,,,,,,,,,,,,,
49573,1506822416718,,,,,0,,,0.03,0.05,1.0,-3.0,-0.9,-0.2,0,0,1,1,0.0,0,35.489845,-119.546097,0.0,0.0,284.4,11,3,1.4,0,0.0,-1,0.0,0.0,0.0,0
49593,1506822416738,,,,,,,,0.03,0.05,1.0,-3.0,-0.9,-0.2,0,0,,,,,,,,,,,,,,,,,,,
49613,1506822416758,,,,,,,,0.03,0.05,1.0,-3.0,-0.9,-0.2,0,0,,,,,,,,,,,,,,,,,,,
49633,1506822416778,,,,,,,,0.03,0.05,1.0,-3.0,-0.9,-0.2,0,0,,,,,,,,,,,,,,,,,,,
49653,1506822416798,,,,,,,,0.03,0.05,1.0,-3.0,-0.9,-0.2,0,0,,,,,,,,,,,,,,,,,,,
49673,1506822416818,0,128.6,,139.0,0,139.6,,0.03,0.05,1.0,-3.0,-0.9,-0.2,0,0,1,1,0.0,0,35.489845,-119.546097,0.0,0.0,284.4,11,3,1.4,0,0.0,-1,0.0,0.0,0.0,0
49693,1506822416838,,,,,,,,0.03,0.05,1.0,-3.0,-0.9,-0.2,0,0,,,,,,,,,,,,,,,,,,,
49713,1506822416858,,,,,,,,0.03,0.05,1.0,-3.0,-0.9,-0.2,0,0,,,,,,,,,,,,,,,,,,,
49733,1506822416878,,,,,,,,0.03,0.05,1.01,-3.0,-0.9,-0.2,0,0,,,,,,,,,,,,,,,,,,,
49753,1506822416898,,,,,,,,0.03,0.05,1.0,-3.0,-0.9,-0.2,0,0,,,,,,,,,,,,,,,,,,,
49773,1506822416918,,,,,0,,,0.03,0.05,1.0,-3.0,-0.9,-0.2,0,0,1,1,0.0,0,35.489845,-119.546097,0.0,0.0,284.4,11,3,1.4,0,0.0,-1,0.0,0.0,0.0,0
49793,1506822416938,,,,,,,,0.03,0.05,1.0,-3.0,-0.9,-0.2,0,0,,,,,,,,,,,,,,,,,,,
49813,1506822416958,,,,,,,,0.03,0.05,1.0,-3.0,-0.9,-0.2,0,0,,,,,,,,,,,,,,,,,,,
49833,1506822416978,,,,,,,,0.03,0.05,1.0,-3.0,-0.9,-0.2,0,0,,,,,,,,,,,,,,,,,,,
49853,1506822416992,,,,,,,,0.03,0.05,1.0,-3.0,-0.9,-0.2,0,0,,,,,,,,,,,,,,,,,,,
49873,1506822417012,0,128.6,,139.0,0,139.6,,0.03,0.05,1.0,-3.0,-0.9,-0.2,0,0,1,1,0.0,0,35.489845,-119.546097,0.0,0.0,284.4,11,3,1.4,0,0.0,-1,0.0,0.0,0.0,0
49893,1506822417032,,,,,,,,0.03,0.05,1.0,-3.0,-0.9,-0.2,0,0,,,,,,,,,,,,,,,,,,,
49913,1506822417052,,,,,,,,0.03,0.05,1.0,-3.0,-0.9,-0.2,0,0,,,,,,,,,,,,,,,,,,,
49933,1506822417072,,,,,,,,0.03,0.05,1.0,-3.0,-0.9,-0.2,0,0,,,,,,,,,,,,,,,,,,,
49953,1506822417098,,,,,,,,0.03,0.05,1.0,-3.0,-0.9,-0.2,0,0,,,,,,,,,,,,,,,,,,,
49973,1506822417118,,,,,0,,,0.03,0.05,1.0,-3.0,-0.9,-0.2,0,0,1,1,0.0,0,35.489845,-119.546097,0.0,0.0,284.4,11,3,1.4,0,0.0,-1,0.0,0.0,0.0,0
49993,1506822417138,,,,,,,,0.03,0.05,1.01,-3.0,-0.9,-0.2,0,0,,,,,,,,,,,,,,,,,,,
50013,1506822417158,,,,,,,,0.03,0.05,1.0,-3.0,-0.9,-0.2,0,0,,,,,,,,,,,,,,,,,,,
50033,1506822417178,,,,,,,,0.03,0.05,1.0,-3.0,-0.9,-0.2,0,0,,,,,,,,,,,,,,,,,,,
50053,1506822417198,,,,,,,,0.03,0.05,1.01,-3.0,-0.9,-0.2,0,0,,,,,,,,,,,,,,,,,,,
50073,1506822417218,0,128.9,-0.6,139.0,0,139.4,13.06,0.03,0.05,1.01,-3.0,-0.9,-0.2,0,0,1,1,0.0,0,35.489845,-119.546097,0.0,0.0,284.4,11,3,1.4,0,0.0,-1,0.0,0.0,0.0,0
50093,1506822417238,,,,,,,,0.03,0.05,1.01,-3.0,-0.9,-0.2,0,0,,,,,,,,,,,,,,,,,,,
50113,1506822417258,,,,,,,,0.03,0.05,1.0,-3.0,-0.9,-0.2,0,0,,,,,,,,,,,,,,,,,,,
50133,1506822417278,,,,,,,,0.03,0.05,1.01,-3.0,-0.9,-0.2,0,0,,,,,,,,,,,,,,,,,,,
50153,1506822417298,,,,,,,,0.03,0.05,1.0,-3.0,-0.9,-0.2,0,0,,,,,,,,,,,,,,,,,,,
50173,1506822417318,,,,,0,,,0.03,0.05,1.0,-3.0,-0.9,-0.2,0,0,1,1,0.0,0,35.489845,-119.546097,0.0,0.0,284.4,11,3,1.4,0,0.0,-1,0.0,0.0,0.0,0
50193,1506822417338,,,,,,,,0.03,0.05,1.0,-3.0,-0.9,-0.2,0,0,,,,,,,,,,,,,,,,,,,
50213,1506822417358,,,,,,,,0.03,0.05,1.0,-3.0,-0.9,-0.2,0,0,,,,,,,,,,,,,,,,,,,
50233,1506822417378,,,,,,,,0.03,0.05,1.0,-3.0,-0.9,-0.2,0,0,,,,,,,,,,,,,,,,,,,
50253,1506822417398,,,,,,,,0.03,0.05,1.0,-3.0,-0.9,-0.2,0,0,,,,,,,,,,,,,,,,,,,
50273,1506822417418,0,128.5,,138.7,0,138.6,,0.03,0.05,1.0,-3.0,-0.9,-0.2,0,0,1,1,0.0,0,35.489845,-119.546097,0.0,0.0,284.4,11,3,1.4,0,0.0,-1,0.0,0.0,0.0,0
50293,1506822417438,,,,,,,,0.03,0.05,1.0,-3.0,-0.9,-0.2,0,0,,,,,,,,,,,,,,,,,,,
50313,1506822417458,,,,,,,,0.03,0.05,1.0,-3.0,-1.0,-0.2,0,0,,,,,,,,,,,,,,,,,,,
50333,1506822417478,,,,,,,,0.03,0.05,1.0,-3.0,-1.0,-0.2,0,0,,,,,,,,,,,,,,,,,,,
50353,1506822417497,,,,,,,,0.03,0.05,1.0,-3.0,-0.9,-0.2,0,0,,,,,,,,,,,,,,,,,,,
50373,1506822417517,,,,,0,,,0.03,0.05,1.0,-3.0,-1.0,-0.2,0,0,1,1,0.0,0,35.489845,-119.546097,0.0,0.0,284.4,11,3,1.4,0,0.0,-1,0.0,0.0,0.0,0
50393,1506822417537,,,,,,,,0.03,0.05,1.0,-3.0,-1.0,-0.2,0,0,,,,,,,,,,,,,,,,,,,
50413,1506822417557,,,,,,,,0.03,0.05,1.0,-3.1,-0.9,-0.2,0,0,,,,,,,,,,,,,,,,,,,
50433,1506822417577,,,,,,,,0.03,0.05,1.0,-3.0,-0.9,-0.2,0,0,,,,,,,,,,,,,,,,,,,
50453,1506822417597,,,,,,,,0.03,0.05,1.0,-3.0,-0.9,-0.2,0,0,,,,,,,,,,,,,,,,,,,
50473,1506822417617,0,128.8,,138.9,0,139.2,,0.03,0.05,1.0,-3.1,-0.9,-0.2,0,0,1,1,0.0,0,35.489845,-119.546097,0.0,0.0,284.4,11,3,1.4,0,0.0,-1,0.0,0.0,0.0,0
50493,1506822417637,,,,,,,,0.03,0.05,1.0,-3.1,-0.9,-0.2,0,0,,,,,,,,,,,,,,,,,,,
50513,1506822417657,,,,,,,,0.03,0.05,1.0,-3.1,-0.9,-0.2,0,0,,,,,,,,,,,,,,,,,,,
50533,1506822417677,,,,,,,,0.03,0.05,1.0,-3.1,-0.9,-0.2,0,0,,,,,,,,,,,,,,,,,,,
50553,1506822417693,,,,,,,,0.03,0.05,1.0,-3.0,-0.9,-0.2,0,0,,,,,,,,,,,,,,,,,,,
50573,1506822417713,,,,,0,,,0.03,0.05,1.0,-3.0,-0.9,-0.2,0,0,1,1,0.0,0,35.489845,-119.546097,0.0,0.0,284.4,11,3,1.4,0,0.0,-1,0.0,0.0,0.0,0
50593,1506822417733,,,,,,,,0.03,0.05,1.0,-3.0,-0.9,-0.2,0,0,,,,,,,,,,,,,,,,,,,
50613,1506822417753,,,,,,,,0.03,0.05,1.0,-3.0,-0.9,-0.2,0,0,,,,,,,,,,,,,,,,,,,
50633,1506822417773,,,,,,,,0.03,0.05,1.0,-3.0,-0.9,-0.2,0,0,,,,,,,,,,,,,,,,,,,
50653,1506822417799,,,,,,,,0.03,0.05,1.0,-3.0,-0.9,-0.2,0,0,,,,,,,,,,,,,,,,,,,
50673,1506822417819,0,128.6,,139.0,0,139.5,,0.03,0.05,1.0,-3.0,-0.9,-0.2,0,0,1,1,0.0,0,35.489845,-119.546097,0.0,0.0,284.4,11,3,1.4,0,0.0,-1,0.0,0.0,0.0,0
50693,1506822417839,,,,,,,,0.03,0.05,1.0,-3.0,-0.9,-0.1,0,0,,,,,,,,,,,,,,,,,,,
50713,1506822417859,,,,,,,,0.03,0.05,1.0,-3.0,-0.9,-0.1,0,0,,,,,,,,,,,,,,,,,,,
50733,1506822417879,,,,,,,,0.03,0.05,1.0,-3.0,-0.9,-0.1,0,0,,,,,,,,,,,,,,,,,,,
50753,1506822417899,,,,,,,,0.03,0.05,1.0,-3.0,-0.9,-0.2,0,0,,,,,,,,,,,,,,,,,,,
50773,1506822417919,,,,,0,,,0.03,0.05,1.0,-3.0,-0.9,-0.2,0,0,1,1,0.0,0,35.489845,-119.546097,0.0,0.0,284.4,11,3,1.4,0,0.0,-1,0.0,0.0,0.0,0
50793,1506822417939,,,,,,,,0.03,0.05,1.0,-3.0,-0.9,-0.2,0,0,,,,,,,,,,,,,,,,,,,
50813,1506822417959,,,,,,,,0.03,0.05,1.0,-3.0,-0.9,-0.2,0,0,,,,,,,,,,,,,,,,,,,
50833,1506822417979,,,,,,,,0.03,0.05,1.0,-3.0,-0.9,-0.2,0,0,,,,,,,,,,,,,,,,,,,
50853,1506822417993,,,,,,,,0.03,0.05,1.0,-3.1,-0.9,-0.2,0,0,,,,,,,,,,,,,,,,,,,
50873,1506822418013,0,128.8,,138.9,0,139.2,,0.03,0.05,1.0,-3.1,-0.9,-0.2,0,0,1,1,0.0,0,35.489845,-119.546097,0.0,0.0,284.4,11,3,1.4,0,0.0,-1,0.0,0.0,0.0,0
50893,1506822418033,,,,,,,,0.03,0.05,1.0,-3.1,-0.9,-0.2,0,0,,,,,,,,,,,,,,,,,,,
50913,1506822418053,,,,,,,,0.03,0.05,1.0,-3.1,-0.9,-0.2,0,0,,,,,,,,,,,,,,,,,,,
50933,1506822418073,,,,,,,,0.03,0.05,1.0,-3.0,-0.9,-0.2,0,0,,,,,,,,,,,,,,,,,,,
50953,1506822418099,,,,,,,,0.03,0.05,1.0,-3.0,-0.9,-0.2,0,0,,,,,,,,,,,,,,,,,,,
50973,1506822418119,,,,,0,,,0.03,0.05,1.0,-3.0,-0.9,-0.2,0,0,1,1,0.0,0,35.489845,-119.546097,0.0,0.0,284.4,11,3,1.4,0,0.0,-1,0.0,0.0,0.0,0
50993,1506822418139,,,,,,,,0.03,0.05,1.0,-3.0,-0.9,-0.2,0,0,,,,,,,,,,,,,,,,,,,
51013,1506822418159,,,,,,,,0.03,0.05,1.0,-3.0,-0.9,-0.2,0,0,,,,,,,,,,,,,,,,,,,
51033,1506822418179,,,,,,,,0.03,0.05,1.0,-3.0,-0.9,-0.2,0,0,,,,,,,,,,,,,,,,,,,
51053,1506822418199,,,,,,,,0.03,0.05,1.0,-3.0,-0.9,-0.2,0,0,,,,,,,,,,,,,,,,,,,
51073,1506822418219,0,127.8,-0.7,138.6,0,139.4,13.07,0.03,0.05,1.0,-3.0,-0.9,-0.2,0,0,1,1,0.0,0,35.489845,-119.546097,0.0,0.0,284.4,11,3,1.4,0,0.0,-1,0.0,0.0,0.0,0
51093,1506822418239,,,,,,,,0.03,0.05,1.0,-3.0,-0.9,-0.2,0,0,,,,,,,,,,,,,,,,,,,
51113,1506822418259,,,,,,,,0.03,0.05,1.0,-3.0,-0.9,-0.2,0,0,,,,,,,,,,,,,,,,,,,
51133,1506822418279,,,,,,,,0.03,0.05,1.0,-3.0,-0.9,-0.2,0,0,,,,,,,,,,,,,,,,,,,
51153,1506822418299,,,,,,,,0.03,0.05,1.0,-3.0,-0.9,-0.2,0,0,,,,,,,,,,,,,,,,,,,
51173,1506822418319,,,,,0,,,0.03,0.05,1.0,-3.0,-0.9,-0.2,0,0,1,1,0.0,0,35.489845,-119.546097,0.0,0.0,284.4,11,3,1.4,0,0.0,-1,0.0,0.0,0.0,0
51193,1506822418339,,,,,,,,0.03,0.05,1.0,-3.1,-0.9,-0.2,0,0,,,,,,,,,,,,,,,,,,,
51213,1506822418359,,,,,,,,0.03,0.05,1.0,-3.0,-0.9,-0.2,0,0,,,,,,,,,,,,,,,,,,,
51233,1506822418379,,,,,,,,0.03,0.05,1.0,-3.0,-0.9,-0.2,0,0,,,,,,,,,,,,,,,,,,,
51253,1506822418399,,,,,,,,0.03,0.05,1.0,-3.0,-0.9,-0.2,0,0,,,,,,,,,,,,,,,,,,,
51273,1506822418419,0,127.6,,138.0,0,139.2,,0.03,0.05,1.0,-3.0,-0.9,-0.2,0,0,1,1,0.0,0,35.489845,-119.546097,0.0,0.0,284.4,11,3,1.4,0,0.0,-1,0.0,0.0,0.0,0
51293,1506822418439,,,,,,,,0.03,0.05,1.0,-3.0,-0.9,-0.2,0,0,,,,,,,,,,,,,,,,,,,
51313,1506822418459,,,,,,,,0.03,0.05,1.0,-3.0,-0.9,-0.2,0,0,,,,,,,,,,,,,,,,,,,
51333,1506822418479,,,,,,,,0.03,0.05,1.0,-3.0,-0.9,-0.2,0,0,,,,,,,,,,,,,,,,,,,
51353,1506822418498,,,,,,,,0.03,0.05,1.0,-3.1,-0.9,-0.2,0,0,,,,,,,,,,,,,,,,,,,
51373,1506822418518,,,,,0,,,0.03,0.05,1.0,-3.0,-0.9,-0.2,0,0,1,1,0.0,0,35.489845,-119.546097,0.0,0.0,284.4,11,3,1.4,0,0.0,-1,0.0,0.0,0.0,0
51393,1506822418538,,,,,,,,0.03,0.05,1.0,-3.0,-0.9,-0.2,0,0,,,,,,,,,,,,,,,,,,,
51413,1506822418558,,,,,,,,0.03,0.05,1.0,-3.0,-0.9,-0.2,0,0,,,,,,,,,,,,,,,,,,,
51433,1506822418578,,,,,,,,0.03,0.05,1.0,-3.1,-0.9,-0.2,0,0,,,,,,,,,,,,,,,,,,,
51453,1506822418598,,,,,,,,0.03,0.05,1.0,-3.0,-0.9,-0.2,0,0,,,,,,,,,,,,,,,,,,,
51473,1506822418618,0,127.7,,137.8,0,138.8,,0.03,0.05,1.0,-3.0,-0.9,-0.2,0,0,1,1,0.0,0,35.489845,-119.546097,0.0,0.0,284.4,11,3,1.4,0,0.0,-1,0.0,0.0,0.0,0
51493,1506822418638,,,,,,,,0.03,0.05,1.0,-3.0,-0.9,-0.2,0,0,,,,,,,,,,,,,,,,,,,
51513,1506822418658,,,,,,,,0.03,0.05,1.0,-3.0,-0.9,-0.2,0,0,,,,,,,,,,,,,,,,,,,
51533,1506822418678,,,,,,,,0.03,0.05,1.0,-3.0,-0.9,-0.2,0,0,,,,,,,,,,,,,,,,,,,
51553,1506822418698,,,,,,,,0.03,0.05,1.0,-3.0,-0.9,-0.2,0,0,,,,,,,,,,,,,,,,,,,
51573,1506822418718,,,,,0,,,0.03,0.05,1.0,-3.0,-0.9,-0.2,0,0,1,1,0.0,0,35.489845,-119.546097,0.0,0.0,284.4,11,3,1.4,0,0.0,-1,0.0,0.0,0.0,0
51593,1506822418738,,,,,,,,0.03,0.05,1.0,-3.0,-0.9,-0.2,0,0,,,,,,,,,,,,,,,,,,,
51613,1506822418758,,,,,,,,0.03,0.05,1.0,-3.1,-0.9,-0.2,0,0,,,,,,,,,,,,,,,,,,,
51633,1506822418778,,,,,,,,0.03,0.05,1.0,-3.0,-0.9,-0.2,0,0,,,,,,,,,,,,,,,,,,,
51653,1506822418798,,,,,,,,0.03,0.05,1.0,-3.0,-0.9,-0.2,0,0,,,,,,,,,,,,,,,,,,,
51673,1506822418818,0,128.7,,138.7,0,138.8,,0.03,0.05,1.0,-3.0,-0.9,-0.2,0,0,1,1,0.0,0,35.489845,-119.546097,0.0,0.0,284.4,11,3,1.4,0,0.0,-1,0.0,0.0,0.0,0
51693,1506822418838,,,,,,,,0.03,0.05,1.0,-3.0,-0.9,-0.2,0,0,,,,,,,,,,,,,,,,,,,
51713,1506822418858,,,,,,,,0.03,0.05,1.0,-3.0,-0.9,-0.2,0,0,,,,,,,,,,,,,,,,,,,
51733,1506822418878,,,,,,,,0.03,0.05,1.0,-3.0,-0.9,-0.2,0,0,,,,,,,,,,,,,,,,,,,
51753,1506822418898,,,,,,,,0.03,0.05,1.0,-3.0,-0.9,-0.2,0,0,,,,,,,,,,,,,,,,,,,
51773,1506822418918,,,,,0,,,0.03,0.05,1.0,-3.0,-0.9,-0.1,0,0,1,1,0.0,0,35.489845,-119.546097,0.0,0.0,284.4,11,3,1.4,0,0.0,-1,0.0,0.0,0.0,0
51793,1506822418938,,,,,,,,0.03,0.05,1.0,-3.0,-0.9,-0.1,0,0,,,,,,,,,,,,,,,,,,,
51813,1506822418958,,,,,,,,0.03,0.05,1.0,-3.0,-0.9,-0.1,0,0,,,,,,,,,,,,,,,,,,,
51833,1506822418978,,,,,,,,0.03,0.05,1.0,-3.0,-0.9,-0.1,0,0,,,,,,,,,,,,,,,,,,,
51853,1506822418994,,,,,,,,0.03,0.05,1.0,-3.0,-0.9,-0.1,0,0,,,,,,,,,,,,,,,,,,,
51873,1506822419014,0,127.7,,137.7,0,138.8,,0.03,0.05,1.0,-3.0,-0.9,-0.1,0,0,1,1,0.0,0,35.489845,-119.546097,0.0,0.0,284.4,11,3,1.4,0,0.0,-1,0.0,0.0,0.0,0
51893,1506822419034,,,,,,,,0.03,0.05,1.0,-3.0,-0.9,-0.1,0,0,,,,,,,,,,,,,,,,,,,
51913,1506822419054,,,,,,,,0.03,0.05,1.0,-3.0,-0.9,-0.1,0,0,,,,,,,,,,,,,,,,,,,
51933,1506822419074,,,,,,,,0.03,0.05,1.01,-3.0,-0.9,-0.1,0,0,,,,,,,,,,,,,,,,,,,
51953,1506822419100,,,,,,,,0.03,0.05,1.01,-3.0,-0.9,-0.1,0,0,,,,,,,,,,,,,,,,,,,
51973,1506822419120,,,,,0,,,0.03,0.05,1.01,-3.0,-0.9,-0.1,0,0,1,1,0.0,0,35.489845,-119.546097,0.0,0.0,284.4,11,3,1.4,0,0.0,-1,0.0,0.0,0.0,0
51993,1506822419140,,,,,,,,0.03,0.05,1.01,-3.0,-0.9,-0.2,0,0,,,,,,,,,,,,,,,,,,,
52013,1506822419160,,,,,,,,0.03,0.05,1.0,-3.0,-0.9,-0.2,0,0,,,,,,,,,,,,,,,,,,,
52033,1506822419180,,,,,,,,0.03,0.05,1.0,-3.0,-0.9,-0.2,0,0,,,,,,,,,,,,,,,,,,,
52053,1506822419200,,,,,,,,0.03,0.05,1.01,-3.0,-0.9,-0.2,0,0,,,,,,,,,,,,,,,,,,,
52073,1506822419220,0,128.5,-0.6,138.7,0,138.6,13.05,0.03,0.05,1.0,-3.0,-0.8,-0.1,0,0,1,1,0.0,0,35.489845,-119.546097,0.0,0.0,284.4,11,3,1.4,0,0.0,-1,0.0,0.0,0.0,0
52093,1506822419240,,,,,,,,0.03,0.05,1.0,-3.0,-0.8,-0.1,0,0,,,,,,,,,,,,,,,,,,,
52113,1506822419260,,,,,,,,0.03,0.05,1.0,-3.0,-0.9,-0.1,0,0,,,,,,,,,,,,,,,,,,,
52133,1506822419280,,,,,,,,0.03,0.05,1.0,-3.0,-0.9,-0.1,0,0,,,,,,,,,,,,,,,,,,,
52153,1506822419300,,,,,,,,0.03,0.05,1.0,-3.0,-0.9,-0.1,0,0,,,,,,,,,,,,,,,,,,,
52173,1506822419320,,,,,0,,,0.03,0.05,1.0,-3.0,-0.9,-0.1,0,0,1,1,0.0,0,35.489845,-119.546097,0.0,0.0,284.4,11,3,1.4,0,0.0,-1,0.0,0.0,0.0,0
52193,1506822419340,,,,,,,,0.03,0.05,1.0,-3.0,-0.9,-0.1,0,0,,,,,,,,,,,,,,,,,,,
52213,1506822419360,,,,,,,,0.03,0.05,1.0,-3.0,-0.9,-0.1,0,0,,,,,,,,,,,,,,,,,,,
52233,1506822419380,,,,,,,,0.03,0.05,1.0,-3.0,-0.9,-0.1,0,0,,,,,,,,,,,,,,,,,,,
52253,1506822419400,,,,,,,,0.03,0.05,1.0,-3.0,-0.9,-0.1,0,0,,,,,,,,,,,,,,,,,,,
52273,1506822419420,0,128.4,,138.3,0,138.6,,0.03,0.05,1.01,-3.0,-0.9,-0.1,0,0,1,1,0.0,0,35.489845,-119.546097,0.0,0.0,284.4,11,3,1.4,0,0.0,-1,0.0,0.0,0.0,0
52293,1506822419440,,,,,,,,0.03,0.05,1.01,-3.0,-0.9,-0.1,0,0,,,,,,,,,,,,,,,,,,,
52313,1506822419460,,,,,,,,0.03,0.05,1.0,-3.0,-0.9,-0.1,0,0,,,,,,,,,,,,,,,,,,,
52333,1506822419480,,,,,,,,0.03,0.05,1.0,-3.0,-0.9,-0.1,0,0,,,,,,,,,,,,,,,,,,,
52353,1506822419499,,,,,,,,0.03,0.05,1.01,-3.0,-0.9,-0.1,0,0,,,,,,,,,,,,,,,,,,,
52373,1506822419519,,,,,0,,,0.03,0.05,1.01,-3.0,-0.9,-0.1,0,0,1,1,0.0,0,35.489845,-119.546097,0.0,0.0,284.4,11,3,1.4,0,0.0,-1,0.0,0.0,0.0,0
52393,1506822419539,,,,,,,,0.03,0.05,1.01,-3.0,-0.9,-0.1,0,0,,,,,,,,,,,,,,,,,,,
52413,1506822419559,,,,,,,,0.03,0.05,1.01,-3.0,-0.9,-0.2,0,0,,,,,,,,,,,,,,,,,,,
52433,1506822419579,,,,,,,,0.03,0.05,1.01,-3.0,-0.9,-0.2,0,0,,,,,,,,,,,,,,,,,,,
52453,1506822419599,,,,,,,,0.03,0.05,1.01,-3.0,-0.9,-0.2,0,0,,,,,,,,,,,,,,,,,,,
52473,1506822419619,0,127.7,,138.1,0,139.3,,0.03,0.05,1.01,-3.0,-0.9,-0.2,0,0,1,1,0.0,0,35.489845,-119.546097,0.0,0.0,284.4,11,3,1.4,0,0.0,-1,0.0,0.0,0.0,0
52493,1506822419639,,,,,,,,0.03,0.05,1.01,-3.1,-0.9,-0.2,0,0,,,,,,,,,,,,,,,,,,,
52513,1506822419659,,,,,,,,0.03,0.05,1.01,-3.1,-0.9,-0.2,0,0,,,,,,,,,,,,,,,,,,,
52533,1506822419679,,,,,,,,0.03,0.05,1.01,-3.1,-0.9,-0.2,0,0,,,,,,,,,,,,,,,,,,,
52553,1506822419699,,,,,,,,0.03,0.05,1.01,-3.1,-0.9,-0.2,0,0,,,,,,,,,,,,,,,,,,,
52573,1506822419719,,,,,0,,,0.03,0.05,1.01,-3.0,-0.9,-0.2,0,0,1,1,0.0,0,35.489845,-119.546097,0.0,0.0,284.4,11,3,1.4,0,0.0,-1,0.0,0.0,0.0,0
52593,1506822419739,,,,,,,,0.03,0.05,1.0,-3.1,-0.9,-0.2,0,0,,,,,,,,,,,,,,,,,,,
52613,1506822419759,,,,,,,,0.03,0.05,1.0,-3.1,-0.9,-0.2,0,0,,,,,,,,,,,,,,,,,,,
52633,1506822419779,,,,,,,,0.03,0.05,1.0,-3.1,-0.9,-0.2,0,0,,,,,,,,,,,,,,,,,,,
52653,1506822419799,,,,,,,,0.03,0.05,1.0,-3.1,-0.9,-0.2,0,0,,,,,,,,,,,,,,,,,,,
52673,1506822419819,0,128.0,,138.8,0,139.6,,0.03,0.05,1.0,-3.1,-0.9,-0.2,0,0,1,1,0.0,0,35.489845,-119.546097,0.0,0.0,284.4,11,3,1.4,0,0.0,-1,0.0,0.0,0.0,0
52693,1506822419839,,,,,,,,0.03,0.05,1.0,-3.0,-0.9,-0.2,0,0,,,,,,,,,,,,,,,,,,,
52713,1506822419859,,,,,,,,0.03,0.05,1.01,-3.0,-0.9,-0.2,0,0,,,,,,,,,,,,,,,,,,,
52733,1506822419879,,,,,,,,0.03,0.05,1.0,-3.0,-0.9,-0.2,0,0,,,,,,,,,,,,,,,,,,,
52753,1506822419899,,,,,,,,0.03,0.05,1.0,-3.0,-0.9,-0.1,0,0,,,,,,,,,,,,,,,,,,,
52773,1506822419919,,,,,0,,,0.03,0.05,1.0,-3.0,-0.9,-0.2,0,0,1,1,0.0,0,35.489845,-119.546097,0.0,0.0,284.4,11,3,1.4,0,0.0,-1,0.0,0.0,0.0,0
52793,1506822419939,,,,,,,,0.03,0.05,1.0,-3.0,-0.9,-0.2,0,0,,,,,,,,,,,,,,,,,,,
52813,1506822419959,,,,,,,,0.03,0.05,1.0,-3.0,-0.9,-0.2,0,0,,,,,,,,,,,,,,,,,,,
52833,1506822419979,,,,,,,,0.03,0.05,1.01,-3.0,-0.9,-0.2,0,0,,,,,,,,,,,,,,,,,,,
52853,1506822419993,,,,,,,,0.03,0.05,1.01,-3.0,-0.9,-0.1,0,0,,,,,,,,,,,,,,,,,,,
52873,1506822420013,0,128.5,,138.5,0,138.5,,0.03,0.05,1.01,-3.0,-0.9,-0.1,0,0,1,1,0.0,0,35.489845,-119.546097,0.0,0.0,284.4,11,3,1.4,0,0.0,-1,0.0,0.0,0.0,0
52893,1506822420033,,,,,,,,0.03,0.05,1.01,-3.0,-0.9,-0.1,0,0,,,,,,,,,,,,,,,,,,,
52913,1506822420053,,,,,,,,0.03,0.05,1.01,-3.0,-0.9,-0.1,0,0,,,,,,,,,,,,,,,,,,,
52933,1506822420073,,,,,,,,0.03,0.05,1.01,-3.0,-0.9,-0.1,0,0,,,,,,,,,,,,,,,,,,,
52953,1506822420099,,,,,,,,0.03,0.05,1.0,-3.0,-0.9,-0.1,0,0,,,,,,,,,,,,,,,,,,,
52973,1506822420119,,,,,0,,,0.03,0.05,1.0,-3.0,-0.9,-0.1,0,0,1,1,0.0,0,35.489845,-119.546097,0.0,0.0,284.4,11,3,1.4,0,0.0,-1,0.0,0.0,0.0,0
52993,1506822420139,,,,,,,,0.03,0.05,1.0,-3.0,-0.9,-0.1,0,0,,,,,,,,,,,,,,,,,,,
53013,1506822420159,,,,,,,,0.03,0.05,1.01,-3.0,-0.9,-0.1,0,0,,,,,,,,,,,,,,,,,,,
53033,1506822420179,,,,,,,,0.03,0.05,1.0,-3.1,-0.9,-0.2,0,0,,,,,,,,,,,,,,,,,,,
53053,1506822420199,,,,,,,,0.03,0.05,1.0,-3.0,-0.9,-0.2,0,0,,,,,,,,,,,,,,,,,,,
53073,1506822420219,0,128.8,-0.6,139.0,0,139.5,13.04,0.03,0.05,1.0,-3.1,-0.9,-0.2,0,0,1,1,0.0,0,35.489845,-119.546097,0.0,0.0,284.4,11,3,1.4,0,0.0,-1,0.0,0.0,0.0,0
53093,1506822420239,,,,,,,,0.03,0.05,1.0,-3.1,-0.9,-0.2,0,0,,,,,,,,,,,,,,,,,,,
53113,1506822420259,,,,,,,,0.03,0.05,1.0,-3.0,-0.9,-0.2,0,0,,,,,,,,,,,,,,,,,,,
53133,1506822420279,,,,,,,,0.03,0.05,1.0,-3.0,-0.9,-0.2,0,0,,,,,,,,,,,,,,,,,,,
53153,1506822420299,,,,,,,,0.03,0.05,1.0,-3.0,-0.9,-0.2,0,0,,,,,,,,,,,,,,,,,,,
53173,1506822420319,,,,,0,,,0.03,0.05,1.0,-3.0,-0.9,-0.1,0,0,1,1,0.0,0,35.489845,-119.546097,0.0,0.0,284.4,11,3,1.4,0,0.0,-1,0.0,0.0,0.0,0
53193,1506822420339,,,,,,,,0.03,0.05,1.0,-3.0,-0.9,-0.1,0,0,,,,,,,,,,,,,,,,,,,
53213,1506822420359,,,,,,,,0.03,0.05,1.0,-3.0,-0.9,-0.1,0,0,,,,,,,,,,,,,,,,,,,
53233,1506822420379,,,,,,,,0.03,0.05,1.01,-3.0,-0.9,-0.2,0,0,,,,,,,,,,,,,,,,,,,
53253,1506822420399,,,,,,,,0.03,0.05,1.01,-3.0,-0.9,-0.2,0,0,,,,,,,,,,,,,,,,,,,
53273,1506822420419,0,127.9,,138.7,0,139.5,,0.03,0.05,1.01,-3.0,-0.9,-0.2,0,0,1,1,0.0,0,35.489845,-119.546097,0.0,0.0,284.4,11,3,1.4,0,0.0,-1,0.0,0.0,0.0,0
53293,1506822420439,,,,,,,,0.03,0.05,1.01,-3.0,-0.9,-0.2,0,0,,,,,,,,,,,,,,,,,,,
53313,1506822420459,,,,,,,,0.03,0.05,1.0,-3.0,-0.9,-0.2,0,0,,,,,,,,,,,,,,,,,,,
53333,1506822420479,,,,,,,,0.03,0.05,1.01,-3.0,-0.9,-0.2,0,0,,,,,,,,,,,,,,,,,,,
53353,1506822420498,,,,,,,,0.03,0.05,1.01,-3.0,-0.9,-0.1,0,0,,,,,,,,,,,,,,,,,,,
53373,1506822420518,,,,,0,,,0.03,0.05,1.01,-3.0,-0.9,-0.1,0,0,1,1,0.0,0,35.489845,-119.546097,0.0,0.0,284.4,11,3,1.4,0,0.0,-1,0.0,0.0,0.0,0
53393,1506822420538,,,,,,,,0.03,0.05,1.01,-3.0,-0.9,-0.1,0,0,,,,,,,,,,,,,,,,,,,
53413,1506822420558,,,,,,,,0.03,0.05,1.0,-3.0,-0.9,-0.1,0,0,,,,,,,,,,,,,,,,,,,
53433,1506822420578,,,,,,,,0.03,0.05,1.0,-3.0,-0.9,-0.1,0,0,,,,,,,,,,,,,,,,,,,
53453,1506822420598,,,,,,,,0.03,0.05,1.0,-3.0,-0.9,-0.2,0,0,,,,,,,,,,,,,,,,,,,
53473,1506822420618,0,128.7,,139.0,0,139.5,,0.03,0.05,1.01,-3.0,-0.9,-0.1,0,0,1,1,0.0,0,35.489845,-119.546097,0.0,0.0,284.4,11,3,1.4,0,0.0,-1,0.0,0.0,0.0,0
53493,1506822420638,,,,,,,,0.03,0.05,1.0,-3.1,-0.9,-0.1,0,0,,,,,,,,,,,,,,,,,,,
53513,1506822420658,,,,,,,,0.03,0.05,1.0,-3.1,-0.9,-0.1,0,0,,,,,,,,,,,,,,,,,,,
53533,1506822420678,,,,,,,,0.03,0.05,1.0,-3.1,-0.9,-0.1,0,0,,,,,,,,,,,,,,,,,,,
53553,1506822420698,,,,,,,,0.03,0.05,1.01,-3.1,-0.9,-0.1,0,0,,,,,,,,,,,,,,,,,,,
53573,1506822420718,,,,,0,,,0.03,0.05,1.01,-3.1,-0.9,-0.1,0,0,1,1,0.0,0,35.489845,-119.546097,0.0,0.0,284.4,11,3,1.4,0,0.0,-1,0.0,0.0,0.0,0
53593,1506822420738,,,,,,,,0.03,0.05,1.01,-3.0,-0.9,-0.2,0,0,,,,,,,,,,,,,,,,,,,
53613,1506822420758,,,,,,,,0.03,0.05,1.01,-3.1,-0.9,-0.2,0,0,,,,,,,,,,,,,,,,,,,
53633,1506822420778,,,,,,,,0.03,0.05,1.01,-3.1,-0.9,-0.1,0,0,,,,,,,,,,,,,,,,,,,
53653,1506822420798,,,,,,,,0.03,0.05,1.01,-3.1,-0.9,-0.1,0,0,,,,,,,,,,,,,,,,,,,
53673,1506822420818,0,128.5,,138.1,0,138.5,,0.03,0.05,1.01,-3.0,-0.9,-0.1,0,0,1,1,0.0,0,35.489845,-119.546097,0.0,0.0,284.4,11,3,1.4,0,0.0,-1,0.0,0.0,0.0,0
53693,1506822420838,,,,,,,,0.03,0.05,1.01,-3.0,-0.9,-0.1,0,0,,,,,,,,,,,,,,,,,,,
53713,1506822420858,,,,,,,,0.03,0.05,1.01,-3.0,-0.9,-0.1,0,0,,,,,,,,,,,,,,,,,,,
53733,1506822420878,,,,,,,,0.03,0.05,1.0,-3.0,-0.9,-0.2,0,0,,,,,,,,,,,,,,,,,,,
53753,1506822420898,,,,,,,,0.03,0.05,1.0,-3.0,-0.9,-0.2,0,0,,,,,,,,,,,,,,,,,,,
53773,1506822420918,,,,,0,,,0.03,0.05,1.0,-3.0,-0.9,-0.2,0,0,1,1,0.0,0,35.489845,-119.546097,0.0,0.0,284.4,11,3,1.4,0,0.0,-1,0.0,0.0,0.0,0
53793,1506822420938,,,,,,,,0.03,0.05,1.0,-3.0,-1.0,-0.2,0,0,,,,,,,,,,,,,,,,,,,
53813,1506822420958,,,,,,,,0.03,0.05,1.0,-3.0,-0.9,-0.2,0,0,,,,,,,,,,,,,,,,,,,
53833,1506822420978,,,,,,,,0.03,0.05,1.0,-3.0,-0.9,-0.2,0,0,,,,,,,,,,,,,,,,,,,
53853,1506822420994,,,,,,,,0.03,0.05,1.0,-3.0,-0.9,-0.2,0,0,,,,,,,,,,,,,,,,,,,
53873,1506822421014,0,128.5,,138.6,0,138.6,,0.03,0.05,1.0,-3.0,-0.9,-0.2,0,0,1,1,0.0,0,35.489845,-119.546097,0.0,0.0,284.4,11,3,1.4,0,0.0,-1,0.0,0.0,0.0,0
53893,1506822421034,,,,,,,,0.03,0.05,1.0,-3.0,-0.9,-0.1,0,0,,,,,,,,,,,,,,,,,,,
53913,1506822421054,,,,,,,,0.03,0.05,1.0,-3.0,-0.9,-0.1,0,0,,,,,,,,,,,,,,,,,,,
53933,1506822421074,,,,,,,,0.03,0.05,1.0,-3.0,-0.9,-0.1,0,0,,,,,,,,,,,,,,,,,,,
53953,1506822421100,,,,,,,,0.03,0.05,1.0,-3.0,-0.9,-0.1,0,0,,,,,,,,,,,,,,,,,,,
53973,1506822421120,,,,,0,,,0.03,0.05,1.0,-3.0,-0.9,-0.1,0,0,1,1,0.0,0,35.489845,-119.546097,0.0,0.0,284.4,11,3,1.4,0,0.0,-1,0.0,0.0,0.0,0
53993,1506822421140,,,,,,,,0.03,0.05,1.0,-3.0,-0.9,-0.1,0,0,,,,,,,,,,,,,,,,,,,
54013,1506822421160,,,,,,,,0.03,0.05,1.01,-3.0,-0.9,-0.1,0,0,,,,,,,,,,,,,,,,,,,
54033,1506822421180,,,,,,,,0.03,0.05,1.01,-3.0,-0.9,-0.1,0,0,,,,,,,,,,,,,,,,,,,
54053,1506822421200,,,,,,,,0.03,0.05,1.01,-3.0,-0.9,-0.1,0,0,,,,,,,,,,,,,,,,,,,
54073,1506822421220,0,128.5,-0.7,138.0,0,138.6,13.04,0.03,0.05,1.0,-3.0,-0.9,-0.1,0,0,1,1,0.0,0,35.489845,-119.546097,0.0,0.0,284.4,11,3,1.4,0,0.0,-1,0.0,0.0,0.0,0
54093,1506822421240,,,,,,,,0.03,0.05,1.01,-3.0,-0.9,-0.1,0,0,,,,,,,,,,,,,,,,,,,
54113,1506822421260,,,,,,,,0.03,0.05,1.0,-3.0,-0.9,-0.1,0,0,,,,,,,,,,,,,,,,,,,
54133,1506822421280,,,,,,,,0.03,0.05,1.0,-3.0,-0.9,-0.1,0,0,,,,,,,,,,,,,,,,,,,
54153,1506822421300,,,,,,,,0.03,0.05,1.0,-3.0,-0.9,-0.1,0,0,,,,,,,,,,,,,,,,,,,
54173,1506822421320,,,,,0,,,0.03,0.05,1.0,-3.0,-0.9,-0.1,0,0,1,1,0.0,0,35.489845,-119.546097,0.0,0.0,284.4,11,3,1.4,0,0.0,-1,0.0,0.0,0.0,0
54193,1506822421340,,,,,,,,0.03,0.05,1.0,-3.0,-0.9,-0.1,0,0,,,,,,,,,,,,,,,,,,,
54213,1506822421360,,,,,,,,0.03,0.05,1.0,-3.0,-0.9,-0.1,0,0,,,,,,,,,,,,,,,,,,,
54233,1506822421380,,,,,,,,0.03,0.05,1.0,-3.0,-0.9,-0.1,0,0,,,,,,,,,,,,,,,,,,,
54253,1506822421400,,,,,,,,0.03,0.05,1.0,-3.0,-0.9,-0.1,0,0,,,,,,,,,,,,,,,,,,,
54273,1506822421420,0,128.7,,138.7,0,138.7,,0.03,0.05,1.0,-3.0,-0.9,-0.1,0,0,1,1,0.0,0,35.489845,-119.546097,0.0,0.0,284.4,11,3,1.4,0,0.0,-1,0.0,0.0,0.0,0
54293,1506822421440,,,,,,,,0.03,0.05,1.0,-3.0,-0.9,-0.1,0,0,,,,,,,,,,,,,,,,,,,
54313,1506822421460,,,,,,,,0.03,0.05,1.0,-3.0,-0.9,-0.1,0,0,,,,,,,,,,,,,,,,,,,
54333,1506822421480,,,,,,,,0.03,0.05,1.0,-3.0,-0.9,-0.1,0,0,,,,,,,,,,,,,,,,,,,
54353,1506822421499,,,,,,,,0.03,0.05,1.0,-3.0,-0.9,-0.2,0,0,,,,,,,,,,,,,,,,,,,
54373,1506822421519,,,,,0,,,0.03,0.05,1.0,-3.0,-0.9,-0.2,0,0,1,1,0.0,0,35.489845,-119.546097,0.0,0.0,284.4,11,3,1.4,0,0.0,-1,0.0,0.0,0.0,0
54393,1506822421539,,,,,,,,0.03,0.05,1.0,-3.0,-0.9,-0.2,0,0,,,,,,,,,,,,,,,,,,,
54413,1506822421559,,,,,,,,0.03,0.05,1.0,-3.0,-0.9,-0.2,0,0,,,,,,,,,,,,,,,,,,,
54433,1506822421579,,,,,,,,0.03,0.05,1.0,-3.0,-0.9,-0.1,0,0,,,,,,,,,,,,,,,,,,,
54453,1506822421599,,,,,,,,0.03,0.05,1.0,-3.0,-0.9,-0.1,0,0,,,,,,,,,,,,,,,,,,,
54473,1506822421619,0,127.8,,137.8,0,138.7,,0.03,0.05,1.0,-3.0,-0.9,-0.2,0,0,1,1,0.0,0,35.489845,-119.546097,0.0,0.0,284.4,11,3,1.4,0,0.0,-1,0.0,0.0,0.0,0
54493,1506822421639,,,,,,,,0.03,0.05,1.0,-3.0,-0.9,-0.2,0,0,,,,,,,,,,,,,,,,,,,
54513,1506822421659,,,,,,,,0.03,0.05,1.0,-3.0,-0.9,-0.2,0,0,,,,,,,,,,,,,,,,,,,
54533,1506822421679,,,,,,,,0.03,0.05,1.0,-3.0,-0.9,-0.2,0,0,,,,,,,,,,,,,,,,,,,
54553,1506822421697,,,,,,,,0.03,0.05,1.0,-3.0,-0.9,-0.2,0,0,,,,,,,,,,,,,,,,,,,
54573,1506822421717,,,,,0,,,0.03,0.05,1.0,-3.0,-0.9,-0.2,0,0,1,1,0.0,0,35.489845,-119.546097,0.0,0.0,284.4,11,3,1.4,0,0.0,-1,0.0,0.0,0.0,0
54593,1506822421737,,,,,,,,0.03,0.05,1.0,-3.0,-0.9,-0.2,0,0,,,,,,,,,,,,,,,,,,,
54613,1506822421757,,,,,,,,0.03,0.05,1.0,-3.0,-0.9,-0.2,0,0,,,,,,,,,,,,,,,,,,,
54633,1506822421777,,,,,,,,0.03,0.05,1.0,-3.0,-0.9,-0.2,0,0,,,,,,,,,,,,,,,,,,,
54653,1506822421799,,,,,,,,0.03,0.05,1.0,-3.1,-0.9,-0.1,0,0,,,,,,,,,,,,,,,,,,,
54673,1506822421819,0,128.1,,137.8,0,138.6,,0.03,0.05,1.0,-3.1,-1.0,-0.1,0,0,1,1,0.0,0,35.489845,-119.546097,0.0,0.0,284.4,11,3,1.4,0,0.0,-1,0.0,0.0,0.0,0
54693,1506822421839,,,,,,,,0.03,0.05,1.0,-3.1,-1.0,-0.1,0,0,,,,,,,,,,,,,,,,,,,
54713,1506822421859,,,,,,,,0.03,0.05,1.0,-3.1,-0.9,-0.1,0,0,,,,,,,,,,,,,,,,,,,
54733,1506822421879,,,,,,,,0.03,0.05,1.0,-3.0,-0.9,-0.1,0,0,,,,,,,,,,,,,,,,,,,
54753,1506822421899,,,,,,,,0.03,0.05,1.0,-3.0,-0.9,-0.1,0,0,,,,,,,,,,,,,,,,,,,
54773,1506822421919,,,,,0,,,0.03,0.05,1.01,-3.0,-0.9,-0.1,0,0,1,1,0.0,0,35.489845,-119.546097,0.0,0.0,284.4,11,3,1.4,0,0.0,-1,0.0,0.0,0.0,0
54793,1506822421939,,,,,,,,0.03,0.05,1.01,-3.0,-0.9,-0.1,0,0,,,,,,,,,,,,,,,,,,,
54813,1506822421959,,,,,,,,0.03,0.05,1.0,-3.0,-0.9,-0.2,0,0,,,,,,,,,,,,,,,,,,,
54833,1506822421979,,,,,,,,0.03,0.05,1.01,-3.0,-0.9,-0.2,0,0,,,,,,,,,,,,,,,,,,,
54853,1506822421993,,,,,,,,0.03,0.05,1.0,-3.0,-0.9,-0.2,0,0,,,,,,,,,,,,,,,,,,,
54873,1506822422013,0,128.7,,138.8,0,139.0,,0.03,0.05,1.0,-3.1,-0.9,-0.2,0,0,1,1,0.0,0,35.489845,-119.546097,0.0,0.0,284.4,11,3,1.4,0,0.0,-1,0.0,0.0,0.0,0
54893,1506822422033,,,,,,,,0.03,0.05,1.01,-3.1,-0.9,-0.2,0,0,,,,,,,,,,,,,,,,,,,
54913,1506822422053,,,,,,,,0.03,0.05,1.01,-3.1,-0.9,-0.2,0,0,,,,,,,,,,,,,,,,,,,
54933,1506822422073,,,,,,,,0.03,0.05,1.01,-3.0,-0.9,-0.2,0,0,,,,,,,,,,,,,,,,,,,
54953,1506822422099,,,,,,,,0.03,0.05,1.01,-3.0,-0.9,-0.2,0,0,,,,,,,,,,,,,,,,,,,
54973,1506822422119,,,,,0,,,0.03,0.05,1.0,-3.0,-0.9,-0.2,0,0,1,1,0.0,0,35.489845,-119.546097,0.0,0.0,284.4,11,3,1.4,0,0.0,-1,0.0,0.0,0.0,0
54993,1506822422139,,,,,,,,0.03,0.05,1.01,-3.0,-0.9,-0.2,0,0,,,,,,,,,,,,,,,,,,,
55013,1506822422159,,,,,,,,0.03,0.05,1.01,-3.0,-0.9,-0.2,0,0,,,,,,,,,,,,,,,,,,,
55033,1506822422179,,,,,,,,0.03,0.05,1.01,-3.0,-0.9,-0.2,0,0,,,,,,,,,,,,,,,,,,,
55053,1506822422199,,,,,,,,0.03,0.05,1.01,-3.0,-0.9,-0.2,0,0,,,,,,,,,,,,,,,,,,,
55073,1506822422219,0,128.8,-0.5,139.1,0,139.5,13.04,0.03,0.05,1.01,-3.0,-0.9,-0.2,0,0,1,1,0.0,0,35.489845,-119.546097,0.0,0.0,284.4,11,3,1.4,0,0.0,-1,0.0,0.0,0.0,0
55093,1506822422239,,,,,,,,0.03,0.05,1.01,-3.0,-0.9,-0.2,0,0,,,,,,,,,,,,,,,,,,,
55113,1506822422259,,,,,,,,0.03,0.05,1.0,-3.0,-0.9,-0.2,0,0,,,,,,,,,,,,,,,,,,,
55133,1506822422279,,,,,,,,0.03,0.05,1.0,-3.0,-0.9,-0.2,0,0,,,,,,,,,,,,,,,,,,,
55153,1506822422299,,,,,,,,0.03,0.05,1.0,-3.0,-0.9,-0.1,0,0,,,,,,,,,,,,,,,,,,,
55173,1506822422319,,,,,0,,,0.03,0.05,1.0,-3.0,-0.9,-0.1,0,0,1,1,0.0,0,35.489845,-119.546097,0.0,0.0,284.4,11,3,1.4,0,0.0,-1,0.0,0.0,0.0,0
55193,1506822422339,,,,,,,,0.03,0.05,1.0,-3.0,-0.9,-0.1,0,0,,,,,,,,,,,,,,,,,,,
55213,1506822422359,,,,,,,,0.03,0.05,1.0,-3.0,-0.9,-0.1,0,0,,,,,,,,,,,,,,,,,,,
55233,1506822422379,,,,,,,,0.03,0.05,1.0,-3.0,-0.9,-0.1,0,0,,,,,,,,,,,,,,,,,,,
55253,1506822422399,,,,,,,,0.03,0.05,1.0,-3.0,-0.9,-0.1,0,0,,,,,,,,,,,,,,,,,,,
55273,1506822422419,0,127.6,,138.0,0,139.2,,0.03,0.05,1.0,-3.0,-0.9,-0.1,0,0,1,1,0.0,0,35.489845,-119.546097,0.0,0.0,284.4,11,3,1.4,0,0.0,-1,0.0,0.0,0.0,0
55293,1506822422439,,,,,,,,0.03,0.05,1.0,-3.0,-0.9,-0.1,0,0,,,,,,,,,,,,,,,,,,,
55313,1506822422459,,,,,,,,0.03,0.05,1.0,-3.0,-0.9,-0.1,0,0,,,,,,,,,,,,,,,,,,,
55333,1506822422479,,,,,,,,0.03,0.05,1.0,-3.0,-0.9,-0.1,0,0,,,,,,,,,,,,,,,,,,,
55353,1506822422498,,,,,,,,0.03,0.05,1.0,-3.0,-0.9,-0.2,0,0,,,,,,,,,,,,,,,,,,,
55373,1506822422518,,,,,0,,,0.03,0.05,1.0,-3.0,-0.9,-0.2,0,0,1,1,0.0,0,35.489845,-119.546097,0.0,0.0,284.4,11,3,1.4,0,0.0,-1,0.0,0.0,0.0,0
55393,1506822422538,,,,,,,,0.03,0.05,1.0,-3.0,-0.9,-0.1,0,0,,,,,,,,,,,,,,,,,,,
55413,1506822422558,,,,,,,,0.03,0.05,1.0,-3.0,-0.9,-0.2,0,0,,,,,,,,,,,,,,,,,,,
55433,1506822422578,,,,,,,,0.03,0.05,1.0,-3.0,-0.9,-0.2,0,0,,,,,,,,,,,,,,,,,,,
55453,1506822422598,,,,,,,,0.03,0.05,1.01,-3.0,-0.9,-0.1,0,0,,,,,,,,,,,,,,,,,,,
55473,1506822422618,0,128.7,,138.7,0,138.9,,0.03,0.05,1.0,-3.1,-0.9,-0.2,0,0,1,1,0.0,0,35.489845,-119.546097,0.0,0.0,284.4,11,3,1.4,0,0.0,-1,0.0,0.0,0.0,0
55493,1506822422638,,,,,,,,0.03,0.05,1.0,-3.0,-0.9,-0.1,0,0,,,,,,,,,,,,,,,,,,,
55513,1506822422658,,,,,,,,0.03,0.05,1.0,-3.0,-0.9,-0.1,0,0,,,,,,,,,,,,,,,,,,,
55533,1506822422678,,,,,,,,0.03,0.05,1.0,-3.0,-1.0,-0.1,0,0,,,,,,,,,,,,,,,,,,,
55553,1506822422698,,,,,,,,0.03,0.05,1.0,-3.0,-1.0,-0.1,0,0,,,,,,,,,,,,,,,,,,,
55573,1506822422718,,,,,0,,,0.03,0.05,1.0,-3.0,-1.0,-0.1,0,0,1,1,0.0,0,35.489845,-119.546097,0.0,0.0,284.4,11,3,1.4,0,0.0,-1,0.0,0.0,0.0,0
55593,1506822422738,,,,,,,,0.03,0.05,1.0,-3.0,-0.9,-0.1,0,0,,,,,,,,,,,,,,,,,,,
55613,1506822422758,,,,,,,,0.03,0.05,1.0,-3.0,-0.9,-0.1,0,0,,,,,,,,,,,,,,,,,,,
55633,1506822422778,,,,,,,,0.03,0.05,1.0,-3.0,-0.9,-0.1,0,0,,,,,,,,,,,,,,,,,,,
55653,1506822422798,,,,,,,,0.03,0.05,1.0,-3.0,-0.9,-0.2,0,0,,,,,,,,,,,,,,,,,,,
55673,1506822422818,0,127.7,,138.0,0,139.0,,0.03,0.05,1.0,-3.0,-0.9,-0.2,0,0,1,1,0.0,0,35.489845,-119.546097,0.0,0.0,284.4,11,3,1.4,0,0.0,-1,0.0,0.0,0.0,0
55693,1506822422838,,,,,,,,0.03,0.05,1.0,-3.1,-0.9,-0.2,0,0,,,,,,,,,,,,,,,,,,,
55713,1506822422858,,,,,,,,0.03,0.05,1.01,-3.1,-0.9,-0.2,0,0,,,,,,,,,,,,,,,,,,,
55733,1506822422878,,,,,,,,0.03,0.05,1.01,-3.1,-0.9,-0.2,0,0,,,,,,,,,,,,,,,,,,,
55753,1506822422898,,,,,,,,0.03,0.05,1.01,-3.1,-0.9,-0.2,0,0,,,,,,,,,,,,,,,,,,,
55773,1506822422918,,,,,0,,,0.03,0.05,1.01,-3.1,-0.9,-0.1,0,0,1,1,0.0,0,35.489845,-119.546097,0.0,0.0,284.4,11,3,1.4,0,0.0,-1,0.0,0.0,0.0,0
55793,1506822422938,,,,,,,,0.03,0.05,1.01,-3.0,-0.9,-0.2,0,0,,,,,,,,,,,,,,,,,,,
55813,1506822422958,,,,,,,,0.03,0.05,1.01,-3.1,-0.9,-0.2,0,0,,,,,,,,,,,,,,,,,,,
55833,1506822422978,,,,,,,,0.03,0.05,1.01,-3.1,-0.9,-0.2,0,0,,,,,,,,,,,,,,,,,,,
55853,1506822422994,,,,,,,,0.03,0.05,1.01,-3.1,-0.9,-0.2,0,0,,,,,,,,,,,,,,,,,,,
55873,1506822423014,0,128.6,,138.7,0,138.6,,0.03,0.05,1.01,-3.0,-0.9,-0.2,0,0,1,1,0.0,0,35.489845,-119.546097,0.0,0.0,284.4,11,3,1.4,0,0.0,-1,0.0,0.0,0.0,0
55893,1506822423034,,,,,,,,0.03,0.05,1.01,-3.1,-0.9,-0.2,0,0,,,,,,,,,,,,,,,,,,,
55913,1506822423054,,,,,,,,0.03,0.05,1.0,-3.0,-0.9,-0.2,0,0,,,,,,,,,,,,,,,,,,,
55933,1506822423074,,,,,,,,0.03,0.05,1.0,-3.0,-0.9,-0.2,0,0,,,,,,,,,,,,,,,,,,,
55953,1506822423100,,,,,,,,0.03,0.05,1.0,-3.0,-0.9,-0.1,0,0,,,,,,,,,,,,,,,,,,,
55973,1506822423120,,,,,0,,,0.03,0.05,1.0,-3.0,-0.9,-0.1,0,0,1,1,0.0,0,35.489845,-119.546097,0.0,0.0,284.4,11,3,1.4,0,0.0,-1,0.0,0.0,0.0,0
55993,1506822423140,,,,,,,,0.03,0.05,1.0,-3.1,-0.9,-0.1,0,0,,,,,,,,,,,,,,,,,,,
56013,1506822423160,,,,,,,,0.03,0.05,1.0,-3.1,-0.9,-0.2,0,0,,,,,,,,,,,,,,,,,,,
56033,1506822423180,,,,,,,,0.03,0.05,1.0,-3.0,-0.9,-0.1,0,0,,,,,,,,,,,,,,,,,,,
56053,1506822423200,,,,,,,,0.03,0.05,1.01,-3.0,-0.9,-0.1,0,0,,,,,,,,,,,,,,,,,,,
56073,1506822423220,0,127.7,-0.8,137.8,0,138.9,13.04,0.03,0.05,1.01,-3.0,-0.9,-0.1,0,0,1,1,0.0,0,35.489845,-119.546097,0.0,0.0,284.4,11,3,1.4,0,0.0,-1,0.0,0.0,0.0,0
56093,1506822423240,,,,,,,,0.03,0.05,1.01,-3.0,-0.9,-0.1,0,0,,,,,,,,,,,,,,,,,,,
56113,1506822423260,,,,,,,,0.03,0.05,1.0,-3.0,-0.9,-0.1,0,0,,,,,,,,,,,,,,,,,,,
56133,1506822423280,,,,,,,,0.03,0.05,1.0,-3.0,-0.9,-0.1,0,0,,,,,,,,,,,,,,,,,,,
56153,1506822423300,,,,,,,,0.03,0.05,1.0,-3.0,-0.9,-0.1,0,0,,,,,,,,,,,,,,,,,,,
56173,1506822423320,,,,,0,,,0.03,0.05,1.0,-3.0,-0.9,-0.1,0,0,1,1,0.0,0,35.489845,-119.546097,0.0,0.0,284.4,11,3,1.4,0,0.0,-1,0.0,0.0,0.0,0
56193,1506822423340,,,,,,,,0.03,0.05,1.0,-3.0,-0.9,-0.1,0,0,,,,,,,,,,,,,,,,,,,
56213,1506822423360,,,,,,,,0.03,0.05,1.01,-3.0,-0.9,-0.1,0,0,,,,,,,,,,,,,,,,,,,
56233,1506822423380,,,,,,,,0.03,0.05,1.01,-3.0,-0.9,-0.2,0,0,,,,,,,,,,,,,,,,,,,
56253,1506822423400,,,,,,,,0.03,0.05,1.01,-3.0,-0.9,-0.2,0,0,,,,,,,,,,,,,,,,,,,
56273,1506822423420,0,128.6,,138.8,0,138.7,,0.03,0.05,1.0,-3.0,-0.9,-0.2,0,0,1,1,0.0,0,35.489845,-119.546097,0.0,0.0,284.4,11,3,1.4,0,0.0,-1,0.0,0.0,0.0,0
