"Interval"|"ms"|0|0|1,"Utc"|"ms"|0|0|1,"FuelLevel"|"F"|0|100|5,"OilTemp"|"F"|0.0|300.0|5,"CoolantPressPSI"|"PSI"|0.0|20.0|1,"Coolant"|"F"|0.0|300.0|5,"OilPress"|"PSI"|0|150|10,"EngineTemp"|"F"|0.0|300.0|5,"Battery"|"Volts"|0.0|20.0|1,"AccelX"|"G"|-3.0|3.0|50,"AccelY"|"G"|-3.0|3.0|50,"AccelZ"|"G"|-3.0|3.0|50,"Yaw"|"Deg/Sec"|-300.0|300.0|50,"Pitch"|"Deg/Sec"|-300.0|300.0|50,"Roll"|"Deg/Sec"|-300.0|300.0|50,"RPM"|""|0|10000|50,"Driveshaft"|"RPM"|0|5000|50,"GPIO1"|""|0|1|10,"GPIO2"|""|0|1|10,"GearRatio"|""|-5.0|5.0|10,"Gear"|""|-1|5|10,"Latitude"|"Degrees"|-180.0|180.0|10,"Longitude"|"Degrees"|-180.0|180.0|10,"Speed"|"mph"|0.0|150.0|10,"Distance"|"mi"|0.0|0.0|10,"Altitude"|"ft"|0.0|4000.0|10,"GPSSats"|""|0|20|10,"GPSQual"|""|0|5|10,"GPSDOP"|""|0.0|20.0|10,"LapCount"|""|0|0|10,"LapTime"|"Min"|0.0|0.0|10,"Sector"|""|0|0|10,"SectorTime"|"Min"|0.0|0.0|10,"PredTime"|"Min"|0.0|0.0|10,"ElapsedTime"|"Min"|0.0|0.0|10,"CurrentLap"|""|0|0|10
,,,,,,,,,,,,,,,,,,,,,,,,,,,,,,,,,,,
42853,1506819736712,,,,,,,,0.03,0.05,1.0,-3.1,-0.8,-0.1,0,0,,,,,,,,,,,,,,,,,,,
42873,1506819736732,0,142.3,,168.1,0,162.7,,0.03,0.05,1.0,-3.1,-0.8,-0.1,0,0,1,1,0.0,0,35.489861,-119.546089,0.0,0.0,274.6,10,3,1.8,0,0.0,-1,0.0,0.0,0.0,0
42893,1506819736752,,,,,,,,0.03,0.05,1.0,-3.1,-0.8,-0.1,0,0,,,,,,,,,,,,,,,,,,,
42913,1506819736772,,,,,,,,0.03,0.05,1.0,-3.1,-0.8,-0.1,0,0,,,,,,,,,,,,,,,,,,,
42933,1506819736792,,,,,,,,0.03,0.05,1.0,-3.1,-0.7,-0.1,0,0,,,,,,,,,,,,,,,,,,,
42953,1506819736812,,,,,,,,0.03,0.05,1.0,-3.1,-0.7,-0.1,0,0,,,,,,,,,,,,,,,,,,,
42973,1506819736832,,,,,0,,,0.03,0.05,1.0,-3.0,-0.7,-0.1,0,0,1,1,0.0,0,35.489861,-119.546089,0.0,0.0,274.6,10,3,1.8,0,0.0,-1,0.0,0.0,0.0,0
42993,1506819736852,,,,,,,,0.03,0.05,1.0,-3.0,-0.7,-0.1,0,0,,,,,,,,,,,,,,,,,,,
43013,1506819736872,,,,,,,,0.03,0.05,1.0,-3.1,-0.8,-0.1,0,0,,,,,,,,,,,,,,,,,,,
43033,1506819736892,,,,,,,,0.03,0.05,1.0,-3.0,-0.8,-0.1,0,0,,,,,,,,,,,,,,,,,,,
43053,1506819736912,,,,,,,,0.03,0.05,1.0,-3.0,-0.8,-0.2,0,0,,,,,,,,,,,,,,,,,,,
43073,1506819736932,0,142.5,-0.7,168.2,0,163.0,13.29,0.03,0.05,1.0,-3.0,-0.8,-0.2,0,0,1,1,0.0,0,35.489861,-119.546089,0.0,0.0,274.6,10,3,1.8,0,0.0,-1,0.0,0.0,0.0,0
43093,1506819736952,,,,,,,,0.03,0.05,1.0,-3.0,-0.8,-0.1,0,0,,,,,,,,,,,,,,,,,,,
43113,1506819736972,,,,,,,,0.03,0.05,1.0,-3.0,-0.8,-0.2,0,0,,,,,,,,,,,,,,,,,,,
43133,1506819736992,,,,,,,,0.03,0.05,1.0,-3.0,-0.8,-0.2,0,0,,,,,,,,,,,,,,,,,,,
43153,1506819737006,,,,,,,,0.03,0.05,1.0,-3.1,-0.7,-0.2,0,0,,,,,,,,,,,,,,,,,,,
43173,1506819737026,,,,,0,,,0.03,0.05,1.0,-3.1,-0.7,-0.2,0,0,1,1,0.0,0,35.489861,-119.546089,0.0,0.0,274.6,10,3,1.8,0,0.0,-1,0.0,0.0,0.0,0
43193,1506819737046,,,,,,,,0.03,0.05,1.0,-3.1,-0.7,-0.1,0,0,,,,,,,,,,,,,,,,,,,
43213,1506819737066,,,,,,,,0.03,0.05,1.0,-3.1,-0.7,-0.1,0,0,,,,,,,,,,,,,,,,,,,
43233,1506819737092,,,,,,,,0.03,0.05,1.0,-3.1,-0.7,-0.2,0,0,,,,,,,,,,,,,,,,,,,
43253,1506819737112,,,,,,,,0.03,0.05,1.0,-3.1,-0.7,-0.2,0,0,,,,,,,,,,,,,,,,,,,
43273,1506819737132,0,142.6,,168.7,0,163.0,,0.03,0.05,1.0,-3.1,-0.7,-0.2,0,0,1,1,0.0,0,35.489861,-119.546089,0.0,0.0,274.6,10,3,1.8,0,0.0,-1,0.0,0.0,0.0,0
43293,1506819737152,,,,,,,,0.03,0.05,1.0,-3.1,-0.7,-0.2,0,0,,,,,,,,,,,,,,,,,,,
43313,1506819737172,,,,,,,,0.03,0.05,1.0,-3.1,-0.7,-0.2,0,0,,,,,,,,,,,,,,,,,,,
43333,1506819737191,,,,,,,,0.03,0.05,1.0,-3.1,-0.7,-0.2,0,0,,,,,,,,,,,,,,,,,,,
43353,1506819737211,,,,,,,,0.03,0.05,1.0,-3.1,-0.7,-0.2,0,0,,,,,,,,,,,,,,,,,,,
43373,1506819737231,,,,,0,,,0.03,0.05,1.0,-3.1,-0.7,-0.2,0,0,1,1,0.0,0,35.489861,-119.546089,0.0,0.0,274.6,10,3,1.8,0,0.0,-1,0.0,0.0,0.0,0
43393,1506819737251,,,,,,,,0.03,0.05,1.0,-3.1,-0.7,-0.2,0,0,,,,,,,,,,,,,,,,,,,
43413,1506819737271,,,,,,,,0.02,0.05,1.0,-3.1,-0.7,-0.2,0,0,,,,,,,,,,,,,,,,,,,
43433,1506819737291,,,,,,,,0.02,0.05,1.0,-3.1,-0.7,-0.2,0,0,,,,,,,,,,,,,,,,,,,
43453,1506819737311,,,,,,,,0.02,0.05,1.0,-3.1,-0.7,-0.1,0,0,,,,,,,,,,,,,,,,,,,
43473,1506819737331,0,142.7,,168.6,0,163.6,,0.03,0.05,1.0,-3.0,-0.7,-0.2,0,0,1,1,0.0,0,35.489861,-119.546089,0.0,0.0,274.6,10,3,1.8,0,0.0,-1,0.0,0.0,0.0,0
43493,1506819737351,,,,,,,,0.03,0.05,1.0,-3.0,-0.7,-0.1,0,0,,,,,,,,,,,,,,,,,,,
43513,1506819737371,,,,,,,,0.03,0.05,1.0,-3.0,-0.7,-0.2,0,0,,,,,,,,,,,,,,,,,,,
43533,1506819737391,,,,,,,,0.03,0.05,1.0,-3.0,-0.7,-0.2,0,0,,,,,,,,,,,,,,,,,,,
43553,1506819737411,,,,,,,,0.03,0.05,1.0,-3.0,-0.7,-0.2,0,0,,,,,,,,,,,,,,,,,,,
43573,1506819737431,,,,,0,,,0.03,0.05,1.0,-3.0,-0.7,-0.1,0,0,1,1,0.0,0,35.489861,-119.546089,0.0,0.0,274.6,10,3,1.8,0,0.0,-1,0.0,0.0,0.0,0
43593,1506819737451,,,,,,,,0.03,0.05,1.0,-3.0,-0.7,-0.2,0,0,,,,,,,,,,,,,,,,,,,
43613,1506819737471,,,,,,,,0.03,0.05,1.0,-3.0,-0.7,-0.2,0,0,,,,,,,,,,,,,,,,,,,
43633,1506819737491,,,,,,,,0.03,0.05,1.0,-3.1,-0.7,-0.2,0,0,,,,,,,,,,,,,,,,,,,
43653,1506819737509,,,,,,,,0.03,0.05,1.0,-3.1,-0.7,-0.2,0,0,,,,,,,,,,,,,,,,,,,
43673,1506819737529,0,142.6,,168.6,0,163.0,,0.03,0.05,1.0,-3.1,-0.7,-0.2,0,0,1,1,0.0,0,35.489861,-119.546089,0.0,0.0,274.6,10,3,1.8,0,0.0,-1,0.0,0.0,0.0,0
43693,1506819737549,,,,,,,,0.02,0.05,1.0,-3.1,-0.7,-0.2,0,0,,,,,,,,,,,,,,,,,,,
43713,1506819737569,,,,,,,,0.02,0.05,1.0,-3.1,-0.7,-0.2,0,0,,,,,,,,,,,,,,,,,,,
43733,1506819737589,,,,,,,,0.02,0.05,1.0,-3.1,-0.7,-0.2,0,0,,,,,,,,,,,,,,,,,,,
43753,1506819737609,,,,,,,,0.02,0.05,1.0,-3.1,-0.7,-0.2,0,0,,,,,,,,,,,,,,,,,,,
43773,1506819737629,,,,,0,,,0.02,0.05,1.0,-3.1,-0.7,-0.2,0,0,1,1,0.0,0,35.489861,-119.546089,0.0,0.0,274.6,10,3,1.8,0,0.0,-1,0.0,0.0,0.0,0
43793,1506819737649,,,,,,,,0.02,0.05,1.0,-3.1,-0.7,-0.2,0,0,,,,,,,,,,,,,,,,,,,
43813,1506819737669,,,,,,,,0.02,0.05,1.0,-3.1,-0.7,-0.2,0,0,,,,,,,,,,,,,,,,,,,
43833,1506819737689,,,,,,,,0.03,0.05,1.0,-3.0,-0.7,-0.2,0,0,,,,,,,,,,,,,,,,,,,
43853,1506819737709,,,,,,,,0.03,0.05,1.0,-3.1,-0.7,-0.2,0,0,,,,,,,,,,,,,,,,,,,
43873,1506819737729,0,141.9,,168.1,0,163.5,,0.03,0.05,1.0,-3.1,-0.7,-0.2,0,0,1,1,0.0,0,35.489861,-119.546089,0.0,0.0,274.6,10,3,1.8,0,0.0,-1,0.0,0.0,0.0,0
43893,1506819737749,,,,,,,,0.03,0.05,1.0,-3.0,-0.7,-0.2,0,0,,,,,,,,,,,,,,,,,,,
43913,1506819737769,,,,,,,,0.03,0.05,1.0,-3.0,-0.7,-0.2,0,0,,,,,,,,,,,,,,,,,,,
43933,1506819737789,,,,,,,,0.02,0.05,1.0,-3.0,-0.7,-0.2,0,0,,,,,,,,,,,,,,,,,,,
43953,1506819737809,,,,,,,,0.02,0.05,1.0,-3.0,-0.6,-0.2,0,0,,,,,,,,,,,,,,,,,,,
43973,1506819737829,,,,,0,,,0.02,0.05,1.0,-3.0,-0.7,-0.1,0,0,1,1,0.0,0,35.489861,-119.546089,0.0,0.0,274.6,10,3,1.8,0,0.0,-1,0.0,0.0,0.0,0
43993,1506819737849,,,,,,,,0.02,0.05,1.0,-3.0,-0.7,-0.2,0,0,,,,,,,,,,,,,,,,,,,
44013,1506819737869,,,,,,,,0.02,0.05,1.0,-3.0,-0.7,-0.2,0,0,,,,,,,,,,,,,,,,,,,
44033,1506819737893,,,,,,,,0.02,0.05,1.0,-3.0,-0.7,-0.2,0,0,,,,,,,,,,,,,,,,,,,
44053,1506819737913,,,,,,,,0.02,0.05,1.0,-3.0,-0.7,-0.2,0,0,,,,,,,,,,,,,,,,,,,
44073,1506819737933,0,142.0,-0.6,168.2,0,163.5,13.29,0.02,0.05,1.0,-3.0,-0.7,-0.2,0,0,1,1,0.0,0,35.489861,-119.546089,0.0,0.0,274.6,10,3,1.8,0,0.0,-1,0.0,0.0,0.0,0
44093,1506819737953,,,,,,,,0.02,0.05,1.0,-3.0,-0.7,-0.2,0,0,,,,,,,,,,,,,,,,,,,
44113,1506819737973,,,,,,,,0.02,0.05,1.0,-3.0,-0.6,-0.2,0,0,,,,,,,,,,,,,,,,,,,
44133,1506819737993,,,,,,,,0.02,0.05,1.0,-3.0,-0.6,-0.1,0,0,,,,,,,,,,,,,,,,,,,
44153,1506819738007,,,,,,,,0.02,0.05,1.0,-3.1,-0.6,-0.2,0,0,,,,,,,,,,,,,,,,,,,
44173,1506819738027,,,,,0,,,0.02,0.05,1.0,-3.0,-0.6,-0.2,0,0,1,1,0.0,0,35.489861,-119.546089,0.0,0.0,274.6,10,3,1.8,0,0.0,-1,0.0,0.0,0.0,0
44193,1506819738047,,,,,,,,0.02,0.05,1.0,-3.1,-0.6,-0.1,0,0,,,,,,,,,,,,,,,,,,,
44213,1506819738067,,,,,,,,0.02,0.05,1.0,-3.0,-0.6,-0.1,0,0,,,,,,,,,,,,,,,,,,,
44233,1506819738093,,,,,,,,0.02,0.05,1.0,-3.0,-0.6,-0.1,0,0,,,,,,,,,,,,,,,,,,,
44253,1506819738113,,,,,,,,0.02,0.05,1.0,-3.0,-0.6,-0.1,0,0,,,,,,,,,,,,,,,,,,,
44273,1506819738133,0,142.1,,168.0,0,163.0,,0.02,0.05,1.0,-3.0,-0.6,-0.1,0,0,1,1,0.0,0,35.489861,-119.546089,0.0,0.0,274.6,10,3,1.8,0,0.0,-1,0.0,0.0,0.0,0
44293,1506819738153,,,,,,,,0.02,0.05,1.0,-3.1,-0.6,-0.1,0,0,,,,,,,,,,,,,,,,,,,
44313,1506819738173,,,,,,,,0.02,0.05,1.0,-3.1,-0.6,-0.1,0,0,,,,,,,,,,,,,,,,,,,
44333,1506819738192,,,,,,,,0.02,0.05,1.0,-3.1,-0.6,-0.2,0,0,,,,,,,,,,,,,,,,,,,
44353,1506819738212,,,,,,,,0.02,0.05,1.0,-3.1,-0.7,-0.2,0,0,,,,,,,,,,,,,,,,,,,
44373,1506819738232,,,,,0,,,0.02,0.05,1.0,-3.1,-0.7,-0.2,0,0,1,1,0.0,0,35.489861,-119.546089,0.0,0.0,274.6,10,3,1.8,0,0.0,-1,0.0,0.0,0.0,0
44393,1506819738252,,,,,,,,0.02,0.05,1.0,-3.1,-0.7,-0.2,0,0,,,,,,,,,,,,,,,,,,,
44413,1506819738272,,,,,,,,0.02,0.05,1.0,-3.1,-0.7,-0.2,0,0,,,,,,,,,,,,,,,,,,,
44433,1506819738292,,,,,,,,0.02,0.05,1.0,-3.1,-0.7,-0.2,0,0,,,,,,,,,,,,,,,,,,,
44453,1506819738312,,,,,,,,0.02,0.05,1.0,-3.1,-0.7,-0.2,0,0,,,,,,,,,,,,,,,,,,,
44473,1506819738332,0,141.9,,167.9,0,162.9,,0.02,0.05,1.0,-3.1,-0.7,-0.2,0,0,1,1,0.0,0,35.489861,-119.546089,0.0,0.0,274.6,10,3,1.8,0,0.0,-1,0.0,0.0,0.0,0
44493,1506819738352,,,,,,,,0.02,0.05,1.0,-3.1,-0.7,-0.2,0,0,,,,,,,,,,,,,,,,,,,
44513,1506819738372,,,,,,,,0.02,0.05,1.0,-3.1,-0.7,-0.2,0,0,,,,,,,,,,,,,,,,,,,
44533,1506819738392,,,,,,,,0.02,0.05,1.0,-3.1,-0.6,-0.2,0,0,,,,,,,,,,,,,,,,,,,
44553,1506819738412,,,,,,,,0.02,0.05,1.0,-3.0,-0.7,-0.2,0,0,,,,,,,,,,,,,,,,,,,
44573,1506819738432,,,,,0,,,0.02,0.05,1.0,-3.0,-0.7,-0.2,0,0,1,1,0.0,0,35.489861,-119.546089,0.0,0.0,274.6,10,3,1.8,0,0.0,-1,0.0,0.0,0.0,0
44593,1506819738452,,,,,,,,0.02,0.05,1.0,-3.0,-0.7,-0.2,0,0,,,,,,,,,,,,,,,,,,,
44613,1506819738472,,,,,,,,0.02,0.05,1.0,-3.0,-0.7,-0.2,0,0,,,,,,,,,,,,,,,,,,,
44633,1506819738492,,,,,,,,0.02,0.05,1.0,-3.0,-0.6,-0.2,0,0,,,,,,,,,,,,,,,,,,,
44653,1506819738512,,,,,,,,0.02,0.05,1.0,-3.0,-0.6,-0.1,0,0,,,,,,,,,,,,,,,,,,,
44673,1506819738532,0,141.9,,167.9,0,162.9,,0.02,0.05,1.0,-3.0,-0.7,-0.1,0,0,1,1,0.0,0,35.489861,-119.546089,0.0,0.0,274.6,10,3,1.8,0,0.0,-1,0.0,0.0,0.0,0
44693,1506819738552,,,,,,,,0.03,0.05,1.0,-3.0,-0.7,-0.1,0,0,,,,,,,,,,,,,,,,,,,
44713,1506819738572,,,,,,,,0.02,0.05,1.0,-3.1,-0.7,-0.1,0,0,,,,,,,,,,,,,,,,,,,
44733,1506819738592,,,,,,,,0.02,0.05,1.0,-3.1,-0.6,-0.1,0,0,,,,,,,,,,,,,,,,,,,
44753,1506819738612,,,,,,,,0.02,0.05,1.0,-3.0,-0.7,-0.1,0,0,,,,,,,,,,,,,,,,,,,
44773,1506819738632,,,,,0,,,0.02,0.05,1.0,-3.0,-0.7,-0.2,0,0,1,1,0.0,0,35.489861,-119.546089,0.0,0.0,274.6,10,3,1.8,0,0.0,-1,0.0,0.0,0.0,0
44793,1506819738652,,,,,,,,0.02,0.05,1.0,-3.0,-0.7,-0.1,0,0,,,,,,,,,,,,,,,,,,,
44813,1506819738672,,,,,,,,0.02,0.05,1.0,-3.0,-0.7,-0.1,0,0,,,,,,,,,,,,,,,,,,,
44833,1506819738692,,,,,,,,0.02,0.05,1.0,-3.0,-0.7,-0.1,0,0,,,,,,,,,,,,,,,,,,,
44853,1506819738712,,,,,,,,0.02,0.05,1.0,-3.0,-0.7,-0.1,0,0,,,,,,,,,,,,,,,,,,,
44873,1506819738732,0,142.5,,168.5,0,163.6,,0.02,0.05,1.0,-3.0,-0.7,-0.1,0,0,1,1,0.0,0,35.489861,-119.546089,0.0,0.0,274.6,10,3,1.8,0,0.0,-1,0.0,0.0,0.0,0
44893,1506819738752,,,,,,,,0.02,0.05,1.0,-3.0,-0.7,-0.1,0,0,,,,,,,,,,,,,,,,,,,
44913,1506819738772,,,,,,,,0.02,0.05,1.0,-3.0,-0.7,-0.1,0,0,,,,,,,,,,,,,,,,,,,
44933,1506819738792,,,,,,,,0.02,0.05,1.0,-3.0,-0.7,-0.1,0,0,,,,,,,,,,,,,,,,,,,
44953,1506819738812,,,,,,,,0.02,0.05,1.0,-3.0,-0.7,-0.1,0,0,,,,,,,,,,,,,,,,,,,
44973,1506819738832,,,,,0,,,0.02,0.05,1.0,-3.0,-0.7,-0.1,0,0,1,1,0.0,0,35.489861,-119.546089,0.0,0.0,274.6,10,3,1.8,0,0.0,-1,0.0,0.0,0.0,0
44993,1506819738852,,,,,,,,0.02,0.05,1.0,-3.0,-0.7,-0.1,0,0,,,,,,,,,,,,,,,,,,,
45013,1506819738872,,,,,,,,0.02,0.05,1.0,-3.0,-0.7,-0.1,0,0,,,,,,,,,,,,,,,,,,,
45033,1506819738892,,,,,,,,0.02,0.05,1.0,-3.0,-0.7,-0.1,0,0,,,,,,,,,,,,,,,,,,,
45053,1506819738912,,,,,,,,0.03,0.05,1.0,-3.0,-0.7,-0.1,0,0,,,,,,,,,,,,,,,,,,,
45073,1506819738932,0,142.8,-0.6,168.7,0,163.4,13.29,0.03,0.05,1.0,-3.0,-0.7,-0.2,0,0,1,1,0.0,0,35.489861,-119.546089,0.0,0.0,274.6,10,3,1.8,0,0.0,-1,0.0,0.0,0.0,0
45093,1506819738952,,,,,,,,0.03,0.05,1.0,-3.0,-0.7,-0.2,0,0,,,,,,,,,,,,,,,,,,,
45113,1506819738972,,,,,,,,0.03,0.05,1.0,-3.1,-0.7,-0.2,0,0,,,,,,,,,,,,,,,,,,,
45133,1506819738992,,,,,,,,0.03,0.05,1.0,-3.0,-0.6,-0.2,0,0,,,,,,,,,,,,,,,,,,,
45153,1506819739006,,,,,,,,0.03,0.05,1.0,-3.1,-0.6,-0.2,0,0,,,,,,,,,,,,,,,,,,,
45173,1506819739026,,,,,0,,,0.03,0.05,1.0,-3.1,-0.6,-0.2,0,0,1,1,0.0,0,35.489861,-119.546089,0.0,0.0,274.6,10,3,1.8,0,0.0,-1,0.0,0.0,0.0,0
45193,1506819739046,,,,,,,,0.03,0.05,1.0,-3.1,-0.6,-0.2,0,0,,,,,,,,,,,,,,,,,,,
45213,1506819739066,,,,,,,,0.03,0.05,1.0,-3.0,-0.6,-0.1,0,0,,,,,,,,,,,,,,,,,,,
45233,1506819739092,,,,,,,,0.03,0.05,1.0,-3.0,-0.6,-0.1,0,0,,,,,,,,,,,,,,,,,,,
45253,1506819739112,,,,,,,,0.03,0.05,1.0,-3.0,-0.7,-0.1,0,0,,,,,,,,,,,,,,,,,,,
45273,1506819739132,0,142.5,,168.2,0,162.8,,0.03,0.05,1.0,-3.0,-0.6,-0.2,0,0,1,1,0.0,0,35.489861,-119.546089,0.0,0.0,274.6,10,3,1.8,0,0.0,-1,0.0,0.0,0.0,0
45293,1506819739152,,,,,,,,0.02,0.05,1.0,-3.0,-0.6,-0.2,0,0,,,,,,,,,,,,,,,,,,,
45313,1506819739172,,,,,,,,0.03,0.05,1.0,-3.0,-0.6,-0.1,0,0,,,,,,,,,,,,,,,,,,,
45333,1506819739191,,,,,,,,0.03,0.05,1.0,-3.0,-0.6,-0.1,0,0,,,,,,,,,,,,,,,,,,,
45353,1506819739211,,,,,,,,0.03,0.05,1.0,-3.0,-0.6,-0.1,0,0,,,,,,,,,,,,,,,,,,,
45373,1506819739231,,,,,0,,,0.03,0.05,1.0,-3.0,-0.6,-0.1,0,0,1,1,0.0,0,35.489861,-119.546089,0.0,0.0,274.6,10,3,1.8,0,0.0,-1,0.0,0.0,0.0,0
45393,1506819739251,,,,,,,,0.03,0.05,1.0,-3.0,-0.6,-0.2,0,0,,,,,,,,,,,,,,,,,,,
45413,1506819739271,,,,,,,,0.03,0.05,1.0,-3.0,-0.6,-0.2,0,0,,,,,,,,,,,,,,,,,,,
45433,1506819739291,,,,,,,,0.03,0.05,1.0,-3.0,-0.6,-0.2,0,0,,,,,,,,,,,,,,,,,,,
45453,1506819739311,,,,,,,,0.03,0.05,1.0,-3.0,-0.6,-0.2,0,0,,,,,,,,,,,,,,,,,,,
45473,1506819739331,0,142.6,,168.2,0,163.0,,0.03,0.05,1.0,-3.0,-0.6,-0.2,0,0,1,1,0.0,0,35.489861,-119.546089,0.0,0.0,274.6,10,3,1.8,0,0.0,-1,0.0,0.0,0.0,0
45493,1506819739351,,,,,,,,0.03,0.05,1.0,-3.0,-0.6,-0.2,0,0,,,,,,,,,,,,,,,,,,,
45513,1506819739371,,,,,,,,0.03,0.05,1.0,-3.0,-0.6,-0.2,0,0,,,,,,,,,,,,,,,,,,,
45533,1506819739391,,,,,,,,0.03,0.05,1.0,-3.0,-0.6,-0.2,0,0,,,,,,,,,,,,,,,,,,,
45553,1506819739411,,,,,,,,0.03,0.05,1.0,-3.0,-0.7,-0.2,0,0,,,,,,,,,,,,,,,,,,,
45573,1506819739431,,,,,0,,,0.03,0.05,1.0,-3.0,-0.7,-0.2,0,0,1,1,0.0,0,35.489861,-119.546089,0.0,0.0,274.6,10,3,1.8,0,0.0,-1,0.0,0.0,0.0,0
45593,1506819739451,,,,,,,,0.03,0.05,1.0,-3.0,-0.7,-0.1,0,0,,,,,,,,,,,,,,,,,,,
45613,1506819739471,,,,,,,,0.03,0.05,1.0,-3.0,-0.7,-0.2,0,0,,,,,,,,,,,,,,,,,,,
45633,1506819739491,,,,,,,,0.03,0.05,1.0,-3.0,-0.7,-0.1,0,0,,,,,,,,,,,,,,,,,,,
45653,1506819739511,,,,,,,,0.03,0.05,1.0,-3.0,-0.7,-0.1,0,0,,,,,,,,,,,,,,,,,,,
45673,1506819739531,0,142.7,,168.7,0,163.6,,0.03,0.05,1.0,-3.0,-0.7,-0.1,0,0,1,1,0.0,0,35.489861,-119.546089,0.0,0.0,274.6,10,3,1.8,0,0.0,-1,0.0,0.0,0.0,0
45693,1506819739551,,,,,,,,0.03,0.05,1.0,-3.0,-0.7,-0.1,0,0,,,,,,,,,,,,,,,,,,,
45713,1506819739571,,,,,,,,0.03,0.05,1.0,-3.0,-0.7,-0.1,0,0,,,,,,,,,,,,,,,,,,,
45733,1506819739591,,,,,,,,0.03,0.05,1.0,-3.0,-0.7,-0.1,0,0,,,,,,,,,,,,,,,,,,,
45753,1506819739611,,,,,,,,0.03,0.05,1.0,-3.0,-0.7,-0.1,0,0,,,,,,,,,,,,,,,,,,,
45773,1506819739631,,,,,0,,,0.03,0.05,1.0,-3.0,-0.7,-0.1,0,0,1,1,0.0,0,35.489861,-119.546089,0.0,0.0,274.6,10,3,1.8,0,0.0,-1,0.0,0.0,0.0,0
45793,1506819739651,,,,,,,,0.03,0.05,1.0,-3.0,-0.7,-0.1,0,0,,,,,,,,,,,,,,,,,,,
45813,1506819739671,,,,,,,,0.03,0.05,1.0,-3.0,-0.7,-0.1,0,0,,,,,,,,,,,,,,,,,,,
45833,1506819739693,,,,,,,,0.03,0.05,1.0,-3.0,-0.7,-0.1,0,0,,,,,,,,,,,,,,,,,,,
45853,1506819739713,,,,,,,,0.03,0.05,1.0,-3.0,-0.7,-0.1,0,0,,,,,,,,,,,,,,,,,,,
45873,1506819739733,0,142.7,,168.6,0,163.1,,0.03,0.05,1.0,-3.0,-0.7,-0.1,0,0,1,1,0.0,0,35.489861,-119.546089,0.0,0.0,274.6,10,3,1.8,0,0.0,-1,0.0,0.0,0.0,0
45893,1506819739753,,,,,,,,0.02,0.05,1.0,-3.0,-0.7,-0.2,0,0,,,,,,,,,,,,,,,,,,,
45913,1506819739773,,,,,,,,0.02,0.05,1.0,-3.0,-0.7,-0.2,0,0,,,,,,,,,,,,,,,,,,,
45933,1506819739793,,,,,,,,0.02,0.05,1.0,-3.0,-0.7,-0.2,0,0,,,,,,,,,,,,,,,,,,,
45953,1506819739813,,,,,,,,0.02,0.05,1.0,-3.0,-0.7,-0.2,0,0,,,,,,,,,,,,,,,,,,,
45973,1506819739833,,,,,0,,,0.02,0.05,1.0,-3.0,-0.7,-0.2,0,0,1,1,0.0,0,35.489861,-119.546089,0.0,0.0,274.6,10,3,1.8,0,0.0,-1,0.0,0.0,0.0,0
45993,1506819739853,,,,,,,,0.02,0.05,1.0,-3.0,-0.7,-0.1,0,0,,,,,,,,,,,,,,,,,,,
46013,1506819739873,,,,,,,,0.02,0.05,1.0,-3.0,-0.7,-0.2,0,0,,,,,,,,,,,,,,,,,,,
46033,1506819739893,,,,,,,,0.02,0.05,1.0,-3.0,-0.7,-0.1,0,0,,,,,,,,,,,,,,,,,,,
46053,1506819739913,,,,,,,,0.02,0.05,1.0,-3.0,-0.7,-0.1,0,0,,,,,,,,,,,,,,,,,,,
46073,1506819739933,0,142.0,-0.7,168.0,0,163.0,13.28,0.02,0.05,1.0,-3.0,-0.7,-0.1,0,0,1,1,0.0,0,35.489861,-119.546089,0.0,0.0,274.6,10,3,1.8,0,0.0,-1,0.0,0.0,0.0,0
46093,1506819739953,,,,,,,,0.02,0.05,1.0,-3.0,-0.7,-0.2,0,0,,,,,,,,,,,,,,,,,,,
46113,1506819739973,,,,,,,,0.02,0.05,1.0,-3.0,-0.7,-0.2,0,0,,,,,,,,,,,,,,,,,,,
46133,1506819739993,,,,,,,,0.02,0.05,1.0,-3.0,-0.7,-0.2,0,0,,,,,,,,,,,,,,,,,,,
46153,1506819740007,,,,,,,,0.02,0.05,1.0,-3.0,-0.7,-0.2,0,0,,,,,,,,,,,,,,,,,,,
46173,1506819740027,,,,,0,,,0.02,0.05,1.0,-3.0,-0.7,-0.2,0,0,1,1,0.0,0,35.489861,-119.546089,0.0,0.0,274.6,10,3,1.8,0,0.0,-1,0.0,0.0,0.0,0
46193,1506819740047,,,,,,,,0.02,0.05,1.0,-3.0,-0.7,-0.2,0,0,,,,,,,,,,,,,,,,,,,
46213,1506819740067,,,,,,,,0.02,0.05,1.0,-3.0,-0.7,-0.2,0,0,,,,,,,,,,,,,,,,,,,
46233,1506819740093,,,,,,,,0.02,0.05,1.0,-3.0,-0.7,-0.2,0,0,,,,,,,,,,,,,,,,,,,
46253,1506819740113,,,,,,,,0.02,0.05,1.0,-3.0,-0.7,-0.1,0,0,,,,,,,,,,,,,,,,,,,
46273,1506819740133,0,141.9,,168.1,0,163.3,,0.02,0.05,1.0,-3.0,-0.7,-0.1,0,0,1,1,0.0,0,35.489861,-119.546089,0.0,0.0,274.6,10,3,1.8,0,0.0,-1,0.0,0.0,0.0,0
46293,1506819740153,,,,,,,,0.02,0.05,1.0,-3.0,-0.7,-0.1,0,0,,,,,,,,,,,,,,,,,,,
46313,1506819740173,,,,,,,,0.02,0.05,1.0,-3.0,-0.7,-0.1,0,0,,,,,,,,,,,,,,,,,,,
46333,1506819740192,,,,,,,,0.02,0.05,1.0,-3.0,-0.7,-0.2,0,0,,,,,,,,,,,,,,,,,,,
46353,1506819740212,,,,,,,,0.02,0.05,1.0,-3.0,-0.6,-0.2,0,0,,,,,,,,,,,,,,,,,,,
46373,1506819740232,,,,,0,,,0.02,0.05,1.0,-3.0,-0.6,-0.2,0,0,1,1,0.0,0,35.489861,-119.546089,0.0,0.0,274.6,10,3,1.8,0,0.0,-1,0.0,0.0,0.0,0
46393,1506819740252,,,,,,,,0.02,0.05,1.0,-3.0,-0.6,-0.2,0,0,,,,,,,,,,,,,,,,,,,
46413,1506819740272,,,,,,,,0.02,0.05,1.0,-3.0,-0.6,-0.1,0,0,,,,,,,,,,,,,,,,,,,
46433,1506819740292,,,,,,,,0.02,0.05,1.0,-3.0,-0.7,-0.1,0,0,,,,,,,,,,,,,,,,,,,
46453,1506819740312,,,,,,,,0.02,0.05,1.0,-3.0,-0.7,-0.1,0,0,,,,,,,,,,,,,,,,,,,
46473,1506819740332,0,142.8,,168.7,0,163.6,,0.02,0.05,1.0,-3.0,-0.7,-0.1,0,0,1,1,0.0,0,35.489861,-119.546089,0.0,0.0,274.6,10,3,1.8,0,0.0,-1,0.0,0.0,0.0,0
46493,1506819740352,,,,,,,,0.02,0.05,1.0,-3.0,-0.7,-0.1,0,0,,,,,,,,,,,,,,,,,,,
46513,1506819740372,,,,,,,,0.02,0.05,1.0,-3.0,-0.6,-0.1,0,0,,,,,,,,,,,,,,,,,,,
46533,1506819740392,,,,,,,,0.02,0.05,1.0,-3.0,-0.6,-0.1,0,0,,,,,,,,,,,,,,,,,,,
46553,1506819740412,,,,,,,,0.02,0.05,1.0,-3.0,-0.7,-0.2,0,0,,,,,,,,,,,,,,,,,,,
46573,1506819740432,,,,,0,,,0.02,0.05,1.0,-3.0,-0.6,-0.2,0,0,1,1,0.0,0,35.489861,-119.546089,0.0,0.0,274.6,10,3,1.8,0,0.0,-1,0.0,0.0,0.0,0
46593,1506819740452,,,,,,,,0.02,0.05,1.0,-3.0,-0.6,-0.2,0,0,,,,,,,,,,,,,,,,,,,
46613,1506819740472,,,,,,,,0.02,0.05,1.0,-3.0,-0.7,-0.2,0,0,,,,,,,,,,,,,,,,,,,
46633,1506819740492,,,,,,,,0.03,0.05,1.0,-3.0,-0.7,-0.2,0,0,,,,,,,,,,,,,,,,,,,
46653,1506819740512,,,,,,,,0.02,0.05,1.0,-3.0,-0.7,-0.2,0,0,,,,,,,,,,,,,,,,,,,
46673,1506819740532,0,141.9,,168.0,0,163.2,,0.03,0.05,1.0,-3.0,-0.7,-0.2,0,0,1,1,0.0,0,35.489861,-119.546089,0.0,0.0,274.6,10,3,1.8,0,0.0,-1,0.0,0.0,0.0,0
46693,1506819740552,,,,,,,,0.02,0.05,1.0,-3.0,-0.7,-0.2,0,0,,,,,,,,,,,,,,,,,,,
46713,1506819740572,,,,,,,,0.03,0.05,1.0,-3.0,-0.7,-0.2,0,0,,,,,,,,,,,,,,,,,,,
46733,1506819740592,,,,,,,,0.03,0.05,1.0,-3.0,-0.7,-0.2,0,0,,,,,,,,,,,,,,,,,,,
46753,1506819740612,,,,,,,,0.03,0.05,1.0,-3.0,-0.7,-0.2,0,0,,,,,,,,,,,,,,,,,,,
46773,1506819740632,,,,,0,,,0.03,0.05,1.0,-3.0,-0.7,-0.2,0,0,1,1,0.0,0,35.489861,-119.546089,0.0,0.0,274.6,10,3,1.8,0,0.0,-1,0.0,0.0,0.0,0
46793,1506819740652,,,,,,,,0.03,0.05,1.0,-3.0,-0.7,-0.2,0,0,,,,,,,,,,,,,,,,,,,
46813,1506819740672,,,,,,,,0.03,0.05,1.0,-3.0,-0.7,-0.1,0,0,,,,,,,,,,,,,,,,,,,
46833,1506819740692,,,,,,,,0.03,0.05,1.0,-3.0,-0.7,-0.2,0,0,,,,,,,,,,,,,,,,,,,
46853,1506819740712,,,,,,,,0.03,0.05,1.0,-3.0,-0.7,-0.1,0,0,,,,,,,,,,,,,,,,,,,
46873,1506819740732,0,142.2,,168.0,0,162.8,,0.03,0.05,1.0,-3.0,-0.7,-0.1,0,0,1,1,0.0,0,35.489861,-119.546089,0.0,0.0,274.6,10,3,1.8,0,0.0,-1,0.0,0.0,0.0,0
46893,1506819740752,,,,,,,,0.03,0.05,1.0,-3.0,-0.7,-0.1,0,0,,,,,,,,,,,,,,,,,,,
46913,1506819740772,,,,,,,,0.03,0.05,1.0,-3.0,-0.7,-0.1,0,0,,,,,,,,,,,,,,,,,,,
46933,1506819740792,,,,,,,,0.02,0.05,1.0,-3.0,-0.7,-0.1,0,0,,,,,,,,,,,,,,,,,,,
46953,1506819740812,,,,,,,,0.03,0.05,1.0,-3.0,-0.7,-0.1,0,0,,,,,,,,,,,,,,,,,,,
46973,1506819740832,,,,,0,,,0.03,0.05,1.0,-3.0,-0.7,-0.1,0,0,1,1,0.0,0,35.489861,-119.546089,0.0,0.0,274.6,10,3,1.8,0,0.0,-1,0.0,0.0,0.0,0
46993,1506819740852,,,,,,,,0.03,0.05,1.0,-3.0,-0.7,-0.1,0,0,,,,,,,,,,,,,,,,,,,
47013,1506819740872,,,,,,,,0.03,0.05,1.0,-3.0,-0.7,-0.1,0,0,,,,,,,,,,,,,,,,,,,
47033,1506819740892,,,,,,,,0.02,0.05,1.0,-3.0,-0.7,-0.1,0,0,,,,,,,,,,,,,,,,,,,
47053,1506819740908,,,,,,,,0.02,0.05,1.0,-3.0,-0.7,-0.1,0,0,,,,,,,,,,,,,,,,,,,
47073,1506819740928,0,142.9,-0.5,168.7,0,163.6,13.27,0.02,0.05,1.0,-3.0,-0.7,-0.1,0,0,1,1,0.0,0,35.489861,-119.546089,0.0,0.0,274.6,10,3,1.8,0,0.0,-1,0.0,0.0,0.0,0
47093,1506819740948,,,,,,,,0.02,0.05,1.0,-3.0,-0.7,-0.1,0,0,,,,,,,,,,,,,,,,,,,
47113,1506819740968,,,,,,,,0.02,0.05,1.0,-3.0,-0.7,-0.1,0,0,,,,,,,,,,,,,,,,,,,
47133,1506819740988,,,,,,,,0.02,0.05,1.0,-3.0,-0.7,-0.1,0,0,,,,,,,,,,,,,,,,,,,
47153,1506819741006,,,,,,,,0.02,0.05,1.0,-3.0,-0.7,-0.1,0,0,,,,,,,,,,,,,,,,,,,
47173,1506819741026,,,,,0,,,0.02,0.05,1.0,-3.0,-0.6,-0.1,0,0,1,1,0.0,0,35.489861,-119.546089,0.0,0.0,274.6,10,3,1.8,0,0.0,-1,0.0,0.0,0.0,0
47193,1506819741046,,,,,,,,0.03,0.05,1.0,-3.0,-0.6,-0.1,0,0,,,,,,,,,,,,,,,,,,,
47213,1506819741066,,,,,,,,0.03,0.05,1.0,-3.0,-0.6,-0.1,0,0,,,,,,,,,,,,,,,,,,,
47233,1506819741092,,,,,,,,0.03,0.05,1.0,-3.0,-0.7,-0.1,0,0,,,,,,,,,,,,,,,,,,,
47253,1506819741112,,,,,,,,0.03,0.05,1.0,-3.0,-0.7,-0.1,0,0,,,,,,,,,,,,,,,,,,,
47273,1506819741132,0,142.1,,168.0,0,162.9,,0.02,0.05,1.0,-3.0,-0.6,-0.1,0,0,1,1,0.0,0,35.489861,-119.546089,0.0,0.0,274.6,10,3,1.8,0,0.0,-1,0.0,0.0,0.0,0
47293,1506819741152,,,,,,,,0.02,0.05,1.0,-3.0,-0.7,-0.1,0,0,,,,,,,,,,,,,,,,,,,
47313,1506819741172,,,,,,,,0.02,0.05,1.0,-3.0,-0.6,-0.1,0,0,,,,,,,,,,,,,,,,,,,
47333,1506819741191,,,,,,,,0.02,0.05,1.0,-3.0,-0.6,-0.1,0,0,,,,,,,,,,,,,,,,,,,
47353,1506819741211,,,,,,,,0.02,0.05,1.0,-3.0,-0.7,-0.1,0,0,,,,,,,,,,,,,,,,,,,
47373,1506819741231,,,,,0,,,0.02,0.05,1.0,-3.0,-0.7,-0.1,0,0,1,1,0.0,0,35.489861,-119.546089,0.0,0.0,274.6,10,3,1.8,0,0.0,-1,0.0,0.0,0.0,0
47393,1506819741251,,,,,,,,0.02,0.05,1.0,-3.0,-0.7,-0.1,0,0,,,,,,,,,,,,,,,,,,,
47413,1506819741271,,,,,,,,0.03,0.05,1.0,-3.0,-0.6,-0.1,0,0,,,,,,,,,,,,,,,,,,,
47433,1506819741291,,,,,,,,0.03,0.05,1.0,-3.0,-0.6,-0.1,0,0,,,,,,,,,,,,,,,,,,,
47453,1506819741311,,,,,,,,0.03,0.05,1.0,-3.0,-0.6,-0.1,0,0,,,,,,,,,,,,,,,,,,,
47473,1506819741331,0,142.8,,168.6,0,163.3,,0.02,0.05,1.0,-3.0,-0.6,-0.1,0,0,1,1,0.0,0,35.489861,-119.546089,0.0,0.0,274.6,10,3,1.8,0,0.0,-1,0.0,0.0,0.0,0
47493,1506819741351,,,,,,,,0.03,0.05,1.0,-3.0,-0.6,-0.1,0,0,,,,,,,,,,,,,,,,,,,
47513,1506819741371,,,,,,,,0.03,0.05,1.0,-3.0,-0.6,-0.1,0,0,,,,,,,,,,,,,,,,,,,
47533,1506819741391,,,,,,,,0.03,0.05,1.0,-3.0,-0.6,-0.1,0,0,,,,,,,,,,,,,,,,,,,
47553,1506819741411,,,,,,,,0.03,0.05,1.0,-3.0,-0.6,-0.1,0,0,,,,,,,,,,,,,,,,,,,
47573,1506819741431,,,,,0,,,0.02,0.05,1.0,-3.0,-0.6,-0.1,0,0,1,1,0.0,0,35.489861,-119.546089,0.0,0.0,274.6,10,3,1.8,0,0.0,-1,0.0,0.0,0.0,0
47593,1506819741451,,,,,,,,0.02,0.05,1.0,-3.0,-0.6,-0.1,0,0,,,,,,,,,,,,,,,,,,,
47613,1506819741471,,,,,,,,0.03,0.05,1.0,-3.0,-0.6,-0.1,0,0,,,,,,,,,,,,,,,,,,,
47633,1506819741493,,,,,,,,0.03,0.05,1.0,-3.0,-0.6,-0.1,0,0,,,,,,,,,,,,,,,,,,,
47653,1506819741513,,,,,,,,0.03,0.05,1.0,-3.0,-0.6,-0.1,0,0,,,,,,,,,,,,,,,,,,,
47673,1506819741533,0,142.8,,168.7,0,163.5,,0.03,0.05,1.0,-3.0,-0.6,-0.1,0,0,1,1,0.0,0,35.489861,-119.546089,0.0,0.0,274.6,10,3,1.8,0,0.0,-1,0.0,0.0,0.0,0
47693,1506819741553,,,,,,,,0.03,0.05,1.0,-3.0,-0.6,-0.1,0,0,,,,,,,,,,,,,,,,,,,
47713,1506819741573,,,,,,,,0.03,0.05,1.0,-3.0,-0.6,-0.2,0,0,,,,,,,,,,,,,,,,,,,
47733,1506819741591,,,,,,,,0.03,0.05,1.0,-3.0,-0.6,-0.1,0,0,,,,,,,,,,,,,,,,,,,
47753,1506819741611,,,,,,,,0.02,0.05,1.0,-3.0,-0.6,-0.1,0,0,,,,,,,,,,,,,,,,,,,
47773,1506819741631,,,,,0,,,0.02,0.05,1.0,-3.0,-0.6,-0.1,0,0,1,1,0.0,0,35.489861,-119.546089,0.0,0.0,274.6,10,3,1.8,0,0.0,-1,0.0,0.0,0.0,0
47793,1506819741651,,,,,,,,0.02,0.05,1.0,-3.0,-0.6,-0.1,0,0,,,,,,,,,,,,,,,,,,,
47813,1506819741671,,,,,,,,0.02,0.05,1.0,-3.0,-0.6,-0.1,0,0,,,,,,,,,,,,,,,,,,,
47833,1506819741691,,,,,,,,0.02,0.05,1.0,-3.1,-0.6,-0.1,0,0,,,,,,,,,,,,,,,,,,,
47853,1506819741711,,,,,,,,0.02,0.05,1.0,-3.1,-0.7,-0.1,0,0,,,,,,,,,,,,,,,,,,,
47873,1506819741731,0,142.1,,168.1,0,163.3,,0.02,0.05,1.0,-3.1,-0.7,-0.1,0,0,1,1,0.0,0,35.489861,-119.546089,0.0,0.0,274.6,10,3,1.8,0,0.0,-1,0.0,0.0,0.0,0
47893,1506819741751,,,,,,,,0.02,0.05,1.0,-3.1,-0.7,-0.2,0,0,,,,,,,,,,,,,,,,,,,
47913,1506819741771,,,,,,,,0.02,0.05,1.0,-3.1,-0.7,-0.1,0,0,,,,,,,,,,,,,,,,,,,
47933,1506819741793,,,,,,,,0.02,0.05,1.0,-3.1,-0.7,-0.2,0,0,,,,,,,,,,,,,,,,,,,
47953,1506819741813,,,,,,,,0.02,0.05,1.0,-3.0,-0.7,-0.1,0,0,,,,,,,,,,,,,,,,,,,
47973,1506819741833,,,,,0,,,0.02,0.05,1.0,-3.0,-0.7,-0.1,0,0,1,1,0.0,0,35.489861,-119.546089,0.0,0.0,274.6,10,3,1.8,0,0.0,-1,0.0,0.0,0.0,0
47993,1506819741853,,,,,,,,0.02,0.05,1.0,-3.0,-0.7,-0.1,0,0,,,,,,,,,,,,,,,,,,,
48013,1506819741873,,,,,,,,0.03,0.05,1.0,-3.0,-0.6,-0.1,0,0,,,,,,,,,,,,,,,,,,,
48033,1506819741893,,,,,,,,0.03,0.05,1.0,-3.0,-0.7,-0.1,0,0,,,,,,,,,,,,,,,,,,,
48053,1506819741913,,,,,,,,0.02,0.05,1.0,-3.0,-0.7,-0.1,0,0,,,,,,,,,,,,,,,,,,,
48073,1506819741933,0,142.9,-0.5,168.7,0,163.6,13.27,0.02,0.05,1.0,-3.0,-0.7,-0.1,0,0,1,1,0.0,0,35.489861,-119.546089,0.0,0.0,274.6,10,3,1.8,0,0.0,-1,0.0,0.0,0.0,0
48093,1506819741953,,,,,,,,0.02,0.05,1.0,-3.0,-0.7,-0.1,0,0,,,,,,,,,,,,,,,,,,,
48113,1506819741973,,,,,,,,0.03,0.05,1.0,-3.0,-0.7,-0.1,0,0,,,,,,,,,,,,,,,,,,,
48133,1506819741993,,,,,,,,0.03,0.05,1.0,-3.0,-0.7,-0.1,0,0,,,,,,,,,,,,,,,,,,,
48153,1506819742007,,,,,,,,0.03,0.05,1.0,-3.0,-0.7,-0.1,0,0,,,,,,,,,,,,,,,,,,,
48173,1506819742027,,,,,0,,,0.02,0.05,1.0,-3.0,-0.7,-0.1,0,0,1,1,0.0,0,35.489861,-119.546089,0.0,0.0,274.6,10,3,1.8,0,0.0,-1,0.0,0.0,0.0,0
48193,1506819742047,,,,,,,,0.03,0.05,1.0,-3.0,-0.7,-0.1,0,0,,,,,,,,,,,,,,,,,,,
48213,1506819742067,,,,,,,,0.03,0.05,1.0,-3.0,-0.7,-0.1,0,0,,,,,,,,,,,,,,,,,,,
48233,1506819742087,,,,,,,,0.02,0.05,1.0,-3.0,-0.6,-0.1,0,0,,,,,,,,,,,,,,,,,,,
48253,1506819742109,,,,,,,,0.02,0.05,1.0,-3.0,-0.6,-0.1,0,0,,,,,,,,,,,,,,,,,,,
48273,1506819742129,0,142.0,,167.9,0,163.0,,0.02,0.05,1.0,-3.0,-0.6,-0.1,0,0,1,1,0.0,0,35.489861,-119.546089,0.0,0.0,274.6,10,3,1.8,0,0.0,-1,0.0,0.0,0.0,0
48293,1506819742149,,,,,,,,0.02,0.05,1.0,-3.0,-0.6,-0.2,0,0,,,,,,,,,,,,,,,,,,,
48313,1506819742169,,,,,,,,0.02,0.05,1.0,-3.0,-0.7,-0.2,0,0,,,,,,,,,,,,,,,,,,,
48333,1506819742192,,,,,,,,0.02,0.05,1.0,-3.0,-0.7,-0.2,0,0,,,,,,,,,,,,,,,,,,,
48353,1506819742212,,,,,,,,0.02,0.05,1.0,-3.0,-0.7,-0.2,0,0,,,,,,,,,,,,,,,,,,,
48373,1506819742232,,,,,0,,,0.02,0.05,1.0,-3.0,-0.6,-0.2,0,0,1,1,0.0,0,35.489861,-119.546089,0.0,0.0,274.6,10,3,1.8,0,0.0,-1,0.0,0.0,0.0,0
48393,1506819742252,,,,,,,,0.02,0.05,1.0,-3.0,-0.6,-0.1,0,0,,,,,,,,,,,,,,,,,,,
48413,1506819742272,,,,,,,,0.02,0.05,1.0,-3.0,-0.6,-0.2,0,0,,,,,,,,,,,,,,,,,,,
48433,1506819742292,,,,,,,,0.02,0.05,1.0,-3.0,-0.7,-0.2,0,0,,,,,,,,,,,,,,,,,,,
48453,1506819742312,,,,,,,,0.02,0.05,1.0,-3.0,-0.7,-0.1,0,0,,,,,,,,,,,,,,,,,,,
48473,1506819742332,0,142.9,,168.7,0,163.5,,0.02,0.05,1.0,-3.0,-0.7,-0.2,0,0,1,1,0.0,0,35.489861,-119.546089,0.0,0.0,274.6,10,3,1.8,0,0.0,-1,0.0,0.0,0.0,0
48493,1506819742352,,,,,,,,0.02,0.05,1.0,-3.0,-0.7,-0.2,0,0,,,,,,,,,,,,,,,,,,,
48513,1506819742372,,,,,,,,0.02,0.05,1.0,-3.0,-0.6,-0.2,0,0,,,,,,,,,,,,,,,,,,,
48533,1506819742392,,,,,,,,0.02,0.05,1.0,-3.0,-0.6,-0.2,0,0,,,,,,,,,,,,,,,,,,,
48553,1506819742412,,,,,,,,0.02,0.05,1.0,-3.0,-0.6,-0.2,0,0,,,,,,,,,,,,,,,,,,,
48573,1506819742432,,,,,0,,,0.02,0.05,1.0,-3.0,-0.7,-0.1,0,0,1,1,0.0,0,35.489861,-119.546089,0.0,0.0,274.6,10,3,1.8,0,0.0,-1,0.0,0.0,0.0,0
48593,1506819742452,,,,,,,,0.02,0.05,1.0,-3.0,-0.7,-0.2,0,0,,,,,,,,,,,,,,,,,,,
48613,1506819742472,,,,,,,,0.02,0.05,1.0,-3.0,-0.7,-0.2,0,0,,,,,,,,,,,,,,,,,,,
48633,1506819742492,,,,,,,,0.02,0.05,1.0,-3.0,-0.7,-0.2,0,0,,,,,,,,,,,,,,,,,,,
48653,1506819742512,,,,,,,,0.02,0.05,1.0,-3.0,-0.7,-0.2,0,0,,,,,,,,,,,,,,,,,,,
48673,1506819742532,0,142.2,,168.2,0,163.4,,0.02,0.05,1.0,-3.0,-0.7,-0.2,0,0,1,1,0.0,0,35.489861,-119.546089,0.0,0.0,274.6,10,3,1.8,0,0.0,-1,0.0,0.0,0.0,0
48693,1506819742552,,,,,,,,0.02,0.05,1.0,-3.0,-0.7,-0.2,0,0,,,,,,,,,,,,,,,,,,,
48713,1506819742572,,,,,,,,0.02,0.05,1.0,-3.0,-0.7,-0.2,0,0,,,,,,,,,,,,,,,,,,,
48733,1506819742592,,,,,,,,0.02,0.05,1.0,-3.0,-0.7,-0.2,0,0,,,,,,,,,,,,,,,,,,,
48753,1506819742612,,,,,,,,0.02,0.05,1.0,-3.0,-0.7,-0.2,0,0,,,,,,,,,,,,,,,,,,,
48773,1506819742632,,,,,0,,,0.02,0.05,1.0,-3.0,-0.7,-0.2,0,0,1,1,0.0,0,35.489861,-119.546089,0.0,0.0,274.6,10,3,1.8,0,0.0,-1,0.0,0.0,0.0,0
48793,1506819742652,,,,,,,,0.02,0.05,1.0,-3.0,-0.7,-0.2,0,0,,,,,,,,,,,,,,,,,,,
48813,1506819742672,,,,,,,,0.02,0.05,1.0,-3.0,-0.7,-0.2,0,0,,,,,,,,,,,,,,,,,,,
48833,1506819742692,,,,,,,,0.02,0.05,1.0,-3.0,-0.7,-0.2,0,0,,,,,,,,,,,,,,,,,,,
48853,1506819742712,,,,,,,,0.02,0.05,1.0,-3.0,-0.7,-0.2,0,0,,,,,,,,,,,,,,,,,,,
48873,1506819742732,0,142.8,,168.7,0,163.5,,0.02,0.05,1.0,-3.0,-0.7,-0.2,0,0,1,1,0.0,0,35.489861,-119.546089,0.0,0.0,274.6,10,3,1.8,0,0.0,-1,0.0,0.0,0.0,0
48893,1506819742752,,,,,,,,0.02,0.05,1.0,-3.0,-0.7,-0.1,0,0,,,,,,,,,,,,,,,,,,,
48913,1506819742772,,,,,,,,0.02,0.05,1.0,-3.0,-0.7,-0.2,0,0,,,,,,,,,,,,,,,,,,,
48933,1506819742792,,,,,,,,0.02,0.05,1.0,-3.0,-0.7,-0.2,0,0,,,,,,,,,,,,,,,,,,,
48953,1506819742812,,,,,,,,0.02,0.05,1.0,-3.0,-0.7,-0.2,0,0,,,,,,,,,,,,,,,,,,,
48973,1506819742832,,,,,0,,,0.02,0.05,1.0,-3.0,-0.7,-0.2,0,0,1,1,0.0,0,35.489861,-119.546089,0.0,0.0,274.6,10,3,1.8,0,0.0,-1,0.0,0.0,0.0,0
48993,1506819742852,,,,,,,,0.02,0.05,1.0,-3.0,-0.7,-0.2,0,0,,,,,,,,,,,,,,,,,,,
49013,1506819742872,,,,,,,,0.02,0.05,1.0,-3.0,-0.7,-0.2,0,0,,,,,,,,,,,,,,,,,,,
49033,1506819742892,,,,,,,,0.02,0.05,1.0,-3.0,-0.7,-0.2,0,0,,,,,,,,,,,,,,,,,,,
49053,1506819742912,,,,,,,,0.02,0.05,1.0,-3.0,-0.7,-0.2,0,0,,,,,,,,,,,,,,,,,,,
49073,1506819742932,0,142.2,-0.6,168.2,0,163.3,13.27,0.02,0.05,1.0,-3.0,-0.7,-0.2,0,0,1,1,0.0,0,35.489861,-119.546089,0.0,0.0,274.6,10,3,1.8,0,0.0,-1,0.0,0.0,0.0,0
49093,1506819742952,,,,,,,,0.02,0.05,1.0,-3.0,-0.7,-0.2,0,0,,,,,,,,,,,,,,,,,,,
49113,1506819742972,,,,,,,,0.02,0.05,1.0,-3.1,-0.7,-0.2,0,0,,,,,,,,,,,,,,,,,,,
49133,1506819742992,,,,,,,,0.02,0.05,1.0,-3.1,-0.7,-0.2,0,0,,,,,,,,,,,,,,,,,,,
49153,1506819743006,,,,,,,,0.03,0.05,1.0,-3.1,-0.7,-0.2,0,0,,,,,,,,,,,,,,,,,,,
49173,1506819743026,,,,,0,,,0.02,0.05,1.0,-3.1,-0.7,-0.2,0,0,1,1,0.0,0,35.489861,-119.546089,0.0,0.0,274.6,10,3,1.8,0,0.0,-1,0.0,0.0,0.0,0
49193,1506819743046,,,,,,,,0.02,0.05,1.0,-3.1,-0.7,-0.2,0,0,,,,,,,,,,,,,,,,,,,
49213,1506819743066,,,,,,,,0.03,0.05,1.0,-3.1,-0.7,-0.2,0,0,,,,,,,,,,,,,,,,,,,
49233,1506819743086,,,,,,,,0.02,0.05,1.0,-3.1,-0.7,-0.2,0,0,,,,,,,,,,,,,,,,,,,
49253,1506819743110,,,,,,,,0.02,0.05,1.0,-3.1,-0.7,-0.2,0,0,,,,,,,,,,,,,,,,,,,
49273,1506819743130,0,142.9,,168.7,0,163.6,,0.02,0.05,1.0,-3.1,-0.7,-0.2,0,0,1,1,0.0,0,35.489861,-119.546089,0.0,0.0,274.6,10,3,1.8,0,0.0,-1,0.0,0.0,0.0,0
49293,1506819743150,,,,,,,,0.03,0.05,1.0,-3.1,-0.7,-0.2,0,0,,,,,,,,,,,,,,,,,,,
49313,1506819743170,,,,,,,,0.03,0.05,1.0,-3.0,-0.7,-0.2,0,0,,,,,,,,,,,,,,,,,,,
49333,1506819743191,,,,,,,,0.02,0.05,1.0,-3.1,-0.7,-0.2,0,0,,,,,,,,,,,,,,,,,,,
49353,1506819743211,,,,,,,,0.02,0.05,1.0,-3.0,-0.7,-0.2,0,0,,,,,,,,,,,,,,,,,,,
49373,1506819743231,,,,,0,,,0.02,0.05,1.0,-3.1,-0.7,-0.1,0,0,1,1,0.0,0,35.489861,-119.546089,0.0,0.0,274.6,10,3,1.8,0,0.0,-1,0.0,0.0,0.0,0
49393,1506819743251,,,,,,,,0.02,0.05,1.0,-3.1,-0.7,-0.1,0,0,,,,,,,,,,,,,,,,,,,
49413,1506819743271,,,,,,,,0.02,0.05,1.0,-3.0,-0.7,-0.1,0,0,,,,,,,,,,,,,,,,,,,
49433,1506819743291,,,,,,,,0.02,0.05,1.0,-3.0,-0.7,-0.1,0,0,,,,,,,,,,,,,,,,,,,
49453,1506819743311,,,,,,,,0.02,0.05,1.0,-3.0,-0.7,-0.2,0,0,,,,,,,,,,,,,,,,,,,
49473,1506819743331,0,142.8,,168.5,0,163.5,,0.02,0.05,1.0,-3.1,-0.7,-0.2,0,0,1,1,0.0,0,35.489861,-119.546089,0.0,0.0,274.6,10,3,1.8,0,0.0,-1,0.0,0.0,0.0,0
49493,1506819743351,,,,,,,,0.02,0.05,1.0,-3.1,-0.7,-0.2,0,0,,,,,,,,,,,,,,,,,,,
49513,1506819743371,,,,,,,,0.02,0.05,1.0,-3.1,-0.6,-0.2,0,0,,,,,,,,,,,,,,,,,,,
49533,1506819743391,,,,,,,,0.02,0.05,1.0,-3.1,-0.7,-0.2,0,0,,,,,,,,,,,,,,,,,,,
49553,1506819743411,,,,,,,,0.03,0.05,1.0,-3.1,-0.7,-0.2,0,0,,,,,,,,,,,,,,,,,,,
49573,1506819743431,,,,,0,,,0.03,0.05,1.0,-3.1,-0.7,-0.2,0,0,1,1,0.0,0,35.489861,-119.546089,0.0,0.0,274.6,10,3,1.8,0,0.0,-1,0.0,0.0,0.0,0
49593,1506819743451,,,,,,,,0.03,0.05,1.0,-3.1,-0.7,-0.2,0,0,,,,,,,,,,,,,,,,,,,
49613,1506819743471,,,,,,,,0.02,0.05,1.0,-3.1,-0.7,-0.2,0,0,,,,,,,,,,,,,,,,,,,
49633,1506819743493,,,,,,,,0.03,0.05,1.0,-3.1,-0.7,-0.2,0,0,,,,,,,,,,,,,,,,,,,
49653,1506819743513,,,,,,,,0.03,0.05,1.0,-3.1,-0.7,-0.2,0,0,,,,,,,,,,,,,,,,,,,
49673,1506819743533,0,143.0,,168.8,0,163.5,,0.03,0.05,1.0,-3.1,-0.7,-0.2,0,0,1,1,0.0,0,35.489861,-119.546089,0.0,0.0,274.6,10,3,1.8,0,0.0,-1,0.0,0.0,0.0,0
49693,1506819743553,,,,,,,,0.02,0.05,1.0,-3.1,-0.7,-0.2,0,0,,,,,,,,,,,,,,,,,,,
49713,1506819743573,,,,,,,,0.02,0.05,1.0,-3.1,-0.7,-0.2,0,0,,,,,,,,,,,,,,,,,,,
49733,1506819743593,,,,,,,,0.02,0.05,1.0,-3.1,-0.7,-0.2,0,0,,,,,,,,,,,,,,,,,,,
49753,1506819743613,,,,,,,,0.02,0.05,1.0,-3.1,-0.7,-0.2,0,0,,,,,,,,,,,,,,,,,,,
49773,1506819743633,,,,,0,,,0.02,0.05,1.0,-3.1,-0.7,-0.2,0,0,1,1,0.0,0,35.489861,-119.546089,0.0,0.0,274.6,10,3,1.8,0,0.0,-1,0.0,0.0,0.0,0
49793,1506819743653,,,,,,,,0.02,0.05,1.0,-3.1,-0.7,-0.2,0,0,,,,,,,,,,,,,,,,,,,
49813,1506819743673,,,,,,,,0.02,0.05,1.0,-3.1,-0.6,-0.2,0,0,,,,,,,,,,,,,,,,,,,
49833,1506819743693,,,,,,,,0.02,0.05,1.0,-3.1,-0.6,-0.2,0,0,,,,,,,,,,,,,,,,,,,
49853,1506819743707,,,,,,,,0.02,0.05,1.0,-3.1,-0.6,-0.1,0,0,,,,,,,,,,,,,,,,,,,
49873,1506819743727,0,142.9,,168.8,0,163.5,,0.02,0.05,1.0,-3.1,-0.6,-0.1,0,0,1,1,0.0,0,35.489861,-119.546089,0.0,0.0,274.6,10,3,1.8,0,0.0,-1,0.0,0.0,0.0,0
49893,1506819743747,,,,,,,,0.02,0.05,1.0,-3.1,-0.6,-0.1,0,0,,,,,,,,,,,,,,,,,,,
49913,1506819743767,,,,,,,,0.02,0.05,1.0,-3.1,-0.7,-0.1,0,0,,,,,,,,,,,,,,,,,,,
49933,1506819743793,,,,,,,,0.02,0.05,1.0,-3.1,-0.7,-0.1,0,0,,,,,,,,,,,,,,,,,,,
49953,1506819743813,,,,,,,,0.02,0.05,1.0,-3.1,-0.7,-0.1,0,0,,,,,,,,,,,,,,,,,,,
49973,1506819743833,,,,,0,,,0.02,0.05,1.0,-3.1,-0.7,-0.1,0,0,1,1,0.0,0,35.489861,-119.546089,0.0,0.0,274.6,10,3,1.8,0,0.0,-1,0.0,0.0,0.0,0
49993,1506819743853,,,,,,,,0.02,0.05,1.0,-3.0,-0.7,-0.1,0,0,,,,,,,,,,,,,,,,,,,
50013,1506819743873,,,,,,,,0.02,0.05,1.0,-3.0,-0.7,-0.1,0,0,,,,,,,,,,,,,,,,,,,
50033,1506819743893,,,,,,,,0.02,0.05,1.0,-3.0,-0.7,-0.1,0,0,,,,,,,,,,,,,,,,,,,
50053,1506819743913,,,,,,,,0.02,0.05,1.0,-3.0,-0.7,-0.1,0,0,,,,,,,,,,,,,,,,,,,
50073,1506819743933,0,142.9,-0.6,168.8,0,163.4,13.26,0.02,0.05,1.0,-3.0,-0.7,-0.1,0,0,1,1,0.0,0,35.489861,-119.546089,0.0,0.0,274.6,10,3,1.8,0,0.0,-1,0.0,0.0,0.0,0
50093,1506819743953,,,,,,,,0.02,0.05,1.0,-3.0,-0.7,-0.1,0,0,,,,,,,,,,,,,,,,,,,
50113,1506819743973,,,,,,,,0.02,0.05,1.0,-3.0,-0.7,-0.1,0,0,,,,,,,,,,,,,,,,,,,
50133,1506819743993,,,,,,,,0.02,0.05,1.0,-3.0,-0.7,-0.1,0,0,,,,,,,,,,,,,,,,,,,
50153,1506819744007,,,,,,,,0.02,0.05,1.0,-3.0,-0.7,-0.1,0,0,,,,,,,,,,,,,,,,,,,
50173,1506819744027,,,,,0,,,0.02,0.05,1.0,-3.0,-0.7,-0.1,0,0,1,1,0.0,0,35.489861,-119.546089,0.0,0.0,274.6,10,3,1.8,0,0.0,-1,0.0,0.0,0.0,0
50193,1506819744047,,,,,,,,0.02,0.05,1.0,-3.0,-0.7,-0.1,0,0,,,,,,,,,,,,,,,,,,,
50213,1506819744067,,,,,,,,0.02,0.05,1.0,-3.0,-0.7,-0.2,0,0,,,,,,,,,,,,,,,,,,,
50233,1506819744093,,,,,,,,0.02,0.05,1.0,-3.0,-0.7,-0.1,0,0,,,,,,,,,,,,,,,,,,,
50253,1506819744113,,,,,,,,0.02,0.05,1.0,-3.0,-0.7,-0.1,0,0,,,,,,,,,,,,,,,,,,,
50273,1506819744133,0,142.9,,168.7,0,163.4,,0.02,0.05,1.0,-3.0,-0.7,-0.1,0,0,1,1,0.0,0,35.489861,-119.546089,0.0,0.0,274.6,10,3,1.8,0,0.0,-1,0.0,0.0,0.0,0
50293,1506819744153,,,,,,,,0.02,0.05,1.0,-3.1,-0.7,-0.1,0,0,,,,,,,,,,,,,,,,,,,
50313,1506819744173,,,,,,,,0.02,0.05,1.0,-3.1,-0.7,-0.1,0,0,,,,,,,,,,,,,,,,,,,
50333,1506819744192,,,,,,,,0.02,0.05,1.0,-3.1,-0.6,-0.1,0,0,,,,,,,,,,,,,,,,,,,
50353,1506819744212,,,,,,,,0.02,0.05,1.0,-3.1,-0.6,-0.1,0,0,,,,,,,,,,,,,,,,,,,
50373,1506819744232,,,,,0,,,0.02,0.05,1.0,-3.0,-0.6,-0.1,0,0,1,1,0.0,0,35.489861,-119.546089,0.0,0.0,274.6,10,3,1.8,0,0.0,-1,0.0,0.0,0.0,0
50393,1506819744252,,,,,,,,0.02,0.05,1.0,-3.1,-0.6,-0.1,0,0,,,,,,,,,,,,,,,,,,,
50413,1506819744272,,,,,,,,0.02,0.05,1.0,-3.0,-0.7,-0.1,0,0,,,,,,,,,,,,,,,,,,,
50433,1506819744292,,,,,,,,0.02,0.05,1.0,-3.1,-0.7,-0.1,0,0,,,,,,,,,,,,,,,,,,,
50453,1506819744312,,,,,,,,0.02,0.05,1.0,-3.1,-0.7,-0.1,0,0,,,,,,,,,,,,,,,,,,,
50473,1506819744332,0,142.5,,168.0,0,163.0,,0.02,0.05,1.0,-3.1,-0.7,-0.1,0,0,1,1,0.0,0,35.489861,-119.546089,0.0,0.0,274.6,10,3,1.8,0,0.0,-1,0.0,0.0,0.0,0
50493,1506819744352,,,,,,,,0.03,0.05,1.0,-3.1,-0.7,-0.1,0,0,,,,,,,,,,,,,,,,,,,
50513,1506819744372,,,,,,,,0.02,0.05,1.0,-3.1,-0.6,-0.1,0,0,,,,,,,,,,,,,,,,,,,
50533,1506819744392,,,,,,,,0.02,0.05,1.0,-3.1,-0.7,-0.1,0,0,,,,,,,,,,,,,,,,,,,
50553,1506819744412,,,,,,,,0.02,0.05,1.0,-3.1,-0.7,-0.1,0,0,,,,,,,,,,,,,,,,,,,
50573,1506819744432,,,,,0,,,0.02,0.05,1.0,-3.1,-0.7,-0.1,0,0,1,1,0.0,0,35.489861,-119.546089,0.0,0.0,274.6,10,3,1.8,0,0.0,-1,0.0,0.0,0.0,0
50593,1506819744452,,,,,,,,0.02,0.05,1.0,-3.1,-0.7,-0.1,0,0,,,,,,,,,,,,,,,,,,,
50613,1506819744472,,,,,,,,0.02,0.05,1.0,-3.1,-0.7,-0.1,0,0,,,,,,,,,,,,,,,,,,,
50633,1506819744492,,,,,,,,0.02,0.05,1.0,-3.0,-0.7,-0.1,0,0,,,,,,,,,,,,,,,,,,,
50653,1506819744512,,,,,,,,0.02,0.05,1.0,-3.0,-0.7,-0.1,0,0,,,,,,,,,,,,,,,,,,,
50673,1506819744532,0,142.3,,168.5,0,163.4,,0.02,0.05,1.0,-3.0,-0.7,-0.1,0,0,1,1,0.0,0,35.489861,-119.546089,0.0,0.0,274.6,10,3,1.8,0,0.0,-1,0.0,0.0,0.0,0
50693,1506819744552,,,,,,,,0.02,0.05,1.0,-3.0,-0.7,-0.1,0,0,,,,,,,,,,,,,,,,,,,
50713,1506819744572,,,,,,,,0.02,0.05,1.0,-3.0,-0.7,-0.1,0,0,,,,,,,,,,,,,,,,,,,
50733,1506819744592,,,,,,,,0.02,0.05,1.0,-3.0,-0.7,-0.1,0,0,,,,,,,,,,,,,,,,,,,
50753,1506819744612,,,,,,,,0.02,0.05,1.0,-3.0,-0.7,-0.2,0,0,,,,,,,,,,,,,,,,,,,
50773,1506819744632,,,,,0,,,0.02,0.05,1.0,-3.0,-0.7,-0.1,0,0,1,1,0.0,0,35.489861,-119.546089,0.0,0.0,274.6,10,3,1.8,0,0.0,-1,0.0,0.0,0.0,0
50793,1506819744652,,,,,,,,0.02,0.05,1.0,-3.0,-0.7,-0.1,0,0,,,,,,,,,,,,,,,,,,,
50813,1506819744672,,,,,,,,0.02,0.05,1.0,-3.0,-0.7,-0.1,0,0,,,,,,,,,,,,,,,,,,,
50833,1506819744692,,,,,,,,0.02,0.05,1.0,-3.0,-0.7,-0.2,0,0,,,,,,,,,,,,,,,,,,,
50853,1506819744712,,,,,,,,0.02,0.05,1.0,-3.0,-0.7,-0.2,0,0,,,,,,,,,,,,,,,,,,,
50873,1506819744732,0,142.1,,168.1,0,163.0,,0.02,0.05,1.0,-3.0,-0.7,-0.2,0,0,1,1,0.0,0,35.489861,-119.546089,0.0,0.0,274.6,10,3,1.8,0,0.0,-1,0.0,0.0,0.0,0
50893,1506819744752,,,,,,,,0.03,0.05,1.0,-3.0,-0.7,-0.2,0,0,,,,,,,,,,,,,,,,,,,
50913,1506819744772,,,,,,,,0.02,0.05,1.0,-3.0,-0.7,-0.2,0,0,,,,,,,,,,,,,,,,,,,
50933,1506819744792,,,,,,,,0.02,0.05,1.0,-3.0,-0.7,-0.2,0,0,,,,,,,,,,,,,,,,,,,
50953,1506819744812,,,,,,,,0.02,0.05,1.0,-3.0,-0.7,-0.2,0,0,,,,,,,,,,,,,,,,,,,
50973,1506819744832,,,,,0,,,0.02,0.05,1.0,-3.0,-0.7,-0.2,0,0,1,1,0.0,0,35.489861,-119.546089,0.0,0.0,274.6,10,3,1.8,0,0.0,-1,0.0,0.0,0.0,0
50993,1506819744852,,,,,,,,0.02,0.05,1.0,-3.0,-0.7,-0.2,0,0,,,,,,,,,,,,,,,,,,,
51013,1506819744872,,,,,,,,0.02,0.05,1.0,-3.1,-0.7,-0.2,0,0,,,,,,,,,,,,,,,,,,,
51033,1506819744892,,,,,,,,0.03,0.05,1.0,-3.1,-0.7,-0.2,0,0,,,,,,,,,,,,,,,,,,,
51053,1506819744912,,,,,,,,0.02,0.05,1.0,-3.1,-0.7,-0.2,0,0,,,,,,,,,,,,,,,,,,,
51073,1506819744932,0,143.1,-0.6,168.8,0,163.5,13.27,0.02,0.05,1.0,-3.1,-0.7,-0.2,0,0,1,1,0.0,0,35.489861,-119.546089,0.0,0.0,274.6,10,3,1.8,0,0.0,-1,0.0,0.0,0.0,0
51093,1506819744952,,,,,,,,0.02,0.05,1.0,-3.1,-0.7,-0.2,0,0,,,,,,,,,,,,,,,,,,,
51113,1506819744972,,,,,,,,0.02,0.05,1.0,-3.1,-0.7,-0.2,0,0,,,,,,,,,,,,,,,,,,,
51133,1506819744992,,,,,,,,0.02,0.05,1.0,-3.1,-0.6,-0.2,0,0,,,,,,,,,,,,,,,,,,,
51153,1506819745008,,,,,,,,0.02,0.05,1.0,-3.1,-0.6,-0.2,0,0,,,,,,,,,,,,,,,,,,,
51173,1506819745028,,,,,0,,,0.02,0.05,1.0,-3.1,-0.6,-0.2,0,0,1,1,0.0,0,35.489861,-119.546089,0.0,0.0,274.6,10,3,1.8,0,0.0,-1,0.0,0.0,0.0,0
51193,1506819745048,,,,,,,,0.03,0.05,1.0,-3.0,-0.6,-0.2,0,0,,,,,,,,,,,,,,,,,,,
51213,1506819745068,,,,,,,,0.02,0.05,1.0,-3.1,-0.7,-0.1,0,0,,,,,,,,,,,,,,,,,,,
51233,1506819745092,,,,,,,,0.03,0.05,1.0,-3.0,-0.6,-0.1,0,0,,,,,,,,,,,,,,,,,,,
51253,1506819745112,,,,,,,,0.02,0.05,1.0,-3.0,-0.6,-0.1,0,0,,,,,,,,,,,,,,,,,,,
51273,1506819745132,0,142.9,,168.7,0,163.6,,0.03,0.05,1.0,-3.0,-0.6,-0.2,0,0,1,1,0.0,0,35.489861,-119.546089,0.0,0.0,274.6,10,3,1.8,0,0.0,-1,0.0,0.0,0.0,0
51293,1506819745152,,,,,,,,0.03,0.05,1.0,-3.0,-0.6,-0.2,0,0,,,,,,,,,,,,,,,,,,,
51313,1506819745172,,,,,,,,0.03,0.05,1.0,-3.0,-0.6,-0.2,0,0,,,,,,,,,,,,,,,,,,,
51333,1506819745191,,,,,,,,0.02,0.05,1.0,-3.0,-0.6,-0.2,0,0,,,,,,,,,,,,,,,,,,,
51353,1506819745211,,,,,,,,0.02,0.05,1.0,-3.0,-0.6,-0.2,0,0,,,,,,,,,,,,,,,,,,,
51373,1506819745231,,,,,0,,,0.02,0.05,1.0,-3.0,-0.6,-0.2,0,0,1,1,0.0,0,35.489861,-119.546089,0.0,0.0,274.6,10,3,1.8,0,0.0,-1,0.0,0.0,0.0,0
51393,1506819745251,,,,,,,,0.02,0.05,1.0,-3.0,-0.6,-0.2,0,0,,,,,,,,,,,,,,,,,,,
51413,1506819745271,,,,,,,,0.02,0.05,1.0,-3.0,-0.6,-0.2,0,0,,,,,,,,,,,,,,,,,,,
51433,1506819745293,,,,,,,,0.02,0.05,1.0,-3.0,-0.6,-0.2,0,0,,,,,,,,,,,,,,,,,,,
51453,1506819745313,,,,,,,,0.03,0.05,1.0,-3.0,-0.6,-0.2,0,0,,,,,,,,,,,,,,,,,,,
51473,1506819745333,0,142.2,,168.2,0,163.3,,0.03,0.05,1.0,-3.0,-0.7,-0.1,0,0,1,1,0.0,0,35.489861,-119.546089,0.0,0.0,274.6,10,3,1.8,0,0.0,-1,0.0,0.0,0.0,0
51493,1506819745353,,,,,,,,0.03,0.05,1.0,-3.0,-0.6,-0.2,0,0,,,,,,,,,,,,,,,,,,,
51513,1506819745373,,,,,,,,0.03,0.05,1.0,-3.0,-0.7,-0.2,0,0,,,,,,,,,,,,,,,,,,,
51533,1506819745391,,,,,,,,0.02,0.05,1.0,-3.0,-0.7,-0.2,0,0,,,,,,,,,,,,,,,,,,,
51553,1506819745411,,,,,,,,0.03,0.05,1.0,-3.0,-0.7,-0.2,0,0,,,,,,,,,,,,,,,,,,,
51573,1506819745431,,,,,0,,,0.02,0.05,1.0,-3.0,-0.7,-0.2,0,0,1,1,0.0,0,35.489861,-119.546089,0.0,0.0,274.6,10,3,1.8,0,0.0,-1,0.0,0.0,0.0,0
51593,1506819745451,,,,,,,,0.02,0.05,1.0,-3.0,-0.6,-0.1,0,0,,,,,,,,,,,,,,,,,,,
51613,1506819745471,,,,,,,,0.02,0.05,1.0,-3.0,-0.7,-0.1,0,0,,,,,,,,,,,,,,,,,,,
51633,1506819745493,,,,,,,,0.02,0.05,1.0,-3.0,-0.6,-0.1,0,0,,,,,,,,,,,,,,,,,,,
51653,1506819745513,,,,,,,,0.03,0.05,1.0,-3.0,-0.6,-0.2,0,0,,,,,,,,,,,,,,,,,,,
51673,1506819745533,0,142.3,,168.0,0,163.0,,0.02,0.05,1.0,-3.0,-0.6,-0.2,0,0,1,1,0.0,0,35.489861,-119.546089,0.0,0.0,274.6,10,3,1.8,0,0.0,-1,0.0,0.0,0.0,0
51693,1506819745553,,,,,,,,0.02,0.05,1.0,-3.0,-0.6,-0.2,0,0,,,,,,,,,,,,,,,,,,,
51713,1506819745573,,,,,,,,0.02,0.05,1.0,-3.0,-0.6,-0.2,0,0,,,,,,,,,,,,,,,,,,,
51733,1506819745593,,,,,,,,0.02,0.05,1.0,-3.0,-0.6,-0.2,0,0,,,,,,,,,,,,,,,,,,,
51753,1506819745613,,,,,,,,0.02,0.05,1.0,-3.1,-0.6,-0.1,0,0,,,,,,,,,,,,,,,,,,,
51773,1506819745633,,,,,0,,,0.02,0.05,1.0,-3.0,-0.6,-0.1,0,0,1,1,0.0,0,35.489861,-119.546089,0.0,0.0,274.6,10,3,1.8,0,0.0,-1,0.0,0.0,0.0,0
51793,1506819745653,,,,,,,,0.02,0.05,1.0,-3.0,-0.6,-0.1,0,0,,,,,,,,,,,,,,,,,,,
51813,1506819745673,,,,,,,,0.02,0.05,1.0,-3.0,-0.6,-0.1,0,0,,,,,,,,,,,,,,,,,,,
51833,1506819745693,,,,,,,,0.02,0.05,1.0,-3.0,-0.6,-0.1,0,0,,,,,,,,,,,,,,,,,,,
51853,1506819745709,,,,,,,,0.02,0.05,1.0,-3.0,-0.7,-0.1,0,0,,,,,,,,,,,,,,,,,,,
51873,1506819745729,0,143.0,,168.7,0,163.1,,0.02,0.05,1.0,-3.0,-0.6,-0.1,0,0,1,1,0.0,0,35.489861,-119.546089,0.0,0.0,274.6,10,3,1.8,0,0.0,-1,0.0,0.0,0.0,0
51893,1506819745749,,,,,,,,0.02,0.05,1.0,-3.0,-0.7,-0.1,0,0,,,,,,,,,,,,,,,,,,,
51913,1506819745769,,,,,,,,0.02,0.05,1.0,-3.0,-0.7,-0.1,0,0,,,,,,,,,,,,,,,,,,,
51933,1506819745793,,,,,,,,0.02,0.05,1.0,-3.0,-0.7,-0.1,0,0,,,,,,,,,,,,,,,,,,,
51953,1506819745813,,,,,,,,0.03,0.05,1.0,-3.0,-0.7,-0.1,0,0,,,,,,,,,,,,,,,,,,,
51973,1506819745833,,,,,0,,,0.02,0.05,1.0,-3.0,-0.7,-0.1,0,0,1,1,0.0,0,35.489861,-119.546089,0.0,0.0,274.6,10,3,1.8,0,0.0,-1,0.0,0.0,0.0,0
51993,1506819745853,,,,,,,,0.02,0.05,1.0,-3.0,-0.6,-0.1,0,0,,,,,,,,,,,,,,,,,,,
52013,1506819745873,,,,,,,,0.03,0.05,1.0,-3.0,-0.7,-0.1,0,0,,,,,,,,,,,,,,,,,,,
52033,1506819745893,,,,,,,,0.03,0.05,1.0,-3.0,-0.6,-0.1,0,0,,,,,,,,,,,,,,,,,,,
52053,1506819745913,,,,,,,,0.03,0.05,1.0,-3.0,-0.6,-0.1,0,0,,,,,,,,,,,,,,,,,,,
52073,1506819745933,0,143.1,-0.6,168.7,0,163.3,13.26,0.03,0.05,1.0,-3.0,-0.7,-0.1,0,0,1,1,0.0,0,35.489861,-119.546089,0.0,0.0,274.6,10,3,1.8,0,0.0,-1,0.0,0.0,0.0,0
52093,1506819745953,,,,,,,,0.03,0.05,1.0,-3.0,-0.7,-0.1,0,0,,,,,,,,,,,,,,,,,,,
52113,1506819745973,,,,,,,,0.03,0.05,1.0,-3.0,-0.7,-0.1,0,0,,,,,,,,,,,,,,,,,,,
52133,1506819745993,,,,,,,,0.03,0.05,1.0,-3.0,-0.7,-0.2,0,0,,,,,,,,,,,,,,,,,,,
52153,1506819746007,,,,,,,,0.03,0.05,1.0,-3.0,-0.7,-0.2,0,0,,,,,,,,,,,,,,,,,,,
52173,1506819746027,,,,,0,,,0.02,0.05,1.0,-3.0,-0.6,-0.2,0,0,1,1,0.0,0,35.489861,-119.546089,0.0,0.0,274.6,10,3,1.8,0,0.0,-1,0.0,0.0,0.0,0
52193,1506819746047,,,,,,,,0.03,0.05,1.0,-3.0,-0.6,-0.2,0,0,,,,,,,,,,,,,,,,,,,
52213,1506819746067,,,,,,,,0.03,0.05,1.0,-3.0,-0.6,-0.1,0,0,,,,,,,,,,,,,,,,,,,
52233,1506819746093,,,,,,,,0.03,0.05,1.0,-3.0,-0.6,-0.2,0,0,,,,,,,,,,,,,,,,,,,
52253,1506819746113,,,,,,,,0.03,0.05,1.0,-3.0,-0.6,-0.2,0,0,,,,,,,,,,,,,,,,,,,
52273,1506819746133,0,143.0,,168.8,0,163.6,,0.03,0.05,1.0,-3.0,-0.6,-0.1,0,0,1,1,0.0,0,35.489861,-119.546089,0.0,0.0,274.6,10,3,1.8,0,0.0,-1,0.0,0.0,0.0,0
52293,1506819746153,,,,,,,,0.03,0.05,1.0,-3.0,-0.7,-0.1,0,0,,,,,,,,,,,,,,,,,,,
52313,1506819746173,,,,,,,,0.02,0.05,1.0,-3.0,-0.7,-0.2,0,0,,,,,,,,,,,,,,,,,,,
52333,1506819746193,,,,,,,,0.02,0.05,1.0,-3.0,-0.6,-0.2,0,0,,,,,,,,,,,,,,,,,,,
52353,1506819746210,,,,,,,,0.02,0.05,1.0,-3.0,-0.6,-0.2,0,0,,,,,,,,,,,,,,,,,,,
52373,1506819746230,,,,,0,,,0.02,0.05,1.0,-3.0,-0.6,-0.2,0,0,1,1,0.0,0,35.489861,-119.546089,0.0,0.0,274.6,10,3,1.8,0,0.0,-1,0.0,0.0,0.0,0
52393,1506819746250,,,,,,,,0.02,0.05,1.0,-3.0,-0.7,-0.1,0,0,,,,,,,,,,,,,,,,,,,
52413,1506819746270,,,,,,,,0.02,0.05,1.0,-3.0,-0.7,-0.1,0,0,,,,,,,,,,,,,,,,,,,
52433,1506819746292,,,,,,,,0.02,0.05,1.0,-3.0,-0.7,-0.1,0,0,,,,,,,,,,,,,,,,,,,
52453,1506819746312,,,,,,,,0.03,0.05,1.0,-3.0,-0.7,-0.1,0,0,,,,,,,,,,,,,,,,,,,
52473,1506819746332,0,143.1,,168.7,0,163.4,,0.03,0.05,1.0,-3.0,-0.7,-0.1,0,0,1,1,0.0,0,35.489861,-119.546089,0.0,0.0,274.6,10,3,1.8,0,0.0,-1,0.0,0.0,0.0,0
52493,1506819746352,,,,,,,,0.03,0.05,1.0,-3.0,-0.7,-0.1,0,0,,,,,,,,,,,,,,,,,,,
52513,1506819746372,,,,,,,,0.02,0.05,1.0,-3.0,-0.7,-0.1,0,0,,,,,,,,,,,,,,,,,,,
52533,1506819746392,,,,,,,,0.03,0.05,1.0,-3.0,-0.7,-0.1,0,0,,,,,,,,,,,,,,,,,,,
52553,1506819746412,,,,,,,,0.02,0.05,1.0,-3.0,-0.7,-0.1,0,0,,,,,,,,,,,,,,,,,,,
52573,1506819746432,,,,,0,,,0.02,0.05,1.0,-3.0,-0.7,-0.1,0,0,1,1,0.0,0,35.489861,-119.546089,0.0,0.0,274.6,10,3,1.8,0,0.0,-1,0.0,0.0,0.0,0
52593,1506819746452,,,,,,,,0.02,0.05,1.0,-3.0,-0.7,-0.1,0,0,,,,,,,,,,,,,,,,,,,
52613,1506819746472,,,,,,,,0.02,0.05,1.0,-3.0,-0.7,-0.1,0,0,,,,,,,,,,,,,,,,,,,
52633,1506819746492,,,,,,,,0.02,0.05,1.0,-3.0,-0.7,-0.1,0,0,,,,,,,,,,,,,,,,,,,
52653,1506819746512,,,,,,,,0.02,0.05,1.0,-3.0,-0.7,-0.1,0,0,,,,,,,,,,,,,,,,,,,
52673,1506819746532,0,142.8,,168.1,0,162.9,,0.02,0.05,1.0,-3.0,-0.7,-0.1,0,0,1,1,0.0,0,35.489861,-119.546089,0.0,0.0,274.6,10,3,1.8,0,0.0,-1,0.0,0.0,0.0,0
52693,1506819746552,,,,,,,,0.03,0.05,1.0,-3.0,-0.7,-0.1,0,0,,,,,,,,,,,,,,,,,,,
52713,1506819746572,,,,,,,,0.02,0.05,1.0,-3.0,-0.7,-0.1,0,0,,,,,,,,,,,,,,,,,,,
52733,1506819746592,,,,,,,,0.02,0.05,1.0,-3.0,-0.7,-0.1,0,0,,,,,,,,,,,,,,,,,,,
52753,1506819746612,,,,,,,,0.03,0.05,1.0,-3.0,-0.7,-0.1,0,0,,,,,,,,,,,,,,,,,,,
52773,1506819746632,,,,,0,,,0.03,0.05,1.0,-3.1,-0.7,-0.1,0,0,1,1,0.0,0,35.489861,-119.546089,0.0,0.0,274.6,10,3,1.8,0,0.0,-1,0.0,0.0,0.0,0
52793,1506819746652,,,,,,,,0.03,0.05,1.0,-3.1,-0.7,-0.1,0,0,,,,,,,,,,,,,,,,,,,
52813,1506819746672,,,,,,,,0.02,0.05,1.0,-3.1,-0.7,-0.1,0,0,,,,,,,,,,,,,,,,,,,
52833,1506819746692,,,,,,,,0.02,0.05,1.0,-3.1,-0.6,-0.1,0,0,,,,,,,,,,,,,,,,,,,
52853,1506819746712,,,,,,,,0.02,0.05,1.0,-3.1,-0.6,-0.1,0,0,,,,,,,,,,,,,,,,,,,
52873,1506819746732,0,142.8,,168.6,0,163.6,,0.02,0.05,1.0,-3.1,-0.6,-0.1,0,0,1,1,0.0,0,35.489861,-119.546089,0.0,0.0,274.6,10,3,1.8,0,0.0,-1,0.0,0.0,0.0,0
52893,1506819746752,,,,,,,,0.02,0.05,1.0,-3.1,-0.6,-0.1,0,0,,,,,,,,,,,,,,,,,,,
52913,1506819746772,,,,,,,,0.02,0.05,1.0,-3.1,-0.7,-0.1,0,0,,,,,,,,,,,,,,,,,,,
52933,1506819746792,,,,,,,,0.02,0.05,1.0,-3.0,-0.6,-0.1,0,0,,,,,,,,,,,,,,,,,,,
52953,1506819746812,,,,,,,,0.02,0.05,1.0,-3.0,-0.6,-0.1,0,0,,,,,,,,,,,,,,,,,,,
52973,1506819746832,,,,,0,,,0.02,0.05,1.0,-3.0,-0.6,-0.1,0,0,1,1,0.0,0,35.489861,-119.546089,0.0,0.0,274.6,10,3,1.8,0,0.0,-1,0.0,0.0,0.0,0
52993,1506819746852,,,,,,,,0.02,0.05,1.0,-3.1,-0.7,-0.1,0,0,,,,,,,,,,,,,,,,,,,
53013,1506819746872,,,,,,,,0.03,0.05,1.0,-3.0,-0.7,-0.1,0,0,,,,,,,,,,,,,,,,,,,
53033,1506819746892,,,,,,,,0.03,0.05,1.0,-3.0,-0.7,-0.1,0,0,,,,,,,,,,,,,,,,,,,
53053,1506819746912,,,,,,,,0.03,0.05,1.0,-3.0,-0.7,-0.1,0,0,,,,,,,,,,,,,,,,,,,
53073,1506819746932,0,143.1,-0.5,168.7,0,163.5,13.26,0.03,0.05,1.0,-3.0,-0.7,-0.1,0,0,1,1,0.0,0,35.489861,-119.546089,0.0,0.0,274.6,10,3,1.8,0,0.0,-1,0.0,0.0,0.0,0
53093,1506819746952,,,,,,,,0.03,0.05,1.0,-3.0,-0.7,-0.1,0,0,,,,,,,,,,,,,,,,,,,
53113,1506819746972,,,,,,,,0.03,0.05,1.0,-3.1,-0.6,-0.1,0,0,,,,,,,,,,,,,,,,,,,
53133,1506819746992,,,,,,,,0.03,0.05,1.0,-3.0,-0.7,-0.1,0,0,,,,,,,,,,,,,,,,,,,
53153,1506819747008,,,,,,,,0.03,0.05,1.0,-3.0,-0.7,-0.1,0,0,,,,,,,,,,,,,,,,,,,
53173,1506819747028,,,,,0,,,0.03,0.05,1.0,-3.0,-0.6,-0.1,0,0,1,1,0.0,0,35.489861,-119.546089,0.0,0.0,274.6,10,3,1.8,0,0.0,-1,0.0,0.0,0.0,0
53193,1506819747048,,,,,,,,0.03,0.05,1.0,-3.0,-0.6,-0.1,0,0,,,,,,,,,,,,,,,,,,,
53213,1506819747068,,,,,,,,0.03,0.05,1.0,-3.0,-0.6,-0.1,0,0,,,,,,,,,,,,,,,,,,,
53233,1506819747092,,,,,,,,0.03,0.05,1.0,-3.0,-0.6,-0.1,0,0,,,,,,,,,,,,,,,,,,,
53253,1506819747112,,,,,,,,0.03,0.05,1.0,-3.0,-0.6,-0.1,0,0,,,,,,,,,,,,,,,,,,,
53273,1506819747132,0,142.4,,168.0,0,163.1,,0.02,0.05,1.0,-3.0,-0.7,-0.1,0,0,1,1,0.0,0,35.489861,-119.546089,0.0,0.0,274.6,10,3,1.8,0,0.0,-1,0.0,0.0,0.0,0
53293,1506819747152,,,,,,,,0.02,0.05,1.0,-3.0,-0.7,-0.1,0,0,,,,,,,,,,,,,,,,,,,
53313,1506819747172,,,,,,,,0.03,0.05,1.0,-3.0,-0.7,-0.1,0,0,,,,,,,,,,,,,,,,,,,
53333,1506819747191,,,,,,,,0.02,0.05,1.0,-3.0,-0.7,-0.1,0,0,,,,,,,,,,,,,,,,,,,
53353,1506819747211,,,,,,,,0.02,0.05,1.0,-3.0,-0.7,-0.1,0,0,,,,,,,,,,,,,,,,,,,
53373,1506819747231,,,,,0,,,0.02,0.05,1.0,-3.0,-0.7,-0.1,0,0,1,1,0.0,0,35.489861,-119.546089,0.0,0.0,274.6,10,3,1.8,0,0.0,-1,0.0,0.0,0.0,0
53393,1506819747251,,,,,,,,0.02,0.05,1.0,-3.0,-0.7,-0.1,0,0,,,,,,,,,,,,,,,,,,,
53413,1506819747271,,,,,,,,0.02,0.05,1.0,-3.0,-0.7,-0.1,0,0,,,,,,,,,,,,,,,,,,,
53433,1506819747291,,,,,,,,0.02,0.05,1.0,-3.0,-0.7,-0.1,0,0,,,,,,,,,,,,,,,,,,,
53453,1506819747311,,,,,,,,0.02,0.05,1.0,-3.0,-0.7,-0.1,0,0,,,,,,,,,,,,,,,,,,,
53473,1506819747331,0,143.0,,168.8,0,163.5,,0.03,0.05,1.0,-3.0,-0.7,-0.1,0,0,1,1,0.0,0,35.489861,-119.546089,0.0,0.0,274.6,10,3,1.8,0,0.0,-1,0.0,0.0,0.0,0
53493,1506819747351,,,,,,,,0.03,0.05,1.0,-3.0,-0.7,-0.2,0,0,,,,,,,,,,,,,,,,,,,
53513,1506819747371,,,,,,,,0.03,0.05,1.0,-3.0,-0.7,-0.1,0,0,,,,,,,,,,,,,,,,,,,
53533,1506819747391,,,,,,,,0.03,0.05,1.0,-3.0,-0.7,-0.1,0,0,,,,,,,,,,,,,,,,,,,
53553,1506819747411,,,,,,,,0.03,0.05,1.0,-3.0,-0.7,-0.1,0,0,,,,,,,,,,,,,,,,,,,
53573,1506819747431,,,,,0,,,0.03,0.05,1.0,-3.0,-0.7,-0.1,0,0,1,1,0.0,0,35.489861,-119.546089,0.0,0.0,274.6,10,3,1.8,0,0.0,-1,0.0,0.0,0.0,0
53593,1506819747451,,,,,,,,0.03,0.05,1.0,-3.0,-0.7,-0.1,0,0,,,,,,,,,,,,,,,,,,,
53613,1506819747471,,,,,,,,0.02,0.05,1.0,-3.0,-0.7,-0.2,0,0,,,,,,,,,,,,,,,,,,,
53633,1506819747493,,,,,,,,0.03,0.05,1.0,-3.0,-0.7,-0.2,0,0,,,,,,,,,,,,,,,,,,,
53653,1506819747513,,,,,,,,0.02,0.05,1.0,-3.0,-0.7,-0.2,0,0,,,,,,,,,,,,,,,,,,,
53673,1506819747533,0,143.0,,168.6,0,162.9,,0.02,0.05,1.0,-3.1,-0.7,-0.1,0,0,1,1,0.0,0,35.489861,-119.546089,0.0,0.0,274.6,10,3,1.8,0,0.0,-1,0.0,0.0,0.0,0
53693,1506819747553,,,,,,,,0.03,0.05,1.0,-3.0,-0.7,-0.1,0,0,,,,,,,,,,,,,,,,,,,
53713,1506819747573,,,,,,,,0.03,0.05,1.0,-3.0,-0.7,-0.1,0,0,,,,,,,,,,,,,,,,,,,
53733,1506819747593,,,,,,,,0.03,0.05,1.0,-3.0,-0.7,-0.1,0,0,,,,,,,,,,,,,,,,,,,
53753,1506819747613,,,,,,,,0.03,0.05,1.0,-3.1,-0.7,-0.2,0,0,,,,,,,,,,,,,,,,,,,
53773,1506819747633,,,,,0,,,0.03,0.05,1.0,-3.1,-0.7,-0.2,0,0,1,1,0.0,0,35.489861,-119.546089,0.0,0.0,274.6,10,3,1.8,0,0.0,-1,0.0,0.0,0.0,0
53793,1506819747653,,,,,,,,0.02,0.05,1.0,-3.1,-0.7,-0.2,0,0,,,,,,,,,,,,,,,,,,,
53813,1506819747673,,,,,,,,0.03,0.05,1.0,-3.1,-0.7,-0.2,0,0,,,,,,,,,,,,,,,,,,,
53833,1506819747693,,,,,,,,0.02,0.05,1.0,-3.1,-0.7,-0.2,0,0,,,,,,,,,,,,,,,,,,,
53853,1506819747713,,,,,,,,0.03,0.05,1.0,-3.1,-0.7,-0.2,0,0,,,,,,,,,,,,,,,,,,,
53873,1506819747733,0,143.0,,168.5,0,162.8,,0.03,0.05,1.0,-3.1,-0.7,-0.2,0,0,1,1,0.0,0,35.489861,-119.546089,0.0,0.0,274.6,10,3,1.8,0,0.0,-1,0.0,0.0,0.0,0
53893,1506819747753,,,,,,,,0.03,0.05,1.0,-3.0,-0.7,-0.2,0,0,,,,,,,,,,,,,,,,,,,
53913,1506819747773,,,,,,,,0.02,0.05,1.0,-3.0,-0.7,-0.2,0,0,,,,,,,,,,,,,,,,,,,
53933,1506819747793,,,,,,,,0.02,0.05,1.0,-3.0,-0.7,-0.2,0,0,,,,,,,,,,,,,,,,,,,
53953,1506819747813,,,,,,,,0.02,0.05,1.0,-3.0,-0.7,-0.2,0,0,,,,,,,,,,,,,,,,,,,
53973,1506819747833,,,,,0,,,0.03,0.05,1.0,-3.0,-0.7,-0.1,0,0,1,1,0.0,0,35.489861,-119.546089,0.0,0.0,274.6,10,3,1.8,0,0.0,-1,0.0,0.0,0.0,0
53993,1506819747853,,,,,,,,0.03,0.05,1.0,-3.0,-0.7,-0.1,0,0,,,,,,,,,,,,,,,,,,,
54013,1506819747873,,,,,,,,0.03,0.05,1.0,-3.1,-0.7,-0.1,0,0,,,,,,,,,,,,,,,,,,,
54033,1506819747893,,,,,,,,0.03,0.05,1.0,-3.0,-0.7,-0.1,0,0,,,,,,,,,,,,,,,,,,,
54053,1506819747913,,,,,,,,0.03,0.05,1.0,-3.0,-0.7,-0.1,0,0,,,,,,,,,,,,,,,,,,,
54073,1506819747933,0,143.1,-0.6,168.7,0,163.5,13.27,0.03,0.05,1.0,-3.0,-0.7,-0.1,0,0,1,1,0.0,0,35.489861,-119.546089,0.0,0.0,274.6,10,3,1.8,0,0.0,-1,0.0,0.0,0.0,0
54093,1506819747953,,,,,,,,0.03,0.05,1.0,-3.0,-0.7,-0.1,0,0,,,,,,,,,,,,,,,,,,,
54113,1506819747973,,,,,,,,0.03,0.05,1.0,-3.0,-0.7,-0.1,0,0,,,,,,,,,,,,,,,,,,,
54133,1506819747993,,,,,,,,0.03,0.05,1.0,-3.0,-0.7,-0.1,0,0,,,,,,,,,,,,,,,,,,,
54153,1506819748007,,,,,,,,0.03,0.05,1.0,-3.0,-0.7,-0.1,0,0,,,,,,,,,,,,,,,,,,,
54173,1506819748027,,,,,0,,,0.03,0.05,1.0,-3.0,-0.7,-0.1,0,0,1,1,0.0,0,35.489861,-119.546089,0.0,0.0,274.6,10,3,1.8,0,0.0,-1,0.0,0.0,0.0,0
54193,1506819748047,,,,,,,,0.03,0.05,1.0,-3.0,-0.7,-0.1,0,0,,,,,,,,,,,,,,,,,,,
54213,1506819748067,,,,,,,,0.03,0.05,1.0,-3.0,-0.7,-0.1,0,0,,,,,,,,,,,,,,,,,,,
54233,1506819748093,,,,,,,,0.02,0.05,1.0,-3.0,-0.7,-0.1,0,0,,,,,,,,,,,,,,,,,,,
54253,1506819748113,,,,,,,,0.03,0.05,1.0,-3.0,-0.7,-0.1,0,0,,,,,,,,,,,,,,,,,,,
54273,1506819748133,0,142.7,,168.6,0,163.6,,0.02,0.05,1.0,-3.0,-0.7,-0.1,0,0,1,1,0.0,0,35.489861,-119.546089,0.0,0.0,274.6,10,3,1.8,0,0.0,-1,0.0,0.0,0.0,0
54293,1506819748153,,,,,,,,0.02,0.05,1.0,-3.0,-0.7,-0.1,0,0,,,,,,,,,,,,,,,,,,,
54313,1506819748173,,,,,,,,0.02,0.05,1.0,-3.0,-0.7,-0.1,0,0,,,,,,,,,,,,,,,,,,,
54333,1506819748193,,,,,,,,0.02,0.05,1.0,-3.0,-0.7,-0.1,0,0,,,,,,,,,,,,,,,,,,,
54353,1506819748210,,,,,,,,0.02,0.05,1.0,-3.0,-0.7,-0.2,0,0,,,,,,,,,,,,,,,,,,,
54373,1506819748230,,,,,0,,,0.02,0.05,1.0,-3.0,-0.7,-0.2,0,0,1,1,0.0,0,35.489861,-119.546089,0.0,0.0,274.6,10,3,1.8,0,0.0,-1,0.0,0.0,0.0,0
54393,1506819748250,,,,,,,,0.02,0.05,1.0,-3.0,-0.7,-0.2,0,0,,,,,,,,,,,,,,,,,,,
54413,1506819748270,,,,,,,,0.02,0.05,1.0,-3.0,-0.7,-0.2,0,0,,,,,,,,,,,,,,,,,,,
54433,1506819748292,,,,,,,,0.02,0.05,1.0,-3.0,-0.7,-0.2,0,0,,,,,,,,,,,,,,,,,,,
54453,1506819748312,,,,,,,,0.02,0.05,1.0,-3.0,-0.7,-0.2,0,0,,,,,,,,,,,,,,,,,,,
54473,1506819748332,0,143.2,,168.8,0,163.5,,0.03,0.05,1.0,-3.0,-0.7,-0.2,0,0,1,1,0.0,0,35.489861,-119.546089,0.0,0.0,274.6,10,3,1.8,0,0.0,-1,0.0,0.0,0.0,0
54493,1506819748352,,,,,,,,0.03,0.05,1.0,-3.0,-0.7,-0.2,0,0,,,,,,,,,,,,,,,,,,,
54513,1506819748372,,,,,,,,0.02,0.05,1.0,-3.0,-0.7,-0.1,0,0,,,,,,,,,,,,,,,,,,,
54533,1506819748392,,,,,,,,0.02,0.05,1.0,-3.0,-0.7,-0.2,0,0,,,,,,,,,,,,,,,,,,,
54553,1506819748412,,,,,,,,0.02,0.05,1.0,-3.0,-0.6,-0.2,0,0,,,,,,,,,,,,,,,,,,,
54573,1506819748432,,,,,0,,,0.02,0.05,1.0,-3.0,-0.6,-0.2,0,0,1,1,0.0,0,35.489861,-119.546089,0.0,0.0,274.6,10,3,1.8,0,0.0,-1,0.0,0.0,0.0,0
54593,1506819748452,,,,,,,,0.02,0.05,1.0,-3.0,-0.7,-0.2,0,0,,,,,,,,,,,,,,,,,,,
54613,1506819748472,,,,,,,,0.02,0.05,1.0,-3.0,-0.7,-0.2,0,0,,,,,,,,,,,,,,,,,,,
54633,1506819748492,,,,,,,,0.02,0.05,1.0,-3.0,-0.6,-0.1,0,0,,,,,,,,,,,,,,,,,,,
54653,1506819748508,,,,,,,,0.02,0.05,1.0,-3.0,-0.6,-0.1,0,0,,,,,,,,,,,,,,,,,,,
54673,1506819748528,0,143.0,,168.7,0,162.9,,0.02,0.05,1.0,-3.0,-0.6,-0.1,0,0,1,1,0.0,0,35.489861,-119.546089,0.0,0.0,274.6,10,3,1.8,0,0.0,-1,0.0,0.0,0.0,0
54693,1506819748548,,,,,,,,0.03,0.05,1.0,-3.0,-0.6,-0.1,0,0,,,,,,,,,,,,,,,,,,,
54713,1506819748568,,,,,,,,0.03,0.05,1.0,-3.0,-0.6,-0.1,0,0,,,,,,,,,,,,,,,,,,,
54733,1506819748592,,,,,,,,0.03,0.05,1.0,-3.0,-0.6,-0.1,0,0,,,,,,,,,,,,,,,,,,,
54753,1506819748612,,,,,,,,0.02,0.05,1.0,-3.0,-0.6,-0.1,0,0,,,,,,,,,,,,,,,,,,,
54773,1506819748632,,,,,0,,,0.03,0.05,1.0,-3.0,-0.6,-0.1,0,0,1,1,0.0,0,35.489861,-119.546089,0.0,0.0,274.6,10,3,1.8,0,0.0,-1,0.0,0.0,0.0,0
54793,1506819748652,,,,,,,,0.03,0.05,1.0,-3.0,-0.6,-0.1,0,0,,,,,,,,,,,,,,,,,,,
54813,1506819748672,,,,,,,,0.03,0.05,1.0,-3.0,-0.6,-0.1,0,0,,,,,,,,,,,,,,,,,,,
54833,1506819748692,,,,,,,,0.03,0.05,1.0,-3.0,-0.7,-0.1,0,0,,,,,,,,,,,,,,,,,,,
54853,1506819748712,,,,,,,,0.02,0.05,1.0,-3.0,-0.7,-0.1,0,0,,,,,,,,,,,,,,,,,,,
54873,1506819748732,0,143.0,,168.7,0,163.6,,0.03,0.05,1.0,-3.0,-0.7,-0.1,0,0,1,1,0.0,0,35.489861,-119.546089,0.0,0.0,274.6,10,3,1.8,0,0.0,-1,0.0,0.0,0.0,0
54893,1506819748752,,,,,,,,0.03,0.05,1.0,-3.0,-0.6,-0.1,0,0,,,,,,,,,,,,,,,,,,,
54913,1506819748772,,,,,,,,0.02,0.05,1.0,-3.0,-0.7,-0.1,0,0,,,,,,,,,,,,,,,,,,,
54933,1506819748792,,,,,,,,0.02,0.05,1.0,-3.0,-0.7,-0.1,0,0,,,,,,,,,,,,,,,,,,,
54953,1506819748812,,,,,,,,0.02,0.05,1.0,-3.0,-0.7,-0.1,0,0,,,,,,,,,,,,,,,,,,,
54973,1506819748832,,,,,0,,,0.02,0.05,1.0,-3.0,-0.7,-0.1,0,0,1,1,0.0,0,35.489861,-119.546089,0.0,0.0,274.6,10,3,1.8,0,0.0,-1,0.0,0.0,0.0,0
54993,1506819748852,,,,,,,,0.02,0.05,1.0,-3.0,-0.7,-0.1,0,0,,,,,,,,,,,,,,,,,,,
55013,1506819748872,,,,,,,,0.02,0.05,1.0,-3.0,-0.6,-0.1,0,0,,,,,,,,,,,,,,,,,,,
55033,1506819748892,,,,,,,,0.02,0.05,1.0,-3.0,-0.7,-0.1,0,0,,,,,,,,,,,,,,,,,,,
55053,1506819748912,,,,,,,,0.02,0.05,1.0,-3.0,-0.7,-0.1,0,0,,,,,,,,,,,,,,,,,,,
55073,1506819748932,0,142.4,-0.6,168.2,0,163.3,13.26,0.02,0.05,1.0,-3.0,-0.7,-0.1,0,0,1,1,0.0,0,35.489861,-119.546089,0.0,0.0,274.6,10,3,1.8,0,0.0,-1,0.0,0.0,0.0,0
55093,1506819748952,,,,,,,,0.02,0.05,1.0,-3.0,-0.7,-0.1,0,0,,,,,,,,,,,,,,,,,,,
55113,1506819748972,,,,,,,,0.02,0.05,1.0,-3.0,-0.7,-0.1,0,0,,,,,,,,,,,,,,,,,,,
55133,1506819748992,,,,,,,,0.02,0.05,1.0,-3.0,-0.7,-0.1,0,0,,,,,,,,,,,,,,,,,,,
55153,1506819749006,,,,,,,,0.02,0.05,1.0,-3.0,-0.7,-0.1,0,0,,,,,,,,,,,,,,,,,,,
55173,1506819749026,,,,,0,,,0.02,0.05,1.0,-3.0,-0.7,-0.1,0,0,1,1,0.0,0,35.489861,-119.546089,0.0,0.0,274.6,10,3,1.8,0,0.0,-1,0.0,0.0,0.0,0
55193,1506819749046,,,,,,,,0.02,0.05,1.0,-3.0,-0.7,-0.1,0,0,,,,,,,,,,,,,,,,,,,
55213,1506819749066,,,,,,,,0.02,0.05,1.0,-3.0,-0.7,-0.1,0,0,,,,,,,,,,,,,,,,,,,
55233,1506819749092,,,,,,,,0.02,0.05,1.0,-3.0,-0.7,-0.1,0,0,,,,,,,,,,,,,,,,,,,
55253,1506819749112,,,,,,,,0.02,0.05,1.0,-3.0,-0.7,-0.1,0,0,,,,,,,,,,,,,,,,,,,
55273,1506819749132,0,143.1,,168.8,0,163.6,,0.02,0.05,1.0,-3.0,-0.7,-0.1,0,0,1,1,0.0,0,35.489861,-119.546089,0.0,0.0,274.6,10,3,1.8,0,0.0,-1,0.0,0.0,0.0,0
55293,1506819749152,,,,,,,,0.02,0.05,1.0,-3.0,-0.7,-0.1,0,0,,,,,,,,,,,,,,,,,,,
55313,1506819749172,,,,,,,,0.03,0.05,1.0,-3.0,-0.6,-0.1,0,0,,,,,,,,,,,,,,,,,,,
55333,1506819749191,,,,,,,,0.02,0.05,1.0,-3.0,-0.6,-0.1,0,0,,,,,,,,,,,,,,,,,,,
55353,1506819749211,,,,,,,,0.02,0.05,1.0,-3.0,-0.7,-0.2,0,0,,,,,,,,,,,,,,,,,,,
55373,1506819749231,,,,,0,,,0.03,0.05,1.0,-3.0,-0.7,-0.1,0,0,1,1,0.0,0,35.489861,-119.546089,0.0,0.0,274.6,10,3,1.8,0,0.0,-1,0.0,0.0,0.0,0
55393,1506819749251,,,,,,,,0.02,0.05,1.0,-3.0,-0.7,-0.2,0,0,,,,,,,,,,,,,,,,,,,
55413,1506819749271,,,,,,,,0.02,0.05,1.0,-3.0,-0.7,-0.2,0,0,,,,,,,,,,,,,,,,,,,
55433,1506819749291,,,,,,,,0.02,0.05,1.0,-3.0,-0.7,-0.2,0,0,,,,,,,,,,,,,,,,,,,
55453,1506819749311,,,,,,,,0.02,0.05,1.0,-3.0,-0.7,-0.2,0,0,,,,,,,,,,,,,,,,,,,
55473,1506819749331,0,142.8,,168.2,0,163.1,,0.02,0.05,1.0,-3.0,-0.7,-0.2,0,0,1,1,0.0,0,35.489861,-119.546089,0.0,0.0,274.6,10,3,1.8,0,0.0,-1,0.0,0.0,0.0,0
55493,1506819749351,,,,,,,,0.02,0.05,1.0,-3.0,-0.7,-0.2,0,0,,,,,,,,,,,,,,,,,,,
55513,1506819749371,,,,,,,,0.02,0.05,1.0,-3.0,-0.7,-0.2,0,0,,,,,,,,,,,,,,,,,,,
55533,1506819749393,,,,,,,,0.02,0.05,1.0,-3.0,-0.7,-0.1,0,0,,,,,,,,,,,,,,,,,,,
55553,1506819749413,,,,,,,,0.02,0.05,1.0,-3.0,-0.7,-0.1,0,0,,,,,,,,,,,,,,,,,,,
