"Interval"|"ms"|0|0|1,"Utc"|"ms"|0|0|1,"FuelLevel"|"F"|0|100|5,"OilTemp"|"F"|0.0|300.0|5,"CoolantPressPSI"|"PSI"|0.0|20.0|1,"Coolant"|"F"|0.0|300.0|5,"OilPress"|"PSI"|0|150|10,"EngineTemp"|"F"|0.0|300.0|5,"Battery"|"Volts"|0.0|20.0|1,"AccelX"|"G"|-3.0|3.0|50,"AccelY"|"G"|-3.0|3.0|50,"AccelZ"|"G"|-3.0|3.0|50,"Yaw"|"Deg/Sec"|-300.0|300.0|50,"Pitch"|"Deg/Sec"|-300.0|300.0|50,"Roll"|"Deg/Sec"|-300.0|300.0|50,"RPM"|""|0|10000|50,"Driveshaft"|"RPM"|0|5000|50,"GPIO1"|""|0|1|10,"GPIO2"|""|0|1|10,"GearRatio"|""|-5.0|5.0|10,"Gear"|""|-1|5|10,"Latitude"|"Degrees"|-180.0|180.0|10,"Longitude"|"Degrees"|-180.0|180.0|10,"Speed"|"mph"|0.0|150.0|10,"Distance"|"mi"|0.0|0.0|10,"Altitude"|"ft"|0.0|4000.0|10,"GPSSats"|""|0|20|10,"GPSQual"|""|0|5|10,"GPSDOP"|""|0.0|20.0|10,"LapCount"|""|0|0|10,"LapTime"|"Min"|0.0|0.0|10,"Sector"|""|0|0|10,"SectorTime"|"Min"|0.0|0.0|10,"PredTime"|"Min"|0.0|0.0|10,"ElapsedTime"|"Min"|0.0|0.0|10,"CurrentLap"|""|0|0|10
11433933,1506800725151,,,,,,,,0.03,0.08,0.99,-3.0,-0.1,-0.1,460,0,,,,,,,,,,,,,,,,,,,
11433953,1506800725171,,,,,,,,0.03,0.07,0.98,-3.0,-0.5,0.0,600,0,,,,,,,,,,,,,,,,,,,
11433973,1506800725191,,,,,,,,0.02,0.06,0.96,-2.9,-0.9,-0.2,720,0,,,,,,,,,,,,,,,,,,,
11433993,1506800725211,,,,,,,,0.03,0.05,0.98,-2.9,-0.7,-0.3,720,0,,,,,,,,,,,,,,,,,,,
11434015,1506800725233,,,,,0,,,0.03,0.06,0.99,-3.0,-0.6,-0.1,820,0,0,0,0.0,0,35.489841,-119.546074,0.0,2.894,254.1,11,3,1.4,54,2.485,0,0.0,6.5027,6.4283,55
11434034,1506800725252,,,,,,,,0.03,0.05,0.98,-3.1,-0.9,0.1,900,0,,,,,,,,,,,,,,,,,,,
11434054,1506800725272,,,,,,,,0.03,0.05,0.98,-3.1,-1.0,-0.0,960,0,,,,,,,,,,,,,,,,,,,
11434074,1506800725291,,,,,,,,0.04,0.06,0.98,-3.2,-1.1,0.0,980,0,,,,,,,,,,,,,,,,,,,
11434094,1506800725311,,,,,,,,0.04,0.06,0.99,-3.2,-1.3,0.1,940,0,,,,,,,,,,,,,,,,,,,
11434116,1506800725333,0,215.5,,214.9,1,219.1,,0.03,0.05,1.02,-3.2,-1.2,0.1,960,0,0,0,0.0,0,35.489841,-119.546074,0.0,2.894,254.1,11,3,1.4,54,2.485,0,0.0,6.5044,6.43,55
11434135,1506800725352,,,,,,,,0.04,0.06,1.01,-3.2,-1.4,0.3,980,0,,,,,,,,,,,,,,,,,,,
11434155,1506800725372,,,,,,,,0.04,0.06,1.03,-3.2,-1.3,0.3,1040,2,,,,,,,,,,,,,,,,,,,
11434175,1506800725392,,,,,,,,0.04,0.05,1.02,-3.1,-1.6,0.3,1120,2,,,,,,,,,,,,,,,,,,,
11434195,1506800725412,,,,,,,,0.02,0.06,0.96,-3.0,-2.0,0.2,1160,192308,,,,,,,,,,,,,,,,,,,
11434217,1506800725434,,,,,6,,,0.02,0.03,0.99,-3.0,-1.7,0.2,1200,0,0,0,0.0,0,35.489841,-119.546074,0.0,2.894,254.1,11,3,1.4,54,2.485,0,0.0,6.5061,6.4317,55
11434236,1506800725453,,,,,,,,0.02,0.04,1.02,-3.0,-2.1,0.0,1240,0,,,,,,,,,,,,,,,,,,,
11434256,1506800725473,,,,,,,,0.03,0.03,1.08,-3.0,-1.6,0.0,1320,0,,,,,,,,,,,,,,,,,,,
11434276,1506800725493,,,,,,,,0.04,0.05,1.06,-3.0,-1.6,-0.1,1340,0,,,,,,,,,,,,,,,,,,,
11434296,1506800725509,,,,,,,,0.03,0.05,1.03,-3.0,-1.6,-0.2,1360,0,,,,,,,,,,,,,,,,,,,
11434318,1506800725531,0,215.8,,214.8,10,218.3,,0.04,0.05,1.03,-3.1,-1.4,-0.2,1420,0,0,0,0.0,0,35.489841,-119.546074,0.0,2.894,254.1,11,3,1.4,54,2.485,0,0.0,6.5077,6.4333,55
11434337,1506800725550,,,,,,,,0.04,0.05,1.02,-3.0,-0.9,-0.3,1440,0,,,,,,,,,,,,,,,,,,,
11434357,1506800725570,,,,,,,,0.03,0.05,1.05,-3.0,-0.6,-0.3,1460,0,,,,,,,,,,,,,,,,,,,
11434377,1506800725594,,,,,,,,0.03,0.05,1.04,-3.0,-0.6,-0.3,1480,0,,,,,,,,,,,,,,,,,,,
11434397,1506800725614,,,,,,,,0.03,0.05,1.05,-2.9,-0.6,-0.2,1500,0,,,,,,,,,,,,,,,,,,,
11434419,1506800725636,,,,,13,,,0.03,0.04,1.02,-2.9,-0.5,-0.3,1500,0,0,0,0.0,0,35.489841,-119.546074,0.0,2.894,254.1,11,3,1.4,54,2.485,0,0.0,6.5094,6.435,55
11434438,1506800725655,,,,,,,,0.03,0.03,1.03,-2.9,-0.3,-0.2,1520,0,,,,,,,,,,,,,,,,,,,
11434458,1506800725675,,,,,,,,0.02,0.05,1.01,-2.9,-0.5,-0.3,1520,0,,,,,,,,,,,,,,,,,,,
11434478,1506800725695,,,,,,,,0.03,0.06,1.0,-2.9,-0.5,-0.2,1520,0,,,,,,,,,,,,,,,,,,,
11434498,1506800725715,,,,,,,,0.03,0.05,1.0,-3.0,-0.2,-0.3,1500,0,,,,,,,,,,,,,,,,,,,
11434520,1506800725737,0,215.3,,214.9,15,219.0,,0.02,0.06,0.98,-2.9,-0.4,-0.1,1520,0,0,0,0.0,0,35.489841,-119.546074,0.0,2.894,254.1,11,3,1.4,54,2.485,0,0.0,6.5111,6.4367,55
11434539,1506800725756,,,,,,,,0.03,0.05,0.97,-3.0,-0.4,-0.2,1500,0,,,,,,,,,,,,,,,,,,,
11434559,1506800725776,,,,,,,,0.03,0.05,0.98,-3.0,-0.3,-0.2,1500,0,,,,,,,,,,,,,,,,,,,
11434579,1506800725796,,,,,,,,0.02,0.05,0.97,-3.0,-0.3,-0.2,1480,0,,,,,,,,,,,,,,,,,,,
11434599,1506800725816,,,,,,,,0.02,0.06,0.97,-3.1,-0.8,-0.2,1500,0,,,,,,,,,,,,,,,,,,,
11434621,1506800725838,,,,,20,,,0.02,0.05,0.96,-3.1,-0.6,-0.3,1480,0,0,0,0.0,0,35.489841,-119.546074,0.0,2.894,254.1,11,3,1.4,54,2.485,0,0.0,6.5128,6.4383,55
11434640,1506800725857,,,,,,,,0.02,0.06,0.96,-3.2,-0.7,-0.2,1460,0,,,,,,,,,,,,,,,,,,,
11434660,1506800725877,,,,,,,,0.02,0.05,0.95,-3.1,-0.8,-0.3,1440,0,,,,,,,,,,,,,,,,,,,
11434680,1506800725897,,,,,,,,0.02,0.05,0.94,-3.1,-0.8,-0.3,1420,0,,,,,,,,,,,,,,,,,,,
11434700,1506800725917,,,,,,,,0.02,0.04,0.93,-3.1,-0.7,-0.2,1400,0,,,,,,,,,,,,,,,,,,,
11434722,1506800725939,0,215.7,3.5,215.0,20,218.9,13.83,0.02,0.05,0.94,-3.1,-0.7,-0.3,1380,0,0,0,0.0,0,35.489841,-119.546074,0.0,2.894,254.1,11,3,1.4,54,2.485,0,0.0,6.5145,6.44,55
11434741,1506800725958,,,,,,,,0.02,0.04,0.95,-3.0,-0.4,-0.2,1340,0,,,,,,,,,,,,,,,,,,,
11434761,1506800725978,,,,,,,,0.02,0.05,0.94,-3.0,-0.3,-0.2,1340,0,,,,,,,,,,,,,,,,,,,
11434781,1506800725992,,,,,,,,0.02,0.05,0.94,-3.1,-0.5,-0.1,1320,0,,,,,,,,,,,,,,,,,,,
11434801,1506800726012,,,,,,,,0.02,0.04,0.94,-3.1,-0.4,-0.1,1300,0,,,,,,,,,,,,,,,,,,,
11434823,1506800726034,,,,,21,,,0.02,0.05,0.95,-3.0,-0.2,-0.1,1300,0,0,0,0.0,0,35.489841,-119.546074,0.0,2.894,254.1,11,3,1.4,54,2.485,0,0.0,6.516,6.4417,55
11434842,1506800726053,,,,,,,,0.02,0.05,0.95,-3.0,-0.3,-0.1,1260,0,,,,,,,,,,,,,,,,,,,
11434862,1506800726073,,,,,,,,0.02,0.05,0.96,-3.1,-0.3,-0.1,1240,0,,,,,,,,,,,,,,,,,,,
11434882,1506800726101,,,,,,,,0.02,0.06,0.95,-3.0,-0.2,-0.1,1240,0,,,,,,,,,,,,,,,,,,,
11434902,1506800726121,,,,,,,,0.02,0.06,0.96,-3.0,-0.2,-0.2,1220,0,,,,,,,,,,,,,,,,,,,
11434924,1506800726143,0,215.9,,215.3,19,218.3,,0.02,0.06,0.96,-3.0,-0.3,-0.1,1180,0,0,0,0.0,0,35.489841,-119.546074,0.0,2.894,254.1,11,3,1.4,54,2.485,0,0.0,6.5179,6.4433,55
11434943,1506800726162,,,,,,,,0.02,0.06,0.96,-3.0,-0.3,-0.1,1160,0,,,,,,,,,,,,,,,,,,,
11434963,1506800726182,,,,,,,,0.02,0.06,0.96,-3.0,-0.3,-0.1,1160,0,,,,,,,,,,,,,,,,,,,
11434983,1506800726202,,,,,,,,0.02,0.05,0.97,-3.0,-0.2,-0.1,1120,0,,,,,,,,,,,,,,,,,,,
11435003,1506800726222,,,,,,,,0.02,0.05,0.98,-2.9,-0.2,-0.1,1120,0,,,,,,,,,,,,,,,,,,,
11435025,1506800726244,,,,,16,,,0.02,0.06,0.98,-2.9,-0.3,-0.2,1100,0,0,0,0.0,0,35.489841,-119.546074,0.0,2.894,254.1,11,3,1.4,54,2.485,0,0.0,6.5195,6.445,55
11435044,1506800726263,,,,,,,,0.02,0.06,0.97,-2.9,-0.3,-0.2,1080,0,,,,,,,,,,,,,,,,,,,
11435064,1506800726283,,,,,,,,0.02,0.07,0.97,-2.9,-0.3,-0.2,1060,0,,,,,,,,,,,,,,,,,,,
11435084,1506800726303,,,,,,,,0.02,0.07,0.97,-2.9,-0.3,-0.2,1040,0,,,,,,,,,,,,,,,,,,,
11435104,1506800726323,,,,,,,,0.02,0.06,0.97,-2.9,-0.1,-0.2,1020,0,,,,,,,,,,,,,,,,,,,
11435126,1506800726345,0,215.4,,214.7,15,218.3,,0.02,0.06,0.97,-2.9,-0.1,-0.2,1000,0,0,0,0.0,0,35.489841,-119.546074,0.0,2.894,254.1,11,3,1.4,54,2.485,0,0.0,6.5212,6.4467,55
11435145,1506800726364,,,,,,,,0.02,0.07,0.97,-2.9,-0.2,-0.2,980,0,,,,,,,,,,,,,,,,,,,
11435165,1506800726384,,,,,,,,0.02,0.07,0.97,-3.0,-0.2,-0.2,980,0,,,,,,,,,,,,,,,,,,,
11435185,1506800726403,,,,,,,,0.02,0.07,0.98,-3.0,-0.2,-0.2,960,0,,,,,,,,,,,,,,,,,,,
11435205,1506800726423,,,,,,,,0.02,0.07,0.97,-3.0,-0.2,-0.2,920,0,,,,,,,,,,,,,,,,,,,
11435227,1506800726445,,,,,13,,,0.02,0.07,0.97,-3.0,-0.1,-0.2,920,0,0,0,0.0,0,35.489841,-119.546074,0.0,2.894,254.1,11,3,1.4,54,2.485,0,0.0,6.5229,6.4483,55
11435246,1506800726464,,,,,,,,0.02,0.07,0.97,-3.0,-0.2,-0.1,900,0,,,,,,,,,,,,,,,,,,,
11435266,1506800726484,,,,,,,,0.02,0.07,0.97,-3.0,-0.1,-0.1,900,0,,,,,,,,,,,,,,,,,,,
11435286,1506800726504,,,,,,,,0.03,0.07,0.96,-3.0,-0.1,-0.1,880,0,,,,,,,,,,,,,,,,,,,
11435306,1506800726524,,,,,,,,0.03,0.07,0.94,-3.0,-0.2,-0.1,840,0,,,,,,,,,,,,,,,,,,,
11435328,1506800726546,0,215.1,,214.7,11,218.7,,0.03,0.07,0.94,-3.0,-0.3,-0.2,840,2,0,0,0.0,0,35.489841,-119.546074,0.0,2.894,254.1,11,3,1.4,54,2.485,0,0.0,6.5246,6.45,55
11435347,1506800726565,,,,,,,,0.03,0.06,0.94,-2.9,-0.4,-0.2,800,2,,,,,,,,,,,,,,,,,,,
11435367,1506800726585,,,,,,,,0.02,0.06,0.95,-2.9,-0.2,-0.2,800,2,,,,,,,,,,,,,,,,,,,
11435387,1506800726605,,,,,,,,0.03,0.06,0.95,-2.9,-0.3,-0.2,800,2,,,,,,,,,,,,,,,,,,,
11435407,1506800726625,,,,,,,,0.03,0.06,0.94,-2.9,-0.4,-0.1,780,2,,,,,,,,,,,,,,,,,,,
11435429,1506800726647,,,,,9,,,0.02,0.07,0.95,-2.9,-0.3,-0.1,760,2,0,0,840.0,0,35.489841,-119.546074,0.0,2.894,254.1,11,3,1.4,54,2.485,0,0.0,6.5263,6.4517,55
11435448,1506800726666,,,,,,,,0.03,0.06,0.95,-2.9,-0.2,-0.2,760,2,,,,,,,,,,,,,,,,,,,
11435468,1506800726686,,,,,,,,0.03,0.06,0.96,-2.9,-0.2,-0.3,760,2,,,,,,,,,,,,,,,,,,,
11435488,1506800726706,,,,,,,,0.02,0.06,0.95,-3.0,-0.3,-0.2,740,2,,,,,,,,,,,,,,,,,,,
11435508,1506800726726,,,,,,,,0.03,0.06,0.96,-3.0,-0.3,-0.2,720,2,,,,,,,,,,,,,,,,,,,
11435530,1506800726748,0,215.5,,215.3,9,218.8,,0.03,0.06,0.96,-3.0,-0.3,-0.2,720,2,0,0,760.0,0,35.489841,-119.546074,0.0,2.894,254.1,11,3,1.4,54,2.485,0,0.0,6.5279,6.4533,55
11435549,1506800726767,,,,,,,,0.03,0.06,0.96,-3.0,-0.2,-0.2,720,2,,,,,,,,,,,,,,,,,,,
11435569,1506800726787,,,,,,,,0.03,0.05,0.96,-3.0,-0.2,-0.2,720,2,,,,,,,,,,,,,,,,,,,
11435589,1506800726807,,,,,,,,0.03,0.05,0.97,-3.0,-0.1,-0.2,680,2,,,,,,,,,,,,,,,,,,,
11435609,1506800726827,,,,,,,,0.03,0.05,0.97,-3.0,-0.1,-0.3,680,2,,,,,,,,,,,,,,,,,,,
11435631,1506800726849,,,,,8,,,0.03,0.05,0.98,-3.0,-0.1,-0.3,700,2,0,0,720.0,0,35.489841,-119.546074,0.0,2.894,254.1,11,3,1.4,54,2.485,0,0.0,6.5296,6.455,55
11435650,1506800726868,,,,,,,,0.03,0.05,0.98,-3.0,-0.2,-0.2,660,2,,,,,,,,,,,,,,,,,,,
11435670,1506800726888,,,,,,,,0.03,0.05,0.99,-3.0,-0.2,-0.3,660,2,,,,,,,,,,,,,,,,,,,
11435690,1506800726908,,,,,,,,0.03,0.05,0.98,-3.0,-0.3,-0.3,660,2,,,,,,,,,,,,,,,,,,,
11435710,1506800726928,,,,,,,,0.02,0.05,0.97,-3.0,-0.4,-0.3,640,2,,,,,,,,,,,,,,,,,,,
11435732,1506800726950,0,215.3,3.0,214.9,8,218.9,13.01,0.02,0.05,0.98,-3.0,-0.5,-0.3,640,2,0,0,700.0,0,35.489841,-119.546074,0.0,2.894,254.1,11,3,1.4,54,2.485,0,0.0,6.5313,6.4567,55
11435751,1506800726969,,,,,,,,0.03,0.04,0.98,-3.0,-0.4,-0.3,640,2,,,,,,,,,,,,,,,,,,,
11435771,1506800726989,,,,,,,,0.02,0.05,0.98,-3.0,-0.4,-0.3,640,139860,,,,,,,,,,,,,,,,,,,
11435791,1506800727001,,,,,,,,0.02,0.05,0.98,-3.0,-0.4,-0.3,640,0,,,,,,,,,,,,,,,,,,,
11435811,1506800727021,,,,,,,,0.03,0.05,0.98,-3.0,-0.3,-0.3,620,0,,,,,,,,,,,,,,,,,,,
11435833,1506800727043,,,,,8,,,0.02,0.05,0.98,-3.0,-0.4,-0.3,620,0,0,0,640.0,0,35.489841,-119.546074,0.0,2.894,254.1,11,3,1.4,54,2.485,0,0.0,6.5329,6.4583,55
11435852,1506800727062,,,,,,,,0.02,0.04,0.98,-3.0,-0.5,-0.3,620,0,,,,,,,,,,,,,,,,,,,
11435872,1506800727082,,,,,,,,0.02,0.05,0.98,-3.0,-0.5,-0.2,620,0,,,,,,,,,,,,,,,,,,,
11435892,1506800727110,,,,,,,,0.02,0.05,0.98,-3.0,-0.5,-0.2,620,0,,,,,,,,,,,,,,,,,,,
11435912,1506800727130,,,,,,,,0.02,0.05,0.98,-3.0,-0.5,-0.3,620,0,,,,,,,,,,,,,,,,,,,
11435934,1506800727152,0,215.1,,214.9,7,218.6,,0.02,0.06,0.98,-3.0,-0.4,-0.2,620,0,0,0,0.0,0,35.489841,-119.546074,0.0,2.894,254.1,11,3,1.4,54,2.485,0,0.0,6.5347,6.46,55
11435953,1506800727171,,,,,,,,0.02,0.06,0.98,-3.0,-0.4,-0.2,640,0,,,,,,,,,,,,,,,,,,,
11435973,1506800727191,,,,,,,,0.02,0.06,0.98,-3.0,-0.4,-0.2,640,0,,,,,,,,,,,,,,,,,,,
11435993,1506800727211,,,,,,,,0.03,0.06,0.98,-3.0,-0.3,-0.2,620,0,,,,,,,,,,,,,,,,,,,
11436013,1506800727231,,,,,,,,0.03,0.06,0.98,-3.0,-0.3,-0.3,620,0,,,,,,,,,,,,,,,,,,,
11436035,1506800727253,,,,,7,,,0.03,0.06,0.98,-3.1,-0.3,-0.3,640,62,0,0,0.0,0,35.489841,-119.546074,0.0,2.894,254.1,11,3,1.4,54,2.485,0,0.0,6.5364,6.4617,55
11436054,1506800727272,,,,,,,,0.03,0.06,0.98,-3.0,-0.4,-0.3,620,169,,,,,,,,,,,,,,,,,,,
11436074,1506800727291,,,,,,,,-0.02,0.05,0.98,-3.1,-0.2,-0.4,620,171,,,,,,,,,,,,,,,,,,,
11436094,1506800727311,,,,,,,,-0.02,0.04,0.97,-3.2,-0.0,-0.3,620,60,,,,,,,,,,,,,,,,,,,
11436114,1506800727331,,,,,,,,-0.01,0.06,0.97,-3.1,0.0,-0.3,600,60,,,,,,,,,,,,,,,,,,,
11436136,1506800727353,0,216.0,,215.7,7,218.1,,-0.01,0.07,0.98,-3.1,-0.2,-0.2,600,78,0,0,10.492,0,35.489841,-119.546074,0.0,2.894,254.1,11,3,1.4,54,2.485,0,0.0,6.538,6.4633,55
11436155,1506800727372,,,,,,,,-0.02,0.07,0.97,-3.1,-0.0,-0.2,580,45,,,,,,,,,,,,,,,,,,,
11436175,1506800727392,,,,,,,,-0.04,0.06,0.98,-3.1,0.1,-0.2,580,85,,,,,,,,,,,,,,,,,,,
11436195,1506800727412,,,,,,,,-0.04,0.06,0.98,-3.1,0.0,-0.3,560,85,,,,,,,,,,,,,,,,,,,
11436215,1506800727432,,,,,,,,-0.04,0.06,0.98,-3.1,-0.2,-0.3,560,85,,,,,,,,,,,,,,,,,,,
11436237,1506800727454,,,,,6,,,-0.04,0.07,0.99,-3.0,-0.0,-0.3,540,25,0,0,7.692,0,35.489841,-119.546074,0.0,2.894,254.1,11,3,1.4,54,2.485,0,0.0,6.5397,6.465,55
11436256,1506800727473,,,,,,,,-0.04,0.07,0.99,-3.0,-0.0,-0.3,520,25,,,,,,,,,,,,,,,,,,,
11436276,1506800727493,,,,,,,,-0.05,0.06,0.99,-2.9,0.0,-0.2,520,25,,,,,,,,,,,,,,,,,,,
11436296,1506800727513,,,,,,,,-0.05,0.06,0.98,-2.9,-0.0,-0.2,500,23,,,,,,,,,,,,,,,,,,,
11436316,1506800727533,,,,,,,,-0.05,0.05,0.98,-2.9,-0.2,-0.2,500,23,,,,,,,,,,,,,,,,,,,
11436338,1506800727555,0,214.9,,214.8,6,218.3,,-0.05,0.06,0.98,-2.9,-0.2,-0.2,500,40,0,0,22.5,0,35.489841,-119.546074,0.0,2.894,254.1,11,3,1.4,54,2.485,0,0.0,6.5414,6.4667,55
11436357,1506800727574,,,,,,,,-0.05,0.05,0.99,-2.8,-0.3,-0.2,500,40,,,,,,,,,,,,,,,,,,,
11436377,1506800727594,,,,,,,,-0.05,0.06,0.99,-2.8,-0.5,-0.2,500,40,,,,,,,,,,,,,,,,,,,
11436397,1506800727614,,,,,,,,-0.05,0.05,1.0,-2.8,-0.5,-0.2,500,28,,,,,,,,,,,,,,,,,,,
11436417,1506800727634,,,,,,,,-0.05,0.05,1.01,-2.8,-0.5,-0.2,500,28,,,,,,,,,,,,,,,,,,,
11436439,1506800727656,,,,,5,,,-0.05,0.05,1.0,-2.8,-0.5,-0.2,500,46,0,0,12.5,0,35.489841,-119.546074,0.0,2.894,254.1,11,3,1.4,54,2.485,0,0.0,6.5431,6.4683,55
11436458,1506800727675,,,,,,,,-0.04,0.05,1.01,-2.7,-0.4,-0.2,500,46,,,,,,,,,,,,,,,,,,,
11436478,1506800727695,,,,,,,,-0.04,0.05,1.01,-2.7,-0.4,-0.2,500,37,,,,,,,,,,,,,,,,,,,
11436498,1506800727715,,,,,,,,-0.04,0.05,1.02,-2.7,-0.3,-0.2,500,48,,,,,,,,,,,,,,,,,,,
11436518,1506800727735,,,,,,,,-0.04,0.04,1.02,-2.6,-0.4,-0.3,500,48,,,,,,,,,,,,,,,,,,,
11436540,1506800727757,0,215.3,,215.2,5,219.0,,-0.03,0.05,1.01,-2.6,-0.3,-0.2,500,51,0,0,10.87,0,35.489841,-119.546074,0.0,2.894,254.1,11,3,1.4,54,2.485,0,0.0,6.5448,6.47,55
11436559,1506800727776,,,,,,,,-0.04,0.04,1.01,-2.5,-0.3,-0.3,500,42,,,,,,,,,,,,,,,,,,,
11436579,1506800727796,,,,,,,,-0.04,0.05,1.02,-2.5,-0.4,-0.2,520,42,,,,,,,,,,,,,,,,,,,
11436599,1506800727816,,,,,,,,-0.04,0.04,1.01,-2.4,-0.4,-0.4,520,60,,,,,,,,,,,,,,,,,,,
11436619,1506800727836,,,,,,,,-0.04,0.05,1.0,-2.5,-0.3,-0.3,520,51,,,,,,,,,,,,,,,,,,,
11436641,1506800727858,,,,,6,,,-0.03,0.05,1.0,-2.3,-0.3,-0.4,520,51,0,0,10.0,0,35.489841,-119.546074,0.0,2.894,254.1,11,3,1.4,54,2.485,0,0.0,6.5465,6.4717,55
11436660,1506800727877,,,,,,,,-0.03,0.05,0.99,-2.3,-0.1,-0.3,540,48,,,,,,,,,,,,,,,,,,,
11436680,1506800727893,,,,,,,,-0.04,0.05,0.99,-2.3,0.0,-0.4,560,66,,,,,,,,,,,,,,,,,,,
11436700,1506800727913,,,,,,,,-0.04,0.03,0.98,-2.2,-0.0,-0.4,560,60,,,,,,,,,,,,,,,,,,,
11436720,1506800727933,,,,,,,,-0.04,0.05,0.97,-2.2,-0.1,-0.3,580,51,,,,,,,,,,,,,,,,,,,
11436742,1506800727955,0,215.2,2.5,214.9,6,218.2,12.97,-0.04,0.04,0.98,-2.1,-0.3,-0.4,580,51,0,0,11.489,0,35.489841,-119.546074,0.0,2.894,254.1,11,3,1.4,54,2.485,0,0.0,6.5481,6.4733,55
11436761,1506800727974,,,,,,,,-0.04,0.04,0.99,-2.1,-0.2,-0.4,600,65,,,,,,,,,,,,,,,,,,,
11436781,1506800727992,,,,,,,,-0.03,0.04,0.99,-2.1,-0.1,-0.3,600,69,,,,,,,,,,,,,,,,,,,
11436801,1506800728012,,,,,,,,-0.04,0.03,0.99,-2.0,-0.2,-0.4,600,62,,,,,,,,,,,,,,,,,,,
11436821,1506800728032,,,,,,,,-0.03,0.05,0.99,-2.0,-0.3,-0.4,640,63,,,,,,,,,,,,,,,,,,,
11436843,1506800728054,,,,,6,,,-0.03,0.04,0.97,-1.9,-0.2,-0.3,640,72,0,0,9.375,0,35.489834,-119.546089,1.04,2.894,239.9,11,3,1.4,54,2.485,0,0.0,6.5505,6.475,55
11436862,1506800728073,,,,,,,,-0.03,0.04,0.96,-1.8,-0.3,-0.4,640,69,,,,,,,,,,,,,,,,,,,
11436882,1506800728097,,,,,,,,-0.03,0.04,0.97,-1.8,-0.3,-0.2,660,66,,,,,,,,,,,,,,,,,,,
11436902,1506800728117,,,,,,,,-0.02,0.04,0.96,-1.7,-0.4,-0.2,680,74,,,,,,,,,,,,,,,,,,,
11436922,1506800728137,,,,,,,,-0.03,0.03,0.96,-1.6,-0.4,-0.4,680,80,,,,,,,,,,,,,,,,,,,
11436944,1506800728159,0,215.6,,215.7,7,218.2,,-0.02,0.04,0.97,-1.7,-0.4,-0.4,680,75,0,0,8.889,0,35.489834,-119.546089,1.08,2.894,239.9,11,3,1.4,54,2.485,0,0.0,6.5522,6.4767,55
11436963,1506800728178,,,,,,,,-0.02,0.04,0.97,-1.6,-0.3,-0.3,680,71,,,,,,,,,,,,,,,,,,,
11436983,1506800728202,,,,,,,,-0.02,0.03,0.97,-1.5,-0.6,-0.5,700,77,,,,,,,,,,,,,,,,,,,
11437003,1506800728222,,,,,,,,-0.02,0.02,0.97,-1.4,-0.5,-0.6,700,83,,,,,,,,,,,,,,,,,,,
11437023,1506800728242,,,,,,,,-0.02,0.04,0.96,-1.4,-0.5,-0.4,700,80,,,,,,,,,,,,,,,,,,,
11437045,1506800728264,,,,,8,,,-0.01,0.03,0.97,-1.4,-0.5,-0.4,700,74,0,0,9.067,0,35.489834,-119.546089,1.39,2.894,239.9,11,3,1.4,54,2.485,0,0.0,6.554,6.4783,55
11437064,1506800728283,,,,,,,,-0.02,0.02,0.97,-1.2,-0.3,-0.6,700,80,,,,,,,,,,,,,,,,,,,
11437084,1506800728302,,,,,,,,-0.03,0.03,0.98,-1.2,-0.3,-0.5,700,89,,,,,,,,,,,,,,,,,,,
11437104,1506800728322,,,,,,,,-0.02,0.03,0.98,-1.1,-0.3,-0.4,700,88,,,,,,,,,,,,,,,,,,,
11437124,1506800728342,,,,,,,,-0.03,0.02,0.98,-1.0,-0.3,-0.5,700,78,,,,,,,,,,,,,,,,,,,
11437146,1506800728364,0,215.7,,215.8,9,218.2,,-0.02,0.03,0.99,-0.9,-0.4,-0.6,700,86,0,0,9.589,0,35.489834,-119.546089,1.43,2.894,240.0,11,3,1.4,54,2.485,0,0.0,6.5557,6.48,55
11437165,1506800728383,,,,,,,,-0.02,0.03,0.98,-0.9,-0.3,-0.4,680,95,,,,,,,,,,,,,,,,,,,
11437185,1506800728403,,,,,,,,-0.02,0.02,0.98,-0.7,-0.3,-0.3,700,92,,,,,,,,,,,,,,,,,,,
11437205,1506800728423,,,,,,,,-0.02,0.02,0.99,-0.6,-0.2,-0.5,700,85,,,,,,,,,,,,,,,,,,,
11437225,1506800728443,,,,,,,,-0.02,0.03,0.99,-0.6,-0.2,-0.4,680,85,,,,,,,,,,,,,,,,,,,
11437247,1506800728465,,,,,9,,,-0.02,0.04,0.98,-0.5,-0.3,-0.3,680,100,0,0,8.14,0,35.489834,-119.546089,1.41,2.894,240.0,11,3,1.4,54,2.485,0,0.0,6.5574,6.4817,55
11437266,1506800728484,,,,,,,,-0.03,0.03,0.99,-0.4,-0.4,-0.4,680,98,,,,,,,,,,,,,,,,,,,
11437286,1506800728504,,,,,,,,-0.02,0.04,0.99,-0.4,-0.4,-0.4,660,88,,,,,,,,,,,,,,,,,,,
11437306,1506800728524,,,,,,,,-0.02,0.03,0.99,-0.3,-0.4,-0.3,660,85,,,,,,,,,,,,,,,,,,,
11437326,1506800728544,,,,,,,,-0.03,0.03,0.99,-0.2,-0.5,-0.5,660,106,,,,,,,,,,,,,,,,,,,
11437348,1506800728566,0,215.3,,216.0,8,218.8,,-0.02,0.03,0.99,-0.2,-0.4,-0.5,660,108,0,0,6.8,0,35.489834,-119.546089,1.51,2.894,240.1,11,3,1.4,54,2.485,0,0.0,6.559,6.4833,55
11437367,1506800728585,,,,,,,,-0.02,0.03,0.99,-0.1,-0.4,-0.4,660,98,,,,,,,,,,,,,,,,,,,
11437387,1506800728605,,,,,,,,-0.02,0.02,0.99,0.0,-0.4,-0.4,660,89,,,,,,,,,,,,,,,,,,,
11437407,1506800728625,,,,,,,,-0.03,0.03,0.99,0.1,-0.4,-0.4,640,105,,,,,,,,,,,,,,,,,,,
11437427,1506800728645,,,,,,,,-0.03,0.03,0.99,0.2,-0.5,-0.4,620,112,,,,,,,,,,,,,,,,,,,
11437449,1506800728667,,,,,8,,,-0.03,0.02,0.99,0.3,-0.5,-0.4,620,100,0,0,6.168,0,35.489834,-119.546089,1.7,2.894,240.1,11,3,1.4,54,2.485,0,0.0,6.5607,6.485,55
11437468,1506800728686,,,,,,,,-0.03,0.03,1.0,0.3,-0.6,-0.3,620,92,,,,,,,,,,,,,,,,,,,
11437488,1506800728706,,,,,,,,-0.03,0.02,0.99,0.4,-0.7,-0.2,620,97,,,,,,,,,,,,,,,,,,,
11437508,1506800728726,,,,,,,,-0.02,0.02,0.98,0.5,-0.6,-0.2,620,118,,,,,,,,,,,,,,,,,,,
11437528,1506800728746,,,,,,,,-0.02,0.04,0.99,0.5,-0.5,-0.1,620,117,,,,,,,,,,,,,,,,,,,
11437550,1506800728768,0,215.2,,216.1,7,218.8,,-0.03,0.03,0.99,0.6,-0.5,-0.2,620,100,0,0,6.2,0,35.489834,-119.546089,1.82,2.894,240.1,11,3,1.4,54,2.485,0,0.0,6.5624,6.4867,55
11437569,1506800728787,,,,,,,,-0.03,0.04,0.99,0.6,-0.4,-0.2,600,102,,,,,,,,,,,,,,,,,,,
11437589,1506800728807,,,,,,,,-0.03,0.04,0.99,0.7,-0.3,-0.2,600,123,,,,,,,,,,,,,,,,,,,
11437609,1506800728827,,,,,,,,-0.04,0.03,0.98,0.8,-0.2,-0.2,600,128,,,,,,,,,,,,,,,,,,,
11437629,1506800728847,,,,,,,,-0.03,0.04,0.98,0.8,-0.2,-0.1,580,111,,,,,,,,,,,,,,,,,,,
11437651,1506800728869,,,,,7,,,-0.03,0.03,0.98,0.9,-0.4,-0.2,580,105,0,0,6.0,0,35.489834,-119.546089,1.8,2.894,240.1,11,3,1.4,54,2.485,0,0.0,6.5641,6.4883,55
11437670,1506800728888,,,,,,,,-0.04,0.04,0.98,0.9,-0.4,-0.2,580,122,,,,,,,,,,,,,,,,,,,
11437690,1506800728908,,,,,,,,-0.03,0.04,0.98,0.9,-0.4,-0.2,580,131,,,,,,,,,,,,,,,,,,,
11437710,1506800728928,,,,,,,,-0.04,0.03,0.98,1.0,-0.3,-0.2,580,125,,,,,,,,,,,,,,,,,,,
11437730,1506800728948,,,,,,,,-0.03,0.04,0.98,1.0,-0.2,-0.1,580,111,,,,,,,,,,,,,,,,,,,
11437752,1506800728970,0,215.3,2.5,215.9,6,218.6,12.97,-0.04,0.03,0.98,1.1,-0.5,-0.2,580,115,0,0,5.577,0,35.489834,-119.546089,2.05,2.894,240.2,11,3,1.4,54,2.485,0,0.0,6.5658,6.49,55
11437771,1506800728989,,,,,,,,-0.03,0.04,0.98,1.1,-0.3,-0.1,560,132,,,,,,,,,,,,,,,,,,,
11437791,1506800729001,,,,,,,,-0.04,0.04,0.98,1.1,-0.2,-0.1,560,132,,,,,,,,,,,,,,,,,,,
11437811,1506800729021,,,,,,,,-0.04,0.04,0.97,1.1,-0.2,0.0,560,126,,,,,,,,,,,,,,,,,,,
11437831,1506800729041,,,,,,,,-0.03,0.05,0.97,1.2,-0.3,0.0,560,123,,,,,,,,,,,,,,,,,,,
11437853,1506800729063,,,,,6,,,-0.03,0.04,0.97,1.2,-0.2,0.0,560,135,0,0,4.677,0,35.489834,-119.546089,2.16,2.895,240.3,11,3,1.4,54,2.485,0,0.0,6.5673,6.4917,55
11437872,1506800729082,,,,,,,,-0.04,0.05,0.97,1.2,-0.3,0.1,560,137,,,,,,,,,,,,,,,,,,,
11437892,1506800729110,,,,,,,,-0.04,0.04,0.97,1.3,-0.3,-0.1,560,134,,,,,,,,,,,,,,,,,,,
11437912,1506800729130,,,,,,,,-0.03,0.05,0.96,1.3,-0.3,-0.0,560,132,,,,,,,,,,,,,,,,,,,
11437932,1506800729150,,,,,,,,-0.03,0.05,0.97,1.3,-0.3,-0.1,560,138,,,,,,,,,,,,,,,,,,,
11437954,1506800729172,0,215.3,,215.5,6,218.1,,-0.04,0.04,0.97,1.3,-0.2,0.0,560,140,0,0,4.148,0,35.489834,-119.546089,2.28,2.895,240.3,11,3,1.4,54,2.485,0,0.0,6.5691,6.4933,55
11437973,1506800729193,,,,,,,,-0.03,0.05,0.98,1.3,-0.1,-0.0,560,135,,,,,,,,,,,,,,,,,,,
11437993,1506800729213,,,,,,,,-0.04,0.04,0.98,1.3,-0.4,-0.1,560,142,,,,,,,,,,,,,,,,,,,
11438013,1506800729233,,,,,,,,-0.05,0.05,0.98,1.3,-0.3,-0.1,560,145,,,,,,,,,,,,,,,,,,,
11438033,1506800729253,,,,,,,,-0.04,0.05,0.98,1.4,-0.2,-0.2,560,149,,,,,,,,,,,,,,,,,,,
11438055,1506800729275,,,,,6,,,-0.04,0.05,0.99,1.3,-0.1,-0.1,560,148,0,0,4.0,0,35.489834,-119.546097,2.32,2.895,240.4,11,3,1.4,54,2.485,0,0.0,6.5712,6.495,55
11438074,1506800729293,,,,,,,,-0.04,0.06,0.99,1.3,-0.4,-0.2,560,146,,,,,,,,,,,,,,,,,,,
11438094,1506800729313,,,,,,,,-0.04,0.04,0.98,1.3,-0.3,-0.2,560,148,,,,,,,,,,,,,,,,,,,
11438114,1506800729333,,,,,,,,-0.04,0.05,0.97,1.3,-0.2,-0.1,560,154,,,,,,,,,,,,,,,,,,,
11438134,1506800729353,,,,,,,,-0.04,0.04,0.97,1.3,-0.5,-0.2,560,155,,,,,,,,,,,,,,,,,,,
11438156,1506800729375,0,214.5,,215.3,6,218.2,,-0.04,0.05,0.97,1.3,-0.6,-0.2,560,152,0,0,-3.836,-1,35.489834,-119.546097,2.58,2.895,240.4,11,3,1.4,54,2.485,0,0.0,6.5729,6.4967,55
11438175,1506800729394,,,,,,,,-0.04,0.04,0.97,1.2,-0.4,-0.3,560,151,,,,,,,,,,,,,,,,,,,
11438195,1506800729414,,,,,,,,-0.03,0.05,0.96,1.2,-0.2,-0.2,560,154,,,,,,,,,,,,,,,,,,,
11438215,1506800729434,,,,,,,,-0.03,0.05,0.96,1.2,-0.4,-0.2,580,165,,,,,,,,,,,,,,,,,,,
11438235,1506800729454,,,,,,,,-0.04,0.03,0.97,1.2,-0.2,-0.2,580,165,,,,,,,,,,,,,,,,,,,
11438257,1506800729476,,,,,7,,,-0.03,0.05,0.97,1.1,-0.1,-0.1,580,163,0,0,-3.733,-1,35.489834,-119.546097,2.52,2.895,240.5,11,3,1.4,54,2.485,0,0.0,6.5746,6.4983,55
11438276,1506800729495,,,,,,,,-0.03,0.04,0.97,1.1,-0.5,-0.2,580,162,,,,,,,,,,,,,,,,,,,
11438296,1506800729515,,,,,,,,-0.03,0.05,0.98,1.1,-0.4,-0.1,580,165,,,,,,,,,,,,,,,,,,,
11438316,1506800729535,,,,,,,,-0.03,0.05,0.98,1.0,-0.3,-0.1,580,169,,,,,,,,,,,,,,,,,,,
11438336,1506800729555,,,,,,,,-0.04,0.04,0.98,1.0,-0.2,-0.2,580,169,,,,,,,,,,,,,,,,,,,
11438358,1506800729577,0,215.3,,214.9,6,217.8,,-0.03,0.05,0.98,0.9,-0.2,-0.1,580,169,0,0,3.558,0,35.489834,-119.546097,2.8,2.895,240.5,11,3,1.4,54,2.485,0,0.0,6.5763,6.5,55
11438377,1506800729596,,,,,,,,-0.04,0.05,0.97,0.9,-0.5,-0.2,580,169,,,,,,,,,,,,,,,,,,,
11438397,1506800729616,,,,,,,,-0.03,0.06,0.97,0.8,-0.5,-0.2,600,174,,,,,,,,,,,,,,,,,,,
11438417,1506800729636,,,,,,,,-0.04,0.06,0.98,0.7,-0.4,-0.1,600,182,,,,,,,,,,,,,,,,,,,
11438437,1506800729656,,,,,,,,-0.04,0.05,0.98,0.7,-0.2,-0.2,600,178,,,,,,,,,,,,,,,,,,,
11438459,1506800729678,,,,,6,,,-0.04,0.06,0.98,0.6,-0.0,-0.1,600,180,0,0,3.432,1,35.489834,-119.546097,2.95,2.895,240.5,11,3,1.4,54,2.485,0,0.0,6.578,6.5017,55
11438478,1506800729697,,,,,,,,-0.04,0.05,0.97,0.6,-0.2,-0.0,600,183,,,,,,,,,,,,,,,,,,,
11438498,1506800729717,,,,,,,,-0.05,0.05,0.98,0.5,-0.2,-0.0,600,180,,,,,,,,,,,,,,,,,,,
11438518,1506800729737,,,,,,,,-0.05,0.06,0.98,0.4,-0.2,0.0,600,183,,,,,,,,,,,,,,,,,,,
11438538,1506800729757,,,,,,,,-0.05,0.05,0.98,0.4,-0.3,-0.0,600,185,,,,,,,,,,,,,,,,,,,
11438560,1506800729779,0,214.7,,215.5,6,217.8,,-0.05,0.05,0.99,0.3,-0.1,0.1,600,183,0,0,3.333,1,35.489834,-119.546097,3.03,2.895,240.5,11,3,1.4,54,2.485,0,0.0,6.5796,6.5033,55
11438579,1506800729798,,,,,,,,-0.05,0.05,1.0,0.3,-0.1,0.1,600,189,,,,,,,,,,,,,,,,,,,
11438599,1506800729818,,,,,,,,-0.04,0.05,0.99,0.2,-0.2,0.1,600,191,,,,,,,,,,,,,,,,,,,
11438619,1506800729838,,,,,,,,-0.03,0.05,0.99,0.2,-0.4,0.2,600,188,,,,,,,,,,,,,,,,,,,
11438639,1506800729858,,,,,,,,-0.05,0.05,0.98,0.2,-0.5,0.0,600,194,,,,,,,,,,,,,,,,,,,
11438661,1506800729880,,,,,7,,,-0.04,0.06,0.98,0.2,-0.4,0.1,620,189,0,0,3.279,1,35.489834,-119.546097,3.22,2.895,240.5,11,3,1.4,54,2.485,0,0.0,6.5813,6.505,55
11438680,1506800729899,,,,,,,,-0.04,0.08,0.97,0.1,-0.5,0.1,620,192,,,,,,,,,,,,,,,,,,,
11438700,1506800729919,,,,,,,,-0.05,0.07,0.97,0.1,-0.6,-0.0,620,198,,,,,,,,,,,,,,,,,,,
11438720,1506800729939,,,,,,,,-0.04,0.07,0.98,-0.0,-0.6,-0.0,640,197,,,,,,,,,,,,,,,,,,,
11438740,1506800729959,,,,,,,,-0.04,0.07,0.98,-0.1,-0.5,-0.0,640,198,,,,,,,,,,,,,,,,,,,
11438762,1506800729981,0,214.5,2.1,215.6,7,218.3,13.22,-0.05,0.05,0.99,-0.2,-0.5,-0.1,640,205,0,0,3.163,1,35.489834,-119.546097,3.29,2.895,240.6,11,3,1.4,54,2.485,0,0.0,6.583,6.5067,55
11438781,1506800729994,,,,,,,,-0.04,0.05,1.0,-0.3,-0.5,-0.2,660,200,,,,,,,,,,,,,,,,,,,
11438801,1506800730014,,,,,,,,-0.04,0.05,0.99,-0.5,-0.5,-0.2,660,202,,,,,,,,,,,,,,,,,,,
11438821,1506800730034,,,,,,,,-0.05,0.04,0.99,-0.5,-0.4,-0.3,660,209,,,,,,,,,,,,,,,,,,,
11438841,1506800730054,,,,,,,,-0.04,0.04,0.99,-0.6,-0.6,-0.3,660,205,,,,,,,,,,,,,,,,,,,
11438863,1506800730076,,,,,7,,,-0.04,0.04,0.99,-0.7,-0.4,-0.2,680,205,0,0,3.235,1,35.489834,-119.546097,3.45,2.895,240.6,11,3,1.4,54,2.485,0,0.0,6.5846,6.5083,55
11438882,1506800730101,,,,,,,,-0.05,0.04,0.98,-0.7,-0.5,-0.2,680,209,,,,,,,,,,,,,,,,,,,
11438902,1506800730121,,,,,,,,-0.03,0.03,0.99,-0.7,-0.4,-0.3,680,208,,,,,,,,,,,,,,,,,,,
11438922,1506800730141,,,,,,,,-0.03,0.04,0.98,-0.8,-0.4,-0.1,680,208,,,,,,,,,,,,,,,,,,,
11438942,1506800730161,,,,,,,,-0.03,0.04,0.97,-0.7,-0.6,-0.2,680,211,,,,,,,,,,,,,,,,,,,
11438964,1506800730183,0,215.4,,215.1,8,217.6,,-0.03,0.04,0.98,-0.8,-0.4,-0.3,680,214,0,0,3.333,1,35.489834,-119.546112,3.6,2.895,240.6,11,3,1.4,54,2.485,0,0.0,6.5872,6.51,55
11438983,1506800730202,,,,,,,,-0.03,0.05,0.98,-0.8,-0.5,-0.2,680,209,,,,,,,,,,,,,,,,,,,
11439003,1506800730222,,,,,,,,-0.03,0.06,0.97,-0.9,-0.5,-0.1,680,214,,,,,,,,,,,,,,,,,,,
11439023,1506800730242,,,,,,,,-0.04,0.05,0.98,-0.9,-0.5,-0.2,680,217,,,,,,,,,,,,,,,,,,,
11439043,1506800730262,,,,,,,,-0.03,0.05,0.99,-1.0,-0.7,-0.1,700,214,,,,,,,,,,,,,,,,,,,
11439065,1506800730284,,,,,8,,,-0.03,0.05,0.98,-1.1,-0.7,-0.1,700,214,0,0,3.192,1,35.489834,-119.546112,3.74,2.895,240.7,11,3,1.4,54,2.485,0,0.0,6.5888,6.5117,55
11439084,1506800730298,,,,,,,,-0.03,0.05,0.98,-1.1,-0.6,-0.1,700,218,,,,,,,,,,,,,,,,,,,
11439104,1506800730318,,,,,,,,-0.03,0.05,0.99,-1.1,-0.5,-0.3,700,220,,,,,,,,,,,,,,,,,,,
11439124,1506800730338,,,,,,,,-0.03,0.06,0.99,-1.2,-0.5,-0.1,720,217,,,,,,,,,,,,,,,,,,,
11439144,1506800730358,,,,,,,,-0.03,0.06,0.98,-1.3,-0.4,-0.0,720,220,,,,,,,,,,,,,,,,,,,
11439166,1506800730380,0,214.7,,215.8,9,218.5,,-0.03,0.05,1.0,-1.3,-0.5,-0.2,720,223,0,0,3.286,1,35.489834,-119.546112,3.7,2.896,240.7,11,3,1.4,54,2.485,0,0.0,6.5904,6.5133,55
11439185,1506800730403,,,,,,,,-0.03,0.05,1.01,-1.3,-0.5,-0.3,720,225,,,,,,,,,,,,,,,,,,,
11439205,1506800730423,,,,,,,,-0.02,0.05,1.0,-1.3,-0.5,-0.2,720,223,,,,,,,,,,,,,,,,,,,
11439225,1506800730443,,,,,,,,-0.02,0.06,0.99,-1.4,-0.4,-0.1,740,225,,,,,,,,,,,,,,,,,,,
11439245,1506800730463,,,,,,,,-0.02,0.05,0.99,-1.3,-0.4,-0.4,720,228,,,,,,,,,,,,,,,,,,,
11439267,1506800730485,,,,,9,,,-0.02,0.05,0.99,-1.4,-0.4,-0.4,720,228,0,0,3.229,1,35.489834,-119.546112,3.83,2.896,240.8,11,3,1.4,54,2.485,0,0.0,6.5922,6.515,55
11439286,1506800730504,,,,,,,,-0.02,0.06,0.97,-1.5,-0.4,-0.2,740,226,,,,,,,,,,,,,,,,,,,
11439306,1506800730524,,,,,,,,-0.01,0.06,0.97,-1.5,-0.4,-0.2,740,226,,,,,,,,,,,,,,,,,,,
11439326,1506800730544,,,,,,,,-0.01,0.05,0.98,-1.5,-0.3,-0.4,740,231,,,,,,,,,,,,,,,,,,,
11439346,1506800730564,,,,,,,,-0.02,0.05,0.99,-1.5,-0.3,-0.4,740,231,,,,,,,,,,,,,,,,,,,
11439368,1506800730586,0,214.3,,215.6,9,218.3,,-0.01,0.06,0.98,-1.6,-0.3,-0.2,760,229,0,0,3.172,1,35.489838,-119.546112,3.96,2.896,240.9,11,3,1.4,54,2.485,0,0.0,6.5939,6.5167,55
11439387,1506800730605,,,,,,,,-0.01,0.06,0.98,-1.6,-0.4,-0.1,740,229,,,,,,,,,,,,,,,,,,,
11439407,1506800730625,,,,,,,,-0.01,0.05,0.99,-1.5,-0.3,-0.4,760,234,,,,,,,,,,,,,,,,,,,
11439427,1506800730645,,,,,,,,-0.02,0.04,1.0,-1.5,-0.2,-0.5,760,235,,,,,,,,,,,,,,,,,,,
11439447,1506800730665,,,,,,,,-0.01,0.04,0.99,-1.5,-0.2,-0.3,760,232,,,,,,,,,,,,,,,,,,,
11439469,1506800730687,,,,,8,,,-0.0,0.04,0.99,-1.6,-0.1,-0.2,760,232,0,0,3.319,1,35.489838,-119.546112,4.12,2.896,241.0,11,3,1.4,54,2.485,0,0.0,6.5955,6.5183,55
11439488,1506800730706,,,,,,,,-0.01,0.04,1.0,-1.6,-0.2,-0.2,760,235,,,,,,,,,,,,,,,,,,,
11439508,1506800730726,,,,,,,,-0.01,0.04,1.0,-1.5,-0.3,-0.4,760,235,,,,,,,,,,,,,,,,,,,
11439528,1506800730746,,,,,,,,-0.01,0.03,1.0,-1.5,-0.4,-0.4,760,238,,,,,,,,,,,,,,,,,,,
11439548,1506800730766,,,,,,,,-0.0,0.04,0.99,-1.6,-0.1,-0.2,760,235,,,,,,,,,,,,,,,,,,,
11439570,1506800730788,0,215.1,,215.3,9,217.7,,0.0,0.04,0.99,-1.5,-0.4,-0.2,760,235,0,0,3.276,1,35.489838,-119.546112,4.1,2.896,241.1,11,3,1.4,54,2.485,0,0.0,6.5972,6.52,55
11439589,1506800730809,,,,,,,,0.0,0.03,0.99,-1.5,-0.3,-0.4,780,238,,,,,,,,,,,,,,,,,,,
11439609,1506800730829,,,,,,,,-0.01,0.03,0.99,-1.5,-0.1,-0.5,780,240,,,,,,,,,,,,,,,,,,,
11439629,1506800730849,,,,,,,,-0.01,0.03,0.98,-1.6,-0.3,-0.3,780,240,,,,,,,,,,,,,,,,,,,
11439649,1506800730869,,,,,,,,0.0,0.04,0.98,-1.6,-0.2,-0.2,780,238,,,,,,,,,,,,,,,,,,,
11439671,1506800730891,,,,,9,,,-0.0,0.05,0.99,-1.7,-0.2,-0.1,780,240,0,0,3.234,1,35.489838,-119.546127,4.15,2.896,241.1,11,3,1.4,54,2.485,0,0.0,6.5997,6.5217,55
11439690,1506800730909,,,,,,,,-0.0,0.04,1.0,-1.6,-0.3,-0.3,780,242,,,,,,,,,,,,,,,,,,,
11439710,1506800730929,,,,,,,,-0.01,0.03,1.0,-1.6,-0.2,-0.3,780,245,,,,,,,,,,,,,,,,,,,
11439730,1506800730949,,,,,,,,-0.01,0.02,0.99,-1.6,-0.1,-0.1,780,243,,,,,,,,,,,,,,,,,,,
11439750,1506800730969,,,,,,,,0.0,0.04,0.98,-1.7,-0.2,0.1,800,242,,,,,,,,,,,,,,,,,,,
11439772,1506800730991,0,215.1,1.8,214.9,9,217.5,13.78,0.0,0.05,0.98,-1.8,-0.2,0.1,800,242,0,0,3.25,1,35.489838,-119.546127,4.15,2.896,241.1,11,3,1.4,54,2.485,0,0.0,6.6014,6.5233,55
11439791,1506800731003,,,,,,,,0.0,0.05,0.99,-1.7,-0.2,-0.1,800,243,,,,,,,,,,,,,,,,,,,
11439811,1506800731023,,,,,,,,-0.0,0.04,1.0,-1.6,-0.3,-0.3,800,246,,,,,,,,,,,,,,,,,,,
11439831,1506800731043,,,,,,,,-0.01,0.04,0.98,-1.6,-0.3,-0.2,800,245,,,,,,,,,,,,,,,,,,,
11439851,1506800731063,,,,,,,,-0.0,0.05,0.98,-1.8,-0.1,0.0,800,243,,,,,,,,,,,,,,,,,,,
11439873,1506800731093,,,,,9,,,-0.0,0.06,0.99,-1.8,-0.2,0.1,800,243,0,0,3.32,1,35.489838,-119.546127,4.21,2.896,241.2,11,3,1.4,54,2.485,0,0.0,6.6031,6.5267,55
11439892,1506800731112,,,,,,,,-0.0,0.06,1.0,-1.7,-0.0,-0.1,800,245,,,,,,,,,,,,,,,,,,,
11439912,1506800731132,,,,,,,,-0.01,0.06,1.0,-1.7,-0.2,-0.3,800,246,,,,,,,,,,,,,,,,,,,
11439932,1506800731152,,,,,,,,-0.01,0.04,1.0,-1.7,-0.3,-0.3,800,248,,,,,,,,,,,,,,,,,,,
11439952,1506800731172,,,,,,,,-0.01,0.05,0.99,-1.7,-0.1,-0.1,800,248,,,,,,,,,,,,,,,,,,,
11439974,1506800731194,0,215.4,,215.0,9,217.4,,-0.01,0.05,0.99,-1.7,-0.2,0.1,800,245,0,0,3.292,1,35.489838,-119.546127,4.32,2.897,241.4,11,3,1.4,54,2.485,0,0.0,6.6048,6.5283,55
11439993,1506800731213,,,,,,,,-0.01,0.07,0.99,-1.8,-0.2,0.1,820,246,,,,,,,,,,,,,,,,,,,
11440013,1506800731233,,,,,,,,-0.0,0.06,0.98,-1.7,-0.5,-0.1,800,249,,,,,,,,,,,,,,,,,,,
11440033,1506800731253,,,,,,,,-0.0,0.05,0.98,-1.7,-0.4,-0.3,820,249,,,,,,,,,,,,,,,,,,,
11440053,1506800731273,,,,,,,,-0.0,0.05,0.97,-1.7,-0.3,-0.1,820,251,,,,,,,,,,,,,,,,,,,
11440075,1506800731294,,,,,9,,,0.0,0.05,0.96,-1.8,-0.3,0.1,800,248,0,0,3.239,1,35.489838,-119.546127,4.41,2.897,241.5,11,3,1.4,54,2.485,0,0.0,6.6064,6.53,55
11440094,1506800731313,,,,,,,,0.01,0.05,0.96,-1.8,-0.3,0.2,820,249,,,,,,,,,,,,,,,,,,,
11440114,1506800731333,,,,,,,,0.0,0.05,0.96,-1.8,-0.2,0.2,820,249,,,,,,,,,,,,,,,,,,,
11440134,1506800731353,,,,,,,,-0.0,0.05,0.96,-1.7,-0.5,0.0,820,252,,,,,,,,,,,,,,,,,,,
11440154,1506800731373,,,,,,,,-0.01,0.04,0.97,-1.7,-0.4,-0.1,820,254,,,,,,,,,,,,,,,,,,,
11440176,1506800731395,0,214.1,,215.3,10,217.8,,-0.0,0.04,0.96,-1.8,-0.3,-0.0,820,252,0,0,3.175,1,35.489838,-119.546127,4.26,2.897,241.5,11,3,1.4,54,2.485,0,0.0,6.6081,6.5317,55
11440195,1506800731414,,,,,,,,0.0,0.05,0.97,-1.8,-0.2,0.1,820,251,,,,,,,,,,,,,,,,,,,
11440215,1506800731434,,,,,,,,0.01,0.06,0.97,-1.8,-0.2,0.2,800,249,,,,,,,,,,,,,,,,,,,
11440235,1506800731454,,,,,,,,0.01,0.06,0.98,-1.8,-0.0,0.2,820,251,,,,,,,,,,,,,,,,,,,
11440255,1506800731474,,,,,,,,0.0,0.06,0.97,-1.8,-0.3,-0.0,820,252,,,,,,,,,,,,,,,,,,,
11440277,1506800731496,,,,,10,,,0.0,0.05,0.97,-1.7,-0.2,-0.1,820,254,0,0,3.254,1,35.489838,-119.546143,4.55,2.897,241.6,11,3,1.4,54,2.485,0,0.0,6.6106,6.5333,55
11440296,1506800731515,,,,,,,,0.0,0.05,0.96,-1.7,-0.3,-0.1,820,254,,,,,,,,,,,,,,,,,,,
11440316,1506800731535,,,,,,,,0.01,0.05,0.96,-1.8,-0.1,0.1,820,254,,,,,,,,,,,,,,,,,,,
11440336,1506800731555,,,,,,,,0.02,0.06,0.96,-1.8,-0.3,0.1,820,252,,,,,,,,,,,,,,,,,,,
11440356,1506800731575,,,,,,,,0.01,0.07,0.97,-1.8,-0.2,0.1,820,252,,,,,,,,,,,,,,,,,,,
11440378,1506800731597,0,215.3,,215.0,10,217.3,,0.01,0.06,0.97,-1.7,-0.4,-0.1,820,252,0,0,3.254,1,35.489838,-119.546143,4.42,2.897,241.6,11,3,1.4,54,2.485,0,0.0,6.6122,6.535,55
11440397,1506800731616,,,,,,,,0.0,0.05,0.98,-1.7,-0.5,-0.2,820,255,,,,,,,,,,,,,,,,,,,
11440417,1506800731636,,,,,,,,0.0,0.04,0.97,-1.7,-0.5,-0.2,820,257,,,,,,,,,,,,,,,,,,,
11440437,1506800731656,,,,,,,,0.01,0.05,0.97,-1.8,-0.4,-0.1,820,255,,,,,,,,,,,,,,,,,,,
11440457,1506800731676,,,,,,,,0.01,0.05,0.98,-1.8,-0.6,0.0,820,255,,,,,,,,,,,,,,,,,,,
11440479,1506800731698,,,,,12,,,0.01,0.06,0.98,-1.8,-0.6,-0.0,840,254,0,0,3.254,1,35.489838,-119.546143,4.45,2.897,241.6,11,3,1.4,54,2.485,0,0.0,6.6139,6.5367,55
11440498,1506800731717,,,,,,,,0.01,0.06,0.99,-1.8,-0.5,-0.1,840,255,,,,,,,,,,,,,,,,,,,
11440518,1506800731737,,,,,,,,0.01,0.06,0.98,-1.8,-0.7,-0.3,840,257,,,,,,,,,,,,,,,,,,,
11440538,1506800731757,,,,,,,,-0.0,0.05,0.98,-1.8,-0.6,-0.4,840,258,,,,,,,,,,,,,,,,,,,
11440558,1506800731777,,,,,,,,0.0,0.05,0.97,-1.8,-0.5,-0.3,840,260,,,,,,,,,,,,,,,,,,,
11440580,1506800731799,0,215.1,,214.9,10,217.3,,0.01,0.05,0.97,-1.9,-0.4,-0.2,840,260,0,0,3.294,1,35.489838,-119.546143,4.49,2.897,241.7,11,3,1.4,54,2.485,0,0.0,6.6156,6.5383,55
11440599,1506800731818,,,,,,,,0.01,0.06,0.97,-1.8,-0.5,-0.1,840,258,,,,,,,,,,,,,,,,,,,
11440619,1506800731838,,,,,,,,0.02,0.07,0.98,-1.8,-0.5,-0.0,840,257,,,,,,,,,,,,,,,,,,,
11440639,1506800731858,,,,,,,,0.01,0.06,0.99,-1.8,-0.5,-0.1,840,257,,,,,,,,,,,,,,,,,,,
11440659,1506800731878,,,,,,,,0.01,0.06,0.99,-1.8,-0.7,-0.2,840,257,,,,,,,,,,,,,,,,,,,
11440681,1506800731900,,,,,11,,,0.01,0.05,0.99,-1.8,-0.7,-0.2,840,257,0,0,3.231,1,35.489838,-119.546143,4.5,2.897,241.8,11,3,1.4,54,2.485,0,0.0,6.6173,6.54,55
11440700,1506800731919,,,,,,,,0.01,0.05,0.98,-1.8,-0.6,-0.1,840,258,,,,,,,,,,,,,,,,,,,
11440720,1506800731939,,,,,,,,0.01,0.05,0.98,-1.8,-0.4,0.1,840,258,,,,,,,,,,,,,,,,,,,
11440740,1506800731959,,,,,,,,0.02,0.05,0.98,-1.8,-0.6,0.1,820,258,,,,,,,,,,,,,,,,,,,
11440760,1506800731979,,,,,,,,0.02,0.06,0.99,-1.8,-0.6,0.1,860,258,,,,,,,,,,,,,,,,,,,
11440782,1506800731995,0,215.0,1.2,214.9,9,217.5,13.9,0.02,0.05,0.98,-1.8,-0.6,0.0,840,258,0,0,3.281,1,35.489838,-119.54615,4.55,2.898,241.8,11,3,1.4,54,2.485,0,0.0,6.6193,6.5417,55
11440801,1506800732014,,,,,,,,0.01,0.06,0.98,-1.8,-0.8,-0.1,840,260,,,,,,,,,,,,,,,,,,,
11440821,1506800732034,,,,,,,,0.01,0.04,0.98,-1.8,-0.7,-0.2,840,260,,,,,,,,,,,,,,,,,,,
11440841,1506800732054,,,,,,,,0.01,0.04,0.97,-1.8,-0.5,-0.1,840,260,,,,,,,,,,,,,,,,,,,
11440861,1506800732074,,,,,,,,0.02,0.04,0.97,-1.9,-0.4,0.1,840,262,,,,,,,,,,,,,,,,,,,
11440883,1506800732102,,,,,11,,,0.02,0.05,0.97,-2.0,-0.5,0.2,840,262,0,0,3.231,1,35.489841,-119.54615,4.6,2.898,241.8,11,3,1.4,54,2.485,0,0.0,6.621,6.5433,55
11440902,1506800732121,,,,,,,,0.02,0.06,0.97,-2.1,-0.6,0.2,860,258,,,,,,,,,,,,,,,,,,,
11440922,1506800732141,,,,,,,,0.02,0.06,0.98,-2.2,-0.5,0.1,840,258,,,,,,,,,,,,,,,,,,,
11440942,1506800732161,,,,,,,,0.02,0.07,0.98,-2.2,-0.7,-0.0,840,258,,,,,,,,,,,,,,,,,,,
11440962,1506800732181,,,,,,,,0.01,0.05,1.0,-2.2,-0.7,-0.2,840,260,,,,,,,,,,,,,,,,,,,
11440984,1506800732203,0,214.3,,215.4,11,218.2,,0.01,0.05,0.98,-2.2,-0.6,-0.1,840,260,0,0,3.218,1,35.489841,-119.54615,4.53,2.898,241.9,11,3,1.4,54,2.485,0,0.0,6.6227,6.545,55
11441003,1506800732222,,,,,,,,0.01,0.06,0.98,-2.3,-0.5,0.0,840,262,,,,,,,,,,,,,,,,,,,
11441023,1506800732242,,,,,,,,0.02,0.06,0.98,-2.4,-0.5,0.2,840,260,,,,,,,,,,,,,,,,,,,
11441043,1506800732262,,,,,,,,0.02,0.06,0.98,-2.5,-0.5,0.3,860,260,,,,,,,,,,,,,,,,,,,
11441063,1506800732282,,,,,,,,0.02,0.06,0.98,-2.5,-0.4,0.3,840,258,,,,,,,,,,,,,,,,,,,
11441085,1506800732303,,,,,11,,,0.02,0.06,0.98,-2.5,-0.6,0.1,840,258,0,0,3.256,1,35.489841,-119.54615,4.51,2.898,241.9,11,3,1.4,54,2.485,0,0.0,6.6244,6.5467,55
11441104,1506800732322,,,,,,,,0.01,0.06,0.98,-2.6,-0.8,-0.1,840,262,,,,,,,,,,,,,,,,,,,
11441124,1506800732342,,,,,,,,0.01,0.05,0.98,-2.6,-0.6,-0.2,840,262,,,,,,,,,,,,,,,,,,,
11441144,1506800732362,,,,,,,,0.02,0.06,0.97,-2.7,-0.5,-0.1,840,262,,,,,,,,,,,,,,,,,,,
11441164,1506800732382,,,,,,,,0.02,0.05,0.98,-2.8,-0.5,0.1,860,263,,,,,,,,,,,,,,,,,,,
11441186,1506800732406,0,214.8,,214.9,11,217.5,,0.02,0.07,0.99,-2.9,-0.5,0.1,840,262,0,0,3.231,1,35.489841,-119.54615,4.48,2.898,241.9,11,3,1.4,54,2.485,0,0.0,6.6261,6.5483,55
11441205,1506800732425,,,,,,,,0.02,0.08,1.0,-2.9,-0.3,0.1,860,262,,,,,,,,,,,,,,,,,,,
11441225,1506800732445,,,,,,,,0.02,0.08,0.99,-3.0,-0.3,0.0,860,262,,,,,,,,,,,,,,,,,,,
11441245,1506800732465,,,,,,,,0.02,0.09,0.99,-3.0,-0.6,-0.2,860,262,,,,,,,,,,,,,,,,,,,
11441265,1506800732485,,,,,,,,0.01,0.08,0.99,-3.0,-0.6,-0.3,860,263,,,,,,,,,,,,,,,,,,,
11441287,1506800732507,,,,,11,,,0.01,0.07,0.98,-3.0,-0.3,-0.4,840,266,0,0,3.194,1,35.489841,-119.54615,4.61,2.898,242.0,11,3,1.4,54,2.485,0,0.0,6.6278,6.55,55
11441306,1506800732526,,,,,,,,0.02,0.08,0.97,-3.1,-0.3,-0.3,840,266,,,,,,,,,,,,,,,,,,,
11441326,1506800732546,,,,,,,,0.02,0.07,0.98,-3.2,-0.5,-0.2,860,263,,,,,,,,,,,,,,,,,,,
11441346,1506800732566,,,,,,,,0.02,0.08,0.99,-3.3,-0.5,-0.2,860,263,,,,,,,,,,,,,,,,,,,
11441366,1506800732586,,,,,,,,0.02,0.09,1.0,-3.3,-0.2,-0.1,860,263,,,,,,,,,,,,,,,,,,,
11441388,1506800732608,0,214.6,,215.3,11,218.1,,0.02,0.08,0.99,-3.3,-0.4,-0.2,860,263,0,0,3.194,1,35.489841,-119.546165,4.61,2.898,242.0,11,3,1.4,54,2.485,0,0.0,6.6302,6.5517,55
11441407,1506800732627,,,,,,,,0.02,0.07,0.99,-3.3,-0.6,-0.3,860,263,,,,,,,,,,,,,,,,,,,
11441427,1506800732647,,,,,,,,0.01,0.07,1.0,-3.3,-0.6,-0.4,860,265,,,,,,,,,,,,,,,,,,,
11441447,1506800732667,,,,,,,,0.01,0.06,0.98,-3.2,-0.4,-0.5,860,266,,,,,,,,,,,,,,,,,,,
11441467,1506800732687,,,,,,,,0.02,0.07,0.96,-3.3,-0.3,-0.4,860,266,,,,,,,,,,,,,,,,,,,
11441489,1506800732703,,,,,12,,,0.02,0.06,0.97,-3.4,-0.3,-0.3,860,266,0,0,3.258,1,35.489841,-119.546165,4.54,2.898,242.1,11,3,1.4,54,2.485,0,0.0,6.6318,6.5533,55
11441508,1506800732722,,,,,,,,0.02,0.07,0.98,-3.4,-0.4,-0.2,860,266,,,,,,,,,,,,,,,,,,,
11441528,1506800732742,,,,,,,,0.02,0.07,0.98,-3.5,-0.3,-0.0,860,263,,,,,,,,,,,,,,,,,,,
11441548,1506800732762,,,,,,,,0.02,0.07,0.98,-3.5,-0.3,0.0,880,265,,,,,,,,,,,,,,,,,,,
11441568,1506800732782,,,,,,,,0.01,0.07,0.98,-3.5,-0.7,-0.1,840,266,,,,,,,,,,,,,,,,,,,
11441590,1506800732808,0,213.9,,214.7,12,217.4,,0.01,0.07,0.98,-3.5,-0.6,-0.2,880,266,0,0,3.221,1,35.489841,-119.546165,4.57,2.899,242.1,11,3,1.4,54,2.485,0,0.0,6.6336,6.555,55
11441609,1506800732827,,,,,,,,0.01,0.06,0.98,-3.5,-0.5,-0.2,880,268,,,,,,,,,,,,,,,,,,,
11441629,1506800732847,,,,,,,,0.01,0.06,0.98,-3.4,-0.3,-0.1,860,269,,,,,,,,,,,,,,,,,,,
11441649,1506800732867,,,,,,,,0.01,0.05,0.97,-3.4,-0.3,0.0,860,269,,,,,,,,,,,,,,,,,,,
11441669,1506800732887,,,,,,,,0.02,0.06,0.99,-3.5,-0.5,0.1,880,269,,,,,,,,,,,,,,,,,,,
11441691,1506800732911,,,,,12,,,0.02,0.07,0.99,-3.5,-0.4,0.1,860,268,0,0,3.333,1,35.489841,-119.546165,4.68,2.899,242.1,11,3,1.4,54,2.485,0,0.0,6.6353,6.5567,55
11441710,1506800732930,,,,,,,,0.03,0.08,0.99,-3.5,-0.2,0.1,880,269,,,,,,,,,,,,,,,,,,,
11441730,1506800732950,,,,,,,,0.03,0.08,0.99,-3.5,-0.4,0.0,860,269,,,,,,,,,,,,,,,,,,,
11441750,1506800732970,,,,,,,,0.02,0.08,0.99,-3.4,-0.6,-0.1,880,268,,,,,,,,,,,,,,,,,,,
11441770,1506800732990,,,,,,,,0.01,0.07,0.98,-3.4,-0.6,-0.1,880,272,,,,,,,,,,,,,,,,,,,
11441792,1506800733004,0,214.3,0.7,214.8,11,217.3,13.96,0.01,0.06,0.99,-3.4,-0.4,-0.2,880,271,0,0,3.259,1,35.489841,-119.546165,4.66,2.899,242.1,11,3,1.4,54,2.485,0,0.0,6.6368,6.5583,55
11441811,1506800733023,,,,,,,,0.01,0.04,0.97,-3.4,-0.3,-0.2,880,269,,,,,,,,,,,,,,,,,,,
11441831,1506800733043,,,,,,,,0.01,0.04,0.97,-3.5,-0.3,-0.1,860,271,,,,,,,,,,,,,,,,,,,
11441851,1506800733063,,,,,,,,0.02,0.04,0.98,-3.5,-0.3,0.1,860,271,,,,,,,,,,,,,,,,,,,
11441871,1506800733083,,,,,,,,0.02,0.04,0.99,-3.6,-0.2,0.2,880,269,,,,,,,,,,,,,,,,,,,
11441893,1506800733111,,,,,11,,,0.02,0.06,0.99,-3.6,-0.3,0.2,880,269,0,0,3.296,1,35.489841,-119.546165,4.73,2.899,242.1,11,3,1.4,54,2.485,0,0.0,6.6386,6.56,55
11441912,1506800733130,,,,,,,,0.02,0.08,0.99,-3.6,-0.2,0.2,880,268,,,,,,,,,,,,,,,,,,,
11441932,1506800733150,,,,,,,,0.02,0.07,0.99,-3.6,-0.4,0.2,880,269,,,,,,,,,,,,,,,,,,,
11441952,1506800733170,,,,,,,,0.01,0.07,0.99,-3.6,-0.4,0.1,880,269,,,,,,,,,,,,,,,,,,,
11441972,1506800733192,,,,,,,,0.01,0.06,0.98,-3.5,-0.4,-0.1,880,269,,,,,,,,,,,,,,,,,,,
11441994,1506800733214,0,213.6,,214.4,11,217.1,,0.01,0.05,0.97,-3.5,-0.4,-0.2,880,271,0,0,3.259,1,35.489841,-119.546181,4.84,2.899,242.1,11,3,1.4,54,2.485,0,0.0,6.7945,6.5617,55
11442013,1506800733233,,,,,,,,0.02,0.04,0.97,-3.4,-0.3,-0.2,880,272,,,,,,,,,,,,,,,,,,,
11442033,1506800733253,,,,,,,,0.01,0.05,0.98,-3.5,-0.3,-0.1,880,272,,,,,,,,,,,,,,,,,,,
11442053,1506800733273,,,,,,,,0.01,0.05,0.99,-3.5,-0.2,0.0,880,271,,,,,,,,,,,,,,,,,,,
11442073,1506800733292,,,,,,,,0.02,0.06,0.99,-3.6,-0.3,0.1,880,271,,,,,,,,,,,,,,,,,,,
11442095,1506800733314,,,,,12,,,0.02,0.07,1.0,-3.6,-0.2,0.3,880,271,0,0,3.271,1,35.489841,-119.546181,4.72,2.899,242.1,11,3,1.4,54,2.485,0,0.0,6.7962,6.5633,55
11442114,1506800733333,,,,,,,,0.02,0.07,0.99,-3.6,-0.2,0.3,880,272,,,,,,,,,,,,,,,,,,,
11442134,1506800733353,,,,,,,,0.02,0.07,1.0,-3.6,-0.3,0.3,880,272,,,,,,,,,,,,,,,,,,,
11442154,1506800733373,,,,,,,,0.02,0.08,0.99,-3.6,-0.4,0.2,900,274,,,,,,,,,,,,,,,,,,,
11442174,1506800733393,,,,,,,,0.01,0.08,0.99,-3.6,-0.3,0.0,900,274,,,,,,,,,,,,,,,,,,,
11442196,1506800733415,0,213.9,,214.5,12,217.0,,0.01,0.06,0.97,-3.5,-0.2,-0.1,900,275,0,0,3.235,1,35.489841,-119.546181,4.71,2.899,242.2,11,3,1.4,54,2.485,0,0.0,6.7979,6.565,55
11442215,1506800733434,,,,,,,,0.01,0.06,0.96,-3.5,-0.2,-0.1,880,275,,,,,,,,,,,,,,,,,,,
11442235,1506800733454,,,,,,,,0.01,0.06,0.97,-3.5,-0.3,-0.1,900,275,,,,,,,,,,,,,,,,,,,
11442255,1506800733474,,,,,,,,0.01,0.06,0.98,-3.5,-0.3,-0.0,900,275,,,,,,,,,,,,,,,,,,,
11442275,1506800733494,,,,,,,,0.02,0.07,0.99,-3.5,-0.2,0.0,900,274,,,,,,,,,,,,,,,,,,,
11442297,1506800733516,,,,,11,,,0.02,0.08,0.99,-3.6,-0.2,0.0,900,272,0,0,3.273,1,35.489841,-119.546181,4.81,2.9,242.2,11,3,1.4,54,2.485,0,0.0,6.7996,6.5667,55
11442316,1506800733535,,,,,,,,0.02,0.09,0.99,-3.6,-0.1,0.1,880,272,,,,,,,,,,,,,,,,,,,
11442336,1506800733555,,,,,,,,0.02,0.08,0.99,-3.7,-0.1,0.1,900,272,,,,,,,,,,,,,,,,,,,
11442356,1506800733575,,,,,,,,0.01,0.08,1.0,-3.6,-0.2,0.0,900,272,,,,,,,,,,,,,,,,,,,
11442376,1506800733595,,,,,,,,0.0,0.08,0.99,-3.6,-0.4,-0.1,880,274,,,,,,,,,,,,,,,,,,,
11442398,1506800733617,0,214.1,,214.5,13,217.0,,0.0,0.07,0.99,-3.6,-0.3,-0.2,900,275,0,0,3.273,1,35.489841,-119.546181,4.84,2.9,242.3,11,3,1.4,54,2.485,0,0.0,6.8013,6.5683,55
11442417,1506800733636,,,,,,,,0.0,0.06,0.98,-3.6,-0.2,-0.3,900,277,,,,,,,,,,,,,,,,,,,
11442437,1506800733656,,,,,,,,0.0,0.05,0.97,-3.5,-0.2,-0.3,900,278,,,,,,,,,,,,,,,,,,,
11442457,1506800733676,,,,,,,,0.01,0.05,0.96,-3.5,-0.1,-0.3,900,280,,,,,,,,,,,,,,,,,,,
11442477,1506800733696,,,,,,,,0.01,0.04,0.96,-3.6,0.0,-0.2,900,280,,,,,,,,,,,,,,,,,,,
11442499,1506800733718,,,,,12,,,0.01,0.05,0.98,-3.6,0.0,-0.0,900,282,0,0,3.273,1,35.489841,-119.546188,4.86,2.9,242.3,11,3,1.4,54,2.485,0,0.0,6.803,6.57,55
11442518,1506800733737,,,,,,,,0.01,0.06,0.98,-3.6,0.0,0.1,900,280,,,,,,,,,,,,,,,,,,,
11442538,1506800733757,,,,,,,,0.02,0.06,0.99,-3.6,0.2,0.1,920,280,,,,,,,,,,,,,,,,,,,
11442558,1506800733777,,,,,,,,0.02,0.07,1.0,-3.6,0.3,0.2,920,280,,,,,,,,,,,,,,,,,,,
11442578,1506800733797,,,,,,,,0.02,0.07,1.01,-3.5,0.2,0.2,900,280,,,,,,,,,,,,,,,,,,,
11442600,1506800733819,0,214.2,,215.0,11,217.9,,0.02,0.07,1.01,-3.5,0.1,0.2,920,280,0,0,3.214,1,35.489841,-119.546188,4.88,2.9,242.3,11,3,1.4,54,2.485,0,0.0,6.8047,6.5717,55
11442619,1506800733838,,,,,,,,0.02,0.08,1.01,-3.5,0.0,0.2,920,280,,,,,,,,,,,,,,,,,,,
11442639,1506800733858,,,,,,,,0.01,0.09,1.01,-3.5,-0.3,0.1,900,280,,,,,,,,,,,,,,,,,,,
11442659,1506800733878,,,,,,,,0.01,0.08,0.99,-3.5,-0.2,-0.0,920,280,,,,,,,,,,,,,,,,,,,
11442679,1506800733898,,,,,,,,0.01,0.07,0.99,-3.5,0.0,-0.2,920,277,,,,,,,,,,,,,,,,,,,
11442701,1506800733920,,,,,12,,,0.01,0.07,0.98,-3.4,-0.2,-0.3,900,278,0,0,3.286,1,35.489845,-119.546188,4.89,2.9,242.4,11,3,1.4,54,2.485,0,0.0,6.8066,6.5733,55
11442720,1506800733939,,,,,,,,0.01,0.06,0.97,-3.4,-0.0,-0.4,920,278,,,,,,,,,,,,,,,,,,,
11442740,1506800733959,,,,,,,,0.01,0.06,0.97,-3.5,-0.1,-0.3,900,278,,,,,,,,,,,,,,,,,,,
11442760,1506800733979,,,,,,,,0.0,0.06,0.98,-3.5,-0.2,-0.2,900,280,,,,,,,,,,,,,,,,,,,
11442780,1506800733991,,,,,,,,0.02,0.06,0.99,-3.5,-0.3,-0.2,900,278,,,,,,,,,,,,,,,,,,,
11442802,1506800734013,0,213.4,0.1,214.2,12,217.1,13.86,0.02,0.06,0.99,-3.5,-0.1,-0.1,900,278,0,0,3.261,1,35.489845,-119.546188,4.86,2.9,242.4,11,3,1.4,54,2.485,0,0.0,6.8081,6.575,55
11442821,1506800734032,,,,,,,,0.02,0.08,0.99,-3.6,-0.1,0.0,920,278,,,,,,,,,,,,,,,,,,,
11442841,1506800734052,,,,,,,,0.03,0.09,0.99,-3.6,-0.1,0.1,900,278,,,,,,,,,,,,,,,,,,,
11442861,1506800734072,,,,,,,,0.03,0.09,0.99,-3.6,0.1,0.1,920,278,,,,,,,,,,,,,,,,,,,
11442881,1506800734100,,,,,,,,0.02,0.09,0.99,-3.6,-0.1,0.1,900,280,,,,,,,,,,,,,,,,,,,
11442903,1506800734122,,,,,12,,,0.02,0.09,0.98,-3.6,-0.3,0.1,920,282,0,0,3.309,1,35.489845,-119.546188,4.99,2.9,242.4,11,3,1.4,54,2.485,0,0.0,6.81,6.5767,55
11442922,1506800734141,,,,,,,,0.01,0.09,0.99,-3.6,-0.3,0.1,920,283,,,,,,,,,,,,,,,,,,,
11442942,1506800734161,,,,,,,,0.0,0.09,0.98,-3.6,-0.3,0.0,940,282,,,,,,,,,,,,,,,,,,,
11442962,1506800734181,,,,,,,,0.0,0.09,0.97,-3.5,-0.4,-0.1,920,285,,,,,,,,,,,,,,,,,,,
11442982,1506800734201,,,,,,,,0.01,0.08,0.96,-3.5,-0.1,-0.2,920,283,,,,,,,,,,,,,,,,,,,
11443004,1506800734223,0,214.0,,214.5,13,217.0,,0.0,0.08,0.95,-3.5,-0.2,-0.2,920,283,0,0,3.274,1,35.489845,-119.546204,4.86,2.9,242.5,11,3,1.4,54,2.485,0,0.0,6.8118,6.5783,55
11443023,1506800734242,,,,,,,,0.01,0.07,0.95,-3.5,-0.2,-0.2,920,283,,,,,,,,,,,,,,,,,,,
11443043,1506800734262,,,,,,,,0.01,0.06,0.96,-3.6,-0.1,-0.2,920,282,,,,,,,,,,,,,,,,,,,
11443063,1506800734282,,,,,,,,0.01,0.06,0.96,-3.7,-0.1,-0.1,920,280,,,,,,,,,,,,,,,,,,,
11443083,1506800734302,,,,,,,,0.01,0.07,0.96,-3.6,-0.1,0.0,920,282,,,,,,,,,,,,,,,,,,,
11443105,1506800734324,,,,,13,,,0.02,0.07,0.96,-3.6,0.0,0.0,900,280,0,0,3.274,1,35.489845,-119.546204,5.02,2.901,242.6,11,3,1.4,54,2.485,0,0.0,6.8134,6.58,55
11443124,1506800734343,,,,,,,,0.02,0.08,0.96,-3.6,-0.1,0.1,920,280,,,,,,,,,,,,,,,,,,,
11443144,1506800734363,,,,,,,,0.03,0.09,0.96,-3.6,-0.0,0.0,920,280,,,,,,,,,,,,,,,,,,,
11443164,1506800734383,,,,,,,,0.03,0.08,0.97,-3.6,0.1,0.0,920,280,,,,,,,,,,,,,,,,,,,
11443184,1506800734402,,,,,,,,0.03,0.09,0.97,-3.6,-0.3,-0.0,900,282,,,,,,,,,,,,,,,,,,,
11443206,1506800734424,0,213.5,,214.0,11,216.7,,0.02,0.09,0.97,-3.5,-0.4,-0.1,920,282,0,0,3.274,1,35.489845,-119.546204,5.03,2.901,242.6,11,3,1.4,54,2.485,0,0.0,6.8151,6.5817,55
11443225,1506800734443,,,,,,,,0.02,0.09,0.98,-3.5,-0.4,-0.1,920,283,,,,,,,,,,,,,,,,,,,
11443245,1506800734463,,,,,,,,0.01,0.09,0.97,-3.5,-0.6,-0.2,940,283,,,,,,,,,,,,,,,,,,,
11443265,1506800734483,,,,,,,,0.01,0.09,0.96,-3.5,-0.5,-0.2,920,283,,,,,,,,,,,,,,,,,,,
11443285,1506800734503,,,,,,,,0.01,0.07,0.96,-3.5,-0.2,-0.3,940,285,,,,,,,,,,,,,,,,,,,
11443307,1506800734525,,,,,14,,,0.01,0.07,0.95,-3.5,-0.4,-0.4,940,288,0,0,3.251,1,35.489845,-119.546204,4.88,2.901,242.7,11,3,1.4,54,2.485,0,0.0,6.8168,6.5833,55
11443326,1506800734544,,,,,,,,0.01,0.06,0.94,-3.4,-0.3,-0.5,940,286,,,,,,,,,,,,,,,,,,,
11443346,1506800734564,,,,,,,,0.01,0.06,0.94,-3.5,-0.2,-0.5,920,286,,,,,,,,,,,,,,,,,,,
11443366,1506800734584,,,,,,,,0.01,0.06,0.94,-3.5,-0.3,-0.4,920,285,,,,,,,,,,,,,,,,,,,
11443386,1506800734604,,,,,,,,0.01,0.05,0.96,-3.5,-0.4,-0.2,920,285,,,,,,,,,,,,,,,,,,,
11443408,1506800734626,0,213.7,,214.5,13,217.3,,0.0,0.05,0.96,-3.5,-0.2,-0.0,920,286,0,0,3.287,1,35.489845,-119.546204,5.02,2.901,242.7,11,3,1.4,54,2.485,0,0.0,6.8185,6.585,55
11443427,1506800734645,,,,,,,,0.01,0.06,0.96,-3.6,-0.2,0.0,920,286,,,,,,,,,,,,,,,,,,,
11443447,1506800734665,,,,,,,,0.01,0.06,0.98,-3.6,-0.1,0.1,920,286,,,,,,,,,,,,,,,,,,,
11443467,1506800734685,,,,,,,,0.02,0.08,0.98,-3.6,-0.0,0.1,920,285,,,,,,,,,,,,,,,,,,,
11443487,1506800734705,,,,,,,,0.03,0.1,0.98,-3.6,-0.1,0.0,920,283,,,,,,,,,,,,,,,,,,,
11443509,1506800734727,,,,,13,,,0.03,0.09,0.98,-3.6,-0.2,0.0,940,285,0,0,3.217,1,35.489845,-119.546219,5.04,2.901,242.8,11,3,1.4,54,2.485,0,0.0,6.8203,6.5867,55
11443528,1506800734746,,,,,,,,0.03,0.09,0.99,-3.6,-0.3,-0.0,920,285,,,,,,,,,,,,,,,,,,,
11443548,1506800734766,,,,,,,,0.03,0.08,0.99,-3.6,-0.4,-0.0,920,285,,,,,,,,,,,,,,,,,,,
11443568,1506800734786,,,,,,,,0.02,0.08,0.98,-3.6,-0.5,-0.0,940,285,,,,,,,,,,,,,,,,,,,
11443588,1506800734806,,,,,,,,0.02,0.08,0.99,-3.5,-0.7,-0.1,940,285,,,,,,,,,,,,,,,,,,,
11443610,1506800734828,0,213.5,,214.0,12,216.6,,0.02,0.08,0.99,-3.5,-0.7,-0.1,920,285,0,0,3.217,1,35.489845,-119.546219,5.01,2.901,242.9,11,3,1.4,54,2.485,0,0.0,6.822,6.5883,55
11443629,1506800734847,,,,,,,,0.01,0.08,0.99,-3.5,-0.7,-0.1,940,286,,,,,,,,,,,,,,,,,,,
11443649,1506800734867,,,,,,,,0.01,0.08,0.98,-3.5,-0.6,-0.2,920,286,,,,,,,,,,,,,,,,,,,
11443669,1506800734887,,,,,,,,0.01,0.07,0.98,-3.4,-0.3,-0.4,940,288,,,,,,,,,,,,,,,,,,,
11443689,1506800734909,,,,,,,,0.01,0.07,0.97,-3.4,-0.4,-0.4,940,288,,,,,,,,,,,,,,,,,,,
11443711,1506800734931,,,,,15,,,0.01,0.06,0.96,-3.4,-0.5,-0.4,940,288,0,0,3.206,1,35.489845,-119.546219,4.87,2.901,242.9,11,3,1.4,54,2.485,0,0.0,6.8237,6.59,55
11443730,1506800734950,,,,,,,,0.01,0.06,0.96,-3.4,-0.4,-0.4,940,288,,,,,,,,,,,,,,,,,,,
11443750,1506800734970,,,,,,,,0.01,0.07,0.96,-3.4,-0.6,-0.4,940,288,,,,,,,,,,,,,,,,,,,
11443770,1506800734990,,,,,,,,0.01,0.06,0.97,-3.4,-0.6,-0.4,960,288,,,,,,,,,,,,,,,,,,,
11443790,1506800735002,,,,,,,,0.0,0.05,0.96,-3.4,-0.6,-0.3,920,289,,,,,,,,,,,,,,,,,,,
11443812,1506800735024,0,213.5,-0.2,214.4,13,217.1,13.84,0.01,0.06,0.97,-3.4,-0.6,-0.2,960,291,0,0,3.275,1,35.489845,-119.546219,5.12,2.902,243.0,11,3,1.4,54,2.485,0,0.0,6.8252,6.5917,55
11443831,1506800735043,,,,,,,,0.01,0.06,0.98,-3.4,-0.5,-0.1,940,291,,,,,,,,,,,,,,,,,,,
11443851,1506800735063,,,,,,,,0.01,0.07,0.98,-3.4,-0.4,0.0,940,291,,,,,,,,,,,,,,,,,,,
11443871,1506800735083,,,,,,,,0.02,0.07,1.0,-3.4,-0.4,0.1,940,289,,,,,,,,,,,,,,,,,,,
11443891,1506800735105,,,,,,,,0.02,0.08,1.0,-3.4,-0.3,0.1,940,289,,,,,,,,,,,,,,,,,,,
11443913,1506800735127,,,,,15,,,0.02,0.08,0.99,-3.4,-0.3,0.1,940,289,0,0,3.322,1,35.489845,-119.546219,4.93,2.902,243.0,11,3,1.4,54,2.485,0,0.0,6.827,6.5933,55
11443932,1506800735146,,,,,,,,0.03,0.08,0.99,-3.4,-0.3,0.2,940,291,,,,,,,,,,,,,,,,,,,
11443952,1506800735166,,,,,,,,0.03,0.09,0.99,-3.4,-0.5,0.2,940,292,,,,,,,,,,,,,,,,,,,
11443972,1506800735192,,,,,,,,0.02,0.09,1.0,-3.4,-0.6,0.2,960,292,,,,,,,,,,,,,,,,,,,
11443992,1506800735212,,,,,,,,0.02,0.08,1.01,-3.4,-0.6,0.2,940,294,,,,,,,,,,,,,,,,,,,
11444014,1506800735234,0,213.9,,214.6,13,217.1,,0.02,0.07,1.01,-3.4,-0.6,0.1,960,295,0,0,3.241,1,35.489845,-119.546226,5.06,2.902,243.1,11,3,1.4,54,2.485,0,0.0,6.8288,6.595,55
11444033,1506800735253,,,,,,,,0.01,0.07,1.02,-3.4,-0.8,0.2,960,297,,,,,,,,,,,,,,,,,,,
11444053,1506800735273,,,,,,,,0.01,0.07,1.03,-3.3,-0.9,0.1,960,295,,,,,,,,,,,,,,,,,,,
11444073,1506800735292,,,,,,,,0.01,0.06,1.01,-3.3,-0.9,0.1,960,297,,,,,,,,,,,,,,,,,,,
11444093,1506800735312,,,,,,,,0.0,0.07,1.01,-3.3,-0.9,0.1,960,295,,,,,,,,,,,,,,,,,,,
11444115,1506800735334,,,,,12,,,0.0,0.07,0.99,-3.3,-0.9,0.0,960,295,0,0,3.243,1,35.489845,-119.546226,5.07,2.902,243.1,11,3,1.4,54,2.485,0,0.0,6.8305,6.5967,55
11444134,1506800735353,,,,,,,,-0.0,0.08,0.99,-3.2,-0.9,-0.0,960,295,,,,,,,,,,,,,,,,,,,
11444154,1506800735373,,,,,,,,-0.01,0.08,0.99,-3.2,-0.7,-0.0,960,294,,,,,,,,,,,,,,,,,,,
11444174,1506800735393,,,,,,,,-0.01,0.09,0.97,-3.2,-0.7,0.0,960,295,,,,,,,,,,,,,,,,,,,
11444194,1506800735413,,,,,,,,-0.01,0.09,0.97,-3.2,-0.6,-0.0,960,297,,,,,,,,,,,,,,,,,,,
11444216,1506800735435,0,212.7,,213.5,14,216.1,,-0.01,0.09,0.96,-3.2,-0.5,-0.1,980,298,0,0,3.254,1,35.489845,-119.546226,5.22,2.902,243.1,11,3,1.4,54,2.485,0,0.0,6.8322,6.5983,55
11444235,1506800735454,,,,,,,,-0.01,0.1,0.96,-3.1,-0.5,-0.1,980,300,,,,,,,,,,,,,,,,,,,
11444255,1506800735474,,,,,,,,-0.01,0.1,0.96,-3.1,-0.4,-0.1,980,298,,,,,,,,,,,,,,,,,,,
11444275,1506800735494,,,,,,,,-0.01,0.1,0.96,-3.1,-0.4,-0.2,980,300,,,,,,,,,,,,,,,,,,,
11444295,1506800735514,,,,,,,,-0.01,0.1,0.95,-3.1,-0.4,-0.3,960,300,,,,,,,,,,,,,,,,,,,
11444317,1506800735536,,,,,15,,,-0.01,0.1,0.95,-3.0,-0.2,-0.4,980,302,0,0,3.267,1,35.489845,-119.546226,5.14,2.902,243.2,11,3,1.4,54,2.485,0,0.0,6.8338,6.6,55
11444336,1506800735555,,,,,,,,-0.01,0.1,0.93,-2.9,-0.1,-0.4,980,300,,,,,,,,,,,,,,,,,,,
11444356,1506800735575,,,,,,,,-0.01,0.1,0.93,-2.9,-0.0,-0.4,980,300,,,,,,,,,,,,,,,,,,,
11444376,1506800735595,,,,,,,,-0.01,0.11,0.92,-2.9,-0.0,-0.4,980,300,,,,,,,,,,,,,,,,,,,
11444396,1506800735615,,,,,,,,-0.0,0.11,0.91,-2.8,0.1,-0.5,980,300,,,,,,,,,,,,,,,,,,,
11444418,1506800735637,0,213.8,,213.4,14,215.8,,-0.0,0.11,0.9,-2.8,0.2,-0.5,980,300,0,0,3.256,1,35.489845,-119.546226,5.17,2.902,243.3,11,3,1.4,54,2.485,0,0.0,6.8355,6.6017,55
11444437,1506800735656,,,,,,,,-0.01,0.1,0.91,-2.7,0.3,-0.5,980,302,,,,,,,,,,,,,,,,,,,
11444457,1506800735676,,,,,,,,-0.0,0.1,0.9,-2.6,0.4,-0.5,980,300,,,,,,,,,,,,,,,,,,,
11444477,1506800735696,,,,,,,,-0.0,0.09,0.89,-2.6,0.4,-0.6,980,300,,,,,,,,,,,,,,,,,,,
11444497,1506800735716,,,,,,,,0.0,0.09,0.88,-2.5,0.3,-0.6,980,298,,,,,,,,,,,,,,,,,,,
11444519,1506800735738,,,,,14,,,0.01,0.09,0.87,-2.5,0.4,-0.6,980,300,0,0,3.256,1,35.489845,-119.546242,5.3,2.903,243.3,11,3,1.4,54,2.485,0,0.0,6.8373,6.6033,55
11444538,1506800735757,,,,,,,,0.01,0.08,0.86,-2.4,0.4,-0.5,980,300,,,,,,,,,,,,,,,,,,,
11444558,1506800735777,,,,,,,,0.01,0.08,0.85,-2.3,0.4,-0.5,980,302,,,,,,,,,,,,,,,,,,,
11444578,1506800735797,,,,,,,,0.01,0.08,0.85,-2.2,0.4,-0.5,980,300,,,,,,,,,,,,,,,,,,,
11444598,1506800735817,,,,,,,,0.01,0.07,0.84,-2.1,0.5,-0.5,980,302,,,,,,,,,,,,,,,,,,,
11444620,1506800735839,0,213.1,,214.1,15,216.7,,0.01,0.07,0.83,-2.0,0.6,-0.5,980,302,0,0,3.256,1,35.489845,-119.546242,5.3,2.903,243.4,11,3,1.4,54,2.485,0,0.0,6.839,6.605,55
11444639,1506800735858,,,,,,,,0.01,0.06,0.83,-1.9,0.7,-0.5,980,302,,,,,,,,,,,,,,,,,,,
11444659,1506800735878,,,,,,,,0.01,0.06,0.83,-1.9,0.7,-0.4,980,302,,,,,,,,,,,,,,,,,,,
11444679,1506800735898,,,,,,,,0.01,0.07,0.83,-1.8,0.7,-0.4,980,303,,,,,,,,,,,,,,,,,,,
11444699,1506800735918,,,,,,,,0.01,0.07,0.83,-1.6,0.6,-0.5,1000,303,,,,,,,,,,,,,,,,,,,
11444721,1506800735940,,,,,14,,,0.01,0.07,0.82,-1.5,0.7,-0.5,980,303,0,0,3.234,1,35.489845,-119.546242,5.43,2.903,243.4,11,3,1.4,54,2.485,0,0.0,6.8407,6.6067,55
11444740,1506800735959,,,,,,,,0.01,0.07,0.82,-1.5,0.7,-0.5,980,303,,,,,,,,,,,,,,,,,,,
11444760,1506800735979,,,,,,,,0.01,0.07,0.83,-1.4,0.7,-0.5,980,303,,,,,,,,,,,,,,,,,,,
11444780,1506800735991,,,,,,,,0.01,0.08,0.83,-1.3,0.6,-0.5,1000,303,,,,,,,,,,,,,,,,,,,
11444800,1506800736011,,,,,,,,0.01,0.07,0.83,-1.1,0.7,-0.5,980,303,,,,,,,,,,,,,,,,,,,
11444822,1506800736033,0,212.8,-0.9,213.7,15,216.4,14.02,0.01,0.07,0.84,-1.0,0.7,-0.5,1000,303,0,0,3.234,1,35.489845,-119.546242,5.25,2.903,243.5,11,3,1.4,54,2.485,0,0.0,6.8422,6.6083,55
11444841,1506800736052,,,,,,,,0.01,0.07,0.85,-1.0,0.7,-0.4,980,305,,,,,,,,,,,,,,,,,,,
11444861,1506800736072,,,,,,,,0.0,0.08,0.84,-1.0,0.6,-0.4,1000,305,,,,,,,,,,,,,,,,,,,
11444881,1506800736098,,,,,,,,-0.0,0.07,0.85,-1.0,0.7,-0.4,1000,305,,,,,,,,,,,,,,,,,,,
11444901,1506800736118,,,,,,,,-0.0,0.08,0.85,-0.9,0.6,-0.3,1000,306,,,,,,,,,,,,,,,,,,,
11444923,1506800736140,,,,,14,,,-0.01,0.08,0.86,-0.9,0.7,-0.3,1000,306,0,0,3.289,1,35.489845,-119.546242,5.4,2.903,243.5,11,3,1.4,54,2.485,0,0.0,6.844,6.61,55
11444942,1506800736159,,,,,,,,-0.01,0.07,0.87,-0.9,0.7,-0.2,1000,306,,,,,,,,,,,,,,,,,,,
11444962,1506800736179,,,,,,,,-0.02,0.08,0.86,-0.9,0.7,-0.2,1000,306,,,,,,,,,,,,,,,,,,,
11444982,1506800736201,,,,,,,,-0.03,0.06,0.87,-0.9,0.8,-0.2,1000,306,,,,,,,,,,,,,,,,,,,
11445002,1506800736221,,,,,,,,-0.03,0.06,0.87,-0.9,0.7,-0.1,1000,308,,,,,,,,,,,,,,,,,,,
11445024,1506800736243,0,212.7,,213.3,15,215.8,,-0.03,0.06,0.88,-0.9,0.6,-0.0,1000,308,0,0,3.236,1,35.489845,-119.546257,5.4,2.903,243.6,11,3,1.4,54,2.485,0,0.0,6.8458,6.6117,55
11445043,1506800736262,,,,,,,,-0.04,0.07,0.89,-0.9,0.3,0.0,1000,308,,,,,,,,,,,,,,,,,,,
11445063,1506800736282,,,,,,,,-0.03,0.07,0.89,-0.9,0.0,-0.0,1000,309,,,,,,,,,,,,,,,,,,,
11445083,1506800736301,,,,,,,,-0.03,0.07,0.9,-0.9,-0.3,-0.1,1000,308,,,,,,,,,,,,,,,,,,,
11445103,1506800736321,,,,,,,,-0.03,0.07,0.91,-0.9,-0.5,-0.1,1000,308,,,,,,,,,,,,,,,,,,,
11445125,1506800736343,,,,,16,,,-0.03,0.08,0.92,-1.0,-0.7,-0.1,1000,309,0,0,3.236,1,35.489845,-119.546257,5.35,2.903,243.6,11,3,1.4,54,2.485,0,0.0,6.8475,6.6133,55
11445144,1506800736362,,,,,,,,-0.02,0.08,0.93,-1.1,-0.9,-0.0,1000,308,,,,,,,,,,,,,,,,,,,
11445164,1506800736382,,,,,,,,-0.01,0.08,0.94,-1.1,-1.1,-0.0,1000,308,,,,,,,,,,,,,,,,,,,
11445184,1506800736402,,,,,,,,-0.01,0.07,0.96,-1.2,-1.1,-0.0,1000,308,,,,,,,,,,,,,,,,,,,
11445204,1506800736422,,,,,,,,0.0,0.07,0.95,-1.3,-1.2,0.0,1000,309,,,,,,,,,,,,,,,,,,,
11445226,1506800736444,0,212.3,,212.5,14,215.8,,0.0,0.07,0.96,-1.4,-1.3,0.1,1000,309,0,0,3.257,1,35.489845,-119.546257,5.35,2.904,243.7,11,3,1.4,54,2.485,0,0.0,6.8492,6.615,55
11445245,1506800736463,,,,,,,,0.01,0.06,0.97,-1.5,-1.2,0.1,1020,311,,,,,,,,,,,,,,,,,,,
11445265,1506800736483,,,,,,,,0.01,0.07,0.98,-1.6,-1.2,0.1,1000,311,,,,,,,,,,,,,,,,,,,
11445285,1506800736503,,,,,,,,0.02,0.07,0.99,-1.7,-1.1,0.1,1020,309,,,,,,,,,,,,,,,,,,,
11445305,1506800736523,,,,,,,,0.02,0.07,1.0,-1.8,-1.1,0.1,1000,311,,,,,,,,,,,,,,,,,,,
11445327,1506800736545,,,,,15,,,0.02,0.08,1.03,-1.9,-1.0,0.1,1000,309,0,0,3.236,1,35.489845,-119.546257,5.5,2.904,243.7,11,3,1.4,54,2.485,0,0.0,6.8509,6.6167,55
11445346,1506800736564,,,,,,,,0.02,0.09,1.04,-2.1,-0.9,0.1,1000,308,,,,,,,,,,,,,,,,,,,
11445366,1506800736584,,,,,,,,0.02,0.09,1.05,-2.2,-0.8,0.1,1020,308,,,,,,,,,,,,,,,,,,,
11445386,1506800736606,,,,,,,,0.02,0.09,1.05,-2.3,-0.8,0.0,1000,308,,,,,,,,,,,,,,,,,,,
11445406,1506800736626,,,,,,,,0.02,0.09,1.04,-2.4,-0.8,-0.0,1020,308,,,,,,,,,,,,,,,,,,,
11445428,1506800736648,0,212.6,,213.5,16,216.4,,0.02,0.08,1.05,-2.5,-0.7,-0.0,1000,308,0,0,3.257,1,35.489845,-119.546257,5.36,2.904,243.7,11,3,1.4,54,2.485,0,0.0,6.8526,6.6183,55
11445447,1506800736667,,,,,,,,0.01,0.08,1.06,-2.6,-0.8,-0.1,1000,308,,,,,,,,,,,,,,,,,,,
11445467,1506800736687,,,,,,,,0.02,0.08,1.05,-2.7,-0.8,-0.2,1020,308,,,,,,,,,,,,,,,,,,,
11445487,1506800736705,,,,,,,,0.02,0.07,1.05,-2.8,-0.9,-0.2,1000,309,,,,,,,,,,,,,,,,,,,
11445507,1506800736725,,,,,,,,0.02,0.06,1.05,-2.9,-0.7,-0.3,1000,309,,,,,,,,,,,,,,,,,,,
