"Interval"|"ms"|0|0|1,"Utc"|"ms"|0|0|1,"FuelLevel"|"F"|0|100|5,"OilTemp"|"F"|0.0|300.0|5,"CoolantPressPSI"|"PSI"|0.0|20.0|1,"Coolant"|"F"|0.0|300.0|5,"OilPress"|"PSI"|0|150|10,"EngineTemp"|"F"|0.0|300.0|5,"Battery"|"Volts"|0.0|20.0|1,"AccelX"|"G"|-3.0|3.0|50,"AccelY"|"G"|-3.0|3.0|50,"AccelZ"|"G"|-3.0|3.0|50,"Yaw"|"Deg/Sec"|-300.0|300.0|50,"Pitch"|"Deg/Sec"|-300.0|300.0|50,"Roll"|"Deg/Sec"|-300.0|300.0|50,"RPM"|""|0|10000|50,"Driveshaft"|"RPM"|0|5000|50,"GPIO1"|""|0|1|10,"GPIO2"|""|0|1|10,"GearRatio"|""|-5.0|5.0|10,"Gear"|""|-1|5|10,"Latitude"|"Degrees"|-180.0|180.0|10,"Longitude"|"Degrees"|-180.0|180.0|10,"Speed"|"mph"|0.0|150.0|10,"Distance"|"mi"|0.0|0.0|10,"Altitude"|"ft"|0.0|4000.0|10,"GPSSats"|""|0|20|10,"GPSQual"|""|0|5|10,"GPSDOP"|""|0.0|20.0|10,"LapCount"|""|0|0|10,"LapTime"|"Min"|0.0|0.0|10,"Sector"|""|0|0|10,"SectorTime"|"Min"|0.0|0.0|10,"PredTime"|"Min"|0.0|0.0|10,"ElapsedTime"|"Min"|0.0|0.0|10,"CurrentLap"|""|0|0|10
45373,1506819497445,,,,,0,,,0.03,0.06,1.0,-3.0,-0.4,-0.1,0,0,1,1,0.0,0,35.489841,-119.546112,0.0,0.0,295.8,10,3,1.8,0,0.0,-1,0.0,0.0,0.0,0
45213,1506819497286,,,,,,,,0.03,0.06,1.0,-3.0,-0.6,-0.1,0,0,,,,,,,,,,,,,,,,,,,
45233,1506819497306,,,,,,,,0.03,0.06,1.0,-3.0,-0.6,-0.1,0,0,,,,,,,,,,,,,,,,,,,
45253,1506819497326,,,,,,,,0.03,0.06,0.99,-3.0,-0.2,-0.1,0,0,,,,,,,,,,,,,,,,,,,
45273,1506819497346,0,145.3,,160.9,0,157.8,,0.03,0.06,0.99,-3.0,-0.3,-0.1,0,0,1,1,0.0,0,35.489841,-119.546112,0.0,0.0,295.8,10,3,1.8,0,0.0,-1,0.0,0.0,0.0,0
45293,1506819497366,,,,,,,,0.03,0.06,1.0,-3.0,-0.3,-0.1,0,0,,,,,,,,,,,,,,,,,,,
45313,1506819497386,,,,,,,,0.03,0.06,1.0,-3.0,-0.3,-0.1,0,0,,,,,,,,,,,,,,,,,,,
45333,1506819497405,,,,,,,,0.03,0.06,1.0,-3.0,-0.4,-0.1,0,0,,,,,,,,,,,,,,,,,,,
45353,1506819497425,,,,,,,,0.03,0.06,1.0,-3.0,-0.4,-0.1,0,0,,,,,,,,,,,,,,,,,,,
45373,1506819497445,,,,,0,,,0.03,0.06,1.0,-3.0,-0.4,-0.1,0,0,1,1,0.0,0,35.489841,-119.546112,0.0,0.0,295.8,10,3,1.8,0,0.0,-1,0.0,0.0,0.0,0
45393,1506819497465,,,,,,,,0.03,0.06,1.0,-3.0,-0.4,-0.1,0,0,,,,,,,,,,,,,,,,,,,
45413,1506819497485,,,,,,,,0.03,0.06,1.0,-3.0,-0.5,-0.1,0,0,,,,,,,,,,,,,,,,,,,
45433,1506819497501,,,,,,,,0.03,0.06,1.0,-3.0,-0.5,-0.1,0,0,,,,,,,,,,,,,,,,,,,
45453,1506819497521,,,,,,,,0.03,0.06,1.0,-3.0,-0.5,-0.1,0,0,,,,,,,,,,,,,,,,,,,
45473,1506819497541,0,144.7,,160.4,0,157.4,,0.03,0.06,1.0,-3.0,-0.5,-0.1,0,0,1,1,0.0,0,35.489841,-119.546112,0.0,0.0,295.8,10,3,1.8,0,0.0,-1,0.0,0.0,0.0,0
45493,1506819497561,,,,,,,,0.03,0.06,1.0,-3.0,-0.5,-0.1,0,0,,,,,,,,,,,,,,,,,,,
45513,1506819497581,,,,,,,,0.03,0.06,1.0,-3.0,-0.5,-0.1,0,0,,,,,,,,,,,,,,,,,,,
45533,1506819497607,,,,,,,,0.03,0.06,1.0,-3.0,-0.5,-0.1,0,0,,,,,,,,,,,,,,,,,,,
45553,1506819497627,,,,,,,,0.03,0.06,1.0,-3.0,-0.5,-0.1,0,0,,,,,,,,,,,,,,,,,,,
45573,1506819497647,,,,,0,,,0.03,0.06,1.0,-3.0,-0.5,-0.1,0,0,1,1,0.0,0,35.489841,-119.546112,0.0,0.0,295.8,10,3,1.8,0,0.0,-1,0.0,0.0,0.0,0
45593,1506819497667,,,,,,,,0.03,0.06,1.0,-3.0,-0.5,-0.1,0,0,,,,,,,,,,,,,,,,,,,
45613,1506819497687,,,,,,,,0.03,0.06,1.0,-3.0,-0.5,-0.1,0,0,,,,,,,,,,,,,,,,,,,
45633,1506819497707,,,,,,,,0.02,0.06,1.0,-3.0,-0.6,-0.1,0,0,,,,,,,,,,,,,,,,,,,
45653,1506819497727,,,,,,,,0.02,0.06,1.0,-3.0,-0.5,-0.1,0,0,,,,,,,,,,,,,,,,,,,
45673,1506819497747,0,145.3,,161.2,0,158.2,,0.02,0.06,1.0,-3.0,-0.5,-0.1,0,0,1,1,0.0,0,35.489841,-119.546112,0.0,0.0,295.8,10,3,1.8,0,0.0,-1,0.0,0.0,0.0,0
45693,1506819497767,,,,,,,,0.02,0.06,1.0,-3.0,-0.5,-0.1,0,0,,,,,,,,,,,,,,,,,,,
45713,1506819497787,,,,,,,,0.02,0.06,1.0,-3.0,-0.5,-0.1,0,0,,,,,,,,,,,,,,,,,,,
45733,1506819497807,,,,,,,,0.03,0.06,1.0,-3.0,-0.5,-0.1,0,0,,,,,,,,,,,,,,,,,,,
45753,1506819497827,,,,,,,,0.03,0.06,1.0,-3.0,-0.5,-0.1,0,0,,,,,,,,,,,,,,,,,,,
45773,1506819497847,,,,,0,,,0.03,0.06,1.0,-3.0,-0.5,-0.1,0,0,1,1,0.0,0,35.489841,-119.546112,0.0,0.0,295.8,10,3,1.8,0,0.0,-1,0.0,0.0,0.0,0
45793,1506819497867,,,,,,,,0.03,0.06,1.0,-3.0,-0.5,-0.1,0,0,,,,,,,,,,,,,,,,,,,
45813,1506819497887,,,,,,,,0.02,0.06,1.0,-3.0,-0.5,-0.1,0,0,,,,,,,,,,,,,,,,,,,
45833,1506819497907,,,,,,,,0.03,0.06,1.0,-3.0,-0.5,-0.1,0,0,,,,,,,,,,,,,,,,,,,
45853,1506819497927,,,,,,,,0.02,0.06,1.0,-3.0,-0.6,-0.1,0,0,,,,,,,,,,,,,,,,,,,
45873,1506819497947,0,145.5,,161.3,0,158.2,,0.03,0.06,1.0,-3.0,-0.6,-0.1,0,0,1,1,0.0,0,35.489841,-119.546112,0.0,0.0,295.8,10,3,1.8,0,0.0,-1,0.0,0.0,0.0,0
45893,1506819497967,,,,,,,,0.03,0.06,1.0,-3.0,-0.6,-0.1,0,0,,,,,,,,,,,,,,,,,,,
45913,1506819497987,,,,,,,,0.02,0.06,0.99,-3.0,-0.6,-0.1,0,0,,,,,,,,,,,,,,,,,,,
45933,1506819498001,,,,,,,,0.03,0.06,0.99,-3.0,-0.6,-0.1,0,0,,,,,,,,,,,,,,,,,,,
45953,1506819498021,,,,,,,,0.03,0.06,1.0,-3.0,-0.6,-0.1,0,0,,,,,,,,,,,,,,,,,,,
45973,1506819498041,,,,,0,,,0.03,0.06,1.0,-3.0,-0.6,-0.1,0,0,1,1,0.0,0,35.489841,-119.546112,0.0,0.0,295.8,10,3,1.8,0,0.0,-1,0.0,0.0,0.0,0
45993,1506819498061,,,,,,,,0.02,0.06,1.0,-3.0,-0.6,-0.1,0,0,,,,,,,,,,,,,,,,,,,
46013,1506819498081,,,,,,,,0.02,0.06,1.0,-3.0,-0.6,-0.1,0,0,,,,,,,,,,,,,,,,,,,
46033,1506819498107,,,,,,,,0.02,0.06,1.0,-3.0,-0.6,-0.1,0,0,,,,,,,,,,,,,,,,,,,
46053,1506819498127,,,,,,,,0.02,0.06,1.0,-3.0,-0.6,-0.1,0,0,,,,,,,,,,,,,,,,,,,
46073,1506819498147,0,145.5,-0.5,161.2,0,158.0,13.16,0.02,0.06,1.0,-3.0,-0.6,-0.1,0,0,1,1,0.0,0,35.489841,-119.546112,0.0,0.0,295.8,10,3,1.8,0,0.0,-1,0.0,0.0,0.0,0
46093,1506819498167,,,,,,,,0.02,0.06,1.0,-3.0,-0.6,-0.2,0,0,,,,,,,,,,,,,,,,,,,
46113,1506819498187,,,,,,,,0.02,0.06,1.0,-3.0,-0.6,-0.2,0,0,,,,,,,,,,,,,,,,,,,
46133,1506819498207,,,,,,,,0.03,0.06,1.0,-3.0,-0.6,-0.2,0,0,,,,,,,,,,,,,,,,,,,
46153,1506819498227,,,,,,,,0.03,0.06,1.0,-3.0,-0.6,-0.1,0,0,,,,,,,,,,,,,,,,,,,
46173,1506819498247,,,,,0,,,0.03,0.06,1.0,-3.0,-0.6,-0.1,0,0,1,1,0.0,0,35.489841,-119.546112,0.0,0.0,295.8,10,3,1.8,0,0.0,-1,0.0,0.0,0.0,0
46193,1506819498267,,,,,,,,0.03,0.06,1.0,-3.0,-0.6,-0.1,0,0,,,,,,,,,,,,,,,,,,,
46213,1506819498287,,,,,,,,0.03,0.06,1.0,-3.0,-0.6,-0.1,0,0,,,,,,,,,,,,,,,,,,,
46233,1506819498307,,,,,,,,0.03,0.06,1.0,-3.0,-0.6,-0.1,0,0,,,,,,,,,,,,,,,,,,,
46253,1506819498327,,,,,,,,0.03,0.06,1.0,-3.0,-0.5,-0.1,0,0,,,,,,,,,,,,,,,,,,,
46273,1506819498347,0,145.5,,161.3,0,158.1,,0.03,0.06,1.0,-3.0,-0.6,-0.1,0,0,1,1,0.0,0,35.489841,-119.546112,0.0,0.0,295.8,10,3,1.8,0,0.0,-1,0.0,0.0,0.0,0
46293,1506819498367,,,,,,,,0.03,0.06,1.0,-3.0,-0.6,-0.1,0,0,,,,,,,,,,,,,,,,,,,
46313,1506819498387,,,,,,,,0.03,0.06,1.0,-3.0,-0.6,-0.1,0,0,,,,,,,,,,,,,,,,,,,
46333,1506819498406,,,,,,,,0.02,0.06,1.0,-3.0,-0.5,-0.1,0,0,,,,,,,,,,,,,,,,,,,
46353,1506819498426,,,,,,,,0.02,0.06,1.0,-3.0,-0.5,-0.1,0,0,,,,,,,,,,,,,,,,,,,
46373,1506819498446,,,,,0,,,0.02,0.06,1.0,-3.0,-0.5,-0.1,0,0,1,1,0.0,0,35.489841,-119.546112,0.0,0.0,295.8,10,3,1.8,0,0.0,-1,0.0,0.0,0.0,0
46393,1506819498466,,,,,,,,0.02,0.06,1.0,-3.0,-0.5,-0.1,0,0,,,,,,,,,,,,,,,,,,,
46413,1506819498486,,,,,,,,0.02,0.06,1.0,-3.0,-0.5,-0.1,0,0,,,,,,,,,,,,,,,,,,,
46433,1506819498506,,,,,,,,0.02,0.06,1.0,-3.0,-0.5,-0.1,0,0,,,,,,,,,,,,,,,,,,,
46453,1506819498526,,,,,,,,0.02,0.06,1.0,-3.0,-0.5,-0.1,0,0,,,,,,,,,,,,,,,,,,,
46473,1506819498546,0,145.6,,161.3,0,158.1,,0.02,0.06,1.0,-3.0,-0.5,-0.1,0,0,1,1,0.0,0,35.489841,-119.546112,0.0,0.0,295.8,10,3,1.8,0,0.0,-1,0.0,0.0,0.0,0
46493,1506819498566,,,,,,,,0.02,0.06,1.0,-3.0,-0.5,-0.1,0,0,,,,,,,,,,,,,,,,,,,
46513,1506819498504,,,,,,,,0.02,0.06,1.0,-3.0,-0.5,-0.1,0,0,,,,,,,,,,,,,,,,,,,
46533,1506819498604,,,,,,,,0.02,0.06,1.0,-3.0,-0.5,-0.1,0,0,,,,,,,,,,,,,,,,,,,
46553,1506819498624,,,,,,,,0.02,0.06,1.0,-3.0,-0.5,-0.1,0,0,,,,,,,,,,,,,,,,,,,
46573,1506819498644,,,,,0,,,0.02,0.06,1.0,-3.0,-0.5,-0.1,0,0,1,1,0.0,0,35.489841,-119.546112,0.0,0.0,295.8,10,3,1.8,0,0.0,-1,0.0,0.0,0.0,0
46593,1506819498664,,,,,,,,0.02,0.06,1.0,-3.0,-0.6,-0.1,0,0,,,,,,,,,,,,,,,,,,,
46613,1506819498684,,,,,,,,0.02,0.06,1.0,-3.0,-0.5,-0.2,0,0,,,,,,,,,,,,,,,,,,,
46633,1506819498704,,,,,,,,0.02,0.06,1.0,-3.0,-0.5,-0.2,0,0,,,,,,,,,,,,,,,,,,,
46653,1506819498724,,,,,,,,0.02,0.06,0.99,-3.0,-0.5,-0.1,0,0,,,,,,,,,,,,,,,,,,,
46673,1506819498744,0,145.5,,161.2,0,157.9,,0.02,0.06,1.0,-3.0,-0.5,-0.2,0,0,1,1,0.0,0,35.489841,-119.546112,0.0,0.0,295.8,10,3,1.8,0,0.0,-1,0.0,0.0,0.0,0
46693,1506819498764,,,,,,,,0.03,0.06,0.99,-3.0,-0.5,-0.2,0,0,,,,,,,,,,,,,,,,,,,
46713,1506819498784,,,,,,,,0.02,0.06,0.99,-3.0,-0.5,-0.2,0,0,,,,,,,,,,,,,,,,,,,
46733,1506819498804,,,,,,,,0.02,0.06,0.99,-3.0,-0.5,-0.2,0,0,,,,,,,,,,,,,,,,,,,
46753,1506819498824,,,,,,,,0.02,0.06,0.99,-3.0,-0.5,-0.1,0,0,,,,,,,,,,,,,,,,,,,
46773,1506819498844,,,,,0,,,0.02,0.06,0.99,-3.0,-0.5,-0.1,0,0,1,1,0.0,0,35.489841,-119.546112,0.0,0.0,295.8,10,3,1.8,0,0.0,-1,0.0,0.0,0.0,0
46793,1506819498864,,,,,,,,0.02,0.06,0.99,-3.0,-0.5,-0.1,0,0,,,,,,,,,,,,,,,,,,,
46813,1506819498884,,,,,,,,0.02,0.06,0.99,-3.0,-0.5,-0.1,0,0,,,,,,,,,,,,,,,,,,,
46833,1506819498906,,,,,,,,0.02,0.06,0.99,-3.0,-0.5,-0.1,0,0,,,,,,,,,,,,,,,,,,,
46853,1506819498926,,,,,,,,0.03,0.06,0.99,-3.0,-0.5,-0.1,0,0,,,,,,,,,,,,,,,,,,,
46873,1506819498946,0,144.7,,160.6,0,157.7,,0.03,0.06,0.99,-3.0,-0.5,-0.1,0,0,1,1,0.0,0,35.489841,-119.546112,0.0,0.0,295.8,10,3,1.8,0,0.0,-1,0.0,0.0,0.0,0
46893,1506819498966,,,,,,,,0.03,0.06,1.0,-3.0,-0.5,-0.2,0,0,,,,,,,,,,,,,,,,,,,
46913,1506819498986,,,,,,,,0.03,0.06,1.0,-3.0,-0.5,-0.2,0,0,,,,,,,,,,,,,,,,,,,
46933,1506819499000,,,,,,,,0.03,0.06,1.0,-3.0,-0.5,-0.1,0,0,,,,,,,,,,,,,,,,,,,
46953,1506819499020,,,,,,,,0.02,0.06,1.0,-3.0,-0.5,-0.2,0,0,,,,,,,,,,,,,,,,,,,
46973,1506819499040,,,,,0,,,0.02,0.06,1.0,-3.0,-0.5,-0.2,0,0,1,1,0.0,0,35.489841,-119.546112,0.0,0.0,295.8,10,3,1.8,0,0.0,-1,0.0,0.0,0.0,0
46993,1506819499060,,,,,,,,0.03,0.06,1.0,-3.0,-0.6,-0.2,0,0,,,,,,,,,,,,,,,,,,,
47013,1506819499080,,,,,,,,0.03,0.06,0.99,-3.0,-0.6,-0.2,0,0,,,,,,,,,,,,,,,,,,,
47033,1506819499106,,,,,,,,0.03,0.06,0.99,-3.0,-0.6,-0.2,0,0,,,,,,,,,,,,,,,,,,,
47053,1506819499126,,,,,,,,0.03,0.06,0.99,-3.0,-0.6,-0.2,0,0,,,,,,,,,,,,,,,,,,,
47073,1506819499146,0,145.4,-0.5,161.2,0,158.2,13.15,0.03,0.06,0.99,-3.0,-0.6,-0.1,0,0,1,1,0.0,0,35.489841,-119.546112,0.0,0.0,295.8,10,3,1.8,0,0.0,-1,0.0,0.0,0.0,0
47093,1506819499166,,,,,,,,0.03,0.06,1.0,-3.0,-0.6,-0.1,0,0,,,,,,,,,,,,,,,,,,,
47113,1506819499186,,,,,,,,0.03,0.06,1.0,-3.0,-0.6,-0.1,0,0,,,,,,,,,,,,,,,,,,,
47133,1506819499206,,,,,,,,0.03,0.06,1.0,-3.0,-0.5,-0.1,0,0,,,,,,,,,,,,,,,,,,,
47153,1506819499226,,,,,,,,0.02,0.06,0.99,-3.0,-0.5,-0.1,0,0,,,,,,,,,,,,,,,,,,,
47173,1506819499246,,,,,0,,,0.02,0.06,0.99,-3.0,-0.5,-0.1,0,0,1,1,0.0,0,35.489841,-119.546112,0.0,0.0,295.8,10,3,1.8,0,0.0,-1,0.0,0.0,0.0,0
47193,1506819499266,,,,,,,,0.02,0.06,1.0,-3.0,-0.5,-0.1,0,0,,,,,,,,,,,,,,,,,,,
47213,1506819499286,,,,,,,,0.02,0.06,0.99,-3.0,-0.6,-0.1,0,0,,,,,,,,,,,,,,,,,,,
47233,1506819499306,,,,,,,,0.02,0.06,0.99,-3.0,-0.5,-0.1,0,0,,,,,,,,,,,,,,,,,,,
47253,1506819499326,,,,,,,,0.02,0.06,0.99,-3.0,-0.5,-0.1,0,0,,,,,,,,,,,,,,,,,,,
47273,1506819499346,0,144.6,,160.4,0,157.4,,0.02,0.06,0.99,-3.0,-0.5,-0.1,0,0,1,1,0.0,0,35.489841,-119.546112,0.0,0.0,295.8,10,3,1.8,0,0.0,-1,0.0,0.0,0.0,0
47293,1506819499366,,,,,,,,0.02,0.06,0.99,-3.0,-0.5,-0.1,0,0,,,,,,,,,,,,,,,,,,,
47313,1506819499386,,,,,,,,0.03,0.06,0.99,-3.0,-0.5,-0.1,0,0,,,,,,,,,,,,,,,,,,,
47333,1506819499405,,,,,,,,0.03,0.06,0.99,-3.0,-0.6,-0.1,0,0,,,,,,,,,,,,,,,,,,,
47353,1506819499425,,,,,,,,0.03,0.06,0.99,-3.0,-0.6,-0.1,0,0,,,,,,,,,,,,,,,,,,,
47373,1506819499445,,,,,0,,,0.03,0.06,0.99,-3.0,-0.6,-0.1,0,0,1,1,0.0,0,35.489841,-119.546112,0.0,0.0,295.8,10,3,1.8,0,0.0,-1,0.0,0.0,0.0,0
47393,1506819499465,,,,,,,,0.03,0.06,0.99,-3.0,-0.6,-0.1,0,0,,,,,,,,,,,,,,,,,,,
47413,1506819499485,,,,,,,,0.03,0.06,0.99,-3.0,-0.6,-0.1,0,0,,,,,,,,,,,,,,,,,,,
47433,1506819499503,,,,,,,,0.02,0.06,0.99,-3.0,-0.5,-0.1,0,0,,,,,,,,,,,,,,,,,,,
47453,1506819499523,,,,,,,,0.02,0.06,0.99,-3.0,-0.5,-0.1,0,0,,,,,,,,,,,,,,,,,,,
47473,1506819499543,0,145.1,,161.0,0,158.1,,0.02,0.06,0.99,-3.0,-0.5,-0.1,0,0,1,1,0.0,0,35.489841,-119.546112,0.0,0.0,295.8,10,3,1.8,0,0.0,-1,0.0,0.0,0.0,0
47493,1506819499563,,,,,,,,0.02,0.06,0.99,-3.0,-0.5,-0.1,0,0,,,,,,,,,,,,,,,,,,,
47513,1506819499583,,,,,,,,0.02,0.06,0.99,-3.0,-0.5,-0.1,0,0,,,,,,,,,,,,,,,,,,,
47533,1506819499603,,,,,,,,0.02,0.06,0.99,-3.1,-0.5,-0.1,0,0,,,,,,,,,,,,,,,,,,,
47553,1506819499623,,,,,,,,0.03,0.06,0.99,-3.1,-0.5,-0.1,0,0,,,,,,,,,,,,,,,,,,,
47573,1506819499643,,,,,0,,,0.03,0.06,0.99,-3.1,-0.5,-0.1,0,0,1,1,0.0,0,35.489841,-119.546112,0.0,0.0,295.8,10,3,1.8,0,0.0,-1,0.0,0.0,0.0,0
47593,1506819499663,,,,,,,,0.03,0.06,0.99,-3.0,-0.5,-0.1,0,0,,,,,,,,,,,,,,,,,,,
47613,1506819499683,,,,,,,,0.03,0.06,0.99,-3.1,-0.5,-0.1,0,0,,,,,,,,,,,,,,,,,,,
47633,1506819499703,,,,,,,,0.03,0.06,0.99,-3.1,-0.5,-0.1,0,0,,,,,,,,,,,,,,,,,,,
47653,1506819499723,,,,,,,,0.03,0.06,0.99,-3.1,-0.5,-0.2,0,0,,,,,,,,,,,,,,,,,,,
47673,1506819499743,0,145.4,,161.1,0,157.7,,0.03,0.06,0.99,-3.1,-0.5,-0.2,0,0,1,1,0.0,0,35.489841,-119.546112,0.0,0.0,295.8,10,3,1.8,0,0.0,-1,0.0,0.0,0.0,0
47693,1506819499763,,,,,,,,0.03,0.06,0.99,-3.1,-0.5,-0.1,0,0,,,,,,,,,,,,,,,,,,,
47713,1506819499783,,,,,,,,0.03,0.06,0.99,-3.1,-0.5,-0.1,0,0,,,,,,,,,,,,,,,,,,,
47733,1506819499803,,,,,,,,0.03,0.06,1.0,-3.1,-0.5,-0.2,0,0,,,,,,,,,,,,,,,,,,,
47753,1506819499823,,,,,,,,0.03,0.06,1.0,-3.1,-0.5,-0.2,0,0,,,,,,,,,,,,,,,,,,,
47773,1506819499843,,,,,0,,,0.03,0.06,1.0,-3.0,-0.5,-0.2,0,0,1,1,0.0,0,35.489841,-119.546112,0.0,0.0,295.8,10,3,1.8,0,0.0,-1,0.0,0.0,0.0,0
47793,1506819499863,,,,,,,,0.03,0.06,1.0,-3.1,-0.5,-0.1,0,0,,,,,,,,,,,,,,,,,,,
47813,1506819499883,,,,,,,,0.03,0.06,1.0,-3.0,-0.5,-0.2,0,0,,,,,,,,,,,,,,,,,,,
47833,1506819499907,,,,,,,,0.03,0.06,1.0,-3.0,-0.5,-0.2,0,0,,,,,,,,,,,,,,,,,,,
47853,1506819499927,,,,,,,,0.03,0.06,1.0,-3.1,-0.5,-0.1,0,0,,,,,,,,,,,,,,,,,,,
47873,1506819499947,0,145.5,,161.3,0,158.2,,0.03,0.06,1.0,-3.1,-0.5,-0.1,0,0,1,1,0.0,0,35.489841,-119.546112,0.0,0.0,295.8,10,3,1.8,0,0.0,-1,0.0,0.0,0.0,0
47893,1506819499967,,,,,,,,0.03,0.06,1.0,-3.1,-0.5,-0.2,0,0,,,,,,,,,,,,,,,,,,,
47913,1506819499987,,,,,,,,0.03,0.06,1.0,-3.1,-0.5,-0.2,0,0,,,,,,,,,,,,,,,,,,,
47933,1506819499999,,,,,,,,0.02,0.06,1.0,-3.1,-0.5,-0.1,0,0,,,,,,,,,,,,,,,,,,,
47953,1506819500019,,,,,,,,0.02,0.06,1.0,-3.0,-0.5,-0.1,0,0,,,,,,,,,,,,,,,,,,,
47973,1506819500039,,,,,0,,,0.02,0.06,1.0,-3.0,-0.5,-0.1,0,0,1,1,0.0,0,35.489841,-119.546112,0.0,0.0,295.8,10,3,1.8,0,0.0,-1,0.0,0.0,0.0,0
47993,1506819500059,,,,,,,,0.02,0.06,1.0,-3.0,-0.5,-0.1,0,0,,,,,,,,,,,,,,,,,,,
48013,1506819500079,,,,,,,,0.02,0.06,1.0,-3.0,-0.5,-0.1,0,0,,,,,,,,,,,,,,,,,,,
48033,1506819500107,,,,,,,,0.02,0.06,1.0,-3.0,-0.5,-0.1,0,0,,,,,,,,,,,,,,,,,,,
48053,1506819500127,,,,,,,,0.02,0.06,1.0,-3.0,-0.5,-0.2,0,0,,,,,,,,,,,,,,,,,,,
48073,1506819500147,0,145.1,-0.6,161.0,0,158.1,13.15,0.02,0.06,1.0,-3.0,-0.5,-0.2,0,0,1,1,0.0,0,35.489841,-119.546112,0.0,0.0,295.8,10,3,1.8,0,0.0,-1,0.0,0.0,0.0,0
48093,1506819500167,,,,,,,,0.02,0.06,1.0,-3.1,-0.5,-0.2,0,0,,,,,,,,,,,,,,,,,,,
48113,1506819500187,,,,,,,,0.02,0.06,1.0,-3.0,-0.5,-0.1,0,0,,,,,,,,,,,,,,,,,,,
48133,1506819500207,,,,,,,,0.02,0.06,1.0,-3.0,-0.5,-0.1,0,0,,,,,,,,,,,,,,,,,,,
48153,1506819500227,,,,,,,,0.02,0.06,1.0,-3.0,-0.5,-0.1,0,0,,,,,,,,,,,,,,,,,,,
48173,1506819500247,,,,,0,,,0.02,0.06,1.0,-3.0,-0.5,-0.1,0,0,1,1,0.0,0,35.489841,-119.546112,0.0,0.0,295.8,10,3,1.8,0,0.0,-1,0.0,0.0,0.0,0
48193,1506819500267,,,,,,,,0.02,0.06,1.0,-3.1,-0.5,-0.1,0,0,,,,,,,,,,,,,,,,,,,
48213,1506819500287,,,,,,,,0.02,0.06,1.0,-3.1,-0.5,-0.1,0,0,,,,,,,,,,,,,,,,,,,
48233,1506819500307,,,,,,,,0.02,0.06,1.0,-3.0,-0.5,-0.1,0,0,,,,,,,,,,,,,,,,,,,
48253,1506819500327,,,,,,,,0.02,0.06,1.0,-3.0,-0.5,-0.1,0,0,,,,,,,,,,,,,,,,,,,
48273,1506819500347,0,145.4,,161.2,0,158.2,,0.02,0.06,1.0,-3.0,-0.5,-0.1,0,0,1,1,0.0,0,35.489841,-119.546112,0.0,0.0,295.8,10,3,1.8,0,0.0,-1,0.0,0.0,0.0,0
48293,1506819500367,,,,,,,,0.02,0.06,1.0,-3.1,-0.5,-0.1,0,0,,,,,,,,,,,,,,,,,,,
48313,1506819500387,,,,,,,,0.02,0.06,1.0,-3.1,-0.6,-0.1,0,0,,,,,,,,,,,,,,,,,,,
48333,1506819500406,,,,,,,,0.02,0.06,1.0,-3.1,-0.6,-0.2,0,0,,,,,,,,,,,,,,,,,,,
48353,1506819500426,,,,,,,,0.02,0.06,1.0,-3.1,-0.6,-0.2,0,0,,,,,,,,,,,,,,,,,,,
48373,1506819500446,,,,,0,,,0.02,0.06,1.0,-3.0,-0.6,-0.2,0,0,1,1,0.0,0,35.489841,-119.546112,0.0,0.0,295.8,10,3,1.8,0,0.0,-1,0.0,0.0,0.0,0
48393,1506819500466,,,,,,,,0.03,0.06,1.0,-3.0,-0.6,-0.2,0,0,,,,,,,,,,,,,,,,,,,
48413,1506819500486,,,,,,,,0.02,0.06,0.99,-3.0,-0.6,-0.2,0,0,,,,,,,,,,,,,,,,,,,
48433,1506819500504,,,,,,,,0.02,0.06,0.99,-3.1,-0.6,-0.2,0,0,,,,,,,,,,,,,,,,,,,
48453,1506819500524,,,,,,,,0.02,0.06,0.99,-3.1,-0.6,-0.2,0,0,,,,,,,,,,,,,,,,,,,
48473,1506819500544,0,144.6,,160.5,0,157.6,,0.02,0.06,0.99,-3.0,-0.6,-0.2,0,0,1,1,0.0,0,35.489841,-119.546112,0.0,0.0,295.8,10,3,1.8,0,0.0,-1,0.0,0.0,0.0,0
48493,1506819500564,,,,,,,,0.02,0.06,1.0,-3.0,-0.6,-0.2,0,0,,,,,,,,,,,,,,,,,,,
48513,1506819500584,,,,,,,,0.02,0.06,1.0,-3.0,-0.6,-0.1,0,0,,,,,,,,,,,,,,,,,,,
48533,1506819500602,,,,,,,,0.02,0.06,1.0,-3.0,-0.6,-0.2,0,0,,,,,,,,,,,,,,,,,,,
48553,1506819500622,,,,,,,,0.02,0.06,1.0,-3.0,-0.6,-0.2,0,0,,,,,,,,,,,,,,,,,,,
48573,1506819500642,,,,,0,,,0.02,0.06,1.0,-3.0,-0.6,-0.2,0,0,1,1,0.0,0,35.489841,-119.546112,0.0,0.0,295.8,10,3,1.8,0,0.0,-1,0.0,0.0,0.0,0
48593,1506819500662,,,,,,,,0.03,0.06,1.0,-3.0,-0.6,-0.2,0,0,,,,,,,,,,,,,,,,,,,
48613,1506819500682,,,,,,,,0.03,0.06,1.0,-3.0,-0.6,-0.2,0,0,,,,,,,,,,,,,,,,,,,
48633,1506819500702,,,,,,,,0.03,0.06,0.99,-3.0,-0.6,-0.2,0,0,,,,,,,,,,,,,,,,,,,
48653,1506819500722,,,,,,,,0.03,0.06,0.99,-3.0,-0.6,-0.2,0,0,,,,,,,,,,,,,,,,,,,
48673,1506819500742,0,144.7,,160.5,0,157.5,,0.03,0.06,0.99,-3.0,-0.6,-0.2,0,0,1,1,0.0,0,35.489841,-119.546112,0.0,0.0,295.8,10,3,1.8,0,0.0,-1,0.0,0.0,0.0,0
48693,1506819500762,,,,,,,,0.03,0.06,1.0,-3.1,-0.6,-0.2,0,0,,,,,,,,,,,,,,,,,,,
48713,1506819500782,,,,,,,,0.03,0.06,1.0,-3.0,-0.6,-0.2,0,0,,,,,,,,,,,,,,,,,,,
48733,1506819500802,,,,,,,,0.03,0.06,1.0,-3.0,-0.6,-0.2,0,0,,,,,,,,,,,,,,,,,,,
48753,1506819500822,,,,,,,,0.03,0.06,1.0,-3.0,-0.6,-0.2,0,0,,,,,,,,,,,,,,,,,,,
48773,1506819500842,,,,,0,,,0.03,0.06,1.0,-3.0,-0.6,-0.2,0,0,1,1,0.0,0,35.489841,-119.546112,0.0,0.0,295.8,10,3,1.8,0,0.0,-1,0.0,0.0,0.0,0
48793,1506819500862,,,,,,,,0.03,0.06,1.0,-3.1,-0.6,-0.2,0,0,,,,,,,,,,,,,,,,,,,
48813,1506819500882,,,,,,,,0.03,0.06,1.0,-3.0,-0.6,-0.1,0,0,,,,,,,,,,,,,,,,,,,
48833,1506819500906,,,,,,,,0.03,0.06,1.0,-3.0,-0.6,-0.1,0,0,,,,,,,,,,,,,,,,,,,
48853,1506819500926,,,,,,,,0.03,0.06,1.0,-3.0,-0.6,-0.1,0,0,,,,,,,,,,,,,,,,,,,
48873,1506819500946,0,144.8,,160.6,0,157.4,,0.03,0.06,1.0,-3.0,-0.6,-0.2,0,0,1,1,0.0,0,35.489841,-119.546112,0.0,0.0,295.8,10,3,1.8,0,0.0,-1,0.0,0.0,0.0,0
48893,1506819500966,,,,,,,,0.03,0.06,1.0,-3.0,-0.6,-0.1,0,0,,,,,,,,,,,,,,,,,,,
48913,1506819500986,,,,,,,,0.03,0.06,1.0,-3.0,-0.6,-0.1,0,0,,,,,,,,,,,,,,,,,,,
48933,1506819501000,,,,,,,,0.03,0.06,1.0,-3.0,-0.6,-0.1,0,0,,,,,,,,,,,,,,,,,,,
48953,1506819501020,,,,,,,,0.03,0.06,1.0,-3.0,-0.6,-0.1,0,0,,,,,,,,,,,,,,,,,,,
48973,1506819501040,,,,,0,,,0.02,0.06,1.0,-3.0,-0.6,-0.1,0,0,1,1,0.0,0,35.489841,-119.546112,0.0,0.0,295.8,10,3,1.8,0,0.0,-1,0.0,0.0,0.0,0
48993,1506819501060,,,,,,,,0.02,0.06,1.0,-3.0,-0.6,-0.1,0,0,,,,,,,,,,,,,,,,,,,
49013,1506819501080,,,,,,,,0.02,0.06,1.0,-3.0,-0.6,-0.1,0,0,,,,,,,,,,,,,,,,,,,
49033,1506819501106,,,,,,,,0.02,0.06,1.0,-3.0,-0.6,-0.1,0,0,,,,,,,,,,,,,,,,,,,
49053,1506819501126,,,,,,,,0.02,0.06,1.0,-3.0,-0.6,-0.2,0,0,,,,,,,,,,,,,,,,,,,
49073,1506819501146,0,144.7,-0.7,160.4,0,157.4,13.15,0.02,0.06,1.0,-3.0,-0.6,-0.2,0,0,1,1,0.0,0,35.489841,-119.546112,0.0,0.0,295.8,10,3,1.8,0,0.0,-1,0.0,0.0,0.0,0
49093,1506819501166,,,,,,,,0.02,0.06,1.0,-3.0,-0.6,-0.2,0,0,,,,,,,,,,,,,,,,,,,
49113,1506819501186,,,,,,,,0.02,0.06,1.0,-3.0,-0.6,-0.2,0,0,,,,,,,,,,,,,,,,,,,
49133,1506819501206,,,,,,,,0.02,0.06,1.0,-3.0,-0.6,-0.2,0,0,,,,,,,,,,,,,,,,,,,
49153,1506819501226,,,,,,,,0.02,0.06,1.0,-3.0,-0.6,-0.2,0,0,,,,,,,,,,,,,,,,,,,
49173,1506819501246,,,,,0,,,0.02,0.06,1.0,-3.0,-0.6,-0.2,0,0,1,1,0.0,0,35.489841,-119.546112,0.0,0.0,295.8,10,3,1.8,0,0.0,-1,0.0,0.0,0.0,0
49193,1506819501266,,,,,,,,0.02,0.06,1.0,-3.0,-0.5,-0.2,0,0,,,,,,,,,,,,,,,,,,,
49213,1506819501286,,,,,,,,0.02,0.06,1.0,-3.0,-0.6,-0.2,0,0,,,,,,,,,,,,,,,,,,,
49233,1506819501306,,,,,,,,0.02,0.06,1.0,-3.0,-0.6,-0.2,0,0,,,,,,,,,,,,,,,,,,,
49253,1506819501326,,,,,,,,0.02,0.06,1.0,-3.0,-0.6,-0.1,0,0,,,,,,,,,,,,,,,,,,,
49273,1506819501346,0,145.5,,161.3,0,158.0,,0.02,0.06,1.0,-3.0,-0.6,-0.1,0,0,1,1,0.0,0,35.489841,-119.546112,0.0,0.0,295.8,10,3,1.8,0,0.0,-1,0.0,0.0,0.0,0
49293,1506819501366,,,,,,,,0.02,0.06,1.0,-3.0,-0.5,-0.1,0,0,,,,,,,,,,,,,,,,,,,
49313,1506819501386,,,,,,,,0.02,0.06,1.0,-3.0,-0.5,-0.1,0,0,,,,,,,,,,,,,,,,,,,
49333,1506819501405,,,,,,,,0.02,0.06,1.0,-3.0,-0.5,-0.1,0,0,,,,,,,,,,,,,,,,,,,
49353,1506819501425,,,,,,,,0.02,0.06,1.0,-3.0,-0.6,-0.1,0,0,,,,,,,,,,,,,,,,,,,
49373,1506819501445,,,,,0,,,0.02,0.06,1.0,-3.0,-0.5,-0.1,0,0,1,1,0.0,0,35.489841,-119.546112,0.0,0.0,295.8,10,3,1.8,0,0.0,-1,0.0,0.0,0.0,0
49393,1506819501465,,,,,,,,0.02,0.06,1.0,-3.0,-0.6,-0.1,0,0,,,,,,,,,,,,,,,,,,,
49413,1506819501485,,,,,,,,0.02,0.06,1.0,-3.0,-0.6,-0.1,0,0,,,,,,,,,,,,,,,,,,,
49433,1506819501503,,,,,,,,0.02,0.06,1.0,-3.0,-0.6,-0.2,0,0,,,,,,,,,,,,,,,,,,,
49453,1506819501523,,,,,,,,0.02,0.06,1.0,-3.0,-0.6,-0.1,0,0,,,,,,,,,,,,,,,,,,,
49473,1506819501543,0,145.2,,160.6,0,157.4,,0.02,0.06,1.0,-3.0,-0.6,-0.1,0,0,1,1,0.0,0,35.489841,-119.546112,0.0,0.0,295.8,10,3,1.8,0,0.0,-1,0.0,0.0,0.0,0
49493,1506819501563,,,,,,,,0.02,0.06,1.0,-3.0,-0.6,-0.1,0,0,,,,,,,,,,,,,,,,,,,
49513,1506819501583,,,,,,,,0.02,0.06,1.0,-3.0,-0.6,-0.1,0,0,,,,,,,,,,,,,,,,,,,
49533,1506819501603,,,,,,,,0.02,0.06,1.0,-3.0,-0.6,-0.1,0,0,,,,,,,,,,,,,,,,,,,
49553,1506819501623,,,,,,,,0.02,0.06,1.0,-3.0,-0.6,-0.1,0,0,,,,,,,,,,,,,,,,,,,
49573,1506819501643,,,,,0,,,0.02,0.06,1.0,-3.0,-0.6,-0.2,0,0,1,1,0.0,0,35.489841,-119.546112,0.0,0.0,295.8,10,3,1.8,0,0.0,-1,0.0,0.0,0.0,0
49593,1506819501663,,,,,,,,0.02,0.06,1.0,-3.0,-0.6,-0.1,0,0,,,,,,,,,,,,,,,,,,,
49613,1506819501683,,,,,,,,0.02,0.06,1.0,-3.0,-0.6,-0.1,0,0,,,,,,,,,,,,,,,,,,,
49633,1506819501703,,,,,,,,0.02,0.06,1.0,-3.0,-0.6,-0.1,0,0,,,,,,,,,,,,,,,,,,,
49653,1506819501723,,,,,,,,0.02,0.06,1.0,-3.0,-0.6,-0.1,0,0,,,,,,,,,,,,,,,,,,,
49673,1506819501743,0,145.3,,161.1,0,158.1,,0.02,0.06,1.0,-3.0,-0.6,-0.1,0,0,1,1,0.0,0,35.489841,-119.546112,0.0,0.0,295.8,10,3,1.8,0,0.0,-1,0.0,0.0,0.0,0
49693,1506819501763,,,,,,,,0.02,0.06,1.0,-3.1,-0.5,-0.1,0,0,,,,,,,,,,,,,,,,,,,
49713,1506819501783,,,,,,,,0.02,0.06,1.0,-3.0,-0.5,-0.1,0,0,,,,,,,,,,,,,,,,,,,
49733,1506819501803,,,,,,,,0.02,0.06,1.0,-3.0,-0.5,-0.1,0,0,,,,,,,,,,,,,,,,,,,
49753,1506819501823,,,,,,,,0.02,0.06,1.0,-3.0,-0.5,-0.1,0,0,,,,,,,,,,,,,,,,,,,
49773,1506819501843,,,,,0,,,0.02,0.06,1.0,-3.0,-0.5,-0.1,0,0,1,1,0.0,0,35.489841,-119.546112,0.0,0.0,295.8,10,3,1.8,0,0.0,-1,0.0,0.0,0.0,0
49793,1506819501863,,,,,,,,0.02,0.06,1.0,-3.0,-0.5,-0.1,0,0,,,,,,,,,,,,,,,,,,,
49813,1506819501883,,,,,,,,0.02,0.06,1.0,-3.0,-0.6,-0.1,0,0,,,,,,,,,,,,,,,,,,,
49833,1506819501907,,,,,,,,0.02,0.06,1.0,-3.1,-0.5,-0.1,0,0,,,,,,,,,,,,,,,,,,,
49853,1506819501927,,,,,,,,0.02,0.06,1.0,-3.1,-0.5,-0.1,0,0,,,,,,,,,,,,,,,,,,,
49873,1506819501947,0,145.4,,161.2,0,157.6,,0.02,0.06,1.0,-3.0,-0.5,-0.1,0,0,1,1,0.0,0,35.489841,-119.546112,0.0,0.0,295.8,10,3,1.8,0,0.0,-1,0.0,0.0,0.0,0
49893,1506819501967,,,,,,,,0.02,0.06,1.0,-3.0,-0.6,-0.1,0,0,,,,,,,,,,,,,,,,,,,
49913,1506819501987,,,,,,,,0.02,0.06,1.0,-3.0,-0.6,-0.1,0,0,,,,,,,,,,,,,,,,,,,
49933,1506819502001,,,,,,,,0.02,0.06,1.0,-3.0,-0.6,-0.1,0,0,,,,,,,,,,,,,,,,,,,
49953,1506819502021,,,,,,,,0.02,0.06,1.0,-3.0,-0.6,-0.2,0,0,,,,,,,,,,,,,,,,,,,
49973,1506819502041,,,,,0,,,0.02,0.06,1.0,-3.0,-0.5,-0.1,0,0,1,1,0.0,0,35.489841,-119.546112,0.0,0.0,295.8,10,3,1.8,0,0.0,-1,0.0,0.0,0.0,0
49993,1506819502061,,,,,,,,0.02,0.06,1.0,-3.0,-0.6,-0.1,0,0,,,,,,,,,,,,,,,,,,,
50013,1506819502081,,,,,,,,0.03,0.06,1.0,-3.1,-0.6,-0.2,0,0,,,,,,,,,,,,,,,,,,,
50033,1506819502101,,,,,,,,0.02,0.06,1.0,-3.1,-0.5,-0.2,0,0,,,,,,,,,,,,,,,,,,,
50053,1506819502121,,,,,,,,0.02,0.06,1.0,-3.1,-0.5,-0.2,0,0,,,,,,,,,,,,,,,,,,,
50073,1506819502141,0,145.3,-0.5,161.2,0,158.1,13.15,0.02,0.06,1.0,-3.1,-0.5,-0.2,0,0,1,1,0.0,0,35.489841,-119.546112,0.0,0.0,295.8,10,3,1.8,0,0.0,-1,0.0,0.0,0.0,0
50093,1506819502161,,,,,,,,0.02,0.06,1.0,-3.1,-0.5,-0.2,0,0,,,,,,,,,,,,,,,,,,,
50113,1506819502181,,,,,,,,0.02,0.06,1.0,-3.1,-0.5,-0.2,0,0,,,,,,,,,,,,,,,,,,,
50133,1506819502207,,,,,,,,0.02,0.06,0.99,-3.1,-0.5,-0.2,0,0,,,,,,,,,,,,,,,,,,,
50153,1506819502227,,,,,,,,0.02,0.06,1.0,-3.1,-0.5,-0.2,0,0,,,,,,,,,,,,,,,,,,,
50173,1506819502247,,,,,0,,,0.02,0.06,1.0,-3.1,-0.5,-0.2,0,0,1,1,0.0,0,35.489841,-119.546112,0.0,0.0,295.8,10,3,1.8,0,0.0,-1,0.0,0.0,0.0,0
50193,1506819502267,,,,,,,,0.02,0.06,1.0,-3.1,-0.5,-0.2,0,0,,,,,,,,,,,,,,,,,,,
50213,1506819502287,,,,,,,,0.02,0.06,1.0,-3.1,-0.6,-0.2,0,0,,,,,,,,,,,,,,,,,,,
50233,1506819502307,,,,,,,,0.02,0.06,1.0,-3.1,-0.5,-0.2,0,0,,,,,,,,,,,,,,,,,,,
50253,1506819502327,,,,,,,,0.02,0.06,1.0,-3.1,-0.5,-0.2,0,0,,,,,,,,,,,,,,,,,,,
50273,1506819502347,0,145.5,,161.3,0,158.1,,0.02,0.06,1.0,-3.1,-0.5,-0.1,0,0,1,1,0.0,0,35.489841,-119.546112,0.0,0.0,295.8,10,3,1.8,0,0.0,-1,0.0,0.0,0.0,0
50293,1506819502367,,,,,,,,0.02,0.06,1.0,-3.1,-0.5,-0.1,0,0,,,,,,,,,,,,,,,,,,,
50313,1506819502387,,,,,,,,0.02,0.06,1.0,-3.1,-0.6,-0.1,0,0,,,,,,,,,,,,,,,,,,,
50333,1506819502406,,,,,,,,0.02,0.06,1.0,-3.1,-0.6,-0.1,0,0,,,,,,,,,,,,,,,,,,,
50353,1506819502426,,,,,,,,0.02,0.06,1.0,-3.0,-0.5,-0.1,0,0,,,,,,,,,,,,,,,,,,,
50373,1506819502446,,,,,0,,,0.02,0.06,1.0,-3.0,-0.5,-0.2,0,0,1,1,0.0,0,35.489841,-119.546112,0.0,0.0,295.8,10,3,1.8,0,0.0,-1,0.0,0.0,0.0,0
50393,1506819502466,,,,,,,,0.02,0.06,1.0,-3.1,-0.6,-0.1,0,0,,,,,,,,,,,,,,,,,,,
50413,1506819502486,,,,,,,,0.02,0.06,1.0,-3.1,-0.5,-0.1,0,0,,,,,,,,,,,,,,,,,,,
50433,1506819502504,,,,,,,,0.02,0.06,1.0,-3.1,-0.5,-0.2,0,0,,,,,,,,,,,,,,,,,,,
50453,1506819502524,,,,,,,,0.02,0.06,1.0,-3.1,-0.6,-0.1,0,0,,,,,,,,,,,,,,,,,,,
50473,1506819502544,0,145.6,,161.2,0,158.0,,0.02,0.06,1.0,-3.1,-0.6,-0.1,0,0,1,1,0.0,0,35.489841,-119.546112,0.0,0.0,295.8,10,3,1.8,0,0.0,-1,0.0,0.0,0.0,0
50493,1506819502564,,,,,,,,0.02,0.06,1.0,-3.1,-0.6,-0.1,0,0,,,,,,,,,,,,,,,,,,,
50513,1506819502584,,,,,,,,0.03,0.06,1.0,-3.1,-0.6,-0.1,0,0,,,,,,,,,,,,,,,,,,,
50533,1506819502602,,,,,,,,0.02,0.06,1.0,-3.1,-0.6,-0.1,0,0,,,,,,,,,,,,,,,,,,,
50553,1506819502622,,,,,,,,0.03,0.06,1.0,-3.1,-0.6,-0.1,0,0,,,,,,,,,,,,,,,,,,,
50573,1506819502642,,,,,0,,,0.02,0.06,1.0,-3.1,-0.6,-0.1,0,0,1,1,0.0,0,35.489841,-119.546112,0.0,0.0,295.8,10,3,1.8,0,0.0,-1,0.0,0.0,0.0,0
50593,1506819502662,,,,,,,,0.03,0.06,1.0,-3.0,-0.5,-0.1,0,0,,,,,,,,,,,,,,,,,,,
50613,1506819502682,,,,,,,,0.03,0.06,1.0,-3.0,-0.5,-0.1,0,0,,,,,,,,,,,,,,,,,,,
50633,1506819502702,,,,,,,,0.03,0.06,1.0,-3.0,-0.5,-0.1,0,0,,,,,,,,,,,,,,,,,,,
50653,1506819502722,,,,,,,,0.02,0.06,1.0,-3.0,-0.5,-0.1,0,0,,,,,,,,,,,,,,,,,,,
50673,1506819502742,0,145.3,,161.2,0,158.2,,0.02,0.06,1.0,-3.0,-0.5,-0.1,0,0,1,1,0.0,0,35.489841,-119.546112,0.0,0.0,295.8,10,3,1.8,0,0.0,-1,0.0,0.0,0.0,0
50693,1506819502762,,,,,,,,0.02,0.06,1.0,-3.1,-0.6,-0.1,0,0,,,,,,,,,,,,,,,,,,,
50713,1506819502782,,,,,,,,0.03,0.06,1.0,-3.1,-0.5,-0.1,0,0,,,,,,,,,,,,,,,,,,,
50733,1506819502804,,,,,,,,0.02,0.06,0.99,-3.1,-0.5,-0.1,0,0,,,,,,,,,,,,,,,,,,,
50753,1506819502824,,,,,,,,0.02,0.06,0.99,-3.1,-0.5,-0.1,0,0,,,,,,,,,,,,,,,,,,,
50773,1506819502844,,,,,0,,,0.02,0.06,1.0,-3.0,-0.5,-0.1,0,0,1,1,0.0,0,35.489841,-119.546112,0.0,0.0,295.8,10,3,1.8,0,0.0,-1,0.0,0.0,0.0,0
50793,1506819502864,,,,,,,,0.02,0.06,1.0,-3.0,-0.5,-0.1,0,0,,,,,,,,,,,,,,,,,,,
50813,1506819502884,,,,,,,,0.02,0.06,1.0,-3.0,-0.5,-0.1,0,0,,,,,,,,,,,,,,,,,,,
50833,1506819502906,,,,,,,,0.02,0.06,1.0,-3.1,-0.5,-0.1,0,0,,,,,,,,,,,,,,,,,,,
50853,1506819502926,,,,,,,,0.02,0.06,1.0,-3.0,-0.5,-0.1,0,0,,,,,,,,,,,,,,,,,,,
50873,1506819502946,0,145.6,,161.1,0,157.6,,0.02,0.06,1.0,-3.0,-0.5,-0.1,0,0,1,1,0.0,0,35.489841,-119.546112,0.0,0.0,295.8,10,3,1.8,0,0.0,-1,0.0,0.0,0.0,0
50893,1506819502966,,,,,,,,0.02,0.06,1.0,-3.0,-0.5,-0.1,0,0,,,,,,,,,,,,,,,,,,,
50913,1506819502986,,,,,,,,0.02,0.06,1.0,-3.0,-0.5,-0.1,0,0,,,,,,,,,,,,,,,,,,,
50933,1506819503000,,,,,,,,0.02,0.06,1.0,-3.0,-0.5,-0.1,0,0,,,,,,,,,,,,,,,,,,,
50953,1506819503020,,,,,,,,0.02,0.06,1.0,-3.0,-0.5,-0.1,0,0,,,,,,,,,,,,,,,,,,,
50973,1506819503040,,,,,0,,,0.02,0.06,1.0,-3.0,-0.6,-0.1,0,0,1,1,0.0,0,35.489841,-119.546112,0.0,0.0,295.8,10,3,1.8,0,0.0,-1,0.0,0.0,0.0,0
50993,1506819503060,,,,,,,,0.02,0.06,1.0,-3.0,-0.6,-0.1,0,0,,,,,,,,,,,,,,,,,,,
51013,1506819503080,,,,,,,,0.02,0.06,1.0,-3.0,-0.6,-0.1,0,0,,,,,,,,,,,,,,,,,,,
51033,1506819503104,,,,,,,,0.02,0.06,1.0,-3.0,-0.6,-0.1,0,0,,,,,,,,,,,,,,,,,,,
51053,1506819503124,,,,,,,,0.02,0.06,1.0,-3.0,-0.6,-0.1,0,0,,,,,,,,,,,,,,,,,,,
51073,1506819503144,0,145.3,-0.5,161.2,0,158.2,13.15,0.02,0.06,1.0,-3.0,-0.6,-0.1,0,0,1,1,0.0,0,35.489841,-119.546112,0.0,0.0,295.8,10,3,1.8,0,0.0,-1,0.0,0.0,0.0,0
51093,1506819503164,,,,,,,,0.02,0.06,1.0,-3.0,-0.6,-0.1,0,0,,,,,,,,,,,,,,,,,,,
51113,1506819503184,,,,,,,,0.02,0.06,1.0,-3.0,-0.6,-0.1,0,0,,,,,,,,,,,,,,,,,,,
51133,1506819503206,,,,,,,,0.02,0.06,1.0,-3.0,-0.6,-0.2,0,0,,,,,,,,,,,,,,,,,,,
51153,1506819503226,,,,,,,,0.02,0.06,1.0,-3.0,-0.6,-0.1,0,0,,,,,,,,,,,,,,,,,,,
51173,1506819503246,,,,,0,,,0.02,0.06,1.0,-3.0,-0.6,-0.1,0,0,1,1,0.0,0,35.489841,-119.546112,0.0,0.0,295.8,10,3,1.8,0,0.0,-1,0.0,0.0,0.0,0
51193,1506819503266,,,,,,,,0.02,0.06,1.0,-3.0,-0.6,-0.2,0,0,,,,,,,,,,,,,,,,,,,
51213,1506819503286,,,,,,,,0.02,0.06,1.0,-3.0,-0.6,-0.1,0,0,,,,,,,,,,,,,,,,,,,
51233,1506819503306,,,,,,,,0.02,0.06,1.0,-3.0,-0.6,-0.1,0,0,,,,,,,,,,,,,,,,,,,
51253,1506819503326,,,,,,,,0.02,0.06,1.0,-3.0,-0.6,-0.1,0,0,,,,,,,,,,,,,,,,,,,
51273,1506819503346,0,145.0,,160.4,0,157.5,,0.02,0.06,1.0,-3.1,-0.6,-0.1,0,0,1,1,0.0,0,35.489841,-119.546112,0.0,0.0,295.8,10,3,1.8,0,0.0,-1,0.0,0.0,0.0,0
51293,1506819503366,,,,,,,,0.02,0.06,1.0,-3.1,-0.6,-0.1,0,0,,,,,,,,,,,,,,,,,,,
51313,1506819503386,,,,,,,,0.02,0.06,1.0,-3.1,-0.6,-0.1,0,0,,,,,,,,,,,,,,,,,,,
51333,1506819503405,,,,,,,,0.02,0.06,1.0,-3.0,-0.5,-0.1,0,0,,,,,,,,,,,,,,,,,,,
51353,1506819503425,,,,,,,,0.02,0.06,1.0,-3.1,-0.5,-0.1,0,0,,,,,,,,,,,,,,,,,,,
51373,1506819503445,,,,,0,,,0.02,0.06,1.0,-3.0,-0.5,-0.1,0,0,1,1,0.0,0,35.489841,-119.546112,0.0,0.0,295.8,10,3,1.8,0,0.0,-1,0.0,0.0,0.0,0
51393,1506819503465,,,,,,,,0.02,0.06,1.0,-3.0,-0.5,-0.1,0,0,,,,,,,,,,,,,,,,,,,
51413,1506819503485,,,,,,,,0.02,0.06,1.0,-3.1,-0.5,-0.1,0,0,,,,,,,,,,,,,,,,,,,
51433,1506819503505,,,,,,,,0.02,0.06,1.0,-3.1,-0.5,-0.1,0,0,,,,,,,,,,,,,,,,,,,
51453,1506819503525,,,,,,,,0.02,0.06,1.0,-3.1,-0.5,-0.1,0,0,,,,,,,,,,,,,,,,,,,
51473,1506819503545,0,144.8,,161.0,0,157.9,,0.02,0.06,0.99,-3.1,-0.5,-0.1,0,0,1,1,0.0,0,35.489841,-119.546112,0.0,0.0,295.8,10,3,1.8,0,0.0,-1,0.0,0.0,0.0,0
51493,1506819503565,,,,,,,,0.02,0.06,1.0,-3.1,-0.5,-0.1,0,0,,,,,,,,,,,,,,,,,,,
51513,1506819503585,,,,,,,,0.02,0.06,0.99,-3.1,-0.6,-0.1,0,0,,,,,,,,,,,,,,,,,,,
51533,1506819503605,,,,,,,,0.02,0.06,0.99,-3.1,-0.6,-0.1,0,0,,,,,,,,,,,,,,,,,,,
51553,1506819503625,,,,,,,,0.02,0.06,0.99,-3.1,-0.6,-0.2,0,0,,,,,,,,,,,,,,,,,,,
51573,1506819503645,,,,,0,,,0.02,0.06,0.99,-3.1,-0.6,-0.2,0,0,1,1,0.0,0,35.489841,-119.546112,0.0,0.0,295.8,10,3,1.8,0,0.0,-1,0.0,0.0,0.0,0
51593,1506819503665,,,,,,,,0.02,0.06,0.99,-3.1,-0.6,-0.2,0,0,,,,,,,,,,,,,,,,,,,
51613,1506819503685,,,,,,,,0.02,0.06,1.0,-3.1,-0.5,-0.2,0,0,,,,,,,,,,,,,,,,,,,
51633,1506819503705,,,,,,,,0.02,0.06,0.99,-3.1,-0.5,-0.2,0,0,,,,,,,,,,,,,,,,,,,
51653,1506819503725,,,,,,,,0.02,0.06,0.99,-3.1,-0.5,-0.2,0,0,,,,,,,,,,,,,,,,,,,
51673,1506819503745,0,145.6,,161.1,0,157.5,,0.02,0.06,1.0,-3.1,-0.6,-0.2,0,0,1,1,0.0,0,35.489841,-119.546112,0.0,0.0,295.8,10,3,1.8,0,0.0,-1,0.0,0.0,0.0,0
51693,1506819503765,,,,,,,,0.02,0.06,1.0,-3.1,-0.6,-0.2,0,0,,,,,,,,,,,,,,,,,,,
51713,1506819503785,,,,,,,,0.02,0.06,1.0,-3.1,-0.5,-0.2,0,0,,,,,,,,,,,,,,,,,,,
51733,1506819503805,,,,,,,,0.02,0.06,1.0,-3.0,-0.5,-0.2,0,0,,,,,,,,,,,,,,,,,,,
51753,1506819503825,,,,,,,,0.02,0.06,1.0,-3.1,-0.5,-0.2,0,0,,,,,,,,,,,,,,,,,,,
51773,1506819503845,,,,,0,,,0.02,0.06,1.0,-3.1,-0.5,-0.2,0,0,1,1,0.0,0,35.489841,-119.546112,0.0,0.0,295.8,10,3,1.8,0,0.0,-1,0.0,0.0,0.0,0
51793,1506819503865,,,,,,,,0.02,0.06,0.99,-3.1,-0.5,-0.2,0,0,,,,,,,,,,,,,,,,,,,
51813,1506819503885,,,,,,,,0.02,0.06,0.99,-3.0,-0.5,-0.2,0,0,,,,,,,,,,,,,,,,,,,
51833,1506819503907,,,,,,,,0.02,0.06,1.0,-3.0,-0.6,-0.2,0,0,,,,,,,,,,,,,,,,,,,
51853,1506819503927,,,,,,,,0.02,0.06,1.0,-3.0,-0.6,-0.2,0,0,,,,,,,,,,,,,,,,,,,
51873,1506819503947,0,145.4,,160.4,0,157.3,,0.02,0.06,1.0,-3.0,-0.6,-0.2,0,0,1,1,0.0,0,35.489841,-119.546112,0.0,0.0,295.8,10,3,1.8,0,0.0,-1,0.0,0.0,0.0,0
51893,1506819503967,,,,,,,,0.02,0.06,0.99,-3.0,-0.6,-0.2,0,0,,,,,,,,,,,,,,,,,,,
51913,1506819503987,,,,,,,,0.02,0.06,0.99,-3.0,-0.6,-0.2,0,0,,,,,,,,,,,,,,,,,,,
51933,1506819503999,,,,,,,,0.02,0.06,1.0,-3.0,-0.5,-0.1,0,0,,,,,,,,,,,,,,,,,,,
51953,1506819504019,,,,,,,,0.02,0.06,1.0,-3.0,-0.6,-0.2,0,0,,,,,,,,,,,,,,,,,,,
51973,1506819504039,,,,,0,,,0.02,0.06,1.0,-3.0,-0.6,-0.2,0,0,1,1,0.0,0,35.489841,-119.546112,0.0,0.0,295.8,10,3,1.8,0,0.0,-1,0.0,0.0,0.0,0
51993,1506819504059,,,,,,,,0.02,0.06,1.0,-3.0,-0.6,-0.2,0,0,,,,,,,,,,,,,,,,,,,
52013,1506819504079,,,,,,,,0.02,0.06,1.0,-3.0,-0.6,-0.1,0,0,,,,,,,,,,,,,,,,,,,
52033,1506819504107,,,,,,,,0.02,0.06,1.0,-3.0,-0.6,-0.1,0,0,,,,,,,,,,,,,,,,,,,
52053,1506819504127,,,,,,,,0.02,0.06,1.0,-3.0,-0.6,-0.1,0,0,,,,,,,,,,,,,,,,,,,
52073,1506819504147,0,144.7,-0.6,161.0,0,158.0,13.14,0.02,0.06,1.0,-3.0,-0.6,-0.1,0,0,1,1,0.0,0,35.489841,-119.546112,0.0,0.0,295.8,10,3,1.8,0,0.0,-1,0.0,0.0,0.0,0
52093,1506819504167,,,,,,,,0.02,0.06,1.0,-3.0,-0.6,-0.1,0,0,,,,,,,,,,,,,,,,,,,
52113,1506819504187,,,,,,,,0.02,0.06,1.0,-3.0,-0.6,-0.1,0,0,,,,,,,,,,,,,,,,,,,
52133,1506819504207,,,,,,,,0.03,0.06,1.0,-3.0,-0.6,-0.1,0,0,,,,,,,,,,,,,,,,,,,
52153,1506819504227,,,,,,,,0.02,0.06,1.0,-3.0,-0.6,-0.1,0,0,,,,,,,,,,,,,,,,,,,
52173,1506819504247,,,,,0,,,0.02,0.06,1.0,-3.0,-0.6,-0.1,0,0,1,1,0.0,0,35.489841,-119.546112,0.0,0.0,295.8,10,3,1.8,0,0.0,-1,0.0,0.0,0.0,0
52193,1506819504267,,,,,,,,0.02,0.06,1.0,-3.0,-0.6,-0.1,0,0,,,,,,,,,,,,,,,,,,,
52213,1506819504287,,,,,,,,0.02,0.06,1.0,-3.0,-0.6,-0.1,0,0,,,,,,,,,,,,,,,,,,,
52233,1506819504307,,,,,,,,0.02,0.06,1.0,-3.0,-0.6,-0.1,0,0,,,,,,,,,,,,,,,,,,,
52253,1506819504327,,,,,,,,0.02,0.06,1.0,-3.0,-0.6,-0.1,0,0,,,,,,,,,,,,,,,,,,,
52273,1506819504347,0,144.8,,160.5,0,157.6,,0.02,0.06,1.0,-3.0,-0.6,-0.1,0,0,1,1,0.0,0,35.489841,-119.546112,0.0,0.0,295.8,10,3,1.8,0,0.0,-1,0.0,0.0,0.0,0
52293,1506819504367,,,,,,,,0.02,0.06,1.0,-3.0,-0.6,-0.2,0,0,,,,,,,,,,,,,,,,,,,
52313,1506819504387,,,,,,,,0.02,0.06,1.0,-3.0,-0.5,-0.2,0,0,,,,,,,,,,,,,,,,,,,
52333,1506819504406,,,,,,,,0.02,0.06,1.0,-3.0,-0.5,-0.2,0,0,,,,,,,,,,,,,,,,,,,
52353,1506819504426,,,,,,,,0.02,0.06,1.0,-3.1,-0.5,-0.2,0,0,,,,,,,,,,,,,,,,,,,
52373,1506819504446,,,,,0,,,0.02,0.06,1.0,-3.1,-0.5,-0.2,0,0,1,1,0.0,0,35.489841,-119.546112,0.0,0.0,295.8,10,3,1.8,0,0.0,-1,0.0,0.0,0.0,0
52393,1506819504466,,,,,,,,0.02,0.06,1.0,-3.1,-0.5,-0.2,0,0,,,,,,,,,,,,,,,,,,,
52413,1506819504486,,,,,,,,0.03,0.06,1.0,-3.0,-0.5,-0.1,0,0,,,,,,,,,,,,,,,,,,,
52433,1506819504506,,,,,,,,0.03,0.06,1.0,-3.0,-0.5,-0.1,0,0,,,,,,,,,,,,,,,,,,,
52453,1506819504526,,,,,,,,0.02,0.06,1.0,-3.0,-0.5,-0.2,0,0,,,,,,,,,,,,,,,,,,,
52473,1506819504546,0,145.0,,161.2,0,158.1,,0.02,0.06,1.0,-3.0,-0.5,-0.1,0,0,1,1,0.0,0,35.489841,-119.546112,0.0,0.0,295.8,10,3,1.8,0,0.0,-1,0.0,0.0,0.0,0
52493,1506819504566,,,,,,,,0.02,0.06,1.0,-3.0,-0.5,-0.1,0,0,,,,,,,,,,,,,,,,,,,
52513,1506819504586,,,,,,,,0.02,0.06,1.0,-3.0,-0.5,-0.1,0,0,,,,,,,,,,,,,,,,,,,
52533,1506819504606,,,,,,,,0.02,0.06,1.0,-3.0,-0.6,-0.1,0,0,,,,,,,,,,,,,,,,,,,
52553,1506819504626,,,,,,,,0.02,0.06,1.0,-3.0,-0.6,-0.1,0,0,,,,,,,,,,,,,,,,,,,
52573,1506819504646,,,,,0,,,0.02,0.06,1.0,-3.0,-0.5,-0.1,0,0,1,1,0.0,0,35.489841,-119.546112,0.0,0.0,295.8,10,3,1.8,0,0.0,-1,0.0,0.0,0.0,0
52593,1506819504666,,,,,,,,0.02,0.06,1.0,-3.0,-0.6,-0.1,0,0,,,,,,,,,,,,,,,,,,,
52613,1506819504686,,,,,,,,0.02,0.06,0.99,-3.0,-0.6,-0.1,0,0,,,,,,,,,,,,,,,,,,,
52633,1506819504706,,,,,,,,0.02,0.06,1.0,-3.0,-0.6,-0.1,0,0,,,,,,,,,,,,,,,,,,,
52653,1506819504726,,,,,,,,0.02,0.06,1.0,-3.0,-0.6,-0.2,0,0,,,,,,,,,,,,,,,,,,,
52673,1506819504746,0,145.6,,161.3,0,157.8,,0.02,0.06,0.99,-3.0,-0.6,-0.1,0,0,1,1,0.0,0,35.489841,-119.546112,0.0,0.0,295.8,10,3,1.8,0,0.0,-1,0.0,0.0,0.0,0
52693,1506819504766,,,,,,,,0.02,0.06,1.0,-3.0,-0.6,-0.1,0,0,,,,,,,,,,,,,,,,,,,
52713,1506819504786,,,,,,,,0.03,0.06,1.0,-3.0,-0.6,-0.1,0,0,,,,,,,,,,,,,,,,,,,
52733,1506819504806,,,,,,,,0.03,0.06,1.0,-3.0,-0.6,-0.1,0,0,,,,,,,,,,,,,,,,,,,
52753,1506819504826,,,,,,,,0.03,0.06,1.0,-3.0,-0.6,-0.1,0,0,,,,,,,,,,,,,,,,,,,
52773,1506819504846,,,,,0,,,0.03,0.06,1.0,-3.0,-0.6,-0.1,0,0,1,1,0.0,0,35.489841,-119.546112,0.0,0.0,295.8,10,3,1.8,0,0.0,-1,0.0,0.0,0.0,0
52793,1506819504866,,,,,,,,0.03,0.06,1.0,-3.0,-0.6,-0.1,0,0,,,,,,,,,,,,,,,,,,,
52813,1506819504886,,,,,,,,0.03,0.06,1.0,-3.0,-0.6,-0.1,0,0,,,,,,,,,,,,,,,,,,,
52833,1506819504906,,,,,,,,0.03,0.06,1.0,-3.0,-0.6,-0.1,0,0,,,,,,,,,,,,,,,,,,,
52853,1506819504926,,,,,,,,0.03,0.06,1.0,-3.0,-0.6,-0.1,0,0,,,,,,,,,,,,,,,,,,,
52873,1506819504946,0,145.4,,161.0,0,157.3,,0.03,0.06,1.0,-3.0,-0.6,-0.1,0,0,1,1,0.0,0,35.489841,-119.546112,0.0,0.0,295.8,10,3,1.8,0,0.0,-1,0.0,0.0,0.0,0
52893,1506819504966,,,,,,,,0.03,0.06,0.99,-3.0,-0.6,-0.1,0,0,,,,,,,,,,,,,,,,,,,
52913,1506819504986,,,,,,,,0.03,0.06,0.99,-3.1,-0.6,-0.1,0,0,,,,,,,,,,,,,,,,,,,
52933,1506819505000,,,,,,,,0.03,0.06,0.99,-3.1,-0.5,-0.1,0,0,,,,,,,,,,,,,,,,,,,
52953,1506819505020,,,,,,,,0.03,0.06,0.99,-3.1,-0.5,-0.1,0,0,,,,,,,,,,,,,,,,,,,
52973,1506819505040,,,,,0,,,0.02,0.06,0.99,-3.1,-0.5,-0.1,0,0,1,1,0.0,0,35.489841,-119.546112,0.0,0.0,295.8,10,3,1.8,0,0.0,-1,0.0,0.0,0.0,0
52993,1506819505060,,,,,,,,0.02,0.06,0.99,-3.1,-0.5,-0.1,0,0,,,,,,,,,,,,,,,,,,,
53013,1506819505080,,,,,,,,0.02,0.06,0.99,-3.1,-0.5,-0.1,0,0,,,,,,,,,,,,,,,,,,,
53033,1506819505106,,,,,,,,0.02,0.06,0.99,-3.1,-0.5,-0.1,0,0,,,,,,,,,,,,,,,,,,,
53053,1506819505126,,,,,,,,0.03,0.06,0.99,-3.1,-0.5,-0.1,0,0,,,,,,,,,,,,,,,,,,,
53073,1506819505146,0,145.5,-0.5,161.3,0,158.1,13.14,0.03,0.06,0.99,-3.1,-0.5,-0.1,0,0,1,1,0.0,0,35.489841,-119.546112,0.0,0.0,295.8,10,3,1.8,0,0.0,-1,0.0,0.0,0.0,0
53093,1506819505166,,,,,,,,0.02,0.06,0.99,-3.1,-0.5,-0.1,0,0,,,,,,,,,,,,,,,,,,,
53113,1506819505186,,,,,,,,0.02,0.06,0.99,-3.1,-0.5,-0.1,0,0,,,,,,,,,,,,,,,,,,,
53133,1506819505206,,,,,,,,0.02,0.06,0.99,-3.1,-0.5,-0.1,0,0,,,,,,,,,,,,,,,,,,,
53153,1506819505226,,,,,,,,0.02,0.06,0.99,-3.1,-0.5,-0.1,0,0,,,,,,,,,,,,,,,,,,,
53173,1506819505246,,,,,0,,,0.03,0.06,0.99,-3.1,-0.5,-0.2,0,0,1,1,0.0,0,35.489841,-119.546112,0.0,0.0,295.8,10,3,1.8,0,0.0,-1,0.0,0.0,0.0,0
53193,1506819505266,,,,,,,,0.03,0.06,0.99,-3.1,-0.5,-0.2,0,0,,,,,,,,,,,,,,,,,,,
53213,1506819505286,,,,,,,,0.03,0.06,0.99,-3.1,-0.5,-0.2,0,0,,,,,,,,,,,,,,,,,,,
53233,1506819505306,,,,,,,,0.03,0.06,0.99,-3.1,-0.5,-0.2,0,0,,,,,,,,,,,,,,,,,,,
53253,1506819505326,,,,,,,,0.03,0.06,0.99,-3.1,-0.6,-0.2,0,0,,,,,,,,,,,,,,,,,,,
53273,1506819505346,0,145.3,,161.3,0,158.0,,0.03,0.06,0.99,-3.1,-0.6,-0.2,0,0,1,1,0.0,0,35.489841,-119.546112,0.0,0.0,295.8,10,3,1.8,0,0.0,-1,0.0,0.0,0.0,0
53293,1506819505366,,,,,,,,0.03,0.06,0.99,-3.1,-0.6,-0.2,0,0,,,,,,,,,,,,,,,,,,,
53313,1506819505386,,,,,,,,0.03,0.06,0.99,-3.1,-0.6,-0.2,0,0,,,,,,,,,,,,,,,,,,,
53333,1506819505405,,,,,,,,0.03,0.06,0.99,-3.0,-0.5,-0.2,0,0,,,,,,,,,,,,,,,,,,,
53353,1506819505425,,,,,,,,0.02,0.06,0.99,-3.0,-0.5,-0.2,0,0,,,,,,,,,,,,,,,,,,,
53373,1506819505445,,,,,0,,,0.03,0.06,0.99,-3.0,-0.5,-0.2,0,0,1,1,0.0,0,35.489841,-119.546112,0.0,0.0,295.8,10,3,1.8,0,0.0,-1,0.0,0.0,0.0,0
53393,1506819505465,,,,,,,,0.03,0.06,1.0,-3.0,-0.5,-0.2,0,0,,,,,,,,,,,,,,,,,,,
53413,1506819505485,,,,,,,,0.02,0.06,1.0,-3.0,-0.5,-0.2,0,0,,,,,,,,,,,,,,,,,,,
53433,1506819505505,,,,,,,,0.02,0.06,0.99,-3.0,-0.5,-0.2,0,0,,,,,,,,,,,,,,,,,,,
53453,1506819505525,,,,,,,,0.02,0.06,0.99,-3.0,-0.5,-0.2,0,0,,,,,,,,,,,,,,,,,,,
53473,1506819505545,0,145.4,,161.2,0,157.5,,0.02,0.06,1.0,-3.1,-0.5,-0.2,0,0,1,1,0.0,0,35.489841,-119.546112,0.0,0.0,295.8,10,3,1.8,0,0.0,-1,0.0,0.0,0.0,0
53493,1506819505565,,,,,,,,0.02,0.06,0.99,-3.1,-0.5,-0.2,0,0,,,,,,,,,,,,,,,,,,,
53513,1506819505585,,,,,,,,0.02,0.06,0.99,-3.1,-0.5,-0.2,0,0,,,,,,,,,,,,,,,,,,,
53533,1506819505605,,,,,,,,0.02,0.06,0.99,-3.0,-0.5,-0.2,0,0,,,,,,,,,,,,,,,,,,,
53553,1506819505625,,,,,,,,0.02,0.06,1.0,-3.0,-0.5,-0.2,0,0,,,,,,,,,,,,,,,,,,,
53573,1506819505645,,,,,0,,,0.02,0.06,1.0,-3.0,-0.5,-0.2,0,0,1,1,0.0,0,35.489841,-119.546112,0.0,0.0,295.8,10,3,1.8,0,0.0,-1,0.0,0.0,0.0,0
53593,1506819505665,,,,,,,,0.03,0.06,1.0,-3.0,-0.5,-0.2,0,0,,,,,,,,,,,,,,,,,,,
53613,1506819505685,,,,,,,,0.02,0.06,1.0,-3.1,-0.5,-0.2,0,0,,,,,,,,,,,,,,,,,,,
53633,1506819505707,,,,,,,,0.03,0.06,1.0,-3.0,-0.5,-0.2,0,0,,,,,,,,,,,,,,,,,,,
53653,1506819505727,,,,,,,,0.02,0.06,1.0,-3.0,-0.5,-0.2,0,0,,,,,,,,,,,,,,,,,,,
53673,1506819505747,0,145.4,,161.2,0,157.5,,0.02,0.06,1.0,-3.0,-0.5,-0.1,0,0,1,1,0.0,0,35.489841,-119.546112,0.0,0.0,295.8,10,3,1.8,0,0.0,-1,0.0,0.0,0.0,0
53693,1506819505767,,,,,,,,0.02,0.06,0.99,-3.0,-0.5,-0.2,0,0,,,,,,,,,,,,,,,,,,,
53713,1506819505787,,,,,,,,0.02,0.06,0.99,-3.0,-0.5,-0.2,0,0,,,,,,,,,,,,,,,,,,,
53733,1506819505807,,,,,,,,0.02,0.06,1.0,-3.0,-0.5,-0.2,0,0,,,,,,,,,,,,,,,,,,,
53753,1506819505827,,,,,,,,0.02,0.06,1.0,-3.0,-0.6,-0.1,0,0,,,,,,,,,,,,,,,,,,,
53773,1506819505847,,,,,0,,,0.02,0.06,1.0,-3.0,-0.6,-0.1,0,0,1,1,0.0,0,35.489841,-119.546112,0.0,0.0,295.8,10,3,1.8,0,0.0,-1,0.0,0.0,0.0,0
53793,1506819505867,,,,,,,,0.02,0.06,1.0,-3.0,-0.6,-0.2,0,0,,,,,,,,,,,,,,,,,,,
53813,1506819505887,,,,,,,,0.02,0.06,1.0,-3.1,-0.6,-0.2,0,0,,,,,,,,,,,,,,,,,,,
53833,1506819505907,,,,,,,,0.02,0.06,1.0,-3.1,-0.6,-0.2,0,0,,,,,,,,,,,,,,,,,,,
53853,1506819505927,,,,,,,,0.02,0.06,0.99,-3.1,-0.6,-0.2,0,0,,,,,,,,,,,,,,,,,,,
53873,1506819505947,0,145.3,,161.0,0,158.1,,0.02,0.06,0.99,-3.1,-0.6,-0.2,0,0,1,1,0.0,0,35.489841,-119.546112,0.0,0.0,295.8,10,3,1.8,0,0.0,-1,0.0,0.0,0.0,0
53893,1506819505967,,,,,,,,0.02,0.06,0.99,-3.1,-0.6,-0.1,0,0,,,,,,,,,,,,,,,,,,,
53913,1506819505987,,,,,,,,0.02,0.06,0.99,-3.1,-0.6,-0.1,0,0,,,,,,,,,,,,,,,,,,,
53933,1506819506001,,,,,,,,0.02,0.06,1.0,-3.1,-0.6,-0.1,0,0,,,,,,,,,,,,,,,,,,,
53953,1506819506021,,,,,,,,0.02,0.06,1.0,-3.1,-0.6,-0.1,0,0,,,,,,,,,,,,,,,,,,,
53973,1506819506041,,,,,0,,,0.02,0.06,1.0,-3.1,-0.6,-0.1,0,0,1,1,0.0,0,35.489841,-119.546112,0.0,0.0,295.8,10,3,1.8,0,0.0,-1,0.0,0.0,0.0,0
53993,1506819506061,,,,,,,,0.02,0.06,1.0,-3.1,-0.6,-0.2,0,0,,,,,,,,,,,,,,,,,,,
54013,1506819506081,,,,,,,,0.02,0.06,1.0,-3.1,-0.6,-0.2,0,0,,,,,,,,,,,,,,,,,,,
54033,1506819506107,,,,,,,,0.02,0.06,1.0,-3.1,-0.6,-0.1,0,0,,,,,,,,,,,,,,,,,,,
54053,1506819506127,,,,,,,,0.02,0.06,1.0,-3.1,-0.6,-0.2,0,0,,,,,,,,,,,,,,,,,,,
54073,1506819506147,0,144.8,-0.7,160.4,0,157.7,13.15,0.02,0.06,1.0,-3.1,-0.5,-0.2,0,0,1,1,0.0,0,35.489841,-119.546112,0.0,0.0,295.8,10,3,1.8,0,0.0,-1,0.0,0.0,0.0,0
54093,1506819506167,,,,,,,,0.02,0.06,1.0,-3.1,-0.5,-0.2,0,0,,,,,,,,,,,,,,,,,,,
54113,1506819506187,,,,,,,,0.02,0.06,1.0,-3.1,-0.6,-0.2,0,0,,,,,,,,,,,,,,,,,,,
54133,1506819506207,,,,,,,,0.02,0.06,1.0,-3.1,-0.6,-0.1,0,0,,,,,,,,,,,,,,,,,,,
54153,1506819506227,,,,,,,,0.02,0.06,1.0,-3.1,-0.6,-0.1,0,0,,,,,,,,,,,,,,,,,,,
54173,1506819506247,,,,,0,,,0.03,0.06,1.0,-3.1,-0.6,-0.1,0,0,1,1,0.0,0,35.489841,-119.546112,0.0,0.0,295.8,10,3,1.8,0,0.0,-1,0.0,0.0,0.0,0
54193,1506819506267,,,,,,,,0.02,0.06,1.0,-3.1,-0.6,-0.1,0,0,,,,,,,,,,,,,,,,,,,
54213,1506819506287,,,,,,,,0.02,0.06,1.0,-3.1,-0.6,-0.1,0,0,,,,,,,,,,,,,,,,,,,
54233,1506819506307,,,,,,,,0.02,0.06,1.0,-3.1,-0.6,-0.1,0,0,,,,,,,,,,,,,,,,,,,
54253,1506819506327,,,,,,,,0.02,0.06,1.0,-3.1,-0.6,-0.1,0,0,,,,,,,,,,,,,,,,,,,
54273,1506819506347,0,145.3,,160.7,0,157.4,,0.03,0.06,1.0,-3.1,-0.6,-0.1,0,0,1,1,0.0,0,35.489841,-119.546112,0.0,0.0,295.8,10,3,1.8,0,0.0,-1,0.0,0.0,0.0,0
54293,1506819506367,,,,,,,,0.03,0.06,1.0,-3.1,-0.6,-0.1,0,0,,,,,,,,,,,,,,,,,,,
54313,1506819506387,,,,,,,,0.02,0.06,1.0,-3.1,-0.6,-0.1,0,0,,,,,,,,,,,,,,,,,,,
54333,1506819506406,,,,,,,,0.02,0.06,1.0,-3.1,-0.6,-0.1,0,0,,,,,,,,,,,,,,,,,,,
54353,1506819506426,,,,,,,,0.02,0.06,1.0,-3.0,-0.6,-0.2,0,0,,,,,,,,,,,,,,,,,,,
54373,1506819506446,,,,,0,,,0.02,0.06,1.0,-3.0,-0.6,-0.2,0,0,1,1,0.0,0,35.489841,-119.546112,0.0,0.0,295.8,10,3,1.8,0,0.0,-1,0.0,0.0,0.0,0
54393,1506819506466,,,,,,,,0.02,0.06,1.0,-3.0,-0.6,-0.2,0,0,,,,,,,,,,,,,,,,,,,
54413,1506819506486,,,,,,,,0.02,0.06,1.0,-3.0,-0.6,-0.2,0,0,,,,,,,,,,,,,,,,,,,
54433,1506819506506,,,,,,,,0.02,0.06,1.0,-3.0,-0.6,-0.2,0,0,,,,,,,,,,,,,,,,,,,
54453,1506819506526,,,,,,,,0.02,0.06,1.0,-3.0,-0.6,-0.2,0,0,,,,,,,,,,,,,,,,,,,
54473,1506819506546,0,145.1,,160.6,0,157.5,,0.02,0.06,1.0,-3.0,-0.6,-0.2,0,0,1,1,0.0,0,35.489841,-119.546112,0.0,0.0,295.8,10,3,1.8,0,0.0,-1,0.0,0.0,0.0,0
54493,1506819506566,,,,,,,,0.02,0.06,1.0,-3.0,-0.5,-0.2,0,0,,,,,,,,,,,,,,,,,,,
54513,1506819506586,,,,,,,,0.02,0.06,1.0,-3.0,-0.5,-0.1,0,0,,,,,,,,,,,,,,,,,,,
54533,1506819506606,,,,,,,,0.02,0.06,1.0,-3.0,-0.5,-0.1,0,0,,,,,,,,,,,,,,,,,,,
54553,1506819506626,,,,,,,,0.03,0.06,1.0,-3.0,-0.5,-0.2,0,0,,,,,,,,,,,,,,,,,,,
54573,1506819506646,,,,,0,,,0.03,0.06,1.0,-3.0,-0.6,-0.2,0,0,1,1,0.0,0,35.489841,-119.546112,0.0,0.0,295.8,10,3,1.8,0,0.0,-1,0.0,0.0,0.0,0
54593,1506819506666,,,,,,,,0.02,0.06,1.0,-3.0,-0.5,-0.2,0,0,,,,,,,,,,,,,,,,,,,
54613,1506819506686,,,,,,,,0.02,0.06,1.0,-3.0,-0.5,-0.2,0,0,,,,,,,,,,,,,,,,,,,
54633,1506819506706,,,,,,,,0.02,0.06,1.0,-3.0,-0.5,-0.2,0,0,,,,,,,,,,,,,,,,,,,
54653,1506819506726,,,,,,,,0.02,0.06,1.0,-3.1,-0.6,-0.2,0,0,,,,,,,,,,,,,,,,,,,
54673,1506819506746,0,145.6,,161.3,0,157.7,,0.02,0.06,0.99,-3.1,-0.6,-0.2,0,0,1,1,0.0,0,35.489841,-119.546112,0.0,0.0,295.8,10,3,1.8,0,0.0,-1,0.0,0.0,0.0,0
54693,1506819506766,,,,,,,,0.02,0.06,0.99,-3.1,-0.6,-0.2,0,0,,,,,,,,,,,,,,,,,,,
54713,1506819506786,,,,,,,,0.02,0.06,0.99,-3.0,-0.6,-0.2,0,0,,,,,,,,,,,,,,,,,,,
54733,1506819506806,,,,,,,,0.02,0.06,0.99,-3.1,-0.6,-0.1,0,0,,,,,,,,,,,,,,,,,,,
54753,1506819506826,,,,,,,,0.02,0.06,0.99,-3.0,-0.6,-0.1,0,0,,,,,,,,,,,,,,,,,,,
54773,1506819506846,,,,,0,,,0.02,0.06,0.99,-3.1,-0.6,-0.1,0,0,1,1,0.0,0,35.489841,-119.546112,0.0,0.0,295.8,10,3,1.8,0,0.0,-1,0.0,0.0,0.0,0
54793,1506819506866,,,,,,,,0.02,0.06,0.99,-3.1,-0.6,-0.1,0,0,,,,,,,,,,,,,,,,,,,
54813,1506819506886,,,,,,,,0.02,0.06,0.99,-3.1,-0.6,-0.1,0,0,,,,,,,,,,,,,,,,,,,
54833,1506819506906,,,,,,,,0.02,0.06,0.99,-3.0,-0.6,-0.1,0,0,,,,,,,,,,,,,,,,,,,
54853,1506819506926,,,,,,,,0.02,0.06,1.0,-3.1,-0.6,-0.2,0,0,,,,,,,,,,,,,,,,,,,
54873,1506819506946,0,145.4,,161.1,0,157.4,,0.02,0.06,0.99,-3.0,-0.6,-0.2,0,0,1,1,0.0,0,35.489841,-119.546112,0.0,0.0,295.8,10,3,1.8,0,0.0,-1,0.0,0.0,0.0,0
54893,1506819506966,,,,,,,,0.02,0.06,0.99,-3.0,-0.5,-0.2,0,0,,,,,,,,,,,,,,,,,,,
54913,1506819506986,,,,,,,,0.02,0.06,0.99,-3.1,-0.5,-0.2,0,0,,,,,,,,,,,,,,,,,,,
54933,1506819507002,,,,,,,,0.02,0.06,0.99,-3.0,-0.6,-0.2,0,0,,,,,,,,,,,,,,,,,,,
54953,1506819507022,,,,,,,,0.02,0.06,0.99,-3.0,-0.5,-0.2,0,0,,,,,,,,,,,,,,,,,,,
54973,1506819507042,,,,,0,,,0.02,0.06,0.99,-3.1,-0.5,-0.2,0,0,1,1,0.0,0,35.489841,-119.546112,0.0,0.0,295.8,10,3,1.8,0,0.0,-1,0.0,0.0,0.0,0
54993,1506819507062,,,,,,,,0.02,0.06,0.99,-3.0,-0.6,-0.2,0,0,,,,,,,,,,,,,,,,,,,
55013,1506819507082,,,,,,,,0.02,0.06,1.0,-3.0,-0.6,-0.2,0,0,,,,,,,,,,,,,,,,,,,
55033,1506819507102,,,,,,,,0.02,0.06,0.99,-3.1,-0.6,-0.2,0,0,,,,,,,,,,,,,,,,,,,
55053,1506819507122,,,,,,,,0.02,0.06,0.99,-3.1,-0.6,-0.2,0,0,,,,,,,,,,,,,,,,,,,
55073,1506819507142,0,145.3,-0.5,161.0,0,158.0,13.15,0.02,0.06,0.99,-3.1,-0.6,-0.2,0,0,1,1,0.0,0,35.489841,-119.546112,0.0,0.0,295.8,10,3,1.8,0,0.0,-1,0.0,0.0,0.0,0
55093,1506819507162,,,,,,,,0.02,0.06,1.0,-3.1,-0.6,-0.1,0,0,,,,,,,,,,,,,,,,,,,
55113,1506819507182,,,,,,,,0.02,0.06,1.0,-3.1,-0.5,-0.1,0,0,,,,,,,,,,,,,,,,,,,
55133,1506819507206,,,,,,,,0.02,0.06,1.0,-3.1,-0.6,-0.1,0,0,,,,,,,,,,,,,,,,,,,
55153,1506819507226,,,,,,,,0.02,0.06,1.0,-3.1,-0.6,-0.1,0,0,,,,,,,,,,,,,,,,,,,
55173,1506819507246,,,,,0,,,0.02,0.06,1.0,-3.1,-0.6,-0.1,0,0,1,1,0.0,0,35.489841,-119.546112,0.0,0.0,295.8,10,3,1.8,0,0.0,-1,0.0,0.0,0.0,0
55193,1506819507266,,,,,,,,0.02,0.06,1.0,-3.1,-0.6,-0.1,0,0,,,,,,,,,,,,,,,,,,,
55213,1506819507286,,,,,,,,0.02,0.06,1.0,-3.1,-0.6,-0.1,0,0,,,,,,,,,,,,,,,,,,,
55233,1506819507306,,,,,,,,0.02,0.06,1.0,-3.1,-0.6,-0.1,0,0,,,,,,,,,,,,,,,,,,,
55253,1506819507326,,,,,,,,0.02,0.06,1.0,-3.0,-0.6,-0.1,0,0,,,,,,,,,,,,,,,,,,,
55273,1506819507346,0,144.8,,160.4,0,157.3,,0.02,0.06,1.0,-3.0,-0.5,-0.1,0,0,1,1,0.0,0,35.489841,-119.546112,0.0,0.0,295.8,10,3,1.8,0,0.0,-1,0.0,0.0,0.0,0
55293,1506819507366,,,,,,,,0.02,0.06,1.0,-3.0,-0.5,-0.1,0,0,,,,,,,,,,,,,,,,,,,
55313,1506819507386,,,,,,,,0.02,0.06,1.0,-3.1,-0.6,-0.1,0,0,,,,,,,,,,,,,,,,,,,
55333,1506819507405,,,,,,,,0.02,0.06,1.0,-3.1,-0.6,-0.1,0,0,,,,,,,,,,,,,,,,,,,
55353,1506819507425,,,,,,,,0.02,0.05,0.99,-3.1,-0.6,-0.1,0,0,,,,,,,,,,,,,,,,,,,
55373,1506819507445,,,,,0,,,0.02,0.06,1.0,-3.1,-0.5,-0.1,0,0,1,1,0.0,0,35.489841,-119.546112,0.0,0.0,295.8,10,3,1.8,0,0.0,-1,0.0,0.0,0.0,0
55393,1506819507465,,,,,,,,0.02,0.06,1.0,-3.1,-0.6,-0.1,0,0,,,,,,,,,,,,,,,,,,,
55413,1506819507485,,,,,,,,0.02,0.05,1.0,-3.0,-0.6,-0.1,0,0,,,,,,,,,,,,,,,,,,,
55433,1506819507505,,,,,,,,0.02,0.06,1.0,-3.0,-0.5,-0.1,0,0,,,,,,,,,,,,,,,,,,,
55453,1506819507525,,,,,,,,0.02,0.06,1.0,-3.0,-0.5,-0.1,0,0,,,,,,,,,,,,,,,,,,,
55473,1506819507545,0,145.3,,161.0,0,157.5,,0.02,0.06,1.0,-3.0,-0.5,-0.1,0,0,1,1,0.0,0,35.489841,-119.546112,0.0,0.0,295.8,10,3,1.8,0,0.0,-1,0.0,0.0,0.0,0
55493,1506819507565,,,,,,,,0.02,0.06,1.0,-3.0,-0.6,-0.1,0,0,,,,,,,,,,,,,,,,,,,
55513,1506819507585,,,,,,,,0.02,0.06,1.0,-3.0,-0.5,-0.1,0,0,,,,,,,,,,,,,,,,,,,
55533,1506819507605,,,,,,,,0.02,0.06,1.0,-3.1,-0.6,-0.1,0,0,,,,,,,,,,,,,,,,,,,
55553,1506819507625,,,,,,,,0.02,0.06,1.0,-3.1,-0.6,-0.1,0,0,,,,,,,,,,,,,,,,,,,
55573,1506819507645,,,,,0,,,0.02,0.06,1.0,-3.0,-0.6,-0.1,0,0,1,1,0.0,0,35.489841,-119.546112,0.0,0.0,295.8,10,3,1.8,0,0.0,-1,0.0,0.0,0.0,0
55593,1506819507665,,,,,,,,0.02,0.06,1.0,-3.0,-0.5,-0.1,0,0,,,,,,,,,,,,,,,,,,,
55613,1506819507685,,,,,,,,0.02,0.06,1.0,-3.0,-0.5,-0.1,0,0,,,,,,,,,,,,,,,,,,,
55633,1506819507705,,,,,,,,0.03,0.06,1.0,-3.0,-0.5,-0.1,0,0,,,,,,,,,,,,,,,,,,,
55653,1506819507725,,,,,,,,0.03,0.06,1.0,-3.0,-0.5,-0.1,0,0,,,,,,,,,,,,,,,,,,,
55673,1506819507745,0,144.8,,160.4,0,157.3,,0.03,0.06,1.0,-3.0,-0.6,-0.1,0,0,1,1,0.0,0,35.489841,-119.546112,0.0,0.0,295.8,10,3,1.8,0,0.0,-1,0.0,0.0,0.0,0
55693,1506819507765,,,,,,,,0.03,0.06,1.0,-3.0,-0.6,-0.1,0,0,,,,,,,,,,,,,,,,,,,
55713,1506819507785,,,,,,,,0.03,0.06,1.0,-3.0,-0.6,-0.1,0,0,,,,,,,,,,,,,,,,,,,
55733,1506819507807,,,,,,,,0.03,0.06,1.0,-3.0,-0.6,-0.1,0,0,,,,,,,,,,,,,,,,,,,
55753,1506819507827,,,,,,,,0.03,0.06,1.0,-3.0,-0.6,-0.1,0,0,,,,,,,,,,,,,,,,,,,
55773,1506819507847,,,,,0,,,0.03,0.06,1.0,-3.0,-0.6,-0.1,0,0,1,1,0.0,0,35.489841,-119.546112,0.0,0.0,295.8,10,3,1.8,0,0.0,-1,0.0,0.0,0.0,0
55793,1506819507867,,,,,,,,0.03,0.06,1.0,-3.0,-0.6,-0.1,0,0,,,,,,,,,,,,,,,,,,,
55813,1506819507887,,,,,,,,0.03,0.06,1.0,-3.0,-0.6,-0.1,0,0,,,,,,,,,,,,,,,,,,,
55833,1506819507907,,,,,,,,0.03,0.06,1.0,-3.0,-0.6,-0.1,0,0,,,,,,,,,,,,,,,,,,,
55853,1506819507927,,,,,,,,0.03,0.06,1.0,-3.0,-0.5,-0.1,0,0,,,,,,,,,,,,,,,,,,,
55873,1506819507947,0,145.0,,160.9,0,157.9,,0.02,0.06,1.0,-3.0,-0.5,-0.1,0,0,1,1,0.0,0,35.489841,-119.546112,0.0,0.0,295.8,10,3,1.8,0,0.0,-1,0.0,0.0,0.0,0
55893,1506819507967,,,,,,,,0.02,0.06,1.0,-3.0,-0.5,-0.1,0,0,,,,,,,,,,,,,,,,,,,
55913,1506819507987,,,,,,,,0.02,0.06,1.0,-3.0,-0.5,-0.1,0,0,,,,,,,,,,,,,,,,,,,
55933,1506819508001,,,,,,,,0.02,0.06,1.0,-3.0,-0.6,-0.1,0,0,,,,,,,,,,,,,,,,,,,
55953,1506819508021,,,,,,,,0.02,0.06,1.0,-3.0,-0.6,-0.1,0,0,,,,,,,,,,,,,,,,,,,
55973,1506819508041,,,,,0,,,0.02,0.06,0.99,-3.0,-0.6,-0.2,0,0,1,1,0.0,0,35.489841,-119.546112,0.0,0.0,295.8,10,3,1.8,0,0.0,-1,0.0,0.0,0.0,0
55993,1506819508061,,,,,,,,0.02,0.06,0.99,-3.0,-0.6,-0.1,0,0,,,,,,,,,,,,,,,,,,,
56013,1506819508081,,,,,,,,0.02,0.06,1.0,-3.0,-0.6,-0.2,0,0,,,,,,,,,,,,,,,,,,,
56033,1506819508107,,,,,,,,0.02,0.06,0.99,-3.0,-0.6,-0.1,0,0,,,,,,,,,,,,,,,,,,,
56053,1506819508127,,,,,,,,0.02,0.06,1.0,-3.0,-0.6,-0.1,0,0,,,,,,,,,,,,,,,,,,,
56073,1506819508147,0,144.7,-0.7,160.6,0,157.8,13.15,0.02,0.06,1.0,-3.0,-0.6,-0.1,0,0,1,1,0.0,0,35.489841,-119.546112,0.0,0.0,295.8,10,3,1.8,0,0.0,-1,0.0,0.0,0.0,0
56093,1506819508167,,,,,,,,0.02,0.06,1.0,-3.0,-0.6,-0.1,0,0,,,,,,,,,,,,,,,,,,,
56113,1506819508187,,,,,,,,0.02,0.06,0.99,-3.0,-0.6,-0.2,0,0,,,,,,,,,,,,,,,,,,,
56133,1506819508207,,,,,,,,0.03,0.06,1.0,-3.0,-0.6,-0.2,0,0,,,,,,,,,,,,,,,,,,,
56153,1506819508227,,,,,,,,0.03,0.06,1.0,-3.0,-0.6,-0.2,0,0,,,,,,,,,,,,,,,,,,,
56173,1506819508247,,,,,0,,,0.02,0.06,1.0,-3.0,-0.6,-0.2,0,0,1,1,0.0,0,35.489841,-119.546112,0.0,0.0,295.8,10,3,1.8,0,0.0,-1,0.0,0.0,0.0,0
56193,1506819508267,,,,,,,,0.02,0.06,1.0,-3.0,-0.6,-0.1,0,0,,,,,,,,,,,,,,,,,,,
56213,1506819508287,,,,,,,,0.02,0.06,1.0,-3.0,-0.6,-0.1,0,0,,,,,,,,,,,,,,,,,,,
56233,1506819508307,,,,,,,,0.02,0.06,1.0,-3.0,-0.6,-0.1,0,0,,,,,,,,,,,,,,,,,,,
56253,1506819508327,,,,,,,,0.02,0.06,1.0,-3.0,-0.6,-0.1,0,0,,,,,,,,,,,,,,,,,,,
56273,1506819508347,0,144.8,,160.5,0,157.4,,0.02,0.06,1.0,-3.0,-0.6,-0.1,0,0,1,1,0.0,0,35.489841,-119.546112,0.0,0.0,295.8,10,3,1.8,0,0.0,-1,0.0,0.0,0.0,0
56293,1506819508367,,,,,,,,0.02,0.06,1.0,-3.0,-0.6,-0.1,0,0,,,,,,,,,,,,,,,,,,,
56313,1506819508387,,,,,,,,0.02,0.06,1.0,-3.0,-0.6,-0.1,0,0,,,,,,,,,,,,,,,,,,,
56333,1506819508406,,,,,,,,0.02,0.06,1.0,-3.0,-0.6,-0.1,0,0,,,,,,,,,,,,,,,,,,,
56353,1506819508426,,,,,,,,0.02,0.06,0.99,-3.0,-0.5,-0.1,0,0,,,,,,,,,,,,,,,,,,,
56373,1506819508446,,,,,0,,,0.02,0.06,0.99,-3.0,-0.5,-0.1,0,0,1,1,0.0,0,35.489841,-119.546112,0.0,0.0,295.8,10,3,1.8,0,0.0,-1,0.0,0.0,0.0,0
56393,1506819508466,,,,,,,,0.02,0.06,0.99,-3.0,-0.6,-0.1,0,0,,,,,,,,,,,,,,,,,,,
56413,1506819508486,,,,,,,,0.02,0.06,0.99,-3.1,-0.6,-0.1,0,0,,,,,,,,,,,,,,,,,,,
56433,1506819508506,,,,,,,,0.02,0.06,0.99,-3.0,-0.6,-0.1,0,0,,,,,,,,,,,,,,,,,,,
56453,1506819508526,,,,,,,,0.02,0.06,0.99,-3.0,-0.5,-0.1,0,0,,,,,,,,,,,,,,,,,,,
56473,1506819508546,0,145.4,,161.3,0,158.1,,0.02,0.06,0.99,-3.0,-0.5,-0.1,0,0,1,1,0.0,0,35.489841,-119.546112,0.0,0.0,295.8,10,3,1.8,0,0.0,-1,0.0,0.0,0.0,0
56493,1506819508566,,,,,,,,0.02,0.06,1.0,-3.0,-0.6,-0.1,0,0,,,,,,,,,,,,,,,,,,,
56513,1506819508586,,,,,,,,0.02,0.06,0.99,-3.1,-0.6,-0.1,0,0,,,,,,,,,,,,,,,,,,,
56533,1506819508606,,,,,,,,0.02,0.06,0.99,-3.1,-0.6,-0.1,0,0,,,,,,,,,,,,,,,,,,,
56553,1506819508626,,,,,,,,0.02,0.06,1.0,-3.1,-0.5,-0.1,0,0,,,,,,,,,,,,,,,,,,,
56573,1506819508646,,,,,0,,,0.02,0.06,1.0,-3.1,-0.5,-0.1,0,0,1,1,0.0,0,35.489841,-119.546112,0.0,0.0,295.8,10,3,1.8,0,0.0,-1,0.0,0.0,0.0,0
56593,1506819508666,,,,,,,,0.02,0.06,1.0,-3.1,-0.5,-0.1,0,0,,,,,,,,,,,,,,,,,,,
56613,1506819508686,,,,,,,,0.02,0.06,1.0,-3.0,-0.5,-0.1,0,0,,,,,,,,,,,,,,,,,,,
56633,1506819508706,,,,,,,,0.02,0.06,1.0,-3.0,-0.6,-0.1,0,0,,,,,,,,,,,,,,,,,,,
56653,1506819508726,,,,,,,,0.02,0.06,1.0,-3.1,-0.6,-0.1,0,0,,,,,,,,,,,,,,,,,,,
56673,1506819508746,0,145.3,,161.0,0,157.4,,0.03,0.06,1.0,-3.1,-0.6,-0.2,0,0,1,1,0.0,0,35.489841,-119.546112,0.0,0.0,295.8,10,3,1.8,0,0.0,-1,0.0,0.0,0.0,0
56693,1506819508766,,,,,,,,0.02,0.06,1.0,-3.1,-0.6,-0.1,0,0,,,,,,,,,,,,,,,,,,,
56713,1506819508786,,,,,,,,0.02,0.06,1.0,-3.1,-0.6,-0.1,0,0,,,,,,,,,,,,,,,,,,,
56733,1506819508806,,,,,,,,0.03,0.06,1.0,-3.0,-0.5,-0.1,0,0,,,,,,,,,,,,,,,,,,,
56753,1506819508826,,,,,,,,0.02,0.06,1.0,-3.0,-0.5,-0.1,0,0,,,,,,,,,,,,,,,,,,,
56773,1506819508846,,,,,0,,,0.02,0.06,1.0,-3.0,-0.5,-0.1,0,0,1,1,0.0,0,35.489841,-119.546112,0.0,0.0,295.8,10,3,1.8,0,0.0,-1,0.0,0.0,0.0,0
56793,1506819508866,,,,,,,,0.02,0.06,1.0,-3.0,-0.5,-0.1,0,0,,,,,,,,,,,,,,,,,,,
56813,1506819508886,,,,,,,,0.02,0.06,1.0,-3.0,-0.5,-0.2,0,0,,,,,,,,,,,,,,,,,,,
56833,1506819508906,,,,,,,,0.02,0.06,1.0,-3.0,-0.5,-0.2,0,0,,,,,,,,,,,,,,,,,,,
56853,1506819508926,,,,,,,,0.02,0.06,1.0,-3.0,-0.5,-0.2,0,0,,,,,,,,,,,,,,,,,,,
56873,1506819508946,0,145.4,,161.2,0,157.8,,0.02,0.06,1.0,-3.0,-0.5,-0.1,0,0,1,1,0.0,0,35.489841,-119.546112,0.0,0.0,295.8,10,3,1.8,0,0.0,-1,0.0,0.0,0.0,0
56893,1506819508966,,,,,,,,0.02,0.06,1.0,-3.0,-0.5,-0.1,0,0,,,,,,,,,,,,,,,,,,,
56913,1506819508986,,,,,,,,0.02,0.06,1.0,-3.0,-0.5,-0.1,0,0,,,,,,,,,,,,,,,,,,,
56933,1506819509002,,,,,,,,0.02,0.06,1.0,-3.0,-0.5,-0.1,0,0,,,,,,,,,,,,,,,,,,,
56953,1506819509022,,,,,,,,0.02,0.05,1.0,-3.0,-0.5,-0.1,0,0,,,,,,,,,,,,,,,,,,,
56973,1506819509042,,,,,0,,,0.02,0.06,1.0,-3.0,-0.5,-0.1,0,0,1,1,0.0,0,35.489841,-119.546112,0.0,0.0,295.8,10,3,1.8,0,0.0,-1,0.0,0.0,0.0,0
56993,1506819509062,,,,,,,,0.02,0.06,1.0,-3.0,-0.5,-0.1,0,0,,,,,,,,,,,,,,,,,,,
57013,1506819509082,,,,,,,,0.02,0.06,1.0,-3.0,-0.5,-0.1,0,0,,,,,,,,,,,,,,,,,,,
57033,1506819509106,,,,,,,,0.02,0.06,1.0,-3.0,-0.5,-0.1,0,0,,,,,,,,,,,,,,,,,,,
57053,1506819509126,,,,,,,,0.02,0.06,1.0,-3.0,-0.5,-0.1,0,0,,,,,,,,,,,,,,,,,,,
57073,1506819509146,0,145.4,-0.6,161.2,0,157.8,13.14,0.02,0.06,1.0,-3.0,-0.5,-0.1,0,0,1,1,0.0,0,35.489841,-119.546112,0.0,0.0,295.8,10,3,1.8,0,0.0,-1,0.0,0.0,0.0,0
57093,1506819509166,,,,,,,,0.02,0.06,1.0,-3.0,-0.6,-0.1,0,0,,,,,,,,,,,,,,,,,,,
57113,1506819509186,,,,,,,,0.02,0.06,1.0,-3.0,-0.6,-0.1,0,0,,,,,,,,,,,,,,,,,,,
57133,1506819509206,,,,,,,,0.02,0.06,1.0,-3.0,-0.5,-0.1,0,0,,,,,,,,,,,,,,,,,,,
57153,1506819509226,,,,,,,,0.02,0.06,1.0,-3.0,-0.6,-0.1,0,0,,,,,,,,,,,,,,,,,,,
57173,1506819509246,,,,,0,,,0.02,0.06,1.0,-3.0,-0.6,-0.1,0,0,1,1,0.0,0,35.489841,-119.546112,0.0,0.0,295.8,10,3,1.8,0,0.0,-1,0.0,0.0,0.0,0
57193,1506819509266,,,,,,,,0.03,0.05,1.0,-3.0,-0.6,-0.1,0,0,,,,,,,,,,,,,,,,,,,
57213,1506819509286,,,,,,,,0.02,0.05,1.0,-3.0,-0.6,-0.1,0,0,,,,,,,,,,,,,,,,,,,
57233,1506819509306,,,,,,,,0.02,0.06,1.0,-3.0,-0.6,-0.1,0,0,,,,,,,,,,,,,,,,,,,
57253,1506819509326,,,,,,,,0.02,0.06,1.0,-3.0,-0.6,-0.1,0,0,,,,,,,,,,,,,,,,,,,
57273,1506819509346,0,144.6,,160.5,0,157.6,,0.02,0.06,1.0,-3.0,-0.6,-0.1,0,0,1,1,0.0,0,35.489841,-119.546112,0.0,0.0,295.8,10,3,1.8,0,0.0,-1,0.0,0.0,0.0,0
57293,1506819509366,,,,,,,,0.02,0.06,1.0,-3.0,-0.5,-0.1,0,0,,,,,,,,,,,,,,,,,,,
57313,1506819509386,,,,,,,,0.02,0.06,1.0,-3.0,-0.5,-0.1,0,0,,,,,,,,,,,,,,,,,,,
57333,1506819509405,,,,,,,,0.03,0.06,1.0,-3.0,-0.5,-0.1,0,0,,,,,,,,,,,,,,,,,,,
57353,1506819509425,,,,,,,,0.03,0.06,1.0,-3.0,-0.5,-0.1,0,0,,,,,,,,,,,,,,,,,,,
57373,1506819509445,,,,,0,,,0.02,0.06,1.0,-3.0,-0.5,-0.1,0,0,1,1,0.0,0,35.489841,-119.546112,0.0,0.0,295.8,10,3,1.8,0,0.0,-1,0.0,0.0,0.0,0
57393,1506819509465,,,,,,,,0.02,0.06,1.0,-3.0,-0.5,-0.1,0,0,,,,,,,,,,,,,,,,,,,
57413,1506819509485,,,,,,,,0.02,0.06,1.0,-3.0,-0.5,-0.1,0,0,,,,,,,,,,,,,,,,,,,
57433,1506819509505,,,,,,,,0.03,0.06,1.0,-3.0,-0.5,-0.1,0,0,,,,,,,,,,,,,,,,,,,
57453,1506819509525,,,,,,,,0.02,0.06,1.0,-3.0,-0.5,-0.1,0,0,,,,,,,,,,,,,,,,,,,
57473,1506819509545,0,144.8,,160.7,0,157.9,,0.02,0.06,0.99,-3.0,-0.6,-0.1,0,0,1,1,0.0,0,35.489841,-119.546112,0.0,0.0,295.8,10,3,1.8,0,0.0,-1,0.0,0.0,0.0,0
57493,1506819509565,,,,,,,,0.02,0.06,1.0,-3.0,-0.5,-0.1,0,0,,,,,,,,,,,,,,,,,,,
57513,1506819509585,,,,,,,,0.02,0.06,0.99,-3.0,-0.5,-0.1,0,0,,,,,,,,,,,,,,,,,,,
57533,1506819509605,,,,,,,,0.02,0.05,0.99,-3.0,-0.6,-0.1,0,0,,,,,,,,,,,,,,,,,,,
57553,1506819509625,,,,,,,,0.02,0.06,0.99,-3.0,-0.5,-0.1,0,0,,,,,,,,,,,,,,,,,,,
57573,1506819509645,,,,,0,,,0.02,0.05,0.99,-3.0,-0.5,-0.2,0,0,1,1,0.0,0,35.489841,-119.546112,0.0,0.0,295.8,10,3,1.8,0,0.0,-1,0.0,0.0,0.0,0
57593,1506819509665,,,,,,,,0.02,0.06,1.0,-3.0,-0.5,-0.2,0,0,,,,,,,,,,,,,,,,,,,
57613,1506819509685,,,,,,,,0.02,0.06,1.0,-3.0,-0.5,-0.2,0,0,,,,,,,,,,,,,,,,,,,
57633,1506819509705,,,,,,,,0.02,0.06,1.0,-3.0,-0.5,-0.2,0,0,,,,,,,,,,,,,,,,,,,
57653,1506819509725,,,,,,,,0.02,0.06,1.0,-3.0,-0.5,-0.2,0,0,,,,,,,,,,,,,,,,,,,
57673,1506819509745,0,145.6,,161.2,0,158.0,,0.02,0.06,1.0,-3.0,-0.5,-0.2,0,0,1,1,0.0,0,35.489841,-119.546112,0.0,0.0,295.8,10,3,1.8,0,0.0,-1,0.0,0.0,0.0,0
57693,1506819509765,,,,,,,,0.03,0.06,0.99,-3.0,-0.6,-0.2,0,0,,,,,,,,,,,,,,,,,,,
57713,1506819509785,,,,,,,,0.03,0.06,1.0,-3.0,-0.5,-0.2,0,0,,,,,,,,,,,,,,,,,,,
57733,1506819509807,,,,,,,,0.02,0.06,1.0,-3.0,-0.5,-0.2,0,0,,,,,,,,,,,,,,,,,,,
57753,1506819509827,,,,,,,,0.02,0.06,1.0,-3.0,-0.5,-0.2,0,0,,,,,,,,,,,,,,,,,,,
57773,1506819509847,,,,,0,,,0.03,0.06,1.0,-3.0,-0.5,-0.1,0,0,1,1,0.0,0,35.489841,-119.546112,0.0,0.0,295.8,10,3,1.8,0,0.0,-1,0.0,0.0,0.0,0
57793,1506819509867,,,,,,,,0.03,0.06,1.0,-3.0,-0.6,-0.1,0,0,,,,,,,,,,,,,,,,,,,
57813,1506819509887,,,,,,,,0.03,0.06,1.0,-3.0,-0.6,-0.2,0,0,,,,,,,,,,,,,,,,,,,
57833,1506819509907,,,,,,,,0.03,0.06,1.0,-3.0,-0.5,-0.2,0,0,,,,,,,,,,,,,,,,,,,
57853,1506819509927,,,,,,,,0.03,0.06,1.0,-3.0,-0.5,-0.2,0,0,,,,,,,,,,,,,,,,,,,
