"Interval"|"ms"|0|0|1,"Utc"|"ms"|0|0|1,"FuelLevel"|"F"|0|100|5,"OilTemp"|"F"|0.0|300.0|5,"CoolantPressPSI"|"PSI"|0.0|20.0|1,"Coolant"|"F"|0.0|300.0|5,"OilPress"|"PSI"|0|150|10,"EngineTemp"|"F"|0.0|300.0|5,"Battery"|"Volts"|0.0|20.0|1,"AccelX"|"G"|-3.0|3.0|50,"AccelY"|"G"|-3.0|3.0|50,"AccelZ"|"G"|-3.0|3.0|50,"Yaw"|"Deg/Sec"|-300.0|300.0|50,"Pitch"|"Deg/Sec"|-300.0|300.0|50,"Roll"|"Deg/Sec"|-300.0|300.0|50,"RPM"|""|0|10000|50,"Driveshaft"|"RPM"|0|5000|50,"GPIO1"|""|0|1|10,"GPIO2"|""|0|1|10,"GearRatio"|""|-5.0|5.0|10,"Gear"|""|-1|5|10,"Latitude"|"Degrees"|-180.0|180.0|10,"Longitude"|"Degrees"|-180.0|180.0|10,"Speed"|"mph"|0.0|150.0|10,"Distance"|"mi"|0.0|0.0|10,"Altitude"|"ft"|0.0|4000.0|10,"GPSSats"|""|0|20|10,"GPSQual"|""|0|5|10,"GPSDOP"|""|0.0|20.0|10,"LapCount"|""|0|0|10,"LapTime"|"Min"|0.0|0.0|10,"Sector"|""|0|0|10,"SectorTime"|"Min"|0.0|0.0|10,"PredTime"|"Min"|0.0|0.0|10,"ElapsedTime"|"Min"|0.0|0.0|10,"CurrentLap"|""|0|0|10
29093,1506819950072,,,,,,,,0.03,0.05,1.0,-3.1,-0.8,-0.1,0,0,,,,,,,,,,,,,,,,,,,
29113,1506819950100,,,,,,,,0.03,0.05,1.0,-3.1,-0.8,-0.2,0,0,,,,,,,,,,,,,,,,,,,
29133,1506819950120,,,,,,,,0.03,0.05,1.0,-3.1,-0.8,-0.2,0,0,,,,,,,,,,,,,,,,,,,
29153,1506819950140,,,,,,,,0.03,0.05,1.0,-3.1,-0.8,-0.2,0,0,,,,,,,,,,,,,,,,,,,
29173,1506819950160,,,,,0,,,0.03,0.05,1.0,-3.1,-0.8,-0.2,0,0,1,1,0.0,0,35.489788,-119.546165,1.71,0.005,274.0,10,2,0.1,0,0.0,-1,0.0,0.0,0.0,0
29193,1506819950180,,,,,,,,0.03,0.05,1.0,-3.1,-0.7,-0.2,0,0,,,,,,,,,,,,,,,,,,,
29213,1506819950198,,,,,,,,0.03,0.05,1.0,-3.1,-0.7,-0.2,0,0,,,,,,,,,,,,,,,,,,,
29233,1506819950218,,,,,,,,0.03,0.05,1.0,-3.1,-0.7,-0.2,0,0,,,,,,,,,,,,,,,,,,,
29253,1506819950238,,,,,,,,0.03,0.05,1.0,-3.1,-0.7,-0.2,0,0,,,,,,,,,,,,,,,,,,,
29273,1506819950258,0,145.9,,167.0,0,161.5,,0.03,0.05,1.0,-3.1,-0.7,-0.2,0,0,1,1,0.0,0,35.489788,-119.546165,1.75,0.005,274.0,10,2,0.1,0,0.0,-1,0.0,0.0,0.0,0
29293,1506819950278,,,,,,,,0.03,0.05,1.0,-3.0,-0.6,-0.2,0,0,,,,,,,,,,,,,,,,,,,
29313,1506819950297,,,,,,,,0.03,0.05,1.0,-3.0,-0.6,-0.2,0,0,,,,,,,,,,,,,,,,,,,
29333,1506819950317,,,,,,,,0.03,0.05,1.0,-3.0,-0.5,-0.2,0,0,,,,,,,,,,,,,,,,,,,
29353,1506819950337,,,,,,,,0.02,0.05,1.0,-3.0,-0.5,-0.2,0,0,,,,,,,,,,,,,,,,,,,
29373,1506819950357,,,,,0,,,0.02,0.05,1.0,-3.0,-0.3,-0.2,0,0,1,1,0.0,0,35.489788,-119.546165,1.75,0.005,274.0,10,2,0.1,0,0.0,-1,0.0,0.0,0.0,0
29393,1506819950377,,,,,,,,0.02,0.05,1.0,-3.0,-0.4,-0.2,0,0,,,,,,,,,,,,,,,,,,,
29413,1506819950397,,,,,,,,0.02,0.05,1.0,-3.1,-0.5,-0.2,0,0,,,,,,,,,,,,,,,,,,,
29433,1506819950417,,,,,,,,0.02,0.05,1.0,-3.1,-0.5,-0.2,0,0,,,,,,,,,,,,,,,,,,,
29453,1506819950437,,,,,,,,0.02,0.05,1.0,-3.1,-0.5,-0.2,0,0,,,,,,,,,,,,,,,,,,,
29473,1506819950457,0,146.1,,166.9,0,161.3,,0.02,0.05,1.0,-3.0,-0.5,-0.2,0,0,1,1,0.0,0,35.489788,-119.546165,1.39,0.005,274.0,10,2,0.1,0,0.0,-1,0.0,0.0,0.0,0
29493,1506819950477,,,,,,,,0.02,0.05,1.0,-3.0,-0.5,-0.2,0,0,,,,,,,,,,,,,,,,,,,
29513,1506819950497,,,,,,,,0.02,0.05,1.0,-3.0,-0.6,-0.2,0,0,,,,,,,,,,,,,,,,,,,
29533,1506819950517,,,,,,,,0.02,0.05,1.0,-3.0,-0.6,-0.2,0,0,,,,,,,,,,,,,,,,,,,
29553,1506819950537,,,,,,,,0.02,0.05,1.0,-3.0,-0.6,-0.1,0,0,,,,,,,,,,,,,,,,,,,
29573,1506819950557,,,,,0,,,0.02,0.05,1.0,-3.0,-0.6,-0.1,0,0,1,1,0.0,0,35.489784,-119.546165,1.41,0.005,274.0,10,2,0.1,0,0.0,-1,0.0,0.0,0.0,0
29593,1506819950577,,,,,,,,0.02,0.05,1.0,-3.0,-0.6,-0.2,0,0,,,,,,,,,,,,,,,,,,,
29613,1506819950597,,,,,,,,0.02,0.05,1.0,-3.1,-0.6,-0.1,0,0,,,,,,,,,,,,,,,,,,,
29633,1506819950617,,,,,,,,0.02,0.05,1.0,-3.1,-0.6,-0.1,0,0,,,,,,,,,,,,,,,,,,,
29653,1506819950637,,,,,,,,0.02,0.05,1.0,-3.1,-0.5,-0.1,0,0,,,,,,,,,,,,,,,,,,,
29673,1506819950657,0,146.8,,167.7,0,161.8,,0.02,0.05,1.0,-3.0,-0.6,-0.1,0,0,1,1,0.0,0,35.489784,-119.546165,1.24,0.005,274.1,10,2,0.1,0,0.0,-1,0.0,0.0,0.0,0
29693,1506819950677,,,,,,,,0.02,0.05,1.0,-3.0,-0.5,-0.1,0,0,,,,,,,,,,,,,,,,,,,
29713,1506819950697,,,,,,,,0.02,0.05,1.0,-3.0,-0.5,-0.1,0,0,,,,,,,,,,,,,,,,,,,
29733,1506819950717,,,,,,,,0.02,0.05,1.0,-3.0,-0.6,-0.1,0,0,,,,,,,,,,,,,,,,,,,
29753,1506819950737,,,,,,,,0.02,0.05,1.0,-3.0,-0.6,-0.1,0,0,,,,,,,,,,,,,,,,,,,
29773,1506819950757,,,,,0,,,0.03,0.05,1.0,-3.1,-0.6,-0.2,0,0,1,1,0.0,0,35.489784,-119.546165,1.36,0.005,274.1,10,2,0.1,0,0.0,-1,0.0,0.0,0.0,0
29793,1506819950777,,,,,,,,0.02,0.05,1.0,-3.1,-0.6,-0.1,0,0,,,,,,,,,,,,,,,,,,,
29813,1506819950797,,,,,,,,0.03,0.05,1.0,-3.1,-0.6,-0.1,0,0,,,,,,,,,,,,,,,,,,,
29833,1506819950817,,,,,,,,0.02,0.05,1.0,-3.0,-0.7,-0.2,0,0,,,,,,,,,,,,,,,,,,,
29853,1506819950837,,,,,,,,0.02,0.05,1.0,-3.1,-0.6,-0.1,0,0,,,,,,,,,,,,,,,,,,,
29873,1506819950857,0,145.9,,166.8,0,161.1,,0.03,0.05,1.0,-3.1,-0.6,-0.1,0,0,1,1,0.0,0,35.489784,-119.546165,1.98,0.005,274.1,10,2,0.1,0,0.0,-1,0.0,0.0,0.0,0
29893,1506819950877,,,,,,,,0.03,0.05,1.0,-3.1,-0.6,-0.2,0,0,,,,,,,,,,,,,,,,,,,
29913,1506819950897,,,,,,,,0.03,0.05,1.0,-3.1,-0.6,-0.1,0,0,,,,,,,,,,,,,,,,,,,
29933,1506819950917,,,,,,,,0.03,0.05,1.0,-3.1,-0.6,-0.1,0,0,,,,,,,,,,,,,,,,,,,
29953,1506819950937,,,,,,,,0.03,0.05,1.0,-3.1,-0.6,-0.1,0,0,,,,,,,,,,,,,,,,,,,
29973,1506819950957,,,,,0,,,0.03,0.05,1.0,-3.1,-0.6,-0.2,0,0,1,1,0.0,0,35.489784,-119.546165,2.44,0.005,274.1,10,2,0.1,0,0.0,-1,0.0,0.0,0.0,0
29993,1506819950977,,,,,,,,0.03,0.05,1.0,-3.1,-0.6,-0.2,0,0,,,,,,,,,,,,,,,,,,,
30013,1506819950997,,,,,,,,0.03,0.05,1.0,-3.1,-0.6,-0.2,0,0,,,,,,,,,,,,,,,,,,,
30033,1506819951009,,,,,,,,0.03,0.05,1.0,-3.1,-0.6,-0.2,0,0,,,,,,,,,,,,,,,,,,,
30053,1506819951029,,,,,,,,0.02,0.05,1.0,-3.0,-0.6,-0.2,0,0,,,,,,,,,,,,,,,,,,,
30073,1506819951049,0,146.1,-0.5,167.3,0,161.8,13.15,0.03,0.05,1.0,-3.1,-0.6,-0.2,0,0,1,1,0.0,0,35.489784,-119.546165,2.42,0.005,274.1,10,2,1.8,0,0.0,-1,0.0,0.0,0.0,0
30093,1506819951069,,,,,,,,0.02,0.05,1.0,-3.1,-0.6,-0.2,0,0,,,,,,,,,,,,,,,,,,,
30113,1506819951097,,,,,,,,0.02,0.05,1.0,-3.1,-0.6,-0.1,0,0,,,,,,,,,,,,,,,,,,,
30133,1506819951117,,,,,,,,0.02,0.05,1.0,-3.1,-0.6,-0.1,0,0,,,,,,,,,,,,,,,,,,,
30153,1506819951137,,,,,,,,0.03,0.05,1.0,-3.1,-0.6,-0.2,0,0,,,,,,,,,,,,,,,,,,,
30173,1506819951157,,,,,0,,,0.02,0.05,1.0,-3.0,-0.6,-0.2,0,0,1,1,0.0,0,35.489784,-119.546165,2.64,0.006,274.3,10,2,1.8,0,0.0,-1,0.0,0.0,0.0,0
30193,1506819951177,,,,,,,,0.02,0.05,1.0,-3.1,-0.6,-0.1,0,0,,,,,,,,,,,,,,,,,,,
30213,1506819951199,,,,,,,,0.02,0.05,1.0,-3.0,-0.6,-0.2,0,0,,,,,,,,,,,,,,,,,,,
30233,1506819951219,,,,,,,,0.02,0.05,1.0,-3.0,-0.6,-0.2,0,0,,,,,,,,,,,,,,,,,,,
30253,1506819951239,,,,,,,,0.02,0.05,1.0,-3.0,-0.6,-0.2,0,0,,,,,,,,,,,,,,,,,,,
30273,1506819951259,0,145.3,,166.5,0,161.3,,0.02,0.05,1.0,-3.0,-0.6,-0.2,0,0,1,1,0.0,0,35.489784,-119.546165,1.31,0.006,274.4,10,2,1.8,0,0.0,-1,0.0,0.0,0.0,0
30293,1506819951279,,,,,,,,0.02,0.05,1.0,-3.0,-0.6,-0.2,0,0,,,,,,,,,,,,,,,,,,,
30313,1506819951298,,,,,,,,0.02,0.05,1.0,-3.0,-0.6,-0.2,0,0,,,,,,,,,,,,,,,,,,,
30333,1506819951318,,,,,,,,0.02,0.05,1.0,-3.0,-0.6,-0.2,0,0,,,,,,,,,,,,,,,,,,,
30353,1506819951338,,,,,,,,0.03,0.05,1.0,-3.0,-0.6,-0.2,0,0,,,,,,,,,,,,,,,,,,,
30373,1506819951358,,,,,0,,,0.03,0.05,1.0,-3.0,-0.6,-0.2,0,0,1,1,0.0,0,35.489784,-119.546165,0.0,0.006,274.5,10,2,1.8,0,0.0,-1,0.0,0.0,0.0,0
30393,1506819951378,,,,,,,,0.03,0.05,1.0,-3.0,-0.6,-0.2,0,0,,,,,,,,,,,,,,,,,,,
30413,1506819951396,,,,,,,,0.03,0.05,1.0,-3.0,-0.6,-0.1,0,0,,,,,,,,,,,,,,,,,,,
30433,1506819951416,,,,,,,,0.03,0.05,1.0,-3.0,-0.6,-0.1,0,0,,,,,,,,,,,,,,,,,,,
30453,1506819951436,,,,,,,,0.03,0.05,1.0,-3.0,-0.6,-0.1,0,0,,,,,,,,,,,,,,,,,,,
30473,1506819951456,0,146.1,,167.1,0,161.2,,0.03,0.05,1.0,-3.0,-0.6,-0.1,0,0,1,1,0.0,0,35.489784,-119.546165,0.0,0.006,274.5,10,2,1.8,0,0.0,-1,0.0,0.0,0.0,0
30493,1506819951476,,,,,,,,0.03,0.05,1.0,-3.0,-0.6,-0.1,0,0,,,,,,,,,,,,,,,,,,,
30513,1506819951492,,,,,,,,0.03,0.05,1.0,-3.0,-0.6,-0.1,0,0,,,,,,,,,,,,,,,,,,,
30533,1506819951512,,,,,,,,0.03,0.05,1.0,-3.0,-0.6,-0.1,0,0,,,,,,,,,,,,,,,,,,,
30553,1506819951532,,,,,,,,0.03,0.05,1.0,-3.0,-0.6,-0.1,0,0,,,,,,,,,,,,,,,,,,,
30573,1506819951552,,,,,0,,,0.03,0.05,1.0,-3.0,-0.6,-0.1,0,0,1,1,0.0,0,35.489784,-119.546165,0.0,0.006,274.5,10,2,1.8,0,0.0,-1,0.0,0.0,0.0,0
30593,1506819951572,,,,,,,,0.03,0.05,1.0,-3.0,-0.6,-0.1,0,0,,,,,,,,,,,,,,,,,,,
30613,1506819951598,,,,,,,,0.03,0.05,1.0,-3.0,-0.6,-0.1,0,0,,,,,,,,,,,,,,,,,,,
30633,1506819951618,,,,,,,,0.03,0.05,1.0,-3.0,-0.6,-0.1,0,0,,,,,,,,,,,,,,,,,,,
30653,1506819951638,,,,,,,,0.03,0.05,1.0,-3.0,-0.6,-0.1,0,0,,,,,,,,,,,,,,,,,,,
30673,1506819951658,0,146.0,,167.3,0,161.8,,0.03,0.05,1.0,-3.0,-0.6,-0.1,0,0,1,1,0.0,0,35.489784,-119.546165,0.0,0.006,274.6,10,2,1.8,0,0.0,-1,0.0,0.0,0.0,0
30693,1506819951678,,,,,,,,0.03,0.05,1.0,-3.0,-0.6,-0.1,0,0,,,,,,,,,,,,,,,,,,,
30713,1506819951698,,,,,,,,0.03,0.05,1.0,-3.0,-0.6,-0.1,0,0,,,,,,,,,,,,,,,,,,,
30733,1506819951718,,,,,,,,0.02,0.05,1.0,-3.0,-0.6,-0.1,0,0,,,,,,,,,,,,,,,,,,,
30753,1506819951738,,,,,,,,0.03,0.05,1.0,-3.0,-0.6,-0.1,0,0,,,,,,,,,,,,,,,,,,,
30773,1506819951758,,,,,0,,,0.03,0.05,1.0,-3.0,-0.6,-0.1,0,0,1,1,0.0,0,35.489784,-119.546165,0.0,0.006,274.6,10,2,1.8,0,0.0,-1,0.0,0.0,0.0,0
30793,1506819951778,,,,,,,,0.03,0.05,1.0,-3.0,-0.6,-0.1,0,0,,,,,,,,,,,,,,,,,,,
30813,1506819951798,,,,,,,,0.03,0.05,1.0,-3.0,-0.6,-0.1,0,0,,,,,,,,,,,,,,,,,,,
30833,1506819951818,,,,,,,,0.02,0.05,1.0,-3.0,-0.6,-0.2,0,0,,,,,,,,,,,,,,,,,,,
30853,1506819951838,,,,,,,,0.02,0.05,1.0,-3.0,-0.6,-0.2,0,0,,,,,,,,,,,,,,,,,,,
30873,1506819951858,0,145.8,,166.5,0,161.1,,0.02,0.05,1.0,-3.0,-0.6,-0.2,0,0,1,1,0.0,0,35.489784,-119.546165,0.0,0.006,274.6,10,2,1.8,0,0.0,-1,0.0,0.0,0.0,0
30893,1506819951878,,,,,,,,0.03,0.05,1.0,-3.0,-0.6,-0.2,0,0,,,,,,,,,,,,,,,,,,,
30913,1506819951894,,,,,,,,0.02,0.05,1.0,-3.0,-0.6,-0.2,0,0,,,,,,,,,,,,,,,,,,,
30933,1506819951914,,,,,,,,0.02,0.05,1.0,-3.0,-0.6,-0.2,0,0,,,,,,,,,,,,,,,,,,,
30953,1506819951934,,,,,,,,0.02,0.05,1.0,-3.0,-0.6,-0.2,0,0,,,,,,,,,,,,,,,,,,,
30973,1506819951954,,,,,0,,,0.02,0.05,1.0,-3.0,-0.6,-0.2,0,0,1,1,0.0,0,35.489784,-119.546165,0.0,0.006,274.7,10,2,1.8,0,0.0,-1,0.0,0.0,0.0,0
30993,1506819951974,,,,,,,,0.02,0.05,1.0,-3.0,-0.6,-0.1,0,0,,,,,,,,,,,,,,,,,,,
31013,1506819951994,,,,,,,,0.02,0.05,1.0,-3.0,-0.6,-0.1,0,0,,,,,,,,,,,,,,,,,,,
31033,1506819952014,,,,,,,,0.02,0.05,1.0,-3.0,-0.6,-0.1,0,0,,,,,,,,,,,,,,,,,,,
31053,1506819952034,,,,,,,,0.02,0.05,1.0,-3.0,-0.6,-0.2,0,0,,,,,,,,,,,,,,,,,,,
31073,1506819952054,0,145.9,-0.5,167.3,0,161.8,13.15,0.02,0.05,1.0,-3.0,-0.6,-0.2,0,0,1,1,0.0,0,35.489784,-119.546165,0.0,0.006,274.7,10,2,0.1,0,0.0,-1,0.0,0.0,0.0,0
31093,1506819952074,,,,,,,,0.02,0.05,1.0,-3.0,-0.6,-0.1,0,0,,,,,,,,,,,,,,,,,,,
31113,1506819952100,,,,,,,,0.02,0.05,1.0,-3.0,-0.6,-0.1,0,0,,,,,,,,,,,,,,,,,,,
31133,1506819952120,,,,,,,,0.03,0.05,1.0,-3.0,-0.6,-0.1,0,0,,,,,,,,,,,,,,,,,,,
31153,1506819952140,,,,,,,,0.03,0.05,1.0,-3.0,-0.6,-0.1,0,0,,,,,,,,,,,,,,,,,,,
31173,1506819952160,,,,,0,,,0.03,0.05,1.0,-3.0,-0.6,-0.1,0,0,1,1,0.0,0,35.489788,-119.546165,0.0,0.006,275.6,10,2,0.1,0,0.0,-1,0.0,0.0,0.0,0
31193,1506819952180,,,,,,,,0.03,0.05,1.0,-3.0,-0.6,-0.1,0,0,,,,,,,,,,,,,,,,,,,
31213,1506819952198,,,,,,,,0.03,0.05,1.0,-3.0,-0.6,-0.1,0,0,,,,,,,,,,,,,,,,,,,
31233,1506819952218,,,,,,,,0.03,0.05,1.0,-3.0,-0.6,-0.2,0,0,,,,,,,,,,,,,,,,,,,
31253,1506819952238,,,,,,,,0.03,0.05,1.0,-3.0,-0.6,-0.2,0,0,,,,,,,,,,,,,,,,,,,
31273,1506819952258,0,145.6,,167.2,0,161.8,,0.03,0.05,1.0,-3.0,-0.6,-0.2,0,0,1,1,0.0,0,35.489788,-119.546165,0.0,0.006,276.2,10,2,2.5,0,0.0,-1,0.0,0.0,0.0,0
31293,1506819952278,,,,,,,,0.03,0.05,1.0,-3.0,-0.6,-0.2,0,0,,,,,,,,,,,,,,,,,,,
31313,1506819952297,,,,,,,,0.03,0.05,1.0,-3.0,-0.6,-0.2,0,0,,,,,,,,,,,,,,,,,,,
31333,1506819952317,,,,,,,,0.03,0.05,1.0,-3.0,-0.6,-0.2,0,0,,,,,,,,,,,,,,,,,,,
31353,1506819952337,,,,,,,,0.03,0.05,1.0,-3.0,-0.6,-0.2,0,0,,,,,,,,,,,,,,,,,,,
31373,1506819952357,,,,,0,,,0.03,0.05,1.0,-3.0,-0.6,-0.2,0,0,1,1,0.0,0,35.489788,-119.546165,0.0,0.006,276.2,10,2,2.5,0,0.0,-1,0.0,0.0,0.0,0
31393,1506819952377,,,,,,,,0.03,0.05,1.0,-3.0,-0.6,-0.2,0,0,,,,,,,,,,,,,,,,,,,
31413,1506819952397,,,,,,,,0.03,0.05,1.0,-3.0,-0.6,-0.2,0,0,,,,,,,,,,,,,,,,,,,
31433,1506819952417,,,,,,,,0.03,0.05,1.0,-3.0,-0.6,-0.2,0,0,,,,,,,,,,,,,,,,,,,
31453,1506819952437,,,,,,,,0.03,0.05,1.0,-3.0,-0.6,-0.1,0,0,,,,,,,,,,,,,,,,,,,
31473,1506819952457,0,146.1,,167.3,0,161.6,,0.03,0.05,1.0,-3.0,-0.6,-0.1,0,0,1,1,0.0,0,35.489788,-119.546165,0.0,0.006,276.2,10,2,2.5,0,0.0,-1,0.0,0.0,0.0,0
31493,1506819952477,,,,,,,,0.03,0.05,1.0,-3.0,-0.6,-0.2,0,0,,,,,,,,,,,,,,,,,,,
31513,1506819952497,,,,,,,,0.03,0.05,1.0,-3.0,-0.6,-0.1,0,0,,,,,,,,,,,,,,,,,,,
31533,1506819952517,,,,,,,,0.03,0.05,0.99,-3.0,-0.6,-0.1,0,0,,,,,,,,,,,,,,,,,,,
31553,1506819952537,,,,,,,,0.03,0.05,1.0,-3.0,-0.6,-0.1,0,0,,,,,,,,,,,,,,,,,,,
31573,1506819952557,,,,,0,,,0.03,0.05,1.0,-3.0,-0.6,-0.1,0,0,1,1,0.0,0,35.489788,-119.546165,0.0,0.006,276.2,10,2,2.5,0,0.0,-1,0.0,0.0,0.0,0
31593,1506819952577,,,,,,,,0.03,0.05,1.0,-3.0,-0.6,-0.1,0,0,,,,,,,,,,,,,,,,,,,
31613,1506819952597,,,,,,,,0.03,0.05,1.0,-3.0,-0.6,-0.1,0,0,,,,,,,,,,,,,,,,,,,
31633,1506819952617,,,,,,,,0.03,0.05,1.0,-3.0,-0.6,-0.1,0,0,,,,,,,,,,,,,,,,,,,
31653,1506819952637,,,,,,,,0.02,0.05,1.0,-3.0,-0.6,-0.1,0,0,,,,,,,,,,,,,,,,,,,
31673,1506819952657,0,145.6,,167.0,0,161.8,,0.02,0.05,1.0,-3.0,-0.6,-0.1,0,0,1,1,0.0,0,35.489788,-119.546165,0.0,0.006,276.2,10,2,2.5,0,0.0,-1,0.0,0.0,0.0,0
31693,1506819952677,,,,,,,,0.02,0.05,1.0,-3.0,-0.6,-0.1,0,0,,,,,,,,,,,,,,,,,,,
31713,1506819952697,,,,,,,,0.02,0.05,1.0,-3.0,-0.6,-0.1,0,0,,,,,,,,,,,,,,,,,,,
31733,1506819952717,,,,,,,,0.02,0.05,1.0,-3.0,-0.6,-0.2,0,0,,,,,,,,,,,,,,,,,,,
31753,1506819952737,,,,,,,,0.02,0.05,1.0,-3.0,-0.6,-0.2,0,0,,,,,,,,,,,,,,,,,,,
31773,1506819952757,,,,,0,,,0.02,0.05,1.0,-3.0,-0.6,-0.2,0,0,1,1,0.0,0,35.489788,-119.546165,0.0,0.006,276.2,10,2,2.5,0,0.0,-1,0.0,0.0,0.0,0
31793,1506819952777,,,,,,,,0.02,0.05,1.0,-3.0,-0.6,-0.2,0,0,,,,,,,,,,,,,,,,,,,
31813,1506819952797,,,,,,,,0.02,0.05,1.0,-3.0,-0.6,-0.2,0,0,,,,,,,,,,,,,,,,,,,
31833,1506819952817,,,,,,,,0.02,0.05,1.0,-3.0,-0.6,-0.2,0,0,,,,,,,,,,,,,,,,,,,
31853,1506819952837,,,,,,,,0.02,0.05,1.0,-3.0,-0.6,-0.2,0,0,,,,,,,,,,,,,,,,,,,
31873,1506819952857,0,145.9,,167.2,0,161.8,,0.02,0.05,1.0,-3.0,-0.6,-0.2,0,0,1,1,0.0,0,35.489788,-119.546165,0.0,0.006,276.2,10,2,2.5,0,0.0,-1,0.0,0.0,0.0,0
31893,1506819952877,,,,,,,,0.02,0.05,1.0,-3.0,-0.5,-0.2,0,0,,,,,,,,,,,,,,,,,,,
31913,1506819952897,,,,,,,,0.02,0.05,1.0,-3.0,-0.6,-0.2,0,0,,,,,,,,,,,,,,,,,,,
31933,1506819952917,,,,,,,,0.02,0.05,1.0,-3.0,-0.6,-0.1,0,0,,,,,,,,,,,,,,,,,,,
31953,1506819952937,,,,,,,,0.02,0.05,1.0,-3.0,-0.6,-0.2,0,0,,,,,,,,,,,,,,,,,,,
31973,1506819952957,,,,,0,,,0.02,0.05,1.0,-3.0,-0.6,-0.2,0,0,1,1,0.0,0,35.489788,-119.546165,0.0,0.006,276.2,10,2,2.5,0,0.0,-1,0.0,0.0,0.0,0
31993,1506819952977,,,,,,,,0.02,0.05,1.0,-3.0,-0.6,-0.1,0,0,,,,,,,,,,,,,,,,,,,
32013,1506819952991,,,,,,,,0.02,0.05,1.0,-3.0,-0.5,-0.1,0,0,,,,,,,,,,,,,,,,,,,
32033,1506819953011,,,,,,,,0.03,0.05,1.0,-3.0,-0.5,-0.1,0,0,,,,,,,,,,,,,,,,,,,
32053,1506819953031,,,,,,,,0.03,0.05,1.0,-3.0,-0.5,-0.1,0,0,,,,,,,,,,,,,,,,,,,
32073,1506819953051,0,145.3,-0.6,166.8,0,161.7,13.15,0.03,0.05,1.0,-3.0,-0.5,-0.1,0,0,1,1,0.0,0,35.489788,-119.546165,0.0,0.006,276.2,10,2,2.5,0,0.0,-1,0.0,0.0,0.0,0
32093,1506819953071,,,,,,,,0.03,0.05,1.0,-3.0,-0.5,-0.1,0,0,,,,,,,,,,,,,,,,,,,
32113,1506819953097,,,,,,,,0.03,0.05,1.0,-3.0,-0.5,-0.1,0,0,,,,,,,,,,,,,,,,,,,
32133,1506819953117,,,,,,,,0.03,0.05,1.0,-3.0,-0.5,-0.1,0,0,,,,,,,,,,,,,,,,,,,
32153,1506819953137,,,,,,,,0.03,0.05,1.0,-3.0,-0.6,-0.1,0,0,,,,,,,,,,,,,,,,,,,
32173,1506819953157,,,,,0,,,0.03,0.05,1.0,-3.0,-0.6,-0.2,0,0,1,1,0.0,0,35.489788,-119.546165,0.0,0.006,276.2,10,2,2.5,0,0.0,-1,0.0,0.0,0.0,0
32193,1506819953177,,,,,,,,0.03,0.05,1.0,-3.0,-0.6,-0.2,0,0,,,,,,,,,,,,,,,,,,,
32213,1506819953197,,,,,,,,0.03,0.05,1.0,-3.0,-0.6,-0.2,0,0,,,,,,,,,,,,,,,,,,,
32233,1506819953217,,,,,,,,0.03,0.05,1.0,-3.0,-0.6,-0.1,0,0,,,,,,,,,,,,,,,,,,,
32253,1506819953237,,,,,,,,0.03,0.05,1.0,-3.0,-0.6,-0.2,0,0,,,,,,,,,,,,,,,,,,,
32273,1506819953257,0,145.3,,166.6,0,161.4,,0.03,0.05,1.0,-3.0,-0.5,-0.1,0,0,1,1,0.0,0,35.489788,-119.546165,0.0,0.006,276.2,10,2,2.5,0,0.0,-1,0.0,0.0,0.0,0
32293,1506819953277,,,,,,,,0.03,0.05,1.0,-3.0,-0.5,-0.2,0,0,,,,,,,,,,,,,,,,,,,
32313,1506819953296,,,,,,,,0.03,0.05,1.0,-3.0,-0.6,-0.2,0,0,,,,,,,,,,,,,,,,,,,
32333,1506819953316,,,,,,,,0.03,0.05,1.0,-3.0,-0.6,-0.1,0,0,,,,,,,,,,,,,,,,,,,
32353,1506819953336,,,,,,,,0.03,0.05,1.0,-3.0,-0.5,-0.1,0,0,,,,,,,,,,,,,,,,,,,
32373,1506819953356,,,,,0,,,0.03,0.05,1.0,-3.0,-0.5,-0.1,0,0,1,1,0.0,0,35.489788,-119.546165,0.0,0.006,276.2,10,2,2.5,0,0.0,-1,0.0,0.0,0.0,0
32393,1506819953376,,,,,,,,0.03,0.05,1.0,-3.0,-0.5,-0.1,0,0,,,,,,,,,,,,,,,,,,,
32413,1506819953396,,,,,,,,0.03,0.05,1.0,-3.0,-0.6,-0.1,0,0,,,,,,,,,,,,,,,,,,,
32433,1506819953416,,,,,,,,0.03,0.05,1.0,-3.0,-0.6,-0.1,0,0,,,,,,,,,,,,,,,,,,,
32453,1506819953436,,,,,,,,0.03,0.05,1.0,-3.0,-0.6,-0.1,0,0,,,,,,,,,,,,,,,,,,,
32473,1506819953456,0,146.1,,167.3,0,161.5,,0.03,0.05,1.0,-3.1,-0.6,-0.1,0,0,1,1,0.0,0,35.489792,-119.546165,0.0,0.006,276.9,10,2,1.8,0,0.0,-1,0.0,0.0,0.0,0
32493,1506819953476,,,,,,,,0.03,0.05,1.0,-3.1,-0.6,-0.1,0,0,,,,,,,,,,,,,,,,,,,
32513,1506819953496,,,,,,,,0.03,0.05,1.0,-3.1,-0.6,-0.2,0,0,,,,,,,,,,,,,,,,,,,
32533,1506819953516,,,,,,,,0.03,0.05,1.0,-3.1,-0.6,-0.2,0,0,,,,,,,,,,,,,,,,,,,
32553,1506819953536,,,,,,,,0.03,0.05,1.0,-3.1,-0.6,-0.2,0,0,,,,,,,,,,,,,,,,,,,
32573,1506819953556,,,,,0,,,0.03,0.05,1.0,-3.1,-0.6,-0.2,0,0,1,1,0.0,0,35.489792,-119.546165,0.0,0.006,276.9,10,2,1.8,0,0.0,-1,0.0,0.0,0.0,0
32593,1506819953576,,,,,,,,0.02,0.05,1.0,-3.0,-0.6,-0.1,0,0,,,,,,,,,,,,,,,,,,,
32613,1506819953596,,,,,,,,0.02,0.05,1.0,-3.0,-0.6,-0.2,0,0,,,,,,,,,,,,,,,,,,,
32633,1506819953616,,,,,,,,0.02,0.05,1.0,-3.0,-0.6,-0.1,0,0,,,,,,,,,,,,,,,,,,,
32653,1506819953636,,,,,,,,0.02,0.05,1.0,-3.0,-0.6,-0.1,0,0,,,,,,,,,,,,,,,,,,,
32673,1506819953656,0,145.9,,167.1,0,161.7,,0.03,0.05,1.0,-3.0,-0.6,-0.1,0,0,1,1,0.0,0,35.489792,-119.546165,0.0,0.006,276.9,10,2,1.8,0,0.0,-1,0.0,0.0,0.0,0
32693,1506819953676,,,,,,,,0.03,0.05,1.0,-3.0,-0.6,-0.1,0,0,,,,,,,,,,,,,,,,,,,
32713,1506819953696,,,,,,,,0.03,0.05,1.0,-3.0,-0.6,-0.2,0,0,,,,,,,,,,,,,,,,,,,
32733,1506819953716,,,,,,,,0.03,0.05,1.0,-3.0,-0.6,-0.1,0,0,,,,,,,,,,,,,,,,,,,
32753,1506819953736,,,,,,,,0.03,0.05,1.0,-3.0,-0.6,-0.1,0,0,,,,,,,,,,,,,,,,,,,
32773,1506819953756,,,,,0,,,0.02,0.05,1.0,-3.0,-0.6,-0.1,0,0,1,1,0.0,0,35.489792,-119.546165,0.0,0.006,276.9,10,2,1.8,0,0.0,-1,0.0,0.0,0.0,0
32793,1506819953776,,,,,,,,0.02,0.05,1.0,-3.0,-0.6,-0.2,0,0,,,,,,,,,,,,,,,,,,,
32813,1506819953794,,,,,,,,0.02,0.05,1.0,-3.0,-0.6,-0.2,0,0,,,,,,,,,,,,,,,,,,,
32833,1506819953814,,,,,,,,0.02,0.05,1.0,-3.0,-0.6,-0.2,0,0,,,,,,,,,,,,,,,,,,,
32853,1506819953834,,,,,,,,0.03,0.05,1.0,-3.0,-0.6,-0.2,0,0,,,,,,,,,,,,,,,,,,,
32873,1506819953854,0,145.9,,166.8,0,161.0,,0.03,0.05,1.0,-3.0,-0.6,-0.2,0,0,1,1,0.0,0,35.489792,-119.546165,0.0,0.006,276.9,10,2,1.8,0,0.0,-1,0.0,0.0,0.0,0
32893,1506819953874,,,,,,,,0.03,0.05,1.0,-3.0,-0.6,-0.2,0,0,,,,,,,,,,,,,,,,,,,
32913,1506819953896,,,,,,,,0.03,0.05,1.0,-3.0,-0.6,-0.2,0,0,,,,,,,,,,,,,,,,,,,
32933,1506819953916,,,,,,,,0.02,0.05,1.0,-3.0,-0.6,-0.2,0,0,,,,,,,,,,,,,,,,,,,
32953,1506819953936,,,,,,,,0.02,0.05,1.0,-3.0,-0.6,-0.2,0,0,,,,,,,,,,,,,,,,,,,
32973,1506819953956,,,,,0,,,0.02,0.05,1.0,-3.0,-0.6,-0.2,0,0,1,1,0.0,0,35.489792,-119.546165,0.0,0.006,276.9,10,2,1.8,0,0.0,-1,0.0,0.0,0.0,0
32993,1506819953976,,,,,,,,0.03,0.05,1.0,-3.1,-0.6,-0.1,0,0,,,,,,,,,,,,,,,,,,,
33013,1506819953996,,,,,,,,0.03,0.05,1.0,-3.1,-0.6,-0.1,0,0,,,,,,,,,,,,,,,,,,,
33033,1506819954010,,,,,,,,0.03,0.05,1.0,-3.1,-0.5,-0.1,0,0,,,,,,,,,,,,,,,,,,,
33053,1506819954030,,,,,,,,0.03,0.05,1.0,-3.1,-0.6,-0.1,0,0,,,,,,,,,,,,,,,,,,,
33073,1506819954050,0,145.3,-0.6,166.5,0,161.4,13.16,0.03,0.05,1.0,-3.1,-0.6,-0.1,0,0,1,1,0.0,0,35.489792,-119.546165,0.0,0.006,276.9,10,2,1.8,0,0.0,-1,0.0,0.0,0.0,0
33093,1506819954070,,,,,,,,0.03,0.05,1.0,-3.1,-0.6,-0.1,0,0,,,,,,,,,,,,,,,,,,,
33113,1506819954096,,,,,,,,0.03,0.05,1.0,-3.1,-0.6,-0.1,0,0,,,,,,,,,,,,,,,,,,,
33133,1506819954116,,,,,,,,0.03,0.05,1.0,-3.1,-0.6,-0.1,0,0,,,,,,,,,,,,,,,,,,,
33153,1506819954136,,,,,,,,0.03,0.05,1.0,-3.1,-0.6,-0.1,0,0,,,,,,,,,,,,,,,,,,,
33173,1506819954156,,,,,0,,,0.03,0.05,1.0,-3.1,-0.6,-0.1,0,0,1,1,0.0,0,35.489792,-119.546165,0.0,0.006,276.9,10,2,1.8,0,0.0,-1,0.0,0.0,0.0,0
33193,1506819954176,,,,,,,,0.03,0.05,1.0,-3.1,-0.6,-0.1,0,0,,,,,,,,,,,,,,,,,,,
33213,1506819954196,,,,,,,,0.03,0.05,1.0,-3.1,-0.6,-0.1,0,0,,,,,,,,,,,,,,,,,,,
33233,1506819954216,,,,,,,,0.03,0.05,1.0,-3.1,-0.6,-0.2,0,0,,,,,,,,,,,,,,,,,,,
33253,1506819954236,,,,,,,,0.03,0.05,1.0,-3.0,-0.6,-0.2,0,0,,,,,,,,,,,,,,,,,,,
33273,1506819954256,0,145.2,,166.6,0,161.6,,0.03,0.05,1.0,-3.0,-0.6,-0.2,0,0,1,1,0.0,0,35.489792,-119.546165,0.0,0.006,276.9,10,2,1.8,0,0.0,-1,0.0,0.0,0.0,0
33293,1506819954276,,,,,,,,0.03,0.05,1.0,-3.0,-0.6,-0.2,0,0,,,,,,,,,,,,,,,,,,,
33313,1506819954295,,,,,,,,0.03,0.05,1.0,-3.0,-0.6,-0.2,0,0,,,,,,,,,,,,,,,,,,,
33333,1506819954315,,,,,,,,0.03,0.05,1.0,-3.0,-0.6,-0.2,0,0,,,,,,,,,,,,,,,,,,,
33353,1506819954335,,,,,,,,0.03,0.05,1.0,-3.0,-0.6,-0.2,0,0,,,,,,,,,,,,,,,,,,,
33373,1506819954355,,,,,0,,,0.03,0.05,1.0,-3.0,-0.6,-0.2,0,0,1,1,0.0,0,35.489792,-119.546165,0.0,0.006,276.9,10,2,1.8,0,0.0,-1,0.0,0.0,0.0,0
33393,1506819954375,,,,,,,,0.03,0.05,1.0,-3.1,-0.6,-0.2,0,0,,,,,,,,,,,,,,,,,,,
33413,1506819954395,,,,,,,,0.03,0.05,1.0,-3.1,-0.6,-0.2,0,0,,,,,,,,,,,,,,,,,,,
33433,1506819954415,,,,,,,,0.03,0.05,1.0,-3.1,-0.6,-0.2,0,0,,,,,,,,,,,,,,,,,,,
33453,1506819954435,,,,,,,,0.03,0.05,1.0,-3.1,-0.6,-0.2,0,0,,,,,,,,,,,,,,,,,,,
33473,1506819954455,0,145.6,,167.1,0,161.8,,0.03,0.05,1.0,-3.1,-0.6,-0.1,0,0,1,1,0.0,0,35.489792,-119.546165,0.0,0.006,276.9,10,2,1.8,0,0.0,-1,0.0,0.0,0.0,0
33493,1506819954475,,,,,,,,0.03,0.05,1.0,-3.1,-0.6,-0.1,0,0,,,,,,,,,,,,,,,,,,,
33513,1506819954495,,,,,,,,0.03,0.05,1.0,-3.1,-0.6,-0.1,0,0,,,,,,,,,,,,,,,,,,,
33533,1506819954515,,,,,,,,0.03,0.05,1.0,-3.1,-0.6,-0.1,0,0,,,,,,,,,,,,,,,,,,,
33553,1506819954535,,,,,,,,0.03,0.05,1.0,-3.1,-0.6,-0.2,0,0,,,,,,,,,,,,,,,,,,,
33573,1506819954555,,,,,0,,,0.03,0.05,1.0,-3.1,-0.6,-0.1,0,0,1,1,0.0,0,35.489792,-119.546165,0.0,0.006,276.9,10,2,1.8,0,0.0,-1,0.0,0.0,0.0,0
33593,1506819954575,,,,,,,,0.03,0.05,1.0,-3.1,-0.6,-0.2,0,0,,,,,,,,,,,,,,,,,,,
33613,1506819954595,,,,,,,,0.03,0.05,1.0,-3.1,-0.6,-0.2,0,0,,,,,,,,,,,,,,,,,,,
33633,1506819954615,,,,,,,,0.03,0.05,1.0,-3.0,-0.6,-0.1,0,0,,,,,,,,,,,,,,,,,,,
33653,1506819954635,,,,,,,,0.03,0.05,1.0,-3.0,-0.6,-0.1,0,0,,,,,,,,,,,,,,,,,,,
33673,1506819954655,0,146.0,,167.2,0,161.2,,0.03,0.05,1.0,-3.0,-0.5,-0.1,0,0,1,1,0.0,0,35.489792,-119.546165,0.0,0.006,276.9,10,2,1.8,0,0.0,-1,0.0,0.0,0.0,0
33693,1506819954675,,,,,,,,0.03,0.05,1.0,-3.1,-0.5,-0.1,0,0,,,,,,,,,,,,,,,,,,,
33713,1506819954695,,,,,,,,0.03,0.05,1.0,-3.0,-0.5,-0.1,0,0,,,,,,,,,,,,,,,,,,,
33733,1506819954715,,,,,,,,0.03,0.05,1.0,-3.0,-0.5,-0.1,0,0,,,,,,,,,,,,,,,,,,,
33753,1506819954735,,,,,,,,0.03,0.05,1.0,-3.0,-0.5,-0.1,0,0,,,,,,,,,,,,,,,,,,,
33773,1506819954755,,,,,0,,,0.03,0.05,1.0,-3.0,-0.5,-0.1,0,0,1,1,0.0,0,35.489792,-119.546165,0.0,0.006,276.9,10,2,1.8,0,0.0,-1,0.0,0.0,0.0,0
33793,1506819954775,,,,,,,,0.03,0.05,1.0,-3.0,-0.6,-0.2,0,0,,,,,,,,,,,,,,,,,,,
33813,1506819954795,,,,,,,,0.03,0.05,1.0,-3.0,-0.6,-0.2,0,0,,,,,,,,,,,,,,,,,,,
33833,1506819954815,,,,,,,,0.03,0.05,1.0,-3.0,-0.6,-0.2,0,0,,,,,,,,,,,,,,,,,,,
33853,1506819954835,,,,,,,,0.03,0.05,1.0,-3.0,-0.6,-0.2,0,0,,,,,,,,,,,,,,,,,,,
33873,1506819954855,0,145.3,,166.6,0,161.1,,0.03,0.05,1.0,-3.0,-0.5,-0.2,0,0,1,1,0.0,0,35.489792,-119.546165,0.0,0.006,276.9,10,2,1.8,0,0.0,-1,0.0,0.0,0.0,0
33893,1506819954875,,,,,,,,0.03,0.05,1.0,-3.0,-0.5,-0.2,0,0,,,,,,,,,,,,,,,,,,,
33913,1506819954895,,,,,,,,0.03,0.05,1.0,-3.1,-0.6,-0.2,0,0,,,,,,,,,,,,,,,,,,,
33933,1506819954915,,,,,,,,0.03,0.05,1.0,-3.1,-0.6,-0.2,0,0,,,,,,,,,,,,,,,,,,,
33953,1506819954935,,,,,,,,0.03,0.05,1.0,-3.1,-0.6,-0.2,0,0,,,,,,,,,,,,,,,,,,,
33973,1506819954955,,,,,0,,,0.03,0.05,1.0,-3.1,-0.6,-0.2,0,0,1,1,0.0,0,35.489792,-119.546165,0.0,0.006,276.9,10,2,1.8,0,0.0,-1,0.0,0.0,0.0,0
33993,1506819954975,,,,,,,,0.03,0.05,1.0,-3.1,-0.5,-0.2,0,0,,,,,,,,,,,,,,,,,,,
34013,1506819954995,,,,,,,,0.03,0.05,1.0,-3.1,-0.5,-0.2,0,0,,,,,,,,,,,,,,,,,,,
34033,1506819955009,,,,,,,,0.03,0.05,1.0,-3.0,-0.6,-0.1,0,0,,,,,,,,,,,,,,,,,,,
34053,1506819955029,,,,,,,,0.03,0.05,1.0,-3.0,-0.6,-0.1,0,0,,,,,,,,,,,,,,,,,,,
34073,1506819955049,0,145.3,-0.7,166.5,0,161.0,13.15,0.03,0.05,1.0,-3.0,-0.6,-0.1,0,0,1,1,0.0,0,35.489792,-119.546165,0.0,0.006,276.9,10,2,1.8,0,0.0,-1,0.0,0.0,0.0,0
34093,1506819955069,,,,,,,,0.03,0.05,1.0,-3.0,-0.6,-0.1,0,0,,,,,,,,,,,,,,,,,,,
34113,1506819955097,,,,,,,,0.03,0.05,1.0,-3.0,-0.6,-0.1,0,0,,,,,,,,,,,,,,,,,,,
34133,1506819955117,,,,,,,,0.03,0.05,1.0,-3.0,-0.5,-0.1,0,0,,,,,,,,,,,,,,,,,,,
34153,1506819955137,,,,,,,,0.03,0.05,1.0,-3.0,-0.5,-0.1,0,0,,,,,,,,,,,,,,,,,,,
34173,1506819955157,,,,,0,,,0.03,0.05,1.0,-3.0,-0.5,-0.1,0,0,1,1,0.0,0,35.489792,-119.546165,0.0,0.006,276.9,10,2,1.8,0,0.0,-1,0.0,0.0,0.0,0
34193,1506819955177,,,,,,,,0.03,0.05,1.0,-3.0,-0.6,-0.1,0,0,,,,,,,,,,,,,,,,,,,
34213,1506819955197,,,,,,,,0.03,0.05,1.0,-3.0,-0.6,-0.1,0,0,,,,,,,,,,,,,,,,,,,
34233,1506819955217,,,,,,,,0.03,0.05,1.0,-3.0,-0.6,-0.1,0,0,,,,,,,,,,,,,,,,,,,
34253,1506819955237,,,,,,,,0.03,0.05,1.0,-3.0,-0.6,-0.1,0,0,,,,,,,,,,,,,,,,,,,
34273,1506819955257,0,146.1,,167.3,0,161.6,,0.03,0.05,1.0,-3.0,-0.6,-0.1,0,0,1,1,0.0,0,35.489792,-119.546165,0.0,0.006,276.9,10,2,1.8,0,0.0,-1,0.0,0.0,0.0,0
34293,1506819955277,,,,,,,,0.03,0.05,1.0,-3.0,-0.6,-0.2,0,0,,,,,,,,,,,,,,,,,,,
34313,1506819955296,,,,,,,,0.03,0.05,1.0,-3.0,-0.6,-0.1,0,0,,,,,,,,,,,,,,,,,,,
34333,1506819955316,,,,,,,,0.03,0.05,1.0,-3.0,-0.6,-0.2,0,0,,,,,,,,,,,,,,,,,,,
34353,1506819955336,,,,,,,,0.03,0.05,1.0,-3.0,-0.6,-0.2,0,0,,,,,,,,,,,,,,,,,,,
34373,1506819955356,,,,,0,,,0.03,0.05,1.0,-3.0,-0.6,-0.2,0,0,1,1,0.0,0,35.489792,-119.546165,0.0,0.006,276.9,10,2,1.8,0,0.0,-1,0.0,0.0,0.0,0
34393,1506819955376,,,,,,,,0.03,0.05,1.0,-3.0,-0.6,-0.1,0,0,,,,,,,,,,,,,,,,,,,
34413,1506819955396,,,,,,,,0.03,0.05,1.0,-3.0,-0.6,-0.2,0,0,,,,,,,,,,,,,,,,,,,
34433,1506819955416,,,,,,,,0.03,0.05,1.0,-3.0,-0.6,-0.1,0,0,,,,,,,,,,,,,,,,,,,
34453,1506819955436,,,,,,,,0.03,0.05,1.0,-3.0,-0.6,-0.1,0,0,,,,,,,,,,,,,,,,,,,
34473,1506819955456,0,145.9,,166.8,0,160.9,,0.02,0.05,1.0,-3.0,-0.6,-0.2,0,0,1,1,0.0,0,35.489792,-119.546165,0.0,0.006,276.9,10,2,1.8,0,0.0,-1,0.0,0.0,0.0,0
34493,1506819955476,,,,,,,,0.03,0.05,1.0,-3.0,-0.6,-0.2,0,0,,,,,,,,,,,,,,,,,,,
34513,1506819955494,,,,,,,,0.02,0.05,1.0,-3.0,-0.6,-0.1,0,0,,,,,,,,,,,,,,,,,,,
34533,1506819955514,,,,,,,,0.03,0.05,1.0,-3.0,-0.6,-0.1,0,0,,,,,,,,,,,,,,,,,,,
34553,1506819955534,,,,,,,,0.03,0.05,1.0,-3.0,-0.6,-0.1,0,0,,,,,,,,,,,,,,,,,,,
34573,1506819955554,,,,,0,,,0.02,0.05,1.0,-3.1,-0.6,-0.1,0,0,1,1,0.0,0,35.489792,-119.546165,0.0,0.006,276.9,10,2,1.8,0,0.0,-1,0.0,0.0,0.0,0
34593,1506819955574,,,,,,,,0.02,0.05,1.0,-3.0,-0.6,-0.1,0,0,,,,,,,,,,,,,,,,,,,
34613,1506819955594,,,,,,,,0.03,0.05,1.0,-3.0,-0.6,-0.1,0,0,,,,,,,,,,,,,,,,,,,
34633,1506819955614,,,,,,,,0.03,0.05,1.0,-3.1,-0.6,-0.1,0,0,,,,,,,,,,,,,,,,,,,
34653,1506819955634,,,,,,,,0.02,0.05,1.0,-3.0,-0.6,-0.1,0,0,,,,,,,,,,,,,,,,,,,
34673,1506819955654,0,145.9,,167.1,0,161.7,,0.03,0.05,1.0,-3.0,-0.6,-0.1,0,0,1,1,0.0,0,35.489792,-119.546165,0.0,0.006,276.9,10,2,1.8,0,0.0,-1,0.0,0.0,0.0,0
34693,1506819955674,,,,,,,,0.02,0.05,1.0,-3.0,-0.6,-0.1,0,0,,,,,,,,,,,,,,,,,,,
34713,1506819955696,,,,,,,,0.02,0.05,1.0,-3.0,-0.6,-0.1,0,0,,,,,,,,,,,,,,,,,,,
34733,1506819955716,,,,,,,,0.02,0.05,1.0,-3.0,-0.6,-0.1,0,0,,,,,,,,,,,,,,,,,,,
34753,1506819955736,,,,,,,,0.02,0.05,1.0,-3.0,-0.6,-0.1,0,0,,,,,,,,,,,,,,,,,,,
34773,1506819955756,,,,,0,,,0.02,0.05,1.0,-3.0,-0.6,-0.1,0,0,1,1,0.0,0,35.489792,-119.546165,0.0,0.006,276.9,10,2,1.8,0,0.0,-1,0.0,0.0,0.0,0
34793,1506819955776,,,,,,,,0.02,0.05,1.0,-3.0,-0.6,-0.1,0,0,,,,,,,,,,,,,,,,,,,
34813,1506819955794,,,,,,,,0.02,0.05,1.0,-3.0,-0.6,-0.1,0,0,,,,,,,,,,,,,,,,,,,
34833,1506819955814,,,,,,,,0.02,0.05,1.0,-3.0,-0.6,-0.1,0,0,,,,,,,,,,,,,,,,,,,
34853,1506819955834,,,,,,,,0.02,0.05,1.0,-3.0,-0.6,-0.1,0,0,,,,,,,,,,,,,,,,,,,
34873,1506819955854,0,146.1,,167.3,0,161.7,,0.02,0.05,1.0,-3.0,-0.6,-0.1,0,0,1,1,0.0,0,35.489792,-119.546165,0.0,0.006,276.9,10,2,1.8,0,0.0,-1,0.0,0.0,0.0,0
34893,1506819955874,,,,,,,,0.02,0.05,1.0,-3.0,-0.6,-0.1,0,0,,,,,,,,,,,,,,,,,,,
34913,1506819955896,,,,,,,,0.02,0.05,1.0,-3.0,-0.6,-0.1,0,0,,,,,,,,,,,,,,,,,,,
34933,1506819955916,,,,,,,,0.02,0.05,1.0,-3.0,-0.6,-0.2,0,0,,,,,,,,,,,,,,,,,,,
34953,1506819955936,,,,,,,,0.02,0.05,1.0,-3.0,-0.6,-0.2,0,0,,,,,,,,,,,,,,,,,,,
34973,1506819955956,,,,,0,,,0.03,0.05,1.0,-3.0,-0.6,-0.1,0,0,1,1,0.0,0,35.489792,-119.546165,0.0,0.006,276.9,10,2,1.8,0,0.0,-1,0.0,0.0,0.0,0
34993,1506819955976,,,,,,,,0.03,0.05,1.0,-3.0,-0.6,-0.1,0,0,,,,,,,,,,,,,,,,,,,
35013,1506819955996,,,,,,,,0.03,0.05,1.0,-3.0,-0.6,-0.2,0,0,,,,,,,,,,,,,,,,,,,
35033,1506819956010,,,,,,,,0.03,0.05,1.0,-3.0,-0.6,-0.2,0,0,,,,,,,,,,,,,,,,,,,
35053,1506819956030,,,,,,,,0.03,0.05,1.0,-3.0,-0.6,-0.2,0,0,,,,,,,,,,,,,,,,,,,
35073,1506819956050,0,146.0,-0.6,167.2,0,161.3,13.16,0.03,0.05,1.0,-3.0,-0.6,-0.1,0,0,1,1,0.0,0,35.489792,-119.546165,0.0,0.006,276.9,10,2,1.8,0,0.0,-1,0.0,0.0,0.0,0
35093,1506819956070,,,,,,,,0.03,0.05,1.0,-3.0,-0.6,-0.1,0,0,,,,,,,,,,,,,,,,,,,
35113,1506819956096,,,,,,,,0.03,0.05,1.0,-3.0,-0.6,-0.1,0,0,,,,,,,,,,,,,,,,,,,
35133,1506819956116,,,,,,,,0.03,0.05,1.0,-3.0,-0.6,-0.1,0,0,,,,,,,,,,,,,,,,,,,
35153,1506819956136,,,,,,,,0.03,0.05,1.0,-3.0,-0.6,-0.2,0,0,,,,,,,,,,,,,,,,,,,
35173,1506819956156,,,,,0,,,0.03,0.05,1.0,-3.0,-0.6,-0.2,0,0,1,1,0.0,0,35.489792,-119.546165,0.0,0.006,276.9,10,3,1.8,0,0.0,-1,0.0,0.0,0.0,0
35193,1506819956176,,,,,,,,0.03,0.05,1.0,-3.0,-0.6,-0.2,0,0,,,,,,,,,,,,,,,,,,,
35213,1506819956196,,,,,,,,0.03,0.05,1.0,-3.0,-0.6,-0.2,0,0,,,,,,,,,,,,,,,,,,,
35233,1506819956216,,,,,,,,0.03,0.05,1.0,-3.0,-0.6,-0.2,0,0,,,,,,,,,,,,,,,,,,,
35253,1506819956236,,,,,,,,0.03,0.05,1.0,-3.0,-0.6,-0.1,0,0,,,,,,,,,,,,,,,,,,,
35273,1506819956256,0,146.2,,167.3,0,161.7,,0.03,0.05,1.0,-3.0,-0.6,-0.2,0,0,1,1,0.0,0,35.489792,-119.546165,0.0,0.006,276.9,10,3,1.8,0,0.0,-1,0.0,0.0,0.0,0
35293,1506819956276,,,,,,,,0.03,0.05,1.0,-3.0,-0.6,-0.1,0,0,,,,,,,,,,,,,,,,,,,
35313,1506819956295,,,,,,,,0.03,0.05,1.0,-3.0,-0.6,-0.1,0,0,,,,,,,,,,,,,,,,,,,
35333,1506819956315,,,,,,,,0.03,0.05,1.0,-3.0,-0.6,-0.1,0,0,,,,,,,,,,,,,,,,,,,
35353,1506819956335,,,,,,,,0.03,0.05,1.0,-3.0,-0.6,-0.1,0,0,,,,,,,,,,,,,,,,,,,
35373,1506819956355,,,,,0,,,0.02,0.05,1.0,-3.0,-0.6,-0.1,0,0,1,1,0.0,0,35.489792,-119.546165,0.0,0.006,276.9,10,3,1.8,0,0.0,-1,0.0,0.0,0.0,0
35393,1506819956375,,,,,,,,0.03,0.05,1.0,-3.0,-0.6,-0.1,0,0,,,,,,,,,,,,,,,,,,,
35413,1506819956395,,,,,,,,0.03,0.05,1.0,-3.0,-0.6,-0.1,0,0,,,,,,,,,,,,,,,,,,,
35433,1506819956415,,,,,,,,0.03,0.05,1.0,-3.0,-0.6,-0.2,0,0,,,,,,,,,,,,,,,,,,,
35453,1506819956435,,,,,,,,0.03,0.05,1.0,-3.0,-0.6,-0.1,0,0,,,,,,,,,,,,,,,,,,,
35473,1506819956455,0,146.0,,167.1,0,161.6,,0.03,0.05,1.0,-3.0,-0.6,-0.1,0,0,1,1,0.0,0,35.489792,-119.546165,0.0,0.006,276.9,10,3,1.8,0,0.0,-1,0.0,0.0,0.0,0
35493,1506819956475,,,,,,,,0.03,0.05,1.0,-3.0,-0.6,-0.1,0,0,,,,,,,,,,,,,,,,,,,
35513,1506819956495,,,,,,,,0.03,0.05,1.0,-3.0,-0.6,-0.1,0,0,,,,,,,,,,,,,,,,,,,
35533,1506819956515,,,,,,,,0.03,0.05,1.0,-3.0,-0.6,-0.1,0,0,,,,,,,,,,,,,,,,,,,
35553,1506819956535,,,,,,,,0.03,0.05,1.0,-3.0,-0.6,-0.1,0,0,,,,,,,,,,,,,,,,,,,
35573,1506819956555,,,,,0,,,0.03,0.05,1.0,-3.0,-0.6,-0.2,0,0,1,1,0.0,0,35.489792,-119.546165,0.0,0.006,276.9,10,3,1.8,0,0.0,-1,0.0,0.0,0.0,0
35593,1506819956575,,,,,,,,0.02,0.05,1.0,-3.0,-0.6,-0.1,0,0,,,,,,,,,,,,,,,,,,,
35613,1506819956595,,,,,,,,0.02,0.05,1.0,-3.0,-0.6,-0.1,0,0,,,,,,,,,,,,,,,,,,,
35633,1506819956615,,,,,,,,0.02,0.05,1.0,-3.0,-0.6,-0.1,0,0,,,,,,,,,,,,,,,,,,,
35653,1506819956635,,,,,,,,0.02,0.05,1.0,-3.0,-0.6,-0.1,0,0,,,,,,,,,,,,,,,,,,,
35673,1506819956655,0,146.1,,167.2,0,161.6,,0.02,0.05,1.0,-3.0,-0.6,-0.1,0,0,1,1,0.0,0,35.489792,-119.546165,0.0,0.006,276.9,10,3,1.8,0,0.0,-1,0.0,0.0,0.0,0
35693,1506819956675,,,,,,,,0.02,0.05,1.0,-3.0,-0.6,-0.1,0,0,,,,,,,,,,,,,,,,,,,
35713,1506819956693,,,,,,,,0.02,0.05,1.0,-3.1,-0.6,-0.1,0,0,,,,,,,,,,,,,,,,,,,
35733,1506819956713,,,,,,,,0.03,0.05,1.0,-3.1,-0.6,-0.1,0,0,,,,,,,,,,,,,,,,,,,
35753,1506819956733,,,,,,,,0.02,0.05,1.0,-3.1,-0.6,-0.2,0,0,,,,,,,,,,,,,,,,,,,
35773,1506819956753,,,,,0,,,0.02,0.05,1.0,-3.1,-0.6,-0.2,0,0,1,1,0.0,0,35.489792,-119.546165,0.0,0.006,276.9,10,3,1.8,0,0.0,-1,0.0,0.0,0.0,0
35793,1506819956773,,,,,,,,0.02,0.05,1.0,-3.1,-0.5,-0.1,0,0,,,,,,,,,,,,,,,,,,,
35813,1506819956795,,,,,,,,0.02,0.05,1.0,-3.1,-0.6,-0.1,0,0,,,,,,,,,,,,,,,,,,,
35833,1506819956815,,,,,,,,0.03,0.05,1.0,-3.1,-0.6,-0.2,0,0,,,,,,,,,,,,,,,,,,,
35853,1506819956835,,,,,,,,0.03,0.05,1.0,-3.1,-0.6,-0.2,0,0,,,,,,,,,,,,,,,,,,,
35873,1506819956855,0,146.1,,167.3,0,161.4,,0.03,0.05,1.0,-3.1,-0.6,-0.2,0,0,1,1,0.0,0,35.489792,-119.546165,0.0,0.006,276.9,10,3,1.8,0,0.0,-1,0.0,0.0,0.0,0
35893,1506819956875,,,,,,,,0.03,0.05,1.0,-3.1,-0.6,-0.2,0,0,,,,,,,,,,,,,,,,,,,
35913,1506819956895,,,,,,,,0.03,0.05,1.0,-3.1,-0.6,-0.2,0,0,,,,,,,,,,,,,,,,,,,
35933,1506819956915,,,,,,,,0.03,0.05,1.0,-3.1,-0.6,-0.2,0,0,,,,,,,,,,,,,,,,,,,
35953,1506819956935,,,,,,,,0.03,0.05,1.0,-3.0,-0.6,-0.2,0,0,,,,,,,,,,,,,,,,,,,
35973,1506819956955,,,,,0,,,0.03,0.05,1.0,-3.0,-0.6,-0.2,0,0,1,1,0.0,0,35.489792,-119.546165,0.0,0.006,276.9,10,3,1.8,0,0.0,-1,0.0,0.0,0.0,0
35993,1506819956975,,,,,,,,0.03,0.05,1.0,-3.0,-0.6,-0.2,0,0,,,,,,,,,,,,,,,,,,,
36013,1506819956995,,,,,,,,0.03,0.05,1.0,-3.0,-0.6,-0.2,0,0,,,,,,,,,,,,,,,,,,,
36033,1506819957009,,,,,,,,0.03,0.05,0.99,-3.0,-0.6,-0.2,0,0,,,,,,,,,,,,,,,,,,,
36053,1506819957029,,,,,,,,0.03,0.05,0.99,-3.0,-0.6,-0.2,0,0,,,,,,,,,,,,,,,,,,,
36073,1506819957049,0,145.8,-0.5,167.0,0,161.6,13.16,0.03,0.05,0.99,-3.1,-0.6,-0.2,0,0,1,1,0.0,0,35.489792,-119.546165,0.0,0.006,276.9,10,3,1.8,0,0.0,-1,0.0,0.0,0.0,0
36093,1506819957069,,,,,,,,0.03,0.05,1.0,-3.1,-0.6,-0.2,0,0,,,,,,,,,,,,,,,,,,,
36113,1506819957091,,,,,,,,0.03,0.05,1.0,-3.1,-0.6,-0.2,0,0,,,,,,,,,,,,,,,,,,,
36133,1506819957111,,,,,,,,0.03,0.05,1.0,-3.1,-0.6,-0.2,0,0,,,,,,,,,,,,,,,,,,,
36153,1506819957131,,,,,,,,0.03,0.05,1.0,-3.1,-0.6,-0.2,0,0,,,,,,,,,,,,,,,,,,,
36173,1506819957151,,,,,0,,,0.03,0.05,1.0,-3.1,-0.6,-0.1,0,0,1,1,0.0,0,35.489792,-119.546165,0.0,0.006,276.9,10,3,1.8,0,0.0,-1,0.0,0.0,0.0,0
36193,1506819957171,,,,,,,,0.03,0.05,1.0,-3.1,-0.6,-0.1,0,0,,,,,,,,,,,,,,,,,,,
36213,1506819957197,,,,,,,,0.03,0.05,1.0,-3.1,-0.6,-0.1,0,0,,,,,,,,,,,,,,,,,,,
36233,1506819957217,,,,,,,,0.03,0.05,1.0,-3.1,-0.6,-0.1,0,0,,,,,,,,,,,,,,,,,,,
36253,1506819957237,,,,,,,,0.03,0.05,1.0,-3.1,-0.6,-0.1,0,0,,,,,,,,,,,,,,,,,,,
36273,1506819957257,0,146.0,,167.1,0,161.7,,0.03,0.05,1.0,-3.1,-0.6,-0.1,0,0,1,1,0.0,0,35.489792,-119.546165,0.0,0.006,276.9,10,3,1.8,0,0.0,-1,0.0,0.0,0.0,0
36293,1506819957277,,,,,,,,0.03,0.05,1.0,-3.1,-0.6,-0.1,0,0,,,,,,,,,,,,,,,,,,,
36313,1506819957294,,,,,,,,0.03,0.05,1.0,-3.1,-0.6,-0.1,0,0,,,,,,,,,,,,,,,,,,,
36333,1506819957314,,,,,,,,0.03,0.05,1.0,-3.1,-0.6,-0.1,0,0,,,,,,,,,,,,,,,,,,,
36353,1506819957334,,,,,,,,0.03,0.05,1.0,-3.1,-0.5,-0.2,0,0,,,,,,,,,,,,,,,,,,,
36373,1506819957354,,,,,0,,,0.03,0.05,1.0,-3.0,-0.6,-0.2,0,0,1,1,0.0,0,35.489792,-119.546165,0.0,0.006,276.9,10,3,1.8,0,0.0,-1,0.0,0.0,0.0,0
36393,1506819957374,,,,,,,,0.03,0.05,1.0,-3.0,-0.5,-0.2,0,0,,,,,,,,,,,,,,,,,,,
36413,1506819957396,,,,,,,,0.03,0.05,1.0,-3.0,-0.5,-0.2,0,0,,,,,,,,,,,,,,,,,,,
36433,1506819957416,,,,,,,,0.03,0.05,1.0,-3.0,-0.5,-0.2,0,0,,,,,,,,,,,,,,,,,,,
36453,1506819957436,,,,,,,,0.03,0.05,1.0,-3.0,-0.5,-0.2,0,0,,,,,,,,,,,,,,,,,,,
36473,1506819957456,0,145.2,,166.4,0,161.1,,0.03,0.05,1.0,-3.0,-0.5,-0.2,0,0,1,1,0.0,0,35.489792,-119.546165,0.0,0.006,276.9,10,3,1.8,0,0.0,-1,0.0,0.0,0.0,0
36493,1506819957476,,,,,,,,0.03,0.05,1.0,-3.0,-0.5,-0.2,0,0,,,,,,,,,,,,,,,,,,,
36513,1506819957494,,,,,,,,0.03,0.05,1.0,-3.0,-0.5,-0.2,0,0,,,,,,,,,,,,,,,,,,,
36533,1506819957514,,,,,,,,0.03,0.05,1.0,-3.0,-0.5,-0.2,0,0,,,,,,,,,,,,,,,,,,,
36553,1506819957534,,,,,,,,0.03,0.05,1.0,-3.0,-0.5,-0.2,0,0,,,,,,,,,,,,,,,,,,,
36573,1506819957554,,,,,0,,,0.03,0.05,1.0,-3.0,-0.5,-0.2,0,0,1,1,0.0,0,35.489792,-119.546165,0.0,0.006,276.9,10,3,1.8,0,0.0,-1,0.0,0.0,0.0,0
36593,1506819957574,,,,,,,,0.03,0.05,1.0,-3.0,-0.5,-0.2,0,0,,,,,,,,,,,,,,,,,,,
36613,1506819957594,,,,,,,,0.03,0.05,1.0,-3.0,-0.5,-0.2,0,0,,,,,,,,,,,,,,,,,,,
36633,1506819957614,,,,,,,,0.03,0.05,1.0,-3.0,-0.5,-0.2,0,0,,,,,,,,,,,,,,,,,,,
36653,1506819957634,,,,,,,,0.03,0.05,1.0,-3.0,-0.5,-0.2,0,0,,,,,,,,,,,,,,,,,,,
36673,1506819957654,0,145.3,,166.6,0,161.2,,0.02,0.05,1.0,-3.0,-0.5,-0.2,0,0,1,1,0.0,0,35.489792,-119.546165,0.0,0.006,276.9,10,3,1.8,0,0.0,-1,0.0,0.0,0.0,0
36693,1506819957674,,,,,,,,0.02,0.05,1.0,-3.0,-0.5,-0.2,0,0,,,,,,,,,,,,,,,,,,,
36713,1506819957694,,,,,,,,0.02,0.05,1.0,-3.0,-0.5,-0.2,0,0,,,,,,,,,,,,,,,,,,,
36733,1506819957714,,,,,,,,0.02,0.05,1.0,-3.0,-0.6,-0.2,0,0,,,,,,,,,,,,,,,,,,,
36753,1506819957734,,,,,,,,0.02,0.05,1.0,-3.0,-0.5,-0.2,0,0,,,,,,,,,,,,,,,,,,,
36773,1506819957754,,,,,0,,,0.02,0.05,1.0,-3.0,-0.5,-0.2,0,0,1,1,0.0,0,35.489792,-119.546165,0.0,0.006,276.9,10,3,1.8,0,0.0,-1,0.0,0.0,0.0,0
36793,1506819957774,,,,,,,,0.03,0.05,1.0,-3.0,-0.5,-0.2,0,0,,,,,,,,,,,,,,,,,,,
36813,1506819957794,,,,,,,,0.03,0.05,1.0,-3.0,-0.5,-0.2,0,0,,,,,,,,,,,,,,,,,,,
36833,1506819957814,,,,,,,,0.03,0.05,1.0,-3.1,-0.5,-0.2,0,0,,,,,,,,,,,,,,,,,,,
36853,1506819957834,,,,,,,,0.03,0.05,1.0,-3.1,-0.5,-0.2,0,0,,,,,,,,,,,,,,,,,,,
36873,1506819957854,0,145.3,,166.5,0,161.0,,0.03,0.05,1.0,-3.1,-0.5,-0.2,0,0,1,1,0.0,0,35.489792,-119.546165,0.0,0.006,276.9,10,3,1.8,0,0.0,-1,0.0,0.0,0.0,0
36893,1506819957874,,,,,,,,0.03,0.05,1.0,-3.1,-0.5,-0.2,0,0,,,,,,,,,,,,,,,,,,,
36913,1506819957896,,,,,,,,0.03,0.05,1.0,-3.0,-0.5,-0.2,0,0,,,,,,,,,,,,,,,,,,,
36933,1506819957916,,,,,,,,0.03,0.05,1.0,-3.0,-0.5,-0.2,0,0,,,,,,,,,,,,,,,,,,,
36953,1506819957936,,,,,,,,0.03,0.05,1.0,-3.0,-0.5,-0.2,0,0,,,,,,,,,,,,,,,,,,,
36973,1506819957956,,,,,0,,,0.03,0.05,1.0,-3.0,-0.5,-0.2,0,0,1,1,0.0,0,35.489792,-119.546165,0.0,0.006,276.9,10,3,1.8,0,0.0,-1,0.0,0.0,0.0,0
36993,1506819957976,,,,,,,,0.03,0.05,1.0,-3.0,-0.6,-0.2,0,0,,,,,,,,,,,,,,,,,,,
37013,1506819957996,,,,,,,,0.03,0.05,1.0,-3.0,-0.5,-0.2,0,0,,,,,,,,,,,,,,,,,,,
37033,1506819958008,,,,,,,,0.03,0.05,1.0,-3.0,-0.6,-0.2,0,0,,,,,,,,,,,,,,,,,,,
37053,1506819958028,,,,,,,,0.03,0.05,1.0,-3.0,-0.6,-0.2,0,0,,,,,,,,,,,,,,,,,,,
37073,1506819958048,0,145.4,-0.6,166.5,0,160.9,13.16,0.03,0.05,1.0,-3.0,-0.6,-0.1,0,0,1,1,0.0,0,35.489792,-119.546165,0.0,0.006,276.9,10,3,1.8,0,0.0,-1,0.0,0.0,0.0,0
37093,1506819958068,,,,,,,,0.03,0.05,1.0,-3.0,-0.6,-0.1,0,0,,,,,,,,,,,,,,,,,,,
37113,1506819958092,,,,,,,,0.03,0.05,1.0,-3.0,-0.6,-0.1,0,0,,,,,,,,,,,,,,,,,,,
37133,1506819958112,,,,,,,,0.03,0.05,1.0,-3.0,-0.6,-0.1,0,0,,,,,,,,,,,,,,,,,,,
37153,1506819958132,,,,,,,,0.03,0.05,1.0,-3.0,-0.6,-0.1,0,0,,,,,,,,,,,,,,,,,,,
37173,1506819958152,,,,,0,,,0.03,0.05,1.0,-3.0,-0.6,-0.1,0,0,1,1,0.0,0,35.489792,-119.546165,0.0,0.006,276.9,10,3,1.8,0,0.0,-1,0.0,0.0,0.0,0
37193,1506819958172,,,,,,,,0.03,0.05,1.0,-3.0,-0.6,-0.1,0,0,,,,,,,,,,,,,,,,,,,
37213,1506819958196,,,,,,,,0.03,0.05,1.0,-3.0,-0.6,-0.1,0,0,,,,,,,,,,,,,,,,,,,
37233,1506819958216,,,,,,,,0.02,0.05,1.0,-3.0,-0.6,-0.1,0,0,,,,,,,,,,,,,,,,,,,
37253,1506819958236,,,,,,,,0.02,0.05,1.0,-3.0,-0.6,-0.2,0,0,,,,,,,,,,,,,,,,,,,
37273,1506819958256,0,145.2,,166.6,0,161.3,,0.02,0.05,1.0,-3.0,-0.6,-0.2,0,0,1,1,0.0,0,35.489792,-119.546165,0.0,0.006,276.9,10,3,1.8,0,0.0,-1,0.0,0.0,0.0,0
37293,1506819958276,,,,,,,,0.02,0.05,1.0,-3.0,-0.6,-0.1,0,0,,,,,,,,,,,,,,,,,,,
37313,1506819958295,,,,,,,,0.02,0.05,1.0,-3.0,-0.6,-0.2,0,0,,,,,,,,,,,,,,,,,,,
37333,1506819958315,,,,,,,,0.03,0.05,1.0,-3.0,-0.6,-0.2,0,0,,,,,,,,,,,,,,,,,,,
37353,1506819958335,,,,,,,,0.03,0.05,1.0,-3.0,-0.6,-0.2,0,0,,,,,,,,,,,,,,,,,,,
37373,1506819958355,,,,,0,,,0.03,0.05,1.0,-3.0,-0.6,-0.1,0,0,1,1,0.0,0,35.489792,-119.546165,0.0,0.006,276.9,10,3,1.8,0,0.0,-1,0.0,0.0,0.0,0
37393,1506819958375,,,,,,,,0.03,0.05,1.0,-3.0,-0.6,-0.1,0,0,,,,,,,,,,,,,,,,,,,
37413,1506819958395,,,,,,,,0.03,0.05,1.0,-3.0,-0.6,-0.1,0,0,,,,,,,,,,,,,,,,,,,
37433,1506819958415,,,,,,,,0.03,0.05,1.0,-3.0,-0.6,-0.1,0,0,,,,,,,,,,,,,,,,,,,
37453,1506819958435,,,,,,,,0.03,0.05,1.0,-3.1,-0.6,-0.1,0,0,,,,,,,,,,,,,,,,,,,
37473,1506819958455,0,146.1,,167.3,0,161.6,,0.03,0.05,1.0,-3.1,-0.6,-0.1,0,0,1,1,0.0,0,35.489792,-119.546165,0.0,0.006,276.9,10,3,1.8,0,0.0,-1,0.0,0.0,0.0,0
37493,1506819958475,,,,,,,,0.03,0.05,1.0,-3.1,-0.6,-0.2,0,0,,,,,,,,,,,,,,,,,,,
37513,1506819958495,,,,,,,,0.02,0.05,1.0,-3.1,-0.6,-0.2,0,0,,,,,,,,,,,,,,,,,,,
37533,1506819958515,,,,,,,,0.02,0.05,1.0,-3.1,-0.6,-0.2,0,0,,,,,,,,,,,,,,,,,,,
37553,1506819958535,,,,,,,,0.02,0.05,1.0,-3.1,-0.6,-0.2,0,0,,,,,,,,,,,,,,,,,,,
37573,1506819958555,,,,,0,,,0.02,0.05,1.0,-3.1,-0.6,-0.2,0,0,1,1,0.0,0,35.489792,-119.546165,0.0,0.006,276.9,10,3,1.8,0,0.0,-1,0.0,0.0,0.0,0
37593,1506819958575,,,,,,,,0.02,0.05,1.0,-3.1,-0.6,-0.2,0,0,,,,,,,,,,,,,,,,,,,
37613,1506819958595,,,,,,,,0.02,0.05,1.0,-3.1,-0.6,-0.2,0,0,,,,,,,,,,,,,,,,,,,
37633,1506819958615,,,,,,,,0.02,0.05,1.0,-3.1,-0.5,-0.1,0,0,,,,,,,,,,,,,,,,,,,
37653,1506819958635,,,,,,,,0.02,0.05,1.0,-3.1,-0.5,-0.1,0,0,,,,,,,,,,,,,,,,,,,
37673,1506819958655,0,146.1,,167.2,0,161.2,,0.02,0.05,1.0,-3.1,-0.5,-0.1,0,0,1,1,0.0,0,35.489792,-119.546165,0.0,0.006,276.9,10,3,1.8,0,0.0,-1,0.0,0.0,0.0,0
37693,1506819958675,,,,,,,,0.02,0.05,1.0,-3.1,-0.5,-0.1,0,0,,,,,,,,,,,,,,,,,,,
37713,1506819958695,,,,,,,,0.02,0.05,1.0,-3.1,-0.5,-0.1,0,0,,,,,,,,,,,,,,,,,,,
37733,1506819958715,,,,,,,,0.02,0.05,1.0,-3.1,-0.5,-0.1,0,0,,,,,,,,,,,,,,,,,,,
37753,1506819958735,,,,,,,,0.02,0.05,1.0,-3.1,-0.5,-0.2,0,0,,,,,,,,,,,,,,,,,,,
37773,1506819958755,,,,,0,,,0.02,0.05,1.0,-3.1,-0.5,-0.2,0,0,1,1,0.0,0,35.489792,-119.546165,0.0,0.006,276.9,10,3,1.8,0,0.0,-1,0.0,0.0,0.0,0
37793,1506819958775,,,,,,,,0.02,0.05,1.0,-3.1,-0.5,-0.2,0,0,,,,,,,,,,,,,,,,,,,
37813,1506819958795,,,,,,,,0.02,0.05,1.0,-3.1,-0.5,-0.2,0,0,,,,,,,,,,,,,,,,,,,
37833,1506819958815,,,,,,,,0.02,0.05,1.0,-3.1,-0.5,-0.2,0,0,,,,,,,,,,,,,,,,,,,
37853,1506819958835,,,,,,,,0.02,0.05,1.0,-3.1,-0.5,-0.2,0,0,,,,,,,,,,,,,,,,,,,
37873,1506819958855,0,146.1,,167.2,0,161.5,,0.02,0.05,1.0,-3.1,-0.5,-0.1,0,0,1,1,0.0,0,35.489792,-119.546165,0.0,0.006,276.9,10,3,1.8,0,0.0,-1,0.0,0.0,0.0,0
37893,1506819958875,,,,,,,,0.02,0.05,1.0,-3.1,-0.5,-0.2,0,0,,,,,,,,,,,,,,,,,,,
37913,1506819958895,,,,,,,,0.02,0.05,1.0,-3.1,-0.5,-0.2,0,0,,,,,,,,,,,,,,,,,,,
37933,1506819958915,,,,,,,,0.03,0.05,1.0,-3.1,-0.5,-0.2,0,0,,,,,,,,,,,,,,,,,,,
37953,1506819958935,,,,,,,,0.03,0.05,1.0,-3.1,-0.5,-0.2,0,0,,,,,,,,,,,,,,,,,,,
37973,1506819958955,,,,,0,,,0.03,0.05,1.0,-3.1,-0.5,-0.2,0,0,1,1,0.0,0,35.489792,-119.546165,0.0,0.006,276.9,10,3,1.8,0,0.0,-1,0.0,0.0,0.0,0
37993,1506819958975,,,,,,,,0.03,0.05,1.0,-3.1,-0.5,-0.2,0,0,,,,,,,,,,,,,,,,,,,
38013,1506819958995,,,,,,,,0.03,0.05,1.0,-3.1,-0.6,-0.2,0,0,,,,,,,,,,,,,,,,,,,
38033,1506819959009,,,,,,,,0.03,0.05,1.0,-3.1,-0.6,-0.2,0,0,,,,,,,,,,,,,,,,,,,
38053,1506819959029,,,,,,,,0.03,0.05,1.0,-3.1,-0.5,-0.2,0,0,,,,,,,,,,,,,,,,,,,
38073,1506819959049,0,145.9,-0.6,167.0,0,161.7,13.16,0.03,0.05,1.0,-3.1,-0.6,-0.2,0,0,1,1,0.0,0,35.489792,-119.546165,0.0,0.006,276.9,10,3,1.8,0,0.0,-1,0.0,0.0,0.0,0
38093,1506819959069,,,,,,,,0.03,0.05,1.0,-3.1,-0.5,-0.2,0,0,,,,,,,,,,,,,,,,,,,
38113,1506819959095,,,,,,,,0.03,0.05,1.0,-3.1,-0.5,-0.2,0,0,,,,,,,,,,,,,,,,,,,
38133,1506819959115,,,,,,,,0.03,0.05,1.0,-3.0,-0.5,-0.2,0,0,,,,,,,,,,,,,,,,,,,
38153,1506819959135,,,,,,,,0.03,0.05,1.0,-3.0,-0.6,-0.2,0,0,,,,,,,,,,,,,,,,,,,
38173,1506819959155,,,,,0,,,0.03,0.05,1.0,-3.0,-0.6,-0.2,0,0,1,1,0.0,0,35.489792,-119.546165,0.0,0.006,276.9,10,3,1.8,0,0.0,-1,0.0,0.0,0.0,0
38193,1506819959175,,,,,,,,0.03,0.05,1.0,-3.0,-0.6,-0.2,0,0,,,,,,,,,,,,,,,,,,,
38213,1506819959195,,,,,,,,0.03,0.05,1.0,-3.0,-0.6,-0.2,0,0,,,,,,,,,,,,,,,,,,,
38233,1506819959215,,,,,,,,0.03,0.05,1.0,-3.0,-0.6,-0.2,0,0,,,,,,,,,,,,,,,,,,,
38253,1506819959235,,,,,,,,0.03,0.05,1.0,-3.0,-0.6,-0.2,0,0,,,,,,,,,,,,,,,,,,,
38273,1506819959255,0,145.4,,166.5,0,160.9,,0.03,0.05,1.0,-3.0,-0.6,-0.2,0,0,1,1,0.0,0,35.489792,-119.546165,0.0,0.006,276.9,10,3,1.8,0,0.0,-1,0.0,0.0,0.0,0
38293,1506819959275,,,,,,,,0.02,0.05,1.0,-3.0,-0.6,-0.2,0,0,,,,,,,,,,,,,,,,,,,
38313,1506819959294,,,,,,,,0.02,0.05,1.0,-3.1,-0.6,-0.2,0,0,,,,,,,,,,,,,,,,,,,
38333,1506819959314,,,,,,,,0.02,0.05,1.0,-3.1,-0.6,-0.2,0,0,,,,,,,,,,,,,,,,,,,
38353,1506819959334,,,,,,,,0.02,0.05,1.0,-3.0,-0.6,-0.2,0,0,,,,,,,,,,,,,,,,,,,
38373,1506819959354,,,,,0,,,0.02,0.05,1.0,-3.0,-0.6,-0.1,0,0,1,1,0.0,0,35.489792,-119.546165,0.0,0.006,276.9,10,3,1.8,0,0.0,-1,0.0,0.0,0.0,0
38393,1506819959374,,,,,,,,0.02,0.05,1.0,-3.0,-0.6,-0.1,0,0,,,,,,,,,,,,,,,,,,,
38413,1506819959396,,,,,,,,0.02,0.05,1.0,-3.0,-0.6,-0.1,0,0,,,,,,,,,,,,,,,,,,,
38433,1506819959416,,,,,,,,0.02,0.05,1.0,-3.0,-0.6,-0.1,0,0,,,,,,,,,,,,,,,,,,,
38453,1506819959436,,,,,,,,0.02,0.05,1.0,-3.0,-0.6,-0.1,0,0,,,,,,,,,,,,,,,,,,,
38473,1506819959456,0,146.0,,167.2,0,161.7,,0.02,0.05,1.0,-3.0,-0.6,-0.1,0,0,1,1,0.0,0,35.489792,-119.546165,0.0,0.006,276.9,10,3,1.8,0,0.0,-1,0.0,0.0,0.0,0
38493,1506819959476,,,,,,,,0.02,0.05,1.0,-3.0,-0.6,-0.1,0,0,,,,,,,,,,,,,,,,,,,
38513,1506819959494,,,,,,,,0.02,0.05,1.0,-3.0,-0.6,-0.1,0,0,,,,,,,,,,,,,,,,,,,
38533,1506819959514,,,,,,,,0.02,0.05,1.0,-3.0,-0.6,-0.1,0,0,,,,,,,,,,,,,,,,,,,
38553,1506819959534,,,,,,,,0.02,0.05,1.0,-3.0,-0.6,-0.1,0,0,,,,,,,,,,,,,,,,,,,
38573,1506819959554,,,,,0,,,0.03,0.05,1.0,-3.0,-0.6,-0.1,0,0,1,1,0.0,0,35.489792,-119.546165,0.0,0.006,276.9,10,3,1.8,0,0.0,-1,0.0,0.0,0.0,0
38593,1506819959574,,,,,,,,0.03,0.05,1.0,-3.0,-0.6,-0.1,0,0,,,,,,,,,,,,,,,,,,,
38613,1506819959596,,,,,,,,0.03,0.05,1.0,-3.0,-0.6,-0.2,0,0,,,,,,,,,,,,,,,,,,,
38633,1506819959616,,,,,,,,0.03,0.05,1.0,-3.0,-0.6,-0.1,0,0,,,,,,,,,,,,,,,,,,,
38653,1506819959636,,,,,,,,0.03,0.05,1.0,-3.0,-0.6,-0.1,0,0,,,,,,,,,,,,,,,,,,,
38673,1506819959656,0,146.0,,167.1,0,161.7,,0.03,0.05,1.0,-3.0,-0.6,-0.1,0,0,1,1,0.0,0,35.489792,-119.546165,0.0,0.006,276.9,10,3,1.8,0,0.0,-1,0.0,0.0,0.0,0
38693,1506819959676,,,,,,,,0.03,0.05,1.0,-3.0,-0.6,-0.1,0,0,,,,,,,,,,,,,,,,,,,
38713,1506819959696,,,,,,,,0.03,0.05,1.0,-3.0,-0.6,-0.1,0,0,,,,,,,,,,,,,,,,,,,
38733,1506819959716,,,,,,,,0.03,0.05,1.0,-3.0,-0.6,-0.1,0,0,,,,,,,,,,,,,,,,,,,
38753,1506819959736,,,,,,,,0.03,0.05,1.0,-3.0,-0.6,-0.1,0,0,,,,,,,,,,,,,,,,,,,
38773,1506819959756,,,,,0,,,0.03,0.05,1.0,-3.0,-0.6,-0.1,0,0,1,1,0.0,0,35.489792,-119.546165,0.0,0.006,276.9,10,3,1.8,0,0.0,-1,0.0,0.0,0.0,0
38793,1506819959776,,,,,,,,0.03,0.05,1.0,-3.0,-0.6,-0.1,0,0,,,,,,,,,,,,,,,,,,,
38813,1506819959796,,,,,,,,0.03,0.05,1.0,-3.0,-0.6,-0.1,0,0,,,,,,,,,,,,,,,,,,,
38833,1506819959816,,,,,,,,0.03,0.05,1.0,-3.0,-0.6,-0.1,0,0,,,,,,,,,,,,,,,,,,,
38853,1506819959836,,,,,,,,0.03,0.05,1.0,-3.0,-0.6,-0.1,0,0,,,,,,,,,,,,,,,,,,,
38873,1506819959856,0,146.0,,167.1,0,161.7,,0.03,0.05,1.0,-3.0,-0.5,-0.1,0,0,1,1,0.0,0,35.489792,-119.546165,0.0,0.006,276.9,10,3,1.8,0,0.0,-1,0.0,0.0,0.0,0
38893,1506819959876,,,,,,,,0.03,0.05,1.0,-3.0,-0.5,-0.2,0,0,,,,,,,,,,,,,,,,,,,
38913,1506819959896,,,,,,,,0.03,0.05,1.0,-3.0,-0.5,-0.2,0,0,,,,,,,,,,,,,,,,,,,
38933,1506819959916,,,,,,,,0.03,0.05,1.0,-3.0,-0.5,-0.2,0,0,,,,,,,,,,,,,,,,,,,
38953,1506819959936,,,,,,,,0.03,0.05,1.0,-3.0,-0.5,-0.2,0,0,,,,,,,,,,,,,,,,,,,
38973,1506819959956,,,,,0,,,0.03,0.05,1.0,-3.0,-0.5,-0.2,0,0,1,1,0.0,0,35.489792,-119.546165,0.0,0.006,276.9,10,3,1.8,0,0.0,-1,0.0,0.0,0.0,0
38993,1506819959976,,,,,,,,0.03,0.05,1.0,-3.0,-0.5,-0.2,0,0,,,,,,,,,,,,,,,,,,,
39013,1506819959996,,,,,,,,0.03,0.05,1.0,-3.0,-0.5,-0.1,0,0,,,,,,,,,,,,,,,,,,,
39033,1506819960010,,,,,,,,0.03,0.05,1.0,-3.0,-0.5,-0.1,0,0,,,,,,,,,,,,,,,,,,,
39053,1506819960030,,,,,,,,0.03,0.05,1.0,-3.0,-0.5,-0.1,0,0,,,,,,,,,,,,,,,,,,,
39073,1506819960050,0,145.9,-0.5,167.0,0,161.6,13.17,0.03,0.05,1.0,-3.0,-0.5,-0.1,0,0,1,1,0.0,0,35.489792,-119.546165,0.0,0.006,276.9,10,3,1.8,0,0.0,-1,0.0,0.0,0.0,0
39093,1506819960070,,,,,,,,0.03,0.05,1.0,-3.0,-0.5,-0.1,0,0,,,,,,,,,,,,,,,,,,,
39113,1506819960096,,,,,,,,0.03,0.05,1.0,-3.0,-0.5,-0.2,0,0,,,,,,,,,,,,,,,,,,,
39133,1506819960116,,,,,,,,0.03,0.05,1.0,-3.0,-0.5,-0.2,0,0,,,,,,,,,,,,,,,,,,,
39153,1506819960136,,,,,,,,0.03,0.05,1.0,-3.0,-0.5,-0.1,0,0,,,,,,,,,,,,,,,,,,,
39173,1506819960156,,,,,0,,,0.03,0.05,1.0,-3.0,-0.5,-0.1,0,0,1,1,0.0,0,35.489792,-119.546165,0.0,0.006,276.9,10,3,1.8,0,0.0,-1,0.0,0.0,0.0,0
39193,1506819960176,,,,,,,,0.03,0.05,1.0,-3.0,-0.5,-0.1,0,0,,,,,,,,,,,,,,,,,,,
39213,1506819960196,,,,,,,,0.03,0.05,1.0,-3.0,-0.5,-0.1,0,0,,,,,,,,,,,,,,,,,,,
39233,1506819960216,,,,,,,,0.03,0.05,1.0,-3.0,-0.5,-0.1,0,0,,,,,,,,,,,,,,,,,,,
39253,1506819960236,,,,,,,,0.03,0.05,1.0,-3.0,-0.5,-0.1,0,0,,,,,,,,,,,,,,,,,,,
39273,1506819960256,0,145.4,,166.4,0,160.9,,0.03,0.05,1.0,-3.0,-0.6,-0.1,0,0,1,1,0.0,0,35.489792,-119.546165,0.0,0.006,276.9,10,3,1.8,0,0.0,-1,0.0,0.0,0.0,0
39293,1506819960276,,,,,,,,0.03,0.05,1.0,-3.0,-0.6,-0.1,0,0,,,,,,,,,,,,,,,,,,,
39313,1506819960295,,,,,,,,0.03,0.05,1.0,-3.0,-0.6,-0.1,0,0,,,,,,,,,,,,,,,,,,,
39333,1506819960315,,,,,,,,0.03,0.05,1.0,-3.0,-0.6,-0.1,0,0,,,,,,,,,,,,,,,,,,,
39353,1506819960335,,,,,,,,0.03,0.05,1.0,-3.0,-0.6,-0.1,0,0,,,,,,,,,,,,,,,,,,,
39373,1506819960355,,,,,0,,,0.03,0.05,1.0,-3.0,-0.6,-0.1,0,0,1,1,0.0,0,35.489792,-119.546165,0.0,0.006,276.9,10,3,1.8,0,0.0,-1,0.0,0.0,0.0,0
39393,1506819960375,,,,,,,,0.03,0.05,1.0,-3.0,-0.6,-0.1,0,0,,,,,,,,,,,,,,,,,,,
39413,1506819960395,,,,,,,,0.03,0.05,1.0,-3.0,-0.6,-0.1,0,0,,,,,,,,,,,,,,,,,,,
39433,1506819960415,,,,,,,,0.03,0.05,1.0,-3.0,-0.6,-0.1,0,0,,,,,,,,,,,,,,,,,,,
39453,1506819960435,,,,,,,,0.03,0.05,1.0,-3.0,-0.6,-0.1,0,0,,,,,,,,,,,,,,,,,,,
39473,1506819960455,0,146.0,,167.2,0,161.6,,0.03,0.05,1.0,-3.0,-0.6,-0.1,0,0,1,1,0.0,0,35.489792,-119.546165,0.0,0.006,276.9,10,3,1.8,0,0.0,-1,0.0,0.0,0.0,0
39493,1506819960475,,,,,,,,0.03,0.05,1.0,-3.0,-0.6,-0.1,0,0,,,,,,,,,,,,,,,,,,,
39513,1506819960495,,,,,,,,0.03,0.05,1.0,-3.0,-0.6,-0.1,0,0,,,,,,,,,,,,,,,,,,,
39533,1506819960515,,,,,,,,0.03,0.05,1.0,-3.0,-0.6,-0.1,0,0,,,,,,,,,,,,,,,,,,,
39553,1506819960535,,,,,,,,0.02,0.05,1.0,-3.0,-0.6,-0.1,0,0,,,,,,,,,,,,,,,,,,,
39573,1506819960555,,,,,0,,,0.02,0.05,1.0,-3.0,-0.6,-0.1,0,0,1,1,0.0,0,35.489792,-119.546165,0.0,0.006,276.9,10,3,1.8,0,0.0,-1,0.0,0.0,0.0,0
39593,1506819960575,,,,,,,,0.02,0.05,1.0,-3.0,-0.6,-0.1,0,0,,,,,,,,,,,,,,,,,,,
39613,1506819960595,,,,,,,,0.03,0.05,1.0,-3.0,-0.6,-0.1,0,0,,,,,,,,,,,,,,,,,,,
39633,1506819960615,,,,,,,,0.03,0.05,1.0,-3.0,-0.6,-0.2,0,0,,,,,,,,,,,,,,,,,,,
39653,1506819960635,,,,,,,,0.03,0.05,1.0,-3.0,-0.6,-0.2,0,0,,,,,,,,,,,,,,,,,,,
39673,1506819960655,0,146.1,,167.1,0,161.6,,0.03,0.05,1.0,-3.0,-0.6,-0.2,0,0,1,1,0.0,0,35.489792,-119.546165,0.0,0.006,276.9,10,3,1.8,0,0.0,-1,0.0,0.0,0.0,0
39693,1506819960675,,,,,,,,0.03,0.05,1.0,-3.0,-0.6,-0.2,0,0,,,,,,,,,,,,,,,,,,,
39713,1506819960695,,,,,,,,0.02,0.05,1.0,-3.0,-0.6,-0.2,0,0,,,,,,,,,,,,,,,,,,,
39733,1506819960715,,,,,,,,0.03,0.05,1.0,-3.0,-0.6,-0.2,0,0,,,,,,,,,,,,,,,,,,,
39753,1506819960735,,,,,,,,0.02,0.05,1.0,-3.0,-0.6,-0.2,0,0,,,,,,,,,,,,,,,,,,,
39773,1506819960755,,,,,0,,,0.02,0.05,1.0,-3.0,-0.6,-0.2,0,0,1,1,0.0,0,35.489792,-119.546165,0.0,0.006,276.9,10,3,1.8,0,0.0,-1,0.0,0.0,0.0,0
39793,1506819960775,,,,,,,,0.02,0.05,1.0,-3.0,-0.6,-0.2,0,0,,,,,,,,,,,,,,,,,,,
39813,1506819960795,,,,,,,,0.03,0.05,1.0,-3.0,-0.6,-0.2,0,0,,,,,,,,,,,,,,,,,,,
39833,1506819960815,,,,,,,,0.02,0.05,1.0,-3.0,-0.6,-0.2,0,0,,,,,,,,,,,,,,,,,,,
39853,1506819960835,,,,,,,,0.02,0.05,1.0,-3.0,-0.6,-0.2,0,0,,,,,,,,,,,,,,,,,,,
39873,1506819960855,0,146.0,,166.6,0,161.0,,0.02,0.05,1.0,-3.0,-0.6,-0.2,0,0,1,1,0.0,0,35.489792,-119.546165,0.0,0.006,276.9,10,3,1.8,0,0.0,-1,0.0,0.0,0.0,0
39893,1506819960875,,,,,,,,0.02,0.05,1.0,-3.0,-0.6,-0.2,0,0,,,,,,,,,,,,,,,,,,,
39913,1506819960895,,,,,,,,0.02,0.05,1.0,-3.0,-0.6,-0.2,0,0,,,,,,,,,,,,,,,,,,,
39933,1506819960915,,,,,,,,0.02,0.05,1.0,-3.0,-0.6,-0.2,0,0,,,,,,,,,,,,,,,,,,,
39953,1506819960935,,,,,,,,0.02,0.05,1.0,-3.0,-0.6,-0.2,0,0,,,,,,,,,,,,,,,,,,,
39973,1506819960955,,,,,0,,,0.02,0.05,1.0,-3.0,-0.6,-0.2,0,0,1,1,0.0,0,35.489792,-119.546165,0.0,0.006,276.9,10,3,1.8,0,0.0,-1,0.0,0.0,0.0,0
39993,1506819960975,,,,,,,,0.03,0.05,1.0,-3.0,-0.6,-0.2,0,0,,,,,,,,,,,,,,,,,,,
40013,1506819960995,,,,,,,,0.02,0.05,1.0,-3.0,-0.6,-0.1,0,0,,,,,,,,,,,,,,,,,,,
40033,1506819961009,,,,,,,,0.02,0.05,1.0,-3.0,-0.6,-0.1,0,0,,,,,,,,,,,,,,,,,,,
40053,1506819961029,,,,,,,,0.02,0.05,1.0,-3.0,-0.6,-0.1,0,0,,,,,,,,,,,,,,,,,,,
40073,1506819961049,0,145.7,-0.4,167.1,0,161.6,13.16,0.02,0.05,1.0,-3.0,-0.6,-0.1,0,0,1,1,0.0,0,35.489792,-119.546165,0.0,0.006,276.9,10,3,1.8,0,0.0,-1,0.0,0.0,0.0,0
40093,1506819961069,,,,,,,,0.02,0.05,1.0,-3.0,-0.6,-0.1,0,0,,,,,,,,,,,,,,,,,,,
40113,1506819961097,,,,,,,,0.02,0.05,1.0,-3.0,-0.6,-0.1,0,0,,,,,,,,,,,,,,,,,,,
40133,1506819961117,,,,,,,,0.02,0.05,1.0,-3.0,-0.6,-0.1,0,0,,,,,,,,,,,,,,,,,,,
40153,1506819961137,,,,,,,,0.02,0.05,1.0,-3.0,-0.6,-0.1,0,0,,,,,,,,,,,,,,,,,,,
40173,1506819961157,,,,,0,,,0.03,0.05,1.0,-3.0,-0.6,-0.1,0,0,1,1,0.0,0,35.489792,-119.546165,0.0,0.006,276.9,10,3,1.8,0,0.0,-1,0.0,0.0,0.0,0
40193,1506819961177,,,,,,,,0.03,0.05,1.0,-3.0,-0.6,-0.1,0,0,,,,,,,,,,,,,,,,,,,
40213,1506819961195,,,,,,,,0.03,0.05,1.0,-3.0,-0.6,-0.1,0,0,,,,,,,,,,,,,,,,,,,
40233,1506819961215,,,,,,,,0.03,0.05,1.0,-3.0,-0.6,-0.1,0,0,,,,,,,,,,,,,,,,,,,
40253,1506819961235,,,,,,,,0.03,0.05,1.0,-3.0,-0.6,-0.1,0,0,,,,,,,,,,,,,,,,,,,
40273,1506819961255,0,146.3,,167.2,0,161.4,,0.02,0.05,1.0,-3.0,-0.6,-0.1,0,0,1,1,0.0,0,35.489792,-119.546165,0.0,0.006,276.9,10,3,1.8,0,0.0,-1,0.0,0.0,0.0,0
40293,1506819961275,,,,,,,,0.02,0.05,1.0,-3.0,-0.6,-0.1,0,0,,,,,,,,,,,,,,,,,,,
40313,1506819961294,,,,,,,,0.02,0.05,1.0,-3.0,-0.6,-0.1,0,0,,,,,,,,,,,,,,,,,,,
40333,1506819961314,,,,,,,,0.02,0.05,1.0,-3.0,-0.6,-0.1,0,0,,,,,,,,,,,,,,,,,,,
40353,1506819961334,,,,,,,,0.02,0.05,1.0,-3.0,-0.6,-0.1,0,0,,,,,,,,,,,,,,,,,,,
40373,1506819961354,,,,,0,,,0.02,0.05,1.0,-3.0,-0.6,-0.1,0,0,1,1,0.0,0,35.489792,-119.546165,0.0,0.006,276.9,10,3,1.8,0,0.0,-1,0.0,0.0,0.0,0
40393,1506819961374,,,,,,,,0.02,0.05,1.0,-3.0,-0.6,-0.1,0,0,,,,,,,,,,,,,,,,,,,
40413,1506819961396,,,,,,,,0.02,0.05,1.0,-3.0,-0.6,-0.1,0,0,,,,,,,,,,,,,,,,,,,
40433,1506819961416,,,,,,,,0.02,0.05,1.0,-3.0,-0.6,-0.1,0,0,,,,,,,,,,,,,,,,,,,
40453,1506819961436,,,,,,,,0.02,0.05,1.0,-3.0,-0.6,-0.1,0,0,,,,,,,,,,,,,,,,,,,
40473,1506819961456,0,145.5,,166.9,0,161.5,,0.02,0.05,1.0,-3.0,-0.5,-0.1,0,0,1,1,0.0,0,35.489792,-119.546165,0.0,0.006,276.9,10,3,1.8,0,0.0,-1,0.0,0.0,0.0,0
40493,1506819961476,,,,,,,,0.02,0.05,1.0,-3.0,-0.5,-0.1,0,0,,,,,,,,,,,,,,,,,,,
40513,1506819961492,,,,,,,,0.02,0.05,1.0,-3.0,-0.5,-0.1,0,0,,,,,,,,,,,,,,,,,,,
40533,1506819961512,,,,,,,,0.02,0.05,1.0,-3.0,-0.5,-0.1,0,0,,,,,,,,,,,,,,,,,,,
40553,1506819961532,,,,,,,,0.02,0.05,1.0,-3.0,-0.6,-0.1,0,0,,,,,,,,,,,,,,,,,,,
40573,1506819961552,,,,,0,,,0.02,0.05,1.0,-3.0,-0.6,-0.1,0,0,1,1,0.0,0,35.489792,-119.546165,0.0,0.006,276.9,10,3,1.8,0,0.0,-1,0.0,0.0,0.0,0
40593,1506819961572,,,,,,,,0.02,0.05,1.0,-3.0,-0.6,-0.1,0,0,,,,,,,,,,,,,,,,,,,
40613,1506819961594,,,,,,,,0.02,0.05,1.0,-3.0,-0.5,-0.1,0,0,,,,,,,,,,,,,,,,,,,
40633,1506819961614,,,,,,,,0.03,0.05,1.0,-3.0,-0.6,-0.1,0,0,,,,,,,,,,,,,,,,,,,
40653,1506819961634,,,,,,,,0.03,0.05,1.0,-3.0,-0.6,-0.1,0,0,,,,,,,,,,,,,,,,,,,
40673,1506819961654,0,145.4,,166.6,0,161.1,,0.03,0.05,1.0,-3.0,-0.6,-0.1,0,0,1,1,0.0,0,35.489792,-119.546165,0.0,0.006,276.9,10,3,1.8,0,0.0,-1,0.0,0.0,0.0,0
40693,1506819961674,,,,,,,,0.03,0.05,1.0,-3.0,-0.6,-0.1,0,0,,,,,,,,,,,,,,,,,,,
40713,1506819961696,,,,,,,,0.02,0.05,1.0,-3.0,-0.6,-0.1,0,0,,,,,,,,,,,,,,,,,,,
40733,1506819961716,,,,,,,,0.02,0.05,1.0,-3.0,-0.5,-0.1,0,0,,,,,,,,,,,,,,,,,,,
40753,1506819961736,,,,,,,,0.02,0.05,1.0,-3.0,-0.6,-0.1,0,0,,,,,,,,,,,,,,,,,,,
40773,1506819961756,,,,,0,,,0.02,0.05,1.0,-3.0,-0.6,-0.1,0,0,1,1,0.0,0,35.489792,-119.546165,0.0,0.006,276.9,10,3,1.8,0,0.0,-1,0.0,0.0,0.0,0
40793,1506819961776,,,,,,,,0.02,0.05,1.0,-3.0,-0.6,-0.1,0,0,,,,,,,,,,,,,,,,,,,
40813,1506819961796,,,,,,,,0.02,0.05,1.0,-3.0,-0.6,-0.1,0,0,,,,,,,,,,,,,,,,,,,
40833,1506819961816,,,,,,,,0.02,0.05,1.0,-3.0,-0.6,-0.1,0,0,,,,,,,,,,,,,,,,,,,
40853,1506819961836,,,,,,,,0.02,0.05,1.0,-3.0,-0.6,-0.1,0,0,,,,,,,,,,,,,,,,,,,
40873,1506819961856,0,146.2,,167.1,0,161.4,,0.02,0.05,1.0,-3.0,-0.6,-0.1,0,0,1,1,0.0,0,35.489792,-119.546165,0.0,0.006,276.9,10,3,1.8,0,0.0,-1,0.0,0.0,0.0,0
40893,1506819961876,,,,,,,,0.02,0.05,1.0,-3.0,-0.6,-0.1,0,0,,,,,,,,,,,,,,,,,,,
40913,1506819961896,,,,,,,,0.02,0.05,1.0,-3.0,-0.6,-0.1,0,0,,,,,,,,,,,,,,,,,,,
40933,1506819961916,,,,,,,,0.02,0.05,1.0,-3.0,-0.6,-0.1,0,0,,,,,,,,,,,,,,,,,,,
40953,1506819961936,,,,,,,,0.02,0.05,1.0,-3.0,-0.6,-0.1,0,0,,,,,,,,,,,,,,,,,,,
40973,1506819961956,,,,,0,,,0.02,0.05,1.0,-3.0,-0.6,-0.1,0,0,1,1,0.0,0,35.489792,-119.546165,0.0,0.006,276.9,10,3,1.8,0,0.0,-1,0.0,0.0,0.0,0
40993,1506819961976,,,,,,,,0.02,0.05,1.0,-3.0,-0.6,-0.1,0,0,,,,,,,,,,,,,,,,,,,
41013,1506819961996,,,,,,,,0.02,0.05,1.0,-3.0,-0.6,-0.1,0,0,,,,,,,,,,,,,,,,,,,
41033,1506819962010,,,,,,,,0.02,0.05,1.0,-3.0,-0.6,-0.1,0,0,,,,,,,,,,,,,,,,,,,
41053,1506819962030,,,,,,,,0.02,0.05,0.99,-3.0,-0.6,-0.2,0,0,,,,,,,,,,,,,,,,,,,
41073,1506819962050,0,145.4,-0.7,166.5,0,161.1,13.17,0.02,0.05,1.0,-3.0,-0.6,-0.2,0,0,1,1,0.0,0,35.489792,-119.546165,0.0,0.006,276.9,10,3,1.8,0,0.0,-1,0.0,0.0,0.0,0
41093,1506819962070,,,,,,,,0.02,0.05,1.0,-3.1,-0.6,-0.2,0,0,,,,,,,,,,,,,,,,,,,
41113,1506819962096,,,,,,,,0.02,0.05,1.0,-3.1,-0.6,-0.1,0,0,,,,,,,,,,,,,,,,,,,
41133,1506819962116,,,,,,,,0.03,0.05,1.0,-3.0,-0.6,-0.1,0,0,,,,,,,,,,,,,,,,,,,
41153,1506819962136,,,,,,,,0.02,0.05,1.0,-3.0,-0.6,-0.1,0,0,,,,,,,,,,,,,,,,,,,
41173,1506819962156,,,,,0,,,0.02,0.05,1.0,-3.0,-0.6,-0.1,0,0,1,1,0.0,0,35.489792,-119.546165,0.0,0.006,276.9,10,3,1.8,0,0.0,-1,0.0,0.0,0.0,0
41193,1506819962176,,,,,,,,0.02,0.05,1.0,-3.0,-0.6,-0.2,0,0,,,,,,,,,,,,,,,,,,,
41213,1506819962196,,,,,,,,0.02,0.05,1.0,-3.0,-0.6,-0.1,0,0,,,,,,,,,,,,,,,,,,,
41233,1506819962216,,,,,,,,0.03,0.05,1.0,-3.0,-0.6,-0.1,0,0,,,,,,,,,,,,,,,,,,,
41253,1506819962236,,,,,,,,0.03,0.05,1.0,-3.0,-0.6,-0.1,0,0,,,,,,,,,,,,,,,,,,,
41273,1506819962256,0,146.3,,167.2,0,161.3,,0.03,0.05,1.0,-3.0,-0.6,-0.1,0,0,1,1,0.0,0,35.489792,-119.546165,0.0,0.006,276.9,10,3,1.8,0,0.0,-1,0.0,0.0,0.0,0
41293,1506819962276,,,,,,,,0.02,0.05,1.0,-3.0,-0.6,-0.1,0,0,,,,,,,,,,,,,,,,,,,
41313,1506819962295,,,,,,,,0.02,0.05,1.0,-3.0,-0.6,-0.1,0,0,,,,,,,,,,,,,,,,,,,
41333,1506819962315,,,,,,,,0.02,0.05,1.0,-3.0,-0.6,-0.1,0,0,,,,,,,,,,,,,,,,,,,
41353,1506819962335,,,,,,,,0.02,0.05,1.0,-3.0,-0.6,-0.1,0,0,,,,,,,,,,,,,,,,,,,
41373,1506819962355,,,,,0,,,0.02,0.05,1.0,-3.0,-0.6,-0.1,0,0,1,1,0.0,0,35.489792,-119.546165,0.0,0.006,276.9,10,3,1.8,0,0.0,-1,0.0,0.0,0.0,0
41393,1506819962375,,,,,,,,0.02,0.05,1.0,-3.0,-0.6,-0.1,0,0,,,,,,,,,,,,,,,,,,,
41413,1506819962395,,,,,,,,0.02,0.05,1.0,-3.0,-0.6,-0.1,0,0,,,,,,,,,,,,,,,,,,,
41433,1506819962415,,,,,,,,0.02,0.05,1.0,-3.0,-0.6,-0.1,0,0,,,,,,,,,,,,,,,,,,,
41453,1506819962435,,,,,,,,0.02,0.05,1.0,-3.0,-0.6,-0.1,0,0,,,,,,,,,,,,,,,,,,,
41473,1506819962455,0,145.9,,166.4,0,160.9,,0.02,0.05,1.0,-3.0,-0.6,-0.1,0,0,1,1,0.0,0,35.489792,-119.546165,0.0,0.006,276.9,10,3,1.8,0,0.0,-1,0.0,0.0,0.0,0
41493,1506819962475,,,,,,,,0.02,0.05,1.0,-3.0,-0.6,-0.1,0,0,,,,,,,,,,,,,,,,,,,
41513,1506819962495,,,,,,,,0.02,0.05,1.0,-3.0,-0.6,-0.1,0,0,,,,,,,,,,,,,,,,,,,
41533,1506819962515,,,,,,,,0.02,0.05,1.0,-3.0,-0.6,-0.1,0,0,,,,,,,,,,,,,,,,,,,
41553,1506819962535,,,,,,,,0.02,0.05,1.0,-3.0,-0.6,-0.1,0,0,,,,,,,,,,,,,,,,,,,
41573,1506819962555,,,,,0,,,0.02,0.05,1.0,-3.0,-0.6,-0.1,0,0,1,1,0.0,0,35.489792,-119.546165,0.0,0.006,276.9,10,3,1.8,0,0.0,-1,0.0,0.0,0.0,0
41593,1506819962575,,,,,,,,0.02,0.05,1.0,-3.0,-0.6,-0.1,0,0,,,,,,,,,,,,,,,,,,,
41613,1506819962595,,,,,,,,0.02,0.05,1.0,-3.0,-0.6,-0.1,0,0,,,,,,,,,,,,,,,,,,,
41633,1506819962615,,,,,,,,0.02,0.05,1.0,-3.0,-0.6,-0.1,0,0,,,,,,,,,,,,,,,,,,,
41653,1506819962635,,,,,,,,0.02,0.05,1.0,-3.0,-0.5,-0.1,0,0,,,,,,,,,,,,,,,,,,,
41673,1506819962655,0,145.4,,166.6,0,161.2,,0.02,0.05,1.0,-3.0,-0.6,-0.1,0,0,1,1,0.0,0,35.489792,-119.546165,0.0,0.006,276.9,10,3,1.8,0,0.0,-1,0.0,0.0,0.0,0
41693,1506819962675,,,,,,,,0.02,0.05,1.0,-3.0,-0.6,-0.1,0,0,,,,,,,,,,,,,,,,,,,
41713,1506819962695,,,,,,,,0.02,0.05,1.0,-3.0,-0.6,-0.1,0,0,,,,,,,,,,,,,,,,,,,
41733,1506819962715,,,,,,,,0.02,0.05,1.0,-3.0,-0.5,-0.1,0,0,,,,,,,,,,,,,,,,,,,
41753,1506819962735,,,,,,,,0.02,0.05,1.0,-3.0,-0.5,-0.1,0,0,,,,,,,,,,,,,,,,,,,
