"Interval"|"ms"|0|0|1,"Utc"|"ms"|0|0|1,"FuelLevel"|"F"|0|100|5,"OilTemp"|"F"|0.0|300.0|5,"CoolantPressPSI"|"PSI"|0.0|20.0|1,"Coolant"|"F"|0.0|300.0|5,"OilPress"|"PSI"|0|150|10,"EngineTemp"|"F"|0.0|300.0|5,"Battery"|"Volts"|0.0|20.0|1,"AccelX"|"G"|-3.0|3.0|50,"AccelY"|"G"|-3.0|3.0|50,"AccelZ"|"G"|-3.0|3.0|50,"Yaw"|"Deg/Sec"|-300.0|300.0|50,"Pitch"|"Deg/Sec"|-300.0|300.0|50,"Roll"|"Deg/Sec"|-300.0|300.0|50,"RPM"|""|0|10000|50,"Driveshaft"|"RPM"|0|5000|50,"GPIO1"|""|0|1|10,"GPIO2"|""|0|1|10,"GearRatio"|""|-5.0|5.0|10,"Latitude"|"Degrees"|-180.0|180.0|10,"Longitude"|"Degrees"|-180.0|180.0|10,"Speed"|"mph"|0.0|150.0|10,"Distance"|"mi"|0.0|0.0|10,"Altitude"|"ft"|0.0|4000.0|10,"GPSSats"|""|0|20|10,"GPSQual"|""|0|5|10,"GPSDOP"|""|0.0|20.0|10,"LapCount"|""|0|0|10,"LapTime"|"Min"|0.0|0.0|10,"Sector"|""|0|0|10,"SectorTime"|"Min"|0.0|0.0|10,"PredTime"|"Min"|0.0|0.0|10,"ElapsedTime"|"Min"|0.0|0.0|10,"CurrentLap"|""|0|0|10
,,,,,,,,,,,,,,,,,,,,,,,,,,,,,,,,,,
11509,1506900925707,,,,,,,,0.01,0.05,1.0,-3.0,-0.8,-0.4,700,0,,,,,,,,,,,,,,,,,,
11529,1506900925727,,,,,,,,0.02,0.05,1.0,-3.1,-0.8,-0.4,680,0,,,,,,,,,,,,,,,,,,
11549,1506900925747,,,,,,,,0.02,0.05,1.0,-3.0,-1.0,-0.4,700,0,,,,,,,,,,,,,,,,,,
11569,1506900925767,,,,,38,,,0.02,0.04,1.0,-3.0,-1.0,-0.4,700,0,0,1,0.0,35.489902,-119.546143,0.0,0.0,254.1,6,2,0.6,0,0.0,-1,0.0,0.0,0.0,0
11589,1506900925787,,,,,,,,0.03,0.05,0.99,-3.0,-0.9,-0.4,700,0,,,,,,,,,,,,,,,,,,
11609,1506900925807,,,,,,,,0.03,0.05,0.99,-3.0,-0.9,-0.3,700,0,,,,,,,,,,,,,,,,,,
11629,1506900925827,,,,,,,,0.02,0.05,1.01,-3.0,-0.9,-0.4,700,0,,,,,,,,,,,,,,,,,,
11649,1506900925847,,,,,,,,0.02,0.05,1.01,-3.0,-0.8,-0.3,680,0,,,,,,,,,,,,,,,,,,
11669,1506900925867,0,133.7,,144.1,38,143.1,,0.02,0.06,1.0,-3.0,-0.7,-0.2,700,0,0,1,0.0,35.489902,-119.546127,0.0,0.0,250.4,6,2,0.6,0,0.0,-1,0.0,0.0,0.0,0
11689,1506900925887,,,,,,,,0.02,0.05,1.0,-3.0,-0.8,-0.4,700,0,,,,,,,,,,,,,,,,,,
11709,1506900925907,,,,,,,,0.02,0.05,1.0,-3.0,-0.9,-0.4,700,0,,,,,,,,,,,,,,,,,,
11729,1506900925927,,,,,,,,0.02,0.05,1.0,-3.0,-0.9,-0.3,700,0,,,,,,,,,,,,,,,,,,
11749,1506900925947,,,,,,,,0.02,0.06,0.99,-3.0,-0.9,-0.4,700,0,,,,,,,,,,,,,,,,,,
11769,1506900925967,,,,,38,,,0.02,0.05,1.0,-3.0,-0.8,-0.4,700,0,0,1,0.0,35.489902,-119.546127,0.0,0.0,247.4,6,2,0.6,0,0.0,-1,0.0,0.0,0.0,0
11789,1506900925987,,,,,,,,0.03,0.05,0.99,-3.0,-0.9,-0.4,700,0,,,,,,,,,,,,,,,,,,
11809,1506900926007,,,,,,,,0.02,0.05,0.99,-3.0,-0.9,-0.3,680,0,,,,,,,,,,,,,,,,,,
11829,1506900926027,,,,,,,,0.02,0.05,0.99,-3.0,-0.8,-0.4,680,0,,,,,,,,,,,,,,,,,,
11849,1506900926047,,,,,,,,0.02,0.05,0.99,-3.0,-0.7,-0.3,680,0,,,,,,,,,,,,,,,,,,
11869,1506900926067,0,133.1,,142.9,38,142.0,,0.03,0.05,0.99,-3.0,-0.8,-0.3,700,0,0,1,0.0,35.489902,-119.546127,0.0,0.0,246.1,6,2,0.6,0,0.0,-1,0.0,0.0,0.0,0
11889,1506900926087,,,,,,,,0.02,0.05,1.0,-3.0,-0.9,-0.3,700,0,,,,,,,,,,,,,,,,,,
11909,1506900926107,,,,,,,,0.02,0.06,1.0,-3.0,-0.9,-0.3,700,0,,,,,,,,,,,,,,,,,,
11929,1506900926127,,,,,,,,0.03,0.06,0.99,-3.0,-0.9,-0.2,680,0,,,,,,,,,,,,,,,,,,
11949,1506900926147,,,,,,,,0.02,0.06,1.0,-3.0,-1.1,-0.3,700,0,,,,,,,,,,,,,,,,,,
11969,1506900926167,,,,,39,,,0.02,0.05,1.01,-3.0,-1.1,-0.3,700,0,0,1,0.0,35.489902,-119.546127,0.0,0.0,244.7,6,2,0.6,0,0.0,-1,0.0,0.0,0.0,0
11989,1506900926187,,,,,,,,0.03,0.06,1.0,-3.0,-0.9,-0.3,700,0,,,,,,,,,,,,,,,,,,
12009,1506900926207,,,,,,,,0.03,0.06,1.0,-3.0,-0.8,-0.2,700,0,,,,,,,,,,,,,,,,,,
12029,1506900926227,,,,,,,,0.02,0.06,1.0,-3.0,-0.9,-0.4,700,0,,,,,,,,,,,,,,,,,,
12049,1506900926247,,,,,,,,0.02,0.05,1.0,-3.0,-0.9,-0.4,700,0,,,,,,,,,,,,,,,,,,
12069,1506900926267,0,133.3,-0.3,144.0,39,143.2,14.33,0.02,0.06,0.99,-3.0,-0.9,-0.3,700,0,0,1,0.0,35.489902,-119.546127,0.0,0.0,243.9,6,2,0.6,0,0.0,-1,0.0,0.0,0.0,0
12089,1506900926287,,,,,,,,0.02,0.06,0.99,-3.0,-1.0,-0.4,700,0,,,,,,,,,,,,,,,,,,
12109,1506900926307,,,,,,,,0.02,0.05,0.99,-3.0,-1.0,-0.4,700,0,,,,,,,,,,,,,,,,,,
12129,1506900926327,,,,,,,,0.03,0.06,0.98,-3.0,-1.0,-0.4,700,0,,,,,,,,,,,,,,,,,,
12149,1506900926347,,,,,,,,0.03,0.06,0.98,-3.0,-1.0,-0.3,700,0,,,,,,,,,,,,,,,,,,
12169,1506900926367,,,,,38,,,0.02,0.05,0.99,-3.0,-0.9,-0.4,700,0,0,1,0.0,35.489902,-119.546127,0.0,0.0,242.6,6,2,0.6,0,0.0,-1,0.0,0.0,0.0,0
12189,1506900926387,,,,,,,,0.02,0.05,0.98,-3.0,-0.8,-0.3,700,0,,,,,,,,,,,,,,,,,,
12209,1506900926407,,,,,,,,0.03,0.06,0.99,-3.0,-0.9,-0.3,700,0,,,,,,,,,,,,,,,,,,
12229,1506900926427,,,,,,,,0.02,0.05,0.99,-3.0,-1.0,-0.3,700,0,,,,,,,,,,,,,,,,,,
12249,1506900926447,,,,,,,,0.02,0.06,1.0,-3.0,-1.0,-0.3,700,0,,,,,,,,,,,,,,,,,,
12269,1506900926467,0,132.4,,143.1,37,142.7,,0.03,0.06,0.99,-3.0,-0.9,-0.3,700,0,0,1,0.0,35.489902,-119.546127,0.0,0.0,242.6,6,2,0.6,0,0.0,-1,0.0,0.0,0.0,0
12289,1506900926464,,,,,,,,0.03,0.06,0.98,-3.0,-1.0,-0.3,700,0,,,,,,,,,,,,,,,,,,
12309,1506900926484,,,,,,,,0.03,0.05,1.0,-3.0,-1.0,-0.3,700,0,,,,,,,,,,,,,,,,,,
12329,1506900926504,,,,,,,,0.03,0.05,1.0,-3.0,-0.8,-0.3,700,0,,,,,,,,,,,,,,,,,,
12349,1506900926524,,,,,,,,0.03,0.06,0.99,-3.0,-0.7,-0.2,700,0,,,,,,,,,,,,,,,,,,
12369,1506900926564,,,,,39,,,0.02,0.05,1.0,-3.0,-0.8,-0.3,700,0,0,1,0.0,35.489902,-119.546127,0.0,0.0,241.0,6,2,0.6,0,0.0,-1,0.0,0.0,0.0,0
12389,1506900926584,,,,,,,,0.02,0.05,1.0,-3.0,-0.9,-0.3,700,0,,,,,,,,,,,,,,,,,,
12409,1506900926604,,,,,,,,0.02,0.06,0.99,-3.0,-0.8,-0.2,700,0,,,,,,,,,,,,,,,,,,
12429,1506900926624,,,,,,,,0.02,0.06,0.99,-3.0,-0.9,-0.3,700,0,,,,,,,,,,,,,,,,,,
12449,1506900926644,,,,,,,,0.02,0.05,0.99,-3.0,-0.9,-0.3,700,0,,,,,,,,,,,,,,,,,,
12469,1506900926664,0,133.5,,144.0,37,143.1,,0.03,0.05,0.99,-3.0,-0.9,-0.3,700,0,0,1,0.0,35.489902,-119.546127,0.0,0.0,241.0,6,2,0.6,0,0.0,-1,0.0,0.0,0.0,0
12489,1506900926684,,,,,,,,0.03,0.05,0.99,-3.0,-1.0,-0.3,700,0,,,,,,,,,,,,,,,,,,
12509,1506900926704,,,,,,,,0.02,0.05,0.99,-3.0,-0.8,-0.4,700,0,,,,,,,,,,,,,,,,,,
12529,1506900926724,,,,,,,,0.02,0.05,0.99,-3.0,-0.8,-0.3,700,0,,,,,,,,,,,,,,,,,,
12549,1506900926744,,,,,,,,0.03,0.05,0.99,-3.1,-0.9,-0.3,700,0,,,,,,,,,,,,,,,,,,
12569,1506900926764,,,,,39,,,0.02,0.05,1.0,-3.0,-0.9,-0.3,700,0,0,1,0.0,35.489902,-119.546127,0.0,0.0,241.0,6,2,0.6,0,0.0,-1,0.0,0.0,0.0,0
12589,1506900926784,,,,,,,,0.02,0.05,1.0,-3.0,-1.0,-0.3,700,0,,,,,,,,,,,,,,,,,,
12609,1506900926804,,,,,,,,0.03,0.05,0.99,-3.1,-0.9,-0.3,700,0,,,,,,,,,,,,,,,,,,
12629,1506900926824,,,,,,,,0.03,0.05,0.99,-3.1,-0.9,-0.2,700,0,,,,,,,,,,,,,,,,,,
12649,1506900926844,,,,,,,,0.03,0.05,1.0,-3.1,-1.0,-0.3,700,0,,,,,,,,,,,,,,,,,,
12669,1506900926864,0,133.6,,144.1,37,142.5,,0.03,0.05,1.0,-3.1,-0.8,-0.3,700,0,0,1,0.0,35.489902,-119.546127,0.0,0.0,241.0,6,2,0.6,0,0.0,-1,0.0,0.0,0.0,0
12689,1506900926884,,,,,,,,0.03,0.06,1.0,-3.1,-0.7,-0.3,700,0,,,,,,,,,,,,,,,,,,
12709,1506900926904,,,,,,,,0.02,0.05,1.0,-3.0,-0.8,-0.4,700,0,,,,,,,,,,,,,,,,,,
12729,1506900926924,,,,,,,,0.02,0.05,1.0,-3.1,-0.9,-0.4,700,0,,,,,,,,,,,,,,,,,,
12749,1506900926944,,,,,,,,0.02,0.06,0.99,-3.1,-1.0,-0.4,700,0,,,,,,,,,,,,,,,,,,
12769,1506900926964,,,,,39,,,0.02,0.05,0.99,-3.0,-0.9,-0.4,680,0,0,1,0.0,35.489902,-119.546127,0.0,0.0,241.0,6,2,0.6,0,0.0,-1,0.0,0.0,0.0,0
12789,1506900926984,,,,,,,,0.02,0.05,1.0,-3.0,-0.9,-0.4,680,0,,,,,,,,,,,,,,,,,,
12809,1506900927004,,,,,,,,0.03,0.05,0.99,-3.0,-0.9,-0.4,700,0,,,,,,,,,,,,,,,,,,
12829,1506900927024,,,,,,,,0.03,0.05,0.99,-3.0,-0.9,-0.4,680,0,,,,,,,,,,,,,,,,,,
12849,1506900927044,,,,,,,,0.02,0.04,1.0,-2.9,-0.8,-0.4,680,0,,,,,,,,,,,,,,,,,,
12869,1506900927064,0,133.0,,143.7,38,143.1,,0.02,0.05,1.0,-3.0,-0.7,-0.4,680,0,0,1,0.0,35.489902,-119.546127,0.0,0.0,241.0,6,2,0.6,0,0.0,-1,0.0,0.0,0.0,0
12889,1506900927084,,,,,,,,0.02,0.05,1.0,-3.0,-0.8,-0.3,700,0,,,,,,,,,,,,,,,,,,
12909,1506900927104,,,,,,,,0.02,0.05,1.0,-3.0,-0.9,-0.4,700,0,,,,,,,,,,,,,,,,,,
12929,1506900927124,,,,,,,,0.02,0.05,1.0,-3.0,-0.9,-0.4,700,0,,,,,,,,,,,,,,,,,,
12949,1506900927144,,,,,,,,0.02,0.05,0.99,-3.0,-0.9,-0.3,680,0,,,,,,,,,,,,,,,,,,
12969,1506900927164,,,,,38,,,0.02,0.05,1.0,-3.0,-1.0,-0.3,680,0,0,1,0.0,35.489902,-119.546127,0.0,0.0,241.0,6,2,0.6,0,0.0,-1,0.0,0.0,0.0,0
12989,1506900927184,,,,,,,,0.02,0.05,1.0,-3.0,-1.1,-0.4,680,0,,,,,,,,,,,,,,,,,,
13009,1506900927204,,,,,,,,0.03,0.05,0.99,-3.0,-0.9,-0.4,680,0,,,,,,,,,,,,,,,,,,
13029,1506900927224,,,,,,,,0.03,0.05,0.99,-3.0,-0.9,-0.3,680,0,,,,,,,,,,,,,,,,,,
13049,1506900927244,,,,,,,,0.03,0.05,1.0,-3.0,-0.9,-0.4,680,0,,,,,,,,,,,,,,,,,,
13069,1506900927262,0,132.4,-0.6,143.2,38,142.7,14.35,0.02,0.05,1.0,-3.0,-0.8,-0.5,680,0,0,1,0.0,35.489902,-119.546127,0.0,0.0,241.0,6,2,0.6,0,0.0,-1,0.0,0.0,0.0,0
13089,1506900927282,,,,,,,,0.02,0.05,0.99,-3.0,-0.7,-0.4,680,0,,,,,,,,,,,,,,,,,,
13109,1506900927302,,,,,,,,0.02,0.05,1.0,-3.0,-0.9,-0.4,680,0,,,,,,,,,,,,,,,,,,
13129,1506900927322,,,,,,,,0.02,0.05,1.0,-3.0,-1.0,-0.5,680,0,,,,,,,,,,,,,,,,,,
13149,1506900927342,,,,,,,,0.02,0.05,1.0,-3.0,-1.0,-0.4,680,0,,,,,,,,,,,,,,,,,,
13169,1506900927364,,,,,37,,,0.02,0.05,1.0,-3.0,-1.0,-0.5,680,0,0,1,0.0,35.489902,-119.546127,0.0,0.0,241.0,6,2,0.6,0,0.0,-1,0.0,0.0,0.0,0
13189,1506900927384,,,,,,,,0.02,0.05,1.01,-3.0,-1.1,-0.5,680,0,,,,,,,,,,,,,,,,,,
13209,1506900927404,,,,,,,,0.02,0.05,1.0,-3.0,-1.1,-0.5,680,0,,,,,,,,,,,,,,,,,,
13229,1506900927424,,,,,,,,0.02,0.05,1.0,-3.0,-1.1,-0.5,680,0,,,,,,,,,,,,,,,,,,
13249,1506900927444,,,,,,,,0.02,0.05,1.0,-3.0,-1.1,-0.5,680,0,,,,,,,,,,,,,,,,,,
13269,1506900927455,0,133.7,,144.2,37,143.0,,0.03,0.05,1.0,-3.0,-1.2,-0.5,680,0,0,1,0.0,35.489902,-119.546127,0.0,0.0,241.0,6,2,0.6,0,0.0,-1,0.0,0.0,0.0,0
13289,1506900927475,,,,,,,,0.02,0.05,1.0,-2.9,-1.1,-0.5,680,0,,,,,,,,,,,,,,,,,,
13309,1506900927495,,,,,,,,0.02,0.05,1.0,-2.9,-0.9,-0.5,680,0,,,,,,,,,,,,,,,,,,
13329,1506900927515,,,,,,,,0.03,0.04,0.99,-3.0,-1.0,-0.5,660,0,,,,,,,,,,,,,,,,,,
13349,1506900927535,,,,,,,,0.02,0.05,1.0,-2.9,-1.0,-0.5,660,0,,,,,,,,,,,,,,,,,,
13369,1506900927563,,,,,38,,,0.02,0.04,1.0,-2.9,-0.8,-0.5,660,0,0,1,0.0,35.489902,-119.546127,0.0,0.0,241.0,6,2,0.6,0,0.0,-1,0.0,0.0,0.0,0
13389,1506900927583,,,,,,,,0.02,0.04,1.0,-2.9,-0.7,-0.5,680,0,,,,,,,,,,,,,,,,,,
13409,1506900927603,,,,,,,,0.02,0.05,1.0,-2.8,-0.9,-0.4,680,0,,,,,,,,,,,,,,,,,,
13429,1506900927623,,,,,,,,0.02,0.04,1.01,-2.8,-0.8,-0.5,680,0,,,,,,,,,,,,,,,,,,
13449,1506900927643,,,,,,,,0.02,0.04,1.0,-2.8,-0.6,-0.5,680,0,,,,,,,,,,,,,,,,,,
13469,1506900927663,0,132.5,,143.1,37,142.6,,0.02,0.05,1.0,-2.9,-0.8,-0.4,680,0,0,1,0.0,35.489902,-119.546127,0.0,0.0,241.0,6,2,0.6,0,0.0,-1,0.0,0.0,0.0,0
13489,1506900927683,,,,,,,,0.02,0.04,1.01,-2.9,-0.8,-0.5,680,0,,,,,,,,,,,,,,,,,,
13509,1506900927703,,,,,,,,0.02,0.05,1.0,-2.9,-0.6,-0.5,680,0,,,,,,,,,,,,,,,,,,
13529,1506900927723,,,,,,,,0.02,0.05,1.0,-2.9,-0.8,-0.4,660,0,,,,,,,,,,,,,,,,,,
13549,1506900927743,,,,,,,,0.02,0.04,1.0,-2.9,-1.0,-0.5,660,0,,,,,,,,,,,,,,,,,,
13569,1506900927765,,,,,36,,,0.01,0.04,1.0,-2.9,-0.9,-0.5,660,0,0,1,0.0,35.489902,-119.546127,0.0,0.0,241.0,6,2,0.6,0,0.0,-1,0.0,0.0,0.0,0
13589,1506900927785,,,,,,,,0.02,0.04,1.0,-3.0,-0.9,-0.4,680,0,,,,,,,,,,,,,,,,,,
13609,1506900927805,,,,,,,,0.02,0.04,1.0,-2.9,-1.2,-0.4,680,0,,,,,,,,,,,,,,,,,,
13629,1506900927825,,,,,,,,0.02,0.04,0.99,-2.9,-1.1,-0.5,680,0,,,,,,,,,,,,,,,,,,
13649,1506900927845,,,,,,,,0.03,0.04,0.99,-3.0,-1.0,-0.4,680,0,,,,,,,,,,,,,,,,,,
13669,1506900927863,0,132.4,,143.4,37,143.0,,0.02,0.04,0.99,-3.0,-1.2,-0.5,680,0,0,1,0.0,35.489899,-119.546127,0.0,0.0,226.0,7,2,2.4,0,0.0,-1,0.0,0.0,0.0,0
13689,1506900927883,,,,,,,,0.02,0.04,1.0,-3.0,-1.3,-0.5,680,0,,,,,,,,,,,,,,,,,,
13709,1506900927903,,,,,,,,0.03,0.05,0.99,-3.0,-1.0,-0.4,660,0,,,,,,,,,,,,,,,,,,
13729,1506900927923,,,,,,,,0.03,0.05,0.99,-3.0,-1.2,-0.4,680,0,,,,,,,,,,,,,,,,,,
13749,1506900927943,,,,,,,,0.03,0.05,0.99,-3.0,-1.3,-0.4,680,0,,,,,,,,,,,,,,,,,,
13769,1506900927963,,,,,37,,,0.03,0.05,0.99,-3.0,-1.1,-0.4,680,0,0,1,0.0,35.489899,-119.546127,0.0,0.0,226.0,7,2,2.4,0,0.0,-1,0.0,0.0,0.0,0
13789,1506900927983,,,,,,,,0.03,0.05,0.99,-3.0,-1.0,-0.4,680,0,,,,,,,,,,,,,,,,,,
13809,1506900928003,,,,,,,,0.03,0.04,1.0,-3.0,-1.0,-0.5,680,0,,,,,,,,,,,,,,,,,,
13829,1506900928023,,,,,,,,0.02,0.05,1.0,-3.0,-0.9,-0.4,680,0,,,,,,,,,,,,,,,,,,
13849,1506900928043,,,,,,,,0.03,0.05,0.99,-3.0,-0.7,-0.4,680,0,,,,,,,,,,,,,,,,,,
13869,1506900928063,0,133.2,,143.1,38,142.0,,0.02,0.04,1.0,-2.9,-0.8,-0.5,680,0,0,1,0.0,35.489899,-119.546127,0.0,0.0,226.0,7,2,2.4,0,0.0,-1,0.0,0.0,0.0,0
13889,1506900928083,,,,,,,,0.02,0.05,1.0,-2.9,-0.8,-0.5,660,0,,,,,,,,,,,,,,,,,,
13909,1506900928095,,,,,,,,0.02,0.05,1.0,-2.9,-0.6,-0.4,680,0,,,,,,,,,,,,,,,,,,
13929,1506900928115,,,,,,,,0.02,0.04,1.0,-2.9,-0.7,-0.5,680,0,,,,,,,,,,,,,,,,,,
13949,1506900928135,,,,,,,,0.02,0.05,1.0,-2.9,-0.8,-0.6,680,0,,,,,,,,,,,,,,,,,,
13969,1506900928155,,,,,37,,,0.02,0.05,1.0,-2.9,-0.8,-0.5,680,0,0,1,0.0,35.489899,-119.546127,0.0,0.0,226.0,7,2,2.4,0,0.0,-1,0.0,0.0,0.0,0
13989,1506900928175,,,,,,,,0.02,0.05,1.0,-2.9,-0.9,-0.6,680,0,,,,,,,,,,,,,,,,,,
14009,1506900928197,,,,,,,,0.02,0.04,1.0,-2.9,-1.0,-0.7,680,0,,,,,,,,,,,,,,,,,,
14029,1506900928217,,,,,,,,0.02,0.05,1.0,-2.9,-1.0,-0.6,660,0,,,,,,,,,,,,,,,,,,
14049,1506900928237,,,,,,,,0.02,0.05,1.0,-2.9,-1.0,-0.7,660,0,,,,,,,,,,,,,,,,,,
14069,1506900928257,0,132.7,-0.7,143.1,37,142.2,14.38,0.02,0.05,1.0,-2.9,-1.0,-0.7,660,0,0,1,0.0,35.489899,-119.546127,0.0,0.0,226.0,7,2,2.4,0,0.0,-1,0.0,0.0,0.0,0
14089,1506900928277,,,,,,,,0.02,0.05,1.0,-2.9,-1.2,-0.6,660,0,,,,,,,,,,,,,,,,,,
14109,1506900928297,,,,,,,,0.01,0.05,1.0,-2.9,-1.1,-0.6,660,0,,,,,,,,,,,,,,,,,,
14129,1506900928317,,,,,,,,0.01,0.05,1.0,-2.9,-1.2,-0.6,660,0,,,,,,,,,,,,,,,,,,
14149,1506900928337,,,,,,,,0.02,0.06,1.0,-2.9,-1.3,-0.6,660,0,,,,,,,,,,,,,,,,,,
14169,1506900928357,,,,,36,,,0.02,0.05,1.0,-2.9,-1.2,-0.6,660,0,0,1,0.0,35.489899,-119.546127,0.0,0.0,226.0,7,2,2.4,0,0.0,-1,0.0,0.0,0.0,0
14189,1506900928377,,,,,,,,0.02,0.05,0.99,-2.9,-1.2,-0.6,660,0,,,,,,,,,,,,,,,,,,
14209,1506900928397,,,,,,,,0.03,0.05,0.99,-2.9,-1.4,-0.6,660,0,,,,,,,,,,,,,,,,,,
14229,1506900928417,,,,,,,,0.03,0.05,0.98,-2.9,-1.3,-0.6,660,0,,,,,,,,,,,,,,,,,,
14249,1506900928437,,,,,,,,0.03,0.05,0.98,-2.9,-1.2,-0.6,660,0,,,,,,,,,,,,,,,,,,
14269,1506900928457,0,132.4,,143.4,36,142.9,,0.04,0.05,0.98,-2.9,-1.3,-0.5,660,0,0,1,0.0,35.489899,-119.546127,0.0,0.0,226.0,7,2,2.4,0,0.0,-1,0.0,0.0,0.0,0
14289,1506900928477,,,,,,,,0.04,0.05,0.99,-2.9,-1.3,-0.5,660,0,,,,,,,,,,,,,,,,,,
14309,1506900928496,,,,,,,,0.04,0.05,0.99,-2.9,-1.2,-0.5,660,0,,,,,,,,,,,,,,,,,,
14329,1506900928516,,,,,,,,0.04,0.06,0.99,-2.9,-1.2,-0.5,660,0,,,,,,,,,,,,,,,,,,
14349,1506900928536,,,,,,,,0.04,0.05,0.99,-2.9,-1.2,-0.5,660,0,,,,,,,,,,,,,,,,,,
14369,1506900928556,,,,,36,,,0.04,0.06,0.99,-2.8,-1.2,-0.5,660,0,0,1,0.0,35.489899,-119.546127,0.0,0.0,226.0,7,2,2.4,0,0.0,-1,0.0,0.0,0.0,0
14389,1506900928576,,,,,,,,0.05,0.06,0.99,-2.9,-1.1,-0.5,660,0,,,,,,,,,,,,,,,,,,
14409,1506900928596,,,,,,,,0.04,0.06,0.99,-2.9,-1.1,-0.5,660,0,,,,,,,,,,,,,,,,,,
14429,1506900928616,,,,,,,,0.04,0.06,0.99,-2.8,-1.0,-0.5,660,0,,,,,,,,,,,,,,,,,,
14449,1506900928636,,,,,,,,0.04,0.06,0.99,-2.9,-0.9,-0.5,660,0,,,,,,,,,,,,,,,,,,
14469,1506900928656,0,133.5,,143.8,36,142.0,,0.04,0.06,0.99,-2.9,-1.0,-0.4,660,0,0,1,0.0,35.489899,-119.546127,0.0,0.0,226.0,7,2,2.4,0,0.0,-1,0.0,0.0,0.0,0
14489,1506900928676,,,,,,,,0.04,0.05,1.0,-2.8,-0.8,-0.5,660,0,,,,,,,,,,,,,,,,,,
14509,1506900928698,,,,,,,,0.05,0.05,0.99,-2.9,-0.7,-0.5,660,0,,,,,,,,,,,,,,,,,,
14529,1506900928718,,,,,,,,0.05,0.06,0.99,-2.9,-0.8,-0.4,680,0,,,,,,,,,,,,,,,,,,
14549,1506900928738,,,,,,,,0.04,0.05,1.0,-2.8,-0.5,-0.5,680,0,,,,,,,,,,,,,,,,,,
14569,1506900928758,,,,,36,,,0.04,0.05,0.99,-2.8,-0.4,-0.5,660,0,0,1,0.0,35.489899,-119.546127,0.0,0.0,226.0,7,2,2.4,0,0.0,-1,0.0,0.0,0.0,0
14589,1506900928778,,,,,,,,0.04,0.05,0.99,-2.9,-0.6,-0.5,660,0,,,,,,,,,,,,,,,,,,
14609,1506900928796,,,,,,,,0.03,0.04,1.0,-2.8,-0.4,-0.5,660,0,,,,,,,,,,,,,,,,,,
14629,1506900928816,,,,,,,,0.04,0.05,0.99,-2.8,-0.3,-0.5,660,0,,,,,,,,,,,,,,,,,,
14649,1506900928836,,,,,,,,0.03,0.05,1.0,-2.8,-0.5,-0.4,660,0,,,,,,,,,,,,,,,,,,
14669,1506900928856,0,133.3,,144.2,35,143.1,,0.03,0.04,1.0,-2.8,-0.4,-0.5,660,0,0,1,0.0,35.489899,-119.546127,0.0,0.0,226.0,7,2,2.4,0,0.0,-1,0.0,0.0,0.0,0
14689,1506900928876,,,,,,,,0.03,0.04,1.0,-2.9,-0.3,-0.5,660,0,,,,,,,,,,,,,,,,,,
14709,1506900928896,,,,,,,,0.03,0.05,1.0,-2.9,-0.5,-0.4,660,0,,,,,,,,,,,,,,,,,,
14729,1506900928916,,,,,,,,0.02,0.04,1.01,-2.9,-0.4,-0.5,660,0,,,,,,,,,,,,,,,,,,
14749,1506900928936,,,,,,,,0.02,0.04,1.0,-2.9,-0.3,-0.5,660,0,,,,,,,,,,,,,,,,,,
14769,1506900928956,,,,,36,,,0.02,0.04,0.99,-2.9,-0.5,-0.4,660,0,0,1,0.0,35.489899,-119.546127,0.0,0.0,226.0,7,2,2.4,0,0.0,-1,0.0,0.0,0.0,0
14789,1506900928976,,,,,,,,0.01,0.03,1.0,-2.9,-0.3,-0.5,660,0,,,,,,,,,,,,,,,,,,
14809,1506900928996,,,,,,,,0.01,0.04,1.0,-2.9,-0.2,-0.4,660,0,,,,,,,,,,,,,,,,,,
14829,1506900929010,,,,,,,,0.02,0.04,1.0,-3.0,-0.4,-0.4,660,0,,,,,,,,,,,,,,,,,,
14849,1506900929030,,,,,,,,0.01,0.03,1.0,-2.9,-0.3,-0.5,660,0,,,,,,,,,,,,,,,,,,
14869,1506900929050,0,133.4,,144.1,35,142.0,,0.01,0.04,1.0,-3.0,-0.1,-0.4,660,0,0,1,0.0,35.489899,-119.546127,0.0,0.0,226.0,7,2,2.4,0,0.0,-1,0.0,0.0,0.0,0
14889,1506900929070,,,,,,,,0.01,0.04,1.0,-3.0,-0.4,-0.3,660,0,,,,,,,,,,,,,,,,,,
14909,1506900929096,,,,,,,,0.01,0.03,1.01,-2.9,-0.3,-0.5,660,0,,,,,,,,,,,,,,,,,,
14929,1506900929116,,,,,,,,0.0,0.04,1.0,-3.0,-0.1,-0.5,660,0,,,,,,,,,,,,,,,,,,
14949,1506900929136,,,,,,,,0.01,0.04,1.0,-3.0,-0.3,-0.4,660,0,,,,,,,,,,,,,,,,,,
14969,1506900929156,,,,,37,,,-0.0,0.03,1.01,-2.9,-0.3,-0.5,660,0,0,1,0.0,35.489899,-119.546127,0.0,0.0,226.0,7,2,2.4,0,0.0,-1,0.0,0.0,0.0,0
14989,1506900929176,,,,,,,,0.0,0.04,1.0,-3.0,-0.1,-0.5,660,0,,,,,,,,,,,,,,,,,,
15009,1506900929196,,,,,,,,0.01,0.04,1.0,-3.0,-0.3,-0.4,660,0,,,,,,,,,,,,,,,,,,
15029,1506900929216,,,,,,,,0.0,0.04,1.01,-3.0,-0.5,-0.5,680,0,,,,,,,,,,,,,,,,,,
15049,1506900929236,,,,,,,,0.0,0.04,1.0,-3.0,-0.3,-0.4,680,0,,,,,,,,,,,,,,,,,,
15069,1506900929256,0,133.5,-0.5,143.4,36,142.0,14.38,0.01,0.05,1.0,-3.0,-0.5,-0.3,680,0,0,1,0.0,35.489899,-119.546127,0.0,0.0,226.0,7,2,2.4,0,0.0,-1,0.0,0.0,0.0,0
15089,1506900929276,,,,,,,,0.0,0.04,1.01,-2.9,-0.7,-0.4,660,0,,,,,,,,,,,,,,,,,,
15109,1506900929296,,,,,,,,0.0,0.04,1.0,-2.9,-0.6,-0.4,660,0,,,,,,,,,,,,,,,,,,
15129,1506900929316,,,,,,,,0.01,0.05,1.0,-2.9,-0.7,-0.4,660,0,,,,,,,,,,,,,,,,,,
15149,1506900929336,,,,,,,,0.01,0.04,1.0,-2.9,-1.0,-0.4,660,0,,,,,,,,,,,,,,,,,,
15169,1506900929356,,,,,37,,,0.01,0.04,1.0,-2.9,-1.0,-0.4,660,0,0,1,0.0,35.489899,-119.546127,0.0,0.0,226.0,7,2,2.4,0,0.0,-1,0.0,0.0,0.0,0
15189,1506900929376,,,,,,,,0.01,0.05,0.99,-2.9,-0.8,-0.3,660,0,,,,,,,,,,,,,,,,,,
15209,1506900929396,,,,,,,,0.02,0.05,0.99,-2.9,-1.0,-0.3,660,0,,,,,,,,,,,,,,,,,,
15229,1506900929416,,,,,,,,0.02,0.04,1.0,-2.9,-1.1,-0.3,660,0,,,,,,,,,,,,,,,,,,
15249,1506900929436,,,,,,,,0.02,0.05,0.99,-3.0,-0.9,-0.3,680,0,,,,,,,,,,,,,,,,,,
15269,1506900929456,0,133.5,,144.2,37,142.3,,0.02,0.05,0.99,-2.9,-1.0,-0.2,660,0,0,1,0.0,35.489899,-119.546127,0.0,0.0,226.0,7,2,2.4,0,0.0,-1,0.0,0.0,0.0,0
15289,1506900929476,,,,,,,,0.02,0.04,1.0,-2.9,-1.1,-0.3,660,0,,,,,,,,,,,,,,,,,,
15309,1506900929495,,,,,,,,0.02,0.05,0.99,-3.0,-0.9,-0.2,660,0,,,,,,,,,,,,,,,,,,
15329,1506900929515,,,,,,,,0.03,0.05,0.99,-2.9,-0.8,-0.2,660,0,,,,,,,,,,,,,,,,,,
15349,1506900929535,,,,,,,,0.03,0.04,1.0,-2.9,-1.0,-0.3,660,0,,,,,,,,,,,,,,,,,,
15369,1506900929555,,,,,36,,,0.03,0.04,0.99,-2.9,-0.8,-0.3,660,0,0,1,0.0,35.489899,-119.546127,0.0,0.0,226.0,7,2,2.4,0,0.0,-1,0.0,0.0,0.0,0
15389,1506900929575,,,,,,,,0.03,0.04,0.99,-2.9,-0.7,-0.3,660,0,,,,,,,,,,,,,,,,,,
15409,1506900929595,,,,,,,,0.03,0.03,0.99,-2.9,-0.7,-0.4,660,0,,,,,,,,,,,,,,,,,,
15429,1506900929615,,,,,,,,0.03,0.04,0.99,-2.9,-0.8,-0.3,660,0,,,,,,,,,,,,,,,,,,
15449,1506900929635,,,,,,,,0.03,0.04,0.99,-2.9,-0.6,-0.3,660,0,,,,,,,,,,,,,,,,,,
15469,1506900929655,0,132.9,,144.0,38,143.1,,0.03,0.03,1.0,-2.9,-0.6,-0.4,660,0,0,1,0.0,35.489899,-119.546127,0.0,0.0,226.0,7,2,2.4,0,0.0,-1,0.0,0.0,0.0,0
15489,1506900929675,,,,,,,,0.03,0.04,1.0,-2.9,-0.7,-0.4,660,0,,,,,,,,,,,,,,,,,,
15509,1506900929695,,,,,,,,0.03,0.05,0.99,-2.9,-0.5,-0.3,660,0,,,,,,,,,,,,,,,,,,
15529,1506900929715,,,,,,,,0.03,0.04,1.0,-2.9,-0.4,-0.4,660,0,,,,,,,,,,,,,,,,,,
15549,1506900929735,,,,,,,,0.02,0.04,1.01,-2.9,-0.5,-0.4,660,0,,,,,,,,,,,,,,,,,,
15569,1506900929755,,,,,37,,,0.02,0.04,1.0,-2.9,-0.4,-0.4,660,0,0,1,0.0,35.489899,-119.546127,0.0,0.0,226.0,7,2,2.4,0,0.0,-1,0.0,0.0,0.0,0
15589,1506900929775,,,,,,,,0.02,0.03,1.01,-2.9,-0.4,-0.4,660,0,,,,,,,,,,,,,,,,,,
15609,1506900929795,,,,,,,,0.02,0.04,1.02,-2.9,-0.5,-0.4,660,0,,,,,,,,,,,,,,,,,,
15629,1506900929815,,,,,,,,0.01,0.04,1.01,-3.0,-0.4,-0.4,660,0,,,,,,,,,,,,,,,,,,
15649,1506900929835,,,,,,,,0.01,0.04,1.01,-2.9,-0.5,-0.4,660,0,,,,,,,,,,,,,,,,,,
15669,1506900929855,0,132.6,,143.2,36,142.3,,0.01,0.04,1.02,-2.9,-0.5,-0.4,660,0,0,1,0.0,35.489899,-119.546127,0.0,0.0,226.0,7,2,2.4,0,0.0,-1,0.0,0.0,0.0,0
15689,1506900929875,,,,,,,,0.01,0.04,1.01,-3.0,-0.5,-0.3,660,0,,,,,,,,,,,,,,,,,,
15709,1506900929895,,,,,,,,0.01,0.04,1.01,-3.0,-0.5,-0.4,660,0,,,,,,,,,,,,,,,,,,
15729,1506900929915,,,,,,,,0.0,0.04,1.01,-3.0,-0.6,-0.5,660,0,,,,,,,,,,,,,,,,,,
15749,1506900929935,,,,,,,,0.0,0.05,1.01,-3.0,-0.6,-0.4,660,0,,,,,,,,,,,,,,,,,,
15769,1506900929955,,,,,37,,,0.0,0.04,1.0,-3.0,-0.7,-0.4,660,0,0,1,0.0,35.489899,-119.546127,0.0,0.0,226.0,7,2,2.4,0,0.0,-1,0.0,0.0,0.0,0
15789,1506900929975,,,,,,,,0.0,0.04,1.01,-3.0,-0.8,-0.5,660,0,,,,,,,,,,,,,,,,,,
15809,1506900929995,,,,,,,,0.0,0.04,1.01,-3.1,-1.0,-0.3,660,0,,,,,,,,,,,,,,,,,,
15829,1506900930009,,,,,,,,0.0,0.04,1.0,-3.0,-1.0,-0.4,660,0,,,,,,,,,,,,,,,,,,
15849,1506900930029,,,,,,,,0.0,0.04,1.01,-3.1,-1.0,-0.4,660,0,,,,,,,,,,,,,,,,,,
15869,1506900930049,0,132.7,,143.3,36,142.2,,0.01,0.04,1.01,-3.0,-1.2,-0.3,660,0,0,1,0.0,35.489899,-119.546127,0.0,0.0,226.0,7,2,2.4,0,0.0,-1,0.0,0.0,0.0,0
15889,1506900930069,,,,,,,,0.0,0.04,1.0,-3.0,-1.2,-0.4,660,0,,,,,,,,,,,,,,,,,,
15909,1506900930095,,,,,,,,0.01,0.04,1.0,-3.0,-1.3,-0.4,660,0,,,,,,,,,,,,,,,,,,
15929,1506900930115,,,,,,,,0.01,0.05,1.0,-3.0,-1.3,-0.3,660,0,,,,,,,,,,,,,,,,,,
15949,1506900930135,,,,,,,,0.01,0.05,1.0,-3.0,-1.4,-0.4,660,0,,,,,,,,,,,,,,,,,,
15969,1506900930155,,,,,36,,,0.01,0.04,1.0,-3.0,-1.4,-0.4,660,0,0,1,0.0,35.489899,-119.546127,0.0,0.0,226.0,7,2,2.4,0,0.0,-1,0.0,0.0,0.0,0
15989,1506900930175,,,,,,,,0.02,0.04,1.0,-3.0,-1.5,-0.3,660,0,,,,,,,,,,,,,,,,,,
16009,1506900930197,,,,,,,,0.01,0.04,0.99,-3.0,-1.5,-0.4,660,0,,,,,,,,,,,,,,,,,,
16029,1506900930217,,,,,,,,0.02,0.05,0.99,-3.0,-1.5,-0.4,660,0,,,,,,,,,,,,,,,,,,
16049,1506900930237,,,,,,,,0.02,0.05,1.0,-3.1,-1.5,-0.3,660,0,,,,,,,,,,,,,,,,,,
16069,1506900930257,0,133.4,-0.7,144.0,37,142.1,14.5,0.02,0.05,0.99,-3.0,-1.5,-0.4,660,0,0,1,0.0,35.489899,-119.546127,0.0,0.0,226.0,7,2,2.4,0,0.0,-1,0.0,0.0,0.0,0
16089,1506900930277,,,,,,,,0.02,0.05,0.99,-3.0,-1.5,-0.4,660,0,,,,,,,,,,,,,,,,,,
16109,1506900930297,,,,,,,,0.03,0.05,0.99,-3.1,-1.6,-0.3,660,0,,,,,,,,,,,,,,,,,,
16129,1506900930317,,,,,,,,0.03,0.05,0.99,-3.0,-1.6,-0.4,660,0,,,,,,,,,,,,,,,,,,
16149,1506900930337,,,,,,,,0.03,0.05,0.99,-3.0,-1.6,-0.5,660,0,,,,,,,,,,,,,,,,,,
16169,1506900930357,,,,,36,,,0.03,0.05,0.99,-3.0,-1.7,-0.4,640,0,0,1,0.0,35.489899,-119.546127,0.0,0.0,226.0,7,2,2.4,0,0.0,-1,0.0,0.0,0.0,0
16189,1506900930377,,,,,,,,0.03,0.05,0.98,-3.0,-1.7,-0.4,640,0,,,,,,,,,,,,,,,,,,
16209,1506900930395,,,,,,,,0.03,0.05,0.99,-3.0,-1.6,-0.4,640,0,,,,,,,,,,,,,,,,,,
16229,1506900930415,,,,,,,,0.03,0.05,0.99,-3.0,-1.5,-0.3,640,0,,,,,,,,,,,,,,,,,,
16249,1506900930435,,,,,,,,0.02,0.05,0.99,-3.0,-1.7,-0.4,640,0,,,,,,,,,,,,,,,,,,
16269,1506900930455,0,132.6,,143.3,34,142.0,,0.02,0.05,1.0,-3.0,-1.5,-0.4,640,0,0,1,0.0,35.489899,-119.546127,0.0,0.0,227.9,8,2,2.0,0,0.0,-1,0.0,0.0,0.0,0
16289,1506900930475,,,,,,,,0.02,0.05,1.0,-3.1,-1.6,-0.4,640,0,,,,,,,,,,,,,,,,,,
16309,1506900930494,,,,,,,,0.01,0.05,1.0,-3.0,-1.6,-0.5,640,0,,,,,,,,,,,,,,,,,,
16329,1506900930514,,,,,,,,0.01,0.04,1.0,-3.0,-1.4,-0.5,640,0,,,,,,,,,,,,,,,,,,
16349,1506900930534,,,,,,,,0.01,0.05,1.0,-3.0,-1.4,-0.4,640,0,,,,,,,,,,,,,,,,,,
16369,1506900930554,,,,,36,,,0.01,0.04,1.0,-3.0,-1.2,-0.5,640,0,0,1,0.0,35.489899,-119.546127,0.0,0.0,227.9,8,2,2.0,0,0.0,-1,0.0,0.0,0.0,0
16389,1506900930574,,,,,,,,0.01,0.04,1.0,-3.0,-1.1,-0.4,640,0,,,,,,,,,,,,,,,,,,
16409,1506900930594,,,,,,,,0.01,0.05,0.99,-3.0,-1.1,-0.4,640,0,,,,,,,,,,,,,,,,,,
16429,1506900930614,,,,,,,,0.02,0.04,1.0,-2.9,-0.6,-0.5,640,0,,,,,,,,,,,,,,,,,,
16449,1506900930634,,,,,,,,0.02,0.05,0.99,-3.0,-0.7,-0.5,640,0,,,,,,,,,,,,,,,,,,
16469,1506900930654,0,132.9,,144.2,35,143.1,,0.02,0.05,0.99,-3.0,-0.6,-0.4,640,0,0,1,0.0,35.489899,-119.546127,0.0,0.0,227.9,8,2,2.0,0,0.0,-1,0.0,0.0,0.0,0
16489,1506900930674,,,,,,,,0.02,0.04,1.0,-2.9,-0.5,-0.5,640,0,,,,,,,,,,,,,,,,,,
16509,1506900930696,,,,,,,,0.03,0.05,0.98,-3.0,-0.6,-0.4,660,0,,,,,,,,,,,,,,,,,,
16529,1506900930716,,,,,,,,0.03,0.05,0.99,-3.0,-0.4,-0.4,640,0,,,,,,,,,,,,,,,,,,
16549,1506900930736,,,,,,,,0.04,0.05,0.99,-3.0,-0.5,-0.5,640,0,,,,,,,,,,,,,,,,,,
16569,1506900930756,,,,,36,,,0.04,0.05,0.98,-3.0,-0.5,-0.4,640,0,0,1,0.0,35.489899,-119.546127,0.0,0.0,227.9,8,2,2.0,0,0.0,-1,0.0,0.0,0.0,0
16589,1506900930776,,,,,,,,0.04,0.05,0.99,-3.0,-0.5,-0.4,640,0,,,,,,,,,,,,,,,,,,
16609,1506900930796,,,,,,,,0.04,0.05,0.99,-3.0,-0.8,-0.5,640,0,,,,,,,,,,,,,,,,,,
16629,1506900930816,,,,,,,,0.04,0.05,0.99,-3.0,-0.6,-0.4,640,0,,,,,,,,,,,,,,,,,,
16649,1506900930836,,,,,,,,0.04,0.04,0.99,-3.0,-0.8,-0.4,640,0,,,,,,,,,,,,,,,,,,
16669,1506900930856,0,132.6,,143.7,35,142.8,,0.04,0.04,0.99,-3.0,-1.0,-0.4,640,0,0,1,0.0,35.489899,-119.546127,0.0,0.0,227.9,8,2,2.0,0,0.0,-1,0.0,0.0,0.0,0
16689,1506900930876,,,,,,,,0.04,0.04,0.99,-3.0,-0.8,-0.3,660,0,,,,,,,,,,,,,,,,,,
16709,1506900930892,,,,,,,,0.04,0.04,0.98,-2.9,-1.2,-0.4,640,0,,,,,,,,,,,,,,,,,,
16729,1506900930912,,,,,,,,0.03,0.04,0.99,-3.0,-1.4,-0.4,640,0,,,,,,,,,,,,,,,,,,
16749,1506900930932,,,,,,,,0.04,0.04,0.99,-3.0,-1.2,-0.3,640,0,,,,,,,,,,,,,,,,,,
16769,1506900930952,,,,,35,,,0.03,0.04,0.98,-3.0,-1.6,-0.4,640,0,0,1,0.0,35.489899,-119.546127,0.0,0.0,227.9,8,2,2.0,0,0.0,-1,0.0,0.0,0.0,0
16789,1506900930972,,,,,,,,0.03,0.04,0.99,-3.0,-1.5,-0.4,640,0,,,,,,,,,,,,,,,,,,
16809,1506900930992,,,,,,,,0.03,0.05,0.99,-3.0,-1.4,-0.3,640,0,,,,,,,,,,,,,,,,,,
16829,1506900931008,,,,,,,,0.02,0.04,0.99,-3.0,-1.7,-0.4,640,0,,,,,,,,,,,,,,,,,,
16849,1506900931028,,,,,,,,0.02,0.05,0.99,-3.1,-1.4,-0.3,640,0,,,,,,,,,,,,,,,,,,
16869,1506900931048,0,132.9,,144.1,33,143.1,,0.02,0.05,0.99,-3.1,-1.5,-0.2,640,0,0,1,0.0,35.489899,-119.546127,0.0,0.0,227.9,8,2,2.0,0,0.0,-1,0.0,0.0,0.0,0
16889,1506900931068,,,,,,,,0.01,0.05,0.99,-3.0,-1.5,-0.3,640,0,,,,,,,,,,,,,,,,,,
16909,1506900931096,,,,,,,,0.01,0.04,1.0,-3.0,-1.2,-0.3,640,0,,,,,,,,,,,,,,,,,,
16929,1506900931116,,,,,,,,0.01,0.05,0.99,-3.0,-1.4,-0.3,640,0,,,,,,,,,,,,,,,,,,
16949,1506900931136,,,,,,,,0.0,0.04,1.0,-3.0,-1.1,-0.4,640,0,,,,,,,,,,,,,,,,,,
16969,1506900931156,,,,,34,,,0.01,0.04,1.0,-3.0,-1.0,-0.3,640,0,0,1,0.0,35.489899,-119.546127,0.0,0.0,227.9,8,2,2.0,0,0.0,-1,0.0,0.0,0.0,0
16989,1506900931176,,,,,,,,0.01,0.05,1.0,-3.0,-0.8,-0.3,640,0,,,,,,,,,,,,,,,,,,
17009,1506900931196,,,,,,,,0.01,0.04,1.0,-2.9,-0.6,-0.3,640,0,,,,,,,,,,,,,,,,,,
17029,1506900931216,,,,,,,,0.02,0.05,1.0,-3.0,-0.7,-0.3,640,0,,,,,,,,,,,,,,,,,,
17049,1506900931236,,,,,,,,0.02,0.05,1.0,-3.0,-0.5,-0.3,640,0,,,,,,,,,,,,,,,,,,
17069,1506900931256,0,132.8,-0.7,144.2,35,143.0,14.48,0.02,0.05,0.99,-2.9,-0.5,-0.4,640,0,0,1,0.0,35.489899,-119.546127,0.0,0.0,227.9,8,2,2.0,0,0.0,-1,0.0,0.0,0.0,0
17089,1506900931276,,,,,,,,0.03,0.06,0.99,-3.0,-0.6,-0.3,640,0,,,,,,,,,,,,,,,,,,
17109,1506900931296,,,,,,,,0.03,0.05,0.99,-2.9,-0.6,-0.3,640,0,,,,,,,,,,,,,,,,,,
17129,1506900931316,,,,,,,,0.03,0.05,0.99,-2.9,-0.8,-0.3,640,0,,,,,,,,,,,,,,,,,,
17149,1506900931336,,,,,,,,0.03,0.05,0.99,-3.0,-0.8,-0.2,640,0,,,,,,,,,,,,,,,,,,
17169,1506900931356,,,,,34,,,0.03,0.05,0.99,-2.9,-1.0,-0.3,640,0,0,1,0.0,35.489899,-119.546127,0.0,0.0,227.9,8,2,2.0,0,0.0,-1,0.0,0.0,0.0,0
17189,1506900931376,,,,,,,,0.03,0.05,1.0,-3.0,-1.1,-0.4,640,0,,,,,,,,,,,,,,,,,,
17209,1506900931396,,,,,,,,0.03,0.05,1.0,-3.0,-1.1,-0.3,640,0,,,,,,,,,,,,,,,,,,
17229,1506900931416,,,,,,,,0.02,0.05,0.99,-2.9,-1.4,-0.4,660,0,,,,,,,,,,,,,,,,,,
17249,1506900931436,,,,,,,,0.02,0.04,0.99,-3.0,-1.3,-0.4,660,0,,,,,,,,,,,,,,,,,,
17269,1506900931456,0,133.4,,144.0,35,142.0,,0.02,0.05,1.0,-3.0,-1.4,-0.3,640,0,0,1,0.0,35.489899,-119.546127,0.0,0.0,227.9,8,2,2.0,0,0.0,-1,0.0,0.0,0.0,0
17289,1506900931476,,,,,,,,0.01,0.05,0.99,-3.0,-1.4,-0.3,640,0,,,,,,,,,,,,,,,,,,
17309,1506900931495,,,,,,,,0.01,0.04,1.0,-3.1,-1.3,-0.3,660,0,,,,,,,,,,,,,,,,,,
17329,1506900931515,,,,,,,,0.01,0.05,1.0,-3.1,-1.4,-0.3,660,0,,,,,,,,,,,,,,,,,,
17349,1506900931535,,,,,,,,0.0,0.05,1.0,-3.0,-1.4,-0.4,660,0,,,,,,,,,,,,,,,,,,
17369,1506900931555,,,,,35,,,0.0,0.04,1.01,-3.0,-1.4,-0.4,660,0,0,1,0.0,35.489899,-119.546127,0.0,0.0,227.9,8,2,2.0,0,0.0,-1,0.0,0.0,0.0,0
17389,1506900931575,,,,,,,,0.0,0.05,1.0,-3.0,-1.4,-0.3,660,0,,,,,,,,,,,,,,,,,,
17409,1506900931595,,,,,,,,-0.0,0.04,1.0,-3.0,-1.4,-0.4,680,0,,,,,,,,,,,,,,,,,,
17429,1506900931615,,,,,,,,-0.0,0.04,1.01,-3.0,-1.4,-0.4,680,0,,,,,,,,,,,,,,,,,,
17449,1506900931635,,,,,,,,-0.0,0.05,1.01,-3.1,-1.4,-0.3,660,0,,,,,,,,,,,,,,,,,,
17469,1506900931655,0,133.4,,144.4,36,143.0,,-0.0,0.05,1.0,-3.0,-1.3,-0.4,680,0,0,1,0.0,35.489899,-119.546127,0.0,0.0,227.9,8,2,2.0,0,0.0,-1,0.0,0.0,0.0,0
17489,1506900931675,,,,,,,,0.0,0.04,1.0,-3.1,-1.3,-0.4,680,0,,,,,,,,,,,,,,,,,,
17509,1506900931695,,,,,,,,0.0,0.05,1.01,-3.1,-1.4,-0.3,680,0,,,,,,,,,,,,,,,,,,
17529,1506900931715,,,,,,,,-0.0,0.05,1.0,-3.0,-1.4,-0.4,680,0,,,,,,,,,,,,,,,,,,
17549,1506900931735,,,,,,,,0.0,0.04,1.0,-3.0,-1.4,-0.4,680,0,,,,,,,,,,,,,,,,,,
17569,1506900931755,,,,,36,,,0.01,0.05,1.0,-3.1,-1.4,-0.3,680,0,0,1,0.0,35.489899,-119.546127,0.0,0.0,227.9,8,2,2.0,0,0.0,-1,0.0,0.0,0.0,0
17589,1506900931775,,,,,,,,0.01,0.04,1.0,-3.0,-1.3,-0.3,680,0,,,,,,,,,,,,,,,,,,
17609,1506900931795,,,,,,,,0.01,0.05,1.0,-3.0,-1.3,-0.3,680,0,,,,,,,,,,,,,,,,,,
17629,1506900931815,,,,,,,,0.02,0.05,1.0,-3.0,-1.2,-0.3,680,0,,,,,,,,,,,,,,,,,,
17649,1506900931835,,,,,,,,0.02,0.05,1.0,-3.0,-1.2,-0.3,680,0,,,,,,,,,,,,,,,,,,
17669,1506900931855,0,133.4,,144.1,37,141.9,,0.02,0.05,1.0,-3.0,-0.9,-0.3,680,0,0,1,0.0,35.489899,-119.546127,0.0,0.0,227.9,8,2,2.0,0,0.0,-1,0.0,0.0,0.0,0
17689,1506900931875,,,,,,,,0.02,0.05,1.0,-3.0,-0.8,-0.3,680,0,,,,,,,,,,,,,,,,,,
17709,1506900931895,,,,,,,,0.02,0.05,1.01,-3.0,-0.9,-0.3,680,0,,,,,,,,,,,,,,,,,,
17729,1506900931915,,,,,,,,0.01,0.04,1.01,-3.0,-0.8,-0.3,680,0,,,,,,,,,,,,,,,,,,
17749,1506900931935,,,,,,,,0.01,0.05,1.01,-3.0,-0.6,-0.3,680,0,,,,,,,,,,,,,,,,,,
17769,1506900931955,,,,,37,,,0.01,0.05,1.0,-3.0,-0.7,-0.2,680,0,0,1,0.0,35.489899,-119.546127,0.0,0.0,227.9,8,2,2.0,0,0.0,-1,0.0,0.0,0.0,0
17789,1506900931975,,,,,,,,0.01,0.04,1.0,-3.0,-1.0,-0.3,680,0,,,,,,,,,,,,,,,,,,
17809,1506900931995,,,,,,,,0.0,0.05,1.01,-3.0,-0.9,-0.3,680,0,,,,,,,,,,,,,,,,,,
17829,1506900932007,,,,,,,,0.01,0.05,1.0,-3.1,-0.9,-0.2,660,0,,,,,,,,,,,,,,,,,,
17849,1506900932027,,,,,,,,0.01,0.05,0.99,-3.1,-1.2,-0.3,660,0,,,,,,,,,,,,,,,,,,
17869,1506900932047,0,133.5,,144.5,36,142.9,,0.01,0.04,1.0,-3.1,-1.3,-0.3,660,0,0,1,0.0,35.489899,-119.546127,0.0,0.0,227.9,8,2,2.0,0,0.0,-1,0.0,0.0,0.0,0
17889,1506900932067,,,,,,,,0.01,0.05,0.99,-3.1,-1.0,-0.2,660,0,,,,,,,,,,,,,,,,,,
17909,1506900932095,,,,,,,,0.02,0.05,0.99,-3.0,-1.2,-0.3,660,0,,,,,,,,,,,,,,,,,,
17929,1506900932115,,,,,,,,0.02,0.04,0.99,-3.0,-1.4,-0.3,660,0,,,,,,,,,,,,,,,,,,
17949,1506900932135,,,,,,,,0.02,0.05,0.99,-3.0,-1.1,-0.2,660,0,,,,,,,,,,,,,,,,,,
17969,1506900932155,,,,,37,,,0.03,0.05,0.99,-3.0,-1.2,-0.2,660,0,0,1,0.0,35.489899,-119.546127,0.0,0.0,227.9,8,2,2.0,0,0.0,-1,0.0,0.0,0.0,0
17989,1506900932175,,,,,,,,0.03,0.04,1.0,-3.0,-1.5,-0.3,660,0,,,,,,,,,,,,,,,,,,
18009,1506900932195,,,,,,,,0.03,0.05,0.99,-3.0,-1.2,-0.2,660,0,,,,,,,,,,,,,,,,,,
18029,1506900932215,,,,,,,,0.03,0.05,0.98,-2.9,-1.3,-0.3,660,0,,,,,,,,,,,,,,,,,,
18049,1506900932235,,,,,,,,0.03,0.04,0.99,-2.9,-1.5,-0.3,660,0,,,,,,,,,,,,,,,,,,
18069,1506900932255,0,132.5,-0.4,143.7,36,142.7,14.51,0.03,0.05,0.99,-3.0,-1.2,-0.2,660,0,0,1,0.0,35.489899,-119.546127,0.0,0.0,227.9,8,2,2.0,0,0.0,-1,0.0,0.0,0.0,0
18089,1506900932275,,,,,,,,0.03,0.04,0.98,-2.9,-1.4,-0.3,660,0,,,,,,,,,,,,,,,,,,
18109,1506900932295,,,,,,,,0.03,0.04,0.99,-2.9,-1.5,-0.3,660,0,,,,,,,,,,,,,,,,,,
18129,1506900932315,,,,,,,,0.03,0.04,0.99,-3.0,-1.2,-0.2,640,0,,,,,,,,,,,,,,,,,,
18149,1506900932335,,,,,,,,0.03,0.04,0.98,-2.9,-1.5,-0.3,640,0,,,,,,,,,,,,,,,,,,
18169,1506900932355,,,,,34,,,0.02,0.04,0.98,-2.9,-1.6,-0.3,640,0,0,1,0.0,35.489899,-119.546127,0.0,0.0,227.9,8,2,2.0,0,0.0,-1,0.0,0.0,0.0,0
18189,1506900932375,,,,,,,,0.03,0.04,0.99,-3.0,-1.4,-0.2,640,0,,,,,,,,,,,,,,,,,,
18209,1506900932397,,,,,,,,0.02,0.04,0.98,-2.9,-1.7,-0.3,640,0,,,,,,,,,,,,,,,,,,
18229,1506900932417,,,,,,,,0.02,0.04,0.99,-3.0,-1.5,-0.3,640,0,,,,,,,,,,,,,,,,,,
18249,1506900932437,,,,,,,,0.02,0.04,0.99,-3.0,-1.4,-0.2,640,0,,,,,,,,,,,,,,,,,,
18269,1506900932457,0,133.4,,144.5,36,143.1,,0.01,0.04,0.99,-3.0,-1.6,-0.3,640,0,0,1,0.0,35.489899,-119.546127,0.0,0.0,227.9,8,2,2.0,0,0.0,-1,0.0,0.0,0.0,0
18289,1506900932477,,,,,,,,0.01,0.04,1.0,-3.0,-1.4,-0.3,660,0,,,,,,,,,,,,,,,,,,
18309,1506900932494,,,,,,,,0.01,0.05,1.0,-3.0,-1.4,-0.2,660,0,,,,,,,,,,,,,,,,,,
18329,1506900932514,,,,,,,,0.01,0.04,1.0,-3.0,-1.4,-0.3,660,0,,,,,,,,,,,,,,,,,,
18349,1506900932534,,,,,,,,0.01,0.04,1.01,-3.0,-1.1,-0.3,640,0,,,,,,,,,,,,,,,,,,
18369,1506900932554,,,,,34,,,0.01,0.05,1.0,-3.0,-1.3,-0.3,640,0,0,1,0.0,35.489899,-119.546127,0.0,0.0,227.9,8,2,2.0,0,0.0,-1,0.0,0.0,0.0,0
18389,1506900932574,,,,,,,,0.0,0.04,1.01,-3.0,-1.2,-0.4,640,0,,,,,,,,,,,,,,,,,,
18409,1506900932594,,,,,,,,0.0,0.04,1.01,-3.0,-0.9,-0.4,640,0,,,,,,,,,,,,,,,,,,
18429,1506900932614,,,,,,,,0.01,0.05,1.0,-3.0,-1.0,-0.3,660,0,,,,,,,,,,,,,,,,,,
18449,1506900932634,,,,,,,,0.0,0.03,1.01,-3.0,-0.8,-0.4,660,0,,,,,,,,,,,,,,,,,,
18469,1506900932654,0,133.5,,144.5,35,142.9,,0.01,0.04,1.0,-3.0,-0.6,-0.3,660,0,0,1,0.0,35.489899,-119.546127,0.0,0.0,227.9,8,2,2.0,0,0.0,-1,0.0,0.0,0.0,0
18489,1506900932674,,,,,,,,0.01,0.05,1.0,-3.0,-0.7,-0.3,660,0,,,,,,,,,,,,,,,,,,
18509,1506900932694,,,,,,,,0.01,0.04,1.01,-3.0,-0.4,-0.4,660,0,,,,,,,,,,,,,,,,,,
18529,1506900932714,,,,,,,,0.01,0.04,1.0,-3.0,-0.3,-0.3,640,0,,,,,,,,,,,,,,,,,,
18549,1506900932734,,,,,,,,0.01,0.05,1.0,-3.0,-0.4,-0.4,660,0,,,,,,,,,,,,,,,,,,
18569,1506900932754,,,,,36,,,0.01,0.03,1.01,-3.0,-0.2,-0.4,660,0,0,1,0.0,35.489899,-119.546127,0.0,0.0,227.9,8,2,2.0,0,0.0,-1,0.0,0.0,0.0,0
18589,1506900932774,,,,,,,,0.01,0.04,1.0,-3.0,-0.2,-0.4,660,0,,,,,,,,,,,,,,,,,,
18609,1506900932794,,,,,,,,0.01,0.04,1.0,-3.0,-0.2,-0.3,660,0,,,,,,,,,,,,,,,,,,
18629,1506900932814,,,,,,,,0.01,0.03,1.01,-3.0,-0.1,-0.4,660,0,,,,,,,,,,,,,,,,,,
18649,1506900932834,,,,,,,,0.01,0.04,1.0,-3.0,-0.1,-0.3,660,0,,,,,,,,,,,,,,,,,,
18669,1506900932854,0,133.4,,144.6,36,142.7,,0.02,0.05,1.0,-3.0,-0.1,-0.3,660,0,0,1,0.0,35.489899,-119.546127,0.0,0.0,227.9,8,2,2.0,0,0.0,-1,0.0,0.0,0.0,0
18689,1506900932874,,,,,,,,0.02,0.04,1.01,-3.0,-0.0,-0.4,660,0,,,,,,,,,,,,,,,,,,
18709,1506900932892,,,,,,,,0.02,0.04,1.0,-3.0,0.0,-0.4,660,0,,,,,,,,,,,,,,,,,,
18729,1506900932912,,,,,,,,0.02,0.05,1.0,-3.1,-0.0,-0.3,660,0,,,,,,,,,,,,,,,,,,
18749,1506900932932,,,,,,,,0.02,0.03,1.01,-3.0,0.0,-0.4,660,0,,,,,,,,,,,,,,,,,,
18769,1506900932952,,,,,36,,,0.03,0.04,1.0,-3.0,0.0,-0.3,660,0,0,1,0.0,35.489899,-119.546127,0.0,0.0,227.9,8,2,2.0,0,0.0,-1,0.0,0.0,0.0,0
18789,1506900932972,,,,,,,,0.03,0.04,1.0,-3.0,-0.1,-0.3,660,0,,,,,,,,,,,,,,,,,,
18809,1506900932992,,,,,,,,0.02,0.03,1.01,-3.0,0.0,-0.4,660,0,,,,,,,,,,,,,,,,,,
18829,1506900933006,,,,,,,,0.03,0.04,1.0,-3.0,0.0,-0.3,660,0,,,,,,,,,,,,,,,,,,
18849,1506900933026,,,,,,,,0.03,0.05,1.0,-3.0,-0.1,-0.3,660,0,,,,,,,,,,,,,,,,,,
18869,1506900933046,0,132.9,,143.7,36,141.8,,0.02,0.04,1.01,-2.9,0.0,-0.3,660,0,0,1,0.0,35.489899,-119.546127,0.0,0.0,227.9,8,2,2.0,0,0.0,-1,0.0,0.0,0.0,0
18889,1506900933066,,,,,,,,0.03,0.04,0.99,-3.0,0.0,-0.3,660,0,,,,,,,,,,,,,,,,,,
18909,1506900933094,,,,,,,,0.03,0.04,1.0,-3.0,-0.1,-0.3,660,0,,,,,,,,,,,,,,,,,,
18929,1506900933114,,,,,,,,0.02,0.03,1.01,-2.9,-0.0,-0.3,660,0,,,,,,,,,,,,,,,,,,
18949,1506900933134,,,,,,,,0.03,0.04,0.99,-3.0,0.0,-0.3,660,0,,,,,,,,,,,,,,,,,,
18969,1506900933154,,,,,36,,,0.03,0.04,1.0,-3.0,-0.2,-0.3,660,0,0,1,0.0,35.489899,-119.546127,0.0,0.0,227.9,8,2,2.0,0,0.0,-1,0.0,0.0,0.0,0
18989,1506900933174,,,,,,,,0.03,0.03,1.01,-2.9,-0.1,-0.4,660,0,,,,,,,,,,,,,,,,,,
19009,1506900933194,,,,,,,,0.03,0.04,1.0,-3.0,-0.1,-0.3,660,0,,,,,,,,,,,,,,,,,,
19029,1506900933214,,,,,,,,0.03,0.04,1.0,-3.0,-0.2,-0.3,660,0,,,,,,,,,,,,,,,,,,
19049,1506900933234,,,,,,,,0.03,0.04,1.0,-2.9,-0.1,-0.3,660,0,,,,,,,,,,,,,,,,,,
19069,1506900933254,0,133.4,-0.5,144.3,35,142.0,14.55,0.04,0.05,1.0,-3.0,-0.1,-0.3,660,0,0,1,0.0,35.489899,-119.546127,0.0,0.0,227.9,8,2,2.0,0,0.0,-1,0.0,0.0,0.0,0
19089,1506900933274,,,,,,,,0.04,0.05,1.0,-3.0,-0.2,-0.3,660,0,,,,,,,,,,,,,,,,,,
19109,1506900933296,,,,,,,,0.04,0.04,1.0,-2.9,-0.1,-0.4,660,0,,,,,,,,,,,,,,,,,,
19129,1506900933316,,,,,,,,0.04,0.05,0.99,-3.0,-0.2,-0.3,660,0,,,,,,,,,,,,,,,,,,
19149,1506900933336,,,,,,,,0.04,0.05,0.99,-3.0,-0.3,-0.3,660,0,,,,,,,,,,,,,,,,,,
19169,1506900933356,,,,,37,,,0.04,0.04,1.0,-2.9,-0.2,-0.3,660,0,0,1,0.0,35.489899,-119.546127,0.0,0.0,227.9,8,2,2.0,0,0.0,-1,0.0,0.0,0.0,0
19189,1506900933376,,,,,,,,0.04,0.05,1.0,-3.0,-0.2,-0.3,660,0,,,,,,,,,,,,,,,,,,
19209,1506900933396,,,,,,,,0.04,0.05,1.0,-3.0,-0.3,-0.3,660,0,,,,,,,,,,,,,,,,,,
19229,1506900933416,,,,,,,,0.04,0.04,1.0,-2.9,-0.2,-0.3,660,0,,,,,,,,,,,,,,,,,,
19249,1506900933436,,,,,,,,0.04,0.05,0.99,-3.0,-0.1,-0.3,660,0,,,,,,,,,,,,,,,,,,
19269,1506900933456,0,133.6,,144.5,37,142.9,,0.04,0.05,0.99,-3.0,-0.3,-0.3,660,0,0,1,0.0,35.489899,-119.546127,0.0,0.0,227.9,8,2,2.0,0,0.0,-1,0.0,0.0,0.0,0
19289,1506900933476,,,,,,,,0.04,0.04,1.0,-2.9,-0.2,-0.4,660,0,,,,,,,,,,,,,,,,,,
19309,1506900933495,,,,,,,,0.04,0.04,0.99,-2.9,-0.2,-0.3,660,0,,,,,,,,,,,,,,,,,,
19329,1506900933515,,,,,,,,0.04,0.05,1.0,-2.9,-0.3,-0.3,660,0,,,,,,,,,,,,,,,,,,
19349,1506900933535,,,,,,,,0.03,0.03,1.0,-2.9,-0.2,-0.3,660,0,,,,,,,,,,,,,,,,,,
19369,1506900933555,,,,,36,,,0.03,0.04,1.0,-3.0,-0.1,-0.3,660,0,0,1,0.0,35.489899,-119.546127,0.0,0.0,227.9,8,2,2.0,0,0.0,-1,0.0,0.0,0.0,0
19389,1506900933575,,,,,,,,0.03,0.05,1.0,-3.0,-0.3,-0.2,660,0,,,,,,,,,,,,,,,,,,
19409,1506900933595,,,,,,,,0.03,0.03,1.01,-3.0,-0.2,-0.3,660,0,,,,,,,,,,,,,,,,,,
19429,1506900933615,,,,,,,,0.02,0.03,0.99,-3.0,-0.1,-0.3,660,0,,,,,,,,,,,,,,,,,,
19449,1506900933635,,,,,,,,0.02,0.04,1.0,-3.0,-0.4,-0.3,660,0,,,,,,,,,,,,,,,,,,
19469,1506900933655,0,133.4,,144.3,36,143.0,,0.02,0.02,1.0,-2.9,-0.3,-0.4,660,0,0,1,0.0,35.489899,-119.546127,0.0,0.0,227.9,8,2,2.0,0,0.0,-1,0.0,0.0,0.0,0
19489,1506900933675,,,,,,,,0.02,0.03,1.0,-3.0,-0.2,-0.3,660,0,,,,,,,,,,,,,,,,,,
19509,1506900933695,,,,,,,,0.02,0.04,1.0,-3.0,-0.4,-0.2,660,0,,,,,,,,,,,,,,,,,,
19529,1506900933715,,,,,,,,0.01,0.02,1.0,-3.0,-0.5,-0.4,660,0,,,,,,,,,,,,,,,,,,
19549,1506900933735,,,,,,,,0.01,0.03,1.0,-3.0,-0.3,-0.3,660,0,,,,,,,,,,,,,,,,,,
19569,1506900933755,,,,,36,,,0.01,0.04,1.0,-3.0,-0.5,-0.2,660,0,0,1,0.0,35.489899,-119.546127,0.0,0.0,227.9,8,2,2.0,0,0.0,-1,0.0,0.0,0.0,0
19589,1506900933775,,,,,,,,0.0,0.03,1.01,-3.0,-0.5,-0.3,660,0,,,,,,,,,,,,,,,,,,
19609,1506900933795,,,,,,,,-0.0,0.03,1.0,-3.0,-0.4,-0.3,660,0,,,,,,,,,,,,,,,,,,
19629,1506900933815,,,,,,,,0.01,0.04,1.0,-3.0,-0.6,-0.2,660,2,,,,,,,,,,,,,,,,,,
19649,1506900933835,,,,,,,,-0.0,0.03,1.0,-3.0,-0.7,-0.3,660,2,,,,,,,,,,,,,,,,,,
19669,1506900933855,0,133.3,,144.0,36,142.0,,-0.01,0.03,1.0,-3.0,-0.5,-0.3,660,28,0,1,0.0,35.489899,-119.546127,0.0,0.0,227.9,8,2,2.0,0,0.0,-1,0.0,0.0,0.0,0
19689,1506900933875,,,,,,,,-0.0,0.04,1.0,-3.0,-0.7,-0.2,640,28,,,,,,,,,,,,,,,,,,
19709,1506900933895,,,,,,,,-0.02,0.03,1.01,-3.0,-0.8,-0.4,640,28,,,,,,,,,,,,,,,,,,
19729,1506900933915,,,,,,,,-0.02,0.04,1.0,-3.1,-0.6,-0.3,640,28,,,,,,,,,,,,,,,,,,
19749,1506900933935,,,,,,,,-0.01,0.04,1.0,-3.0,-0.8,-0.3,640,28,,,,,,,,,,,,,,,,,,
19769,1506900933955,,,,,35,,,-0.02,0.03,1.01,-3.0,-0.6,-0.4,640,22,0,1,0.0,35.489899,-119.546127,0.0,0.0,227.9,8,2,2.0,0,0.0,-1,0.0,0.0,0.0,0
19789,1506900933975,,,,,,,,-0.01,0.03,1.0,-3.0,-0.5,-0.3,640,22,,,,,,,,,,,,,,,,,,
19809,1506900933995,,,,,,,,-0.01,0.04,0.99,-2.9,-0.6,-0.3,640,22,,,,,,,,,,,,,,,,,,
19829,1506900934009,,,,,,,,-0.01,0.03,1.01,-2.9,-0.5,-0.4,640,22,,,,,,,,,,,,,,,,,,
19849,1506900934029,,,,,,,,-0.0,0.04,1.0,-2.9,-0.5,-0.3,640,22,,,,,,,,,,,,,,,,,,
19869,1506900934049,0,133.4,,144.5,35,142.5,,0.0,0.04,1.0,-2.9,-0.4,-0.3,640,22,0,1,0.0,35.489899,-119.546127,0.0,0.0,227.9,8,2,2.0,0,0.0,-1,0.0,0.0,0.0,0
19889,1506900934069,,,,,,,,0.0,0.04,1.0,-2.8,-0.5,-0.4,640,22,,,,,,,,,,,,,,,,,,
19909,1506900934097,,,,,,,,0.01,0.05,0.99,-2.9,-0.5,-0.3,640,22,,,,,,,,,,,,,,,,,,
19929,1506900934117,,,,,,,,0.01,0.04,0.99,-2.8,-0.5,-0.4,620,22,,,,,,,,,,,,,,,,,,
19949,1506900934137,,,,,,,,0.01,0.05,0.99,-2.8,-0.7,-0.4,620,22,,,,,,,,,,,,,,,,,,
19969,1506900934157,,,,,34,,,0.01,0.04,0.99,-2.8,-0.7,-0.3,640,22,0,1,0.0,35.489899,-119.546127,0.0,0.0,227.9,8,2,2.0,0,0.0,-1,0.0,0.0,0.0,0
19989,1506900934177,,,,,,,,0.01,0.04,0.98,-2.8,-0.9,-0.4,640,22,,,,,,,,,,,,,,,,,,
20009,1506900934197,,,,,,,,0.01,0.04,0.99,-2.9,-0.8,-0.3,620,22,,,,,,,,,,,,,,,,,,
20029,1506900934217,,,,,,,,0.01,0.04,0.99,-2.8,-0.9,-0.3,620,22,,,,,,,,,,,,,,,,,,
20049,1506900934237,,,,,,,,-0.0,0.04,1.0,-2.8,-0.8,-0.3,620,22,,,,,,,,,,,,,,,,,,
20069,1506900934257,0,133.5,-0.3,144.6,35,142.7,14.46,0.01,0.04,1.0,-2.9,-0.7,-0.3,620,22,0,1,0.0,35.489899,-119.546127,0.0,0.0,227.9,8,2,2.0,0,0.0,-1,0.0,0.0,0.0,0
20089,1506900934277,,,,,,,,0.0,0.04,1.0,-2.8,-0.7,-0.3,640,22,,,,,,,,,,,,,,,,,,
20109,1506900934297,,,,,,,,0.01,0.03,1.01,-2.8,-0.7,-0.4,640,22,,,,,,,,,,,,,,,,,,
20129,1506900934317,,,,,,,,0.01,0.05,1.0,-2.8,-0.6,-0.2,620,22,,,,,,,,,,,,,,,,,,
20149,1506900934337,,,,,,,,0.02,0.04,1.0,-2.8,-0.6,-0.3,640,22,,,,,,,,,,,,,,,,,,
20169,1506900934357,,,,,35,,,0.02,0.05,1.0,-2.8,-0.9,-0.3,640,22,0,1,0.0,35.489899,-119.546127,0.0,0.0,227.9,8,2,2.0,0,0.0,-1,0.0,0.0,0.0,0
20189,1506900934377,,,,,,,,0.03,0.05,0.99,-2.8,-0.7,-0.3,640,22,,,,,,,,,,,,,,,,,,
20209,1506900934397,,,,,,,,0.02,0.04,0.99,-2.8,-1.1,-0.4,640,22,,,,,,,,,,,,,,,,,,
20229,1506900934417,,,,,,,,0.01,0.04,1.0,-2.8,-0.9,-0.4,640,22,,,,,,,,,,,,,,,,,,
20249,1506900934437,,,,,,,,0.02,0.05,0.99,-2.8,-1.1,-0.3,640,22,,,,,,,,,,,,,,,,,,
20269,1506900934457,0,132.7,,143.6,33,141.8,,0.01,0.04,1.0,-2.8,-1.3,-0.4,640,22,0,1,0.0,35.489899,-119.546127,0.0,0.0,227.9,8,2,2.0,0,0.0,-1,0.0,0.0,0.0,0
20289,1506900934477,,,,,,,,0.01,0.04,1.0,-2.8,-0.9,-0.3,640,22,,,,,,,,,,,,,,,,,,
20309,1506900934496,,,,,,,,0.01,0.05,1.0,-2.8,-1.2,-0.3,640,22,,,,,,,,,,,,,,,,,,
20329,1506900934516,,,,,,,,-0.0,0.03,1.01,-2.8,-0.9,-0.3,640,22,,,,,,,,,,,,,,,,,,
20349,1506900934536,,,,,,,,0.0,0.04,1.0,-2.8,-0.7,-0.3,640,22,,,,,,,,,,,,,,,,,,
20369,1506900934556,,,,,36,,,0.0,0.04,0.99,-2.8,-0.9,-0.3,640,22,0,1,0.0,35.489899,-119.546127,0.0,0.0,227.9,8,2,2.0,0,0.0,-1,0.0,0.0,0.0,0
20389,1506900934576,,,,,,,,0.0,0.03,1.01,-2.7,-0.6,-0.4,640,22,,,,,,,,,,,,,,,,,,
20409,1506900934596,,,,,,,,0.01,0.04,0.99,-2.8,-0.6,-0.3,640,22,,,,,,,,,,,,,,,,,,
20429,1506900934616,,,,,,,,0.01,0.05,1.0,-2.8,-0.5,-0.3,640,22,,,,,,,,,,,,,,,,,,
20449,1506900934636,,,,,,,,0.01,0.04,1.0,-2.7,-0.3,-0.3,640,22,,,,,,,,,,,,,,,,,,
20469,1506900934656,0,133.5,,144.7,35,142.7,,0.02,0.05,0.99,-2.8,-0.3,-0.3,660,22,0,1,0.0,35.489899,-119.546127,0.0,0.0,227.9,8,2,2.0,0,0.0,-1,0.0,0.0,0.0,0
20489,1506900934676,,,,,,,,0.03,0.05,0.99,-2.7,-0.2,-0.2,660,22,,,,,,,,,,,,,,,,,,
20509,1506900934696,,,,,,,,0.02,0.05,1.0,-2.7,-0.2,-0.3,660,22,,,,,,,,,,,,,,,,,,
20529,1506900934716,,,,,,,,0.03,0.05,0.99,-2.7,-0.2,-0.3,660,22,,,,,,,,,,,,,,,,,,
20549,1506900934736,,,,,,,,0.03,0.05,1.0,-2.7,-0.2,-0.3,660,22,,,,,,,,,,,,,,,,,,
20569,1506900934756,,,,,35,,,0.03,0.04,1.0,-2.6,-0.3,-0.3,660,22,0,1,0.0,35.489899,-119.546127,0.0,0.0,227.9,8,2,2.0,0,0.0,-1,0.0,0.0,0.0,0
20589,1506900934776,,,,,,,,0.04,0.05,0.99,-2.7,-0.3,-0.2,660,1538462,,,,,,,,,,,,,,,,,,
20609,1506900934796,,,,,,,,0.04,0.05,1.0,-2.7,-0.3,-0.3,660,0,,,,,,,,,,,,,,,,,,
20629,1506900934816,,,,,,,,0.04,0.05,1.0,-2.6,-0.5,-0.3,660,0,,,,,,,,,,,,,,,,,,
20649,1506900934836,,,,,,,,0.04,0.05,0.99,-2.7,-0.5,-0.2,660,0,,,,,,,,,,,,,,,,,,
20669,1506900934856,0,133.4,,144.3,36,142.0,,0.04,0.05,1.0,-2.6,-0.6,-0.3,640,0,0,1,0.0,35.489899,-119.546127,0.0,0.0,227.9,8,2,2.0,0,0.0,-1,0.0,0.0,0.0,0
20689,1506900934876,,,,,,,,0.04,0.05,0.99,-2.6,-0.6,-0.3,640,0,,,,,,,,,,,,,,,,,,
20709,1506900934896,,,,,,,,0.04,0.05,0.99,-2.7,-0.7,-0.3,660,0,,,,,,,,,,,,,,,,,,
20729,1506900934916,,,,,,,,0.04,0.05,0.98,-2.7,-0.7,-0.3,640,0,,,,,,,,,,,,,,,,,,
20749,1506900934936,,,,,,,,0.04,0.05,0.99,-2.7,-0.9,-0.3,640,0,,,,,,,,,,,,,,,,,,
20769,1506900934956,,,,,35,,,0.04,0.05,0.98,-2.7,-0.8,-0.2,640,0,0,1,0.0,35.489899,-119.546127,0.0,0.0,227.9,8,2,2.0,0,0.0,-1,0.0,0.0,0.0,0
20789,1506900934976,,,,,,,,0.04,0.04,0.98,-2.6,-1.2,-0.2,640,0,,,,,,,,,,,,,,,,,,
20809,1506900934996,,,,,,,,0.04,0.04,0.99,-2.6,-1.2,-0.3,640,0,,,,,,,,,,,,,,,,,,
20829,1506900935010,,,,,,,,0.04,0.05,0.99,-2.7,-1.2,-0.2,660,0,,,,,,,,,,,,,,,,,,
20849,1506900935030,,,,,,,,0.03,0.04,0.98,-2.6,-1.5,-0.3,640,0,,,,,,,,,,,,,,,,,,
20869,1506900935050,0,133.3,,144.7,35,143.0,,0.02,0.04,1.0,-2.6,-1.5,-0.3,640,0,0,1,0.0,35.489899,-119.546127,0.0,0.0,227.9,8,2,2.0,0,0.0,-1,0.0,0.0,0.0,0
20889,1506900935070,,,,,,,,0.02,0.04,0.99,-2.6,-1.4,-0.1,660,0,,,,,,,,,,,,,,,,,,
20909,1506900935096,,,,,,,,0.01,0.05,0.99,-2.6,-1.6,-0.2,640,0,,,,,,,,,,,,,,,,,,
20929,1506900935116,,,,,,,,0.01,0.04,1.0,-2.6,-1.5,-0.2,640,0,,,,,,,,,,,,,,,,,,
20949,1506900935136,,,,,,,,0.02,0.05,1.0,-2.7,-1.5,-0.1,640,0,,,,,,,,,,,,,,,,,,
20969,1506900935156,,,,,35,,,0.0,0.05,0.99,-2.6,-1.7,-0.2,640,0,0,1,0.0,35.489899,-119.546127,0.0,0.0,227.9,8,2,2.0,0,0.0,-1,0.0,0.0,0.0,0
20989,1506900935176,,,,,,,,0.0,0.05,1.0,-2.7,-1.4,-0.2,640,0,,,,,,,,,,,,,,,,,,
21009,1506900935198,,,,,,,,0.01,0.05,1.01,-2.6,-1.5,-0.2,640,0,,,,,,,,,,,,,,,,,,
21029,1506900935218,,,,,,,,-0.0,0.05,1.0,-2.6,-1.6,-0.3,640,0,,,,,,,,,,,,,,,,,,
21049,1506900935238,,,,,,,,0.0,0.04,1.01,-2.6,-1.3,-0.2,640,0,,,,,,,,,,,,,,,,,,
21069,1506900935258,0,132.5,-0.5,143.8,34,142.3,14.55,0.0,0.05,1.0,-2.6,-1.3,-0.2,640,0,0,1,0.0,35.489899,-119.546127,0.0,0.0,227.9,8,2,2.0,0,0.0,-1,0.0,0.0,0.0,0
21089,1506900935278,,,,,,,,-0.01,0.05,1.0,-2.6,-1.1,-0.3,640,0,,,,,,,,,,,,,,,,,,
21109,1506900935298,,,,,,,,-0.0,0.05,1.01,-2.6,-1.0,-0.2,640,0,,,,,,,,,,,,,,,,,,
21129,1506900935318,,,,,,,,-0.0,0.06,1.0,-2.5,-1.0,-0.3,640,0,,,,,,,,,,,,,,,,,,
21149,1506900935338,,,,,,,,-0.0,0.04,1.0,-2.5,-0.6,-0.3,640,0,,,,,,,,,,,,,,,,,,
21169,1506900935358,,,,,34,,,0.0,0.05,1.0,-2.5,-0.7,-0.3,640,0,0,1,0.0,35.489899,-119.546127,0.0,0.0,227.9,8,2,2.0,0,0.0,-1,0.0,0.0,0.0,0
21189,1506900935378,,,,,,,,0.01,0.05,1.0,-2.5,-0.6,-0.3,640,0,,,,,,,,,,,,,,,,,,
21209,1506900935398,,,,,,,,0.01,0.04,1.01,-2.5,-0.3,-0.4,640,0,,,,,,,,,,,,,,,,,,
21229,1506900935418,,,,,,,,0.02,0.05,0.99,-2.5,-0.4,-0.3,640,0,,,,,,,,,,,,,,,,,,
21249,1506900935438,,,,,,,,0.03,0.05,1.0,-2.5,-0.2,-0.2,640,0,,,,,,,,,,,,,,,,,,
21269,1506900935458,0,133.4,,144.5,36,142.3,,0.03,0.04,1.01,-2.5,-0.3,-0.3,640,0,0,1,0.0,35.489899,-119.546127,0.0,0.0,227.9,8,2,2.0,0,0.0,-1,0.0,0.0,0.0,0
21289,1506900935478,,,,,,,,0.03,0.06,1.0,-2.5,-0.4,-0.2,640,0,,,,,,,,,,,,,,,,,,
21309,1506900935497,,,,,,,,0.04,0.05,1.0,-2.5,-0.3,-0.3,640,0,,,,,,,,,,,,,,,,,,
21329,1506900935517,,,,,,,,0.03,0.05,1.0,-2.4,-0.8,-0.3,640,0,,,,,,,,,,,,,,,,,,
21349,1506900935537,,,,,,,,0.03,0.05,1.0,-2.5,-0.6,-0.2,640,2,,,,,,,,,,,,,,,,,,
21369,1506900935557,,,,,35,,,0.03,0.04,1.0,-2.4,-0.9,-0.3,640,2,0,1,0.0,35.489899,-119.546127,0.0,0.0,227.9,8,2,2.0,0,0.0,-1,0.0,0.0,0.0,0
21389,1506900935577,,,,,,,,0.03,0.04,1.0,-2.4,-1.1,-0.3,640,2,,,,,,,,,,,,,,,,,,
21409,1506900935597,,,,,,,,0.03,0.05,0.99,-2.4,-1.0,-0.2,620,2,,,,,,,,,,,,,,,,,,
21429,1506900935617,,,,,,,,0.02,0.04,0.99,-2.4,-1.4,-0.3,620,2,,,,,,,,,,,,,,,,,,
21449,1506900935637,,,,,,,,0.01,0.04,1.0,-2.4,-1.1,-0.3,640,2,,,,,,,,,,,,,,,,,,
21469,1506900935657,0,133.5,,144.8,36,142.9,,0.01,0.04,0.99,-2.4,-1.3,-0.3,620,2,0,1,0.0,35.489899,-119.546127,0.0,0.0,227.9,8,2,2.0,0,0.0,-1,0.0,0.0,0.0,0
21489,1506900935677,,,,,,,,0.0,0.04,1.0,-2.4,-1.2,-0.3,620,2,,,,,,,,,,,,,,,,,,
21509,1506900935693,,,,,,,,0.01,0.04,1.0,-2.3,-1.0,-0.2,620,2,,,,,,,,,,,,,,,,,,
21529,1506900935713,,,,,,,,0.01,0.05,0.99,-2.3,-1.0,-0.2,620,2,,,,,,,,,,,,,,,,,,
21549,1506900935733,,,,,,,,0.01,0.04,1.0,-2.3,-0.8,-0.3,620,2,,,,,,,,,,,,,,,,,,
21569,1506900935753,,,,,35,,,0.01,0.05,0.99,-2.3,-0.9,-0.2,620,2,0,1,0.0,35.489899,-119.546127,0.0,0.0,227.9,8,2,2.0,0,0.0,-1,0.0,0.0,0.0,0
21589,1506900935773,,,,,,,,0.01,0.04,0.99,-2.3,-0.9,-0.3,620,2,,,,,,,,,,,,,,,,,,
21609,1506900935797,,,,,,,,0.01,0.05,1.0,-2.2,-1.0,-0.3,620,2,,,,,,,,,,,,,,,,,,
21629,1506900935817,,,,,,,,0.01,0.05,0.99,-2.2,-0.9,-0.3,620,2,,,,,,,,,,,,,,,,,,
21649,1506900935837,,,,,,,,0.0,0.04,0.99,-2.2,-1.0,-0.4,620,2,,,,,,,,,,,,,,,,,,
21669,1506900935857,0,133.1,,144.6,34,142.8,,0.0,0.04,1.0,-2.2,-0.9,-0.3,620,2,0,1,0.0,35.489899,-119.546127,0.0,0.0,227.9,8,2,2.0,0,0.0,-1,0.0,0.0,0.0,0
21689,1506900935877,,,,,,,,0.0,0.04,0.99,-2.1,-1.0,-0.3,600,3,,,,,,,,,,,,,,,,,,
21709,1506900935897,,,,,,,,-0.0,0.03,1.0,-2.1,-0.7,-0.3,600,3,,,,,,,,,,,,,,,,,,
21729,1506900935917,,,,,,,,0.0,0.04,0.99,-2.1,-0.8,-0.2,600,3,,,,,,,,,,,,,,,,,,
21749,1506900935937,,,,,,,,0.0,0.04,0.99,-2.0,-0.8,-0.3,600,3,,,,,,,,,,,,,,,,,,
21769,1506900935957,,,,,33,,,0.0,0.05,1.0,-2.0,-0.9,-0.3,600,3,0,1,0.0,35.489899,-119.546127,0.0,0.0,227.9,8,2,2.0,0,0.0,-1,0.0,0.0,0.0,0
21789,1506900935977,,,,,,,,0.01,0.05,1.0,-2.0,-0.8,-0.2,600,3,,,,,,,,,,,,,,,,,,
21809,1506900935997,,,,,,,,0.0,0.04,1.0,-1.9,-0.9,-0.3,600,12,,,,,,,,,,,,,,,,,,
21829,1506900936009,,,,,,,,0.0,0.05,1.0,-1.9,-0.9,-0.2,600,12,,,,,,,,,,,,,,,,,,
21849,1506900936029,,,,,,,,0.0,0.03,0.99,-1.8,-0.9,-0.3,600,12,,,,,,,,,,,,,,,,,,
21869,1506900936049,0,133.3,,144.6,33,142.9,,-0.0,0.04,1.0,-1.7,-1.0,-0.3,580,12,0,1,0.0,35.489899,-119.546127,0.0,0.0,227.9,8,2,2.0,0,0.0,-1,0.0,0.0,0.0,0
21889,1506900936069,,,,,,,,0.0,0.04,1.0,-1.7,-1.0,-0.3,580,14,,,,,,,,,,,,,,,,,,
21909,1506900936097,,,,,,,,-0.01,0.03,1.0,-1.6,-0.9,-0.3,580,14,,,,,,,,,,,,,,,,,,
21929,1506900936117,,,,,,,,-0.0,0.04,1.0,-1.6,-1.0,-0.3,580,14,,,,,,,,,,,,,,,,,,
21949,1506900936137,,,,,,,,-0.0,0.03,0.99,-1.5,-0.9,-0.3,580,14,,,,,,,,,,,,,,,,,,
21969,1506900936157,,,,,32,,,-0.01,0.04,1.0,-1.4,-1.0,-0.3,580,17,0,1,0.0,35.489899,-119.546127,0.0,0.0,227.9,8,2,2.0,0,0.0,-1,0.0,0.0,0.0,0
21989,1506900936177,,,,,,,,-0.0,0.03,1.0,-1.4,-0.9,-0.3,580,17,,,,,,,,,,,,,,,,,,
22009,1506900936197,,,,,,,,-0.01,0.03,1.0,-1.4,-0.8,-0.3,580,17,,,,,,,,,,,,,,,,,,
22029,1506900936217,,,,,,,,-0.01,0.04,0.99,-1.3,-0.9,-0.3,580,17,,,,,,,,,,,,,,,,,,
22049,1506900936237,,,,,,,,-0.01,0.02,0.99,-1.2,-0.9,-0.4,580,20,,,,,,,,,,,,,,,,,,
22069,1506900936257,0,133.3,-0.3,144.7,32,143.0,14.38,-0.01,0.04,0.99,-1.2,-0.9,-0.3,580,20,0,1,0.0,35.489899,-119.546127,0.0,0.0,227.9,8,2,2.0,0,0.0,-1,0.0,0.0,0.0,0
22089,1506900936277,,,,,,,,-0.01,0.03,0.99,-1.1,-0.9,-0.3,580,20,,,,,,,,,,,,,,,,,,
22109,1506900936297,,,,,,,,-0.01,0.03,1.0,-1.1,-0.7,-0.3,580,25,,,,,,,,,,,,,,,,,,
22129,1506900936317,,,,,,,,-0.01,0.05,0.99,-1.0,-0.9,-0.3,580,25,,,,,,,,,,,,,,,,,,
22149,1506900936337,,,,,,,,-0.01,0.03,0.99,-0.9,-1.0,-0.4,580,25,,,,,,,,,,,,,,,,,,
22169,1506900936357,,,,,31,,,-0.01,0.04,1.0,-0.8,-0.8,-0.4,580,23,0,1,0.0,35.489899,-119.546127,0.0,0.0,227.9,8,2,2.0,0,0.0,-1,0.0,0.0,0.0,0
22189,1506900936377,,,,,,,,-0.01,0.04,0.99,-0.7,-1.0,-0.3,600,23,,,,,,,,,,,,,,,,,,
22209,1506900936397,,,,,,,,-0.01,0.03,1.0,-0.6,-0.9,-0.4,600,23,,,,,,,,,,,,,,,,,,
22229,1506900936417,,,,,,,,-0.01,0.05,0.99,-0.6,-0.7,-0.2,600,28,,,,,,,,,,,,,,,,,,
22249,1506900936437,,,,,,,,-0.01,0.03,0.99,-0.5,-1.1,-0.4,600,28,,,,,,,,,,,,,,,,,,
22269,1506900936457,0,132.4,,144.0,32,142.4,,-0.01,0.04,1.0,-0.4,-0.9,-0.3,600,31,0,1,0.0,35.489899,-119.546127,0.0,0.0,227.9,8,2,2.0,0,0.0,-1,0.0,0.0,0.0,0
22289,1506900936477,,,,,,,,-0.01,0.05,0.99,-0.3,-0.9,-0.3,600,31,,,,,,,,,,,,,,,,,,
22309,1506900936496,,,,,,,,-0.01,0.03,1.0,-0.3,-0.8,-0.4,600,31,,,,,,,,,,,,,,,,,,
22329,1506900936516,,,,,,,,-0.01,0.05,0.99,-0.2,-0.8,-0.2,600,31,,,,,,,,,,,,,,,,,,
22349,1506900936536,,,,,,,,-0.01,0.04,0.99,-0.1,-0.8,-0.3,600,35,,,,,,,,,,,,,,,,,,
22369,1506900936556,,,,,33,,,-0.01,0.05,1.0,0.0,-0.8,-0.3,620,35,0,1,0.0,35.489899,-119.546127,0.0,0.0,227.9,8,2,2.0,0,0.0,-1,0.0,0.0,0.0,0
22389,1506900936576,,,,,,,,-0.01,0.05,0.99,0.1,-0.8,-0.2,620,35,,,,,,,,,,,,,,,,,,
22409,1506900936596,,,,,,,,-0.02,0.03,1.0,0.2,-0.9,-0.3,620,35,,,,,,,,,,,,,,,,,,
22429,1506900936616,,,,,,,,-0.02,0.03,1.0,0.4,-0.9,-0.3,620,37,,,,,,,,,,,,,,,,,,
22449,1506900936636,,,,,,,,-0.02,0.03,0.99,0.5,-0.9,-0.3,620,37,,,,,,,,,,,,,,,,,,
22469,1506900936656,0,133.5,,144.7,34,142.8,,-0.02,0.01,1.0,0.6,-0.7,-0.4,620,43,0,1,0.0,35.489899,-119.546127,0.0,0.0,227.9,8,2,2.0,0,0.0,-1,0.0,0.0,0.0,0
22489,1506900936676,,,,,,,,-0.02,0.04,0.99,0.6,-0.7,-0.3,620,43,,,,,,,,,,,,,,,,,,
22509,1506900936696,,,,,,,,-0.01,0.03,0.99,0.7,-0.8,-0.3,620,35,,,,,,,,,,,,,,,,,,
22529,1506900936716,,,,,,,,-0.01,0.03,1.0,0.8,-1.0,-0.4,620,35,,,,,,,,,,,,,,,,,,
22549,1506900936736,,,,,,,,-0.01,0.04,0.99,0.9,-0.9,-0.3,640,48,,,,,,,,,,,,,,,,,,
22569,1506900936756,,,,,33,,,-0.01,0.02,0.99,1.0,-1.2,-0.5,640,48,0,1,0.0,35.489899,-119.546127,0.0,0.0,227.9,8,2,2.0,0,0.0,-1,0.0,0.0,0.0,0
22589,1506900936776,,,,,,,,-0.02,0.02,1.0,1.0,-1.1,-0.4,640,42,,,,,,,,,,,,,,,,,,
22609,1506900936796,,,,,,,,-0.02,0.03,0.99,1.1,-1.2,-0.3,640,43,,,,,,,,,,,,,,,,,,
22629,1506900936816,,,,,,,,-0.03,0.02,1.0,1.3,-1.1,-0.4,640,43,,,,,,,,,,,,,,,,,,
22649,1506900936836,,,,,,,,-0.03,0.03,1.0,1.4,-1.0,-0.4,640,51,,,,,,,,,,,,,,,,,,
22669,1506900936856,0,133.2,,143.8,33,141.8,,-0.03,0.04,0.99,1.5,-1.0,-0.3,640,51,0,1,0.0,35.489899,-119.546127,0.0,0.0,227.9,8,2,2.0,0,0.0,-1,0.0,0.0,0.0,0
22689,1506900936876,,,,,,,,-0.03,0.02,1.0,1.6,-0.6,-0.4,640,46,,,,,,,,,,,,,,,,,,
22709,1506900936896,,,,,,,,-0.02,0.03,1.0,1.7,-0.6,-0.4,660,49,,,,,,,,,,,,,,,,,,
22729,1506900936916,,,,,,,,-0.02,0.03,1.0,1.8,-0.5,-0.3,660,49,,,,,,,,,,,,,,,,,,
22749,1506900936936,,,,,,,,-0.01,0.02,1.01,1.9,-0.2,-0.5,660,54,,,,,,,,,,,,,,,,,,
22769,1506900936956,,,,,33,,,-0.01,0.04,0.99,2.0,-0.3,-0.3,660,51,0,1,0.0,35.489899,-119.546127,0.0,0.0,227.9,8,2,2.0,0,0.0,-1,0.0,0.0,0.0,0
22789,1506900936976,,,,,,,,0.0,0.04,1.0,2.0,-0.1,-0.3,660,52,,,,,,,,,,,,,,,,,,
22809,1506900936996,,,,,,,,0.0,0.02,1.01,2.2,0.1,-0.4,660,52,,,,,,,,,,,,,,,,,,
22829,1506900937010,,,,,,,,0.0,0.04,0.99,2.2,-0.0,-0.4,660,58,,,,,,,,,,,,,,,,,,
22849,1506900937030,,,,,,,,0.01,0.04,1.0,2.4,0.2,-0.4,660,58,,,,,,,,,,,,,,,,,,
22869,1506900937050,0,132.8,,144.3,34,142.8,,0.01,0.02,1.01,2.5,0.2,-0.5,660,54,0,1,0.0,35.489899,-119.546127,0.0,0.0,227.9,8,2,2.0,0,0.0,-1,0.0,0.0,0.0,0
22889,1506900937070,,,,,,,,0.01,0.03,0.99,2.6,0.1,-0.4,660,54,,,,,,,,,,,,,,,,,,
22909,1506900937098,,,,,,,,0.01,0.03,1.0,2.7,0.2,-0.4,660,58,,,,,,,,,,,,,,,,,,
22929,1506900937118,,,,,,,,0.01,0.01,1.01,2.9,0.3,-0.6,660,68,,,,,,,,,,,,,,,,,,
22949,1506900937138,,,,,,,,0.01,0.03,1.0,2.9,0.2,-0.5,660,62,,,,,,,,,,,,,,,,,,
22969,1506900937158,,,,,35,,,0.02,0.03,1.0,3.0,0.2,-0.4,660,55,0,1,0.0,35.489899,-119.546127,0.0,0.0,227.9,8,2,2.0,0,0.0,-1,0.0,0.0,0.0,0
22989,1506900937178,,,,,,,,0.01,0.0,1.02,3.1,0.3,-0.5,660,68,,,,,,,,,,,,,,,,,,
23009,1506900937198,,,,,,,,0.01,0.02,1.0,3.2,0.1,-0.4,660,68,,,,,,,,,,,,,,,,,,
23029,1506900937218,,,,,,,,0.02,0.03,1.0,3.3,0.2,-0.3,660,74,,,,,,,,,,,,,,,,,,
23049,1506900937238,,,,,,,,0.02,0.01,1.02,3.4,0.1,-0.5,660,63,,,,,,,,,,,,,,,,,,
23069,1506900937258,0,132.8,-0.3,143.7,35,141.8,14.58,0.01,0.02,1.01,3.5,0.0,-0.4,660,60,0,1,0.0,35.489899,-119.546127,0.0,0.0,227.9,8,2,2.0,0,0.0,-1,0.0,0.0,0.0,0
23089,1506900937278,,,,,,,,0.02,0.03,1.0,3.6,0.1,-0.3,660,74,,,,,,,,,,,,,,,,,,
23109,1506900937298,,,,,,,,0.01,0.01,1.02,3.7,0.1,-0.5,660,80,,,,,,,,,,,,,,,,,,
23129,1506900937318,,,,,,,,0.01,0.03,1.0,3.8,-0.0,-0.4,660,68,,,,,,,,,,,,,,,,,,
23149,1506900937338,,,,,,,,0.02,0.02,1.0,3.9,-0.0,-0.4,660,60,,,,,,,,,,,,,,,,,,
23169,1506900937358,,,,,36,,,0.02,0.0,1.02,4.1,-0.1,-0.5,660,77,0,1,0.0,35.489891,-119.546127,1.01,0.0,260.2,8,2,2.0,0,0.0,-1,0.0,0.0,0.0,0
23189,1506900937378,,,,,,,,0.01,0.02,1.0,4.1,-0.2,-0.4,660,89,,,,,,,,,,,,,,,,,,
23209,1506900937398,,,,,,,,0.02,0.02,1.0,4.2,-0.1,-0.4,660,78,,,,,,,,,,,,,,,,,,
23229,1506900937418,,,,,,,,0.02,0.0,1.02,4.4,-0.1,-0.6,660,63,,,,,,,,,,,,,,,,,,
23249,1506900937438,,,,,,,,0.01,0.02,1.01,4.4,-0.2,-0.5,680,74,,,,,,,,,,,,,,,,,,
23269,1506900937458,0,133.3,,144.2,36,141.7,,0.02,0.02,1.0,4.5,-0.2,-0.3,680,92,0,1,0.0,35.489891,-119.546127,1.08,0.0,260.2,8,2,2.0,0,0.0,-1,0.0,0.0,0.0,0
23289,1506900937478,,,,,,,,0.01,0.0,1.02,4.6,-0.2,-0.5,680,92,,,,,,,,,,,,,,,,,,
23309,1506900937497,,,,,,,,-0.0,0.0,1.02,4.7,-0.2,-0.5,680,75,,,,,,,,,,,,,,,,,,
23329,1506900937517,,,,,,,,0.0,0.02,1.01,4.8,-0.2,-0.4,680,69,,,,,,,,,,,,,,,,,,
23349,1506900937537,,,,,,,,-0.01,0.01,1.0,4.9,-0.3,-0.5,680,85,,,,,,,,,,,,,,,,,,
23369,1506900937557,,,,,38,,,-0.02,0.0,1.0,5.0,-0.5,-0.4,680,98,0,1,0.0,35.489891,-119.546127,1.23,0.0,260.2,8,2,2.0,0,0.0,-1,0.0,0.0,0.0,0
23389,1506900937577,,,,,,,,-0.01,0.02,1.0,5.1,-0.5,-0.3,700,97,,,,,,,,,,,,,,,,,,
23409,1506900937599,,,,,,,,-0.02,0.02,0.99,5.2,-0.6,-0.2,700,80,,,,,,,,,,,,,,,,,,
23429,1506900937619,,,,,,,,-0.02,0.02,1.0,5.2,-0.7,-0.3,700,88,,,,,,,,,,,,,,,,,,
23449,1506900937639,,,,,,,,-0.01,0.03,1.0,5.3,-0.7,-0.1,700,103,,,,,,,,,,,,,,,,,,
23469,1506900937659,0,132.5,,144.2,36,142.7,,-0.01,0.04,1.0,5.3,-0.7,0.0,720,105,0,1,0.0,35.489891,-119.546127,1.23,0.0,260.1,8,2,2.0,0,0.0,-1,0.0,0.0,0.0,0
23489,1506900937679,,,,,,,,-0.02,0.03,1.0,5.4,-0.8,-0.1,720,88,,,,,,,,,,,,,,,,,,
23509,1506900937695,,,,,,,,-0.02,0.03,1.0,5.4,-0.7,-0.2,720,74,,,,,,,,,,,,,,,,,,
23529,1506900937715,,,,,,,,-0.01,0.03,0.99,5.4,-0.6,0.0,720,111,,,,,,,,,,,,,,,,,,
23549,1506900937735,,,,,,,,-0.02,0.03,0.99,5.4,-0.9,0.1,720,114,,,,,,,,,,,,,,,,,,
23569,1506900937755,,,,,39,,,-0.03,0.03,1.0,5.4,-1.0,-0.1,740,100,0,1,0.0,35.489891,-119.546127,1.62,0.0,260.2,8,2,2.0,0,0.0,-1,0.0,0.0,0.0,0
23589,1506900937775,,,,,,,,-0.03,0.03,0.99,5.4,-1.0,-0.1,740,80,,,,,,,,,,,,,,,,,,
23609,1506900937799,,,,,,,,-0.02,0.04,0.99,5.4,-1.0,0.1,740,109,,,,,,,,,,,,,,,,,,
23629,1506900937819,,,,,,,,-0.03,0.05,0.99,5.4,-1.0,0.1,740,120,,,,,,,,,,,,,,,,,,
23649,1506900937839,,,,,,,,-0.03,0.04,0.99,5.5,-1.0,-0.1,740,102,,,,,,,,,,,,,,,,,,
23669,1506900937859,0,133.2,,144.7,38,142.8,,-0.03,0.04,0.98,5.5,-0.8,-0.1,740,85,0,1,0.0,35.489891,-119.546127,1.67,0.0,260.1,8,2,2.0,0,0.0,-1,0.0,0.0,0.0,0
23689,1506900937879,,,,,,,,-0.02,0.05,0.99,5.5,-0.8,0.1,740,94,,,,,,,,,,,,,,,,,,
23709,1506900937897,,,,,,,,-0.03,0.05,0.99,5.5,-0.9,0.1,740,129,,,,,,,,,,,,,,,,,,
23729,1506900937917,,,,,,,,-0.03,0.05,0.99,5.5,-0.9,-0.1,740,125,,,,,,,,,,,,,,,,,,
23749,1506900937937,,,,,,,,-0.04,0.04,0.98,5.5,-1.0,-0.2,740,91,,,,,,,,,,,,,,,,,,
23769,1506900937957,,,,,41,,,-0.03,0.05,0.98,5.5,-1.1,0.0,760,97,0,1,0.0,35.489891,-119.546127,1.85,0.0,260.1,8,2,2.0,0,0.0,-1,0.0,0.0,0.0,0
23789,1506900937977,,,,,,,,-0.03,0.05,0.98,5.4,-1.1,0.2,760,131,,,,,,,,,,,,,,,,,,
23809,1506900937991,,,,,,,,-0.03,0.04,1.0,5.4,-1.0,-0.1,760,131,,,,,,,,,,,,,,,,,,
23829,1506900938011,,,,,,,,-0.04,0.04,1.0,5.4,-1.0,-0.2,760,102,,,,,,,,,,,,,,,,,,
23849,1506900938031,,,,,,,,-0.03,0.04,0.98,5.3,-0.9,-0.0,760,100,,,,,,,,,,,,,,,,,,
23869,1506900938051,0,133.3,,144.9,41,142.8,,-0.03,0.04,1.0,5.2,-0.9,0.1,760,131,0,1,0.0,35.489891,-119.546127,2.03,0.0,260.1,8,2,2.0,0,0.0,-1,0.0,0.0,0.0,0
23889,1506900938071,,,,,,,,-0.04,0.03,1.0,5.2,-0.9,-0.0,760,134,,,,,,,,,,,,,,,,,,
23909,1506900938093,,,,,,,,-0.04,0.02,1.01,5.2,-0.9,-0.2,760,122,,,,,,,,,,,,,,,,,,
23929,1506900938113,,,,,,,,-0.04,0.03,1.01,5.2,-0.8,-0.1,760,109,,,,,,,,,,,,,,,,,,
23949,1506900938133,,,,,,,,-0.03,0.03,1.0,5.1,-0.9,0.0,760,122,,,,,,,,,,,,,,,,,,
23969,1506900938153,,,,,41,,,-0.04,0.04,1.01,5.1,-1.0,-0.1,760,142,0,1,0.0,35.489895,-119.546127,2.0,0.0,260.2,8,2,2.0,0,0.0,-1,0.0,0.0,0.0,0
23989,1506900938173,,,,,,,,-0.04,0.04,1.01,5.1,-1.1,-0.2,740,128,,,,,,,,,,,,,,,,,,
24009,1506900938199,,,,,,,,-0.04,0.04,1.0,5.0,-0.9,-0.1,740,117,,,,,,,,,,,,,,,,,,
