"Interval"|"ms"|0|0|1,"Utc"|"ms"|0|0|1,"FuelLevel"|"F"|0|100|5,"OilTemp"|"F"|0.0|300.0|5,"CoolantPressPSI"|"PSI"|0.0|20.0|1,"Coolant"|"F"|0.0|300.0|5,"OilPress"|"PSI"|0|150|10,"EngineTemp"|"F"|0.0|300.0|5,"Battery"|"Volts"|0.0|20.0|1,"AccelX"|"G"|-3.0|3.0|50,"AccelY"|"G"|-3.0|3.0|50,"AccelZ"|"G"|-3.0|3.0|50,"Yaw"|"Deg/Sec"|-300.0|300.0|50,"Pitch"|"Deg/Sec"|-300.0|300.0|50,"Roll"|"Deg/Sec"|-300.0|300.0|50,"RPM"|""|0|10000|50,"Driveshaft"|"RPM"|0|5000|50,"GPIO1"|""|0|1|10,"GPIO2"|""|0|1|10,"GearRatio"|""|-5.0|5.0|10,"Latitude"|"Degrees"|-180.0|180.0|10,"Longitude"|"Degrees"|-180.0|180.0|10,"Speed"|"mph"|0.0|150.0|10,"Distance"|"mi"|0.0|0.0|10,"Altitude"|"ft"|0.0|4000.0|10,"GPSSats"|""|0|20|10,"GPSQual"|""|0|5|10,"GPSDOP"|""|0.0|20.0|10,"LapCount"|""|0|0|10,"LapTime"|"Min"|0.0|0.0|10,"Sector"|""|0|0|10,"SectorTime"|"Min"|0.0|0.0|10,"PredTime"|"Min"|0.0|0.0|10,"ElapsedTime"|"Min"|0.0|0.0|10,"CurrentLap"|""|0|0|10
21690343,1506895189152,,,,,,,,0.02,0.1,1.0,-3.1,-0.5,-0.3,20,0,,,,,,,,,,,,,,,,,,
21690363,1506895189172,,,,,,,,0.02,0.11,1.01,-3.1,-0.5,-0.2,360,0,,,,,,,,,,,,,,,,,,
21690383,1506895189194,,,,,,,,0.02,0.1,1.02,-3.2,-0.3,-0.1,360,0,,,,,,,,,,,,,,,,,,
21690403,1506895189214,,,,,,,,0.01,0.09,1.01,-3.1,-0.6,0.0,360,0,,,,,,,,,,,,,,,,,,
21690425,1506895189236,0,223.4,,215.3,0,222.4,,0.02,0.11,1.02,-3.1,-0.7,-0.0,420,0,0,1,0.0,35.48951,-119.544029,0.0,2.784,239.5,11,3,1.3,82,2.4667,0,0.0,6.7876,4.4783,83
21690444,1506895189255,,,,,,,,0.02,0.1,1.01,-3.0,-0.6,-0.2,540,0,,,,,,,,,,,,,,,,,,
21690464,1506895189275,,,,,,,,0.01,0.09,1.01,-3.0,-0.6,-0.3,540,0,,,,,,,,,,,,,,,,,,
21690484,1506895189295,,,,,,,,0.03,0.11,1.01,-3.0,-0.2,-0.1,640,0,,,,,,,,,,,,,,,,,,
21690504,1506895189315,,,,,,,,0.04,0.11,1.01,-2.9,-0.4,-0.2,760,0,,,,,,,,,,,,,,,,,,
21690526,1506895189337,,,,,1,,,0.02,0.09,0.99,-2.9,-0.2,-0.5,860,0,0,0,0.0,35.48951,-119.544029,0.0,2.784,239.5,11,3,1.3,82,2.4667,0,0.0,6.7892,4.48,83
21690545,1506895189356,,,,,,,,-0.02,0.03,1.01,-2.9,0.5,-0.6,960,0,,,,,,,,,,,,,,,,,,
21690565,1506895189376,,,,,,,,-0.01,0.02,1.05,-3.0,0.8,-0.5,1020,0,,,,,,,,,,,,,,,,,,
21690585,1506895189394,,,,,,,,0.0,0.01,1.06,-3.1,0.0,-0.4,1060,2,,,,,,,,,,,,,,,,,,
21690605,1506895189414,,,,,,,,0.01,0.03,1.08,-3.2,-0.1,-0.6,1100,2,,,,,,,,,,,,,,,,,,
21690627,1506895189436,0,223.2,,215.7,4,222.2,,0.03,0.02,1.07,-3.1,-0.4,-0.7,1160,139860,0,0,0.0,35.48951,-119.544029,0.0,2.784,239.5,11,3,1.3,82,2.4667,0,0.0,6.7909,4.4817,83
21690646,1506895189455,,,,,,,,0.03,0.04,1.02,-3.1,-0.2,-0.5,1260,0,,,,,,,,,,,,,,,,,,
21690666,1506895189475,,,,,,,,0.03,0.04,0.97,-3.1,0.0,-0.5,1300,0,,,,,,,,,,,,,,,,,,
21690686,1506895189495,,,,,,,,0.01,0.03,0.92,-3.1,0.3,-0.5,1320,0,,,,,,,,,,,,,,,,,,
21690706,1506895189515,,,,,,,,0.01,0.04,0.96,-3.2,0.6,-0.5,1420,0,,,,,,,,,,,,,,,,,,
21690728,1506895189537,,,,,12,,,0.01,0.05,0.99,-3.1,1.0,-0.5,1420,0,0,0,0.0,35.48951,-119.544029,0.0,2.784,239.5,11,3,1.3,82,2.4667,0,0.0,6.7926,4.4833,83
21690747,1506895189556,,,,,,,,-0.0,0.06,0.99,-3.1,0.9,-0.4,1480,0,,,,,,,,,,,,,,,,,,
21690767,1506895189576,,,,,,,,0.0,0.06,0.98,-3.0,0.7,-0.3,1500,0,,,,,,,,,,,,,,,,,,
21690787,1506895189596,,,,,,,,0.0,0.06,0.98,-3.0,0.4,-0.3,1540,0,,,,,,,,,,,,,,,,,,
21690807,1506895189616,,,,,,,,0.01,0.06,0.98,-3.0,0.9,-0.2,1560,0,,,,,,,,,,,,,,,,,,
21690829,1506895189638,0,223.0,,215.6,15,222.3,,0.01,0.08,0.99,-3.0,0.9,-0.2,1580,0,0,0,0.0,35.48951,-119.544029,0.0,2.784,239.5,11,3,1.3,82,2.4667,0,0.0,6.7942,4.485,83
21690848,1506895189657,,,,,,,,0.02,0.07,0.98,-3.0,0.6,-0.3,1600,0,,,,,,,,,,,,,,,,,,
21690868,1506895189677,,,,,,,,0.01,0.07,0.99,-3.0,0.7,-0.3,1580,0,,,,,,,,,,,,,,,,,,
21690888,1506895189697,,,,,,,,0.01,0.08,0.97,-3.0,0.4,-0.4,1600,0,,,,,,,,,,,,,,,,,,
21690908,1506895189717,,,,,,,,0.01,0.06,0.98,-3.0,0.3,-0.3,1620,0,,,,,,,,,,,,,,,,,,
21690930,1506895189739,,,,,17,,,0.01,0.07,0.98,-3.0,0.2,-0.2,1640,0,0,0,0.0,35.48951,-119.544029,0.0,2.784,239.5,11,3,1.3,82,2.4667,0,0.0,6.7959,4.4867,83
21690949,1506895189758,,,,,,,,0.02,0.07,0.98,-3.0,0.2,-0.3,1620,0,,,,,,,,,,,,,,,,,,
21690969,1506895189778,,,,,,,,0.01,0.08,0.99,-3.0,0.0,-0.3,1620,0,,,,,,,,,,,,,,,,,,
21690989,1506895189797,,,,,,,,0.02,0.07,0.99,-3.0,0.3,-0.2,1600,0,,,,,,,,,,,,,,,,,,
21691009,1506895189817,,,,,,,,0.02,0.08,1.01,-3.0,0.1,-0.2,1600,0,,,,,,,,,,,,,,,,,,
21691031,1506895189839,0,223.5,3.6,216.0,22,222.8,13.5,0.01,0.09,1.01,-3.0,0.1,-0.2,1580,0,0,0,0.0,35.48951,-119.544029,0.0,2.784,239.5,11,3,1.3,82,2.4667,0,0.0,6.7976,4.4883,83
21691050,1506895189858,,,,,,,,0.01,0.09,0.99,-3.0,0.4,-0.2,1560,0,,,,,,,,,,,,,,,,,,
21691070,1506895189878,,,,,,,,0.01,0.08,1.01,-3.0,0.1,-0.2,1560,0,,,,,,,,,,,,,,,,,,
21691090,1506895189900,,,,,,,,0.0,0.08,1.0,-2.9,0.4,-0.2,1540,0,,,,,,,,,,,,,,,,,,
21691110,1506895189920,,,,,,,,0.02,0.09,1.01,-2.9,0.4,-0.2,1520,0,,,,,,,,,,,,,,,,,,
21691132,1506895189942,,,,,23,,,0.01,0.1,1.0,-3.0,0.1,-0.2,1500,0,0,0,0.0,35.48951,-119.544029,0.0,2.784,239.5,11,3,1.3,82,2.4667,0,0.0,6.7993,4.49,83
21691151,1506895189961,,,,,,,,0.01,0.09,1.0,-3.0,0.3,-0.2,1500,0,,,,,,,,,,,,,,,,,,
21691171,1506895189981,,,,,,,,0.01,0.09,1.01,-3.0,-0.0,-0.1,1460,0,,,,,,,,,,,,,,,,,,
21691191,1506895189991,,,,,,,,0.01,0.09,1.0,-3.0,-0.1,-0.2,1460,0,,,,,,,,,,,,,,,,,,
21691211,1506895190011,,,,,,,,0.01,0.09,0.99,-3.0,-0.2,-0.2,1440,0,,,,,,,,,,,,,,,,,,
21691233,1506895190033,0,222.9,,215.4,19,222.0,,0.01,0.09,0.99,-3.0,-0.2,-0.2,1420,0,0,0,0.0,35.48951,-119.544029,0.0,2.784,239.5,11,3,1.3,82,2.4667,0,0.0,6.8009,4.4917,83
21691252,1506895190052,,,,,,,,0.02,0.09,0.99,-3.0,-0.3,-0.2,1380,0,,,,,,,,,,,,,,,,,,
21691272,1506895190072,,,,,,,,0.02,0.09,0.99,-3.0,-0.3,-0.2,1360,0,,,,,,,,,,,,,,,,,,
21691292,1506895190098,,,,,,,,0.02,0.1,0.99,-3.1,-0.2,-0.2,1360,0,,,,,,,,,,,,,,,,,,
21691312,1506895190118,,,,,,,,0.02,0.11,0.98,-3.1,-0.3,-0.1,1320,0,,,,,,,,,,,,,,,,,,
21691334,1506895190140,,,,,18,,,0.02,0.1,0.98,-3.1,-0.3,-0.1,1300,0,0,0,0.0,35.48951,-119.544029,0.0,2.784,239.5,11,3,1.3,82,2.4667,0,0.0,6.8026,4.4933,83
21691353,1506895190159,,,,,,,,0.02,0.1,0.98,-3.1,-0.2,-0.1,1280,0,,,,,,,,,,,,,,,,,,
21691373,1506895190179,,,,,,,,0.01,0.11,0.97,-3.1,-0.3,-0.2,1260,0,,,,,,,,,,,,,,,,,,
21691393,1506895190203,,,,,,,,0.02,0.11,0.97,-3.2,-0.4,-0.2,1240,0,,,,,,,,,,,,,,,,,,
21691413,1506895190223,,,,,,,,0.02,0.1,0.98,-3.2,-0.3,-0.2,1220,0,,,,,,,,,,,,,,,,,,
21691435,1506895190245,0,224.0,,215.0,19,221.4,,0.01,0.09,0.97,-3.1,-0.2,-0.2,1200,0,0,0,0.0,35.48951,-119.544029,0.0,2.784,239.5,11,3,1.3,82,2.4667,0,0.0,6.8042,4.495,83
21691454,1506895190264,,,,,,,,0.01,0.09,0.97,-3.1,-0.3,-0.2,1200,0,,,,,,,,,,,,,,,,,,
21691474,1506895190284,,,,,,,,0.02,0.09,0.98,-3.1,-0.3,-0.2,1160,0,,,,,,,,,,,,,,,,,,
21691494,1506895190304,,,,,,,,0.02,0.1,0.99,-3.1,-0.3,-0.2,1120,0,,,,,,,,,,,,,,,,,,
21691514,1506895190324,,,,,,,,0.02,0.1,0.98,-3.1,-0.3,-0.2,1120,0,,,,,,,,,,,,,,,,,,
21691536,1506895190346,,,,,15,,,0.02,0.09,0.98,-3.1,-0.3,-0.1,1100,0,0,0,0.0,35.48951,-119.544029,0.0,2.784,239.5,11,3,1.3,82,2.4667,0,0.0,6.8059,4.4967,83
21691555,1506895190365,,,,,,,,0.02,0.09,0.98,-3.1,-0.3,-0.2,1080,0,,,,,,,,,,,,,,,,,,
21691575,1506895190385,,,,,,,,0.02,0.09,0.98,-3.1,-0.3,-0.2,1060,0,,,,,,,,,,,,,,,,,,
21691595,1506895190405,,,,,,,,0.02,0.09,0.97,-3.1,-0.3,-0.2,1040,0,,,,,,,,,,,,,,,,,,
21691615,1506895190425,,,,,,,,0.02,0.1,0.97,-3.1,-0.3,-0.3,1020,0,,,,,,,,,,,,,,,,,,
21691637,1506895190447,0,223.2,,215.4,14,221.8,,0.02,0.1,0.96,-3.1,-0.4,-0.3,1000,0,0,0,0.0,35.48951,-119.544029,0.0,2.784,239.5,11,3,1.3,82,2.4667,0,0.0,6.8076,4.4983,83
21691656,1506895190466,,,,,,,,0.02,0.1,0.97,-3.1,-0.3,-0.3,980,0,,,,,,,,,,,,,,,,,,
21691676,1506895190486,,,,,,,,0.02,0.1,0.97,-3.0,-0.2,-0.3,980,0,,,,,,,,,,,,,,,,,,
21691696,1506895190506,,,,,,,,0.02,0.1,0.97,-3.0,-0.2,-0.3,920,0,,,,,,,,,,,,,,,,,,
21691716,1506895190526,,,,,,,,0.02,0.1,0.96,-3.0,-0.2,-0.3,940,0,,,,,,,,,,,,,,,,,,
21691738,1506895190548,,,,,12,,,0.03,0.1,0.95,-3.0,-0.2,-0.2,900,0,0,0,0.0,35.48951,-119.544029,0.0,2.784,239.5,11,3,1.3,82,2.4667,0,0.0,6.8092,4.5,83
21691757,1506895190567,,,,,,,,0.03,0.1,0.95,-3.0,-0.3,-0.2,900,0,,,,,,,,,,,,,,,,,,
21691777,1506895190587,,,,,,,,0.02,0.1,0.95,-3.0,-0.3,-0.2,880,0,,,,,,,,,,,,,,,,,,
21691797,1506895190607,,,,,,,,0.02,0.1,0.96,-3.0,-0.4,-0.2,860,0,,,,,,,,,,,,,,,,,,
21691817,1506895190627,,,,,,,,0.02,0.09,0.96,-3.0,-0.4,-0.2,840,0,,,,,,,,,,,,,,,,,,
21691839,1506895190649,0,224.0,,215.2,11,221.4,,0.03,0.1,0.96,-3.0,-0.3,-0.2,840,0,0,0,0.0,35.48951,-119.544029,0.0,2.784,239.5,11,3,1.3,82,2.4667,0,0.0,6.8109,4.5017,83
21691858,1506895190668,,,,,,,,0.03,0.1,0.96,-3.0,-0.4,-0.2,820,0,,,,,,,,,,,,,,,,,,
21691878,1506895190688,,,,,,,,0.02,0.09,0.96,-3.0,-0.4,-0.2,800,0,,,,,,,,,,,,,,,,,,
21691898,1506895190708,,,,,,,,0.02,0.1,0.97,-3.0,-0.3,-0.2,780,0,,,,,,,,,,,,,,,,,,
21691918,1506895190728,,,,,,,,0.02,0.09,0.97,-3.0,-0.3,-0.2,760,0,,,,,,,,,,,,,,,,,,
21691940,1506895190750,,,,,9,,,0.02,0.09,0.96,-3.0,-0.3,-0.2,760,0,0,0,0.0,35.48951,-119.544029,0.0,2.784,239.5,11,3,1.3,82,2.4667,0,0.0,6.8126,4.5033,83
21691959,1506895190769,,,,,,,,0.02,0.09,0.96,-3.0,-0.3,-0.2,740,0,,,,,,,,,,,,,,,,,,
21691979,1506895190789,,,,,,,,0.02,0.09,0.97,-3.0,-0.4,-0.2,760,0,,,,,,,,,,,,,,,,,,
21691999,1506895190808,,,,,,,,0.01,0.1,0.97,-3.0,-0.3,-0.2,720,0,,,,,,,,,,,,,,,,,,
21692019,1506895190828,,,,,,,,0.01,0.09,0.97,-3.0,-0.2,-0.2,720,0,,,,,,,,,,,,,,,,,,
21692041,1506895190850,0,223.6,3.0,215.9,9,221.8,13.1,0.02,0.1,0.97,-3.0,-0.1,-0.2,720,0,0,0,0.0,35.48951,-119.544029,0.0,2.784,239.5,11,3,1.3,82,2.4667,0,0.0,6.8142,4.505,83
21692060,1506895190869,,,,,,,,0.02,0.1,0.97,-3.0,-0.1,-0.2,700,0,,,,,,,,,,,,,,,,,,
21692080,1506895190889,,,,,,,,0.02,0.11,0.97,-3.0,-0.3,-0.2,680,0,,,,,,,,,,,,,,,,,,
21692100,1506895190905,,,,,,,,0.01,0.12,0.98,-3.0,-0.4,-0.2,680,0,,,,,,,,,,,,,,,,,,
21692120,1506895190925,,,,,,,,0.02,0.12,0.97,-3.1,-0.4,-0.1,660,0,,,,,,,,,,,,,,,,,,
21692142,1506895190947,,,,,8,,,0.02,0.12,0.97,-3.1,-0.4,-0.1,660,0,0,0,0.0,35.48951,-119.544029,0.0,2.784,239.5,11,3,1.3,82,2.4667,0,0.0,6.8159,4.5067,83
21692161,1506895190966,,,,,,,,0.02,0.12,0.97,-3.1,-0.4,-0.1,660,0,,,,,,,,,,,,,,,,,,
21692181,1506895190986,,,,,,,,0.02,0.12,0.96,-3.0,-0.4,-0.1,640,0,,,,,,,,,,,,,,,,,,
21692201,1506895191002,,,,,,,,0.02,0.11,0.96,-3.0,-0.3,-0.2,640,0,,,,,,,,,,,,,,,,,,
21692221,1506895191022,,,,,,,,0.02,0.11,0.97,-3.0,-0.2,-0.2,640,0,,,,,,,,,,,,,,,,,,
21692243,1506895191044,0,223.3,,215.6,7,221.8,,0.03,0.11,0.96,-3.1,-0.2,-0.1,620,0,0,0,0.0,35.48951,-119.544029,0.0,2.784,239.5,11,3,1.3,82,2.4667,0,0.0,6.8176,4.5083,83
21692262,1506895191063,,,,,,,,0.02,0.1,0.97,-3.0,-0.2,-0.2,620,0,,,,,,,,,,,,,,,,,,
21692282,1506895191093,,,,,,,,0.03,0.1,0.97,-3.1,-0.2,-0.2,620,0,,,,,,,,,,,,,,,,,,
21692302,1506895191113,,,,,,,,0.03,0.1,0.96,-3.1,-0.2,-0.2,620,0,,,,,,,,,,,,,,,,,,
21692322,1506895191133,,,,,,,,0.03,0.1,0.97,-3.1,-0.1,-0.2,620,0,,,,,,,,,,,,,,,,,,
21692344,1506895191155,,,,,6,,,0.03,0.11,0.97,-3.2,-0.2,-0.1,600,0,0,0,0.0,35.48951,-119.544029,0.0,2.784,239.5,11,3,1.3,82,2.4667,0,0.0,6.8193,4.51,83
21692363,1506895191174,,,,,,,,0.02,0.11,0.97,-3.2,-0.3,-0.1,620,0,,,,,,,,,,,,,,,,,,
21692383,1506895191194,,,,,,,,0.02,0.1,0.97,-3.2,-0.4,-0.1,620,0,,,,,,,,,,,,,,,,,,
21692403,1506895191214,,,,,,,,0.02,0.11,0.96,-3.2,-0.4,-0.1,600,0,,,,,,,,,,,,,,,,,,
21692423,1506895191234,,,,,,,,0.02,0.1,0.97,-3.2,-0.3,-0.2,600,0,,,,,,,,,,,,,,,,,,
21692445,1506895191256,0,223.7,,215.4,7,221.4,,0.03,0.11,0.97,-3.2,-0.2,-0.1,600,0,0,0,0.0,35.48951,-119.544029,0.0,2.784,239.5,11,3,1.3,82,2.4667,0,0.0,6.8209,4.5117,83
21692464,1506895191275,,,,,,,,0.03,0.11,0.96,-3.2,-0.3,-0.1,600,0,,,,,,,,,,,,,,,,,,
21692484,1506895191295,,,,,,,,0.03,0.11,0.96,-3.1,-0.4,-0.1,600,0,,,,,,,,,,,,,,,,,,
21692504,1506895191315,,,,,,,,0.03,0.11,0.96,-3.2,-0.4,-0.1,600,0,,,,,,,,,,,,,,,,,,
21692524,1506895191335,,,,,,,,0.02,0.1,0.96,-3.1,-0.4,-0.2,600,0,,,,,,,,,,,,,,,,,,
21692546,1506895191357,,,,,7,,,0.02,0.1,0.97,-3.1,-0.2,-0.1,600,0,0,0,0.0,35.48951,-119.544029,0.0,2.784,239.5,11,3,1.5,82,2.4667,0,0.0,6.8226,4.5133,83
21692565,1506895191376,,,,,,,,0.03,0.11,0.96,-3.1,-0.2,-0.0,600,0,,,,,,,,,,,,,,,,,,
21692585,1506895191396,,,,,,,,0.03,0.1,0.96,-3.1,-0.2,-0.1,600,0,,,,,,,,,,,,,,,,,,
21692605,1506895191416,,,,,,,,0.03,0.11,0.97,-3.2,-0.2,-0.0,600,0,,,,,,,,,,,,,,,,,,
21692625,1506895191436,,,,,,,,0.03,0.1,0.97,-3.1,-0.3,-0.1,620,0,,,,,,,,,,,,,,,,,,
21692647,1506895191458,0,223.7,,215.3,7,221.4,,0.02,0.1,0.97,-3.2,-0.2,-0.0,620,0,0,0,0.0,35.48951,-119.544029,0.0,2.784,239.5,11,3,1.5,82,2.4667,0,0.0,6.8243,4.515,83
21692666,1506895191477,,,,,,,,0.02,0.1,0.97,-3.2,-0.2,0.0,620,0,,,,,,,,,,,,,,,,,,
21692686,1506895191497,,,,,,,,0.02,0.1,0.97,-3.2,-0.2,-0.0,640,0,,,,,,,,,,,,,,,,,,
21692706,1506895191517,,,,,,,,0.02,0.1,0.98,-3.2,-0.1,-0.0,640,0,,,,,,,,,,,,,,,,,,
21692726,1506895191537,,,,,,,,0.03,0.11,0.97,-3.2,-0.0,-0.0,640,0,,,,,,,,,,,,,,,,,,
21692748,1506895191559,,,,,7,,,0.03,0.11,0.98,-3.2,-0.0,-0.1,640,0,0,0,0.0,35.48951,-119.544029,0.0,2.784,239.5,11,3,1.5,82,2.4667,0,0.0,6.8259,4.5167,83
21692767,1506895191578,,,,,,,,0.03,0.11,0.97,-3.3,0.1,-0.1,640,0,,,,,,,,,,,,,,,,,,
21692787,1506895191598,,,,,,,,0.03,0.11,0.97,-3.3,-0.0,-0.0,660,0,,,,,,,,,,,,,,,,,,
21692807,1506895191618,,,,,,,,0.03,0.1,0.97,-3.3,-0.0,-0.2,660,0,,,,,,,,,,,,,,,,,,
21692827,1506895191638,,,,,,,,0.04,0.1,0.97,-3.3,0.1,-0.1,660,0,,,,,,,,,,,,,,,,,,
21692849,1506895191660,0,223.2,,216.5,8,222.2,,0.04,0.11,0.96,-3.3,0.1,0.0,680,0,0,0,0.0,35.48951,-119.544029,0.0,2.784,239.5,11,3,1.5,82,2.4667,0,0.0,6.8276,4.5183,83
21692868,1506895191679,,,,,,,,0.03,0.1,0.97,-3.3,0.1,-0.0,700,0,,,,,,,,,,,,,,,,,,
21692888,1506895191699,,,,,,,,0.03,0.11,0.97,-3.3,0.1,-0.1,700,0,,,,,,,,,,,,,,,,,,
21692908,1506895191719,,,,,,,,0.04,0.12,0.98,-3.3,0.1,-0.0,700,0,,,,,,,,,,,,,,,,,,
21692928,1506895191739,,,,,,,,0.04,0.12,0.98,-3.2,0.1,-0.0,700,0,,,,,,,,,,,,,,,,,,
21692950,1506895191761,,,,,8,,,0.03,0.11,0.98,-3.2,0.1,-0.2,720,0,0,0,0.0,35.48951,-119.544029,0.0,2.784,239.5,11,3,1.5,82,2.4667,0,0.0,6.8292,4.52,83
21692969,1506895191780,,,,,,,,0.03,0.1,0.98,-3.2,0.0,-0.2,720,0,,,,,,,,,,,,,,,,,,
21692989,1506895191799,,,,,,,,0.03,0.11,0.99,-3.2,0.1,-0.0,740,0,,,,,,,,,,,,,,,,,,
21693009,1506895191819,,,,,,,,0.03,0.11,0.98,-3.2,0.1,0.0,740,0,,,,,,,,,,,,,,,,,,
21693029,1506895191839,,,,,,,,0.03,0.12,0.98,-3.2,0.0,-0.2,760,0,,,,,,,,,,,,,,,,,,
21693051,1506895191861,0,223.1,2.5,216.0,8,221.5,13.25,0.03,0.1,0.97,-3.3,0.0,-0.2,760,0,0,0,0.0,35.48951,-119.544029,0.0,2.784,239.5,11,3,1.5,82,2.4667,0,0.0,6.8309,4.5217,83
21693070,1506895191880,,,,,,,,0.03,0.11,0.98,-3.3,0.1,-0.0,740,0,,,,,,,,,,,,,,,,,,
21693090,1506895191900,,,,,,,,0.03,0.11,0.98,-3.3,-0.1,0.1,760,0,,,,,,,,,,,,,,,,,,
21693110,1506895191920,,,,,,,,0.03,0.11,0.98,-3.2,-0.3,-0.1,760,0,,,,,,,,,,,,,,,,,,
21693130,1506895191940,,,,,,,,0.03,0.11,0.99,-3.2,-0.0,-0.2,760,0,,,,,,,,,,,,,,,,,,
21693152,1506895191962,,,,,9,,,0.03,0.11,0.98,-3.3,-0.1,-0.0,780,0,0,0,0.0,35.48951,-119.544029,0.0,2.784,239.5,11,3,1.5,82,2.4667,0,0.0,6.8326,4.5233,83
21693171,1506895191981,,,,,,,,0.03,0.11,0.99,-3.3,-0.1,0.1,800,0,,,,,,,,,,,,,,,,,,
21693191,1506895191993,,,,,,,,0.04,0.11,1.0,-3.3,-0.0,0.1,820,0,,,,,,,,,,,,,,,,,,
21693211,1506895192013,,,,,,,,0.03,0.1,0.98,-3.1,-0.1,-0.0,800,0,,,,,,,,,,,,,,,,,,
21693231,1506895192033,,,,,,,,0.03,0.11,0.98,-3.1,-0.1,-0.2,820,0,,,,,,,,,,,,,,,,,,
21693253,1506895192055,0,223.1,,216.1,9,221.7,,0.03,0.09,0.98,-3.1,-0.0,-0.1,820,0,0,0,0.0,35.48951,-119.544029,0.0,2.784,239.5,11,3,1.5,82,2.4667,0,0.0,6.8342,4.525,83
21693272,1506895192074,,,,,,,,0.03,0.1,0.98,-3.1,0.0,0.0,800,0,,,,,,,,,,,,,,,,,,
21693292,1506895192102,,,,,,,,0.03,0.11,0.98,-3.1,-0.1,0.1,840,0,,,,,,,,,,,,,,,,,,
21693312,1506895192122,,,,,,,,0.03,0.12,0.98,-3.1,-0.0,0.2,840,0,,,,,,,,,,,,,,,,,,
21693332,1506895192142,,,,,,,,0.03,0.11,0.98,-3.0,-0.2,0.0,820,0,,,,,,,,,,,,,,,,,,
21693354,1506895192164,,,,,9,,,0.03,0.11,0.98,-3.0,-0.3,-0.2,840,0,0,0,0.0,35.48951,-119.544029,0.0,2.784,239.5,11,3,1.5,82,2.4667,0,0.0,6.8359,4.5267,83
21693373,1506895192183,,,,,,,,0.03,0.11,0.97,-3.0,-0.2,-0.2,840,0,,,,,,,,,,,,,,,,,,
21693393,1506895192203,,,,,,,,0.03,0.11,0.96,-3.0,-0.1,-0.1,840,0,,,,,,,,,,,,,,,,,,
21693413,1506895192223,,,,,,,,0.03,0.1,0.97,-3.1,-0.2,0.0,840,0,,,,,,,,,,,,,,,,,,
21693433,1506895192243,,,,,,,,0.03,0.11,0.98,-3.1,-0.2,0.1,860,0,,,,,,,,,,,,,,,,,,
21693455,1506895192265,0,223.6,,216.6,11,222.2,,0.03,0.13,0.98,-3.1,-0.2,0.0,860,0,0,0,0.0,35.48951,-119.544029,0.0,2.784,239.5,11,3,1.5,82,2.4667,0,0.0,6.8376,4.5283,83
21693474,1506895192284,,,,,,,,0.03,0.13,0.98,-3.1,-0.2,-0.1,860,0,,,,,,,,,,,,,,,,,,
21693494,1506895192304,,,,,,,,0.03,0.12,0.97,-3.1,-0.3,-0.2,860,0,,,,,,,,,,,,,,,,,,
21693514,1506895192324,,,,,,,,0.02,0.1,0.97,-3.2,-0.3,-0.2,860,0,,,,,,,,,,,,,,,,,,
21693534,1506895192344,,,,,,,,0.02,0.1,0.97,-3.1,-0.0,-0.2,860,0,,,,,,,,,,,,,,,,,,
21693556,1506895192366,,,,,10,,,0.02,0.1,0.97,-3.1,-0.2,-0.1,860,0,0,0,0.0,35.48951,-119.544029,0.0,2.784,239.5,11,3,1.5,82,2.4667,0,0.0,6.8393,4.53,83
21693575,1506895192385,,,,,,,,0.02,0.11,0.98,-3.1,-0.3,0.0,860,0,,,,,,,,,,,,,,,,,,
21693595,1506895192405,,,,,,,,0.02,0.12,0.98,-3.1,-0.2,0.1,860,0,,,,,,,,,,,,,,,,,,
21693615,1506895192425,,,,,,,,0.03,0.13,0.99,-3.1,-0.1,0.1,860,0,,,,,,,,,,,,,,,,,,
21693635,1506895192445,,,,,,,,0.03,0.12,0.98,-3.1,-0.2,0.0,860,0,,,,,,,,,,,,,,,,,,
21693657,1506895192467,0,223.5,,216.6,11,222.2,,0.02,0.12,0.97,-3.0,-0.4,-0.1,860,0,0,0,0.0,35.48951,-119.544029,0.0,2.784,239.5,11,3,1.5,82,2.4667,0,0.0,6.8409,4.5317,83
21693676,1506895192486,,,,,,,,0.02,0.12,0.96,-3.0,-0.4,-0.2,860,0,,,,,,,,,,,,,,,,,,
21693696,1506895192506,,,,,,,,0.01,0.1,0.96,-3.0,-0.2,-0.3,860,0,,,,,,,,,,,,,,,,,,
21693716,1506895192526,,,,,,,,0.02,0.11,0.96,-3.0,-0.1,-0.2,860,0,,,,,,,,,,,,,,,,,,
21693736,1506895192546,,,,,,,,0.02,0.1,0.97,-3.1,-0.1,-0.1,860,0,,,,,,,,,,,,,,,,,,
21693758,1506895192568,,,,,11,,,0.02,0.11,0.98,-3.1,-0.1,0.0,860,0,0,0,0.0,35.48951,-119.544029,0.0,2.784,239.5,11,3,1.5,82,2.4667,0,0.0,6.8426,4.5333,83
21693777,1506895192587,,,,,,,,0.02,0.12,0.99,-3.1,-0.0,0.0,860,0,,,,,,,,,,,,,,,,,,
21693797,1506895192607,,,,,,,,0.03,0.13,0.98,-3.1,0.0,0.0,860,0,,,,,,,,,,,,,,,,,,
21693817,1506895192627,,,,,,,,0.02,0.13,0.98,-3.1,-0.2,-0.0,860,0,,,,,,,,,,,,,,,,,,
21693837,1506895192647,,,,,,,,0.02,0.12,0.98,-3.1,-0.3,-0.1,860,0,,,,,,,,,,,,,,,,,,
21693859,1506895192669,0,223.2,,216.2,10,221.5,,0.01,0.1,0.97,-3.1,-0.2,-0.2,880,0,0,0,0.0,35.48951,-119.544029,0.0,2.784,239.5,11,3,1.5,82,2.4667,0,0.0,6.8443,4.535,83
21693878,1506895192688,,,,,,,,0.01,0.08,0.97,-3.1,-0.1,-0.2,840,0,,,,,,,,,,,,,,,,,,
21693898,1506895192708,,,,,,,,0.02,0.09,0.97,-3.1,-0.1,-0.1,840,0,,,,,,,,,,,,,,,,,,
21693918,1506895192728,,,,,,,,0.02,0.1,0.98,-3.2,-0.2,-0.0,860,0,,,,,,,,,,,,,,,,,,
21693938,1506895192748,,,,,,,,0.02,0.12,0.98,-3.2,-0.2,0.0,840,0,,,,,,,,,,,,,,,,,,
21693960,1506895192770,,,,,10,,,0.02,0.11,0.99,-3.2,-0.2,-0.0,840,2,0,0,0.0,35.48951,-119.544029,0.0,2.784,239.5,11,3,1.3,82,2.4667,0,0.0,6.8459,4.5367,83
21693979,1506895192789,,,,,,,,0.02,0.11,0.98,-3.1,-0.4,-0.2,840,2,,,,,,,,,,,,,,,,,,
21693999,1506895192808,,,,,,,,0.01,0.11,0.98,-3.1,-0.5,-0.4,820,2,,,,,,,,,,,,,,,,,,
21694019,1506895192828,,,,,,,,0.01,0.1,0.97,-3.1,-0.4,-0.4,840,2,,,,,,,,,,,,,,,,,,
21694039,1506895192848,,,,,,,,0.02,0.09,0.96,-3.1,-0.2,-0.2,840,2,,,,,,,,,,,,,,,,,,
21694061,1506895192870,0,223.1,1.9,216.1,11,221.3,13.45,0.02,0.1,0.97,-3.2,-0.2,-0.1,820,2,0,0,0.0,35.48951,-119.544029,0.0,2.784,239.5,11,3,1.3,82,2.4667,0,0.0,6.8476,4.5383,83
21694080,1506895192889,,,,,,,,0.02,0.12,0.98,-3.1,-0.3,0.0,840,2,,,,,,,,,,,,,,,,,,
21694100,1506895192909,,,,,,,,0.02,0.13,0.99,-3.1,-0.2,0.0,800,2,,,,,,,,,,,,,,,,,,
21694120,1506895192929,,,,,,,,0.02,0.12,0.98,-3.1,-0.3,-0.2,820,2,,,,,,,,,,,,,,,,,,
21694140,1506895192949,,,,,,,,0.01,0.11,0.98,-3.1,-0.3,-0.3,800,2,,,,,,,,,,,,,,,,,,
21694162,1506895192971,,,,,11,,,0.01,0.1,0.96,-3.1,-0.3,-0.2,800,2,0,0,0.0,35.48951,-119.544029,0.0,2.784,239.5,11,3,1.5,82,2.4667,0,0.0,6.8492,4.54,83
21694181,1506895192990,,,,,,,,0.02,0.1,0.96,-3.2,-0.1,-0.1,800,2,,,,,,,,,,,,,,,,,,
21694201,1506895193002,,,,,,,,0.02,0.12,0.97,-3.2,-0.3,0.0,800,2,,,,,,,,,,,,,,,,,,
21694221,1506895193022,,,,,,,,0.02,0.12,0.97,-3.2,-0.3,0.0,800,2,,,,,,,,,,,,,,,,,,
21694241,1506895193042,,,,,,,,0.02,0.12,0.97,-3.2,-0.4,-0.3,780,2,,,,,,,,,,,,,,,,,,
21694263,1506895193064,0,223.1,,216.4,10,221.3,,0.02,0.1,0.97,-3.2,-0.3,-0.3,780,2,0,0,0.0,35.48951,-119.544029,0.0,2.784,239.5,11,3,1.5,82,2.4667,0,0.0,6.8509,4.5417,83
21694282,1506895193093,,,,,,,,0.02,0.11,0.97,-3.3,-0.3,-0.2,780,2,,,,,,,,,,,,,,,,,,
21694302,1506895193113,,,,,,,,0.02,0.12,0.97,-3.3,-0.4,-0.1,780,2,,,,,,,,,,,,,,,,,,
21694322,1506895193133,,,,,,,,0.02,0.12,0.98,-3.2,-0.4,-0.1,780,2,,,,,,,,,,,,,,,,,,
21694342,1506895193153,,,,,,,,0.01,0.12,0.98,-3.2,-0.4,-0.3,780,2,,,,,,,,,,,,,,,,,,
21694364,1506895193175,,,,,10,,,0.01,0.1,0.98,-3.2,-0.4,-0.3,780,2,0,0,0.0,35.48951,-119.544029,0.0,2.784,239.5,11,3,1.5,82,2.4667,0,0.0,6.8526,4.5433,83
21694383,1506895193194,,,,,,,,0.02,0.12,0.97,-3.2,-0.3,-0.1,760,2,,,,,,,,,,,,,,,,,,
21694403,1506895193214,,,,,,,,0.02,0.12,0.98,-3.2,-0.4,-0.0,760,2,,,,,,,,,,,,,,,,,,
21694423,1506895193234,,,,,,,,0.02,0.11,0.98,-3.1,-0.5,-0.1,760,2,,,,,,,,,,,,,,,,,,
21694443,1506895193254,,,,,,,,0.02,0.11,0.98,-3.1,-0.4,-0.3,760,2,,,,,,,,,,,,,,,,,,
21694465,1506895193276,0,222.5,,215.9,10,221.0,,0.02,0.11,0.97,-3.1,-0.4,-0.3,740,2,0,0,0.0,35.48951,-119.544029,0.0,2.784,239.5,11,3,1.5,82,2.4667,0,0.0,6.8542,4.545,83
21694484,1506895193295,,,,,,,,0.02,0.1,0.97,-3.2,-0.4,-0.1,760,2,,,,,,,,,,,,,,,,,,
21694504,1506895193315,,,,,,,,0.02,0.11,0.97,-3.2,-0.3,-0.1,740,2,,,,,,,,,,,,,,,,,,
21694524,1506895193335,,,,,,,,0.02,0.11,0.97,-3.2,-0.3,-0.3,740,2,,,,,,,,,,,,,,,,,,
21694544,1506895193355,,,,,,,,0.01,0.1,0.97,-3.2,-0.4,-0.3,740,2,,,,,,,,,,,,,,,,,,
21694566,1506895193377,,,,,9,,,0.02,0.1,0.96,-3.2,-0.3,-0.1,720,2,0,0,0.0,35.48951,-119.544029,0.0,2.784,239.5,11,3,1.5,82,2.4667,0,0.0,6.8559,4.5467,83
21694585,1506895193394,,,,,,,,0.02,0.11,0.96,-3.2,-0.5,-0.0,720,2,,,,,,,,,,,,,,,,,,
21694605,1506895193414,,,,,,,,0.01,0.1,0.97,-3.3,-0.4,-0.3,720,2,,,,,,,,,,,,,,,,,,
21694625,1506895193434,,,,,,,,0.01,0.1,0.98,-3.3,-0.5,-0.3,720,2,,,,,,,,,,,,,,,,,,
21694645,1506895193454,,,,,,,,0.02,0.11,0.97,-3.4,-0.5,-0.1,720,2,,,,,,,,,,,,,,,,,,
21694667,1506895193476,0,222.6,,215.9,8,220.9,,0.01,0.11,0.97,-3.4,-0.5,-0.2,700,2,0,0,0.0,35.48951,-119.544029,0.0,2.784,239.5,11,3,1.5,82,2.4667,0,0.0,6.8576,4.5483,83
21694686,1506895193497,,,,,,,,0.01,0.1,0.98,-3.3,-0.4,-0.3,700,2,,,,,,,,,,,,,,,,,,
21694706,1506895193517,,,,,,,,0.01,0.11,0.98,-3.4,-0.4,-0.2,700,2,,,,,,,,,,,,,,,,,,
21694726,1506895193537,,,,,,,,0.01,0.11,0.98,-3.4,-0.3,-0.1,700,2,,,,,,,,,,,,,,,,,,
21694746,1506895193557,,,,,,,,0.0,0.11,0.98,-3.4,-0.5,-0.3,700,2,,,,,,,,,,,,,,,,,,
21694768,1506895193579,,,,,8,,,0.01,0.11,0.98,-3.4,-0.4,-0.2,700,2,0,0,0.0,35.48951,-119.544029,0.0,2.784,239.5,11,3,1.3,82,2.4667,0,0.0,6.8593,4.55,83
21694787,1506895193596,,,,,,,,0.01,0.12,0.98,-3.5,-0.3,-0.1,680,139860,,,,,,,,,,,,,,,,,,
21694807,1506895193616,,,,,,,,0.01,0.11,0.99,-3.5,-0.4,-0.1,700,0,,,,,,,,,,,,,,,,,,
21694827,1506895193636,,,,,,,,0.01,0.1,0.99,-3.5,-0.3,-0.3,700,0,,,,,,,,,,,,,,,,,,
21694847,1506895193656,,,,,,,,0.01,0.11,0.99,-3.5,-0.2,-0.2,660,0,,,,,,,,,,,,,,,,,,
21694869,1506895193678,0,222.5,,215.9,8,221.1,,0.01,0.11,0.99,-3.5,-0.2,-0.2,680,0,0,0,0.0,35.48951,-119.544029,0.0,2.784,239.5,11,3,1.3,82,2.4667,0,0.0,6.8609,4.5517,83
21694888,1506895193693,,,,,,,,-0.0,0.11,0.99,-3.5,-0.4,-0.3,680,20,,,,,,,,,,,,,,,,,,
21694908,1506895193713,,,,,,,,0.0,0.12,0.99,-3.6,-0.4,-0.3,660,20,,,,,,,,,,,,,,,,,,
21694928,1506895193733,,,,,,,,0.01,0.12,0.99,-3.6,-0.4,-0.2,660,20,,,,,,,,,,,,,,,,,,
21694948,1506895193753,,,,,,,,0.01,0.11,1.0,-3.6,-0.5,-0.3,660,20,,,,,,,,,,,,,,,,,,
21694970,1506895193775,,,,,8,,,0.01,0.13,0.99,-3.7,-0.5,-0.3,660,20,0,0,0.0,35.48951,-119.544029,0.0,2.784,239.5,11,3,1.3,82,2.4667,0,0.0,6.8626,4.5533,83
21694989,1506895193799,,,,,,,,0.01,0.13,0.99,-3.8,-0.3,-0.2,660,20,,,,,,,,,,,,,,,,,,
21695009,1506895193819,,,,,,,,0.0,0.12,0.99,-3.8,-0.4,-0.3,660,20,,,,,,,,,,,,,,,,,,
21695029,1506895193839,,,,,,,,0.0,0.13,0.99,-3.9,-0.3,-0.3,660,20,,,,,,,,,,,,,,,,,,
21695049,1506895193859,,,,,,,,0.0,0.12,0.98,-4.0,-0.3,-0.1,660,8,,,,,,,,,,,,,,,,,,
21695071,1506895193881,0,223.1,1.7,216.4,8,221.3,13.06,-0.01,0.11,0.98,-3.9,-0.4,-0.3,660,8,0,0,0.0,35.48951,-119.544029,0.0,2.784,239.5,11,3,1.3,82,2.4667,0,0.0,6.8643,4.555,83
21695090,1506895193898,,,,,,,,0.0,0.11,0.98,-4.0,-0.2,-0.3,660,8,,,,,,,,,,,,,,,,,,
21695110,1506895193918,,,,,,,,0.0,0.12,0.98,-4.0,-0.2,-0.2,660,8,,,,,,,,,,,,,,,,,,
21695130,1506895193938,,,,,,,,0.0,0.11,0.98,-4.0,-0.2,-0.2,660,8,,,,,,,,,,,,,,,,,,
21695150,1506895193958,,,,,,,,0.0,0.1,0.98,-4.1,-0.1,-0.3,660,15,,,,,,,,,,,,,,,,,,
21695172,1506895193980,,,,,7,,,0.0,0.12,0.97,-4.1,-0.0,-0.2,660,15,0,0,0.0,35.48951,-119.544029,0.0,2.784,239.5,11,3,1.3,82,2.4667,0,0.0,6.8659,4.5567,83
21695191,1506895193991,,,,,,,,0.01,0.11,0.97,-4.1,-0.1,-0.3,660,15,,,,,,,,,,,,,,,,,,
21695211,1506895194011,,,,,,,,0.0,0.1,0.99,-4.2,0.1,-0.3,660,15,,,,,,,,,,,,,,,,,,
21695231,1506895194031,,,,,,,,0.0,0.11,0.98,-4.3,0.0,-0.2,680,15,,,,,,,,,,,,,,,,,,
21695251,1506895194051,,,,,,,,0.0,0.11,0.98,-4.3,-0.0,-0.2,680,15,,,,,,,,,,,,,,,,,,
21695273,1506895194073,0,222.4,,215.9,8,220.9,,-0.0,0.11,0.98,-4.3,0.1,-0.3,680,15,0,0,0.0,35.48951,-119.544029,0.0,2.784,239.5,11,3,1.3,82,2.4667,0,0.0,6.8676,4.5583,83
21695292,1506895194102,,,,,,,,0.0,0.12,0.98,-4.5,-0.1,-0.2,660,15,,,,,,,,,,,,,,,,,,
21695312,1506895194122,,,,,,,,0.0,0.12,0.99,-4.5,-0.0,-0.2,680,15,,,,,,,,,,,,,,,,,,
21695332,1506895194142,,,,,,,,-0.01,0.12,0.98,-4.5,-0.1,-0.3,680,17,,,,,,,,,,,,,,,,,,
21695352,1506895194162,,,,,,,,-0.01,0.13,0.98,-4.7,-0.1,-0.2,680,17,,,,,,,,,,,,,,,,,,
21695374,1506895194184,,,,,8,,,-0.01,0.13,0.99,-4.7,-0.2,-0.2,660,17,0,0,0.0,35.48951,-119.544029,0.0,2.784,239.5,11,3,1.3,82,2.4667,0,0.0,6.8692,4.56,83
21695393,1506895194203,,,,,,,,-0.01,0.13,1.0,-4.7,-0.5,-0.3,680,17,,,,,,,,,,,,,,,,,,
21695413,1506895194223,,,,,,,,-0.01,0.13,0.99,-4.8,-0.3,-0.3,680,20,,,,,,,,,,,,,,,,,,
21695433,1506895194243,,,,,,,,-0.01,0.13,0.98,-4.9,-0.4,-0.1,680,20,,,,,,,,,,,,,,,,,,
21695453,1506895194263,,,,,,,,-0.0,0.11,0.98,-4.9,-0.6,-0.2,680,20,,,,,,,,,,,,,,,,,,
21695475,1506895194285,0,222.8,,216.5,9,221.5,,-0.0,0.1,0.98,-5.0,-0.4,-0.4,680,22,0,0,0.0,35.48951,-119.544029,0.0,2.784,239.5,11,3,1.3,82,2.4667,0,0.0,6.8709,4.5617,83
21695494,1506895194304,,,,,,,,-0.0,0.12,0.98,-5.1,-0.3,-0.2,680,22,,,,,,,,,,,,,,,,,,
21695514,1506895194324,,,,,,,,0.01,0.13,0.98,-5.2,-0.3,-0.1,700,22,,,,,,,,,,,,,,,,,,
21695534,1506895194344,,,,,,,,-0.0,0.11,0.99,-5.2,-0.3,-0.3,700,26,,,,,,,,,,,,,,,,,,
21695554,1506895194364,,,,,,,,-0.0,0.11,0.98,-5.3,-0.2,-0.3,700,26,,,,,,,,,,,,,,,,,,
21695576,1506895194386,,,,,8,,,0.0,0.12,0.98,-5.4,-0.1,-0.2,700,26,0,0,0.0,35.48951,-119.544029,0.0,2.784,239.5,11,3,1.3,82,2.4667,0,0.0,6.8726,4.5633,83
21695595,1506895194405,,,,,,,,-0.0,0.12,0.99,-5.4,-0.3,-0.4,700,26,,,,,,,,,,,,,,,,,,
21695615,1506895194425,,,,,,,,-0.0,0.11,0.98,-5.5,-0.1,-0.5,700,26,,,,,,,,,,,,,,,,,,
21695635,1506895194445,,,,,,,,-0.0,0.12,0.97,-5.6,-0.0,-0.3,700,26,,,,,,,,,,,,,,,,,,
21695655,1506895194465,,,,,,,,-0.0,0.12,0.97,-5.6,-0.1,-0.3,700,26,,,,,,,,,,,,,,,,,,
21695677,1506895194487,0,223.1,,216.7,8,221.2,,-0.01,0.11,0.97,-5.7,-0.0,-0.5,700,26,0,0,0.0,35.48951,-119.544029,0.0,2.784,239.5,11,3,1.3,82,2.4667,0,0.0,6.8742,4.565,83
21695696,1506895194506,,,,,,,,-0.01,0.12,0.98,-5.8,-0.0,-0.4,700,35,,,,,,,,,,,,,,,,,,
21695716,1506895194526,,,,,,,,-0.0,0.13,0.97,-5.9,0.0,-0.3,700,35,,,,,,,,,,,,,,,,,,
21695736,1506895194546,,,,,,,,-0.01,0.11,0.98,-5.9,-0.2,-0.4,700,28,,,,,,,,,,,,,,,,,,
21695756,1506895194566,,,,,,,,-0.01,0.11,0.98,-6.0,0.0,-0.5,700,28,,,,,,,,,,,,,,,,,,
21695778,1506895194588,,,,,8,,,-0.01,0.13,0.97,-6.1,0.1,-0.4,700,43,0,0,0.0,35.48951,-119.544029,0.0,2.784,239.5,11,3,1.3,82,2.4667,0,0.0,6.8759,4.5667,83
21695797,1506895194607,,,,,,,,-0.0,0.13,0.98,-6.2,0.0,-0.3,700,43,,,,,,,,,,,,,,,,,,
21695817,1506895194627,,,,,,,,-0.01,0.12,0.98,-6.2,-0.1,-0.5,700,28,,,,,,,,,,,,,,,,,,
21695837,1506895194647,,,,,,,,-0.01,0.12,0.99,-6.4,-0.2,-0.5,700,28,,,,,,,,,,,,,,,,,,
21695857,1506895194667,,,,,,,,-0.01,0.13,0.98,-6.5,-0.0,-0.3,700,48,,,,,,,,,,,,,,,,,,
21695879,1506895194689,0,222.6,,216.6,8,221.4,,-0.01,0.13,0.99,-6.5,-0.2,-0.4,700,48,0,0,0.0,35.48951,-119.544029,0.0,2.784,239.5,11,3,1.3,82,2.4667,0,0.0,6.8776,4.5683,83
21695898,1506895194708,,,,,,,,-0.01,0.12,0.99,-6.5,-0.1,-0.5,700,31,,,,,,,,,,,,,,,,,,
21695918,1506895194728,,,,,,,,-0.02,0.14,0.98,-6.7,-0.1,-0.3,700,31,,,,,,,,,,,,,,,,,,
21695938,1506895194748,,,,,,,,-0.02,0.14,0.99,-6.7,-0.1,-0.3,700,51,,,,,,,,,,,,,,,,,,
21695958,1506895194768,,,,,,,,-0.02,0.12,0.99,-6.8,-0.2,-0.5,700,51,,,,,,,,,,,,,,,,,,
21695980,1506895194790,,,,,8,,,-0.02,0.12,0.99,-6.9,-0.2,-0.4,700,37,0,0,0.0,35.48951,-119.544029,0.0,2.784,239.5,11,3,1.3,82,2.4667,0,0.0,6.8793,4.57,83
21695999,1506895194808,,,,,,,,-0.01,0.13,0.98,-7.0,-0.2,-0.3,680,43,,,,,,,,,,,,,,,,,,
21696019,1506895194828,,,,,,,,-0.01,0.12,0.99,-7.1,-0.3,-0.4,680,43,,,,,,,,,,,,,,,,,,
21696039,1506895194848,,,,,,,,-0.01,0.12,0.98,-7.2,-0.2,-0.4,680,54,,,,,,,,,,,,,,,,,,
21696059,1506895194868,,,,,,,,-0.01,0.13,0.97,-7.3,-0.2,-0.3,680,54,,,,,,,,,,,,,,,,,,
21696081,1506895194890,0,222.3,1.4,216.3,8,220.9,13.19,-0.02,0.12,0.97,-7.4,-0.3,-0.3,680,35,0,0,0.0,35.48951,-119.544029,0.0,2.784,239.5,11,3,1.3,82,2.4667,0,0.0,6.8809,4.5717,83
21696100,1506895194909,,,,,,,,-0.03,0.11,0.98,-7.5,-0.3,-0.5,680,63,,,,,,,,,,,,,,,,,,
21696120,1506895194929,,,,,,,,-0.02,0.13,0.98,-7.6,-0.3,-0.3,660,63,,,,,,,,,,,,,,,,,,
21696140,1506895194949,,,,,,,,-0.01,0.14,0.99,-7.7,-0.3,-0.3,660,43,,,,,,,,,,,,,,,,,,
21696160,1506895194969,,,,,,,,-0.02,0.12,0.99,-7.8,-0.4,-0.5,660,43,,,,,,,,,,,,,,,,,,
21696182,1506895194991,,,,,8,,,-0.01,0.14,0.99,-7.9,-0.4,-0.4,660,45,0,0,0.0,35.48951,-119.544029,0.0,2.784,239.5,11,3,1.3,82,2.4667,0,0.0,6.8826,4.5733,83
21696201,1506895195002,,,,,,,,-0.02,0.14,1.0,-8.0,-0.2,-0.3,660,69,,,,,,,,,,,,,,,,,,
21696221,1506895195022,,,,,,,,-0.02,0.13,1.01,-8.1,-0.2,-0.4,660,69,,,,,,,,,,,,,,,,,,
21696241,1506895195042,,,,,,,,-0.02,0.15,1.01,-8.3,-0.2,-0.3,660,46,,,,,,,,,,,,,,,,,,
21696261,1506895195062,,,,,,,,-0.02,0.14,0.99,-8.3,-0.1,-0.3,660,48,,,,,,,,,,,,,,,,,,
21696283,1506895195084,0,222.3,,216.3,7,220.7,,-0.03,0.12,0.99,-8.3,-0.2,-0.4,660,77,0,0,0.0,35.48951,-119.544029,0.0,2.784,239.5,11,3,1.3,82,2.4667,0,0.0,6.8843,4.575,83
21696302,1506895195109,,,,,,,,-0.02,0.13,0.99,-8.5,-0.2,-0.3,660,60,,,,,,,,,,,,,,,,,,
21696322,1506895195129,,,,,,,,-0.02,0.13,0.98,-8.6,-0.2,-0.2,660,60,,,,,,,,,,,,,,,,,,
21696342,1506895195149,,,,,,,,-0.03,0.12,0.98,-8.7,-0.5,-0.3,660,43,,,,,,,,,,,,,,,,,,
21696362,1506895195169,,,,,,,,-0.03,0.14,0.99,-8.9,-0.5,-0.3,640,75,,,,,,,,,,,,,,,,,,
21696384,1506895195195,,,,,8,,,-0.02,0.14,0.98,-8.9,-0.3,-0.2,660,77,0,0,0.0,35.489525,-119.544014,0.98,2.784,229.9,11,3,1.3,82,2.4667,0,0.0,6.887,4.5783,83
21696403,1506895195214,,,,,,,,-0.03,0.13,0.99,-9.0,-0.3,-0.3,660,49,,,,,,,,,,,,,,,,,,
21696423,1506895195234,,,,,,,,-0.02,0.13,0.99,-9.2,-0.3,-0.2,640,62,,,,,,,,,,,,,,,,,,
21696443,1506895195254,,,,,,,,-0.02,0.14,0.98,-9.3,-0.2,-0.2,660,86,,,,,,,,,,,,,,,,,,
21696463,1506895195274,,,,,,,,-0.03,0.12,0.98,-9.3,-0.2,-0.3,660,77,,,,,,,,,,,,,,,,,,
21696485,1506895195294,0,222.6,,216.2,8,220.9,,-0.03,0.12,0.98,-9.5,-0.2,-0.3,660,77,0,0,0.0,35.489525,-119.544014,1.23,2.784,230.1,11,3,1.3,82,2.4667,0,0.0,6.8886,4.58,83
21696504,1506895195313,,,,,,,,-0.02,0.13,0.97,-9.6,-0.2,-0.2,660,49,,,,,,,,,,,,,,,,,,
21696524,1506895195333,,,,,,,,-0.03,0.12,0.97,-9.7,-0.2,-0.4,660,69,,,,,,,,,,,,,,,,,,
21696544,1506895195353,,,,,,,,-0.03,0.12,0.98,-9.8,-0.1,-0.4,640,91,,,,,,,,,,,,,,,,,,
21696564,1506895195373,,,,,,,,-0.03,0.12,0.97,-9.9,0.0,-0.3,660,80,,,,,,,,,,,,,,,,,,
21696586,1506895195397,,,,,7,,,-0.03,0.11,0.97,-10.0,-0.2,-0.5,660,55,0,0,0.0,35.489525,-119.544014,1.13,2.784,230.2,11,3,1.3,82,2.4667,0,0.0,6.8903,4.5817,83
21696605,1506895195416,,,,,,,,-0.03,0.1,0.97,-10.2,-0.0,-0.4,660,71,,,,,,,,,,,,,,,,,,
21696625,1506895195436,,,,,,,,-0.03,0.12,0.98,-10.3,0.0,-0.3,660,94,,,,,,,,,,,,,,,,,,
21696645,1506895195456,,,,,,,,-0.03,0.11,0.97,-10.3,-0.0,-0.5,660,89,,,,,,,,,,,,,,,,,,
21696665,1506895195476,,,,,,,,-0.02,0.11,0.97,-10.5,0.1,-0.5,660,63,,,,,,,,,,,,,,,,,,
21696687,1506895195496,0,222.9,,216.7,8,221.4,,-0.02,0.12,0.97,-10.6,0.1,-0.4,660,66,0,0,0.0,35.489525,-119.544014,1.49,2.784,230.4,11,3,1.3,82,2.4667,0,0.0,6.892,4.5833,83
21696706,1506895195515,,,,,,,,-0.03,0.12,0.96,-10.7,-0.0,-0.5,660,92,,,,,,,,,,,,,,,,,,
21696726,1506895195535,,,,,,,,-0.02,0.11,0.97,-10.8,0.0,-0.5,660,98,,,,,,,,,,,,,,,,,,
21696746,1506895195555,,,,,,,,-0.02,0.12,0.97,-10.9,0.0,-0.4,660,83,,,,,,,,,,,,,,,,,,
21696766,1506895195575,,,,,,,,-0.02,0.12,0.97,-10.9,-0.1,-0.5,660,65,,,,,,,,,,,,,,,,,,
21696788,1506895195599,,,,,8,,,-0.02,0.12,0.97,-11.0,-0.0,-0.5,660,98,0,0,0.0,35.489529,-119.544014,1.47,2.784,230.5,11,3,1.3,82,2.4667,0,0.0,6.8936,4.585,83
21696807,1506895195618,,,,,,,,-0.02,0.12,0.96,-11.2,-0.0,-0.4,660,102,,,,,,,,,,,,,,,,,,
21696827,1506895195638,,,,,,,,-0.02,0.12,0.96,-11.2,-0.2,-0.5,660,85,,,,,,,,,,,,,,,,,,
21696847,1506895195658,,,,,,,,-0.02,0.11,0.96,-11.3,-0.0,-0.5,660,69,,,,,,,,,,,,,,,,,,
21696867,1506895195678,,,,,,,,-0.02,0.13,0.96,-11.5,-0.0,-0.3,660,85,,,,,,,,,,,,,,,,,,
21696889,1506895195696,0,222.5,,216.0,8,220.7,,-0.02,0.13,0.96,-11.5,-0.2,-0.4,640,106,0,0,0.0,35.489529,-119.544014,1.54,2.784,230.5,11,3,1.3,82,2.4667,0,0.0,6.8953,4.5867,83
21696908,1506895195715,,,,,,,,-0.02,0.12,0.96,-11.6,-0.0,-0.5,640,91,,,,,,,,,,,,,,,,,,
21696928,1506895195735,,,,,,,,-0.02,0.13,0.96,-11.7,-0.0,-0.3,660,74,,,,,,,,,,,,,,,,,,
21696948,1506895195755,,,,,,,,-0.02,0.12,0.96,-11.7,-0.1,-0.4,660,83,,,,,,,,,,,,,,,,,,
21696968,1506895195775,,,,,,,,-0.03,0.12,0.96,-11.9,-0.0,-0.4,660,103,,,,,,,,,,,,,,,,,,
21696990,1506895195800,,,,,7,,,-0.03,0.13,0.95,-12.0,-0.1,-0.3,660,103,0,0,0.0,35.489529,-119.544014,1.71,2.784,230.6,11,3,1.5,82,2.4667,0,0.0,6.8969,4.5883,83
21697009,1506895195819,,,,,,,,-0.03,0.12,0.95,-12.1,-0.2,-0.3,660,85,,,,,,,,,,,,,,,,,,
21697029,1506895195839,,,,,,,,-0.03,0.12,0.96,-12.2,-0.1,-0.4,660,82,,,,,,,,,,,,,,,,,,
21697049,1506895195859,,,,,,,,-0.03,0.14,0.95,-12.4,-0.1,-0.2,660,115,,,,,,,,,,,,,,,,,,
21697069,1506895195879,,,,,,,,-0.03,0.14,0.95,-12.5,-0.2,-0.3,640,115,,,,,,,,,,,,,,,,,,
21697091,1506895195901,0,222.3,1.0,216.2,8,220.5,13.27,-0.04,0.13,0.96,-12.6,0.0,-0.4,640,103,0,0,0.0,35.489529,-119.544014,1.82,2.784,230.6,11,3,1.5,82,2.4667,0,0.0,6.8986,4.59,83
21697110,1506895195920,,,,,,,,-0.03,0.14,0.95,-12.8,-0.2,-0.3,660,88,,,,,,,,,,,,,,,,,,
21697130,1506895195940,,,,,,,,-0.03,0.14,0.95,-12.9,-0.3,-0.3,640,108,,,,,,,,,,,,,,,,,,
21697150,1506895195960,,,,,,,,-0.04,0.14,0.96,-13.0,-0.2,-0.4,640,120,,,,,,,,,,,,,,,,,,
21697170,1506895195980,,,,,,,,-0.04,0.15,0.96,-13.2,-0.3,-0.3,660,108,,,,,,,,,,,,,,,,,,
21697192,1506895195994,,,,,7,,,-0.04,0.14,0.96,-13.3,-0.5,-0.3,660,92,0,0,0.0,35.489529,-119.543999,1.97,2.784,230.7,11,3,1.5,82,2.4667,0,0.0,6.8997,4.5917,83
21697211,1506895196013,,,,,,,,-0.04,0.14,0.98,-13.4,-0.5,-0.4,660,94,,,,,,,,,,,,,,,,,,
21697231,1506895196033,,,,,,,,-0.04,0.15,0.97,-13.7,-0.5,-0.3,660,122,,,,,,,,,,,,,,,,,,
21697251,1506895196053,,,,,,,,-0.04,0.15,0.97,-13.7,-0.7,-0.3,640,114,,,,,,,,,,,,,,,,,,
21697271,1506895196073,,,,,,,,-0.04,0.14,0.98,-13.8,-0.6,-0.4,640,100,,,,,,,,,,,,,,,,,,
21697293,1506895196103,0,222.3,,216.4,7,220.9,,-0.04,0.16,0.96,-14.0,-0.6,-0.2,660,98,0,0,0.0,35.489529,-119.543999,1.91,2.784,230.7,11,3,1.5,82,2.4667,0,0.0,6.9014,4.5933,83
21697312,1506895196122,,,,,,,,-0.03,0.14,0.96,-14.0,-0.7,-0.3,640,123,,,,,,,,,,,,,,,,,,
21697332,1506895196142,,,,,,,,-0.03,0.14,0.96,-14.1,-0.7,-0.3,640,123,,,,,,,,,,,,,,,,,,
21697352,1506895196162,,,,,,,,-0.03,0.16,0.95,-14.3,-0.7,-0.2,640,112,,,,,,,,,,,,,,,,,,
21697372,1506895196182,,,,,,,,-0.03,0.15,0.95,-14.4,-0.9,-0.3,640,106,,,,,,,,,,,,,,,,,,
21697394,1506895196204,,,,,7,,,-0.03,0.14,0.96,-14.5,-0.8,-0.4,640,122,0,0,0.0,35.489529,-119.543999,1.9,2.784,230.7,11,3,1.5,82,2.4667,0,0.0,6.903,4.595,83
21697413,1506895196223,,,,,,,,-0.04,0.16,0.95,-14.7,-0.8,-0.3,640,129,,,,,,,,,,,,,,,,,,
21697433,1506895196243,,,,,,,,-0.03,0.15,0.94,-14.8,-1.1,-0.4,640,123,,,,,,,,,,,,,,,,,,
21697453,1506895196263,,,,,,,,-0.03,0.15,0.95,-14.9,-1.0,-0.5,640,112,,,,,,,,,,,,,,,,,,
21697473,1506895196283,,,,,,,,-0.03,0.16,0.95,-15.0,-1.0,-0.4,640,118,,,,,,,,,,,,,,,,,,
21697495,1506895196305,0,222.5,,216.5,7,221.1,,-0.04,0.15,0.94,-15.1,-1.0,-0.5,640,129,0,0,0.0,35.489529,-119.543999,2.17,2.784,230.8,11,3,1.5,82,2.4667,0,0.0,6.9047,4.5967,83
21697514,1506895196324,,,,,,,,-0.04,0.16,0.96,-15.4,-1.0,-0.5,640,123,,,,,,,,,,,,,,,,,,
21697534,1506895196344,,,,,,,,-0.04,0.18,0.95,-15.5,-0.7,-0.4,640,120,,,,,,,,,,,,,,,,,,
21697554,1506895196364,,,,,,,,-0.05,0.16,0.95,-15.6,-0.7,-0.5,640,126,,,,,,,,,,,,,,,,,,
21697574,1506895196384,,,,,,,,-0.04,0.17,0.96,-15.8,-0.5,-0.5,640,135,,,,,,,,,,,,,,,,,,
21697596,1506895196406,,,,,7,,,-0.04,0.16,0.98,-15.9,-0.4,-0.5,640,132,0,0,0.0,35.489529,-119.543999,2.38,2.785,230.9,11,3,1.5,82,2.4667,0,0.0,6.9064,4.5983,83
21697615,1506895196425,,,,,,,,-0.05,0.14,0.96,-16.0,-0.4,-0.6,640,131,,,,,,,,,,,,,,,,,,
21697635,1506895196445,,,,,,,,-0.05,0.15,0.97,-16.1,-0.2,-0.5,620,132,,,,,,,,,,,,,,,,,,
21697655,1506895196465,,,,,,,,-0.05,0.15,0.98,-16.2,-0.0,-0.4,640,138,,,,,,,,,,,,,,,,,,
21697675,1506895196485,,,,,,,,-0.05,0.13,0.99,-16.2,-0.0,-0.4,640,135,,,,,,,,,,,,,,,,,,
21697697,1506895196507,0,221.9,,215.7,7,220.3,,-0.04,0.15,0.99,-16.4,-0.2,-0.3,640,132,0,0,0.0,35.489529,-119.543999,2.65,2.785,231.0,11,3,1.3,82,2.4667,0,0.0,6.908,4.6,83
21697716,1506895196526,,,,,,,,-0.03,0.15,0.99,-16.5,-0.3,-0.3,640,135,,,,,,,,,,,,,,,,,,
21697736,1506895196546,,,,,,,,-0.03,0.13,1.0,-16.6,-0.3,-0.4,640,142,,,,,,,,,,,,,,,,,,
21697756,1506895196566,,,,,,,,-0.01,0.15,0.99,-16.8,-0.2,-0.3,620,140,,,,,,,,,,,,,,,,,,
21697776,1506895196586,,,,,,,,-0.0,0.16,0.98,-16.9,-0.4,-0.2,640,137,,,,,,,,,,,,,,,,,,
21697798,1506895196608,,,,,7,,,-0.01,0.15,1.0,-17.1,-0.2,-0.3,640,143,0,0,0.0,35.489532,-119.543999,2.29,2.785,230.9,11,3,1.3,82,2.4667,0,0.0,6.9097,4.6017,83
21697817,1506895196627,,,,,,,,-0.01,0.17,0.99,-17.3,-0.1,-0.1,620,152,,,,,,,,,,,,,,,,,,
21697837,1506895196647,,,,,,,,-0.01,0.17,1.0,-17.4,-0.3,-0.1,620,149,,,,,,,,,,,,,,,,,,
21697857,1506895196667,,,,,,,,-0.02,0.16,1.02,-17.6,-0.3,-0.1,620,140,,,,,,,,,,,,,,,,,,
21697877,1506895196687,,,,,,,,-0.03,0.17,1.0,-17.7,-0.5,-0.0,640,142,,,,,,,,,,,,,,,,,,
21697899,1506895196709,0,222.5,,216.5,8,220.4,,-0.04,0.14,0.99,-17.8,-0.8,-0.2,640,157,0,0,0.0,35.489532,-119.543999,2.55,2.785,230.9,11,3,1.3,82,2.4667,0,0.0,6.9113,4.6033,83
21697918,1506895196728,,,,,,,,-0.04,0.14,0.98,-17.9,-1.0,-0.2,640,152,,,,,,,,,,,,,,,,,,
21697938,1506895196748,,,,,,,,-0.04,0.16,0.97,-18.1,-1.1,-0.1,620,146,,,,,,,,,,,,,,,,,,
21697958,1506895196768,,,,,,,,-0.04,0.14,0.97,-18.1,-1.2,-0.3,620,143,,,,,,,,,,,,,,,,,,
21697978,1506895196788,,,,,,,,-0.04,0.15,0.98,-18.4,-1.1,-0.1,640,160,,,,,,,,,,,,,,,,,,
21698000,1506895196809,,,,,7,,,-0.04,0.15,0.99,-18.5,-0.8,-0.1,620,163,0,0,0.0,35.489532,-119.543999,2.61,2.785,230.9,11,3,1.3,82,2.4667,0,0.0,6.913,4.605,83
21698019,1506895196828,,,,,,,,-0.05,0.13,1.01,-18.6,-0.8,-0.3,620,155,,,,,,,,,,,,,,,,,,
21698039,1506895196848,,,,,,,,-0.04,0.14,1.03,-18.8,-0.5,-0.2,640,151,,,,,,,,,,,,,,,,,,
21698059,1506895196868,,,,,,,,-0.03,0.14,1.01,-18.9,-0.5,-0.1,620,158,,,,,,,,,,,,,,,,,,
21698079,1506895196888,,,,,,,,-0.03,0.13,1.0,-19.1,-0.4,-0.3,620,169,,,,,,,,,,,,,,,,,,
21698101,1506895196910,0,221.8,0.7,215.8,7,220.2,13.24,-0.02,0.15,0.98,-19.3,-0.6,-0.1,640,166,0,0,0.0,35.489532,-119.543999,2.72,2.785,231.0,11,3,1.3,82,2.4667,0,0.0,6.9147,4.6067,83
21698120,1506895196929,,,,,,,,-0.0,0.16,0.97,-19.3,-0.7,-0.1,620,155,,,,,,,,,,,,,,,,,,
21698140,1506895196949,,,,,,,,-0.0,0.15,0.98,-19.4,-0.5,-0.3,620,154,,,,,,,,,,,,,,,,,,
21698160,1506895196969,,,,,,,,-0.0,0.17,0.98,-19.6,-0.4,-0.3,640,172,,,,,,,,,,,,,,,,,,
21698180,1506895196989,,,,,,,,-0.01,0.17,0.98,-19.7,-0.5,-0.4,620,175,,,,,,,,,,,,,,,,,,
21698202,1506895197003,,,,,9,,,-0.01,0.16,1.0,-19.8,-0.5,-0.5,620,168,0,0,0.0,35.489536,-119.543999,2.95,2.785,231.1,11,3,1.3,82,2.4667,0,0.0,6.9163,4.6083,83
21698221,1506895197022,,,,,,,,-0.02,0.17,0.99,-20.0,-0.6,-0.5,640,163,,,,,,,,,,,,,,,,,,
21698241,1506895197042,,,,,,,,-0.02,0.16,0.98,-20.1,-0.8,-0.6,640,168,,,,,,,,,,,,,,,,,,
21698261,1506895197062,,,,,,,,-0.02,0.15,1.0,-20.2,-0.9,-0.6,640,178,,,,,,,,,,,,,,,,,,
21698281,1506895197082,,,,,,,,-0.02,0.17,0.97,-20.3,-1.0,-0.5,640,174,,,,,,,,,,,,,,,,,,
21698303,1506895197110,0,222.5,,216.5,7,220.9,,-0.03,0.16,0.96,-20.4,-1.2,-0.7,640,165,0,0,0.0,35.489536,-119.543999,3.08,2.785,231.3,11,3,1.3,82,2.4667,0,0.0,6.918,4.61,83
21698322,1506895197129,,,,,,,,-0.02,0.16,0.97,-20.6,-1.1,-0.7,640,165,,,,,,,,,,,,,,,,,,
21698342,1506895197149,,,,,,,,-0.02,0.18,0.96,-20.7,-1.0,-0.6,660,180,,,,,,,,,,,,,,,,,,
21698362,1506895197169,,,,,,,,-0.03,0.16,0.95,-20.8,-1.2,-0.7,640,183,,,,,,,,,,,,,,,,,,
21698382,1506895197191,,,,,,,,-0.03,0.16,0.96,-21.0,-1.0,-0.7,640,177,,,,,,,,,,,,,,,,,,
21698404,1506895197213,,,,,8,,,-0.04,0.17,0.97,-21.0,-0.8,-0.6,660,175,0,0,0.0,35.48954,-119.543991,3.14,2.785,231.4,11,3,1.3,82,2.4667,0,0.0,6.9194,4.6117,83
21698423,1506895197232,,,,,,,,-0.04,0.16,0.97,-21.0,-0.8,-0.6,640,177,,,,,,,,,,,,,,,,,,
21698443,1506895197252,,,,,,,,-0.03,0.16,0.97,-21.2,-0.7,-0.6,640,186,,,,,,,,,,,,,,,,,,
21698463,1506895197272,,,,,,,,-0.03,0.17,0.97,-21.3,-0.5,-0.4,660,185,,,,,,,,,,,,,,,,,,
21698483,1506895197292,,,,,,,,-0.04,0.16,0.99,-21.4,-0.5,-0.5,660,178,,,,,,,,,,,,,,,,,,
21698505,1506895197314,0,221.8,,215.9,7,220.4,,-0.03,0.16,0.99,-21.6,-0.4,-0.5,660,183,0,0,0.0,35.48954,-119.543991,3.27,2.785,231.6,11,3,1.3,82,2.4667,0,0.0,6.921,4.6133,83
21698524,1506895197333,,,,,,,,-0.03,0.17,0.98,-21.8,-0.3,-0.3,660,189,,,,,,,,,,,,,,,,,,
21698544,1506895197353,,,,,,,,-0.03,0.17,0.99,-21.9,-0.5,-0.4,640,191,,,,,,,,,,,,,,,,,,
21698564,1506895197373,,,,,,,,-0.03,0.17,0.99,-22.1,-0.5,-0.5,640,188,,,,,,,,,,,,,,,,,,
21698584,1506895197393,,,,,,,,-0.02,0.18,0.98,-22.2,-0.7,-0.5,660,189,,,,,,,,,,,,,,,,,,
21698606,1506895197415,,,,,8,,,-0.02,0.17,0.99,-22.3,-0.7,-0.6,660,191,0,0,0.0,35.48954,-119.543991,3.37,2.785,231.7,11,3,1.3,82,2.4667,0,0.0,6.9227,4.615,83
21698625,1506895197434,,,,,,,,-0.02,0.17,0.99,-22.4,-0.5,-0.6,660,195,,,,,,,,,,,,,,,,,,
21698645,1506895197454,,,,,,,,-0.03,0.18,0.97,-22.5,-0.5,-0.4,660,195,,,,,,,,,,,,,,,,,,
21698665,1506895197474,,,,,,,,-0.03,0.18,0.98,-22.6,-0.6,-0.4,660,191,,,,,,,,,,,,,,,,,,
21698685,1506895197494,,,,,,,,-0.03,0.17,0.98,-22.8,-0.4,-0.6,660,195,,,,,,,,,,,,,,,,,,
21698707,1506895197516,0,222.3,,216.2,8,220.4,,-0.02,0.19,0.97,-22.9,-0.5,-0.4,660,200,0,0,0.0,35.489544,-119.543991,3.74,2.785,231.9,11,3,1.3,82,2.4667,0,0.0,6.9243,4.6167,83
21698726,1506895197535,,,,,,,,-0.02,0.18,0.97,-23.0,-0.7,-0.4,640,203,,,,,,,,,,,,,,,,,,
21698746,1506895197555,,,,,,,,-0.02,0.17,0.98,-23.2,-0.7,-0.5,640,197,,,,,,,,,,,,,,,,,,
21698766,1506895197575,,,,,,,,-0.02,0.18,0.96,-23.4,-0.8,-0.3,660,198,,,,,,,,,,,,,,,,,,
21698786,1506895197595,,,,,,,,-0.02,0.17,0.96,-23.4,-0.8,-0.2,660,197,,,,,,,,,,,,,,,,,,
21698808,1506895197617,,,,,8,,,-0.02,0.17,0.97,-23.5,-0.7,-0.3,660,198,0,0,0.0,35.489544,-119.543991,3.64,2.786,232.0,11,3,1.3,82,2.4667,0,0.0,6.926,4.6183,83
21698827,1506895197636,,,,,,,,-0.01,0.19,0.97,-23.7,-0.8,-0.1,660,198,,,,,,,,,,,,,,,,,,
21698847,1506895197656,,,,,,,,-0.01,0.18,0.96,-23.8,-0.8,-0.1,660,203,,,,,,,,,,,,,,,,,,
21698867,1506895197676,,,,,,,,-0.02,0.17,0.98,-23.9,-0.8,-0.2,660,203,,,,,,,,,,,,,,,,,,
21698887,1506895197698,,,,,,,,-0.02,0.19,0.97,-24.1,-0.9,-0.0,660,202,,,,,,,,,,,,,,,,,,
21698909,1506895197720,0,221.4,,215.4,8,220.0,,-0.02,0.17,0.96,-24.2,-1.0,0.1,660,205,0,0,0.0,35.489548,-119.543991,3.79,2.786,232.0,11,3,1.3,82,2.4667,0,0.0,6.9276,4.62,83
21698928,1506895197739,,,,,,,,-0.03,0.17,0.98,-24.2,-1.0,0.0,660,208,,,,,,,,,,,,,,,,,,
21698948,1506895197759,,,,,,,,-0.01,0.19,0.97,-24.4,-1.1,0.1,660,203,,,,,,,,,,,,,,,,,,
21698968,1506895197779,,,,,,,,-0.01,0.18,0.97,-24.6,-1.1,0.1,680,206,,,,,,,,,,,,,,,,,,
21698988,1506895197798,,,,,,,,-0.01,0.17,0.99,-24.6,-1.1,-0.0,680,211,,,,,,,,,,,,,,,,,,
21699010,1506895197820,,,,,8,,,-0.0,0.18,0.99,-24.7,-1.2,0.0,680,206,0,0,0.0,35.489548,-119.543991,3.91,2.786,232.0,11,3,1.3,82,2.4667,0,0.0,6.9293,4.6217,83
21699029,1506895197839,,,,,,,,0.0,0.19,0.97,-24.9,-1.1,0.1,680,211,,,,,,,,,,,,,,,,,,
21699049,1506895197859,,,,,,,,0.0,0.16,0.98,-24.9,-1.3,0.0,700,215,,,,,,,,,,,,,,,,,,
21699069,1506895197879,,,,,,,,0.01,0.17,0.98,-25.0,-1.1,-0.0,700,218,,,,,,,,,,,,,,,,,,
21699089,1506895197899,,,,,,,,0.02,0.18,0.97,-25.1,-1.0,0.1,700,212,,,,,,,,,,,,,,,,,,
21699111,1506895197921,0,221.7,0.7,215.6,8,220.2,13.33,0.02,0.18,0.96,-25.3,-1.3,0.1,700,217,0,0,0.0,35.489548,-119.543991,3.83,2.786,232.1,11,3,1.3,82,2.4667,0,0.0,6.931,4.6233,83
21699130,1506895197940,,,,,,,,0.01,0.16,0.98,-25.3,-1.2,-0.0,700,220,,,,,,,,,,,,,,,,,,
21699150,1506895197960,,,,,,,,0.01,0.17,0.97,-25.5,-1.3,-0.0,700,214,,,,,,,,,,,,,,,,,,
21699170,1506895197980,,,,,,,,0.02,0.17,0.96,-25.6,-1.3,0.0,700,215,,,,,,,,,,,,,,,,,,
21699190,1506895197992,,,,,,,,0.02,0.17,0.98,-25.6,-1.3,-0.1,700,220,,,,,,,,,,,,,,,,,,
21699212,1506895198014,,,,,9,,,0.02,0.17,0.98,-25.7,-1.1,-0.2,700,220,0,0,0.0,35.489548,-119.543991,3.95,2.786,232.1,11,3,1.3,82,2.4667,0,0.0,6.9327,4.625,83
21699231,1506895198033,,,,,,,,0.02,0.19,0.97,-25.7,-1.0,-0.1,720,217,,,,,,,,,,,,,,,,,,
21699251,1506895198053,,,,,,,,0.02,0.19,0.97,-25.8,-1.0,0.0,700,220,,,,,,,,,,,,,,,,,,
21699271,1506895198073,,,,,,,,0.01,0.18,0.98,-25.8,-1.2,-0.2,720,222,,,,,,,,,,,,,,,,,,
21699291,1506895198097,,,,,,,,0.01,0.18,0.98,-26.0,-1.2,-0.2,720,218,,,,,,,,,,,,,,,,,,
21699313,1506895198119,0,221.6,,215.7,7,220.0,,0.02,0.19,0.97,-26.1,-1.2,-0.1,700,217,0,0,0.0,35.489552,-119.543991,4.13,2.786,232.2,11,3,1.3,82,2.4667,0,0.0,6.9343,4.6267,83
21699332,1506895198138,,,,,,,,0.02,0.19,0.97,-26.2,-1.3,-0.2,720,218,,,,,,,,,,,,,,,,,,
21699352,1506895198158,,,,,,,,0.02,0.19,0.98,-26.3,-1.3,-0.4,720,223,,,,,,,,,,,,,,,,,,
21699372,1506895198178,,,,,,,,0.02,0.19,0.98,-26.4,-1.2,-0.4,720,222,,,,,,,,,,,,,,,,,,
21699392,1506895198202,,,,,,,,0.02,0.19,0.99,-26.5,-1.4,-0.3,720,218,,,,,,,,,,,,,,,,,,
21699414,1506895198224,,,,,9,,,0.01,0.18,0.99,-26.5,-1.5,-0.4,720,223,0,0,0.0,35.489555,-119.543991,4.37,2.786,232.3,11,3,1.3,82,2.4667,0,0.0,6.936,4.6283,83
21699433,1506895198243,,,,,,,,0.02,0.18,1.0,-26.6,-1.3,-0.6,720,226,,,,,,,,,,,,,,,,,,
21699453,1506895198263,,,,,,,,0.02,0.19,0.99,-26.7,-1.2,-0.6,720,225,,,,,,,,,,,,,,,,,,
21699473,1506895198283,,,,,,,,0.02,0.19,1.0,-26.8,-1.2,-0.5,720,226,,,,,,,,,,,,,,,,,,
21699493,1506895198303,,,,,,,,0.01,0.17,1.0,-26.8,-1.4,-0.7,740,228,,,,,,,,,,,,,,,,,,
21699515,1506895198325,0,221.4,,215.4,8,219.6,,0.01,0.17,1.0,-26.8,-1.2,-0.8,740,228,0,0,0.0,35.489555,-119.543991,4.31,2.786,232.5,11,3,1.3,82,2.4667,0,0.0,6.9376,4.63,83
21699534,1506895198344,,,,,,,,0.02,0.18,1.0,-26.9,-1.0,-0.7,740,225,,,,,,,,,,,,,,,,,,
21699554,1506895198364,,,,,,,,0.03,0.18,0.99,-26.9,-1.0,-0.5,740,228,,,,,,,,,,,,,,,,,,
21699574,1506895198384,,,,,,,,0.02,0.17,1.0,-27.0,-1.1,-0.6,740,231,,,,,,,,,,,,,,,,,,
21699594,1506895198404,,,,,,,,0.03,0.18,1.0,-27.0,-1.1,-0.8,740,229,,,,,,,,,,,,,,,,,,
21699616,1506895198426,,,,,9,,,0.04,0.19,0.99,-27.0,-1.1,-0.6,740,228,0,0,0.0,35.489559,-119.543991,3.62,2.786,232.8,11,3,1.3,82,2.4667,0,0.0,6.9393,4.6317,83
21699635,1506895198445,,,,,,,,0.04,0.19,0.99,-27.1,-1.1,-0.4,740,228,,,,,,,,,,,,,,,,,,
21699655,1506895198465,,,,,,,,0.03,0.18,0.99,-27.1,-1.3,-0.3,740,228,,,,,,,,,,,,,,,,,,
21699675,1506895198485,,,,,,,,0.03,0.19,0.99,-27.1,-1.3,-0.5,740,232,,,,,,,,,,,,,,,,,,
21699695,1506895198501,,,,,,,,0.03,0.18,0.97,-27.2,-1.1,-0.2,740,232,,,,,,,,,,,,,,,,,,
21699717,1506895198523,0,221.9,,216.2,10,220.4,,0.04,0.18,0.97,-27.2,-1.2,-0.0,740,229,0,0,0.0,35.489559,-119.543991,4.57,2.787,232.9,11,3,1.3,82,2.4667,0,0.0,6.9409,4.6333,83
21699736,1506895198542,,,,,,,,0.04,0.19,0.97,-27.3,-1.2,-0.0,740,229,,,,,,,,,,,,,,,,,,
21699756,1506895198562,,,,,,,,0.04,0.19,0.97,-27.3,-1.3,-0.2,740,232,,,,,,,,,,,,,,,,,,
21699776,1506895198582,,,,,,,,0.04,0.18,0.97,-27.4,-1.4,-0.2,740,234,,,,,,,,,,,,,,,,,,
21699796,1506895198606,,,,,,,,0.04,0.19,0.95,-27.5,-1.5,-0.0,760,231,,,,,,,,,,,,,,,,,,
21699818,1506895198628,,,,,9,,,0.04,0.2,0.96,-27.5,-1.6,-0.0,760,229,0,0,0.0,35.489563,-119.543991,4.47,2.787,233.0,11,3,1.3,82,2.4667,0,0.0,6.9426,4.635,83
21699837,1506895198647,,,,,,,,0.03,0.18,0.96,-27.6,-1.5,-0.3,760,234,,,,,,,,,,,,,,,,,,
21699857,1506895198667,,,,,,,,0.04,0.19,0.96,-27.6,-1.3,-0.5,760,235,,,,,,,,,,,,,,,,,,
21699877,1506895198687,,,,,,,,0.04,0.2,0.96,-27.7,-1.2,-0.4,760,232,,,,,,,,,,,,,,,,,,
21699897,1506895198707,,,,,,,,0.05,0.19,0.95,-27.8,-1.3,-0.4,760,231,,,,,,,,,,,,,,,,,,
21699919,1506895198729,0,221.5,,216.1,9,220.4,,0.04,0.18,0.96,-27.8,-1.4,-0.7,760,232,0,0,0.0,35.489563,-119.543976,4.49,2.787,233.2,11,3,1.3,82,2.4667,0,0.0,6.9437,4.6367,83
21699938,1506895198748,,,,,,,,0.03,0.17,0.96,-27.8,-1.5,-0.9,760,237,,,,,,,,,,,,,,,,,,
21699958,1506895198768,,,,,,,,0.04,0.17,0.95,-27.8,-1.5,-0.9,760,232,,,,,,,,,,,,,,,,,,
21699978,1506895198788,,,,,,,,0.04,0.17,0.96,-27.9,-1.4,-0.8,740,231,,,,,,,,,,,,,,,,,,
21699998,1506895198807,,,,,,,,0.04,0.17,0.97,-27.9,-1.3,-0.7,760,234,,,,,,,,,,,,,,,,,,
21700020,1506895198829,,,,,9,,,0.04,0.18,0.96,-27.9,-1.4,-0.9,760,235,0,0,0.0,35.489567,-119.543976,4.65,2.787,233.3,11,3,1.3,82,2.4667,0,0.0,6.9453,4.6383,83
21700039,1506895198848,,,,,,,,0.04,0.17,0.97,-28.0,-1.4,-0.8,760,235,,,,,,,,,,,,,,,,,,
21700059,1506895198868,,,,,,,,0.04,0.17,0.96,-28.1,-1.3,-0.5,760,232,,,,,,,,,,,,,,,,,,
21700079,1506895198888,,,,,,,,0.04,0.19,0.96,-28.2,-1.5,-0.3,760,231,,,,,,,,,,,,,,,,,,
21700099,1506895198910,,,,,,,,0.03,0.17,0.96,-28.2,-1.4,-0.4,760,234,,,,,,,,,,,,,,,,,,
21700121,1506895198932,0,220.7,0.2,215.1,10,219.4,13.42,0.04,0.17,0.96,-28.2,-1.3,-0.4,760,235,0,0,0.0,35.489567,-119.543976,4.45,2.787,233.5,11,3,1.3,82,2.4667,0,0.0,6.947,4.64,83
21700140,1506895198951,,,,,,,,0.04,0.17,0.96,-28.2,-1.3,-0.3,760,235,,,,,,,,,,,,,,,,,,
21700160,1506895198971,,,,,,,,0.05,0.17,0.95,-28.3,-1.4,-0.1,760,232,,,,,,,,,,,,,,,,,,
21700180,1506895198991,,,,,,,,0.04,0.17,0.97,-28.2,-1.4,-0.1,760,237,,,,,,,,,,,,,,,,,,
21700200,1506895199001,,,,,,,,0.03,0.18,0.98,-28.2,-1.6,-0.2,780,238,,,,,,,,,,,,,,,,,,
21700222,1506895199023,,,,,10,,,0.04,0.16,0.98,-28.3,-1.6,-0.2,780,240,0,0,0.0,35.489567,-119.543976,4.41,2.787,233.7,11,3,1.3,82,2.4667,0,0.0,6.9487,4.6417,83
21700241,1506895199042,,,,,,,,0.05,0.17,0.98,-28.4,-1.4,0.1,780,242,,,,,,,,,,,,,,,,,,
21700261,1506895199062,,,,,,,,0.05,0.19,0.98,-28.4,-1.4,0.2,760,238,,,,,,,,,,,,,,,,,,
21700281,1506895199092,,,,,,,,0.05,0.17,0.99,-28.4,-1.4,0.1,780,238,,,,,,,,,,,,,,,,,,
21700301,1506895199112,,,,,,,,0.04,0.18,0.99,-28.4,-1.5,-0.2,780,242,,,,,,,,,,,,,,,,,,
21700323,1506895199134,0,221.4,,215.6,10,219.6,,0.05,0.17,0.98,-28.5,-1.5,-0.3,780,242,0,0,0.0,35.489571,-119.543976,4.74,2.787,233.8,11,3,1.3,82,2.4667,0,0.0,6.9503,4.6433,83
21700342,1506895199153,,,,,,,,0.06,0.18,0.98,-28.6,-1.4,-0.1,780,238,,,,,,,,,,,,,,,,,,
21700362,1506895199173,,,,,,,,0.05,0.19,0.99,-28.6,-1.5,-0.1,760,237,,,,,,,,,,,,,,,,,,
21700382,1506895199191,,,,,,,,0.04,0.19,0.99,-28.6,-1.5,-0.1,780,237,,,,,,,,,,,,,,,,,,
21700402,1506895199211,,,,,,,,0.04,0.18,0.99,-28.6,-1.6,-0.2,780,240,,,,,,,,,,,,,,,,,,
21700424,1506895199233,,,,,10,,,0.05,0.18,0.99,-28.6,-1.7,-0.2,780,240,0,0,0.0,35.489571,-119.543976,4.75,2.787,234.0,11,3,1.3,82,2.4667,0,0.0,6.952,4.645,83
21700443,1506895199252,,,,,,,,0.05,0.18,0.98,-28.6,-1.4,-0.0,780,237,,,,,,,,,,,,,,,,,,
21700463,1506895199272,,,,,,,,0.05,0.19,0.98,-28.6,-1.4,-0.0,780,235,,,,,,,,,,,,,,,,,,
21700483,1506895199294,,,,,,,,0.05,0.17,0.98,-28.6,-1.4,-0.1,780,240,,,,,,,,,,,,,,,,,,
21700503,1506895199314,,,,,,,,0.05,0.17,0.97,-28.5,-1.3,-0.3,780,240,,,,,,,,,,,,,,,,,,
21700525,1506895199336,0,221.4,,215.5,12,219.6,,0.05,0.18,0.97,-28.6,-1.3,-0.2,780,238,0,0,0.0,35.489574,-119.543976,4.53,2.788,234.1,11,3,1.3,82,2.4667,0,0.0,6.9536,4.6467,83
21700544,1506895199355,,,,,,,,0.05,0.18,0.96,-28.7,-1.3,0.0,760,238,,,,,,,,,,,,,,,,,,
21700564,1506895199375,,,,,,,,0.06,0.2,0.97,-28.7,-1.2,0.0,780,238,,,,,,,,,,,,,,,,,,
21700584,1506895199393,,,,,,,,0.05,0.18,0.98,-28.7,-1.4,-0.1,780,240,,,,,,,,,,,,,,,,,,
21700604,1506895199413,,,,,,,,0.05,0.18,0.98,-28.8,-1.3,-0.2,780,242,,,,,,,,,,,,,,,,,,
21700626,1506895199435,,,,,9,,,0.05,0.19,0.98,-28.9,-1.4,-0.1,780,240,0,0,0.0,35.489574,-119.543976,4.62,2.788,234.2,11,3,1.3,82,2.4667,0,0.0,6.9553,4.6483,83
21700645,1506895199454,,,,,,,,0.06,0.19,0.99,-28.9,-1.6,-0.1,780,240,,,,,,,,,,,,,,,,,,
21700665,1506895199474,,,,,,,,0.06,0.19,0.99,-28.9,-1.4,-0.1,780,240,,,,,,,,,,,,,,,,,,
21700685,1506895199494,,,,,,,,0.05,0.19,0.99,-28.8,-1.5,-0.2,780,240,,,,,,,,,,,,,,,,,,
21700705,1506895199514,,,,,,,,0.05,0.17,0.99,-28.8,-1.3,-0.3,780,243,,,,,,,,,,,,,,,,,,
21700727,1506895199536,0,220.5,,215.1,10,219.4,,0.06,0.18,0.97,-28.8,-1.3,-0.2,780,242,0,0,0.0,35.489578,-119.543991,3.84,2.788,234.2,11,3,1.3,82,2.4667,0,0.0,6.9576,4.65,83
21700746,1506895199555,,,,,,,,0.06,0.19,0.97,-28.9,-1.2,-0.1,780,240,,,,,,,,,,,,,,,,,,
21700766,1506895199575,,,,,,,,0.05,0.18,0.97,-28.9,-1.1,-0.0,780,242,,,,,,,,,,,,,,,,,,
21700786,1506895199595,,,,,,,,0.04,0.18,0.98,-28.8,-1.2,-0.2,800,242,,,,,,,,,,,,,,,,,,
21700806,1506895199615,,,,,,,,0.04,0.17,0.98,-28.7,-1.1,-0.3,800,243,,,,,,,,,,,,,,,,,,
21700828,1506895199637,,,,,11,,,0.05,0.19,0.97,-28.7,-1.2,-0.1,800,243,0,0,0.0,35.489578,-119.543991,4.08,2.788,234.3,11,3,1.3,82,2.4667,0,0.0,6.9592,4.6517,83
21700847,1506895199656,,,,,,,,0.05,0.19,0.96,-28.8,-1.1,0.1,780,240,,,,,,,,,,,,,,,,,,
21700867,1506895199676,,,,,,,,0.05,0.19,0.97,-28.8,-1.1,0.1,780,240,,,,,,,,,,,,,,,,,,
21700887,1506895199698,,,,,,,,0.04,0.19,0.98,-28.8,-1.2,-0.0,780,240,,,,,,,,,,,,,,,,,,
21700907,1506895199718,,,,,,,,0.04,0.18,0.98,-28.8,-1.1,-0.2,780,242,,,,,,,,,,,,,,,,,,
21700929,1506895199740,0,220.2,,214.9,9,219.0,,0.04,0.19,0.98,-28.8,-1.3,-0.3,780,245,0,0,0.0,35.489582,-119.543991,4.33,2.788,234.4,11,3,1.3,82,2.4667,0,0.0,6.9609,4.6533,83
21700948,1506895199759,,,,,,,,0.05,0.19,0.97,-28.9,-1.1,-0.0,780,242,,,,,,,,,,,,,,,,,,
21700968,1506895199779,,,,,,,,0.05,0.2,0.98,-28.9,-1.2,0.0,780,240,,,,,,,,,,,,,,,,,,
21700988,1506895199798,,,,,,,,0.04,0.19,0.99,-28.9,-1.3,-0.1,780,242,,,,,,,,,,,,,,,,,,
21701008,1506895199818,,,,,,,,0.04,0.18,0.98,-28.9,-1.4,-0.3,800,243,,,,,,,,,,,,,,,,,,
21701030,1506895199840,,,,,11,,,0.05,0.18,0.98,-28.9,-1.5,-0.4,800,245,0,0,0.0,35.489582,-119.543991,4.4,2.788,234.4,11,3,1.3,82,2.4667,0,0.0,6.9625,4.655,83
21701049,1506895199859,,,,,,,,0.06,0.18,0.97,-29.0,-1.3,-0.2,800,243,,,,,,,,,,,,,,,,,,
21701069,1506895199879,,,,,,,,0.06,0.19,0.96,-29.0,-1.5,-0.2,800,243,,,,,,,,,,,,,,,,,,
21701089,1506895199897,,,,,,,,0.05,0.19,0.97,-29.0,-1.6,-0.2,800,243,,,,,,,,,,,,,,,,,,
21701109,1506895199917,,,,,,,,0.04,0.18,0.97,-29.0,-1.6,-0.4,800,245,,,,,,,,,,,,,,,,,,
21701131,1506895199939,0,221.1,-0.2,215.6,11,219.5,13.52,0.05,0.17,0.96,-29.1,-1.5,-0.4,800,246,0,0,0.0,35.489586,-119.543991,4.69,2.788,234.6,11,3,1.3,82,2.4667,0,0.0,6.9642,4.6567,83
21701150,1506895199958,,,,,,,,0.05,0.16,0.96,-29.0,-1.4,-0.2,780,243,,,,,,,,,,,,,,,,,,
21701170,1506895199978,,,,,,,,0.06,0.17,0.95,-29.1,-1.4,-0.0,780,242,,,,,,,,,,,,,,,,,,
21701190,1506895199992,,,,,,,,0.06,0.19,0.97,-29.1,-1.3,0.0,800,240,,,,,,,,,,,,,,,,,,
21701210,1506895200012,,,,,,,,0.05,0.17,0.98,-29.1,-1.4,-0.1,780,243,,,,,,,,,,,,,,,,,,
21701232,1506895200034,,,,,10,,,0.05,0.17,0.98,-29.1,-1.2,-0.1,780,245,0,0,0.0,35.489586,-119.543991,4.94,2.788,234.6,11,3,1.3,82,2.4667,0,0.0,6.9659,4.6583,83
21701251,1506895200053,,,,,,,,0.05,0.16,0.96,-29.1,-1.2,0.2,800,243,,,,,,,,,,,,,,,,,,
21701271,1506895200073,,,,,,,,0.06,0.16,0.96,-29.2,-1.0,0.4,780,240,,,,,,,,,,,,,,,,,,
21701291,1506895200101,,,,,,,,0.06,0.18,0.97,-29.2,-0.9,0.5,800,242,,,,,,,,,,,,,,,,,,
21701311,1506895200121,,,,,,,,0.05,0.17,0.97,-29.2,-0.9,0.3,780,245,,,,,,,,,,,,,,,,,,
21701333,1506895200143,0,220.0,,214.9,10,218.8,,0.05,0.18,0.98,-29.2,-0.8,0.1,800,246,0,0,0.0,35.489586,-119.543991,4.72,2.789,234.7,11,3,1.3,82,2.4667,0,0.0,6.9675,4.66,83
21701352,1506895200162,,,,,,,,0.06,0.17,0.96,-29.2,-0.9,-0.0,800,246,,,,,,,,,,,,,,,,,,
21701372,1506895200182,,,,,,,,0.07,0.18,0.96,-29.3,-0.9,0.1,800,248,,,,,,,,,,,,,,,,,,
21701392,1506895200200,,,,,,,,0.07,0.19,0.96,-29.3,-0.9,0.2,800,245,,,,,,,,,,,,,,,,,,
21701412,1506895200220,,,,,,,,0.06,0.18,0.97,-29.2,-0.9,0.1,800,243,,,,,,,,,,,,,,,,,,
21701434,1506895200242,,,,,11,,,0.05,0.18,0.98,-29.2,-1.1,-0.1,800,248,0,0,0.0,35.489586,-119.543991,4.89,2.789,234.9,11,3,1.3,82,2.4667,0,0.0,6.9692,4.6617,83
21701453,1506895200261,,,,,,,,0.04,0.16,0.98,-29.3,-1.1,-0.1,800,249,,,,,,,,,,,,,,,,,,
21701473,1506895200281,,,,,,,,0.05,0.16,0.97,-29.3,-1.0,0.0,800,248,,,,,,,,,,,,,,,,,,
21701493,1506895200303,,,,,,,,0.05,0.18,0.97,-29.3,-1.0,0.1,820,245,,,,,,,,,,,,,,,,,,
21701513,1506895200323,,,,,,,,0.05,0.18,0.99,-29.3,-1.0,0.2,800,245,,,,,,,,,,,,,,,,,,
21701535,1506895200345,0,220.1,,214.8,11,218.7,,0.04,0.17,0.99,-29.3,-1.1,0.1,800,248,0,0,0.0,35.48959,-119.543991,4.7,2.789,234.9,11,3,1.3,82,2.4667,0,0.0,6.9708,4.6633,83
21701554,1506895200364,,,,,,,,0.04,0.17,0.98,-29.2,-1.2,0.1,800,246,,,,,,,,,,,,,,,,,,
21701574,1506895200384,,,,,,,,0.04,0.17,0.97,-29.3,-1.4,0.2,800,246,,,,,,,,,,,,,,,,,,
21701594,1506895200404,,,,,,,,0.05,0.18,0.97,-29.3,-1.2,0.4,800,243,,,,,,,,,,,,,,,,,,
21701614,1506895200424,,,,,,,,0.04,0.18,0.98,-29.3,-1.3,0.5,800,243,,,,,,,,,,,,,,,,,,
21701636,1506895200446,,,,,10,,,0.04,0.18,0.98,-29.3,-1.2,0.5,800,242,0,0,0.0,35.48959,-119.543991,4.75,2.789,235.1,11,3,1.3,82,2.4667,0,0.0,6.9725,4.665,83
21701655,1506895200465,,,,,,,,0.04,0.18,0.98,-29.3,-1.2,0.4,800,245,,,,,,,,,,,,,,,,,,
21701675,1506895200485,,,,,,,,0.05,0.16,0.97,-29.4,-1.2,0.3,800,248,,,,,,,,,,,,,,,,,,
21701695,1506895200501,,,,,,,,0.06,0.17,0.97,-29.4,-1.1,0.4,800,245,,,,,,,,,,,,,,,,,,
21701715,1506895200521,,,,,,,,0.06,0.18,0.98,-29.5,-1.4,0.4,820,243,,,,,,,,,,,,,,,,,,
21701737,1506895200543,0,220.5,,215.4,11,219.6,,0.06,0.19,0.98,-29.5,-1.4,0.4,780,246,0,0,0.0,35.489594,-119.543991,4.77,2.789,235.2,11,3,1.3,82,2.4667,0,0.0,6.9742,4.6667,83
21701756,1506895200562,,,,,,,,0.06,0.19,0.98,-29.5,-1.2,0.2,800,248,,,,,,,,,,,,,,,,,,
21701776,1506895200582,,,,,,,,0.06,0.18,0.98,-29.5,-1.1,0.1,800,249,,,,,,,,,,,,,,,,,,
21701796,1506895200606,,,,,,,,0.06,0.19,0.97,-29.5,-1.1,0.2,800,251,,,,,,,,,,,,,,,,,,
21701816,1506895200626,,,,,,,,0.06,0.19,0.98,-29.6,-1.0,0.3,800,248,,,,,,,,,,,,,,,,,,
21701838,1506895200648,,,,,12,,,0.06,0.19,0.99,-29.6,-1.0,0.3,800,246,0,0,0.0,35.489594,-119.543999,4.81,2.789,235.4,11,3,1.3,82,2.4667,0,0.0,6.9761,4.6683,83
21701857,1506895200667,,,,,,,,0.06,0.2,0.99,-29.6,-1.0,0.2,820,249,,,,,,,,,,,,,,,,,,
21701877,1506895200687,,,,,,,,0.06,0.2,0.98,-29.5,-1.1,-0.1,820,248,,,,,,,,,,,,,,,,,,
21701897,1506895200707,,,,,,,,0.05,0.18,0.98,-29.5,-1.1,-0.2,800,251,,,,,,,,,,,,,,,,,,
21701917,1506895200727,,,,,,,,0.05,0.2,0.97,-29.5,-0.9,-0.1,800,249,,,,,,,,,,,,,,,,,,
21701939,1506895200749,0,220.6,,215.5,11,219.1,,0.05,0.2,0.98,-29.6,-0.9,0.0,820,246,0,0,0.0,35.489597,-119.543999,4.76,2.789,235.5,11,3,1.3,82,2.4667,0,0.0,6.9778,4.67,83
21701958,1506895200768,,,,,,,,0.06,0.2,0.99,-29.6,-1.0,0.1,820,246,,,,,,,,,,,,,,,,,,
21701978,1506895200788,,,,,,,,0.05,0.2,0.99,-29.5,-1.0,-0.0,800,246,,,,,,,,,,,,,,,,,,
21701998,1506895200807,,,,,,,,0.05,0.2,0.99,-29.4,-1.1,-0.2,800,246,,,,,,,,,,,,,,,,,,
21702018,1506895200827,,,,,,,,0.05,0.18,0.98,-29.5,-1.1,-0.1,800,246,,,,,,,,,,,,,,,,,,
21702040,1506895200849,,,,,10,,,0.06,0.18,0.97,-29.5,-0.9,0.1,800,248,0,0,0.0,35.489597,-119.543999,4.63,2.789,235.7,11,3,1.3,82,2.4667,0,0.0,6.9795,4.6717,83
21702059,1506895200868,,,,,,,,0.06,0.18,0.97,-29.5,-1.1,0.3,800,246,,,,,,,,,,,,,,,,,,
21702079,1506895200888,,,,,,,,0.06,0.19,0.99,-29.5,-1.0,0.3,800,246,,,,,,,,,,,,,,,,,,
21702099,1506895200906,,,,,,,,0.06,0.19,0.98,-29.5,-1.0,0.1,800,251,,,,,,,,,,,,,,,,,,
