"Interval"|"ms"|0|0|1,"Utc"|"ms"|0|0|1,"FuelLevel"|"F"|0|100|5,"OilTemp"|"F"|0.0|300.0|5,"CoolantPressPSI"|"PSI"|0.0|20.0|1,"Coolant"|"F"|0.0|300.0|5,"OilPress"|"PSI"|0|150|10,"EngineTemp"|"F"|0.0|300.0|5,"Battery"|"Volts"|0.0|20.0|1,"AccelX"|"G"|-3.0|3.0|50,"AccelY"|"G"|-3.0|3.0|50,"AccelZ"|"G"|-3.0|3.0|50,"Yaw"|"Deg/Sec"|-300.0|300.0|50,"Pitch"|"Deg/Sec"|-300.0|300.0|50,"Roll"|"Deg/Sec"|-300.0|300.0|50,"RPM"|""|0|10000|50,"Driveshaft"|"RPM"|0|5000|50,"GPIO1"|""|0|1|10,"GPIO2"|""|0|1|10,"GearRatio"|""|-5.0|5.0|10,"Latitude"|"Degrees"|-180.0|180.0|10,"Longitude"|"Degrees"|-180.0|180.0|10,"Speed"|"mph"|0.0|150.0|10,"Distance"|"mi"|0.0|0.0|10,"Altitude"|"ft"|0.0|4000.0|10,"GPSSats"|""|0|20|10,"GPSQual"|""|0|5|10,"GPSDOP"|""|0.0|20.0|10,"LapCount"|""|0|0|10,"LapTime"|"Min"|0.0|0.0|10,"Sector"|""|0|0|10,"SectorTime"|"Min"|0.0|0.0|10,"PredTime"|"Min"|0.0|0.0|10,"ElapsedTime"|"Min"|0.0|0.0|10,"CurrentLap"|""|0|0|10
,,,,,,,,,,,,,,,,,,,,,,,,,,,,,,,,,,
36210,1506920017778,,,,,,,,-0.02,0.06,0.93,-3.2,2.0,-0.7,800,71,,,,,,,,,,,,,,,,,,
36230,1506920017798,,,,,,,,-0.04,0.05,0.9,-3.1,1.9,-0.8,820,68,,,,,,,,,,,,,,,,,,
36250,1506920017818,,,,,,,,-0.04,0.06,0.9,-3.1,1.9,-0.8,820,68,,,,,,,,,,,,,,,,,,
36270,1506920017838,0,57.5,,55.2,63,58.4,,-0.05,0.06,0.9,-3.1,1.7,-0.8,780,69,0,1,0.0,37.478924,-122.203918,0.0,0.0,54.4,4,3,0.6,0,0.0,-1,0.0,0.0,0.0,0
36290,1506920017826,,,,,,,,-0.06,0.07,0.9,-3.0,1.6,-0.6,800,69,,,,,,,,,,,,,,,,,,
36310,1506920017846,,,,,,,,-0.07,0.07,0.91,-3.0,1.3,-0.7,780,68,,,,,,,,,,,,,,,,,,
36330,1506920017866,,,,,,,,-0.08,0.07,0.91,-3.0,1.1,-0.8,780,63,,,,,,,,,,,,,,,,,,
36350,1506920017886,,,,,,,,-0.09,0.07,0.89,-3.0,0.8,-0.9,780,63,,,,,,,,,,,,,,,,,,
36370,1506920017906,,,,,64,,,-0.09,0.07,0.88,-3.0,0.6,-0.9,760,60,0,1,0.0,37.478912,-122.203903,0.0,0.0,51.5,5,3,2.1,0,0.0,-1,0.0,0.0,0.0,0
36390,1506920017926,,,,,,,,-0.1,0.07,0.89,-3.0,0.5,-0.9,780,60,,,,,,,,,,,,,,,,,,
36410,1506920017933,,,,,,,,-0.11,0.07,0.89,-3.1,0.1,-1.1,740,62,,,,,,,,,,,,,,,,,,
36430,1506920017953,,,,,,,,-0.11,0.07,0.88,-3.1,0.2,-1.2,740,62,,,,,,,,,,,,,,,,,,
36450,1506920017973,,,,,,,,-0.1,0.08,0.89,-3.1,-0.1,-1.2,740,62,,,,,,,,,,,,,,,,,,
36470,1506920018037,0,58.2,,58.0,61,59.2,,-0.11,0.09,0.88,-3.0,-0.3,-1.1,740,58,0,1,0.0,37.478863,-122.203896,1.1,0.0,47.8,5,3,1.3,0,0.0,-1,0.0,0.0,0.0,0
36490,1506920018057,,,,,,,,-0.1,0.08,0.88,-3.0,-0.4,-1.2,740,57,,,,,,,,,,,,,,,,,,
36510,1506920018077,,,,,,,,-0.1,0.08,0.88,-3.0,-0.2,-1.3,740,57,,,,,,,,,,,,,,,,,,
36530,1506920018097,,,,,,,,-0.09,0.08,0.88,-2.9,-0.2,-1.3,740,55,,,,,,,,,,,,,,,,,,
36550,1506920018117,,,,,,,,-0.09,0.09,0.86,-2.9,-0.1,-1.2,760,54,,,,,,,,,,,,,,,,,,
36570,1506920018137,,,,,62,,,-0.1,0.08,0.88,-2.9,-0.1,-1.2,720,52,0,1,0.0,37.478748,-122.203857,1.21,0.0,39.4,5,3,1.3,0,0.0,-1,0.0,0.0,0.0,0
36590,1506920018157,,,,,,,,-0.09,0.08,0.87,-2.8,-0.1,-1.2,720,52,,,,,,,,,,,,,,,,,,
36610,1506920018177,,,,,,,,-0.09,0.08,0.88,-2.9,-0.1,-1.2,720,52,,,,,,,,,,,,,,,,,,
36630,1506920018197,,,,,,,,-0.09,0.09,0.88,-2.9,0.0,-1.2,720,51,,,,,,,,,,,,,,,,,,
36650,1506920018217,,,,,,,,-0.09,0.08,0.88,-2.9,-0.0,-1.2,720,51,,,,,,,,,,,,,,,,,,
36670,1506920018237,0,55.3,,55.2,58,55.9,,-0.09,0.08,0.88,-2.9,0.1,-1.1,720,49,0,1,0.0,37.478683,-122.203842,1.06,0.0,36.9,5,3,1.3,0,0.0,-1,0.0,0.0,0.0,0
36690,1506920018257,,,,,,,,-0.09,0.08,0.88,-2.9,-0.0,-1.0,720,48,,,,,,,,,,,,,,,,,,
36710,1506920018277,,,,,,,,-0.09,0.08,0.87,-2.9,-0.1,-0.9,740,48,,,,,,,,,,,,,,,,,,
36730,1506920018297,,,,,,,,-0.09,0.08,0.88,-2.9,-0.2,-1.0,740,48,,,,,,,,,,,,,,,,,,
36750,1506920018317,,,,,,,,-0.1,0.08,0.88,-3.0,-0.3,-1.0,700,48,,,,,,,,,,,,,,,,,,
36770,1506920018335,,,,,56,,,-0.09,0.08,0.88,-3.0,-0.4,-0.9,720,46,0,1,0.0,37.47868,-122.203842,0.98,0.0,37.0,5,3,1.3,0,0.0,-1,0.0,0.0,0.0,0
36790,1506920018355,,,,,,,,-0.09,0.08,0.89,-3.0,-0.3,-1.0,700,46,,,,,,,,,,,,,,,,,,
36810,1506920018375,,,,,,,,-0.09,0.08,0.89,-2.9,-0.2,-1.0,700,46,,,,,,,,,,,,,,,,,,
36830,1506920018395,,,,,,,,-0.09,0.09,0.88,-3.0,-0.3,-1.0,720,45,,,,,,,,,,,,,,,,,,
36850,1506920018415,,,,,,,,-0.09,0.09,0.88,-2.9,-0.4,-0.9,720,45,,,,,,,,,,,,,,,,,,
36870,1506920018433,0,58.1,,54.4,56,57.2,,-0.09,0.08,0.89,-2.9,-0.4,-1.0,740,45,0,1,0.0,37.478676,-122.203842,0.0,0.0,37.0,5,3,1.3,0,0.0,-1,0.0,0.0,0.0,0
36890,1506920018453,,,,,,,,-0.09,0.08,0.89,-2.9,-0.4,-1.1,740,45,,,,,,,,,,,,,,,,,,
36910,1506920018473,,,,,,,,-0.09,0.09,0.88,-2.9,-0.4,-1.1,700,43,,,,,,,,,,,,,,,,,,
36930,1506920018493,,,,,,,,-0.09,0.08,0.88,-2.9,-0.5,-1.2,720,42,,,,,,,,,,,,,,,,,,
36950,1506920018513,,,,,,,,-0.1,0.07,0.89,-2.9,-0.5,-1.3,720,42,,,,,,,,,,,,,,,,,,
36970,1506920018533,,,,,55,,,-0.1,0.07,0.89,-2.9,-0.4,-1.3,700,40,0,1,0.0,37.478672,-122.203842,1.16,0.0,36.9,5,3,1.3,0,0.0,-1,0.0,0.0,0.0,0
36990,1506920018553,,,,,,,,-0.09,0.08,0.88,-2.9,-0.4,-1.2,720,40,,,,,,,,,,,,,,,,,,
37010,1506920018573,,,,,,,,-0.1,0.07,0.88,-2.9,-0.5,-1.2,720,38,,,,,,,,,,,,,,,,,,
37030,1506920018593,,,,,,,,-0.1,0.06,0.87,-2.9,-0.5,-1.3,720,38,,,,,,,,,,,,,,,,,,
37050,1506920018613,,,,,,,,-0.09,0.07,0.87,-2.9,-0.5,-1.2,740,37,,,,,,,,,,,,,,,,,,
37070,1506920018633,0,55.6,-0.3,55.8,56,56.7,14.91,-0.09,0.07,0.87,-2.9,-0.5,-1.1,720,37,0,1,0.0,37.478672,-122.203842,0.0,0.0,36.9,5,3,1.3,0,0.0,-1,0.0,0.0,0.0,0
37090,1506920018653,,,,,,,,-0.1,0.07,0.88,-2.9,-0.6,-1.2,740,37,,,,,,,,,,,,,,,,,,
37110,1506920018673,,,,,,,,-0.09,0.08,0.87,-3.0,-0.6,-1.2,740,35,,,,,,,,,,,,,,,,,,
37130,1506920018693,,,,,,,,-0.09,0.08,0.87,-3.0,-0.6,-1.1,700,35,,,,,,,,,,,,,,,,,,
37150,1506920018713,,,,,,,,-0.09,0.09,0.87,-2.9,-0.5,-1.1,740,34,,,,,,,,,,,,,,,,,,
37170,1506920018737,,,,,56,,,-0.09,0.07,0.88,-2.9,-0.8,-1.2,740,34,0,1,0.0,37.478672,-122.203842,0.0,0.0,36.9,5,3,1.3,0,0.0,-1,0.0,0.0,0.0,0
37190,1506920018757,,,,,,,,-0.1,0.07,0.88,-3.0,-0.7,-1.3,740,32,,,,,,,,,,,,,,,,,,
37210,1506920018777,,,,,,,,-0.1,0.07,0.89,-3.0,-0.8,-1.2,740,32,,,,,,,,,,,,,,,,,,
37230,1506920018797,,,,,,,,-0.1,0.06,0.89,-3.0,-0.8,-1.2,720,32,,,,,,,,,,,,,,,,,,
37250,1506920018817,,,,,,,,-0.11,0.05,0.9,-2.9,-0.7,-1.3,740,31,,,,,,,,,,,,,,,,,,
37270,1506920018837,0,59.3,,57.7,56,59.3,,-0.1,0.05,0.89,-3.0,-0.7,-1.2,740,31,0,1,0.0,37.478672,-122.203842,0.0,0.0,36.9,5,3,1.3,0,0.0,-1,0.0,0.0,0.0,0
37290,1506920018857,,,,,,,,-0.1,0.06,0.89,-3.0,-0.8,-1.2,720,29,,,,,,,,,,,,,,,,,,
37310,1506920018877,,,,,,,,-0.1,0.06,0.88,-3.0,-0.9,-1.1,740,29,,,,,,,,,,,,,,,,,,
37330,1506920018897,,,,,,,,-0.11,0.05,0.88,-3.0,-1.1,-1.3,740,29,,,,,,,,,,,,,,,,,,
37350,1506920018826,,,,,,,,-0.11,0.05,0.87,-3.0,-1.0,-1.3,740,28,,,,,,,,,,,,,,,,,,
37370,1506920018928,,,,,57,,,-0.11,0.05,0.88,-3.0,-1.1,-1.2,760,28,0,1,0.0,37.478622,-122.203827,0.0,0.0,57.2,6,3,0.2,0,0.0,-1,0.0,0.0,0.0,0
37390,1506920018948,,,,,,,,-0.11,0.05,0.89,-3.0,-0.9,-1.1,740,28,,,,,,,,,,,,,,,,,,
37410,1506920018968,,,,,,,,-0.1,0.05,0.89,-3.0,-0.9,-1.2,760,26,,,,,,,,,,,,,,,,,,
37430,1506920018988,,,,,,,,-0.1,0.06,0.88,-3.0,-0.8,-1.2,760,26,,,,,,,,,,,,,,,,,,
37450,1506920019008,,,,,,,,-0.09,0.07,0.88,-3.0,-1.0,-1.1,740,26,,,,,,,,,,,,,,,,,,
37470,1506920019036,0,56.1,,54.3,58,55.9,,-0.09,0.06,0.87,-2.9,-0.9,-1.0,760,25,0,1,0.0,37.478622,-122.203827,0.0,0.0,57.2,6,3,0.2,0,0.0,-1,0.0,0.0,0.0,0
37490,1506920019056,,,,,,,,-0.09,0.06,0.89,-2.9,-1.1,-1.2,760,25,,,,,,,,,,,,,,,,,,
37510,1506920019076,,,,,,,,-0.09,0.06,0.89,-3.0,-1.1,-1.2,760,25,,,,,,,,,,,,,,,,,,
37530,1506920019096,,,,,,,,-0.08,0.07,0.9,-3.0,-1.2,-1.2,760,25,,,,,,,,,,,,,,,,,,
37550,1506920019116,,,,,,,,-0.09,0.07,0.89,-2.9,-1.1,-1.0,740,25,,,,,,,,,,,,,,,,,,
37570,1506920019136,,,,,58,,,-0.09,0.06,0.9,-2.9,-1.1,-1.1,760,25,0,1,0.0,37.478622,-122.203827,0.0,0.0,57.2,6,3,0.2,0,0.0,-1,0.0,0.0,0.0,0
37590,1506920019156,,,,,,,,-0.09,0.06,0.89,-2.9,-1.0,-1.1,760,26,,,,,,,,,,,,,,,,,,
37610,1506920019176,,,,,,,,-0.08,0.06,0.9,-2.9,-0.8,-1.1,760,26,,,,,,,,,,,,,,,,,,
37630,1506920019196,,,,,,,,-0.08,0.06,0.89,-2.9,-0.8,-1.0,760,26,,,,,,,,,,,,,,,,,,
37650,1506920019216,,,,,,,,-0.08,0.06,0.9,-2.8,-1.0,-0.9,760,26,,,,,,,,,,,,,,,,,,
37670,1506920019236,0,59.0,,57.3,58,59.1,,-0.08,0.06,0.89,-2.8,-1.1,-0.9,780,26,0,1,0.0,37.478622,-122.203827,0.0,0.0,57.2,6,3,0.2,0,0.0,-1,0.0,0.0,0.0,0
37690,1506920019256,,,,,,,,-0.07,0.05,0.88,-2.8,-1.1,-0.9,780,28,,,,,,,,,,,,,,,,,,
37710,1506920019276,,,,,,,,-0.07,0.05,0.87,-2.8,-1.2,-0.8,740,28,,,,,,,,,,,,,,,,,,
37730,1506920019296,,,,,,,,-0.08,0.05,0.89,-2.9,-1.4,-0.8,740,28,,,,,,,,,,,,,,,,,,
37750,1506920019316,,,,,,,,-0.08,0.04,0.89,-2.9,-1.5,-0.8,740,28,,,,,,,,,,,,,,,,,,
37770,1506920019334,,,,,59,,,-0.08,0.03,0.87,-3.0,-1.5,-0.9,740,28,0,1,0.0,37.478622,-122.203827,0.0,0.0,57.2,6,3,0.2,0,0.0,-1,0.0,0.0,0.0,0
37790,1506920019354,,,,,,,,-0.07,0.04,0.88,-3.0,-1.5,-0.8,740,29,,,,,,,,,,,,,,,,,,
37810,1506920019374,,,,,,,,-0.08,0.04,0.89,-3.0,-1.3,-0.7,740,29,,,,,,,,,,,,,,,,,,
37830,1506920019394,,,,,,,,-0.08,0.03,0.89,-3.0,-1.3,-0.8,760,29,,,,,,,,,,,,,,,,,,
37850,1506920019414,,,,,,,,-0.08,0.04,0.87,-3.0,-1.2,-0.9,760,29,,,,,,,,,,,,,,,,,,
37870,1506920019434,0,59.0,,57.7,58,59.4,,-0.07,0.06,0.87,-3.0,-1.2,-0.7,740,29,0,1,0.0,37.478622,-122.203827,0.0,0.0,57.2,6,3,0.2,0,0.0,-1,0.0,0.0,0.0,0
37890,1506920019454,,,,,,,,-0.07,0.05,0.86,-2.9,-1.0,-0.6,740,31,,,,,,,,,,,,,,,,,,
37910,1506920019474,,,,,,,,-0.07,0.05,0.89,-2.9,-1.1,-0.7,740,31,,,,,,,,,,,,,,,,,,
37930,1506920019494,,,,,,,,-0.08,0.05,0.88,-3.0,-1.1,-0.7,740,31,,,,,,,,,,,,,,,,,,
37950,1506920019514,,,,,,,,-0.08,0.07,0.89,-3.0,-1.1,-0.7,740,31,,,,,,,,,,,,,,,,,,
37970,1506920019534,,,,,58,,,-0.08,0.07,0.88,-3.0,-1.1,-0.6,740,31,0,1,0.0,37.478622,-122.203827,0.0,0.0,57.2,6,3,0.2,0,0.0,-1,0.0,0.0,0.0,0
37990,1506920019554,,,,,,,,-0.09,0.06,0.91,-3.0,-1.0,-0.7,760,31,,,,,,,,,,,,,,,,,,
38010,1506920019574,,,,,,,,-0.09,0.06,0.91,-2.9,-0.8,-0.7,760,31,,,,,,,,,,,,,,,,,,
38030,1506920019594,,,,,,,,-0.08,0.07,0.91,-3.0,-0.7,-0.7,740,31,,,,,,,,,,,,,,,,,,
38050,1506920019614,,,,,,,,-0.08,0.07,0.9,-3.0,-0.6,-0.6,740,29,,,,,,,,,,,,,,,,,,
38070,1506920019540,0,56.7,-0.5,57.1,58,57.9,14.9,-0.09,0.07,0.9,-3.0,-0.7,-0.6,740,29,0,1,0.0,37.478607,-122.203827,0.0,0.0,70.6,7,3,2.4,0,0.0,-1,0.0,0.0,0.0,0
38090,1506920019640,,,,,,,,-0.09,0.07,0.89,-3.0,-0.7,-0.6,740,29,,,,,,,,,,,,,,,,,,
38110,1506920019660,,,,,,,,-0.08,0.07,0.9,-3.0,-0.7,-0.6,740,29,,,,,,,,,,,,,,,,,,
38130,1506920019680,,,,,,,,-0.08,0.09,0.91,-3.0,-0.7,-0.6,740,29,,,,,,,,,,,,,,,,,,
38150,1506920019700,,,,,,,,-0.08,0.09,0.92,-3.0,-0.7,-0.6,760,28,,,,,,,,,,,,,,,,,,
38170,1506920019736,,,,,57,,,-0.08,0.09,0.92,-2.9,-0.6,-0.7,760,28,0,1,0.0,37.478607,-122.203827,0.0,0.0,70.6,7,3,2.4,0,0.0,-1,0.0,0.0,0.0,0
38190,1506920019756,,,,,,,,-0.08,0.09,0.92,-2.9,-0.5,-0.7,720,28,,,,,,,,,,,,,,,,,,
38210,1506920019776,,,,,,,,-0.07,0.1,0.91,-2.9,-0.3,-0.7,720,28,,,,,,,,,,,,,,,,,,
38230,1506920019796,,,,,,,,-0.08,0.09,0.91,-2.9,-0.5,-0.8,720,28,,,,,,,,,,,,,,,,,,
38250,1506920019816,,,,,,,,-0.09,0.09,0.91,-2.9,-0.6,-0.9,720,28,,,,,,,,,,,,,,,,,,
38270,1506920019830,0,56.0,,56.5,57,57.1,,-0.09,0.09,0.91,-2.9,-0.8,-0.8,720,26,0,1,0.0,37.478607,-122.203827,0.0,0.0,70.6,7,3,2.4,0,0.0,-1,0.0,0.0,0.0,0
38290,1506920019850,,,,,,,,-0.09,0.08,0.91,-2.9,-0.8,-0.7,740,26,,,,,,,,,,,,,,,,,,
38310,1506920019870,,,,,,,,-0.09,0.08,0.92,-2.9,-0.8,-0.8,740,26,,,,,,,,,,,,,,,,,,
38330,1506920019890,,,,,,,,-0.09,0.07,0.9,-2.9,-0.7,-0.8,740,25,,,,,,,,,,,,,,,,,,
38350,1506920019910,,,,,,,,-0.08,0.08,0.9,-2.9,-0.7,-0.7,720,25,,,,,,,,,,,,,,,,,,
38370,1506920019935,,,,,57,,,-0.08,0.08,0.89,-2.9,-0.8,-0.7,740,25,0,1,0.0,37.478607,-122.203827,0.0,0.0,70.6,7,3,2.4,0,0.0,-1,0.0,0.0,0.0,0
38390,1506920019955,,,,,,,,-0.09,0.07,0.9,-2.9,-1.0,-0.8,740,25,,,,,,,,,,,,,,,,,,
38410,1506920019975,,,,,,,,-0.09,0.06,0.89,-3.0,-1.0,-0.9,740,25,,,,,,,,,,,,,,,,,,
38430,1506920019995,,,,,,,,-0.1,0.06,0.9,-3.0,-1.0,-0.8,740,25,,,,,,,,,,,,,,,,,,
38450,1506920020015,,,,,,,,-0.1,0.06,0.91,-3.0,-1.0,-0.8,740,25,,,,,,,,,,,,,,,,,,
38470,1506920020035,0,59.0,,58.0,56,59.4,,-0.1,0.06,0.9,-3.0,-1.0,-0.9,760,25,0,1,0.0,37.478607,-122.203827,0.0,0.0,70.6,7,3,2.4,0,0.0,-1,0.0,0.0,0.0,0
38490,1506920020055,,,,,,,,-0.1,0.05,0.89,-3.0,-0.9,-0.9,760,25,,,,,,,,,,,,,,,,,,
38510,1506920020075,,,,,,,,-0.09,0.06,0.88,-3.0,-1.0,-0.8,740,23,,,,,,,,,,,,,,,,,,
38530,1506920020095,,,,,,,,-0.09,0.07,0.88,-3.0,-1.1,-0.8,740,23,,,,,,,,,,,,,,,,,,
38550,1506920020115,,,,,,,,-0.09,0.06,0.88,-3.0,-1.2,-0.9,720,23,,,,,,,,,,,,,,,,,,
38570,1506920020133,,,,,57,,,-0.1,0.05,0.88,-3.0,-1.2,-0.9,720,23,0,1,0.0,37.478607,-122.203827,0.0,0.0,70.6,7,3,2.4,0,0.0,-1,0.0,0.0,0.0,0
38590,1506920020153,,,,,,,,-0.1,0.06,0.88,-3.0,-1.2,-0.8,740,23,,,,,,,,,,,,,,,,,,
38610,1506920020173,,,,,,,,-0.1,0.06,0.88,-3.0,-1.1,-0.8,740,23,,,,,,,,,,,,,,,,,,
38630,1506920020193,,,,,,,,-0.09,0.06,0.89,-2.9,-1.1,-0.8,760,23,,,,,,,,,,,,,,,,,,
38650,1506920020213,,,,,,,,-0.09,0.05,0.88,-2.9,-1.0,-0.9,760,23,,,,,,,,,,,,,,,,,,
38670,1506920020235,0,55.5,,55.2,56,55.6,,-0.08,0.06,0.88,-3.0,-1.1,-0.8,720,23,0,1,0.0,37.478607,-122.203827,0.0,0.0,70.6,7,3,2.4,0,0.0,-1,0.0,0.0,0.0,0
38690,1506920020255,,,,,,,,-0.09,0.06,0.87,-3.0,-1.2,-0.8,720,23,,,,,,,,,,,,,,,,,,
38710,1506920020275,,,,,,,,-0.09,0.04,0.88,-3.0,-1.2,-0.9,720,23,,,,,,,,,,,,,,,,,,
38730,1506920020295,,,,,,,,-0.1,0.04,0.88,-3.0,-1.1,-0.9,720,23,,,,,,,,,,,,,,,,,,
38750,1506920020315,,,,,,,,-0.1,0.04,0.88,-2.9,-1.1,-0.8,740,23,,,,,,,,,,,,,,,,,,
38770,1506920020333,,,,,57,,,-0.09,0.04,0.88,-2.9,-1.2,-0.8,740,23,0,1,0.0,37.478607,-122.203827,0.0,0.0,70.6,7,3,2.4,0,0.0,-1,0.0,0.0,0.0,0
38790,1506920020353,,,,,,,,-0.09,0.04,0.87,-2.9,-1.1,-0.9,740,23,,,,,,,,,,,,,,,,,,
38810,1506920020373,,,,,,,,-0.08,0.04,0.87,-2.9,-1.0,-0.9,760,23,,,,,,,,,,,,,,,,,,
38830,1506920020397,,,,,,,,-0.08,0.05,0.88,-2.9,-1.1,-0.8,740,25,,,,,,,,,,,,,,,,,,
38850,1506920020417,,,,,,,,-0.09,0.05,0.87,-2.9,-1.2,-0.9,740,25,,,,,,,,,,,,,,,,,,
38870,1506920020437,0,58.5,,57.1,57,55.8,,-0.09,0.05,0.88,-2.9,-1.1,-0.9,740,25,0,1,0.0,37.478607,-122.203827,0.0,0.0,70.6,7,3,2.4,0,0.0,-1,0.0,0.0,0.0,0
38890,1506920020457,,,,,,,,-0.09,0.04,0.88,-2.9,-1.0,-0.9,740,25,,,,,,,,,,,,,,,,,,
38910,1506920020477,,,,,,,,-0.09,0.05,0.88,-2.9,-1.0,-0.9,740,25,,,,,,,,,,,,,,,,,,
38930,1506920020493,,,,,,,,-0.08,0.05,0.87,-2.9,-1.1,-0.9,740,25,,,,,,,,,,,,,,,,,,
38950,1506920020513,,,,,,,,-0.08,0.05,0.87,-2.8,-1.0,-0.9,740,26,,,,,,,,,,,,,,,,,,
38970,1506920020533,,,,,58,,,-0.08,0.05,0.87,-2.9,-1.0,-0.9,760,26,0,1,0.0,37.478607,-122.203827,0.0,0.0,70.6,7,3,2.4,0,0.0,-1,0.0,0.0,0.0,0
38990,1506920020553,,,,,,,,-0.08,0.06,0.87,-2.9,-1.1,-0.9,720,26,,,,,,,,,,,,,,,,,,
39010,1506920020573,,,,,,,,-0.09,0.05,0.88,-2.9,-1.3,-0.9,740,26,,,,,,,,,,,,,,,,,,
39030,1506920020593,,,,,,,,-0.09,0.05,0.87,-2.9,-1.1,-0.9,740,26,,,,,,,,,,,,,,,,,,
39050,1506920020613,,,,,,,,-0.08,0.05,0.88,-2.9,-0.9,-0.9,720,26,,,,,,,,,,,,,,,,,,
39070,1506920020633,0,58.7,-0.1,58.5,57,58.7,14.94,-0.08,0.06,0.87,-2.9,-0.8,-0.8,740,26,0,1,0.0,37.478607,-122.203827,0.0,0.0,70.6,7,3,2.4,0,0.0,-1,0.0,0.0,0.0,0
39090,1506920020653,,,,,,,,-0.08,0.05,0.89,-2.9,-0.9,-0.9,740,26,,,,,,,,,,,,,,,,,,
39110,1506920020673,,,,,,,,-0.08,0.06,0.89,-2.9,-0.9,-0.9,740,28,,,,,,,,,,,,,,,,,,
39130,1506920020693,,,,,,,,-0.08,0.06,0.88,-2.9,-1.0,-0.9,760,28,,,,,,,,,,,,,,,,,,
39150,1506920020713,,,,,,,,-0.08,0.06,0.88,-2.9,-1.0,-0.8,720,28,,,,,,,,,,,,,,,,,,
39170,1506920020733,,,,,57,,,-0.09,0.05,0.88,-2.9,-1.1,-0.9,720,28,0,1,0.0,37.478607,-122.203827,0.0,0.0,70.6,7,3,2.4,0,0.0,-1,0.0,0.0,0.0,0
39190,1506920020753,,,,,,,,-0.08,0.06,0.88,-2.9,-0.9,-0.8,720,28,,,,,,,,,,,,,,,,,,
39210,1506920020773,,,,,,,,-0.08,0.06,0.88,-2.9,-0.8,-0.8,720,29,,,,,,,,,,,,,,,,,,
39230,1506920020795,,,,,,,,-0.08,0.06,0.88,-2.9,-0.9,-0.7,720,29,,,,,,,,,,,,,,,,,,
39250,1506920020815,,,,,,,,-0.08,0.06,0.87,-2.9,-1.0,-0.8,720,29,,,,,,,,,,,,,,,,,,
39270,1506920020835,0,59.4,,58.5,56,58.1,,-0.08,0.06,0.88,-3.0,-1.0,-0.7,720,29,0,1,0.0,37.478607,-122.203827,0.0,0.0,70.6,7,3,2.4,0,0.0,-1,0.0,0.0,0.0,0
39290,1506920020855,,,,,,,,-0.08,0.06,0.88,-3.0,-1.0,-0.7,740,29,,,,,,,,,,,,,,,,,,
39310,1506920020875,,,,,,,,-0.09,0.05,0.88,-3.0,-1.0,-0.7,700,31,,,,,,,,,,,,,,,,,,
39330,1506920020894,,,,,,,,-0.09,0.06,0.88,-3.0,-0.9,-0.8,700,31,,,,,,,,,,,,,,,,,,
39350,1506920020914,,,,,,,,-0.08,0.06,0.88,-3.0,-0.9,-0.7,700,31,,,,,,,,,,,,,,,,,,
39370,1506920020934,,,,,56,,,-0.08,0.06,0.88,-3.0,-0.9,-0.7,700,31,0,1,0.0,37.478607,-122.203827,0.0,0.0,70.6,7,3,2.4,0,0.0,-1,0.0,0.0,0.0,0
39390,1506920020954,,,,,,,,-0.08,0.06,0.88,-3.1,-1.0,-0.8,700,31,,,,,,,,,,,,,,,,,,
39410,1506920020974,,,,,,,,-0.08,0.06,0.87,-3.1,-0.9,-0.7,700,32,,,,,,,,,,,,,,,,,,
39430,1506920020994,,,,,,,,-0.07,0.06,0.87,-3.1,-0.9,-0.7,720,32,,,,,,,,,,,,,,,,,,
39450,1506920021008,,,,,,,,-0.08,0.06,0.87,-3.1,-1.0,-0.7,740,32,,,,,,,,,,,,,,,,,,
39470,1506920021028,0,58.1,,55.2,55,56.1,,-0.08,0.05,0.88,-3.1,-0.9,-0.8,740,32,0,1,0.0,37.478607,-122.203827,0.0,0.0,70.6,7,3,2.4,0,0.0,-1,0.0,0.0,0.0,0
39490,1506920021048,,,,,,,,-0.08,0.05,0.88,-3.1,-0.9,-0.8,700,34,,,,,,,,,,,,,,,,,,
39510,1506920021068,,,,,,,,-0.08,0.06,0.87,-3.1,-0.9,-0.8,720,34,,,,,,,,,,,,,,,,,,
39530,1506920021096,,,,,,,,-0.08,0.05,0.89,-3.0,-0.9,-0.9,700,34,,,,,,,,,,,,,,,,,,
39550,1506920021116,,,,,,,,-0.07,0.06,0.88,-3.1,-0.8,-0.9,700,35,,,,,,,,,,,,,,,,,,
39570,1506920021136,,,,,54,,,-0.07,0.06,0.89,-3.1,-0.8,-0.8,700,35,0,1,0.0,37.478607,-122.203827,0.0,0.0,70.6,7,3,2.4,0,0.0,-1,0.0,0.0,0.0,0
39590,1506920021156,,,,,,,,-0.07,0.06,0.89,-3.0,-0.8,-0.8,720,35,,,,,,,,,,,,,,,,,,
39610,1506920021176,,,,,,,,-0.08,0.05,0.9,-3.0,-0.8,-0.9,720,35,,,,,,,,,,,,,,,,,,
39630,1506920021196,,,,,,,,-0.08,0.05,0.9,-3.0,-0.7,-0.9,740,37,,,,,,,,,,,,,,,,,,
39650,1506920021216,,,,,,,,-0.08,0.05,0.9,-3.0,-0.7,-0.8,720,37,,,,,,,,,,,,,,,,,,
39670,1506920021236,0,55.7,,56.4,54,59.1,,-0.08,0.05,0.91,-3.0,-0.8,-0.9,720,38,0,1,0.0,37.478607,-122.203827,0.0,0.0,70.6,7,3,2.4,0,0.0,-1,0.0,0.0,0.0,0
39690,1506920021256,,,,,,,,-0.09,0.04,0.91,-3.0,-0.6,-0.9,720,38,,,,,,,,,,,,,,,,,,
39710,1506920021276,,,,,,,,-0.08,0.05,0.91,-3.0,-0.5,-0.9,720,38,,,,,,,,,,,,,,,,,,
39730,1506920021296,,,,,,,,-0.08,0.05,0.9,-3.0,-0.5,-0.9,720,40,,,,,,,,,,,,,,,,,,
39750,1506920021316,,,,,,,,-0.08,0.04,0.91,-3.0,-0.6,-1.0,740,40,,,,,,,,,,,,,,,,,,
39770,1506920021336,,,,,55,,,-0.08,0.05,0.9,-3.0,-0.6,-1.0,740,40,0,1,0.0,37.478607,-122.203827,0.0,0.0,70.6,7,3,2.4,0,0.0,-1,0.0,0.0,0.0,0
39790,1506920021356,,,,,,,,-0.08,0.06,0.9,-3.0,-0.6,-0.9,760,40,,,,,,,,,,,,,,,,,,
39810,1506920021376,,,,,,,,-0.08,0.06,0.89,-3.0,-0.7,-0.9,720,42,,,,,,,,,,,,,,,,,,
39830,1506920021396,,,,,,,,-0.09,0.06,0.9,-3.0,-0.7,-1.0,740,42,,,,,,,,,,,,,,,,,,
39850,1506920021416,,,,,,,,-0.09,0.06,0.9,-2.9,-0.6,-1.1,740,42,,,,,,,,,,,,,,,,,,
39870,1506920021436,0,57.8,,55.0,54,56.2,,-0.08,0.07,0.89,-2.9,-0.6,-1.0,740,42,0,1,0.0,37.478607,-122.203827,0.0,0.0,70.6,7,3,2.4,0,0.0,-1,0.0,0.0,0.0,0
39890,1506920021456,,,,,,,,-0.09,0.07,0.89,-2.9,-0.4,-1.0,740,42,,,,,,,,,,,,,,,,,,
39910,1506920021476,,,,,,,,-0.09,0.06,0.91,-2.9,-0.6,-1.1,740,42,,,,,,,,,,,,,,,,,,
39930,1506920021494,,,,,,,,-0.09,0.06,0.9,-2.9,-0.6,-1.1,740,42,,,,,,,,,,,,,,,,,,
39950,1506920021514,,,,,,,,-0.09,0.07,0.9,-2.9,-0.7,-1.0,760,42,,,,,,,,,,,,,,,,,,
39970,1506920021534,,,,,56,,,-0.1,0.07,0.89,-2.9,-0.7,-1.0,740,42,0,1,0.0,37.478607,-122.203827,0.0,0.0,70.6,7,3,2.4,0,0.0,-1,0.0,0.0,0.0,0
39990,1506920021554,,,,,,,,-0.11,0.06,0.91,-2.9,-0.7,-1.1,740,42,,,,,,,,,,,,,,,,,,
40010,1506920021574,,,,,,,,-0.11,0.06,0.9,-2.9,-0.5,-1.1,740,42,,,,,,,,,,,,,,,,,,
40030,1506920021594,,,,,,,,-0.1,0.07,0.9,-2.9,-0.4,-1.0,740,42,,,,,,,,,,,,,,,,,,
40050,1506920021614,,,,,,,,-0.1,0.07,0.89,-2.9,-0.3,-1.0,740,42,,,,,,,,,,,,,,,,,,
40070,1506920021634,0,55.4,-0.7,55.2,56,58.3,14.89,-0.1,0.06,0.91,-2.9,-0.4,-1.1,740,42,0,1,0.0,37.478607,-122.203827,0.0,0.0,70.6,7,3,2.4,0,0.0,-1,0.0,0.0,0.0,0
40090,1506920021602,,,,,,,,-0.1,0.06,0.9,-2.9,-0.3,-1.1,740,42,,,,,,,,,,,,,,,,,,
40110,1506920021622,,,,,,,,-0.1,0.07,0.9,-2.9,-0.4,-1.0,760,40,,,,,,,,,,,,,,,,,,
40130,1506920021692,,,,,,,,-0.11,0.07,0.89,-2.9,-0.4,-1.0,720,40,,,,,,,,,,,,,,,,,,
40150,1506920021712,,,,,,,,-0.11,0.07,0.92,-2.9,-0.4,-1.1,740,40,,,,,,,,,,,,,,,,,,
40170,1506920021732,,,,,58,,,-0.11,0.07,0.91,-2.9,-0.3,-1.1,740,42,0,1,0.0,37.478596,-122.203827,0.0,0.0,66.2,8,3,2.3,0,0.0,-1,0.0,0.0,0.0,0
40190,1506920021752,,,,,,,,-0.1,0.08,0.9,-2.9,-0.2,-1.1,720,42,,,,,,,,,,,,,,,,,,
40210,1506920021772,,,,,,,,-0.1,0.08,0.9,-2.9,-0.2,-1.0,720,40,,,,,,,,,,,,,,,,,,
40230,1506920021792,,,,,,,,-0.1,0.07,0.91,-2.9,-0.4,-1.2,720,40,,,,,,,,,,,,,,,,,,
40250,1506920021812,,,,,,,,-0.11,0.07,0.9,-3.0,-0.4,-1.2,720,40,,,,,,,,,,,,,,,,,,
40270,1506920021832,0,57.8,,58.3,56,59.1,,-0.1,0.07,0.9,-3.0,-0.5,-1.1,740,40,0,1,0.0,37.478596,-122.203827,0.0,0.0,66.2,8,3,2.3,0,0.0,-1,0.0,0.0,0.0,0
40290,1506920021852,,,,,,,,-0.11,0.07,0.9,-3.0,-0.4,-1.1,720,40,,,,,,,,,,,,,,,,,,
40310,1506920021872,,,,,,,,-0.12,0.07,0.9,-3.0,-0.4,-1.2,720,40,,,,,,,,,,,,,,,,,,
40330,1506920021895,,,,,,,,-0.11,0.07,0.89,-3.0,-0.4,-1.2,720,40,,,,,,,,,,,,,,,,,,
40350,1506920021915,,,,,,,,-0.11,0.08,0.88,-3.0,-0.5,-1.2,720,40,,,,,,,,,,,,,,,,,,
40370,1506920021935,,,,,57,,,-0.11,0.07,0.88,-3.0,-0.5,-1.2,720,40,0,1,0.0,37.478596,-122.203827,0.0,0.0,66.2,8,3,2.3,0,0.0,-1,0.0,0.0,0.0,0
40390,1506920021955,,,,,,,,-0.11,0.06,0.88,-3.0,-0.4,-1.2,720,40,,,,,,,,,,,,,,,,,,
40410,1506920021975,,,,,,,,-0.11,0.06,0.89,-3.0,-0.4,-1.2,720,40,,,,,,,,,,,,,,,,,,
40430,1506920021995,,,,,,,,-0.11,0.06,0.88,-3.0,-0.4,-1.2,740,40,,,,,,,,,,,,,,,,,,
40450,1506920022009,,,,,,,,-0.11,0.05,0.89,-3.0,-0.4,-1.2,700,40,,,,,,,,,,,,,,,,,,
40470,1506920022029,0,59.3,,58.0,56,57.1,,-0.11,0.06,0.89,-3.0,-0.4,-1.3,700,40,0,1,0.0,37.478596,-122.203827,0.0,0.0,66.2,8,3,2.3,0,0.0,-1,0.0,0.0,0.0,0
40490,1506920022049,,,,,,,,-0.11,0.06,0.9,-3.0,-0.4,-1.2,720,40,,,,,,,,,,,,,,,,,,
40510,1506920022069,,,,,,,,-0.11,0.06,0.9,-3.0,-0.4,-1.2,700,40,,,,,,,,,,,,,,,,,,
40530,1506920022095,,,,,,,,-0.11,0.05,0.91,-3.0,-0.4,-1.2,700,40,,,,,,,,,,,,,,,,,,
40550,1506920022115,,,,,,,,-0.11,0.05,0.9,-3.0,-0.3,-1.2,720,40,,,,,,,,,,,,,,,,,,
40570,1506920022135,,,,,55,,,-0.11,0.06,0.91,-3.0,-0.3,-1.2,720,40,0,1,0.0,37.478596,-122.203827,0.0,0.0,66.2,8,3,2.3,0,0.0,-1,0.0,0.0,0.0,0
40590,1506920022155,,,,,,,,-0.11,0.05,0.91,-3.0,-0.3,-1.2,740,40,,,,,,,,,,,,,,,,,,
40610,1506920022175,,,,,,,,-0.11,0.05,0.91,-3.0,-0.3,-1.2,740,40,,,,,,,,,,,,,,,,,,
40630,1506920022195,,,,,,,,-0.11,0.06,0.9,-3.0,-0.3,-1.1,700,42,,,,,,,,,,,,,,,,,,
40650,1506920022215,,,,,,,,-0.11,0.07,0.9,-3.0,-0.2,-1.1,720,42,,,,,,,,,,,,,,,,,,
40670,1506920022235,0,55.8,,55.0,53,57.9,,-0.11,0.06,0.9,-3.0,-0.3,-1.2,700,42,0,1,0.0,37.478596,-122.203827,0.0,0.0,66.2,8,3,2.3,0,0.0,-1,0.0,0.0,0.0,0
40690,1506920022255,,,,,,,,-0.11,0.05,0.89,-3.0,-0.3,-1.2,700,42,,,,,,,,,,,,,,,,,,
40710,1506920022275,,,,,,,,-0.11,0.06,0.89,-3.1,-0.3,-1.2,720,42,,,,,,,,,,,,,,,,,,
40730,1506920022295,,,,,,,,-0.11,0.06,0.89,-3.0,-0.4,-1.2,720,43,,,,,,,,,,,,,,,,,,
40750,1506920022315,,,,,,,,-0.11,0.06,0.89,-3.0,-0.3,-1.2,720,43,,,,,,,,,,,,,,,,,,
40770,1506920022335,,,,,54,,,-0.1,0.06,0.89,-3.1,-0.2,-1.2,740,45,0,1,0.0,37.478596,-122.203827,0.0,0.0,66.2,8,3,2.3,0,0.0,-1,0.0,0.0,0.0,0
40790,1506920022355,,,,,,,,-0.1,0.07,0.89,-3.1,-0.3,-1.2,700,45,,,,,,,,,,,,,,,,,,
40810,1506920022375,,,,,,,,-0.11,0.07,0.9,-3.1,-0.4,-1.3,720,43,,,,,,,,,,,,,,,,,,
40830,1506920022395,,,,,,,,-0.11,0.07,0.9,-3.1,-0.3,-1.2,720,43,,,,,,,,,,,,,,,,,,
40850,1506920022415,,,,,,,,-0.1,0.07,0.9,-3.1,-0.3,-1.1,720,43,,,,,,,,,,,,,,,,,,
40870,1506920022435,0,55.8,,56.8,54,59.3,,-0.1,0.07,0.9,-3.0,-0.2,-1.1,720,45,0,1,0.0,37.478596,-122.203827,0.0,0.0,66.2,8,3,2.3,0,0.0,-1,0.0,0.0,0.0,0
40890,1506920022455,,,,,,,,-0.11,0.07,0.91,-3.1,-0.3,-1.2,720,45,,,,,,,,,,,,,,,,,,
40910,1506920022475,,,,,,,,-0.11,0.07,0.9,-3.1,-0.3,-1.2,720,48,,,,,,,,,,,,,,,,,,
40930,1506920022493,,,,,,,,-0.11,0.07,0.9,-3.1,-0.3,-1.1,740,46,,,,,,,,,,,,,,,,,,
40950,1506920022513,,,,,,,,-0.11,0.06,0.9,-3.1,-0.3,-1.1,720,46,,,,,,,,,,,,,,,,,,
40970,1506920022533,,,,,55,,,-0.11,0.05,0.9,-3.1,-0.2,-1.1,720,46,0,1,0.0,37.478596,-122.203827,0.0,0.0,66.2,8,3,2.3,0,0.0,-1,0.0,0.0,0.0,0
40990,1506920022553,,,,,,,,-0.11,0.05,0.89,-3.1,-0.0,-1.1,720,46,,,,,,,,,,,,,,,,,,
41010,1506920022573,,,,,,,,-0.1,0.05,0.89,-3.1,-0.1,-1.1,720,48,,,,,,,,,,,,,,,,,,
41030,1506920022593,,,,,,,,-0.1,0.05,0.88,-3.1,-0.1,-1.1,720,49,,,,,,,,,,,,,,,,,,
41050,1506920022613,,,,,,,,-0.12,0.04,0.91,-3.1,0.2,-1.2,720,49,,,,,,,,,,,,,,,,,,
41070,1506920022633,0,58.7,-0.2,58.7,56,58.7,14.91,-0.13,0.04,0.92,-3.1,0.6,-1.1,720,49,0,1,0.0,37.478596,-122.203827,0.0,0.0,66.2,8,3,2.3,0,0.0,-1,0.0,0.0,0.0,0
41090,1506920022653,,,,,,,,-0.13,0.05,0.91,-3.2,0.6,-0.9,740,51,,,,,,,,,,,,,,,,,,
41110,1506920022673,,,,,,,,-0.12,0.04,0.9,-3.2,0.3,-0.8,720,54,,,,,,,,,,,,,,,,,,
41130,1506920022693,,,,,,,,-0.11,0.04,0.89,-3.2,0.7,-0.9,720,54,,,,,,,,,,,,,,,,,,
41150,1506920022713,,,,,,,,-0.09,0.04,0.89,-3.3,0.9,-0.8,720,55,,,,,,,,,,,,,,,,,,
41170,1506920022733,,,,,54,,,-0.1,0.04,0.9,-3.3,0.8,-0.8,720,58,0,1,0.0,37.478596,-122.203827,0.0,0.0,66.2,8,3,2.3,0,0.0,-1,0.0,0.0,0.0,0
41190,1506920022753,,,,,,,,-0.1,0.03,0.9,-3.3,0.6,-0.9,720,57,,,,,,,,,,,,,,,,,,
41210,1506920022773,,,,,,,,-0.1,0.03,0.89,-3.3,0.4,-0.9,720,57,,,,,,,,,,,,,,,,,,
41230,1506920022793,,,,,,,,-0.11,0.03,0.89,-3.4,0.3,-0.8,740,54,,,,,,,,,,,,,,,,,,
41250,1506920022813,,,,,,,,-0.12,0.01,0.89,-3.4,0.1,-0.7,740,54,,,,,,,,,,,,,,,,,,
41270,1506920022833,0,55.5,,56.5,53,59.4,,-0.14,0.01,0.89,-3.4,0.1,-0.7,720,54,0,1,0.0,37.478596,-122.203827,0.0,0.0,66.2,8,3,2.3,0,0.0,-1,0.0,0.0,0.0,0
41290,1506920022853,,,,,,,,-0.15,0.01,0.89,-3.4,-0.1,-0.8,720,57,,,,,,,,,,,,,,,,,,
41310,1506920022873,,,,,,,,-0.15,0.01,0.89,-3.4,-0.3,-0.8,720,60,,,,,,,,,,,,,,,,,,
41330,1506920022896,,,,,,,,-0.16,0.01,0.9,-3.3,-0.5,-0.8,720,60,,,,,,,,,,,,,,,,,,
41350,1506920022916,,,,,,,,-0.17,0.02,0.9,-3.3,-0.7,-0.8,720,58,,,,,,,,,,,,,,,,,,
41370,1506920022936,,,,,55,,,-0.17,0.02,0.9,-3.3,-0.9,-0.7,720,58,0,1,0.0,37.478588,-122.203827,0.94,0.0,59.3,8,3,2.3,0,0.0,-1,0.0,0.0,0.0,0
41390,1506920022956,,,,,,,,-0.17,0.04,0.9,-3.2,-1.0,-0.6,740,54,,,,,,,,,,,,,,,,,,
41410,1506920022976,,,,,,,,-0.18,0.04,0.9,-3.1,-1.3,-0.5,760,51,,,,,,,,,,,,,,,,,,
41430,1506920022996,,,,,,,,-0.18,0.04,0.9,-3.1,-1.4,-0.5,760,51,,,,,,,,,,,,,,,,,,
41450,1506920023008,,,,,,,,-0.18,0.05,0.9,-3.0,-1.4,-0.5,720,49,,,,,,,,,,,,,,,,,,
41470,1506920023028,0,57.6,,58.3,56,59.4,,-0.18,0.06,0.9,-3.0,-1.4,-0.4,740,49,0,1,0.0,37.478588,-122.203827,0.0,0.0,59.3,8,3,2.3,0,0.0,-1,0.0,0.0,0.0,0
41490,1506920023048,,,,,,,,-0.19,0.05,0.9,-3.0,-1.5,-0.4,740,48,,,,,,,,,,,,,,,,,,
41510,1506920023068,,,,,,,,-0.19,0.05,0.89,-3.0,-1.4,-0.4,740,43,,,,,,,,,,,,,,,,,,
41530,1506920023094,,,,,,,,-0.19,0.06,0.88,-3.0,-1.5,-0.4,740,43,,,,,,,,,,,,,,,,,,
41550,1506920023114,,,,,,,,-0.19,0.07,0.89,-2.9,-1.4,-0.3,740,43,,,,,,,,,,,,,,,,,,
41570,1506920023134,,,,,57,,,-0.19,0.07,0.89,-2.9,-1.5,-0.4,740,37,0,1,0.0,37.478588,-122.203827,0.0,0.0,59.3,8,3,2.3,0,0.0,-1,0.0,0.0,0.0,0
41590,1506920023154,,,,,,,,-0.19,0.07,0.88,-3.0,-1.5,-0.5,740,37,,,,,,,,,,,,,,,,,,
41610,1506920023174,,,,,,,,-0.19,0.07,0.87,-3.0,-1.5,-0.6,720,31,,,,,,,,,,,,,,,,,,
41630,1506920023194,,,,,,,,-0.19,0.07,0.88,-3.0,-1.5,-0.6,740,31,,,,,,,,,,,,,,,,,,
41650,1506920023214,,,,,,,,-0.2,0.07,0.88,-3.0,-1.6,-0.7,740,31,,,,,,,,,,,,,,,,,,
41670,1506920023234,0,58.8,,58.7,57,58.4,,-0.19,0.07,0.87,-3.0,-1.7,-0.8,740,29,0,1,0.0,37.478588,-122.203827,0.0,0.0,59.3,8,3,2.3,0,0.0,-1,0.0,0.0,0.0,0
41690,1506920023254,,,,,,,,-0.19,0.06,0.87,-3.0,-1.8,-0.8,740,29,,,,,,,,,,,,,,,,,,
41710,1506920023274,,,,,,,,-0.19,0.07,0.88,-3.0,-2.0,-0.8,740,29,,,,,,,,,,,,,,,,,,
41730,1506920023294,,,,,,,,-0.19,0.06,0.88,-3.0,-1.9,-0.9,740,26,,,,,,,,,,,,,,,,,,
41750,1506920023314,,,,,,,,-0.19,0.06,0.88,-3.0,-1.9,-0.9,740,26,,,,,,,,,,,,,,,,,,
41770,1506920023334,,,,,55,,,-0.19,0.06,0.87,-3.0,-2.0,-0.9,720,26,0,1,0.0,37.478588,-122.203827,0.0,0.0,59.3,8,3,2.3,0,0.0,-1,0.0,0.0,0.0,0
41790,1506920023354,,,,,,,,-0.19,0.06,0.88,-3.1,-2.0,-0.8,740,26,,,,,,,,,,,,,,,,,,
41810,1506920023374,,,,,,,,-0.19,0.05,0.88,-3.0,-2.0,-0.9,720,22,,,,,,,,,,,,,,,,,,
41830,1506920023394,,,,,,,,-0.19,0.06,0.87,-3.0,-1.9,-0.9,720,22,,,,,,,,,,,,,,,,,,
41850,1506920023414,,,,,,,,-0.19,0.06,0.87,-3.0,-1.8,-0.8,720,22,,,,,,,,,,,,,,,,,,
41870,1506920023434,0,55.5,,55.5,56,58.4,,-0.19,0.06,0.88,-3.0,-1.9,-0.8,740,22,0,1,0.0,37.478588,-122.203827,0.0,0.0,59.3,8,3,2.3,0,0.0,-1,0.0,0.0,0.0,0
41890,1506920023454,,,,,,,,-0.19,0.06,0.88,-3.0,-1.9,-0.8,740,22,,,,,,,,,,,,,,,,,,
41910,1506920023474,,,,,,,,-0.18,0.06,0.88,-3.0,-1.8,-0.8,740,15,,,,,,,,,,,,,,,,,,
41930,1506920023492,,,,,,,,-0.18,0.06,0.88,-3.0,-1.7,-0.8,720,15,,,,,,,,,,,,,,,,,,
41950,1506920023512,,,,,,,,-0.18,0.06,0.88,-3.0,-1.8,-0.8,720,15,,,,,,,,,,,,,,,,,,
41970,1506920023532,,,,,55,,,-0.18,0.06,0.88,-3.0,-1.7,-0.9,720,15,0,1,0.0,37.478588,-122.203827,0.0,0.0,59.3,8,3,2.3,0,0.0,-1,0.0,0.0,0.0,0
41990,1506920023552,,,,,,,,-0.18,0.05,0.87,-3.0,-1.7,-0.9,720,15,,,,,,,,,,,,,,,,,,
42010,1506920023572,,,,,,,,-0.18,0.06,0.87,-3.0,-1.7,-0.8,720,15,,,,,,,,,,,,,,,,,,
42030,1506920023592,,,,,,,,-0.18,0.05,0.88,-3.0,-1.7,-0.8,720,15,,,,,,,,,,,,,,,,,,
42050,1506920023612,,,,,,,,-0.18,0.05,0.87,-3.0,-1.7,-0.9,720,15,,,,,,,,,,,,,,,,,,
42070,1506920023632,0,58.6,-0.5,57.4,56,56.4,14.95,-0.18,0.06,0.87,-3.0,-1.7,-0.9,740,15,0,1,0.0,37.478588,-122.203827,0.0,0.0,59.3,8,3,2.3,0,0.0,-1,0.0,0.0,0.0,0
42090,1506920023652,,,,,,,,-0.18,0.06,0.87,-3.0,-1.7,-0.8,700,15,,,,,,,,,,,,,,,,,,
42110,1506920023672,,,,,,,,-0.18,0.06,0.88,-3.0,-1.8,-0.9,720,15,,,,,,,,,,,,,,,,,,
42130,1506920023692,,,,,,,,-0.18,0.06,0.88,-3.0,-1.8,-0.9,720,15,,,,,,,,,,,,,,,,,,
42150,1506920023712,,,,,,,,-0.18,0.05,0.88,-3.0,-1.8,-0.9,720,15,,,,,,,,,,,,,,,,,,
42170,1506920023732,,,,,56,,,-0.18,0.05,0.88,-3.0,-1.8,-0.9,720,15,0,1,0.0,37.478588,-122.203827,0.0,0.0,59.3,8,3,2.3,0,0.0,-1,0.0,0.0,0.0,0
42190,1506920023752,,,,,,,,-0.18,0.05,0.88,-3.0,-1.9,-1.0,720,15,,,,,,,,,,,,,,,,,,
42210,1506920023772,,,,,,,,-0.17,0.05,0.88,-3.0,-1.8,-1.0,720,15,,,,,,,,,,,,,,,,,,
42230,1506920023792,,,,,,,,-0.16,0.05,0.88,-3.0,-1.8,-1.0,720,15,,,,,,,,,,,,,,,,,,
42250,1506920023812,,,,,,,,-0.16,0.05,0.88,-2.9,-1.8,-1.0,700,15,,,,,,,,,,,,,,,,,,
42270,1506920023832,0,55.6,,56.7,54,59.2,,-0.16,0.05,0.88,-2.9,-1.8,-1.0,700,15,0,1,0.0,37.478588,-122.203827,0.0,0.0,59.3,8,3,2.3,0,0.0,-1,0.0,0.0,0.0,0
42290,1506920023852,,,,,,,,-0.16,0.06,0.88,-2.9,-1.7,-1.0,720,15,,,,,,,,,,,,,,,,,,
42310,1506920023872,,,,,,,,-0.15,0.06,0.87,-2.9,-1.8,-0.9,720,15,,,,,,,,,,,,,,,,,,
42330,1506920023895,,,,,,,,-0.15,0.06,0.88,-2.9,-1.8,-1.0,720,15,,,,,,,,,,,,,,,,,,
42350,1506920023915,,,,,,,,-0.15,0.06,0.89,-3.0,-1.8,-0.9,720,15,,,,,,,,,,,,,,,,,,
42370,1506920023935,,,,,54,,,-0.14,0.06,0.88,-3.0,-1.7,-0.9,720,15,0,1,0.0,37.478588,-122.203827,0.0,0.0,59.3,8,3,2.3,0,0.0,-1,0.0,0.0,0.0,0
42390,1506920023955,,,,,,,,-0.14,0.06,0.88,-2.9,-1.8,-0.9,720,15,,,,,,,,,,,,,,,,,,
42410,1506920023975,,,,,,,,-0.14,0.06,0.88,-2.9,-1.8,-0.9,720,15,,,,,,,,,,,,,,,,,,
42430,1506920023995,,,,,,,,-0.14,0.06,0.88,-2.9,-1.8,-0.9,700,15,,,,,,,,,,,,,,,,,,
42450,1506920024007,,,,,,,,-0.13,0.06,0.88,-2.9,-1.7,-0.8,700,15,,,,,,,,,,,,,,,,,,
42470,1506920024027,0,58.4,,59.2,55,59.3,,-0.13,0.06,0.88,-2.9,-1.7,-0.9,700,15,0,1,0.0,37.478588,-122.203827,0.0,0.0,59.3,8,3,2.3,0,0.0,-1,0.0,0.0,0.0,0
42490,1506920024047,,,,,,,,-0.13,0.05,0.88,-2.9,-1.6,-0.9,700,15,,,,,,,,,,,,,,,,,,
42510,1506920024067,,,,,,,,-0.13,0.06,0.88,-2.9,-1.6,-0.8,720,15,,,,,,,,,,,,,,,,,,
42530,1506920024095,,,,,,,,-0.12,0.06,0.88,-2.9,-1.7,-0.7,720,15,,,,,,,,,,,,,,,,,,
42550,1506920024115,,,,,,,,-0.12,0.06,0.88,-2.9,-1.7,-0.8,740,15,,,,,,,,,,,,,,,,,,
42570,1506920024135,,,,,54,,,-0.12,0.06,0.88,-2.9,-1.5,-0.8,740,2,0,1,0.0,37.478588,-122.203827,0.0,0.0,59.3,8,3,2.3,0,0.0,-1,0.0,0.0,0.0,0
42590,1506920024155,,,,,,,,-0.11,0.07,0.88,-2.9,-1.6,-0.8,700,45,,,,,,,,,,,,,,,,,,
42610,1506920024175,,,,,,,,-0.11,0.07,0.88,-2.9,-1.8,-0.8,720,45,,,,,,,,,,,,,,,,,,
42630,1506920024195,,,,,,,,-0.11,0.06,0.88,-2.9,-1.8,-0.9,720,45,,,,,,,,,,,,,,,,,,
42650,1506920024215,,,,,,,,-0.11,0.07,0.87,-2.9,-1.7,-0.9,720,45,,,,,,,,,,,,,,,,,,
42670,1506920024235,0,58.7,,57.5,55,55.9,,-0.11,0.06,0.89,-2.9,-1.6,-0.9,720,45,0,1,0.0,37.478588,-122.203827,0.0,0.0,59.3,8,3,2.3,0,0.0,-1,0.0,0.0,0.0,0
42690,1506920024255,,,,,,,,-0.12,0.06,0.9,-3.0,-1.7,-0.9,720,45,,,,,,,,,,,,,,,,,,
42710,1506920024275,,,,,,,,-0.12,0.05,0.9,-3.0,-1.8,-1.0,720,45,,,,,,,,,,,,,,,,,,
42730,1506920024295,,,,,,,,-0.11,0.05,0.9,-3.0,-1.7,-0.9,760,45,,,,,,,,,,,,,,,,,,
42750,1506920024315,,,,,,,,-0.11,0.05,0.91,-3.0,-1.4,-0.9,720,45,,,,,,,,,,,,,,,,,,
42770,1506920024335,,,,,56,,,-0.12,0.05,0.91,-3.0,-1.4,-0.8,740,45,0,1,0.0,37.478588,-122.203827,0.0,0.0,59.3,8,3,2.3,0,0.0,-1,0.0,0.0,0.0,0
42790,1506920024355,,,,,,,,-0.12,0.04,0.9,-3.0,-1.5,-0.9,740,45,,,,,,,,,,,,,,,,,,
42810,1506920024375,,,,,,,,-0.12,0.04,0.9,-3.0,-1.5,-0.8,740,15,,,,,,,,,,,,,,,,,,
42830,1506920024395,,,,,,,,-0.12,0.04,0.91,-3.0,-1.3,-0.8,740,15,,,,,,,,,,,,,,,,,,
42850,1506920024415,,,,,,,,-0.13,0.03,0.91,-3.0,-1.4,-0.8,740,15,,,,,,,,,,,,,,,,,,
42870,1506920024435,0,58.8,,58.2,56,56.3,,-0.13,0.03,0.9,-3.0,-1.6,-0.9,740,15,0,1,0.0,37.478588,-122.203827,0.0,0.0,59.3,8,3,2.3,0,0.0,-1,0.0,0.0,0.0,0
42890,1506920024455,,,,,,,,-0.13,0.03,0.9,-3.0,-1.4,-0.9,760,15,,,,,,,,,,,,,,,,,,
42910,1506920024475,,,,,,,,-0.13,0.03,0.9,-3.1,-1.4,-0.8,740,15,,,,,,,,,,,,,,,,,,
42930,1506920024493,,,,,,,,-0.13,0.05,0.88,-3.1,-1.9,-0.7,760,15,,,,,,,,,,,,,,,,,,
42950,1506920024513,,,,,,,,-0.13,0.04,0.88,-3.0,-2.0,-0.9,760,15,,,,,,,,,,,,,,,,,,
42970,1506920024533,,,,,58,,,-0.13,0.04,0.88,-3.0,-1.8,-1.0,760,15,0,1,0.0,37.478588,-122.203827,0.0,0.0,59.3,8,3,2.3,0,0.0,-1,0.0,0.0,0.0,0
42990,1506920024553,,,,,,,,-0.13,0.05,0.87,-3.0,-2.0,-0.9,760,15,,,,,,,,,,,,,,,,,,
43010,1506920024573,,,,,,,,-0.12,0.06,0.9,-3.0,-1.8,-0.7,760,15,,,,,,,,,,,,,,,,,,
43030,1506920024593,,,,,,,,-0.12,0.05,0.92,-3.0,-1.5,-1.0,780,15,,,,,,,,,,,,,,,,,,
43050,1506920024613,,,,,,,,-0.13,0.05,0.91,-3.0,-1.6,-1.1,780,15,,,,,,,,,,,,,,,,,,
43070,1506920024633,0,59.2,-0.2,59.2,58,58.5,14.91,-0.12,0.06,0.9,-3.0,-1.5,-1.0,760,15,0,1,0.0,37.478588,-122.203827,0.0,0.0,59.3,8,3,2.3,0,0.0,-1,0.0,0.0,0.0,0
43090,1506920024653,,,,,,,,-0.12,0.06,0.89,-3.0,-1.4,-0.9,780,15,,,,,,,,,,,,,,,,,,
43110,1506920024673,,,,,,,,-0.13,0.05,0.9,-3.0,-1.9,-0.8,760,15,,,,,,,,,,,,,,,,,,
43130,1506920024693,,,,,,,,-0.13,0.04,0.88,-3.0,-2.1,-1.0,780,15,,,,,,,,,,,,,,,,,,
43150,1506920024713,,,,,,,,-0.13,0.03,0.91,-2.9,-1.7,-1.0,780,15,,,,,,,,,,,,,,,,,,
43170,1506920024733,,,,,60,,,-0.12,0.05,0.87,-3.0,-2.3,-0.9,780,15,0,1,0.0,37.478588,-122.203827,0.0,0.0,59.3,8,3,2.3,0,0.0,-1,0.0,0.0,0.0,0
43190,1506920024753,,,,,,,,-0.11,0.06,0.87,-2.9,-2.2,-0.7,780,15,,,,,,,,,,,,,,,,,,
43210,1506920024773,,,,,,,,-0.12,0.05,0.92,-2.9,-2.0,-0.9,760,15,,,,,,,,,,,,,,,,,,
43230,1506920024793,,,,,,,,-0.13,0.04,0.91,-2.9,-2.4,-1.0,760,2,,,,,,,,,,,,,,,,,,
43250,1506920024809,,,,,,,,-0.11,0.03,0.9,-2.9,-1.7,-1.0,780,2,,,,,,,,,,,,,,,,,,
43270,1506920024829,0,58.6,,57.4,60,56.1,,-0.12,0.03,0.9,-2.9,-2.0,-0.9,780,2,0,1,0.0,37.478588,-122.203827,0.0,0.0,59.3,8,3,2.3,0,0.0,-1,0.0,0.0,0.0,0
43290,1506920024849,,,,,,,,-0.11,0.04,0.88,-2.9,-1.9,-0.7,780,2,,,,,,,,,,,,,,,,,,
43310,1506920024869,,,,,,,,-0.12,0.03,0.92,-2.9,-1.5,-1.0,780,2,,,,,,,,,,,,,,,,,,
43330,1506920024896,,,,,,,,-0.13,0.04,0.92,-2.9,-1.7,-1.1,780,2,,,,,,,,,,,,,,,,,,
43350,1506920024916,,,,,,,,-0.11,0.05,0.91,-2.9,-1.7,-1.0,760,11,,,,,,,,,,,,,,,,,,
43370,1506920024936,,,,,60,,,-0.11,0.05,0.91,-3.0,-1.6,-0.9,740,11,0,1,0.0,37.478588,-122.203827,0.0,0.0,59.3,8,3,2.3,0,0.0,-1,0.0,0.0,0.0,0
43390,1506920024956,,,,,,,,-0.11,0.06,0.89,-3.0,-1.7,-0.9,760,11,,,,,,,,,,,,,,,,,,
43410,1506920024976,,,,,,,,-0.12,0.06,0.89,-3.0,-2.1,-1.0,760,11,,,,,,,,,,,,,,,,,,
43430,1506920024996,,,,,,,,-0.1,0.05,0.89,-2.9,-1.6,-1.0,740,11,,,,,,,,,,,,,,,,,,
43450,1506920025010,,,,,,,,-0.09,0.05,0.88,-2.9,-1.7,-0.9,740,15,,,,,,,,,,,,,,,,,,
43470,1506920025030,0,56.4,,55.5,59,57.5,,-0.11,0.05,0.89,-3.0,-1.8,-0.9,740,15,0,1,0.0,37.478588,-122.203827,0.0,0.0,59.3,8,3,2.3,0,0.0,-1,0.0,0.0,0.0,0
43490,1506920025050,,,,,,,,-0.11,0.04,0.89,-3.0,-1.8,-1.1,740,15,,,,,,,,,,,,,,,,,,
43510,1506920025070,,,,,,,,-0.11,0.05,0.89,-3.0,-1.7,-1.1,720,15,,,,,,,,,,,,,,,,,,
43530,1506920025096,,,,,,,,-0.1,0.06,0.88,-2.9,-1.6,-0.9,700,18,,,,,,,,,,,,,,,,,,
43550,1506920025116,,,,,,,,-0.1,0.06,0.88,-2.9,-1.8,-0.9,700,18,,,,,,,,,,,,,,,,,,
43570,1506920025136,,,,,56,,,-0.1,0.06,0.89,-3.0,-1.8,-0.9,700,18,0,1,0.0,37.478588,-122.203827,0.0,0.0,59.3,8,3,2.3,0,0.0,-1,0.0,0.0,0.0,0
43590,1506920025156,,,,,,,,-0.1,0.07,0.89,-3.0,-1.8,-0.9,680,18,,,,,,,,,,,,,,,,,,
43610,1506920025176,,,,,,,,-0.1,0.06,0.9,-3.0,-2.0,-1.0,680,22,,,,,,,,,,,,,,,,,,
43630,1506920025196,,,,,,,,-0.11,0.06,0.9,-3.0,-2.0,-1.0,680,22,,,,,,,,,,,,,,,,,,
43650,1506920025216,,,,,,,,-0.1,0.06,0.9,-3.0,-1.8,-0.9,680,22,,,,,,,,,,,,,,,,,,
43670,1506920025236,0,58.6,,57.9,54,56.1,,-0.1,0.06,0.89,-2.9,-1.7,-0.9,660,22,0,1,0.0,37.478588,-122.203827,0.0,0.0,59.3,8,3,2.3,0,0.0,-1,0.0,0.0,0.0,0
43690,1506920025256,,,,,,,,-0.1,0.05,0.9,-2.9,-1.8,-0.9,660,22,,,,,,,,,,,,,,,,,,
43710,1506920025276,,,,,,,,-0.1,0.05,0.91,-2.9,-1.6,-0.9,640,22,,,,,,,,,,,,,,,,,,
43730,1506920025296,,,,,,,,-0.1,0.05,0.91,-2.9,-1.4,-0.9,620,25,,,,,,,,,,,,,,,,,,
43750,1506920025316,,,,,,,,-0.1,0.05,0.9,-2.9,-1.6,-0.9,620,25,,,,,,,,,,,,,,,,,,
43770,1506920025336,,,,,50,,,-0.09,0.05,0.9,-3.0,-1.5,-0.9,620,25,0,1,0.0,37.478588,-122.203827,0.0,0.0,59.3,8,3,2.3,0,0.0,-1,0.0,0.0,0.0,0
43790,1506920025356,,,,,,,,-0.1,0.05,0.9,-2.9,-1.7,-0.9,620,28,,,,,,,,,,,,,,,,,,
43810,1506920025376,,,,,,,,-0.1,0.05,0.91,-3.0,-1.7,-0.9,620,28,,,,,,,,,,,,,,,,,,
43830,1506920025396,,,,,,,,-0.1,0.06,0.9,-3.0,-1.6,-0.9,620,28,,,,,,,,,,,,,,,,,,
43850,1506920025416,,,,,,,,-0.1,0.05,0.92,-3.0,-1.6,-0.9,620,28,,,,,,,,,,,,,,,,,,
43870,1506920025436,0,56.6,,55.6,50,57.6,,-0.09,0.05,0.91,-3.0,-1.6,-0.9,600,34,0,1,0.0,37.478588,-122.203827,0.0,0.0,59.3,8,3,2.3,0,0.0,-1,0.0,0.0,0.0,0
43890,1506920025456,,,,,,,,-0.09,0.05,0.91,-3.0,-1.7,-1.0,600,34,,,,,,,,,,,,,,,,,,
43910,1506920025476,,,,,,,,-0.09,0.05,0.91,-3.0,-1.7,-1.0,600,34,,,,,,,,,,,,,,,,,,
43930,1506920025494,,,,,,,,-0.09,0.07,0.91,-3.0,-1.8,-1.0,600,31,,,,,,,,,,,,,,,,,,
43950,1506920025514,,,,,,,,-0.1,0.07,0.89,-3.0,-2.2,-1.0,600,31,,,,,,,,,,,,,,,,,,
43970,1506920025534,,,,,54,,,-0.09,0.06,0.88,-3.0,-2.3,-1.0,620,35,0,1,0.0,37.478588,-122.203827,0.0,0.0,59.3,8,3,2.3,0,0.0,-1,0.0,0.0,0.0,0
43990,1506920025554,,,,,,,,-0.08,0.06,0.89,-3.0,-2.1,-1.0,640,35,,,,,,,,,,,,,,,,,,
44010,1506920025574,,,,,,,,-0.09,0.05,0.89,-2.9,-2.0,-1.1,640,38,,,,,,,,,,,,,,,,,,
44030,1506920025594,,,,,,,,-0.09,0.05,0.89,-3.0,-1.8,-1.1,660,38,,,,,,,,,,,,,,,,,,
44050,1506920025614,,,,,,,,-0.09,0.06,0.88,-2.9,-1.9,-1.0,660,34,,,,,,,,,,,,,,,,,,
44070,1506920025634,0,57.1,-0.7,55.8,56,57.3,14.88,-0.09,0.04,0.9,-2.9,-1.8,-1.2,660,34,0,1,0.0,37.478588,-122.203827,0.0,0.0,59.3,8,3,2.3,0,0.0,-1,0.0,0.0,0.0,0
44090,1506920025654,,,,,,,,-0.09,0.06,0.89,-2.9,-1.8,-1.1,620,43,,,,,,,,,,,,,,,,,,
44110,1506920025674,,,,,,,,-0.08,0.05,0.88,-2.9,-1.9,-1.1,660,43,,,,,,,,,,,,,,,,,,
44130,1506920025692,,,,,,,,-0.09,0.04,0.89,-2.9,-2.1,-1.1,660,38,,,,,,,,,,,,,,,,,,
44150,1506920025712,,,,,,,,-0.09,0.06,0.88,-3.0,-2.1,-1.1,660,38,,,,,,,,,,,,,,,,,,
44170,1506920025732,,,,,60,,,-0.09,0.06,0.89,-2.9,-2.1,-1.1,660,42,0,1,0.0,37.478588,-122.203827,0.0,0.0,59.3,8,3,2.3,0,0.0,-1,0.0,0.0,0.0,0
44190,1506920025752,,,,,,,,-0.09,0.05,0.88,-2.9,-2.1,-1.2,660,45,,,,,,,,,,,,,,,,,,
44210,1506920025772,,,,,,,,-0.09,0.05,0.88,-2.9,-1.9,-1.1,680,45,,,,,,,,,,,,,,,,,,
44230,1506920025794,,,,,,,,-0.09,0.06,0.86,-2.9,-1.8,-1.1,680,38,,,,,,,,,,,,,,,,,,
44250,1506920025814,,,,,,,,-0.09,0.06,0.87,-2.9,-1.8,-1.2,680,38,,,,,,,,,,,,,,,,,,
44270,1506920025834,0,57.5,,55.6,63,56.8,,-0.09,0.06,0.86,-2.9,-1.9,-1.2,680,48,0,1,0.0,37.478588,-122.203827,0.0,0.0,59.3,8,3,2.3,0,0.0,-1,0.0,0.0,0.0,0
44290,1506920025854,,,,,,,,-0.09,0.06,0.86,-2.9,-2.0,-1.1,700,46,,,,,,,,,,,,,,,,,,
44310,1506920025874,,,,,,,,-0.1,0.04,0.82,-2.9,-1.9,-1.2,680,46,,,,,,,,,,,,,,,,,,
44330,1506920025897,,,,,,,,-0.09,0.04,0.81,-2.8,-1.6,-1.1,680,46,,,,,,,,,,,,,,,,,,
44350,1506920025917,,,,,,,,-0.08,0.06,0.82,-2.8,-1.7,-1.0,680,54,,,,,,,,,,,,,,,,,,
44370,1506920025937,,,,,65,,,-0.09,0.04,0.83,-2.8,-1.6,-1.0,700,54,0,1,0.0,37.478588,-122.203827,0.0,0.0,59.3,8,3,2.3,0,0.0,-1,0.0,0.0,0.0,0
44390,1506920025957,,,,,,,,-0.09,0.04,0.84,-2.8,-1.6,-1.0,700,48,,,,,,,,,,,,,,,,,,
44410,1506920025977,,,,,,,,-0.09,0.04,0.84,-2.8,-1.5,-1.1,720,48,,,,,,,,,,,,,,,,,,
44430,1506920025991,,,,,,,,-0.1,0.06,0.84,-2.8,-1.8,-1.1,700,48,,,,,,,,,,,,,,,,,,
44450,1506920026011,,,,,,,,-0.12,0.06,0.85,-2.8,-2.3,-1.2,700,57,,,,,,,,,,,,,,,,,,
44470,1506920026031,0,56.2,,58.0,66,60.0,,-0.11,0.05,0.85,-2.8,-2.3,-1.1,700,54,0,1,0.0,37.478588,-122.203827,0.0,0.0,59.3,8,3,2.3,0,0.0,-1,0.0,0.0,0.0,0
44490,1506920026051,,,,,,,,-0.1,0.05,0.86,-2.8,-2.0,-1.1,700,54,,,,,,,,,,,,,,,,,,
44510,1506920026071,,,,,,,,-0.1,0.05,0.87,-2.7,-1.8,-1.1,700,49,,,,,,,,,,,,,,,,,,
44530,1506920026097,,,,,,,,-0.1,0.07,0.87,-2.7,-1.8,-1.1,700,58,,,,,,,,,,,,,,,,,,
44550,1506920026117,,,,,,,,-0.09,0.07,0.87,-2.7,-1.6,-1.0,700,60,,,,,,,,,,,,,,,,,,
44570,1506920026137,,,,,68,,,-0.09,0.07,0.84,-2.6,-1.8,-0.9,700,60,0,1,0.0,37.478588,-122.203827,0.0,0.0,59.3,8,3,2.3,0,0.0,-1,0.0,0.0,0.0,0
44590,1506920026157,,,,,,,,-0.1,0.06,0.84,-2.6,-2.0,-0.8,700,55,,,,,,,,,,,,,,,,,,
44610,1506920026177,,,,,,,,-0.09,0.06,0.85,-2.6,-2.0,-0.8,680,58,,,,,,,,,,,,,,,,,,
44630,1506920026197,,,,,,,,-0.09,0.06,0.87,-2.5,-2.0,-0.7,680,63,,,,,,,,,,,,,,,,,,
44650,1506920026217,,,,,,,,-0.11,0.05,0.87,-2.5,-2.2,-0.7,680,62,,,,,,,,,,,,,,,,,,
44670,1506920026237,0,59.0,,58.8,68,57.3,,-0.11,0.04,0.87,-2.5,-2.2,-0.6,680,62,0,1,0.0,37.478588,-122.203827,0.0,0.0,59.3,8,3,2.3,0,0.0,-1,0.0,0.0,0.0,0
44690,1506920026257,,,,,,,,-0.11,0.04,0.88,-2.5,-2.1,-0.6,680,63,,,,,,,,,,,,,,,,,,
44710,1506920026277,,,,,,,,-0.1,0.04,0.89,-2.4,-2.1,-0.6,680,68,,,,,,,,,,,,,,,,,,
44730,1506920026297,,,,,,,,-0.09,0.04,0.88,-2.4,-2.2,-0.6,680,66,,,,,,,,,,,,,,,,,,
44750,1506920026317,,,,,,,,-0.09,0.06,0.87,-2.4,-2.2,-0.5,680,60,,,,,,,,,,,,,,,,,,
44770,1506920026337,,,,,67,,,-0.08,0.07,0.86,-2.3,-2.2,-0.3,660,60,0,1,0.0,37.478588,-122.203827,0.0,0.0,59.3,8,3,2.3,0,0.0,-1,0.0,0.0,0.0,0
44790,1506920026357,,,,,,,,-0.08,0.06,0.84,-2.3,-2.4,-0.3,660,54,,,,,,,,,,,,,,,,,,
44810,1506920026377,,,,,,,,-0.08,0.07,0.85,-2.3,-2.3,-0.3,680,55,,,,,,,,,,,,,,,,,,
44830,1506920026397,,,,,,,,-0.08,0.08,0.86,-2.3,-2.4,-0.3,680,58,,,,,,,,,,,,,,,,,,
44850,1506920026417,,,,,,,,-0.1,0.08,0.88,-2.3,-2.6,-0.5,700,58,,,,,,,,,,,,,,,,,,
44870,1506920026437,0,55.6,,56.1,67,57.0,,-0.12,0.08,0.89,-2.3,-2.7,-0.5,700,57,0,1,0.0,37.47858,-122.203827,0.98,0.0,47.5,8,3,2.3,0,0.0,-1,0.0,0.0,0.0,0
44890,1506920026457,,,,,,,,-0.13,0.08,0.86,-2.4,-3.1,-0.5,720,51,,,,,,,,,,,,,,,,,,
44910,1506920026477,,,,,,,,-0.13,0.07,0.88,-2.4,-3.2,-0.6,720,51,,,,,,,,,,,,,,,,,,
44930,1506920026497,,,,,,,,-0.12,0.06,0.86,-2.3,-2.6,-0.7,720,45,,,,,,,,,,,,,,,,,,
44950,1506920026517,,,,,,,,-0.12,0.07,0.86,-2.3,-2.6,-0.7,700,45,,,,,,,,,,,,,,,,,,
44970,1506920026537,,,,,67,,,-0.16,0.06,0.94,-2.4,-3.0,-1.0,720,40,0,1,0.0,37.47858,-122.203827,0.99,0.0,47.5,8,3,2.3,0,0.0,-1,0.0,0.0,0.0,0
44990,1506920026557,,,,,,,,-0.17,0.07,0.95,-2.4,-3.0,-1.1,720,40,,,,,,,,,,,,,,,,,,
45010,1506920026577,,,,,,,,-0.17,0.05,0.94,-2.4,-3.0,-1.1,720,40,,,,,,,,,,,,,,,,,,
45030,1506920026597,,,,,,,,-0.15,0.05,0.93,-2.3,-2.8,-1.0,740,46,,,,,,,,,,,,,,,,,,
45050,1506920026617,,,,,,,,-0.15,0.07,0.9,-2.3,-2.9,-0.8,760,60,,,,,,,,,,,,,,,,,,
45070,1506920026637,0,56.2,-0.7,55.9,69,58.0,14.91,-0.14,0.06,0.91,-2.2,-2.8,-0.8,780,74,0,1,0.0,37.47858,-122.203827,1.1,0.0,47.6,8,3,2.3,0,0.0,-1,0.0,0.0,0.0,0
45090,1506920026657,,,,,,,,-0.13,0.04,0.91,-2.2,-2.6,-1.0,780,78,,,,,,,,,,,,,,,,,,
45110,1506920026677,,,,,,,,-0.13,0.04,0.89,-2.2,-2.7,-1.0,760,75,,,,,,,,,,,,,,,,,,
45130,1506920026697,,,,,,,,-0.13,0.05,0.89,-2.3,-2.6,-0.9,780,71,,,,,,,,,,,,,,,,,,
45150,1506920026717,,,,,,,,-0.12,0.06,0.89,-2.2,-2.4,-0.9,780,71,,,,,,,,,,,,,,,,,,
45170,1506920026737,,,,,69,,,-0.11,0.07,0.87,-2.1,-2.9,-0.9,800,66,0,1,0.0,37.47858,-122.203827,1.09,0.0,47.7,8,3,2.3,0,0.0,-1,0.0,0.0,0.0,0
45190,1506920026757,,,,,,,,-0.1,0.06,0.84,-2.1,-2.8,-0.8,800,66,,,,,,,,,,,,,,,,,,
45210,1506920026777,,,,,,,,-0.08,0.07,0.83,-2.1,-3.1,-0.7,800,74,,,,,,,,,,,,,,,,,,
45230,1506920026797,,,,,,,,-0.07,0.07,0.83,-2.1,-3.4,-0.5,800,88,,,,,,,,,,,,,,,,,,
45250,1506920026817,,,,,,,,-0.06,0.08,0.83,-2.2,-3.6,-0.5,780,88,,,,,,,,,,,,,,,,,,
45270,1506920026837,0,58.1,,59.2,68,58.0,,-0.05,0.08,0.83,-2.2,-4.1,-0.5,780,88,0,1,0.0,37.47858,-122.203827,1.12,0.0,47.8,8,3,2.3,0,0.0,-1,0.0,0.0,0.0,0
45290,1506920026857,,,,,,,,-0.03,0.06,0.82,-2.2,-4.3,-0.5,780,91,,,,,,,,,,,,,,,,,,
45310,1506920026877,,,,,,,,-0.02,0.07,0.83,-2.2,-4.9,-0.4,780,94,,,,,,,,,,,,,,,,,,
45330,1506920026896,,,,,,,,-0.01,0.08,0.82,-2.2,-5.2,-0.2,780,106,,,,,,,,,,,,,,,,,,
45350,1506920026916,,,,,,,,-0.01,0.08,0.83,-2.2,-5.6,-0.2,800,112,,,,,,,,,,,,,,,,,,
45370,1506920026936,,,,,64,,,-0.01,0.08,0.83,-2.2,-6.4,-0.3,800,115,0,1,0.0,37.47858,-122.203827,1.24,0.0,47.9,8,3,2.3,0,0.0,-1,0.0,0.0,0.0,0
45390,1506920026956,,,,,,,,-0.02,0.07,0.84,-2.1,-6.6,-0.4,800,115,,,,,,,,,,,,,,,,,,
45410,1506920026976,,,,,,,,-0.02,0.07,0.86,-2.1,-7.0,-0.4,780,112,,,,,,,,,,,,,,,,,,
45430,1506920026996,,,,,,,,-0.02,0.06,0.87,-2.1,-7.2,-0.3,780,111,,,,,,,,,,,,,,,,,,
45450,1506920027010,,,,,,,,-0.02,0.07,0.89,-2.0,-7.2,-0.4,780,112,,,,,,,,,,,,,,,,,,
45470,1506920027030,0,55.8,,58.4,62,56.3,,-0.02,0.07,0.91,-2.0,-7.2,-0.5,760,112,0,1,0.0,37.47858,-122.203827,1.36,0.0,47.6,8,3,2.3,0,0.0,-1,0.0,0.0,0.0,0
45490,1506920027050,,,,,,,,-0.03,0.07,0.91,-2.0,-6.9,-0.4,760,115,,,,,,,,,,,,,,,,,,
45510,1506920027070,,,,,,,,-0.02,0.07,0.92,-2.0,-6.9,-0.3,760,115,,,,,,,,,,,,,,,,,,
45530,1506920027096,,,,,,,,-0.03,0.08,0.93,-2.0,-6.6,-0.3,780,114,,,,,,,,,,,,,,,,,,
45550,1506920027116,,,,,,,,-0.03,0.07,0.95,-2.0,-6.3,-0.5,760,112,,,,,,,,,,,,,,,,,,
45570,1506920027136,,,,,59,,,-0.04,0.07,0.95,-2.0,-5.9,-0.6,760,111,0,1,0.0,37.47858,-122.203827,1.83,0.0,47.3,8,3,2.3,0,0.0,-1,0.0,0.0,0.0,0
45590,1506920027156,,,,,,,,-0.04,0.07,0.96,-2.1,-5.5,-0.6,760,111,,,,,,,,,,,,,,,,,,
45610,1506920027176,,,,,,,,-0.04,0.08,0.95,-2.1,-5.1,-0.5,740,111,,,,,,,,,,,,,,,,,,
45630,1506920027196,,,,,,,,-0.05,0.07,0.96,-2.1,-4.8,-0.5,760,111,,,,,,,,,,,,,,,,,,
45650,1506920027216,,,,,,,,-0.06,0.07,0.95,-2.1,-4.3,-0.6,760,111,,,,,,,,,,,,,,,,,,
45670,1506920027236,0,55.6,,57.7,60,56.3,,-0.06,0.07,0.95,-2.1,-4.0,-0.7,760,109,0,1,0.0,37.47858,-122.203827,2.01,0.0,46.9,8,3,2.3,0,0.0,-1,0.0,0.0,0.0,0
45690,1506920027256,,,,,,,,-0.06,0.07,0.95,-2.1,-3.8,-0.6,780,109,,,,,,,,,,,,,,,,,,
45710,1506920027276,,,,,,,,-0.06,0.08,0.93,-2.1,-3.7,-0.6,760,108,,,,,,,,,,,,,,,,,,
45730,1506920027296,,,,,,,,-0.07,0.07,0.92,-2.1,-3.7,-0.6,740,108,,,,,,,,,,,,,,,,,,
45750,1506920027316,,,,,,,,-0.07,0.06,0.9,-2.1,-3.6,-0.5,740,108,,,,,,,,,,,,,,,,,,
45770,1506920027336,,,,,60,,,-0.07,0.06,0.89,-2.1,-3.7,-0.4,740,108,0,1,0.0,37.478577,-122.203827,1.67,0.0,46.8,8,3,2.3,0,0.0,-1,0.0,0.0,0.0,0
45790,1506920027356,,,,,,,,-0.07,0.06,0.89,-2.1,-3.7,-0.3,740,108,,,,,,,,,,,,,,,,,,
45810,1506920027376,,,,,,,,-0.08,0.06,0.89,-2.1,-4.0,-0.5,740,109,,,,,,,,,,,,,,,,,,
45830,1506920027396,,,,,,,,-0.08,0.07,0.88,-2.1,-4.1,-0.5,740,109,,,,,,,,,,,,,,,,,,
45850,1506920027416,,,,,,,,-0.08,0.07,0.87,-2.1,-4.3,-0.4,760,109,,,,,,,,,,,,,,,,,,
45870,1506920027436,0,55.9,,56.2,58,57.8,,-0.08,0.07,0.87,-2.1,-4.2,-0.3,740,108,0,1,0.0,37.478577,-122.203819,1.9,0.0,46.5,8,3,2.3,0,0.0,-1,0.0,0.0,0.0,0
45890,1506920027456,,,,,,,,-0.08,0.07,0.88,-2.1,-4.3,-0.5,740,108,,,,,,,,,,,,,,,,,,
45910,1506920027476,,,,,,,,-0.08,0.08,0.87,-2.1,-4.3,-0.4,740,108,,,,,,,,,,,,,,,,,,
45930,1506920027496,,,,,,,,-0.07,0.09,0.87,-2.1,-4.4,-0.4,740,106,,,,,,,,,,,,,,,,,,
45950,1506920027516,,,,,,,,-0.07,0.09,0.87,-2.1,-4.4,-0.4,740,108,,,,,,,,,,,,,,,,,,
45970,1506920027536,,,,,58,,,-0.08,0.09,0.89,-2.1,-4.6,-0.6,740,106,0,1,0.0,37.478577,-122.203819,1.9,0.001,46.3,8,3,2.3,0,0.0,-1,0.0,0.0,0.0,0
45990,1506920027556,,,,,,,,-0.08,0.09,0.88,-2.1,-4.7,-0.7,740,105,,,,,,,,,,,,,,,,,,
46010,1506920027576,,,,,,,,-0.07,0.09,0.89,-2.1,-4.8,-0.7,760,105,,,,,,,,,,,,,,,,,,
46030,1506920027596,,,,,,,,-0.07,0.09,0.89,-2.0,-4.8,-0.7,740,103,,,,,,,,,,,,,,,,,,
46050,1506920027616,,,,,,,,-0.07,0.08,0.9,-2.1,-4.8,-0.9,740,103,,,,,,,,,,,,,,,,,,
46070,1506920027636,0,58.6,-0.3,58.2,57,59.9,14.83,-0.07,0.09,0.9,-2.1,-4.7,-0.9,740,102,0,1,0.0,37.478577,-122.203819,1.83,0.001,45.9,8,3,2.3,0,0.0,-1,0.0,0.0,0.0,0
46090,1506920027656,,,,,,,,-0.06,0.09,0.9,-2.1,-4.6,-1.0,740,103,,,,,,,,,,,,,,,,,,
46110,1506920027676,,,,,,,,-0.07,0.09,0.9,-2.1,-4.6,-0.9,740,105,,,,,,,,,,,,,,,,,,
46130,1506920027696,,,,,,,,-0.07,0.07,0.9,-2.1,-4.7,-1.0,740,103,,,,,,,,,,,,,,,,,,
46150,1506920027716,,,,,,,,-0.07,0.07,0.9,-2.1,-4.7,-1.0,740,103,,,,,,,,,,,,,,,,,,
46170,1506920027736,,,,,58,,,-0.06,0.07,0.91,-2.2,-4.7,-1.0,760,102,0,1,0.0,37.478577,-122.203819,1.82,0.001,45.6,8,3,2.3,0,0.0,-1,0.0,0.0,0.0,0
46190,1506920027756,,,,,,,,-0.06,0.07,0.9,-2.2,-4.6,-0.9,740,102,,,,,,,,,,,,,,,,,,
46210,1506920027776,,,,,,,,-0.07,0.07,0.92,-2.2,-4.7,-1.0,740,100,,,,,,,,,,,,,,,,,,
46230,1506920027796,,,,,,,,-0.07,0.07,0.92,-2.2,-4.4,-1.0,740,100,,,,,,,,,,,,,,,,,,
46250,1506920027816,,,,,,,,-0.06,0.07,0.93,-2.2,-4.2,-1.0,740,102,,,,,,,,,,,,,,,,,,
46270,1506920027836,0,56.8,,58.9,57,56.4,,-0.06,0.07,0.91,-2.2,-4.2,-0.8,740,100,0,1,0.0,37.478577,-122.203819,1.72,0.001,45.4,8,3,2.3,0,0.0,-1,0.0,0.0,0.0,0
46290,1506920027856,,,,,,,,-0.06,0.07,0.91,-2.2,-4.2,-0.9,740,98,,,,,,,,,,,,,,,,,,
46310,1506920027876,,,,,,,,-0.06,0.07,0.9,-2.2,-4.2,-0.9,740,98,,,,,,,,,,,,,,,,,,
46330,1506920027895,,,,,,,,-0.06,0.07,0.91,-2.2,-4.1,-1.0,760,97,,,,,,,,,,,,,,,,,,
46350,1506920027915,,,,,,,,-0.06,0.07,0.91,-2.2,-4.2,-0.9,740,97,,,,,,,,,,,,,,,,,,
46370,1506920027935,,,,,57,,,-0.06,0.07,0.91,-2.2,-4.3,-1.0,740,97,0,1,0.0,37.478577,-122.203819,1.52,0.001,45.2,8,3,2.3,0,0.0,-1,0.0,0.0,0.0,0
46390,1506920027955,,,,,,,,-0.06,0.06,0.9,-2.2,-4.2,-1.0,740,97,,,,,,,,,,,,,,,,,,
46410,1506920027975,,,,,,,,-0.06,0.05,0.9,-2.2,-4.1,-1.1,740,98,,,,,,,,,,,,,,,,,,
46430,1506920027995,,,,,,,,-0.06,0.05,0.9,-2.3,-4.1,-1.0,740,98,,,,,,,,,,,,,,,,,,
46450,1506920028005,,,,,,,,-0.06,0.06,0.9,-2.3,-4.1,-1.1,740,95,,,,,,,,,,,,,,,,,,
46470,1506920028025,0,58.8,,60.1,57,59.1,,-0.06,0.05,0.9,-2.3,-4.2,-1.1,760,95,0,1,0.0,37.478573,-122.203819,1.73,0.001,45.0,8,3,2.3,0,0.0,-1,0.0,0.0,0.0,0
46490,1506920028045,,,,,,,,-0.06,0.04,0.89,-2.3,-4.2,-1.2,760,95,,,,,,,,,,,,,,,,,,
46510,1506920028065,,,,,,,,-0.06,0.04,0.89,-2.3,-4.3,-1.1,720,94,,,,,,,,,,,,,,,,,,
46530,1506920028097,,,,,,,,-0.06,0.04,0.89,-2.3,-4.5,-1.1,740,94,,,,,,,,,,,,,,,,,,
46550,1506920028117,,,,,,,,-0.07,0.04,0.89,-2.3,-4.6,-1.2,740,94,,,,,,,,,,,,,,,,,,
46570,1506920028137,,,,,56,,,-0.07,0.03,0.89,-2.3,-4.5,-1.3,740,94,0,1,0.0,37.478573,-122.203819,1.47,0.001,44.8,8,3,2.3,0,0.0,-1,0.0,0.0,0.0,0
46590,1506920028157,,,,,,,,-0.06,0.04,0.9,-2.4,-4.5,-1.2,740,92,,,,,,,,,,,,,,,,,,
46610,1506920028177,,,,,,,,-0.07,0.04,0.9,-2.3,-4.4,-1.2,740,92,,,,,,,,,,,,,,,,,,
46630,1506920028197,,,,,,,,-0.07,0.04,0.9,-2.3,-4.4,-1.2,780,89,,,,,,,,,,,,,,,,,,
46650,1506920028217,,,,,,,,-0.06,0.05,0.89,-2.3,-4.3,-1.2,780,88,,,,,,,,,,,,,,,,,,
46670,1506920028237,0,56.2,,56.4,57,57.8,,-0.05,0.06,0.89,-2.4,-4.3,-1.1,740,88,0,1,0.0,37.478573,-122.203819,1.56,0.001,44.6,8,3,2.3,0,0.0,-1,0.0,0.0,0.0,0
46690,1506920028257,,,,,,,,-0.05,0.07,0.89,-2.3,-4.3,-1.1,760,86,,,,,,,,,,,,,,,,,,
46710,1506920028277,,,,,,,,-0.05,0.06,0.91,-2.4,-4.4,-1.2,760,86,,,,,,,,,,,,,,,,,,
46730,1506920028297,,,,,,,,-0.06,0.07,0.91,-2.4,-4.3,-1.3,760,85,,,,,,,,,,,,,,,,,,
46750,1506920028317,,,,,,,,-0.06,0.08,0.91,-2.4,-4.2,-1.2,760,85,,,,,,,,,,,,,,,,,,
46770,1506920028337,,,,,56,,,-0.05,0.08,0.9,-2.4,-4.1,-1.1,760,83,0,1,0.0,37.478573,-122.203819,1.68,0.001,44.4,8,3,2.3,0,0.0,-1,0.0,0.0,0.0,0
46790,1506920028357,,,,,,,,-0.05,0.07,0.91,-2.4,-4.0,-1.2,780,83,,,,,,,,,,,,,,,,,,
46810,1506920028377,,,,,,,,-0.05,0.07,0.91,-2.4,-3.7,-1.3,780,83,,,,,,,,,,,,,,,,,,
46830,1506920028397,,,,,,,,-0.05,0.07,0.92,-2.4,-3.5,-1.3,720,82,,,,,,,,,,,,,,,,,,
46850,1506920028417,,,,,,,,-0.05,0.07,0.91,-2.4,-3.4,-1.2,740,82,,,,,,,,,,,,,,,,,,
46870,1506920028437,0,58.9,,58.6,56,60.4,,-0.05,0.07,0.92,-2.4,-3.4,-1.3,740,82,0,1,0.0,37.478573,-122.203819,1.28,0.001,44.3,8,3,2.3,0,0.0,-1,0.0,0.0,0.0,0
46890,1506920028457,,,,,,,,-0.05,0.07,0.91,-2.4,-3.5,-1.3,740,80,,,,,,,,,,,,,,,,,,
46910,1506920028477,,,,,,,,-0.04,0.07,0.9,-2.4,-3.6,-1.3,740,80,,,,,,,,,,,,,,,,,,
46930,1506920028497,,,,,,,,-0.04,0.07,0.9,-2.3,-3.7,-1.2,740,78,,,,,,,,,,,,,,,,,,
46950,1506920028517,,,,,,,,-0.05,0.07,0.92,-2.3,-3.7,-1.3,760,80,,,,,,,,,,,,,,,,,,
46970,1506920028537,,,,,55,,,-0.04,0.07,0.91,-2.3,-3.6,-1.3,760,78,0,1,0.0,37.478573,-122.203819,1.18,0.001,44.2,8,3,2.3,0,0.0,-1,0.0,0.0,0.0,0
46990,1506920028557,,,,,,,,-0.04,0.08,0.91,-2.3,-3.6,-1.2,720,78,,,,,,,,,,,,,,,,,,
47010,1506920028577,,,,,,,,-0.03,0.07,0.91,-2.3,-3.4,-1.1,740,78,,,,,,,,,,,,,,,,,,
47030,1506920028597,,,,,,,,-0.03,0.06,0.93,-2.3,-3.5,-1.2,720,78,,,,,,,,,,,,,,,,,,
47050,1506920028617,,,,,,,,-0.03,0.06,0.93,-2.3,-3.5,-1.2,720,78,,,,,,,,,,,,,,,,,,
47070,1506920028637,0,58.9,-0.3,58.9,55,59.2,14.95,-0.03,0.07,0.92,-2.3,-3.6,-1.1,740,78,0,1,0.0,37.478573,-122.203819,1.3,0.001,44.1,8,3,2.3,0,0.0,-1,0.0,0.0,0.0,0
47090,1506920028657,,,,,,,,-0.03,0.06,0.92,-2.3,-3.6,-1.0,740,77,,,,,,,,,,,,,,,,,,
47110,1506920028677,,,,,,,,-0.03,0.06,0.93,-2.3,-3.6,-1.0,760,77,,,,,,,,,,,,,,,,,,
47130,1506920028697,,,,,,,,-0.03,0.06,0.92,-2.3,-3.7,-0.9,760,77,,,,,,,,,,,,,,,,,,
47150,1506920028717,,,,,,,,-0.02,0.07,0.91,-2.3,-3.7,-0.8,720,77,,,,,,,,,,,,,,,,,,
47170,1506920028737,,,,,55,,,-0.02,0.07,0.91,-2.3,-3.7,-0.7,740,75,0,1,0.0,37.478569,-122.203819,1.08,0.001,44.2,8,3,2.3,0,0.0,-1,0.0,0.0,0.0,0
47190,1506920028757,,,,,,,,-0.03,0.07,0.92,-2.3,-4.0,-0.7,720,75,,,,,,,,,,,,,,,,,,
47210,1506920028777,,,,,,,,-0.03,0.08,0.91,-2.3,-4.2,-0.6,720,75,,,,,,,,,,,,,,,,,,
47230,1506920028797,,,,,,,,-0.02,0.07,0.92,-2.3,-4.2,-0.5,740,75,,,,,,,,,,,,,,,,,,
47250,1506920028817,,,,,,,,-0.02,0.08,0.92,-2.3,-4.2,-0.5,740,75,,,,,,,,,,,,,,,,,,
47270,1506920028837,0,59.5,,59.7,54,59.8,,-0.02,0.08,0.92,-2.3,-4.3,-0.6,760,75,0,1,0.0,37.478569,-122.203819,1.28,0.001,44.2,8,3,2.3,0,0.0,-1,0.0,0.0,0.0,0
47290,1506920028857,,,,,,,,-0.02,0.08,0.91,-2.3,-4.4,-0.6,760,75,,,,,,,,,,,,,,,,,,
47310,1506920028877,,,,,,,,-0.02,0.08,0.91,-2.3,-4.5,-0.4,720,74,,,,,,,,,,,,,,,,,,
47330,1506920028896,,,,,,,,-0.01,0.08,0.9,-2.4,-4.6,-0.3,740,72,,,,,,,,,,,,,,,,,,
47350,1506920028916,,,,,,,,-0.01,0.07,0.9,-2.4,-4.8,-0.3,740,72,,,,,,,,,,,,,,,,,,
47370,1506920028936,,,,,55,,,-0.01,0.06,0.9,-2.4,-4.8,-0.2,720,72,0,1,0.0,37.478569,-122.203819,1.01,0.001,44.2,8,3,2.3,0,0.0,-1,0.0,0.0,0.0,0
47390,1506920028956,,,,,,,,-0.0,0.07,0.89,-2.4,-5.0,-0.2,720,74,,,,,,,,,,,,,,,,,,
47410,1506920028976,,,,,,,,0.0,0.07,0.88,-2.4,-5.0,-0.2,740,74,,,,,,,,,,,,,,,,,,
47430,1506920028996,,,,,,,,0.01,0.07,0.87,-2.3,-5.0,-0.2,740,75,,,,,,,,,,,,,,,,,,
47450,1506920029010,,,,,,,,0.01,0.06,0.87,-2.3,-5.0,-0.2,760,75,,,,,,,,,,,,,,,,,,
47470,1506920029030,0,56.5,,56.3,54,56.5,,0.02,0.07,0.88,-2.3,-5.2,-0.3,720,77,0,1,0.0,37.478569,-122.203819,1.07,0.001,44.3,8,3,2.3,0,0.0,-1,0.0,0.0,0.0,0
47490,1506920029050,,,,,,,,0.01,0.07,0.89,-2.4,-5.4,-0.5,720,77,,,,,,,,,,,,,,,,,,
47510,1506920029070,,,,,,,,0.01,0.07,0.89,-2.5,-5.3,-0.8,720,78,,,,,,,,,,,,,,,,,,
47530,1506920029096,,,,,,,,0.02,0.08,0.89,-2.6,-5.2,-0.9,720,78,,,,,,,,,,,,,,,,,,
47550,1506920029116,,,,,,,,0.01,0.08,0.9,-2.7,-5.1,-0.9,740,77,,,,,,,,,,,,,,,,,,
47570,1506920029136,,,,,55,,,0.01,0.08,0.91,-2.8,-5.1,-1.1,740,77,0,1,0.0,37.478569,-122.203819,1.2,0.001,44.3,8,3,2.3,0,0.0,-1,0.0,0.0,0.0,0
47590,1506920029156,,,,,,,,0.01,0.08,0.92,-2.8,-4.9,-1.3,740,75,,,,,,,,,,,,,,,,,,
47610,1506920029176,,,,,,,,0.01,0.08,0.93,-2.8,-4.6,-1.5,780,72,,,,,,,,,,,,,,,,,,
47630,1506920029198,,,,,,,,-0.01,0.07,0.94,-2.7,-4.4,-1.7,740,69,,,,,,,,,,,,,,,,,,
47650,1506920029218,,,,,,,,-0.02,0.07,0.94,-2.6,-4.2,-2.0,760,69,,,,,,,,,,,,,,,,,,
47670,1506920029238,0,55.5,,56.6,55,56.4,,-0.03,0.07,0.95,-2.5,-3.8,-2.2,760,66,0,1,0.0,37.478569,-122.203804,1.06,0.001,44.3,8,3,2.3,0,0.0,-1,0.0,0.0,0.0,0
47690,1506920029258,,,,,,,,-0.03,0.05,0.95,-2.4,-3.2,-2.3,760,63,,,,,,,,,,,,,,,,,,
47710,1506920029278,,,,,,,,-0.04,0.05,0.95,-2.4,-2.9,-2.2,760,58,,,,,,,,,,,,,,,,,,
47730,1506920029298,,,,,,,,-0.04,0.05,0.96,-2.4,-2.6,-2.2,760,58,,,,,,,,,,,,,,,,,,
47750,1506920029318,,,,,,,,-0.05,0.05,0.95,-2.4,-2.4,-2.1,780,54,,,,,,,,,,,,,,,,,,
47770,1506920029338,,,,,57,,,-0.05,0.04,0.93,-2.5,-2.2,-2.0,780,51,0,1,0.0,37.478569,-122.203804,1.12,0.001,44.4,8,3,2.3,0,0.0,-1,0.0,0.0,0.0,0
47790,1506920029358,,,,,,,,-0.05,0.05,0.92,-2.6,-2.1,-1.8,740,51,,,,,,,,,,,,,,,,,,
47810,1506920029378,,,,,,,,-0.05,0.05,0.91,-2.7,-1.9,-1.5,760,48,,,,,,,,,,,,,,,,,,
47830,1506920029398,,,,,,,,-0.06,0.05,0.93,-2.8,-1.9,-1.5,760,48,,,,,,,,,,,,,,,,,,
47850,1506920029418,,,,,,,,-0.06,0.05,0.91,-2.8,-1.8,-1.3,760,45,,,,,,,,,,,,,,,,,,
47870,1506920029438,0,55.6,,56.9,57,56.7,,-0.06,0.06,0.92,-2.8,-1.8,-1.1,760,40,0,1,0.0,37.478569,-122.203804,1.07,0.001,44.4,8,3,2.3,0,0.0,-1,0.0,0.0,0.0,0
47890,1506920029458,,,,,,,,-0.06,0.06,0.91,-2.8,-1.7,-0.9,760,40,,,,,,,,,,,,,,,,,,
47910,1506920029478,,,,,,,,-0.06,0.06,0.91,-2.6,-1.6,-0.9,780,40,,,,,,,,,,,,,,,,,,
47930,1506920029498,,,,,,,,-0.07,0.06,0.9,-2.5,-1.7,-0.9,740,37,,,,,,,,,,,,,,,,,,
47950,1506920029518,,,,,,,,-0.07,0.05,0.89,-2.5,-1.7,-0.9,740,37,,,,,,,,,,,,,,,,,,
47970,1506920029538,,,,,55,,,-0.07,0.04,0.89,-2.5,-1.7,-0.9,740,32,0,1,0.0,37.478569,-122.203804,0.0,0.001,44.5,8,3,2.3,0,0.0,-1,0.0,0.0,0.0,0
47990,1506920029558,,,,,,,,-0.07,0.05,0.9,-2.5,-1.7,-0.9,740,32,,,,,,,,,,,,,,,,,,
48010,1506920029578,,,,,,,,-0.07,0.05,0.9,-2.5,-1.9,-0.9,740,32,,,,,,,,,,,,,,,,,,
48030,1506920029596,,,,,,,,-0.07,0.04,0.9,-2.6,-1.9,-0.9,740,28,,,,,,,,,,,,,,,,,,
48050,1506920029616,,,,,,,,-0.06,0.04,0.9,-2.8,-2.1,-0.9,740,28,,,,,,,,,,,,,,,,,,
48070,1506920029636,0,57.0,-0.5,56.7,56,56.7,14.89,-0.07,0.04,0.9,-2.8,-2.1,-0.9,760,28,0,1,0.0,37.478565,-122.203804,0.0,0.001,44.5,8,3,2.3,0,0.0,-1,0.0,0.0,0.0,0
48090,1506920029656,,,,,,,,-0.07,0.04,0.91,-2.9,-2.1,-1.0,720,28,,,,,,,,,,,,,,,,,,
48110,1506920029676,,,,,,,,-0.07,0.03,0.9,-3.0,-2.0,-1.1,720,28,,,,,,,,,,,,,,,,,,
48130,1506920029698,,,,,,,,-0.07,0.04,0.9,-3.0,-2.1,-1.0,740,18,,,,,,,,,,,,,,,,,,
48150,1506920029718,,,,,,,,-0.07,0.04,0.9,-2.9,-2.0,-0.9,740,18,,,,,,,,,,,,,,,,,,
48170,1506920029738,,,,,55,,,-0.07,0.04,0.9,-2.9,-1.9,-0.9,740,18,0,1,0.0,37.478565,-122.203804,0.0,0.001,44.5,8,3,2.3,0,0.0,-1,0.0,0.0,0.0,0
48190,1506920029758,,,,,,,,-0.06,0.04,0.89,-2.9,-1.8,-0.9,740,18,,,,,,,,,,,,,,,,,,
48210,1506920029778,,,,,,,,-0.06,0.04,0.89,-2.8,-1.9,-0.8,740,18,,,,,,,,,,,,,,,,,,
48230,1506920029798,,,,,,,,-0.06,0.05,0.89,-2.8,-2.0,-0.8,760,18,,,,,,,,,,,,,,,,,,
48250,1506920029818,,,,,,,,-0.06,0.04,0.88,-2.8,-2.1,-0.9,720,18,,,,,,,,,,,,,,,,,,
48270,1506920029838,0,57.9,,56.8,56,57.8,,-0.06,0.04,0.88,-2.9,-2.0,-0.9,720,18,0,1,0.0,37.478565,-122.203804,0.0,0.001,44.6,8,3,2.3,0,0.0,-1,0.0,0.0,0.0,0
48290,1506920029858,,,,,,,,-0.05,0.04,0.88,-2.9,-2.1,-0.8,740,18,,,,,,,,,,,,,,,,,,
48310,1506920029878,,,,,,,,-0.04,0.05,0.89,-2.9,-1.9,-0.8,740,18,,,,,,,,,,,,,,,,,,
48330,1506920029897,,,,,,,,-0.03,0.05,0.88,-3.0,-1.9,-0.8,740,18,,,,,,,,,,,,,,,,,,
48350,1506920029917,,,,,,,,-0.02,0.04,0.88,-3.0,-1.9,-0.8,740,18,,,,,,,,,,,,,,,,,,
48370,1506920029937,,,,,55,,,-0.01,0.04,0.88,-3.0,-2.1,-0.7,740,18,0,1,0.0,37.478565,-122.203804,0.0,0.001,44.6,8,3,2.3,0,0.0,-1,0.0,0.0,0.0,0
48390,1506920029957,,,,,,,,-0.01,0.05,0.88,-3.0,-2.2,-0.7,760,18,,,,,,,,,,,,,,,,,,
48410,1506920029977,,,,,,,,-0.0,0.04,0.87,-3.0,-2.4,-0.8,720,18,,,,,,,,,,,,,,,,,,
48430,1506920029991,,,,,,,,-0.0,0.03,0.87,-3.0,-2.3,-0.9,720,18,,,,,,,,,,,,,,,,,,
48450,1506920030011,,,,,,,,0.0,0.04,0.88,-2.9,-2.3,-0.8,740,18,,,,,,,,,,,,,,,,,,
48470,1506920030031,0,59.1,,60.1,56,60.1,,0.01,0.04,0.88,-2.9,-2.1,-0.7,740,18,0,1,0.0,37.478565,-122.203804,0.0,0.001,44.6,8,3,2.3,0,0.0,-1,0.0,0.0,0.0,0
48490,1506920030051,,,,,,,,0.01,0.04,0.89,-2.9,-2.0,-0.7,740,18,,,,,,,,,,,,,,,,,,
