"Interval"|"ms"|0|0|1,"Utc"|"ms"|0|0|1,"FuelLevel"|"F"|0|100|5,"OilTemp"|"F"|0.0|300.0|5,"CoolantPressPSI"|"PSI"|0.0|20.0|1,"Coolant"|"F"|0.0|300.0|5,"OilPress"|"PSI"|0|150|10,"EngineTemp"|"F"|0.0|300.0|5,"Battery"|"Volts"|0.0|20.0|1,"AccelX"|"G"|-3.0|3.0|50,"AccelY"|"G"|-3.0|3.0|50,"AccelZ"|"G"|-3.0|3.0|50,"Yaw"|"Deg/Sec"|-300.0|300.0|50,"Pitch"|"Deg/Sec"|-300.0|300.0|50,"Roll"|"Deg/Sec"|-300.0|300.0|50,"RPM"|""|0|10000|50,"Driveshaft"|"RPM"|0|5000|50,"GPIO1"|""|0|1|10,"GPIO2"|""|0|1|10,"GearRatio"|""|-5.0|5.0|10,"Latitude"|"Degrees"|-180.0|180.0|10,"Longitude"|"Degrees"|-180.0|180.0|10,"Speed"|"mph"|0.0|150.0|10,"Distance"|"mi"|0.0|0.0|10,"Altitude"|"ft"|0.0|4000.0|10,"GPSSats"|""|0|20|10,"GPSQual"|""|0|5|10,"GPSDOP"|""|0.0|20.0|10,"LapCount"|""|0|0|10,"LapTime"|"Min"|0.0|0.0|10,"Sector"|""|0|0|10,"SectorTime"|"Min"|0.0|0.0|10,"PredTime"|"Min"|0.0|0.0|10,"ElapsedTime"|"Min"|0.0|0.0|10,"CurrentLap"|""|0|0|10
9993331,1506883491923,,,,,,,,0.02,0.07,0.98,-3.2,-0.3,-0.2,400,12,,,,,,,,,,,,,,,,,,
9993351,1506883491943,,,,,,,,0.01,0.05,0.99,-3.1,-0.3,-0.3,400,12,,,,,,,,,,,,,,,,,,
9993371,1506883491963,,,,,,,,0.02,0.06,0.99,-3.1,-0.3,-0.1,460,12,,,,,,,,,,,,,,,,,,
9993391,1506883491983,,,,,,,,0.02,0.07,0.98,-3.0,-0.3,-0.1,460,12,,,,,,,,,,,,,,,,,,
9993413,1506883491997,0,170.9,,183.3,0,198.4,,0.02,0.08,0.99,-3.0,-0.0,-0.0,560,12,0,0,0.0,35.490311,-119.544846,0.0,2.836,279.6,11,3,1.4,19,2.66,0,0.0,4.361,6.6717,20
9993432,1506883492016,,,,,,,,0.02,0.09,1.01,-3.1,-0.1,-0.1,680,12,,,,,,,,,,,,,,,,,,
9993452,1506883492036,,,,,,,,0.01,0.05,1.01,-3.0,-0.2,-0.6,800,12,,,,,,,,,,,,,,,,,,
9993472,1506883492056,,,,,,,,-0.02,0.02,1.02,-2.9,0.4,-0.6,900,12,,,,,,,,,,,,,,,,,,
9993492,1506883492076,,,,,,,,-0.02,0.02,1.03,-2.9,0.3,-0.4,960,12,,,,,,,,,,,,,,,,,,
9993514,1506883492106,,,,,1,,,-0.01,0.04,1.05,-2.9,0.3,-0.3,1000,12,0,0,0.0,35.490311,-119.544846,0.0,2.836,279.6,11,3,1.4,19,2.66,0,0.0,4.361,6.6733,20
9993533,1506883492125,,,,,,,,-0.03,0.04,1.07,-2.9,0.5,-0.2,960,12,,,,,,,,,,,,,,,,,,
9993553,1506883492145,,,,,,,,-0.02,0.05,1.09,-3.0,0.3,-0.3,1000,12,,,,,,,,,,,,,,,,,,
9993573,1506883492165,,,,,,,,-0.01,0.06,1.11,-3.0,0.5,-0.2,1040,12,,,,,,,,,,,,,,,,,,
9993593,1506883492185,,,,,,,,-0.01,0.07,1.13,-2.9,0.8,-0.2,1080,12,,,,,,,,,,,,,,,,,,
9993615,1506883492207,0,171.0,,184.0,5,198.8,,-0.01,0.1,1.13,-2.9,1.0,-0.3,1080,769231,0,0,0.0,35.490311,-119.544846,0.0,2.836,279.6,11,3,1.4,19,2.66,0,0.0,4.361,6.675,20
9993634,1506883492226,,,,,,,,-0.02,0.11,1.12,-2.9,0.3,-0.5,1120,0,,,,,,,,,,,,,,,,,,
9993654,1506883492246,,,,,,,,-0.0,0.11,1.12,-2.9,0.3,-0.6,1180,0,,,,,,,,,,,,,,,,,,
9993674,1506883492266,,,,,,,,-0.0,0.12,1.15,-2.9,0.6,-0.4,1160,0,,,,,,,,,,,,,,,,,,
9993694,1506883492286,,,,,,,,-0.0,0.12,1.07,-2.9,0.2,-0.4,1220,0,,,,,,,,,,,,,,,,,,
9993716,1506883492308,,,,,10,,,0.01,0.1,1.07,-2.9,0.8,-0.4,1240,0,0,1,0.0,35.490311,-119.544846,0.0,2.836,279.6,11,3,1.4,19,2.66,0,0.0,4.361,6.6767,20
9993735,1506883492327,,,,,,,,-0.01,0.12,1.03,-2.9,0.3,-0.4,1260,0,,,,,,,,,,,,,,,,,,
9993755,1506883492347,,,,,,,,0.01,0.1,1.03,-3.0,0.0,-0.4,1280,0,,,,,,,,,,,,,,,,,,
9993775,1506883492367,,,,,,,,0.01,0.11,1.03,-2.9,0.0,-0.5,1320,0,,,,,,,,,,,,,,,,,,
9993795,1506883492387,,,,,,,,-0.01,0.1,1.03,-3.0,-0.0,-0.4,1340,0,,,,,,,,,,,,,,,,,,
9993817,1506883492409,0,171.0,,183.3,17,198.8,,-0.0,0.1,1.04,-3.0,-0.2,-0.4,1340,0,0,1,0.0,35.490311,-119.544846,0.0,2.836,279.6,11,3,1.4,19,2.66,0,0.0,4.361,6.6783,20
9993836,1506883492428,,,,,,,,0.0,0.11,1.05,-2.9,-0.1,-0.4,1340,0,,,,,,,,,,,,,,,,,,
9993856,1506883492448,,,,,,,,-0.0,0.11,1.03,-2.9,-0.4,-0.4,1360,0,,,,,,,,,,,,,,,,,,
9993876,1506883492468,,,,,,,,0.0,0.1,1.02,-3.0,-0.5,-0.3,1380,0,,,,,,,,,,,,,,,,,,
9993896,1506883492488,,,,,,,,0.01,0.1,1.02,-2.9,-0.4,-0.3,1360,0,,,,,,,,,,,,,,,,,,
9993918,1506883492510,,,,,22,,,0.01,0.11,1.01,-2.9,-0.4,-0.4,1360,0,0,1,0.0,35.490311,-119.544846,0.0,2.836,279.6,11,3,1.4,19,2.66,0,0.0,4.361,6.68,20
9993937,1506883492529,,,,,,,,0.01,0.11,1.01,-2.9,-0.4,-0.3,1340,0,,,,,,,,,,,,,,,,,,
9993957,1506883492549,,,,,,,,0.01,0.09,1.0,-3.0,-0.2,-0.3,1340,0,,,,,,,,,,,,,,,,,,
9993977,1506883492569,,,,,,,,0.01,0.09,0.99,-3.0,0.0,-0.3,1340,0,,,,,,,,,,,,,,,,,,
9993997,1506883492589,,,,,,,,0.01,0.09,0.97,-3.0,-0.2,-0.2,1280,0,,,,,,,,,,,,,,,,,,
9994019,1506883492611,0,170.8,,183.0,22,198.6,,0.01,0.08,0.98,-3.0,0.1,-0.2,1300,0,0,1,0.0,35.490311,-119.544846,0.0,2.836,279.6,11,3,1.4,19,2.66,0,0.0,4.361,6.6817,20
9994038,1506883492630,,,,,,,,0.01,0.07,0.98,-3.0,0.2,-0.2,1280,0,,,,,,,,,,,,,,,,,,
9994058,1506883492650,,,,,,,,0.01,0.08,0.97,-3.0,-0.0,-0.2,1260,0,,,,,,,,,,,,,,,,,,
9994078,1506883492670,,,,,,,,0.01,0.08,0.98,-3.1,0.0,-0.2,1240,0,,,,,,,,,,,,,,,,,,
9994098,1506883492690,,,,,,,,0.01,0.09,0.98,-3.1,-0.1,-0.2,1200,0,,,,,,,,,,,,,,,,,,
9994120,1506883492712,,,,,27,,,0.01,0.08,0.97,-3.1,-0.1,-0.2,1200,0,0,1,0.0,35.490311,-119.544846,0.0,2.836,279.6,11,3,1.4,19,2.66,0,0.0,4.361,6.6833,20
9994139,1506883492731,,,,,,,,0.02,0.08,0.97,-3.1,-0.2,-0.2,1160,0,,,,,,,,,,,,,,,,,,
9994159,1506883492751,,,,,,,,0.02,0.08,0.97,-3.0,-0.1,-0.2,1120,0,,,,,,,,,,,,,,,,,,
9994179,1506883492771,,,,,,,,0.01,0.08,0.96,-3.0,-0.0,-0.1,1100,0,,,,,,,,,,,,,,,,,,
9994199,1506883492791,,,,,,,,0.01,0.08,0.99,-3.0,-0.1,-0.2,1100,0,,,,,,,,,,,,,,,,,,
9994221,1506883492809,0,171.0,-1.0,183.1,24,198.2,14.1,0.01,0.07,0.98,-3.0,-0.0,-0.2,1080,0,0,1,0.0,35.490311,-119.544846,0.0,2.836,279.6,11,3,1.4,19,2.66,0,0.0,4.361,6.685,20
9994240,1506883492828,,,,,,,,0.02,0.08,0.99,-3.0,-0.1,-0.2,1080,0,,,,,,,,,,,,,,,,,,
9994260,1506883492848,,,,,,,,0.02,0.08,0.98,-3.0,-0.2,-0.2,1040,0,,,,,,,,,,,,,,,,,,
9994280,1506883492868,,,,,,,,0.01,0.07,0.98,-3.0,-0.2,-0.2,1040,0,,,,,,,,,,,,,,,,,,
9994300,1506883492891,,,,,,,,0.01,0.07,0.98,-3.1,-0.1,-0.2,1020,0,,,,,,,,,,,,,,,,,,
9994322,1506883492913,,,,,22,,,0.01,0.07,0.98,-3.0,-0.1,-0.2,1000,0,0,1,0.0,35.490311,-119.544846,0.0,2.836,279.6,11,3,1.4,19,2.66,0,0.0,4.361,6.6867,20
9994341,1506883492932,,,,,,,,0.0,0.06,0.99,-3.0,-0.0,-0.3,980,0,,,,,,,,,,,,,,,,,,
9994361,1506883492952,,,,,,,,0.0,0.07,0.98,-3.0,-0.1,-0.2,980,0,,,,,,,,,,,,,,,,,,
9994381,1506883492972,,,,,,,,0.0,0.07,0.98,-3.0,-0.1,-0.2,940,0,,,,,,,,,,,,,,,,,,
9994401,1506883492992,,,,,,,,0.0,0.06,0.99,-2.9,-0.1,-0.2,940,0,,,,,,,,,,,,,,,,,,
9994423,1506883493008,0,170.8,,183.0,20,198.2,,-0.0,0.07,0.98,-2.9,-0.1,-0.2,920,0,0,1,0.0,35.490311,-119.544846,0.0,2.836,279.6,11,3,1.4,19,2.66,0,0.0,4.361,6.6883,20
9994442,1506883493027,,,,,,,,-0.0,0.07,0.99,-2.9,-0.2,-0.2,900,0,,,,,,,,,,,,,,,,,,
9994462,1506883493047,,,,,,,,-0.0,0.06,0.99,-2.9,-0.2,-0.2,880,0,,,,,,,,,,,,,,,,,,
9994482,1506883493067,,,,,,,,-0.0,0.06,0.99,-2.9,-0.2,-0.2,860,0,,,,,,,,,,,,,,,,,,
9994502,1506883493095,,,,,,,,0.0,0.06,1.0,-2.9,-0.1,-0.2,860,0,,,,,,,,,,,,,,,,,,
9994524,1506883493117,,,,,18,,,0.01,0.07,1.0,-2.9,-0.1,-0.2,860,0,0,1,0.0,35.490311,-119.544846,0.0,2.836,279.6,11,3,1.4,19,2.66,0,0.0,4.361,6.69,20
9994543,1506883493136,,,,,,,,0.01,0.07,1.01,-2.9,-0.2,-0.2,820,0,,,,,,,,,,,,,,,,,,
9994563,1506883493156,,,,,,,,0.01,0.07,1.01,-2.9,-0.2,-0.2,820,0,,,,,,,,,,,,,,,,,,
9994583,1506883493176,,,,,,,,0.0,0.07,1.0,-2.9,-0.2,-0.2,780,0,,,,,,,,,,,,,,,,,,
9994603,1506883493192,,,,,,,,0.0,0.07,1.0,-2.9,-0.2,-0.2,780,0,,,,,,,,,,,,,,,,,,
9994625,1506883493214,0,171.0,,183.7,17,198.7,,0.0,0.07,1.0,-3.0,-0.1,-0.3,780,0,0,1,0.0,35.490311,-119.544846,0.0,2.836,279.6,11,3,1.4,19,2.66,0,0.0,4.361,6.6917,20
9994644,1506883493233,,,,,,,,0.0,0.07,0.99,-2.9,-0.1,-0.2,760,0,,,,,,,,,,,,,,,,,,
9994664,1506883493253,,,,,,,,0.0,0.08,0.99,-2.9,-0.1,-0.2,760,0,,,,,,,,,,,,,,,,,,
9994684,1506883493273,,,,,,,,0.01,0.08,0.99,-2.9,-0.1,-0.2,740,0,,,,,,,,,,,,,,,,,,
9994704,1506883493297,,,,,,,,0.0,0.08,1.0,-2.9,-0.1,-0.3,740,0,,,,,,,,,,,,,,,,,,
9994726,1506883493319,,,,,15,,,0.0,0.08,1.0,-2.9,-0.2,-0.3,740,0,0,1,0.0,35.490311,-119.544846,0.0,2.836,279.6,11,3,1.4,19,2.66,0,0.0,4.361,6.6933,20
9994745,1506883493338,,,,,,,,0.01,0.09,0.99,-2.9,-0.2,-0.2,720,0,,,,,,,,,,,,,,,,,,
9994765,1506883493358,,,,,,,,0.01,0.09,0.99,-2.9,-0.3,-0.2,720,0,,,,,,,,,,,,,,,,,,
9994785,1506883493378,,,,,,,,0.0,0.08,0.99,-2.9,-0.3,-0.3,720,0,,,,,,,,,,,,,,,,,,
9994805,1506883493396,,,,,,,,0.0,0.09,0.98,-3.0,-0.3,-0.2,700,0,,,,,,,,,,,,,,,,,,
9994827,1506883493418,0,171.1,,183.9,15,198.9,,0.01,0.1,0.98,-3.0,-0.3,-0.0,680,0,0,1,0.0,35.490311,-119.544846,0.0,2.836,279.6,11,3,1.4,19,2.66,0,0.0,4.361,6.695,20
9994846,1506883493437,,,,,,,,-0.0,0.09,0.99,-3.0,-0.4,-0.2,760,0,,,,,,,,,,,,,,,,,,
9994866,1506883493457,,,,,,,,-0.01,0.08,0.99,-2.9,-0.2,-0.3,840,0,,,,,,,,,,,,,,,,,,
9994886,1506883493477,,,,,,,,0.0,0.08,0.99,-3.0,-0.2,-0.2,840,0,,,,,,,,,,,,,,,,,,
9994906,1506883493499,,,,,,,,0.01,0.09,0.96,-3.0,-0.3,-0.1,920,0,,,,,,,,,,,,,,,,,,
9994928,1506883493521,,,,,19,,,0.01,0.09,1.01,-3.0,-0.6,-0.1,980,0,0,1,0.0,35.490311,-119.544846,0.0,2.836,279.6,11,3,1.4,19,2.66,0,0.0,4.361,6.6967,20
9994947,1506883493540,,,,,,,,0.01,0.1,1.03,-3.0,-0.3,-0.0,1060,0,,,,,,,,,,,,,,,,,,
9994967,1506883493560,,,,,,,,0.02,0.11,1.06,-2.9,-0.2,-0.1,1060,0,,,,,,,,,,,,,,,,,,
9994987,1506883493580,,,,,,,,0.03,0.11,1.07,-2.8,-0.1,-0.2,1040,0,,,,,,,,,,,,,,,,,,
9995007,1506883493600,,,,,,,,0.02,0.1,1.07,-2.8,-0.4,-0.3,1000,0,,,,,,,,,,,,,,,,,,
9995029,1506883493622,0,171.2,,183.7,19,198.3,,0.02,0.1,1.07,-2.9,-0.4,-0.3,1040,0,0,1,0.0,35.490311,-119.544846,0.0,2.836,279.6,11,3,1.4,19,2.66,0,0.0,4.361,6.6983,20
9995048,1506883493641,,,,,,,,0.02,0.1,1.06,-2.9,-0.6,-0.4,1060,0,,,,,,,,,,,,,,,,,,
9995068,1506883493661,,,,,,,,0.02,0.08,1.06,-2.9,-1.0,-0.5,1100,0,,,,,,,,,,,,,,,,,,
9995088,1506883493681,,,,,,,,0.02,0.09,1.06,-2.9,-0.8,-0.6,1100,0,,,,,,,,,,,,,,,,,,
9995108,1506883493701,,,,,,,,0.01,0.1,1.08,-3.0,-0.4,-0.5,1060,0,,,,,,,,,,,,,,,,,,
9995130,1506883493723,,,,,21,,,0.0,0.1,1.05,-3.0,-0.4,-0.5,1020,0,0,1,0.0,35.490311,-119.544846,0.0,2.836,279.6,11,3,1.4,19,2.66,0,0.0,4.361,6.7,20
9995149,1506883493742,,,,,,,,-0.0,0.09,1.03,-3.0,-0.3,-0.4,960,0,,,,,,,,,,,,,,,,,,
9995169,1506883493762,,,,,,,,-0.01,0.1,1.02,-3.0,-0.2,-0.4,940,0,,,,,,,,,,,,,,,,,,
9995189,1506883493782,,,,,,,,-0.02,0.1,1.01,-3.0,-0.0,-0.4,900,0,,,,,,,,,,,,,,,,,,
9995209,1506883493802,,,,,,,,-0.03,0.1,1.0,-3.0,-0.1,-0.4,840,0,,,,,,,,,,,,,,,,,,
9995231,1506883493824,0,171.6,-1.1,184.8,19,199.0,14.08,-0.03,0.08,0.99,-2.9,0.1,-0.4,820,0,0,1,0.0,35.490311,-119.544846,0.0,2.836,279.6,11,3,1.4,19,2.66,0,0.0,4.361,6.7017,20
9995250,1506883493843,,,,,,,,-0.03,0.08,0.99,-3.0,0.1,-0.4,820,2,,,,,,,,,,,,,,,,,,
9995270,1506883493863,,,,,,,,-0.03,0.08,0.99,-3.0,0.1,-0.2,800,2,,,,,,,,,,,,,,,,,,
9995290,1506883493883,,,,,,,,-0.03,0.09,0.99,-3.1,0.2,-0.1,780,2,,,,,,,,,,,,,,,,,,
9995310,1506883493902,,,,,,,,-0.03,0.09,1.0,-3.0,0.1,-0.2,780,2,,,,,,,,,,,,,,,,,,
9995332,1506883493924,,,,,15,,,-0.04,0.08,1.01,-3.0,0.1,-0.5,740,2,0,1,0.0,35.490311,-119.544846,0.0,2.836,279.6,11,3,1.4,19,2.66,0,0.0,4.361,6.7033,20
9995351,1506883493943,,,,,,,,-0.05,0.08,1.01,-3.0,0.1,-0.6,740,15,,,,,,,,,,,,,,,,,,
9995371,1506883493963,,,,,,,,-0.04,0.09,1.0,-3.0,0.2,-0.4,720,15,,,,,,,,,,,,,,,,,,
9995391,1506883493983,,,,,,,,-0.04,0.09,1.0,-3.0,0.0,-0.4,680,15,,,,,,,,,,,,,,,,,,
9995411,1506883493995,,,,,,,,-0.05,0.08,1.0,-3.0,-0.1,-0.5,680,18,,,,,,,,,,,,,,,,,,
9995433,1506883494017,0,171.0,,184.4,13,198.7,,-0.05,0.08,1.0,-3.0,0.0,-0.5,680,18,0,1,0.0,35.490311,-119.544846,0.0,2.836,279.6,11,3,1.4,19,2.66,0,0.0,4.361,6.705,20
9995452,1506883494036,,,,,,,,-0.05,0.08,0.99,-3.0,-0.1,-0.5,660,18,,,,,,,,,,,,,,,,,,
9995472,1506883494056,,,,,,,,-0.05,0.07,1.0,-3.0,-0.3,-0.5,660,18,,,,,,,,,,,,,,,,,,
9995492,1506883494076,,,,,,,,-0.05,0.08,1.0,-3.1,-0.3,-0.5,640,22,,,,,,,,,,,,,,,,,,
9995512,1506883494104,,,,,,,,-0.04,0.07,1.0,-3.1,-0.4,-0.5,640,22,,,,,,,,,,,,,,,,,,
9995534,1506883494126,,,,,12,,,-0.05,0.06,1.0,-3.0,-0.4,-0.5,640,31,0,1,0.0,35.490311,-119.544846,0.0,2.836,279.6,11,3,1.4,19,2.66,0,0.0,4.361,6.7067,20
9995553,1506883494145,,,,,,,,-0.05,0.07,1.0,-3.1,-0.5,-0.4,620,31,,,,,,,,,,,,,,,,,,
9995573,1506883494165,,,,,,,,-0.04,0.07,1.0,-3.1,-0.4,-0.4,600,31,,,,,,,,,,,,,,,,,,
9995593,1506883494185,,,,,,,,-0.05,0.06,1.0,-3.1,-0.3,-0.4,600,26,,,,,,,,,,,,,,,,,,
9995613,1506883494205,,,,,,,,-0.04,0.07,0.99,-3.1,-0.3,-0.2,580,26,,,,,,,,,,,,,,,,,,
9995635,1506883494227,0,171.0,,183.9,11,198.1,,-0.05,0.07,0.99,-3.1,-0.4,-0.3,580,32,0,1,0.0,35.490311,-119.544846,0.0,2.836,279.6,11,3,1.4,19,2.66,0,0.0,4.361,6.7083,20
9995654,1506883494246,,,,,,,,-0.04,0.08,0.99,-3.1,-0.4,-0.3,580,32,,,,,,,,,,,,,,,,,,
9995674,1506883494266,,,,,,,,-0.04,0.08,0.98,-3.1,-0.3,-0.3,560,37,,,,,,,,,,,,,,,,,,
9995694,1506883494286,,,,,,,,-0.04,0.07,0.98,-3.1,-0.3,-0.2,560,37,,,,,,,,,,,,,,,,,,
9995714,1506883494306,,,,,,,,-0.04,0.08,0.98,-3.1,-0.4,-0.2,560,40,,,,,,,,,,,,,,,,,,
9995736,1506883494328,,,,,11,,,-0.05,0.07,0.98,-3.1,-0.3,-0.3,560,40,0,1,0.0,35.490311,-119.544846,0.0,2.836,279.6,11,3,1.4,19,2.66,0,0.0,4.361,6.71,20
9995755,1506883494347,,,,,,,,-0.05,0.07,0.98,-3.1,-0.3,-0.3,560,40,,,,,,,,,,,,,,,,,,
9995775,1506883494367,,,,,,,,-0.05,0.07,0.99,-3.0,-0.2,-0.4,560,51,,,,,,,,,,,,,,,,,,
9995795,1506883494387,,,,,,,,-0.06,0.08,0.99,-3.0,-0.2,-0.4,560,51,,,,,,,,,,,,,,,,,,
9995815,1506883494407,,,,,,,,-0.05,0.08,0.99,-3.0,-0.3,-0.4,560,43,,,,,,,,,,,,,,,,,,
9995837,1506883494429,0,171.5,,184.8,10,198.4,,-0.06,0.08,0.98,-3.0,-0.3,-0.4,560,52,0,1,0.0,35.490311,-119.544846,0.0,2.836,279.6,11,3,1.4,19,2.66,0,0.0,4.361,6.7117,20
9995856,1506883494448,,,,,,,,-0.05,0.09,0.98,-3.0,-0.4,-0.4,540,52,,,,,,,,,,,,,,,,,,
9995876,1506883494468,,,,,,,,-0.06,0.07,0.98,-3.0,-0.5,-0.5,540,51,,,,,,,,,,,,,,,,,,
9995896,1506883494488,,,,,,,,-0.06,0.07,0.99,-3.0,-0.3,-0.4,540,51,,,,,,,,,,,,,,,,,,
9995916,1506883494508,,,,,,,,-0.06,0.06,0.98,-3.0,-0.4,-0.5,540,58,,,,,,,,,,,,,,,,,,
9995938,1506883494530,,,,,10,,,-0.06,0.07,0.98,-3.0,-0.5,-0.5,540,58,0,1,0.0,35.490311,-119.544846,0.0,2.836,279.6,11,3,1.4,19,2.66,0,0.0,4.361,6.7133,20
9995957,1506883494549,,,,,,,,-0.05,0.08,0.98,-3.0,-0.4,-0.5,560,52,,,,,,,,,,,,,,,,,,
9995977,1506883494569,,,,,,,,-0.05,0.07,0.97,-3.0,-0.3,-0.4,560,55,,,,,,,,,,,,,,,,,,
9995997,1506883494589,,,,,,,,-0.05,0.08,0.97,-3.1,-0.4,-0.3,560,65,,,,,,,,,,,,,,,,,,
9996017,1506883494609,,,,,,,,-0.06,0.07,0.97,-3.0,-0.4,-0.4,560,65,,,,,,,,,,,,,,,,,,
9996039,1506883494631,0,171.4,,185.2,10,198.9,,-0.05,0.08,0.97,-3.0,-0.3,-0.3,580,62,0,1,0.0,35.490311,-119.544846,0.0,2.836,279.6,11,3,1.4,19,2.66,0,0.0,4.361,6.715,20
9996058,1506883494650,,,,,,,,-0.05,0.07,0.97,-3.0,-0.3,-0.3,600,58,,,,,,,,,,,,,,,,,,
9996078,1506883494670,,,,,,,,-0.05,0.08,0.97,-3.0,-0.3,-0.3,600,68,,,,,,,,,,,,,,,,,,
9996098,1506883494690,,,,,,,,-0.05,0.08,0.97,-2.9,-0.4,-0.3,600,72,,,,,,,,,,,,,,,,,,
9996118,1506883494710,,,,,,,,-0.05,0.07,0.97,-2.9,-0.2,-0.4,600,66,,,,,,,,,,,,,,,,,,
9996140,1506883494732,,,,,11,,,-0.05,0.09,0.97,-2.9,-0.2,-0.3,620,66,0,1,0.0,35.490311,-119.544846,0.0,2.836,279.6,11,3,1.4,19,2.66,0,0.0,4.361,6.7167,20
9996159,1506883494751,,,,,,,,-0.04,0.08,0.97,-2.8,-0.2,-0.3,620,74,,,,,,,,,,,,,,,,,,
9996179,1506883494771,,,,,,,,-0.05,0.07,0.98,-2.8,-0.2,-0.4,620,75,,,,,,,,,,,,,,,,,,
9996199,1506883494791,,,,,,,,-0.05,0.07,0.98,-2.8,-0.1,-0.3,640,69,,,,,,,,,,,,,,,,,,
9996219,1506883494811,,,,,,,,-0.04,0.07,0.98,-2.8,-0.2,-0.3,660,71,,,,,,,,,,,,,,,,,,
9996241,1506883494833,0,171.4,-0.6,185.2,12,198.7,13.47,-0.05,0.07,0.98,-2.7,-0.1,-0.4,660,77,0,1,0.0,35.490311,-119.544846,0.0,2.836,279.6,11,3,1.4,19,2.66,0,0.0,4.361,6.7183,20
9996260,1506883494852,,,,,,,,-0.05,0.07,0.98,-2.7,0.0,-0.3,660,78,,,,,,,,,,,,,,,,,,
9996280,1506883494872,,,,,,,,-0.04,0.07,0.99,-2.7,0.0,-0.3,680,74,,,,,,,,,,,,,,,,,,
9996300,1506883494891,,,,,,,,-0.05,0.06,0.98,-2.6,0.0,-0.4,680,75,,,,,,,,,,,,,,,,,,
9996320,1506883494911,,,,,,,,-0.04,0.06,0.99,-2.7,0.2,-0.4,680,82,,,,,,,,,,,,,,,,,,
9996342,1506883494933,,,,,12,,,-0.03,0.06,0.99,-2.6,0.1,-0.3,680,80,0,1,0.0,35.490311,-119.544846,0.0,2.836,279.6,11,3,1.4,19,2.66,0,0.0,4.361,6.72,20
9996361,1506883494952,,,,,,,,-0.04,0.05,0.99,-2.6,0.1,-0.3,700,77,,,,,,,,,,,,,,,,,,
9996381,1506883494972,,,,,,,,-0.04,0.06,1.0,-2.5,0.2,-0.4,700,80,,,,,,,,,,,,,,,,,,
9996401,1506883494992,,,,,,,,-0.03,0.07,0.99,-2.5,0.2,-0.3,700,86,,,,,,,,,,,,,,,,,,
9996421,1506883495006,,,,,,,,-0.03,0.07,0.98,-2.5,0.1,-0.2,700,86,,,,,,,,,,,,,,,,,,
9996443,1506883495028,0,171.4,,185.5,14,199.0,,-0.04,0.06,0.97,-2.5,-0.1,-0.4,700,80,0,1,0.0,35.490311,-119.544846,0.0,2.836,279.6,11,3,1.4,19,2.66,0,0.0,4.361,6.7217,20
9996462,1506883495047,,,,,,,,-0.04,0.06,0.98,-2.5,-0.1,-0.4,700,88,,,,,,,,,,,,,,,,,,
9996482,1506883495067,,,,,,,,-0.03,0.07,0.98,-2.5,-0.2,-0.2,700,91,,,,,,,,,,,,,,,,,,
9996502,1506883495095,,,,,,,,-0.04,0.06,0.97,-2.4,-0.2,-0.2,720,88,,,,,,,,,,,,,,,,,,
9996522,1506883495115,,,,,,,,-0.04,0.07,0.98,-2.4,-0.1,-0.3,720,85,,,,,,,,,,,,,,,,,,
9996544,1506883495137,,,,,14,,,-0.03,0.07,0.98,-2.3,0.0,-0.2,720,89,0,1,0.0,35.490307,-119.544846,1.06,2.836,277.0,11,3,1.4,19,2.66,0,0.0,4.361,6.7233,20
9996563,1506883495156,,,,,,,,-0.03,0.08,0.98,-2.3,-0.1,-0.1,700,97,,,,,,,,,,,,,,,,,,
9996583,1506883495176,,,,,,,,-0.04,0.07,0.99,-2.2,-0.3,-0.2,720,91,,,,,,,,,,,,,,,,,,
9996603,1506883495196,,,,,,,,-0.03,0.07,0.99,-2.2,-0.2,-0.1,720,88,,,,,,,,,,,,,,,,,,
9996623,1506883495210,,,,,,,,-0.03,0.08,0.98,-2.3,-0.2,-0.0,720,92,,,,,,,,,,,,,,,,,,
9996645,1506883495232,0,171.2,,185.4,15,198.3,,-0.03,0.07,0.97,-2.2,-0.3,-0.0,680,102,0,1,0.0,35.490307,-119.544846,1.32,2.836,277.0,11,2,1.4,19,2.66,0,0.0,4.361,6.725,20
9996664,1506883495251,,,,,,,,-0.03,0.06,0.98,-2.2,-0.3,-0.1,680,97,,,,,,,,,,,,,,,,,,
9996684,1506883495271,,,,,,,,-0.03,0.06,0.97,-2.2,-0.2,-0.0,700,91,,,,,,,,,,,,,,,,,,
9996704,1506883495291,,,,,,,,-0.03,0.06,0.97,-2.2,-0.1,0.1,700,92,,,,,,,,,,,,,,,,,,
9996724,1506883495311,,,,,,,,-0.04,0.06,0.98,-2.1,-0.1,0.1,700,108,,,,,,,,,,,,,,,,,,
9996746,1506883495333,,,,,13,,,-0.04,0.06,0.98,-2.1,-0.0,0.0,700,105,0,1,0.0,35.490307,-119.544846,1.39,2.837,277.0,11,3,1.4,19,2.66,0,0.0,4.361,6.7267,20
9996765,1506883495352,,,,,,,,-0.04,0.07,0.97,-2.1,-0.1,0.1,700,97,,,,,,,,,,,,,,,,,,
9996785,1506883495372,,,,,,,,-0.04,0.07,0.97,-2.1,-0.2,0.0,700,103,,,,,,,,,,,,,,,,,,
9996805,1506883495398,,,,,,,,-0.05,0.06,0.97,-2.0,0.0,-0.1,700,114,,,,,,,,,,,,,,,,,,
9996825,1506883495418,,,,,,,,-0.05,0.08,0.97,-2.0,0.1,-0.0,680,117,,,,,,,,,,,,,,,,,,
9996847,1506883495440,0,171.0,,185.6,13,198.4,,-0.05,0.08,0.97,-2.0,-0.0,-0.0,680,109,0,1,0.0,35.490307,-119.544846,1.26,2.837,277.0,11,3,1.4,19,2.66,0,0.0,4.361,6.7283,20
9996866,1506883495459,,,,,,,,-0.05,0.08,0.98,-2.0,-0.1,-0.2,680,114,,,,,,,,,,,,,,,,,,
9996886,1506883495479,,,,,,,,-0.06,0.08,0.98,-2.0,-0.1,-0.1,680,132,,,,,,,,,,,,,,,,,,
9996906,1506883495499,,,,,,,,-0.06,0.08,0.99,-2.0,-0.2,-0.1,660,134,,,,,,,,,,,,,,,,,,
9996926,1506883495519,,,,,,,,-0.07,0.06,0.99,-2.0,-0.1,-0.2,660,126,,,,,,,,,,,,,,,,,,
9996948,1506883495541,,,,,13,,,-0.08,0.07,0.99,-2.1,-0.0,-0.2,640,128,0,1,0.0,35.490307,-119.544846,1.34,2.837,277.0,11,3,1.4,19,2.66,0,0.0,4.361,6.73,20
9996967,1506883495560,,,,,,,,-0.08,0.07,1.0,-2.0,0.0,-0.2,600,143,,,,,,,,,,,,,,,,,,
9996987,1506883495580,,,,,,,,-0.1,0.05,0.99,-2.0,0.1,-0.3,600,146,,,,,,,,,,,,,,,,,,
9997007,1506883495600,,,,,,,,-0.1,0.06,0.99,-2.0,0.2,-0.2,560,145,,,,,,,,,,,,,,,,,,
9997027,1506883495620,,,,,,,,-0.11,0.06,0.99,-1.9,0.2,-0.3,560,142,,,,,,,,,,,,,,,,,,
9997049,1506883495642,0,171.5,,185.9,10,198.1,,-0.12,0.07,0.99,-1.9,0.4,-0.3,500,146,0,1,0.0,35.490307,-119.544846,1.53,2.837,277.0,11,3,1.4,19,2.66,0,0.0,4.361,6.7317,20
9997068,1506883495661,,,,,,,,-0.12,0.07,0.99,-1.8,0.5,-0.4,500,145,,,,,,,,,,,,,,,,,,
9997088,1506883495681,,,,,,,,-0.12,0.07,0.99,-1.8,0.5,-0.4,460,132,,,,,,,,,,,,,,,,,,
9997108,1506883495701,,,,,,,,-0.13,0.06,0.99,-1.8,0.5,-0.5,460,126,,,,,,,,,,,,,,,,,,
9997128,1506883495721,,,,,,,,-0.13,0.06,0.99,-1.8,0.4,-0.4,420,134,,,,,,,,,,,,,,,,,,
9997150,1506883495743,,,,,8,,,-0.11,0.07,1.0,-1.7,0.3,-0.4,420,122,0,1,0.0,35.490307,-119.544846,1.74,2.837,276.9,11,3,1.4,19,2.66,0,0.0,4.361,6.7333,20
9997169,1506883495762,,,,,,,,-0.11,0.07,0.99,-1.7,0.3,-0.4,420,137,,,,,,,,,,,,,,,,,,
9997189,1506883495782,,,,,,,,-0.09,0.08,0.99,-1.6,0.1,-0.3,400,131,,,,,,,,,,,,,,,,,,
9997209,1506883495802,,,,,,,,-0.09,0.06,0.99,-1.5,-0.1,-0.4,400,142,,,,,,,,,,,,,,,,,,
9997229,1506883495822,,,,,,,,-0.07,0.07,0.99,-1.5,-0.1,-0.3,440,142,,,,,,,,,,,,,,,,,,
9997251,1506883495844,0,171.2,-1.1,185.5,9,197.8,13.08,-0.07,0.06,0.98,-1.5,-0.2,-0.3,440,154,0,1,0.0,35.490307,-119.544846,2.31,2.837,276.8,11,3,1.4,19,2.66,0,0.0,4.361,6.735,20
9997270,1506883495863,,,,,,,,-0.06,0.07,0.97,-1.5,-0.5,-0.2,480,157,,,,,,,,,,,,,,,,,,
9997290,1506883495883,,,,,,,,-0.05,0.06,0.94,-1.4,-0.7,-0.2,480,171,,,,,,,,,,,,,,,,,,
9997310,1506883495902,,,,,,,,-0.04,0.07,0.95,-1.5,-0.6,-0.0,540,168,,,,,,,,,,,,,,,,,,
9997330,1506883495922,,,,,,,,-0.06,0.07,0.96,-1.6,-0.8,0.0,580,182,,,,,,,,,,,,,,,,,,
9997352,1506883495944,,,,,9,,,-0.07,0.06,0.95,-1.6,-0.6,0.1,580,177,0,1,0.0,35.490307,-119.544846,2.91,2.837,276.8,11,3,1.4,19,2.66,0,0.0,4.361,6.7367,20
9997371,1506883495963,,,,,,,,-0.06,0.07,0.93,-1.7,-0.3,0.3,600,182,,,,,,,,,,,,,,,,,,
9997391,1506883495983,,,,,,,,-0.07,0.06,0.95,-1.7,-0.2,0.2,600,185,,,,,,,,,,,,,,,,,,
9997411,1506883495995,,,,,,,,-0.08,0.07,0.97,-1.7,0.0,0.2,600,178,,,,,,,,,,,,,,,,,,
9997431,1506883496015,,,,,,,,-0.08,0.07,0.96,-1.7,0.1,0.2,600,178,,,,,,,,,,,,,,,,,,
9997453,1506883496037,0,171.2,,186.1,12,198.3,,-0.09,0.06,0.97,-1.7,-0.1,0.2,600,175,0,1,0.0,35.490311,-119.544846,2.82,2.837,276.8,11,3,1.4,19,2.66,0,0.0,4.361,6.7383,20
9997472,1506883496056,,,,,,,,-0.09,0.07,0.99,-1.7,-0.0,0.2,600,178,,,,,,,,,,,,,,,,,,
9997492,1506883496076,,,,,,,,-0.1,0.06,0.99,-1.6,0.0,0.1,600,182,,,,,,,,,,,,,,,,,,
9997512,1506883496104,,,,,,,,-0.1,0.07,0.99,-1.6,0.3,0.0,600,177,,,,,,,,,,,,,,,,,,
9997532,1506883496124,,,,,,,,-0.09,0.08,0.98,-1.6,0.2,-0.0,600,183,,,,,,,,,,,,,,,,,,
9997554,1506883496146,,,,,12,,,-0.1,0.06,0.99,-1.5,0.2,-0.2,600,183,0,1,0.0,35.490311,-119.544846,2.88,2.837,276.8,11,3,1.4,19,2.66,0,0.0,4.361,6.74,20
9997573,1506883496165,,,,,,,,-0.09,0.07,0.99,-1.6,0.1,-0.2,600,180,,,,,,,,,,,,,,,,,,
9997593,1506883496185,,,,,,,,-0.09,0.07,0.99,-1.6,-0.1,-0.2,600,191,,,,,,,,,,,,,,,,,,
9997613,1506883496207,,,,,,,,-0.09,0.07,1.0,-1.6,-0.1,-0.2,600,186,,,,,,,,,,,,,,,,,,
9997633,1506883496227,,,,,,,,-0.08,0.08,0.99,-1.6,-0.2,-0.2,600,188,,,,,,,,,,,,,,,,,,
9997655,1506883496249,0,171.5,,186.7,12,198.5,,-0.09,0.07,0.99,-1.6,-0.2,-0.4,600,198,0,1,0.0,35.490311,-119.544846,3.22,2.837,276.9,11,3,1.4,19,2.66,0,0.0,4.361,6.7417,20
9997674,1506883496268,,,,,,,,-0.08,0.08,0.99,-1.7,-0.1,-0.3,620,191,,,,,,,,,,,,,,,,,,
9997694,1506883496288,,,,,,,,-0.07,0.08,0.98,-1.7,-0.2,-0.2,640,200,,,,,,,,,,,,,,,,,,
9997714,1506883496308,,,,,,,,-0.08,0.07,0.99,-1.7,-0.3,-0.3,640,208,,,,,,,,,,,,,,,,,,
9997734,1506883496328,,,,,,,,-0.07,0.07,0.99,-1.8,-0.3,-0.2,660,203,,,,,,,,,,,,,,,,,,
9997756,1506883496350,,,,,14,,,-0.07,0.07,1.0,-1.9,-0.4,-0.1,680,208,0,1,0.0,35.490311,-119.544846,3.29,2.837,276.9,11,3,1.4,19,2.66,0,0.0,4.361,6.7433,20
9997775,1506883496369,,,,,,,,-0.08,0.06,1.0,-1.9,-0.5,-0.2,680,215,,,,,,,,,,,,,,,,,,
9997795,1506883496389,,,,,,,,-0.08,0.07,1.01,-2.0,-0.4,-0.2,680,214,,,,,,,,,,,,,,,,,,
9997815,1506883496409,,,,,,,,-0.08,0.08,1.0,-2.0,-0.4,-0.1,700,212,,,,,,,,,,,,,,,,,,
9997835,1506883496429,,,,,,,,-0.08,0.07,1.0,-2.0,-0.3,-0.2,700,218,,,,,,,,,,,,,,,,,,
9997857,1506883496451,0,171.4,,186.6,13,198.5,,-0.08,0.08,1.01,-2.0,-0.2,-0.3,700,218,0,1,0.0,35.490314,-119.544846,3.25,2.837,277.0,11,3,1.4,19,2.66,0,0.0,4.361,6.745,20
9997876,1506883496470,,,,,,,,-0.08,0.09,1.01,-2.1,-0.1,-0.3,700,214,,,,,,,,,,,,,,,,,,
9997896,1506883496490,,,,,,,,-0.08,0.09,0.99,-2.1,-0.0,-0.3,700,215,,,,,,,,,,,,,,,,,,
9997916,1506883496508,,,,,,,,-0.08,0.09,1.0,-2.2,-0.1,-0.4,700,220,,,,,,,,,,,,,,,,,,
9997936,1506883496528,,,,,,,,-0.08,0.09,1.0,-2.2,-0.1,-0.5,700,220,,,,,,,,,,,,,,,,,,
9997958,1506883496550,,,,,15,,,-0.07,0.1,0.99,-2.3,-0.1,-0.4,700,215,0,1,0.0,35.490314,-119.544861,3.54,2.837,277.0,11,3,1.4,19,2.66,0,0.0,4.361,6.7467,20
9997977,1506883496569,,,,,,,,-0.07,0.09,0.98,-2.4,-0.1,-0.4,700,217,,,,,,,,,,,,,,,,,,
9997997,1506883496591,,,,,,,,-0.07,0.08,0.99,-2.4,-0.0,-0.6,700,218,,,,,,,,,,,,,,,,,,
9998017,1506883496611,,,,,,,,-0.07,0.09,0.99,-2.5,0.1,-0.5,700,214,,,,,,,,,,,,,,,,,,
9998037,1506883496631,,,,,,,,-0.06,0.09,0.99,-2.5,-0.1,-0.5,700,217,,,,,,,,,,,,,,,,,,
9998059,1506883496653,0,171.3,,185.9,14,197.5,,-0.06,0.09,1.0,-2.5,-0.3,-0.5,720,220,0,1,0.0,35.490314,-119.544861,3.51,2.837,277.0,11,3,1.4,19,2.66,0,0.0,4.361,6.7483,20
9998078,1506883496672,,,,,,,,-0.06,0.09,1.01,-2.5,-0.2,-0.4,720,226,,,,,,,,,,,,,,,,,,
9998098,1506883496692,,,,,,,,-0.05,0.1,0.99,-2.6,-0.4,-0.1,720,222,,,,,,,,,,,,,,,,,,
9998118,1506883496712,,,,,,,,-0.05,0.1,0.99,-2.7,-0.5,0.1,720,223,,,,,,,,,,,,,,,,,,
9998138,1506883496732,,,,,,,,-0.05,0.09,0.99,-2.7,-0.8,-0.1,720,225,,,,,,,,,,,,,,,,,,
9998160,1506883496754,,,,,15,,,-0.04,0.08,0.99,-2.8,-1.0,-0.1,720,225,0,1,0.0,35.490314,-119.544861,3.66,2.838,277.0,11,3,1.4,19,2.66,0,0.0,4.361,6.75,20
9998179,1506883496773,,,,,,,,-0.04,0.1,0.99,-2.9,-1.1,0.0,740,226,,,,,,,,,,,,,,,,,,
9998199,1506883496793,,,,,,,,-0.04,0.1,0.99,-2.9,-1.2,0.1,740,229,,,,,,,,,,,,,,,,,,
9998219,1506883496813,,,,,,,,-0.05,0.08,1.0,-2.8,-1.2,-0.0,760,232,,,,,,,,,,,,,,,,,,
9998239,1506883496833,,,,,,,,-0.05,0.08,0.99,-2.8,-1.0,-0.0,760,235,,,,,,,,,,,,,,,,,,
9998261,1506883496855,0,170.7,-1.0,185.8,14,197.6,13.9,-0.04,0.09,0.99,-2.9,-0.9,0.1,760,234,0,1,0.0,35.490318,-119.544861,3.81,2.838,276.9,11,3,1.4,19,2.66,0,0.0,4.361,6.7517,20
9998280,1506883496874,,,,,,,,-0.04,0.08,0.98,-2.9,-0.8,0.2,760,232,,,,,,,,,,,,,,,,,,
9998300,1506883496893,,,,,,,,-0.04,0.09,0.98,-2.9,-0.5,0.0,760,232,,,,,,,,,,,,,,,,,,
9998320,1506883496913,,,,,,,,-0.04,0.09,0.99,-2.8,-0.5,-0.2,760,237,,,,,,,,,,,,,,,,,,
9998340,1506883496933,,,,,,,,-0.04,0.08,0.98,-2.8,-0.6,-0.2,760,234,,,,,,,,,,,,,,,,,,
9998362,1506883496955,,,,,15,,,-0.03,0.09,0.97,-2.8,-0.3,-0.1,760,232,0,1,0.0,35.490318,-119.544861,3.83,2.838,277.0,11,3,1.4,19,2.66,0,0.0,4.361,6.7533,20
9998381,1506883496974,,,,,,,,-0.03,0.1,0.97,-2.8,-0.6,-0.1,760,232,,,,,,,,,,,,,,,,,,
9998401,1506883496994,,,,,,,,-0.04,0.07,0.98,-2.8,-0.8,-0.4,760,235,,,,,,,,,,,,,,,,,,
9998421,1506883497006,,,,,,,,-0.04,0.07,0.98,-2.8,-0.6,-0.4,760,235,,,,,,,,,,,,,,,,,,
9998441,1506883497026,,,,,,,,-0.03,0.09,0.97,-2.8,-0.6,-0.2,760,232,,,,,,,,,,,,,,,,,,
9998463,1506883497048,0,171.4,,186.8,16,198.3,,-0.03,0.08,0.97,-2.8,-0.8,-0.1,760,234,0,1,0.0,35.490318,-119.544861,4.1,2.838,276.9,11,3,1.4,19,2.66,0,0.0,4.361,6.755,20
9998482,1506883497067,,,,,,,,-0.03,0.07,0.99,-2.8,-0.6,-0.1,760,237,,,,,,,,,,,,,,,,,,
9998502,1506883497095,,,,,,,,-0.04,0.07,0.99,-2.8,-0.6,-0.1,780,240,,,,,,,,,,,,,,,,,,
9998522,1506883497115,,,,,,,,-0.04,0.07,0.98,-2.8,-0.8,0.0,780,240,,,,,,,,,,,,,,,,,,
9998542,1506883497135,,,,,,,,-0.02,0.07,0.99,-2.9,-0.6,0.2,780,238,,,,,,,,,,,,,,,,,,
9998564,1506883497157,,,,,15,,,-0.03,0.08,0.99,-2.9,-0.7,0.2,760,240,0,1,0.0,35.490322,-119.544861,3.8,2.838,276.7,11,3,1.4,19,2.66,0,0.0,4.361,6.7567,20
9998583,1506883497176,,,,,,,,-0.03,0.07,0.99,-2.9,-0.7,-0.1,780,243,,,,,,,,,,,,,,,,,,
9998603,1506883497196,,,,,,,,-0.03,0.07,1.0,-2.8,-0.5,-0.1,780,242,,,,,,,,,,,,,,,,,,
9998623,1506883497216,,,,,,,,-0.03,0.09,0.98,-2.8,-0.8,0.0,780,242,,,,,,,,,,,,,,,,,,
9998643,1506883497236,,,,,,,,-0.02,0.08,0.98,-2.8,-0.6,0.2,780,240,,,,,,,,,,,,,,,,,,
9998665,1506883497258,0,170.7,,186.1,15,197.7,,-0.03,0.1,0.98,-2.8,-0.6,0.3,780,240,0,1,0.0,35.490322,-119.544861,3.98,2.838,276.6,11,3,1.4,19,2.66,0,0.0,4.361,6.7583,20
9998684,1506883497277,,,,,,,,-0.03,0.07,0.98,-2.8,-0.6,0.1,800,242,,,,,,,,,,,,,,,,,,
9998704,1506883497297,,,,,,,,-0.03,0.06,0.99,-2.7,-0.4,-0.1,780,245,,,,,,,,,,,,,,,,,,
9998724,1506883497317,,,,,,,,-0.03,0.07,0.99,-2.8,-0.6,-0.0,780,245,,,,,,,,,,,,,,,,,,
9998744,1506883497337,,,,,,,,-0.02,0.07,0.99,-2.8,-0.5,0.1,800,242,,,,,,,,,,,,,,,,,,
9998766,1506883497359,,,,,16,,,-0.02,0.08,0.99,-2.8,-0.5,0.1,800,240,0,1,0.0,35.490322,-119.544861,3.77,2.838,276.4,11,3,1.4,19,2.66,0,0.0,4.361,6.76,20
9998785,1506883497378,,,,,,,,-0.02,0.07,0.99,-2.7,-0.5,0.0,780,243,,,,,,,,,,,,,,,,,,
9998805,1506883497398,,,,,,,,-0.02,0.06,1.0,-2.7,-0.5,-0.1,800,246,,,,,,,,,,,,,,,,,,
9998825,1506883497418,,,,,,,,-0.02,0.07,0.99,-2.7,-0.6,-0.1,800,246,,,,,,,,,,,,,,,,,,
9998845,1506883497438,,,,,,,,-0.01,0.07,0.99,-2.7,-0.6,0.1,800,243,,,,,,,,,,,,,,,,,,
9998867,1506883497460,0,170.8,,186.2,15,197.5,,-0.01,0.08,0.99,-2.8,-0.8,0.1,800,243,0,1,0.0,35.490322,-119.544868,3.52,2.838,276.2,11,3,1.4,19,2.66,0,0.0,4.361,6.7617,20
9998886,1506883497479,,,,,,,,-0.01,0.08,0.99,-2.7,-0.6,0.1,800,245,,,,,,,,,,,,,,,,,,
9998906,1506883497499,,,,,,,,-0.01,0.08,1.0,-2.7,-0.8,-0.1,800,245,,,,,,,,,,,,,,,,,,
9998926,1506883497519,,,,,,,,-0.01,0.07,1.0,-2.8,-0.8,-0.2,800,246,,,,,,,,,,,,,,,,,,
9998946,1506883497539,,,,,,,,-0.01,0.08,0.99,-2.8,-0.6,-0.1,800,246,,,,,,,,,,,,,,,,,,
9998968,1506883497561,,,,,16,,,-0.01,0.09,0.98,-2.8,-0.8,-0.0,800,245,0,1,0.0,35.490322,-119.544868,3.94,2.838,276.0,11,3,1.4,19,2.66,0,0.0,4.361,6.7633,20
9998987,1506883497580,,,,,,,,-0.01,0.1,0.99,-2.9,-0.6,-0.1,800,248,,,,,,,,,,,,,,,,,,
9999007,1506883497596,,,,,,,,-0.01,0.08,0.98,-2.8,-0.8,-0.3,800,248,,,,,,,,,,,,,,,,,,
9999027,1506883497616,,,,,,,,-0.01,0.08,0.99,-2.8,-0.6,-0.4,800,248,,,,,,,,,,,,,,,,,,
9999047,1506883497636,,,,,,,,-0.01,0.08,0.97,-2.8,-0.6,-0.4,800,246,,,,,,,,,,,,,,,,,,
9999069,1506883497658,0,170.8,,186.4,15,197.5,,-0.0,0.08,0.98,-2.8,-0.5,-0.2,800,243,0,1,0.0,35.490322,-119.544868,4.16,2.838,275.9,11,3,1.4,19,2.66,0,0.0,4.361,6.765,20
9999088,1506883497677,,,,,,,,-0.0,0.08,0.98,-2.8,-0.6,-0.1,780,245,,,,,,,,,,,,,,,,,,
9999108,1506883497701,,,,,,,,-0.01,0.08,0.98,-2.8,-0.4,-0.2,800,245,,,,,,,,,,,,,,,,,,
9999128,1506883497721,,,,,,,,-0.02,0.07,0.99,-2.7,-0.5,-0.4,800,246,,,,,,,,,,,,,,,,,,
9999148,1506883497741,,,,,,,,-0.02,0.06,0.99,-2.7,-0.4,-0.4,800,246,,,,,,,,,,,,,,,,,,
9999170,1506883497763,,,,,16,,,-0.02,0.07,0.98,-2.7,-0.2,-0.3,800,245,0,1,0.0,35.490322,-119.544868,4.0,2.839,275.7,11,3,1.4,19,2.66,0,0.0,4.361,6.7667,20
9999189,1506883497782,,,,,,,,-0.01,0.07,0.98,-2.7,-0.3,-0.2,800,245,,,,,,,,,,,,,,,,,,
9999209,1506883497802,,,,,,,,-0.01,0.08,0.98,-2.7,-0.3,-0.2,800,245,,,,,,,,,,,,,,,,,,
9999229,1506883497822,,,,,,,,-0.01,0.07,0.98,-2.7,-0.5,-0.4,800,251,,,,,,,,,,,,,,,,,,
9999249,1506883497842,,,,,,,,-0.01,0.06,0.98,-2.7,-0.4,-0.5,820,249,,,,,,,,,,,,,,,,,,
9999271,1506883497864,0,171.2,-0.8,186.9,16,197.9,14.27,-0.01,0.07,0.97,-2.7,-0.4,-0.4,820,251,0,1,0.0,35.490322,-119.544868,4.16,2.839,275.6,11,3,1.4,19,2.66,0,0.0,4.361,6.7683,20
9999290,1506883497883,,,,,,,,-0.01,0.07,0.97,-2.7,-0.4,-0.2,800,249,,,,,,,,,,,,,,,,,,
9999310,1506883497902,,,,,,,,-0.0,0.08,0.98,-2.7,-0.6,-0.1,820,248,,,,,,,,,,,,,,,,,,
9999330,1506883497922,,,,,,,,-0.0,0.07,0.98,-2.7,-0.5,-0.1,820,248,,,,,,,,,,,,,,,,,,
9999350,1506883497942,,,,,,,,-0.01,0.07,0.98,-2.7,-0.7,-0.3,800,248,,,,,,,,,,,,,,,,,,
9999372,1506883497964,,,,,16,,,-0.01,0.06,0.98,-2.7,-0.6,-0.3,800,249,0,1,0.0,35.490326,-119.544868,4.17,2.839,275.6,11,3,1.4,19,2.66,0,0.0,4.361,6.77,20
9999391,1506883497983,,,,,,,,-0.01,0.06,0.97,-2.7,-0.5,-0.1,820,248,,,,,,,,,,,,,,,,,,
9999411,1506883497993,,,,,,,,-0.01,0.06,0.97,-2.8,-0.5,0.0,800,246,,,,,,,,,,,,,,,,,,
9999431,1506883498013,,,,,,,,-0.01,0.07,0.97,-2.8,-0.4,0.2,800,245,,,,,,,,,,,,,,,,,,
9999451,1506883498033,,,,,,,,-0.01,0.07,0.98,-2.8,-0.4,0.1,800,246,,,,,,,,,,,,,,,,,,
9999473,1506883498055,0,171.5,,187.0,17,197.5,,-0.01,0.07,0.99,-2.7,-0.3,0.2,800,249,0,1,0.0,35.490326,-119.544868,3.87,2.839,275.4,11,3,1.4,19,2.66,0,0.0,4.361,6.7717,20
9999492,1506883498074,,,,,,,,-0.0,0.07,0.98,-2.8,-0.2,0.3,800,249,,,,,,,,,,,,,,,,,,
9999512,1506883498104,,,,,,,,-0.0,0.07,0.98,-2.8,0.1,0.4,800,248,,,,,,,,,,,,,,,,,,
9999532,1506883498124,,,,,,,,0.0,0.08,0.98,-2.8,-0.1,0.5,800,249,,,,,,,,,,,,,,,,,,
9999552,1506883498144,,,,,,,,0.0,0.09,0.98,-2.8,0.1,0.3,820,251,,,,,,,,,,,,,,,,,,
9999574,1506883498166,,,,,18,,,-0.01,0.09,0.98,-2.7,-0.1,0.1,820,252,0,1,0.0,35.490326,-119.544868,4.12,2.839,275.3,11,3,1.4,19,2.66,0,0.0,4.361,6.7733,20
9999593,1506883498185,,,,,,,,-0.01,0.08,0.99,-2.7,-0.1,-0.1,820,255,,,,,,,,,,,,,,,,,,
9999613,1506883498205,,,,,,,,-0.01,0.09,0.98,-2.7,-0.0,-0.1,820,255,,,,,,,,,,,,,,,,,,
9999633,1506883498225,,,,,,,,-0.01,0.1,0.98,-2.7,0.1,-0.0,820,254,,,,,,,,,,,,,,,,,,
9999653,1506883498245,,,,,,,,-0.0,0.1,0.98,-2.8,-0.0,-0.1,820,252,,,,,,,,,,,,,,,,,,
9999675,1506883498267,0,171.5,,187.5,18,197.9,,-0.0,0.1,0.98,-2.7,0.3,-0.1,820,254,0,1,0.0,35.490326,-119.544868,4.34,2.839,275.3,11,3,1.4,19,2.66,0,0.0,4.361,6.775,20
9999694,1506883498286,,,,,,,,-0.01,0.1,0.99,-2.7,0.3,-0.3,820,252,,,,,,,,,,,,,,,,,,
9999714,1506883498308,,,,,,,,-0.01,0.09,1.0,-2.7,-0.0,-0.6,820,254,,,,,,,,,,,,,,,,,,
9999734,1506883498328,,,,,,,,-0.02,0.07,0.99,-2.7,0.0,-0.7,820,254,,,,,,,,,,,,,,,,,,
9999754,1506883498348,,,,,,,,-0.02,0.08,0.98,-2.7,0.2,-0.6,820,252,,,,,,,,,,,,,,,,,,
9999776,1506883498370,,,,,16,,,-0.01,0.08,0.99,-2.8,-0.0,-0.6,820,251,0,1,0.0,35.49033,-119.544884,4.52,2.839,275.2,11,3,1.4,19,2.66,0,0.0,4.361,6.7767,20
9999795,1506883498389,,,,,,,,-0.0,0.09,0.99,-2.8,-0.2,-0.6,820,248,,,,,,,,,,,,,,,,,,
9999815,1506883498409,,,,,,,,-0.0,0.09,0.99,-2.7,-0.1,-0.7,800,248,,,,,,,,,,,,,,,,,,
9999835,1506883498429,,,,,,,,-0.0,0.09,1.0,-2.7,-0.3,-0.9,800,249,,,,,,,,,,,,,,,,,,
9999855,1506883498449,,,,,,,,-0.01,0.08,1.0,-2.7,-0.2,-0.8,800,249,,,,,,,,,,,,,,,,,,
9999877,1506883498471,0,171.3,,187.3,18,197.8,,-0.0,0.09,0.99,-2.7,0.0,-0.6,820,248,0,1,0.0,35.49033,-119.544884,4.22,2.839,275.2,11,3,1.4,19,2.66,0,0.0,4.361,6.7783,20
9999896,1506883498490,,,,,,,,0.01,0.09,1.0,-2.8,0.2,-0.5,820,249,,,,,,,,,,,,,,,,,,
9999916,1506883498510,,,,,,,,0.01,0.09,1.0,-2.8,0.1,-0.4,820,249,,,,,,,,,,,,,,,,,,
9999936,1506883498530,,,,,,,,0.01,0.09,1.0,-2.8,0.2,-0.5,800,251,,,,,,,,,,,,,,,,,,
9999956,1506883498550,,,,,,,,0.0,0.09,1.02,-2.8,0.2,-0.6,820,252,,,,,,,,,,,,,,,,,,
9999978,1506883498572,,,,,16,,,-0.0,0.08,1.01,-2.8,0.2,-0.5,820,252,0,1,0.0,35.49033,-119.544884,4.23,2.84,275.1,11,3,1.4,19,2.66,0,0.0,4.361,6.78,20
9999997,1506883498591,,,,,,,,-0.0,0.08,1.0,-2.8,0.2,-0.4,820,252,,,,,,,,,,,,,,,,,,
10000017,1506883498611,,,,,,,,0.01,0.08,0.99,-2.9,0.1,-0.2,820,254,,,,,,,,,,,,,,,,,,
10000037,1506883498631,,,,,,,,0.0,0.09,0.99,-2.9,0.0,-0.2,820,252,,,,,,,,,,,,,,,,,,
10000057,1506883498651,,,,,,,,0.0,0.09,0.99,-2.8,-0.1,-0.3,820,252,,,,,,,,,,,,,,,,,,
10000079,1506883498673,0,170.7,,186.6,18,197.3,,-0.0,0.09,1.0,-2.7,-0.2,-0.4,820,251,0,1,0.0,35.490334,-119.544884,4.05,2.84,275.1,11,3,1.4,19,2.66,0,0.0,4.361,6.7817,20
10000098,1506883498692,,,,,,,,-0.01,0.08,1.0,-2.7,-0.2,-0.6,820,252,,,,,,,,,,,,,,,,,,
10000118,1506883498712,,,,,,,,-0.01,0.08,0.99,-2.7,-0.1,-0.4,820,251,,,,,,,,,,,,,,,,,,
10000138,1506883498732,,,,,,,,0.0,0.08,0.99,-2.8,-0.1,-0.4,800,249,,,,,,,,,,,,,,,,,,
10000158,1506883498752,,,,,,,,-0.0,0.09,0.99,-2.8,-0.4,-0.3,820,248,,,,,,,,,,,,,,,,,,
10000180,1506883498774,,,,,16,,,-0.0,0.09,1.01,-2.8,-0.3,-0.4,800,249,0,1,0.0,35.490334,-119.544884,4.1,2.84,275.0,11,3,1.4,19,2.66,0,0.0,4.361,6.7833,20
10000199,1506883498793,,,,,,,,-0.01,0.09,1.0,-2.8,-0.4,-0.4,800,249,,,,,,,,,,,,,,,,,,
10000219,1506883498813,,,,,,,,-0.02,0.07,1.0,-2.8,-0.4,-0.5,800,248,,,,,,,,,,,,,,,,,,
10000239,1506883498833,,,,,,,,-0.02,0.08,0.99,-2.9,-0.3,-0.4,800,248,,,,,,,,,,,,,,,,,,
10000259,1506883498853,,,,,,,,-0.01,0.09,0.98,-2.9,-0.5,-0.4,800,248,,,,,,,,,,,,,,,,,,
10000281,1506883498875,0,170.8,-1.0,186.9,16,197.1,14.3,-0.01,0.09,0.98,-2.9,-0.4,-0.4,820,248,0,1,0.0,35.490334,-119.544884,4.32,2.84,275.0,11,3,1.4,19,2.66,0,0.0,4.361,6.785,20
10000300,1506883498893,,,,,,,,-0.01,0.09,0.98,-2.9,-0.5,-0.4,820,251,,,,,,,,,,,,,,,,,,
10000320,1506883498913,,,,,,,,-0.02,0.09,0.99,-2.9,-0.5,-0.4,820,254,,,,,,,,,,,,,,,,,,
10000340,1506883498933,,,,,,,,-0.02,0.08,0.99,-3.0,-0.4,-0.3,820,252,,,,,,,,,,,,,,,,,,
10000360,1506883498953,,,,,,,,-0.01,0.09,0.99,-3.1,-0.2,-0.1,820,254,,,,,,,,,,,,,,,,,,
10000382,1506883498975,,,,,17,,,-0.0,0.09,1.0,-3.3,-0.3,0.1,820,254,0,1,0.0,35.490337,-119.544884,4.0,2.84,274.9,11,3,1.4,19,2.66,0,0.0,4.361,6.7867,20
10000401,1506883498994,,,,,,,,-0.0,0.1,1.0,-3.4,-0.2,0.1,820,255,,,,,,,,,,,,,,,,,,
10000421,1506883499006,,,,,,,,-0.01,0.1,1.01,-3.5,-0.2,0.1,840,255,,,,,,,,,,,,,,,,,,
10000441,1506883499026,,,,,,,,-0.01,0.09,1.01,-3.5,-0.4,0.1,840,257,,,,,,,,,,,,,,,,,,
10000461,1506883499046,,,,,,,,-0.02,0.08,1.01,-3.7,-0.3,0.2,840,260,,,,,,,,,,,,,,,,,,
10000483,1506883499068,0,171.3,,187.5,17,197.5,,-0.02,0.09,1.0,-3.8,-0.2,0.4,840,258,0,1,0.0,35.490337,-119.544884,4.18,2.84,274.8,11,3,1.4,19,2.66,0,0.0,4.361,6.7883,20
10000502,1506883499095,,,,,,,,-0.01,0.09,1.0,-4.0,-0.2,0.5,840,255,,,,,,,,,,,,,,,,,,
10000522,1506883499115,,,,,,,,-0.01,0.11,1.0,-4.2,-0.4,0.5,840,254,,,,,,,,,,,,,,,,,,
10000542,1506883499135,,,,,,,,-0.0,0.12,1.0,-4.3,-0.1,0.5,820,252,,,,,,,,,,,,,,,,,,
10000562,1506883499155,,,,,,,,-0.01,0.11,1.0,-4.4,-0.2,0.4,820,252,,,,,,,,,,,,,,,,,,
10000584,1506883499177,,,,,18,,,-0.01,0.12,1.01,-4.6,-0.3,0.3,820,251,0,1,0.0,35.490337,-119.544884,4.07,2.84,274.7,11,3,1.4,19,2.66,0,0.0,4.361,6.79,20
10000603,1506883499196,,,,,,,,-0.02,0.11,1.0,-4.7,-0.2,0.3,820,251,,,,,,,,,,,,,,,,,,
10000623,1506883499216,,,,,,,,-0.02,0.12,0.99,-4.9,-0.0,0.5,800,248,,,,,,,,,,,,,,,,,,
10000643,1506883499236,,,,,,,,-0.0,0.12,1.0,-5.1,-0.4,0.6,820,246,,,,,,,,,,,,,,,,,,
10000663,1506883499256,,,,,,,,-0.01,0.13,0.99,-5.3,-0.4,0.5,800,245,,,,,,,,,,,,,,,,,,
10000685,1506883499278,0,170.6,,186.3,18,196.4,,-0.01,0.12,0.99,-5.5,-0.6,0.4,800,246,0,1,0.0,35.490337,-119.544899,4.06,2.84,274.7,11,3,1.4,19,2.66,0,0.0,4.361,6.7917,20
10000704,1506883499297,,,,,,,,-0.01,0.12,0.99,-5.7,-0.7,0.2,800,249,,,,,,,,,,,,,,,,,,
10000724,1506883499317,,,,,,,,-0.01,0.11,0.99,-5.9,-0.8,0.3,800,249,,,,,,,,,,,,,,,,,,
10000744,1506883499337,,,,,,,,-0.0,0.12,0.98,-6.0,-0.7,0.4,820,252,,,,,,,,,,,,,,,,,,
10000764,1506883499357,,,,,,,,0.0,0.12,0.97,-6.2,-0.9,0.5,820,251,,,,,,,,,,,,,,,,,,
10000786,1506883499379,,,,,16,,,0.0,0.13,0.98,-6.4,-0.9,0.5,820,251,0,1,0.0,35.490341,-119.544899,4.22,2.84,274.6,11,3,1.4,19,2.66,0,0.0,4.361,6.7933,20
10000805,1506883499398,,,,,,,,0.0,0.12,0.99,-6.5,-0.9,0.3,820,251,,,,,,,,,,,,,,,,,,
10000825,1506883499418,,,,,,,,0.0,0.1,0.99,-6.6,-0.9,0.2,820,254,,,,,,,,,,,,,,,,,,
10000845,1506883499438,,,,,,,,-0.0,0.11,0.98,-6.7,-0.9,0.2,820,254,,,,,,,,,,,,,,,,,,
10000865,1506883499458,,,,,,,,0.01,0.11,0.98,-6.9,-0.9,0.3,820,255,,,,,,,,,,,,,,,,,,
10000887,1506883499480,0,171.0,,187.0,17,197.2,,0.01,0.12,0.99,-7.0,-0.9,0.3,820,254,0,1,0.0,35.490341,-119.544899,4.49,2.841,274.4,11,3,1.4,19,2.66,0,0.0,4.361,6.795,20
10000906,1506883499499,,,,,,,,0.0,0.13,0.99,-7.1,-0.8,0.3,820,254,,,,,,,,,,,,,,,,,,
10000926,1506883499519,,,,,,,,0.0,0.12,0.99,-7.1,-0.8,0.2,840,251,,,,,,,,,,,,,,,,,,
10000946,1506883499539,,,,,,,,-0.0,0.12,0.99,-7.2,-1.0,-0.0,820,254,,,,,,,,,,,,,,,,,,
10000966,1506883499559,,,,,,,,-0.0,0.12,0.99,-7.3,-0.9,-0.1,820,254,,,,,,,,,,,,,,,,,,
10000988,1506883499581,,,,,17,,,0.01,0.12,0.98,-7.5,-0.6,-0.1,820,252,0,1,0.0,35.490341,-119.544899,4.26,2.841,274.3,11,3,1.4,19,2.66,0,0.0,4.361,6.7967,20
10001007,1506883499602,,,,,,,,0.01,0.12,1.0,-7.6,-0.6,-0.1,820,249,,,,,,,,,,,,,,,,,,
10001027,1506883499622,,,,,,,,0.01,0.13,1.0,-7.7,-0.7,-0.2,820,248,,,,,,,,,,,,,,,,,,
10001047,1506883499642,,,,,,,,0.01,0.12,1.0,-7.8,-0.3,-0.4,800,249,,,,,,,,,,,,,,,,,,
10001067,1506883499662,,,,,,,,0.0,0.12,1.01,-7.9,-0.3,-0.7,820,246,,,,,,,,,,,,,,,,,,
10001089,1506883499684,0,171.2,,187.5,17,197.8,,0.0,0.11,1.0,-8.0,-0.3,-0.8,820,246,0,1,0.0,35.490341,-119.544899,4.11,2.841,274.3,11,3,1.4,19,2.66,0,0.0,4.361,6.7983,20
10001108,1506883499701,,,,,,,,0.0,0.12,0.99,-8.1,-0.1,-0.8,800,245,,,,,,,,,,,,,,,,,,
10001128,1506883499721,,,,,,,,0.01,0.12,0.98,-8.2,-0.1,-0.9,800,245,,,,,,,,,,,,,,,,,,
10001148,1506883499741,,,,,,,,0.01,0.13,0.97,-8.2,-0.1,-0.9,800,245,,,,,,,,,,,,,,,,,,
10001168,1506883499761,,,,,,,,0.0,0.11,0.98,-8.3,-0.2,-1.1,800,246,,,,,,,,,,,,,,,,,,
10001190,1506883499783,,,,,17,,,0.0,0.1,0.98,-8.3,-0.1,-1.2,800,252,0,1,0.0,35.490341,-119.544899,4.24,2.841,274.1,11,3,1.4,19,2.66,0,0.0,4.361,6.8,20
10001209,1506883499804,,,,,,,,0.0,0.1,0.97,-8.3,-0.3,-1.2,800,251,,,,,,,,,,,,,,,,,,
10001229,1506883499824,,,,,,,,0.01,0.1,0.97,-8.4,-0.1,-1.1,820,249,,,,,,,,,,,,,,,,,,
10001249,1506883499844,,,,,,,,0.01,0.1,0.97,-8.5,-0.3,-1.0,820,249,,,,,,,,,,,,,,,,,,
10001269,1506883499864,,,,,,,,0.01,0.11,0.98,-8.5,-0.2,-1.1,800,251,,,,,,,,,,,,,,,,,,
10001291,1506883499886,0,170.6,-0.6,186.6,17,196.4,14.31,0.01,0.1,0.99,-8.4,-0.3,-1.2,820,251,0,1,0.0,35.490341,-119.544899,4.25,2.841,274.1,11,3,1.4,19,2.66,0,0.0,4.361,6.8017,20
10001310,1506883499904,,,,,,,,0.0,0.09,0.99,-8.4,-0.2,-1.2,820,254,,,,,,,,,,,,,,,,,,
10001330,1506883499924,,,,,,,,-0.0,0.09,0.98,-8.5,-0.1,-1.1,820,254,,,,,,,,,,,,,,,,,,
10001350,1506883499944,,,,,,,,0.0,0.09,0.98,-8.5,-0.1,-0.8,820,254,,,,,,,,,,,,,,,,,,
10001370,1506883499964,,,,,,,,-0.0,0.09,0.98,-8.5,-0.2,-0.6,840,251,,,,,,,,,,,,,,,,,,
10001392,1506883499986,,,,,17,,,-0.0,0.1,0.98,-8.5,-0.0,-0.6,800,249,0,1,0.0,35.490341,-119.544907,4.32,2.841,274.0,11,3,1.4,19,2.66,0,0.0,4.361,6.8033,20
10001411,1506883499995,,,,,,,,-0.01,0.09,0.98,-8.5,-0.2,-0.7,800,248,,,,,,,,,,,,,,,,,,
10001431,1506883500015,,,,,,,,-0.01,0.08,0.98,-8.4,-0.3,-0.9,800,248,,,,,,,,,,,,,,,,,,
10001451,1506883500035,,,,,,,,-0.02,0.08,0.97,-8.4,-0.2,-0.8,800,249,,,,,,,,,,,,,,,,,,
10001471,1506883500055,,,,,,,,-0.01,0.09,0.96,-8.4,-0.2,-0.7,800,246,,,,,,,,,,,,,,,,,,
10001493,1506883500077,0,171.0,,187.2,17,197.2,,-0.0,0.09,0.97,-8.4,-0.4,-0.6,800,246,0,1,0.0,35.490345,-119.544907,4.29,2.841,274.0,11,3,1.4,19,2.66,0,0.0,4.361,6.805,20
10001512,1506883500104,,,,,,,,-0.01,0.1,0.97,-8.3,-0.2,-0.7,820,245,,,,,,,,,,,,,,,,,,
10001532,1506883500124,,,,,,,,-0.01,0.09,0.97,-8.3,-0.4,-1.0,800,248,,,,,,,,,,,,,,,,,,
10001552,1506883500144,,,,,,,,-0.01,0.07,0.97,-8.2,-0.3,-1.2,800,252,,,,,,,,,,,,,,,,,,
10001572,1506883500164,,,,,,,,-0.02,0.07,0.96,-8.2,-0.3,-1.1,800,252,,,,,,,,,,,,,,,,,,
10001594,1506883500186,,,,,18,,,-0.01,0.08,0.96,-8.2,-0.2,-1.0,820,252,0,1,0.0,35.490345,-119.544907,4.31,2.841,273.9,11,3,1.4,19,2.66,0,0.0,4.361,6.8067,20
10001613,1506883500207,,,,,,,,-0.01,0.08,0.98,-8.1,-0.3,-0.9,820,252,,,,,,,,,,,,,,,,,,
10001633,1506883500227,,,,,,,,-0.01,0.08,0.99,-8.0,-0.1,-1.1,840,254,,,,,,,,,,,,,,,,,,
10001653,1506883500247,,,,,,,,-0.02,0.08,0.99,-7.9,-0.3,-1.2,840,258,,,,,,,,,,,,,,,,,,
10001673,1506883500267,,,,,,,,-0.03,0.07,0.99,-7.8,-0.2,-1.2,840,260,,,,,,,,,,,,,,,,,,
10001695,1506883500289,0,170.9,,187.0,18,196.9,,-0.03,0.06,0.97,-7.8,-0.2,-1.0,840,262,0,1,0.0,35.490345,-119.544907,4.18,2.842,273.9,11,3,1.4,19,2.66,0,0.0,4.361,6.8083,20
10001714,1506883500308,,,,,,,,-0.02,0.06,0.98,-7.7,-0.0,-0.8,840,260,,,,,,,,,,,,,,,,,,
10001734,1506883500328,,,,,,,,-0.02,0.08,0.98,-7.7,0.1,-0.7,840,260,,,,,,,,,,,,,,,,,,
10001754,1506883500348,,,,,,,,-0.02,0.09,0.98,-7.6,0.1,-0.7,860,260,,,,,,,,,,,,,,,,,,
10001774,1506883500368,,,,,,,,-0.02,0.08,0.99,-7.6,-0.0,-0.9,860,260,,,,,,,,,,,,,,,,,,
10001796,1506883500390,,,,,18,,,-0.04,0.08,0.98,-7.5,-0.3,-1.1,860,260,0,1,0.0,35.490345,-119.544907,4.31,2.842,273.9,11,3,1.4,19,2.66,0,0.0,4.361,6.81,20
10001815,1506883500409,,,,,,,,-0.05,0.08,0.98,-7.5,-0.5,-1.2,840,262,,,,,,,,,,,,,,,,,,
10001835,1506883500429,,,,,,,,-0.05,0.07,0.97,-7.4,-0.2,-1.2,840,263,,,,,,,,,,,,,,,,,,
10001855,1506883500449,,,,,,,,-0.04,0.07,0.96,-7.4,-0.1,-1.0,840,260,,,,,,,,,,,,,,,,,,
10001875,1506883500469,,,,,,,,-0.03,0.08,0.98,-7.5,-0.3,-0.8,860,262,,,,,,,,,,,,,,,,,,
10001897,1506883500491,0,170.6,,186.6,18,196.7,,-0.03,0.09,0.98,-7.4,-0.2,-0.8,860,260,0,1,0.0,35.490349,-119.544907,4.45,2.842,273.9,11,3,1.4,19,2.66,0,0.0,4.361,6.8117,20
10001916,1506883500509,,,,,,,,-0.03,0.1,0.98,-7.4,-0.0,-0.9,840,262,,,,,,,,,,,,,,,,,,
10001936,1506883500529,,,,,,,,-0.04,0.09,0.98,-7.3,-0.4,-1.3,840,260,,,,,,,,,,,,,,,,,,
10001956,1506883500549,,,,,,,,-0.04,0.08,0.98,-7.4,-0.8,-1.6,860,262,,,,,,,,,,,,,,,,,,
10001976,1506883500569,,,,,,,,-0.04,0.06,0.97,-7.4,-0.6,-1.6,840,265,,,,,,,,,,,,,,,,,,
10001998,1506883500591,,,,,17,,,-0.03,0.06,0.97,-7.5,-0.5,-1.3,840,265,0,1,0.0,35.490349,-119.544907,4.3,2.842,273.7,11,3,1.4,19,2.66,0,0.0,4.361,6.8133,20
10002017,1506883500609,,,,,,,,-0.02,0.05,0.98,-7.6,-0.5,-0.9,860,266,,,,,,,,,,,,,,,,,,
10002037,1506883500629,,,,,,,,-0.01,0.07,1.0,-7.6,-0.5,-0.5,860,266,,,,,,,,,,,,,,,,,,
10002057,1506883500649,,,,,,,,-0.01,0.08,1.01,-7.6,-0.2,-0.4,860,268,,,,,,,,,,,,,,,,,,
10002077,1506883500669,,,,,,,,-0.01,0.07,1.01,-7.5,0.1,-0.3,880,269,,,,,,,,,,,,,,,,,,
10002099,1506883500693,0,171.2,,187.0,19,196.0,,-0.02,0.06,1.02,-7.4,0.1,-0.3,860,269,0,1,0.0,35.490349,-119.544922,4.42,2.842,273.4,11,3,1.4,19,2.66,0,0.0,4.361,6.8167,20
10002118,1506883500712,,,,,,,,-0.03,0.06,1.01,-7.3,-0.1,-0.3,900,272,,,,,,,,,,,,,,,,,,
10002138,1506883500732,,,,,,,,-0.04,0.06,1.01,-7.2,0.2,-0.2,880,272,,,,,,,,,,,,,,,,,,
10002158,1506883500752,,,,,,,,-0.03,0.06,0.98,-7.2,0.6,0.1,900,272,,,,,,,,,,,,,,,,,,
10002178,1506883500772,,,,,,,,-0.03,0.07,0.98,-7.2,0.7,0.4,880,275,,,,,,,,,,,,,,,,,,
10002200,1506883500794,,,,,18,,,-0.03,0.08,0.97,-7.3,0.6,0.6,880,275,0,1,0.0,35.490353,-119.544922,4.53,2.842,273.3,11,3,1.4,19,2.66,0,0.0,4.361,6.8183,20
10002219,1506883500813,,,,,,,,-0.02,0.1,0.98,-7.4,0.6,0.9,900,274,,,,,,,,,,,,,,,,,,
10002239,1506883500833,,,,,,,,-0.02,0.11,0.99,-7.5,0.7,0.9,900,274,,,,,,,,,,,,,,,,,,
10002259,1506883500853,,,,,,,,-0.01,0.13,0.98,-7.7,0.9,1.0,900,275,,,,,,,,,,,,,,,,,,
10002279,1506883500873,,,,,,,,-0.01,0.13,0.97,-7.8,0.7,1.0,880,272,,,,,,,,,,,,,,,,,,
10002301,1506883500894,0,171.0,-0.5,186.5,20,195.9,14.33,-0.01,0.12,0.98,-7.9,0.4,0.9,900,272,0,1,0.0,35.490353,-119.544922,4.24,2.842,273.2,11,3,1.4,19,2.66,0,0.0,4.361,6.82,20
10002320,1506883500913,,,,,,,,-0.03,0.12,0.98,-7.9,0.2,0.8,900,272,,,,,,,,,,,,,,,,,,
10002340,1506883500933,,,,,,,,-0.04,0.12,0.97,-7.9,0.0,0.6,900,275,,,,,,,,,,,,,,,,,,
10002360,1506883500953,,,,,,,,-0.04,0.1,0.97,-7.9,0.3,0.4,900,275,,,,,,,,,,,,,,,,,,
10002380,1506883500973,,,,,,,,-0.04,0.09,0.96,-7.9,0.3,0.1,900,277,,,,,,,,,,,,,,,,,,
10002402,1506883500995,,,,,19,,,-0.03,0.08,0.96,-7.9,0.3,-0.1,900,277,0,1,0.0,35.490353,-119.544922,4.24,2.842,273.2,11,3,1.4,19,2.66,0,0.0,4.361,6.82,20
10002421,1506883501008,,,,,,,,-0.04,0.08,0.96,-8.0,0.1,-0.2,900,278,,,,,,,,,,,,,,,,,,
10002441,1506883501028,,,,,,,,-0.03,0.09,0.96,-8.2,0.0,-0.3,900,278,,,,,,,,,,,,,,,,,,
10002461,1506883501048,,,,,,,,-0.03,0.1,0.97,-8.3,-0.1,-0.3,900,278,,,,,,,,,,,,,,,,,,
10002481,1506883501068,,,,,,,,-0.03,0.12,0.97,-8.5,-0.3,-0.3,900,278,,,,,,,,,,,,,,,,,,
10002503,1506883501096,0,170.9,,186.5,19,195.7,,-0.02,0.11,0.98,-8.6,-0.3,-0.3,900,275,0,1,0.0,35.490353,-119.544922,4.79,2.843,273.0,11,3,1.4,19,2.66,0,0.0,4.361,6.8233,20
10002522,1506883501115,,,,,,,,-0.03,0.11,0.98,-8.7,-0.3,-0.3,900,277,,,,,,,,,,,,,,,,,,
10002542,1506883501135,,,,,,,,-0.03,0.11,0.98,-8.9,-0.6,-0.1,900,277,,,,,,,,,,,,,,,,,,
10002562,1506883501155,,,,,,,,-0.04,0.1,0.97,-8.9,-0.9,-0.1,900,277,,,,,,,,,,,,,,,,,,
10002582,1506883501175,,,,,,,,-0.05,0.1,0.97,-9.0,-0.8,-0.1,900,278,,,,,,,,,,,,,,,,,,
10002604,1506883501199,,,,,20,,,-0.05,0.1,0.96,-9.1,-0.5,-0.1,920,278,0,1,0.0,35.490356,-119.544922,4.55,2.843,272.9,11,3,1.4,19,2.66,0,0.0,4.361,6.825,20
10002623,1506883501218,,,,,,,,-0.04,0.1,0.96,-9.0,-0.3,-0.2,920,282,,,,,,,,,,,,,,,,,,
10002643,1506883501238,,,,,,,,-0.03,0.09,0.95,-9.0,-0.1,-0.2,920,283,,,,,,,,,,,,,,,,,,
10002663,1506883501258,,,,,,,,-0.02,0.08,0.94,-9.1,-0.1,-0.3,920,286,,,,,,,,,,,,,,,,,,
10002683,1506883501278,,,,,,,,-0.03,0.08,0.95,-9.3,-0.3,-0.3,940,286,,,,,,,,,,,,,,,,,,
10002705,1506883501300,0,170.4,,186.1,20,195.8,,-0.03,0.07,0.97,-9.3,-0.2,-0.2,940,291,0,1,0.0,35.490356,-119.544922,4.68,2.843,272.9,11,3,1.4,19,2.66,0,0.0,4.361,6.8267,20
10002724,1506883501319,,,,,,,,-0.03,0.09,0.99,-9.4,-0.1,-0.2,940,291,,,,,,,,,,,,,,,,,,
10002744,1506883501339,,,,,,,,-0.02,0.1,0.99,-9.5,0.0,-0.1,940,291,,,,,,,,,,,,,,,,,,
10002764,1506883501359,,,,,,,,-0.02,0.11,1.01,-9.6,0.2,-0.1,940,291,,,,,,,,,,,,,,,,,,
10002784,1506883501379,,,,,,,,-0.01,0.12,1.01,-9.7,0.1,-0.0,960,292,,,,,,,,,,,,,,,,,,
10002806,1506883501395,,,,,20,,,-0.0,0.12,1.0,-9.9,-0.0,-0.0,920,289,0,1,0.0,35.490356,-119.544937,4.78,2.843,272.6,11,3,1.4,19,2.66,0,0.0,4.361,6.8283,20
10002825,1506883501414,,,,,,,,0.0,0.13,1.01,-10.0,-0.2,-0.0,940,288,,,,,,,,,,,,,,,,,,
10002845,1506883501434,,,,,,,,0.0,0.14,1.0,-10.1,-0.5,-0.1,940,288,,,,,,,,,,,,,,,,,,
10002865,1506883501454,,,,,,,,-0.0,0.13,1.0,-10.1,-0.6,-0.2,940,288,,,,,,,,,,,,,,,,,,
10002885,1506883501474,,,,,,,,-0.01,0.13,1.0,-10.2,-0.7,-0.2,920,286,,,,,,,,,,,,,,,,,,
10002907,1506883501496,0,171.1,,186.4,21,195.3,,-0.02,0.12,0.99,-10.2,-0.9,-0.3,960,286,0,1,0.0,35.490356,-119.544937,3.65,2.843,272.4,11,3,1.4,19,2.66,0,0.0,4.361,6.83,20
10002926,1506883501515,,,,,,,,-0.03,0.12,0.98,-10.3,-0.9,-0.3,920,288,,,,,,,,,,,,,,,,,,
10002946,1506883501535,,,,,,,,-0.04,0.12,0.99,-10.3,-0.7,-0.4,960,288,,,,,,,,,,,,,,,,,,
10002966,1506883501555,,,,,,,,-0.04,0.12,0.98,-10.3,-0.6,-0.5,920,289,,,,,,,,,,,,,,,,,,
10002986,1506883501575,,,,,,,,-0.04,0.12,0.96,-10.3,-0.4,-0.5,940,291,,,,,,,,,,,,,,,,,,
10003008,1506883501595,,,,,21,,,-0.04,0.12,0.94,-10.3,-0.2,-0.6,940,291,0,1,0.0,35.490356,-119.544937,2.41,2.843,272.4,11,3,1.4,19,2.66,0,0.0,4.361,6.8317,20
10003027,1506883501614,,,,,,,,-0.04,0.12,0.93,-10.3,0.0,-0.7,940,292,,,,,,,,,,,,,,,,,,
10003047,1506883501634,,,,,,,,-0.03,0.12,0.9,-10.3,0.2,-0.7,960,291,,,,,,,,,,,,,,,,,,
10003067,1506883501654,,,,,,,,-0.03,0.12,0.9,-10.4,0.4,-0.8,960,292,,,,,,,,,,,,,,,,,,
10003087,1506883501674,,,,,,,,-0.02,0.12,0.9,-10.4,0.5,-0.9,960,294,,,,,,,,,,,,,,,,,,
10003109,1506883501694,0,170.4,,186.0,21,195.7,,-0.02,0.1,0.91,-10.5,0.5,-1.0,960,294,0,1,0.0,35.490356,-119.544937,2.92,2.843,272.5,11,2,1.4,19,2.66,0,0.0,4.361,6.8333,20
10003128,1506883501713,,,,,,,,-0.03,0.1,0.91,-10.5,0.5,-1.1,960,294,,,,,,,,,,,,,,,,,,
10003148,1506883501733,,,,,,,,-0.02,0.1,0.9,-10.5,0.4,-1.4,960,298,,,,,,,,,,,,,,,,,,
10003168,1506883501753,,,,,,,,-0.02,0.1,0.9,-10.6,0.3,-1.7,980,298,,,,,,,,,,,,,,,,,,
10003188,1506883501773,,,,,,,,-0.01,0.11,0.9,-10.6,0.3,-1.9,980,302,,,,,,,,,,,,,,,,,,
10003210,1506883501803,,,,,22,,,-0.02,0.11,0.92,-10.7,0.4,-2.0,980,302,0,1,0.0,35.490356,-119.544937,4.17,2.843,272.4,11,3,1.4,19,2.66,0,0.0,4.361,6.835,20
10003229,1506883501822,,,,,,,,-0.02,0.12,0.96,-10.7,0.4,-1.9,980,300,,,,,,,,,,,,,,,,,,
10003249,1506883501842,,,,,,,,-0.02,0.12,0.96,-10.7,0.2,-1.9,980,300,,,,,,,,,,,,,,,,,,
10003269,1506883501862,,,,,,,,-0.02,0.11,0.98,-10.7,-0.2,-1.9,980,300,,,,,,,,,,,,,,,,,,
10003289,1506883501882,,,,,,,,-0.02,0.09,0.98,-10.8,-0.5,-1.8,980,300,,,,,,,,,,,,,,,,,,
10003311,1506883501903,0,170.9,-0.2,186.7,23,195.9,14.34,-0.02,0.08,0.99,-10.9,-0.8,-1.7,980,298,0,1,0.0,35.490356,-119.544937,3.88,2.843,272.4,11,3,1.4,19,2.66,0,0.0,4.361,6.8367,20
10003330,1506883501922,,,,,,,,-0.03,0.06,1.0,-11.0,-0.9,-1.4,980,300,,,,,,,,,,,,,,,,,,
10003350,1506883501942,,,,,,,,-0.03,0.06,1.01,-11.1,-1.3,-1.2,980,298,,,,,,,,,,,,,,,,,,
10003370,1506883501962,,,,,,,,-0.03,0.04,1.01,-11.2,-1.3,-0.9,980,295,,,,,,,,,,,,,,,,,,
10003390,1506883501982,,,,,,,,-0.04,0.04,1.0,-11.3,-1.5,-0.5,960,297,,,,,,,,,,,,,,,,,,
10003412,1506883501998,,,,,21,,,-0.04,0.03,1.0,-11.4,-1.6,-0.1,980,300,0,1,0.0,35.490356,-119.544937,4.5,2.844,272.5,11,3,1.4,19,2.66,0,0.0,4.361,6.8383,20
10003431,1506883502017,,,,,,,,-0.04,0.03,1.0,-11.4,-1.7,0.2,960,297,,,,,,,,,,,,,,,,,,
10003451,1506883502037,,,,,,,,-0.04,0.03,1.0,-11.4,-1.7,0.5,960,300,,,,,,,,,,,,,,,,,,
10003471,1506883502057,,,,,,,,-0.04,0.03,1.0,-11.4,-1.6,0.7,980,297,,,,,,,,,,,,,,,,,,
10003491,1506883502077,,,,,,,,-0.04,0.03,1.0,-11.5,-1.5,0.8,960,298,,,,,,,,,,,,,,,,,,
10003513,1506883502099,0,170.9,,186.9,22,195.2,,-0.05,0.04,1.01,-11.4,-1.4,0.9,980,298,0,1,0.0,35.490356,-119.544952,4.63,2.844,272.6,11,3,1.4,19,2.66,0,0.0,4.361,6.84,20
10003532,1506883502118,,,,,,,,-0.05,0.03,1.02,-11.4,-1.3,0.8,960,300,,,,,,,,,,,,,,,,,,
10003552,1506883502138,,,,,,,,-0.05,0.04,1.02,-11.3,-1.1,0.8,980,300,,,,,,,,,,,,,,,,,,
10003572,1506883502158,,,,,,,,-0.05,0.04,1.03,-11.3,-0.8,0.6,980,303,,,,,,,,,,,,,,,,,,
10003592,1506883502178,,,,,,,,-0.04,0.04,1.03,-11.3,-0.5,0.4,1000,305,,,,,,,,,,,,,,,,,,
10003614,1506883502208,,,,,22,,,-0.04,0.05,1.04,-11.3,-0.2,0.3,980,305,0,1,0.0,35.490356,-119.544952,4.61,2.844,272.7,11,3,1.4,19,2.66,0,0.0,4.361,6.8417,20
10003633,1506883502227,,,,,,,,-0.04,0.05,1.04,-11.3,-0.0,0.2,1000,305,,,,,,,,,,,,,,,,,,
10003653,1506883502247,,,,,,,,-0.04,0.04,1.05,-11.3,0.1,0.0,1000,305,,,,,,,,,,,,,,,,,,
10003673,1506883502267,,,,,,,,-0.04,0.05,1.05,-11.3,0.1,-0.1,1000,306,,,,,,,,,,,,,,,,,,
10003693,1506883502287,,,,,,,,-0.04,0.04,1.06,-11.3,0.2,-0.3,1000,306,,,,,,,,,,,,,,,,,,
10003715,1506883502309,0,171.0,,186.8,22,195.0,,-0.04,0.03,1.06,-11.3,0.2,-0.3,1000,306,0,1,0.0,35.490356,-119.544952,4.77,2.844,272.8,11,3,1.4,19,2.66,0,0.0,4.361,6.8433,20
10003734,1506883502328,,,,,,,,-0.04,0.03,1.07,-11.2,0.0,-0.4,980,306,,,,,,,,,,,,,,,,,,
10003754,1506883502348,,,,,,,,-0.04,0.03,1.06,-11.1,-0.2,-0.4,1000,306,,,,,,,,,,,,,,,,,,
10003774,1506883502368,,,,,,,,-0.04,0.02,1.06,-11.0,-0.3,-0.4,1000,306,,,,,,,,,,,,,,,,,,
10003794,1506883502388,,,,,,,,-0.04,0.02,1.06,-10.9,-0.4,-0.4,1000,306,,,,,,,,,,,,,,,,,,
10003816,1506883502404,,,,,23,,,-0.05,0.02,1.05,-10.8,-0.5,-0.3,1000,308,0,1,0.0,35.490356,-119.544952,4.85,2.844,272.8,11,3,1.4,19,2.66,0,0.0,4.361,6.845,20
10003835,1506883502423,,,,,,,,-0.05,0.03,1.06,-10.7,-0.6,-0.3,1000,305,,,,,,,,,,,,,,,,,,
10003855,1506883502443,,,,,,,,-0.05,0.03,1.06,-10.7,-0.6,-0.2,1000,303,,,,,,,,,,,,,,,,,,
10003875,1506883502463,,,,,,,,-0.05,0.04,1.05,-10.6,-0.7,-0.2,980,305,,,,,,,,,,,,,,,,,,
10003895,1506883502483,,,,,,,,-0.05,0.05,1.05,-10.6,-0.8,-0.1,1000,305,,,,,,,,,,,,,,,,,,
10003917,1506883502511,0,170.2,,185.6,22,195.0,,-0.05,0.05,1.05,-10.6,-0.9,-0.1,1000,305,0,1,0.0,35.49036,-119.544952,5.04,2.844,273.0,11,3,1.4,19,2.66,0,0.0,4.361,6.8467,20
10003936,1506883502530,,,,,,,,-0.05,0.06,1.05,-10.6,-0.8,-0.1,1000,306,,,,,,,,,,,,,,,,,,
10003956,1506883502550,,,,,,,,-0.05,0.06,1.04,-10.6,-0.6,-0.1,1000,305,,,,,,,,,,,,,,,,,,
10003976,1506883502570,,,,,,,,-0.04,0.07,1.03,-10.6,-0.6,-0.1,1000,305,,,,,,,,,,,,,,,,,,
10003996,1506883502590,,,,,,,,-0.04,0.08,1.03,-10.5,-0.4,-0.1,980,306,,,,,,,,,,,,,,,,,,
10004018,1506883502612,,,,,25,,,-0.04,0.09,1.03,-10.5,-0.3,-0.2,1000,306,0,1,0.0,35.49036,-119.54496,5.16,2.844,273.0,11,3,1.4,19,2.66,0,0.0,4.361,6.8483,20
10004037,1506883502631,,,,,,,,-0.03,0.1,1.02,-10.5,-0.3,-0.2,1000,308,,,,,,,,,,,,,,,,,,
10004057,1506883502651,,,,,,,,-0.03,0.11,1.0,-10.4,-0.3,-0.3,1000,309,,,,,,,,,,,,,,,,,,
10004077,1506883502671,,,,,,,,-0.03,0.12,0.99,-10.4,-0.2,-0.2,1000,308,,,,,,,,,,,,,,,,,,
10004097,1506883502691,,,,,,,,-0.02,0.12,0.98,-10.3,-0.1,-0.2,1020,308,,,,,,,,,,,,,,,,,,
10004119,1506883502713,0,170.6,,186.2,22,195.3,,-0.02,0.13,0.96,-10.3,-0.2,-0.1,1000,308,0,1,0.0,35.49036,-119.54496,5.22,2.845,273.0,11,3,1.4,19,2.66,0,0.0,4.361,6.85,20
10004138,1506883502732,,,,,,,,-0.01,0.12,0.95,-10.3,-0.0,-0.1,1020,309,,,,,,,,,,,,,,,,,,
10004158,1506883502752,,,,,,,,-0.02,0.1,0.94,-10.2,0.2,-0.1,1020,311,,,,,,,,,,,,,,,,,,
10004178,1506883502772,,,,,,,,-0.02,0.09,0.94,-10.2,0.3,0.0,1020,311,,,,,,,,,,,,,,,,,,
10004198,1506883502792,,,,,,,,-0.02,0.08,0.93,-10.2,0.4,0.0,1020,309,,,,,,,,,,,,,,,,,,
10004220,1506883502810,,,,,21,,,-0.03,0.08,0.93,-10.2,0.6,0.1,1020,311,0,1,0.0,35.49036,-119.54496,5.27,2.845,273.0,11,3,1.4,19,2.66,0,0.0,4.361,6.8517,20
10004239,1506883502829,,,,,,,,-0.03,0.08,0.94,-10.2,0.6,0.1,1000,309,,,,,,,,,,,,,,,,,,
10004259,1506883502849,,,,,,,,-0.03,0.1,0.93,-10.3,0.4,0.1,1020,311,,,,,,,,,,,,,,,,,,
10004279,1506883502869,,,,,,,,-0.03,0.1,0.93,-10.3,0.3,0.1,1000,311,,,,,,,,,,,,,,,,,,
10004299,1506883502889,,,,,,,,-0.03,0.1,0.93,-10.4,0.1,0.1,1020,312,,,,,,,,,,,,,,,,,,
10004321,1506883502912,0,170.6,-0.3,186.2,24,195.1,14.21,-0.03,0.1,0.93,-10.4,-0.1,0.1,1020,312,0,1,0.0,35.49036,-119.54496,5.44,2.845,273.0,11,3,1.4,19,2.66,0,0.0,4.361,6.8533,20
10004340,1506883502931,,,,,,,,-0.03,0.09,0.92,-10.4,-0.2,0.0,1000,312,,,,,,,,,,,,,,,,,,
10004360,1506883502951,,,,,,,,-0.02,0.09,0.93,-10.4,-0.4,-0.0,1020,312,,,,,,,,,,,,,,,,,,
10004380,1506883502971,,,,,,,,-0.02,0.09,0.93,-10.4,-0.5,-0.1,1020,314,,,,,,,,,,,,,,,,,,
10004400,1506883502991,,,,,,,,-0.01,0.09,0.94,-10.3,-0.5,-0.1,1020,315,,,,,,,,,,,,,,,,,,
10004422,1506883503007,,,,,22,,,-0.0,0.09,0.96,-10.3,-0.3,-0.1,1020,315,0,1,0.0,35.49036,-119.54496,5.21,2.845,272.9,11,3,1.4,19,2.66,0,0.0,4.361,6.855,20
10004441,1506883503026,,,,,,,,-0.01,0.09,0.98,-10.3,-0.3,-0.1,1020,315,,,,,,,,,,,,,,,,,,
10004461,1506883503046,,,,,,,,-0.01,0.1,0.99,-10.3,-0.4,-0.1,1040,317,,,,,,,,,,,,,,,,,,
10004481,1506883503066,,,,,,,,-0.01,0.09,1.01,-10.3,-0.4,-0.1,1040,318,,,,,,,,,,,,,,,,,,
10004501,1506883503086,,,,,,,,-0.01,0.09,1.02,-10.3,-0.4,-0.3,1040,317,,,,,,,,,,,,,,,,,,
10004523,1506883503112,0,170.3,,185.5,21,194.6,,-0.01,0.08,1.02,-10.2,-0.5,-0.4,1040,318,0,1,0.0,35.49036,-119.544975,5.91,2.845,273.1,11,3,1.4,19,2.66,0,0.0,4.361,6.8567,20
10004542,1506883503131,,,,,,,,-0.01,0.08,1.04,-10.1,-0.4,-0.5,1040,320,,,,,,,,,,,,,,,,,,
10004562,1506883503151,,,,,,,,-0.02,0.09,1.03,-10.1,-0.3,-0.5,1040,322,,,,,,,,,,,,,,,,,,
10004582,1506883503171,,,,,,,,-0.02,0.11,1.02,-10.1,-0.2,-0.3,1060,323,,,,,,,,,,,,,,,,,,
10004602,1506883503195,,,,,,,,-0.02,0.12,0.99,-10.1,-0.0,-0.2,1040,325,,,,,,,,,,,,,,,,,,
10004624,1506883503217,,,,,24,,,-0.02,0.12,0.98,-10.0,0.2,-0.2,1060,325,0,1,0.0,35.49036,-119.544975,5.2,2.845,273.0,11,3,1.4,19,2.66,0,0.0,4.361,6.8583,20
10004643,1506883503236,,,,,,,,-0.03,0.1,0.96,-9.8,0.3,-0.1,1060,325,,,,,,,,,,,,,,,,,,
10004663,1506883503256,,,,,,,,-0.04,0.1,0.95,-9.7,0.5,-0.0,1060,326,,,,,,,,,,,,,,,,,,
10004683,1506883503276,,,,,,,,-0.04,0.1,0.95,-9.6,0.3,-0.0,1060,329,,,,,,,,,,,,,,,,,,
10004703,1506883503296,,,,,,,,-0.04,0.1,0.95,-9.5,0.1,-0.0,1060,328,,,,,,,,,,,,,,,,,,
10004725,1506883503318,0,170.1,,185.4,24,194.3,,-0.05,0.08,0.94,-9.3,0.0,-0.1,1060,328,0,1,0.0,35.49036,-119.544975,5.63,2.845,273.0,11,3,1.4,19,2.66,0,0.0,4.361,6.86,20
10004744,1506883503337,,,,,,,,-0.05,0.08,0.97,-9.2,-0.2,-0.2,1060,325,,,,,,,,,,,,,,,,,,
10004764,1506883503357,,,,,,,,-0.05,0.07,0.99,-9.2,-0.5,-0.4,1060,325,,,,,,,,,,,,,,,,,,
10004784,1506883503377,,,,,,,,-0.05,0.06,0.99,-9.1,-0.5,-0.6,1060,326,,,,,,,,,,,,,,,,,,
10004804,1506883503397,,,,,,,,-0.05,0.05,1.0,-9.0,-0.4,-0.6,1060,328,,,,,,,,,,,,,,,,,,
10004826,1506883503419,,,,,24,,,-0.05,0.06,1.02,-8.8,-0.4,-0.6,1080,328,0,1,0.0,35.49036,-119.544975,5.21,2.846,273.0,11,3,1.4,19,2.66,0,0.0,4.361,6.8617,20
10004845,1506883503438,,,,,,,,-0.05,0.07,0.99,-8.8,-0.3,-0.5,1080,329,,,,,,,,,,,,,,,,,,
10004865,1506883503458,,,,,,,,-0.05,0.08,0.99,-8.7,-0.2,-0.5,1060,337,,,,,,,,,,,,,,,,,,
10004885,1506883503478,,,,,,,,-0.05,0.07,0.98,-8.6,-0.1,-0.3,1100,337,,,,,,,,,,,,,,,,,,
10004905,1506883503498,,,,,,,,-0.05,0.07,0.94,-8.6,-0.1,-0.1,1120,340,,,,,,,,,,,,,,,,,,
10004927,1506883503520,0,170.8,,185.9,24,193.9,,-0.05,0.07,0.95,-8.5,-0.1,0.0,1100,343,0,1,0.0,35.49036,-119.544975,5.45,2.846,272.9,11,3,1.4,19,2.66,0,0.0,4.361,6.8633,20
10004946,1506883503539,,,,,,,,-0.06,0.06,0.95,-8.4,-0.3,-0.0,1120,343,,,,,,,,,,,,,,,,,,
10004966,1506883503559,,,,,,,,-0.06,0.05,0.97,-8.4,-0.7,-0.1,1120,346,,,,,,,,,,,,,,,,,,
10004986,1506883503579,,,,,,,,-0.07,0.05,0.97,-8.4,-0.6,-0.2,1140,346,,,,,,,,,,,,,,,,,,
10005006,1506883503599,,,,,,,,-0.07,0.09,0.98,-8.3,-0.7,-0.1,1140,348,,,,,,,,,,,,,,,,,,
10005028,1506883503621,,,,,25,,,-0.06,0.09,0.97,-8.3,-0.6,-0.1,1140,349,0,1,0.0,35.49036,-119.544991,5.65,2.846,272.9,11,3,1.4,19,2.66,0,0.0,4.361,6.865,20
10005047,1506883503640,,,,,,,,-0.06,0.09,0.95,-8.3,-0.2,-0.0,1140,349,,,,,,,,,,,,,,,,,,
10005067,1506883503660,,,,,,,,-0.07,0.1,0.94,-8.3,-0.3,0.0,1140,349,,,,,,,,,,,,,,,,,,
10005087,1506883503680,,,,,,,,-0.08,0.09,0.96,-8.3,-0.7,-0.1,1140,348,,,,,,,,,,,,,,,,,,
10005107,1506883503700,,,,,,,,-0.07,0.08,0.95,-8.3,-0.5,-0.2,1140,348,,,,,,,,,,,,,,,,,,
10005129,1506883503722,0,170.7,,186.0,27,194.6,,-0.07,0.1,0.97,-8.3,-0.6,-0.1,1140,352,0,1,0.0,35.49036,-119.544991,5.77,2.846,272.8,11,3,1.4,19,2.66,0,0.0,4.361,6.8667,20
